passes_logs/2026/01/21/R2.0S_Moscow/R2.0S_Moscow__20260121_210649_FENGYUN_3G_rec.log

#Pass ID: 20260121_210649_FENGYUN 3G
#Satellite: FENGYUN 3G
#Configuration: FENGYUN 3G
#almurnet v.1.7.20251203
#Start time: 2026-01-21 21:06:52

#Version: 2.2.20231116
#Station: R2.0S_Moscow
#Location: 37.707566 lon 55.798166 lat
#TLE: 1 56232U 23055A   26020.45159834  .00088200  00000+0  13354-2 0  9997
#TLE: 2 56232  49.9936  27.7990 0004112  56.3402 303.7958 15.53862613157044

#Time	Az	El	Level	Level2	SNR	BER	BlckErr	Temp	State	Recorded	gain1	gain2
2026-01-21 21:06:52.03	255.93	2.14	-44.2	-62.3	3.8	8.46e-01	0	48	0	0	60	28174
2026-01-21 21:06:55.06	255.74	2.34	-44.2	-62.3	3.8	8.46e-01	0	48	104	0	60	28115
2026-01-21 21:06:58.09	255.54	2.55	-44.1	-62.3	3.8	8.46e-01	0	49	104	0	60	28174
2026-01-21 21:07:01.12	255.34	2.75	-44.1	-62.3	3.8	8.47e-01	0	49	104	0	60	28096
2026-01-21 21:07:04.15	255.13	2.96	-44.1	-62.2	3.8	8.45e-01	0	49	104	0	60	27763
2026-01-21 21:07:07.18	254.92	3.16	-44.1	-62.1	3.8	8.46e-01	0	49	104	0	60	27464
2026-01-21 21:07:10.21	254.70	3.37	-44.1	-62.2	3.8	8.46e-01	0	49	104	0	60	27967
2026-01-21 21:07:13.24	254.48	3.59	-44.1	-62.3	3.8	8.46e-01	0	50	104	0	60	28046
2026-01-21 21:07:16.27	254.26	3.80	-44.1	-62.2	3.8	8.47e-01	0	50	104	0	60	27896
2026-01-21 21:07:19.30	254.03	4.02	-44.1	-62.3	3.8	8.46e-01	0	50	104	0	60	28038
2026-01-21 21:07:22.33	253.79	4.24	-44.1	-62.2	3.8	8.46e-01	0	50	104	0	60	27874
2026-01-21 21:07:25.36	253.55	4.46	-44.1	-61.8	3.8	8.46e-01	0	51	104	0	60	26753
2026-01-21 21:07:28.39	253.31	4.68	-44.1	-61.6	3.8	8.47e-01	0	51	104	0	60	26081
2026-01-21 21:07:31.42	253.06	4.91	-44.1	-61.5	3.8	8.46e-01	0	51	104	0	60	25662
2026-01-21 21:07:34.45	252.80	5.14	-44.1	-61.9	3.8	8.47e-01	0	51	104	0	60	26897
2026-01-21 21:07:37.48	252.54	5.37	-44.1	-61.2	3.8	8.46e-01	0	51	104	0	60	24820
2026-01-21 21:07:40.51	252.27	5.60	-44.1	-59.8	3.8	8.44e-01	0	51	104	0	60	21098
2026-01-21 21:07:43.54	252.00	5.84	-44.0	-58.9	4.2	8.40e-01	0	51	0	0	60	19031
2026-01-21 21:07:46.57	251.71	6.08	-44.0	-58.5	4.3	8.38e-01	0	51	0	0	60	18265
2026-01-21 21:07:49.60	251.43	6.32	-44.0	-57.9	4.5	8.32e-01	0	52	0	0	60	16954
2026-01-21 21:07:52.63	251.13	6.57	-43.9	-55.0	6.1	7.74e-01	0	52	0	0	59	12908
2026-01-21 21:07:55.66	250.83	6.82	-43.4	-51.5	9.5	9.73e-02	0	52	0	3670016	58	9094
2026-01-21 21:07:58.70	250.52	7.07	-43.2	-50.4	10.7	5.19e-03	0	52	0	6815744	58	8058
2026-01-21 21:08:01.73	250.20	7.33	-43.7	-53.5	7.6	7.27e-03	0	52	0	10485760	58	11438
2026-01-21 21:08:04.76	249.87	7.58	-44.2	-59.4	4.0	5.54e-01	0	52	104	11534336	58	22603
2026-01-21 21:08:07.79	249.54	7.85	-42.9	-49.4	11.5	5.44e-01	0	52	0	13631488	57	7627
2026-01-21 21:08:10.82	249.19	8.11	-43.1	-50.0	11.5	2.86e-05	0	52	0	16777216	56	8609
2026-01-21 21:08:13.84	248.84	8.38	-44.2	-58.4	4.8	1.05e-01	0	53	0	20447232	58	20122
2026-01-21 21:08:16.87	248.48	8.65	-41.4	-45.7	15.4	5.70e-06	0	53	0	23068672	54	5897
2026-01-21 21:08:19.90	248.11	8.93	-40.7	-44.4	16.8	0.00e+00	0	53	0	26214400	53	5365
2026-01-21 21:08:22.93	247.73	9.21	-40.6	-44.1	17.1	0.00e+00	0	53	0	29884416	53	5200
2026-01-21 21:08:25.96	247.34	9.49	-40.5	-43.9	17.3	0.00e+00	0	53	0	33030144	53	5098
2026-01-21 21:08:28.99	246.94	9.78	-40.6	-44.0	17.2	0.00e+00	0	53	0	36700160	53	5147
2026-01-21 21:08:32.01	246.53	10.07	-40.6	-44.1	17.2	0.00e+00	0	53	0	39845888	53	5196
2026-01-21 21:08:35.04	246.10	10.36	-40.6	-44.0	17.3	0.00e+00	0	53	0	43515904	53	5146
2026-01-21 21:08:38.07	245.67	10.66	-40.4	-43.6	17.8	0.00e+00	0	53	0	46661632	52	5190
2026-01-21 21:08:41.10	245.22	10.97	-40.4	-43.6	17.7	0.00e+00	0	53	0	50331648	52	5215
2026-01-21 21:08:44.13	244.76	11.27	-40.5	-43.8	17.7	0.00e+00	0	54	0	53477376	52	5292
2026-01-21 21:08:47.15	244.28	11.59	-40.5	-43.7	17.7	0.00e+00	0	54	0	57147392	52	5255
2026-01-21 21:08:50.18	243.79	11.90	-40.1	-43.0	18.5	0.00e+00	0	54	0	60293120	51	5122
2026-01-21 21:08:53.21	243.29	12.22	-40.1	-43.0	18.5	0.00e+00	0	54	0	63963136	51	5153
2026-01-21 21:08:56.24	242.77	12.55	-40.2	-43.1	18.4	0.00e+00	0	54	0	67108864	51	5207
2026-01-21 21:08:59.27	242.24	12.88	-40.2	-43.2	18.4	0.00e+00	0	54	0	70778880	51	5235
2026-01-21 21:09:02.30	241.69	13.22	-40.1	-43.1	18.5	0.00e+00	0	54	0	73924608	51	5173
2026-01-21 21:09:05.33	241.12	13.56	-39.9	-42.6	18.9	0.00e+00	0	54	0	77594624	51	4925
2026-01-21 21:09:08.36	240.54	13.90	-39.8	-42.6	19.0	0.00e+00	0	54	0	80740352	51	4902
2026-01-21 21:09:11.39	239.94	14.25	-39.8	-42.6	19.1	0.00e+00	0	54	0	84410368	51	4884
2026-01-21 21:09:14.41	239.32	14.61	-39.8	-42.5	19.1	0.00e+00	0	54	0	87556096	51	4848
2026-01-21 21:09:17.44	238.68	14.97	-39.5	-42.1	19.6	0.00e+00	0	54	0	91226112	51	4636
2026-01-21 21:09:20.47	238.02	15.33	-39.5	-42.0	19.7	0.00e+00	0	54	0	94371840	50	4853
2026-01-21 21:09:23.50	237.34	15.70	-39.5	-42.0	19.7	0.00e+00	0	54	0	98041856	50	4853
2026-01-21 21:09:26.53	236.63	16.07	-39.4	-42.0	19.8	0.00e+00	0	55	0	101187584	50	4828
2026-01-21 21:09:29.56	235.91	16.45	-39.1	-41.4	20.3	0.00e+00	0	55	0	104857600	50	4544
2026-01-21 21:09:32.59	235.16	16.84	-38.8	-41.1	20.7	0.00e+00	0	55	0	108003328	49	4618
2026-01-21 21:09:35.62	234.38	17.22	-39.1	-41.6	20.3	0.00e+00	0	55	0	111673344	49	4874
2026-01-21 21:09:38.65	233.58	17.61	-39.1	-41.5	20.3	0.00e+00	0	55	0	114819072	49	4843
2026-01-21 21:09:41.67	232.76	18.01	-38.6	-40.8	21.0	0.00e+00	0	55	0	118489088	49	4457
2026-01-21 21:09:44.70	231.91	18.41	-38.7	-40.9	20.9	0.00e+00	0	54	0	121634816	49	4526
2026-01-21 21:09:47.73	231.03	18.81	-38.9	-41.3	20.6	0.00e+00	0	55	0	125304832	49	4710
2026-01-21 21:09:50.76	230.11	19.22	-38.7	-41.0	20.9	0.00e+00	0	55	0	128450560	49	4558
2026-01-21 21:09:53.78	229.18	19.62	-38.3	-40.4	21.4	0.00e+00	0	55	0	132120576	48	4541
2026-01-21 21:09:56.81	228.20	20.04	-38.5	-40.7	21.2	0.00e+00	0	55	0	135266304	48	4684
2026-01-21 21:09:59.84	227.20	20.45	-38.5	-40.7	21.2	0.00e+00	0	55	0	138936320	48	4684
2026-01-21 21:10:02.87	226.16	20.86	-38.4	-40.5	21.4	0.00e+00	0	55	0	142082048	48	4567
2026-01-21 21:10:05.90	225.09	21.28	-37.8	-39.8	22.0	0.00e+00	0	55	0	145752064	47	4462
2026-01-21 21:10:08.93	223.98	21.69	-38.0	-40.0	21.9	0.00e+00	0	55	0	148897792	47	4583
2026-01-21 21:10:11.96	222.84	22.10	-38.3	-40.4	21.5	0.00e+00	0	55	0	152567808	47	4811
2026-01-21 21:10:14.98	221.66	22.51	-38.2	-40.3	21.6	0.00e+00	0	55	0	155713536	47	4730
2026-01-21 21:10:18.01	220.45	22.92	-37.8	-39.8	22.2	0.00e+00	0	55	0	158859264	47	4458
2026-01-21 21:10:21.04	219.19	23.33	-37.7	-39.7	22.3	0.00e+00	0	55	0	162529280	47	4413
2026-01-21 21:10:24.06	217.90	23.73	-37.8	-39.8	22.1	0.00e+00	0	55	0	165675008	47	4472
2026-01-21 21:10:27.09	216.57	24.12	-37.8	-39.8	22.2	0.00e+00	0	55	0	169345024	47	4444
2026-01-21 21:10:30.12	215.20	24.51	-37.7	-39.6	22.3	0.00e+00	0	55	0	172490752	47	4385
2026-01-21 21:10:33.15	213.79	24.89	-37.5	-39.4	22.6	0.00e+00	0	56	0	176160768	46	4528
2026-01-21 21:10:36.18	212.34	25.26	-37.8	-39.8	22.3	0.00e+00	0	56	0	179830784	46	4708
2026-01-21 21:10:39.21	210.85	25.61	-37.6	-39.5	22.5	0.00e+00	0	56	0	182976512	46	4584
2026-01-21 21:10:42.24	209.32	25.96	-37.3	-39.1	22.8	0.00e+00	0	56	0	186646528	46	4391
2026-01-21 21:10:45.27	207.75	26.29	-37.4	-39.3	22.6	0.00e+00	0	56	0	189792256	46	4483
2026-01-21 21:10:48.30	206.15	26.60	-37.1	-39.0	23.0	0.00e+00	0	55	0	193462272	46	4300
2026-01-21 21:10:51.32	204.52	26.89	-37.1	-38.9	23.1	0.00e+00	0	56	0	196608000	45	4534
2026-01-21 21:10:54.35	202.84	27.17	-36.9	-38.8	23.2	0.00e+00	0	55	0	199753728	45	4458
2026-01-21 21:10:57.37	201.14	27.42	-37.2	-39.1	22.9	0.00e+00	0	56	0	203423744	45	4604
2026-01-21 21:11:00.40	199.41	27.65	-36.8	-38.6	23.3	0.00e+00	0	55	0	206569472	45	4366
2026-01-21 21:11:03.43	197.65	27.86	-36.7	-38.5	23.4	0.00e+00	0	56	0	210239488	45	4328
2026-01-21 21:11:06.46	195.86	28.04	-36.6	-38.3	23.6	0.00e+00	0	56	0	213385216	45	4235
2026-01-21 21:11:09.49	194.06	28.20	-37.0	-38.8	23.2	0.00e+00	0	56	0	217055232	45	4451
2026-01-21 21:11:12.52	192.23	28.33	-37.4	-39.3	22.6	0.00e+00	0	56	0	220200960	45	4724
2026-01-21 21:11:15.55	190.39	28.43	-37.7	-39.7	22.3	0.00e+00	0	56	0	223870976	45	4928
2026-01-21 21:11:18.58	188.54	28.50	-37.2	-39.1	22.8	0.00e+00	0	56	0	227540992	45	4633
2026-01-21 21:11:21.61	186.68	28.54	-37.2	-39.0	22.9	0.00e+00	0	56	0	230686720	45	4594
2026-01-21 21:11:24.64	184.82	28.55	-37.2	-39.1	22.8	0.00e+00	0	56	0	234356736	45	4626
2026-01-21 21:11:27.65	182.97	28.53	-37.2	-39.1	22.9	0.00e+00	0	56	0	237502464	45	4607
2026-01-21 21:11:30.68	181.11	28.48	-37.3	-39.1	22.8	0.00e+00	0	56	0	240648192	45	4649
2026-01-21 21:11:33.71	179.26	28.40	-37.2	-39.0	22.9	0.00e+00	0	56	0	244318208	45	4598
2026-01-21 21:11:36.74	177.43	28.29	-37.1	-39.0	23.0	0.00e+00	0	56	0	247463936	45	4563
2026-01-21 21:11:39.76	175.61	28.16	-37.2	-39.1	22.8	0.00e+00	0	56	0	251133952	45	4629
2026-01-21 21:11:42.79	173.81	27.99	-37.0	-38.8	23.2	0.00e+00	0	56	0	254279680	45	4482
2026-01-21 21:11:45.82	172.03	27.80	-37.2	-39.0	22.9	0.00e+00	0	56	0	257949696	45	4594
2026-01-21 21:11:48.85	170.28	27.59	-36.7	-38.5	23.4	0.00e+00	0	56	0	261095424	44	4589
2026-01-21 21:11:51.87	168.56	27.35	-37.1	-39.0	22.9	0.00e+00	0	56	0	264765440	44	4847
2026-01-21 21:11:54.90	166.87	27.09	-36.8	-38.6	23.4	0.00e+00	0	56	0	267911168	45	4386
2026-01-21 21:11:57.93	165.20	26.81	-37.1	-39.0	23.1	0.00e+00	0	56	0	271581184	45	4551
2026-01-21 21:12:00.96	163.58	26.51	-36.9	-38.7	23.4	0.00e+00	0	56	0	274726912	45	4428
2026-01-21 21:12:03.99	161.99	26.19	-37.3	-39.2	22.9	0.00e+00	0	56	0	278396928	45	4682
2026-01-21 21:12:07.02	160.43	25.86	-38.0	-40.1	22.0	0.00e+00	0	56	0	281542656	46	4889
2026-01-21 21:12:10.04	158.92	25.51	-37.6	-39.6	22.5	0.00e+00	0	56	0	285212672	46	4622
2026-01-21 21:12:13.07	157.44	25.15	-37.9	-39.9	22.2	0.00e+00	0	56	0	288358400	46	4778
2026-01-21 21:12:16.10	156.00	24.78	-37.9	-40.0	22.2	0.00e+00	0	56	0	292028416	46	4830
2026-01-21 21:12:19.13	154.60	24.40	-38.0	-40.0	22.0	0.00e+00	0	56	0	295174144	47	4598
2026-01-21 21:12:22.16	153.24	24.01	-38.1	-40.2	21.9	0.00e+00	0	56	0	298844160	47	4686
2026-01-21 21:12:25.19	151.92	23.61	-38.0	-40.1	22.0	0.00e+00	0	56	0	301989888	47	4640
2026-01-21 21:12:28.22	150.64	23.21	-37.7	-39.7	22.5	0.00e+00	0	56	0	305659904	47	4409
2026-01-21 21:12:31.25	149.40	22.80	-38.3	-40.4	21.7	0.00e+00	0	56	0	308805632	47	4790
2026-01-21 21:12:34.28	148.19	22.39	-37.9	-40.0	22.1	0.00e+00	0	56	0	312475648	47	4576
2026-01-21 21:12:37.31	147.02	21.98	-38.0	-40.0	22.1	0.00e+00	0	57	0	315621376	47	4584
2026-01-21 21:12:40.34	145.89	21.57	-38.2	-40.3	21.8	0.00e+00	0	56	0	319291392	47	4755
2026-01-21 21:12:43.36	144.80	21.15	-38.3	-40.5	21.7	0.00e+00	0	56	0	322437120	47	4823
2026-01-21 21:12:46.39	143.74	20.74	-38.3	-40.5	21.7	0.00e+00	0	56	0	326107136	47	4819
2026-01-21 21:12:49.43	142.71	20.32	-38.5	-40.7	21.5	0.00e+00	0	56	0	329252864	47	4929
2026-01-21 21:12:52.45	141.71	19.91	-38.7	-40.9	21.3	0.00e+00	0	56	0	332922880	48	4795
2026-01-21 21:12:55.48	140.75	19.50	-38.5	-40.6	21.6	0.00e+00	0	56	0	336068608	48	4647
2026-01-21 21:12:58.51	139.82	19.10	-38.6	-40.8	21.4	0.00e+00	0	56	0	339738624	48	4736
2026-01-21 21:13:01.54	138.92	18.69	-38.6	-40.8	21.4	0.00e+00	0	56	0	342884352	48	4715
2026-01-21 21:13:04.56	138.05	18.29	-38.9	-41.3	20.9	0.00e+00	0	56	0	346554368	48	4991
2026-01-21 21:13:07.59	137.20	17.89	-38.7	-40.9	21.2	0.00e+00	0	56	0	349700096	48	4793
2026-01-21 21:13:10.62	136.39	17.50	-39.0	-41.4	20.6	0.00e+00	0	56	0	353370112	48	5086
2026-01-21 21:13:13.65	135.59	17.11	-39.1	-41.5	20.6	0.00e+00	0	57	0	356515840	48	5119
2026-01-21 21:13:16.68	134.83	16.72	-39.3	-41.8	20.1	0.00e+00	0	56	0	360185856	49	5028
2026-01-21 21:13:19.70	134.09	16.34	-39.0	-41.7	19.7	1.94e-05	0	56	0	363331584	48	5228
2026-01-21 21:13:22.73	133.37	15.96	-39.3	-41.9	19.5	7.43e-05	0	57	0	367001600	49	5059
2026-01-21 21:13:25.76	132.67	15.59	-39.3	-42.1	19.0	2.79e-04	0	57	0	370147328	49	5172
2026-01-21 21:13:28.79	132.00	15.22	-35.8	-42.3	14.0	4.31e-03	0	56	0	373817344	45	6647
2026-01-21 21:13:31.82	131.34	14.86	-39.0	-42.1	18.0	6.83e-03	0	56	0	376963072	48	5467
2026-01-21 21:13:34.85	130.71	14.50	-39.2	-42.6	16.7	6.52e-04	0	56	0	380633088	48	5842
2026-01-21 21:13:37.87	130.09	14.15	-36.2	-43.0	15.6	5.24e-03	0	56	0	383778816	48	6079
2026-01-21 21:13:40.90	129.50	13.80	-36.0	-42.3	13.3	1.53e-01	0	57	0	386924544	42	7989
2026-01-21 21:13:43.93	128.92	13.46	-37.1	-43.1	12.7	3.23e-02	0	57	0	390594560	44	7788
2026-01-21 21:13:46.96	128.36	13.12	-27.5	-41.0	7.0	2.52e-01	0	56	0	393216000	23	20426
2026-01-21 21:13:49.99	127.81	12.79	-30.8	-42.6	6.7	3.38e-01	0	57	0	395313152	26	20680
2026-01-21 21:13:53.01	127.29	12.46	-26.9	-41.6	7.1	5.38e-01	0	57	0	396886016	27	17406
2026-01-21 21:13:56.04	126.77	12.13	-30.1	-42.4	6.3	3.64e-01	0	57	0	398983168	27	18951
2026-01-21 21:13:59.07	126.27	11.81	-27.4	-42.4	8.0	5.79e-01	0	57	0	398983168	29	16960
2026-01-21 21:14:02.10	125.79	11.50	-27.8	-41.5	7.1	6.52e-01	0	57	0	399507456	28	16152
2026-01-21 21:14:05.12	125.32	11.19	-26.7	-41.5	6.7	4.67e-01	0	57	0	401080320	25	19218
2026-01-21 21:14:08.16	124.86	10.88	-30.0	-43.0	6.9	7.69e-01	0	57	0	401080320	32	15376
2026-01-21 21:14:11.19	124.42	10.58	-25.0	-42.8	5.3	5.82e-01	0	57	0	402653184	26	21035
2026-01-21 21:14:14.21	123.99	10.28	-34.0	-43.6	10.2	5.67e-01	0	56	0	403701760	40	10362
2026-01-21 21:14:17.24	123.56	9.98	-28.0	-43.4	6.4	4.37e-01	0	57	0	405798912	30	18076
2026-01-21 21:14:20.27	123.16	9.69	-27.9	-45.0	5.6	4.00e-01	0	57	0	407896064	27	25640
2026-01-21 21:14:23.30	122.76	9.41	-32.3	-46.2	7.9	4.64e-01	0	57	0	409468928	34	19827
2026-01-21 21:14:26.33	122.37	9.13	-33.9	-46.2	9.9	4.99e-01	0	57	0	411566080	43	11706
2026-01-21 21:14:29.35	121.99	8.85	-39.4	-45.1	13.1	7.32e-02	0	57	0	415236096	49	7361
2026-01-21 21:14:32.38	121.62	8.57	-39.0	-45.4	12.3	7.55e-02	0	57	0	418381824	48	8040
2026-01-21 21:14:35.42	121.26	8.30	-35.6	-45.5	11.3	1.61e-01	0	57	0	421527552	44	10290
2026-01-21 21:14:38.44	120.92	8.03	-20.5	-42.7	8.0	6.39e-02	0	57	0	424673280	23	24751
2026-01-21 21:14:41.47	120.58	7.77	-45.1	-63.4	3.8	8.46e-01	0	57	104	424673280	60	31943
2026-01-21 21:14:44.50	120.24	7.51	-45.5	-63.8	3.8	8.45e-01	0	57	104	424673280	61	31754
2026-01-21 21:14:47.53	119.92	7.25	-45.8	-64.1	3.8	8.47e-01	0	57	104	424673280	62	31032
2026-01-21 21:14:50.56	119.60	7.00	-45.6	-63.8	3.8	8.47e-01	0	57	104	424673280	62	29789
2026-01-21 21:14:53.59	119.30	6.75	-45.5	-63.6	3.8	8.45e-01	0	57	104	424673280	62	29182
2026-01-21 21:14:56.62	118.99	6.50	-45.4	-63.4	3.8	8.46e-01	0	57	104	424673280	62	28662
2026-01-21 21:14:59.65	118.70	6.26	-45.4	-63.4	3.8	8.45e-01	0	57	104	424673280	62	28671
2026-01-21 21:15:02.68	118.41	6.01	-45.3	-63.4	3.8	8.46e-01	0	57	104	424673280	61	30269
2026-01-21 21:15:05.71	118.13	5.77	-45.3	-63.4	3.8	8.46e-01	0	57	104	424673280	61	30169
2026-01-21 21:15:08.74	117.86	5.54	-45.3	-63.4	3.8	8.46e-01	0	57	104	424673280	61	30138
2026-01-21 21:15:11.77	117.59	5.31	-45.3	-63.4	3.8	8.45e-01	0	57	104	424673280	61	30138
2026-01-21 21:15:14.80	117.33	5.07	-45.3	-63.4	3.8	8.46e-01	0	57	104	424673280	61	30095
2026-01-21 21:15:17.84	117.08	4.85	-45.3	-63.4	3.8	8.46e-01	0	57	104	424673280	61	30195
2026-01-21 21:15:20.87	116.83	4.62	-45.3	-63.4	3.8	8.47e-01	0	57	104	424673280	61	30105
2026-01-21 21:15:23.90	116.58	4.40	-45.3	-63.4	3.8	8.47e-01	0	57	104	424673280	61	30049
2026-01-21 21:15:26.93	116.35	4.18	-45.3	-63.3	3.8	8.47e-01	0	57	104	424673280	61	30023
2026-01-21 21:15:29.96	116.11	3.96	-45.3	-63.3	3.8	8.47e-01	0	57	104	424673280	61	29943
2026-01-21 21:15:32.99	115.88	3.74	-45.3	-63.4	3.8	8.48e-01	0	57	104	424673280	61	30060
2026-01-21 21:15:36.02	115.66	3.53	-45.3	-63.4	3.8	8.46e-01	0	57	104	424673280	61	30070
2026-01-21 21:15:39.05	115.44	3.32	-45.2	-63.3	3.8	8.45e-01	0	57	104	424673280	61	29899
2026-01-21 21:15:42.08	115.23	3.11	-45.3	-63.3	3.8	8.46e-01	0	57	104	424673280	61	29979
2026-01-21 21:15:45.11	115.02	2.90	-45.2	-63.3	3.8	8.46e-01	0	57	104	424673280	61	29968
2026-01-21 21:15:48.14	114.81	2.69	-45.3	-63.3	3.8	8.46e-01	0	57	104	424673280	61	30015
2026-01-21 21:15:51.16	114.61	2.49	-45.3	-63.3	3.8	8.46e-01	0	57	104	424673280	61	30007
2026-01-21 21:15:54.18	114.42	2.29	-45.3	-63.3	3.8	8.46e-01	0	57	104	424673280	61	29962
2026-01-21 21:15:57.21	114.22	2.09	-45.3	-63.3	3.8	8.46e-01	0	57	104	424673280	61	29865

#Closed at: 2026-01-21 21:16:00
#Recorded file [424 MB]: D:/lorett/data/31039_260122_000651.dat