passes_logs/2026/01/21/R2.0S_Moscow/R2.0S_Moscow__20260121_133227_FENGYUN_3D_rec.log

#Pass ID: 20260121_133227_FENGYUN 3D
#Satellite: FENGYUN 3D
#Configuration: FENGYUN 3D
#almurnet v.1.7.20251203
#Start time: 2026-01-21 13:32:27

#Version: 2.2.20231116
#Station: R2.0S_Moscow
#Location: 37.707566 lon 55.798166 lat
#TLE: 1 43010U 17072A   26020.92362722 -.00000077  00000+0 -14488-4 0  9992
#TLE: 2 43010  98.9946 352.8312 0002486  99.3651 260.7806 14.19696535424099

#Time	Az	El	Level	Level2	SNR	BER	BlckErr	Temp	State	Recorded	gain1	gain2
2026-01-21 13:32:27.49	207.94	2.01	-43.9	-55.5	3.8	8.46e-01	0	50	0	0	59	13587
2026-01-21 13:32:31.53	208.23	2.23	-43.9	-55.5	3.8	8.47e-01	0	50	104	0	59	13585
2026-01-21 13:32:35.57	208.53	2.45	-43.9	-55.5	3.8	8.47e-01	0	51	104	0	59	13595
2026-01-21 13:32:39.61	208.84	2.68	-43.9	-55.4	3.8	8.45e-01	0	51	104	0	59	13541
2026-01-21 13:32:43.65	209.15	2.90	-43.9	-55.5	3.8	8.46e-01	0	51	104	0	59	13641
2026-01-21 13:32:47.69	209.46	3.13	-43.9	-55.4	3.8	8.46e-01	0	51	104	0	59	13541
2026-01-21 13:32:51.73	209.78	3.35	-43.9	-55.5	3.8	8.47e-01	0	52	104	0	59	13597
2026-01-21 13:32:55.77	210.11	3.58	-43.9	-55.5	3.8	8.47e-01	0	52	104	0	59	13588
2026-01-21 13:32:59.81	210.44	3.81	-43.9	-55.5	3.8	8.45e-01	0	52	104	0	59	13584
2026-01-21 13:33:03.85	210.77	4.04	-43.9	-55.5	3.8	8.46e-01	0	53	104	0	59	13607
2026-01-21 13:33:07.89	211.11	4.27	-43.9	-55.4	3.8	8.46e-01	0	53	104	0	59	13519
2026-01-21 13:33:11.93	211.45	4.51	-43.9	-55.5	3.8	8.46e-01	0	53	104	0	59	13585
2026-01-21 13:33:15.97	211.80	4.74	-43.9	-55.4	3.8	8.46e-01	0	53	104	0	59	13532
2026-01-21 13:33:20.02	212.16	4.98	-43.9	-55.4	3.8	8.47e-01	0	53	104	0	59	13524
2026-01-21 13:33:24.06	212.52	5.21	-43.9	-55.4	3.8	8.47e-01	0	54	104	0	59	13516
2026-01-21 13:33:28.10	212.89	5.45	-43.8	-55.2	3.8	8.47e-01	0	54	104	0	59	13171
2026-01-21 13:33:32.14	213.26	5.69	-43.8	-55.0	3.8	8.46e-01	0	54	104	0	59	12894
2026-01-21 13:33:36.18	213.64	5.93	-43.8	-54.6	3.8	8.46e-01	0	54	104	0	59	12300
2026-01-21 13:33:40.22	214.02	6.17	-43.7	-53.6	3.8	8.45e-01	0	54	104	0	59	10974
2026-01-21 13:33:44.26	214.41	6.41	-43.4	-51.5	4.3	8.34e-01	0	54	0	0	58	9129
2026-01-21 13:33:48.29	214.80	6.66	-42.8	-49.0	5.5	6.88e-01	0	55	0	0	57	7281
2026-01-21 13:33:52.32	215.21	6.90	-42.4	-47.8	6.5	2.67e-01	0	55	0	18874368	56	6667
2026-01-21 13:33:56.36	215.62	7.15	-42.7	-48.8	5.7	4.38e-01	0	55	0	41943040	56	7482
2026-01-21 13:34:00.40	216.03	7.39	-42.5	-47.9	6.3	3.37e-01	0	55	0	62914560	56	6782
2026-01-21 13:34:04.43	216.45	7.64	-40.8	-44.3	9.7	2.17e-02	0	55	0	84934656	53	5311
2026-01-21 13:34:08.47	216.88	7.89	-39.7	-42.3	11.8	7.92e-04	0	55	0	108003328	51	4754
2026-01-21 13:34:12.51	217.32	8.14	-40.4	-43.5	10.8	1.15e-03	0	55	0	130023424	51	5442
2026-01-21 13:34:16.55	217.77	8.39	-40.9	-44.3	9.8	3.65e-01	0	56	0	144703488	53	5316
2026-01-21 13:34:20.59	218.22	8.64	-39.5	-42.0	12.4	2.24e-04	0	55	0	166723584	51	4556
2026-01-21 13:34:24.62	218.68	8.90	-39.4	-41.8	12.7	1.44e-04	0	56	0	189792256	50	4727
2026-01-21 13:34:28.66	219.15	9.15	-39.2	-41.5	13.0	8.35e-05	0	56	0	211812352	50	4593
2026-01-21 13:34:32.70	219.62	9.41	-39.0	-41.2	13.3	3.66e-05	0	56	0	234881024	50	4431
2026-01-21 13:34:36.74	220.10	9.66	-39.2	-41.5	13.1	5.49e-05	0	56	0	257949696	50	4564
2026-01-21 13:34:40.78	220.60	9.92	-39.0	-41.2	13.4	2.51e-05	0	56	0	279969792	50	4423
2026-01-21 13:34:44.82	221.10	10.18	-38.9	-41.0	13.6	1.25e-05	0	56	0	303038464	49	4568
2026-01-21 13:34:48.86	221.61	10.44	-38.8	-40.9	13.8	1.25e-05	0	56	0	326107136	49	4516
2026-01-21 13:34:52.90	222.12	10.70	-38.9	-41.1	13.6	1.14e-05	0	57	0	349175808	49	4603
2026-01-21 13:34:56.94	222.65	10.96	-38.9	-41.0	13.7	1.37e-05	0	57	0	371195904	49	4579
2026-01-21 13:35:00.97	223.19	11.22	-39.0	-41.1	13.6	9.10e-06	0	57	0	394264576	49	4635
2026-01-21 13:35:05.01	223.73	11.48	-38.8	-40.9	13.9	9.10e-06	0	57	0	416284672	49	4529
2026-01-21 13:35:09.05	224.29	11.74	-38.7	-40.7	14.1	1.10e-06	0	57	0	439353344	49	4437
2026-01-21 13:35:13.08	224.85	12.00	-38.7	-40.8	14.0	3.40e-06	0	57	0	462422016	49	4454
2026-01-21 13:35:17.12	225.42	12.26	-38.8	-40.8	14.0	2.20e-06	0	57	0	484442112	49	4492
2026-01-21 13:35:21.15	226.01	12.52	-38.6	-40.6	14.2	2.20e-06	0	57	0	507510784	49	4375
2026-01-21 13:35:25.19	226.60	12.79	-38.5	-40.4	14.4	0.00e+00	0	57	0	530579456	49	4288
2026-01-21 13:35:29.24	227.21	13.05	-38.4	-40.2	14.7	0.00e+00	0	57	0	553648128	48	4439
2026-01-21 13:35:33.28	227.82	13.31	-38.5	-40.5	14.5	0.00e+00	0	57	0	575668224	48	4552
2026-01-21 13:35:37.31	228.45	13.57	-38.4	-40.4	14.6	1.10e-06	0	57	0	598736896	48	4504
2026-01-21 13:35:41.35	229.08	13.84	-38.4	-40.3	14.6	0.00e+00	0	58	0	620756992	48	4486
2026-01-21 13:35:45.39	229.73	14.10	-38.4	-40.3	14.7	0.00e+00	0	58	0	643825664	48	4451
2026-01-21 13:35:49.42	230.39	14.36	-38.4	-40.3	14.7	0.00e+00	0	57	0	666894336	48	4484
2026-01-21 13:35:53.46	231.06	14.62	-38.2	-40.1	14.9	0.00e+00	0	58	0	688914432	48	4352
2026-01-21 13:35:57.50	231.74	14.88	-38.1	-40.0	15.0	0.00e+00	0	58	0	711983104	48	4306
2026-01-21 13:36:01.55	232.44	15.14	-38.1	-39.9	15.1	0.00e+00	0	58	0	735051776	48	4288
2026-01-21 13:36:05.59	233.14	15.39	-38.1	-39.9	15.1	0.00e+00	0	58	0	758120448	48	4267
2026-01-21 13:36:09.63	233.86	15.65	-37.9	-39.7	15.3	0.00e+00	0	58	0	780140544	47	4402
2026-01-21 13:36:13.67	234.59	15.90	-37.9	-39.7	15.3	0.00e+00	0	58	0	803209216	47	4394
2026-01-21 13:36:17.71	235.33	16.15	-37.9	-39.7	15.2	0.00e+00	0	58	0	825229312	47	4441
2026-01-21 13:36:21.76	236.08	16.40	-37.8	-39.6	15.4	0.00e+00	0	58	0	848297984	47	4366
2026-01-21 13:36:25.79	236.85	16.65	-37.7	-39.4	15.6	0.00e+00	0	58	0	871366656	47	4261
2026-01-21 13:36:29.83	237.62	16.90	-37.6	-39.3	15.7	0.00e+00	0	58	0	894435328	47	4224
2026-01-21 13:36:33.87	238.41	17.14	-37.7	-39.4	15.6	0.00e+00	0	58	0	916455424	47	4276
2026-01-21 13:36:37.91	239.22	17.38	-37.7	-39.4	15.6	0.00e+00	0	58	0	939524096	47	4286
2026-01-21 13:36:41.95	240.03	17.61	-37.6	-39.3	15.7	0.00e+00	0	58	0	962592768	47	4204
2026-01-21 13:36:45.99	240.86	17.85	-37.4	-39.0	16.0	0.00e+00	0	58	0	984612864	46	4324
2026-01-21 13:36:50.03	241.70	18.08	-37.4	-39.1	16.0	0.00e+00	0	58	0	1007681536	46	4343
2026-01-21 13:36:54.07	242.55	18.30	-37.4	-39.0	16.0	0.00e+00	0	58	0	1029701632	46	4319
2026-01-21 13:36:58.11	243.42	18.52	-37.3	-38.9	16.1	0.00e+00	0	58	0	1052770304	46	4258
2026-01-21 13:37:02.15	244.29	18.74	-37.5	-39.1	15.9	0.00e+00	0	58	0	1075838976	46	4386
2026-01-21 13:37:06.19	245.18	18.95	-37.3	-39.0	16.1	0.00e+00	0	58	0	1098907648	46	4295
2026-01-21 13:37:10.23	246.08	19.16	-37.3	-38.9	16.1	0.00e+00	0	58	0	1120927744	46	4265
2026-01-21 13:37:14.27	246.99	19.36	-37.3	-38.9	16.1	0.00e+00	0	58	0	1143996416	46	4277
2026-01-21 13:37:18.31	247.92	19.56	-37.1	-38.7	16.4	0.00e+00	0	58	0	1167065088	46	4153
2026-01-21 13:37:22.35	248.85	19.75	-36.9	-38.4	16.6	0.00e+00	0	58	0	1189085184	45	4281
2026-01-21 13:37:26.38	249.80	19.93	-37.0	-38.5	16.5	0.00e+00	0	58	0	1212153856	45	4327
2026-01-21 13:37:30.42	250.76	20.11	-36.8	-38.3	16.8	0.00e+00	0	58	0	1234173952	45	4211
2026-01-21 13:37:34.45	251.72	20.28	-37.0	-38.6	16.5	0.00e+00	0	58	0	1257242624	45	4372
2026-01-21 13:37:38.49	252.70	20.44	-36.9	-38.5	16.6	0.00e+00	0	58	0	1280311296	45	4315
2026-01-21 13:37:42.53	253.69	20.60	-36.9	-38.4	16.6	0.00e+00	0	58	0	1302331392	45	4281
2026-01-21 13:37:46.57	254.69	20.75	-37.0	-38.6	16.5	0.00e+00	0	58	0	1325400064	45	4344
2026-01-21 13:37:50.61	255.69	20.89	-36.9	-38.4	16.6	0.00e+00	0	58	0	1348468736	45	4266
2026-01-21 13:37:54.64	256.71	21.02	-36.6	-38.1	16.9	0.00e+00	0	59	0	1371537408	45	4141
2026-01-21 13:37:58.68	257.73	21.14	-36.7	-38.2	16.9	0.00e+00	0	59	0	1393557504	45	4153
2026-01-21 13:38:02.73	258.76	21.26	-36.7	-38.2	16.9	0.00e+00	0	58	0	1416626176	45	4158
2026-01-21 13:38:06.77	259.80	21.37	-36.8	-38.3	16.7	0.00e+00	0	59	0	1438646272	45	4235
2026-01-21 13:38:10.81	260.85	21.46	-36.8	-38.4	16.7	0.00e+00	0	59	0	1461714944	45	4260
2026-01-21 13:38:14.84	261.90	21.55	-36.8	-38.3	16.8	0.00e+00	0	59	0	1484783616	45	4224
2026-01-21 13:38:18.88	262.95	21.63	-36.6	-38.0	17.0	0.00e+00	0	59	0	1507852288	45	4087
2026-01-21 13:38:22.93	264.02	21.70	-36.5	-38.0	17.1	0.00e+00	0	59	0	1529872384	44	4325
2026-01-21 13:38:26.97	265.09	21.76	-36.6	-38.1	17.0	0.00e+00	0	59	0	1552941056	44	4365
2026-01-21 13:38:31.00	266.15	21.81	-36.5	-38.0	17.1	0.00e+00	0	59	0	1576009728	44	4298
2026-01-21 13:38:35.04	267.23	21.85	-36.6	-38.1	17.0	0.00e+00	0	59	0	1598029824	44	4353
2026-01-21 13:38:39.08	268.30	21.88	-36.5	-37.9	17.2	0.00e+00	0	59	0	1621098496	44	4278
2026-01-21 13:38:43.12	269.38	21.90	-36.7	-38.2	17.0	0.00e+00	0	59	0	1643118592	44	4408
2026-01-21 13:38:47.16	270.45	21.90	-36.7	-38.2	16.9	0.00e+00	0	59	0	1666187264	44	4429
2026-01-21 13:38:51.20	271.53	21.90	-36.6	-38.1	17.0	0.00e+00	0	59	0	1689255936	44	4351
2026-01-21 13:38:55.24	272.61	21.89	-36.5	-38.0	17.2	0.00e+00	0	59	0	1712324608	44	4298
2026-01-21 13:38:59.27	273.68	21.87	-36.5	-38.0	17.1	0.00e+00	0	59	0	1734344704	44	4331
2026-01-21 13:39:03.31	274.75	21.84	-36.7	-38.2	17.0	0.00e+00	0	59	0	1757413376	44	4397
2026-01-21 13:39:07.35	275.83	21.80	-36.6	-38.1	17.0	0.00e+00	0	59	0	1780482048	44	4384
2026-01-21 13:39:11.40	276.90	21.74	-36.7	-38.2	16.9	0.00e+00	0	59	0	1802502144	44	4433
2026-01-21 13:39:15.43	277.96	21.68	-36.5	-38.0	17.1	0.00e+00	0	59	0	1825570816	44	4303
2026-01-21 13:39:19.47	279.02	21.61	-36.6	-38.1	17.0	0.00e+00	0	59	0	1847590912	44	4353
2026-01-21 13:39:23.51	280.07	21.53	-36.7	-38.2	16.9	0.00e+00	0	59	0	1870659584	44	4434
2026-01-21 13:39:27.55	281.12	21.44	-36.9	-38.4	16.7	0.00e+00	0	59	0	1893728256	44	4520
2026-01-21 13:39:31.59	282.16	21.34	-36.9	-38.5	16.6	0.00e+00	0	59	0	1916796928	44	4548
2026-01-21 13:39:35.63	283.20	21.23	-36.8	-38.4	16.7	0.00e+00	0	59	0	1938817024	44	4512
2026-01-21 13:39:39.67	284.22	21.12	-37.0	-38.6	16.5	0.00e+00	0	59	0	1961885696	44	4603
2026-01-21 13:39:43.71	285.24	20.99	-36.9	-38.5	16.6	0.00e+00	0	59	0	1984954368	44	4555
2026-01-21 13:39:47.75	286.25	20.86	-36.8	-38.3	16.8	0.00e+00	0	59	0	2006974464	44	4484
2026-01-21 13:39:51.79	287.26	20.72	-36.9	-38.4	16.6	0.00e+00	0	59	0	2030043136	44	4538
2026-01-21 13:39:55.83	288.25	20.57	-36.9	-38.5	16.6	0.00e+00	0	59	0	2052063232	44	4546
2026-01-21 13:39:59.87	289.23	20.41	-37.0	-38.6	16.5	0.00e+00	0	59	0	2075131904	44	4617
2026-01-21 13:40:03.91	290.20	20.24	-37.1	-38.7	16.3	0.00e+00	0	59	0	2098200576	44	4691
2026-01-21 13:40:07.95	291.17	20.07	-37.3	-38.9	16.1	0.00e+00	0	59	0	2121269248	45	4529
2026-01-21 13:40:11.98	292.12	19.90	-37.3	-38.9	16.2	0.00e+00	0	59	0	2143289344	45	4521
2026-01-21 13:40:16.02	293.06	19.71	-37.2	-38.8	16.3	0.00e+00	0	59	0	2166358016	45	4464
2026-01-21 13:40:20.05	293.98	19.52	-37.3	-39.0	16.0	0.00e+00	0	59	0	2188378112	45	4570
2026-01-21 13:40:24.10	294.90	19.32	-37.4	-39.1	16.0	0.00e+00	0	59	0	2211446784	45	4606
2026-01-21 13:40:28.14	295.81	19.12	-37.5	-39.2	15.8	0.00e+00	0	59	0	2234515456	45	4655
2026-01-21 13:40:32.17	296.70	18.92	-37.5	-39.1	15.9	0.00e+00	0	59	0	2256535552	45	4635
2026-01-21 13:40:36.21	297.59	18.70	-37.5	-39.1	15.9	0.00e+00	0	59	0	2279604224	45	4650
2026-01-21 13:40:40.25	298.46	18.49	-37.5	-39.2	15.9	0.00e+00	0	59	0	2302672896	45	4652
2026-01-21 13:40:44.29	299.31	18.27	-37.5	-39.1	15.8	0.00e+00	0	59	0	2325741568	45	4651
2026-01-21 13:40:48.33	300.16	18.04	-37.3	-38.9	16.1	0.00e+00	0	59	0	2347761664	45	4510
2026-01-21 13:40:52.37	300.99	17.81	-37.7	-39.4	15.6	0.00e+00	0	59	0	2370830336	45	4800
2026-01-21 13:40:56.41	301.81	17.58	-37.9	-39.7	15.2	0.00e+00	0	59	0	2392850432	46	4698
2026-01-21 13:41:00.45	302.62	17.35	-37.8	-39.5	15.5	0.00e+00	0	59	0	2415919104	46	4569
2026-01-21 13:41:04.49	303.42	17.11	-37.8	-39.5	15.4	0.00e+00	0	59	0	2438987776	46	4595
2026-01-21 13:41:08.52	304.20	16.87	-37.6	-39.3	15.6	0.00e+00	0	59	0	2461007872	46	4471
2026-01-21 13:41:12.56	304.97	16.62	-37.8	-39.6	15.4	0.00e+00	0	59	0	2484076544	46	4608
2026-01-21 13:41:16.60	305.73	16.38	-38.1	-40.0	15.0	0.00e+00	0	59	0	2507145216	46	4817
2026-01-21 13:41:20.64	306.48	16.13	-38.3	-40.1	14.8	0.00e+00	0	59	0	2530213888	47	4641
2026-01-21 13:41:24.68	307.22	15.88	-38.4	-40.3	14.6	1.10e-06	0	59	0	2552233984	47	4752
2026-01-21 13:41:28.72	307.94	15.63	-38.4	-40.3	14.6	0.00e+00	0	59	0	2575302656	47	4755
2026-01-21 13:41:32.75	308.65	15.38	-38.0	-39.9	15.0	0.00e+00	0	59	0	2597322752	47	4510
2026-01-21 13:41:36.79	309.35	15.12	-38.0	-39.8	15.1	0.00e+00	0	59	0	2620391424	47	4483
2026-01-21 13:41:40.82	310.04	14.87	-38.1	-40.0	14.9	0.00e+00	0	59	0	2643460096	47	4553
2026-01-21 13:41:44.86	310.71	14.61	-38.2	-40.1	14.7	1.10e-06	0	59	0	2665480192	47	4622
2026-01-21 13:41:48.90	311.38	14.35	-38.4	-40.4	14.5	1.10e-06	0	59	0	2688548864	47	4769
2026-01-21 13:41:52.94	312.03	14.09	-38.6	-40.6	14.2	3.40e-06	0	59	0	2711617536	47	4893
2026-01-21 13:41:56.98	312.68	13.83	-38.5	-40.5	14.3	5.70e-06	0	59	0	2734686208	47	4862
2026-01-21 13:42:01.02	313.31	13.57	-38.7	-40.8	14.0	2.20e-06	0	59	0	2756706304	47	4994
2026-01-21 13:42:05.06	313.93	13.31	-38.6	-40.6	14.2	0.00e+00	0	59	0	2779774976	47	4880
2026-01-21 13:42:09.09	314.54	13.06	-38.5	-40.5	14.2	1.10e-06	0	59	0	2801795072	47	4848
2026-01-21 13:42:13.13	315.14	12.80	-38.5	-40.5	14.2	5.70e-06	0	59	0	2824863744	47	4843
2026-01-21 13:42:17.17	315.73	12.54	-38.5	-40.6	14.1	3.40e-06	0	59	0	2847932416	47	4898
2026-01-21 13:42:21.21	316.31	12.28	-38.6	-40.7	14.0	6.80e-06	0	59	0	2869952512	47	4945
2026-01-21 13:42:25.25	316.88	12.02	-38.7	-40.7	13.9	3.40e-06	0	59	0	2893021184	47	4977
2026-01-21 13:42:29.29	317.45	11.76	-38.9	-41.1	13.7	1.25e-05	0	59	0	2916089856	48	4873
2026-01-21 13:42:33.32	318.00	11.50	-39.1	-41.3	13.4	2.63e-05	0	59	0	2939158528	48	5029
2026-01-21 13:42:37.36	318.54	11.24	-39.1	-41.4	13.3	3.43e-05	0	59	0	2961178624	49	4768
2026-01-21 13:42:41.40	319.07	10.98	-39.0	-41.1	13.6	1.83e-05	0	59	0	2984247296	49	4624
2026-01-21 13:42:45.44	319.60	10.72	-39.1	-41.3	13.3	2.40e-05	0	59	0	3006267392	49	4742
2026-01-21 13:42:49.48	320.11	10.47	-39.3	-41.6	13.0	7.09e-05	0	59	0	3029336064	49	4913
2026-01-21 13:42:53.52	320.62	10.21	-39.4	-41.8	12.8	8.58e-05	0	59	0	3052404736	49	5005
2026-01-21 13:42:57.55	321.12	9.96	-39.4	-41.7	12.8	1.04e-04	0	59	0	3074424832	49	4981
2026-01-21 13:43:01.59	321.61	9.70	-39.4	-41.7	12.8	9.49e-05	0	59	0	3097493504	49	4976
2026-01-21 13:43:05.63	322.09	9.45	-39.4	-41.8	12.7	1.40e-04	0	59	0	3120562176	49	4990
2026-01-21 13:43:09.66	322.56	9.20	-39.5	-42.0	12.5	1.82e-04	0	59	0	3142582272	49	5136
2026-01-21 13:43:13.70	323.03	8.95	-39.7	-42.3	12.2	3.41e-04	0	59	0	3165650944	49	5281
2026-01-21 13:43:17.74	323.49	8.69	-39.6	-42.1	12.3	2.88e-04	0	59	0	3188719616	50	4888
2026-01-21 13:43:21.77	323.94	8.45	-39.4	-41.8	12.6	1.73e-04	0	59	0	3210739712	50	4722
2026-01-21 13:43:25.81	324.38	8.20	-39.6	-42.1	12.2	2.71e-04	0	59	0	3233808384	50	4903
2026-01-21 13:43:29.85	324.82	7.95	-43.1	-49.6	4.5	1.58e-01	0	59	104	3254779904	57	7725
2026-01-21 13:43:33.89	325.25	7.70	-45.0	-56.7	3.8	8.47e-01	0	59	104	3254779904	60	14845
2026-01-21 13:43:37.94	325.67	7.46	-45.2	-56.9	3.8	8.46e-01	0	59	104	3254779904	60	15159
2026-01-21 13:43:41.98	326.08	7.21	-45.1	-56.9	3.8	8.46e-01	0	59	104	3254779904	60	15092
2026-01-21 13:43:46.01	326.49	6.97	-45.1	-56.8	3.8	8.46e-01	0	59	104	3254779904	60	14954
2026-01-21 13:43:50.06	326.90	6.73	-45.0	-56.8	3.8	8.47e-01	0	59	104	3254779904	60	14987
2026-01-21 13:43:54.10	327.29	6.49	-45.1	-56.8	3.8	8.45e-01	0	59	104	3254779904	60	14889
2026-01-21 13:43:58.14	327.68	6.25	-45.0	-56.8	3.8	8.46e-01	0	59	104	3254779904	60	14899
2026-01-21 13:44:02.18	328.07	6.01	-45.0	-56.7	3.8	8.46e-01	0	59	104	3254779904	60	14832
2026-01-21 13:44:06.22	328.45	5.77	-45.0	-56.7	3.8	8.47e-01	0	59	104	3254779904	60	14873
2026-01-21 13:44:10.26	328.82	5.53	-45.0	-56.8	3.8	8.46e-01	0	59	104	3254779904	60	14909
2026-01-21 13:44:14.31	329.19	5.30	-45.0	-56.7	3.8	8.46e-01	0	59	104	3254779904	60	14869
2026-01-21 13:44:18.35	329.55	5.06	-45.0	-56.7	3.8	8.46e-01	0	59	104	3254779904	60	14843
2026-01-21 13:44:22.39	329.90	4.83	-45.0	-56.8	3.8	8.47e-01	0	59	104	3254779904	60	14894
2026-01-21 13:44:26.43	330.25	4.60	-45.0	-56.7	3.8	8.46e-01	0	60	104	3254779904	60	14818
2026-01-21 13:44:30.47	330.60	4.37	-45.0	-56.7	3.8	8.47e-01	0	59	104	3254779904	60	14779
2026-01-21 13:44:34.51	330.94	4.14	-45.0	-56.8	3.8	8.45e-01	0	59	104	3254779904	60	14880
2026-01-21 13:44:38.55	331.28	3.91	-45.0	-56.7	3.8	8.45e-01	0	59	104	3254779904	60	14828
2026-01-21 13:44:42.60	331.61	3.68	-45.0	-56.8	3.8	8.46e-01	0	59	104	3254779904	60	14914
2026-01-21 13:44:46.63	331.93	3.46	-45.0	-56.7	3.8	8.47e-01	0	59	104	3254779904	60	14830
2026-01-21 13:44:50.68	332.25	3.23	-45.0	-56.8	3.8	8.47e-01	0	60	104	3254779904	60	14885
2026-01-21 13:44:54.72	332.57	3.01	-45.0	-56.7	3.8	8.46e-01	0	59	104	3254779904	60	14824
2026-01-21 13:44:58.76	332.88	2.79	-45.0	-56.7	3.8	8.46e-01	0	59	104	3254779904	60	14799
2026-01-21 13:45:02.80	333.19	2.57	-45.0	-56.8	3.8	8.46e-01	0	59	104	3254779904	60	14885
2026-01-21 13:45:06.84	333.49	2.35	-45.0	-56.7	3.8	8.46e-01	0	59	104	3254779904	60	14812
2026-01-21 13:45:10.89	333.79	2.13	-45.0	-56.7	3.8	8.47e-01	0	59	104	3254779904	60	14845
2026-01-21 13:45:14.93	334.09	1.91	-45.0	-56.7	3.8	8.46e-01	0	59	104	3254779904	60	14844

#Closed at: 2026-01-21 13:45:15
#Recorded file [3254 MB]: D:/lorett/data/31039_260121_163227.dat