passes_logs/2026/01/21/R2.0S_Moscow/R2.0S_Moscow__20260121_012307_NOAA_20_JPSS-1_rec.log

#Pass ID: 20260121_012307_NOAA 20 (JPSS-1)
#Satellite: NOAA 20 (JPSS-1)
#Configuration: NOAA 20
#almurnet v.1.7.20251203
#Start time: 2026-01-21 01:32:07

#Version: 2.2.20231116
#Station: R2.0S_Moscow
#Location: 37.707566 lon 55.798166 lat
#TLE: 1 43013U 17073A   26020.26397077  .00000127  00000+0  80954-4 0  9999
#TLE: 2 43013  98.7643 321.1479 0001288  31.3158 328.8095 14.19537595423482

#Time	Az	El	Level	Level2	SNR	BER	BlckErr	Temp	State	Recorded	gain1	gain2
2026-01-21 01:32:07.57	271.71	15.40	-46.2	-64.7	3.8	7.45e-01	0	58	0	0	63	31308
2026-01-21 01:32:08.57	271.54	15.33	-45.3	-59.9	3.8	1.49e+00	0	58	104	0	62	19112
2026-01-21 01:32:09.58	271.37	15.26	-45.3	-59.9	3.8	1.49e+00	0	58	104	0	62	19153
2026-01-21 01:32:10.59	271.20	15.20	-45.3	-59.9	3.8	1.49e+00	0	58	104	0	62	19135
2026-01-21 01:32:11.60	271.03	15.13	-45.3	-59.9	3.8	1.49e+00	0	58	104	0	62	19157
2026-01-21 01:32:12.61	270.86	15.06	-45.3	-59.9	3.8	1.49e+00	0	58	104	0	62	19076
2026-01-21 01:32:13.62	270.70	14.99	-45.3	-59.9	3.8	1.49e+00	0	58	104	0	62	19074
2026-01-21 01:32:14.63	270.53	14.92	-45.2	-59.9	3.8	1.49e+00	0	58	104	0	62	19041
2026-01-21 01:32:15.64	270.36	14.86	-45.1	-59.8	3.8	1.49e+00	0	58	104	0	62	18765
2026-01-21 01:32:16.65	270.20	14.79	-45.1	-59.7	3.8	1.49e+00	0	58	104	0	62	18579
2026-01-21 01:32:17.66	270.03	14.72	-44.9	-59.4	3.8	1.49e+00	0	58	104	0	61	19032
2026-01-21 01:32:18.67	269.87	14.65	-44.6	-59.0	3.8	1.49e+00	0	58	104	0	61	18248
2026-01-21 01:32:19.68	269.71	14.59	-44.4	-59.0	3.8	1.49e+00	0	58	104	0	60	19266
2026-01-21 01:32:20.70	269.54	14.52	-44.4	-59.0	3.8	1.49e+00	0	58	104	0	60	19260
2026-01-21 01:32:21.71	269.38	14.45	-44.4	-59.0	3.8	1.49e+00	0	58	104	0	60	19234
2026-01-21 01:32:22.72	269.22	14.38	-44.4	-58.9	3.8	1.49e+00	0	58	104	0	60	18972
2026-01-21 01:32:23.73	269.06	14.31	-44.4	-58.7	3.8	1.49e+00	0	58	104	0	60	18711
2026-01-21 01:32:24.74	268.90	14.24	-44.4	-58.5	3.8	1.49e+00	0	58	104	0	60	18162
2026-01-21 01:32:25.75	268.74	14.18	-44.3	-58.2	3.8	1.49e+00	0	58	104	0	60	17578
2026-01-21 01:32:26.76	268.59	14.11	-44.3	-58.0	3.8	1.49e+00	0	58	104	0	60	17226
2026-01-21 01:32:27.77	268.43	14.04	-44.3	-57.9	3.8	1.49e+00	0	58	104	0	60	16888
2026-01-21 01:32:28.78	268.27	13.97	-44.3	-57.9	3.8	1.49e+00	0	58	104	0	60	16985
2026-01-21 01:32:29.79	268.12	13.90	-44.3	-58.2	3.8	1.49e+00	0	58	104	0	60	17485
2026-01-21 01:32:30.80	267.96	13.83	-44.4	-58.5	3.8	1.49e+00	0	58	104	0	60	18206
2026-01-21 01:32:31.81	267.81	13.77	-44.4	-58.8	3.8	1.49e+00	0	58	104	0	60	18846
2026-01-21 01:32:32.82	267.66	13.70	-44.4	-59.0	3.8	1.49e+00	0	58	104	0	60	19343
2026-01-21 01:32:33.83	267.50	13.63	-44.4	-58.9	3.8	1.49e+00	0	58	104	0	60	18993
2026-01-21 01:32:34.84	267.35	13.56	-44.4	-58.6	3.8	1.49e+00	0	58	104	0	60	18314
2026-01-21 01:32:35.85	267.20	13.49	-44.3	-58.0	3.8	1.49e+00	0	58	104	0	60	17196
2026-01-21 01:32:36.87	267.05	13.42	-44.3	-57.5	3.8	1.49e+00	0	58	104	0	60	16158
2026-01-21 01:32:37.87	266.90	13.36	-44.2	-56.7	3.9	1.48e+00	0	58	104	0	60	14861
2026-01-21 01:32:38.88	266.75	13.29	-44.2	-56.4	4.0	1.48e+00	0	58	104	0	60	14214
2026-01-21 01:32:39.89	266.60	13.22	-44.2	-56.2	3.9	1.46e+00	0	58	104	0	60	13948
2026-01-21 01:32:40.90	266.45	13.15	-44.2	-56.3	4.0	1.47e+00	0	58	0	0	60	14134
2026-01-21 01:32:41.91	266.31	13.08	-44.3	-56.9	3.8	1.48e+00	0	58	104	0	60	15122
2026-01-21 01:32:42.93	266.16	13.01	-44.3	-57.8	3.8	1.49e+00	0	58	104	0	60	16716
2026-01-21 01:32:43.94	266.01	12.95	-44.4	-58.8	3.8	1.49e+00	0	58	104	0	60	18745
2026-01-21 01:32:44.95	265.87	12.88	-44.4	-58.7	3.8	1.49e+00	0	58	104	0	60	18723
2026-01-21 01:32:45.96	265.72	12.81	-44.3	-57.5	3.8	1.49e+00	0	58	104	0	60	16283
2026-01-21 01:32:46.97	265.58	12.74	-44.2	-55.7	4.1	1.48e+00	0	58	0	0	60	13181
2026-01-21 01:32:47.98	265.44	12.67	-44.0	-53.9	4.8	9.91e-01	0	58	0	1048576	60	10751
2026-01-21 01:32:48.99	265.29	12.60	-43.9	-52.6	5.4	6.21e-01	0	58	0	2097152	59	9800
2026-01-21 01:32:50.00	265.15	12.54	-43.8	-51.8	6.0	3.99e-01	0	58	0	4194304	59	8902
2026-01-21 01:32:51.01	265.01	12.47	-43.7	-51.4	6.3	2.76e-01	0	58	0	6291456	59	8551
2026-01-21 01:32:52.02	264.87	12.40	-43.7	-51.7	6.1	2.88e-01	0	58	0	8388608	59	8784
2026-01-21 01:32:53.03	264.73	12.33	-43.9	-52.4	5.6	3.51e-01	0	58	0	10485760	59	9530
2026-01-21 01:32:54.04	264.59	12.26	-44.0	-53.4	4.9	6.48e-01	0	58	0	12582912	59	10757
2026-01-21 01:32:55.05	264.45	12.20	-44.1	-54.4	4.5	9.24e-01	4	58	0	13631488	59	12034
2026-01-21 01:32:56.06	264.32	12.13	-44.1	-54.5	4.5	1.18e+00	14	58	0	15728640	59	12166
2026-01-21 01:32:57.07	264.18	12.06	-44.0	-53.0	5.2	7.08e-01	0	58	0	17825792	59	10262
2026-01-21 01:32:58.08	264.04	11.99	-43.6	-51.2	6.5	3.28e-01	0	58	0	19922944	59	8273
2026-01-21 01:32:59.09	263.91	11.92	-43.2	-49.4	8.1	1.21e-01	0	58	0	22020096	58	7195
2026-01-21 01:33:00.10	263.77	11.85	-42.8	-48.1	9.5	3.14e-02	0	58	0	23068672	57	6511
2026-01-21 01:33:01.11	263.64	11.79	-42.4	-47.1	10.6	5.01e-03	0	58	0	25165824	56	6178
2026-01-21 01:33:02.12	263.50	11.72	-42.2	-46.5	11.2	2.13e-03	0	58	0	27262976	56	5756
2026-01-21 01:33:03.13	263.37	11.65	-43.8	-54.1	4.5	8.33e-01	40	58	0	29360128	58	12334
2026-01-21 01:33:04.14	263.24	11.58	-43.9	-53.0	5.1	9.48e-01	0	58	0	30408704	58	10782
2026-01-21 01:33:05.15	263.11	11.52	-42.6	-47.7	10.0	2.22e-03	0	58	0	32505856	56	6579
2026-01-21 01:33:06.16	262.97	11.45	-43.8	-51.8	5.8	8.56e-02	0	58	0	34603008	58	9480
2026-01-21 01:33:07.17	262.84	11.38	-44.1	-56.1	3.9	1.12e+00	0	58	104	35651584	58	15498
2026-01-21 01:33:08.18	262.71	11.31	-42.1	-46.4	11.3	5.69e-03	0	58	0	36700160	56	5670
2026-01-21 01:33:09.19	262.58	11.24	-42.1	-46.4	11.2	1.13e-03	0	58	0	38797312	56	5696
2026-01-21 01:33:10.20	262.45	11.18	-42.1	-46.4	11.2	1.38e-03	0	58	0	39845888	56	5703
2026-01-21 01:33:11.21	262.33	11.11	-42.1	-46.4	11.2	1.22e-03	0	58	0	41943040	56	5713
2026-01-21 01:33:12.22	262.20	11.04	-42.0	-46.4	11.2	1.35e-03	0	58	0	44040192	56	5669
2026-01-21 01:33:13.23	262.07	10.97	-42.1	-46.4	11.2	1.17e-03	0	58	0	46137344	56	5689
2026-01-21 01:33:14.24	261.94	10.91	-42.1	-46.5	11.1	1.64e-03	0	58	0	48234496	56	5766
2026-01-21 01:33:15.25	261.82	10.84	-42.0	-46.2	11.4	1.08e-03	0	58	0	49283072	56	5577
2026-01-21 01:33:16.26	261.69	10.77	-41.8	-46.1	11.4	8.54e-04	0	58	0	51380224	55	5807
2026-01-21 01:33:17.27	261.57	10.70	-41.8	-46.0	11.4	9.78e-04	0	58	0	53477376	55	5785
2026-01-21 01:33:18.28	261.44	10.64	-41.8	-46.0	11.4	9.30e-04	0	58	0	55574528	55	5778
2026-01-21 01:33:19.29	261.32	10.57	-41.8	-46.0	11.4	9.63e-04	0	58	0	57671680	55	5779
2026-01-21 01:33:20.30	261.20	10.50	-41.7	-45.9	11.5	8.18e-04	0	58	0	58720256	55	5718
2026-01-21 01:33:21.31	261.07	10.44	-41.8	-46.0	11.4	8.60e-04	0	58	0	60817408	55	5756
2026-01-21 01:33:22.32	260.95	10.37	-41.8	-46.0	11.4	1.03e-03	0	58	0	62914560	55	5788
2026-01-21 01:33:23.33	260.83	10.30	-41.8	-46.2	11.3	1.20e-03	0	58	0	65011712	55	5857
2026-01-21 01:33:24.33	260.71	10.24	-41.9	-46.3	11.2	1.33e-03	0	58	0	67108864	55	5935
2026-01-21 01:33:25.34	260.59	10.17	-41.9	-46.4	11.0	1.71e-03	0	58	0	68157440	55	5993
2026-01-21 01:33:26.35	260.47	10.10	-41.9	-46.4	11.0	1.81e-03	0	58	0	70254592	55	6059
2026-01-21 01:33:27.36	260.35	10.04	-42.0	-46.6	10.7	2.93e-03	0	58	0	72351744	55	6201
2026-01-21 01:33:28.37	260.23	9.97	-42.1	-46.8	10.6	2.80e-03	0	58	0	74448896	55	6291
2026-01-21 01:33:29.38	260.12	9.90	-42.1	-46.8	10.5	3.47e-03	0	58	0	76546048	55	6327
2026-01-21 01:33:30.39	260.00	9.84	-42.1	-46.9	10.4	4.31e-03	0	58	0	77594624	55	6411
2026-01-21 01:33:31.40	259.88	9.77	-42.1	-46.9	10.4	4.53e-03	0	58	0	79691776	55	6411
2026-01-21 01:33:32.41	259.76	9.70	-42.2	-47.0	10.4	4.46e-03	0	58	0	81788928	55	6432
2026-01-21 01:33:33.42	259.65	9.64	-42.1	-46.8	10.6	4.16e-03	0	58	0	83886080	55	6299
2026-01-21 01:33:34.43	259.53	9.57	-42.1	-46.7	10.6	3.17e-03	0	58	0	85983232	55	6257
2026-01-21 01:33:35.44	259.42	9.50	-42.0	-46.7	10.6	3.55e-03	0	58	0	87031808	55	6262
2026-01-21 01:33:36.45	259.30	9.44	-42.0	-46.7	10.7	3.16e-03	0	59	0	89128960	55	6205
2026-01-21 01:33:37.46	259.19	9.37	-42.0	-46.7	10.6	3.17e-03	0	58	0	91226112	55	6224
2026-01-21 01:33:38.46	259.08	9.31	-42.1	-46.8	10.5	3.70e-03	0	58	0	93323264	55	6323
2026-01-21 01:33:39.47	258.97	9.24	-42.1	-46.9	10.4	4.13e-03	0	58	0	95420416	55	6363
2026-01-21 01:33:40.48	258.85	9.17	-42.1	-47.0	10.3	4.57e-03	0	58	0	96468992	55	6454
2026-01-21 01:33:41.49	258.74	9.11	-42.1	-47.0	10.3	5.72e-03	0	58	0	98566144	55	6447
2026-01-21 01:33:42.51	258.63	9.04	-42.2	-47.2	10.1	6.18e-03	0	58	0	100663296	55	6583
2026-01-21 01:33:43.51	258.52	8.98	-42.2	-47.3	10.0	7.72e-03	0	58	0	102760448	55	6673
2026-01-21 01:33:44.52	258.41	8.91	-42.3	-47.4	9.9	7.43e-03	0	58	0	104857600	55	6766
2026-01-21 01:33:45.53	258.30	8.85	-42.3	-47.4	9.9	9.35e-03	0	58	0	106954752	55	6754
2026-01-21 01:33:46.54	258.19	8.78	-42.3	-47.4	9.8	9.97e-03	0	58	0	108003328	55	6778
2026-01-21 01:33:47.55	258.08	8.72	-42.3	-47.5	9.8	1.03e-02	0	58	0	110100480	55	6823
2026-01-21 01:33:48.56	257.97	8.65	-42.3	-47.6	9.7	1.08e-02	0	58	0	112197632	55	6884
2026-01-21 01:33:49.57	257.87	8.59	-42.3	-47.5	9.7	1.13e-02	0	58	0	114294784	55	6812
2026-01-21 01:33:50.58	257.76	8.52	-42.3	-47.5	9.7	1.14e-02	0	58	0	116391936	55	6863
2026-01-21 01:33:51.59	257.65	8.46	-42.3	-47.6	9.6	1.17e-02	0	58	0	117440512	55	6930
2026-01-21 01:33:52.60	257.55	8.39	-42.3	-47.5	9.7	1.14e-02	0	59	0	119537664	55	6835
2026-01-21 01:33:53.61	257.44	8.33	-42.3	-47.6	9.6	1.21e-02	0	58	0	121634816	55	6902
2026-01-21 01:33:54.62	257.33	8.26	-42.3	-47.6	9.6	1.20e-02	0	58	0	123731968	55	6945
2026-01-21 01:33:55.62	257.23	8.20	-42.3	-47.5	9.6	1.21e-02	0	58	0	125829120	55	6876
2026-01-21 01:33:56.63	257.13	8.13	-42.3	-47.7	9.5	1.29e-02	0	58	0	126877696	55	6973
2026-01-21 01:33:57.64	257.02	8.07	-42.3	-47.6	9.6	1.39e-02	0	58	0	128974848	55	6925
2026-01-21 01:33:58.65	256.92	8.00	-44.0	-54.6	4.4	1.31e-02	48	58	0	131072000	58	13004
2026-01-21 01:33:59.66	256.82	7.94	-44.7	-59.4	3.8	1.49e+00	0	59	104	131072000	60	20148
2026-01-21 01:34:00.67	256.71	7.87	-44.9	-59.5	3.8	1.49e+00	0	58	104	131072000	60	20501
2026-01-21 01:34:01.68	256.61	7.81	-45.0	-59.7	3.8	1.49e+00	0	58	104	131072000	60	20795
2026-01-21 01:34:02.69	256.51	7.74	-45.2	-59.8	3.8	1.49e+00	0	58	104	131072000	60	21150
2026-01-21 01:34:03.70	256.41	7.68	-45.2	-59.9	3.8	1.49e+00	0	58	104	131072000	61	20115
2026-01-21 01:34:04.71	256.31	7.62	-45.3	-59.9	3.8	1.49e+00	0	59	104	131072000	61	20205
2026-01-21 01:34:05.72	256.21	7.55	-45.3	-60.0	3.8	1.49e+00	0	58	104	131072000	61	20410
2026-01-21 01:34:06.73	256.11	7.49	-45.3	-60.0	3.8	1.49e+00	0	58	104	131072000	61	20444
2026-01-21 01:34:07.74	256.01	7.42	-45.4	-60.0	3.8	1.49e+00	0	59	104	131072000	61	20422
2026-01-21 01:34:08.75	255.91	7.36	-45.3	-59.9	3.8	1.49e+00	0	59	104	131072000	61	20284
2026-01-21 01:34:09.76	255.81	7.30	-45.3	-59.9	3.8	1.49e+00	0	59	104	131072000	61	20193
2026-01-21 01:34:10.77	255.71	7.23	-45.3	-59.9	3.8	1.49e+00	0	59	104	131072000	61	20225
2026-01-21 01:34:11.78	255.62	7.17	-45.3	-59.8	3.8	1.49e+00	0	59	104	131072000	61	20061
2026-01-21 01:34:12.79	255.52	7.11	-45.3	-59.9	3.8	1.49e+00	0	59	104	131072000	61	20117
2026-01-21 01:34:13.81	255.42	7.04	-45.3	-59.9	3.8	1.49e+00	0	58	104	131072000	61	20127
2026-01-21 01:34:14.82	255.33	6.98	-45.3	-59.9	3.8	1.49e+00	0	59	104	131072000	61	20152
2026-01-21 01:34:15.83	255.23	6.92	-45.2	-59.8	3.8	1.49e+00	0	58	104	131072000	61	19980
2026-01-21 01:34:16.84	255.14	6.85	-45.2	-59.8	3.8	1.49e+00	0	59	104	131072000	61	19961
2026-01-21 01:34:17.85	255.04	6.79	-45.2	-59.8	3.8	1.49e+00	0	59	104	131072000	61	20032
2026-01-21 01:34:18.86	254.95	6.73	-45.2	-59.8	3.8	1.49e+00	0	59	104	131072000	61	20007
2026-01-21 01:34:19.87	254.85	6.66	-45.2	-59.8	3.8	1.49e+00	0	59	104	131072000	61	19998
2026-01-21 01:34:20.88	254.76	6.60	-45.2	-59.8	3.8	1.49e+00	0	58	104	131072000	61	19983
2026-01-21 01:34:21.89	254.66	6.54	-45.2	-59.8	3.8	1.49e+00	0	58	104	131072000	61	19969
2026-01-21 01:34:22.90	254.57	6.48	-45.2	-59.8	3.8	1.49e+00	0	59	104	131072000	61	19976
2026-01-21 01:34:23.91	254.48	6.41	-45.2	-59.8	3.8	1.49e+00	0	59	104	131072000	61	19945
2026-01-21 01:34:24.92	254.39	6.35	-45.2	-59.8	3.8	1.49e+00	0	59	104	131072000	61	19919
2026-01-21 01:34:25.93	254.30	6.29	-45.2	-59.8	3.8	1.49e+00	0	59	104	131072000	61	19967
2026-01-21 01:34:26.94	254.20	6.23	-45.2	-59.8	3.8	1.49e+00	0	59	104	131072000	61	20039
2026-01-21 01:34:27.96	254.11	6.16	-45.2	-59.8	3.8	1.49e+00	0	59	104	131072000	61	19956
2026-01-21 01:34:28.97	254.02	6.10	-45.2	-59.8	3.8	1.49e+00	0	59	104	131072000	61	19973
2026-01-21 01:34:29.98	253.93	6.04	-45.2	-59.8	3.8	1.49e+00	0	59	104	131072000	61	19923
2026-01-21 01:34:30.99	253.84	5.98	-45.2	-59.8	3.8	1.49e+00	0	58	104	131072000	61	20000
2026-01-21 01:34:32.00	253.75	5.91	-45.2	-59.8	3.8	1.49e+00	0	59	104	131072000	61	19939
2026-01-21 01:34:33.01	253.66	5.85	-45.2	-59.8	3.8	1.49e+00	0	59	104	131072000	61	19972
2026-01-21 01:34:34.02	253.58	5.79	-45.2	-59.8	3.8	1.49e+00	0	59	104	131072000	61	19964
2026-01-21 01:34:35.03	253.49	5.73	-45.2	-59.8	3.8	1.49e+00	0	58	104	131072000	61	19975
2026-01-21 01:34:36.04	253.40	5.67	-45.2	-59.8	3.8	1.49e+00	0	59	104	131072000	61	19872
2026-01-21 01:34:37.05	253.31	5.61	-45.2	-59.8	3.8	1.49e+00	0	59	104	131072000	61	19927
2026-01-21 01:34:38.06	253.23	5.54	-45.2	-59.8	3.8	1.49e+00	0	58	104	131072000	61	19906
2026-01-21 01:34:39.07	253.14	5.48	-45.2	-59.8	3.8	1.49e+00	0	59	104	131072000	61	19873
2026-01-21 01:34:40.08	253.05	5.42	-45.2	-59.8	3.8	1.49e+00	0	59	104	131072000	61	19885
2026-01-21 01:34:41.09	252.97	5.36	-45.2	-59.8	3.8	1.49e+00	0	58	104	131072000	61	19891
2026-01-21 01:34:42.10	252.88	5.30	-45.2	-59.8	3.8	1.49e+00	0	59	104	131072000	61	19858
2026-01-21 01:34:43.11	252.80	5.24	-45.2	-59.8	3.8	1.49e+00	0	59	104	131072000	61	19893
2026-01-21 01:34:44.12	252.71	5.18	-45.2	-59.8	3.8	1.49e+00	0	58	104	131072000	61	19963
2026-01-21 01:34:45.13	252.63	5.12	-45.2	-59.8	3.8	1.49e+00	0	58	104	131072000	61	19895
2026-01-21 01:34:46.14	252.54	5.06	-45.2	-59.8	3.8	1.49e+00	0	59	104	131072000	61	19891
2026-01-21 01:34:47.15	252.46	5.00	-45.2	-59.8	3.8	1.49e+00	0	59	104	131072000	61	19891
2026-01-21 01:34:48.16	252.38	4.93	-45.2	-59.8	3.8	1.49e+00	0	59	104	131072000	61	19911
2026-01-21 01:34:49.18	252.29	4.87	-45.2	-59.8	3.8	1.49e+00	0	59	104	131072000	61	19940
2026-01-21 01:34:50.19	252.21	4.81	-45.2	-59.8	3.8	1.49e+00	0	59	104	131072000	61	19908
2026-01-21 01:34:51.20	252.13	4.75	-45.2	-59.8	3.8	1.49e+00	0	59	104	131072000	61	19848
2026-01-21 01:34:52.21	252.05	4.69	-45.2	-59.8	3.8	1.49e+00	0	59	104	131072000	61	19915
2026-01-21 01:34:53.22	251.96	4.63	-45.2	-59.8	3.8	1.49e+00	0	59	104	131072000	61	19886
2026-01-21 01:34:54.23	251.88	4.57	-45.2	-59.8	3.8	1.49e+00	0	59	104	131072000	61	19927
2026-01-21 01:34:55.24	251.80	4.51	-45.2	-59.8	3.8	1.49e+00	0	59	104	131072000	61	19901
2026-01-21 01:34:56.25	251.72	4.45	-45.2	-59.8	3.8	1.49e+00	0	59	104	131072000	61	19901
2026-01-21 01:34:57.26	251.64	4.39	-45.2	-59.8	3.8	1.49e+00	0	59	104	131072000	61	19862
2026-01-21 01:34:58.27	251.56	4.33	-45.2	-59.8	3.8	1.49e+00	0	59	104	131072000	61	19874
2026-01-21 01:34:59.28	251.48	4.27	-45.2	-59.8	3.8	1.49e+00	0	58	104	131072000	61	19845
2026-01-21 01:35:00.29	251.40	4.21	-45.2	-59.8	3.8	1.49e+00	0	58	104	131072000	61	19846
2026-01-21 01:35:01.30	251.32	4.15	-45.2	-59.8	3.8	1.49e+00	0	59	104	131072000	61	19905
2026-01-21 01:35:02.31	251.24	4.09	-45.2	-59.8	3.8	1.49e+00	0	59	104	131072000	61	19873
2026-01-21 01:35:03.32	251.17	4.03	-45.2	-59.7	3.8	1.49e+00	0	59	104	131072000	61	19824
2026-01-21 01:35:04.33	251.09	3.98	-45.2	-59.8	3.8	1.49e+00	0	59	104	131072000	61	19846
2026-01-21 01:35:05.34	251.01	3.92	-45.2	-59.7	3.8	1.49e+00	0	59	104	131072000	61	19805
2026-01-21 01:35:06.35	250.93	3.86	-45.2	-59.8	3.8	1.49e+00	0	59	104	131072000	61	19868
2026-01-21 01:35:07.36	250.86	3.80	-45.2	-59.8	3.8	1.49e+00	0	59	104	131072000	61	19927
2026-01-21 01:35:08.37	250.78	3.74	-45.2	-59.8	3.8	1.49e+00	0	58	104	131072000	61	19866
2026-01-21 01:35:09.38	250.70	3.68	-45.2	-59.7	3.8	1.49e+00	0	59	104	131072000	61	19833
2026-01-21 01:35:10.39	250.63	3.62	-45.2	-59.8	3.8	1.49e+00	0	59	104	131072000	61	19852
2026-01-21 01:35:11.40	250.55	3.56	-45.2	-59.8	3.8	1.49e+00	0	59	104	131072000	61	19892
2026-01-21 01:35:12.41	250.48	3.50	-45.2	-59.7	3.8	1.49e+00	0	58	104	131072000	61	19833
2026-01-21 01:35:13.42	250.40	3.45	-45.2	-59.8	3.8	1.49e+00	0	58	104	131072000	61	19876
2026-01-21 01:35:14.43	250.33	3.39	-45.2	-59.8	3.8	1.49e+00	0	59	104	131072000	61	19865
2026-01-21 01:35:15.44	250.25	3.33	-45.2	-59.7	3.8	1.49e+00	0	59	104	131072000	61	19838
2026-01-21 01:35:16.45	250.18	3.27	-45.2	-59.8	3.8	1.49e+00	0	59	104	131072000	61	19842
2026-01-21 01:35:17.46	250.10	3.21	-45.2	-59.8	3.8	1.49e+00	0	59	104	131072000	61	19893
2026-01-21 01:35:18.47	250.03	3.15	-45.2	-59.7	3.8	1.49e+00	0	59	104	131072000	61	19806
2026-01-21 01:35:19.48	249.96	3.10	-45.2	-59.8	3.8	1.49e+00	0	59	104	131072000	61	19863
2026-01-21 01:35:20.49	249.89	3.04	-45.2	-59.7	3.8	1.49e+00	0	58	104	131072000	61	19812
2026-01-21 01:35:21.50	249.81	2.98	-45.2	-59.7	3.8	1.49e+00	0	58	104	131072000	61	19818
2026-01-21 01:35:22.51	249.74	2.92	-45.2	-59.8	3.8	1.49e+00	0	58	104	131072000	61	19919
2026-01-21 01:35:23.52	249.67	2.86	-45.2	-59.7	3.8	1.49e+00	0	59	104	131072000	61	19811
2026-01-21 01:35:24.53	249.60	2.81	-45.2	-59.7	3.8	1.49e+00	0	58	104	131072000	61	19805
2026-01-21 01:35:25.54	249.53	2.75	-45.2	-59.7	3.8	1.49e+00	0	59	104	131072000	61	19841
2026-01-21 01:35:26.55	249.45	2.69	-45.2	-59.7	3.8	1.49e+00	0	59	104	131072000	61	19810
2026-01-21 01:35:27.56	249.38	2.63	-45.2	-59.8	3.8	1.49e+00	0	58	104	131072000	61	19866
2026-01-21 01:35:28.57	249.31	2.58	-45.2	-59.7	3.8	1.49e+00	0	58	104	131072000	61	19813
2026-01-21 01:35:29.58	249.24	2.52	-45.2	-59.7	3.8	1.49e+00	0	59	104	131072000	61	19759
2026-01-21 01:35:30.59	249.17	2.46	-45.2	-59.7	3.8	1.49e+00	0	59	104	131072000	61	19822
2026-01-21 01:35:31.60	249.10	2.40	-45.2	-59.7	3.8	1.49e+00	0	59	104	131072000	61	19811
2026-01-21 01:35:32.61	249.03	2.35	-45.2	-59.7	3.8	1.49e+00	0	59	104	131072000	61	19778
2026-01-21 01:35:33.63	248.96	2.29	-45.2	-59.7	3.8	1.49e+00	0	58	104	131072000	61	19818
2026-01-21 01:35:34.64	248.89	2.23	-45.2	-59.8	3.8	1.49e+00	0	59	104	131072000	61	19844
2026-01-21 01:35:35.65	248.83	2.18	-45.2	-59.7	3.8	1.49e+00	0	58	104	131072000	61	19806
2026-01-21 01:35:36.66	248.76	2.12	-45.2	-59.7	3.8	1.49e+00	0	58	104	131072000	61	19835
2026-01-21 01:35:37.67	248.69	2.06	-45.2	-59.7	3.8	1.49e+00	0	58	104	131072000	61	19792
2026-01-21 01:35:38.68	248.62	2.00	-45.2	-59.8	3.8	1.49e+00	0	59	104	131072000	61	19927

#Closed at: 2026-01-21 01:35:38
#Recorded file [131 MB]: D:/lorett/data/31039_260121_043207.dat