passes_logs/2026/01/21/R2.0S_Moscow/R2.0S_Moscow__20260121_075508_NOAA_20_JPSS-1_rec.log

#Pass ID: 20260121_075508_NOAA 20 (JPSS-1)
#Satellite: NOAA 20 (JPSS-1)
#Configuration: NOAA 20
#almurnet v.1.7.20251203
#Start time: 2026-01-21 07:55:07

#Version: 2.2.20231116
#Station: R2.0S_Moscow
#Location: 37.707566 lon 55.798166 lat
#TLE: 1 43013U 17073A   26020.26397077  .00000127  00000+0  80954-4 0  9999
#TLE: 2 43013  98.7643 321.1479 0001288  31.3158 328.8095 14.19537595423482

#Time	Az	El	Level	Level2	SNR	BER	BlckErr	Temp	State	Recorded	gain1	gain2
2026-01-21 07:55:07.99	101.49	1.99	-40.0	-55.0	3.8	1.49e+00	0	51	0	0	51	20387
2026-01-21 07:55:11.02	101.25	2.15	-40.4	-55.0	3.8	1.49e+00	0	51	104	0	51	20441
2026-01-21 07:55:14.05	101.01	2.31	-40.4	-55.0	3.8	1.49e+00	0	51	104	0	51	20492
2026-01-21 07:55:17.08	100.76	2.47	-40.1	-55.0	3.8	1.49e+00	0	52	104	0	51	20328
2026-01-21 07:55:20.11	100.52	2.63	-40.4	-55.0	3.8	1.49e+00	0	52	104	0	51	20448
2026-01-21 07:55:23.14	100.27	2.79	-40.4	-55.0	3.8	1.49e+00	0	52	104	0	51	20433
2026-01-21 07:55:26.17	100.01	2.95	-40.3	-55.0	3.8	1.49e+00	0	52	104	0	51	20414
2026-01-21 07:55:29.20	99.76	3.11	-40.3	-55.0	3.8	1.49e+00	0	52	104	0	51	20430
2026-01-21 07:55:32.23	99.50	3.28	-40.4	-55.0	3.8	1.49e+00	0	53	104	0	51	20416
2026-01-21 07:55:35.25	99.24	3.44	-40.1	-55.0	3.8	1.49e+00	0	53	104	0	51	20461
2026-01-21 07:55:38.28	98.97	3.60	-40.4	-55.0	3.8	1.49e+00	0	53	104	0	51	20452
2026-01-21 07:55:41.31	98.70	3.77	-40.3	-55.0	3.8	1.49e+00	0	53	104	0	51	20458
2026-01-21 07:55:44.34	98.43	3.93	-40.4	-55.0	3.8	1.49e+00	0	53	104	0	51	20431
2026-01-21 07:55:47.37	98.16	4.10	-40.4	-55.0	3.8	1.49e+00	0	53	104	0	51	20369
2026-01-21 07:55:50.40	97.88	4.26	-40.2	-55.0	3.8	1.49e+00	0	54	104	0	51	20450
2026-01-21 07:55:53.43	97.60	4.43	-40.4	-55.0	3.8	1.49e+00	0	54	104	0	51	20432
2026-01-21 07:55:56.46	97.31	4.59	-40.3	-55.0	3.8	1.49e+00	0	54	104	0	51	20396
2026-01-21 07:55:59.49	97.03	4.76	-40.4	-55.0	3.8	1.49e+00	0	54	104	0	51	20362
2026-01-21 07:56:02.53	96.73	4.93	-40.2	-54.9	3.8	1.49e+00	0	54	104	0	51	20288
2026-01-21 07:56:05.56	96.44	5.09	-40.3	-55.0	3.8	1.49e+00	0	55	104	0	51	20411
2026-01-21 07:56:08.58	96.14	5.26	-40.4	-55.0	3.8	1.49e+00	0	54	104	0	51	20392
2026-01-21 07:56:11.62	95.84	5.43	-40.2	-55.0	3.8	1.49e+00	0	55	104	0	51	20358
2026-01-21 07:56:14.65	95.54	5.60	-40.4	-55.0	3.8	1.49e+00	0	55	104	0	51	20387
2026-01-21 07:56:17.67	95.23	5.76	-40.4	-55.0	3.8	1.49e+00	0	55	104	0	51	20464
2026-01-21 07:56:20.70	94.92	5.93	-40.4	-55.0	3.8	1.49e+00	0	55	104	0	51	20437
2026-01-21 07:56:23.73	94.60	6.10	-40.4	-55.0	3.8	1.49e+00	0	55	104	0	51	20391
2026-01-21 07:56:26.76	94.28	6.27	-40.4	-55.0	3.8	1.49e+00	0	55	104	0	51	20396
2026-01-21 07:56:29.79	93.96	6.44	-40.4	-55.0	3.8	1.49e+00	0	55	104	0	51	20431
2026-01-21 07:56:32.82	93.63	6.61	-40.4	-55.0	3.8	1.49e+00	0	55	104	0	51	20440
2026-01-21 07:56:35.86	93.30	6.78	-40.4	-55.0	3.8	1.49e+00	0	56	104	0	51	20458
2026-01-21 07:56:38.89	92.96	6.95	-40.4	-55.0	3.8	1.49e+00	0	56	104	0	51	20391
2026-01-21 07:56:41.91	92.63	7.12	-40.3	-55.0	3.8	1.49e+00	0	56	104	0	51	20360
2026-01-21 07:56:44.95	92.28	7.29	-40.4	-55.0	3.8	1.49e+00	0	56	104	0	51	20372
2026-01-21 07:56:47.98	91.93	7.46	-40.4	-55.0	3.8	1.49e+00	0	56	104	0	51	20427
2026-01-21 07:56:51.01	91.58	7.63	-40.4	-55.0	3.8	1.49e+00	0	56	104	0	51	20369
2026-01-21 07:56:54.04	91.23	7.80	-40.4	-55.0	3.8	1.49e+00	0	56	104	0	51	20361
2026-01-21 07:56:57.07	90.87	7.97	-40.4	-54.7	3.8	1.49e+00	0	56	104	0	51	19661
2026-01-21 07:57:00.10	90.50	8.14	-40.6	-55.1	3.8	1.49e+00	0	56	104	0	52	19390
2026-01-21 07:57:03.13	90.14	8.31	-40.3	-54.8	3.8	1.49e+00	0	56	104	0	52	18941
2026-01-21 07:57:06.16	89.76	8.49	-40.6	-55.2	3.8	1.49e+00	0	56	104	0	51	20797
2026-01-21 07:57:09.19	89.38	8.66	-40.8	-55.4	3.9	1.49e+00	0	57	104	0	52	20135
2026-01-21 07:57:12.21	89.00	8.83	-40.8	-55.4	3.8	1.49e+00	0	57	104	0	52	20081
2026-01-21 07:57:15.24	88.62	9.00	-40.6	-55.2	3.8	1.49e+00	0	57	104	0	52	19696
2026-01-21 07:57:18.27	88.23	9.17	-40.6	-55.2	3.8	1.49e+00	0	57	104	0	52	19773
2026-01-21 07:57:21.29	87.83	9.34	-40.4	-55.0	3.8	1.49e+00	0	57	104	0	52	19385
2026-01-21 07:57:24.32	87.43	9.51	-40.7	-55.4	3.7	1.49e+00	0	57	104	0	52	20097
2026-01-21 07:57:27.35	87.03	9.68	-40.4	-55.3	3.8	1.49e+00	0	57	104	0	51	21190
2026-01-21 07:57:30.38	86.62	9.85	-39.9	-55.2	3.8	1.49e+00	0	57	104	0	51	20853
2026-01-21 07:57:33.41	86.20	10.02	-40.6	-55.2	3.8	1.49e+00	0	57	104	0	51	20822
2026-01-21 07:57:36.44	85.78	10.19	-39.8	-55.2	3.9	1.49e+00	0	58	104	0	50	22107
2026-01-21 07:57:39.46	85.36	10.36	-40.5	-55.1	3.8	1.49e+00	0	58	104	0	51	20700
2026-01-21 07:57:42.49	84.93	10.53	-40.6	-55.2	3.8	1.49e+00	0	58	104	0	51	20966
2026-01-21 07:57:45.52	84.49	10.70	-40.6	-55.2	3.8	1.49e+00	0	58	104	0	51	20954
2026-01-21 07:57:48.54	84.05	10.86	-40.4	-55.2	3.8	1.49e+00	0	58	104	0	51	20849
2026-01-21 07:57:51.57	83.61	11.03	-40.5	-55.1	3.8	1.49e+00	0	58	104	0	51	20705
2026-01-21 07:57:54.60	83.16	11.20	-40.5	-55.2	3.8	1.49e+00	0	58	104	0	51	20804
2026-01-21 07:57:57.63	82.70	11.37	-40.6	-55.3	3.8	1.49e+00	0	58	104	0	51	21027
2026-01-21 07:58:00.66	82.24	11.53	-40.5	-55.2	3.8	1.49e+00	0	58	104	0	51	20832
2026-01-21 07:58:03.69	81.77	11.70	-40.5	-55.1	3.8	1.49e+00	0	58	104	0	52	19558
2026-01-21 07:58:06.72	81.30	11.86	-40.4	-55.1	3.8	1.49e+00	0	58	104	0	52	19487
2026-01-21 07:58:09.75	80.83	12.02	-40.7	-55.3	3.8	1.49e+00	0	58	104	0	52	20019
2026-01-21 07:58:12.77	80.35	12.19	-40.6	-55.2	3.8	1.49e+00	0	58	104	0	52	19686
2026-01-21 07:58:15.80	79.86	12.35	-40.7	-55.3	3.8	1.49e+00	0	58	104	0	52	20002
2026-01-21 07:58:18.83	79.37	12.51	-40.5	-55.2	3.8	1.49e+00	0	58	104	0	52	19799
2026-01-21 07:58:21.86	78.87	12.67	-41.0	-55.6	3.8	1.49e+00	0	58	104	0	52	20633
2026-01-21 07:58:24.89	78.36	12.83	-40.7	-55.3	3.8	1.49e+00	0	58	104	0	52	20058
2026-01-21 07:58:27.92	77.85	12.98	-41.0	-55.6	3.8	1.49e+00	0	58	104	0	52	20702
2026-01-21 07:58:30.95	77.34	13.14	-40.9	-55.5	3.8	1.49e+00	0	58	104	0	53	19301
2026-01-21 07:58:33.98	76.82	13.30	-41.4	-55.7	3.8	1.49e+00	0	59	104	0	53	19728
2026-01-21 07:58:37.01	76.29	13.45	-41.0	-55.6	3.8	1.49e+00	0	59	104	0	53	19561
2026-01-21 07:58:40.04	75.76	13.60	-41.3	-55.7	3.8	1.49e+00	0	59	104	0	53	19754
2026-01-21 07:58:43.07	75.22	13.75	-41.2	-55.8	3.8	1.49e+00	0	59	104	0	53	19945
2026-01-21 07:58:46.10	74.68	13.90	-41.3	-55.3	3.8	1.49e+00	0	59	104	0	53	18756
2026-01-21 07:58:49.12	74.14	14.05	-41.2	-53.2	4.0	1.47e+00	0	59	0	0	53	14783
2026-01-21 07:58:52.16	73.58	14.19	-41.2	-52.9	4.1	1.44e+00	0	59	0	0	53	14293
2026-01-21 07:58:55.18	73.02	14.34	-41.1	-52.2	4.2	1.35e+00	0	59	0	0	53	13231
2026-01-21 07:58:58.21	72.46	14.48	-41.3	-54.6	3.8	1.35e+00	0	59	104	0	53	17387
2026-01-21 07:59:01.24	71.89	14.62	-40.9	-51.1	4.6	1.15e+00	0	59	0	0	53	11632
2026-01-21 07:59:04.26	71.32	14.75	-41.0	-50.8	4.9	8.15e-01	0	59	0	5242880	53	11223
2026-01-21 07:59:07.29	70.74	14.89	-41.7	-54.0	3.8	1.44e+00	0	59	104	10485760	54	15243
2026-01-21 07:59:10.32	70.15	15.02	-41.3	-49.4	6.0	5.86e-01	0	59	0	11534336	54	9039
2026-01-21 07:59:13.35	69.56	15.15	-41.2	-48.8	6.7	2.18e-01	0	59	0	14680064	54	8386
2026-01-21 07:59:16.38	68.97	15.28	-41.2	-48.0	7.6	1.08e-01	0	59	0	20971520	54	7664
2026-01-21 07:59:19.41	68.36	15.41	-41.3	-47.6	8.3	5.29e-02	0	59	0	26214400	54	7288
2026-01-21 07:59:22.43	67.76	15.53	-41.4	-47.3	8.8	3.45e-02	0	59	0	31457280	54	7048
2026-01-21 07:59:25.46	67.15	15.65	-41.4	-46.5	10.0	1.05e-02	0	59	0	37748736	54	6451
2026-01-21 07:59:28.49	66.53	15.77	-41.4	-46.1	10.7	3.11e-03	0	59	0	42991616	54	6136
2026-01-21 07:59:31.52	65.91	15.89	-41.3	-45.6	11.4	1.25e-03	0	59	0	49283072	54	5843
2026-01-21 07:59:34.55	65.29	16.00	-41.5	-45.9	11.3	1.44e-03	0	59	0	54525952	54	6013
2026-01-21 07:59:37.58	64.66	16.11	-41.4	-45.5	11.9	3.93e-04	0	59	0	59768832	54	5761
2026-01-21 07:59:40.61	64.02	16.21	-41.6	-45.8	11.6	8.77e-04	0	59	0	66060288	54	5958
2026-01-21 07:59:43.64	63.38	16.32	-41.6	-45.7	11.8	4.65e-04	0	59	0	71303168	54	5915
2026-01-21 07:59:46.67	62.74	16.42	-41.7	-45.8	11.8	5.29e-04	0	59	0	77594624	54	5947
2026-01-21 07:59:49.70	62.09	16.52	-41.6	-45.6	12.0	3.45e-04	0	59	0	82837504	54	5837
2026-01-21 07:59:52.73	61.44	16.61	-41.7	-45.7	12.0	2.95e-04	0	59	0	89128960	54	5870
2026-01-21 07:59:55.75	60.79	16.70	-41.6	-45.6	12.0	2.70e-04	0	59	0	94371840	54	5848
2026-01-21 07:59:58.78	60.13	16.78	-41.7	-45.7	12.0	3.16e-04	0	60	0	99614720	54	5881
2026-01-21 08:00:01.81	59.46	16.87	-41.9	-46.0	11.7	5.65e-04	0	59	0	105906176	54	6125
2026-01-21 08:00:04.83	58.80	16.95	-42.0	-46.3	11.4	8.43e-04	0	59	0	111149056	54	6333
2026-01-21 08:00:07.86	58.13	17.02	-42.1	-46.5	11.2	1.26e-03	0	59	0	117440512	54	6483
2026-01-21 08:00:10.89	57.45	17.09	-42.0	-46.2	11.5	1.01e-03	0	60	0	122683392	54	6267
2026-01-21 08:00:13.92	56.78	17.16	-41.9	-46.0	11.8	5.42e-04	0	59	0	127926272	54	6108
2026-01-21 08:00:16.95	56.10	17.23	-41.9	-46.1	11.7	4.39e-04	0	60	0	134217728	54	6147
2026-01-21 08:00:19.98	55.41	17.29	-42.0	-46.3	11.6	7.34e-04	0	59	0	139460608	54	6282
2026-01-21 08:00:23.00	54.73	17.34	-42.3	-46.8	11.0	1.44e-03	0	59	0	145752064	55	6292
2026-01-21 08:00:26.03	54.04	17.39	-42.2	-46.6	11.2	1.24e-03	0	59	0	150994944	55	6185
2026-01-21 08:00:29.06	53.35	17.44	-42.3	-46.8	11.1	1.57e-03	0	60	0	157286400	55	6278
2026-01-21 08:00:32.09	52.66	17.48	-42.2	-46.6	11.3	1.15e-03	0	60	0	162529280	55	6141
2026-01-21 08:00:35.12	51.97	17.52	-42.3	-46.7	11.2	1.40e-03	0	60	0	167772160	55	6241
2026-01-21 08:00:38.15	51.27	17.56	-42.2	-46.6	11.3	1.13e-03	0	60	0	174063616	55	6144
2026-01-21 08:00:41.18	50.57	17.59	-42.3	-46.7	11.2	1.32e-03	0	60	0	179306496	55	6241
2026-01-21 08:00:44.21	49.88	17.61	-42.2	-46.4	11.5	8.06e-04	0	60	0	185597952	55	6025
2026-01-21 08:00:47.24	49.18	17.64	-42.2	-46.5	11.4	8.63e-04	0	60	0	190840832	55	6103
2026-01-21 08:00:50.27	48.48	17.65	-42.2	-46.5	11.4	8.86e-04	0	60	0	196083712	55	6118
2026-01-21 08:00:53.29	47.78	17.67	-42.3	-46.8	11.1	1.45e-03	0	60	0	202375168	55	6298
2026-01-21 08:00:56.32	47.08	17.68	-42.3	-46.7	11.2	1.31e-03	0	60	0	207618048	55	6241
2026-01-21 08:00:59.35	46.38	17.68	-42.1	-46.3	11.7	6.48e-04	0	60	0	213909504	55	5951
2026-01-21 08:01:02.37	45.68	17.68	-42.1	-46.3	11.6	6.55e-04	0	60	0	219152384	55	5967
2026-01-21 08:01:05.40	44.97	17.68	-42.1	-46.3	11.7	5.32e-04	0	60	0	225443840	55	5926
2026-01-21 08:01:08.43	44.27	17.67	-42.1	-46.3	11.7	5.80e-04	0	60	0	230686720	55	5943
2026-01-21 08:01:11.46	43.57	17.66	-42.1	-46.2	11.8	4.24e-04	0	60	0	235929600	55	5884
2026-01-21 08:01:14.49	42.87	17.64	-42.0	-46.0	11.9	3.90e-04	0	60	0	242221056	55	5779
2026-01-21 08:01:17.52	42.17	17.62	-41.9	-45.8	12.2	1.92e-04	0	60	0	247463936	55	5624
2026-01-21 08:01:20.55	41.48	17.59	-41.9	-45.8	12.2	2.23e-04	0	60	0	253755392	55	5611
2026-01-21 08:01:23.57	40.78	17.56	-41.9	-45.7	12.2	1.85e-04	0	60	0	258998272	55	5585
2026-01-21 08:01:26.60	40.09	17.52	-41.7	-45.5	12.5	1.40e-04	0	60	0	264241152	55	5437
2026-01-21 08:01:29.63	39.39	17.49	-41.7	-45.4	12.6	1.07e-04	0	60	0	270532608	55	5367
2026-01-21 08:01:32.65	38.70	17.44	-41.7	-45.4	12.6	9.91e-05	0	60	0	275775488	55	5381
2026-01-21 08:01:35.68	38.02	17.39	-41.6	-45.2	12.8	4.88e-05	0	60	0	282066944	55	5236
2026-01-21 08:01:38.71	37.33	17.34	-41.7	-45.5	12.5	1.04e-04	0	60	0	287309824	55	5452
2026-01-21 08:01:41.74	36.64	17.29	-41.8	-45.6	12.4	1.89e-04	0	60	0	292552704	55	5492
2026-01-21 08:01:44.77	35.96	17.23	-41.8	-45.7	12.2	1.94e-04	0	60	0	298844160	55	5590
2026-01-21 08:01:47.80	35.28	17.16	-41.9	-45.9	12.1	2.88e-04	0	60	0	304087040	55	5685
2026-01-21 08:01:50.82	34.61	17.10	-42.0	-46.0	12.0	3.64e-04	0	60	0	310378496	55	5762
2026-01-21 08:01:53.85	33.94	17.03	-41.9	-45.8	12.1	2.38e-04	0	60	0	315621376	55	5644
2026-01-21 08:01:56.88	33.27	16.95	-42.0	-46.2	11.7	5.29e-04	0	60	0	321912832	55	5893
2026-01-21 08:01:59.91	32.60	16.87	-42.2	-46.5	11.4	9.24e-04	0	60	0	327155712	55	6086
2026-01-21 08:02:02.94	31.94	16.79	-42.1	-46.4	11.5	8.66e-04	0	60	0	332398592	55	6036
2026-01-21 08:02:05.97	31.28	16.70	-42.2	-46.5	11.4	8.96e-04	0	60	0	338690048	55	6073
2026-01-21 08:02:09.00	30.63	16.61	-42.1	-46.4	11.5	7.70e-04	0	60	0	343932928	55	5994
2026-01-21 08:02:12.03	29.98	16.52	-42.1	-46.4	11.5	9.21e-04	0	60	0	350224384	55	6023
2026-01-21 08:02:15.05	29.33	16.42	-42.0	-46.1	11.8	4.81e-04	0	60	0	355467264	55	5836
2026-01-21 08:02:18.09	28.69	16.32	-41.9	-46.0	11.8	4.58e-04	0	60	0	360710144	55	5786
2026-01-21 08:02:21.12	28.05	16.22	-41.9	-46.0	11.9	5.13e-04	0	60	0	367001600	55	5770
2026-01-21 08:02:24.15	27.42	16.11	-41.9	-46.0	11.9	4.80e-04	0	60	0	372244480	55	5750
2026-01-21 08:02:27.18	26.79	16.00	-42.1	-46.3	11.5	8.09e-04	0	60	0	378535936	55	5959
2026-01-21 08:02:30.20	26.17	15.89	-42.0	-46.2	11.6	7.19e-04	0	60	0	383778816	55	5918
2026-01-21 08:02:33.23	25.55	15.78	-41.9	-46.0	11.9	5.27e-04	0	60	0	390070272	55	5752
2026-01-21 08:02:36.26	24.94	15.66	-42.0	-46.2	11.6	5.65e-04	0	60	0	395313152	55	5872
2026-01-21 08:02:39.29	24.33	15.54	-42.2	-46.8	11.0	1.57e-03	0	60	0	400556032	55	6278
2026-01-21 08:02:42.32	23.72	15.42	-42.3	-46.9	10.8	2.37e-03	0	60	0	406847488	55	6380
2026-01-21 08:02:45.34	23.13	15.29	-42.1	-46.5	11.2	1.54e-03	0	60	0	412090368	55	6113
2026-01-21 08:02:48.38	22.53	15.16	-42.2	-46.8	10.9	1.72e-03	0	60	0	418381824	55	6319
2026-01-21 08:02:51.40	21.95	15.03	-42.3	-47.1	10.6	3.06e-03	0	60	0	423624704	55	6513
2026-01-21 08:02:54.43	21.36	14.90	-42.3	-46.9	10.8	2.90e-03	0	60	0	428867584	55	6386
2026-01-21 08:02:57.46	20.78	14.77	-42.3	-47.0	10.6	3.09e-03	0	60	0	435159040	55	6473
2026-01-21 08:03:00.48	20.21	14.63	-42.3	-47.1	10.5	3.95e-03	0	60	0	440401920	55	6559
2026-01-21 08:03:03.51	19.65	14.49	-42.4	-47.4	10.3	5.51e-03	0	60	0	446693376	55	6725
2026-01-21 08:03:06.54	19.09	14.35	-42.5	-47.6	10.0	7.96e-03	0	60	0	451936256	55	6922
2026-01-21 08:03:09.57	18.53	14.21	-42.5	-47.7	9.8	1.13e-02	0	60	0	458227712	55	7025
2026-01-21 08:03:12.60	17.98	14.06	-42.5	-47.7	9.8	1.04e-02	0	60	0	463470592	55	7013
2026-01-21 08:03:15.63	17.43	13.91	-42.4	-47.5	10.1	7.69e-03	0	60	0	468713472	55	6813
2026-01-21 08:03:18.66	16.89	13.77	-42.4	-47.6	10.0	7.68e-03	0	60	0	475004928	55	6881
2026-01-21 08:03:21.69	16.36	13.62	-42.7	-48.3	9.1	1.89e-02	0	60	0	480247808	55	7506
2026-01-21 08:03:24.73	15.83	13.46	-42.7	-48.5	8.9	2.77e-02	0	60	0	486539264	55	7642
2026-01-21 08:03:27.75	15.31	13.31	-42.6	-48.3	9.0	2.30e-02	0	60	0	491782144	55	7509
2026-01-21 08:03:30.78	14.79	13.16	-42.6	-48.4	8.9	2.92e-02	0	60	0	497025024	55	7609
2026-01-21 08:03:33.81	14.28	13.00	-42.6	-48.4	8.8	2.85e-02	0	60	0	503316480	55	7585
2026-01-21 08:03:36.84	13.77	12.84	-42.5	-48.3	8.8	3.24e-02	0	60	0	508559360	55	7524
2026-01-21 08:03:39.86	13.27	12.69	-42.5	-48.3	8.8	3.06e-02	0	60	0	514850816	55	7515
2026-01-21 08:03:42.89	12.78	12.53	-42.4	-48.4	8.5	4.12e-02	0	60	0	520093696	55	7605
2026-01-21 08:03:45.92	12.28	12.37	-42.3	-48.4	8.4	4.79e-02	0	60	0	526385152	55	7577
2026-01-21 08:03:48.95	11.80	12.21	-42.2	-48.3	8.3	4.92e-02	0	60	0	531628032	55	7513
2026-01-21 08:03:51.98	11.32	12.04	-41.8	-47.8	8.6	4.60e-02	0	60	0	536870912	55	7077
2026-01-21 08:03:55.01	10.85	11.88	-41.6	-47.5	8.7	3.46e-02	0	60	0	543162368	55	6809
2026-01-21 08:03:58.03	10.38	11.72	-41.8	-48.5	7.5	8.26e-02	0	60	0	548405248	55	7675
2026-01-21 08:04:01.06	9.92	11.55	-41.8	-49.5	6.5	1.85e-01	0	60	0	554696704	55	8567
2026-01-21 08:04:04.09	9.46	11.39	-42.4	-52.0	4.9	5.61e-01	0	60	0	559939584	55	11487
2026-01-21 08:04:07.12	9.01	11.22	-42.3	-55.8	3.8	1.41e+00	0	60	104	560988160	55	17723
2026-01-21 08:04:10.14	8.56	11.06	-41.5	-54.7	3.8	1.49e+00	0	60	104	560988160	55	15603
2026-01-21 08:04:13.17	8.12	10.89	-40.6	-55.2	3.8	1.49e+00	0	60	104	560988160	53	18624
2026-01-21 08:04:16.20	7.68	10.72	-41.2	-54.9	3.8	1.49e+00	0	60	104	560988160	54	17074
2026-01-21 08:04:19.23	7.25	10.56	-41.1	-55.6	3.8	1.49e+00	0	60	104	560988160	54	18394
2026-01-21 08:04:22.26	6.82	10.39	-40.2	-54.8	3.8	1.49e+00	0	60	104	560988160	52	18744
2026-01-21 08:04:25.29	6.40	10.22	-40.2	-54.8	3.8	1.49e+00	0	60	104	560988160	52	18779
2026-01-21 08:04:28.31	5.98	10.05	-40.2	-54.8	3.8	1.49e+00	0	60	104	560988160	52	18823
2026-01-21 08:04:31.34	5.57	9.88	-40.2	-54.8	3.8	1.49e+00	0	61	104	560988160	52	18748
2026-01-21 08:04:34.37	5.16	9.71	-40.1	-54.7	3.8	1.49e+00	0	60	104	560988160	52	18562
2026-01-21 08:04:37.40	4.76	9.54	-40.4	-55.0	3.8	1.49e+00	0	61	104	560988160	52	19259
2026-01-21 08:04:40.43	4.36	9.37	-40.3	-54.9	3.8	1.49e+00	0	60	104	560988160	52	18992
2026-01-21 08:04:43.46	3.97	9.20	-40.3	-54.9	3.8	1.49e+00	0	61	104	560988160	52	18983
2026-01-21 08:04:46.49	3.58	9.03	-40.1	-54.7	3.8	1.49e+00	0	61	104	560988160	52	18633
2026-01-21 08:04:49.52	3.20	8.86	-40.0	-54.6	3.8	1.49e+00	0	60	104	560988160	52	18475
2026-01-21 08:04:52.55	2.82	8.69	-40.1	-54.6	3.8	1.49e+00	0	61	104	560988160	52	18500
2026-01-21 08:04:55.57	2.44	8.52	-40.1	-54.7	3.8	1.49e+00	0	61	104	560988160	52	18572
2026-01-21 08:04:58.60	2.07	8.35	-40.1	-54.7	3.8	1.49e+00	0	61	104	560988160	52	18579
2026-01-21 08:05:01.63	1.71	8.18	-40.1	-54.7	3.8	1.49e+00	0	60	104	560988160	52	18553
2026-01-21 08:05:04.66	1.35	8.01	-40.2	-54.9	3.8	1.49e+00	0	61	104	560988160	52	18958
2026-01-21 08:05:07.69	0.99	7.84	-45.1	-59.9	3.8	1.49e+00	0	61	104	560988160	60	21264
2026-01-21 08:05:10.72	0.64	7.67	-45.5	-60.2	3.8	1.49e+00	0	60	104	560988160	61	20893
2026-01-21 08:05:13.75	0.29	7.50	-45.5	-60.2	3.8	1.49e+00	0	60	104	560988160	61	20863
2026-01-21 08:05:16.78	359.95	7.33	-45.3	-60.0	3.8	1.49e+00	0	61	104	560988160	61	20489
2026-01-21 08:05:19.81	359.61	7.16	-45.4	-59.9	3.8	1.49e+00	0	61	104	560988160	61	20243
2026-01-21 08:05:22.84	359.27	6.99	-45.3	-59.9	3.8	1.49e+00	0	61	104	560988160	61	20156
2026-01-21 08:05:25.87	358.94	6.82	-45.3	-59.9	3.8	1.49e+00	0	61	104	560988160	61	20144
2026-01-21 08:05:28.90	358.61	6.65	-45.3	-59.9	3.8	1.49e+00	0	61	104	560988160	61	20122
2026-01-21 08:05:31.94	358.28	6.48	-45.3	-59.9	3.8	1.49e+00	0	60	104	560988160	61	20128
2026-01-21 08:05:34.96	357.96	6.31	-45.3	-59.9	3.8	1.49e+00	0	61	104	560988160	61	20091
2026-01-21 08:05:37.99	357.65	6.14	-45.3	-59.8	3.8	1.49e+00	0	61	104	560988160	61	20023
2026-01-21 08:05:41.02	357.34	5.97	-45.3	-59.8	3.8	1.49e+00	0	61	104	560988160	61	19981
2026-01-21 08:05:44.05	357.03	5.81	-45.3	-59.8	3.8	1.49e+00	0	61	104	560988160	61	20028
2026-01-21 08:05:47.08	356.72	5.64	-45.3	-59.8	3.8	1.49e+00	0	60	104	560988160	61	19937
2026-01-21 08:05:50.11	356.42	5.47	-45.3	-59.8	3.8	1.49e+00	0	61	104	560988160	61	20014
2026-01-21 08:05:53.14	356.12	5.30	-45.3	-59.8	3.8	1.49e+00	0	61	104	560988160	61	20006
2026-01-21 08:05:56.17	355.83	5.14	-45.2	-59.8	3.8	1.49e+00	0	60	104	560988160	61	19987
2026-01-21 08:05:59.20	355.54	4.97	-45.3	-59.8	3.8	1.49e+00	0	61	104	560988160	61	20042
2026-01-21 08:06:02.23	355.25	4.80	-45.1	-59.8	3.8	1.49e+00	0	61	104	560988160	61	19919
2026-01-21 08:06:05.26	354.96	4.64	-45.2	-59.8	3.8	1.49e+00	0	61	104	560988160	61	19971
2026-01-21 08:06:08.29	354.68	4.47	-45.2	-59.8	3.8	1.49e+00	0	61	104	560988160	61	19929
2026-01-21 08:06:11.32	354.40	4.31	-45.2	-59.8	3.8	1.49e+00	0	61	104	560988160	61	19996
2026-01-21 08:06:14.35	354.13	4.14	-45.1	-59.8	3.8	1.49e+00	0	61	104	560988160	61	19966
2026-01-21 08:06:17.38	353.86	3.98	-45.2	-59.8	3.8	1.49e+00	0	61	104	560988160	61	19998
2026-01-21 08:06:20.42	353.59	3.81	-45.2	-59.8	3.8	1.49e+00	0	61	104	560988160	61	20038
2026-01-21 08:06:23.45	353.32	3.65	-45.2	-59.8	3.8	1.49e+00	0	61	104	560988160	61	19967
2026-01-21 08:06:26.48	353.06	3.49	-45.2	-59.8	3.8	1.49e+00	0	61	104	560988160	61	19926
2026-01-21 08:06:29.51	352.80	3.33	-45.2	-59.8	3.8	1.49e+00	0	61	104	560988160	61	19863
2026-01-21 08:06:32.54	352.55	3.16	-45.2	-59.8	3.8	1.49e+00	0	61	104	560988160	61	19961
2026-01-21 08:06:35.57	352.29	3.00	-45.2	-59.8	3.8	1.49e+00	0	61	104	560988160	61	19921
2026-01-21 08:06:38.60	352.04	2.84	-45.2	-59.8	3.8	1.49e+00	0	61	104	560988160	61	19930
2026-01-21 08:06:41.64	351.80	2.68	-45.2	-59.8	3.8	1.49e+00	0	61	104	560988160	61	19935
2026-01-21 08:06:44.67	351.55	2.52	-45.2	-59.8	3.8	1.49e+00	0	61	104	560988160	60	21063
2026-01-21 08:06:47.70	351.31	2.36	-45.2	-59.8	3.8	1.49e+00	0	61	104	560988160	60	21125
2026-01-21 08:06:50.73	351.07	2.20	-45.2	-59.8	3.8	1.49e+00	0	61	104	560988160	61	19952
2026-01-21 08:06:53.76	350.84	2.04	-45.2	-59.7	3.8	1.49e+00	0	61	104	560988160	61	19841

#Closed at: 2026-01-21 08:06:55
#Recorded file [560 MB]: D:/lorett/data/31039_260121_105507.dat