passes_logs/2026/01/21/R2.0S_Moscow/R2.0S_Moscow__20260121_025658_AQUA_rec.log

#Pass ID: 20260121_025658_AQUA
#Satellite: AQUA
#Configuration: AQUA
#almurnet v.1.7.20251203
#Start time: 2026-01-21 02:57:00

#Version: 2.2.20231116
#Station: R2.0S_Moscow
#Location: 37.707566 lon 55.798166 lat
#TLE: 1 27424U 02022A   26020.30984080  .00001497  00000+0  30942-3 0  9998
#TLE: 2 27424  98.4092 346.8266 0001984  71.7888  69.0903 14.61835321261661

#Time	Az	El	Level	Level2	SNR	BER	BlckErr	Temp	State	Recorded	gain1	gain2
2026-01-21 02:57:00.01	6.69	2.11	-39.6	-60.1	3.8	7.45e-01	0	49	0	0	51	36690
2026-01-21 02:57:03.03	6.46	2.29	-39.6	-60.1	3.8	7.45e-01	0	49	104	0	49	41011
2026-01-21 02:57:06.07	6.22	2.46	-39.5	-60.1	3.8	7.45e-01	0	49	104	0	49	41107
2026-01-21 02:57:09.10	5.98	2.64	-39.6	-60.1	3.8	7.46e-01	0	49	104	0	49	40999
2026-01-21 02:57:12.13	5.74	2.82	-39.6	-60.0	3.8	7.47e-01	0	50	104	0	49	40915
2026-01-21 02:57:15.17	5.49	2.99	-39.6	-60.0	3.8	7.46e-01	0	50	104	0	49	40952
2026-01-21 02:57:18.20	5.24	3.17	-39.5	-60.0	3.8	7.46e-01	0	50	104	0	49	40889
2026-01-21 02:57:21.23	4.99	3.35	-39.5	-60.0	3.8	7.46e-01	0	50	104	0	49	40956
2026-01-21 02:57:24.26	4.73	3.53	-39.5	-60.0	3.8	7.48e-01	0	50	104	0	49	40924
2026-01-21 02:57:27.29	4.47	3.71	-39.6	-60.0	3.8	7.46e-01	0	50	104	0	49	40961
2026-01-21 02:57:30.32	4.21	3.90	-39.6	-60.0	3.8	7.45e-01	0	51	104	0	49	40893
2026-01-21 02:57:33.35	3.94	4.08	-39.5	-60.0	3.8	7.46e-01	0	51	104	0	49	40940
2026-01-21 02:57:36.38	3.67	4.26	-39.5	-60.0	3.8	7.43e-01	0	51	104	0	49	40913
2026-01-21 02:57:39.42	3.39	4.45	-39.5	-60.0	3.8	7.43e-01	0	51	104	0	49	40934
2026-01-21 02:57:42.45	3.11	4.63	-39.5	-60.0	3.8	7.42e-01	0	52	104	0	49	40926
2026-01-21 02:57:45.48	2.83	4.82	-39.5	-60.0	3.8	7.46e-01	0	51	104	0	49	40948
2026-01-21 02:57:48.51	2.54	5.00	-39.5	-60.0	3.8	7.46e-01	0	52	104	0	49	40868
2026-01-21 02:57:51.54	2.25	5.19	-39.5	-60.0	3.8	7.46e-01	0	52	104	0	49	40917
2026-01-21 02:57:54.57	1.95	5.38	-39.5	-60.0	3.8	7.43e-01	0	52	104	0	49	40828
2026-01-21 02:57:57.60	1.65	5.57	-39.5	-60.0	3.8	7.45e-01	0	52	104	0	49	40819
2026-01-21 02:58:00.64	1.34	5.76	-39.5	-60.0	3.8	7.44e-01	0	52	104	0	49	40936
2026-01-21 02:58:03.67	1.03	5.95	-39.5	-60.0	3.8	7.42e-01	0	53	104	0	49	40870
2026-01-21 02:58:06.70	0.72	6.14	-39.5	-60.0	3.8	7.46e-01	0	53	104	0	49	40884
2026-01-21 02:58:09.73	0.40	6.33	-39.5	-60.0	3.8	7.47e-01	0	53	104	0	49	40882
2026-01-21 02:58:12.77	0.07	6.53	-39.5	-60.0	3.8	7.42e-01	0	53	104	0	49	40820
2026-01-21 02:58:15.80	359.75	6.72	-39.5	-60.0	3.8	7.44e-01	0	53	104	0	49	40810
2026-01-21 02:58:18.83	359.41	6.91	-39.5	-60.0	3.8	7.43e-01	0	53	104	0	49	40782
2026-01-21 02:58:21.85	359.07	7.11	-39.6	-60.0	3.8	7.44e-01	0	53	104	0	49	40867
2026-01-21 02:58:24.88	358.73	7.30	-39.5	-60.0	3.8	7.44e-01	0	54	104	0	49	40899
2026-01-21 02:58:27.92	358.38	7.50	-39.5	-60.0	3.8	7.45e-01	0	53	104	0	49	40809
2026-01-21 02:58:30.95	358.02	7.70	-39.5	-60.0	3.8	7.50e-01	0	54	104	0	49	40836
2026-01-21 02:58:33.98	357.66	7.90	-39.6	-60.0	3.8	7.51e-01	0	54	104	0	49	40811
2026-01-21 02:58:37.01	357.30	8.10	-39.6	-60.0	3.8	7.44e-01	0	54	104	0	49	40677
2026-01-21 02:58:40.03	356.93	8.30	-39.6	-60.2	3.8	7.43e-01	0	54	104	0	50	39576
2026-01-21 02:58:43.06	356.55	8.50	-39.6	-60.1	3.8	7.44e-01	0	54	104	0	51	36840
2026-01-21 02:58:46.09	356.17	8.70	-40.5	-60.2	3.8	7.46e-01	0	54	104	0	51	37280
2026-01-21 02:58:49.12	355.78	8.90	-40.3	-60.2	3.8	7.47e-01	0	54	104	0	51	37025
2026-01-21 02:58:52.15	355.39	9.10	-40.5	-60.3	3.8	7.48e-01	0	54	104	0	52	35325
2026-01-21 02:58:55.18	354.99	9.30	-40.3	-60.1	3.8	7.46e-01	0	54	104	0	52	34741
2026-01-21 02:58:58.21	354.58	9.51	-41.0	-60.4	3.8	7.45e-01	0	54	104	0	52	35820
2026-01-21 02:59:01.24	354.16	9.71	-40.9	-60.3	3.8	7.46e-01	0	54	104	0	52	35292
2026-01-21 02:59:04.26	353.75	9.91	-41.1	-60.4	3.8	7.45e-01	0	55	104	0	52	35839
2026-01-21 02:59:07.29	353.32	10.12	-41.0	-60.4	3.8	7.45e-01	0	55	104	0	53	33839
2026-01-21 02:59:10.32	352.89	10.32	-41.1	-60.6	3.8	7.45e-01	0	55	104	0	53	34627
2026-01-21 02:59:13.35	352.45	10.53	-41.0	-60.7	3.8	7.43e-01	0	55	104	0	53	34945
2026-01-21 02:59:16.37	352.00	10.74	-41.4	-60.8	3.8	7.47e-01	0	55	104	0	53	35378
2026-01-21 02:59:19.40	351.55	10.94	-41.2	-60.7	3.8	7.47e-01	0	55	104	0	53	34968
2026-01-21 02:59:22.43	351.09	11.15	-41.7	-60.9	3.8	7.43e-01	0	55	104	0	54	34046
2026-01-21 02:59:25.46	350.62	11.35	-41.5	-60.8	3.8	7.46e-01	0	55	104	0	54	33428
2026-01-21 02:59:28.49	350.14	11.56	-41.8	-60.9	3.8	7.44e-01	0	55	104	0	54	33857
2026-01-21 02:59:31.52	349.66	11.77	-41.7	-60.8	3.8	7.47e-01	0	55	104	0	54	33537
2026-01-21 02:59:34.55	349.17	11.97	-41.7	-61.0	3.8	7.45e-01	0	55	104	0	54	34256
2026-01-21 02:59:37.58	348.67	12.18	-41.7	-61.1	3.8	7.46e-01	0	55	104	0	54	34676
2026-01-21 02:59:40.61	348.16	12.39	-41.9	-61.1	3.8	7.48e-01	0	55	104	0	54	34784
2026-01-21 02:59:43.64	347.65	12.59	-42.1	-61.3	3.8	7.45e-01	0	56	104	0	54	35316
2026-01-21 02:59:46.66	347.13	12.80	-42.0	-61.3	3.8	7.48e-01	0	56	104	0	54	35351
2026-01-21 02:59:49.69	346.60	13.01	-42.0	-61.1	3.8	7.47e-01	0	56	104	0	54	34722
2026-01-21 02:59:52.72	346.06	13.21	-41.8	-61.0	3.8	7.49e-01	0	56	104	0	54	34400
2026-01-21 02:59:55.74	345.52	13.42	-41.9	-61.1	3.8	7.41e-01	0	56	104	0	54	34664
2026-01-21 02:59:58.77	344.97	13.62	-41.8	-61.0	3.8	7.47e-01	0	56	104	0	54	34282
2026-01-21 03:00:01.80	344.40	13.83	-41.6	-60.9	3.8	7.46e-01	0	56	104	0	54	33951
2026-01-21 03:00:04.82	343.83	14.03	-41.8	-60.9	3.8	7.45e-01	0	56	104	0	54	33804
2026-01-21 03:00:07.85	343.25	14.23	-41.7	-60.9	3.8	7.44e-01	0	56	104	0	54	33872
2026-01-21 03:00:10.88	342.66	14.43	-41.4	-60.9	3.8	7.44e-01	0	56	104	0	54	33748
2026-01-21 03:00:13.90	342.07	14.63	-41.5	-60.8	3.8	7.45e-01	0	56	104	0	54	33635
2026-01-21 03:00:16.93	341.46	14.83	-41.6	-61.0	3.8	7.44e-01	0	56	104	0	54	34185
2026-01-21 03:00:19.97	340.85	15.03	-41.1	-61.1	3.8	7.47e-01	0	56	104	0	54	34561
2026-01-21 03:00:22.99	340.23	15.22	-41.4	-60.9	3.8	7.45e-01	0	56	104	0	54	33978
2026-01-21 03:00:26.02	339.59	15.42	-41.6	-61.2	3.8	7.45e-01	0	56	104	0	54	35138
2026-01-21 03:00:29.05	338.95	15.61	-42.1	-57.7	3.8	7.45e-01	0	56	104	0	54	23542
2026-01-21 03:00:32.07	338.30	15.80	-44.2	-62.9	3.8	7.43e-01	0	56	104	0	59	31820
2026-01-21 03:00:35.10	337.64	15.99	-42.0	-55.5	3.8	7.45e-01	0	56	104	0	55	17203
2026-01-21 03:00:38.13	336.97	16.18	-43.2	-57.3	3.8	7.42e-01	0	56	104	0	57	18854
2026-01-21 03:00:41.16	336.30	16.36	-44.4	-61.3	3.9	7.45e-01	0	57	104	0	60	25126
2026-01-21 03:00:44.19	335.61	16.55	-42.0	-55.0	3.8	7.42e-01	0	56	104	0	56	15336
2026-01-21 03:00:47.21	334.92	16.73	-45.1	-62.9	3.8	7.46e-01	0	56	104	0	60	30066
2026-01-21 03:00:50.24	334.21	16.90	-42.7	-55.9	3.8	7.44e-01	0	57	104	0	57	16000
2026-01-21 03:00:53.27	333.50	17.08	-43.9	-58.1	3.8	7.45e-01	0	56	104	0	58	19412
2026-01-21 03:00:56.30	332.78	17.25	-43.3	-57.1	3.9	7.47e-01	0	57	104	0	58	17376
2026-01-21 03:00:59.33	332.05	17.42	-42.5	-55.6	3.8	7.46e-01	0	57	104	0	56	16431
2026-01-21 03:01:02.36	331.31	17.58	-43.0	-56.3	3.8	7.46e-01	0	57	104	0	58	15886
2026-01-21 03:01:05.38	330.56	17.74	-44.5	-60.6	3.9	7.41e-01	0	56	104	0	60	23174
2026-01-21 03:01:08.41	329.80	17.90	-42.5	-55.4	3.8	7.44e-01	0	57	104	0	56	16025
2026-01-21 03:01:11.44	329.04	18.05	-45.1	-62.1	3.8	7.43e-01	0	57	104	0	61	25972
2026-01-21 03:01:14.47	328.26	18.20	-43.0	-56.4	3.8	7.44e-01	0	57	104	0	57	16997
2026-01-21 03:01:17.50	327.48	18.35	-42.4	-55.3	3.8	7.46e-01	0	57	104	0	56	15865
2026-01-21 03:01:20.52	326.69	18.49	-42.6	-55.7	3.9	7.47e-01	0	57	104	0	57	15642
2026-01-21 03:01:23.55	325.90	18.63	-42.6	-55.6	3.8	7.41e-01	0	57	104	0	57	15417
2026-01-21 03:01:26.58	325.09	18.76	-42.4	-55.3	3.8	7.44e-01	0	57	104	0	56	15938
2026-01-21 03:01:29.61	324.28	18.89	-43.9	-58.6	3.9	7.39e-01	0	57	104	0	59	19514
2026-01-21 03:01:32.64	323.46	19.01	-42.9	-56.1	3.8	7.46e-01	0	57	104	0	57	16400
2026-01-21 03:01:35.66	322.64	19.12	-45.2	-62.2	3.7	7.48e-01	0	57	104	0	60	27983
2026-01-21 03:01:38.69	321.80	19.23	-43.0	-56.3	3.8	7.45e-01	0	57	104	0	57	16803
2026-01-21 03:01:41.72	320.96	19.34	-44.5	-59.8	3.8	7.45e-01	0	57	104	0	60	21195
2026-01-21 03:01:44.75	320.12	19.44	-44.2	-58.6	3.7	7.47e-01	0	57	104	0	58	20728
2026-01-21 03:01:47.78	319.26	19.53	-42.6	-55.8	3.8	7.41e-01	0	57	104	0	57	15815
2026-01-21 03:01:50.81	318.41	19.62	-44.1	-58.2	3.8	7.46e-01	0	57	104	0	58	19691
2026-01-21 03:01:53.84	317.55	19.70	-43.3	-56.9	3.9	7.42e-01	0	57	104	0	58	17030
2026-01-21 03:01:56.87	316.68	19.78	-44.6	-59.8	3.8	7.44e-01	0	57	104	0	59	22318
2026-01-21 03:01:59.90	315.81	19.85	-45.2	-62.8	3.7	7.48e-01	0	57	104	0	61	28059
2026-01-21 03:02:02.93	314.93	19.91	-42.6	-55.8	3.8	7.47e-01	0	57	104	0	57	15846
2026-01-21 03:02:05.96	314.05	19.97	-43.7	-58.0	3.8	7.44e-01	0	57	104	0	57	20393
2026-01-21 03:02:08.99	313.17	20.02	-45.4	-63.4	3.7	7.45e-01	0	57	104	0	61	30044
2026-01-21 03:02:12.02	312.28	20.06	-42.7	-55.7	3.8	7.42e-01	0	57	104	0	57	15597
2026-01-21 03:02:15.05	311.40	20.10	-45.5	-63.3	3.8	7.49e-01	0	57	104	0	61	29799
2026-01-21 03:02:18.07	310.51	20.13	-43.0	-56.5	3.8	7.46e-01	0	57	104	0	57	17185
2026-01-21 03:02:21.10	309.62	20.15	-43.8	-57.5	3.8	7.43e-01	0	57	104	0	58	18161
2026-01-21 03:02:24.13	308.73	20.16	-44.4	-59.5	3.8	7.42e-01	0	57	104	0	60	20409
2026-01-21 03:02:27.16	307.83	20.17	-43.1	-56.6	3.8	7.44e-01	0	57	104	0	57	17344
2026-01-21 03:02:30.19	306.94	20.17	-45.3	-63.0	3.9	7.44e-01	0	57	104	0	61	28910
2026-01-21 03:02:33.21	306.05	20.17	-44.0	-58.5	3.8	7.42e-01	0	57	104	0	58	20393
2026-01-21 03:02:36.24	305.15	20.16	-43.0	-56.2	3.8	7.45e-01	0	57	104	0	57	16518
2026-01-21 03:02:39.27	304.26	20.14	-45.2	-62.7	3.9	7.40e-01	0	57	104	0	61	27726
2026-01-21 03:02:42.30	303.37	20.11	-42.5	-55.2	3.8	7.47e-01	0	57	104	0	57	14727
2026-01-21 03:02:45.33	302.48	20.08	-42.9	-56.0	3.8	7.44e-01	0	57	104	0	57	16211
2026-01-21 03:02:48.35	301.60	20.04	-44.1	-58.1	3.9	7.43e-01	0	57	104	0	59	18313
2026-01-21 03:02:51.38	300.71	19.99	-42.7	-55.8	3.8	7.44e-01	0	57	104	0	57	15803
2026-01-21 03:02:54.41	299.83	19.94	-43.7	-57.8	3.9	7.39e-01	0	57	104	0	59	17886
2026-01-21 03:02:57.44	298.95	19.88	-43.6	-57.7	3.8	7.44e-01	0	57	104	0	58	18561
2026-01-21 03:03:00.47	298.08	19.81	-42.7	-56.1	3.8	7.44e-01	0	57	104	0	57	16458
2026-01-21 03:03:03.50	297.21	19.74	-44.2	-58.5	3.9	7.47e-01	0	57	104	0	60	18205
2026-01-21 03:03:06.52	296.35	19.66	-42.6	-55.8	3.8	7.45e-01	0	57	104	0	57	15818
2026-01-21 03:03:09.55	295.48	19.57	-43.8	-58.2	3.8	7.46e-01	0	58	104	0	59	18680
2026-01-21 03:03:12.58	294.63	19.48	-42.9	-55.8	3.9	7.47e-01	0	58	104	0	57	15818
2026-01-21 03:03:15.61	293.78	19.38	-43.1	-56.4	3.8	7.40e-01	0	57	104	0	58	16023
2026-01-21 03:03:18.63	292.94	19.28	-43.0	-56.1	3.8	7.45e-01	0	57	104	0	57	16395
2026-01-21 03:03:21.66	292.10	19.17	-42.9	-56.5	3.9	7.39e-01	0	57	104	0	57	17180
2026-01-21 03:03:24.69	291.27	19.05	-42.9	-46.8	16.6	6.01e-01	0	57	104	0	56	5978
2026-01-21 03:03:27.72	290.44	18.93	-44.8	-53.0	10.5	6.12e-01	0	58	0	5242880	60	9621
2026-01-21 03:03:30.75	289.63	18.81	-42.4	-46.0	17.5	6.01e-01	0	57	0	9437184	56	5441
2026-01-21 03:03:33.78	288.82	18.68	-42.3	-45.9	17.5	6.02e-01	0	57	0	15204352	56	5376
2026-01-21 03:03:36.80	288.01	18.54	-42.4	-46.1	17.4	6.01e-01	0	58	0	20447232	56	5488
2026-01-21 03:03:39.83	287.22	18.40	-42.4	-46.1	17.4	6.02e-01	0	58	0	26214400	56	5507
2026-01-21 03:03:42.86	286.43	18.26	-42.4	-46.2	17.3	6.03e-01	0	58	0	31981568	56	5529
2026-01-21 03:03:45.89	285.65	18.11	-42.4	-46.1	17.3	5.99e-01	0	57	0	37748736	56	5516
2026-01-21 03:03:48.92	284.88	17.96	-42.1	-45.6	17.7	6.04e-01	0	58	0	43515904	55	5515
2026-01-21 03:03:51.95	284.12	17.80	-42.2	-45.8	17.5	6.03e-01	0	57	0	49283072	55	5646
2026-01-21 03:03:54.97	283.36	17.64	-42.1	-45.6	17.8	6.03e-01	0	58	0	54525952	56	5178
2026-01-21 03:03:58.00	282.62	17.48	-42.2	-45.8	17.5	6.02e-01	0	58	0	60293120	55	5649
2026-01-21 03:04:01.03	281.88	17.31	-42.5	-46.3	17.1	6.02e-01	0	57	0	66060288	56	5617
2026-01-21 03:04:04.06	281.15	17.14	-42.4	-46.2	17.1	6.01e-01	0	57	0	71827456	55	5897
2026-01-21 03:04:07.09	280.43	16.97	-42.5	-46.4	17.0	6.01e-01	0	58	0	77594624	55	6009
2026-01-21 03:04:10.12	279.72	16.79	-42.2	-45.9	17.5	6.00e-01	0	57	0	83361792	55	5666
2026-01-21 03:04:13.14	279.02	16.61	-41.9	-45.3	18.0	6.04e-01	0	58	0	88604672	55	5319
2026-01-21 03:04:16.17	278.33	16.43	-42.0	-45.4	17.8	6.02e-01	0	57	0	94371840	55	5399
2026-01-21 03:04:19.20	277.64	16.24	-42.2	-45.8	17.5	6.01e-01	0	58	0	100139008	55	5607
2026-01-21 03:04:22.23	276.97	16.06	-42.2	-45.9	17.5	6.01e-01	0	57	0	105906176	55	5661
2026-01-21 03:04:25.26	276.30	15.87	-42.1	-45.6	17.7	5.99e-01	0	58	0	111673344	55	5511
2026-01-21 03:04:28.28	275.65	15.68	-42.0	-45.5	17.7	6.02e-01	0	58	0	117440512	55	5457
2026-01-21 03:04:31.31	275.00	15.48	-42.2	-45.8	17.5	6.02e-01	0	58	0	122683392	55	5632
2026-01-21 03:04:34.34	274.36	15.29	-42.0	-45.5	17.8	6.02e-01	0	58	0	128450560	55	5449
2026-01-21 03:04:37.37	273.73	15.09	-42.0	-45.6	17.6	6.02e-01	0	58	0	134217728	55	5492
2026-01-21 03:04:40.40	273.11	14.89	-42.0	-45.6	17.6	6.02e-01	0	58	0	139984896	55	5523
2026-01-21 03:04:43.43	272.49	14.70	-42.1	-45.7	17.5	6.00e-01	0	58	0	145752064	55	5567
2026-01-21 03:04:46.45	271.89	14.50	-42.1	-45.7	17.5	6.03e-01	0	58	0	150994944	55	5552
2026-01-21 03:04:49.48	271.30	14.29	-42.1	-45.8	17.4	5.99e-01	0	58	0	156762112	55	5610
2026-01-21 03:04:52.51	270.71	14.09	-42.1	-45.8	17.4	6.01e-01	0	58	0	162529280	55	5614
2026-01-21 03:04:55.54	270.13	13.89	-42.1	-45.7	17.5	6.02e-01	0	58	0	168296448	55	5554
2026-01-21 03:04:58.57	269.56	13.68	-42.0	-45.7	17.5	6.03e-01	0	58	0	174063616	55	5566
2026-01-21 03:05:01.60	269.00	13.48	-42.1	-45.7	17.4	6.06e-01	0	58	0	179830784	55	5581
2026-01-21 03:05:04.63	268.45	13.27	-42.1	-45.9	17.3	5.99e-01	0	58	0	185597952	55	5658
2026-01-21 03:05:07.66	267.90	13.07	-42.2	-46.0	17.1	6.02e-01	0	58	0	190840832	55	5738
2026-01-21 03:05:10.69	267.37	12.86	-42.0	-45.7	17.4	6.01e-01	0	58	0	196608000	55	5572
2026-01-21 03:05:13.71	266.84	12.65	-42.2	-46.0	17.1	6.00e-01	0	58	0	202375168	55	5740
2026-01-21 03:05:16.74	266.32	12.44	-42.0	-45.8	17.3	6.00e-01	0	58	0	208142336	55	5597
2026-01-21 03:05:19.77	265.81	12.24	-42.1	-45.9	17.1	6.00e-01	0	58	0	213909504	55	5712
2026-01-21 03:05:22.80	265.30	12.03	-42.1	-45.9	17.1	6.01e-01	0	58	0	219152384	55	5720
2026-01-21 03:05:25.83	264.81	11.82	-42.1	-46.0	17.0	6.00e-01	0	58	0	224919552	55	5746
2026-01-21 03:05:28.85	264.32	11.61	-42.2	-46.1	16.9	5.99e-01	0	58	0	230686720	55	5812
2026-01-21 03:05:31.89	263.84	11.41	-42.2	-46.2	16.8	6.00e-01	0	58	0	236453888	55	5887
2026-01-21 03:05:34.91	263.36	11.20	-42.2	-46.1	16.8	5.98e-01	0	58	0	242221056	55	5852
2026-01-21 03:05:37.94	262.90	10.99	-42.2	-46.1	16.8	6.02e-01	0	58	0	247988224	55	5823
2026-01-21 03:05:40.97	262.44	10.78	-42.3	-46.3	16.7	6.01e-01	0	58	0	253755392	55	5949
2026-01-21 03:05:44.00	261.98	10.58	-42.2	-46.2	16.7	6.00e-01	0	58	0	258998272	55	5891
2026-01-21 03:05:47.02	261.54	10.37	-42.3	-46.4	16.6	6.01e-01	0	58	0	264765440	55	5999
2026-01-21 03:05:50.05	261.10	10.17	-42.3	-46.3	16.6	6.00e-01	0	58	0	270532608	55	5977
2026-01-21 03:05:53.08	260.67	9.96	-42.3	-46.4	16.5	6.02e-01	0	58	0	276299776	55	6030
2026-01-21 03:05:56.11	260.24	9.76	-42.4	-46.6	16.2	5.99e-01	0	58	0	282066944	55	6201
2026-01-21 03:05:59.14	259.82	9.55	-42.4	-46.6	16.2	6.01e-01	0	58	0	287309824	55	6174
2026-01-21 03:06:02.16	259.41	9.35	-42.3	-46.4	16.5	5.98e-01	0	58	0	293076992	55	6019
2026-01-21 03:06:05.19	259.00	9.14	-42.4	-46.6	16.2	6.00e-01	0	58	0	298844160	55	6172
2026-01-21 03:06:08.22	258.60	8.94	-42.3	-46.5	16.3	6.01e-01	0	58	0	304611328	55	6108
2026-01-21 03:06:11.25	258.21	8.74	-42.3	-46.6	16.2	6.02e-01	0	58	0	310378496	55	6168
2026-01-21 03:06:14.28	257.82	8.54	-42.5	-46.9	15.8	6.01e-01	0	58	0	316145664	55	6420
2026-01-21 03:06:17.31	257.44	8.33	-42.4	-46.7	16.1	5.99e-01	0	58	0	321388544	55	6213
2026-01-21 03:06:20.34	257.06	8.13	-42.5	-46.9	15.9	6.00e-01	0	58	0	327155712	55	6388
2026-01-21 03:06:23.37	256.69	7.93	-45.4	-63.6	3.8	7.46e-01	0	58	104	331874304	61	30872
2026-01-21 03:06:26.40	256.32	7.73	-46.1	-64.6	3.8	7.46e-01	0	58	104	331874304	62	32919
2026-01-21 03:06:29.43	255.96	7.54	-46.2	-64.9	3.8	7.46e-01	0	58	104	331874304	63	31824
2026-01-21 03:06:32.46	255.61	7.34	-46.3	-64.9	3.8	7.48e-01	0	58	104	331874304	63	32098
2026-01-21 03:06:35.49	255.26	7.14	-46.2	-64.8	3.8	7.48e-01	0	58	104	331874304	63	31612
2026-01-21 03:06:38.52	254.92	6.94	-46.3	-64.9	3.8	7.44e-01	0	58	104	331874304	63	31847
2026-01-21 03:06:41.56	254.58	6.75	-46.2	-64.8	3.8	7.45e-01	0	58	104	331874304	63	31528
2026-01-21 03:06:44.59	254.24	6.55	-46.2	-64.8	3.8	7.46e-01	0	58	104	331874304	63	31507
2026-01-21 03:06:47.62	253.91	6.36	-46.2	-64.7	3.8	7.48e-01	0	58	104	331874304	63	31443
2026-01-21 03:06:50.64	253.59	6.17	-46.2	-64.8	3.8	7.50e-01	0	58	104	331874304	63	31484
2026-01-21 03:06:53.68	253.27	5.97	-46.2	-64.8	3.8	7.45e-01	0	58	104	331874304	63	31492
2026-01-21 03:06:56.71	252.95	5.78	-46.2	-64.7	3.8	7.45e-01	0	58	104	331874304	63	31430
2026-01-21 03:06:59.74	252.64	5.59	-46.2	-64.7	3.8	7.45e-01	0	58	104	331874304	63	31403
2026-01-21 03:07:02.77	252.34	5.40	-46.2	-64.7	3.8	7.47e-01	0	58	104	331874304	63	31431
2026-01-21 03:07:05.80	252.04	5.21	-46.2	-64.7	3.8	7.43e-01	0	58	104	331874304	63	31420
2026-01-21 03:07:08.83	251.74	5.02	-46.2	-64.8	3.8	7.46e-01	0	58	104	331874304	63	31454
2026-01-21 03:07:11.87	251.44	4.84	-46.2	-64.7	3.8	7.46e-01	0	58	104	331874304	63	31342
2026-01-21 03:07:14.90	251.16	4.65	-46.2	-64.7	3.8	7.47e-01	0	58	104	331874304	63	31402
2026-01-21 03:07:17.93	250.87	4.46	-46.2	-64.7	3.8	7.42e-01	0	58	104	331874304	63	31350
2026-01-21 03:07:20.96	250.59	4.28	-46.2	-64.8	3.8	7.43e-01	0	58	104	331874304	63	31448
2026-01-21 03:07:23.99	250.31	4.09	-46.2	-64.7	3.8	7.45e-01	0	58	104	331874304	63	31411
2026-01-21 03:07:27.02	250.04	3.91	-46.2	-64.7	3.8	7.44e-01	0	58	104	331874304	62	33256
2026-01-21 03:07:30.05	249.77	3.73	-46.2	-64.7	3.8	7.45e-01	0	58	104	331874304	62	33137
2026-01-21 03:07:33.09	249.51	3.55	-46.2	-64.7	3.8	7.43e-01	0	58	104	331874304	62	33207
2026-01-21 03:07:36.12	249.24	3.36	-46.2	-64.7	3.8	7.46e-01	0	58	104	331874304	62	33154
2026-01-21 03:07:39.15	248.99	3.18	-46.1	-64.7	3.8	7.46e-01	0	58	104	331874304	62	33165
2026-01-21 03:07:42.18	248.73	3.01	-46.2	-64.7	3.8	7.47e-01	0	58	104	331874304	62	33126
2026-01-21 03:07:45.21	248.48	2.83	-46.2	-64.7	3.8	7.45e-01	0	58	104	331874304	62	33173
2026-01-21 03:07:48.25	248.23	2.65	-46.1	-64.7	3.8	7.45e-01	0	58	104	331874304	62	33138
2026-01-21 03:07:51.28	247.99	2.47	-46.1	-64.7	3.8	7.41e-01	0	58	104	331874304	62	33133
2026-01-21 03:07:54.31	247.75	2.30	-46.1	-64.7	3.8	7.44e-01	0	58	104	331874304	62	33123
2026-01-21 03:07:57.34	247.51	2.12	-46.1	-64.7	3.8	7.49e-01	0	58	104	331874304	62	33128
2026-01-21 03:08:00.37	247.27	1.95	-46.1	-64.7	3.8	7.46e-01	0	58	104	331874304	62	33077

#Closed at: 2026-01-21 03:08:02
#Recorded file [331 MB]: D:/lorett/data/31039_260121_055659.dat