passes_logs/2026/01/21/R2.0S_Moscow/R2.0S_Moscow__20260121_002013_FENGYUN_3D_rec.log

#Pass ID: 20260121_002013_FENGYUN 3D
#Satellite: FENGYUN 3D
#Configuration: FENGYUN 3D
#almurnet v.1.7.20251203
#Start time: 2026-01-21 00:20:13

#Version: 2.2.20231116
#Station: R2.0S_Moscow
#Location: 37.707566 lon 55.798166 lat
#TLE: 1 43010U 17072A   26020.28933472  .00000051  00000+0  46008-4 0  9990
#TLE: 2 43010  98.9944 352.1871 0002476  99.7001 260.4455 14.19696838424006

#Time	Az	El	Level	Level2	SNR	BER	BlckErr	Temp	State	Recorded	gain1	gain2
2026-01-21 00:20:13.43	25.10	2.01	-41.7	-54.1	3.8	8.47e-01	0	48	0	0	55	14581
2026-01-21 00:20:17.46	25.37	2.23	-41.7	-54.0	3.8	8.45e-01	0	49	104	0	54	15390
2026-01-21 00:20:21.50	25.65	2.46	-41.8	-54.1	3.8	8.45e-01	0	50	104	0	54	15461
2026-01-21 00:20:25.54	25.94	2.69	-41.7	-54.1	3.8	8.47e-01	0	50	104	0	54	15452
2026-01-21 00:20:29.59	26.23	2.91	-41.8	-54.1	3.8	8.46e-01	0	50	104	0	54	15433
2026-01-21 00:20:33.63	26.52	3.14	-41.8	-54.0	3.8	8.46e-01	0	50	104	0	54	15369
2026-01-21 00:20:37.67	26.82	3.37	-41.7	-54.0	3.8	8.46e-01	0	51	104	0	54	15400
2026-01-21 00:20:41.71	27.12	3.61	-41.7	-54.1	3.8	8.46e-01	0	51	104	0	54	15436
2026-01-21 00:20:45.75	27.43	3.84	-41.7	-54.1	3.8	8.48e-01	0	51	104	0	54	15457
2026-01-21 00:20:49.79	27.74	4.07	-41.7	-54.1	3.8	8.47e-01	0	51	104	0	54	15442
2026-01-21 00:20:53.84	28.05	4.31	-41.7	-54.0	3.8	8.47e-01	0	52	104	0	54	15372
2026-01-21 00:20:57.88	28.37	4.55	-41.7	-54.1	3.8	8.45e-01	0	52	104	0	54	15440
2026-01-21 00:21:01.92	28.70	4.79	-41.7	-54.1	3.8	8.47e-01	0	52	104	0	54	15460
2026-01-21 00:21:05.96	29.03	5.03	-41.7	-54.1	3.8	8.46e-01	0	52	104	0	54	15414
2026-01-21 00:21:10.00	29.36	5.27	-41.7	-54.1	3.8	8.46e-01	0	52	104	0	54	15440
2026-01-21 00:21:14.04	29.71	5.51	-41.7	-54.1	3.8	8.47e-01	0	53	104	0	54	15444
2026-01-21 00:21:18.09	30.05	5.76	-41.7	-54.1	3.8	8.46e-01	0	53	104	0	54	15407
2026-01-21 00:21:22.13	30.40	6.01	-41.7	-54.1	3.8	8.46e-01	0	53	104	0	54	15429
2026-01-21 00:21:26.17	30.76	6.25	-41.7	-54.0	3.8	8.46e-01	0	53	104	0	54	15232
2026-01-21 00:21:30.21	31.13	6.50	-41.7	-53.8	3.8	8.46e-01	0	53	104	0	54	14943
2026-01-21 00:21:34.25	31.50	6.75	-41.7	-54.0	3.8	8.47e-01	0	53	104	0	54	15341
2026-01-21 00:21:38.30	31.87	7.01	-41.6	-53.3	3.8	8.46e-01	0	54	104	0	54	14138
2026-01-21 00:21:42.34	32.25	7.26	-41.7	-53.9	3.8	8.45e-01	0	54	104	0	54	15154
2026-01-21 00:21:46.38	32.64	7.52	-41.3	-50.4	4.2	8.42e-01	0	54	0	0	54	10136
2026-01-21 00:21:50.42	33.04	7.77	-39.5	-43.7	9.1	3.55e-02	0	54	0	15728640	51	5572
2026-01-21 00:21:54.46	33.44	8.03	-40.3	-45.1	7.8	5.24e-02	0	55	0	37748736	51	6547
2026-01-21 00:21:58.50	33.85	8.29	-40.8	-47.5	4.3	8.45e-01	0	55	104	44040192	52	8117
2026-01-21 00:22:02.54	34.26	8.55	-38.9	-41.8	11.8	7.99e-04	0	54	0	63963136	49	5015
2026-01-21 00:22:06.58	34.68	8.81	-39.0	-41.8	12.0	5.74e-04	0	55	0	87031808	49	4985
2026-01-21 00:22:10.62	35.11	9.08	-39.1	-41.8	12.2	2.55e-04	0	55	0	109051904	49	5010
2026-01-21 00:22:14.66	35.55	9.34	-39.1	-41.7	12.3	2.71e-04	0	55	0	132120576	49	4959
2026-01-21 00:22:18.71	36.00	9.61	-39.1	-41.7	12.5	2.17e-04	0	55	0	155189248	49	4928
2026-01-21 00:22:22.75	36.45	9.88	-38.9	-41.4	12.9	8.46e-05	0	55	0	177209344	49	4762
2026-01-21 00:22:26.79	36.91	10.15	-39.0	-41.4	13.0	8.69e-05	0	55	0	200278016	49	4798
2026-01-21 00:22:30.83	37.38	10.42	-38.9	-41.1	13.4	1.83e-05	0	55	0	223346688	49	4631
2026-01-21 00:22:34.87	37.86	10.69	-38.9	-41.2	13.4	2.97e-05	0	55	0	245366784	49	4688
2026-01-21 00:22:38.91	38.35	10.97	-39.0	-41.2	13.4	3.66e-05	0	56	0	268435456	49	4689
2026-01-21 00:22:42.95	38.84	11.24	-39.1	-41.3	13.3	1.48e-05	0	55	0	291504128	49	4755
2026-01-21 00:22:46.99	39.35	11.52	-38.8	-41.0	13.7	4.50e-06	0	56	0	313524224	49	4559
2026-01-21 00:22:51.03	39.86	11.80	-38.7	-40.8	14.0	8.00e-06	0	56	0	336592896	49	4461
2026-01-21 00:22:55.06	40.38	12.07	-38.8	-40.9	14.0	1.02e-05	0	56	0	359661568	49	4514
2026-01-21 00:22:59.10	40.92	12.35	-38.8	-41.0	13.9	1.10e-06	0	56	0	381681664	49	4546
2026-01-21 00:23:03.13	41.46	12.63	-38.7	-40.7	14.1	3.40e-06	0	56	0	404750336	49	4437
2026-01-21 00:23:07.17	42.01	12.92	-38.5	-40.5	14.4	1.10e-06	0	56	0	427819008	49	4313
2026-01-21 00:23:11.21	42.57	13.20	-38.5	-40.5	14.5	2.20e-06	0	56	0	449839104	49	4310
2026-01-21 00:23:15.25	43.15	13.48	-38.6	-40.6	14.4	1.10e-06	0	56	0	472907776	48	4639
2026-01-21 00:23:19.29	43.73	13.77	-38.5	-40.4	14.6	0.00e+00	0	56	0	495976448	48	4540
2026-01-21 00:23:23.33	44.33	14.05	-38.5	-40.5	14.5	1.10e-06	0	56	0	517996544	48	4597
2026-01-21 00:23:27.36	44.93	14.34	-38.4	-40.3	14.7	0.00e+00	0	56	0	541065216	48	4484
2026-01-21 00:23:31.40	45.55	14.62	-38.4	-40.3	14.8	1.10e-06	0	56	0	564133888	48	4477
2026-01-21 00:23:35.44	46.18	14.91	-38.2	-40.1	15.0	1.10e-06	0	56	0	586153984	48	4376
2026-01-21 00:23:39.48	46.82	15.19	-38.1	-40.0	15.1	0.00e+00	0	57	0	609222656	48	4313
2026-01-21 00:23:43.52	47.48	15.48	-38.1	-40.0	15.2	0.00e+00	0	57	0	632291328	48	4294
2026-01-21 00:23:47.56	48.14	15.76	-38.1	-40.0	15.2	0.00e+00	0	57	0	654311424	48	4292
2026-01-21 00:23:51.60	48.82	16.05	-38.1	-39.9	15.2	0.00e+00	0	56	0	677380096	48	4280
2026-01-21 00:23:55.63	49.51	16.34	-37.9	-39.7	15.3	0.00e+00	0	57	0	700448768	47	4441
2026-01-21 00:23:59.67	50.22	16.62	-37.9	-39.7	15.4	0.00e+00	0	57	0	722468864	47	4422
2026-01-21 00:24:03.71	50.93	16.90	-38.0	-39.9	15.2	0.00e+00	0	57	0	745537536	47	4504
2026-01-21 00:24:07.74	51.66	17.19	-37.7	-39.5	15.6	0.00e+00	0	57	0	768606208	47	4301
2026-01-21 00:24:11.78	52.41	17.47	-37.6	-39.3	15.7	0.00e+00	0	57	0	790626304	47	4242
2026-01-21 00:24:15.82	53.17	17.75	-37.5	-39.2	15.9	0.00e+00	0	57	0	813694976	47	4192
2026-01-21 00:24:19.86	53.94	18.03	-37.7	-39.4	15.7	0.00e+00	0	57	0	836763648	47	4273
2026-01-21 00:24:23.90	54.72	18.30	-37.8	-39.5	15.6	0.00e+00	0	57	0	858783744	47	4321
2026-01-21 00:24:27.93	55.52	18.58	-37.8	-39.5	15.6	0.00e+00	0	57	0	881852416	47	4329
2026-01-21 00:24:31.97	56.33	18.85	-37.4	-39.0	16.1	0.00e+00	0	57	0	903872512	46	4333
2026-01-21 00:24:36.01	57.16	19.12	-37.5	-39.2	16.0	0.00e+00	0	57	0	926941184	46	4406
2026-01-21 00:24:40.05	58.01	19.38	-37.4	-39.1	16.1	0.00e+00	0	57	0	950009856	46	4373
2026-01-21 00:24:44.09	58.86	19.65	-37.4	-39.0	16.2	0.00e+00	0	57	0	973078528	46	4316
2026-01-21 00:24:48.13	59.73	19.91	-37.5	-39.2	15.9	0.00e+00	0	57	0	995098624	46	4413
2026-01-21 00:24:52.16	60.62	20.16	-37.1	-38.9	16.0	0.00e+00	0	57	0	1018167296	46	4269
2026-01-21 00:24:56.21	61.52	20.41	-37.2	-39.0	16.0	0.00e+00	0	58	0	1041235968	46	4297
2026-01-21 00:25:00.24	62.43	20.66	-37.0	-38.8	16.1	0.00e+00	0	57	0	1063256064	46	4212
2026-01-21 00:25:04.27	63.36	20.90	-36.9	-38.6	16.4	0.00e+00	0	57	0	1086324736	45	4349
2026-01-21 00:25:08.31	64.30	21.14	-36.7	-38.4	16.5	0.00e+00	0	58	0	1108344832	45	4247
2026-01-21 00:25:12.35	65.26	21.37	-36.7	-38.4	16.5	0.00e+00	0	57	0	1131413504	45	4280
2026-01-21 00:25:16.39	66.23	21.59	-36.6	-38.3	16.6	0.00e+00	0	57	0	1154482176	45	4201
2026-01-21 00:25:20.43	67.22	21.81	-36.7	-38.5	16.4	0.00e+00	0	57	0	1176502272	45	4300
2026-01-21 00:25:24.46	68.22	22.02	-36.7	-38.4	16.4	0.00e+00	0	58	0	1199570944	45	4254
2026-01-21 00:25:28.50	69.23	22.23	-36.7	-38.4	16.3	0.00e+00	0	58	0	1222639616	45	4288
2026-01-21 00:25:32.54	70.26	22.42	-37.0	-38.7	16.0	0.00e+00	0	58	0	1245708288	45	4437
2026-01-21 00:25:36.58	71.29	22.61	-36.6	-38.3	16.4	0.00e+00	0	57	0	1267728384	45	4227
2026-01-21 00:25:40.61	72.34	22.79	-36.6	-38.3	16.4	0.00e+00	0	58	0	1290797056	45	4235
2026-01-21 00:25:44.65	73.40	22.96	-36.6	-38.4	16.3	0.00e+00	0	58	0	1312817152	45	4251
2026-01-21 00:25:48.69	74.48	23.13	-36.6	-38.3	16.4	0.00e+00	0	57	0	1335885824	45	4226
2026-01-21 00:25:52.73	75.56	23.28	-36.8	-38.6	16.2	0.00e+00	0	58	0	1358954496	45	4366
2026-01-21 00:25:56.77	76.66	23.42	-36.6	-38.3	16.5	0.00e+00	0	58	0	1380974592	45	4200
2026-01-21 00:26:00.81	77.76	23.56	-36.4	-38.0	16.8	0.00e+00	0	58	0	1404043264	44	4315
2026-01-21 00:26:04.85	78.88	23.68	-36.3	-37.9	17.0	0.00e+00	0	58	0	1427111936	44	4244
2026-01-21 00:26:08.89	80.00	23.80	-36.4	-38.0	16.8	0.00e+00	0	58	0	1450180608	44	4336
2026-01-21 00:26:12.94	81.13	23.90	-36.5	-38.2	16.7	0.00e+00	0	57	0	1472200704	44	4406
2026-01-21 00:26:16.98	82.27	23.99	-36.4	-38.0	16.8	0.00e+00	0	58	0	1495269376	44	4327
2026-01-21 00:26:21.01	83.41	24.07	-36.5	-38.1	16.8	0.00e+00	0	58	0	1517289472	44	4380
2026-01-21 00:26:25.05	84.56	24.14	-36.5	-38.2	16.7	0.00e+00	0	57	0	1540358144	44	4402
2026-01-21 00:26:29.09	85.71	24.19	-36.2	-37.8	17.1	0.00e+00	0	58	0	1563426816	44	4224
2026-01-21 00:26:33.12	86.86	24.24	-36.4	-38.1	16.8	0.00e+00	0	58	0	1585446912	44	4347
2026-01-21 00:26:37.16	88.02	24.27	-36.4	-38.0	16.9	0.00e+00	0	58	0	1608515584	44	4336
2026-01-21 00:26:41.20	89.18	24.29	-36.4	-38.0	16.9	0.00e+00	0	58	0	1631584256	44	4330
2026-01-21 00:26:45.23	90.34	24.30	-36.3	-37.9	17.1	0.00e+00	0	58	0	1654652928	44	4262
2026-01-21 00:26:49.27	91.51	24.30	-36.2	-37.8	17.1	0.00e+00	0	58	0	1676673024	44	4238
2026-01-21 00:26:53.31	92.67	24.28	-36.4	-38.0	17.0	0.00e+00	0	58	0	1699741696	44	4311
2026-01-21 00:26:57.36	93.83	24.25	-36.5	-38.2	16.8	0.00e+00	0	58	0	1721761792	44	4396
2026-01-21 00:27:01.40	94.99	24.21	-36.4	-38.0	17.0	0.00e+00	0	58	0	1744830464	44	4318
2026-01-21 00:27:05.43	96.15	24.16	-36.4	-38.1	17.0	0.00e+00	0	58	0	1767899136	44	4341
2026-01-21 00:27:09.47	97.30	24.10	-36.4	-38.1	17.0	0.00e+00	0	58	0	1789919232	44	4348
2026-01-21 00:27:13.51	98.44	24.02	-36.5	-38.1	16.9	0.00e+00	0	58	0	1812987904	44	4373
2026-01-21 00:27:17.55	99.58	23.93	-36.4	-38.0	17.1	0.00e+00	0	58	0	1836056576	44	4307
2026-01-21 00:27:21.59	100.72	23.84	-36.6	-38.2	16.8	0.00e+00	0	58	0	1859125248	44	4433
2026-01-21 00:27:25.63	101.85	23.73	-36.7	-38.4	16.7	0.00e+00	0	58	0	1881145344	44	4507
2026-01-21 00:27:29.67	102.97	23.61	-36.5	-38.2	16.9	0.00e+00	0	58	0	1904214016	44	4401
2026-01-21 00:27:33.71	104.08	23.47	-36.4	-38.1	17.0	0.00e+00	0	58	0	1926234112	44	4356
2026-01-21 00:27:37.75	105.18	23.33	-36.6	-38.3	16.8	0.00e+00	0	58	0	1949302784	44	4450
2026-01-21 00:27:41.79	106.27	23.18	-36.5	-38.2	16.9	0.00e+00	0	58	0	1972371456	44	4408
2026-01-21 00:27:45.83	107.35	23.02	-36.6	-38.2	16.9	0.00e+00	0	58	0	1995440128	44	4416
2026-01-21 00:27:49.87	108.42	22.85	-36.7	-38.4	16.7	0.00e+00	0	58	0	2017460224	44	4499
2026-01-21 00:27:53.91	109.48	22.68	-36.7	-38.4	16.6	0.00e+00	0	58	0	2040528896	44	4534
2026-01-21 00:27:57.95	110.52	22.49	-36.7	-38.4	16.6	0.00e+00	0	58	0	2063597568	44	4522
2026-01-21 00:28:01.99	111.56	22.29	-36.7	-38.5	16.6	0.00e+00	0	58	0	2085617664	44	4549
2026-01-21 00:28:06.02	112.58	22.09	-36.8	-38.5	16.5	0.00e+00	0	58	0	2108686336	44	4597
2026-01-21 00:28:10.06	113.58	21.88	-36.9	-38.6	16.4	0.00e+00	0	58	0	2130706432	44	4631
2026-01-21 00:28:14.10	114.58	21.66	-36.9	-38.7	16.3	0.00e+00	0	58	0	2153775104	44	4689
2026-01-21 00:28:18.14	115.56	21.44	-36.7	-38.5	16.5	0.00e+00	0	58	0	2176843776	44	4548
2026-01-21 00:28:22.18	116.53	21.21	-36.8	-38.5	16.6	0.00e+00	0	58	0	2198863872	44	4547
2026-01-21 00:28:26.21	117.48	20.97	-37.1	-38.9	16.2	0.00e+00	0	58	0	2221932544	44	4769
2026-01-21 00:28:30.25	118.41	20.73	-37.0	-38.8	16.1	0.00e+00	0	58	0	2245001216	44	4719
2026-01-21 00:28:34.29	119.34	20.49	-37.1	-38.9	16.1	0.00e+00	0	58	0	2268069888	44	4779
2026-01-21 00:28:38.33	120.25	20.23	-37.0	-38.8	16.3	0.00e+00	0	58	0	2290089984	44	4709
2026-01-21 00:28:42.37	121.14	19.98	-37.1	-38.8	16.2	0.00e+00	0	58	0	2313158656	44	4756
2026-01-21 00:28:46.41	122.02	19.72	-37.2	-39.0	16.0	0.00e+00	0	58	0	2335178752	44	4848
2026-01-21 00:28:50.44	122.89	19.45	-37.3	-39.2	15.8	0.00e+00	0	58	0	2358247424	45	4687
2026-01-21 00:28:54.48	123.74	19.19	-37.5	-39.4	15.6	0.00e+00	0	58	0	2381316096	45	4784
2026-01-21 00:28:58.52	124.58	18.92	-37.6	-39.6	15.3	0.00e+00	0	58	0	2403336192	45	4871
2026-01-21 00:29:02.56	125.40	18.64	-37.5	-39.5	15.5	0.00e+00	0	58	0	2426404864	45	4818
2026-01-21 00:29:06.60	126.21	18.37	-37.5	-39.4	15.5	0.00e+00	0	58	0	2449473536	45	4787
2026-01-21 00:29:10.64	127.00	18.09	-37.4	-39.2	15.7	0.00e+00	0	58	0	2472542208	45	4677
2026-01-21 00:29:14.67	127.78	17.81	-37.7	-39.6	15.3	0.00e+00	0	58	0	2494562304	45	4893
2026-01-21 00:29:18.72	128.55	17.53	-37.9	-39.9	15.0	0.00e+00	0	58	0	2517630976	46	4812
2026-01-21 00:29:22.76	129.30	17.24	-37.8	-39.7	15.2	0.00e+00	0	58	0	2539651072	46	4690
2026-01-21 00:29:26.80	130.04	16.96	-37.9	-40.0	14.9	4.65e-04	0	58	0	2562719744	46	4827
2026-01-21 00:29:30.83	130.76	16.67	-37.9	-40.0	14.8	2.74e-05	0	58	0	2585788416	46	4830
2026-01-21 00:29:34.87	131.47	16.39	-37.9	-40.0	14.7	1.48e-02	0	58	0	2607808512	46	4846
2026-01-21 00:29:38.91	132.17	16.10	-37.9	-40.0	14.5	1.53e-03	0	58	0	2630877184	46	4842
2026-01-21 00:29:42.96	132.86	15.81	-38.1	-40.2	14.4	2.06e-02	0	58	0	2653945856	46	4946
2026-01-21 00:29:46.99	133.53	15.52	-38.1	-40.2	13.8	3.84e-03	0	58	0	2675965952	46	4957
2026-01-21 00:29:51.03	134.19	15.23	-37.8	-40.0	14.3	1.19e-02	0	58	0	2699034624	46	4824
2026-01-21 00:29:55.07	134.84	14.94	-37.5	-40.3	13.6	9.08e-02	0	58	0	2721054720	46	5037
2026-01-21 00:29:59.11	135.47	14.66	-38.1	-40.3	13.8	1.72e-02	0	58	0	2743074816	46	5012
2026-01-21 00:30:03.15	136.10	14.37	-38.1	-40.4	13.5	1.83e-02	0	58	0	2766143488	46	5056
2026-01-21 00:30:07.19	136.71	14.08	-34.2	-40.3	7.9	1.47e-01	0	58	0	2788163584	44	5608
2026-01-21 00:30:11.23	137.31	13.79	-32.5	-39.7	8.0	1.71e-01	0	58	0	2810183680	41	6247
2026-01-21 00:30:15.27	137.90	13.50	-38.5	-40.8	13.7	4.51e-03	0	58	0	2832203776	47	5012
2026-01-21 00:30:19.31	138.48	13.22	-38.5	-40.8	13.8	2.19e-02	0	58	0	2855272448	47	5002
2026-01-21 00:30:23.35	139.04	12.93	-38.5	-40.9	13.7	2.46e-03	0	58	0	2877292544	47	5042
2026-01-21 00:30:27.39	139.60	12.65	-38.7	-41.0	13.5	4.57e-05	0	58	0	2900361216	47	5151
2026-01-21 00:30:31.43	140.15	12.36	-38.8	-41.2	13.6	2.17e-05	0	58	0	2923429888	48	4929
2026-01-21 00:30:35.46	140.69	12.08	-38.9	-41.2	13.5	2.05e-05	0	58	0	2945449984	48	4976
2026-01-21 00:30:39.51	141.21	11.80	-38.8	-41.1	13.5	1.37e-05	0	58	0	2968518656	48	4914
2026-01-21 00:30:43.55	141.73	11.52	-38.8	-41.1	13.5	1.48e-05	0	58	0	2991587328	48	4895
2026-01-21 00:30:47.59	142.24	11.24	-38.8	-41.2	13.4	2.51e-05	0	58	0	3014656000	48	4940
2026-01-21 00:30:51.62	142.74	10.96	-39.0	-41.4	13.2	2.97e-05	0	58	0	3036676096	48	5054
2026-01-21 00:30:55.66	143.23	10.69	-39.2	-41.7	12.9	9.15e-05	0	58	0	3059744768	48	5239
2026-01-21 00:30:59.70	143.71	10.41	-39.1	-41.5	13.0	6.86e-05	0	58	0	3081764864	49	4845
2026-01-21 00:31:03.73	144.18	10.14	-39.2	-41.7	12.8	8.92e-05	0	58	0	3104833536	49	4945
2026-01-21 00:31:07.78	144.64	9.86	-39.3	-41.9	12.5	1.67e-04	0	58	0	3127902208	49	5081
2026-01-21 00:31:11.81	145.10	9.59	-39.4	-42.1	12.3	2.32e-04	0	58	0	3149922304	49	5172
2026-01-21 00:31:15.85	145.54	9.32	-39.6	-42.3	12.0	4.34e-04	0	59	0	3172990976	49	5334
2026-01-21 00:31:19.89	145.98	9.05	-39.5	-42.2	12.1	4.02e-04	0	58	0	3196059648	49	5236
2026-01-21 00:31:23.93	146.42	8.79	-39.6	-42.4	11.8	4.98e-04	0	58	0	3219128320	49	5372
2026-01-21 00:31:27.98	146.84	8.52	-39.8	-42.7	11.5	1.06e-03	0	58	0	3241148416	50	5263
2026-01-21 00:31:32.02	147.26	8.25	-39.7	-42.6	11.5	1.45e-03	0	59	0	3264217088	50	5208
2026-01-21 00:31:36.06	147.67	7.99	-44.0	-54.2	3.8	8.03e-01	0	58	104	3284140032	58	12418
2026-01-21 00:31:40.10	148.07	7.73	-45.3	-57.2	3.8	8.46e-01	0	59	104	3284140032	61	14725
2026-01-21 00:31:44.14	148.46	7.47	-45.6	-57.4	3.8	8.47e-01	0	59	104	3284140032	61	15108
2026-01-21 00:31:48.19	148.85	7.21	-45.4	-57.1	3.8	8.47e-01	0	59	104	3284140032	61	14643
2026-01-21 00:31:52.23	149.24	6.96	-45.3	-57.0	3.8	8.46e-01	0	58	104	3284140032	61	14437
2026-01-21 00:31:56.27	149.61	6.70	-45.3	-57.0	3.8	8.47e-01	0	59	104	3284140032	61	14393
2026-01-21 00:32:00.31	149.98	6.45	-45.2	-56.9	3.8	8.46e-01	0	59	104	3284140032	61	14372
2026-01-21 00:32:04.36	150.35	6.19	-45.2	-56.9	3.8	8.46e-01	0	59	104	3284140032	61	14289
2026-01-21 00:32:08.40	150.70	5.94	-45.2	-56.9	3.8	8.45e-01	0	59	104	3284140032	61	14292
2026-01-21 00:32:12.44	151.06	5.69	-45.2	-56.9	3.8	8.45e-01	0	58	104	3284140032	61	14333
2026-01-21 00:32:16.48	151.40	5.45	-45.2	-56.9	3.8	8.47e-01	0	59	104	3284140032	61	14304
2026-01-21 00:32:20.52	151.74	5.20	-45.2	-56.9	3.8	8.46e-01	0	59	104	3284140032	61	14309
2026-01-21 00:32:24.56	152.08	4.96	-45.2	-56.9	3.8	8.47e-01	0	59	104	3284140032	61	14320
2026-01-21 00:32:28.60	152.41	4.71	-45.2	-56.9	3.8	8.45e-01	0	59	104	3284140032	61	14273
2026-01-21 00:32:32.65	152.73	4.47	-45.2	-56.9	3.8	8.45e-01	0	58	104	3284140032	61	14270
2026-01-21 00:32:36.69	153.05	4.23	-45.2	-56.9	3.8	8.47e-01	0	58	104	3284140032	61	14263
2026-01-21 00:32:40.73	153.37	3.99	-45.2	-56.9	3.8	8.46e-01	0	58	104	3284140032	61	14270
2026-01-21 00:32:44.77	153.67	3.75	-45.2	-56.9	3.8	8.47e-01	0	59	104	3284140032	61	14244
2026-01-21 00:32:48.82	153.98	3.52	-45.2	-56.9	3.8	8.46e-01	0	58	104	3284140032	61	14269
2026-01-21 00:32:52.86	154.28	3.28	-45.2	-56.9	3.8	8.45e-01	0	59	104	3284140032	61	14286
2026-01-21 00:32:56.90	154.58	3.05	-45.2	-56.9	3.8	8.45e-01	0	59	104	3284140032	61	14275
2026-01-21 00:33:00.94	154.87	2.82	-45.2	-56.9	3.8	8.46e-01	0	59	104	3284140032	61	14283
2026-01-21 00:33:04.98	155.15	2.59	-45.2	-56.8	3.8	8.46e-01	0	58	104	3284140032	61	14185
2026-01-21 00:33:09.02	155.44	2.36	-45.2	-56.9	3.8	8.46e-01	0	58	104	3284140032	61	14251
2026-01-21 00:33:13.07	155.71	2.13	-45.1	-56.8	3.8	8.45e-01	0	58	104	3284140032	61	14188

#Closed at: 2026-01-21 00:33:15
#Recorded file [3284 MB]: D:/lorett/data/31039_260121_032013.dat