passes_logs/2026/01/21/R2.0S_Moscow/R2.0S_Moscow__20260121_224314_FENGYUN_3G_rec.log

#Pass ID: 20260121_224314_FENGYUN 3G
#Satellite: FENGYUN 3G
#Configuration: FENGYUN 3G
#almurnet v.1.7.20251203
#Start time: 2026-01-21 22:47:21

#Version: 2.2.20231116
#Station: R2.0S_Moscow
#Location: 37.707566 lon 55.798166 lat
#TLE: 1 56232U 23055A   26020.45159834  .00088200  00000+0  13354-2 0  9997
#TLE: 2 56232  49.9936  27.7990 0004112  56.3402 303.7958 15.53862613157044

#Time	Az	El	Level	Level2	SNR	BER	BlckErr	Temp	State	Recorded	gain1	gain2
2026-01-21 22:47:21.01	205.41	16.54	-45.1	-57.5	3.8	1.49e+00	0	58	0	0	61	15308
2026-01-21 22:47:23.02	204.62	16.54	-45.5	-63.5	3.8	8.46e-01	0	58	104	0	62	28957
2026-01-21 22:47:25.04	203.84	16.54	-45.4	-63.4	3.8	8.46e-01	0	58	104	0	62	28489
2026-01-21 22:47:27.07	203.05	16.53	-45.3	-62.5	3.9	8.46e-01	0	58	104	0	62	25627
2026-01-21 22:47:29.09	202.26	16.52	-45.1	-63.2	3.8	8.46e-01	0	58	104	0	62	27917
2026-01-21 22:47:31.11	201.47	16.51	-44.9	-62.9	3.8	8.45e-01	0	58	104	0	61	28579
2026-01-21 22:47:33.13	200.69	16.49	-44.8	-62.8	3.8	8.47e-01	0	58	104	0	61	28165
2026-01-21 22:47:35.15	199.90	16.47	-44.8	-62.8	3.8	8.47e-01	0	58	104	0	61	28214
2026-01-21 22:47:37.17	199.12	16.44	-44.8	-62.9	3.8	8.47e-01	0	58	104	0	61	28486
2026-01-21 22:47:39.19	198.34	16.41	-44.8	-62.9	3.8	8.45e-01	0	58	104	0	61	28366
2026-01-21 22:47:41.22	197.56	16.37	-44.8	-62.3	3.8	8.46e-01	0	58	104	0	61	26636
2026-01-21 22:47:43.24	196.78	16.33	-44.8	-61.5	3.8	8.46e-01	0	58	104	0	61	24297
2026-01-21 22:47:45.26	196.01	16.29	-44.8	-62.5	3.8	8.47e-01	0	58	104	0	61	27169
2026-01-21 22:47:47.28	195.24	16.24	-44.8	-62.4	3.8	8.45e-01	0	58	104	0	61	27027
2026-01-21 22:47:49.30	194.47	16.18	-44.7	-60.2	3.9	8.46e-01	0	58	104	0	61	20830
2026-01-21 22:47:51.32	193.71	16.13	-44.7	-60.9	3.9	8.43e-01	0	58	104	0	61	22533
2026-01-21 22:47:53.34	192.95	16.06	-44.8	-62.9	3.8	8.45e-01	0	58	104	0	61	28388
2026-01-21 22:47:55.36	192.19	16.00	-44.8	-61.9	3.8	8.46e-01	0	58	104	0	61	25413
2026-01-21 22:47:57.38	191.44	15.93	-44.8	-62.4	3.8	8.46e-01	0	58	104	0	61	26942
2026-01-21 22:47:59.40	190.70	15.86	-44.8	-62.8	3.8	8.44e-01	0	58	104	0	61	28279
2026-01-21 22:48:01.42	189.95	15.78	-44.7	-60.5	3.9	8.46e-01	0	58	104	0	61	21668
2026-01-21 22:48:03.44	189.22	15.70	-44.7	-60.5	3.8	8.39e-01	0	58	104	0	61	21532
2026-01-21 22:48:05.47	188.48	15.62	-44.7	-59.3	3.9	8.46e-01	0	58	104	0	61	18933
2026-01-21 22:48:07.49	187.76	15.53	-44.5	-56.7	5.4	8.34e-01	0	58	0	0	61	13959
2026-01-21 22:48:09.51	187.03	15.44	-44.4	-55.1	6.5	5.77e-01	0	58	0	1048576	60	12241
2026-01-21 22:48:11.53	186.32	15.35	-43.2	-48.9	12.9	1.42e-01	0	58	0	3145728	58	6761
2026-01-21 22:48:13.55	185.61	15.25	-43.6	-50.3	11.7	1.17e-04	0	58	0	5242880	57	8422
2026-01-21 22:48:15.57	184.90	15.15	-44.1	-52.7	8.9	3.97e-01	0	58	0	6815744	60	9333
2026-01-21 22:48:17.59	184.21	15.05	-44.2	-53.5	5.0	9.47e-02	0	58	0	8912896	60	10260
2026-01-21 22:48:19.61	183.51	14.94	-41.0	-44.3	18.0	0.00e+00	0	58	0	11010048	52	5636
2026-01-21 22:48:21.63	182.83	14.84	-40.3	-43.2	18.5	1.57e-02	0	58	0	13631488	52	4972
2026-01-21 22:48:23.65	182.15	14.73	-40.0	-42.8	18.8	0.00e+00	0	58	0	15728640	52	4739
2026-01-21 22:48:25.67	181.48	14.61	-40.0	-42.8	18.9	0.00e+00	0	58	0	17825792	51	4988
2026-01-21 22:48:27.68	180.81	14.50	-39.8	-42.5	19.2	0.00e+00	0	58	0	20447232	51	4857
2026-01-21 22:48:29.71	180.15	14.38	-39.9	-42.7	19.0	0.00e+00	0	58	0	22544384	51	4932
2026-01-21 22:48:31.73	179.50	14.26	-39.7	-42.4	19.2	0.00e+00	0	58	0	24641536	51	4797
2026-01-21 22:48:33.75	178.85	14.14	-39.6	-42.3	19.3	0.00e+00	0	58	0	27262976	51	4732
2026-01-21 22:48:35.77	178.21	14.02	-39.6	-42.2	19.4	0.00e+00	0	58	0	29360128	51	4685
2026-01-21 22:48:37.79	177.58	13.89	-39.6	-42.2	19.4	0.00e+00	0	58	0	31457280	51	4700
2026-01-21 22:48:39.81	176.95	13.76	-39.7	-42.4	19.3	0.00e+00	0	58	0	34078720	51	4760
2026-01-21 22:48:41.83	176.34	13.63	-40.2	-43.1	18.5	0.00e+00	0	58	0	36175872	51	5186
2026-01-21 22:48:43.84	175.73	13.50	-40.3	-43.4	18.2	0.00e+00	0	58	0	38273024	51	5359
2026-01-21 22:48:45.86	175.12	13.37	-40.1	-43.0	18.5	0.00e+00	0	58	0	40894464	51	5137
2026-01-21 22:48:47.88	174.52	13.24	-39.9	-42.6	18.9	0.00e+00	0	58	0	42991616	51	4926
2026-01-21 22:48:49.90	173.93	13.10	-40.0	-42.9	18.7	0.00e+00	0	58	0	45088768	51	5050
2026-01-21 22:48:51.92	173.35	12.97	-40.4	-43.4	18.2	0.00e+00	0	58	0	47710208	51	5387
2026-01-21 22:48:53.94	172.77	12.83	-40.8	-44.1	17.6	0.00e+00	0	58	0	49807360	52	5504
2026-01-21 22:48:55.96	172.20	12.69	-40.7	-44.0	17.6	0.00e+00	0	58	0	51904512	52	5454
2026-01-21 22:48:57.98	171.64	12.55	-40.1	-43.0	18.5	0.00e+00	0	58	0	54525952	52	4849
2026-01-21 22:48:59.99	171.09	12.41	-40.1	-43.1	18.6	0.00e+00	0	58	0	56623104	51	5163
2026-01-21 22:49:02.01	170.54	12.27	-40.2	-43.2	18.4	0.00e+00	0	57	0	58720256	51	5250
2026-01-21 22:49:04.03	170.00	12.13	-40.4	-43.5	18.1	0.00e+00	0	58	0	61341696	51	5452
2026-01-21 22:49:06.05	169.46	11.99	-40.6	-43.8	17.8	0.00e+00	0	58	0	63438848	51	5640
2026-01-21 22:49:08.07	168.94	11.84	-40.8	-44.1	17.4	0.00e+00	0	58	0	65536000	52	5506
2026-01-21 22:49:10.09	168.42	11.70	-40.7	-44.0	17.5	0.00e+00	0	57	0	68157440	52	5449
2026-01-21 22:49:12.10	167.90	11.55	-40.4	-43.4	18.1	0.00e+00	0	58	0	70254592	52	5083
2026-01-21 22:49:14.12	167.40	11.41	-40.3	-43.4	18.2	0.00e+00	0	58	0	72351744	52	5049
2026-01-21 22:49:16.14	166.89	11.26	-40.6	-43.8	17.9	0.00e+00	0	58	0	74973184	52	5284
2026-01-21 22:49:18.17	166.40	11.12	-40.6	-43.8	17.7	0.00e+00	0	58	0	77070336	52	5340
2026-01-21 22:49:20.18	165.91	10.97	-40.6	-43.9	17.6	0.00e+00	0	58	0	79167488	52	5392
2026-01-21 22:49:22.21	165.43	10.83	-40.7	-44.1	17.5	0.00e+00	0	58	0	81788928	52	5468
2026-01-21 22:49:24.23	164.95	10.68	-40.8	-44.3	17.3	0.00e+00	0	58	0	83886080	52	5610
2026-01-21 22:49:26.24	164.49	10.53	-41.0	-44.6	17.0	0.00e+00	0	58	0	85983232	52	5817
2026-01-21 22:49:28.26	164.02	10.39	-41.0	-44.6	16.9	0.00e+00	0	58	0	88604672	52	5852
2026-01-21 22:49:30.28	163.57	10.24	-40.9	-44.5	17.0	0.00e+00	0	58	0	90701824	52	5768
2026-01-21 22:49:32.30	163.12	10.09	-40.8	-44.2	17.3	0.00e+00	0	58	0	92798976	52	5548
2026-01-21 22:49:34.32	162.67	9.95	-40.9	-44.4	17.1	0.00e+00	0	58	0	95420416	52	5672
2026-01-21 22:49:36.34	162.23	9.80	-40.9	-44.4	17.1	0.00e+00	0	58	0	97517568	52	5694
2026-01-21 22:49:38.36	161.80	9.65	-40.9	-44.6	16.9	0.00e+00	0	58	0	99614720	52	5792
2026-01-21 22:49:40.37	161.38	9.51	-40.9	-44.6	16.9	0.00e+00	0	58	0	102236160	52	5801
2026-01-21 22:49:42.40	160.96	9.36	-41.1	-44.9	16.7	0.00e+00	0	58	0	104333312	52	6002
2026-01-21 22:49:44.41	160.54	9.21	-41.2	-45.1	16.4	0.00e+00	0	58	0	106430464	52	6139
2026-01-21 22:49:46.43	160.13	9.07	-41.2	-45.2	16.1	0.00e+00	0	58	0	109051904	53	5917
2026-01-21 22:49:48.45	159.73	8.92	-41.0	-44.8	16.6	0.00e+00	0	58	0	111149056	53	5635
2026-01-21 22:49:50.47	159.33	8.78	-41.0	-44.8	16.5	0.00e+00	0	58	0	113246208	53	5599
2026-01-21 22:49:52.49	158.94	8.63	-40.8	-44.6	16.7	0.00e+00	0	58	0	115867648	53	5493
2026-01-21 22:49:54.51	158.55	8.49	-40.9	-44.8	16.4	0.00e+00	0	58	0	117964800	53	5637
2026-01-21 22:49:56.52	158.17	8.34	-40.8	-44.5	16.7	0.00e+00	0	57	0	120061952	53	5450
2026-01-21 22:49:58.54	157.79	8.20	-41.1	-45.2	16.0	0.00e+00	0	58	0	122683392	53	5862
2026-01-21 22:50:00.56	157.42	8.05	-41.2	-45.3	15.8	0.00e+00	0	58	0	124780544	53	5992
2026-01-21 22:50:02.59	157.05	7.91	-44.7	-61.9	3.9	0.00e+00	0	58	104	126353408	60	26940
2026-01-21 22:50:04.61	156.69	7.77	-45.3	-63.6	3.8	8.45e-01	0	58	104	126353408	61	30742
2026-01-21 22:50:06.63	156.34	7.62	-45.5	-63.8	3.8	8.47e-01	0	58	104	126353408	61	31608
2026-01-21 22:50:08.65	155.98	7.48	-45.6	-63.8	3.8	8.46e-01	0	58	104	126353408	61	31648
2026-01-21 22:50:10.66	155.64	7.34	-45.6	-63.7	3.8	8.46e-01	0	58	104	126353408	61	31285
2026-01-21 22:50:12.69	155.29	7.20	-45.5	-63.5	3.8	8.46e-01	0	58	104	126353408	61	30692
2026-01-21 22:50:14.71	154.96	7.06	-45.4	-63.4	3.8	8.46e-01	0	58	104	126353408	61	30371
2026-01-21 22:50:16.73	154.62	6.92	-45.4	-63.5	3.8	8.46e-01	0	58	104	126353408	61	30429
2026-01-21 22:50:18.75	154.29	6.78	-45.3	-63.4	3.8	8.46e-01	0	58	104	126353408	61	30140
2026-01-21 22:50:20.77	153.97	6.64	-45.3	-63.4	3.8	8.47e-01	0	58	104	126353408	61	30130
2026-01-21 22:50:22.79	153.65	6.50	-45.3	-63.4	3.8	8.46e-01	0	58	104	126353408	61	30204
2026-01-21 22:50:24.81	153.33	6.36	-45.3	-63.4	3.8	8.47e-01	0	58	104	126353408	61	30150
2026-01-21 22:50:26.83	153.02	6.22	-45.3	-63.4	3.8	8.45e-01	0	58	104	126353408	61	30115
2026-01-21 22:50:28.85	152.71	6.08	-45.3	-63.4	3.8	8.47e-01	0	58	104	126353408	61	30109
2026-01-21 22:50:30.87	152.41	5.95	-45.3	-63.4	3.8	8.47e-01	0	58	104	126353408	61	30103
2026-01-21 22:50:32.90	152.11	5.81	-45.3	-63.4	3.8	8.46e-01	0	58	104	126353408	61	30065
2026-01-21 22:50:34.92	151.81	5.67	-45.3	-63.4	3.8	8.46e-01	0	58	104	126353408	61	30033
2026-01-21 22:50:36.94	151.52	5.54	-45.3	-63.4	3.8	8.46e-01	0	58	104	126353408	61	30068
2026-01-21 22:50:38.96	151.23	5.40	-45.3	-63.3	3.8	8.46e-01	0	58	104	126353408	61	30014
2026-01-21 22:50:40.98	150.95	5.27	-45.3	-63.4	3.8	8.47e-01	0	58	104	126353408	61	30115
2026-01-21 22:50:43.00	150.67	5.14	-45.3	-63.4	3.8	8.46e-01	0	58	104	126353408	61	30035
2026-01-21 22:50:45.02	150.39	5.00	-45.3	-63.3	3.8	8.46e-01	0	58	104	126353408	61	29985
2026-01-21 22:50:47.05	150.12	4.87	-45.3	-63.3	3.8	8.44e-01	0	58	104	126353408	61	29961
2026-01-21 22:50:49.07	149.85	4.74	-45.3	-63.3	3.8	8.47e-01	0	58	104	126353408	61	30011
2026-01-21 22:50:51.09	149.58	4.61	-45.3	-63.3	3.8	8.45e-01	0	58	104	126353408	61	29993
2026-01-21 22:50:53.11	149.32	4.47	-45.3	-63.3	3.8	8.47e-01	0	58	104	126353408	61	29937
2026-01-21 22:50:55.13	149.06	4.34	-45.3	-63.3	3.8	8.46e-01	0	58	104	126353408	61	29998
2026-01-21 22:50:57.15	148.80	4.21	-45.3	-63.3	3.8	8.45e-01	0	58	104	126353408	61	29949
2026-01-21 22:50:59.17	148.55	4.08	-45.3	-63.3	3.8	8.45e-01	0	58	104	126353408	61	29911
2026-01-21 22:51:01.19	148.30	3.96	-45.3	-63.3	3.8	8.47e-01	0	58	104	126353408	61	29842
2026-01-21 22:51:03.21	148.06	3.83	-45.3	-63.3	3.8	8.46e-01	0	58	104	126353408	61	29981
2026-01-21 22:51:05.23	147.81	3.70	-45.3	-63.3	3.8	8.45e-01	0	58	104	126353408	61	29934
2026-01-21 22:51:07.25	147.57	3.57	-45.3	-63.3	3.8	8.45e-01	0	58	104	126353408	61	29942
2026-01-21 22:51:09.27	147.33	3.45	-45.3	-63.3	3.8	8.45e-01	0	58	104	126353408	61	29896
2026-01-21 22:51:11.29	147.10	3.32	-45.3	-63.3	3.8	8.46e-01	0	58	104	126353408	61	29921
2026-01-21 22:51:13.31	146.87	3.20	-45.2	-63.3	3.8	8.46e-01	0	58	104	126353408	61	29915
2026-01-21 22:51:15.33	146.64	3.07	-45.3	-63.3	3.8	8.45e-01	0	58	104	126353408	61	29906
2026-01-21 22:51:17.35	146.41	2.95	-45.3	-63.3	3.8	8.46e-01	0	58	104	126353408	61	29959
2026-01-21 22:51:19.37	146.19	2.82	-45.2	-63.3	3.8	8.46e-01	0	58	104	126353408	61	29954
2026-01-21 22:51:21.40	145.97	2.70	-45.2	-63.3	3.8	8.45e-01	0	58	104	126353408	61	29980
2026-01-21 22:51:23.42	145.75	2.57	-45.2	-63.3	3.8	8.47e-01	0	58	104	126353408	61	29922
2026-01-21 22:51:25.44	145.54	2.45	-45.3	-63.3	3.8	8.47e-01	0	58	104	126353408	61	29917
2026-01-21 22:51:27.46	145.32	2.33	-45.2	-63.3	3.8	8.45e-01	0	58	104	126353408	61	29894
2026-01-21 22:51:29.48	145.12	2.21	-45.3	-63.3	3.8	8.46e-01	0	58	104	126353408	61	29868
2026-01-21 22:51:31.50	144.91	2.09	-45.2	-63.3	3.8	8.46e-01	0	58	104	126353408	61	29890
2026-01-21 22:51:33.52	144.70	1.97	-45.2	-63.3	3.8	8.46e-01	0	58	104	126353408	61	29866

#Closed at: 2026-01-21 22:51:34
#Recorded file [126 MB]: D:/lorett/data/31039_260122_014720.dat