passes_logs/2026/01/21/R2.0S_Moscow/R2.0S_Moscow__20260121_123041_AQUA_rec.log

#Pass ID: 20260121_123041_AQUA
#Satellite: AQUA
#Configuration: AQUA
#almurnet v.1.7.20251203
#Start time: 2026-01-21 12:30:44

#Version: 2.2.20231116
#Station: R2.0S_Moscow
#Location: 37.707566 lon 55.798166 lat
#TLE: 1 27424U 02022A   26020.30984080  .00001497  00000+0  30942-3 0  9998
#TLE: 2 27424  98.4092 346.8266 0001984  71.7888  69.0903 14.61835321261661

#Time	Az	El	Level	Level2	SNR	BER	BlckErr	Temp	State	Recorded	gain1	gain2
2026-01-21 12:30:44.00	187.62	2.14	-44.9	-63.4	3.8	7.47e-01	0	51	0	0	61	30299
2026-01-21 12:30:47.02	187.76	2.34	-44.8	-63.4	3.8	7.45e-01	0	52	104	0	60	32065
2026-01-21 12:30:50.05	187.91	2.53	-44.8	-63.4	3.8	7.45e-01	0	52	104	0	60	32054
2026-01-21 12:30:53.09	188.07	2.73	-44.9	-63.4	3.8	7.45e-01	0	52	104	0	60	31901
2026-01-21 12:30:56.12	188.22	2.93	-44.9	-63.4	3.8	7.44e-01	0	52	104	0	60	32069
2026-01-21 12:30:59.15	188.38	3.13	-44.8	-63.4	3.8	7.47e-01	0	53	104	0	60	32064
2026-01-21 12:31:02.18	188.54	3.33	-44.8	-63.4	3.8	7.47e-01	0	53	104	0	60	32037
2026-01-21 12:31:05.21	188.70	3.53	-44.8	-63.4	3.8	7.43e-01	0	53	104	0	60	31920
2026-01-21 12:31:08.24	188.86	3.74	-44.8	-63.4	3.8	7.45e-01	0	53	104	0	60	31909
2026-01-21 12:31:11.27	189.02	3.94	-44.8	-63.4	3.8	7.43e-01	0	53	104	0	60	32005
2026-01-21 12:31:14.30	189.19	4.15	-44.8	-63.3	3.8	7.46e-01	0	54	104	0	60	31782
2026-01-21 12:31:17.33	189.36	4.36	-44.8	-63.3	3.8	7.44e-01	0	54	104	0	60	31475
2026-01-21 12:31:20.37	189.54	4.57	-44.8	-63.1	3.8	7.46e-01	0	54	104	0	60	30938
2026-01-21 12:31:23.40	189.71	4.78	-44.8	-62.9	3.8	7.44e-01	0	54	104	0	60	30175
2026-01-21 12:31:26.43	189.89	4.99	-44.8	-62.5	3.8	7.42e-01	0	54	104	0	60	28840
2026-01-21 12:31:29.46	190.07	5.21	-44.8	-62.0	3.8	7.42e-01	0	54	104	0	60	27123
2026-01-21 12:31:32.49	190.26	5.42	-44.7	-59.8	4.1	7.33e-01	0	55	104	0	60	21246
2026-01-21 12:31:35.52	190.44	5.64	-44.7	-58.0	4.9	7.13e-01	4	55	0	0	60	17206
2026-01-21 12:31:38.55	190.63	5.86	-44.4	-55.0	7.1	6.59e-01	92	55	0	3145728	60	12113
2026-01-21 12:31:41.58	190.83	6.09	-44.2	-53.3	8.7	6.37e-01	5	55	0	8912896	60	10041
2026-01-21 12:31:44.61	191.02	6.31	-44.2	-52.1	10.4	6.22e-01	0	55	0	14155776	59	9227
2026-01-21 12:31:47.64	191.22	6.54	-44.3	-52.3	10.2	6.22e-01	0	55	0	19922944	59	9475
2026-01-21 12:31:50.67	191.42	6.77	-44.3	-52.9	9.6	6.27e-01	0	55	0	25690112	59	10090
2026-01-21 12:31:53.70	191.63	7.00	-44.3	-52.9	9.6	6.27e-01	0	56	0	31457280	59	10151
2026-01-21 12:31:56.73	191.84	7.23	-44.0	-51.4	11.2	6.18e-01	0	56	0	37224448	59	8529
2026-01-21 12:31:59.76	192.05	7.46	-43.3	-48.9	13.8	6.06e-01	0	56	0	42991616	58	6779
2026-01-21 12:32:02.79	192.27	7.70	-42.6	-47.1	15.6	6.08e-01	0	56	0	48234496	57	5843
2026-01-21 12:32:05.83	192.49	7.94	-42.6	-47.0	15.7	6.05e-01	0	56	0	54001664	56	6126
2026-01-21 12:32:08.85	192.71	8.18	-44.7	-56.1	8.4	6.68e-01	64	56	0	57671680	59	14626
2026-01-21 12:32:11.88	192.94	8.42	-44.4	-53.1	10.3	6.24e-01	0	56	0	61865984	59	10319
2026-01-21 12:32:14.91	193.17	8.67	-42.5	-46.7	16.2	6.08e-01	0	56	0	67633152	57	5582
2026-01-21 12:32:17.94	193.40	8.92	-42.5	-46.7	16.3	6.05e-01	0	56	0	72876032	56	5884
2026-01-21 12:32:20.97	193.64	9.17	-42.4	-46.5	16.5	6.08e-01	0	56	0	78643200	56	5773
2026-01-21 12:32:24.00	193.89	9.42	-42.5	-46.5	16.5	6.06e-01	0	57	0	84410368	56	5758
2026-01-21 12:32:27.02	194.13	9.67	-42.4	-46.4	16.6	6.07e-01	0	57	0	90177536	56	5713
2026-01-21 12:32:30.05	194.39	9.93	-42.3	-46.2	16.9	6.06e-01	0	56	0	95944704	56	5540
2026-01-21 12:32:33.08	194.65	10.19	-42.4	-46.3	16.8	6.05e-01	0	57	0	101711872	56	5615
2026-01-21 12:32:36.10	194.91	10.45	-42.4	-46.2	16.9	6.05e-01	0	57	0	106954752	56	5588
2026-01-21 12:32:39.13	195.18	10.72	-42.3	-46.1	17.1	6.07e-01	0	57	0	112721920	56	5499
2026-01-21 12:32:42.16	195.45	10.99	-42.3	-46.1	17.1	6.06e-01	0	57	0	118489088	56	5474
2026-01-21 12:32:45.18	195.73	11.26	-42.3	-46.1	17.2	6.07e-01	0	57	0	124256256	56	5481
2026-01-21 12:32:48.21	196.01	11.53	-42.2	-45.9	17.3	6.07e-01	0	57	0	130023424	56	5378
2026-01-21 12:32:51.24	196.30	11.81	-42.3	-46.0	17.3	6.06e-01	0	58	0	135266304	56	5415
2026-01-21 12:32:54.27	196.59	12.09	-42.2	-45.9	17.4	6.06e-01	0	57	0	141033472	56	5371
2026-01-21 12:32:57.29	196.89	12.37	-42.2	-45.7	17.6	6.06e-01	0	58	0	146800640	56	5264
2026-01-21 12:33:00.32	197.20	12.65	-42.2	-45.7	17.6	6.05e-01	0	58	0	152567808	56	5256
2026-01-21 12:33:03.35	197.51	12.94	-42.2	-45.7	17.7	6.07e-01	0	58	0	158334976	56	5258
2026-01-21 12:33:06.38	197.83	13.23	-42.2	-45.7	17.7	6.06e-01	0	58	0	164102144	56	5233
2026-01-21 12:33:09.40	198.16	13.53	-42.0	-45.5	17.8	6.07e-01	0	58	0	169869312	55	5417
2026-01-21 12:33:12.43	198.49	13.83	-41.9	-45.3	18.0	6.05e-01	0	58	0	175112192	55	5316
2026-01-21 12:33:15.46	198.83	14.13	-42.0	-45.3	18.0	6.07e-01	0	58	0	180879360	55	5330
2026-01-21 12:33:18.49	199.17	14.43	-41.9	-45.3	18.1	6.06e-01	0	58	0	186646528	55	5312
2026-01-21 12:33:21.52	199.53	14.74	-41.9	-45.3	18.1	6.06e-01	0	58	0	192413696	55	5312
2026-01-21 12:33:24.55	199.89	15.05	-41.8	-45.1	18.2	6.07e-01	0	58	0	198180864	55	5201
2026-01-21 12:33:27.57	200.26	15.36	-41.9	-45.1	18.3	6.05e-01	0	58	0	203423744	55	5212
2026-01-21 12:33:30.60	200.64	15.68	-41.9	-45.2	18.2	6.06e-01	0	58	0	209190912	55	5231
2026-01-21 12:33:33.63	201.03	16.00	-41.8	-45.1	18.3	6.05e-01	0	58	0	214958080	55	5176
2026-01-21 12:33:36.66	201.42	16.33	-41.8	-45.0	18.4	6.06e-01	0	58	0	220725248	55	5148
2026-01-21 12:33:39.69	201.83	16.66	-41.9	-45.1	18.3	6.05e-01	0	58	0	226492416	55	5195
2026-01-21 12:33:42.72	202.24	16.99	-41.8	-45.0	18.4	6.07e-01	0	58	0	232259584	55	5157
2026-01-21 12:33:45.74	202.66	17.33	-41.9	-45.1	18.4	6.05e-01	0	58	0	237502464	55	5187
2026-01-21 12:33:48.77	203.09	17.67	-42.0	-45.3	18.2	6.07e-01	0	59	0	243269632	55	5303
2026-01-21 12:33:51.80	203.54	18.01	-41.9	-45.1	18.5	6.06e-01	0	58	0	249036800	55	5173
2026-01-21 12:33:54.83	203.99	18.36	-41.9	-45.2	18.4	6.06e-01	0	59	0	254803968	55	5241
2026-01-21 12:33:57.86	204.46	18.71	-41.9	-45.1	18.4	6.06e-01	0	58	0	260571136	55	5178
2026-01-21 12:34:00.89	204.93	19.06	-42.0	-45.2	18.3	6.04e-01	0	59	0	266338304	55	5277
2026-01-21 12:34:03.92	205.42	19.42	-42.1	-45.4	18.2	6.04e-01	0	59	0	271581184	55	5364
2026-01-21 12:34:06.95	205.92	19.78	-41.9	-45.1	18.5	6.07e-01	0	59	0	277348352	55	5201
2026-01-21 12:34:09.98	206.43	20.15	-42.0	-45.3	18.3	6.06e-01	0	59	0	283115520	55	5296
2026-01-21 12:34:13.00	206.95	20.52	-41.9	-45.1	18.5	6.07e-01	0	59	0	288882688	55	5189
2026-01-21 12:34:16.03	207.49	20.89	-42.1	-45.3	18.3	6.07e-01	0	59	0	294649856	55	5335
2026-01-21 12:34:19.06	208.04	21.27	-42.1	-45.4	18.3	6.06e-01	0	59	0	300417024	55	5363
2026-01-21 12:34:22.09	208.61	21.65	-42.0	-45.2	18.5	6.07e-01	0	59	0	305659904	55	5247
2026-01-21 12:34:25.12	209.19	22.03	-42.0	-45.3	18.4	6.07e-01	0	59	0	311427072	55	5293
2026-01-21 12:34:28.15	209.78	22.42	-42.0	-45.2	18.5	6.05e-01	0	59	0	317194240	55	5257
2026-01-21 12:34:31.17	210.39	22.81	-42.0	-45.2	18.5	6.07e-01	0	59	0	322961408	55	5234
2026-01-21 12:34:34.21	211.02	23.21	-42.1	-45.3	18.4	6.06e-01	0	59	0	328728576	55	5326
2026-01-21 12:34:37.23	211.66	23.60	-42.2	-45.4	18.3	6.09e-01	0	59	0	334495744	55	5399
2026-01-21 12:34:40.26	212.32	24.00	-42.2	-45.5	18.3	6.05e-01	0	59	0	339738624	55	5410
2026-01-21 12:34:43.29	213.00	24.41	-42.1	-45.4	18.4	6.07e-01	0	59	0	345505792	55	5365
2026-01-21 12:34:46.32	213.69	24.81	-42.2	-45.5	18.3	6.07e-01	0	59	0	351272960	55	5422
2026-01-21 12:34:49.35	214.41	25.22	-42.3	-45.7	18.1	6.05e-01	0	59	0	357040128	55	5552
2026-01-21 12:34:52.38	215.14	25.63	-42.1	-45.4	18.5	6.06e-01	0	59	0	362807296	55	5349
2026-01-21 12:34:55.41	215.89	26.05	-42.2	-45.4	18.3	6.06e-01	0	59	0	368574464	55	5400
2026-01-21 12:34:58.44	216.66	26.46	-42.2	-45.4	18.4	6.04e-01	0	59	0	373817344	55	5382
2026-01-21 12:35:01.46	217.45	26.88	-42.1	-45.4	18.5	6.06e-01	0	59	0	379584512	55	5342
2026-01-21 12:35:04.49	218.27	27.29	-42.3	-45.5	18.3	6.08e-01	0	59	0	385351680	55	5459
2026-01-21 12:35:07.52	219.11	27.71	-42.2	-45.4	18.4	6.05e-01	0	59	0	391118848	55	5355
2026-01-21 12:35:10.54	219.96	28.13	-42.3	-45.6	18.3	6.06e-01	0	59	0	396886016	55	5472
2026-01-21 12:35:13.57	220.85	28.55	-42.2	-45.4	18.4	6.06e-01	0	59	0	402653184	55	5389
2026-01-21 12:35:16.60	221.75	28.96	-42.1	-45.3	18.5	6.06e-01	0	60	0	407896064	55	5325
2026-01-21 12:35:19.63	222.68	29.38	-42.3	-45.5	18.3	6.05e-01	0	59	0	413663232	55	5459
2026-01-21 12:35:22.66	223.64	29.80	-42.0	-45.2	18.7	6.05e-01	0	60	0	419430400	55	5224
2026-01-21 12:35:25.69	224.62	30.21	-42.3	-45.6	18.3	6.06e-01	0	59	0	425197568	55	5498
2026-01-21 12:35:28.72	225.63	30.62	-42.1	-45.3	18.5	6.07e-01	0	59	0	430964736	55	5329
2026-01-21 12:35:31.75	226.66	31.03	-42.2	-45.5	18.4	6.04e-01	0	59	0	436207616	55	5407
2026-01-21 12:35:34.77	227.71	31.43	-42.3	-45.5	18.3	6.04e-01	0	60	0	441974784	55	5447
2026-01-21 12:35:37.80	228.80	31.83	-42.3	-45.6	18.2	6.06e-01	0	60	0	447741952	55	5504
2026-01-21 12:35:40.83	229.91	32.22	-42.3	-45.6	18.3	6.06e-01	0	59	0	453509120	55	5492
2026-01-21 12:35:43.86	231.05	32.60	-42.4	-45.7	18.2	6.07e-01	0	60	0	459276288	55	5542
2026-01-21 12:35:46.89	232.22	32.98	-42.4	-45.8	18.1	6.05e-01	0	60	0	465043456	55	5594
2026-01-21 12:35:49.92	233.42	33.35	-42.6	-46.0	17.8	6.07e-01	0	60	0	470810624	55	5775
2026-01-21 12:35:52.94	234.64	33.72	-42.5	-45.9	18.0	6.07e-01	0	60	0	476053504	55	5661
2026-01-21 12:35:55.97	235.89	34.07	-42.3	-45.6	18.3	6.04e-01	0	60	0	481820672	55	5466
2026-01-21 12:35:59.00	237.16	34.41	-42.5	-45.9	18.0	6.06e-01	0	60	0	487587840	55	5697
2026-01-21 12:36:02.03	238.47	34.74	-42.4	-45.7	18.2	6.07e-01	0	60	0	493355008	55	5582
2026-01-21 12:36:05.06	239.80	35.05	-42.4	-45.8	18.1	6.05e-01	0	60	0	499122176	55	5593
2026-01-21 12:36:08.08	241.15	35.36	-42.4	-45.8	18.1	6.07e-01	0	60	0	504365056	55	5631
2026-01-21 12:36:11.11	242.53	35.64	-42.4	-45.8	18.1	6.08e-01	0	60	0	510132224	55	5598
2026-01-21 12:36:14.14	243.94	35.92	-42.2	-45.4	18.5	6.08e-01	0	60	0	515899392	55	5376
2026-01-21 12:36:17.16	245.36	36.17	-42.3	-45.6	18.3	6.05e-01	0	60	0	521666560	55	5513
2026-01-21 12:36:20.19	246.81	36.41	-42.3	-45.6	18.4	6.05e-01	0	60	0	527433728	55	5471
2026-01-21 12:36:23.22	248.28	36.63	-42.4	-45.7	18.2	6.07e-01	0	60	0	533200896	55	5529
2026-01-21 12:36:26.24	249.77	36.83	-42.5	-45.8	18.1	6.07e-01	0	60	0	538443776	55	5619
2026-01-21 12:36:29.27	251.28	37.01	-42.3	-45.5	18.4	6.05e-01	0	60	0	544210944	55	5456
2026-01-21 12:36:32.30	252.80	37.17	-42.4	-45.7	18.2	6.06e-01	0	60	0	549978112	55	5564
2026-01-21 12:36:35.33	254.34	37.31	-42.4	-45.7	18.2	6.03e-01	0	60	0	555745280	55	5536
2026-01-21 12:36:38.36	255.89	37.42	-42.3	-45.5	18.4	6.08e-01	0	60	0	561512448	55	5413
2026-01-21 12:36:41.39	257.44	37.51	-42.3	-45.6	18.4	6.06e-01	0	60	0	567279616	55	5472
2026-01-21 12:36:44.41	259.01	37.58	-42.3	-45.5	18.4	6.04e-01	0	60	0	572522496	55	5462
2026-01-21 12:36:47.44	260.58	37.63	-42.3	-45.5	18.4	6.04e-01	0	60	0	578289664	55	5441
2026-01-21 12:36:50.47	262.15	37.65	-42.2	-45.4	18.5	6.07e-01	0	60	0	584056832	55	5356
2026-01-21 12:36:53.50	263.73	37.65	-42.2	-45.4	18.4	6.06e-01	0	60	0	589824000	55	5398
2026-01-21 12:36:56.52	265.30	37.63	-42.3	-45.5	18.4	6.06e-01	0	60	0	595591168	55	5443
2026-01-21 12:36:59.55	266.87	37.58	-42.3	-45.6	18.3	6.06e-01	0	60	0	601358336	55	5476
2026-01-21 12:37:02.58	268.44	37.51	-42.3	-45.6	18.3	6.03e-01	0	60	0	606601216	55	5493
2026-01-21 12:37:05.60	269.99	37.42	-42.5	-45.8	18.1	6.05e-01	0	60	0	612368384	55	5637
2026-01-21 12:37:08.63	271.54	37.31	-42.2	-45.5	18.4	6.05e-01	0	60	0	618135552	55	5414
2026-01-21 12:37:11.66	273.08	37.17	-42.3	-45.5	18.4	6.06e-01	0	60	0	623902720	55	5445
2026-01-21 12:37:14.69	274.60	37.01	-42.5	-45.8	18.1	6.07e-01	0	60	0	629669888	55	5635
2026-01-21 12:37:17.72	276.10	36.83	-42.3	-45.5	18.4	6.07e-01	0	60	0	635437056	55	5457
2026-01-21 12:37:20.74	277.58	36.63	-42.3	-45.6	18.3	6.05e-01	0	60	0	640679936	55	5475
2026-01-21 12:37:23.77	279.05	36.41	-42.4	-45.7	18.2	6.07e-01	0	60	0	646447104	55	5543
2026-01-21 12:37:26.80	280.50	36.17	-42.1	-45.2	18.7	6.06e-01	0	60	0	652214272	55	5265
2026-01-21 12:37:29.83	281.92	35.92	-42.3	-45.6	18.3	6.05e-01	0	60	0	657981440	55	5479
2026-01-21 12:37:32.85	283.32	35.65	-41.9	-45.0	18.9	6.07e-01	0	60	0	663748608	55	5103
2026-01-21 12:37:35.88	284.70	35.36	-42.0	-45.0	18.9	6.06e-01	0	60	0	668991488	55	5128
2026-01-21 12:37:38.91	286.05	35.06	-41.9	-44.8	19.1	6.04e-01	0	60	0	674758656	55	5036
2026-01-21 12:37:41.94	287.38	34.75	-41.8	-44.7	19.2	6.07e-01	0	60	0	680525824	55	4937
2026-01-21 12:37:44.97	288.68	34.42	-41.7	-44.6	19.2	6.05e-01	0	60	0	686292992	55	4922
2026-01-21 12:37:48.00	289.95	34.08	-41.8	-44.8	19.1	6.04e-01	0	60	0	692060160	55	5009
2026-01-21 12:37:51.02	291.19	33.73	-41.8	-44.7	19.1	6.05e-01	0	60	0	697827328	55	4981
2026-01-21 12:37:54.05	292.41	33.37	-41.9	-44.9	19.0	6.04e-01	0	60	0	703594496	55	5057
2026-01-21 12:37:57.08	293.60	33.00	-41.6	-44.5	19.4	6.06e-01	0	60	0	708837376	55	4842
2026-01-21 12:38:00.11	294.77	32.63	-41.7	-44.6	19.3	6.07e-01	0	60	0	714604544	55	4890
2026-01-21 12:38:03.13	295.90	32.24	-41.5	-44.3	19.6	6.05e-01	0	60	0	720371712	55	4733
2026-01-21 12:38:06.16	297.01	31.85	-41.6	-44.4	19.4	6.05e-01	0	60	0	726138880	55	4789
2026-01-21 12:38:09.17	298.09	31.46	-41.6	-44.5	19.4	6.05e-01	0	60	0	731906048	54	5128
2026-01-21 12:38:12.19	299.14	31.06	-41.7	-44.6	19.3	6.04e-01	0	60	0	737148928	54	5169
2026-01-21 12:38:15.21	300.16	30.66	-41.6	-44.5	19.4	6.05e-01	0	60	0	742916096	54	5118
2026-01-21 12:38:18.22	301.16	30.25	-41.6	-44.5	19.4	6.05e-01	0	60	0	748683264	54	5109
2026-01-21 12:38:21.24	302.14	29.84	-41.7	-44.6	19.2	6.08e-01	0	60	0	754450432	54	5194
2026-01-21 12:38:24.24	303.08	29.44	-41.7	-44.6	19.2	6.09e-01	0	60	0	759693312	54	5218
2026-01-21 12:38:27.26	304.00	29.02	-41.8	-44.8	19.1	6.06e-01	0	60	0	765460480	54	5290
2026-01-21 12:38:30.27	304.90	28.61	-41.8	-44.9	18.9	6.05e-01	0	60	0	771227648	54	5365
2026-01-21 12:38:33.29	305.78	28.20	-41.8	-44.8	19.0	6.05e-01	0	60	0	776994816	54	5331
2026-01-21 12:38:36.30	306.63	27.78	-41.9	-45.0	18.8	6.05e-01	0	60	0	782761984	54	5405
2026-01-21 12:38:39.31	307.46	27.37	-42.0	-45.1	18.6	6.09e-01	0	60	0	788004864	54	5512
2026-01-21 12:38:42.33	308.27	26.96	-42.1	-45.3	18.5	6.07e-01	0	60	0	793772032	54	5602
2026-01-21 12:38:45.35	309.06	26.55	-42.0	-45.1	18.6	6.07e-01	0	60	0	799539200	54	5525
2026-01-21 12:38:48.37	309.83	26.14	-42.2	-45.6	18.2	6.08e-01	0	60	0	805306368	54	5793
2026-01-21 12:38:51.39	310.58	25.73	-42.1	-45.4	18.3	6.06e-01	0	60	0	810549248	55	5394
2026-01-21 12:38:54.42	311.31	25.32	-42.0	-45.2	18.5	6.08e-01	0	60	0	816316416	55	5263
2026-01-21 12:38:57.45	312.03	24.91	-42.1	-45.3	18.4	6.07e-01	0	60	0	822083584	55	5326
2026-01-21 12:39:00.47	312.72	24.51	-42.1	-45.4	18.3	6.08e-01	0	60	0	827850752	55	5387
2026-01-21 12:39:03.50	313.40	24.11	-42.1	-45.5	18.2	6.06e-01	0	60	0	833617920	55	5409
2026-01-21 12:39:06.53	314.06	23.71	-42.2	-45.5	18.1	6.06e-01	0	60	0	839385088	55	5441
2026-01-21 12:39:09.56	314.70	23.32	-42.1	-45.4	18.2	6.09e-01	0	60	0	845152256	55	5402
2026-01-21 12:39:12.59	315.32	22.93	-42.2	-45.6	18.0	6.08e-01	0	60	0	850395136	55	5495
2026-01-21 12:39:15.62	315.93	22.54	-42.1	-45.4	18.2	6.05e-01	0	60	0	856162304	55	5402
2026-01-21 12:39:18.64	316.53	22.16	-42.1	-45.3	18.2	6.05e-01	0	60	0	861929472	55	5331
2026-01-21 12:39:21.67	317.11	21.77	-42.1	-45.4	18.2	6.06e-01	0	60	0	867696640	55	5385
2026-01-21 12:39:24.70	317.67	21.40	-42.1	-45.5	18.1	6.05e-01	0	61	0	873463808	55	5414
2026-01-21 12:39:27.73	318.22	21.02	-42.0	-45.4	18.2	6.05e-01	0	60	0	878706688	55	5358
2026-01-21 12:39:30.76	318.76	20.65	-42.1	-45.4	18.2	6.05e-01	0	60	0	884473856	55	5371
2026-01-21 12:39:33.78	319.29	20.28	-42.0	-45.3	18.3	6.04e-01	0	61	0	890241024	55	5321
2026-01-21 12:39:36.81	319.80	19.92	-41.9	-45.2	18.4	6.05e-01	0	60	0	896008192	55	5241
2026-01-21 12:39:39.84	320.30	19.56	-41.9	-45.1	18.4	6.04e-01	0	60	0	901775360	55	5179
2026-01-21 12:39:42.87	320.79	19.20	-42.0	-45.3	18.2	6.07e-01	0	61	0	907542528	55	5335
2026-01-21 12:39:45.90	321.26	18.85	-41.9	-45.3	18.3	6.05e-01	0	60	0	913309696	55	5285
2026-01-21 12:39:48.93	321.73	18.50	-41.8	-45.1	18.4	6.06e-01	0	60	0	918552576	55	5195
2026-01-21 12:39:51.96	322.18	18.16	-41.9	-45.2	18.3	6.06e-01	0	60	0	924319744	55	5262
2026-01-21 12:39:54.98	322.63	17.82	-41.9	-45.2	18.3	6.06e-01	0	60	0	930086912	55	5231
2026-01-21 12:39:58.01	323.06	17.48	-42.0	-45.4	18.1	6.05e-01	0	60	0	935854080	55	5354
2026-01-21 12:40:01.04	323.48	17.14	-41.8	-45.0	18.4	6.07e-01	0	61	0	941621248	55	5156
2026-01-21 12:40:04.07	323.90	16.81	-41.8	-45.0	18.4	6.07e-01	0	61	0	946864128	55	5125
2026-01-21 12:40:07.10	324.30	16.49	-41.8	-45.0	18.4	6.06e-01	0	61	0	952631296	55	5133
2026-01-21 12:40:10.13	324.70	16.16	-41.7	-45.0	18.4	6.08e-01	0	61	0	958398464	55	5115
2026-01-21 12:40:13.16	325.09	15.84	-41.9	-45.2	18.1	6.07e-01	0	61	0	964165632	55	5270
2026-01-21 12:40:16.19	325.47	15.53	-41.8	-45.2	18.1	6.07e-01	0	60	0	969932800	55	5245
2026-01-21 12:40:19.21	325.84	15.22	-41.9	-45.3	18.0	6.05e-01	0	61	0	975699968	55	5337
2026-01-21 12:40:22.24	326.20	14.91	-41.9	-45.3	18.0	6.06e-01	0	60	0	980942848	55	5285
2026-01-21 12:40:25.27	326.56	14.60	-41.8	-45.1	18.2	6.08e-01	0	61	0	986710016	55	5198
2026-01-21 12:40:28.30	326.91	14.30	-41.8	-45.2	18.1	6.07e-01	0	61	0	992477184	55	5253
2026-01-21 12:40:31.32	327.25	14.00	-41.8	-45.2	18.0	6.07e-01	0	60	0	998244352	55	5259
2026-01-21 12:40:34.35	327.58	13.70	-41.8	-45.3	17.9	6.08e-01	0	61	0	1004011520	55	5290
2026-01-21 12:40:37.38	327.91	13.41	-41.9	-45.4	17.8	6.07e-01	0	60	0	1009778688	55	5374
2026-01-21 12:40:40.41	328.23	13.12	-41.9	-45.5	17.7	6.05e-01	0	61	0	1015021568	55	5426
2026-01-21 12:40:43.44	328.54	12.83	-42.0	-45.6	17.5	6.06e-01	0	61	0	1020788736	55	5500
2026-01-21 12:40:46.46	328.85	12.55	-42.0	-45.7	17.4	6.07e-01	0	61	0	1026555904	55	5572
2026-01-21 12:40:49.49	329.15	12.27	-42.1	-45.9	17.2	6.04e-01	0	60	0	1032323072	55	5675
2026-01-21 12:40:52.52	329.45	11.99	-42.1	-45.9	17.2	6.04e-01	0	60	0	1038090240	55	5690
2026-01-21 12:40:55.55	329.74	11.71	-42.2	-46.0	17.0	6.06e-01	0	61	0	1043857408	55	5773
2026-01-21 12:40:58.58	330.03	11.44	-42.1	-45.9	17.1	6.07e-01	0	60	0	1049100288	55	5681
2026-01-21 12:41:01.61	330.31	11.17	-42.1	-45.9	17.0	6.03e-01	0	61	0	1054867456	55	5706
2026-01-21 12:41:04.64	330.58	10.91	-42.1	-46.0	16.9	6.06e-01	0	61	0	1060634624	55	5777
2026-01-21 12:41:07.67	330.85	10.64	-42.1	-46.0	16.9	6.06e-01	0	61	0	1066401792	55	5779
2026-01-21 12:41:10.70	331.12	10.38	-42.2	-46.2	16.6	6.01e-01	0	60	0	1072168960	55	5916
2026-01-21 12:41:13.72	331.37	10.12	-42.1	-46.0	16.8	6.04e-01	0	60	0	1077411840	55	5767
2026-01-21 12:41:16.75	331.63	9.87	-42.1	-46.1	16.6	6.00e-01	0	61	0	1083179008	55	5854
2026-01-21 12:41:19.78	331.88	9.61	-42.1	-46.3	16.5	6.02e-01	0	60	0	1088946176	55	5924
2026-01-21 12:41:22.81	332.13	9.36	-42.2	-46.4	16.3	6.03e-01	0	60	0	1094713344	55	6056
2026-01-21 12:41:25.82	332.37	9.11	-42.2	-46.5	16.2	6.04e-01	0	61	0	1100480512	55	6093
2026-01-21 12:41:28.85	332.61	8.87	-42.2	-46.5	16.2	6.02e-01	0	61	0	1106247680	55	6086
2026-01-21 12:41:31.88	332.84	8.62	-42.2	-46.5	16.0	6.05e-01	0	61	0	1111490560	55	6125
2026-01-21 12:41:34.91	333.07	8.38	-42.2	-46.7	15.8	6.03e-01	0	61	0	1117257728	55	6245
2026-01-21 12:41:37.94	333.30	8.14	-42.2	-46.7	15.6	6.04e-01	0	61	0	1123024896	55	6267
2026-01-21 12:41:40.97	333.52	7.90	-45.4	-63.9	3.8	7.47e-01	0	60	104	1126170624	61	31972
2026-01-21 12:41:44.00	333.74	7.67	-46.0	-64.6	3.8	7.45e-01	0	61	104	1126170624	62	32602
2026-01-21 12:41:47.03	333.95	7.43	-46.3	-64.8	3.8	7.42e-01	0	61	104	1126170624	63	31803
2026-01-21 12:41:50.06	334.16	7.20	-46.1	-64.7	3.9	7.43e-01	0	61	104	1126170624	63	31091
2026-01-21 12:41:53.09	334.37	6.97	-46.3	-64.8	3.8	7.46e-01	0	61	104	1126170624	63	31614
2026-01-21 12:41:56.12	334.58	6.75	-46.2	-64.7	3.8	7.46e-01	0	61	104	1126170624	63	31446
2026-01-21 12:41:59.15	334.78	6.52	-46.2	-64.7	3.8	7.43e-01	0	61	104	1126170624	63	31387
2026-01-21 12:42:02.18	334.98	6.30	-46.2	-64.7	3.8	7.45e-01	0	61	104	1126170624	62	33199
2026-01-21 12:42:05.20	335.17	6.08	-46.2	-64.7	3.8	7.44e-01	0	61	104	1126170624	62	33152
2026-01-21 12:42:08.23	335.36	5.86	-46.2	-64.7	3.8	7.50e-01	0	61	104	1126170624	62	33180
2026-01-21 12:42:11.26	335.55	5.64	-46.2	-64.7	3.8	7.44e-01	0	61	104	1126170624	62	33190
2026-01-21 12:42:14.29	335.74	5.42	-46.2	-64.7	3.8	7.47e-01	0	61	104	1126170624	62	33179
2026-01-21 12:42:17.32	335.93	5.21	-45.7	-64.7	3.8	7.47e-01	0	61	104	1126170624	62	33005
2026-01-21 12:42:20.35	336.11	5.00	-46.2	-64.7	3.8	7.43e-01	0	61	104	1126170624	62	33118
2026-01-21 12:42:23.38	336.29	4.79	-46.2	-64.7	3.8	7.50e-01	0	61	104	1126170624	62	32959
2026-01-21 12:42:26.41	336.46	4.58	-46.2	-64.7	3.8	7.44e-01	0	61	104	1126170624	62	33142
2026-01-21 12:42:29.44	336.64	4.37	-46.2	-64.7	3.8	7.47e-01	0	61	104	1126170624	62	33012
2026-01-21 12:42:32.47	336.81	4.16	-46.2	-64.7	3.8	7.46e-01	0	61	104	1126170624	62	33089
2026-01-21 12:42:35.50	336.98	3.96	-46.2	-64.7	3.8	7.46e-01	0	61	104	1126170624	62	33045
2026-01-21 12:42:38.53	337.14	3.76	-46.1	-64.7	3.8	7.42e-01	0	61	104	1126170624	62	33088
2026-01-21 12:42:41.56	337.31	3.56	-46.1	-64.7	3.8	7.45e-01	0	61	104	1126170624	62	33022
2026-01-21 12:42:44.59	337.47	3.36	-46.2	-64.7	3.8	7.48e-01	0	61	104	1126170624	62	33093
2026-01-21 12:42:47.62	337.63	3.16	-46.2	-64.7	3.8	7.47e-01	0	61	104	1126170624	62	32998
2026-01-21 12:42:50.65	337.79	2.96	-46.1	-64.7	3.8	7.44e-01	0	61	104	1126170624	62	33015
2026-01-21 12:42:53.68	337.94	2.76	-46.2	-64.7	3.8	7.45e-01	0	61	104	1126170624	62	33041
2026-01-21 12:42:56.71	338.10	2.57	-46.1	-64.7	3.8	7.48e-01	0	61	104	1126170624	62	33030
2026-01-21 12:42:59.74	338.25	2.38	-46.2	-64.7	3.8	7.44e-01	0	61	104	1126170624	62	33011
2026-01-21 12:43:02.77	338.40	2.19	-45.0	-64.8	3.8	7.46e-01	0	61	104	1126170624	62	33504
2026-01-21 12:43:05.81	338.54	1.99	-46.1	-64.7	3.8	7.48e-01	0	61	104	1126170624	62	32989

#Closed at: 2026-01-21 12:43:07
#Recorded file [1126 MB]: D:/lorett/data/31039_260121_153043.dat