passes_logs/2026/01/21/R2.0S_Moscow/R2.0S_Moscow__20260121_010225_SUOMI_NPP_rec.log

#Pass ID: 20260121_010225_SUOMI NPP
#Satellite: SUOMI NPP
#Configuration: NPP
#almurnet v.1.7.20251203
#Start time: 2026-01-21 01:02:25

#Version: 2.2.20231116
#Station: R2.0S_Moscow
#Location: 37.707566 lon 55.798166 lat
#TLE: 1 37849U 11061A   26020.31993517  .00000142  00000+0  88240-4 0  9990
#TLE: 2 37849  98.7818 322.3228 0002330  54.3778 305.7615 14.19527005737466

#Time	Az	El	Level	Level2	SNR	BER	BlckErr	Temp	State	Recorded	gain1	gain2
2026-01-21 01:02:25.45	11.40	2.02	-40.1	-54.7	3.8	1.49e+00	0	49	0	0	51	19795
2026-01-21 01:02:29.48	11.20	2.26	-40.1	-54.7	3.8	1.49e+00	0	49	104	0	51	19799
2026-01-21 01:02:33.52	10.99	2.50	-40.1	-54.7	3.8	1.49e+00	0	49	104	0	51	19767
2026-01-21 01:02:37.57	10.78	2.74	-40.0	-54.7	3.8	1.49e+00	0	50	104	0	51	19748
2026-01-21 01:02:41.60	10.56	2.99	-40.0	-54.7	3.8	1.49e+00	0	50	104	0	51	19736
2026-01-21 01:02:45.64	10.34	3.24	-40.0	-54.7	3.8	1.49e+00	0	50	104	0	51	19793
2026-01-21 01:02:49.68	10.12	3.48	-40.0	-54.7	3.8	1.49e+00	0	50	104	0	51	19690
2026-01-21 01:02:53.72	9.89	3.74	-40.0	-54.7	3.8	1.49e+00	0	51	104	0	51	19731
2026-01-21 01:02:57.77	9.66	3.99	-40.0	-54.7	3.8	1.49e+00	0	51	104	0	51	19709
2026-01-21 01:03:01.81	9.43	4.24	-40.0	-54.7	3.8	1.49e+00	0	51	104	0	51	19703
2026-01-21 01:03:05.85	9.19	4.50	-40.0	-54.7	3.8	1.49e+00	0	51	104	0	51	19705
2026-01-21 01:03:09.89	8.94	4.76	-40.0	-54.7	3.8	1.49e+00	0	51	104	0	51	19760
2026-01-21 01:03:13.93	8.69	5.02	-40.0	-54.7	3.8	1.49e+00	0	52	104	0	51	19696
2026-01-21 01:03:17.97	8.44	5.28	-40.0	-54.7	3.8	1.49e+00	0	52	104	0	51	19725
2026-01-21 01:03:22.01	8.18	5.55	-40.0	-54.7	3.8	1.49e+00	0	52	104	0	51	19669
2026-01-21 01:03:26.05	7.92	5.82	-40.0	-54.7	3.8	1.49e+00	0	52	104	0	51	19657
2026-01-21 01:03:30.10	7.65	6.09	-40.0	-54.7	3.8	1.49e+00	0	53	104	0	51	19684
2026-01-21 01:03:34.14	7.37	6.36	-40.0	-54.7	3.8	1.49e+00	0	53	104	0	51	19698
2026-01-21 01:03:38.18	7.09	6.63	-40.0	-54.7	3.8	1.49e+00	0	53	104	0	51	19696
2026-01-21 01:03:42.22	6.80	6.91	-40.0	-54.7	3.8	1.49e+00	0	53	104	0	51	19736
2026-01-21 01:03:46.26	6.51	7.19	-40.0	-54.7	3.8	1.49e+00	0	53	104	0	51	19677
2026-01-21 01:03:50.30	6.22	7.47	-40.0	-54.7	3.8	1.49e+00	0	53	104	0	51	19668
2026-01-21 01:03:54.34	5.91	7.75	-40.0	-54.7	3.8	1.49e+00	0	54	104	0	51	19658
2026-01-21 01:03:58.39	5.60	8.04	-40.1	-54.8	3.8	1.49e+00	0	54	104	0	51	19845
2026-01-21 01:04:02.43	5.29	8.32	-40.1	-54.8	3.8	1.49e+00	0	54	104	0	51	19984
2026-01-21 01:04:06.47	4.96	8.61	-40.1	-54.8	3.8	1.49e+00	0	54	104	0	51	19932
2026-01-21 01:04:10.50	4.63	8.91	-40.1	-54.8	3.8	1.49e+00	0	54	104	0	51	19923
2026-01-21 01:04:14.54	4.30	9.20	-40.1	-54.8	3.8	1.49e+00	0	54	104	0	51	19978
2026-01-21 01:04:18.58	3.95	9.50	-40.2	-54.8	3.8	1.49e+00	0	54	104	0	51	20055
2026-01-21 01:04:22.61	3.60	9.80	-40.2	-54.9	3.8	1.49e+00	0	54	104	0	51	20188
2026-01-21 01:04:26.65	3.24	10.10	-40.2	-54.9	3.8	1.49e+00	0	55	104	0	51	20295
2026-01-21 01:04:30.69	2.88	10.41	-40.3	-54.9	3.8	1.49e+00	0	55	104	0	51	20299
2026-01-21 01:04:34.73	2.50	10.71	-40.0	-54.8	3.8	1.49e+00	0	55	104	0	51	19948
2026-01-21 01:04:38.77	2.12	11.02	-40.2	-54.9	3.8	1.49e+00	0	55	104	0	51	20168
2026-01-21 01:04:42.80	1.73	11.34	-40.1	-54.9	3.8	1.49e+00	0	55	104	0	52	18963
2026-01-21 01:04:46.84	1.33	11.65	-40.4	-55.1	3.8	1.49e+00	0	55	104	0	52	19501
2026-01-21 01:04:50.87	0.92	11.97	-40.2	-54.9	3.8	1.49e+00	0	55	104	0	52	19134
2026-01-21 01:04:54.92	0.50	12.29	-40.6	-55.3	3.8	1.49e+00	0	55	104	0	52	19899
2026-01-21 01:04:58.96	0.07	12.62	-40.3	-55.0	3.8	1.49e+00	0	55	104	0	52	19352
2026-01-21 01:05:03.00	359.63	12.94	-40.7	-55.4	3.8	1.49e+00	0	56	104	0	52	20191
2026-01-21 01:05:07.03	359.18	13.27	-41.4	-56.2	3.8	1.43e+00	0	55	104	0	54	19643
2026-01-21 01:05:11.07	358.72	13.60	-41.3	-48.1	7.6	1.57e-01	0	56	0	5242880	54	7787
2026-01-21 01:05:15.11	358.25	13.94	-40.8	-46.0	9.9	9.88e-03	0	56	0	12582912	53	6483
2026-01-21 01:05:19.15	357.77	14.27	-41.1	-47.0	8.8	3.28e-02	0	56	0	19922944	53	7286
2026-01-21 01:05:23.18	357.28	14.61	-41.2	-46.9	9.0	2.83e-02	0	56	0	28311552	53	7201
2026-01-21 01:05:27.22	356.78	14.96	-41.1	-46.8	9.1	1.64e-02	0	56	0	35651584	53	7121
2026-01-21 01:05:31.26	356.26	15.30	-41.4	-49.0	6.6	1.21e-01	0	56	0	42991616	53	9110
2026-01-21 01:05:35.30	355.73	15.65	-41.4	-53.4	4.0	1.40e+00	0	56	0	49283072	53	15082
2026-01-21 01:05:39.34	355.19	16.00	-41.0	-55.6	3.8	1.49e+00	0	56	104	49283072	53	19600
2026-01-21 01:05:43.38	354.64	16.35	-41.3	-56.0	3.8	1.49e+00	0	56	104	49283072	53	20388
2026-01-21 01:05:47.42	354.07	16.70	-40.8	-55.7	3.8	1.49e+00	0	56	104	49283072	53	19700
2026-01-21 01:05:51.45	353.49	17.06	-40.7	-55.5	3.8	1.49e+00	0	56	104	49283072	52	20452
2026-01-21 01:05:55.49	352.89	17.42	-40.8	-55.5	3.8	1.49e+00	0	57	104	49283072	52	20305
2026-01-21 01:05:59.52	352.28	17.78	-40.6	-55.6	3.8	1.49e+00	0	56	104	49283072	52	20540
2026-01-21 01:06:03.56	351.66	18.14	-40.8	-55.6	3.8	1.49e+00	0	56	104	49283072	52	20557
2026-01-21 01:06:07.59	351.02	18.50	-40.9	-55.7	3.8	1.49e+00	0	57	104	49283072	52	20783
2026-01-21 01:06:11.63	350.36	18.87	-41.2	-55.8	3.8	1.49e+00	0	57	104	49283072	52	21158
2026-01-21 01:06:15.67	349.68	19.24	-41.2	-56.0	3.8	1.49e+00	0	57	104	49283072	53	20331
2026-01-21 01:06:19.70	349.00	19.61	-41.1	-56.0	3.8	1.49e+00	0	56	104	49283072	53	20310
2026-01-21 01:06:23.74	348.29	19.97	-41.4	-56.0	3.8	1.49e+00	0	57	104	49283072	53	20480
2026-01-21 01:06:27.78	347.56	20.34	-41.8	-56.1	3.8	1.49e+00	0	57	104	49283072	54	19405
2026-01-21 01:06:31.82	346.82	20.72	-42.2	-54.7	3.9	1.49e+00	0	57	104	49283072	54	16579
2026-01-21 01:06:35.86	346.06	21.09	-42.1	-52.1	4.7	1.49e+00	0	57	104	49283072	55	11674
2026-01-21 01:06:39.89	345.28	21.46	-42.0	-49.4	6.7	2.39e-01	0	57	0	56623104	55	8560
2026-01-21 01:06:43.93	344.48	21.83	-42.1	-51.2	5.3	8.95e-02	0	57	0	60817408	54	11057
2026-01-21 01:06:47.97	343.66	22.20	-41.1	-46.2	10.0	9.79e-03	0	57	0	65011712	54	6237
2026-01-21 01:06:52.01	342.82	22.56	-41.5	-46.6	9.8	9.36e-03	0	57	0	72351744	54	6559
2026-01-21 01:06:56.04	341.96	22.93	-41.9	-46.8	10.2	6.79e-03	0	57	0	80740352	54	6678
2026-01-21 01:07:00.08	341.08	23.30	-42.0	-46.7	10.7	3.91e-03	0	57	0	88080384	54	6590
2026-01-21 01:07:04.12	340.18	23.66	-42.3	-47.0	10.6	4.13e-03	0	57	0	95420416	55	6439
2026-01-21 01:07:08.16	339.26	24.02	-42.5	-47.5	10.1	6.48e-03	0	57	0	102760448	55	6863
2026-01-21 01:07:12.20	338.31	24.38	-42.0	-46.0	11.7	6.06e-04	0	57	0	111149056	55	5781
2026-01-21 01:07:16.23	337.35	24.73	-42.1	-46.1	11.8	6.48e-04	0	57	0	118489088	55	5805
2026-01-21 01:07:20.27	336.36	25.08	-41.4	-44.7	13.3	2.21e-05	0	57	0	125829120	54	5227
2026-01-21 01:07:24.31	335.35	25.42	-41.7	-45.3	12.7	3.89e-05	0	57	0	133169152	54	5652
2026-01-21 01:07:28.35	334.32	25.76	-42.1	-46.0	12.1	3.00e-04	0	57	0	140509184	54	6082
2026-01-21 01:07:32.38	333.26	26.09	-42.2	-46.3	11.8	4.07e-04	0	57	0	148897792	55	5979
2026-01-21 01:07:36.42	332.19	26.41	-42.3	-46.4	11.6	7.18e-04	0	57	0	156237824	55	6043
2026-01-21 01:07:40.46	331.09	26.73	-42.1	-45.9	12.2	1.74e-04	0	57	0	163577856	55	5697
2026-01-21 01:07:44.50	329.96	27.04	-42.4	-46.4	11.7	5.68e-04	0	57	0	170917888	55	6043
2026-01-21 01:07:48.54	328.82	27.34	-42.2	-46.0	12.1	2.29e-04	0	58	0	179306496	55	5748
2026-01-21 01:07:52.58	327.65	27.63	-43.1	-47.9	10.4	3.72e-03	0	58	0	186646528	56	6724
2026-01-21 01:07:56.61	326.47	27.91	-42.7	-47.0	11.3	1.52e-03	0	57	0	193986560	56	6073
2026-01-21 01:08:00.65	325.26	28.17	-42.6	-46.6	11.6	5.00e-04	0	57	0	201326592	56	5849
2026-01-21 01:08:04.69	324.04	28.43	-42.5	-46.5	11.8	5.10e-04	0	57	0	208666624	56	5783
2026-01-21 01:08:08.73	322.79	28.68	-42.7	-47.1	11.2	8.46e-04	0	58	0	217055232	56	6147
2026-01-21 01:08:12.77	321.52	28.91	-43.1	-47.9	10.2	5.18e-03	0	57	0	224395264	57	6390
2026-01-21 01:08:16.81	320.24	29.12	-42.5	-46.4	12.0	3.29e-04	0	58	0	231735296	56	5708
2026-01-21 01:08:20.85	318.94	29.32	-42.3	-46.1	12.3	1.62e-04	0	58	0	239075328	56	5509
2026-01-21 01:08:24.89	317.62	29.51	-42.3	-46.0	12.3	2.70e-04	0	58	0	247463936	56	5456
2026-01-21 01:08:28.92	316.29	29.68	-41.7	-45.1	13.1	2.21e-05	0	58	0	254803968	55	5182
2026-01-21 01:08:32.96	314.95	29.84	-42.2	-46.0	12.2	1.77e-04	0	57	0	262144000	55	5733
2026-01-21 01:08:37.00	313.59	29.97	-43.0	-47.7	10.6	1.62e-03	0	57	0	269484032	56	6574
2026-01-21 01:08:41.03	312.22	30.09	-43.7	-49.7	8.6	4.46e-02	0	58	0	276824064	58	7372
2026-01-21 01:08:45.08	310.84	30.19	-43.2	-48.2	10.0	6.19e-03	0	58	0	285212672	58	6246
2026-01-21 01:08:49.11	309.46	30.27	-42.6	-46.7	11.7	7.63e-04	0	58	0	292552704	57	5546
2026-01-21 01:08:53.15	308.07	30.34	-42.8	-47.2	11.1	1.02e-03	0	58	0	299892736	56	6260
2026-01-21 01:08:57.19	306.67	30.38	-43.1	-47.9	10.4	4.32e-03	0	58	0	307232768	56	6736
2026-01-21 01:09:01.23	305.27	30.41	-43.5	-49.1	9.0	1.72e-02	0	58	0	315621376	57	7369
2026-01-21 01:09:05.26	303.87	30.42	-42.5	-46.5	11.9	9.22e-04	0	58	0	322961408	56	5727
2026-01-21 01:09:09.30	302.47	30.40	-42.9	-47.3	11.0	7.63e-04	0	58	0	330301440	56	6323
2026-01-21 01:09:13.34	301.07	30.37	-43.2	-48.2	10.1	7.80e-03	0	58	0	337641472	57	6579
2026-01-21 01:09:17.38	299.67	30.32	-42.7	-47.0	11.3	9.76e-04	0	58	0	344981504	57	5731
2026-01-21 01:09:21.42	298.28	30.25	-42.9	-47.4	10.9	1.35e-03	0	58	0	353370112	56	6387
2026-01-21 01:09:25.45	296.90	30.16	-42.8	-47.0	11.3	1.83e-03	0	58	0	360710144	56	6128
2026-01-21 01:09:29.49	295.52	30.06	-42.9	-47.4	10.8	2.04e-03	0	58	0	368050176	56	6419
2026-01-21 01:09:33.53	294.15	29.93	-42.6	-46.8	11.5	5.10e-04	0	58	0	375390208	56	5955
2026-01-21 01:09:37.57	292.80	29.79	-42.6	-46.8	11.5	8.07e-04	0	58	0	383778816	56	5964
2026-01-21 01:09:41.61	291.45	29.63	-42.5	-46.6	11.7	5.52e-04	0	58	0	391118848	56	5793
2026-01-21 01:09:45.64	290.13	29.46	-42.4	-46.3	12.1	3.20e-04	0	58	0	398458880	56	5628
2026-01-21 01:09:49.68	288.81	29.26	-42.6	-46.8	11.6	8.54e-04	0	58	0	405798912	56	5939
2026-01-21 01:09:53.72	287.51	29.06	-42.5	-46.5	11.8	8.24e-04	0	58	0	413138944	56	5766
2026-01-21 01:09:57.76	286.23	28.84	-42.7	-47.1	11.2	5.30e-04	0	58	0	421527552	56	6161
2026-01-21 01:10:01.79	284.97	28.60	-42.6	-46.7	11.6	8.14e-04	0	58	0	428867584	56	5923
2026-01-21 01:10:05.83	283.73	28.35	-42.7	-47.1	11.2	1.68e-03	0	58	0	436207616	56	6151
2026-01-21 01:10:09.87	282.50	28.09	-42.6	-46.8	11.4	1.11e-03	0	58	0	443547648	56	5962
2026-01-21 01:10:13.90	281.30	27.82	-43.3	-48.5	9.6	9.17e-03	0	58	0	451936256	57	6867
2026-01-21 01:10:17.94	280.12	27.54	-43.7	-49.7	8.4	4.35e-02	0	58	0	459276288	57	7883
2026-01-21 01:10:21.98	278.96	27.24	-43.6	-49.6	8.6	3.94e-02	0	58	0	466616320	58	7310
2026-01-21 01:10:26.02	277.82	26.94	-42.7	-47.0	11.1	1.94e-03	0	58	0	473956352	57	5788
2026-01-21 01:10:30.05	276.70	26.63	-41.8	-45.3	12.8	6.10e-05	0	58	0	481296384	55	5293
2026-01-21 01:10:34.09	275.60	26.31	-42.2	-46.2	11.9	4.73e-04	0	58	0	489684992	55	5864
2026-01-21 01:10:38.13	274.53	25.98	-42.1	-46.0	12.1	2.46e-04	0	58	0	497025024	55	5737
2026-01-21 01:10:42.17	273.48	25.64	-42.4	-46.6	11.2	1.50e-03	0	58	0	504365056	55	6200
2026-01-21 01:10:46.21	272.45	25.30	-43.1	-48.2	10.0	7.71e-03	0	58	0	511705088	56	6998
2026-01-21 01:10:50.24	271.44	24.96	-42.7	-47.1	11.1	2.16e-03	0	58	0	519045120	56	6179
2026-01-21 01:10:54.28	270.45	24.61	-41.6	-45.1	13.0	3.81e-05	0	58	0	527433728	55	5181
2026-01-21 01:10:58.32	269.49	24.25	-41.6	-45.0	13.0	2.67e-05	0	58	0	534773760	55	5158
2026-01-21 01:11:02.35	268.55	23.89	-41.4	-44.8	13.3	1.37e-05	0	58	0	542113792	54	5296
2026-01-21 01:11:06.38	267.63	23.53	-41.1	-44.2	13.8	8.30e-06	0	58	0	549453824	54	4955
2026-01-21 01:11:10.42	266.73	23.17	-41.0	-44.0	14.1	7.00e-07	0	58	0	557842432	53	5108
2026-01-21 01:11:14.46	265.86	22.80	-41.7	-45.2	12.8	2.97e-05	0	58	0	565182464	53	5908
2026-01-21 01:11:18.50	265.00	22.43	-41.9	-45.7	12.4	1.36e-04	0	58	0	572522496	54	5864
2026-01-21 01:11:22.53	264.16	22.06	-41.6	-45.1	12.9	3.12e-05	0	58	0	579862528	54	5497
2026-01-21 01:11:26.57	263.35	21.69	-41.2	-44.5	13.6	1.14e-05	0	58	0	587202560	54	5106
2026-01-21 01:11:30.61	262.55	21.32	-40.5	-43.2	14.7	1.50e-06	0	58	0	595591168	53	4700
2026-01-21 01:11:34.65	261.77	20.95	-41.0	-44.1	13.9	1.50e-06	0	58	0	602931200	52	5484
2026-01-21 01:11:38.69	261.01	20.57	-41.1	-44.3	13.7	6.10e-06	0	58	0	610271232	52	5612
2026-01-21 01:11:42.73	260.27	20.20	-41.1	-44.3	13.6	5.30e-06	0	58	0	617611264	52	5631
2026-01-21 01:11:46.77	259.54	19.83	-41.2	-44.5	13.4	8.30e-06	0	58	0	625999872	53	5431
2026-01-21 01:11:50.80	258.84	19.46	-41.3	-44.6	13.3	9.10e-06	0	58	0	633339904	53	5497
2026-01-21 01:11:54.84	258.15	19.09	-40.9	-43.8	14.1	3.00e-06	0	58	0	640679936	53	5030
2026-01-21 01:11:58.88	257.48	18.72	-41.2	-44.4	13.5	6.80e-06	0	58	0	648019968	53	5363
2026-01-21 01:12:02.92	256.82	18.36	-41.8	-45.7	12.2	1.74e-04	0	58	0	655360000	54	5870
2026-01-21 01:12:06.96	256.18	17.99	-41.5	-45.0	12.9	5.34e-05	0	58	0	663748608	54	5464
2026-01-21 01:12:11.00	255.55	17.63	-41.4	-44.8	13.1	2.59e-05	0	58	0	671088640	54	5287
2026-01-21 01:12:15.03	254.94	17.27	-41.6	-45.1	12.7	5.95e-05	0	58	0	678428672	54	5521
2026-01-21 01:12:19.07	254.35	16.91	-42.0	-46.0	11.9	4.25e-04	0	58	0	685768704	54	6064
2026-01-21 01:12:23.11	253.77	16.55	-42.0	-46.1	11.7	5.53e-04	0	58	0	694157312	54	6144
2026-01-21 01:12:27.15	253.20	16.20	-41.6	-45.3	12.5	9.61e-05	0	58	0	701497344	54	5634
2026-01-21 01:12:31.18	252.65	15.84	-41.9	-45.9	11.9	2.89e-04	0	58	0	708837376	54	6028
2026-01-21 01:12:35.22	252.10	15.49	-42.1	-46.3	11.5	9.09e-04	0	58	0	716177408	54	6300
2026-01-21 01:12:39.26	251.58	15.15	-41.7	-45.5	12.3	2.30e-04	0	58	0	723517440	54	5772
2026-01-21 01:12:43.30	251.06	14.80	-41.6	-45.2	12.6	7.47e-05	0	58	0	731906048	54	5579
2026-01-21 01:12:47.33	250.56	14.46	-41.6	-45.3	12.5	1.19e-04	0	58	0	739246080	54	5616
2026-01-21 01:12:51.37	250.06	14.12	-41.8	-45.7	12.0	3.44e-04	0	58	0	746586112	54	5902
2026-01-21 01:12:55.41	249.58	13.78	-42.0	-46.1	11.5	7.48e-04	0	58	0	753926144	54	6202
2026-01-21 01:12:59.44	249.11	13.45	-41.9	-46.0	11.7	5.19e-04	0	58	0	762314752	54	6119
2026-01-21 01:13:03.48	248.65	13.11	-41.9	-46.1	11.6	7.09e-04	0	58	0	769654784	54	6152
2026-01-21 01:13:07.52	248.20	12.79	-42.4	-47.2	10.4	4.22e-03	0	58	0	776994816	55	6596
2026-01-21 01:13:11.56	247.76	12.46	-42.5	-47.4	10.2	6.43e-03	0	58	0	784334848	55	6790
2026-01-21 01:13:15.59	247.34	12.14	-41.9	-46.0	11.6	8.07e-04	0	58	0	791674880	55	5780
2026-01-21 01:13:19.63	246.92	11.81	-41.7	-45.6	12.1	3.32e-04	0	58	0	800063488	55	5471
2026-01-21 01:13:23.67	246.50	11.50	-41.9	-46.1	11.5	7.75e-04	0	58	0	807403520	55	5829
2026-01-21 01:13:27.71	246.10	11.18	-42.5	-47.4	10.1	5.73e-03	0	58	0	814743552	55	6768
2026-01-21 01:13:31.75	245.71	10.87	-42.7	-48.2	9.3	1.58e-02	0	58	0	822083584	55	7376
2026-01-21 01:13:35.78	245.33	10.56	-42.9	-48.5	9.1	2.47e-02	0	58	0	829423616	56	7230
2026-01-21 01:13:39.82	244.95	10.25	-42.9	-48.5	9.2	2.37e-02	0	58	0	837812224	56	7229
2026-01-21 01:13:43.86	244.58	9.94	-42.8	-48.3	9.2	1.76e-02	0	58	0	845152256	56	7054
2026-01-21 01:13:47.89	244.22	9.64	-42.8	-48.2	9.3	1.66e-02	0	58	0	852492288	56	7039
2026-01-21 01:13:51.93	243.87	9.34	-42.9	-48.6	9.0	2.46e-02	0	58	0	859832320	56	7288
2026-01-21 01:13:55.98	243.52	9.04	-43.0	-49.1	8.4	4.70e-02	0	58	0	868220928	56	7750
2026-01-21 01:14:00.02	243.18	8.75	-42.8	-48.5	8.9	3.23e-02	0	58	0	875560960	56	7237
2026-01-21 01:14:04.05	242.85	8.46	-42.5	-47.6	9.9	1.09e-02	0	58	0	882900992	56	6510
2026-01-21 01:14:08.09	242.53	8.16	-42.2	-46.8	10.7	3.41e-03	0	58	0	890241024	56	5961
2026-01-21 01:14:12.13	242.21	7.88	-44.8	-59.4	3.8	1.49e+00	0	58	104	895483904	60	20195
2026-01-21 01:14:16.17	241.90	7.59	-45.2	-59.8	3.8	1.49e+00	0	58	104	895483904	60	21224
2026-01-21 01:14:20.21	241.59	7.31	-45.3	-59.9	3.8	1.49e+00	0	58	104	895483904	61	20243
2026-01-21 01:14:24.25	241.29	7.03	-45.2	-59.8	3.8	1.49e+00	0	58	104	895483904	61	20030
2026-01-21 01:14:28.29	241.00	6.75	-45.2	-59.8	3.8	1.49e+00	0	58	104	895483904	61	19927
2026-01-21 01:14:32.33	240.71	6.47	-45.2	-59.8	3.8	1.49e+00	0	58	104	895483904	61	19932
2026-01-21 01:14:36.37	240.43	6.20	-45.2	-59.8	3.8	1.49e+00	0	58	104	895483904	61	19874
2026-01-21 01:14:40.41	240.15	5.93	-45.2	-59.8	3.8	1.49e+00	0	58	104	895483904	61	19964
2026-01-21 01:14:44.45	239.88	5.66	-45.2	-59.8	3.8	1.49e+00	0	58	104	895483904	61	19897
2026-01-21 01:14:48.49	239.61	5.39	-45.2	-59.8	3.8	1.49e+00	0	58	104	895483904	61	19885
2026-01-21 01:14:52.53	239.35	5.13	-45.2	-59.8	3.8	1.49e+00	0	58	104	895483904	61	19867
2026-01-21 01:14:56.58	239.09	4.86	-45.2	-59.8	3.8	1.49e+00	0	58	104	895483904	61	19895
2026-01-21 01:15:00.61	238.84	4.60	-45.2	-59.7	3.8	1.49e+00	0	58	104	895483904	61	19826
2026-01-21 01:15:04.65	238.59	4.34	-45.2	-59.7	3.8	1.49e+00	0	58	104	895483904	61	19821
2026-01-21 01:15:08.70	238.35	4.09	-45.2	-59.8	3.8	1.49e+00	0	58	104	895483904	61	19868
2026-01-21 01:15:12.74	238.11	3.83	-45.2	-59.7	3.8	1.49e+00	0	58	104	895483904	61	19826
2026-01-21 01:15:16.78	237.87	3.58	-45.2	-59.8	3.8	1.49e+00	0	58	104	895483904	61	19890
2026-01-21 01:15:20.82	237.64	3.33	-45.2	-59.7	3.8	1.49e+00	0	58	104	895483904	61	19735
2026-01-21 01:15:24.86	237.42	3.08	-45.2	-59.8	3.8	1.49e+00	0	58	104	895483904	61	19843
2026-01-21 01:15:28.91	237.19	2.83	-45.1	-59.7	3.8	1.49e+00	0	59	104	895483904	61	19794
2026-01-21 01:15:32.95	236.98	2.58	-45.1	-59.7	3.8	1.49e+00	0	58	104	895483904	61	19740
2026-01-21 01:15:36.99	236.76	2.34	-45.2	-59.7	3.8	1.49e+00	0	59	104	895483904	61	19785
2026-01-21 01:15:41.03	236.55	2.10	-45.1	-59.7	3.8	1.49e+00	0	58	104	895483904	61	19703

#Closed at: 2026-01-21 01:15:43
#Recorded file [895 MB]: D:/lorett/data/31039_260121_040225.dat