passes_logs/2026/01/21/R2.0S_Moscow/R2.0S_Moscow__20260121_034402_FENGYUN_3E_rec.log

#Pass ID: 20260121_034402_FENGYUN 3E
#Satellite: FENGYUN 3E
#Configuration: FENGYUN 3E
#almurnet v.1.7.20251203
#Start time: 2026-01-21 03:53:05

#Version: 2.2.20231116
#Station: R2.0S_Moscow
#Location: 37.707566 lon 55.798166 lat
#TLE: 1 49008U 21062A   26020.29079360  .00000161  00000+0  96807-4 0  9999
#TLE: 2 49008  98.7481  25.3569 0002259 127.4136 232.7246 14.19885851235592

#Time	Az	El	Level	Level2	SNR	BER	BlckErr	Temp	State	Recorded	gain1	gain2
2026-01-21 03:53:05.48	180.66	42.96	-45.1	-56.8	3.8	8.46e-01	0	58	0	0	61	14081
2026-01-21 03:53:07.50	180.93	42.41	-45.8	-57.1	3.8	8.45e-01	0	58	104	0	62	12963
2026-01-21 03:53:09.52	181.19	41.86	-45.7	-57.1	3.8	8.46e-01	0	59	104	0	62	12961
2026-01-21 03:53:11.54	181.44	41.32	-45.6	-56.8	3.8	8.46e-01	0	59	104	0	62	12553
2026-01-21 03:53:13.56	181.69	40.79	-45.5	-56.8	3.8	8.47e-01	0	58	104	0	62	12648
2026-01-21 03:53:15.58	181.93	40.26	-45.5	-56.8	3.8	8.45e-01	0	58	104	0	62	12623
2026-01-21 03:53:17.61	182.16	39.74	-45.5	-56.7	3.8	8.46e-01	0	59	104	0	62	12477
2026-01-21 03:53:19.63	182.38	39.23	-45.5	-56.7	3.8	8.45e-01	0	58	104	0	62	12412
2026-01-21 03:53:21.65	182.60	38.73	-45.5	-56.8	3.8	8.45e-01	0	58	104	0	61	13263
2026-01-21 03:53:23.67	182.81	38.23	-45.5	-56.7	3.8	8.45e-01	0	59	104	0	61	13194
2026-01-21 03:53:25.69	183.01	37.74	-45.4	-56.5	3.8	8.47e-01	0	59	104	0	61	12859
2026-01-21 03:53:27.71	183.21	37.26	-45.4	-56.2	3.8	8.47e-01	0	59	104	0	61	12455
2026-01-21 03:53:29.74	183.40	36.78	-45.4	-56.3	3.8	8.47e-01	0	59	104	0	61	12625
2026-01-21 03:53:31.76	183.59	36.31	-45.4	-56.5	3.8	8.46e-01	0	59	104	0	61	12832
2026-01-21 03:53:33.78	183.77	35.84	-45.4	-56.2	3.8	8.47e-01	0	59	104	0	61	12407
2026-01-21 03:53:35.80	183.95	35.39	-45.4	-56.7	3.8	8.46e-01	0	59	104	0	61	13154
2026-01-21 03:53:37.82	184.12	34.93	-45.4	-56.2	3.8	8.47e-01	0	59	104	0	61	12395
2026-01-21 03:53:39.84	184.29	34.49	-45.0	-53.3	4.2	8.41e-01	0	58	0	0	61	8928
2026-01-21 03:53:41.86	184.46	34.05	-44.5	-50.9	5.2	7.58e-01	0	59	0	0	60	7202
2026-01-21 03:53:43.88	184.62	33.62	-44.6	-51.1	5.0	7.66e-01	0	59	0	0	59	7744
2026-01-21 03:53:45.90	184.77	33.19	-45.4	-56.7	3.8	8.46e-01	0	59	104	0	60	13888
2026-01-21 03:53:47.92	184.92	32.77	-44.1	-49.4	6.0	7.57e-01	0	59	0	0	59	6394
2026-01-21 03:53:49.95	185.07	32.35	-41.8	-44.6	10.6	6.37e-03	0	59	0	14680064	54	4878
2026-01-21 03:53:51.97	185.22	31.94	-42.0	-45.0	10.3	3.88e-03	0	58	0	29360128	54	5104
2026-01-21 03:53:53.99	185.36	31.53	-43.5	-47.7	7.5	1.09e-01	0	59	0	44040192	56	6255
2026-01-21 03:53:56.01	185.50	31.13	-40.2	-42.2	13.2	1.68e-04	0	59	0	58720256	51	4399
2026-01-21 03:53:58.03	185.63	30.74	-36.8	-38.1	17.2	0.00e+00	0	58	0	73400320	44	4129
2026-01-21 03:54:00.05	185.76	30.35	-43.2	-47.2	8.1	9.54e-02	0	59	0	88080384	56	5906
2026-01-21 03:54:02.08	185.89	29.96	-41.7	-44.5	10.7	2.53e-04	0	59	0	102760448	52	5446
2026-01-21 03:54:04.10	186.02	29.58	-39.1	-40.9	14.3	0.00e+00	0	59	0	117440512	47	4801
2026-01-21 03:54:06.12	186.14	29.21	-36.3	-37.6	17.5	0.00e+00	0	59	0	132120576	43	4111
2026-01-21 03:54:08.14	186.26	28.84	-36.1	-37.3	17.7	0.00e+00	0	59	0	146800640	43	3986
2026-01-21 03:54:10.16	186.38	28.48	-35.9	-37.1	17.7	0.00e+00	0	59	0	160432128	42	4144
2026-01-21 03:54:12.17	186.50	28.12	-35.7	-36.9	18.1	0.00e+00	0	59	0	175112192	42	4035
2026-01-21 03:54:14.19	186.61	27.76	-35.8	-37.0	18.0	0.00e+00	0	59	0	189792256	42	4054
2026-01-21 03:54:16.21	186.72	27.41	-35.8	-36.9	18.1	0.00e+00	0	59	0	204472320	42	4045
2026-01-21 03:54:18.23	186.83	27.06	-35.8	-37.1	18.0	0.00e+00	0	59	0	219152384	42	4100
2026-01-21 03:54:20.25	186.94	26.72	-35.9	-37.2	17.9	0.00e+00	0	59	0	233832448	42	4152
2026-01-21 03:54:22.27	187.04	26.38	-36.0	-37.2	17.7	0.00e+00	0	59	0	248512512	42	4185
2026-01-21 03:54:24.29	187.14	26.05	-36.0	-37.2	17.8	0.00e+00	0	59	0	263192576	42	4178
2026-01-21 03:54:26.31	187.24	25.72	-36.0	-37.2	17.7	0.00e+00	0	59	0	277872640	42	4187
2026-01-21 03:54:28.33	187.34	25.39	-36.1	-37.3	17.6	0.00e+00	0	59	0	291504128	42	4232
2026-01-21 03:54:30.35	187.44	25.07	-36.0	-37.3	17.7	0.00e+00	0	59	0	306184192	42	4210
2026-01-21 03:54:32.37	187.53	24.75	-36.0	-37.2	17.7	0.00e+00	0	59	0	320864256	42	4177
2026-01-21 03:54:34.39	187.62	24.43	-36.0	-37.3	17.7	0.00e+00	0	59	0	335544320	42	4206
2026-01-21 03:54:36.41	187.72	24.12	-35.9	-37.1	17.9	0.00e+00	0	59	0	350224384	42	4120
2026-01-21 03:54:38.42	187.80	23.82	-35.9	-37.2	17.8	0.00e+00	0	59	0	364904448	42	4149
2026-01-21 03:54:40.44	187.89	23.51	-35.9	-37.1	17.8	0.00e+00	0	59	0	379584512	42	4139
2026-01-21 03:54:42.46	187.98	23.21	-35.8	-37.0	17.9	0.00e+00	0	59	0	394264576	42	4085
2026-01-21 03:54:44.48	188.06	22.91	-35.8	-37.0	17.9	0.00e+00	0	59	0	408944640	42	4077
2026-01-21 03:54:46.50	188.15	22.62	-35.9	-37.1	17.9	0.00e+00	0	59	0	423624704	42	4100
2026-01-21 03:54:48.52	188.23	22.33	-35.8	-37.0	17.9	0.00e+00	0	59	0	437256192	42	4082
2026-01-21 03:54:50.54	188.31	22.04	-35.8	-37.0	17.9	0.00e+00	0	59	0	452984832	42	4087
2026-01-21 03:54:52.56	188.39	21.76	-35.9	-37.1	17.8	0.00e+00	0	59	0	466616320	42	4111
2026-01-21 03:54:54.58	188.47	21.48	-35.9	-37.1	17.8	0.00e+00	0	59	0	481296384	42	4123
2026-01-21 03:54:56.60	188.54	21.20	-35.9	-37.2	17.7	0.00e+00	0	59	0	495976448	42	4153
2026-01-21 03:54:58.62	188.62	20.92	-36.0	-37.3	17.6	0.00e+00	0	59	0	510656512	42	4203
2026-01-21 03:55:00.64	188.69	20.65	-36.1	-37.4	17.5	0.00e+00	0	59	0	525336576	42	4246
2026-01-21 03:55:02.66	188.77	20.38	-36.1	-37.3	17.6	0.00e+00	0	59	0	540016640	42	4225
2026-01-21 03:55:04.69	188.84	20.11	-36.2	-37.5	17.4	0.00e+00	0	59	0	554696704	42	4310
2026-01-21 03:55:06.71	188.91	19.85	-36.3	-37.6	17.3	0.00e+00	0	59	0	569376768	42	4356
2026-01-21 03:55:08.73	188.98	19.59	-36.3	-37.6	17.2	0.00e+00	0	59	0	584056832	42	4370
2026-01-21 03:55:10.75	189.05	19.33	-36.4	-37.8	17.1	0.00e+00	0	59	0	598736896	42	4447
2026-01-21 03:55:12.76	189.11	19.08	-36.5	-37.7	17.1	0.00e+00	0	59	0	612368384	42	4440
2026-01-21 03:55:14.78	189.18	18.82	-36.5	-37.8	17.0	0.00e+00	0	59	0	627048448	42	4488
2026-01-21 03:55:16.80	189.25	18.57	-36.6	-37.9	17.0	0.00e+00	0	59	0	641728512	42	4511
2026-01-21 03:55:18.82	189.31	18.33	-36.6	-37.9	16.9	0.00e+00	0	59	0	656408576	42	4541
2026-01-21 03:55:20.84	189.37	18.08	-36.7	-38.1	16.7	0.00e+00	0	59	0	671088640	43	4370
2026-01-21 03:55:22.86	189.44	17.84	-36.8	-38.1	16.7	0.00e+00	0	59	0	685768704	43	4388
2026-01-21 03:55:24.88	189.50	17.60	-36.9	-38.2	16.6	0.00e+00	0	59	0	700448768	43	4433
2026-01-21 03:55:26.89	189.56	17.36	-36.9	-38.3	16.5	0.00e+00	0	59	0	715128832	43	4467
2026-01-21 03:55:28.91	189.62	17.12	-36.8	-38.2	16.6	0.00e+00	0	59	0	729808896	43	4427
2026-01-21 03:55:30.93	189.68	16.89	-37.0	-38.3	16.5	0.00e+00	0	59	0	743440384	43	4490
2026-01-21 03:55:32.95	189.74	16.66	-37.0	-38.3	16.4	0.00e+00	0	59	0	758120448	43	4491
2026-01-21 03:55:34.97	189.80	16.43	-37.0	-38.4	16.3	0.00e+00	0	59	0	772800512	43	4535
2026-01-21 03:55:36.99	189.85	16.20	-37.0	-38.5	16.3	0.00e+00	0	59	0	787480576	43	4550
2026-01-21 03:55:39.00	189.91	15.98	-37.1	-38.6	16.2	0.00e+00	0	59	0	802160640	43	4599
2026-01-21 03:55:41.02	189.96	15.75	-37.5	-39.0	16.0	0.00e+00	0	59	0	816840704	44	4551
2026-01-21 03:55:43.04	190.02	15.53	-37.5	-38.9	16.0	0.00e+00	0	59	0	831520768	44	4539
2026-01-21 03:55:45.06	190.07	15.31	-37.4	-38.9	16.1	0.00e+00	0	59	0	846200832	44	4500
2026-01-21 03:55:47.07	190.12	15.10	-37.5	-39.0	15.9	0.00e+00	0	59	0	860880896	44	4547
2026-01-21 03:55:49.09	190.18	14.88	-37.5	-39.0	15.9	0.00e+00	0	59	0	875560960	44	4549
2026-01-21 03:55:51.11	190.23	14.67	-37.6	-39.1	15.8	0.00e+00	0	59	0	889192448	44	4627
2026-01-21 03:55:53.13	190.28	14.46	-37.6	-39.1	15.7	0.00e+00	0	59	0	903872512	44	4640
2026-01-21 03:55:55.15	190.33	14.25	-37.7	-39.2	15.7	0.00e+00	0	59	0	918552576	44	4670
2026-01-21 03:55:57.16	190.38	14.04	-37.7	-39.2	15.6	0.00e+00	0	59	0	933232640	45	4432
2026-01-21 03:55:59.18	190.43	13.83	-37.8	-39.3	15.5	0.00e+00	0	59	0	947912704	45	4481
2026-01-21 03:56:01.20	190.48	13.63	-37.8	-39.4	15.4	0.00e+00	0	59	0	962592768	45	4525
2026-01-21 03:56:03.22	190.53	13.43	-37.9	-39.5	15.3	0.00e+00	0	59	0	977272832	45	4563
2026-01-21 03:56:05.24	190.57	13.22	-37.9	-39.5	15.3	0.00e+00	0	59	0	990904320	45	4570
2026-01-21 03:56:07.26	190.62	13.02	-38.0	-39.6	15.2	0.00e+00	0	59	0	1006632960	45	4633
2026-01-21 03:56:09.27	190.67	12.83	-38.0	-39.6	15.1	0.00e+00	0	59	0	1020264448	45	4618
2026-01-21 03:56:11.29	190.71	12.63	-38.1	-39.7	15.0	0.00e+00	0	59	0	1034944512	45	4683
2026-01-21 03:56:13.31	190.76	12.44	-38.2	-39.8	14.9	0.00e+00	0	59	0	1049624576	45	4752
2026-01-21 03:56:15.33	190.80	12.24	-38.3	-40.0	14.7	0.00e+00	0	59	0	1064304640	46	4560
2026-01-21 03:56:17.35	190.85	12.05	-38.3	-40.0	14.7	0.00e+00	0	59	0	1078984704	46	4588
2026-01-21 03:56:19.37	190.89	11.86	-38.4	-40.2	14.5	0.00e+00	0	59	0	1093664768	46	4662
2026-01-21 03:56:21.39	190.94	11.67	-38.6	-40.3	14.3	1.10e-06	0	59	0	1108344832	46	4747
2026-01-21 03:56:23.40	190.98	11.49	-38.4	-40.1	14.5	0.00e+00	0	59	0	1123024896	46	4627
2026-01-21 03:56:25.42	191.02	11.30	-38.4	-40.2	14.5	1.10e-06	0	59	0	1137704960	46	4658
2026-01-21 03:56:27.44	191.06	11.11	-38.5	-40.2	14.4	0.00e+00	0	59	0	1151336448	46	4695
2026-01-21 03:56:29.46	191.10	10.93	-38.6	-40.4	14.2	1.10e-06	0	59	0	1166016512	46	4796
2026-01-21 03:56:31.48	191.14	10.75	-38.5	-40.2	14.3	2.20e-06	0	59	0	1180696576	46	4703
2026-01-21 03:56:33.50	191.19	10.57	-38.5	-40.3	14.3	0.00e+00	0	59	0	1195376640	46	4728
2026-01-21 03:56:35.52	191.23	10.39	-38.6	-40.4	14.1	2.20e-06	0	59	0	1210056704	46	4800
2026-01-21 03:56:37.54	191.27	10.21	-38.6	-40.4	14.1	3.40e-06	0	59	0	1224736768	46	4773
2026-01-21 03:56:39.55	191.30	10.04	-38.7	-40.5	14.0	2.20e-06	0	59	0	1239416832	46	4859
2026-01-21 03:56:41.57	191.34	9.86	-38.7	-40.6	13.9	3.40e-06	0	59	0	1254096896	47	4607
2026-01-21 03:56:43.59	191.38	9.69	-38.8	-40.6	13.8	9.10e-06	0	59	0	1268776960	47	4651
2026-01-21 03:56:45.61	191.42	9.51	-38.9	-40.8	13.6	8.00e-06	0	59	0	1283457024	47	4721
2026-01-21 03:56:47.63	191.46	9.34	-38.8	-40.8	13.6	5.70e-06	0	59	0	1297088512	47	4718
2026-01-21 03:56:49.64	191.50	9.17	-38.8	-40.8	13.6	5.70e-06	0	59	0	1311768576	47	4712
2026-01-21 03:56:51.66	191.53	9.00	-38.8	-40.7	13.6	3.40e-06	0	59	0	1326448640	47	4673
2026-01-21 03:56:53.68	191.57	8.83	-38.9	-40.9	13.4	1.83e-05	0	59	0	1341128704	47	4764
2026-01-21 03:56:55.70	191.61	8.67	-38.8	-40.8	13.5	6.80e-06	0	59	0	1355808768	47	4733
2026-01-21 03:56:57.72	191.64	8.50	-38.9	-40.9	13.3	2.51e-05	0	59	0	1370488832	47	4812
2026-01-21 03:56:59.74	191.68	8.34	-39.0	-41.0	13.2	3.43e-05	0	59	0	1385168896	47	4836
2026-01-21 03:57:01.77	191.71	8.17	-39.1	-41.1	13.0	2.97e-05	0	59	0	1399848960	47	4922
2026-01-21 03:57:03.78	191.75	8.01	-42.8	-47.5	6.8	3.20e-03	0	59	0	1414529024	55	6449
2026-01-21 03:57:05.81	191.78	7.85	-45.3	-56.6	3.8	8.46e-01	0	59	104	1414529024	60	13829
2026-01-21 03:57:07.83	191.82	7.69	-45.5	-56.9	3.8	8.45e-01	0	59	104	1414529024	60	14298
2026-01-21 03:57:09.85	191.85	7.53	-45.7	-57.0	3.8	8.47e-01	0	59	104	1414529024	60	14454
2026-01-21 03:57:11.87	191.88	7.37	-45.8	-57.1	3.8	8.47e-01	0	59	104	1414529024	61	13864
2026-01-21 03:57:13.89	191.92	7.21	-45.8	-57.1	3.8	8.46e-01	0	59	104	1414529024	61	13788
2026-01-21 03:57:15.92	191.95	7.05	-45.7	-57.1	3.8	8.47e-01	0	59	104	1414529024	61	13817
2026-01-21 03:57:17.94	191.98	6.90	-45.7	-57.0	3.8	8.46e-01	0	59	104	1414529024	61	13647
2026-01-21 03:57:19.96	192.02	6.74	-45.7	-57.0	3.8	8.48e-01	0	59	104	1414529024	61	13662
2026-01-21 03:57:21.98	192.05	6.59	-45.7	-57.0	3.8	8.46e-01	0	60	104	1414529024	61	13664
2026-01-21 03:57:24.00	192.08	6.43	-45.7	-57.0	3.8	8.45e-01	0	60	104	1414529024	61	13618
2026-01-21 03:57:26.03	192.11	6.28	-45.7	-57.0	3.8	8.46e-01	0	59	104	1414529024	61	13688
2026-01-21 03:57:28.05	192.14	6.13	-45.6	-57.0	3.8	8.46e-01	0	59	104	1414529024	61	13653
2026-01-21 03:57:30.07	192.17	5.98	-45.6	-57.0	3.8	8.47e-01	0	59	104	1414529024	61	13591
2026-01-21 03:57:32.09	192.21	5.83	-45.6	-57.0	3.8	8.46e-01	0	59	104	1414529024	61	13586
2026-01-21 03:57:34.11	192.24	5.68	-45.6	-57.0	3.8	8.45e-01	0	59	104	1414529024	61	13665
2026-01-21 03:57:36.14	192.27	5.53	-45.6	-57.0	3.8	8.47e-01	0	60	104	1414529024	61	13618
2026-01-21 03:57:38.16	192.30	5.38	-45.6	-57.0	3.8	8.46e-01	0	60	104	1414529024	61	13644
2026-01-21 03:57:40.18	192.33	5.24	-45.6	-57.0	3.8	8.47e-01	0	59	104	1414529024	61	13593
2026-01-21 03:57:42.20	192.36	5.09	-45.6	-57.0	3.8	8.46e-01	0	60	104	1414529024	61	13622
2026-01-21 03:57:44.22	192.39	4.95	-45.6	-56.9	3.8	8.46e-01	0	60	104	1414529024	61	13541
2026-01-21 03:57:46.24	192.41	4.80	-45.6	-57.0	3.8	8.45e-01	0	60	104	1414529024	61	13625
2026-01-21 03:57:48.26	192.44	4.66	-45.6	-57.0	3.8	8.46e-01	0	60	104	1414529024	61	13622
2026-01-21 03:57:50.29	192.47	4.52	-45.6	-57.0	3.8	8.46e-01	0	59	104	1414529024	61	13593
2026-01-21 03:57:52.31	192.50	4.38	-45.6	-56.9	3.8	8.46e-01	0	59	104	1414529024	61	13521
2026-01-21 03:57:54.33	192.53	4.24	-45.6	-57.0	3.8	8.46e-01	0	60	104	1414529024	61	13591
2026-01-21 03:57:56.35	192.56	4.10	-45.6	-56.9	3.8	8.48e-01	0	60	104	1414529024	61	13552
2026-01-21 03:57:58.37	192.58	3.96	-45.6	-57.0	3.8	8.47e-01	0	59	104	1414529024	61	13598
2026-01-21 03:58:00.39	192.61	3.82	-45.6	-57.0	3.8	8.47e-01	0	60	104	1414529024	61	13577
2026-01-21 03:58:02.41	192.64	3.68	-45.6	-57.0	3.8	8.46e-01	0	60	104	1414529024	61	13577
2026-01-21 03:58:04.44	192.67	3.54	-45.6	-56.9	3.8	8.46e-01	0	60	104	1414529024	61	13550
2026-01-21 03:58:06.46	192.69	3.41	-45.6	-56.9	3.8	8.45e-01	0	59	104	1414529024	61	13518
2026-01-21 03:58:08.48	192.72	3.27	-45.6	-56.9	3.8	8.46e-01	0	59	104	1414529024	61	13547
2026-01-21 03:58:10.50	192.75	3.13	-45.6	-56.9	3.8	8.45e-01	0	59	104	1414529024	61	13506
2026-01-21 03:58:12.52	192.77	3.00	-45.6	-56.9	3.8	8.47e-01	0	60	104	1414529024	61	13509
2026-01-21 03:58:14.54	192.80	2.87	-45.6	-56.9	3.8	8.46e-01	0	60	104	1414529024	61	13555
2026-01-21 03:58:16.56	192.83	2.73	-45.6	-56.9	3.8	8.45e-01	0	60	104	1414529024	61	13496
2026-01-21 03:58:18.58	192.85	2.60	-45.6	-56.9	3.8	8.47e-01	0	60	104	1414529024	61	13468
2026-01-21 03:58:20.61	192.88	2.47	-45.6	-56.9	3.8	8.46e-01	0	60	104	1414529024	61	13538
2026-01-21 03:58:22.63	192.90	2.34	-45.6	-57.0	3.8	8.46e-01	0	60	104	1414529024	61	13576
2026-01-21 03:58:24.65	192.93	2.20	-45.6	-56.9	3.8	8.45e-01	0	60	104	1414529024	61	13549
2026-01-21 03:58:26.67	192.95	2.07	-45.6	-56.9	3.8	8.46e-01	0	60	104	1414529024	61	13529
2026-01-21 03:58:28.69	192.98	1.94	-45.6	-56.9	3.8	8.46e-01	0	60	104	1414529024	61	13516
2026-01-21 03:58:30.71	193.00	1.82	-45.6	-56.9	3.8	8.46e-01	0	60	104	1414529024	61	13489

#Closed at: 2026-01-21 03:58:30
#Recorded file [1414 MB]: D:/lorett/data/31039_260121_065305.dat