passes_logs/2026/01/21/R2.0S_Moscow/R2.0S_Moscow__20260121_003238_NOAA_21_JPSS-2_rec.log

#Pass ID: 20260121_003238_NOAA 21 (JPSS-2)
#Satellite: NOAA 21 (JPSS-2)
#Configuration: NOAA-21
#almurnet v.1.7.20251203
#Start time: 2026-01-21 00:33:22

#Version: 2.2.20231116
#Station: R2.0S_Moscow
#Location: 37.707566 lon 55.798166 lat
#TLE: 1 54234U 22150A   26020.29910383  .00000141  00000+0  87571-4 0  9990
#TLE: 2 54234  98.7506 321.1348 0000615 250.8428 109.2682 14.19536295165564

#Time	Az	El	Level	Level2	SNR	BER	BlckErr	Temp	State	Recorded	gain1	gain2
2026-01-21 00:33:22.89	11.08	4.86	-45.2	-56.9	3.8	8.46e-01	0	58	0	0	61	14229
2026-01-21 00:33:26.94	10.91	5.14	-45.5	-58.0	3.8	1.49e+00	0	58	104	0	63	14438
2026-01-21 00:33:30.98	10.74	5.42	-44.7	-57.3	3.8	1.49e+00	0	58	104	0	61	14954
2026-01-21 00:33:35.02	10.56	5.70	-40.4	-52.8	3.8	1.49e+00	0	58	104	0	52	14918
2026-01-21 00:33:39.07	10.38	5.98	-40.4	-52.8	3.8	1.49e+00	0	58	104	0	52	14920
2026-01-21 00:33:43.11	10.20	6.27	-40.4	-52.8	3.8	1.49e+00	0	58	104	0	52	14949
2026-01-21 00:33:47.15	10.01	6.56	-40.3	-52.8	3.8	1.49e+00	0	58	104	0	52	14971
2026-01-21 00:33:51.19	9.82	6.85	-40.3	-52.8	3.8	1.49e+00	0	58	104	0	52	14941
2026-01-21 00:33:55.23	9.62	7.15	-40.3	-52.8	3.8	1.49e+00	0	58	104	0	52	14904
2026-01-21 00:33:59.28	9.42	7.45	-40.3	-52.8	3.8	1.49e+00	0	58	104	0	52	14961
2026-01-21 00:34:03.32	9.21	7.75	-40.3	-52.7	3.8	1.49e+00	0	58	104	0	52	14879
2026-01-21 00:34:07.36	9.00	8.05	-40.3	-52.8	3.8	1.49e+00	0	58	104	0	52	14966
2026-01-21 00:34:11.40	8.79	8.36	-40.3	-52.7	3.8	1.49e+00	0	58	104	0	52	14860
2026-01-21 00:34:15.44	8.57	8.67	-40.3	-52.8	3.8	1.49e+00	0	58	104	0	52	14909
2026-01-21 00:34:19.48	8.34	8.99	-40.4	-52.9	3.8	1.49e+00	0	59	104	0	52	15084
2026-01-21 00:34:23.52	8.11	9.31	-40.4	-52.8	3.8	1.49e+00	0	58	104	0	52	14977
2026-01-21 00:34:27.55	7.88	9.63	-40.1	-52.6	3.8	1.49e+00	0	58	104	0	52	14563
2026-01-21 00:34:31.59	7.64	9.95	-40.5	-53.0	3.8	1.49e+00	0	58	104	0	52	15292
2026-01-21 00:34:35.63	7.39	10.28	-40.3	-52.7	3.8	1.49e+00	0	58	104	0	52	14777
2026-01-21 00:34:39.67	7.14	10.62	-40.8	-53.3	3.8	1.49e+00	0	58	104	0	52	15873
2026-01-21 00:34:43.70	6.88	10.95	-40.5	-52.9	3.8	1.49e+00	0	59	104	0	52	15133
2026-01-21 00:34:47.74	6.61	11.30	-41.3	-52.4	3.9	1.49e+00	0	58	104	0	53	13508
2026-01-21 00:34:51.78	6.34	11.64	-41.9	-51.2	4.1	1.47e+00	0	59	104	0	54	11103
2026-01-21 00:34:55.82	6.06	11.99	-40.9	-52.0	3.8	1.32e+00	0	59	104	0	53	12861
2026-01-21 00:34:59.85	5.77	12.35	-39.6	-43.3	10.0	1.14e-02	0	59	0	3145728	51	5313
2026-01-21 00:35:03.90	5.48	12.71	-39.1	-42.3	11.2	1.52e-03	0	59	0	15728640	50	5026
2026-01-21 00:35:07.93	5.18	13.07	-39.4	-42.6	11.1	1.68e-03	0	58	0	28311552	50	5217
2026-01-21 00:35:11.97	4.87	13.44	-39.4	-42.5	11.5	1.05e-03	0	59	0	40894464	50	5120
2026-01-21 00:35:16.01	4.55	13.81	-39.3	-42.2	12.0	3.26e-04	0	59	0	53477376	50	4964
2026-01-21 00:35:20.06	4.23	14.19	-40.0	-43.2	11.1	1.60e-03	0	59	0	66060288	50	5564
2026-01-21 00:35:24.10	3.89	14.57	-39.8	-42.8	11.6	6.58e-04	0	59	0	78643200	50	5294
2026-01-21 00:35:28.13	3.55	14.96	-40.1	-43.2	11.5	1.02e-03	0	58	0	91226112	51	5237
2026-01-21 00:35:32.17	3.19	15.35	-40.2	-43.1	11.8	4.75e-04	0	59	0	103809024	51	5181
2026-01-21 00:35:36.22	2.83	15.75	-40.1	-42.9	12.2	2.40e-04	0	59	0	116391936	51	5056
2026-01-21 00:35:40.25	2.45	16.16	-40.0	-42.7	12.5	1.41e-04	0	59	0	128974848	51	4943
2026-01-21 00:35:44.29	2.07	16.57	-40.2	-43.1	12.1	2.44e-04	0	59	0	141557760	51	5172
2026-01-21 00:35:48.34	1.67	16.98	-40.3	-43.1	12.2	2.20e-04	0	58	0	154140672	51	5187
2026-01-21 00:35:52.38	1.27	17.40	-40.5	-43.4	11.9	3.86e-04	0	59	0	166723584	51	5345
2026-01-21 00:35:56.41	0.85	17.83	-40.5	-43.4	12.0	2.59e-04	0	59	0	180355072	51	5356
2026-01-21 00:36:00.45	0.42	18.26	-40.5	-43.4	12.0	3.21e-04	0	59	0	192937984	51	5348
2026-01-21 00:36:04.49	359.97	18.70	-40.4	-43.1	12.3	1.96e-04	0	59	0	205520896	51	5218
2026-01-21 00:36:08.53	359.51	19.14	-40.4	-43.2	12.2	2.36e-04	0	58	0	218103808	51	5266
2026-01-21 00:36:12.57	359.04	19.59	-40.4	-43.1	12.2	2.15e-04	0	59	0	230686720	51	5202
2026-01-21 00:36:16.61	358.55	20.05	-40.2	-42.8	12.6	1.14e-04	0	58	0	243269632	51	5022
2026-01-21 00:36:20.65	358.05	20.51	-39.8	-42.3	13.1	5.03e-05	0	59	0	255852544	51	4711
2026-01-21 00:36:24.69	357.53	20.98	-39.6	-42.0	13.1	2.05e-05	0	59	0	268435456	51	4586
2026-01-21 00:36:28.73	357.00	21.45	-39.5	-42.0	13.1	3.66e-05	0	59	0	281018368	51	4553
2026-01-21 00:36:32.77	356.45	21.93	-39.4	-41.8	13.4	2.21e-05	0	59	0	293601280	50	4741
2026-01-21 00:36:36.81	355.88	22.42	-39.2	-41.4	13.9	1.50e-06	0	59	0	306184192	50	4522
2026-01-21 00:36:40.85	355.29	22.91	-39.1	-41.2	14.3	1.50e-06	0	59	0	318767104	50	4419
2026-01-21 00:36:44.89	354.68	23.41	-39.2	-41.3	14.2	3.00e-06	0	59	0	331350016	50	4484
2026-01-21 00:36:48.93	354.05	23.92	-39.4	-41.6	14.0	4.50e-06	0	58	0	343932928	50	4614
2026-01-21 00:36:52.97	353.40	24.43	-39.4	-41.6	14.1	3.80e-06	0	59	0	356515840	50	4615
2026-01-21 00:36:57.01	352.73	24.95	-39.4	-41.6	14.1	7.00e-07	0	59	0	369098752	50	4610
2026-01-21 00:37:01.05	352.04	25.47	-39.5	-41.7	14.0	3.00e-06	0	59	0	381681664	50	4666
2026-01-21 00:37:05.09	351.32	26.00	-39.9	-42.2	13.5	1.29e-05	0	59	0	394264576	50	4976
2026-01-21 00:37:09.12	350.58	26.54	-39.9	-42.3	13.5	9.90e-06	0	59	0	406847488	50	5004
2026-01-21 00:37:13.16	349.81	27.08	-40.2	-42.6	13.2	1.90e-05	0	59	0	419430400	50	5213
2026-01-21 00:37:17.20	349.01	27.62	-40.5	-43.1	12.7	6.86e-05	0	59	0	432013312	51	5208
2026-01-21 00:37:21.24	348.19	28.17	-40.5	-42.9	13.0	4.80e-05	0	59	0	444596224	51	5094
2026-01-21 00:37:25.27	347.34	28.72	-40.3	-42.8	13.2	2.28e-05	0	59	0	457179136	51	5007
2026-01-21 00:37:29.31	346.45	29.28	-40.4	-42.8	13.2	3.05e-05	0	59	0	469762048	51	5019
2026-01-21 00:37:33.36	345.53	29.84	-40.1	-42.5	13.6	9.90e-06	0	59	0	482344960	51	4816
2026-01-21 00:37:37.40	344.59	30.40	-40.2	-42.5	13.5	1.06e-05	0	59	0	495976448	51	4867
2026-01-21 00:37:41.43	343.60	30.97	-40.0	-42.3	13.8	3.80e-06	0	59	0	507510784	51	4707
2026-01-21 00:37:45.47	342.59	31.53	-40.1	-42.3	13.8	3.80e-06	0	59	0	521142272	51	4741
2026-01-21 00:37:49.51	341.53	32.10	-40.0	-42.2	13.8	3.00e-06	0	58	0	533725184	51	4703
2026-01-21 00:37:53.55	340.44	32.66	-40.1	-42.4	13.7	6.10e-06	0	59	0	546308096	51	4771
2026-01-21 00:37:57.59	339.31	33.22	-40.5	-42.9	13.1	2.74e-05	0	59	0	558891008	51	5061
2026-01-21 00:38:01.63	338.13	33.79	-41.0	-43.8	12.2	1.90e-04	0	59	0	571473920	52	5302
2026-01-21 00:38:05.67	336.92	34.34	-40.9	-43.6	12.5	1.37e-04	0	59	0	584056832	52	5189
2026-01-21 00:38:09.71	335.66	34.89	-40.8	-43.4	12.7	7.62e-05	0	59	0	596639744	52	5077
2026-01-21 00:38:13.75	334.36	35.44	-41.3	-44.1	12.0	3.13e-04	0	58	0	609222656	53	5198
2026-01-21 00:38:17.78	333.02	35.97	-41.5	-44.5	11.5	8.20e-04	0	59	0	621805568	53	5455
2026-01-21 00:38:21.82	331.64	36.50	-41.4	-44.3	11.8	4.54e-04	0	59	0	634388480	53	5303
2026-01-21 00:38:25.86	330.20	37.01	-41.3	-44.2	11.9	3.97e-04	0	59	0	646971392	53	5253
2026-01-21 00:38:29.90	328.72	37.52	-41.2	-43.9	12.1	2.94e-04	0	59	0	659554304	53	5088
2026-01-21 00:38:33.95	327.19	38.00	-41.1	-43.9	12.1	2.28e-04	0	59	0	672137216	53	5054
2026-01-21 00:38:37.98	325.62	38.47	-41.4	-44.3	11.8	5.41e-04	0	59	0	684720128	53	5287
2026-01-21 00:38:42.02	324.01	38.92	-41.8	-45.0	11.1	1.48e-03	0	59	0	697303040	54	5457
2026-01-21 00:38:46.05	322.35	39.35	-41.8	-45.0	11.1	1.69e-03	0	59	0	709885952	54	5415
2026-01-21 00:38:50.09	320.64	39.76	-41.8	-45.0	11.1	2.14e-03	0	59	0	722468864	54	5426
2026-01-21 00:38:54.13	318.89	40.14	-41.8	-45.0	11.1	1.58e-03	0	59	0	735051776	54	5405
2026-01-21 00:38:58.18	317.10	40.50	-41.3	-44.1	12.0	3.58e-04	0	59	0	747634688	54	4881
2026-01-21 00:39:02.21	315.28	40.82	-41.7	-44.9	11.2	1.30e-03	0	59	0	760217600	54	5341
2026-01-21 00:39:06.25	313.41	41.11	-41.6	-44.6	11.5	1.12e-03	0	59	0	772800512	54	5177
2026-01-21 00:39:10.29	311.52	41.38	-41.4	-44.3	11.7	5.67e-04	0	59	0	785383424	54	5041
2026-01-21 00:39:14.33	309.59	41.60	-42.1	-45.5	10.4	3.93e-03	0	59	0	797966336	54	5776
2026-01-21 00:39:18.37	307.64	41.79	-42.0	-45.3	10.7	2.87e-03	0	59	0	810549248	55	5295
2026-01-21 00:39:22.41	305.67	41.95	-42.0	-45.4	10.6	3.91e-03	0	59	0	823132160	55	5377
2026-01-21 00:39:26.45	303.68	42.06	-42.0	-45.3	10.8	3.24e-03	0	59	0	836763648	55	5296
2026-01-21 00:39:30.49	301.68	42.14	-41.9	-45.1	10.9	2.42e-03	0	59	0	849346560	55	5206
2026-01-21 00:39:34.53	299.67	42.18	-41.7	-44.8	11.1	1.60e-03	0	59	0	861929472	55	5003
2026-01-21 00:39:38.57	297.66	42.18	-41.8	-45.0	11.0	1.55e-03	0	59	0	874512384	54	5441
2026-01-21 00:39:42.61	295.66	42.14	-41.5	-44.5	11.5	9.01e-04	0	59	0	887095296	54	5103
2026-01-21 00:39:46.65	293.66	42.05	-41.6	-44.6	11.5	7.02e-04	0	59	0	899678208	54	5164
2026-01-21 00:39:50.69	291.67	41.93	-41.3	-44.1	12.0	4.83e-04	0	59	0	912261120	54	4898
2026-01-21 00:39:54.73	289.70	41.78	-41.5	-44.5	11.5	8.88e-04	0	59	0	924844032	54	5145
2026-01-21 00:39:58.76	287.75	41.58	-41.6	-44.6	11.4	1.00e-03	0	59	0	937426944	54	5205
2026-01-21 00:40:02.80	285.83	41.35	-41.8	-45.0	11.0	1.77e-03	0	59	0	950009856	54	5418
2026-01-21 00:40:06.84	283.93	41.08	-42.3	-45.9	9.9	1.02e-02	0	59	0	962592768	55	5716
2026-01-21 00:40:10.87	282.07	40.79	-41.6	-44.7	11.3	1.20e-03	0	59	0	975175680	55	4947
2026-01-21 00:40:14.91	280.25	40.46	-41.4	-44.3	11.6	6.71e-04	0	59	0	987758592	54	5028
2026-01-21 00:40:18.95	278.46	40.10	-41.3	-44.1	11.9	4.33e-04	0	59	0	1000341504	54	4889
2026-01-21 00:40:22.99	276.71	39.71	-41.6	-44.6	11.2	1.10e-03	0	59	0	1012924416	54	5204
2026-01-21 00:40:27.03	275.00	39.30	-42.5	-46.3	9.5	1.63e-02	0	59	0	1025507328	55	5988
2026-01-21 00:40:31.07	273.34	38.87	-41.4	-44.4	11.5	8.48e-04	0	59	0	1038090240	54	5074
2026-01-21 00:40:35.11	271.72	38.42	-41.7	-44.9	11.1	1.87e-03	0	59	0	1050673152	54	5363
2026-01-21 00:40:39.15	270.15	37.94	-41.0	-43.7	12.3	2.33e-04	0	59	0	1063256064	54	4702
2026-01-21 00:40:43.19	268.63	37.45	-41.8	-44.9	11.1	1.50e-03	0	59	0	1075838976	54	5399
2026-01-21 00:40:47.23	267.15	36.95	-41.0	-43.7	12.2	2.35e-04	0	59	0	1088421888	54	4698
2026-01-21 00:40:51.27	265.71	36.43	-41.2	-44.0	12.1	3.58e-04	0	59	0	1101004800	54	4833
2026-01-21 00:40:55.31	264.32	35.90	-40.3	-42.6	13.4	6.80e-06	0	59	0	1113587712	52	4635
2026-01-21 00:40:59.34	262.98	35.36	-41.3	-44.3	11.7	3.58e-04	0	59	0	1126170624	53	5283
2026-01-21 00:41:03.38	261.68	34.81	-39.9	-42.0	14.0	3.80e-06	0	59	0	1138753536	51	4573
2026-01-21 00:41:07.42	260.43	34.26	-40.7	-43.2	12.9	4.95e-05	0	59	0	1151336448	51	5252
2026-01-21 00:41:11.46	259.21	33.70	-40.3	-42.7	13.2	1.67e-05	0	59	0	1163919360	52	4683
2026-01-21 00:41:15.50	258.04	33.14	-40.2	-42.5	13.6	1.14e-05	0	59	0	1177550848	51	4849
2026-01-21 00:41:19.54	256.91	32.57	-40.9	-43.6	12.4	1.52e-04	0	59	0	1190133760	52	5207
2026-01-21 00:41:23.58	255.82	32.00	-40.5	-42.9	13.1	2.97e-05	0	59	0	1202716672	52	4791
2026-01-21 00:41:27.61	254.76	31.43	-40.3	-42.7	13.2	1.98e-05	0	59	0	1215299584	52	4674
2026-01-21 00:41:31.65	253.74	30.87	-40.0	-42.3	13.7	8.30e-06	0	59	0	1227882496	52	4458
2026-01-21 00:41:35.69	252.76	30.30	-40.0	-42.2	13.9	9.10e-06	0	59	0	1240465408	51	4694
2026-01-21 00:41:39.73	251.81	29.73	-39.8	-41.9	14.1	1.50e-06	0	59	0	1253048320	51	4521
2026-01-21 00:41:43.77	250.89	29.17	-39.8	-41.9	14.1	1.50e-06	0	59	0	1265631232	51	4527
2026-01-21 00:41:47.81	250.01	28.61	-40.5	-43.1	13.0	2.59e-05	0	59	0	1278214144	51	5165
2026-01-21 00:41:51.85	249.15	28.06	-40.2	-42.4	13.5	8.30e-06	0	59	0	1290797056	51	4810
2026-01-21 00:41:55.89	248.33	27.51	-40.1	-42.3	13.6	5.30e-06	0	59	0	1303379968	51	4758
2026-01-21 00:41:59.92	247.53	26.96	-39.9	-42.1	13.9	3.80e-06	0	59	0	1315962880	51	4635
2026-01-21 00:42:03.96	246.76	26.42	-40.1	-42.5	13.5	9.90e-06	0	59	0	1328545792	51	4833
2026-01-21 00:42:08.00	246.02	25.88	-39.9	-42.1	13.9	4.50e-06	0	59	0	1341128704	51	4605
2026-01-21 00:42:12.04	245.30	25.35	-40.0	-42.3	13.7	8.30e-06	0	59	0	1353711616	51	4722
2026-01-21 00:42:16.08	244.60	24.82	-40.0	-42.3	13.7	3.00e-06	0	59	0	1366294528	51	4717
2026-01-21 00:42:20.12	243.93	24.31	-39.6	-41.7	14.3	7.00e-07	0	59	0	1378877440	51	4438
2026-01-21 00:42:24.16	243.28	23.79	-39.6	-41.7	14.3	7.00e-07	0	59	0	1391460352	51	4437
2026-01-21 00:42:28.20	242.65	23.28	-39.9	-42.1	13.9	1.50e-06	0	59	0	1404043264	51	4601
2026-01-21 00:42:32.24	242.04	22.78	-39.8	-42.0	13.9	3.00e-06	0	59	0	1416626176	51	4597
2026-01-21 00:42:36.27	241.45	22.29	-39.8	-42.0	13.9	7.60e-06	0	59	0	1429209088	51	4598
2026-01-21 00:42:40.31	240.88	21.80	-39.7	-41.9	14.0	4.50e-06	0	59	0	1441792000	51	4524
2026-01-21 00:42:44.35	240.33	21.32	-39.9	-42.1	13.8	2.20e-06	0	59	0	1454374912	51	4623
2026-01-21 00:42:48.39	239.79	20.84	-39.8	-42.1	13.9	4.50e-06	0	59	0	1466957824	51	4599
2026-01-21 00:42:52.42	239.27	20.37	-39.6	-41.8	14.1	7.00e-07	0	59	0	1479540736	51	4458
2026-01-21 00:42:56.46	238.77	19.91	-39.9	-42.1	13.8	7.60e-06	0	59	0	1492123648	51	4619
2026-01-21 00:43:00.50	238.28	19.45	-40.0	-42.4	13.5	6.10e-06	0	59	0	1504706560	51	4765
2026-01-21 00:43:04.54	237.80	19.00	-39.9	-42.1	13.8	6.80e-06	0	59	0	1518338048	51	4624
2026-01-21 00:43:08.58	237.34	18.55	-39.8	-42.1	13.8	3.80e-06	0	59	0	1530920960	51	4600
2026-01-21 00:43:12.62	236.90	18.11	-40.1	-42.4	13.5	1.52e-05	0	59	0	1543503872	51	4788
2026-01-21 00:43:16.66	236.46	17.68	-40.0	-42.4	13.5	1.44e-05	0	59	0	1556086784	51	4765
2026-01-21 00:43:20.70	236.04	17.25	-40.2	-42.6	13.2	1.90e-05	0	59	0	1568669696	51	4900
2026-01-21 00:43:24.73	235.63	16.83	-40.3	-42.8	12.9	5.26e-05	0	59	0	1581252608	51	5037
2026-01-21 00:43:28.77	235.23	16.42	-40.3	-42.7	13.0	3.12e-05	0	59	0	1593835520	51	4974
2026-01-21 00:43:32.81	234.85	16.01	-40.1	-42.5	13.2	2.13e-05	0	59	0	1606418432	51	4818
2026-01-21 00:43:36.85	234.47	15.60	-39.8	-42.0	13.7	1.06e-05	0	59	0	1619001344	51	4580
2026-01-21 00:43:40.89	234.10	15.20	-39.9	-42.1	13.6	9.10e-06	0	59	0	1631584256	51	4651
2026-01-21 00:43:44.94	233.75	14.81	-40.0	-42.4	13.3	1.60e-05	0	59	0	1644167168	51	4792
2026-01-21 00:43:48.98	233.40	14.42	-40.2	-42.8	12.9	3.89e-05	0	59	0	1656750080	51	4985
2026-01-21 00:43:53.02	233.06	14.03	-40.4	-43.0	12.6	1.08e-04	0	59	0	1669332992	51	5135
2026-01-21 00:43:57.05	232.73	13.66	-40.3	-42.9	12.7	9.00e-05	0	59	0	1681915904	51	5043
2026-01-21 00:44:01.09	232.41	13.28	-40.3	-42.8	12.7	6.86e-05	0	59	0	1694498816	51	5026
2026-01-21 00:44:05.14	232.10	12.91	-40.2	-42.8	12.8	7.24e-05	0	59	0	1707081728	51	5008
2026-01-21 00:44:09.18	231.79	12.55	-40.2	-42.7	12.9	5.49e-05	0	59	0	1719664640	51	4943
2026-01-21 00:44:13.21	231.50	12.19	-40.3	-42.9	12.6	7.62e-05	0	59	0	1732247552	51	5073
2026-01-21 00:44:17.25	231.21	11.83	-40.4	-43.1	12.4	1.50e-04	0	59	0	1744830464	51	5193
2026-01-21 00:44:21.29	230.93	11.48	-40.5	-43.3	12.2	2.22e-04	0	59	0	1757413376	51	5289
2026-01-21 00:44:25.33	230.65	11.14	-40.7	-43.5	12.0	3.19e-04	0	59	0	1769996288	51	5437
2026-01-21 00:44:29.37	230.38	10.79	-40.7	-43.7	11.7	5.39e-04	0	59	0	1782579200	52	5221
2026-01-21 00:44:33.41	230.12	10.45	-40.8	-43.8	11.5	7.13e-04	0	59	0	1795162112	52	5309
2026-01-21 00:44:37.45	229.86	10.12	-40.8	-43.9	11.3	1.07e-03	0	59	0	1807745024	52	5396
2026-01-21 00:44:41.49	229.61	9.79	-40.8	-44.0	11.3	1.37e-03	0	59	0	1820327936	52	5447
2026-01-21 00:44:45.52	229.37	9.46	-41.0	-44.3	11.0	2.06e-03	0	59	0	1832910848	52	5596
2026-01-21 00:44:49.56	229.13	9.14	-41.0	-44.3	10.8	2.45e-03	0	59	0	1845493760	52	5655
2026-01-21 00:44:53.60	228.89	8.82	-41.1	-44.5	10.7	2.97e-03	0	59	0	1859125248	52	5723
2026-01-21 00:44:57.64	228.67	8.51	-41.2	-44.7	10.3	4.90e-03	0	59	0	1871708160	53	5575
2026-01-21 00:45:01.68	228.44	8.19	-41.3	-44.9	10.2	6.63e-03	0	59	0	1884291072	53	5682
2026-01-21 00:45:05.72	228.22	7.88	-44.7	-57.2	3.8	1.49e+00	0	59	104	1892679680	60	15581
2026-01-21 00:45:09.76	228.01	7.58	-45.3	-57.6	3.8	1.49e+00	0	59	104	1892679680	61	15574
2026-01-21 00:45:13.80	227.80	7.28	-45.4	-57.8	3.8	1.49e+00	0	59	104	1892679680	61	15890
2026-01-21 00:45:17.84	227.60	6.98	-45.3	-57.7	3.8	1.49e+00	0	59	104	1892679680	61	15672
2026-01-21 00:45:21.88	227.40	6.68	-45.3	-57.6	3.8	1.49e+00	0	59	104	1892679680	61	15496
2026-01-21 00:45:25.92	227.20	6.39	-45.3	-57.7	3.8	1.49e+00	0	59	104	1892679680	61	15607
2026-01-21 00:45:29.96	227.01	6.10	-45.3	-57.6	3.8	1.49e+00	0	59	104	1892679680	61	15528
2026-01-21 00:45:34.00	226.82	5.81	-45.3	-57.6	3.8	1.49e+00	0	59	104	1892679680	61	15466
2026-01-21 00:45:38.05	226.63	5.53	-45.2	-57.6	3.8	1.49e+00	0	59	104	1892679680	61	15486
2026-01-21 00:45:42.09	226.45	5.24	-45.2	-57.6	3.8	1.49e+00	0	59	104	1892679680	61	15473
2026-01-21 00:45:46.13	226.28	4.97	-45.2	-57.6	3.8	1.49e+00	0	59	104	1892679680	61	15449
2026-01-21 00:45:50.17	226.10	4.69	-45.2	-57.6	3.8	1.49e+00	0	59	104	1892679680	61	15486
2026-01-21 00:45:54.21	225.93	4.42	-45.2	-57.6	3.8	1.49e+00	0	59	104	1892679680	61	15483
2026-01-21 00:45:58.26	225.77	4.14	-45.2	-57.6	3.8	1.49e+00	0	59	104	1892679680	61	15501
2026-01-21 00:46:02.30	225.60	3.88	-45.2	-57.5	3.8	1.49e+00	0	59	104	1892679680	61	15385
2026-01-21 00:46:06.34	225.44	3.61	-45.2	-57.6	3.8	1.49e+00	0	59	104	1892679680	61	15489
2026-01-21 00:46:10.38	225.28	3.35	-45.2	-57.6	3.8	1.49e+00	0	59	104	1892679680	61	15438
2026-01-21 00:46:14.42	225.13	3.08	-45.2	-57.6	3.8	1.49e+00	0	59	104	1892679680	61	15409
2026-01-21 00:46:18.46	224.98	2.82	-45.2	-57.6	3.8	1.49e+00	0	59	104	1892679680	61	15485
2026-01-21 00:46:22.50	224.83	2.57	-45.2	-57.6	3.8	1.49e+00	0	59	104	1892679680	61	15413
2026-01-21 00:46:26.55	224.68	2.31	-45.2	-57.6	3.8	1.49e+00	0	59	104	1892679680	61	15424
2026-01-21 00:46:30.59	224.54	2.06	-45.2	-57.5	3.8	1.49e+00	0	59	104	1892679680	61	15386

#Closed at: 2026-01-21 00:46:31
#Recorded file [1892 MB]: D:/lorett/data/31039_260121_033322.dat