passes_logs/2025/01/10/XPeterburg/XPeterburg__20250110_114050_FENGYUN_3D_rec.log

#Pass ID: 20250110_114050_FENGYUN 3D
#Satellite: FENGYUN 3D
#Configuration: FENGYUN 3D
#Start time: 2025-01-10 11:40:44

#Version: 1.5.20200625
#Station: XPeterburg
#Location: 30.318091 lon 59.932769 lat
#TLE: 1 43010U 17072A   24362.16670685  .00000332  00000+0  17913-3 0  9992
#TLE: 2 43010  98.9391 318.2242 0002184 121.2776 238.8614 14.19528556368793

#Time	Az	El	Level	Level2	SNR	BER	Gain	Gain2
2025-01-10 11:40:44.93	148.38	67.60	-36.9	-38.4	3.4	8382511	92	2906
2025-01-10 11:40:45.33	148.29	67.78	-36.9	-47.9	3.9	8032035	73	8721
2025-01-10 11:40:45.73	148.19	67.96	-36.7	-38.8	3.6	8355846	90	3133
2025-01-10 11:40:46.14	148.10	68.14	-36.8	-40.6	3.7	8394435	90	3793
2025-01-10 11:40:46.54	148.00	68.32	-36.9	-39.6	3.5	8407527	90	3346
2025-01-10 11:40:46.94	147.90	68.50	-37.3	-41.5	3.6	8417163	91	3973
2025-01-10 11:40:47.34	147.79	68.68	-37.4	-39.8	3.3	8425907	92	3272
2025-01-10 11:40:47.74	147.69	68.86	-37.3	-41.3	3.6	8400398	92	3871
2025-01-10 11:40:48.14	147.59	69.04	-37.1	-39.0	3.5	8416912	92	3072
2025-01-10 11:40:48.55	147.47	69.23	-36.8	-39.5	3.7	8378070	92	3346
2025-01-10 11:40:48.95	147.36	69.41	-36.6	-37.9	3.9	8334091	91	2872
2025-01-10 11:40:49.35	147.25	69.59	-36.3	-36.9	4.1	8269523	91	2649
2025-01-10 11:40:49.75	147.14	69.77	-35.8	-36.2	4.3	8181793	90	2567
2025-01-10 11:40:50.15	147.02	69.96	-35.8	-36.1	4.4	8053962	90	2545
2025-01-10 11:40:50.56	146.90	70.14	-35.9	-37.0	4.3	8022777	89	2773
2025-01-10 11:40:50.96	146.78	70.33	-36.1	-37.4	4.1	8090515	89	2875
2025-01-10 11:40:51.36	146.65	70.51	-36.3	-38.1	3.9	8224925	89	3030
2025-01-10 11:40:51.76	146.53	70.69	-36.6	-39.9	3.7	8302391	90	3600
2025-01-10 11:40:52.17	146.40	70.88	-36.8	-39.5	3.6	8400718	90	3369
2025-01-10 11:40:52.57	146.26	71.07	-36.8	-40.6	3.7	8374248	90	3816
2025-01-10 11:40:52.97	146.13	71.25	-36.8	-39.8	3.6	8433219	90	3457
2025-01-10 11:40:53.37	145.99	71.43	-36.8	-39.2	3.6	8371238	90	3238
2025-01-10 11:40:53.77	145.85	71.62	-36.8	-39.9	3.7	8417083	90	3508
2025-01-10 11:40:54.18	145.71	71.81	-36.7	-38.9	3.6	8393760	90	3154
2025-01-10 11:40:54.58	145.56	71.99	-36.7	-39.7	3.8	8410137	90	3459
2025-01-10 11:40:54.98	145.41	72.18	-36.7	-38.8	3.7	8376113	90	3131
2025-01-10 11:40:55.38	145.26	72.36	-36.7	-39.7	3.8	8418285	90	3458
2025-01-10 11:40:55.78	145.10	72.55	-36.7	-38.7	3.7	8378173	90	3090
2025-01-10 11:40:56.18	144.94	72.73	-36.8	-40.3	3.7	8372097	90	3671
2025-01-10 11:40:56.59	144.77	72.92	-36.8	-39.1	3.6	8391563	90	3191
2025-01-10 11:40:56.99	144.60	73.11	-36.9	-40.5	3.6	8373687	90	3744
2025-01-10 11:40:57.39	144.43	73.30	-36.8	-39.0	3.5	8379203	90	3164
2025-01-10 11:40:57.79	144.26	73.48	-36.8	-40.3	3.6	8380313	90	3698
2025-01-10 11:40:58.19	144.08	73.67	-36.7	-38.7	3.6	8410205	90	3099
2025-01-10 11:40:58.60	143.89	73.86	-36.7	-39.9	3.7	8375083	90	3555
2025-01-10 11:40:59.00	143.70	74.05	-36.6	-38.7	3.8	8410617	90	3113
2025-01-10 11:40:59.40	143.50	74.23	-36.6	-39.8	3.7	8353031	90	3559
2025-01-10 11:40:59.80	143.31	74.42	-36.6	-38.6	3.8	8386230	90	3093
2025-01-10 11:41:00.21	143.10	74.61	-36.5	-38.2	3.8	8322383	90	2970
2025-01-10 11:41:00.61	142.89	74.80	-36.6	-38.2	3.8	8309886	90	2966
2025-01-10 11:41:01.01	142.67	74.99	-36.6	-38.2	3.8	8321571	90	2953
2025-01-10 11:41:01.41	142.45	75.17	-36.6	-38.2	3.8	8323791	90	2975
2025-01-10 11:41:01.81	142.23	75.36	-36.5	-38.2	3.8	8319030	90	2979
2025-01-10 11:41:02.21	141.99	75.55	-36.6	-39.1	3.9	8402561	90	3287
2025-01-10 11:41:02.62	141.75	75.74	-36.6	-38.5	3.8	8361179	90	3047
2025-01-10 11:41:03.02	141.50	75.93	-36.6	-40.0	3.7	8385005	90	3622
2025-01-10 11:41:03.42	141.25	76.12	-36.6	-38.7	3.8	8378311	90	3110
2025-01-10 11:41:03.82	140.99	76.30	-36.6	-38.5	3.8	8341678	90	3061
2025-01-10 11:41:04.23	140.72	76.50	-36.6	-38.3	3.8	8334068	90	3017
2025-01-10 11:41:04.63	140.44	76.68	-36.5	-38.0	3.9	8314167	90	2927
2025-01-10 11:41:05.03	140.16	76.87	-36.3	-37.4	4.0	8271160	90	2795
2025-01-10 11:41:05.43	139.87	77.06	-36.1	-36.9	4.1	8222110	90	2688
2025-01-10 11:41:05.83	139.57	77.24	-36.1	-36.9	4.2	8155517	90	2675
2025-01-10 11:41:06.24	139.25	77.44	-36.1	-36.8	4.2	8149005	90	2665
2025-01-10 11:41:06.64	138.93	77.62	-36.1	-36.8	4.2	8151706	90	2667
2025-01-10 11:41:07.04	138.60	77.81	-36.2	-37.0	4.2	8154041	90	2705
2025-01-10 11:41:07.44	138.26	77.99	-36.2	-37.1	4.1	8198741	90	2724
2025-01-10 11:41:07.84	137.91	78.18	-36.2	-37.2	4.0	8227478	90	2751
2025-01-10 11:41:08.24	137.55	78.37	-36.3	-37.2	4.0	8255493	90	2734
2025-01-10 11:41:08.65	137.16	78.56	-36.3	-37.3	3.9	8252655	90	2741
2025-01-10 11:41:09.05	136.78	78.74	-36.2	-37.1	4.0	8255561	90	2708
2025-01-10 11:41:09.45	136.37	78.93	-36.3	-37.1	3.9	8261936	90	2707
2025-01-10 11:41:09.85	135.96	79.11	-36.1	-36.7	4.1	8237926	90	2630
2025-01-10 11:41:10.25	135.53	79.30	-36.1	-36.7	4.0	8268093	90	2630
2025-01-10 11:41:10.66	135.07	79.48	-36.1	-36.6	4.0	8246704	90	2603
2025-01-10 11:41:11.06	134.61	79.67	-36.1	-36.4	4.1	8224330	90	2570
2025-01-10 11:41:11.46	134.13	79.85	-35.9	-36.0	4.2	8158069	90	2490
2025-01-10 11:41:11.86	133.64	80.03	-35.9	-36.3	4.4	8099384	89	2589
2025-01-10 11:41:12.26	133.12	80.21	-35.9	-36.4	4.4	7996192	89	2613
2025-01-10 11:41:12.67	132.57	80.40	-35.8	-36.2	4.5	7957248	89	2564
2025-01-10 11:41:13.07	132.02	80.58	-35.9	-36.6	4.4	7949478	89	2661
2025-01-10 11:41:13.47	131.44	80.76	-35.9	-36.7	4.4	8001045	89	2684
2025-01-10 11:41:13.87	130.84	80.94	-36.0	-37.0	4.3	8010131	89	2741
2025-01-10 11:41:14.28	130.20	81.12	-36.2	-37.3	4.2	8048091	89	2813
2025-01-10 11:41:14.68	129.54	81.30	-36.2	-37.6	4.2	8146968	89	2884
2025-01-10 11:41:15.08	128.86	81.47	-36.2	-37.6	4.2	8135101	89	2882
2025-01-10 11:41:15.48	128.15	81.65	-36.3	-37.7	4.2	8138580	89	2915
2025-01-10 11:41:15.88	127.41	81.82	-36.4	-38.3	4.0	8152427	89	3039
2025-01-10 11:41:16.28	126.64	81.99	-36.6	-38.5	3.8	8222465	90	3047
2025-01-10 11:41:16.68	125.84	82.16	-36.7	-40.1	3.7	8371398	90	3659
2025-01-10 11:41:17.09	124.97	82.34	-37.2	-39.6	3.6	8388107	91	3233
2025-01-10 11:41:17.49	124.09	82.50	-37.3	-39.6	3.6	8361534	91	3210
2025-01-10 11:41:17.89	123.17	82.67	-37.1	-39.2	3.7	8361225	91	3123
2025-01-10 11:41:18.29	122.20	82.83	-37.0	-39.4	3.9	8392604	91	3253
2025-01-10 11:41:18.69	121.19	83.00	-37.0	-38.8	3.7	8339870	91	3034
2025-01-10 11:41:19.10	120.11	83.16	-37.1	-39.2	3.6	8347560	91	3116
2025-01-10 11:41:19.50	119.00	83.32	-37.2	-40.8	3.7	8347446	91	3731
2025-01-10 11:41:19.90	117.83	83.47	-37.4	-40.3	3.5	8418136	91	3440
2025-01-10 11:41:20.30	116.61	83.62	-37.5	-41.5	3.6	8394184	92	3910
2025-01-10 11:41:20.70	115.33	83.77	-37.6	-40.7	3.4	8430633	92	3532
2025-01-10 11:41:21.11	113.96	83.92	-37.5	-41.5	3.6	8394126	92	3896
2025-01-10 11:41:21.51	112.55	84.06	-37.5	-40.4	3.4	8426490	92	3457
2025-01-10 11:41:21.91	111.07	84.20	-37.5	-40.0	3.3	8399047	92	3296
2025-01-10 11:41:22.31	109.52	84.34	-37.4	-40.4	3.6	8429454	92	3455
2025-01-10 11:41:22.71	107.89	84.47	-37.5	-39.8	3.4	8408283	92	3237
2025-01-10 11:41:23.12	106.14	84.60	-37.6	-41.2	3.6	8439651	92	3730
2025-01-10 11:41:23.52	104.36	84.72	-37.6	-40.5	3.3	8405902	92	3430
2025-01-10 11:41:23.92	102.49	84.83	-37.8	-42.3	3.6	8389686	92	4156
2025-01-10 11:41:24.32	100.54	84.94	-37.8	-41.2	3.3	8411006	92	3656
2025-01-10 11:41:24.72	98.51	85.05	-37.8	-42.8	3.6	8401176	92	4374
2025-01-10 11:41:25.12	96.39	85.14	-37.8	-41.4	3.3	8405376	92	3709
2025-01-10 11:41:25.53	94.12	85.24	-37.8	-42.8	3.6	8395980	92	4363
2025-01-10 11:41:25.93	91.84	85.32	-37.8	-41.4	3.3	8444366	92	3694
2025-01-10 11:41:26.33	89.47	85.40	-37.8	-42.8	3.6	8401725	92	4342
2025-01-10 11:41:26.73	87.03	85.46	-37.9	-41.7	3.3	8437637	92	3799
2025-01-10 11:41:27.13	84.52	85.52	-37.9	-43.1	3.6	8415607	92	4489
2025-01-10 11:41:27.53	81.94	85.57	-37.9	-41.8	3.4	8435794	92	3842
2025-01-10 11:41:27.94	79.25	85.61	-37.9	-42.8	3.6	8404209	92	4356
2025-01-10 11:41:28.34	76.58	85.64	-37.8	-41.5	3.4	8441516	92	3771
2025-01-10 11:41:28.74	73.88	85.67	-37.7	-42.4	3.6	8408649	92	4224
2025-01-10 11:41:29.14	71.15	85.68	-37.7	-41.3	3.4	8430679	92	3721
2025-01-10 11:41:29.54	68.42	85.68	-37.7	-40.7	3.4	8405307	92	3476
2025-01-10 11:41:29.95	65.62	85.67	-37.6	-41.3	3.5	8424625	92	3731
2025-01-10 11:41:30.35	62.91	85.65	-37.7	-40.8	3.4	8392513	92	3503
2025-01-10 11:41:30.75	60.23	85.63	-37.5	-41.0	3.6	8417713	92	3683
2025-01-10 11:41:31.15	57.58	85.59	-37.6	-40.4	3.4	8411109	92	3380
2025-01-10 11:41:31.55	54.98	85.54	-37.6	-41.3	3.7	8421112	92	3777
2025-01-10 11:41:31.96	52.38	85.49	-37.6	-40.0	3.5	8416191	92	3274
2025-01-10 11:41:32.36	49.91	85.42	-37.5	-41.4	3.6	8408535	92	3827
2025-01-10 11:41:32.76	47.51	85.35	-37.4	-39.5	3.5	8405651	92	3146
2025-01-10 11:41:33.16	45.19	85.27	-37.2	-40.3	3.7	8367324	92	3489
2025-01-10 11:41:33.56	42.95	85.19	-37.0	-38.2	3.9	8331962	92	2835
2025-01-10 11:41:33.97	40.74	85.09	-36.9	-37.7	3.9	8305515	92	2716
2025-01-10 11:41:34.37	38.67	84.99	-36.8	-37.9	4.1	8289230	91	2804
2025-01-10 11:41:34.77	36.69	84.88	-36.8	-38.1	4.1	8207187	91	2847
2025-01-10 11:41:35.17	34.79	84.77	-36.9	-38.2	4.0	8237548	91	2865
2025-01-10 11:41:35.58	32.92	84.65	-36.9	-38.4	3.9	8269866	91	2909
2025-01-10 11:41:35.98	31.19	84.52	-36.9	-38.4	3.9	8288223	91	2919
2025-01-10 11:41:36.38	29.53	84.39	-36.8	-38.1	4.0	8296394	91	2857
2025-01-10 11:41:36.78	27.95	84.26	-36.6	-37.5	4.2	8218688	91	2717
2025-01-10 11:41:37.18	26.44	84.12	-36.5	-37.2	4.3	8109203	91	2656
2025-01-10 11:41:37.59	24.97	83.98	-36.3	-36.5	4.5	7895095	91	2521
2025-01-10 11:41:37.99	23.60	83.83	-36.4	-36.9	4.4	7859138	91	2585
2025-01-10 11:41:38.39	22.30	83.69	-36.0	-36.4	4.6	7903999	90	2571
2025-01-10 11:41:38.79	21.05	83.54	-36.1	-36.7	4.5	7858268	90	2632
2025-01-10 11:41:39.19	19.87	83.38	-36.0	-36.3	4.7	7768009	90	2568
2025-01-10 11:41:39.60	18.71	83.22	-35.9	-36.1	4.7	7710227	90	2519
2025-01-10 11:41:40.00	17.63	83.06	-35.8	-36.4	4.8	7604358	89	2631
2025-01-10 11:41:40.40	16.60	82.90	-35.7	-36.1	5.0	7540534	89	2559
2025-01-10 11:41:40.80	15.61	82.74	-35.7	-35.8	5.0	7328475	89	2504
2025-01-10 11:41:41.20	14.68	82.57	-35.6	-35.5	5.1	7384952	89	2452
2025-01-10 11:41:41.61	13.76	82.40	-35.4	-35.2	5.3	7159835	89	2399
2025-01-10 11:41:42.01	12.90	82.23	-35.3	-34.9	5.5	6215103	89	2357
2025-01-10 11:41:42.41	12.08	82.06	-35.1	-35.2	5.6	4980800	88	2477
2025-01-10 11:41:42.81	11.29	81.89	-35.0	-34.9	5.8	4549037	88	2429
2025-01-10 11:41:43.22	10.52	81.72	-35.1	-35.0	5.9	3777935	88	2438
2025-01-10 11:41:43.62	9.80	81.54	-35.0	-34.7	6.0	3313945	88	2384
2025-01-10 11:41:44.02	9.11	81.37	-34.9	-34.5	6.1	3232955	88	2353
2025-01-10 11:41:44.42	8.45	81.19	-35.0	-34.8	5.9	3410797	88	2393
2025-01-10 11:41:44.83	7.79	81.01	-35.2	-35.2	5.7	3607944	88	2467
2025-01-10 11:41:45.23	7.18	80.83	-35.2	-35.1	5.7	3854930	88	2440
2025-01-10 11:41:45.63	6.60	80.65	-35.1	-35.0	5.9	3850364	88	2427
2025-01-10 11:41:46.03	6.03	80.47	-35.1	-35.0	5.8	3545082	88	2437
2025-01-10 11:41:46.44	5.47	80.29	-35.1	-34.9	5.9	3594188	88	2407
2025-01-10 11:41:46.84	4.95	80.11	-35.0	-34.8	5.9	3592849	88	2390
2025-01-10 11:41:47.24	4.45	79.92	-35.1	-34.9	5.8	3637710	88	2405
2025-01-10 11:41:47.64	3.96	79.74	-35.0	-34.8	5.6	3815391	88	2383
2025-01-10 11:41:48.05	3.48	79.55	-34.9	-34.3	5.8	3864189	88	2310
2025-01-10 11:41:48.45	3.03	79.37	-34.8	-34.2	5.8	3802848	88	2290
2025-01-10 11:41:48.85	2.60	79.19	-34.8	-34.6	5.9	3706970	87	2419
2025-01-10 11:41:49.25	2.18	79.00	-34.7	-34.6	6.0	3198017	87	2413
2025-01-10 11:41:49.65	1.77	78.82	-34.7	-34.4	6.0	3217128	87	2385
2025-01-10 11:41:50.06	1.37	78.63	-34.6	-34.3	6.2	3169555	87	2380
2025-01-10 11:41:50.46	0.99	78.44	-34.7	-34.5	6.1	3050537	87	2414
2025-01-10 11:41:50.86	0.62	78.26	-35.0	-35.1	5.8	3317813	87	2510
2025-01-10 11:41:51.26	0.27	78.07	-35.1	-35.6	5.7	3727077	87	2593
2025-01-10 11:41:51.67	359.91	77.88	-35.2	-35.9	5.5	4328796	87	2668
2025-01-10 11:41:52.07	359.58	77.70	-35.4	-36.3	5.3	5287273	87	2727
2025-01-10 11:41:52.47	359.26	77.51	-35.4	-36.3	5.3	6395370	87	2738
2025-01-10 11:41:52.87	358.95	77.32	-35.4	-36.4	5.3	6401149	87	2754
2025-01-10 11:41:53.28	358.63	77.13	-35.4	-36.3	5.4	6522285	87	2731
2025-01-10 11:41:53.68	358.34	76.94	-35.7	-36.5	5.1	7081375	88	2713
2025-01-10 11:41:54.08	358.05	76.76	-35.9	-37.0	5.0	7250381	88	2821
2025-01-10 11:41:54.49	357.77	76.57	-35.9	-37.2	4.9	7393283	88	2855
2025-01-10 11:41:54.89	357.50	76.38	-36.0	-37.3	4.8	7466812	88	2874
2025-01-10 11:41:55.29	357.24	76.19	-35.9	-37.1	4.8	7579650	88	2838
2025-01-10 11:41:55.69	356.98	76.01	-35.9	-37.0	4.8	7519855	88	2814
2025-01-10 11:41:56.09	356.73	75.82	-35.9	-37.0	4.9	7541336	88	2794
2025-01-10 11:41:56.50	356.49	75.63	-35.8	-36.9	4.8	7525337	88	2776
2025-01-10 11:41:56.90	356.25	75.44	-35.8	-36.7	4.9	7519500	88	2717
2025-01-10 11:41:57.30	356.02	75.25	-35.7	-36.3	5.0	7397861	88	2652
2025-01-10 11:41:57.70	355.80	75.07	-35.9	-36.9	4.9	7414833	88	2756
2025-01-10 11:41:58.11	355.58	74.87	-35.9	-36.9	4.8	7421298	88	2743
2025-01-10 11:41:58.51	355.37	74.69	-36.2	-36.9	4.6	7546073	89	2681
2025-01-10 11:41:58.91	355.16	74.50	-36.4	-37.6	4.4	7785312	89	2831
2025-01-10 11:41:59.31	354.96	74.31	-36.5	-37.5	4.2	8079895	90	2753
2025-01-10 11:41:59.72	354.76	74.12	-36.7	-37.9	4.1	8139976	90	2830
2025-01-10 11:42:00.12	354.57	73.94	-36.7	-37.8	4.1	8193386	90	2815
2025-01-10 11:42:00.52	354.39	73.75	-36.5	-37.6	4.1	8223438	90	2776
2025-01-10 11:42:00.92	354.20	73.56	-36.4	-37.2	4.2	8110919	90	2699
2025-01-10 11:42:01.32	354.03	73.38	-36.4	-37.3	4.4	8053859	90	2714
2025-01-10 11:42:01.73	353.85	73.19	-36.3	-37.0	4.4	8028980	90	2647
2025-01-10 11:42:02.13	353.68	73.00	-36.5	-37.6	4.3	8083534	90	2801
2025-01-10 11:42:02.53	353.52	72.82	-36.7	-38.2	4.0	8125030	90	2923
2025-01-10 11:42:02.93	353.35	72.63	-36.9	-38.6	3.9	8296977	90	3014
2025-01-10 11:42:03.34	353.19	72.44	-37.1	-40.0	3.8	8313846	91	3435
2025-01-10 11:42:03.74	353.04	72.26	-37.2	-39.2	3.9	8383483	91	3104
2025-01-10 11:42:04.14	352.89	72.07	-37.1	-38.7	3.9	8324478	91	2941
2025-01-10 11:42:04.55	352.74	71.88	-37.1	-38.8	3.9	8300903	91	2985
2025-01-10 11:42:04.95	352.59	71.70	-37.1	-38.7	3.9	8289138	91	2939
2025-01-10 11:42:05.35	352.45	71.51	-36.9	-38.2	4.1	8244220	91	2862
2025-01-10 11:42:05.75	352.31	71.33	-37.0	-38.1	4.0	8256546	91	2818
2025-01-10 11:42:06.15	352.18	71.14	-37.0	-38.5	3.9	8304027	91	2919
2025-01-10 11:42:06.56	352.04	70.96	-37.2	-40.4	3.7	8330245	91	3547
2025-01-10 11:42:06.96	351.91	70.77	-37.4	-39.8	3.6	8380462	91	3237
2025-01-10 11:42:07.36	351.78	70.59	-38.2	-42.8	3.6	8347206	93	4165
2025-01-10 11:42:07.76	351.66	70.41	-38.4	-43.0	3.4	8455158	93	4166
2025-01-10 11:42:08.16	351.54	70.22	-38.5	-43.4	3.6	8394824	94	4367

#Closed at: 2025-01-10 11:42:08