passes_logs/2025/01/10/XPeterburg/XPeterburg__20250110_014807_FENGYUN_3D_rec.log

#Pass ID: 20250110_014807_FENGYUN 3D
#Satellite: FENGYUN 3D
#Configuration: FENGYUN 3D
#Start time: 2025-01-10 01:48:00

#Version: 1.5.20200625
#Station: XPeterburg
#Location: 30.318091 lon 59.932769 lat
#TLE: 1 43010U 17072A   24362.16670685  .00000332  00000+0  17913-3 0  9992
#TLE: 2 43010  98.9391 318.2242 0002184 121.2776 238.8614 14.19528556368793

#Time	Az	El	Level	Level2	SNR	BER	Gain	Gain2
2025-01-10 01:48:00.15	24.89	66.84	-35.4	-39.4	3.3	8385875	87	3909
2025-01-10 01:48:00.55	24.94	67.02	-35.6	-47.3	3.5	7936225	73	9447
2025-01-10 01:48:00.95	24.99	67.20	-35.4	-39.4	3.3	8390087	87	3905
2025-01-10 01:48:01.35	25.04	67.38	-35.3	-40.6	3.6	8427303	87	4518
2025-01-10 01:48:01.75	25.09	67.56	-35.4	-39.4	3.3	8422519	87	3917
2025-01-10 01:48:02.15	25.15	67.74	-35.4	-40.9	3.6	8434684	87	4664
2025-01-10 01:48:02.56	25.20	67.92	-35.3	-39.3	3.3	8416603	87	3885
2025-01-10 01:48:02.96	25.26	68.10	-35.4	-40.8	3.6	8386024	87	4622
2025-01-10 01:48:03.36	25.32	68.28	-35.4	-39.5	3.3	8424716	87	3954
2025-01-10 01:48:03.76	25.37	68.47	-35.3	-40.9	3.6	8387935	87	4642
2025-01-10 01:48:04.16	25.43	68.65	-35.3	-39.5	3.3	8417736	87	3982
2025-01-10 01:48:04.57	25.49	68.83	-35.4	-40.8	3.6	8387477	87	4606
2025-01-10 01:48:04.97	25.55	69.02	-35.3	-39.7	3.4	8442752	87	4076
2025-01-10 01:48:05.37	25.61	69.20	-35.3	-40.9	3.6	8390956	87	4658
2025-01-10 01:48:05.77	25.68	69.38	-35.3	-39.9	3.4	8441516	87	4153
2025-01-10 01:48:06.17	25.74	69.57	-35.4	-39.4	3.3	8412597	87	3907
2025-01-10 01:48:06.57	25.81	69.75	-35.4	-40.1	3.5	8445053	87	4267
2025-01-10 01:48:06.98	25.87	69.94	-35.3	-39.3	3.3	8412036	87	3890
2025-01-10 01:48:07.38	25.94	70.13	-35.4	-40.3	3.5	8400180	87	4369
2025-01-10 01:48:07.78	26.01	70.31	-35.4	-39.4	3.3	8405731	87	3930
2025-01-10 01:48:08.18	26.08	70.50	-35.3	-40.6	3.6	8408489	87	4486
2025-01-10 01:48:08.58	26.15	70.68	-35.3	-39.3	3.3	8398189	87	3905
2025-01-10 01:48:08.98	26.23	70.87	-35.3	-40.7	3.6	8417118	87	4590
2025-01-10 01:48:09.38	26.30	71.06	-35.4	-39.4	3.3	8442283	87	3908
2025-01-10 01:48:09.79	26.38	71.25	-35.4	-40.9	3.6	8412036	87	4641
2025-01-10 01:48:10.19	26.46	71.43	-35.3	-39.5	3.3	8435817	87	3967
2025-01-10 01:48:10.59	26.54	71.62	-35.4	-40.8	3.6	8405284	87	4586
2025-01-10 01:48:10.99	26.62	71.81	-35.4	-39.6	3.4	8432579	87	4002
2025-01-10 01:48:11.39	26.70	72.00	-35.4	-40.9	3.6	8404037	87	4631
2025-01-10 01:48:11.80	26.79	72.19	-35.4	-39.6	3.4	8423755	87	4026
2025-01-10 01:48:12.20	26.87	72.38	-35.4	-40.8	3.6	8396827	87	4626
2025-01-10 01:48:12.60	26.96	72.57	-35.4	-39.7	3.4	8428882	87	4070
2025-01-10 01:48:13.00	27.05	72.76	-35.4	-40.9	3.6	8381755	87	4640
2025-01-10 01:48:13.40	27.15	72.95	-35.4	-40.0	3.4	8430908	87	4189
2025-01-10 01:48:13.81	27.24	73.14	-35.4	-39.4	3.3	8381698	87	3909
2025-01-10 01:48:14.21	27.34	73.33	-35.4	-40.1	3.5	8433059	87	4240
2025-01-10 01:48:14.61	27.44	73.52	-35.4	-39.5	3.3	8427040	87	3945
2025-01-10 01:48:15.01	27.54	73.71	-35.4	-40.4	3.5	8447113	87	4390
2025-01-10 01:48:15.41	27.65	73.90	-35.4	-39.5	3.3	8418605	87	3938
2025-01-10 01:48:15.81	27.76	74.09	-35.4	-40.7	3.6	8445133	87	4557
2025-01-10 01:48:16.22	27.87	74.29	-35.4	-39.4	3.3	8411315	87	3933
2025-01-10 01:48:16.62	27.98	74.48	-35.4	-40.9	3.6	8391323	87	4655
2025-01-10 01:48:17.02	28.10	74.67	-35.4	-39.4	3.3	8422370	87	3909
2025-01-10 01:48:17.42	28.21	74.86	-35.4	-40.8	3.6	8394287	87	4623
2025-01-10 01:48:17.82	28.34	75.06	-35.3	-39.4	3.3	8447296	87	3942
2025-01-10 01:48:18.22	28.46	75.25	-35.4	-40.8	3.6	8406990	87	4614
2025-01-10 01:48:18.63	28.59	75.45	-35.3	-39.6	3.3	8440635	87	3993
2025-01-10 01:48:19.03	28.73	75.64	-35.4	-40.8	3.6	8402503	87	4611
2025-01-10 01:48:19.43	28.86	75.83	-35.4	-39.7	3.4	8448921	87	4074
2025-01-10 01:48:19.83	29.00	76.03	-35.4	-40.8	3.6	8409553	87	4619
2025-01-10 01:48:20.23	29.14	76.22	-35.4	-39.9	3.4	8433322	87	4156
2025-01-10 01:48:20.64	29.30	76.42	-35.4	-39.5	3.3	8394905	87	3940
2025-01-10 01:48:21.04	29.45	76.61	-35.3	-40.1	3.5	8406967	87	4264
2025-01-10 01:48:21.44	29.60	76.81	-35.4	-39.4	3.3	8396278	87	3925
2025-01-10 01:48:21.84	29.77	77.00	-35.4	-40.4	3.5	8425552	87	4395
2025-01-10 01:48:22.24	29.93	77.19	-35.4	-39.5	3.3	8434215	87	3933
2025-01-10 01:48:22.64	30.10	77.39	-35.4	-40.7	3.6	8433071	87	4558
2025-01-10 01:48:23.05	30.29	77.59	-35.4	-39.4	3.3	8428779	87	3913
2025-01-10 01:48:23.45	30.47	77.78	-35.4	-40.7	3.6	8419223	87	4552
2025-01-10 01:48:23.85	30.66	77.98	-35.4	-39.4	3.3	8409038	87	3912
2025-01-10 01:48:24.25	30.85	78.17	-35.4	-40.8	3.6	8430416	87	4599
2025-01-10 01:48:24.65	31.06	78.37	-35.4	-39.4	3.3	8422428	87	3918
2025-01-10 01:48:25.06	31.27	78.57	-35.4	-40.8	3.6	8398258	87	4611
2025-01-10 01:48:25.46	31.49	78.76	-35.4	-39.5	3.3	8434478	87	3975
2025-01-10 01:48:25.86	31.71	78.96	-35.4	-40.8	3.6	8392353	87	4595
2025-01-10 01:48:26.26	31.95	79.15	-35.4	-39.6	3.4	8449367	87	4018
2025-01-10 01:48:26.66	32.19	79.35	-35.4	-40.8	3.6	8397811	87	4605
2025-01-10 01:48:27.06	32.44	79.54	-35.4	-39.7	3.4	8441768	87	4052
2025-01-10 01:48:27.47	32.70	79.74	-35.4	-40.8	3.6	8410903	87	4586
2025-01-10 01:48:27.87	32.98	79.94	-35.4	-39.9	3.4	8444686	87	4160
2025-01-10 01:48:28.27	33.26	80.13	-35.4	-39.4	3.3	8422714	87	3910
2025-01-10 01:48:28.67	33.55	80.33	-35.4	-40.2	3.5	8448818	87	4275
2025-01-10 01:48:29.07	33.86	80.52	-35.4	-39.4	3.3	8399036	87	3905
2025-01-10 01:48:29.47	34.17	80.72	-35.3	-39.8	3.5	8403041	88	4112
2025-01-10 01:48:29.88	34.51	80.92	-35.3	-38.7	3.3	8406097	88	3648
2025-01-10 01:48:30.28	34.86	81.11	-35.3	-40.2	3.6	8365505	88	4324
2025-01-10 01:48:30.68	35.22	81.31	-35.3	-38.9	3.3	8437683	88	3705
2025-01-10 01:48:31.08	35.60	81.50	-35.3	-40.3	3.6	8403831	88	4359
2025-01-10 01:48:31.48	36.00	81.70	-35.3	-38.9	3.3	8440155	88	3698
2025-01-10 01:48:31.88	36.42	81.89	-35.3	-40.2	3.6	8410835	88	4326
2025-01-10 01:48:32.29	36.87	82.09	-35.4	-38.8	3.4	8392776	89	3627
2025-01-10 01:48:32.69	37.33	82.28	-35.4	-39.8	3.7	8413124	89	4097
2025-01-10 01:48:33.09	37.81	82.48	-35.4	-39.0	3.4	8436481	89	3711
2025-01-10 01:48:33.49	38.32	82.67	-35.4	-38.5	3.3	8402160	89	3503
2025-01-10 01:48:33.90	38.87	82.87	-35.5	-39.8	3.5	8389961	89	4039
2025-01-10 01:48:34.30	39.44	83.06	-35.5	-38.7	3.3	8392810	89	3554
2025-01-10 01:48:34.70	40.04	83.25	-35.3	-39.9	3.5	8351726	88	4147
2025-01-10 01:48:35.10	40.68	83.44	-35.3	-38.8	3.3	8413856	88	3676
2025-01-10 01:48:35.50	41.35	83.63	-35.3	-40.0	3.6	8406200	88	4232
2025-01-10 01:48:35.91	42.08	83.82	-35.3	-38.8	3.3	8404048	88	3682
2025-01-10 01:48:36.31	42.84	84.01	-35.3	-40.3	3.6	8413490	88	4353
2025-01-10 01:48:36.71	43.66	84.20	-35.3	-38.8	3.3	8433059	88	3658
2025-01-10 01:48:37.11	44.52	84.38	-35.3	-40.2	3.6	8417930	88	4317
2025-01-10 01:48:37.51	45.44	84.57	-35.3	-38.8	3.3	8442832	88	3691
2025-01-10 01:48:37.91	46.43	84.75	-35.3	-40.3	3.6	8416511	88	4351
2025-01-10 01:48:38.32	47.52	84.94	-35.3	-39.0	3.4	8440486	88	3755
2025-01-10 01:48:38.72	48.66	85.12	-35.3	-40.2	3.6	8403179	88	4331
2025-01-10 01:48:39.12	49.89	85.30	-35.3	-39.1	3.4	8425323	88	3808
2025-01-10 01:48:39.52	51.22	85.47	-35.3	-40.2	3.6	8399036	88	4336
2025-01-10 01:48:39.92	52.65	85.64	-35.3	-39.3	3.4	8428997	88	3897
2025-01-10 01:48:40.32	54.20	85.81	-35.3	-38.8	3.3	8390613	88	3669
2025-01-10 01:48:40.73	55.92	85.99	-35.3	-39.5	3.4	8443885	88	3997
2025-01-10 01:48:41.13	57.74	86.15	-35.3	-38.8	3.3	8415435	88	3686
2025-01-10 01:48:41.53	59.73	86.31	-35.3	-39.9	3.5	8427520	88	4161
2025-01-10 01:48:41.93	61.89	86.46	-35.3	-38.9	3.3	8421409	88	3711
2025-01-10 01:48:42.33	64.25	86.61	-35.3	-40.1	3.6	8386962	88	4262
2025-01-10 01:48:42.73	66.82	86.75	-35.3	-38.8	3.3	8411739	88	3675
2025-01-10 01:48:43.14	69.69	86.89	-35.3	-40.3	3.6	8390567	88	4343
2025-01-10 01:48:43.54	72.74	87.02	-35.3	-38.8	3.3	8403362	88	3670
2025-01-10 01:48:43.94	76.06	87.14	-35.3	-40.2	3.6	8406898	88	4312
2025-01-10 01:48:44.34	79.64	87.25	-35.3	-38.9	3.3	8449058	88	3731
2025-01-10 01:48:44.74	83.51	87.34	-35.3	-40.3	3.6	8393508	88	4344
2025-01-10 01:48:45.14	87.64	87.42	-35.3	-39.1	3.4	8439926	88	3799
2025-01-10 01:48:45.55	92.13	87.50	-35.3	-40.3	3.6	8404106	88	4371
2025-01-10 01:48:45.95	96.74	87.55	-35.3	-39.0	3.3	8437957	88	3780
2025-01-10 01:48:46.35	101.53	87.59	-35.3	-40.3	3.6	8400901	88	4349
2025-01-10 01:48:46.75	106.42	87.60	-35.3	-39.2	3.4	8429981	88	3847
2025-01-10 01:48:47.15	111.36	87.61	-35.3	-40.2	3.6	8396106	88	4327
2025-01-10 01:48:47.56	116.39	87.59	-35.3	-39.3	3.4	8415893	88	3909
2025-01-10 01:48:47.96	121.20	87.56	-35.3	-38.8	3.3	8397686	88	3674
2025-01-10 01:48:48.36	125.84	87.51	-35.4	-39.5	3.5	8431663	89	3925
2025-01-10 01:48:48.76	130.27	87.44	-35.5	-38.6	3.3	8405147	89	3545
2025-01-10 01:48:49.17	134.56	87.36	-35.3	-40.2	3.6	8371753	88	4312
2025-01-10 01:48:49.57	138.48	87.26	-35.3	-38.7	3.3	8438358	88	3647
2025-01-10 01:48:49.97	142.12	87.16	-35.3	-40.2	3.6	8421936	88	4320
2025-01-10 01:48:50.37	145.48	87.04	-35.3	-38.8	3.3	8443256	88	3691
2025-01-10 01:48:50.77	148.58	86.92	-35.3	-40.2	3.6	8405605	88	4332
2025-01-10 01:48:51.17	151.43	86.78	-35.3	-39.0	3.4	8438873	88	3748
2025-01-10 01:48:51.58	154.11	86.64	-35.3	-40.2	3.6	8396060	88	4328
2025-01-10 01:48:51.98	156.50	86.49	-35.3	-39.2	3.4	8434272	88	3821
2025-01-10 01:48:52.38	158.70	86.34	-35.3	-40.2	3.6	8401954	88	4310
2025-01-10 01:48:52.78	160.72	86.18	-35.3	-39.3	3.4	8429603	88	3877
2025-01-10 01:48:53.18	162.57	86.02	-35.3	-38.8	3.3	8400707	88	3691
2025-01-10 01:48:53.59	164.32	85.85	-35.3	-39.5	3.5	8425186	88	3973
2025-01-10 01:48:53.99	165.89	85.68	-35.3	-38.7	3.3	8421695	88	3645
2025-01-10 01:48:54.39	167.34	85.50	-35.3	-39.7	3.5	8440074	88	4061
2025-01-10 01:48:54.79	168.69	85.33	-35.3	-38.7	3.3	8412620	88	3629
2025-01-10 01:48:55.19	169.93	85.15	-35.3	-40.0	3.6	8447639	88	4228
2025-01-10 01:48:55.59	171.09	84.97	-35.3	-38.8	3.3	8417243	88	3653
2025-01-10 01:48:56.00	172.19	84.78	-35.3	-40.2	3.6	8403236	88	4337
2025-01-10 01:48:56.40	173.19	84.60	-35.3	-38.9	3.3	8425563	88	3693
2025-01-10 01:48:56.80	174.13	84.42	-35.3	-40.3	3.6	8404094	88	4336
2025-01-10 01:48:57.20	175.01	84.23	-35.3	-38.9	3.3	8404975	88	3696
2025-01-10 01:48:57.60	175.83	84.04	-35.3	-40.3	3.6	8399311	88	4344
2025-01-10 01:48:58.01	176.62	83.85	-35.3	-38.9	3.3	8440521	88	3701
2025-01-10 01:48:58.41	177.34	83.66	-35.3	-40.3	3.6	8395328	88	4364
2025-01-10 01:48:58.81	178.02	83.47	-35.3	-39.0	3.4	8447628	88	3777
2025-01-10 01:48:59.21	178.66	83.28	-35.3	-40.3	3.6	8405250	88	4358
2025-01-10 01:48:59.61	179.27	83.09	-35.3	-39.2	3.4	8436470	88	3832
2025-01-10 01:49:00.02	179.86	82.90	-35.3	-40.3	3.6	8397342	88	4349
2025-01-10 01:49:00.42	180.40	82.70	-35.3	-39.3	3.4	8423664	88	3880
2025-01-10 01:49:00.82	180.91	82.51	-35.3	-38.8	3.3	8406864	88	3683
2025-01-10 01:49:01.22	181.40	82.32	-35.4	-39.1	3.5	8422611	89	3795
2025-01-10 01:49:01.62	181.87	82.12	-35.4	-38.3	3.3	8396621	89	3464
2025-01-10 01:49:02.03	182.32	81.93	-35.3	-39.7	3.6	8351371	89	4060
2025-01-10 01:49:02.43	182.74	81.73	-35.3	-38.3	3.3	8444011	89	3447
2025-01-10 01:49:02.83	183.14	81.54	-35.3	-39.7	3.6	8402870	89	4074
2025-01-10 01:49:03.23	183.52	81.34	-35.3	-38.4	3.3	8440395	89	3485
2025-01-10 01:49:03.63	183.89	81.15	-35.4	-39.8	3.6	8403144	89	4111
2025-01-10 01:49:04.03	184.24	80.95	-35.4	-38.5	3.4	8443210	89	3546
2025-01-10 01:49:04.44	184.58	80.75	-35.4	-39.8	3.6	8396255	89	4108
2025-01-10 01:49:04.84	184.90	80.56	-35.4	-38.7	3.4	8430931	89	3614
2025-01-10 01:49:05.24	185.21	80.36	-35.3	-39.8	3.6	8400272	89	4099
2025-01-10 01:49:05.64	185.51	80.17	-35.3	-38.9	3.4	8416854	89	3687
2025-01-10 01:49:06.04	185.79	79.97	-35.3	-38.4	3.3	8401771	89	3488
2025-01-10 01:49:06.44	186.06	79.77	-35.4	-39.1	3.5	8426250	89	3769
2025-01-10 01:49:06.85	186.33	79.57	-35.4	-38.4	3.3	8408111	89	3476
2025-01-10 01:49:07.25	186.58	79.38	-35.4	-39.1	3.5	8421260	89	3772
2025-01-10 01:49:07.65	186.83	79.18	-35.4	-38.4	3.3	8425552	89	3479
2025-01-10 01:49:08.05	187.06	78.99	-35.4	-39.3	3.5	8429557	89	3885
2025-01-10 01:49:08.45	187.29	78.79	-35.4	-38.4	3.3	8425884	89	3499
2025-01-10 01:49:08.85	187.51	78.60	-35.4	-39.7	3.6	8441356	89	4038
2025-01-10 01:49:09.26	187.72	78.40	-35.4	-38.4	3.3	8420883	89	3487
2025-01-10 01:49:09.66	187.93	78.20	-35.4	-39.9	3.6	8380325	89	4122
2025-01-10 01:49:10.06	188.12	78.01	-35.4	-38.4	3.3	8404003	89	3479
2025-01-10 01:49:10.46	188.31	77.81	-35.4	-39.8	3.6	8401187	89	4096
2025-01-10 01:49:10.86	188.50	77.62	-35.4	-38.5	3.3	8449321	89	3536
2025-01-10 01:49:11.26	188.68	77.42	-35.4	-39.8	3.6	8404357	89	4097
2025-01-10 01:49:11.67	188.85	77.22	-35.4	-38.6	3.4	8438243	89	3564
2025-01-10 01:49:12.07	189.02	77.03	-35.4	-39.9	3.6	8405113	89	4154
2025-01-10 01:49:12.47	189.18	76.83	-35.4	-38.8	3.4	8436973	89	3636
2025-01-10 01:49:12.87	189.34	76.64	-35.4	-39.8	3.6	8411865	89	4105
2025-01-10 01:49:13.28	189.50	76.44	-35.4	-38.9	3.4	8442913	89	3695
2025-01-10 01:49:13.68	189.65	76.25	-35.4	-38.5	3.3	8397766	89	3511
2025-01-10 01:49:14.08	189.79	76.05	-35.4	-39.2	3.5	8397228	89	3810
2025-01-10 01:49:14.48	189.93	75.86	-35.3	-38.4	3.3	8396335	89	3497
2025-01-10 01:49:14.88	190.07	75.66	-35.3	-39.3	3.5	8410079	89	3892
2025-01-10 01:49:15.28	190.20	75.47	-35.4	-38.3	3.3	8394756	89	3461
2025-01-10 01:49:15.69	190.33	75.27	-35.3	-39.6	3.6	8419967	89	4007
2025-01-10 01:49:16.09	190.46	75.08	-35.4	-38.4	3.3	8432819	89	3474
2025-01-10 01:49:16.49	190.58	74.89	-35.3	-39.8	3.6	8421993	89	4095
2025-01-10 01:49:16.89	190.70	74.70	-35.3	-38.3	3.3	8418720	89	3470
2025-01-10 01:49:17.29	190.81	74.50	-35.4	-39.8	3.6	8394115	89	4110
2025-01-10 01:49:17.70	190.93	74.31	-35.2	-38.5	3.3	8386928	88	3582
2025-01-10 01:49:18.10	191.04	74.12	-35.3	-40.3	3.6	8399700	88	4350
2025-01-10 01:49:18.50	191.15	73.92	-35.3	-38.9	3.3	8431949	88	3711
2025-01-10 01:49:18.90	191.25	73.73	-35.3	-40.3	3.6	8392765	88	4345
2025-01-10 01:49:19.30	191.36	73.54	-35.3	-39.1	3.4	8426605	88	3819
2025-01-10 01:49:19.71	191.46	73.35	-35.3	-40.3	3.6	8399883	88	4358
2025-01-10 01:49:20.11	191.56	73.16	-35.3	-39.4	3.4	8431663	88	3912
2025-01-10 01:49:20.51	191.65	72.97	-35.3	-38.9	3.3	8399288	88	3697
2025-01-10 01:49:20.91	191.75	72.78	-35.3	-39.6	3.4	8436767	88	4013
2025-01-10 01:49:21.31	191.84	72.59	-35.3	-38.8	3.3	8413936	88	3663
2025-01-10 01:49:21.71	191.93	72.40	-35.3	-39.7	3.5	8443611	88	4083
2025-01-10 01:49:22.12	192.01	72.20	-35.3	-38.7	3.3	8421947	88	3629
2025-01-10 01:49:22.52	192.10	72.02	-35.3	-40.0	3.6	8387638	88	4241
2025-01-10 01:49:22.92	192.18	71.83	-35.3	-38.8	3.3	8427211	88	3702
2025-01-10 01:49:23.32	192.26	71.64	-35.3	-40.2	3.6	8406726	88	4333
2025-01-10 01:49:23.72	192.34	71.45	-35.3	-38.8	3.3	8412883	88	3666
2025-01-10 01:49:24.12	192.42	71.26	-35.3	-40.2	3.6	8399253	88	4321
2025-01-10 01:49:24.53	192.50	71.07	-35.3	-38.9	3.3	8432029	88	3705
2025-01-10 01:49:24.93	192.58	70.88	-35.3	-40.2	3.6	8402572	88	4319
2025-01-10 01:49:25.33	192.65	70.70	-35.3	-39.0	3.4	8431297	88	3755
2025-01-10 01:49:25.73	192.72	70.51	-35.3	-40.3	3.6	8398315	88	4344
2025-01-10 01:49:26.13	192.79	70.33	-35.3	-39.1	3.4	8438541	88	3816

#Closed at: 2025-01-10 01:49:26