passes_logs/2025/01/15/SPB_Silybum_02/SPB_Silybum_02__20250115_033444_AQUA_rec.log

#Pass ID: 20250115_033444_AQUA
#Satellite: AQUA
#Configuration: AQUA
#Start time: 2025-01-15 03:42:43

#Version: 2.0.20230423
#Station: SPB_Silybum_02
#Location: 30.233357 lon 59.946436 lat
#TLE: 1 27424U 02022A   25014.18320900  .00001655  00000+0  34963-3 0  9994
#TLE: 2 27424  98.3587 330.8398 0001685 112.2764 304.7377 14.60678752207509

#Time	Az	El	Level	Level2	SNR	BER	Gain	Gain2
2025-01-15 03:42:45.95	275.96	7.67	
2025-01-15 03:42:46.16	275.93	7.66	
2025-01-15 03:42:46.36	275.90	7.65	
2025-01-15 03:42:46.56	275.87	7.64	
2025-01-15 03:42:46.76	275.85	7.63	
2025-01-15 03:42:46.97	275.82	7.61	
2025-01-15 03:42:47.17	275.79	7.60	
2025-01-15 03:42:47.37	275.76	7.59	
2025-01-15 03:42:47.58	275.73	7.58	
2025-01-15 03:42:47.78	275.71	7.57	
2025-01-15 03:42:47.98	275.68	7.56	
2025-01-15 03:42:48.19	275.65	7.55	
2025-01-15 03:42:48.39	275.62	7.53	
2025-01-15 03:42:48.59	275.59	7.52	
2025-01-15 03:42:48.80	275.56	7.51	
2025-01-15 03:42:49.00	275.54	7.50	
2025-01-15 03:42:49.20	275.51	7.49	
2025-01-15 03:42:49.40	275.48	7.48	
2025-01-15 03:42:49.61	275.45	7.47	
2025-01-15 03:42:49.81	275.43	7.45	
2025-01-15 03:42:50.01	275.40	7.44	
2025-01-15 03:42:50.22	275.37	7.43	
2025-01-15 03:42:50.42	275.34	7.42	
2025-01-15 03:42:50.62	275.32	7.41	
2025-01-15 03:42:50.83	275.29	7.40	
2025-01-15 03:42:51.03	275.26	7.38	
2025-01-15 03:42:51.23	275.23	7.37	
2025-01-15 03:42:51.44	275.20	7.36	
2025-01-15 03:42:51.64	275.18	7.35	
2025-01-15 03:42:51.84	275.15	7.34	
2025-01-15 03:42:52.04	275.12	7.33	
2025-01-15 03:42:52.25	275.10	7.32	
2025-01-15 03:42:52.45	275.07	7.30	
2025-01-15 03:42:52.65	275.04	7.29	
2025-01-15 03:42:52.86	275.01	7.28	
2025-01-15 03:42:53.06	274.99	7.27	
2025-01-15 03:42:53.26	274.96	7.26	
2025-01-15 03:42:53.47	274.93	7.25	
2025-01-15 03:42:53.67	274.90	7.23	
2025-01-15 03:42:53.87	274.88	7.22	
2025-01-15 03:42:54.08	274.85	7.21	
2025-01-15 03:42:54.28	274.82	7.20	
2025-01-15 03:42:54.48	274.80	7.19	
2025-01-15 03:42:54.68	274.77	7.18	
2025-01-15 03:42:54.89	274.74	7.17	
2025-01-15 03:42:55.09	274.71	7.15	
2025-01-15 03:42:55.29	274.69	7.14	
2025-01-15 03:42:55.50	274.66	7.13	
2025-01-15 03:42:55.70	274.63	7.12	
2025-01-15 03:42:55.90	274.61	7.11	
2025-01-15 03:42:56.11	274.58	7.10	
2025-01-15 03:42:56.31	274.55	7.08	
2025-01-15 03:42:56.51	274.52	7.07	
2025-01-15 03:42:56.72	274.50	7.06	
2025-01-15 03:42:56.92	274.47	7.05	
2025-01-15 03:42:57.12	274.44	7.04	
2025-01-15 03:42:57.32	274.42	7.03	
2025-01-15 03:42:57.53	274.39	7.02	
2025-01-15 03:42:57.73	274.36	7.00	
2025-01-15 03:42:57.93	274.34	6.99	
2025-01-15 03:42:58.14	274.31	6.98	
2025-01-15 03:42:58.34	274.28	6.97	
2025-01-15 03:42:58.54	274.26	6.96	
2025-01-15 03:42:58.75	274.23	6.95	
2025-01-15 03:42:58.95	274.20	6.93	
2025-01-15 03:42:59.15	274.18	6.92	
2025-01-15 03:42:59.36	274.15	6.91	
2025-01-15 03:42:59.56	274.12	6.90	
2025-01-15 03:42:59.76	274.10	6.89	
2025-01-15 03:42:59.96	274.07	6.88	
2025-01-15 03:43:00.17	274.04	6.87	
2025-01-15 03:43:00.37	274.02	6.85	
2025-01-15 03:43:00.57	273.99	6.84	
2025-01-15 03:43:00.78	273.96	6.83	
2025-01-15 03:43:00.98	273.94	6.82	
2025-01-15 03:43:01.18	273.91	6.81	
2025-01-15 03:43:01.39	273.88	6.80	
2025-01-15 03:43:01.59	273.86	6.78	
2025-01-15 03:43:01.79	273.83	6.77	
2025-01-15 03:43:02.00	273.80	6.76	
2025-01-15 03:43:02.20	273.78	6.75	
2025-01-15 03:43:02.40	273.75	6.74	
2025-01-15 03:43:02.60	273.73	6.73	
2025-01-15 03:43:02.81	273.70	6.72	
2025-01-15 03:43:03.01	273.67	6.70	
2025-01-15 03:43:03.21	273.65	6.69	
2025-01-15 03:43:03.42	273.62	6.68	
2025-01-15 03:43:03.62	273.60	6.67	
2025-01-15 03:43:03.82	273.57	6.66	
2025-01-15 03:43:04.03	273.54	6.65	
2025-01-15 03:43:04.23	273.52	6.63	
2025-01-15 03:43:04.43	273.49	6.62	
2025-01-15 03:43:04.64	273.46	6.61	
2025-01-15 03:43:04.84	273.44	6.60	
2025-01-15 03:43:05.04	273.41	6.59	
2025-01-15 03:43:05.24	273.39	6.58	
2025-01-15 03:43:05.45	273.36	6.57	
2025-01-15 03:43:05.65	273.34	6.55	
2025-01-15 03:43:05.85	273.31	6.54	
2025-01-15 03:43:06.06	273.28	6.53	
2025-01-15 03:43:06.26	273.26	6.52	
2025-01-15 03:43:06.46	273.23	6.51	
2025-01-15 03:43:06.67	273.21	6.50	
2025-01-15 03:43:06.87	273.18	6.48	
2025-01-15 03:43:07.07	273.15	6.47	
2025-01-15 03:43:07.28	273.13	6.46	
2025-01-15 03:43:07.48	273.10	6.45	
2025-01-15 03:43:07.68	273.08	6.44	
2025-01-15 03:43:07.88	273.05	6.43	
2025-01-15 03:43:08.09	273.03	6.42	
2025-01-15 03:43:08.29	273.00	6.40	
2025-01-15 03:43:08.49	272.98	6.39	
2025-01-15 03:43:08.70	272.95	6.38	
2025-01-15 03:43:08.90	272.92	6.37	
2025-01-15 03:43:09.10	272.90	6.36	
2025-01-15 03:43:09.31	272.87	6.35	
2025-01-15 03:43:09.51	272.85	6.34	
2025-01-15 03:43:09.71	272.82	6.32	
2025-01-15 03:43:09.92	272.80	6.31	
2025-01-15 03:43:10.12	272.77	6.30	
2025-01-15 03:43:10.32	272.75	6.29	
2025-01-15 03:43:10.52	272.72	6.28	
2025-01-15 03:43:10.73	272.69	6.27	
2025-01-15 03:43:10.93	272.67	6.25	
2025-01-15 03:43:11.13	272.64	6.24	
2025-01-15 03:43:11.34	272.62	6.23	
2025-01-15 03:43:11.54	272.59	6.22	
2025-01-15 03:43:11.74	272.57	6.21	
2025-01-15 03:43:11.95	272.54	6.20	
2025-01-15 03:43:12.15	272.52	6.19	
2025-01-15 03:43:12.35	272.49	6.17	
2025-01-15 03:43:12.56	272.47	6.16	
2025-01-15 03:43:12.76	272.44	6.15	
2025-01-15 03:43:12.96	272.42	6.14	
2025-01-15 03:43:13.16	272.39	6.13	
2025-01-15 03:43:13.37	272.37	6.12	
2025-01-15 03:43:13.57	272.34	6.11	
2025-01-15 03:43:13.77	272.32	6.09	
2025-01-15 03:43:13.98	272.29	6.08	
2025-01-15 03:43:14.18	272.27	6.07	
2025-01-15 03:43:14.38	272.24	6.06	
2025-01-15 03:43:14.59	272.22	6.05	
2025-01-15 03:43:14.79	272.19	6.04	
2025-01-15 03:43:14.99	272.17	6.02	
2025-01-15 03:43:15.20	272.14	6.01	
2025-01-15 03:43:15.40	272.12	6.00	
2025-01-15 03:43:15.60	272.09	5.99	
2025-01-15 03:43:15.80	272.07	5.98	
2025-01-15 03:43:16.01	272.04	5.97	
2025-01-15 03:43:16.21	272.02	5.96	
2025-01-15 03:43:16.41	271.99	5.94	
2025-01-15 03:43:16.62	271.97	5.93	
2025-01-15 03:43:16.82	271.94	5.92	
2025-01-15 03:43:17.02	271.92	5.91	
2025-01-15 03:43:17.23	271.89	5.90	
2025-01-15 03:43:17.43	271.87	5.89	
2025-01-15 03:43:17.63	271.85	5.88	
2025-01-15 03:43:17.84	271.82	5.86	
2025-01-15 03:43:18.04	271.80	5.85	
2025-01-15 03:43:18.24	271.77	5.84	
2025-01-15 03:43:18.44	271.75	5.83	
2025-01-15 03:43:18.65	271.72	5.82	
2025-01-15 03:43:18.85	271.70	5.81	
2025-01-15 03:43:19.05	271.67	5.80	
2025-01-15 03:43:19.26	271.65	5.78	
2025-01-15 03:43:19.46	271.62	5.77	
2025-01-15 03:43:19.66	271.60	5.76	
2025-01-15 03:43:19.87	271.58	5.75	
2025-01-15 03:43:20.07	271.55	5.74	
2025-01-15 03:43:20.27	271.53	5.73	
2025-01-15 03:43:20.48	271.50	5.71	
2025-01-15 03:43:20.68	271.48	5.70	
2025-01-15 03:43:20.88	271.45	5.69	
2025-01-15 03:43:21.08	271.43	5.68	
2025-01-15 03:43:21.29	271.41	5.67	
2025-01-15 03:43:21.49	271.38	5.66	
2025-01-15 03:43:21.69	271.36	5.65	
2025-01-15 03:43:21.90	271.33	5.63	
2025-01-15 03:43:22.10	271.31	5.62	
2025-01-15 03:43:22.30	271.29	5.61	
2025-01-15 03:43:22.51	271.26	5.60	
2025-01-15 03:43:22.71	271.24	5.59	
2025-01-15 03:43:22.91	271.21	5.58	
2025-01-15 03:43:23.12	271.19	5.57	
2025-01-15 03:43:23.32	271.16	5.55	
2025-01-15 03:43:23.52	271.14	5.54	
2025-01-15 03:43:23.72	271.12	5.53	
2025-01-15 03:43:23.93	271.09	5.52	
2025-01-15 03:43:24.13	271.07	5.51	
2025-01-15 03:43:24.33	271.05	5.50	
2025-01-15 03:43:24.54	271.02	5.49	
2025-01-15 03:43:24.74	271.00	5.47	
2025-01-15 03:43:24.94	270.97	5.46	
2025-01-15 03:43:25.15	270.95	5.45	
2025-01-15 03:43:25.35	270.93	5.44	
2025-01-15 03:43:25.55	270.90	5.43	
2025-01-15 03:43:25.76	270.88	5.42	
2025-01-15 03:43:25.96	270.85	5.41	
2025-01-15 03:43:26.16	270.83	5.39	
2025-01-15 03:43:26.36	270.81	5.38	
2025-01-15 03:43:26.57	270.78	5.37	
2025-01-15 03:43:26.77	270.76	5.36	
2025-01-15 03:43:26.97	270.74	5.35	
2025-01-15 03:43:27.18	270.71	5.34	
2025-01-15 03:43:27.38	270.69	5.33	
2025-01-15 03:43:27.58	270.67	5.31	
2025-01-15 03:43:27.79	270.64	5.30	
2025-01-15 03:43:27.99	270.62	5.29	
2025-01-15 03:43:28.19	270.59	5.28	
2025-01-15 03:43:28.40	270.57	5.27	
2025-01-15 03:43:28.60	270.55	5.26	
2025-01-15 03:43:28.80	270.52	5.25	
2025-01-15 03:43:29.00	270.50	5.23	
2025-01-15 03:43:29.21	270.48	5.22	
2025-01-15 03:43:29.41	270.45	5.21	
2025-01-15 03:43:29.61	270.43	5.20	
2025-01-15 03:43:29.82	270.41	5.19	
2025-01-15 03:43:30.02	270.38	5.18	
2025-01-15 03:43:30.22	270.36	5.17	
2025-01-15 03:43:30.43	270.34	5.15	
2025-01-15 03:43:30.63	270.31	5.14	
2025-01-15 03:43:30.83	270.29	5.13	
2025-01-15 03:43:31.04	270.27	5.12	
2025-01-15 03:43:31.24	270.24	5.11	
2025-01-15 03:43:31.44	270.22	5.10	
2025-01-15 03:43:31.64	270.20	5.09	
2025-01-15 03:43:31.85	270.17	5.07	
2025-01-15 03:43:32.05	270.15	5.06	
2025-01-15 03:43:32.25	270.13	5.05	
2025-01-15 03:43:32.46	270.10	5.04	
2025-01-15 03:43:32.66	270.08	5.03	
2025-01-15 03:43:32.86	270.06	5.02	
2025-01-15 03:43:33.07	270.04	5.01	
2025-01-15 03:43:33.27	270.01	5.00	
2025-01-15 03:43:33.47	269.99	4.98	
2025-01-15 03:43:33.68	269.97	4.97	
2025-01-15 03:43:33.88	269.94	4.96	
2025-01-15 03:43:34.08	269.92	4.95	
2025-01-15 03:43:34.28	269.90	4.94	
2025-01-15 03:43:34.49	269.87	4.93	
2025-01-15 03:43:34.69	269.85	4.92	
2025-01-15 03:43:34.89	269.83	4.90	
2025-01-15 03:43:35.10	269.81	4.89	
2025-01-15 03:43:35.30	269.78	4.88	
2025-01-15 03:43:35.50	269.76	4.87	
2025-01-15 03:43:35.71	269.74	4.86	
2025-01-15 03:43:35.91	269.72	4.85	
2025-01-15 03:43:36.11	269.69	4.84	
2025-01-15 03:43:36.32	269.67	4.82	
2025-01-15 03:43:36.52	269.65	4.81	
2025-01-15 03:43:36.72	269.62	4.80	
2025-01-15 03:43:36.92	269.60	4.79	
2025-01-15 03:43:37.13	269.58	4.78	
2025-01-15 03:43:37.33	269.56	4.77	
2025-01-15 03:43:37.53	269.53	4.76	
2025-01-15 03:43:37.74	269.51	4.75	
2025-01-15 03:43:37.94	269.49	4.73	
2025-01-15 03:43:38.14	269.47	4.72	
2025-01-15 03:43:38.35	269.44	4.71	
2025-01-15 03:43:38.55	269.42	4.70	
2025-01-15 03:43:38.75	269.40	4.69	
2025-01-15 03:43:38.96	269.38	4.68	
2025-01-15 03:43:39.16	269.35	4.67	
2025-01-15 03:43:39.36	269.33	4.65	
2025-01-15 03:43:39.56	269.31	4.64	
2025-01-15 03:43:39.77	269.29	4.63	
2025-01-15 03:43:39.97	269.26	4.62	
2025-01-15 03:43:40.17	269.24	4.61	
2025-01-15 03:43:40.38	269.22	4.60	
2025-01-15 03:43:40.58	269.20	4.59	
2025-01-15 03:43:40.78	269.18	4.58	
2025-01-15 03:43:40.99	269.15	4.56	
2025-01-15 03:43:41.19	269.13	4.55	
2025-01-15 03:43:41.39	269.11	4.54	
2025-01-15 03:43:41.60	269.09	4.53	
2025-01-15 03:43:41.80	269.06	4.52	
2025-01-15 03:43:42.00	269.04	4.51	
2025-01-15 03:43:42.20	269.02	4.50	
2025-01-15 03:43:42.41	269.00	4.48	
2025-01-15 03:43:42.61	268.98	4.47	
2025-01-15 03:43:42.81	268.95	4.46	
2025-01-15 03:43:43.02	268.93	4.45	
2025-01-15 03:43:43.22	268.91	4.44	
2025-01-15 03:43:43.42	268.89	4.43	
2025-01-15 03:43:43.63	268.86	4.42	
2025-01-15 03:43:43.83	268.84	4.41	
2025-01-15 03:43:44.03	268.82	4.39	
2025-01-15 03:43:44.24	268.80	4.38	
2025-01-15 03:43:44.44	268.78	4.37	
2025-01-15 03:43:44.64	268.76	4.36	
2025-01-15 03:43:44.84	268.73	4.35	
2025-01-15 03:43:45.05	268.71	4.34	
2025-01-15 03:43:45.25	268.69	4.33	
2025-01-15 03:43:45.45	268.67	4.32	
2025-01-15 03:43:45.66	268.65	4.30	
2025-01-15 03:43:45.86	268.62	4.29	
2025-01-15 03:43:46.06	268.60	4.28	
2025-01-15 03:43:46.27	268.58	4.27	
2025-01-15 03:43:46.47	268.56	4.26	
2025-01-15 03:43:46.67	268.54	4.25	
2025-01-15 03:43:46.88	268.51	4.24	
2025-01-15 03:43:47.08	268.49	4.22	
2025-01-15 03:43:47.28	268.47	4.21	
2025-01-15 03:43:47.49	268.45	4.20	
2025-01-15 03:43:47.69	268.43	4.19	
2025-01-15 03:43:47.89	268.41	4.18	
2025-01-15 03:43:48.09	268.39	4.17	
2025-01-15 03:43:48.30	268.36	4.16	
2025-01-15 03:43:48.50	268.34	4.15	
2025-01-15 03:43:48.70	268.32	4.13	
2025-01-15 03:43:48.91	268.30	4.12	
2025-01-15 03:43:49.11	268.28	4.11	
2025-01-15 03:43:49.31	268.26	4.10	
2025-01-15 03:43:49.52	268.23	4.09	
2025-01-15 03:43:49.72	268.21	4.08	
2025-01-15 03:43:49.92	268.19	4.07	
2025-01-15 03:43:50.12	268.17	4.06	
2025-01-15 03:43:50.33	268.15	4.04	
2025-01-15 03:43:50.53	268.13	4.03	
2025-01-15 03:43:50.73	268.11	4.02	
2025-01-15 03:43:50.94	268.08	4.01	

#Closed at: 2025-01-15 03:43:51