passes_logs/2025/01/15/SPB_Silybum_02/SPB_Silybum_02__20250115_131229_AQUA_rec.log

#Pass ID: 20250115_131229_AQUA
#Satellite: AQUA
#Configuration: AQUA
#Start time: 2025-01-15 13:12:30

#Version: 2.0.20230423
#Station: SPB_Silybum_02
#Location: 30.233357 lon 59.946436 lat
#TLE: 1 27424U 02022A   25014.86211101  .00001670  00000+0  35273-3 0  9993
#TLE: 2 27424  98.3588 331.5248 0001714 111.5422 273.3352 14.60681448207609

#Time	Az	El	Level	Level2	SNR	BER	Gain	Gain2
2025-01-15 13:12:32.90	220.68	4.17	
2025-01-15 13:12:33.91	220.79	4.23	
2025-01-15 13:12:34.93	220.90	4.28	
2025-01-15 13:12:35.94	221.01	4.34	
2025-01-15 13:12:36.95	221.12	4.40	
2025-01-15 13:12:37.97	221.23	4.45	
2025-01-15 13:12:38.98	221.34	4.51	
2025-01-15 13:12:40.00	221.45	4.57	
2025-01-15 13:12:41.01	221.56	4.62	
2025-01-15 13:12:42.03	221.67	4.68	
2025-01-15 13:12:43.04	221.78	4.74	
2025-01-15 13:12:44.06	221.89	4.80	
2025-01-15 13:12:45.07	222.01	4.85	
2025-01-15 13:12:46.09	222.12	4.91	
2025-01-15 13:12:47.10	222.24	4.97	
2025-01-15 13:12:48.12	222.35	5.03	
2025-01-15 13:12:49.13	222.46	5.08	
2025-01-15 13:12:50.15	222.58	5.14	
2025-01-15 13:12:51.16	222.70	5.20	
2025-01-15 13:12:52.18	222.81	5.26	
2025-01-15 13:12:53.19	222.93	5.31	
2025-01-15 13:12:54.21	223.05	5.37	
2025-01-15 13:12:55.22	223.16	5.43	
2025-01-15 13:12:56.24	223.28	5.49	
2025-01-15 13:12:57.25	223.40	5.54	
2025-01-15 13:12:58.26	223.52	5.60	
2025-01-15 13:12:59.28	223.64	5.66	
2025-01-15 13:13:00.29	223.76	5.72	
2025-01-15 13:13:01.31	223.88	5.77	
2025-01-15 13:13:02.32	224.00	5.83	
2025-01-15 13:13:03.34	224.13	5.89	
2025-01-15 13:13:04.35	224.25	5.95	
2025-01-15 13:13:05.37	224.37	6.01	
2025-01-15 13:13:06.38	224.49	6.07	
2025-01-15 13:13:07.40	224.62	6.12	
2025-01-15 13:13:08.41	224.74	6.18	
2025-01-15 13:13:09.43	224.87	6.24	
2025-01-15 13:13:10.44	224.99	6.30	
2025-01-15 13:13:11.46	225.12	6.36	
2025-01-15 13:13:12.47	225.24	6.42	
2025-01-15 13:13:13.49	225.37	6.47	
2025-01-15 13:13:14.50	225.50	6.53	
2025-01-15 13:13:15.52	225.63	6.59	
2025-01-15 13:13:16.53	225.76	6.65	
2025-01-15 13:13:17.55	225.89	6.71	
2025-01-15 13:13:18.56	226.01	6.77	
2025-01-15 13:13:19.57	226.14	6.82	
2025-01-15 13:13:20.59	226.28	6.88	
2025-01-15 13:13:21.60	226.41	6.94	
2025-01-15 13:13:22.62	226.54	7.00	
2025-01-15 13:13:23.63	226.67	7.06	
2025-01-15 13:13:24.65	226.81	7.12	
2025-01-15 13:13:25.66	226.94	7.18	
2025-01-15 13:13:26.68	227.07	7.24	
2025-01-15 13:13:27.69	227.21	7.29	
2025-01-15 13:13:28.71	227.34	7.35	
2025-01-15 13:13:29.72	227.48	7.41	
2025-01-15 13:13:30.74	227.62	7.47	
2025-01-15 13:13:31.75	227.75	7.53	
2025-01-15 13:13:32.77	227.89	7.59	
2025-01-15 13:13:33.78	228.03	7.65	
2025-01-15 13:13:34.80	228.17	7.71	
2025-01-15 13:13:35.81	228.31	7.77	
2025-01-15 13:13:36.83	228.45	7.83	
2025-01-15 13:13:37.84	228.59	7.88	
2025-01-15 13:13:38.85	228.73	7.94	
2025-01-15 13:13:39.87	228.87	8.00	
2025-01-15 13:13:40.88	229.01	8.06	
2025-01-15 13:13:41.90	229.16	8.12	
2025-01-15 13:13:42.91	229.30	8.18	
2025-01-15 13:13:43.93	229.44	8.24	
2025-01-15 13:13:44.94	229.59	8.30	
2025-01-15 13:13:45.96	229.73	8.36	
2025-01-15 13:13:46.97	229.88	8.42	
2025-01-15 13:13:47.99	230.03	8.48	
2025-01-15 13:13:49.00	230.17	8.53	
2025-01-15 13:13:54.66	231.01	8.86	
2025-01-15 13:13:55.67	231.16	8.92	
2025-01-15 13:13:56.69	231.31	8.98	
2025-01-15 13:13:57.70	231.46	9.04	
2025-01-15 13:13:58.72	231.62	9.10	
2025-01-15 13:13:59.73	231.77	9.16	
2025-01-15 13:14:00.75	231.93	9.22	
2025-01-15 13:14:01.76	232.08	9.28	
2025-01-15 13:14:02.78	232.24	9.34	
2025-01-15 13:14:03.79	232.39	9.40	
2025-01-15 13:14:04.80	232.55	9.45	
2025-01-15 13:14:05.82	232.71	9.51	
2025-01-15 13:14:06.83	232.87	9.57	
2025-01-15 13:14:07.85	233.03	9.63	
2025-01-15 13:14:08.86	233.19	9.69	
2025-01-15 13:14:09.88	233.35	9.75	
2025-01-15 13:14:10.89	233.51	9.81	
2025-01-15 13:14:11.91	233.67	9.87	
2025-01-15 13:14:12.92	233.83	9.92	
2025-01-15 13:14:13.94	234.00	9.98	
2025-01-15 13:14:14.95	234.16	10.04	
2025-01-15 13:14:15.97	234.33	10.10	
2025-01-15 13:14:16.98	234.49	10.16	
2025-01-15 13:14:18.00	234.66	10.22	
2025-01-15 13:14:19.01	234.83	10.28	
2025-01-15 13:14:20.03	234.99	10.33	
2025-01-15 13:14:21.04	235.16	10.39	
2025-01-15 13:14:22.06	235.33	10.45	
2025-01-15 13:14:23.07	235.50	10.51	
2025-01-15 13:14:24.09	235.67	10.57	
2025-01-15 13:14:25.10	235.84	10.63	
2025-01-15 13:14:26.11	236.01	10.68	
2025-01-15 13:14:27.13	236.19	10.74	
2025-01-15 13:14:28.14	236.36	10.80	
2025-01-15 13:14:29.16	236.53	10.86	
2025-01-15 13:14:30.17	236.71	10.91	
2025-01-15 13:14:31.19	236.88	10.97	
2025-01-15 13:14:32.20	237.06	11.03	
2025-01-15 13:14:33.22	237.24	11.09	
2025-01-15 13:14:34.23	237.41	11.15	
2025-01-15 13:14:35.25	237.59	11.20	
2025-01-15 13:14:36.26	237.77	11.26	
2025-01-15 13:14:37.28	237.95	11.32	
2025-01-15 13:14:38.29	238.13	11.37	
2025-01-15 13:14:39.31	238.32	11.43	
2025-01-15 13:14:40.32	238.50	11.49	
2025-01-15 13:14:41.34	238.68	11.55	
2025-01-15 13:14:42.35	238.86	11.60	
2025-01-15 13:14:43.37	239.05	11.66	
2025-01-15 13:14:44.38	239.23	11.71	
2025-01-15 13:14:45.39	239.42	11.77	
2025-01-15 13:14:46.41	239.60	11.83	
2025-01-15 13:14:47.42	239.79	11.88	
2025-01-15 13:14:48.44	239.98	11.94	
2025-01-15 13:14:49.45	240.17	12.00	
2025-01-15 13:14:50.47	240.36	12.05	
2025-01-15 13:14:51.48	240.55	12.11	
2025-01-15 13:14:52.50	240.74	12.16	
2025-01-15 13:14:53.51	240.93	12.22	
2025-01-15 13:14:54.53	241.12	12.27	
2025-01-15 13:14:55.54	241.32	12.33	
2025-01-15 13:14:56.56	241.51	12.38	
2025-01-15 13:14:57.57	241.70	12.44	
2025-01-15 13:14:58.59	241.90	12.49	
2025-01-15 13:14:59.60	242.10	12.55	
2025-01-15 13:15:00.62	242.29	12.60	
2025-01-15 13:15:01.63	242.49	12.66	
2025-01-15 13:15:02.65	242.69	12.71	
2025-01-15 13:15:03.66	242.89	12.76	
2025-01-15 13:15:04.68	243.09	12.82	
2025-01-15 13:15:05.70	243.29	12.87	
2025-01-15 13:15:06.72	243.49	12.92	
2025-01-15 13:15:07.73	243.70	12.98	
2025-01-15 13:15:08.75	243.90	13.03	
2025-01-15 13:15:09.76	244.10	13.08	
2025-01-15 13:15:10.78	244.31	13.14	
2025-01-15 13:15:11.79	244.51	13.19	
2025-01-15 13:15:12.80	244.72	13.24	
2025-01-15 13:15:13.82	244.92	13.29	
2025-01-15 13:15:14.83	245.13	13.34	
2025-01-15 13:15:15.85	245.34	13.40	
2025-01-15 13:15:16.86	245.55	13.45	
2025-01-15 13:15:17.88	245.76	13.50	
2025-01-15 13:15:18.89	245.97	13.55	
2025-01-15 13:15:19.91	246.18	13.60	
2025-01-15 13:15:20.92	246.39	13.65	
2025-01-15 13:15:21.94	246.61	13.70	
2025-01-15 13:15:22.95	246.82	13.75	
2025-01-15 13:15:23.97	247.03	13.80	
2025-01-15 13:15:24.98	247.25	13.85	
2025-01-15 13:15:26.00	247.47	13.90	
2025-01-15 13:15:27.01	247.68	13.95	
2025-01-15 13:15:28.03	247.90	14.00	
2025-01-15 13:15:29.04	248.12	14.05	
2025-01-15 13:15:30.06	248.34	14.09	
2025-01-15 13:15:31.07	248.56	14.14	
2025-01-15 13:15:32.09	248.78	14.19	
2025-01-15 13:15:33.10	249.00	14.24	
2025-01-15 13:15:34.11	249.22	14.28	
2025-01-15 13:15:35.13	249.44	14.33	
2025-01-15 13:15:36.14	249.66	14.38	
2025-01-15 13:15:37.16	249.89	14.42	
2025-01-15 13:15:38.17	250.11	14.47	
2025-01-15 13:15:39.19	250.34	14.52	
2025-01-15 13:15:40.20	250.56	14.56	
2025-01-15 13:15:41.22	250.79	14.61	
2025-01-15 13:15:42.23	251.02	14.65	
2025-01-15 13:15:43.25	251.25	14.70	
2025-01-15 13:15:44.26	251.47	14.74	
2025-01-15 13:15:45.28	251.71	14.78	
2025-01-15 13:15:46.29	251.93	14.83	
2025-01-15 13:15:47.31	252.17	14.87	
2025-01-15 13:15:48.32	252.40	14.91	
2025-01-15 13:15:49.34	252.63	14.96	
2025-01-15 13:15:50.35	252.86	15.00	
2025-01-15 13:15:51.37	253.10	15.04	
2025-01-15 13:15:52.38	253.33	15.08	
2025-01-15 13:15:53.40	253.57	15.12	
2025-01-15 13:15:54.41	253.80	15.16	
2025-01-15 13:15:55.42	254.04	15.20	
2025-01-15 13:15:56.44	254.28	15.25	
2025-01-15 13:15:57.45	254.51	15.28	
2025-01-15 13:15:58.47	254.75	15.32	
2025-01-15 13:15:59.48	254.99	15.36	
2025-01-15 13:16:00.50	255.23	15.40	
2025-01-15 13:16:01.51	255.47	15.44	
2025-01-15 13:16:02.53	255.71	15.48	
2025-01-15 13:16:03.54	255.95	15.52	
2025-01-15 13:16:04.56	256.20	15.55	
2025-01-15 13:16:05.57	256.44	15.59	
2025-01-15 13:16:06.59	256.68	15.63	
2025-01-15 13:16:07.60	256.93	15.66	
2025-01-15 13:16:08.62	257.17	15.70	
2025-01-15 13:16:09.63	257.42	15.73	
2025-01-15 13:16:10.65	257.66	15.77	
2025-01-15 13:16:11.66	257.91	15.80	
2025-01-15 13:16:12.68	258.16	15.83	
2025-01-15 13:16:13.69	258.40	15.87	
2025-01-15 13:16:14.70	258.65	15.90	
2025-01-15 13:16:15.72	258.90	15.93	
2025-01-15 13:16:16.73	259.15	15.96	
2025-01-15 13:16:17.75	259.40	16.00	
2025-01-15 13:16:18.76	259.65	16.03	
2025-01-15 13:16:19.78	259.90	16.06	
2025-01-15 13:16:20.79	260.15	16.09	
2025-01-15 13:16:21.81	260.40	16.12	
2025-01-15 13:16:22.82	260.65	16.15	
2025-01-15 13:16:23.84	260.91	16.18	
2025-01-15 13:16:24.85	261.16	16.20	
2025-01-15 13:16:25.87	261.42	16.23	
2025-01-15 13:16:26.88	261.67	16.26	
2025-01-15 13:16:27.90	261.92	16.29	
2025-01-15 13:16:28.91	262.18	16.31	
2025-01-15 13:16:29.93	262.44	16.34	
2025-01-15 13:16:30.94	262.69	16.36	
2025-01-15 13:16:31.96	262.95	16.39	
2025-01-15 13:16:32.97	263.20	16.41	
2025-01-15 13:16:33.99	263.46	16.44	
2025-01-15 13:16:35.00	263.72	16.46	
2025-01-15 13:16:36.01	263.98	16.48	
2025-01-15 13:16:37.03	264.24	16.50	
2025-01-15 13:16:38.04	264.50	16.53	
2025-01-15 13:16:39.06	264.76	16.55	
2025-01-15 13:16:40.07	265.01	16.57	
2025-01-15 13:16:41.09	265.28	16.59	
2025-01-15 13:16:42.10	265.54	16.61	
2025-01-15 13:16:43.12	265.80	16.63	
2025-01-15 13:16:44.13	266.06	16.65	
2025-01-15 13:16:45.15	266.32	16.67	
2025-01-15 13:16:46.16	266.58	16.68	
2025-01-15 13:16:47.18	266.84	16.70	
2025-01-15 13:16:48.19	267.11	16.72	
2025-01-15 13:16:49.21	267.37	16.73	
2025-01-15 13:16:50.22	267.63	16.75	
2025-01-15 13:16:51.24	267.90	16.76	
2025-01-15 13:16:52.25	268.16	16.78	
2025-01-15 13:16:53.27	268.42	16.79	
2025-01-15 13:16:54.28	268.69	16.80	
2025-01-15 13:16:55.30	268.95	16.82	
2025-01-15 13:16:56.31	269.22	16.83	
2025-01-15 13:16:57.32	269.48	16.84	
2025-01-15 13:16:58.34	269.75	16.85	
2025-01-15 13:16:59.35	270.01	16.86	
2025-01-15 13:17:00.37	270.28	16.87	
2025-01-15 13:17:01.38	270.54	16.88	
2025-01-15 13:17:02.40	270.81	16.89	
2025-01-15 13:17:03.41	271.07	16.90	
2025-01-15 13:17:04.43	271.34	16.91	
2025-01-15 13:17:05.44	271.60	16.91	
2025-01-15 13:17:06.46	271.87	16.92	
2025-01-15 13:17:07.47	272.14	16.93	
2025-01-15 13:17:08.49	272.40	16.93	
2025-01-15 13:17:09.50	272.67	16.94	
2025-01-15 13:17:10.52	272.94	16.94	
2025-01-15 13:17:11.53	273.20	16.95	
2025-01-15 13:17:12.55	273.47	16.95	
2025-01-15 13:17:13.56	273.74	16.95	
2025-01-15 13:17:14.58	274.00	16.95	
2025-01-15 13:17:15.59	274.27	16.96	
2025-01-15 13:17:16.61	274.54	16.96	
2025-01-15 13:17:17.62	274.80	16.96	
2025-01-15 13:17:18.63	275.07	16.96	
2025-01-15 13:17:19.65	275.34	16.96	
2025-01-15 13:17:20.66	275.60	16.95	
2025-01-15 13:17:21.68	275.87	16.95	
2025-01-15 13:17:22.69	276.14	16.95	
2025-01-15 13:17:23.71	276.40	16.95	
2025-01-15 13:17:24.72	276.67	16.94	
2025-01-15 13:17:25.74	276.94	16.94	
2025-01-15 13:17:26.75	277.20	16.94	
2025-01-15 13:17:27.77	277.47	16.93	
2025-01-15 13:17:28.78	277.73	16.92	
2025-01-15 13:17:29.80	278.00	16.92	
2025-01-15 13:17:30.81	278.27	16.91	
2025-01-15 13:17:31.83	278.53	16.90	
2025-01-15 13:17:32.84	278.80	16.89	
2025-01-15 13:17:33.86	279.07	16.89	
2025-01-15 13:17:34.87	279.33	16.88	
2025-01-15 13:17:35.89	279.60	16.87	
2025-01-15 13:17:36.90	279.86	16.86	
2025-01-15 13:17:37.91	280.12	16.85	
2025-01-15 13:17:38.93	280.39	16.83	
2025-01-15 13:17:39.94	280.65	16.82	
2025-01-15 13:17:40.96	280.92	16.81	
2025-01-15 13:17:41.97	281.18	16.80	
2025-01-15 13:17:42.99	281.44	16.78	
2025-01-15 13:17:44.00	281.71	16.77	
2025-01-15 13:17:45.02	281.97	16.75	
2025-01-15 13:17:46.03	282.23	16.74	
2025-01-15 13:17:47.05	282.50	16.72	
2025-01-15 13:17:48.06	282.76	16.71	
2025-01-15 13:17:49.08	283.02	16.69	
2025-01-15 13:17:50.09	283.28	16.67	
2025-01-15 13:17:51.11	283.54	16.65	
2025-01-15 13:17:52.12	283.80	16.64	
2025-01-15 13:17:53.14	284.07	16.62	
2025-01-15 13:17:54.15	284.32	16.60	
2025-01-15 13:17:55.17	284.59	16.58	
2025-01-15 13:17:56.18	284.84	16.56	
2025-01-15 13:17:57.20	285.10	16.54	
2025-01-15 13:17:58.21	285.36	16.51	
2025-01-15 13:17:59.22	285.62	16.49	
2025-01-15 13:18:00.24	285.88	16.47	
2025-01-15 13:18:01.25	286.13	16.45	
2025-01-15 13:18:02.27	286.39	16.42	
2025-01-15 13:18:03.28	286.65	16.40	
2025-01-15 13:18:04.30	286.90	16.37	
2025-01-15 13:18:05.31	287.16	16.35	
2025-01-15 13:18:06.33	287.42	16.32	
2025-01-15 13:18:07.34	287.67	16.30	
2025-01-15 13:18:08.36	287.93	16.27	
2025-01-15 13:18:09.37	288.18	16.24	
2025-01-15 13:18:10.39	288.43	16.22	
2025-01-15 13:18:11.40	288.68	16.19	
2025-01-15 13:18:12.42	288.94	16.16	
2025-01-15 13:18:13.43	289.19	16.13	
2025-01-15 13:18:14.45	289.44	16.10	
2025-01-15 13:18:15.46	289.69	16.07	
2025-01-15 13:18:16.48	289.94	16.04	
2025-01-15 13:18:17.49	290.19	16.01	
2025-01-15 13:18:18.51	290.44	15.98	
2025-01-15 13:18:19.52	290.69	15.95	
2025-01-15 13:18:20.53	290.94	15.92	
2025-01-15 13:18:21.55	291.18	15.88	
2025-01-15 13:18:22.56	291.43	15.85	
2025-01-15 13:18:23.58	291.68	15.82	
2025-01-15 13:18:24.59	291.92	15.78	
2025-01-15 13:18:25.61	292.17	15.75	
2025-01-15 13:18:26.62	292.41	15.71	
2025-01-15 13:18:27.64	292.66	15.68	
2025-01-15 13:18:28.65	292.90	15.64	
2025-01-15 13:18:29.67	293.14	15.61	
2025-01-15 13:18:30.68	293.39	15.57	
2025-01-15 13:18:31.70	293.63	15.53	
2025-01-15 13:18:32.71	293.87	15.50	
2025-01-15 13:18:33.73	294.11	15.46	
2025-01-15 13:18:34.74	294.35	15.42	
2025-01-15 13:18:35.76	294.59	15.38	
2025-01-15 13:18:36.77	294.83	15.35	
2025-01-15 13:18:37.79	295.06	15.31	
2025-01-15 13:18:38.80	295.30	15.27	
2025-01-15 13:18:39.82	295.54	15.23	
2025-01-15 13:18:40.83	295.77	15.19	
2025-01-15 13:18:41.84	296.01	15.15	
2025-01-15 13:18:42.86	296.24	15.11	
2025-01-15 13:18:43.87	296.48	15.07	
2025-01-15 13:18:44.89	296.71	15.02	
2025-01-15 13:18:45.90	296.94	14.98	
2025-01-15 13:18:46.92	297.17	14.94	
2025-01-15 13:18:47.93	297.40	14.90	
2025-01-15 13:18:48.95	297.64	14.85	
2025-01-15 13:18:49.96	297.86	14.81	
2025-01-15 13:18:50.98	298.09	14.77	
2025-01-15 13:18:51.99	298.32	14.72	
2025-01-15 13:18:53.01	298.55	14.68	
2025-01-15 13:18:54.02	298.78	14.64	
2025-01-15 13:18:55.04	299.00	14.59	
2025-01-15 13:18:56.07	299.23	14.54	
2025-01-15 13:18:57.08	299.46	14.50	
2025-01-15 13:18:58.10	299.68	14.45	
2025-01-15 13:18:59.11	299.90	14.41	
2025-01-15 13:19:00.13	300.13	14.36	
2025-01-15 13:19:01.14	300.35	14.32	
2025-01-15 13:19:02.16	300.57	14.27	
2025-01-15 13:19:03.17	300.79	14.22	
2025-01-15 13:19:04.18	301.01	14.17	
2025-01-15 13:19:05.20	301.23	14.13	
2025-01-15 13:19:06.21	301.44	14.08	
2025-01-15 13:19:07.23	301.66	14.03	
2025-01-15 13:19:08.24	301.88	13.98	
2025-01-15 13:19:09.26	302.10	13.93	
2025-01-15 13:19:10.27	302.31	13.89	
2025-01-15 13:19:11.29	302.53	13.84	
2025-01-15 13:19:12.30	302.74	13.79	
2025-01-15 13:19:13.32	302.95	13.74	
2025-01-15 13:19:14.33	303.16	13.69	
2025-01-15 13:19:15.35	303.38	13.64	
2025-01-15 13:19:16.36	303.59	13.59	
2025-01-15 13:19:17.38	303.80	13.54	
2025-01-15 13:19:18.39	304.00	13.49	
2025-01-15 13:19:19.41	304.21	13.44	
2025-01-15 13:19:20.42	304.42	13.38	
2025-01-15 13:19:21.44	304.63	13.33	
2025-01-15 13:19:22.45	304.83	13.28	
2025-01-15 13:19:23.47	305.04	13.23	
2025-01-15 13:19:24.48	305.24	13.18	
2025-01-15 13:19:25.49	305.45	13.13	
2025-01-15 13:19:26.51	305.65	13.07	
2025-01-15 13:19:27.52	305.85	13.02	
2025-01-15 13:19:28.54	306.06	12.97	
2025-01-15 13:19:29.55	306.26	12.92	
2025-01-15 13:19:30.57	306.46	12.86	
2025-01-15 13:19:31.58	306.65	12.81	
2025-01-15 13:19:32.60	306.85	12.76	
2025-01-15 13:19:33.61	307.05	12.70	
2025-01-15 13:19:34.63	307.25	12.65	
2025-01-15 13:19:35.64	307.45	12.60	
2025-01-15 13:19:36.66	307.64	12.54	
2025-01-15 13:19:37.67	307.84	12.49	
2025-01-15 13:19:38.69	308.03	12.43	
2025-01-15 13:19:39.70	308.22	12.38	
2025-01-15 13:19:40.72	308.42	12.32	
2025-01-15 13:19:41.73	308.61	12.27	
2025-01-15 13:19:42.75	308.80	12.21	
2025-01-15 13:19:43.76	308.99	12.16	
2025-01-15 13:19:44.78	309.18	12.10	
2025-01-15 13:19:45.79	309.37	12.05	
2025-01-15 13:19:46.80	309.56	11.99	
2025-01-15 13:19:47.82	309.74	11.94	
2025-01-15 13:19:48.83	309.93	11.88	
2025-01-15 13:19:49.85	310.12	11.83	
2025-01-15 13:19:50.86	310.30	11.77	
2025-01-15 13:19:51.88	310.49	11.72	
2025-01-15 13:19:52.89	310.67	11.66	
2025-01-15 13:19:53.91	310.85	11.60	
2025-01-15 13:19:54.92	311.03	11.55	
2025-01-15 13:19:55.94	311.22	11.49	
2025-01-15 13:19:56.95	311.40	11.43	
2025-01-15 13:19:57.97	311.58	11.38	
2025-01-15 13:19:58.98	311.76	11.32	
2025-01-15 13:20:00.00	311.94	11.26	
2025-01-15 13:20:01.01	312.11	11.21	
2025-01-15 13:20:02.03	312.29	11.15	
2025-01-15 13:20:03.04	312.47	11.09	
2025-01-15 13:20:04.06	312.64	11.04	
2025-01-15 13:20:05.07	312.82	10.98	
2025-01-15 13:20:06.08	312.99	10.92	
2025-01-15 13:20:07.10	313.16	10.86	
2025-01-15 13:20:08.11	313.34	10.81	
2025-01-15 13:20:09.13	313.51	10.75	
2025-01-15 13:20:10.14	313.68	10.69	
2025-01-15 13:20:11.16	313.85	10.64	
2025-01-15 13:20:12.17	314.02	10.58	
2025-01-15 13:20:13.19	314.19	10.52	
2025-01-15 13:20:14.20	314.36	10.46	
2025-01-15 13:20:15.22	314.53	10.40	
2025-01-15 13:20:16.23	314.69	10.35	
2025-01-15 13:20:17.25	314.86	10.29	
2025-01-15 13:20:18.26	315.03	10.23	
2025-01-15 13:20:19.28	315.19	10.17	
2025-01-15 13:20:20.29	315.36	10.11	
2025-01-15 13:20:21.31	315.52	10.06	
2025-01-15 13:20:22.32	315.68	10.00	
2025-01-15 13:20:23.34	315.85	9.94	
2025-01-15 13:20:24.35	316.01	9.88	
2025-01-15 13:20:25.37	316.17	9.82	
2025-01-15 13:20:26.38	316.33	9.77	
2025-01-15 13:20:27.39	316.49	9.71	
2025-01-15 13:20:28.41	316.65	9.65	
2025-01-15 13:20:29.42	316.81	9.59	
2025-01-15 13:20:30.44	316.97	9.53	
2025-01-15 13:20:31.45	317.12	9.47	
2025-01-15 13:20:32.47	317.28	9.42	
2025-01-15 13:20:33.48	317.43	9.36	
2025-01-15 13:20:34.50	317.59	9.30	
2025-01-15 13:20:35.51	317.74	9.24	
2025-01-15 13:20:36.53	317.90	9.18	
2025-01-15 13:20:37.54	318.05	9.12	
2025-01-15 13:20:38.56	318.20	9.07	
2025-01-15 13:20:39.57	318.36	9.01	
2025-01-15 13:20:40.59	318.51	8.95	
2025-01-15 13:20:41.60	318.66	8.89	
2025-01-15 13:20:42.62	318.81	8.83	
2025-01-15 13:20:43.63	318.96	8.77	
2025-01-15 13:20:44.65	319.11	8.71	
2025-01-15 13:20:45.66	319.25	8.66	
2025-01-15 13:20:46.68	319.40	8.60	
2025-01-15 13:20:47.69	319.55	8.54	
2025-01-15 13:20:48.70	319.69	8.48	
2025-01-15 13:20:49.72	319.84	8.42	
2025-01-15 13:20:50.73	319.98	8.36	
2025-01-15 13:20:51.75	320.13	8.30	
2025-01-15 13:20:52.76	320.27	8.25	
2025-01-15 13:20:53.78	320.42	8.19	
2025-01-15 13:20:54.79	320.56	8.13	
2025-01-15 13:20:55.81	320.70	8.07	
2025-01-15 13:20:56.82	320.84	8.01	
2025-01-15 13:20:57.84	320.98	7.95	
2025-01-15 13:20:58.85	321.12	7.90	
2025-01-15 13:20:59.87	321.26	7.84	
2025-01-15 13:21:00.88	321.40	7.78	
2025-01-15 13:21:01.90	321.54	7.72	
2025-01-15 13:21:02.91	321.68	7.66	
2025-01-15 13:21:03.93	321.82	7.60	
2025-01-15 13:21:04.94	321.95	7.54	
2025-01-15 13:21:05.96	322.09	7.49	
2025-01-15 13:21:06.97	322.22	7.43	
2025-01-15 13:21:07.99	322.36	7.37	
2025-01-15 13:21:09.00	322.49	7.31	
2025-01-15 13:21:10.01	322.63	7.25	
2025-01-15 13:21:11.03	322.76	7.19	
2025-01-15 13:21:12.04	322.89	7.14	
2025-01-15 13:21:13.06	323.03	7.08	
2025-01-15 13:21:14.07	323.16	7.02	
2025-01-15 13:21:15.09	323.29	6.96	
2025-01-15 13:21:16.10	323.42	6.90	
2025-01-15 13:21:17.12	323.55	6.85	
2025-01-15 13:21:18.13	323.68	6.79	
2025-01-15 13:21:19.15	323.81	6.73	
2025-01-15 13:21:20.16	323.94	6.67	
2025-01-15 13:21:21.18	324.07	6.61	
2025-01-15 13:21:22.19	324.19	6.56	
2025-01-15 13:21:23.21	324.32	6.50	
2025-01-15 13:21:24.22	324.45	6.44	
2025-01-15 13:21:25.24	324.57	6.38	
2025-01-15 13:21:26.25	324.70	6.33	
2025-01-15 13:21:27.27	324.82	6.27	
2025-01-15 13:21:28.28	324.95	6.21	
2025-01-15 13:21:29.29	325.07	6.15	
2025-01-15 13:21:30.31	325.19	6.09	
2025-01-15 13:21:31.32	325.31	6.04	
2025-01-15 13:21:32.34	325.44	5.98	
2025-01-15 13:21:33.35	325.56	5.92	
2025-01-15 13:21:34.37	325.68	5.86	
2025-01-15 13:21:35.38	325.80	5.81	
2025-01-15 13:21:36.40	325.92	5.75	
2025-01-15 13:21:37.41	326.04	5.69	
2025-01-15 13:21:38.44	326.16	5.63	
2025-01-15 13:21:39.45	326.28	5.58	
2025-01-15 13:21:40.47	326.40	5.52	
2025-01-15 13:21:41.48	326.52	5.46	
2025-01-15 13:21:42.50	326.63	5.41	
2025-01-15 13:21:43.51	326.75	5.35	
2025-01-15 13:21:44.53	326.87	5.29	
2025-01-15 13:21:45.54	326.98	5.24	
2025-01-15 13:21:46.56	327.10	5.18	
2025-01-15 13:21:47.57	327.21	5.12	
2025-01-15 13:21:48.59	327.33	5.06	
2025-01-15 13:21:49.60	327.44	5.01	
2025-01-15 13:21:50.62	327.56	4.95	
2025-01-15 13:21:51.64	327.67	4.89	
2025-01-15 13:21:52.65	327.78	4.84	
2025-01-15 13:21:53.67	327.89	4.78	
2025-01-15 13:21:54.68	328.01	4.72	
2025-01-15 13:21:55.70	328.12	4.67	
2025-01-15 13:21:56.72	328.23	4.61	
2025-01-15 13:21:57.74	328.34	4.55	
2025-01-15 13:21:58.75	328.45	4.50	
2025-01-15 13:21:59.77	328.56	4.44	
2025-01-15 13:22:00.80	328.67	4.39	
2025-01-15 13:22:01.81	328.78	4.33	
2025-01-15 13:22:02.83	328.89	4.27	
2025-01-15 13:22:03.84	328.99	4.22	
2025-01-15 13:22:04.86	329.10	4.16	
2025-01-15 13:22:05.87	329.21	4.11	
2025-01-15 13:22:06.89	329.31	4.05	

#Closed at: 2025-01-15 13:22:07