passes_logs/2025/01/15/SPB_Silybum_02/SPB_Silybum_02__20250115_075928_TERRA_rec.log

#Pass ID: 20250115_075928_TERRA
#Satellite: TERRA
#Configuration: TERRA
#Start time: 2025-01-15 07:59:28

#Version: 2.0.20230423
#Station: SPB_Silybum_02
#Location: 30.233357 lon 59.946436 lat
#TLE: 1 25994U 99068A   25014.85746573  .00000777  00000+0  16972-3 0  9996
#TLE: 2 25994  98.0216  77.8924 0003456  72.8612  46.8876 14.60394566334056

#Time	Az	El	Level	Level2	SNR	BER	Gain	Gain2
2025-01-15 07:59:30.58	18.71	4.16	
2025-01-15 07:59:31.80	18.74	4.25	
2025-01-15 07:59:33.02	18.77	4.33	
2025-01-15 07:59:34.24	18.80	4.42	
2025-01-15 07:59:35.46	18.84	4.51	
2025-01-15 07:59:36.68	18.87	4.60	
2025-01-15 07:59:37.89	18.90	4.68	
2025-01-15 07:59:39.11	18.93	4.77	
2025-01-15 07:59:40.33	18.96	4.86	
2025-01-15 07:59:41.55	19.00	4.95	
2025-01-15 07:59:42.77	19.03	5.04	
2025-01-15 07:59:43.99	19.06	5.13	
2025-01-15 07:59:45.21	19.10	5.22	
2025-01-15 07:59:46.43	19.13	5.31	
2025-01-15 07:59:47.65	19.16	5.40	
2025-01-15 07:59:48.86	19.20	5.49	
2025-01-15 07:59:50.08	19.23	5.59	
2025-01-15 07:59:51.30	19.27	5.68	
2025-01-15 07:59:52.52	19.30	5.77	
2025-01-15 07:59:53.74	19.33	5.86	
2025-01-15 07:59:54.96	19.37	5.96	
2025-01-15 07:59:56.18	19.40	6.05	
2025-01-15 07:59:57.40	19.44	6.14	
2025-01-15 07:59:58.61	19.47	6.24	
2025-01-15 07:59:59.83	19.51	6.33	
2025-01-15 08:00:01.05	19.55	6.43	
2025-01-15 08:00:02.27	19.58	6.52	
2025-01-15 08:00:03.49	19.62	6.62	
2025-01-15 08:00:04.71	19.66	6.71	
2025-01-15 08:00:05.93	19.69	6.81	
2025-01-15 08:00:07.15	19.73	6.91	
2025-01-15 08:00:08.37	19.77	7.00	
2025-01-15 08:00:09.58	19.80	7.10	
2025-01-15 08:00:10.80	19.84	7.20	
2025-01-15 08:00:12.02	19.88	7.30	
2025-01-15 08:00:13.24	19.92	7.40	
2025-01-15 08:00:14.46	19.96	7.50	
2025-01-15 08:00:15.68	19.99	7.60	
2025-01-15 08:00:16.90	20.03	7.70	
2025-01-15 08:00:18.12	20.07	7.80	
2025-01-15 08:00:19.33	20.11	7.90	
2025-01-15 08:00:20.55	20.15	8.00	
2025-01-15 08:00:21.77	20.19	8.10	
2025-01-15 08:00:22.99	20.23	8.20	
2025-01-15 08:00:24.21	20.27	8.31	
2025-01-15 08:00:25.43	20.31	8.41	
2025-01-15 08:00:26.65	20.35	8.51	
2025-01-15 08:00:27.87	20.40	8.62	
2025-01-15 08:00:29.09	20.44	8.72	
2025-01-15 08:00:30.30	20.48	8.83	
2025-01-15 08:00:31.52	20.52	8.93	
2025-01-15 08:00:32.74	20.56	9.04	
2025-01-15 08:00:33.96	20.61	9.15	
2025-01-15 08:00:35.18	20.65	9.25	
2025-01-15 08:00:36.40	20.69	9.36	
2025-01-15 08:00:37.62	20.74	9.47	
2025-01-15 08:00:38.84	20.78	9.58	
2025-01-15 08:00:40.05	20.82	9.69	
2025-01-15 08:00:41.27	20.87	9.80	
2025-01-15 08:00:42.49	20.91	9.91	
2025-01-15 08:00:43.71	20.96	10.02	
2025-01-15 08:00:44.93	21.00	10.13	
2025-01-15 08:00:46.15	21.05	10.24	
2025-01-15 08:00:47.37	21.10	10.35	
2025-01-15 08:00:48.59	21.14	10.47	
2025-01-15 08:00:49.81	21.19	10.58	
2025-01-15 08:00:51.02	21.24	10.69	
2025-01-15 08:00:52.24	21.28	10.81	
2025-01-15 08:00:53.46	21.33	10.92	
2025-01-15 08:00:54.68	21.38	11.04	
2025-01-15 08:00:55.90	21.43	11.16	
2025-01-15 08:00:57.12	21.48	11.27	
2025-01-15 08:00:58.34	21.53	11.39	
2025-01-15 08:00:59.56	21.58	11.51	
2025-01-15 08:01:00.77	21.63	11.63	
2025-01-15 08:01:01.99	21.68	11.75	
2025-01-15 08:01:03.21	21.73	11.87	
2025-01-15 08:01:04.43	21.78	11.99	
2025-01-15 08:01:05.65	21.83	12.11	
2025-01-15 08:01:06.87	21.88	12.23	
2025-01-15 08:01:08.09	21.94	12.36	
2025-01-15 08:01:09.31	21.99	12.48	
2025-01-15 08:01:10.53	22.04	12.60	
2025-01-15 08:01:11.74	22.10	12.73	
2025-01-15 08:01:12.96	22.15	12.85	
2025-01-15 08:01:14.18	22.21	12.98	
2025-01-15 08:01:15.40	22.26	13.11	
2025-01-15 08:01:16.62	22.32	13.23	
2025-01-15 08:01:17.84	22.37	13.36	
2025-01-15 08:01:19.06	22.43	13.49	
2025-01-15 08:01:20.28	22.49	13.62	
2025-01-15 08:01:21.49	22.54	13.75	
2025-01-15 08:01:22.71	22.60	13.88	
2025-01-15 08:01:23.93	22.66	14.02	
2025-01-15 08:01:25.15	22.72	14.15	
2025-01-15 08:01:26.37	22.78	14.28	
2025-01-15 08:01:27.59	22.84	14.42	
2025-01-15 08:01:28.81	22.90	14.55	
2025-01-15 08:01:30.03	22.96	14.69	
2025-01-15 08:01:31.25	23.02	14.83	
2025-01-15 08:01:32.46	23.09	14.96	
2025-01-15 08:01:33.68	23.15	15.10	
2025-01-15 08:01:34.90	23.21	15.24	
2025-01-15 08:01:36.12	23.28	15.38	
2025-01-15 08:01:37.34	23.34	15.52	
2025-01-15 08:01:38.56	23.41	15.67	
2025-01-15 08:01:39.78	23.47	15.81	
2025-01-15 08:01:41.00	23.54	15.95	
2025-01-15 08:01:42.21	23.61	16.10	
2025-01-15 08:01:43.43	23.67	16.24	
2025-01-15 08:01:44.65	23.74	16.39	
2025-01-15 08:01:45.87	23.81	16.54	
2025-01-15 08:01:47.09	23.88	16.69	
2025-01-15 08:01:48.31	23.95	16.84	
2025-01-15 08:01:49.53	24.02	16.99	
2025-01-15 08:01:50.75	24.09	17.14	
2025-01-15 08:01:51.97	24.17	17.29	
2025-01-15 08:01:53.18	24.24	17.44	
2025-01-15 08:01:54.40	24.31	17.60	
2025-01-15 08:01:55.62	24.39	17.75	
2025-01-15 08:01:56.84	24.46	17.91	
2025-01-15 08:01:58.06	24.54	18.07	
2025-01-15 08:01:59.28	24.62	18.23	
2025-01-15 08:02:00.50	24.70	18.39	
2025-01-15 08:02:01.72	24.78	18.55	
2025-01-15 08:02:02.93	24.85	18.71	
2025-01-15 08:02:04.15	24.93	18.87	
2025-01-15 08:02:05.37	25.02	19.04	
2025-01-15 08:02:06.59	25.10	19.20	
2025-01-15 08:02:07.81	25.18	19.37	
2025-01-15 08:02:09.03	25.27	19.54	
2025-01-15 08:02:10.25	25.35	19.71	
2025-01-15 08:02:11.47	25.44	19.88	
2025-01-15 08:02:12.69	25.52	20.05	
2025-01-15 08:02:13.90	25.61	20.22	
2025-01-15 08:02:15.12	25.70	20.40	
2025-01-15 08:02:16.34	25.79	20.57	
2025-01-15 08:02:17.56	25.88	20.75	
2025-01-15 08:02:18.78	25.97	20.93	
2025-01-15 08:02:20.00	26.06	21.11	
2025-01-15 08:02:21.22	26.16	21.29	
2025-01-15 08:02:22.44	26.25	21.47	
2025-01-15 08:02:23.65	26.35	21.65	
2025-01-15 08:02:24.87	26.45	21.84	
2025-01-15 08:02:26.09	26.54	22.02	
2025-01-15 08:02:27.31	26.64	22.21	
2025-01-15 08:02:28.53	26.74	22.40	
2025-01-15 08:02:29.75	26.85	22.59	
2025-01-15 08:02:30.97	26.95	22.78	
2025-01-15 08:02:32.19	27.06	22.97	
2025-01-15 08:02:33.41	27.16	23.17	
2025-01-15 08:02:34.62	27.27	23.36	
2025-01-15 08:02:35.84	27.38	23.56	
2025-01-15 08:02:37.06	27.49	23.76	
2025-01-15 08:02:38.28	27.60	23.96	
2025-01-15 08:02:39.50	27.71	24.17	
2025-01-15 08:02:40.72	27.82	24.37	
2025-01-15 08:02:41.94	27.94	24.58	
2025-01-15 08:02:43.16	28.06	24.78	
2025-01-15 08:02:44.37	28.18	24.99	
2025-01-15 08:02:45.59	28.30	25.20	
2025-01-15 08:02:46.81	28.42	25.42	
2025-01-15 08:02:48.03	28.54	25.63	
2025-01-15 08:02:49.25	28.67	25.85	
2025-01-15 08:02:50.47	28.79	26.07	
2025-01-15 08:02:51.69	28.92	26.29	
2025-01-15 08:02:52.91	29.05	26.51	
2025-01-15 08:02:54.13	29.19	26.73	
2025-01-15 08:02:55.34	29.32	26.95	
2025-01-15 08:02:56.56	29.46	27.18	
2025-01-15 08:02:57.78	29.60	27.41	
2025-01-15 08:02:59.00	29.74	27.64	
2025-01-15 08:03:00.22	29.88	27.87	
2025-01-15 08:03:01.44	30.02	28.11	
2025-01-15 08:03:02.66	30.17	28.35	
2025-01-15 08:03:03.88	30.32	28.59	
2025-01-15 08:03:05.09	30.47	28.82	
2025-01-15 08:03:06.31	30.62	29.07	
2025-01-15 08:03:07.53	30.78	29.31	
2025-01-15 08:03:08.75	30.93	29.56	
2025-01-15 08:03:09.97	31.10	29.81	
2025-01-15 08:03:11.19	31.26	30.06	
2025-01-15 08:03:12.41	31.42	30.31	
2025-01-15 08:03:13.63	31.59	30.57	
2025-01-15 08:03:14.85	31.76	30.83	
2025-01-15 08:03:16.06	31.94	31.09	
2025-01-15 08:03:17.28	32.11	31.35	
2025-01-15 08:03:18.50	32.29	31.61	
2025-01-15 08:03:19.72	32.47	31.88	
2025-01-15 08:03:20.94	32.66	32.15	
2025-01-15 08:03:22.16	32.85	32.42	
2025-01-15 08:03:23.38	33.04	32.70	
2025-01-15 08:03:24.60	33.23	32.97	
2025-01-15 08:03:25.81	33.43	33.25	
2025-01-15 08:03:27.03	33.63	33.53	
2025-01-15 08:03:28.25	33.84	33.81	
2025-01-15 08:03:29.47	34.05	34.10	
2025-01-15 08:03:30.69	34.26	34.39	
2025-01-15 08:03:31.91	34.48	34.68	
2025-01-15 08:03:33.13	34.70	34.97	
2025-01-15 08:03:34.35	34.92	35.27	
2025-01-15 08:03:35.57	35.15	35.56	
2025-01-15 08:03:36.78	35.38	35.86	
2025-01-15 08:03:38.00	35.62	36.17	
2025-01-15 08:03:39.22	35.86	36.47	
2025-01-15 08:03:40.44	36.10	36.78	
2025-01-15 08:03:41.66	36.36	37.09	
2025-01-15 08:03:42.88	36.61	37.40	
2025-01-15 08:03:44.10	36.87	37.72	
2025-01-15 08:03:45.32	37.14	38.04	
2025-01-15 08:03:46.53	37.41	38.36	
2025-01-15 08:03:47.75	37.68	38.68	
2025-01-15 08:03:48.97	37.97	39.00	
2025-01-15 08:03:50.19	38.25	39.33	
2025-01-15 08:03:51.41	38.55	39.66	
2025-01-15 08:03:52.63	38.85	40.00	
2025-01-15 08:03:53.85	39.15	40.33	
2025-01-15 08:03:55.07	39.47	40.67	
2025-01-15 08:03:56.29	39.78	41.01	
2025-01-15 08:03:57.50	40.11	41.35	
2025-01-15 08:03:58.72	40.44	41.70	
2025-01-15 08:03:59.94	40.78	42.05	
2025-01-15 08:04:01.16	41.13	42.40	
2025-01-15 08:04:02.38	41.48	42.75	
2025-01-15 08:04:03.60	41.85	43.11	
2025-01-15 08:04:04.82	42.22	43.47	
2025-01-15 08:04:06.04	42.60	43.83	
2025-01-15 08:04:07.25	42.98	44.19	
2025-01-15 08:04:08.47	43.38	44.55	
2025-01-15 08:04:09.69	43.79	44.92	
2025-01-15 08:04:10.91	44.21	45.28	
2025-01-15 08:04:12.13	44.63	45.65	
2025-01-15 08:04:13.35	45.07	46.03	
2025-01-15 08:04:14.57	45.51	46.40	
2025-01-15 08:04:15.79	45.97	46.78	
2025-01-15 08:04:17.01	46.44	47.15	
2025-01-15 08:04:18.22	46.92	47.53	
2025-01-15 08:04:19.44	47.41	47.91	
2025-01-15 08:04:20.66	47.91	48.29	
2025-01-15 08:04:21.88	48.43	48.67	
2025-01-15 08:04:23.10	48.96	49.06	
2025-01-15 08:04:24.32	49.50	49.44	
2025-01-15 08:04:25.54	50.06	49.83	
2025-01-15 08:04:26.76	50.63	50.21	
2025-01-15 08:04:27.97	51.21	50.59	
2025-01-15 08:04:29.19	51.82	50.98	
2025-01-15 08:04:30.41	52.43	51.37	
2025-01-15 08:04:31.63	53.07	51.75	
2025-01-15 08:04:32.85	53.72	52.14	
2025-01-15 08:04:34.07	54.38	52.52	
2025-01-15 08:04:35.29	55.07	52.91	
2025-01-15 08:04:36.51	55.77	53.29	
2025-01-15 08:04:37.73	56.49	53.67	
2025-01-15 08:04:38.94	57.23	54.05	
2025-01-15 08:04:40.16	57.99	54.43	
2025-01-15 08:04:41.38	58.77	54.81	
2025-01-15 08:04:42.60	59.57	55.18	
2025-01-15 08:04:43.82	60.40	55.55	
2025-01-15 08:04:45.04	61.24	55.92	
2025-01-15 08:04:46.26	62.11	56.28	
2025-01-15 08:04:47.48	63.00	56.64	
2025-01-15 08:04:48.69	63.91	56.99	
2025-01-15 08:04:49.91	64.85	57.34	
2025-01-15 08:04:51.13	65.81	57.69	
2025-01-15 08:04:52.35	66.80	58.03	
2025-01-15 08:04:53.57	67.81	58.37	
2025-01-15 08:04:54.79	68.85	58.69	
2025-01-15 08:04:56.01	69.91	59.01	
2025-01-15 08:04:57.23	71.00	59.33	
2025-01-15 08:04:58.45	72.12	59.63	
2025-01-15 08:04:59.66	73.25	59.93	
2025-01-15 08:05:00.88	74.42	60.22	
2025-01-15 08:05:02.10	75.62	60.50	
2025-01-15 08:05:03.32	76.84	60.77	
2025-01-15 08:05:04.54	78.09	61.02	
2025-01-15 08:05:05.76	79.36	61.27	
2025-01-15 08:05:06.98	80.65	61.51	
2025-01-15 08:05:08.20	81.98	61.73	
2025-01-15 08:05:09.41	83.31	61.94	
2025-01-15 08:05:10.63	84.68	62.14	
2025-01-15 08:05:11.85	86.07	62.33	
2025-01-15 08:05:13.07	87.48	62.50	
2025-01-15 08:05:14.29	88.91	62.66	
2025-01-15 08:05:15.51	90.36	62.80	
2025-01-15 08:05:16.73	91.82	62.93	
2025-01-15 08:05:17.95	93.30	63.04	
2025-01-15 08:05:19.17	94.79	63.14	
2025-01-15 08:05:20.38	96.28	63.22	
2025-01-15 08:05:21.60	97.80	63.28	
2025-01-15 08:05:22.82	99.32	63.33	
2025-01-15 08:05:24.04	100.84	63.36	
2025-01-15 08:05:25.26	102.37	63.38	
2025-01-15 08:05:26.48	103.90	63.38	
2025-01-15 08:05:27.70	105.43	63.36	
2025-01-15 08:05:28.92	106.96	63.33	
2025-01-15 08:05:30.13	108.46	63.28	
2025-01-15 08:05:31.35	109.98	63.21	
2025-01-15 08:05:32.57	111.48	63.13	
2025-01-15 08:05:33.79	112.97	63.03	
2025-01-15 08:05:35.01	114.45	62.91	
2025-01-15 08:05:36.23	115.91	62.78	
2025-01-15 08:05:37.45	117.36	62.64	
2025-01-15 08:05:38.67	118.79	62.48	
2025-01-15 08:05:39.89	120.19	62.30	
2025-01-15 08:05:41.10	121.57	62.12	
2025-01-15 08:05:42.32	122.94	61.92	
2025-01-15 08:05:43.54	124.28	61.70	
2025-01-15 08:05:44.76	125.60	61.48	
2025-01-15 08:05:45.98	126.90	61.24	
2025-01-15 08:05:47.20	128.17	60.99	
2025-01-15 08:05:48.42	129.41	60.73	
2025-01-15 08:05:49.64	130.63	60.46	
2025-01-15 08:05:50.85	131.81	60.18	
2025-01-15 08:05:52.07	132.98	59.89	
2025-01-15 08:05:53.29	134.12	59.59	
2025-01-15 08:05:54.51	135.24	59.28	
2025-01-15 08:05:55.73	136.32	58.97	
2025-01-15 08:05:56.95	137.39	58.64	
2025-01-15 08:05:58.17	138.42	58.31	
2025-01-15 08:05:59.39	139.43	57.98	
2025-01-15 08:06:00.61	140.42	57.63	
2025-01-15 08:06:01.82	141.37	57.29	
2025-01-15 08:06:03.04	142.31	56.94	
2025-01-15 08:06:04.26	143.22	56.58	
2025-01-15 08:06:05.48	144.11	56.22	
2025-01-15 08:06:06.70	144.98	55.85	
2025-01-15 08:06:07.92	145.82	55.48	
2025-01-15 08:06:09.14	146.64	55.11	
2025-01-15 08:06:10.36	147.44	54.74	
2025-01-15 08:06:11.57	148.22	54.36	
2025-01-15 08:06:12.79	148.97	53.98	
2025-01-15 08:06:14.01	149.71	53.60	
2025-01-15 08:06:15.23	150.43	53.22	
2025-01-15 08:06:16.45	151.14	52.83	
2025-01-15 08:06:17.67	151.82	52.45	
2025-01-15 08:06:18.89	152.49	52.06	
2025-01-15 08:06:20.11	153.13	51.67	
2025-01-15 08:06:21.33	153.77	51.29	
2025-01-15 08:06:22.54	154.38	50.90	
2025-01-15 08:06:23.76	154.98	50.51	
2025-01-15 08:06:24.98	155.56	50.13	
2025-01-15 08:06:26.20	156.13	49.74	
2025-01-15 08:06:27.42	156.69	49.35	
2025-01-15 08:06:28.64	157.23	48.97	
2025-01-15 08:06:29.86	157.76	48.58	
2025-01-15 08:06:31.08	158.28	48.20	
2025-01-15 08:06:32.29	158.78	47.82	
2025-01-15 08:06:33.51	159.27	47.44	
2025-01-15 08:06:34.73	159.75	47.06	
2025-01-15 08:06:35.95	160.21	46.68	
2025-01-15 08:06:37.17	160.67	46.30	
2025-01-15 08:06:38.39	161.12	45.93	
2025-01-15 08:06:39.61	161.55	45.55	
2025-01-15 08:06:40.83	161.98	45.18	
2025-01-15 08:06:42.05	162.39	44.81	
2025-01-15 08:06:43.26	162.79	44.45	
2025-01-15 08:06:44.48	163.19	44.08	
2025-01-15 08:06:45.70	163.58	43.72	
2025-01-15 08:06:46.92	163.96	43.36	
2025-01-15 08:06:48.14	164.33	43.00	
2025-01-15 08:06:49.36	164.69	42.64	
2025-01-15 08:06:50.58	165.04	42.29	
2025-01-15 08:06:51.80	165.39	41.94	
2025-01-15 08:06:53.01	165.73	41.59	
2025-01-15 08:06:54.23	166.06	41.24	
2025-01-15 08:06:55.45	166.39	40.90	
2025-01-15 08:06:56.67	166.70	40.56	
2025-01-15 08:06:57.89	167.02	40.22	
2025-01-15 08:06:59.11	167.32	39.88	
2025-01-15 08:07:00.33	167.62	39.55	
2025-01-15 08:07:01.55	167.91	39.21	
2025-01-15 08:07:02.77	168.20	38.89	
2025-01-15 08:07:03.98	168.48	38.56	
2025-01-15 08:07:05.20	168.75	38.24	
2025-01-15 08:07:06.42	169.03	37.91	
2025-01-15 08:07:07.64	169.29	37.60	
2025-01-15 08:07:08.86	169.55	37.28	
2025-01-15 08:07:10.08	169.81	36.96	
2025-01-15 08:07:11.30	170.06	36.65	
2025-01-15 08:07:12.52	170.30	36.34	
2025-01-15 08:07:13.73	170.54	36.04	
2025-01-15 08:07:14.95	170.78	35.74	
2025-01-15 08:07:16.17	171.01	35.43	
2025-01-15 08:07:17.39	171.24	35.14	
2025-01-15 08:07:18.61	171.46	34.84	
2025-01-15 08:07:19.83	171.68	34.55	
2025-01-15 08:07:21.05	171.89	34.25	
2025-01-15 08:07:22.27	172.11	33.96	
2025-01-15 08:07:23.49	172.31	33.68	
2025-01-15 08:07:24.70	172.52	33.40	
2025-01-15 08:07:25.92	172.72	33.11	
2025-01-15 08:07:27.14	172.92	32.84	
2025-01-15 08:07:28.36	173.11	32.56	
2025-01-15 08:07:29.58	173.30	32.28	
2025-01-15 08:07:30.80	173.49	32.01	
2025-01-15 08:07:32.02	173.67	31.74	
2025-01-15 08:07:33.24	173.86	31.47	
2025-01-15 08:07:34.45	174.03	31.21	
2025-01-15 08:07:35.67	174.21	30.95	
2025-01-15 08:07:36.89	174.38	30.69	
2025-01-15 08:07:38.11	174.55	30.43	
2025-01-15 08:07:39.33	174.72	30.17	
2025-01-15 08:07:40.55	174.89	29.92	
2025-01-15 08:07:41.77	175.05	29.67	
2025-01-15 08:07:42.99	175.21	29.42	
2025-01-15 08:07:44.21	175.36	29.17	
2025-01-15 08:07:45.42	175.52	28.92	
2025-01-15 08:07:46.64	175.67	28.68	
2025-01-15 08:07:47.86	175.82	28.44	
2025-01-15 08:07:49.08	175.97	28.20	
2025-01-15 08:07:50.30	176.12	27.96	
2025-01-15 08:07:51.52	176.26	27.73	
2025-01-15 08:07:52.74	176.40	27.49	
2025-01-15 08:07:53.96	176.54	27.26	
2025-01-15 08:07:55.17	176.68	27.03	
2025-01-15 08:07:56.39	176.81	26.80	
2025-01-15 08:07:57.61	176.95	26.58	
2025-01-15 08:07:58.83	177.08	26.35	
2025-01-15 08:08:00.05	177.21	26.13	
2025-01-15 08:08:01.27	177.34	25.91	
2025-01-15 08:08:02.49	177.46	25.69	
2025-01-15 08:08:03.71	177.59	25.48	
2025-01-15 08:08:04.93	177.71	25.26	
2025-01-15 08:08:06.14	177.83	25.05	
2025-01-15 08:08:07.36	177.95	24.84	
2025-01-15 08:08:08.58	178.07	24.63	
2025-01-15 08:08:09.80	178.19	24.42	
2025-01-15 08:08:11.02	178.30	24.21	
2025-01-15 08:08:12.24	178.42	24.01	
2025-01-15 08:08:13.46	178.53	23.81	
2025-01-15 08:08:14.68	178.64	23.60	
2025-01-15 08:08:15.89	178.75	23.41	
2025-01-15 08:08:17.11	178.85	23.21	
2025-01-15 08:08:18.35	178.96	23.01	
2025-01-15 08:08:19.57	179.07	22.81	
2025-01-15 08:08:20.79	179.17	22.62	
2025-01-15 08:08:22.00	179.27	22.43	
2025-01-15 08:08:23.22	179.38	22.24	
2025-01-15 08:08:24.44	179.48	22.05	
2025-01-15 08:08:25.66	179.57	21.86	
2025-01-15 08:08:26.88	179.67	21.67	
2025-01-15 08:08:28.10	179.77	21.49	
2025-01-15 08:08:29.32	179.86	21.30	
2025-01-15 08:08:30.54	179.96	21.12	
2025-01-15 08:08:31.75	180.05	20.94	
2025-01-15 08:08:32.97	180.14	20.76	
2025-01-15 08:08:34.19	180.23	20.58	
2025-01-15 08:08:35.41	180.32	20.40	
2025-01-15 08:08:36.63	180.41	20.23	
2025-01-15 08:08:37.85	180.50	20.05	
2025-01-15 08:08:39.07	180.59	19.88	
2025-01-15 08:08:40.29	180.67	19.71	
2025-01-15 08:08:41.51	180.76	19.54	
2025-01-15 08:08:42.72	180.84	19.37	
2025-01-15 08:08:43.94	180.93	19.20	
2025-01-15 08:08:45.16	181.01	19.03	
2025-01-15 08:08:46.38	181.09	18.87	
2025-01-15 08:08:47.60	181.17	18.70	
2025-01-15 08:08:48.82	181.25	18.54	
2025-01-15 08:08:50.04	181.33	18.38	
2025-01-15 08:08:51.26	181.41	18.22	
2025-01-15 08:08:52.47	181.48	18.06	
2025-01-15 08:08:53.69	181.56	17.90	
2025-01-15 08:08:54.91	181.64	17.74	
2025-01-15 08:08:56.13	181.71	17.58	
2025-01-15 08:08:57.35	181.78	17.43	
2025-01-15 08:08:58.57	181.86	17.27	
2025-01-15 08:08:59.79	181.93	17.12	
2025-01-15 08:09:01.01	182.00	16.96	
2025-01-15 08:09:02.23	182.07	16.81	
2025-01-15 08:09:03.44	182.14	16.66	
2025-01-15 08:09:04.66	182.21	16.51	
2025-01-15 08:09:05.88	182.28	16.36	
2025-01-15 08:09:07.10	182.35	16.22	
2025-01-15 08:09:08.32	182.42	16.07	
2025-01-15 08:09:09.54	182.48	15.92	
2025-01-15 08:09:10.76	182.55	15.78	
2025-01-15 08:09:11.98	182.62	15.63	
2025-01-15 08:09:13.19	182.68	15.49	
2025-01-15 08:09:14.41	182.75	15.35	
2025-01-15 08:09:15.63	182.81	15.21	
2025-01-15 08:09:16.85	182.87	15.07	
2025-01-15 08:09:18.07	182.94	14.93	
2025-01-15 08:09:19.29	183.00	14.79	
2025-01-15 08:09:20.51	183.06	14.65	
2025-01-15 08:09:21.73	183.12	14.51	
2025-01-15 08:09:22.95	183.18	14.37	
2025-01-15 08:09:24.16	183.24	14.24	
2025-01-15 08:09:25.38	183.30	14.10	
2025-01-15 08:09:26.60	183.36	13.97	
2025-01-15 08:09:27.82	183.42	13.84	
2025-01-15 08:09:29.04	183.47	13.70	
2025-01-15 08:09:30.26	183.53	13.57	
2025-01-15 08:09:31.48	183.59	13.44	
2025-01-15 08:09:32.70	183.64	13.31	
2025-01-15 08:09:33.91	183.70	13.18	
2025-01-15 08:09:35.13	183.76	13.05	
2025-01-15 08:09:36.35	183.81	12.93	
2025-01-15 08:09:37.57	183.86	12.80	
2025-01-15 08:09:38.79	183.92	12.67	
2025-01-15 08:09:40.01	183.97	12.55	
2025-01-15 08:09:41.23	184.02	12.42	
2025-01-15 08:09:42.45	184.08	12.30	
2025-01-15 08:09:43.67	184.13	12.17	
2025-01-15 08:09:44.88	184.18	12.05	
2025-01-15 08:09:46.10	184.23	11.93	
2025-01-15 08:09:47.32	184.28	11.81	
2025-01-15 08:09:48.54	184.33	11.69	
2025-01-15 08:09:49.76	184.38	11.56	
2025-01-15 08:09:50.98	184.43	11.44	
2025-01-15 08:09:52.20	184.48	11.33	
2025-01-15 08:09:53.42	184.53	11.21	
2025-01-15 08:09:54.63	184.58	11.09	
2025-01-15 08:09:55.85	184.63	10.97	
2025-01-15 08:09:57.07	184.67	10.86	
2025-01-15 08:09:58.29	184.72	10.74	
2025-01-15 08:09:59.51	184.77	10.62	
2025-01-15 08:10:00.73	184.82	10.51	
2025-01-15 08:10:01.95	184.86	10.39	
2025-01-15 08:10:03.17	184.91	10.28	
2025-01-15 08:10:04.39	184.95	10.17	
2025-01-15 08:10:05.60	185.00	10.06	
2025-01-15 08:10:06.82	185.04	9.94	
2025-01-15 08:10:08.04	185.09	9.83	
2025-01-15 08:10:09.26	185.13	9.72	
2025-01-15 08:10:10.48	185.18	9.61	
2025-01-15 08:10:11.70	185.22	9.50	
2025-01-15 08:10:12.92	185.26	9.39	
2025-01-15 08:10:14.14	185.30	9.28	
2025-01-15 08:10:15.35	185.35	9.17	
2025-01-15 08:10:16.57	185.39	9.07	
2025-01-15 08:10:17.79	185.43	8.96	
2025-01-15 08:10:19.01	185.47	8.85	
2025-01-15 08:10:20.23	185.51	8.74	
2025-01-15 08:10:21.45	185.56	8.64	
2025-01-15 08:10:22.67	185.60	8.53	
2025-01-15 08:10:23.89	185.64	8.43	
2025-01-15 08:10:25.11	185.68	8.32	
2025-01-15 08:10:26.32	185.72	8.22	
2025-01-15 08:10:27.54	185.76	8.12	
2025-01-15 08:10:28.76	185.80	8.01	
2025-01-15 08:10:29.98	185.83	7.91	
2025-01-15 08:10:31.20	185.87	7.81	
2025-01-15 08:10:32.42	185.91	7.71	
2025-01-15 08:10:33.64	185.95	7.61	
2025-01-15 08:10:34.86	185.99	7.51	
2025-01-15 08:10:36.07	186.03	7.41	
2025-01-15 08:10:37.29	186.06	7.31	
2025-01-15 08:10:38.51	186.10	7.21	
2025-01-15 08:10:39.73	186.14	7.11	
2025-01-15 08:10:40.95	186.17	7.01	
2025-01-15 08:10:42.17	186.21	6.91	
2025-01-15 08:10:43.39	186.25	6.81	
2025-01-15 08:10:44.61	186.28	6.71	
2025-01-15 08:10:45.83	186.32	6.62	
2025-01-15 08:10:47.04	186.35	6.52	
2025-01-15 08:10:48.26	186.39	6.43	
2025-01-15 08:10:49.48	186.42	6.33	
2025-01-15 08:10:50.70	186.46	6.23	
2025-01-15 08:10:51.92	186.49	6.14	
2025-01-15 08:10:53.14	186.53	6.04	
2025-01-15 08:10:54.36	186.56	5.95	
2025-01-15 08:10:55.58	186.60	5.86	
2025-01-15 08:10:56.79	186.63	5.76	
2025-01-15 08:10:58.01	186.66	5.67	
2025-01-15 08:10:59.23	186.70	5.58	
2025-01-15 08:11:00.45	186.73	5.48	
2025-01-15 08:11:01.67	186.76	5.39	
2025-01-15 08:11:02.89	186.80	5.30	
2025-01-15 08:11:04.11	186.83	5.21	
2025-01-15 08:11:05.33	186.86	5.12	
2025-01-15 08:11:06.55	186.89	5.03	
2025-01-15 08:11:07.76	186.93	4.94	
2025-01-15 08:11:08.98	186.96	4.85	
2025-01-15 08:11:10.20	186.99	4.76	
2025-01-15 08:11:11.42	187.02	4.67	
2025-01-15 08:11:12.64	187.05	4.58	
2025-01-15 08:11:13.86	187.08	4.49	
2025-01-15 08:11:15.08	187.11	4.40	
2025-01-15 08:11:16.30	187.15	4.31	
2025-01-15 08:11:17.51	187.18	4.22	
2025-01-15 08:11:18.73	187.21	4.14	
2025-01-15 08:11:19.95	187.24	4.05	

#Closed at: 2025-01-15 08:11:20