passes_logs/2025/01/15/SPB_Silybum_02/SPB_Silybum_02__20250115_093716_TERRA_rec.log

#Pass ID: 20250115_093716_TERRA
#Satellite: TERRA
#Configuration: TERRA
#Start time: 2025-01-15 09:37:16

#Version: 2.0.20230423
#Station: SPB_Silybum_02
#Location: 30.233357 lon 59.946436 lat
#TLE: 1 25994U 99068A   25014.85746573  .00000777  00000+0  16972-3 0  9996
#TLE: 2 25994  98.0216  77.8924 0003456  72.8612  46.8876 14.60394566334056

#Time	Az	El	Level	Level2	SNR	BER	Gain	Gain2
2025-01-15 09:37:18.74	11.09	4.18	
2025-01-15 09:37:19.96	11.02	4.26	
2025-01-15 09:37:21.18	10.94	4.34	
2025-01-15 09:37:22.40	10.86	4.43	
2025-01-15 09:37:23.61	10.79	4.51	
2025-01-15 09:37:24.83	10.71	4.59	
2025-01-15 09:37:26.05	10.63	4.67	
2025-01-15 09:37:27.27	10.55	4.76	
2025-01-15 09:37:28.49	10.48	4.84	
2025-01-15 09:37:29.70	10.40	4.92	
2025-01-15 09:37:30.92	10.32	5.00	
2025-01-15 09:37:32.14	10.24	5.09	
2025-01-15 09:37:33.36	10.16	5.17	
2025-01-15 09:37:34.57	10.08	5.26	
2025-01-15 09:37:35.79	9.99	5.34	
2025-01-15 09:37:37.01	9.91	5.43	
2025-01-15 09:37:38.23	9.83	5.51	
2025-01-15 09:37:39.45	9.74	5.60	
2025-01-15 09:37:40.66	9.66	5.68	
2025-01-15 09:37:41.88	9.58	5.77	
2025-01-15 09:37:43.10	9.49	5.85	
2025-01-15 09:37:44.32	9.40	5.94	
2025-01-15 09:37:45.53	9.32	6.03	
2025-01-15 09:37:46.75	9.23	6.11	
2025-01-15 09:37:47.97	9.14	6.20	
2025-01-15 09:37:49.19	9.06	6.29	
2025-01-15 09:37:50.40	8.97	6.37	
2025-01-15 09:37:51.62	8.88	6.46	
2025-01-15 09:37:52.84	8.79	6.55	
2025-01-15 09:37:54.06	8.70	6.64	
2025-01-15 09:37:55.28	8.61	6.73	
2025-01-15 09:37:56.49	8.51	6.82	
2025-01-15 09:37:57.71	8.42	6.91	
2025-01-15 09:37:58.93	8.33	7.00	
2025-01-15 09:38:00.15	8.23	7.09	
2025-01-15 09:38:01.36	8.14	7.17	
2025-01-15 09:38:02.58	8.04	7.26	
2025-01-15 09:38:03.80	7.95	7.36	
2025-01-15 09:38:05.02	7.85	7.45	
2025-01-15 09:38:06.23	7.76	7.54	
2025-01-15 09:38:07.45	7.66	7.63	
2025-01-15 09:38:08.67	7.56	7.72	
2025-01-15 09:38:09.89	7.46	7.81	
2025-01-15 09:38:11.11	7.36	7.91	
2025-01-15 09:38:12.32	7.26	8.00	
2025-01-15 09:38:13.54	7.16	8.09	
2025-01-15 09:38:14.76	7.05	8.18	
2025-01-15 09:38:15.98	6.95	8.28	
2025-01-15 09:38:17.19	6.85	8.37	
2025-01-15 09:38:18.41	6.74	8.46	
2025-01-15 09:38:19.63	6.64	8.56	
2025-01-15 09:38:20.85	6.53	8.65	
2025-01-15 09:38:22.06	6.43	8.75	
2025-01-15 09:38:23.28	6.32	8.84	
2025-01-15 09:38:24.50	6.21	8.94	
2025-01-15 09:38:25.72	6.10	9.04	
2025-01-15 09:38:26.94	5.99	9.13	
2025-01-15 09:38:28.15	5.88	9.23	
2025-01-15 09:38:29.37	5.77	9.33	
2025-01-15 09:38:30.59	5.66	9.42	
2025-01-15 09:38:31.81	5.54	9.52	
2025-01-15 09:38:33.02	5.43	9.62	
2025-01-15 09:38:34.24	5.31	9.72	
2025-01-15 09:38:35.46	5.20	9.81	
2025-01-15 09:38:36.68	5.08	9.91	
2025-01-15 09:38:37.90	4.96	10.01	
2025-01-15 09:38:39.11	4.84	10.11	
2025-01-15 09:38:40.33	4.72	10.21	
2025-01-15 09:38:41.55	4.60	10.31	
2025-01-15 09:38:42.77	4.48	10.41	
2025-01-15 09:38:43.98	4.36	10.51	
2025-01-15 09:38:45.20	4.24	10.61	
2025-01-15 09:38:46.42	4.11	10.72	
2025-01-15 09:38:47.64	3.99	10.82	
2025-01-15 09:38:48.85	3.86	10.92	
2025-01-15 09:38:50.07	3.74	11.02	
2025-01-15 09:38:51.29	3.61	11.12	
2025-01-15 09:38:52.51	3.48	11.23	
2025-01-15 09:38:53.73	3.35	11.33	
2025-01-15 09:38:54.94	3.22	11.43	
2025-01-15 09:38:56.16	3.08	11.54	
2025-01-15 09:38:57.38	2.95	11.64	
2025-01-15 09:38:58.60	2.82	11.75	
2025-01-15 09:38:59.81	2.68	11.85	
2025-01-15 09:39:01.03	2.55	11.96	
2025-01-15 09:39:02.25	2.41	12.07	
2025-01-15 09:39:03.47	2.27	12.17	
2025-01-15 09:39:04.68	2.13	12.28	
2025-01-15 09:39:05.90	1.99	12.38	
2025-01-15 09:39:07.12	1.85	12.49	
2025-01-15 09:39:08.34	1.70	12.60	
2025-01-15 09:39:09.56	1.56	12.71	
2025-01-15 09:39:10.77	1.41	12.82	
2025-01-15 09:39:11.99	1.27	12.93	
2025-01-15 09:39:13.21	1.12	13.03	
2025-01-15 09:39:14.43	0.97	13.14	
2025-01-15 09:39:15.64	0.82	13.25	
2025-01-15 09:39:16.86	0.67	13.36	
2025-01-15 09:39:18.08	0.52	13.47	
2025-01-15 09:39:19.30	0.36	13.59	
2025-01-15 09:39:20.51	0.21	13.70	
2025-01-15 09:39:21.73	0.05	13.81	
2025-01-15 09:39:22.95	359.89	13.92	
2025-01-15 09:39:24.17	359.73	14.03	
2025-01-15 09:39:25.39	359.57	14.15	
2025-01-15 09:39:26.60	359.41	14.26	
2025-01-15 09:39:27.82	359.25	14.37	
2025-01-15 09:39:29.04	359.08	14.49	
2025-01-15 09:39:30.26	358.92	14.60	
2025-01-15 09:39:31.47	358.75	14.71	
2025-01-15 09:39:32.69	358.58	14.83	
2025-01-15 09:39:33.91	358.41	14.94	
2025-01-15 09:39:35.13	358.24	15.06	
2025-01-15 09:39:36.35	358.06	15.18	
2025-01-15 09:39:37.56	357.89	15.29	
2025-01-15 09:39:38.78	357.71	15.41	
2025-01-15 09:39:40.00	357.54	15.53	
2025-01-15 09:39:41.22	357.36	15.64	
2025-01-15 09:39:42.43	357.18	15.76	
2025-01-15 09:39:43.65	356.99	15.88	
2025-01-15 09:39:44.87	356.81	16.00	
2025-01-15 09:39:46.09	356.62	16.12	
2025-01-15 09:39:47.30	356.44	16.24	
2025-01-15 09:39:48.52	356.25	16.35	
2025-01-15 09:39:49.74	356.06	16.47	
2025-01-15 09:39:50.96	355.87	16.60	
2025-01-15 09:39:52.18	355.67	16.72	
2025-01-15 09:39:53.39	355.48	16.84	
2025-01-15 09:39:54.61	355.28	16.96	
2025-01-15 09:39:55.83	355.08	17.08	
2025-01-15 09:39:57.05	354.88	17.20	
2025-01-15 09:39:58.26	354.68	17.32	
2025-01-15 09:39:59.48	354.48	17.44	
2025-01-15 09:40:00.70	354.27	17.57	
2025-01-15 09:40:01.92	354.06	17.69	
2025-01-15 09:40:03.13	353.85	17.81	
2025-01-15 09:40:04.35	353.64	17.94	
2025-01-15 09:40:05.57	353.43	18.06	
2025-01-15 09:40:06.79	353.21	18.19	
2025-01-15 09:40:08.01	353.00	18.31	
2025-01-15 09:40:09.22	352.78	18.43	
2025-01-15 09:40:10.44	352.56	18.56	
2025-01-15 09:40:11.66	352.33	18.68	
2025-01-15 09:40:12.88	352.11	18.81	
2025-01-15 09:40:14.09	351.88	18.94	
2025-01-15 09:40:15.31	351.65	19.06	
2025-01-15 09:40:16.53	351.42	19.19	
2025-01-15 09:40:17.75	351.19	19.32	
2025-01-15 09:40:18.96	350.96	19.44	
2025-01-15 09:40:20.18	350.72	19.57	
2025-01-15 09:40:21.40	350.48	19.70	
2025-01-15 09:40:22.62	350.24	19.82	
2025-01-15 09:40:23.84	349.99	19.95	
2025-01-15 09:40:25.05	349.75	20.08	
2025-01-15 09:40:26.27	349.50	20.21	
2025-01-15 09:40:27.49	349.25	20.33	
2025-01-15 09:40:28.71	349.00	20.46	
2025-01-15 09:40:29.92	348.74	20.59	
2025-01-15 09:40:31.14	348.49	20.72	
2025-01-15 09:40:32.36	348.23	20.85	
2025-01-15 09:40:33.58	347.96	20.98	
2025-01-15 09:40:34.80	347.70	21.11	
2025-01-15 09:40:36.01	347.44	21.23	
2025-01-15 09:40:37.23	347.17	21.36	
2025-01-15 09:40:38.45	346.90	21.49	
2025-01-15 09:40:39.67	346.62	21.62	
2025-01-15 09:40:40.88	346.35	21.75	
2025-01-15 09:40:42.10	346.07	21.88	
2025-01-15 09:40:43.32	345.79	22.01	
2025-01-15 09:40:44.54	345.50	22.14	
2025-01-15 09:40:45.75	345.22	22.27	
2025-01-15 09:40:46.97	344.93	22.40	
2025-01-15 09:40:48.19	344.64	22.53	
2025-01-15 09:40:49.41	344.35	22.66	
2025-01-15 09:40:50.63	344.05	22.78	
2025-01-15 09:40:51.84	343.75	22.91	
2025-01-15 09:40:53.06	343.45	23.04	
2025-01-15 09:40:54.28	343.15	23.17	
2025-01-15 09:40:55.50	342.84	23.30	
2025-01-15 09:40:56.71	342.53	23.43	
2025-01-15 09:40:57.93	342.22	23.56	
2025-01-15 09:40:59.15	341.90	23.68	
2025-01-15 09:41:00.37	341.59	23.81	
2025-01-15 09:41:01.58	341.27	23.94	
2025-01-15 09:41:02.80	340.94	24.07	
2025-01-15 09:41:04.02	340.62	24.19	
2025-01-15 09:41:05.24	340.29	24.32	
2025-01-15 09:41:06.46	339.96	24.45	
2025-01-15 09:41:07.67	339.63	24.57	
2025-01-15 09:41:08.89	339.29	24.70	
2025-01-15 09:41:10.11	338.95	24.82	
2025-01-15 09:41:11.33	338.60	24.95	
2025-01-15 09:41:12.54	338.26	25.07	
2025-01-15 09:41:13.76	337.91	25.19	
2025-01-15 09:41:14.98	337.56	25.32	
2025-01-15 09:41:16.20	337.21	25.44	
2025-01-15 09:41:17.41	336.85	25.56	
2025-01-15 09:41:18.63	336.49	25.68	
2025-01-15 09:41:19.85	336.13	25.80	
2025-01-15 09:41:21.07	335.76	25.92	
2025-01-15 09:41:22.29	335.39	26.04	
2025-01-15 09:41:23.50	335.02	26.16	
2025-01-15 09:41:24.72	334.65	26.28	
2025-01-15 09:41:25.94	334.27	26.40	
2025-01-15 09:41:27.16	333.89	26.52	
2025-01-15 09:41:28.37	333.51	26.63	
2025-01-15 09:41:29.59	333.12	26.75	
2025-01-15 09:41:30.81	332.73	26.86	
2025-01-15 09:41:32.03	332.34	26.97	
2025-01-15 09:41:33.24	331.95	27.09	
2025-01-15 09:41:34.46	331.55	27.20	
2025-01-15 09:41:35.68	331.15	27.31	
2025-01-15 09:41:36.90	330.74	27.42	
2025-01-15 09:41:38.12	330.33	27.52	
2025-01-15 09:41:39.33	329.93	27.63	
2025-01-15 09:41:40.55	329.51	27.74	
2025-01-15 09:41:41.77	329.10	27.84	
2025-01-15 09:41:42.99	328.68	27.95	
2025-01-15 09:41:44.20	328.26	28.05	
2025-01-15 09:41:45.42	327.84	28.15	
2025-01-15 09:41:46.64	327.41	28.25	
2025-01-15 09:41:47.86	326.98	28.35	
2025-01-15 09:41:49.08	326.55	28.44	
2025-01-15 09:41:50.29	326.12	28.54	
2025-01-15 09:41:51.51	325.68	28.63	
2025-01-15 09:41:52.73	325.24	28.73	
2025-01-15 09:41:53.95	324.79	28.82	
2025-01-15 09:41:55.16	324.35	28.91	
2025-01-15 09:41:56.38	323.90	28.99	
2025-01-15 09:41:57.60	323.45	29.08	
2025-01-15 09:41:58.82	323.00	29.17	
2025-01-15 09:42:00.03	322.55	29.25	
2025-01-15 09:42:01.25	322.09	29.33	
2025-01-15 09:42:02.47	321.63	29.41	
2025-01-15 09:42:03.69	321.16	29.49	
2025-01-15 09:42:04.91	320.70	29.56	
2025-01-15 09:42:06.12	320.23	29.64	
2025-01-15 09:42:07.34	319.76	29.71	
2025-01-15 09:42:08.56	319.29	29.78	
2025-01-15 09:42:09.78	318.82	29.85	
2025-01-15 09:42:10.99	318.35	29.91	
2025-01-15 09:42:12.21	317.87	29.98	
2025-01-15 09:42:13.43	317.39	30.04	
2025-01-15 09:42:14.65	316.90	30.10	
2025-01-15 09:42:15.86	316.42	30.16	
2025-01-15 09:42:17.08	315.94	30.21	
2025-01-15 09:42:18.30	315.45	30.27	
2025-01-15 09:42:19.52	314.96	30.32	
2025-01-15 09:42:20.74	314.47	30.37	
2025-01-15 09:42:21.95	313.98	30.42	
2025-01-15 09:42:23.17	313.49	30.46	
2025-01-15 09:42:24.39	312.99	30.50	
2025-01-15 09:42:25.61	312.49	30.55	
2025-01-15 09:42:26.82	312.00	30.58	
2025-01-15 09:42:28.04	311.50	30.62	
2025-01-15 09:42:29.26	311.00	30.65	
2025-01-15 09:42:30.48	310.50	30.68	
2025-01-15 09:42:31.69	310.00	30.71	
2025-01-15 09:42:32.91	309.50	30.74	
2025-01-15 09:42:34.13	308.99	30.76	
2025-01-15 09:42:35.35	308.49	30.79	
2025-01-15 09:42:36.57	307.98	30.81	
2025-01-15 09:42:37.78	307.48	30.82	
2025-01-15 09:42:39.00	306.97	30.84	
2025-01-15 09:42:40.22	306.47	30.85	
2025-01-15 09:42:41.44	305.96	30.86	
2025-01-15 09:42:42.65	305.46	30.87	
2025-01-15 09:42:43.87	304.95	30.87	
2025-01-15 09:42:45.09	304.44	30.87	
2025-01-15 09:42:46.31	303.93	30.87	
2025-01-15 09:42:47.53	303.42	30.87	
2025-01-15 09:42:48.74	302.92	30.86	
2025-01-15 09:42:49.96	302.41	30.86	
2025-01-15 09:42:51.18	301.90	30.85	
2025-01-15 09:42:52.40	301.40	30.83	
2025-01-15 09:42:53.61	300.90	30.82	
2025-01-15 09:42:54.83	300.39	30.80	
2025-01-15 09:42:56.05	299.88	30.78	
2025-01-15 09:42:57.27	299.38	30.76	
2025-01-15 09:42:58.48	298.88	30.73	
2025-01-15 09:42:59.70	298.37	30.71	
2025-01-15 09:43:00.92	297.87	30.68	
2025-01-15 09:43:02.14	297.37	30.65	
2025-01-15 09:43:03.36	296.87	30.61	
2025-01-15 09:43:04.57	296.37	30.58	
2025-01-15 09:43:05.79	295.88	30.54	
2025-01-15 09:43:07.01	295.38	30.50	
2025-01-15 09:43:08.23	294.88	30.45	
2025-01-15 09:43:09.44	294.39	30.41	
2025-01-15 09:43:10.66	293.90	30.36	
2025-01-15 09:43:11.88	293.41	30.31	
2025-01-15 09:43:13.10	292.92	30.26	
2025-01-15 09:43:14.31	292.44	30.20	
2025-01-15 09:43:15.53	291.95	30.15	
2025-01-15 09:43:16.75	291.47	30.09	
2025-01-15 09:43:17.97	290.98	30.03	
2025-01-15 09:43:19.19	290.50	29.96	
2025-01-15 09:43:20.40	290.03	29.90	
2025-01-15 09:43:21.62	289.55	29.83	
2025-01-15 09:43:22.84	289.08	29.76	
2025-01-15 09:43:24.06	288.60	29.69	
2025-01-15 09:43:25.27	288.14	29.62	
2025-01-15 09:43:26.49	287.67	29.54	
2025-01-15 09:43:27.71	287.20	29.47	
2025-01-15 09:43:28.93	286.74	29.39	
2025-01-15 09:43:30.14	286.28	29.31	
2025-01-15 09:43:31.36	285.82	29.23	
2025-01-15 09:43:32.58	285.37	29.14	
2025-01-15 09:43:33.80	284.91	29.06	
2025-01-15 09:43:35.02	284.46	28.97	
2025-01-15 09:43:36.23	284.01	28.88	
2025-01-15 09:43:37.45	283.57	28.79	
2025-01-15 09:43:38.67	283.12	28.70	
2025-01-15 09:43:39.89	282.68	28.61	
2025-01-15 09:43:41.10	282.25	28.51	
2025-01-15 09:43:42.32	281.81	28.42	
2025-01-15 09:43:43.54	281.38	28.32	
2025-01-15 09:43:44.76	280.95	28.22	
2025-01-15 09:43:45.98	280.52	28.12	
2025-01-15 09:43:47.19	280.10	28.02	
2025-01-15 09:43:48.41	279.68	27.92	
2025-01-15 09:43:49.63	279.26	27.81	
2025-01-15 09:43:50.85	278.84	27.71	
2025-01-15 09:43:52.06	278.43	27.60	
2025-01-15 09:43:53.28	278.02	27.49	
2025-01-15 09:43:54.50	277.61	27.38	
2025-01-15 09:43:55.72	277.21	27.27	
2025-01-15 09:43:56.93	276.81	27.16	
2025-01-15 09:43:58.15	276.41	27.05	
2025-01-15 09:43:59.37	276.02	26.94	
2025-01-15 09:44:00.59	275.62	26.83	
2025-01-15 09:44:01.81	275.23	26.71	
2025-01-15 09:44:03.02	274.85	26.60	
2025-01-15 09:44:04.24	274.46	26.48	
2025-01-15 09:44:05.46	274.08	26.36	
2025-01-15 09:44:06.68	273.70	26.24	
2025-01-15 09:44:07.89	273.33	26.13	
2025-01-15 09:44:09.11	272.96	26.01	
2025-01-15 09:44:10.33	272.59	25.89	
2025-01-15 09:44:11.55	272.22	25.76	
2025-01-15 09:44:12.76	271.86	25.64	
2025-01-15 09:44:13.98	271.50	25.52	
2025-01-15 09:44:15.20	271.14	25.40	
2025-01-15 09:44:16.42	270.79	25.28	
2025-01-15 09:44:17.64	270.43	25.15	
2025-01-15 09:44:18.85	270.09	25.03	
2025-01-15 09:44:20.07	269.74	24.90	
2025-01-15 09:44:21.29	269.40	24.78	
2025-01-15 09:44:22.51	269.06	24.65	
2025-01-15 09:44:23.72	268.72	24.53	
2025-01-15 09:44:24.94	268.39	24.40	
2025-01-15 09:44:26.16	268.05	24.27	
2025-01-15 09:44:27.38	267.72	24.15	
2025-01-15 09:44:28.59	267.40	24.02	
2025-01-15 09:44:29.81	267.08	23.89	
2025-01-15 09:44:31.03	266.75	23.76	
2025-01-15 09:44:32.25	266.44	23.63	
2025-01-15 09:44:33.47	266.12	23.51	
2025-01-15 09:44:34.68	265.81	23.38	
2025-01-15 09:44:35.90	265.50	23.25	
2025-01-15 09:44:37.12	265.19	23.12	
2025-01-15 09:44:38.34	264.89	22.99	
2025-01-15 09:44:39.55	264.59	22.86	
2025-01-15 09:44:40.77	264.29	22.73	
2025-01-15 09:44:41.99	263.99	22.60	
2025-01-15 09:44:43.21	263.69	22.47	
2025-01-15 09:44:44.43	263.40	22.34	
2025-01-15 09:44:45.64	263.12	22.21	
2025-01-15 09:44:46.86	262.83	22.08	
2025-01-15 09:44:48.08	262.54	21.95	
2025-01-15 09:44:49.30	262.26	21.82	
2025-01-15 09:44:50.51	261.99	21.69	
2025-01-15 09:44:51.73	261.71	21.56	
2025-01-15 09:44:52.95	261.43	21.43	
2025-01-15 09:44:54.17	261.16	21.30	
2025-01-15 09:44:55.38	260.89	21.18	
2025-01-15 09:44:56.60	260.63	21.05	
2025-01-15 09:44:57.82	260.36	20.92	
2025-01-15 09:44:59.04	260.10	20.79	
2025-01-15 09:45:00.26	259.84	20.66	
2025-01-15 09:45:01.47	259.58	20.53	
2025-01-15 09:45:02.69	259.33	20.40	
2025-01-15 09:45:03.91	259.07	20.27	
2025-01-15 09:45:05.13	258.82	20.14	
2025-01-15 09:45:06.34	258.58	20.02	
2025-01-15 09:45:07.56	258.33	19.89	
2025-01-15 09:45:08.78	258.08	19.76	
2025-01-15 09:45:10.00	257.84	19.63	
2025-01-15 09:45:11.21	257.60	19.50	
2025-01-15 09:45:12.43	257.36	19.38	
2025-01-15 09:45:13.65	257.13	19.25	
2025-01-15 09:45:14.87	256.89	19.12	
2025-01-15 09:45:16.09	256.66	18.99	
2025-01-15 09:45:17.30	256.43	18.87	
2025-01-15 09:45:18.52	256.21	18.74	
2025-01-15 09:45:19.74	255.98	18.62	
2025-01-15 09:45:20.96	255.76	18.49	
2025-01-15 09:45:22.17	255.54	18.37	
2025-01-15 09:45:23.39	255.32	18.24	
2025-01-15 09:45:24.61	255.10	18.12	
2025-01-15 09:45:25.83	254.88	17.99	
2025-01-15 09:45:27.04	254.67	17.87	
2025-01-15 09:45:28.26	254.46	17.74	
2025-01-15 09:45:29.48	254.25	17.62	
2025-01-15 09:45:30.70	254.04	17.50	
2025-01-15 09:45:31.92	253.83	17.37	
2025-01-15 09:45:33.13	253.63	17.25	
2025-01-15 09:45:34.35	253.43	17.13	
2025-01-15 09:45:35.57	253.22	17.00	
2025-01-15 09:45:36.79	253.02	16.88	
2025-01-15 09:45:38.00	252.83	16.76	
2025-01-15 09:45:39.22	252.63	16.64	
2025-01-15 09:45:40.44	252.44	16.52	
2025-01-15 09:45:41.66	252.24	16.40	
2025-01-15 09:45:42.88	252.05	16.28	
2025-01-15 09:45:44.09	251.86	16.16	
2025-01-15 09:45:45.31	251.68	16.04	
2025-01-15 09:45:46.53	251.49	15.92	
2025-01-15 09:45:47.75	251.30	15.80	
2025-01-15 09:45:48.96	251.12	15.68	
2025-01-15 09:45:50.18	250.94	15.57	
2025-01-15 09:45:51.40	250.76	15.45	
2025-01-15 09:45:52.62	250.58	15.33	
2025-01-15 09:45:53.83	250.41	15.21	
2025-01-15 09:45:55.05	250.23	15.10	
2025-01-15 09:45:56.27	250.06	14.98	
2025-01-15 09:45:57.49	249.88	14.86	
2025-01-15 09:45:58.71	249.71	14.75	
2025-01-15 09:45:59.92	249.54	14.63	
2025-01-15 09:46:01.14	249.38	14.52	
2025-01-15 09:46:02.36	249.21	14.40	
2025-01-15 09:46:03.58	249.04	14.29	
2025-01-15 09:46:04.79	248.88	14.18	
2025-01-15 09:46:06.01	248.72	14.06	
2025-01-15 09:46:07.23	248.55	13.95	
2025-01-15 09:46:08.45	248.39	13.84	
2025-01-15 09:46:09.66	248.24	13.73	
2025-01-15 09:46:10.88	248.08	13.61	
2025-01-15 09:46:12.10	247.92	13.50	
2025-01-15 09:46:13.32	247.77	13.39	
2025-01-15 09:46:14.54	247.61	13.28	
2025-01-15 09:46:15.75	247.46	13.17	
2025-01-15 09:46:16.97	247.31	13.06	
2025-01-15 09:46:18.19	247.16	12.95	
2025-01-15 09:46:19.41	247.01	12.84	
2025-01-15 09:46:20.62	246.87	12.73	
2025-01-15 09:46:21.84	246.72	12.62	
2025-01-15 09:46:23.06	246.57	12.51	
2025-01-15 09:46:24.28	246.43	12.40	
2025-01-15 09:46:25.49	246.29	12.30	
2025-01-15 09:46:26.71	246.15	12.19	
2025-01-15 09:46:27.93	246.01	12.08	
2025-01-15 09:46:29.15	245.87	11.98	
2025-01-15 09:46:30.37	245.73	11.87	
2025-01-15 09:46:31.58	245.59	11.77	
2025-01-15 09:46:32.80	245.45	11.66	
2025-01-15 09:46:34.02	245.32	11.55	
2025-01-15 09:46:35.24	245.18	11.45	
2025-01-15 09:46:36.45	245.05	11.35	
2025-01-15 09:46:37.67	244.92	11.24	
2025-01-15 09:46:38.89	244.79	11.14	
2025-01-15 09:46:40.11	244.66	11.03	
2025-01-15 09:46:41.32	244.53	10.93	
2025-01-15 09:46:42.54	244.40	10.83	
2025-01-15 09:46:43.76	244.28	10.73	
2025-01-15 09:46:44.98	244.15	10.62	
2025-01-15 09:46:46.20	244.02	10.52	
2025-01-15 09:46:47.41	243.90	10.42	
2025-01-15 09:46:48.63	243.78	10.32	
2025-01-15 09:46:49.85	243.66	10.22	
2025-01-15 09:46:51.07	243.53	10.12	
2025-01-15 09:46:52.28	243.41	10.02	
2025-01-15 09:46:53.50	243.29	9.92	
2025-01-15 09:46:54.72	243.18	9.82	
2025-01-15 09:46:55.94	243.06	9.72	
2025-01-15 09:46:57.16	242.94	9.62	
2025-01-15 09:46:58.37	242.83	9.52	
2025-01-15 09:46:59.59	242.71	9.43	
2025-01-15 09:47:00.81	242.60	9.33	
2025-01-15 09:47:02.03	242.48	9.23	
2025-01-15 09:47:03.24	242.37	9.13	
2025-01-15 09:47:04.46	242.26	9.04	
2025-01-15 09:47:05.68	242.15	8.94	
2025-01-15 09:47:06.90	242.04	8.84	
2025-01-15 09:47:08.11	241.93	8.75	
2025-01-15 09:47:09.33	241.82	8.65	
2025-01-15 09:47:10.55	241.71	8.56	
2025-01-15 09:47:11.77	241.61	8.46	
2025-01-15 09:47:12.99	241.50	8.37	
2025-01-15 09:47:14.20	241.39	8.27	
2025-01-15 09:47:15.42	241.29	8.18	
2025-01-15 09:47:16.64	241.19	8.09	
2025-01-15 09:47:17.86	241.08	7.99	
2025-01-15 09:47:19.07	240.98	7.90	
2025-01-15 09:47:20.29	240.88	7.81	
2025-01-15 09:47:21.51	240.78	7.71	
2025-01-15 09:47:22.73	240.68	7.62	
2025-01-15 09:47:23.94	240.58	7.53	
2025-01-15 09:47:25.16	240.48	7.44	
2025-01-15 09:47:26.38	240.38	7.35	
2025-01-15 09:47:27.60	240.28	7.26	
2025-01-15 09:47:28.82	240.19	7.17	
2025-01-15 09:47:30.03	240.09	7.08	
2025-01-15 09:47:31.25	240.00	6.99	
2025-01-15 09:47:32.47	239.90	6.90	
2025-01-15 09:47:33.69	239.81	6.81	
2025-01-15 09:47:34.90	239.71	6.72	
2025-01-15 09:47:36.12	239.62	6.63	
2025-01-15 09:47:37.34	239.53	6.54	
2025-01-15 09:47:38.56	239.44	6.45	
2025-01-15 09:47:39.77	239.35	6.36	
2025-01-15 09:47:40.99	239.26	6.27	
2025-01-15 09:47:42.21	239.17	6.19	
2025-01-15 09:47:43.43	239.08	6.10	
2025-01-15 09:47:44.65	238.99	6.01	
2025-01-15 09:47:45.86	238.90	5.92	
2025-01-15 09:47:47.08	238.81	5.84	
2025-01-15 09:47:48.30	238.73	5.75	
2025-01-15 09:47:49.52	238.64	5.67	
2025-01-15 09:47:50.73	238.55	5.58	
2025-01-15 09:47:51.95	238.47	5.49	
2025-01-15 09:47:53.17	238.38	5.41	
2025-01-15 09:47:54.39	238.30	5.32	
2025-01-15 09:47:55.61	238.22	5.24	
2025-01-15 09:47:56.82	238.13	5.15	
2025-01-15 09:47:58.04	238.05	5.07	
2025-01-15 09:47:59.26	237.97	4.99	
2025-01-15 09:48:00.48	237.89	4.90	
2025-01-15 09:48:01.69	237.81	4.82	
2025-01-15 09:48:02.91	237.73	4.73	
2025-01-15 09:48:04.13	237.65	4.65	
2025-01-15 09:48:05.35	237.57	4.57	
2025-01-15 09:48:06.56	237.49	4.49	
2025-01-15 09:48:07.78	237.41	4.40	
2025-01-15 09:48:09.00	237.34	4.32	
2025-01-15 09:48:10.22	237.26	4.24	
2025-01-15 09:48:11.44	237.18	4.16	
2025-01-15 09:48:12.65	237.11	4.08	

#Closed at: 2025-01-15 09:48:13