passes_logs/2025/01/15/SPB_Silybum_02/SPB_Silybum_02__20250115_033346_SUOMI_NPP_rec.log

#Pass ID: 20250115_033346_SUOMI NPP
#Satellite: SUOMI NPP
#Configuration: NPP
#Start time: 2025-01-15 03:33:46

#Version: 2.0.20230423
#Station: SPB_Silybum_02
#Location: 30.233357 lon 59.946436 lat
#TLE: 1 37849U 11061A   25014.14453206  .00000163  00000+0  98177-4 0  9992
#TLE: 2 37849  98.7445 315.1439 0001716  42.3577 317.7731 14.19537774684790

#Time	Az	El	Level	Level2	SNR	BER	Gain	Gain2
2025-01-15 03:33:48.47	14.86	4.07	
2025-01-15 03:33:49.48	14.75	4.12	
2025-01-15 03:33:50.50	14.64	4.16	
2025-01-15 03:33:51.52	14.52	4.21	
2025-01-15 03:33:52.53	14.41	4.25	
2025-01-15 03:33:53.55	14.30	4.30	
2025-01-15 03:33:54.56	14.18	4.35	
2025-01-15 03:33:55.58	14.07	4.39	
2025-01-15 03:33:56.59	13.96	4.44	
2025-01-15 03:33:57.61	13.84	4.48	
2025-01-15 03:33:58.62	13.73	4.53	
2025-01-15 03:33:59.64	13.61	4.57	
2025-01-15 03:34:00.65	13.50	4.62	
2025-01-15 03:34:01.67	13.38	4.67	
2025-01-15 03:34:02.68	13.26	4.71	
2025-01-15 03:34:03.70	13.15	4.76	
2025-01-15 03:34:04.72	13.03	4.80	
2025-01-15 03:34:05.73	12.91	4.85	
2025-01-15 03:34:06.75	12.79	4.89	
2025-01-15 03:34:07.76	12.67	4.94	
2025-01-15 03:34:08.78	12.55	4.98	
2025-01-15 03:34:09.79	12.44	5.03	
2025-01-15 03:34:10.81	12.32	5.07	
2025-01-15 03:34:11.82	12.20	5.12	
2025-01-15 03:34:12.84	12.08	5.16	
2025-01-15 03:34:13.85	11.96	5.21	
2025-01-15 03:34:14.87	11.83	5.26	
2025-01-15 03:34:15.88	11.71	5.30	
2025-01-15 03:34:16.90	11.59	5.35	
2025-01-15 03:34:17.92	11.47	5.39	
2025-01-15 03:34:18.93	11.35	5.44	
2025-01-15 03:34:19.95	11.22	5.48	
2025-01-15 03:34:20.96	11.10	5.53	
2025-01-15 03:34:21.98	10.98	5.57	
2025-01-15 03:34:22.99	10.85	5.61	
2025-01-15 03:34:24.01	10.73	5.66	
2025-01-15 03:34:25.02	10.60	5.70	
2025-01-15 03:34:26.04	10.48	5.75	
2025-01-15 03:34:27.05	10.35	5.79	
2025-01-15 03:34:28.07	10.22	5.84	
2025-01-15 03:34:29.08	10.10	5.88	
2025-01-15 03:34:30.10	9.97	5.93	
2025-01-15 03:34:31.12	9.84	5.97	
2025-01-15 03:34:32.13	9.72	6.02	
2025-01-15 03:34:33.15	9.59	6.06	
2025-01-15 03:34:34.16	9.46	6.10	
2025-01-15 03:34:35.18	9.33	6.15	
2025-01-15 03:34:36.19	9.20	6.19	
2025-01-15 03:34:37.21	9.07	6.24	
2025-01-15 03:34:38.22	8.94	6.28	
2025-01-15 03:34:39.24	8.81	6.32	
2025-01-15 03:34:40.25	8.68	6.37	
2025-01-15 03:34:41.27	8.55	6.41	
2025-01-15 03:34:42.28	8.42	6.45	
2025-01-15 03:34:43.30	8.28	6.50	
2025-01-15 03:34:44.32	8.15	6.54	
2025-01-15 03:34:45.33	8.02	6.59	
2025-01-15 03:34:46.35	7.88	6.63	
2025-01-15 03:34:47.36	7.75	6.67	
2025-01-15 03:34:48.38	7.62	6.72	
2025-01-15 03:34:49.39	7.48	6.76	
2025-01-15 03:34:50.41	7.35	6.80	
2025-01-15 03:34:51.42	7.21	6.84	
2025-01-15 03:34:52.44	7.08	6.89	
2025-01-15 03:34:53.45	6.94	6.93	
2025-01-15 03:34:54.47	6.80	6.97	
2025-01-15 03:34:55.48	6.67	7.02	
2025-01-15 03:34:56.50	6.53	7.06	
2025-01-15 03:34:57.52	6.39	7.10	
2025-01-15 03:34:58.53	6.25	7.14	
2025-01-15 03:34:59.55	6.11	7.19	
2025-01-15 03:35:00.56	5.98	7.23	
2025-01-15 03:35:01.58	5.83	7.27	
2025-01-15 03:35:02.59	5.70	7.31	
2025-01-15 03:35:03.61	5.55	7.35	
2025-01-15 03:35:04.62	5.41	7.40	
2025-01-15 03:35:05.64	5.27	7.44	
2025-01-15 03:35:06.65	5.13	7.48	
2025-01-15 03:35:07.67	4.99	7.52	
2025-01-15 03:35:08.68	4.85	7.56	
2025-01-15 03:35:09.70	4.70	7.60	
2025-01-15 03:35:10.72	4.56	7.64	
2025-01-15 03:35:11.73	4.42	7.69	
2025-01-15 03:35:12.75	4.27	7.73	
2025-01-15 03:35:13.76	4.13	7.77	
2025-01-15 03:35:14.78	3.98	7.81	
2025-01-15 03:35:15.79	3.84	7.85	
2025-01-15 03:35:16.81	3.69	7.89	
2025-01-15 03:35:17.82	3.55	7.93	
2025-01-15 03:35:18.84	3.40	7.97	
2025-01-15 03:35:19.85	3.25	8.01	
2025-01-15 03:35:20.87	3.10	8.05	
2025-01-15 03:35:21.88	2.96	8.09	
2025-01-15 03:35:22.90	2.81	8.13	
2025-01-15 03:35:23.92	2.66	8.17	
2025-01-15 03:35:24.93	2.51	8.21	
2025-01-15 03:35:25.95	2.36	8.25	
2025-01-15 03:35:26.96	2.21	8.29	
2025-01-15 03:35:27.98	2.06	8.33	
2025-01-15 03:35:28.99	1.91	8.37	
2025-01-15 03:35:30.01	1.76	8.41	
2025-01-15 03:35:31.02	1.61	8.45	
2025-01-15 03:35:32.04	1.46	8.49	
2025-01-15 03:35:33.05	1.30	8.52	
2025-01-15 03:35:34.07	1.15	8.56	
2025-01-15 03:35:35.08	1.00	8.60	
2025-01-15 03:35:36.10	0.84	8.64	
2025-01-15 03:35:37.12	0.69	8.68	
2025-01-15 03:35:38.13	0.53	8.71	
2025-01-15 03:35:39.15	0.38	8.75	
2025-01-15 03:35:40.16	0.22	8.79	
2025-01-15 03:35:41.18	0.07	8.83	
2025-01-15 03:35:42.19	359.91	8.87	
2025-01-15 03:35:43.21	359.76	8.90	
2025-01-15 03:35:44.22	359.60	8.94	
2025-01-15 03:35:45.24	359.44	8.98	
2025-01-15 03:35:46.25	359.28	9.01	
2025-01-15 03:35:47.27	359.13	9.05	
2025-01-15 03:35:48.29	358.97	9.09	
2025-01-15 03:35:49.30	358.81	9.12	
2025-01-15 03:35:50.32	358.65	9.16	
2025-01-15 03:35:51.33	358.49	9.20	
2025-01-15 03:35:52.35	358.33	9.23	
2025-01-15 03:35:53.36	358.17	9.27	
2025-01-15 03:35:54.38	358.01	9.30	
2025-01-15 03:35:55.39	357.85	9.34	
2025-01-15 03:35:56.41	357.68	9.37	
2025-01-15 03:35:57.42	357.52	9.41	
2025-01-15 03:35:58.44	357.36	9.44	
2025-01-15 03:35:59.45	357.20	9.48	
2025-01-15 03:36:00.47	357.03	9.51	
2025-01-15 03:36:01.48	356.87	9.55	
2025-01-15 03:36:02.50	356.71	9.58	
2025-01-15 03:36:03.52	356.54	9.61	
2025-01-15 03:36:04.53	356.38	9.65	
2025-01-15 03:36:05.55	356.21	9.68	
2025-01-15 03:36:06.56	356.04	9.71	
2025-01-15 03:36:07.58	355.88	9.75	
2025-01-15 03:36:08.59	355.71	9.78	
2025-01-15 03:36:09.61	355.54	9.81	
2025-01-15 03:36:10.62	355.38	9.85	
2025-01-15 03:36:11.64	355.21	9.88	
2025-01-15 03:36:12.65	355.04	9.91	
2025-01-15 03:36:13.67	354.87	9.94	
2025-01-15 03:36:14.69	354.70	9.98	
2025-01-15 03:36:15.70	354.54	10.01	
2025-01-15 03:36:16.72	354.37	10.04	
2025-01-15 03:36:17.73	354.20	10.07	
2025-01-15 03:36:18.75	354.03	10.10	
2025-01-15 03:36:19.76	353.86	10.13	
2025-01-15 03:36:20.78	353.68	10.16	
2025-01-15 03:36:21.79	353.51	10.19	
2025-01-15 03:36:22.81	353.34	10.22	
2025-01-15 03:36:23.82	353.17	10.25	
2025-01-15 03:36:24.84	353.00	10.28	
2025-01-15 03:36:25.85	352.83	10.31	
2025-01-15 03:36:26.87	352.65	10.34	
2025-01-15 03:36:27.89	352.48	10.37	
2025-01-15 03:36:28.90	352.30	10.40	
2025-01-15 03:36:29.92	352.13	10.43	
2025-01-15 03:36:30.93	351.96	10.46	
2025-01-15 03:36:31.95	351.78	10.49	
2025-01-15 03:36:32.96	351.61	10.51	
2025-01-15 03:36:33.98	351.43	10.54	
2025-01-15 03:36:34.99	351.25	10.57	
2025-01-15 03:36:36.01	351.08	10.60	
2025-01-15 03:36:37.02	350.90	10.62	
2025-01-15 03:36:38.04	350.72	10.65	
2025-01-15 03:36:39.05	350.55	10.68	
2025-01-15 03:36:40.07	350.37	10.70	
2025-01-15 03:36:41.09	350.19	10.73	
2025-01-15 03:36:42.10	350.01	10.76	
2025-01-15 03:36:43.12	349.83	10.78	
2025-01-15 03:36:44.13	349.66	10.81	
2025-01-15 03:36:45.15	349.48	10.83	
2025-01-15 03:36:46.16	349.30	10.86	
2025-01-15 03:36:47.18	349.12	10.88	
2025-01-15 03:36:48.19	348.94	10.91	
2025-01-15 03:36:49.21	348.76	10.93	
2025-01-15 03:36:50.22	348.58	10.95	
2025-01-15 03:36:51.24	348.39	10.98	
2025-01-15 03:36:52.27	348.21	11.00	
2025-01-15 03:36:53.29	348.03	11.02	
2025-01-15 03:36:54.30	347.85	11.05	
2025-01-15 03:36:55.32	347.66	11.07	
2025-01-15 03:36:56.33	347.48	11.09	
2025-01-15 03:36:57.35	347.30	11.12	
2025-01-15 03:36:58.36	347.12	11.14	
2025-01-15 03:36:59.38	346.93	11.16	
2025-01-15 03:37:00.39	346.75	11.18	
2025-01-15 03:37:01.41	346.57	11.20	
2025-01-15 03:37:02.42	346.38	11.22	
2025-01-15 03:37:03.44	346.20	11.24	
2025-01-15 03:37:04.45	346.01	11.26	
2025-01-15 03:37:05.47	345.83	11.28	
2025-01-15 03:37:06.49	345.64	11.30	
2025-01-15 03:37:07.50	345.46	11.32	
2025-01-15 03:37:08.52	345.27	11.34	
2025-01-15 03:37:09.53	345.09	11.36	
2025-01-15 03:37:10.55	344.90	11.38	
2025-01-15 03:37:11.56	344.71	11.40	
2025-01-15 03:37:12.58	344.53	11.42	
2025-01-15 03:37:13.59	344.34	11.43	
2025-01-15 03:37:14.61	344.15	11.45	
2025-01-15 03:37:15.62	343.97	11.47	
2025-01-15 03:37:16.64	343.78	11.48	
2025-01-15 03:37:17.65	343.59	11.50	
2025-01-15 03:37:18.67	343.40	11.52	
2025-01-15 03:37:19.69	343.21	11.53	
2025-01-15 03:37:20.70	343.03	11.55	
2025-01-15 03:37:21.72	342.84	11.56	
2025-01-15 03:37:22.73	342.65	11.58	
2025-01-15 03:37:23.75	342.46	11.59	
2025-01-15 03:37:24.76	342.27	11.61	
2025-01-15 03:37:25.78	342.08	11.62	
2025-01-15 03:37:26.79	341.89	11.64	
2025-01-15 03:37:27.81	341.70	11.65	
2025-01-15 03:37:28.82	341.51	11.66	
2025-01-15 03:37:29.84	341.32	11.68	
2025-01-15 03:37:30.85	341.13	11.69	
2025-01-15 03:37:31.87	340.94	11.70	
2025-01-15 03:37:32.89	340.75	11.72	
2025-01-15 03:37:33.90	340.56	11.73	
2025-01-15 03:37:34.92	340.37	11.74	
2025-01-15 03:37:35.93	340.18	11.75	
2025-01-15 03:37:36.95	339.98	11.76	
2025-01-15 03:37:37.96	339.79	11.77	
2025-01-15 03:37:38.98	339.60	11.78	
2025-01-15 03:37:39.99	339.41	11.79	
2025-01-15 03:37:41.01	339.22	11.80	
2025-01-15 03:37:42.02	339.03	11.81	
2025-01-15 03:37:43.04	338.83	11.82	
2025-01-15 03:37:44.05	338.64	11.83	
2025-01-15 03:37:45.07	338.45	11.84	
2025-01-15 03:37:46.09	338.26	11.85	
2025-01-15 03:37:47.10	338.07	11.85	
2025-01-15 03:37:48.12	337.87	11.86	
2025-01-15 03:37:49.13	337.68	11.87	
2025-01-15 03:37:50.15	337.49	11.88	
2025-01-15 03:37:51.16	337.30	11.88	
2025-01-15 03:37:52.18	337.10	11.89	
2025-01-15 03:37:53.19	336.91	11.89	
2025-01-15 03:37:54.21	336.72	11.90	
2025-01-15 03:37:55.22	336.52	11.91	
2025-01-15 03:37:56.24	336.33	11.91	
2025-01-15 03:37:57.25	336.14	11.92	
2025-01-15 03:37:58.27	335.94	11.92	
2025-01-15 03:37:59.29	335.75	11.92	
2025-01-15 03:38:00.30	335.56	11.93	
2025-01-15 03:38:01.32	335.36	11.93	
2025-01-15 03:38:02.33	335.17	11.93	
2025-01-15 03:38:03.35	334.97	11.94	
2025-01-15 03:38:04.36	334.78	11.94	
2025-01-15 03:38:05.38	334.59	11.94	
2025-01-15 03:38:06.39	334.39	11.94	
2025-01-15 03:38:07.41	334.20	11.95	
2025-01-15 03:38:08.42	334.01	11.95	
2025-01-15 03:38:09.44	333.81	11.95	
2025-01-15 03:38:10.45	333.62	11.95	
2025-01-15 03:38:11.47	333.42	11.95	
2025-01-15 03:38:12.49	333.23	11.95	
2025-01-15 03:38:13.50	333.04	11.95	
2025-01-15 03:38:14.52	332.84	11.95	
2025-01-15 03:38:15.53	332.65	11.95	
2025-01-15 03:38:16.55	332.45	11.94	
2025-01-15 03:38:17.56	332.26	11.94	
2025-01-15 03:38:18.58	332.07	11.94	
2025-01-15 03:38:19.59	331.87	11.94	
2025-01-15 03:38:20.61	331.68	11.94	
2025-01-15 03:38:21.62	331.49	11.93	
2025-01-15 03:38:22.64	331.29	11.93	
2025-01-15 03:38:23.65	331.10	11.93	
2025-01-15 03:38:24.67	330.91	11.92	
2025-01-15 03:38:25.69	330.71	11.92	
2025-01-15 03:38:26.70	330.52	11.91	
2025-01-15 03:38:27.72	330.32	11.91	
2025-01-15 03:38:28.73	330.13	11.90	
2025-01-15 03:38:29.75	329.94	11.90	
2025-01-15 03:38:30.76	329.75	11.89	
2025-01-15 03:38:31.78	329.55	11.89	
2025-01-15 03:38:32.79	329.36	11.88	
2025-01-15 03:38:33.81	329.17	11.87	
2025-01-15 03:38:34.82	328.97	11.87	
2025-01-15 03:38:35.84	328.78	11.86	
2025-01-15 03:38:36.85	328.59	11.85	
2025-01-15 03:38:37.87	328.40	11.84	
2025-01-15 03:38:38.89	328.20	11.83	
2025-01-15 03:38:39.90	328.01	11.83	
2025-01-15 03:38:40.92	327.82	11.82	
2025-01-15 03:38:41.93	327.63	11.81	
2025-01-15 03:38:42.95	327.43	11.80	
2025-01-15 03:38:43.96	327.24	11.79	
2025-01-15 03:38:44.98	327.05	11.78	
2025-01-15 03:38:45.99	326.86	11.77	
2025-01-15 03:38:47.01	326.67	11.76	
2025-01-15 03:38:48.02	326.48	11.75	
2025-01-15 03:38:49.04	326.29	11.73	
2025-01-15 03:38:50.05	326.10	11.72	
2025-01-15 03:38:51.07	325.90	11.71	
2025-01-15 03:38:52.09	325.71	11.70	
2025-01-15 03:38:53.10	325.52	11.69	
2025-01-15 03:38:54.12	325.33	11.67	
2025-01-15 03:38:55.13	325.14	11.66	
2025-01-15 03:38:56.15	324.95	11.65	
2025-01-15 03:38:57.16	324.76	11.63	
2025-01-15 03:38:58.18	324.57	11.62	
2025-01-15 03:38:59.19	324.38	11.60	
2025-01-15 03:39:00.21	324.19	11.59	
2025-01-15 03:39:01.22	324.00	11.57	
2025-01-15 03:39:02.24	323.82	11.56	
2025-01-15 03:39:03.25	323.63	11.54	
2025-01-15 03:39:04.27	323.44	11.53	
2025-01-15 03:39:05.29	323.25	11.51	
2025-01-15 03:39:06.30	323.06	11.50	
2025-01-15 03:39:07.32	322.87	11.48	
2025-01-15 03:39:08.33	322.69	11.46	
2025-01-15 03:39:09.35	322.50	11.44	
2025-01-15 03:39:10.36	322.31	11.43	
2025-01-15 03:39:11.38	322.12	11.41	
2025-01-15 03:39:12.39	321.94	11.39	
2025-01-15 03:39:13.41	321.75	11.37	
2025-01-15 03:39:14.42	321.57	11.35	
2025-01-15 03:39:15.44	321.38	11.33	
2025-01-15 03:39:16.45	321.19	11.31	
2025-01-15 03:39:17.47	321.01	11.30	
2025-01-15 03:39:18.49	320.82	11.28	
2025-01-15 03:39:19.50	320.64	11.26	
2025-01-15 03:39:20.52	320.45	11.23	
2025-01-15 03:39:21.53	320.27	11.21	
2025-01-15 03:39:22.55	320.08	11.19	
2025-01-15 03:39:23.56	319.90	11.17	
2025-01-15 03:39:24.58	319.72	11.15	
2025-01-15 03:39:25.59	319.53	11.13	
2025-01-15 03:39:26.61	319.35	11.11	
2025-01-15 03:39:27.62	319.17	11.08	
2025-01-15 03:39:28.64	318.98	11.06	
2025-01-15 03:39:29.65	318.80	11.04	
2025-01-15 03:39:30.67	318.62	11.02	
2025-01-15 03:39:31.69	318.44	10.99	
2025-01-15 03:39:32.70	318.26	10.97	
2025-01-15 03:39:33.72	318.07	10.95	
2025-01-15 03:39:34.73	317.89	10.92	
2025-01-15 03:39:35.75	317.71	10.90	
2025-01-15 03:39:36.76	317.53	10.87	
2025-01-15 03:39:37.78	317.35	10.85	
2025-01-15 03:39:38.79	317.17	10.82	
2025-01-15 03:39:39.81	316.99	10.80	
2025-01-15 03:39:40.82	316.82	10.77	
2025-01-15 03:39:41.84	316.64	10.75	
2025-01-15 03:39:42.85	316.46	10.72	
2025-01-15 03:39:43.87	316.28	10.69	
2025-01-15 03:39:44.89	316.10	10.67	
2025-01-15 03:39:45.90	315.93	10.64	
2025-01-15 03:39:46.92	315.75	10.61	
2025-01-15 03:39:47.93	315.57	10.59	
2025-01-15 03:39:48.95	315.39	10.56	
2025-01-15 03:39:49.96	315.22	10.53	
2025-01-15 03:39:50.98	315.04	10.50	
2025-01-15 03:39:51.99	314.87	10.48	
2025-01-15 03:39:53.01	314.69	10.45	
2025-01-15 03:39:54.02	314.52	10.42	
2025-01-15 03:39:55.04	314.34	10.39	
2025-01-15 03:39:56.05	314.17	10.36	
2025-01-15 03:39:57.07	314.00	10.33	
2025-01-15 03:39:58.09	313.82	10.30	
2025-01-15 03:39:59.10	313.65	10.27	
2025-01-15 03:40:00.12	313.48	10.24	
2025-01-15 03:40:01.13	313.31	10.21	
2025-01-15 03:40:02.15	313.13	10.18	
2025-01-15 03:40:03.16	312.96	10.15	
2025-01-15 03:40:04.18	312.79	10.12	
2025-01-15 03:40:05.19	312.62	10.09	
2025-01-15 03:40:06.21	312.45	10.06	
2025-01-15 03:40:07.22	312.28	10.03	
2025-01-15 03:40:08.24	312.11	10.00	
2025-01-15 03:40:09.26	311.94	9.96	
2025-01-15 03:40:10.27	311.77	9.93	
2025-01-15 03:40:11.29	311.60	9.90	
2025-01-15 03:40:12.30	311.43	9.87	
2025-01-15 03:40:13.32	311.27	9.83	
2025-01-15 03:40:14.33	311.10	9.80	
2025-01-15 03:40:15.35	310.93	9.77	
2025-01-15 03:40:16.36	310.77	9.74	
2025-01-15 03:40:17.38	310.60	9.70	
2025-01-15 03:40:18.39	310.43	9.67	
2025-01-15 03:40:19.41	310.27	9.63	
2025-01-15 03:40:20.42	310.10	9.60	
2025-01-15 03:40:21.44	309.94	9.57	
2025-01-15 03:40:22.46	309.77	9.53	
2025-01-15 03:40:23.47	309.61	9.50	
2025-01-15 03:40:24.49	309.45	9.46	
2025-01-15 03:40:25.50	309.28	9.43	
2025-01-15 03:40:26.52	309.12	9.39	
2025-01-15 03:40:27.53	308.96	9.36	
2025-01-15 03:40:28.55	308.80	9.32	
2025-01-15 03:40:29.56	308.63	9.29	
2025-01-15 03:40:30.58	308.47	9.25	
2025-01-15 03:40:31.59	308.31	9.22	
2025-01-15 03:40:32.61	308.15	9.18	
2025-01-15 03:40:33.62	307.99	9.15	
2025-01-15 03:40:34.64	307.83	9.11	
2025-01-15 03:40:35.66	307.67	9.07	
2025-01-15 03:40:36.67	307.51	9.04	
2025-01-15 03:40:37.69	307.35	9.00	
2025-01-15 03:40:38.70	307.20	8.96	
2025-01-15 03:40:39.72	307.04	8.93	
2025-01-15 03:40:40.73	306.88	8.89	
2025-01-15 03:40:41.75	306.73	8.85	
2025-01-15 03:40:42.76	306.57	8.81	
2025-01-15 03:40:43.78	306.41	8.78	
2025-01-15 03:40:44.79	306.26	8.74	
2025-01-15 03:40:45.81	306.10	8.70	
2025-01-15 03:40:46.82	305.95	8.66	
2025-01-15 03:40:47.84	305.79	8.62	
2025-01-15 03:40:48.86	305.64	8.59	
2025-01-15 03:40:49.87	305.49	8.55	
2025-01-15 03:40:50.89	305.33	8.51	
2025-01-15 03:40:51.90	305.18	8.47	
2025-01-15 03:40:52.92	305.03	8.43	
2025-01-15 03:40:53.93	304.88	8.39	
2025-01-15 03:40:54.95	304.72	8.35	
2025-01-15 03:40:55.96	304.57	8.31	
2025-01-15 03:40:56.98	304.42	8.27	
2025-01-15 03:40:57.99	304.27	8.23	
2025-01-15 03:40:59.01	304.12	8.19	
2025-01-15 03:41:00.02	303.97	8.16	
2025-01-15 03:41:01.04	303.83	8.11	
2025-01-15 03:41:02.06	303.68	8.07	
2025-01-15 03:41:03.07	303.53	8.03	
2025-01-15 03:41:04.09	303.38	7.99	
2025-01-15 03:41:05.10	303.23	7.95	
2025-01-15 03:41:06.12	303.09	7.91	
2025-01-15 03:41:07.13	302.94	7.87	
2025-01-15 03:41:08.15	302.79	7.83	
2025-01-15 03:41:09.16	302.65	7.79	
2025-01-15 03:41:10.18	302.50	7.75	
2025-01-15 03:41:11.19	302.36	7.71	
2025-01-15 03:41:12.21	302.21	7.67	
2025-01-15 03:41:13.22	302.07	7.63	
2025-01-15 03:41:14.24	301.93	7.59	
2025-01-15 03:41:15.26	301.78	7.54	
2025-01-15 03:41:16.27	301.64	7.50	
2025-01-15 03:41:17.29	301.50	7.46	
2025-01-15 03:41:18.30	301.36	7.42	
2025-01-15 03:41:19.32	301.21	7.38	
2025-01-15 03:41:20.33	301.07	7.34	
2025-01-15 03:41:21.35	300.93	7.29	
2025-01-15 03:41:22.36	300.79	7.25	
2025-01-15 03:41:23.38	300.65	7.21	
2025-01-15 03:41:24.39	300.51	7.17	
2025-01-15 03:41:25.41	300.37	7.12	
2025-01-15 03:41:26.42	300.24	7.08	
2025-01-15 03:41:27.44	300.10	7.04	
2025-01-15 03:41:28.46	299.96	7.00	
2025-01-15 03:41:29.47	299.82	6.95	
2025-01-15 03:41:30.49	299.68	6.91	
2025-01-15 03:41:31.50	299.55	6.87	
2025-01-15 03:41:32.52	299.41	6.83	
2025-01-15 03:41:33.53	299.28	6.78	
2025-01-15 03:41:34.55	299.14	6.74	
2025-01-15 03:41:35.56	299.01	6.70	
2025-01-15 03:41:36.58	298.87	6.65	
2025-01-15 03:41:37.59	298.74	6.61	
2025-01-15 03:41:38.61	298.60	6.57	
2025-01-15 03:41:39.62	298.47	6.52	
2025-01-15 03:41:40.64	298.34	6.48	
2025-01-15 03:41:41.66	298.20	6.44	
2025-01-15 03:41:42.67	298.07	6.39	
2025-01-15 03:41:43.69	297.94	6.35	
2025-01-15 03:41:44.70	297.81	6.30	
2025-01-15 03:41:45.72	297.68	6.26	
2025-01-15 03:41:46.73	297.55	6.22	
2025-01-15 03:41:47.75	297.42	6.17	
2025-01-15 03:41:48.76	297.29	6.13	
2025-01-15 03:41:49.78	297.16	6.08	
2025-01-15 03:41:50.79	297.03	6.04	
2025-01-15 03:41:51.81	296.90	6.00	
2025-01-15 03:41:52.82	296.77	5.95	
2025-01-15 03:41:53.84	296.65	5.91	
2025-01-15 03:41:54.86	296.52	5.86	
2025-01-15 03:41:55.87	296.39	5.82	
2025-01-15 03:41:56.89	296.27	5.77	
2025-01-15 03:41:57.90	296.14	5.73	
2025-01-15 03:41:58.92	296.01	5.68	
2025-01-15 03:41:59.93	295.89	5.64	
2025-01-15 03:42:00.95	295.76	5.59	
2025-01-15 03:42:01.96	295.64	5.55	
2025-01-15 03:42:02.98	295.51	5.50	
2025-01-15 03:42:03.99	295.39	5.46	
2025-01-15 03:42:05.01	295.27	5.41	
2025-01-15 03:42:06.02	295.15	5.37	
2025-01-15 03:42:07.04	295.02	5.32	
2025-01-15 03:42:08.06	294.90	5.28	
2025-01-15 03:42:09.07	294.78	5.23	
2025-01-15 03:42:10.09	294.66	5.19	
2025-01-15 03:42:11.10	294.54	5.14	
2025-01-15 03:42:12.12	294.41	5.10	
2025-01-15 03:42:13.13	294.29	5.05	
2025-01-15 03:42:14.15	294.17	5.01	
2025-01-15 03:42:15.16	294.06	4.96	
2025-01-15 03:42:16.18	293.94	4.92	
2025-01-15 03:42:17.19	293.82	4.87	
2025-01-15 03:42:18.21	293.70	4.83	
2025-01-15 03:42:19.22	293.58	4.78	
2025-01-15 03:42:20.24	293.46	4.74	
2025-01-15 03:42:21.26	293.35	4.69	
2025-01-15 03:42:22.27	293.23	4.64	
2025-01-15 03:42:23.29	293.11	4.60	
2025-01-15 03:42:24.30	293.00	4.55	
2025-01-15 03:42:25.32	292.88	4.51	
2025-01-15 03:42:26.33	292.77	4.46	
2025-01-15 03:42:27.35	292.65	4.41	
2025-01-15 03:42:28.36	292.54	4.37	
2025-01-15 03:42:29.38	292.42	4.32	
2025-01-15 03:42:30.39	292.31	4.28	
2025-01-15 03:42:31.41	292.19	4.23	
2025-01-15 03:42:32.42	292.08	4.19	
2025-01-15 03:42:33.44	291.97	4.14	
2025-01-15 03:42:34.46	291.85	4.09	
2025-01-15 03:42:35.47	291.74	4.05	
2025-01-15 03:42:36.49	291.63	4.00	

#Closed at: 2025-01-15 03:42:36