passes_logs/2025/01/15/SPB_Silybum_02/SPB_Silybum_02__20250115_232124_AQUA_rec.log

#Pass ID: 20250115_232124_AQUA
#Satellite: AQUA
#Configuration: AQUA
#Start time: 2025-01-15 23:21:24

#Version: 2.0.20230423
#Station: SPB_Silybum_02
#Location: 30.233357 lon 59.946436 lat
#TLE: 1 27424U 02022A   25015.14217918  .00001674  00000+0  35361-3 0  9999
#TLE: 2 27424  98.3589 331.8074 0001731 111.2907 305.4435 14.60682485207649

#Time	Az	El	Level	Level2	SNR	BER	Gain	Gain2
2025-01-15 23:21:26.15	33.04	4.11	
2025-01-15 23:21:27.17	33.16	4.16	
2025-01-15 23:21:28.18	33.28	4.21	
2025-01-15 23:21:29.20	33.40	4.26	
2025-01-15 23:21:30.21	33.51	4.32	
2025-01-15 23:21:31.23	33.63	4.37	
2025-01-15 23:21:32.24	33.75	4.42	
2025-01-15 23:21:33.26	33.87	4.47	
2025-01-15 23:21:34.27	33.99	4.52	
2025-01-15 23:21:35.29	34.11	4.58	
2025-01-15 23:21:36.30	34.23	4.63	
2025-01-15 23:21:37.32	34.35	4.68	
2025-01-15 23:21:38.33	34.47	4.73	
2025-01-15 23:21:39.35	34.60	4.79	
2025-01-15 23:21:40.36	34.72	4.84	
2025-01-15 23:21:41.38	34.84	4.89	
2025-01-15 23:21:42.39	34.96	4.94	
2025-01-15 23:21:43.41	35.09	5.00	
2025-01-15 23:21:44.42	35.21	5.05	
2025-01-15 23:21:45.44	35.34	5.10	
2025-01-15 23:21:46.45	35.46	5.15	
2025-01-15 23:21:47.47	35.59	5.20	
2025-01-15 23:21:48.48	35.72	5.26	
2025-01-15 23:21:49.50	35.84	5.31	
2025-01-15 23:21:50.51	35.97	5.36	
2025-01-15 23:21:51.53	36.10	5.41	
2025-01-15 23:21:52.54	36.23	5.47	
2025-01-15 23:21:53.56	36.36	5.52	
2025-01-15 23:21:54.57	36.48	5.57	
2025-01-15 23:21:55.59	36.61	5.62	
2025-01-15 23:21:56.60	36.74	5.68	
2025-01-15 23:21:57.61	36.87	5.73	
2025-01-15 23:21:58.63	37.01	5.78	
2025-01-15 23:21:59.64	37.14	5.83	
2025-01-15 23:22:00.66	37.27	5.89	
2025-01-15 23:22:01.67	37.40	5.94	
2025-01-15 23:22:02.69	37.53	5.99	
2025-01-15 23:22:03.70	37.67	6.04	
2025-01-15 23:22:04.72	37.80	6.09	
2025-01-15 23:22:05.73	37.94	6.15	
2025-01-15 23:22:06.75	38.07	6.20	
2025-01-15 23:22:07.76	38.21	6.25	
2025-01-15 23:22:08.78	38.34	6.30	
2025-01-15 23:22:09.79	38.48	6.36	
2025-01-15 23:22:10.81	38.62	6.41	
2025-01-15 23:22:11.82	38.76	6.46	
2025-01-15 23:22:12.84	38.89	6.51	
2025-01-15 23:22:13.85	39.03	6.57	
2025-01-15 23:22:14.87	39.17	6.62	
2025-01-15 23:22:15.88	39.31	6.67	
2025-01-15 23:22:16.90	39.45	6.72	
2025-01-15 23:22:17.91	39.59	6.77	
2025-01-15 23:22:18.93	39.74	6.83	
2025-01-15 23:22:19.94	39.88	6.88	
2025-01-15 23:22:20.96	40.02	6.93	
2025-01-15 23:22:21.97	40.16	6.98	
2025-01-15 23:22:22.99	40.31	7.04	
2025-01-15 23:22:24.00	40.45	7.09	
2025-01-15 23:22:25.02	40.60	7.14	
2025-01-15 23:22:26.03	40.74	7.19	
2025-01-15 23:22:27.05	40.89	7.24	
2025-01-15 23:22:28.06	41.03	7.30	
2025-01-15 23:22:29.08	41.18	7.35	
2025-01-15 23:22:30.09	41.33	7.40	
2025-01-15 23:22:31.11	41.47	7.45	
2025-01-15 23:22:32.12	41.62	7.50	
2025-01-15 23:22:33.14	41.77	7.56	
2025-01-15 23:22:34.15	41.92	7.61	
2025-01-15 23:22:35.17	42.07	7.66	
2025-01-15 23:22:36.18	42.22	7.71	
2025-01-15 23:22:37.20	42.37	7.76	
2025-01-15 23:22:38.21	42.53	7.81	
2025-01-15 23:22:39.23	42.68	7.87	
2025-01-15 23:22:40.24	42.83	7.92	
2025-01-15 23:22:41.26	42.99	7.97	
2025-01-15 23:22:42.27	43.14	8.02	
2025-01-15 23:22:43.29	43.29	8.07	
2025-01-15 23:22:44.30	43.45	8.12	
2025-01-15 23:22:45.32	43.61	8.17	
2025-01-15 23:22:46.33	43.76	8.23	
2025-01-15 23:22:47.35	43.92	8.28	
2025-01-15 23:22:48.36	44.08	8.33	
2025-01-15 23:22:49.38	44.23	8.38	
2025-01-15 23:22:50.39	44.39	8.43	
2025-01-15 23:22:51.41	44.55	8.48	
2025-01-15 23:22:52.42	44.71	8.53	
2025-01-15 23:22:53.44	44.87	8.58	
2025-01-15 23:22:54.45	45.03	8.63	
2025-01-15 23:22:55.47	45.20	8.68	
2025-01-15 23:22:56.48	45.36	8.73	
2025-01-15 23:22:57.50	45.52	8.79	
2025-01-15 23:22:58.51	45.68	8.84	
2025-01-15 23:22:59.53	45.85	8.89	
2025-01-15 23:23:00.54	46.01	8.94	
2025-01-15 23:23:01.56	46.18	8.99	
2025-01-15 23:23:02.57	46.34	9.04	
2025-01-15 23:23:03.59	46.51	9.09	
2025-01-15 23:23:04.60	46.68	9.14	
2025-01-15 23:23:05.62	46.85	9.19	
2025-01-15 23:23:06.63	47.01	9.24	
2025-01-15 23:23:07.65	47.18	9.29	
2025-01-15 23:23:08.66	47.35	9.34	
2025-01-15 23:23:09.68	47.52	9.39	
2025-01-15 23:23:10.69	47.69	9.44	
2025-01-15 23:23:11.70	47.86	9.48	
2025-01-15 23:23:12.72	48.04	9.53	
2025-01-15 23:23:13.73	48.21	9.58	
2025-01-15 23:23:14.75	48.38	9.63	
2025-01-15 23:23:15.76	48.56	9.68	
2025-01-15 23:23:16.78	48.73	9.73	
2025-01-15 23:23:17.79	48.90	9.78	
2025-01-15 23:23:18.81	49.08	9.83	
2025-01-15 23:23:19.82	49.26	9.87	
2025-01-15 23:23:20.84	49.43	9.92	
2025-01-15 23:23:21.85	49.61	9.97	
2025-01-15 23:23:22.87	49.79	10.02	
2025-01-15 23:23:23.88	49.97	10.07	
2025-01-15 23:23:24.90	50.15	10.12	
2025-01-15 23:23:25.91	50.33	10.16	
2025-01-15 23:23:26.93	50.51	10.21	
2025-01-15 23:23:27.94	50.69	10.26	
2025-01-15 23:23:28.96	50.87	10.31	
2025-01-15 23:23:29.97	51.05	10.35	
2025-01-15 23:23:30.99	51.24	10.40	
2025-01-15 23:23:32.00	51.42	10.45	
2025-01-15 23:23:33.02	51.61	10.49	
2025-01-15 23:23:34.03	51.79	10.54	
2025-01-15 23:23:35.05	51.98	10.59	
2025-01-15 23:23:36.06	52.16	10.63	
2025-01-15 23:23:37.08	52.35	10.68	
2025-01-15 23:23:38.09	52.54	10.72	
2025-01-15 23:23:39.11	52.72	10.77	
2025-01-15 23:23:40.12	52.91	10.82	
2025-01-15 23:23:41.14	53.10	10.86	
2025-01-15 23:23:42.15	53.29	10.91	
2025-01-15 23:23:43.17	53.48	10.95	
2025-01-15 23:23:44.18	53.67	11.00	
2025-01-15 23:23:45.20	53.87	11.04	
2025-01-15 23:23:46.21	54.06	11.09	
2025-01-15 23:23:47.23	54.25	11.13	
2025-01-15 23:23:48.24	54.44	11.17	
2025-01-15 23:23:49.26	54.64	11.22	
2025-01-15 23:23:50.27	54.83	11.26	
2025-01-15 23:23:51.29	55.03	11.31	
2025-01-15 23:23:52.30	55.22	11.35	
2025-01-15 23:23:53.32	55.42	11.39	
2025-01-15 23:23:54.33	55.62	11.44	
2025-01-15 23:23:55.35	55.82	11.48	
2025-01-15 23:23:56.36	56.01	11.52	
2025-01-15 23:23:57.38	56.21	11.56	
2025-01-15 23:23:58.39	56.41	11.61	
2025-01-15 23:23:59.41	56.61	11.65	
2025-01-15 23:24:00.42	56.81	11.69	
2025-01-15 23:24:01.44	57.02	11.73	
2025-01-15 23:24:02.45	57.22	11.77	
2025-01-15 23:24:03.47	57.42	11.81	
2025-01-15 23:24:04.48	57.62	11.85	
2025-01-15 23:24:05.50	57.83	11.90	
2025-01-15 23:24:06.51	58.03	11.94	
2025-01-15 23:24:07.53	58.24	11.98	
2025-01-15 23:24:08.54	58.44	12.02	
2025-01-15 23:24:09.56	58.65	12.06	
2025-01-15 23:24:10.57	58.86	12.09	
2025-01-15 23:24:11.59	59.06	12.13	
2025-01-15 23:24:12.60	59.27	12.17	
2025-01-15 23:24:13.62	59.48	12.21	
2025-01-15 23:24:14.63	59.69	12.25	
2025-01-15 23:24:15.65	59.90	12.29	
2025-01-15 23:24:16.66	60.11	12.33	
2025-01-15 23:24:17.68	60.32	12.36	
2025-01-15 23:24:18.69	60.53	12.40	
2025-01-15 23:24:19.71	60.74	12.44	
2025-01-15 23:24:20.72	60.96	12.47	
2025-01-15 23:24:21.74	61.17	12.51	
2025-01-15 23:24:22.75	61.38	12.55	
2025-01-15 23:24:23.77	61.60	12.58	
2025-01-15 23:24:24.78	61.81	12.62	
2025-01-15 23:24:25.79	62.03	12.65	
2025-01-15 23:24:26.81	62.24	12.69	
2025-01-15 23:24:27.82	62.46	12.72	
2025-01-15 23:24:28.84	62.68	12.76	
2025-01-15 23:24:29.85	62.89	12.79	
2025-01-15 23:24:30.87	63.11	12.83	
2025-01-15 23:24:31.88	63.33	12.86	
2025-01-15 23:24:32.90	63.55	12.89	
2025-01-15 23:24:33.91	63.77	12.93	
2025-01-15 23:24:34.93	63.99	12.96	
2025-01-15 23:24:35.94	64.21	12.99	
2025-01-15 23:24:36.96	64.43	13.02	
2025-01-15 23:24:37.97	64.65	13.06	
2025-01-15 23:24:38.99	64.87	13.09	
2025-01-15 23:24:40.00	65.10	13.12	
2025-01-15 23:24:41.02	65.32	13.15	
2025-01-15 23:24:42.03	65.54	13.18	
2025-01-15 23:24:43.05	65.77	13.21	
2025-01-15 23:24:44.06	65.99	13.24	
2025-01-15 23:24:45.08	66.22	13.27	
2025-01-15 23:24:46.09	66.44	13.30	
2025-01-15 23:24:47.11	66.67	13.33	
2025-01-15 23:24:48.12	66.89	13.35	
2025-01-15 23:24:49.14	67.12	13.38	
2025-01-15 23:24:50.15	67.35	13.41	
2025-01-15 23:24:51.17	67.58	13.44	
2025-01-15 23:24:52.18	67.81	13.46	
2025-01-15 23:24:53.20	68.03	13.49	
2025-01-15 23:24:54.21	68.26	13.52	
2025-01-15 23:24:55.23	68.49	13.54	
2025-01-15 23:24:56.24	68.72	13.57	
2025-01-15 23:24:57.26	68.95	13.59	
2025-01-15 23:24:58.27	69.18	13.62	
2025-01-15 23:24:59.29	69.42	13.64	
2025-01-15 23:25:00.30	69.65	13.66	
2025-01-15 23:25:01.32	69.88	13.69	
2025-01-15 23:25:02.33	70.11	13.71	
2025-01-15 23:25:03.35	70.34	13.73	
2025-01-15 23:25:04.36	70.58	13.76	
2025-01-15 23:25:05.38	70.81	13.78	
2025-01-15 23:25:06.39	71.04	13.80	
2025-01-15 23:25:07.41	71.28	13.82	
2025-01-15 23:25:08.42	71.51	13.84	
2025-01-15 23:25:09.44	71.75	13.86	
2025-01-15 23:25:10.45	71.98	13.88	
2025-01-15 23:25:11.47	72.22	13.90	
2025-01-15 23:25:12.48	72.45	13.92	
2025-01-15 23:25:13.50	72.69	13.94	
2025-01-15 23:25:14.51	72.93	13.96	
2025-01-15 23:25:15.53	73.17	13.98	
2025-01-15 23:25:16.54	73.40	13.99	
2025-01-15 23:25:17.56	73.64	14.01	
2025-01-15 23:25:18.57	73.88	14.03	
2025-01-15 23:25:19.59	74.12	14.04	
2025-01-15 23:25:20.60	74.35	14.06	
2025-01-15 23:25:21.62	74.59	14.07	
2025-01-15 23:25:22.63	74.83	14.09	
2025-01-15 23:25:23.65	75.07	14.10	
2025-01-15 23:25:24.66	75.31	14.12	
2025-01-15 23:25:25.68	75.55	14.13	
2025-01-15 23:25:26.69	75.79	14.14	
2025-01-15 23:25:27.71	76.03	14.16	
2025-01-15 23:25:28.72	76.27	14.17	
2025-01-15 23:25:29.74	76.51	14.18	
2025-01-15 23:25:30.75	76.75	14.19	
2025-01-15 23:25:31.77	76.99	14.20	
2025-01-15 23:25:32.78	77.23	14.21	
2025-01-15 23:25:33.80	77.47	14.22	
2025-01-15 23:25:34.81	77.71	14.23	
2025-01-15 23:25:35.83	77.96	14.24	
2025-01-15 23:25:36.84	78.20	14.25	
2025-01-15 23:25:37.86	78.44	14.26	
2025-01-15 23:25:38.87	78.68	14.27	
2025-01-15 23:25:39.89	78.92	14.27	
2025-01-15 23:25:40.92	79.17	14.28	
2025-01-15 23:25:41.93	79.41	14.29	
2025-01-15 23:25:42.95	79.66	14.29	
2025-01-15 23:25:43.96	79.90	14.30	
2025-01-15 23:25:44.98	80.14	14.30	
2025-01-15 23:25:45.99	80.38	14.31	
2025-01-15 23:25:47.00	80.62	14.31	
2025-01-15 23:25:48.02	80.87	14.32	
2025-01-15 23:25:49.04	81.11	14.32	
2025-01-15 23:25:50.05	81.35	14.32	
2025-01-15 23:25:51.06	81.60	14.33	
2025-01-15 23:25:52.08	81.84	14.33	
2025-01-15 23:25:53.09	82.08	14.33	
2025-01-15 23:25:54.11	82.33	14.33	
2025-01-15 23:25:55.12	82.57	14.33	
2025-01-15 23:25:56.14	82.81	14.33	
2025-01-15 23:25:57.15	83.06	14.33	
2025-01-15 23:25:58.17	83.30	14.33	
2025-01-15 23:25:59.18	83.54	14.33	
2025-01-15 23:26:00.20	83.79	14.33	
2025-01-15 23:26:01.21	84.03	14.32	
2025-01-15 23:26:02.23	84.27	14.32	
2025-01-15 23:26:03.24	84.51	14.32	
2025-01-15 23:26:04.26	84.76	14.32	
2025-01-15 23:26:05.27	85.00	14.31	
2025-01-15 23:26:06.29	85.25	14.31	
2025-01-15 23:26:07.30	85.49	14.30	
2025-01-15 23:26:08.32	85.73	14.30	
2025-01-15 23:26:09.33	85.97	14.29	
2025-01-15 23:26:10.35	86.22	14.28	
2025-01-15 23:26:11.36	86.46	14.28	
2025-01-15 23:26:12.38	86.70	14.27	
2025-01-15 23:26:13.39	86.94	14.26	
2025-01-15 23:26:14.41	87.19	14.26	
2025-01-15 23:26:15.42	87.43	14.25	
2025-01-15 23:26:16.44	87.67	14.24	
2025-01-15 23:26:17.45	87.91	14.23	
2025-01-15 23:26:18.47	88.15	14.22	
2025-01-15 23:26:19.48	88.39	14.21	
2025-01-15 23:26:20.50	88.64	14.20	
2025-01-15 23:26:21.51	88.88	14.19	
2025-01-15 23:26:22.53	89.12	14.17	
2025-01-15 23:26:23.54	89.36	14.16	
2025-01-15 23:26:24.56	89.60	14.15	
2025-01-15 23:26:25.57	89.84	14.14	
2025-01-15 23:26:26.59	90.08	14.12	
2025-01-15 23:26:27.60	90.32	14.11	
2025-01-15 23:26:28.62	90.56	14.10	
2025-01-15 23:26:29.63	90.80	14.08	
2025-01-15 23:26:30.65	91.04	14.07	
2025-01-15 23:26:31.66	91.28	14.05	
2025-01-15 23:26:32.68	91.52	14.03	
2025-01-15 23:26:33.69	91.75	14.02	
2025-01-15 23:26:34.71	91.99	14.00	
2025-01-15 23:26:35.72	92.23	13.98	
2025-01-15 23:26:36.74	92.47	13.97	
2025-01-15 23:26:37.75	92.70	13.95	
2025-01-15 23:26:38.77	92.94	13.93	
2025-01-15 23:26:39.78	93.18	13.91	
2025-01-15 23:26:40.80	93.41	13.89	
2025-01-15 23:26:41.81	93.65	13.87	
2025-01-15 23:26:42.83	93.89	13.85	
2025-01-15 23:26:43.84	94.12	13.83	
2025-01-15 23:26:44.86	94.36	13.81	
2025-01-15 23:26:45.87	94.59	13.79	
2025-01-15 23:26:46.89	94.83	13.77	
2025-01-15 23:26:47.90	95.06	13.74	
2025-01-15 23:26:48.92	95.29	13.72	
2025-01-15 23:26:49.93	95.52	13.70	
2025-01-15 23:26:50.95	95.76	13.67	
2025-01-15 23:26:51.96	95.99	13.65	
2025-01-15 23:26:52.98	96.22	13.63	
2025-01-15 23:26:53.99	96.45	13.60	
2025-01-15 23:26:55.01	96.69	13.58	
2025-01-15 23:26:56.02	96.92	13.55	
2025-01-15 23:26:57.04	97.15	13.53	
2025-01-15 23:26:58.05	97.38	13.50	
2025-01-15 23:26:59.07	97.61	13.47	
2025-01-15 23:27:00.08	97.84	13.45	
2025-01-15 23:27:01.10	98.07	13.42	
2025-01-15 23:27:02.11	98.29	13.39	
2025-01-15 23:27:03.13	98.52	13.36	
2025-01-15 23:27:04.14	98.75	13.34	
2025-01-15 23:27:05.15	98.97	13.31	
2025-01-15 23:27:06.17	99.20	13.28	
2025-01-15 23:27:07.18	99.43	13.25	
2025-01-15 23:27:08.20	99.65	13.22	
2025-01-15 23:27:09.21	99.88	13.19	
2025-01-15 23:27:10.23	100.10	13.16	
2025-01-15 23:27:11.24	100.33	13.13	
2025-01-15 23:27:12.26	100.55	13.10	
2025-01-15 23:27:13.27	100.77	13.07	
2025-01-15 23:27:14.29	101.00	13.03	
2025-01-15 23:27:15.30	101.22	13.00	
2025-01-15 23:27:16.32	101.44	12.97	
2025-01-15 23:27:17.33	101.66	12.94	
2025-01-15 23:27:18.35	101.88	12.90	
2025-01-15 23:27:19.36	102.10	12.87	
2025-01-15 23:27:20.38	102.32	12.84	
2025-01-15 23:27:21.39	102.54	12.80	
2025-01-15 23:27:22.41	102.76	12.77	
2025-01-15 23:27:23.42	102.98	12.74	
2025-01-15 23:27:24.44	103.20	12.70	
2025-01-15 23:27:25.45	103.41	12.66	
2025-01-15 23:27:26.47	103.63	12.63	
2025-01-15 23:27:27.48	103.84	12.59	
2025-01-15 23:27:28.50	104.06	12.56	
2025-01-15 23:27:29.51	104.27	12.52	
2025-01-15 23:27:30.53	104.49	12.48	
2025-01-15 23:27:31.54	104.70	12.45	
2025-01-15 23:27:32.56	104.92	12.41	
2025-01-15 23:27:33.57	105.13	12.37	
2025-01-15 23:27:34.59	105.34	12.34	
2025-01-15 23:27:35.60	105.55	12.30	
2025-01-15 23:27:36.62	105.76	12.26	
2025-01-15 23:27:37.63	105.97	12.22	
2025-01-15 23:27:38.65	106.18	12.18	
2025-01-15 23:27:39.66	106.39	12.14	
2025-01-15 23:27:40.68	106.60	12.10	
2025-01-15 23:27:41.69	106.81	12.06	
2025-01-15 23:27:42.71	107.02	12.02	
2025-01-15 23:27:43.72	107.22	11.98	
2025-01-15 23:27:44.74	107.43	11.94	
2025-01-15 23:27:45.75	107.64	11.90	
2025-01-15 23:27:46.77	107.84	11.86	
2025-01-15 23:27:47.78	108.05	11.82	
2025-01-15 23:27:48.80	108.25	11.78	
2025-01-15 23:27:49.81	108.45	11.74	
2025-01-15 23:27:50.83	108.66	11.70	
2025-01-15 23:27:51.84	108.86	11.65	
2025-01-15 23:27:52.86	109.06	11.61	
2025-01-15 23:27:53.87	109.26	11.57	
2025-01-15 23:27:54.89	109.46	11.53	
2025-01-15 23:27:55.90	109.66	11.48	
2025-01-15 23:27:56.92	109.86	11.44	
2025-01-15 23:27:57.93	110.06	11.40	
2025-01-15 23:27:58.95	110.26	11.35	
2025-01-15 23:27:59.96	110.45	11.31	
2025-01-15 23:28:00.98	110.65	11.27	
2025-01-15 23:28:01.99	110.85	11.22	
2025-01-15 23:28:03.01	111.04	11.18	
2025-01-15 23:28:04.02	111.24	11.13	
2025-01-15 23:28:05.04	111.43	11.09	
2025-01-15 23:28:06.05	111.62	11.04	
2025-01-15 23:28:07.07	111.82	11.00	
2025-01-15 23:28:08.08	112.01	10.95	
2025-01-15 23:28:09.10	112.20	10.91	
2025-01-15 23:28:10.11	112.39	10.86	
2025-01-15 23:28:11.13	112.58	10.82	
2025-01-15 23:28:12.14	112.77	10.77	
2025-01-15 23:28:13.16	112.96	10.72	
2025-01-15 23:28:14.17	113.15	10.68	
2025-01-15 23:28:15.19	113.34	10.63	
2025-01-15 23:28:16.20	113.53	10.59	
2025-01-15 23:28:17.21	113.71	10.54	
2025-01-15 23:28:18.23	113.90	10.49	
2025-01-15 23:28:19.24	114.08	10.44	
2025-01-15 23:28:20.26	114.27	10.40	
2025-01-15 23:28:21.27	114.45	10.35	
2025-01-15 23:28:22.29	114.64	10.30	
2025-01-15 23:28:23.30	114.82	10.25	
2025-01-15 23:28:24.32	115.00	10.21	
2025-01-15 23:28:25.33	115.18	10.16	
2025-01-15 23:28:26.35	115.37	10.11	
2025-01-15 23:28:27.36	115.55	10.06	
2025-01-15 23:28:28.38	115.73	10.01	
2025-01-15 23:28:29.39	115.91	9.97	
2025-01-15 23:28:30.41	116.08	9.92	
2025-01-15 23:28:31.42	116.26	9.87	
2025-01-15 23:28:32.44	116.44	9.82	
2025-01-15 23:28:33.45	116.62	9.77	
2025-01-15 23:28:34.47	116.79	9.72	
2025-01-15 23:28:35.48	116.97	9.67	
2025-01-15 23:28:36.50	117.14	9.62	
2025-01-15 23:28:37.51	117.32	9.57	
2025-01-15 23:28:38.53	117.49	9.52	
2025-01-15 23:28:39.54	117.66	9.47	
2025-01-15 23:28:40.56	117.84	9.42	
2025-01-15 23:28:41.57	118.01	9.37	
2025-01-15 23:28:42.59	118.18	9.32	
2025-01-15 23:28:43.60	118.35	9.27	
2025-01-15 23:28:44.62	118.52	9.22	
2025-01-15 23:28:45.63	118.69	9.17	
2025-01-15 23:28:46.65	118.86	9.12	
2025-01-15 23:28:47.66	119.03	9.07	
2025-01-15 23:28:48.68	119.20	9.02	
2025-01-15 23:28:49.69	119.36	8.97	
2025-01-15 23:28:50.71	119.53	8.92	
2025-01-15 23:28:51.72	119.69	8.87	
2025-01-15 23:28:52.74	119.86	8.82	
2025-01-15 23:28:53.75	120.02	8.77	
2025-01-15 23:28:54.77	120.19	8.72	
2025-01-15 23:28:55.78	120.35	8.67	
2025-01-15 23:28:56.80	120.51	8.62	
2025-01-15 23:28:57.81	120.68	8.56	
2025-01-15 23:28:58.83	120.84	8.51	
2025-01-15 23:28:59.84	121.00	8.46	
2025-01-15 23:29:00.86	121.16	8.41	
2025-01-15 23:29:01.87	121.32	8.36	
2025-01-15 23:29:02.89	121.48	8.31	
2025-01-15 23:29:03.90	121.64	8.26	
2025-01-15 23:29:04.92	121.80	8.20	
2025-01-15 23:29:05.93	121.95	8.15	
2025-01-15 23:29:06.95	122.11	8.10	
2025-01-15 23:29:07.96	122.27	8.05	
2025-01-15 23:29:08.98	122.42	8.00	
2025-01-15 23:29:09.99	122.58	7.94	
2025-01-15 23:29:11.01	122.73	7.89	
2025-01-15 23:29:12.02	122.88	7.84	
2025-01-15 23:29:13.04	123.04	7.79	
2025-01-15 23:29:14.05	123.19	7.74	
2025-01-15 23:29:15.07	123.34	7.68	
2025-01-15 23:29:16.08	123.49	7.63	
2025-01-15 23:29:17.10	123.65	7.58	
2025-01-15 23:29:18.11	123.80	7.53	
2025-01-15 23:29:19.13	123.95	7.47	
2025-01-15 23:29:20.14	124.10	7.42	
2025-01-15 23:29:21.16	124.25	7.37	
2025-01-15 23:29:22.17	124.39	7.32	
2025-01-15 23:29:23.19	124.54	7.26	
2025-01-15 23:29:24.20	124.69	7.21	
2025-01-15 23:29:25.22	124.83	7.16	
2025-01-15 23:29:26.23	124.98	7.11	
2025-01-15 23:29:27.25	125.13	7.05	
2025-01-15 23:29:28.26	125.27	7.00	
2025-01-15 23:29:29.28	125.42	6.95	
2025-01-15 23:29:30.29	125.56	6.90	
2025-01-15 23:29:31.30	125.70	6.84	
2025-01-15 23:29:32.32	125.84	6.79	
2025-01-15 23:29:33.33	125.99	6.74	
2025-01-15 23:29:34.35	126.13	6.69	
2025-01-15 23:29:35.36	126.27	6.63	
2025-01-15 23:29:36.38	126.41	6.58	
2025-01-15 23:29:37.39	126.55	6.53	
2025-01-15 23:29:38.41	126.69	6.47	
2025-01-15 23:29:39.42	126.83	6.42	
2025-01-15 23:29:40.44	126.97	6.37	
2025-01-15 23:29:41.45	127.10	6.32	
2025-01-15 23:29:42.47	127.24	6.26	
2025-01-15 23:29:43.48	127.38	6.21	
2025-01-15 23:29:44.50	127.52	6.16	
2025-01-15 23:29:45.51	127.65	6.10	
2025-01-15 23:29:46.53	127.79	6.05	
2025-01-15 23:29:47.54	127.92	6.00	
2025-01-15 23:29:48.56	128.06	5.94	
2025-01-15 23:29:49.57	128.19	5.89	
2025-01-15 23:29:50.59	128.32	5.84	
2025-01-15 23:29:51.60	128.46	5.79	
2025-01-15 23:29:52.62	128.59	5.73	
2025-01-15 23:29:53.63	128.72	5.68	
2025-01-15 23:29:54.65	128.85	5.63	
2025-01-15 23:29:55.66	128.98	5.57	
2025-01-15 23:29:56.68	129.11	5.52	
2025-01-15 23:29:57.69	129.24	5.47	
2025-01-15 23:29:58.71	129.37	5.41	
2025-01-15 23:29:59.72	129.50	5.36	
2025-01-15 23:30:00.74	129.63	5.31	
2025-01-15 23:30:01.75	129.76	5.26	
2025-01-15 23:30:02.77	129.88	5.20	
2025-01-15 23:30:03.78	130.01	5.15	
2025-01-15 23:30:04.80	130.14	5.10	
2025-01-15 23:30:05.81	130.26	5.04	
2025-01-15 23:30:06.83	130.39	4.99	
2025-01-15 23:30:07.84	130.51	4.94	
2025-01-15 23:30:08.86	130.64	4.89	
2025-01-15 23:30:09.87	130.76	4.83	
2025-01-15 23:30:10.89	130.89	4.78	
2025-01-15 23:30:11.90	131.01	4.73	
2025-01-15 23:30:12.92	131.13	4.67	
2025-01-15 23:30:13.93	131.25	4.62	
2025-01-15 23:30:14.95	131.37	4.57	
2025-01-15 23:30:15.96	131.50	4.52	
2025-01-15 23:30:16.98	131.62	4.46	
2025-01-15 23:30:17.99	131.74	4.41	
2025-01-15 23:30:19.01	131.86	4.36	
2025-01-15 23:30:20.02	131.98	4.30	
2025-01-15 23:30:21.04	132.09	4.25	
2025-01-15 23:30:22.05	132.21	4.20	
2025-01-15 23:30:23.07	132.33	4.15	
2025-01-15 23:30:24.08	132.45	4.09	
2025-01-15 23:30:25.10	132.57	4.04	

#Closed at: 2025-01-15 23:30:26