passes_logs/2025/01/15/SPB_Silybum_02/SPB_Silybum_02__20250115_160118_TERRA_rec.log

#Pass ID: 20250115_160118_TERRA
#Satellite: TERRA
#Configuration: TERRA
#Start time: 2025-01-15 16:01:19

#Version: 2.0.20230423
#Station: SPB_Silybum_02
#Location: 30.233357 lon 59.946436 lat
#TLE: 1 25994U 99068A   25014.85746573  .00000777  00000+0  16972-3 0  9996
#TLE: 2 25994  98.0216  77.8924 0003456  72.8612  46.8876 14.60394566334056

#Time	Az	El	Level	Level2	SNR	BER	Gain	Gain2
2025-01-15 16:01:21.18	83.00	4.16	
2025-01-15 16:01:21.99	82.90	4.20	
2025-01-15 16:01:22.81	82.80	4.24	
2025-01-15 16:01:23.62	82.71	4.28	
2025-01-15 16:01:24.43	82.61	4.32	
2025-01-15 16:01:25.24	82.51	4.36	
2025-01-15 16:01:26.06	82.41	4.40	
2025-01-15 16:01:26.87	82.32	4.45	
2025-01-15 16:01:27.68	82.22	4.49	
2025-01-15 16:01:28.49	82.12	4.53	
2025-01-15 16:01:29.30	82.02	4.57	
2025-01-15 16:01:30.12	81.92	4.61	
2025-01-15 16:01:30.93	81.82	4.65	
2025-01-15 16:01:31.74	81.73	4.69	
2025-01-15 16:01:32.55	81.63	4.73	
2025-01-15 16:01:33.37	81.52	4.78	
2025-01-15 16:01:34.18	81.42	4.82	
2025-01-15 16:01:34.99	81.32	4.86	
2025-01-15 16:01:35.80	81.22	4.90	
2025-01-15 16:01:36.62	81.12	4.94	
2025-01-15 16:01:37.43	81.02	4.98	
2025-01-15 16:01:38.24	80.92	5.02	
2025-01-15 16:01:39.05	80.82	5.06	
2025-01-15 16:01:39.87	80.71	5.10	
2025-01-15 16:01:40.68	80.61	5.15	
2025-01-15 16:01:41.49	80.51	5.19	
2025-01-15 16:01:42.30	80.40	5.23	
2025-01-15 16:01:43.11	80.30	5.27	
2025-01-15 16:01:43.93	80.19	5.31	
2025-01-15 16:01:44.74	80.09	5.35	
2025-01-15 16:01:45.55	79.98	5.39	
2025-01-15 16:01:46.36	79.88	5.43	
2025-01-15 16:01:47.18	79.77	5.47	
2025-01-15 16:01:47.99	79.67	5.52	
2025-01-15 16:01:48.80	79.56	5.56	
2025-01-15 16:01:49.61	79.45	5.60	
2025-01-15 16:01:50.43	79.35	5.64	
2025-01-15 16:01:51.24	79.24	5.68	
2025-01-15 16:01:52.05	79.13	5.72	
2025-01-15 16:01:52.86	79.02	5.76	
2025-01-15 16:01:53.68	78.92	5.80	
2025-01-15 16:01:54.49	78.81	5.84	
2025-01-15 16:01:55.30	78.70	5.88	
2025-01-15 16:01:56.11	78.59	5.92	
2025-01-15 16:01:56.92	78.48	5.96	
2025-01-15 16:01:57.74	78.37	6.01	
2025-01-15 16:01:58.55	78.26	6.05	
2025-01-15 16:01:59.36	78.15	6.09	
2025-01-15 16:02:00.17	78.04	6.13	
2025-01-15 16:02:00.99	77.93	6.17	
2025-01-15 16:02:01.80	77.81	6.21	
2025-01-15 16:02:02.61	77.70	6.25	
2025-01-15 16:02:03.42	77.59	6.29	
2025-01-15 16:02:04.24	77.48	6.33	
2025-01-15 16:02:05.05	77.36	6.37	
2025-01-15 16:02:05.86	77.25	6.41	
2025-01-15 16:02:06.67	77.14	6.45	
2025-01-15 16:02:07.48	77.02	6.49	
2025-01-15 16:02:08.30	76.91	6.53	
2025-01-15 16:02:09.11	76.79	6.57	
2025-01-15 16:02:09.92	76.68	6.61	
2025-01-15 16:02:10.73	76.56	6.66	
2025-01-15 16:02:11.55	76.45	6.70	
2025-01-15 16:02:12.36	76.33	6.74	
2025-01-15 16:02:13.17	76.21	6.78	
2025-01-15 16:02:13.98	76.10	6.82	
2025-01-15 16:02:14.80	75.98	6.86	
2025-01-15 16:02:15.61	75.86	6.90	
2025-01-15 16:02:16.42	75.74	6.94	
2025-01-15 16:02:17.23	75.63	6.98	
2025-01-15 16:02:18.05	75.51	7.02	
2025-01-15 16:02:18.86	75.39	7.06	
2025-01-15 16:02:19.67	75.27	7.10	
2025-01-15 16:02:20.48	75.15	7.14	
2025-01-15 16:02:21.29	75.03	7.18	
2025-01-15 16:02:22.11	74.91	7.22	
2025-01-15 16:02:22.92	74.79	7.26	
2025-01-15 16:02:23.73	74.67	7.30	
2025-01-15 16:02:24.54	74.54	7.34	
2025-01-15 16:02:25.36	74.42	7.38	
2025-01-15 16:02:26.17	74.30	7.42	
2025-01-15 16:02:26.98	74.18	7.45	
2025-01-15 16:02:27.79	74.05	7.49	
2025-01-15 16:02:28.61	73.93	7.53	
2025-01-15 16:02:29.42	73.81	7.57	
2025-01-15 16:02:30.23	73.68	7.61	
2025-01-15 16:02:31.04	73.56	7.65	
2025-01-15 16:02:31.85	73.43	7.69	
2025-01-15 16:02:32.67	73.31	7.73	
2025-01-15 16:02:33.48	73.18	7.77	
2025-01-15 16:02:34.29	73.06	7.81	
2025-01-15 16:02:35.10	72.93	7.85	
2025-01-15 16:02:35.92	72.80	7.89	
2025-01-15 16:02:36.73	72.67	7.93	
2025-01-15 16:02:37.54	72.55	7.96	
2025-01-15 16:02:38.35	72.42	8.00	
2025-01-15 16:02:39.17	72.29	8.04	
2025-01-15 16:02:39.98	72.16	8.08	
2025-01-15 16:02:40.79	72.03	8.12	
2025-01-15 16:02:41.60	71.90	8.16	
2025-01-15 16:02:42.42	71.77	8.20	
2025-01-15 16:02:43.23	71.64	8.23	
2025-01-15 16:02:44.04	71.51	8.27	
2025-01-15 16:02:44.85	71.38	8.31	
2025-01-15 16:02:45.66	71.25	8.35	
2025-01-15 16:02:46.48	71.12	8.39	
2025-01-15 16:02:47.29	70.99	8.43	
2025-01-15 16:02:48.10	70.85	8.46	
2025-01-15 16:02:48.91	70.72	8.50	
2025-01-15 16:02:49.73	70.59	8.54	
2025-01-15 16:02:50.54	70.45	8.58	
2025-01-15 16:02:51.35	70.32	8.62	
2025-01-15 16:02:52.16	70.19	8.65	
2025-01-15 16:02:52.98	70.05	8.69	
2025-01-15 16:02:53.79	69.92	8.73	
2025-01-15 16:02:54.60	69.78	8.77	
2025-01-15 16:02:55.41	69.65	8.80	
2025-01-15 16:02:56.22	69.51	8.84	
2025-01-15 16:02:57.04	69.37	8.88	
2025-01-15 16:02:57.85	69.24	8.91	
2025-01-15 16:02:58.66	69.10	8.95	
2025-01-15 16:02:59.49	68.96	8.99	
2025-01-15 16:03:00.30	68.82	9.03	
2025-01-15 16:03:01.11	68.68	9.06	
2025-01-15 16:03:01.93	68.54	9.10	
2025-01-15 16:03:02.74	68.40	9.14	
2025-01-15 16:03:03.55	68.26	9.17	
2025-01-15 16:03:04.36	68.12	9.21	
2025-01-15 16:03:05.18	67.98	9.24	
2025-01-15 16:03:05.99	67.84	9.28	
2025-01-15 16:03:06.80	67.70	9.32	
2025-01-15 16:03:07.61	67.56	9.35	
2025-01-15 16:03:08.43	67.42	9.39	
2025-01-15 16:03:09.24	67.27	9.42	
2025-01-15 16:03:10.05	67.13	9.46	
2025-01-15 16:03:10.86	66.99	9.50	
2025-01-15 16:03:11.67	66.85	9.53	
2025-01-15 16:03:12.49	66.70	9.57	
2025-01-15 16:03:13.30	66.56	9.60	
2025-01-15 16:03:14.11	66.41	9.64	
2025-01-15 16:03:14.92	66.27	9.67	
2025-01-15 16:03:15.74	66.12	9.71	
2025-01-15 16:03:16.55	65.98	9.74	
2025-01-15 16:03:17.36	65.83	9.78	
2025-01-15 16:03:18.17	65.68	9.81	
2025-01-15 16:03:18.99	65.54	9.84	
2025-01-15 16:03:19.80	65.39	9.88	
2025-01-15 16:03:20.61	65.24	9.91	
2025-01-15 16:03:21.42	65.09	9.95	
2025-01-15 16:03:22.24	64.94	9.98	
2025-01-15 16:03:23.05	64.80	10.02	
2025-01-15 16:03:23.86	64.65	10.05	
2025-01-15 16:03:24.67	64.50	10.08	
2025-01-15 16:03:25.48	64.35	10.12	
2025-01-15 16:03:26.30	64.20	10.15	
2025-01-15 16:03:27.11	64.05	10.18	
2025-01-15 16:03:27.92	63.90	10.22	
2025-01-15 16:03:28.73	63.75	10.25	
2025-01-15 16:03:29.55	63.59	10.28	
2025-01-15 16:03:30.36	63.44	10.31	
2025-01-15 16:03:31.17	63.29	10.35	
2025-01-15 16:03:31.98	63.14	10.38	
2025-01-15 16:03:32.80	62.98	10.41	
2025-01-15 16:03:33.61	62.83	10.44	
2025-01-15 16:03:34.42	62.67	10.48	
2025-01-15 16:03:35.23	62.52	10.51	
2025-01-15 16:03:36.04	62.37	10.54	
2025-01-15 16:03:36.86	62.21	10.57	
2025-01-15 16:03:37.67	62.06	10.60	
2025-01-15 16:03:38.48	61.90	10.63	
2025-01-15 16:03:39.29	61.74	10.66	
2025-01-15 16:03:40.11	61.59	10.70	
2025-01-15 16:03:40.92	61.43	10.73	
2025-01-15 16:03:41.73	61.27	10.76	
2025-01-15 16:03:42.54	61.12	10.79	
2025-01-15 16:03:43.36	60.96	10.82	
2025-01-15 16:03:44.17	60.80	10.85	
2025-01-15 16:03:44.98	60.64	10.88	
2025-01-15 16:03:45.79	60.48	10.91	
2025-01-15 16:03:46.61	60.32	10.94	
2025-01-15 16:03:47.42	60.16	10.97	
2025-01-15 16:03:48.23	60.00	11.00	
2025-01-15 16:03:49.04	59.84	11.03	
2025-01-15 16:03:49.85	59.68	11.05	
2025-01-15 16:03:50.67	59.52	11.08	
2025-01-15 16:03:51.48	59.36	11.11	
2025-01-15 16:03:52.29	59.20	11.14	
2025-01-15 16:03:53.10	59.04	11.17	
2025-01-15 16:03:53.92	58.87	11.20	
2025-01-15 16:03:54.73	58.71	11.22	
2025-01-15 16:03:55.54	58.55	11.25	
2025-01-15 16:03:56.35	58.38	11.28	
2025-01-15 16:03:57.17	58.22	11.31	
2025-01-15 16:03:57.98	58.05	11.34	
2025-01-15 16:03:58.79	57.89	11.36	
2025-01-15 16:03:59.60	57.73	11.39	
2025-01-15 16:04:00.41	57.56	11.42	
2025-01-15 16:04:01.23	57.40	11.44	
2025-01-15 16:04:02.04	57.23	11.47	
2025-01-15 16:04:02.85	57.06	11.49	
2025-01-15 16:04:03.66	56.90	11.52	
2025-01-15 16:04:04.48	56.73	11.55	
2025-01-15 16:04:05.29	56.56	11.57	
2025-01-15 16:04:06.10	56.40	11.60	
2025-01-15 16:04:06.91	56.23	11.62	
2025-01-15 16:04:07.73	56.06	11.65	
2025-01-15 16:04:08.54	55.89	11.67	
2025-01-15 16:04:09.35	55.72	11.70	
2025-01-15 16:04:10.16	55.56	11.72	
2025-01-15 16:04:10.98	55.39	11.75	
2025-01-15 16:04:11.79	55.22	11.77	
2025-01-15 16:04:12.60	55.05	11.79	
2025-01-15 16:04:13.41	54.88	11.82	
2025-01-15 16:04:14.22	54.71	11.84	
2025-01-15 16:04:15.04	54.54	11.86	
2025-01-15 16:04:15.85	54.36	11.89	
2025-01-15 16:04:16.66	54.19	11.91	
2025-01-15 16:04:17.47	54.02	11.93	
2025-01-15 16:04:18.29	53.85	11.95	
2025-01-15 16:04:19.10	53.68	11.98	
2025-01-15 16:04:19.91	53.51	12.00	
2025-01-15 16:04:20.72	53.33	12.02	
2025-01-15 16:04:21.54	53.16	12.04	
2025-01-15 16:04:22.35	52.99	12.06	
2025-01-15 16:04:23.16	52.81	12.08	
2025-01-15 16:04:23.97	52.64	12.10	
2025-01-15 16:04:24.78	52.47	12.13	
2025-01-15 16:04:25.60	52.29	12.15	
2025-01-15 16:04:26.41	52.12	12.17	
2025-01-15 16:04:27.22	51.94	12.19	
2025-01-15 16:04:28.03	51.77	12.21	
2025-01-15 16:04:28.85	51.59	12.22	
2025-01-15 16:04:29.66	51.42	12.24	
2025-01-15 16:04:30.47	51.24	12.26	
2025-01-15 16:04:31.28	51.07	12.28	
2025-01-15 16:04:32.10	50.89	12.30	
2025-01-15 16:04:32.91	50.71	12.32	
2025-01-15 16:04:33.72	50.54	12.34	
2025-01-15 16:04:34.53	50.36	12.35	
2025-01-15 16:04:35.35	50.18	12.37	
2025-01-15 16:04:36.16	50.00	12.39	
2025-01-15 16:04:36.97	49.83	12.41	
2025-01-15 16:04:37.78	49.65	12.42	
2025-01-15 16:04:38.59	49.47	12.44	
2025-01-15 16:04:39.41	49.29	12.46	
2025-01-15 16:04:40.22	49.12	12.47	
2025-01-15 16:04:41.03	48.94	12.49	
2025-01-15 16:04:41.84	48.76	12.50	
2025-01-15 16:04:42.66	48.58	12.52	
2025-01-15 16:04:43.47	48.40	12.53	
2025-01-15 16:04:44.28	48.22	12.55	
2025-01-15 16:04:45.09	48.04	12.56	
2025-01-15 16:04:45.91	47.86	12.58	
2025-01-15 16:04:46.72	47.68	12.59	
2025-01-15 16:04:47.53	47.50	12.61	
2025-01-15 16:04:48.34	47.32	12.62	
2025-01-15 16:04:49.16	47.14	12.63	
2025-01-15 16:04:49.97	46.96	12.65	
2025-01-15 16:04:50.78	46.78	12.66	
2025-01-15 16:04:51.59	46.60	12.67	
2025-01-15 16:04:52.40	46.42	12.68	
2025-01-15 16:04:53.22	46.23	12.70	
2025-01-15 16:04:54.03	46.05	12.71	
2025-01-15 16:04:54.84	45.87	12.72	
2025-01-15 16:04:55.65	45.69	12.73	
2025-01-15 16:04:56.47	45.51	12.74	
2025-01-15 16:04:57.28	45.33	12.75	
2025-01-15 16:04:58.09	45.14	12.76	
2025-01-15 16:04:58.90	44.96	12.77	
2025-01-15 16:04:59.72	44.78	12.78	
2025-01-15 16:05:00.53	44.60	12.79	
2025-01-15 16:05:01.34	44.41	12.80	
2025-01-15 16:05:02.15	44.23	12.81	
2025-01-15 16:05:02.96	44.05	12.82	
2025-01-15 16:05:03.78	43.86	12.83	
2025-01-15 16:05:04.59	43.68	12.84	
2025-01-15 16:05:05.40	43.50	12.84	
2025-01-15 16:05:06.21	43.31	12.85	
2025-01-15 16:05:07.03	43.13	12.86	
2025-01-15 16:05:07.84	42.95	12.87	
2025-01-15 16:05:08.65	42.76	12.87	
2025-01-15 16:05:09.46	42.58	12.88	
2025-01-15 16:05:10.28	42.39	12.89	
2025-01-15 16:05:11.09	42.21	12.89	
2025-01-15 16:05:11.90	42.03	12.90	
2025-01-15 16:05:12.71	41.84	12.91	
2025-01-15 16:05:13.53	41.66	12.91	
2025-01-15 16:05:14.34	41.47	12.92	
2025-01-15 16:05:15.15	41.29	12.92	
2025-01-15 16:05:15.96	41.11	12.93	
2025-01-15 16:05:16.77	40.92	12.93	
2025-01-15 16:05:17.59	40.74	12.93	
2025-01-15 16:05:18.40	40.55	12.94	
2025-01-15 16:05:19.21	40.37	12.94	
2025-01-15 16:05:20.02	40.18	12.94	
2025-01-15 16:05:20.84	40.00	12.95	
2025-01-15 16:05:21.65	39.81	12.95	
2025-01-15 16:05:22.46	39.63	12.95	
2025-01-15 16:05:23.27	39.44	12.95	
2025-01-15 16:05:24.09	39.26	12.96	
2025-01-15 16:05:24.90	39.07	12.96	
2025-01-15 16:05:25.71	38.89	12.96	
2025-01-15 16:05:26.52	38.70	12.96	
2025-01-15 16:05:27.33	38.52	12.96	
2025-01-15 16:05:28.15	38.33	12.96	
2025-01-15 16:05:28.96	38.15	12.96	
2025-01-15 16:05:29.77	37.97	12.96	
2025-01-15 16:05:30.58	37.78	12.96	
2025-01-15 16:05:31.40	37.59	12.96	
2025-01-15 16:05:32.21	37.41	12.96	
2025-01-15 16:05:33.02	37.23	12.96	
2025-01-15 16:05:33.83	37.04	12.95	
2025-01-15 16:05:34.65	36.85	12.95	
2025-01-15 16:05:35.46	36.67	12.95	
2025-01-15 16:05:36.27	36.49	12.95	
2025-01-15 16:05:37.08	36.30	12.95	
2025-01-15 16:05:37.90	36.12	12.94	
2025-01-15 16:05:38.71	35.93	12.94	
2025-01-15 16:05:39.52	35.75	12.94	
2025-01-15 16:05:40.33	35.56	12.93	
2025-01-15 16:05:41.14	35.38	12.93	
2025-01-15 16:05:41.96	35.19	12.92	
2025-01-15 16:05:42.77	35.01	12.92	
2025-01-15 16:05:43.58	34.83	12.91	
2025-01-15 16:05:44.39	34.64	12.91	
2025-01-15 16:05:45.21	34.46	12.90	
2025-01-15 16:05:46.02	34.27	12.90	
2025-01-15 16:05:46.83	34.09	12.89	
2025-01-15 16:05:47.64	33.91	12.89	
2025-01-15 16:05:48.46	33.72	12.88	
2025-01-15 16:05:49.27	33.54	12.87	
2025-01-15 16:05:50.08	33.36	12.87	
2025-01-15 16:05:50.89	33.17	12.86	
2025-01-15 16:05:51.70	32.99	12.85	
2025-01-15 16:05:52.52	32.80	12.84	
2025-01-15 16:05:53.33	32.62	12.83	
2025-01-15 16:05:54.14	32.44	12.83	
2025-01-15 16:05:54.95	32.26	12.82	
2025-01-15 16:05:55.77	32.07	12.81	
2025-01-15 16:05:56.58	31.89	12.80	
2025-01-15 16:05:57.39	31.71	12.79	
2025-01-15 16:05:58.20	31.53	12.78	
2025-01-15 16:05:59.02	31.34	12.77	
2025-01-15 16:05:59.83	31.16	12.76	
2025-01-15 16:06:00.64	30.98	12.75	
2025-01-15 16:06:01.45	30.80	12.74	
2025-01-15 16:06:02.27	30.61	12.73	
2025-01-15 16:06:03.08	30.43	12.72	
2025-01-15 16:06:03.89	30.25	12.70	
2025-01-15 16:06:04.70	30.07	12.69	
2025-01-15 16:06:05.51	29.89	12.68	
2025-01-15 16:06:06.33	29.71	12.67	
2025-01-15 16:06:07.14	29.53	12.66	
2025-01-15 16:06:07.95	29.35	12.64	
2025-01-15 16:06:08.78	29.16	12.63	
2025-01-15 16:06:09.59	28.98	12.62	
2025-01-15 16:06:10.40	28.80	12.60	
2025-01-15 16:06:11.21	28.63	12.59	
2025-01-15 16:06:12.03	28.44	12.57	
2025-01-15 16:06:12.84	28.26	12.56	
2025-01-15 16:06:13.65	28.09	12.54	
2025-01-15 16:06:14.46	27.91	12.53	
2025-01-15 16:06:15.28	27.73	12.51	
2025-01-15 16:06:16.09	27.55	12.50	
2025-01-15 16:06:16.90	27.37	12.48	
2025-01-15 16:06:17.71	27.19	12.47	
2025-01-15 16:06:18.53	27.01	12.45	
2025-01-15 16:06:19.34	26.84	12.43	
2025-01-15 16:06:20.15	26.66	12.42	
2025-01-15 16:06:20.96	26.48	12.40	
2025-01-15 16:06:21.78	26.30	12.38	
2025-01-15 16:06:22.59	26.13	12.37	
2025-01-15 16:06:23.40	25.95	12.35	
2025-01-15 16:06:24.21	25.77	12.33	
2025-01-15 16:06:25.02	25.60	12.31	
2025-01-15 16:06:25.84	25.42	12.30	
2025-01-15 16:06:26.65	25.25	12.28	
2025-01-15 16:06:27.46	25.07	12.26	
2025-01-15 16:06:28.27	24.90	12.24	
2025-01-15 16:06:29.09	24.72	12.22	
2025-01-15 16:06:29.90	24.55	12.20	
2025-01-15 16:06:30.71	24.37	12.18	
2025-01-15 16:06:31.52	24.20	12.16	
2025-01-15 16:06:32.34	24.02	12.14	
2025-01-15 16:06:33.15	23.85	12.12	
2025-01-15 16:06:33.96	23.68	12.10	
2025-01-15 16:06:34.77	23.50	12.08	
2025-01-15 16:06:35.58	23.33	12.06	
2025-01-15 16:06:36.40	23.16	12.04	
2025-01-15 16:06:37.21	22.98	12.01	
2025-01-15 16:06:38.02	22.81	11.99	
2025-01-15 16:06:38.83	22.64	11.97	
2025-01-15 16:06:39.65	22.47	11.95	
2025-01-15 16:06:40.46	22.30	11.93	
2025-01-15 16:06:41.27	22.13	11.90	
2025-01-15 16:06:42.08	21.96	11.88	
2025-01-15 16:06:42.90	21.78	11.86	
2025-01-15 16:06:43.71	21.62	11.83	
2025-01-15 16:06:44.52	21.45	11.81	
2025-01-15 16:06:45.33	21.28	11.79	
2025-01-15 16:06:46.15	21.11	11.76	
2025-01-15 16:06:46.96	20.94	11.74	
2025-01-15 16:06:47.77	20.77	11.72	
2025-01-15 16:06:48.58	20.60	11.69	
2025-01-15 16:06:49.39	20.43	11.67	
2025-01-15 16:06:50.21	20.26	11.64	
2025-01-15 16:06:51.02	20.10	11.62	
2025-01-15 16:06:51.83	19.93	11.59	
2025-01-15 16:06:52.64	19.77	11.57	
2025-01-15 16:06:53.46	19.60	11.54	
2025-01-15 16:06:54.27	19.43	11.51	
2025-01-15 16:06:55.08	19.27	11.49	
2025-01-15 16:06:55.89	19.10	11.46	
2025-01-15 16:06:56.71	18.93	11.44	
2025-01-15 16:06:57.52	18.77	11.41	
2025-01-15 16:06:58.33	18.61	11.38	
2025-01-15 16:06:59.14	18.44	11.36	
2025-01-15 16:06:59.95	18.28	11.33	
2025-01-15 16:07:00.77	18.11	11.30	
2025-01-15 16:07:01.58	17.95	11.27	
2025-01-15 16:07:02.39	17.79	11.25	
2025-01-15 16:07:03.20	17.63	11.22	
2025-01-15 16:07:04.02	17.46	11.19	
2025-01-15 16:07:04.83	17.30	11.16	
2025-01-15 16:07:05.64	17.14	11.13	
2025-01-15 16:07:06.45	16.98	11.11	
2025-01-15 16:07:07.27	16.82	11.08	
2025-01-15 16:07:08.08	16.66	11.05	
2025-01-15 16:07:08.89	16.50	11.02	
2025-01-15 16:07:09.70	16.34	10.99	
2025-01-15 16:07:10.52	16.18	10.96	
2025-01-15 16:07:11.33	16.02	10.93	
2025-01-15 16:07:12.14	15.86	10.90	
2025-01-15 16:07:12.95	15.70	10.87	
2025-01-15 16:07:13.76	15.55	10.84	
2025-01-15 16:07:14.58	15.39	10.81	
2025-01-15 16:07:15.39	15.23	10.78	
2025-01-15 16:07:16.20	15.07	10.75	
2025-01-15 16:07:17.01	14.92	10.72	
2025-01-15 16:07:17.83	14.76	10.69	
2025-01-15 16:07:18.64	14.60	10.66	
2025-01-15 16:07:19.45	14.45	10.63	
2025-01-15 16:07:20.26	14.29	10.60	
2025-01-15 16:07:21.08	14.14	10.56	
2025-01-15 16:07:21.89	13.98	10.53	
2025-01-15 16:07:22.70	13.83	10.50	
2025-01-15 16:07:23.51	13.68	10.47	
2025-01-15 16:07:24.32	13.53	10.44	
2025-01-15 16:07:25.14	13.37	10.41	
2025-01-15 16:07:25.95	13.22	10.37	
2025-01-15 16:07:26.76	13.07	10.34	
2025-01-15 16:07:27.57	12.92	10.31	
2025-01-15 16:07:28.39	12.76	10.28	
2025-01-15 16:07:29.20	12.61	10.24	
2025-01-15 16:07:30.01	12.46	10.21	
2025-01-15 16:07:30.82	12.31	10.18	
2025-01-15 16:07:31.64	12.16	10.14	
2025-01-15 16:07:32.45	12.01	10.11	
2025-01-15 16:07:33.26	11.86	10.08	
2025-01-15 16:07:34.07	11.71	10.04	
2025-01-15 16:07:34.89	11.56	10.01	
2025-01-15 16:07:35.70	11.42	9.98	
2025-01-15 16:07:36.51	11.27	9.94	
2025-01-15 16:07:37.32	11.12	9.91	
2025-01-15 16:07:38.13	10.98	9.87	
2025-01-15 16:07:38.95	10.83	9.84	
2025-01-15 16:07:39.76	10.68	9.81	
2025-01-15 16:07:40.57	10.54	9.77	
2025-01-15 16:07:41.38	10.39	9.74	
2025-01-15 16:07:42.20	10.25	9.70	
2025-01-15 16:07:43.01	10.10	9.67	
2025-01-15 16:07:43.82	9.96	9.63	
2025-01-15 16:07:44.63	9.81	9.60	
2025-01-15 16:07:45.45	9.67	9.56	
2025-01-15 16:07:46.26	9.53	9.53	
2025-01-15 16:07:47.07	9.38	9.49	
2025-01-15 16:07:47.88	9.24	9.46	
2025-01-15 16:07:48.69	9.10	9.42	
2025-01-15 16:07:49.51	8.96	9.38	
2025-01-15 16:07:50.32	8.82	9.35	
2025-01-15 16:07:51.13	8.68	9.31	
2025-01-15 16:07:51.94	8.54	9.28	
2025-01-15 16:07:52.76	8.40	9.24	
2025-01-15 16:07:53.57	8.26	9.20	
2025-01-15 16:07:54.38	8.12	9.17	
2025-01-15 16:07:55.19	7.98	9.13	
2025-01-15 16:07:56.01	7.84	9.10	
2025-01-15 16:07:56.82	7.70	9.06	
2025-01-15 16:07:57.63	7.56	9.02	
2025-01-15 16:07:58.44	7.43	8.99	
2025-01-15 16:07:59.26	7.29	8.95	
2025-01-15 16:08:00.07	7.15	8.91	
2025-01-15 16:08:00.88	7.02	8.88	
2025-01-15 16:08:01.69	6.88	8.84	
2025-01-15 16:08:02.50	6.75	8.80	
2025-01-15 16:08:03.32	6.61	8.76	
2025-01-15 16:08:04.13	6.47	8.73	
2025-01-15 16:08:04.94	6.34	8.69	
2025-01-15 16:08:05.75	6.21	8.65	
2025-01-15 16:08:06.57	6.07	8.61	
2025-01-15 16:08:07.38	5.94	8.58	
2025-01-15 16:08:08.19	5.81	8.54	
2025-01-15 16:08:09.00	5.67	8.50	
2025-01-15 16:08:09.82	5.54	8.46	
2025-01-15 16:08:10.63	5.41	8.43	
2025-01-15 16:08:11.44	5.28	8.39	
2025-01-15 16:08:12.25	5.15	8.35	
2025-01-15 16:08:13.07	5.02	8.31	
2025-01-15 16:08:13.88	4.89	8.27	
2025-01-15 16:08:14.69	4.76	8.23	
2025-01-15 16:08:15.50	4.63	8.20	
2025-01-15 16:08:16.31	4.50	8.16	
2025-01-15 16:08:17.13	4.37	8.12	
2025-01-15 16:08:17.94	4.24	8.08	
2025-01-15 16:08:18.75	4.11	8.04	
2025-01-15 16:08:19.56	3.99	8.00	
2025-01-15 16:08:20.38	3.86	7.96	
2025-01-15 16:08:21.19	3.73	7.93	
2025-01-15 16:08:22.00	3.61	7.89	
2025-01-15 16:08:22.81	3.48	7.85	
2025-01-15 16:08:23.63	3.35	7.81	
2025-01-15 16:08:24.44	3.23	7.77	
2025-01-15 16:08:25.25	3.10	7.73	
2025-01-15 16:08:26.06	2.98	7.69	
2025-01-15 16:08:26.87	2.86	7.65	
2025-01-15 16:08:27.69	2.73	7.61	
2025-01-15 16:08:28.50	2.61	7.57	
2025-01-15 16:08:29.31	2.49	7.54	
2025-01-15 16:08:30.12	2.36	7.50	
2025-01-15 16:08:30.94	2.24	7.46	
2025-01-15 16:08:31.75	2.12	7.42	
2025-01-15 16:08:32.56	2.00	7.38	
2025-01-15 16:08:33.37	1.88	7.34	
2025-01-15 16:08:34.19	1.75	7.30	
2025-01-15 16:08:35.00	1.63	7.26	
2025-01-15 16:08:35.81	1.51	7.22	
2025-01-15 16:08:36.62	1.39	7.18	
2025-01-15 16:08:37.44	1.27	7.14	
2025-01-15 16:08:38.25	1.16	7.10	
2025-01-15 16:08:39.06	1.04	7.06	
2025-01-15 16:08:39.87	0.92	7.02	
2025-01-15 16:08:40.68	0.80	6.98	
2025-01-15 16:08:41.50	0.68	6.94	
2025-01-15 16:08:42.31	0.57	6.90	
2025-01-15 16:08:43.12	0.45	6.86	
2025-01-15 16:08:43.93	0.33	6.82	
2025-01-15 16:08:44.75	0.22	6.78	
2025-01-15 16:08:45.56	0.10	6.74	
2025-01-15 16:08:46.37	359.99	6.70	
2025-01-15 16:08:47.18	359.87	6.66	
2025-01-15 16:08:48.00	359.75	6.62	
2025-01-15 16:08:48.81	359.64	6.58	
2025-01-15 16:08:49.62	359.53	6.54	
2025-01-15 16:08:50.43	359.41	6.50	
2025-01-15 16:08:51.24	359.30	6.46	
2025-01-15 16:08:52.06	359.19	6.42	
2025-01-15 16:08:52.87	359.07	6.38	
2025-01-15 16:08:53.68	358.96	6.34	
2025-01-15 16:08:54.49	358.85	6.30	
2025-01-15 16:08:55.31	358.74	6.26	
2025-01-15 16:08:56.12	358.63	6.21	
2025-01-15 16:08:56.93	358.52	6.17	
2025-01-15 16:08:57.74	358.41	6.13	
2025-01-15 16:08:58.56	358.29	6.09	
2025-01-15 16:08:59.37	358.19	6.05	
2025-01-15 16:09:00.18	358.08	6.01	
2025-01-15 16:09:00.99	357.97	5.97	
2025-01-15 16:09:01.81	357.86	5.93	
2025-01-15 16:09:02.62	357.75	5.89	
2025-01-15 16:09:03.43	357.64	5.85	
2025-01-15 16:09:04.24	357.53	5.81	
2025-01-15 16:09:05.05	357.43	5.77	
2025-01-15 16:09:05.87	357.32	5.73	
2025-01-15 16:09:06.68	357.21	5.69	
2025-01-15 16:09:07.49	357.11	5.64	
2025-01-15 16:09:08.30	357.00	5.60	
2025-01-15 16:09:09.12	356.89	5.56	
2025-01-15 16:09:09.93	356.79	5.52	
2025-01-15 16:09:10.74	356.68	5.48	
2025-01-15 16:09:11.55	356.58	5.44	
2025-01-15 16:09:12.37	356.47	5.40	
2025-01-15 16:09:13.18	356.37	5.36	
2025-01-15 16:09:13.99	356.27	5.32	
2025-01-15 16:09:14.80	356.16	5.28	
2025-01-15 16:09:15.61	356.06	5.24	
2025-01-15 16:09:16.43	355.95	5.19	
2025-01-15 16:09:17.24	355.85	5.15	
2025-01-15 16:09:18.05	355.75	5.11	
2025-01-15 16:09:18.86	355.65	5.07	
2025-01-15 16:09:19.68	355.55	5.03	
2025-01-15 16:09:20.49	355.45	4.99	
2025-01-15 16:09:21.30	355.34	4.95	
2025-01-15 16:09:22.11	355.24	4.91	
2025-01-15 16:09:22.93	355.14	4.87	
2025-01-15 16:09:23.74	355.04	4.83	
2025-01-15 16:09:24.55	354.94	4.78	
2025-01-15 16:09:25.36	354.85	4.74	
2025-01-15 16:09:26.18	354.75	4.70	
2025-01-15 16:09:26.99	354.65	4.66	
2025-01-15 16:09:27.80	354.55	4.62	
2025-01-15 16:09:28.61	354.45	4.58	
2025-01-15 16:09:29.42	354.35	4.54	
2025-01-15 16:09:30.24	354.25	4.50	
2025-01-15 16:09:31.05	354.16	4.46	
2025-01-15 16:09:31.86	354.06	4.41	
2025-01-15 16:09:32.67	353.96	4.37	
2025-01-15 16:09:33.49	353.87	4.33	
2025-01-15 16:09:34.30	353.77	4.29	
2025-01-15 16:09:35.11	353.68	4.25	
2025-01-15 16:09:35.92	353.58	4.21	
2025-01-15 16:09:36.74	353.49	4.17	
2025-01-15 16:09:37.55	353.39	4.13	
2025-01-15 16:09:38.36	353.30	4.09	
2025-01-15 16:09:39.17	353.20	4.04	
2025-01-15 16:09:39.98	353.11	4.00	

#Closed at: 2025-01-15 16:09:40