passes_logs/2025/01/15/SPB_Silybum_02/SPB_Silybum_02__20250115_015324_SUOMI_NPP_rec.log

#Pass ID: 20250115_015324_SUOMI NPP
#Satellite: SUOMI NPP
#Configuration: NPP
#Start time: 2025-01-15 01:53:23

#Version: 2.0.20230423
#Station: SPB_Silybum_02
#Location: 30.233357 lon 59.946436 lat
#TLE: 1 37849U 11061A   25014.14453206  .00000163  00000+0  98177-4 0  9992
#TLE: 2 37849  98.7445 315.1439 0001716  42.3577 317.7731 14.19537774684790

#Time	Az	El	Level	Level2	SNR	BER	Gain	Gain2
2025-01-15 01:53:25.77	14.50	4.09	
2025-01-15 01:53:27.02	14.42	4.17	
2025-01-15 01:53:28.24	14.35	4.24	
2025-01-15 01:53:29.46	14.27	4.32	
2025-01-15 01:53:30.68	14.20	4.40	
2025-01-15 01:53:31.89	14.12	4.47	
2025-01-15 01:53:33.11	14.05	4.55	
2025-01-15 01:53:34.33	13.97	4.63	
2025-01-15 01:53:35.55	13.89	4.71	
2025-01-15 01:53:36.77	13.81	4.78	
2025-01-15 01:53:37.99	13.73	4.86	
2025-01-15 01:53:39.20	13.66	4.94	
2025-01-15 01:53:40.42	13.58	5.02	
2025-01-15 01:53:41.64	13.50	5.10	
2025-01-15 01:53:42.86	13.42	5.17	
2025-01-15 01:53:44.08	13.34	5.25	
2025-01-15 01:53:45.30	13.26	5.33	
2025-01-15 01:53:46.52	13.17	5.41	
2025-01-15 01:53:47.73	13.09	5.49	
2025-01-15 01:53:48.95	13.01	5.57	
2025-01-15 01:53:50.17	12.93	5.65	
2025-01-15 01:53:51.39	12.84	5.73	
2025-01-15 01:53:52.61	12.76	5.81	
2025-01-15 01:53:53.83	12.68	5.89	
2025-01-15 01:53:55.04	12.59	5.97	
2025-01-15 01:53:56.26	12.51	6.05	
2025-01-15 01:53:57.48	12.42	6.13	
2025-01-15 01:53:58.70	12.33	6.21	
2025-01-15 01:53:59.92	12.25	6.29	
2025-01-15 01:54:01.14	12.16	6.37	
2025-01-15 01:54:02.36	12.07	6.45	
2025-01-15 01:54:03.57	11.99	6.54	
2025-01-15 01:54:04.79	11.90	6.62	
2025-01-15 01:54:06.01	11.81	6.70	
2025-01-15 01:54:07.23	11.72	6.78	
2025-01-15 01:54:08.45	11.63	6.86	
2025-01-15 01:54:09.67	11.54	6.95	
2025-01-15 01:54:10.88	11.44	7.03	
2025-01-15 01:54:12.10	11.35	7.11	
2025-01-15 01:54:13.32	11.26	7.20	
2025-01-15 01:54:14.54	11.17	7.28	
2025-01-15 01:54:15.77	11.07	7.36	
2025-01-15 01:54:16.99	10.98	7.45	
2025-01-15 01:54:18.21	10.88	7.53	
2025-01-15 01:54:19.43	10.79	7.62	
2025-01-15 01:54:20.64	10.69	7.70	
2025-01-15 01:54:21.86	10.59	7.78	
2025-01-15 01:54:23.08	10.50	7.87	
2025-01-15 01:54:24.30	10.40	7.95	
2025-01-15 01:54:25.52	10.30	8.04	
2025-01-15 01:54:26.74	10.20	8.12	
2025-01-15 01:54:27.95	10.10	8.21	
2025-01-15 01:54:29.17	10.00	8.30	
2025-01-15 01:54:30.39	9.90	8.38	
2025-01-15 01:54:31.61	9.80	8.47	
2025-01-15 01:54:32.84	9.70	8.56	
2025-01-15 01:54:34.06	9.59	8.64	
2025-01-15 01:54:35.28	9.49	8.73	
2025-01-15 01:54:36.49	9.39	8.82	
2025-01-15 01:54:37.71	9.28	8.90	
2025-01-15 01:54:38.93	9.18	8.99	
2025-01-15 01:54:40.15	9.07	9.08	
2025-01-15 01:54:41.37	8.96	9.17	
2025-01-15 01:54:42.59	8.86	9.25	
2025-01-15 01:54:43.81	8.75	9.34	
2025-01-15 01:54:45.02	8.64	9.43	
2025-01-15 01:54:46.24	8.53	9.52	
2025-01-15 01:54:47.46	8.42	9.61	
2025-01-15 01:54:48.68	8.31	9.70	
2025-01-15 01:54:49.90	8.20	9.79	
2025-01-15 01:54:51.12	8.09	9.88	
2025-01-15 01:54:52.33	7.97	9.97	
2025-01-15 01:54:53.55	7.86	10.06	
2025-01-15 01:54:54.77	7.75	10.15	
2025-01-15 01:54:55.99	7.63	10.24	
2025-01-15 01:54:57.21	7.52	10.33	
2025-01-15 01:54:58.43	7.40	10.42	
2025-01-15 01:54:59.65	7.28	10.51	
2025-01-15 01:55:00.86	7.16	10.60	
2025-01-15 01:55:02.08	7.04	10.69	
2025-01-15 01:55:03.30	6.93	10.78	
2025-01-15 01:55:04.52	6.80	10.88	
2025-01-15 01:55:05.74	6.68	10.97	
2025-01-15 01:55:06.96	6.56	11.06	
2025-01-15 01:55:08.17	6.44	11.15	
2025-01-15 01:55:09.39	6.32	11.25	
2025-01-15 01:55:10.61	6.19	11.34	
2025-01-15 01:55:11.83	6.07	11.43	
2025-01-15 01:55:13.05	5.94	11.53	
2025-01-15 01:55:14.27	5.81	11.62	
2025-01-15 01:55:15.49	5.68	11.71	
2025-01-15 01:55:16.70	5.56	11.81	
2025-01-15 01:55:17.92	5.43	11.90	
2025-01-15 01:55:19.14	5.30	12.00	
2025-01-15 01:55:20.36	5.17	12.09	
2025-01-15 01:55:21.58	5.03	12.19	
2025-01-15 01:55:22.80	4.90	12.28	
2025-01-15 01:55:24.01	4.77	12.38	
2025-01-15 01:55:25.23	4.63	12.47	
2025-01-15 01:55:26.45	4.50	12.57	
2025-01-15 01:55:27.67	4.36	12.66	
2025-01-15 01:55:28.89	4.22	12.76	
2025-01-15 01:55:30.11	4.08	12.86	
2025-01-15 01:55:31.33	3.94	12.95	
2025-01-15 01:55:32.54	3.80	13.05	
2025-01-15 01:55:33.76	3.66	13.15	
2025-01-15 01:55:34.98	3.52	13.25	
2025-01-15 01:55:36.20	3.38	13.34	
2025-01-15 01:55:37.42	3.23	13.44	
2025-01-15 01:55:38.64	3.09	13.54	
2025-01-15 01:55:39.85	2.94	13.64	
2025-01-15 01:55:41.07	2.80	13.73	
2025-01-15 01:55:42.29	2.65	13.83	
2025-01-15 01:55:43.51	2.50	13.93	
2025-01-15 01:55:44.73	2.35	14.03	
2025-01-15 01:55:45.95	2.20	14.13	
2025-01-15 01:55:47.17	2.04	14.23	
2025-01-15 01:55:48.38	1.89	14.33	
2025-01-15 01:55:49.60	1.74	14.43	
2025-01-15 01:55:50.82	1.58	14.53	
2025-01-15 01:55:52.04	1.43	14.63	
2025-01-15 01:55:53.26	1.27	14.73	
2025-01-15 01:55:54.48	1.11	14.83	
2025-01-15 01:55:55.69	0.95	14.93	
2025-01-15 01:55:56.91	0.79	15.03	
2025-01-15 01:55:58.13	0.63	15.13	
2025-01-15 01:55:59.35	0.46	15.23	
2025-01-15 01:56:00.57	0.30	15.34	
2025-01-15 01:56:01.79	0.13	15.44	
2025-01-15 01:56:03.01	359.97	15.54	
2025-01-15 01:56:04.22	359.80	15.64	
2025-01-15 01:56:05.44	359.63	15.74	
2025-01-15 01:56:06.66	359.46	15.85	
2025-01-15 01:56:07.88	359.29	15.95	
2025-01-15 01:56:09.10	359.12	16.05	
2025-01-15 01:56:10.32	358.94	16.16	
2025-01-15 01:56:11.53	358.77	16.26	
2025-01-15 01:56:12.75	358.59	16.36	
2025-01-15 01:56:13.97	358.41	16.46	
2025-01-15 01:56:15.19	358.24	16.57	
2025-01-15 01:56:16.41	358.05	16.67	
2025-01-15 01:56:17.63	357.87	16.78	
2025-01-15 01:56:18.85	357.69	16.88	
2025-01-15 01:56:20.06	357.51	16.98	
2025-01-15 01:56:21.28	357.32	17.09	
2025-01-15 01:56:22.50	357.14	17.19	
2025-01-15 01:56:23.72	356.95	17.30	
2025-01-15 01:56:24.94	356.76	17.40	
2025-01-15 01:56:26.16	356.57	17.51	
2025-01-15 01:56:27.37	356.38	17.61	
2025-01-15 01:56:28.59	356.18	17.72	
2025-01-15 01:56:29.81	355.99	17.82	
2025-01-15 01:56:31.03	355.79	17.93	
2025-01-15 01:56:32.25	355.60	18.03	
2025-01-15 01:56:33.47	355.40	18.14	
2025-01-15 01:56:34.69	355.20	18.24	
2025-01-15 01:56:35.90	355.00	18.35	
2025-01-15 01:56:37.12	354.79	18.45	
2025-01-15 01:56:38.34	354.59	18.56	
2025-01-15 01:56:39.56	354.38	18.66	
2025-01-15 01:56:40.78	354.17	18.77	
2025-01-15 01:56:42.00	353.97	18.88	
2025-01-15 01:56:43.21	353.76	18.98	
2025-01-15 01:56:44.43	353.54	19.09	
2025-01-15 01:56:45.65	353.33	19.19	
2025-01-15 01:56:46.87	353.12	19.30	
2025-01-15 01:56:48.09	352.90	19.41	
2025-01-15 01:56:49.31	352.68	19.51	
2025-01-15 01:56:50.53	352.46	19.62	
2025-01-15 01:56:51.74	352.24	19.72	
2025-01-15 01:56:52.96	352.02	19.83	
2025-01-15 01:56:54.18	351.79	19.94	
2025-01-15 01:56:55.40	351.57	20.04	
2025-01-15 01:56:56.62	351.34	20.15	
2025-01-15 01:56:57.84	351.11	20.26	
2025-01-15 01:56:59.05	350.88	20.36	
2025-01-15 01:57:00.27	350.65	20.47	
2025-01-15 01:57:01.49	350.42	20.57	
2025-01-15 01:57:02.71	350.18	20.68	
2025-01-15 01:57:03.93	349.94	20.79	
2025-01-15 01:57:05.15	349.70	20.89	
2025-01-15 01:57:06.37	349.46	21.00	
2025-01-15 01:57:07.58	349.22	21.10	
2025-01-15 01:57:08.80	348.98	21.21	
2025-01-15 01:57:10.02	348.73	21.31	
2025-01-15 01:57:11.24	348.49	21.42	
2025-01-15 01:57:12.46	348.24	21.52	
2025-01-15 01:57:13.68	347.99	21.63	
2025-01-15 01:57:14.90	347.73	21.73	
2025-01-15 01:57:16.11	347.48	21.84	
2025-01-15 01:57:17.33	347.22	21.94	
2025-01-15 01:57:18.55	346.97	22.05	
2025-01-15 01:57:19.77	346.71	22.15	
2025-01-15 01:57:20.99	346.45	22.25	
2025-01-15 01:57:22.21	346.18	22.36	
2025-01-15 01:57:23.42	345.92	22.46	
2025-01-15 01:57:24.64	345.65	22.56	
2025-01-15 01:57:25.86	345.38	22.67	
2025-01-15 01:57:27.08	345.11	22.77	
2025-01-15 01:57:28.30	344.84	22.87	
2025-01-15 01:57:29.52	344.57	22.97	
2025-01-15 01:57:30.74	344.29	23.07	
2025-01-15 01:57:31.95	344.02	23.18	
2025-01-15 01:57:33.17	343.74	23.28	
2025-01-15 01:57:34.39	343.46	23.38	
2025-01-15 01:57:35.61	343.17	23.48	
2025-01-15 01:57:36.83	342.89	23.58	
2025-01-15 01:57:38.05	342.60	23.68	
2025-01-15 01:57:39.26	342.32	23.78	
2025-01-15 01:57:40.48	342.02	23.87	
2025-01-15 01:57:41.70	341.73	23.97	
2025-01-15 01:57:42.92	341.44	24.07	
2025-01-15 01:57:44.14	341.14	24.17	
2025-01-15 01:57:45.36	340.84	24.27	
2025-01-15 01:57:46.58	340.54	24.36	
2025-01-15 01:57:47.79	340.25	24.46	
2025-01-15 01:57:49.01	339.94	24.55	
2025-01-15 01:57:50.23	339.64	24.65	
2025-01-15 01:57:51.45	339.33	24.74	
2025-01-15 01:57:52.67	339.02	24.84	
2025-01-15 01:57:53.89	338.71	24.93	
2025-01-15 01:57:55.10	338.40	25.02	
2025-01-15 01:57:56.32	338.08	25.11	
2025-01-15 01:57:57.54	337.77	25.20	
2025-01-15 01:57:58.76	337.45	25.30	
2025-01-15 01:57:59.98	337.13	25.39	
2025-01-15 01:58:01.20	336.81	25.48	
2025-01-15 01:58:02.41	336.49	25.56	
2025-01-15 01:58:03.63	336.16	25.65	
2025-01-15 01:58:04.85	335.83	25.74	
2025-01-15 01:58:06.07	335.50	25.82	
2025-01-15 01:58:07.29	335.17	25.91	
2025-01-15 01:58:08.51	334.84	26.00	
2025-01-15 01:58:09.73	334.50	26.08	
2025-01-15 01:58:10.94	334.17	26.16	
2025-01-15 01:58:12.16	333.83	26.24	
2025-01-15 01:58:13.38	333.49	26.33	
2025-01-15 01:58:14.60	333.15	26.41	
2025-01-15 01:58:15.82	332.81	26.49	
2025-01-15 01:58:17.04	332.46	26.57	
2025-01-15 01:58:18.26	332.11	26.64	
2025-01-15 01:58:19.47	331.77	26.72	
2025-01-15 01:58:20.69	331.42	26.80	
2025-01-15 01:58:21.91	331.06	26.87	
2025-01-15 01:58:23.13	330.71	26.95	
2025-01-15 01:58:24.35	330.35	27.02	
2025-01-15 01:58:25.57	330.00	27.09	
2025-01-15 01:58:26.78	329.64	27.16	
2025-01-15 01:58:28.00	329.28	27.23	
2025-01-15 01:58:29.22	328.92	27.30	
2025-01-15 01:58:30.44	328.56	27.37	
2025-01-15 01:58:31.66	328.19	27.44	
2025-01-15 01:58:32.88	327.82	27.50	
2025-01-15 01:58:34.10	327.46	27.57	
2025-01-15 01:58:35.31	327.09	27.63	
2025-01-15 01:58:36.53	326.72	27.69	
2025-01-15 01:58:37.75	326.34	27.75	
2025-01-15 01:58:38.97	325.97	27.81	
2025-01-15 01:58:40.19	325.60	27.87	
2025-01-15 01:58:41.41	325.22	27.93	
2025-01-15 01:58:42.62	324.84	27.98	
2025-01-15 01:58:43.84	324.46	28.04	
2025-01-15 01:58:45.06	324.08	28.09	
2025-01-15 01:58:46.28	323.70	28.14	
2025-01-15 01:58:47.50	323.32	28.19	
2025-01-15 01:58:48.72	322.93	28.24	
2025-01-15 01:58:49.94	322.55	28.29	
2025-01-15 01:58:51.15	322.16	28.34	
2025-01-15 01:58:52.37	321.78	28.38	
2025-01-15 01:58:53.59	321.39	28.43	
2025-01-15 01:58:54.81	321.00	28.47	
2025-01-15 01:58:56.03	320.61	28.51	
2025-01-15 01:58:57.25	320.21	28.55	
2025-01-15 01:58:58.46	319.82	28.59	
2025-01-15 01:58:59.68	319.43	28.62	
2025-01-15 01:59:00.90	319.03	28.66	
2025-01-15 01:59:02.12	318.64	28.69	
2025-01-15 01:59:03.34	318.24	28.72	
2025-01-15 01:59:04.56	317.84	28.76	
2025-01-15 01:59:05.78	317.45	28.78	
2025-01-15 01:59:06.99	317.05	28.81	
2025-01-15 01:59:08.21	316.65	28.84	
2025-01-15 01:59:09.43	316.25	28.86	
2025-01-15 01:59:10.65	315.85	28.89	
2025-01-15 01:59:11.87	315.45	28.91	
2025-01-15 01:59:13.09	315.05	28.93	
2025-01-15 01:59:14.30	314.65	28.95	
2025-01-15 01:59:15.52	314.24	28.96	
2025-01-15 01:59:16.74	313.84	28.98	
2025-01-15 01:59:17.96	313.44	28.99	
2025-01-15 01:59:19.18	313.03	29.00	
2025-01-15 01:59:20.40	312.63	29.02	
2025-01-15 01:59:21.62	312.22	29.02	
2025-01-15 01:59:22.83	311.82	29.03	
2025-01-15 01:59:24.05	311.42	29.04	
2025-01-15 01:59:25.27	311.01	29.04	
2025-01-15 01:59:26.49	310.61	29.04	
2025-01-15 01:59:27.71	310.20	29.05	
2025-01-15 01:59:28.93	309.80	29.04	
2025-01-15 01:59:30.14	309.39	29.04	
2025-01-15 01:59:31.36	308.99	29.04	
2025-01-15 01:59:32.58	308.58	29.03	
2025-01-15 01:59:33.80	308.18	29.03	
2025-01-15 01:59:35.02	307.77	29.02	
2025-01-15 01:59:36.24	307.37	29.01	
2025-01-15 01:59:37.46	306.96	29.00	
2025-01-15 01:59:38.67	306.56	28.98	
2025-01-15 01:59:39.89	306.16	28.97	
2025-01-15 01:59:41.11	305.76	28.95	
2025-01-15 01:59:42.33	305.35	28.93	
2025-01-15 01:59:43.55	304.95	28.91	
2025-01-15 01:59:44.77	304.55	28.89	
2025-01-15 01:59:45.98	304.15	28.87	
2025-01-15 01:59:47.20	303.75	28.85	
2025-01-15 01:59:48.42	303.35	28.82	
2025-01-15 01:59:49.64	302.95	28.79	
2025-01-15 01:59:50.86	302.55	28.76	
2025-01-15 01:59:52.08	302.15	28.73	
2025-01-15 01:59:53.30	301.76	28.70	
2025-01-15 01:59:54.51	301.36	28.67	
2025-01-15 01:59:55.73	300.97	28.63	
2025-01-15 01:59:56.95	300.57	28.60	
2025-01-15 01:59:58.17	300.18	28.56	
2025-01-15 01:59:59.39	299.79	28.52	
2025-01-15 02:00:00.61	299.40	28.48	
2025-01-15 02:00:01.82	299.01	28.44	
2025-01-15 02:00:03.04	298.62	28.39	
2025-01-15 02:00:04.26	298.23	28.35	
2025-01-15 02:00:05.48	297.84	28.30	
2025-01-15 02:00:06.70	297.45	28.26	
2025-01-15 02:00:07.92	297.07	28.21	
2025-01-15 02:00:09.14	296.68	28.16	
2025-01-15 02:00:10.35	296.30	28.10	
2025-01-15 02:00:11.57	295.92	28.05	
2025-01-15 02:00:12.79	295.54	28.00	
2025-01-15 02:00:14.01	295.16	27.94	
2025-01-15 02:00:15.23	294.79	27.88	
2025-01-15 02:00:16.45	294.41	27.83	
2025-01-15 02:00:17.66	294.04	27.77	
2025-01-15 02:00:18.88	293.66	27.71	
2025-01-15 02:00:20.10	293.29	27.64	
2025-01-15 02:00:21.32	292.92	27.58	
2025-01-15 02:00:22.54	292.55	27.52	
2025-01-15 02:00:23.76	292.18	27.45	
2025-01-15 02:00:24.98	291.82	27.39	
2025-01-15 02:00:26.19	291.45	27.32	
2025-01-15 02:00:27.41	291.09	27.25	
2025-01-15 02:00:28.63	290.73	27.18	
2025-01-15 02:00:29.85	290.37	27.11	
2025-01-15 02:00:31.07	290.01	27.04	
2025-01-15 02:00:32.29	289.65	26.96	
2025-01-15 02:00:33.50	289.30	26.89	
2025-01-15 02:00:34.72	288.95	26.82	
2025-01-15 02:00:35.94	288.60	26.74	
2025-01-15 02:00:37.16	288.25	26.66	
2025-01-15 02:00:38.38	287.90	26.58	
2025-01-15 02:00:39.60	287.55	26.51	
2025-01-15 02:00:40.82	287.21	26.43	
2025-01-15 02:00:42.03	286.87	26.35	
2025-01-15 02:00:43.25	286.52	26.26	
2025-01-15 02:00:44.47	286.18	26.18	
2025-01-15 02:00:45.69	285.85	26.10	
2025-01-15 02:00:46.91	285.51	26.01	
2025-01-15 02:00:48.13	285.18	25.93	
2025-01-15 02:00:49.34	284.85	25.84	
2025-01-15 02:00:50.56	284.51	25.76	
2025-01-15 02:00:51.78	284.19	25.67	
2025-01-15 02:00:53.00	283.86	25.58	
2025-01-15 02:00:54.22	283.53	25.49	
2025-01-15 02:00:55.44	283.21	25.40	
2025-01-15 02:00:56.66	282.89	25.31	
2025-01-15 02:00:57.87	282.57	25.22	
2025-01-15 02:00:59.09	282.25	25.13	
2025-01-15 02:01:00.31	281.94	25.04	
2025-01-15 02:01:01.53	281.62	24.95	
2025-01-15 02:01:02.75	281.31	24.85	
2025-01-15 02:01:03.97	281.00	24.76	
2025-01-15 02:01:05.18	280.69	24.67	
2025-01-15 02:01:06.40	280.39	24.57	
2025-01-15 02:01:07.62	280.08	24.48	
2025-01-15 02:01:08.84	279.78	24.38	
2025-01-15 02:01:10.06	279.48	24.28	
2025-01-15 02:01:11.28	279.18	24.19	
2025-01-15 02:01:12.50	278.88	24.09	
2025-01-15 02:01:13.71	278.59	23.99	
2025-01-15 02:01:14.93	278.29	23.89	
2025-01-15 02:01:16.15	278.00	23.79	
2025-01-15 02:01:17.37	277.71	23.69	
2025-01-15 02:01:18.59	277.42	23.59	
2025-01-15 02:01:19.81	277.14	23.49	
2025-01-15 02:01:21.02	276.85	23.39	
2025-01-15 02:01:22.24	276.57	23.29	
2025-01-15 02:01:23.46	276.29	23.19	
2025-01-15 02:01:24.68	276.01	23.09	
2025-01-15 02:01:25.90	275.73	22.99	
2025-01-15 02:01:27.12	275.46	22.88	
2025-01-15 02:01:28.34	275.18	22.78	
2025-01-15 02:01:29.55	274.91	22.68	
2025-01-15 02:01:30.77	274.64	22.58	
2025-01-15 02:01:31.99	274.38	22.47	
2025-01-15 02:01:33.21	274.11	22.37	
2025-01-15 02:01:34.43	273.84	22.27	
2025-01-15 02:01:35.65	273.58	22.16	
2025-01-15 02:01:36.86	273.32	22.06	
2025-01-15 02:01:38.08	273.06	21.95	
2025-01-15 02:01:39.30	272.81	21.85	
2025-01-15 02:01:40.52	272.55	21.74	
2025-01-15 02:01:41.74	272.30	21.64	
2025-01-15 02:01:42.96	272.04	21.53	
2025-01-15 02:01:44.18	271.79	21.43	
2025-01-15 02:01:45.39	271.55	21.32	
2025-01-15 02:01:46.61	271.30	21.22	
2025-01-15 02:01:47.83	271.05	21.11	
2025-01-15 02:01:49.05	270.81	21.01	
2025-01-15 02:01:50.27	270.57	20.90	
2025-01-15 02:01:51.49	270.33	20.79	
2025-01-15 02:01:52.70	270.09	20.69	
2025-01-15 02:01:53.92	269.85	20.58	
2025-01-15 02:01:55.14	269.62	20.47	
2025-01-15 02:01:56.36	269.38	20.37	
2025-01-15 02:01:57.58	269.15	20.26	
2025-01-15 02:01:58.80	268.92	20.16	
2025-01-15 02:02:00.02	268.69	20.05	
2025-01-15 02:02:01.23	268.47	19.94	
2025-01-15 02:02:02.45	268.24	19.84	
2025-01-15 02:02:03.67	268.02	19.73	
2025-01-15 02:02:04.89	267.79	19.62	
2025-01-15 02:02:06.11	267.57	19.52	
2025-01-15 02:02:07.33	267.35	19.41	
2025-01-15 02:02:08.54	267.14	19.30	
2025-01-15 02:02:09.76	266.92	19.20	
2025-01-15 02:02:10.98	266.70	19.09	
2025-01-15 02:02:12.20	266.49	18.98	
2025-01-15 02:02:13.42	266.28	18.88	
2025-01-15 02:02:14.64	266.07	18.77	
2025-01-15 02:02:15.86	265.86	18.67	
2025-01-15 02:02:17.07	265.65	18.56	
2025-01-15 02:02:18.29	265.45	18.45	
2025-01-15 02:02:19.51	265.24	18.35	
2025-01-15 02:02:20.73	265.04	18.24	
2025-01-15 02:02:21.95	264.84	18.14	
2025-01-15 02:02:23.17	264.64	18.03	
2025-01-15 02:02:24.38	264.44	17.92	
2025-01-15 02:02:25.60	264.24	17.82	
2025-01-15 02:02:26.82	264.05	17.71	
2025-01-15 02:02:28.04	263.85	17.61	
2025-01-15 02:02:29.26	263.66	17.50	
2025-01-15 02:02:30.48	263.47	17.40	
2025-01-15 02:02:31.70	263.27	17.29	
2025-01-15 02:02:32.91	263.09	17.19	
2025-01-15 02:02:34.13	262.90	17.08	
2025-01-15 02:02:35.35	262.71	16.98	
2025-01-15 02:02:36.57	262.53	16.87	
2025-01-15 02:02:37.79	262.34	16.77	
2025-01-15 02:02:39.01	262.16	16.66	
2025-01-15 02:02:40.22	261.98	16.56	
2025-01-15 02:02:41.44	261.80	16.46	
2025-01-15 02:02:42.66	261.62	16.35	
2025-01-15 02:02:43.88	261.44	16.25	
2025-01-15 02:02:45.10	261.27	16.15	
2025-01-15 02:02:46.32	261.09	16.04	
2025-01-15 02:02:47.54	260.92	15.94	
2025-01-15 02:02:48.75	260.75	15.84	
2025-01-15 02:02:49.97	260.57	15.73	
2025-01-15 02:02:51.19	260.40	15.63	
2025-01-15 02:02:52.41	260.23	15.53	
2025-01-15 02:02:53.63	260.07	15.43	
2025-01-15 02:02:54.85	259.90	15.32	
2025-01-15 02:02:56.06	259.73	15.22	
2025-01-15 02:02:57.28	259.57	15.12	
2025-01-15 02:02:58.50	259.41	15.02	
2025-01-15 02:02:59.72	259.24	14.92	
2025-01-15 02:03:00.94	259.08	14.82	
2025-01-15 02:03:02.16	258.92	14.72	
2025-01-15 02:03:03.38	258.76	14.61	
2025-01-15 02:03:04.59	258.61	14.52	
2025-01-15 02:03:05.81	258.45	14.41	
2025-01-15 02:03:07.03	258.29	14.31	
2025-01-15 02:03:08.25	258.14	14.21	
2025-01-15 02:03:09.47	257.99	14.11	
2025-01-15 02:03:10.69	257.83	14.01	
2025-01-15 02:03:11.90	257.68	13.92	
2025-01-15 02:03:13.12	257.53	13.82	
2025-01-15 02:03:14.34	257.38	13.72	
2025-01-15 02:03:15.56	257.23	13.62	
2025-01-15 02:03:16.78	257.09	13.52	
2025-01-15 02:03:18.00	256.94	13.42	
2025-01-15 02:03:19.22	256.79	13.32	
2025-01-15 02:03:20.43	256.65	13.23	
2025-01-15 02:03:21.65	256.51	13.13	
2025-01-15 02:03:22.87	256.36	13.03	
2025-01-15 02:03:24.09	256.22	12.93	
2025-01-15 02:03:25.31	256.08	12.84	
2025-01-15 02:03:26.53	255.94	12.74	
2025-01-15 02:03:27.74	255.80	12.64	
2025-01-15 02:03:28.96	255.67	12.55	
2025-01-15 02:03:30.18	255.53	12.45	
2025-01-15 02:03:31.40	255.39	12.35	
2025-01-15 02:03:32.62	255.26	12.26	
2025-01-15 02:03:33.84	255.12	12.16	
2025-01-15 02:03:35.06	254.99	12.07	
2025-01-15 02:03:36.27	254.86	11.97	
2025-01-15 02:03:37.49	254.73	11.88	
2025-01-15 02:03:38.71	254.60	11.78	
2025-01-15 02:03:39.93	254.47	11.69	
2025-01-15 02:03:41.15	254.34	11.59	
2025-01-15 02:03:42.37	254.21	11.50	
2025-01-15 02:03:43.58	254.08	11.41	
2025-01-15 02:03:44.80	253.96	11.31	
2025-01-15 02:03:46.02	253.83	11.22	
2025-01-15 02:03:47.24	253.70	11.13	
2025-01-15 02:03:48.46	253.58	11.03	
2025-01-15 02:03:49.68	253.46	10.94	
2025-01-15 02:03:50.90	253.33	10.85	
2025-01-15 02:03:52.11	253.21	10.76	
2025-01-15 02:03:53.33	253.09	10.66	
2025-01-15 02:03:54.55	252.97	10.57	
2025-01-15 02:03:55.77	252.85	10.48	
2025-01-15 02:03:56.99	252.73	10.39	
2025-01-15 02:03:58.21	252.62	10.30	
2025-01-15 02:03:59.43	252.50	10.21	
2025-01-15 02:04:00.64	252.38	10.12	
2025-01-15 02:04:01.86	252.27	10.03	
2025-01-15 02:04:03.08	252.15	9.94	
2025-01-15 02:04:04.30	252.04	9.84	
2025-01-15 02:04:05.52	251.93	9.75	
2025-01-15 02:04:06.74	251.81	9.67	
2025-01-15 02:04:07.95	251.70	9.58	
2025-01-15 02:04:09.17	251.59	9.49	
2025-01-15 02:04:10.39	251.48	9.40	
2025-01-15 02:04:11.61	251.37	9.31	
2025-01-15 02:04:12.83	251.26	9.22	
2025-01-15 02:04:14.05	251.15	9.13	
2025-01-15 02:04:15.27	251.04	9.04	
2025-01-15 02:04:16.48	250.94	8.96	
2025-01-15 02:04:17.70	250.83	8.87	
2025-01-15 02:04:18.92	250.72	8.78	
2025-01-15 02:04:20.14	250.62	8.69	
2025-01-15 02:04:21.36	250.51	8.61	
2025-01-15 02:04:22.58	250.41	8.52	
2025-01-15 02:04:23.79	250.31	8.43	
2025-01-15 02:04:25.01	250.20	8.35	
2025-01-15 02:04:26.23	250.10	8.26	
2025-01-15 02:04:27.45	250.00	8.17	
2025-01-15 02:04:28.67	249.90	8.09	
2025-01-15 02:04:29.89	249.80	8.00	
2025-01-15 02:04:31.11	249.70	7.92	
2025-01-15 02:04:32.32	249.60	7.83	
2025-01-15 02:04:33.54	249.50	7.75	
2025-01-15 02:04:34.76	249.41	7.66	
2025-01-15 02:04:35.98	249.31	7.58	
2025-01-15 02:04:37.20	249.21	7.49	
2025-01-15 02:04:38.42	249.11	7.41	
2025-01-15 02:04:39.63	249.02	7.32	
2025-01-15 02:04:40.85	248.92	7.24	
2025-01-15 02:04:42.07	248.83	7.16	
2025-01-15 02:04:43.29	248.74	7.07	
2025-01-15 02:04:44.51	248.64	6.99	
2025-01-15 02:04:45.73	248.55	6.91	
2025-01-15 02:04:46.95	248.46	6.82	
2025-01-15 02:04:48.16	248.37	6.74	
2025-01-15 02:04:49.38	248.28	6.66	
2025-01-15 02:04:50.60	248.19	6.58	
2025-01-15 02:04:51.82	248.09	6.50	
2025-01-15 02:04:53.04	248.01	6.41	
2025-01-15 02:04:54.26	247.92	6.33	
2025-01-15 02:04:55.47	247.83	6.25	
2025-01-15 02:04:56.69	247.74	6.17	
2025-01-15 02:04:57.91	247.65	6.09	
2025-01-15 02:04:59.13	247.57	6.01	
2025-01-15 02:05:00.35	247.48	5.93	
2025-01-15 02:05:01.57	247.39	5.85	
2025-01-15 02:05:02.79	247.31	5.77	
2025-01-15 02:05:04.00	247.22	5.69	
2025-01-15 02:05:05.22	247.14	5.61	
2025-01-15 02:05:06.44	247.05	5.53	
2025-01-15 02:05:07.66	246.97	5.45	
2025-01-15 02:05:08.88	246.89	5.37	
2025-01-15 02:05:10.10	246.80	5.29	
2025-01-15 02:05:11.31	246.72	5.21	
2025-01-15 02:05:12.53	246.64	5.13	
2025-01-15 02:05:13.75	246.56	5.05	
2025-01-15 02:05:14.97	246.48	4.97	
2025-01-15 02:05:16.19	246.40	4.89	
2025-01-15 02:05:17.41	246.32	4.82	
2025-01-15 02:05:18.63	246.24	4.74	
2025-01-15 02:05:19.84	246.16	4.66	
2025-01-15 02:05:21.06	246.08	4.58	
2025-01-15 02:05:22.28	246.00	4.50	
2025-01-15 02:05:23.50	245.93	4.43	
2025-01-15 02:05:24.72	245.85	4.35	
2025-01-15 02:05:25.94	245.77	4.27	
2025-01-15 02:05:27.15	245.70	4.20	
2025-01-15 02:05:28.37	245.62	4.12	
2025-01-15 02:05:29.59	245.54	4.04	

#Closed at: 2025-01-15 02:05:30