passes_logs/2025/01/15/SPB_Silybum_02/SPB_Silybum_02__20250115_205439_TERRA_rec.log

#Pass ID: 20250115_205439_TERRA
#Satellite: TERRA
#Configuration: TERRA
#Start time: 2025-01-15 20:54:39

#Version: 2.0.20230423
#Station: SPB_Silybum_02
#Location: 30.233357 lon 59.946436 lat
#TLE: 1 25994U 99068A   25015.11447882  .00000776  00000+0  16956-3 0  9998
#TLE: 2 25994  98.0215  78.1412 0003445  72.3139 317.8565 14.60395081334091

#Time	Az	El	Level	Level2	SNR	BER	Gain	Gain2
2025-01-15 20:54:41.41	244.39	4.10	
2025-01-15 20:54:42.23	244.50	4.13	
2025-01-15 20:54:43.04	244.61	4.17	
2025-01-15 20:54:43.85	244.72	4.20	
2025-01-15 20:54:44.66	244.83	4.23	
2025-01-15 20:54:45.48	244.95	4.27	
2025-01-15 20:54:46.29	245.06	4.30	
2025-01-15 20:54:47.10	245.17	4.33	
2025-01-15 20:54:47.91	245.28	4.37	
2025-01-15 20:54:48.73	245.39	4.40	
2025-01-15 20:54:49.54	245.51	4.43	
2025-01-15 20:54:50.35	245.62	4.47	
2025-01-15 20:54:51.16	245.73	4.50	
2025-01-15 20:54:51.98	245.85	4.53	
2025-01-15 20:54:52.79	245.96	4.57	
2025-01-15 20:54:53.60	246.07	4.60	
2025-01-15 20:54:54.41	246.19	4.63	
2025-01-15 20:54:55.23	246.30	4.67	
2025-01-15 20:54:56.04	246.42	4.70	
2025-01-15 20:54:56.85	246.53	4.73	
2025-01-15 20:54:57.66	246.65	4.77	
2025-01-15 20:54:58.47	246.76	4.80	
2025-01-15 20:54:59.29	246.88	4.83	
2025-01-15 20:55:00.10	246.99	4.86	
2025-01-15 20:55:00.91	247.11	4.90	
2025-01-15 20:55:01.72	247.23	4.93	
2025-01-15 20:55:02.54	247.34	4.96	
2025-01-15 20:55:03.35	247.46	5.00	
2025-01-15 20:55:04.16	247.58	5.03	
2025-01-15 20:55:04.97	247.70	5.06	
2025-01-15 20:55:05.79	247.82	5.09	
2025-01-15 20:55:06.60	247.93	5.13	
2025-01-15 20:55:07.41	248.05	5.16	
2025-01-15 20:55:08.22	248.17	5.19	
2025-01-15 20:55:09.04	248.29	5.22	
2025-01-15 20:55:09.85	248.41	5.25	
2025-01-15 20:55:10.66	248.53	5.29	
2025-01-15 20:55:11.47	248.65	5.32	
2025-01-15 20:55:12.29	248.77	5.35	
2025-01-15 20:55:13.10	248.89	5.38	
2025-01-15 20:55:13.91	249.01	5.42	
2025-01-15 20:55:14.72	249.13	5.45	
2025-01-15 20:55:15.54	249.25	5.48	
2025-01-15 20:55:16.35	249.37	5.51	
2025-01-15 20:55:17.16	249.50	5.54	
2025-01-15 20:55:17.97	249.62	5.57	
2025-01-15 20:55:18.79	249.74	5.61	
2025-01-15 20:55:19.60	249.86	5.64	
2025-01-15 20:55:20.41	249.99	5.67	
2025-01-15 20:55:21.22	250.11	5.70	
2025-01-15 20:55:22.04	250.23	5.73	
2025-01-15 20:55:22.85	250.36	5.76	
2025-01-15 20:55:23.66	250.48	5.79	
2025-01-15 20:55:24.47	250.61	5.82	
2025-01-15 20:55:25.29	250.73	5.86	
2025-01-15 20:55:26.10	250.86	5.89	
2025-01-15 20:55:26.91	250.98	5.92	
2025-01-15 20:55:27.72	251.11	5.95	
2025-01-15 20:55:28.53	251.23	5.98	
2025-01-15 20:55:29.35	251.36	6.01	
2025-01-15 20:55:30.16	251.49	6.04	
2025-01-15 20:55:30.97	251.61	6.07	
2025-01-15 20:55:31.78	251.74	6.10	
2025-01-15 20:55:32.60	251.87	6.13	
2025-01-15 20:55:33.41	251.99	6.16	
2025-01-15 20:55:34.22	252.12	6.19	
2025-01-15 20:55:35.03	252.25	6.22	
2025-01-15 20:55:35.85	252.38	6.25	
2025-01-15 20:55:36.66	252.51	6.28	
2025-01-15 20:55:37.47	252.64	6.31	
2025-01-15 20:55:38.28	252.76	6.34	
2025-01-15 20:55:39.10	252.89	6.37	
2025-01-15 20:55:39.91	253.02	6.40	
2025-01-15 20:55:40.72	253.15	6.43	
2025-01-15 20:55:41.53	253.28	6.46	
2025-01-15 20:55:42.35	253.42	6.49	
2025-01-15 20:55:43.16	253.55	6.52	
2025-01-15 20:55:43.97	253.68	6.55	
2025-01-15 20:55:44.78	253.81	6.58	
2025-01-15 20:55:45.60	253.94	6.61	
2025-01-15 20:55:46.41	254.07	6.64	
2025-01-15 20:55:47.22	254.20	6.67	
2025-01-15 20:55:48.03	254.34	6.70	
2025-01-15 20:55:48.85	254.47	6.73	
2025-01-15 20:55:49.66	254.60	6.75	
2025-01-15 20:55:50.47	254.74	6.78	
2025-01-15 20:55:51.28	254.87	6.81	
2025-01-15 20:55:52.10	255.00	6.84	
2025-01-15 20:55:52.91	255.14	6.87	
2025-01-15 20:55:53.72	255.27	6.90	
2025-01-15 20:55:54.53	255.41	6.92	
2025-01-15 20:55:55.35	255.54	6.95	
2025-01-15 20:55:56.16	255.68	6.98	
2025-01-15 20:55:56.97	255.81	7.01	
2025-01-15 20:55:57.78	255.95	7.04	
2025-01-15 20:55:58.59	256.08	7.06	
2025-01-15 20:55:59.41	256.22	7.09	
2025-01-15 20:56:00.22	256.36	7.12	
2025-01-15 20:56:01.03	256.49	7.15	
2025-01-15 20:56:01.84	256.63	7.17	
2025-01-15 20:56:02.66	256.77	7.20	
2025-01-15 20:56:03.47	256.91	7.23	
2025-01-15 20:56:04.28	257.04	7.26	
2025-01-15 20:56:05.09	257.18	7.28	
2025-01-15 20:56:05.91	257.32	7.31	
2025-01-15 20:56:06.72	257.46	7.34	
2025-01-15 20:56:07.53	257.60	7.36	
2025-01-15 20:56:08.34	257.74	7.39	
2025-01-15 20:56:09.16	257.88	7.42	
2025-01-15 20:56:09.97	258.02	7.44	
2025-01-15 20:56:10.78	258.16	7.47	
2025-01-15 20:56:11.59	258.30	7.49	
2025-01-15 20:56:12.41	258.44	7.52	
2025-01-15 20:56:13.22	258.58	7.55	
2025-01-15 20:56:14.03	258.72	7.57	
2025-01-15 20:56:14.84	258.86	7.60	
2025-01-15 20:56:15.66	259.00	7.62	
2025-01-15 20:56:16.47	259.15	7.65	
2025-01-15 20:56:17.28	259.29	7.67	
2025-01-15 20:56:18.09	259.43	7.70	
2025-01-15 20:56:18.91	259.57	7.72	
2025-01-15 20:56:19.72	259.72	7.75	
2025-01-15 20:56:20.53	259.86	7.77	
2025-01-15 20:56:21.34	260.00	7.80	
2025-01-15 20:56:22.16	260.15	7.82	
2025-01-15 20:56:22.97	260.29	7.85	
2025-01-15 20:56:23.78	260.43	7.87	
2025-01-15 20:56:24.59	260.58	7.90	
2025-01-15 20:56:25.41	260.72	7.92	
2025-01-15 20:56:26.22	260.87	7.95	
2025-01-15 20:56:27.03	261.01	7.97	
2025-01-15 20:56:27.84	261.16	7.99	
2025-01-15 20:56:28.66	261.31	8.02	
2025-01-15 20:56:29.47	261.45	8.04	
2025-01-15 20:56:30.28	261.60	8.06	
2025-01-15 20:56:31.09	261.74	8.09	
2025-01-15 20:56:31.90	261.89	8.11	
2025-01-15 20:56:32.72	262.04	8.13	
2025-01-15 20:56:33.53	262.18	8.16	
2025-01-15 20:56:34.34	262.33	8.18	
2025-01-15 20:56:35.15	262.48	8.20	
2025-01-15 20:56:35.97	262.63	8.22	
2025-01-15 20:56:36.78	262.78	8.25	
2025-01-15 20:56:37.59	262.92	8.27	
2025-01-15 20:56:38.40	263.07	8.29	
2025-01-15 20:56:39.22	263.22	8.31	
2025-01-15 20:56:40.03	263.37	8.33	
2025-01-15 20:56:40.84	263.52	8.36	
2025-01-15 20:56:41.65	263.67	8.38	
2025-01-15 20:56:42.47	263.82	8.40	
2025-01-15 20:56:43.28	263.97	8.42	
2025-01-15 20:56:44.09	264.12	8.44	
2025-01-15 20:56:44.90	264.27	8.46	
2025-01-15 20:56:45.72	264.42	8.48	
2025-01-15 20:56:46.53	264.57	8.50	
2025-01-15 20:56:47.34	264.72	8.52	
2025-01-15 20:56:48.15	264.87	8.54	
2025-01-15 20:56:48.97	265.03	8.56	
2025-01-15 20:56:49.78	265.18	8.58	
2025-01-15 20:56:50.59	265.33	8.60	
2025-01-15 20:56:51.40	265.48	8.62	
2025-01-15 20:56:52.22	265.63	8.64	
2025-01-15 20:56:53.03	265.79	8.66	
2025-01-15 20:56:53.84	265.94	8.68	
2025-01-15 20:56:54.65	266.09	8.70	
2025-01-15 20:56:55.47	266.25	8.72	
2025-01-15 20:56:56.28	266.40	8.74	
2025-01-15 20:56:57.09	266.55	8.76	
2025-01-15 20:56:57.90	266.71	8.78	
2025-01-15 20:56:58.72	266.86	8.80	
2025-01-15 20:56:59.53	267.02	8.81	
2025-01-15 20:57:00.34	267.17	8.83	
2025-01-15 20:57:01.15	267.32	8.85	
2025-01-15 20:57:01.96	267.48	8.87	
2025-01-15 20:57:02.78	267.63	8.88	
2025-01-15 20:57:03.59	267.79	8.90	
2025-01-15 20:57:04.40	267.94	8.92	
2025-01-15 20:57:05.21	268.10	8.94	
2025-01-15 20:57:06.03	268.26	8.95	
2025-01-15 20:57:06.84	268.41	8.97	
2025-01-15 20:57:07.65	268.57	8.99	
2025-01-15 20:57:08.46	268.72	9.00	
2025-01-15 20:57:09.28	268.88	9.02	
2025-01-15 20:57:10.09	269.04	9.04	
2025-01-15 20:57:10.90	269.20	9.05	
2025-01-15 20:57:11.71	269.35	9.07	
2025-01-15 20:57:12.53	269.51	9.08	
2025-01-15 20:57:13.34	269.67	9.10	
2025-01-15 20:57:14.15	269.82	9.11	
2025-01-15 20:57:14.96	269.98	9.13	
2025-01-15 20:57:15.78	270.14	9.14	
2025-01-15 20:57:16.59	270.30	9.16	
2025-01-15 20:57:17.40	270.46	9.17	
2025-01-15 20:57:18.21	270.62	9.19	
2025-01-15 20:57:19.03	270.78	9.20	
2025-01-15 20:57:19.84	270.93	9.22	
2025-01-15 20:57:20.65	271.09	9.23	
2025-01-15 20:57:21.46	271.25	9.24	
2025-01-15 20:57:22.28	271.41	9.26	
2025-01-15 20:57:23.09	271.57	9.27	
2025-01-15 20:57:23.90	271.73	9.29	
2025-01-15 20:57:24.71	271.89	9.30	
2025-01-15 20:57:25.53	272.05	9.31	
2025-01-15 20:57:26.34	272.21	9.32	
2025-01-15 20:57:27.15	272.37	9.34	
2025-01-15 20:57:27.96	272.53	9.35	
2025-01-15 20:57:28.78	272.69	9.36	
2025-01-15 20:57:29.59	272.85	9.37	
2025-01-15 20:57:30.40	273.01	9.38	
2025-01-15 20:57:31.21	273.17	9.40	
2025-01-15 20:57:32.02	273.33	9.41	
2025-01-15 20:57:32.84	273.50	9.42	
2025-01-15 20:57:33.65	273.66	9.43	
2025-01-15 20:57:34.46	273.82	9.44	
2025-01-15 20:57:35.27	273.98	9.45	
2025-01-15 20:57:36.09	274.14	9.46	
2025-01-15 20:57:36.90	274.30	9.47	
2025-01-15 20:57:37.71	274.46	9.48	
2025-01-15 20:57:38.52	274.63	9.49	
2025-01-15 20:57:39.34	274.79	9.50	
2025-01-15 20:57:40.15	274.95	9.51	
2025-01-15 20:57:40.96	275.11	9.52	
2025-01-15 20:57:41.77	275.27	9.53	
2025-01-15 20:57:42.59	275.44	9.54	
2025-01-15 20:57:43.40	275.60	9.55	
2025-01-15 20:57:44.21	275.76	9.56	
2025-01-15 20:57:45.02	275.92	9.57	
2025-01-15 20:57:45.84	276.09	9.57	
2025-01-15 20:57:46.65	276.25	9.58	
2025-01-15 20:57:47.46	276.41	9.59	
2025-01-15 20:57:48.27	276.58	9.60	
2025-01-15 20:57:49.09	276.74	9.61	
2025-01-15 20:57:49.90	276.90	9.61	
2025-01-15 20:57:50.71	277.07	9.62	
2025-01-15 20:57:51.52	277.23	9.63	
2025-01-15 20:57:52.34	277.40	9.63	
2025-01-15 20:57:53.15	277.56	9.64	
2025-01-15 20:57:53.96	277.72	9.65	
2025-01-15 20:57:54.77	277.89	9.65	
2025-01-15 20:57:55.59	278.05	9.66	
2025-01-15 20:57:56.40	278.21	9.67	
2025-01-15 20:57:57.21	278.38	9.67	
2025-01-15 20:57:58.02	278.54	9.68	
2025-01-15 20:57:58.84	278.71	9.68	
2025-01-15 20:57:59.65	278.87	9.69	
2025-01-15 20:58:00.46	279.03	9.69	
2025-01-15 20:58:01.27	279.20	9.70	
2025-01-15 20:58:02.08	279.36	9.70	
2025-01-15 20:58:02.90	279.53	9.71	
2025-01-15 20:58:03.71	279.69	9.71	
2025-01-15 20:58:04.52	279.86	9.71	
2025-01-15 20:58:05.33	280.02	9.72	
2025-01-15 20:58:06.15	280.19	9.72	
2025-01-15 20:58:06.96	280.35	9.72	
2025-01-15 20:58:07.77	280.51	9.73	
2025-01-15 20:58:08.58	280.68	9.73	
2025-01-15 20:58:09.40	280.84	9.73	
2025-01-15 20:58:10.21	281.01	9.73	
2025-01-15 20:58:11.02	281.17	9.74	
2025-01-15 20:58:11.83	281.34	9.74	
2025-01-15 20:58:12.65	281.50	9.74	
2025-01-15 20:58:13.46	281.67	9.74	
2025-01-15 20:58:14.27	281.83	9.74	
2025-01-15 20:58:15.08	282.00	9.75	
2025-01-15 20:58:15.90	282.16	9.75	
2025-01-15 20:58:16.71	282.33	9.75	
2025-01-15 20:58:17.52	282.49	9.75	
2025-01-15 20:58:18.33	282.66	9.75	
2025-01-15 20:58:19.15	282.82	9.75	
2025-01-15 20:58:19.96	282.99	9.75	
2025-01-15 20:58:20.77	283.15	9.75	
2025-01-15 20:58:21.58	283.32	9.75	
2025-01-15 20:58:22.40	283.48	9.75	
2025-01-15 20:58:23.21	283.65	9.75	
2025-01-15 20:58:24.02	283.81	9.75	
2025-01-15 20:58:24.83	283.98	9.75	
2025-01-15 20:58:25.65	284.14	9.74	
2025-01-15 20:58:26.46	284.31	9.74	
2025-01-15 20:58:27.27	284.47	9.74	
2025-01-15 20:58:28.08	284.63	9.74	
2025-01-15 20:58:28.90	284.80	9.74	
2025-01-15 20:58:29.71	284.96	9.74	
2025-01-15 20:58:30.52	285.13	9.73	
2025-01-15 20:58:31.33	285.29	9.73	
2025-01-15 20:58:32.14	285.46	9.73	
2025-01-15 20:58:32.96	285.62	9.72	
2025-01-15 20:58:33.77	285.79	9.72	
2025-01-15 20:58:34.58	285.95	9.72	
2025-01-15 20:58:35.39	286.12	9.71	
2025-01-15 20:58:36.21	286.28	9.71	
2025-01-15 20:58:37.02	286.44	9.71	
2025-01-15 20:58:37.83	286.61	9.70	
2025-01-15 20:58:38.64	286.77	9.70	
2025-01-15 20:58:39.46	286.94	9.69	
2025-01-15 20:58:40.27	287.10	9.69	
2025-01-15 20:58:41.08	287.27	9.68	
2025-01-15 20:58:41.89	287.43	9.68	
2025-01-15 20:58:42.71	287.59	9.67	
2025-01-15 20:58:43.52	287.76	9.67	
2025-01-15 20:58:44.33	287.92	9.66	
2025-01-15 20:58:45.14	288.08	9.66	
2025-01-15 20:58:45.96	288.25	9.65	
2025-01-15 20:58:46.77	288.41	9.64	
2025-01-15 20:58:47.58	288.58	9.64	
2025-01-15 20:58:48.39	288.74	9.63	
2025-01-15 20:58:49.21	288.90	9.62	
2025-01-15 20:58:50.02	289.07	9.62	
2025-01-15 20:58:50.83	289.23	9.61	
2025-01-15 20:58:51.64	289.39	9.60	
2025-01-15 20:58:52.46	289.56	9.59	
2025-01-15 20:58:53.27	289.72	9.59	
2025-01-15 20:58:54.08	289.88	9.58	
2025-01-15 20:58:54.89	290.04	9.57	
2025-01-15 20:58:55.71	290.21	9.56	
2025-01-15 20:58:56.52	290.37	9.55	
2025-01-15 20:58:57.33	290.53	9.54	
2025-01-15 20:58:58.14	290.69	9.54	
2025-01-15 20:58:58.96	290.86	9.53	
2025-01-15 20:58:59.77	291.02	9.52	
2025-01-15 20:59:00.58	291.18	9.51	
2025-01-15 20:59:01.39	291.34	9.50	
2025-01-15 20:59:02.20	291.50	9.49	
2025-01-15 20:59:03.02	291.66	9.48	
2025-01-15 20:59:03.83	291.83	9.47	
2025-01-15 20:59:04.64	291.99	9.46	
2025-01-15 20:59:05.45	292.15	9.45	
2025-01-15 20:59:06.27	292.31	9.44	
2025-01-15 20:59:07.08	292.47	9.42	
2025-01-15 20:59:07.89	292.63	9.41	
2025-01-15 20:59:08.70	292.79	9.40	
2025-01-15 20:59:09.52	292.95	9.39	
2025-01-15 20:59:10.33	293.11	9.38	
2025-01-15 20:59:11.14	293.27	9.37	
2025-01-15 20:59:11.95	293.43	9.35	
2025-01-15 20:59:12.77	293.59	9.34	
2025-01-15 20:59:13.58	293.75	9.33	
2025-01-15 20:59:14.39	293.91	9.32	
2025-01-15 20:59:15.20	294.07	9.30	
2025-01-15 20:59:16.02	294.23	9.29	
2025-01-15 20:59:16.83	294.39	9.28	
2025-01-15 20:59:17.64	294.55	9.27	
2025-01-15 20:59:18.45	294.71	9.25	
2025-01-15 20:59:19.27	294.87	9.24	
2025-01-15 20:59:20.08	295.03	9.22	
2025-01-15 20:59:20.89	295.18	9.21	
2025-01-15 20:59:21.70	295.34	9.20	
2025-01-15 20:59:22.52	295.50	9.18	
2025-01-15 20:59:23.33	295.66	9.17	
2025-01-15 20:59:24.14	295.82	9.15	
2025-01-15 20:59:24.95	295.97	9.14	
2025-01-15 20:59:25.77	296.13	9.12	
2025-01-15 20:59:26.58	296.29	9.11	
2025-01-15 20:59:27.39	296.45	9.09	
2025-01-15 20:59:28.20	296.60	9.08	
2025-01-15 20:59:29.02	296.76	9.06	
2025-01-15 20:59:29.83	296.92	9.05	
2025-01-15 20:59:30.64	297.07	9.03	
2025-01-15 20:59:31.45	297.23	9.01	
2025-01-15 20:59:32.27	297.38	9.00	
2025-01-15 20:59:33.08	297.54	8.98	
2025-01-15 20:59:33.89	297.70	8.96	
2025-01-15 20:59:34.70	297.85	8.95	
2025-01-15 20:59:35.51	298.01	8.93	
2025-01-15 20:59:36.33	298.16	8.91	
2025-01-15 20:59:37.14	298.32	8.90	
2025-01-15 20:59:37.95	298.47	8.88	
2025-01-15 20:59:38.76	298.62	8.86	
2025-01-15 20:59:39.58	298.78	8.84	
2025-01-15 20:59:40.39	298.93	8.82	
2025-01-15 20:59:41.20	299.09	8.81	
2025-01-15 20:59:42.01	299.24	8.79	
2025-01-15 20:59:42.83	299.39	8.77	
2025-01-15 20:59:43.64	299.55	8.75	
2025-01-15 20:59:44.45	299.70	8.73	
2025-01-15 20:59:45.26	299.85	8.71	
2025-01-15 20:59:46.08	300.01	8.69	
2025-01-15 20:59:46.89	300.16	8.68	
2025-01-15 20:59:47.70	300.31	8.66	
2025-01-15 20:59:48.51	300.46	8.64	
2025-01-15 20:59:49.33	300.61	8.62	
2025-01-15 20:59:50.14	300.77	8.60	
2025-01-15 20:59:50.95	300.92	8.58	
2025-01-15 20:59:51.76	301.07	8.56	
2025-01-15 20:59:52.58	301.22	8.54	
2025-01-15 20:59:53.39	301.37	8.52	
2025-01-15 20:59:54.20	301.52	8.50	
2025-01-15 20:59:55.01	301.67	8.48	
2025-01-15 20:59:55.83	301.82	8.46	
2025-01-15 20:59:56.64	301.97	8.43	
2025-01-15 20:59:57.45	302.12	8.41	
2025-01-15 20:59:58.26	302.27	8.39	
2025-01-15 20:59:59.08	302.42	8.37	
2025-01-15 20:59:59.89	302.57	8.35	
2025-01-15 21:00:00.71	302.72	8.33	
2025-01-15 21:00:01.52	302.86	8.31	
2025-01-15 21:00:02.35	303.02	8.28	
2025-01-15 21:00:03.18	303.17	8.26	
2025-01-15 21:00:04.00	303.32	8.24	
2025-01-15 21:00:04.81	303.46	8.22	
2025-01-15 21:00:05.63	303.61	8.19	
2025-01-15 21:00:06.44	303.76	8.17	
2025-01-15 21:00:07.25	303.90	8.15	
2025-01-15 21:00:08.06	304.05	8.13	
2025-01-15 21:00:08.88	304.20	8.10	
2025-01-15 21:00:09.69	304.34	8.08	
2025-01-15 21:00:10.50	304.49	8.06	
2025-01-15 21:00:11.31	304.63	8.03	
2025-01-15 21:00:12.13	304.78	8.01	
2025-01-15 21:00:12.94	304.92	7.99	
2025-01-15 21:00:13.75	305.07	7.96	
2025-01-15 21:00:14.56	305.21	7.94	
2025-01-15 21:00:15.38	305.36	7.92	
2025-01-15 21:00:16.19	305.50	7.89	
2025-01-15 21:00:17.00	305.64	7.87	
2025-01-15 21:00:17.81	305.79	7.84	
2025-01-15 21:00:18.63	305.93	7.82	
2025-01-15 21:00:19.44	306.07	7.79	
2025-01-15 21:00:20.25	306.22	7.77	
2025-01-15 21:00:21.06	306.36	7.74	
2025-01-15 21:00:21.87	306.50	7.72	
2025-01-15 21:00:22.69	306.64	7.69	
2025-01-15 21:00:23.50	306.78	7.67	
2025-01-15 21:00:24.31	306.93	7.64	
2025-01-15 21:00:25.12	307.07	7.62	
2025-01-15 21:00:25.94	307.21	7.59	
2025-01-15 21:00:26.75	307.35	7.57	
2025-01-15 21:00:27.56	307.49	7.54	
2025-01-15 21:00:28.37	307.63	7.52	
2025-01-15 21:00:29.19	307.77	7.49	
2025-01-15 21:00:30.00	307.91	7.47	
2025-01-15 21:00:30.81	308.05	7.44	
2025-01-15 21:00:31.62	308.19	7.41	
2025-01-15 21:00:32.44	308.33	7.39	
2025-01-15 21:00:33.25	308.46	7.36	
2025-01-15 21:00:34.06	308.60	7.33	
2025-01-15 21:00:34.87	308.74	7.31	
2025-01-15 21:00:35.69	308.88	7.28	
2025-01-15 21:00:36.50	309.02	7.25	
2025-01-15 21:00:37.31	309.15	7.23	
2025-01-15 21:00:38.12	309.29	7.20	
2025-01-15 21:00:38.94	309.43	7.17	
2025-01-15 21:00:39.75	309.56	7.15	
2025-01-15 21:00:40.56	309.70	7.12	
2025-01-15 21:00:41.37	309.83	7.09	
2025-01-15 21:00:42.19	309.97	7.06	
2025-01-15 21:00:43.00	310.10	7.04	
2025-01-15 21:00:43.81	310.24	7.01	
2025-01-15 21:00:44.62	310.37	6.98	
2025-01-15 21:00:45.44	310.51	6.95	
2025-01-15 21:00:46.25	310.64	6.92	
2025-01-15 21:00:47.06	310.78	6.90	
2025-01-15 21:00:47.87	310.91	6.87	
2025-01-15 21:00:48.68	311.04	6.84	
2025-01-15 21:00:49.50	311.18	6.81	
2025-01-15 21:00:50.31	311.31	6.78	
2025-01-15 21:00:51.12	311.44	6.76	
2025-01-15 21:00:51.93	311.57	6.73	
2025-01-15 21:00:52.75	311.71	6.70	
2025-01-15 21:00:53.56	311.84	6.67	
2025-01-15 21:00:54.37	311.97	6.64	
2025-01-15 21:00:55.18	312.10	6.61	
2025-01-15 21:00:56.00	312.23	6.58	
2025-01-15 21:00:56.81	312.36	6.55	
2025-01-15 21:00:57.62	312.49	6.52	
2025-01-15 21:00:58.43	312.62	6.50	
2025-01-15 21:00:59.25	312.75	6.47	
2025-01-15 21:01:00.06	312.88	6.44	
2025-01-15 21:01:00.87	313.01	6.41	
2025-01-15 21:01:01.68	313.14	6.38	
2025-01-15 21:01:02.50	313.27	6.35	
2025-01-15 21:01:03.31	313.40	6.32	
2025-01-15 21:01:04.12	313.52	6.29	
2025-01-15 21:01:04.93	313.65	6.26	
2025-01-15 21:01:05.75	313.78	6.23	
2025-01-15 21:01:06.56	313.91	6.20	
2025-01-15 21:01:07.37	314.03	6.17	
2025-01-15 21:01:08.18	314.16	6.14	
2025-01-15 21:01:09.00	314.29	6.11	
2025-01-15 21:01:09.81	314.41	6.08	
2025-01-15 21:01:10.62	314.54	6.05	
2025-01-15 21:01:11.43	314.66	6.02	
2025-01-15 21:01:12.25	314.79	5.99	
2025-01-15 21:01:13.06	314.92	5.96	
2025-01-15 21:01:13.87	315.04	5.93	
2025-01-15 21:01:14.68	315.16	5.90	
2025-01-15 21:01:15.50	315.29	5.86	
2025-01-15 21:01:16.31	315.41	5.83	
2025-01-15 21:01:17.12	315.54	5.80	
2025-01-15 21:01:17.93	315.66	5.77	
2025-01-15 21:01:18.74	315.78	5.74	
2025-01-15 21:01:19.56	315.91	5.71	
2025-01-15 21:01:20.37	316.03	5.68	
2025-01-15 21:01:21.18	316.15	5.65	
2025-01-15 21:01:21.99	316.27	5.62	
2025-01-15 21:01:22.81	316.40	5.59	
2025-01-15 21:01:23.62	316.52	5.55	
2025-01-15 21:01:24.43	316.64	5.52	
2025-01-15 21:01:25.24	316.76	5.49	
2025-01-15 21:01:26.06	316.88	5.46	
2025-01-15 21:01:26.87	317.00	5.43	
2025-01-15 21:01:27.68	317.12	5.40	
2025-01-15 21:01:28.49	317.24	5.37	
2025-01-15 21:01:29.31	317.36	5.33	
2025-01-15 21:01:30.12	317.48	5.30	
2025-01-15 21:01:30.93	317.60	5.27	
2025-01-15 21:01:31.74	317.72	5.24	
2025-01-15 21:01:32.56	317.83	5.21	
2025-01-15 21:01:33.37	317.95	5.17	
2025-01-15 21:01:34.18	318.07	5.14	
2025-01-15 21:01:34.99	318.19	5.11	
2025-01-15 21:01:35.81	318.31	5.08	
2025-01-15 21:01:36.62	318.42	5.05	
2025-01-15 21:01:37.43	318.54	5.01	
2025-01-15 21:01:38.24	318.65	4.98	
2025-01-15 21:01:39.06	318.77	4.95	
2025-01-15 21:01:39.87	318.89	4.92	
2025-01-15 21:01:40.68	319.00	4.88	
2025-01-15 21:01:41.49	319.12	4.85	
2025-01-15 21:01:42.31	319.23	4.82	
2025-01-15 21:01:43.12	319.35	4.79	
2025-01-15 21:01:43.93	319.46	4.75	
2025-01-15 21:01:44.74	319.58	4.72	
2025-01-15 21:01:45.56	319.69	4.69	
2025-01-15 21:01:46.37	319.81	4.65	
2025-01-15 21:01:47.18	319.92	4.62	
2025-01-15 21:01:47.99	320.03	4.59	
2025-01-15 21:01:48.80	320.14	4.56	
2025-01-15 21:01:49.62	320.26	4.52	
2025-01-15 21:01:50.43	320.37	4.49	
2025-01-15 21:01:51.24	320.48	4.46	
2025-01-15 21:01:52.05	320.59	4.42	
2025-01-15 21:01:52.87	320.71	4.39	
2025-01-15 21:01:53.68	320.82	4.36	
2025-01-15 21:01:54.49	320.93	4.33	
2025-01-15 21:01:55.30	321.04	4.29	
2025-01-15 21:01:56.12	321.15	4.26	
2025-01-15 21:01:56.93	321.26	4.23	
2025-01-15 21:01:57.74	321.37	4.19	
2025-01-15 21:01:58.55	321.48	4.16	
2025-01-15 21:01:59.37	321.59	4.13	
2025-01-15 21:02:00.18	321.70	4.09	
2025-01-15 21:02:00.99	321.81	4.06	
2025-01-15 21:02:01.80	321.92	4.03	

#Closed at: 2025-01-15 21:02:02