passes_logs/2025/01/15/SPB_Silybum_02/SPB_Silybum_02__20250115_113303_AQUA_rec.log

#Pass ID: 20250115_113303_AQUA
#Satellite: AQUA
#Configuration: AQUA
#Start time: 2025-01-15 11:33:01

#Version: 2.0.20230423
#Station: SPB_Silybum_02
#Location: 30.233357 lon 59.946436 lat
#TLE: 1 27424U 02022A   25014.86211101  .00001670  00000+0  35273-3 0  9993
#TLE: 2 27424  98.3588 331.5248 0001714 111.5422 273.3352 14.60681448207609

#Time	Az	El	Level	Level2	SNR	BER	Gain	Gain2
2025-01-15 11:33:03.79	165.56	4.04	
2025-01-15 11:33:05.01	165.58	4.13	
2025-01-15 11:33:06.23	165.60	4.21	
2025-01-15 11:33:07.44	165.61	4.30	
2025-01-15 11:33:08.66	165.63	4.39	
2025-01-15 11:33:09.88	165.64	4.48	
2025-01-15 11:33:11.10	165.66	4.57	
2025-01-15 11:33:12.31	165.68	4.66	
2025-01-15 11:33:13.53	165.69	4.75	
2025-01-15 11:33:14.75	165.71	4.84	
2025-01-15 11:33:15.97	165.73	4.93	
2025-01-15 11:33:17.19	165.74	5.02	
2025-01-15 11:33:18.40	165.76	5.11	
2025-01-15 11:33:19.62	165.78	5.21	
2025-01-15 11:33:20.84	165.79	5.30	
2025-01-15 11:33:22.06	165.81	5.39	
2025-01-15 11:33:23.27	165.83	5.48	
2025-01-15 11:33:24.49	165.84	5.58	
2025-01-15 11:33:25.71	165.86	5.67	
2025-01-15 11:33:26.93	165.88	5.76	
2025-01-15 11:33:28.14	165.90	5.86	
2025-01-15 11:33:29.36	165.91	5.95	
2025-01-15 11:33:30.58	165.93	6.05	
2025-01-15 11:33:31.80	165.95	6.14	
2025-01-15 11:33:33.02	165.97	6.24	
2025-01-15 11:33:34.23	165.99	6.34	
2025-01-15 11:33:35.45	166.00	6.43	
2025-01-15 11:33:36.67	166.02	6.53	
2025-01-15 11:33:37.90	166.04	6.63	
2025-01-15 11:33:39.12	166.06	6.73	
2025-01-15 11:33:40.34	166.08	6.83	
2025-01-15 11:33:41.55	166.10	6.92	
2025-01-15 11:33:42.77	166.11	7.02	
2025-01-15 11:33:43.99	166.13	7.12	
2025-01-15 11:33:45.21	166.15	7.22	
2025-01-15 11:33:46.43	166.17	7.32	
2025-01-15 11:33:47.64	166.19	7.42	
2025-01-15 11:33:48.86	166.21	7.53	
2025-01-15 11:33:50.08	166.23	7.63	
2025-01-15 11:33:51.30	166.25	7.73	
2025-01-15 11:33:52.51	166.27	7.83	
2025-01-15 11:33:53.73	166.29	7.94	
2025-01-15 11:33:54.95	166.31	8.04	
2025-01-15 11:33:56.17	166.33	8.15	
2025-01-15 11:33:57.39	166.35	8.25	
2025-01-15 11:33:58.60	166.37	8.35	
2025-01-15 11:33:59.82	166.39	8.46	
2025-01-15 11:34:01.04	166.41	8.57	
2025-01-15 11:34:02.26	166.43	8.67	
2025-01-15 11:34:03.47	166.45	8.78	
2025-01-15 11:34:04.69	166.47	8.89	
2025-01-15 11:34:05.91	166.49	9.00	
2025-01-15 11:34:07.13	166.51	9.11	
2025-01-15 11:34:08.34	166.53	9.21	
2025-01-15 11:34:09.56	166.56	9.32	
2025-01-15 11:34:10.78	166.58	9.43	
2025-01-15 11:34:12.00	166.60	9.55	
2025-01-15 11:34:13.22	166.62	9.66	
2025-01-15 11:34:14.43	166.64	9.77	
2025-01-15 11:34:15.65	166.67	9.88	
2025-01-15 11:34:16.87	166.69	9.99	
2025-01-15 11:34:18.09	166.71	10.11	
2025-01-15 11:34:19.30	166.73	10.22	
2025-01-15 11:34:20.52	166.76	10.34	
2025-01-15 11:34:21.74	166.78	10.45	
2025-01-15 11:34:22.96	166.80	10.57	
2025-01-15 11:34:24.17	166.83	10.69	
2025-01-15 11:34:25.39	166.85	10.80	
2025-01-15 11:34:26.61	166.87	10.92	
2025-01-15 11:34:27.83	166.90	11.04	
2025-01-15 11:34:29.05	166.92	11.16	
2025-01-15 11:34:30.26	166.95	11.28	
2025-01-15 11:34:31.48	166.97	11.40	
2025-01-15 11:34:32.70	166.99	11.52	
2025-01-15 11:34:33.92	167.02	11.64	
2025-01-15 11:34:35.13	167.04	11.76	
2025-01-15 11:34:36.35	167.07	11.89	
2025-01-15 11:34:37.57	167.10	12.01	
2025-01-15 11:34:38.79	167.12	12.14	
2025-01-15 11:34:40.01	167.15	12.26	
2025-01-15 11:34:41.22	167.17	12.39	
2025-01-15 11:34:42.44	167.20	12.51	
2025-01-15 11:34:43.66	167.23	12.64	
2025-01-15 11:34:44.88	167.25	12.77	
2025-01-15 11:34:46.09	167.28	12.90	
2025-01-15 11:34:47.31	167.31	13.03	
2025-01-15 11:34:48.53	167.33	13.16	
2025-01-15 11:34:49.75	167.36	13.29	
2025-01-15 11:34:50.96	167.39	13.42	
2025-01-15 11:34:52.18	167.42	13.55	
2025-01-15 11:34:53.40	167.44	13.69	
2025-01-15 11:34:54.62	167.47	13.82	
2025-01-15 11:34:55.84	167.50	13.96	
2025-01-15 11:34:57.05	167.53	14.09	
2025-01-15 11:34:58.27	167.56	14.23	
2025-01-15 11:34:59.49	167.59	14.37	
2025-01-15 11:35:00.71	167.62	14.51	
2025-01-15 11:35:01.92	167.65	14.65	
2025-01-15 11:35:03.14	167.68	14.79	
2025-01-15 11:35:04.36	167.71	14.93	
2025-01-15 11:35:05.58	167.74	15.07	
2025-01-15 11:35:06.79	167.77	15.21	
2025-01-15 11:35:08.01	167.80	15.36	
2025-01-15 11:35:09.23	167.83	15.50	
2025-01-15 11:35:10.45	167.86	15.65	
2025-01-15 11:35:11.67	167.90	15.80	
2025-01-15 11:35:12.88	167.93	15.94	
2025-01-15 11:35:14.10	167.96	16.09	
2025-01-15 11:35:15.32	167.99	16.24	
2025-01-15 11:35:16.54	168.03	16.39	
2025-01-15 11:35:17.75	168.06	16.54	
2025-01-15 11:35:18.97	168.09	16.70	
2025-01-15 11:35:20.19	168.13	16.85	
2025-01-15 11:35:21.41	168.16	17.01	
2025-01-15 11:35:22.62	168.20	17.16	
2025-01-15 11:35:23.84	168.23	17.32	
2025-01-15 11:35:25.06	168.27	17.48	
2025-01-15 11:35:26.28	168.31	17.64	
2025-01-15 11:35:27.50	168.34	17.80	
2025-01-15 11:35:28.71	168.38	17.96	
2025-01-15 11:35:29.93	168.42	18.12	
2025-01-15 11:35:31.15	168.45	18.29	
2025-01-15 11:35:32.37	168.49	18.45	
2025-01-15 11:35:33.58	168.53	18.62	
2025-01-15 11:35:34.80	168.57	18.79	
2025-01-15 11:35:36.02	168.61	18.96	
2025-01-15 11:35:37.24	168.65	19.13	
2025-01-15 11:35:38.45	168.69	19.30	
2025-01-15 11:35:39.67	168.73	19.47	
2025-01-15 11:35:40.89	168.77	19.64	
2025-01-15 11:35:42.11	168.81	19.82	
2025-01-15 11:35:43.33	168.85	20.00	
2025-01-15 11:35:44.54	168.89	20.17	
2025-01-15 11:35:45.76	168.93	20.35	
2025-01-15 11:35:46.98	168.98	20.54	
2025-01-15 11:35:48.20	169.02	20.72	
2025-01-15 11:35:49.41	169.06	20.90	
2025-01-15 11:35:50.63	169.11	21.09	
2025-01-15 11:35:51.85	169.15	21.27	
2025-01-15 11:35:53.07	169.20	21.46	
2025-01-15 11:35:54.29	169.25	21.65	
2025-01-15 11:35:55.50	169.29	21.84	
2025-01-15 11:35:56.72	169.34	22.04	
2025-01-15 11:35:57.94	169.39	22.23	
2025-01-15 11:35:59.16	169.43	22.43	
2025-01-15 11:36:00.39	169.48	22.63	
2025-01-15 11:36:01.61	169.53	22.83	
2025-01-15 11:36:02.82	169.58	23.03	
2025-01-15 11:36:04.04	169.63	23.23	
2025-01-15 11:36:05.26	169.69	23.43	
2025-01-15 11:36:06.48	169.74	23.64	
2025-01-15 11:36:07.70	169.79	23.85	
2025-01-15 11:36:08.91	169.84	24.06	
2025-01-15 11:36:10.13	169.90	24.27	
2025-01-15 11:36:11.35	169.95	24.48	
2025-01-15 11:36:12.57	170.01	24.70	
2025-01-15 11:36:13.78	170.06	24.92	
2025-01-15 11:36:15.00	170.12	25.13	
2025-01-15 11:36:16.22	170.18	25.36	
2025-01-15 11:36:17.44	170.24	25.58	
2025-01-15 11:36:18.65	170.30	25.80	
2025-01-15 11:36:19.87	170.36	26.03	
2025-01-15 11:36:21.09	170.42	26.26	
2025-01-15 11:36:22.31	170.48	26.49	
2025-01-15 11:36:23.53	170.54	26.73	
2025-01-15 11:36:24.74	170.61	26.96	
2025-01-15 11:36:25.96	170.67	27.20	
2025-01-15 11:36:27.18	170.74	27.44	
2025-01-15 11:36:28.40	170.80	27.68	
2025-01-15 11:36:29.61	170.87	27.92	
2025-01-15 11:36:30.83	170.94	28.17	
2025-01-15 11:36:32.05	171.01	28.42	
2025-01-15 11:36:33.27	171.08	28.67	
2025-01-15 11:36:34.48	171.15	28.93	
2025-01-15 11:36:35.70	171.22	29.18	
2025-01-15 11:36:36.92	171.30	29.44	
2025-01-15 11:36:38.14	171.37	29.70	
2025-01-15 11:36:39.36	171.45	29.97	
2025-01-15 11:36:40.57	171.52	30.23	
2025-01-15 11:36:41.79	171.60	30.50	
2025-01-15 11:36:43.01	171.68	30.78	
2025-01-15 11:36:44.23	171.76	31.05	
2025-01-15 11:36:45.44	171.85	31.33	
2025-01-15 11:36:46.66	171.93	31.61	
2025-01-15 11:36:47.88	172.02	31.89	
2025-01-15 11:36:49.10	172.10	32.18	
2025-01-15 11:36:50.32	172.19	32.46	
2025-01-15 11:36:51.53	172.28	32.75	
2025-01-15 11:36:52.75	172.37	33.05	
2025-01-15 11:36:53.97	172.47	33.35	
2025-01-15 11:36:55.19	172.56	33.65	
2025-01-15 11:36:56.40	172.66	33.95	
2025-01-15 11:36:57.62	172.76	34.26	
2025-01-15 11:36:58.84	172.86	34.57	
2025-01-15 11:37:00.06	172.96	34.88	
2025-01-15 11:37:01.27	173.06	35.19	
2025-01-15 11:37:02.49	173.17	35.51	
2025-01-15 11:37:03.71	173.28	35.84	
2025-01-15 11:37:04.93	173.39	36.16	
2025-01-15 11:37:06.15	173.50	36.49	
2025-01-15 11:37:07.36	173.62	36.83	
2025-01-15 11:37:08.58	173.73	37.16	
2025-01-15 11:37:09.80	173.85	37.50	
2025-01-15 11:37:11.02	173.98	37.85	
2025-01-15 11:37:12.23	174.10	38.19	
2025-01-15 11:37:13.45	174.23	38.54	
2025-01-15 11:37:14.67	174.36	38.90	
2025-01-15 11:37:15.89	174.49	39.26	
2025-01-15 11:37:17.10	174.63	39.62	
2025-01-15 11:37:18.32	174.76	39.99	
2025-01-15 11:37:19.54	174.91	40.36	
2025-01-15 11:37:20.76	175.05	40.73	
2025-01-15 11:37:21.98	175.20	41.11	
2025-01-15 11:37:23.19	175.35	41.49	
2025-01-15 11:37:24.41	175.51	41.87	
2025-01-15 11:37:25.63	175.67	42.26	
2025-01-15 11:37:26.85	175.83	42.66	
2025-01-15 11:37:28.06	176.00	43.05	
2025-01-15 11:37:29.28	176.17	43.46	
2025-01-15 11:37:30.50	176.35	43.86	
2025-01-15 11:37:31.72	176.53	44.28	
2025-01-15 11:37:32.94	176.71	44.69	
2025-01-15 11:37:34.15	176.90	45.11	
2025-01-15 11:37:35.37	177.09	45.53	
2025-01-15 11:37:36.59	177.30	45.96	
2025-01-15 11:37:37.81	177.50	46.39	
2025-01-15 11:37:39.02	177.71	46.83	
2025-01-15 11:37:40.24	177.93	47.27	
2025-01-15 11:37:41.46	178.15	47.72	
2025-01-15 11:37:42.68	178.38	48.17	
2025-01-15 11:37:43.89	178.62	48.62	
2025-01-15 11:37:45.11	178.86	49.08	
2025-01-15 11:37:46.33	179.11	49.54	
2025-01-15 11:37:47.55	179.37	50.01	
2025-01-15 11:37:48.77	179.64	50.48	
2025-01-15 11:37:49.98	179.91	50.96	
2025-01-15 11:37:51.20	180.20	51.44	
2025-01-15 11:37:52.42	180.49	51.92	
2025-01-15 11:37:53.64	180.80	52.41	
2025-01-15 11:37:54.85	181.11	52.90	
2025-01-15 11:37:56.07	181.43	53.40	
2025-01-15 11:37:57.29	181.77	53.91	
2025-01-15 11:37:58.51	182.12	54.41	
2025-01-15 11:37:59.72	182.47	54.92	
2025-01-15 11:38:00.94	182.85	55.44	
2025-01-15 11:38:02.16	183.23	55.96	
2025-01-15 11:38:03.38	183.63	56.48	
2025-01-15 11:38:04.60	184.05	57.01	
2025-01-15 11:38:05.81	184.48	57.53	
2025-01-15 11:38:07.03	184.93	58.07	
2025-01-15 11:38:08.25	185.40	58.61	
2025-01-15 11:38:09.47	185.89	59.15	
2025-01-15 11:38:10.68	186.39	59.69	
2025-01-15 11:38:11.90	186.93	60.23	
2025-01-15 11:38:13.12	187.48	60.78	
2025-01-15 11:38:14.34	188.06	61.33	
2025-01-15 11:38:15.55	188.66	61.88	
2025-01-15 11:38:16.77	189.29	62.44	
2025-01-15 11:38:17.99	189.95	63.00	
2025-01-15 11:38:19.21	190.64	63.55	
2025-01-15 11:38:20.43	191.37	64.11	
2025-01-15 11:38:21.64	192.13	64.67	
2025-01-15 11:38:22.86	192.93	65.23	
2025-01-15 11:38:24.08	193.77	65.79	
2025-01-15 11:38:25.30	194.65	66.35	
2025-01-15 11:38:26.51	195.58	66.90	
2025-01-15 11:38:27.73	196.56	67.46	
2025-01-15 11:38:28.95	197.60	68.01	
2025-01-15 11:38:30.17	198.70	68.56	
2025-01-15 11:38:31.39	199.85	69.11	
2025-01-15 11:38:32.60	201.07	69.64	
2025-01-15 11:38:33.82	202.36	70.18	
2025-01-15 11:38:35.04	203.73	70.71	
2025-01-15 11:38:36.26	205.18	71.23	
2025-01-15 11:38:37.47	206.71	71.73	
2025-01-15 11:38:38.69	208.34	72.23	
2025-01-15 11:38:39.91	210.07	72.72	
2025-01-15 11:38:41.13	211.90	73.20	
2025-01-15 11:38:42.34	213.83	73.65	
2025-01-15 11:38:43.56	215.89	74.09	
2025-01-15 11:38:44.78	218.06	74.52	
2025-01-15 11:38:46.00	220.37	74.92	
2025-01-15 11:38:47.22	222.79	75.30	
2025-01-15 11:38:48.43	225.33	75.65	
2025-01-15 11:38:49.65	228.01	75.97	
2025-01-15 11:38:50.87	230.82	76.26	
2025-01-15 11:38:52.09	233.75	76.53	
2025-01-15 11:38:53.30	236.76	76.75	
2025-01-15 11:38:54.52	239.90	76.94	
2025-01-15 11:38:55.74	243.12	77.09	
2025-01-15 11:38:56.96	246.41	77.20	
2025-01-15 11:38:58.17	249.72	77.27	
2025-01-15 11:38:59.39	253.09	77.30	
2025-01-15 11:39:00.61	256.46	77.29	
2025-01-15 11:39:01.83	259.81	77.23	
2025-01-15 11:39:03.05	263.11	77.13	
2025-01-15 11:39:04.26	266.33	76.99	
2025-01-15 11:39:05.48	269.50	76.81	
2025-01-15 11:39:06.70	272.56	76.60	
2025-01-15 11:39:07.92	275.52	76.34	
2025-01-15 11:39:09.13	278.34	76.06	
2025-01-15 11:39:10.35	281.06	75.75	
2025-01-15 11:39:11.57	283.66	75.40	
2025-01-15 11:39:12.79	286.12	75.03	
2025-01-15 11:39:14.00	288.44	74.64	
2025-01-15 11:39:15.22	290.65	74.22	
2025-01-15 11:39:16.44	292.74	73.79	
2025-01-15 11:39:17.66	294.72	73.34	
2025-01-15 11:39:18.88	296.58	72.87	
2025-01-15 11:39:20.09	298.32	72.39	
2025-01-15 11:39:21.31	299.98	71.89	
2025-01-15 11:39:22.53	301.55	71.38	
2025-01-15 11:39:23.75	303.02	70.87	
2025-01-15 11:39:24.96	304.41	70.35	
2025-01-15 11:39:26.18	305.72	69.82	
2025-01-15 11:39:27.40	306.96	69.28	
2025-01-15 11:39:28.62	308.14	68.74	
2025-01-15 11:39:29.84	309.25	68.19	
2025-01-15 11:39:31.05	310.30	67.64	
2025-01-15 11:39:32.27	311.30	67.09	
2025-01-15 11:39:33.49	312.24	66.53	
2025-01-15 11:39:34.71	313.14	65.97	
2025-01-15 11:39:35.92	313.99	65.42	
2025-01-15 11:39:37.14	314.80	64.86	
2025-01-15 11:39:38.36	315.57	64.30	
2025-01-15 11:39:39.58	316.31	63.74	
2025-01-15 11:39:40.79	317.01	63.19	
2025-01-15 11:39:42.01	317.68	62.63	
2025-01-15 11:39:43.23	318.32	62.08	
2025-01-15 11:39:44.45	318.93	61.53	
2025-01-15 11:39:45.67	319.52	60.97	
2025-01-15 11:39:46.88	320.07	60.43	
2025-01-15 11:39:48.10	320.61	59.88	
2025-01-15 11:39:49.32	321.13	59.34	
2025-01-15 11:39:50.54	321.62	58.80	
2025-01-15 11:39:51.75	322.09	58.27	
2025-01-15 11:39:52.97	322.55	57.73	
2025-01-15 11:39:54.19	322.98	57.20	
2025-01-15 11:39:55.41	323.41	56.68	
2025-01-15 11:39:56.62	323.81	56.16	
2025-01-15 11:39:57.84	324.20	55.64	
2025-01-15 11:39:59.06	324.58	55.13	
2025-01-15 11:40:00.28	324.94	54.61	
2025-01-15 11:40:01.50	325.29	54.11	
2025-01-15 11:40:02.71	325.63	53.61	
2025-01-15 11:40:03.93	325.96	53.11	
2025-01-15 11:40:05.15	326.28	52.62	
2025-01-15 11:40:06.37	326.58	52.13	
2025-01-15 11:40:07.58	326.88	51.64	
2025-01-15 11:40:08.80	327.16	51.16	
2025-01-15 11:40:10.02	327.44	50.69	
2025-01-15 11:40:11.24	327.71	50.21	
2025-01-15 11:40:12.45	327.97	49.75	
2025-01-15 11:40:13.67	328.23	49.28	
2025-01-15 11:40:14.89	328.47	48.83	
2025-01-15 11:40:16.11	328.71	48.37	
2025-01-15 11:40:17.33	328.94	47.92	
2025-01-15 11:40:18.54	329.17	47.48	
2025-01-15 11:40:19.76	329.39	47.04	
2025-01-15 11:40:20.98	329.60	46.60	
2025-01-15 11:40:22.20	329.81	46.17	
2025-01-15 11:40:23.41	330.01	45.74	
2025-01-15 11:40:24.63	330.21	45.32	
2025-01-15 11:40:25.85	330.40	44.90	
2025-01-15 11:40:27.07	330.59	44.48	
2025-01-15 11:40:28.28	330.77	44.07	
2025-01-15 11:40:29.50	330.94	43.67	
2025-01-15 11:40:30.72	331.12	43.26	
2025-01-15 11:40:31.94	331.29	42.87	
2025-01-15 11:40:33.16	331.45	42.47	
2025-01-15 11:40:34.37	331.61	42.08	
2025-01-15 11:40:35.59	331.77	41.70	
2025-01-15 11:40:36.81	331.92	41.32	
2025-01-15 11:40:38.03	332.07	40.94	
2025-01-15 11:40:39.24	332.22	40.57	
2025-01-15 11:40:40.46	332.36	40.20	
2025-01-15 11:40:41.68	332.50	39.83	
2025-01-15 11:40:42.90	332.64	39.47	
2025-01-15 11:40:44.12	332.77	39.11	
2025-01-15 11:40:45.33	332.90	38.75	
2025-01-15 11:40:46.55	333.03	38.40	
2025-01-15 11:40:47.77	333.16	38.06	
2025-01-15 11:40:48.99	333.28	37.71	
2025-01-15 11:40:50.20	333.40	37.37	
2025-01-15 11:40:51.42	333.52	37.04	
2025-01-15 11:40:52.64	333.64	36.70	
2025-01-15 11:40:53.86	333.75	36.37	
2025-01-15 11:40:55.07	333.86	36.05	
2025-01-15 11:40:56.29	333.97	35.73	
2025-01-15 11:40:57.51	334.08	35.41	
2025-01-15 11:40:58.73	334.18	35.09	
2025-01-15 11:40:59.95	334.29	34.78	
2025-01-15 11:41:01.16	334.39	34.47	
2025-01-15 11:41:02.38	334.49	34.16	
2025-01-15 11:41:03.60	334.59	33.86	
2025-01-15 11:41:04.82	334.68	33.56	
2025-01-15 11:41:06.03	334.77	33.26	
2025-01-15 11:41:07.25	334.87	32.97	
2025-01-15 11:41:08.47	334.96	32.67	
2025-01-15 11:41:09.69	335.05	32.38	
2025-01-15 11:41:10.90	335.14	32.10	
2025-01-15 11:41:12.12	335.22	31.82	
2025-01-15 11:41:13.34	335.31	31.54	
2025-01-15 11:41:14.56	335.39	31.26	
2025-01-15 11:41:15.78	335.47	30.98	
2025-01-15 11:41:16.99	335.55	30.71	
2025-01-15 11:41:18.21	335.63	30.44	
2025-01-15 11:41:19.43	335.71	30.18	
2025-01-15 11:41:20.65	335.79	29.91	
2025-01-15 11:41:21.86	335.86	29.65	
2025-01-15 11:41:23.08	335.94	29.39	
2025-01-15 11:41:24.30	336.01	29.14	
2025-01-15 11:41:25.52	336.09	28.88	
2025-01-15 11:41:26.73	336.16	28.63	
2025-01-15 11:41:27.95	336.23	28.38	
2025-01-15 11:41:29.17	336.30	28.14	
2025-01-15 11:41:30.39	336.36	27.89	
2025-01-15 11:41:31.61	336.43	27.65	
2025-01-15 11:41:32.82	336.50	27.41	
2025-01-15 11:41:34.04	336.56	27.17	
2025-01-15 11:41:35.26	336.63	26.94	
2025-01-15 11:41:36.48	336.69	26.70	
2025-01-15 11:41:37.69	336.75	26.47	
2025-01-15 11:41:38.91	336.81	26.24	
2025-01-15 11:41:40.13	336.88	26.02	
2025-01-15 11:41:41.35	336.94	25.79	
2025-01-15 11:41:42.57	337.00	25.57	
2025-01-15 11:41:43.78	337.05	25.35	
2025-01-15 11:41:45.00	337.11	25.13	
2025-01-15 11:41:46.22	337.17	24.91	
2025-01-15 11:41:47.44	337.22	24.69	
2025-01-15 11:41:48.65	337.28	24.48	
2025-01-15 11:41:49.87	337.33	24.27	
2025-01-15 11:41:51.09	337.39	24.06	
2025-01-15 11:41:52.31	337.44	23.85	
2025-01-15 11:41:53.52	337.50	23.65	
2025-01-15 11:41:54.74	337.55	23.44	
2025-01-15 11:41:55.96	337.60	23.24	
2025-01-15 11:41:57.18	337.65	23.04	
2025-01-15 11:41:58.40	337.70	22.84	
2025-01-15 11:41:59.61	337.75	22.64	
2025-01-15 11:42:00.83	337.80	22.44	
2025-01-15 11:42:02.05	337.85	22.25	
2025-01-15 11:42:03.27	337.90	22.06	
2025-01-15 11:42:04.48	337.94	21.87	
2025-01-15 11:42:05.70	337.99	21.68	
2025-01-15 11:42:06.92	338.04	21.49	
2025-01-15 11:42:08.14	338.08	21.30	
2025-01-15 11:42:09.35	338.13	21.12	
2025-01-15 11:42:10.57	338.17	20.93	
2025-01-15 11:42:11.79	338.22	20.75	
2025-01-15 11:42:13.01	338.26	20.57	
2025-01-15 11:42:14.23	338.30	20.39	
2025-01-15 11:42:15.44	338.35	20.21	
2025-01-15 11:42:16.66	338.39	20.03	
2025-01-15 11:42:17.88	338.43	19.86	
2025-01-15 11:42:19.10	338.47	19.68	
2025-01-15 11:42:20.31	338.51	19.51	
2025-01-15 11:42:21.53	338.55	19.34	
2025-01-15 11:42:22.75	338.59	19.17	
2025-01-15 11:42:23.97	338.63	19.00	
2025-01-15 11:42:25.18	338.67	18.83	
2025-01-15 11:42:26.40	338.71	18.67	
2025-01-15 11:42:27.62	338.75	18.50	
2025-01-15 11:42:28.84	338.79	18.34	
2025-01-15 11:42:30.06	338.83	18.18	
2025-01-15 11:42:31.27	338.86	18.01	
2025-01-15 11:42:32.49	338.90	17.85	
2025-01-15 11:42:33.71	338.94	17.69	
2025-01-15 11:42:34.93	338.97	17.54	
2025-01-15 11:42:36.14	339.01	17.38	
2025-01-15 11:42:37.36	339.05	17.22	
2025-01-15 11:42:38.58	339.08	17.07	
2025-01-15 11:42:39.80	339.12	16.91	
2025-01-15 11:42:41.02	339.15	16.76	
2025-01-15 11:42:42.23	339.19	16.61	
2025-01-15 11:42:43.45	339.22	16.46	
2025-01-15 11:42:44.67	339.25	16.31	
2025-01-15 11:42:45.89	339.29	16.16	
2025-01-15 11:42:47.10	339.32	16.01	
2025-01-15 11:42:48.32	339.35	15.86	
2025-01-15 11:42:49.54	339.39	15.72	
2025-01-15 11:42:50.76	339.42	15.57	
2025-01-15 11:42:51.97	339.45	15.43	
2025-01-15 11:42:53.19	339.48	15.29	
2025-01-15 11:42:54.41	339.51	15.14	
2025-01-15 11:42:55.63	339.55	15.00	
2025-01-15 11:42:56.85	339.58	14.86	
2025-01-15 11:42:58.06	339.61	14.72	
2025-01-15 11:42:59.28	339.64	14.59	
2025-01-15 11:43:00.50	339.67	14.45	
2025-01-15 11:43:01.72	339.70	14.31	
2025-01-15 11:43:02.93	339.73	14.18	
2025-01-15 11:43:04.15	339.76	14.04	
2025-01-15 11:43:05.37	339.79	13.91	
2025-01-15 11:43:06.59	339.82	13.77	
2025-01-15 11:43:07.80	339.84	13.64	
2025-01-15 11:43:09.02	339.87	13.51	
2025-01-15 11:43:10.24	339.90	13.38	
2025-01-15 11:43:11.46	339.93	13.25	
2025-01-15 11:43:12.68	339.96	13.12	
2025-01-15 11:43:13.89	339.99	12.99	
2025-01-15 11:43:15.11	340.01	12.86	
2025-01-15 11:43:16.33	340.04	12.73	
2025-01-15 11:43:17.55	340.07	12.60	
2025-01-15 11:43:18.76	340.09	12.48	
2025-01-15 11:43:19.98	340.12	12.35	
2025-01-15 11:43:21.20	340.15	12.23	
2025-01-15 11:43:22.42	340.17	12.11	
2025-01-15 11:43:23.63	340.20	11.98	
2025-01-15 11:43:24.85	340.23	11.86	
2025-01-15 11:43:26.07	340.25	11.74	
2025-01-15 11:43:27.29	340.28	11.62	
2025-01-15 11:43:28.51	340.30	11.50	
2025-01-15 11:43:29.72	340.33	11.38	
2025-01-15 11:43:30.94	340.35	11.26	
2025-01-15 11:43:32.16	340.38	11.14	
2025-01-15 11:43:33.38	340.40	11.02	
2025-01-15 11:43:34.59	340.43	10.90	
2025-01-15 11:43:35.81	340.45	10.79	
2025-01-15 11:43:37.03	340.48	10.67	
2025-01-15 11:43:38.25	340.50	10.56	
2025-01-15 11:43:39.47	340.52	10.44	
2025-01-15 11:43:40.68	340.55	10.33	
2025-01-15 11:43:41.90	340.57	10.21	
2025-01-15 11:43:43.12	340.59	10.10	
2025-01-15 11:43:44.34	340.62	9.99	
2025-01-15 11:43:45.55	340.64	9.88	
2025-01-15 11:43:46.77	340.66	9.76	
2025-01-15 11:43:47.99	340.69	9.65	
2025-01-15 11:43:49.21	340.71	9.54	
2025-01-15 11:43:50.42	340.73	9.43	
2025-01-15 11:43:51.64	340.75	9.33	
2025-01-15 11:43:52.86	340.78	9.22	
2025-01-15 11:43:54.08	340.80	9.11	
2025-01-15 11:43:55.30	340.82	9.00	
2025-01-15 11:43:56.51	340.84	8.89	
2025-01-15 11:43:57.73	340.86	8.79	
2025-01-15 11:43:58.95	340.89	8.68	
2025-01-15 11:44:00.17	340.91	8.57	
2025-01-15 11:44:01.38	340.93	8.47	
2025-01-15 11:44:02.60	340.95	8.37	
2025-01-15 11:44:03.82	340.97	8.26	
2025-01-15 11:44:05.04	340.99	8.16	
2025-01-15 11:44:06.25	341.01	8.05	
2025-01-15 11:44:07.47	341.03	7.95	
2025-01-15 11:44:08.69	341.05	7.85	
2025-01-15 11:44:09.91	341.08	7.75	
2025-01-15 11:44:11.13	341.10	7.65	
2025-01-15 11:44:12.34	341.12	7.55	
2025-01-15 11:44:13.56	341.14	7.44	
2025-01-15 11:44:14.78	341.16	7.34	
2025-01-15 11:44:16.00	341.18	7.24	
2025-01-15 11:44:17.21	341.20	7.15	
2025-01-15 11:44:18.43	341.22	7.05	
2025-01-15 11:44:19.65	341.24	6.95	
2025-01-15 11:44:20.87	341.26	6.85	
2025-01-15 11:44:22.08	341.27	6.75	
2025-01-15 11:44:23.30	341.29	6.66	
2025-01-15 11:44:24.52	341.31	6.56	
2025-01-15 11:44:25.74	341.33	6.46	
2025-01-15 11:44:26.96	341.35	6.37	
2025-01-15 11:44:28.17	341.37	6.27	
2025-01-15 11:44:29.39	341.39	6.18	
2025-01-15 11:44:30.61	341.41	6.08	
2025-01-15 11:44:31.83	341.43	5.99	
2025-01-15 11:44:33.04	341.45	5.89	
2025-01-15 11:44:34.26	341.46	5.80	
2025-01-15 11:44:35.48	341.48	5.71	
2025-01-15 11:44:36.70	341.50	5.61	
2025-01-15 11:44:37.91	341.52	5.52	
2025-01-15 11:44:39.13	341.54	5.43	
2025-01-15 11:44:40.35	341.55	5.34	
2025-01-15 11:44:41.57	341.57	5.25	
2025-01-15 11:44:42.79	341.59	5.15	
2025-01-15 11:44:44.00	341.61	5.06	
2025-01-15 11:44:45.22	341.63	4.97	
2025-01-15 11:44:46.44	341.64	4.88	
2025-01-15 11:44:47.66	341.66	4.79	
2025-01-15 11:44:48.87	341.68	4.70	
2025-01-15 11:44:50.09	341.70	4.62	
2025-01-15 11:44:51.31	341.71	4.53	
2025-01-15 11:44:52.53	341.73	4.44	
2025-01-15 11:44:53.75	341.75	4.35	
2025-01-15 11:44:54.96	341.76	4.26	
2025-01-15 11:44:56.18	341.78	4.17	
2025-01-15 11:44:57.40	341.80	4.09	
2025-01-15 11:44:58.62	341.82	4.00	

#Closed at: 2025-01-15 11:44:58