passes_logs/2025/01/15/SPB_Silybum_02/SPB_Silybum_02__20250115_095632_AQUA_rec.log

#Pass ID: 20250115_095632_AQUA
#Satellite: AQUA
#Configuration: AQUA
#Start time: 2025-01-15 09:56:32

#Version: 2.0.20230423
#Station: SPB_Silybum_02
#Location: 30.233357 lon 59.946436 lat
#TLE: 1 27424U 02022A   25014.86211101  .00001670  00000+0  35273-3 0  9993
#TLE: 2 27424  98.3588 331.5248 0001714 111.5422 273.3352 14.60681448207609

#Time	Az	El	Level	Level2	SNR	BER	Gain	Gain2
2025-01-15 09:56:35.02	115.98	4.17	
2025-01-15 09:56:36.24	115.89	4.25	
2025-01-15 09:56:37.46	115.80	4.33	
2025-01-15 09:56:38.67	115.72	4.41	
2025-01-15 09:56:39.89	115.63	4.49	
2025-01-15 09:56:41.11	115.53	4.57	
2025-01-15 09:56:42.33	115.44	4.65	
2025-01-15 09:56:43.54	115.35	4.73	
2025-01-15 09:56:44.76	115.26	4.81	
2025-01-15 09:56:45.98	115.17	4.89	
2025-01-15 09:56:47.20	115.07	4.98	
2025-01-15 09:56:48.41	114.98	5.06	
2025-01-15 09:56:49.63	114.89	5.14	
2025-01-15 09:56:50.85	114.79	5.22	
2025-01-15 09:56:52.07	114.69	5.30	
2025-01-15 09:56:53.29	114.60	5.39	
2025-01-15 09:56:54.50	114.50	5.47	
2025-01-15 09:56:55.72	114.40	5.55	
2025-01-15 09:56:56.94	114.30	5.63	
2025-01-15 09:56:58.16	114.21	5.72	
2025-01-15 09:56:59.37	114.11	5.80	
2025-01-15 09:57:00.59	114.01	5.89	
2025-01-15 09:57:01.81	113.91	5.97	
2025-01-15 09:57:03.03	113.80	6.05	
2025-01-15 09:57:04.24	113.70	6.14	
2025-01-15 09:57:05.46	113.60	6.22	
2025-01-15 09:57:06.68	113.50	6.31	
2025-01-15 09:57:07.90	113.39	6.39	
2025-01-15 09:57:09.12	113.29	6.48	
2025-01-15 09:57:10.33	113.18	6.56	
2025-01-15 09:57:11.55	113.08	6.65	
2025-01-15 09:57:12.77	112.97	6.74	
2025-01-15 09:57:13.99	112.86	6.82	
2025-01-15 09:57:15.20	112.75	6.91	
2025-01-15 09:57:16.42	112.64	6.99	
2025-01-15 09:57:17.64	112.53	7.08	
2025-01-15 09:57:18.86	112.42	7.17	
2025-01-15 09:57:20.08	112.31	7.26	
2025-01-15 09:57:21.29	112.20	7.34	
2025-01-15 09:57:22.51	112.09	7.43	
2025-01-15 09:57:23.73	111.97	7.52	
2025-01-15 09:57:24.95	111.86	7.61	
2025-01-15 09:57:26.16	111.74	7.70	
2025-01-15 09:57:27.38	111.63	7.79	
2025-01-15 09:57:28.60	111.51	7.88	
2025-01-15 09:57:29.82	111.39	7.96	
2025-01-15 09:57:31.03	111.28	8.05	
2025-01-15 09:57:32.25	111.16	8.14	
2025-01-15 09:57:33.47	111.04	8.23	
2025-01-15 09:57:34.69	110.92	8.32	
2025-01-15 09:57:35.91	110.79	8.42	
2025-01-15 09:57:37.12	110.67	8.51	
2025-01-15 09:57:38.34	110.55	8.60	
2025-01-15 09:57:39.56	110.42	8.69	
2025-01-15 09:57:40.78	110.30	8.78	
2025-01-15 09:57:41.99	110.17	8.87	
2025-01-15 09:57:43.21	110.05	8.96	
2025-01-15 09:57:44.43	109.92	9.06	
2025-01-15 09:57:45.65	109.79	9.15	
2025-01-15 09:57:46.86	109.66	9.24	
2025-01-15 09:57:48.08	109.53	9.33	
2025-01-15 09:57:49.30	109.40	9.43	
2025-01-15 09:57:50.52	109.27	9.52	
2025-01-15 09:57:51.74	109.13	9.62	
2025-01-15 09:57:52.95	109.00	9.71	
2025-01-15 09:57:54.17	108.87	9.80	
2025-01-15 09:57:55.39	108.73	9.90	
2025-01-15 09:57:56.61	108.59	9.99	
2025-01-15 09:57:57.82	108.46	10.09	
2025-01-15 09:57:59.04	108.32	10.18	
2025-01-15 09:58:00.26	108.18	10.28	
2025-01-15 09:58:01.48	108.04	10.37	
2025-01-15 09:58:02.69	107.89	10.47	
2025-01-15 09:58:03.91	107.75	10.57	
2025-01-15 09:58:05.13	107.61	10.66	
2025-01-15 09:58:06.35	107.46	10.76	
2025-01-15 09:58:07.57	107.32	10.86	
2025-01-15 09:58:08.78	107.17	10.95	
2025-01-15 09:58:10.00	107.02	11.05	
2025-01-15 09:58:11.22	106.87	11.15	
2025-01-15 09:58:12.44	106.72	11.25	
2025-01-15 09:58:13.65	106.57	11.35	
2025-01-15 09:58:14.87	106.42	11.44	
2025-01-15 09:58:16.09	106.26	11.54	
2025-01-15 09:58:17.31	106.11	11.64	
2025-01-15 09:58:18.52	105.95	11.74	
2025-01-15 09:58:19.74	105.79	11.84	
2025-01-15 09:58:20.96	105.64	11.94	
2025-01-15 09:58:22.18	105.48	12.04	
2025-01-15 09:58:23.40	105.32	12.14	
2025-01-15 09:58:24.61	105.15	12.24	
2025-01-15 09:58:25.83	104.99	12.34	
2025-01-15 09:58:27.05	104.83	12.44	
2025-01-15 09:58:28.27	104.66	12.55	
2025-01-15 09:58:29.48	104.49	12.65	
2025-01-15 09:58:30.70	104.33	12.75	
2025-01-15 09:58:31.92	104.16	12.85	
2025-01-15 09:58:33.14	103.99	12.95	
2025-01-15 09:58:34.36	103.81	13.06	
2025-01-15 09:58:35.57	103.64	13.16	
2025-01-15 09:58:36.79	103.47	13.26	
2025-01-15 09:58:38.01	103.29	13.37	
2025-01-15 09:58:39.23	103.11	13.47	
2025-01-15 09:58:40.44	102.93	13.57	
2025-01-15 09:58:41.66	102.75	13.68	
2025-01-15 09:58:42.88	102.57	13.78	
2025-01-15 09:58:44.10	102.39	13.88	
2025-01-15 09:58:45.31	102.21	13.99	
2025-01-15 09:58:46.53	102.02	14.09	
2025-01-15 09:58:47.75	101.83	14.20	
2025-01-15 09:58:48.97	101.64	14.30	
2025-01-15 09:58:50.19	101.45	14.41	
2025-01-15 09:58:51.40	101.26	14.51	
2025-01-15 09:58:52.62	101.07	14.62	
2025-01-15 09:58:53.84	100.88	14.73	
2025-01-15 09:58:55.06	100.68	14.83	
2025-01-15 09:58:56.27	100.48	14.94	
2025-01-15 09:58:57.49	100.28	15.05	
2025-01-15 09:58:58.71	100.08	15.15	
2025-01-15 09:58:59.93	99.88	15.26	
2025-01-15 09:59:01.14	99.68	15.37	
2025-01-15 09:59:02.36	99.47	15.47	
2025-01-15 09:59:03.58	99.27	15.58	
2025-01-15 09:59:04.80	99.06	15.69	
2025-01-15 09:59:06.02	98.85	15.80	
2025-01-15 09:59:07.23	98.64	15.90	
2025-01-15 09:59:08.45	98.42	16.01	
2025-01-15 09:59:09.67	98.21	16.12	
2025-01-15 09:59:10.89	97.99	16.23	
2025-01-15 09:59:12.10	97.78	16.34	
2025-01-15 09:59:13.32	97.56	16.45	
2025-01-15 09:59:14.54	97.33	16.55	
2025-01-15 09:59:15.76	97.11	16.66	
2025-01-15 09:59:16.97	96.89	16.77	
2025-01-15 09:59:18.19	96.66	16.88	
2025-01-15 09:59:19.41	96.43	16.99	
2025-01-15 09:59:20.63	96.20	17.10	
2025-01-15 09:59:21.85	95.97	17.21	
2025-01-15 09:59:23.06	95.73	17.32	
2025-01-15 09:59:24.28	95.50	17.43	
2025-01-15 09:59:25.50	95.26	17.54	
2025-01-15 09:59:26.72	95.02	17.65	
2025-01-15 09:59:27.93	94.78	17.75	
2025-01-15 09:59:29.15	94.54	17.86	
2025-01-15 09:59:30.37	94.29	17.97	
2025-01-15 09:59:31.59	94.04	18.08	
2025-01-15 09:59:32.81	93.79	18.19	
2025-01-15 09:59:34.02	93.55	18.30	
2025-01-15 09:59:35.24	93.29	18.41	
2025-01-15 09:59:36.46	93.04	18.52	
2025-01-15 09:59:37.68	92.78	18.63	
2025-01-15 09:59:38.89	92.52	18.74	
2025-01-15 09:59:40.11	92.26	18.85	
2025-01-15 09:59:41.33	92.00	18.96	
2025-01-15 09:59:42.55	91.73	19.07	
2025-01-15 09:59:43.76	91.47	19.18	
2025-01-15 09:59:44.98	91.20	19.29	
2025-01-15 09:59:46.20	90.93	19.40	
2025-01-15 09:59:47.42	90.66	19.50	
2025-01-15 09:59:48.64	90.38	19.61	
2025-01-15 09:59:49.85	90.11	19.72	
2025-01-15 09:59:51.07	89.83	19.83	
2025-01-15 09:59:52.29	89.54	19.94	
2025-01-15 09:59:53.51	89.26	20.05	
2025-01-15 09:59:54.72	88.98	20.15	
2025-01-15 09:59:55.94	88.69	20.26	
2025-01-15 09:59:57.16	88.40	20.37	
2025-01-15 09:59:58.38	88.11	20.48	
2025-01-15 09:59:59.59	87.82	20.58	
2025-01-15 10:00:00.81	87.52	20.69	
2025-01-15 10:00:02.03	87.22	20.79	
2025-01-15 10:00:03.25	86.92	20.90	
2025-01-15 10:00:04.47	86.62	21.01	
2025-01-15 10:00:05.68	86.31	21.11	
2025-01-15 10:00:06.90	86.01	21.22	
2025-01-15 10:00:08.12	85.70	21.32	
2025-01-15 10:00:09.34	85.38	21.43	
2025-01-15 10:00:10.55	85.07	21.53	
2025-01-15 10:00:11.77	84.76	21.63	
2025-01-15 10:00:12.99	84.44	21.74	
2025-01-15 10:00:14.21	84.12	21.84	
2025-01-15 10:00:15.42	83.80	21.94	
2025-01-15 10:00:16.64	83.47	22.04	
2025-01-15 10:00:17.86	83.14	22.14	
2025-01-15 10:00:19.08	82.82	22.24	
2025-01-15 10:00:20.30	82.48	22.34	
2025-01-15 10:00:21.51	82.15	22.44	
2025-01-15 10:00:22.73	81.82	22.54	
2025-01-15 10:00:23.95	81.48	22.64	
2025-01-15 10:00:25.17	81.14	22.74	
2025-01-15 10:00:26.38	80.80	22.83	
2025-01-15 10:00:27.60	80.45	22.93	
2025-01-15 10:00:28.82	80.10	23.02	
2025-01-15 10:00:30.04	79.75	23.12	
2025-01-15 10:00:31.26	79.40	23.21	
2025-01-15 10:00:32.47	79.05	23.31	
2025-01-15 10:00:33.69	78.69	23.40	
2025-01-15 10:00:34.91	78.33	23.49	
2025-01-15 10:00:36.13	77.97	23.58	
2025-01-15 10:00:37.34	77.61	23.67	
2025-01-15 10:00:38.56	77.25	23.76	
2025-01-15 10:00:39.78	76.88	23.85	
2025-01-15 10:00:41.00	76.51	23.94	
2025-01-15 10:00:42.21	76.14	24.02	
2025-01-15 10:00:43.43	75.77	24.11	
2025-01-15 10:00:44.65	75.39	24.19	
2025-01-15 10:00:45.87	75.02	24.28	
2025-01-15 10:00:47.09	74.63	24.36	
2025-01-15 10:00:48.30	74.26	24.44	
2025-01-15 10:00:49.52	73.87	24.52	
2025-01-15 10:00:50.74	73.49	24.60	
2025-01-15 10:00:51.96	73.10	24.68	
2025-01-15 10:00:53.17	72.71	24.75	
2025-01-15 10:00:54.39	72.32	24.83	
2025-01-15 10:00:55.61	71.92	24.90	
2025-01-15 10:00:56.83	71.53	24.98	
2025-01-15 10:00:58.04	71.13	25.05	
2025-01-15 10:00:59.26	70.73	25.12	
2025-01-15 10:01:00.48	70.33	25.19	
2025-01-15 10:01:01.70	69.93	25.26	
2025-01-15 10:01:02.92	69.52	25.32	
2025-01-15 10:01:04.13	69.12	25.39	
2025-01-15 10:01:05.35	68.71	25.45	
2025-01-15 10:01:06.57	68.30	25.52	
2025-01-15 10:01:07.79	67.89	25.58	
2025-01-15 10:01:09.00	67.48	25.64	
2025-01-15 10:01:10.22	67.06	25.70	
2025-01-15 10:01:11.44	66.64	25.76	
2025-01-15 10:01:12.66	66.22	25.81	
2025-01-15 10:01:13.87	65.81	25.86	
2025-01-15 10:01:15.09	65.39	25.92	
2025-01-15 10:01:16.31	64.96	25.97	
2025-01-15 10:01:17.53	64.54	26.02	
2025-01-15 10:01:18.75	64.11	26.07	
2025-01-15 10:01:19.96	63.69	26.11	
2025-01-15 10:01:21.18	63.26	26.16	
2025-01-15 10:01:22.40	62.83	26.20	
2025-01-15 10:01:23.62	62.40	26.24	
2025-01-15 10:01:24.83	61.97	26.28	
2025-01-15 10:01:26.05	61.54	26.32	
2025-01-15 10:01:27.27	61.10	26.36	
2025-01-15 10:01:28.49	60.67	26.39	
2025-01-15 10:01:29.71	60.23	26.43	
2025-01-15 10:01:30.92	59.80	26.46	
2025-01-15 10:01:32.14	59.36	26.49	
2025-01-15 10:01:33.36	58.92	26.51	
2025-01-15 10:01:34.58	58.48	26.54	
2025-01-15 10:01:35.79	58.05	26.56	
2025-01-15 10:01:37.01	57.60	26.59	
2025-01-15 10:01:38.23	57.16	26.61	
2025-01-15 10:01:39.45	56.72	26.63	
2025-01-15 10:01:40.66	56.28	26.64	
2025-01-15 10:01:41.88	55.84	26.66	
2025-01-15 10:01:43.10	55.40	26.67	
2025-01-15 10:01:44.32	54.95	26.69	
2025-01-15 10:01:45.54	54.51	26.70	
2025-01-15 10:01:46.75	54.07	26.70	
2025-01-15 10:01:47.97	53.62	26.71	
2025-01-15 10:01:49.19	53.18	26.71	
2025-01-15 10:01:50.41	52.73	26.72	
2025-01-15 10:01:51.62	52.29	26.72	
2025-01-15 10:01:52.84	51.85	26.72	
2025-01-15 10:01:54.06	51.40	26.71	
2025-01-15 10:01:55.28	50.96	26.71	
2025-01-15 10:01:56.49	50.52	26.70	
2025-01-15 10:01:57.71	50.07	26.69	
2025-01-15 10:01:58.93	49.63	26.68	
2025-01-15 10:02:00.15	49.18	26.67	
2025-01-15 10:02:01.37	48.74	26.66	
2025-01-15 10:02:02.58	48.30	26.64	
2025-01-15 10:02:03.80	47.86	26.62	
2025-01-15 10:02:05.02	47.42	26.61	
2025-01-15 10:02:06.24	46.98	26.58	
2025-01-15 10:02:07.45	46.54	26.56	
2025-01-15 10:02:08.67	46.10	26.54	
2025-01-15 10:02:09.89	45.66	26.51	
2025-01-15 10:02:11.11	45.22	26.48	
2025-01-15 10:02:12.32	44.79	26.45	
2025-01-15 10:02:13.54	44.35	26.42	
2025-01-15 10:02:14.76	43.92	26.39	
2025-01-15 10:02:15.98	43.48	26.35	
2025-01-15 10:02:17.20	43.05	26.32	
2025-01-15 10:02:18.41	42.62	26.28	
2025-01-15 10:02:19.63	42.19	26.24	
2025-01-15 10:02:20.85	41.76	26.20	
2025-01-15 10:02:22.07	41.33	26.15	
2025-01-15 10:02:23.28	40.91	26.11	
2025-01-15 10:02:24.50	40.48	26.06	
2025-01-15 10:02:25.72	40.05	26.01	
2025-01-15 10:02:26.94	39.63	25.96	
2025-01-15 10:02:28.15	39.21	25.91	
2025-01-15 10:02:29.37	38.79	25.86	
2025-01-15 10:02:30.59	38.37	25.81	
2025-01-15 10:02:31.81	37.95	25.75	
2025-01-15 10:02:33.03	37.54	25.69	
2025-01-15 10:02:34.24	37.13	25.63	
2025-01-15 10:02:35.46	36.71	25.57	
2025-01-15 10:02:36.68	36.30	25.51	
2025-01-15 10:02:37.90	35.89	25.45	
2025-01-15 10:02:39.11	35.49	25.38	
2025-01-15 10:02:40.33	35.08	25.32	
2025-01-15 10:02:41.55	34.68	25.25	
2025-01-15 10:02:42.77	34.28	25.18	
2025-01-15 10:02:43.99	33.87	25.11	
2025-01-15 10:02:45.20	33.48	25.04	
2025-01-15 10:02:46.42	33.08	24.97	
2025-01-15 10:02:47.64	32.69	24.90	
2025-01-15 10:02:48.86	32.29	24.82	
2025-01-15 10:02:50.07	31.91	24.75	
2025-01-15 10:02:51.29	31.52	24.67	
2025-01-15 10:02:52.51	31.13	24.59	
2025-01-15 10:02:53.73	30.75	24.51	
2025-01-15 10:02:54.94	30.37	24.43	
2025-01-15 10:02:56.16	29.99	24.35	
2025-01-15 10:02:57.38	29.61	24.27	
2025-01-15 10:02:58.60	29.23	24.19	
2025-01-15 10:02:59.82	28.85	24.10	
2025-01-15 10:03:01.03	28.49	24.02	
2025-01-15 10:03:02.25	28.12	23.93	
2025-01-15 10:03:03.47	27.75	23.84	
2025-01-15 10:03:04.69	27.38	23.76	
2025-01-15 10:03:05.90	27.02	23.67	
2025-01-15 10:03:07.12	26.66	23.58	
2025-01-15 10:03:08.34	26.30	23.49	
2025-01-15 10:03:09.56	25.94	23.40	
2025-01-15 10:03:10.77	25.59	23.30	
2025-01-15 10:03:11.99	25.24	23.21	
2025-01-15 10:03:13.21	24.89	23.12	
2025-01-15 10:03:14.43	24.54	23.02	
2025-01-15 10:03:15.65	24.19	22.93	
2025-01-15 10:03:16.86	23.85	22.83	
2025-01-15 10:03:18.08	23.51	22.73	
2025-01-15 10:03:19.30	23.17	22.64	
2025-01-15 10:03:20.52	22.83	22.54	
2025-01-15 10:03:21.73	22.50	22.44	
2025-01-15 10:03:22.95	22.17	22.34	
2025-01-15 10:03:24.17	21.84	22.24	
2025-01-15 10:03:25.39	21.51	22.14	
2025-01-15 10:03:26.60	21.19	22.04	
2025-01-15 10:03:27.82	20.86	21.94	
2025-01-15 10:03:29.04	20.54	21.84	
2025-01-15 10:03:30.26	20.22	21.74	
2025-01-15 10:03:31.48	19.90	21.63	
2025-01-15 10:03:32.69	19.59	21.53	
2025-01-15 10:03:33.91	19.28	21.43	
2025-01-15 10:03:35.13	18.97	21.32	
2025-01-15 10:03:36.35	18.66	21.22	
2025-01-15 10:03:37.56	18.36	21.12	
2025-01-15 10:03:38.78	18.05	21.01	
2025-01-15 10:03:40.00	17.75	20.91	
2025-01-15 10:03:41.22	17.45	20.80	
2025-01-15 10:03:42.44	17.16	20.69	
2025-01-15 10:03:43.65	16.86	20.59	
2025-01-15 10:03:44.87	16.57	20.48	
2025-01-15 10:03:46.09	16.28	20.38	
2025-01-15 10:03:47.31	15.99	20.27	
2025-01-15 10:03:48.52	15.71	20.16	
2025-01-15 10:03:49.74	15.42	20.05	
2025-01-15 10:03:50.96	15.14	19.95	
2025-01-15 10:03:52.18	14.86	19.84	
2025-01-15 10:03:53.39	14.59	19.73	
2025-01-15 10:03:54.61	14.31	19.62	
2025-01-15 10:03:55.83	14.04	19.51	
2025-01-15 10:03:57.05	13.76	19.41	
2025-01-15 10:03:58.27	13.49	19.30	
2025-01-15 10:03:59.48	13.23	19.19	
2025-01-15 10:04:00.70	12.96	19.08	
2025-01-15 10:04:01.92	12.70	18.97	
2025-01-15 10:04:03.14	12.44	18.86	
2025-01-15 10:04:04.35	12.18	18.75	
2025-01-15 10:04:05.57	11.92	18.65	
2025-01-15 10:04:06.79	11.67	18.54	
2025-01-15 10:04:08.01	11.41	18.43	
2025-01-15 10:04:09.22	11.16	18.32	
2025-01-15 10:04:10.44	10.92	18.21	
2025-01-15 10:04:11.66	10.67	18.10	
2025-01-15 10:04:12.88	10.42	17.99	
2025-01-15 10:04:14.10	10.18	17.88	
2025-01-15 10:04:15.31	9.94	17.77	
2025-01-15 10:04:16.53	9.70	17.66	
2025-01-15 10:04:17.75	9.46	17.55	
2025-01-15 10:04:18.97	9.22	17.45	
2025-01-15 10:04:20.18	8.99	17.34	
2025-01-15 10:04:21.40	8.76	17.23	
2025-01-15 10:04:22.62	8.52	17.12	
2025-01-15 10:04:23.84	8.30	17.01	
2025-01-15 10:04:25.05	8.07	16.90	
2025-01-15 10:04:26.27	7.84	16.79	
2025-01-15 10:04:27.49	7.62	16.69	
2025-01-15 10:04:28.71	7.40	16.58	
2025-01-15 10:04:29.93	7.18	16.47	
2025-01-15 10:04:31.14	6.96	16.36	
2025-01-15 10:04:32.36	6.74	16.25	
2025-01-15 10:04:33.58	6.53	16.14	
2025-01-15 10:04:34.80	6.31	16.04	
2025-01-15 10:04:36.01	6.10	15.93	
2025-01-15 10:04:37.23	5.89	15.82	
2025-01-15 10:04:38.45	5.68	15.72	
2025-01-15 10:04:39.67	5.48	15.61	
2025-01-15 10:04:40.89	5.27	15.50	
2025-01-15 10:04:42.10	5.07	15.39	
2025-01-15 10:04:43.32	4.87	15.29	
2025-01-15 10:04:44.54	4.66	15.18	
2025-01-15 10:04:45.76	4.47	15.07	
2025-01-15 10:04:46.97	4.27	14.97	
2025-01-15 10:04:48.19	4.07	14.86	
2025-01-15 10:04:49.41	3.88	14.76	
2025-01-15 10:04:50.63	3.68	14.65	
2025-01-15 10:04:51.84	3.49	14.55	
2025-01-15 10:04:53.06	3.30	14.44	
2025-01-15 10:04:54.28	3.12	14.34	
2025-01-15 10:04:55.50	2.93	14.23	
2025-01-15 10:04:56.72	2.74	14.13	
2025-01-15 10:04:57.93	2.56	14.02	
2025-01-15 10:04:59.15	2.38	13.92	
2025-01-15 10:05:00.37	2.19	13.82	
2025-01-15 10:05:01.59	2.01	13.71	
2025-01-15 10:05:02.80	1.84	13.61	
2025-01-15 10:05:04.02	1.66	13.51	
2025-01-15 10:05:05.24	1.48	13.40	
2025-01-15 10:05:06.46	1.31	13.30	
2025-01-15 10:05:07.67	1.13	13.20	
2025-01-15 10:05:08.89	0.96	13.09	
2025-01-15 10:05:10.11	0.79	12.99	
2025-01-15 10:05:11.33	0.62	12.89	
2025-01-15 10:05:12.55	0.45	12.79	
2025-01-15 10:05:13.76	0.29	12.69	
2025-01-15 10:05:14.98	0.12	12.59	
2025-01-15 10:05:16.20	359.96	12.49	
2025-01-15 10:05:17.42	359.79	12.38	
2025-01-15 10:05:18.63	359.63	12.28	
2025-01-15 10:05:19.85	359.47	12.18	
2025-01-15 10:05:21.07	359.31	12.08	
2025-01-15 10:05:22.29	359.15	11.98	
2025-01-15 10:05:23.50	359.00	11.89	
2025-01-15 10:05:24.72	358.84	11.79	
2025-01-15 10:05:25.94	358.69	11.69	
2025-01-15 10:05:27.16	358.53	11.59	
2025-01-15 10:05:28.38	358.38	11.49	
2025-01-15 10:05:29.59	358.23	11.39	
2025-01-15 10:05:30.81	358.08	11.29	
2025-01-15 10:05:32.03	357.93	11.20	
2025-01-15 10:05:33.25	357.78	11.10	
2025-01-15 10:05:34.46	357.63	11.00	
2025-01-15 10:05:35.68	357.49	10.90	
2025-01-15 10:05:36.90	357.34	10.81	
2025-01-15 10:05:38.12	357.20	10.71	
2025-01-15 10:05:39.33	357.06	10.62	
2025-01-15 10:05:40.55	356.91	10.52	
2025-01-15 10:05:41.77	356.77	10.42	
2025-01-15 10:05:42.99	356.63	10.33	
2025-01-15 10:05:44.21	356.49	10.23	
2025-01-15 10:05:45.42	356.36	10.14	
2025-01-15 10:05:46.64	356.22	10.04	
2025-01-15 10:05:47.86	356.08	9.95	
2025-01-15 10:05:49.08	355.95	9.85	
2025-01-15 10:05:50.29	355.82	9.76	
2025-01-15 10:05:51.51	355.68	9.67	
2025-01-15 10:05:52.73	355.55	9.57	
2025-01-15 10:05:53.95	355.42	9.48	
2025-01-15 10:05:55.17	355.29	9.39	
2025-01-15 10:05:56.38	355.16	9.29	
2025-01-15 10:05:57.60	355.03	9.20	
2025-01-15 10:05:58.82	354.91	9.11	
2025-01-15 10:06:00.04	354.78	9.02	
2025-01-15 10:06:01.25	354.65	8.93	
2025-01-15 10:06:02.47	354.53	8.83	
2025-01-15 10:06:03.69	354.41	8.74	
2025-01-15 10:06:04.91	354.28	8.65	
2025-01-15 10:06:06.12	354.16	8.56	
2025-01-15 10:06:07.34	354.04	8.47	
2025-01-15 10:06:08.56	353.92	8.38	
2025-01-15 10:06:09.78	353.80	8.29	
2025-01-15 10:06:11.00	353.68	8.20	
2025-01-15 10:06:12.21	353.56	8.11	
2025-01-15 10:06:13.43	353.45	8.02	
2025-01-15 10:06:14.65	353.33	7.93	
2025-01-15 10:06:15.87	353.21	7.84	
2025-01-15 10:06:17.08	353.10	7.76	
2025-01-15 10:06:18.30	352.99	7.67	
2025-01-15 10:06:19.52	352.87	7.58	
2025-01-15 10:06:20.74	352.76	7.49	
2025-01-15 10:06:21.95	352.65	7.40	
2025-01-15 10:06:23.17	352.54	7.32	
2025-01-15 10:06:24.39	352.43	7.23	
2025-01-15 10:06:25.61	352.32	7.14	
2025-01-15 10:06:26.83	352.21	7.06	
2025-01-15 10:06:28.04	352.10	6.97	
2025-01-15 10:06:29.26	352.00	6.88	
2025-01-15 10:06:30.48	351.89	6.80	
2025-01-15 10:06:31.70	351.78	6.71	
2025-01-15 10:06:32.91	351.68	6.63	
2025-01-15 10:06:34.13	351.57	6.54	
2025-01-15 10:06:35.35	351.47	6.46	
2025-01-15 10:06:36.57	351.37	6.37	
2025-01-15 10:06:37.79	351.26	6.29	
2025-01-15 10:06:39.00	351.16	6.20	
2025-01-15 10:06:40.22	351.06	6.12	
2025-01-15 10:06:41.44	350.96	6.03	
2025-01-15 10:06:42.66	350.86	5.95	
2025-01-15 10:06:43.87	350.76	5.87	
2025-01-15 10:06:45.09	350.67	5.78	
2025-01-15 10:06:46.31	350.57	5.70	
2025-01-15 10:06:47.53	350.47	5.62	
2025-01-15 10:06:48.74	350.37	5.54	
2025-01-15 10:06:49.96	350.28	5.45	
2025-01-15 10:06:51.18	350.18	5.37	
2025-01-15 10:06:52.40	350.09	5.29	
2025-01-15 10:06:53.62	349.99	5.21	
2025-01-15 10:06:54.83	349.90	5.13	
2025-01-15 10:06:56.05	349.81	5.04	
2025-01-15 10:06:57.27	349.72	4.96	
2025-01-15 10:06:58.49	349.62	4.88	
2025-01-15 10:06:59.70	349.53	4.80	
2025-01-15 10:07:00.92	349.44	4.72	
2025-01-15 10:07:02.14	349.35	4.64	
2025-01-15 10:07:03.36	349.26	4.56	
2025-01-15 10:07:04.57	349.18	4.48	
2025-01-15 10:07:05.79	349.09	4.40	
2025-01-15 10:07:07.01	349.00	4.32	
2025-01-15 10:07:08.23	348.91	4.24	
2025-01-15 10:07:09.45	348.83	4.16	
2025-01-15 10:07:10.66	348.74	4.08	
2025-01-15 10:07:11.88	348.65	4.00	

#Closed at: 2025-01-15 10:07:12