passes_logs/2025/01/15/SPB_Silybum_02/SPB_Silybum_02__20250115_111518_TERRA_rec.log

#Pass ID: 20250115_111518_TERRA
#Satellite: TERRA
#Configuration: TERRA
#Start time: 2025-01-15 11:15:18

#Version: 2.0.20230423
#Station: SPB_Silybum_02
#Location: 30.233357 lon 59.946436 lat
#TLE: 1 25994U 99068A   25014.85746573  .00000777  00000+0  16972-3 0  9996
#TLE: 2 25994  98.0216  77.8924 0003456  72.8612  46.8876 14.60394566334056

#Time	Az	El	Level	Level2	SNR	BER	Gain	Gain2
2025-01-15 11:15:20.95	5.60	4.10	
2025-01-15 11:15:21.76	5.49	4.13	
2025-01-15 11:15:22.57	5.39	4.17	
2025-01-15 11:15:23.39	5.28	4.21	
2025-01-15 11:15:24.20	5.18	4.24	
2025-01-15 11:15:25.01	5.07	4.28	
2025-01-15 11:15:25.82	4.97	4.32	
2025-01-15 11:15:26.63	4.86	4.35	
2025-01-15 11:15:27.44	4.76	4.39	
2025-01-15 11:15:28.26	4.65	4.43	
2025-01-15 11:15:29.07	4.54	4.46	
2025-01-15 11:15:29.88	4.44	4.50	
2025-01-15 11:15:30.69	4.33	4.54	
2025-01-15 11:15:31.50	4.22	4.57	
2025-01-15 11:15:32.32	4.12	4.61	
2025-01-15 11:15:33.13	4.01	4.64	
2025-01-15 11:15:33.94	3.90	4.68	
2025-01-15 11:15:34.75	3.79	4.72	
2025-01-15 11:15:35.56	3.68	4.75	
2025-01-15 11:15:36.37	3.57	4.79	
2025-01-15 11:15:37.19	3.46	4.82	
2025-01-15 11:15:38.00	3.35	4.86	
2025-01-15 11:15:38.81	3.24	4.90	
2025-01-15 11:15:39.62	3.13	4.93	
2025-01-15 11:15:40.43	3.02	4.97	
2025-01-15 11:15:41.25	2.91	5.00	
2025-01-15 11:15:42.06	2.80	5.04	
2025-01-15 11:15:42.87	2.69	5.07	
2025-01-15 11:15:43.68	2.58	5.11	
2025-01-15 11:15:44.49	2.47	5.15	
2025-01-15 11:15:45.30	2.35	5.18	
2025-01-15 11:15:46.12	2.24	5.22	
2025-01-15 11:15:46.93	2.13	5.25	
2025-01-15 11:15:47.74	2.01	5.29	
2025-01-15 11:15:48.55	1.90	5.32	
2025-01-15 11:15:49.36	1.79	5.36	
2025-01-15 11:15:50.18	1.67	5.39	
2025-01-15 11:15:50.99	1.56	5.43	
2025-01-15 11:15:51.80	1.44	5.46	
2025-01-15 11:15:52.61	1.33	5.50	
2025-01-15 11:15:53.42	1.21	5.53	
2025-01-15 11:15:54.23	1.10	5.57	
2025-01-15 11:15:55.05	0.98	5.60	
2025-01-15 11:15:55.86	0.86	5.64	
2025-01-15 11:15:56.67	0.75	5.67	
2025-01-15 11:15:57.48	0.63	5.71	
2025-01-15 11:15:58.29	0.51	5.74	
2025-01-15 11:15:59.11	0.39	5.78	
2025-01-15 11:15:59.92	0.28	5.81	
2025-01-15 11:16:00.73	0.16	5.85	
2025-01-15 11:16:01.54	0.04	5.88	
2025-01-15 11:16:02.35	359.92	5.92	
2025-01-15 11:16:03.16	359.80	5.95	
2025-01-15 11:16:03.98	359.68	5.99	
2025-01-15 11:16:04.79	359.56	6.02	
2025-01-15 11:16:05.60	359.44	6.05	
2025-01-15 11:16:06.41	359.32	6.09	
2025-01-15 11:16:07.22	359.20	6.12	
2025-01-15 11:16:08.04	359.08	6.16	
2025-01-15 11:16:08.85	358.96	6.19	
2025-01-15 11:16:09.66	358.84	6.22	
2025-01-15 11:16:10.47	358.71	6.26	
2025-01-15 11:16:11.28	358.59	6.29	
2025-01-15 11:16:12.09	358.47	6.33	
2025-01-15 11:16:12.91	358.34	6.36	
2025-01-15 11:16:13.72	358.22	6.39	
2025-01-15 11:16:14.53	358.10	6.43	
2025-01-15 11:16:15.34	357.97	6.46	
2025-01-15 11:16:16.15	357.85	6.49	
2025-01-15 11:16:16.96	357.73	6.53	
2025-01-15 11:16:17.78	357.60	6.56	
2025-01-15 11:16:18.59	357.47	6.59	
2025-01-15 11:16:19.40	357.35	6.63	
2025-01-15 11:16:20.21	357.22	6.66	
2025-01-15 11:16:21.02	357.10	6.69	
2025-01-15 11:16:21.84	356.97	6.73	
2025-01-15 11:16:22.65	356.84	6.76	
2025-01-15 11:16:23.46	356.72	6.79	
2025-01-15 11:16:24.27	356.59	6.82	
2025-01-15 11:16:25.08	356.46	6.86	
2025-01-15 11:16:25.89	356.33	6.89	
2025-01-15 11:16:26.71	356.20	6.92	
2025-01-15 11:16:27.52	356.08	6.95	
2025-01-15 11:16:28.33	355.95	6.99	
2025-01-15 11:16:29.14	355.82	7.02	
2025-01-15 11:16:29.95	355.69	7.05	
2025-01-15 11:16:30.77	355.56	7.08	
2025-01-15 11:16:31.58	355.43	7.11	
2025-01-15 11:16:32.39	355.30	7.15	
2025-01-15 11:16:33.20	355.17	7.18	
2025-01-15 11:16:34.01	355.04	7.21	
2025-01-15 11:16:34.82	354.90	7.24	
2025-01-15 11:16:35.64	354.77	7.27	
2025-01-15 11:16:36.45	354.64	7.30	
2025-01-15 11:16:37.26	354.51	7.33	
2025-01-15 11:16:38.07	354.37	7.37	
2025-01-15 11:16:38.88	354.24	7.40	
2025-01-15 11:16:39.70	354.11	7.43	
2025-01-15 11:16:40.51	353.97	7.46	
2025-01-15 11:16:41.32	353.84	7.49	
2025-01-15 11:16:42.13	353.70	7.52	
2025-01-15 11:16:42.94	353.57	7.55	
2025-01-15 11:16:43.75	353.44	7.58	
2025-01-15 11:16:44.57	353.30	7.61	
2025-01-15 11:16:45.38	353.16	7.64	
2025-01-15 11:16:46.19	353.03	7.67	
2025-01-15 11:16:47.00	352.89	7.70	
2025-01-15 11:16:47.81	352.76	7.73	
2025-01-15 11:16:48.63	352.62	7.76	
2025-01-15 11:16:49.44	352.48	7.79	
2025-01-15 11:16:50.25	352.34	7.82	
2025-01-15 11:16:51.06	352.21	7.85	
2025-01-15 11:16:51.87	352.07	7.88	
2025-01-15 11:16:52.68	351.93	7.91	
2025-01-15 11:16:53.50	351.79	7.94	
2025-01-15 11:16:54.31	351.65	7.97	
2025-01-15 11:16:55.12	351.51	8.00	
2025-01-15 11:16:55.93	351.37	8.03	
2025-01-15 11:16:56.74	351.23	8.05	
2025-01-15 11:16:57.56	351.09	8.08	
2025-01-15 11:16:58.37	350.95	8.11	
2025-01-15 11:16:59.18	350.81	8.14	
2025-01-15 11:16:59.99	350.67	8.17	
2025-01-15 11:17:00.80	350.53	8.20	
2025-01-15 11:17:01.61	350.39	8.22	
2025-01-15 11:17:02.43	350.24	8.25	
2025-01-15 11:17:03.24	350.10	8.28	
2025-01-15 11:17:04.05	349.96	8.31	
2025-01-15 11:17:04.86	349.81	8.34	
2025-01-15 11:17:05.67	349.67	8.36	
2025-01-15 11:17:06.49	349.53	8.39	
2025-01-15 11:17:07.30	349.38	8.42	
2025-01-15 11:17:08.11	349.24	8.44	
2025-01-15 11:17:08.92	349.09	8.47	
2025-01-15 11:17:09.73	348.95	8.50	
2025-01-15 11:17:10.54	348.81	8.53	
2025-01-15 11:17:11.36	348.66	8.55	
2025-01-15 11:17:12.17	348.51	8.58	
2025-01-15 11:17:12.98	348.37	8.60	
2025-01-15 11:17:13.79	348.22	8.63	
2025-01-15 11:17:14.60	348.08	8.66	
2025-01-15 11:17:15.41	347.93	8.68	
2025-01-15 11:17:16.23	347.78	8.71	
2025-01-15 11:17:17.04	347.63	8.73	
2025-01-15 11:17:17.85	347.49	8.76	
2025-01-15 11:17:18.66	347.34	8.78	
2025-01-15 11:17:19.47	347.19	8.81	
2025-01-15 11:17:20.29	347.04	8.83	
2025-01-15 11:17:21.10	346.89	8.86	
2025-01-15 11:17:21.91	346.74	8.88	
2025-01-15 11:17:22.72	346.59	8.91	
2025-01-15 11:17:23.53	346.44	8.93	
2025-01-15 11:17:24.34	346.29	8.96	
2025-01-15 11:17:25.16	346.14	8.98	
2025-01-15 11:17:25.97	345.99	9.01	
2025-01-15 11:17:26.78	345.84	9.03	
2025-01-15 11:17:27.59	345.69	9.05	
2025-01-15 11:17:28.40	345.54	9.08	
2025-01-15 11:17:29.22	345.39	9.10	
2025-01-15 11:17:30.03	345.24	9.12	
2025-01-15 11:17:30.84	345.08	9.15	
2025-01-15 11:17:31.65	344.93	9.17	
2025-01-15 11:17:32.46	344.78	9.19	
2025-01-15 11:17:33.27	344.63	9.21	
2025-01-15 11:17:34.09	344.47	9.24	
2025-01-15 11:17:34.90	344.32	9.26	
2025-01-15 11:17:35.71	344.17	9.28	
2025-01-15 11:17:36.52	344.01	9.30	
2025-01-15 11:17:37.33	343.86	9.32	
2025-01-15 11:17:38.15	343.70	9.35	
2025-01-15 11:17:38.96	343.55	9.37	
2025-01-15 11:17:39.77	343.39	9.39	
2025-01-15 11:17:40.58	343.24	9.41	
2025-01-15 11:17:41.39	343.08	9.43	
2025-01-15 11:17:42.20	342.93	9.45	
2025-01-15 11:17:43.02	342.77	9.47	
2025-01-15 11:17:43.83	342.62	9.49	
2025-01-15 11:17:44.64	342.46	9.51	
2025-01-15 11:17:45.45	342.30	9.53	
2025-01-15 11:17:46.26	342.15	9.55	
2025-01-15 11:17:47.08	341.99	9.57	
2025-01-15 11:17:47.89	341.83	9.59	
2025-01-15 11:17:48.70	341.67	9.61	
2025-01-15 11:17:49.51	341.52	9.63	
2025-01-15 11:17:50.32	341.36	9.65	
2025-01-15 11:17:51.13	341.20	9.67	
2025-01-15 11:17:51.95	341.04	9.69	
2025-01-15 11:17:52.76	340.88	9.70	
2025-01-15 11:17:53.57	340.72	9.72	
2025-01-15 11:17:54.38	340.57	9.74	
2025-01-15 11:17:55.19	340.41	9.76	
2025-01-15 11:17:56.01	340.25	9.78	
2025-01-15 11:17:56.82	340.09	9.79	
2025-01-15 11:17:57.63	339.93	9.81	
2025-01-15 11:17:58.44	339.77	9.83	
2025-01-15 11:17:59.25	339.61	9.84	
2025-01-15 11:18:00.06	339.45	9.86	
2025-01-15 11:18:00.88	339.28	9.88	
2025-01-15 11:18:01.69	339.12	9.89	
2025-01-15 11:18:02.50	338.96	9.91	
2025-01-15 11:18:03.31	338.80	9.93	
2025-01-15 11:18:04.12	338.64	9.94	
2025-01-15 11:18:04.93	338.48	9.96	
2025-01-15 11:18:05.75	338.32	9.97	
2025-01-15 11:18:06.56	338.15	9.99	
2025-01-15 11:18:07.37	337.99	10.00	
2025-01-15 11:18:08.18	337.83	10.02	
2025-01-15 11:18:08.99	337.67	10.03	
2025-01-15 11:18:09.81	337.50	10.05	
2025-01-15 11:18:10.62	337.34	10.06	
2025-01-15 11:18:11.43	337.18	10.08	
2025-01-15 11:18:12.24	337.01	10.09	
2025-01-15 11:18:13.05	336.85	10.10	
2025-01-15 11:18:13.86	336.69	10.12	
2025-01-15 11:18:14.68	336.52	10.13	
2025-01-15 11:18:15.49	336.36	10.14	
2025-01-15 11:18:16.30	336.19	10.15	
2025-01-15 11:18:17.11	336.03	10.17	
2025-01-15 11:18:17.92	335.87	10.18	
2025-01-15 11:18:18.74	335.70	10.19	
2025-01-15 11:18:19.55	335.54	10.20	
2025-01-15 11:18:20.36	335.37	10.22	
2025-01-15 11:18:21.17	335.21	10.23	
2025-01-15 11:18:21.98	335.04	10.24	
2025-01-15 11:18:22.79	334.88	10.25	
2025-01-15 11:18:23.61	334.71	10.26	
2025-01-15 11:18:24.42	334.54	10.27	
2025-01-15 11:18:25.23	334.38	10.28	
2025-01-15 11:18:26.04	334.21	10.29	
2025-01-15 11:18:26.85	334.05	10.30	
2025-01-15 11:18:27.67	333.88	10.31	
2025-01-15 11:18:28.48	333.71	10.32	
2025-01-15 11:18:29.29	333.55	10.33	
2025-01-15 11:18:30.10	333.38	10.34	
2025-01-15 11:18:30.91	333.21	10.35	
2025-01-15 11:18:31.72	333.05	10.36	
2025-01-15 11:18:32.54	332.88	10.37	
2025-01-15 11:18:33.35	332.71	10.37	
2025-01-15 11:18:34.16	332.55	10.38	
2025-01-15 11:18:34.97	332.38	10.39	
2025-01-15 11:18:35.78	332.21	10.40	
2025-01-15 11:18:36.60	332.04	10.41	
2025-01-15 11:18:37.41	331.88	10.41	
2025-01-15 11:18:38.22	331.71	10.42	
2025-01-15 11:18:39.03	331.54	10.43	
2025-01-15 11:18:39.84	331.38	10.43	
2025-01-15 11:18:40.65	331.21	10.44	
2025-01-15 11:18:41.47	331.04	10.45	
2025-01-15 11:18:42.28	330.87	10.45	
2025-01-15 11:18:43.09	330.70	10.46	
2025-01-15 11:18:43.90	330.54	10.46	
2025-01-15 11:18:44.71	330.37	10.47	
2025-01-15 11:18:45.53	330.20	10.47	
2025-01-15 11:18:46.34	330.03	10.48	
2025-01-15 11:18:47.15	329.86	10.48	
2025-01-15 11:18:47.96	329.69	10.49	
2025-01-15 11:18:48.77	329.53	10.49	
2025-01-15 11:18:49.58	329.36	10.49	
2025-01-15 11:18:50.40	329.19	10.50	
2025-01-15 11:18:51.21	329.02	10.50	
2025-01-15 11:18:52.02	328.85	10.50	
2025-01-15 11:18:52.83	328.68	10.51	
2025-01-15 11:18:53.64	328.51	10.51	
2025-01-15 11:18:54.46	328.34	10.51	
2025-01-15 11:18:55.27	328.17	10.52	
2025-01-15 11:18:56.08	328.01	10.52	
2025-01-15 11:18:56.89	327.84	10.52	
2025-01-15 11:18:57.70	327.67	10.52	
2025-01-15 11:18:58.51	327.50	10.52	
2025-01-15 11:18:59.33	327.33	10.52	
2025-01-15 11:19:00.14	327.16	10.52	
2025-01-15 11:19:00.95	326.99	10.53	
2025-01-15 11:19:01.76	326.82	10.53	
2025-01-15 11:19:02.57	326.66	10.53	
2025-01-15 11:19:03.38	326.49	10.53	
2025-01-15 11:19:04.20	326.32	10.53	
2025-01-15 11:19:05.01	326.15	10.53	
2025-01-15 11:19:05.82	325.98	10.52	
2025-01-15 11:19:06.63	325.81	10.52	
2025-01-15 11:19:07.44	325.64	10.52	
2025-01-15 11:19:08.26	325.47	10.52	
2025-01-15 11:19:09.07	325.30	10.52	
2025-01-15 11:19:09.88	325.13	10.52	
2025-01-15 11:19:10.69	324.97	10.52	
2025-01-15 11:19:11.50	324.80	10.51	
2025-01-15 11:19:12.31	324.63	10.51	
2025-01-15 11:19:13.13	324.46	10.51	
2025-01-15 11:19:13.94	324.29	10.51	
2025-01-15 11:19:14.75	324.12	10.50	
2025-01-15 11:19:15.56	323.95	10.50	
2025-01-15 11:19:16.37	323.79	10.50	
2025-01-15 11:19:17.19	323.61	10.49	
2025-01-15 11:19:18.00	323.45	10.49	
2025-01-15 11:19:18.81	323.28	10.48	
2025-01-15 11:19:19.62	323.11	10.48	
2025-01-15 11:19:20.43	322.94	10.47	
2025-01-15 11:19:21.24	322.77	10.47	
2025-01-15 11:19:22.06	322.60	10.46	
2025-01-15 11:19:22.87	322.44	10.46	
2025-01-15 11:19:23.68	322.27	10.45	
2025-01-15 11:19:24.49	322.10	10.45	
2025-01-15 11:19:25.30	321.93	10.44	
2025-01-15 11:19:26.12	321.76	10.44	
2025-01-15 11:19:26.93	321.60	10.43	
2025-01-15 11:19:27.74	321.43	10.42	
2025-01-15 11:19:28.55	321.26	10.42	
2025-01-15 11:19:29.36	321.09	10.41	
2025-01-15 11:19:30.17	320.93	10.40	
2025-01-15 11:19:30.99	320.76	10.39	
2025-01-15 11:19:31.80	320.59	10.39	
2025-01-15 11:19:32.61	320.42	10.38	
2025-01-15 11:19:33.42	320.26	10.37	
2025-01-15 11:19:34.23	320.09	10.36	
2025-01-15 11:19:35.05	319.92	10.35	
2025-01-15 11:19:35.86	319.76	10.34	
2025-01-15 11:19:36.67	319.59	10.33	
2025-01-15 11:19:37.48	319.42	10.33	
2025-01-15 11:19:38.29	319.26	10.32	
2025-01-15 11:19:39.10	319.09	10.31	
2025-01-15 11:19:39.92	318.92	10.30	
2025-01-15 11:19:40.73	318.76	10.29	
2025-01-15 11:19:41.54	318.59	10.28	
2025-01-15 11:19:42.35	318.43	10.26	
2025-01-15 11:19:43.16	318.26	10.25	
2025-01-15 11:19:43.98	318.09	10.24	
2025-01-15 11:19:44.79	317.93	10.23	
2025-01-15 11:19:45.60	317.76	10.22	
2025-01-15 11:19:46.41	317.60	10.21	
2025-01-15 11:19:47.22	317.43	10.20	
2025-01-15 11:19:48.03	317.27	10.18	
2025-01-15 11:19:48.85	317.10	10.17	
2025-01-15 11:19:49.66	316.94	10.16	
2025-01-15 11:19:50.47	316.77	10.15	
2025-01-15 11:19:51.28	316.61	10.13	
2025-01-15 11:19:52.09	316.45	10.12	
2025-01-15 11:19:52.91	316.28	10.11	
2025-01-15 11:19:53.72	316.12	10.09	
2025-01-15 11:19:54.53	315.95	10.08	
2025-01-15 11:19:55.34	315.79	10.07	
2025-01-15 11:19:56.15	315.63	10.05	
2025-01-15 11:19:56.96	315.47	10.04	
2025-01-15 11:19:57.78	315.30	10.02	
2025-01-15 11:19:58.59	315.14	10.01	
2025-01-15 11:19:59.40	314.98	9.99	
2025-01-15 11:20:00.21	314.81	9.98	
2025-01-15 11:20:01.04	314.65	9.96	
2025-01-15 11:20:01.85	314.49	9.95	
2025-01-15 11:20:02.66	314.33	9.93	
2025-01-15 11:20:03.47	314.16	9.92	
2025-01-15 11:20:04.29	314.00	9.90	
2025-01-15 11:20:05.10	313.84	9.88	
2025-01-15 11:20:05.91	313.68	9.87	
2025-01-15 11:20:06.72	313.52	9.85	
2025-01-15 11:20:07.53	313.36	9.83	
2025-01-15 11:20:08.34	313.20	9.82	
2025-01-15 11:20:09.16	313.04	9.80	
2025-01-15 11:20:09.97	312.88	9.78	
2025-01-15 11:20:10.78	312.72	9.77	
2025-01-15 11:20:11.59	312.56	9.75	
2025-01-15 11:20:12.40	312.40	9.73	
2025-01-15 11:20:13.22	312.24	9.71	
2025-01-15 11:20:14.03	312.08	9.69	
2025-01-15 11:20:14.84	311.92	9.67	
2025-01-15 11:20:15.65	311.76	9.66	
2025-01-15 11:20:16.46	311.60	9.64	
2025-01-15 11:20:17.27	311.45	9.62	
2025-01-15 11:20:18.09	311.29	9.60	
2025-01-15 11:20:18.90	311.13	9.58	
2025-01-15 11:20:19.71	310.97	9.56	
2025-01-15 11:20:20.52	310.82	9.54	
2025-01-15 11:20:21.33	310.66	9.52	
2025-01-15 11:20:22.15	310.50	9.50	
2025-01-15 11:20:22.96	310.34	9.48	
2025-01-15 11:20:23.77	310.19	9.46	
2025-01-15 11:20:24.58	310.03	9.44	
2025-01-15 11:20:25.39	309.88	9.42	
2025-01-15 11:20:26.20	309.72	9.40	
2025-01-15 11:20:27.02	309.57	9.37	
2025-01-15 11:20:27.83	309.41	9.35	
2025-01-15 11:20:28.64	309.26	9.33	
2025-01-15 11:20:29.45	309.10	9.31	
2025-01-15 11:20:30.26	308.95	9.29	
2025-01-15 11:20:31.08	308.79	9.27	
2025-01-15 11:20:31.89	308.64	9.24	
2025-01-15 11:20:32.70	308.49	9.22	
2025-01-15 11:20:33.51	308.33	9.20	
2025-01-15 11:20:34.32	308.18	9.18	
2025-01-15 11:20:35.13	308.03	9.15	
2025-01-15 11:20:35.95	307.87	9.13	
2025-01-15 11:20:36.76	307.72	9.11	
2025-01-15 11:20:37.57	307.57	9.08	
2025-01-15 11:20:38.38	307.42	9.06	
2025-01-15 11:20:39.19	307.27	9.04	
2025-01-15 11:20:40.01	307.11	9.01	
2025-01-15 11:20:40.82	306.96	8.99	
2025-01-15 11:20:41.63	306.81	8.97	
2025-01-15 11:20:42.44	306.66	8.94	
2025-01-15 11:20:43.25	306.51	8.92	
2025-01-15 11:20:44.06	306.36	8.89	
2025-01-15 11:20:44.88	306.21	8.87	
2025-01-15 11:20:45.69	306.06	8.84	
2025-01-15 11:20:46.50	305.92	8.82	
2025-01-15 11:20:47.31	305.77	8.79	
2025-01-15 11:20:48.12	305.62	8.77	
2025-01-15 11:20:48.94	305.47	8.74	
2025-01-15 11:20:49.75	305.32	8.72	
2025-01-15 11:20:50.56	305.17	8.69	
2025-01-15 11:20:51.37	305.03	8.67	
2025-01-15 11:20:52.18	304.88	8.64	
2025-01-15 11:20:52.99	304.73	8.61	
2025-01-15 11:20:53.81	304.59	8.59	
2025-01-15 11:20:54.62	304.44	8.56	
2025-01-15 11:20:55.43	304.29	8.53	
2025-01-15 11:20:56.24	304.15	8.51	
2025-01-15 11:20:57.05	304.00	8.48	
2025-01-15 11:20:57.87	303.86	8.45	
2025-01-15 11:20:58.68	303.71	8.43	
2025-01-15 11:20:59.49	303.57	8.40	
2025-01-15 11:21:00.30	303.43	8.37	
2025-01-15 11:21:01.11	303.28	8.35	
2025-01-15 11:21:01.92	303.14	8.32	
2025-01-15 11:21:02.74	302.99	8.29	
2025-01-15 11:21:03.55	302.85	8.26	
2025-01-15 11:21:04.36	302.71	8.23	
2025-01-15 11:21:05.17	302.57	8.21	
2025-01-15 11:21:05.98	302.43	8.18	
2025-01-15 11:21:06.79	302.28	8.15	
2025-01-15 11:21:07.61	302.14	8.12	
2025-01-15 11:21:08.42	302.00	8.09	
2025-01-15 11:21:09.23	301.86	8.06	
2025-01-15 11:21:10.04	301.72	8.04	
2025-01-15 11:21:10.85	301.58	8.01	
2025-01-15 11:21:11.67	301.44	7.98	
2025-01-15 11:21:12.48	301.30	7.95	
2025-01-15 11:21:13.29	301.16	7.92	
2025-01-15 11:21:14.10	301.02	7.89	
2025-01-15 11:21:14.91	300.88	7.86	
2025-01-15 11:21:15.72	300.74	7.83	
2025-01-15 11:21:16.54	300.61	7.80	
2025-01-15 11:21:17.35	300.47	7.77	
2025-01-15 11:21:18.16	300.33	7.74	
2025-01-15 11:21:18.97	300.19	7.71	
2025-01-15 11:21:19.78	300.06	7.68	
2025-01-15 11:21:20.60	299.92	7.65	
2025-01-15 11:21:21.41	299.78	7.62	
2025-01-15 11:21:22.22	299.65	7.59	
2025-01-15 11:21:23.03	299.51	7.56	
2025-01-15 11:21:23.84	299.38	7.53	
2025-01-15 11:21:24.65	299.24	7.50	
2025-01-15 11:21:25.47	299.11	7.47	
2025-01-15 11:21:26.28	298.97	7.44	
2025-01-15 11:21:27.09	298.84	7.41	
2025-01-15 11:21:27.90	298.71	7.38	
2025-01-15 11:21:28.71	298.57	7.34	
2025-01-15 11:21:29.53	298.44	7.31	
2025-01-15 11:21:30.34	298.31	7.28	
2025-01-15 11:21:31.15	298.17	7.25	
2025-01-15 11:21:31.96	298.04	7.22	
2025-01-15 11:21:32.77	297.91	7.19	
2025-01-15 11:21:33.58	297.78	7.16	
2025-01-15 11:21:34.40	297.65	7.12	
2025-01-15 11:21:35.21	297.52	7.09	
2025-01-15 11:21:36.02	297.38	7.06	
2025-01-15 11:21:36.83	297.25	7.03	
2025-01-15 11:21:37.64	297.13	6.99	
2025-01-15 11:21:38.46	296.99	6.96	
2025-01-15 11:21:39.27	296.87	6.93	
2025-01-15 11:21:40.08	296.74	6.90	
2025-01-15 11:21:40.89	296.61	6.87	
2025-01-15 11:21:41.70	296.48	6.83	
2025-01-15 11:21:42.51	296.35	6.80	
2025-01-15 11:21:43.33	296.22	6.77	
2025-01-15 11:21:44.14	296.10	6.73	
2025-01-15 11:21:44.95	295.97	6.70	
2025-01-15 11:21:45.76	295.84	6.67	
2025-01-15 11:21:46.57	295.72	6.64	
2025-01-15 11:21:47.39	295.59	6.60	
2025-01-15 11:21:48.20	295.46	6.57	
2025-01-15 11:21:49.01	295.34	6.54	
2025-01-15 11:21:49.82	295.21	6.50	
2025-01-15 11:21:50.63	295.09	6.47	
2025-01-15 11:21:51.44	294.96	6.44	
2025-01-15 11:21:52.26	294.84	6.40	
2025-01-15 11:21:53.07	294.71	6.37	
2025-01-15 11:21:53.88	294.59	6.33	
2025-01-15 11:21:54.69	294.47	6.30	
2025-01-15 11:21:55.50	294.35	6.27	
2025-01-15 11:21:56.32	294.22	6.23	
2025-01-15 11:21:57.13	294.10	6.20	
2025-01-15 11:21:57.94	293.98	6.17	
2025-01-15 11:21:58.75	293.86	6.13	
2025-01-15 11:21:59.56	293.73	6.10	
2025-01-15 11:22:00.37	293.61	6.06	
2025-01-15 11:22:01.19	293.49	6.03	
2025-01-15 11:22:02.00	293.37	5.99	
2025-01-15 11:22:02.81	293.25	5.96	
2025-01-15 11:22:03.62	293.13	5.93	
2025-01-15 11:22:04.43	293.01	5.89	
2025-01-15 11:22:05.24	292.89	5.86	
2025-01-15 11:22:06.06	292.77	5.82	
2025-01-15 11:22:06.87	292.66	5.79	
2025-01-15 11:22:07.68	292.54	5.75	
2025-01-15 11:22:08.49	292.42	5.72	
2025-01-15 11:22:09.30	292.30	5.68	
2025-01-15 11:22:10.12	292.18	5.65	
2025-01-15 11:22:10.93	292.07	5.61	
2025-01-15 11:22:11.74	291.95	5.58	
2025-01-15 11:22:12.55	291.83	5.54	
2025-01-15 11:22:13.36	291.72	5.51	
2025-01-15 11:22:14.17	291.60	5.47	
2025-01-15 11:22:14.99	291.49	5.44	
2025-01-15 11:22:15.80	291.37	5.40	
2025-01-15 11:22:16.61	291.26	5.37	
2025-01-15 11:22:17.42	291.14	5.33	
2025-01-15 11:22:18.23	291.03	5.30	
2025-01-15 11:22:19.05	290.91	5.26	
2025-01-15 11:22:19.86	290.80	5.22	
2025-01-15 11:22:20.67	290.69	5.19	
2025-01-15 11:22:21.48	290.57	5.15	
2025-01-15 11:22:22.29	290.46	5.12	
2025-01-15 11:22:23.10	290.35	5.08	
2025-01-15 11:22:23.92	290.24	5.05	
2025-01-15 11:22:24.73	290.12	5.01	
2025-01-15 11:22:25.54	290.01	4.98	
2025-01-15 11:22:26.35	289.90	4.94	
2025-01-15 11:22:27.16	289.79	4.90	
2025-01-15 11:22:27.98	289.68	4.87	
2025-01-15 11:22:28.79	289.57	4.83	
2025-01-15 11:22:29.60	289.46	4.80	
2025-01-15 11:22:30.41	289.35	4.76	
2025-01-15 11:22:31.22	289.24	4.72	
2025-01-15 11:22:32.03	289.13	4.69	
2025-01-15 11:22:32.85	289.02	4.65	
2025-01-15 11:22:33.66	288.91	4.61	
2025-01-15 11:22:34.47	288.81	4.58	
2025-01-15 11:22:35.28	288.70	4.54	
2025-01-15 11:22:36.09	288.59	4.51	
2025-01-15 11:22:36.91	288.48	4.47	
2025-01-15 11:22:37.72	288.37	4.43	
2025-01-15 11:22:38.53	288.27	4.40	
2025-01-15 11:22:39.34	288.16	4.36	
2025-01-15 11:22:40.15	288.06	4.32	
2025-01-15 11:22:40.96	287.95	4.29	
2025-01-15 11:22:41.78	287.84	4.25	
2025-01-15 11:22:42.59	287.74	4.21	
2025-01-15 11:22:43.40	287.63	4.18	
2025-01-15 11:22:44.21	287.53	4.14	
2025-01-15 11:22:45.02	287.43	4.11	
2025-01-15 11:22:45.84	287.32	4.07	
2025-01-15 11:22:46.65	287.22	4.03	

#Closed at: 2025-01-15 11:22:47