passes_logs/2025/01/15/SPB_Silybum_02/SPB_Silybum_02__20250115_191344_TERRA_rec.log

#Pass ID: 20250115_191344_TERRA
#Satellite: TERRA
#Configuration: TERRA
#Start time: 2025-01-15 19:13:44

#Version: 2.0.20230423
#Station: SPB_Silybum_02
#Location: 30.233357 lon 59.946436 lat
#TLE: 1 25994U 99068A   25014.85746573  .00000777  00000+0  16972-3 0  9996
#TLE: 2 25994  98.0216  77.8924 0003456  72.8612  46.8876 14.60394566334056

#Time	Az	El	Level	Level2	SNR	BER	Gain	Gain2
2025-01-15 19:13:46.35	183.58	4.15	
2025-01-15 19:13:47.57	183.63	4.23	
2025-01-15 19:13:48.79	183.69	4.32	
2025-01-15 19:13:50.01	183.74	4.41	
2025-01-15 19:13:51.22	183.80	4.49	
2025-01-15 19:13:52.44	183.85	4.58	
2025-01-15 19:13:53.66	183.91	4.66	
2025-01-15 19:13:54.88	183.97	4.75	
2025-01-15 19:13:56.10	184.02	4.84	
2025-01-15 19:13:57.32	184.08	4.93	
2025-01-15 19:13:58.53	184.14	5.01	
2025-01-15 19:13:59.75	184.19	5.10	
2025-01-15 19:14:00.97	184.25	5.19	
2025-01-15 19:14:02.19	184.31	5.28	
2025-01-15 19:14:03.41	184.37	5.37	
2025-01-15 19:14:04.63	184.43	5.46	
2025-01-15 19:14:05.85	184.49	5.55	
2025-01-15 19:14:07.07	184.55	5.64	
2025-01-15 19:14:08.28	184.61	5.73	
2025-01-15 19:14:09.50	184.67	5.82	
2025-01-15 19:14:10.72	184.73	5.91	
2025-01-15 19:14:11.94	184.79	6.00	
2025-01-15 19:14:13.16	184.85	6.10	
2025-01-15 19:14:14.38	184.91	6.19	
2025-01-15 19:14:15.60	184.98	6.28	
2025-01-15 19:14:16.81	185.04	6.37	
2025-01-15 19:14:18.03	185.10	6.47	
2025-01-15 19:14:19.25	185.17	6.56	
2025-01-15 19:14:20.47	185.23	6.65	
2025-01-15 19:14:21.69	185.29	6.75	
2025-01-15 19:14:22.91	185.36	6.84	
2025-01-15 19:14:24.13	185.42	6.94	
2025-01-15 19:14:25.35	185.49	7.03	
2025-01-15 19:14:26.56	185.56	7.13	
2025-01-15 19:14:27.78	185.62	7.23	
2025-01-15 19:14:29.00	185.69	7.32	
2025-01-15 19:14:30.22	185.76	7.42	
2025-01-15 19:14:31.44	185.83	7.52	
2025-01-15 19:14:32.66	185.89	7.61	
2025-01-15 19:14:33.88	185.96	7.71	
2025-01-15 19:14:35.09	186.03	7.81	
2025-01-15 19:14:36.31	186.10	7.91	
2025-01-15 19:14:37.53	186.17	8.01	
2025-01-15 19:14:38.75	186.24	8.11	
2025-01-15 19:14:39.97	186.32	8.21	
2025-01-15 19:14:41.19	186.39	8.31	
2025-01-15 19:14:42.41	186.46	8.41	
2025-01-15 19:14:43.62	186.53	8.51	
2025-01-15 19:14:44.84	186.61	8.61	
2025-01-15 19:14:46.06	186.68	8.71	
2025-01-15 19:14:47.28	186.76	8.82	
2025-01-15 19:14:48.50	186.83	8.92	
2025-01-15 19:14:49.72	186.91	9.02	
2025-01-15 19:14:50.94	186.98	9.13	
2025-01-15 19:14:52.16	187.06	9.23	
2025-01-15 19:14:53.37	187.14	9.34	
2025-01-15 19:14:54.59	187.21	9.44	
2025-01-15 19:14:55.81	187.29	9.55	
2025-01-15 19:14:57.03	187.37	9.65	
2025-01-15 19:14:58.25	187.45	9.76	
2025-01-15 19:14:59.47	187.53	9.87	
2025-01-15 19:15:00.69	187.61	9.98	
2025-01-15 19:15:01.90	187.69	10.08	
2025-01-15 19:15:03.12	187.78	10.19	
2025-01-15 19:15:04.34	187.86	10.30	
2025-01-15 19:15:05.56	187.94	10.41	
2025-01-15 19:15:06.78	188.03	10.52	
2025-01-15 19:15:08.00	188.11	10.63	
2025-01-15 19:15:09.22	188.20	10.74	
2025-01-15 19:15:10.44	188.28	10.85	
2025-01-15 19:15:11.65	188.37	10.96	
2025-01-15 19:15:12.87	188.46	11.08	
2025-01-15 19:15:14.09	188.54	11.19	
2025-01-15 19:15:15.31	188.63	11.30	
2025-01-15 19:15:16.53	188.72	11.42	
2025-01-15 19:15:17.75	188.81	11.53	
2025-01-15 19:15:18.97	188.90	11.65	
2025-01-15 19:15:20.19	189.00	11.76	
2025-01-15 19:15:21.41	189.09	11.88	
2025-01-15 19:15:22.63	189.18	12.00	
2025-01-15 19:15:23.85	189.28	12.11	
2025-01-15 19:15:25.06	189.37	12.23	
2025-01-15 19:15:26.28	189.46	12.35	
2025-01-15 19:15:27.50	189.56	12.47	
2025-01-15 19:15:28.72	189.66	12.59	
2025-01-15 19:15:29.94	189.76	12.71	
2025-01-15 19:15:31.16	189.86	12.83	
2025-01-15 19:15:32.38	189.95	12.95	
2025-01-15 19:15:33.59	190.05	13.07	
2025-01-15 19:15:34.81	190.16	13.20	
2025-01-15 19:15:36.03	190.26	13.32	
2025-01-15 19:15:37.25	190.36	13.44	
2025-01-15 19:15:38.47	190.46	13.57	
2025-01-15 19:15:39.69	190.57	13.69	
2025-01-15 19:15:40.91	190.68	13.82	
2025-01-15 19:15:42.12	190.78	13.95	
2025-01-15 19:15:43.34	190.89	14.07	
2025-01-15 19:15:44.56	191.00	14.20	
2025-01-15 19:15:45.78	191.11	14.33	
2025-01-15 19:15:47.00	191.22	14.46	
2025-01-15 19:15:48.22	191.33	14.59	
2025-01-15 19:15:49.44	191.44	14.72	
2025-01-15 19:15:50.66	191.55	14.85	
2025-01-15 19:15:51.87	191.67	14.98	
2025-01-15 19:15:53.09	191.78	15.11	
2025-01-15 19:15:54.31	191.90	15.25	
2025-01-15 19:15:55.53	192.02	15.38	
2025-01-15 19:15:56.75	192.14	15.52	
2025-01-15 19:15:57.97	192.26	15.65	
2025-01-15 19:15:59.19	192.38	15.79	
2025-01-15 19:16:00.40	192.50	15.92	
2025-01-15 19:16:01.62	192.62	16.06	
2025-01-15 19:16:02.84	192.75	16.20	
2025-01-15 19:16:04.06	192.87	16.34	
2025-01-15 19:16:05.28	193.00	16.48	
2025-01-15 19:16:06.50	193.13	16.62	
2025-01-15 19:16:07.72	193.26	16.76	
2025-01-15 19:16:08.94	193.39	16.90	
2025-01-15 19:16:10.15	193.52	17.04	
2025-01-15 19:16:11.37	193.65	17.19	
2025-01-15 19:16:12.59	193.78	17.33	
2025-01-15 19:16:13.81	193.92	17.48	
2025-01-15 19:16:15.03	194.06	17.62	
2025-01-15 19:16:16.25	194.20	17.77	
2025-01-15 19:16:17.47	194.33	17.92	
2025-01-15 19:16:18.68	194.47	18.07	
2025-01-15 19:16:19.90	194.62	18.22	
2025-01-15 19:16:21.12	194.76	18.37	
2025-01-15 19:16:22.34	194.91	18.52	
2025-01-15 19:16:23.56	195.05	18.67	
2025-01-15 19:16:24.78	195.20	18.82	
2025-01-15 19:16:26.00	195.35	18.97	
2025-01-15 19:16:27.21	195.50	19.13	
2025-01-15 19:16:28.43	195.66	19.28	
2025-01-15 19:16:29.65	195.81	19.44	
2025-01-15 19:16:30.87	195.97	19.60	
2025-01-15 19:16:32.09	196.12	19.76	
2025-01-15 19:16:33.31	196.28	19.91	
2025-01-15 19:16:34.53	196.45	20.07	
2025-01-15 19:16:35.75	196.61	20.23	
2025-01-15 19:16:36.96	196.77	20.40	
2025-01-15 19:16:38.18	196.94	20.56	
2025-01-15 19:16:39.40	197.11	20.72	
2025-01-15 19:16:40.62	197.28	20.89	
2025-01-15 19:16:41.84	197.45	21.05	
2025-01-15 19:16:43.06	197.62	21.22	
2025-01-15 19:16:44.28	197.80	21.39	
2025-01-15 19:16:45.49	197.98	21.55	
2025-01-15 19:16:46.71	198.16	21.72	
2025-01-15 19:16:47.93	198.34	21.89	
2025-01-15 19:16:49.15	198.52	22.06	
2025-01-15 19:16:50.37	198.71	22.23	
2025-01-15 19:16:51.59	198.90	22.41	
2025-01-15 19:16:52.81	199.09	22.58	
2025-01-15 19:16:54.03	199.28	22.76	
2025-01-15 19:16:55.24	199.47	22.93	
2025-01-15 19:16:56.46	199.67	23.11	
2025-01-15 19:16:57.68	199.87	23.29	
2025-01-15 19:16:58.90	200.07	23.47	
2025-01-15 19:17:00.12	200.27	23.65	
2025-01-15 19:17:01.34	200.48	23.83	
2025-01-15 19:17:02.56	200.69	24.01	
2025-01-15 19:17:03.77	200.90	24.19	
2025-01-15 19:17:04.99	201.11	24.37	
2025-01-15 19:17:06.21	201.33	24.56	
2025-01-15 19:17:07.43	201.55	24.75	
2025-01-15 19:17:08.65	201.77	24.93	
2025-01-15 19:17:09.87	201.99	25.12	
2025-01-15 19:17:11.09	202.22	25.31	
2025-01-15 19:17:12.31	202.45	25.50	
2025-01-15 19:17:13.52	202.68	25.69	
2025-01-15 19:17:14.74	202.92	25.88	
2025-01-15 19:17:15.96	203.15	26.08	
2025-01-15 19:17:17.18	203.40	26.27	
2025-01-15 19:17:18.40	203.64	26.46	
2025-01-15 19:17:19.62	203.89	26.66	
2025-01-15 19:17:20.84	204.14	26.86	
2025-01-15 19:17:22.05	204.39	27.05	
2025-01-15 19:17:23.27	204.65	27.25	
2025-01-15 19:17:24.49	204.91	27.45	
2025-01-15 19:17:25.71	205.17	27.65	
2025-01-15 19:17:26.93	205.44	27.86	
2025-01-15 19:17:28.15	205.71	28.06	
2025-01-15 19:17:29.37	205.98	28.26	
2025-01-15 19:17:30.58	206.26	28.47	
2025-01-15 19:17:31.80	206.54	28.67	
2025-01-15 19:17:33.02	206.82	28.88	
2025-01-15 19:17:34.24	207.11	29.09	
2025-01-15 19:17:35.46	207.40	29.29	
2025-01-15 19:17:36.68	207.70	29.50	
2025-01-15 19:17:37.90	208.00	29.71	
2025-01-15 19:17:39.12	208.30	29.92	
2025-01-15 19:17:40.33	208.61	30.13	
2025-01-15 19:17:41.55	208.92	30.35	
2025-01-15 19:17:42.77	209.24	30.56	
2025-01-15 19:17:43.99	209.56	30.77	
2025-01-15 19:17:45.21	209.88	30.99	
2025-01-15 19:17:46.43	210.21	31.21	
2025-01-15 19:17:47.65	210.55	31.42	
2025-01-15 19:17:48.86	210.88	31.64	
2025-01-15 19:17:50.08	211.22	31.85	
2025-01-15 19:17:51.30	211.57	32.07	
2025-01-15 19:17:52.52	211.92	32.29	
2025-01-15 19:17:53.74	212.28	32.51	
2025-01-15 19:17:54.96	212.64	32.73	
2025-01-15 19:17:56.18	213.01	32.95	
2025-01-15 19:17:57.40	213.38	33.17	
2025-01-15 19:17:58.61	213.76	33.39	
2025-01-15 19:17:59.83	214.14	33.61	
2025-01-15 19:18:01.05	214.53	33.83	
2025-01-15 19:18:02.27	214.92	34.06	
2025-01-15 19:18:03.49	215.32	34.28	
2025-01-15 19:18:04.71	215.72	34.50	
2025-01-15 19:18:05.93	216.13	34.72	
2025-01-15 19:18:07.14	216.55	34.94	
2025-01-15 19:18:08.36	216.97	35.17	
2025-01-15 19:18:09.58	217.39	35.39	
2025-01-15 19:18:10.80	217.83	35.61	
2025-01-15 19:18:12.02	218.26	35.83	
2025-01-15 19:18:13.24	218.71	36.06	
2025-01-15 19:18:14.46	219.16	36.28	
2025-01-15 19:18:15.67	219.61	36.50	
2025-01-15 19:18:16.89	220.08	36.72	
2025-01-15 19:18:18.11	220.55	36.94	
2025-01-15 19:18:19.33	221.02	37.16	
2025-01-15 19:18:20.55	221.51	37.38	
2025-01-15 19:18:21.77	222.00	37.60	
2025-01-15 19:18:22.99	222.49	37.82	
2025-01-15 19:18:24.21	223.00	38.03	
2025-01-15 19:18:25.42	223.50	38.25	
2025-01-15 19:18:26.64	224.02	38.46	
2025-01-15 19:18:27.86	224.54	38.68	
2025-01-15 19:18:29.08	225.07	38.89	
2025-01-15 19:18:30.30	225.61	39.10	
2025-01-15 19:18:31.52	226.15	39.31	
2025-01-15 19:18:32.74	226.70	39.52	
2025-01-15 19:18:33.95	227.26	39.73	
2025-01-15 19:18:35.17	227.82	39.93	
2025-01-15 19:18:36.39	228.40	40.14	
2025-01-15 19:18:37.61	228.98	40.34	
2025-01-15 19:18:38.83	229.56	40.54	
2025-01-15 19:18:40.05	230.16	40.73	
2025-01-15 19:18:41.27	230.76	40.93	
2025-01-15 19:18:42.49	231.37	41.12	
2025-01-15 19:18:43.70	231.98	41.31	
2025-01-15 19:18:44.92	232.60	41.50	
2025-01-15 19:18:46.14	233.24	41.68	
2025-01-15 19:18:47.36	233.87	41.87	
2025-01-15 19:18:48.58	234.52	42.04	
2025-01-15 19:18:49.80	235.17	42.22	
2025-01-15 19:18:51.02	235.83	42.39	
2025-01-15 19:18:52.23	236.49	42.56	
2025-01-15 19:18:53.45	237.17	42.73	
2025-01-15 19:18:54.67	237.85	42.89	
2025-01-15 19:18:55.89	238.54	43.05	
2025-01-15 19:18:57.11	239.23	43.20	
2025-01-15 19:18:58.33	239.93	43.36	
2025-01-15 19:18:59.55	240.64	43.50	
2025-01-15 19:19:00.76	241.35	43.64	
2025-01-15 19:19:01.98	242.07	43.78	
2025-01-15 19:19:03.20	242.79	43.92	
2025-01-15 19:19:04.42	243.53	44.05	
2025-01-15 19:19:05.64	244.26	44.17	
2025-01-15 19:19:06.86	245.01	44.29	
2025-01-15 19:19:08.08	245.76	44.41	
2025-01-15 19:19:09.30	246.51	44.52	
2025-01-15 19:19:10.51	247.27	44.62	
2025-01-15 19:19:11.73	248.03	44.72	
2025-01-15 19:19:12.95	248.80	44.82	
2025-01-15 19:19:14.17	249.58	44.90	
2025-01-15 19:19:15.39	250.35	44.99	
2025-01-15 19:19:16.61	251.14	45.07	
2025-01-15 19:19:17.83	251.92	45.14	
2025-01-15 19:19:19.04	252.70	45.21	
2025-01-15 19:19:20.26	253.50	45.27	
2025-01-15 19:19:21.48	254.29	45.32	
2025-01-15 19:19:22.70	255.09	45.37	
2025-01-15 19:19:23.92	255.89	45.42	
2025-01-15 19:19:25.14	256.69	45.45	
2025-01-15 19:19:26.36	257.50	45.49	
2025-01-15 19:19:27.58	258.30	45.51	
2025-01-15 19:19:28.79	259.10	45.53	
2025-01-15 19:19:30.01	259.91	45.55	
2025-01-15 19:19:31.23	260.72	45.55	
2025-01-15 19:19:32.45	261.53	45.55	
2025-01-15 19:19:33.67	262.34	45.55	
2025-01-15 19:19:34.89	263.15	45.54	
2025-01-15 19:19:36.11	263.95	45.52	
2025-01-15 19:19:37.32	264.75	45.50	
2025-01-15 19:19:38.54	265.56	45.47	
2025-01-15 19:19:39.76	266.36	45.44	
2025-01-15 19:19:40.98	267.16	45.40	
2025-01-15 19:19:42.20	267.96	45.35	
2025-01-15 19:19:43.42	268.76	45.30	
2025-01-15 19:19:44.64	269.55	45.24	
2025-01-15 19:19:45.86	270.34	45.17	
2025-01-15 19:19:47.07	271.12	45.10	
2025-01-15 19:19:48.29	271.90	45.03	
2025-01-15 19:19:49.51	272.68	44.95	
2025-01-15 19:19:50.73	273.46	44.86	
2025-01-15 19:19:51.95	274.23	44.77	
2025-01-15 19:19:53.17	275.00	44.67	
2025-01-15 19:19:54.39	275.76	44.57	
2025-01-15 19:19:55.60	276.51	44.46	
2025-01-15 19:19:56.82	277.26	44.35	
2025-01-15 19:19:58.04	278.01	44.23	
2025-01-15 19:19:59.26	278.75	44.11	
2025-01-15 19:20:00.48	279.48	43.98	
2025-01-15 19:20:01.70	280.21	43.85	
2025-01-15 19:20:02.92	280.93	43.72	
2025-01-15 19:20:04.13	281.64	43.58	
2025-01-15 19:20:05.35	282.35	43.43	
2025-01-15 19:20:06.57	283.05	43.29	
2025-01-15 19:20:07.79	283.75	43.13	
2025-01-15 19:20:09.01	284.44	42.98	
2025-01-15 19:20:10.23	285.12	42.82	
2025-01-15 19:20:11.45	285.80	42.65	
2025-01-15 19:20:12.67	286.47	42.49	
2025-01-15 19:20:13.88	287.12	42.32	
2025-01-15 19:20:15.10	287.78	42.14	
2025-01-15 19:20:16.32	288.42	41.97	
2025-01-15 19:20:17.54	289.06	41.79	
2025-01-15 19:20:18.76	289.70	41.60	
2025-01-15 19:20:19.98	290.32	41.42	
2025-01-15 19:20:21.20	290.94	41.23	
2025-01-15 19:20:22.41	291.55	41.04	
2025-01-15 19:20:23.63	292.15	40.85	
2025-01-15 19:20:24.85	292.75	40.65	
2025-01-15 19:20:26.09	293.35	40.45	
2025-01-15 19:20:27.30	293.93	40.25	
2025-01-15 19:20:28.52	294.50	40.05	
2025-01-15 19:20:29.74	295.07	39.85	
2025-01-15 19:20:30.96	295.63	39.64	
2025-01-15 19:20:32.18	296.18	39.44	
2025-01-15 19:20:33.40	296.73	39.23	
2025-01-15 19:20:34.62	297.27	39.02	
2025-01-15 19:20:35.84	297.80	38.81	
2025-01-15 19:20:37.05	298.32	38.60	
2025-01-15 19:20:38.27	298.84	38.38	
2025-01-15 19:20:39.49	299.35	38.17	
2025-01-15 19:20:40.71	299.86	37.95	
2025-01-15 19:20:41.93	300.35	37.74	
2025-01-15 19:20:43.15	300.85	37.52	
2025-01-15 19:20:44.37	301.33	37.30	
2025-01-15 19:20:45.58	301.80	37.08	
2025-01-15 19:20:46.80	302.28	36.86	
2025-01-15 19:20:48.02	302.74	36.64	
2025-01-15 19:20:49.24	303.20	36.42	
2025-01-15 19:20:50.46	303.65	36.20	
2025-01-15 19:20:51.68	304.10	35.98	
2025-01-15 19:20:52.90	304.54	35.76	
2025-01-15 19:20:54.12	304.98	35.54	
2025-01-15 19:20:55.33	305.40	35.32	
2025-01-15 19:20:56.55	305.82	35.10	
2025-01-15 19:20:57.77	306.24	34.88	
2025-01-15 19:20:58.99	306.65	34.66	
2025-01-15 19:21:00.21	307.06	34.43	
2025-01-15 19:21:01.43	307.46	34.21	
2025-01-15 19:21:02.65	307.85	33.99	
2025-01-15 19:21:03.86	308.24	33.77	
2025-01-15 19:21:05.08	308.62	33.55	
2025-01-15 19:21:06.30	309.00	33.33	
2025-01-15 19:21:07.52	309.38	33.11	
2025-01-15 19:21:08.74	309.75	32.89	
2025-01-15 19:21:09.96	310.11	32.68	
2025-01-15 19:21:11.18	310.47	32.46	
2025-01-15 19:21:12.39	310.82	32.24	
2025-01-15 19:21:13.61	311.17	32.02	
2025-01-15 19:21:14.83	311.51	31.81	
2025-01-15 19:21:16.05	311.85	31.59	
2025-01-15 19:21:17.27	312.19	31.38	
2025-01-15 19:21:18.49	312.52	31.16	
2025-01-15 19:21:19.71	312.85	30.95	
2025-01-15 19:21:20.93	313.17	30.73	
2025-01-15 19:21:22.14	313.48	30.52	
2025-01-15 19:21:23.36	313.80	30.31	
2025-01-15 19:21:24.58	314.11	30.10	
2025-01-15 19:21:25.80	314.41	29.89	
2025-01-15 19:21:27.02	314.71	29.68	
2025-01-15 19:21:28.24	315.01	29.47	
2025-01-15 19:21:29.46	315.30	29.27	
2025-01-15 19:21:30.67	315.59	29.06	
2025-01-15 19:21:31.89	315.88	28.85	
2025-01-15 19:21:33.11	316.16	28.65	
2025-01-15 19:21:34.33	316.44	28.45	
2025-01-15 19:21:35.55	316.71	28.24	
2025-01-15 19:21:36.77	316.99	28.04	
2025-01-15 19:21:37.99	317.25	27.84	
2025-01-15 19:21:39.21	317.52	27.64	
2025-01-15 19:21:40.42	317.78	27.44	
2025-01-15 19:21:41.64	318.04	27.24	
2025-01-15 19:21:42.86	318.29	27.05	
2025-01-15 19:21:44.08	318.54	26.85	
2025-01-15 19:21:45.30	318.79	26.65	
2025-01-15 19:21:46.52	319.04	26.46	
2025-01-15 19:21:47.74	319.28	26.27	
2025-01-15 19:21:48.95	319.52	26.07	
2025-01-15 19:21:50.17	319.75	25.88	
2025-01-15 19:21:51.39	319.99	25.69	
2025-01-15 19:21:52.61	320.22	25.50	
2025-01-15 19:21:53.83	320.45	25.31	
2025-01-15 19:21:55.05	320.67	25.13	
2025-01-15 19:21:56.27	320.90	24.94	
2025-01-15 19:21:57.48	321.11	24.76	
2025-01-15 19:21:58.70	321.33	24.57	
2025-01-15 19:21:59.92	321.55	24.39	
2025-01-15 19:22:01.14	321.76	24.21	
2025-01-15 19:22:02.36	321.97	24.02	
2025-01-15 19:22:03.58	322.18	23.84	
2025-01-15 19:22:04.80	322.38	23.66	
2025-01-15 19:22:06.02	322.58	23.49	
2025-01-15 19:22:07.23	322.78	23.31	
2025-01-15 19:22:08.45	322.98	23.13	
2025-01-15 19:22:09.67	323.18	22.96	
2025-01-15 19:22:10.89	323.37	22.78	
2025-01-15 19:22:12.11	323.56	22.61	
2025-01-15 19:22:13.33	323.75	22.44	
2025-01-15 19:22:14.55	323.94	22.27	
2025-01-15 19:22:15.76	324.12	22.10	
2025-01-15 19:22:16.98	324.30	21.93	
2025-01-15 19:22:18.20	324.49	21.76	
2025-01-15 19:22:19.42	324.66	21.59	
2025-01-15 19:22:20.64	324.84	21.42	
2025-01-15 19:22:21.86	325.02	21.26	
2025-01-15 19:22:23.08	325.19	21.09	
2025-01-15 19:22:24.30	325.36	20.93	
2025-01-15 19:22:25.51	325.53	20.77	
2025-01-15 19:22:26.73	325.70	20.60	
2025-01-15 19:22:27.95	325.86	20.44	
2025-01-15 19:22:29.17	326.03	20.28	
2025-01-15 19:22:30.39	326.19	20.12	
2025-01-15 19:22:31.61	326.35	19.96	
2025-01-15 19:22:32.83	326.51	19.81	
2025-01-15 19:22:34.04	326.67	19.65	
2025-01-15 19:22:35.26	326.82	19.49	
2025-01-15 19:22:36.48	326.98	19.34	
2025-01-15 19:22:37.70	327.13	19.19	
2025-01-15 19:22:38.92	327.28	19.03	
2025-01-15 19:22:40.14	327.43	18.88	
2025-01-15 19:22:41.36	327.58	18.73	
2025-01-15 19:22:42.58	327.72	18.58	
2025-01-15 19:22:43.79	327.87	18.43	
2025-01-15 19:22:45.01	328.01	18.28	
2025-01-15 19:22:46.23	328.15	18.13	
2025-01-15 19:22:47.45	328.29	17.98	
2025-01-15 19:22:48.67	328.43	17.84	
2025-01-15 19:22:49.89	328.57	17.69	
2025-01-15 19:22:51.11	328.71	17.55	
2025-01-15 19:22:52.32	328.84	17.40	
2025-01-15 19:22:53.54	328.98	17.26	
2025-01-15 19:22:54.76	329.11	17.12	
2025-01-15 19:22:55.98	329.24	16.98	
2025-01-15 19:22:57.20	329.37	16.83	
2025-01-15 19:22:58.42	329.50	16.69	
2025-01-15 19:22:59.64	329.63	16.55	
2025-01-15 19:23:00.85	329.75	16.42	
2025-01-15 19:23:02.07	329.88	16.28	
2025-01-15 19:23:03.29	330.00	16.14	
2025-01-15 19:23:04.51	330.13	16.00	
2025-01-15 19:23:05.73	330.25	15.87	
2025-01-15 19:23:06.95	330.37	15.73	
2025-01-15 19:23:08.17	330.49	15.60	
2025-01-15 19:23:09.39	330.61	15.47	
2025-01-15 19:23:10.60	330.72	15.33	
2025-01-15 19:23:11.82	330.84	15.20	
2025-01-15 19:23:13.04	330.96	15.07	
2025-01-15 19:23:14.26	331.07	14.94	
2025-01-15 19:23:15.48	331.18	14.81	
2025-01-15 19:23:16.70	331.30	14.68	
2025-01-15 19:23:17.92	331.41	14.55	
2025-01-15 19:23:19.13	331.52	14.42	
2025-01-15 19:23:20.35	331.63	14.30	
2025-01-15 19:23:21.57	331.74	14.17	
2025-01-15 19:23:22.79	331.84	14.04	
2025-01-15 19:23:24.01	331.95	13.92	
2025-01-15 19:23:25.23	332.06	13.79	
2025-01-15 19:23:26.45	332.16	13.67	
2025-01-15 19:23:27.67	332.27	13.54	
2025-01-15 19:23:28.88	332.37	13.42	
2025-01-15 19:23:30.10	332.47	13.30	
2025-01-15 19:23:31.32	332.57	13.18	
2025-01-15 19:23:32.54	332.67	13.06	
2025-01-15 19:23:33.76	332.77	12.93	
2025-01-15 19:23:34.98	332.87	12.81	
2025-01-15 19:23:36.20	332.97	12.70	
2025-01-15 19:23:37.41	333.07	12.58	
2025-01-15 19:23:38.63	333.16	12.46	
2025-01-15 19:23:39.85	333.26	12.34	
2025-01-15 19:23:41.07	333.35	12.22	
2025-01-15 19:23:42.29	333.45	12.11	
2025-01-15 19:23:43.51	333.54	11.99	
2025-01-15 19:23:44.73	333.63	11.88	
2025-01-15 19:23:45.94	333.73	11.76	
2025-01-15 19:23:47.16	333.82	11.65	
2025-01-15 19:23:48.38	333.91	11.53	
2025-01-15 19:23:49.60	334.00	11.42	
2025-01-15 19:23:50.82	334.09	11.31	
2025-01-15 19:23:52.04	334.18	11.19	
2025-01-15 19:23:53.26	334.26	11.08	
2025-01-15 19:23:54.48	334.35	10.97	
2025-01-15 19:23:55.69	334.44	10.86	
2025-01-15 19:23:56.91	334.52	10.75	
2025-01-15 19:23:58.13	334.61	10.64	
2025-01-15 19:23:59.35	334.69	10.53	
2025-01-15 19:24:00.57	334.78	10.42	
2025-01-15 19:24:01.79	334.86	10.31	
2025-01-15 19:24:03.01	334.94	10.21	
2025-01-15 19:24:04.22	335.02	10.10	
2025-01-15 19:24:05.44	335.11	9.99	
2025-01-15 19:24:06.66	335.19	9.89	
2025-01-15 19:24:07.88	335.27	9.78	
2025-01-15 19:24:09.10	335.35	9.67	
2025-01-15 19:24:10.32	335.43	9.57	
2025-01-15 19:24:11.54	335.50	9.46	
2025-01-15 19:24:12.76	335.58	9.36	
2025-01-15 19:24:13.97	335.66	9.26	
2025-01-15 19:24:15.19	335.74	9.15	
2025-01-15 19:24:16.41	335.81	9.05	
2025-01-15 19:24:17.63	335.89	8.95	
2025-01-15 19:24:18.85	335.96	8.85	
2025-01-15 19:24:20.07	336.04	8.75	
2025-01-15 19:24:21.29	336.11	8.64	
2025-01-15 19:24:22.50	336.19	8.54	
2025-01-15 19:24:23.72	336.26	8.44	
2025-01-15 19:24:24.94	336.33	8.34	
2025-01-15 19:24:26.16	336.40	8.24	
2025-01-15 19:24:27.38	336.48	8.15	
2025-01-15 19:24:28.60	336.55	8.05	
2025-01-15 19:24:29.82	336.62	7.95	
2025-01-15 19:24:31.04	336.69	7.85	
2025-01-15 19:24:32.25	336.76	7.75	
2025-01-15 19:24:33.47	336.83	7.66	
2025-01-15 19:24:34.69	336.90	7.56	
2025-01-15 19:24:35.91	336.96	7.46	
2025-01-15 19:24:37.13	337.03	7.37	
2025-01-15 19:24:38.35	337.10	7.27	
2025-01-15 19:24:39.57	337.17	7.18	
2025-01-15 19:24:40.78	337.23	7.08	
2025-01-15 19:24:42.00	337.30	6.99	
2025-01-15 19:24:43.22	337.36	6.89	
2025-01-15 19:24:44.44	337.43	6.80	
2025-01-15 19:24:45.66	337.50	6.71	
2025-01-15 19:24:46.88	337.56	6.61	
2025-01-15 19:24:48.10	337.62	6.52	
2025-01-15 19:24:49.31	337.69	6.43	
2025-01-15 19:24:50.53	337.75	6.34	
2025-01-15 19:24:51.75	337.81	6.24	
2025-01-15 19:24:52.97	337.88	6.15	
2025-01-15 19:24:54.19	337.94	6.06	
2025-01-15 19:24:55.41	338.00	5.97	
2025-01-15 19:24:56.63	338.06	5.88	
2025-01-15 19:24:57.85	338.12	5.79	
2025-01-15 19:24:59.06	338.18	5.70	
2025-01-15 19:25:00.28	338.24	5.61	
2025-01-15 19:25:01.52	338.30	5.52	
2025-01-15 19:25:02.74	338.36	5.43	
2025-01-15 19:25:03.95	338.42	5.34	
2025-01-15 19:25:05.17	338.48	5.26	
2025-01-15 19:25:06.39	338.54	5.17	
2025-01-15 19:25:07.61	338.60	5.08	
2025-01-15 19:25:08.83	338.66	4.99	
2025-01-15 19:25:10.05	338.71	4.91	
2025-01-15 19:25:11.27	338.77	4.82	
2025-01-15 19:25:12.48	338.83	4.73	
2025-01-15 19:25:13.70	338.88	4.65	
2025-01-15 19:25:14.92	338.94	4.56	
2025-01-15 19:25:16.14	339.00	4.48	
2025-01-15 19:25:17.36	339.05	4.39	
2025-01-15 19:25:18.58	339.11	4.31	
2025-01-15 19:25:19.80	339.16	4.22	
2025-01-15 19:25:21.02	339.22	4.14	
2025-01-15 19:25:22.23	339.27	4.05	

#Closed at: 2025-01-15 19:25:23