passes_logs/2025/01/15/SPB_Silybum_02/SPB_Silybum_02__20250115_235407_SUOMI_NPP_rec.log

#Pass ID: 20250115_235407_SUOMI NPP
#Satellite: SUOMI NPP
#Configuration: NPP
#Start time: 2025-01-15 23:54:05

#Version: 2.0.20230423
#Station: SPB_Silybum_02
#Location: 30.233357 lon 59.946436 lat
#TLE: 1 37849U 11061A   25015.13132341  .00000162  00000+0  97654-4 0  9994
#TLE: 2 37849  98.7446 316.1182 0001675  40.9055 319.2247 14.19538225684933

#Time	Az	El	Level	Level2	SNR	BER	Gain	Gain2
2025-01-15 23:54:07.64	19.39	4.04	
2025-01-15 23:54:09.06	19.42	4.14	
2025-01-15 23:54:10.48	19.45	4.23	
2025-01-15 23:54:11.90	19.49	4.33	
2025-01-15 23:54:13.33	19.52	4.43	
2025-01-15 23:54:14.75	19.55	4.53	
2025-01-15 23:54:16.17	19.59	4.63	
2025-01-15 23:54:17.59	19.62	4.72	
2025-01-15 23:54:19.01	19.65	4.82	
2025-01-15 23:54:20.43	19.69	4.92	
2025-01-15 23:54:21.85	19.72	5.02	
2025-01-15 23:54:23.27	19.76	5.12	
2025-01-15 23:54:24.69	19.79	5.22	
2025-01-15 23:54:26.11	19.82	5.32	
2025-01-15 23:54:27.53	19.86	5.42	
2025-01-15 23:54:28.96	19.89	5.53	
2025-01-15 23:54:30.38	19.93	5.63	
2025-01-15 23:54:31.80	19.97	5.73	
2025-01-15 23:54:33.22	20.00	5.83	
2025-01-15 23:54:34.64	20.04	5.94	
2025-01-15 23:54:36.06	20.07	6.04	
2025-01-15 23:54:37.48	20.11	6.14	
2025-01-15 23:54:38.90	20.14	6.25	
2025-01-15 23:54:40.32	20.18	6.35	
2025-01-15 23:54:41.74	20.22	6.46	
2025-01-15 23:54:43.16	20.26	6.56	
2025-01-15 23:54:44.59	20.29	6.67	
2025-01-15 23:54:46.01	20.33	6.78	
2025-01-15 23:54:47.43	20.37	6.88	
2025-01-15 23:54:48.85	20.41	6.99	
2025-01-15 23:54:50.27	20.44	7.10	
2025-01-15 23:54:51.69	20.48	7.21	
2025-01-15 23:54:53.11	20.52	7.31	
2025-01-15 23:54:54.53	20.56	7.42	
2025-01-15 23:54:55.95	20.60	7.53	
2025-01-15 23:54:57.37	20.64	7.64	
2025-01-15 23:54:58.79	20.68	7.75	
2025-01-15 23:55:00.22	20.72	7.86	
2025-01-15 23:55:01.64	20.76	7.98	
2025-01-15 23:55:03.06	20.80	8.09	
2025-01-15 23:55:04.48	20.84	8.20	
2025-01-15 23:55:05.90	20.88	8.31	
2025-01-15 23:55:07.32	20.92	8.43	
2025-01-15 23:55:08.74	20.96	8.54	
2025-01-15 23:55:10.16	21.01	8.65	
2025-01-15 23:55:11.58	21.05	8.77	
2025-01-15 23:55:13.00	21.09	8.88	
2025-01-15 23:55:14.42	21.13	9.00	
2025-01-15 23:55:15.85	21.18	9.12	
2025-01-15 23:55:17.27	21.22	9.23	
2025-01-15 23:55:18.69	21.26	9.35	
2025-01-15 23:55:20.11	21.31	9.47	
2025-01-15 23:55:21.53	21.35	9.59	
2025-01-15 23:55:22.95	21.39	9.71	
2025-01-15 23:55:24.37	21.44	9.83	
2025-01-15 23:55:25.79	21.48	9.95	
2025-01-15 23:55:27.21	21.53	10.07	
2025-01-15 23:55:28.63	21.57	10.19	
2025-01-15 23:55:30.05	21.62	10.31	
2025-01-15 23:55:31.48	21.67	10.44	
2025-01-15 23:55:32.90	21.71	10.56	
2025-01-15 23:55:34.32	21.76	10.68	
2025-01-15 23:55:35.74	21.81	10.81	
2025-01-15 23:55:37.16	21.86	10.93	
2025-01-15 23:55:38.58	21.90	11.06	
2025-01-15 23:55:40.00	21.95	11.19	
2025-01-15 23:55:41.42	22.00	11.31	
2025-01-15 23:55:42.84	22.05	11.44	
2025-01-15 23:55:44.26	22.10	11.57	
2025-01-15 23:55:45.68	22.15	11.70	
2025-01-15 23:55:47.11	22.20	11.83	
2025-01-15 23:55:48.53	22.25	11.96	
2025-01-15 23:55:49.95	22.30	12.09	
2025-01-15 23:55:51.37	22.35	12.22	
2025-01-15 23:55:52.79	22.41	12.35	
2025-01-15 23:55:54.21	22.46	12.49	
2025-01-15 23:55:55.63	22.51	12.62	
2025-01-15 23:55:57.05	22.56	12.76	
2025-01-15 23:55:58.47	22.62	12.89	
2025-01-15 23:55:59.89	22.67	13.03	
2025-01-15 23:56:01.31	22.73	13.16	
2025-01-15 23:56:02.74	22.78	13.30	
2025-01-15 23:56:04.16	22.84	13.44	
2025-01-15 23:56:05.58	22.89	13.58	
2025-01-15 23:56:07.00	22.95	13.72	
2025-01-15 23:56:08.42	23.01	13.86	
2025-01-15 23:56:09.84	23.06	14.00	
2025-01-15 23:56:11.26	23.12	14.14	
2025-01-15 23:56:12.68	23.18	14.29	
2025-01-15 23:56:14.10	23.24	14.43	
2025-01-15 23:56:15.52	23.30	14.58	
2025-01-15 23:56:16.94	23.36	14.72	
2025-01-15 23:56:18.36	23.42	14.87	
2025-01-15 23:56:19.79	23.48	15.02	
2025-01-15 23:56:21.21	23.54	15.16	
2025-01-15 23:56:22.63	23.60	15.31	
2025-01-15 23:56:24.05	23.66	15.46	
2025-01-15 23:56:25.47	23.73	15.61	
2025-01-15 23:56:26.89	23.79	15.77	
2025-01-15 23:56:28.31	23.86	15.92	
2025-01-15 23:56:29.73	23.92	16.07	
2025-01-15 23:56:31.15	23.99	16.23	
2025-01-15 23:56:32.57	24.05	16.38	
2025-01-15 23:56:33.99	24.12	16.54	
2025-01-15 23:56:35.42	24.19	16.70	
2025-01-15 23:56:36.84	24.25	16.86	
2025-01-15 23:56:38.26	24.32	17.02	
2025-01-15 23:56:39.68	24.39	17.18	
2025-01-15 23:56:41.10	24.46	17.34	
2025-01-15 23:56:42.52	24.53	17.50	
2025-01-15 23:56:43.94	24.60	17.66	
2025-01-15 23:56:45.36	24.68	17.83	
2025-01-15 23:56:46.78	24.75	17.99	
2025-01-15 23:56:48.20	24.82	18.16	
2025-01-15 23:56:49.62	24.90	18.33	
2025-01-15 23:56:51.05	24.97	18.50	
2025-01-15 23:56:52.47	25.05	18.67	
2025-01-15 23:56:53.89	25.13	18.84	
2025-01-15 23:56:55.31	25.20	19.01	
2025-01-15 23:56:56.73	25.28	19.19	
2025-01-15 23:56:58.15	25.36	19.36	
2025-01-15 23:56:59.57	25.44	19.54	
2025-01-15 23:57:00.99	25.52	19.72	
2025-01-15 23:57:02.41	25.60	19.89	
2025-01-15 23:57:03.83	25.69	20.07	
2025-01-15 23:57:05.25	25.77	20.26	
2025-01-15 23:57:06.68	25.85	20.44	
2025-01-15 23:57:08.10	25.94	20.62	
2025-01-15 23:57:09.52	26.03	20.81	
2025-01-15 23:57:10.94	26.11	20.99	
2025-01-15 23:57:12.36	26.20	21.18	
2025-01-15 23:57:13.78	26.29	21.37	
2025-01-15 23:57:15.20	26.38	21.56	
2025-01-15 23:57:16.62	26.47	21.75	
2025-01-15 23:57:18.04	26.56	21.95	
2025-01-15 23:57:19.46	26.66	22.14	
2025-01-15 23:57:20.88	26.75	22.34	
2025-01-15 23:57:22.31	26.85	22.53	
2025-01-15 23:57:23.73	26.94	22.73	
2025-01-15 23:57:25.15	27.04	22.93	
2025-01-15 23:57:26.57	27.14	23.14	
2025-01-15 23:57:27.99	27.24	23.34	
2025-01-15 23:57:29.41	27.34	23.54	
2025-01-15 23:57:30.83	27.45	23.75	
2025-01-15 23:57:32.25	27.55	23.96	
2025-01-15 23:57:33.67	27.66	24.17	
2025-01-15 23:57:35.09	27.76	24.38	
2025-01-15 23:57:36.51	27.87	24.59	
2025-01-15 23:57:37.94	27.98	24.81	
2025-01-15 23:57:39.36	28.09	25.02	
2025-01-15 23:57:40.78	28.21	25.24	
2025-01-15 23:57:42.20	28.32	25.46	
2025-01-15 23:57:43.62	28.43	25.68	
2025-01-15 23:57:45.04	28.55	25.90	
2025-01-15 23:57:46.46	28.67	26.13	
2025-01-15 23:57:47.88	28.79	26.36	
2025-01-15 23:57:49.30	28.91	26.58	
2025-01-15 23:57:50.72	29.04	26.81	
2025-01-15 23:57:52.14	29.16	27.05	
2025-01-15 23:57:53.57	29.29	27.28	
2025-01-15 23:57:54.99	29.42	27.52	
2025-01-15 23:57:56.41	29.55	27.76	
2025-01-15 23:57:57.83	29.68	27.99	
2025-01-15 23:57:59.25	29.82	28.24	
2025-01-15 23:58:00.67	29.95	28.48	
2025-01-15 23:58:02.09	30.09	28.73	
2025-01-15 23:58:03.51	30.23	28.97	
2025-01-15 23:58:04.93	30.37	29.22	
2025-01-15 23:58:06.35	30.52	29.47	
2025-01-15 23:58:07.77	30.66	29.73	
2025-01-15 23:58:09.20	30.81	29.98	
2025-01-15 23:58:10.62	30.97	30.24	
2025-01-15 23:58:12.04	31.12	30.50	
2025-01-15 23:58:13.46	31.28	30.76	
2025-01-15 23:58:14.88	31.43	31.03	
2025-01-15 23:58:16.30	31.60	31.30	
2025-01-15 23:58:17.72	31.76	31.56	
2025-01-15 23:58:19.14	31.93	31.84	
2025-01-15 23:58:20.56	32.10	32.11	
2025-01-15 23:58:21.98	32.27	32.38	
2025-01-15 23:58:23.40	32.44	32.66	
2025-01-15 23:58:24.83	32.62	32.94	
2025-01-15 23:58:26.25	32.80	33.23	
2025-01-15 23:58:27.67	32.99	33.51	
2025-01-15 23:58:29.09	33.17	33.80	
2025-01-15 23:58:30.51	33.36	34.09	
2025-01-15 23:58:31.93	33.56	34.38	
2025-01-15 23:58:33.35	33.75	34.68	
2025-01-15 23:58:34.77	33.95	34.97	
2025-01-15 23:58:36.19	34.16	35.27	
2025-01-15 23:58:37.61	34.36	35.57	
2025-01-15 23:58:39.03	34.58	35.88	
2025-01-15 23:58:40.46	34.79	36.19	
2025-01-15 23:58:41.88	35.01	36.50	
2025-01-15 23:58:43.30	35.24	36.81	
2025-01-15 23:58:44.72	35.46	37.12	
2025-01-15 23:58:46.14	35.70	37.44	
2025-01-15 23:58:47.56	35.93	37.76	
2025-01-15 23:58:48.98	36.17	38.08	
2025-01-15 23:58:50.40	36.42	38.41	
2025-01-15 23:58:51.82	36.67	38.73	
2025-01-15 23:58:53.24	36.92	39.06	
2025-01-15 23:58:54.66	37.19	39.39	
2025-01-15 23:58:56.09	37.45	39.73	
2025-01-15 23:58:57.51	37.72	40.07	
2025-01-15 23:58:58.93	38.00	40.41	
2025-01-15 23:59:00.35	38.28	40.75	
2025-01-15 23:59:01.77	38.57	41.10	
2025-01-15 23:59:03.19	38.87	41.45	
2025-01-15 23:59:04.61	39.17	41.80	
2025-01-15 23:59:06.03	39.48	42.15	
2025-01-15 23:59:07.45	39.79	42.50	
2025-01-15 23:59:08.87	40.11	42.86	
2025-01-15 23:59:10.29	40.44	43.22	
2025-01-15 23:59:11.72	40.78	43.59	
2025-01-15 23:59:13.14	41.12	43.95	
2025-01-15 23:59:14.56	41.47	44.32	
2025-01-15 23:59:15.98	41.83	44.69	
2025-01-15 23:59:17.40	42.20	45.06	
2025-01-15 23:59:18.82	42.58	45.43	
2025-01-15 23:59:20.24	42.96	45.81	
2025-01-15 23:59:21.66	43.36	46.19	
2025-01-15 23:59:23.08	43.76	46.57	
2025-01-15 23:59:24.50	44.17	46.95	
2025-01-15 23:59:25.92	44.60	47.34	
2025-01-15 23:59:27.35	45.04	47.73	
2025-01-15 23:59:28.77	45.48	48.11	
2025-01-15 23:59:30.19	45.94	48.50	
2025-01-15 23:59:31.61	46.41	48.89	
2025-01-15 23:59:33.03	46.89	49.29	
2025-01-15 23:59:34.45	47.38	49.68	
2025-01-15 23:59:35.87	47.88	50.08	
2025-01-15 23:59:37.29	48.40	50.47	
2025-01-15 23:59:38.71	48.93	50.87	
2025-01-15 23:59:40.13	49.48	51.27	
2025-01-15 23:59:41.55	50.04	51.67	
2025-01-15 23:59:42.98	50.62	52.07	
2025-01-15 23:59:44.40	51.21	52.47	
2025-01-15 23:59:45.82	51.82	52.87	
2025-01-15 23:59:47.24	52.44	53.27	
2025-01-15 23:59:48.66	53.08	53.67	
2025-01-15 23:59:50.08	53.74	54.07	
2025-01-15 23:59:51.50	54.42	54.46	
2025-01-15 23:59:52.92	55.11	54.86	
2025-01-15 23:59:54.34	55.83	55.26	
2025-01-15 23:59:55.76	56.57	55.65	
2025-01-15 23:59:57.18	57.32	56.04	
2025-01-15 23:59:58.61	58.11	56.44	
2025-01-16 00:00:00.03	58.91	56.82	
2025-01-16 00:00:01.45	59.73	57.21	
2025-01-16 00:00:02.87	60.58	57.59	
2025-01-16 00:00:04.29	61.45	57.97	
2025-01-16 00:00:05.71	62.34	58.35	
2025-01-16 00:00:07.13	63.26	58.72	
2025-01-16 00:00:08.55	64.21	59.08	
2025-01-16 00:00:09.97	65.18	59.44	
2025-01-16 00:00:11.39	66.18	59.80	
2025-01-16 00:00:12.81	67.20	60.15	
2025-01-16 00:00:14.23	68.26	60.49	
2025-01-16 00:00:15.66	69.35	60.83	
2025-01-16 00:00:17.08	70.46	61.16	
2025-01-16 00:00:18.50	71.60	61.48	
2025-01-16 00:00:19.92	72.77	61.79	
2025-01-16 00:00:21.34	73.97	62.09	
2025-01-16 00:00:22.76	75.20	62.39	
2025-01-16 00:00:24.18	76.46	62.67	
2025-01-16 00:00:25.60	77.75	62.94	
2025-01-16 00:00:27.02	79.07	63.21	
2025-01-16 00:00:28.44	80.42	63.46	
2025-01-16 00:00:29.86	81.79	63.69	
2025-01-16 00:00:31.29	83.20	63.92	
2025-01-16 00:00:32.71	84.63	64.13	
2025-01-16 00:00:34.13	86.09	64.33	
2025-01-16 00:00:35.55	87.56	64.51	
2025-01-16 00:00:36.97	89.06	64.68	
2025-01-16 00:00:38.39	90.59	64.83	
2025-01-16 00:00:39.81	92.13	64.97	
2025-01-16 00:00:41.23	93.69	65.09	
2025-01-16 00:00:42.65	95.27	65.20	
2025-01-16 00:00:44.07	96.86	65.29	
2025-01-16 00:00:45.49	98.46	65.36	
2025-01-16 00:00:46.92	100.08	65.41	
2025-01-16 00:00:48.34	101.69	65.45	
2025-01-16 00:00:49.76	103.31	65.46	
2025-01-16 00:00:51.18	104.94	65.47	
2025-01-16 00:00:52.60	106.56	65.45	
2025-01-16 00:00:54.02	108.18	65.41	
2025-01-16 00:00:55.44	109.79	65.36	
2025-01-16 00:00:56.86	111.39	65.29	
2025-01-16 00:00:58.28	112.98	65.21	
2025-01-16 00:00:59.70	114.56	65.10	
2025-01-16 00:01:01.12	116.12	64.99	
2025-01-16 00:01:02.55	117.68	64.85	
2025-01-16 00:01:03.97	119.20	64.70	
2025-01-16 00:01:05.39	120.71	64.53	
2025-01-16 00:01:06.81	122.19	64.35	
2025-01-16 00:01:08.23	123.65	64.15	
2025-01-16 00:01:09.65	125.08	63.94	
2025-01-16 00:01:11.07	126.49	63.72	
2025-01-16 00:01:12.49	127.86	63.48	
2025-01-16 00:01:13.91	129.22	63.23	
2025-01-16 00:01:15.33	130.54	62.97	
2025-01-16 00:01:16.75	131.83	62.70	
2025-01-16 00:01:18.18	133.10	62.41	
2025-01-16 00:01:19.60	134.34	62.12	
2025-01-16 00:01:21.02	135.54	61.82	
2025-01-16 00:01:22.44	136.72	61.50	
2025-01-16 00:01:23.86	137.86	61.18	
2025-01-16 00:01:25.28	138.98	60.86	
2025-01-16 00:01:26.70	140.07	60.52	
2025-01-16 00:01:28.12	141.13	60.18	
2025-01-16 00:01:29.54	142.16	59.83	
2025-01-16 00:01:30.96	143.16	59.47	
2025-01-16 00:01:32.38	144.14	59.11	
2025-01-16 00:01:33.81	145.09	58.74	
2025-01-16 00:01:35.23	146.02	58.37	
2025-01-16 00:01:36.65	146.92	57.99	
2025-01-16 00:01:38.07	147.79	57.61	
2025-01-16 00:01:39.49	148.64	57.23	
2025-01-16 00:01:40.91	149.46	56.84	
2025-01-16 00:01:42.33	150.27	56.46	
2025-01-16 00:01:43.75	151.05	56.06	
2025-01-16 00:01:45.17	151.81	55.67	
2025-01-16 00:01:46.59	152.55	55.27	
2025-01-16 00:01:48.01	153.27	54.88	
2025-01-16 00:01:49.44	153.97	54.48	
2025-01-16 00:01:50.86	154.65	54.08	
2025-01-16 00:01:52.28	155.31	53.68	
2025-01-16 00:01:53.70	155.95	53.28	
2025-01-16 00:01:55.12	156.58	52.88	
2025-01-16 00:01:56.54	157.19	52.47	
2025-01-16 00:01:57.96	157.78	52.07	
2025-01-16 00:01:59.38	158.36	51.67	
2025-01-16 00:02:00.80	158.92	51.27	
2025-01-16 00:02:02.22	159.47	50.87	
2025-01-16 00:02:03.64	160.01	50.47	
2025-01-16 00:02:05.07	160.53	50.07	
2025-01-16 00:02:06.49	161.04	49.68	
2025-01-16 00:02:07.91	161.53	49.28	
2025-01-16 00:02:09.33	162.01	48.89	
2025-01-16 00:02:10.75	162.48	48.49	
2025-01-16 00:02:12.17	162.94	48.10	
2025-01-16 00:02:13.59	163.38	47.71	
2025-01-16 00:02:15.01	163.82	47.33	
2025-01-16 00:02:16.43	164.25	46.94	
2025-01-16 00:02:17.85	164.66	46.56	
2025-01-16 00:02:19.27	165.07	46.17	
2025-01-16 00:02:20.70	165.46	45.79	
2025-01-16 00:02:22.12	165.85	45.41	
2025-01-16 00:02:23.54	166.23	45.04	
2025-01-16 00:02:24.96	166.60	44.66	
2025-01-16 00:02:26.38	166.96	44.29	
2025-01-16 00:02:27.80	167.31	43.92	
2025-01-16 00:02:29.22	167.65	43.56	
2025-01-16 00:02:30.64	167.99	43.19	
2025-01-16 00:02:32.06	168.32	42.83	
2025-01-16 00:02:33.48	168.64	42.47	
2025-01-16 00:02:34.90	168.96	42.11	
2025-01-16 00:02:36.33	169.27	41.76	
2025-01-16 00:02:37.75	169.57	41.40	
2025-01-16 00:02:39.17	169.86	41.06	
2025-01-16 00:02:40.59	170.15	40.71	
2025-01-16 00:02:42.01	170.44	40.36	
2025-01-16 00:02:43.43	170.71	40.02	
2025-01-16 00:02:44.85	170.98	39.68	
2025-01-16 00:02:46.27	171.25	39.35	
2025-01-16 00:02:47.69	171.51	39.01	
2025-01-16 00:02:49.11	171.77	38.68	
2025-01-16 00:02:50.53	172.02	38.35	
2025-01-16 00:02:51.96	172.27	38.02	
2025-01-16 00:02:53.38	172.51	37.70	
2025-01-16 00:02:54.80	172.74	37.38	
2025-01-16 00:02:56.22	172.98	37.06	
2025-01-16 00:02:57.64	173.20	36.75	
2025-01-16 00:02:59.06	173.43	36.43	
2025-01-16 00:03:00.48	173.65	36.12	
2025-01-16 00:03:01.90	173.86	35.81	
2025-01-16 00:03:03.32	174.07	35.51	
2025-01-16 00:03:04.74	174.28	35.20	
2025-01-16 00:03:06.16	174.49	34.90	
2025-01-16 00:03:07.59	174.69	34.60	
2025-01-16 00:03:09.02	174.89	34.30	
2025-01-16 00:03:10.44	175.08	34.01	
2025-01-16 00:03:11.86	175.27	33.72	
2025-01-16 00:03:13.28	175.46	33.43	
2025-01-16 00:03:14.70	175.64	33.15	
2025-01-16 00:03:16.12	175.82	32.86	
2025-01-16 00:03:17.54	176.00	32.58	
2025-01-16 00:03:18.96	176.17	32.30	
2025-01-16 00:03:20.38	176.34	32.02	
2025-01-16 00:03:21.81	176.51	31.75	
2025-01-16 00:03:23.23	176.68	31.48	
2025-01-16 00:03:24.66	176.85	31.20	
2025-01-16 00:03:26.08	177.01	30.94	
2025-01-16 00:03:27.50	177.16	30.67	
2025-01-16 00:03:28.92	177.32	30.41	
2025-01-16 00:03:30.34	177.47	30.15	
2025-01-16 00:03:31.77	177.63	29.88	
2025-01-16 00:03:33.19	177.77	29.63	
2025-01-16 00:03:34.61	177.92	29.37	
2025-01-16 00:03:36.03	178.07	29.12	
2025-01-16 00:03:37.45	178.21	28.87	
2025-01-16 00:03:38.87	178.35	28.62	
2025-01-16 00:03:40.29	178.49	28.37	
2025-01-16 00:03:41.71	178.62	28.13	
2025-01-16 00:03:43.13	178.76	27.89	
2025-01-16 00:03:44.55	178.89	27.65	
2025-01-16 00:03:45.97	179.02	27.41	
2025-01-16 00:03:47.39	179.15	27.17	
2025-01-16 00:03:48.81	179.27	26.94	
2025-01-16 00:03:50.24	179.40	26.70	
2025-01-16 00:03:51.67	179.52	26.47	
2025-01-16 00:03:53.09	179.64	26.24	
2025-01-16 00:03:54.51	179.76	26.01	
2025-01-16 00:03:55.93	179.88	25.79	
2025-01-16 00:03:57.36	180.00	25.56	
2025-01-16 00:03:58.78	180.11	25.34	
2025-01-16 00:04:00.21	180.23	25.12	
2025-01-16 00:04:01.63	180.34	24.90	
2025-01-16 00:04:03.05	180.45	24.68	
2025-01-16 00:04:04.47	180.56	24.47	
2025-01-16 00:04:05.89	180.67	24.25	
2025-01-16 00:04:07.32	180.77	24.04	
2025-01-16 00:04:08.75	180.88	23.83	
2025-01-16 00:04:10.17	180.98	23.62	
2025-01-16 00:04:11.59	181.09	23.41	
2025-01-16 00:04:13.01	181.19	23.21	
2025-01-16 00:04:14.43	181.29	23.00	
2025-01-16 00:04:15.85	181.38	22.80	
2025-01-16 00:04:17.27	181.48	22.60	
2025-01-16 00:04:18.69	181.58	22.40	
2025-01-16 00:04:20.11	181.67	22.20	
2025-01-16 00:04:21.53	181.77	22.00	
2025-01-16 00:04:22.95	181.86	21.81	
2025-01-16 00:04:24.38	181.95	21.61	
2025-01-16 00:04:25.80	182.04	21.42	
2025-01-16 00:04:27.22	182.13	21.23	
2025-01-16 00:04:28.64	182.22	21.04	
2025-01-16 00:04:30.06	182.31	20.85	
2025-01-16 00:04:31.48	182.39	20.67	
2025-01-16 00:04:32.90	182.48	20.48	
2025-01-16 00:04:34.32	182.56	20.30	
2025-01-16 00:04:35.74	182.65	20.11	
2025-01-16 00:04:37.16	182.73	19.93	
2025-01-16 00:04:38.58	182.81	19.75	
2025-01-16 00:04:40.01	182.89	19.57	
2025-01-16 00:04:41.43	182.97	19.39	
2025-01-16 00:04:42.85	183.05	19.22	
2025-01-16 00:04:44.27	183.13	19.04	
2025-01-16 00:04:45.70	183.21	18.86	
2025-01-16 00:04:47.13	183.29	18.69	
2025-01-16 00:04:48.55	183.36	18.52	
2025-01-16 00:04:49.97	183.44	18.35	
2025-01-16 00:04:51.39	183.51	18.18	
2025-01-16 00:04:52.81	183.58	18.01	
2025-01-16 00:04:54.23	183.66	17.84	
2025-01-16 00:04:55.65	183.73	17.68	
2025-01-16 00:04:57.07	183.80	17.51	
2025-01-16 00:04:58.49	183.87	17.35	
2025-01-16 00:04:59.91	183.94	17.18	
2025-01-16 00:05:01.33	184.01	17.02	
2025-01-16 00:05:02.76	184.08	16.86	
2025-01-16 00:05:04.18	184.15	16.70	
2025-01-16 00:05:05.60	184.21	16.54	
2025-01-16 00:05:07.02	184.28	16.38	
2025-01-16 00:05:08.44	184.34	16.22	
2025-01-16 00:05:09.86	184.41	16.07	
2025-01-16 00:05:11.28	184.47	15.91	
2025-01-16 00:05:12.70	184.54	15.76	
2025-01-16 00:05:14.12	184.60	15.61	
2025-01-16 00:05:15.54	184.66	15.45	
2025-01-16 00:05:16.96	184.73	15.30	
2025-01-16 00:05:18.39	184.79	15.15	
2025-01-16 00:05:19.81	184.85	15.00	
2025-01-16 00:05:21.23	184.91	14.85	
2025-01-16 00:05:22.65	184.97	14.70	
2025-01-16 00:05:24.07	185.03	14.56	
2025-01-16 00:05:25.49	185.09	14.41	
2025-01-16 00:05:26.91	185.15	14.27	
2025-01-16 00:05:28.33	185.20	14.12	
2025-01-16 00:05:29.75	185.26	13.98	
2025-01-16 00:05:31.17	185.32	13.84	
2025-01-16 00:05:32.59	185.37	13.69	
2025-01-16 00:05:34.01	185.43	13.55	
2025-01-16 00:05:35.44	185.48	13.41	
2025-01-16 00:05:36.86	185.54	13.27	
2025-01-16 00:05:38.28	185.59	13.13	
2025-01-16 00:05:39.70	185.65	12.99	
2025-01-16 00:05:41.12	185.70	12.86	
2025-01-16 00:05:42.54	185.75	12.72	
2025-01-16 00:05:43.96	185.81	12.59	
2025-01-16 00:05:45.38	185.86	12.45	
2025-01-16 00:05:46.80	185.91	12.32	
2025-01-16 00:05:48.22	185.96	12.18	
2025-01-16 00:05:49.65	186.01	12.05	
2025-01-16 00:05:51.07	186.06	11.92	
2025-01-16 00:05:52.49	186.11	11.79	
2025-01-16 00:05:53.91	186.16	11.65	
2025-01-16 00:05:55.34	186.21	11.52	
2025-01-16 00:05:56.76	186.26	11.39	
2025-01-16 00:05:58.18	186.31	11.27	
2025-01-16 00:05:59.60	186.36	11.14	
2025-01-16 00:06:01.02	186.40	11.01	
2025-01-16 00:06:02.44	186.45	10.88	
2025-01-16 00:06:03.86	186.50	10.76	
2025-01-16 00:06:05.28	186.54	10.63	
2025-01-16 00:06:06.70	186.59	10.51	
2025-01-16 00:06:08.12	186.64	10.38	
2025-01-16 00:06:09.54	186.68	10.26	
2025-01-16 00:06:10.97	186.73	10.13	
2025-01-16 00:06:12.39	186.77	10.01	
2025-01-16 00:06:13.81	186.82	9.89	
2025-01-16 00:06:15.23	186.86	9.77	
2025-01-16 00:06:16.65	186.90	9.65	
2025-01-16 00:06:18.07	186.95	9.53	
2025-01-16 00:06:19.49	186.99	9.41	
2025-01-16 00:06:20.91	187.03	9.29	
2025-01-16 00:06:22.34	187.08	9.17	
2025-01-16 00:06:23.76	187.12	9.05	
2025-01-16 00:06:25.18	187.16	8.94	
2025-01-16 00:06:26.61	187.20	8.82	
2025-01-16 00:06:28.03	187.24	8.70	
2025-01-16 00:06:29.45	187.28	8.59	
2025-01-16 00:06:30.87	187.32	8.47	
2025-01-16 00:06:32.30	187.37	8.35	
2025-01-16 00:06:33.72	187.41	8.24	
2025-01-16 00:06:35.15	187.45	8.13	
2025-01-16 00:06:36.57	187.49	8.01	
2025-01-16 00:06:38.00	187.52	7.90	
2025-01-16 00:06:39.42	187.56	7.79	
2025-01-16 00:06:40.84	187.60	7.68	
2025-01-16 00:06:42.26	187.64	7.56	
2025-01-16 00:06:43.68	187.68	7.45	
2025-01-16 00:06:45.10	187.72	7.34	
2025-01-16 00:06:46.52	187.75	7.23	
2025-01-16 00:06:47.95	187.79	7.12	
2025-01-16 00:06:49.37	187.83	7.01	
2025-01-16 00:06:50.79	187.87	6.91	
2025-01-16 00:06:52.21	187.90	6.80	
2025-01-16 00:06:53.64	187.94	6.69	
2025-01-16 00:06:55.06	187.98	6.58	
2025-01-16 00:06:56.48	188.01	6.48	
2025-01-16 00:06:57.90	188.05	6.37	
2025-01-16 00:06:59.33	188.08	6.26	
2025-01-16 00:07:00.75	188.12	6.16	
2025-01-16 00:07:02.17	188.15	6.05	
2025-01-16 00:07:03.60	188.19	5.95	
2025-01-16 00:07:05.02	188.22	5.84	
2025-01-16 00:07:06.44	188.26	5.74	
2025-01-16 00:07:07.86	188.29	5.64	
2025-01-16 00:07:09.28	188.33	5.53	
2025-01-16 00:07:10.70	188.36	5.43	
2025-01-16 00:07:12.12	188.39	5.33	
2025-01-16 00:07:13.55	188.43	5.23	
2025-01-16 00:07:14.97	188.46	5.12	
2025-01-16 00:07:16.39	188.49	5.02	
2025-01-16 00:07:17.81	188.53	4.92	
2025-01-16 00:07:19.23	188.56	4.82	
2025-01-16 00:07:20.65	188.59	4.72	
2025-01-16 00:07:22.07	188.62	4.62	
2025-01-16 00:07:23.49	188.66	4.52	
2025-01-16 00:07:24.91	188.69	4.43	
2025-01-16 00:07:26.33	188.72	4.33	
2025-01-16 00:07:27.76	188.75	4.23	
2025-01-16 00:07:29.19	188.78	4.13	
2025-01-16 00:07:30.61	188.81	4.03	

#Closed at: 2025-01-16 00:07:31