passes_logs/2025/01/15/SPB_Silybum_02/SPB_Silybum_02__20250115_082213_AQUA_rec.log

#Pass ID: 20250115_082213_AQUA
#Satellite: AQUA
#Configuration: AQUA
#Start time: 2025-01-15 08:22:14

#Version: 2.0.20230423
#Station: SPB_Silybum_02
#Location: 30.233357 lon 59.946436 lat
#TLE: 1 27424U 02022A   25014.86211101  .00001670  00000+0  35273-3 0  9993
#TLE: 2 27424  98.3588 331.5248 0001714 111.5422 273.3352 14.60681448207609

#Time	Az	El	Level	Level2	SNR	BER	Gain	Gain2
2025-01-15 08:22:16.32	66.04	4.12	
2025-01-15 08:22:17.14	65.93	4.16	
2025-01-15 08:22:17.95	65.83	4.19	
2025-01-15 08:22:18.76	65.72	4.23	
2025-01-15 08:22:19.57	65.61	4.26	
2025-01-15 08:22:20.39	65.50	4.30	
2025-01-15 08:22:21.20	65.39	4.33	
2025-01-15 08:22:22.01	65.28	4.36	
2025-01-15 08:22:22.82	65.17	4.40	
2025-01-15 08:22:23.64	65.05	4.43	
2025-01-15 08:22:24.45	64.94	4.47	
2025-01-15 08:22:25.26	64.83	4.50	
2025-01-15 08:22:26.07	64.72	4.53	
2025-01-15 08:22:26.89	64.61	4.57	
2025-01-15 08:22:27.70	64.50	4.60	
2025-01-15 08:22:28.51	64.38	4.63	
2025-01-15 08:22:29.32	64.27	4.67	
2025-01-15 08:22:30.14	64.16	4.70	
2025-01-15 08:22:30.95	64.04	4.73	
2025-01-15 08:22:31.76	63.93	4.77	
2025-01-15 08:22:32.57	63.82	4.80	
2025-01-15 08:22:33.39	63.70	4.83	
2025-01-15 08:22:34.20	63.59	4.87	
2025-01-15 08:22:35.01	63.47	4.90	
2025-01-15 08:22:35.82	63.36	4.93	
2025-01-15 08:22:36.64	63.24	4.97	
2025-01-15 08:22:37.45	63.12	5.00	
2025-01-15 08:22:38.26	63.01	5.03	
2025-01-15 08:22:39.07	62.89	5.07	
2025-01-15 08:22:39.89	62.77	5.10	
2025-01-15 08:22:40.70	62.66	5.13	
2025-01-15 08:22:41.51	62.54	5.16	
2025-01-15 08:22:42.32	62.42	5.20	
2025-01-15 08:22:43.14	62.30	5.23	
2025-01-15 08:22:43.95	62.19	5.26	
2025-01-15 08:22:44.76	62.07	5.30	
2025-01-15 08:22:45.57	61.95	5.33	
2025-01-15 08:22:46.39	61.83	5.36	
2025-01-15 08:22:47.20	61.71	5.39	
2025-01-15 08:22:48.01	61.59	5.42	
2025-01-15 08:22:48.83	61.47	5.46	
2025-01-15 08:22:49.64	61.35	5.49	
2025-01-15 08:22:50.45	61.23	5.52	
2025-01-15 08:22:51.26	61.11	5.55	
2025-01-15 08:22:52.08	60.99	5.59	
2025-01-15 08:22:52.89	60.86	5.62	
2025-01-15 08:22:53.70	60.74	5.65	
2025-01-15 08:22:54.51	60.62	5.68	
2025-01-15 08:22:55.33	60.50	5.71	
2025-01-15 08:22:56.14	60.38	5.74	
2025-01-15 08:22:56.95	60.25	5.78	
2025-01-15 08:22:57.76	60.13	5.81	
2025-01-15 08:22:58.58	60.01	5.84	
2025-01-15 08:22:59.39	59.88	5.87	
2025-01-15 08:23:00.20	59.76	5.90	
2025-01-15 08:23:01.01	59.63	5.93	
2025-01-15 08:23:01.83	59.51	5.96	
2025-01-15 08:23:02.64	59.38	5.99	
2025-01-15 08:23:03.45	59.26	6.03	
2025-01-15 08:23:04.26	59.13	6.06	
2025-01-15 08:23:05.08	59.01	6.09	
2025-01-15 08:23:05.89	58.88	6.12	
2025-01-15 08:23:06.70	58.76	6.15	
2025-01-15 08:23:07.51	58.63	6.18	
2025-01-15 08:23:08.33	58.50	6.21	
2025-01-15 08:23:09.14	58.37	6.24	
2025-01-15 08:23:09.95	58.25	6.27	
2025-01-15 08:23:10.76	58.12	6.30	
2025-01-15 08:23:11.58	57.99	6.33	
2025-01-15 08:23:12.39	57.86	6.36	
2025-01-15 08:23:13.20	57.73	6.39	
2025-01-15 08:23:14.01	57.60	6.42	
2025-01-15 08:23:14.83	57.47	6.45	
2025-01-15 08:23:15.64	57.34	6.48	
2025-01-15 08:23:16.45	57.22	6.51	
2025-01-15 08:23:17.26	57.09	6.54	
2025-01-15 08:23:18.08	56.95	6.57	
2025-01-15 08:23:18.89	56.82	6.60	
2025-01-15 08:23:19.70	56.69	6.63	
2025-01-15 08:23:20.51	56.56	6.65	
2025-01-15 08:23:21.33	56.43	6.68	
2025-01-15 08:23:22.14	56.30	6.71	
2025-01-15 08:23:22.95	56.17	6.74	
2025-01-15 08:23:23.76	56.03	6.77	
2025-01-15 08:23:24.58	55.90	6.80	
2025-01-15 08:23:25.39	55.77	6.83	
2025-01-15 08:23:26.20	55.63	6.86	
2025-01-15 08:23:27.01	55.50	6.88	
2025-01-15 08:23:27.83	55.37	6.91	
2025-01-15 08:23:28.64	55.23	6.94	
2025-01-15 08:23:29.45	55.10	6.97	
2025-01-15 08:23:30.27	54.96	7.00	
2025-01-15 08:23:31.08	54.83	7.02	
2025-01-15 08:23:31.89	54.69	7.05	
2025-01-15 08:23:32.70	54.56	7.08	
2025-01-15 08:23:33.52	54.42	7.11	
2025-01-15 08:23:34.33	54.28	7.13	
2025-01-15 08:23:35.14	54.15	7.16	
2025-01-15 08:23:35.95	54.01	7.19	
2025-01-15 08:23:36.77	53.87	7.22	
2025-01-15 08:23:37.58	53.74	7.24	
2025-01-15 08:23:38.39	53.60	7.27	
2025-01-15 08:23:39.20	53.46	7.30	
2025-01-15 08:23:40.02	53.32	7.32	
2025-01-15 08:23:40.83	53.18	7.35	
2025-01-15 08:23:41.64	53.04	7.38	
2025-01-15 08:23:42.45	52.91	7.40	
2025-01-15 08:23:43.27	52.77	7.43	
2025-01-15 08:23:44.08	52.63	7.45	
2025-01-15 08:23:44.89	52.49	7.48	
2025-01-15 08:23:45.70	52.35	7.50	
2025-01-15 08:23:46.52	52.21	7.53	
2025-01-15 08:23:47.33	52.07	7.56	
2025-01-15 08:23:48.14	51.92	7.58	
2025-01-15 08:23:48.95	51.78	7.61	
2025-01-15 08:23:49.77	51.64	7.63	
2025-01-15 08:23:50.58	51.50	7.66	
2025-01-15 08:23:51.39	51.36	7.68	
2025-01-15 08:23:52.20	51.22	7.71	
2025-01-15 08:23:53.02	51.07	7.73	
2025-01-15 08:23:53.83	50.93	7.76	
2025-01-15 08:23:54.64	50.79	7.78	
2025-01-15 08:23:55.45	50.65	7.80	
2025-01-15 08:23:56.27	50.50	7.83	
2025-01-15 08:23:57.08	50.36	7.85	
2025-01-15 08:23:57.89	50.21	7.88	
2025-01-15 08:23:58.70	50.07	7.90	
2025-01-15 08:23:59.52	49.92	7.92	
2025-01-15 08:24:00.33	49.78	7.95	
2025-01-15 08:24:01.14	49.63	7.97	
2025-01-15 08:24:01.95	49.49	7.99	
2025-01-15 08:24:02.77	49.34	8.02	
2025-01-15 08:24:03.58	49.20	8.04	
2025-01-15 08:24:04.39	49.05	8.06	
2025-01-15 08:24:05.20	48.91	8.08	
2025-01-15 08:24:06.02	48.76	8.11	
2025-01-15 08:24:06.83	48.61	8.13	
2025-01-15 08:24:07.64	48.46	8.15	
2025-01-15 08:24:08.45	48.32	8.17	
2025-01-15 08:24:09.27	48.17	8.19	
2025-01-15 08:24:10.08	48.02	8.22	
2025-01-15 08:24:10.89	47.87	8.24	
2025-01-15 08:24:11.71	47.72	8.26	
2025-01-15 08:24:12.52	47.58	8.28	
2025-01-15 08:24:13.33	47.43	8.30	
2025-01-15 08:24:14.14	47.28	8.32	
2025-01-15 08:24:14.96	47.13	8.34	
2025-01-15 08:24:15.77	46.98	8.36	
2025-01-15 08:24:16.58	46.83	8.38	
2025-01-15 08:24:17.39	46.68	8.40	
2025-01-15 08:24:18.21	46.53	8.42	
2025-01-15 08:24:19.02	46.38	8.44	
2025-01-15 08:24:19.83	46.23	8.46	
2025-01-15 08:24:20.64	46.08	8.48	
2025-01-15 08:24:21.46	45.93	8.50	
2025-01-15 08:24:22.27	45.78	8.52	
2025-01-15 08:24:23.08	45.63	8.54	
2025-01-15 08:24:23.89	45.47	8.56	
2025-01-15 08:24:24.71	45.32	8.58	
2025-01-15 08:24:25.52	45.17	8.60	
2025-01-15 08:24:26.33	45.02	8.62	
2025-01-15 08:24:27.14	44.87	8.63	
2025-01-15 08:24:27.96	44.71	8.65	
2025-01-15 08:24:28.77	44.56	8.67	
2025-01-15 08:24:29.58	44.41	8.69	
2025-01-15 08:24:30.39	44.25	8.71	
2025-01-15 08:24:31.21	44.10	8.72	
2025-01-15 08:24:32.02	43.94	8.74	
2025-01-15 08:24:32.83	43.79	8.76	
2025-01-15 08:24:33.64	43.64	8.77	
2025-01-15 08:24:34.46	43.48	8.79	
2025-01-15 08:24:35.27	43.33	8.81	
2025-01-15 08:24:36.08	43.17	8.82	
2025-01-15 08:24:36.89	43.02	8.84	
2025-01-15 08:24:37.71	42.86	8.86	
2025-01-15 08:24:38.52	42.71	8.87	
2025-01-15 08:24:39.33	42.55	8.89	
2025-01-15 08:24:40.14	42.40	8.90	
2025-01-15 08:24:40.96	42.24	8.92	
2025-01-15 08:24:41.77	42.08	8.94	
2025-01-15 08:24:42.58	41.93	8.95	
2025-01-15 08:24:43.39	41.77	8.97	
2025-01-15 08:24:44.21	41.62	8.98	
2025-01-15 08:24:45.02	41.46	8.99	
2025-01-15 08:24:45.83	41.30	9.01	
2025-01-15 08:24:46.64	41.15	9.02	
2025-01-15 08:24:47.46	40.99	9.04	
2025-01-15 08:24:48.27	40.83	9.05	
2025-01-15 08:24:49.08	40.67	9.06	
2025-01-15 08:24:49.89	40.52	9.08	
2025-01-15 08:24:50.71	40.36	9.09	
2025-01-15 08:24:51.52	40.20	9.10	
2025-01-15 08:24:52.33	40.04	9.12	
2025-01-15 08:24:53.15	39.88	9.13	
2025-01-15 08:24:53.96	39.72	9.14	
2025-01-15 08:24:54.77	39.57	9.15	
2025-01-15 08:24:55.58	39.41	9.17	
2025-01-15 08:24:56.40	39.25	9.18	
2025-01-15 08:24:57.21	39.09	9.19	
2025-01-15 08:24:58.02	38.93	9.20	
2025-01-15 08:24:58.83	38.77	9.21	
2025-01-15 08:24:59.65	38.61	9.22	
2025-01-15 08:25:00.46	38.45	9.23	
2025-01-15 08:25:01.27	38.29	9.25	
2025-01-15 08:25:02.08	38.13	9.26	
2025-01-15 08:25:02.90	37.97	9.27	
2025-01-15 08:25:03.71	37.81	9.28	
2025-01-15 08:25:04.52	37.65	9.29	
2025-01-15 08:25:05.33	37.49	9.30	
2025-01-15 08:25:06.15	37.33	9.31	
2025-01-15 08:25:06.96	37.17	9.31	
2025-01-15 08:25:07.77	37.01	9.32	
2025-01-15 08:25:08.58	36.85	9.33	
2025-01-15 08:25:09.40	36.69	9.34	
2025-01-15 08:25:10.21	36.53	9.35	
2025-01-15 08:25:11.02	36.37	9.36	
2025-01-15 08:25:11.83	36.21	9.37	
2025-01-15 08:25:12.65	36.04	9.37	
2025-01-15 08:25:13.46	35.88	9.38	
2025-01-15 08:25:14.27	35.72	9.39	
2025-01-15 08:25:15.08	35.56	9.40	
2025-01-15 08:25:15.90	35.40	9.40	
2025-01-15 08:25:16.71	35.24	9.41	
2025-01-15 08:25:17.52	35.08	9.42	
2025-01-15 08:25:18.33	34.91	9.42	
2025-01-15 08:25:19.15	34.75	9.43	
2025-01-15 08:25:19.96	34.59	9.44	
2025-01-15 08:25:20.77	34.43	9.44	
2025-01-15 08:25:21.58	34.27	9.45	
2025-01-15 08:25:22.40	34.10	9.45	
2025-01-15 08:25:23.21	33.94	9.46	
2025-01-15 08:25:24.02	33.78	9.46	
2025-01-15 08:25:24.83	33.62	9.47	
2025-01-15 08:25:25.65	33.45	9.47	
2025-01-15 08:25:26.46	33.29	9.48	
2025-01-15 08:25:27.27	33.13	9.48	
2025-01-15 08:25:28.08	32.97	9.49	
2025-01-15 08:25:28.90	32.80	9.49	
2025-01-15 08:25:29.71	32.64	9.49	
2025-01-15 08:25:30.52	32.48	9.50	
2025-01-15 08:25:31.33	32.32	9.50	
2025-01-15 08:25:32.15	32.15	9.50	
2025-01-15 08:25:32.96	31.99	9.51	
2025-01-15 08:25:33.77	31.83	9.51	
2025-01-15 08:25:34.59	31.66	9.51	
2025-01-15 08:25:35.40	31.50	9.51	
2025-01-15 08:25:36.21	31.34	9.52	
2025-01-15 08:25:37.02	31.18	9.52	
2025-01-15 08:25:37.84	31.01	9.52	
2025-01-15 08:25:38.65	30.85	9.52	
2025-01-15 08:25:39.46	30.69	9.52	
2025-01-15 08:25:40.27	30.52	9.52	
2025-01-15 08:25:41.09	30.36	9.52	
2025-01-15 08:25:41.90	30.20	9.52	
2025-01-15 08:25:42.71	30.03	9.53	
2025-01-15 08:25:43.52	29.87	9.53	
2025-01-15 08:25:44.34	29.71	9.53	
2025-01-15 08:25:45.15	29.54	9.53	
2025-01-15 08:25:45.96	29.38	9.52	
2025-01-15 08:25:46.77	29.22	9.52	
2025-01-15 08:25:47.59	29.05	9.52	
2025-01-15 08:25:48.40	28.89	9.52	
2025-01-15 08:25:49.21	28.73	9.52	
2025-01-15 08:25:50.02	28.57	9.52	
2025-01-15 08:25:50.84	28.40	9.52	
2025-01-15 08:25:51.65	28.24	9.52	
2025-01-15 08:25:52.46	28.08	9.51	
2025-01-15 08:25:53.27	27.92	9.51	
2025-01-15 08:25:54.09	27.75	9.51	
2025-01-15 08:25:54.90	27.59	9.51	
2025-01-15 08:25:55.71	27.43	9.50	
2025-01-15 08:25:56.52	27.26	9.50	
2025-01-15 08:25:57.34	27.10	9.50	
2025-01-15 08:25:58.15	26.94	9.49	
2025-01-15 08:25:58.96	26.78	9.49	
2025-01-15 08:25:59.77	26.61	9.48	
2025-01-15 08:26:00.59	26.45	9.48	
2025-01-15 08:26:01.40	26.29	9.48	
2025-01-15 08:26:02.21	26.13	9.47	
2025-01-15 08:26:03.02	25.96	9.47	
2025-01-15 08:26:03.84	25.80	9.46	
2025-01-15 08:26:04.65	25.64	9.46	
2025-01-15 08:26:05.46	25.48	9.45	
2025-01-15 08:26:06.27	25.32	9.44	
2025-01-15 08:26:07.09	25.15	9.44	
2025-01-15 08:26:07.90	24.99	9.43	
2025-01-15 08:26:08.71	24.83	9.43	
2025-01-15 08:26:09.52	24.67	9.42	
2025-01-15 08:26:10.34	24.51	9.41	
2025-01-15 08:26:11.15	24.34	9.41	
2025-01-15 08:26:11.96	24.18	9.40	
2025-01-15 08:26:12.77	24.02	9.39	
2025-01-15 08:26:13.59	23.86	9.38	
2025-01-15 08:26:14.40	23.70	9.38	
2025-01-15 08:26:15.21	23.54	9.37	
2025-01-15 08:26:16.03	23.38	9.36	
2025-01-15 08:26:16.84	23.22	9.35	
2025-01-15 08:26:17.65	23.05	9.34	
2025-01-15 08:26:18.46	22.89	9.34	
2025-01-15 08:26:19.28	22.73	9.33	
2025-01-15 08:26:20.09	22.57	9.32	
2025-01-15 08:26:20.90	22.41	9.31	
2025-01-15 08:26:21.71	22.25	9.30	
2025-01-15 08:26:22.53	22.09	9.29	
2025-01-15 08:26:23.34	21.93	9.28	
2025-01-15 08:26:24.15	21.77	9.27	
2025-01-15 08:26:24.96	21.61	9.26	
2025-01-15 08:26:25.78	21.45	9.25	
2025-01-15 08:26:26.59	21.29	9.24	
2025-01-15 08:26:27.40	21.13	9.23	
2025-01-15 08:26:28.21	20.97	9.22	
2025-01-15 08:26:29.03	20.81	9.20	
2025-01-15 08:26:29.84	20.66	9.19	
2025-01-15 08:26:30.65	20.50	9.18	
2025-01-15 08:26:31.46	20.34	9.17	
2025-01-15 08:26:32.28	20.18	9.16	
2025-01-15 08:26:33.09	20.02	9.15	
2025-01-15 08:26:33.90	19.86	9.13	
2025-01-15 08:26:34.71	19.71	9.12	
2025-01-15 08:26:35.53	19.55	9.11	
2025-01-15 08:26:36.34	19.39	9.09	
2025-01-15 08:26:37.15	19.23	9.08	
2025-01-15 08:26:37.96	19.07	9.07	
2025-01-15 08:26:38.78	18.92	9.05	
2025-01-15 08:26:39.59	18.76	9.04	
2025-01-15 08:26:40.40	18.60	9.03	
2025-01-15 08:26:41.21	18.45	9.01	
2025-01-15 08:26:42.03	18.29	9.00	
2025-01-15 08:26:42.84	18.13	8.98	
2025-01-15 08:26:43.65	17.98	8.97	
2025-01-15 08:26:44.46	17.82	8.95	
2025-01-15 08:26:45.28	17.66	8.94	
2025-01-15 08:26:46.09	17.51	8.92	
2025-01-15 08:26:46.90	17.35	8.91	
2025-01-15 08:26:47.71	17.20	8.89	
2025-01-15 08:26:48.53	17.04	8.88	
2025-01-15 08:26:49.34	16.89	8.86	
2025-01-15 08:26:50.15	16.73	8.85	
2025-01-15 08:26:50.96	16.58	8.83	
2025-01-15 08:26:51.78	16.42	8.81	
2025-01-15 08:26:52.59	16.27	8.80	
2025-01-15 08:26:53.40	16.11	8.78	
2025-01-15 08:26:54.21	15.96	8.76	
2025-01-15 08:26:55.03	15.81	8.75	
2025-01-15 08:26:55.84	15.65	8.73	
2025-01-15 08:26:56.65	15.50	8.71	
2025-01-15 08:26:57.47	15.34	8.69	
2025-01-15 08:26:58.28	15.19	8.68	
2025-01-15 08:26:59.09	15.04	8.66	
2025-01-15 08:26:59.90	14.89	8.64	
2025-01-15 08:27:00.72	14.73	8.62	
2025-01-15 08:27:01.53	14.58	8.60	
2025-01-15 08:27:02.34	14.43	8.58	
2025-01-15 08:27:03.15	14.28	8.57	
2025-01-15 08:27:03.97	14.13	8.55	
2025-01-15 08:27:04.78	13.98	8.53	
2025-01-15 08:27:05.59	13.83	8.51	
2025-01-15 08:27:06.40	13.68	8.49	
2025-01-15 08:27:07.22	13.52	8.47	
2025-01-15 08:27:08.03	13.37	8.45	
2025-01-15 08:27:08.84	13.22	8.43	
2025-01-15 08:27:09.65	13.07	8.41	
2025-01-15 08:27:10.47	12.92	8.39	
2025-01-15 08:27:11.28	12.77	8.37	
2025-01-15 08:27:12.09	12.63	8.35	
2025-01-15 08:27:12.90	12.48	8.33	
2025-01-15 08:27:13.72	12.33	8.31	
2025-01-15 08:27:14.53	12.18	8.29	
2025-01-15 08:27:15.34	12.03	8.27	
2025-01-15 08:27:16.15	11.88	8.24	
2025-01-15 08:27:16.97	11.73	8.22	
2025-01-15 08:27:17.78	11.59	8.20	
2025-01-15 08:27:18.59	11.44	8.18	
2025-01-15 08:27:19.40	11.29	8.16	
2025-01-15 08:27:20.22	11.15	8.14	
2025-01-15 08:27:21.03	11.00	8.11	
2025-01-15 08:27:21.84	10.85	8.09	
2025-01-15 08:27:22.65	10.71	8.07	
2025-01-15 08:27:23.47	10.56	8.05	
2025-01-15 08:27:24.28	10.42	8.02	
2025-01-15 08:27:25.09	10.27	8.00	
2025-01-15 08:27:25.90	10.13	7.98	
2025-01-15 08:27:26.72	9.98	7.95	
2025-01-15 08:27:27.53	9.84	7.93	
2025-01-15 08:27:28.34	9.69	7.91	
2025-01-15 08:27:29.15	9.55	7.88	
2025-01-15 08:27:29.97	9.40	7.86	
2025-01-15 08:27:30.78	9.26	7.84	
2025-01-15 08:27:31.59	9.12	7.81	
2025-01-15 08:27:32.40	8.97	7.79	
2025-01-15 08:27:33.22	8.83	7.76	
2025-01-15 08:27:34.03	8.69	7.74	
2025-01-15 08:27:34.84	8.55	7.72	
2025-01-15 08:27:35.65	8.41	7.69	
2025-01-15 08:27:36.47	8.26	7.67	
2025-01-15 08:27:37.28	8.12	7.64	
2025-01-15 08:27:38.09	7.98	7.62	
2025-01-15 08:27:38.90	7.84	7.59	
2025-01-15 08:27:39.72	7.70	7.57	
2025-01-15 08:27:40.53	7.56	7.54	
2025-01-15 08:27:41.34	7.42	7.51	
2025-01-15 08:27:42.16	7.28	7.49	
2025-01-15 08:27:42.97	7.14	7.46	
2025-01-15 08:27:43.78	7.00	7.44	
2025-01-15 08:27:44.59	6.86	7.41	
2025-01-15 08:27:45.41	6.72	7.38	
2025-01-15 08:27:46.22	6.58	7.36	
2025-01-15 08:27:47.03	6.44	7.33	
2025-01-15 08:27:47.84	6.31	7.31	
2025-01-15 08:27:48.66	6.17	7.28	
2025-01-15 08:27:49.47	6.03	7.25	
2025-01-15 08:27:50.28	5.90	7.23	
2025-01-15 08:27:51.09	5.76	7.20	
2025-01-15 08:27:51.91	5.62	7.17	
2025-01-15 08:27:52.72	5.49	7.14	
2025-01-15 08:27:53.53	5.35	7.12	
2025-01-15 08:27:54.34	5.21	7.09	
2025-01-15 08:27:55.16	5.08	7.06	
2025-01-15 08:27:55.97	4.94	7.03	
2025-01-15 08:27:56.78	4.81	7.01	
2025-01-15 08:27:57.59	4.67	6.98	
2025-01-15 08:27:58.41	4.54	6.95	
2025-01-15 08:27:59.22	4.41	6.92	
2025-01-15 08:28:00.03	4.27	6.90	
2025-01-15 08:28:00.84	4.14	6.87	
2025-01-15 08:28:01.66	4.01	6.84	
2025-01-15 08:28:02.47	3.87	6.81	
2025-01-15 08:28:03.28	3.74	6.78	
2025-01-15 08:28:04.09	3.61	6.75	
2025-01-15 08:28:04.91	3.48	6.72	
2025-01-15 08:28:05.72	3.34	6.70	
2025-01-15 08:28:06.53	3.21	6.67	
2025-01-15 08:28:07.34	3.08	6.64	
2025-01-15 08:28:08.16	2.95	6.61	
2025-01-15 08:28:08.97	2.82	6.58	
2025-01-15 08:28:09.78	2.69	6.55	
2025-01-15 08:28:10.59	2.56	6.52	
2025-01-15 08:28:11.41	2.43	6.49	
2025-01-15 08:28:12.22	2.30	6.46	
2025-01-15 08:28:13.03	2.17	6.43	
2025-01-15 08:28:13.84	2.04	6.40	
2025-01-15 08:28:14.66	1.92	6.37	
2025-01-15 08:28:15.47	1.79	6.34	
2025-01-15 08:28:16.28	1.66	6.31	
2025-01-15 08:28:17.09	1.53	6.28	
2025-01-15 08:28:17.91	1.40	6.25	
2025-01-15 08:28:18.72	1.28	6.22	
2025-01-15 08:28:19.53	1.15	6.19	
2025-01-15 08:28:20.34	1.03	6.16	
2025-01-15 08:28:21.16	0.90	6.13	
2025-01-15 08:28:21.97	0.77	6.10	
2025-01-15 08:28:22.78	0.65	6.07	
2025-01-15 08:28:23.60	0.52	6.04	
2025-01-15 08:28:24.41	0.40	6.01	
2025-01-15 08:28:25.22	0.27	5.98	
2025-01-15 08:28:26.03	0.15	5.95	
2025-01-15 08:28:26.85	0.02	5.91	
2025-01-15 08:28:27.66	359.90	5.88	
2025-01-15 08:28:28.47	359.78	5.85	
2025-01-15 08:28:29.28	359.65	5.82	
2025-01-15 08:28:30.10	359.53	5.79	
2025-01-15 08:28:30.91	359.41	5.76	
2025-01-15 08:28:31.72	359.29	5.73	
2025-01-15 08:28:32.53	359.16	5.69	
2025-01-15 08:28:33.35	359.04	5.66	
2025-01-15 08:28:34.16	358.92	5.63	
2025-01-15 08:28:34.97	358.80	5.60	
2025-01-15 08:28:35.78	358.68	5.57	
2025-01-15 08:28:36.60	358.56	5.54	
2025-01-15 08:28:37.41	358.44	5.50	
2025-01-15 08:28:38.22	358.32	5.47	
2025-01-15 08:28:39.03	358.20	5.44	
2025-01-15 08:28:39.85	358.08	5.41	
2025-01-15 08:28:40.66	357.96	5.37	
2025-01-15 08:28:41.47	357.84	5.34	
2025-01-15 08:28:42.28	357.72	5.31	
2025-01-15 08:28:43.10	357.60	5.28	
2025-01-15 08:28:43.91	357.49	5.25	
2025-01-15 08:28:44.72	357.37	5.21	
2025-01-15 08:28:45.53	357.25	5.18	
2025-01-15 08:28:46.35	357.13	5.15	
2025-01-15 08:28:47.16	357.02	5.11	
2025-01-15 08:28:47.97	356.90	5.08	
2025-01-15 08:28:48.78	356.79	5.05	
2025-01-15 08:28:49.60	356.67	5.02	
2025-01-15 08:28:50.41	356.55	4.98	
2025-01-15 08:28:51.22	356.44	4.95	
2025-01-15 08:28:52.03	356.32	4.92	
2025-01-15 08:28:52.85	356.21	4.88	
2025-01-15 08:28:53.66	356.10	4.85	
2025-01-15 08:28:54.47	355.98	4.82	
2025-01-15 08:28:55.28	355.87	4.78	
2025-01-15 08:28:56.10	355.75	4.75	
2025-01-15 08:28:56.91	355.64	4.72	
2025-01-15 08:28:57.72	355.53	4.68	
2025-01-15 08:28:58.53	355.42	4.65	
2025-01-15 08:28:59.35	355.30	4.62	
2025-01-15 08:29:00.16	355.19	4.58	
2025-01-15 08:29:00.97	355.08	4.55	
2025-01-15 08:29:01.78	354.97	4.52	
2025-01-15 08:29:02.60	354.86	4.48	
2025-01-15 08:29:03.41	354.75	4.45	
2025-01-15 08:29:04.22	354.64	4.41	
2025-01-15 08:29:05.04	354.52	4.38	
2025-01-15 08:29:05.85	354.41	4.35	
2025-01-15 08:29:06.66	354.30	4.31	
2025-01-15 08:29:07.47	354.20	4.28	
2025-01-15 08:29:08.29	354.09	4.24	
2025-01-15 08:29:09.10	353.98	4.21	
2025-01-15 08:29:09.91	353.87	4.18	
2025-01-15 08:29:10.72	353.76	4.14	
2025-01-15 08:29:11.54	353.65	4.11	
2025-01-15 08:29:12.35	353.54	4.07	
2025-01-15 08:29:13.16	353.44	4.04	
2025-01-15 08:29:13.97	353.33	4.00	

#Closed at: 2025-01-15 08:29:14