passes_logs/2025/01/15/SPB_Silybum_02/SPB_Silybum_02__20250115_001255_SUOMI_NPP_rec.log

#Pass ID: 20250115_001255_SUOMI NPP
#Satellite: SUOMI NPP
#Configuration: NPP
#Start time: 2025-01-15 00:12:54

#Version: 2.0.20230423
#Station: SPB_Silybum_02
#Location: 30.233357 lon 59.946436 lat
#TLE: 1 37849U 11061A   25014.14453206  .00000163  00000+0  98177-4 0  9992
#TLE: 2 37849  98.7445 315.1439 0001716  42.3577 317.7731 14.19537774684790

#Time	Az	El	Level	Level2	SNR	BER	Gain	Gain2
2025-01-15 00:12:56.56	18.27	4.09	
2025-01-15 00:12:58.03	18.28	4.19	
2025-01-15 00:12:59.48	18.29	4.29	
2025-01-15 00:13:00.91	18.31	4.39	
2025-01-15 00:13:02.37	18.32	4.49	
2025-01-15 00:13:03.83	18.33	4.59	
2025-01-15 00:13:05.25	18.34	4.69	
2025-01-15 00:13:06.71	18.36	4.79	
2025-01-15 00:13:08.16	18.37	4.89	
2025-01-15 00:13:09.60	18.38	5.00	
2025-01-15 00:13:11.05	18.39	5.10	
2025-01-15 00:13:12.51	18.41	5.20	
2025-01-15 00:13:13.99	18.42	5.31	
2025-01-15 00:13:15.42	18.43	5.41	
2025-01-15 00:13:16.84	18.45	5.51	
2025-01-15 00:13:18.29	18.46	5.62	
2025-01-15 00:13:19.74	18.47	5.73	
2025-01-15 00:13:21.18	18.48	5.83	
2025-01-15 00:13:22.62	18.50	5.94	
2025-01-15 00:13:24.07	18.51	6.04	
2025-01-15 00:13:25.53	18.52	6.15	
2025-01-15 00:13:26.95	18.54	6.26	
2025-01-15 00:13:28.38	18.55	6.36	
2025-01-15 00:13:29.81	18.56	6.47	
2025-01-15 00:13:31.25	18.58	6.58	
2025-01-15 00:13:32.67	18.59	6.69	
2025-01-15 00:13:34.10	18.60	6.79	
2025-01-15 00:13:35.53	18.62	6.90	
2025-01-15 00:13:36.95	18.63	7.01	
2025-01-15 00:13:38.38	18.64	7.12	
2025-01-15 00:13:39.83	18.66	7.23	
2025-01-15 00:13:41.28	18.67	7.35	
2025-01-15 00:13:42.72	18.69	7.46	
2025-01-15 00:13:44.16	18.70	7.57	
2025-01-15 00:13:45.59	18.71	7.68	
2025-01-15 00:13:47.03	18.73	7.80	
2025-01-15 00:13:48.48	18.74	7.91	
2025-01-15 00:13:49.91	18.76	8.03	
2025-01-15 00:13:51.33	18.77	8.14	
2025-01-15 00:13:52.75	18.78	8.25	
2025-01-15 00:13:54.18	18.80	8.37	
2025-01-15 00:13:55.63	18.81	8.49	
2025-01-15 00:13:57.07	18.83	8.60	
2025-01-15 00:13:58.50	18.84	8.72	
2025-01-15 00:13:59.94	18.86	8.84	
2025-01-15 00:14:01.38	18.87	8.96	
2025-01-15 00:14:02.80	18.89	9.08	
2025-01-15 00:14:04.23	18.90	9.20	
2025-01-15 00:14:05.66	18.92	9.32	
2025-01-15 00:14:07.11	18.93	9.44	
2025-01-15 00:14:08.53	18.95	9.56	
2025-01-15 00:14:09.98	18.96	9.68	
2025-01-15 00:14:11.44	18.98	9.81	
2025-01-15 00:14:12.88	18.99	9.93	
2025-01-15 00:14:14.34	19.01	10.06	
2025-01-15 00:14:15.80	19.02	10.18	
2025-01-15 00:14:17.23	19.04	10.31	
2025-01-15 00:14:18.65	19.05	10.43	
2025-01-15 00:14:20.09	19.07	10.56	
2025-01-15 00:14:21.52	19.08	10.69	
2025-01-15 00:14:22.94	19.10	10.81	
2025-01-15 00:14:24.38	19.12	10.94	
2025-01-15 00:14:25.81	19.13	11.07	
2025-01-15 00:14:27.24	19.15	11.20	
2025-01-15 00:14:28.69	19.16	11.33	
2025-01-15 00:14:30.14	19.18	11.46	
2025-01-15 00:14:31.58	19.20	11.60	
2025-01-15 00:14:33.02	19.21	11.73	
2025-01-15 00:14:34.45	19.23	11.86	
2025-01-15 00:14:35.87	19.25	11.99	
2025-01-15 00:14:37.32	19.26	12.13	
2025-01-15 00:14:38.77	19.28	12.27	
2025-01-15 00:14:40.22	19.30	12.40	
2025-01-15 00:14:41.66	19.31	12.54	
2025-01-15 00:14:43.12	19.33	12.68	
2025-01-15 00:14:44.58	19.35	12.82	
2025-01-15 00:14:46.00	19.37	12.96	
2025-01-15 00:14:47.42	19.38	13.10	
2025-01-15 00:14:48.85	19.40	13.24	
2025-01-15 00:14:50.29	19.42	13.38	
2025-01-15 00:14:51.73	19.44	13.53	
2025-01-15 00:14:53.16	19.45	13.67	
2025-01-15 00:14:54.60	19.47	13.82	
2025-01-15 00:14:56.02	19.49	13.96	
2025-01-15 00:14:57.44	19.51	14.10	
2025-01-15 00:14:58.87	19.53	14.25	
2025-01-15 00:15:00.29	19.54	14.40	
2025-01-15 00:15:01.73	19.56	14.55	
2025-01-15 00:15:03.17	19.58	14.70	
2025-01-15 00:15:04.61	19.60	14.85	
2025-01-15 00:15:06.05	19.62	15.00	
2025-01-15 00:15:07.47	19.64	15.15	
2025-01-15 00:15:08.91	19.66	15.30	
2025-01-15 00:15:10.34	19.68	15.46	
2025-01-15 00:15:11.76	19.70	15.61	
2025-01-15 00:15:13.22	19.71	15.77	
2025-01-15 00:15:14.67	19.73	15.93	
2025-01-15 00:15:16.10	19.75	16.09	
2025-01-15 00:15:17.54	19.77	16.25	
2025-01-15 00:15:18.99	19.80	16.41	
2025-01-15 00:15:20.44	19.82	16.57	
2025-01-15 00:15:21.87	19.84	16.74	
2025-01-15 00:15:23.30	19.86	16.90	
2025-01-15 00:15:24.73	19.88	17.06	
2025-01-15 00:15:26.16	19.90	17.23	
2025-01-15 00:15:27.60	19.92	17.40	
2025-01-15 00:15:29.06	19.94	17.57	
2025-01-15 00:15:30.50	19.96	17.74	
2025-01-15 00:15:31.92	19.98	17.91	
2025-01-15 00:15:33.35	20.01	18.08	
2025-01-15 00:15:34.78	20.03	18.25	
2025-01-15 00:15:36.23	20.05	18.43	
2025-01-15 00:15:37.69	20.07	18.61	
2025-01-15 00:15:39.12	20.10	18.78	
2025-01-15 00:15:40.57	20.12	18.96	
2025-01-15 00:15:42.04	20.14	19.15	
2025-01-15 00:15:43.50	20.17	19.33	
2025-01-15 00:15:44.96	20.19	19.52	
2025-01-15 00:15:46.41	20.21	19.70	
2025-01-15 00:15:47.88	20.24	19.89	
2025-01-15 00:15:49.34	20.26	20.08	
2025-01-15 00:15:50.76	20.29	20.27	
2025-01-15 00:15:52.19	20.31	20.46	
2025-01-15 00:15:53.61	20.33	20.65	
2025-01-15 00:15:55.05	20.36	20.84	
2025-01-15 00:15:56.46	20.38	21.03	
2025-01-15 00:15:57.91	20.41	21.23	
2025-01-15 00:15:59.34	20.44	21.42	
2025-01-15 00:16:00.83	20.46	21.63	
2025-01-15 00:16:02.26	20.49	21.83	
2025-01-15 00:16:03.69	20.51	22.03	
2025-01-15 00:16:05.13	20.54	22.23	
2025-01-15 00:16:06.57	20.57	22.44	
2025-01-15 00:16:08.02	20.60	22.65	
2025-01-15 00:16:09.46	20.62	22.85	
2025-01-15 00:16:10.93	20.65	23.07	
2025-01-15 00:16:12.35	20.68	23.28	
2025-01-15 00:16:13.80	20.71	23.49	
2025-01-15 00:16:15.26	20.74	23.71	
2025-01-15 00:16:16.68	20.77	23.93	
2025-01-15 00:16:18.12	20.80	24.15	
2025-01-15 00:16:19.56	20.83	24.37	
2025-01-15 00:16:21.03	20.86	24.60	
2025-01-15 00:16:22.46	20.89	24.82	
2025-01-15 00:16:23.89	20.92	25.04	
2025-01-15 00:16:25.31	20.95	25.27	
2025-01-15 00:16:26.77	20.98	25.50	
2025-01-15 00:16:28.19	21.01	25.73	
2025-01-15 00:16:29.61	21.04	25.97	
2025-01-15 00:16:31.05	21.08	26.20	
2025-01-15 00:16:32.55	21.11	26.45	
2025-01-15 00:16:33.98	21.15	26.69	
2025-01-15 00:16:35.45	21.18	26.94	
2025-01-15 00:16:36.87	21.21	27.18	
2025-01-15 00:16:38.31	21.25	27.43	
2025-01-15 00:16:39.74	21.28	27.68	
2025-01-15 00:16:41.20	21.32	27.94	
2025-01-15 00:16:42.62	21.36	28.19	
2025-01-15 00:16:44.08	21.39	28.45	
2025-01-15 00:16:45.52	21.43	28.71	
2025-01-15 00:16:46.98	21.47	28.97	
2025-01-15 00:16:48.41	21.51	29.24	
2025-01-15 00:16:49.88	21.55	29.51	
2025-01-15 00:16:51.31	21.59	29.78	
2025-01-15 00:16:52.75	21.63	30.05	
2025-01-15 00:16:54.18	21.67	30.32	
2025-01-15 00:16:55.61	21.71	30.60	
2025-01-15 00:16:57.07	21.75	30.88	
2025-01-15 00:16:58.51	21.79	31.16	
2025-01-15 00:16:59.93	21.84	31.45	
2025-01-15 00:17:01.35	21.88	31.73	
2025-01-15 00:17:02.79	21.92	32.02	
2025-01-15 00:17:04.22	21.97	32.31	
2025-01-15 00:17:05.63	22.01	32.60	
2025-01-15 00:17:07.05	22.06	32.90	
2025-01-15 00:17:08.47	22.11	33.20	
2025-01-15 00:17:09.90	22.15	33.50	
2025-01-15 00:17:11.32	22.20	33.81	
2025-01-15 00:17:12.74	22.25	34.12	
2025-01-15 00:17:14.17	22.30	34.43	
2025-01-15 00:17:15.60	22.35	34.74	
2025-01-15 00:17:17.02	22.40	35.06	
2025-01-15 00:17:18.44	22.46	35.38	
2025-01-15 00:17:19.85	22.51	35.70	
2025-01-15 00:17:21.27	22.56	36.03	
2025-01-15 00:17:22.70	22.62	36.36	
2025-01-15 00:17:24.13	22.68	36.70	
2025-01-15 00:17:25.55	22.74	37.04	
2025-01-15 00:17:26.97	22.79	37.38	
2025-01-15 00:17:28.41	22.85	37.73	
2025-01-15 00:17:29.85	22.92	38.08	
2025-01-15 00:17:31.27	22.98	38.43	
2025-01-15 00:17:32.70	23.04	38.79	
2025-01-15 00:17:34.12	23.11	39.15	
2025-01-15 00:17:35.55	23.17	39.51	
2025-01-15 00:17:36.97	23.24	39.88	
2025-01-15 00:17:38.40	23.31	40.25	
2025-01-15 00:17:39.83	23.38	40.63	
2025-01-15 00:17:41.29	23.46	41.02	
2025-01-15 00:17:42.74	23.53	41.41	
2025-01-15 00:17:44.18	23.61	41.80	
2025-01-15 00:17:45.63	23.68	42.20	
2025-01-15 00:17:47.06	23.76	42.59	
2025-01-15 00:17:48.49	23.85	43.00	
2025-01-15 00:17:49.92	23.93	43.40	
2025-01-15 00:17:51.35	24.01	43.81	
2025-01-15 00:17:52.79	24.10	44.23	
2025-01-15 00:17:54.23	24.19	44.65	
2025-01-15 00:17:55.68	24.28	45.08	
2025-01-15 00:17:57.11	24.38	45.51	
2025-01-15 00:17:58.53	24.47	45.94	
2025-01-15 00:17:59.95	24.57	46.37	
2025-01-15 00:18:01.38	24.67	46.81	
2025-01-15 00:18:02.81	24.78	47.26	
2025-01-15 00:18:04.24	24.88	47.71	
2025-01-15 00:18:05.66	24.99	48.16	
2025-01-15 00:18:07.10	25.11	48.63	
2025-01-15 00:18:08.57	25.23	49.11	
2025-01-15 00:18:10.07	25.35	49.60	
2025-01-15 00:18:11.56	25.48	50.10	
2025-01-15 00:18:13.03	25.61	50.59	
2025-01-15 00:18:14.50	25.75	51.09	
2025-01-15 00:18:15.98	25.89	51.60	
2025-01-15 00:18:17.47	26.04	52.11	
2025-01-15 00:18:18.97	26.19	52.64	
2025-01-15 00:18:20.44	26.35	53.16	
2025-01-15 00:18:21.91	26.51	53.69	
2025-01-15 00:18:23.37	26.67	54.21	
2025-01-15 00:18:24.88	26.85	54.76	
2025-01-15 00:18:26.37	27.03	55.31	
2025-01-15 00:18:27.84	27.22	55.86	
2025-01-15 00:18:29.30	27.41	56.41	
2025-01-15 00:18:30.78	27.61	56.97	
2025-01-15 00:18:32.26	27.82	57.54	
2025-01-15 00:18:33.75	28.04	58.11	
2025-01-15 00:18:35.19	28.26	58.67	
2025-01-15 00:18:36.67	28.50	59.26	
2025-01-15 00:18:38.15	28.75	59.84	
2025-01-15 00:18:39.61	29.01	60.43	
2025-01-15 00:18:41.11	29.28	61.03	
2025-01-15 00:18:42.59	29.57	61.64	
2025-01-15 00:18:44.09	29.87	62.25	
2025-01-15 00:18:45.58	30.19	62.87	
2025-01-15 00:18:47.08	30.52	63.49	
2025-01-15 00:18:48.56	30.87	64.12	
2025-01-15 00:18:50.03	31.24	64.74	
2025-01-15 00:18:51.52	31.63	65.37	
2025-01-15 00:18:52.98	32.03	66.00	
2025-01-15 00:18:54.48	32.48	66.65	
2025-01-15 00:18:55.96	32.94	67.29	
2025-01-15 00:18:57.44	33.43	67.94	
2025-01-15 00:18:58.92	33.95	68.58	
2025-01-15 00:19:00.40	34.51	69.24	
2025-01-15 00:19:01.89	35.12	69.90	
2025-01-15 00:19:03.37	35.76	70.55	
2025-01-15 00:19:04.87	36.45	71.22	
2025-01-15 00:19:06.34	37.19	71.88	
2025-01-15 00:19:07.83	38.00	72.54	
2025-01-15 00:19:09.31	38.87	73.21	
2025-01-15 00:19:10.73	39.77	73.84	
2025-01-15 00:19:12.24	40.81	74.52	
2025-01-15 00:19:13.74	41.95	75.19	
2025-01-15 00:19:15.22	43.18	75.84	
2025-01-15 00:19:16.67	44.50	76.48	
2025-01-15 00:19:18.16	46.00	77.14	
2025-01-15 00:19:19.62	47.63	77.77	
2025-01-15 00:19:21.06	49.41	78.39	
2025-01-15 00:19:22.50	51.40	78.99	
2025-01-15 00:19:23.94	53.61	79.59	
2025-01-15 00:19:25.38	56.10	80.17	
2025-01-15 00:19:26.89	59.05	80.75	
2025-01-15 00:19:28.38	62.34	81.31	
2025-01-15 00:19:29.86	66.05	81.83	
2025-01-15 00:19:31.32	70.18	82.30	
2025-01-15 00:19:32.76	74.77	82.73	
2025-01-15 00:19:34.23	80.02	83.11	
2025-01-15 00:19:35.69	85.79	83.43	
2025-01-15 00:19:37.16	92.13	83.68	
2025-01-15 00:19:38.63	98.90	83.85	
2025-01-15 00:19:40.10	105.94	83.92	
2025-01-15 00:19:41.59	113.14	83.91	
2025-01-15 00:19:43.03	119.97	83.80	
2025-01-15 00:19:44.51	126.65	83.60	
2025-01-15 00:19:45.98	132.81	83.33	
2025-01-15 00:19:47.47	138.50	82.98	
2025-01-15 00:19:48.96	143.60	82.57	
2025-01-15 00:19:50.42	148.04	82.12	
2025-01-15 00:19:51.88	151.98	81.63	
2025-01-15 00:19:53.33	155.44	81.10	
2025-01-15 00:19:54.80	158.55	80.55	
2025-01-15 00:19:56.28	161.31	79.96	
2025-01-15 00:19:57.74	163.74	79.37	
2025-01-15 00:19:59.20	165.89	78.76	
2025-01-15 00:20:00.62	167.77	78.16	
2025-01-15 00:20:02.10	169.54	77.52	
2025-01-15 00:20:03.51	171.05	76.90	
2025-01-15 00:20:04.99	172.49	76.25	
2025-01-15 00:20:06.46	173.79	75.60	
2025-01-15 00:20:07.94	174.97	74.94	
2025-01-15 00:20:09.41	176.05	74.29	
2025-01-15 00:20:10.84	177.02	73.65	
2025-01-15 00:20:12.32	177.93	72.98	
2025-01-15 00:20:13.80	178.78	72.32	
2025-01-15 00:20:15.28	179.56	71.66	
2025-01-15 00:20:16.77	180.29	70.99	
2025-01-15 00:20:18.25	180.96	70.33	
2025-01-15 00:20:19.75	181.60	69.66	
2025-01-15 00:20:21.24	182.19	69.00	
2025-01-15 00:20:22.73	182.74	68.35	
2025-01-15 00:20:24.24	183.26	67.68	
2025-01-15 00:20:25.73	183.74	67.03	
2025-01-15 00:20:27.22	184.20	66.39	
2025-01-15 00:20:28.71	184.63	65.74	
2025-01-15 00:20:30.18	185.03	65.11	
2025-01-15 00:20:31.64	185.40	64.49	
2025-01-15 00:20:33.13	185.77	63.86	
2025-01-15 00:20:34.63	186.11	63.23	
2025-01-15 00:20:36.12	186.44	62.61	
2025-01-15 00:20:37.62	186.76	61.99	
2025-01-15 00:20:39.10	187.05	61.38	
2025-01-15 00:20:40.51	187.32	60.81	
2025-01-15 00:20:41.93	187.57	60.23	
2025-01-15 00:20:43.37	187.82	59.66	
2025-01-15 00:20:44.82	188.07	59.08	
2025-01-15 00:20:46.28	188.30	58.51	
2025-01-15 00:20:47.70	188.51	57.95	
2025-01-15 00:20:49.15	188.73	57.39	
2025-01-15 00:20:50.58	188.93	56.84	
2025-01-15 00:20:52.02	189.12	56.30	
2025-01-15 00:20:53.46	189.31	55.75	
2025-01-15 00:20:54.90	189.49	55.22	
2025-01-15 00:20:56.33	189.67	54.69	
2025-01-15 00:20:57.78	189.84	54.16	
2025-01-15 00:20:59.22	190.00	53.64	
2025-01-15 00:21:00.65	190.15	53.12	
2025-01-15 00:21:02.07	190.30	52.62	
2025-01-15 00:21:03.51	190.45	52.11	
2025-01-15 00:21:04.95	190.59	51.61	
2025-01-15 00:21:06.37	190.73	51.12	
2025-01-15 00:21:07.82	190.86	50.63	
2025-01-15 00:21:09.23	190.99	50.15	
2025-01-15 00:21:10.66	191.12	49.67	
2025-01-15 00:21:12.08	191.24	49.20	
2025-01-15 00:21:13.51	191.35	48.73	
2025-01-15 00:21:14.93	191.47	48.27	
2025-01-15 00:21:16.36	191.58	47.81	
2025-01-15 00:21:17.80	191.69	47.36	
2025-01-15 00:21:19.24	191.79	46.90	
2025-01-15 00:21:20.71	191.90	46.45	
2025-01-15 00:21:22.15	192.00	46.00	
2025-01-15 00:21:23.60	192.09	45.56	
2025-01-15 00:21:25.01	192.19	45.14	
2025-01-15 00:21:26.48	192.28	44.70	
2025-01-15 00:21:27.93	192.37	44.27	
2025-01-15 00:21:29.41	192.46	43.84	
2025-01-15 00:21:30.85	192.55	43.42	
2025-01-15 00:21:32.33	192.63	43.00	
2025-01-15 00:21:33.79	192.72	42.59	
2025-01-15 00:21:35.23	192.80	42.19	
2025-01-15 00:21:36.71	192.88	41.78	
2025-01-15 00:21:38.19	192.96	41.37	
2025-01-15 00:21:39.67	193.03	40.97	
2025-01-15 00:21:41.13	193.11	40.58	
2025-01-15 00:21:42.57	193.18	40.20	
2025-01-15 00:21:43.99	193.25	39.83	
2025-01-15 00:21:45.43	193.31	39.45	
2025-01-15 00:21:46.88	193.38	39.08	
2025-01-15 00:21:48.32	193.45	38.72	
2025-01-15 00:21:49.79	193.51	38.35	
2025-01-15 00:21:51.23	193.57	37.99	
2025-01-15 00:21:52.66	193.63	37.64	
2025-01-15 00:21:54.09	193.69	37.29	
2025-01-15 00:21:55.53	193.75	36.95	
2025-01-15 00:21:56.96	193.81	36.60	
2025-01-15 00:21:58.41	193.87	36.26	
2025-01-15 00:21:59.88	193.93	35.92	
2025-01-15 00:22:01.32	193.98	35.59	
2025-01-15 00:22:02.74	194.03	35.26	
2025-01-15 00:22:04.20	194.09	34.93	
2025-01-15 00:22:05.62	194.14	34.61	
2025-01-15 00:22:07.06	194.19	34.30	
2025-01-15 00:22:08.50	194.24	33.98	
2025-01-15 00:22:09.95	194.29	33.66	
2025-01-15 00:22:11.44	194.34	33.34	
2025-01-15 00:22:12.90	194.39	33.03	
2025-01-15 00:22:14.36	194.43	32.73	
2025-01-15 00:22:15.82	194.48	32.42	
2025-01-15 00:22:17.27	194.53	32.12	
2025-01-15 00:22:18.72	194.57	31.83	
2025-01-15 00:22:20.18	194.61	31.53	
2025-01-15 00:22:21.66	194.66	31.23	
2025-01-15 00:22:23.12	194.70	30.94	
2025-01-15 00:22:24.57	194.74	30.66	
2025-01-15 00:22:26.03	194.78	30.38	
2025-01-15 00:22:27.46	194.82	30.10	
2025-01-15 00:22:28.88	194.86	29.83	
2025-01-15 00:22:30.34	194.90	29.55	
2025-01-15 00:22:31.79	194.94	29.28	
2025-01-15 00:22:33.21	194.98	29.02	
2025-01-15 00:22:34.67	195.02	28.75	
2025-01-15 00:22:36.15	195.06	28.48	
2025-01-15 00:22:37.58	195.09	28.22	
2025-01-15 00:22:39.01	195.13	27.97	
2025-01-15 00:22:40.45	195.16	27.71	
2025-01-15 00:22:41.89	195.20	27.46	
2025-01-15 00:22:43.35	195.23	27.21	
2025-01-15 00:22:44.78	195.27	26.96	
2025-01-15 00:22:46.22	195.30	26.71	
2025-01-15 00:22:47.69	195.34	26.47	
2025-01-15 00:22:49.15	195.37	26.22	
2025-01-15 00:22:50.60	195.40	25.98	
2025-01-15 00:22:52.06	195.43	25.74	
2025-01-15 00:22:53.55	195.47	25.50	
2025-01-15 00:22:55.00	195.50	25.26	
2025-01-15 00:22:56.45	195.53	25.03	
2025-01-15 00:22:57.87	195.56	24.80	
2025-01-15 00:22:59.32	195.59	24.58	
2025-01-15 00:23:00.76	195.62	24.35	
2025-01-15 00:23:02.24	195.65	24.12	
2025-01-15 00:23:03.71	195.68	23.90	
2025-01-15 00:23:05.14	195.71	23.68	
2025-01-15 00:23:06.62	195.73	23.46	
2025-01-15 00:23:08.06	195.76	23.24	
2025-01-15 00:23:09.51	195.79	23.03	
2025-01-15 00:23:10.93	195.82	22.82	
2025-01-15 00:23:12.37	195.84	22.61	
2025-01-15 00:23:13.81	195.87	22.40	
2025-01-15 00:23:15.23	195.90	22.19	
2025-01-15 00:23:16.67	195.92	21.99	
2025-01-15 00:23:18.10	195.95	21.79	
2025-01-15 00:23:19.54	195.97	21.59	
2025-01-15 00:23:20.99	196.00	21.38	
2025-01-15 00:23:22.45	196.02	21.18	
2025-01-15 00:23:23.89	196.05	20.98	
2025-01-15 00:23:25.34	196.07	20.79	
2025-01-15 00:23:26.82	196.10	20.59	
2025-01-15 00:23:28.26	196.12	20.40	
2025-01-15 00:23:29.72	196.15	20.20	
2025-01-15 00:23:31.14	196.17	20.02	
2025-01-15 00:23:32.56	196.19	19.83	
2025-01-15 00:23:33.99	196.22	19.64	
2025-01-15 00:23:35.41	196.24	19.46	
2025-01-15 00:23:36.84	196.26	19.28	
2025-01-15 00:23:38.28	196.28	19.10	
2025-01-15 00:23:39.71	196.31	18.92	
2025-01-15 00:23:41.13	196.33	18.74	
2025-01-15 00:23:42.56	196.35	18.56	
2025-01-15 00:23:43.98	196.37	18.39	
2025-01-15 00:23:45.39	196.39	18.21	
2025-01-15 00:23:46.81	196.41	18.04	
2025-01-15 00:23:48.24	196.43	17.87	
2025-01-15 00:23:49.69	196.45	17.69	
2025-01-15 00:23:51.11	196.47	17.52	
2025-01-15 00:23:52.53	196.49	17.36	
2025-01-15 00:23:53.95	196.51	17.19	
2025-01-15 00:23:55.37	196.53	17.02	
2025-01-15 00:23:56.79	196.55	16.86	
2025-01-15 00:23:58.23	196.57	16.69	
2025-01-15 00:23:59.66	196.59	16.53	
2025-01-15 00:24:01.09	196.61	16.37	
2025-01-15 00:24:02.51	196.63	16.21	
2025-01-15 00:24:03.94	196.65	16.05	
2025-01-15 00:24:05.37	196.67	15.89	
2025-01-15 00:24:06.80	196.69	15.73	
2025-01-15 00:24:08.25	196.71	15.57	
2025-01-15 00:24:09.71	196.73	15.41	
2025-01-15 00:24:11.14	196.74	15.26	
2025-01-15 00:24:12.56	196.76	15.10	
2025-01-15 00:24:13.99	196.78	14.95	
2025-01-15 00:24:15.41	196.80	14.80	
2025-01-15 00:24:16.85	196.82	14.65	
2025-01-15 00:24:18.30	196.83	14.49	
2025-01-15 00:24:19.72	196.85	14.35	
2025-01-15 00:24:21.16	196.87	14.20	
2025-01-15 00:24:22.60	196.89	14.05	
2025-01-15 00:24:24.02	196.90	13.90	
2025-01-15 00:24:25.45	196.92	13.76	
2025-01-15 00:24:26.94	196.94	13.61	
2025-01-15 00:24:28.39	196.95	13.46	
2025-01-15 00:24:29.82	196.97	13.32	
2025-01-15 00:24:31.26	196.99	13.17	
2025-01-15 00:24:32.69	197.00	13.03	
2025-01-15 00:24:34.11	197.02	12.89	
2025-01-15 00:24:35.56	197.04	12.75	
2025-01-15 00:24:37.00	197.05	12.61	
2025-01-15 00:24:38.46	197.07	12.47	
2025-01-15 00:24:39.90	197.08	12.33	
2025-01-15 00:24:41.35	197.10	12.19	
2025-01-15 00:24:42.79	197.12	12.05	
2025-01-15 00:24:44.25	197.13	11.92	
2025-01-15 00:24:45.68	197.15	11.78	
2025-01-15 00:24:47.11	197.16	11.65	
2025-01-15 00:24:48.55	197.18	11.51	
2025-01-15 00:24:49.99	197.19	11.38	
2025-01-15 00:24:51.44	197.21	11.25	
2025-01-15 00:24:52.88	197.22	11.12	
2025-01-15 00:24:54.31	197.24	10.99	
2025-01-15 00:24:55.75	197.25	10.86	
2025-01-15 00:24:57.19	197.27	10.73	
2025-01-15 00:24:58.63	197.28	10.60	
2025-01-15 00:25:00.08	197.30	10.47	
2025-01-15 00:25:01.51	197.31	10.34	
2025-01-15 00:25:02.95	197.32	10.21	
2025-01-15 00:25:04.40	197.34	10.09	
2025-01-15 00:25:05.83	197.35	9.96	
2025-01-15 00:25:07.27	197.37	9.84	
2025-01-15 00:25:08.70	197.38	9.71	
2025-01-15 00:25:10.14	197.39	9.59	
2025-01-15 00:25:11.58	197.41	9.47	
2025-01-15 00:25:13.01	197.42	9.35	
2025-01-15 00:25:14.45	197.44	9.22	
2025-01-15 00:25:15.89	197.45	9.10	
2025-01-15 00:25:17.33	197.46	8.98	
2025-01-15 00:25:18.76	197.48	8.86	
2025-01-15 00:25:20.20	197.49	8.74	
2025-01-15 00:25:21.65	197.50	8.62	
2025-01-15 00:25:23.08	197.52	8.50	
2025-01-15 00:25:24.52	197.53	8.39	
2025-01-15 00:25:25.96	197.54	8.27	
2025-01-15 00:25:27.39	197.56	8.15	
2025-01-15 00:25:28.84	197.57	8.04	
2025-01-15 00:25:30.27	197.58	7.92	
2025-01-15 00:25:31.71	197.59	7.81	
2025-01-15 00:25:33.16	197.61	7.69	
2025-01-15 00:25:34.60	197.62	7.58	
2025-01-15 00:25:36.05	197.63	7.46	
2025-01-15 00:25:37.49	197.64	7.35	
2025-01-15 00:25:38.93	197.66	7.24	
2025-01-15 00:25:40.37	197.67	7.12	
2025-01-15 00:25:41.82	197.68	7.01	
2025-01-15 00:25:43.25	197.69	6.90	
2025-01-15 00:25:44.68	197.71	6.79	
2025-01-15 00:25:46.12	197.72	6.68	
2025-01-15 00:25:47.55	197.73	6.57	
2025-01-15 00:25:49.00	197.74	6.46	
2025-01-15 00:25:50.45	197.75	6.35	
2025-01-15 00:25:51.88	197.77	6.24	
2025-01-15 00:25:53.32	197.78	6.14	
2025-01-15 00:25:54.76	197.79	6.03	
2025-01-15 00:25:56.20	197.80	5.92	
2025-01-15 00:25:57.65	197.81	5.81	
2025-01-15 00:25:59.09	197.83	5.71	
2025-01-15 00:26:00.52	197.84	5.60	
2025-01-15 00:26:01.97	197.85	5.50	
2025-01-15 00:26:03.40	197.86	5.39	
2025-01-15 00:26:04.85	197.87	5.29	
2025-01-15 00:26:06.29	197.88	5.18	
2025-01-15 00:26:07.72	197.89	5.08	
2025-01-15 00:26:09.16	197.90	4.98	
2025-01-15 00:26:10.59	197.92	4.88	
2025-01-15 00:26:12.03	197.93	4.77	
2025-01-15 00:26:13.46	197.94	4.67	
2025-01-15 00:26:14.92	197.95	4.57	
2025-01-15 00:26:16.36	197.96	4.47	
2025-01-15 00:26:17.80	197.97	4.37	
2025-01-15 00:26:19.23	197.98	4.27	
2025-01-15 00:26:20.67	197.99	4.17	
2025-01-15 00:26:22.12	198.00	4.07	

#Closed at: 2025-01-15 00:26:23