passes_logs/2025/01/15/SPB_Silybum_02/SPB_Silybum_02__20250115_173617_TERRA_rec.log

#Pass ID: 20250115_173617_TERRA
#Satellite: TERRA
#Configuration: TERRA
#Start time: 2025-01-15 17:36:17

#Version: 2.0.20230423
#Station: SPB_Silybum_02
#Location: 30.233357 lon 59.946436 lat
#TLE: 1 25994U 99068A   25014.85746573  .00000777  00000+0  16972-3 0  9996
#TLE: 2 25994  98.0216  77.8924 0003456  72.8612  46.8876 14.60394566334056

#Time	Az	El	Level	Level2	SNR	BER	Gain	Gain2
2025-01-15 17:36:19.42	133.07	4.10	
2025-01-15 17:36:20.64	133.01	4.19	
2025-01-15 17:36:21.85	132.96	4.27	
2025-01-15 17:36:23.07	132.90	4.36	
2025-01-15 17:36:24.29	132.84	4.44	
2025-01-15 17:36:25.51	132.78	4.53	
2025-01-15 17:36:26.73	132.73	4.62	
2025-01-15 17:36:27.95	132.67	4.70	
2025-01-15 17:36:29.16	132.61	4.79	
2025-01-15 17:36:30.38	132.55	4.88	
2025-01-15 17:36:31.60	132.49	4.96	
2025-01-15 17:36:32.82	132.43	5.05	
2025-01-15 17:36:34.04	132.37	5.14	
2025-01-15 17:36:35.26	132.31	5.23	
2025-01-15 17:36:36.48	132.25	5.32	
2025-01-15 17:36:37.69	132.19	5.40	
2025-01-15 17:36:38.91	132.12	5.49	
2025-01-15 17:36:40.13	132.06	5.58	
2025-01-15 17:36:41.35	132.00	5.67	
2025-01-15 17:36:42.57	131.93	5.76	
2025-01-15 17:36:43.79	131.87	5.85	
2025-01-15 17:36:45.00	131.81	5.94	
2025-01-15 17:36:46.22	131.74	6.04	
2025-01-15 17:36:47.44	131.68	6.13	
2025-01-15 17:36:48.66	131.61	6.22	
2025-01-15 17:36:49.88	131.54	6.31	
2025-01-15 17:36:51.10	131.48	6.40	
2025-01-15 17:36:52.31	131.41	6.50	
2025-01-15 17:36:53.55	131.34	6.59	
2025-01-15 17:36:54.77	131.27	6.68	
2025-01-15 17:36:55.99	131.21	6.78	
2025-01-15 17:36:57.20	131.14	6.87	
2025-01-15 17:36:58.42	131.07	6.97	
2025-01-15 17:36:59.64	131.00	7.06	
2025-01-15 17:37:00.86	130.93	7.16	
2025-01-15 17:37:02.08	130.85	7.25	
2025-01-15 17:37:03.30	130.78	7.35	
2025-01-15 17:37:04.52	130.71	7.44	
2025-01-15 17:37:05.73	130.64	7.54	
2025-01-15 17:37:06.95	130.56	7.64	
2025-01-15 17:37:08.17	130.49	7.73	
2025-01-15 17:37:09.39	130.42	7.83	
2025-01-15 17:37:10.61	130.34	7.93	
2025-01-15 17:37:11.83	130.27	8.03	
2025-01-15 17:37:13.04	130.19	8.13	
2025-01-15 17:37:14.26	130.11	8.23	
2025-01-15 17:37:15.48	130.03	8.33	
2025-01-15 17:37:16.70	129.96	8.43	
2025-01-15 17:37:17.92	129.88	8.53	
2025-01-15 17:37:19.14	129.80	8.63	
2025-01-15 17:37:20.35	129.72	8.73	
2025-01-15 17:37:21.57	129.64	8.83	
2025-01-15 17:37:22.79	129.56	8.93	
2025-01-15 17:37:24.01	129.48	9.03	
2025-01-15 17:37:25.23	129.39	9.14	
2025-01-15 17:37:26.45	129.31	9.24	
2025-01-15 17:37:27.67	129.23	9.34	
2025-01-15 17:37:28.88	129.14	9.45	
2025-01-15 17:37:30.10	129.06	9.55	
2025-01-15 17:37:31.32	128.97	9.66	
2025-01-15 17:37:32.54	128.88	9.76	
2025-01-15 17:37:33.76	128.80	9.87	
2025-01-15 17:37:34.98	128.71	9.97	
2025-01-15 17:37:36.19	128.62	10.08	
2025-01-15 17:37:37.41	128.53	10.19	
2025-01-15 17:37:38.63	128.44	10.30	
2025-01-15 17:37:39.85	128.35	10.40	
2025-01-15 17:37:41.07	128.26	10.51	
2025-01-15 17:37:42.29	128.17	10.62	
2025-01-15 17:37:43.51	128.07	10.73	
2025-01-15 17:37:44.72	127.98	10.84	
2025-01-15 17:37:45.94	127.89	10.95	
2025-01-15 17:37:47.16	127.79	11.06	
2025-01-15 17:37:48.38	127.69	11.17	
2025-01-15 17:37:49.60	127.60	11.29	
2025-01-15 17:37:50.82	127.50	11.40	
2025-01-15 17:37:52.03	127.40	11.51	
2025-01-15 17:37:53.25	127.30	11.62	
2025-01-15 17:37:54.47	127.20	11.74	
2025-01-15 17:37:55.69	127.10	11.85	
2025-01-15 17:37:56.91	127.00	11.97	
2025-01-15 17:37:58.13	126.89	12.08	
2025-01-15 17:37:59.35	126.79	12.20	
2025-01-15 17:38:00.56	126.69	12.31	
2025-01-15 17:38:01.78	126.58	12.43	
2025-01-15 17:38:03.00	126.47	12.55	
2025-01-15 17:38:04.22	126.37	12.67	
2025-01-15 17:38:05.44	126.26	12.79	
2025-01-15 17:38:06.66	126.15	12.90	
2025-01-15 17:38:07.87	126.04	13.02	
2025-01-15 17:38:09.09	125.93	13.14	
2025-01-15 17:38:10.31	125.81	13.26	
2025-01-15 17:38:11.53	125.70	13.39	
2025-01-15 17:38:12.75	125.58	13.51	
2025-01-15 17:38:13.97	125.47	13.63	
2025-01-15 17:38:15.19	125.35	13.75	
2025-01-15 17:38:16.40	125.23	13.88	
2025-01-15 17:38:17.62	125.12	14.00	
2025-01-15 17:38:18.84	125.00	14.12	
2025-01-15 17:38:20.06	124.87	14.25	
2025-01-15 17:38:21.28	124.75	14.38	
2025-01-15 17:38:22.50	124.63	14.50	
2025-01-15 17:38:23.71	124.50	14.63	
2025-01-15 17:38:24.93	124.38	14.76	
2025-01-15 17:38:26.15	124.25	14.89	
2025-01-15 17:38:27.37	124.12	15.01	
2025-01-15 17:38:28.59	123.99	15.14	
2025-01-15 17:38:29.81	123.86	15.27	
2025-01-15 17:38:31.02	123.73	15.40	
2025-01-15 17:38:32.24	123.60	15.54	
2025-01-15 17:38:33.46	123.47	15.67	
2025-01-15 17:38:34.68	123.33	15.80	
2025-01-15 17:38:35.90	123.19	15.93	
2025-01-15 17:38:37.12	123.05	16.07	
2025-01-15 17:38:38.34	122.91	16.20	
2025-01-15 17:38:39.55	122.77	16.34	
2025-01-15 17:38:40.77	122.63	16.47	
2025-01-15 17:38:41.99	122.49	16.61	
2025-01-15 17:38:43.21	122.34	16.75	
2025-01-15 17:38:44.43	122.20	16.89	
2025-01-15 17:38:45.65	122.05	17.02	
2025-01-15 17:38:46.86	121.90	17.16	
2025-01-15 17:38:48.08	121.75	17.30	
2025-01-15 17:38:49.30	121.60	17.44	
2025-01-15 17:38:50.52	121.44	17.59	
2025-01-15 17:38:51.74	121.29	17.73	
2025-01-15 17:38:52.96	121.13	17.87	
2025-01-15 17:38:54.18	120.97	18.01	
2025-01-15 17:38:55.39	120.81	18.16	
2025-01-15 17:38:56.61	120.65	18.30	
2025-01-15 17:38:57.83	120.48	18.45	
2025-01-15 17:38:59.05	120.32	18.59	
2025-01-15 17:39:00.27	120.15	18.74	
2025-01-15 17:39:01.49	119.98	18.89	
2025-01-15 17:39:02.70	119.81	19.04	
2025-01-15 17:39:03.92	119.64	19.18	
2025-01-15 17:39:05.14	119.46	19.33	
2025-01-15 17:39:06.36	119.29	19.49	
2025-01-15 17:39:07.58	119.11	19.64	
2025-01-15 17:39:08.80	118.93	19.79	
2025-01-15 17:39:10.02	118.75	19.94	
2025-01-15 17:39:11.23	118.57	20.09	
2025-01-15 17:39:12.45	118.38	20.25	
2025-01-15 17:39:13.67	118.19	20.40	
2025-01-15 17:39:14.89	118.00	20.56	
2025-01-15 17:39:16.11	117.81	20.72	
2025-01-15 17:39:17.33	117.61	20.87	
2025-01-15 17:39:18.54	117.42	21.03	
2025-01-15 17:39:19.76	117.22	21.19	
2025-01-15 17:39:20.98	117.02	21.35	
2025-01-15 17:39:22.20	116.82	21.51	
2025-01-15 17:39:23.42	116.61	21.67	
2025-01-15 17:39:24.64	116.41	21.83	
2025-01-15 17:39:25.86	116.20	21.99	
2025-01-15 17:39:27.07	115.99	22.15	
2025-01-15 17:39:28.29	115.77	22.32	
2025-01-15 17:39:29.51	115.55	22.48	
2025-01-15 17:39:30.73	115.34	22.65	
2025-01-15 17:39:31.95	115.11	22.81	
2025-01-15 17:39:33.17	114.89	22.98	
2025-01-15 17:39:34.38	114.66	23.15	
2025-01-15 17:39:35.60	114.43	23.31	
2025-01-15 17:39:36.82	114.20	23.48	
2025-01-15 17:39:38.04	113.97	23.65	
2025-01-15 17:39:39.26	113.73	23.82	
2025-01-15 17:39:40.48	113.49	23.99	
2025-01-15 17:39:41.69	113.25	24.16	
2025-01-15 17:39:42.91	113.00	24.33	
2025-01-15 17:39:44.13	112.76	24.51	
2025-01-15 17:39:45.35	112.50	24.68	
2025-01-15 17:39:46.57	112.25	24.86	
2025-01-15 17:39:47.79	111.99	25.03	
2025-01-15 17:39:49.01	111.73	25.21	
2025-01-15 17:39:50.22	111.47	25.38	
2025-01-15 17:39:51.44	111.20	25.56	
2025-01-15 17:39:52.66	110.94	25.73	
2025-01-15 17:39:53.88	110.66	25.91	
2025-01-15 17:39:55.10	110.39	26.09	
2025-01-15 17:39:56.32	110.11	26.27	
2025-01-15 17:39:57.53	109.83	26.45	
2025-01-15 17:39:58.75	109.54	26.63	
2025-01-15 17:39:59.97	109.25	26.81	
2025-01-15 17:40:01.19	108.96	26.99	
2025-01-15 17:40:02.41	108.66	27.17	
2025-01-15 17:40:03.63	108.36	27.35	
2025-01-15 17:40:04.85	108.06	27.53	
2025-01-15 17:40:06.06	107.75	27.72	
2025-01-15 17:40:07.28	107.44	27.90	
2025-01-15 17:40:08.50	107.13	28.08	
2025-01-15 17:40:09.72	106.81	28.27	
2025-01-15 17:40:10.94	106.49	28.45	
2025-01-15 17:40:12.16	106.16	28.64	
2025-01-15 17:40:13.37	105.84	28.82	
2025-01-15 17:40:14.59	105.50	29.00	
2025-01-15 17:40:15.81	105.16	29.19	
2025-01-15 17:40:17.03	104.82	29.38	
2025-01-15 17:40:18.25	104.48	29.56	
2025-01-15 17:40:19.47	104.13	29.75	
2025-01-15 17:40:20.69	103.77	29.93	
2025-01-15 17:40:21.90	103.42	30.12	
2025-01-15 17:40:23.12	103.05	30.30	
2025-01-15 17:40:24.34	102.69	30.49	
2025-01-15 17:40:25.56	102.31	30.68	
2025-01-15 17:40:26.78	101.94	30.86	
2025-01-15 17:40:28.00	101.56	31.05	
2025-01-15 17:40:29.21	101.17	31.23	
2025-01-15 17:40:30.43	100.78	31.42	
2025-01-15 17:40:31.65	100.39	31.60	
2025-01-15 17:40:32.87	99.99	31.79	
2025-01-15 17:40:34.09	99.59	31.97	
2025-01-15 17:40:35.31	99.18	32.16	
2025-01-15 17:40:36.52	98.77	32.34	
2025-01-15 17:40:37.74	98.35	32.52	
2025-01-15 17:40:38.96	97.93	32.71	
2025-01-15 17:40:40.18	97.50	32.89	
2025-01-15 17:40:41.40	97.06	33.07	
2025-01-15 17:40:42.62	96.63	33.25	
2025-01-15 17:40:43.84	96.18	33.43	
2025-01-15 17:40:45.05	95.74	33.61	
2025-01-15 17:40:46.27	95.29	33.79	
2025-01-15 17:40:47.49	94.83	33.97	
2025-01-15 17:40:48.71	94.36	34.14	
2025-01-15 17:40:49.93	93.89	34.32	
2025-01-15 17:40:51.15	93.42	34.50	
2025-01-15 17:40:52.36	92.95	34.67	
2025-01-15 17:40:53.58	92.46	34.84	
2025-01-15 17:40:54.80	91.97	35.01	
2025-01-15 17:40:56.02	91.48	35.18	
2025-01-15 17:40:57.24	90.98	35.35	
2025-01-15 17:40:58.46	90.47	35.51	
2025-01-15 17:40:59.68	89.96	35.68	
2025-01-15 17:41:00.89	89.45	35.84	
2025-01-15 17:41:02.11	88.93	36.00	
2025-01-15 17:41:03.33	88.40	36.16	
2025-01-15 17:41:04.55	87.87	36.32	
2025-01-15 17:41:05.77	87.33	36.48	
2025-01-15 17:41:06.99	86.79	36.63	
2025-01-15 17:41:08.20	86.24	36.78	
2025-01-15 17:41:09.42	85.69	36.93	
2025-01-15 17:41:10.64	85.13	37.08	
2025-01-15 17:41:11.86	84.57	37.22	
2025-01-15 17:41:13.08	84.00	37.36	
2025-01-15 17:41:14.30	83.43	37.50	
2025-01-15 17:41:15.52	82.85	37.64	
2025-01-15 17:41:16.73	82.27	37.77	
2025-01-15 17:41:17.95	81.68	37.91	
2025-01-15 17:41:19.17	81.09	38.03	
2025-01-15 17:41:20.39	80.49	38.16	
2025-01-15 17:41:21.61	79.89	38.28	
2025-01-15 17:41:22.83	79.28	38.40	
2025-01-15 17:41:24.04	78.68	38.52	
2025-01-15 17:41:25.26	78.06	38.63	
2025-01-15 17:41:26.48	77.44	38.74	
2025-01-15 17:41:27.70	76.82	38.85	
2025-01-15 17:41:28.92	76.19	38.95	
2025-01-15 17:41:30.14	75.55	39.05	
2025-01-15 17:41:31.36	74.92	39.14	
2025-01-15 17:41:32.57	74.28	39.24	
2025-01-15 17:41:33.79	73.64	39.32	
2025-01-15 17:41:35.01	72.99	39.41	
2025-01-15 17:41:36.23	72.34	39.49	
2025-01-15 17:41:37.45	71.69	39.57	
2025-01-15 17:41:38.67	71.03	39.64	
2025-01-15 17:41:39.88	70.38	39.71	
2025-01-15 17:41:41.10	69.72	39.77	
2025-01-15 17:41:42.32	69.05	39.83	
2025-01-15 17:41:43.54	68.38	39.89	
2025-01-15 17:41:44.76	67.71	39.94	
2025-01-15 17:41:45.98	67.04	39.98	
2025-01-15 17:41:47.20	66.37	40.03	
2025-01-15 17:41:48.41	65.70	40.07	
2025-01-15 17:41:49.63	65.02	40.10	
2025-01-15 17:41:50.85	64.34	40.13	
2025-01-15 17:41:52.07	63.66	40.16	
2025-01-15 17:41:53.29	62.98	40.18	
2025-01-15 17:41:54.51	62.30	40.19	
2025-01-15 17:41:55.72	61.63	40.20	
2025-01-15 17:41:56.94	60.95	40.21	
2025-01-15 17:41:58.16	60.26	40.21	
2025-01-15 17:41:59.38	59.58	40.21	
2025-01-15 17:42:00.60	58.90	40.21	
2025-01-15 17:42:01.82	58.22	40.20	
2025-01-15 17:42:03.03	57.54	40.18	
2025-01-15 17:42:04.25	56.86	40.16	
2025-01-15 17:42:05.47	56.18	40.14	
2025-01-15 17:42:06.69	55.50	40.11	
2025-01-15 17:42:07.91	54.83	40.07	
2025-01-15 17:42:09.13	54.15	40.04	
2025-01-15 17:42:10.35	53.48	39.99	
2025-01-15 17:42:11.56	52.81	39.95	
2025-01-15 17:42:12.78	52.14	39.90	
2025-01-15 17:42:14.00	51.48	39.84	
2025-01-15 17:42:15.22	50.81	39.78	
2025-01-15 17:42:16.44	50.15	39.72	
2025-01-15 17:42:17.66	49.49	39.65	
2025-01-15 17:42:18.87	48.84	39.58	
2025-01-15 17:42:20.09	48.19	39.51	
2025-01-15 17:42:21.31	47.53	39.43	
2025-01-15 17:42:22.53	46.89	39.34	
2025-01-15 17:42:23.75	46.24	39.26	
2025-01-15 17:42:24.97	45.60	39.17	
2025-01-15 17:42:26.19	44.97	39.07	
2025-01-15 17:42:27.40	44.34	38.97	
2025-01-15 17:42:28.62	43.71	38.87	
2025-01-15 17:42:29.84	43.09	38.77	
2025-01-15 17:42:31.06	42.47	38.66	
2025-01-15 17:42:32.28	41.85	38.55	
2025-01-15 17:42:33.50	41.24	38.43	
2025-01-15 17:42:34.71	40.64	38.31	
2025-01-15 17:42:35.93	40.04	38.19	
2025-01-15 17:42:37.15	39.44	38.07	
2025-01-15 17:42:38.37	38.85	37.94	
2025-01-15 17:42:39.59	38.26	37.81	
2025-01-15 17:42:40.81	37.68	37.68	
2025-01-15 17:42:42.03	37.10	37.54	
2025-01-15 17:42:43.24	36.53	37.40	
2025-01-15 17:42:44.46	35.96	37.26	
2025-01-15 17:42:45.68	35.40	37.12	
2025-01-15 17:42:46.90	34.84	36.97	
2025-01-15 17:42:48.12	34.29	36.82	
2025-01-15 17:42:49.34	33.74	36.67	
2025-01-15 17:42:50.55	33.20	36.52	
2025-01-15 17:42:51.77	32.67	36.37	
2025-01-15 17:42:52.99	32.13	36.21	
2025-01-15 17:42:54.21	31.61	36.05	
2025-01-15 17:42:55.43	31.09	35.89	
2025-01-15 17:42:56.65	30.57	35.73	
2025-01-15 17:42:57.87	30.06	35.56	
2025-01-15 17:42:59.08	29.56	35.40	
2025-01-15 17:43:00.30	29.06	35.23	
2025-01-15 17:43:01.52	28.56	35.06	
2025-01-15 17:43:02.74	28.07	34.89	
2025-01-15 17:43:03.96	27.59	34.72	
2025-01-15 17:43:05.18	27.11	34.55	
2025-01-15 17:43:06.39	26.64	34.38	
2025-01-15 17:43:07.61	26.17	34.20	
2025-01-15 17:43:08.83	25.71	34.03	
2025-01-15 17:43:10.05	25.25	33.85	
2025-01-15 17:43:11.27	24.80	33.67	
2025-01-15 17:43:12.49	24.35	33.49	
2025-01-15 17:43:13.70	23.91	33.32	
2025-01-15 17:43:14.92	23.47	33.14	
2025-01-15 17:43:16.14	23.04	32.95	
2025-01-15 17:43:17.36	22.61	32.77	
2025-01-15 17:43:18.58	22.19	32.59	
2025-01-15 17:43:19.80	21.77	32.41	
2025-01-15 17:43:21.02	21.36	32.23	
2025-01-15 17:43:22.23	20.95	32.04	
2025-01-15 17:43:23.45	20.55	31.86	
2025-01-15 17:43:24.67	20.15	31.68	
2025-01-15 17:43:25.89	19.76	31.49	
2025-01-15 17:43:27.11	19.37	31.31	
2025-01-15 17:43:28.33	18.98	31.12	
2025-01-15 17:43:29.54	18.60	30.94	
2025-01-15 17:43:30.76	18.23	30.75	
2025-01-15 17:43:31.98	17.86	30.57	
2025-01-15 17:43:33.20	17.49	30.38	
2025-01-15 17:43:34.42	17.13	30.20	
2025-01-15 17:43:35.64	16.77	30.01	
2025-01-15 17:43:36.86	16.41	29.83	
2025-01-15 17:43:38.07	16.07	29.64	
2025-01-15 17:43:39.29	15.72	29.46	
2025-01-15 17:43:40.51	15.38	29.27	
2025-01-15 17:43:41.73	15.04	29.09	
2025-01-15 17:43:42.95	14.71	28.90	
2025-01-15 17:43:44.17	14.38	28.72	
2025-01-15 17:43:45.38	14.06	28.54	
2025-01-15 17:43:46.60	13.73	28.35	
2025-01-15 17:43:47.82	13.42	28.17	
2025-01-15 17:43:49.04	13.10	27.99	
2025-01-15 17:43:50.26	12.79	27.80	
2025-01-15 17:43:51.48	12.49	27.62	
2025-01-15 17:43:52.70	12.18	27.44	
2025-01-15 17:43:53.91	11.89	27.26	
2025-01-15 17:43:55.13	11.59	27.08	
2025-01-15 17:43:56.35	11.30	26.90	
2025-01-15 17:43:57.57	11.01	26.72	
2025-01-15 17:43:58.79	10.72	26.54	
2025-01-15 17:44:00.01	10.44	26.36	
2025-01-15 17:44:01.22	10.16	26.19	
2025-01-15 17:44:02.44	9.89	26.01	
2025-01-15 17:44:03.66	9.62	25.83	
2025-01-15 17:44:04.88	9.35	25.65	
2025-01-15 17:44:06.10	9.08	25.48	
2025-01-15 17:44:07.32	8.82	25.30	
2025-01-15 17:44:08.54	8.56	25.13	
2025-01-15 17:44:09.75	8.30	24.96	
2025-01-15 17:44:10.97	8.05	24.78	
2025-01-15 17:44:12.19	7.80	24.61	
2025-01-15 17:44:13.41	7.55	24.44	
2025-01-15 17:44:14.63	7.31	24.27	
2025-01-15 17:44:15.85	7.06	24.09	
2025-01-15 17:44:17.06	6.83	23.93	
2025-01-15 17:44:18.28	6.59	23.76	
2025-01-15 17:44:19.50	6.35	23.59	
2025-01-15 17:44:20.72	6.12	23.42	
2025-01-15 17:44:21.94	5.89	23.25	
2025-01-15 17:44:23.16	5.67	23.08	
2025-01-15 17:44:24.37	5.45	22.92	
2025-01-15 17:44:25.59	5.22	22.75	
2025-01-15 17:44:26.81	5.01	22.59	
2025-01-15 17:44:28.03	4.79	22.43	
2025-01-15 17:44:29.25	4.58	22.26	
2025-01-15 17:44:30.47	4.36	22.10	
2025-01-15 17:44:31.69	4.15	21.94	
2025-01-15 17:44:32.90	3.95	21.78	
2025-01-15 17:44:34.12	3.74	21.62	
2025-01-15 17:44:35.34	3.54	21.46	
2025-01-15 17:44:36.56	3.34	21.30	
2025-01-15 17:44:37.78	3.14	21.14	
2025-01-15 17:44:39.00	2.95	20.99	
2025-01-15 17:44:40.21	2.76	20.83	
2025-01-15 17:44:41.43	2.57	20.67	
2025-01-15 17:44:42.65	2.38	20.52	
2025-01-15 17:44:43.87	2.19	20.36	
2025-01-15 17:44:45.09	2.00	20.21	
2025-01-15 17:44:46.31	1.82	20.06	
2025-01-15 17:44:47.53	1.64	19.90	
2025-01-15 17:44:48.74	1.46	19.75	
2025-01-15 17:44:49.96	1.28	19.60	
2025-01-15 17:44:51.18	1.11	19.45	
2025-01-15 17:44:52.40	0.93	19.30	
2025-01-15 17:44:53.62	0.76	19.16	
2025-01-15 17:44:54.84	0.59	19.01	
2025-01-15 17:44:56.05	0.42	18.86	
2025-01-15 17:44:57.27	0.26	18.71	
2025-01-15 17:44:58.49	0.09	18.57	
2025-01-15 17:44:59.71	359.93	18.42	
2025-01-15 17:45:00.93	359.77	18.28	
2025-01-15 17:45:02.15	359.61	18.14	
2025-01-15 17:45:03.37	359.45	17.99	
2025-01-15 17:45:04.58	359.29	17.85	
2025-01-15 17:45:05.80	359.14	17.71	
2025-01-15 17:45:07.02	358.98	17.57	
2025-01-15 17:45:08.24	358.83	17.43	
2025-01-15 17:45:09.46	358.68	17.29	
2025-01-15 17:45:10.68	358.53	17.15	
2025-01-15 17:45:11.89	358.38	17.01	
2025-01-15 17:45:13.11	358.24	16.87	
2025-01-15 17:45:14.33	358.09	16.74	
2025-01-15 17:45:15.55	357.95	16.60	
2025-01-15 17:45:16.77	357.81	16.47	
2025-01-15 17:45:17.99	357.67	16.33	
2025-01-15 17:45:19.21	357.53	16.20	
2025-01-15 17:45:20.42	357.39	16.06	
2025-01-15 17:45:21.64	357.26	15.93	
2025-01-15 17:45:22.86	357.12	15.80	
2025-01-15 17:45:24.08	356.99	15.67	
2025-01-15 17:45:25.30	356.85	15.53	
2025-01-15 17:45:26.52	356.72	15.40	
2025-01-15 17:45:27.73	356.59	15.28	
2025-01-15 17:45:28.95	356.47	15.15	
2025-01-15 17:45:30.17	356.34	15.02	
2025-01-15 17:45:31.39	356.21	14.89	
2025-01-15 17:45:32.61	356.09	14.76	
2025-01-15 17:45:33.83	355.96	14.63	
2025-01-15 17:45:35.04	355.84	14.51	
2025-01-15 17:45:36.26	355.72	14.38	
2025-01-15 17:45:37.48	355.60	14.26	
2025-01-15 17:45:38.70	355.48	14.13	
2025-01-15 17:45:39.92	355.36	14.01	
2025-01-15 17:45:41.14	355.24	13.89	
2025-01-15 17:45:42.36	355.13	13.76	
2025-01-15 17:45:43.57	355.01	13.64	
2025-01-15 17:45:44.79	354.90	13.52	
2025-01-15 17:45:46.01	354.79	13.40	
2025-01-15 17:45:47.23	354.68	13.28	
2025-01-15 17:45:48.45	354.56	13.16	
2025-01-15 17:45:49.67	354.45	13.04	
2025-01-15 17:45:50.88	354.35	12.92	
2025-01-15 17:45:52.10	354.24	12.80	
2025-01-15 17:45:53.32	354.13	12.69	
2025-01-15 17:45:54.54	354.03	12.57	
2025-01-15 17:45:55.76	353.92	12.45	
2025-01-15 17:45:56.98	353.82	12.34	
2025-01-15 17:45:58.20	353.71	12.22	
2025-01-15 17:45:59.41	353.61	12.11	
2025-01-15 17:46:00.63	353.51	11.99	
2025-01-15 17:46:01.85	353.41	11.88	
2025-01-15 17:46:03.07	353.31	11.76	
2025-01-15 17:46:04.29	353.21	11.65	
2025-01-15 17:46:05.51	353.11	11.54	
2025-01-15 17:46:06.72	353.02	11.43	
2025-01-15 17:46:07.94	352.92	11.31	
2025-01-15 17:46:09.16	352.82	11.20	
2025-01-15 17:46:10.38	352.73	11.09	
2025-01-15 17:46:11.60	352.64	10.98	
2025-01-15 17:46:12.82	352.54	10.87	
2025-01-15 17:46:14.04	352.45	10.76	
2025-01-15 17:46:15.25	352.36	10.65	
2025-01-15 17:46:16.47	352.27	10.55	
2025-01-15 17:46:17.69	352.18	10.44	
2025-01-15 17:46:18.91	352.09	10.33	
2025-01-15 17:46:20.13	352.00	10.22	
2025-01-15 17:46:21.35	351.91	10.12	
2025-01-15 17:46:22.56	351.83	10.01	
2025-01-15 17:46:23.78	351.74	9.91	
2025-01-15 17:46:25.00	351.65	9.80	
2025-01-15 17:46:26.22	351.57	9.70	
2025-01-15 17:46:27.44	351.48	9.59	
2025-01-15 17:46:28.66	351.40	9.49	
2025-01-15 17:46:29.88	351.32	9.38	
2025-01-15 17:46:31.09	351.24	9.28	
2025-01-15 17:46:32.31	351.15	9.18	
2025-01-15 17:46:33.53	351.07	9.08	
2025-01-15 17:46:34.75	350.99	8.97	
2025-01-15 17:46:35.97	350.91	8.87	
2025-01-15 17:46:37.19	350.83	8.77	
2025-01-15 17:46:38.40	350.76	8.67	
2025-01-15 17:46:39.62	350.68	8.57	
2025-01-15 17:46:40.84	350.60	8.47	
2025-01-15 17:46:42.06	350.53	8.37	
2025-01-15 17:46:43.28	350.45	8.27	
2025-01-15 17:46:44.50	350.37	8.17	
2025-01-15 17:46:45.71	350.30	8.08	
2025-01-15 17:46:46.93	350.23	7.98	
2025-01-15 17:46:48.15	350.15	7.88	
2025-01-15 17:46:49.37	350.08	7.78	
2025-01-15 17:46:50.59	350.01	7.69	
2025-01-15 17:46:51.81	349.93	7.59	
2025-01-15 17:46:53.03	349.86	7.50	
2025-01-15 17:46:54.24	349.79	7.40	
2025-01-15 17:46:55.46	349.72	7.30	
2025-01-15 17:46:56.68	349.65	7.21	
2025-01-15 17:46:57.90	349.58	7.11	
2025-01-15 17:46:59.12	349.51	7.02	
2025-01-15 17:47:00.34	349.45	6.93	
2025-01-15 17:47:01.55	349.38	6.83	
2025-01-15 17:47:02.77	349.31	6.74	
2025-01-15 17:47:03.99	349.24	6.65	
2025-01-15 17:47:05.21	349.18	6.55	
2025-01-15 17:47:06.43	349.11	6.46	
2025-01-15 17:47:07.65	349.05	6.37	
2025-01-15 17:47:08.87	348.98	6.28	
2025-01-15 17:47:10.08	348.92	6.19	
2025-01-15 17:47:11.30	348.85	6.10	
2025-01-15 17:47:12.52	348.79	6.01	
2025-01-15 17:47:13.74	348.73	5.92	
2025-01-15 17:47:14.96	348.67	5.83	
2025-01-15 17:47:16.18	348.60	5.74	
2025-01-15 17:47:17.39	348.54	5.65	
2025-01-15 17:47:18.61	348.48	5.56	
2025-01-15 17:47:19.83	348.42	5.47	
2025-01-15 17:47:21.05	348.36	5.38	
2025-01-15 17:47:22.27	348.30	5.29	
2025-01-15 17:47:23.49	348.24	5.20	
2025-01-15 17:47:24.71	348.18	5.12	
2025-01-15 17:47:25.92	348.12	5.03	
2025-01-15 17:47:27.14	348.07	4.94	
2025-01-15 17:47:28.36	348.01	4.86	
2025-01-15 17:47:29.58	347.95	4.77	
2025-01-15 17:47:30.80	347.89	4.68	
2025-01-15 17:47:32.02	347.84	4.60	
2025-01-15 17:47:33.23	347.78	4.51	
2025-01-15 17:47:34.45	347.73	4.43	
2025-01-15 17:47:35.67	347.67	4.34	
2025-01-15 17:47:36.89	347.62	4.26	
2025-01-15 17:47:38.11	347.56	4.17	
2025-01-15 17:47:39.33	347.51	4.09	
2025-01-15 17:47:40.55	347.45	4.00	

#Closed at: 2025-01-15 17:47:40