passes_logs/2025/01/15/SPB_Silybum_02/SPB_Silybum_02__20250115_100542_SUOMI_NPP_rec.log

#Pass ID: 20250115_100542_SUOMI NPP
#Satellite: SUOMI NPP
#Configuration: NPP
#Start time: 2025-01-15 10:07:19

#Version: 2.0.20230423
#Station: SPB_Silybum_02
#Location: 30.233357 lon 59.946436 lat
#TLE: 1 37849U 11061A   25014.84938308  .00000162  00000+0  97809-4 0  9990
#TLE: 2 37849  98.7446 315.8398 0001684  41.2466 318.8837 14.19538097684890

#Time	Az	El	Level	Level2	SNR	BER	Gain	Gain2
2025-01-15 10:07:21.37	153.40	11.89	
2025-01-15 10:07:22.59	153.38	12.00	
2025-01-15 10:07:23.81	153.37	12.12	
2025-01-15 10:07:25.03	153.36	12.24	
2025-01-15 10:07:26.24	153.35	12.35	
2025-01-15 10:07:27.46	153.33	12.47	
2025-01-15 10:07:28.68	153.32	12.59	
2025-01-15 10:07:29.90	153.31	12.71	
2025-01-15 10:07:31.11	153.29	12.82	
2025-01-15 10:07:32.33	153.28	12.94	
2025-01-15 10:07:33.55	153.27	13.06	
2025-01-15 10:07:34.77	153.25	13.18	
2025-01-15 10:07:35.99	153.24	13.31	
2025-01-15 10:07:37.20	153.22	13.43	
2025-01-15 10:07:38.42	153.21	13.55	
2025-01-15 10:07:39.64	153.20	13.67	
2025-01-15 10:07:40.86	153.18	13.80	
2025-01-15 10:07:42.07	153.17	13.92	
2025-01-15 10:07:43.29	153.15	14.05	
2025-01-15 10:07:44.51	153.14	14.17	
2025-01-15 10:07:45.73	153.12	14.30	
2025-01-15 10:07:46.94	153.11	14.42	
2025-01-15 10:07:48.16	153.09	14.55	
2025-01-15 10:07:49.38	153.07	14.68	
2025-01-15 10:07:50.60	153.06	14.81	
2025-01-15 10:07:51.82	153.04	14.94	
2025-01-15 10:07:53.03	153.03	15.07	
2025-01-15 10:07:54.25	153.01	15.20	
2025-01-15 10:07:55.47	152.99	15.33	
2025-01-15 10:07:56.69	152.98	15.47	
2025-01-15 10:07:57.90	152.96	15.60	
2025-01-15 10:07:59.12	152.94	15.73	
2025-01-15 10:08:00.34	152.93	15.87	
2025-01-15 10:08:01.56	152.91	16.00	
2025-01-15 10:08:02.77	152.89	16.14	
2025-01-15 10:08:03.99	152.87	16.28	
2025-01-15 10:08:05.21	152.85	16.41	
2025-01-15 10:08:06.43	152.84	16.55	
2025-01-15 10:08:07.65	152.82	16.69	
2025-01-15 10:08:08.86	152.80	16.83	
2025-01-15 10:08:10.08	152.78	16.97	
2025-01-15 10:08:11.30	152.76	17.12	
2025-01-15 10:08:12.52	152.74	17.26	
2025-01-15 10:08:13.73	152.72	17.40	
2025-01-15 10:08:14.95	152.70	17.55	
2025-01-15 10:08:16.17	152.68	17.69	
2025-01-15 10:08:17.39	152.66	17.84	
2025-01-15 10:08:18.61	152.64	17.98	
2025-01-15 10:08:19.82	152.62	18.13	
2025-01-15 10:08:21.04	152.60	18.28	
2025-01-15 10:08:22.26	152.58	18.43	
2025-01-15 10:08:23.48	152.56	18.58	
2025-01-15 10:08:24.69	152.54	18.73	
2025-01-15 10:08:25.91	152.51	18.88	
2025-01-15 10:08:27.13	152.49	19.04	
2025-01-15 10:08:28.35	152.47	19.19	
2025-01-15 10:08:29.56	152.45	19.34	
2025-01-15 10:08:30.78	152.42	19.50	
2025-01-15 10:08:32.00	152.40	19.66	
2025-01-15 10:08:33.22	152.38	19.82	
2025-01-15 10:08:34.44	152.35	19.98	
2025-01-15 10:08:35.65	152.33	20.13	
2025-01-15 10:08:36.87	152.31	20.30	
2025-01-15 10:08:38.09	152.28	20.46	
2025-01-15 10:08:39.31	152.26	20.62	
2025-01-15 10:08:40.52	152.23	20.79	
2025-01-15 10:08:41.74	152.21	20.95	
2025-01-15 10:08:42.96	152.18	21.12	
2025-01-15 10:08:44.18	152.15	21.29	
2025-01-15 10:08:45.39	152.13	21.45	
2025-01-15 10:08:46.61	152.10	21.62	
2025-01-15 10:08:47.83	152.07	21.79	
2025-01-15 10:08:49.05	152.05	21.97	
2025-01-15 10:08:50.27	152.02	22.14	
2025-01-15 10:08:51.48	151.99	22.31	
2025-01-15 10:08:52.70	151.96	22.49	
2025-01-15 10:08:53.92	151.93	22.67	
2025-01-15 10:08:55.14	151.90	22.84	
2025-01-15 10:08:56.35	151.87	23.02	
2025-01-15 10:08:57.57	151.84	23.20	
2025-01-15 10:08:58.79	151.81	23.39	
2025-01-15 10:09:00.01	151.78	23.57	
2025-01-15 10:09:01.22	151.75	23.75	
2025-01-15 10:09:02.44	151.72	23.94	
2025-01-15 10:09:03.66	151.69	24.12	
2025-01-15 10:09:04.88	151.65	24.31	
2025-01-15 10:09:06.10	151.62	24.50	
2025-01-15 10:09:07.31	151.59	24.69	
2025-01-15 10:09:08.53	151.55	24.89	
2025-01-15 10:09:09.75	151.52	25.08	
2025-01-15 10:09:10.97	151.48	25.28	
2025-01-15 10:09:12.18	151.45	25.47	
2025-01-15 10:09:13.40	151.41	25.67	
2025-01-15 10:09:14.62	151.38	25.87	
2025-01-15 10:09:15.84	151.34	26.07	
2025-01-15 10:09:17.05	151.30	26.27	
2025-01-15 10:09:18.27	151.27	26.48	
2025-01-15 10:09:19.49	151.23	26.68	
2025-01-15 10:09:20.71	151.19	26.89	
2025-01-15 10:09:21.93	151.15	27.10	
2025-01-15 10:09:23.14	151.11	27.31	
2025-01-15 10:09:24.36	151.07	27.52	
2025-01-15 10:09:25.58	151.03	27.73	
2025-01-15 10:09:26.80	150.98	27.95	
2025-01-15 10:09:28.01	150.94	28.16	
2025-01-15 10:09:29.23	150.90	28.38	
2025-01-15 10:09:30.45	150.86	28.60	
2025-01-15 10:09:31.67	150.81	28.83	
2025-01-15 10:09:32.89	150.77	29.05	
2025-01-15 10:09:34.10	150.72	29.27	
2025-01-15 10:09:35.32	150.67	29.50	
2025-01-15 10:09:36.54	150.63	29.73	
2025-01-15 10:09:37.76	150.58	29.96	
2025-01-15 10:09:38.97	150.53	30.19	
2025-01-15 10:09:40.19	150.48	30.43	
2025-01-15 10:09:41.41	150.43	30.67	
2025-01-15 10:09:42.63	150.38	30.91	
2025-01-15 10:09:43.84	150.33	31.14	
2025-01-15 10:09:45.06	150.28	31.39	
2025-01-15 10:09:46.28	150.22	31.63	
2025-01-15 10:09:47.50	150.17	31.88	
2025-01-15 10:09:48.72	150.11	32.13	
2025-01-15 10:09:49.93	150.06	32.38	
2025-01-15 10:09:51.15	150.00	32.63	
2025-01-15 10:09:52.37	149.94	32.88	
2025-01-15 10:09:53.59	149.88	33.14	
2025-01-15 10:09:54.80	149.82	33.40	
2025-01-15 10:09:56.02	149.76	33.66	
2025-01-15 10:09:57.24	149.70	33.92	
2025-01-15 10:09:58.46	149.64	34.19	
2025-01-15 10:09:59.67	149.57	34.46	
2025-01-15 10:10:00.89	149.51	34.73	
2025-01-15 10:10:02.11	149.44	35.00	
2025-01-15 10:10:03.33	149.37	35.27	
2025-01-15 10:10:04.55	149.30	35.55	
2025-01-15 10:10:05.76	149.23	35.83	
2025-01-15 10:10:06.98	149.16	36.11	
2025-01-15 10:10:08.20	149.09	36.40	
2025-01-15 10:10:09.42	149.01	36.68	
2025-01-15 10:10:10.63	148.94	36.97	
2025-01-15 10:10:11.85	148.86	37.26	
2025-01-15 10:10:13.07	148.78	37.56	
2025-01-15 10:10:14.29	148.70	37.86	
2025-01-15 10:10:15.50	148.62	38.15	
2025-01-15 10:10:16.72	148.54	38.46	
2025-01-15 10:10:17.94	148.45	38.76	
2025-01-15 10:10:19.16	148.37	39.07	
2025-01-15 10:10:20.38	148.28	39.38	
2025-01-15 10:10:21.59	148.19	39.69	
2025-01-15 10:10:22.81	148.10	40.00	
2025-01-15 10:10:24.03	148.01	40.32	
2025-01-15 10:10:25.25	147.91	40.64	
2025-01-15 10:10:26.46	147.81	40.97	
2025-01-15 10:10:27.68	147.71	41.29	
2025-01-15 10:10:28.90	147.61	41.62	
2025-01-15 10:10:30.12	147.51	41.96	
2025-01-15 10:10:31.34	147.40	42.29	
2025-01-15 10:10:32.55	147.29	42.63	
2025-01-15 10:10:33.77	147.18	42.97	
2025-01-15 10:10:34.99	147.07	43.31	
2025-01-15 10:10:36.21	146.95	43.66	
2025-01-15 10:10:37.42	146.84	44.01	
2025-01-15 10:10:38.64	146.71	44.36	
2025-01-15 10:10:39.86	146.59	44.72	
2025-01-15 10:10:41.08	146.46	45.08	
2025-01-15 10:10:42.29	146.33	45.44	
2025-01-15 10:10:43.51	146.20	45.80	
2025-01-15 10:10:44.73	146.06	46.17	
2025-01-15 10:10:45.95	145.92	46.55	
2025-01-15 10:10:47.17	145.78	46.92	
2025-01-15 10:10:48.38	145.64	47.30	
2025-01-15 10:10:49.60	145.48	47.68	
2025-01-15 10:10:50.82	145.33	48.06	
2025-01-15 10:10:52.04	145.17	48.45	
2025-01-15 10:10:53.25	145.01	48.84	
2025-01-15 10:10:54.47	144.84	49.23	
2025-01-15 10:10:55.69	144.67	49.63	
2025-01-15 10:10:56.91	144.50	50.03	
2025-01-15 10:10:58.12	144.32	50.43	
2025-01-15 10:10:59.34	144.13	50.84	
2025-01-15 10:11:00.56	143.94	51.25	
2025-01-15 10:11:01.78	143.75	51.67	
2025-01-15 10:11:03.00	143.54	52.08	
2025-01-15 10:11:04.21	143.34	52.50	
2025-01-15 10:11:05.43	143.12	52.92	
2025-01-15 10:11:06.65	142.90	53.35	
2025-01-15 10:11:07.87	142.68	53.78	
2025-01-15 10:11:09.08	142.44	54.21	
2025-01-15 10:11:10.30	142.20	54.65	
2025-01-15 10:11:11.52	141.95	55.09	
2025-01-15 10:11:12.74	141.70	55.53	
2025-01-15 10:11:13.95	141.43	55.97	
2025-01-15 10:11:15.17	141.16	56.42	
2025-01-15 10:11:16.39	140.88	56.87	
2025-01-15 10:11:17.61	140.59	57.32	
2025-01-15 10:11:18.83	140.28	57.78	
2025-01-15 10:11:20.04	139.97	58.24	
2025-01-15 10:11:21.26	139.65	58.70	
2025-01-15 10:11:22.48	139.31	59.17	
2025-01-15 10:11:23.70	138.96	59.63	
2025-01-15 10:11:24.91	138.61	60.10	
2025-01-15 10:11:26.13	138.23	60.57	
2025-01-15 10:11:27.35	137.84	61.05	
2025-01-15 10:11:28.57	137.44	61.53	
2025-01-15 10:11:29.79	137.02	62.01	
2025-01-15 10:11:31.00	136.58	62.48	
2025-01-15 10:11:32.22	136.13	62.97	
2025-01-15 10:11:33.44	135.65	63.45	
2025-01-15 10:11:34.66	135.16	63.94	
2025-01-15 10:11:35.87	134.65	64.42	
2025-01-15 10:11:37.09	134.11	64.91	
2025-01-15 10:11:38.31	133.55	65.40	
2025-01-15 10:11:39.53	132.96	65.90	
2025-01-15 10:11:40.74	132.35	66.38	
2025-01-15 10:11:41.96	131.70	66.88	
2025-01-15 10:11:43.18	131.03	67.37	
2025-01-15 10:11:44.40	130.32	67.86	
2025-01-15 10:11:45.62	129.58	68.35	
2025-01-15 10:11:46.83	128.80	68.84	
2025-01-15 10:11:48.05	127.98	69.33	
2025-01-15 10:11:49.27	127.12	69.82	
2025-01-15 10:11:50.49	126.21	70.30	
2025-01-15 10:11:51.70	125.26	70.78	
2025-01-15 10:11:52.92	124.25	71.26	
2025-01-15 10:11:54.14	123.18	71.74	
2025-01-15 10:11:55.36	122.05	72.21	
2025-01-15 10:11:56.57	120.87	72.67	
2025-01-15 10:11:57.79	119.61	73.14	
2025-01-15 10:11:59.01	118.27	73.59	
2025-01-15 10:12:00.23	116.85	74.04	
2025-01-15 10:12:01.45	115.35	74.48	
2025-01-15 10:12:02.66	113.78	74.90	
2025-01-15 10:12:03.88	112.09	75.32	
2025-01-15 10:12:05.10	110.30	75.73	
2025-01-15 10:12:06.32	108.41	76.13	
2025-01-15 10:12:07.53	106.42	76.50	
2025-01-15 10:12:08.75	104.29	76.87	
2025-01-15 10:12:09.97	102.04	77.21	
2025-01-15 10:12:11.19	99.67	77.54	
2025-01-15 10:12:12.40	97.19	77.84	
2025-01-15 10:12:13.62	94.57	78.13	
2025-01-15 10:12:14.84	91.82	78.38	
2025-01-15 10:12:16.06	88.95	78.61	
2025-01-15 10:12:17.28	85.97	78.81	
2025-01-15 10:12:18.49	82.91	78.98	
2025-01-15 10:12:19.71	79.73	79.12	
2025-01-15 10:12:20.93	76.48	79.23	
2025-01-15 10:12:22.15	73.18	79.30	
2025-01-15 10:12:23.36	69.87	79.33	
2025-01-15 10:12:24.58	66.52	79.33	
2025-01-15 10:12:25.80	63.18	79.30	
2025-01-15 10:12:27.02	59.88	79.23	
2025-01-15 10:12:28.24	56.64	79.12	
2025-01-15 10:12:29.45	53.49	78.98	
2025-01-15 10:12:30.67	50.41	78.81	
2025-01-15 10:12:31.89	47.43	78.61	
2025-01-15 10:12:33.11	44.56	78.38	
2025-01-15 10:12:34.32	41.84	78.12	
2025-01-15 10:12:35.54	39.22	77.84	
2025-01-15 10:12:36.76	36.72	77.53	
2025-01-15 10:12:37.98	34.35	77.21	
2025-01-15 10:12:39.19	32.13	76.86	
2025-01-15 10:12:40.41	30.01	76.50	
2025-01-15 10:12:41.63	28.01	76.12	
2025-01-15 10:12:42.85	26.11	75.73	
2025-01-15 10:12:44.07	24.33	75.32	
2025-01-15 10:12:45.28	22.66	74.90	
2025-01-15 10:12:46.50	21.07	74.47	
2025-01-15 10:12:47.72	19.58	74.03	
2025-01-15 10:12:48.94	18.16	73.59	
2025-01-15 10:12:50.15	16.84	73.14	
2025-01-15 10:12:51.37	15.58	72.67	
2025-01-15 10:12:52.59	14.39	72.21	
2025-01-15 10:12:53.81	13.26	71.74	
2025-01-15 10:12:55.02	12.21	71.26	
2025-01-15 10:12:56.24	11.20	70.78	
2025-01-15 10:12:57.46	10.24	70.30	
2025-01-15 10:12:58.68	9.33	69.82	
2025-01-15 10:12:59.90	8.47	69.33	
2025-01-15 10:13:01.11	7.66	68.85	
2025-01-15 10:13:02.33	6.88	68.36	
2025-01-15 10:13:03.55	6.14	67.87	
2025-01-15 10:13:04.77	5.43	67.38	
2025-01-15 10:13:05.98	4.76	66.89	
2025-01-15 10:13:07.20	4.12	66.40	
2025-01-15 10:13:08.42	3.50	65.91	
2025-01-15 10:13:09.64	2.92	65.42	
2025-01-15 10:13:10.85	2.36	64.93	
2025-01-15 10:13:12.07	1.82	64.44	
2025-01-15 10:13:13.29	1.31	63.96	
2025-01-15 10:13:14.51	0.81	63.47	
2025-01-15 10:13:15.73	0.34	62.99	
2025-01-15 10:13:16.94	359.89	62.51	
2025-01-15 10:13:18.16	359.45	62.03	
2025-01-15 10:13:19.38	359.03	61.55	
2025-01-15 10:13:20.60	358.63	61.07	
2025-01-15 10:13:21.81	358.24	60.60	
2025-01-15 10:13:23.03	357.87	60.13	
2025-01-15 10:13:24.25	357.51	59.66	
2025-01-15 10:13:25.47	357.16	59.20	
2025-01-15 10:13:26.68	356.83	58.74	
2025-01-15 10:13:27.90	356.51	58.27	
2025-01-15 10:13:29.12	356.19	57.82	
2025-01-15 10:13:30.34	355.89	57.36	
2025-01-15 10:13:31.56	355.60	56.91	
2025-01-15 10:13:32.77	355.32	56.46	
2025-01-15 10:13:33.99	355.05	56.01	
2025-01-15 10:13:35.21	354.78	55.57	
2025-01-15 10:13:36.43	354.52	55.13	
2025-01-15 10:13:37.64	354.28	54.69	
2025-01-15 10:13:38.86	354.04	54.26	
2025-01-15 10:13:40.08	353.80	53.83	
2025-01-15 10:13:41.30	353.58	53.40	
2025-01-15 10:13:42.52	353.36	52.97	
2025-01-15 10:13:43.73	353.15	52.56	
2025-01-15 10:13:44.95	352.94	52.14	
2025-01-15 10:13:46.17	352.74	51.72	
2025-01-15 10:13:47.39	352.54	51.31	
2025-01-15 10:13:48.60	352.35	50.90	
2025-01-15 10:13:49.82	352.17	50.50	
2025-01-15 10:13:51.04	351.99	50.09	
2025-01-15 10:13:52.26	351.81	49.69	
2025-01-15 10:13:53.47	351.64	49.30	
2025-01-15 10:13:54.69	351.48	48.91	
2025-01-15 10:13:55.91	351.31	48.52	
2025-01-15 10:13:57.13	351.16	48.13	
2025-01-15 10:13:58.35	351.00	47.75	
2025-01-15 10:13:59.56	350.85	47.37	
2025-01-15 10:14:00.78	350.71	46.99	
2025-01-15 10:14:02.00	350.56	46.62	
2025-01-15 10:14:03.22	350.43	46.25	
2025-01-15 10:14:04.43	350.29	45.88	
2025-01-15 10:14:05.65	350.16	45.52	
2025-01-15 10:14:06.87	350.03	45.16	
2025-01-15 10:14:08.09	349.90	44.80	
2025-01-15 10:14:09.30	349.78	44.45	
2025-01-15 10:14:10.52	349.66	44.09	
2025-01-15 10:14:11.74	349.54	43.75	
2025-01-15 10:14:12.96	349.42	43.40	
2025-01-15 10:14:14.18	349.31	43.06	
2025-01-15 10:14:15.39	349.20	42.72	
2025-01-15 10:14:16.61	349.09	42.38	
2025-01-15 10:14:17.83	348.99	42.05	
2025-01-15 10:14:19.05	348.88	41.72	
2025-01-15 10:14:20.26	348.78	41.39	
2025-01-15 10:14:21.48	348.68	41.06	
2025-01-15 10:14:22.70	348.59	40.74	
2025-01-15 10:14:23.92	348.49	40.42	
2025-01-15 10:14:25.13	348.40	40.11	
2025-01-15 10:14:26.35	348.31	39.79	
2025-01-15 10:14:27.57	348.22	39.48	
2025-01-15 10:14:28.79	348.13	39.17	
2025-01-15 10:14:30.01	348.04	38.86	
2025-01-15 10:14:31.22	347.96	38.56	
2025-01-15 10:14:32.44	347.88	38.26	
2025-01-15 10:14:33.66	347.80	37.96	
2025-01-15 10:14:34.88	347.72	37.66	
2025-01-15 10:14:36.09	347.64	37.37	
2025-01-15 10:14:37.31	347.56	37.08	
2025-01-15 10:14:38.53	347.49	36.79	
2025-01-15 10:14:39.75	347.41	36.51	
2025-01-15 10:14:40.97	347.34	36.22	
2025-01-15 10:14:42.18	347.27	35.95	
2025-01-15 10:14:43.40	347.20	35.67	
2025-01-15 10:14:44.62	347.13	35.39	
2025-01-15 10:14:45.84	347.07	35.12	
2025-01-15 10:14:47.05	347.00	34.85	
2025-01-15 10:14:48.27	346.94	34.58	
2025-01-15 10:14:49.49	346.87	34.31	
2025-01-15 10:14:50.71	346.81	34.04	
2025-01-15 10:14:51.92	346.75	33.78	
2025-01-15 10:14:53.14	346.69	33.52	
2025-01-15 10:14:54.36	346.63	33.26	
2025-01-15 10:14:55.58	346.57	33.01	
2025-01-15 10:14:56.80	346.51	32.75	
2025-01-15 10:14:58.01	346.46	32.50	
2025-01-15 10:14:59.23	346.40	32.25	
2025-01-15 10:15:00.45	346.34	32.01	
2025-01-15 10:15:01.67	346.29	31.76	
2025-01-15 10:15:02.88	346.24	31.52	
2025-01-15 10:15:04.10	346.19	31.28	
2025-01-15 10:15:05.32	346.13	31.04	
2025-01-15 10:15:06.54	346.08	30.80	
2025-01-15 10:15:07.75	346.03	30.56	
2025-01-15 10:15:08.97	345.99	30.33	
2025-01-15 10:15:10.19	345.94	30.10	
2025-01-15 10:15:11.41	345.89	29.87	
2025-01-15 10:15:12.63	345.84	29.64	
2025-01-15 10:15:13.84	345.80	29.41	
2025-01-15 10:15:15.06	345.75	29.19	
2025-01-15 10:15:16.28	345.71	28.96	
2025-01-15 10:15:17.50	345.66	28.74	
2025-01-15 10:15:18.71	345.62	28.52	
2025-01-15 10:15:19.93	345.58	28.31	
2025-01-15 10:15:21.15	345.54	28.09	
2025-01-15 10:15:22.37	345.50	27.87	
2025-01-15 10:15:23.58	345.46	27.66	
2025-01-15 10:15:24.80	345.42	27.45	
2025-01-15 10:15:26.02	345.38	27.24	
2025-01-15 10:15:27.24	345.34	27.03	
2025-01-15 10:15:28.46	345.30	26.83	
2025-01-15 10:15:29.67	345.26	26.62	
2025-01-15 10:15:30.89	345.22	26.42	
2025-01-15 10:15:32.11	345.19	26.22	
2025-01-15 10:15:33.33	345.15	26.02	
2025-01-15 10:15:34.54	345.12	25.82	
2025-01-15 10:15:35.76	345.08	25.62	
2025-01-15 10:15:36.98	345.05	25.42	
2025-01-15 10:15:38.20	345.01	25.23	
2025-01-15 10:15:39.42	344.98	25.04	
2025-01-15 10:15:40.63	344.94	24.84	
2025-01-15 10:15:41.85	344.91	24.65	
2025-01-15 10:15:43.07	344.88	24.46	
2025-01-15 10:15:44.29	344.85	24.28	
2025-01-15 10:15:45.50	344.82	24.09	
2025-01-15 10:15:46.72	344.79	23.91	
2025-01-15 10:15:47.94	344.75	23.72	
2025-01-15 10:15:49.16	344.72	23.54	
2025-01-15 10:15:50.37	344.69	23.36	
2025-01-15 10:15:51.59	344.67	23.18	
2025-01-15 10:15:52.81	344.64	23.00	
2025-01-15 10:15:54.03	344.61	22.82	
2025-01-15 10:15:55.25	344.58	22.65	
2025-01-15 10:15:56.46	344.55	22.47	
2025-01-15 10:15:57.68	344.52	22.30	
2025-01-15 10:15:58.90	344.50	22.13	
2025-01-15 10:16:00.12	344.47	21.95	
2025-01-15 10:16:01.33	344.44	21.78	
2025-01-15 10:16:02.55	344.42	21.61	
2025-01-15 10:16:03.77	344.39	21.45	
2025-01-15 10:16:04.99	344.37	21.28	
2025-01-15 10:16:06.20	344.34	21.11	
2025-01-15 10:16:07.42	344.32	20.95	
2025-01-15 10:16:08.64	344.29	20.78	
2025-01-15 10:16:09.86	344.27	20.62	
2025-01-15 10:16:11.08	344.24	20.46	
2025-01-15 10:16:12.29	344.22	20.30	
2025-01-15 10:16:13.51	344.20	20.14	
2025-01-15 10:16:14.73	344.17	19.98	
2025-01-15 10:16:15.95	344.15	19.82	
2025-01-15 10:16:17.16	344.13	19.67	
2025-01-15 10:16:18.38	344.11	19.51	
2025-01-15 10:16:19.60	344.09	19.36	
2025-01-15 10:16:20.82	344.06	19.20	
2025-01-15 10:16:22.03	344.04	19.05	
2025-01-15 10:16:23.25	344.02	18.90	
2025-01-15 10:16:24.47	344.00	18.75	
2025-01-15 10:16:25.69	343.98	18.60	
2025-01-15 10:16:26.91	343.96	18.45	
2025-01-15 10:16:28.12	343.94	18.30	
2025-01-15 10:16:29.34	343.92	18.15	
2025-01-15 10:16:30.56	343.90	18.01	
2025-01-15 10:16:31.78	343.88	17.86	
2025-01-15 10:16:32.99	343.86	17.72	
2025-01-15 10:16:34.21	343.84	17.57	
2025-01-15 10:16:35.43	343.82	17.43	
2025-01-15 10:16:36.65	343.81	17.29	
2025-01-15 10:16:37.87	343.79	17.15	
2025-01-15 10:16:39.08	343.77	17.01	
2025-01-15 10:16:40.30	343.75	16.87	
2025-01-15 10:16:41.52	343.73	16.73	
2025-01-15 10:16:42.74	343.72	16.59	
2025-01-15 10:16:43.95	343.70	16.45	
2025-01-15 10:16:45.17	343.68	16.31	
2025-01-15 10:16:46.39	343.67	16.18	
2025-01-15 10:16:47.61	343.65	16.04	
2025-01-15 10:16:48.82	343.63	15.91	
2025-01-15 10:16:50.04	343.62	15.78	
2025-01-15 10:16:51.26	343.60	15.64	
2025-01-15 10:16:52.48	343.58	15.51	
2025-01-15 10:16:53.70	343.57	15.38	
2025-01-15 10:16:54.91	343.55	15.25	
2025-01-15 10:16:56.13	343.54	15.12	
2025-01-15 10:16:57.35	343.52	14.99	
2025-01-15 10:16:58.57	343.51	14.86	
2025-01-15 10:16:59.78	343.49	14.73	
2025-01-15 10:17:01.00	343.48	14.60	
2025-01-15 10:17:02.22	343.46	14.48	
2025-01-15 10:17:03.44	343.45	14.35	
2025-01-15 10:17:04.65	343.44	14.23	
2025-01-15 10:17:05.87	343.42	14.10	
2025-01-15 10:17:07.09	343.41	13.98	
2025-01-15 10:17:08.31	343.39	13.85	
2025-01-15 10:17:09.53	343.38	13.73	
2025-01-15 10:17:10.74	343.37	13.61	
2025-01-15 10:17:11.96	343.35	13.49	
2025-01-15 10:17:13.18	343.34	13.37	
2025-01-15 10:17:14.40	343.33	13.25	
2025-01-15 10:17:15.61	343.32	13.13	
2025-01-15 10:17:16.83	343.30	13.01	
2025-01-15 10:17:18.05	343.29	12.89	
2025-01-15 10:17:19.27	343.28	12.77	
2025-01-15 10:17:20.48	343.27	12.65	
2025-01-15 10:17:21.70	343.25	12.54	
2025-01-15 10:17:22.92	343.24	12.42	
2025-01-15 10:17:24.14	343.23	12.30	
2025-01-15 10:17:25.36	343.22	12.19	
2025-01-15 10:17:26.57	343.21	12.07	
2025-01-15 10:17:27.79	343.20	11.96	
2025-01-15 10:17:29.01	343.19	11.85	
2025-01-15 10:17:30.23	343.17	11.73	
2025-01-15 10:17:31.44	343.16	11.62	
2025-01-15 10:17:32.66	343.15	11.51	
2025-01-15 10:17:33.88	343.14	11.40	
2025-01-15 10:17:35.10	343.13	11.28	
2025-01-15 10:17:36.32	343.12	11.17	
2025-01-15 10:17:37.53	343.11	11.06	
2025-01-15 10:17:38.75	343.10	10.95	
2025-01-15 10:17:39.97	343.09	10.85	
2025-01-15 10:17:41.19	343.08	10.74	
2025-01-15 10:17:42.40	343.07	10.63	
2025-01-15 10:17:43.62	343.06	10.52	
2025-01-15 10:17:44.84	343.05	10.41	
2025-01-15 10:17:46.06	343.04	10.31	
2025-01-15 10:17:47.27	343.03	10.20	
2025-01-15 10:17:48.49	343.02	10.09	
2025-01-15 10:17:49.71	343.01	9.99	
2025-01-15 10:17:50.93	343.00	9.88	
2025-01-15 10:17:52.15	342.99	9.78	
2025-01-15 10:17:53.36	342.98	9.68	
2025-01-15 10:17:54.58	342.98	9.57	
2025-01-15 10:17:55.80	342.97	9.47	
2025-01-15 10:17:57.02	342.96	9.37	
2025-01-15 10:17:58.23	342.95	9.26	
2025-01-15 10:17:59.45	342.94	9.16	
2025-01-15 10:18:00.67	342.93	9.06	
2025-01-15 10:18:01.89	342.92	8.96	
2025-01-15 10:18:03.10	342.92	8.86	
2025-01-15 10:18:04.32	342.91	8.76	
2025-01-15 10:18:05.54	342.90	8.66	
2025-01-15 10:18:06.76	342.89	8.56	
2025-01-15 10:18:07.98	342.88	8.46	
2025-01-15 10:18:09.19	342.88	8.36	
2025-01-15 10:18:10.41	342.87	8.26	
2025-01-15 10:18:11.63	342.86	8.16	
2025-01-15 10:18:12.85	342.85	8.07	
2025-01-15 10:18:14.06	342.85	7.97	
2025-01-15 10:18:15.28	342.84	7.87	
2025-01-15 10:18:16.50	342.83	7.78	
2025-01-15 10:18:17.72	342.83	7.68	
2025-01-15 10:18:18.93	342.82	7.58	
2025-01-15 10:18:20.15	342.81	7.49	
2025-01-15 10:18:21.37	342.80	7.39	
2025-01-15 10:18:22.59	342.80	7.30	
2025-01-15 10:18:23.81	342.79	7.20	
2025-01-15 10:18:25.02	342.78	7.11	
2025-01-15 10:18:26.24	342.78	7.02	
2025-01-15 10:18:27.46	342.77	6.92	
2025-01-15 10:18:28.68	342.76	6.83	
2025-01-15 10:18:29.89	342.76	6.74	
2025-01-15 10:18:31.11	342.75	6.65	
2025-01-15 10:18:32.34	342.75	6.55	
2025-01-15 10:18:33.56	342.74	6.46	
2025-01-15 10:18:34.78	342.73	6.37	
2025-01-15 10:18:36.00	342.73	6.28	
2025-01-15 10:18:37.21	342.72	6.19	
2025-01-15 10:18:38.43	342.72	6.10	
2025-01-15 10:18:39.65	342.71	6.01	
2025-01-15 10:18:40.87	342.70	5.92	
2025-01-15 10:18:42.09	342.70	5.83	
2025-01-15 10:18:43.30	342.69	5.74	
2025-01-15 10:18:44.52	342.69	5.65	
2025-01-15 10:18:45.74	342.68	5.56	
2025-01-15 10:18:46.96	342.68	5.47	
2025-01-15 10:18:48.17	342.67	5.39	
2025-01-15 10:18:49.39	342.67	5.30	
2025-01-15 10:18:50.61	342.66	5.21	
2025-01-15 10:18:51.83	342.65	5.12	
2025-01-15 10:18:53.04	342.65	5.04	
2025-01-15 10:18:54.26	342.64	4.95	
2025-01-15 10:18:55.48	342.64	4.86	
2025-01-15 10:18:56.70	342.63	4.78	
2025-01-15 10:18:57.92	342.63	4.69	
2025-01-15 10:18:59.13	342.63	4.61	
2025-01-15 10:19:00.35	342.62	4.52	
2025-01-15 10:19:01.57	342.62	4.44	
2025-01-15 10:19:02.79	342.61	4.35	
2025-01-15 10:19:04.00	342.61	4.27	
2025-01-15 10:19:05.22	342.60	4.18	
2025-01-15 10:19:06.44	342.60	4.10	
2025-01-15 10:19:07.66	342.59	4.02	

#Closed at: 2025-01-15 10:19:08