passes_logs/2025/01/15/SPB_Silybum_02/SPB_Silybum_02__20250115_065005_SUOMI_NPP_rec.log

#Pass ID: 20250115_065005_SUOMI NPP
#Satellite: SUOMI NPP
#Configuration: NPP
#Start time: 2025-01-15 06:50:04

#Version: 2.0.20230423
#Station: SPB_Silybum_02
#Location: 30.233357 lon 59.946436 lat
#TLE: 1 37849U 11061A   25014.84938308  .00000162  00000+0  97809-4 0  9990
#TLE: 2 37849  98.7446 315.8398 0001684  41.2466 318.8837 14.19538097684890

#Time	Az	El	Level	Level2	SNR	BER	Gain	Gain2
2025-01-15 06:50:06.36	61.10	4.03	
2025-01-15 06:50:07.18	61.01	4.06	
2025-01-15 06:50:07.99	60.91	4.10	
2025-01-15 06:50:08.80	60.82	4.13	
2025-01-15 06:50:09.61	60.72	4.17	
2025-01-15 06:50:10.43	60.63	4.20	
2025-01-15 06:50:11.24	60.53	4.23	
2025-01-15 06:50:12.05	60.44	4.27	
2025-01-15 06:50:12.86	60.34	4.30	
2025-01-15 06:50:13.68	60.25	4.34	
2025-01-15 06:50:14.49	60.15	4.37	
2025-01-15 06:50:15.30	60.05	4.40	
2025-01-15 06:50:16.11	59.96	4.44	
2025-01-15 06:50:16.92	59.86	4.47	
2025-01-15 06:50:17.74	59.76	4.51	
2025-01-15 06:50:18.55	59.67	4.54	
2025-01-15 06:50:19.36	59.57	4.57	
2025-01-15 06:50:20.17	59.47	4.61	
2025-01-15 06:50:20.99	59.37	4.64	
2025-01-15 06:50:21.80	59.28	4.68	
2025-01-15 06:50:22.61	59.18	4.71	
2025-01-15 06:50:23.42	59.08	4.74	
2025-01-15 06:50:24.24	58.98	4.78	
2025-01-15 06:50:25.05	58.88	4.81	
2025-01-15 06:50:25.86	58.78	4.84	
2025-01-15 06:50:26.67	58.68	4.88	
2025-01-15 06:50:27.48	58.58	4.91	
2025-01-15 06:50:28.30	58.48	4.94	
2025-01-15 06:50:29.11	58.38	4.98	
2025-01-15 06:50:29.92	58.28	5.01	
2025-01-15 06:50:30.73	58.18	5.04	
2025-01-15 06:50:31.55	58.08	5.08	
2025-01-15 06:50:32.36	57.98	5.11	
2025-01-15 06:50:33.17	57.88	5.14	
2025-01-15 06:50:33.98	57.78	5.18	
2025-01-15 06:50:34.80	57.68	5.21	
2025-01-15 06:50:35.61	57.57	5.24	
2025-01-15 06:50:36.42	57.47	5.28	
2025-01-15 06:50:37.23	57.37	5.31	
2025-01-15 06:50:38.05	57.27	5.34	
2025-01-15 06:50:38.86	57.16	5.38	
2025-01-15 06:50:39.67	57.06	5.41	
2025-01-15 06:50:40.48	56.96	5.44	
2025-01-15 06:50:41.29	56.85	5.47	
2025-01-15 06:50:42.11	56.75	5.51	
2025-01-15 06:50:42.92	56.65	5.54	
2025-01-15 06:50:43.73	56.54	5.57	
2025-01-15 06:50:44.54	56.44	5.61	
2025-01-15 06:50:45.36	56.33	5.64	
2025-01-15 06:50:46.17	56.23	5.67	
2025-01-15 06:50:46.98	56.12	5.70	
2025-01-15 06:50:47.79	56.02	5.74	
2025-01-15 06:50:48.61	55.91	5.77	
2025-01-15 06:50:49.42	55.80	5.80	
2025-01-15 06:50:50.23	55.70	5.83	
2025-01-15 06:50:51.04	55.59	5.86	
2025-01-15 06:50:51.85	55.48	5.90	
2025-01-15 06:50:52.67	55.38	5.93	
2025-01-15 06:50:53.48	55.27	5.96	
2025-01-15 06:50:54.29	55.16	5.99	
2025-01-15 06:50:55.10	55.06	6.02	
2025-01-15 06:50:55.92	54.95	6.06	
2025-01-15 06:50:56.73	54.84	6.09	
2025-01-15 06:50:57.54	54.73	6.12	
2025-01-15 06:50:58.35	54.62	6.15	
2025-01-15 06:50:59.17	54.51	6.18	
2025-01-15 06:50:59.98	54.40	6.22	
2025-01-15 06:51:00.79	54.29	6.25	
2025-01-15 06:51:01.60	54.18	6.28	
2025-01-15 06:51:02.42	54.07	6.31	
2025-01-15 06:51:03.23	53.96	6.34	
2025-01-15 06:51:04.04	53.85	6.37	
2025-01-15 06:51:04.85	53.74	6.40	
2025-01-15 06:51:05.66	53.63	6.43	
2025-01-15 06:51:06.48	53.52	6.47	
2025-01-15 06:51:07.29	53.41	6.50	
2025-01-15 06:51:08.10	53.30	6.53	
2025-01-15 06:51:08.91	53.19	6.56	
2025-01-15 06:51:09.73	53.07	6.59	
2025-01-15 06:51:10.54	52.96	6.62	
2025-01-15 06:51:11.35	52.85	6.65	
2025-01-15 06:51:12.16	52.74	6.68	
2025-01-15 06:51:12.98	52.62	6.71	
2025-01-15 06:51:13.79	52.51	6.74	
2025-01-15 06:51:14.60	52.40	6.77	
2025-01-15 06:51:15.41	52.28	6.80	
2025-01-15 06:51:16.23	52.17	6.83	
2025-01-15 06:51:17.04	52.05	6.86	
2025-01-15 06:51:17.85	51.94	6.89	
2025-01-15 06:51:18.66	51.83	6.92	
2025-01-15 06:51:19.47	51.71	6.95	
2025-01-15 06:51:20.29	51.59	6.98	
2025-01-15 06:51:21.10	51.48	7.01	
2025-01-15 06:51:21.91	51.36	7.04	
2025-01-15 06:51:22.72	51.25	7.07	
2025-01-15 06:51:23.54	51.13	7.10	
2025-01-15 06:51:24.35	51.02	7.13	
2025-01-15 06:51:25.16	50.90	7.16	
2025-01-15 06:51:25.97	50.78	7.19	
2025-01-15 06:51:26.79	50.66	7.22	
2025-01-15 06:51:27.60	50.55	7.25	
2025-01-15 06:51:28.41	50.43	7.28	
2025-01-15 06:51:29.22	50.31	7.31	
2025-01-15 06:51:30.03	50.19	7.34	
2025-01-15 06:51:30.85	50.08	7.37	
2025-01-15 06:51:31.66	49.96	7.40	
2025-01-15 06:51:32.47	49.84	7.42	
2025-01-15 06:51:33.28	49.72	7.45	
2025-01-15 06:51:34.10	49.60	7.48	
2025-01-15 06:51:34.91	49.48	7.51	
2025-01-15 06:51:35.72	49.36	7.54	
2025-01-15 06:51:36.53	49.24	7.57	
2025-01-15 06:51:37.35	49.12	7.60	
2025-01-15 06:51:38.16	49.00	7.62	
2025-01-15 06:51:38.97	48.88	7.65	
2025-01-15 06:51:39.78	48.76	7.68	
2025-01-15 06:51:40.60	48.64	7.71	
2025-01-15 06:51:41.41	48.52	7.74	
2025-01-15 06:51:42.22	48.39	7.76	
2025-01-15 06:51:43.03	48.27	7.79	
2025-01-15 06:51:43.84	48.15	7.82	
2025-01-15 06:51:44.66	48.03	7.85	
2025-01-15 06:51:45.47	47.90	7.87	
2025-01-15 06:51:46.28	47.78	7.90	
2025-01-15 06:51:47.09	47.66	7.93	
2025-01-15 06:51:47.91	47.54	7.96	
2025-01-15 06:51:48.72	47.41	7.98	
2025-01-15 06:51:49.53	47.29	8.01	
2025-01-15 06:51:50.34	47.17	8.04	
2025-01-15 06:51:51.16	47.04	8.06	
2025-01-15 06:51:51.97	46.92	8.09	
2025-01-15 06:51:52.78	46.79	8.12	
2025-01-15 06:51:53.59	46.67	8.14	
2025-01-15 06:51:54.40	46.54	8.17	
2025-01-15 06:51:55.22	46.42	8.19	
2025-01-15 06:51:56.03	46.29	8.22	
2025-01-15 06:51:56.84	46.16	8.25	
2025-01-15 06:51:57.65	46.04	8.27	
2025-01-15 06:51:58.47	45.91	8.30	
2025-01-15 06:51:59.28	45.79	8.32	
2025-01-15 06:52:00.09	45.66	8.35	
2025-01-15 06:52:00.90	45.53	8.37	
2025-01-15 06:52:01.72	45.40	8.40	
2025-01-15 06:52:02.53	45.28	8.43	
2025-01-15 06:52:03.34	45.15	8.45	
2025-01-15 06:52:04.15	45.02	8.47	
2025-01-15 06:52:04.97	44.89	8.50	
2025-01-15 06:52:05.78	44.77	8.52	
2025-01-15 06:52:06.59	44.64	8.55	
2025-01-15 06:52:07.40	44.51	8.57	
2025-01-15 06:52:08.21	44.38	8.60	
2025-01-15 06:52:09.03	44.25	8.62	
2025-01-15 06:52:09.84	44.12	8.65	
2025-01-15 06:52:10.65	43.99	8.67	
2025-01-15 06:52:11.46	43.86	8.69	
2025-01-15 06:52:12.28	43.73	8.72	
2025-01-15 06:52:13.09	43.60	8.74	
2025-01-15 06:52:13.90	43.47	8.77	
2025-01-15 06:52:14.71	43.34	8.79	
2025-01-15 06:52:15.53	43.21	8.81	
2025-01-15 06:52:16.34	43.08	8.84	
2025-01-15 06:52:17.15	42.95	8.86	
2025-01-15 06:52:17.96	42.82	8.88	
2025-01-15 06:52:18.77	42.68	8.91	
2025-01-15 06:52:19.59	42.55	8.93	
2025-01-15 06:52:20.40	42.42	8.95	
2025-01-15 06:52:21.21	42.29	8.97	
2025-01-15 06:52:22.02	42.16	9.00	
2025-01-15 06:52:22.84	42.02	9.02	
2025-01-15 06:52:23.65	41.89	9.04	
2025-01-15 06:52:24.46	41.76	9.06	
2025-01-15 06:52:25.27	41.62	9.08	
2025-01-15 06:52:26.09	41.49	9.11	
2025-01-15 06:52:26.90	41.36	9.13	
2025-01-15 06:52:27.71	41.22	9.15	
2025-01-15 06:52:28.52	41.09	9.17	
2025-01-15 06:52:29.34	40.95	9.19	
2025-01-15 06:52:30.15	40.82	9.21	
2025-01-15 06:52:30.96	40.68	9.23	
2025-01-15 06:52:31.77	40.55	9.25	
2025-01-15 06:52:32.58	40.41	9.28	
2025-01-15 06:52:33.40	40.28	9.30	
2025-01-15 06:52:34.21	40.14	9.32	
2025-01-15 06:52:35.02	40.01	9.34	
2025-01-15 06:52:35.83	39.87	9.36	
2025-01-15 06:52:36.65	39.73	9.38	
2025-01-15 06:52:37.46	39.60	9.40	
2025-01-15 06:52:38.27	39.46	9.42	
2025-01-15 06:52:39.08	39.33	9.44	
2025-01-15 06:52:39.90	39.19	9.46	
2025-01-15 06:52:40.71	39.05	9.48	
2025-01-15 06:52:41.52	38.91	9.49	
2025-01-15 06:52:42.33	38.78	9.51	
2025-01-15 06:52:43.14	38.64	9.53	
2025-01-15 06:52:43.96	38.50	9.55	
2025-01-15 06:52:44.77	38.36	9.57	
2025-01-15 06:52:45.58	38.23	9.59	
2025-01-15 06:52:46.39	38.09	9.61	
2025-01-15 06:52:47.21	37.95	9.62	
2025-01-15 06:52:48.02	37.81	9.64	
2025-01-15 06:52:48.83	37.67	9.66	
2025-01-15 06:52:49.64	37.53	9.68	
2025-01-15 06:52:50.46	37.39	9.70	
2025-01-15 06:52:51.27	37.25	9.71	
2025-01-15 06:52:52.08	37.11	9.73	
2025-01-15 06:52:52.89	36.98	9.75	
2025-01-15 06:52:53.71	36.83	9.76	
2025-01-15 06:52:54.52	36.69	9.78	
2025-01-15 06:52:55.33	36.56	9.80	
2025-01-15 06:52:56.14	36.42	9.81	
2025-01-15 06:52:56.95	36.28	9.83	
2025-01-15 06:52:57.77	36.13	9.85	
2025-01-15 06:52:58.58	35.99	9.86	
2025-01-15 06:52:59.39	35.85	9.88	
2025-01-15 06:53:00.20	35.71	9.89	
2025-01-15 06:53:01.02	35.57	9.91	
2025-01-15 06:53:01.83	35.43	9.93	
2025-01-15 06:53:02.64	35.29	9.94	
2025-01-15 06:53:03.45	35.15	9.96	
2025-01-15 06:53:04.27	35.00	9.97	
2025-01-15 06:53:05.08	34.86	9.99	
2025-01-15 06:53:05.89	34.72	10.00	
2025-01-15 06:53:06.70	34.58	10.02	
2025-01-15 06:53:07.51	34.44	10.03	
2025-01-15 06:53:08.33	34.29	10.04	
2025-01-15 06:53:09.14	34.15	10.06	
2025-01-15 06:53:09.95	34.01	10.07	
2025-01-15 06:53:10.76	33.86	10.09	
2025-01-15 06:53:11.58	33.72	10.10	
2025-01-15 06:53:12.39	33.58	10.11	
2025-01-15 06:53:13.20	33.43	10.13	
2025-01-15 06:53:14.01	33.29	10.14	
2025-01-15 06:53:14.83	33.15	10.15	
2025-01-15 06:53:15.64	33.00	10.16	
2025-01-15 06:53:16.45	32.86	10.18	
2025-01-15 06:53:17.26	32.72	10.19	
2025-01-15 06:53:18.08	32.57	10.20	
2025-01-15 06:53:18.89	32.43	10.21	
2025-01-15 06:53:19.70	32.28	10.22	
2025-01-15 06:53:20.51	32.14	10.24	
2025-01-15 06:53:21.32	31.99	10.25	
2025-01-15 06:53:22.14	31.85	10.26	
2025-01-15 06:53:22.95	31.70	10.27	
2025-01-15 06:53:23.76	31.56	10.28	
2025-01-15 06:53:24.57	31.41	10.29	
2025-01-15 06:53:25.39	31.27	10.30	
2025-01-15 06:53:26.20	31.12	10.31	
2025-01-15 06:53:27.01	30.98	10.32	
2025-01-15 06:53:27.82	30.83	10.33	
2025-01-15 06:53:28.64	30.69	10.34	
2025-01-15 06:53:29.45	30.54	10.35	
2025-01-15 06:53:30.26	30.40	10.36	
2025-01-15 06:53:31.07	30.25	10.37	
2025-01-15 06:53:31.88	30.11	10.38	
2025-01-15 06:53:32.70	29.96	10.39	
2025-01-15 06:53:33.51	29.81	10.40	
2025-01-15 06:53:34.32	29.67	10.41	
2025-01-15 06:53:35.13	29.52	10.42	
2025-01-15 06:53:35.95	29.37	10.43	
2025-01-15 06:53:36.76	29.23	10.43	
2025-01-15 06:53:37.57	29.08	10.44	
2025-01-15 06:53:38.38	28.93	10.45	
2025-01-15 06:53:39.20	28.79	10.46	
2025-01-15 06:53:40.01	28.64	10.46	
2025-01-15 06:53:40.82	28.49	10.47	
2025-01-15 06:53:41.63	28.35	10.48	
2025-01-15 06:53:42.45	28.20	10.49	
2025-01-15 06:53:43.26	28.05	10.49	
2025-01-15 06:53:44.07	27.91	10.50	
2025-01-15 06:53:44.88	27.76	10.51	
2025-01-15 06:53:45.69	27.61	10.51	
2025-01-15 06:53:46.51	27.46	10.52	
2025-01-15 06:53:47.32	27.32	10.52	
2025-01-15 06:53:48.13	27.17	10.53	
2025-01-15 06:53:48.94	27.02	10.53	
2025-01-15 06:53:49.76	26.87	10.54	
2025-01-15 06:53:50.57	26.73	10.55	
2025-01-15 06:53:51.38	26.58	10.55	
2025-01-15 06:53:52.19	26.43	10.55	
2025-01-15 06:53:53.01	26.28	10.56	
2025-01-15 06:53:53.82	26.14	10.56	
2025-01-15 06:53:54.63	25.99	10.57	
2025-01-15 06:53:55.44	25.84	10.57	
2025-01-15 06:53:56.26	25.69	10.58	
2025-01-15 06:53:57.07	25.54	10.58	
2025-01-15 06:53:57.88	25.40	10.58	
2025-01-15 06:53:58.69	25.25	10.59	
2025-01-15 06:53:59.50	25.10	10.59	
2025-01-15 06:54:00.32	24.95	10.59	
2025-01-15 06:54:01.13	24.80	10.60	
2025-01-15 06:54:01.94	24.66	10.60	
2025-01-15 06:54:02.75	24.51	10.60	
2025-01-15 06:54:03.57	24.36	10.60	
2025-01-15 06:54:04.38	24.21	10.60	
2025-01-15 06:54:05.19	24.06	10.61	
2025-01-15 06:54:06.00	23.92	10.61	
2025-01-15 06:54:06.82	23.77	10.61	
2025-01-15 06:54:07.63	23.62	10.61	
2025-01-15 06:54:08.44	23.47	10.61	
2025-01-15 06:54:09.25	23.32	10.61	
2025-01-15 06:54:10.06	23.18	10.61	
2025-01-15 06:54:10.88	23.03	10.61	
2025-01-15 06:54:11.69	22.88	10.61	
2025-01-15 06:54:12.50	22.73	10.61	
2025-01-15 06:54:13.31	22.58	10.61	
2025-01-15 06:54:14.13	22.43	10.61	
2025-01-15 06:54:14.94	22.28	10.61	
2025-01-15 06:54:15.75	22.14	10.61	
2025-01-15 06:54:16.56	21.99	10.61	
2025-01-15 06:54:17.38	21.84	10.61	
2025-01-15 06:54:18.19	21.69	10.61	
2025-01-15 06:54:19.00	21.54	10.61	
2025-01-15 06:54:19.81	21.40	10.61	
2025-01-15 06:54:20.63	21.25	10.61	
2025-01-15 06:54:21.44	21.10	10.60	
2025-01-15 06:54:22.25	20.95	10.60	
2025-01-15 06:54:23.06	20.80	10.60	
2025-01-15 06:54:23.87	20.66	10.60	
2025-01-15 06:54:24.69	20.51	10.59	
2025-01-15 06:54:25.50	20.36	10.59	
2025-01-15 06:54:26.31	20.21	10.59	
2025-01-15 06:54:27.12	20.06	10.59	
2025-01-15 06:54:27.94	19.91	10.58	
2025-01-15 06:54:28.75	19.77	10.58	
2025-01-15 06:54:29.56	19.62	10.58	
2025-01-15 06:54:30.37	19.47	10.57	
2025-01-15 06:54:31.19	19.32	10.57	
2025-01-15 06:54:32.00	19.17	10.56	
2025-01-15 06:54:32.81	19.03	10.56	
2025-01-15 06:54:33.62	18.88	10.55	
2025-01-15 06:54:34.43	18.73	10.55	
2025-01-15 06:54:35.25	18.58	10.54	
2025-01-15 06:54:36.06	18.44	10.54	
2025-01-15 06:54:36.87	18.29	10.53	
2025-01-15 06:54:37.68	18.14	10.53	
2025-01-15 06:54:38.50	17.99	10.52	
2025-01-15 06:54:39.31	17.85	10.52	
2025-01-15 06:54:40.12	17.70	10.51	
2025-01-15 06:54:40.93	17.55	10.50	
2025-01-15 06:54:41.75	17.41	10.50	
2025-01-15 06:54:42.56	17.26	10.49	
2025-01-15 06:54:43.37	17.11	10.48	
2025-01-15 06:54:44.18	16.97	10.48	
2025-01-15 06:54:45.00	16.82	10.47	
2025-01-15 06:54:45.81	16.67	10.46	
2025-01-15 06:54:46.62	16.53	10.46	
2025-01-15 06:54:47.43	16.38	10.45	
2025-01-15 06:54:48.24	16.23	10.44	
2025-01-15 06:54:49.06	16.09	10.43	
2025-01-15 06:54:49.87	15.94	10.42	
2025-01-15 06:54:50.68	15.79	10.42	
2025-01-15 06:54:51.49	15.65	10.41	
2025-01-15 06:54:52.31	15.50	10.40	
2025-01-15 06:54:53.12	15.36	10.39	
2025-01-15 06:54:53.93	15.21	10.38	
2025-01-15 06:54:54.74	15.06	10.37	
2025-01-15 06:54:55.56	14.92	10.36	
2025-01-15 06:54:56.37	14.77	10.35	
2025-01-15 06:54:57.18	14.63	10.34	
2025-01-15 06:54:57.99	14.48	10.33	
2025-01-15 06:54:58.80	14.34	10.32	
2025-01-15 06:54:59.62	14.19	10.31	
2025-01-15 06:55:00.43	14.05	10.30	
2025-01-15 06:55:01.24	13.90	10.29	
2025-01-15 06:55:02.05	13.76	10.28	
2025-01-15 06:55:02.87	13.61	10.27	
2025-01-15 06:55:03.68	13.47	10.26	
2025-01-15 06:55:04.49	13.32	10.25	
2025-01-15 06:55:05.30	13.18	10.23	
2025-01-15 06:55:06.12	13.03	10.22	
2025-01-15 06:55:06.93	12.89	10.21	
2025-01-15 06:55:07.74	12.75	10.20	
2025-01-15 06:55:08.55	12.60	10.19	
2025-01-15 06:55:09.37	12.46	10.17	
2025-01-15 06:55:10.18	12.31	10.16	
2025-01-15 06:55:10.99	12.17	10.15	
2025-01-15 06:55:11.80	12.03	10.14	
2025-01-15 06:55:12.61	11.88	10.12	
2025-01-15 06:55:13.43	11.74	10.11	
2025-01-15 06:55:14.24	11.60	10.10	
2025-01-15 06:55:15.05	11.46	10.08	
2025-01-15 06:55:15.86	11.31	10.07	
2025-01-15 06:55:16.68	11.17	10.06	
2025-01-15 06:55:17.49	11.03	10.04	
2025-01-15 06:55:18.30	10.88	10.03	
2025-01-15 06:55:19.11	10.74	10.01	
2025-01-15 06:55:19.93	10.60	10.00	
2025-01-15 06:55:20.74	10.46	9.98	
2025-01-15 06:55:21.55	10.32	9.97	
2025-01-15 06:55:22.36	10.18	9.95	
2025-01-15 06:55:23.17	10.03	9.94	
2025-01-15 06:55:23.99	9.89	9.92	
2025-01-15 06:55:24.80	9.75	9.91	
2025-01-15 06:55:25.61	9.61	9.89	
2025-01-15 06:55:26.42	9.47	9.88	
2025-01-15 06:55:27.24	9.33	9.86	
2025-01-15 06:55:28.05	9.19	9.84	
2025-01-15 06:55:28.86	9.05	9.83	
2025-01-15 06:55:29.67	8.91	9.81	
2025-01-15 06:55:30.49	8.77	9.80	
2025-01-15 06:55:31.30	8.63	9.78	
2025-01-15 06:55:32.11	8.49	9.76	
2025-01-15 06:55:32.92	8.35	9.74	
2025-01-15 06:55:33.74	8.21	9.73	
2025-01-15 06:55:34.55	8.07	9.71	
2025-01-15 06:55:35.36	7.93	9.69	
2025-01-15 06:55:36.17	7.79	9.68	
2025-01-15 06:55:36.98	7.65	9.66	
2025-01-15 06:55:37.80	7.51	9.64	
2025-01-15 06:55:38.61	7.38	9.62	
2025-01-15 06:55:39.42	7.24	9.60	
2025-01-15 06:55:40.23	7.10	9.59	
2025-01-15 06:55:41.05	6.96	9.57	
2025-01-15 06:55:41.86	6.82	9.55	
2025-01-15 06:55:42.67	6.69	9.53	
2025-01-15 06:55:43.48	6.55	9.51	
2025-01-15 06:55:44.30	6.41	9.49	
2025-01-15 06:55:45.11	6.28	9.47	
2025-01-15 06:55:45.92	6.14	9.45	
2025-01-15 06:55:46.73	6.00	9.43	
2025-01-15 06:55:47.54	5.87	9.41	
2025-01-15 06:55:48.36	5.73	9.39	
2025-01-15 06:55:49.17	5.59	9.37	
2025-01-15 06:55:49.98	5.46	9.35	
2025-01-15 06:55:50.79	5.32	9.33	
2025-01-15 06:55:51.61	5.19	9.31	
2025-01-15 06:55:52.42	5.05	9.29	
2025-01-15 06:55:53.23	4.92	9.27	
2025-01-15 06:55:54.04	4.78	9.25	
2025-01-15 06:55:54.86	4.65	9.23	
2025-01-15 06:55:55.67	4.51	9.21	
2025-01-15 06:55:56.48	4.38	9.19	
2025-01-15 06:55:57.29	4.24	9.17	
2025-01-15 06:55:58.11	4.11	9.15	
2025-01-15 06:55:58.92	3.98	9.12	
2025-01-15 06:55:59.73	3.84	9.10	
2025-01-15 06:56:00.54	3.71	9.08	
2025-01-15 06:56:01.35	3.58	9.06	
2025-01-15 06:56:02.17	3.44	9.04	
2025-01-15 06:56:02.98	3.31	9.02	
2025-01-15 06:56:03.79	3.18	8.99	
2025-01-15 06:56:04.60	3.05	8.97	
2025-01-15 06:56:05.42	2.91	8.95	
2025-01-15 06:56:06.23	2.78	8.93	
2025-01-15 06:56:07.04	2.65	8.90	
2025-01-15 06:56:07.85	2.52	8.88	
2025-01-15 06:56:08.67	2.39	8.86	
2025-01-15 06:56:09.48	2.26	8.83	
2025-01-15 06:56:10.29	2.13	8.81	
2025-01-15 06:56:11.10	2.00	8.79	
2025-01-15 06:56:11.92	1.87	8.76	
2025-01-15 06:56:12.73	1.74	8.74	
2025-01-15 06:56:13.54	1.61	8.72	
2025-01-15 06:56:14.35	1.48	8.69	
2025-01-15 06:56:15.16	1.35	8.67	
2025-01-15 06:56:15.98	1.22	8.64	
2025-01-15 06:56:16.79	1.09	8.62	
2025-01-15 06:56:17.60	0.96	8.60	
2025-01-15 06:56:18.41	0.83	8.57	
2025-01-15 06:56:19.23	0.70	8.55	
2025-01-15 06:56:20.04	0.57	8.52	
2025-01-15 06:56:20.85	0.45	8.50	
2025-01-15 06:56:21.66	0.32	8.47	
2025-01-15 06:56:22.48	0.19	8.45	
2025-01-15 06:56:23.29	0.06	8.42	
2025-01-15 06:56:24.10	359.94	8.40	
2025-01-15 06:56:24.91	359.81	8.37	
2025-01-15 06:56:25.72	359.69	8.35	
2025-01-15 06:56:26.54	359.56	8.32	
2025-01-15 06:56:27.35	359.43	8.29	
2025-01-15 06:56:28.16	359.31	8.27	
2025-01-15 06:56:28.97	359.18	8.24	
2025-01-15 06:56:29.79	359.05	8.22	
2025-01-15 06:56:30.60	358.93	8.19	
2025-01-15 06:56:31.41	358.81	8.17	
2025-01-15 06:56:32.22	358.68	8.14	
2025-01-15 06:56:33.04	358.55	8.11	
2025-01-15 06:56:33.85	358.43	8.09	
2025-01-15 06:56:34.66	358.31	8.06	
2025-01-15 06:56:35.47	358.18	8.03	
2025-01-15 06:56:36.29	358.06	8.01	
2025-01-15 06:56:37.10	357.94	7.98	
2025-01-15 06:56:37.91	357.81	7.95	
2025-01-15 06:56:38.72	357.69	7.93	
2025-01-15 06:56:39.53	357.57	7.90	
2025-01-15 06:56:40.35	357.44	7.87	
2025-01-15 06:56:41.16	357.32	7.84	
2025-01-15 06:56:41.97	357.20	7.82	
2025-01-15 06:56:42.78	357.08	7.79	
2025-01-15 06:56:43.60	356.96	7.76	
2025-01-15 06:56:44.41	356.84	7.73	
2025-01-15 06:56:45.23	356.71	7.71	
2025-01-15 06:56:46.04	356.59	7.68	
2025-01-15 06:56:46.85	356.47	7.65	
2025-01-15 06:56:47.66	356.35	7.62	
2025-01-15 06:56:48.47	356.23	7.59	
2025-01-15 06:56:49.29	356.11	7.56	
2025-01-15 06:56:50.10	355.99	7.54	
2025-01-15 06:56:50.91	355.87	7.51	
2025-01-15 06:56:51.72	355.76	7.48	
2025-01-15 06:56:52.54	355.64	7.45	
2025-01-15 06:56:53.35	355.52	7.42	
2025-01-15 06:56:54.16	355.40	7.39	
2025-01-15 06:56:54.98	355.28	7.36	
2025-01-15 06:56:55.80	355.16	7.34	
2025-01-15 06:56:56.61	355.04	7.31	
2025-01-15 06:56:57.42	354.93	7.28	
2025-01-15 06:56:58.23	354.81	7.25	
2025-01-15 06:56:59.04	354.69	7.22	
2025-01-15 06:56:59.86	354.58	7.19	
2025-01-15 06:57:00.67	354.46	7.16	
2025-01-15 06:57:01.48	354.34	7.13	
2025-01-15 06:57:02.29	354.23	7.10	
2025-01-15 06:57:03.11	354.11	7.07	
2025-01-15 06:57:03.92	354.00	7.04	
2025-01-15 06:57:04.73	353.88	7.01	
2025-01-15 06:57:05.54	353.77	6.98	
2025-01-15 06:57:06.36	353.65	6.95	
2025-01-15 06:57:07.17	353.54	6.92	
2025-01-15 06:57:07.98	353.42	6.89	
2025-01-15 06:57:08.79	353.31	6.86	
2025-01-15 06:57:09.60	353.19	6.83	
2025-01-15 06:57:10.42	353.08	6.80	
2025-01-15 06:57:11.23	352.97	6.77	
2025-01-15 06:57:12.04	352.85	6.74	
2025-01-15 06:57:12.85	352.74	6.71	
2025-01-15 06:57:13.67	352.63	6.68	
2025-01-15 06:57:14.48	352.52	6.65	
2025-01-15 06:57:15.29	352.40	6.62	
2025-01-15 06:57:16.10	352.29	6.59	
2025-01-15 06:57:16.92	352.18	6.56	
2025-01-15 06:57:17.73	352.07	6.53	
2025-01-15 06:57:18.54	351.96	6.50	
2025-01-15 06:57:19.35	351.85	6.46	
2025-01-15 06:57:20.17	351.74	6.43	
2025-01-15 06:57:20.98	351.63	6.40	
2025-01-15 06:57:21.79	351.52	6.37	
2025-01-15 06:57:22.60	351.41	6.34	
2025-01-15 06:57:23.41	351.30	6.31	
2025-01-15 06:57:24.23	351.19	6.28	
2025-01-15 06:57:25.04	351.08	6.25	
2025-01-15 06:57:25.85	350.97	6.21	
2025-01-15 06:57:26.66	350.86	6.18	
2025-01-15 06:57:27.48	350.75	6.15	
2025-01-15 06:57:28.29	350.64	6.12	
2025-01-15 06:57:29.10	350.54	6.09	
2025-01-15 06:57:29.91	350.43	6.06	
2025-01-15 06:57:30.73	350.32	6.02	
2025-01-15 06:57:31.54	350.21	5.99	
2025-01-15 06:57:32.35	350.11	5.96	
2025-01-15 06:57:33.16	350.00	5.93	
2025-01-15 06:57:33.97	349.89	5.90	
2025-01-15 06:57:34.79	349.79	5.86	
2025-01-15 06:57:35.60	349.68	5.83	
2025-01-15 06:57:36.41	349.57	5.80	
2025-01-15 06:57:37.22	349.47	5.77	
2025-01-15 06:57:38.04	349.36	5.73	
2025-01-15 06:57:38.85	349.26	5.70	
2025-01-15 06:57:39.66	349.15	5.67	
2025-01-15 06:57:40.47	349.05	5.64	
2025-01-15 06:57:41.29	348.94	5.60	
2025-01-15 06:57:42.10	348.84	5.57	
2025-01-15 06:57:42.91	348.74	5.54	
2025-01-15 06:57:43.72	348.63	5.51	
2025-01-15 06:57:44.54	348.53	5.47	
2025-01-15 06:57:45.35	348.42	5.44	
2025-01-15 06:57:46.16	348.32	5.41	
2025-01-15 06:57:46.97	348.22	5.38	
2025-01-15 06:57:47.78	348.12	5.34	
2025-01-15 06:57:48.60	348.01	5.31	
2025-01-15 06:57:49.41	347.91	5.28	
2025-01-15 06:57:50.22	347.81	5.24	
2025-01-15 06:57:51.03	347.71	5.21	
2025-01-15 06:57:51.85	347.61	5.18	
2025-01-15 06:57:52.66	347.51	5.14	
2025-01-15 06:57:53.47	347.41	5.11	
2025-01-15 06:57:54.28	347.31	5.08	
2025-01-15 06:57:55.10	347.20	5.04	
2025-01-15 06:57:55.91	347.10	5.01	
2025-01-15 06:57:56.72	347.01	4.98	
2025-01-15 06:57:57.53	346.91	4.94	
2025-01-15 06:57:58.35	346.81	4.91	
2025-01-15 06:57:59.16	346.71	4.88	
2025-01-15 06:57:59.97	346.61	4.84	
2025-01-15 06:58:00.78	346.51	4.81	
2025-01-15 06:58:01.59	346.41	4.78	
2025-01-15 06:58:02.41	346.31	4.74	
2025-01-15 06:58:03.22	346.21	4.71	
2025-01-15 06:58:04.03	346.12	4.68	
2025-01-15 06:58:04.84	346.02	4.64	
2025-01-15 06:58:05.66	345.92	4.61	
2025-01-15 06:58:06.47	345.82	4.57	
2025-01-15 06:58:07.28	345.73	4.54	
2025-01-15 06:58:08.09	345.63	4.51	
2025-01-15 06:58:08.91	345.53	4.47	
2025-01-15 06:58:09.72	345.44	4.44	
2025-01-15 06:58:10.53	345.34	4.40	
2025-01-15 06:58:11.34	345.25	4.37	
2025-01-15 06:58:12.15	345.15	4.34	
2025-01-15 06:58:12.97	345.06	4.30	
2025-01-15 06:58:13.78	344.96	4.27	
2025-01-15 06:58:14.59	344.87	4.23	
2025-01-15 06:58:15.40	344.77	4.20	
2025-01-15 06:58:16.22	344.68	4.17	
2025-01-15 06:58:17.03	344.58	4.13	
2025-01-15 06:58:17.84	344.49	4.10	
2025-01-15 06:58:18.65	344.40	4.06	
2025-01-15 06:58:19.47	344.30	4.03	

#Closed at: 2025-01-15 06:58:20