passes_logs/2025/01/15/SPB_Silybum_02/SPB_Silybum_02__20250115_082659_SUOMI_NPP_rec.log

#Pass ID: 20250115_082659_SUOMI NPP
#Satellite: SUOMI NPP
#Configuration: NPP
#Start time: 2025-01-15 08:29:22

#Version: 2.0.20230423
#Station: SPB_Silybum_02
#Location: 30.233357 lon 59.946436 lat
#TLE: 1 37849U 11061A   25014.84938308  .00000162  00000+0  97809-4 0  9990
#TLE: 2 37849  98.7446 315.8398 0001684  41.2466 318.8837 14.19538097684890

#Time	Az	El	Level	Level2	SNR	BER	Gain	Gain2
2025-01-15 08:29:24.41	92.07	13.77	
2025-01-15 08:29:25.43	91.93	13.84	
2025-01-15 08:29:26.44	91.78	13.91	
2025-01-15 08:29:27.46	91.64	13.99	
2025-01-15 08:29:28.47	91.49	14.06	
2025-01-15 08:29:29.49	91.34	14.14	
2025-01-15 08:29:30.51	91.20	14.21	
2025-01-15 08:29:31.52	91.05	14.29	
2025-01-15 08:29:32.54	90.90	14.36	
2025-01-15 08:29:33.55	90.75	14.44	
2025-01-15 08:29:34.57	90.60	14.51	
2025-01-15 08:29:35.58	90.45	14.59	
2025-01-15 08:29:36.60	90.29	14.66	
2025-01-15 08:29:37.62	90.14	14.74	
2025-01-15 08:29:38.63	89.99	14.81	
2025-01-15 08:29:39.65	89.83	14.89	
2025-01-15 08:29:40.66	89.68	14.96	
2025-01-15 08:29:41.68	89.52	15.04	
2025-01-15 08:29:42.69	89.36	15.11	
2025-01-15 08:29:43.71	89.21	15.19	
2025-01-15 08:29:44.72	89.05	15.26	
2025-01-15 08:29:45.74	88.89	15.34	
2025-01-15 08:29:46.76	88.73	15.41	
2025-01-15 08:29:47.77	88.57	15.49	
2025-01-15 08:29:48.79	88.40	15.56	
2025-01-15 08:29:49.80	88.24	15.64	
2025-01-15 08:29:50.82	88.08	15.71	
2025-01-15 08:29:51.83	87.91	15.79	
2025-01-15 08:29:52.85	87.75	15.86	
2025-01-15 08:29:53.87	87.58	15.94	
2025-01-15 08:29:54.88	87.41	16.01	
2025-01-15 08:29:55.90	87.25	16.09	
2025-01-15 08:29:56.91	87.08	16.16	
2025-01-15 08:29:57.93	86.91	16.24	
2025-01-15 08:29:58.94	86.74	16.31	
2025-01-15 08:29:59.96	86.57	16.39	
2025-01-15 08:30:00.98	86.39	16.46	
2025-01-15 08:30:01.99	86.22	16.53	
2025-01-15 08:30:03.01	86.05	16.61	
2025-01-15 08:30:04.02	85.87	16.68	
2025-01-15 08:30:05.04	85.70	16.76	
2025-01-15 08:30:06.05	85.52	16.83	
2025-01-15 08:30:07.07	85.34	16.91	
2025-01-15 08:30:08.09	85.16	16.98	
2025-01-15 08:30:09.10	84.99	17.06	
2025-01-15 08:30:10.12	84.81	17.13	
2025-01-15 08:30:11.13	84.63	17.20	
2025-01-15 08:30:12.15	84.44	17.28	
2025-01-15 08:30:13.16	84.26	17.35	
2025-01-15 08:30:14.18	84.08	17.43	
2025-01-15 08:30:15.20	83.89	17.50	
2025-01-15 08:30:16.21	83.71	17.58	
2025-01-15 08:30:17.23	83.52	17.65	
2025-01-15 08:30:18.24	83.33	17.72	
2025-01-15 08:30:19.26	83.14	17.80	
2025-01-15 08:30:20.27	82.96	17.87	
2025-01-15 08:30:21.29	82.77	17.94	
2025-01-15 08:30:22.31	82.57	18.02	
2025-01-15 08:30:23.32	82.38	18.09	
2025-01-15 08:30:24.34	82.19	18.16	
2025-01-15 08:30:25.35	82.00	18.24	
2025-01-15 08:30:26.37	81.80	18.31	
2025-01-15 08:30:27.38	81.61	18.38	
2025-01-15 08:30:28.40	81.41	18.45	
2025-01-15 08:30:29.42	81.21	18.53	
2025-01-15 08:30:30.43	81.01	18.60	
2025-01-15 08:30:31.45	80.81	18.67	
2025-01-15 08:30:32.46	80.61	18.74	
2025-01-15 08:30:33.48	80.41	18.81	
2025-01-15 08:30:34.49	80.21	18.89	
2025-01-15 08:30:35.51	80.01	18.96	
2025-01-15 08:30:36.52	79.80	19.03	
2025-01-15 08:30:37.54	79.60	19.10	
2025-01-15 08:30:38.56	79.39	19.17	
2025-01-15 08:30:39.57	79.18	19.24	
2025-01-15 08:30:40.59	78.97	19.31	
2025-01-15 08:30:41.60	78.77	19.38	
2025-01-15 08:30:42.62	78.55	19.45	
2025-01-15 08:30:43.63	78.34	19.52	
2025-01-15 08:30:44.65	78.13	19.59	
2025-01-15 08:30:45.67	77.92	19.66	
2025-01-15 08:30:46.68	77.71	19.73	
2025-01-15 08:30:47.70	77.49	19.80	
2025-01-15 08:30:48.71	77.27	19.87	
2025-01-15 08:30:49.73	77.06	19.94	
2025-01-15 08:30:50.74	76.84	20.00	
2025-01-15 08:30:51.76	76.62	20.07	
2025-01-15 08:30:52.78	76.40	20.14	
2025-01-15 08:30:53.79	76.18	20.21	
2025-01-15 08:30:54.81	75.96	20.28	
2025-01-15 08:30:55.82	75.74	20.34	
2025-01-15 08:30:56.84	75.51	20.41	
2025-01-15 08:30:57.85	75.29	20.48	
2025-01-15 08:30:58.87	75.06	20.54	
2025-01-15 08:30:59.89	74.83	20.61	
2025-01-15 08:31:00.90	74.61	20.67	
2025-01-15 08:31:01.92	74.38	20.74	
2025-01-15 08:31:02.93	74.15	20.80	
2025-01-15 08:31:03.95	73.92	20.87	
2025-01-15 08:31:04.96	73.69	20.93	
2025-01-15 08:31:05.98	73.45	21.00	
2025-01-15 08:31:07.00	73.22	21.06	
2025-01-15 08:31:08.01	72.99	21.12	
2025-01-15 08:31:09.03	72.75	21.19	
2025-01-15 08:31:10.04	72.51	21.25	
2025-01-15 08:31:11.06	72.28	21.31	
2025-01-15 08:31:12.07	72.04	21.37	
2025-01-15 08:31:13.09	71.80	21.43	
2025-01-15 08:31:14.11	71.56	21.49	
2025-01-15 08:31:15.12	71.32	21.56	
2025-01-15 08:31:16.14	71.07	21.62	
2025-01-15 08:31:17.15	70.83	21.68	
2025-01-15 08:31:18.17	70.59	21.73	
2025-01-15 08:31:19.18	70.34	21.79	
2025-01-15 08:31:20.20	70.10	21.85	
2025-01-15 08:31:21.22	69.85	21.91	
2025-01-15 08:31:22.23	69.60	21.97	
2025-01-15 08:31:23.25	69.35	22.03	
2025-01-15 08:31:24.26	69.11	22.08	
2025-01-15 08:31:25.28	68.85	22.14	
2025-01-15 08:31:26.29	68.60	22.19	
2025-01-15 08:31:27.31	68.35	22.25	
2025-01-15 08:31:28.32	68.10	22.30	
2025-01-15 08:31:29.34	67.84	22.36	
2025-01-15 08:31:30.36	67.59	22.41	
2025-01-15 08:31:31.37	67.33	22.47	
2025-01-15 08:31:32.39	67.08	22.52	
2025-01-15 08:31:33.40	66.82	22.57	
2025-01-15 08:31:34.42	66.56	22.62	
2025-01-15 08:31:35.43	66.30	22.68	
2025-01-15 08:31:36.45	66.04	22.73	
2025-01-15 08:31:37.47	65.78	22.78	
2025-01-15 08:31:38.48	65.52	22.83	
2025-01-15 08:31:39.50	65.25	22.88	
2025-01-15 08:31:40.51	64.99	22.92	
2025-01-15 08:31:41.53	64.73	22.97	
2025-01-15 08:31:42.54	64.46	23.02	
2025-01-15 08:31:43.56	64.20	23.07	
2025-01-15 08:31:44.58	63.93	23.11	
2025-01-15 08:31:45.59	63.66	23.16	
2025-01-15 08:31:46.61	63.39	23.20	
2025-01-15 08:31:47.62	63.12	23.25	
2025-01-15 08:31:48.64	62.85	23.29	
2025-01-15 08:31:49.65	62.58	23.34	
2025-01-15 08:31:50.67	62.31	23.38	
2025-01-15 08:31:51.69	62.04	23.42	
2025-01-15 08:31:52.70	61.77	23.46	
2025-01-15 08:31:53.72	61.49	23.50	
2025-01-15 08:31:54.73	61.22	23.54	
2025-01-15 08:31:55.75	60.94	23.58	
2025-01-15 08:31:56.76	60.67	23.62	
2025-01-15 08:31:57.78	60.39	23.66	
2025-01-15 08:31:58.80	60.11	23.70	
2025-01-15 08:31:59.81	59.84	23.74	
2025-01-15 08:32:00.84	59.56	23.77	
2025-01-15 08:32:01.86	59.28	23.81	
2025-01-15 08:32:02.87	59.00	23.84	
2025-01-15 08:32:03.89	58.72	23.88	
2025-01-15 08:32:04.91	58.43	23.91	
2025-01-15 08:32:05.92	58.15	23.94	
2025-01-15 08:32:06.94	57.87	23.97	
2025-01-15 08:32:07.95	57.59	24.01	
2025-01-15 08:32:08.97	57.31	24.04	
2025-01-15 08:32:09.98	57.02	24.07	
2025-01-15 08:32:11.00	56.74	24.10	
2025-01-15 08:32:12.02	56.45	24.12	
2025-01-15 08:32:13.03	56.17	24.15	
2025-01-15 08:32:14.05	55.88	24.18	
2025-01-15 08:32:15.06	55.60	24.21	
2025-01-15 08:32:16.08	55.31	24.23	
2025-01-15 08:32:17.09	55.02	24.26	
2025-01-15 08:32:18.11	54.73	24.28	
2025-01-15 08:32:19.12	54.45	24.30	
2025-01-15 08:32:20.14	54.16	24.32	
2025-01-15 08:32:21.16	53.87	24.35	
2025-01-15 08:32:22.17	53.58	24.37	
2025-01-15 08:32:23.19	53.29	24.39	
2025-01-15 08:32:24.20	53.00	24.41	
2025-01-15 08:32:25.22	52.71	24.43	
2025-01-15 08:32:26.23	52.42	24.44	
2025-01-15 08:32:27.25	52.13	24.46	
2025-01-15 08:32:28.27	51.84	24.48	
2025-01-15 08:32:29.28	51.55	24.49	
2025-01-15 08:32:30.30	51.25	24.51	
2025-01-15 08:32:31.31	50.96	24.52	
2025-01-15 08:32:32.33	50.67	24.53	
2025-01-15 08:32:33.34	50.38	24.54	
2025-01-15 08:32:34.36	50.09	24.56	
2025-01-15 08:32:35.38	49.79	24.57	
2025-01-15 08:32:36.39	49.50	24.58	
2025-01-15 08:32:37.41	49.21	24.59	
2025-01-15 08:32:38.42	48.91	24.59	
2025-01-15 08:32:39.44	48.62	24.60	
2025-01-15 08:32:40.45	48.33	24.61	
2025-01-15 08:32:41.47	48.03	24.61	
2025-01-15 08:32:42.49	47.74	24.62	
2025-01-15 08:32:43.50	47.44	24.62	
2025-01-15 08:32:44.52	47.15	24.62	
2025-01-15 08:32:45.53	46.86	24.63	
2025-01-15 08:32:46.55	46.56	24.63	
2025-01-15 08:32:47.56	46.27	24.63	
2025-01-15 08:32:48.58	45.97	24.63	
2025-01-15 08:32:49.60	45.68	24.63	
2025-01-15 08:32:50.61	45.39	24.63	
2025-01-15 08:32:51.63	45.09	24.62	
2025-01-15 08:32:52.64	44.80	24.62	
2025-01-15 08:32:53.66	44.50	24.62	
2025-01-15 08:32:54.67	44.21	24.61	
2025-01-15 08:32:55.69	43.92	24.61	
2025-01-15 08:32:56.71	43.62	24.60	
2025-01-15 08:32:57.72	43.33	24.59	
2025-01-15 08:32:58.74	43.03	24.58	
2025-01-15 08:32:59.75	42.74	24.57	
2025-01-15 08:33:00.77	42.45	24.56	
2025-01-15 08:33:01.78	42.16	24.55	
2025-01-15 08:33:02.80	41.86	24.54	
2025-01-15 08:33:03.81	41.57	24.53	
2025-01-15 08:33:04.83	41.28	24.52	
2025-01-15 08:33:05.85	40.99	24.50	
2025-01-15 08:33:06.86	40.70	24.49	
2025-01-15 08:33:07.88	40.40	24.47	
2025-01-15 08:33:08.89	40.12	24.46	
2025-01-15 08:33:09.91	39.82	24.44	
2025-01-15 08:33:10.92	39.53	24.42	
2025-01-15 08:33:11.94	39.24	24.40	
2025-01-15 08:33:12.96	38.95	24.38	
2025-01-15 08:33:13.97	38.67	24.36	
2025-01-15 08:33:14.99	38.38	24.34	
2025-01-15 08:33:16.00	38.09	24.32	
2025-01-15 08:33:17.02	37.80	24.30	
2025-01-15 08:33:18.03	37.51	24.27	
2025-01-15 08:33:19.05	37.23	24.25	
2025-01-15 08:33:20.07	36.94	24.22	
2025-01-15 08:33:21.08	36.65	24.20	
2025-01-15 08:33:22.10	36.37	24.17	
2025-01-15 08:33:23.11	36.08	24.15	
2025-01-15 08:33:24.13	35.80	24.12	
2025-01-15 08:33:25.14	35.51	24.09	
2025-01-15 08:33:26.16	35.23	24.06	
2025-01-15 08:33:27.18	34.94	24.03	
2025-01-15 08:33:28.19	34.66	24.00	
2025-01-15 08:33:29.21	34.38	23.97	
2025-01-15 08:33:30.22	34.10	23.94	
2025-01-15 08:33:31.24	33.82	23.90	
2025-01-15 08:33:32.25	33.54	23.87	
2025-01-15 08:33:33.27	33.26	23.84	
2025-01-15 08:33:34.29	32.98	23.80	
2025-01-15 08:33:35.30	32.70	23.76	
2025-01-15 08:33:36.32	32.42	23.73	
2025-01-15 08:33:37.33	32.15	23.69	
2025-01-15 08:33:38.35	31.87	23.65	
2025-01-15 08:33:39.36	31.60	23.62	
2025-01-15 08:33:40.38	31.32	23.58	
2025-01-15 08:33:41.40	31.05	23.54	
2025-01-15 08:33:42.41	30.77	23.50	
2025-01-15 08:33:43.43	30.50	23.46	
2025-01-15 08:33:44.44	30.23	23.41	
2025-01-15 08:33:45.46	29.96	23.37	
2025-01-15 08:33:46.47	29.69	23.33	
2025-01-15 08:33:47.49	29.42	23.29	
2025-01-15 08:33:48.51	29.15	23.24	
2025-01-15 08:33:49.52	28.88	23.20	
2025-01-15 08:33:50.54	28.61	23.15	
2025-01-15 08:33:51.55	28.34	23.11	
2025-01-15 08:33:52.57	28.08	23.06	
2025-01-15 08:33:53.58	27.81	23.01	
2025-01-15 08:33:54.60	27.55	22.96	
2025-01-15 08:33:55.61	27.29	22.92	
2025-01-15 08:33:56.63	27.02	22.87	
2025-01-15 08:33:57.65	26.76	22.82	
2025-01-15 08:33:58.66	26.50	22.77	
2025-01-15 08:33:59.68	26.24	22.72	
2025-01-15 08:34:00.69	25.98	22.67	
2025-01-15 08:34:01.71	25.72	22.62	
2025-01-15 08:34:02.72	25.47	22.56	
2025-01-15 08:34:03.74	25.21	22.51	
2025-01-15 08:34:04.76	24.95	22.46	
2025-01-15 08:34:05.77	24.70	22.41	
2025-01-15 08:34:06.79	24.44	22.35	
2025-01-15 08:34:07.80	24.19	22.30	
2025-01-15 08:34:08.82	23.94	22.24	
2025-01-15 08:34:09.83	23.69	22.19	
2025-01-15 08:34:10.85	23.44	22.13	
2025-01-15 08:34:11.87	23.19	22.07	
2025-01-15 08:34:12.88	22.94	22.02	
2025-01-15 08:34:13.90	22.69	21.96	
2025-01-15 08:34:14.91	22.44	21.90	
2025-01-15 08:34:15.93	22.20	21.85	
2025-01-15 08:34:16.94	21.95	21.79	
2025-01-15 08:34:17.96	21.71	21.73	
2025-01-15 08:34:18.98	21.47	21.67	
2025-01-15 08:34:19.99	21.22	21.61	
2025-01-15 08:34:21.01	20.98	21.55	
2025-01-15 08:34:22.02	20.74	21.49	
2025-01-15 08:34:23.04	20.50	21.43	
2025-01-15 08:34:24.05	20.27	21.37	
2025-01-15 08:34:25.07	20.03	21.30	
2025-01-15 08:34:26.09	19.79	21.24	
2025-01-15 08:34:27.10	19.56	21.18	
2025-01-15 08:34:28.12	19.32	21.12	
2025-01-15 08:34:29.13	19.09	21.05	
2025-01-15 08:34:30.15	18.86	20.99	
2025-01-15 08:34:31.16	18.63	20.93	
2025-01-15 08:34:32.18	18.39	20.86	
2025-01-15 08:34:33.20	18.16	20.80	
2025-01-15 08:34:34.21	17.94	20.73	
2025-01-15 08:34:35.23	17.71	20.67	
2025-01-15 08:34:36.24	17.48	20.60	
2025-01-15 08:34:37.26	17.26	20.54	
2025-01-15 08:34:38.27	17.03	20.47	
2025-01-15 08:34:39.29	16.81	20.41	
2025-01-15 08:34:40.31	16.58	20.34	
2025-01-15 08:34:41.32	16.36	20.27	
2025-01-15 08:34:42.34	16.14	20.21	
2025-01-15 08:34:43.35	15.92	20.14	
2025-01-15 08:34:44.37	15.70	20.07	
2025-01-15 08:34:45.38	15.49	20.00	
2025-01-15 08:34:46.40	15.27	19.93	
2025-01-15 08:34:47.41	15.06	19.87	
2025-01-15 08:34:48.43	14.84	19.80	
2025-01-15 08:34:49.45	14.63	19.73	
2025-01-15 08:34:50.46	14.41	19.66	
2025-01-15 08:34:51.48	14.20	19.59	
2025-01-15 08:34:52.49	13.99	19.52	
2025-01-15 08:34:53.51	13.78	19.45	
2025-01-15 08:34:54.52	13.57	19.38	
2025-01-15 08:34:55.54	13.36	19.31	
2025-01-15 08:34:56.56	13.16	19.24	
2025-01-15 08:34:57.57	12.95	19.17	
2025-01-15 08:34:58.59	12.74	19.10	
2025-01-15 08:34:59.60	12.54	19.03	
2025-01-15 08:35:00.62	12.34	18.96	
2025-01-15 08:35:01.63	12.14	18.89	
2025-01-15 08:35:02.65	11.93	18.82	
2025-01-15 08:35:03.67	11.73	18.74	
2025-01-15 08:35:04.68	11.54	18.67	
2025-01-15 08:35:05.70	11.34	18.60	
2025-01-15 08:35:06.71	11.14	18.53	
2025-01-15 08:35:07.73	10.94	18.46	
2025-01-15 08:35:08.74	10.75	18.38	
2025-01-15 08:35:09.76	10.55	18.31	
2025-01-15 08:35:10.78	10.36	18.24	
2025-01-15 08:35:11.79	10.17	18.17	
2025-01-15 08:35:12.81	9.97	18.09	
2025-01-15 08:35:13.82	9.78	18.02	
2025-01-15 08:35:14.84	9.59	17.95	
2025-01-15 08:35:15.85	9.41	17.87	
2025-01-15 08:35:16.87	9.22	17.80	
2025-01-15 08:35:17.89	9.03	17.73	
2025-01-15 08:35:18.90	8.84	17.65	
2025-01-15 08:35:19.92	8.66	17.58	
2025-01-15 08:35:20.93	8.47	17.51	
2025-01-15 08:35:21.95	8.29	17.43	
2025-01-15 08:35:22.96	8.11	17.36	
2025-01-15 08:35:23.98	7.93	17.29	
2025-01-15 08:35:25.00	7.74	17.21	
2025-01-15 08:35:26.01	7.57	17.14	
2025-01-15 08:35:27.03	7.39	17.06	
2025-01-15 08:35:28.04	7.21	16.99	
2025-01-15 08:35:29.06	7.03	16.92	
2025-01-15 08:35:30.07	6.86	16.84	
2025-01-15 08:35:31.09	6.68	16.77	
2025-01-15 08:35:32.11	6.50	16.69	
2025-01-15 08:35:33.12	6.33	16.62	
2025-01-15 08:35:34.14	6.16	16.54	
2025-01-15 08:35:35.15	5.99	16.47	
2025-01-15 08:35:36.17	5.82	16.40	
2025-01-15 08:35:37.18	5.65	16.32	
2025-01-15 08:35:38.20	5.48	16.25	
2025-01-15 08:35:39.21	5.31	16.17	
2025-01-15 08:35:40.23	5.14	16.10	
2025-01-15 08:35:41.25	4.97	16.02	
2025-01-15 08:35:42.26	4.81	15.95	
2025-01-15 08:35:43.28	4.64	15.87	
2025-01-15 08:35:44.29	4.48	15.80	
2025-01-15 08:35:45.31	4.32	15.72	
2025-01-15 08:35:46.32	4.15	15.65	
2025-01-15 08:35:47.34	3.99	15.57	
2025-01-15 08:35:48.36	3.83	15.50	
2025-01-15 08:35:49.37	3.67	15.43	
2025-01-15 08:35:50.39	3.51	15.35	
2025-01-15 08:35:51.40	3.35	15.28	
2025-01-15 08:35:52.42	3.19	15.20	
2025-01-15 08:35:53.43	3.04	15.13	
2025-01-15 08:35:54.45	2.88	15.05	
2025-01-15 08:35:55.47	2.73	14.98	
2025-01-15 08:35:56.48	2.57	14.90	
2025-01-15 08:35:57.50	2.42	14.83	
2025-01-15 08:35:58.51	2.27	14.75	
2025-01-15 08:35:59.53	2.11	14.68	
2025-01-15 08:36:00.54	1.96	14.61	
2025-01-15 08:36:01.56	1.81	14.53	
2025-01-15 08:36:02.58	1.66	14.46	
2025-01-15 08:36:03.59	1.51	14.38	
2025-01-15 08:36:04.61	1.36	14.31	
2025-01-15 08:36:05.62	1.22	14.23	
2025-01-15 08:36:06.64	1.07	14.16	
2025-01-15 08:36:07.65	0.93	14.08	
2025-01-15 08:36:08.67	0.78	14.01	
2025-01-15 08:36:09.69	0.63	13.94	
2025-01-15 08:36:10.70	0.49	13.86	
2025-01-15 08:36:11.72	0.35	13.79	
2025-01-15 08:36:12.73	0.21	13.71	
2025-01-15 08:36:13.75	0.06	13.64	
2025-01-15 08:36:14.76	359.92	13.57	
2025-01-15 08:36:15.78	359.78	13.49	
2025-01-15 08:36:16.80	359.64	13.42	
2025-01-15 08:36:17.81	359.51	13.34	
2025-01-15 08:36:18.83	359.37	13.27	
2025-01-15 08:36:19.84	359.23	13.20	
2025-01-15 08:36:20.86	359.09	13.12	
2025-01-15 08:36:21.87	358.96	13.05	
2025-01-15 08:36:22.89	358.82	12.98	
2025-01-15 08:36:23.91	358.69	12.90	
2025-01-15 08:36:24.92	358.55	12.83	
2025-01-15 08:36:25.94	358.42	12.75	
2025-01-15 08:36:26.95	358.29	12.68	
2025-01-15 08:36:27.97	358.16	12.61	
2025-01-15 08:36:28.98	358.03	12.54	
2025-01-15 08:36:30.00	357.90	12.46	
2025-01-15 08:36:31.01	357.77	12.39	
2025-01-15 08:36:32.03	357.64	12.32	
2025-01-15 08:36:33.05	357.51	12.24	
2025-01-15 08:36:34.06	357.38	12.17	
2025-01-15 08:36:35.08	357.25	12.10	
2025-01-15 08:36:36.09	357.13	12.03	
2025-01-15 08:36:37.11	357.00	11.95	
2025-01-15 08:36:38.12	356.88	11.88	
2025-01-15 08:36:39.14	356.75	11.81	
2025-01-15 08:36:40.16	356.63	11.74	
2025-01-15 08:36:41.17	356.50	11.66	
2025-01-15 08:36:42.19	356.38	11.59	
2025-01-15 08:36:43.20	356.26	11.52	
2025-01-15 08:36:44.22	356.14	11.45	
2025-01-15 08:36:45.23	356.02	11.38	
2025-01-15 08:36:46.25	355.90	11.30	
2025-01-15 08:36:47.27	355.78	11.23	
2025-01-15 08:36:48.28	355.66	11.16	
2025-01-15 08:36:49.30	355.54	11.09	
2025-01-15 08:36:50.31	355.42	11.02	
2025-01-15 08:36:51.33	355.30	10.95	
2025-01-15 08:36:52.34	355.19	10.88	
2025-01-15 08:36:53.36	355.07	10.80	
2025-01-15 08:36:54.38	354.96	10.73	
2025-01-15 08:36:55.39	354.84	10.66	
2025-01-15 08:36:56.41	354.73	10.59	
2025-01-15 08:36:57.42	354.61	10.52	
2025-01-15 08:36:58.44	354.50	10.45	
2025-01-15 08:36:59.45	354.39	10.38	
2025-01-15 08:37:00.47	354.27	10.31	
2025-01-15 08:37:01.49	354.16	10.24	
2025-01-15 08:37:02.50	354.05	10.17	
2025-01-15 08:37:03.52	353.94	10.10	
2025-01-15 08:37:04.53	353.83	10.03	
2025-01-15 08:37:05.55	353.72	9.96	
2025-01-15 08:37:06.56	353.61	9.89	
2025-01-15 08:37:07.58	353.51	9.82	
2025-01-15 08:37:08.60	353.40	9.75	
2025-01-15 08:37:09.61	353.29	9.68	
2025-01-15 08:37:10.63	353.18	9.61	
2025-01-15 08:37:11.64	353.08	9.54	
2025-01-15 08:37:12.66	352.97	9.47	
2025-01-15 08:37:13.67	352.87	9.40	
2025-01-15 08:37:14.69	352.76	9.33	
2025-01-15 08:37:15.71	352.66	9.26	
2025-01-15 08:37:16.72	352.55	9.19	
2025-01-15 08:37:17.74	352.45	9.12	
2025-01-15 08:37:18.75	352.35	9.05	
2025-01-15 08:37:19.77	352.25	8.99	
2025-01-15 08:37:20.78	352.15	8.92	
2025-01-15 08:37:21.80	352.04	8.85	
2025-01-15 08:37:22.81	351.94	8.78	
2025-01-15 08:37:23.83	351.84	8.71	
2025-01-15 08:37:24.85	351.74	8.64	
2025-01-15 08:37:25.86	351.64	8.58	
2025-01-15 08:37:26.88	351.55	8.51	
2025-01-15 08:37:27.89	351.45	8.44	
2025-01-15 08:37:28.91	351.35	8.37	
2025-01-15 08:37:29.92	351.25	8.30	
2025-01-15 08:37:30.94	351.16	8.24	
2025-01-15 08:37:31.96	351.06	8.17	
2025-01-15 08:37:32.97	350.96	8.10	
2025-01-15 08:37:33.99	350.87	8.03	
2025-01-15 08:37:35.00	350.77	7.97	
2025-01-15 08:37:36.02	350.68	7.90	
2025-01-15 08:37:37.03	350.59	7.83	
2025-01-15 08:37:38.05	350.49	7.77	
2025-01-15 08:37:39.07	350.40	7.70	
2025-01-15 08:37:40.08	350.31	7.63	
2025-01-15 08:37:41.10	350.21	7.57	
2025-01-15 08:37:42.11	350.12	7.50	
2025-01-15 08:37:43.13	350.03	7.43	
2025-01-15 08:37:44.14	349.94	7.37	
2025-01-15 08:37:45.16	349.85	7.30	
2025-01-15 08:37:46.18	349.76	7.23	
2025-01-15 08:37:47.19	349.67	7.17	
2025-01-15 08:37:48.21	349.58	7.10	
2025-01-15 08:37:49.22	349.49	7.04	
2025-01-15 08:37:50.24	349.40	6.97	
2025-01-15 08:37:51.25	349.31	6.91	
2025-01-15 08:37:52.27	349.23	6.84	
2025-01-15 08:37:53.29	349.14	6.77	
2025-01-15 08:37:54.30	349.05	6.71	
2025-01-15 08:37:55.32	348.97	6.64	
2025-01-15 08:37:56.33	348.88	6.58	
2025-01-15 08:37:57.35	348.79	6.51	
2025-01-15 08:37:58.36	348.71	6.45	
2025-01-15 08:37:59.38	348.63	6.39	
2025-01-15 08:38:00.40	348.54	6.32	
2025-01-15 08:38:01.41	348.46	6.26	
2025-01-15 08:38:02.43	348.37	6.19	
2025-01-15 08:38:03.44	348.29	6.13	
2025-01-15 08:38:04.46	348.21	6.06	
2025-01-15 08:38:05.47	348.13	6.00	
2025-01-15 08:38:06.49	348.04	5.93	
2025-01-15 08:38:07.50	347.96	5.87	
2025-01-15 08:38:08.52	347.88	5.81	
2025-01-15 08:38:09.54	347.80	5.74	
2025-01-15 08:38:10.55	347.72	5.68	
2025-01-15 08:38:11.57	347.64	5.62	
2025-01-15 08:38:12.58	347.56	5.55	
2025-01-15 08:38:13.60	347.48	5.49	
2025-01-15 08:38:14.61	347.40	5.43	
2025-01-15 08:38:15.63	347.32	5.36	
2025-01-15 08:38:16.65	347.24	5.30	
2025-01-15 08:38:17.66	347.16	5.24	
2025-01-15 08:38:18.68	347.09	5.17	
2025-01-15 08:38:19.69	347.01	5.11	
2025-01-15 08:38:20.71	346.93	5.05	
2025-01-15 08:38:21.72	346.86	4.99	
2025-01-15 08:38:22.74	346.78	4.92	
2025-01-15 08:38:23.76	346.70	4.86	
2025-01-15 08:38:24.77	346.63	4.80	
2025-01-15 08:38:25.79	346.55	4.74	
2025-01-15 08:38:26.80	346.48	4.67	
2025-01-15 08:38:27.82	346.40	4.61	
2025-01-15 08:38:28.83	346.33	4.55	
2025-01-15 08:38:29.85	346.26	4.49	
2025-01-15 08:38:30.87	346.18	4.43	
2025-01-15 08:38:31.88	346.11	4.37	
2025-01-15 08:38:32.90	346.03	4.30	
2025-01-15 08:38:33.91	345.96	4.24	
2025-01-15 08:38:34.93	345.89	4.18	
2025-01-15 08:38:35.94	345.82	4.12	
2025-01-15 08:38:36.96	345.75	4.06	

#Closed at: 2025-01-15 08:38:37