passes_logs/2025/01/15/SPB_Silybum_02/SPB_Silybum_02__20250115_221414_SUOMI_NPP_rec.log

#Pass ID: 20250115_221414_SUOMI NPP
#Satellite: SUOMI NPP
#Configuration: NPP
#Start time: 2025-01-15 22:14:13

#Version: 2.0.20230423
#Station: SPB_Silybum_02
#Location: 30.233357 lon 59.946436 lat
#TLE: 1 37849U 11061A   25015.13132341  .00000162  00000+0  97654-4 0  9994
#TLE: 2 37849  98.7446 316.1182 0001675  40.9055 319.2247 14.19538225684933

#Time	Az	El	Level	Level2	SNR	BER	Gain	Gain2
2025-01-15 22:14:15.74	29.79	4.05	
2025-01-15 22:14:16.96	29.91	4.11	
2025-01-15 22:14:18.18	30.03	4.18	
2025-01-15 22:14:19.40	30.16	4.24	
2025-01-15 22:14:20.62	30.28	4.30	
2025-01-15 22:14:21.83	30.40	4.36	
2025-01-15 22:14:23.05	30.52	4.42	
2025-01-15 22:14:24.27	30.65	4.48	
2025-01-15 22:14:25.49	30.77	4.55	
2025-01-15 22:14:26.71	30.89	4.61	
2025-01-15 22:14:27.92	31.02	4.67	
2025-01-15 22:14:29.14	31.14	4.73	
2025-01-15 22:14:30.36	31.27	4.79	
2025-01-15 22:14:31.58	31.40	4.86	
2025-01-15 22:14:32.80	31.52	4.92	
2025-01-15 22:14:34.01	31.65	4.98	
2025-01-15 22:14:35.23	31.78	5.04	
2025-01-15 22:14:36.45	31.91	5.11	
2025-01-15 22:14:37.67	32.03	5.17	
2025-01-15 22:14:38.89	32.16	5.23	
2025-01-15 22:14:40.10	32.29	5.29	
2025-01-15 22:14:41.32	32.42	5.35	
2025-01-15 22:14:42.54	32.55	5.42	
2025-01-15 22:14:43.76	32.69	5.48	
2025-01-15 22:14:44.97	32.82	5.54	
2025-01-15 22:14:46.19	32.95	5.60	
2025-01-15 22:14:47.41	33.08	5.67	
2025-01-15 22:14:48.63	33.22	5.73	
2025-01-15 22:14:49.85	33.35	5.79	
2025-01-15 22:14:51.06	33.49	5.85	
2025-01-15 22:14:52.28	33.62	5.92	
2025-01-15 22:14:53.50	33.76	5.98	
2025-01-15 22:14:54.72	33.89	6.04	
2025-01-15 22:14:55.94	34.03	6.11	
2025-01-15 22:14:57.15	34.17	6.17	
2025-01-15 22:14:58.37	34.31	6.23	
2025-01-15 22:14:59.59	34.44	6.29	
2025-01-15 22:15:00.81	34.58	6.36	
2025-01-15 22:15:02.03	34.72	6.42	
2025-01-15 22:15:03.24	34.86	6.48	
2025-01-15 22:15:04.46	35.00	6.54	
2025-01-15 22:15:05.68	35.15	6.61	
2025-01-15 22:15:06.90	35.29	6.67	
2025-01-15 22:15:08.12	35.43	6.73	
2025-01-15 22:15:09.33	35.57	6.79	
2025-01-15 22:15:10.55	35.72	6.86	
2025-01-15 22:15:11.77	35.86	6.92	
2025-01-15 22:15:12.99	36.01	6.98	
2025-01-15 22:15:14.20	36.15	7.05	
2025-01-15 22:15:15.42	36.30	7.11	
2025-01-15 22:15:16.64	36.45	7.17	
2025-01-15 22:15:17.86	36.59	7.23	
2025-01-15 22:15:19.08	36.74	7.30	
2025-01-15 22:15:20.30	36.89	7.36	
2025-01-15 22:15:21.52	37.04	7.42	
2025-01-15 22:15:22.74	37.19	7.49	
2025-01-15 22:15:23.95	37.34	7.55	
2025-01-15 22:15:25.17	37.49	7.61	
2025-01-15 22:15:26.39	37.64	7.67	
2025-01-15 22:15:27.61	37.80	7.74	
2025-01-15 22:15:28.83	37.95	7.80	
2025-01-15 22:15:30.04	38.10	7.86	
2025-01-15 22:15:31.26	38.26	7.93	
2025-01-15 22:15:32.48	38.41	7.99	
2025-01-15 22:15:33.70	38.57	8.05	
2025-01-15 22:15:34.92	38.73	8.11	
2025-01-15 22:15:36.13	38.88	8.18	
2025-01-15 22:15:37.35	39.04	8.24	
2025-01-15 22:15:38.57	39.20	8.30	
2025-01-15 22:15:39.79	39.36	8.36	
2025-01-15 22:15:41.01	39.52	8.43	
2025-01-15 22:15:42.22	39.68	8.49	
2025-01-15 22:15:43.44	39.84	8.55	
2025-01-15 22:15:44.66	40.00	8.61	
2025-01-15 22:15:45.88	40.16	8.68	
2025-01-15 22:15:47.09	40.32	8.74	
2025-01-15 22:15:48.31	40.49	8.80	
2025-01-15 22:15:49.53	40.65	8.86	
2025-01-15 22:15:50.75	40.82	8.92	
2025-01-15 22:15:51.97	40.98	8.99	
2025-01-15 22:15:53.18	41.15	9.05	
2025-01-15 22:15:54.40	41.32	9.11	
2025-01-15 22:15:55.62	41.48	9.17	
2025-01-15 22:15:56.84	41.65	9.23	
2025-01-15 22:15:58.06	41.82	9.30	
2025-01-15 22:15:59.27	41.99	9.36	
2025-01-15 22:16:00.49	42.16	9.42	
2025-01-15 22:16:01.71	42.33	9.48	
2025-01-15 22:16:02.93	42.50	9.54	
2025-01-15 22:16:04.15	42.68	9.60	
2025-01-15 22:16:05.36	42.85	9.67	
2025-01-15 22:16:06.58	43.02	9.73	
2025-01-15 22:16:07.80	43.20	9.79	
2025-01-15 22:16:09.02	43.37	9.85	
2025-01-15 22:16:10.24	43.55	9.91	
2025-01-15 22:16:11.45	43.73	9.97	
2025-01-15 22:16:12.67	43.90	10.03	
2025-01-15 22:16:13.89	44.08	10.09	
2025-01-15 22:16:15.11	44.26	10.16	
2025-01-15 22:16:16.32	44.44	10.22	
2025-01-15 22:16:17.54	44.62	10.28	
2025-01-15 22:16:18.76	44.80	10.34	
2025-01-15 22:16:19.98	44.98	10.40	
2025-01-15 22:16:21.20	45.17	10.46	
2025-01-15 22:16:22.41	45.35	10.52	
2025-01-15 22:16:23.63	45.53	10.58	
2025-01-15 22:16:24.85	45.72	10.64	
2025-01-15 22:16:26.07	45.90	10.70	
2025-01-15 22:16:27.29	46.09	10.76	
2025-01-15 22:16:28.50	46.28	10.82	
2025-01-15 22:16:29.72	46.46	10.88	
2025-01-15 22:16:30.94	46.65	10.94	
2025-01-15 22:16:32.16	46.84	11.00	
2025-01-15 22:16:33.38	47.03	11.06	
2025-01-15 22:16:34.59	47.22	11.11	
2025-01-15 22:16:35.81	47.41	11.17	
2025-01-15 22:16:37.03	47.61	11.23	
2025-01-15 22:16:38.25	47.80	11.29	
2025-01-15 22:16:39.47	47.99	11.35	
2025-01-15 22:16:40.68	48.19	11.41	
2025-01-15 22:16:41.90	48.38	11.46	
2025-01-15 22:16:43.12	48.58	11.52	
2025-01-15 22:16:44.34	48.78	11.58	
2025-01-15 22:16:45.55	48.97	11.64	
2025-01-15 22:16:46.77	49.17	11.70	
2025-01-15 22:16:47.99	49.37	11.75	
2025-01-15 22:16:49.21	49.57	11.81	
2025-01-15 22:16:50.43	49.77	11.87	
2025-01-15 22:16:51.64	49.97	11.92	
2025-01-15 22:16:52.86	50.17	11.98	
2025-01-15 22:16:54.08	50.38	12.04	
2025-01-15 22:16:55.30	50.58	12.09	
2025-01-15 22:16:56.52	50.78	12.15	
2025-01-15 22:16:57.73	50.99	12.21	
2025-01-15 22:16:58.95	51.19	12.26	
2025-01-15 22:17:00.17	51.40	12.32	
2025-01-15 22:17:01.39	51.61	12.37	
2025-01-15 22:17:02.61	51.82	12.43	
2025-01-15 22:17:03.82	52.02	12.48	
2025-01-15 22:17:05.04	52.23	12.54	
2025-01-15 22:17:06.26	52.44	12.59	
2025-01-15 22:17:07.48	52.66	12.64	
2025-01-15 22:17:08.70	52.87	12.70	
2025-01-15 22:17:09.91	53.08	12.75	
2025-01-15 22:17:11.13	53.29	12.81	
2025-01-15 22:17:12.35	53.51	12.86	
2025-01-15 22:17:13.57	53.72	12.91	
2025-01-15 22:17:14.78	53.94	12.96	
2025-01-15 22:17:16.00	54.15	13.02	
2025-01-15 22:17:17.22	54.37	13.07	
2025-01-15 22:17:18.44	54.59	13.12	
2025-01-15 22:17:19.66	54.81	13.17	
2025-01-15 22:17:20.87	55.02	13.22	
2025-01-15 22:17:22.09	55.25	13.28	
2025-01-15 22:17:23.31	55.47	13.33	
2025-01-15 22:17:24.53	55.69	13.38	
2025-01-15 22:17:25.75	55.91	13.43	
2025-01-15 22:17:26.96	56.13	13.48	
2025-01-15 22:17:28.18	56.36	13.53	
2025-01-15 22:17:29.40	56.58	13.58	
2025-01-15 22:17:30.62	56.81	13.63	
2025-01-15 22:17:31.84	57.03	13.67	
2025-01-15 22:17:33.05	57.26	13.72	
2025-01-15 22:17:34.27	57.49	13.77	
2025-01-15 22:17:35.49	57.71	13.82	
2025-01-15 22:17:36.71	57.94	13.87	
2025-01-15 22:17:37.93	58.17	13.91	
2025-01-15 22:17:39.14	58.40	13.96	
2025-01-15 22:17:40.36	58.63	14.01	
2025-01-15 22:17:41.58	58.87	14.05	
2025-01-15 22:17:42.80	59.10	14.10	
2025-01-15 22:17:44.01	59.33	14.14	
2025-01-15 22:17:45.23	59.56	14.19	
2025-01-15 22:17:46.45	59.80	14.23	
2025-01-15 22:17:47.67	60.04	14.28	
2025-01-15 22:17:48.89	60.27	14.32	
2025-01-15 22:17:50.10	60.51	14.37	
2025-01-15 22:17:51.32	60.74	14.41	
2025-01-15 22:17:52.54	60.98	14.45	
2025-01-15 22:17:53.76	61.22	14.50	
2025-01-15 22:17:54.98	61.46	14.54	
2025-01-15 22:17:56.19	61.70	14.58	
2025-01-15 22:17:57.41	61.94	14.62	
2025-01-15 22:17:58.63	62.18	14.66	
2025-01-15 22:17:59.85	62.42	14.70	
2025-01-15 22:18:01.07	62.67	14.74	
2025-01-15 22:18:02.28	62.91	14.78	
2025-01-15 22:18:03.50	63.15	14.82	
2025-01-15 22:18:04.72	63.40	14.86	
2025-01-15 22:18:05.94	63.64	14.90	
2025-01-15 22:18:07.16	63.89	14.94	
2025-01-15 22:18:08.37	64.13	14.98	
2025-01-15 22:18:09.59	64.38	15.01	
2025-01-15 22:18:10.81	64.63	15.05	
2025-01-15 22:18:12.03	64.88	15.09	
2025-01-15 22:18:13.24	65.12	15.12	
2025-01-15 22:18:14.46	65.37	15.16	
2025-01-15 22:18:15.68	65.62	15.19	
2025-01-15 22:18:16.90	65.88	15.23	
2025-01-15 22:18:18.12	66.13	15.26	
2025-01-15 22:18:19.33	66.38	15.30	
2025-01-15 22:18:20.55	66.63	15.33	
2025-01-15 22:18:21.77	66.88	15.36	
2025-01-15 22:18:22.99	67.14	15.39	
2025-01-15 22:18:24.21	67.39	15.43	
2025-01-15 22:18:25.42	67.64	15.46	
2025-01-15 22:18:26.64	67.90	15.49	
2025-01-15 22:18:27.86	68.15	15.52	
2025-01-15 22:18:29.08	68.41	15.55	
2025-01-15 22:18:30.30	68.67	15.58	
2025-01-15 22:18:31.51	68.92	15.61	
2025-01-15 22:18:32.73	69.18	15.63	
2025-01-15 22:18:33.95	69.44	15.66	
2025-01-15 22:18:35.17	69.70	15.69	
2025-01-15 22:18:36.39	69.96	15.72	
2025-01-15 22:18:37.60	70.21	15.74	
2025-01-15 22:18:38.82	70.47	15.77	
2025-01-15 22:18:40.04	70.73	15.79	
2025-01-15 22:18:41.26	70.99	15.82	
2025-01-15 22:18:42.48	71.26	15.84	
2025-01-15 22:18:43.69	71.52	15.86	
2025-01-15 22:18:44.91	71.78	15.89	
2025-01-15 22:18:46.13	72.04	15.91	
2025-01-15 22:18:47.35	72.30	15.93	
2025-01-15 22:18:48.56	72.56	15.95	
2025-01-15 22:18:49.78	72.83	15.97	
2025-01-15 22:18:51.00	73.09	16.00	
2025-01-15 22:18:52.22	73.36	16.01	
2025-01-15 22:18:53.44	73.62	16.03	
2025-01-15 22:18:54.65	73.88	16.05	
2025-01-15 22:18:55.87	74.15	16.07	
2025-01-15 22:18:57.09	74.42	16.09	
2025-01-15 22:18:58.31	74.68	16.11	
2025-01-15 22:18:59.53	74.95	16.12	
2025-01-15 22:19:00.74	75.21	16.14	
2025-01-15 22:19:01.96	75.48	16.15	
2025-01-15 22:19:03.18	75.75	16.17	
2025-01-15 22:19:04.40	76.01	16.18	
2025-01-15 22:19:05.62	76.28	16.20	
2025-01-15 22:19:06.83	76.55	16.21	
2025-01-15 22:19:08.05	76.81	16.22	
2025-01-15 22:19:09.27	77.08	16.23	
2025-01-15 22:19:10.49	77.35	16.24	
2025-01-15 22:19:11.70	77.62	16.25	
2025-01-15 22:19:12.92	77.89	16.26	
2025-01-15 22:19:14.14	78.16	16.27	
2025-01-15 22:19:15.36	78.43	16.28	
2025-01-15 22:19:16.58	78.69	16.29	
2025-01-15 22:19:17.79	78.96	16.30	
2025-01-15 22:19:19.01	79.23	16.30	
2025-01-15 22:19:20.23	79.50	16.31	
2025-01-15 22:19:21.45	79.77	16.32	
2025-01-15 22:19:22.67	80.04	16.32	
2025-01-15 22:19:23.88	80.31	16.33	
2025-01-15 22:19:25.10	80.58	16.33	
2025-01-15 22:19:26.32	80.85	16.33	
2025-01-15 22:19:27.54	81.12	16.34	
2025-01-15 22:19:28.76	81.39	16.34	
2025-01-15 22:19:29.97	81.66	16.34	
2025-01-15 22:19:31.19	81.93	16.34	
2025-01-15 22:19:32.41	82.20	16.34	
2025-01-15 22:19:33.63	82.47	16.34	
2025-01-15 22:19:34.85	82.74	16.34	
2025-01-15 22:19:36.06	83.01	16.34	
2025-01-15 22:19:37.28	83.28	16.34	
2025-01-15 22:19:38.50	83.55	16.34	
2025-01-15 22:19:39.72	83.82	16.33	
2025-01-15 22:19:40.94	84.09	16.33	
2025-01-15 22:19:42.15	84.36	16.32	
2025-01-15 22:19:43.37	84.63	16.32	
2025-01-15 22:19:44.59	84.90	16.31	
2025-01-15 22:19:45.81	85.17	16.31	
2025-01-15 22:19:47.02	85.44	16.30	
2025-01-15 22:19:48.24	85.71	16.29	
2025-01-15 22:19:49.46	85.98	16.29	
2025-01-15 22:19:50.68	86.25	16.28	
2025-01-15 22:19:51.90	86.51	16.27	
2025-01-15 22:19:53.11	86.78	16.26	
2025-01-15 22:19:54.33	87.05	16.25	
2025-01-15 22:19:55.55	87.32	16.24	
2025-01-15 22:19:56.77	87.59	16.22	
2025-01-15 22:19:57.99	87.86	16.21	
2025-01-15 22:19:59.20	88.12	16.20	
2025-01-15 22:20:00.42	88.39	16.19	
2025-01-15 22:20:01.64	88.66	16.17	
2025-01-15 22:20:02.86	88.93	16.16	
2025-01-15 22:20:04.08	89.19	16.14	
2025-01-15 22:20:05.29	89.46	16.13	
2025-01-15 22:20:06.51	89.73	16.11	
2025-01-15 22:20:07.73	89.99	16.09	
2025-01-15 22:20:08.95	90.26	16.08	
2025-01-15 22:20:10.17	90.52	16.06	
2025-01-15 22:20:11.38	90.79	16.04	
2025-01-15 22:20:12.60	91.05	16.02	
2025-01-15 22:20:13.82	91.32	16.00	
2025-01-15 22:20:15.04	91.58	15.98	
2025-01-15 22:20:16.25	91.84	15.96	
2025-01-15 22:20:17.47	92.11	15.94	
2025-01-15 22:20:18.69	92.37	15.92	
2025-01-15 22:20:19.91	92.63	15.90	
2025-01-15 22:20:21.13	92.90	15.87	
2025-01-15 22:20:22.34	93.16	15.85	
2025-01-15 22:20:23.56	93.42	15.83	
2025-01-15 22:20:24.78	93.68	15.80	
2025-01-15 22:20:26.00	93.94	15.78	
2025-01-15 22:20:27.22	94.20	15.75	
2025-01-15 22:20:28.43	94.46	15.72	
2025-01-15 22:20:29.65	94.72	15.70	
2025-01-15 22:20:30.87	94.98	15.67	
2025-01-15 22:20:32.09	95.24	15.64	
2025-01-15 22:20:33.31	95.50	15.61	
2025-01-15 22:20:34.52	95.75	15.59	
2025-01-15 22:20:35.74	96.01	15.56	
2025-01-15 22:20:36.96	96.27	15.53	
2025-01-15 22:20:38.18	96.53	15.50	
2025-01-15 22:20:39.40	96.78	15.47	
2025-01-15 22:20:40.61	97.04	15.43	
2025-01-15 22:20:41.83	97.29	15.40	
2025-01-15 22:20:43.05	97.55	15.37	
2025-01-15 22:20:44.27	97.80	15.34	
2025-01-15 22:20:45.48	98.05	15.30	
2025-01-15 22:20:46.70	98.30	15.27	
2025-01-15 22:20:47.92	98.56	15.24	
2025-01-15 22:20:49.14	98.81	15.20	
2025-01-15 22:20:50.36	99.06	15.17	
2025-01-15 22:20:51.57	99.31	15.13	
2025-01-15 22:20:52.79	99.56	15.10	
2025-01-15 22:20:54.01	99.81	15.06	
2025-01-15 22:20:55.23	100.06	15.02	
2025-01-15 22:20:56.45	100.30	14.98	
2025-01-15 22:20:57.66	100.55	14.95	
2025-01-15 22:20:58.88	100.80	14.91	
2025-01-15 22:21:00.10	101.04	14.87	
2025-01-15 22:21:01.32	101.29	14.83	
2025-01-15 22:21:02.54	101.53	14.79	
2025-01-15 22:21:03.75	101.78	14.75	
2025-01-15 22:21:04.97	102.02	14.71	
2025-01-15 22:21:06.19	102.26	14.67	
2025-01-15 22:21:07.41	102.51	14.63	
2025-01-15 22:21:08.62	102.75	14.59	
2025-01-15 22:21:09.84	102.99	14.55	
2025-01-15 22:21:11.06	103.23	14.50	
2025-01-15 22:21:12.28	103.47	14.46	
2025-01-15 22:21:13.50	103.71	14.42	
2025-01-15 22:21:14.71	103.95	14.37	
2025-01-15 22:21:15.93	104.18	14.33	
2025-01-15 22:21:17.15	104.42	14.29	
2025-01-15 22:21:18.37	104.66	14.24	
2025-01-15 22:21:19.59	104.89	14.20	
2025-01-15 22:21:20.80	105.13	14.15	
2025-01-15 22:21:22.02	105.36	14.11	
2025-01-15 22:21:23.24	105.60	14.06	
2025-01-15 22:21:24.46	105.83	14.01	
2025-01-15 22:21:25.68	106.06	13.97	
2025-01-15 22:21:26.89	106.29	13.92	
2025-01-15 22:21:28.11	106.52	13.87	
2025-01-15 22:21:29.33	106.75	13.82	
2025-01-15 22:21:30.55	106.98	13.78	
2025-01-15 22:21:31.77	107.21	13.73	
2025-01-15 22:21:32.98	107.44	13.68	
2025-01-15 22:21:34.20	107.66	13.63	
2025-01-15 22:21:35.42	107.89	13.58	
2025-01-15 22:21:36.64	108.12	13.53	
2025-01-15 22:21:37.86	108.34	13.48	
2025-01-15 22:21:39.07	108.56	13.43	
2025-01-15 22:21:40.29	108.79	13.38	
2025-01-15 22:21:41.51	109.01	13.33	
2025-01-15 22:21:42.73	109.23	13.28	
2025-01-15 22:21:43.94	109.45	13.23	
2025-01-15 22:21:45.16	109.67	13.17	
2025-01-15 22:21:46.38	109.89	13.12	
2025-01-15 22:21:47.60	110.11	13.07	
2025-01-15 22:21:48.82	110.33	13.02	
2025-01-15 22:21:50.03	110.55	12.97	
2025-01-15 22:21:51.25	110.77	12.91	
2025-01-15 22:21:52.47	110.98	12.86	
2025-01-15 22:21:53.69	111.20	12.81	
2025-01-15 22:21:54.91	111.41	12.75	
2025-01-15 22:21:56.12	111.62	12.70	
2025-01-15 22:21:57.34	111.84	12.64	
2025-01-15 22:21:58.56	112.05	12.59	
2025-01-15 22:21:59.78	112.26	12.53	
2025-01-15 22:22:01.01	112.47	12.48	
2025-01-15 22:22:02.23	112.68	12.42	
2025-01-15 22:22:03.45	112.89	12.37	
2025-01-15 22:22:04.66	113.10	12.31	
2025-01-15 22:22:05.88	113.31	12.26	
2025-01-15 22:22:07.10	113.52	12.20	
2025-01-15 22:22:08.32	113.72	12.14	
2025-01-15 22:22:09.54	113.93	12.09	
2025-01-15 22:22:10.75	114.13	12.03	
2025-01-15 22:22:11.97	114.33	11.97	
2025-01-15 22:22:13.19	114.54	11.92	
2025-01-15 22:22:14.41	114.74	11.86	
2025-01-15 22:22:15.63	114.94	11.80	
2025-01-15 22:22:16.84	115.14	11.74	
2025-01-15 22:22:18.06	115.34	11.69	
2025-01-15 22:22:19.28	115.54	11.63	
2025-01-15 22:22:20.50	115.74	11.57	
2025-01-15 22:22:21.72	115.94	11.51	
2025-01-15 22:22:22.93	116.13	11.45	
2025-01-15 22:22:24.15	116.33	11.39	
2025-01-15 22:22:25.37	116.53	11.34	
2025-01-15 22:22:26.59	116.72	11.28	
2025-01-15 22:22:27.81	116.92	11.22	
2025-01-15 22:22:29.02	117.11	11.16	
2025-01-15 22:22:30.24	117.30	11.10	
2025-01-15 22:22:31.46	117.49	11.04	
2025-01-15 22:22:32.68	117.68	10.98	
2025-01-15 22:22:33.89	117.87	10.92	
2025-01-15 22:22:35.11	118.06	10.86	
2025-01-15 22:22:36.33	118.25	10.80	
2025-01-15 22:22:37.55	118.44	10.74	
2025-01-15 22:22:38.77	118.63	10.68	
2025-01-15 22:22:39.98	118.81	10.62	
2025-01-15 22:22:41.20	119.00	10.56	
2025-01-15 22:22:42.42	119.18	10.50	
2025-01-15 22:22:43.64	119.37	10.44	
2025-01-15 22:22:44.86	119.55	10.38	
2025-01-15 22:22:46.07	119.73	10.32	
2025-01-15 22:22:47.29	119.91	10.25	
2025-01-15 22:22:48.51	120.10	10.19	
2025-01-15 22:22:49.73	120.28	10.13	
2025-01-15 22:22:50.95	120.46	10.07	
2025-01-15 22:22:52.16	120.63	10.01	
2025-01-15 22:22:53.38	120.81	9.95	
2025-01-15 22:22:54.60	120.99	9.89	
2025-01-15 22:22:55.82	121.17	9.82	
2025-01-15 22:22:57.04	121.34	9.76	
2025-01-15 22:22:58.25	121.52	9.70	
2025-01-15 22:22:59.47	121.69	9.64	
2025-01-15 22:23:00.69	121.87	9.58	
2025-01-15 22:23:01.91	122.04	9.51	
2025-01-15 22:23:03.13	122.21	9.45	
2025-01-15 22:23:04.34	122.39	9.39	
2025-01-15 22:23:05.56	122.56	9.33	
2025-01-15 22:23:06.78	122.73	9.27	
2025-01-15 22:23:08.00	122.90	9.20	
2025-01-15 22:23:09.21	123.07	9.14	
2025-01-15 22:23:10.43	123.23	9.08	
2025-01-15 22:23:11.65	123.40	9.02	
2025-01-15 22:23:12.87	123.57	8.95	
2025-01-15 22:23:14.09	123.74	8.89	
2025-01-15 22:23:15.30	123.90	8.83	
2025-01-15 22:23:16.52	124.07	8.76	
2025-01-15 22:23:17.74	124.23	8.70	
2025-01-15 22:23:18.96	124.39	8.64	
2025-01-15 22:23:20.18	124.56	8.58	
2025-01-15 22:23:21.39	124.72	8.51	
2025-01-15 22:23:22.61	124.88	8.45	
2025-01-15 22:23:23.83	125.04	8.39	
2025-01-15 22:23:25.05	125.20	8.32	
2025-01-15 22:23:26.27	125.36	8.26	
2025-01-15 22:23:27.48	125.52	8.20	
2025-01-15 22:23:28.70	125.68	8.13	
2025-01-15 22:23:29.92	125.83	8.07	
2025-01-15 22:23:31.14	125.99	8.01	
2025-01-15 22:23:32.36	126.15	7.94	
2025-01-15 22:23:33.57	126.30	7.88	
2025-01-15 22:23:34.79	126.46	7.82	
2025-01-15 22:23:36.01	126.61	7.75	
2025-01-15 22:23:37.23	126.77	7.69	
2025-01-15 22:23:38.44	126.92	7.63	
2025-01-15 22:23:39.66	127.07	7.56	
2025-01-15 22:23:40.88	127.22	7.50	
2025-01-15 22:23:42.10	127.37	7.44	
2025-01-15 22:23:43.32	127.52	7.37	
2025-01-15 22:23:44.53	127.67	7.31	
2025-01-15 22:23:45.75	127.82	7.25	
2025-01-15 22:23:46.97	127.97	7.18	
2025-01-15 22:23:48.19	128.12	7.12	
2025-01-15 22:23:49.41	128.27	7.06	
2025-01-15 22:23:50.62	128.41	6.99	
2025-01-15 22:23:51.84	128.56	6.93	
2025-01-15 22:23:53.06	128.70	6.87	
2025-01-15 22:23:54.28	128.85	6.80	
2025-01-15 22:23:55.50	128.99	6.74	
2025-01-15 22:23:56.71	129.14	6.68	
2025-01-15 22:23:57.93	129.28	6.61	
2025-01-15 22:23:59.15	129.42	6.55	
2025-01-15 22:24:00.37	129.57	6.49	
2025-01-15 22:24:01.59	129.71	6.42	
2025-01-15 22:24:02.80	129.85	6.36	
2025-01-15 22:24:04.02	129.99	6.30	
2025-01-15 22:24:05.24	130.13	6.23	
2025-01-15 22:24:06.46	130.27	6.17	
2025-01-15 22:24:07.67	130.40	6.11	
2025-01-15 22:24:08.89	130.54	6.04	
2025-01-15 22:24:10.11	130.68	5.98	
2025-01-15 22:24:11.33	130.81	5.91	
2025-01-15 22:24:12.55	130.95	5.85	
2025-01-15 22:24:13.76	131.09	5.79	
2025-01-15 22:24:14.98	131.22	5.73	
2025-01-15 22:24:16.20	131.36	5.66	
2025-01-15 22:24:17.42	131.49	5.60	
2025-01-15 22:24:18.64	131.62	5.54	
2025-01-15 22:24:19.85	131.75	5.47	
2025-01-15 22:24:21.07	131.89	5.41	
2025-01-15 22:24:22.29	132.02	5.35	
2025-01-15 22:24:23.51	132.15	5.28	
2025-01-15 22:24:24.73	132.28	5.22	
2025-01-15 22:24:25.94	132.41	5.16	
2025-01-15 22:24:27.16	132.54	5.09	
2025-01-15 22:24:28.38	132.67	5.03	
2025-01-15 22:24:29.60	132.80	4.97	
2025-01-15 22:24:30.82	132.92	4.91	
2025-01-15 22:24:32.03	133.05	4.84	
2025-01-15 22:24:33.25	133.18	4.78	
2025-01-15 22:24:34.47	133.30	4.72	
2025-01-15 22:24:35.69	133.43	4.65	
2025-01-15 22:24:36.90	133.55	4.59	
2025-01-15 22:24:38.12	133.68	4.53	
2025-01-15 22:24:39.34	133.80	4.47	
2025-01-15 22:24:40.56	133.93	4.40	
2025-01-15 22:24:41.78	134.05	4.34	
2025-01-15 22:24:42.99	134.17	4.28	
2025-01-15 22:24:44.21	134.30	4.22	
2025-01-15 22:24:45.43	134.42	4.15	
2025-01-15 22:24:46.65	134.54	4.09	
2025-01-15 22:24:47.87	134.66	4.03	

#Closed at: 2025-01-15 22:24:48