passes_logs/2025/01/15/SPB_Silybum_02/SPB_Silybum_02__20250115_062225_TERRA_rec.log

#Pass ID: 20250115_062225_TERRA
#Satellite: TERRA
#Configuration: TERRA
#Start time: 2025-01-15 06:22:23

#Version: 2.0.20230423
#Station: SPB_Silybum_02
#Location: 30.233357 lon 59.946436 lat
#TLE: 1 25994U 99068A   25014.85746573  .00000777  00000+0  16972-3 0  9996
#TLE: 2 25994  98.0216  77.8924 0003456  72.8612  46.8876 14.60394566334056

#Time	Az	El	Level	Level2	SNR	BER	Gain	Gain2
2025-01-15 06:22:26.04	32.58	4.01	
2025-01-15 06:22:27.06	32.69	4.07	
2025-01-15 06:22:28.07	32.81	4.12	
2025-01-15 06:22:29.09	32.93	4.17	
2025-01-15 06:22:30.10	33.05	4.22	
2025-01-15 06:22:31.12	33.17	4.27	
2025-01-15 06:22:32.13	33.29	4.32	
2025-01-15 06:22:33.15	33.41	4.37	
2025-01-15 06:22:34.16	33.53	4.42	
2025-01-15 06:22:35.18	33.65	4.48	
2025-01-15 06:22:36.19	33.77	4.53	
2025-01-15 06:22:37.21	33.90	4.58	
2025-01-15 06:22:38.23	34.02	4.63	
2025-01-15 06:22:39.24	34.14	4.68	
2025-01-15 06:22:40.26	34.27	4.73	
2025-01-15 06:22:41.27	34.39	4.78	
2025-01-15 06:22:42.29	34.51	4.84	
2025-01-15 06:22:43.30	34.64	4.89	
2025-01-15 06:22:44.32	34.76	4.94	
2025-01-15 06:22:45.33	34.89	4.99	
2025-01-15 06:22:46.35	35.02	5.04	
2025-01-15 06:22:47.36	35.14	5.09	
2025-01-15 06:22:48.38	35.27	5.14	
2025-01-15 06:22:49.40	35.40	5.20	
2025-01-15 06:22:50.41	35.53	5.25	
2025-01-15 06:22:51.43	35.66	5.30	
2025-01-15 06:22:52.44	35.78	5.35	
2025-01-15 06:22:53.46	35.91	5.40	
2025-01-15 06:22:54.47	36.04	5.45	
2025-01-15 06:22:55.49	36.17	5.50	
2025-01-15 06:22:56.50	36.30	5.56	
2025-01-15 06:22:57.52	36.44	5.61	
2025-01-15 06:22:58.53	36.57	5.66	
2025-01-15 06:22:59.55	36.70	5.71	
2025-01-15 06:23:00.56	36.83	5.76	
2025-01-15 06:23:01.58	36.97	5.81	
2025-01-15 06:23:02.60	37.10	5.86	
2025-01-15 06:23:03.61	37.24	5.92	
2025-01-15 06:23:04.63	37.37	5.97	
2025-01-15 06:23:05.64	37.51	6.02	
2025-01-15 06:23:06.66	37.64	6.07	
2025-01-15 06:23:07.67	37.78	6.12	
2025-01-15 06:23:08.69	37.92	6.17	
2025-01-15 06:23:09.70	38.05	6.22	
2025-01-15 06:23:10.72	38.19	6.28	
2025-01-15 06:23:11.73	38.33	6.33	
2025-01-15 06:23:12.75	38.47	6.38	
2025-01-15 06:23:13.77	38.61	6.43	
2025-01-15 06:23:14.78	38.75	6.48	
2025-01-15 06:23:15.80	38.89	6.53	
2025-01-15 06:23:16.81	39.03	6.58	
2025-01-15 06:23:17.83	39.17	6.63	
2025-01-15 06:23:18.84	39.31	6.68	
2025-01-15 06:23:19.86	39.46	6.74	
2025-01-15 06:23:20.87	39.60	6.79	
2025-01-15 06:23:21.89	39.74	6.84	
2025-01-15 06:23:22.90	39.89	6.89	
2025-01-15 06:23:23.92	40.03	6.94	
2025-01-15 06:23:24.94	40.18	6.99	
2025-01-15 06:23:25.95	40.32	7.04	
2025-01-15 06:23:26.97	40.47	7.09	
2025-01-15 06:23:27.98	40.62	7.14	
2025-01-15 06:23:29.00	40.77	7.19	
2025-01-15 06:23:30.01	40.91	7.25	
2025-01-15 06:23:31.03	41.06	7.30	
2025-01-15 06:23:32.04	41.21	7.35	
2025-01-15 06:23:33.06	41.36	7.40	
2025-01-15 06:23:34.07	41.51	7.45	
2025-01-15 06:23:35.09	41.66	7.50	
2025-01-15 06:23:36.10	41.81	7.55	
2025-01-15 06:23:37.12	41.97	7.60	
2025-01-15 06:23:38.14	42.12	7.65	
2025-01-15 06:23:39.15	42.27	7.70	
2025-01-15 06:23:40.17	42.42	7.75	
2025-01-15 06:23:41.18	42.58	7.80	
2025-01-15 06:23:42.20	42.73	7.85	
2025-01-15 06:23:43.21	42.89	7.90	
2025-01-15 06:23:44.23	43.04	7.95	
2025-01-15 06:23:45.24	43.20	8.00	
2025-01-15 06:23:46.26	43.36	8.05	
2025-01-15 06:23:47.27	43.51	8.10	
2025-01-15 06:23:48.29	43.67	8.15	
2025-01-15 06:23:49.31	43.83	8.20	
2025-01-15 06:23:50.32	43.99	8.25	
2025-01-15 06:23:51.34	44.15	8.30	
2025-01-15 06:23:52.35	44.31	8.35	
2025-01-15 06:23:53.37	44.47	8.40	
2025-01-15 06:23:54.38	44.63	8.45	
2025-01-15 06:23:55.40	44.80	8.50	
2025-01-15 06:23:56.41	44.96	8.55	
2025-01-15 06:23:57.43	45.12	8.60	
2025-01-15 06:23:58.44	45.28	8.65	
2025-01-15 06:23:59.46	45.45	8.70	
2025-01-15 06:24:00.47	45.61	8.74	
2025-01-15 06:24:01.49	45.78	8.79	
2025-01-15 06:24:02.51	45.95	8.84	
2025-01-15 06:24:03.52	46.11	8.89	
2025-01-15 06:24:04.54	46.28	8.94	
2025-01-15 06:24:05.55	46.45	8.99	
2025-01-15 06:24:06.57	46.62	9.04	
2025-01-15 06:24:07.58	46.78	9.08	
2025-01-15 06:24:08.60	46.96	9.13	
2025-01-15 06:24:09.61	47.12	9.18	
2025-01-15 06:24:10.63	47.30	9.23	
2025-01-15 06:24:11.64	47.47	9.28	
2025-01-15 06:24:12.66	47.64	9.32	
2025-01-15 06:24:13.68	47.81	9.37	
2025-01-15 06:24:14.69	47.99	9.42	
2025-01-15 06:24:15.71	48.16	9.47	
2025-01-15 06:24:16.72	48.33	9.51	
2025-01-15 06:24:17.74	48.51	9.56	
2025-01-15 06:24:18.75	48.68	9.61	
2025-01-15 06:24:19.77	48.86	9.66	
2025-01-15 06:24:20.78	49.04	9.70	
2025-01-15 06:24:21.80	49.21	9.75	
2025-01-15 06:24:22.81	49.39	9.80	
2025-01-15 06:24:23.83	49.57	9.84	
2025-01-15 06:24:24.84	49.75	9.89	
2025-01-15 06:24:25.86	49.93	9.93	
2025-01-15 06:24:26.88	50.11	9.98	
2025-01-15 06:24:27.89	50.29	10.03	
2025-01-15 06:24:28.91	50.47	10.07	
2025-01-15 06:24:29.92	50.65	10.12	
2025-01-15 06:24:30.94	50.84	10.16	
2025-01-15 06:24:31.95	51.02	10.21	
2025-01-15 06:24:32.97	51.21	10.25	
2025-01-15 06:24:33.98	51.39	10.30	
2025-01-15 06:24:35.00	51.58	10.34	
2025-01-15 06:24:36.01	51.76	10.39	
2025-01-15 06:24:37.03	51.95	10.43	
2025-01-15 06:24:38.05	52.13	10.48	
2025-01-15 06:24:39.06	52.32	10.52	
2025-01-15 06:24:40.08	52.51	10.57	
2025-01-15 06:24:41.09	52.70	10.61	
2025-01-15 06:24:42.11	52.89	10.65	
2025-01-15 06:24:43.12	53.08	10.70	
2025-01-15 06:24:44.14	53.27	10.74	
2025-01-15 06:24:45.15	53.46	10.78	
2025-01-15 06:24:46.17	53.65	10.83	
2025-01-15 06:24:47.18	53.84	10.87	
2025-01-15 06:24:48.20	54.04	10.91	
2025-01-15 06:24:49.21	54.23	10.95	
2025-01-15 06:24:50.23	54.42	11.00	
2025-01-15 06:24:51.25	54.62	11.04	
2025-01-15 06:24:52.26	54.81	11.08	
2025-01-15 06:24:53.28	55.01	11.12	
2025-01-15 06:24:54.29	55.21	11.16	
2025-01-15 06:24:55.31	55.40	11.20	
2025-01-15 06:24:56.32	55.60	11.24	
2025-01-15 06:24:57.34	55.80	11.29	
2025-01-15 06:24:58.35	56.00	11.33	
2025-01-15 06:24:59.37	56.20	11.37	
2025-01-15 06:25:00.38	56.40	11.41	
2025-01-15 06:25:01.40	56.60	11.45	
2025-01-15 06:25:02.42	56.80	11.49	
2025-01-15 06:25:03.43	57.00	11.53	
2025-01-15 06:25:04.45	57.20	11.57	
2025-01-15 06:25:05.46	57.40	11.60	
2025-01-15 06:25:06.48	57.61	11.64	
2025-01-15 06:25:07.49	57.81	11.68	
2025-01-15 06:25:08.51	58.02	11.72	
2025-01-15 06:25:09.52	58.22	11.76	
2025-01-15 06:25:10.54	58.43	11.80	
2025-01-15 06:25:11.55	58.63	11.83	
2025-01-15 06:25:12.57	58.84	11.87	
2025-01-15 06:25:13.58	59.05	11.91	
2025-01-15 06:25:14.60	59.25	11.94	
2025-01-15 06:25:15.62	59.46	11.98	
2025-01-15 06:25:16.63	59.67	12.02	
2025-01-15 06:25:17.65	59.88	12.05	
2025-01-15 06:25:18.66	60.09	12.09	
2025-01-15 06:25:19.68	60.30	12.12	
2025-01-15 06:25:20.69	60.51	12.16	
2025-01-15 06:25:21.71	60.72	12.19	
2025-01-15 06:25:22.72	60.94	12.23	
2025-01-15 06:25:23.74	61.15	12.26	
2025-01-15 06:25:24.75	61.36	12.30	
2025-01-15 06:25:25.77	61.58	12.33	
2025-01-15 06:25:26.79	61.79	12.36	
2025-01-15 06:25:27.80	62.00	12.40	
2025-01-15 06:25:28.82	62.22	12.43	
2025-01-15 06:25:29.83	62.44	12.46	
2025-01-15 06:25:30.85	62.65	12.49	
2025-01-15 06:25:31.86	62.87	12.53	
2025-01-15 06:25:32.88	63.09	12.56	
2025-01-15 06:25:33.89	63.30	12.59	
2025-01-15 06:25:34.91	63.52	12.62	
2025-01-15 06:25:35.92	63.74	12.65	
2025-01-15 06:25:36.94	63.96	12.68	
2025-01-15 06:25:37.95	64.18	12.71	
2025-01-15 06:25:38.97	64.40	12.74	
2025-01-15 06:25:39.99	64.62	12.77	
2025-01-15 06:25:41.00	64.84	12.80	
2025-01-15 06:25:42.02	65.06	12.83	
2025-01-15 06:25:43.03	65.28	12.86	
2025-01-15 06:25:44.05	65.51	12.88	
2025-01-15 06:25:45.06	65.73	12.91	
2025-01-15 06:25:46.08	65.95	12.94	
2025-01-15 06:25:47.09	66.17	12.97	
2025-01-15 06:25:48.11	66.40	12.99	
2025-01-15 06:25:49.12	66.62	13.02	
2025-01-15 06:25:50.14	66.85	13.05	
2025-01-15 06:25:51.16	67.08	13.07	
2025-01-15 06:25:52.17	67.30	13.10	
2025-01-15 06:25:53.19	67.53	13.12	
2025-01-15 06:25:54.20	67.75	13.15	
2025-01-15 06:25:55.22	67.98	13.17	
2025-01-15 06:25:56.23	68.21	13.19	
2025-01-15 06:25:57.25	68.44	13.22	
2025-01-15 06:25:58.26	68.66	13.24	
2025-01-15 06:25:59.28	68.89	13.26	
2025-01-15 06:26:00.29	69.12	13.29	
2025-01-15 06:26:01.31	69.35	13.31	
2025-01-15 06:26:02.32	69.58	13.33	
2025-01-15 06:26:03.34	69.81	13.35	
2025-01-15 06:26:04.36	70.04	13.37	
2025-01-15 06:26:05.37	70.27	13.39	
2025-01-15 06:26:06.39	70.50	13.41	
2025-01-15 06:26:07.40	70.73	13.43	
2025-01-15 06:26:08.42	70.96	13.45	
2025-01-15 06:26:09.43	71.20	13.47	
2025-01-15 06:26:10.45	71.43	13.49	
2025-01-15 06:26:11.46	71.66	13.51	
2025-01-15 06:26:12.48	71.89	13.52	
2025-01-15 06:26:13.49	72.13	13.54	
2025-01-15 06:26:14.51	72.36	13.56	
2025-01-15 06:26:15.53	72.60	13.57	
2025-01-15 06:26:16.54	72.83	13.59	
2025-01-15 06:26:17.56	73.06	13.61	
2025-01-15 06:26:18.57	73.30	13.62	
2025-01-15 06:26:19.59	73.53	13.64	
2025-01-15 06:26:20.60	73.77	13.65	
2025-01-15 06:26:21.62	74.00	13.67	
2025-01-15 06:26:22.63	74.24	13.68	
2025-01-15 06:26:23.65	74.47	13.69	
2025-01-15 06:26:24.66	74.71	13.70	
2025-01-15 06:26:25.68	74.95	13.72	
2025-01-15 06:26:26.70	75.18	13.73	
2025-01-15 06:26:27.71	75.42	13.74	
2025-01-15 06:26:28.73	75.66	13.75	
2025-01-15 06:26:29.74	75.89	13.76	
2025-01-15 06:26:30.76	76.13	13.77	
2025-01-15 06:26:31.77	76.37	13.78	
2025-01-15 06:26:32.79	76.60	13.79	
2025-01-15 06:26:33.80	76.84	13.80	
2025-01-15 06:26:34.82	77.08	13.81	
2025-01-15 06:26:35.83	77.32	13.82	
2025-01-15 06:26:36.85	77.56	13.83	
2025-01-15 06:26:37.86	77.79	13.83	
2025-01-15 06:26:38.88	78.03	13.84	
2025-01-15 06:26:39.90	78.27	13.85	
2025-01-15 06:26:40.91	78.51	13.85	
2025-01-15 06:26:41.93	78.75	13.86	
2025-01-15 06:26:42.94	78.99	13.86	
2025-01-15 06:26:43.96	79.23	13.87	
2025-01-15 06:26:44.97	79.46	13.87	
2025-01-15 06:26:45.99	79.70	13.87	
2025-01-15 06:26:47.00	79.94	13.88	
2025-01-15 06:26:48.02	80.18	13.88	
2025-01-15 06:26:49.03	80.42	13.88	
2025-01-15 06:26:50.05	80.66	13.89	
2025-01-15 06:26:51.07	80.90	13.89	
2025-01-15 06:26:52.08	81.14	13.89	
2025-01-15 06:26:53.10	81.38	13.89	
2025-01-15 06:26:54.11	81.62	13.89	
2025-01-15 06:26:55.13	81.86	13.89	
2025-01-15 06:26:56.14	82.10	13.89	
2025-01-15 06:26:57.16	82.34	13.89	
2025-01-15 06:26:58.17	82.57	13.89	
2025-01-15 06:26:59.19	82.81	13.88	
2025-01-15 06:27:00.20	83.05	13.88	
2025-01-15 06:27:01.22	83.29	13.88	
2025-01-15 06:27:02.23	83.53	13.87	
2025-01-15 06:27:03.25	83.77	13.87	
2025-01-15 06:27:04.27	84.01	13.87	
2025-01-15 06:27:05.28	84.25	13.86	
2025-01-15 06:27:06.30	84.49	13.86	
2025-01-15 06:27:07.31	84.73	13.85	
2025-01-15 06:27:08.33	84.97	13.85	
2025-01-15 06:27:09.34	85.20	13.84	
2025-01-15 06:27:10.36	85.44	13.83	
2025-01-15 06:27:11.37	85.68	13.83	
2025-01-15 06:27:12.39	85.92	13.82	
2025-01-15 06:27:13.40	86.16	13.81	
2025-01-15 06:27:14.42	86.39	13.80	
2025-01-15 06:27:15.44	86.63	13.79	
2025-01-15 06:27:16.45	86.87	13.78	
2025-01-15 06:27:17.47	87.11	13.77	
2025-01-15 06:27:18.48	87.35	13.76	
2025-01-15 06:27:19.50	87.58	13.75	
2025-01-15 06:27:20.51	87.82	13.74	
2025-01-15 06:27:21.53	88.06	13.73	
2025-01-15 06:27:22.54	88.29	13.72	
2025-01-15 06:27:23.56	88.53	13.71	
2025-01-15 06:27:24.57	88.77	13.69	
2025-01-15 06:27:25.59	89.00	13.68	
2025-01-15 06:27:26.60	89.24	13.67	
2025-01-15 06:27:27.62	89.47	13.65	
2025-01-15 06:27:28.64	89.71	13.64	
2025-01-15 06:27:29.65	89.94	13.62	
2025-01-15 06:27:30.67	90.18	13.61	
2025-01-15 06:27:31.68	90.41	13.59	
2025-01-15 06:27:32.70	90.65	13.58	
2025-01-15 06:27:33.71	90.88	13.56	
2025-01-15 06:27:34.73	91.12	13.54	
2025-01-15 06:27:35.74	91.35	13.52	
2025-01-15 06:27:36.76	91.58	13.51	
2025-01-15 06:27:37.77	91.82	13.49	
2025-01-15 06:27:38.79	92.05	13.47	
2025-01-15 06:27:39.81	92.28	13.45	
2025-01-15 06:27:40.82	92.51	13.43	
2025-01-15 06:27:41.84	92.75	13.41	
2025-01-15 06:27:42.85	92.98	13.39	
2025-01-15 06:27:43.87	93.21	13.37	
2025-01-15 06:27:44.88	93.44	13.35	
2025-01-15 06:27:45.90	93.67	13.33	
2025-01-15 06:27:46.91	93.90	13.31	
2025-01-15 06:27:47.93	94.13	13.29	
2025-01-15 06:27:48.94	94.36	13.26	
2025-01-15 06:27:49.96	94.59	13.24	
2025-01-15 06:27:50.97	94.82	13.22	
2025-01-15 06:27:51.99	95.05	13.19	
2025-01-15 06:27:53.01	95.27	13.17	
2025-01-15 06:27:54.02	95.50	13.15	
2025-01-15 06:27:55.04	95.73	13.12	
2025-01-15 06:27:56.05	95.95	13.10	
2025-01-15 06:27:57.07	96.18	13.07	
2025-01-15 06:27:58.08	96.41	13.05	
2025-01-15 06:27:59.10	96.63	13.02	
2025-01-15 06:28:00.11	96.86	12.99	
2025-01-15 06:28:01.13	97.08	12.97	
2025-01-15 06:28:02.14	97.31	12.94	
2025-01-15 06:28:03.16	97.53	12.91	
2025-01-15 06:28:04.18	97.76	12.88	
2025-01-15 06:28:05.19	97.98	12.85	
2025-01-15 06:28:06.21	98.20	12.83	
2025-01-15 06:28:07.22	98.42	12.80	
2025-01-15 06:28:08.24	98.64	12.77	
2025-01-15 06:28:09.25	98.87	12.74	
2025-01-15 06:28:10.27	99.09	12.71	
2025-01-15 06:28:11.28	99.31	12.68	
2025-01-15 06:28:12.30	99.53	12.65	
2025-01-15 06:28:13.31	99.75	12.62	
2025-01-15 06:28:14.33	99.96	12.59	
2025-01-15 06:28:15.34	100.18	12.55	
2025-01-15 06:28:16.36	100.40	12.52	
2025-01-15 06:28:17.38	100.62	12.49	
2025-01-15 06:28:18.39	100.84	12.46	
2025-01-15 06:28:19.41	101.05	12.43	
2025-01-15 06:28:20.42	101.27	12.39	
2025-01-15 06:28:21.44	101.48	12.36	
2025-01-15 06:28:22.45	101.70	12.33	
2025-01-15 06:28:23.47	101.91	12.29	
2025-01-15 06:28:24.48	102.13	12.26	
2025-01-15 06:28:25.50	102.34	12.22	
2025-01-15 06:28:26.51	102.55	12.19	
2025-01-15 06:28:27.53	102.77	12.15	
2025-01-15 06:28:28.55	102.98	12.12	
2025-01-15 06:28:29.56	103.19	12.08	
2025-01-15 06:28:30.58	103.40	12.05	
2025-01-15 06:28:31.59	103.61	12.01	
2025-01-15 06:28:32.61	103.82	11.97	
2025-01-15 06:28:33.62	104.03	11.94	
2025-01-15 06:28:34.64	104.24	11.90	
2025-01-15 06:28:35.65	104.44	11.86	
2025-01-15 06:28:36.67	104.65	11.83	
2025-01-15 06:28:37.68	104.86	11.79	
2025-01-15 06:28:38.70	105.07	11.75	
2025-01-15 06:28:39.71	105.27	11.71	
2025-01-15 06:28:40.73	105.48	11.67	
2025-01-15 06:28:41.75	105.68	11.63	
2025-01-15 06:28:42.76	105.89	11.60	
2025-01-15 06:28:43.78	106.09	11.56	
2025-01-15 06:28:44.79	106.29	11.52	
2025-01-15 06:28:45.81	106.50	11.48	
2025-01-15 06:28:46.82	106.70	11.44	
2025-01-15 06:28:47.84	106.90	11.40	
2025-01-15 06:28:48.85	107.10	11.36	
2025-01-15 06:28:49.87	107.30	11.32	
2025-01-15 06:28:50.88	107.50	11.27	
2025-01-15 06:28:51.90	107.70	11.23	
2025-01-15 06:28:52.92	107.90	11.19	
2025-01-15 06:28:53.93	108.09	11.15	
2025-01-15 06:28:54.95	108.29	11.11	
2025-01-15 06:28:55.96	108.49	11.07	
2025-01-15 06:28:56.98	108.68	11.03	
2025-01-15 06:28:57.99	108.88	10.98	
2025-01-15 06:28:59.01	109.07	10.94	
2025-01-15 06:29:00.02	109.27	10.90	
2025-01-15 06:29:01.04	109.46	10.85	
2025-01-15 06:29:02.05	109.65	10.81	
2025-01-15 06:29:03.07	109.85	10.77	
2025-01-15 06:29:04.08	110.04	10.72	
2025-01-15 06:29:05.10	110.23	10.68	
2025-01-15 06:29:06.12	110.42	10.64	
2025-01-15 06:29:07.13	110.61	10.59	
2025-01-15 06:29:08.15	110.80	10.55	
2025-01-15 06:29:09.16	110.99	10.50	
2025-01-15 06:29:10.18	111.18	10.46	
2025-01-15 06:29:11.19	111.37	10.42	
2025-01-15 06:29:12.21	111.55	10.37	
2025-01-15 06:29:13.22	111.74	10.33	
2025-01-15 06:29:14.24	111.93	10.28	
2025-01-15 06:29:15.25	112.11	10.23	
2025-01-15 06:29:16.27	112.30	10.19	
2025-01-15 06:29:17.29	112.48	10.14	
2025-01-15 06:29:18.30	112.66	10.10	
2025-01-15 06:29:19.32	112.85	10.05	
2025-01-15 06:29:20.33	113.03	10.01	
2025-01-15 06:29:21.35	113.21	9.96	
2025-01-15 06:29:22.36	113.39	9.91	
2025-01-15 06:29:23.38	113.57	9.87	
2025-01-15 06:29:24.39	113.75	9.82	
2025-01-15 06:29:25.41	113.93	9.77	
2025-01-15 06:29:26.42	114.11	9.73	
2025-01-15 06:29:27.44	114.29	9.68	
2025-01-15 06:29:28.46	114.47	9.63	
2025-01-15 06:29:29.47	114.64	9.58	
2025-01-15 06:29:30.49	114.82	9.54	
2025-01-15 06:29:31.50	115.00	9.49	
2025-01-15 06:29:32.52	115.17	9.44	
2025-01-15 06:29:33.53	115.34	9.39	
2025-01-15 06:29:34.55	115.52	9.35	
2025-01-15 06:29:35.56	115.69	9.30	
2025-01-15 06:29:36.58	115.87	9.25	
2025-01-15 06:29:37.59	116.04	9.20	
2025-01-15 06:29:38.61	116.21	9.15	
2025-01-15 06:29:39.62	116.38	9.10	
2025-01-15 06:29:40.64	116.55	9.06	
2025-01-15 06:29:41.66	116.72	9.01	
2025-01-15 06:29:42.67	116.89	8.96	
2025-01-15 06:29:43.69	117.06	8.91	
2025-01-15 06:29:44.70	117.23	8.86	
2025-01-15 06:29:45.72	117.39	8.81	
2025-01-15 06:29:46.73	117.56	8.76	
2025-01-15 06:29:47.75	117.73	8.71	
2025-01-15 06:29:48.76	117.89	8.66	
2025-01-15 06:29:49.78	118.06	8.61	
2025-01-15 06:29:50.79	118.22	8.56	
2025-01-15 06:29:51.81	118.39	8.51	
2025-01-15 06:29:52.83	118.55	8.46	
2025-01-15 06:29:53.84	118.71	8.41	
2025-01-15 06:29:54.86	118.87	8.36	
2025-01-15 06:29:55.87	119.03	8.31	
2025-01-15 06:29:56.89	119.20	8.26	
2025-01-15 06:29:57.90	119.36	8.21	
2025-01-15 06:29:58.92	119.52	8.16	
2025-01-15 06:29:59.93	119.68	8.11	
2025-01-15 06:30:00.95	119.83	8.06	
2025-01-15 06:30:01.96	119.99	8.01	
2025-01-15 06:30:02.98	120.15	7.96	
2025-01-15 06:30:03.99	120.31	7.91	
2025-01-15 06:30:05.01	120.46	7.86	
2025-01-15 06:30:06.03	120.62	7.81	
2025-01-15 06:30:07.04	120.77	7.76	
2025-01-15 06:30:08.06	120.93	7.71	
2025-01-15 06:30:09.07	121.08	7.66	
2025-01-15 06:30:10.09	121.24	7.61	
2025-01-15 06:30:11.10	121.39	7.56	
2025-01-15 06:30:12.12	121.54	7.51	
2025-01-15 06:30:13.13	121.69	7.46	
2025-01-15 06:30:14.15	121.85	7.40	
2025-01-15 06:30:15.16	122.00	7.35	
2025-01-15 06:30:16.18	122.15	7.30	
2025-01-15 06:30:17.20	122.30	7.25	
2025-01-15 06:30:18.21	122.44	7.20	
2025-01-15 06:30:19.23	122.59	7.15	
2025-01-15 06:30:20.24	122.74	7.10	
2025-01-15 06:30:21.26	122.89	7.04	
2025-01-15 06:30:22.27	123.04	6.99	
2025-01-15 06:30:23.29	123.18	6.94	
2025-01-15 06:30:24.30	123.33	6.89	
2025-01-15 06:30:25.32	123.47	6.84	
2025-01-15 06:30:26.33	123.62	6.79	
2025-01-15 06:30:27.35	123.76	6.74	
2025-01-15 06:30:28.36	123.90	6.68	
2025-01-15 06:30:29.38	124.05	6.63	
2025-01-15 06:30:30.40	124.19	6.58	
2025-01-15 06:30:31.41	124.33	6.53	
2025-01-15 06:30:32.43	124.48	6.48	
2025-01-15 06:30:33.44	124.62	6.43	
2025-01-15 06:30:34.46	124.76	6.37	
2025-01-15 06:30:35.47	124.90	6.32	
2025-01-15 06:30:36.49	125.04	6.27	
2025-01-15 06:30:37.50	125.17	6.22	
2025-01-15 06:30:38.52	125.31	6.17	
2025-01-15 06:30:39.53	125.45	6.12	
2025-01-15 06:30:40.55	125.59	6.06	
2025-01-15 06:30:41.57	125.73	6.01	
2025-01-15 06:30:42.58	125.86	5.96	
2025-01-15 06:30:43.60	126.00	5.91	
2025-01-15 06:30:44.61	126.13	5.86	
2025-01-15 06:30:45.63	126.27	5.80	
2025-01-15 06:30:46.64	126.40	5.75	
2025-01-15 06:30:47.66	126.54	5.70	
2025-01-15 06:30:48.67	126.67	5.65	
2025-01-15 06:30:49.69	126.80	5.60	
2025-01-15 06:30:50.70	126.93	5.54	
2025-01-15 06:30:51.72	127.07	5.49	
2025-01-15 06:30:52.73	127.20	5.44	
2025-01-15 06:30:53.75	127.33	5.39	
2025-01-15 06:30:54.77	127.46	5.34	
2025-01-15 06:30:55.78	127.59	5.28	
2025-01-15 06:30:56.80	127.72	5.23	
2025-01-15 06:30:57.81	127.85	5.18	
2025-01-15 06:30:58.83	127.98	5.13	
2025-01-15 06:30:59.84	128.10	5.08	
2025-01-15 06:31:00.86	128.23	5.02	
2025-01-15 06:31:01.87	128.36	4.97	
2025-01-15 06:31:02.89	128.48	4.92	
2025-01-15 06:31:03.90	128.61	4.87	
2025-01-15 06:31:04.92	128.74	4.82	
2025-01-15 06:31:05.94	128.86	4.76	
2025-01-15 06:31:06.95	128.99	4.71	
2025-01-15 06:31:07.97	129.11	4.66	
2025-01-15 06:31:08.98	129.23	4.61	
2025-01-15 06:31:10.00	129.36	4.56	
2025-01-15 06:31:11.01	129.48	4.51	
2025-01-15 06:31:12.03	129.60	4.45	
2025-01-15 06:31:13.04	129.72	4.40	
2025-01-15 06:31:14.06	129.85	4.35	
2025-01-15 06:31:15.07	129.97	4.30	
2025-01-15 06:31:16.09	130.09	4.25	
2025-01-15 06:31:17.10	130.21	4.19	
2025-01-15 06:31:18.12	130.33	4.14	
2025-01-15 06:31:19.14	130.45	4.09	
2025-01-15 06:31:20.15	130.56	4.04	

#Closed at: 2025-01-15 06:31:20