passes_logs/2025/01/15/SPB_Silybum_02/SPB_Silybum_02__20250115_114710_SUOMI_NPP_rec.log

#Pass ID: 20250115_114710_SUOMI NPP
#Satellite: SUOMI NPP
#Configuration: NPP
#Start time: 2025-01-15 11:47:11

#Version: 2.0.20230423
#Station: SPB_Silybum_02
#Location: 30.233357 lon 59.946436 lat
#TLE: 1 37849U 11061A   25014.84938308  .00000162  00000+0  97809-4 0  9990
#TLE: 2 37849  98.7446 315.8398 0001684  41.2466 318.8837 14.19538097684890

#Time	Az	El	Level	Level2	SNR	BER	Gain	Gain2
2025-01-15 11:47:13.19	205.04	4.13	
2025-01-15 11:47:14.41	205.13	4.21	
2025-01-15 11:47:15.62	205.22	4.28	
2025-01-15 11:47:16.84	205.31	4.36	
2025-01-15 11:47:18.06	205.40	4.43	
2025-01-15 11:47:19.28	205.49	4.50	
2025-01-15 11:47:20.49	205.58	4.58	
2025-01-15 11:47:21.71	205.67	4.65	
2025-01-15 11:47:22.93	205.76	4.73	
2025-01-15 11:47:24.16	205.85	4.80	
2025-01-15 11:47:25.38	205.95	4.88	
2025-01-15 11:47:26.60	206.04	4.95	
2025-01-15 11:47:27.82	206.14	5.03	
2025-01-15 11:47:29.03	206.23	5.11	
2025-01-15 11:47:30.25	206.32	5.18	
2025-01-15 11:47:31.47	206.42	5.26	
2025-01-15 11:47:32.69	206.52	5.33	
2025-01-15 11:47:33.91	206.61	5.41	
2025-01-15 11:47:35.12	206.71	5.48	
2025-01-15 11:47:36.34	206.81	5.56	
2025-01-15 11:47:37.56	206.90	5.64	
2025-01-15 11:47:38.78	207.00	5.72	
2025-01-15 11:47:39.99	207.10	5.79	
2025-01-15 11:47:41.21	207.20	5.87	
2025-01-15 11:47:42.43	207.30	5.95	
2025-01-15 11:47:43.65	207.40	6.02	
2025-01-15 11:47:44.86	207.50	6.10	
2025-01-15 11:47:46.08	207.60	6.18	
2025-01-15 11:47:47.30	207.70	6.26	
2025-01-15 11:47:48.52	207.81	6.33	
2025-01-15 11:47:49.74	207.91	6.41	
2025-01-15 11:47:50.95	208.01	6.49	
2025-01-15 11:47:52.17	208.12	6.57	
2025-01-15 11:47:53.39	208.22	6.65	
2025-01-15 11:47:54.61	208.33	6.73	
2025-01-15 11:47:55.82	208.43	6.81	
2025-01-15 11:47:57.04	208.54	6.89	
2025-01-15 11:47:58.26	208.64	6.96	
2025-01-15 11:47:59.48	208.75	7.04	
2025-01-15 11:48:00.69	208.86	7.12	
2025-01-15 11:48:01.91	208.97	7.20	
2025-01-15 11:48:03.13	209.08	7.28	
2025-01-15 11:48:04.35	209.19	7.36	
2025-01-15 11:48:05.57	209.30	7.44	
2025-01-15 11:48:06.78	209.41	7.52	
2025-01-15 11:48:08.00	209.52	7.61	
2025-01-15 11:48:09.22	209.63	7.69	
2025-01-15 11:48:10.44	209.74	7.77	
2025-01-15 11:48:11.65	209.85	7.85	
2025-01-15 11:48:12.87	209.97	7.93	
2025-01-15 11:48:14.09	210.08	8.01	
2025-01-15 11:48:15.31	210.20	8.09	
2025-01-15 11:48:16.52	210.31	8.17	
2025-01-15 11:48:17.74	210.43	8.26	
2025-01-15 11:48:18.96	210.55	8.34	
2025-01-15 11:48:20.18	210.66	8.42	
2025-01-15 11:48:21.40	210.78	8.50	
2025-01-15 11:48:22.61	210.90	8.59	
2025-01-15 11:48:23.83	211.02	8.67	
2025-01-15 11:48:25.05	211.14	8.75	
2025-01-15 11:48:26.27	211.26	8.84	
2025-01-15 11:48:27.48	211.38	8.92	
2025-01-15 11:48:28.70	211.50	9.00	
2025-01-15 11:48:29.92	211.62	9.09	
2025-01-15 11:48:31.14	211.75	9.17	
2025-01-15 11:48:32.35	211.87	9.25	
2025-01-15 11:48:33.57	212.00	9.34	
2025-01-15 11:48:34.79	212.12	9.42	
2025-01-15 11:48:36.01	212.25	9.51	
2025-01-15 11:48:37.23	212.37	9.59	
2025-01-15 11:48:38.44	212.50	9.68	
2025-01-15 11:48:39.66	212.63	9.76	
2025-01-15 11:48:40.88	212.76	9.85	
2025-01-15 11:48:42.10	212.89	9.93	
2025-01-15 11:48:43.31	213.02	10.02	
2025-01-15 11:48:44.53	213.15	10.10	
2025-01-15 11:48:45.75	213.28	10.19	
2025-01-15 11:48:46.97	213.41	10.27	
2025-01-15 11:48:48.19	213.55	10.36	
2025-01-15 11:48:49.40	213.68	10.45	
2025-01-15 11:48:50.62	213.82	10.53	
2025-01-15 11:48:51.84	213.95	10.62	
2025-01-15 11:48:53.06	214.09	10.71	
2025-01-15 11:48:54.27	214.23	10.79	
2025-01-15 11:48:55.49	214.36	10.88	
2025-01-15 11:48:56.71	214.50	10.97	
2025-01-15 11:48:57.93	214.64	11.06	
2025-01-15 11:48:59.14	214.78	11.14	
2025-01-15 11:49:00.36	214.92	11.23	
2025-01-15 11:49:01.58	215.07	11.32	
2025-01-15 11:49:02.80	215.21	11.41	
2025-01-15 11:49:04.02	215.35	11.50	
2025-01-15 11:49:05.23	215.50	11.58	
2025-01-15 11:49:06.45	215.64	11.67	
2025-01-15 11:49:07.67	215.79	11.76	
2025-01-15 11:49:08.89	215.94	11.85	
2025-01-15 11:49:10.10	216.08	11.94	
2025-01-15 11:49:11.32	216.23	12.03	
2025-01-15 11:49:12.54	216.38	12.12	
2025-01-15 11:49:13.76	216.53	12.21	
2025-01-15 11:49:14.97	216.68	12.30	
2025-01-15 11:49:16.19	216.83	12.39	
2025-01-15 11:49:17.41	216.99	12.48	
2025-01-15 11:49:18.63	217.14	12.57	
2025-01-15 11:49:19.85	217.30	12.66	
2025-01-15 11:49:21.06	217.45	12.75	
2025-01-15 11:49:22.28	217.61	12.84	
2025-01-15 11:49:23.50	217.77	12.93	
2025-01-15 11:49:24.72	217.93	13.02	
2025-01-15 11:49:25.93	218.09	13.11	
2025-01-15 11:49:27.15	218.25	13.20	
2025-01-15 11:49:28.37	218.41	13.30	
2025-01-15 11:49:29.59	218.57	13.39	
2025-01-15 11:49:30.80	218.73	13.48	
2025-01-15 11:49:32.02	218.90	13.57	
2025-01-15 11:49:33.24	219.06	13.66	
2025-01-15 11:49:34.46	219.23	13.75	
2025-01-15 11:49:35.68	219.40	13.85	
2025-01-15 11:49:36.89	219.57	13.94	
2025-01-15 11:49:38.11	219.74	14.03	
2025-01-15 11:49:39.33	219.91	14.12	
2025-01-15 11:49:40.55	220.08	14.22	
2025-01-15 11:49:41.76	220.25	14.31	
2025-01-15 11:49:42.98	220.43	14.40	
2025-01-15 11:49:44.20	220.60	14.49	
2025-01-15 11:49:45.42	220.78	14.59	
2025-01-15 11:49:46.64	220.95	14.68	
2025-01-15 11:49:47.85	221.13	14.77	
2025-01-15 11:49:49.07	221.31	14.87	
2025-01-15 11:49:50.29	221.49	14.96	
2025-01-15 11:49:51.51	221.67	15.06	
2025-01-15 11:49:52.72	221.85	15.15	
2025-01-15 11:49:53.94	222.04	15.24	
2025-01-15 11:49:55.16	222.22	15.34	
2025-01-15 11:49:56.38	222.41	15.43	
2025-01-15 11:49:57.59	222.59	15.52	
2025-01-15 11:49:58.81	222.78	15.62	
2025-01-15 11:50:00.03	222.97	15.71	
2025-01-15 11:50:01.25	223.16	15.81	
2025-01-15 11:50:02.47	223.35	15.90	
2025-01-15 11:50:03.68	223.55	16.00	
2025-01-15 11:50:04.90	223.74	16.09	
2025-01-15 11:50:06.12	223.93	16.18	
2025-01-15 11:50:07.34	224.13	16.28	
2025-01-15 11:50:08.55	224.33	16.37	
2025-01-15 11:50:09.77	224.53	16.47	
2025-01-15 11:50:10.99	224.73	16.56	
2025-01-15 11:50:12.21	224.93	16.66	
2025-01-15 11:50:13.42	225.13	16.75	
2025-01-15 11:50:14.64	225.33	16.85	
2025-01-15 11:50:15.86	225.54	16.94	
2025-01-15 11:50:17.08	225.74	17.04	
2025-01-15 11:50:18.30	225.95	17.13	
2025-01-15 11:50:19.51	226.16	17.23	
2025-01-15 11:50:20.73	226.37	17.32	
2025-01-15 11:50:21.95	226.58	17.42	
2025-01-15 11:50:23.17	226.79	17.51	
2025-01-15 11:50:24.38	227.01	17.61	
2025-01-15 11:50:25.60	227.22	17.70	
2025-01-15 11:50:26.82	227.44	17.80	
2025-01-15 11:50:28.04	227.66	17.89	
2025-01-15 11:50:29.25	227.87	17.99	
2025-01-15 11:50:30.47	228.09	18.08	
2025-01-15 11:50:31.69	228.32	18.18	
2025-01-15 11:50:32.91	228.54	18.27	
2025-01-15 11:50:34.13	228.76	18.36	
2025-01-15 11:50:35.34	228.99	18.46	
2025-01-15 11:50:36.56	229.22	18.55	
2025-01-15 11:50:37.78	229.45	18.65	
2025-01-15 11:50:39.00	229.68	18.74	
2025-01-15 11:50:40.21	229.91	18.84	
2025-01-15 11:50:41.43	230.14	18.93	
2025-01-15 11:50:42.65	230.37	19.02	
2025-01-15 11:50:43.87	230.61	19.12	
2025-01-15 11:50:45.09	230.85	19.21	
2025-01-15 11:50:46.30	231.08	19.31	
2025-01-15 11:50:47.52	231.32	19.40	
2025-01-15 11:50:48.74	231.56	19.49	
2025-01-15 11:50:49.96	231.81	19.59	
2025-01-15 11:50:51.17	232.05	19.68	
2025-01-15 11:50:52.39	232.30	19.77	
2025-01-15 11:50:53.61	232.54	19.86	
2025-01-15 11:50:54.83	232.79	19.96	
2025-01-15 11:50:56.04	233.04	20.05	
2025-01-15 11:50:57.26	233.29	20.14	
2025-01-15 11:50:58.48	233.55	20.23	
2025-01-15 11:50:59.70	233.80	20.32	
2025-01-15 11:51:00.92	234.06	20.42	
2025-01-15 11:51:02.13	234.31	20.51	
2025-01-15 11:51:03.35	234.57	20.60	
2025-01-15 11:51:04.57	234.83	20.69	
2025-01-15 11:51:05.79	235.09	20.78	
2025-01-15 11:51:07.00	235.36	20.87	
2025-01-15 11:51:08.22	235.62	20.96	
2025-01-15 11:51:09.44	235.89	21.05	
2025-01-15 11:51:10.66	236.16	21.14	
2025-01-15 11:51:11.87	236.42	21.23	
2025-01-15 11:51:13.09	236.69	21.32	
2025-01-15 11:51:14.31	236.97	21.40	
2025-01-15 11:51:15.53	237.24	21.49	
2025-01-15 11:51:16.75	237.52	21.58	
2025-01-15 11:51:17.96	237.79	21.67	
2025-01-15 11:51:19.18	238.07	21.75	
2025-01-15 11:51:20.40	238.35	21.84	
2025-01-15 11:51:21.62	238.63	21.93	
2025-01-15 11:51:22.83	238.91	22.01	
2025-01-15 11:51:24.05	239.20	22.10	
2025-01-15 11:51:25.27	239.48	22.18	
2025-01-15 11:51:26.49	239.77	22.27	
2025-01-15 11:51:27.70	240.06	22.35	
2025-01-15 11:51:28.92	240.35	22.44	
2025-01-15 11:51:30.14	240.64	22.52	
2025-01-15 11:51:31.36	240.94	22.60	
2025-01-15 11:51:32.58	241.23	22.68	
2025-01-15 11:51:33.79	241.53	22.76	
2025-01-15 11:51:35.01	241.83	22.85	
2025-01-15 11:51:36.23	242.13	22.93	
2025-01-15 11:51:37.45	242.43	23.01	
2025-01-15 11:51:38.66	242.73	23.09	
2025-01-15 11:51:39.88	243.03	23.16	
2025-01-15 11:51:41.10	243.34	23.24	
2025-01-15 11:51:42.32	243.65	23.32	
2025-01-15 11:51:43.54	243.96	23.40	
2025-01-15 11:51:44.75	244.26	23.47	
2025-01-15 11:51:45.97	244.58	23.55	
2025-01-15 11:51:47.19	244.89	23.62	
2025-01-15 11:51:48.41	245.20	23.70	
2025-01-15 11:51:49.62	245.52	23.77	
2025-01-15 11:51:50.84	245.84	23.85	
2025-01-15 11:51:52.06	246.16	23.92	
2025-01-15 11:51:53.28	246.48	23.99	
2025-01-15 11:51:54.49	246.80	24.06	
2025-01-15 11:51:55.71	247.12	24.13	
2025-01-15 11:51:56.93	247.44	24.20	
2025-01-15 11:51:58.15	247.77	24.27	
2025-01-15 11:51:59.37	248.10	24.34	
2025-01-15 11:52:00.58	248.42	24.40	
2025-01-15 11:52:01.80	248.75	24.47	
2025-01-15 11:52:03.02	249.09	24.54	
2025-01-15 11:52:04.24	249.42	24.60	
2025-01-15 11:52:05.45	249.75	24.66	
2025-01-15 11:52:06.67	250.09	24.73	
2025-01-15 11:52:07.89	250.42	24.79	
2025-01-15 11:52:09.11	250.76	24.85	
2025-01-15 11:52:10.32	251.10	24.91	
2025-01-15 11:52:11.54	251.44	24.97	
2025-01-15 11:52:12.76	251.78	25.03	
2025-01-15 11:52:13.98	252.13	25.09	
2025-01-15 11:52:15.20	252.47	25.14	
2025-01-15 11:52:16.41	252.81	25.20	
2025-01-15 11:52:17.63	253.16	25.25	
2025-01-15 11:52:18.85	253.51	25.31	
2025-01-15 11:52:20.07	253.86	25.36	
2025-01-15 11:52:21.28	254.21	25.41	
2025-01-15 11:52:22.50	254.56	25.46	
2025-01-15 11:52:23.72	254.91	25.51	
2025-01-15 11:52:24.94	255.26	25.56	
2025-01-15 11:52:26.15	255.62	25.61	
2025-01-15 11:52:27.37	255.97	25.65	
2025-01-15 11:52:28.59	256.33	25.70	
2025-01-15 11:52:29.81	256.69	25.74	
2025-01-15 11:52:31.03	257.04	25.79	
2025-01-15 11:52:32.24	257.40	25.83	
2025-01-15 11:52:33.46	257.76	25.87	
2025-01-15 11:52:34.68	258.12	25.91	
2025-01-15 11:52:35.90	258.49	25.95	
2025-01-15 11:52:37.11	258.85	25.99	
2025-01-15 11:52:38.33	259.21	26.02	
2025-01-15 11:52:39.55	259.57	26.06	
2025-01-15 11:52:40.77	259.94	26.09	
2025-01-15 11:52:41.99	260.31	26.13	
2025-01-15 11:52:43.20	260.67	26.16	
2025-01-15 11:52:44.42	261.04	26.19	
2025-01-15 11:52:45.64	261.41	26.22	
2025-01-15 11:52:46.86	261.78	26.25	
2025-01-15 11:52:48.07	262.14	26.27	
2025-01-15 11:52:49.29	262.51	26.30	
2025-01-15 11:52:50.51	262.88	26.32	
2025-01-15 11:52:51.73	263.25	26.35	
2025-01-15 11:52:52.94	263.62	26.37	
2025-01-15 11:52:54.16	264.00	26.39	
2025-01-15 11:52:55.38	264.37	26.41	
2025-01-15 11:52:56.60	264.74	26.43	
2025-01-15 11:52:57.82	265.12	26.45	
2025-01-15 11:52:59.03	265.49	26.46	
2025-01-15 11:53:00.25	265.86	26.48	
2025-01-15 11:53:01.47	266.24	26.49	
2025-01-15 11:53:02.69	266.61	26.50	
2025-01-15 11:53:03.90	266.98	26.51	
2025-01-15 11:53:05.12	267.36	26.52	
2025-01-15 11:53:06.34	267.73	26.53	
2025-01-15 11:53:07.56	268.11	26.54	
2025-01-15 11:53:08.77	268.48	26.54	
2025-01-15 11:53:09.99	268.86	26.55	
2025-01-15 11:53:11.21	269.23	26.55	
2025-01-15 11:53:12.43	269.61	26.55	
2025-01-15 11:53:13.65	269.99	26.55	
2025-01-15 11:53:14.86	270.36	26.55	
2025-01-15 11:53:16.08	270.73	26.55	
2025-01-15 11:53:17.30	271.11	26.54	
2025-01-15 11:53:18.52	271.49	26.54	
2025-01-15 11:53:19.73	271.86	26.53	
2025-01-15 11:53:20.95	272.23	26.53	
2025-01-15 11:53:22.17	272.61	26.52	
2025-01-15 11:53:23.39	272.99	26.51	
2025-01-15 11:53:24.60	273.36	26.50	
2025-01-15 11:53:25.82	273.73	26.48	
2025-01-15 11:53:27.04	274.11	26.47	
2025-01-15 11:53:28.26	274.48	26.46	
2025-01-15 11:53:29.48	274.85	26.44	
2025-01-15 11:53:30.69	275.22	26.42	
2025-01-15 11:53:31.91	275.60	26.40	
2025-01-15 11:53:33.13	275.97	26.38	
2025-01-15 11:53:34.35	276.34	26.36	
2025-01-15 11:53:35.56	276.71	26.34	
2025-01-15 11:53:36.78	277.08	26.32	
2025-01-15 11:53:38.00	277.45	26.29	
2025-01-15 11:53:39.22	277.82	26.26	
2025-01-15 11:53:40.43	278.18	26.24	
2025-01-15 11:53:41.65	278.55	26.21	
2025-01-15 11:53:42.87	278.92	26.18	
2025-01-15 11:53:44.09	279.29	26.15	
2025-01-15 11:53:45.31	279.65	26.12	
2025-01-15 11:53:46.52	280.02	26.08	
2025-01-15 11:53:47.74	280.38	26.05	
2025-01-15 11:53:48.96	280.74	26.01	
2025-01-15 11:53:50.18	281.11	25.98	
2025-01-15 11:53:51.39	281.47	25.94	
2025-01-15 11:53:52.61	281.83	25.90	
2025-01-15 11:53:53.83	282.19	25.86	
2025-01-15 11:53:55.05	282.55	25.82	
2025-01-15 11:53:56.27	282.91	25.78	
2025-01-15 11:53:57.48	283.26	25.73	
2025-01-15 11:53:58.70	283.62	25.69	
2025-01-15 11:53:59.92	283.97	25.64	
2025-01-15 11:54:01.14	284.33	25.59	
2025-01-15 11:54:02.35	284.68	25.55	
2025-01-15 11:54:03.57	285.03	25.50	
2025-01-15 11:54:04.79	285.38	25.45	
2025-01-15 11:54:06.01	285.73	25.40	
2025-01-15 11:54:07.22	286.08	25.35	
2025-01-15 11:54:08.44	286.43	25.29	
2025-01-15 11:54:09.66	286.77	25.24	
2025-01-15 11:54:10.88	287.12	25.18	
2025-01-15 11:54:12.10	287.46	25.13	
2025-01-15 11:54:13.31	287.80	25.07	
2025-01-15 11:54:14.53	288.15	25.01	
2025-01-15 11:54:15.75	288.49	24.96	
2025-01-15 11:54:16.97	288.83	24.90	
2025-01-15 11:54:18.18	289.16	24.84	
2025-01-15 11:54:19.40	289.50	24.78	
2025-01-15 11:54:20.62	289.83	24.71	
2025-01-15 11:54:21.84	290.17	24.65	
2025-01-15 11:54:23.05	290.50	24.59	
2025-01-15 11:54:24.27	290.83	24.52	
2025-01-15 11:54:25.49	291.16	24.46	
2025-01-15 11:54:26.71	291.49	24.39	
2025-01-15 11:54:27.93	291.82	24.32	
2025-01-15 11:54:29.14	292.14	24.26	
2025-01-15 11:54:30.36	292.47	24.19	
2025-01-15 11:54:31.58	292.79	24.12	
2025-01-15 11:54:32.80	293.11	24.05	
2025-01-15 11:54:34.01	293.43	23.98	
2025-01-15 11:54:35.23	293.75	23.91	
2025-01-15 11:54:36.45	294.07	23.83	
2025-01-15 11:54:37.67	294.38	23.76	
2025-01-15 11:54:38.88	294.69	23.69	
2025-01-15 11:54:40.10	295.01	23.61	
2025-01-15 11:54:41.32	295.32	23.54	
2025-01-15 11:54:42.54	295.63	23.46	
2025-01-15 11:54:43.76	295.94	23.39	
2025-01-15 11:54:44.97	296.24	23.31	
2025-01-15 11:54:46.19	296.55	23.23	
2025-01-15 11:54:47.41	296.85	23.15	
2025-01-15 11:54:48.63	297.16	23.08	
2025-01-15 11:54:49.84	297.46	23.00	
2025-01-15 11:54:51.06	297.76	22.92	
2025-01-15 11:54:52.28	298.05	22.84	
2025-01-15 11:54:53.50	298.35	22.76	
2025-01-15 11:54:54.72	298.65	22.68	
2025-01-15 11:54:55.93	298.94	22.59	
2025-01-15 11:54:57.15	299.23	22.51	
2025-01-15 11:54:58.37	299.52	22.43	
2025-01-15 11:54:59.59	299.81	22.35	
2025-01-15 11:55:00.80	300.10	22.26	
2025-01-15 11:55:02.02	300.38	22.18	
2025-01-15 11:55:03.24	300.67	22.09	
2025-01-15 11:55:04.46	300.95	22.01	
2025-01-15 11:55:05.67	301.23	21.92	
2025-01-15 11:55:06.89	301.51	21.84	
2025-01-15 11:55:08.11	301.79	21.75	
2025-01-15 11:55:09.33	302.07	21.67	
2025-01-15 11:55:10.55	302.34	21.58	
2025-01-15 11:55:11.76	302.61	21.49	
2025-01-15 11:55:12.98	302.89	21.41	
2025-01-15 11:55:14.20	303.16	21.32	
2025-01-15 11:55:15.42	303.43	21.23	
2025-01-15 11:55:16.63	303.69	21.14	
2025-01-15 11:55:17.85	303.96	21.05	
2025-01-15 11:55:19.07	304.22	20.96	
2025-01-15 11:55:20.29	304.49	20.87	
2025-01-15 11:55:21.50	304.75	20.78	
2025-01-15 11:55:22.72	305.01	20.69	
2025-01-15 11:55:23.94	305.27	20.60	
2025-01-15 11:55:25.16	305.52	20.51	
2025-01-15 11:55:26.38	305.78	20.42	
2025-01-15 11:55:27.59	306.03	20.33	
2025-01-15 11:55:28.81	306.29	20.24	
2025-01-15 11:55:30.03	306.54	20.15	
2025-01-15 11:55:31.25	306.79	20.06	
2025-01-15 11:55:32.46	307.04	19.97	
2025-01-15 11:55:33.68	307.28	19.88	
2025-01-15 11:55:34.90	307.53	19.78	
2025-01-15 11:55:36.12	307.77	19.69	
2025-01-15 11:55:37.33	308.01	19.60	
2025-01-15 11:55:38.55	308.26	19.51	
2025-01-15 11:55:39.77	308.50	19.41	
2025-01-15 11:55:40.99	308.73	19.32	
2025-01-15 11:55:42.21	308.97	19.23	
2025-01-15 11:55:43.42	309.21	19.14	
2025-01-15 11:55:44.64	309.44	19.04	
2025-01-15 11:55:45.86	309.67	18.95	
2025-01-15 11:55:47.08	309.91	18.86	
2025-01-15 11:55:48.29	310.13	18.76	
2025-01-15 11:55:49.51	310.36	18.67	
2025-01-15 11:55:50.73	310.59	18.58	
2025-01-15 11:55:51.95	310.82	18.48	
2025-01-15 11:55:53.17	311.04	18.39	
2025-01-15 11:55:54.38	311.26	18.29	
2025-01-15 11:55:55.60	311.49	18.20	
2025-01-15 11:55:56.82	311.71	18.11	
2025-01-15 11:55:58.04	311.93	18.01	
2025-01-15 11:55:59.25	312.14	17.92	
2025-01-15 11:56:00.47	312.36	17.83	
2025-01-15 11:56:01.69	312.58	17.73	
2025-01-15 11:56:02.91	312.79	17.64	
2025-01-15 11:56:04.12	313.00	17.54	
2025-01-15 11:56:05.34	313.21	17.45	
2025-01-15 11:56:06.56	313.42	17.36	
2025-01-15 11:56:07.78	313.63	17.26	
2025-01-15 11:56:09.00	313.84	17.17	
2025-01-15 11:56:10.21	314.04	17.07	
2025-01-15 11:56:11.43	314.25	16.98	
2025-01-15 11:56:12.65	314.45	16.89	
2025-01-15 11:56:13.87	314.66	16.79	
2025-01-15 11:56:15.08	314.86	16.70	
2025-01-15 11:56:16.30	315.06	16.60	
2025-01-15 11:56:17.52	315.26	16.51	
2025-01-15 11:56:18.74	315.45	16.42	
2025-01-15 11:56:19.95	315.65	16.32	
2025-01-15 11:56:21.17	315.85	16.23	
2025-01-15 11:56:22.39	316.04	16.13	
2025-01-15 11:56:23.61	316.23	16.04	
2025-01-15 11:56:24.83	316.43	15.95	
2025-01-15 11:56:26.04	316.62	15.85	
2025-01-15 11:56:27.26	316.80	15.76	
2025-01-15 11:56:28.48	316.99	15.67	
2025-01-15 11:56:29.70	317.18	15.57	
2025-01-15 11:56:30.91	317.37	15.48	
2025-01-15 11:56:32.13	317.55	15.39	
2025-01-15 11:56:33.35	317.74	15.30	
2025-01-15 11:56:34.57	317.92	15.20	
2025-01-15 11:56:35.78	318.10	15.11	
2025-01-15 11:56:37.00	318.28	15.02	
2025-01-15 11:56:38.22	318.46	14.92	
2025-01-15 11:56:39.44	318.64	14.83	
2025-01-15 11:56:40.66	318.82	14.74	
2025-01-15 11:56:41.87	318.99	14.65	
2025-01-15 11:56:43.09	319.17	14.55	
2025-01-15 11:56:44.31	319.34	14.46	
2025-01-15 11:56:45.53	319.51	14.37	
2025-01-15 11:56:46.74	319.68	14.28	
2025-01-15 11:56:47.96	319.86	14.19	
2025-01-15 11:56:49.18	320.03	14.10	
2025-01-15 11:56:50.40	320.20	14.00	
2025-01-15 11:56:51.62	320.36	13.91	
2025-01-15 11:56:52.83	320.53	13.82	
2025-01-15 11:56:54.05	320.70	13.73	
2025-01-15 11:56:55.27	320.86	13.64	
2025-01-15 11:56:56.49	321.03	13.55	
2025-01-15 11:56:57.70	321.19	13.46	
2025-01-15 11:56:58.92	321.35	13.37	
2025-01-15 11:57:00.14	321.51	13.28	
2025-01-15 11:57:01.36	321.67	13.19	
2025-01-15 11:57:02.57	321.83	13.10	
2025-01-15 11:57:03.79	321.99	13.01	
2025-01-15 11:57:05.01	322.15	12.92	
2025-01-15 11:57:06.23	322.30	12.83	
2025-01-15 11:57:07.45	322.46	12.74	
2025-01-15 11:57:08.66	322.61	12.65	
2025-01-15 11:57:09.88	322.77	12.56	
2025-01-15 11:57:11.10	322.92	12.47	
2025-01-15 11:57:12.32	323.07	12.38	
2025-01-15 11:57:13.53	323.22	12.29	
2025-01-15 11:57:14.75	323.37	12.20	
2025-01-15 11:57:15.97	323.52	12.11	
2025-01-15 11:57:17.19	323.67	12.02	
2025-01-15 11:57:18.40	323.82	11.94	
2025-01-15 11:57:19.62	323.97	11.85	
2025-01-15 11:57:20.84	324.11	11.76	
2025-01-15 11:57:22.06	324.26	11.67	
2025-01-15 11:57:23.28	324.40	11.58	
2025-01-15 11:57:24.49	324.54	11.50	
2025-01-15 11:57:25.71	324.69	11.41	
2025-01-15 11:57:26.93	324.83	11.32	
2025-01-15 11:57:28.15	324.97	11.24	
2025-01-15 11:57:29.36	325.11	11.15	
2025-01-15 11:57:30.58	325.25	11.06	
2025-01-15 11:57:31.80	325.39	10.98	
2025-01-15 11:57:33.02	325.53	10.89	
2025-01-15 11:57:34.23	325.66	10.80	
2025-01-15 11:57:35.45	325.80	10.72	
2025-01-15 11:57:36.67	325.93	10.63	
2025-01-15 11:57:37.89	326.07	10.55	
2025-01-15 11:57:39.11	326.20	10.46	
2025-01-15 11:57:40.32	326.34	10.37	
2025-01-15 11:57:41.54	326.47	10.29	
2025-01-15 11:57:42.76	326.60	10.20	
2025-01-15 11:57:43.98	326.73	10.12	
2025-01-15 11:57:45.19	326.86	10.03	
2025-01-15 11:57:46.41	326.99	9.95	
2025-01-15 11:57:47.63	327.12	9.87	
2025-01-15 11:57:48.85	327.25	9.78	
2025-01-15 11:57:50.07	327.38	9.70	
2025-01-15 11:57:51.28	327.50	9.61	
2025-01-15 11:57:52.50	327.63	9.53	
2025-01-15 11:57:53.72	327.75	9.45	
2025-01-15 11:57:54.94	327.88	9.36	
2025-01-15 11:57:56.15	328.00	9.28	
2025-01-15 11:57:57.37	328.13	9.20	
2025-01-15 11:57:58.59	328.25	9.11	
2025-01-15 11:57:59.81	328.37	9.03	
2025-01-15 11:58:01.02	328.49	8.95	
2025-01-15 11:58:02.24	328.61	8.87	
2025-01-15 11:58:03.46	328.73	8.78	
2025-01-15 11:58:04.68	328.85	8.70	
2025-01-15 11:58:05.90	328.97	8.62	
2025-01-15 11:58:07.11	329.09	8.54	
2025-01-15 11:58:08.33	329.21	8.46	
2025-01-15 11:58:09.55	329.32	8.38	
2025-01-15 11:58:10.77	329.44	8.29	
2025-01-15 11:58:11.98	329.56	8.21	
2025-01-15 11:58:13.20	329.67	8.13	
2025-01-15 11:58:14.42	329.79	8.05	
2025-01-15 11:58:15.64	329.90	7.97	
2025-01-15 11:58:16.85	330.01	7.89	
2025-01-15 11:58:18.07	330.13	7.81	
2025-01-15 11:58:19.29	330.24	7.73	
2025-01-15 11:58:20.51	330.35	7.65	
2025-01-15 11:58:21.73	330.46	7.57	
2025-01-15 11:58:22.94	330.57	7.49	
2025-01-15 11:58:24.16	330.68	7.41	
2025-01-15 11:58:25.38	330.79	7.33	
2025-01-15 11:58:26.60	330.90	7.25	
2025-01-15 11:58:27.81	331.01	7.17	
2025-01-15 11:58:29.03	331.11	7.10	
2025-01-15 11:58:30.25	331.22	7.02	
2025-01-15 11:58:31.47	331.33	6.94	
2025-01-15 11:58:32.69	331.43	6.86	
2025-01-15 11:58:33.91	331.54	6.78	
2025-01-15 11:58:35.12	331.64	6.70	
2025-01-15 11:58:36.34	331.75	6.63	
2025-01-15 11:58:37.56	331.85	6.55	
2025-01-15 11:58:38.78	331.96	6.47	
2025-01-15 11:58:40.00	332.06	6.39	
2025-01-15 11:58:41.21	332.16	6.32	
2025-01-15 11:58:42.43	332.26	6.24	
2025-01-15 11:58:43.65	332.36	6.16	
2025-01-15 11:58:44.87	332.46	6.09	
2025-01-15 11:58:46.08	332.56	6.01	
2025-01-15 11:58:47.30	332.66	5.93	
2025-01-15 11:58:48.52	332.76	5.86	
2025-01-15 11:58:49.74	332.86	5.78	
2025-01-15 11:58:50.95	332.96	5.71	
2025-01-15 11:58:52.17	333.06	5.63	
2025-01-15 11:58:53.39	333.16	5.55	
2025-01-15 11:58:54.61	333.25	5.48	
2025-01-15 11:58:55.83	333.35	5.40	
2025-01-15 11:58:57.04	333.44	5.33	
2025-01-15 11:58:58.26	333.54	5.25	
2025-01-15 11:58:59.48	333.64	5.18	
2025-01-15 11:59:00.70	333.73	5.10	
2025-01-15 11:59:01.91	333.82	5.03	
2025-01-15 11:59:03.13	333.92	4.95	
2025-01-15 11:59:04.35	334.01	4.88	
2025-01-15 11:59:05.57	334.10	4.81	
2025-01-15 11:59:06.79	334.20	4.73	
2025-01-15 11:59:08.00	334.29	4.66	
2025-01-15 11:59:09.22	334.38	4.58	
2025-01-15 11:59:10.44	334.47	4.51	
2025-01-15 11:59:11.66	334.56	4.44	
2025-01-15 11:59:12.87	334.65	4.36	
2025-01-15 11:59:14.09	334.74	4.29	
2025-01-15 11:59:15.31	334.83	4.22	
2025-01-15 11:59:16.53	334.92	4.15	
2025-01-15 11:59:17.74	335.01	4.07	
2025-01-15 11:59:18.96	335.10	4.00	

#Closed at: 2025-01-15 11:59:19