passes_logs/2026/01/22/PlanumMoscow/PlanumMoscow__20260122_065430_METOP-B_rec.log

#Pass ID: 20260122_065430_METOP-B
#Satellite: METOP-B
#Configuration: METOP-B
#Start time: 2026-01-22 06:54:35.358970

#LorettStation: 1.0.0 05.05.2024
#Station: PlanumMoscow
#Location: 37.6253844 lon 55.6713361 lat
#TLE: 1 38771U 12049A   25293.92766658  .00000266  00000+0  14193-3 0  9996
#TLE: 2 38771  98.6882 344.7603 0001609 341.5209  18.5909 14.21379342679275

#Time	Az	El	Level	SNR
2026-01-22 06:58:13.798118	28.0	28.7	-63.3	5.0
2026-01-22 06:58:16.038128	28.2	29.1	-64.0	6.4
2026-01-22 06:58:18.276185	28.4	29.5	-63.7	4.3
2026-01-22 06:58:20.517195	28.7	29.9	-63.6	3.8
2026-01-22 06:58:22.760246	28.9	30.3	-64.2	5.9
2026-01-22 06:58:25.001761	29.1	30.7	-63.4	4.7
2026-01-22 06:58:27.244772	29.3	31.1	-63.6	5.1
2026-01-22 06:58:29.484287	29.6	31.6	-63.5	3.6
2026-01-22 06:58:31.731811	29.8	32.0	-63.9	4.4
2026-01-22 06:58:33.975327	30.1	32.4	-63.7	4.5
2026-01-22 06:58:36.218842	30.3	32.9	-63.1	5.2
2026-01-22 06:58:38.462357	30.6	33.3	-63.5	4.7
2026-01-22 06:58:40.711865	30.9	33.8	-62.7	2.6
2026-01-22 06:58:42.953380	31.1	34.3	-63.5	4.1
2026-01-22 06:58:45.196411	31.4	34.7	-62.6	3.9
2026-01-22 06:58:47.438925	31.7	35.2	-63.1	3.4
2026-01-22 06:58:49.676944	32.0	35.7	-63.0	4.5
2026-01-22 06:58:51.917458	32.3	36.2	-62.3	3.6
2026-01-22 06:58:54.152477	32.7	36.7	-61.6	0.0
2026-01-22 06:58:56.388494	33.0	37.2	-62.3	1.5
2026-01-22 06:58:58.625503	33.3	37.7	-61.2	0.4
2026-01-22 06:59:00.864026	33.7	38.2	-61.2	1.6
2026-01-22 06:59:03.100531	34.1	38.8	-61.5	0.6
2026-01-22 06:59:05.338069	34.4	39.3	-60.8	0.1
2026-01-22 06:59:07.569581	34.8	39.8	-61.6	2.2
2026-01-22 06:59:09.810095	35.2	40.4	-61.2	0.0
2026-01-22 06:59:12.047600	35.6	40.9	-61.1	0.0
2026-01-22 06:59:14.282618	36.1	41.5	-60.7	0.0
2026-01-22 06:59:16.515131	36.5	42.1	-61.7	0.0
2026-01-22 06:59:18.749140	37.0	42.6	-60.8	0.0
2026-01-22 06:59:20.984149	37.4	43.2	-61.0	1.1
2026-01-22 06:59:23.221654	37.9	43.8	-61.7	0.8
2026-01-22 06:59:25.458168	38.4	44.4	-60.2	0.0
2026-01-22 06:59:27.693177	39.0	45.0	-60.9	0.0
2026-01-22 06:59:29.929195	39.5	45.6	-61.2	0.0
2026-01-22 06:59:32.166700	40.1	46.2	-59.9	0.0
2026-01-22 06:59:34.406720	40.7	46.9	-60.6	0.0
2026-01-22 06:59:36.643730	41.3	47.5	-61.2	1.1
2026-01-22 06:59:38.885740	42.0	48.1	-60.7	0.0
2026-01-22 06:59:41.123246	42.6	48.8	-60.7	0.0
2026-01-22 06:59:43.366761	43.3	49.4	-61.3	1.2
2026-01-22 06:59:45.602770	44.1	50.1	-60.5	0.0
2026-01-22 06:59:47.844276	44.8	50.7	-60.3	0.0
2026-01-22 06:59:50.089796	45.6	51.4	-61.5	0.0
2026-01-22 06:59:52.333312	46.5	52.1	-62.4	0.2
2026-01-22 06:59:54.575341	47.3	52.7	-61.0	0.0
2026-01-22 06:59:56.819857	48.2	53.4	-62.1	0.0
2026-01-22 06:59:59.063372	49.2	54.1	-62.2	0.0
2026-01-22 07:00:01.305398	50.2	54.7	-62.1	0.7
2026-01-22 07:00:03.548912	51.2	55.4	-60.8	0.0
2026-01-22 07:00:05.792924	52.3	56.1	-62.1	0.0
2026-01-22 07:00:08.038449	53.5	56.7	-62.3	2.5
2026-01-22 07:00:10.283462	54.7	57.4	-62.4	0.8
2026-01-22 07:00:12.527474	56.0	58.1	-63.5	1.7
2026-01-22 07:00:14.775493	57.3	58.7	-63.0	1.0
2026-01-22 07:00:17.019513	58.7	59.4	-63.0	0.9
2026-01-22 07:00:19.263029	60.2	60.0	-63.2	1.3
2026-01-22 07:00:21.506048	61.7	60.6	-63.7	0.4
2026-01-22 07:00:23.749572	63.3	61.2	-64.4	1.3
2026-01-22 07:00:25.993094	65.0	61.8	-64.0	2.0
2026-01-22 07:00:28.237106	66.8	62.4	-63.6	0.0
2026-01-22 07:00:30.480622	68.7	63.0	-64.1	0.5
2026-01-22 07:00:32.727129	70.6	63.5	-63.6	0.0
2026-01-22 07:00:34.970149	72.6	64.0	-64.7	0.0
2026-01-22 07:00:37.214159	74.8	64.5	-64.9	0.0
2026-01-22 07:00:39.458188	77.0	65.0	-64.8	1.3
2026-01-22 07:00:41.701206	79.3	65.4	-64.9	2.6
2026-01-22 07:00:43.943728	81.7	65.8	-65.4	1.6
2026-01-22 07:00:46.187739	84.2	66.1	-65.3	0.0
2026-01-22 07:00:48.436256	86.7	66.4	-64.5	0.1
2026-01-22 07:00:50.679771	89.4	66.7	-65.0	0.9
2026-01-22 07:00:52.923286	92.1	66.9	-65.1	0.0
2026-01-22 07:00:55.166306	94.8	67.1	-66.0	3.5
2026-01-22 07:00:57.410813	97.6	67.2	-65.4	3.9
2026-01-22 07:00:59.654824	100.4	67.3	-65.2	1.8
2026-01-22 07:01:01.898340	103.2	67.4	-65.6	0.9
2026-01-22 07:01:04.141367	106.0	67.3	-65.8	3.8
2026-01-22 07:01:06.386378	108.9	67.3	-65.9	2.7
2026-01-22 07:01:08.630390	111.6	67.2	-65.9	0.8
2026-01-22 07:01:10.873906	114.4	67.0	-66.1	1.3
2026-01-22 07:01:13.118926	117.1	66.8	-64.7	0.0
2026-01-22 07:01:15.363433	119.7	66.5	-66.7	0.0
2026-01-22 07:01:17.609454	122.3	66.2	-65.7	0.0
2026-01-22 07:01:19.852476	124.8	65.9	-67.3	3.2
2026-01-22 07:01:22.095992	127.2	65.5	-66.1	0.0
2026-01-22 07:01:24.338028	129.6	65.1	-67.0	1.2
2026-01-22 07:01:26.579559	131.8	64.6	-66.6	1.7
2026-01-22 07:01:28.822084	134.0	64.1	-67.8	3.4
2026-01-22 07:01:31.066599	136.1	63.6	-67.0	2.4
2026-01-22 07:01:33.309619	138.0	63.1	-67.3	4.2
2026-01-22 07:01:35.553133	139.9	62.6	-67.2	2.0
2026-01-22 07:01:37.796649	141.7	62.0	-67.1	2.3
2026-01-22 07:01:40.040164	143.4	61.4	-67.9	3.5
2026-01-22 07:01:42.285690	145.1	60.8	-67.7	4.2
2026-01-22 07:01:44.529702	146.7	60.1	-67.9	4.4
2026-01-22 07:01:46.773714	148.1	59.5	-67.6	3.4
2026-01-22 07:01:49.017724	149.6	58.9	-67.5	5.0
2026-01-22 07:01:51.260743	150.9	58.2	-67.3	5.6
2026-01-22 07:01:53.504763	152.2	57.6	-66.9	5.1
2026-01-22 07:01:55.747286	153.4	56.9	-67.4	7.3
2026-01-22 07:01:57.989811	154.6	56.2	-67.0	7.4
2026-01-22 07:02:00.233327	155.7	55.6	-67.3	6.8
2026-01-22 07:02:02.476349	156.8	54.9	-67.1	8.0
2026-01-22 07:02:04.719864	157.8	54.2	-67.3	9.7
2026-01-22 07:02:06.965380	158.7	53.5	-66.9	8.5
2026-01-22 07:02:09.209406	159.7	52.9	-67.3	8.1
2026-01-22 07:02:11.452426	160.5	52.2	-67.0	8.0
2026-01-22 07:02:13.695941	161.4	51.5	-67.1	8.3
2026-01-22 07:02:15.938960	162.2	50.9	-67.3	8.0
2026-01-22 07:02:18.184972	163.0	50.2	-67.0	7.2
2026-01-22 07:02:20.428983	163.7	49.5	-67.0	8.3
2026-01-22 07:02:22.671011	164.4	48.9	-66.8	8.4
2026-01-22 07:02:24.915021	165.1	48.2	-67.2	7.8
2026-01-22 07:02:27.159528	165.8	47.6	-67.1	8.3
2026-01-22 07:02:29.403539	166.4	47.0	-66.7	9.1
2026-01-22 07:02:31.647557	167.0	46.3	-66.3	8.9
2026-01-22 07:02:33.889090	167.6	45.7	-66.1	8.8
2026-01-22 07:02:36.133101	168.1	45.1	-66.0	9.5
2026-01-22 07:02:38.377111	168.7	44.5	-65.7	9.6
2026-01-22 07:02:40.620626	169.2	43.9	-66.0	9.4
2026-01-22 07:02:42.865190	169.7	43.3	-65.9	9.0
2026-01-22 07:02:45.108717	170.2	42.7	-65.4	9.0
2026-01-22 07:02:47.351736	170.6	42.1	-65.2	10.0
2026-01-22 07:02:49.595775	171.1	41.6	-65.5	8.8
2026-01-22 07:02:51.838794	171.5	41.0	-65.7	8.8
2026-01-22 07:02:54.083301	171.9	40.4	-65.5	8.5
2026-01-22 07:02:56.326816	172.3	39.9	-65.5	8.3
2026-01-22 07:02:58.575829	172.7	39.3	-65.6	9.0
2026-01-22 07:03:00.819839	173.1	38.8	-65.5	8.4
2026-01-22 07:03:03.063859	173.5	38.3	-65.7	9.6
2026-01-22 07:03:05.309385	173.8	37.7	-65.4	9.6
2026-01-22 07:03:07.552899	174.2	37.2	-64.8	9.3
2026-01-22 07:03:09.795919	174.5	36.7	-65.2	9.2
2026-01-22 07:03:12.038938	174.8	36.2	-64.6	8.4
2026-01-22 07:03:14.281957	175.1	35.7	-65.2	9.8
2026-01-22 07:03:16.525473	175.4	35.2	-64.9	9.3
2026-01-22 07:03:18.768989	175.7	34.7	-65.2	9.4
2026-01-22 07:03:21.013514	176.0	34.2	-65.1	9.8
2026-01-22 07:03:23.257525	176.3	33.8	-64.9	8.9
2026-01-22 07:03:25.501536	176.6	33.3	-65.5	10.0
2026-01-22 07:03:27.748043	176.8	32.9	-65.4	9.1
2026-01-22 07:03:29.993062	177.1	32.4	-64.6	7.8
2026-01-22 07:03:32.236081	177.4	32.0	-64.3	7.2
2026-01-22 07:03:34.480092	177.6	31.5	-64.6	7.8
2026-01-22 07:03:36.724103	177.8	31.1	-64.8	7.9
2026-01-22 07:03:38.970626	178.1	30.7	-64.6	7.1
2026-01-22 07:03:41.215142	178.3	30.2	-65.0	9.3
2026-01-22 07:03:43.458657	178.5	29.8	-65.0	7.7
2026-01-22 07:03:45.702685	178.7	29.4	-64.7	9.1
2026-01-22 07:03:47.945705	178.9	29.0	-64.3	7.7
2026-01-22 07:03:50.188230	179.2	28.6	-64.1	7.7
2026-01-22 07:03:52.432240	179.4	28.2	-64.5	8.7
2026-01-22 07:03:54.677261	179.5	27.8	-64.6	7.8
2026-01-22 07:03:56.921767	179.7	27.4	-63.8	7.1
2026-01-22 07:03:59.163300	179.9	27.1	-64.1	6.8
2026-01-22 07:04:01.407806	180.1	26.7	-64.3	6.4
2026-01-22 07:04:03.651335	180.3	26.3	-64.3	5.5
2026-01-22 07:04:05.893364	180.5	25.9	-64.8	7.8
2026-01-22 07:04:08.137871	180.6	25.6	-64.7	7.8
2026-01-22 07:04:10.380394	180.8	25.2	-64.4	7.1
2026-01-22 07:04:12.622918	181.0	24.9	-64.5	8.1
2026-01-22 07:04:14.866929	181.1	24.5	-64.6	7.7
2026-01-22 07:04:17.110940	181.3	24.2	-64.6	7.7
2026-01-22 07:04:19.354456	181.4	23.9	-64.7	5.9
2026-01-22 07:04:21.598467	181.6	23.5	-64.5	6.2
2026-01-22 07:04:23.841486	181.7	23.2	-64.8	7.5
2026-01-22 07:04:26.085516	181.9	22.9	-65.1	7.1
2026-01-22 07:04:28.330031	182.0	22.5	-64.6	6.8
2026-01-22 07:04:30.575042	182.2	22.2	-64.7	6.3
2026-01-22 07:04:32.819549	182.3	21.9	-64.8	6.3
2026-01-22 07:04:35.064569	182.4	21.6	-63.7	1.3
2026-01-22 07:04:37.308581	182.6	21.3	-64.4	6.0
2026-01-22 07:04:39.553087	182.7	21.0	-64.4	6.4
2026-01-22 07:04:41.796610	182.8	20.7	-64.2	5.7
2026-01-22 07:04:44.042622	182.9	20.4	-64.1	6.5
2026-01-22 07:04:46.287129	183.1	20.1	-64.5	5.9
2026-01-22 07:04:48.531140	183.2	19.8	-64.4	6.5
2026-01-22 07:04:50.775170	183.3	19.5	-63.1	1.0
2026-01-22 07:04:53.020181	183.4	19.2	-62.2	6.1
2026-01-22 07:04:55.264697	183.5	19.0	-63.7	0.0
2026-01-22 07:04:57.508709	183.6	18.7	-62.3	5.2
2026-01-22 07:04:59.752233	183.8	18.4	-62.8	0.0
2026-01-22 07:05:01.995748	183.9	18.1	-63.4	2.5
2026-01-22 07:05:04.238272	184.0	17.9	-62.9	0.0
2026-01-22 07:05:06.481788	184.1	17.6	-64.5	5.5
2026-01-22 07:05:08.725799	184.2	17.3	-59.7	0.0
2026-01-22 07:05:10.969819	184.3	17.1	-64.4	5.0
2026-01-22 07:05:13.214334	184.4	16.8	-64.2	4.3
2026-01-22 07:05:15.458857	184.5	16.6	-64.0	5.5
2026-01-22 07:05:17.703877	184.6	16.3	-63.5	5.1
2026-01-22 07:05:19.946897	184.7	16.1	-63.4	0.0
2026-01-22 07:05:22.190908	184.8	15.8	-64.2	3.4
2026-01-22 07:05:24.434424	184.9	15.6	-63.9	5.3
2026-01-22 07:05:26.680932	184.9	15.3	-63.7	3.9
2026-01-22 07:05:28.924448	185.0	15.1	-63.3	0.0
2026-01-22 07:05:31.171987	185.1	14.9	-63.8	3.4
2026-01-22 07:05:33.415008	185.2	14.6	-63.9	3.6
2026-01-22 07:05:35.658027	185.3	14.4	-63.8	3.3
2026-01-22 07:05:37.901047	185.4	14.2	-63.9	2.8
2026-01-22 07:05:40.144066	185.5	13.9	-63.1	1.6
2026-01-22 07:05:42.387086	185.5	13.7	-63.7	2.3
2026-01-22 07:05:44.631603	185.6	13.5	-62.7	3.1
2026-01-22 07:05:46.873632	185.7	13.3	-62.2	0.0
2026-01-22 07:05:49.117148	185.8	13.0	-62.1	0.0
2026-01-22 07:05:51.361664	185.9	12.8	-63.2	1.1
2026-01-22 07:05:53.605684	185.9	12.6	-61.6	0.0
2026-01-22 07:05:55.848703	186.0	12.4	-63.6	0.0
2026-01-22 07:05:58.092714	186.1	12.2	-64.0	2.0
2026-01-22 07:06:00.335734	186.2	12.0	-63.5	1.4
2026-01-22 07:06:02.579746	186.2	11.8	-63.8	0.3
2026-01-22 07:06:04.823775	186.3	11.5	-62.5	0.8
2026-01-22 07:06:07.070291	186.4	11.3	-62.9	0.0
2026-01-22 07:06:09.313807	186.5	11.1	-62.3	0.0
2026-01-22 07:06:11.557322	186.5	10.9	-61.9	0.0
2026-01-22 07:06:13.801828	186.6	10.7	-61.9	0.0
2026-01-22 07:06:16.045344	186.7	10.5	-62.7	0.0
2026-01-22 07:06:18.289355	186.7	10.3	-62.2	0.0
2026-01-22 07:06:20.532887	186.8	10.1	-60.7	0.0
2026-01-22 07:06:22.776898	186.9	9.9	-63.1	0.0
2026-01-22 07:06:25.020909	186.9	9.8	-62.8	0.0
2026-01-22 07:06:27.263434	187.0	9.6	-62.0	0.0
2026-01-22 07:06:29.506453	187.0	9.4	-62.2	0.0
2026-01-22 07:06:31.749968	187.1	9.2	-61.5	0.0
2026-01-22 07:06:33.993483	187.2	9.0	-63.3	0.0
2026-01-22 07:06:36.237009	187.2	8.8	-62.2	0.0
2026-01-22 07:06:38.481525	187.3	8.6	-63.7	0.0
2026-01-22 07:06:40.724545	187.3	8.4	-63.1	0.0
2026-01-22 07:06:42.968565	187.4	8.3	-62.2	0.0
2026-01-22 07:06:45.212576	187.5	8.1	-62.8	0.0
2026-01-22 07:06:47.454603	187.5	7.9	-60.9	0.0
2026-01-22 07:06:49.698614	187.6	7.7	-62.5	0.0
2026-01-22 07:06:51.942625	187.6	7.5	-61.8	0.0
2026-01-22 07:06:54.186645	187.7	7.4	-61.3	0.0
2026-01-22 07:06:56.429664	187.7	7.2	-59.2	0.0
2026-01-22 07:06:58.673674	187.8	7.0	-61.7	0.0
2026-01-22 07:07:00.919190	187.9	6.9	-59.4	0.0
2026-01-22 07:07:03.163211	187.9	6.7	-60.8	0.0
2026-01-22 07:07:05.407734	188.0	6.5	-62.2	0.0
2026-01-22 07:07:07.650754	188.0	6.3	-61.5	0.0
2026-01-22 07:07:09.894288	188.1	6.2	-60.4	0.0
2026-01-22 07:07:12.137308	188.1	6.0	-62.5	0.0
2026-01-22 07:07:14.381320	188.2	5.8	-66.7	0.0
2026-01-22 07:07:16.624836	188.2	5.7	-70.6	0.0
2026-01-22 07:07:18.869343	188.3	5.5	-71.5	0.0
2026-01-22 07:07:21.112857	188.3	5.4	-70.4	0.0
2026-01-22 07:07:23.355875	188.4	5.2	-70.6	0.0
2026-01-22 07:07:25.598894	188.4	5.0	-70.7	0.0
#Closed at: 2026-01-22 06:54:30.360325