passes_logs/2026/01/22/PlanumMoscow/PlanumMoscow__20260122_121509_METEOR-M2_4_rec.log

#Pass ID: 20260122_121509_METEOR-M2 4
#Satellite: METEOR-M2 4
#Configuration: METEOR-M2 4
#Start time: 2026-01-22 12:15:14.464190

#LorettStation: 1.0.0 05.05.2024
#Station: PlanumMoscow
#Location: 37.6253844 lon 55.6713361 lat
#TLE: 1 59051U 24039A   25293.94737965  .00000087  00000+0  58459-4 0  9998
#TLE: 2 59051  98.6671 251.7071 0007726 135.4772 224.7028 14.22388966 85257

#Time	Az	El	Level	SNR
2026-01-22 12:18:52.834303	214.2	24.8	-59.8	4.8
2026-01-22 12:18:55.078827	214.6	25.0	-60.0	3.6
2026-01-22 12:18:57.321846	215.1	25.3	-62.8	8.1
2026-01-22 12:18:59.565873	215.5	25.6	-60.4	4.3
2026-01-22 12:19:01.809893	216.0	25.8	-60.2	4.1
2026-01-22 12:19:04.053904	216.5	26.1	-59.4	5.3
2026-01-22 12:19:06.297419	217.0	26.4	-62.1	7.4
2026-01-22 12:19:08.543935	217.5	26.6	-62.6	8.8
2026-01-22 12:19:10.788451	218.0	26.9	-60.5	7.3
2026-01-22 12:19:13.030976	218.5	27.2	-61.1	6.5
2026-01-22 12:19:15.276997	219.0	27.5	-60.0	2.5
2026-01-22 12:19:17.520530	219.5	27.7	-58.8	0.0
2026-01-22 12:19:19.765037	220.0	28.0	-59.3	0.0
2026-01-22 12:19:22.009047	220.6	28.3	-58.7	0.0
2026-01-22 12:19:24.257564	221.1	28.5	-58.9	0.0
2026-01-22 12:19:26.500583	221.7	28.8	-60.9	5.3
2026-01-22 12:19:28.744594	222.3	29.1	-61.3	4.9
2026-01-22 12:19:30.989624	222.8	29.4	-58.5	0.0
2026-01-22 12:19:33.234131	223.4	29.6	-61.7	3.9
2026-01-22 12:19:35.478637	224.0	29.9	-58.5	0.6
2026-01-22 12:19:37.720168	224.6	30.2	-60.1	3.0
2026-01-22 12:19:39.964180	225.3	30.4	-60.1	2.8
2026-01-22 12:19:42.209695	225.9	30.7	-59.4	0.0
2026-01-22 12:19:44.453211	226.5	31.0	-59.1	0.0
2026-01-22 12:19:46.695734	227.2	31.2	-57.8	0.0
2026-01-22 12:19:48.940241	227.8	31.5	-58.3	2.0
2026-01-22 12:19:51.183756	228.5	31.7	-58.9	1.2
2026-01-22 12:19:53.427777	229.2	32.0	-58.9	0.0
2026-01-22 12:19:55.671787	229.9	32.3	-59.3	1.9
2026-01-22 12:19:57.915798	230.6	32.5	-58.9	0.6
2026-01-22 12:20:00.159809	231.3	32.8	-58.3	0.0
2026-01-22 12:20:02.402830	232.0	33.0	-58.6	0.0
2026-01-22 12:20:04.648868	232.8	33.3	-60.4	0.8
2026-01-22 12:20:06.894394	233.5	33.5	-59.1	0.0
2026-01-22 12:20:09.138405	234.3	33.7	-59.1	0.9
2026-01-22 12:20:11.380929	235.0	34.0	-58.3	2.8
2026-01-22 12:20:13.627950	235.8	34.2	-61.0	3.2
2026-01-22 12:20:15.872457	236.6	34.4	-59.1	0.0
2026-01-22 12:20:18.115972	237.4	34.6	-58.3	0.0
2026-01-22 12:20:20.359490	238.2	34.9	-59.7	2.9
2026-01-22 12:20:22.602519	239.0	35.1	-59.5	0.0
2026-01-22 12:20:24.845538	239.9	35.3	-59.0	0.2
2026-01-22 12:20:27.088062	240.7	35.5	-59.9	3.4
2026-01-22 12:20:29.333578	241.5	35.7	-60.0	0.3
2026-01-22 12:20:31.577589	242.4	35.9	-59.4	0.0
2026-01-22 12:20:33.820112	243.3	36.1	-59.4	0.0
2026-01-22 12:20:36.063629	244.2	36.2	-59.1	0.0
2026-01-22 12:20:38.306162	245.0	36.4	-61.9	2.8
2026-01-22 12:20:40.550174	245.9	36.6	-61.3	1.7
2026-01-22 12:20:42.793689	246.9	36.7	-60.2	1.8
2026-01-22 12:20:45.037205	247.8	36.9	-59.5	0.0
2026-01-22 12:20:47.281216	248.7	37.0	-59.4	0.0
2026-01-22 12:20:49.525723	249.6	37.1	-59.9	0.0
2026-01-22 12:20:51.769734	250.6	37.3	-58.8	0.0
2026-01-22 12:20:54.016251	251.5	37.4	-59.2	0.0
2026-01-22 12:20:56.260262	252.5	37.5	-60.6	0.5
2026-01-22 12:20:58.504273	253.4	37.6	-59.8	0.0
2026-01-22 12:21:00.748284	254.4	37.7	-61.1	1.3
2026-01-22 12:21:02.990808	255.4	37.8	-61.2	0.0
2026-01-22 12:21:05.234339	256.3	37.9	-60.8	0.8
2026-01-22 12:21:07.477358	257.3	37.9	-60.9	1.5
2026-01-22 12:21:09.720883	258.3	38.0	-61.5	2.7
2026-01-22 12:21:11.964895	259.3	38.0	-62.1	2.6
2026-01-22 12:21:14.208409	260.3	38.1	-61.7	1.0
2026-01-22 12:21:16.451925	261.3	38.1	-60.8	1.3
2026-01-22 12:21:18.696431	262.2	38.1	-61.8	2.2
2026-01-22 12:21:20.940443	263.2	38.1	-62.9	3.2
2026-01-22 12:21:23.184454	264.2	38.1	-63.0	4.3
2026-01-22 12:21:25.427969	265.2	38.1	-61.7	2.8
2026-01-22 12:21:27.670988	266.2	38.1	-63.2	3.8
2026-01-22 12:21:29.915495	267.2	38.1	-62.2	3.7
2026-01-22 12:21:32.159011	268.2	38.0	-63.7	6.1
2026-01-22 12:21:34.404039	269.2	38.0	-62.6	4.0
2026-01-22 12:21:36.649556	270.2	37.9	-62.5	4.3
2026-01-22 12:21:38.892575	271.1	37.9	-61.5	1.5
2026-01-22 12:21:41.136596	272.1	37.8	-62.0	2.2
2026-01-22 12:21:43.380606	273.1	37.7	-63.5	4.6
2026-01-22 12:21:45.624121	274.0	37.6	-63.3	3.6
2026-01-22 12:21:47.868628	275.0	37.5	-63.5	3.0
2026-01-22 12:21:50.111649	276.0	37.4	-63.1	1.9
2026-01-22 12:21:52.354669	276.9	37.3	-63.7	3.9
2026-01-22 12:21:54.597193	277.8	37.2	-63.6	4.1
2026-01-22 12:21:56.841700	278.8	37.0	-63.7	5.5
2026-01-22 12:21:59.086721	279.7	36.9	-63.8	4.9
2026-01-22 12:22:01.330733	280.6	36.7	-63.9	4.7
2026-01-22 12:22:03.574248	281.5	36.6	-63.1	3.0
2026-01-22 12:22:05.820756	282.4	36.4	-64.1	6.3
2026-01-22 12:22:08.064272	283.3	36.3	-64.1	5.6
2026-01-22 12:22:10.307300	284.2	36.1	-63.5	4.3
2026-01-22 12:22:12.550320	285.1	35.9	-63.7	4.7
2026-01-22 12:22:14.793842	285.9	35.7	-63.0	4.5
2026-01-22 12:22:17.038349	286.8	35.5	-64.7	6.3
2026-01-22 12:22:19.281864	287.6	35.3	-64.9	6.0
2026-01-22 12:22:21.526380	288.4	35.1	-64.1	5.9
2026-01-22 12:22:23.769896	289.3	34.9	-64.7	6.2
2026-01-22 12:22:26.014907	290.1	34.7	-64.8	5.2
2026-01-22 12:22:28.242745	290.9	34.5	-65.2	6.1
2026-01-22 12:22:30.490758	291.7	34.3	-64.9	7.1
2026-01-22 12:22:32.734791	292.4	34.0	-65.4	7.9
2026-01-22 12:22:34.979298	293.2	33.8	-64.2	6.7
2026-01-22 12:22:37.222814	294.0	33.6	-64.9	7.2
2026-01-22 12:22:39.466329	294.7	33.3	-64.2	6.0
2026-01-22 12:22:41.708853	295.4	33.1	-64.8	6.4
2026-01-22 12:22:43.953360	296.2	32.8	-65.0	7.5
2026-01-22 12:22:46.200886	296.9	32.6	-64.5	6.7
2026-01-22 12:22:48.444401	297.6	32.3	-64.6	6.6
2026-01-22 12:22:50.688917	298.3	32.1	-65.1	7.6
2026-01-22 12:22:52.931935	298.9	31.8	-65.2	8.1
2026-01-22 12:22:55.179452	299.6	31.6	-65.1	7.8
2026-01-22 12:22:57.423472	300.3	31.3	-65.7	7.3
2026-01-22 12:22:59.666990	300.9	31.0	-65.8	8.6
2026-01-22 12:23:01.910505	301.6	30.8	-65.9	8.5
2026-01-22 12:23:04.156533	302.2	30.5	-65.3	8.1
2026-01-22 12:23:06.399058	302.8	30.3	-65.3	7.9
2026-01-22 12:23:08.641582	303.4	30.0	-65.4	9.0
2026-01-22 12:23:10.884602	304.0	29.7	-65.1	8.5
2026-01-22 12:23:13.128138	304.6	29.4	-65.6	8.1
2026-01-22 12:23:15.371653	305.2	29.2	-65.3	8.2
2026-01-22 12:23:17.614672	305.8	28.9	-65.1	8.0
2026-01-22 12:23:19.858187	306.3	28.6	-65.1	8.1
2026-01-22 12:23:22.101704	306.9	28.4	-65.1	8.0
2026-01-22 12:23:24.344725	307.4	28.1	-64.7	7.7
2026-01-22 12:23:26.588240	308.0	27.8	-64.9	8.0
2026-01-22 12:23:28.833747	308.5	27.6	-65.4	8.2
2026-01-22 12:23:31.078254	309.0	27.3	-64.6	7.0
2026-01-22 12:23:33.321770	309.5	27.0	-64.9	6.6
2026-01-22 12:23:35.565789	310.0	26.8	-64.7	7.8
2026-01-22 12:23:37.809808	310.5	26.5	-64.3	7.4
2026-01-22 12:23:40.053820	311.0	26.2	-64.3	6.8
2026-01-22 12:23:42.297831	311.4	26.0	-64.4	6.6
2026-01-22 12:23:44.546355	311.9	25.7	-64.2	7.1
2026-01-22 12:23:46.789375	312.4	25.4	-64.1	7.7
2026-01-22 12:23:49.031899	312.8	25.2	-63.9	7.2
2026-01-22 12:23:51.275920	313.3	24.9	-64.0	7.6
2026-01-22 12:23:53.520948	313.7	24.6	-64.2	7.2
2026-01-22 12:23:55.764961	314.1	24.4	-64.3	8.0
2026-01-22 12:23:58.008972	314.6	24.1	-64.3	7.4
2026-01-22 12:24:00.251497	315.0	23.8	-64.2	7.3
2026-01-22 12:24:02.500518	315.4	23.6	-63.2	6.6
2026-01-22 12:24:04.744529	315.8	23.3	-63.7	6.6
2026-01-22 12:24:06.987548	316.2	23.1	-63.2	5.5
2026-01-22 12:24:09.233066	316.6	22.8	-63.5	6.7
2026-01-22 12:24:11.477573	317.0	22.6	-63.2	5.1
2026-01-22 12:24:13.721584	317.3	22.3	-63.3	4.2
2026-01-22 12:24:15.965596	317.7	22.1	-63.2	6.4
2026-01-22 12:24:18.213120	318.1	21.8	-63.2	5.7
2026-01-22 12:24:20.456635	318.5	21.6	-63.8	5.7
2026-01-22 12:24:22.699655	318.8	21.3	-63.6	6.9
2026-01-22 12:24:24.944675	319.2	21.1	-63.9	7.2
2026-01-22 12:24:27.189182	319.5	20.8	-64.1	6.6
2026-01-22 12:24:29.433193	319.8	20.6	-64.0	6.3
2026-01-22 12:24:31.678204	320.2	20.3	-64.1	6.3
2026-01-22 12:24:33.923720	320.5	20.1	-64.2	6.1
2026-01-22 12:24:36.167731	320.8	19.9	-64.2	6.1
2026-01-22 12:24:38.411245	321.1	19.6	-64.2	5.7
2026-01-22 12:24:40.653769	321.5	19.4	-64.3	6.1
2026-01-22 12:24:42.899790	321.8	19.1	-63.9	5.8
2026-01-22 12:24:45.142811	322.1	18.9	-64.3	6.0
2026-01-22 12:24:47.386823	322.4	18.7	-64.3	6.3
2026-01-22 12:24:49.630833	322.7	18.4	-64.2	5.9
2026-01-22 12:24:51.874845	323.0	18.2	-63.9	4.5
2026-01-22 12:24:54.118360	323.3	18.0	-63.6	5.1
2026-01-22 12:24:56.361380	323.5	17.8	-63.9	5.4
2026-01-22 12:24:58.608895	323.8	17.5	-64.2	6.0
2026-01-22 12:25:00.852906	324.1	17.3	-64.4	5.6
2026-01-22 12:25:03.096413	324.4	17.1	-64.4	5.4
2026-01-22 12:25:05.336935	324.6	16.9	-64.1	5.8
2026-01-22 12:25:07.578449	324.9	16.7	-64.1	4.7
2026-01-22 12:25:09.821964	325.2	16.4	-63.7	5.5
2026-01-22 12:25:12.064976	325.4	16.2	-64.4	6.2
2026-01-22 12:25:14.312492	325.7	16.0	-63.6	5.0
2026-01-22 12:25:16.556007	325.9	15.8	-64.0	5.6
2026-01-22 12:25:18.800019	326.2	15.6	-64.0	5.6
2026-01-22 12:25:21.042543	326.4	15.4	-63.8	4.8
2026-01-22 12:25:23.289059	326.6	15.2	-64.2	4.8
2026-01-22 12:25:25.533070	326.9	15.0	-63.8	4.3
2026-01-22 12:25:27.775101	327.1	14.7	-64.0	4.4
2026-01-22 12:25:30.018121	327.4	14.5	-63.7	4.4
2026-01-22 12:25:32.261140	327.6	14.3	-63.8	5.0
2026-01-22 12:25:34.504655	327.8	14.1	-63.5	4.3
2026-01-22 12:25:36.748170	328.0	13.9	-63.3	3.5
2026-01-22 12:25:38.992180	328.2	13.7	-63.7	3.4
2026-01-22 12:25:41.232702	328.5	13.5	-63.7	4.0
2026-01-22 12:25:43.474217	328.7	13.3	-63.2	3.4
2026-01-22 12:25:45.715741	328.9	13.1	-63.3	4.1
2026-01-22 12:25:47.957751	329.1	12.9	-63.2	2.4
2026-01-22 12:25:50.200762	329.3	12.8	-63.4	2.9
2026-01-22 12:25:52.444276	329.5	12.6	-63.5	2.3
2026-01-22 12:25:54.684294	329.7	12.4	-63.6	3.2
2026-01-22 12:25:56.928314	329.9	12.2	-63.2	3.0
2026-01-22 12:25:59.171820	330.1	12.0	-62.9	1.8
2026-01-22 12:26:01.413350	330.3	11.8	-62.9	2.1
2026-01-22 12:26:03.654865	330.5	11.6	-63.0	3.0
2026-01-22 12:26:05.898371	330.7	11.4	-62.9	2.0
2026-01-22 12:26:08.140877	330.9	11.2	-62.8	1.3
2026-01-22 12:26:10.387402	331.0	11.1	-62.9	2.7
2026-01-22 12:26:12.629420	331.2	10.9	-62.7	0.5
2026-01-22 12:26:14.870430	331.4	10.7	-62.7	1.6
2026-01-22 12:26:17.112449	331.6	10.5	-62.8	0.3
2026-01-22 12:26:19.351963	331.7	10.3	-62.5	1.3
2026-01-22 12:26:21.592469	331.9	10.2	-62.7	2.0
2026-01-22 12:26:23.836480	332.1	10.0	-62.0	0.0
2026-01-22 12:26:26.079002	332.3	9.8	-62.1	0.0
2026-01-22 12:26:28.323013	332.4	9.6	-62.5	0.0
2026-01-22 12:26:30.567025	332.6	9.5	-62.1	0.0
2026-01-22 12:26:32.815037	332.8	9.3	-62.0	0.0
2026-01-22 12:26:35.059056	332.9	9.1	-61.8	0.0
2026-01-22 12:26:37.301571	333.1	8.9	-61.6	0.0
2026-01-22 12:26:39.544591	333.2	8.8	-61.2	0.0
2026-01-22 12:26:41.788611	333.4	8.6	-60.8	0.0
2026-01-22 12:26:44.035118	333.6	8.4	-61.3	0.0
2026-01-22 12:26:46.278635	333.7	8.3	-61.2	0.0
2026-01-22 12:26:48.521654	333.9	8.1	-61.2	0.0
2026-01-22 12:26:50.766161	334.0	7.9	-60.8	0.0
2026-01-22 12:26:53.010172	334.2	7.8	-61.0	0.0
2026-01-22 12:26:55.253696	334.3	7.6	-61.0	0.0
2026-01-22 12:26:57.497211	334.5	7.5	-61.1	0.0
2026-01-22 12:26:59.740231	334.6	7.3	-61.2	0.0
2026-01-22 12:27:01.981761	334.7	7.1	-60.3	0.0
2026-01-22 12:27:04.225278	334.9	7.0	-60.8	0.0
2026-01-22 12:27:06.469289	335.0	6.8	-60.3	0.0
2026-01-22 12:27:08.711812	335.2	6.7	-60.2	0.0
2026-01-22 12:27:10.956328	335.3	6.5	-60.7	0.0
2026-01-22 12:27:13.201338	335.4	6.3	-60.4	0.0
2026-01-22 12:27:15.443845	335.6	6.2	-60.6	0.0
2026-01-22 12:27:17.687856	335.7	6.0	-61.4	0.0
2026-01-22 12:27:19.934380	335.8	5.9	-65.1	0.0
2026-01-22 12:27:22.178392	336.0	5.7	-65.8	0.0
2026-01-22 12:27:24.421907	336.1	5.6	-67.7	0.0
2026-01-22 12:27:26.664926	336.2	5.4	-67.4	0.0
2026-01-22 12:27:28.908937	336.4	5.3	-68.6	0.0
2026-01-22 12:27:31.152453	336.5	5.1	-69.2	0.0
2026-01-22 12:27:33.394463	336.6	5.0	-70.5	0.0
#Closed at: 2026-01-22 12:15:09.466245