passes_logs/2026/01/22/PlanumMoscow/PlanumMoscow__20260122_173336_METEOR-M2_3_rec.log

#Pass ID: 20260122_173336_METEOR-M2 3
#Satellite: METEOR-M2 3
#Configuration: METEOR-M2 3
#Start time: 2026-01-22 17:33:41.561546

#LorettStation: 1.0.0 05.05.2024
#Station: PlanumMoscow
#Location: 37.6253844 lon 55.6713361 lat
#TLE: 1 57166U 23091A   25293.99389264  .00000062  00000+0  46113-4 0  9997
#TLE: 2 57166  98.6457 348.4330 0004759 135.3141 224.8422 14.24016546120475

#Time	Az	El	Level	SNR
2026-01-22 17:37:20.010189	149.8	29.7	-65.4	14.0
2026-01-22 17:37:22.254705	149.7	30.2	-65.6	14.4
2026-01-22 17:37:24.498258	149.5	30.6	-65.2	14.4
2026-01-22 17:37:26.741285	149.4	31.1	-64.7	13.4
2026-01-22 17:37:28.985333	149.3	31.5	-64.9	13.0
2026-01-22 17:37:31.229846	149.1	32.0	-64.1	12.2
2026-01-22 17:37:33.473400	149.0	32.4	-65.5	15.4
2026-01-22 17:37:35.717420	148.8	32.9	-65.2	14.8
2026-01-22 17:37:37.961926	148.7	33.4	-65.5	14.7
2026-01-22 17:37:40.205470	148.5	33.9	-65.0	13.7
2026-01-22 17:37:42.449008	148.4	34.3	-65.2	13.2
2026-01-22 17:37:44.692524	148.2	34.8	-64.9	13.3
2026-01-22 17:37:46.937039	148.0	35.3	-65.6	15.0
2026-01-22 17:37:49.181545	147.8	35.9	-65.6	15.2
2026-01-22 17:37:51.426092	147.6	36.4	-65.7	15.8
2026-01-22 17:37:53.671607	147.5	36.9	-65.4	15.6
2026-01-22 17:37:55.914659	147.3	37.5	-66.1	16.3
2026-01-22 17:37:58.159172	147.1	38.0	-66.3	15.3
2026-01-22 17:38:00.403679	146.8	38.6	-66.3	16.0
2026-01-22 17:38:02.647713	146.6	39.1	-66.3	15.6
2026-01-22 17:38:04.891236	146.4	39.7	-66.0	15.1
2026-01-22 17:38:07.135295	146.1	40.3	-66.3	15.2
2026-01-22 17:38:09.379810	145.9	40.9	-65.4	11.3
2026-01-22 17:38:11.623821	145.6	41.5	-65.7	15.1
2026-01-22 17:38:13.868367	145.4	42.1	-66.7	16.1
2026-01-22 17:38:16.111918	145.1	42.7	-66.6	15.5
2026-01-22 17:38:18.356425	144.8	43.3	-66.8	15.5
2026-01-22 17:38:20.600436	144.5	44.0	-66.7	15.8
2026-01-22 17:38:22.844479	144.2	44.6	-66.8	15.4
2026-01-22 17:38:25.140503	143.9	45.3	-67.0	15.4
2026-01-22 17:38:27.384547	143.5	46.0	-66.5	15.4
2026-01-22 17:38:29.628063	143.2	46.7	-66.1	14.6
2026-01-22 17:38:31.871585	142.8	47.3	-67.0	14.5
2026-01-22 17:38:34.114638	142.4	48.0	-67.1	14.5
2026-01-22 17:38:36.357169	142.0	48.8	-67.1	14.1
2026-01-22 17:38:38.600684	141.6	49.5	-65.8	10.6
2026-01-22 17:38:40.844256	141.1	50.2	-66.7	12.5
2026-01-22 17:38:43.092774	140.6	50.9	-67.3	13.7
2026-01-22 17:38:45.336849	140.2	51.7	-67.5	13.1
2026-01-22 17:38:47.580867	139.6	52.5	-67.0	11.6
2026-01-22 17:38:49.824942	139.1	53.2	-67.4	12.3
2026-01-22 17:38:52.072967	138.5	54.0	-67.0	12.5
2026-01-22 17:38:54.317041	137.9	54.8	-66.8	11.6
2026-01-22 17:38:56.567079	137.2	55.6	-67.4	11.6
2026-01-22 17:38:58.813646	136.5	56.4	-66.8	11.4
2026-01-22 17:39:01.055675	135.8	57.2	-67.0	11.8
2026-01-22 17:39:03.299230	135.0	58.0	-65.9	8.8
2026-01-22 17:39:05.541760	134.2	58.8	-66.8	10.9
2026-01-22 17:39:07.785340	133.4	59.7	-67.0	11.1
2026-01-22 17:39:10.029858	132.4	60.5	-65.2	7.6
2026-01-22 17:39:12.273388	131.4	61.3	-65.8	8.3
2026-01-22 17:39:14.516944	130.4	62.2	-67.4	10.1
2026-01-22 17:39:16.763469	129.2	63.0	-67.1	9.8
2026-01-22 17:39:19.007489	128.0	63.8	-67.4	10.1
2026-01-22 17:39:21.250508	126.7	64.7	-67.8	10.5
2026-01-22 17:39:23.493030	125.2	65.5	-67.8	8.9
2026-01-22 17:39:25.740556	123.7	66.3	-67.6	7.7
2026-01-22 17:39:27.983088	122.0	67.2	-68.2	8.9
2026-01-22 17:39:30.224620	120.3	68.0	-66.8	5.9
2026-01-22 17:39:32.472135	118.3	68.8	-68.0	8.7
2026-01-22 17:39:34.716146	116.2	69.5	-68.4	7.9
2026-01-22 17:39:36.959661	113.9	70.3	-66.8	6.7
2026-01-22 17:39:39.203672	111.5	71.0	-67.8	8.0
2026-01-22 17:39:41.451684	108.8	71.7	-68.2	9.3
2026-01-22 17:39:43.695695	105.9	72.4	-68.2	9.4
2026-01-22 17:39:45.940706	102.8	73.0	-68.8	9.0
2026-01-22 17:39:48.187727	99.4	73.6	-68.2	8.9
2026-01-22 17:39:50.431738	95.8	74.1	-68.2	10.3
2026-01-22 17:39:52.674759	92.0	74.5	-67.5	10.4
2026-01-22 17:39:54.918274	87.9	74.9	-68.0	11.2
2026-01-22 17:39:57.166295	83.7	75.2	-67.3	11.6
2026-01-22 17:39:59.407826	79.2	75.4	-67.1	13.7
2026-01-22 17:40:01.645837	74.7	75.6	-66.7	12.7
2026-01-22 17:40:03.878846	70.2	75.6	-66.9	12.3
2026-01-22 17:40:06.114872	65.6	75.6	-67.1	12.2
2026-01-22 17:40:08.346376	61.1	75.5	-67.2	11.8
2026-01-22 17:40:10.582386	56.6	75.3	-66.6	10.4
2026-01-22 17:40:12.818394	52.4	75.0	-66.0	7.0
2026-01-22 17:40:15.051411	48.3	74.6	-65.7	8.6
2026-01-22 17:40:17.284924	44.5	74.2	-67.2	11.9
2026-01-22 17:40:19.519933	40.9	73.7	-67.2	11.6
2026-01-22 17:40:21.752942	37.5	73.1	-67.0	11.8
2026-01-22 17:40:23.984958	34.3	72.5	-67.1	11.5
2026-01-22 17:40:26.217975	31.4	71.8	-67.4	10.8
2026-01-22 17:40:28.452992	28.7	71.2	-65.9	8.0
2026-01-22 17:40:30.689497	26.2	70.4	-67.0	8.2
2026-01-22 17:40:32.921017	24.0	69.7	-67.6	8.9
2026-01-22 17:40:35.154025	21.8	68.9	-65.1	6.2
2026-01-22 17:40:37.395036	19.9	68.1	-67.6	10.3
2026-01-22 17:40:39.629557	18.1	67.3	-67.7	11.2
2026-01-22 17:40:41.868566	16.4	66.5	-67.5	11.6
2026-01-22 17:40:44.104584	14.8	65.7	-66.9	8.0
2026-01-22 17:40:46.346106	13.4	64.9	-66.5	8.5
2026-01-22 17:40:48.579123	12.1	64.0	-67.5	9.0
2026-01-22 17:40:50.812628	10.8	63.2	-67.9	9.3
2026-01-22 17:40:53.046148	9.7	62.4	-67.7	9.3
2026-01-22 17:40:55.280661	8.6	61.5	-66.7	7.2
2026-01-22 17:40:57.515174	7.6	60.7	-67.5	8.9
2026-01-22 17:40:59.751192	6.6	59.9	-66.8	7.6
2026-01-22 17:41:01.991203	5.8	59.1	-66.4	8.3
2026-01-22 17:41:04.230716	4.9	58.2	-66.3	9.3
2026-01-22 17:41:06.475223	4.1	57.4	-66.7	11.1
2026-01-22 17:41:08.721235	3.4	56.6	-65.6	9.4
2026-01-22 17:41:10.964759	2.7	55.8	-66.4	10.3
2026-01-22 17:41:13.208274	2.1	55.0	-66.2	9.5
2026-01-22 17:41:15.452285	1.4	54.2	-64.4	7.1
2026-01-22 17:41:17.694817	0.8	53.5	-65.9	8.5
2026-01-22 17:41:19.937848	0.3	52.7	-66.3	7.6
2026-01-22 17:41:22.180373	359.8	51.9	-65.7	8.9
2026-01-22 17:41:24.414886	359.3	51.2	-65.7	7.9
2026-01-22 17:41:26.660898	358.8	50.4	-65.4	8.9
2026-01-22 17:41:28.897403	358.3	49.7	-66.0	10.1
2026-01-22 17:41:31.134917	357.9	49.0	-65.2	8.3
2026-01-22 17:41:33.372430	357.5	48.3	-65.2	8.2
2026-01-22 17:41:35.606951	357.1	47.6	-65.5	7.9
2026-01-22 17:41:37.843960	356.7	46.9	-65.5	8.4
2026-01-22 17:41:40.079977	356.4	46.2	-64.4	7.0
2026-01-22 17:41:42.312985	356.0	45.6	-65.7	10.7
2026-01-22 17:41:44.544497	355.7	44.9	-65.6	10.3
2026-01-22 17:41:46.781516	355.4	44.3	-65.5	8.8
2026-01-22 17:41:49.017021	355.1	43.6	-65.7	8.7
2026-01-22 17:41:51.251525	354.8	43.0	-65.6	10.6
2026-01-22 17:41:53.487055	354.5	42.4	-64.8	9.8
2026-01-22 17:41:55.721560	354.2	41.8	-64.3	8.6
2026-01-22 17:41:57.956577	354.0	41.2	-64.3	8.8
2026-01-22 17:42:00.192090	353.7	40.6	-63.7	10.8
2026-01-22 17:42:02.427099	353.5	40.0	-64.1	8.1
2026-01-22 17:42:04.658603	353.3	39.4	-65.1	11.9
2026-01-22 17:42:06.894116	353.1	38.8	-65.5	11.9
2026-01-22 17:42:09.135135	352.8	38.3	-64.6	10.4
2026-01-22 17:42:11.368665	352.6	37.7	-64.8	10.8
2026-01-22 17:42:13.603195	352.4	37.2	-64.3	11.0
2026-01-22 17:42:15.841718	352.2	36.7	-64.4	11.5
2026-01-22 17:42:18.076222	352.1	36.2	-65.0	12.2
2026-01-22 17:42:20.310735	351.9	35.6	-64.3	10.7
2026-01-22 17:42:22.545761	351.7	35.1	-65.0	11.0
2026-01-22 17:42:24.780795	351.5	34.6	-64.7	9.6
2026-01-22 17:42:27.020309	351.4	34.1	-64.6	9.6
2026-01-22 17:42:29.252814	351.2	33.7	-65.2	11.2
2026-01-22 17:42:31.493824	351.0	33.2	-63.9	10.1
2026-01-22 17:42:33.730833	350.9	32.7	-63.1	5.9
2026-01-22 17:42:35.965338	350.8	32.3	-65.1	10.2
2026-01-22 17:42:38.201851	350.6	31.8	-66.3	12.0
2026-01-22 17:42:40.433381	350.5	31.4	-65.1	11.2
2026-01-22 17:42:42.668398	350.3	30.9	-65.2	10.7
2026-01-22 17:42:44.900406	350.2	30.5	-65.6	11.0
2026-01-22 17:42:47.134911	350.1	30.0	-65.4	9.9
2026-01-22 17:42:49.375921	350.0	29.6	-64.6	8.7
2026-01-22 17:42:51.613939	349.9	29.2	-64.6	9.9
2026-01-22 17:42:53.855455	349.7	28.8	-64.4	8.2
2026-01-22 17:42:56.098961	349.6	28.4	-63.7	10.0
2026-01-22 17:42:58.341980	349.5	28.0	-64.8	11.2
2026-01-22 17:43:00.581990	349.4	27.6	-64.7	10.8
2026-01-22 17:43:02.816502	349.3	27.2	-65.2	9.6
2026-01-22 17:43:05.059017	349.2	26.8	-65.3	10.0
2026-01-22 17:43:07.303029	349.1	26.4	-64.9	9.2
2026-01-22 17:43:09.546058	349.0	26.1	-65.1	10.9
2026-01-22 17:43:11.789564	348.9	25.7	-64.7	10.0
2026-01-22 17:43:14.032584	348.8	25.3	-65.8	10.8
2026-01-22 17:43:16.273612	348.7	25.0	-63.9	6.6
2026-01-22 17:43:18.509125	348.6	24.6	-65.9	10.9
2026-01-22 17:43:20.744142	348.6	24.3	-65.3	8.8
2026-01-22 17:43:22.979655	348.5	23.9	-65.9	10.4
2026-01-22 17:43:25.214168	348.4	23.6	-64.7	9.2
2026-01-22 17:43:27.449682	348.3	23.3	-64.5	9.2
2026-01-22 17:43:29.686196	348.2	22.9	-64.4	9.5
2026-01-22 17:43:31.920708	348.2	22.6	-65.0	9.5
2026-01-22 17:43:34.155213	348.1	22.3	-64.6	7.9
2026-01-22 17:43:36.390222	348.0	22.0	-64.9	10.5
2026-01-22 17:43:38.625727	348.0	21.7	-65.1	10.6
2026-01-22 17:43:40.862253	347.9	21.3	-64.3	7.0
2026-01-22 17:43:43.095758	347.8	21.0	-63.8	5.8
2026-01-22 17:43:45.328767	347.8	20.7	-63.8	4.6
2026-01-22 17:43:47.561775	347.7	20.4	-64.7	8.9
2026-01-22 17:43:49.801806	347.6	20.1	-65.2	9.1
2026-01-22 17:43:52.038318	347.6	19.9	-64.6	9.0
2026-01-22 17:43:54.271327	347.5	19.6	-64.5	9.5
2026-01-22 17:43:56.503839	347.4	19.3	-65.8	9.6
2026-01-22 17:43:58.737343	347.4	19.0	-64.8	8.2
2026-01-22 17:44:00.972352	347.3	18.7	-64.8	7.5
2026-01-22 17:44:03.208361	347.3	18.4	-64.8	7.7
2026-01-22 17:44:05.442876	347.2	18.2	-65.0	8.3
2026-01-22 17:44:07.676885	347.2	17.9	-65.2	8.4
2026-01-22 17:44:09.910907	347.1	17.6	-65.1	8.5
2026-01-22 17:44:12.144915	347.1	17.4	-65.0	8.0
2026-01-22 17:44:14.378420	347.0	17.1	-64.9	8.3
2026-01-22 17:44:16.610438	347.0	16.9	-64.9	8.1
2026-01-22 17:44:18.845447	346.9	16.6	-65.6	9.4
2026-01-22 17:44:21.083961	346.9	16.3	-64.5	7.2
2026-01-22 17:44:23.319474	346.8	16.1	-64.6	7.9
2026-01-22 17:44:25.555988	346.8	15.8	-64.2	5.6
2026-01-22 17:44:27.794999	346.7	15.6	-64.8	7.8
2026-01-22 17:44:30.036514	346.7	15.4	-65.4	8.1
2026-01-22 17:44:32.271523	346.7	15.1	-64.4	7.6
2026-01-22 17:44:34.510037	346.6	14.9	-64.9	6.1
2026-01-22 17:44:36.749552	346.6	14.6	-65.7	8.0
2026-01-22 17:44:38.986074	346.5	14.4	-65.9	8.5
2026-01-22 17:44:41.228580	346.5	14.2	-65.8	7.6
2026-01-22 17:44:43.470600	346.5	13.9	-65.1	7.8
2026-01-22 17:44:45.709610	346.4	13.7	-64.9	5.6
2026-01-22 17:44:47.946132	346.4	13.5	-65.2	7.0
2026-01-22 17:44:50.190153	346.4	13.3	-64.3	4.2
2026-01-22 17:44:52.432180	346.3	13.0	-65.1	6.8
2026-01-22 17:44:54.676687	346.3	12.8	-66.1	8.3
2026-01-22 17:44:56.920698	346.2	12.6	-64.9	7.9
2026-01-22 17:44:59.164213	346.2	12.4	-65.2	7.4
2026-01-22 17:45:01.402718	346.2	12.2	-65.9	7.2
2026-01-22 17:45:03.646225	346.1	12.0	-65.3	6.3
2026-01-22 17:45:05.888768	346.1	11.8	-65.7	8.0
2026-01-22 17:45:08.132779	346.1	11.5	-65.9	6.1
2026-01-22 17:45:10.377302	346.1	11.3	-65.0	7.6
2026-01-22 17:45:12.620850	346.0	11.1	-65.5	7.4
2026-01-22 17:45:14.864870	346.0	10.9	-66.0	7.4
2026-01-22 17:45:17.108920	346.0	10.7	-64.4	1.8
2026-01-22 17:45:19.352960	345.9	10.5	-64.4	5.9
2026-01-22 17:45:21.596971	345.9	10.3	-65.6	6.2
2026-01-22 17:45:23.839548	345.9	10.1	-65.2	4.3
2026-01-22 17:45:26.082609	345.9	9.9	-65.5	5.3
2026-01-22 17:45:28.325628	345.8	9.7	-65.9	4.8
2026-01-22 17:45:30.569646	345.8	9.6	-66.0	5.8
2026-01-22 17:45:32.812713	345.8	9.4	-65.4	5.7
2026-01-22 17:45:35.059239	345.8	9.2	-66.0	5.2
2026-01-22 17:45:37.303793	345.7	9.0	-64.2	4.0
2026-01-22 17:45:39.545830	345.7	8.8	-65.5	5.7
2026-01-22 17:45:41.789355	345.7	8.6	-64.6	3.8
2026-01-22 17:45:44.035920	345.7	8.4	-65.0	4.5
2026-01-22 17:45:46.278981	345.6	8.3	-66.2	6.5
2026-01-22 17:45:48.522496	345.6	8.1	-64.4	4.4
2026-01-22 17:45:50.764525	345.6	7.9	-64.2	2.3
2026-01-22 17:45:53.007591	345.6	7.7	-64.0	2.7
2026-01-22 17:45:55.252106	345.5	7.5	-63.1	0.0
2026-01-22 17:45:57.496653	345.5	7.4	-64.7	3.8
2026-01-22 17:45:59.743683	345.5	7.2	-63.1	1.9
2026-01-22 17:46:01.989694	345.5	7.0	-64.3	3.2
2026-01-22 17:46:04.232257	345.5	6.8	-63.1	0.7
2026-01-22 17:46:06.475774	345.4	6.7	-64.1	1.7
2026-01-22 17:46:08.719341	345.4	6.5	-64.7	0.9
2026-01-22 17:46:10.962857	345.4	6.3	-64.3	0.2
2026-01-22 17:46:13.205906	345.4	6.2	-64.3	0.2
2026-01-22 17:46:15.449430	345.4	6.0	-64.5	0.0
2026-01-22 17:46:17.699937	345.3	5.8	-66.0	0.0
2026-01-22 17:46:19.943989	345.3	5.7	-67.2	0.0
2026-01-22 17:46:22.188008	345.3	5.5	-66.1	0.0
2026-01-22 17:46:24.431066	345.3	5.3	-66.6	0.0
2026-01-22 17:46:26.673598	345.3	5.2	-66.3	0.0
2026-01-22 17:46:28.918136	345.3	5.0	-66.3	0.0
#Closed at: 2026-01-22 17:33:36.562715