passes_logs/2026/01/22/PlanumMoscow/PlanumMoscow__20260122_182451_METOP-B_rec.log

#Pass ID: 20260122_182451_METOP-B
#Satellite: METOP-B
#Configuration: METOP-B
#Start time: 2026-01-22 18:24:56.824991

#LorettStation: 1.0.0 05.05.2024
#Station: PlanumMoscow
#Location: 37.6253844 lon 55.6713361 lat
#TLE: 1 38771U 12049A   25293.92766658  .00000266  00000+0  14193-3 0  9996
#TLE: 2 38771  98.6882 344.7603 0001609 341.5209  18.5909 14.21379342679275

#Time	Az	El	Level	SNR
2026-01-22 18:28:35.347742	212.0	25.2	-63.4	0.0
2026-01-22 18:28:37.585752	212.4	25.5	-61.3	0.0
2026-01-22 18:28:39.829763	212.9	25.8	-61.3	0.9
2026-01-22 18:28:42.071790	213.3	26.1	-61.9	0.0
2026-01-22 18:28:44.313314	213.8	26.4	-62.1	0.0
2026-01-22 18:28:46.554829	214.3	26.6	-61.8	1.7
2026-01-22 18:28:48.798840	214.8	26.9	-57.8	0.0
2026-01-22 18:28:51.042859	215.2	27.2	-62.5	0.0
2026-01-22 18:28:53.283869	215.7	27.5	-62.9	0.3
2026-01-22 18:28:55.523392	216.2	27.8	-60.3	0.0
2026-01-22 18:28:57.763905	216.7	28.1	-62.1	0.0
2026-01-22 18:29:00.004916	217.3	28.3	-60.8	0.0
2026-01-22 18:29:02.246935	217.8	28.6	-62.1	0.0
2026-01-22 18:29:04.487462	218.3	28.9	-62.3	2.2
2026-01-22 18:29:06.725976	218.9	29.2	-62.4	1.2
2026-01-22 18:29:08.966987	219.4	29.5	-61.5	0.0
2026-01-22 18:29:11.204509	220.0	29.8	-61.6	0.0
2026-01-22 18:29:13.442024	220.6	30.1	-62.2	0.0
2026-01-22 18:29:15.679034	221.2	30.4	-61.3	0.0
2026-01-22 18:29:17.918044	221.8	30.6	-63.3	0.0
2026-01-22 18:29:20.155549	222.4	30.9	-61.6	0.0
2026-01-22 18:29:22.398064	223.0	31.2	-61.9	0.0
2026-01-22 18:29:24.641074	223.6	31.5	-61.8	0.0
2026-01-22 18:29:26.885599	224.3	31.8	-61.4	0.0
2026-01-22 18:29:29.125105	224.9	32.1	-61.2	0.0
2026-01-22 18:29:31.364122	225.6	32.3	-60.7	0.0
2026-01-22 18:29:33.606638	226.3	32.6	-62.7	0.0
2026-01-22 18:29:35.848145	227.0	32.9	-62.1	0.0
2026-01-22 18:29:38.091164	227.7	33.2	-61.3	0.0
2026-01-22 18:29:40.332174	228.4	33.5	-60.8	0.0
2026-01-22 18:29:42.575681	229.1	33.7	-61.4	0.0
2026-01-22 18:29:44.819692	229.8	34.0	-62.9	0.0
2026-01-22 18:29:47.059206	230.6	34.3	-62.8	0.0
2026-01-22 18:29:49.299242	231.4	34.5	-61.0	0.0
2026-01-22 18:29:51.540749	232.1	34.8	-62.7	0.0
2026-01-22 18:29:53.781776	232.9	35.0	-61.2	0.0
2026-01-22 18:29:56.023795	233.7	35.3	-61.2	0.0
2026-01-22 18:29:58.265310	234.5	35.5	-61.6	0.0
2026-01-22 18:30:00.506825	235.3	35.8	-62.3	0.0
2026-01-22 18:30:02.747331	236.2	36.0	-62.2	0.0
2026-01-22 18:30:04.992343	237.0	36.2	-61.5	0.0
2026-01-22 18:30:07.236401	237.9	36.5	-63.0	0.0
2026-01-22 18:30:09.481414	238.7	36.7	-63.2	0.0
2026-01-22 18:30:11.724441	239.6	36.9	-62.4	0.0
2026-01-22 18:30:13.967490	240.5	37.1	-61.1	0.0
2026-01-22 18:30:16.211006	241.4	37.3	-62.5	0.0
2026-01-22 18:30:18.456057	242.3	37.5	-60.9	0.0
2026-01-22 18:30:20.699579	243.2	37.7	-61.5	0.0
2026-01-22 18:30:22.944087	244.2	37.9	-61.3	0.0
2026-01-22 18:30:25.190136	245.1	38.1	-61.2	0.0
2026-01-22 18:30:27.433651	246.1	38.2	-61.8	0.0
2026-01-22 18:30:29.676200	247.0	38.4	-60.0	0.0
2026-01-22 18:30:31.920212	248.0	38.5	-62.6	0.0
2026-01-22 18:30:34.168770	249.0	38.7	-60.4	0.0
2026-01-22 18:30:36.412790	250.0	38.8	-61.0	0.0
2026-01-22 18:30:38.655840	251.0	38.9	-62.9	0.0
2026-01-22 18:30:40.899406	252.0	39.1	-61.7	0.0
2026-01-22 18:30:43.143465	253.0	39.2	-62.7	0.0
2026-01-22 18:30:45.387981	254.0	39.3	-62.1	0.0
2026-01-22 18:30:47.631055	255.0	39.3	-62.3	0.0
2026-01-22 18:30:49.879572	256.0	39.4	-61.9	0.0
2026-01-22 18:30:52.123095	257.1	39.5	-62.4	0.0
2026-01-22 18:30:54.365654	258.1	39.5	-62.4	0.0
2026-01-22 18:30:56.608683	259.2	39.6	-62.0	0.0
2026-01-22 18:30:58.851733	260.2	39.6	-62.0	0.0
2026-01-22 18:31:01.095249	261.2	39.6	-63.3	0.0
2026-01-22 18:31:03.340260	262.3	39.7	-62.7	0.0
2026-01-22 18:31:05.583328	263.3	39.7	-61.9	0.0
2026-01-22 18:31:07.828359	264.4	39.7	-63.9	0.0
2026-01-22 18:31:10.071427	265.4	39.6	-63.8	0.0
2026-01-22 18:31:12.314496	266.5	39.6	-64.1	0.0
2026-01-22 18:31:14.556067	267.5	39.6	-63.9	0.0
2026-01-22 18:31:16.798104	268.5	39.5	-64.1	0.0
2026-01-22 18:31:19.040628	269.6	39.5	-65.1	0.0
2026-01-22 18:31:21.284191	270.6	39.4	-65.5	0.0
2026-01-22 18:31:23.526731	271.6	39.3	-65.5	0.0
2026-01-22 18:31:25.769784	272.6	39.2	-65.2	0.0
2026-01-22 18:31:28.012309	273.7	39.1	-65.4	0.0
2026-01-22 18:31:30.258873	274.7	39.0	-64.8	0.0
2026-01-22 18:31:32.503885	275.7	38.9	-65.3	0.0
2026-01-22 18:31:34.745952	276.7	38.8	-65.1	0.0
2026-01-22 18:31:36.989476	277.6	38.7	-66.2	0.0
2026-01-22 18:31:39.234496	278.6	38.5	-65.7	0.0
2026-01-22 18:31:41.477546	279.6	38.4	-66.4	0.0
2026-01-22 18:31:43.720574	280.5	38.2	-66.0	0.0
2026-01-22 18:31:45.964129	281.5	38.0	-67.2	0.0
2026-01-22 18:31:48.207653	282.4	37.9	-66.2	0.0
2026-01-22 18:31:50.449241	283.4	37.7	-65.9	0.0
2026-01-22 18:31:52.692756	284.3	37.5	-66.1	0.0
2026-01-22 18:31:54.935776	285.2	37.3	-66.9	0.0
2026-01-22 18:31:57.179795	286.1	37.1	-66.2	0.0
2026-01-22 18:31:59.422815	287.0	36.9	-65.9	0.0
2026-01-22 18:32:01.666380	287.9	36.7	-65.8	0.0
2026-01-22 18:32:03.910904	288.7	36.4	-67.6	3.3
2026-01-22 18:32:06.155459	289.6	36.2	-67.3	0.9
2026-01-22 18:32:08.398984	290.4	36.0	-67.2	1.8
2026-01-22 18:32:10.646540	291.2	35.7	-65.8	0.0
2026-01-22 18:32:12.891066	292.1	35.5	-65.6	0.0
2026-01-22 18:32:15.135111	292.9	35.3	-66.9	3.3
2026-01-22 18:32:17.379130	293.6	35.0	-65.6	2.6
2026-01-22 18:32:19.621684	294.4	34.8	-67.0	4.5
2026-01-22 18:32:21.865696	295.2	34.5	-66.3	1.5
2026-01-22 18:32:24.109732	295.9	34.2	-66.0	3.4
2026-01-22 18:32:26.354296	296.7	34.0	-66.6	3.7
2026-01-22 18:32:28.596332	297.4	33.7	-66.3	3.7
2026-01-22 18:32:30.840384	298.1	33.4	-66.7	5.2
2026-01-22 18:32:33.084403	298.9	33.2	-65.8	3.8
2026-01-22 18:32:35.325938	299.5	32.9	-66.5	4.2
2026-01-22 18:32:37.569489	300.2	32.6	-66.5	3.1
2026-01-22 18:32:39.814003	300.9	32.3	-66.7	3.9
2026-01-22 18:32:42.058047	301.6	32.1	-66.5	3.4
2026-01-22 18:32:44.300611	302.2	31.8	-66.4	3.3
2026-01-22 18:32:46.544128	302.9	31.5	-66.7	3.5
2026-01-22 18:32:48.788139	303.5	31.2	-67.1	4.0
2026-01-22 18:32:51.031655	304.1	30.9	-66.9	4.6
2026-01-22 18:32:53.275210	304.7	30.6	-66.3	2.5
2026-01-22 18:32:55.519725	305.3	30.4	-67.2	4.0
2026-01-22 18:32:57.763282	305.9	30.1	-67.3	3.8
2026-01-22 18:33:00.010294	306.5	29.8	-67.0	3.5
2026-01-22 18:33:02.254305	307.0	29.5	-67.1	4.1
2026-01-22 18:33:04.497334	307.6	29.2	-67.0	4.4
2026-01-22 18:33:06.740850	308.1	28.9	-66.6	3.2
2026-01-22 18:33:08.983909	308.7	28.6	-67.2	1.9
2026-01-22 18:33:11.227425	309.2	28.4	-66.8	4.0
2026-01-22 18:33:13.470495	309.7	28.1	-66.6	5.3
2026-01-22 18:33:15.714067	310.2	27.8	-66.7	3.9
2026-01-22 18:33:17.958591	310.7	27.5	-66.5	4.5
2026-01-22 18:33:20.201652	311.2	27.2	-66.8	5.7
2026-01-22 18:33:22.444719	311.7	26.9	-66.5	6.0
2026-01-22 18:33:24.692226	312.2	26.7	-66.4	4.7
2026-01-22 18:33:26.937247	312.7	26.4	-65.9	5.4
2026-01-22 18:33:29.181816	313.1	26.1	-66.2	5.5
2026-01-22 18:33:31.431324	313.6	25.8	-66.5	4.5
2026-01-22 18:33:33.677355	314.0	25.5	-66.5	5.6
2026-01-22 18:33:35.920909	314.5	25.3	-66.3	5.5
2026-01-22 18:33:38.165416	314.9	25.0	-66.9	5.3
2026-01-22 18:33:40.408980	315.3	24.7	-66.8	5.6
2026-01-22 18:33:42.651504	315.7	24.4	-66.6	4.1
2026-01-22 18:33:44.895061	316.1	24.2	-66.3	5.0
2026-01-22 18:33:47.139073	316.5	23.9	-66.6	5.0
2026-01-22 18:33:49.386627	316.9	23.6	-66.4	5.2
2026-01-22 18:33:51.630638	317.3	23.4	-66.2	3.6
2026-01-22 18:33:53.875153	317.7	23.1	-66.6	3.7
2026-01-22 18:33:56.119218	318.1	22.8	-66.9	4.7
2026-01-22 18:33:58.365247	318.4	22.6	-66.7	3.7
2026-01-22 18:34:00.609314	318.8	22.3	-66.8	3.9
2026-01-22 18:34:02.852844	319.2	22.1	-66.8	3.7
2026-01-22 18:34:05.095865	319.5	21.8	-67.3	3.7
2026-01-22 18:34:07.340909	319.8	21.5	-67.1	4.1
2026-01-22 18:34:09.584423	320.2	21.3	-67.4	4.3
2026-01-22 18:34:11.828996	320.5	21.0	-66.9	4.6
2026-01-22 18:34:14.072015	320.9	20.8	-66.9	5.0
2026-01-22 18:34:16.315569	321.2	20.5	-66.3	4.3
2026-01-22 18:34:18.557605	321.5	20.3	-66.8	5.1
2026-01-22 18:34:20.801178	321.8	20.0	-66.5	4.7
2026-01-22 18:34:23.046695	322.1	19.8	-66.5	5.2
2026-01-22 18:34:25.289725	322.4	19.5	-66.7	4.8
2026-01-22 18:34:27.532786	322.7	19.3	-67.1	5.1
2026-01-22 18:34:29.773328	323.0	19.1	-66.6	5.4
2026-01-22 18:34:32.017892	323.3	18.8	-66.7	5.1
2026-01-22 18:34:34.261910	323.6	18.6	-66.5	5.1
2026-01-22 18:34:36.505456	323.9	18.4	-66.0	4.3
2026-01-22 18:34:38.748483	324.2	18.1	-66.6	3.9
2026-01-22 18:34:40.992495	324.4	17.9	-65.8	3.4
2026-01-22 18:34:43.236545	324.7	17.7	-66.6	4.2
2026-01-22 18:34:45.479068	325.0	17.4	-66.1	4.8
2026-01-22 18:34:47.721631	325.2	17.2	-66.3	5.0
2026-01-22 18:34:49.964658	325.5	17.0	-66.3	3.3
2026-01-22 18:34:52.208226	325.7	16.8	-66.7	4.9
2026-01-22 18:34:54.454758	326.0	16.5	-66.8	2.8
2026-01-22 18:34:56.698778	326.2	16.3	-66.5	4.6
2026-01-22 18:34:58.941798	326.5	16.1	-66.5	4.5
2026-01-22 18:35:01.185855	326.7	15.9	-66.8	3.8
2026-01-22 18:35:03.429875	327.0	15.7	-66.6	4.4
2026-01-22 18:35:05.672927	327.2	15.4	-66.7	3.6
2026-01-22 18:35:07.916983	327.4	15.2	-66.8	4.5
2026-01-22 18:35:10.160020	327.7	15.0	-66.5	3.9
2026-01-22 18:35:12.403040	327.9	14.8	-66.8	2.6
2026-01-22 18:35:14.647092	328.1	14.6	-66.3	3.0
2026-01-22 18:35:16.890640	328.3	14.4	-66.7	2.7
2026-01-22 18:35:19.133682	328.5	14.2	-66.7	3.5
2026-01-22 18:35:21.379215	328.8	14.0	-66.5	2.1
2026-01-22 18:35:23.622275	329.0	13.8	-67.0	3.9
2026-01-22 18:35:25.866295	329.2	13.6	-66.8	3.3
2026-01-22 18:35:28.109316	329.4	13.4	-66.3	2.8
2026-01-22 18:35:30.352367	329.6	13.2	-67.1	3.6
2026-01-22 18:35:32.595883	329.8	13.0	-67.0	3.2
2026-01-22 18:35:34.839893	330.0	12.8	-66.9	2.5
2026-01-22 18:35:37.082418	330.2	12.6	-66.8	3.3
2026-01-22 18:35:39.324951	330.4	12.4	-66.2	2.5
2026-01-22 18:35:41.567003	330.6	12.2	-66.5	1.3
2026-01-22 18:35:43.810085	330.7	12.0	-66.1	2.4
2026-01-22 18:35:46.053122	330.9	11.8	-66.1	0.0
2026-01-22 18:35:48.297160	331.1	11.6	-66.3	0.5
2026-01-22 18:35:50.541224	331.3	11.4	-66.3	0.7
2026-01-22 18:35:52.785243	331.5	11.3	-66.0	1.3
2026-01-22 18:35:55.028799	331.6	11.1	-66.3	1.0
2026-01-22 18:35:57.272321	331.8	10.9	-66.2	2.2
2026-01-22 18:35:59.516372	332.0	10.7	-66.7	3.3
2026-01-22 18:36:01.758927	332.2	10.5	-66.3	2.1
2026-01-22 18:36:04.002938	332.3	10.3	-66.8	1.3
2026-01-22 18:36:06.245959	332.5	10.2	-66.7	2.6
2026-01-22 18:36:08.489498	332.7	10.0	-65.9	2.4
2026-01-22 18:36:10.733045	332.8	9.8	-66.5	1.5
2026-01-22 18:36:12.976569	333.0	9.6	-66.3	0.0
2026-01-22 18:36:15.220124	333.1	9.5	-65.8	0.0
2026-01-22 18:36:17.462657	333.3	9.3	-66.4	0.0
2026-01-22 18:36:19.706716	333.5	9.1	-66.5	0.0
2026-01-22 18:36:21.949758	333.6	8.9	-65.7	0.0
2026-01-22 18:36:24.192815	333.8	8.8	-66.3	0.0
2026-01-22 18:36:26.435348	333.9	8.6	-66.3	0.0
2026-01-22 18:36:28.678864	334.1	8.4	-65.3	0.0
2026-01-22 18:36:30.920437	334.2	8.3	-64.9	0.0
2026-01-22 18:36:33.161474	334.4	8.1	-66.3	0.0
2026-01-22 18:36:35.409042	334.5	7.9	-66.6	0.5
2026-01-22 18:36:37.657071	334.6	7.8	-65.8	0.0
2026-01-22 18:36:39.900122	334.8	7.6	-66.2	0.0
2026-01-22 18:36:42.143649	334.9	7.4	-65.7	0.0
2026-01-22 18:36:44.387163	335.1	7.3	-65.7	0.0
2026-01-22 18:36:46.631711	335.2	7.1	-65.7	0.0
2026-01-22 18:36:48.877731	335.3	6.9	-66.5	0.0
2026-01-22 18:36:51.123785	335.5	6.8	-65.2	0.0
2026-01-22 18:36:53.367796	335.6	6.6	-64.9	0.0
2026-01-22 18:36:55.610358	335.7	6.5	-65.2	0.0
2026-01-22 18:36:57.853883	335.9	6.3	-65.8	0.0
2026-01-22 18:37:00.097925	336.0	6.2	-65.7	0.0
2026-01-22 18:37:02.342448	336.1	6.0	-66.7	1.6
2026-01-22 18:37:04.585987	336.2	5.9	-69.6	0.0
2026-01-22 18:37:06.829503	336.4	5.7	-69.8	0.0
2026-01-22 18:37:09.073588	336.5	5.5	-70.6	0.0
2026-01-22 18:37:11.317144	336.6	5.4	-70.4	0.0
2026-01-22 18:37:13.559179	336.7	5.2	-69.8	0.0
2026-01-22 18:37:15.801743	336.9	5.1	-70.1	0.0
#Closed at: 2026-01-22 18:24:51.826655