passes_logs/2026/01/22/PlanumMoscow/PlanumMoscow__20260122_190153_METOP-C_rec.log

#Pass ID: 20260122_190153_METOP-C
#Satellite: METOP-C
#Configuration: METOP-C
#Start time: 2026-01-22 19:01:58.675138

#LorettStation: 1.0.0 05.05.2024
#Station: PlanumMoscow
#Location: 37.6253844 lon 55.6713361 lat
#TLE: 1 43689U 18087A   25293.88981035  .00000265  00000+0  14109-3 0  9997
#TLE: 2 43689  98.7006 352.4487 0002041 122.1097 238.0279 14.21482740360838

#Time	Az	El	Level	SNR
2026-01-22 19:05:37.106383	216.7	24.3	-65.7	0.0
2026-01-22 19:05:39.348946	217.1	24.6	-64.0	0.0
2026-01-22 19:05:41.592469	217.6	24.9	-63.7	0.0
2026-01-22 19:05:43.836481	218.0	25.1	-64.4	0.0
2026-01-22 19:05:46.081026	218.5	25.4	-63.9	0.0
2026-01-22 19:05:48.324062	219.0	25.6	-65.1	0.0
2026-01-22 19:05:50.566624	219.5	25.9	-64.5	0.0
2026-01-22 19:05:52.809675	220.0	26.1	-64.3	0.0
2026-01-22 19:05:55.053696	220.5	26.4	-64.4	0.0
2026-01-22 19:05:57.296722	221.0	26.6	-63.9	0.0
2026-01-22 19:05:59.539772	221.6	26.9	-62.6	0.0
2026-01-22 19:06:01.783295	222.1	27.2	-62.0	0.0
2026-01-22 19:06:04.029810	222.6	27.4	-63.8	0.0
2026-01-22 19:06:06.274867	223.2	27.7	-61.7	0.0
2026-01-22 19:06:08.517893	223.7	27.9	-62.9	0.0
2026-01-22 19:06:10.761447	224.3	28.2	-61.9	0.0
2026-01-22 19:06:13.005953	224.9	28.4	-63.7	0.0
2026-01-22 19:06:15.249519	225.5	28.7	-62.9	0.0
2026-01-22 19:06:17.493539	226.1	28.9	-62.1	0.0
2026-01-22 19:06:19.737598	226.7	29.2	-61.3	0.0
2026-01-22 19:06:21.980624	227.3	29.4	-62.8	0.0
2026-01-22 19:06:24.223643	227.9	29.7	-63.4	0.0
2026-01-22 19:06:26.467203	228.5	29.9	-60.3	0.0
2026-01-22 19:06:28.715729	229.2	30.2	-59.9	0.0
2026-01-22 19:06:30.958295	229.8	30.4	-64.5	0.0
2026-01-22 19:06:33.202337	230.5	30.7	-60.6	0.0
2026-01-22 19:06:35.446394	231.2	30.9	-63.1	0.0
2026-01-22 19:06:37.693414	231.8	31.1	-64.3	0.0
2026-01-22 19:06:39.936986	232.5	31.4	-64.0	0.0
2026-01-22 19:06:42.181005	233.2	31.6	-63.2	0.0
2026-01-22 19:06:44.427530	233.9	31.8	-64.2	0.0
2026-01-22 19:06:46.670588	234.7	32.1	-64.3	0.0
2026-01-22 19:06:48.913122	235.4	32.3	-63.2	0.0
2026-01-22 19:06:51.155684	236.1	32.5	-62.9	0.0
2026-01-22 19:06:53.402208	236.9	32.7	-62.4	0.0
2026-01-22 19:06:55.646220	237.6	32.9	-63.4	0.0
2026-01-22 19:06:57.890271	238.4	33.1	-63.4	0.0
2026-01-22 19:07:00.136291	239.2	33.3	-63.1	0.0
2026-01-22 19:07:02.379816	240.0	33.5	-62.8	0.0
2026-01-22 19:07:04.622835	240.8	33.7	-61.2	0.0
2026-01-22 19:07:06.866882	241.6	33.9	-62.9	0.0
2026-01-22 19:07:09.109911	242.4	34.1	-62.0	0.0
2026-01-22 19:07:11.352962	243.2	34.3	-63.3	0.0
2026-01-22 19:07:13.596988	244.0	34.4	-63.2	0.0
2026-01-22 19:07:15.841495	244.9	34.6	-62.8	0.0
2026-01-22 19:07:18.088507	245.7	34.8	-60.2	0.0
2026-01-22 19:07:20.332542	246.6	34.9	-61.1	0.0
2026-01-22 19:07:22.576560	247.5	35.1	-61.0	0.0
2026-01-22 19:07:24.819580	248.3	35.2	-60.2	0.0
2026-01-22 19:07:27.062134	249.2	35.4	-63.1	0.0
2026-01-22 19:07:29.305657	250.1	35.5	-61.6	0.0
2026-01-22 19:07:31.549218	251.0	35.6	-60.0	0.0
2026-01-22 19:07:33.792245	251.9	35.7	-62.1	0.0
2026-01-22 19:07:36.035303	252.8	35.8	-63.9	0.0
2026-01-22 19:07:38.278826	253.7	35.9	-63.5	0.0
2026-01-22 19:07:40.521844	254.6	36.0	-62.6	0.0
2026-01-22 19:07:42.764404	255.6	36.1	-62.8	0.0
2026-01-22 19:07:45.008928	256.5	36.2	-64.8	0.0
2026-01-22 19:07:47.251991	257.4	36.2	-64.7	0.0
2026-01-22 19:07:49.499515	258.3	36.3	-65.4	0.0
2026-01-22 19:07:51.742565	259.3	36.3	-64.2	0.0
2026-01-22 19:07:53.986090	260.2	36.4	-64.7	0.0
2026-01-22 19:07:56.230132	261.2	36.4	-64.9	0.0
2026-01-22 19:07:58.473655	262.1	36.4	-66.1	0.0
2026-01-22 19:08:00.717667	263.0	36.5	-65.2	0.0
2026-01-22 19:08:02.961212	264.0	36.5	-64.5	0.0
2026-01-22 19:08:05.204231	264.9	36.5	-66.2	0.0
2026-01-22 19:08:07.450292	265.9	36.5	-67.2	0.0
2026-01-22 19:08:09.696312	266.8	36.4	-65.8	0.0
2026-01-22 19:08:11.939869	267.8	36.4	-66.2	0.0
2026-01-22 19:08:14.187402	268.7	36.4	-65.5	0.0
2026-01-22 19:08:16.430444	269.6	36.3	-64.9	0.0
2026-01-22 19:08:18.674464	270.6	36.3	-65.8	0.0
2026-01-22 19:08:20.916996	271.5	36.2	-65.8	0.0
2026-01-22 19:08:23.164059	272.4	36.1	-65.6	0.0
2026-01-22 19:08:25.406620	273.4	36.1	-66.7	0.0
2026-01-22 19:08:27.650631	274.3	36.0	-64.2	0.0
2026-01-22 19:08:29.893163	275.2	35.9	-68.1	0.0
2026-01-22 19:08:32.136213	276.1	35.8	-66.7	0.0
2026-01-22 19:08:34.379242	277.0	35.7	-66.5	0.0
2026-01-22 19:08:36.622262	277.9	35.6	-67.4	0.0
2026-01-22 19:08:38.865828	278.8	35.5	-66.3	0.0
2026-01-22 19:08:41.109846	279.7	35.3	-66.5	0.0
2026-01-22 19:08:43.353391	280.6	35.2	-67.0	0.0
2026-01-22 19:08:45.597906	281.4	35.0	-67.0	0.0
2026-01-22 19:08:47.842451	282.3	34.9	-67.2	0.0
2026-01-22 19:08:50.085976	283.1	34.7	-67.2	0.0
2026-01-22 19:08:52.330523	284.0	34.6	-68.1	0.0
2026-01-22 19:08:54.574048	284.8	34.4	-66.6	0.0
2026-01-22 19:08:56.819555	285.7	34.2	-68.5	0.0
2026-01-22 19:08:59.063121	286.5	34.1	-68.8	0.0
2026-01-22 19:09:01.307141	287.3	33.9	-69.1	0.0
2026-01-22 19:09:03.553688	288.1	33.7	-66.8	0.0
2026-01-22 19:09:05.795758	288.9	33.5	-67.0	0.0
2026-01-22 19:09:08.039313	289.7	33.3	-67.9	0.0
2026-01-22 19:09:10.281838	290.4	33.1	-66.9	0.0
2026-01-22 19:09:12.523863	291.2	32.9	-67.2	0.0
2026-01-22 19:09:14.766395	292.0	32.7	-68.0	0.0
2026-01-22 19:09:17.010406	292.7	32.5	-68.3	0.0
2026-01-22 19:09:19.254417	293.4	32.2	-67.3	0.0
2026-01-22 19:09:21.498428	294.2	32.0	-67.8	0.0
2026-01-22 19:09:23.742440	294.9	31.8	-68.4	0.0
2026-01-22 19:09:25.985963	295.6	31.6	-67.8	0.0
2026-01-22 19:09:28.229487	296.3	31.3	-67.9	0.0
2026-01-22 19:09:30.473002	297.0	31.1	-68.2	0.0
2026-01-22 19:09:32.714534	297.6	30.9	-68.3	0.0
2026-01-22 19:09:34.958049	298.3	30.6	-68.0	0.0
2026-01-22 19:09:37.202060	299.0	30.4	-68.7	0.0
2026-01-22 19:09:39.446080	299.6	30.1	-68.9	0.0
2026-01-22 19:09:41.689100	300.2	29.9	-68.0	0.0
2026-01-22 19:09:43.932615	300.9	29.7	-69.0	0.0
2026-01-22 19:09:46.177130	301.5	29.4	-69.1	0.0
2026-01-22 19:09:48.421646	302.1	29.2	-68.8	0.0
2026-01-22 19:09:50.663675	302.7	28.9	-68.6	0.0
2026-01-22 19:09:52.907687	303.3	28.7	-68.9	0.0
2026-01-22 19:09:55.151697	303.9	28.4	-68.9	0.0
2026-01-22 19:09:57.395708	304.4	28.2	-69.0	0.0
2026-01-22 19:09:59.642729	305.0	27.9	-68.0	0.0
2026-01-22 19:10:01.880252	305.6	27.7	-69.4	0.0
2026-01-22 19:10:04.115757	306.1	27.4	-68.9	0.0
2026-01-22 19:10:06.350766	306.6	27.2	-68.8	0.0
2026-01-22 19:10:08.586280	307.2	26.9	-68.6	0.0
2026-01-22 19:10:10.822805	307.7	26.6	-68.7	0.0
2026-01-22 19:10:13.059318	308.2	26.4	-69.3	0.0
2026-01-22 19:10:15.296327	308.7	26.1	-68.8	0.0
2026-01-22 19:10:17.536345	309.2	25.9	-68.9	0.0
2026-01-22 19:10:19.770362	309.7	25.6	-68.6	0.0
2026-01-22 19:10:22.006371	310.2	25.4	-68.2	0.0
2026-01-22 19:10:24.241876	310.6	25.1	-69.6	0.0
2026-01-22 19:10:26.478389	311.1	24.9	-69.2	0.0
2026-01-22 19:10:28.710893	311.6	24.6	-68.0	0.0
2026-01-22 19:10:30.949921	312.0	24.4	-68.0	0.0
2026-01-22 19:10:33.186435	312.5	24.1	-68.8	0.0
2026-01-22 19:10:35.421940	312.9	23.9	-68.8	0.0
2026-01-22 19:10:37.659453	313.3	23.6	-68.8	0.0
2026-01-22 19:10:39.896967	313.8	23.4	-69.0	0.0
2026-01-22 19:10:42.134976	314.2	23.1	-68.3	0.0
2026-01-22 19:10:44.372481	314.6	22.9	-68.4	0.0
2026-01-22 19:10:46.607491	315.0	22.6	-69.2	0.0
2026-01-22 19:10:48.844006	315.4	22.4	-68.8	0.0
2026-01-22 19:10:51.083017	315.8	22.1	-68.5	0.0
2026-01-22 19:10:53.319026	316.2	21.9	-69.0	0.0
2026-01-22 19:10:55.556540	316.5	21.7	-68.9	0.0
2026-01-22 19:10:57.795550	316.9	21.4	-69.0	0.0
2026-01-22 19:11:00.033065	317.3	21.2	-69.4	0.0
2026-01-22 19:11:02.269579	317.7	20.9	-69.2	0.0
2026-01-22 19:11:04.505597	318.0	20.7	-69.2	0.0
2026-01-22 19:11:06.745103	318.4	20.5	-68.8	0.0
2026-01-22 19:11:08.986617	318.7	20.2	-69.0	0.0
2026-01-22 19:11:11.229140	319.1	20.0	-68.7	0.0
2026-01-22 19:11:13.466655	319.4	19.8	-68.8	0.0
2026-01-22 19:11:15.707664	319.7	19.5	-68.4	0.0
2026-01-22 19:11:17.941178	320.1	19.3	-67.8	0.0
2026-01-22 19:11:20.177187	320.4	19.1	-69.0	0.0
2026-01-22 19:11:22.416204	320.7	18.9	-69.0	0.0
2026-01-22 19:11:24.661711	321.0	18.6	-69.3	0.0
2026-01-22 19:11:26.903723	321.3	18.4	-69.1	0.0
2026-01-22 19:11:29.144228	321.6	18.2	-68.9	0.0
2026-01-22 19:11:31.386238	321.9	18.0	-68.3	0.0
2026-01-22 19:11:33.626761	322.2	17.7	-68.8	0.0
2026-01-22 19:11:35.866789	322.5	17.5	-69.4	0.0
2026-01-22 19:11:38.108295	322.8	17.3	-67.9	0.0
2026-01-22 19:11:40.346800	323.1	17.1	-69.8	0.0
2026-01-22 19:11:42.587827	323.4	16.9	-68.6	0.0
2026-01-22 19:11:44.825858	323.7	16.7	-69.0	0.0
2026-01-22 19:11:47.064380	323.9	16.4	-69.0	0.0
2026-01-22 19:11:49.299894	324.2	16.2	-68.7	0.0
2026-01-22 19:11:51.538910	324.5	16.0	-68.1	0.0
2026-01-22 19:11:53.778930	324.7	15.8	-69.0	0.0
2026-01-22 19:11:56.018940	325.0	15.6	-67.9	0.0
2026-01-22 19:11:58.255959	325.2	15.4	-68.2	0.0
2026-01-22 19:12:00.496969	325.5	15.2	-68.8	0.0
2026-01-22 19:12:02.735988	325.7	15.0	-69.2	0.0
2026-01-22 19:12:04.976511	326.0	14.8	-68.9	0.0
2026-01-22 19:12:07.212017	326.2	14.6	-67.9	0.0
2026-01-22 19:12:09.451026	326.5	14.4	-69.0	0.0
2026-01-22 19:12:11.688540	326.7	14.2	-68.5	0.0
2026-01-22 19:12:13.925053	326.9	14.0	-68.7	0.0
2026-01-22 19:12:16.163559	327.2	13.8	-67.5	0.0
2026-01-22 19:12:18.406074	327.4	13.6	-68.9	0.0
2026-01-22 19:12:20.643579	327.6	13.4	-67.8	0.0
2026-01-22 19:12:22.880092	327.8	13.2	-68.7	0.0
2026-01-22 19:12:25.118597	328.1	13.0	-67.8	0.0
2026-01-22 19:12:27.353615	328.3	12.8	-68.9	0.0
2026-01-22 19:12:29.591119	328.5	12.6	-67.6	0.0
2026-01-22 19:12:31.826129	328.7	12.4	-68.4	0.0
2026-01-22 19:12:34.066139	328.9	12.3	-68.7	0.0
2026-01-22 19:12:36.302148	329.1	12.1	-68.8	0.0
2026-01-22 19:12:38.538661	329.3	11.9	-67.8	0.0
2026-01-22 19:12:40.775166	329.5	11.7	-67.8	0.0
2026-01-22 19:12:43.014176	329.7	11.5	-68.3	0.0
2026-01-22 19:12:45.251698	329.9	11.3	-68.5	0.0
2026-01-22 19:12:47.488211	330.1	11.1	-68.5	0.0
2026-01-22 19:12:49.721220	330.3	11.0	-69.1	0.0
2026-01-22 19:12:51.960230	330.5	10.8	-68.6	0.0
2026-01-22 19:12:54.198735	330.7	10.6	-68.2	0.0
2026-01-22 19:12:56.439754	330.9	10.4	-68.9	0.0
2026-01-22 19:12:58.676259	331.0	10.3	-68.2	0.0
2026-01-22 19:13:00.912764	331.2	10.1	-67.9	0.0
2026-01-22 19:13:03.153271	331.4	9.9	-68.4	0.0
2026-01-22 19:13:05.395803	331.6	9.7	-67.9	0.0
2026-01-22 19:13:07.637813	331.8	9.6	-68.1	0.0
2026-01-22 19:13:09.880824	331.9	9.4	-68.0	0.0
2026-01-22 19:13:12.122844	332.1	9.2	-66.9	0.0
2026-01-22 19:13:14.367358	332.3	9.1	-67.4	0.0
2026-01-22 19:13:16.609378	332.4	8.9	-67.7	0.0
2026-01-22 19:13:18.847903	332.6	8.7	-67.9	0.0
2026-01-22 19:13:21.086417	332.8	8.6	-67.6	0.0
2026-01-22 19:13:23.328932	332.9	8.4	-68.0	0.0
2026-01-22 19:13:25.569446	333.1	8.2	-67.4	0.0
2026-01-22 19:13:27.809465	333.3	8.1	-66.9	0.0
2026-01-22 19:13:30.046970	333.4	7.9	-67.0	0.0
2026-01-22 19:13:32.284988	333.6	7.7	-66.2	0.0
2026-01-22 19:13:34.526999	333.7	7.6	-66.4	0.0
2026-01-22 19:13:36.765512	333.9	7.4	-67.1	0.0
2026-01-22 19:13:39.005017	334.0	7.3	-67.4	0.0
2026-01-22 19:13:41.244531	334.2	7.1	-66.8	0.0
2026-01-22 19:13:43.483548	334.3	6.9	-66.3	0.0
2026-01-22 19:13:45.722062	334.5	6.8	-66.7	0.0
2026-01-22 19:13:47.961089	334.6	6.6	-67.0	0.0
2026-01-22 19:13:50.197594	334.8	6.5	-66.3	0.0
2026-01-22 19:13:52.435612	334.9	6.3	-66.2	0.0
2026-01-22 19:13:54.677118	335.0	6.2	-66.2	0.0
2026-01-22 19:13:56.917137	335.2	6.0	-66.0	0.0
2026-01-22 19:13:59.155651	335.3	5.9	-68.5	0.0
2026-01-22 19:14:01.392661	335.5	5.7	-68.3	0.0
2026-01-22 19:14:03.632679	335.6	5.6	-70.2	0.0
2026-01-22 19:14:05.878195	335.7	5.4	-69.9	0.0
2026-01-22 19:14:08.112716	335.9	5.3	-68.7	0.0
2026-01-22 19:14:10.350239	336.0	5.1	-69.5	0.0
2026-01-22 19:14:12.587761	336.1	5.0	-70.5	0.0
#Closed at: 2026-01-22 19:01:53.675945