passes_logs/2026/01/22/PlanumMoscow/PlanumMoscow__20260122_164438_METOP-B_rec.log

#Pass ID: 20260122_164438_METOP-B
#Satellite: METOP-B
#Configuration: METOP-B
#Start time: 2026-01-22 16:44:43.463641

#LorettStation: 1.0.0 05.05.2024
#Station: PlanumMoscow
#Location: 37.6253844 lon 55.6713361 lat
#TLE: 1 38771U 12049A   25293.92766658  .00000266  00000+0  14193-3 0  9996
#TLE: 2 38771  98.6882 344.7603 0001609 341.5209  18.5909 14.21379342679275

#Time	Az	El	Level	SNR
2026-01-22 16:48:22.066745	118.0	26.7	-63.8	8.8
2026-01-22 16:48:24.312260	117.6	27.1	-63.4	7.3
2026-01-22 16:48:26.556804	117.2	27.4	-62.9	6.1
2026-01-22 16:48:28.803831	116.8	27.7	-63.6	7.4
2026-01-22 16:48:31.047874	116.4	28.0	-63.7	7.3
2026-01-22 16:48:33.292381	116.0	28.4	-63.5	6.9
2026-01-22 16:48:35.535448	115.5	28.7	-63.8	7.7
2026-01-22 16:48:37.778024	115.1	29.0	-63.3	5.9
2026-01-22 16:48:40.015610	114.6	29.4	-64.0	5.5
2026-01-22 16:48:42.254205	114.1	29.7	-63.7	5.2
2026-01-22 16:48:44.491821	113.7	30.0	-63.2	5.9
2026-01-22 16:48:46.735391	113.2	30.4	-63.6	6.8
2026-01-22 16:48:48.979409	112.7	30.7	-62.9	5.5
2026-01-22 16:48:51.221966	112.2	31.1	-63.8	7.8
2026-01-22 16:48:53.464994	111.6	31.4	-62.1	5.2
2026-01-22 16:48:55.708015	111.1	31.8	-64.0	6.3
2026-01-22 16:48:57.952559	110.6	32.1	-63.1	6.2
2026-01-22 16:49:00.197073	110.0	32.5	-63.9	8.7
2026-01-22 16:49:02.444132	109.4	32.8	-63.6	8.2
2026-01-22 16:49:04.682219	108.9	33.2	-64.0	7.1
2026-01-22 16:49:06.921811	108.3	33.5	-63.3	7.4
2026-01-22 16:49:09.160384	107.7	33.9	-63.8	6.9
2026-01-22 16:49:11.398451	107.0	34.2	-63.9	7.0
2026-01-22 16:49:13.642003	106.4	34.6	-63.6	3.2
2026-01-22 16:49:15.887534	105.8	34.9	-63.7	7.2
2026-01-22 16:49:18.131072	105.1	35.3	-63.6	6.9
2026-01-22 16:49:20.375588	104.4	35.6	-63.4	5.9
2026-01-22 16:49:22.620095	103.7	36.0	-62.5	6.0
2026-01-22 16:49:24.863142	103.0	36.3	-62.4	7.1
2026-01-22 16:49:27.107657	102.3	36.7	-62.8	6.3
2026-01-22 16:49:29.348738	101.6	37.0	-62.5	6.1
2026-01-22 16:49:31.587801	100.8	37.4	-62.8	6.9
2026-01-22 16:49:33.826422	100.0	37.7	-63.1	8.7
2026-01-22 16:49:36.064994	99.2	38.0	-62.8	6.7
2026-01-22 16:49:38.304063	98.4	38.4	-62.5	2.3
2026-01-22 16:49:40.551607	97.6	38.7	-63.0	8.3
2026-01-22 16:49:42.798123	96.8	39.0	-63.0	8.0
2026-01-22 16:49:45.042172	95.9	39.4	-62.3	6.9
2026-01-22 16:49:47.286191	95.1	39.7	-62.5	6.1
2026-01-22 16:49:49.530736	94.2	40.0	-62.8	7.3
2026-01-22 16:49:51.775243	93.3	40.3	-62.8	5.7
2026-01-22 16:49:54.019749	92.3	40.6	-62.8	6.9
2026-01-22 16:49:56.258313	91.4	40.9	-61.3	4.2
2026-01-22 16:49:58.500357	90.4	41.2	-62.9	5.7
2026-01-22 16:50:00.744903	89.5	41.5	-62.5	5.0
2026-01-22 16:50:02.989419	88.5	41.8	-63.2	6.0
2026-01-22 16:50:05.232983	87.5	42.0	-61.9	6.2
2026-01-22 16:50:07.477498	86.4	42.3	-62.2	6.1
2026-01-22 16:50:09.722005	85.4	42.6	-62.1	6.3
2026-01-22 16:50:11.968058	84.3	42.8	-61.5	5.0
2026-01-22 16:50:14.208619	83.3	43.0	-62.2	4.1
2026-01-22 16:50:16.447708	82.2	43.3	-61.8	4.8
2026-01-22 16:50:18.691264	81.1	43.5	-61.8	4.2
2026-01-22 16:50:20.935809	79.9	43.7	-60.8	4.9
2026-01-22 16:50:23.180324	78.8	43.9	-61.3	5.7
2026-01-22 16:50:25.424335	77.7	44.0	-61.2	3.8
2026-01-22 16:50:27.667890	76.5	44.2	-60.9	2.4
2026-01-22 16:50:29.911406	75.3	44.4	-61.1	3.2
2026-01-22 16:50:32.155418	74.2	44.5	-61.9	4.8
2026-01-22 16:50:34.400429	73.0	44.6	-61.0	6.0
2026-01-22 16:50:36.648441	71.8	44.8	-61.1	2.4
2026-01-22 16:50:38.892474	70.5	44.9	-61.7	3.9
2026-01-22 16:50:41.135988	69.3	44.9	-60.4	2.9
2026-01-22 16:50:43.379048	68.1	45.0	-59.9	1.6
2026-01-22 16:50:45.622602	66.9	45.1	-60.5	0.7
2026-01-22 16:50:47.867109	65.6	45.1	-60.1	3.5
2026-01-22 16:50:50.111128	64.4	45.2	-60.0	0.0
2026-01-22 16:50:52.355178	63.2	45.2	-60.1	2.0
2026-01-22 16:50:54.599693	61.9	45.2	-59.4	1.4
2026-01-22 16:50:56.844200	60.7	45.2	-60.4	3.4
2026-01-22 16:50:59.088746	59.5	45.1	-60.0	1.2
2026-01-22 16:51:01.333788	58.2	45.1	-60.1	0.0
2026-01-22 16:51:03.577797	57.0	45.0	-61.8	3.2
2026-01-22 16:51:05.821868	55.8	44.9	-60.3	1.2
2026-01-22 16:51:08.062967	54.6	44.9	-59.6	0.0
2026-01-22 16:51:10.301045	53.3	44.8	-60.0	0.7
2026-01-22 16:51:12.539613	52.2	44.6	-60.0	0.0
2026-01-22 16:51:14.782216	51.0	44.5	-60.9	2.4
2026-01-22 16:51:17.025782	49.8	44.4	-59.1	0.0
2026-01-22 16:51:19.270289	48.6	44.2	-59.3	0.0
2026-01-22 16:51:21.514804	47.4	44.0	-60.0	2.6
2026-01-22 16:51:23.762865	46.3	43.9	-59.6	3.0
2026-01-22 16:51:26.007382	45.2	43.7	-59.4	0.7
2026-01-22 16:51:28.250927	44.0	43.5	-59.5	3.6
2026-01-22 16:51:30.492467	42.9	43.3	-58.5	0.0
2026-01-22 16:51:32.732043	41.9	43.0	-60.3	3.4
2026-01-22 16:51:34.970144	40.8	42.8	-60.0	2.3
2026-01-22 16:51:37.210213	39.7	42.6	-59.5	2.6
2026-01-22 16:51:39.454266	38.7	42.3	-60.9	1.8
2026-01-22 16:51:41.698285	37.7	42.0	-59.6	0.0
2026-01-22 16:51:43.941829	36.7	41.8	-60.7	1.1
2026-01-22 16:51:46.185841	35.7	41.5	-61.4	2.3
2026-01-22 16:51:48.428401	34.7	41.2	-62.0	3.6
2026-01-22 16:51:50.674908	33.7	40.9	-60.8	4.1
2026-01-22 16:51:52.919423	32.8	40.6	-60.6	4.8
2026-01-22 16:51:55.157529	31.9	40.3	-61.7	1.4
2026-01-22 16:51:57.397091	31.0	40.0	-60.6	2.3
2026-01-22 16:51:59.634203	30.1	39.7	-61.0	1.0
2026-01-22 16:52:01.877252	29.2	39.4	-61.1	3.9
2026-01-22 16:52:04.121294	28.4	39.0	-61.9	3.3
2026-01-22 16:52:06.365801	27.6	38.7	-61.6	2.9
2026-01-22 16:52:08.609820	26.7	38.4	-61.1	4.0
2026-01-22 16:52:10.853366	25.9	38.0	-60.5	2.7
2026-01-22 16:52:13.097386	25.1	37.7	-61.6	4.1
2026-01-22 16:52:15.341931	24.4	37.4	-60.3	2.8
2026-01-22 16:52:17.584957	23.6	37.0	-60.6	3.0
2026-01-22 16:52:19.823021	22.9	36.7	-60.5	2.9
2026-01-22 16:52:22.062126	22.2	36.3	-61.8	5.3
2026-01-22 16:52:24.301186	21.5	36.0	-61.7	5.1
2026-01-22 16:52:26.542292	20.8	35.6	-60.4	3.6
2026-01-22 16:52:28.780856	20.1	35.3	-60.3	3.2
2026-01-22 16:52:31.020417	19.5	34.9	-61.8	4.9
2026-01-22 16:52:33.258991	18.8	34.6	-62.1	4.4
2026-01-22 16:52:35.501521	18.2	34.2	-61.9	4.7
2026-01-22 16:52:37.745068	17.6	33.9	-61.6	4.9
2026-01-22 16:52:39.979064	17.0	33.5	-62.6	6.3
2026-01-22 16:52:42.223104	16.4	33.2	-60.9	2.3
2026-01-22 16:52:44.467627	15.8	32.9	-61.3	6.2
2026-01-22 16:52:46.712141	15.2	32.5	-62.5	6.2
2026-01-22 16:52:48.959194	14.7	32.2	-62.1	6.1
2026-01-22 16:52:51.198766	14.1	31.8	-61.9	3.8
2026-01-22 16:52:53.436863	13.6	31.5	-61.9	5.3
2026-01-22 16:52:55.677917	13.1	31.1	-62.2	7.4
2026-01-22 16:52:57.922461	12.6	30.8	-61.3	3.6
2026-01-22 16:53:00.166976	12.1	30.4	-61.7	3.3
2026-01-22 16:53:02.411524	11.6	30.1	-62.2	7.0
2026-01-22 16:53:04.660535	11.1	29.8	-62.8	5.6
2026-01-22 16:53:06.904058	10.6	29.4	-62.2	5.3
2026-01-22 16:53:09.148602	10.2	29.1	-61.5	4.5
2026-01-22 16:53:11.391166	9.7	28.8	-61.3	4.7
2026-01-22 16:53:13.634728	9.3	28.4	-62.7	6.2
2026-01-22 16:53:15.879235	8.8	28.1	-62.3	4.1
2026-01-22 16:53:18.122750	8.4	27.8	-60.1	4.5
2026-01-22 16:53:20.365320	8.0	27.5	-62.7	5.3
2026-01-22 16:53:22.608843	7.6	27.1	-62.2	4.0
2026-01-22 16:53:24.853386	7.2	26.8	-62.2	5.3
2026-01-22 16:53:27.097406	6.8	26.5	-60.7	0.0
2026-01-22 16:53:29.336984	6.4	26.2	-60.6	3.0
2026-01-22 16:53:31.575549	6.1	25.9	-61.8	3.1
2026-01-22 16:53:33.813633	5.7	25.6	-62.7	2.8
2026-01-22 16:53:36.056688	5.4	25.3	-63.4	5.6
2026-01-22 16:53:38.300241	5.0	25.0	-62.7	6.2
2026-01-22 16:53:40.543756	4.7	24.7	-63.2	3.7
2026-01-22 16:53:42.788270	4.3	24.3	-62.9	5.2
2026-01-22 16:53:45.031813	4.0	24.1	-62.4	4.1
2026-01-22 16:53:47.276824	3.7	23.8	-60.9	0.1
2026-01-22 16:53:49.520842	3.4	23.5	-62.6	4.7
2026-01-22 16:53:51.762932	3.0	23.2	-61.0	2.6
2026-01-22 16:53:54.002005	2.7	22.9	-62.6	3.2
2026-01-22 16:53:56.240604	2.4	22.6	-62.7	2.2
2026-01-22 16:53:58.484158	2.1	22.3	-62.3	0.0
2026-01-22 16:54:00.728220	1.8	22.0	-62.9	5.3
2026-01-22 16:54:02.972735	1.6	21.8	-62.6	3.8
2026-01-22 16:54:05.216288	1.3	21.5	-63.6	1.6
2026-01-22 16:54:07.463300	1.0	21.2	-62.7	3.2
2026-01-22 16:54:09.707807	0.7	20.9	-63.4	5.0
2026-01-22 16:54:11.952350	0.5	20.7	-63.7	4.6
2026-01-22 16:54:14.193882	0.2	20.4	-64.1	5.3
2026-01-22 16:54:16.437442	360.0	20.1	-64.0	1.8
2026-01-22 16:54:18.681949	359.7	19.9	-64.2	4.1
2026-01-22 16:54:20.926456	359.5	19.6	-62.1	2.0
2026-01-22 16:54:23.170467	359.2	19.3	-62.8	3.5
2026-01-22 16:54:25.414974	359.0	19.1	-62.2	3.2
2026-01-22 16:54:27.659480	358.8	18.8	-61.7	2.4
2026-01-22 16:54:29.901012	358.5	18.6	-62.5	3.7
2026-01-22 16:54:32.143039	358.3	18.3	-63.7	4.5
2026-01-22 16:54:34.387050	358.1	18.1	-62.8	3.7
2026-01-22 16:54:36.630565	357.9	17.8	-62.3	0.8
2026-01-22 16:54:38.875072	357.6	17.6	-63.1	3.4
2026-01-22 16:54:41.119589	357.4	17.3	-63.0	0.0
2026-01-22 16:54:43.364095	357.2	17.1	-63.4	2.6
2026-01-22 16:54:45.608602	357.0	16.9	-62.3	0.0
2026-01-22 16:54:47.851135	356.8	16.6	-63.4	2.7
2026-01-22 16:54:50.095641	356.6	16.4	-63.0	3.9
2026-01-22 16:54:52.340148	356.4	16.2	-63.3	2.6
2026-01-22 16:54:54.584655	356.2	15.9	-63.3	1.6
2026-01-22 16:54:56.828171	356.1	15.7	-62.8	3.5
2026-01-22 16:54:59.072678	355.9	15.5	-62.8	4.8
2026-01-22 16:55:01.313184	355.7	15.3	-62.4	4.6
2026-01-22 16:55:03.550689	355.5	15.0	-63.5	3.1
2026-01-22 16:55:05.785730	355.3	14.8	-63.8	3.7
2026-01-22 16:55:08.021286	355.2	14.6	-63.7	2.0
2026-01-22 16:55:10.255338	355.0	14.4	-63.9	2.2
2026-01-22 16:55:12.492393	354.8	14.2	-64.6	2.6
2026-01-22 16:55:14.729451	354.7	13.9	-63.8	0.5
2026-01-22 16:55:16.964973	354.5	13.7	-63.3	0.0
2026-01-22 16:55:19.198477	354.3	13.5	-63.3	0.0
2026-01-22 16:55:21.434982	354.2	13.3	-63.9	2.1
2026-01-22 16:55:23.668487	354.0	13.1	-64.5	3.1
2026-01-22 16:55:25.905000	353.9	12.9	-63.2	0.7
2026-01-22 16:55:28.142506	353.7	12.7	-63.4	1.9
2026-01-22 16:55:30.383020	353.6	12.5	-63.7	0.6
2026-01-22 16:55:32.619525	353.4	12.3	-64.5	1.9
2026-01-22 16:55:34.854029	353.3	12.1	-63.1	0.0
2026-01-22 16:55:37.090567	353.1	11.9	-63.0	0.3
2026-01-22 16:55:39.328595	353.0	11.7	-63.2	0.0
2026-01-22 16:55:41.564099	352.9	11.5	-63.4	1.8
2026-01-22 16:55:43.800604	352.7	11.3	-62.9	0.0
2026-01-22 16:55:46.035109	352.6	11.1	-63.6	1.9
2026-01-22 16:55:48.273614	352.5	10.9	-63.5	2.2
2026-01-22 16:55:50.507119	352.3	10.7	-63.1	4.0
2026-01-22 16:55:52.744129	352.2	10.5	-62.0	0.0
2026-01-22 16:55:54.978634	352.1	10.4	-63.0	0.0
2026-01-22 16:55:57.217661	351.9	10.2	-62.9	0.4
2026-01-22 16:55:59.453175	351.8	10.0	-65.0	3.8
2026-01-22 16:56:01.689680	351.7	9.8	-64.3	0.2
2026-01-22 16:56:03.926688	351.6	9.6	-64.4	0.3
2026-01-22 16:56:06.164194	351.5	9.4	-64.8	0.0
2026-01-22 16:56:08.401203	351.3	9.2	-64.2	0.0
2026-01-22 16:56:10.638212	351.2	9.1	-64.7	0.0
2026-01-22 16:56:12.876223	351.1	8.9	-63.2	0.0
2026-01-22 16:56:15.107273	351.0	8.7	-65.2	0.0
2026-01-22 16:56:17.341829	350.9	8.5	-63.8	0.0
2026-01-22 16:56:19.578839	350.8	8.4	-64.2	0.0
2026-01-22 16:56:21.817344	350.7	8.2	-63.8	0.0
2026-01-22 16:56:24.055849	350.6	8.0	-64.2	0.0
2026-01-22 16:56:26.292354	350.4	7.8	-64.4	0.0
2026-01-22 16:56:28.533365	350.3	7.7	-64.3	0.0
2026-01-22 16:56:30.771374	350.2	7.5	-64.4	0.0
2026-01-22 16:56:33.008879	350.1	7.3	-65.9	0.0
2026-01-22 16:56:35.245897	350.0	7.2	-64.7	0.0
2026-01-22 16:56:37.482922	349.9	7.0	-64.5	0.0
2026-01-22 16:56:39.716426	349.8	6.8	-64.0	0.0
2026-01-22 16:56:41.953931	349.7	6.7	-64.0	0.0
2026-01-22 16:56:44.188940	349.6	6.5	-64.9	0.0
2026-01-22 16:56:46.429959	349.6	6.4	-65.2	0.0
2026-01-22 16:56:48.664968	349.5	6.2	-63.3	0.0
2026-01-22 16:56:50.898473	349.4	6.0	-66.2	0.0
2026-01-22 16:56:53.131977	349.3	5.9	-65.6	0.0
2026-01-22 16:56:55.365482	349.2	5.7	-65.1	0.0
2026-01-22 16:56:57.603532	349.1	5.6	-64.2	0.0
2026-01-22 16:56:59.838582	349.0	5.4	-65.1	0.0
2026-01-22 16:57:02.076087	348.9	5.2	-64.8	0.0
2026-01-22 16:57:04.312096	348.8	5.1	-65.3	0.0
#Closed at: 2026-01-22 16:44:38.465023