passes_logs/2026/01/22/PlanumMoscow/PlanumMoscow__20260122_103454_METEOR-M2_4_rec.log

#Pass ID: 20260122_103454_METEOR-M2 4
#Satellite: METEOR-M2 4
#Configuration: METEOR-M2 4
#Start time: 2026-01-22 10:34:59.340984

#LorettStation: 1.0.0 05.05.2024
#Station: PlanumMoscow
#Location: 37.6253844 lon 55.6713361 lat
#TLE: 1 59051U 24039A   25293.94737965  .00000087  00000+0  58459-4 0  9998
#TLE: 2 59051  98.6671 251.7071 0007726 135.4772 224.7028 14.22388966 85257

#Time	Az	El	Level	SNR
2026-01-22 10:38:37.775667	120.6	27.0	-60.6	6.8
2026-01-22 10:38:40.019678	120.3	27.3	-61.7	6.8
2026-01-22 10:38:42.264185	119.9	27.7	-61.4	7.1
2026-01-22 10:38:44.507710	119.5	28.0	-62.2	8.2
2026-01-22 10:38:46.752217	119.1	28.3	-61.9	8.7
2026-01-22 10:38:48.996724	118.7	28.7	-61.7	9.0
2026-01-22 10:38:51.240735	118.3	29.0	-61.5	7.0
2026-01-22 10:38:53.484755	117.8	29.4	-62.3	8.1
2026-01-22 10:38:55.728767	117.4	29.7	-62.2	8.6
2026-01-22 10:38:57.972292	116.9	30.1	-61.9	6.8
2026-01-22 10:39:00.216304	116.5	30.4	-61.2	8.2
2026-01-22 10:39:02.458827	116.0	30.8	-61.8	9.3
2026-01-22 10:39:04.701846	115.5	31.1	-61.7	8.6
2026-01-22 10:39:06.945857	115.0	31.5	-62.4	9.7
2026-01-22 10:39:09.188880	114.5	31.8	-60.9	6.0
2026-01-22 10:39:11.434892	114.0	32.2	-61.6	7.9
2026-01-22 10:39:13.678904	113.5	32.6	-61.3	8.6
2026-01-22 10:39:15.921428	113.0	32.9	-62.5	9.8
2026-01-22 10:39:18.168955	112.4	33.3	-61.7	8.6
2026-01-22 10:39:20.411479	111.9	33.7	-61.4	7.5
2026-01-22 10:39:22.655489	111.3	34.0	-61.0	9.5
2026-01-22 10:39:24.900501	110.7	34.4	-60.7	7.4
2026-01-22 10:39:27.150018	110.1	34.8	-60.8	7.4
2026-01-22 10:39:29.394029	109.5	35.1	-62.2	8.3
2026-01-22 10:39:31.636554	108.8	35.5	-60.4	4.5
2026-01-22 10:39:33.880069	108.2	35.9	-61.9	8.9
2026-01-22 10:39:36.126108	107.5	36.3	-61.8	7.4
2026-01-22 10:39:38.370119	106.9	36.6	-61.3	6.2
2026-01-22 10:39:40.613140	106.2	37.0	-61.1	6.7
2026-01-22 10:39:42.856655	105.5	37.4	-62.2	6.1
2026-01-22 10:39:45.100667	104.7	37.8	-61.7	6.1
2026-01-22 10:39:47.343687	104.0	38.1	-61.1	5.5
2026-01-22 10:39:49.588194	103.2	38.5	-62.3	6.5
2026-01-22 10:39:51.832206	102.5	38.9	-63.4	8.7
2026-01-22 10:39:54.076217	101.7	39.2	-63.0	6.8
2026-01-22 10:39:56.320723	100.9	39.6	-62.6	8.3
2026-01-22 10:39:58.563742	100.0	39.9	-62.1	5.4
2026-01-22 10:40:00.809770	99.2	40.3	-62.5	6.1
2026-01-22 10:40:03.055277	98.3	40.7	-63.4	8.4
2026-01-22 10:40:05.299288	97.4	41.0	-64.3	8.8
2026-01-22 10:40:07.543308	96.5	41.3	-63.4	8.3
2026-01-22 10:40:09.787319	95.6	41.7	-62.7	7.0
2026-01-22 10:40:12.029844	94.7	42.0	-62.2	7.0
2026-01-22 10:40:14.273359	93.7	42.3	-62.2	6.7
2026-01-22 10:40:16.515877	92.7	42.7	-63.1	6.9
2026-01-22 10:40:18.758897	91.7	43.0	-63.2	7.4
2026-01-22 10:40:21.002411	90.7	43.3	-63.3	7.2
2026-01-22 10:40:23.245430	89.7	43.6	-62.7	5.5
2026-01-22 10:40:25.489441	88.6	43.9	-63.1	5.8
2026-01-22 10:40:27.732461	87.5	44.1	-63.5	5.4
2026-01-22 10:40:29.975480	86.4	44.4	-63.1	5.6
2026-01-22 10:40:32.220492	85.3	44.7	-62.7	5.6
2026-01-22 10:40:34.463512	84.2	44.9	-62.3	5.4
2026-01-22 10:40:36.707523	83.1	45.2	-61.2	4.5
2026-01-22 10:40:38.951038	81.9	45.4	-62.4	6.1
2026-01-22 10:40:41.194058	80.7	45.6	-61.7	3.8
2026-01-22 10:40:43.437573	79.5	45.8	-61.9	6.7
2026-01-22 10:40:45.682089	78.3	46.0	-60.0	3.0
2026-01-22 10:40:47.929616	77.1	46.2	-60.9	4.6
2026-01-22 10:40:50.173635	75.8	46.3	-61.4	3.1
2026-01-22 10:40:52.417151	74.6	46.5	-61.1	4.6
2026-01-22 10:40:54.660666	73.3	46.6	-59.8	1.0
2026-01-22 10:40:56.904677	72.0	46.7	-61.4	3.6
2026-01-22 10:40:59.148193	70.7	46.8	-62.5	4.2
2026-01-22 10:41:01.391213	69.4	46.9	-59.7	0.6
2026-01-22 10:41:03.635234	68.1	47.0	-61.4	4.7
2026-01-22 10:41:05.878253	66.8	47.0	-59.2	2.0
2026-01-22 10:41:08.120778	65.5	47.1	-59.7	2.1
2026-01-22 10:41:10.362805	64.2	47.1	-58.5	0.0
2026-01-22 10:41:12.606320	62.9	47.1	-58.7	1.4
2026-01-22 10:41:14.851332	61.6	47.1	-58.8	0.0
2026-01-22 10:41:17.095343	60.3	47.1	-58.7	0.0
2026-01-22 10:41:19.339850	59.0	47.0	-59.3	0.0
2026-01-22 10:41:21.583861	57.7	47.0	-60.2	0.6
2026-01-22 10:41:23.826384	56.4	46.9	-59.9	0.0
2026-01-22 10:41:26.069901	55.1	46.8	-60.0	0.7
2026-01-22 10:41:28.313921	53.8	46.7	-58.1	0.0
2026-01-22 10:41:30.556446	52.6	46.6	-57.8	0.0
2026-01-22 10:41:32.800457	51.3	46.4	-57.9	0.0
2026-01-22 10:41:35.046468	50.1	46.3	-58.8	0.0
2026-01-22 10:41:37.290478	48.8	46.1	-57.6	0.0
2026-01-22 10:41:39.534489	47.6	45.9	-57.7	0.0
2026-01-22 10:41:41.778004	46.4	45.7	-58.9	0.0
2026-01-22 10:41:44.021528	45.2	45.5	-58.3	0.0
2026-01-22 10:41:46.264548	44.0	45.3	-58.6	0.0
2026-01-22 10:41:48.507567	42.9	45.1	-58.5	0.0
2026-01-22 10:41:50.750586	41.7	44.8	-58.4	0.0
2026-01-22 10:41:52.994102	40.6	44.6	-59.1	0.0
2026-01-22 10:41:55.237617	39.5	44.3	-58.7	0.0
2026-01-22 10:41:57.482124	38.4	44.0	-59.7	2.2
2026-01-22 10:41:59.726144	37.3	43.8	-59.0	0.0
2026-01-22 10:42:01.970652	36.3	43.5	-59.8	1.3
2026-01-22 10:42:04.213671	35.3	43.2	-58.6	0.4
2026-01-22 10:42:06.456195	34.3	42.9	-60.8	1.1
2026-01-22 10:42:08.700702	33.3	42.5	-60.8	1.4
2026-01-22 10:42:10.944713	32.3	42.2	-60.1	0.9
2026-01-22 10:42:13.189733	31.3	41.9	-60.1	1.8
2026-01-22 10:42:15.432248	30.4	41.6	-58.7	0.0
2026-01-22 10:42:17.676258	29.5	41.2	-59.4	0.0
2026-01-22 10:42:19.918783	28.6	40.9	-59.4	0.0
2026-01-22 10:42:22.162299	27.7	40.5	-60.1	0.3
2026-01-22 10:42:24.410815	26.9	40.2	-59.2	0.8
2026-01-22 10:42:26.655331	26.0	39.8	-59.4	2.7
2026-01-22 10:42:28.899847	25.2	39.5	-58.6	0.0
2026-01-22 10:42:31.142362	24.4	39.1	-59.7	2.8
2026-01-22 10:42:33.385877	23.6	38.7	-59.6	0.3
2026-01-22 10:42:35.629888	22.9	38.4	-59.6	2.7
2026-01-22 10:42:37.873899	22.1	38.0	-61.2	2.9
2026-01-22 10:42:40.117911	21.4	37.6	-60.5	1.6
2026-01-22 10:42:42.361923	20.7	37.3	-60.3	1.5
2026-01-22 10:42:44.605438	20.0	36.9	-59.9	0.0
2026-01-22 10:42:46.848000	19.3	36.5	-60.7	1.4
2026-01-22 10:42:49.091022	18.6	36.1	-60.2	0.0
2026-01-22 10:42:51.335529	18.0	35.8	-59.5	0.9
2026-01-22 10:42:53.578559	17.4	35.4	-60.2	2.4
2026-01-22 10:42:55.822571	16.7	35.0	-59.1	0.0
2026-01-22 10:42:58.066582	16.1	34.7	-60.9	2.8
2026-01-22 10:43:00.311088	15.5	34.3	-60.4	2.8
2026-01-22 10:43:02.555604	14.9	33.9	-60.6	2.2
2026-01-22 10:43:04.799615	14.4	33.6	-60.2	1.1
2026-01-22 10:43:07.042140	13.8	33.2	-59.5	0.6
2026-01-22 10:43:09.288152	13.3	32.8	-60.8	2.5
2026-01-22 10:43:11.531667	12.8	32.5	-59.7	0.0
2026-01-22 10:43:13.774687	12.2	32.1	-60.8	2.4
2026-01-22 10:43:16.018698	11.7	31.7	-59.7	0.1
2026-01-22 10:43:18.262709	11.2	31.4	-60.2	1.6
2026-01-22 10:43:20.506720	10.8	31.0	-60.1	1.3
2026-01-22 10:43:22.750236	10.3	30.7	-60.9	3.6
2026-01-22 10:43:24.993255	9.8	30.3	-58.9	0.1
2026-01-22 10:43:27.236771	9.4	30.0	-59.8	2.6
2026-01-22 10:43:29.480784	8.9	29.6	-58.7	0.0
2026-01-22 10:43:31.724298	8.5	29.3	-59.9	0.9
2026-01-22 10:43:33.966822	8.1	28.9	-60.5	2.2
2026-01-22 10:43:36.210833	7.6	28.6	-59.5	0.6
2026-01-22 10:43:38.453852	7.2	28.3	-58.7	0.0
2026-01-22 10:43:40.697367	6.8	27.9	-58.3	0.6
2026-01-22 10:43:42.942884	6.5	27.6	-59.5	0.8
2026-01-22 10:43:45.187391	6.1	27.3	-59.2	0.0
2026-01-22 10:43:47.430420	5.7	26.9	-60.3	3.7
2026-01-22 10:43:49.673935	5.3	26.6	-59.8	2.3
2026-01-22 10:43:51.918452	5.0	26.3	-59.6	2.1
2026-01-22 10:43:54.160967	4.6	26.0	-60.7	3.2
2026-01-22 10:43:56.404978	4.3	25.6	-60.0	2.2
2026-01-22 10:43:58.651486	3.9	25.3	-59.3	0.9
2026-01-22 10:44:00.895497	3.6	25.0	-60.1	1.1
2026-01-22 10:44:03.139507	3.3	24.7	-60.6	1.4
2026-01-22 10:44:05.382527	3.0	24.4	-61.9	3.9
2026-01-22 10:44:07.625547	2.7	24.1	-60.8	3.0
2026-01-22 10:44:09.869557	2.4	23.8	-60.5	2.3
2026-01-22 10:44:12.113072	2.1	23.5	-60.7	2.6
2026-01-22 10:44:14.355597	1.8	23.2	-61.8	5.9
2026-01-22 10:44:16.600104	1.5	22.9	-61.9	3.8
2026-01-22 10:44:18.844115	1.2	22.6	-60.5	2.7
2026-01-22 10:44:21.088135	0.9	22.3	-60.2	1.3
2026-01-22 10:44:23.332146	0.7	22.0	-60.8	3.7
2026-01-22 10:44:25.575663	0.4	21.8	-59.7	0.4
2026-01-22 10:44:27.819683	0.1	21.5	-59.8	0.8
2026-01-22 10:44:30.063197	359.9	21.2	-59.3	0.0
2026-01-22 10:44:32.307705	359.6	20.9	-61.1	4.2
2026-01-22 10:44:34.550228	359.4	20.7	-59.5	0.6
2026-01-22 10:44:36.794743	359.1	20.4	-60.4	2.1
2026-01-22 10:44:39.041251	358.9	20.1	-61.3	2.9
2026-01-22 10:44:41.285262	358.7	19.8	-61.0	2.2
2026-01-22 10:44:43.527778	358.4	19.6	-61.1	0.4
2026-01-22 10:44:45.771790	358.2	19.3	-60.4	1.5
2026-01-22 10:44:48.017304	358.0	19.1	-62.1	3.4
2026-01-22 10:44:50.259829	357.8	18.8	-61.7	5.0
2026-01-22 10:44:52.503840	357.5	18.5	-60.6	0.0
2026-01-22 10:44:54.746858	357.3	18.3	-62.0	3.6
2026-01-22 10:44:56.991374	357.1	18.0	-62.3	2.4
2026-01-22 10:44:59.234393	356.9	17.8	-62.4	3.8
2026-01-22 10:45:01.477908	356.7	17.6	-61.6	3.5
2026-01-22 10:45:03.719430	356.5	17.3	-61.7	3.7
2026-01-22 10:45:05.964442	356.3	17.1	-62.7	5.1
2026-01-22 10:45:08.209453	356.1	16.8	-60.6	0.9
2026-01-22 10:45:10.452969	356.0	16.6	-61.3	0.3
2026-01-22 10:45:12.696980	355.8	16.3	-61.7	1.8
2026-01-22 10:45:14.940992	355.6	16.1	-61.2	0.0
2026-01-22 10:45:17.185003	355.4	15.9	-61.6	0.0
2026-01-22 10:45:19.428024	355.2	15.7	-61.4	1.4
2026-01-22 10:45:21.671539	355.1	15.4	-61.0	1.7
2026-01-22 10:45:23.914063	354.9	15.2	-61.6	0.0
2026-01-22 10:45:26.158081	354.7	15.0	-61.6	0.8
2026-01-22 10:45:28.401596	354.6	14.8	-60.2	1.0
2026-01-22 10:45:30.645607	354.4	14.5	-61.9	2.7
2026-01-22 10:45:32.888625	354.2	14.3	-61.0	1.9
2026-01-22 10:45:35.132142	354.1	14.1	-61.7	0.2
2026-01-22 10:45:37.377161	353.9	13.9	-62.6	2.6
2026-01-22 10:45:39.626678	353.8	13.7	-60.8	0.0
2026-01-22 10:45:41.869698	353.6	13.4	-60.9	0.8
2026-01-22 10:45:44.114225	353.5	13.2	-61.8	1.9
2026-01-22 10:45:46.357244	353.3	13.0	-62.4	1.9
2026-01-22 10:45:48.602256	353.2	12.8	-61.6	0.0
2026-01-22 10:45:50.846772	353.1	12.6	-61.5	0.3
2026-01-22 10:45:53.091792	352.9	12.4	-61.0	2.9
2026-01-22 10:45:55.336803	352.8	12.2	-60.2	1.0
2026-01-22 10:45:57.579824	352.6	12.0	-60.8	1.8
2026-01-22 10:45:59.823340	352.5	11.8	-62.4	4.0
2026-01-22 10:46:02.066857	352.4	11.6	-61.4	1.1
2026-01-22 10:46:04.310373	352.3	11.4	-61.9	0.0
2026-01-22 10:46:06.554384	352.1	11.2	-62.3	0.0
2026-01-22 10:46:08.797900	352.0	11.0	-61.8	0.0
2026-01-22 10:46:11.041911	351.9	10.8	-62.0	0.0
2026-01-22 10:46:13.285427	351.8	10.6	-62.1	0.0
2026-01-22 10:46:15.529438	351.6	10.4	-61.6	0.0
2026-01-22 10:46:17.773954	351.5	10.3	-61.1	0.0
2026-01-22 10:46:20.016977	351.4	10.1	-60.6	0.0
2026-01-22 10:46:22.260988	351.3	9.9	-61.6	0.0
2026-01-22 10:46:24.504511	351.2	9.7	-62.7	0.0
2026-01-22 10:46:26.751019	351.1	9.5	-61.6	0.0
2026-01-22 10:46:28.995038	350.9	9.3	-61.9	0.0
2026-01-22 10:46:31.239554	350.8	9.2	-63.1	0.0
2026-01-22 10:46:33.485079	350.7	9.0	-61.9	0.0
2026-01-22 10:46:35.728097	350.6	8.8	-63.3	0.0
2026-01-22 10:46:37.971613	350.5	8.6	-61.5	0.0
2026-01-22 10:46:40.214137	350.4	8.4	-62.4	0.0
2026-01-22 10:46:42.458149	350.3	8.3	-63.1	0.0
2026-01-22 10:46:44.701170	350.2	8.1	-62.7	0.0
2026-01-22 10:46:46.944685	350.1	7.9	-63.4	0.0
2026-01-22 10:46:49.188201	350.0	7.7	-63.0	0.0
2026-01-22 10:46:51.432213	349.9	7.6	-61.4	0.0
2026-01-22 10:46:53.676224	349.8	7.4	-62.0	0.0
2026-01-22 10:46:55.920244	349.7	7.2	-61.6	0.0
2026-01-22 10:46:58.163773	349.6	7.1	-62.6	0.0
2026-01-22 10:47:00.408793	349.5	6.9	-62.5	0.0
2026-01-22 10:47:02.652804	349.4	6.7	-63.2	0.0
2026-01-22 10:47:04.897310	349.4	6.6	-62.6	0.0
2026-01-22 10:47:07.140826	349.3	6.4	-63.5	0.0
2026-01-22 10:47:09.385342	349.2	6.2	-61.8	0.0
2026-01-22 10:47:11.629353	349.1	6.1	-63.7	0.0
2026-01-22 10:47:13.870884	349.0	5.9	-65.7	0.0
2026-01-22 10:47:16.113408	348.9	5.8	-65.6	0.0
2026-01-22 10:47:18.356426	348.8	5.6	-67.3	0.0
2026-01-22 10:47:20.599446	348.8	5.4	-66.9	0.0
2026-01-22 10:47:22.841475	348.7	5.3	-68.2	0.0
2026-01-22 10:47:25.085487	348.6	5.1	-70.1	0.0
2026-01-22 10:47:27.329993	348.5	5.0	-69.7	0.0
#Closed at: 2026-01-22 10:34:54.345121