passes_logs/2026/01/22/PlanumMoscow/PlanumMoscow__20260122_073129_METOP-C_rec.log

#Pass ID: 20260122_073129_METOP-C
#Satellite: METOP-C
#Configuration: METOP-C
#Start time: 2026-01-22 07:31:34.299958

#LorettStation: 1.0.0 05.05.2024
#Station: PlanumMoscow
#Location: 37.6253844 lon 55.6713361 lat
#TLE: 1 43689U 18087A   25293.88981035  .00000265  00000+0  14109-3 0  9997
#TLE: 2 43689  98.7006 352.4487 0002041 122.1097 238.0279 14.21482740360838

#Time	Az	El	Level	SNR
2026-01-22 07:35:12.734515	25.0	29.0	-63.2	0.0
2026-01-22 07:35:14.978526	25.2	29.4	-64.2	0.0
2026-01-22 07:35:17.222052	25.3	29.8	-63.8	0.0
2026-01-22 07:35:19.465568	25.5	30.2	-64.1	0.0
2026-01-22 07:35:21.708094	25.7	30.6	-64.4	0.0
2026-01-22 07:35:23.950618	25.8	31.1	-64.3	0.0
2026-01-22 07:35:26.194143	26.0	31.5	-65.0	0.0
2026-01-22 07:35:28.439155	26.2	31.9	-63.7	0.0
2026-01-22 07:35:30.682184	26.4	32.4	-64.1	0.0
2026-01-22 07:35:32.924709	26.6	32.9	-64.5	0.0
2026-01-22 07:35:35.168225	26.8	33.3	-63.9	0.0
2026-01-22 07:35:37.410749	27.0	33.8	-64.2	0.0
2026-01-22 07:35:39.653771	27.2	34.3	-63.1	0.0
2026-01-22 07:35:41.897782	27.4	34.8	-62.2	0.0
2026-01-22 07:35:44.141793	27.6	35.2	-64.0	0.0
2026-01-22 07:35:46.384319	27.8	35.7	-63.6	0.0
2026-01-22 07:35:48.626846	28.0	36.3	-63.1	0.0
2026-01-22 07:35:50.870857	28.3	36.8	-62.5	0.0
2026-01-22 07:35:53.114373	28.5	37.3	-63.3	0.0
2026-01-22 07:35:55.358399	28.8	37.8	-60.7	0.0
2026-01-22 07:35:57.601419	29.0	38.4	-63.2	0.0
2026-01-22 07:35:59.844439	29.3	38.9	-62.5	0.0
2026-01-22 07:36:02.087956	29.6	39.5	-61.4	0.0
2026-01-22 07:36:04.337978	29.9	40.0	-62.0	0.0
2026-01-22 07:36:06.580998	30.2	40.6	-61.7	0.0
2026-01-22 07:36:08.824019	30.5	41.2	-62.9	0.0
2026-01-22 07:36:11.069031	30.8	41.8	-62.6	0.0
2026-01-22 07:36:13.312547	31.1	42.4	-61.5	0.0
2026-01-22 07:36:15.557055	31.5	43.0	-62.7	0.0
2026-01-22 07:36:17.801066	31.8	43.6	-61.6	0.0
2026-01-22 07:36:20.044591	32.2	44.2	-61.8	0.0
2026-01-22 07:36:22.288106	32.6	44.9	-59.3	0.0
2026-01-22 07:36:24.532118	33.0	45.5	-61.5	0.0
2026-01-22 07:36:26.781644	33.4	46.2	-62.6	0.0
2026-01-22 07:36:29.025159	33.8	46.8	-59.9	0.0
2026-01-22 07:36:31.268676	34.3	47.5	-60.1	0.0
2026-01-22 07:36:33.511202	34.7	48.2	-59.0	0.0
2026-01-22 07:36:35.754718	35.2	48.9	-58.4	0.0
2026-01-22 07:36:37.997241	35.7	49.6	-59.5	0.0
2026-01-22 07:36:40.241758	36.3	50.3	-60.3	0.0
2026-01-22 07:36:42.487282	36.8	51.0	-59.6	0.0
2026-01-22 07:36:44.730799	37.4	51.7	-62.1	0.0
2026-01-22 07:36:46.974810	38.0	52.4	-61.6	0.0
2026-01-22 07:36:49.218830	38.7	53.2	-61.3	0.0
2026-01-22 07:36:51.462841	39.4	53.9	-62.3	0.0
2026-01-22 07:36:53.707357	40.1	54.7	-63.2	0.0
2026-01-22 07:36:55.949882	40.9	55.4	-62.7	0.0
2026-01-22 07:36:58.199389	41.7	56.2	-62.0	0.0
2026-01-22 07:37:00.443401	42.5	57.0	-62.7	0.0
2026-01-22 07:37:02.686918	43.4	57.7	-62.8	0.0
2026-01-22 07:37:04.930445	44.3	58.5	-62.6	0.0
2026-01-22 07:37:07.175456	45.3	59.3	-63.1	0.0
2026-01-22 07:37:09.419468	46.4	60.1	-64.1	0.0
2026-01-22 07:37:11.661001	47.5	60.9	-64.6	0.0
2026-01-22 07:37:13.905012	48.7	61.6	-64.3	0.0
2026-01-22 07:37:16.150024	50.0	62.4	-64.8	0.0
2026-01-22 07:37:18.393540	51.4	63.2	-65.3	0.0
2026-01-22 07:37:20.644562	52.8	64.0	-65.2	0.0
2026-01-22 07:37:22.886591	54.4	64.7	-64.9	0.0
2026-01-22 07:37:25.131098	56.1	65.5	-64.8	0.0
2026-01-22 07:37:27.377120	57.8	66.2	-65.5	0.0
2026-01-22 07:37:29.621142	59.7	66.9	-65.5	0.0
2026-01-22 07:37:31.863666	61.8	67.6	-65.2	0.0
2026-01-22 07:37:34.107191	63.9	68.3	-64.9	0.0
2026-01-22 07:37:36.351707	66.3	69.0	-64.1	0.0
2026-01-22 07:37:38.595719	68.8	69.6	-65.4	0.0
2026-01-22 07:37:40.839236	71.4	70.2	-65.8	0.0
2026-01-22 07:37:43.082753	74.2	70.8	-65.3	0.0
2026-01-22 07:37:45.327260	77.2	71.3	-65.1	0.0
2026-01-22 07:37:47.571271	80.4	71.8	-64.9	0.0
2026-01-22 07:37:49.814291	83.7	72.2	-65.8	0.0
2026-01-22 07:37:52.058311	87.2	72.5	-66.6	0.0
2026-01-22 07:37:54.302322	90.8	72.8	-66.8	0.0
2026-01-22 07:37:56.546839	94.6	73.0	-66.6	0.0
2026-01-22 07:37:58.795851	98.4	73.2	-67.1	0.0
2026-01-22 07:38:01.037882	102.3	73.3	-67.8	0.0
2026-01-22 07:38:03.280407	106.2	73.3	-68.4	0.0
2026-01-22 07:38:05.523436	110.1	73.2	-67.3	0.0
2026-01-22 07:38:07.768964	113.9	73.1	-68.2	0.0
2026-01-22 07:38:10.012975	117.7	72.9	-67.9	0.0
2026-01-22 07:38:12.255996	121.3	72.6	-68.6	0.0
2026-01-22 07:38:14.498520	124.9	72.3	-69.2	0.0
2026-01-22 07:38:16.742035	128.2	71.9	-69.1	0.0
2026-01-22 07:38:18.985057	131.4	71.4	-68.4	0.0
2026-01-22 07:38:21.229563	134.5	70.9	-69.8	0.0
2026-01-22 07:38:23.473593	137.4	70.4	-69.4	0.0
2026-01-22 07:38:25.716613	140.0	69.8	-70.2	0.0
2026-01-22 07:38:27.959634	142.6	69.2	-69.5	0.0
2026-01-22 07:38:30.208151	145.0	68.5	-70.0	0.0
2026-01-22 07:38:32.452172	147.2	67.8	-69.5	0.0
2026-01-22 07:38:34.697183	149.2	67.1	-69.6	0.0
2026-01-22 07:38:36.940698	151.2	66.4	-70.1	0.0
2026-01-22 07:38:39.184709	153.0	65.7	-69.9	0.0
2026-01-22 07:38:41.428721	154.7	64.9	-70.2	0.0
2026-01-22 07:38:43.673733	156.3	64.1	-70.9	0.0
2026-01-22 07:38:45.917248	157.7	63.4	-70.2	0.0
2026-01-22 07:38:48.160763	159.1	62.6	-70.2	0.0
2026-01-22 07:38:50.404774	160.4	61.8	-69.8	0.0
2026-01-22 07:38:52.648290	161.7	61.0	-70.2	0.0
2026-01-22 07:38:54.892302	162.8	60.2	-70.7	0.0
2026-01-22 07:38:57.136312	163.9	59.5	-69.8	0.0
2026-01-22 07:38:59.380819	164.9	58.7	-70.9	0.0
2026-01-22 07:39:01.624335	165.9	57.9	-70.1	0.0
2026-01-22 07:39:03.867356	166.8	57.1	-69.8	0.0
2026-01-22 07:39:06.111863	167.6	56.3	-70.0	0.0
2026-01-22 07:39:08.357883	168.4	55.6	-70.5	0.0
2026-01-22 07:39:10.599913	169.2	54.8	-70.4	0.0
2026-01-22 07:39:12.843924	169.9	54.1	-71.0	0.0
2026-01-22 07:39:15.087936	170.6	53.3	-70.6	0.0
2026-01-22 07:39:17.331947	171.3	52.6	-70.9	0.0
2026-01-22 07:39:19.573974	171.9	51.8	-70.0	0.0
2026-01-22 07:39:21.816994	172.5	51.1	-70.5	0.0
2026-01-22 07:39:24.059518	173.1	50.4	-70.0	0.0
2026-01-22 07:39:26.304025	173.6	49.7	-69.6	0.0
2026-01-22 07:39:28.548532	174.2	49.0	-70.0	0.0
2026-01-22 07:39:30.792047	174.6	48.3	-70.1	0.0
2026-01-22 07:39:33.035068	175.1	47.6	-69.6	0.0
2026-01-22 07:39:35.278583	175.6	46.9	-69.7	0.0
2026-01-22 07:39:37.522098	176.0	46.2	-68.7	0.0
2026-01-22 07:39:39.764623	176.4	45.6	-70.0	0.0
2026-01-22 07:39:42.008634	176.8	44.9	-68.8	0.0
2026-01-22 07:39:44.252149	177.2	44.3	-69.7	0.0
2026-01-22 07:39:46.495179	177.6	43.7	-68.5	0.0
2026-01-22 07:39:48.739200	178.0	43.0	-68.9	0.0
2026-01-22 07:39:50.983716	178.3	42.4	-68.8	0.0
2026-01-22 07:39:53.227233	178.6	41.8	-69.1	0.0
2026-01-22 07:39:55.469264	178.9	41.2	-68.4	0.0
2026-01-22 07:39:57.713275	179.3	40.6	-68.5	0.0
2026-01-22 07:39:59.956296	179.6	40.1	-68.0	0.0
2026-01-22 07:40:02.196307	179.8	39.5	-68.7	0.0
2026-01-22 07:40:04.434316	180.1	38.9	-68.1	0.0
2026-01-22 07:40:06.673335	180.4	38.4	-68.5	0.0
2026-01-22 07:40:08.913346	180.7	37.8	-68.5	0.0
2026-01-22 07:40:11.154356	180.9	37.3	-66.3	0.0
2026-01-22 07:40:13.396377	181.2	36.8	-68.7	0.0
2026-01-22 07:40:15.639388	181.4	36.3	-67.7	0.0
2026-01-22 07:40:17.883895	181.6	35.7	-66.8	0.0
2026-01-22 07:40:20.127401	181.8	35.2	-66.7	0.0
2026-01-22 07:40:22.368926	182.1	34.7	-67.3	0.0
2026-01-22 07:40:24.612432	182.3	34.3	-66.9	0.0
2026-01-22 07:40:26.855948	182.5	33.8	-66.5	0.0
2026-01-22 07:40:29.099464	182.7	33.3	-65.9	0.0
2026-01-22 07:40:31.342980	182.9	32.8	-65.8	0.0
2026-01-22 07:40:33.588992	183.1	32.4	-65.4	0.0
2026-01-22 07:40:35.833013	183.2	31.9	-66.6	0.0
2026-01-22 07:40:38.077519	183.4	31.5	-66.8	0.0
2026-01-22 07:40:40.322540	183.6	31.0	-66.4	0.0
2026-01-22 07:40:42.567055	183.8	30.6	-65.2	0.0
2026-01-22 07:40:44.805065	183.9	30.2	-67.1	0.0
2026-01-22 07:40:47.047086	184.1	29.7	-66.7	0.0
2026-01-22 07:40:49.291611	184.2	29.3	-67.0	0.0
2026-01-22 07:40:51.534127	184.4	28.9	-63.3	0.0
2026-01-22 07:40:53.773146	184.5	28.5	-66.8	0.0
2026-01-22 07:40:56.016167	184.7	28.1	-66.0	0.0
2026-01-22 07:40:58.257673	184.8	27.7	-66.4	0.0
2026-01-22 07:41:00.498197	185.0	27.3	-65.3	0.0
2026-01-22 07:41:02.739704	185.1	26.9	-67.6	0.0
2026-01-22 07:41:04.984715	185.2	26.5	-64.1	0.0
2026-01-22 07:41:07.225745	185.4	26.2	-67.2	0.0
2026-01-22 07:41:09.467270	185.5	25.8	-66.0	0.0
2026-01-22 07:41:11.706289	185.6	25.4	-66.3	0.0
2026-01-22 07:41:13.949300	185.7	25.1	-67.1	0.0
2026-01-22 07:41:16.193311	185.9	24.7	-65.7	0.0
2026-01-22 07:41:18.434321	186.0	24.4	-64.8	0.0
2026-01-22 07:41:20.675827	186.1	24.0	-64.9	0.0
2026-01-22 07:41:22.917838	186.2	23.7	-66.8	0.0
2026-01-22 07:41:25.156857	186.3	23.4	-66.7	0.0
2026-01-22 07:41:27.400373	186.4	23.0	-64.2	0.0
2026-01-22 07:41:29.643385	186.5	22.7	-66.0	0.0
2026-01-22 07:41:31.884395	186.6	22.4	-65.6	0.0
2026-01-22 07:41:34.125909	186.7	22.1	-63.3	0.0
2026-01-22 07:41:36.363424	186.8	21.7	-61.1	0.0
2026-01-22 07:41:38.603444	186.9	21.4	-64.3	0.0
2026-01-22 07:41:40.844475	187.0	21.1	-64.5	0.0
2026-01-22 07:41:43.082980	187.1	20.8	-62.8	0.0
2026-01-22 07:41:45.326001	187.2	20.5	-66.4	0.0
2026-01-22 07:41:47.564010	187.3	20.2	-65.7	0.0
2026-01-22 07:41:49.802021	187.4	19.9	-64.6	0.0
2026-01-22 07:41:52.049539	187.5	19.6	-66.9	0.0
2026-01-22 07:41:54.293056	187.6	19.4	-63.7	0.0
2026-01-22 07:41:56.530074	187.7	19.1	-65.7	0.0
2026-01-22 07:41:58.773590	187.7	18.8	-66.4	0.0
2026-01-22 07:42:01.019603	187.8	18.5	-65.6	0.0
2026-01-22 07:42:03.264110	187.9	18.2	-66.4	0.0
2026-01-22 07:42:05.507130	188.0	18.0	-65.3	0.0
2026-01-22 07:42:07.756142	188.1	17.7	-65.4	0.0
2026-01-22 07:42:10.000658	188.1	17.4	-65.4	0.0
2026-01-22 07:42:12.244174	188.2	17.2	-65.4	0.0
2026-01-22 07:42:14.492195	188.3	16.9	-65.3	0.0
2026-01-22 07:42:16.735215	188.4	16.6	-65.8	0.0
2026-01-22 07:42:18.972234	188.4	16.4	-65.9	0.0
2026-01-22 07:42:21.207756	188.5	16.1	-65.4	0.0
2026-01-22 07:42:23.455777	188.6	15.9	-62.5	0.0
2026-01-22 07:42:25.694292	188.6	15.6	-65.8	0.0
2026-01-22 07:42:27.929310	188.7	15.4	-65.6	0.0
2026-01-22 07:42:30.169824	188.8	15.2	-63.6	0.0
2026-01-22 07:42:32.410349	188.8	14.9	-65.2	0.0
2026-01-22 07:42:34.647368	188.9	14.7	-61.2	0.0
2026-01-22 07:42:36.885883	189.0	14.4	-65.1	0.0
2026-01-22 07:42:39.125893	189.0	14.2	-65.5	0.0
2026-01-22 07:42:41.362912	189.1	14.0	-61.2	0.0
2026-01-22 07:42:43.602427	189.2	13.8	-65.1	0.0
2026-01-22 07:42:45.844447	189.2	13.5	-61.9	0.0
2026-01-22 07:42:48.084457	189.3	13.3	-64.0	0.0
2026-01-22 07:42:50.325468	189.3	13.1	-62.4	0.0
2026-01-22 07:42:52.566478	189.4	12.9	-64.2	0.0
2026-01-22 07:42:54.806507	189.5	12.6	-62.1	0.0
2026-01-22 07:42:57.050015	189.5	12.4	-63.0	0.0
2026-01-22 07:42:59.292521	189.6	12.2	-61.0	0.0
2026-01-22 07:43:01.532540	189.6	12.0	-62.1	0.0
2026-01-22 07:43:03.782057	189.7	11.8	-62.1	0.0
2026-01-22 07:43:06.026563	189.7	11.6	-60.4	0.0
2026-01-22 07:43:08.270079	189.8	11.4	-62.2	0.0
2026-01-22 07:43:10.514594	189.8	11.2	-61.4	0.0
2026-01-22 07:43:12.756110	189.9	11.0	-63.3	0.4
2026-01-22 07:43:14.998120	189.9	10.8	-63.5	0.0
2026-01-22 07:43:17.244150	190.0	10.6	-59.4	0.0
2026-01-22 07:43:19.485665	190.0	10.4	-62.6	0.0
2026-01-22 07:43:21.725676	190.1	10.2	-62.0	0.0
2026-01-22 07:43:23.964687	190.1	10.0	-62.5	0.0
2026-01-22 07:43:26.207707	190.2	9.8	-62.2	0.0
2026-01-22 07:43:28.445727	190.2	9.6	-62.1	0.0
2026-01-22 07:43:30.686747	190.3	9.4	-61.9	0.0
2026-01-22 07:43:32.932265	190.3	9.2	-61.6	0.0
2026-01-22 07:43:35.173807	190.4	9.0	-62.5	0.0
2026-01-22 07:43:37.418314	190.4	8.8	-62.3	0.0
2026-01-22 07:43:39.660354	190.5	8.6	-60.4	0.0
2026-01-22 07:43:41.904365	190.5	8.5	-59.8	0.0
2026-01-22 07:43:44.148376	190.6	8.3	-61.7	0.0
2026-01-22 07:43:46.391388	190.6	8.1	-61.6	0.0
2026-01-22 07:43:48.637400	190.6	7.9	-62.3	0.0
2026-01-22 07:43:50.878411	190.7	7.7	-61.8	0.0
2026-01-22 07:43:53.120927	190.7	7.5	-62.0	0.0
2026-01-22 07:43:55.362452	190.8	7.4	-58.3	0.0
2026-01-22 07:43:57.603462	190.8	7.2	-59.2	0.0
2026-01-22 07:43:59.842978	190.9	7.0	-58.0	0.0
2026-01-22 07:44:02.084999	190.9	6.8	-58.6	0.0
2026-01-22 07:44:04.328010	190.9	6.7	-60.5	0.0
2026-01-22 07:44:06.571021	191.0	6.5	-58.3	0.0
2026-01-22 07:44:08.809545	191.0	6.3	-62.3	0.0
2026-01-22 07:44:11.052557	191.1	6.2	-60.9	0.0
2026-01-22 07:44:13.294567	191.1	6.0	-60.6	0.0
2026-01-22 07:44:15.535578	191.1	5.8	-65.1	1.7
2026-01-22 07:44:17.775084	191.2	5.7	-69.7	0.0
2026-01-22 07:44:20.016105	191.2	5.5	-70.3	0.0
2026-01-22 07:44:22.250610	191.2	5.3	-68.4	0.0
2026-01-22 07:44:24.489619	191.3	5.2	-69.3	0.0
2026-01-22 07:44:26.728630	191.3	5.0	-69.9	0.0
#Closed at: 2026-01-22 07:31:29.301569