passes_logs/2025/01/14/SPB_Silybum_02/SPB_Silybum_02__20250114_223251_SUOMI_NPP_rec.log

#Pass ID: 20250114_223251_SUOMI NPP
#Satellite: SUOMI NPP
#Configuration: NPP
#Start time: 2025-01-14 22:32:51

#Version: 2.0.20230423
#Station: SPB_Silybum_02
#Location: 30.233357 lon 59.946436 lat
#TLE: 1 37849U 11061A   25014.14453206  .00000163  00000+0  98177-4 0  9992
#TLE: 2 37849  98.7445 315.1439 0001716  42.3577 317.7731 14.19537774684790

#Time	Az	El	Level	Level2	SNR	BER	Gain	Gain2
2025-01-14 22:32:53.29	27.04	4.10	
2025-01-14 22:32:54.52	27.14	4.16	
2025-01-14 22:32:55.75	27.25	4.23	
2025-01-14 22:32:56.98	27.35	4.30	
2025-01-14 22:32:58.22	27.46	4.37	
2025-01-14 22:32:59.45	27.57	4.44	
2025-01-14 22:33:00.69	27.68	4.51	
2025-01-14 22:33:01.92	27.78	4.58	
2025-01-14 22:33:03.15	27.89	4.65	
2025-01-14 22:33:04.38	28.00	4.72	
2025-01-14 22:33:05.61	28.11	4.79	
2025-01-14 22:33:06.85	28.22	4.86	
2025-01-14 22:33:08.08	28.33	4.93	
2025-01-14 22:33:09.31	28.44	5.00	
2025-01-14 22:33:10.54	28.55	5.07	
2025-01-14 22:33:11.77	28.66	5.14	
2025-01-14 22:33:13.00	28.77	5.21	
2025-01-14 22:33:14.23	28.89	5.28	
2025-01-14 22:33:15.46	29.00	5.35	
2025-01-14 22:33:16.71	29.12	5.42	
2025-01-14 22:33:17.94	29.23	5.49	
2025-01-14 22:33:19.17	29.34	5.57	
2025-01-14 22:33:20.40	29.46	5.64	
2025-01-14 22:33:21.63	29.58	5.71	
2025-01-14 22:33:22.86	29.69	5.78	
2025-01-14 22:33:24.09	29.81	5.85	
2025-01-14 22:33:25.32	29.93	5.92	
2025-01-14 22:33:26.56	30.04	5.99	
2025-01-14 22:33:27.79	30.16	6.06	
2025-01-14 22:33:29.03	30.28	6.14	
2025-01-14 22:33:30.26	30.40	6.21	
2025-01-14 22:33:31.49	30.52	6.28	
2025-01-14 22:33:32.72	30.64	6.35	
2025-01-14 22:33:33.95	30.76	6.42	
2025-01-14 22:33:35.20	30.89	6.50	
2025-01-14 22:33:36.43	31.01	6.57	
2025-01-14 22:33:37.66	31.13	6.64	
2025-01-14 22:33:38.89	31.26	6.71	
2025-01-14 22:33:40.13	31.38	6.79	
2025-01-14 22:33:41.36	31.51	6.86	
2025-01-14 22:33:42.59	31.63	6.93	
2025-01-14 22:33:43.83	31.76	7.01	
2025-01-14 22:33:45.06	31.88	7.08	
2025-01-14 22:33:46.29	32.01	7.15	
2025-01-14 22:33:47.51	32.14	7.23	
2025-01-14 22:33:48.74	32.27	7.30	
2025-01-14 22:33:49.97	32.40	7.37	
2025-01-14 22:33:51.21	32.53	7.45	
2025-01-14 22:33:52.44	32.66	7.52	
2025-01-14 22:33:53.67	32.79	7.59	
2025-01-14 22:33:54.92	32.92	7.67	
2025-01-14 22:33:56.17	33.06	7.74	
2025-01-14 22:33:57.39	33.19	7.82	
2025-01-14 22:33:58.64	33.32	7.89	
2025-01-14 22:33:59.88	33.46	7.97	
2025-01-14 22:34:01.12	33.59	8.04	
2025-01-14 22:34:02.35	33.73	8.11	
2025-01-14 22:34:03.59	33.87	8.19	
2025-01-14 22:34:04.82	34.00	8.26	
2025-01-14 22:34:06.05	34.14	8.34	
2025-01-14 22:34:07.30	34.28	8.41	
2025-01-14 22:34:08.53	34.42	8.49	
2025-01-14 22:34:09.78	34.56	8.56	
2025-01-14 22:34:11.01	34.70	8.64	
2025-01-14 22:34:12.24	34.84	8.71	
2025-01-14 22:34:13.47	34.98	8.79	
2025-01-14 22:34:14.70	35.13	8.86	
2025-01-14 22:34:15.94	35.27	8.94	
2025-01-14 22:34:17.17	35.41	9.02	
2025-01-14 22:34:18.40	35.56	9.09	
2025-01-14 22:34:19.63	35.70	9.17	
2025-01-14 22:34:20.86	35.85	9.24	
2025-01-14 22:34:22.10	36.00	9.32	
2025-01-14 22:34:23.35	36.15	9.39	
2025-01-14 22:34:24.60	36.30	9.47	
2025-01-14 22:34:25.83	36.44	9.55	
2025-01-14 22:34:27.06	36.59	9.62	
2025-01-14 22:34:28.29	36.74	9.70	
2025-01-14 22:34:29.52	36.89	9.77	
2025-01-14 22:34:30.76	37.05	9.85	
2025-01-14 22:34:31.99	37.20	9.93	
2025-01-14 22:34:33.21	37.35	10.00	
2025-01-14 22:34:34.44	37.51	10.08	
2025-01-14 22:34:35.67	37.66	10.15	
2025-01-14 22:34:36.90	37.82	10.23	
2025-01-14 22:34:38.13	37.97	10.31	
2025-01-14 22:34:39.37	38.13	10.38	
2025-01-14 22:34:40.61	38.29	10.46	
2025-01-14 22:34:41.84	38.45	10.54	
2025-01-14 22:34:43.07	38.61	10.61	
2025-01-14 22:34:44.30	38.77	10.69	
2025-01-14 22:34:45.53	38.93	10.77	
2025-01-14 22:34:46.76	39.09	10.84	
2025-01-14 22:34:48.01	39.26	10.92	
2025-01-14 22:34:49.24	39.42	11.00	
2025-01-14 22:34:50.48	39.59	11.08	
2025-01-14 22:34:51.72	39.75	11.15	
2025-01-14 22:34:52.95	39.92	11.23	
2025-01-14 22:34:54.18	40.09	11.31	
2025-01-14 22:34:55.41	40.25	11.38	
2025-01-14 22:34:56.64	40.42	11.46	
2025-01-14 22:34:57.88	40.59	11.54	
2025-01-14 22:34:59.11	40.76	11.61	
2025-01-14 22:35:00.34	40.94	11.69	
2025-01-14 22:35:01.57	41.11	11.77	
2025-01-14 22:35:02.80	41.28	11.85	
2025-01-14 22:35:04.04	41.46	11.92	
2025-01-14 22:35:05.26	41.63	12.00	
2025-01-14 22:35:06.49	41.81	12.08	
2025-01-14 22:35:07.72	41.98	12.15	
2025-01-14 22:35:08.95	42.16	12.23	
2025-01-14 22:35:10.19	42.34	12.31	
2025-01-14 22:35:11.42	42.52	12.39	
2025-01-14 22:35:12.65	42.70	12.46	
2025-01-14 22:35:13.89	42.88	12.54	
2025-01-14 22:35:15.14	43.07	12.62	
2025-01-14 22:35:16.37	43.25	12.70	
2025-01-14 22:35:17.61	43.43	12.77	
2025-01-14 22:35:18.85	43.62	12.85	
2025-01-14 22:35:20.08	43.81	12.93	
2025-01-14 22:35:21.33	44.00	13.01	
2025-01-14 22:35:22.56	44.18	13.08	
2025-01-14 22:35:23.79	44.37	13.16	
2025-01-14 22:35:25.03	44.56	13.24	
2025-01-14 22:35:26.26	44.75	13.31	
2025-01-14 22:35:27.49	44.94	13.39	
2025-01-14 22:35:28.73	45.14	13.47	
2025-01-14 22:35:29.96	45.33	13.54	
2025-01-14 22:35:31.19	45.53	13.62	
2025-01-14 22:35:32.42	45.72	13.70	
2025-01-14 22:35:33.65	45.92	13.77	
2025-01-14 22:35:34.89	46.12	13.85	
2025-01-14 22:35:36.12	46.32	13.93	
2025-01-14 22:35:37.36	46.52	14.00	
2025-01-14 22:35:38.59	46.72	14.08	
2025-01-14 22:35:39.82	46.92	14.16	
2025-01-14 22:35:41.07	47.12	14.23	
2025-01-14 22:35:42.32	47.33	14.31	
2025-01-14 22:35:43.57	47.54	14.39	
2025-01-14 22:35:44.80	47.74	14.46	
2025-01-14 22:35:46.02	47.95	14.54	
2025-01-14 22:35:47.26	48.16	14.61	
2025-01-14 22:35:48.50	48.37	14.69	
2025-01-14 22:35:49.74	48.58	14.77	
2025-01-14 22:35:50.97	48.79	14.84	
2025-01-14 22:35:52.21	49.00	14.92	
2025-01-14 22:35:53.45	49.22	14.99	
2025-01-14 22:35:54.68	49.43	15.07	
2025-01-14 22:35:55.91	49.65	15.14	
2025-01-14 22:35:57.14	49.86	15.22	
2025-01-14 22:35:58.37	50.08	15.29	
2025-01-14 22:35:59.60	50.30	15.37	
2025-01-14 22:36:00.83	50.52	15.44	
2025-01-14 22:36:02.07	50.74	15.51	
2025-01-14 22:36:03.30	50.96	15.59	
2025-01-14 22:36:04.53	51.18	15.66	
2025-01-14 22:36:05.76	51.40	15.73	
2025-01-14 22:36:06.99	51.63	15.81	
2025-01-14 22:36:08.23	51.86	15.88	
2025-01-14 22:36:09.47	52.08	15.95	
2025-01-14 22:36:10.69	52.31	16.03	
2025-01-14 22:36:11.93	52.54	16.10	
2025-01-14 22:36:13.18	52.77	16.17	
2025-01-14 22:36:14.41	53.00	16.24	
2025-01-14 22:36:15.64	53.24	16.32	
2025-01-14 22:36:16.87	53.47	16.39	
2025-01-14 22:36:18.11	53.70	16.46	
2025-01-14 22:36:19.35	53.94	16.53	
2025-01-14 22:36:20.58	54.18	16.60	
2025-01-14 22:36:21.81	54.42	16.67	
2025-01-14 22:36:23.04	54.65	16.74	
2025-01-14 22:36:24.28	54.90	16.81	
2025-01-14 22:36:25.51	55.14	16.88	
2025-01-14 22:36:26.74	55.38	16.95	
2025-01-14 22:36:27.97	55.62	17.02	
2025-01-14 22:36:29.21	55.87	17.09	
2025-01-14 22:36:30.44	56.11	17.16	
2025-01-14 22:36:31.67	56.36	17.23	
2025-01-14 22:36:32.90	56.60	17.30	
2025-01-14 22:36:34.14	56.85	17.36	
2025-01-14 22:36:35.39	57.11	17.43	
2025-01-14 22:36:36.61	57.36	17.50	
2025-01-14 22:36:37.84	57.61	17.57	
2025-01-14 22:36:39.07	57.86	17.63	
2025-01-14 22:36:40.30	58.11	17.70	
2025-01-14 22:36:41.54	58.37	17.76	
2025-01-14 22:36:42.79	58.63	17.83	
2025-01-14 22:36:44.02	58.89	17.89	
2025-01-14 22:36:45.25	59.15	17.96	
2025-01-14 22:36:46.49	59.41	18.02	
2025-01-14 22:36:47.71	59.66	18.09	
2025-01-14 22:36:48.95	59.93	18.15	
2025-01-14 22:36:50.18	60.19	18.21	
2025-01-14 22:36:51.41	60.45	18.27	
2025-01-14 22:36:52.64	60.72	18.34	
2025-01-14 22:36:53.87	60.98	18.40	
2025-01-14 22:36:55.10	61.25	18.46	
2025-01-14 22:36:56.33	61.52	18.52	
2025-01-14 22:36:57.56	61.79	18.58	
2025-01-14 22:36:58.81	62.06	18.64	
2025-01-14 22:37:00.04	62.33	18.70	
2025-01-14 22:37:01.28	62.60	18.76	
2025-01-14 22:37:02.51	62.88	18.82	
2025-01-14 22:37:03.76	63.16	18.88	
2025-01-14 22:37:04.99	63.43	18.93	
2025-01-14 22:37:06.22	63.71	18.99	
2025-01-14 22:37:07.45	63.98	19.05	
2025-01-14 22:37:08.69	64.26	19.10	
2025-01-14 22:37:09.92	64.54	19.16	
2025-01-14 22:37:11.15	64.82	19.21	
2025-01-14 22:37:12.39	65.11	19.27	
2025-01-14 22:37:13.63	65.39	19.32	
2025-01-14 22:37:14.86	65.67	19.37	
2025-01-14 22:37:16.10	65.96	19.43	
2025-01-14 22:37:17.32	66.24	19.48	
2025-01-14 22:37:18.57	66.53	19.53	
2025-01-14 22:37:19.80	66.82	19.58	
2025-01-14 22:37:21.05	67.11	19.63	
2025-01-14 22:37:22.28	67.40	19.68	
2025-01-14 22:37:23.51	67.69	19.73	
2025-01-14 22:37:24.74	67.98	19.78	
2025-01-14 22:37:25.98	68.27	19.82	
2025-01-14 22:37:27.21	68.56	19.87	
2025-01-14 22:37:28.44	68.86	19.92	
2025-01-14 22:37:29.67	69.15	19.96	
2025-01-14 22:37:30.90	69.44	20.01	
2025-01-14 22:37:32.13	69.74	20.05	
2025-01-14 22:37:33.37	70.04	20.10	
2025-01-14 22:37:34.60	70.34	20.14	
2025-01-14 22:37:35.84	70.64	20.18	
2025-01-14 22:37:37.09	70.94	20.22	
2025-01-14 22:37:38.31	71.24	20.26	
2025-01-14 22:37:39.55	71.54	20.30	
2025-01-14 22:37:40.78	71.84	20.34	
2025-01-14 22:37:42.01	72.14	20.38	
2025-01-14 22:37:43.24	72.45	20.42	
2025-01-14 22:37:44.47	72.75	20.46	
2025-01-14 22:37:45.71	73.06	20.49	
2025-01-14 22:37:46.93	73.36	20.53	
2025-01-14 22:37:48.16	73.66	20.56	
2025-01-14 22:37:49.40	73.97	20.60	
2025-01-14 22:37:50.62	74.28	20.63	
2025-01-14 22:37:51.85	74.58	20.66	
2025-01-14 22:37:53.08	74.89	20.70	
2025-01-14 22:37:54.31	75.20	20.73	
2025-01-14 22:37:55.54	75.51	20.76	
2025-01-14 22:37:56.77	75.82	20.79	
2025-01-14 22:37:58.02	76.14	20.82	
2025-01-14 22:37:59.25	76.45	20.84	
2025-01-14 22:38:00.48	76.76	20.87	
2025-01-14 22:38:01.71	77.07	20.90	
2025-01-14 22:38:02.94	77.38	20.92	
2025-01-14 22:38:04.18	77.70	20.95	
2025-01-14 22:38:05.41	78.01	20.97	
2025-01-14 22:38:06.64	78.33	20.99	
2025-01-14 22:38:07.88	78.64	21.01	
2025-01-14 22:38:09.11	78.96	21.04	
2025-01-14 22:38:10.34	79.27	21.06	
2025-01-14 22:38:11.58	79.59	21.08	
2025-01-14 22:38:12.81	79.91	21.09	
2025-01-14 22:38:14.04	80.23	21.11	
2025-01-14 22:38:15.28	80.55	21.13	
2025-01-14 22:38:16.51	80.86	21.15	
2025-01-14 22:38:17.74	81.18	21.16	
2025-01-14 22:38:18.98	81.50	21.17	
2025-01-14 22:38:20.20	81.82	21.19	
2025-01-14 22:38:21.44	82.14	21.20	
2025-01-14 22:38:22.67	82.46	21.21	
2025-01-14 22:38:23.89	82.77	21.22	
2025-01-14 22:38:25.13	83.10	21.23	
2025-01-14 22:38:26.36	83.41	21.24	
2025-01-14 22:38:27.59	83.73	21.25	
2025-01-14 22:38:28.83	84.06	21.26	
2025-01-14 22:38:30.06	84.38	21.26	
2025-01-14 22:38:31.30	84.70	21.27	
2025-01-14 22:38:32.53	85.02	21.27	
2025-01-14 22:38:33.76	85.34	21.28	
2025-01-14 22:38:34.99	85.66	21.28	
2025-01-14 22:38:36.23	85.98	21.28	
2025-01-14 22:38:37.46	86.30	21.28	
2025-01-14 22:38:38.69	86.62	21.28	
2025-01-14 22:38:39.92	86.94	21.28	
2025-01-14 22:38:41.17	87.27	21.28	
2025-01-14 22:38:42.41	87.59	21.28	
2025-01-14 22:38:43.64	87.91	21.27	
2025-01-14 22:38:44.87	88.23	21.27	
2025-01-14 22:38:46.10	88.55	21.26	
2025-01-14 22:38:47.33	88.87	21.26	
2025-01-14 22:38:48.56	89.19	21.25	
2025-01-14 22:38:49.81	89.52	21.24	
2025-01-14 22:38:51.04	89.84	21.23	
2025-01-14 22:38:52.27	90.16	21.22	
2025-01-14 22:38:53.50	90.48	21.21	
2025-01-14 22:38:54.73	90.80	21.20	
2025-01-14 22:38:55.96	91.12	21.19	
2025-01-14 22:38:57.19	91.43	21.18	
2025-01-14 22:38:58.42	91.75	21.16	
2025-01-14 22:38:59.65	92.07	21.15	
2025-01-14 22:39:00.88	92.39	21.13	
2025-01-14 22:39:02.11	92.71	21.11	
2025-01-14 22:39:03.35	93.03	21.10	
2025-01-14 22:39:04.58	93.34	21.08	
2025-01-14 22:39:05.81	93.66	21.06	
2025-01-14 22:39:07.04	93.97	21.04	
2025-01-14 22:39:08.27	94.29	21.02	
2025-01-14 22:39:09.50	94.60	20.99	
2025-01-14 22:39:10.73	94.92	20.97	
2025-01-14 22:39:11.96	95.23	20.95	
2025-01-14 22:39:13.19	95.55	20.92	
2025-01-14 22:39:14.42	95.86	20.90	
2025-01-14 22:39:15.67	96.18	20.87	
2025-01-14 22:39:16.90	96.49	20.84	
2025-01-14 22:39:18.13	96.80	20.82	
2025-01-14 22:39:19.36	97.11	20.79	
2025-01-14 22:39:20.60	97.43	20.76	
2025-01-14 22:39:21.83	97.74	20.73	
2025-01-14 22:39:23.06	98.05	20.70	
2025-01-14 22:39:24.29	98.35	20.66	
2025-01-14 22:39:25.52	98.66	20.63	
2025-01-14 22:39:26.75	98.97	20.60	
2025-01-14 22:39:27.99	99.28	20.56	
2025-01-14 22:39:29.22	99.59	20.53	
2025-01-14 22:39:30.45	99.89	20.49	
2025-01-14 22:39:31.68	100.20	20.46	
2025-01-14 22:39:32.91	100.50	20.42	
2025-01-14 22:39:34.14	100.80	20.38	
2025-01-14 22:39:35.38	101.11	20.34	
2025-01-14 22:39:36.61	101.41	20.30	
2025-01-14 22:39:37.84	101.71	20.26	
2025-01-14 22:39:39.08	102.01	20.22	
2025-01-14 22:39:40.31	102.31	20.18	
2025-01-14 22:39:41.55	102.62	20.14	
2025-01-14 22:39:42.78	102.91	20.09	
2025-01-14 22:39:44.02	103.21	20.05	
2025-01-14 22:39:45.26	103.51	20.01	
2025-01-14 22:39:46.49	103.81	19.96	
2025-01-14 22:39:47.72	104.10	19.91	
2025-01-14 22:39:48.95	104.40	19.87	
2025-01-14 22:39:50.19	104.69	19.82	
2025-01-14 22:39:51.42	104.98	19.77	
2025-01-14 22:39:52.66	105.28	19.72	
2025-01-14 22:39:53.89	105.57	19.68	
2025-01-14 22:39:55.12	105.86	19.63	
2025-01-14 22:39:56.35	106.14	19.58	
2025-01-14 22:39:57.59	106.43	19.52	
2025-01-14 22:39:58.83	106.72	19.47	
2025-01-14 22:40:00.07	107.01	19.42	
2025-01-14 22:40:01.30	107.30	19.37	
2025-01-14 22:40:02.53	107.58	19.31	
2025-01-14 22:40:03.77	107.86	19.26	
2025-01-14 22:40:04.99	108.14	19.21	
2025-01-14 22:40:06.22	108.42	19.15	
2025-01-14 22:40:07.45	108.70	19.10	
2025-01-14 22:40:08.69	108.99	19.04	
2025-01-14 22:40:09.92	109.26	18.98	
2025-01-14 22:40:11.17	109.54	18.93	
2025-01-14 22:40:12.40	109.82	18.87	
2025-01-14 22:40:13.64	110.10	18.81	
2025-01-14 22:40:14.88	110.37	18.75	
2025-01-14 22:40:16.12	110.65	18.69	
2025-01-14 22:40:17.36	110.92	18.63	
2025-01-14 22:40:18.60	111.20	18.57	
2025-01-14 22:40:19.83	111.46	18.51	
2025-01-14 22:40:21.06	111.73	18.45	
2025-01-14 22:40:22.31	112.01	18.39	
2025-01-14 22:40:23.55	112.27	18.32	
2025-01-14 22:40:24.78	112.54	18.26	
2025-01-14 22:40:26.02	112.81	18.20	
2025-01-14 22:40:27.25	113.07	18.14	
2025-01-14 22:40:28.48	113.33	18.07	
2025-01-14 22:40:29.71	113.59	18.01	
2025-01-14 22:40:30.94	113.85	17.94	
2025-01-14 22:40:32.17	114.11	17.88	
2025-01-14 22:40:33.41	114.37	17.81	
2025-01-14 22:40:34.64	114.63	17.75	
2025-01-14 22:40:35.87	114.88	17.68	
2025-01-14 22:40:37.09	115.14	17.62	
2025-01-14 22:40:38.33	115.39	17.55	
2025-01-14 22:40:39.57	115.65	17.48	
2025-01-14 22:40:40.80	115.90	17.41	
2025-01-14 22:40:42.03	116.15	17.35	
2025-01-14 22:40:43.27	116.40	17.28	
2025-01-14 22:40:44.50	116.65	17.21	
2025-01-14 22:40:45.73	116.89	17.14	
2025-01-14 22:40:46.97	117.14	17.07	
2025-01-14 22:40:48.20	117.39	17.00	
2025-01-14 22:40:49.44	117.63	16.93	
2025-01-14 22:40:50.67	117.87	16.86	
2025-01-14 22:40:51.91	118.12	16.79	
2025-01-14 22:40:53.13	118.36	16.72	
2025-01-14 22:40:54.36	118.60	16.65	
2025-01-14 22:40:55.59	118.83	16.58	
2025-01-14 22:40:56.83	119.07	16.51	
2025-01-14 22:40:58.08	119.31	16.43	
2025-01-14 22:40:59.32	119.55	16.36	
2025-01-14 22:41:00.54	119.78	16.29	
2025-01-14 22:41:01.77	120.01	16.22	
2025-01-14 22:41:03.01	120.25	16.14	
2025-01-14 22:41:04.25	120.48	16.07	
2025-01-14 22:41:05.48	120.71	16.00	
2025-01-14 22:41:06.72	120.94	15.92	
2025-01-14 22:41:07.96	121.17	15.85	
2025-01-14 22:41:09.19	121.40	15.78	
2025-01-14 22:41:10.42	121.62	15.70	
2025-01-14 22:41:11.65	121.84	15.63	
2025-01-14 22:41:12.88	122.07	15.55	
2025-01-14 22:41:14.11	122.29	15.48	
2025-01-14 22:41:15.34	122.51	15.41	
2025-01-14 22:41:16.57	122.73	15.33	
2025-01-14 22:41:17.80	122.95	15.26	
2025-01-14 22:41:19.04	123.17	15.18	
2025-01-14 22:41:20.28	123.39	15.10	
2025-01-14 22:41:21.52	123.60	15.03	
2025-01-14 22:41:22.75	123.82	14.95	
2025-01-14 22:41:23.98	124.03	14.88	
2025-01-14 22:41:25.22	124.25	14.80	
2025-01-14 22:41:26.46	124.46	14.72	
2025-01-14 22:41:27.69	124.67	14.65	
2025-01-14 22:41:28.93	124.88	14.57	
2025-01-14 22:41:30.16	125.09	14.50	
2025-01-14 22:41:31.39	125.30	14.42	
2025-01-14 22:41:32.64	125.50	14.34	
2025-01-14 22:41:33.87	125.71	14.27	
2025-01-14 22:41:35.10	125.91	14.19	
2025-01-14 22:41:36.33	126.12	14.11	
2025-01-14 22:41:37.56	126.32	14.04	
2025-01-14 22:41:38.80	126.52	13.96	
2025-01-14 22:41:40.02	126.72	13.88	
2025-01-14 22:41:41.25	126.92	13.80	
2025-01-14 22:41:42.48	127.12	13.73	
2025-01-14 22:41:43.72	127.32	13.65	
2025-01-14 22:41:44.94	127.51	13.57	
2025-01-14 22:41:46.19	127.71	13.49	
2025-01-14 22:41:47.44	127.90	13.42	
2025-01-14 22:41:48.66	128.10	13.34	
2025-01-14 22:41:49.90	128.29	13.26	
2025-01-14 22:41:51.13	128.48	13.18	
2025-01-14 22:41:52.38	128.67	13.11	
2025-01-14 22:41:53.61	128.86	13.03	
2025-01-14 22:41:54.84	129.05	12.95	
2025-01-14 22:41:56.08	129.24	12.87	
2025-01-14 22:41:57.31	129.43	12.79	
2025-01-14 22:41:58.54	129.61	12.72	
2025-01-14 22:41:59.77	129.80	12.64	
2025-01-14 22:42:01.01	129.98	12.56	
2025-01-14 22:42:02.24	130.16	12.48	
2025-01-14 22:42:03.47	130.34	12.41	
2025-01-14 22:42:04.70	130.53	12.33	
2025-01-14 22:42:05.94	130.71	12.25	
2025-01-14 22:42:07.16	130.88	12.17	
2025-01-14 22:42:08.39	131.06	12.09	
2025-01-14 22:42:09.63	131.24	12.02	
2025-01-14 22:42:10.86	131.42	11.94	
2025-01-14 22:42:12.10	131.59	11.86	
2025-01-14 22:42:13.33	131.77	11.78	
2025-01-14 22:42:14.56	131.94	11.70	
2025-01-14 22:42:15.79	132.11	11.63	
2025-01-14 22:42:17.03	132.29	11.55	
2025-01-14 22:42:18.26	132.46	11.47	
2025-01-14 22:42:19.49	132.63	11.39	
2025-01-14 22:42:20.73	132.80	11.31	
2025-01-14 22:42:21.97	132.97	11.24	
2025-01-14 22:42:23.21	133.14	11.16	
2025-01-14 22:42:24.44	133.30	11.08	
2025-01-14 22:42:25.68	133.47	11.00	
2025-01-14 22:42:26.90	133.63	10.93	
2025-01-14 22:42:28.15	133.80	10.85	
2025-01-14 22:42:29.38	133.96	10.77	
2025-01-14 22:42:30.61	134.12	10.69	
2025-01-14 22:42:31.84	134.28	10.62	
2025-01-14 22:42:33.07	134.45	10.54	
2025-01-14 22:42:34.32	134.61	10.46	
2025-01-14 22:42:35.56	134.77	10.38	
2025-01-14 22:42:36.80	134.93	10.30	
2025-01-14 22:42:38.03	135.08	10.23	
2025-01-14 22:42:39.26	135.24	10.15	
2025-01-14 22:42:40.49	135.40	10.07	
2025-01-14 22:42:41.72	135.55	10.00	
2025-01-14 22:42:42.95	135.71	9.92	
2025-01-14 22:42:44.18	135.86	9.84	
2025-01-14 22:42:45.41	136.01	9.77	
2025-01-14 22:42:46.65	136.16	9.69	
2025-01-14 22:42:47.89	136.32	9.61	
2025-01-14 22:42:49.14	136.47	9.53	
2025-01-14 22:42:50.37	136.62	9.46	
2025-01-14 22:42:51.61	136.77	9.38	
2025-01-14 22:42:52.85	136.92	9.30	
2025-01-14 22:42:54.09	137.07	9.23	
2025-01-14 22:42:55.33	137.21	9.15	
2025-01-14 22:42:56.56	137.36	9.07	
2025-01-14 22:42:57.80	137.51	9.00	
2025-01-14 22:42:59.03	137.65	8.92	
2025-01-14 22:43:00.26	137.79	8.84	
2025-01-14 22:43:01.49	137.94	8.77	
2025-01-14 22:43:02.72	138.08	8.69	
2025-01-14 22:43:03.95	138.22	8.62	
2025-01-14 22:43:05.18	138.36	8.54	
2025-01-14 22:43:06.42	138.50	8.47	
2025-01-14 22:43:07.64	138.64	8.39	
2025-01-14 22:43:08.87	138.78	8.32	
2025-01-14 22:43:10.11	138.92	8.24	
2025-01-14 22:43:11.34	139.06	8.16	
2025-01-14 22:43:12.58	139.19	8.09	
2025-01-14 22:43:13.81	139.33	8.01	
2025-01-14 22:43:15.04	139.46	7.94	
2025-01-14 22:43:16.29	139.60	7.86	
2025-01-14 22:43:17.52	139.73	7.79	
2025-01-14 22:43:18.75	139.87	7.71	
2025-01-14 22:43:19.98	140.00	7.64	
2025-01-14 22:43:21.21	140.13	7.56	
2025-01-14 22:43:22.45	140.26	7.49	
2025-01-14 22:43:23.68	140.40	7.42	
2025-01-14 22:43:24.91	140.53	7.34	
2025-01-14 22:43:26.14	140.65	7.27	
2025-01-14 22:43:27.37	140.78	7.19	
2025-01-14 22:43:28.60	140.91	7.12	
2025-01-14 22:43:29.83	141.04	7.05	
2025-01-14 22:43:31.06	141.17	6.97	
2025-01-14 22:43:32.30	141.29	6.90	
2025-01-14 22:43:33.54	141.42	6.82	
2025-01-14 22:43:34.77	141.54	6.75	
2025-01-14 22:43:36.01	141.67	6.68	
2025-01-14 22:43:37.25	141.79	6.60	
2025-01-14 22:43:38.49	141.92	6.53	
2025-01-14 22:43:39.72	142.04	6.46	
2025-01-14 22:43:40.95	142.16	6.38	
2025-01-14 22:43:42.18	142.29	6.31	
2025-01-14 22:43:43.40	142.40	6.24	
2025-01-14 22:43:44.64	142.53	6.16	
2025-01-14 22:43:45.87	142.65	6.09	
2025-01-14 22:43:47.10	142.76	6.02	
2025-01-14 22:43:48.33	142.88	5.95	
2025-01-14 22:43:49.57	143.00	5.87	
2025-01-14 22:43:50.81	143.12	5.80	
2025-01-14 22:43:52.04	143.24	5.73	
2025-01-14 22:43:53.27	143.35	5.66	
2025-01-14 22:43:54.50	143.47	5.59	
2025-01-14 22:43:55.73	143.59	5.51	
2025-01-14 22:43:56.98	143.70	5.44	
2025-01-14 22:43:58.21	143.82	5.37	
2025-01-14 22:43:59.44	143.93	5.30	
2025-01-14 22:44:00.69	144.04	5.23	
2025-01-14 22:44:01.92	144.16	5.15	
2025-01-14 22:44:03.15	144.27	5.08	
2025-01-14 22:44:04.38	144.38	5.01	
2025-01-14 22:44:05.61	144.49	4.94	
2025-01-14 22:44:06.85	144.60	4.87	
2025-01-14 22:44:08.08	144.71	4.80	
2025-01-14 22:44:09.31	144.82	4.73	
2025-01-14 22:44:10.54	144.93	4.66	
2025-01-14 22:44:11.77	145.04	4.59	
2025-01-14 22:44:13.00	145.15	4.52	
2025-01-14 22:44:14.23	145.25	4.45	
2025-01-14 22:44:15.47	145.36	4.38	
2025-01-14 22:44:16.71	145.47	4.31	
2025-01-14 22:44:17.95	145.58	4.24	
2025-01-14 22:44:19.18	145.68	4.17	
2025-01-14 22:44:20.42	145.79	4.10	
2025-01-14 22:44:21.65	145.89	4.03	

#Closed at: 2025-01-14 22:44:22