passes_logs/2025/01/14/SPB_Silybum_02/SPB_Silybum_02__20250114_120635_SUOMI_NPP_rec.log

#Pass ID: 20250114_120635_SUOMI NPP
#Satellite: SUOMI NPP
#Configuration: NPP
#Start time: 2025-01-14 12:06:35

#Version: 2.0.20230423
#Station: SPB_Silybum_02
#Location: 30.233357 lon 59.946436 lat
#TLE: 1 37849U 11061A   25013.79210654  .00000158  00000+0  95823-4 0  9999
#TLE: 2 37849  98.7445 314.7959 0001726  42.6053 317.5257 14.19537607684746

#Time	Az	El	Level	Level2	SNR	BER	Gain	Gain2
2025-01-14 12:06:37.46	215.65	4.09	
2025-01-14 12:06:38.70	215.75	4.16	
2025-01-14 12:06:39.93	215.86	4.23	
2025-01-14 12:06:41.16	215.97	4.29	
2025-01-14 12:06:42.38	216.08	4.36	
2025-01-14 12:06:43.63	216.19	4.43	
2025-01-14 12:06:44.87	216.30	4.50	
2025-01-14 12:06:46.10	216.41	4.57	
2025-01-14 12:06:47.33	216.52	4.64	
2025-01-14 12:06:48.56	216.63	4.71	
2025-01-14 12:06:49.81	216.75	4.78	
2025-01-14 12:06:51.04	216.86	4.85	
2025-01-14 12:06:52.27	216.97	4.92	
2025-01-14 12:06:53.50	217.09	4.99	
2025-01-14 12:06:54.73	217.20	5.06	
2025-01-14 12:06:55.98	217.32	5.13	
2025-01-14 12:06:57.21	217.43	5.20	
2025-01-14 12:06:58.44	217.55	5.28	
2025-01-14 12:06:59.67	217.66	5.35	
2025-01-14 12:07:00.90	217.78	5.42	
2025-01-14 12:07:02.13	217.90	5.49	
2025-01-14 12:07:03.36	218.01	5.56	
2025-01-14 12:07:04.59	218.13	5.63	
2025-01-14 12:07:05.84	218.25	5.70	
2025-01-14 12:07:07.09	218.37	5.77	
2025-01-14 12:07:08.32	218.49	5.84	
2025-01-14 12:07:09.55	218.61	5.92	
2025-01-14 12:07:10.78	218.74	5.99	
2025-01-14 12:07:12.02	218.86	6.06	
2025-01-14 12:07:13.25	218.98	6.13	
2025-01-14 12:07:14.49	219.10	6.20	
2025-01-14 12:07:15.72	219.23	6.27	
2025-01-14 12:07:16.95	219.35	6.35	
2025-01-14 12:07:18.18	219.48	6.42	
2025-01-14 12:07:19.43	219.60	6.49	
2025-01-14 12:07:20.67	219.73	6.56	
2025-01-14 12:07:21.90	219.86	6.64	
2025-01-14 12:07:23.13	219.98	6.71	
2025-01-14 12:07:24.36	220.11	6.78	
2025-01-14 12:07:25.59	220.24	6.85	
2025-01-14 12:07:26.82	220.37	6.93	
2025-01-14 12:07:28.06	220.50	7.00	
2025-01-14 12:07:29.29	220.63	7.07	
2025-01-14 12:07:30.52	220.76	7.14	
2025-01-14 12:07:31.75	220.89	7.22	
2025-01-14 12:07:32.99	221.02	7.29	
2025-01-14 12:07:34.22	221.16	7.36	
2025-01-14 12:07:35.45	221.29	7.44	
2025-01-14 12:07:36.69	221.43	7.51	
2025-01-14 12:07:37.92	221.56	7.58	
2025-01-14 12:07:39.17	221.70	7.66	
2025-01-14 12:07:40.40	221.83	7.73	
2025-01-14 12:07:41.63	221.97	7.81	
2025-01-14 12:07:42.86	222.11	7.88	
2025-01-14 12:07:44.09	222.25	7.95	
2025-01-14 12:07:45.33	222.38	8.03	
2025-01-14 12:07:46.56	222.52	8.10	
2025-01-14 12:07:47.80	222.67	8.17	
2025-01-14 12:07:49.02	222.80	8.25	
2025-01-14 12:07:50.26	222.95	8.32	
2025-01-14 12:07:51.49	223.09	8.40	
2025-01-14 12:07:52.73	223.23	8.47	
2025-01-14 12:07:53.98	223.38	8.55	
2025-01-14 12:07:55.21	223.52	8.62	
2025-01-14 12:07:56.44	223.67	8.70	
2025-01-14 12:07:57.67	223.81	8.77	
2025-01-14 12:07:58.93	223.96	8.85	
2025-01-14 12:08:00.17	224.11	8.92	
2025-01-14 12:08:01.40	224.26	9.00	
2025-01-14 12:08:02.63	224.41	9.07	
2025-01-14 12:08:03.86	224.56	9.14	
2025-01-14 12:08:05.09	224.71	9.22	
2025-01-14 12:08:06.32	224.86	9.29	
2025-01-14 12:08:07.55	225.01	9.37	
2025-01-14 12:08:08.80	225.16	9.45	
2025-01-14 12:08:10.03	225.32	9.52	
2025-01-14 12:08:11.26	225.47	9.60	
2025-01-14 12:08:12.50	225.63	9.67	
2025-01-14 12:08:13.73	225.78	9.75	
2025-01-14 12:08:14.97	225.94	9.82	
2025-01-14 12:08:16.21	226.10	9.90	
2025-01-14 12:08:17.44	226.25	9.97	
2025-01-14 12:08:18.67	226.41	10.05	
2025-01-14 12:08:19.90	226.57	10.12	
2025-01-14 12:08:21.14	226.73	10.20	
2025-01-14 12:08:22.37	226.89	10.27	
2025-01-14 12:08:23.59	227.05	10.35	
2025-01-14 12:08:24.83	227.22	10.43	
2025-01-14 12:08:26.06	227.38	10.50	
2025-01-14 12:08:27.29	227.54	10.58	
2025-01-14 12:08:28.52	227.71	10.65	
2025-01-14 12:08:29.75	227.87	10.73	
2025-01-14 12:08:30.98	228.04	10.80	
2025-01-14 12:08:32.21	228.21	10.88	
2025-01-14 12:08:33.44	228.38	10.95	
2025-01-14 12:08:34.69	228.55	11.03	
2025-01-14 12:08:35.92	228.72	11.11	
2025-01-14 12:08:37.16	228.89	11.18	
2025-01-14 12:08:38.38	229.06	11.26	
2025-01-14 12:08:39.61	229.23	11.33	
2025-01-14 12:08:40.86	229.41	11.41	
2025-01-14 12:08:42.09	229.58	11.49	
2025-01-14 12:08:43.32	229.76	11.56	
2025-01-14 12:08:44.55	229.93	11.64	
2025-01-14 12:08:45.79	230.11	11.71	
2025-01-14 12:08:47.02	230.29	11.79	
2025-01-14 12:08:48.25	230.47	11.87	
2025-01-14 12:08:49.48	230.65	11.94	
2025-01-14 12:08:50.73	230.83	12.02	
2025-01-14 12:08:51.97	231.01	12.09	
2025-01-14 12:08:53.21	231.20	12.17	
2025-01-14 12:08:54.45	231.38	12.25	
2025-01-14 12:08:55.68	231.57	12.32	
2025-01-14 12:08:56.92	231.75	12.40	
2025-01-14 12:08:58.15	231.94	12.47	
2025-01-14 12:08:59.38	232.12	12.55	
2025-01-14 12:09:00.61	232.31	12.62	
2025-01-14 12:09:01.85	232.50	12.70	
2025-01-14 12:09:03.08	232.69	12.77	
2025-01-14 12:09:04.31	232.88	12.85	
2025-01-14 12:09:05.54	233.07	12.92	
2025-01-14 12:09:06.78	233.27	13.00	
2025-01-14 12:09:08.03	233.46	13.08	
2025-01-14 12:09:09.26	233.66	13.15	
2025-01-14 12:09:10.50	233.85	13.23	
2025-01-14 12:09:11.73	234.05	13.30	
2025-01-14 12:09:12.97	234.25	13.38	
2025-01-14 12:09:14.21	234.45	13.45	
2025-01-14 12:09:15.44	234.65	13.53	
2025-01-14 12:09:16.67	234.85	13.60	
2025-01-14 12:09:17.91	235.05	13.68	
2025-01-14 12:09:19.14	235.25	13.75	
2025-01-14 12:09:20.38	235.46	13.83	
2025-01-14 12:09:21.62	235.66	13.90	
2025-01-14 12:09:22.85	235.87	13.97	
2025-01-14 12:09:24.09	236.08	14.05	
2025-01-14 12:09:25.32	236.28	14.12	
2025-01-14 12:09:26.54	236.49	14.20	
2025-01-14 12:09:27.77	236.70	14.27	
2025-01-14 12:09:29.01	236.91	14.34	
2025-01-14 12:09:30.26	237.12	14.42	
2025-01-14 12:09:31.51	237.34	14.49	
2025-01-14 12:09:32.75	237.56	14.56	
2025-01-14 12:09:34.01	237.77	14.64	
2025-01-14 12:09:35.24	237.99	14.71	
2025-01-14 12:09:36.47	238.21	14.78	
2025-01-14 12:09:37.70	238.42	14.86	
2025-01-14 12:09:38.93	238.64	14.93	
2025-01-14 12:09:40.16	238.86	15.00	
2025-01-14 12:09:41.40	239.08	15.07	
2025-01-14 12:09:42.63	239.30	15.14	
2025-01-14 12:09:43.86	239.53	15.22	
2025-01-14 12:09:45.09	239.75	15.29	
2025-01-14 12:09:46.32	239.97	15.36	
2025-01-14 12:09:47.56	240.20	15.43	
2025-01-14 12:09:48.81	240.43	15.50	
2025-01-14 12:09:50.04	240.66	15.57	
2025-01-14 12:09:51.27	240.89	15.64	
2025-01-14 12:09:52.50	241.12	15.71	
2025-01-14 12:09:53.73	241.35	15.78	
2025-01-14 12:09:54.96	241.58	15.85	
2025-01-14 12:09:56.19	241.81	15.92	
2025-01-14 12:09:57.42	242.05	15.99	
2025-01-14 12:09:58.66	242.28	16.06	
2025-01-14 12:09:59.90	242.52	16.13	
2025-01-14 12:10:01.14	242.76	16.20	
2025-01-14 12:10:02.37	243.00	16.26	
2025-01-14 12:10:03.60	243.24	16.33	
2025-01-14 12:10:04.83	243.48	16.40	
2025-01-14 12:10:06.06	243.72	16.47	
2025-01-14 12:10:07.29	243.96	16.53	
2025-01-14 12:10:08.53	244.20	16.60	
2025-01-14 12:10:09.77	244.45	16.67	
2025-01-14 12:10:11.00	244.70	16.73	
2025-01-14 12:10:12.22	244.94	16.80	
2025-01-14 12:10:13.45	245.19	16.86	
2025-01-14 12:10:14.70	245.44	16.93	
2025-01-14 12:10:15.93	245.69	16.99	
2025-01-14 12:10:17.16	245.94	17.06	
2025-01-14 12:10:18.39	246.19	17.12	
2025-01-14 12:10:19.62	246.44	17.18	
2025-01-14 12:10:20.85	246.70	17.25	
2025-01-14 12:10:22.08	246.95	17.31	
2025-01-14 12:10:23.31	247.21	17.37	
2025-01-14 12:10:24.55	247.47	17.43	
2025-01-14 12:10:25.78	247.72	17.49	
2025-01-14 12:10:27.01	247.98	17.55	
2025-01-14 12:10:28.24	248.24	17.62	
2025-01-14 12:10:29.47	248.50	17.68	
2025-01-14 12:10:30.72	248.77	17.74	
2025-01-14 12:10:31.95	249.03	17.80	
2025-01-14 12:10:33.19	249.30	17.86	
2025-01-14 12:10:34.42	249.56	17.91	
2025-01-14 12:10:35.65	249.83	17.97	
2025-01-14 12:10:36.91	250.10	18.03	
2025-01-14 12:10:38.13	250.37	18.09	
2025-01-14 12:10:39.38	250.64	18.14	
2025-01-14 12:10:40.63	250.91	18.20	
2025-01-14 12:10:41.87	251.19	18.26	
2025-01-14 12:10:43.11	251.46	18.31	
2025-01-14 12:10:44.34	251.73	18.37	
2025-01-14 12:10:45.60	252.01	18.42	
2025-01-14 12:10:46.83	252.29	18.48	
2025-01-14 12:10:48.06	252.56	18.53	
2025-01-14 12:10:49.29	252.84	18.58	
2025-01-14 12:10:50.53	253.12	18.63	
2025-01-14 12:10:51.75	253.39	18.68	
2025-01-14 12:10:52.99	253.68	18.74	
2025-01-14 12:10:54.22	253.96	18.79	
2025-01-14 12:10:55.45	254.24	18.84	
2025-01-14 12:10:56.68	254.52	18.89	
2025-01-14 12:10:57.91	254.80	18.93	
2025-01-14 12:10:59.14	255.08	18.98	
2025-01-14 12:11:00.37	255.37	19.03	
2025-01-14 12:11:01.60	255.65	19.08	
2025-01-14 12:11:02.83	255.94	19.12	
2025-01-14 12:11:04.06	256.23	19.17	
2025-01-14 12:11:05.29	256.51	19.21	
2025-01-14 12:11:06.54	256.81	19.26	
2025-01-14 12:11:07.77	257.10	19.30	
2025-01-14 12:11:08.99	257.38	19.34	
2025-01-14 12:11:10.22	257.68	19.39	
2025-01-14 12:11:11.45	257.97	19.43	
2025-01-14 12:11:12.70	258.26	19.47	
2025-01-14 12:11:13.94	258.56	19.51	
2025-01-14 12:11:15.17	258.85	19.55	
2025-01-14 12:11:16.40	259.15	19.59	
2025-01-14 12:11:17.63	259.44	19.63	
2025-01-14 12:11:18.86	259.74	19.66	
2025-01-14 12:11:20.10	260.04	19.70	
2025-01-14 12:11:21.33	260.34	19.74	
2025-01-14 12:11:22.56	260.63	19.77	
2025-01-14 12:11:23.79	260.93	19.81	
2025-01-14 12:11:25.02	261.23	19.84	
2025-01-14 12:11:26.26	261.54	19.88	
2025-01-14 12:11:27.51	261.84	19.91	
2025-01-14 12:11:28.74	262.14	19.94	
2025-01-14 12:11:29.97	262.44	19.97	
2025-01-14 12:11:31.21	262.75	20.00	
2025-01-14 12:11:32.44	263.05	20.03	
2025-01-14 12:11:33.67	263.36	20.06	
2025-01-14 12:11:34.90	263.66	20.09	
2025-01-14 12:11:36.14	263.97	20.12	
2025-01-14 12:11:37.37	264.27	20.14	
2025-01-14 12:11:38.60	264.58	20.17	
2025-01-14 12:11:39.84	264.89	20.19	
2025-01-14 12:11:41.06	265.19	20.22	
2025-01-14 12:11:42.29	265.50	20.24	
2025-01-14 12:11:43.54	265.81	20.26	
2025-01-14 12:11:44.77	266.12	20.29	
2025-01-14 12:11:46.00	266.43	20.31	
2025-01-14 12:11:47.23	266.74	20.33	
2025-01-14 12:11:48.46	267.05	20.35	
2025-01-14 12:11:49.70	267.36	20.36	
2025-01-14 12:11:50.94	267.67	20.38	
2025-01-14 12:11:52.17	267.98	20.40	
2025-01-14 12:11:53.40	268.29	20.41	
2025-01-14 12:11:54.63	268.60	20.43	
2025-01-14 12:11:55.86	268.91	20.44	
2025-01-14 12:11:57.11	269.23	20.46	
2025-01-14 12:11:58.34	269.54	20.47	
2025-01-14 12:11:59.57	269.85	20.48	
2025-01-14 12:12:00.82	270.17	20.49	
2025-01-14 12:12:02.05	270.48	20.50	
2025-01-14 12:12:03.28	270.80	20.51	
2025-01-14 12:12:04.51	271.11	20.52	
2025-01-14 12:12:05.75	271.42	20.53	
2025-01-14 12:12:07.00	271.74	20.54	
2025-01-14 12:12:08.23	272.05	20.54	
2025-01-14 12:12:09.47	272.37	20.55	
2025-01-14 12:12:10.70	272.68	20.55	
2025-01-14 12:12:11.94	273.00	20.56	
2025-01-14 12:12:13.18	273.32	20.56	
2025-01-14 12:12:14.41	273.63	20.56	
2025-01-14 12:12:15.64	273.94	20.56	
2025-01-14 12:12:16.88	274.26	20.56	
2025-01-14 12:12:18.11	274.57	20.56	
2025-01-14 12:12:19.35	274.89	20.56	
2025-01-14 12:12:20.58	275.20	20.56	
2025-01-14 12:12:21.81	275.51	20.55	
2025-01-14 12:12:23.04	275.83	20.55	
2025-01-14 12:12:24.29	276.15	20.54	
2025-01-14 12:12:25.53	276.46	20.54	
2025-01-14 12:12:26.76	276.77	20.53	
2025-01-14 12:12:27.99	277.09	20.52	
2025-01-14 12:12:29.23	277.40	20.51	
2025-01-14 12:12:30.46	277.71	20.50	
2025-01-14 12:12:31.69	278.03	20.49	
2025-01-14 12:12:32.92	278.34	20.48	
2025-01-14 12:12:34.15	278.65	20.47	
2025-01-14 12:12:35.39	278.96	20.46	
2025-01-14 12:12:36.62	279.27	20.44	
2025-01-14 12:12:37.87	279.59	20.43	
2025-01-14 12:12:39.10	279.90	20.41	
2025-01-14 12:12:40.34	280.21	20.40	
2025-01-14 12:12:41.58	280.53	20.38	
2025-01-14 12:12:42.82	280.84	20.36	
2025-01-14 12:12:44.05	281.15	20.34	
2025-01-14 12:12:45.28	281.46	20.33	
2025-01-14 12:12:46.51	281.76	20.31	
2025-01-14 12:12:47.76	282.08	20.28	
2025-01-14 12:12:49.01	282.39	20.26	
2025-01-14 12:12:50.24	282.70	20.24	
2025-01-14 12:12:51.47	283.00	20.22	
2025-01-14 12:12:52.70	283.31	20.19	
2025-01-14 12:12:53.93	283.61	20.17	
2025-01-14 12:12:55.16	283.92	20.14	
2025-01-14 12:12:56.39	284.22	20.11	
2025-01-14 12:12:57.62	284.53	20.09	
2025-01-14 12:12:58.86	284.83	20.06	
2025-01-14 12:13:00.11	285.14	20.03	
2025-01-14 12:13:01.34	285.44	20.00	
2025-01-14 12:13:02.57	285.75	19.97	
2025-01-14 12:13:03.80	286.05	19.94	
2025-01-14 12:13:05.03	286.35	19.91	
2025-01-14 12:13:06.28	286.65	19.87	
2025-01-14 12:13:07.51	286.95	19.84	
2025-01-14 12:13:08.74	287.25	19.81	
2025-01-14 12:13:09.96	287.55	19.77	
2025-01-14 12:13:11.20	287.85	19.74	
2025-01-14 12:13:12.43	288.14	19.70	
2025-01-14 12:13:13.65	288.44	19.66	
2025-01-14 12:13:14.88	288.73	19.63	
2025-01-14 12:13:16.13	289.03	19.59	
2025-01-14 12:13:17.36	289.32	19.55	
2025-01-14 12:13:18.59	289.62	19.51	
2025-01-14 12:13:19.82	289.91	19.47	
2025-01-14 12:13:21.07	290.21	19.43	
2025-01-14 12:13:22.30	290.50	19.39	
2025-01-14 12:13:23.53	290.79	19.34	
2025-01-14 12:13:24.77	291.08	19.30	
2025-01-14 12:13:26.00	291.37	19.26	
2025-01-14 12:13:27.23	291.65	19.21	
2025-01-14 12:13:28.47	291.94	19.17	
2025-01-14 12:13:29.70	292.23	19.12	
2025-01-14 12:13:30.93	292.51	19.08	
2025-01-14 12:13:32.16	292.80	19.03	
2025-01-14 12:13:33.40	293.08	18.98	
2025-01-14 12:13:34.63	293.37	18.94	
2025-01-14 12:13:35.87	293.65	18.89	
2025-01-14 12:13:37.11	293.93	18.84	
2025-01-14 12:13:38.34	294.21	18.79	
2025-01-14 12:13:39.57	294.49	18.74	
2025-01-14 12:13:40.80	294.77	18.69	
2025-01-14 12:13:42.03	295.05	18.64	
2025-01-14 12:13:43.26	295.32	18.59	
2025-01-14 12:13:44.49	295.60	18.53	
2025-01-14 12:13:45.72	295.87	18.48	
2025-01-14 12:13:46.95	296.14	18.43	
2025-01-14 12:13:48.19	296.42	18.37	
2025-01-14 12:13:49.42	296.69	18.32	
2025-01-14 12:13:50.65	296.96	18.26	
2025-01-14 12:13:51.88	297.23	18.21	
2025-01-14 12:13:53.12	297.50	18.15	
2025-01-14 12:13:54.35	297.77	18.10	
2025-01-14 12:13:55.58	298.04	18.04	
2025-01-14 12:13:56.80	298.30	17.98	
2025-01-14 12:13:58.05	298.57	17.92	
2025-01-14 12:13:59.28	298.83	17.87	
2025-01-14 12:14:00.52	299.10	17.81	
2025-01-14 12:14:01.75	299.36	17.75	
2025-01-14 12:14:02.98	299.62	17.69	
2025-01-14 12:14:04.21	299.88	17.63	
2025-01-14 12:14:05.45	300.14	17.57	
2025-01-14 12:14:06.68	300.40	17.51	
2025-01-14 12:14:07.91	300.65	17.45	
2025-01-14 12:14:09.14	300.91	17.39	
2025-01-14 12:14:10.39	301.17	17.32	
2025-01-14 12:14:11.62	301.42	17.26	
2025-01-14 12:14:12.87	301.68	17.20	
2025-01-14 12:14:14.10	301.93	17.14	
2025-01-14 12:14:15.33	302.18	17.07	
2025-01-14 12:14:16.56	302.43	17.01	
2025-01-14 12:14:17.79	302.68	16.94	
2025-01-14 12:14:19.02	302.92	16.88	
2025-01-14 12:14:20.27	303.17	16.81	
2025-01-14 12:14:21.49	303.42	16.75	
2025-01-14 12:14:22.73	303.66	16.68	
2025-01-14 12:14:23.96	303.91	16.62	
2025-01-14 12:14:25.19	304.15	16.55	
2025-01-14 12:14:26.42	304.39	16.49	
2025-01-14 12:14:27.67	304.63	16.42	
2025-01-14 12:14:28.90	304.87	16.35	
2025-01-14 12:14:30.13	305.11	16.29	
2025-01-14 12:14:31.36	305.35	16.22	
2025-01-14 12:14:32.59	305.58	16.15	
2025-01-14 12:14:33.84	305.82	16.08	
2025-01-14 12:14:35.07	306.06	16.01	
2025-01-14 12:14:36.31	306.29	15.95	
2025-01-14 12:14:37.55	306.52	15.88	
2025-01-14 12:14:38.78	306.75	15.81	
2025-01-14 12:14:40.01	306.98	15.74	
2025-01-14 12:14:41.24	307.21	15.67	
2025-01-14 12:14:42.47	307.44	15.60	
2025-01-14 12:14:43.70	307.67	15.53	
2025-01-14 12:14:44.93	307.89	15.46	
2025-01-14 12:14:46.16	308.12	15.39	
2025-01-14 12:14:47.39	308.34	15.32	
2025-01-14 12:14:48.63	308.56	15.25	
2025-01-14 12:14:49.87	308.79	15.18	
2025-01-14 12:14:51.10	309.01	15.11	
2025-01-14 12:14:52.33	309.23	15.04	
2025-01-14 12:14:53.57	309.45	14.96	
2025-01-14 12:14:54.80	309.66	14.89	
2025-01-14 12:14:56.03	309.88	14.82	
2025-01-14 12:14:57.27	310.10	14.75	
2025-01-14 12:14:58.50	310.31	14.68	
2025-01-14 12:14:59.73	310.52	14.60	
2025-01-14 12:15:00.96	310.74	14.53	
2025-01-14 12:15:02.19	310.95	14.46	
2025-01-14 12:15:03.42	311.16	14.39	
2025-01-14 12:15:04.67	311.37	14.31	
2025-01-14 12:15:05.90	311.58	14.24	
2025-01-14 12:15:07.15	311.79	14.17	
2025-01-14 12:15:08.39	312.00	14.09	
2025-01-14 12:15:09.63	312.20	14.02	
2025-01-14 12:15:10.86	312.41	13.95	
2025-01-14 12:15:12.09	312.61	13.87	
2025-01-14 12:15:13.32	312.81	13.80	
2025-01-14 12:15:14.56	313.02	13.72	
2025-01-14 12:15:15.80	313.22	13.65	
2025-01-14 12:15:17.04	313.42	13.58	
2025-01-14 12:15:18.28	313.62	13.50	
2025-01-14 12:15:19.51	313.82	13.43	
2025-01-14 12:15:20.74	314.01	13.35	
2025-01-14 12:15:21.97	314.21	13.28	
2025-01-14 12:15:23.20	314.40	13.21	
2025-01-14 12:15:24.44	314.60	13.13	
2025-01-14 12:15:25.67	314.79	13.06	
2025-01-14 12:15:26.90	314.98	12.98	
2025-01-14 12:15:28.13	315.17	12.91	
2025-01-14 12:15:29.36	315.36	12.83	
2025-01-14 12:15:30.59	315.55	12.76	
2025-01-14 12:15:31.82	315.74	12.68	
2025-01-14 12:15:33.05	315.92	12.61	
2025-01-14 12:15:34.28	316.11	12.54	
2025-01-14 12:15:35.52	316.30	12.46	
2025-01-14 12:15:36.75	316.48	12.39	
2025-01-14 12:15:37.99	316.67	12.31	
2025-01-14 12:15:39.21	316.85	12.24	
2025-01-14 12:15:40.44	317.03	12.16	
2025-01-14 12:15:41.66	317.21	12.09	
2025-01-14 12:15:42.89	317.39	12.01	
2025-01-14 12:15:44.12	317.57	11.94	
2025-01-14 12:15:45.36	317.75	11.86	
2025-01-14 12:15:46.59	317.92	11.79	
2025-01-14 12:15:47.82	318.10	11.71	
2025-01-14 12:15:49.05	318.28	11.64	
2025-01-14 12:15:50.30	318.45	11.56	
2025-01-14 12:15:51.55	318.63	11.49	
2025-01-14 12:15:52.78	318.80	11.41	
2025-01-14 12:15:54.01	318.97	11.34	
2025-01-14 12:15:55.24	319.15	11.26	
2025-01-14 12:15:56.47	319.32	11.19	
2025-01-14 12:15:57.71	319.49	11.11	
2025-01-14 12:15:58.93	319.65	11.04	
2025-01-14 12:16:00.16	319.82	10.96	
2025-01-14 12:16:01.39	319.99	10.89	
2025-01-14 12:16:02.62	320.15	10.81	
2025-01-14 12:16:03.86	320.32	10.74	
2025-01-14 12:16:05.09	320.49	10.66	
2025-01-14 12:16:06.33	320.65	10.59	
2025-01-14 12:16:07.57	320.81	10.51	
2025-01-14 12:16:08.81	320.98	10.44	
2025-01-14 12:16:10.04	321.14	10.36	
2025-01-14 12:16:11.27	321.30	10.29	
2025-01-14 12:16:12.50	321.46	10.21	
2025-01-14 12:16:13.73	321.62	10.14	
2025-01-14 12:16:14.96	321.78	10.06	
2025-01-14 12:16:16.19	321.93	9.99	
2025-01-14 12:16:17.42	322.09	9.91	
2025-01-14 12:16:18.66	322.25	9.84	
2025-01-14 12:16:19.89	322.40	9.76	
2025-01-14 12:16:21.12	322.56	9.69	
2025-01-14 12:16:22.36	322.71	9.62	
2025-01-14 12:16:23.59	322.86	9.54	
2025-01-14 12:16:24.84	323.02	9.47	
2025-01-14 12:16:26.06	323.17	9.39	
2025-01-14 12:16:27.29	323.32	9.32	
2025-01-14 12:16:28.53	323.47	9.24	
2025-01-14 12:16:29.77	323.62	9.17	
2025-01-14 12:16:31.00	323.77	9.10	
2025-01-14 12:16:32.23	323.92	9.02	
2025-01-14 12:16:33.46	324.06	8.95	
2025-01-14 12:16:34.69	324.21	8.87	
2025-01-14 12:16:35.94	324.36	8.80	
2025-01-14 12:16:37.17	324.50	8.73	
2025-01-14 12:16:38.40	324.65	8.65	
2025-01-14 12:16:39.63	324.79	8.58	
2025-01-14 12:16:40.86	324.93	8.51	
2025-01-14 12:16:42.10	325.08	8.43	
2025-01-14 12:16:43.34	325.22	8.36	
2025-01-14 12:16:44.57	325.36	8.29	
2025-01-14 12:16:45.80	325.50	8.21	
2025-01-14 12:16:47.05	325.64	8.14	
2025-01-14 12:16:48.31	325.78	8.06	
2025-01-14 12:16:49.54	325.92	7.99	
2025-01-14 12:16:50.77	326.06	7.92	
2025-01-14 12:16:52.00	326.19	7.84	
2025-01-14 12:16:53.23	326.33	7.77	
2025-01-14 12:16:54.47	326.47	7.70	
2025-01-14 12:16:55.70	326.60	7.63	
2025-01-14 12:16:56.93	326.73	7.55	
2025-01-14 12:16:58.18	326.87	7.48	
2025-01-14 12:16:59.41	327.00	7.41	
2025-01-14 12:17:00.64	327.13	7.34	
2025-01-14 12:17:01.87	327.27	7.26	
2025-01-14 12:17:03.10	327.40	7.19	
2025-01-14 12:17:04.34	327.53	7.12	
2025-01-14 12:17:05.56	327.66	7.05	
2025-01-14 12:17:06.79	327.79	6.98	
2025-01-14 12:17:08.03	327.92	6.90	
2025-01-14 12:17:09.26	328.04	6.83	
2025-01-14 12:17:10.50	328.17	6.76	
2025-01-14 12:17:11.73	328.30	6.69	
2025-01-14 12:17:12.96	328.42	6.62	
2025-01-14 12:17:14.19	328.55	6.55	
2025-01-14 12:17:15.42	328.67	6.48	
2025-01-14 12:17:16.65	328.80	6.40	
2025-01-14 12:17:17.88	328.92	6.33	
2025-01-14 12:17:19.11	329.05	6.26	
2025-01-14 12:17:20.34	329.17	6.19	
2025-01-14 12:17:21.57	329.29	6.12	
2025-01-14 12:17:22.81	329.41	6.05	
2025-01-14 12:17:24.03	329.53	5.98	
2025-01-14 12:17:25.27	329.65	5.91	
2025-01-14 12:17:26.50	329.77	5.84	
2025-01-14 12:17:27.73	329.89	5.77	
2025-01-14 12:17:28.96	330.01	5.70	
2025-01-14 12:17:30.19	330.13	5.63	
2025-01-14 12:17:31.42	330.25	5.56	
2025-01-14 12:17:32.66	330.37	5.49	
2025-01-14 12:17:33.89	330.48	5.42	
2025-01-14 12:17:35.13	330.60	5.35	
2025-01-14 12:17:36.35	330.71	5.28	
2025-01-14 12:17:37.60	330.83	5.21	
2025-01-14 12:17:38.83	330.94	5.14	
2025-01-14 12:17:40.07	331.06	5.07	
2025-01-14 12:17:41.30	331.17	5.00	
2025-01-14 12:17:42.55	331.29	4.93	
2025-01-14 12:17:43.78	331.40	4.86	
2025-01-14 12:17:45.01	331.51	4.79	
2025-01-14 12:17:46.24	331.62	4.72	
2025-01-14 12:17:47.48	331.74	4.65	
2025-01-14 12:17:48.71	331.85	4.58	
2025-01-14 12:17:49.94	331.96	4.51	
2025-01-14 12:17:51.18	332.07	4.45	
2025-01-14 12:17:52.41	332.17	4.38	
2025-01-14 12:17:53.65	332.28	4.31	
2025-01-14 12:17:54.90	332.39	4.24	
2025-01-14 12:17:56.13	332.50	4.17	
2025-01-14 12:17:57.37	332.61	4.10	
2025-01-14 12:17:58.59	332.71	4.03	

#Closed at: 2025-01-14 12:17:59