passes_logs/2025/01/14/SPB_Silybum_02/SPB_Silybum_02__20250114_102429_SUOMI_NPP_rec.log

#Pass ID: 20250114_102429_SUOMI NPP
#Satellite: SUOMI NPP
#Configuration: NPP
#Start time: 2025-01-14 10:24:29

#Version: 2.0.20230423
#Station: SPB_Silybum_02
#Location: 30.233357 lon 59.946436 lat
#TLE: 1 37849U 11061A   25013.79210654  .00000158  00000+0  95823-4 0  9999
#TLE: 2 37849  98.7445 314.7959 0001726  42.6053 317.5257 14.19537607684746

#Time	Az	El	Level	Level2	SNR	BER	Gain	Gain2
2025-01-14 10:24:31.18	163.18	4.10	
2025-01-14 10:24:32.62	163.19	4.20	
2025-01-14 10:24:34.06	163.21	4.30	
2025-01-14 10:24:35.50	163.22	4.40	
2025-01-14 10:24:36.94	163.24	4.50	
2025-01-14 10:24:38.39	163.25	4.60	
2025-01-14 10:24:39.82	163.26	4.70	
2025-01-14 10:24:41.26	163.28	4.80	
2025-01-14 10:24:42.70	163.29	4.91	
2025-01-14 10:24:44.15	163.31	5.01	
2025-01-14 10:24:45.60	163.32	5.11	
2025-01-14 10:24:47.03	163.33	5.22	
2025-01-14 10:24:48.47	163.35	5.32	
2025-01-14 10:24:49.91	163.36	5.43	
2025-01-14 10:24:51.35	163.38	5.53	
2025-01-14 10:24:52.79	163.39	5.64	
2025-01-14 10:24:54.22	163.41	5.74	
2025-01-14 10:24:55.66	163.42	5.85	
2025-01-14 10:24:57.10	163.43	5.96	
2025-01-14 10:24:58.54	163.45	6.06	
2025-01-14 10:24:59.99	163.46	6.17	
2025-01-14 10:25:01.42	163.48	6.28	
2025-01-14 10:25:02.86	163.49	6.39	
2025-01-14 10:25:04.29	163.51	6.50	
2025-01-14 10:25:05.73	163.52	6.61	
2025-01-14 10:25:07.17	163.54	6.71	
2025-01-14 10:25:08.61	163.56	6.83	
2025-01-14 10:25:10.05	163.57	6.94	
2025-01-14 10:25:11.48	163.59	7.05	
2025-01-14 10:25:12.92	163.60	7.16	
2025-01-14 10:25:14.36	163.62	7.27	
2025-01-14 10:25:15.80	163.63	7.38	
2025-01-14 10:25:17.23	163.65	7.50	
2025-01-14 10:25:18.67	163.67	7.61	
2025-01-14 10:25:20.11	163.68	7.72	
2025-01-14 10:25:21.57	163.70	7.84	
2025-01-14 10:25:23.00	163.71	7.96	
2025-01-14 10:25:24.44	163.73	8.07	
2025-01-14 10:25:25.88	163.75	8.19	
2025-01-14 10:25:27.32	163.76	8.31	
2025-01-14 10:25:28.75	163.78	8.42	
2025-01-14 10:25:30.19	163.80	8.54	
2025-01-14 10:25:31.63	163.81	8.66	
2025-01-14 10:25:33.07	163.83	8.78	
2025-01-14 10:25:34.52	163.85	8.90	
2025-01-14 10:25:35.98	163.87	9.02	
2025-01-14 10:25:37.42	163.88	9.14	
2025-01-14 10:25:38.87	163.90	9.26	
2025-01-14 10:25:40.31	163.92	9.39	
2025-01-14 10:25:41.74	163.93	9.51	
2025-01-14 10:25:43.17	163.95	9.63	
2025-01-14 10:25:44.61	163.97	9.76	
2025-01-14 10:25:46.05	163.99	9.88	
2025-01-14 10:25:47.48	164.01	10.00	
2025-01-14 10:25:48.92	164.02	10.13	
2025-01-14 10:25:50.36	164.04	10.26	
2025-01-14 10:25:51.80	164.06	10.38	
2025-01-14 10:25:53.23	164.08	10.51	
2025-01-14 10:25:54.67	164.10	10.64	
2025-01-14 10:25:56.11	164.12	10.77	
2025-01-14 10:25:57.55	164.14	10.90	
2025-01-14 10:25:58.99	164.16	11.03	
2025-01-14 10:26:00.43	164.17	11.16	
2025-01-14 10:26:01.87	164.19	11.29	
2025-01-14 10:26:03.31	164.21	11.42	
2025-01-14 10:26:04.74	164.23	11.56	
2025-01-14 10:26:06.18	164.25	11.69	
2025-01-14 10:26:07.62	164.27	11.83	
2025-01-14 10:26:09.07	164.29	11.96	
2025-01-14 10:26:10.53	164.31	12.10	
2025-01-14 10:26:11.97	164.33	12.24	
2025-01-14 10:26:13.40	164.35	12.38	
2025-01-14 10:26:14.84	164.37	12.51	
2025-01-14 10:26:16.28	164.40	12.65	
2025-01-14 10:26:17.71	164.42	12.79	
2025-01-14 10:26:19.15	164.44	12.93	
2025-01-14 10:26:20.58	164.46	13.07	
2025-01-14 10:26:22.02	164.48	13.22	
2025-01-14 10:26:23.45	164.50	13.36	
2025-01-14 10:26:24.89	164.52	13.50	
2025-01-14 10:26:26.33	164.54	13.65	
2025-01-14 10:26:27.76	164.57	13.79	
2025-01-14 10:26:29.20	164.59	13.94	
2025-01-14 10:26:30.65	164.61	14.09	
2025-01-14 10:26:32.10	164.63	14.24	
2025-01-14 10:26:33.54	164.66	14.39	
2025-01-14 10:26:34.98	164.68	14.54	
2025-01-14 10:26:36.43	164.70	14.69	
2025-01-14 10:26:37.87	164.73	14.85	
2025-01-14 10:26:39.31	164.75	15.00	
2025-01-14 10:26:40.75	164.77	15.15	
2025-01-14 10:26:42.19	164.80	15.31	
2025-01-14 10:26:43.65	164.82	15.47	
2025-01-14 10:26:45.09	164.85	15.63	
2025-01-14 10:26:46.53	164.87	15.79	
2025-01-14 10:26:47.96	164.90	15.94	
2025-01-14 10:26:49.40	164.92	16.10	
2025-01-14 10:26:50.84	164.95	16.27	
2025-01-14 10:26:52.27	164.97	16.43	
2025-01-14 10:26:53.71	165.00	16.59	
2025-01-14 10:26:55.14	165.02	16.76	
2025-01-14 10:26:56.59	165.05	16.92	
2025-01-14 10:26:58.02	165.08	17.09	
2025-01-14 10:26:59.46	165.10	17.26	
2025-01-14 10:27:00.89	165.13	17.43	
2025-01-14 10:27:02.33	165.16	17.60	
2025-01-14 10:27:03.78	165.18	17.77	
2025-01-14 10:27:05.22	165.21	17.94	
2025-01-14 10:27:06.66	165.24	18.12	
2025-01-14 10:27:08.10	165.27	18.29	
2025-01-14 10:27:09.56	165.30	18.47	
2025-01-14 10:27:11.00	165.33	18.65	
2025-01-14 10:27:12.44	165.35	18.83	
2025-01-14 10:27:13.88	165.38	19.01	
2025-01-14 10:27:15.32	165.41	19.19	
2025-01-14 10:27:16.76	165.44	19.38	
2025-01-14 10:27:18.20	165.47	19.56	
2025-01-14 10:27:19.64	165.50	19.75	
2025-01-14 10:27:21.07	165.54	19.93	
2025-01-14 10:27:22.51	165.57	20.12	
2025-01-14 10:27:23.95	165.60	20.31	
2025-01-14 10:27:25.38	165.63	20.50	
2025-01-14 10:27:26.82	165.66	20.70	
2025-01-14 10:27:28.26	165.69	20.89	
2025-01-14 10:27:29.71	165.73	21.09	
2025-01-14 10:27:31.14	165.76	21.29	
2025-01-14 10:27:32.58	165.79	21.48	
2025-01-14 10:27:34.01	165.83	21.68	
2025-01-14 10:27:35.45	165.86	21.89	
2025-01-14 10:27:36.92	165.90	22.10	
2025-01-14 10:27:38.35	165.93	22.30	
2025-01-14 10:27:39.79	165.97	22.51	
2025-01-14 10:27:41.22	166.00	22.72	
2025-01-14 10:27:42.67	166.04	22.93	
2025-01-14 10:27:44.10	166.08	23.14	
2025-01-14 10:27:45.54	166.11	23.35	
2025-01-14 10:27:46.99	166.15	23.57	
2025-01-14 10:27:48.44	166.19	23.79	
2025-01-14 10:27:49.87	166.23	24.01	
2025-01-14 10:27:51.31	166.27	24.23	
2025-01-14 10:27:52.75	166.31	24.45	
2025-01-14 10:27:54.20	166.35	24.68	
2025-01-14 10:27:55.63	166.39	24.91	
2025-01-14 10:27:57.07	166.43	25.14	
2025-01-14 10:27:58.50	166.47	25.37	
2025-01-14 10:27:59.94	166.51	25.60	
2025-01-14 10:28:01.39	166.56	25.84	
2025-01-14 10:28:02.82	166.60	26.07	
2025-01-14 10:28:04.26	166.64	26.31	
2025-01-14 10:28:05.71	166.69	26.56	
2025-01-14 10:28:07.16	166.74	26.80	
2025-01-14 10:28:08.60	166.78	27.05	
2025-01-14 10:28:10.04	166.83	27.30	
2025-01-14 10:28:11.49	166.88	27.55	
2025-01-14 10:28:12.92	166.92	27.80	
2025-01-14 10:28:14.35	166.97	28.05	
2025-01-14 10:28:15.79	167.02	28.31	
2025-01-14 10:28:17.23	167.07	28.57	
2025-01-14 10:28:18.67	167.12	28.84	
2025-01-14 10:28:20.10	167.17	29.10	
2025-01-14 10:28:21.55	167.22	29.37	
2025-01-14 10:28:22.98	167.28	29.64	
2025-01-14 10:28:24.42	167.33	29.91	
2025-01-14 10:28:25.86	167.39	30.18	
2025-01-14 10:28:27.29	167.44	30.46	
2025-01-14 10:28:28.74	167.50	30.74	
2025-01-14 10:28:30.19	167.55	31.03	
2025-01-14 10:28:31.63	167.61	31.31	
2025-01-14 10:28:33.08	167.67	31.60	
2025-01-14 10:28:34.52	167.73	31.90	
2025-01-14 10:28:35.96	167.79	32.19	
2025-01-14 10:28:37.39	167.86	32.49	
2025-01-14 10:28:38.83	167.92	32.79	
2025-01-14 10:28:40.28	167.98	33.09	
2025-01-14 10:28:41.72	168.05	33.40	
2025-01-14 10:28:43.16	168.12	33.71	
2025-01-14 10:28:44.60	168.18	34.02	
2025-01-14 10:28:46.04	168.25	34.34	
2025-01-14 10:28:47.47	168.32	34.65	
2025-01-14 10:28:48.92	168.39	34.98	
2025-01-14 10:28:50.36	168.47	35.30	
2025-01-14 10:28:51.80	168.54	35.63	
2025-01-14 10:28:53.24	168.62	35.96	
2025-01-14 10:28:54.67	168.69	36.30	
2025-01-14 10:28:56.11	168.77	36.64	
2025-01-14 10:28:57.55	168.85	36.98	
2025-01-14 10:28:58.98	168.93	37.32	
2025-01-14 10:29:00.42	169.02	37.67	
2025-01-14 10:29:01.86	169.10	38.02	
2025-01-14 10:29:03.29	169.19	38.38	
2025-01-14 10:29:04.73	169.28	38.74	
2025-01-14 10:29:06.17	169.37	39.10	
2025-01-14 10:29:07.62	169.46	39.47	
2025-01-14 10:29:09.06	169.55	39.85	
2025-01-14 10:29:10.50	169.65	40.22	
2025-01-14 10:29:11.94	169.75	40.60	
2025-01-14 10:29:13.38	169.85	40.99	
2025-01-14 10:29:14.81	169.95	41.37	
2025-01-14 10:29:16.25	170.06	41.76	
2025-01-14 10:29:17.68	170.17	42.16	
2025-01-14 10:29:19.12	170.28	42.56	
2025-01-14 10:29:20.57	170.39	42.97	
2025-01-14 10:29:22.03	170.51	43.38	
2025-01-14 10:29:23.46	170.63	43.79	
2025-01-14 10:29:24.90	170.75	44.21	
2025-01-14 10:29:26.34	170.88	44.63	
2025-01-14 10:29:27.80	171.01	45.06	
2025-01-14 10:29:29.23	171.14	45.49	
2025-01-14 10:29:30.67	171.27	45.92	
2025-01-14 10:29:32.12	171.41	46.37	
2025-01-14 10:29:33.56	171.55	46.81	
2025-01-14 10:29:35.00	171.70	47.26	
2025-01-14 10:29:36.44	171.85	47.71	
2025-01-14 10:29:37.89	172.01	48.18	
2025-01-14 10:29:39.32	172.17	48.64	
2025-01-14 10:29:40.76	172.33	49.10	
2025-01-14 10:29:42.20	172.50	49.58	
2025-01-14 10:29:43.65	172.68	50.06	
2025-01-14 10:29:45.09	172.86	50.54	
2025-01-14 10:29:46.54	173.04	51.03	
2025-01-14 10:29:47.99	173.24	51.52	
2025-01-14 10:29:49.43	173.44	52.02	
2025-01-14 10:29:50.86	173.64	52.52	
2025-01-14 10:29:52.31	173.85	53.02	
2025-01-14 10:29:53.75	174.07	53.54	
2025-01-14 10:29:55.19	174.30	54.05	
2025-01-14 10:29:56.63	174.53	54.57	
2025-01-14 10:29:58.06	174.77	55.09	
2025-01-14 10:29:59.50	175.03	55.62	
2025-01-14 10:30:00.94	175.29	56.16	
2025-01-14 10:30:02.38	175.56	56.69	
2025-01-14 10:30:03.81	175.84	57.23	
2025-01-14 10:30:05.26	176.14	57.79	
2025-01-14 10:30:06.69	176.44	58.33	
2025-01-14 10:30:08.13	176.76	58.89	
2025-01-14 10:30:09.56	177.09	59.45	
2025-01-14 10:30:11.01	177.44	60.02	
2025-01-14 10:30:12.45	177.80	60.59	
2025-01-14 10:30:13.88	178.17	61.16	
2025-01-14 10:30:15.33	178.57	61.74	
2025-01-14 10:30:16.77	178.99	62.32	
2025-01-14 10:30:18.22	179.43	62.91	
2025-01-14 10:30:19.65	179.88	63.49	
2025-01-14 10:30:21.10	180.36	64.09	
2025-01-14 10:30:22.54	180.87	64.68	
2025-01-14 10:30:23.99	181.40	65.28	
2025-01-14 10:30:25.42	181.96	65.88	
2025-01-14 10:30:26.86	182.55	66.48	
2025-01-14 10:30:28.30	183.18	67.09	
2025-01-14 10:30:29.73	183.83	67.69	
2025-01-14 10:30:31.17	184.54	68.30	
2025-01-14 10:30:32.61	185.28	68.91	
2025-01-14 10:30:34.05	186.08	69.52	
2025-01-14 10:30:35.49	186.92	70.13	
2025-01-14 10:30:36.92	187.82	70.73	
2025-01-14 10:30:38.36	188.78	71.34	
2025-01-14 10:30:39.80	189.82	71.95	
2025-01-14 10:30:41.23	190.92	72.55	
2025-01-14 10:30:42.67	192.11	73.15	
2025-01-14 10:30:44.11	193.39	73.74	
2025-01-14 10:30:45.55	194.78	74.33	
2025-01-14 10:30:47.00	196.28	74.92	
2025-01-14 10:30:48.43	197.89	75.49	
2025-01-14 10:30:49.87	199.65	76.06	
2025-01-14 10:30:51.32	201.58	76.62	
2025-01-14 10:30:52.76	203.66	77.16	
2025-01-14 10:30:54.19	205.90	77.68	
2025-01-14 10:30:55.63	208.37	78.19	
2025-01-14 10:30:57.06	211.03	78.67	
2025-01-14 10:30:58.50	213.95	79.13	
2025-01-14 10:30:59.93	217.11	79.56	
2025-01-14 10:31:01.37	220.55	79.95	
2025-01-14 10:31:02.81	224.26	80.32	
2025-01-14 10:31:04.25	228.25	80.63	
2025-01-14 10:31:05.69	232.50	80.90	
2025-01-14 10:31:07.13	236.99	81.12	
2025-01-14 10:31:08.59	241.75	81.29	
2025-01-14 10:31:10.03	246.58	81.39	
2025-01-14 10:31:11.47	251.50	81.43	
2025-01-14 10:31:12.92	256.46	81.41	
2025-01-14 10:31:14.36	261.33	81.33	
2025-01-14 10:31:15.80	266.07	81.18	
2025-01-14 10:31:17.23	270.60	80.98	
2025-01-14 10:31:18.67	274.93	80.73	
2025-01-14 10:31:20.10	278.97	80.43	
2025-01-14 10:31:21.54	282.78	80.08	
2025-01-14 10:31:22.97	286.29	79.70	
2025-01-14 10:31:24.41	289.55	79.28	
2025-01-14 10:31:25.85	292.55	78.83	
2025-01-14 10:31:27.28	295.29	78.35	
2025-01-14 10:31:28.72	297.83	77.86	
2025-01-14 10:31:30.16	300.16	77.34	
2025-01-14 10:31:31.60	302.29	76.80	
2025-01-14 10:31:33.04	304.26	76.25	
2025-01-14 10:31:34.47	306.05	75.69	
2025-01-14 10:31:35.91	307.72	75.12	
2025-01-14 10:31:37.34	309.24	74.55	
2025-01-14 10:31:38.78	310.66	73.96	
2025-01-14 10:31:40.22	311.98	73.36	
2025-01-14 10:31:41.66	313.20	72.77	
2025-01-14 10:31:43.09	314.33	72.17	
2025-01-14 10:31:44.53	315.39	71.57	
2025-01-14 10:31:45.97	316.38	70.96	
2025-01-14 10:31:47.41	317.30	70.35	
2025-01-14 10:31:48.84	318.16	69.75	
2025-01-14 10:31:50.31	318.99	69.13	
2025-01-14 10:31:51.75	319.75	68.52	
2025-01-14 10:31:53.18	320.46	67.92	
2025-01-14 10:31:54.62	321.14	67.31	
2025-01-14 10:31:56.07	321.78	66.70	
2025-01-14 10:31:57.53	322.39	66.09	
2025-01-14 10:31:58.98	322.96	65.49	
2025-01-14 10:32:00.43	323.51	64.89	
2025-01-14 10:32:01.86	324.01	64.30	
2025-01-14 10:32:03.30	324.50	63.71	
2025-01-14 10:32:04.73	324.96	63.12	
2025-01-14 10:32:06.18	325.41	62.53	
2025-01-14 10:32:07.62	325.83	61.95	
2025-01-14 10:32:09.06	326.23	61.38	
2025-01-14 10:32:10.49	326.61	60.81	
2025-01-14 10:32:11.93	326.98	60.24	
2025-01-14 10:32:13.37	327.33	59.67	
2025-01-14 10:32:14.81	327.66	59.11	
2025-01-14 10:32:16.24	327.98	58.56	
2025-01-14 10:32:17.67	328.29	58.01	
2025-01-14 10:32:19.11	328.59	57.46	
2025-01-14 10:32:20.56	328.88	56.92	
2025-01-14 10:32:22.00	329.15	56.38	
2025-01-14 10:32:23.45	329.42	55.84	
2025-01-14 10:32:24.90	329.68	55.31	
2025-01-14 10:32:26.34	329.92	54.79	
2025-01-14 10:32:27.77	330.16	54.27	
2025-01-14 10:32:29.20	330.39	53.76	
2025-01-14 10:32:30.64	330.61	53.25	
2025-01-14 10:32:32.08	330.82	52.74	
2025-01-14 10:32:33.51	331.03	52.24	
2025-01-14 10:32:34.95	331.23	51.75	
2025-01-14 10:32:36.39	331.42	51.26	
2025-01-14 10:32:37.82	331.61	50.77	
2025-01-14 10:32:39.26	331.79	50.29	
2025-01-14 10:32:40.69	331.97	49.82	
2025-01-14 10:32:42.13	332.14	49.35	
2025-01-14 10:32:43.56	332.30	48.88	
2025-01-14 10:32:45.00	332.47	48.42	
2025-01-14 10:32:46.44	332.62	47.96	
2025-01-14 10:32:47.87	332.78	47.51	
2025-01-14 10:32:49.31	332.92	47.06	
2025-01-14 10:32:50.75	333.07	46.62	
2025-01-14 10:32:52.19	333.21	46.18	
2025-01-14 10:32:53.63	333.35	45.74	
2025-01-14 10:32:55.06	333.48	45.31	
2025-01-14 10:32:56.50	333.61	44.89	
2025-01-14 10:32:57.94	333.74	44.47	
2025-01-14 10:32:59.39	333.86	44.05	
2025-01-14 10:33:00.84	333.98	43.63	
2025-01-14 10:33:02.27	334.10	43.22	
2025-01-14 10:33:03.71	334.21	42.82	
2025-01-14 10:33:05.15	334.33	42.42	
2025-01-14 10:33:06.60	334.44	42.02	
2025-01-14 10:33:08.03	334.54	41.63	
2025-01-14 10:33:09.49	334.65	41.24	
2025-01-14 10:33:10.92	334.75	40.86	
2025-01-14 10:33:12.36	334.85	40.48	
2025-01-14 10:33:13.81	334.95	40.10	
2025-01-14 10:33:15.26	335.05	39.72	
2025-01-14 10:33:16.70	335.14	39.35	
2025-01-14 10:33:18.13	335.23	38.99	
2025-01-14 10:33:19.57	335.32	38.63	
2025-01-14 10:33:21.00	335.41	38.28	
2025-01-14 10:33:22.43	335.49	37.93	
2025-01-14 10:33:23.87	335.58	37.58	
2025-01-14 10:33:25.33	335.66	37.22	
2025-01-14 10:33:26.77	335.74	36.88	
2025-01-14 10:33:28.20	335.82	36.55	
2025-01-14 10:33:29.64	335.90	36.21	
2025-01-14 10:33:31.08	335.98	35.88	
2025-01-14 10:33:32.52	336.05	35.55	
2025-01-14 10:33:33.96	336.13	35.22	
2025-01-14 10:33:35.40	336.20	34.90	
2025-01-14 10:33:36.83	336.27	34.58	
2025-01-14 10:33:38.28	336.34	34.27	
2025-01-14 10:33:39.73	336.41	33.95	
2025-01-14 10:33:41.16	336.48	33.64	
2025-01-14 10:33:42.63	336.54	33.33	
2025-01-14 10:33:44.07	336.61	33.03	
2025-01-14 10:33:45.50	336.67	32.73	
2025-01-14 10:33:46.95	336.74	32.43	
2025-01-14 10:33:48.39	336.80	32.14	
2025-01-14 10:33:49.82	336.86	31.85	
2025-01-14 10:33:51.26	336.92	31.56	
2025-01-14 10:33:52.70	336.98	31.27	
2025-01-14 10:33:54.13	337.04	30.99	
2025-01-14 10:33:55.57	337.09	30.71	
2025-01-14 10:33:57.01	337.15	30.43	
2025-01-14 10:33:58.46	337.21	30.15	
2025-01-14 10:33:59.89	337.26	29.88	
2025-01-14 10:34:01.34	337.31	29.61	
2025-01-14 10:34:02.78	337.37	29.34	
2025-01-14 10:34:04.21	337.42	29.08	
2025-01-14 10:34:05.65	337.47	28.82	
2025-01-14 10:34:07.09	337.52	28.56	
2025-01-14 10:34:08.52	337.57	28.30	
2025-01-14 10:34:09.97	337.62	28.05	
2025-01-14 10:34:11.41	337.67	27.79	
2025-01-14 10:34:12.84	337.72	27.54	
2025-01-14 10:34:14.29	337.77	27.29	
2025-01-14 10:34:15.73	337.81	27.05	
2025-01-14 10:34:17.17	337.86	26.80	
2025-01-14 10:34:18.60	337.90	26.56	
2025-01-14 10:34:20.04	337.95	26.32	
2025-01-14 10:34:21.48	337.99	26.09	
2025-01-14 10:34:22.91	338.04	25.85	
2025-01-14 10:34:24.35	338.08	25.62	
2025-01-14 10:34:25.79	338.12	25.39	
2025-01-14 10:34:27.22	338.17	25.16	
2025-01-14 10:34:28.66	338.21	24.93	
2025-01-14 10:34:30.10	338.25	24.71	
2025-01-14 10:34:31.53	338.29	24.48	
2025-01-14 10:34:32.97	338.33	24.26	
2025-01-14 10:34:34.41	338.37	24.04	
2025-01-14 10:34:35.84	338.41	23.83	
2025-01-14 10:34:37.28	338.45	23.61	
2025-01-14 10:34:38.71	338.48	23.40	
2025-01-14 10:34:40.15	338.52	23.18	
2025-01-14 10:34:41.58	338.56	22.97	
2025-01-14 10:34:43.02	338.60	22.76	
2025-01-14 10:34:44.47	338.63	22.56	
2025-01-14 10:34:45.91	338.67	22.35	
2025-01-14 10:34:47.35	338.70	22.14	
2025-01-14 10:34:48.80	338.74	21.94	
2025-01-14 10:34:50.24	338.78	21.74	
2025-01-14 10:34:51.67	338.81	21.54	
2025-01-14 10:34:53.11	338.84	21.34	
2025-01-14 10:34:54.56	338.88	21.15	
2025-01-14 10:34:56.02	338.91	20.95	
2025-01-14 10:34:57.47	338.95	20.75	
2025-01-14 10:34:58.91	338.98	20.56	
2025-01-14 10:35:00.35	339.01	20.37	
2025-01-14 10:35:01.79	339.04	20.18	
2025-01-14 10:35:03.22	339.08	20.00	
2025-01-14 10:35:04.66	339.11	19.81	
2025-01-14 10:35:06.09	339.14	19.63	
2025-01-14 10:35:07.53	339.17	19.44	
2025-01-14 10:35:08.98	339.20	19.26	
2025-01-14 10:35:10.42	339.23	19.08	
2025-01-14 10:35:11.86	339.26	18.90	
2025-01-14 10:35:13.30	339.29	18.72	
2025-01-14 10:35:14.74	339.32	18.54	
2025-01-14 10:35:16.18	339.35	18.37	
2025-01-14 10:35:17.62	339.38	18.19	
2025-01-14 10:35:19.06	339.41	18.02	
2025-01-14 10:35:20.50	339.44	17.85	
2025-01-14 10:35:21.94	339.46	17.68	
2025-01-14 10:35:23.38	339.49	17.51	
2025-01-14 10:35:24.81	339.52	17.34	
2025-01-14 10:35:26.26	339.55	17.17	
2025-01-14 10:35:27.70	339.57	17.01	
2025-01-14 10:35:29.14	339.60	16.84	
2025-01-14 10:35:30.58	339.63	16.68	
2025-01-14 10:35:32.03	339.66	16.51	
2025-01-14 10:35:33.47	339.68	16.35	
2025-01-14 10:35:34.90	339.71	16.19	
2025-01-14 10:35:36.34	339.73	16.03	
2025-01-14 10:35:37.80	339.76	15.87	
2025-01-14 10:35:39.25	339.79	15.71	
2025-01-14 10:35:40.70	339.81	15.56	
2025-01-14 10:35:42.13	339.84	15.40	
2025-01-14 10:35:43.59	339.86	15.25	
2025-01-14 10:35:45.02	339.89	15.09	
2025-01-14 10:35:46.46	339.91	14.94	
2025-01-14 10:35:47.90	339.93	14.79	
2025-01-14 10:35:49.35	339.96	14.64	
2025-01-14 10:35:50.78	339.98	14.49	
2025-01-14 10:35:52.22	340.01	14.34	
2025-01-14 10:35:53.65	340.03	14.19	
2025-01-14 10:35:55.10	340.05	14.05	
2025-01-14 10:35:56.54	340.08	13.90	
2025-01-14 10:35:57.97	340.10	13.76	
2025-01-14 10:35:59.41	340.12	13.61	
2025-01-14 10:36:00.86	340.15	13.47	
2025-01-14 10:36:02.30	340.17	13.32	
2025-01-14 10:36:03.73	340.19	13.18	
2025-01-14 10:36:05.17	340.21	13.04	
2025-01-14 10:36:06.62	340.24	12.90	
2025-01-14 10:36:08.08	340.26	12.76	
2025-01-14 10:36:09.51	340.28	12.62	
2025-01-14 10:36:10.95	340.30	12.48	
2025-01-14 10:36:12.38	340.32	12.35	
2025-01-14 10:36:13.82	340.34	12.21	
2025-01-14 10:36:15.26	340.37	12.08	
2025-01-14 10:36:16.69	340.39	11.94	
2025-01-14 10:36:18.13	340.41	11.81	
2025-01-14 10:36:19.57	340.43	11.67	
2025-01-14 10:36:21.00	340.45	11.54	
2025-01-14 10:36:22.46	340.47	11.41	
2025-01-14 10:36:23.91	340.49	11.28	
2025-01-14 10:36:25.35	340.51	11.15	
2025-01-14 10:36:26.78	340.53	11.02	
2025-01-14 10:36:28.23	340.55	10.89	
2025-01-14 10:36:29.67	340.57	10.76	
2025-01-14 10:36:31.11	340.59	10.63	
2025-01-14 10:36:32.55	340.61	10.50	
2025-01-14 10:36:33.99	340.63	10.38	
2025-01-14 10:36:35.43	340.65	10.25	
2025-01-14 10:36:36.87	340.67	10.13	
2025-01-14 10:36:38.31	340.69	10.00	
2025-01-14 10:36:39.74	340.71	9.88	
2025-01-14 10:36:41.18	340.73	9.76	
2025-01-14 10:36:42.62	340.75	9.63	
2025-01-14 10:36:44.06	340.77	9.51	
2025-01-14 10:36:45.52	340.78	9.39	
2025-01-14 10:36:46.96	340.80	9.27	
2025-01-14 10:36:48.40	340.82	9.15	
2025-01-14 10:36:49.84	340.84	9.03	
2025-01-14 10:36:51.27	340.86	8.91	
2025-01-14 10:36:52.71	340.88	8.79	
2025-01-14 10:36:54.14	340.89	8.67	
2025-01-14 10:36:55.58	340.91	8.56	
2025-01-14 10:36:57.02	340.93	8.44	
2025-01-14 10:36:58.46	340.95	8.32	
2025-01-14 10:36:59.89	340.97	8.21	
2025-01-14 10:37:01.32	340.98	8.09	
2025-01-14 10:37:02.76	341.00	7.98	
2025-01-14 10:37:04.20	341.02	7.86	
2025-01-14 10:37:05.63	341.04	7.75	
2025-01-14 10:37:07.07	341.05	7.64	
2025-01-14 10:37:08.50	341.07	7.53	
2025-01-14 10:37:09.93	341.09	7.41	
2025-01-14 10:37:11.37	341.10	7.30	
2025-01-14 10:37:12.81	341.12	7.19	
2025-01-14 10:37:14.25	341.14	7.08	
2025-01-14 10:37:15.69	341.16	6.97	
2025-01-14 10:37:17.12	341.17	6.86	
2025-01-14 10:37:18.58	341.19	6.75	
2025-01-14 10:37:20.01	341.21	6.64	
2025-01-14 10:37:21.45	341.22	6.53	
2025-01-14 10:37:22.88	341.24	6.43	
2025-01-14 10:37:24.32	341.26	6.32	
2025-01-14 10:37:25.76	341.27	6.21	
2025-01-14 10:37:27.20	341.29	6.10	
2025-01-14 10:37:28.63	341.30	6.00	
2025-01-14 10:37:30.07	341.32	5.89	
2025-01-14 10:37:31.51	341.34	5.79	
2025-01-14 10:37:32.94	341.35	5.68	
2025-01-14 10:37:34.39	341.37	5.58	
2025-01-14 10:37:35.83	341.38	5.47	
2025-01-14 10:37:37.27	341.40	5.37	
2025-01-14 10:37:38.71	341.42	5.27	
2025-01-14 10:37:40.15	341.43	5.16	
2025-01-14 10:37:41.58	341.45	5.06	
2025-01-14 10:37:43.02	341.46	4.96	
2025-01-14 10:37:44.45	341.48	4.86	
2025-01-14 10:37:45.89	341.49	4.76	
2025-01-14 10:37:47.33	341.51	4.66	
2025-01-14 10:37:48.77	341.52	4.56	
2025-01-14 10:37:50.20	341.54	4.46	
2025-01-14 10:37:51.66	341.55	4.35	
2025-01-14 10:37:53.11	341.57	4.25	
2025-01-14 10:37:54.54	341.58	4.16	
2025-01-14 10:37:55.98	341.60	4.06	

#Closed at: 2025-01-14 10:37:57