passes_logs/2025/01/14/SPB_Silybum_02/SPB_Silybum_02__20250114_165735_TERRA_rec.log

#Pass ID: 20250114_165735_TERRA
#Satellite: TERRA
#Configuration: TERRA
#Start time: 2025-01-14 16:57:34

#Version: 2.0.20230423
#Station: SPB_Silybum_02
#Location: 30.233357 lon 59.946436 lat
#TLE: 1 25994U 99068A   25013.82437757  .00000752  00000+0  16464-3 0  9992
#TLE: 2 25994  98.0218  76.8921 0003482  75.0849  16.5253 14.60392614333908

#Time	Az	El	Level	Level2	SNR	BER	Gain	Gain2
2025-01-14 16:57:36.08	113.05	4.05	
2025-01-14 16:57:37.10	112.97	4.12	
2025-01-14 16:57:38.13	112.89	4.19	
2025-01-14 16:57:39.15	112.81	4.25	
2025-01-14 16:57:40.18	112.73	4.32	
2025-01-14 16:57:41.20	112.65	4.38	
2025-01-14 16:57:42.24	112.57	4.45	
2025-01-14 16:57:43.27	112.49	4.52	
2025-01-14 16:57:44.29	112.40	4.58	
2025-01-14 16:57:45.32	112.32	4.65	
2025-01-14 16:57:46.34	112.24	4.71	
2025-01-14 16:57:47.37	112.15	4.78	
2025-01-14 16:57:48.42	112.07	4.85	
2025-01-14 16:57:49.44	111.98	4.92	
2025-01-14 16:57:50.46	111.90	4.98	
2025-01-14 16:57:51.49	111.81	5.05	
2025-01-14 16:57:52.51	111.73	5.12	
2025-01-14 16:57:53.54	111.64	5.19	
2025-01-14 16:57:54.56	111.55	5.25	
2025-01-14 16:57:55.59	111.46	5.32	
2025-01-14 16:57:56.61	111.38	5.39	
2025-01-14 16:57:57.64	111.29	5.46	
2025-01-14 16:57:58.68	111.20	5.53	
2025-01-14 16:57:59.70	111.11	5.59	
2025-01-14 16:58:00.73	111.02	5.66	
2025-01-14 16:58:01.76	110.93	5.73	
2025-01-14 16:58:02.78	110.84	5.80	
2025-01-14 16:58:03.81	110.75	5.87	
2025-01-14 16:58:04.84	110.65	5.94	
2025-01-14 16:58:05.87	110.56	6.01	
2025-01-14 16:58:06.90	110.47	6.08	
2025-01-14 16:58:07.93	110.38	6.15	
2025-01-14 16:58:08.95	110.28	6.22	
2025-01-14 16:58:09.98	110.19	6.29	
2025-01-14 16:58:11.00	110.09	6.36	
2025-01-14 16:58:12.03	110.00	6.43	
2025-01-14 16:58:13.06	109.90	6.50	
2025-01-14 16:58:14.08	109.81	6.57	
2025-01-14 16:58:15.11	109.71	6.64	
2025-01-14 16:58:16.14	109.61	6.71	
2025-01-14 16:58:17.16	109.51	6.78	
2025-01-14 16:58:18.19	109.41	6.85	
2025-01-14 16:58:19.22	109.32	6.92	
2025-01-14 16:58:20.24	109.22	6.99	
2025-01-14 16:58:21.27	109.12	7.06	
2025-01-14 16:58:22.30	109.02	7.13	
2025-01-14 16:58:23.32	108.91	7.20	
2025-01-14 16:58:24.37	108.81	7.28	
2025-01-14 16:58:25.39	108.71	7.35	
2025-01-14 16:58:26.43	108.60	7.42	
2025-01-14 16:58:27.47	108.50	7.50	
2025-01-14 16:58:28.49	108.40	7.57	
2025-01-14 16:58:29.52	108.29	7.64	
2025-01-14 16:58:30.54	108.19	7.71	
2025-01-14 16:58:31.57	108.08	7.79	
2025-01-14 16:58:32.59	107.98	7.86	
2025-01-14 16:58:33.62	107.87	7.93	
2025-01-14 16:58:34.66	107.76	8.01	
2025-01-14 16:58:35.69	107.65	8.08	
2025-01-14 16:58:36.71	107.54	8.15	
2025-01-14 16:58:37.74	107.43	8.23	
2025-01-14 16:58:38.76	107.32	8.30	
2025-01-14 16:58:39.79	107.21	8.37	
2025-01-14 16:58:40.82	107.10	8.45	
2025-01-14 16:58:41.84	106.99	8.52	
2025-01-14 16:58:42.87	106.88	8.60	
2025-01-14 16:58:43.89	106.77	8.67	
2025-01-14 16:58:44.92	106.65	8.74	
2025-01-14 16:58:45.94	106.54	8.82	
2025-01-14 16:58:46.97	106.42	8.89	
2025-01-14 16:58:48.00	106.31	8.97	
2025-01-14 16:58:49.03	106.19	9.04	
2025-01-14 16:58:50.06	106.07	9.12	
2025-01-14 16:58:51.08	105.96	9.20	
2025-01-14 16:58:52.11	105.84	9.27	
2025-01-14 16:58:53.13	105.72	9.35	
2025-01-14 16:58:54.16	105.60	9.42	
2025-01-14 16:58:55.19	105.48	9.50	
2025-01-14 16:58:56.23	105.35	9.58	
2025-01-14 16:58:57.25	105.23	9.65	
2025-01-14 16:58:58.28	105.11	9.73	
2025-01-14 16:58:59.30	104.99	9.80	
2025-01-14 16:59:00.34	104.86	9.88	
2025-01-14 16:59:01.36	104.74	9.96	
2025-01-14 16:59:02.39	104.61	10.04	
2025-01-14 16:59:03.41	104.49	10.11	
2025-01-14 16:59:04.45	104.36	10.19	
2025-01-14 16:59:05.47	104.23	10.27	
2025-01-14 16:59:06.50	104.10	10.35	
2025-01-14 16:59:07.53	103.97	10.42	
2025-01-14 16:59:08.55	103.85	10.50	
2025-01-14 16:59:09.57	103.72	10.58	
2025-01-14 16:59:10.60	103.58	10.66	
2025-01-14 16:59:11.62	103.45	10.74	
2025-01-14 16:59:12.65	103.32	10.81	
2025-01-14 16:59:13.68	103.19	10.89	
2025-01-14 16:59:14.71	103.05	10.97	
2025-01-14 16:59:15.73	102.92	11.05	
2025-01-14 16:59:16.76	102.78	11.13	
2025-01-14 16:59:17.79	102.64	11.21	
2025-01-14 16:59:18.81	102.51	11.29	
2025-01-14 16:59:19.85	102.37	11.37	
2025-01-14 16:59:20.88	102.23	11.45	
2025-01-14 16:59:21.90	102.09	11.53	
2025-01-14 16:59:22.94	101.94	11.61	
2025-01-14 16:59:23.97	101.80	11.69	
2025-01-14 16:59:24.99	101.66	11.77	
2025-01-14 16:59:26.02	101.52	11.85	
2025-01-14 16:59:27.04	101.37	11.93	
2025-01-14 16:59:28.07	101.23	12.01	
2025-01-14 16:59:29.10	101.08	12.09	
2025-01-14 16:59:30.14	100.93	12.17	
2025-01-14 16:59:31.16	100.78	12.25	
2025-01-14 16:59:32.19	100.64	12.33	
2025-01-14 16:59:33.21	100.49	12.41	
2025-01-14 16:59:34.24	100.34	12.49	
2025-01-14 16:59:35.26	100.19	12.57	
2025-01-14 16:59:36.28	100.03	12.66	
2025-01-14 16:59:37.31	99.88	12.74	
2025-01-14 16:59:38.34	99.73	12.82	
2025-01-14 16:59:39.38	99.57	12.90	
2025-01-14 16:59:40.40	99.41	12.98	
2025-01-14 16:59:41.43	99.26	13.06	
2025-01-14 16:59:42.46	99.10	13.15	
2025-01-14 16:59:43.49	98.94	13.23	
2025-01-14 16:59:44.51	98.78	13.31	
2025-01-14 16:59:45.54	98.62	13.39	
2025-01-14 16:59:46.56	98.46	13.48	
2025-01-14 16:59:47.59	98.29	13.56	
2025-01-14 16:59:48.61	98.13	13.64	
2025-01-14 16:59:49.64	97.97	13.72	
2025-01-14 16:59:50.68	97.80	13.81	
2025-01-14 16:59:51.72	97.63	13.89	
2025-01-14 16:59:52.76	97.46	13.97	
2025-01-14 16:59:53.79	97.29	14.06	
2025-01-14 16:59:54.81	97.12	14.14	
2025-01-14 16:59:55.86	96.95	14.23	
2025-01-14 16:59:56.89	96.77	14.31	
2025-01-14 16:59:57.92	96.60	14.39	
2025-01-14 16:59:58.94	96.43	14.47	
2025-01-14 16:59:59.96	96.25	14.56	
2025-01-14 17:00:01.00	96.08	14.64	
2025-01-14 17:00:02.03	95.90	14.73	
2025-01-14 17:00:03.06	95.72	14.81	
2025-01-14 17:00:04.08	95.54	14.89	
2025-01-14 17:00:05.11	95.36	14.98	
2025-01-14 17:00:06.13	95.18	15.06	
2025-01-14 17:00:07.17	94.99	15.14	
2025-01-14 17:00:08.21	94.81	15.23	
2025-01-14 17:00:09.24	94.62	15.31	
2025-01-14 17:00:10.27	94.44	15.40	
2025-01-14 17:00:11.30	94.25	15.48	
2025-01-14 17:00:12.32	94.06	15.57	
2025-01-14 17:00:13.35	93.87	15.65	
2025-01-14 17:00:14.38	93.68	15.73	
2025-01-14 17:00:15.41	93.49	15.82	
2025-01-14 17:00:16.43	93.30	15.90	
2025-01-14 17:00:17.46	93.10	15.99	
2025-01-14 17:00:18.48	92.91	16.07	
2025-01-14 17:00:19.52	92.71	16.15	
2025-01-14 17:00:20.54	92.51	16.24	
2025-01-14 17:00:21.57	92.31	16.32	
2025-01-14 17:00:22.59	92.11	16.40	
2025-01-14 17:00:23.62	91.91	16.49	
2025-01-14 17:00:24.64	91.71	16.57	
2025-01-14 17:00:25.69	91.50	16.66	
2025-01-14 17:00:26.71	91.30	16.74	
2025-01-14 17:00:27.75	91.09	16.83	
2025-01-14 17:00:28.78	90.88	16.91	
2025-01-14 17:00:29.80	90.68	16.99	
2025-01-14 17:00:30.83	90.47	17.08	
2025-01-14 17:00:31.85	90.26	17.16	
2025-01-14 17:00:32.88	90.04	17.24	
2025-01-14 17:00:33.90	89.83	17.33	
2025-01-14 17:00:34.93	89.62	17.41	
2025-01-14 17:00:35.96	89.40	17.49	
2025-01-14 17:00:36.98	89.18	17.57	
2025-01-14 17:00:38.01	88.96	17.66	
2025-01-14 17:00:39.03	88.75	17.74	
2025-01-14 17:00:40.06	88.52	17.82	
2025-01-14 17:00:41.09	88.30	17.91	
2025-01-14 17:00:42.12	88.08	17.99	
2025-01-14 17:00:43.14	87.85	18.07	
2025-01-14 17:00:44.17	87.63	18.15	
2025-01-14 17:00:45.20	87.40	18.24	
2025-01-14 17:00:46.22	87.17	18.32	
2025-01-14 17:00:47.25	86.94	18.40	
2025-01-14 17:00:48.29	86.70	18.48	
2025-01-14 17:00:49.31	86.47	18.56	
2025-01-14 17:00:50.34	86.24	18.64	
2025-01-14 17:00:51.37	86.00	18.73	
2025-01-14 17:00:52.40	85.76	18.81	
2025-01-14 17:00:53.42	85.53	18.89	
2025-01-14 17:00:54.44	85.29	18.97	
2025-01-14 17:00:55.48	85.05	19.05	
2025-01-14 17:00:56.50	84.80	19.13	
2025-01-14 17:00:57.53	84.56	19.21	
2025-01-14 17:00:58.55	84.32	19.29	
2025-01-14 17:00:59.58	84.07	19.37	
2025-01-14 17:01:00.61	83.82	19.45	
2025-01-14 17:01:01.63	83.57	19.52	
2025-01-14 17:01:02.66	83.32	19.60	
2025-01-14 17:01:03.69	83.07	19.68	
2025-01-14 17:01:04.71	82.82	19.76	
2025-01-14 17:01:05.74	82.56	19.84	
2025-01-14 17:01:06.76	82.31	19.91	
2025-01-14 17:01:07.78	82.05	19.99	
2025-01-14 17:01:08.80	81.80	20.07	
2025-01-14 17:01:09.83	81.54	20.14	
2025-01-14 17:01:10.86	81.27	20.22	
2025-01-14 17:01:11.89	81.01	20.29	
2025-01-14 17:01:12.91	80.75	20.37	
2025-01-14 17:01:13.94	80.48	20.44	
2025-01-14 17:01:14.96	80.22	20.52	
2025-01-14 17:01:15.99	79.95	20.59	
2025-01-14 17:01:17.01	79.68	20.67	
2025-01-14 17:01:18.05	79.41	20.74	
2025-01-14 17:01:19.09	79.13	20.81	
2025-01-14 17:01:20.13	78.85	20.89	
2025-01-14 17:01:21.17	78.58	20.96	
2025-01-14 17:01:22.19	78.30	21.03	
2025-01-14 17:01:23.22	78.02	21.10	
2025-01-14 17:01:24.25	77.74	21.17	
2025-01-14 17:01:25.27	77.46	21.24	
2025-01-14 17:01:26.31	77.18	21.31	
2025-01-14 17:01:27.34	76.90	21.38	
2025-01-14 17:01:28.36	76.61	21.45	
2025-01-14 17:01:29.38	76.33	21.52	
2025-01-14 17:01:30.41	76.04	21.59	
2025-01-14 17:01:31.45	75.75	21.65	
2025-01-14 17:01:32.48	75.46	21.72	
2025-01-14 17:01:33.51	75.17	21.79	
2025-01-14 17:01:34.54	74.87	21.85	
2025-01-14 17:01:35.57	74.58	21.92	
2025-01-14 17:01:36.59	74.29	21.98	
2025-01-14 17:01:37.62	73.99	22.05	
2025-01-14 17:01:38.64	73.69	22.11	
2025-01-14 17:01:39.67	73.39	22.17	
2025-01-14 17:01:40.69	73.10	22.23	
2025-01-14 17:01:41.72	72.79	22.29	
2025-01-14 17:01:42.75	72.49	22.35	
2025-01-14 17:01:43.78	72.19	22.41	
2025-01-14 17:01:44.80	71.88	22.47	
2025-01-14 17:01:45.83	71.58	22.53	
2025-01-14 17:01:46.86	71.27	22.59	
2025-01-14 17:01:47.88	70.96	22.64	
2025-01-14 17:01:48.92	70.65	22.70	
2025-01-14 17:01:49.95	70.34	22.76	
2025-01-14 17:01:50.97	70.03	22.81	
2025-01-14 17:01:52.01	69.71	22.87	
2025-01-14 17:01:53.04	69.40	22.92	
2025-01-14 17:01:54.06	69.08	22.97	
2025-01-14 17:01:55.09	68.76	23.02	
2025-01-14 17:01:56.12	68.45	23.07	
2025-01-14 17:01:57.14	68.13	23.12	
2025-01-14 17:01:58.19	67.80	23.17	
2025-01-14 17:01:59.22	67.48	23.22	
2025-01-14 17:02:00.24	67.16	23.27	
2025-01-14 17:02:01.27	66.84	23.32	
2025-01-14 17:02:02.29	66.52	23.36	
2025-01-14 17:02:03.32	66.19	23.41	
2025-01-14 17:02:04.35	65.86	23.45	
2025-01-14 17:02:05.37	65.54	23.49	
2025-01-14 17:02:06.40	65.21	23.54	
2025-01-14 17:02:07.43	64.88	23.58	
2025-01-14 17:02:08.45	64.55	23.62	
2025-01-14 17:02:09.49	64.22	23.66	
2025-01-14 17:02:10.51	63.89	23.70	
2025-01-14 17:02:11.54	63.56	23.73	
2025-01-14 17:02:12.56	63.23	23.77	
2025-01-14 17:02:13.61	62.89	23.81	
2025-01-14 17:02:14.64	62.55	23.84	
2025-01-14 17:02:15.67	62.22	23.88	
2025-01-14 17:02:16.69	61.88	23.91	
2025-01-14 17:02:17.71	61.55	23.94	
2025-01-14 17:02:18.74	61.21	23.97	
2025-01-14 17:02:19.78	60.87	24.00	
2025-01-14 17:02:20.81	60.53	24.03	
2025-01-14 17:02:21.83	60.19	24.06	
2025-01-14 17:02:22.86	59.85	24.09	
2025-01-14 17:02:23.89	59.51	24.11	
2025-01-14 17:02:24.91	59.17	24.14	
2025-01-14 17:02:25.94	58.83	24.16	
2025-01-14 17:02:26.97	58.48	24.18	
2025-01-14 17:02:27.99	58.14	24.20	
2025-01-14 17:02:29.02	57.80	24.22	
2025-01-14 17:02:30.05	57.46	24.24	
2025-01-14 17:02:31.07	57.11	24.26	
2025-01-14 17:02:32.10	56.77	24.28	
2025-01-14 17:02:33.13	56.42	24.30	
2025-01-14 17:02:34.15	56.08	24.31	
2025-01-14 17:02:35.18	55.73	24.33	
2025-01-14 17:02:36.20	55.39	24.34	
2025-01-14 17:02:37.23	55.04	24.35	
2025-01-14 17:02:38.27	54.69	24.36	
2025-01-14 17:02:39.29	54.35	24.37	
2025-01-14 17:02:40.32	54.00	24.38	
2025-01-14 17:02:41.35	53.65	24.39	
2025-01-14 17:02:42.37	53.31	24.39	
2025-01-14 17:02:43.40	52.96	24.40	
2025-01-14 17:02:44.43	52.61	24.40	
2025-01-14 17:02:45.45	52.27	24.41	
2025-01-14 17:02:46.48	51.92	24.41	
2025-01-14 17:02:47.51	51.57	24.41	
2025-01-14 17:02:48.54	51.22	24.41	
2025-01-14 17:02:49.57	50.87	24.41	
2025-01-14 17:02:50.60	50.53	24.41	
2025-01-14 17:02:51.62	50.18	24.40	
2025-01-14 17:02:52.65	49.83	24.40	
2025-01-14 17:02:53.68	49.48	24.39	
2025-01-14 17:02:54.71	49.14	24.39	
2025-01-14 17:02:55.73	48.79	24.38	
2025-01-14 17:02:56.77	48.44	24.37	
2025-01-14 17:02:57.80	48.09	24.36	
2025-01-14 17:02:58.82	47.75	24.35	
2025-01-14 17:02:59.85	47.40	24.34	
2025-01-14 17:03:00.88	47.06	24.32	
2025-01-14 17:03:01.90	46.71	24.31	
2025-01-14 17:03:02.93	46.37	24.29	
2025-01-14 17:03:03.96	46.02	24.28	
2025-01-14 17:03:04.98	45.68	24.26	
2025-01-14 17:03:06.01	45.34	24.24	
2025-01-14 17:03:07.03	45.00	24.22	
2025-01-14 17:03:08.06	44.65	24.20	
2025-01-14 17:03:09.10	44.31	24.18	
2025-01-14 17:03:10.14	43.96	24.16	
2025-01-14 17:03:11.16	43.62	24.13	
2025-01-14 17:03:12.19	43.28	24.11	
2025-01-14 17:03:13.22	42.94	24.08	
2025-01-14 17:03:14.24	42.60	24.05	
2025-01-14 17:03:15.27	42.26	24.03	
2025-01-14 17:03:16.31	41.92	24.00	
2025-01-14 17:03:17.34	41.58	23.97	
2025-01-14 17:03:18.37	41.24	23.93	
2025-01-14 17:03:19.39	40.91	23.90	
2025-01-14 17:03:20.42	40.57	23.87	
2025-01-14 17:03:21.45	40.24	23.84	
2025-01-14 17:03:22.48	39.90	23.80	
2025-01-14 17:03:23.50	39.57	23.77	
2025-01-14 17:03:24.53	39.24	23.73	
2025-01-14 17:03:25.56	38.91	23.69	
2025-01-14 17:03:26.59	38.58	23.65	
2025-01-14 17:03:27.61	38.25	23.61	
2025-01-14 17:03:28.64	37.92	23.57	
2025-01-14 17:03:29.67	37.59	23.53	
2025-01-14 17:03:30.70	37.26	23.49	
2025-01-14 17:03:31.73	36.94	23.44	
2025-01-14 17:03:32.77	36.61	23.40	
2025-01-14 17:03:33.79	36.29	23.35	
2025-01-14 17:03:34.82	35.96	23.31	
2025-01-14 17:03:35.84	35.64	23.26	
2025-01-14 17:03:36.87	35.32	23.21	
2025-01-14 17:03:37.90	35.00	23.17	
2025-01-14 17:03:38.94	34.68	23.12	
2025-01-14 17:03:39.96	34.36	23.07	
2025-01-14 17:03:40.99	34.05	23.02	
2025-01-14 17:03:42.01	33.73	22.96	
2025-01-14 17:03:43.04	33.42	22.91	
2025-01-14 17:03:44.06	33.11	22.86	
2025-01-14 17:03:45.08	32.80	22.81	
2025-01-14 17:03:46.11	32.48	22.75	
2025-01-14 17:03:47.13	32.18	22.70	
2025-01-14 17:03:48.16	31.87	22.64	
2025-01-14 17:03:49.19	31.56	22.58	
2025-01-14 17:03:50.21	31.26	22.52	
2025-01-14 17:03:51.23	30.95	22.47	
2025-01-14 17:03:52.26	30.65	22.41	
2025-01-14 17:03:53.28	30.35	22.35	
2025-01-14 17:03:54.31	30.05	22.29	
2025-01-14 17:03:55.33	29.75	22.23	
2025-01-14 17:03:56.36	29.45	22.17	
2025-01-14 17:03:57.39	29.15	22.10	
2025-01-14 17:03:58.41	28.85	22.04	
2025-01-14 17:03:59.44	28.56	21.98	
2025-01-14 17:04:00.46	28.27	21.91	
2025-01-14 17:04:01.48	27.98	21.85	
2025-01-14 17:04:02.52	27.68	21.78	
2025-01-14 17:04:03.54	27.39	21.72	
2025-01-14 17:04:04.57	27.10	21.65	
2025-01-14 17:04:05.59	26.82	21.59	
2025-01-14 17:04:06.61	26.54	21.52	
2025-01-14 17:04:07.63	26.25	21.45	
2025-01-14 17:04:08.66	25.97	21.38	
2025-01-14 17:04:09.68	25.69	21.31	
2025-01-14 17:04:10.71	25.41	21.24	
2025-01-14 17:04:11.73	25.13	21.17	
2025-01-14 17:04:12.76	24.85	21.10	
2025-01-14 17:04:13.78	24.58	21.03	
2025-01-14 17:04:14.81	24.30	20.96	
2025-01-14 17:04:15.84	24.03	20.89	
2025-01-14 17:04:16.86	23.76	20.82	
2025-01-14 17:04:17.89	23.48	20.75	
2025-01-14 17:04:18.91	23.22	20.67	
2025-01-14 17:04:19.94	22.95	20.60	
2025-01-14 17:04:20.97	22.68	20.52	
2025-01-14 17:04:22.01	22.41	20.45	
2025-01-14 17:04:23.04	22.14	20.37	
2025-01-14 17:04:24.07	21.88	20.30	
2025-01-14 17:04:25.09	21.62	20.22	
2025-01-14 17:04:26.12	21.36	20.15	
2025-01-14 17:04:27.15	21.10	20.07	
2025-01-14 17:04:28.18	20.84	20.00	
2025-01-14 17:04:29.20	20.59	19.92	
2025-01-14 17:04:30.23	20.33	19.84	
2025-01-14 17:04:31.25	20.08	19.77	
2025-01-14 17:04:32.28	19.83	19.69	
2025-01-14 17:04:33.30	19.58	19.61	
2025-01-14 17:04:34.33	19.33	19.53	
2025-01-14 17:04:35.36	19.08	19.45	
2025-01-14 17:04:36.39	18.83	19.37	
2025-01-14 17:04:37.41	18.59	19.30	
2025-01-14 17:04:38.45	18.34	19.22	
2025-01-14 17:04:39.48	18.10	19.14	
2025-01-14 17:04:40.50	17.86	19.06	
2025-01-14 17:04:41.53	17.62	18.98	
2025-01-14 17:04:42.55	17.38	18.90	
2025-01-14 17:04:43.58	17.15	18.82	
2025-01-14 17:04:44.61	16.91	18.74	
2025-01-14 17:04:45.64	16.67	18.65	
2025-01-14 17:04:46.67	16.44	18.57	
2025-01-14 17:04:47.71	16.21	18.49	
2025-01-14 17:04:48.74	15.98	18.41	
2025-01-14 17:04:49.76	15.75	18.33	
2025-01-14 17:04:50.79	15.52	18.25	
2025-01-14 17:04:51.81	15.29	18.17	
2025-01-14 17:04:52.84	15.07	18.08	
2025-01-14 17:04:53.86	14.85	18.00	
2025-01-14 17:04:54.89	14.62	17.92	
2025-01-14 17:04:55.92	14.40	17.84	
2025-01-14 17:04:56.94	14.18	17.76	
2025-01-14 17:04:57.97	13.96	17.67	
2025-01-14 17:04:59.00	13.75	17.59	
2025-01-14 17:05:00.03	13.53	17.51	
2025-01-14 17:05:01.05	13.32	17.42	
2025-01-14 17:05:02.08	13.10	17.34	
2025-01-14 17:05:03.10	12.89	17.26	
2025-01-14 17:05:04.13	12.68	17.18	
2025-01-14 17:05:05.15	12.47	17.09	
2025-01-14 17:05:06.18	12.26	17.01	
2025-01-14 17:05:07.20	12.06	16.93	
2025-01-14 17:05:08.23	11.85	16.84	
2025-01-14 17:05:09.26	11.64	16.76	
2025-01-14 17:05:10.28	11.44	16.68	
2025-01-14 17:05:11.31	11.24	16.59	
2025-01-14 17:05:12.34	11.04	16.51	
2025-01-14 17:05:13.36	10.84	16.43	
2025-01-14 17:05:14.39	10.64	16.34	
2025-01-14 17:05:15.42	10.44	16.26	
2025-01-14 17:05:16.44	10.24	16.18	
2025-01-14 17:05:17.46	10.05	16.09	
2025-01-14 17:05:18.49	9.86	16.01	
2025-01-14 17:05:19.52	9.66	15.93	
2025-01-14 17:05:20.54	9.47	15.84	
2025-01-14 17:05:21.57	9.28	15.76	
2025-01-14 17:05:22.59	9.09	15.68	
2025-01-14 17:05:23.63	8.90	15.59	
2025-01-14 17:05:24.66	8.71	15.51	
2025-01-14 17:05:25.69	8.53	15.42	
2025-01-14 17:05:26.71	8.34	15.34	
2025-01-14 17:05:27.74	8.16	15.26	
2025-01-14 17:05:28.77	7.98	15.17	
2025-01-14 17:05:29.79	7.80	15.09	
2025-01-14 17:05:30.81	7.62	15.01	
2025-01-14 17:05:31.84	7.44	14.92	
2025-01-14 17:05:32.87	7.26	14.84	
2025-01-14 17:05:33.89	7.08	14.76	
2025-01-14 17:05:34.92	6.91	14.68	
2025-01-14 17:05:35.96	6.73	14.59	
2025-01-14 17:05:36.98	6.56	14.51	
2025-01-14 17:05:38.01	6.38	14.43	
2025-01-14 17:05:39.03	6.21	14.34	
2025-01-14 17:05:40.07	6.04	14.26	
2025-01-14 17:05:41.10	5.87	14.18	
2025-01-14 17:05:42.13	5.70	14.09	
2025-01-14 17:05:43.17	5.53	14.01	
2025-01-14 17:05:44.19	5.36	13.93	
2025-01-14 17:05:45.22	5.20	13.85	
2025-01-14 17:05:46.24	5.03	13.76	
2025-01-14 17:05:47.27	4.87	13.68	
2025-01-14 17:05:48.29	4.71	13.60	
2025-01-14 17:05:49.32	4.55	13.52	
2025-01-14 17:05:50.35	4.38	13.43	
2025-01-14 17:05:51.38	4.22	13.35	
2025-01-14 17:05:52.42	4.06	13.27	
2025-01-14 17:05:53.44	3.91	13.19	
2025-01-14 17:05:54.47	3.75	13.11	
2025-01-14 17:05:55.50	3.59	13.02	
2025-01-14 17:05:56.53	3.44	12.94	
2025-01-14 17:05:57.55	3.28	12.86	
2025-01-14 17:05:58.59	3.13	12.78	
2025-01-14 17:05:59.62	2.98	12.70	
2025-01-14 17:06:00.64	2.83	12.62	
2025-01-14 17:06:01.67	2.67	12.54	
2025-01-14 17:06:02.70	2.52	12.46	
2025-01-14 17:06:03.72	2.38	12.38	
2025-01-14 17:06:04.74	2.23	12.30	
2025-01-14 17:06:05.77	2.08	12.22	
2025-01-14 17:06:06.80	1.94	12.13	
2025-01-14 17:06:07.83	1.79	12.05	
2025-01-14 17:06:08.87	1.64	11.97	
2025-01-14 17:06:09.89	1.50	11.89	
2025-01-14 17:06:10.92	1.36	11.81	
2025-01-14 17:06:11.94	1.22	11.73	
2025-01-14 17:06:12.98	1.08	11.65	
2025-01-14 17:06:14.02	0.93	11.57	
2025-01-14 17:06:15.04	0.80	11.49	
2025-01-14 17:06:16.07	0.66	11.42	
2025-01-14 17:06:17.11	0.52	11.34	
2025-01-14 17:06:18.14	0.38	11.26	
2025-01-14 17:06:19.17	0.24	11.18	
2025-01-14 17:06:20.20	0.11	11.10	
2025-01-14 17:06:21.22	359.98	11.02	
2025-01-14 17:06:22.25	359.84	10.94	
2025-01-14 17:06:23.28	359.71	10.86	
2025-01-14 17:06:24.30	359.58	10.79	
2025-01-14 17:06:25.33	359.45	10.71	
2025-01-14 17:06:26.35	359.32	10.63	
2025-01-14 17:06:27.38	359.19	10.55	
2025-01-14 17:06:28.41	359.06	10.47	
2025-01-14 17:06:29.43	358.93	10.40	
2025-01-14 17:06:30.47	358.80	10.32	
2025-01-14 17:06:31.49	358.68	10.24	
2025-01-14 17:06:32.52	358.55	10.16	
2025-01-14 17:06:33.54	358.43	10.09	
2025-01-14 17:06:34.57	358.30	10.01	
2025-01-14 17:06:35.59	358.18	9.94	
2025-01-14 17:06:36.62	358.06	9.86	
2025-01-14 17:06:37.66	357.93	9.78	
2025-01-14 17:06:38.68	357.81	9.71	
2025-01-14 17:06:39.70	357.69	9.63	
2025-01-14 17:06:40.73	357.57	9.55	
2025-01-14 17:06:41.75	357.45	9.48	
2025-01-14 17:06:42.78	357.33	9.40	
2025-01-14 17:06:43.81	357.21	9.33	
2025-01-14 17:06:44.84	357.10	9.25	
2025-01-14 17:06:45.87	356.98	9.18	
2025-01-14 17:06:46.90	356.86	9.10	
2025-01-14 17:06:47.92	356.75	9.03	
2025-01-14 17:06:48.95	356.63	8.95	
2025-01-14 17:06:49.97	356.52	8.88	
2025-01-14 17:06:51.01	356.41	8.80	
2025-01-14 17:06:52.04	356.29	8.73	
2025-01-14 17:06:53.06	356.18	8.65	
2025-01-14 17:06:54.09	356.07	8.58	
2025-01-14 17:06:55.12	355.96	8.50	
2025-01-14 17:06:56.14	355.85	8.43	
2025-01-14 17:06:57.17	355.74	8.36	
2025-01-14 17:06:58.19	355.63	8.28	
2025-01-14 17:06:59.22	355.52	8.21	
2025-01-14 17:07:00.24	355.41	8.14	
2025-01-14 17:07:01.27	355.31	8.07	
2025-01-14 17:07:02.29	355.20	7.99	
2025-01-14 17:07:03.32	355.10	7.92	
2025-01-14 17:07:04.34	354.99	7.85	
2025-01-14 17:07:05.37	354.89	7.77	
2025-01-14 17:07:06.40	354.78	7.70	
2025-01-14 17:07:07.42	354.68	7.63	
2025-01-14 17:07:08.45	354.58	7.56	
2025-01-14 17:07:09.47	354.47	7.49	
2025-01-14 17:07:10.50	354.37	7.41	
2025-01-14 17:07:11.52	354.27	7.34	
2025-01-14 17:07:12.55	354.17	7.27	
2025-01-14 17:07:13.58	354.07	7.20	
2025-01-14 17:07:14.61	353.97	7.13	
2025-01-14 17:07:15.63	353.87	7.06	
2025-01-14 17:07:16.67	353.77	6.99	
2025-01-14 17:07:17.70	353.67	6.92	
2025-01-14 17:07:18.74	353.57	6.84	
2025-01-14 17:07:19.76	353.48	6.77	
2025-01-14 17:07:20.79	353.38	6.70	
2025-01-14 17:07:21.81	353.29	6.63	
2025-01-14 17:07:22.86	353.19	6.56	
2025-01-14 17:07:23.90	353.09	6.49	
2025-01-14 17:07:24.92	353.00	6.42	
2025-01-14 17:07:25.95	352.90	6.35	
2025-01-14 17:07:26.98	352.81	6.28	
2025-01-14 17:07:28.01	352.72	6.21	
2025-01-14 17:07:29.03	352.63	6.14	
2025-01-14 17:07:30.06	352.53	6.07	
2025-01-14 17:07:31.09	352.44	6.01	
2025-01-14 17:07:32.11	352.35	5.94	
2025-01-14 17:07:33.14	352.26	5.87	
2025-01-14 17:07:34.17	352.17	5.80	
2025-01-14 17:07:35.19	352.08	5.73	
2025-01-14 17:07:36.22	351.99	5.66	
2025-01-14 17:07:37.24	351.91	5.60	
2025-01-14 17:07:38.28	351.82	5.53	
2025-01-14 17:07:39.31	351.73	5.46	
2025-01-14 17:07:40.34	351.64	5.39	
2025-01-14 17:07:41.36	351.56	5.32	
2025-01-14 17:07:42.40	351.47	5.25	
2025-01-14 17:07:43.42	351.38	5.19	
2025-01-14 17:07:44.45	351.30	5.12	
2025-01-14 17:07:45.48	351.21	5.05	
2025-01-14 17:07:46.50	351.13	4.99	
2025-01-14 17:07:47.53	351.04	4.92	
2025-01-14 17:07:48.55	350.96	4.85	
2025-01-14 17:07:49.58	350.88	4.79	
2025-01-14 17:07:50.60	350.80	4.72	
2025-01-14 17:07:51.63	350.71	4.65	
2025-01-14 17:07:52.65	350.63	4.59	
2025-01-14 17:07:53.68	350.55	4.52	
2025-01-14 17:07:54.71	350.47	4.46	
2025-01-14 17:07:55.74	350.39	4.39	
2025-01-14 17:07:56.76	350.31	4.32	
2025-01-14 17:07:57.79	350.23	4.26	
2025-01-14 17:07:58.81	350.15	4.19	
2025-01-14 17:07:59.85	350.07	4.13	
2025-01-14 17:08:00.88	349.99	4.06	

#Closed at: 2025-01-14 17:08:01