passes_logs/2025/01/14/SPB_Silybum_02/SPB_Silybum_02__20250114_070810_SUOMI_NPP_rec.log

#Pass ID: 20250114_070810_SUOMI NPP
#Satellite: SUOMI NPP
#Configuration: NPP
#Start time: 2025-01-14 07:08:10

#Version: 2.0.20230423
#Station: SPB_Silybum_02
#Location: 30.233357 lon 59.946436 lat
#TLE: 1 37849U 11061A   25013.79210654  .00000158  00000+0  95823-4 0  9999
#TLE: 2 37849  98.7445 314.7959 0001726  42.6053 317.5257 14.19537607684746

#Time	Az	El	Level	Level2	SNR	BER	Gain	Gain2
2025-01-14 07:08:12.91	69.14	4.11	
2025-01-14 07:08:13.94	69.03	4.16	
2025-01-14 07:08:14.97	68.91	4.21	
2025-01-14 07:08:16.00	68.80	4.25	
2025-01-14 07:08:17.02	68.69	4.30	
2025-01-14 07:08:18.05	68.57	4.35	
2025-01-14 07:08:19.08	68.46	4.39	
2025-01-14 07:08:20.11	68.34	4.44	
2025-01-14 07:08:21.13	68.22	4.49	
2025-01-14 07:08:22.16	68.11	4.53	
2025-01-14 07:08:23.19	67.99	4.58	
2025-01-14 07:08:24.21	67.87	4.63	
2025-01-14 07:08:25.25	67.76	4.67	
2025-01-14 07:08:26.28	67.64	4.72	
2025-01-14 07:08:27.31	67.52	4.77	
2025-01-14 07:08:28.33	67.40	4.81	
2025-01-14 07:08:29.36	67.28	4.86	
2025-01-14 07:08:30.39	67.16	4.91	
2025-01-14 07:08:31.43	67.04	4.96	
2025-01-14 07:08:32.45	66.92	5.00	
2025-01-14 07:08:33.48	66.80	5.05	
2025-01-14 07:08:34.51	66.68	5.09	
2025-01-14 07:08:35.53	66.56	5.14	
2025-01-14 07:08:36.56	66.44	5.19	
2025-01-14 07:08:37.58	66.32	5.23	
2025-01-14 07:08:38.61	66.19	5.28	
2025-01-14 07:08:39.65	66.07	5.33	
2025-01-14 07:08:40.68	65.95	5.37	
2025-01-14 07:08:41.71	65.82	5.42	
2025-01-14 07:08:42.74	65.70	5.46	
2025-01-14 07:08:43.78	65.57	5.51	
2025-01-14 07:08:44.80	65.45	5.56	
2025-01-14 07:08:45.83	65.32	5.60	
2025-01-14 07:08:46.86	65.20	5.65	
2025-01-14 07:08:47.88	65.07	5.69	
2025-01-14 07:08:48.91	64.94	5.74	
2025-01-14 07:08:49.94	64.82	5.79	
2025-01-14 07:08:50.97	64.69	5.83	
2025-01-14 07:08:52.00	64.56	5.88	
2025-01-14 07:08:53.02	64.43	5.92	
2025-01-14 07:08:54.05	64.30	5.97	
2025-01-14 07:08:55.08	64.18	6.01	
2025-01-14 07:08:56.10	64.05	6.06	
2025-01-14 07:08:57.12	63.92	6.11	
2025-01-14 07:08:58.16	63.79	6.15	
2025-01-14 07:08:59.19	63.66	6.20	
2025-01-14 07:09:00.21	63.53	6.24	
2025-01-14 07:09:01.24	63.39	6.29	
2025-01-14 07:09:02.27	63.26	6.33	
2025-01-14 07:09:03.29	63.13	6.38	
2025-01-14 07:09:04.32	63.00	6.42	
2025-01-14 07:09:05.35	62.86	6.47	
2025-01-14 07:09:06.37	62.73	6.51	
2025-01-14 07:09:07.40	62.60	6.56	
2025-01-14 07:09:08.43	62.46	6.60	
2025-01-14 07:09:09.46	62.33	6.65	
2025-01-14 07:09:10.49	62.19	6.69	
2025-01-14 07:09:11.52	62.06	6.73	
2025-01-14 07:09:12.54	61.92	6.78	
2025-01-14 07:09:13.57	61.78	6.82	
2025-01-14 07:09:14.60	61.65	6.87	
2025-01-14 07:09:15.64	61.51	6.91	
2025-01-14 07:09:16.66	61.37	6.96	
2025-01-14 07:09:17.69	61.23	7.00	
2025-01-14 07:09:18.72	61.09	7.04	
2025-01-14 07:09:19.75	60.95	7.09	
2025-01-14 07:09:20.77	60.82	7.13	
2025-01-14 07:09:21.80	60.67	7.18	
2025-01-14 07:09:22.83	60.53	7.22	
2025-01-14 07:09:23.85	60.39	7.26	
2025-01-14 07:09:24.88	60.25	7.31	
2025-01-14 07:09:25.91	60.11	7.35	
2025-01-14 07:09:26.93	59.97	7.39	
2025-01-14 07:09:27.96	59.83	7.44	
2025-01-14 07:09:28.98	59.69	7.48	
2025-01-14 07:09:30.01	59.54	7.52	
2025-01-14 07:09:31.05	59.40	7.56	
2025-01-14 07:09:32.07	59.25	7.61	
2025-01-14 07:09:33.10	59.11	7.65	
2025-01-14 07:09:34.12	58.96	7.69	
2025-01-14 07:09:35.15	58.82	7.73	
2025-01-14 07:09:36.18	58.67	7.78	
2025-01-14 07:09:37.20	58.53	7.82	
2025-01-14 07:09:38.23	58.38	7.86	
2025-01-14 07:09:39.26	58.23	7.90	
2025-01-14 07:09:40.30	58.08	7.95	
2025-01-14 07:09:41.33	57.93	7.99	
2025-01-14 07:09:42.37	57.78	8.03	
2025-01-14 07:09:43.40	57.64	8.07	
2025-01-14 07:09:44.42	57.49	8.11	
2025-01-14 07:09:45.45	57.34	8.15	
2025-01-14 07:09:46.48	57.19	8.19	
2025-01-14 07:09:47.51	57.04	8.24	
2025-01-14 07:09:48.53	56.89	8.28	
2025-01-14 07:09:49.56	56.73	8.32	
2025-01-14 07:09:50.58	56.58	8.36	
2025-01-14 07:09:51.62	56.43	8.40	
2025-01-14 07:09:52.65	56.28	8.44	
2025-01-14 07:09:53.68	56.12	8.48	
2025-01-14 07:09:54.70	55.97	8.52	
2025-01-14 07:09:55.73	55.81	8.56	
2025-01-14 07:09:56.76	55.66	8.60	
2025-01-14 07:09:57.79	55.50	8.64	
2025-01-14 07:09:58.81	55.35	8.68	
2025-01-14 07:09:59.84	55.19	8.72	
2025-01-14 07:10:00.86	55.04	8.76	
2025-01-14 07:10:01.89	54.88	8.80	
2025-01-14 07:10:02.92	54.72	8.84	
2025-01-14 07:10:03.95	54.57	8.88	
2025-01-14 07:10:04.97	54.41	8.91	
2025-01-14 07:10:06.00	54.25	8.95	
2025-01-14 07:10:07.03	54.09	8.99	
2025-01-14 07:10:08.05	53.93	9.03	
2025-01-14 07:10:09.09	53.77	9.07	
2025-01-14 07:10:10.11	53.61	9.11	
2025-01-14 07:10:11.14	53.45	9.14	
2025-01-14 07:10:12.17	53.29	9.18	
2025-01-14 07:10:13.19	53.13	9.22	
2025-01-14 07:10:14.22	52.97	9.26	
2025-01-14 07:10:15.25	52.81	9.29	
2025-01-14 07:10:16.29	52.64	9.33	
2025-01-14 07:10:17.33	52.48	9.37	
2025-01-14 07:10:18.36	52.31	9.41	
2025-01-14 07:10:19.39	52.15	9.44	
2025-01-14 07:10:20.42	51.98	9.48	
2025-01-14 07:10:21.45	51.82	9.52	
2025-01-14 07:10:22.49	51.65	9.55	
2025-01-14 07:10:23.52	51.49	9.59	
2025-01-14 07:10:24.55	51.32	9.62	
2025-01-14 07:10:25.57	51.15	9.66	
2025-01-14 07:10:26.60	50.99	9.70	
2025-01-14 07:10:27.64	50.82	9.73	
2025-01-14 07:10:28.66	50.65	9.77	
2025-01-14 07:10:29.69	50.48	9.80	
2025-01-14 07:10:30.71	50.32	9.83	
2025-01-14 07:10:31.73	50.15	9.87	
2025-01-14 07:10:32.76	49.98	9.90	
2025-01-14 07:10:33.79	49.81	9.94	
2025-01-14 07:10:34.82	49.64	9.97	
2025-01-14 07:10:35.84	49.47	10.00	
2025-01-14 07:10:36.87	49.30	10.04	
2025-01-14 07:10:37.89	49.13	10.07	
2025-01-14 07:10:38.92	48.96	10.10	
2025-01-14 07:10:39.94	48.79	10.14	
2025-01-14 07:10:40.97	48.61	10.17	
2025-01-14 07:10:42.00	48.44	10.20	
2025-01-14 07:10:43.02	48.27	10.23	
2025-01-14 07:10:44.05	48.10	10.27	
2025-01-14 07:10:45.07	47.92	10.30	
2025-01-14 07:10:46.10	47.75	10.33	
2025-01-14 07:10:47.12	47.57	10.36	
2025-01-14 07:10:48.15	47.40	10.39	
2025-01-14 07:10:49.17	47.22	10.42	
2025-01-14 07:10:50.20	47.05	10.45	
2025-01-14 07:10:51.22	46.87	10.48	
2025-01-14 07:10:52.25	46.70	10.51	
2025-01-14 07:10:53.28	46.52	10.54	
2025-01-14 07:10:54.31	46.34	10.57	
2025-01-14 07:10:55.33	46.17	10.60	
2025-01-14 07:10:56.36	45.99	10.63	
2025-01-14 07:10:57.38	45.81	10.66	
2025-01-14 07:10:58.42	45.63	10.69	
2025-01-14 07:10:59.46	45.45	10.72	
2025-01-14 07:11:00.48	45.27	10.75	
2025-01-14 07:11:01.52	45.09	10.78	
2025-01-14 07:11:02.54	44.91	10.80	
2025-01-14 07:11:03.56	44.73	10.83	
2025-01-14 07:11:04.58	44.55	10.86	
2025-01-14 07:11:05.60	44.37	10.89	
2025-01-14 07:11:06.63	44.19	10.91	
2025-01-14 07:11:07.65	44.01	10.94	
2025-01-14 07:11:08.68	43.83	10.97	
2025-01-14 07:11:09.71	43.64	10.99	
2025-01-14 07:11:10.75	43.46	11.02	
2025-01-14 07:11:11.79	43.27	11.05	
2025-01-14 07:11:12.82	43.09	11.07	
2025-01-14 07:11:13.85	42.91	11.10	
2025-01-14 07:11:14.88	42.72	11.12	
2025-01-14 07:11:15.90	42.54	11.15	
2025-01-14 07:11:16.93	42.35	11.17	
2025-01-14 07:11:17.95	42.17	11.19	
2025-01-14 07:11:18.98	41.98	11.22	
2025-01-14 07:11:20.01	41.80	11.24	
2025-01-14 07:11:21.03	41.61	11.26	
2025-01-14 07:11:22.06	41.43	11.29	
2025-01-14 07:11:23.08	41.24	11.31	
2025-01-14 07:11:24.11	41.05	11.33	
2025-01-14 07:11:25.14	40.87	11.36	
2025-01-14 07:11:26.17	40.68	11.38	
2025-01-14 07:11:27.19	40.49	11.40	
2025-01-14 07:11:28.22	40.30	11.42	
2025-01-14 07:11:29.24	40.12	11.44	
2025-01-14 07:11:30.26	39.93	11.46	
2025-01-14 07:11:31.29	39.74	11.48	
2025-01-14 07:11:32.31	39.55	11.50	
2025-01-14 07:11:33.34	39.36	11.52	
2025-01-14 07:11:34.37	39.17	11.54	
2025-01-14 07:11:35.40	38.98	11.56	
2025-01-14 07:11:36.44	38.79	11.58	
2025-01-14 07:11:37.47	38.60	11.60	
2025-01-14 07:11:38.52	38.41	11.62	
2025-01-14 07:11:39.55	38.22	11.64	
2025-01-14 07:11:40.58	38.02	11.66	
2025-01-14 07:11:41.60	37.83	11.67	
2025-01-14 07:11:42.63	37.64	11.69	
2025-01-14 07:11:43.66	37.45	11.71	
2025-01-14 07:11:44.69	37.26	11.72	
2025-01-14 07:11:45.71	37.07	11.74	
2025-01-14 07:11:46.74	36.87	11.76	
2025-01-14 07:11:47.77	36.68	11.77	
2025-01-14 07:11:48.80	36.49	11.79	
2025-01-14 07:11:49.82	36.30	11.80	
2025-01-14 07:11:50.85	36.10	11.82	
2025-01-14 07:11:51.87	35.91	11.83	
2025-01-14 07:11:52.90	35.72	11.85	
2025-01-14 07:11:53.93	35.52	11.86	
2025-01-14 07:11:54.95	35.33	11.87	
2025-01-14 07:11:55.98	35.14	11.89	
2025-01-14 07:11:57.01	34.94	11.90	
2025-01-14 07:11:58.03	34.75	11.91	
2025-01-14 07:11:59.06	34.55	11.93	
2025-01-14 07:12:00.10	34.36	11.94	
2025-01-14 07:12:01.13	34.16	11.95	
2025-01-14 07:12:02.15	33.97	11.96	
2025-01-14 07:12:03.18	33.77	11.97	
2025-01-14 07:12:04.21	33.58	11.98	
2025-01-14 07:12:05.23	33.38	11.99	
2025-01-14 07:12:06.26	33.19	12.00	
2025-01-14 07:12:07.29	32.99	12.01	
2025-01-14 07:12:08.31	32.80	12.02	
2025-01-14 07:12:09.34	32.60	12.03	
2025-01-14 07:12:10.36	32.41	12.04	
2025-01-14 07:12:11.39	32.21	12.05	
2025-01-14 07:12:12.41	32.01	12.06	
2025-01-14 07:12:13.44	31.82	12.07	
2025-01-14 07:12:14.47	31.62	12.07	
2025-01-14 07:12:15.49	31.42	12.08	
2025-01-14 07:12:16.52	31.23	12.09	
2025-01-14 07:12:17.54	31.03	12.09	
2025-01-14 07:12:18.57	30.83	12.10	
2025-01-14 07:12:19.61	30.64	12.11	
2025-01-14 07:12:20.65	30.44	12.11	
2025-01-14 07:12:21.69	30.24	12.12	
2025-01-14 07:12:22.71	30.04	12.12	
2025-01-14 07:12:23.74	29.84	12.13	
2025-01-14 07:12:24.76	29.65	12.13	
2025-01-14 07:12:25.79	29.45	12.14	
2025-01-14 07:12:26.82	29.25	12.14	
2025-01-14 07:12:27.84	29.06	12.14	
2025-01-14 07:12:28.87	28.86	12.15	
2025-01-14 07:12:29.89	28.66	12.15	
2025-01-14 07:12:30.92	28.46	12.15	
2025-01-14 07:12:31.94	28.27	12.15	
2025-01-14 07:12:32.97	28.07	12.15	
2025-01-14 07:12:34.00	27.87	12.16	
2025-01-14 07:12:35.03	27.67	12.16	
2025-01-14 07:12:36.05	27.48	12.16	
2025-01-14 07:12:37.08	27.28	12.16	
2025-01-14 07:12:38.10	27.08	12.16	
2025-01-14 07:12:39.13	26.88	12.16	
2025-01-14 07:12:40.15	26.69	12.16	
2025-01-14 07:12:41.18	26.49	12.16	
2025-01-14 07:12:42.21	26.29	12.15	
2025-01-14 07:12:43.23	26.10	12.15	
2025-01-14 07:12:44.26	25.90	12.15	
2025-01-14 07:12:45.29	25.70	12.15	
2025-01-14 07:12:46.32	25.50	12.15	
2025-01-14 07:12:47.34	25.31	12.14	
2025-01-14 07:12:48.37	25.11	12.14	
2025-01-14 07:12:49.39	24.91	12.14	
2025-01-14 07:12:50.42	24.71	12.13	
2025-01-14 07:12:51.44	24.52	12.13	
2025-01-14 07:12:52.47	24.32	12.12	
2025-01-14 07:12:53.50	24.12	12.12	
2025-01-14 07:12:54.54	23.92	12.11	
2025-01-14 07:12:55.56	23.73	12.11	
2025-01-14 07:12:56.59	23.53	12.10	
2025-01-14 07:12:57.62	23.33	12.09	
2025-01-14 07:12:58.65	23.14	12.09	
2025-01-14 07:12:59.67	22.94	12.08	
2025-01-14 07:13:00.70	22.74	12.07	
2025-01-14 07:13:01.72	22.55	12.07	
2025-01-14 07:13:02.75	22.35	12.06	
2025-01-14 07:13:03.78	22.16	12.05	
2025-01-14 07:13:04.82	21.96	12.04	
2025-01-14 07:13:05.85	21.76	12.03	
2025-01-14 07:13:06.89	21.56	12.02	
2025-01-14 07:13:07.92	21.37	12.01	
2025-01-14 07:13:08.94	21.17	12.00	
2025-01-14 07:13:09.98	20.97	11.99	
2025-01-14 07:13:11.01	20.78	11.98	
2025-01-14 07:13:12.04	20.58	11.97	
2025-01-14 07:13:13.07	20.39	11.96	
2025-01-14 07:13:14.09	20.19	11.95	
2025-01-14 07:13:15.12	20.00	11.94	
2025-01-14 07:13:16.14	19.81	11.92	
2025-01-14 07:13:17.17	19.61	11.91	
2025-01-14 07:13:18.20	19.42	11.90	
2025-01-14 07:13:19.23	19.22	11.89	
2025-01-14 07:13:20.26	19.03	11.87	
2025-01-14 07:13:21.30	18.83	11.86	
2025-01-14 07:13:22.33	18.64	11.84	
2025-01-14 07:13:23.35	18.45	11.83	
2025-01-14 07:13:24.38	18.25	11.82	
2025-01-14 07:13:25.40	18.06	11.80	
2025-01-14 07:13:26.43	17.87	11.79	
2025-01-14 07:13:27.47	17.67	11.77	
2025-01-14 07:13:28.51	17.48	11.75	
2025-01-14 07:13:29.55	17.28	11.74	
2025-01-14 07:13:30.57	17.09	11.72	
2025-01-14 07:13:31.60	16.90	11.70	
2025-01-14 07:13:32.63	16.71	11.69	
2025-01-14 07:13:33.67	16.52	11.67	
2025-01-14 07:13:34.71	16.32	11.65	
2025-01-14 07:13:35.74	16.13	11.63	
2025-01-14 07:13:36.76	15.94	11.62	
2025-01-14 07:13:37.79	15.75	11.60	
2025-01-14 07:13:38.83	15.56	11.58	
2025-01-14 07:13:39.87	15.37	11.56	
2025-01-14 07:13:40.91	15.18	11.54	
2025-01-14 07:13:41.94	14.99	11.52	
2025-01-14 07:13:42.96	14.80	11.50	
2025-01-14 07:13:43.99	14.61	11.48	
2025-01-14 07:13:45.02	14.42	11.46	
2025-01-14 07:13:46.04	14.24	11.44	
2025-01-14 07:13:47.07	14.05	11.42	
2025-01-14 07:13:48.10	13.86	11.39	
2025-01-14 07:13:49.13	13.67	11.37	
2025-01-14 07:13:50.15	13.49	11.35	
2025-01-14 07:13:51.18	13.30	11.33	
2025-01-14 07:13:52.21	13.11	11.31	
2025-01-14 07:13:53.23	12.93	11.28	
2025-01-14 07:13:54.26	12.74	11.26	
2025-01-14 07:13:55.29	12.56	11.24	
2025-01-14 07:13:56.33	12.37	11.21	
2025-01-14 07:13:57.36	12.18	11.19	
2025-01-14 07:13:58.39	12.00	11.16	
2025-01-14 07:13:59.41	11.81	11.14	
2025-01-14 07:14:00.44	11.63	11.12	
2025-01-14 07:14:01.46	11.45	11.09	
2025-01-14 07:14:02.49	11.26	11.07	
2025-01-14 07:14:03.52	11.08	11.04	
2025-01-14 07:14:04.54	10.90	11.01	
2025-01-14 07:14:05.56	10.72	10.99	
2025-01-14 07:14:06.61	10.53	10.96	
2025-01-14 07:14:07.63	10.35	10.94	
2025-01-14 07:14:08.66	10.17	10.91	
2025-01-14 07:14:09.68	9.99	10.88	
2025-01-14 07:14:10.71	9.81	10.85	
2025-01-14 07:14:11.75	9.63	10.83	
2025-01-14 07:14:12.78	9.45	10.80	
2025-01-14 07:14:13.80	9.27	10.77	
2025-01-14 07:14:14.83	9.09	10.74	
2025-01-14 07:14:15.86	8.91	10.71	
2025-01-14 07:14:16.88	8.73	10.69	
2025-01-14 07:14:17.91	8.55	10.66	
2025-01-14 07:14:18.94	8.38	10.63	
2025-01-14 07:14:19.97	8.20	10.60	
2025-01-14 07:14:20.99	8.02	10.57	
2025-01-14 07:14:22.02	7.85	10.54	
2025-01-14 07:14:23.04	7.67	10.51	
2025-01-14 07:14:24.07	7.49	10.48	
2025-01-14 07:14:25.10	7.32	10.45	
2025-01-14 07:14:26.12	7.14	10.42	
2025-01-14 07:14:27.15	6.97	10.39	
2025-01-14 07:14:28.18	6.79	10.35	
2025-01-14 07:14:29.21	6.62	10.32	
2025-01-14 07:14:30.23	6.45	10.29	
2025-01-14 07:14:31.26	6.27	10.26	
2025-01-14 07:14:32.29	6.10	10.23	
2025-01-14 07:14:33.33	5.92	10.20	
2025-01-14 07:14:34.35	5.75	10.16	
2025-01-14 07:14:35.38	5.58	10.13	
2025-01-14 07:14:36.40	5.41	10.10	
2025-01-14 07:14:37.43	5.24	10.06	
2025-01-14 07:14:38.46	5.07	10.03	
2025-01-14 07:14:39.49	4.90	10.00	
2025-01-14 07:14:40.51	4.73	9.96	
2025-01-14 07:14:41.54	4.56	9.93	
2025-01-14 07:14:42.56	4.39	9.90	
2025-01-14 07:14:43.58	4.23	9.86	
2025-01-14 07:14:44.61	4.06	9.83	
2025-01-14 07:14:45.64	3.89	9.79	
2025-01-14 07:14:46.66	3.72	9.76	
2025-01-14 07:14:47.69	3.56	9.72	
2025-01-14 07:14:48.72	3.39	9.69	
2025-01-14 07:14:49.75	3.22	9.65	
2025-01-14 07:14:50.78	3.06	9.62	
2025-01-14 07:14:51.81	2.89	9.58	
2025-01-14 07:14:52.83	2.73	9.55	
2025-01-14 07:14:53.86	2.56	9.51	
2025-01-14 07:14:54.89	2.40	9.47	
2025-01-14 07:14:55.92	2.23	9.44	
2025-01-14 07:14:56.95	2.07	9.40	
2025-01-14 07:14:57.98	1.91	9.36	
2025-01-14 07:14:59.01	1.74	9.33	
2025-01-14 07:15:00.03	1.58	9.29	
2025-01-14 07:15:01.06	1.42	9.25	
2025-01-14 07:15:02.09	1.26	9.22	
2025-01-14 07:15:03.13	1.10	9.18	
2025-01-14 07:15:04.16	0.94	9.14	
2025-01-14 07:15:05.22	0.77	9.10	
2025-01-14 07:15:06.24	0.61	9.06	
2025-01-14 07:15:07.27	0.45	9.02	
2025-01-14 07:15:08.32	0.29	8.98	
2025-01-14 07:15:09.34	0.13	8.95	
2025-01-14 07:15:10.37	359.98	8.91	
2025-01-14 07:15:11.40	359.82	8.87	
2025-01-14 07:15:12.44	359.66	8.83	
2025-01-14 07:15:13.47	359.50	8.79	
2025-01-14 07:15:14.49	359.35	8.75	
2025-01-14 07:15:15.52	359.19	8.71	
2025-01-14 07:15:16.54	359.04	8.67	
2025-01-14 07:15:17.57	358.88	8.63	
2025-01-14 07:15:18.60	358.73	8.59	
2025-01-14 07:15:19.63	358.57	8.55	
2025-01-14 07:15:20.66	358.42	8.51	
2025-01-14 07:15:21.69	358.27	8.47	
2025-01-14 07:15:22.72	358.11	8.43	
2025-01-14 07:15:23.75	357.96	8.39	
2025-01-14 07:15:24.77	357.81	8.35	
2025-01-14 07:15:25.80	357.66	8.31	
2025-01-14 07:15:26.82	357.51	8.27	
2025-01-14 07:15:27.85	357.36	8.23	
2025-01-14 07:15:28.88	357.21	8.19	
2025-01-14 07:15:29.91	357.06	8.15	
2025-01-14 07:15:30.93	356.91	8.11	
2025-01-14 07:15:31.96	356.76	8.06	
2025-01-14 07:15:32.99	356.61	8.02	
2025-01-14 07:15:34.01	356.47	7.98	
2025-01-14 07:15:35.04	356.32	7.94	
2025-01-14 07:15:36.07	356.17	7.90	
2025-01-14 07:15:37.09	356.03	7.86	
2025-01-14 07:15:38.12	355.88	7.81	
2025-01-14 07:15:39.16	355.73	7.77	
2025-01-14 07:15:40.18	355.59	7.73	
2025-01-14 07:15:41.21	355.44	7.69	
2025-01-14 07:15:42.24	355.30	7.64	
2025-01-14 07:15:43.27	355.15	7.60	
2025-01-14 07:15:44.30	355.01	7.56	
2025-01-14 07:15:45.32	354.87	7.52	
2025-01-14 07:15:46.35	354.73	7.47	
2025-01-14 07:15:47.38	354.58	7.43	
2025-01-14 07:15:48.41	354.44	7.39	
2025-01-14 07:15:49.43	354.30	7.34	
2025-01-14 07:15:50.46	354.16	7.30	
2025-01-14 07:15:51.49	354.02	7.26	
2025-01-14 07:15:52.52	353.88	7.21	
2025-01-14 07:15:53.54	353.74	7.17	
2025-01-14 07:15:54.57	353.60	7.13	
2025-01-14 07:15:55.59	353.46	7.08	
2025-01-14 07:15:56.62	353.32	7.04	
2025-01-14 07:15:57.65	353.19	7.00	
2025-01-14 07:15:58.67	353.05	6.95	
2025-01-14 07:15:59.70	352.91	6.91	
2025-01-14 07:16:00.72	352.78	6.86	
2025-01-14 07:16:01.77	352.64	6.82	
2025-01-14 07:16:02.79	352.50	6.77	
2025-01-14 07:16:03.82	352.37	6.73	
2025-01-14 07:16:04.85	352.23	6.69	
2025-01-14 07:16:05.88	352.10	6.64	
2025-01-14 07:16:06.90	351.96	6.60	
2025-01-14 07:16:07.93	351.83	6.55	
2025-01-14 07:16:08.96	351.70	6.51	
2025-01-14 07:16:09.99	351.56	6.46	
2025-01-14 07:16:11.03	351.43	6.42	
2025-01-14 07:16:12.05	351.30	6.37	
2025-01-14 07:16:13.10	351.16	6.33	
2025-01-14 07:16:14.12	351.03	6.28	
2025-01-14 07:16:15.15	350.90	6.24	
2025-01-14 07:16:16.17	350.77	6.19	
2025-01-14 07:16:17.20	350.64	6.15	
2025-01-14 07:16:18.23	350.51	6.10	
2025-01-14 07:16:19.27	350.38	6.06	
2025-01-14 07:16:20.30	350.25	6.01	
2025-01-14 07:16:21.33	350.12	5.96	
2025-01-14 07:16:22.37	350.00	5.92	
2025-01-14 07:16:23.40	349.87	5.87	
2025-01-14 07:16:24.42	349.74	5.83	
2025-01-14 07:16:25.45	349.61	5.78	
2025-01-14 07:16:26.47	349.49	5.74	
2025-01-14 07:16:27.50	349.36	5.69	
2025-01-14 07:16:28.53	349.24	5.64	
2025-01-14 07:16:29.55	349.11	5.60	
2025-01-14 07:16:30.58	348.99	5.55	
2025-01-14 07:16:31.61	348.86	5.51	
2025-01-14 07:16:32.64	348.74	5.46	
2025-01-14 07:16:33.68	348.62	5.41	
2025-01-14 07:16:34.70	348.49	5.37	
2025-01-14 07:16:35.73	348.37	5.32	
2025-01-14 07:16:36.76	348.25	5.28	
2025-01-14 07:16:37.78	348.13	5.23	
2025-01-14 07:16:38.81	348.01	5.18	
2025-01-14 07:16:39.83	347.89	5.14	
2025-01-14 07:16:40.87	347.76	5.09	
2025-01-14 07:16:41.90	347.64	5.04	
2025-01-14 07:16:42.92	347.52	5.00	
2025-01-14 07:16:43.95	347.40	4.95	
2025-01-14 07:16:44.98	347.29	4.91	
2025-01-14 07:16:46.00	347.17	4.86	
2025-01-14 07:16:47.03	347.05	4.81	
2025-01-14 07:16:48.06	346.93	4.77	
2025-01-14 07:16:49.08	346.81	4.72	
2025-01-14 07:16:50.11	346.70	4.67	
2025-01-14 07:16:51.14	346.58	4.63	
2025-01-14 07:16:52.17	346.46	4.58	
2025-01-14 07:16:53.21	346.35	4.53	
2025-01-14 07:16:54.24	346.23	4.49	
2025-01-14 07:16:55.26	346.12	4.44	
2025-01-14 07:16:56.29	346.00	4.39	
2025-01-14 07:16:57.33	345.88	4.34	
2025-01-14 07:16:58.36	345.77	4.30	
2025-01-14 07:16:59.38	345.66	4.25	
2025-01-14 07:17:00.41	345.54	4.20	
2025-01-14 07:17:01.45	345.43	4.16	
2025-01-14 07:17:02.48	345.32	4.11	
2025-01-14 07:17:03.50	345.21	4.06	
2025-01-14 07:17:04.53	345.09	4.02	

#Closed at: 2025-01-14 07:17:04