passes_logs/2025/01/14/SPB_Silybum_02/SPB_Silybum_02__20250114_085738_TERRA_rec.log

#Pass ID: 20250114_085738_TERRA
#Satellite: TERRA
#Configuration: TERRA
#Start time: 2025-01-14 08:57:39

#Version: 2.0.20230423
#Station: SPB_Silybum_02
#Location: 30.233357 lon 59.946436 lat
#TLE: 1 25994U 99068A   25013.82437757  .00000752  00000+0  16464-3 0  9992
#TLE: 2 25994  98.0218  76.8921 0003482  75.0849  16.5253 14.60392614333908

#Time	Az	El	Level	Level2	SNR	BER	Gain	Gain2
2025-01-14 08:57:41.34	13.81	4.20	
2025-01-14 08:57:42.59	13.78	4.29	
2025-01-14 08:57:43.82	13.74	4.38	
2025-01-14 08:57:45.05	13.71	4.47	
2025-01-14 08:57:46.31	13.67	4.56	
2025-01-14 08:57:47.54	13.64	4.64	
2025-01-14 08:57:48.79	13.60	4.74	
2025-01-14 08:57:50.02	13.56	4.82	
2025-01-14 08:57:51.25	13.53	4.91	
2025-01-14 08:57:52.48	13.49	5.00	
2025-01-14 08:57:53.71	13.45	5.09	
2025-01-14 08:57:54.94	13.42	5.19	
2025-01-14 08:57:56.17	13.38	5.28	
2025-01-14 08:57:57.42	13.34	5.37	
2025-01-14 08:57:58.66	13.30	5.46	
2025-01-14 08:57:59.89	13.27	5.55	
2025-01-14 08:58:01.12	13.23	5.65	
2025-01-14 08:58:02.38	13.19	5.74	
2025-01-14 08:58:03.61	13.15	5.83	
2025-01-14 08:58:04.84	13.11	5.93	
2025-01-14 08:58:06.07	13.07	6.02	
2025-01-14 08:58:07.31	13.03	6.12	
2025-01-14 08:58:08.55	12.99	6.21	
2025-01-14 08:58:09.78	12.95	6.31	
2025-01-14 08:58:11.01	12.91	6.40	
2025-01-14 08:58:12.25	12.86	6.50	
2025-01-14 08:58:13.48	12.82	6.59	
2025-01-14 08:58:14.72	12.78	6.69	
2025-01-14 08:58:15.96	12.74	6.79	
2025-01-14 08:58:17.18	12.69	6.89	
2025-01-14 08:58:18.42	12.65	6.98	
2025-01-14 08:58:19.66	12.61	7.08	
2025-01-14 08:58:20.89	12.56	7.18	
2025-01-14 08:58:22.12	12.52	7.28	
2025-01-14 08:58:23.35	12.48	7.38	
2025-01-14 08:58:24.60	12.43	7.48	
2025-01-14 08:58:25.83	12.38	7.58	
2025-01-14 08:58:27.06	12.34	7.68	
2025-01-14 08:58:28.29	12.29	7.78	
2025-01-14 08:58:29.52	12.25	7.88	
2025-01-14 08:58:30.75	12.20	7.99	
2025-01-14 08:58:32.00	12.15	8.09	
2025-01-14 08:58:33.23	12.10	8.19	
2025-01-14 08:58:34.47	12.06	8.30	
2025-01-14 08:58:35.70	12.01	8.40	
2025-01-14 08:58:36.93	11.96	8.50	
2025-01-14 08:58:38.17	11.91	8.61	
2025-01-14 08:58:39.40	11.86	8.71	
2025-01-14 08:58:40.63	11.81	8.82	
2025-01-14 08:58:41.86	11.76	8.93	
2025-01-14 08:58:43.09	11.71	9.03	
2025-01-14 08:58:44.32	11.66	9.14	
2025-01-14 08:58:45.57	11.60	9.25	
2025-01-14 08:58:46.80	11.55	9.36	
2025-01-14 08:58:48.03	11.50	9.46	
2025-01-14 08:58:49.28	11.44	9.57	
2025-01-14 08:58:50.51	11.39	9.68	
2025-01-14 08:58:51.76	11.33	9.80	
2025-01-14 08:58:53.00	11.28	9.91	
2025-01-14 08:58:54.23	11.22	10.02	
2025-01-14 08:58:55.47	11.17	10.13	
2025-01-14 08:58:56.70	11.11	10.24	
2025-01-14 08:58:57.93	11.06	10.35	
2025-01-14 08:58:59.17	11.00	10.47	
2025-01-14 08:59:00.39	10.94	10.58	
2025-01-14 08:59:01.62	10.88	10.70	
2025-01-14 08:59:02.85	10.82	10.81	
2025-01-14 08:59:04.08	10.76	10.93	
2025-01-14 08:59:05.32	10.70	11.04	
2025-01-14 08:59:06.55	10.64	11.16	
2025-01-14 08:59:07.79	10.58	11.28	
2025-01-14 08:59:09.02	10.52	11.39	
2025-01-14 08:59:10.25	10.46	11.51	
2025-01-14 08:59:11.48	10.40	11.63	
2025-01-14 08:59:12.71	10.33	11.75	
2025-01-14 08:59:13.95	10.27	11.87	
2025-01-14 08:59:15.18	10.20	11.99	
2025-01-14 08:59:16.42	10.14	12.11	
2025-01-14 08:59:17.66	10.07	12.24	
2025-01-14 08:59:18.89	10.00	12.36	
2025-01-14 08:59:20.13	9.94	12.48	
2025-01-14 08:59:21.36	9.87	12.61	
2025-01-14 08:59:22.59	9.80	12.73	
2025-01-14 08:59:23.82	9.73	12.86	
2025-01-14 08:59:25.05	9.66	12.98	
2025-01-14 08:59:26.30	9.59	13.11	
2025-01-14 08:59:27.53	9.52	13.24	
2025-01-14 08:59:28.76	9.45	13.37	
2025-01-14 08:59:30.00	9.37	13.50	
2025-01-14 08:59:31.23	9.30	13.63	
2025-01-14 08:59:32.46	9.23	13.76	
2025-01-14 08:59:33.69	9.15	13.89	
2025-01-14 08:59:34.92	9.08	14.02	
2025-01-14 08:59:36.15	9.00	14.15	
2025-01-14 08:59:37.38	8.92	14.28	
2025-01-14 08:59:38.61	8.85	14.42	
2025-01-14 08:59:39.84	8.77	14.55	
2025-01-14 08:59:41.07	8.69	14.69	
2025-01-14 08:59:42.30	8.61	14.82	
2025-01-14 08:59:43.53	8.53	14.96	
2025-01-14 08:59:44.76	8.44	15.10	
2025-01-14 08:59:46.00	8.36	15.24	
2025-01-14 08:59:47.23	8.28	15.38	
2025-01-14 08:59:48.46	8.19	15.52	
2025-01-14 08:59:49.69	8.11	15.66	
2025-01-14 08:59:50.93	8.02	15.80	
2025-01-14 08:59:52.16	7.93	15.95	
2025-01-14 08:59:53.40	7.84	16.09	
2025-01-14 08:59:54.63	7.75	16.23	
2025-01-14 08:59:55.86	7.66	16.38	
2025-01-14 08:59:57.09	7.57	16.53	
2025-01-14 08:59:58.32	7.48	16.67	
2025-01-14 08:59:59.56	7.39	16.82	
2025-01-14 09:00:00.80	7.29	16.97	
2025-01-14 09:00:02.04	7.20	17.12	
2025-01-14 09:00:03.27	7.10	17.27	
2025-01-14 09:00:04.50	7.00	17.43	
2025-01-14 09:00:05.73	6.90	17.58	
2025-01-14 09:00:06.96	6.80	17.73	
2025-01-14 09:00:08.21	6.70	17.89	
2025-01-14 09:00:09.45	6.60	18.05	
2025-01-14 09:00:10.68	6.50	18.20	
2025-01-14 09:00:11.91	6.39	18.36	
2025-01-14 09:00:13.14	6.29	18.52	
2025-01-14 09:00:14.38	6.18	18.68	
2025-01-14 09:00:15.61	6.07	18.84	
2025-01-14 09:00:16.84	5.96	19.00	
2025-01-14 09:00:18.07	5.85	19.17	
2025-01-14 09:00:19.29	5.74	19.33	
2025-01-14 09:00:20.54	5.63	19.50	
2025-01-14 09:00:21.77	5.51	19.66	
2025-01-14 09:00:23.01	5.39	19.83	
2025-01-14 09:00:24.24	5.28	20.00	
2025-01-14 09:00:25.48	5.16	20.17	
2025-01-14 09:00:26.73	5.04	20.34	
2025-01-14 09:00:27.96	4.91	20.51	
2025-01-14 09:00:29.19	4.79	20.69	
2025-01-14 09:00:30.42	4.67	20.86	
2025-01-14 09:00:31.65	4.54	21.04	
2025-01-14 09:00:32.88	4.41	21.21	
2025-01-14 09:00:34.11	4.28	21.39	
2025-01-14 09:00:35.34	4.15	21.57	
2025-01-14 09:00:36.59	4.02	21.75	
2025-01-14 09:00:37.82	3.88	21.93	
2025-01-14 09:00:39.05	3.75	22.12	
2025-01-14 09:00:40.28	3.61	22.30	
2025-01-14 09:00:41.53	3.47	22.49	
2025-01-14 09:00:42.78	3.32	22.68	
2025-01-14 09:00:44.01	3.18	22.87	
2025-01-14 09:00:45.24	3.03	23.05	
2025-01-14 09:00:46.47	2.89	23.24	
2025-01-14 09:00:47.71	2.74	23.44	
2025-01-14 09:00:48.96	2.58	23.63	
2025-01-14 09:00:50.19	2.43	23.83	
2025-01-14 09:00:51.43	2.27	24.03	
2025-01-14 09:00:52.67	2.12	24.22	
2025-01-14 09:00:53.90	1.96	24.42	
2025-01-14 09:00:55.13	1.80	24.62	
2025-01-14 09:00:56.36	1.63	24.82	
2025-01-14 09:00:57.59	1.47	25.03	
2025-01-14 09:00:58.83	1.30	25.23	
2025-01-14 09:01:00.06	1.12	25.44	
2025-01-14 09:01:01.29	0.95	25.65	
2025-01-14 09:01:02.52	0.78	25.85	
2025-01-14 09:01:03.76	0.60	26.07	
2025-01-14 09:01:04.99	0.42	26.28	
2025-01-14 09:01:06.22	0.23	26.49	
2025-01-14 09:01:07.46	0.05	26.71	
2025-01-14 09:01:08.69	359.86	26.92	
2025-01-14 09:01:09.93	359.66	27.14	
2025-01-14 09:01:11.18	359.47	27.37	
2025-01-14 09:01:12.41	359.27	27.59	
2025-01-14 09:01:13.64	359.07	27.81	
2025-01-14 09:01:14.87	358.87	28.03	
2025-01-14 09:01:16.11	358.66	28.26	
2025-01-14 09:01:17.35	358.45	28.49	
2025-01-14 09:01:18.58	358.24	28.72	
2025-01-14 09:01:19.82	358.02	28.95	
2025-01-14 09:01:21.05	357.80	29.18	
2025-01-14 09:01:22.30	357.57	29.42	
2025-01-14 09:01:23.53	357.35	29.65	
2025-01-14 09:01:24.77	357.12	29.89	
2025-01-14 09:01:26.00	356.89	30.13	
2025-01-14 09:01:27.23	356.65	30.37	
2025-01-14 09:01:28.47	356.41	30.61	
2025-01-14 09:01:29.71	356.16	30.86	
2025-01-14 09:01:30.94	355.91	31.10	
2025-01-14 09:01:32.17	355.66	31.35	
2025-01-14 09:01:33.41	355.40	31.60	
2025-01-14 09:01:34.64	355.14	31.85	
2025-01-14 09:01:35.88	354.88	32.10	
2025-01-14 09:01:37.11	354.61	32.35	
2025-01-14 09:01:38.34	354.34	32.61	
2025-01-14 09:01:39.57	354.06	32.86	
2025-01-14 09:01:40.80	353.78	33.12	
2025-01-14 09:01:42.03	353.49	33.38	
2025-01-14 09:01:43.27	353.19	33.64	
2025-01-14 09:01:44.50	352.90	33.90	
2025-01-14 09:01:45.73	352.60	34.17	
2025-01-14 09:01:46.96	352.29	34.43	
2025-01-14 09:01:48.19	351.98	34.70	
2025-01-14 09:01:49.42	351.66	34.97	
2025-01-14 09:01:50.67	351.33	35.24	
2025-01-14 09:01:51.93	351.00	35.52	
2025-01-14 09:01:53.18	350.66	35.79	
2025-01-14 09:01:54.41	350.32	36.07	
2025-01-14 09:01:55.66	349.96	36.35	
2025-01-14 09:01:56.90	349.61	36.63	
2025-01-14 09:01:58.14	349.25	36.90	
2025-01-14 09:01:59.37	348.88	37.18	
2025-01-14 09:02:00.60	348.51	37.46	
2025-01-14 09:02:01.83	348.13	37.74	
2025-01-14 09:02:03.06	347.75	38.03	
2025-01-14 09:02:04.30	347.35	38.31	
2025-01-14 09:02:05.54	346.95	38.60	
2025-01-14 09:02:06.77	346.54	38.88	
2025-01-14 09:02:08.01	346.12	39.17	
2025-01-14 09:02:09.25	345.70	39.46	
2025-01-14 09:02:10.49	345.27	39.75	
2025-01-14 09:02:11.72	344.83	40.04	
2025-01-14 09:02:12.95	344.38	40.33	
2025-01-14 09:02:14.18	343.93	40.61	
2025-01-14 09:02:15.41	343.47	40.90	
2025-01-14 09:02:16.64	343.00	41.19	
2025-01-14 09:02:17.88	342.51	41.49	
2025-01-14 09:02:19.11	342.02	41.78	
2025-01-14 09:02:20.34	341.53	42.07	
2025-01-14 09:02:21.58	341.02	42.36	
2025-01-14 09:02:22.82	340.50	42.65	
2025-01-14 09:02:24.05	339.97	42.94	
2025-01-14 09:02:25.29	339.43	43.23	
2025-01-14 09:02:26.53	338.88	43.52	
2025-01-14 09:02:27.76	338.32	43.81	
2025-01-14 09:02:29.00	337.75	44.10	
2025-01-14 09:02:30.23	337.17	44.39	
2025-01-14 09:02:31.46	336.59	44.67	
2025-01-14 09:02:32.69	335.99	44.96	
2025-01-14 09:02:33.93	335.37	45.24	
2025-01-14 09:02:35.18	334.74	45.53	
2025-01-14 09:02:36.41	334.11	45.81	
2025-01-14 09:02:37.65	333.46	46.09	
2025-01-14 09:02:38.88	332.81	46.36	
2025-01-14 09:02:40.13	332.13	46.64	
2025-01-14 09:02:41.36	331.45	46.91	
2025-01-14 09:02:42.59	330.76	47.18	
2025-01-14 09:02:43.83	330.05	47.45	
2025-01-14 09:02:45.06	329.33	47.71	
2025-01-14 09:02:46.29	328.60	47.97	
2025-01-14 09:02:47.55	327.84	48.23	
2025-01-14 09:02:48.78	327.09	48.48	
2025-01-14 09:02:50.01	326.32	48.73	
2025-01-14 09:02:51.24	325.54	48.97	
2025-01-14 09:02:52.49	324.74	49.22	
2025-01-14 09:02:53.73	323.93	49.45	
2025-01-14 09:02:54.97	323.11	49.69	
2025-01-14 09:02:56.21	322.27	49.91	
2025-01-14 09:02:57.44	321.43	50.13	
2025-01-14 09:02:58.67	320.58	50.35	
2025-01-14 09:02:59.90	319.71	50.55	
2025-01-14 09:03:01.13	318.83	50.76	
2025-01-14 09:03:02.36	317.94	50.95	
2025-01-14 09:03:03.60	317.03	51.14	
2025-01-14 09:03:04.83	316.12	51.32	
2025-01-14 09:03:06.06	315.19	51.50	
2025-01-14 09:03:07.29	314.26	51.67	
2025-01-14 09:03:08.53	313.31	51.83	
2025-01-14 09:03:09.76	312.35	51.98	
2025-01-14 09:03:11.00	311.38	52.13	
2025-01-14 09:03:12.23	310.40	52.27	
2025-01-14 09:03:13.46	309.42	52.40	
2025-01-14 09:03:14.70	308.41	52.52	
2025-01-14 09:03:15.93	307.41	52.63	
2025-01-14 09:03:17.16	306.40	52.73	
2025-01-14 09:03:18.39	305.39	52.83	
2025-01-14 09:03:19.62	304.37	52.91	
2025-01-14 09:03:20.85	303.34	52.99	
2025-01-14 09:03:22.09	302.30	53.06	
2025-01-14 09:03:23.32	301.26	53.11	
2025-01-14 09:03:24.56	300.21	53.16	
2025-01-14 09:03:25.79	299.17	53.20	
2025-01-14 09:03:27.03	298.11	53.23	
2025-01-14 09:03:28.25	297.07	53.25	
2025-01-14 09:03:29.49	296.01	53.26	
2025-01-14 09:03:30.73	294.96	53.26	
2025-01-14 09:03:31.96	293.91	53.25	
2025-01-14 09:03:33.19	292.86	53.23	
2025-01-14 09:03:34.42	291.81	53.20	
2025-01-14 09:03:35.65	290.77	53.16	
2025-01-14 09:03:36.89	289.72	53.11	
2025-01-14 09:03:38.13	288.67	53.05	
2025-01-14 09:03:39.37	287.63	52.98	
2025-01-14 09:03:40.62	286.59	52.90	
2025-01-14 09:03:41.86	285.56	52.81	
2025-01-14 09:03:43.09	284.54	52.72	
2025-01-14 09:03:44.32	283.54	52.61	
2025-01-14 09:03:45.56	282.53	52.50	
2025-01-14 09:03:46.79	281.54	52.37	
2025-01-14 09:03:48.04	280.54	52.24	
2025-01-14 09:03:49.26	279.57	52.10	
2025-01-14 09:03:50.50	278.60	51.95	
2025-01-14 09:03:51.74	277.63	51.80	
2025-01-14 09:03:52.98	276.68	51.63	
2025-01-14 09:03:54.22	275.74	51.46	
2025-01-14 09:03:55.45	274.82	51.28	
2025-01-14 09:03:56.68	273.90	51.10	
2025-01-14 09:03:57.91	273.00	50.91	
2025-01-14 09:03:59.14	272.11	50.71	
2025-01-14 09:04:00.39	271.22	50.50	
2025-01-14 09:04:01.62	270.36	50.29	
2025-01-14 09:04:02.85	269.51	50.08	
2025-01-14 09:04:04.09	268.66	49.86	
2025-01-14 09:04:05.32	267.83	49.63	
2025-01-14 09:04:06.55	267.02	49.40	
2025-01-14 09:04:07.78	266.21	49.16	
2025-01-14 09:04:09.01	265.42	48.92	
2025-01-14 09:04:10.24	264.65	48.68	
2025-01-14 09:04:11.47	263.88	48.43	
2025-01-14 09:04:12.70	263.13	48.17	
2025-01-14 09:04:13.93	262.39	47.92	
2025-01-14 09:04:15.16	261.66	47.66	
2025-01-14 09:04:16.39	260.95	47.39	
2025-01-14 09:04:17.63	260.24	47.12	
2025-01-14 09:04:18.86	259.55	46.85	
2025-01-14 09:04:20.09	258.87	46.58	
2025-01-14 09:04:21.33	258.19	46.31	
2025-01-14 09:04:22.55	257.54	46.03	
2025-01-14 09:04:23.78	256.90	45.75	
2025-01-14 09:04:25.02	256.26	45.47	
2025-01-14 09:04:26.25	255.64	45.19	
2025-01-14 09:04:27.48	255.03	44.90	
2025-01-14 09:04:28.71	254.44	44.62	
2025-01-14 09:04:29.96	253.84	44.33	
2025-01-14 09:04:31.19	253.26	44.04	
2025-01-14 09:04:32.42	252.69	43.75	
2025-01-14 09:04:33.65	252.14	43.46	
2025-01-14 09:04:34.89	251.59	43.17	
2025-01-14 09:04:36.14	251.04	42.87	
2025-01-14 09:04:37.37	250.52	42.58	
2025-01-14 09:04:38.60	250.00	42.29	
2025-01-14 09:04:39.83	249.50	42.00	
2025-01-14 09:04:41.08	248.99	41.71	
2025-01-14 09:04:42.31	248.50	41.41	
2025-01-14 09:04:43.55	248.02	41.12	
2025-01-14 09:04:44.78	247.55	40.83	
2025-01-14 09:04:46.01	247.09	40.54	
2025-01-14 09:04:47.24	246.63	40.25	
2025-01-14 09:04:48.47	246.19	39.96	
2025-01-14 09:04:49.70	245.75	39.67	
2025-01-14 09:04:50.93	245.32	39.38	
2025-01-14 09:04:52.16	244.90	39.10	
2025-01-14 09:04:53.39	244.48	38.81	
2025-01-14 09:04:54.62	244.08	38.52	
2025-01-14 09:04:55.86	243.67	38.24	
2025-01-14 09:04:57.09	243.28	37.95	
2025-01-14 09:04:58.32	242.90	37.67	
2025-01-14 09:04:59.56	242.52	37.39	
2025-01-14 09:05:00.79	242.14	37.10	
2025-01-14 09:05:02.02	241.78	36.83	
2025-01-14 09:05:03.25	241.42	36.55	
2025-01-14 09:05:04.48	241.07	36.27	
2025-01-14 09:05:05.73	240.71	35.99	
2025-01-14 09:05:06.96	240.37	35.72	
2025-01-14 09:05:08.18	240.04	35.44	
2025-01-14 09:05:09.41	239.71	35.17	
2025-01-14 09:05:10.64	239.39	34.90	
2025-01-14 09:05:11.87	239.07	34.63	
2025-01-14 09:05:13.10	238.76	34.37	
2025-01-14 09:05:14.35	238.45	34.10	
2025-01-14 09:05:15.60	238.14	33.83	
2025-01-14 09:05:16.83	237.84	33.56	
2025-01-14 09:05:18.06	237.55	33.30	
2025-01-14 09:05:19.30	237.26	33.04	
2025-01-14 09:05:20.53	236.98	32.78	
2025-01-14 09:05:21.76	236.70	32.53	
2025-01-14 09:05:22.99	236.43	32.27	
2025-01-14 09:05:24.22	236.16	32.02	
2025-01-14 09:05:25.45	235.89	31.77	
2025-01-14 09:05:26.69	235.63	31.51	
2025-01-14 09:05:27.93	235.37	31.26	
2025-01-14 09:05:29.16	235.12	31.02	
2025-01-14 09:05:30.41	234.87	30.77	
2025-01-14 09:05:31.64	234.62	30.52	
2025-01-14 09:05:32.87	234.38	30.28	
2025-01-14 09:05:34.13	234.14	30.04	
2025-01-14 09:05:35.36	233.91	29.80	
2025-01-14 09:05:36.59	233.68	29.56	
2025-01-14 09:05:37.82	233.45	29.32	
2025-01-14 09:05:39.07	233.22	29.09	
2025-01-14 09:05:40.32	233.00	28.85	
2025-01-14 09:05:41.55	232.78	28.62	
2025-01-14 09:05:42.78	232.57	28.39	
2025-01-14 09:05:44.02	232.36	28.16	
2025-01-14 09:05:45.25	232.15	27.93	
2025-01-14 09:05:46.48	231.95	27.71	
2025-01-14 09:05:47.71	231.75	27.49	
2025-01-14 09:05:48.94	231.55	27.27	
2025-01-14 09:05:50.17	231.36	27.05	
2025-01-14 09:05:51.40	231.17	26.83	
2025-01-14 09:05:52.63	230.98	26.61	
2025-01-14 09:05:53.86	230.79	26.40	
2025-01-14 09:05:55.11	230.60	26.18	
2025-01-14 09:05:56.34	230.42	25.97	
2025-01-14 09:05:57.58	230.24	25.75	
2025-01-14 09:05:58.83	230.06	25.54	
2025-01-14 09:06:00.06	229.89	25.33	
2025-01-14 09:06:01.29	229.72	25.13	
2025-01-14 09:06:02.52	229.55	24.92	
2025-01-14 09:06:03.75	229.38	24.72	
2025-01-14 09:06:04.99	229.22	24.52	
2025-01-14 09:06:06.22	229.06	24.32	
2025-01-14 09:06:07.45	228.90	24.12	
2025-01-14 09:06:08.68	228.74	23.92	
2025-01-14 09:06:09.92	228.58	23.72	
2025-01-14 09:06:11.15	228.43	23.53	
2025-01-14 09:06:12.38	228.28	23.33	
2025-01-14 09:06:13.61	228.13	23.14	
2025-01-14 09:06:14.84	227.98	22.95	
2025-01-14 09:06:16.07	227.83	22.76	
2025-01-14 09:06:17.32	227.69	22.57	
2025-01-14 09:06:18.55	227.54	22.38	
2025-01-14 09:06:19.78	227.40	22.20	
2025-01-14 09:06:21.01	227.27	22.01	
2025-01-14 09:06:22.24	227.13	21.83	
2025-01-14 09:06:23.50	226.99	21.64	
2025-01-14 09:06:24.74	226.86	21.46	
2025-01-14 09:06:25.98	226.72	21.28	
2025-01-14 09:06:27.21	226.59	21.10	
2025-01-14 09:06:28.44	226.47	20.92	
2025-01-14 09:06:29.68	226.34	20.75	
2025-01-14 09:06:30.92	226.21	20.57	
2025-01-14 09:06:32.18	226.08	20.39	
2025-01-14 09:06:33.41	225.96	20.22	
2025-01-14 09:06:34.64	225.84	20.05	
2025-01-14 09:06:35.88	225.72	19.88	
2025-01-14 09:06:37.11	225.60	19.71	
2025-01-14 09:06:38.34	225.49	19.54	
2025-01-14 09:06:39.59	225.37	19.37	
2025-01-14 09:06:40.82	225.26	19.21	
2025-01-14 09:06:42.05	225.14	19.04	
2025-01-14 09:06:43.28	225.03	18.88	
2025-01-14 09:06:44.51	224.92	18.72	
2025-01-14 09:06:45.74	224.81	18.56	
2025-01-14 09:06:46.98	224.71	18.40	
2025-01-14 09:06:48.21	224.60	18.24	
2025-01-14 09:06:49.44	224.49	18.08	
2025-01-14 09:06:50.67	224.39	17.92	
2025-01-14 09:06:51.91	224.29	17.77	
2025-01-14 09:06:53.14	224.19	17.61	
2025-01-14 09:06:54.37	224.09	17.46	
2025-01-14 09:06:55.60	223.99	17.30	
2025-01-14 09:06:56.83	223.89	17.15	
2025-01-14 09:06:58.07	223.79	17.00	
2025-01-14 09:06:59.31	223.69	16.85	
2025-01-14 09:07:00.54	223.60	16.70	
2025-01-14 09:07:01.77	223.50	16.55	
2025-01-14 09:07:03.00	223.41	16.40	
2025-01-14 09:07:04.24	223.32	16.26	
2025-01-14 09:07:05.47	223.23	16.11	
2025-01-14 09:07:06.71	223.14	15.96	
2025-01-14 09:07:07.94	223.05	15.82	
2025-01-14 09:07:09.19	222.96	15.67	
2025-01-14 09:07:10.43	222.87	15.53	
2025-01-14 09:07:11.66	222.79	15.39	
2025-01-14 09:07:12.90	222.70	15.25	
2025-01-14 09:07:14.13	222.61	15.11	
2025-01-14 09:07:15.37	222.53	14.97	
2025-01-14 09:07:16.60	222.45	14.83	
2025-01-14 09:07:17.82	222.37	14.69	
2025-01-14 09:07:19.07	222.28	14.56	
2025-01-14 09:07:20.31	222.20	14.42	
2025-01-14 09:07:21.54	222.12	14.28	
2025-01-14 09:07:22.77	222.05	14.15	
2025-01-14 09:07:24.00	221.97	14.02	
2025-01-14 09:07:25.24	221.89	13.88	
2025-01-14 09:07:26.48	221.81	13.75	
2025-01-14 09:07:27.71	221.74	13.62	
2025-01-14 09:07:28.94	221.66	13.49	
2025-01-14 09:07:30.18	221.59	13.36	
2025-01-14 09:07:31.43	221.51	13.23	
2025-01-14 09:07:32.66	221.44	13.10	
2025-01-14 09:07:33.89	221.37	12.97	
2025-01-14 09:07:35.12	221.30	12.84	
2025-01-14 09:07:36.36	221.23	12.72	
2025-01-14 09:07:37.61	221.16	12.59	
2025-01-14 09:07:38.86	221.09	12.46	
2025-01-14 09:07:40.09	221.02	12.34	
2025-01-14 09:07:41.32	220.95	12.22	
2025-01-14 09:07:42.56	220.88	12.09	
2025-01-14 09:07:43.80	220.81	11.97	
2025-01-14 09:07:45.03	220.75	11.85	
2025-01-14 09:07:46.27	220.68	11.73	
2025-01-14 09:07:47.50	220.62	11.61	
2025-01-14 09:07:48.73	220.55	11.49	
2025-01-14 09:07:49.96	220.49	11.37	
2025-01-14 09:07:51.19	220.43	11.25	
2025-01-14 09:07:52.43	220.36	11.13	
2025-01-14 09:07:53.66	220.30	11.01	
2025-01-14 09:07:54.89	220.24	10.90	
2025-01-14 09:07:56.12	220.18	10.78	
2025-01-14 09:07:57.35	220.12	10.66	
2025-01-14 09:07:58.58	220.06	10.55	
2025-01-14 09:07:59.81	220.00	10.44	
2025-01-14 09:08:01.04	219.94	10.32	
2025-01-14 09:08:02.28	219.88	10.21	
2025-01-14 09:08:03.50	219.83	10.10	
2025-01-14 09:08:04.73	219.77	9.98	
2025-01-14 09:08:05.99	219.71	9.87	
2025-01-14 09:08:07.22	219.66	9.76	
2025-01-14 09:08:08.45	219.60	9.65	
2025-01-14 09:08:09.69	219.54	9.54	
2025-01-14 09:08:10.92	219.49	9.43	
2025-01-14 09:08:12.15	219.44	9.32	
2025-01-14 09:08:13.38	219.38	9.21	
2025-01-14 09:08:14.62	219.33	9.10	
2025-01-14 09:08:15.87	219.27	8.99	
2025-01-14 09:08:17.10	219.22	8.88	
2025-01-14 09:08:18.35	219.17	8.78	
2025-01-14 09:08:19.58	219.12	8.67	
2025-01-14 09:08:20.81	219.07	8.57	
2025-01-14 09:08:22.04	219.02	8.46	
2025-01-14 09:08:23.27	218.97	8.36	
2025-01-14 09:08:24.50	218.92	8.25	
2025-01-14 09:08:25.74	218.87	8.15	
2025-01-14 09:08:26.97	218.82	8.04	
2025-01-14 09:08:28.21	218.77	7.94	
2025-01-14 09:08:29.46	218.72	7.84	
2025-01-14 09:08:30.69	218.67	7.73	
2025-01-14 09:08:31.92	218.62	7.63	
2025-01-14 09:08:33.15	218.58	7.53	
2025-01-14 09:08:34.41	218.53	7.43	
2025-01-14 09:08:35.64	218.48	7.33	
2025-01-14 09:08:36.87	218.44	7.23	
2025-01-14 09:08:38.10	218.39	7.13	
2025-01-14 09:08:39.33	218.35	7.03	
2025-01-14 09:08:40.56	218.30	6.93	
2025-01-14 09:08:41.80	218.26	6.83	
2025-01-14 09:08:43.03	218.21	6.73	
2025-01-14 09:08:44.26	218.17	6.64	
2025-01-14 09:08:45.49	218.13	6.54	
2025-01-14 09:08:46.72	218.08	6.44	
2025-01-14 09:08:47.96	218.04	6.35	
2025-01-14 09:08:49.19	218.00	6.25	
2025-01-14 09:08:50.42	217.96	6.16	
2025-01-14 09:08:51.65	217.91	6.06	
2025-01-14 09:08:52.88	217.87	5.97	
2025-01-14 09:08:54.13	217.83	5.87	
2025-01-14 09:08:55.37	217.79	5.78	
2025-01-14 09:08:56.60	217.75	5.68	
2025-01-14 09:08:57.84	217.71	5.59	
2025-01-14 09:08:59.07	217.67	5.50	
2025-01-14 09:09:00.30	217.63	5.40	
2025-01-14 09:09:01.55	217.59	5.31	
2025-01-14 09:09:02.78	217.55	5.22	
2025-01-14 09:09:04.02	217.51	5.13	
2025-01-14 09:09:05.26	217.47	5.03	
2025-01-14 09:09:06.49	217.43	4.94	
2025-01-14 09:09:07.75	217.40	4.85	
2025-01-14 09:09:08.97	217.36	4.76	
2025-01-14 09:09:10.20	217.32	4.67	
2025-01-14 09:09:11.43	217.28	4.58	
2025-01-14 09:09:12.66	217.25	4.49	
2025-01-14 09:09:13.89	217.21	4.40	
2025-01-14 09:09:15.11	217.17	4.32	
2025-01-14 09:09:16.36	217.14	4.23	
2025-01-14 09:09:17.60	217.10	4.14	
2025-01-14 09:09:18.83	217.07	4.05	

#Closed at: 2025-01-14 09:09:19