passes_logs/2025/01/14/SPB_Silybum_02/SPB_Silybum_02__20250114_103536_TERRA_rec.log

#Pass ID: 20250114_103536_TERRA
#Satellite: TERRA
#Configuration: TERRA
#Start time: 2025-01-14 10:38:03

#Version: 2.0.20230423
#Station: SPB_Silybum_02
#Location: 30.233357 lon 59.946436 lat
#TLE: 1 25994U 99068A   25013.82437757  .00000752  00000+0  16464-3 0  9992
#TLE: 2 25994  98.0218  76.8921 0003482  75.0849  16.5253 14.60392614333908

#Time	Az	El	Level	Level2	SNR	BER	Gain	Gain2
2025-01-14 10:38:05.39	346.42	12.26	
2025-01-14 10:38:06.21	346.26	12.30	
2025-01-14 10:38:07.04	346.10	12.34	
2025-01-14 10:38:07.86	345.94	12.38	
2025-01-14 10:38:08.68	345.78	12.43	
2025-01-14 10:38:09.50	345.62	12.47	
2025-01-14 10:38:10.32	345.46	12.51	
2025-01-14 10:38:11.14	345.30	12.55	
2025-01-14 10:38:11.97	345.14	12.59	
2025-01-14 10:38:12.79	344.97	12.63	
2025-01-14 10:38:13.61	344.81	12.67	
2025-01-14 10:38:14.43	344.65	12.71	
2025-01-14 10:38:15.25	344.48	12.75	
2025-01-14 10:38:16.07	344.32	12.79	
2025-01-14 10:38:16.88	344.15	12.82	
2025-01-14 10:38:17.71	343.99	12.86	
2025-01-14 10:38:18.53	343.82	12.90	
2025-01-14 10:38:19.35	343.65	12.94	
2025-01-14 10:38:20.17	343.49	12.98	
2025-01-14 10:38:20.99	343.32	13.02	
2025-01-14 10:38:21.81	343.15	13.06	
2025-01-14 10:38:22.64	342.98	13.09	
2025-01-14 10:38:23.47	342.81	13.13	
2025-01-14 10:38:24.29	342.64	13.17	
2025-01-14 10:38:25.12	342.47	13.21	
2025-01-14 10:38:25.94	342.30	13.25	
2025-01-14 10:38:26.76	342.13	13.28	
2025-01-14 10:38:27.58	341.96	13.32	
2025-01-14 10:38:28.40	341.79	13.36	
2025-01-14 10:38:29.22	341.61	13.39	
2025-01-14 10:38:30.04	341.44	13.43	
2025-01-14 10:38:30.86	341.27	13.47	
2025-01-14 10:38:31.69	341.09	13.50	
2025-01-14 10:38:32.51	340.92	13.54	
2025-01-14 10:38:33.33	340.74	13.57	
2025-01-14 10:38:34.17	340.56	13.61	
2025-01-14 10:38:35.00	340.39	13.65	
2025-01-14 10:38:35.82	340.21	13.68	
2025-01-14 10:38:36.65	340.03	13.72	
2025-01-14 10:38:37.47	339.86	13.75	
2025-01-14 10:38:38.28	339.68	13.79	
2025-01-14 10:38:39.12	339.50	13.82	
2025-01-14 10:38:39.94	339.32	13.86	
2025-01-14 10:38:40.77	339.14	13.89	
2025-01-14 10:38:41.59	338.96	13.92	
2025-01-14 10:38:42.41	338.78	13.96	
2025-01-14 10:38:43.24	338.60	13.99	
2025-01-14 10:38:44.06	338.42	14.02	
2025-01-14 10:38:44.87	338.24	14.06	
2025-01-14 10:38:45.71	338.05	14.09	
2025-01-14 10:38:46.53	337.87	14.12	
2025-01-14 10:38:47.35	337.69	14.15	
2025-01-14 10:38:48.17	337.51	14.19	
2025-01-14 10:38:48.99	337.32	14.22	
2025-01-14 10:38:49.82	337.14	14.25	
2025-01-14 10:38:50.64	336.96	14.28	
2025-01-14 10:38:51.47	336.77	14.31	
2025-01-14 10:38:52.31	336.58	14.34	
2025-01-14 10:38:53.13	336.40	14.37	
2025-01-14 10:38:53.95	336.21	14.40	
2025-01-14 10:38:54.77	336.02	14.43	
2025-01-14 10:38:55.59	335.84	14.46	
2025-01-14 10:38:56.41	335.65	14.49	
2025-01-14 10:38:57.23	335.46	14.52	
2025-01-14 10:38:58.05	335.28	14.55	
2025-01-14 10:38:58.87	335.09	14.58	
2025-01-14 10:38:59.69	334.90	14.61	
2025-01-14 10:39:00.51	334.71	14.64	
2025-01-14 10:39:01.33	334.52	14.67	
2025-01-14 10:39:02.15	334.33	14.69	
2025-01-14 10:39:02.97	334.14	14.72	
2025-01-14 10:39:03.79	333.95	14.75	
2025-01-14 10:39:04.62	333.76	14.78	
2025-01-14 10:39:05.44	333.57	14.80	
2025-01-14 10:39:06.26	333.38	14.83	
2025-01-14 10:39:07.08	333.19	14.85	
2025-01-14 10:39:07.90	332.99	14.88	
2025-01-14 10:39:08.72	332.80	14.91	
2025-01-14 10:39:09.54	332.61	14.93	
2025-01-14 10:39:10.36	332.42	14.96	
2025-01-14 10:39:11.18	332.22	14.98	
2025-01-14 10:39:12.00	332.03	15.01	
2025-01-14 10:39:12.82	331.83	15.03	
2025-01-14 10:39:13.64	331.64	15.05	
2025-01-14 10:39:14.46	331.45	15.08	
2025-01-14 10:39:15.28	331.25	15.10	
2025-01-14 10:39:16.10	331.05	15.12	
2025-01-14 10:39:16.92	330.86	15.15	
2025-01-14 10:39:17.73	330.67	15.17	
2025-01-14 10:39:18.56	330.47	15.19	
2025-01-14 10:39:19.38	330.27	15.21	
2025-01-14 10:39:20.20	330.07	15.23	
2025-01-14 10:39:21.02	329.88	15.25	
2025-01-14 10:39:21.84	329.68	15.28	
2025-01-14 10:39:22.66	329.48	15.30	
2025-01-14 10:39:23.48	329.28	15.32	
2025-01-14 10:39:24.30	329.08	15.34	
2025-01-14 10:39:25.12	328.88	15.36	
2025-01-14 10:39:25.95	328.68	15.38	
2025-01-14 10:39:26.78	328.48	15.39	
2025-01-14 10:39:27.60	328.28	15.41	
2025-01-14 10:39:28.42	328.08	15.43	
2025-01-14 10:39:29.24	327.88	15.45	
2025-01-14 10:39:30.07	327.68	15.47	
2025-01-14 10:39:30.89	327.48	15.49	
2025-01-14 10:39:31.72	327.27	15.50	
2025-01-14 10:39:32.54	327.07	15.52	
2025-01-14 10:39:33.37	326.87	15.54	
2025-01-14 10:39:34.19	326.67	15.55	
2025-01-14 10:39:35.01	326.46	15.57	
2025-01-14 10:39:35.84	326.26	15.58	
2025-01-14 10:39:36.66	326.06	15.60	
2025-01-14 10:39:37.49	325.85	15.61	
2025-01-14 10:39:38.32	325.65	15.63	
2025-01-14 10:39:39.15	325.44	15.64	
2025-01-14 10:39:39.97	325.24	15.66	
2025-01-14 10:39:40.79	325.04	15.67	
2025-01-14 10:39:41.62	324.83	15.68	
2025-01-14 10:39:42.44	324.63	15.70	
2025-01-14 10:39:43.27	324.42	15.71	
2025-01-14 10:39:44.09	324.21	15.72	
2025-01-14 10:39:44.91	324.01	15.73	
2025-01-14 10:39:45.73	323.81	15.74	
2025-01-14 10:39:46.57	323.60	15.75	
2025-01-14 10:39:47.39	323.39	15.77	
2025-01-14 10:39:48.21	323.19	15.78	
2025-01-14 10:39:49.03	322.98	15.79	
2025-01-14 10:39:49.85	322.78	15.80	
2025-01-14 10:39:50.67	322.57	15.80	
2025-01-14 10:39:51.49	322.36	15.81	
2025-01-14 10:39:52.31	322.16	15.82	
2025-01-14 10:39:53.13	321.95	15.83	
2025-01-14 10:39:53.96	321.74	15.84	
2025-01-14 10:39:54.78	321.54	15.85	
2025-01-14 10:39:55.60	321.33	15.85	
2025-01-14 10:39:56.42	321.13	15.86	
2025-01-14 10:39:57.24	320.92	15.87	
2025-01-14 10:39:58.06	320.71	15.87	
2025-01-14 10:39:58.88	320.51	15.88	
2025-01-14 10:39:59.70	320.30	15.88	
2025-01-14 10:40:00.53	320.09	15.89	
2025-01-14 10:40:01.34	319.89	15.89	
2025-01-14 10:40:02.17	319.68	15.90	
2025-01-14 10:40:02.99	319.47	15.90	
2025-01-14 10:40:03.81	319.26	15.90	
2025-01-14 10:40:04.63	319.05	15.91	
2025-01-14 10:40:05.46	318.84	15.91	
2025-01-14 10:40:06.27	318.64	15.91	
2025-01-14 10:40:07.09	318.43	15.92	
2025-01-14 10:40:07.91	318.23	15.92	
2025-01-14 10:40:08.74	318.02	15.92	
2025-01-14 10:40:09.56	317.81	15.92	
2025-01-14 10:40:10.38	317.60	15.92	
2025-01-14 10:40:11.21	317.39	15.92	
2025-01-14 10:40:12.02	317.19	15.92	
2025-01-14 10:40:12.85	316.98	15.92	
2025-01-14 10:40:13.67	316.77	15.92	
2025-01-14 10:40:14.49	316.56	15.92	
2025-01-14 10:40:15.32	316.35	15.92	
2025-01-14 10:40:16.15	316.14	15.91	
2025-01-14 10:40:16.97	315.93	15.91	
2025-01-14 10:40:17.79	315.73	15.91	
2025-01-14 10:40:18.61	315.52	15.91	
2025-01-14 10:40:19.43	315.31	15.90	
2025-01-14 10:40:20.25	315.11	15.90	
2025-01-14 10:40:21.07	314.90	15.90	
2025-01-14 10:40:21.91	314.69	15.89	
2025-01-14 10:40:22.74	314.48	15.89	
2025-01-14 10:40:23.56	314.27	15.88	
2025-01-14 10:40:24.37	314.07	15.88	
2025-01-14 10:40:25.19	313.86	15.87	
2025-01-14 10:40:26.02	313.65	15.86	
2025-01-14 10:40:26.84	313.44	15.86	
2025-01-14 10:40:27.66	313.24	15.85	
2025-01-14 10:40:28.49	313.03	15.84	
2025-01-14 10:40:29.32	312.82	15.84	
2025-01-14 10:40:30.14	312.61	15.83	
2025-01-14 10:40:30.97	312.41	15.82	
2025-01-14 10:40:31.79	312.20	15.81	
2025-01-14 10:40:32.61	311.99	15.80	
2025-01-14 10:40:33.43	311.79	15.79	
2025-01-14 10:40:34.25	311.58	15.78	
2025-01-14 10:40:35.07	311.38	15.77	
2025-01-14 10:40:35.89	311.17	15.76	
2025-01-14 10:40:36.72	310.96	15.75	
2025-01-14 10:40:37.54	310.76	15.74	
2025-01-14 10:40:38.37	310.55	15.73	
2025-01-14 10:40:39.20	310.35	15.72	
2025-01-14 10:40:40.02	310.14	15.70	
2025-01-14 10:40:40.84	309.94	15.69	
2025-01-14 10:40:41.66	309.73	15.68	
2025-01-14 10:40:42.49	309.53	15.67	
2025-01-14 10:40:43.31	309.32	15.65	
2025-01-14 10:40:44.12	309.12	15.64	
2025-01-14 10:40:44.95	308.92	15.62	
2025-01-14 10:40:45.77	308.71	15.61	
2025-01-14 10:40:46.59	308.51	15.59	
2025-01-14 10:40:47.41	308.31	15.58	
2025-01-14 10:40:48.23	308.11	15.56	
2025-01-14 10:40:49.05	307.90	15.55	
2025-01-14 10:40:49.87	307.70	15.53	
2025-01-14 10:40:50.69	307.50	15.52	
2025-01-14 10:40:51.51	307.30	15.50	
2025-01-14 10:40:52.33	307.10	15.48	
2025-01-14 10:40:53.15	306.90	15.46	
2025-01-14 10:40:53.97	306.70	15.45	
2025-01-14 10:40:54.79	306.50	15.43	
2025-01-14 10:40:55.61	306.30	15.41	
2025-01-14 10:40:56.44	306.09	15.39	
2025-01-14 10:40:57.26	305.89	15.37	
2025-01-14 10:40:58.08	305.69	15.35	
2025-01-14 10:40:58.90	305.49	15.33	
2025-01-14 10:40:59.73	305.29	15.31	
2025-01-14 10:41:00.55	305.10	15.29	
2025-01-14 10:41:01.37	304.90	15.27	
2025-01-14 10:41:02.19	304.70	15.25	
2025-01-14 10:41:03.01	304.50	15.23	
2025-01-14 10:41:03.84	304.30	15.21	
2025-01-14 10:41:04.67	304.10	15.18	
2025-01-14 10:41:05.49	303.91	15.16	
2025-01-14 10:41:06.31	303.71	15.14	
2025-01-14 10:41:07.13	303.51	15.12	
2025-01-14 10:41:07.97	303.31	15.09	
2025-01-14 10:41:08.79	303.12	15.07	
2025-01-14 10:41:09.61	302.92	15.05	
2025-01-14 10:41:10.43	302.73	15.02	
2025-01-14 10:41:11.25	302.53	15.00	
2025-01-14 10:41:12.07	302.34	14.97	
2025-01-14 10:41:12.89	302.15	14.95	
2025-01-14 10:41:13.72	301.95	14.92	
2025-01-14 10:41:14.54	301.76	14.90	
2025-01-14 10:41:15.36	301.56	14.87	
2025-01-14 10:41:16.18	301.37	14.85	
2025-01-14 10:41:17.00	301.18	14.82	
2025-01-14 10:41:17.82	300.99	14.79	
2025-01-14 10:41:18.64	300.80	14.77	
2025-01-14 10:41:19.46	300.61	14.74	
2025-01-14 10:41:20.28	300.42	14.71	
2025-01-14 10:41:21.10	300.23	14.68	
2025-01-14 10:41:21.92	300.04	14.66	
2025-01-14 10:41:22.74	299.85	14.63	
2025-01-14 10:41:23.56	299.66	14.60	
2025-01-14 10:41:24.38	299.47	14.57	
2025-01-14 10:41:25.20	299.28	14.54	
2025-01-14 10:41:26.02	299.09	14.51	
2025-01-14 10:41:26.86	298.90	14.48	
2025-01-14 10:41:27.68	298.71	14.45	
2025-01-14 10:41:28.52	298.52	14.42	
2025-01-14 10:41:29.34	298.34	14.39	
2025-01-14 10:41:30.16	298.15	14.36	
2025-01-14 10:41:30.97	297.97	14.33	
2025-01-14 10:41:31.81	297.78	14.30	
2025-01-14 10:41:32.63	297.59	14.27	
2025-01-14 10:41:33.45	297.41	14.24	
2025-01-14 10:41:34.28	297.22	14.21	
2025-01-14 10:41:35.11	297.04	14.17	
2025-01-14 10:41:35.93	296.85	14.14	
2025-01-14 10:41:36.75	296.67	14.11	
2025-01-14 10:41:37.57	296.49	14.08	
2025-01-14 10:41:38.39	296.31	14.04	
2025-01-14 10:41:39.21	296.13	14.01	
2025-01-14 10:41:40.03	295.95	13.98	
2025-01-14 10:41:40.85	295.77	13.95	
2025-01-14 10:41:41.67	295.59	13.91	
2025-01-14 10:41:42.49	295.41	13.88	
2025-01-14 10:41:43.32	295.23	13.84	
2025-01-14 10:41:44.15	295.05	13.81	
2025-01-14 10:41:44.98	294.87	13.77	
2025-01-14 10:41:45.80	294.69	13.74	
2025-01-14 10:41:46.62	294.51	13.70	
2025-01-14 10:41:47.44	294.33	13.67	
2025-01-14 10:41:48.26	294.16	13.63	
2025-01-14 10:41:49.08	293.98	13.60	
2025-01-14 10:41:49.90	293.81	13.56	
2025-01-14 10:41:50.72	293.63	13.53	
2025-01-14 10:41:51.54	293.46	13.49	
2025-01-14 10:41:52.36	293.28	13.45	
2025-01-14 10:41:53.18	293.11	13.42	
2025-01-14 10:41:54.00	292.94	13.38	
2025-01-14 10:41:54.82	292.76	13.35	
2025-01-14 10:41:55.64	292.59	13.31	
2025-01-14 10:41:56.48	292.42	13.27	
2025-01-14 10:41:57.30	292.24	13.23	
2025-01-14 10:41:58.12	292.07	13.20	
2025-01-14 10:41:58.94	291.90	13.16	
2025-01-14 10:41:59.76	291.73	13.12	
2025-01-14 10:42:00.60	291.56	13.08	
2025-01-14 10:42:01.41	291.39	13.04	
2025-01-14 10:42:02.24	291.22	13.00	
2025-01-14 10:42:03.06	291.05	12.97	
2025-01-14 10:42:03.88	290.89	12.93	
2025-01-14 10:42:04.70	290.72	12.89	
2025-01-14 10:42:05.54	290.55	12.85	
2025-01-14 10:42:06.37	290.38	12.81	
2025-01-14 10:42:07.19	290.22	12.77	
2025-01-14 10:42:08.01	290.05	12.73	
2025-01-14 10:42:08.83	289.89	12.69	
2025-01-14 10:42:09.65	289.72	12.65	
2025-01-14 10:42:10.47	289.56	12.61	
2025-01-14 10:42:11.31	289.39	12.57	
2025-01-14 10:42:12.15	289.23	12.53	
2025-01-14 10:42:12.97	289.06	12.49	
2025-01-14 10:42:13.79	288.90	12.45	
2025-01-14 10:42:14.62	288.74	12.41	
2025-01-14 10:42:15.44	288.58	12.37	
2025-01-14 10:42:16.26	288.42	12.32	
2025-01-14 10:42:17.09	288.26	12.28	
2025-01-14 10:42:17.92	288.09	12.24	
2025-01-14 10:42:18.74	287.94	12.20	
2025-01-14 10:42:19.56	287.78	12.16	
2025-01-14 10:42:20.37	287.62	12.12	
2025-01-14 10:42:21.19	287.46	12.08	
2025-01-14 10:42:22.01	287.31	12.03	
2025-01-14 10:42:22.84	287.15	11.99	
2025-01-14 10:42:23.66	286.99	11.95	
2025-01-14 10:42:24.48	286.84	11.91	
2025-01-14 10:42:25.30	286.68	11.87	
2025-01-14 10:42:26.12	286.53	11.82	
2025-01-14 10:42:26.94	286.37	11.78	
2025-01-14 10:42:27.76	286.22	11.74	
2025-01-14 10:42:28.58	286.07	11.70	
2025-01-14 10:42:29.40	285.92	11.65	
2025-01-14 10:42:30.22	285.76	11.61	
2025-01-14 10:42:31.05	285.61	11.57	
2025-01-14 10:42:31.88	285.46	11.52	
2025-01-14 10:42:32.70	285.31	11.48	
2025-01-14 10:42:33.52	285.16	11.44	
2025-01-14 10:42:34.36	285.00	11.39	
2025-01-14 10:42:35.18	284.85	11.35	
2025-01-14 10:42:36.00	284.71	11.31	
2025-01-14 10:42:36.82	284.56	11.26	
2025-01-14 10:42:37.64	284.41	11.22	
2025-01-14 10:42:38.46	284.26	11.17	
2025-01-14 10:42:39.28	284.12	11.13	
2025-01-14 10:42:40.10	283.97	11.09	
2025-01-14 10:42:40.94	283.82	11.04	
2025-01-14 10:42:41.76	283.67	11.00	
2025-01-14 10:42:42.58	283.53	10.95	
2025-01-14 10:42:43.40	283.39	10.91	
2025-01-14 10:42:44.23	283.24	10.86	
2025-01-14 10:42:45.05	283.10	10.82	
2025-01-14 10:42:45.87	282.95	10.77	
2025-01-14 10:42:46.69	282.81	10.73	
2025-01-14 10:42:47.51	282.67	10.68	
2025-01-14 10:42:48.33	282.53	10.64	
2025-01-14 10:42:49.15	282.39	10.60	
2025-01-14 10:42:49.97	282.25	10.55	
2025-01-14 10:42:50.80	282.10	10.50	
2025-01-14 10:42:51.62	281.96	10.46	
2025-01-14 10:42:52.44	281.83	10.41	
2025-01-14 10:42:53.27	281.68	10.37	
2025-01-14 10:42:54.09	281.55	10.32	
2025-01-14 10:42:54.92	281.41	10.28	
2025-01-14 10:42:55.74	281.27	10.23	
2025-01-14 10:42:56.56	281.13	10.19	
2025-01-14 10:42:57.39	281.00	10.14	
2025-01-14 10:42:58.21	280.86	10.10	
2025-01-14 10:42:59.03	280.72	10.05	
2025-01-14 10:42:59.86	280.59	10.00	
2025-01-14 10:43:00.68	280.45	9.96	
2025-01-14 10:43:01.50	280.32	9.91	
2025-01-14 10:43:02.32	280.19	9.87	
2025-01-14 10:43:03.14	280.05	9.82	
2025-01-14 10:43:03.96	279.92	9.78	
2025-01-14 10:43:04.78	279.79	9.73	
2025-01-14 10:43:05.60	279.66	9.68	
2025-01-14 10:43:06.42	279.52	9.64	
2025-01-14 10:43:07.24	279.39	9.59	
2025-01-14 10:43:08.06	279.26	9.55	
2025-01-14 10:43:08.88	279.13	9.50	
2025-01-14 10:43:09.70	279.00	9.45	
2025-01-14 10:43:10.52	278.87	9.41	
2025-01-14 10:43:11.34	278.75	9.36	
2025-01-14 10:43:12.17	278.62	9.31	
2025-01-14 10:43:12.99	278.49	9.27	
2025-01-14 10:43:13.81	278.36	9.22	
2025-01-14 10:43:14.63	278.23	9.18	
2025-01-14 10:43:15.45	278.11	9.13	
2025-01-14 10:43:16.27	277.98	9.08	
2025-01-14 10:43:17.09	277.86	9.04	
2025-01-14 10:43:17.91	277.73	8.99	
2025-01-14 10:43:18.73	277.61	8.94	
2025-01-14 10:43:19.55	277.48	8.90	
2025-01-14 10:43:20.37	277.36	8.85	
2025-01-14 10:43:21.19	277.24	8.80	
2025-01-14 10:43:22.01	277.11	8.76	
2025-01-14 10:43:22.83	276.99	8.71	
2025-01-14 10:43:23.65	276.87	8.66	
2025-01-14 10:43:24.47	276.75	8.62	
2025-01-14 10:43:25.29	276.62	8.57	
2025-01-14 10:43:26.11	276.50	8.52	
2025-01-14 10:43:26.94	276.38	8.48	
2025-01-14 10:43:27.77	276.26	8.43	
2025-01-14 10:43:28.60	276.14	8.38	
2025-01-14 10:43:29.42	276.02	8.34	
2025-01-14 10:43:30.24	275.90	8.29	
2025-01-14 10:43:31.06	275.78	8.24	
2025-01-14 10:43:31.89	275.66	8.19	
2025-01-14 10:43:32.71	275.55	8.15	
2025-01-14 10:43:33.53	275.43	8.10	
2025-01-14 10:43:34.35	275.31	8.05	
2025-01-14 10:43:35.17	275.20	8.01	
2025-01-14 10:43:35.99	275.08	7.96	
2025-01-14 10:43:36.81	274.97	7.91	
2025-01-14 10:43:37.63	274.85	7.87	
2025-01-14 10:43:38.46	274.74	7.82	
2025-01-14 10:43:39.28	274.62	7.77	
2025-01-14 10:43:40.10	274.51	7.73	
2025-01-14 10:43:40.92	274.39	7.68	
2025-01-14 10:43:41.74	274.28	7.63	
2025-01-14 10:43:42.56	274.17	7.58	
2025-01-14 10:43:43.38	274.06	7.54	
2025-01-14 10:43:44.20	273.95	7.49	
2025-01-14 10:43:45.03	273.83	7.44	
2025-01-14 10:43:45.85	273.72	7.40	
2025-01-14 10:43:46.67	273.61	7.35	
2025-01-14 10:43:47.49	273.50	7.30	
2025-01-14 10:43:48.33	273.39	7.26	
2025-01-14 10:43:49.16	273.28	7.21	
2025-01-14 10:43:49.99	273.17	7.16	
2025-01-14 10:43:50.82	273.06	7.11	
2025-01-14 10:43:51.63	272.95	7.07	
2025-01-14 10:43:52.45	272.84	7.02	
2025-01-14 10:43:53.27	272.74	6.97	
2025-01-14 10:43:54.09	272.63	6.93	
2025-01-14 10:43:54.91	272.52	6.88	
2025-01-14 10:43:55.74	272.41	6.83	
2025-01-14 10:43:56.56	272.31	6.79	
2025-01-14 10:43:57.38	272.20	6.74	
2025-01-14 10:43:58.20	272.10	6.69	
2025-01-14 10:43:59.02	271.99	6.64	
2025-01-14 10:43:59.84	271.89	6.60	
2025-01-14 10:44:00.66	271.78	6.55	
2025-01-14 10:44:01.48	271.68	6.50	
2025-01-14 10:44:02.30	271.58	6.46	
2025-01-14 10:44:03.12	271.47	6.41	
2025-01-14 10:44:03.94	271.37	6.36	
2025-01-14 10:44:04.76	271.27	6.32	
2025-01-14 10:44:05.58	271.17	6.27	
2025-01-14 10:44:06.42	271.06	6.22	
2025-01-14 10:44:07.24	270.96	6.18	
2025-01-14 10:44:08.06	270.86	6.13	
2025-01-14 10:44:08.88	270.76	6.08	
2025-01-14 10:44:09.70	270.66	6.04	
2025-01-14 10:44:10.51	270.56	5.99	
2025-01-14 10:44:11.34	270.46	5.94	
2025-01-14 10:44:12.16	270.36	5.90	
2025-01-14 10:44:12.98	270.26	5.85	
2025-01-14 10:44:13.80	270.17	5.80	
2025-01-14 10:44:14.62	270.07	5.76	
2025-01-14 10:44:15.44	269.97	5.71	
2025-01-14 10:44:16.26	269.87	5.66	
2025-01-14 10:44:17.08	269.78	5.62	
2025-01-14 10:44:17.90	269.68	5.57	
2025-01-14 10:44:18.72	269.58	5.52	
2025-01-14 10:44:19.56	269.49	5.48	
2025-01-14 10:44:20.38	269.39	5.43	
2025-01-14 10:44:21.20	269.30	5.38	
2025-01-14 10:44:22.02	269.20	5.34	
2025-01-14 10:44:22.84	269.11	5.29	
2025-01-14 10:44:23.66	269.01	5.25	
2025-01-14 10:44:24.48	268.92	5.20	
2025-01-14 10:44:25.30	268.82	5.15	
2025-01-14 10:44:26.12	268.73	5.11	
2025-01-14 10:44:26.94	268.64	5.06	
2025-01-14 10:44:27.77	268.54	5.01	
2025-01-14 10:44:28.59	268.45	4.97	
2025-01-14 10:44:29.41	268.36	4.92	
2025-01-14 10:44:30.25	268.27	4.87	
2025-01-14 10:44:31.08	268.17	4.83	
2025-01-14 10:44:31.90	268.08	4.78	
2025-01-14 10:44:32.72	267.99	4.74	
2025-01-14 10:44:33.54	267.90	4.69	
2025-01-14 10:44:34.36	267.81	4.64	
2025-01-14 10:44:35.20	267.72	4.60	
2025-01-14 10:44:36.02	267.63	4.55	
2025-01-14 10:44:36.84	267.54	4.51	
2025-01-14 10:44:37.66	267.45	4.46	
2025-01-14 10:44:38.48	267.36	4.41	
2025-01-14 10:44:39.30	267.28	4.37	
2025-01-14 10:44:40.12	267.19	4.32	
2025-01-14 10:44:40.94	267.10	4.28	
2025-01-14 10:44:41.76	267.01	4.23	
2025-01-14 10:44:42.58	266.93	4.18	
2025-01-14 10:44:43.40	266.84	4.14	
2025-01-14 10:44:44.22	266.75	4.09	
2025-01-14 10:44:45.05	266.67	4.05	
2025-01-14 10:44:45.86	266.58	4.00	

#Closed at: 2025-01-14 10:44:46