passes_logs/2025/01/14/SPB_Silybum_02/SPB_Silybum_02__20250114_021214_SUOMI_NPP_rec.log

#Pass ID: 20250114_021214_SUOMI NPP
#Satellite: SUOMI NPP
#Configuration: NPP
#Start time: 2025-01-14 02:12:13

#Version: 2.0.20230423
#Station: SPB_Silybum_02
#Location: 30.233357 lon 59.946436 lat
#TLE: 1 37849U 11061A   25013.15774042  .00000145  00000+0  89802-4 0  9991
#TLE: 2 37849  98.7444 314.1696 0001761  43.7896 316.3420 14.19537310684653

#Time	Az	El	Level	Level2	SNR	BER	Gain	Gain2
2025-01-14 02:12:15.18	14.24	4.05	
2025-01-14 02:12:16.41	14.15	4.12	
2025-01-14 02:12:17.64	14.06	4.19	
2025-01-14 02:12:18.87	13.97	4.27	
2025-01-14 02:12:20.11	13.88	4.34	
2025-01-14 02:12:21.35	13.79	4.42	
2025-01-14 02:12:22.58	13.70	4.49	
2025-01-14 02:12:23.81	13.60	4.57	
2025-01-14 02:12:25.04	13.51	4.64	
2025-01-14 02:12:26.27	13.42	4.72	
2025-01-14 02:12:27.50	13.33	4.79	
2025-01-14 02:12:28.74	13.23	4.87	
2025-01-14 02:12:29.97	13.14	4.94	
2025-01-14 02:12:31.19	13.05	5.02	
2025-01-14 02:12:32.42	12.95	5.09	
2025-01-14 02:12:33.66	12.85	5.17	
2025-01-14 02:12:34.89	12.76	5.24	
2025-01-14 02:12:36.12	12.66	5.32	
2025-01-14 02:12:37.36	12.56	5.39	
2025-01-14 02:12:38.60	12.47	5.47	
2025-01-14 02:12:39.84	12.37	5.55	
2025-01-14 02:12:41.07	12.27	5.62	
2025-01-14 02:12:42.31	12.17	5.70	
2025-01-14 02:12:43.56	12.07	5.78	
2025-01-14 02:12:44.79	11.97	5.86	
2025-01-14 02:12:46.02	11.87	5.93	
2025-01-14 02:12:47.25	11.77	6.01	
2025-01-14 02:12:48.48	11.66	6.09	
2025-01-14 02:12:49.71	11.56	6.17	
2025-01-14 02:12:50.94	11.46	6.24	
2025-01-14 02:12:52.17	11.35	6.32	
2025-01-14 02:12:53.40	11.25	6.40	
2025-01-14 02:12:54.63	11.15	6.48	
2025-01-14 02:12:55.86	11.04	6.55	
2025-01-14 02:12:57.10	10.93	6.63	
2025-01-14 02:12:58.33	10.83	6.71	
2025-01-14 02:12:59.56	10.72	6.79	
2025-01-14 02:13:00.80	10.61	6.87	
2025-01-14 02:13:02.04	10.50	6.95	
2025-01-14 02:13:03.27	10.39	7.03	
2025-01-14 02:13:04.50	10.28	7.11	
2025-01-14 02:13:05.74	10.17	7.19	
2025-01-14 02:13:06.97	10.06	7.27	
2025-01-14 02:13:08.20	9.95	7.34	
2025-01-14 02:13:09.43	9.84	7.42	
2025-01-14 02:13:10.66	9.72	7.50	
2025-01-14 02:13:11.89	9.61	7.58	
2025-01-14 02:13:13.12	9.50	7.66	
2025-01-14 02:13:14.35	9.38	7.74	
2025-01-14 02:13:15.58	9.27	7.82	
2025-01-14 02:13:16.81	9.15	7.90	
2025-01-14 02:13:18.04	9.03	7.99	
2025-01-14 02:13:19.27	8.92	8.07	
2025-01-14 02:13:20.51	8.80	8.15	
2025-01-14 02:13:21.74	8.68	8.23	
2025-01-14 02:13:22.98	8.56	8.31	
2025-01-14 02:13:24.23	8.44	8.39	
2025-01-14 02:13:25.47	8.32	8.48	
2025-01-14 02:13:26.71	8.19	8.56	
2025-01-14 02:13:27.94	8.07	8.64	
2025-01-14 02:13:29.17	7.95	8.72	
2025-01-14 02:13:30.40	7.82	8.80	
2025-01-14 02:13:31.63	7.70	8.88	
2025-01-14 02:13:32.87	7.57	8.97	
2025-01-14 02:13:34.12	7.45	9.05	
2025-01-14 02:13:35.35	7.32	9.13	
2025-01-14 02:13:36.60	7.19	9.22	
2025-01-14 02:13:37.85	7.06	9.30	
2025-01-14 02:13:39.09	6.93	9.39	
2025-01-14 02:13:40.34	6.80	9.47	
2025-01-14 02:13:41.57	6.67	9.55	
2025-01-14 02:13:42.81	6.53	9.64	
2025-01-14 02:13:44.05	6.40	9.72	
2025-01-14 02:13:45.28	6.27	9.81	
2025-01-14 02:13:46.51	6.13	9.89	
2025-01-14 02:13:47.74	6.00	9.97	
2025-01-14 02:13:48.99	5.86	10.06	
2025-01-14 02:13:50.22	5.73	10.14	
2025-01-14 02:13:51.45	5.59	10.23	
2025-01-14 02:13:52.70	5.45	10.31	
2025-01-14 02:13:53.93	5.31	10.40	
2025-01-14 02:13:55.16	5.17	10.48	
2025-01-14 02:13:56.39	5.03	10.57	
2025-01-14 02:13:57.62	4.89	10.65	
2025-01-14 02:13:58.85	4.75	10.74	
2025-01-14 02:14:00.08	4.61	10.82	
2025-01-14 02:14:01.31	4.46	10.91	
2025-01-14 02:14:02.54	4.32	10.99	
2025-01-14 02:14:03.78	4.17	11.08	
2025-01-14 02:14:05.01	4.03	11.16	
2025-01-14 02:14:06.24	3.88	11.25	
2025-01-14 02:14:07.47	3.73	11.34	
2025-01-14 02:14:08.70	3.58	11.42	
2025-01-14 02:14:09.93	3.43	11.51	
2025-01-14 02:14:11.16	3.28	11.59	
2025-01-14 02:14:12.39	3.13	11.68	
2025-01-14 02:14:13.62	2.98	11.77	
2025-01-14 02:14:14.87	2.82	11.85	
2025-01-14 02:14:16.10	2.67	11.94	
2025-01-14 02:14:17.33	2.51	12.03	
2025-01-14 02:14:18.56	2.36	12.11	
2025-01-14 02:14:19.79	2.20	12.20	
2025-01-14 02:14:21.02	2.04	12.29	
2025-01-14 02:14:22.25	1.88	12.37	
2025-01-14 02:14:23.47	1.72	12.46	
2025-01-14 02:14:24.70	1.56	12.55	
2025-01-14 02:14:25.93	1.40	12.64	
2025-01-14 02:14:27.17	1.24	12.72	
2025-01-14 02:14:28.40	1.07	12.81	
2025-01-14 02:14:29.63	0.91	12.90	
2025-01-14 02:14:30.88	0.74	12.99	
2025-01-14 02:14:32.11	0.57	13.07	
2025-01-14 02:14:33.34	0.40	13.16	
2025-01-14 02:14:34.57	0.24	13.25	
2025-01-14 02:14:35.81	0.06	13.34	
2025-01-14 02:14:37.05	359.89	13.43	
2025-01-14 02:14:38.30	359.72	13.52	
2025-01-14 02:14:39.53	359.54	13.61	
2025-01-14 02:14:40.76	359.37	13.69	
2025-01-14 02:14:42.01	359.19	13.78	
2025-01-14 02:14:43.24	359.01	13.87	
2025-01-14 02:14:44.47	358.84	13.96	
2025-01-14 02:14:45.70	358.66	14.05	
2025-01-14 02:14:46.93	358.48	14.14	
2025-01-14 02:14:48.16	358.30	14.22	
2025-01-14 02:14:49.40	358.11	14.31	
2025-01-14 02:14:50.62	357.93	14.40	
2025-01-14 02:14:51.86	357.75	14.49	
2025-01-14 02:14:53.09	357.56	14.58	
2025-01-14 02:14:54.34	357.37	14.67	
2025-01-14 02:14:55.58	357.18	14.76	
2025-01-14 02:14:56.81	357.00	14.85	
2025-01-14 02:14:58.04	356.81	14.94	
2025-01-14 02:14:59.27	356.61	15.02	
2025-01-14 02:15:00.50	356.42	15.11	
2025-01-14 02:15:01.75	356.23	15.20	
2025-01-14 02:15:02.98	356.03	15.29	
2025-01-14 02:15:04.21	355.84	15.38	
2025-01-14 02:15:05.44	355.64	15.47	
2025-01-14 02:15:06.68	355.44	15.56	
2025-01-14 02:15:07.92	355.24	15.65	
2025-01-14 02:15:09.15	355.04	15.73	
2025-01-14 02:15:10.37	354.84	15.82	
2025-01-14 02:15:11.60	354.63	15.91	
2025-01-14 02:15:12.83	354.43	16.00	
2025-01-14 02:15:14.06	354.23	16.09	
2025-01-14 02:15:15.29	354.02	16.17	
2025-01-14 02:15:16.52	353.81	16.26	
2025-01-14 02:15:17.75	353.60	16.35	
2025-01-14 02:15:18.99	353.39	16.44	
2025-01-14 02:15:20.22	353.18	16.53	
2025-01-14 02:15:21.45	352.96	16.61	
2025-01-14 02:15:22.68	352.75	16.70	
2025-01-14 02:15:23.92	352.53	16.79	
2025-01-14 02:15:25.14	352.32	16.88	
2025-01-14 02:15:26.37	352.10	16.96	
2025-01-14 02:15:27.60	351.88	17.05	
2025-01-14 02:15:28.84	351.66	17.14	
2025-01-14 02:15:30.07	351.44	17.23	
2025-01-14 02:15:31.31	351.21	17.31	
2025-01-14 02:15:32.54	350.99	17.40	
2025-01-14 02:15:33.79	350.76	17.49	
2025-01-14 02:15:35.02	350.53	17.58	
2025-01-14 02:15:36.25	350.30	17.66	
2025-01-14 02:15:37.48	350.07	17.75	
2025-01-14 02:15:38.73	349.84	17.83	
2025-01-14 02:15:39.96	349.61	17.92	
2025-01-14 02:15:41.19	349.37	18.01	
2025-01-14 02:15:42.42	349.14	18.09	
2025-01-14 02:15:43.65	348.90	18.18	
2025-01-14 02:15:44.88	348.66	18.26	
2025-01-14 02:15:46.11	348.42	18.35	
2025-01-14 02:15:47.35	348.18	18.43	
2025-01-14 02:15:48.59	347.94	18.52	
2025-01-14 02:15:49.82	347.69	18.60	
2025-01-14 02:15:51.05	347.45	18.68	
2025-01-14 02:15:52.28	347.20	18.77	
2025-01-14 02:15:53.53	346.95	18.85	
2025-01-14 02:15:54.75	346.70	18.93	
2025-01-14 02:15:55.99	346.45	19.02	
2025-01-14 02:15:57.22	346.20	19.10	
2025-01-14 02:15:58.45	345.95	19.18	
2025-01-14 02:15:59.68	345.69	19.26	
2025-01-14 02:16:00.92	345.44	19.34	
2025-01-14 02:16:02.15	345.18	19.42	
2025-01-14 02:16:03.37	344.92	19.50	
2025-01-14 02:16:04.61	344.66	19.58	
2025-01-14 02:16:05.83	344.40	19.66	
2025-01-14 02:16:07.06	344.14	19.74	
2025-01-14 02:16:08.30	343.87	19.82	
2025-01-14 02:16:09.53	343.61	19.90	
2025-01-14 02:16:10.76	343.34	19.98	
2025-01-14 02:16:12.00	343.07	20.06	
2025-01-14 02:16:13.23	342.80	20.14	
2025-01-14 02:16:14.47	342.53	20.21	
2025-01-14 02:16:15.70	342.25	20.29	
2025-01-14 02:16:16.94	341.98	20.37	
2025-01-14 02:16:18.18	341.70	20.44	
2025-01-14 02:16:19.41	341.42	20.52	
2025-01-14 02:16:20.64	341.15	20.59	
2025-01-14 02:16:21.87	340.87	20.67	
2025-01-14 02:16:23.10	340.59	20.74	
2025-01-14 02:16:24.33	340.30	20.81	
2025-01-14 02:16:25.57	340.02	20.89	
2025-01-14 02:16:26.80	339.73	20.96	
2025-01-14 02:16:28.03	339.45	21.03	
2025-01-14 02:16:29.26	339.16	21.10	
2025-01-14 02:16:30.50	338.87	21.17	
2025-01-14 02:16:31.73	338.58	21.24	
2025-01-14 02:16:32.98	338.28	21.31	
2025-01-14 02:16:34.23	337.99	21.38	
2025-01-14 02:16:35.47	337.69	21.45	
2025-01-14 02:16:36.71	337.39	21.52	
2025-01-14 02:16:37.94	337.10	21.59	
2025-01-14 02:16:39.17	336.80	21.65	
2025-01-14 02:16:40.40	336.50	21.72	
2025-01-14 02:16:41.63	336.20	21.78	
2025-01-14 02:16:42.87	335.89	21.85	
2025-01-14 02:16:44.10	335.59	21.91	
2025-01-14 02:16:45.36	335.28	21.97	
2025-01-14 02:16:46.59	334.97	22.04	
2025-01-14 02:16:47.84	334.66	22.10	
2025-01-14 02:16:49.07	334.35	22.16	
2025-01-14 02:16:50.30	334.04	22.22	
2025-01-14 02:16:51.53	333.73	22.28	
2025-01-14 02:16:52.76	333.42	22.34	
2025-01-14 02:16:53.98	333.11	22.39	
2025-01-14 02:16:55.22	332.80	22.45	
2025-01-14 02:16:56.44	332.48	22.51	
2025-01-14 02:16:57.69	332.16	22.56	
2025-01-14 02:16:58.92	331.84	22.62	
2025-01-14 02:17:00.15	331.53	22.67	
2025-01-14 02:17:01.38	331.21	22.72	
2025-01-14 02:17:02.62	330.88	22.77	
2025-01-14 02:17:03.85	330.56	22.82	
2025-01-14 02:17:05.08	330.24	22.87	
2025-01-14 02:17:06.31	329.91	22.92	
2025-01-14 02:17:07.55	329.59	22.97	
2025-01-14 02:17:08.78	329.26	23.02	
2025-01-14 02:17:10.01	328.93	23.06	
2025-01-14 02:17:11.24	328.61	23.11	
2025-01-14 02:17:12.47	328.28	23.15	
2025-01-14 02:17:13.70	327.95	23.20	
2025-01-14 02:17:14.94	327.61	23.24	
2025-01-14 02:17:16.17	327.28	23.28	
2025-01-14 02:17:17.40	326.95	23.32	
2025-01-14 02:17:18.63	326.62	23.36	
2025-01-14 02:17:19.88	326.28	23.40	
2025-01-14 02:17:21.11	325.94	23.44	
2025-01-14 02:17:22.34	325.61	23.48	
2025-01-14 02:17:23.58	325.27	23.51	
2025-01-14 02:17:24.81	324.93	23.55	
2025-01-14 02:17:26.04	324.59	23.58	
2025-01-14 02:17:27.27	324.25	23.61	
2025-01-14 02:17:28.50	323.91	23.64	
2025-01-14 02:17:29.75	323.57	23.67	
2025-01-14 02:17:30.98	323.22	23.70	
2025-01-14 02:17:32.21	322.88	23.73	
2025-01-14 02:17:33.45	322.54	23.76	
2025-01-14 02:17:34.68	322.20	23.78	
2025-01-14 02:17:35.91	321.85	23.81	
2025-01-14 02:17:37.14	321.51	23.83	
2025-01-14 02:17:38.37	321.16	23.86	
2025-01-14 02:17:39.60	320.82	23.88	
2025-01-14 02:17:40.83	320.47	23.90	
2025-01-14 02:17:42.06	320.13	23.92	
2025-01-14 02:17:43.30	319.78	23.94	
2025-01-14 02:17:44.54	319.43	23.95	
2025-01-14 02:17:45.78	319.08	23.97	
2025-01-14 02:17:47.03	318.73	23.99	
2025-01-14 02:17:48.26	318.38	24.00	
2025-01-14 02:17:49.49	318.03	24.01	
2025-01-14 02:17:50.74	317.68	24.02	
2025-01-14 02:17:51.97	317.33	24.03	
2025-01-14 02:17:53.20	316.98	24.04	
2025-01-14 02:17:54.43	316.63	24.05	
2025-01-14 02:17:55.66	316.28	24.06	
2025-01-14 02:17:56.91	315.92	24.06	
2025-01-14 02:17:58.13	315.58	24.07	
2025-01-14 02:17:59.37	315.23	24.07	
2025-01-14 02:18:00.60	314.88	24.07	
2025-01-14 02:18:01.84	314.52	24.07	
2025-01-14 02:18:03.07	314.17	24.07	
2025-01-14 02:18:04.30	313.82	24.07	
2025-01-14 02:18:05.53	313.47	24.07	
2025-01-14 02:18:06.77	313.12	24.07	
2025-01-14 02:18:08.01	312.77	24.06	
2025-01-14 02:18:09.24	312.42	24.06	
2025-01-14 02:18:10.49	312.07	24.05	
2025-01-14 02:18:11.72	311.72	24.04	
2025-01-14 02:18:12.95	311.37	24.03	
2025-01-14 02:18:14.19	311.02	24.02	
2025-01-14 02:18:15.44	310.66	24.01	
2025-01-14 02:18:16.66	310.32	24.00	
2025-01-14 02:18:17.90	309.97	23.98	
2025-01-14 02:18:19.13	309.62	23.97	
2025-01-14 02:18:20.36	309.27	23.95	
2025-01-14 02:18:21.60	308.92	23.93	
2025-01-14 02:18:22.83	308.57	23.92	
2025-01-14 02:18:24.06	308.23	23.90	
2025-01-14 02:18:25.29	307.88	23.88	
2025-01-14 02:18:26.52	307.54	23.85	
2025-01-14 02:18:27.77	307.19	23.83	
2025-01-14 02:18:29.00	306.84	23.81	
2025-01-14 02:18:30.23	306.50	23.78	
2025-01-14 02:18:31.48	306.15	23.75	
2025-01-14 02:18:32.72	305.81	23.73	
2025-01-14 02:18:33.95	305.46	23.70	
2025-01-14 02:18:35.18	305.12	23.67	
2025-01-14 02:18:36.41	304.78	23.64	
2025-01-14 02:18:37.65	304.44	23.61	
2025-01-14 02:18:38.89	304.10	23.57	
2025-01-14 02:18:40.13	303.76	23.54	
2025-01-14 02:18:41.37	303.42	23.50	
2025-01-14 02:18:42.60	303.08	23.47	
2025-01-14 02:18:43.83	302.74	23.43	
2025-01-14 02:18:45.06	302.41	23.39	
2025-01-14 02:18:46.29	302.07	23.36	
2025-01-14 02:18:47.53	301.74	23.32	
2025-01-14 02:18:48.76	301.40	23.27	
2025-01-14 02:18:49.98	301.07	23.23	
2025-01-14 02:18:51.22	300.74	23.19	
2025-01-14 02:18:52.45	300.41	23.15	
2025-01-14 02:18:53.69	300.08	23.10	
2025-01-14 02:18:54.92	299.75	23.06	
2025-01-14 02:18:56.17	299.42	23.01	
2025-01-14 02:18:57.40	299.09	22.96	
2025-01-14 02:18:58.63	298.77	22.91	
2025-01-14 02:18:59.86	298.44	22.86	
2025-01-14 02:19:01.10	298.12	22.81	
2025-01-14 02:19:02.33	297.79	22.76	
2025-01-14 02:19:03.57	297.47	22.71	
2025-01-14 02:19:04.80	297.15	22.66	
2025-01-14 02:19:06.03	296.83	22.60	
2025-01-14 02:19:07.26	296.51	22.55	
2025-01-14 02:19:08.49	296.20	22.49	
2025-01-14 02:19:09.72	295.88	22.44	
2025-01-14 02:19:10.95	295.57	22.38	
2025-01-14 02:19:12.18	295.25	22.32	
2025-01-14 02:19:13.41	294.94	22.27	
2025-01-14 02:19:14.63	294.63	22.21	
2025-01-14 02:19:15.88	294.32	22.15	
2025-01-14 02:19:17.11	294.01	22.08	
2025-01-14 02:19:18.33	293.70	22.02	
2025-01-14 02:19:19.58	293.39	21.96	
2025-01-14 02:19:20.82	293.09	21.90	
2025-01-14 02:19:22.06	292.78	21.83	
2025-01-14 02:19:23.29	292.48	21.77	
2025-01-14 02:19:24.52	292.18	21.70	
2025-01-14 02:19:25.75	291.88	21.64	
2025-01-14 02:19:26.98	291.58	21.57	
2025-01-14 02:19:28.21	291.28	21.50	
2025-01-14 02:19:29.45	290.98	21.44	
2025-01-14 02:19:30.68	290.69	21.37	
2025-01-14 02:19:31.91	290.39	21.30	
2025-01-14 02:19:33.14	290.10	21.23	
2025-01-14 02:19:34.38	289.81	21.16	
2025-01-14 02:19:35.61	289.52	21.09	
2025-01-14 02:19:36.84	289.23	21.02	
2025-01-14 02:19:38.07	288.94	20.95	
2025-01-14 02:19:39.30	288.66	20.87	
2025-01-14 02:19:40.53	288.38	20.80	
2025-01-14 02:19:41.77	288.09	20.73	
2025-01-14 02:19:43.01	287.81	20.65	
2025-01-14 02:19:44.25	287.52	20.58	
2025-01-14 02:19:45.48	287.25	20.50	
2025-01-14 02:19:46.71	286.97	20.43	
2025-01-14 02:19:47.96	286.69	20.35	
2025-01-14 02:19:49.19	286.41	20.27	
2025-01-14 02:19:50.42	286.14	20.20	
2025-01-14 02:19:51.65	285.87	20.12	
2025-01-14 02:19:52.88	285.60	20.04	
2025-01-14 02:19:54.11	285.33	19.96	
2025-01-14 02:19:55.34	285.06	19.88	
2025-01-14 02:19:56.57	284.80	19.81	
2025-01-14 02:19:57.80	284.53	19.73	
2025-01-14 02:19:59.03	284.27	19.65	
2025-01-14 02:20:00.26	284.01	19.57	
2025-01-14 02:20:01.49	283.75	19.49	
2025-01-14 02:20:02.74	283.48	19.40	
2025-01-14 02:20:03.96	283.23	19.32	
2025-01-14 02:20:05.20	282.97	19.24	
2025-01-14 02:20:06.43	282.71	19.16	
2025-01-14 02:20:07.66	282.46	19.08	
2025-01-14 02:20:08.90	282.21	18.99	
2025-01-14 02:20:10.13	281.95	18.91	
2025-01-14 02:20:11.36	281.70	18.83	
2025-01-14 02:20:12.59	281.46	18.75	
2025-01-14 02:20:13.82	281.21	18.66	
2025-01-14 02:20:15.06	280.96	18.58	
2025-01-14 02:20:16.29	280.72	18.49	
2025-01-14 02:20:17.52	280.48	18.41	
2025-01-14 02:20:18.75	280.23	18.32	
2025-01-14 02:20:19.97	280.00	18.24	
2025-01-14 02:20:21.20	279.76	18.15	
2025-01-14 02:20:22.43	279.52	18.07	
2025-01-14 02:20:23.67	279.28	17.98	
2025-01-14 02:20:24.90	279.05	17.90	
2025-01-14 02:20:26.13	278.81	17.81	
2025-01-14 02:20:27.36	278.58	17.73	
2025-01-14 02:20:28.59	278.35	17.64	
2025-01-14 02:20:29.83	278.12	17.55	
2025-01-14 02:20:31.06	277.89	17.47	
2025-01-14 02:20:32.29	277.67	17.38	
2025-01-14 02:20:33.53	277.44	17.29	
2025-01-14 02:20:34.76	277.21	17.20	
2025-01-14 02:20:36.00	276.99	17.12	
2025-01-14 02:20:37.23	276.77	17.03	
2025-01-14 02:20:38.47	276.55	16.94	
2025-01-14 02:20:39.71	276.33	16.85	
2025-01-14 02:20:40.94	276.11	16.76	
2025-01-14 02:20:42.18	275.89	16.68	
2025-01-14 02:20:43.41	275.68	16.59	
2025-01-14 02:20:44.65	275.46	16.50	
2025-01-14 02:20:45.88	275.25	16.41	
2025-01-14 02:20:47.13	275.03	16.32	
2025-01-14 02:20:48.36	274.82	16.23	
2025-01-14 02:20:49.59	274.61	16.14	
2025-01-14 02:20:50.82	274.41	16.06	
2025-01-14 02:20:52.06	274.20	15.97	
2025-01-14 02:20:53.29	273.99	15.88	
2025-01-14 02:20:54.53	273.79	15.79	
2025-01-14 02:20:55.75	273.59	15.70	
2025-01-14 02:20:56.98	273.39	15.61	
2025-01-14 02:20:58.21	273.19	15.52	
2025-01-14 02:20:59.44	272.99	15.44	
2025-01-14 02:21:00.67	272.79	15.35	
2025-01-14 02:21:01.90	272.59	15.26	
2025-01-14 02:21:03.13	272.40	15.17	
2025-01-14 02:21:04.36	272.20	15.08	
2025-01-14 02:21:05.59	272.01	14.99	
2025-01-14 02:21:06.82	271.82	14.90	
2025-01-14 02:21:08.05	271.63	14.81	
2025-01-14 02:21:09.28	271.44	14.73	
2025-01-14 02:21:10.53	271.25	14.63	
2025-01-14 02:21:11.76	271.06	14.55	
2025-01-14 02:21:12.99	270.87	14.46	
2025-01-14 02:21:14.22	270.69	14.37	
2025-01-14 02:21:15.45	270.51	14.28	
2025-01-14 02:21:16.69	270.32	14.19	
2025-01-14 02:21:17.92	270.14	14.10	
2025-01-14 02:21:19.15	269.96	14.01	
2025-01-14 02:21:20.39	269.78	13.92	
2025-01-14 02:21:21.62	269.60	13.84	
2025-01-14 02:21:22.85	269.42	13.75	
2025-01-14 02:21:24.10	269.24	13.66	
2025-01-14 02:21:25.34	269.07	13.57	
2025-01-14 02:21:26.58	268.89	13.48	
2025-01-14 02:21:27.81	268.72	13.39	
2025-01-14 02:21:29.05	268.54	13.30	
2025-01-14 02:21:30.28	268.37	13.21	
2025-01-14 02:21:31.52	268.20	13.13	
2025-01-14 02:21:32.76	268.03	13.04	
2025-01-14 02:21:33.98	267.87	12.95	
2025-01-14 02:21:35.21	267.70	12.86	
2025-01-14 02:21:36.46	267.53	12.77	
2025-01-14 02:21:37.70	267.36	12.68	
2025-01-14 02:21:38.93	267.20	12.60	
2025-01-14 02:21:40.17	267.04	12.51	
2025-01-14 02:21:41.40	266.87	12.42	
2025-01-14 02:21:42.63	266.71	12.33	
2025-01-14 02:21:43.86	266.55	12.25	
2025-01-14 02:21:45.09	266.40	12.16	
2025-01-14 02:21:46.32	266.24	12.07	
2025-01-14 02:21:47.55	266.08	11.98	
2025-01-14 02:21:48.78	265.92	11.90	
2025-01-14 02:21:50.01	265.77	11.81	
2025-01-14 02:21:51.25	265.61	11.72	
2025-01-14 02:21:52.48	265.46	11.64	
2025-01-14 02:21:53.73	265.31	11.55	
2025-01-14 02:21:54.97	265.15	11.46	
2025-01-14 02:21:56.21	265.00	11.38	
2025-01-14 02:21:57.45	264.85	11.29	
2025-01-14 02:21:58.68	264.70	11.20	
2025-01-14 02:21:59.91	264.55	11.12	
2025-01-14 02:22:01.15	264.41	11.03	
2025-01-14 02:22:02.38	264.26	10.94	
2025-01-14 02:22:03.61	264.11	10.86	
2025-01-14 02:22:04.86	263.97	10.77	
2025-01-14 02:22:06.08	263.82	10.69	
2025-01-14 02:22:07.31	263.68	10.60	
2025-01-14 02:22:08.54	263.54	10.52	
2025-01-14 02:22:09.77	263.40	10.43	
2025-01-14 02:22:11.00	263.26	10.35	
2025-01-14 02:22:12.23	263.12	10.26	
2025-01-14 02:22:13.48	262.98	10.18	
2025-01-14 02:22:14.71	262.84	10.09	
2025-01-14 02:22:15.94	262.70	10.01	
2025-01-14 02:22:17.17	262.57	9.92	
2025-01-14 02:22:18.40	262.43	9.84	
2025-01-14 02:22:19.63	262.30	9.76	
2025-01-14 02:22:20.86	262.17	9.67	
2025-01-14 02:22:22.09	262.03	9.59	
2025-01-14 02:22:23.32	261.90	9.50	
2025-01-14 02:22:24.57	261.77	9.42	
2025-01-14 02:22:25.80	261.64	9.34	
2025-01-14 02:22:27.04	261.51	9.25	
2025-01-14 02:22:28.27	261.38	9.17	
2025-01-14 02:22:29.50	261.25	9.09	
2025-01-14 02:22:30.74	261.12	9.00	
2025-01-14 02:22:31.97	260.99	8.92	
2025-01-14 02:22:33.20	260.87	8.84	
2025-01-14 02:22:34.43	260.74	8.76	
2025-01-14 02:22:35.68	260.61	8.67	
2025-01-14 02:22:36.91	260.49	8.59	
2025-01-14 02:22:38.14	260.37	8.51	
2025-01-14 02:22:39.38	260.24	8.43	
2025-01-14 02:22:40.61	260.12	8.34	
2025-01-14 02:22:41.83	260.00	8.26	
2025-01-14 02:22:43.08	259.88	8.18	
2025-01-14 02:22:44.31	259.76	8.10	
2025-01-14 02:22:45.56	259.64	8.02	
2025-01-14 02:22:46.79	259.52	7.94	
2025-01-14 02:22:48.04	259.40	7.85	
2025-01-14 02:22:49.27	259.28	7.77	
2025-01-14 02:22:50.50	259.17	7.69	
2025-01-14 02:22:51.73	259.05	7.61	
2025-01-14 02:22:52.97	258.94	7.53	
2025-01-14 02:22:54.20	258.82	7.45	
2025-01-14 02:22:55.43	258.71	7.37	
2025-01-14 02:22:56.66	258.59	7.29	
2025-01-14 02:22:57.88	258.48	7.21	
2025-01-14 02:22:59.12	258.37	7.13	
2025-01-14 02:23:00.35	258.26	7.05	
2025-01-14 02:23:01.58	258.15	6.97	
2025-01-14 02:23:02.81	258.04	6.90	
2025-01-14 02:23:04.04	257.93	6.82	
2025-01-14 02:23:05.27	257.82	6.74	
2025-01-14 02:23:06.50	257.71	6.66	
2025-01-14 02:23:07.73	257.60	6.58	
2025-01-14 02:23:08.98	257.50	6.50	
2025-01-14 02:23:10.21	257.39	6.42	
2025-01-14 02:23:11.44	257.28	6.34	
2025-01-14 02:23:12.67	257.18	6.27	
2025-01-14 02:23:13.92	257.07	6.19	
2025-01-14 02:23:15.15	256.97	6.11	
2025-01-14 02:23:16.38	256.87	6.03	
2025-01-14 02:23:17.61	256.76	5.96	
2025-01-14 02:23:18.84	256.66	5.88	
2025-01-14 02:23:20.09	256.56	5.80	
2025-01-14 02:23:21.32	256.46	5.72	
2025-01-14 02:23:22.54	256.36	5.65	
2025-01-14 02:23:23.77	256.26	5.57	
2025-01-14 02:23:25.02	256.15	5.49	
2025-01-14 02:23:26.25	256.05	5.42	
2025-01-14 02:23:27.49	255.96	5.34	
2025-01-14 02:23:28.73	255.86	5.26	
2025-01-14 02:23:29.96	255.76	5.19	
2025-01-14 02:23:31.20	255.66	5.11	
2025-01-14 02:23:32.43	255.57	5.03	
2025-01-14 02:23:33.67	255.47	4.96	
2025-01-14 02:23:34.90	255.37	4.88	
2025-01-14 02:23:36.14	255.28	4.81	
2025-01-14 02:23:37.37	255.18	4.73	
2025-01-14 02:23:38.59	255.09	4.66	
2025-01-14 02:23:39.83	255.00	4.58	
2025-01-14 02:23:41.06	254.90	4.51	
2025-01-14 02:23:42.29	254.81	4.43	
2025-01-14 02:23:43.52	254.72	4.36	
2025-01-14 02:23:44.75	254.63	4.28	
2025-01-14 02:23:45.98	254.54	4.21	
2025-01-14 02:23:47.21	254.45	4.14	
2025-01-14 02:23:48.45	254.36	4.06	

#Closed at: 2025-01-14 02:23:49