passes_logs/2025/01/14/SPB_Silybum_02/SPB_Silybum_02__20250114_003144_SUOMI_NPP_rec.log

#Pass ID: 20250114_003144_SUOMI NPP
#Satellite: SUOMI NPP
#Configuration: NPP
#Start time: 2025-01-14 00:31:44

#Version: 2.0.20230423
#Station: SPB_Silybum_02
#Location: 30.233357 lon 59.946436 lat
#TLE: 1 37849U 11061A   25013.15774042  .00000145  00000+0  89802-4 0  9991
#TLE: 2 37849  98.7444 314.1696 0001761  43.7896 316.3420 14.19537310684653

#Time	Az	El	Level	Level2	SNR	BER	Gain	Gain2
2025-01-14 00:31:46.19	17.28	4.13	
2025-01-14 00:31:47.62	17.27	4.23	
2025-01-14 00:31:49.06	17.27	4.33	
2025-01-14 00:31:50.50	17.26	4.43	
2025-01-14 00:31:51.93	17.25	4.53	
2025-01-14 00:31:53.37	17.24	4.63	
2025-01-14 00:31:54.81	17.23	4.73	
2025-01-14 00:31:56.25	17.22	4.83	
2025-01-14 00:31:57.69	17.22	4.93	
2025-01-14 00:31:59.12	17.21	5.03	
2025-01-14 00:32:00.58	17.20	5.14	
2025-01-14 00:32:02.02	17.19	5.24	
2025-01-14 00:32:03.46	17.18	5.34	
2025-01-14 00:32:04.89	17.17	5.45	
2025-01-14 00:32:06.32	17.16	5.55	
2025-01-14 00:32:07.78	17.15	5.66	
2025-01-14 00:32:09.23	17.14	5.76	
2025-01-14 00:32:10.66	17.13	5.87	
2025-01-14 00:32:12.10	17.12	5.97	
2025-01-14 00:32:13.56	17.11	6.08	
2025-01-14 00:32:15.01	17.10	6.19	
2025-01-14 00:32:16.46	17.09	6.30	
2025-01-14 00:32:17.90	17.08	6.40	
2025-01-14 00:32:19.34	17.07	6.51	
2025-01-14 00:32:20.78	17.06	6.62	
2025-01-14 00:32:22.22	17.05	6.73	
2025-01-14 00:32:23.67	17.04	6.84	
2025-01-14 00:32:25.11	17.03	6.95	
2025-01-14 00:32:26.56	17.02	7.06	
2025-01-14 00:32:27.99	17.01	7.17	
2025-01-14 00:32:29.43	17.00	7.28	
2025-01-14 00:32:30.87	16.99	7.39	
2025-01-14 00:32:32.32	16.98	7.51	
2025-01-14 00:32:33.76	16.96	7.62	
2025-01-14 00:32:35.19	16.95	7.73	
2025-01-14 00:32:36.63	16.94	7.85	
2025-01-14 00:32:38.07	16.93	7.96	
2025-01-14 00:32:39.50	16.92	8.08	
2025-01-14 00:32:40.94	16.90	8.19	
2025-01-14 00:32:42.38	16.89	8.31	
2025-01-14 00:32:43.81	16.88	8.42	
2025-01-14 00:32:45.24	16.87	8.54	
2025-01-14 00:32:46.68	16.85	8.66	
2025-01-14 00:32:48.12	16.84	8.78	
2025-01-14 00:32:49.57	16.83	8.89	
2025-01-14 00:32:51.02	16.81	9.01	
2025-01-14 00:32:52.45	16.80	9.13	
2025-01-14 00:32:53.90	16.79	9.26	
2025-01-14 00:32:55.34	16.77	9.38	
2025-01-14 00:32:56.78	16.76	9.50	
2025-01-14 00:32:58.21	16.74	9.62	
2025-01-14 00:32:59.64	16.73	9.74	
2025-01-14 00:33:01.09	16.72	9.87	
2025-01-14 00:33:02.53	16.70	9.99	
2025-01-14 00:33:03.97	16.69	10.11	
2025-01-14 00:33:05.40	16.67	10.24	
2025-01-14 00:33:06.84	16.66	10.36	
2025-01-14 00:33:08.29	16.64	10.49	
2025-01-14 00:33:09.73	16.63	10.62	
2025-01-14 00:33:11.17	16.61	10.75	
2025-01-14 00:33:12.61	16.59	10.88	
2025-01-14 00:33:14.04	16.58	11.00	
2025-01-14 00:33:15.48	16.56	11.13	
2025-01-14 00:33:16.92	16.54	11.26	
2025-01-14 00:33:18.35	16.53	11.39	
2025-01-14 00:33:19.79	16.51	11.53	
2025-01-14 00:33:21.23	16.49	11.66	
2025-01-14 00:33:22.68	16.48	11.79	
2025-01-14 00:33:24.11	16.46	11.93	
2025-01-14 00:33:25.55	16.44	12.06	
2025-01-14 00:33:26.99	16.42	12.20	
2025-01-14 00:33:28.42	16.40	12.33	
2025-01-14 00:33:29.86	16.39	12.47	
2025-01-14 00:33:31.30	16.37	12.61	
2025-01-14 00:33:32.73	16.35	12.75	
2025-01-14 00:33:34.17	16.33	12.88	
2025-01-14 00:33:35.60	16.31	13.02	
2025-01-14 00:33:37.03	16.29	13.16	
2025-01-14 00:33:38.47	16.27	13.31	
2025-01-14 00:33:39.92	16.25	13.45	
2025-01-14 00:33:41.36	16.23	13.59	
2025-01-14 00:33:42.80	16.21	13.74	
2025-01-14 00:33:44.23	16.19	13.88	
2025-01-14 00:33:45.67	16.17	14.03	
2025-01-14 00:33:47.11	16.15	14.18	
2025-01-14 00:33:48.55	16.12	14.32	
2025-01-14 00:33:49.99	16.10	14.47	
2025-01-14 00:33:51.42	16.08	14.62	
2025-01-14 00:33:52.86	16.06	14.77	
2025-01-14 00:33:54.30	16.04	14.92	
2025-01-14 00:33:55.73	16.01	15.07	
2025-01-14 00:33:57.17	15.99	15.23	
2025-01-14 00:33:58.61	15.97	15.38	
2025-01-14 00:34:00.06	15.94	15.54	
2025-01-14 00:34:01.50	15.92	15.70	
2025-01-14 00:34:02.93	15.89	15.85	
2025-01-14 00:34:04.36	15.87	16.01	
2025-01-14 00:34:05.81	15.84	16.17	
2025-01-14 00:34:07.24	15.82	16.33	
2025-01-14 00:34:08.68	15.79	16.49	
2025-01-14 00:34:10.12	15.76	16.65	
2025-01-14 00:34:11.55	15.74	16.82	
2025-01-14 00:34:12.99	15.71	16.98	
2025-01-14 00:34:14.43	15.68	17.15	
2025-01-14 00:34:15.87	15.65	17.31	
2025-01-14 00:34:17.30	15.63	17.48	
2025-01-14 00:34:18.73	15.60	17.65	
2025-01-14 00:34:20.18	15.57	17.82	
2025-01-14 00:34:21.62	15.54	17.99	
2025-01-14 00:34:23.05	15.51	18.16	
2025-01-14 00:34:24.50	15.48	18.34	
2025-01-14 00:34:25.94	15.45	18.51	
2025-01-14 00:34:27.37	15.42	18.69	
2025-01-14 00:34:28.81	15.39	18.87	
2025-01-14 00:34:30.25	15.36	19.05	
2025-01-14 00:34:31.68	15.32	19.23	
2025-01-14 00:34:33.11	15.29	19.41	
2025-01-14 00:34:34.55	15.26	19.59	
2025-01-14 00:34:36.00	15.22	19.77	
2025-01-14 00:34:37.44	15.19	19.96	
2025-01-14 00:34:38.88	15.16	20.15	
2025-01-14 00:34:40.31	15.12	20.33	
2025-01-14 00:34:41.74	15.09	20.52	
2025-01-14 00:34:43.19	15.05	20.72	
2025-01-14 00:34:44.62	15.01	20.91	
2025-01-14 00:34:46.07	14.97	21.10	
2025-01-14 00:34:47.52	14.94	21.30	
2025-01-14 00:34:48.95	14.90	21.50	
2025-01-14 00:34:50.40	14.86	21.70	
2025-01-14 00:34:51.84	14.82	21.90	
2025-01-14 00:34:53.27	14.78	22.10	
2025-01-14 00:34:54.71	14.74	22.30	
2025-01-14 00:34:56.15	14.70	22.51	
2025-01-14 00:34:57.58	14.66	22.71	
2025-01-14 00:34:59.01	14.61	22.92	
2025-01-14 00:35:00.45	14.57	23.13	
2025-01-14 00:35:01.88	14.53	23.34	
2025-01-14 00:35:03.32	14.48	23.55	
2025-01-14 00:35:04.75	14.44	23.77	
2025-01-14 00:35:06.20	14.39	23.99	
2025-01-14 00:35:07.64	14.35	24.21	
2025-01-14 00:35:09.07	14.30	24.43	
2025-01-14 00:35:10.51	14.25	24.65	
2025-01-14 00:35:11.94	14.20	24.87	
2025-01-14 00:35:13.38	14.15	25.10	
2025-01-14 00:35:14.81	14.10	25.32	
2025-01-14 00:35:16.25	14.05	25.55	
2025-01-14 00:35:17.70	14.00	25.79	
2025-01-14 00:35:19.14	13.95	26.02	
2025-01-14 00:35:20.57	13.89	26.26	
2025-01-14 00:35:22.01	13.84	26.50	
2025-01-14 00:35:23.45	13.78	26.74	
2025-01-14 00:35:24.88	13.73	26.98	
2025-01-14 00:35:26.32	13.67	27.22	
2025-01-14 00:35:27.76	13.61	27.47	
2025-01-14 00:35:29.20	13.55	27.72	
2025-01-14 00:35:30.64	13.49	27.97	
2025-01-14 00:35:32.07	13.43	28.22	
2025-01-14 00:35:33.51	13.37	28.48	
2025-01-14 00:35:34.94	13.30	28.74	
2025-01-14 00:35:36.38	13.24	29.00	
2025-01-14 00:35:37.81	13.17	29.26	
2025-01-14 00:35:39.25	13.10	29.52	
2025-01-14 00:35:40.69	13.04	29.79	
2025-01-14 00:35:42.13	12.97	30.06	
2025-01-14 00:35:43.56	12.90	30.33	
2025-01-14 00:35:45.01	12.82	30.61	
2025-01-14 00:35:46.45	12.75	30.89	
2025-01-14 00:35:47.91	12.67	31.17	
2025-01-14 00:35:49.34	12.60	31.45	
2025-01-14 00:35:50.78	12.52	31.74	
2025-01-14 00:35:52.21	12.44	32.03	
2025-01-14 00:35:53.65	12.36	32.32	
2025-01-14 00:35:55.10	12.28	32.62	
2025-01-14 00:35:56.54	12.19	32.91	
2025-01-14 00:35:57.98	12.11	33.21	
2025-01-14 00:35:59.43	12.02	33.52	
2025-01-14 00:36:00.88	11.93	33.83	
2025-01-14 00:36:02.32	11.84	34.14	
2025-01-14 00:36:03.76	11.75	34.45	
2025-01-14 00:36:05.19	11.65	34.76	
2025-01-14 00:36:06.65	11.55	35.09	
2025-01-14 00:36:08.09	11.46	35.41	
2025-01-14 00:36:09.53	11.35	35.73	
2025-01-14 00:36:10.96	11.25	36.06	
2025-01-14 00:36:12.40	11.15	36.39	
2025-01-14 00:36:13.83	11.04	36.72	
2025-01-14 00:36:15.27	10.93	37.06	
2025-01-14 00:36:16.71	10.82	37.40	
2025-01-14 00:36:18.15	10.70	37.75	
2025-01-14 00:36:19.59	10.59	38.10	
2025-01-14 00:36:21.02	10.47	38.44	
2025-01-14 00:36:22.46	10.34	38.80	
2025-01-14 00:36:23.91	10.22	39.16	
2025-01-14 00:36:25.34	10.09	39.52	
2025-01-14 00:36:26.78	9.96	39.89	
2025-01-14 00:36:28.21	9.83	40.25	
2025-01-14 00:36:29.65	9.69	40.63	
2025-01-14 00:36:31.09	9.55	41.01	
2025-01-14 00:36:32.53	9.40	41.39	
2025-01-14 00:36:33.96	9.25	41.77	
2025-01-14 00:36:35.40	9.10	42.16	
2025-01-14 00:36:36.84	8.95	42.55	
2025-01-14 00:36:38.27	8.79	42.94	
2025-01-14 00:36:39.71	8.62	43.34	
2025-01-14 00:36:41.17	8.45	43.75	
2025-01-14 00:36:42.61	8.28	44.16	
2025-01-14 00:36:44.05	8.10	44.58	
2025-01-14 00:36:45.48	7.92	44.99	
2025-01-14 00:36:46.92	7.73	45.41	
2025-01-14 00:36:48.35	7.54	45.83	
2025-01-14 00:36:49.80	7.34	46.26	
2025-01-14 00:36:51.24	7.14	46.70	
2025-01-14 00:36:52.67	6.93	47.13	
2025-01-14 00:36:54.11	6.72	47.57	
2025-01-14 00:36:55.54	6.50	48.01	
2025-01-14 00:36:56.98	6.27	48.46	
2025-01-14 00:36:58.42	6.03	48.92	
2025-01-14 00:36:59.87	5.79	49.38	
2025-01-14 00:37:01.30	5.54	49.84	
2025-01-14 00:37:02.75	5.28	50.31	
2025-01-14 00:37:04.18	5.01	50.77	
2025-01-14 00:37:05.62	4.74	51.25	
2025-01-14 00:37:07.05	4.46	51.72	
2025-01-14 00:37:08.49	4.16	52.21	
2025-01-14 00:37:09.94	3.86	52.70	
2025-01-14 00:37:11.37	3.55	53.18	
2025-01-14 00:37:12.81	3.22	53.68	
2025-01-14 00:37:14.25	2.88	54.18	
2025-01-14 00:37:15.68	2.54	54.68	
2025-01-14 00:37:17.12	2.18	55.18	
2025-01-14 00:37:18.56	1.80	55.69	
2025-01-14 00:37:20.00	1.41	56.20	
2025-01-14 00:37:21.43	1.01	56.72	
2025-01-14 00:37:22.87	0.59	57.24	
2025-01-14 00:37:24.30	0.16	57.76	
2025-01-14 00:37:25.74	359.71	58.28	
2025-01-14 00:37:27.18	359.24	58.81	
2025-01-14 00:37:28.61	358.75	59.34	
2025-01-14 00:37:30.05	358.24	59.88	
2025-01-14 00:37:31.48	357.71	60.41	
2025-01-14 00:37:32.92	357.15	60.95	
2025-01-14 00:37:34.36	356.57	61.49	
2025-01-14 00:37:35.80	355.96	62.03	
2025-01-14 00:37:37.23	355.33	62.57	
2025-01-14 00:37:38.67	354.67	63.12	
2025-01-14 00:37:40.11	353.97	63.67	
2025-01-14 00:37:41.55	353.24	64.21	
2025-01-14 00:37:42.99	352.47	64.76	
2025-01-14 00:37:44.43	351.67	65.31	
2025-01-14 00:37:45.86	350.83	65.85	
2025-01-14 00:37:47.30	349.94	66.39	
2025-01-14 00:37:48.74	349.01	66.94	
2025-01-14 00:37:50.19	348.02	67.48	
2025-01-14 00:37:51.62	346.99	68.01	
2025-01-14 00:37:53.06	345.89	68.55	
2025-01-14 00:37:54.49	344.75	69.07	
2025-01-14 00:37:55.95	343.51	69.60	
2025-01-14 00:37:57.39	342.22	70.12	
2025-01-14 00:37:58.84	340.85	70.64	
2025-01-14 00:38:00.27	339.42	71.13	
2025-01-14 00:38:01.71	337.90	71.63	
2025-01-14 00:38:03.15	336.29	72.11	
2025-01-14 00:38:04.59	334.58	72.58	
2025-01-14 00:38:06.04	332.77	73.04	
2025-01-14 00:38:07.47	330.87	73.47	
2025-01-14 00:38:08.91	328.86	73.90	
2025-01-14 00:38:10.34	326.75	74.30	
2025-01-14 00:38:11.79	324.49	74.69	
2025-01-14 00:38:13.23	322.14	75.05	
2025-01-14 00:38:14.67	319.66	75.38	
2025-01-14 00:38:16.11	317.07	75.69	
2025-01-14 00:38:17.54	314.38	75.97	
2025-01-14 00:38:18.98	311.57	76.22	
2025-01-14 00:38:20.42	308.66	76.44	
2025-01-14 00:38:21.86	305.66	76.62	
2025-01-14 00:38:23.29	302.60	76.77	
2025-01-14 00:38:24.73	299.46	76.88	
2025-01-14 00:38:26.17	296.27	76.95	
2025-01-14 00:38:27.61	293.06	76.97	
2025-01-14 00:38:29.05	289.85	76.96	
2025-01-14 00:38:30.48	286.67	76.91	
2025-01-14 00:38:31.92	283.50	76.82	
2025-01-14 00:38:33.37	280.37	76.70	
2025-01-14 00:38:34.82	277.31	76.53	
2025-01-14 00:38:36.28	274.31	76.33	
2025-01-14 00:38:37.74	271.41	76.09	
2025-01-14 00:38:39.18	268.66	75.82	
2025-01-14 00:38:40.62	266.02	75.52	
2025-01-14 00:38:42.06	263.49	75.19	
2025-01-14 00:38:43.53	261.03	74.83	
2025-01-14 00:38:44.96	258.76	74.46	
2025-01-14 00:38:46.40	256.59	74.06	
2025-01-14 00:38:47.83	254.54	73.65	
2025-01-14 00:38:49.26	252.60	73.22	
2025-01-14 00:38:50.70	250.75	72.77	
2025-01-14 00:38:52.14	249.00	72.31	
2025-01-14 00:38:53.57	247.36	71.83	
2025-01-14 00:38:55.01	245.80	71.34	
2025-01-14 00:38:56.46	244.31	70.84	
2025-01-14 00:38:57.88	242.94	70.34	
2025-01-14 00:38:59.29	241.64	69.84	
2025-01-14 00:39:00.71	240.41	69.32	
2025-01-14 00:39:02.17	239.21	68.79	
2025-01-14 00:39:03.60	238.09	68.26	
2025-01-14 00:39:05.02	237.04	67.73	
2025-01-14 00:39:06.44	236.05	67.19	
2025-01-14 00:39:07.86	235.10	66.66	
2025-01-14 00:39:09.28	234.20	66.12	
2025-01-14 00:39:10.71	233.34	65.58	
2025-01-14 00:39:12.13	232.52	65.04	
2025-01-14 00:39:13.56	231.74	64.49	
2025-01-14 00:39:14.99	231.00	63.95	
2025-01-14 00:39:16.43	230.28	63.40	
2025-01-14 00:39:17.86	229.60	62.86	
2025-01-14 00:39:19.31	228.95	62.31	
2025-01-14 00:39:20.76	228.32	61.76	
2025-01-14 00:39:22.19	227.73	61.22	
2025-01-14 00:39:23.63	227.16	60.68	
2025-01-14 00:39:25.06	226.61	60.14	
2025-01-14 00:39:26.50	226.09	59.60	
2025-01-14 00:39:27.94	225.59	59.07	
2025-01-14 00:39:29.40	225.10	58.53	
2025-01-14 00:39:30.83	224.64	58.00	
2025-01-14 00:39:32.27	224.19	57.48	
2025-01-14 00:39:33.70	223.77	56.96	
2025-01-14 00:39:35.14	223.35	56.44	
2025-01-14 00:39:36.57	222.96	55.93	
2025-01-14 00:39:38.01	222.58	55.41	
2025-01-14 00:39:39.45	222.21	54.90	
2025-01-14 00:39:40.91	221.85	54.39	
2025-01-14 00:39:42.35	221.50	53.89	
2025-01-14 00:39:43.78	221.18	53.39	
2025-01-14 00:39:45.22	220.86	52.90	
2025-01-14 00:39:46.65	220.55	52.41	
2025-01-14 00:39:48.08	220.25	51.93	
2025-01-14 00:39:49.52	219.96	51.45	
2025-01-14 00:39:50.95	219.68	50.97	
2025-01-14 00:39:52.39	219.41	50.50	
2025-01-14 00:39:53.82	219.15	50.03	
2025-01-14 00:39:55.28	218.89	49.56	
2025-01-14 00:39:56.72	218.64	49.10	
2025-01-14 00:39:58.16	218.41	48.64	
2025-01-14 00:39:59.59	218.17	48.19	
2025-01-14 00:40:01.09	217.94	47.73	
2025-01-14 00:40:02.54	217.72	47.28	
2025-01-14 00:40:03.98	217.51	46.84	
2025-01-14 00:40:05.41	217.30	46.40	
2025-01-14 00:40:06.85	217.10	45.97	
2025-01-14 00:40:08.30	216.90	45.54	
2025-01-14 00:40:09.73	216.71	45.12	
2025-01-14 00:40:11.17	216.53	44.70	
2025-01-14 00:40:12.60	216.35	44.29	
2025-01-14 00:40:14.04	216.17	43.88	
2025-01-14 00:40:15.48	216.00	43.47	
2025-01-14 00:40:16.91	215.84	43.07	
2025-01-14 00:40:18.35	215.68	42.67	
2025-01-14 00:40:19.79	215.52	42.27	
2025-01-14 00:40:21.24	215.36	41.88	
2025-01-14 00:40:22.67	215.21	41.49	
2025-01-14 00:40:24.11	215.07	41.11	
2025-01-14 00:40:25.56	214.92	40.72	
2025-01-14 00:40:26.99	214.78	40.35	
2025-01-14 00:40:28.43	214.64	39.98	
2025-01-14 00:40:29.88	214.51	39.61	
2025-01-14 00:40:31.32	214.38	39.24	
2025-01-14 00:40:32.78	214.25	38.87	
2025-01-14 00:40:34.22	214.13	38.52	
2025-01-14 00:40:35.65	214.01	38.16	
2025-01-14 00:40:37.11	213.88	37.81	
2025-01-14 00:40:38.56	213.77	37.46	
2025-01-14 00:40:39.99	213.65	37.12	
2025-01-14 00:40:41.43	213.54	36.78	
2025-01-14 00:40:42.88	213.43	36.44	
2025-01-14 00:40:44.32	213.33	36.10	
2025-01-14 00:40:45.76	213.22	35.77	
2025-01-14 00:40:47.19	213.12	35.45	
2025-01-14 00:40:48.64	213.02	35.12	
2025-01-14 00:40:50.08	212.92	34.80	
2025-01-14 00:40:51.51	212.83	34.48	
2025-01-14 00:40:52.95	212.73	34.17	
2025-01-14 00:40:54.39	212.64	33.86	
2025-01-14 00:40:55.82	212.55	33.55	
2025-01-14 00:40:57.26	212.46	33.25	
2025-01-14 00:40:58.71	212.37	32.94	
2025-01-14 00:41:00.14	212.29	32.64	
2025-01-14 00:41:01.58	212.20	32.35	
2025-01-14 00:41:03.02	212.12	32.05	
2025-01-14 00:41:04.47	212.04	31.76	
2025-01-14 00:41:05.92	211.96	31.47	
2025-01-14 00:41:07.35	211.88	31.19	
2025-01-14 00:41:08.79	211.81	30.90	
2025-01-14 00:41:10.23	211.73	30.62	
2025-01-14 00:41:11.67	211.66	30.35	
2025-01-14 00:41:13.11	211.59	30.07	
2025-01-14 00:41:14.55	211.52	29.80	
2025-01-14 00:41:15.99	211.45	29.53	
2025-01-14 00:41:17.43	211.38	29.26	
2025-01-14 00:41:18.86	211.31	29.00	
2025-01-14 00:41:20.30	211.25	28.73	
2025-01-14 00:41:21.73	211.18	28.48	
2025-01-14 00:41:23.18	211.12	28.22	
2025-01-14 00:41:24.63	211.05	27.96	
2025-01-14 00:41:26.06	210.99	27.71	
2025-01-14 00:41:27.50	210.93	27.46	
2025-01-14 00:41:28.95	210.87	27.21	
2025-01-14 00:41:30.39	210.81	26.96	
2025-01-14 00:41:31.83	210.76	26.72	
2025-01-14 00:41:33.27	210.70	26.47	
2025-01-14 00:41:34.70	210.64	26.24	
2025-01-14 00:41:36.15	210.59	26.00	
2025-01-14 00:41:37.59	210.53	25.76	
2025-01-14 00:41:39.03	210.48	25.53	
2025-01-14 00:41:40.46	210.43	25.30	
2025-01-14 00:41:41.89	210.38	25.07	
2025-01-14 00:41:43.32	210.33	24.84	
2025-01-14 00:41:44.76	210.28	24.62	
2025-01-14 00:41:46.20	210.23	24.39	
2025-01-14 00:41:47.63	210.18	24.17	
2025-01-14 00:41:49.07	210.13	23.95	
2025-01-14 00:41:50.52	210.08	23.73	
2025-01-14 00:41:51.95	210.04	23.51	
2025-01-14 00:41:53.39	209.99	23.30	
2025-01-14 00:41:54.83	209.95	23.09	
2025-01-14 00:41:56.28	209.90	22.87	
2025-01-14 00:41:57.71	209.86	22.67	
2025-01-14 00:41:59.15	209.82	22.46	
2025-01-14 00:42:00.59	209.77	22.25	
2025-01-14 00:42:02.05	209.73	22.04	
2025-01-14 00:42:03.48	209.69	21.84	
2025-01-14 00:42:04.92	209.65	21.64	
2025-01-14 00:42:06.35	209.61	21.44	
2025-01-14 00:42:07.80	209.57	21.24	
2025-01-14 00:42:09.23	209.53	21.05	
2025-01-14 00:42:10.68	209.49	20.85	
2025-01-14 00:42:12.13	209.46	20.65	
2025-01-14 00:42:13.56	209.42	20.46	
2025-01-14 00:42:15.00	209.38	20.27	
2025-01-14 00:42:16.46	209.35	20.08	
2025-01-14 00:42:17.90	209.31	19.89	
2025-01-14 00:42:19.33	209.28	19.71	
2025-01-14 00:42:20.77	209.24	19.52	
2025-01-14 00:42:22.20	209.21	19.34	
2025-01-14 00:42:23.65	209.17	19.15	
2025-01-14 00:42:25.09	209.14	18.97	
2025-01-14 00:42:26.53	209.11	18.79	
2025-01-14 00:42:27.97	209.07	18.61	
2025-01-14 00:42:29.40	209.04	18.44	
2025-01-14 00:42:30.86	209.01	18.26	
2025-01-14 00:42:32.31	208.98	18.08	
2025-01-14 00:42:33.76	208.95	17.91	
2025-01-14 00:42:35.20	208.92	17.74	
2025-01-14 00:42:36.63	208.89	17.57	
2025-01-14 00:42:38.07	208.86	17.40	
2025-01-14 00:42:39.52	208.83	17.22	
2025-01-14 00:42:40.95	208.80	17.06	
2025-01-14 00:42:42.39	208.77	16.89	
2025-01-14 00:42:43.82	208.74	16.73	
2025-01-14 00:42:45.28	208.71	16.56	
2025-01-14 00:42:46.72	208.69	16.40	
2025-01-14 00:42:48.16	208.66	16.23	
2025-01-14 00:42:49.59	208.63	16.07	
2025-01-14 00:42:51.04	208.61	15.91	
2025-01-14 00:42:52.48	208.58	15.75	
2025-01-14 00:42:53.92	208.55	15.60	
2025-01-14 00:42:55.35	208.53	15.44	
2025-01-14 00:42:56.81	208.50	15.28	
2025-01-14 00:42:58.25	208.48	15.13	
2025-01-14 00:42:59.69	208.45	14.97	
2025-01-14 00:43:01.14	208.43	14.82	
2025-01-14 00:43:02.58	208.41	14.67	
2025-01-14 00:43:04.01	208.38	14.52	
2025-01-14 00:43:05.45	208.36	14.37	
2025-01-14 00:43:06.89	208.34	14.22	
2025-01-14 00:43:08.33	208.31	14.07	
2025-01-14 00:43:09.76	208.29	13.92	
2025-01-14 00:43:11.20	208.27	13.77	
2025-01-14 00:43:12.63	208.25	13.63	
2025-01-14 00:43:14.07	208.22	13.48	
2025-01-14 00:43:15.50	208.20	13.34	
2025-01-14 00:43:16.95	208.18	13.20	
2025-01-14 00:43:18.40	208.16	13.05	
2025-01-14 00:43:19.84	208.14	12.91	
2025-01-14 00:43:21.27	208.12	12.77	
2025-01-14 00:43:22.71	208.10	12.63	
2025-01-14 00:43:24.16	208.08	12.49	
2025-01-14 00:43:25.59	208.06	12.35	
2025-01-14 00:43:27.03	208.04	12.22	
2025-01-14 00:43:28.48	208.02	12.08	
2025-01-14 00:43:29.91	208.00	11.94	
2025-01-14 00:43:31.35	207.98	11.81	
2025-01-14 00:43:32.78	207.96	11.68	
2025-01-14 00:43:34.21	207.94	11.54	
2025-01-14 00:43:35.66	207.92	11.41	
2025-01-14 00:43:37.10	207.91	11.28	
2025-01-14 00:43:38.54	207.89	11.14	
2025-01-14 00:43:39.97	207.87	11.01	
2025-01-14 00:43:41.41	207.85	10.88	
2025-01-14 00:43:42.84	207.84	10.75	
2025-01-14 00:43:44.29	207.82	10.62	
2025-01-14 00:43:45.73	207.80	10.50	
2025-01-14 00:43:47.18	207.78	10.37	
2025-01-14 00:43:48.62	207.77	10.24	
2025-01-14 00:43:50.05	207.75	10.12	
2025-01-14 00:43:51.48	207.73	9.99	
2025-01-14 00:43:52.93	207.72	9.86	
2025-01-14 00:43:54.37	207.70	9.74	
2025-01-14 00:43:55.80	207.69	9.62	
2025-01-14 00:43:57.26	207.67	9.49	
2025-01-14 00:43:58.69	207.66	9.37	
2025-01-14 00:44:00.15	207.64	9.25	
2025-01-14 00:44:01.59	207.62	9.13	
2025-01-14 00:44:03.03	207.61	9.00	
2025-01-14 00:44:04.46	207.60	8.89	
2025-01-14 00:44:05.90	207.58	8.77	
2025-01-14 00:44:07.33	207.57	8.65	
2025-01-14 00:44:08.77	207.55	8.53	
2025-01-14 00:44:10.21	207.54	8.41	
2025-01-14 00:44:11.64	207.52	8.29	
2025-01-14 00:44:13.08	207.51	8.18	
2025-01-14 00:44:14.53	207.50	8.06	
2025-01-14 00:44:15.96	207.48	7.94	
2025-01-14 00:44:17.40	207.47	7.83	
2025-01-14 00:44:18.83	207.45	7.72	
2025-01-14 00:44:20.27	207.44	7.60	
2025-01-14 00:44:21.71	207.43	7.49	
2025-01-14 00:44:23.14	207.42	7.38	
2025-01-14 00:44:24.58	207.40	7.26	
2025-01-14 00:44:26.01	207.39	7.15	
2025-01-14 00:44:27.45	207.38	7.04	
2025-01-14 00:44:28.89	207.37	6.93	
2025-01-14 00:44:30.34	207.35	6.82	
2025-01-14 00:44:31.78	207.34	6.71	
2025-01-14 00:44:33.21	207.33	6.60	
2025-01-14 00:44:34.65	207.32	6.49	
2025-01-14 00:44:36.10	207.30	6.38	
2025-01-14 00:44:37.53	207.29	6.27	
2025-01-14 00:44:38.98	207.28	6.16	
2025-01-14 00:44:40.42	207.27	6.05	
2025-01-14 00:44:41.87	207.26	5.95	
2025-01-14 00:44:43.31	207.25	5.84	
2025-01-14 00:44:44.75	207.24	5.73	
2025-01-14 00:44:46.18	207.22	5.63	
2025-01-14 00:44:47.62	207.21	5.52	
2025-01-14 00:44:49.06	207.20	5.42	
2025-01-14 00:44:50.49	207.19	5.31	
2025-01-14 00:44:51.92	207.18	5.21	
2025-01-14 00:44:53.36	207.17	5.11	
2025-01-14 00:44:54.80	207.16	5.00	
2025-01-14 00:44:56.25	207.15	4.90	
2025-01-14 00:44:57.68	207.14	4.80	
2025-01-14 00:44:59.12	207.13	4.69	
2025-01-14 00:45:00.55	207.12	4.59	
2025-01-14 00:45:01.99	207.11	4.49	
2025-01-14 00:45:03.42	207.10	4.39	
2025-01-14 00:45:04.86	207.09	4.29	
2025-01-14 00:45:06.31	207.08	4.19	
2025-01-14 00:45:07.75	207.07	4.09	

#Closed at: 2025-01-14 00:45:09