passes_logs/2025/01/14/SPB_Silybum_02/SPB_Silybum_02__20250114_091824_AQUA_rec.log

#Pass ID: 20250114_091824_AQUA
#Satellite: AQUA
#Configuration: AQUA
#Start time: 2025-01-14 09:18:24

#Version: 2.0.20230423
#Station: SPB_Silybum_02
#Location: 30.233357 lon 59.946436 lat
#TLE: 1 27424U 02022A   25013.83544817  .00001692  00000+0  35728-3 0  9991
#TLE: 2 27424  98.3586 330.4889 0001664 112.6336 276.7792 14.60677575207450

#Time	Az	El	Level	Level2	SNR	BER	Gain	Gain2
2025-01-14 09:18:26.83	96.17	4.13	
2025-01-14 09:18:27.85	96.07	4.19	
2025-01-14 09:18:28.88	95.96	4.25	
2025-01-14 09:18:29.92	95.86	4.31	
2025-01-14 09:18:30.95	95.75	4.37	
2025-01-14 09:18:31.97	95.65	4.43	
2025-01-14 09:18:33.00	95.54	4.49	
2025-01-14 09:18:34.03	95.44	4.55	
2025-01-14 09:18:35.05	95.33	4.61	
2025-01-14 09:18:36.07	95.22	4.67	
2025-01-14 09:18:37.10	95.12	4.73	
2025-01-14 09:18:38.13	95.01	4.79	
2025-01-14 09:18:39.16	94.90	4.85	
2025-01-14 09:18:40.19	94.79	4.91	
2025-01-14 09:18:41.21	94.68	4.96	
2025-01-14 09:18:42.24	94.57	5.03	
2025-01-14 09:18:43.27	94.46	5.09	
2025-01-14 09:18:44.29	94.35	5.14	
2025-01-14 09:18:45.32	94.24	5.21	
2025-01-14 09:18:46.36	94.12	5.27	
2025-01-14 09:18:47.39	94.01	5.33	
2025-01-14 09:18:48.41	93.90	5.39	
2025-01-14 09:18:49.44	93.78	5.45	
2025-01-14 09:18:50.46	93.67	5.51	
2025-01-14 09:18:51.49	93.56	5.57	
2025-01-14 09:18:52.53	93.44	5.63	
2025-01-14 09:18:53.56	93.32	5.69	
2025-01-14 09:18:54.59	93.21	5.75	
2025-01-14 09:18:55.62	93.09	5.81	
2025-01-14 09:18:56.65	92.97	5.87	
2025-01-14 09:18:57.67	92.85	5.93	
2025-01-14 09:18:58.69	92.74	5.99	
2025-01-14 09:18:59.72	92.62	6.05	
2025-01-14 09:19:00.75	92.50	6.11	
2025-01-14 09:19:01.78	92.38	6.18	
2025-01-14 09:19:02.80	92.26	6.24	
2025-01-14 09:19:03.84	92.14	6.30	
2025-01-14 09:19:04.89	92.01	6.36	
2025-01-14 09:19:05.91	91.89	6.42	
2025-01-14 09:19:06.93	91.77	6.48	
2025-01-14 09:19:07.96	91.64	6.54	
2025-01-14 09:19:09.00	91.52	6.61	
2025-01-14 09:19:10.03	91.39	6.67	
2025-01-14 09:19:11.05	91.27	6.73	
2025-01-14 09:19:12.08	91.14	6.79	
2025-01-14 09:19:13.11	91.01	6.85	
2025-01-14 09:19:14.13	90.89	6.91	
2025-01-14 09:19:15.16	90.76	6.97	
2025-01-14 09:19:16.20	90.63	7.04	
2025-01-14 09:19:17.23	90.50	7.10	
2025-01-14 09:19:18.26	90.37	7.16	
2025-01-14 09:19:19.28	90.24	7.22	
2025-01-14 09:19:20.31	90.11	7.28	
2025-01-14 09:19:21.33	89.98	7.34	
2025-01-14 09:19:22.36	89.85	7.41	
2025-01-14 09:19:23.40	89.72	7.47	
2025-01-14 09:19:24.42	89.58	7.53	
2025-01-14 09:19:25.45	89.45	7.59	
2025-01-14 09:19:26.48	89.31	7.65	
2025-01-14 09:19:27.51	89.18	7.72	
2025-01-14 09:19:28.53	89.04	7.78	
2025-01-14 09:19:29.57	88.91	7.84	
2025-01-14 09:19:30.60	88.77	7.90	
2025-01-14 09:19:31.62	88.63	7.96	
2025-01-14 09:19:32.65	88.49	8.03	
2025-01-14 09:19:33.68	88.35	8.09	
2025-01-14 09:19:34.71	88.21	8.15	
2025-01-14 09:19:35.73	88.08	8.21	
2025-01-14 09:19:36.76	87.93	8.27	
2025-01-14 09:19:37.80	87.79	8.34	
2025-01-14 09:19:38.84	87.65	8.40	
2025-01-14 09:19:39.87	87.50	8.46	
2025-01-14 09:19:40.89	87.36	8.52	
2025-01-14 09:19:41.92	87.22	8.59	
2025-01-14 09:19:42.95	87.07	8.65	
2025-01-14 09:19:43.97	86.93	8.71	
2025-01-14 09:19:44.99	86.78	8.77	
2025-01-14 09:19:46.02	86.63	8.83	
2025-01-14 09:19:47.04	86.49	8.90	
2025-01-14 09:19:48.07	86.34	8.96	
2025-01-14 09:19:49.10	86.19	9.02	
2025-01-14 09:19:50.14	86.04	9.08	
2025-01-14 09:19:51.17	85.89	9.15	
2025-01-14 09:19:52.21	85.73	9.21	
2025-01-14 09:19:53.24	85.58	9.27	
2025-01-14 09:19:54.26	85.43	9.33	
2025-01-14 09:19:55.29	85.28	9.39	
2025-01-14 09:19:56.32	85.12	9.46	
2025-01-14 09:19:57.34	84.97	9.52	
2025-01-14 09:19:58.37	84.81	9.58	
2025-01-14 09:19:59.40	84.66	9.64	
2025-01-14 09:20:00.44	84.50	9.71	
2025-01-14 09:20:01.46	84.34	9.77	
2025-01-14 09:20:02.48	84.18	9.83	
2025-01-14 09:20:03.51	84.02	9.89	
2025-01-14 09:20:04.54	83.86	9.95	
2025-01-14 09:20:05.57	83.70	10.01	
2025-01-14 09:20:06.60	83.54	10.08	
2025-01-14 09:20:07.62	83.38	10.14	
2025-01-14 09:20:08.64	83.22	10.20	
2025-01-14 09:20:05.10	83.78	9.99	
2025-01-14 09:20:06.13	83.62	10.05	
2025-01-14 09:20:07.17	83.45	10.11	
2025-01-14 09:20:08.19	83.29	10.17	
2025-01-14 09:20:09.22	83.13	10.23	
2025-01-14 09:20:10.24	82.96	10.30	
2025-01-14 09:20:11.27	82.80	10.36	
2025-01-14 09:20:12.29	82.63	10.42	
2025-01-14 09:20:13.32	82.47	10.48	
2025-01-14 09:20:14.35	82.30	10.54	
2025-01-14 09:20:15.37	82.13	10.60	
2025-01-14 09:20:16.42	81.96	10.67	
2025-01-14 09:20:17.44	81.79	10.73	
2025-01-14 09:20:18.47	81.62	10.79	
2025-01-14 09:20:19.49	81.45	10.85	
2025-01-14 09:20:20.53	81.28	10.91	
2025-01-14 09:20:21.58	81.10	10.97	
2025-01-14 09:20:22.60	80.93	11.03	
2025-01-14 09:20:23.63	80.76	11.10	
2025-01-14 09:20:24.65	80.58	11.16	
2025-01-14 09:20:25.68	80.41	11.22	
2025-01-14 09:20:26.70	80.23	11.28	
2025-01-14 09:20:27.73	80.06	11.34	
2025-01-14 09:20:28.75	79.88	11.40	
2025-01-14 09:20:29.78	79.70	11.46	
2025-01-14 09:20:30.81	79.52	11.52	
2025-01-14 09:20:31.84	79.34	11.58	
2025-01-14 09:20:32.86	79.16	11.64	
2025-01-14 09:20:33.89	78.98	11.70	
2025-01-14 09:20:34.93	78.79	11.76	
2025-01-14 09:20:35.96	78.61	11.82	
2025-01-14 09:20:36.99	78.42	11.88	
2025-01-14 09:20:38.01	78.24	11.94	
2025-01-14 09:20:39.04	78.05	12.00	
2025-01-14 09:20:40.07	77.86	12.06	
2025-01-14 09:20:41.11	77.67	12.12	
2025-01-14 09:20:42.14	77.49	12.18	
2025-01-14 09:20:43.17	77.30	12.24	
2025-01-14 09:20:44.19	77.11	12.30	
2025-01-14 09:20:45.22	76.92	12.35	
2025-01-14 09:20:46.25	76.72	12.41	
2025-01-14 09:20:47.29	76.53	12.47	
2025-01-14 09:20:48.32	76.33	12.53	
2025-01-14 09:20:49.34	76.14	12.59	
2025-01-14 09:20:50.38	75.94	12.65	
2025-01-14 09:20:51.42	75.75	12.71	
2025-01-14 09:20:52.45	75.55	12.76	
2025-01-14 09:20:53.48	75.35	12.82	
2025-01-14 09:20:54.50	75.15	12.88	
2025-01-14 09:20:55.52	74.95	12.93	
2025-01-14 09:20:56.56	74.75	12.99	
2025-01-14 09:20:57.59	74.55	13.05	
2025-01-14 09:20:58.61	74.35	13.11	
2025-01-14 09:20:59.63	74.15	13.16	
2025-01-14 09:21:00.66	73.95	13.22	
2025-01-14 09:21:01.68	73.74	13.27	
2025-01-14 09:21:02.71	73.54	13.33	
2025-01-14 09:21:03.74	73.33	13.39	
2025-01-14 09:21:04.77	73.12	13.44	
2025-01-14 09:21:05.80	72.91	13.50	
2025-01-14 09:21:06.83	72.71	13.55	
2025-01-14 09:21:07.85	72.50	13.61	
2025-01-14 09:21:08.87	72.29	13.66	
2025-01-14 09:21:09.90	72.08	13.71	
2025-01-14 09:21:10.93	71.87	13.77	
2025-01-14 09:21:11.95	71.65	13.82	
2025-01-14 09:21:12.98	71.44	13.88	
2025-01-14 09:21:14.02	71.22	13.93	
2025-01-14 09:21:15.07	71.00	13.98	
2025-01-14 09:21:16.09	70.79	14.04	
2025-01-14 09:21:17.12	70.57	14.09	
2025-01-14 09:21:18.14	70.36	14.14	
2025-01-14 09:21:19.17	70.14	14.19	
2025-01-14 09:21:20.20	69.92	14.25	
2025-01-14 09:21:21.22	69.70	14.30	
2025-01-14 09:21:22.25	69.48	14.35	
2025-01-14 09:21:23.28	69.25	14.40	
2025-01-14 09:21:24.31	69.03	14.45	
2025-01-14 09:21:25.35	68.81	14.50	
2025-01-14 09:21:26.38	68.58	14.55	
2025-01-14 09:21:27.41	68.36	14.60	
2025-01-14 09:21:28.44	68.13	14.65	
2025-01-14 09:21:29.46	67.90	14.70	
2025-01-14 09:21:30.49	67.68	14.75	
2025-01-14 09:21:31.52	67.45	14.80	
2025-01-14 09:21:32.55	67.22	14.84	
2025-01-14 09:21:33.57	66.99	14.89	
2025-01-14 09:21:34.60	66.76	14.94	
2025-01-14 09:21:35.63	66.53	14.99	
2025-01-14 09:21:36.66	66.29	15.03	
2025-01-14 09:21:37.69	66.06	15.08	
2025-01-14 09:21:38.73	65.82	15.13	
2025-01-14 09:21:39.76	65.59	15.17	
2025-01-14 09:21:40.79	65.35	15.22	
2025-01-14 09:21:41.81	65.12	15.26	
2025-01-14 09:21:42.84	64.88	15.31	
2025-01-14 09:21:43.87	64.64	15.35	
2025-01-14 09:21:44.90	64.40	15.40	
2025-01-14 09:21:45.94	64.16	15.44	
2025-01-14 09:21:46.98	63.92	15.48	
2025-01-14 09:21:48.03	63.67	15.53	
2025-01-14 09:21:49.06	63.43	15.57	
2025-01-14 09:21:50.08	63.19	15.61	
2025-01-14 09:21:51.11	62.95	15.65	
2025-01-14 09:21:52.13	62.71	15.69	
2025-01-14 09:21:53.16	62.46	15.73	
2025-01-14 09:21:54.18	62.22	15.77	
2025-01-14 09:21:55.21	61.97	15.81	
2025-01-14 09:21:56.23	61.73	15.85	
2025-01-14 09:21:57.26	61.48	15.89	
2025-01-14 09:21:58.28	61.24	15.93	
2025-01-14 09:21:59.31	60.99	15.97	
2025-01-14 09:22:00.33	60.74	16.01	
2025-01-14 09:22:01.36	60.49	16.04	
2025-01-14 09:22:02.39	60.24	16.08	
2025-01-14 09:22:03.41	59.99	16.11	
2025-01-14 09:22:04.43	59.74	16.15	
2025-01-14 09:22:05.46	59.49	16.19	
2025-01-14 09:22:06.49	59.23	16.22	
2025-01-14 09:22:07.52	58.98	16.25	
2025-01-14 09:22:08.56	58.72	16.29	
2025-01-14 09:22:09.59	58.47	16.32	
2025-01-14 09:22:10.61	58.21	16.35	
2025-01-14 09:22:11.64	57.96	16.39	
2025-01-14 09:22:12.66	57.70	16.42	
2025-01-14 09:22:13.69	57.45	16.45	
2025-01-14 09:22:14.74	57.18	16.48	
2025-01-14 09:22:15.76	56.93	16.51	
2025-01-14 09:22:16.79	56.67	16.54	
2025-01-14 09:22:17.82	56.41	16.57	
2025-01-14 09:22:18.84	56.15	16.60	
2025-01-14 09:22:19.88	55.89	16.63	
2025-01-14 09:22:20.93	55.62	16.65	
2025-01-14 09:22:21.96	55.36	16.68	
2025-01-14 09:22:22.98	55.10	16.71	
2025-01-14 09:22:24.01	54.84	16.73	
2025-01-14 09:22:25.03	54.57	16.76	
2025-01-14 09:22:26.07	54.31	16.78	
2025-01-14 09:22:27.10	54.04	16.81	
2025-01-14 09:22:28.12	53.78	16.83	
2025-01-14 09:22:29.15	53.52	16.85	
2025-01-14 09:22:30.18	53.25	16.88	
2025-01-14 09:22:31.21	52.99	16.90	
2025-01-14 09:22:32.23	52.72	16.92	
2025-01-14 09:22:33.27	52.45	16.94	
2025-01-14 09:22:34.30	52.19	16.96	
2025-01-14 09:22:35.33	51.92	16.98	
2025-01-14 09:22:36.37	51.65	17.00	
2025-01-14 09:22:37.41	51.38	17.02	
2025-01-14 09:22:38.44	51.11	17.04	
2025-01-14 09:22:39.46	50.84	17.05	
2025-01-14 09:22:40.49	50.57	17.07	
2025-01-14 09:22:41.52	50.30	17.09	
2025-01-14 09:22:42.56	50.03	17.10	
2025-01-14 09:22:43.58	49.76	17.12	
2025-01-14 09:22:44.60	49.50	17.13	
2025-01-14 09:22:45.63	49.23	17.14	
2025-01-14 09:22:46.65	48.96	17.16	
2025-01-14 09:22:47.68	48.69	17.17	
2025-01-14 09:22:48.72	48.41	17.18	
2025-01-14 09:22:49.75	48.14	17.19	
2025-01-14 09:22:50.77	47.87	17.20	
2025-01-14 09:22:51.80	47.60	17.21	
2025-01-14 09:22:52.82	47.33	17.22	
2025-01-14 09:22:53.85	47.06	17.23	
2025-01-14 09:22:54.88	46.79	17.24	
2025-01-14 09:22:55.91	46.51	17.24	
2025-01-14 09:22:56.93	46.24	17.25	
2025-01-14 09:22:57.95	45.97	17.26	
2025-01-14 09:22:58.98	45.70	17.26	
2025-01-14 09:23:00.03	45.42	17.27	
2025-01-14 09:23:01.07	45.15	17.27	
2025-01-14 09:23:02.10	44.87	17.27	
2025-01-14 09:23:03.12	44.60	17.28	
2025-01-14 09:23:04.16	44.33	17.28	
2025-01-14 09:23:05.19	44.05	17.28	
2025-01-14 09:23:06.23	43.78	17.28	
2025-01-14 09:23:07.26	43.50	17.28	
2025-01-14 09:23:08.30	43.23	17.28	
2025-01-14 09:23:09.33	42.96	17.28	
2025-01-14 09:23:10.35	42.68	17.28	
2025-01-14 09:23:11.37	42.41	17.28	
2025-01-14 09:23:12.40	42.14	17.28	
2025-01-14 09:23:13.44	41.87	17.27	
2025-01-14 09:23:14.46	41.59	17.27	
2025-01-14 09:23:15.49	41.32	17.26	
2025-01-14 09:23:16.52	41.05	17.26	
2025-01-14 09:23:17.54	40.78	17.25	
2025-01-14 09:23:18.57	40.51	17.25	
2025-01-14 09:23:19.60	40.23	17.24	
2025-01-14 09:23:20.63	39.96	17.23	
2025-01-14 09:23:21.65	39.69	17.22	
2025-01-14 09:23:22.68	39.42	17.21	
2025-01-14 09:23:23.71	39.15	17.20	
2025-01-14 09:23:24.75	38.87	17.19	
2025-01-14 09:23:25.78	38.60	17.18	
2025-01-14 09:23:26.81	38.33	17.17	
2025-01-14 09:23:27.83	38.06	17.16	
2025-01-14 09:23:28.86	37.79	17.14	
2025-01-14 09:23:29.89	37.52	17.13	
2025-01-14 09:23:30.92	37.25	17.12	
2025-01-14 09:23:31.94	36.99	17.10	
2025-01-14 09:23:32.96	36.72	17.09	
2025-01-14 09:23:33.99	36.45	17.07	
2025-01-14 09:23:35.01	36.18	17.05	
2025-01-14 09:23:36.04	35.91	17.04	
2025-01-14 09:23:37.07	35.65	17.02	
2025-01-14 09:23:38.11	35.38	17.00	
2025-01-14 09:23:39.13	35.11	16.98	
2025-01-14 09:23:40.16	34.84	16.96	
2025-01-14 09:23:41.19	34.58	16.94	
2025-01-14 09:23:42.21	34.31	16.92	
2025-01-14 09:23:43.24	34.05	16.90	
2025-01-14 09:23:44.27	33.78	16.88	
2025-01-14 09:23:45.30	33.52	16.86	
2025-01-14 09:23:46.32	33.25	16.83	
2025-01-14 09:23:47.35	32.99	16.81	
2025-01-14 09:23:48.38	32.73	16.79	
2025-01-14 09:23:49.40	32.47	16.76	
2025-01-14 09:23:50.43	32.20	16.74	
2025-01-14 09:23:51.46	31.94	16.71	
2025-01-14 09:23:52.49	31.68	16.69	
2025-01-14 09:23:53.52	31.42	16.66	
2025-01-14 09:23:54.54	31.16	16.63	
2025-01-14 09:23:55.57	30.90	16.60	
2025-01-14 09:23:56.59	30.64	16.58	
2025-01-14 09:23:57.62	30.38	16.55	
2025-01-14 09:23:58.65	30.12	16.52	
2025-01-14 09:23:59.68	29.86	16.49	
2025-01-14 09:24:00.70	29.61	16.46	
2025-01-14 09:24:01.73	29.35	16.43	
2025-01-14 09:24:02.75	29.10	16.39	
2025-01-14 09:24:03.79	28.84	16.36	
2025-01-14 09:24:04.82	28.58	16.33	
2025-01-14 09:24:05.85	28.33	16.30	
2025-01-14 09:24:06.88	28.07	16.26	
2025-01-14 09:24:07.90	27.82	16.23	
2025-01-14 09:24:08.93	27.57	16.19	
2025-01-14 09:24:09.97	27.32	16.16	
2025-01-14 09:24:10.99	27.07	16.12	
2025-01-14 09:24:12.02	26.82	16.09	
2025-01-14 09:24:13.04	26.57	16.05	
2025-01-14 09:24:14.07	26.32	16.01	
2025-01-14 09:24:15.10	26.07	15.98	
2025-01-14 09:24:16.13	25.82	15.94	
2025-01-14 09:24:17.16	25.57	15.90	
2025-01-14 09:24:18.18	25.33	15.86	
2025-01-14 09:24:19.21	25.08	15.82	
2025-01-14 09:24:20.24	24.84	15.78	
2025-01-14 09:24:21.26	24.59	15.74	
2025-01-14 09:24:22.29	24.35	15.70	
2025-01-14 09:24:23.31	24.11	15.66	
2025-01-14 09:24:24.36	23.86	15.62	
2025-01-14 09:24:25.40	23.62	15.58	
2025-01-14 09:24:26.44	23.37	15.54	
2025-01-14 09:24:27.47	23.13	15.49	
2025-01-14 09:24:28.51	22.89	15.45	
2025-01-14 09:24:29.53	22.65	15.41	
2025-01-14 09:24:30.56	22.41	15.36	
2025-01-14 09:24:31.60	22.18	15.32	
2025-01-14 09:24:32.63	21.94	15.27	
2025-01-14 09:24:33.65	21.70	15.23	
2025-01-14 09:24:34.68	21.47	15.18	
2025-01-14 09:24:35.70	21.24	15.14	
2025-01-14 09:24:36.73	21.00	15.09	
2025-01-14 09:24:37.76	20.77	15.05	
2025-01-14 09:24:38.78	20.54	15.00	
2025-01-14 09:24:39.81	20.31	14.95	
2025-01-14 09:24:40.85	20.08	14.91	
2025-01-14 09:24:41.87	19.85	14.86	
2025-01-14 09:24:42.90	19.62	14.81	
2025-01-14 09:24:43.92	19.39	14.76	
2025-01-14 09:24:44.95	19.17	14.71	
2025-01-14 09:24:45.97	18.94	14.66	
2025-01-14 09:24:47.00	18.72	14.62	
2025-01-14 09:24:48.03	18.49	14.57	
2025-01-14 09:24:49.05	18.27	14.52	
2025-01-14 09:24:50.08	18.05	14.47	
2025-01-14 09:24:51.11	17.82	14.42	
2025-01-14 09:24:52.13	17.60	14.36	
2025-01-14 09:24:53.17	17.38	14.31	
2025-01-14 09:24:54.20	17.16	14.26	
2025-01-14 09:24:55.22	16.94	14.21	
2025-01-14 09:24:56.25	16.73	14.16	
2025-01-14 09:24:57.27	16.51	14.11	
2025-01-14 09:24:58.30	16.29	14.05	
2025-01-14 09:24:59.33	16.08	14.00	
2025-01-14 09:25:00.35	15.87	13.95	
2025-01-14 09:25:01.37	15.65	13.90	
2025-01-14 09:25:02.40	15.44	13.84	
2025-01-14 09:25:03.44	15.23	13.79	
2025-01-14 09:25:04.48	15.01	13.73	
2025-01-14 09:25:05.51	14.80	13.68	
2025-01-14 09:25:06.54	14.59	13.63	
2025-01-14 09:25:07.57	14.38	13.57	
2025-01-14 09:25:08.59	14.18	13.52	
2025-01-14 09:25:09.62	13.97	13.46	
2025-01-14 09:25:10.66	13.76	13.41	
2025-01-14 09:25:11.69	13.55	13.35	
2025-01-14 09:25:12.71	13.35	13.29	
2025-01-14 09:25:13.74	13.15	13.24	
2025-01-14 09:25:14.76	12.94	13.18	
2025-01-14 09:25:15.81	12.74	13.13	
2025-01-14 09:25:16.83	12.54	13.07	
2025-01-14 09:25:17.85	12.34	13.01	
2025-01-14 09:25:18.88	12.14	12.96	
2025-01-14 09:25:19.91	11.94	12.90	
2025-01-14 09:25:20.95	11.74	12.84	
2025-01-14 09:25:21.98	11.54	12.78	
2025-01-14 09:25:23.01	11.35	12.73	
2025-01-14 09:25:24.04	11.15	12.67	
2025-01-14 09:25:25.06	10.96	12.61	
2025-01-14 09:25:26.09	10.76	12.55	
2025-01-14 09:25:27.12	10.57	12.49	
2025-01-14 09:25:28.14	10.38	12.44	
2025-01-14 09:25:29.19	10.18	12.38	
2025-01-14 09:25:30.22	9.99	12.32	
2025-01-14 09:25:31.25	9.80	12.26	
2025-01-14 09:25:32.27	9.62	12.20	
2025-01-14 09:25:33.30	9.43	12.14	
2025-01-14 09:25:34.32	9.24	12.08	
2025-01-14 09:25:35.35	9.06	12.02	
2025-01-14 09:25:36.37	8.87	11.97	
2025-01-14 09:25:37.40	8.69	11.91	
2025-01-14 09:25:38.42	8.51	11.85	
2025-01-14 09:25:39.45	8.32	11.79	
2025-01-14 09:25:40.48	8.14	11.73	
2025-01-14 09:25:41.52	7.96	11.67	
2025-01-14 09:25:42.54	7.78	11.61	
2025-01-14 09:25:43.57	7.60	11.55	
2025-01-14 09:25:44.61	7.42	11.49	
2025-01-14 09:25:45.64	7.24	11.43	
2025-01-14 09:25:46.67	7.06	11.37	
2025-01-14 09:25:47.70	6.88	11.30	
2025-01-14 09:25:48.74	6.70	11.24	
2025-01-14 09:25:49.76	6.53	11.18	
2025-01-14 09:25:50.79	6.36	11.12	
2025-01-14 09:25:51.81	6.18	11.06	
2025-01-14 09:25:52.84	6.01	11.00	
2025-01-14 09:25:53.88	5.84	10.94	
2025-01-14 09:25:54.91	5.67	10.88	
2025-01-14 09:25:55.94	5.50	10.82	
2025-01-14 09:25:56.96	5.33	10.76	
2025-01-14 09:25:57.99	5.16	10.70	
2025-01-14 09:25:59.03	4.99	10.63	
2025-01-14 09:26:00.05	4.82	10.57	
2025-01-14 09:26:01.08	4.66	10.51	
2025-01-14 09:26:02.11	4.49	10.45	
2025-01-14 09:26:03.14	4.33	10.39	
2025-01-14 09:26:04.16	4.16	10.33	
2025-01-14 09:26:05.19	4.00	10.27	
2025-01-14 09:26:06.22	3.84	10.20	
2025-01-14 09:26:07.26	3.67	10.14	
2025-01-14 09:26:08.28	3.51	10.08	
2025-01-14 09:26:09.31	3.35	10.02	
2025-01-14 09:26:10.35	3.19	9.96	
2025-01-14 09:26:11.37	3.03	9.89	
2025-01-14 09:26:12.40	2.88	9.83	
2025-01-14 09:26:13.42	2.72	9.77	
2025-01-14 09:26:14.46	2.56	9.71	
2025-01-14 09:26:15.49	2.40	9.65	
2025-01-14 09:26:16.51	2.25	9.59	
2025-01-14 09:26:17.54	2.10	9.52	
2025-01-14 09:26:18.57	1.94	9.46	
2025-01-14 09:26:19.60	1.79	9.40	
2025-01-14 09:26:20.64	1.63	9.34	
2025-01-14 09:26:21.67	1.48	9.27	
2025-01-14 09:26:22.70	1.33	9.21	
2025-01-14 09:26:23.74	1.18	9.15	
2025-01-14 09:26:24.77	1.03	9.09	
2025-01-14 09:26:25.80	0.88	9.03	
2025-01-14 09:26:26.82	0.73	8.96	
2025-01-14 09:26:27.85	0.59	8.90	
2025-01-14 09:26:28.87	0.44	8.84	
2025-01-14 09:26:29.90	0.30	8.78	
2025-01-14 09:26:30.92	0.15	8.72	
2025-01-14 09:26:31.95	0.01	8.65	
2025-01-14 09:26:32.97	359.86	8.59	
2025-01-14 09:26:34.00	359.72	8.53	
2025-01-14 09:26:35.04	359.58	8.47	
2025-01-14 09:26:36.08	359.43	8.41	
2025-01-14 09:26:37.10	359.29	8.34	
2025-01-14 09:26:38.13	359.15	8.28	
2025-01-14 09:26:39.16	359.01	8.22	
2025-01-14 09:26:40.19	358.87	8.16	
2025-01-14 09:26:41.23	358.73	8.10	
2025-01-14 09:26:42.26	358.59	8.03	
2025-01-14 09:26:43.28	358.46	7.97	
2025-01-14 09:26:44.31	358.32	7.91	
2025-01-14 09:26:45.34	358.18	7.85	
2025-01-14 09:26:46.36	358.05	7.79	
2025-01-14 09:26:47.40	357.91	7.72	
2025-01-14 09:26:48.43	357.78	7.66	
2025-01-14 09:26:49.46	357.65	7.60	
2025-01-14 09:26:50.48	357.51	7.54	
2025-01-14 09:26:51.52	357.38	7.48	
2025-01-14 09:26:52.56	357.25	7.41	
2025-01-14 09:26:53.59	357.12	7.35	
2025-01-14 09:26:54.61	356.99	7.29	
2025-01-14 09:26:55.64	356.86	7.23	
2025-01-14 09:26:56.67	356.73	7.17	
2025-01-14 09:26:57.69	356.60	7.11	
2025-01-14 09:26:58.72	356.47	7.05	
2025-01-14 09:26:59.74	356.35	6.99	
2025-01-14 09:27:00.77	356.22	6.92	
2025-01-14 09:27:01.79	356.09	6.86	
2025-01-14 09:27:02.82	355.97	6.80	
2025-01-14 09:27:03.86	355.84	6.74	
2025-01-14 09:27:04.88	355.72	6.68	
2025-01-14 09:27:05.90	355.60	6.62	
2025-01-14 09:27:06.92	355.47	6.56	
2025-01-14 09:27:07.95	355.35	6.50	
2025-01-14 09:27:08.97	355.23	6.44	
2025-01-14 09:27:10.00	355.11	6.37	
2025-01-14 09:27:11.02	354.99	6.31	
2025-01-14 09:27:12.06	354.87	6.25	
2025-01-14 09:27:13.10	354.75	6.19	
2025-01-14 09:27:14.13	354.63	6.13	
2025-01-14 09:27:15.15	354.51	6.07	
2025-01-14 09:27:16.18	354.39	6.01	
2025-01-14 09:27:17.20	354.27	5.95	
2025-01-14 09:27:18.23	354.16	5.89	
2025-01-14 09:27:19.27	354.04	5.83	
2025-01-14 09:27:20.30	353.92	5.77	
2025-01-14 09:27:21.32	353.81	5.71	
2025-01-14 09:27:22.35	353.69	5.65	
2025-01-14 09:27:23.38	353.58	5.59	
2025-01-14 09:27:24.40	353.47	5.53	
2025-01-14 09:27:25.43	353.35	5.47	
2025-01-14 09:27:26.45	353.24	5.41	
2025-01-14 09:27:27.47	353.13	5.35	
2025-01-14 09:27:28.51	353.02	5.29	
2025-01-14 09:27:29.55	352.90	5.22	
2025-01-14 09:27:30.58	352.79	5.16	
2025-01-14 09:27:31.62	352.68	5.10	
2025-01-14 09:27:32.65	352.57	5.04	
2025-01-14 09:27:33.67	352.46	4.98	
2025-01-14 09:27:34.73	352.35	4.92	
2025-01-14 09:27:35.77	352.24	4.86	
2025-01-14 09:27:36.79	352.14	4.80	
2025-01-14 09:27:37.83	352.03	4.74	
2025-01-14 09:27:38.86	351.92	4.68	
2025-01-14 09:27:39.89	351.81	4.62	
2025-01-14 09:27:40.92	351.71	4.56	
2025-01-14 09:27:41.94	351.60	4.51	
2025-01-14 09:27:42.97	351.50	4.45	
2025-01-14 09:27:44.01	351.39	4.39	
2025-01-14 09:27:45.03	351.29	4.33	
2025-01-14 09:27:46.06	351.19	4.27	
2025-01-14 09:27:47.09	351.09	4.21	
2025-01-14 09:27:48.12	350.98	4.15	
2025-01-14 09:27:49.14	350.88	4.09	
2025-01-14 09:27:50.17	350.78	4.03	

#Closed at: 2025-01-14 09:27:50