passes_logs/2025/01/14/SPB_Silybum_02/SPB_Silybum_02__20250114_043321_AQUA_rec.log

#Pass ID: 20250114_043321_AQUA
#Satellite: AQUA
#Configuration: AQUA
#Start time: 2025-01-14 04:33:19

#Version: 2.0.20230423
#Station: SPB_Silybum_02
#Location: 30.233357 lon 59.946436 lat
#TLE: 1 27424U 02022A   25013.15568498  .00001660  00000+0  35066-3 0  9997
#TLE: 2 27424  98.3585 329.8030 0001646 113.3422 303.6913 14.60674931207350

#Time	Az	El	Level	Level2	SNR	BER	Gain	Gain2
2025-01-14 04:33:21.74	6.26	4.03	
2025-01-14 04:33:22.55	6.15	4.06	
2025-01-14 04:33:23.39	6.03	4.09	
2025-01-14 04:33:24.21	5.92	4.13	
2025-01-14 04:33:25.02	5.81	4.16	
2025-01-14 04:33:25.84	5.70	4.19	
2025-01-14 04:33:26.67	5.58	4.22	
2025-01-14 04:33:27.48	5.47	4.25	
2025-01-14 04:33:28.31	5.35	4.29	
2025-01-14 04:33:29.14	5.24	4.32	
2025-01-14 04:33:29.97	5.12	4.35	
2025-01-14 04:33:30.78	5.01	4.38	
2025-01-14 04:33:31.61	4.89	4.42	
2025-01-14 04:33:32.43	4.78	4.45	
2025-01-14 04:33:33.25	4.66	4.48	
2025-01-14 04:33:34.07	4.55	4.51	
2025-01-14 04:33:34.89	4.43	4.54	
2025-01-14 04:33:35.74	4.31	4.58	
2025-01-14 04:33:36.56	4.20	4.61	
2025-01-14 04:33:37.38	4.08	4.64	
2025-01-14 04:33:38.20	3.96	4.67	
2025-01-14 04:33:39.02	3.84	4.70	
2025-01-14 04:33:39.84	3.73	4.73	
2025-01-14 04:33:40.66	3.61	4.77	
2025-01-14 04:33:41.48	3.49	4.80	
2025-01-14 04:33:42.30	3.37	4.83	
2025-01-14 04:33:43.12	3.25	4.86	
2025-01-14 04:33:43.94	3.13	4.89	
2025-01-14 04:33:44.76	3.02	4.92	
2025-01-14 04:33:45.58	2.90	4.95	
2025-01-14 04:33:46.41	2.77	4.98	
2025-01-14 04:33:47.23	2.65	5.01	
2025-01-14 04:33:48.05	2.53	5.04	
2025-01-14 04:33:48.87	2.41	5.07	
2025-01-14 04:33:49.69	2.29	5.11	
2025-01-14 04:33:50.51	2.17	5.14	
2025-01-14 04:33:51.33	2.05	5.17	
2025-01-14 04:33:52.15	1.93	5.20	
2025-01-14 04:33:52.97	1.81	5.23	
2025-01-14 04:33:53.79	1.68	5.26	
2025-01-14 04:33:54.60	1.56	5.29	
2025-01-14 04:33:55.43	1.44	5.32	
2025-01-14 04:33:56.26	1.31	5.35	
2025-01-14 04:33:57.09	1.19	5.38	
2025-01-14 04:33:57.91	1.06	5.41	
2025-01-14 04:33:58.73	0.94	5.44	
2025-01-14 04:33:59.55	0.82	5.47	
2025-01-14 04:34:00.39	0.69	5.50	
2025-01-14 04:34:01.22	0.56	5.53	
2025-01-14 04:34:02.04	0.44	5.56	
2025-01-14 04:34:02.86	0.31	5.59	
2025-01-14 04:34:03.68	0.18	5.61	
2025-01-14 04:34:04.49	0.06	5.64	
2025-01-14 04:34:05.32	359.93	5.67	
2025-01-14 04:34:06.15	359.80	5.70	
2025-01-14 04:34:06.97	359.68	5.73	
2025-01-14 04:34:07.79	359.55	5.76	
2025-01-14 04:34:08.61	359.42	5.79	
2025-01-14 04:34:09.43	359.29	5.82	
2025-01-14 04:34:10.25	359.17	5.85	
2025-01-14 04:34:11.07	359.04	5.87	
2025-01-14 04:34:11.89	358.91	5.90	
2025-01-14 04:34:12.71	358.78	5.93	
2025-01-14 04:34:13.53	358.65	5.96	
2025-01-14 04:34:14.36	358.52	5.99	
2025-01-14 04:34:15.19	358.39	6.02	
2025-01-14 04:34:16.01	358.26	6.04	
2025-01-14 04:34:16.83	358.13	6.07	
2025-01-14 04:34:17.65	358.00	6.10	
2025-01-14 04:34:18.47	357.87	6.13	
2025-01-14 04:34:19.29	357.74	6.15	
2025-01-14 04:34:20.11	357.61	6.18	
2025-01-14 04:34:20.93	357.47	6.21	
2025-01-14 04:34:21.75	357.34	6.24	
2025-01-14 04:34:22.57	357.21	6.26	
2025-01-14 04:34:23.39	357.08	6.29	
2025-01-14 04:34:24.22	356.94	6.32	
2025-01-14 04:34:25.04	356.81	6.34	
2025-01-14 04:34:25.88	356.67	6.37	
2025-01-14 04:34:26.70	356.54	6.40	
2025-01-14 04:34:27.52	356.41	6.42	
2025-01-14 04:34:28.34	356.27	6.45	
2025-01-14 04:34:29.16	356.14	6.48	
2025-01-14 04:34:29.98	356.00	6.50	
2025-01-14 04:34:30.82	355.86	6.53	
2025-01-14 04:34:31.64	355.73	6.55	
2025-01-14 04:34:32.46	355.59	6.58	
2025-01-14 04:34:33.28	355.46	6.61	
2025-01-14 04:34:34.10	355.32	6.63	
2025-01-14 04:34:34.92	355.19	6.66	
2025-01-14 04:34:35.74	355.05	6.68	
2025-01-14 04:34:36.56	354.91	6.71	
2025-01-14 04:34:37.39	354.77	6.73	
2025-01-14 04:34:38.23	354.63	6.76	
2025-01-14 04:34:39.04	354.50	6.78	
2025-01-14 04:34:39.86	354.36	6.81	
2025-01-14 04:34:40.68	354.22	6.83	
2025-01-14 04:34:41.51	354.08	6.86	
2025-01-14 04:34:42.33	353.94	6.88	
2025-01-14 04:34:43.15	353.80	6.91	
2025-01-14 04:34:43.97	353.67	6.93	
2025-01-14 04:34:44.79	353.53	6.95	
2025-01-14 04:34:45.61	353.39	6.98	
2025-01-14 04:34:46.43	353.25	7.00	
2025-01-14 04:34:47.25	353.11	7.02	
2025-01-14 04:34:48.08	352.96	7.05	
2025-01-14 04:34:48.90	352.82	7.07	
2025-01-14 04:34:49.72	352.68	7.10	
2025-01-14 04:34:50.54	352.54	7.12	
2025-01-14 04:34:51.35	352.40	7.14	
2025-01-14 04:34:52.18	352.26	7.16	
2025-01-14 04:34:52.99	352.12	7.19	
2025-01-14 04:34:53.81	351.98	7.21	
2025-01-14 04:34:54.63	351.83	7.23	
2025-01-14 04:34:55.45	351.69	7.25	
2025-01-14 04:34:56.27	351.55	7.28	
2025-01-14 04:34:57.09	351.41	7.30	
2025-01-14 04:34:57.91	351.26	7.32	
2025-01-14 04:34:58.73	351.12	7.34	
2025-01-14 04:34:59.55	350.97	7.36	
2025-01-14 04:35:00.37	350.83	7.38	
2025-01-14 04:35:01.21	350.68	7.41	
2025-01-14 04:35:02.03	350.54	7.43	
2025-01-14 04:35:02.85	350.39	7.45	
2025-01-14 04:35:03.67	350.25	7.47	
2025-01-14 04:35:04.49	350.10	7.49	
2025-01-14 04:35:05.31	349.96	7.51	
2025-01-14 04:35:06.13	349.81	7.53	
2025-01-14 04:35:06.96	349.67	7.55	
2025-01-14 04:35:07.78	349.52	7.57	
2025-01-14 04:35:08.60	349.37	7.59	
2025-01-14 04:35:09.42	349.23	7.61	
2025-01-14 04:35:10.23	349.08	7.63	
2025-01-14 04:35:11.05	348.93	7.65	
2025-01-14 04:35:11.87	348.79	7.67	
2025-01-14 04:35:12.69	348.64	7.69	
2025-01-14 04:35:13.51	348.49	7.71	
2025-01-14 04:35:14.35	348.34	7.73	
2025-01-14 04:35:15.17	348.19	7.75	
2025-01-14 04:35:15.98	348.05	7.77	
2025-01-14 04:35:16.81	347.90	7.78	
2025-01-14 04:35:17.63	347.75	7.80	
2025-01-14 04:35:18.45	347.60	7.82	
2025-01-14 04:35:19.27	347.45	7.84	
2025-01-14 04:35:20.09	347.30	7.86	
2025-01-14 04:35:20.91	347.15	7.87	
2025-01-14 04:35:21.73	347.00	7.89	
2025-01-14 04:35:22.56	346.85	7.91	
2025-01-14 04:35:23.40	346.70	7.93	
2025-01-14 04:35:24.22	346.54	7.94	
2025-01-14 04:35:25.04	346.39	7.96	
2025-01-14 04:35:25.86	346.24	7.98	
2025-01-14 04:35:26.69	346.09	8.00	
2025-01-14 04:35:27.52	345.94	8.01	
2025-01-14 04:35:28.34	345.79	8.03	
2025-01-14 04:35:29.16	345.64	8.04	
2025-01-14 04:35:29.98	345.48	8.06	
2025-01-14 04:35:30.80	345.33	8.08	
2025-01-14 04:35:31.62	345.18	8.09	
2025-01-14 04:35:32.44	345.03	8.11	
2025-01-14 04:35:33.29	344.87	8.12	
2025-01-14 04:35:34.12	344.72	8.14	
2025-01-14 04:35:34.94	344.56	8.15	
2025-01-14 04:35:35.77	344.41	8.17	
2025-01-14 04:35:36.59	344.25	8.18	
2025-01-14 04:35:37.41	344.10	8.20	
2025-01-14 04:35:38.23	343.95	8.21	
2025-01-14 04:35:39.05	343.79	8.22	
2025-01-14 04:35:39.87	343.64	8.24	
2025-01-14 04:35:40.71	343.48	8.25	
2025-01-14 04:35:41.54	343.33	8.27	
2025-01-14 04:35:42.36	343.17	8.28	
2025-01-14 04:35:43.18	343.02	8.29	
2025-01-14 04:35:44.00	342.86	8.31	
2025-01-14 04:35:44.82	342.71	8.32	
2025-01-14 04:35:45.64	342.55	8.33	
2025-01-14 04:35:46.47	342.40	8.34	
2025-01-14 04:35:47.29	342.24	8.36	
2025-01-14 04:35:48.13	342.08	8.37	
2025-01-14 04:35:48.95	341.93	8.38	
2025-01-14 04:35:49.77	341.77	8.39	
2025-01-14 04:35:50.59	341.62	8.40	
2025-01-14 04:35:51.41	341.46	8.41	
2025-01-14 04:35:52.24	341.30	8.43	
2025-01-14 04:35:53.06	341.15	8.44	
2025-01-14 04:35:53.88	340.99	8.45	
2025-01-14 04:35:54.71	340.83	8.46	
2025-01-14 04:35:55.53	340.68	8.47	
2025-01-14 04:35:56.35	340.52	8.48	
2025-01-14 04:35:57.18	340.36	8.49	
2025-01-14 04:35:58.00	340.20	8.50	
2025-01-14 04:35:58.82	340.05	8.51	
2025-01-14 04:35:59.64	339.89	8.52	
2025-01-14 04:36:00.45	339.74	8.53	
2025-01-14 04:36:01.27	339.58	8.54	
2025-01-14 04:36:02.09	339.42	8.55	
2025-01-14 04:36:02.92	339.26	8.55	
2025-01-14 04:36:03.74	339.10	8.56	
2025-01-14 04:36:04.58	338.94	8.57	
2025-01-14 04:36:05.39	338.79	8.58	
2025-01-14 04:36:06.21	338.63	8.59	
2025-01-14 04:36:07.03	338.47	8.60	
2025-01-14 04:36:07.85	338.31	8.60	
2025-01-14 04:36:08.67	338.15	8.61	
2025-01-14 04:36:09.49	338.00	8.62	
2025-01-14 04:36:10.31	337.84	8.62	
2025-01-14 04:36:11.13	337.68	8.63	
2025-01-14 04:36:11.95	337.52	8.64	
2025-01-14 04:36:12.77	337.36	8.64	
2025-01-14 04:36:13.59	337.20	8.65	
2025-01-14 04:36:14.41	337.04	8.66	
2025-01-14 04:36:15.23	336.89	8.66	
2025-01-14 04:36:16.07	336.72	8.67	
2025-01-14 04:36:16.89	336.56	8.67	
2025-01-14 04:36:17.71	336.40	8.68	
2025-01-14 04:36:18.54	336.24	8.68	
2025-01-14 04:36:19.37	336.08	8.69	
2025-01-14 04:36:20.19	335.92	8.69	
2025-01-14 04:36:21.02	335.76	8.70	
2025-01-14 04:36:21.84	335.60	8.70	
2025-01-14 04:36:22.66	335.44	8.71	
2025-01-14 04:36:23.48	335.28	8.71	
2025-01-14 04:36:24.30	335.12	8.71	
2025-01-14 04:36:25.13	334.96	8.72	
2025-01-14 04:36:25.94	334.81	8.72	
2025-01-14 04:36:26.77	334.64	8.72	
2025-01-14 04:36:27.60	334.48	8.73	
2025-01-14 04:36:28.44	334.32	8.73	
2025-01-14 04:36:29.26	334.16	8.73	
2025-01-14 04:36:30.08	334.00	8.73	
2025-01-14 04:36:30.90	333.84	8.74	
2025-01-14 04:36:31.72	333.68	8.74	
2025-01-14 04:36:32.54	333.52	8.74	
2025-01-14 04:36:33.36	333.36	8.74	
2025-01-14 04:36:34.18	333.20	8.74	
2025-01-14 04:36:35.00	333.04	8.74	
2025-01-14 04:36:35.83	332.88	8.74	
2025-01-14 04:36:36.65	332.72	8.75	
2025-01-14 04:36:37.48	332.56	8.75	
2025-01-14 04:36:38.30	332.40	8.75	
2025-01-14 04:36:39.12	332.24	8.75	
2025-01-14 04:36:39.94	332.08	8.75	
2025-01-14 04:36:40.76	331.92	8.75	
2025-01-14 04:36:41.58	331.76	8.75	
2025-01-14 04:36:42.40	331.60	8.74	
2025-01-14 04:36:43.23	331.44	8.74	
2025-01-14 04:36:44.05	331.28	8.74	
2025-01-14 04:36:44.87	331.12	8.74	
2025-01-14 04:36:45.69	330.96	8.74	
2025-01-14 04:36:46.51	330.80	8.74	
2025-01-14 04:36:47.33	330.64	8.74	
2025-01-14 04:36:48.15	330.48	8.73	
2025-01-14 04:36:48.98	330.32	8.73	
2025-01-14 04:36:49.80	330.16	8.73	
2025-01-14 04:36:50.62	330.00	8.73	
2025-01-14 04:36:51.44	329.84	8.72	
2025-01-14 04:36:52.26	329.68	8.72	
2025-01-14 04:36:53.08	329.52	8.72	
2025-01-14 04:36:53.90	329.36	8.71	
2025-01-14 04:36:54.72	329.20	8.71	
2025-01-14 04:36:55.55	329.04	8.71	
2025-01-14 04:36:56.37	328.88	8.70	
2025-01-14 04:36:57.19	328.72	8.70	
2025-01-14 04:36:58.01	328.56	8.69	
2025-01-14 04:36:58.83	328.40	8.69	
2025-01-14 04:36:59.65	328.24	8.68	
2025-01-14 04:37:00.47	328.08	8.68	
2025-01-14 04:37:01.29	327.92	8.67	
2025-01-14 04:37:02.10	327.76	8.67	
2025-01-14 04:37:02.92	327.61	8.66	
2025-01-14 04:37:03.74	327.45	8.66	
2025-01-14 04:37:04.56	327.29	8.65	
2025-01-14 04:37:05.38	327.13	8.64	
2025-01-14 04:37:06.21	326.97	8.64	
2025-01-14 04:37:07.03	326.81	8.63	
2025-01-14 04:37:07.84	326.65	8.62	
2025-01-14 04:37:08.67	326.49	8.62	
2025-01-14 04:37:09.49	326.33	8.61	
2025-01-14 04:37:10.31	326.18	8.60	
2025-01-14 04:37:11.13	326.02	8.59	
2025-01-14 04:37:11.94	325.86	8.59	
2025-01-14 04:37:12.76	325.70	8.58	
2025-01-14 04:37:13.58	325.55	8.57	
2025-01-14 04:37:14.40	325.39	8.56	
2025-01-14 04:37:15.22	325.23	8.55	
2025-01-14 04:37:16.04	325.07	8.55	
2025-01-14 04:37:16.87	324.91	8.54	
2025-01-14 04:37:17.69	324.76	8.53	
2025-01-14 04:37:18.51	324.60	8.52	
2025-01-14 04:37:19.33	324.44	8.51	
2025-01-14 04:37:20.15	324.28	8.50	
2025-01-14 04:37:20.96	324.13	8.49	
2025-01-14 04:37:21.78	323.97	8.48	
2025-01-14 04:37:22.60	323.82	8.47	
2025-01-14 04:37:23.43	323.66	8.46	
2025-01-14 04:37:24.25	323.50	8.45	
2025-01-14 04:37:25.07	323.34	8.44	
2025-01-14 04:37:25.89	323.19	8.43	
2025-01-14 04:37:26.71	323.03	8.41	
2025-01-14 04:37:27.53	322.88	8.40	
2025-01-14 04:37:28.36	322.72	8.39	
2025-01-14 04:37:29.19	322.56	8.38	
2025-01-14 04:37:30.01	322.40	8.37	
2025-01-14 04:37:30.83	322.25	8.36	
2025-01-14 04:37:31.65	322.09	8.34	
2025-01-14 04:37:32.48	321.94	8.33	
2025-01-14 04:37:33.30	321.78	8.32	
2025-01-14 04:37:34.11	321.63	8.31	
2025-01-14 04:37:34.93	321.47	8.29	
2025-01-14 04:37:35.75	321.32	8.28	
2025-01-14 04:37:36.57	321.17	8.27	
2025-01-14 04:37:37.39	321.01	8.25	
2025-01-14 04:37:38.21	320.86	8.24	
2025-01-14 04:37:39.05	320.70	8.22	
2025-01-14 04:37:39.88	320.54	8.21	
2025-01-14 04:37:40.71	320.39	8.20	
2025-01-14 04:37:41.53	320.23	8.18	
2025-01-14 04:37:42.35	320.08	8.17	
2025-01-14 04:37:43.16	319.93	8.15	
2025-01-14 04:37:43.99	319.78	8.14	
2025-01-14 04:37:44.80	319.62	8.12	
2025-01-14 04:37:45.62	319.47	8.11	
2025-01-14 04:37:46.45	319.32	8.09	
2025-01-14 04:37:47.27	319.17	8.08	
2025-01-14 04:37:48.09	319.01	8.06	
2025-01-14 04:37:48.91	318.86	8.04	
2025-01-14 04:37:49.73	318.71	8.03	
2025-01-14 04:37:50.55	318.56	8.01	
2025-01-14 04:37:51.37	318.41	8.00	
2025-01-14 04:37:52.19	318.26	7.98	
2025-01-14 04:37:53.01	318.10	7.96	
2025-01-14 04:37:53.83	317.95	7.94	
2025-01-14 04:37:54.65	317.80	7.93	
2025-01-14 04:37:55.47	317.65	7.91	
2025-01-14 04:37:56.30	317.50	7.89	
2025-01-14 04:37:57.12	317.35	7.88	
2025-01-14 04:37:57.94	317.20	7.86	
2025-01-14 04:37:58.76	317.05	7.84	
2025-01-14 04:37:59.59	316.90	7.82	
2025-01-14 04:38:00.41	316.75	7.80	
2025-01-14 04:38:01.23	316.60	7.78	
2025-01-14 04:38:02.05	316.45	7.77	
2025-01-14 04:38:02.87	316.30	7.75	
2025-01-14 04:38:03.69	316.16	7.73	
2025-01-14 04:38:04.51	316.01	7.71	
2025-01-14 04:38:05.33	315.86	7.69	
2025-01-14 04:38:06.15	315.71	7.67	
2025-01-14 04:38:06.97	315.56	7.65	
2025-01-14 04:38:07.80	315.42	7.63	
2025-01-14 04:38:08.62	315.27	7.61	
2025-01-14 04:38:09.44	315.12	7.59	
2025-01-14 04:38:10.26	314.98	7.57	
2025-01-14 04:38:11.08	314.83	7.55	
2025-01-14 04:38:11.90	314.68	7.53	
2025-01-14 04:38:12.73	314.53	7.51	
2025-01-14 04:38:13.54	314.39	7.49	
2025-01-14 04:38:14.36	314.25	7.47	
2025-01-14 04:38:15.18	314.10	7.45	
2025-01-14 04:38:16.01	313.95	7.43	
2025-01-14 04:38:16.84	313.81	7.41	
2025-01-14 04:38:17.66	313.66	7.38	
2025-01-14 04:38:18.48	313.52	7.36	
2025-01-14 04:38:19.30	313.37	7.34	
2025-01-14 04:38:20.12	313.23	7.32	
2025-01-14 04:38:20.94	313.09	7.30	
2025-01-14 04:38:21.76	312.94	7.28	
2025-01-14 04:38:22.59	312.80	7.25	
2025-01-14 04:38:23.41	312.65	7.23	
2025-01-14 04:38:24.25	312.51	7.21	
2025-01-14 04:38:25.08	312.36	7.19	
2025-01-14 04:38:25.90	312.22	7.16	
2025-01-14 04:38:26.72	312.08	7.14	
2025-01-14 04:38:27.55	311.94	7.12	
2025-01-14 04:38:28.36	311.80	7.09	
2025-01-14 04:38:29.18	311.66	7.07	
2025-01-14 04:38:30.01	311.51	7.05	
2025-01-14 04:38:30.83	311.37	7.02	
2025-01-14 04:38:31.64	311.23	7.00	
2025-01-14 04:38:32.47	311.09	6.98	
2025-01-14 04:38:33.31	310.95	6.95	
2025-01-14 04:38:34.14	310.81	6.93	
2025-01-14 04:38:34.96	310.67	6.90	
2025-01-14 04:38:35.78	310.53	6.88	
2025-01-14 04:38:36.60	310.39	6.85	
2025-01-14 04:38:37.42	310.25	6.83	
2025-01-14 04:38:38.24	310.11	6.80	
2025-01-14 04:38:39.06	309.97	6.78	
2025-01-14 04:38:39.88	309.84	6.76	
2025-01-14 04:38:40.70	309.70	6.73	
2025-01-14 04:38:41.52	309.56	6.71	
2025-01-14 04:38:42.34	309.42	6.68	
2025-01-14 04:38:43.16	309.29	6.65	
2025-01-14 04:38:43.98	309.15	6.63	
2025-01-14 04:38:44.80	309.01	6.60	
2025-01-14 04:38:45.62	308.88	6.58	
2025-01-14 04:38:46.44	308.74	6.55	
2025-01-14 04:38:47.26	308.61	6.53	
2025-01-14 04:38:48.08	308.47	6.50	
2025-01-14 04:38:48.91	308.33	6.47	
2025-01-14 04:38:49.73	308.20	6.45	
2025-01-14 04:38:50.55	308.06	6.42	
2025-01-14 04:38:51.36	307.93	6.40	
2025-01-14 04:38:52.19	307.80	6.37	
2025-01-14 04:38:53.01	307.66	6.34	
2025-01-14 04:38:53.84	307.53	6.31	
2025-01-14 04:38:54.68	307.39	6.29	
2025-01-14 04:38:55.50	307.26	6.26	
2025-01-14 04:38:56.34	307.12	6.23	
2025-01-14 04:38:57.17	306.99	6.20	
2025-01-14 04:38:57.99	306.86	6.18	
2025-01-14 04:38:58.81	306.72	6.15	
2025-01-14 04:38:59.63	306.59	6.12	
2025-01-14 04:39:00.45	306.46	6.09	
2025-01-14 04:39:01.27	306.33	6.07	
2025-01-14 04:39:02.10	306.20	6.04	
2025-01-14 04:39:02.93	306.07	6.01	
2025-01-14 04:39:03.75	305.94	5.98	
2025-01-14 04:39:04.56	305.81	5.95	
2025-01-14 04:39:05.38	305.68	5.93	
2025-01-14 04:39:06.21	305.55	5.90	
2025-01-14 04:39:07.04	305.42	5.87	
2025-01-14 04:39:07.86	305.29	5.84	
2025-01-14 04:39:08.67	305.16	5.81	
2025-01-14 04:39:09.49	305.03	5.78	
2025-01-14 04:39:10.31	304.91	5.76	
2025-01-14 04:39:11.13	304.78	5.73	
2025-01-14 04:39:11.97	304.65	5.70	
2025-01-14 04:39:12.78	304.52	5.67	
2025-01-14 04:39:13.61	304.39	5.64	
2025-01-14 04:39:14.43	304.27	5.61	
2025-01-14 04:39:15.25	304.14	5.58	
2025-01-14 04:39:16.08	304.01	5.55	
2025-01-14 04:39:16.90	303.89	5.52	
2025-01-14 04:39:17.73	303.76	5.49	
2025-01-14 04:39:18.56	303.63	5.46	
2025-01-14 04:39:19.38	303.51	5.43	
2025-01-14 04:39:20.21	303.38	5.40	
2025-01-14 04:39:21.04	303.26	5.37	
2025-01-14 04:39:21.86	303.13	5.34	
2025-01-14 04:39:22.68	303.01	5.31	
2025-01-14 04:39:23.50	302.89	5.28	
2025-01-14 04:39:24.32	302.76	5.25	
2025-01-14 04:39:25.14	302.64	5.22	
2025-01-14 04:39:25.97	302.52	5.19	
2025-01-14 04:39:26.79	302.39	5.16	
2025-01-14 04:39:27.62	302.27	5.13	
2025-01-14 04:39:28.44	302.15	5.10	
2025-01-14 04:39:29.26	302.03	5.07	
2025-01-14 04:39:30.08	301.91	5.04	
2025-01-14 04:39:30.90	301.79	5.01	
2025-01-14 04:39:31.72	301.66	4.98	
2025-01-14 04:39:32.53	301.55	4.95	
2025-01-14 04:39:33.35	301.43	4.91	
2025-01-14 04:39:34.17	301.31	4.88	
2025-01-14 04:39:34.99	301.19	4.85	
2025-01-14 04:39:35.81	301.07	4.82	
2025-01-14 04:39:36.63	300.95	4.79	
2025-01-14 04:39:37.45	300.83	4.76	
2025-01-14 04:39:38.27	300.71	4.73	
2025-01-14 04:39:39.09	300.59	4.70	
2025-01-14 04:39:39.91	300.48	4.66	
2025-01-14 04:39:40.73	300.36	4.63	
2025-01-14 04:39:41.55	300.24	4.60	
2025-01-14 04:39:42.37	300.12	4.57	
2025-01-14 04:39:43.20	300.01	4.54	
2025-01-14 04:39:44.03	299.89	4.51	
2025-01-14 04:39:44.85	299.77	4.47	
2025-01-14 04:39:45.67	299.66	4.44	
2025-01-14 04:39:46.50	299.54	4.41	
2025-01-14 04:39:47.34	299.42	4.38	
2025-01-14 04:39:48.16	299.31	4.34	
2025-01-14 04:39:48.98	299.19	4.31	
2025-01-14 04:39:49.80	299.08	4.28	
2025-01-14 04:39:50.62	298.96	4.25	
2025-01-14 04:39:51.44	298.85	4.22	
2025-01-14 04:39:52.28	298.73	4.18	
2025-01-14 04:39:53.10	298.62	4.15	
2025-01-14 04:39:53.92	298.51	4.12	
2025-01-14 04:39:54.76	298.39	4.08	
2025-01-14 04:39:55.58	298.28	4.05	
2025-01-14 04:39:56.40	298.17	4.02	

#Closed at: 2025-01-14 04:39:57