passes_logs/2025/01/14/SPB_Silybum_02/SPB_Silybum_02__20250114_201313_TERRA_rec.log

#Pass ID: 20250114_201313_TERRA
#Satellite: TERRA
#Configuration: TERRA
#Start time: 2025-01-14 20:13:12

#Version: 2.0.20230423
#Station: SPB_Silybum_02
#Location: 30.233357 lon 59.946436 lat
#TLE: 1 25994U 99068A   25013.82437757  .00000752  00000+0  16464-3 0  9992
#TLE: 2 25994  98.0218  76.8921 0003482  75.0849  16.5253 14.60392614333908

#Time	Az	El	Level	Level2	SNR	BER	Gain	Gain2
2025-01-14 20:13:14.20	216.87	4.04	
2025-01-14 20:13:15.24	216.97	4.10	
2025-01-14 20:13:16.27	217.07	4.16	
2025-01-14 20:13:17.30	217.18	4.22	
2025-01-14 20:13:18.32	217.28	4.28	
2025-01-14 20:13:19.35	217.38	4.34	
2025-01-14 20:13:20.37	217.49	4.40	
2025-01-14 20:13:21.40	217.59	4.46	
2025-01-14 20:13:22.42	217.70	4.52	
2025-01-14 20:13:23.45	217.80	4.58	
2025-01-14 20:13:24.48	217.91	4.64	
2025-01-14 20:13:25.52	218.02	4.70	
2025-01-14 20:13:26.55	218.12	4.76	
2025-01-14 20:13:27.57	218.23	4.82	
2025-01-14 20:13:28.59	218.34	4.88	
2025-01-14 20:13:29.62	218.45	4.94	
2025-01-14 20:13:30.65	218.55	5.00	
2025-01-14 20:13:31.67	218.66	5.06	
2025-01-14 20:13:32.71	218.77	5.12	
2025-01-14 20:13:33.74	218.89	5.18	
2025-01-14 20:13:34.76	219.00	5.25	
2025-01-14 20:13:35.78	219.11	5.31	
2025-01-14 20:13:36.81	219.22	5.37	
2025-01-14 20:13:37.84	219.33	5.43	
2025-01-14 20:13:38.86	219.44	5.49	
2025-01-14 20:13:39.88	219.55	5.55	
2025-01-14 20:13:40.91	219.67	5.61	
2025-01-14 20:13:41.93	219.78	5.67	
2025-01-14 20:13:42.96	219.90	5.73	
2025-01-14 20:13:43.98	220.01	5.79	
2025-01-14 20:13:45.01	220.13	5.86	
2025-01-14 20:13:46.03	220.24	5.92	
2025-01-14 20:13:47.05	220.36	5.98	
2025-01-14 20:13:48.09	220.48	6.04	
2025-01-14 20:13:49.12	220.60	6.10	
2025-01-14 20:13:50.14	220.71	6.16	
2025-01-14 20:13:51.16	220.83	6.23	
2025-01-14 20:13:52.19	220.95	6.29	
2025-01-14 20:13:53.23	221.07	6.35	
2025-01-14 20:13:54.26	221.19	6.41	
2025-01-14 20:13:55.28	221.31	6.48	
2025-01-14 20:13:56.30	221.43	6.54	
2025-01-14 20:13:57.33	221.56	6.60	
2025-01-14 20:13:58.36	221.68	6.66	
2025-01-14 20:13:59.38	221.80	6.72	
2025-01-14 20:14:00.41	221.93	6.79	
2025-01-14 20:14:01.43	222.05	6.85	
2025-01-14 20:14:02.46	222.18	6.91	
2025-01-14 20:14:03.49	222.30	6.98	
2025-01-14 20:14:04.53	222.43	7.04	
2025-01-14 20:14:05.55	222.55	7.10	
2025-01-14 20:14:06.58	222.68	7.16	
2025-01-14 20:14:07.60	222.81	7.23	
2025-01-14 20:14:08.63	222.94	7.29	
2025-01-14 20:14:09.65	223.07	7.35	
2025-01-14 20:14:10.68	223.20	7.42	
2025-01-14 20:14:11.70	223.32	7.48	
2025-01-14 20:14:12.73	223.46	7.54	
2025-01-14 20:14:13.76	223.59	7.61	
2025-01-14 20:14:14.79	223.72	7.67	
2025-01-14 20:14:15.81	223.85	7.73	
2025-01-14 20:14:16.83	223.98	7.80	
2025-01-14 20:14:17.86	224.12	7.86	
2025-01-14 20:14:18.88	224.25	7.92	
2025-01-14 20:14:19.91	224.39	7.99	
2025-01-14 20:14:20.93	224.52	8.05	
2025-01-14 20:14:21.96	224.66	8.11	
2025-01-14 20:14:22.98	224.79	8.18	
2025-01-14 20:14:24.01	224.93	8.24	
2025-01-14 20:14:25.03	225.07	8.30	
2025-01-14 20:14:26.06	225.21	8.37	
2025-01-14 20:14:27.09	225.35	8.43	
2025-01-14 20:14:28.11	225.49	8.50	
2025-01-14 20:14:29.13	225.63	8.56	
2025-01-14 20:14:30.16	225.77	8.62	
2025-01-14 20:14:31.18	225.91	8.69	
2025-01-14 20:14:32.21	226.05	8.75	
2025-01-14 20:14:33.24	226.19	8.82	
2025-01-14 20:14:34.26	226.34	8.88	
2025-01-14 20:14:35.29	226.48	8.94	
2025-01-14 20:14:36.31	226.63	9.01	
2025-01-14 20:14:37.34	226.77	9.07	
2025-01-14 20:14:38.38	226.92	9.14	
2025-01-14 20:14:39.42	227.07	9.20	
2025-01-14 20:14:40.44	227.22	9.27	
2025-01-14 20:14:41.46	227.36	9.33	
2025-01-14 20:14:42.50	227.52	9.40	
2025-01-14 20:14:43.55	227.67	9.46	
2025-01-14 20:14:44.58	227.82	9.53	
2025-01-14 20:14:45.61	227.97	9.59	
2025-01-14 20:14:46.64	228.12	9.66	
2025-01-14 20:14:47.66	228.28	9.72	
2025-01-14 20:14:48.69	228.43	9.79	
2025-01-14 20:14:49.71	228.58	9.85	
2025-01-14 20:14:50.73	228.74	9.91	
2025-01-14 20:14:51.76	228.89	9.98	
2025-01-14 20:14:52.78	229.05	10.04	
2025-01-14 20:14:53.82	229.21	10.11	
2025-01-14 20:14:54.86	229.37	10.17	
2025-01-14 20:14:55.89	229.53	10.24	
2025-01-14 20:14:56.91	229.68	10.30	
2025-01-14 20:14:57.93	229.84	10.37	
2025-01-14 20:14:58.96	230.01	10.43	
2025-01-14 20:14:59.99	230.17	10.50	
2025-01-14 20:15:01.03	230.33	10.56	
2025-01-14 20:15:02.05	230.49	10.63	
2025-01-14 20:15:03.08	230.66	10.69	
2025-01-14 20:15:04.11	230.82	10.76	
2025-01-14 20:15:05.13	230.99	10.82	
2025-01-14 20:15:06.16	231.15	10.89	
2025-01-14 20:15:07.18	231.32	10.95	
2025-01-14 20:15:08.20	231.49	11.01	
2025-01-14 20:15:09.24	231.66	11.08	
2025-01-14 20:15:10.26	231.82	11.14	
2025-01-14 20:15:11.29	231.99	11.21	
2025-01-14 20:15:12.32	232.17	11.27	
2025-01-14 20:15:13.34	232.34	11.34	
2025-01-14 20:15:14.36	232.51	11.40	
2025-01-14 20:15:15.39	232.68	11.47	
2025-01-14 20:15:16.43	232.86	11.53	
2025-01-14 20:15:17.45	233.03	11.60	
2025-01-14 20:15:18.48	233.21	11.66	
2025-01-14 20:15:19.51	233.38	11.72	
2025-01-14 20:15:20.54	233.56	11.79	
2025-01-14 20:15:21.56	233.74	11.85	
2025-01-14 20:15:22.59	233.92	11.92	
2025-01-14 20:15:23.61	234.09	11.98	
2025-01-14 20:15:24.63	234.27	12.04	
2025-01-14 20:15:25.66	234.46	12.11	
2025-01-14 20:15:26.68	234.64	12.17	
2025-01-14 20:15:27.71	234.82	12.24	
2025-01-14 20:15:28.74	235.00	12.30	
2025-01-14 20:15:29.76	235.19	12.36	
2025-01-14 20:15:30.79	235.37	12.43	
2025-01-14 20:15:31.83	235.56	12.49	
2025-01-14 20:15:32.85	235.75	12.56	
2025-01-14 20:15:33.88	235.93	12.62	
2025-01-14 20:15:34.90	236.12	12.68	
2025-01-14 20:15:35.93	236.31	12.75	
2025-01-14 20:15:36.96	236.50	12.81	
2025-01-14 20:15:37.98	236.69	12.87	
2025-01-14 20:15:39.01	236.89	12.93	
2025-01-14 20:15:40.04	237.08	13.00	
2025-01-14 20:15:41.08	237.28	13.06	
2025-01-14 20:15:42.10	237.47	13.12	
2025-01-14 20:15:43.12	237.66	13.19	
2025-01-14 20:15:44.15	237.86	13.25	
2025-01-14 20:15:45.17	238.06	13.31	
2025-01-14 20:15:46.20	238.25	13.37	
2025-01-14 20:15:47.24	238.46	13.44	
2025-01-14 20:15:48.26	238.65	13.50	
2025-01-14 20:15:49.29	238.85	13.56	
2025-01-14 20:15:50.31	239.06	13.62	
2025-01-14 20:15:51.34	239.26	13.68	
2025-01-14 20:15:52.37	239.46	13.74	
2025-01-14 20:15:53.39	239.66	13.80	
2025-01-14 20:15:54.43	239.87	13.87	
2025-01-14 20:15:55.45	240.08	13.93	
2025-01-14 20:15:56.48	240.28	13.99	
2025-01-14 20:15:57.50	240.49	14.05	
2025-01-14 20:15:58.53	240.70	14.11	
2025-01-14 20:15:59.57	240.91	14.17	
2025-01-14 20:16:00.60	241.12	14.23	
2025-01-14 20:16:01.62	241.33	14.29	
2025-01-14 20:16:02.65	241.55	14.35	
2025-01-14 20:16:03.67	241.76	14.41	
2025-01-14 20:16:04.71	241.97	14.47	
2025-01-14 20:16:05.74	242.19	14.53	
2025-01-14 20:16:06.76	242.40	14.59	
2025-01-14 20:16:07.79	242.62	14.65	
2025-01-14 20:16:08.82	242.84	14.70	
2025-01-14 20:16:09.84	243.05	14.76	
2025-01-14 20:16:10.87	243.27	14.82	
2025-01-14 20:16:11.89	243.49	14.88	
2025-01-14 20:16:12.91	243.71	14.94	
2025-01-14 20:16:13.94	243.94	14.99	
2025-01-14 20:16:14.97	244.16	15.05	
2025-01-14 20:16:15.99	244.38	15.11	
2025-01-14 20:16:17.02	244.61	15.16	
2025-01-14 20:16:18.04	244.83	15.22	
2025-01-14 20:16:19.07	245.06	15.28	
2025-01-14 20:16:20.10	245.28	15.33	
2025-01-14 20:16:21.12	245.51	15.39	
2025-01-14 20:16:22.14	245.74	15.44	
2025-01-14 20:16:23.17	245.97	15.50	
2025-01-14 20:16:24.20	246.20	15.55	
2025-01-14 20:16:25.22	246.43	15.61	
2025-01-14 20:16:26.25	246.66	15.66	
2025-01-14 20:16:27.27	246.89	15.72	
2025-01-14 20:16:28.30	247.13	15.77	
2025-01-14 20:16:29.32	247.36	15.82	
2025-01-14 20:16:30.35	247.60	15.88	
2025-01-14 20:16:31.38	247.84	15.93	
2025-01-14 20:16:32.40	248.07	15.98	
2025-01-14 20:16:33.42	248.31	16.03	
2025-01-14 20:16:34.44	248.55	16.08	
2025-01-14 20:16:35.48	248.79	16.14	
2025-01-14 20:16:36.50	249.03	16.19	
2025-01-14 20:16:37.54	249.27	16.24	
2025-01-14 20:16:38.57	249.52	16.29	
2025-01-14 20:16:39.61	249.76	16.34	
2025-01-14 20:16:40.63	250.01	16.39	
2025-01-14 20:16:41.66	250.25	16.44	
2025-01-14 20:16:42.68	250.50	16.49	
2025-01-14 20:16:43.70	250.74	16.54	
2025-01-14 20:16:44.73	250.99	16.58	
2025-01-14 20:16:45.76	251.24	16.63	
2025-01-14 20:16:46.79	251.49	16.68	
2025-01-14 20:16:47.81	251.74	16.73	
2025-01-14 20:16:48.84	251.99	16.77	
2025-01-14 20:16:49.86	252.24	16.82	
2025-01-14 20:16:50.89	252.49	16.87	
2025-01-14 20:16:51.91	252.75	16.91	
2025-01-14 20:16:52.94	253.00	16.96	
2025-01-14 20:16:53.97	253.26	17.00	
2025-01-14 20:16:54.99	253.51	17.04	
2025-01-14 20:16:56.02	253.77	17.09	
2025-01-14 20:16:57.04	254.02	17.13	
2025-01-14 20:16:58.08	254.28	17.17	
2025-01-14 20:16:59.11	254.54	17.22	
2025-01-14 20:17:00.14	254.80	17.26	
2025-01-14 20:17:01.19	255.07	17.30	
2025-01-14 20:17:02.21	255.33	17.34	
2025-01-14 20:17:03.25	255.59	17.38	
2025-01-14 20:17:04.27	255.85	17.42	
2025-01-14 20:17:05.30	256.12	17.46	
2025-01-14 20:17:06.33	256.38	17.50	
2025-01-14 20:17:07.35	256.65	17.54	
2025-01-14 20:17:08.38	256.91	17.58	
2025-01-14 20:17:09.40	257.18	17.62	
2025-01-14 20:17:10.42	257.44	17.65	
2025-01-14 20:17:11.45	257.71	17.69	
2025-01-14 20:17:12.48	257.98	17.73	
2025-01-14 20:17:13.50	258.24	17.76	
2025-01-14 20:17:14.52	258.51	17.80	
2025-01-14 20:17:15.55	258.78	17.83	
2025-01-14 20:17:16.58	259.05	17.86	
2025-01-14 20:17:17.60	259.32	17.90	
2025-01-14 20:17:18.63	259.59	17.93	
2025-01-14 20:17:19.65	259.86	17.96	
2025-01-14 20:17:20.68	260.14	17.99	
2025-01-14 20:17:21.70	260.41	18.02	
2025-01-14 20:17:22.72	260.68	18.05	
2025-01-14 20:17:23.75	260.96	18.08	
2025-01-14 20:17:24.79	261.24	18.11	
2025-01-14 20:17:25.81	261.51	18.14	
2025-01-14 20:17:26.84	261.79	18.17	
2025-01-14 20:17:27.87	262.06	18.20	
2025-01-14 20:17:28.89	262.34	18.23	
2025-01-14 20:17:29.92	262.62	18.25	
2025-01-14 20:17:30.96	262.90	18.28	
2025-01-14 20:17:31.98	263.18	18.30	
2025-01-14 20:17:33.00	263.45	18.33	
2025-01-14 20:17:34.03	263.73	18.35	
2025-01-14 20:17:35.06	264.01	18.38	
2025-01-14 20:17:36.10	264.30	18.40	
2025-01-14 20:17:37.12	264.58	18.42	
2025-01-14 20:17:38.16	264.86	18.44	
2025-01-14 20:17:39.19	265.15	18.46	
2025-01-14 20:17:40.21	265.43	18.48	
2025-01-14 20:17:41.24	265.71	18.50	
2025-01-14 20:17:42.26	265.99	18.52	
2025-01-14 20:17:43.30	266.28	18.54	
2025-01-14 20:17:44.33	266.56	18.56	
2025-01-14 20:17:45.36	266.85	18.58	
2025-01-14 20:17:46.38	267.13	18.59	
2025-01-14 20:17:47.40	267.41	18.61	
2025-01-14 20:17:48.43	267.70	18.62	
2025-01-14 20:17:49.45	267.98	18.64	
2025-01-14 20:17:50.48	268.26	18.65	
2025-01-14 20:17:51.50	268.55	18.66	
2025-01-14 20:17:52.53	268.83	18.68	
2025-01-14 20:17:53.56	269.12	18.69	
2025-01-14 20:17:54.59	269.41	18.70	
2025-01-14 20:17:55.61	269.69	18.71	
2025-01-14 20:17:56.64	269.98	18.72	
2025-01-14 20:17:57.66	270.27	18.73	
2025-01-14 20:17:58.68	270.55	18.74	
2025-01-14 20:17:59.72	270.84	18.75	
2025-01-14 20:18:00.76	271.13	18.75	
2025-01-14 20:18:01.78	271.42	18.76	
2025-01-14 20:18:02.81	271.71	18.77	
2025-01-14 20:18:03.84	271.99	18.77	
2025-01-14 20:18:04.87	272.28	18.78	
2025-01-14 20:18:05.90	272.57	18.78	
2025-01-14 20:18:06.92	272.86	18.78	
2025-01-14 20:18:07.95	273.15	18.79	
2025-01-14 20:18:08.99	273.44	18.79	
2025-01-14 20:18:10.01	273.72	18.79	
2025-01-14 20:18:11.04	274.01	18.79	
2025-01-14 20:18:12.06	274.30	18.79	
2025-01-14 20:18:13.09	274.59	18.79	
2025-01-14 20:18:14.12	274.88	18.79	
2025-01-14 20:18:15.14	275.16	18.78	
2025-01-14 20:18:16.18	275.45	18.78	
2025-01-14 20:18:17.21	275.74	18.78	
2025-01-14 20:18:18.24	276.03	18.77	
2025-01-14 20:18:19.28	276.32	18.77	
2025-01-14 20:18:20.30	276.61	18.76	
2025-01-14 20:18:21.33	276.89	18.75	
2025-01-14 20:18:22.35	277.18	18.75	
2025-01-14 20:18:23.38	277.47	18.74	
2025-01-14 20:18:24.41	277.75	18.73	
2025-01-14 20:18:25.43	278.04	18.72	
2025-01-14 20:18:26.46	278.33	18.71	
2025-01-14 20:18:27.49	278.61	18.70	
2025-01-14 20:18:28.52	278.90	18.69	
2025-01-14 20:18:29.55	279.19	18.68	
2025-01-14 20:18:30.58	279.47	18.67	
2025-01-14 20:18:31.60	279.76	18.65	
2025-01-14 20:18:32.63	280.04	18.64	
2025-01-14 20:18:33.65	280.33	18.63	
2025-01-14 20:18:34.68	280.61	18.61	
2025-01-14 20:18:35.72	280.90	18.60	
2025-01-14 20:18:36.74	281.18	18.58	
2025-01-14 20:18:37.78	281.47	18.56	
2025-01-14 20:18:38.82	281.75	18.54	
2025-01-14 20:18:39.84	282.03	18.53	
2025-01-14 20:18:40.86	282.32	18.51	
2025-01-14 20:18:41.89	282.60	18.49	
2025-01-14 20:18:42.91	282.88	18.47	
2025-01-14 20:18:43.94	283.16	18.45	
2025-01-14 20:18:44.96	283.44	18.43	
2025-01-14 20:18:45.99	283.72	18.40	
2025-01-14 20:18:47.01	284.00	18.38	
2025-01-14 20:18:48.03	284.28	18.36	
2025-01-14 20:18:49.06	284.56	18.33	
2025-01-14 20:18:50.08	284.83	18.31	
2025-01-14 20:18:51.11	285.11	18.28	
2025-01-14 20:18:52.14	285.39	18.26	
2025-01-14 20:18:53.17	285.67	18.23	
2025-01-14 20:18:54.19	285.94	18.21	
2025-01-14 20:18:55.21	286.22	18.18	
2025-01-14 20:18:56.24	286.49	18.15	
2025-01-14 20:18:57.27	286.77	18.12	
2025-01-14 20:18:58.29	287.04	18.09	
2025-01-14 20:18:59.32	287.32	18.06	
2025-01-14 20:19:00.34	287.59	18.03	
2025-01-14 20:19:01.37	287.86	18.00	
2025-01-14 20:19:02.39	288.13	17.97	
2025-01-14 20:19:03.42	288.40	17.94	
2025-01-14 20:19:04.44	288.67	17.91	
2025-01-14 20:19:05.47	288.94	17.87	
2025-01-14 20:19:06.50	289.21	17.84	
2025-01-14 20:19:07.52	289.48	17.81	
2025-01-14 20:19:08.55	289.75	17.77	
2025-01-14 20:19:09.57	290.02	17.74	
2025-01-14 20:19:10.61	290.29	17.70	
2025-01-14 20:19:11.64	290.55	17.66	
2025-01-14 20:19:12.66	290.82	17.63	
2025-01-14 20:19:13.69	291.08	17.59	
2025-01-14 20:19:14.72	291.35	17.55	
2025-01-14 20:19:15.76	291.62	17.51	
2025-01-14 20:19:16.78	291.88	17.47	
2025-01-14 20:19:17.80	292.14	17.44	
2025-01-14 20:19:18.83	292.40	17.40	
2025-01-14 20:19:19.86	292.66	17.36	
2025-01-14 20:19:20.88	292.92	17.31	
2025-01-14 20:19:21.91	293.18	17.27	
2025-01-14 20:19:22.93	293.44	17.23	
2025-01-14 20:19:23.96	293.70	17.19	
2025-01-14 20:19:25.00	293.96	17.15	
2025-01-14 20:19:26.04	294.22	17.10	
2025-01-14 20:19:27.06	294.47	17.06	
2025-01-14 20:19:28.08	294.72	17.02	
2025-01-14 20:19:29.11	294.98	16.97	
2025-01-14 20:19:30.13	295.23	16.93	
2025-01-14 20:19:31.16	295.48	16.88	
2025-01-14 20:19:32.18	295.73	16.84	
2025-01-14 20:19:33.21	295.99	16.79	
2025-01-14 20:19:34.24	296.24	16.75	
2025-01-14 20:19:35.27	296.49	16.70	
2025-01-14 20:19:36.30	296.74	16.65	
2025-01-14 20:19:37.33	296.98	16.60	
2025-01-14 20:19:38.36	297.23	16.56	
2025-01-14 20:19:39.38	297.48	16.51	
2025-01-14 20:19:40.41	297.72	16.46	
2025-01-14 20:19:41.43	297.96	16.41	
2025-01-14 20:19:42.46	298.21	16.36	
2025-01-14 20:19:43.48	298.45	16.31	
2025-01-14 20:19:44.51	298.69	16.26	
2025-01-14 20:19:45.54	298.93	16.21	
2025-01-14 20:19:46.56	299.17	16.16	
2025-01-14 20:19:47.60	299.41	16.11	
2025-01-14 20:19:48.63	299.65	16.06	
2025-01-14 20:19:49.65	299.89	16.01	
2025-01-14 20:19:50.68	300.13	15.95	
2025-01-14 20:19:51.70	300.36	15.90	
2025-01-14 20:19:52.73	300.60	15.85	
2025-01-14 20:19:53.75	300.83	15.80	
2025-01-14 20:19:54.78	301.06	15.74	
2025-01-14 20:19:55.81	301.30	15.69	
2025-01-14 20:19:56.83	301.53	15.64	
2025-01-14 20:19:57.86	301.76	15.58	
2025-01-14 20:19:58.89	301.99	15.53	
2025-01-14 20:19:59.91	302.22	15.47	
2025-01-14 20:20:00.94	302.44	15.42	
2025-01-14 20:20:01.96	302.67	15.36	
2025-01-14 20:20:02.99	302.90	15.31	
2025-01-14 20:20:04.02	303.12	15.25	
2025-01-14 20:20:05.04	303.35	15.20	
2025-01-14 20:20:06.07	303.57	15.14	
2025-01-14 20:20:07.09	303.79	15.08	
2025-01-14 20:20:08.13	304.02	15.03	
2025-01-14 20:20:09.17	304.24	14.97	
2025-01-14 20:20:10.20	304.46	14.91	
2025-01-14 20:20:11.22	304.68	14.85	
2025-01-14 20:20:12.25	304.90	14.80	
2025-01-14 20:20:13.28	305.12	14.74	
2025-01-14 20:20:14.32	305.34	14.68	
2025-01-14 20:20:15.34	305.55	14.62	
2025-01-14 20:20:16.39	305.77	14.56	
2025-01-14 20:20:17.41	305.98	14.50	
2025-01-14 20:20:18.44	306.20	14.44	
2025-01-14 20:20:19.46	306.41	14.38	
2025-01-14 20:20:20.49	306.62	14.33	
2025-01-14 20:20:21.53	306.83	14.27	
2025-01-14 20:20:22.57	307.04	14.21	
2025-01-14 20:20:23.60	307.25	14.15	
2025-01-14 20:20:24.63	307.46	14.09	
2025-01-14 20:20:25.65	307.67	14.03	
2025-01-14 20:20:26.68	307.87	13.96	
2025-01-14 20:20:27.71	308.08	13.90	
2025-01-14 20:20:28.74	308.28	13.84	
2025-01-14 20:20:29.76	308.48	13.78	
2025-01-14 20:20:30.78	308.69	13.72	
2025-01-14 20:20:31.81	308.89	13.66	
2025-01-14 20:20:32.84	309.09	13.60	
2025-01-14 20:20:33.86	309.29	13.54	
2025-01-14 20:20:34.89	309.49	13.48	
2025-01-14 20:20:35.93	309.69	13.42	
2025-01-14 20:20:36.95	309.88	13.35	
2025-01-14 20:20:37.98	310.08	13.29	
2025-01-14 20:20:39.01	310.28	13.23	
2025-01-14 20:20:40.03	310.47	13.17	
2025-01-14 20:20:41.06	310.66	13.11	
2025-01-14 20:20:42.09	310.86	13.04	
2025-01-14 20:20:43.12	311.05	12.98	
2025-01-14 20:20:44.16	311.24	12.92	
2025-01-14 20:20:45.20	311.44	12.86	
2025-01-14 20:20:46.23	311.63	12.79	
2025-01-14 20:20:47.26	311.82	12.73	
2025-01-14 20:20:48.29	312.01	12.67	
2025-01-14 20:20:49.31	312.19	12.60	
2025-01-14 20:20:50.34	312.38	12.54	
2025-01-14 20:20:51.36	312.56	12.48	
2025-01-14 20:20:52.39	312.75	12.42	
2025-01-14 20:20:53.42	312.93	12.35	
2025-01-14 20:20:54.45	313.11	12.29	
2025-01-14 20:20:55.47	313.30	12.23	
2025-01-14 20:20:56.51	313.48	12.16	
2025-01-14 20:20:57.53	313.66	12.10	
2025-01-14 20:20:58.56	313.84	12.04	
2025-01-14 20:20:59.58	314.02	11.97	
2025-01-14 20:21:00.62	314.20	11.91	
2025-01-14 20:21:01.64	314.37	11.84	
2025-01-14 20:21:02.67	314.55	11.78	
2025-01-14 20:21:03.70	314.73	11.72	
2025-01-14 20:21:04.72	314.90	11.65	
2025-01-14 20:21:05.75	315.07	11.59	
2025-01-14 20:21:06.78	315.25	11.53	
2025-01-14 20:21:07.82	315.42	11.46	
2025-01-14 20:21:08.84	315.59	11.40	
2025-01-14 20:21:09.87	315.76	11.33	
2025-01-14 20:21:10.89	315.93	11.27	
2025-01-14 20:21:11.92	316.10	11.21	
2025-01-14 20:21:12.96	316.27	11.14	
2025-01-14 20:21:13.99	316.44	11.08	
2025-01-14 20:21:15.01	316.61	11.01	
2025-01-14 20:21:16.04	316.77	10.95	
2025-01-14 20:21:17.07	316.94	10.88	
2025-01-14 20:21:18.11	317.11	10.82	
2025-01-14 20:21:19.13	317.27	10.76	
2025-01-14 20:21:20.16	317.43	10.69	
2025-01-14 20:21:21.18	317.59	10.63	
2025-01-14 20:21:22.21	317.76	10.56	
2025-01-14 20:21:23.23	317.92	10.50	
2025-01-14 20:21:24.26	318.08	10.44	
2025-01-14 20:21:25.29	318.24	10.37	
2025-01-14 20:21:26.32	318.40	10.31	
2025-01-14 20:21:27.34	318.55	10.24	
2025-01-14 20:21:28.37	318.71	10.18	
2025-01-14 20:21:29.39	318.87	10.12	
2025-01-14 20:21:30.41	319.02	10.05	
2025-01-14 20:21:31.43	319.18	9.99	
2025-01-14 20:21:32.45	319.33	9.93	
2025-01-14 20:21:33.47	319.48	9.86	
2025-01-14 20:21:34.50	319.64	9.80	
2025-01-14 20:21:35.52	319.79	9.73	
2025-01-14 20:21:36.55	319.94	9.67	
2025-01-14 20:21:37.58	320.09	9.61	
2025-01-14 20:21:38.60	320.24	9.54	
2025-01-14 20:21:39.63	320.39	9.48	
2025-01-14 20:21:40.66	320.54	9.41	
2025-01-14 20:21:41.68	320.69	9.35	
2025-01-14 20:21:42.71	320.84	9.29	
2025-01-14 20:21:43.74	320.98	9.22	
2025-01-14 20:21:44.77	321.13	9.16	
2025-01-14 20:21:45.80	321.28	9.09	
2025-01-14 20:21:46.82	321.42	9.03	
2025-01-14 20:21:47.85	321.56	8.97	
2025-01-14 20:21:48.87	321.71	8.90	
2025-01-14 20:21:49.90	321.85	8.84	
2025-01-14 20:21:50.93	321.99	8.78	
2025-01-14 20:21:51.96	322.13	8.71	
2025-01-14 20:21:52.99	322.28	8.65	
2025-01-14 20:21:54.03	322.42	8.59	
2025-01-14 20:21:55.05	322.56	8.52	
2025-01-14 20:21:56.08	322.70	8.46	
2025-01-14 20:21:57.10	322.83	8.40	
2025-01-14 20:21:58.12	322.97	8.33	
2025-01-14 20:21:59.16	323.11	8.27	
2025-01-14 20:22:00.19	323.25	8.21	
2025-01-14 20:22:01.22	323.38	8.14	
2025-01-14 20:22:02.24	323.52	8.08	
2025-01-14 20:22:03.27	323.65	8.02	
2025-01-14 20:22:04.31	323.79	7.95	
2025-01-14 20:22:05.34	323.92	7.89	
2025-01-14 20:22:06.36	324.05	7.83	
2025-01-14 20:22:07.38	324.19	7.76	
2025-01-14 20:22:08.41	324.32	7.70	
2025-01-14 20:22:09.43	324.45	7.64	
2025-01-14 20:22:10.46	324.58	7.58	
2025-01-14 20:22:11.48	324.71	7.51	
2025-01-14 20:22:12.51	324.84	7.45	
2025-01-14 20:22:13.53	324.97	7.39	
2025-01-14 20:22:14.55	325.09	7.33	
2025-01-14 20:22:15.58	325.22	7.27	
2025-01-14 20:22:16.61	325.35	7.20	
2025-01-14 20:22:17.64	325.48	7.14	
2025-01-14 20:22:18.67	325.60	7.08	
2025-01-14 20:22:19.69	325.73	7.02	
2025-01-14 20:22:20.72	325.85	6.95	
2025-01-14 20:22:21.76	325.98	6.89	
2025-01-14 20:22:22.79	326.10	6.83	
2025-01-14 20:22:23.82	326.22	6.77	
2025-01-14 20:22:24.84	326.35	6.71	
2025-01-14 20:22:25.87	326.47	6.64	
2025-01-14 20:22:26.90	326.59	6.58	
2025-01-14 20:22:27.92	326.71	6.52	
2025-01-14 20:22:28.95	326.83	6.46	
2025-01-14 20:22:29.98	326.95	6.40	
2025-01-14 20:22:31.00	327.07	6.34	
2025-01-14 20:22:32.04	327.19	6.27	
2025-01-14 20:22:33.07	327.31	6.21	
2025-01-14 20:22:34.09	327.43	6.15	
2025-01-14 20:22:35.13	327.55	6.09	
2025-01-14 20:22:36.15	327.66	6.03	
2025-01-14 20:22:37.19	327.78	5.97	
2025-01-14 20:22:38.21	327.89	5.91	
2025-01-14 20:22:39.23	328.01	5.85	
2025-01-14 20:22:40.26	328.12	5.79	
2025-01-14 20:22:41.29	328.24	5.72	
2025-01-14 20:22:42.32	328.35	5.66	
2025-01-14 20:22:43.34	328.47	5.60	
2025-01-14 20:22:44.37	328.58	5.54	
2025-01-14 20:22:45.39	328.69	5.48	
2025-01-14 20:22:46.42	328.80	5.42	
2025-01-14 20:22:47.45	328.91	5.36	
2025-01-14 20:22:48.47	329.02	5.30	
2025-01-14 20:22:49.50	329.14	5.24	
2025-01-14 20:22:50.52	329.24	5.18	
2025-01-14 20:22:51.54	329.35	5.12	
2025-01-14 20:22:52.57	329.46	5.06	
2025-01-14 20:22:53.60	329.57	5.00	
2025-01-14 20:22:54.62	329.68	4.94	
2025-01-14 20:22:55.64	329.79	4.88	
2025-01-14 20:22:56.67	329.89	4.82	
2025-01-14 20:22:57.69	330.00	4.76	
2025-01-14 20:22:58.72	330.11	4.70	
2025-01-14 20:22:59.74	330.21	4.65	
2025-01-14 20:23:00.76	330.32	4.59	
2025-01-14 20:23:01.79	330.42	4.53	
2025-01-14 20:23:02.82	330.53	4.47	
2025-01-14 20:23:03.85	330.63	4.41	
2025-01-14 20:23:04.87	330.73	4.35	
2025-01-14 20:23:05.90	330.84	4.29	
2025-01-14 20:23:06.92	330.94	4.23	
2025-01-14 20:23:07.95	331.04	4.17	
2025-01-14 20:23:08.98	331.14	4.11	
2025-01-14 20:23:10.00	331.24	4.06	

#Closed at: 2025-01-14 20:23:11