passes_logs/2025/01/14/SPB_Silybum_02/SPB_Silybum_02__20250114_152325_TERRA_rec.log

#Pass ID: 20250114_152325_TERRA
#Satellite: TERRA
#Configuration: TERRA
#Start time: 2025-01-14 15:23:26

#Version: 2.0.20230423
#Station: SPB_Silybum_02
#Location: 30.233357 lon 59.946436 lat
#TLE: 1 25994U 99068A   25013.82437757  .00000752  00000+0  16464-3 0  9992
#TLE: 2 25994  98.0218  76.8921 0003482  75.0849  16.5253 14.60392614333908

#Time	Az	El	Level	Level2	SNR	BER	Gain	Gain2
2025-01-14 15:23:28.15	62.22	4.11	
2025-01-14 15:23:28.97	62.11	4.14	
2025-01-14 15:23:29.81	61.99	4.17	
2025-01-14 15:23:30.63	61.88	4.20	
2025-01-14 15:23:31.45	61.76	4.24	
2025-01-14 15:23:32.26	61.65	4.27	
2025-01-14 15:23:33.09	61.53	4.30	
2025-01-14 15:23:33.91	61.42	4.33	
2025-01-14 15:23:34.73	61.30	4.36	
2025-01-14 15:23:35.55	61.19	4.40	
2025-01-14 15:23:36.37	61.07	4.43	
2025-01-14 15:23:37.19	60.96	4.46	
2025-01-14 15:23:38.02	60.84	4.49	
2025-01-14 15:23:38.86	60.72	4.52	
2025-01-14 15:23:39.68	60.60	4.55	
2025-01-14 15:23:40.50	60.48	4.59	
2025-01-14 15:23:41.31	60.37	4.62	
2025-01-14 15:23:42.13	60.25	4.65	
2025-01-14 15:23:42.95	60.13	4.68	
2025-01-14 15:23:43.78	60.01	4.71	
2025-01-14 15:23:44.59	59.89	4.74	
2025-01-14 15:23:45.41	59.78	4.77	
2025-01-14 15:23:46.23	59.66	4.80	
2025-01-14 15:23:47.05	59.54	4.83	
2025-01-14 15:23:47.87	59.42	4.86	
2025-01-14 15:23:48.69	59.30	4.89	
2025-01-14 15:23:49.51	59.18	4.93	
2025-01-14 15:23:50.33	59.06	4.96	
2025-01-14 15:23:51.15	58.93	4.99	
2025-01-14 15:23:51.97	58.81	5.02	
2025-01-14 15:23:52.79	58.69	5.05	
2025-01-14 15:23:53.61	58.57	5.08	
2025-01-14 15:23:54.43	58.45	5.11	
2025-01-14 15:23:55.25	58.33	5.14	
2025-01-14 15:23:56.09	58.20	5.17	
2025-01-14 15:23:56.91	58.08	5.20	
2025-01-14 15:23:57.73	57.95	5.23	
2025-01-14 15:23:58.55	57.83	5.26	
2025-01-14 15:23:59.39	57.70	5.29	
2025-01-14 15:24:00.21	57.58	5.32	
2025-01-14 15:24:01.03	57.45	5.35	
2025-01-14 15:24:01.86	57.33	5.38	
2025-01-14 15:24:02.68	57.20	5.41	
2025-01-14 15:24:03.50	57.08	5.44	
2025-01-14 15:24:04.32	56.95	5.46	
2025-01-14 15:24:05.14	56.83	5.49	
2025-01-14 15:24:05.96	56.70	5.52	
2025-01-14 15:24:06.78	56.58	5.55	
2025-01-14 15:24:07.60	56.45	5.58	
2025-01-14 15:24:08.42	56.32	5.61	
2025-01-14 15:24:09.24	56.19	5.64	
2025-01-14 15:24:10.06	56.07	5.67	
2025-01-14 15:24:10.89	55.94	5.70	
2025-01-14 15:24:11.72	55.81	5.72	
2025-01-14 15:24:12.54	55.68	5.75	
2025-01-14 15:24:13.38	55.55	5.78	
2025-01-14 15:24:14.19	55.42	5.81	
2025-01-14 15:24:15.01	55.29	5.84	
2025-01-14 15:24:15.83	55.16	5.87	
2025-01-14 15:24:16.65	55.03	5.89	
2025-01-14 15:24:17.47	54.90	5.92	
2025-01-14 15:24:18.30	54.77	5.95	
2025-01-14 15:24:19.13	54.64	5.98	
2025-01-14 15:24:19.95	54.51	6.00	
2025-01-14 15:24:20.77	54.38	6.03	
2025-01-14 15:24:21.59	54.25	6.06	
2025-01-14 15:24:22.41	54.12	6.09	
2025-01-14 15:24:23.25	53.98	6.11	
2025-01-14 15:24:24.07	53.85	6.14	
2025-01-14 15:24:24.89	53.72	6.17	
2025-01-14 15:24:25.71	53.58	6.19	
2025-01-14 15:24:26.54	53.45	6.22	
2025-01-14 15:24:27.36	53.32	6.25	
2025-01-14 15:24:28.19	53.18	6.27	
2025-01-14 15:24:29.01	53.05	6.30	
2025-01-14 15:24:29.83	52.91	6.33	
2025-01-14 15:24:30.65	52.78	6.35	
2025-01-14 15:24:31.47	52.65	6.38	
2025-01-14 15:24:32.29	52.51	6.41	
2025-01-14 15:24:33.11	52.38	6.43	
2025-01-14 15:24:33.94	52.24	6.46	
2025-01-14 15:24:34.76	52.10	6.48	
2025-01-14 15:24:35.59	51.97	6.51	
2025-01-14 15:24:36.43	51.83	6.53	
2025-01-14 15:24:37.25	51.69	6.56	
2025-01-14 15:24:38.07	51.55	6.59	
2025-01-14 15:24:38.89	51.42	6.61	
2025-01-14 15:24:39.71	51.28	6.64	
2025-01-14 15:24:40.53	51.14	6.66	
2025-01-14 15:24:41.35	51.01	6.68	
2025-01-14 15:24:42.17	50.87	6.71	
2025-01-14 15:24:42.98	50.73	6.73	
2025-01-14 15:24:43.81	50.59	6.76	
2025-01-14 15:24:44.63	50.45	6.78	
2025-01-14 15:24:45.45	50.31	6.81	
2025-01-14 15:24:46.28	50.17	6.83	
2025-01-14 15:24:47.10	50.03	6.85	
2025-01-14 15:24:47.92	49.89	6.88	
2025-01-14 15:24:48.74	49.75	6.90	
2025-01-14 15:24:49.56	49.61	6.92	
2025-01-14 15:24:50.38	49.47	6.95	
2025-01-14 15:24:51.22	49.33	6.97	
2025-01-14 15:24:52.04	49.19	6.99	
2025-01-14 15:24:52.86	49.05	7.02	
2025-01-14 15:24:53.69	48.90	7.04	
2025-01-14 15:24:54.51	48.76	7.06	
2025-01-14 15:24:55.33	48.62	7.09	
2025-01-14 15:24:56.16	48.48	7.11	
2025-01-14 15:24:56.99	48.33	7.13	
2025-01-14 15:24:57.82	48.19	7.15	
2025-01-14 15:24:58.64	48.05	7.18	
2025-01-14 15:24:59.45	47.91	7.20	
2025-01-14 15:25:00.27	47.76	7.22	
2025-01-14 15:25:01.10	47.62	7.24	
2025-01-14 15:25:01.92	47.47	7.26	
2025-01-14 15:25:02.74	47.33	7.28	
2025-01-14 15:25:03.56	47.19	7.30	
2025-01-14 15:25:04.37	47.04	7.33	
2025-01-14 15:25:05.19	46.90	7.35	
2025-01-14 15:25:06.01	46.75	7.37	
2025-01-14 15:25:06.83	46.61	7.39	
2025-01-14 15:25:07.65	46.46	7.41	
2025-01-14 15:25:08.47	46.32	7.43	
2025-01-14 15:25:09.29	46.17	7.45	
2025-01-14 15:25:10.11	46.03	7.47	
2025-01-14 15:25:10.93	45.88	7.49	
2025-01-14 15:25:11.77	45.73	7.51	
2025-01-14 15:25:12.59	45.58	7.53	
2025-01-14 15:25:13.41	45.44	7.55	
2025-01-14 15:25:14.23	45.29	7.57	
2025-01-14 15:25:15.05	45.14	7.59	
2025-01-14 15:25:15.87	44.99	7.60	
2025-01-14 15:25:16.69	44.85	7.62	
2025-01-14 15:25:17.51	44.70	7.64	
2025-01-14 15:25:18.33	44.55	7.66	
2025-01-14 15:25:19.15	44.40	7.68	
2025-01-14 15:25:19.97	44.25	7.70	
2025-01-14 15:25:20.79	44.11	7.72	
2025-01-14 15:25:21.61	43.96	7.73	
2025-01-14 15:25:22.43	43.81	7.75	
2025-01-14 15:25:23.25	43.66	7.77	
2025-01-14 15:25:24.07	43.51	7.79	
2025-01-14 15:25:24.89	43.36	7.80	
2025-01-14 15:25:25.71	43.21	7.82	
2025-01-14 15:25:26.53	43.06	7.84	
2025-01-14 15:25:27.35	42.91	7.85	
2025-01-14 15:25:28.17	42.76	7.87	
2025-01-14 15:25:28.98	42.61	7.89	
2025-01-14 15:25:29.81	42.46	7.90	
2025-01-14 15:25:30.64	42.30	7.92	
2025-01-14 15:25:31.46	42.15	7.94	
2025-01-14 15:25:32.28	42.00	7.95	
2025-01-14 15:25:33.10	41.85	7.97	
2025-01-14 15:25:33.93	41.70	7.98	
2025-01-14 15:25:34.75	41.54	8.00	
2025-01-14 15:25:35.56	41.39	8.01	
2025-01-14 15:25:36.39	41.24	8.03	
2025-01-14 15:25:37.21	41.09	8.04	
2025-01-14 15:25:38.02	40.94	8.06	
2025-01-14 15:25:38.84	40.78	8.07	
2025-01-14 15:25:39.66	40.63	8.09	
2025-01-14 15:25:40.48	40.48	8.10	
2025-01-14 15:25:41.32	40.32	8.11	
2025-01-14 15:25:42.15	40.17	8.13	
2025-01-14 15:25:42.97	40.01	8.14	
2025-01-14 15:25:43.79	39.86	8.15	
2025-01-14 15:25:44.61	39.71	8.17	
2025-01-14 15:25:45.43	39.55	8.18	
2025-01-14 15:25:46.25	39.40	8.19	
2025-01-14 15:25:47.07	39.24	8.21	
2025-01-14 15:25:47.89	39.09	8.22	
2025-01-14 15:25:48.71	38.93	8.23	
2025-01-14 15:25:49.53	38.78	8.24	
2025-01-14 15:25:50.35	38.62	8.26	
2025-01-14 15:25:51.17	38.47	8.27	
2025-01-14 15:25:51.99	38.31	8.28	
2025-01-14 15:25:52.81	38.16	8.29	
2025-01-14 15:25:53.63	38.00	8.30	
2025-01-14 15:25:54.45	37.85	8.31	
2025-01-14 15:25:55.27	37.69	8.32	
2025-01-14 15:25:56.09	37.54	8.33	
2025-01-14 15:25:56.91	37.38	8.34	
2025-01-14 15:25:57.73	37.22	8.36	
2025-01-14 15:25:58.55	37.07	8.37	
2025-01-14 15:25:59.37	36.91	8.38	
2025-01-14 15:26:00.21	36.75	8.39	
2025-01-14 15:26:01.03	36.60	8.39	
2025-01-14 15:26:01.85	36.44	8.40	
2025-01-14 15:26:02.67	36.28	8.41	
2025-01-14 15:26:03.49	36.13	8.42	
2025-01-14 15:26:04.31	35.97	8.43	
2025-01-14 15:26:05.14	35.81	8.44	
2025-01-14 15:26:05.97	35.65	8.45	
2025-01-14 15:26:06.79	35.49	8.46	
2025-01-14 15:26:07.62	35.33	8.46	
2025-01-14 15:26:08.43	35.18	8.47	
2025-01-14 15:26:09.25	35.02	8.48	
2025-01-14 15:26:10.07	34.86	8.49	
2025-01-14 15:26:10.89	34.71	8.50	
2025-01-14 15:26:11.71	34.55	8.50	
2025-01-14 15:26:12.54	34.39	8.51	
2025-01-14 15:26:13.35	34.23	8.52	
2025-01-14 15:26:14.17	34.08	8.52	
2025-01-14 15:26:14.99	33.92	8.53	
2025-01-14 15:26:15.81	33.76	8.54	
2025-01-14 15:26:16.63	33.60	8.54	
2025-01-14 15:26:17.45	33.44	8.55	
2025-01-14 15:26:18.27	33.28	8.55	
2025-01-14 15:26:19.09	33.13	8.56	
2025-01-14 15:26:19.91	32.97	8.56	
2025-01-14 15:26:20.73	32.81	8.57	
2025-01-14 15:26:21.55	32.65	8.57	
2025-01-14 15:26:22.37	32.49	8.58	
2025-01-14 15:26:23.19	32.33	8.58	
2025-01-14 15:26:24.01	32.17	8.59	
2025-01-14 15:26:24.83	32.02	8.59	
2025-01-14 15:26:25.65	31.86	8.59	
2025-01-14 15:26:26.47	31.70	8.60	
2025-01-14 15:26:27.29	31.54	8.60	
2025-01-14 15:26:28.11	31.38	8.60	
2025-01-14 15:26:28.95	31.22	8.61	
2025-01-14 15:26:29.78	31.06	8.61	
2025-01-14 15:26:30.60	30.90	8.61	
2025-01-14 15:26:31.42	30.74	8.62	
2025-01-14 15:26:32.24	30.58	8.62	
2025-01-14 15:26:33.07	30.42	8.62	
2025-01-14 15:26:33.89	30.26	8.62	
2025-01-14 15:26:34.71	30.10	8.62	
2025-01-14 15:26:35.54	29.94	8.63	
2025-01-14 15:26:36.36	29.78	8.63	
2025-01-14 15:26:37.18	29.62	8.63	
2025-01-14 15:26:38.00	29.46	8.63	
2025-01-14 15:26:38.84	29.30	8.63	
2025-01-14 15:26:39.66	29.14	8.63	
2025-01-14 15:26:40.47	28.98	8.63	
2025-01-14 15:26:41.30	28.82	8.63	
2025-01-14 15:26:42.12	28.66	8.63	
2025-01-14 15:26:42.94	28.50	8.63	
2025-01-14 15:26:43.76	28.34	8.63	
2025-01-14 15:26:44.57	28.18	8.63	
2025-01-14 15:26:45.41	28.02	8.63	
2025-01-14 15:26:46.22	27.86	8.63	
2025-01-14 15:26:47.05	27.70	8.63	
2025-01-14 15:26:47.87	27.54	8.62	
2025-01-14 15:26:48.69	27.39	8.62	
2025-01-14 15:26:49.51	27.23	8.62	
2025-01-14 15:26:50.33	27.07	8.62	
2025-01-14 15:26:51.17	26.90	8.62	
2025-01-14 15:26:51.99	26.74	8.61	
2025-01-14 15:26:52.81	26.59	8.61	
2025-01-14 15:26:53.63	26.43	8.61	
2025-01-14 15:26:54.45	26.27	8.60	
2025-01-14 15:26:55.27	26.11	8.60	
2025-01-14 15:26:56.10	25.95	8.60	
2025-01-14 15:26:56.92	25.79	8.59	
2025-01-14 15:26:57.73	25.63	8.59	
2025-01-14 15:26:58.55	25.47	8.59	
2025-01-14 15:26:59.37	25.32	8.58	
2025-01-14 15:27:00.19	25.16	8.58	
2025-01-14 15:27:01.01	25.00	8.57	
2025-01-14 15:27:01.83	24.84	8.57	
2025-01-14 15:27:02.66	24.68	8.56	
2025-01-14 15:27:03.47	24.52	8.56	
2025-01-14 15:27:04.30	24.36	8.55	
2025-01-14 15:27:05.14	24.20	8.55	
2025-01-14 15:27:05.96	24.04	8.54	
2025-01-14 15:27:06.78	23.88	8.54	
2025-01-14 15:27:07.60	23.73	8.53	
2025-01-14 15:27:08.42	23.57	8.52	
2025-01-14 15:27:09.23	23.41	8.52	
2025-01-14 15:27:10.06	23.25	8.51	
2025-01-14 15:27:10.88	23.10	8.50	
2025-01-14 15:27:11.70	22.94	8.50	
2025-01-14 15:27:12.53	22.78	8.49	
2025-01-14 15:27:13.35	22.62	8.48	
2025-01-14 15:27:14.17	22.46	8.47	
2025-01-14 15:27:14.99	22.31	8.46	
2025-01-14 15:27:15.81	22.15	8.46	
2025-01-14 15:27:16.63	21.99	8.45	
2025-01-14 15:27:17.45	21.83	8.44	
2025-01-14 15:27:18.27	21.68	8.43	
2025-01-14 15:27:19.09	21.52	8.42	
2025-01-14 15:27:19.91	21.36	8.41	
2025-01-14 15:27:20.74	21.21	8.40	
2025-01-14 15:27:21.55	21.05	8.39	
2025-01-14 15:27:22.37	20.90	8.38	
2025-01-14 15:27:23.21	20.74	8.37	
2025-01-14 15:27:24.03	20.58	8.37	
2025-01-14 15:27:24.85	20.42	8.35	
2025-01-14 15:27:25.67	20.27	8.34	
2025-01-14 15:27:26.49	20.11	8.33	
2025-01-14 15:27:27.31	19.96	8.32	
2025-01-14 15:27:28.13	19.80	8.31	
2025-01-14 15:27:28.95	19.65	8.30	
2025-01-14 15:27:29.77	19.49	8.29	
2025-01-14 15:27:30.59	19.34	8.28	
2025-01-14 15:27:31.41	19.18	8.27	
2025-01-14 15:27:32.23	19.03	8.26	
2025-01-14 15:27:33.06	18.87	8.24	
2025-01-14 15:27:33.89	18.71	8.23	
2025-01-14 15:27:34.71	18.56	8.22	
2025-01-14 15:27:35.53	18.40	8.21	
2025-01-14 15:27:36.35	18.25	8.19	
2025-01-14 15:27:37.17	18.10	8.18	
2025-01-14 15:27:37.99	17.94	8.17	
2025-01-14 15:27:38.81	17.79	8.15	
2025-01-14 15:27:39.63	17.64	8.14	
2025-01-14 15:27:40.45	17.48	8.13	
2025-01-14 15:27:41.27	17.33	8.11	
2025-01-14 15:27:42.09	17.18	8.10	
2025-01-14 15:27:42.91	17.02	8.09	
2025-01-14 15:27:43.73	16.87	8.07	
2025-01-14 15:27:44.55	16.72	8.06	
2025-01-14 15:27:45.37	16.57	8.04	
2025-01-14 15:27:46.19	16.41	8.03	
2025-01-14 15:27:47.01	16.26	8.01	
2025-01-14 15:27:47.83	16.11	8.00	
2025-01-14 15:27:48.65	15.96	7.98	
2025-01-14 15:27:49.47	15.81	7.97	
2025-01-14 15:27:50.29	15.66	7.95	
2025-01-14 15:27:51.11	15.50	7.94	
2025-01-14 15:27:51.93	15.35	7.92	
2025-01-14 15:27:52.75	15.20	7.90	
2025-01-14 15:27:53.57	15.05	7.89	
2025-01-14 15:27:54.39	14.90	7.87	
2025-01-14 15:27:55.21	14.75	7.85	
2025-01-14 15:27:56.03	14.60	7.84	
2025-01-14 15:27:56.87	14.45	7.82	
2025-01-14 15:27:57.69	14.30	7.80	
2025-01-14 15:27:58.51	14.15	7.79	
2025-01-14 15:27:59.33	14.00	7.77	
2025-01-14 15:28:00.15	13.85	7.75	
2025-01-14 15:28:00.97	13.70	7.73	
2025-01-14 15:28:01.80	13.55	7.72	
2025-01-14 15:28:02.63	13.40	7.70	
2025-01-14 15:28:03.45	13.25	7.68	
2025-01-14 15:28:04.27	13.11	7.66	
2025-01-14 15:28:05.10	12.96	7.64	
2025-01-14 15:28:05.92	12.81	7.62	
2025-01-14 15:28:06.74	12.66	7.60	
2025-01-14 15:28:07.56	12.51	7.59	
2025-01-14 15:28:08.38	12.37	7.57	
2025-01-14 15:28:09.20	12.22	7.55	
2025-01-14 15:28:10.02	12.07	7.53	
2025-01-14 15:28:10.84	11.93	7.51	
2025-01-14 15:28:11.66	11.78	7.49	
2025-01-14 15:28:12.48	11.64	7.47	
2025-01-14 15:28:13.30	11.49	7.45	
2025-01-14 15:28:14.12	11.35	7.43	
2025-01-14 15:28:14.94	11.20	7.41	
2025-01-14 15:28:15.77	11.05	7.39	
2025-01-14 15:28:16.60	10.91	7.37	
2025-01-14 15:28:17.42	10.76	7.35	
2025-01-14 15:28:18.24	10.62	7.33	
2025-01-14 15:28:19.06	10.47	7.30	
2025-01-14 15:28:19.87	10.33	7.28	
2025-01-14 15:28:20.70	10.19	7.26	
2025-01-14 15:28:21.52	10.04	7.24	
2025-01-14 15:28:22.34	9.90	7.22	
2025-01-14 15:28:23.16	9.76	7.20	
2025-01-14 15:28:23.98	9.61	7.18	
2025-01-14 15:28:24.80	9.47	7.15	
2025-01-14 15:28:25.62	9.33	7.13	
2025-01-14 15:28:26.44	9.19	7.11	
2025-01-14 15:28:27.26	9.05	7.09	
2025-01-14 15:28:28.08	8.91	7.06	
2025-01-14 15:28:28.90	8.76	7.04	
2025-01-14 15:28:29.72	8.62	7.02	
2025-01-14 15:28:30.54	8.48	7.00	
2025-01-14 15:28:31.36	8.34	6.97	
2025-01-14 15:28:32.18	8.20	6.95	
2025-01-14 15:28:33.00	8.06	6.93	
2025-01-14 15:28:33.82	7.92	6.90	
2025-01-14 15:28:34.64	7.78	6.88	
2025-01-14 15:28:35.46	7.64	6.86	
2025-01-14 15:28:36.28	7.50	6.83	
2025-01-14 15:28:37.10	7.37	6.81	
2025-01-14 15:28:37.92	7.23	6.78	
2025-01-14 15:28:38.74	7.09	6.76	
2025-01-14 15:28:39.56	6.95	6.74	
2025-01-14 15:28:40.37	6.82	6.71	
2025-01-14 15:28:41.20	6.68	6.69	
2025-01-14 15:28:42.02	6.54	6.66	
2025-01-14 15:28:42.84	6.40	6.64	
2025-01-14 15:28:43.66	6.27	6.61	
2025-01-14 15:28:44.48	6.13	6.59	
2025-01-14 15:28:45.30	5.99	6.56	
2025-01-14 15:28:46.12	5.86	6.54	
2025-01-14 15:28:46.94	5.72	6.51	
2025-01-14 15:28:47.76	5.59	6.49	
2025-01-14 15:28:48.59	5.45	6.46	
2025-01-14 15:28:49.42	5.31	6.43	
2025-01-14 15:28:50.23	5.18	6.41	
2025-01-14 15:28:51.05	5.05	6.38	
2025-01-14 15:28:51.87	4.91	6.36	
2025-01-14 15:28:52.69	4.78	6.33	
2025-01-14 15:28:53.51	4.64	6.31	
2025-01-14 15:28:54.35	4.51	6.28	
2025-01-14 15:28:55.18	4.37	6.25	
2025-01-14 15:28:56.02	4.24	6.22	
2025-01-14 15:28:56.84	4.11	6.20	
2025-01-14 15:28:57.66	3.97	6.17	
2025-01-14 15:28:58.48	3.84	6.14	
2025-01-14 15:28:59.30	3.71	6.12	
2025-01-14 15:29:00.12	3.58	6.09	
2025-01-14 15:29:00.94	3.45	6.06	
2025-01-14 15:29:01.76	3.32	6.04	
2025-01-14 15:29:02.58	3.19	6.01	
2025-01-14 15:29:03.39	3.06	5.98	
2025-01-14 15:29:04.21	2.93	5.95	
2025-01-14 15:29:05.03	2.80	5.93	
2025-01-14 15:29:05.85	2.67	5.90	
2025-01-14 15:29:06.67	2.54	5.87	
2025-01-14 15:29:07.50	2.41	5.84	
2025-01-14 15:29:08.31	2.28	5.82	
2025-01-14 15:29:09.13	2.15	5.79	
2025-01-14 15:29:09.95	2.03	5.76	
2025-01-14 15:29:10.77	1.90	5.73	
2025-01-14 15:29:11.59	1.77	5.70	
2025-01-14 15:29:12.41	1.64	5.67	
2025-01-14 15:29:13.25	1.51	5.64	
2025-01-14 15:29:14.07	1.39	5.62	
2025-01-14 15:29:14.90	1.26	5.59	
2025-01-14 15:29:15.73	1.13	5.56	
2025-01-14 15:29:16.57	1.00	5.53	
2025-01-14 15:29:17.38	0.88	5.50	
2025-01-14 15:29:18.21	0.75	5.47	
2025-01-14 15:29:19.02	0.63	5.44	
2025-01-14 15:29:19.84	0.50	5.41	
2025-01-14 15:29:20.66	0.38	5.38	
2025-01-14 15:29:21.48	0.25	5.35	
2025-01-14 15:29:22.30	0.13	5.32	
2025-01-14 15:29:23.12	0.01	5.29	
2025-01-14 15:29:23.94	359.88	5.26	
2025-01-14 15:29:24.76	359.76	5.23	
2025-01-14 15:29:25.58	359.64	5.21	
2025-01-14 15:29:26.41	359.51	5.17	
2025-01-14 15:29:27.23	359.39	5.14	
2025-01-14 15:29:28.05	359.27	5.11	
2025-01-14 15:29:28.88	359.15	5.08	
2025-01-14 15:29:29.69	359.03	5.05	
2025-01-14 15:29:30.52	358.90	5.02	
2025-01-14 15:29:31.34	358.78	4.99	
2025-01-14 15:29:32.16	358.66	4.96	
2025-01-14 15:29:32.99	358.54	4.93	
2025-01-14 15:29:33.81	358.42	4.90	
2025-01-14 15:29:34.63	358.30	4.87	
2025-01-14 15:29:35.45	358.18	4.84	
2025-01-14 15:29:36.27	358.06	4.81	
2025-01-14 15:29:37.09	357.94	4.78	
2025-01-14 15:29:37.92	357.82	4.75	
2025-01-14 15:29:38.76	357.70	4.72	
2025-01-14 15:29:39.58	357.59	4.69	
2025-01-14 15:29:40.40	357.47	4.65	
2025-01-14 15:29:41.22	357.35	4.62	
2025-01-14 15:29:42.04	357.23	4.59	
2025-01-14 15:29:42.85	357.12	4.56	
2025-01-14 15:29:43.68	357.00	4.53	
2025-01-14 15:29:44.50	356.88	4.50	
2025-01-14 15:29:45.33	356.77	4.47	
2025-01-14 15:29:46.15	356.65	4.43	
2025-01-14 15:29:46.98	356.53	4.40	
2025-01-14 15:29:47.80	356.42	4.37	
2025-01-14 15:29:48.62	356.30	4.34	
2025-01-14 15:29:49.44	356.19	4.31	
2025-01-14 15:29:50.26	356.07	4.28	
2025-01-14 15:29:51.08	355.96	4.24	
2025-01-14 15:29:51.90	355.85	4.21	
2025-01-14 15:29:52.72	355.73	4.18	
2025-01-14 15:29:53.54	355.62	4.15	
2025-01-14 15:29:54.36	355.51	4.12	
2025-01-14 15:29:55.18	355.39	4.08	
2025-01-14 15:29:56.01	355.28	4.05	
2025-01-14 15:29:56.83	355.17	4.02	

#Closed at: 2025-01-14 15:29:57