passes_logs/2025/01/14/SPB_Silybum_02/SPB_Silybum_02__20250114_084518_SUOMI_NPP_rec.log

#Pass ID: 20250114_084518_SUOMI NPP
#Satellite: SUOMI NPP
#Configuration: NPP
#Start time: 2025-01-14 08:45:19

#Version: 2.0.20230423
#Station: SPB_Silybum_02
#Location: 30.233357 lon 59.946436 lat
#TLE: 1 37849U 11061A   25013.79210654  .00000158  00000+0  95823-4 0  9999
#TLE: 2 37849  98.7445 314.7959 0001726  42.6053 317.5257 14.19537607684746

#Time	Az	El	Level	Level2	SNR	BER	Gain	Gain2
2025-01-14 08:45:21.70	115.44	4.17	
2025-01-14 08:45:22.93	115.37	4.25	
2025-01-14 08:45:24.16	115.29	4.33	
2025-01-14 08:45:25.40	115.21	4.41	
2025-01-14 08:45:26.63	115.14	4.49	
2025-01-14 08:45:27.87	115.06	4.57	
2025-01-14 08:45:29.10	114.98	4.65	
2025-01-14 08:45:30.33	114.90	4.73	
2025-01-14 08:45:31.56	114.83	4.80	
2025-01-14 08:45:32.81	114.75	4.88	
2025-01-14 08:45:34.04	114.67	4.96	
2025-01-14 08:45:35.28	114.59	5.04	
2025-01-14 08:45:36.51	114.51	5.12	
2025-01-14 08:45:37.75	114.42	5.21	
2025-01-14 08:45:38.99	114.34	5.29	
2025-01-14 08:45:40.22	114.26	5.37	
2025-01-14 08:45:41.47	114.18	5.45	
2025-01-14 08:45:42.70	114.09	5.53	
2025-01-14 08:45:43.94	114.01	5.61	
2025-01-14 08:45:45.18	113.93	5.69	
2025-01-14 08:45:46.41	113.84	5.78	
2025-01-14 08:45:47.64	113.76	5.86	
2025-01-14 08:45:48.87	113.67	5.94	
2025-01-14 08:45:50.11	113.59	6.02	
2025-01-14 08:45:51.34	113.50	6.10	
2025-01-14 08:45:52.57	113.41	6.19	
2025-01-14 08:45:53.80	113.33	6.27	
2025-01-14 08:45:55.03	113.24	6.35	
2025-01-14 08:45:56.26	113.15	6.43	
2025-01-14 08:45:57.49	113.06	6.52	
2025-01-14 08:45:58.73	112.97	6.60	
2025-01-14 08:45:59.96	112.88	6.69	
2025-01-14 08:46:01.20	112.79	6.77	
2025-01-14 08:46:02.43	112.70	6.85	
2025-01-14 08:46:03.68	112.61	6.94	
2025-01-14 08:46:04.92	112.52	7.03	
2025-01-14 08:46:06.15	112.43	7.11	
2025-01-14 08:46:07.39	112.33	7.20	
2025-01-14 08:46:08.62	112.24	7.28	
2025-01-14 08:46:09.86	112.14	7.37	
2025-01-14 08:46:11.09	112.05	7.45	
2025-01-14 08:46:12.32	111.95	7.54	
2025-01-14 08:46:13.56	111.86	7.63	
2025-01-14 08:46:14.81	111.76	7.71	
2025-01-14 08:46:16.04	111.66	7.80	
2025-01-14 08:46:17.28	111.56	7.89	
2025-01-14 08:46:18.51	111.47	7.97	
2025-01-14 08:46:19.74	111.37	8.06	
2025-01-14 08:46:20.98	111.27	8.15	
2025-01-14 08:46:22.21	111.17	8.24	
2025-01-14 08:46:23.44	111.07	8.32	
2025-01-14 08:46:24.67	110.96	8.41	
2025-01-14 08:46:25.92	110.86	8.50	
2025-01-14 08:46:27.15	110.76	8.59	
2025-01-14 08:46:28.38	110.66	8.68	
2025-01-14 08:46:29.62	110.55	8.77	
2025-01-14 08:46:30.85	110.45	8.86	
2025-01-14 08:46:32.08	110.34	8.95	
2025-01-14 08:46:33.31	110.23	9.04	
2025-01-14 08:46:34.55	110.13	9.13	
2025-01-14 08:46:35.79	110.02	9.22	
2025-01-14 08:46:37.04	109.91	9.31	
2025-01-14 08:46:38.26	109.80	9.40	
2025-01-14 08:46:39.49	109.69	9.49	
2025-01-14 08:46:40.72	109.58	9.58	
2025-01-14 08:46:41.96	109.47	9.67	
2025-01-14 08:46:43.19	109.36	9.76	
2025-01-14 08:46:44.43	109.25	9.86	
2025-01-14 08:46:45.65	109.14	9.95	
2025-01-14 08:46:46.90	109.02	10.04	
2025-01-14 08:46:48.13	108.91	10.13	
2025-01-14 08:46:49.36	108.79	10.23	
2025-01-14 08:46:50.60	108.67	10.32	
2025-01-14 08:46:51.83	108.56	10.41	
2025-01-14 08:46:53.08	108.44	10.51	
2025-01-14 08:46:54.31	108.32	10.60	
2025-01-14 08:46:55.55	108.20	10.69	
2025-01-14 08:46:56.79	108.08	10.79	
2025-01-14 08:46:58.02	107.96	10.88	
2025-01-14 08:46:59.25	107.84	10.98	
2025-01-14 08:47:00.48	107.72	11.07	
2025-01-14 08:47:01.71	107.59	11.17	
2025-01-14 08:47:02.95	107.47	11.26	
2025-01-14 08:47:04.20	107.34	11.36	
2025-01-14 08:47:05.43	107.22	11.46	
2025-01-14 08:47:06.66	107.09	11.55	
2025-01-14 08:47:07.89	106.96	11.65	
2025-01-14 08:47:09.13	106.83	11.74	
2025-01-14 08:47:10.37	106.70	11.84	
2025-01-14 08:47:11.61	106.57	11.94	
2025-01-14 08:47:12.85	106.44	12.04	
2025-01-14 08:47:14.08	106.31	12.14	
2025-01-14 08:47:15.31	106.18	12.23	
2025-01-14 08:47:16.54	106.04	12.33	
2025-01-14 08:47:17.77	105.91	12.43	
2025-01-14 08:47:19.00	105.78	12.53	
2025-01-14 08:47:20.23	105.64	12.63	
2025-01-14 08:47:21.48	105.50	12.73	
2025-01-14 08:47:22.73	105.36	12.83	
2025-01-14 08:47:23.96	105.22	12.93	
2025-01-14 08:47:25.19	105.08	13.02	
2025-01-14 08:47:26.42	104.94	13.12	
2025-01-14 08:47:27.65	104.80	13.22	
2025-01-14 08:47:28.89	104.66	13.33	
2025-01-14 08:47:30.12	104.51	13.43	
2025-01-14 08:47:31.35	104.37	13.53	
2025-01-14 08:47:32.58	104.22	13.63	
2025-01-14 08:47:33.82	104.07	13.73	
2025-01-14 08:47:35.06	103.92	13.83	
2025-01-14 08:47:36.29	103.78	13.93	
2025-01-14 08:47:37.55	103.62	14.04	
2025-01-14 08:47:38.79	103.47	14.14	
2025-01-14 08:47:40.02	103.32	14.24	
2025-01-14 08:47:41.26	103.16	14.35	
2025-01-14 08:47:42.49	103.01	14.45	
2025-01-14 08:47:43.73	102.85	14.55	
2025-01-14 08:47:44.96	102.70	14.65	
2025-01-14 08:47:46.20	102.54	14.76	
2025-01-14 08:47:47.43	102.38	14.86	
2025-01-14 08:47:48.66	102.22	14.97	
2025-01-14 08:47:49.89	102.06	15.07	
2025-01-14 08:47:51.12	101.90	15.17	
2025-01-14 08:47:52.35	101.73	15.28	
2025-01-14 08:47:53.59	101.57	15.38	
2025-01-14 08:47:54.83	101.40	15.49	
2025-01-14 08:47:56.06	101.24	15.59	
2025-01-14 08:47:57.30	101.07	15.70	
2025-01-14 08:47:58.53	100.90	15.81	
2025-01-14 08:47:59.77	100.73	15.91	
2025-01-14 08:48:01.00	100.55	16.02	
2025-01-14 08:48:02.23	100.38	16.12	
2025-01-14 08:48:03.46	100.21	16.23	
2025-01-14 08:48:04.70	100.03	16.34	
2025-01-14 08:48:05.92	99.86	16.44	
2025-01-14 08:48:07.16	99.68	16.55	
2025-01-14 08:48:08.39	99.50	16.66	
2025-01-14 08:48:09.62	99.32	16.77	
2025-01-14 08:48:10.87	99.13	16.88	
2025-01-14 08:48:12.10	98.95	16.98	
2025-01-14 08:48:13.34	98.76	17.09	
2025-01-14 08:48:14.58	98.58	17.20	
2025-01-14 08:48:15.82	98.39	17.31	
2025-01-14 08:48:17.06	98.20	17.42	
2025-01-14 08:48:18.29	98.01	17.53	
2025-01-14 08:48:19.52	97.82	17.63	
2025-01-14 08:48:20.75	97.62	17.74	
2025-01-14 08:48:21.99	97.43	17.85	
2025-01-14 08:48:23.22	97.23	17.96	
2025-01-14 08:48:24.46	97.03	18.07	
2025-01-14 08:48:25.69	96.84	18.18	
2025-01-14 08:48:26.93	96.63	18.29	
2025-01-14 08:48:28.17	96.43	18.40	
2025-01-14 08:48:29.41	96.23	18.51	
2025-01-14 08:48:30.64	96.02	18.62	
2025-01-14 08:48:31.88	95.81	18.73	
2025-01-14 08:48:33.13	95.60	18.84	
2025-01-14 08:48:34.36	95.40	18.95	
2025-01-14 08:48:35.60	95.18	19.07	
2025-01-14 08:48:36.83	94.97	19.18	
2025-01-14 08:48:38.07	94.76	19.29	
2025-01-14 08:48:39.31	94.54	19.40	
2025-01-14 08:48:40.55	94.32	19.51	
2025-01-14 08:48:41.78	94.10	19.62	
2025-01-14 08:48:43.02	93.88	19.73	
2025-01-14 08:48:44.25	93.66	19.84	
2025-01-14 08:48:45.47	93.44	19.95	
2025-01-14 08:48:46.71	93.21	20.06	
2025-01-14 08:48:47.94	92.99	20.17	
2025-01-14 08:48:49.18	92.76	20.28	
2025-01-14 08:48:50.42	92.52	20.40	
2025-01-14 08:48:51.67	92.29	20.51	
2025-01-14 08:48:52.90	92.06	20.62	
2025-01-14 08:48:54.13	91.82	20.73	
2025-01-14 08:48:55.38	91.58	20.84	
2025-01-14 08:48:56.61	91.34	20.95	
2025-01-14 08:48:57.84	91.10	21.06	
2025-01-14 08:48:59.07	90.86	21.17	
2025-01-14 08:49:00.30	90.62	21.28	
2025-01-14 08:49:01.54	90.37	21.39	
2025-01-14 08:49:02.77	90.12	21.50	
2025-01-14 08:49:04.00	89.88	21.61	
2025-01-14 08:49:05.23	89.63	21.72	
2025-01-14 08:49:06.47	89.37	21.84	
2025-01-14 08:49:07.70	89.12	21.94	
2025-01-14 08:49:08.93	88.86	22.05	
2025-01-14 08:49:10.16	88.60	22.16	
2025-01-14 08:49:11.39	88.34	22.27	
2025-01-14 08:49:12.63	88.08	22.38	
2025-01-14 08:49:13.87	87.81	22.49	
2025-01-14 08:49:15.11	87.55	22.60	
2025-01-14 08:49:16.33	87.28	22.71	
2025-01-14 08:49:17.56	87.01	22.82	
2025-01-14 08:49:18.80	86.74	22.93	
2025-01-14 08:49:20.03	86.47	23.04	
2025-01-14 08:49:21.26	86.19	23.14	
2025-01-14 08:49:22.49	85.92	23.25	
2025-01-14 08:49:23.74	85.63	23.36	
2025-01-14 08:49:24.97	85.35	23.47	
2025-01-14 08:49:26.20	85.07	23.57	
2025-01-14 08:49:27.44	84.78	23.68	
2025-01-14 08:49:28.68	84.50	23.79	
2025-01-14 08:49:29.91	84.21	23.89	
2025-01-14 08:49:31.14	83.92	24.00	
2025-01-14 08:49:32.37	83.63	24.10	
2025-01-14 08:49:33.62	83.33	24.21	
2025-01-14 08:49:34.85	83.03	24.31	
2025-01-14 08:49:36.09	82.73	24.41	
2025-01-14 08:49:37.33	82.43	24.52	
2025-01-14 08:49:38.56	82.13	24.62	
2025-01-14 08:49:39.80	81.82	24.72	
2025-01-14 08:49:41.04	81.51	24.83	
2025-01-14 08:49:42.29	81.20	24.93	
2025-01-14 08:49:43.52	80.89	25.03	
2025-01-14 08:49:44.75	80.58	25.13	
2025-01-14 08:49:45.99	80.26	25.23	
2025-01-14 08:49:47.22	79.94	25.33	
2025-01-14 08:49:48.46	79.62	25.43	
2025-01-14 08:49:49.70	79.30	25.53	
2025-01-14 08:49:50.93	78.98	25.62	
2025-01-14 08:49:52.17	78.65	25.72	
2025-01-14 08:49:53.41	78.32	25.82	
2025-01-14 08:49:54.65	77.99	25.91	
2025-01-14 08:49:55.88	77.66	26.01	
2025-01-14 08:49:57.11	77.33	26.10	
2025-01-14 08:49:58.36	76.99	26.19	
2025-01-14 08:49:59.59	76.66	26.29	
2025-01-14 08:50:00.82	76.32	26.38	
2025-01-14 08:50:02.06	75.98	26.47	
2025-01-14 08:50:03.29	75.64	26.56	
2025-01-14 08:50:04.52	75.29	26.65	
2025-01-14 08:50:05.76	74.94	26.74	
2025-01-14 08:50:06.99	74.60	26.82	
2025-01-14 08:50:08.21	74.25	26.91	
2025-01-14 08:50:09.44	73.90	26.99	
2025-01-14 08:50:10.67	73.55	27.08	
2025-01-14 08:50:11.90	73.19	27.16	
2025-01-14 08:50:13.14	72.83	27.24	
2025-01-14 08:50:14.36	72.48	27.32	
2025-01-14 08:50:15.60	72.11	27.40	
2025-01-14 08:50:16.83	71.75	27.48	
2025-01-14 08:50:18.06	71.39	27.56	
2025-01-14 08:50:19.31	71.01	27.64	
2025-01-14 08:50:20.54	70.65	27.72	
2025-01-14 08:50:21.77	70.28	27.79	
2025-01-14 08:50:23.00	69.91	27.87	
2025-01-14 08:50:24.23	69.53	27.94	
2025-01-14 08:50:25.48	69.15	28.01	
2025-01-14 08:50:26.71	68.78	28.08	
2025-01-14 08:50:27.94	68.40	28.15	
2025-01-14 08:50:29.19	68.01	28.22	
2025-01-14 08:50:30.42	67.63	28.29	
2025-01-14 08:50:31.65	67.25	28.35	
2025-01-14 08:50:32.88	66.87	28.42	
2025-01-14 08:50:34.12	66.48	28.48	
2025-01-14 08:50:35.34	66.09	28.54	
2025-01-14 08:50:36.58	65.70	28.60	
2025-01-14 08:50:37.81	65.31	28.66	
2025-01-14 08:50:39.04	64.92	28.72	
2025-01-14 08:50:40.27	64.53	28.77	
2025-01-14 08:50:41.50	64.13	28.83	
2025-01-14 08:50:42.73	63.74	28.88	
2025-01-14 08:50:43.99	63.33	28.93	
2025-01-14 08:50:45.22	62.93	28.98	
2025-01-14 08:50:46.45	62.53	29.03	
2025-01-14 08:50:47.69	62.13	29.08	
2025-01-14 08:50:48.92	61.73	29.13	
2025-01-14 08:50:50.15	61.32	29.17	
2025-01-14 08:50:51.39	60.92	29.21	
2025-01-14 08:50:52.62	60.51	29.26	
2025-01-14 08:50:53.85	60.11	29.30	
2025-01-14 08:50:55.10	59.69	29.33	
2025-01-14 08:50:56.33	59.29	29.37	
2025-01-14 08:50:57.56	58.88	29.41	
2025-01-14 08:50:58.79	58.47	29.44	
2025-01-14 08:51:00.04	58.05	29.47	
2025-01-14 08:51:01.30	57.63	29.50	
2025-01-14 08:51:02.53	57.22	29.53	
2025-01-14 08:51:03.76	56.80	29.56	
2025-01-14 08:51:04.99	56.39	29.58	
2025-01-14 08:51:06.22	55.98	29.61	
2025-01-14 08:51:07.46	55.56	29.63	
2025-01-14 08:51:08.69	55.14	29.65	
2025-01-14 08:51:09.92	54.73	29.67	
2025-01-14 08:51:11.17	54.30	29.68	
2025-01-14 08:51:12.40	53.89	29.70	
2025-01-14 08:51:13.62	53.47	29.71	
2025-01-14 08:51:14.86	53.05	29.72	
2025-01-14 08:51:16.08	52.64	29.73	
2025-01-14 08:51:17.32	52.22	29.74	
2025-01-14 08:51:18.55	51.80	29.75	
2025-01-14 08:51:19.80	51.38	29.75	
2025-01-14 08:51:21.04	50.95	29.76	
2025-01-14 08:51:22.28	50.53	29.76	
2025-01-14 08:51:23.51	50.11	29.76	
2025-01-14 08:51:24.74	49.70	29.76	
2025-01-14 08:51:25.98	49.27	29.75	
2025-01-14 08:51:27.22	48.85	29.75	
2025-01-14 08:51:28.45	48.44	29.74	
2025-01-14 08:51:29.68	48.02	29.73	
2025-01-14 08:51:30.91	47.60	29.72	
2025-01-14 08:51:32.16	47.18	29.71	
2025-01-14 08:51:33.39	46.76	29.70	
2025-01-14 08:51:34.62	46.34	29.68	
2025-01-14 08:51:35.85	45.93	29.66	
2025-01-14 08:51:37.09	45.51	29.64	
2025-01-14 08:51:38.33	45.09	29.62	
2025-01-14 08:51:39.56	44.68	29.60	
2025-01-14 08:51:40.79	44.26	29.58	
2025-01-14 08:51:42.03	43.85	29.55	
2025-01-14 08:51:43.27	43.43	29.52	
2025-01-14 08:51:44.51	43.02	29.49	
2025-01-14 08:51:45.74	42.61	29.46	
2025-01-14 08:51:46.99	42.19	29.43	
2025-01-14 08:51:48.23	41.78	29.40	
2025-01-14 08:51:49.46	41.37	29.36	
2025-01-14 08:51:50.69	40.96	29.32	
2025-01-14 08:51:51.92	40.56	29.29	
2025-01-14 08:51:53.16	40.15	29.24	
2025-01-14 08:51:54.39	39.74	29.20	
2025-01-14 08:51:55.62	39.34	29.16	
2025-01-14 08:51:56.86	38.94	29.11	
2025-01-14 08:51:58.09	38.53	29.07	
2025-01-14 08:51:59.33	38.13	29.02	
2025-01-14 08:52:00.55	37.74	28.97	
2025-01-14 08:52:01.79	37.34	28.92	
2025-01-14 08:52:03.02	36.94	28.87	
2025-01-14 08:52:04.25	36.55	28.82	
2025-01-14 08:52:05.48	36.15	28.76	
2025-01-14 08:52:06.72	35.76	28.70	
2025-01-14 08:52:07.95	35.37	28.65	
2025-01-14 08:52:09.19	34.98	28.59	
2025-01-14 08:52:10.42	34.59	28.53	
2025-01-14 08:52:11.65	34.20	28.46	
2025-01-14 08:52:12.88	33.82	28.40	
2025-01-14 08:52:14.11	33.43	28.34	
2025-01-14 08:52:15.35	33.05	28.27	
2025-01-14 08:52:16.58	32.67	28.20	
2025-01-14 08:52:17.81	32.29	28.14	
2025-01-14 08:52:19.04	31.92	28.07	
2025-01-14 08:52:20.29	31.54	28.00	
2025-01-14 08:52:21.53	31.16	27.92	
2025-01-14 08:52:22.76	30.79	27.85	
2025-01-14 08:52:24.01	30.41	27.78	
2025-01-14 08:52:25.25	30.04	27.70	
2025-01-14 08:52:26.48	29.68	27.62	
2025-01-14 08:52:27.72	29.31	27.55	
2025-01-14 08:52:28.95	28.95	27.47	
2025-01-14 08:52:30.18	28.58	27.39	
2025-01-14 08:52:31.41	28.23	27.31	
2025-01-14 08:52:32.65	27.87	27.23	
2025-01-14 08:52:33.88	27.51	27.14	
2025-01-14 08:52:35.11	27.16	27.06	
2025-01-14 08:52:36.35	26.80	26.98	
2025-01-14 08:52:37.59	26.45	26.89	
2025-01-14 08:52:38.82	26.10	26.80	
2025-01-14 08:52:40.05	25.76	26.72	
2025-01-14 08:52:41.29	25.41	26.63	
2025-01-14 08:52:42.52	25.07	26.54	
2025-01-14 08:52:43.75	24.73	26.45	
2025-01-14 08:52:44.98	24.39	26.36	
2025-01-14 08:52:46.21	24.05	26.27	
2025-01-14 08:52:47.44	23.72	26.18	
2025-01-14 08:52:48.68	23.39	26.08	
2025-01-14 08:52:49.91	23.06	25.99	
2025-01-14 08:52:51.15	22.72	25.89	
2025-01-14 08:52:52.39	22.40	25.80	
2025-01-14 08:52:53.62	22.07	25.70	
2025-01-14 08:52:54.85	21.75	25.61	
2025-01-14 08:52:56.09	21.43	25.51	
2025-01-14 08:52:57.33	21.11	25.41	
2025-01-14 08:52:58.58	20.78	25.31	
2025-01-14 08:52:59.82	20.47	25.21	
2025-01-14 08:53:01.05	20.16	25.11	
2025-01-14 08:53:02.29	19.84	25.01	
2025-01-14 08:53:03.52	19.53	24.91	
2025-01-14 08:53:04.77	19.22	24.81	
2025-01-14 08:53:06.00	18.92	24.71	
2025-01-14 08:53:07.23	18.62	24.61	
2025-01-14 08:53:08.47	18.31	24.50	
2025-01-14 08:53:09.72	18.01	24.40	
2025-01-14 08:53:10.95	17.72	24.30	
2025-01-14 08:53:12.18	17.42	24.19	
2025-01-14 08:53:13.42	17.13	24.09	
2025-01-14 08:53:14.66	16.83	23.98	
2025-01-14 08:53:15.92	16.54	23.88	
2025-01-14 08:53:17.14	16.25	23.77	
2025-01-14 08:53:18.38	15.97	23.67	
2025-01-14 08:53:19.61	15.68	23.56	
2025-01-14 08:53:20.84	15.40	23.45	
2025-01-14 08:53:22.07	15.13	23.35	
2025-01-14 08:53:23.31	14.85	23.24	
2025-01-14 08:53:24.54	14.57	23.13	
2025-01-14 08:53:25.78	14.30	23.03	
2025-01-14 08:53:27.03	14.02	22.92	
2025-01-14 08:53:28.26	13.75	22.81	
2025-01-14 08:53:29.49	13.49	22.70	
2025-01-14 08:53:30.72	13.22	22.59	
2025-01-14 08:53:31.97	12.95	22.48	
2025-01-14 08:53:33.20	12.69	22.37	
2025-01-14 08:53:34.45	12.43	22.26	
2025-01-14 08:53:35.68	12.17	22.15	
2025-01-14 08:53:36.92	11.91	22.04	
2025-01-14 08:53:38.15	11.66	21.94	
2025-01-14 08:53:39.38	11.40	21.83	
2025-01-14 08:53:40.61	11.15	21.72	
2025-01-14 08:53:41.84	10.91	21.61	
2025-01-14 08:53:43.07	10.66	21.50	
2025-01-14 08:53:44.30	10.41	21.39	
2025-01-14 08:53:45.53	10.17	21.28	
2025-01-14 08:53:46.76	9.93	21.17	
2025-01-14 08:53:48.00	9.69	21.06	
2025-01-14 08:53:49.23	9.45	20.95	
2025-01-14 08:53:50.47	9.21	20.84	
2025-01-14 08:53:51.70	8.98	20.73	
2025-01-14 08:53:52.93	8.74	20.62	
2025-01-14 08:53:54.16	8.51	20.51	
2025-01-14 08:53:55.39	8.28	20.40	
2025-01-14 08:53:56.63	8.05	20.29	
2025-01-14 08:53:57.86	7.82	20.17	
2025-01-14 08:53:59.09	7.60	20.06	
2025-01-14 08:54:00.32	7.38	19.95	
2025-01-14 08:54:01.55	7.16	19.84	
2025-01-14 08:54:02.78	6.94	19.73	
2025-01-14 08:54:04.02	6.72	19.62	
2025-01-14 08:54:05.25	6.50	19.51	
2025-01-14 08:54:06.48	6.28	19.40	
2025-01-14 08:54:07.71	6.07	19.29	
2025-01-14 08:54:08.96	5.86	19.18	
2025-01-14 08:54:10.19	5.65	19.07	
2025-01-14 08:54:11.42	5.44	18.96	
2025-01-14 08:54:12.66	5.23	18.85	
2025-01-14 08:54:13.89	5.02	18.74	
2025-01-14 08:54:15.13	4.82	18.63	
2025-01-14 08:54:16.36	4.61	18.52	
2025-01-14 08:54:17.61	4.41	18.41	
2025-01-14 08:54:18.85	4.21	18.30	
2025-01-14 08:54:20.10	4.01	18.19	
2025-01-14 08:54:21.34	3.81	18.08	
2025-01-14 08:54:22.58	3.61	17.97	
2025-01-14 08:54:23.82	3.42	17.87	
2025-01-14 08:54:25.05	3.22	17.76	
2025-01-14 08:54:26.28	3.03	17.65	
2025-01-14 08:54:27.53	2.84	17.54	
2025-01-14 08:54:28.78	2.65	17.43	
2025-01-14 08:54:30.01	2.46	17.32	
2025-01-14 08:54:31.25	2.27	17.21	
2025-01-14 08:54:32.48	2.09	17.11	
2025-01-14 08:54:33.72	1.91	17.00	
2025-01-14 08:54:34.97	1.72	16.89	
2025-01-14 08:54:36.20	1.54	16.78	
2025-01-14 08:54:37.43	1.36	16.68	
2025-01-14 08:54:38.66	1.18	16.57	
2025-01-14 08:54:39.89	1.01	16.46	
2025-01-14 08:54:41.12	0.83	16.36	
2025-01-14 08:54:42.37	0.66	16.25	
2025-01-14 08:54:43.60	0.48	16.14	
2025-01-14 08:54:44.83	0.31	16.04	
2025-01-14 08:54:46.06	0.14	15.93	
2025-01-14 08:54:47.29	359.97	15.83	
2025-01-14 08:54:48.53	359.80	15.72	
2025-01-14 08:54:49.76	359.64	15.62	
2025-01-14 08:54:50.99	359.47	15.51	
2025-01-14 08:54:52.22	359.31	15.41	
2025-01-14 08:54:53.46	359.14	15.30	
2025-01-14 08:54:54.69	358.98	15.20	
2025-01-14 08:54:55.94	358.82	15.09	
2025-01-14 08:54:57.17	358.66	14.99	
2025-01-14 08:54:58.40	358.50	14.89	
2025-01-14 08:54:59.63	358.35	14.78	
2025-01-14 08:55:00.87	358.19	14.68	
2025-01-14 08:55:02.11	358.03	14.58	
2025-01-14 08:55:03.34	357.88	14.47	
2025-01-14 08:55:04.57	357.73	14.37	
2025-01-14 08:55:05.80	357.57	14.27	
2025-01-14 08:55:07.05	357.42	14.17	
2025-01-14 08:55:08.28	357.27	14.07	
2025-01-14 08:55:09.52	357.12	13.96	
2025-01-14 08:55:10.75	356.97	13.86	
2025-01-14 08:55:11.99	356.83	13.76	
2025-01-14 08:55:13.22	356.68	13.66	
2025-01-14 08:55:14.45	356.54	13.56	
2025-01-14 08:55:15.68	356.39	13.46	
2025-01-14 08:55:16.91	356.25	13.36	
2025-01-14 08:55:18.14	356.11	13.26	
2025-01-14 08:55:19.38	355.97	13.16	
2025-01-14 08:55:20.61	355.83	13.06	
2025-01-14 08:55:21.84	355.69	12.96	
2025-01-14 08:55:23.07	355.55	12.86	
2025-01-14 08:55:24.32	355.41	12.76	
2025-01-14 08:55:25.56	355.28	12.66	
2025-01-14 08:55:26.80	355.14	12.56	
2025-01-14 08:55:28.03	355.01	12.47	
2025-01-14 08:55:29.26	354.88	12.37	
2025-01-14 08:55:30.50	354.74	12.27	
2025-01-14 08:55:31.74	354.61	12.17	
2025-01-14 08:55:32.97	354.48	12.08	
2025-01-14 08:55:34.20	354.35	11.98	
2025-01-14 08:55:35.44	354.22	11.88	
2025-01-14 08:55:36.68	354.09	11.79	
2025-01-14 08:55:37.91	353.97	11.69	
2025-01-14 08:55:39.14	353.84	11.59	
2025-01-14 08:55:40.37	353.72	11.50	
2025-01-14 08:55:41.61	353.59	11.40	
2025-01-14 08:55:42.83	353.47	11.31	
2025-01-14 08:55:44.07	353.35	11.21	
2025-01-14 08:55:45.30	353.22	11.12	
2025-01-14 08:55:46.53	353.10	11.02	
2025-01-14 08:55:47.76	352.98	10.93	
2025-01-14 08:55:48.99	352.86	10.84	
2025-01-14 08:55:50.24	352.74	10.74	
2025-01-14 08:55:51.46	352.63	10.65	
2025-01-14 08:55:52.69	352.51	10.56	
2025-01-14 08:55:53.92	352.39	10.46	
2025-01-14 08:55:55.17	352.28	10.37	
2025-01-14 08:55:56.40	352.16	10.28	
2025-01-14 08:55:57.63	352.05	10.18	
2025-01-14 08:55:58.86	351.94	10.09	
2025-01-14 08:56:00.09	351.82	10.00	
2025-01-14 08:56:01.33	351.71	9.91	
2025-01-14 08:56:02.56	351.60	9.82	
2025-01-14 08:56:03.79	351.49	9.73	
2025-01-14 08:56:05.03	351.38	9.63	
2025-01-14 08:56:06.26	351.27	9.54	
2025-01-14 08:56:07.49	351.16	9.45	
2025-01-14 08:56:08.73	351.06	9.36	
2025-01-14 08:56:09.96	350.95	9.27	
2025-01-14 08:56:11.19	350.84	9.18	
2025-01-14 08:56:12.42	350.74	9.09	
2025-01-14 08:56:13.67	350.63	9.00	
2025-01-14 08:56:14.90	350.53	8.91	
2025-01-14 08:56:16.13	350.42	8.83	
2025-01-14 08:56:17.36	350.32	8.74	
2025-01-14 08:56:18.60	350.22	8.65	
2025-01-14 08:56:19.84	350.12	8.56	
2025-01-14 08:56:21.07	350.02	8.47	
2025-01-14 08:56:22.30	349.92	8.38	
2025-01-14 08:56:23.53	349.82	8.30	
2025-01-14 08:56:24.77	349.72	8.21	
2025-01-14 08:56:26.00	349.62	8.12	
2025-01-14 08:56:27.23	349.52	8.03	
2025-01-14 08:56:28.46	349.43	7.95	
2025-01-14 08:56:29.70	349.33	7.86	
2025-01-14 08:56:30.93	349.23	7.78	
2025-01-14 08:56:32.16	349.14	7.69	
2025-01-14 08:56:33.39	349.04	7.60	
2025-01-14 08:56:34.62	348.95	7.52	
2025-01-14 08:56:35.86	348.85	7.43	
2025-01-14 08:56:37.08	348.76	7.35	
2025-01-14 08:56:38.32	348.67	7.26	
2025-01-14 08:56:39.55	348.58	7.18	
2025-01-14 08:56:40.78	348.49	7.09	
2025-01-14 08:56:42.01	348.40	7.01	
2025-01-14 08:56:43.25	348.31	6.92	
2025-01-14 08:56:44.48	348.22	6.84	
2025-01-14 08:56:45.71	348.13	6.76	
2025-01-14 08:56:46.94	348.04	6.67	
2025-01-14 08:56:48.18	347.95	6.59	
2025-01-14 08:56:49.41	347.86	6.51	
2025-01-14 08:56:50.64	347.78	6.42	
2025-01-14 08:56:51.87	347.69	6.34	
2025-01-14 08:56:53.10	347.60	6.26	
2025-01-14 08:56:54.34	347.52	6.18	
2025-01-14 08:56:55.59	347.43	6.09	
2025-01-14 08:56:56.84	347.35	6.01	
2025-01-14 08:56:58.07	347.26	5.93	
2025-01-14 08:56:59.30	347.18	5.85	
2025-01-14 08:57:00.52	347.10	5.77	
2025-01-14 08:57:01.77	347.01	5.68	
2025-01-14 08:57:02.99	346.93	5.60	
2025-01-14 08:57:04.23	346.85	5.52	
2025-01-14 08:57:05.46	346.77	5.44	
2025-01-14 08:57:06.69	346.69	5.36	
2025-01-14 08:57:07.92	346.61	5.28	
2025-01-14 08:57:09.15	346.53	5.20	
2025-01-14 08:57:10.38	346.45	5.12	
2025-01-14 08:57:11.62	346.37	5.04	
2025-01-14 08:57:12.85	346.29	4.96	
2025-01-14 08:57:14.08	346.22	4.88	
2025-01-14 08:57:15.31	346.14	4.80	
2025-01-14 08:57:16.55	346.06	4.72	
2025-01-14 08:57:17.78	345.99	4.65	
2025-01-14 08:57:19.01	345.91	4.57	
2025-01-14 08:57:20.24	345.83	4.49	
2025-01-14 08:57:21.48	345.76	4.41	
2025-01-14 08:57:22.72	345.68	4.33	
2025-01-14 08:57:23.95	345.61	4.25	
2025-01-14 08:57:25.18	345.54	4.18	
2025-01-14 08:57:26.41	345.46	4.10	
2025-01-14 08:57:27.66	345.39	4.02	

#Closed at: 2025-01-14 08:57:28