passes_logs/2025/01/14/SPB_Silybum_02/SPB_Silybum_02__20250114_025522_AQUA_rec.log

#Pass ID: 20250114_025522_AQUA
#Satellite: AQUA
#Configuration: AQUA
#Start time: 2025-01-14 02:55:21

#Version: 2.0.20230423
#Station: SPB_Silybum_02
#Location: 30.233357 lon 59.946436 lat
#TLE: 1 27424U 02022A   25013.15568498  .00001660  00000+0  35066-3 0  9997
#TLE: 2 27424  98.3585 329.8030 0001646 113.3422 303.6913 14.60674931207350

#Time	Az	El	Level	Level2	SNR	BER	Gain	Gain2
2025-01-14 02:55:23.29	10.82	4.03	
2025-01-14 02:55:24.52	10.73	4.11	
2025-01-14 02:55:25.75	10.63	4.19	
2025-01-14 02:55:26.98	10.54	4.26	
2025-01-14 02:55:28.21	10.44	4.34	
2025-01-14 02:55:29.44	10.35	4.42	
2025-01-14 02:55:30.67	10.25	4.50	
2025-01-14 02:55:31.90	10.15	4.58	
2025-01-14 02:55:33.13	10.05	4.66	
2025-01-14 02:55:34.36	9.95	4.74	
2025-01-14 02:55:35.59	9.85	4.82	
2025-01-14 02:55:36.83	9.75	4.90	
2025-01-14 02:55:38.06	9.65	4.98	
2025-01-14 02:55:39.29	9.55	5.06	
2025-01-14 02:55:40.52	9.44	5.14	
2025-01-14 02:55:41.77	9.34	5.22	
2025-01-14 02:55:43.00	9.23	5.30	
2025-01-14 02:55:44.23	9.13	5.38	
2025-01-14 02:55:45.46	9.02	5.46	
2025-01-14 02:55:46.69	8.92	5.54	
2025-01-14 02:55:47.93	8.81	5.62	
2025-01-14 02:55:49.15	8.70	5.70	
2025-01-14 02:55:50.39	8.60	5.79	
2025-01-14 02:55:51.62	8.49	5.87	
2025-01-14 02:55:52.85	8.38	5.95	
2025-01-14 02:55:54.08	8.27	6.03	
2025-01-14 02:55:55.31	8.16	6.11	
2025-01-14 02:55:56.55	8.04	6.20	
2025-01-14 02:55:57.80	7.93	6.28	
2025-01-14 02:55:59.05	7.82	6.37	
2025-01-14 02:56:00.27	7.70	6.45	
2025-01-14 02:56:01.51	7.59	6.53	
2025-01-14 02:56:02.74	7.47	6.62	
2025-01-14 02:56:03.97	7.36	6.70	
2025-01-14 02:56:05.21	7.24	6.78	
2025-01-14 02:56:06.44	7.12	6.87	
2025-01-14 02:56:07.67	7.00	6.95	
2025-01-14 02:56:08.91	6.88	7.04	
2025-01-14 02:56:10.16	6.76	7.12	
2025-01-14 02:56:11.41	6.64	7.21	
2025-01-14 02:56:12.63	6.52	7.30	
2025-01-14 02:56:13.88	6.39	7.38	
2025-01-14 02:56:15.11	6.27	7.47	
2025-01-14 02:56:16.35	6.15	7.55	
2025-01-14 02:56:17.58	6.02	7.64	
2025-01-14 02:56:18.81	5.90	7.73	
2025-01-14 02:56:20.04	5.77	7.81	
2025-01-14 02:56:21.27	5.64	7.90	
2025-01-14 02:56:22.50	5.51	7.99	
2025-01-14 02:56:23.73	5.39	8.07	
2025-01-14 02:56:24.97	5.26	8.16	
2025-01-14 02:56:26.20	5.12	8.25	
2025-01-14 02:56:27.43	4.99	8.34	
2025-01-14 02:56:28.66	4.86	8.42	
2025-01-14 02:56:29.89	4.73	8.51	
2025-01-14 02:56:31.12	4.59	8.60	
2025-01-14 02:56:32.35	4.46	8.69	
2025-01-14 02:56:33.57	4.32	8.78	
2025-01-14 02:56:34.80	4.19	8.86	
2025-01-14 02:56:36.03	4.05	8.95	
2025-01-14 02:56:37.26	3.91	9.04	
2025-01-14 02:56:38.50	3.77	9.13	
2025-01-14 02:56:39.73	3.63	9.22	
2025-01-14 02:56:40.96	3.49	9.31	
2025-01-14 02:56:42.19	3.34	9.40	
2025-01-14 02:56:43.44	3.20	9.49	
2025-01-14 02:56:44.67	3.05	9.58	
2025-01-14 02:56:45.91	2.91	9.68	
2025-01-14 02:56:47.15	2.76	9.77	
2025-01-14 02:56:48.39	2.61	9.86	
2025-01-14 02:56:49.62	2.46	9.95	
2025-01-14 02:56:50.86	2.31	10.04	
2025-01-14 02:56:52.09	2.16	10.13	
2025-01-14 02:56:53.32	2.01	10.23	
2025-01-14 02:56:54.55	1.85	10.32	
2025-01-14 02:56:55.80	1.70	10.41	
2025-01-14 02:56:57.03	1.54	10.50	
2025-01-14 02:56:58.26	1.39	10.60	
2025-01-14 02:56:59.50	1.23	10.69	
2025-01-14 02:57:00.73	1.07	10.78	
2025-01-14 02:57:01.96	0.91	10.88	
2025-01-14 02:57:03.19	0.75	10.97	
2025-01-14 02:57:04.42	0.59	11.06	
2025-01-14 02:57:05.65	0.42	11.16	
2025-01-14 02:57:06.88	0.26	11.25	
2025-01-14 02:57:08.12	0.09	11.34	
2025-01-14 02:57:09.34	359.93	11.44	
2025-01-14 02:57:10.58	359.76	11.53	
2025-01-14 02:57:11.82	359.59	11.63	
2025-01-14 02:57:13.04	359.42	11.72	
2025-01-14 02:57:14.28	359.25	11.82	
2025-01-14 02:57:15.51	359.07	11.91	
2025-01-14 02:57:16.74	358.90	12.01	
2025-01-14 02:57:17.97	358.73	12.10	
2025-01-14 02:57:19.21	358.55	12.20	
2025-01-14 02:57:20.44	358.37	12.29	
2025-01-14 02:57:21.68	358.19	12.39	
2025-01-14 02:57:22.91	358.01	12.49	
2025-01-14 02:57:24.14	357.83	12.58	
2025-01-14 02:57:25.37	357.65	12.68	
2025-01-14 02:57:26.60	357.46	12.78	
2025-01-14 02:57:27.83	357.28	12.87	
2025-01-14 02:57:29.06	357.09	12.97	
2025-01-14 02:57:30.31	356.90	13.07	
2025-01-14 02:57:31.55	356.71	13.17	
2025-01-14 02:57:32.78	356.52	13.26	
2025-01-14 02:57:34.02	356.32	13.36	
2025-01-14 02:57:35.25	356.13	13.46	
2025-01-14 02:57:36.49	355.93	13.56	
2025-01-14 02:57:37.73	355.74	13.65	
2025-01-14 02:57:38.96	355.54	13.75	
2025-01-14 02:57:40.18	355.34	13.85	
2025-01-14 02:57:41.41	355.14	13.95	
2025-01-14 02:57:42.65	354.94	14.05	
2025-01-14 02:57:43.88	354.73	14.14	
2025-01-14 02:57:45.11	354.53	14.24	
2025-01-14 02:57:46.36	354.32	14.34	
2025-01-14 02:57:47.59	354.11	14.44	
2025-01-14 02:57:48.82	353.90	14.54	
2025-01-14 02:57:50.05	353.69	14.64	
2025-01-14 02:57:51.28	353.48	14.74	
2025-01-14 02:57:52.51	353.26	14.83	
2025-01-14 02:57:53.73	353.05	14.93	
2025-01-14 02:57:54.97	352.83	15.03	
2025-01-14 02:57:56.19	352.61	15.13	
2025-01-14 02:57:57.44	352.39	15.23	
2025-01-14 02:57:58.67	352.17	15.33	
2025-01-14 02:57:59.90	351.94	15.43	
2025-01-14 02:58:01.13	351.72	15.53	
2025-01-14 02:58:02.37	351.49	15.63	
2025-01-14 02:58:03.60	351.26	15.72	
2025-01-14 02:58:04.83	351.03	15.82	
2025-01-14 02:58:06.08	350.80	15.92	
2025-01-14 02:58:07.31	350.56	16.02	
2025-01-14 02:58:08.56	350.32	16.12	
2025-01-14 02:58:09.80	350.08	16.22	
2025-01-14 02:58:11.02	349.85	16.32	
2025-01-14 02:58:12.26	349.61	16.42	
2025-01-14 02:58:13.48	349.37	16.52	
2025-01-14 02:58:14.72	349.12	16.62	
2025-01-14 02:58:15.96	348.87	16.72	
2025-01-14 02:58:17.19	348.63	16.82	
2025-01-14 02:58:18.42	348.38	16.91	
2025-01-14 02:58:19.65	348.13	17.01	
2025-01-14 02:58:20.88	347.87	17.11	
2025-01-14 02:58:22.11	347.62	17.21	
2025-01-14 02:58:23.34	347.36	17.31	
2025-01-14 02:58:24.58	347.10	17.40	
2025-01-14 02:58:25.82	346.84	17.50	
2025-01-14 02:58:27.06	346.58	17.60	
2025-01-14 02:58:28.29	346.32	17.70	
2025-01-14 02:58:29.52	346.05	17.80	
2025-01-14 02:58:30.75	345.78	17.89	
2025-01-14 02:58:31.98	345.52	17.99	
2025-01-14 02:58:33.21	345.24	18.09	
2025-01-14 02:58:34.44	344.97	18.18	
2025-01-14 02:58:35.68	344.70	18.28	
2025-01-14 02:58:36.91	344.42	18.37	
2025-01-14 02:58:38.14	344.14	18.47	
2025-01-14 02:58:39.37	343.86	18.57	
2025-01-14 02:58:40.60	343.58	18.66	
2025-01-14 02:58:41.83	343.30	18.76	
2025-01-14 02:58:43.06	343.01	18.85	
2025-01-14 02:58:44.30	342.72	18.94	
2025-01-14 02:58:45.53	342.43	19.04	
2025-01-14 02:58:46.76	342.14	19.13	
2025-01-14 02:58:48.00	341.84	19.23	
2025-01-14 02:58:49.23	341.55	19.32	
2025-01-14 02:58:50.46	341.25	19.41	
2025-01-14 02:58:51.69	340.95	19.50	
2025-01-14 02:58:52.92	340.65	19.59	
2025-01-14 02:58:54.16	340.35	19.69	
2025-01-14 02:58:55.38	340.05	19.78	
2025-01-14 02:58:56.62	339.74	19.87	
2025-01-14 02:58:57.85	339.43	19.96	
2025-01-14 02:58:59.08	339.12	20.05	
2025-01-14 02:59:00.31	338.80	20.13	
2025-01-14 02:59:01.54	338.49	20.22	
2025-01-14 02:59:02.77	338.17	20.31	
2025-01-14 02:59:04.00	337.86	20.40	
2025-01-14 02:59:05.23	337.54	20.48	
2025-01-14 02:59:06.46	337.21	20.57	
2025-01-14 02:59:07.69	336.89	20.65	
2025-01-14 02:59:08.95	336.56	20.74	
2025-01-14 02:59:10.18	336.23	20.82	
2025-01-14 02:59:11.41	335.90	20.91	
2025-01-14 02:59:12.64	335.57	20.99	
2025-01-14 02:59:13.87	335.23	21.07	
2025-01-14 02:59:15.10	334.90	21.15	
2025-01-14 02:59:16.33	334.56	21.23	
2025-01-14 02:59:17.56	334.22	21.31	
2025-01-14 02:59:18.79	333.88	21.39	
2025-01-14 02:59:20.03	333.53	21.47	
2025-01-14 02:59:21.27	333.19	21.55	
2025-01-14 02:59:22.50	332.84	21.63	
2025-01-14 02:59:23.72	332.49	21.70	
2025-01-14 02:59:24.95	332.14	21.78	
2025-01-14 02:59:26.18	331.79	21.85	
2025-01-14 02:59:27.41	331.44	21.92	
2025-01-14 02:59:28.64	331.08	22.00	
2025-01-14 02:59:29.88	330.72	22.07	
2025-01-14 02:59:31.11	330.36	22.14	
2025-01-14 02:59:32.34	330.00	22.21	
2025-01-14 02:59:33.57	329.64	22.28	
2025-01-14 02:59:34.80	329.28	22.34	
2025-01-14 02:59:36.03	328.91	22.41	
2025-01-14 02:59:37.26	328.54	22.48	
2025-01-14 02:59:38.49	328.17	22.54	
2025-01-14 02:59:39.72	327.80	22.60	
2025-01-14 02:59:40.95	327.43	22.67	
2025-01-14 02:59:42.18	327.06	22.73	
2025-01-14 02:59:43.43	326.68	22.79	
2025-01-14 02:59:44.68	326.29	22.85	
2025-01-14 02:59:45.90	325.92	22.91	
2025-01-14 02:59:47.14	325.53	22.96	
2025-01-14 02:59:48.37	325.15	23.02	
2025-01-14 02:59:49.61	324.77	23.07	
2025-01-14 02:59:50.85	324.38	23.13	
2025-01-14 02:59:52.08	323.99	23.18	
2025-01-14 02:59:53.31	323.61	23.23	
2025-01-14 02:59:54.54	323.22	23.28	
2025-01-14 02:59:55.77	322.83	23.33	
2025-01-14 02:59:57.02	322.43	23.38	
2025-01-14 02:59:58.24	322.04	23.42	
2025-01-14 02:59:59.48	321.65	23.47	
2025-01-14 03:00:00.71	321.25	23.51	
2025-01-14 03:00:01.93	320.86	23.55	
2025-01-14 03:00:03.16	320.46	23.59	
2025-01-14 03:00:04.40	320.06	23.63	
2025-01-14 03:00:05.63	319.66	23.67	
2025-01-14 03:00:06.86	319.26	23.70	
2025-01-14 03:00:08.09	318.86	23.74	
2025-01-14 03:00:09.32	318.46	23.77	
2025-01-14 03:00:10.55	318.06	23.80	
2025-01-14 03:00:11.78	317.66	23.83	
2025-01-14 03:00:13.01	317.25	23.86	
2025-01-14 03:00:14.24	316.85	23.89	
2025-01-14 03:00:15.47	316.44	23.91	
2025-01-14 03:00:16.71	316.03	23.94	
2025-01-14 03:00:17.96	315.62	23.96	
2025-01-14 03:00:19.21	315.20	23.98	
2025-01-14 03:00:20.43	314.80	24.00	
2025-01-14 03:00:21.66	314.39	24.02	
2025-01-14 03:00:22.89	313.98	24.04	
2025-01-14 03:00:24.13	313.57	24.06	
2025-01-14 03:00:25.36	313.16	24.07	
2025-01-14 03:00:26.59	312.75	24.08	
2025-01-14 03:00:27.82	312.33	24.09	
2025-01-14 03:00:29.07	311.92	24.10	
2025-01-14 03:00:30.31	311.50	24.11	
2025-01-14 03:00:31.55	311.09	24.12	
2025-01-14 03:00:32.79	310.67	24.12	
2025-01-14 03:00:34.03	310.26	24.12	
2025-01-14 03:00:35.26	309.84	24.13	
2025-01-14 03:00:36.49	309.43	24.13	
2025-01-14 03:00:37.72	309.02	24.12	
2025-01-14 03:00:38.97	308.60	24.12	
2025-01-14 03:00:40.21	308.19	24.12	
2025-01-14 03:00:41.44	307.77	24.11	
2025-01-14 03:00:42.68	307.36	24.10	
2025-01-14 03:00:43.91	306.95	24.09	
2025-01-14 03:00:45.14	306.54	24.08	
2025-01-14 03:00:46.39	306.12	24.07	
2025-01-14 03:00:47.63	305.71	24.05	
2025-01-14 03:00:48.85	305.30	24.04	
2025-01-14 03:00:50.08	304.89	24.02	
2025-01-14 03:00:51.31	304.48	24.00	
2025-01-14 03:00:52.56	304.06	23.98	
2025-01-14 03:00:53.79	303.66	23.96	
2025-01-14 03:00:55.02	303.25	23.94	
2025-01-14 03:00:56.25	302.84	23.91	
2025-01-14 03:00:57.49	302.43	23.89	
2025-01-14 03:00:58.73	302.02	23.86	
2025-01-14 03:00:59.96	301.62	23.83	
2025-01-14 03:01:01.19	301.22	23.80	
2025-01-14 03:01:02.42	300.81	23.77	
2025-01-14 03:01:03.66	300.41	23.74	
2025-01-14 03:01:04.89	300.01	23.70	
2025-01-14 03:01:06.13	299.60	23.66	
2025-01-14 03:01:07.36	299.20	23.63	
2025-01-14 03:01:08.60	298.80	23.59	
2025-01-14 03:01:09.83	298.40	23.55	
2025-01-14 03:01:11.06	298.01	23.51	
2025-01-14 03:01:12.29	297.61	23.46	
2025-01-14 03:01:13.52	297.22	23.42	
2025-01-14 03:01:14.75	296.83	23.37	
2025-01-14 03:01:15.99	296.43	23.33	
2025-01-14 03:01:17.22	296.04	23.28	
2025-01-14 03:01:18.45	295.65	23.23	
2025-01-14 03:01:19.68	295.26	23.18	
2025-01-14 03:01:20.91	294.88	23.12	
2025-01-14 03:01:22.14	294.49	23.07	
2025-01-14 03:01:23.37	294.11	23.02	
2025-01-14 03:01:24.60	293.73	22.96	
2025-01-14 03:01:25.83	293.35	22.90	
2025-01-14 03:01:27.05	292.97	22.85	
2025-01-14 03:01:28.28	292.59	22.79	
2025-01-14 03:01:29.51	292.22	22.73	
2025-01-14 03:01:30.75	291.84	22.67	
2025-01-14 03:01:31.99	291.46	22.60	
2025-01-14 03:01:33.22	291.09	22.54	
2025-01-14 03:01:34.45	290.72	22.47	
2025-01-14 03:01:35.68	290.35	22.41	
2025-01-14 03:01:36.91	289.98	22.34	
2025-01-14 03:01:38.14	289.62	22.27	
2025-01-14 03:01:39.38	289.25	22.20	
2025-01-14 03:01:40.61	288.89	22.13	
2025-01-14 03:01:41.85	288.53	22.06	
2025-01-14 03:01:43.08	288.17	21.99	
2025-01-14 03:01:44.31	287.81	21.92	
2025-01-14 03:01:45.54	287.46	21.85	
2025-01-14 03:01:46.77	287.10	21.77	
2025-01-14 03:01:48.00	286.75	21.70	
2025-01-14 03:01:49.23	286.40	21.62	
2025-01-14 03:01:50.46	286.06	21.54	
2025-01-14 03:01:51.71	285.70	21.46	
2025-01-14 03:01:52.94	285.36	21.39	
2025-01-14 03:01:54.17	285.02	21.31	
2025-01-14 03:01:55.41	284.68	21.23	
2025-01-14 03:01:56.64	284.34	21.14	
2025-01-14 03:01:57.87	284.00	21.06	
2025-01-14 03:01:59.10	283.67	20.98	
2025-01-14 03:02:00.33	283.33	20.90	
2025-01-14 03:02:01.57	283.00	20.81	
2025-01-14 03:02:02.80	282.67	20.73	
2025-01-14 03:02:04.06	282.34	20.64	
2025-01-14 03:02:05.31	282.00	20.56	
2025-01-14 03:02:06.53	281.68	20.47	
2025-01-14 03:02:07.76	281.36	20.38	
2025-01-14 03:02:08.99	281.04	20.30	
2025-01-14 03:02:10.24	280.72	20.21	
2025-01-14 03:02:11.47	280.41	20.12	
2025-01-14 03:02:12.70	280.09	20.03	
2025-01-14 03:02:13.93	279.78	19.94	
2025-01-14 03:02:15.16	279.47	19.85	
2025-01-14 03:02:16.39	279.16	19.76	
2025-01-14 03:02:17.62	278.86	19.67	
2025-01-14 03:02:18.85	278.55	19.58	
2025-01-14 03:02:20.08	278.25	19.48	
2025-01-14 03:02:21.31	277.95	19.39	
2025-01-14 03:02:22.54	277.65	19.30	
2025-01-14 03:02:23.77	277.36	19.21	
2025-01-14 03:02:25.00	277.06	19.11	
2025-01-14 03:02:26.22	276.77	19.02	
2025-01-14 03:02:27.46	276.48	18.93	
2025-01-14 03:02:28.70	276.19	18.83	
2025-01-14 03:02:29.92	275.90	18.74	
2025-01-14 03:02:31.17	275.61	18.64	
2025-01-14 03:02:32.40	275.33	18.54	
2025-01-14 03:02:33.65	275.04	18.45	
2025-01-14 03:02:34.88	274.76	18.35	
2025-01-14 03:02:36.11	274.49	18.25	
2025-01-14 03:02:37.34	274.21	18.16	
2025-01-14 03:02:38.57	273.94	18.06	
2025-01-14 03:02:39.81	273.66	17.96	
2025-01-14 03:02:41.05	273.39	17.87	
2025-01-14 03:02:42.28	273.12	17.77	
2025-01-14 03:02:43.51	272.86	17.67	
2025-01-14 03:02:44.74	272.59	17.57	
2025-01-14 03:02:45.97	272.33	17.47	
2025-01-14 03:02:47.21	272.07	17.38	
2025-01-14 03:02:48.44	271.81	17.28	
2025-01-14 03:02:49.67	271.55	17.18	
2025-01-14 03:02:50.91	271.29	17.08	
2025-01-14 03:02:52.13	271.04	16.98	
2025-01-14 03:02:53.36	270.79	16.88	
2025-01-14 03:02:54.60	270.54	16.78	
2025-01-14 03:02:55.83	270.29	16.69	
2025-01-14 03:02:57.07	270.04	16.59	
2025-01-14 03:02:58.30	269.80	16.49	
2025-01-14 03:02:59.53	269.55	16.39	
2025-01-14 03:03:00.76	269.31	16.29	
2025-01-14 03:03:01.99	269.07	16.19	
2025-01-14 03:03:03.23	268.83	16.09	
2025-01-14 03:03:04.46	268.60	15.99	
2025-01-14 03:03:05.69	268.36	15.89	
2025-01-14 03:03:06.92	268.13	15.79	
2025-01-14 03:03:08.15	267.90	15.69	
2025-01-14 03:03:09.38	267.67	15.59	
2025-01-14 03:03:10.61	267.44	15.49	
2025-01-14 03:03:11.84	267.21	15.39	
2025-01-14 03:03:13.07	266.99	15.29	
2025-01-14 03:03:14.30	266.77	15.19	
2025-01-14 03:03:15.53	266.54	15.10	
2025-01-14 03:03:16.76	266.32	15.00	
2025-01-14 03:03:17.99	266.11	14.90	
2025-01-14 03:03:19.23	265.89	14.80	
2025-01-14 03:03:20.46	265.67	14.70	
2025-01-14 03:03:21.69	265.46	14.60	
2025-01-14 03:03:22.92	265.25	14.50	
2025-01-14 03:03:24.15	265.04	14.40	
2025-01-14 03:03:25.38	264.83	14.30	
2025-01-14 03:03:26.61	264.62	14.20	
2025-01-14 03:03:27.84	264.41	14.11	
2025-01-14 03:03:29.09	264.20	14.01	
2025-01-14 03:03:30.32	264.00	13.91	
2025-01-14 03:03:31.55	263.80	13.81	
2025-01-14 03:03:32.79	263.60	13.71	
2025-01-14 03:03:34.04	263.39	13.61	
2025-01-14 03:03:35.27	263.20	13.51	
2025-01-14 03:03:36.50	263.00	13.41	
2025-01-14 03:03:37.72	262.81	13.32	
2025-01-14 03:03:38.96	262.61	13.22	
2025-01-14 03:03:40.19	262.42	13.12	
2025-01-14 03:03:41.42	262.23	13.02	
2025-01-14 03:03:42.65	262.04	12.93	
2025-01-14 03:03:43.88	261.85	12.83	
2025-01-14 03:03:45.13	261.66	12.73	
2025-01-14 03:03:46.36	261.48	12.63	
2025-01-14 03:03:47.58	261.30	12.54	
2025-01-14 03:03:48.82	261.11	12.44	
2025-01-14 03:03:50.05	260.93	12.34	
2025-01-14 03:03:51.28	260.75	12.25	
2025-01-14 03:03:52.50	260.57	12.15	
2025-01-14 03:03:53.74	260.39	12.06	
2025-01-14 03:03:54.97	260.22	11.96	
2025-01-14 03:03:56.20	260.04	11.86	
2025-01-14 03:03:57.43	259.87	11.77	
2025-01-14 03:03:58.66	259.70	11.67	
2025-01-14 03:03:59.89	259.53	11.58	
2025-01-14 03:04:01.12	259.36	11.48	
2025-01-14 03:04:02.35	259.19	11.39	
2025-01-14 03:04:03.58	259.02	11.30	
2025-01-14 03:04:04.81	258.85	11.20	
2025-01-14 03:04:06.04	258.69	11.11	
2025-01-14 03:04:07.28	258.52	11.01	
2025-01-14 03:04:08.51	258.36	10.92	
2025-01-14 03:04:09.75	258.20	10.82	
2025-01-14 03:04:10.98	258.04	10.73	
2025-01-14 03:04:12.23	257.87	10.64	
2025-01-14 03:04:13.46	257.71	10.54	
2025-01-14 03:04:14.70	257.56	10.45	
2025-01-14 03:04:15.94	257.40	10.36	
2025-01-14 03:04:17.17	257.24	10.26	
2025-01-14 03:04:18.40	257.09	10.17	
2025-01-14 03:04:19.63	256.94	10.08	
2025-01-14 03:04:20.86	256.78	9.99	
2025-01-14 03:04:22.09	256.63	9.89	
2025-01-14 03:04:23.32	256.48	9.80	
2025-01-14 03:04:24.56	256.33	9.71	
2025-01-14 03:04:25.80	256.18	9.62	
2025-01-14 03:04:27.03	256.04	9.53	
2025-01-14 03:04:28.26	255.89	9.44	
2025-01-14 03:04:29.50	255.74	9.35	
2025-01-14 03:04:30.73	255.60	9.26	
2025-01-14 03:04:31.97	255.46	9.16	
2025-01-14 03:04:33.20	255.31	9.07	
2025-01-14 03:04:34.43	255.17	8.99	
2025-01-14 03:04:35.66	255.03	8.90	
2025-01-14 03:04:36.90	254.89	8.81	
2025-01-14 03:04:38.13	254.76	8.72	
2025-01-14 03:04:39.37	254.62	8.63	
2025-01-14 03:04:40.60	254.48	8.54	
2025-01-14 03:04:41.83	254.35	8.45	
2025-01-14 03:04:43.06	254.21	8.36	
2025-01-14 03:04:44.29	254.08	8.27	
2025-01-14 03:04:45.52	253.94	8.19	
2025-01-14 03:04:46.75	253.81	8.10	
2025-01-14 03:04:47.98	253.68	8.01	
2025-01-14 03:04:49.21	253.55	7.92	
2025-01-14 03:04:50.46	253.42	7.83	
2025-01-14 03:04:51.69	253.29	7.75	
2025-01-14 03:04:52.92	253.16	7.66	
2025-01-14 03:04:54.15	253.04	7.57	
2025-01-14 03:04:55.39	252.91	7.49	
2025-01-14 03:04:56.62	252.79	7.40	
2025-01-14 03:04:57.86	252.66	7.31	
2025-01-14 03:04:59.10	252.54	7.23	
2025-01-14 03:05:00.34	252.41	7.14	
2025-01-14 03:05:01.57	252.29	7.06	
2025-01-14 03:05:02.80	252.17	6.97	
2025-01-14 03:05:04.03	252.05	6.89	
2025-01-14 03:05:05.26	251.93	6.80	
2025-01-14 03:05:06.49	251.81	6.72	
2025-01-14 03:05:07.72	251.69	6.63	
2025-01-14 03:05:08.95	251.58	6.55	
2025-01-14 03:05:10.18	251.46	6.47	
2025-01-14 03:05:11.41	251.35	6.38	
2025-01-14 03:05:12.64	251.23	6.30	
2025-01-14 03:05:13.87	251.12	6.21	
2025-01-14 03:05:15.10	251.00	6.13	
2025-01-14 03:05:16.33	250.89	6.05	
2025-01-14 03:05:17.56	250.78	5.97	
2025-01-14 03:05:18.79	250.67	5.88	
2025-01-14 03:05:20.02	250.56	5.80	
2025-01-14 03:05:21.25	250.45	5.72	
2025-01-14 03:05:22.48	250.34	5.64	
2025-01-14 03:05:23.73	250.23	5.55	
2025-01-14 03:05:24.95	250.12	5.47	
2025-01-14 03:05:26.19	250.01	5.39	
2025-01-14 03:05:27.42	249.91	5.31	
2025-01-14 03:05:28.65	249.80	5.23	
2025-01-14 03:05:29.88	249.69	5.15	
2025-01-14 03:05:31.11	249.59	5.07	
2025-01-14 03:05:32.34	249.49	4.99	
2025-01-14 03:05:33.57	249.38	4.91	
2025-01-14 03:05:34.80	249.28	4.83	
2025-01-14 03:05:36.03	249.18	4.75	
2025-01-14 03:05:37.26	249.08	4.67	
2025-01-14 03:05:38.49	248.98	4.59	
2025-01-14 03:05:39.72	248.88	4.51	
2025-01-14 03:05:40.95	248.78	4.43	
2025-01-14 03:05:42.18	248.68	4.35	
2025-01-14 03:05:43.43	248.58	4.27	
2025-01-14 03:05:44.67	248.48	4.19	
2025-01-14 03:05:45.90	248.38	4.11	
2025-01-14 03:05:47.13	248.29	4.03	

#Closed at: 2025-01-14 03:05:47