passes_logs/2025/01/14/SPB_Silybum_02/SPB_Silybum_02__20250114_035231_SUOMI_NPP_rec.log

#Pass ID: 20250114_035231_SUOMI NPP
#Satellite: SUOMI NPP
#Configuration: NPP
#Start time: 2025-01-14 03:52:29

#Version: 2.0.20230423
#Station: SPB_Silybum_02
#Location: 30.233357 lon 59.946436 lat
#TLE: 1 37849U 11061A   25013.15774042  .00000145  00000+0  89802-4 0  9991
#TLE: 2 37849  98.7444 314.1696 0001761  43.7896 316.3420 14.19537310684653

#Time	Az	El	Level	Level2	SNR	BER	Gain	Gain2
2025-01-14 03:52:31.85	15.85	4.02	
2025-01-14 03:52:32.67	15.76	4.05	
2025-01-14 03:52:33.49	15.66	4.09	
2025-01-14 03:52:34.30	15.57	4.12	
2025-01-14 03:52:35.13	15.47	4.16	
2025-01-14 03:52:35.95	15.38	4.19	
2025-01-14 03:52:36.77	15.28	4.22	
2025-01-14 03:52:37.59	15.18	4.26	
2025-01-14 03:52:38.41	15.09	4.29	
2025-01-14 03:52:39.23	14.99	4.33	
2025-01-14 03:52:40.05	14.89	4.36	
2025-01-14 03:52:40.87	14.80	4.39	
2025-01-14 03:52:41.69	14.70	4.43	
2025-01-14 03:52:42.52	14.60	4.46	
2025-01-14 03:52:43.35	14.50	4.50	
2025-01-14 03:52:44.17	14.40	4.53	
2025-01-14 03:52:44.99	14.31	4.56	
2025-01-14 03:52:45.81	14.21	4.60	
2025-01-14 03:52:46.63	14.11	4.63	
2025-01-14 03:52:47.45	14.01	4.67	
2025-01-14 03:52:48.27	13.91	4.70	
2025-01-14 03:52:49.09	13.81	4.73	
2025-01-14 03:52:49.91	13.71	4.77	
2025-01-14 03:52:50.73	13.61	4.80	
2025-01-14 03:52:51.55	13.51	4.83	
2025-01-14 03:52:52.37	13.41	4.87	
2025-01-14 03:52:53.19	13.31	4.90	
2025-01-14 03:52:54.00	13.21	4.93	
2025-01-14 03:52:54.82	13.11	4.97	
2025-01-14 03:52:55.64	13.01	5.00	
2025-01-14 03:52:56.47	12.90	5.03	
2025-01-14 03:52:57.30	12.80	5.07	
2025-01-14 03:52:58.12	12.70	5.10	
2025-01-14 03:52:58.94	12.60	5.13	
2025-01-14 03:52:59.76	12.49	5.17	
2025-01-14 03:53:00.58	12.39	5.20	
2025-01-14 03:53:01.40	12.29	5.23	
2025-01-14 03:53:02.21	12.19	5.26	
2025-01-14 03:53:03.04	12.08	5.30	
2025-01-14 03:53:03.86	11.98	5.33	
2025-01-14 03:53:04.69	11.87	5.36	
2025-01-14 03:53:05.51	11.77	5.40	
2025-01-14 03:53:06.34	11.66	5.43	
2025-01-14 03:53:07.16	11.56	5.46	
2025-01-14 03:53:07.98	11.45	5.50	
2025-01-14 03:53:08.80	11.35	5.53	
2025-01-14 03:53:09.62	11.24	5.56	
2025-01-14 03:53:10.44	11.14	5.59	
2025-01-14 03:53:11.26	11.03	5.63	
2025-01-14 03:53:12.08	10.92	5.66	
2025-01-14 03:53:12.90	10.82	5.69	
2025-01-14 03:53:13.72	10.71	5.72	
2025-01-14 03:53:14.55	10.60	5.75	
2025-01-14 03:53:15.36	10.50	5.79	
2025-01-14 03:53:16.18	10.39	5.82	
2025-01-14 03:53:17.00	10.28	5.85	
2025-01-14 03:53:17.82	10.17	5.88	
2025-01-14 03:53:18.66	10.06	5.92	
2025-01-14 03:53:19.49	9.95	5.95	
2025-01-14 03:53:20.31	9.84	5.98	
2025-01-14 03:53:21.13	9.73	6.01	
2025-01-14 03:53:21.95	9.63	6.04	
2025-01-14 03:53:22.77	9.52	6.07	
2025-01-14 03:53:23.59	9.41	6.11	
2025-01-14 03:53:24.41	9.30	6.14	
2025-01-14 03:53:25.23	9.19	6.17	
2025-01-14 03:53:26.06	9.07	6.20	
2025-01-14 03:53:26.89	8.96	6.23	
2025-01-14 03:53:27.71	8.85	6.26	
2025-01-14 03:53:28.53	8.74	6.29	
2025-01-14 03:53:29.37	8.63	6.33	
2025-01-14 03:53:30.19	8.52	6.36	
2025-01-14 03:53:31.00	8.40	6.39	
2025-01-14 03:53:31.83	8.29	6.42	
2025-01-14 03:53:32.65	8.18	6.45	
2025-01-14 03:53:33.47	8.07	6.48	
2025-01-14 03:53:34.28	7.96	6.51	
2025-01-14 03:53:35.11	7.84	6.54	
2025-01-14 03:53:35.94	7.73	6.57	
2025-01-14 03:53:36.77	7.61	6.60	
2025-01-14 03:53:37.58	7.50	6.63	
2025-01-14 03:53:38.40	7.38	6.66	
2025-01-14 03:53:39.23	7.27	6.70	
2025-01-14 03:53:40.05	7.15	6.73	
2025-01-14 03:53:40.87	7.04	6.76	
2025-01-14 03:53:41.69	6.92	6.79	
2025-01-14 03:53:42.51	6.81	6.82	
2025-01-14 03:53:43.33	6.69	6.85	
2025-01-14 03:53:44.15	6.58	6.88	
2025-01-14 03:53:44.97	6.46	6.91	
2025-01-14 03:53:45.79	6.35	6.94	
2025-01-14 03:53:46.61	6.23	6.97	
2025-01-14 03:53:47.43	6.11	6.99	
2025-01-14 03:53:48.25	6.00	7.02	
2025-01-14 03:53:49.07	5.88	7.05	
2025-01-14 03:53:49.90	5.76	7.08	
2025-01-14 03:53:50.71	5.64	7.11	
2025-01-14 03:53:51.55	5.52	7.14	
2025-01-14 03:53:52.37	5.40	7.17	
2025-01-14 03:53:53.20	5.28	7.20	
2025-01-14 03:53:54.02	5.17	7.23	
2025-01-14 03:53:54.84	5.05	7.26	
2025-01-14 03:53:55.66	4.93	7.29	
2025-01-14 03:53:56.48	4.81	7.32	
2025-01-14 03:53:57.30	4.69	7.34	
2025-01-14 03:53:58.12	4.57	7.37	
2025-01-14 03:53:58.95	4.45	7.40	
2025-01-14 03:53:59.77	4.33	7.43	
2025-01-14 03:54:00.59	4.21	7.46	
2025-01-14 03:54:01.40	4.09	7.49	
2025-01-14 03:54:02.24	3.96	7.51	
2025-01-14 03:54:03.06	3.84	7.54	
2025-01-14 03:54:03.88	3.72	7.57	
2025-01-14 03:54:04.71	3.60	7.60	
2025-01-14 03:54:05.53	3.48	7.63	
2025-01-14 03:54:06.35	3.35	7.65	
2025-01-14 03:54:07.17	3.23	7.68	
2025-01-14 03:54:07.99	3.11	7.71	
2025-01-14 03:54:08.81	2.99	7.74	
2025-01-14 03:54:09.63	2.86	7.76	
2025-01-14 03:54:10.45	2.74	7.79	
2025-01-14 03:54:11.27	2.62	7.82	
2025-01-14 03:54:12.09	2.49	7.84	
2025-01-14 03:54:12.91	2.37	7.87	
2025-01-14 03:54:13.73	2.24	7.90	
2025-01-14 03:54:14.56	2.12	7.92	
2025-01-14 03:54:15.37	1.99	7.95	
2025-01-14 03:54:16.20	1.87	7.98	
2025-01-14 03:54:17.01	1.74	8.00	
2025-01-14 03:54:17.84	1.62	8.03	
2025-01-14 03:54:18.66	1.49	8.06	
2025-01-14 03:54:19.48	1.36	8.08	
2025-01-14 03:54:20.30	1.24	8.11	
2025-01-14 03:54:21.12	1.11	8.13	
2025-01-14 03:54:21.95	0.98	8.16	
2025-01-14 03:54:22.76	0.86	8.19	
2025-01-14 03:54:23.58	0.73	8.21	
2025-01-14 03:54:24.42	0.60	8.24	
2025-01-14 03:54:25.24	0.47	8.26	
2025-01-14 03:54:26.06	0.35	8.29	
2025-01-14 03:54:26.87	0.22	8.31	
2025-01-14 03:54:27.69	0.09	8.34	
2025-01-14 03:54:28.52	359.96	8.36	
2025-01-14 03:54:29.34	359.83	8.39	
2025-01-14 03:54:30.16	359.70	8.41	
2025-01-14 03:54:30.98	359.57	8.44	
2025-01-14 03:54:31.80	359.44	8.46	
2025-01-14 03:54:32.62	359.31	8.48	
2025-01-14 03:54:33.44	359.18	8.51	
2025-01-14 03:54:34.28	359.05	8.53	
2025-01-14 03:54:35.10	358.92	8.56	
2025-01-14 03:54:35.92	358.79	8.58	
2025-01-14 03:54:36.74	358.66	8.60	
2025-01-14 03:54:37.56	358.53	8.63	
2025-01-14 03:54:38.39	358.40	8.65	
2025-01-14 03:54:39.21	358.27	8.68	
2025-01-14 03:54:40.04	358.13	8.70	
2025-01-14 03:54:40.87	358.00	8.72	
2025-01-14 03:54:41.69	357.87	8.74	
2025-01-14 03:54:42.51	357.73	8.77	
2025-01-14 03:54:43.33	357.60	8.79	
2025-01-14 03:54:44.15	357.47	8.81	
2025-01-14 03:54:44.99	357.33	8.84	
2025-01-14 03:54:45.81	357.20	8.86	
2025-01-14 03:54:46.63	357.07	8.88	
2025-01-14 03:54:47.45	356.93	8.90	
2025-01-14 03:54:48.27	356.80	8.92	
2025-01-14 03:54:49.09	356.67	8.95	
2025-01-14 03:54:49.91	356.53	8.97	
2025-01-14 03:54:50.75	356.40	8.99	
2025-01-14 03:54:51.58	356.26	9.01	
2025-01-14 03:54:52.40	356.12	9.03	
2025-01-14 03:54:53.22	355.99	9.05	
2025-01-14 03:54:54.04	355.85	9.07	
2025-01-14 03:54:54.86	355.72	9.10	
2025-01-14 03:54:55.69	355.58	9.12	
2025-01-14 03:54:56.51	355.45	9.14	
2025-01-14 03:54:57.33	355.31	9.16	
2025-01-14 03:54:58.15	355.17	9.18	
2025-01-14 03:54:58.98	355.04	9.20	
2025-01-14 03:54:59.79	354.90	9.22	
2025-01-14 03:55:00.61	354.77	9.24	
2025-01-14 03:55:01.45	354.63	9.26	
2025-01-14 03:55:02.27	354.49	9.28	
2025-01-14 03:55:03.09	354.35	9.30	
2025-01-14 03:55:03.91	354.21	9.32	
2025-01-14 03:55:04.73	354.08	9.34	
2025-01-14 03:55:05.56	353.94	9.35	
2025-01-14 03:55:06.38	353.80	9.37	
2025-01-14 03:55:07.20	353.66	9.39	
2025-01-14 03:55:08.02	353.52	9.41	
2025-01-14 03:55:08.84	353.38	9.43	
2025-01-14 03:55:09.66	353.25	9.45	
2025-01-14 03:55:10.48	353.11	9.47	
2025-01-14 03:55:11.30	352.97	9.48	
2025-01-14 03:55:12.12	352.83	9.50	
2025-01-14 03:55:12.94	352.69	9.52	
2025-01-14 03:55:13.77	352.55	9.54	
2025-01-14 03:55:14.59	352.41	9.55	
2025-01-14 03:55:15.41	352.27	9.57	
2025-01-14 03:55:16.23	352.13	9.59	
2025-01-14 03:55:17.05	351.99	9.61	
2025-01-14 03:55:17.87	351.85	9.62	
2025-01-14 03:55:18.69	351.71	9.64	
2025-01-14 03:55:19.52	351.56	9.66	
2025-01-14 03:55:20.34	351.42	9.67	
2025-01-14 03:55:21.16	351.28	9.69	
2025-01-14 03:55:21.98	351.14	9.70	
2025-01-14 03:55:22.80	351.00	9.72	
2025-01-14 03:55:23.62	350.86	9.74	
2025-01-14 03:55:24.44	350.72	9.75	
2025-01-14 03:55:25.27	350.57	9.77	
2025-01-14 03:55:26.09	350.43	9.78	
2025-01-14 03:55:26.91	350.29	9.80	
2025-01-14 03:55:27.73	350.15	9.81	
2025-01-14 03:55:28.55	350.01	9.83	
2025-01-14 03:55:29.37	349.86	9.84	
2025-01-14 03:55:30.19	349.72	9.86	
2025-01-14 03:55:31.01	349.58	9.87	
2025-01-14 03:55:31.83	349.43	9.88	
2025-01-14 03:55:32.65	349.29	9.90	
2025-01-14 03:55:33.47	349.15	9.91	
2025-01-14 03:55:34.31	349.00	9.93	
2025-01-14 03:55:35.14	348.86	9.94	
2025-01-14 03:55:35.96	348.71	9.95	
2025-01-14 03:55:36.78	348.57	9.97	
2025-01-14 03:55:37.61	348.42	9.98	
2025-01-14 03:55:38.43	348.28	9.99	
2025-01-14 03:55:39.26	348.13	10.00	
2025-01-14 03:55:40.08	347.99	10.02	
2025-01-14 03:55:40.90	347.84	10.03	
2025-01-14 03:55:41.72	347.70	10.04	
2025-01-14 03:55:42.54	347.56	10.05	
2025-01-14 03:55:43.36	347.41	10.07	
2025-01-14 03:55:44.18	347.27	10.08	
2025-01-14 03:55:45.01	347.12	10.09	
2025-01-14 03:55:45.82	346.98	10.10	
2025-01-14 03:55:46.64	346.83	10.11	
2025-01-14 03:55:47.46	346.68	10.12	
2025-01-14 03:55:48.29	346.54	10.13	
2025-01-14 03:55:49.11	346.39	10.14	
2025-01-14 03:55:49.93	346.25	10.15	
2025-01-14 03:55:50.75	346.10	10.16	
2025-01-14 03:55:51.57	345.95	10.17	
2025-01-14 03:55:52.39	345.81	10.18	
2025-01-14 03:55:53.21	345.66	10.19	
2025-01-14 03:55:54.04	345.51	10.20	
2025-01-14 03:55:54.86	345.37	10.21	
2025-01-14 03:55:55.68	345.22	10.22	
2025-01-14 03:55:56.50	345.08	10.23	
2025-01-14 03:55:57.32	344.93	10.24	
2025-01-14 03:55:58.14	344.78	10.25	
2025-01-14 03:55:58.96	344.64	10.26	
2025-01-14 03:55:59.78	344.49	10.26	
2025-01-14 03:56:00.61	344.34	10.27	
2025-01-14 03:56:01.43	344.19	10.28	
2025-01-14 03:56:02.25	344.05	10.29	
2025-01-14 03:56:03.07	343.90	10.30	
2025-01-14 03:56:03.89	343.75	10.30	
2025-01-14 03:56:04.71	343.60	10.31	
2025-01-14 03:56:05.53	343.46	10.32	
2025-01-14 03:56:06.35	343.31	10.32	
2025-01-14 03:56:07.17	343.16	10.33	
2025-01-14 03:56:07.99	343.01	10.34	
2025-01-14 03:56:08.82	342.86	10.34	
2025-01-14 03:56:09.65	342.72	10.35	
2025-01-14 03:56:10.47	342.57	10.36	
2025-01-14 03:56:11.31	342.42	10.36	
2025-01-14 03:56:12.13	342.27	10.37	
2025-01-14 03:56:12.95	342.12	10.37	
2025-01-14 03:56:13.77	341.97	10.38	
2025-01-14 03:56:14.60	341.82	10.38	
2025-01-14 03:56:15.42	341.67	10.39	
2025-01-14 03:56:16.24	341.53	10.39	
2025-01-14 03:56:17.06	341.38	10.40	
2025-01-14 03:56:17.88	341.23	10.40	
2025-01-14 03:56:18.69	341.08	10.40	
2025-01-14 03:56:19.51	340.93	10.41	
2025-01-14 03:56:20.33	340.79	10.41	
2025-01-14 03:56:21.15	340.64	10.42	
2025-01-14 03:56:21.97	340.49	10.42	
2025-01-14 03:56:22.79	340.34	10.42	
2025-01-14 03:56:23.62	340.19	10.43	
2025-01-14 03:56:24.43	340.04	10.43	
2025-01-14 03:56:25.25	339.90	10.43	
2025-01-14 03:56:26.08	339.74	10.43	
2025-01-14 03:56:26.90	339.60	10.44	
2025-01-14 03:56:27.73	339.45	10.44	
2025-01-14 03:56:28.55	339.30	10.44	
2025-01-14 03:56:29.37	339.15	10.44	
2025-01-14 03:56:30.19	339.00	10.44	
2025-01-14 03:56:31.01	338.85	10.44	
2025-01-14 03:56:31.83	338.70	10.44	
2025-01-14 03:56:32.65	338.55	10.45	
2025-01-14 03:56:33.47	338.40	10.45	
2025-01-14 03:56:34.29	338.26	10.45	
2025-01-14 03:56:35.12	338.11	10.45	
2025-01-14 03:56:35.94	337.96	10.45	
2025-01-14 03:56:36.75	337.81	10.45	
2025-01-14 03:56:37.58	337.66	10.45	
2025-01-14 03:56:38.41	337.51	10.45	
2025-01-14 03:56:39.23	337.36	10.45	
2025-01-14 03:56:40.05	337.21	10.45	
2025-01-14 03:56:40.87	337.06	10.44	
2025-01-14 03:56:41.69	336.91	10.44	
2025-01-14 03:56:42.51	336.76	10.44	
2025-01-14 03:56:43.33	336.62	10.44	
2025-01-14 03:56:44.15	336.47	10.44	
2025-01-14 03:56:44.97	336.32	10.44	
2025-01-14 03:56:45.80	336.17	10.43	
2025-01-14 03:56:46.62	336.02	10.43	
2025-01-14 03:56:47.44	335.87	10.43	
2025-01-14 03:56:48.26	335.72	10.43	
2025-01-14 03:56:49.08	335.57	10.42	
2025-01-14 03:56:49.90	335.43	10.42	
2025-01-14 03:56:50.72	335.28	10.42	
2025-01-14 03:56:51.54	335.13	10.42	
2025-01-14 03:56:52.36	334.98	10.41	
2025-01-14 03:56:53.18	334.83	10.41	
2025-01-14 03:56:54.00	334.68	10.40	
2025-01-14 03:56:54.82	334.53	10.40	
2025-01-14 03:56:55.64	334.39	10.40	
2025-01-14 03:56:56.47	334.24	10.39	
2025-01-14 03:56:57.30	334.09	10.39	
2025-01-14 03:56:58.12	333.94	10.38	
2025-01-14 03:56:58.94	333.79	10.38	
2025-01-14 03:56:59.76	333.64	10.37	
2025-01-14 03:57:00.58	333.49	10.37	
2025-01-14 03:57:01.40	333.35	10.36	
2025-01-14 03:57:02.22	333.20	10.35	
2025-01-14 03:57:03.04	333.05	10.35	
2025-01-14 03:57:03.86	332.90	10.34	
2025-01-14 03:57:04.68	332.75	10.34	
2025-01-14 03:57:05.50	332.61	10.33	
2025-01-14 03:57:06.32	332.46	10.32	
2025-01-14 03:57:07.14	332.31	10.32	
2025-01-14 03:57:07.97	332.16	10.31	
2025-01-14 03:57:08.80	332.01	10.30	
2025-01-14 03:57:09.62	331.87	10.29	
2025-01-14 03:57:10.44	331.72	10.29	
2025-01-14 03:57:11.27	331.57	10.28	
2025-01-14 03:57:12.09	331.42	10.27	
2025-01-14 03:57:12.91	331.28	10.26	
2025-01-14 03:57:13.75	331.13	10.25	
2025-01-14 03:57:14.57	330.98	10.25	
2025-01-14 03:57:15.39	330.83	10.24	
2025-01-14 03:57:16.21	330.69	10.23	
2025-01-14 03:57:17.03	330.54	10.22	
2025-01-14 03:57:17.85	330.39	10.21	
2025-01-14 03:57:18.67	330.25	10.20	
2025-01-14 03:57:19.49	330.10	10.19	
2025-01-14 03:57:20.31	329.95	10.18	
2025-01-14 03:57:21.13	329.81	10.17	
2025-01-14 03:57:21.95	329.66	10.16	
2025-01-14 03:57:22.77	329.52	10.15	
2025-01-14 03:57:23.59	329.37	10.14	
2025-01-14 03:57:24.41	329.22	10.13	
2025-01-14 03:57:25.23	329.08	10.12	
2025-01-14 03:57:26.05	328.93	10.11	
2025-01-14 03:57:26.87	328.79	10.10	
2025-01-14 03:57:27.71	328.64	10.09	
2025-01-14 03:57:28.54	328.49	10.08	
2025-01-14 03:57:29.36	328.35	10.06	
2025-01-14 03:57:30.17	328.20	10.05	
2025-01-14 03:57:31.00	328.06	10.04	
2025-01-14 03:57:31.83	327.91	10.03	
2025-01-14 03:57:32.65	327.77	10.02	
2025-01-14 03:57:33.48	327.62	10.00	
2025-01-14 03:57:34.31	327.48	9.99	
2025-01-14 03:57:35.13	327.33	9.98	
2025-01-14 03:57:35.94	327.19	9.96	
2025-01-14 03:57:36.76	327.05	9.95	
2025-01-14 03:57:37.58	326.90	9.94	
2025-01-14 03:57:38.41	326.76	9.92	
2025-01-14 03:57:39.23	326.61	9.91	
2025-01-14 03:57:40.06	326.47	9.90	
2025-01-14 03:57:40.88	326.32	9.88	
2025-01-14 03:57:41.70	326.18	9.87	
2025-01-14 03:57:42.52	326.04	9.85	
2025-01-14 03:57:43.34	325.90	9.84	
2025-01-14 03:57:44.17	325.75	9.83	
2025-01-14 03:57:45.00	325.61	9.81	
2025-01-14 03:57:45.82	325.46	9.80	
2025-01-14 03:57:46.64	325.32	9.78	
2025-01-14 03:57:47.46	325.18	9.76	
2025-01-14 03:57:48.28	325.04	9.75	
2025-01-14 03:57:49.10	324.90	9.73	
2025-01-14 03:57:49.92	324.76	9.72	
2025-01-14 03:57:50.74	324.61	9.70	
2025-01-14 03:57:51.56	324.47	9.69	
2025-01-14 03:57:52.38	324.33	9.67	
2025-01-14 03:57:53.20	324.19	9.65	
2025-01-14 03:57:54.02	324.05	9.64	
2025-01-14 03:57:54.84	323.91	9.62	
2025-01-14 03:57:55.66	323.77	9.60	
2025-01-14 03:57:56.48	323.63	9.59	
2025-01-14 03:57:57.30	323.49	9.57	
2025-01-14 03:57:58.12	323.35	9.55	
2025-01-14 03:57:58.95	323.21	9.53	
2025-01-14 03:57:59.77	323.07	9.52	
2025-01-14 03:58:00.59	322.93	9.50	
2025-01-14 03:58:01.41	322.79	9.48	
2025-01-14 03:58:02.24	322.65	9.46	
2025-01-14 03:58:03.07	322.51	9.44	
2025-01-14 03:58:03.90	322.37	9.43	
2025-01-14 03:58:04.73	322.23	9.41	
2025-01-14 03:58:05.55	322.09	9.39	
2025-01-14 03:58:06.37	321.95	9.37	
2025-01-14 03:58:07.18	321.81	9.35	
2025-01-14 03:58:08.00	321.68	9.33	
2025-01-14 03:58:08.82	321.54	9.31	
2025-01-14 03:58:09.64	321.40	9.29	
2025-01-14 03:58:10.47	321.26	9.27	
2025-01-14 03:58:11.29	321.12	9.25	
2025-01-14 03:58:12.11	320.99	9.23	
2025-01-14 03:58:12.93	320.85	9.22	
2025-01-14 03:58:13.75	320.71	9.20	
2025-01-14 03:58:14.57	320.58	9.17	
2025-01-14 03:58:15.39	320.44	9.15	
2025-01-14 03:58:16.21	320.31	9.13	
2025-01-14 03:58:17.03	320.17	9.11	
2025-01-14 03:58:17.85	320.03	9.09	
2025-01-14 03:58:18.68	319.90	9.07	
2025-01-14 03:58:19.50	319.76	9.05	
2025-01-14 03:58:20.32	319.63	9.03	
2025-01-14 03:58:21.14	319.49	9.01	
2025-01-14 03:58:21.96	319.36	8.99	
2025-01-14 03:58:22.78	319.22	8.97	
2025-01-14 03:58:23.61	319.09	8.94	
2025-01-14 03:58:24.43	318.95	8.92	
2025-01-14 03:58:25.25	318.82	8.90	
2025-01-14 03:58:26.07	318.69	8.88	
2025-01-14 03:58:26.89	318.55	8.86	
2025-01-14 03:58:27.71	318.42	8.83	
2025-01-14 03:58:28.53	318.29	8.81	
2025-01-14 03:58:29.37	318.15	8.79	
2025-01-14 03:58:30.19	318.02	8.76	
2025-01-14 03:58:31.01	317.88	8.74	
2025-01-14 03:58:31.83	317.75	8.72	
2025-01-14 03:58:32.65	317.62	8.70	
2025-01-14 03:58:33.47	317.49	8.67	
2025-01-14 03:58:34.29	317.36	8.65	
2025-01-14 03:58:35.11	317.23	8.63	
2025-01-14 03:58:35.93	317.10	8.60	
2025-01-14 03:58:36.75	316.96	8.58	
2025-01-14 03:58:37.57	316.83	8.56	
2025-01-14 03:58:38.40	316.70	8.53	
2025-01-14 03:58:39.22	316.57	8.51	
2025-01-14 03:58:40.03	316.44	8.48	
2025-01-14 03:58:40.85	316.31	8.46	
2025-01-14 03:58:41.67	316.18	8.43	
2025-01-14 03:58:42.50	316.05	8.41	
2025-01-14 03:58:43.31	315.93	8.39	
2025-01-14 03:58:44.14	315.79	8.36	
2025-01-14 03:58:44.97	315.66	8.34	
2025-01-14 03:58:45.79	315.54	8.31	
2025-01-14 03:58:46.61	315.41	8.29	
2025-01-14 03:58:47.45	315.28	8.26	
2025-01-14 03:58:48.27	315.15	8.23	
2025-01-14 03:58:49.09	315.02	8.21	
2025-01-14 03:58:49.91	314.89	8.18	
2025-01-14 03:58:50.73	314.77	8.16	
2025-01-14 03:58:51.55	314.64	8.13	
2025-01-14 03:58:52.37	314.51	8.11	
2025-01-14 03:58:53.19	314.39	8.08	
2025-01-14 03:58:54.00	314.26	8.05	
2025-01-14 03:58:54.83	314.13	8.03	
2025-01-14 03:58:55.65	314.01	8.00	
2025-01-14 03:58:56.47	313.88	7.98	
2025-01-14 03:58:57.29	313.76	7.95	
2025-01-14 03:58:58.11	313.63	7.92	
2025-01-14 03:58:58.93	313.51	7.90	
2025-01-14 03:58:59.75	313.38	7.87	
2025-01-14 03:59:00.56	313.26	7.84	
2025-01-14 03:59:01.38	313.14	7.82	
2025-01-14 03:59:02.20	313.01	7.79	
2025-01-14 03:59:03.04	312.89	7.76	
2025-01-14 03:59:03.86	312.76	7.73	
2025-01-14 03:59:04.68	312.64	7.71	
2025-01-14 03:59:05.50	312.52	7.68	
2025-01-14 03:59:06.32	312.39	7.65	
2025-01-14 03:59:07.14	312.27	7.62	
2025-01-14 03:59:07.97	312.15	7.60	
2025-01-14 03:59:08.79	312.03	7.57	
2025-01-14 03:59:09.61	311.90	7.54	
2025-01-14 03:59:10.43	311.78	7.51	
2025-01-14 03:59:11.25	311.66	7.48	
2025-01-14 03:59:12.07	311.54	7.46	
2025-01-14 03:59:12.91	311.42	7.43	
2025-01-14 03:59:13.73	311.30	7.40	
2025-01-14 03:59:14.55	311.18	7.37	
2025-01-14 03:59:15.38	311.05	7.34	
2025-01-14 03:59:16.22	310.93	7.31	
2025-01-14 03:59:17.04	310.81	7.28	
2025-01-14 03:59:17.86	310.69	7.25	
2025-01-14 03:59:18.68	310.57	7.23	
2025-01-14 03:59:19.50	310.45	7.20	
2025-01-14 03:59:20.32	310.34	7.17	
2025-01-14 03:59:21.14	310.22	7.14	
2025-01-14 03:59:21.96	310.10	7.11	
2025-01-14 03:59:22.78	309.98	7.08	
2025-01-14 03:59:23.61	309.86	7.05	
2025-01-14 03:59:24.43	309.75	7.02	
2025-01-14 03:59:25.25	309.63	6.99	
2025-01-14 03:59:26.07	309.51	6.96	
2025-01-14 03:59:26.89	309.39	6.93	
2025-01-14 03:59:27.71	309.28	6.90	
2025-01-14 03:59:28.54	309.16	6.87	
2025-01-14 03:59:29.35	309.05	6.84	
2025-01-14 03:59:30.17	308.93	6.81	
2025-01-14 03:59:30.98	308.82	6.78	
2025-01-14 03:59:31.80	308.70	6.75	
2025-01-14 03:59:32.63	308.58	6.72	
2025-01-14 03:59:33.46	308.47	6.69	
2025-01-14 03:59:34.27	308.36	6.66	
2025-01-14 03:59:35.10	308.24	6.63	
2025-01-14 03:59:35.92	308.13	6.60	
2025-01-14 03:59:36.74	308.01	6.57	
2025-01-14 03:59:37.56	307.90	6.54	
2025-01-14 03:59:38.38	307.78	6.51	
2025-01-14 03:59:39.20	307.67	6.48	
2025-01-14 03:59:40.02	307.56	6.45	
2025-01-14 03:59:40.84	307.45	6.42	
2025-01-14 03:59:41.66	307.33	6.38	
2025-01-14 03:59:42.48	307.22	6.35	
2025-01-14 03:59:43.30	307.11	6.32	
2025-01-14 03:59:44.12	307.00	6.29	
2025-01-14 03:59:44.94	306.89	6.26	
2025-01-14 03:59:45.76	306.78	6.23	
2025-01-14 03:59:46.58	306.67	6.20	
2025-01-14 03:59:47.40	306.55	6.17	
2025-01-14 03:59:48.22	306.44	6.14	
2025-01-14 03:59:49.04	306.33	6.10	
2025-01-14 03:59:49.86	306.22	6.07	
2025-01-14 03:59:50.68	306.11	6.04	
2025-01-14 03:59:51.51	306.00	6.01	
2025-01-14 03:59:52.33	305.89	5.98	
2025-01-14 03:59:53.15	305.79	5.94	
2025-01-14 03:59:53.97	305.68	5.91	
2025-01-14 03:59:54.79	305.57	5.88	
2025-01-14 03:59:55.61	305.46	5.85	
2025-01-14 03:59:56.43	305.35	5.82	
2025-01-14 03:59:57.25	305.24	5.78	
2025-01-14 03:59:58.09	305.13	5.75	
2025-01-14 03:59:58.92	305.03	5.72	
2025-01-14 03:59:59.74	304.92	5.69	
2025-01-14 04:00:00.56	304.81	5.65	
2025-01-14 04:00:01.38	304.71	5.62	
2025-01-14 04:00:02.20	304.60	5.59	
2025-01-14 04:00:03.01	304.49	5.56	
2025-01-14 04:00:03.83	304.39	5.53	
2025-01-14 04:00:04.66	304.28	5.49	
2025-01-14 04:00:05.48	304.18	5.46	
2025-01-14 04:00:06.30	304.07	5.43	
2025-01-14 04:00:07.12	303.97	5.39	
2025-01-14 04:00:07.94	303.86	5.36	
2025-01-14 04:00:08.76	303.76	5.33	
2025-01-14 04:00:09.58	303.65	5.30	
2025-01-14 04:00:10.40	303.55	5.26	
2025-01-14 04:00:11.22	303.45	5.23	
2025-01-14 04:00:12.04	303.34	5.20	
2025-01-14 04:00:12.87	303.24	5.16	
2025-01-14 04:00:13.69	303.14	5.13	
2025-01-14 04:00:14.52	303.03	5.10	
2025-01-14 04:00:15.35	302.93	5.06	
2025-01-14 04:00:16.18	302.82	5.03	
2025-01-14 04:00:17.02	302.72	5.00	
2025-01-14 04:00:17.84	302.62	4.96	
2025-01-14 04:00:18.65	302.52	4.93	
2025-01-14 04:00:19.48	302.42	4.90	
2025-01-14 04:00:20.30	302.31	4.86	
2025-01-14 04:00:21.12	302.21	4.83	
2025-01-14 04:00:21.94	302.11	4.79	
2025-01-14 04:00:22.76	302.01	4.76	
2025-01-14 04:00:23.58	301.91	4.73	
2025-01-14 04:00:24.40	301.81	4.69	
2025-01-14 04:00:25.22	301.71	4.66	
2025-01-14 04:00:26.04	301.61	4.63	
2025-01-14 04:00:26.86	301.52	4.59	
2025-01-14 04:00:27.68	301.42	4.56	
2025-01-14 04:00:28.50	301.32	4.53	
2025-01-14 04:00:29.32	301.22	4.49	
2025-01-14 04:00:30.14	301.12	4.46	
2025-01-14 04:00:30.96	301.02	4.42	
2025-01-14 04:00:31.78	300.93	4.39	
2025-01-14 04:00:32.60	300.83	4.36	
2025-01-14 04:00:33.42	300.73	4.32	
2025-01-14 04:00:34.24	300.63	4.29	
2025-01-14 04:00:35.06	300.54	4.25	
2025-01-14 04:00:35.88	300.44	4.22	
2025-01-14 04:00:36.71	300.34	4.18	
2025-01-14 04:00:37.52	300.25	4.15	
2025-01-14 04:00:38.35	300.15	4.12	
2025-01-14 04:00:39.18	300.05	4.08	
2025-01-14 04:00:40.00	299.96	4.05	
2025-01-14 04:00:40.82	299.86	4.01	

#Closed at: 2025-01-14 04:00:41