passes_logs/2025/01/14/SPB_Silybum_02/SPB_Silybum_02__20250114_183358_TERRA_rec.log

#Pass ID: 20250114_183358_TERRA
#Satellite: TERRA
#Configuration: TERRA
#Start time: 2025-01-14 18:33:57

#Version: 2.0.20230423
#Station: SPB_Silybum_02
#Location: 30.233357 lon 59.946436 lat
#TLE: 1 25994U 99068A   25013.82437757  .00000752  00000+0  16464-3 0  9992
#TLE: 2 25994  98.0218  76.8921 0003482  75.0849  16.5253 14.60392614333908

#Time	Az	El	Level	Level2	SNR	BER	Gain	Gain2
2025-01-14 18:33:59.40	162.67	4.09	
2025-01-14 18:34:00.63	162.68	4.18	
2025-01-14 18:34:01.86	162.68	4.27	
2025-01-14 18:34:03.09	162.69	4.36	
2025-01-14 18:34:04.32	162.70	4.45	
2025-01-14 18:34:05.55	162.71	4.54	
2025-01-14 18:34:06.78	162.72	4.63	
2025-01-14 18:34:08.02	162.72	4.72	
2025-01-14 18:34:09.25	162.73	4.82	
2025-01-14 18:34:10.47	162.74	4.91	
2025-01-14 18:34:11.71	162.75	5.00	
2025-01-14 18:34:12.95	162.76	5.09	
2025-01-14 18:34:14.18	162.76	5.19	
2025-01-14 18:34:15.41	162.77	5.28	
2025-01-14 18:34:16.66	162.78	5.37	
2025-01-14 18:34:17.88	162.79	5.47	
2025-01-14 18:34:19.12	162.80	5.56	
2025-01-14 18:34:20.35	162.81	5.66	
2025-01-14 18:34:21.59	162.82	5.75	
2025-01-14 18:34:22.82	162.82	5.85	
2025-01-14 18:34:24.05	162.83	5.94	
2025-01-14 18:34:25.28	162.84	6.04	
2025-01-14 18:34:26.52	162.85	6.14	
2025-01-14 18:34:27.75	162.86	6.24	
2025-01-14 18:34:28.98	162.87	6.33	
2025-01-14 18:34:30.21	162.88	6.43	
2025-01-14 18:34:31.44	162.88	6.53	
2025-01-14 18:34:32.69	162.89	6.63	
2025-01-14 18:34:33.91	162.90	6.73	
2025-01-14 18:34:35.14	162.91	6.83	
2025-01-14 18:34:36.38	162.92	6.93	
2025-01-14 18:34:37.61	162.93	7.03	
2025-01-14 18:34:38.84	162.94	7.13	
2025-01-14 18:34:40.08	162.95	7.23	
2025-01-14 18:34:41.31	162.96	7.34	
2025-01-14 18:34:42.54	162.97	7.44	
2025-01-14 18:34:43.77	162.98	7.54	
2025-01-14 18:34:45.00	162.98	7.64	
2025-01-14 18:34:46.24	162.99	7.75	
2025-01-14 18:34:47.47	163.00	7.85	
2025-01-14 18:34:48.70	163.01	7.96	
2025-01-14 18:34:49.93	163.02	8.06	
2025-01-14 18:34:51.16	163.03	8.17	
2025-01-14 18:34:52.39	163.04	8.27	
2025-01-14 18:34:53.63	163.05	8.38	
2025-01-14 18:34:54.86	163.06	8.49	
2025-01-14 18:34:56.09	163.07	8.60	
2025-01-14 18:34:57.32	163.08	8.71	
2025-01-14 18:34:58.55	163.09	8.81	
2025-01-14 18:34:59.77	163.10	8.92	
2025-01-14 18:35:01.02	163.11	9.03	
2025-01-14 18:35:02.25	163.12	9.14	
2025-01-14 18:35:03.48	163.13	9.26	
2025-01-14 18:35:04.72	163.14	9.37	
2025-01-14 18:35:05.97	163.15	9.48	
2025-01-14 18:35:07.20	163.16	9.59	
2025-01-14 18:35:08.44	163.17	9.71	
2025-01-14 18:35:09.68	163.18	9.82	
2025-01-14 18:35:10.91	163.19	9.94	
2025-01-14 18:35:12.13	163.20	10.05	
2025-01-14 18:35:13.37	163.21	10.17	
2025-01-14 18:35:14.60	163.22	10.28	
2025-01-14 18:35:15.84	163.23	10.40	
2025-01-14 18:35:17.07	163.24	10.52	
2025-01-14 18:35:18.30	163.25	10.64	
2025-01-14 18:35:19.53	163.26	10.76	
2025-01-14 18:35:20.77	163.27	10.88	
2025-01-14 18:35:21.99	163.29	10.99	
2025-01-14 18:35:23.23	163.30	11.12	
2025-01-14 18:35:24.46	163.31	11.24	
2025-01-14 18:35:25.69	163.32	11.36	
2025-01-14 18:35:26.94	163.33	11.48	
2025-01-14 18:35:28.17	163.34	11.61	
2025-01-14 18:35:29.40	163.35	11.73	
2025-01-14 18:35:30.63	163.36	11.86	
2025-01-14 18:35:31.87	163.37	11.98	
2025-01-14 18:35:33.11	163.39	12.11	
2025-01-14 18:35:34.34	163.40	12.24	
2025-01-14 18:35:35.57	163.41	12.36	
2025-01-14 18:35:36.80	163.42	12.49	
2025-01-14 18:35:38.03	163.43	12.62	
2025-01-14 18:35:39.26	163.44	12.75	
2025-01-14 18:35:40.49	163.46	12.88	
2025-01-14 18:35:41.72	163.47	13.01	
2025-01-14 18:35:42.96	163.48	13.15	
2025-01-14 18:35:44.19	163.49	13.28	
2025-01-14 18:35:45.42	163.50	13.41	
2025-01-14 18:35:46.65	163.52	13.55	
2025-01-14 18:35:47.89	163.53	13.68	
2025-01-14 18:35:49.12	163.54	13.82	
2025-01-14 18:35:50.36	163.55	13.96	
2025-01-14 18:35:51.59	163.57	14.10	
2025-01-14 18:35:52.82	163.58	14.24	
2025-01-14 18:35:54.05	163.59	14.38	
2025-01-14 18:35:55.28	163.60	14.52	
2025-01-14 18:35:56.52	163.62	14.66	
2025-01-14 18:35:57.76	163.63	14.80	
2025-01-14 18:35:58.99	163.64	14.95	
2025-01-14 18:36:00.23	163.66	15.09	
2025-01-14 18:36:01.45	163.67	15.24	
2025-01-14 18:36:02.70	163.68	15.38	
2025-01-14 18:36:03.92	163.70	15.53	
2025-01-14 18:36:05.16	163.71	15.68	
2025-01-14 18:36:06.39	163.72	15.83	
2025-01-14 18:36:07.63	163.74	15.98	
2025-01-14 18:36:08.86	163.75	16.13	
2025-01-14 18:36:10.09	163.77	16.28	
2025-01-14 18:36:11.32	163.78	16.44	
2025-01-14 18:36:12.56	163.79	16.59	
2025-01-14 18:36:13.79	163.81	16.75	
2025-01-14 18:36:15.02	163.82	16.91	
2025-01-14 18:36:16.25	163.84	17.06	
2025-01-14 18:36:17.48	163.85	17.22	
2025-01-14 18:36:18.72	163.87	17.38	
2025-01-14 18:36:19.95	163.88	17.55	
2025-01-14 18:36:21.20	163.90	17.71	
2025-01-14 18:36:22.43	163.91	17.87	
2025-01-14 18:36:23.66	163.93	18.04	
2025-01-14 18:36:24.90	163.94	18.21	
2025-01-14 18:36:26.14	163.96	18.37	
2025-01-14 18:36:27.39	163.98	18.55	
2025-01-14 18:36:28.62	163.99	18.72	
2025-01-14 18:36:29.85	164.01	18.89	
2025-01-14 18:36:31.08	164.02	19.06	
2025-01-14 18:36:32.32	164.04	19.23	
2025-01-14 18:36:33.55	164.06	19.41	
2025-01-14 18:36:34.78	164.07	19.59	
2025-01-14 18:36:36.01	164.09	19.76	
2025-01-14 18:36:37.24	164.11	19.94	
2025-01-14 18:36:38.48	164.12	20.13	
2025-01-14 18:36:39.70	164.14	20.31	
2025-01-14 18:36:40.93	164.16	20.49	
2025-01-14 18:36:42.17	164.18	20.68	
2025-01-14 18:36:43.41	164.19	20.86	
2025-01-14 18:36:44.65	164.21	21.05	
2025-01-14 18:36:45.89	164.23	21.25	
2025-01-14 18:36:47.13	164.25	21.44	
2025-01-14 18:36:48.37	164.27	21.63	
2025-01-14 18:36:49.60	164.29	21.83	
2025-01-14 18:36:50.83	164.31	22.02	
2025-01-14 18:36:52.07	164.33	22.22	
2025-01-14 18:36:53.30	164.34	22.42	
2025-01-14 18:36:54.53	164.36	22.62	
2025-01-14 18:36:55.76	164.38	22.83	
2025-01-14 18:36:56.98	164.40	23.03	
2025-01-14 18:36:58.21	164.42	23.23	
2025-01-14 18:36:59.44	164.44	23.44	
2025-01-14 18:37:00.69	164.46	23.66	
2025-01-14 18:37:01.92	164.49	23.87	
2025-01-14 18:37:03.14	164.51	24.08	
2025-01-14 18:37:04.38	164.53	24.30	
2025-01-14 18:37:05.61	164.55	24.52	
2025-01-14 18:37:06.84	164.57	24.73	
2025-01-14 18:37:08.08	164.59	24.96	
2025-01-14 18:37:09.31	164.62	25.18	
2025-01-14 18:37:10.54	164.64	25.41	
2025-01-14 18:37:11.77	164.66	25.64	
2025-01-14 18:37:13.00	164.68	25.87	
2025-01-14 18:37:14.22	164.71	26.10	
2025-01-14 18:37:15.46	164.73	26.33	
2025-01-14 18:37:16.68	164.76	26.57	
2025-01-14 18:37:17.93	164.78	26.81	
2025-01-14 18:37:19.16	164.81	27.05	
2025-01-14 18:37:20.39	164.83	27.29	
2025-01-14 18:37:21.62	164.86	27.54	
2025-01-14 18:37:22.85	164.88	27.79	
2025-01-14 18:37:24.08	164.91	28.04	
2025-01-14 18:37:25.32	164.93	28.29	
2025-01-14 18:37:26.55	164.96	28.55	
2025-01-14 18:37:27.79	164.99	28.81	
2025-01-14 18:37:29.04	165.02	29.07	
2025-01-14 18:37:30.27	165.04	29.34	
2025-01-14 18:37:31.50	165.07	29.60	
2025-01-14 18:37:32.73	165.10	29.87	
2025-01-14 18:37:33.96	165.13	30.14	
2025-01-14 18:37:35.18	165.16	30.41	
2025-01-14 18:37:36.41	165.19	30.69	
2025-01-14 18:37:37.65	165.22	30.97	
2025-01-14 18:37:38.87	165.25	31.25	
2025-01-14 18:37:40.11	165.28	31.54	
2025-01-14 18:37:41.34	165.32	31.83	
2025-01-14 18:37:42.57	165.35	32.12	
2025-01-14 18:37:43.80	165.38	32.41	
2025-01-14 18:37:45.04	165.42	32.71	
2025-01-14 18:37:46.27	165.45	33.01	
2025-01-14 18:37:47.49	165.48	33.32	
2025-01-14 18:37:48.72	165.52	33.62	
2025-01-14 18:37:49.95	165.56	33.93	
2025-01-14 18:37:51.18	165.59	34.25	
2025-01-14 18:37:52.43	165.63	34.57	
2025-01-14 18:37:53.66	165.67	34.89	
2025-01-14 18:37:54.89	165.71	35.21	
2025-01-14 18:37:56.12	165.75	35.54	
2025-01-14 18:37:57.35	165.79	35.87	
2025-01-14 18:37:58.58	165.83	36.21	
2025-01-14 18:37:59.81	165.87	36.55	
2025-01-14 18:38:01.04	165.91	36.89	
2025-01-14 18:38:02.27	165.95	37.24	
2025-01-14 18:38:03.50	166.00	37.59	
2025-01-14 18:38:04.73	166.04	37.94	
2025-01-14 18:38:05.97	166.09	38.30	
2025-01-14 18:38:07.20	166.14	38.66	
2025-01-14 18:38:08.44	166.18	39.03	
2025-01-14 18:38:09.69	166.23	39.41	
2025-01-14 18:38:10.92	166.28	39.78	
2025-01-14 18:38:12.15	166.34	40.16	
2025-01-14 18:38:13.38	166.39	40.55	
2025-01-14 18:38:14.62	166.44	40.94	
2025-01-14 18:38:15.85	166.50	41.33	
2025-01-14 18:38:17.09	166.55	41.73	
2025-01-14 18:38:18.32	166.61	42.13	
2025-01-14 18:38:19.55	166.67	42.54	
2025-01-14 18:38:20.78	166.73	42.95	
2025-01-14 18:38:22.01	166.79	43.36	
2025-01-14 18:38:23.24	166.85	43.78	
2025-01-14 18:38:24.47	166.92	44.21	
2025-01-14 18:38:25.71	166.98	44.64	
2025-01-14 18:38:26.94	167.05	45.07	
2025-01-14 18:38:28.17	167.12	45.51	
2025-01-14 18:38:29.41	167.19	45.96	
2025-01-14 18:38:30.63	167.27	46.41	
2025-01-14 18:38:31.86	167.34	46.86	
2025-01-14 18:38:33.09	167.42	47.32	
2025-01-14 18:38:34.32	167.50	47.78	
2025-01-14 18:38:35.55	167.58	48.25	
2025-01-14 18:38:36.78	167.67	48.73	
2025-01-14 18:38:38.01	167.75	49.21	
2025-01-14 18:38:39.24	167.84	49.70	
2025-01-14 18:38:40.47	167.94	50.19	
2025-01-14 18:38:41.70	168.03	50.69	
2025-01-14 18:38:42.93	168.13	51.19	
2025-01-14 18:38:44.16	168.23	51.70	
2025-01-14 18:38:45.39	168.34	52.21	
2025-01-14 18:38:46.62	168.45	52.73	
2025-01-14 18:38:47.85	168.56	53.25	
2025-01-14 18:38:49.08	168.68	53.79	
2025-01-14 18:38:50.32	168.80	54.33	
2025-01-14 18:38:51.56	168.93	54.87	
2025-01-14 18:38:52.79	169.06	55.42	
2025-01-14 18:38:54.02	169.19	55.97	
2025-01-14 18:38:55.25	169.33	56.53	
2025-01-14 18:38:56.48	169.48	57.10	
2025-01-14 18:38:57.71	169.63	57.67	
2025-01-14 18:38:58.94	169.79	58.24	
2025-01-14 18:39:00.17	169.96	58.83	
2025-01-14 18:39:01.40	170.13	59.41	
2025-01-14 18:39:02.63	170.31	60.01	
2025-01-14 18:39:03.86	170.50	60.61	
2025-01-14 18:39:05.09	170.70	61.21	
2025-01-14 18:39:06.33	170.91	61.82	
2025-01-14 18:39:07.57	171.14	62.45	
2025-01-14 18:39:08.80	171.37	63.07	
2025-01-14 18:39:10.03	171.61	63.69	
2025-01-14 18:39:11.26	171.86	64.32	
2025-01-14 18:39:12.48	172.13	64.95	
2025-01-14 18:39:13.71	172.42	65.60	
2025-01-14 18:39:14.94	172.72	66.24	
2025-01-14 18:39:16.17	173.04	66.89	
2025-01-14 18:39:17.41	173.39	67.55	
2025-01-14 18:39:18.63	173.75	68.21	
2025-01-14 18:39:19.86	174.14	68.87	
2025-01-14 18:39:21.11	174.56	69.55	
2025-01-14 18:39:22.35	175.01	70.23	
2025-01-14 18:39:23.59	175.49	70.91	
2025-01-14 18:39:24.83	176.01	71.59	
2025-01-14 18:39:26.06	176.57	72.28	
2025-01-14 18:39:27.29	177.18	72.96	
2025-01-14 18:39:28.53	177.85	73.65	
2025-01-14 18:39:29.76	178.57	74.34	
2025-01-14 18:39:30.99	179.36	75.03	
2025-01-14 18:39:32.22	180.23	75.72	
2025-01-14 18:39:33.45	181.19	76.42	
2025-01-14 18:39:34.68	182.25	77.11	
2025-01-14 18:39:35.92	183.45	77.80	
2025-01-14 18:39:37.15	184.79	78.49	
2025-01-14 18:39:38.38	186.30	79.17	
2025-01-14 18:39:39.63	188.04	79.86	
2025-01-14 18:39:40.86	190.01	80.52	
2025-01-14 18:39:42.09	192.27	81.18	
2025-01-14 18:39:43.31	194.88	81.82	
2025-01-14 18:39:44.55	197.99	82.45	
2025-01-14 18:39:45.77	201.58	83.05	
2025-01-14 18:39:47.01	205.92	83.62	
2025-01-14 18:39:48.24	211.04	84.15	
2025-01-14 18:39:49.49	217.23	84.64	
2025-01-14 18:39:50.72	224.42	85.04	
2025-01-14 18:39:51.95	232.72	85.35	
2025-01-14 18:39:53.18	242.00	85.55	
2025-01-14 18:39:54.43	252.04	85.63	
2025-01-14 18:39:55.66	261.97	85.57	
2025-01-14 18:39:56.89	271.37	85.39	
2025-01-14 18:39:58.12	279.85	85.10	
2025-01-14 18:39:59.35	287.22	84.71	
2025-01-14 18:40:00.59	293.54	84.24	
2025-01-14 18:40:01.82	298.82	83.72	
2025-01-14 18:40:03.05	303.25	83.16	
2025-01-14 18:40:04.28	306.99	82.56	
2025-01-14 18:40:05.54	310.22	81.92	
2025-01-14 18:40:06.77	312.92	81.28	
2025-01-14 18:40:08.00	315.23	80.63	
2025-01-14 18:40:09.22	317.22	79.97	
2025-01-14 18:40:10.46	318.99	79.29	
2025-01-14 18:40:11.69	320.53	78.60	
2025-01-14 18:40:12.93	321.90	77.91	
2025-01-14 18:40:14.16	323.11	77.23	
2025-01-14 18:40:15.39	324.20	76.54	
2025-01-14 18:40:16.63	325.18	75.84	
2025-01-14 18:40:17.87	326.07	75.15	
2025-01-14 18:40:19.09	326.87	74.46	
2025-01-14 18:40:20.33	327.60	73.77	
2025-01-14 18:40:21.56	328.27	73.08	
2025-01-14 18:40:22.79	328.89	72.40	
2025-01-14 18:40:24.02	329.45	71.72	
2025-01-14 18:40:25.25	329.98	71.04	
2025-01-14 18:40:26.50	330.47	70.35	
2025-01-14 18:40:27.73	330.92	69.68	
2025-01-14 18:40:28.96	331.34	69.01	
2025-01-14 18:40:30.19	331.74	68.35	
2025-01-14 18:40:31.42	332.11	67.69	
2025-01-14 18:40:32.67	332.46	67.03	
2025-01-14 18:40:33.90	332.78	66.38	
2025-01-14 18:40:35.13	333.09	65.73	
2025-01-14 18:40:36.36	333.38	65.09	
2025-01-14 18:40:37.61	333.65	64.44	
2025-01-14 18:40:38.84	333.91	63.81	
2025-01-14 18:40:40.07	334.16	63.19	
2025-01-14 18:40:41.31	334.39	62.56	
2025-01-14 18:40:42.55	334.61	61.95	
2025-01-14 18:40:43.78	334.82	61.34	
2025-01-14 18:40:45.01	335.02	60.73	
2025-01-14 18:40:46.24	335.21	60.13	
2025-01-14 18:40:47.47	335.40	59.54	
2025-01-14 18:40:48.72	335.58	58.95	
2025-01-14 18:40:49.95	335.74	58.37	
2025-01-14 18:40:51.19	335.90	57.79	
2025-01-14 18:40:52.43	336.06	57.21	
2025-01-14 18:40:53.66	336.21	56.65	
2025-01-14 18:40:54.89	336.35	56.09	
2025-01-14 18:40:56.12	336.49	55.54	
2025-01-14 18:40:57.34	336.62	54.99	
2025-01-14 18:40:58.57	336.74	54.45	
2025-01-14 18:40:59.80	336.86	53.92	
2025-01-14 18:41:01.03	336.98	53.39	
2025-01-14 18:41:02.26	337.10	52.86	
2025-01-14 18:41:03.49	337.21	52.35	
2025-01-14 18:41:04.72	337.31	51.83	
2025-01-14 18:41:05.95	337.41	51.33	
2025-01-14 18:41:07.18	337.51	50.82	
2025-01-14 18:41:08.42	337.61	50.32	
2025-01-14 18:41:09.65	337.70	49.83	
2025-01-14 18:41:10.88	337.80	49.35	
2025-01-14 18:41:12.11	337.88	48.87	
2025-01-14 18:41:13.34	337.97	48.39	
2025-01-14 18:41:14.57	338.05	47.92	
2025-01-14 18:41:15.80	338.13	47.46	
2025-01-14 18:41:17.03	338.21	47.00	
2025-01-14 18:41:18.27	338.29	46.54	
2025-01-14 18:41:19.50	338.36	46.10	
2025-01-14 18:41:20.74	338.43	45.65	
2025-01-14 18:41:21.97	338.50	45.21	
2025-01-14 18:41:23.20	338.57	44.78	
2025-01-14 18:41:24.44	338.64	44.34	
2025-01-14 18:41:25.67	338.70	43.92	
2025-01-14 18:41:26.90	338.77	43.50	
2025-01-14 18:41:28.13	338.83	43.09	
2025-01-14 18:41:29.37	338.89	42.68	
2025-01-14 18:41:30.61	338.95	42.27	
2025-01-14 18:41:31.85	339.01	41.86	
2025-01-14 18:41:33.08	339.06	41.47	
2025-01-14 18:41:34.31	339.12	41.08	
2025-01-14 18:41:35.55	339.17	40.69	
2025-01-14 18:41:36.79	339.23	40.30	
2025-01-14 18:41:38.01	339.28	39.93	
2025-01-14 18:41:39.24	339.33	39.55	
2025-01-14 18:41:40.47	339.38	39.18	
2025-01-14 18:41:41.70	339.43	38.82	
2025-01-14 18:41:42.93	339.47	38.46	
2025-01-14 18:41:44.17	339.52	38.10	
2025-01-14 18:41:45.40	339.57	37.74	
2025-01-14 18:41:46.63	339.61	37.39	
2025-01-14 18:41:47.86	339.65	37.05	
2025-01-14 18:41:49.09	339.70	36.71	
2025-01-14 18:41:50.32	339.74	36.37	
2025-01-14 18:41:51.56	339.78	36.03	
2025-01-14 18:41:52.79	339.82	35.70	
2025-01-14 18:41:54.02	339.86	35.37	
2025-01-14 18:41:55.25	339.90	35.05	
2025-01-14 18:41:56.50	339.94	34.72	
2025-01-14 18:41:57.73	339.98	34.41	
2025-01-14 18:41:58.96	340.01	34.09	
2025-01-14 18:42:00.19	340.05	33.78	
2025-01-14 18:42:01.43	340.09	33.47	
2025-01-14 18:42:02.68	340.12	33.17	
2025-01-14 18:42:03.93	340.16	32.86	
2025-01-14 18:42:05.16	340.19	32.56	
2025-01-14 18:42:06.40	340.23	32.27	
2025-01-14 18:42:07.63	340.26	31.98	
2025-01-14 18:42:08.86	340.29	31.69	
2025-01-14 18:42:10.09	340.32	31.41	
2025-01-14 18:42:11.33	340.36	31.12	
2025-01-14 18:42:12.56	340.39	30.84	
2025-01-14 18:42:13.79	340.42	30.57	
2025-01-14 18:42:15.02	340.45	30.29	
2025-01-14 18:42:16.25	340.48	30.02	
2025-01-14 18:42:17.48	340.51	29.75	
2025-01-14 18:42:18.71	340.54	29.49	
2025-01-14 18:42:19.95	340.56	29.22	
2025-01-14 18:42:21.19	340.59	28.96	
2025-01-14 18:42:22.42	340.62	28.71	
2025-01-14 18:42:23.66	340.65	28.45	
2025-01-14 18:42:24.89	340.67	28.20	
2025-01-14 18:42:26.12	340.70	27.95	
2025-01-14 18:42:27.35	340.73	27.70	
2025-01-14 18:42:28.58	340.75	27.45	
2025-01-14 18:42:29.81	340.78	27.21	
2025-01-14 18:42:31.04	340.80	26.97	
2025-01-14 18:42:32.27	340.83	26.73	
2025-01-14 18:42:33.50	340.85	26.50	
2025-01-14 18:42:34.73	340.88	26.26	
2025-01-14 18:42:35.96	340.90	26.03	
2025-01-14 18:42:37.19	340.93	25.80	
2025-01-14 18:42:38.42	340.95	25.57	
2025-01-14 18:42:39.65	340.97	25.35	
2025-01-14 18:42:40.88	341.00	25.13	
2025-01-14 18:42:42.11	341.02	24.91	
2025-01-14 18:42:43.34	341.04	24.69	
2025-01-14 18:42:44.57	341.06	24.47	
2025-01-14 18:42:45.80	341.08	24.25	
2025-01-14 18:42:47.03	341.11	24.04	
2025-01-14 18:42:48.26	341.13	23.83	
2025-01-14 18:42:49.49	341.15	23.62	
2025-01-14 18:42:50.74	341.17	23.41	
2025-01-14 18:42:51.97	341.19	23.20	
2025-01-14 18:42:53.20	341.21	23.00	
2025-01-14 18:42:54.43	341.23	22.80	
2025-01-14 18:42:55.67	341.25	22.59	
2025-01-14 18:42:56.90	341.27	22.39	
2025-01-14 18:42:58.13	341.29	22.20	
2025-01-14 18:42:59.36	341.31	22.00	
2025-01-14 18:43:00.62	341.33	21.80	
2025-01-14 18:43:01.86	341.35	21.61	
2025-01-14 18:43:03.12	341.37	21.41	
2025-01-14 18:43:04.35	341.39	21.22	
2025-01-14 18:43:05.58	341.41	21.04	
2025-01-14 18:43:06.81	341.43	20.85	
2025-01-14 18:43:08.05	341.44	20.66	
2025-01-14 18:43:09.30	341.46	20.48	
2025-01-14 18:43:10.53	341.48	20.30	
2025-01-14 18:43:11.76	341.50	20.12	
2025-01-14 18:43:13.01	341.52	19.93	
2025-01-14 18:43:14.24	341.53	19.76	
2025-01-14 18:43:15.47	341.55	19.58	
2025-01-14 18:43:16.70	341.57	19.41	
2025-01-14 18:43:17.94	341.59	19.23	
2025-01-14 18:43:19.17	341.60	19.06	
2025-01-14 18:43:20.39	341.62	18.89	
2025-01-14 18:43:21.62	341.64	18.72	
2025-01-14 18:43:22.85	341.65	18.55	
2025-01-14 18:43:24.08	341.67	18.39	
2025-01-14 18:43:25.31	341.69	18.22	
2025-01-14 18:43:26.56	341.70	18.05	
2025-01-14 18:43:27.79	341.72	17.89	
2025-01-14 18:43:29.02	341.73	17.73	
2025-01-14 18:43:30.25	341.75	17.57	
2025-01-14 18:43:31.48	341.76	17.41	
2025-01-14 18:43:32.72	341.78	17.25	
2025-01-14 18:43:33.95	341.80	17.09	
2025-01-14 18:43:35.18	341.81	16.93	
2025-01-14 18:43:36.41	341.83	16.78	
2025-01-14 18:43:37.64	341.84	16.62	
2025-01-14 18:43:38.90	341.86	16.47	
2025-01-14 18:43:40.14	341.87	16.31	
2025-01-14 18:43:41.37	341.89	16.16	
2025-01-14 18:43:42.60	341.90	16.01	
2025-01-14 18:43:43.83	341.92	15.86	
2025-01-14 18:43:45.07	341.93	15.71	
2025-01-14 18:43:46.32	341.94	15.56	
2025-01-14 18:43:47.54	341.96	15.42	
2025-01-14 18:43:48.77	341.97	15.27	
2025-01-14 18:43:50.00	341.99	15.13	
2025-01-14 18:43:51.23	342.00	14.99	
2025-01-14 18:43:52.46	342.01	14.84	
2025-01-14 18:43:53.69	342.03	14.70	
2025-01-14 18:43:54.92	342.04	14.56	
2025-01-14 18:43:56.17	342.06	14.42	
2025-01-14 18:43:57.40	342.07	14.28	
2025-01-14 18:43:58.64	342.08	14.14	
2025-01-14 18:43:59.87	342.10	14.01	
2025-01-14 18:44:01.10	342.11	13.87	
2025-01-14 18:44:02.33	342.12	13.74	
2025-01-14 18:44:03.56	342.14	13.60	
2025-01-14 18:44:04.79	342.15	13.47	
2025-01-14 18:44:06.02	342.16	13.34	
2025-01-14 18:44:07.26	342.17	13.20	
2025-01-14 18:44:08.49	342.19	13.07	
2025-01-14 18:44:09.73	342.20	12.94	
2025-01-14 18:44:10.96	342.21	12.81	
2025-01-14 18:44:12.19	342.23	12.68	
2025-01-14 18:44:13.43	342.24	12.55	
2025-01-14 18:44:14.66	342.25	12.42	
2025-01-14 18:44:15.89	342.26	12.30	
2025-01-14 18:44:17.15	342.28	12.17	
2025-01-14 18:44:18.38	342.29	12.04	
2025-01-14 18:44:19.61	342.30	11.92	
2025-01-14 18:44:20.84	342.31	11.80	
2025-01-14 18:44:22.07	342.32	11.67	
2025-01-14 18:44:23.30	342.34	11.55	
2025-01-14 18:44:24.53	342.35	11.43	
2025-01-14 18:44:25.76	342.36	11.31	
2025-01-14 18:44:26.99	342.37	11.19	
2025-01-14 18:44:28.22	342.38	11.07	
2025-01-14 18:44:29.45	342.40	10.95	
2025-01-14 18:44:30.68	342.41	10.83	
2025-01-14 18:44:31.92	342.42	10.71	
2025-01-14 18:44:33.15	342.43	10.59	
2025-01-14 18:44:34.38	342.44	10.48	
2025-01-14 18:44:35.63	342.45	10.36	
2025-01-14 18:44:36.87	342.46	10.24	
2025-01-14 18:44:38.10	342.48	10.13	
2025-01-14 18:44:39.34	342.49	10.01	
2025-01-14 18:44:40.57	342.50	9.90	
2025-01-14 18:44:41.80	342.51	9.79	
2025-01-14 18:44:43.03	342.52	9.68	
2025-01-14 18:44:44.26	342.53	9.56	
2025-01-14 18:44:45.49	342.54	9.45	
2025-01-14 18:44:46.72	342.55	9.34	
2025-01-14 18:44:47.96	342.57	9.23	
2025-01-14 18:44:49.19	342.58	9.12	
2025-01-14 18:44:50.42	342.59	9.01	
2025-01-14 18:44:51.65	342.60	8.90	
2025-01-14 18:44:52.88	342.61	8.79	
2025-01-14 18:44:54.11	342.62	8.69	
2025-01-14 18:44:55.36	342.63	8.58	
2025-01-14 18:44:56.59	342.64	8.47	
2025-01-14 18:44:57.84	342.65	8.36	
2025-01-14 18:44:59.08	342.66	8.26	
2025-01-14 18:45:00.31	342.67	8.15	
2025-01-14 18:45:01.54	342.68	8.05	
2025-01-14 18:45:02.76	342.69	7.95	
2025-01-14 18:45:03.99	342.70	7.84	
2025-01-14 18:45:05.22	342.71	7.74	
2025-01-14 18:45:06.46	342.72	7.64	
2025-01-14 18:45:07.69	342.73	7.53	
2025-01-14 18:45:08.92	342.74	7.43	
2025-01-14 18:45:10.15	342.75	7.33	
2025-01-14 18:45:11.38	342.77	7.23	
2025-01-14 18:45:12.61	342.78	7.13	
2025-01-14 18:45:13.84	342.79	7.03	
2025-01-14 18:45:15.09	342.80	6.93	
2025-01-14 18:45:16.32	342.81	6.83	
2025-01-14 18:45:17.55	342.82	6.73	
2025-01-14 18:45:18.78	342.83	6.63	
2025-01-14 18:45:20.01	342.84	6.53	
2025-01-14 18:45:21.25	342.85	6.44	
2025-01-14 18:45:22.48	342.86	6.34	
2025-01-14 18:45:23.71	342.87	6.24	
2025-01-14 18:45:24.95	342.87	6.15	
2025-01-14 18:45:26.18	342.88	6.05	
2025-01-14 18:45:27.42	342.89	5.95	
2025-01-14 18:45:28.65	342.90	5.86	
2025-01-14 18:45:29.88	342.91	5.76	
2025-01-14 18:45:31.11	342.92	5.67	
2025-01-14 18:45:32.35	342.93	5.57	
2025-01-14 18:45:33.58	342.94	5.48	
2025-01-14 18:45:34.81	342.95	5.39	
2025-01-14 18:45:36.04	342.96	5.30	
2025-01-14 18:45:37.27	342.97	5.20	
2025-01-14 18:45:38.50	342.98	5.11	
2025-01-14 18:45:39.74	342.99	5.02	
2025-01-14 18:45:40.97	343.00	4.93	
2025-01-14 18:45:42.20	343.01	4.84	
2025-01-14 18:45:43.44	343.02	4.74	
2025-01-14 18:45:44.69	343.03	4.65	
2025-01-14 18:45:45.92	343.04	4.56	
2025-01-14 18:45:47.15	343.05	4.47	
2025-01-14 18:45:48.40	343.06	4.38	
2025-01-14 18:45:49.63	343.06	4.29	
2025-01-14 18:45:50.86	343.07	4.20	
2025-01-14 18:45:52.09	343.08	4.12	
2025-01-14 18:45:53.32	343.09	4.03	

#Closed at: 2025-01-14 18:45:53