passes_logs/2025/01/14/SPB_Silybum_02/SPB_Silybum_02__20250114_011734_AQUA_rec.log

#Pass ID: 20250114_011734_AQUA
#Satellite: AQUA
#Configuration: AQUA
#Start time: 2025-01-14 01:17:35

#Version: 2.0.20230423
#Station: SPB_Silybum_02
#Location: 30.233357 lon 59.946436 lat
#TLE: 1 27424U 02022A   25013.15568498  .00001660  00000+0  35066-3 0  9997
#TLE: 2 27424  98.3585 329.8030 0001646 113.3422 303.6913 14.60674931207350

#Time	Az	El	Level	Level2	SNR	BER	Gain	Gain2
2025-01-14 01:17:37.24	17.45	4.20	
2025-01-14 01:17:38.47	17.46	4.29	
2025-01-14 01:17:39.70	17.47	4.37	
2025-01-14 01:17:40.93	17.47	4.46	
2025-01-14 01:17:42.16	17.48	4.55	
2025-01-14 01:17:43.40	17.49	4.64	
2025-01-14 01:17:44.63	17.49	4.73	
2025-01-14 01:17:45.86	17.50	4.83	
2025-01-14 01:17:47.09	17.51	4.92	
2025-01-14 01:17:48.32	17.52	5.01	
2025-01-14 01:17:49.55	17.52	5.10	
2025-01-14 01:17:50.80	17.53	5.19	
2025-01-14 01:17:52.03	17.54	5.29	
2025-01-14 01:17:53.28	17.55	5.38	
2025-01-14 01:17:54.50	17.55	5.47	
2025-01-14 01:17:55.73	17.56	5.57	
2025-01-14 01:17:56.98	17.57	5.66	
2025-01-14 01:17:58.21	17.57	5.76	
2025-01-14 01:17:59.44	17.58	5.85	
2025-01-14 01:18:00.67	17.59	5.95	
2025-01-14 01:18:01.91	17.60	6.04	
2025-01-14 01:18:03.16	17.60	6.14	
2025-01-14 01:18:04.39	17.61	6.24	
2025-01-14 01:18:05.62	17.62	6.33	
2025-01-14 01:18:06.85	17.63	6.43	
2025-01-14 01:18:08.08	17.63	6.53	
2025-01-14 01:18:09.31	17.64	6.62	
2025-01-14 01:18:10.56	17.65	6.72	
2025-01-14 01:18:11.79	17.66	6.82	
2025-01-14 01:18:13.03	17.66	6.92	
2025-01-14 01:18:14.26	17.67	7.02	
2025-01-14 01:18:15.50	17.68	7.12	
2025-01-14 01:18:16.74	17.69	7.22	
2025-01-14 01:18:17.97	17.69	7.33	
2025-01-14 01:18:19.20	17.70	7.43	
2025-01-14 01:18:20.43	17.71	7.53	
2025-01-14 01:18:21.66	17.72	7.63	
2025-01-14 01:18:22.89	17.72	7.73	
2025-01-14 01:18:24.12	17.73	7.84	
2025-01-14 01:18:25.36	17.74	7.94	
2025-01-14 01:18:26.59	17.75	8.04	
2025-01-14 01:18:27.82	17.76	8.15	
2025-01-14 01:18:29.05	17.76	8.25	
2025-01-14 01:18:30.28	17.77	8.36	
2025-01-14 01:18:31.51	17.78	8.47	
2025-01-14 01:18:32.74	17.79	8.57	
2025-01-14 01:18:33.97	17.79	8.68	
2025-01-14 01:18:35.20	17.80	8.79	
2025-01-14 01:18:36.43	17.81	8.90	
2025-01-14 01:18:37.68	17.82	9.01	
2025-01-14 01:18:38.91	17.83	9.11	
2025-01-14 01:18:40.14	17.83	9.22	
2025-01-14 01:18:41.37	17.84	9.33	
2025-01-14 01:18:42.60	17.85	9.45	
2025-01-14 01:18:43.83	17.86	9.56	
2025-01-14 01:18:45.06	17.87	9.67	
2025-01-14 01:18:46.29	17.87	9.78	
2025-01-14 01:18:47.52	17.88	9.89	
2025-01-14 01:18:48.75	17.89	10.01	
2025-01-14 01:18:49.98	17.90	10.12	
2025-01-14 01:18:51.21	17.91	10.24	
2025-01-14 01:18:52.44	17.91	10.35	
2025-01-14 01:18:53.68	17.92	10.47	
2025-01-14 01:18:54.92	17.93	10.59	
2025-01-14 01:18:56.17	17.94	10.71	
2025-01-14 01:18:57.42	17.95	10.83	
2025-01-14 01:18:58.66	17.96	10.94	
2025-01-14 01:18:59.89	17.96	11.06	
2025-01-14 01:19:01.13	17.97	11.18	
2025-01-14 01:19:02.37	17.98	11.31	
2025-01-14 01:19:03.61	17.99	11.43	
2025-01-14 01:19:04.85	18.00	11.55	
2025-01-14 01:19:06.09	18.01	11.67	
2025-01-14 01:19:07.32	18.01	11.80	
2025-01-14 01:19:08.55	18.02	11.92	
2025-01-14 01:19:09.79	18.03	12.05	
2025-01-14 01:19:11.03	18.04	12.17	
2025-01-14 01:19:12.26	18.05	12.30	
2025-01-14 01:19:13.49	18.06	12.43	
2025-01-14 01:19:14.72	18.07	12.55	
2025-01-14 01:19:15.95	18.08	12.68	
2025-01-14 01:19:17.18	18.08	12.81	
2025-01-14 01:19:18.42	18.09	12.94	
2025-01-14 01:19:19.65	18.10	13.07	
2025-01-14 01:19:20.89	18.11	13.20	
2025-01-14 01:19:22.11	18.12	13.33	
2025-01-14 01:19:23.35	18.13	13.47	
2025-01-14 01:19:24.58	18.14	13.60	
2025-01-14 01:19:25.81	18.15	13.74	
2025-01-14 01:19:27.04	18.16	13.87	
2025-01-14 01:19:28.27	18.16	14.01	
2025-01-14 01:19:29.51	18.17	14.15	
2025-01-14 01:19:30.74	18.18	14.28	
2025-01-14 01:19:31.97	18.19	14.42	
2025-01-14 01:19:33.20	18.20	14.56	
2025-01-14 01:19:34.44	18.21	14.70	
2025-01-14 01:19:35.68	18.22	14.85	
2025-01-14 01:19:36.91	18.23	14.99	
2025-01-14 01:19:38.15	18.24	15.13	
2025-01-14 01:19:39.38	18.25	15.28	
2025-01-14 01:19:40.62	18.26	15.42	
2025-01-14 01:19:41.85	18.27	15.57	
2025-01-14 01:19:43.09	18.28	15.72	
2025-01-14 01:19:44.32	18.29	15.87	
2025-01-14 01:19:45.56	18.30	16.02	
2025-01-14 01:19:46.78	18.31	16.17	
2025-01-14 01:19:48.01	18.32	16.32	
2025-01-14 01:19:49.25	18.33	16.47	
2025-01-14 01:19:50.48	18.34	16.62	
2025-01-14 01:19:51.71	18.35	16.78	
2025-01-14 01:19:52.94	18.36	16.93	
2025-01-14 01:19:54.17	18.37	17.09	
2025-01-14 01:19:55.40	18.38	17.25	
2025-01-14 01:19:56.65	18.39	17.41	
2025-01-14 01:19:57.90	18.40	17.57	
2025-01-14 01:19:59.13	18.41	17.73	
2025-01-14 01:20:00.37	18.42	17.90	
2025-01-14 01:20:01.60	18.43	18.06	
2025-01-14 01:20:02.83	18.44	18.22	
2025-01-14 01:20:04.06	18.45	18.39	
2025-01-14 01:20:05.29	18.46	18.56	
2025-01-14 01:20:06.52	18.47	18.72	
2025-01-14 01:20:07.76	18.48	18.90	
2025-01-14 01:20:08.99	18.49	19.07	
2025-01-14 01:20:10.21	18.50	19.24	
2025-01-14 01:20:11.45	18.51	19.41	
2025-01-14 01:20:12.68	18.52	19.59	
2025-01-14 01:20:13.91	18.53	19.76	
2025-01-14 01:20:15.14	18.55	19.94	
2025-01-14 01:20:16.37	18.56	20.12	
2025-01-14 01:20:17.61	18.57	20.30	
2025-01-14 01:20:18.83	18.58	20.48	
2025-01-14 01:20:20.06	18.59	20.67	
2025-01-14 01:20:21.30	18.60	20.85	
2025-01-14 01:20:22.55	18.61	21.04	
2025-01-14 01:20:23.78	18.63	21.23	
2025-01-14 01:20:25.01	18.64	21.42	
2025-01-14 01:20:26.24	18.65	21.61	
2025-01-14 01:20:27.47	18.66	21.80	
2025-01-14 01:20:28.70	18.67	22.00	
2025-01-14 01:20:29.93	18.69	22.19	
2025-01-14 01:20:31.16	18.70	22.39	
2025-01-14 01:20:32.40	18.71	22.59	
2025-01-14 01:20:33.64	18.72	22.79	
2025-01-14 01:20:34.87	18.74	23.00	
2025-01-14 01:20:36.12	18.75	23.20	
2025-01-14 01:20:37.35	18.76	23.41	
2025-01-14 01:20:38.59	18.77	23.62	
2025-01-14 01:20:39.84	18.79	23.83	
2025-01-14 01:20:41.07	18.80	24.04	
2025-01-14 01:20:42.32	18.81	24.26	
2025-01-14 01:20:43.56	18.83	24.48	
2025-01-14 01:20:44.79	18.84	24.70	
2025-01-14 01:20:46.02	18.85	24.91	
2025-01-14 01:20:47.27	18.87	25.14	
2025-01-14 01:20:48.50	18.88	25.36	
2025-01-14 01:20:49.73	18.90	25.59	
2025-01-14 01:20:50.97	18.91	25.82	
2025-01-14 01:20:52.20	18.93	26.05	
2025-01-14 01:20:53.43	18.94	26.28	
2025-01-14 01:20:54.67	18.95	26.52	
2025-01-14 01:20:55.90	18.97	26.75	
2025-01-14 01:20:57.12	18.98	26.99	
2025-01-14 01:20:58.35	19.00	27.23	
2025-01-14 01:20:59.58	19.01	27.47	
2025-01-14 01:21:00.83	19.03	27.72	
2025-01-14 01:21:02.06	19.04	27.97	
2025-01-14 01:21:03.29	19.06	28.22	
2025-01-14 01:21:04.53	19.08	28.47	
2025-01-14 01:21:05.77	19.09	28.73	
2025-01-14 01:21:07.00	19.11	28.99	
2025-01-14 01:21:08.23	19.13	29.25	
2025-01-14 01:21:09.46	19.14	29.51	
2025-01-14 01:21:10.70	19.16	29.78	
2025-01-14 01:21:11.93	19.18	30.05	
2025-01-14 01:21:13.16	19.19	30.32	
2025-01-14 01:21:14.39	19.21	30.59	
2025-01-14 01:21:15.62	19.23	30.87	
2025-01-14 01:21:16.85	19.25	31.15	
2025-01-14 01:21:18.08	19.26	31.43	
2025-01-14 01:21:19.31	19.28	31.72	
2025-01-14 01:21:20.54	19.30	32.01	
2025-01-14 01:21:21.77	19.32	32.30	
2025-01-14 01:21:23.01	19.34	32.60	
2025-01-14 01:21:24.25	19.36	32.90	
2025-01-14 01:21:25.48	19.38	33.20	
2025-01-14 01:21:26.71	19.40	33.50	
2025-01-14 01:21:27.94	19.42	33.81	
2025-01-14 01:21:29.17	19.44	34.12	
2025-01-14 01:21:30.40	19.46	34.43	
2025-01-14 01:21:31.63	19.48	34.75	
2025-01-14 01:21:32.86	19.50	35.07	
2025-01-14 01:21:34.09	19.52	35.39	
2025-01-14 01:21:35.32	19.55	35.72	
2025-01-14 01:21:36.56	19.57	36.06	
2025-01-14 01:21:37.79	19.59	36.39	
2025-01-14 01:21:39.02	19.62	36.73	
2025-01-14 01:21:40.25	19.64	37.07	
2025-01-14 01:21:41.48	19.66	37.42	
2025-01-14 01:21:42.71	19.69	37.77	
2025-01-14 01:21:43.95	19.71	38.13	
2025-01-14 01:21:45.19	19.74	38.49	
2025-01-14 01:21:46.42	19.77	38.85	
2025-01-14 01:21:47.66	19.79	39.22	
2025-01-14 01:21:48.90	19.82	39.59	
2025-01-14 01:21:50.13	19.85	39.97	
2025-01-14 01:21:51.36	19.88	40.35	
2025-01-14 01:21:52.59	19.90	40.73	
2025-01-14 01:21:53.81	19.93	41.12	
2025-01-14 01:21:55.04	19.96	41.51	
2025-01-14 01:21:56.27	19.99	41.91	
2025-01-14 01:21:57.50	20.02	42.31	
2025-01-14 01:21:58.73	20.06	42.71	
2025-01-14 01:21:59.96	20.09	43.12	
2025-01-14 01:22:01.20	20.12	43.54	
2025-01-14 01:22:02.43	20.16	43.96	
2025-01-14 01:22:03.68	20.19	44.40	
2025-01-14 01:22:04.92	20.23	44.83	
2025-01-14 01:22:06.15	20.26	45.26	
2025-01-14 01:22:07.38	20.30	45.70	
2025-01-14 01:22:08.61	20.34	46.15	
2025-01-14 01:22:09.84	20.38	46.60	
2025-01-14 01:22:11.07	20.42	47.05	
2025-01-14 01:22:12.30	20.46	47.52	
2025-01-14 01:22:13.54	20.51	47.99	
2025-01-14 01:22:14.77	20.55	48.46	
2025-01-14 01:22:16.00	20.59	48.93	
2025-01-14 01:22:17.23	20.64	49.42	
2025-01-14 01:22:18.46	20.69	49.90	
2025-01-14 01:22:19.68	20.74	50.39	
2025-01-14 01:22:20.91	20.79	50.89	
2025-01-14 01:22:22.15	20.84	51.40	
2025-01-14 01:22:23.38	20.89	51.91	
2025-01-14 01:22:24.61	20.95	52.42	
2025-01-14 01:22:25.85	21.01	52.95	
2025-01-14 01:22:27.08	21.07	53.48	
2025-01-14 01:22:28.32	21.13	54.02	
2025-01-14 01:22:29.55	21.19	54.55	
2025-01-14 01:22:30.78	21.26	55.10	
2025-01-14 01:22:32.01	21.33	55.65	
2025-01-14 01:22:33.23	21.40	56.20	
2025-01-14 01:22:34.46	21.47	56.76	
2025-01-14 01:22:35.70	21.55	57.34	
2025-01-14 01:22:36.93	21.63	57.91	
2025-01-14 01:22:38.16	21.71	58.49	
2025-01-14 01:22:39.40	21.80	59.08	
2025-01-14 01:22:40.64	21.89	59.68	
2025-01-14 01:22:41.86	21.98	60.27	
2025-01-14 01:22:43.09	22.08	60.87	
2025-01-14 01:22:44.32	22.19	61.48	
2025-01-14 01:22:45.55	22.29	62.10	
2025-01-14 01:22:46.78	22.41	62.72	
2025-01-14 01:22:48.00	22.53	63.34	
2025-01-14 01:22:49.23	22.65	63.97	
2025-01-14 01:22:50.46	22.79	64.61	
2025-01-14 01:22:51.71	22.93	65.26	
2025-01-14 01:22:52.94	23.08	65.91	
2025-01-14 01:22:54.17	23.24	66.57	
2025-01-14 01:22:55.40	23.40	67.23	
2025-01-14 01:22:56.63	23.58	67.89	
2025-01-14 01:22:57.86	23.77	68.56	
2025-01-14 01:22:59.09	23.97	69.24	
2025-01-14 01:23:00.33	24.19	69.92	
2025-01-14 01:23:01.56	24.43	70.61	
2025-01-14 01:23:02.79	24.68	71.30	
2025-01-14 01:23:04.02	24.95	71.99	
2025-01-14 01:23:05.26	25.25	72.69	
2025-01-14 01:23:06.49	25.57	73.40	
2025-01-14 01:23:07.72	25.92	74.10	
2025-01-14 01:23:08.95	26.30	74.81	
2025-01-14 01:23:10.18	26.73	75.52	
2025-01-14 01:23:11.41	27.20	76.24	
2025-01-14 01:23:12.64	27.72	76.96	
2025-01-14 01:23:13.88	28.30	77.69	
2025-01-14 01:23:15.14	28.98	78.43	
2025-01-14 01:23:16.38	29.74	79.16	
2025-01-14 01:23:17.60	30.59	79.88	
2025-01-14 01:23:18.84	31.59	80.61	
2025-01-14 01:23:20.08	32.77	81.34	
2025-01-14 01:23:21.31	34.15	82.07	
2025-01-14 01:23:22.54	35.81	82.79	
2025-01-14 01:23:23.77	37.84	83.50	
2025-01-14 01:23:25.00	40.37	84.21	
2025-01-14 01:23:26.23	43.60	84.90	
2025-01-14 01:23:27.46	47.84	85.58	
2025-01-14 01:23:28.71	53.67	86.23	
2025-01-14 01:23:29.95	61.75	86.83	
2025-01-14 01:23:31.18	73.09	87.33	
2025-01-14 01:23:32.41	88.70	87.68	
2025-01-14 01:23:33.64	107.93	87.81	
2025-01-14 01:23:34.87	127.23	87.69	
2025-01-14 01:23:36.12	143.22	87.33	
2025-01-14 01:23:37.34	154.56	86.84	
2025-01-14 01:23:38.57	162.66	86.25	
2025-01-14 01:23:39.82	168.56	85.60	
2025-01-14 01:23:41.05	172.84	84.93	
2025-01-14 01:23:42.29	176.13	84.23	
2025-01-14 01:23:43.52	178.68	83.52	
2025-01-14 01:23:44.75	180.72	82.80	
2025-01-14 01:23:45.97	182.38	82.09	
2025-01-14 01:23:47.21	183.78	81.36	
2025-01-14 01:23:48.44	184.95	80.63	
2025-01-14 01:23:49.67	185.95	79.91	
2025-01-14 01:23:50.90	186.81	79.18	
2025-01-14 01:23:52.15	187.58	78.44	
2025-01-14 01:23:53.38	188.24	77.72	
2025-01-14 01:23:54.61	188.83	76.99	
2025-01-14 01:23:55.85	189.36	76.27	
2025-01-14 01:23:57.09	189.83	75.54	
2025-01-14 01:23:58.31	190.25	74.84	
2025-01-14 01:23:59.54	190.64	74.13	
2025-01-14 01:24:00.77	190.99	73.42	
2025-01-14 01:24:02.01	191.32	72.71	
2025-01-14 01:24:03.24	191.61	72.01	
2025-01-14 01:24:04.49	191.89	71.30	
2025-01-14 01:24:05.72	192.14	70.61	
2025-01-14 01:24:06.95	192.38	69.93	
2025-01-14 01:24:08.18	192.59	69.24	
2025-01-14 01:24:09.41	192.80	68.57	
2025-01-14 01:24:10.64	192.99	67.90	
2025-01-14 01:24:11.88	193.17	67.22	
2025-01-14 01:24:13.10	193.33	66.57	
2025-01-14 01:24:14.35	193.49	65.90	
2025-01-14 01:24:15.58	193.64	65.25	
2025-01-14 01:24:16.80	193.78	64.61	
2025-01-14 01:24:18.04	193.92	63.96	
2025-01-14 01:24:19.27	194.04	63.33	
2025-01-14 01:24:20.51	194.16	62.70	
2025-01-14 01:24:21.75	194.28	62.07	
2025-01-14 01:24:22.99	194.39	61.45	
2025-01-14 01:24:24.23	194.49	60.83	
2025-01-14 01:24:25.48	194.59	60.22	
2025-01-14 01:24:26.72	194.69	59.61	
2025-01-14 01:24:27.96	194.78	59.01	
2025-01-14 01:24:29.18	194.86	58.43	
2025-01-14 01:24:30.42	194.95	57.85	
2025-01-14 01:24:31.64	195.03	57.27	
2025-01-14 01:24:32.87	195.10	56.70	
2025-01-14 01:24:34.10	195.18	56.14	
2025-01-14 01:24:35.33	195.25	55.58	
2025-01-14 01:24:36.57	195.32	55.03	
2025-01-14 01:24:37.79	195.38	54.48	
2025-01-14 01:24:39.02	195.44	53.94	
2025-01-14 01:24:40.25	195.51	53.41	
2025-01-14 01:24:41.49	195.57	52.88	
2025-01-14 01:24:42.72	195.62	52.35	
2025-01-14 01:24:43.95	195.68	51.84	
2025-01-14 01:24:45.18	195.73	51.32	
2025-01-14 01:24:46.43	195.78	50.81	
2025-01-14 01:24:47.66	195.83	50.31	
2025-01-14 01:24:48.89	195.88	49.81	
2025-01-14 01:24:50.13	195.93	49.32	
2025-01-14 01:24:51.36	195.98	48.84	
2025-01-14 01:24:52.59	196.02	48.36	
2025-01-14 01:24:53.83	196.07	47.88	
2025-01-14 01:24:55.06	196.11	47.42	
2025-01-14 01:24:56.29	196.15	46.95	
2025-01-14 01:24:57.53	196.19	46.49	
2025-01-14 01:24:58.76	196.23	46.04	
2025-01-14 01:25:00.01	196.27	45.59	
2025-01-14 01:25:01.24	196.30	45.15	
2025-01-14 01:25:02.47	196.34	44.71	
2025-01-14 01:25:03.70	196.38	44.28	
2025-01-14 01:25:04.93	196.41	43.85	
2025-01-14 01:25:06.16	196.44	43.43	
2025-01-14 01:25:07.39	196.48	43.02	
2025-01-14 01:25:08.63	196.51	42.60	
2025-01-14 01:25:09.86	196.54	42.19	
2025-01-14 01:25:11.09	196.57	41.79	
2025-01-14 01:25:12.32	196.60	41.39	
2025-01-14 01:25:13.56	196.63	41.00	
2025-01-14 01:25:14.80	196.66	40.60	
2025-01-14 01:25:16.03	196.69	40.22	
2025-01-14 01:25:17.26	196.72	39.84	
2025-01-14 01:25:18.49	196.74	39.46	
2025-01-14 01:25:19.73	196.77	39.09	
2025-01-14 01:25:20.95	196.80	38.72	
2025-01-14 01:25:22.19	196.82	38.36	
2025-01-14 01:25:23.42	196.85	38.00	
2025-01-14 01:25:24.65	196.87	37.64	
2025-01-14 01:25:25.89	196.90	37.29	
2025-01-14 01:25:27.14	196.92	36.93	
2025-01-14 01:25:28.37	196.94	36.59	
2025-01-14 01:25:29.61	196.97	36.25	
2025-01-14 01:25:30.86	196.99	35.91	
2025-01-14 01:25:32.09	197.01	35.57	
2025-01-14 01:25:33.33	197.04	35.24	
2025-01-14 01:25:34.56	197.06	34.92	
2025-01-14 01:25:35.79	197.08	34.60	
2025-01-14 01:25:37.02	197.10	34.28	
2025-01-14 01:25:38.27	197.12	33.96	
2025-01-14 01:25:39.50	197.14	33.65	
2025-01-14 01:25:40.73	197.16	33.34	
2025-01-14 01:25:41.97	197.18	33.03	
2025-01-14 01:25:43.23	197.20	32.72	
2025-01-14 01:25:44.47	197.22	32.42	
2025-01-14 01:25:45.70	197.24	32.13	
2025-01-14 01:25:46.93	197.25	31.84	
2025-01-14 01:25:48.16	197.27	31.55	
2025-01-14 01:25:49.41	197.29	31.26	
2025-01-14 01:25:50.64	197.31	30.97	
2025-01-14 01:25:51.88	197.33	30.69	
2025-01-14 01:25:53.11	197.34	30.41	
2025-01-14 01:25:54.34	197.36	30.14	
2025-01-14 01:25:55.59	197.38	29.86	
2025-01-14 01:25:56.82	197.39	29.60	
2025-01-14 01:25:58.05	197.41	29.33	
2025-01-14 01:25:59.30	197.43	29.06	
2025-01-14 01:26:00.55	197.44	28.80	
2025-01-14 01:26:01.78	197.46	28.54	
2025-01-14 01:26:03.03	197.47	28.28	
2025-01-14 01:26:04.26	197.49	28.03	
2025-01-14 01:26:05.49	197.50	27.78	
2025-01-14 01:26:06.72	197.52	27.53	
2025-01-14 01:26:07.94	197.53	27.28	
2025-01-14 01:26:09.17	197.55	27.04	
2025-01-14 01:26:10.41	197.56	26.80	
2025-01-14 01:26:11.64	197.58	26.56	
2025-01-14 01:26:12.88	197.59	26.32	
2025-01-14 01:26:14.11	197.61	26.09	
2025-01-14 01:26:15.34	197.62	25.85	
2025-01-14 01:26:16.57	197.63	25.62	
2025-01-14 01:26:17.80	197.65	25.40	
2025-01-14 01:26:19.05	197.66	25.17	
2025-01-14 01:26:20.28	197.67	24.94	
2025-01-14 01:26:21.51	197.69	24.72	
2025-01-14 01:26:22.74	197.70	24.50	
2025-01-14 01:26:23.98	197.71	24.28	
2025-01-14 01:26:25.21	197.72	24.07	
2025-01-14 01:26:26.45	197.74	23.85	
2025-01-14 01:26:27.67	197.75	23.64	
2025-01-14 01:26:28.91	197.76	23.43	
2025-01-14 01:26:30.14	197.77	23.22	
2025-01-14 01:26:31.37	197.79	23.01	
2025-01-14 01:26:32.60	197.80	22.81	
2025-01-14 01:26:33.84	197.81	22.60	
2025-01-14 01:26:35.07	197.82	22.40	
2025-01-14 01:26:36.30	197.83	22.20	
2025-01-14 01:26:37.54	197.85	22.00	
2025-01-14 01:26:38.77	197.86	21.81	
2025-01-14 01:26:40.00	197.87	21.61	
2025-01-14 01:26:41.23	197.88	21.42	
2025-01-14 01:26:42.46	197.89	21.23	
2025-01-14 01:26:43.70	197.90	21.04	
2025-01-14 01:26:44.93	197.91	20.85	
2025-01-14 01:26:46.16	197.92	20.66	
2025-01-14 01:26:47.38	197.94	20.48	
2025-01-14 01:26:48.61	197.95	20.30	
2025-01-14 01:26:49.84	197.96	20.11	
2025-01-14 01:26:51.07	197.97	19.93	
2025-01-14 01:26:52.30	197.98	19.75	
2025-01-14 01:26:53.54	197.99	19.57	
2025-01-14 01:26:54.77	198.00	19.40	
2025-01-14 01:26:56.00	198.01	19.22	
2025-01-14 01:26:57.23	198.02	19.05	
2025-01-14 01:26:58.47	198.03	18.88	
2025-01-14 01:26:59.70	198.04	18.70	
2025-01-14 01:27:00.93	198.05	18.53	
2025-01-14 01:27:02.16	198.06	18.37	
2025-01-14 01:27:03.39	198.07	18.20	
2025-01-14 01:27:04.63	198.08	18.03	
2025-01-14 01:27:05.85	198.09	17.87	
2025-01-14 01:27:07.08	198.10	17.70	
2025-01-14 01:27:08.31	198.11	17.54	
2025-01-14 01:27:09.55	198.12	17.38	
2025-01-14 01:27:10.78	198.13	17.22	
2025-01-14 01:27:12.01	198.14	17.06	
2025-01-14 01:27:13.25	198.15	16.90	
2025-01-14 01:27:14.48	198.15	16.74	
2025-01-14 01:27:15.71	198.16	16.59	
2025-01-14 01:27:16.94	198.17	16.43	
2025-01-14 01:27:18.17	198.18	16.28	
2025-01-14 01:27:19.40	198.19	16.13	
2025-01-14 01:27:20.65	198.20	15.97	
2025-01-14 01:27:21.88	198.21	15.82	
2025-01-14 01:27:23.11	198.22	15.67	
2025-01-14 01:27:24.34	198.23	15.53	
2025-01-14 01:27:25.57	198.24	15.38	
2025-01-14 01:27:26.82	198.24	15.23	
2025-01-14 01:27:28.04	198.25	15.08	
2025-01-14 01:27:29.28	198.26	14.94	
2025-01-14 01:27:30.51	198.27	14.80	
2025-01-14 01:27:31.74	198.28	14.65	
2025-01-14 01:27:32.97	198.29	14.51	
2025-01-14 01:27:34.21	198.30	14.37	
2025-01-14 01:27:35.44	198.30	14.23	
2025-01-14 01:27:36.68	198.31	14.09	
2025-01-14 01:27:37.92	198.32	13.95	
2025-01-14 01:27:39.15	198.33	13.81	
2025-01-14 01:27:40.39	198.34	13.68	
2025-01-14 01:27:41.62	198.35	13.54	
2025-01-14 01:27:42.85	198.35	13.41	
2025-01-14 01:27:44.08	198.36	13.27	
2025-01-14 01:27:45.31	198.37	13.14	
2025-01-14 01:27:46.54	198.38	13.01	
2025-01-14 01:27:47.77	198.39	12.87	
2025-01-14 01:27:49.01	198.39	12.74	
2025-01-14 01:27:50.24	198.40	12.61	
2025-01-14 01:27:51.48	198.41	12.48	
2025-01-14 01:27:52.71	198.42	12.35	
2025-01-14 01:27:53.94	198.43	12.23	
2025-01-14 01:27:55.17	198.43	12.10	
2025-01-14 01:27:56.40	198.44	11.97	
2025-01-14 01:27:57.63	198.45	11.85	
2025-01-14 01:27:58.86	198.46	11.72	
2025-01-14 01:28:00.09	198.46	11.60	
2025-01-14 01:28:01.32	198.47	11.48	
2025-01-14 01:28:02.55	198.48	11.35	
2025-01-14 01:28:03.78	198.49	11.23	
2025-01-14 01:28:05.02	198.49	11.11	
2025-01-14 01:28:06.25	198.50	10.99	
2025-01-14 01:28:07.48	198.51	10.87	
2025-01-14 01:28:08.71	198.52	10.75	
2025-01-14 01:28:09.95	198.52	10.63	
2025-01-14 01:28:11.17	198.53	10.51	
2025-01-14 01:28:12.40	198.54	10.40	
2025-01-14 01:28:13.63	198.54	10.28	
2025-01-14 01:28:14.86	198.55	10.16	
2025-01-14 01:28:16.11	198.56	10.05	
2025-01-14 01:28:17.34	198.57	9.93	
2025-01-14 01:28:18.57	198.57	9.82	
2025-01-14 01:28:19.80	198.58	9.70	
2025-01-14 01:28:21.03	198.59	9.59	
2025-01-14 01:28:22.26	198.59	9.48	
2025-01-14 01:28:23.49	198.60	9.36	
2025-01-14 01:28:24.72	198.61	9.25	
2025-01-14 01:28:25.97	198.62	9.14	
2025-01-14 01:28:27.20	198.62	9.03	
2025-01-14 01:28:28.43	198.63	8.92	
2025-01-14 01:28:29.66	198.64	8.81	
2025-01-14 01:28:30.89	198.64	8.70	
2025-01-14 01:28:32.12	198.65	8.59	
2025-01-14 01:28:33.35	198.66	8.48	
2025-01-14 01:28:34.58	198.66	8.38	
2025-01-14 01:28:35.82	198.67	8.27	
2025-01-14 01:28:37.05	198.68	8.16	
2025-01-14 01:28:38.28	198.68	8.06	
2025-01-14 01:28:39.50	198.69	7.95	
2025-01-14 01:28:40.75	198.70	7.85	
2025-01-14 01:28:41.99	198.70	7.74	
2025-01-14 01:28:43.22	198.71	7.64	
2025-01-14 01:28:44.46	198.72	7.53	
2025-01-14 01:28:45.69	198.72	7.43	
2025-01-14 01:28:46.91	198.73	7.33	
2025-01-14 01:28:48.14	198.74	7.23	
2025-01-14 01:28:49.37	198.74	7.13	
2025-01-14 01:28:50.61	198.75	7.02	
2025-01-14 01:28:51.84	198.76	6.92	
2025-01-14 01:28:53.07	198.76	6.82	
2025-01-14 01:28:54.30	198.77	6.72	
2025-01-14 01:28:55.53	198.77	6.62	
2025-01-14 01:28:56.78	198.78	6.52	
2025-01-14 01:28:58.01	198.79	6.43	
2025-01-14 01:28:59.25	198.79	6.33	
2025-01-14 01:29:00.47	198.80	6.23	
2025-01-14 01:29:01.70	198.81	6.13	
2025-01-14 01:29:02.93	198.81	6.04	
2025-01-14 01:29:04.16	198.82	5.94	
2025-01-14 01:29:05.40	198.83	5.84	
2025-01-14 01:29:06.64	198.83	5.75	
2025-01-14 01:29:07.87	198.84	5.65	
2025-01-14 01:29:09.10	198.84	5.56	
2025-01-14 01:29:10.35	198.85	5.46	
2025-01-14 01:29:11.57	198.86	5.37	
2025-01-14 01:29:12.80	198.86	5.27	
2025-01-14 01:29:14.03	198.87	5.18	
2025-01-14 01:29:15.28	198.87	5.08	
2025-01-14 01:29:16.52	198.88	4.99	
2025-01-14 01:29:17.75	198.89	4.90	
2025-01-14 01:29:18.98	198.89	4.81	
2025-01-14 01:29:20.20	198.90	4.72	
2025-01-14 01:29:21.44	198.90	4.62	
2025-01-14 01:29:22.67	198.91	4.53	
2025-01-14 01:29:23.90	198.92	4.44	
2025-01-14 01:29:25.15	198.92	4.35	
2025-01-14 01:29:26.38	198.93	4.26	
2025-01-14 01:29:27.61	198.93	4.17	
2025-01-14 01:29:28.84	198.94	4.08	

#Closed at: 2025-01-14 01:29:30