passes_logs/2025/01/14/SPB_Silybum_02/SPB_Silybum_02__20250114_123206_AQUA_rec.log

#Pass ID: 20250114_123206_AQUA
#Satellite: AQUA
#Configuration: AQUA
#Start time: 2025-01-14 12:32:06

#Version: 2.0.20230423
#Station: SPB_Silybum_02
#Location: 30.233357 lon 59.946436 lat
#TLE: 1 27424U 02022A   25013.83544817  .00001692  00000+0  35728-3 0  9991
#TLE: 2 27424  98.3586 330.4889 0001664 112.6336 276.7792 14.60677575207450

#Time	Az	El	Level	Level2	SNR	BER	Gain	Gain2
2025-01-14 12:32:08.71	197.13	4.15	
2025-01-14 12:32:09.94	197.22	4.23	
2025-01-14 12:32:11.19	197.30	4.31	
2025-01-14 12:32:12.42	197.39	4.40	
2025-01-14 12:32:13.65	197.48	4.48	
2025-01-14 12:32:14.88	197.56	4.56	
2025-01-14 12:32:16.11	197.65	4.64	
2025-01-14 12:32:17.34	197.74	4.72	
2025-01-14 12:32:18.57	197.83	4.81	
2025-01-14 12:32:19.80	197.92	4.89	
2025-01-14 12:32:21.03	198.01	4.97	
2025-01-14 12:32:22.26	198.10	5.06	
2025-01-14 12:32:23.49	198.19	5.14	
2025-01-14 12:32:24.72	198.28	5.23	
2025-01-14 12:32:25.95	198.37	5.31	
2025-01-14 12:32:27.18	198.46	5.39	
2025-01-14 12:32:28.42	198.56	5.48	
2025-01-14 12:32:29.65	198.65	5.57	
2025-01-14 12:32:30.88	198.75	5.65	
2025-01-14 12:32:32.12	198.84	5.74	
2025-01-14 12:32:33.35	198.94	5.82	
2025-01-14 12:32:34.58	199.03	5.91	
2025-01-14 12:32:35.81	199.13	6.00	
2025-01-14 12:32:37.05	199.23	6.08	
2025-01-14 12:32:38.27	199.32	6.17	
2025-01-14 12:32:39.51	199.42	6.26	
2025-01-14 12:32:40.74	199.52	6.34	
2025-01-14 12:32:41.97	199.62	6.43	
2025-01-14 12:32:43.20	199.72	6.52	
2025-01-14 12:32:44.43	199.82	6.61	
2025-01-14 12:32:45.67	199.93	6.70	
2025-01-14 12:32:46.90	200.03	6.79	
2025-01-14 12:32:48.13	200.13	6.87	
2025-01-14 12:32:49.36	200.23	6.96	
2025-01-14 12:32:50.59	200.34	7.05	
2025-01-14 12:32:51.82	200.44	7.14	
2025-01-14 12:32:53.05	200.55	7.23	
2025-01-14 12:32:54.28	200.65	7.32	
2025-01-14 12:32:55.51	200.76	7.41	
2025-01-14 12:32:56.74	200.87	7.51	
2025-01-14 12:32:57.97	200.98	7.60	
2025-01-14 12:32:59.22	201.09	7.69	
2025-01-14 12:33:00.46	201.20	7.78	
2025-01-14 12:33:01.71	201.31	7.88	
2025-01-14 12:33:02.95	201.42	7.97	
2025-01-14 12:33:04.17	201.53	8.06	
2025-01-14 12:33:05.41	201.65	8.15	
2025-01-14 12:33:06.64	201.76	8.25	
2025-01-14 12:33:07.87	201.87	8.34	
2025-01-14 12:33:09.10	201.99	8.44	
2025-01-14 12:33:10.33	202.10	8.53	
2025-01-14 12:33:11.56	202.22	8.62	
2025-01-14 12:33:12.80	202.34	8.72	
2025-01-14 12:33:14.04	202.46	8.82	
2025-01-14 12:33:15.28	202.58	8.91	
2025-01-14 12:33:16.51	202.70	9.01	
2025-01-14 12:33:17.75	202.82	9.10	
2025-01-14 12:33:18.98	202.94	9.20	
2025-01-14 12:33:20.21	203.06	9.30	
2025-01-14 12:33:21.44	203.18	9.39	
2025-01-14 12:33:22.67	203.31	9.49	
2025-01-14 12:33:23.90	203.43	9.59	
2025-01-14 12:33:25.14	203.56	9.69	
2025-01-14 12:33:26.36	203.69	9.79	
2025-01-14 12:33:27.61	203.81	9.89	
2025-01-14 12:33:28.84	203.94	9.98	
2025-01-14 12:33:30.10	204.08	10.09	
2025-01-14 12:33:31.34	204.21	10.19	
2025-01-14 12:33:32.56	204.34	10.29	
2025-01-14 12:33:33.80	204.47	10.39	
2025-01-14 12:33:35.03	204.60	10.49	
2025-01-14 12:33:36.26	204.74	10.59	
2025-01-14 12:33:37.49	204.87	10.69	
2025-01-14 12:33:38.73	205.01	10.79	
2025-01-14 12:33:39.97	205.15	10.89	
2025-01-14 12:33:41.20	205.28	11.00	
2025-01-14 12:33:42.44	205.42	11.10	
2025-01-14 12:33:43.67	205.56	11.20	
2025-01-14 12:33:44.90	205.70	11.30	
2025-01-14 12:33:46.14	205.85	11.41	
2025-01-14 12:33:47.37	205.99	11.51	
2025-01-14 12:33:48.60	206.13	11.62	
2025-01-14 12:33:49.83	206.28	11.72	
2025-01-14 12:33:51.07	206.43	11.83	
2025-01-14 12:33:52.30	206.57	11.93	
2025-01-14 12:33:53.53	206.72	12.04	
2025-01-14 12:33:54.77	206.87	12.15	
2025-01-14 12:33:56.01	207.02	12.25	
2025-01-14 12:33:57.24	207.18	12.36	
2025-01-14 12:33:58.47	207.33	12.47	
2025-01-14 12:33:59.70	207.48	12.57	
2025-01-14 12:34:00.94	207.64	12.68	
2025-01-14 12:34:02.17	207.79	12.79	
2025-01-14 12:34:03.41	207.95	12.90	
2025-01-14 12:34:04.65	208.11	13.01	
2025-01-14 12:34:05.88	208.27	13.12	
2025-01-14 12:34:07.11	208.43	13.23	
2025-01-14 12:34:08.35	208.60	13.34	
2025-01-14 12:34:09.58	208.76	13.45	
2025-01-14 12:34:10.82	208.93	13.56	
2025-01-14 12:34:12.05	209.09	13.67	
2025-01-14 12:34:13.30	209.26	13.78	
2025-01-14 12:34:14.53	209.43	13.89	
2025-01-14 12:34:15.77	209.60	14.01	
2025-01-14 12:34:17.00	209.78	14.12	
2025-01-14 12:34:18.23	209.95	14.23	
2025-01-14 12:34:19.46	210.12	14.34	
2025-01-14 12:34:20.70	210.30	14.46	
2025-01-14 12:34:21.93	210.48	14.57	
2025-01-14 12:34:23.16	210.66	14.69	
2025-01-14 12:34:24.39	210.84	14.80	
2025-01-14 12:34:25.63	211.02	14.92	
2025-01-14 12:34:26.87	211.20	15.03	
2025-01-14 12:34:28.10	211.39	15.15	
2025-01-14 12:34:29.33	211.57	15.26	
2025-01-14 12:34:30.58	211.76	15.38	
2025-01-14 12:34:31.81	211.95	15.50	
2025-01-14 12:34:33.04	212.14	15.61	
2025-01-14 12:34:34.27	212.33	15.73	
2025-01-14 12:34:35.51	212.53	15.85	
2025-01-14 12:34:36.75	212.73	15.97	
2025-01-14 12:34:37.98	212.92	16.09	
2025-01-14 12:34:39.21	213.12	16.20	
2025-01-14 12:34:40.44	213.32	16.32	
2025-01-14 12:34:41.68	213.52	16.44	
2025-01-14 12:34:42.91	213.73	16.56	
2025-01-14 12:34:44.15	213.93	16.68	
2025-01-14 12:34:45.39	214.14	16.80	
2025-01-14 12:34:46.62	214.35	16.92	
2025-01-14 12:34:47.85	214.56	17.04	
2025-01-14 12:34:49.09	214.77	17.17	
2025-01-14 12:34:50.33	214.99	17.29	
2025-01-14 12:34:51.56	215.20	17.41	
2025-01-14 12:34:52.80	215.42	17.53	
2025-01-14 12:34:54.03	215.64	17.65	
2025-01-14 12:34:55.26	215.86	17.78	
2025-01-14 12:34:56.49	216.08	17.90	
2025-01-14 12:34:57.72	216.31	18.02	
2025-01-14 12:34:58.97	216.54	18.15	
2025-01-14 12:35:00.20	216.76	18.27	
2025-01-14 12:35:01.43	216.99	18.39	
2025-01-14 12:35:02.66	217.23	18.52	
2025-01-14 12:35:03.89	217.46	18.64	
2025-01-14 12:35:05.12	217.70	18.77	
2025-01-14 12:35:06.36	217.94	18.89	
2025-01-14 12:35:07.59	218.18	19.02	
2025-01-14 12:35:08.82	218.42	19.14	
2025-01-14 12:35:10.05	218.66	19.27	
2025-01-14 12:35:11.29	218.91	19.39	
2025-01-14 12:35:12.53	219.16	19.52	
2025-01-14 12:35:13.75	219.41	19.65	
2025-01-14 12:35:14.98	219.66	19.77	
2025-01-14 12:35:16.21	219.92	19.90	
2025-01-14 12:35:17.44	220.17	20.02	
2025-01-14 12:35:18.67	220.43	20.15	
2025-01-14 12:35:19.90	220.69	20.28	
2025-01-14 12:35:21.13	220.96	20.40	
2025-01-14 12:35:22.36	221.22	20.53	
2025-01-14 12:35:23.59	221.49	20.66	
2025-01-14 12:35:24.82	221.76	20.79	
2025-01-14 12:35:26.07	222.04	20.91	
2025-01-14 12:35:27.32	222.32	21.04	
2025-01-14 12:35:28.54	222.59	21.17	
2025-01-14 12:35:29.77	222.87	21.30	
2025-01-14 12:35:31.01	223.15	21.43	
2025-01-14 12:35:32.24	223.44	21.55	
2025-01-14 12:35:33.47	223.73	21.68	
2025-01-14 12:35:34.71	224.02	21.81	
2025-01-14 12:35:35.94	224.31	21.94	
2025-01-14 12:35:37.17	224.60	22.06	
2025-01-14 12:35:38.40	224.90	22.19	
2025-01-14 12:35:39.64	225.20	22.32	
2025-01-14 12:35:40.87	225.50	22.45	
2025-01-14 12:35:42.10	225.81	22.57	
2025-01-14 12:35:43.34	226.11	22.70	
2025-01-14 12:35:44.59	226.43	22.83	
2025-01-14 12:35:45.82	226.74	22.96	
2025-01-14 12:35:47.06	227.06	23.08	
2025-01-14 12:35:48.29	227.37	23.21	
2025-01-14 12:35:49.54	227.70	23.34	
2025-01-14 12:35:50.77	228.02	23.47	
2025-01-14 12:35:52.00	228.35	23.59	
2025-01-14 12:35:53.23	228.67	23.72	
2025-01-14 12:35:54.47	229.01	23.84	
2025-01-14 12:35:55.70	229.34	23.97	
2025-01-14 12:35:56.93	229.68	24.09	
2025-01-14 12:35:58.17	230.02	24.22	
2025-01-14 12:35:59.39	230.36	24.34	
2025-01-14 12:36:00.62	230.70	24.46	
2025-01-14 12:36:01.85	231.05	24.59	
2025-01-14 12:36:03.08	231.40	24.71	
2025-01-14 12:36:04.33	231.75	24.83	
2025-01-14 12:36:05.56	232.11	24.95	
2025-01-14 12:36:06.79	232.47	25.07	
2025-01-14 12:36:08.02	232.83	25.20	
2025-01-14 12:36:09.25	233.19	25.32	
2025-01-14 12:36:10.49	233.56	25.44	
2025-01-14 12:36:11.72	233.93	25.55	
2025-01-14 12:36:12.95	234.30	25.67	
2025-01-14 12:36:14.18	234.68	25.79	
2025-01-14 12:36:15.41	235.05	25.91	
2025-01-14 12:36:16.64	235.44	26.02	
2025-01-14 12:36:17.88	235.82	26.14	
2025-01-14 12:36:19.11	236.21	26.25	
2025-01-14 12:36:20.34	236.60	26.37	
2025-01-14 12:36:21.58	236.99	26.48	
2025-01-14 12:36:22.81	237.39	26.59	
2025-01-14 12:36:24.04	237.78	26.70	
2025-01-14 12:36:25.26	238.18	26.81	
2025-01-14 12:36:26.50	238.59	26.92	
2025-01-14 12:36:27.73	238.99	27.03	
2025-01-14 12:36:28.96	239.40	27.14	
2025-01-14 12:36:30.19	239.81	27.24	
2025-01-14 12:36:31.44	240.23	27.35	
2025-01-14 12:36:32.68	240.66	27.45	
2025-01-14 12:36:33.91	241.08	27.56	
2025-01-14 12:36:35.14	241.50	27.66	
2025-01-14 12:36:36.38	241.93	27.76	
2025-01-14 12:36:37.61	242.35	27.86	
2025-01-14 12:36:38.84	242.79	27.95	
2025-01-14 12:36:40.07	243.22	28.05	
2025-01-14 12:36:41.30	243.65	28.15	
2025-01-14 12:36:42.53	244.09	28.24	
2025-01-14 12:36:43.76	244.53	28.33	
2025-01-14 12:36:44.99	244.98	28.42	
2025-01-14 12:36:46.22	245.42	28.51	
2025-01-14 12:36:47.46	245.88	28.60	
2025-01-14 12:36:48.69	246.33	28.69	
2025-01-14 12:36:49.93	246.79	28.77	
2025-01-14 12:36:51.16	247.24	28.85	
2025-01-14 12:36:52.39	247.70	28.93	
2025-01-14 12:36:53.62	248.16	29.01	
2025-01-14 12:36:54.86	248.63	29.09	
2025-01-14 12:36:56.09	249.09	29.17	
2025-01-14 12:36:57.32	249.56	29.24	
2025-01-14 12:36:58.55	250.03	29.32	
2025-01-14 12:36:59.79	250.51	29.39	
2025-01-14 12:37:01.01	250.98	29.45	
2025-01-14 12:37:02.25	251.46	29.52	
2025-01-14 12:37:03.48	251.93	29.59	
2025-01-14 12:37:04.72	252.42	29.65	
2025-01-14 12:37:05.95	252.90	29.71	
2025-01-14 12:37:07.19	253.39	29.77	
2025-01-14 12:37:08.43	253.88	29.83	
2025-01-14 12:37:09.65	254.36	29.88	
2025-01-14 12:37:10.89	254.85	29.94	
2025-01-14 12:37:12.12	255.34	29.99	
2025-01-14 12:37:13.36	255.84	30.04	
2025-01-14 12:37:14.58	256.33	30.08	
2025-01-14 12:37:15.81	256.82	30.13	
2025-01-14 12:37:17.05	257.32	30.17	
2025-01-14 12:37:18.28	257.82	30.21	
2025-01-14 12:37:19.52	258.32	30.25	
2025-01-14 12:37:20.75	258.82	30.28	
2025-01-14 12:37:22.00	259.33	30.32	
2025-01-14 12:37:23.23	259.83	30.35	
2025-01-14 12:37:24.46	260.33	30.38	
2025-01-14 12:37:25.69	260.84	30.40	
2025-01-14 12:37:26.92	261.34	30.43	
2025-01-14 12:37:28.15	261.84	30.45	
2025-01-14 12:37:29.39	262.35	30.47	
2025-01-14 12:37:30.62	262.86	30.48	
2025-01-14 12:37:31.86	263.37	30.50	
2025-01-14 12:37:33.09	263.88	30.51	
2025-01-14 12:37:34.32	264.39	30.52	
2025-01-14 12:37:35.55	264.89	30.53	
2025-01-14 12:37:36.79	265.40	30.53	
2025-01-14 12:37:38.02	265.91	30.54	
2025-01-14 12:37:39.25	266.42	30.54	
2025-01-14 12:37:40.49	266.93	30.53	
2025-01-14 12:37:41.72	267.44	30.53	
2025-01-14 12:37:42.98	267.96	30.52	
2025-01-14 12:37:44.21	268.47	30.51	
2025-01-14 12:37:45.45	268.98	30.50	
2025-01-14 12:37:46.68	269.48	30.49	
2025-01-14 12:37:47.91	269.99	30.47	
2025-01-14 12:37:49.14	270.50	30.45	
2025-01-14 12:37:50.37	271.00	30.43	
2025-01-14 12:37:51.61	271.51	30.41	
2025-01-14 12:37:52.84	272.01	30.38	
2025-01-14 12:37:54.07	272.51	30.35	
2025-01-14 12:37:55.30	273.02	30.32	
2025-01-14 12:37:56.54	273.52	30.29	
2025-01-14 12:37:57.77	274.02	30.26	
2025-01-14 12:37:59.00	274.52	30.22	
2025-01-14 12:38:00.23	275.01	30.18	
2025-01-14 12:38:01.46	275.51	30.14	
2025-01-14 12:38:02.69	276.00	30.09	
2025-01-14 12:38:03.94	276.50	30.05	
2025-01-14 12:38:05.17	277.00	30.00	
2025-01-14 12:38:06.40	277.49	29.95	
2025-01-14 12:38:07.63	277.97	29.90	
2025-01-14 12:38:08.86	278.46	29.84	
2025-01-14 12:38:10.11	278.95	29.79	
2025-01-14 12:38:11.34	279.44	29.73	
2025-01-14 12:38:12.57	279.92	29.67	
2025-01-14 12:38:13.80	280.40	29.61	
2025-01-14 12:38:15.05	280.88	29.54	
2025-01-14 12:38:16.28	281.36	29.47	
2025-01-14 12:38:17.51	281.83	29.41	
2025-01-14 12:38:18.74	282.30	29.34	
2025-01-14 12:38:19.98	282.77	29.26	
2025-01-14 12:38:21.22	283.25	29.19	
2025-01-14 12:38:22.46	283.71	29.11	
2025-01-14 12:38:23.69	284.18	29.04	
2025-01-14 12:38:24.92	284.64	28.96	
2025-01-14 12:38:26.14	285.09	28.88	
2025-01-14 12:38:27.38	285.55	28.80	
2025-01-14 12:38:28.61	286.00	28.71	
2025-01-14 12:38:29.85	286.46	28.63	
2025-01-14 12:38:31.08	286.90	28.54	
2025-01-14 12:38:32.31	287.35	28.45	
2025-01-14 12:38:33.54	287.79	28.36	
2025-01-14 12:38:34.77	288.23	28.27	
2025-01-14 12:38:36.00	288.67	28.18	
2025-01-14 12:38:37.23	289.11	28.08	
2025-01-14 12:38:38.46	289.54	27.99	
2025-01-14 12:38:39.69	289.97	27.89	
2025-01-14 12:38:40.93	290.40	27.79	
2025-01-14 12:38:42.16	290.83	27.69	
2025-01-14 12:38:43.39	291.25	27.59	
2025-01-14 12:38:44.62	291.67	27.49	
2025-01-14 12:38:45.85	292.08	27.39	
2025-01-14 12:38:47.09	292.50	27.28	
2025-01-14 12:38:48.32	292.91	27.18	
2025-01-14 12:38:49.55	293.32	27.07	
2025-01-14 12:38:50.79	293.73	26.96	
2025-01-14 12:38:52.01	294.13	26.86	
2025-01-14 12:38:53.25	294.53	26.75	
2025-01-14 12:38:54.47	294.92	26.64	
2025-01-14 12:38:55.70	295.32	26.53	
2025-01-14 12:38:56.94	295.71	26.41	
2025-01-14 12:38:58.17	296.10	26.30	
2025-01-14 12:38:59.41	296.49	26.19	
2025-01-14 12:39:00.64	296.87	26.07	
2025-01-14 12:39:01.87	297.25	25.96	
2025-01-14 12:39:03.12	297.63	25.84	
2025-01-14 12:39:04.35	298.01	25.72	
2025-01-14 12:39:05.58	298.38	25.61	
2025-01-14 12:39:06.81	298.75	25.49	
2025-01-14 12:39:08.05	299.12	25.37	
2025-01-14 12:39:09.29	299.48	25.25	
2025-01-14 12:39:10.54	299.85	25.13	
2025-01-14 12:39:11.75	300.20	25.01	
2025-01-14 12:39:12.99	300.56	24.89	
2025-01-14 12:39:14.22	300.91	24.77	
2025-01-14 12:39:15.44	301.26	24.65	
2025-01-14 12:39:16.66	301.60	24.52	
2025-01-14 12:39:17.88	301.94	24.40	
2025-01-14 12:39:19.11	302.28	24.28	
2025-01-14 12:39:20.32	302.61	24.16	
2025-01-14 12:39:21.54	302.95	24.04	
2025-01-14 12:39:22.76	303.28	23.91	
2025-01-14 12:39:23.99	303.61	23.79	
2025-01-14 12:39:25.26	303.94	23.66	
2025-01-14 12:39:26.47	304.26	23.54	
2025-01-14 12:39:27.69	304.58	23.41	
2025-01-14 12:39:28.97	304.91	23.28	
2025-01-14 12:39:30.24	305.24	23.15	
2025-01-14 12:39:31.50	305.56	23.03	
2025-01-14 12:39:32.72	305.87	22.90	
2025-01-14 12:39:33.94	306.18	22.78	
2025-01-14 12:39:35.17	306.48	22.65	
2025-01-14 12:39:36.40	306.79	22.52	
2025-01-14 12:39:37.63	307.09	22.40	
2025-01-14 12:39:38.86	307.39	22.27	
2025-01-14 12:39:40.09	307.68	22.15	
2025-01-14 12:39:41.33	307.98	22.02	
2025-01-14 12:39:42.55	308.27	21.89	
2025-01-14 12:39:43.82	308.57	21.76	
2025-01-14 12:39:45.04	308.85	21.64	
2025-01-14 12:39:46.30	309.14	21.51	
2025-01-14 12:39:47.52	309.42	21.38	
2025-01-14 12:39:48.76	309.70	21.25	
2025-01-14 12:39:49.99	309.98	21.13	
2025-01-14 12:39:51.23	310.26	21.00	
2025-01-14 12:39:52.47	310.53	20.87	
2025-01-14 12:39:53.71	310.80	20.75	
2025-01-14 12:39:54.95	311.07	20.62	
2025-01-14 12:39:56.19	311.34	20.49	
2025-01-14 12:39:57.42	311.60	20.37	
2025-01-14 12:39:58.67	311.87	20.24	
2025-01-14 12:39:59.90	312.13	20.11	
2025-01-14 12:40:01.13	312.38	19.99	
2025-01-14 12:40:02.37	312.64	19.86	
2025-01-14 12:40:03.61	312.89	19.74	
2025-01-14 12:40:04.84	313.14	19.61	
2025-01-14 12:40:06.08	313.39	19.48	
2025-01-14 12:40:07.31	313.64	19.36	
2025-01-14 12:40:08.55	313.88	19.23	
2025-01-14 12:40:09.78	314.13	19.11	
2025-01-14 12:40:11.02	314.37	18.99	
2025-01-14 12:40:12.25	314.61	18.86	
2025-01-14 12:40:13.50	314.85	18.74	
2025-01-14 12:40:14.73	315.08	18.61	
2025-01-14 12:40:15.96	315.31	18.49	
2025-01-14 12:40:17.20	315.54	18.37	
2025-01-14 12:40:18.43	315.77	18.24	
2025-01-14 12:40:19.67	316.00	18.12	
2025-01-14 12:40:20.91	316.22	18.00	
2025-01-14 12:40:22.16	316.45	17.87	
2025-01-14 12:40:23.39	316.67	17.75	
2025-01-14 12:40:24.62	316.89	17.63	
2025-01-14 12:40:25.85	317.11	17.51	
2025-01-14 12:40:27.09	317.32	17.39	
2025-01-14 12:40:28.32	317.54	17.27	
2025-01-14 12:40:29.55	317.75	17.15	
2025-01-14 12:40:30.78	317.96	17.03	
2025-01-14 12:40:32.01	318.17	16.91	
2025-01-14 12:40:33.23	318.37	16.79	
2025-01-14 12:40:34.47	318.58	16.67	
2025-01-14 12:40:35.70	318.78	16.55	
2025-01-14 12:40:36.93	318.98	16.43	
2025-01-14 12:40:38.16	319.18	16.32	
2025-01-14 12:40:39.40	319.38	16.20	
2025-01-14 12:40:40.63	319.58	16.08	
2025-01-14 12:40:41.86	319.77	15.96	
2025-01-14 12:40:43.08	319.96	15.85	
2025-01-14 12:40:44.31	320.16	15.73	
2025-01-14 12:40:45.55	320.35	15.62	
2025-01-14 12:40:46.78	320.54	15.50	
2025-01-14 12:40:48.01	320.72	15.38	
2025-01-14 12:40:49.24	320.91	15.27	
2025-01-14 12:40:50.47	321.09	15.16	
2025-01-14 12:40:51.70	321.28	15.04	
2025-01-14 12:40:52.95	321.46	14.93	
2025-01-14 12:40:54.18	321.64	14.81	
2025-01-14 12:40:55.42	321.82	14.70	
2025-01-14 12:40:56.65	322.00	14.59	
2025-01-14 12:40:57.90	322.18	14.47	
2025-01-14 12:40:59.13	322.35	14.36	
2025-01-14 12:41:00.36	322.52	14.25	
2025-01-14 12:41:01.61	322.70	14.13	
2025-01-14 12:41:02.86	322.87	14.02	
2025-01-14 12:41:04.09	323.04	13.91	
2025-01-14 12:41:05.32	323.21	13.80	
2025-01-14 12:41:06.55	323.38	13.69	
2025-01-14 12:41:07.78	323.54	13.58	
2025-01-14 12:41:09.01	323.70	13.47	
2025-01-14 12:41:10.26	323.87	13.36	
2025-01-14 12:41:11.49	324.03	13.25	
2025-01-14 12:41:12.72	324.19	13.14	
2025-01-14 12:41:13.95	324.35	13.03	
2025-01-14 12:41:15.18	324.51	12.93	
2025-01-14 12:41:16.41	324.67	12.82	
2025-01-14 12:41:17.65	324.82	12.71	
2025-01-14 12:41:18.88	324.98	12.60	
2025-01-14 12:41:20.11	325.13	12.50	
2025-01-14 12:41:21.35	325.28	12.39	
2025-01-14 12:41:22.58	325.43	12.29	
2025-01-14 12:41:23.81	325.58	12.18	
2025-01-14 12:41:25.05	325.73	12.08	
2025-01-14 12:41:26.29	325.88	11.97	
2025-01-14 12:41:27.53	326.03	11.86	
2025-01-14 12:41:28.78	326.18	11.76	
2025-01-14 12:41:30.02	326.32	11.66	
2025-01-14 12:41:31.25	326.47	11.55	
2025-01-14 12:41:32.48	326.61	11.45	
2025-01-14 12:41:33.71	326.75	11.35	
2025-01-14 12:41:34.94	326.89	11.24	
2025-01-14 12:41:36.17	327.03	11.14	
2025-01-14 12:41:37.42	327.17	11.04	
2025-01-14 12:41:38.67	327.31	10.94	
2025-01-14 12:41:39.90	327.45	10.84	
2025-01-14 12:41:41.13	327.58	10.74	
2025-01-14 12:41:42.36	327.72	10.63	
2025-01-14 12:41:43.59	327.85	10.54	
2025-01-14 12:41:44.82	327.98	10.44	
2025-01-14 12:41:46.05	328.11	10.34	
2025-01-14 12:41:47.29	328.24	10.24	
2025-01-14 12:41:48.52	328.37	10.14	
2025-01-14 12:41:49.75	328.50	10.04	
2025-01-14 12:41:50.98	328.63	9.94	
2025-01-14 12:41:52.21	328.76	9.84	
2025-01-14 12:41:53.43	328.88	9.75	
2025-01-14 12:41:54.66	329.01	9.65	
2025-01-14 12:41:55.90	329.13	9.55	
2025-01-14 12:41:57.13	329.26	9.46	
2025-01-14 12:41:58.37	329.38	9.36	
2025-01-14 12:41:59.60	329.50	9.26	
2025-01-14 12:42:00.84	329.63	9.17	
2025-01-14 12:42:02.07	329.75	9.07	
2025-01-14 12:42:03.31	329.87	8.98	
2025-01-14 12:42:04.56	329.99	8.88	
2025-01-14 12:42:05.79	330.10	8.79	
2025-01-14 12:42:07.02	330.22	8.69	
2025-01-14 12:42:08.25	330.34	8.60	
2025-01-14 12:42:09.48	330.45	8.51	
2025-01-14 12:42:10.71	330.57	8.41	
2025-01-14 12:42:11.95	330.68	8.32	
2025-01-14 12:42:13.18	330.80	8.23	
2025-01-14 12:42:14.41	330.91	8.14	
2025-01-14 12:42:15.65	331.02	8.04	
2025-01-14 12:42:16.89	331.13	7.95	
2025-01-14 12:42:18.12	331.24	7.86	
2025-01-14 12:42:19.35	331.35	7.77	
2025-01-14 12:42:20.59	331.46	7.68	
2025-01-14 12:42:21.81	331.57	7.59	
2025-01-14 12:42:23.05	331.68	7.50	
2025-01-14 12:42:24.28	331.79	7.41	
2025-01-14 12:42:25.51	331.89	7.32	
2025-01-14 12:42:26.74	332.00	7.23	
2025-01-14 12:42:27.97	332.10	7.14	
2025-01-14 12:42:29.21	332.21	7.05	
2025-01-14 12:42:30.44	332.31	6.96	
2025-01-14 12:42:31.67	332.42	6.87	
2025-01-14 12:42:32.89	332.52	6.78	
2025-01-14 12:42:34.12	332.62	6.70	
2025-01-14 12:42:35.35	332.72	6.61	
2025-01-14 12:42:36.59	332.82	6.52	
2025-01-14 12:42:37.83	332.92	6.43	
2025-01-14 12:42:39.06	333.02	6.35	
2025-01-14 12:42:40.31	333.12	6.26	
2025-01-14 12:42:41.55	333.22	6.17	
2025-01-14 12:42:42.78	333.32	6.09	
2025-01-14 12:42:44.01	333.41	6.00	
2025-01-14 12:42:45.24	333.51	5.92	
2025-01-14 12:42:46.47	333.61	5.83	
2025-01-14 12:42:47.70	333.70	5.75	
2025-01-14 12:42:48.94	333.80	5.66	
2025-01-14 12:42:50.17	333.89	5.58	
2025-01-14 12:42:51.42	333.99	5.49	
2025-01-14 12:42:52.65	334.08	5.41	
2025-01-14 12:42:53.88	334.17	5.32	
2025-01-14 12:42:55.11	334.26	5.24	
2025-01-14 12:42:56.34	334.35	5.16	
2025-01-14 12:42:57.57	334.44	5.07	
2025-01-14 12:42:58.81	334.54	4.99	
2025-01-14 12:43:00.04	334.63	4.91	
2025-01-14 12:43:01.27	334.71	4.83	
2025-01-14 12:43:02.50	334.80	4.74	
2025-01-14 12:43:03.75	334.89	4.66	
2025-01-14 12:43:04.97	334.98	4.58	
2025-01-14 12:43:06.21	335.07	4.50	
2025-01-14 12:43:07.44	335.15	4.42	
2025-01-14 12:43:08.67	335.24	4.34	
2025-01-14 12:43:09.91	335.33	4.25	
2025-01-14 12:43:11.14	335.41	4.17	
2025-01-14 12:43:12.37	335.50	4.09	
2025-01-14 12:43:13.60	335.58	4.01	

#Closed at: 2025-01-14 12:43:14