passes_logs/2025/01/14/SPB_Silybum_02/SPB_Silybum_02__20250114_072002_TERRA_rec.log

#Pass ID: 20250114_072002_TERRA
#Satellite: TERRA
#Configuration: TERRA
#Start time: 2025-01-14 07:20:03

#Version: 2.0.20230423
#Station: SPB_Silybum_02
#Location: 30.233357 lon 59.946436 lat
#TLE: 1 25994U 99068A   25013.82437757  .00000752  00000+0  16464-3 0  9992
#TLE: 2 25994  98.0218  76.8921 0003482  75.0849  16.5253 14.60392614333908

#Time	Az	El	Level	Level2	SNR	BER	Gain	Gain2
2025-01-14 07:20:05.23	23.11	4.18	
2025-01-14 07:20:06.46	23.19	4.27	
2025-01-14 07:20:07.69	23.27	4.35	
2025-01-14 07:20:04.36	23.06	4.13	
2025-01-14 07:20:05.59	23.14	4.21	
2025-01-14 07:20:06.82	23.21	4.29	
2025-01-14 07:20:08.06	23.29	4.37	
2025-01-14 07:20:09.29	23.37	4.46	
2025-01-14 07:20:10.51	23.45	4.54	
2025-01-14 07:20:11.75	23.53	4.62	
2025-01-14 07:20:12.98	23.61	4.70	
2025-01-14 07:20:14.23	23.69	4.79	
2025-01-14 07:20:15.46	23.78	4.87	
2025-01-14 07:20:16.70	23.86	4.96	
2025-01-14 07:20:17.93	23.94	5.04	
2025-01-14 07:20:19.17	24.02	5.13	
2025-01-14 07:20:20.40	24.11	5.21	
2025-01-14 07:20:21.63	24.19	5.30	
2025-01-14 07:20:22.86	24.27	5.38	
2025-01-14 07:20:24.09	24.36	5.47	
2025-01-14 07:20:25.32	24.44	5.55	
2025-01-14 07:20:26.56	24.53	5.64	
2025-01-14 07:20:27.79	24.62	5.73	
2025-01-14 07:20:29.03	24.70	5.81	
2025-01-14 07:20:30.27	24.79	5.90	
2025-01-14 07:20:31.51	24.88	5.99	
2025-01-14 07:20:32.74	24.97	6.08	
2025-01-14 07:20:33.98	25.06	6.16	
2025-01-14 07:20:35.21	25.15	6.25	
2025-01-14 07:20:36.44	25.24	6.34	
2025-01-14 07:20:37.67	25.33	6.43	
2025-01-14 07:20:38.90	25.42	6.52	
2025-01-14 07:20:40.13	25.51	6.61	
2025-01-14 07:20:41.37	25.61	6.70	
2025-01-14 07:20:42.60	25.70	6.79	
2025-01-14 07:20:43.83	25.79	6.88	
2025-01-14 07:20:45.06	25.89	6.97	
2025-01-14 07:20:46.30	25.98	7.06	
2025-01-14 07:20:47.53	26.08	7.15	
2025-01-14 07:20:48.76	26.17	7.24	
2025-01-14 07:20:49.99	26.27	7.33	
2025-01-14 07:20:51.22	26.37	7.42	
2025-01-14 07:20:52.45	26.46	7.51	
2025-01-14 07:20:53.69	26.56	7.61	
2025-01-14 07:20:54.92	26.66	7.70	
2025-01-14 07:20:56.15	26.76	7.79	
2025-01-14 07:20:57.38	26.86	7.89	
2025-01-14 07:20:58.62	26.96	7.98	
2025-01-14 07:20:59.85	27.06	8.07	
2025-01-14 07:21:01.09	27.17	8.17	
2025-01-14 07:21:02.32	27.27	8.26	
2025-01-14 07:21:03.55	27.37	8.36	
2025-01-14 07:21:04.78	27.48	8.45	
2025-01-14 07:21:06.02	27.58	8.55	
2025-01-14 07:21:07.27	27.69	8.65	
2025-01-14 07:21:08.51	27.80	8.74	
2025-01-14 07:21:09.74	27.91	8.84	
2025-01-14 07:21:11.00	28.02	8.94	
2025-01-14 07:21:12.23	28.13	9.04	
2025-01-14 07:21:13.47	28.24	9.14	
2025-01-14 07:21:14.70	28.35	9.23	
2025-01-14 07:21:15.94	28.46	9.33	
2025-01-14 07:21:17.17	28.57	9.43	
2025-01-14 07:21:18.41	28.68	9.53	
2025-01-14 07:21:19.65	28.80	9.63	
2025-01-14 07:21:20.89	28.91	9.73	
2025-01-14 07:21:22.12	29.03	9.83	
2025-01-14 07:21:23.35	29.14	9.93	
2025-01-14 07:21:24.58	29.26	10.03	
2025-01-14 07:21:25.81	29.38	10.13	
2025-01-14 07:21:27.04	29.50	10.23	
2025-01-14 07:21:28.29	29.62	10.34	
2025-01-14 07:21:29.52	29.74	10.44	
2025-01-14 07:21:30.75	29.86	10.54	
2025-01-14 07:21:31.99	29.98	10.65	
2025-01-14 07:21:33.22	30.10	10.75	
2025-01-14 07:21:34.45	30.23	10.85	
2025-01-14 07:21:35.68	30.35	10.96	
2025-01-14 07:21:36.91	30.48	11.06	
2025-01-14 07:21:38.14	30.60	11.17	
2025-01-14 07:21:39.37	30.73	11.27	
2025-01-14 07:21:40.60	30.86	11.38	
2025-01-14 07:21:41.84	30.99	11.49	
2025-01-14 07:21:43.08	31.12	11.59	
2025-01-14 07:21:44.31	31.25	11.70	
2025-01-14 07:21:45.54	31.38	11.81	
2025-01-14 07:21:46.77	31.52	11.91	
2025-01-14 07:21:48.02	31.65	12.02	
2025-01-14 07:21:49.25	31.79	12.13	
2025-01-14 07:21:50.48	31.92	12.24	
2025-01-14 07:21:51.72	32.06	12.35	
2025-01-14 07:21:52.95	32.20	12.46	
2025-01-14 07:21:54.18	32.34	12.57	
2025-01-14 07:21:55.41	32.48	12.68	
2025-01-14 07:21:56.64	32.62	12.79	
2025-01-14 07:21:57.87	32.76	12.90	
2025-01-14 07:21:59.10	32.91	13.02	
2025-01-14 07:22:00.34	33.05	13.13	
2025-01-14 07:22:01.57	33.20	13.24	
2025-01-14 07:22:02.80	33.35	13.35	
2025-01-14 07:22:04.03	33.49	13.47	
2025-01-14 07:22:05.26	33.64	13.58	
2025-01-14 07:22:06.49	33.79	13.70	
2025-01-14 07:22:07.72	33.95	13.81	
2025-01-14 07:22:08.95	34.10	13.93	
2025-01-14 07:22:10.18	34.25	14.04	
2025-01-14 07:22:11.41	34.41	14.16	
2025-01-14 07:22:12.65	34.57	14.27	
2025-01-14 07:22:13.88	34.72	14.39	
2025-01-14 07:22:15.11	34.88	14.51	
2025-01-14 07:22:16.34	35.04	14.63	
2025-01-14 07:22:17.57	35.21	14.74	
2025-01-14 07:22:18.81	35.37	14.86	
2025-01-14 07:22:20.06	35.54	14.99	
2025-01-14 07:22:21.29	35.70	15.11	
2025-01-14 07:22:22.52	35.87	15.23	
2025-01-14 07:22:23.75	36.04	15.35	
2025-01-14 07:22:24.98	36.21	15.47	
2025-01-14 07:22:26.22	36.38	15.59	
2025-01-14 07:22:27.46	36.56	15.71	
2025-01-14 07:22:28.69	36.73	15.83	
2025-01-14 07:22:29.92	36.91	15.96	
2025-01-14 07:22:31.16	37.09	16.08	
2025-01-14 07:22:32.39	37.27	16.20	
2025-01-14 07:22:33.63	37.45	16.33	
2025-01-14 07:22:34.86	37.63	16.45	
2025-01-14 07:22:36.09	37.81	16.58	
2025-01-14 07:22:37.32	38.00	16.70	
2025-01-14 07:22:38.55	38.19	16.83	
2025-01-14 07:22:39.78	38.37	16.96	
2025-01-14 07:22:41.01	38.56	17.08	
2025-01-14 07:22:42.24	38.76	17.21	
2025-01-14 07:22:43.48	38.95	17.34	
2025-01-14 07:22:44.71	39.15	17.47	
2025-01-14 07:22:45.94	39.34	17.59	
2025-01-14 07:22:47.17	39.54	17.72	
2025-01-14 07:22:48.40	39.74	17.85	
2025-01-14 07:22:49.63	39.94	17.98	
2025-01-14 07:22:50.86	40.15	18.11	
2025-01-14 07:22:52.09	40.35	18.24	
2025-01-14 07:22:53.32	40.56	18.37	
2025-01-14 07:22:54.55	40.77	18.50	
2025-01-14 07:22:55.78	40.98	18.64	
2025-01-14 07:22:57.01	41.19	18.77	
2025-01-14 07:22:58.25	41.41	18.90	
2025-01-14 07:22:59.48	41.63	19.04	
2025-01-14 07:23:00.71	41.85	19.17	
2025-01-14 07:23:01.94	42.07	19.30	
2025-01-14 07:23:03.18	42.29	19.44	
2025-01-14 07:23:04.43	42.52	19.58	
2025-01-14 07:23:05.66	42.75	19.71	
2025-01-14 07:23:06.89	42.98	19.85	
2025-01-14 07:23:08.12	43.21	19.98	
2025-01-14 07:23:09.36	43.44	20.12	
2025-01-14 07:23:10.59	43.68	20.26	
2025-01-14 07:23:11.82	43.92	20.39	
2025-01-14 07:23:13.05	44.16	20.53	
2025-01-14 07:23:14.28	44.40	20.67	
2025-01-14 07:23:15.51	44.64	20.80	
2025-01-14 07:23:16.74	44.89	20.94	
2025-01-14 07:23:17.99	45.14	21.08	
2025-01-14 07:23:19.23	45.40	21.22	
2025-01-14 07:23:20.46	45.65	21.36	
2025-01-14 07:23:21.69	45.91	21.50	
2025-01-14 07:23:22.92	46.16	21.64	
2025-01-14 07:23:24.16	46.43	21.78	
2025-01-14 07:23:25.41	46.69	21.93	
2025-01-14 07:23:26.64	46.96	22.07	
2025-01-14 07:23:27.87	47.23	22.21	
2025-01-14 07:23:29.12	47.50	22.35	
2025-01-14 07:23:30.36	47.78	22.49	
2025-01-14 07:23:31.61	48.06	22.64	
2025-01-14 07:23:32.84	48.34	22.78	
2025-01-14 07:23:34.07	48.62	22.92	
2025-01-14 07:23:35.30	48.90	23.06	
2025-01-14 07:23:36.54	49.19	23.21	
2025-01-14 07:23:37.77	49.48	23.35	
2025-01-14 07:23:39.00	49.77	23.49	
2025-01-14 07:23:40.23	50.07	23.64	
2025-01-14 07:23:41.46	50.36	23.78	
2025-01-14 07:23:42.69	50.66	23.92	
2025-01-14 07:23:43.92	50.97	24.06	
2025-01-14 07:23:45.15	51.27	24.21	
2025-01-14 07:23:46.39	51.58	24.35	
2025-01-14 07:23:47.63	51.90	24.50	
2025-01-14 07:23:48.88	52.22	24.64	
2025-01-14 07:23:50.11	52.53	24.78	
2025-01-14 07:23:51.34	52.85	24.93	
2025-01-14 07:23:52.57	53.18	25.07	
2025-01-14 07:23:53.80	53.50	25.21	
2025-01-14 07:23:55.03	53.83	25.36	
2025-01-14 07:23:56.26	54.17	25.50	
2025-01-14 07:23:57.50	54.50	25.64	
2025-01-14 07:23:58.74	54.85	25.79	
2025-01-14 07:23:59.97	55.19	25.93	
2025-01-14 07:24:01.20	55.53	26.07	
2025-01-14 07:24:02.43	55.88	26.21	
2025-01-14 07:24:03.66	56.23	26.35	
2025-01-14 07:24:04.90	56.59	26.49	
2025-01-14 07:24:06.12	56.94	26.63	
2025-01-14 07:24:07.36	57.31	26.78	
2025-01-14 07:24:08.59	57.67	26.92	
2025-01-14 07:24:09.82	58.04	27.06	
2025-01-14 07:24:11.05	58.41	27.19	
2025-01-14 07:24:12.28	58.79	27.33	
2025-01-14 07:24:13.53	59.17	27.47	
2025-01-14 07:24:14.75	59.55	27.61	
2025-01-14 07:24:15.99	59.93	27.75	
2025-01-14 07:24:17.22	60.32	27.89	
2025-01-14 07:24:18.45	60.71	28.02	
2025-01-14 07:24:19.68	61.11	28.16	
2025-01-14 07:24:20.92	61.51	28.29	
2025-01-14 07:24:22.15	61.91	28.43	
2025-01-14 07:24:23.39	62.32	28.56	
2025-01-14 07:24:24.62	62.73	28.69	
2025-01-14 07:24:25.86	63.14	28.82	
2025-01-14 07:24:27.08	63.55	28.95	
2025-01-14 07:24:28.31	63.97	29.08	
2025-01-14 07:24:29.54	64.39	29.21	
2025-01-14 07:24:30.77	64.82	29.34	
2025-01-14 07:24:32.00	65.25	29.46	
2025-01-14 07:24:33.24	65.68	29.59	
2025-01-14 07:24:34.48	66.12	29.72	
2025-01-14 07:24:35.72	66.57	29.84	
2025-01-14 07:24:36.95	67.01	29.96	
2025-01-14 07:24:38.18	67.46	30.08	
2025-01-14 07:24:39.42	67.91	30.20	
2025-01-14 07:24:40.65	68.36	30.32	
2025-01-14 07:24:41.88	68.82	30.44	
2025-01-14 07:24:43.13	69.28	30.55	
2025-01-14 07:24:44.37	69.75	30.67	
2025-01-14 07:24:45.60	70.22	30.78	
2025-01-14 07:24:46.83	70.69	30.89	
2025-01-14 07:24:48.06	71.16	31.00	
2025-01-14 07:24:49.29	71.64	31.11	
2025-01-14 07:24:50.53	72.12	31.21	
2025-01-14 07:24:51.76	72.60	31.32	
2025-01-14 07:24:53.01	73.10	31.42	
2025-01-14 07:24:54.24	73.59	31.52	
2025-01-14 07:24:55.47	74.08	31.62	
2025-01-14 07:24:56.70	74.57	31.72	
2025-01-14 07:24:57.94	75.07	31.81	
2025-01-14 07:24:59.17	75.58	31.90	
2025-01-14 07:25:00.40	76.08	31.99	
2025-01-14 07:25:01.63	76.59	32.08	
2025-01-14 07:25:02.86	77.10	32.17	
2025-01-14 07:25:04.09	77.61	32.25	
2025-01-14 07:25:05.32	78.12	32.34	
2025-01-14 07:25:06.55	78.64	32.42	
2025-01-14 07:25:07.78	79.16	32.49	
2025-01-14 07:25:09.01	79.68	32.57	
2025-01-14 07:25:10.26	80.22	32.64	
2025-01-14 07:25:11.49	80.74	32.71	
2025-01-14 07:25:12.72	81.27	32.78	
2025-01-14 07:25:13.95	81.81	32.84	
2025-01-14 07:25:15.18	82.34	32.91	
2025-01-14 07:25:16.41	82.88	32.97	
2025-01-14 07:25:17.64	83.41	33.03	
2025-01-14 07:25:18.87	83.95	33.08	
2025-01-14 07:25:20.10	84.50	33.13	
2025-01-14 07:25:21.35	85.05	33.18	
2025-01-14 07:25:22.58	85.59	33.23	
2025-01-14 07:25:23.81	86.14	33.27	
2025-01-14 07:25:25.05	86.69	33.32	
2025-01-14 07:25:26.28	87.24	33.36	
2025-01-14 07:25:27.53	87.80	33.39	
2025-01-14 07:25:28.76	88.36	33.43	
2025-01-14 07:25:29.99	88.91	33.46	
2025-01-14 07:25:31.22	89.46	33.48	
2025-01-14 07:25:32.46	90.02	33.51	
2025-01-14 07:25:33.69	90.58	33.53	
2025-01-14 07:25:34.94	91.15	33.55	
2025-01-14 07:25:36.16	91.70	33.57	
2025-01-14 07:25:37.41	92.27	33.58	
2025-01-14 07:25:38.64	92.83	33.59	
2025-01-14 07:25:39.87	93.38	33.60	
2025-01-14 07:25:41.10	93.94	33.60	
2025-01-14 07:25:42.33	94.50	33.60	
2025-01-14 07:25:43.56	95.06	33.60	
2025-01-14 07:25:44.79	95.62	33.60	
2025-01-14 07:25:46.02	96.18	33.59	
2025-01-14 07:25:47.27	96.75	33.58	
2025-01-14 07:25:48.50	97.31	33.56	
2025-01-14 07:25:49.73	97.86	33.55	
2025-01-14 07:25:50.96	98.42	33.53	
2025-01-14 07:25:52.19	98.98	33.51	
2025-01-14 07:25:53.42	99.53	33.48	
2025-01-14 07:25:54.67	100.10	33.45	
2025-01-14 07:25:55.90	100.65	33.42	
2025-01-14 07:25:57.14	101.21	33.39	
2025-01-14 07:25:58.37	101.76	33.35	
2025-01-14 07:25:59.60	102.31	33.31	
2025-01-14 07:26:00.83	102.86	33.27	
2025-01-14 07:26:02.06	103.41	33.23	
2025-01-14 07:26:03.29	103.95	33.18	
2025-01-14 07:26:04.53	104.50	33.13	
2025-01-14 07:26:05.76	105.04	33.08	
2025-01-14 07:26:06.99	105.58	33.02	
2025-01-14 07:26:08.22	106.12	32.96	
2025-01-14 07:26:09.45	106.66	32.90	
2025-01-14 07:26:10.68	107.19	32.84	
2025-01-14 07:26:11.91	107.73	32.77	
2025-01-14 07:26:13.14	108.26	32.70	
2025-01-14 07:26:14.37	108.79	32.63	
2025-01-14 07:26:15.60	109.31	32.56	
2025-01-14 07:26:16.83	109.84	32.49	
2025-01-14 07:26:18.06	110.36	32.41	
2025-01-14 07:26:19.30	110.88	32.33	
2025-01-14 07:26:20.53	111.39	32.24	
2025-01-14 07:26:21.76	111.91	32.16	
2025-01-14 07:26:22.99	112.42	32.07	
2025-01-14 07:26:24.21	112.92	31.99	
2025-01-14 07:26:25.46	113.43	31.89	
2025-01-14 07:26:26.69	113.94	31.80	
2025-01-14 07:26:27.92	114.44	31.71	
2025-01-14 07:26:29.17	114.94	31.61	
2025-01-14 07:26:30.40	115.43	31.51	
2025-01-14 07:26:31.63	115.92	31.41	
2025-01-14 07:26:32.86	116.41	31.30	
2025-01-14 07:26:34.09	116.89	31.20	
2025-01-14 07:26:35.32	117.37	31.09	
2025-01-14 07:26:36.55	117.85	30.99	
2025-01-14 07:26:37.80	118.33	30.87	
2025-01-14 07:26:39.03	118.80	30.76	
2025-01-14 07:26:40.26	119.27	30.65	
2025-01-14 07:26:41.49	119.73	30.54	
2025-01-14 07:26:42.72	120.19	30.42	
2025-01-14 07:26:43.95	120.65	30.30	
2025-01-14 07:26:45.18	121.11	30.19	
2025-01-14 07:26:46.41	121.56	30.07	
2025-01-14 07:26:47.65	122.01	29.94	
2025-01-14 07:26:48.89	122.45	29.82	
2025-01-14 07:26:50.14	122.90	29.69	
2025-01-14 07:26:51.36	123.34	29.57	
2025-01-14 07:26:52.59	123.77	29.44	
2025-01-14 07:26:53.83	124.20	29.32	
2025-01-14 07:26:55.06	124.63	29.19	
2025-01-14 07:26:56.29	125.05	29.06	
2025-01-14 07:26:57.52	125.47	28.93	
2025-01-14 07:26:58.77	125.89	28.79	
2025-01-14 07:27:00.00	126.31	28.66	
2025-01-14 07:27:01.25	126.72	28.53	
2025-01-14 07:27:02.47	127.13	28.40	
2025-01-14 07:27:03.70	127.53	28.26	
2025-01-14 07:27:04.94	127.93	28.12	
2025-01-14 07:27:06.19	128.33	27.99	
2025-01-14 07:27:07.43	128.73	27.85	
2025-01-14 07:27:08.67	129.12	27.71	
2025-01-14 07:27:09.89	129.50	27.57	
2025-01-14 07:27:11.14	129.89	27.43	
2025-01-14 07:27:12.38	130.27	27.29	
2025-01-14 07:27:13.61	130.65	27.15	
2025-01-14 07:27:14.85	131.02	27.01	
2025-01-14 07:27:16.08	131.39	26.87	
2025-01-14 07:27:17.32	131.76	26.73	
2025-01-14 07:27:18.55	132.12	26.59	
2025-01-14 07:27:19.79	132.48	26.44	
2025-01-14 07:27:21.01	132.83	26.30	
2025-01-14 07:27:22.26	133.19	26.16	
2025-01-14 07:27:23.49	133.54	26.02	
2025-01-14 07:27:24.73	133.89	25.87	
2025-01-14 07:27:25.96	134.23	25.73	
2025-01-14 07:27:27.19	134.57	25.59	
2025-01-14 07:27:28.42	134.91	25.44	
2025-01-14 07:27:29.65	135.24	25.30	
2025-01-14 07:27:30.88	135.57	25.16	
2025-01-14 07:27:32.11	135.90	25.01	
2025-01-14 07:27:33.35	136.22	24.87	
2025-01-14 07:27:34.59	136.55	24.72	
2025-01-14 07:27:35.83	136.87	24.58	
2025-01-14 07:27:37.05	137.18	24.43	
2025-01-14 07:27:38.28	137.49	24.29	
2025-01-14 07:27:39.52	137.80	24.14	
2025-01-14 07:27:40.75	138.11	24.00	
2025-01-14 07:27:41.98	138.41	23.86	
2025-01-14 07:27:43.21	138.71	23.71	
2025-01-14 07:27:44.44	139.01	23.57	
2025-01-14 07:27:45.67	139.30	23.42	
2025-01-14 07:27:46.91	139.60	23.28	
2025-01-14 07:27:48.13	139.89	23.14	
2025-01-14 07:27:49.38	140.18	22.99	
2025-01-14 07:27:50.61	140.46	22.85	
2025-01-14 07:27:51.85	140.75	22.71	
2025-01-14 07:27:53.08	141.02	22.56	
2025-01-14 07:27:54.31	141.30	22.42	
2025-01-14 07:27:55.54	141.57	22.28	
2025-01-14 07:27:56.77	141.85	22.14	
2025-01-14 07:27:58.01	142.12	21.99	
2025-01-14 07:27:59.24	142.38	21.85	
2025-01-14 07:28:00.48	142.65	21.71	
2025-01-14 07:28:01.71	142.91	21.57	
2025-01-14 07:28:02.94	143.17	21.43	
2025-01-14 07:28:04.17	143.42	21.29	
2025-01-14 07:28:05.42	143.68	21.14	
2025-01-14 07:28:06.66	143.93	21.00	
2025-01-14 07:28:07.89	144.18	20.86	
2025-01-14 07:28:09.13	144.43	20.72	
2025-01-14 07:28:10.36	144.68	20.58	
2025-01-14 07:28:11.59	144.92	20.45	
2025-01-14 07:28:12.82	145.16	20.31	
2025-01-14 07:28:14.05	145.40	20.17	
2025-01-14 07:28:15.29	145.64	20.03	
2025-01-14 07:28:16.52	145.87	19.89	
2025-01-14 07:28:17.76	146.10	19.76	
2025-01-14 07:28:18.99	146.33	19.62	
2025-01-14 07:28:20.22	146.56	19.48	
2025-01-14 07:28:21.46	146.79	19.35	
2025-01-14 07:28:22.68	147.01	19.21	
2025-01-14 07:28:23.92	147.23	19.08	
2025-01-14 07:28:25.15	147.45	18.94	
2025-01-14 07:28:26.38	147.67	18.81	
2025-01-14 07:28:27.62	147.88	18.68	
2025-01-14 07:28:28.85	148.10	18.54	
2025-01-14 07:28:30.08	148.31	18.41	
2025-01-14 07:28:31.32	148.52	18.28	
2025-01-14 07:28:32.58	148.73	18.14	
2025-01-14 07:28:33.81	148.94	18.01	
2025-01-14 07:28:35.06	149.14	17.88	
2025-01-14 07:28:36.29	149.35	17.75	
2025-01-14 07:28:37.52	149.55	17.62	
2025-01-14 07:28:38.76	149.75	17.49	
2025-01-14 07:28:40.00	149.94	17.36	
2025-01-14 07:28:41.23	150.14	17.23	
2025-01-14 07:28:42.46	150.33	17.10	
2025-01-14 07:28:43.69	150.52	16.97	
2025-01-14 07:28:44.92	150.71	16.84	
2025-01-14 07:28:46.15	150.90	16.72	
2025-01-14 07:28:47.38	151.09	16.59	
2025-01-14 07:28:48.62	151.28	16.46	
2025-01-14 07:28:49.85	151.46	16.34	
2025-01-14 07:28:51.09	151.64	16.21	
2025-01-14 07:28:52.32	151.82	16.09	
2025-01-14 07:28:53.55	152.00	15.96	
2025-01-14 07:28:54.79	152.18	15.84	
2025-01-14 07:28:56.03	152.36	15.71	
2025-01-14 07:28:57.26	152.53	15.59	
2025-01-14 07:28:58.49	152.70	15.47	
2025-01-14 07:28:59.73	152.88	15.34	
2025-01-14 07:29:00.96	153.05	15.22	
2025-01-14 07:29:02.19	153.22	15.10	
2025-01-14 07:29:03.42	153.38	14.98	
2025-01-14 07:29:04.65	153.55	14.86	
2025-01-14 07:29:05.89	153.71	14.74	
2025-01-14 07:29:07.12	153.88	14.62	
2025-01-14 07:29:08.35	154.04	14.50	
2025-01-14 07:29:09.59	154.20	14.38	
2025-01-14 07:29:10.83	154.36	14.26	
2025-01-14 07:29:12.06	154.52	14.15	
2025-01-14 07:29:13.31	154.68	14.03	
2025-01-14 07:29:14.54	154.83	13.91	
2025-01-14 07:29:15.77	154.99	13.79	
2025-01-14 07:29:17.00	155.14	13.68	
2025-01-14 07:29:18.23	155.29	13.56	
2025-01-14 07:29:19.46	155.44	13.45	
2025-01-14 07:29:20.69	155.59	13.33	
2025-01-14 07:29:21.92	155.74	13.22	
2025-01-14 07:29:23.15	155.88	13.11	
2025-01-14 07:29:24.38	156.03	12.99	
2025-01-14 07:29:25.62	156.17	12.88	
2025-01-14 07:29:26.86	156.32	12.77	
2025-01-14 07:29:28.09	156.46	12.65	
2025-01-14 07:29:29.33	156.60	12.54	
2025-01-14 07:29:30.55	156.74	12.43	
2025-01-14 07:29:31.80	156.88	12.32	
2025-01-14 07:29:33.03	157.02	12.21	
2025-01-14 07:29:34.26	157.16	12.10	
2025-01-14 07:29:35.49	157.29	11.99	
2025-01-14 07:29:36.73	157.43	11.88	
2025-01-14 07:29:37.98	157.56	11.77	
2025-01-14 07:29:39.21	157.69	11.66	
2025-01-14 07:29:40.45	157.83	11.55	
2025-01-14 07:29:41.68	157.96	11.45	
2025-01-14 07:29:42.91	158.09	11.34	
2025-01-14 07:29:44.14	158.22	11.23	
2025-01-14 07:29:45.37	158.34	11.13	
2025-01-14 07:29:46.61	158.47	11.02	
2025-01-14 07:29:47.84	158.60	10.91	
2025-01-14 07:29:49.07	158.72	10.81	
2025-01-14 07:29:50.30	158.84	10.70	
2025-01-14 07:29:51.54	158.97	10.60	
2025-01-14 07:29:52.78	159.09	10.49	
2025-01-14 07:29:54.03	159.21	10.39	
2025-01-14 07:29:55.25	159.33	10.29	
2025-01-14 07:29:56.48	159.45	10.18	
2025-01-14 07:29:57.71	159.57	10.08	
2025-01-14 07:29:58.94	159.69	9.98	
2025-01-14 07:30:00.19	159.81	9.88	
2025-01-14 07:30:01.42	159.92	9.77	
2025-01-14 07:30:02.67	160.04	9.67	
2025-01-14 07:30:03.91	160.15	9.57	
2025-01-14 07:30:05.14	160.27	9.47	
2025-01-14 07:30:06.38	160.38	9.37	
2025-01-14 07:30:07.62	160.49	9.27	
2025-01-14 07:30:08.85	160.61	9.17	
2025-01-14 07:30:10.09	160.72	9.07	
2025-01-14 07:30:11.33	160.83	8.97	
2025-01-14 07:30:12.56	160.94	8.87	
2025-01-14 07:30:13.79	161.04	8.78	
2025-01-14 07:30:15.02	161.15	8.68	
2025-01-14 07:30:16.25	161.26	8.58	
2025-01-14 07:30:17.48	161.36	8.49	
2025-01-14 07:30:18.71	161.47	8.39	
2025-01-14 07:30:19.94	161.57	8.29	
2025-01-14 07:30:21.17	161.68	8.20	
2025-01-14 07:30:22.41	161.78	8.10	
2025-01-14 07:30:23.64	161.88	8.01	
2025-01-14 07:30:24.87	161.98	7.91	
2025-01-14 07:30:26.11	162.08	7.82	
2025-01-14 07:30:27.35	162.18	7.72	
2025-01-14 07:30:28.59	162.29	7.63	
2025-01-14 07:30:29.83	162.38	7.53	
2025-01-14 07:30:31.06	162.48	7.44	
2025-01-14 07:30:32.30	162.58	7.35	
2025-01-14 07:30:33.53	162.68	7.25	
2025-01-14 07:30:34.76	162.77	7.16	
2025-01-14 07:30:36.00	162.87	7.07	
2025-01-14 07:30:37.23	162.97	6.98	
2025-01-14 07:30:38.46	163.06	6.89	
2025-01-14 07:30:39.69	163.15	6.80	
2025-01-14 07:30:40.92	163.25	6.70	
2025-01-14 07:30:42.16	163.34	6.61	
2025-01-14 07:30:43.39	163.43	6.52	
2025-01-14 07:30:44.62	163.52	6.43	
2025-01-14 07:30:45.85	163.61	6.34	
2025-01-14 07:30:47.08	163.70	6.26	
2025-01-14 07:30:48.31	163.79	6.17	
2025-01-14 07:30:49.54	163.88	6.08	
2025-01-14 07:30:50.79	163.97	5.99	
2025-01-14 07:30:52.02	164.06	5.90	
2025-01-14 07:30:53.25	164.15	5.81	
2025-01-14 07:30:54.50	164.24	5.72	
2025-01-14 07:30:55.74	164.32	5.64	
2025-01-14 07:30:56.97	164.41	5.55	
2025-01-14 07:30:58.20	164.49	5.46	
2025-01-14 07:30:59.44	164.58	5.38	
2025-01-14 07:31:00.69	164.66	5.29	
2025-01-14 07:31:01.92	164.75	5.20	
2025-01-14 07:31:03.15	164.83	5.12	
2025-01-14 07:31:04.38	164.91	5.03	
2025-01-14 07:31:05.61	165.00	4.95	
2025-01-14 07:31:06.85	165.08	4.86	
2025-01-14 07:31:08.08	165.16	4.78	
2025-01-14 07:31:09.31	165.24	4.69	
2025-01-14 07:31:10.54	165.32	4.61	
2025-01-14 07:31:11.77	165.40	4.52	
2025-01-14 07:31:13.01	165.48	4.44	
2025-01-14 07:31:14.25	165.56	4.36	
2025-01-14 07:31:15.49	165.64	4.27	
2025-01-14 07:31:16.72	165.72	4.19	
2025-01-14 07:31:17.94	165.79	4.11	
2025-01-14 07:31:19.17	165.87	4.02	

#Closed at: 2025-01-14 07:31:19