passes_logs/2025/01/14/SPB_Silybum_02/SPB_Silybum_02__20250114_105358_AQUA_rec.log

#Pass ID: 20250114_105358_AQUA
#Satellite: AQUA
#Configuration: AQUA
#Start time: 2025-01-14 10:53:57

#Version: 2.0.20230423
#Station: SPB_Silybum_02
#Location: 30.233357 lon 59.946436 lat
#TLE: 1 27424U 02022A   25013.83544817  .00001692  00000+0  35728-3 0  9991
#TLE: 2 27424  98.3586 330.4889 0001664 112.6336 276.7792 14.60677575207450

#Time	Az	El	Level	Level2	SNR	BER	Gain	Gain2
2025-01-14 10:53:59.84	145.55	4.11	
2025-01-14 10:54:01.06	145.53	4.20	
2025-01-14 10:54:02.29	145.50	4.29	
2025-01-14 10:54:03.51	145.47	4.37	
2025-01-14 10:54:04.74	145.44	4.46	
2025-01-14 10:54:05.97	145.41	4.55	
2025-01-14 10:54:07.20	145.38	4.64	
2025-01-14 10:54:08.43	145.35	4.73	
2025-01-14 10:54:09.66	145.32	4.82	
2025-01-14 10:54:10.89	145.29	4.92	
2025-01-14 10:54:12.12	145.26	5.01	
2025-01-14 10:54:13.35	145.23	5.10	
2025-01-14 10:54:14.58	145.20	5.19	
2025-01-14 10:54:15.82	145.17	5.28	
2025-01-14 10:54:17.05	145.14	5.38	
2025-01-14 10:54:18.29	145.10	5.47	
2025-01-14 10:54:19.52	145.07	5.56	
2025-01-14 10:54:20.75	145.04	5.66	
2025-01-14 10:54:21.98	145.01	5.75	
2025-01-14 10:54:23.21	144.98	5.85	
2025-01-14 10:54:24.44	144.94	5.94	
2025-01-14 10:54:25.68	144.91	6.04	
2025-01-14 10:54:26.91	144.88	6.13	
2025-01-14 10:54:28.14	144.84	6.23	
2025-01-14 10:54:29.37	144.81	6.33	
2025-01-14 10:54:30.60	144.77	6.42	
2025-01-14 10:54:31.83	144.74	6.52	
2025-01-14 10:54:33.06	144.71	6.62	
2025-01-14 10:54:34.29	144.67	6.71	
2025-01-14 10:54:35.52	144.64	6.81	
2025-01-14 10:54:36.75	144.60	6.91	
2025-01-14 10:54:37.98	144.56	7.01	
2025-01-14 10:54:39.21	144.53	7.11	
2025-01-14 10:54:40.44	144.49	7.21	
2025-01-14 10:54:41.68	144.45	7.31	
2025-01-14 10:54:42.91	144.42	7.41	
2025-01-14 10:54:44.14	144.38	7.51	
2025-01-14 10:54:45.37	144.34	7.62	
2025-01-14 10:54:46.60	144.30	7.72	
2025-01-14 10:54:47.83	144.27	7.82	
2025-01-14 10:54:49.06	144.23	7.92	
2025-01-14 10:54:50.29	144.19	8.03	
2025-01-14 10:54:51.53	144.15	8.13	
2025-01-14 10:54:52.76	144.11	8.24	
2025-01-14 10:54:54.00	144.07	8.34	
2025-01-14 10:54:55.23	144.03	8.45	
2025-01-14 10:54:56.46	143.99	8.56	
2025-01-14 10:54:57.69	143.95	8.66	
2025-01-14 10:54:58.93	143.91	8.77	
2025-01-14 10:55:00.16	143.86	8.88	
2025-01-14 10:55:01.40	143.82	8.99	
2025-01-14 10:55:02.63	143.78	9.09	
2025-01-14 10:55:03.86	143.74	9.20	
2025-01-14 10:55:05.09	143.69	9.31	
2025-01-14 10:55:06.32	143.65	9.42	
2025-01-14 10:55:07.55	143.61	9.53	
2025-01-14 10:55:08.78	143.56	9.64	
2025-01-14 10:55:10.02	143.52	9.76	
2025-01-14 10:55:11.25	143.47	9.87	
2025-01-14 10:55:12.48	143.43	9.98	
2025-01-14 10:55:13.71	143.38	10.10	
2025-01-14 10:55:14.95	143.33	10.21	
2025-01-14 10:55:16.18	143.29	10.32	
2025-01-14 10:55:17.41	143.24	10.44	
2025-01-14 10:55:18.64	143.19	10.56	
2025-01-14 10:55:19.87	143.14	10.67	
2025-01-14 10:55:21.11	143.10	10.79	
2025-01-14 10:55:22.34	143.05	10.91	
2025-01-14 10:55:23.57	143.00	11.02	
2025-01-14 10:55:24.81	142.95	11.14	
2025-01-14 10:55:26.03	142.90	11.26	
2025-01-14 10:55:27.27	142.85	11.38	
2025-01-14 10:55:28.49	142.80	11.50	
2025-01-14 10:55:29.74	142.74	11.63	
2025-01-14 10:55:30.97	142.69	11.75	
2025-01-14 10:55:32.22	142.64	11.87	
2025-01-14 10:55:33.45	142.58	11.99	
2025-01-14 10:55:34.68	142.53	12.12	
2025-01-14 10:55:35.94	142.47	12.25	
2025-01-14 10:55:37.17	142.42	12.37	
2025-01-14 10:55:38.41	142.36	12.50	
2025-01-14 10:55:39.65	142.31	12.63	
2025-01-14 10:55:40.87	142.25	12.75	
2025-01-14 10:55:42.10	142.20	12.88	
2025-01-14 10:55:43.35	142.14	13.01	
2025-01-14 10:55:44.60	142.08	13.14	
2025-01-14 10:55:45.82	142.02	13.27	
2025-01-14 10:55:47.06	141.96	13.40	
2025-01-14 10:55:48.29	141.90	13.53	
2025-01-14 10:55:49.52	141.84	13.67	
2025-01-14 10:55:50.75	141.78	13.80	
2025-01-14 10:55:51.98	141.72	13.93	
2025-01-14 10:55:53.22	141.65	14.07	
2025-01-14 10:55:54.45	141.59	14.20	
2025-01-14 10:55:55.68	141.53	14.34	
2025-01-14 10:55:56.93	141.46	14.48	
2025-01-14 10:55:58.16	141.40	14.62	
2025-01-14 10:55:59.39	141.33	14.76	
2025-01-14 10:56:00.62	141.26	14.90	
2025-01-14 10:56:01.85	141.20	15.04	
2025-01-14 10:56:03.09	141.13	15.18	
2025-01-14 10:56:04.32	141.06	15.32	
2025-01-14 10:56:05.55	140.99	15.46	
2025-01-14 10:56:06.78	140.92	15.61	
2025-01-14 10:56:08.01	140.85	15.75	
2025-01-14 10:56:09.24	140.78	15.90	
2025-01-14 10:56:10.49	140.71	16.05	
2025-01-14 10:56:11.72	140.63	16.20	
2025-01-14 10:56:12.95	140.56	16.34	
2025-01-14 10:56:14.18	140.48	16.49	
2025-01-14 10:56:15.41	140.41	16.64	
2025-01-14 10:56:16.64	140.33	16.80	
2025-01-14 10:56:17.88	140.25	16.95	
2025-01-14 10:56:19.11	140.18	17.10	
2025-01-14 10:56:20.34	140.10	17.26	
2025-01-14 10:56:21.57	140.02	17.41	
2025-01-14 10:56:22.82	139.93	17.57	
2025-01-14 10:56:24.05	139.85	17.73	
2025-01-14 10:56:25.28	139.77	17.89	
2025-01-14 10:56:26.51	139.69	18.05	
2025-01-14 10:56:27.74	139.60	18.21	
2025-01-14 10:56:28.98	139.51	18.37	
2025-01-14 10:56:30.21	139.43	18.54	
2025-01-14 10:56:31.44	139.34	18.70	
2025-01-14 10:56:32.67	139.25	18.86	
2025-01-14 10:56:33.90	139.16	19.03	
2025-01-14 10:56:35.13	139.07	19.20	
2025-01-14 10:56:36.37	138.98	19.37	
2025-01-14 10:56:37.60	138.88	19.54	
2025-01-14 10:56:38.84	138.79	19.71	
2025-01-14 10:56:40.09	138.69	19.89	
2025-01-14 10:56:41.32	138.60	20.06	
2025-01-14 10:56:42.55	138.50	20.24	
2025-01-14 10:56:43.78	138.40	20.41	
2025-01-14 10:56:45.01	138.30	20.59	
2025-01-14 10:56:46.24	138.20	20.77	
2025-01-14 10:56:47.48	138.09	20.95	
2025-01-14 10:56:48.71	137.99	21.13	
2025-01-14 10:56:49.96	137.88	21.32	
2025-01-14 10:56:51.19	137.77	21.50	
2025-01-14 10:56:52.44	137.66	21.69	
2025-01-14 10:56:53.66	137.56	21.87	
2025-01-14 10:56:54.90	137.44	22.06	
2025-01-14 10:56:56.13	137.33	22.25	
2025-01-14 10:56:57.37	137.22	22.44	
2025-01-14 10:56:58.60	137.10	22.64	
2025-01-14 10:56:59.83	136.98	22.83	
2025-01-14 10:57:01.08	136.86	23.03	
2025-01-14 10:57:02.31	136.74	23.23	
2025-01-14 10:57:03.54	136.62	23.42	
2025-01-14 10:57:04.77	136.50	23.62	
2025-01-14 10:57:06.01	136.37	23.83	
2025-01-14 10:57:07.24	136.24	24.03	
2025-01-14 10:57:08.49	136.11	24.24	
2025-01-14 10:57:09.73	135.98	24.45	
2025-01-14 10:57:10.96	135.85	24.65	
2025-01-14 10:57:12.20	135.71	24.86	
2025-01-14 10:57:13.43	135.57	25.07	
2025-01-14 10:57:14.66	135.44	25.29	
2025-01-14 10:57:15.89	135.29	25.50	
2025-01-14 10:57:17.13	135.15	25.72	
2025-01-14 10:57:18.36	135.01	25.94	
2025-01-14 10:57:19.59	134.86	26.16	
2025-01-14 10:57:20.82	134.71	26.38	
2025-01-14 10:57:22.06	134.56	26.60	
2025-01-14 10:57:23.29	134.40	26.83	
2025-01-14 10:57:24.53	134.25	27.06	
2025-01-14 10:57:25.76	134.09	27.28	
2025-01-14 10:57:26.99	133.93	27.51	
2025-01-14 10:57:28.22	133.77	27.75	
2025-01-14 10:57:29.46	133.60	27.98	
2025-01-14 10:57:30.69	133.43	28.22	
2025-01-14 10:57:31.92	133.26	28.45	
2025-01-14 10:57:33.15	133.09	28.69	
2025-01-14 10:57:34.40	132.91	28.94	
2025-01-14 10:57:35.63	132.73	29.18	
2025-01-14 10:57:36.88	132.54	29.43	
2025-01-14 10:57:38.11	132.36	29.68	
2025-01-14 10:57:39.34	132.17	29.93	
2025-01-14 10:57:40.57	131.98	30.18	
2025-01-14 10:57:41.81	131.78	30.44	
2025-01-14 10:57:43.04	131.58	30.69	
2025-01-14 10:57:44.27	131.38	30.95	
2025-01-14 10:57:45.50	131.18	31.21	
2025-01-14 10:57:46.75	130.97	31.47	
2025-01-14 10:57:48.00	130.75	31.74	
2025-01-14 10:57:49.23	130.54	32.01	
2025-01-14 10:57:50.46	130.32	32.27	
2025-01-14 10:57:51.69	130.10	32.54	
2025-01-14 10:57:52.94	129.87	32.82	
2025-01-14 10:57:54.17	129.64	33.09	
2025-01-14 10:57:55.40	129.40	33.37	
2025-01-14 10:57:56.64	129.16	33.65	
2025-01-14 10:57:57.87	128.92	33.93	
2025-01-14 10:57:59.12	128.67	34.22	
2025-01-14 10:58:00.36	128.41	34.51	
2025-01-14 10:58:01.61	128.15	34.80	
2025-01-14 10:58:02.84	127.89	35.09	
2025-01-14 10:58:04.07	127.62	35.38	
2025-01-14 10:58:05.31	127.35	35.67	
2025-01-14 10:58:06.55	127.07	35.97	
2025-01-14 10:58:07.78	126.79	36.27	
2025-01-14 10:58:09.01	126.50	36.57	
2025-01-14 10:58:10.26	126.20	36.88	
2025-01-14 10:58:11.49	125.90	37.18	
2025-01-14 10:58:12.73	125.60	37.49	
2025-01-14 10:58:13.96	125.29	37.80	
2025-01-14 10:58:15.20	124.97	38.11	
2025-01-14 10:58:16.43	124.65	38.42	
2025-01-14 10:58:17.67	124.31	38.74	
2025-01-14 10:58:18.90	123.98	39.06	
2025-01-14 10:58:20.13	123.63	39.37	
2025-01-14 10:58:21.36	123.28	39.69	
2025-01-14 10:58:22.60	122.93	40.02	
2025-01-14 10:58:23.83	122.56	40.34	
2025-01-14 10:58:25.06	122.19	40.67	
2025-01-14 10:58:26.30	121.81	41.00	
2025-01-14 10:58:27.54	121.41	41.33	
2025-01-14 10:58:28.78	121.02	41.66	
2025-01-14 10:58:30.01	120.61	41.99	
2025-01-14 10:58:31.24	120.20	42.33	
2025-01-14 10:58:32.47	119.78	42.66	
2025-01-14 10:58:33.70	119.35	43.00	
2025-01-14 10:58:34.93	118.90	43.34	
2025-01-14 10:58:36.16	118.45	43.68	
2025-01-14 10:58:37.41	117.99	44.02	
2025-01-14 10:58:38.64	117.52	44.36	
2025-01-14 10:58:39.87	117.04	44.71	
2025-01-14 10:58:41.11	116.54	45.05	
2025-01-14 10:58:42.34	116.04	45.40	
2025-01-14 10:58:43.57	115.52	45.74	
2025-01-14 10:58:44.82	114.99	46.09	
2025-01-14 10:58:46.05	114.45	46.44	
2025-01-14 10:58:47.29	113.90	46.79	
2025-01-14 10:58:48.52	113.34	47.13	
2025-01-14 10:58:49.77	112.75	47.48	
2025-01-14 10:58:51.00	112.17	47.83	
2025-01-14 10:58:52.23	111.56	48.17	
2025-01-14 10:58:53.46	110.95	48.52	
2025-01-14 10:58:54.69	110.32	48.86	
2025-01-14 10:58:55.92	109.68	49.20	
2025-01-14 10:58:57.16	109.01	49.54	
2025-01-14 10:58:58.39	108.34	49.88	
2025-01-14 10:58:59.63	107.65	50.22	
2025-01-14 10:59:00.87	106.93	50.56	
2025-01-14 10:59:02.11	106.21	50.90	
2025-01-14 10:59:03.34	105.47	51.23	
2025-01-14 10:59:04.58	104.71	51.56	
2025-01-14 10:59:05.82	103.93	51.89	
2025-01-14 10:59:07.06	103.14	52.22	
2025-01-14 10:59:08.30	102.33	52.54	
2025-01-14 10:59:09.53	101.50	52.85	
2025-01-14 10:59:10.76	100.66	53.16	
2025-01-14 10:59:11.99	99.80	53.47	
2025-01-14 10:59:13.22	98.92	53.77	
2025-01-14 10:59:14.46	98.02	54.07	
2025-01-14 10:59:15.69	97.10	54.36	
2025-01-14 10:59:16.94	96.15	54.65	
2025-01-14 10:59:18.17	95.20	54.93	
2025-01-14 10:59:19.40	94.23	55.20	
2025-01-14 10:59:20.63	93.24	55.47	
2025-01-14 10:59:21.86	92.23	55.73	
2025-01-14 10:59:23.10	91.19	55.98	
2025-01-14 10:59:24.34	90.13	56.22	
2025-01-14 10:59:25.57	89.07	56.46	
2025-01-14 10:59:26.80	87.98	56.68	
2025-01-14 10:59:28.04	86.87	56.90	
2025-01-14 10:59:29.27	85.75	57.11	
2025-01-14 10:59:30.50	84.62	57.31	
2025-01-14 10:59:31.73	83.47	57.49	
2025-01-14 10:59:32.96	82.30	57.67	
2025-01-14 10:59:34.21	81.10	57.84	
2025-01-14 10:59:35.44	79.90	57.99	
2025-01-14 10:59:36.68	78.68	58.13	
2025-01-14 10:59:37.91	77.46	58.26	
2025-01-14 10:59:39.15	76.21	58.38	
2025-01-14 10:59:40.38	74.97	58.49	
2025-01-14 10:59:41.61	73.71	58.58	
2025-01-14 10:59:42.84	72.45	58.67	
2025-01-14 10:59:44.07	71.18	58.73	
2025-01-14 10:59:45.30	69.90	58.79	
2025-01-14 10:59:46.54	68.61	58.83	
2025-01-14 10:59:47.77	67.33	58.86	
2025-01-14 10:59:49.01	66.03	58.88	
2025-01-14 10:59:50.24	64.75	58.88	
2025-01-14 10:59:51.47	63.46	58.87	
2025-01-14 10:59:52.70	62.17	58.85	
2025-01-14 10:59:53.93	60.89	58.81	
2025-01-14 10:59:55.17	59.61	58.76	
2025-01-14 10:59:56.40	58.33	58.69	
2025-01-14 10:59:57.64	57.06	58.62	
2025-01-14 10:59:58.87	55.80	58.53	
2025-01-14 11:00:00.10	54.55	58.43	
2025-01-14 11:00:01.33	53.32	58.31	
2025-01-14 11:00:02.58	52.07	58.18	
2025-01-14 11:00:03.82	50.85	58.04	
2025-01-14 11:00:05.05	49.65	57.89	
2025-01-14 11:00:06.27	48.47	57.74	
2025-01-14 11:00:07.50	47.30	57.56	
2025-01-14 11:00:08.74	46.13	57.38	
2025-01-14 11:00:09.97	44.99	57.19	
2025-01-14 11:00:11.20	43.86	56.98	
2025-01-14 11:00:12.45	42.74	56.77	
2025-01-14 11:00:13.68	41.65	56.55	
2025-01-14 11:00:14.91	40.58	56.32	
2025-01-14 11:00:16.14	39.53	56.08	
2025-01-14 11:00:17.39	38.48	55.83	
2025-01-14 11:00:18.62	37.46	55.57	
2025-01-14 11:00:19.88	36.44	55.30	
2025-01-14 11:00:21.11	35.46	55.03	
2025-01-14 11:00:22.34	34.50	54.76	
2025-01-14 11:00:23.57	33.56	54.47	
2025-01-14 11:00:24.81	32.63	54.18	
2025-01-14 11:00:26.05	31.72	53.89	
2025-01-14 11:00:27.28	30.84	53.59	
2025-01-14 11:00:28.51	29.98	53.28	
2025-01-14 11:00:29.74	29.13	52.98	
2025-01-14 11:00:30.98	28.29	52.66	
2025-01-14 11:00:32.21	27.48	52.34	
2025-01-14 11:00:33.46	26.68	52.02	
2025-01-14 11:00:34.69	25.90	51.69	
2025-01-14 11:00:35.92	25.14	51.37	
2025-01-14 11:00:37.15	24.40	51.04	
2025-01-14 11:00:38.37	23.68	50.71	
2025-01-14 11:00:39.61	22.97	50.37	
2025-01-14 11:00:40.84	22.27	50.04	
2025-01-14 11:00:42.07	21.59	49.70	
2025-01-14 11:00:43.30	20.93	49.36	
2025-01-14 11:00:44.53	20.28	49.02	
2025-01-14 11:00:45.76	19.65	48.68	
2025-01-14 11:00:46.99	19.03	48.33	
2025-01-14 11:00:48.23	18.42	47.99	
2025-01-14 11:00:49.46	17.83	47.65	
2025-01-14 11:00:50.69	17.25	47.30	
2025-01-14 11:00:51.95	16.67	46.95	
2025-01-14 11:00:53.18	16.12	46.60	
2025-01-14 11:00:54.41	15.57	46.26	
2025-01-14 11:00:55.64	15.05	45.92	
2025-01-14 11:00:56.88	14.52	45.57	
2025-01-14 11:00:58.11	14.02	45.23	
2025-01-14 11:00:59.35	13.52	44.88	
2025-01-14 11:01:00.59	13.03	44.54	
2025-01-14 11:01:01.83	12.56	44.19	
2025-01-14 11:01:03.06	12.09	43.86	
2025-01-14 11:01:04.30	11.64	43.51	
2025-01-14 11:01:05.54	11.19	43.17	
2025-01-14 11:01:06.77	10.76	42.84	
2025-01-14 11:01:08.00	10.33	42.50	
2025-01-14 11:01:09.23	9.92	42.17	
2025-01-14 11:01:10.47	9.50	41.84	
2025-01-14 11:01:11.70	9.11	41.51	
2025-01-14 11:01:12.93	8.72	41.18	
2025-01-14 11:01:14.17	8.33	40.85	
2025-01-14 11:01:15.41	7.95	40.52	
2025-01-14 11:01:16.65	7.58	40.19	
2025-01-14 11:01:17.88	7.23	39.87	
2025-01-14 11:01:19.11	6.87	39.55	
2025-01-14 11:01:20.35	6.53	39.23	
2025-01-14 11:01:21.59	6.19	38.92	
2025-01-14 11:01:22.81	5.86	38.60	
2025-01-14 11:01:24.04	5.53	38.29	
2025-01-14 11:01:25.29	5.21	37.98	
2025-01-14 11:01:26.52	4.90	37.67	
2025-01-14 11:01:27.75	4.59	37.36	
2025-01-14 11:01:28.99	4.29	37.06	
2025-01-14 11:01:30.22	4.00	36.76	
2025-01-14 11:01:31.47	3.70	36.45	
2025-01-14 11:01:32.70	3.42	36.15	
2025-01-14 11:01:33.95	3.14	35.85	
2025-01-14 11:01:35.18	2.86	35.56	
2025-01-14 11:01:36.41	2.60	35.27	
2025-01-14 11:01:37.65	2.33	34.98	
2025-01-14 11:01:38.88	2.07	34.69	
2025-01-14 11:01:40.11	1.82	34.41	
2025-01-14 11:01:41.35	1.57	34.12	
2025-01-14 11:01:42.58	1.33	33.84	
2025-01-14 11:01:43.81	1.09	33.56	
2025-01-14 11:01:45.04	0.85	33.29	
2025-01-14 11:01:46.27	0.62	33.01	
2025-01-14 11:01:47.50	0.39	32.74	
2025-01-14 11:01:48.74	0.17	32.47	
2025-01-14 11:01:49.97	359.95	32.20	
2025-01-14 11:01:51.20	359.73	31.94	
2025-01-14 11:01:52.44	359.52	31.67	
2025-01-14 11:01:53.68	359.31	31.41	
2025-01-14 11:01:54.91	359.10	31.15	
2025-01-14 11:01:56.14	358.90	30.89	
2025-01-14 11:01:57.37	358.70	30.64	
2025-01-14 11:01:58.60	358.51	30.38	
2025-01-14 11:01:59.83	358.31	30.13	
2025-01-14 11:02:01.08	358.12	29.88	
2025-01-14 11:02:02.31	357.94	29.63	
2025-01-14 11:02:03.54	357.75	29.39	
2025-01-14 11:02:04.79	357.57	29.14	
2025-01-14 11:02:06.03	357.39	28.90	
2025-01-14 11:02:07.27	357.22	28.65	
2025-01-14 11:02:08.49	357.05	28.42	
2025-01-14 11:02:09.73	356.88	28.18	
2025-01-14 11:02:10.96	356.71	27.95	
2025-01-14 11:02:12.20	356.55	27.71	
2025-01-14 11:02:13.43	356.39	27.48	
2025-01-14 11:02:14.66	356.23	27.25	
2025-01-14 11:02:15.90	356.07	27.03	
2025-01-14 11:02:17.13	355.92	26.80	
2025-01-14 11:02:18.38	355.76	26.58	
2025-01-14 11:02:19.61	355.61	26.35	
2025-01-14 11:02:20.84	355.46	26.13	
2025-01-14 11:02:22.10	355.32	25.91	
2025-01-14 11:02:23.34	355.17	25.69	
2025-01-14 11:02:24.57	355.03	25.48	
2025-01-14 11:02:25.80	354.89	25.27	
2025-01-14 11:02:27.03	354.76	25.06	
2025-01-14 11:02:28.25	354.62	24.85	
2025-01-14 11:02:29.48	354.49	24.64	
2025-01-14 11:02:30.71	354.36	24.44	
2025-01-14 11:02:31.95	354.23	24.23	
2025-01-14 11:02:33.19	354.10	24.02	
2025-01-14 11:02:34.42	353.97	23.82	
2025-01-14 11:02:35.65	353.85	23.62	
2025-01-14 11:02:36.89	353.73	23.42	
2025-01-14 11:02:38.12	353.61	23.23	
2025-01-14 11:02:39.35	353.49	23.03	
2025-01-14 11:02:40.58	353.37	22.84	
2025-01-14 11:02:41.81	353.26	22.64	
2025-01-14 11:02:43.05	353.14	22.45	
2025-01-14 11:02:44.28	353.03	22.26	
2025-01-14 11:02:45.51	352.92	22.07	
2025-01-14 11:02:46.75	352.81	21.89	
2025-01-14 11:02:47.98	352.70	21.70	
2025-01-14 11:02:49.21	352.59	21.52	
2025-01-14 11:02:50.44	352.49	21.33	
2025-01-14 11:02:51.68	352.38	21.15	
2025-01-14 11:02:52.91	352.28	20.97	
2025-01-14 11:02:54.16	352.17	20.79	
2025-01-14 11:02:55.39	352.07	20.61	
2025-01-14 11:02:56.62	351.98	20.44	
2025-01-14 11:02:57.87	351.88	20.26	
2025-01-14 11:02:59.12	351.78	20.08	
2025-01-14 11:03:00.35	351.68	19.91	
2025-01-14 11:03:01.58	351.59	19.74	
2025-01-14 11:03:02.82	351.50	19.57	
2025-01-14 11:03:04.05	351.40	19.40	
2025-01-14 11:03:05.30	351.31	19.23	
2025-01-14 11:03:06.53	351.22	19.06	
2025-01-14 11:03:07.77	351.13	18.90	
2025-01-14 11:03:09.00	351.05	18.73	
2025-01-14 11:03:10.25	350.96	18.57	
2025-01-14 11:03:11.48	350.87	18.40	
2025-01-14 11:03:12.71	350.79	18.24	
2025-01-14 11:03:13.95	350.70	18.08	
2025-01-14 11:03:15.20	350.62	17.92	
2025-01-14 11:03:16.43	350.54	17.76	
2025-01-14 11:03:17.67	350.46	17.61	
2025-01-14 11:03:18.90	350.38	17.45	
2025-01-14 11:03:20.13	350.30	17.30	
2025-01-14 11:03:21.38	350.22	17.14	
2025-01-14 11:03:22.62	350.14	16.99	
2025-01-14 11:03:23.88	350.07	16.83	
2025-01-14 11:03:25.12	349.99	16.68	
2025-01-14 11:03:26.35	349.92	16.53	
2025-01-14 11:03:27.58	349.84	16.38	
2025-01-14 11:03:28.81	349.77	16.23	
2025-01-14 11:03:30.04	349.70	16.09	
2025-01-14 11:03:31.27	349.63	15.94	
2025-01-14 11:03:32.50	349.56	15.80	
2025-01-14 11:03:33.73	349.49	15.65	
2025-01-14 11:03:34.98	349.42	15.51	
2025-01-14 11:03:36.21	349.35	15.36	
2025-01-14 11:03:37.45	349.28	15.22	
2025-01-14 11:03:38.69	349.21	15.08	
2025-01-14 11:03:39.93	349.15	14.94	
2025-01-14 11:03:41.16	349.08	14.80	
2025-01-14 11:03:42.38	349.02	14.66	
2025-01-14 11:03:43.62	348.95	14.53	
2025-01-14 11:03:44.85	348.89	14.39	
2025-01-14 11:03:46.07	348.83	14.26	
2025-01-14 11:03:47.31	348.77	14.12	
2025-01-14 11:03:48.54	348.71	13.99	
2025-01-14 11:03:49.77	348.65	13.85	
2025-01-14 11:03:51.00	348.59	13.72	
2025-01-14 11:03:52.24	348.53	13.59	
2025-01-14 11:03:53.47	348.47	13.46	
2025-01-14 11:03:54.70	348.41	13.33	
2025-01-14 11:03:55.93	348.35	13.20	
2025-01-14 11:03:57.16	348.29	13.07	
2025-01-14 11:03:58.40	348.24	12.94	
2025-01-14 11:03:59.63	348.18	12.81	
2025-01-14 11:04:00.86	348.13	12.69	
2025-01-14 11:04:02.09	348.07	12.56	
2025-01-14 11:04:03.32	348.02	12.44	
2025-01-14 11:04:04.55	347.96	12.31	
2025-01-14 11:04:05.78	347.91	12.19	
2025-01-14 11:04:07.02	347.86	12.06	
2025-01-14 11:04:08.25	347.81	11.94	
2025-01-14 11:04:09.49	347.76	11.82	
2025-01-14 11:04:10.74	347.70	11.70	
2025-01-14 11:04:11.97	347.65	11.58	
2025-01-14 11:04:13.20	347.60	11.46	
2025-01-14 11:04:14.43	347.55	11.34	
2025-01-14 11:04:15.66	347.50	11.22	
2025-01-14 11:04:16.90	347.46	11.10	
2025-01-14 11:04:18.13	347.41	10.98	
2025-01-14 11:04:19.37	347.36	10.86	
2025-01-14 11:04:20.61	347.31	10.75	
2025-01-14 11:04:21.83	347.26	10.63	
2025-01-14 11:04:23.06	347.22	10.52	
2025-01-14 11:04:24.30	347.17	10.40	
2025-01-14 11:04:25.52	347.13	10.29	
2025-01-14 11:04:26.75	347.08	10.18	
2025-01-14 11:04:27.98	347.04	10.06	
2025-01-14 11:04:29.21	346.99	9.95	
2025-01-14 11:04:30.45	346.95	9.84	
2025-01-14 11:04:31.68	346.91	9.73	
2025-01-14 11:04:32.91	346.86	9.62	
2025-01-14 11:04:34.14	346.82	9.51	
2025-01-14 11:04:35.37	346.78	9.40	
2025-01-14 11:04:36.60	346.74	9.29	
2025-01-14 11:04:37.83	346.69	9.18	
2025-01-14 11:04:39.06	346.65	9.07	
2025-01-14 11:04:40.30	346.61	8.96	
2025-01-14 11:04:41.53	346.57	8.86	
2025-01-14 11:04:42.76	346.53	8.75	
2025-01-14 11:04:43.99	346.49	8.64	
2025-01-14 11:04:45.23	346.45	8.54	
2025-01-14 11:04:46.46	346.41	8.43	
2025-01-14 11:04:47.69	346.37	8.33	
2025-01-14 11:04:48.92	346.34	8.22	
2025-01-14 11:04:50.15	346.30	8.12	
2025-01-14 11:04:51.38	346.26	8.02	
2025-01-14 11:04:52.62	346.22	7.91	
2025-01-14 11:04:53.85	346.19	7.81	
2025-01-14 11:04:55.08	346.15	7.71	
2025-01-14 11:04:56.31	346.11	7.61	
2025-01-14 11:04:57.55	346.08	7.51	
2025-01-14 11:04:58.78	346.04	7.41	
2025-01-14 11:05:00.03	346.00	7.30	
2025-01-14 11:05:01.26	345.97	7.21	
2025-01-14 11:05:02.49	345.93	7.11	
2025-01-14 11:05:03.72	345.90	7.01	
2025-01-14 11:05:04.96	345.87	6.91	
2025-01-14 11:05:06.19	345.83	6.81	
2025-01-14 11:05:07.42	345.80	6.71	
2025-01-14 11:05:08.65	345.76	6.62	
2025-01-14 11:05:09.88	345.73	6.52	
2025-01-14 11:05:11.11	345.70	6.42	
2025-01-14 11:05:12.34	345.67	6.33	
2025-01-14 11:05:13.57	345.63	6.23	
2025-01-14 11:05:14.81	345.60	6.13	
2025-01-14 11:05:16.05	345.57	6.04	
2025-01-14 11:05:17.28	345.54	5.94	
2025-01-14 11:05:18.51	345.51	5.85	
2025-01-14 11:05:19.74	345.48	5.76	
2025-01-14 11:05:20.97	345.44	5.66	
2025-01-14 11:05:22.20	345.41	5.57	
2025-01-14 11:05:23.44	345.38	5.48	
2025-01-14 11:05:24.67	345.35	5.38	
2025-01-14 11:05:25.92	345.32	5.29	
2025-01-14 11:05:27.16	345.29	5.20	
2025-01-14 11:05:28.40	345.26	5.11	
2025-01-14 11:05:29.63	345.24	5.02	
2025-01-14 11:05:30.86	345.21	4.92	
2025-01-14 11:05:32.10	345.18	4.83	
2025-01-14 11:05:33.33	345.15	4.74	
2025-01-14 11:05:34.56	345.12	4.65	
2025-01-14 11:05:35.80	345.09	4.56	
2025-01-14 11:05:37.03	345.07	4.48	
2025-01-14 11:05:38.26	345.04	4.39	
2025-01-14 11:05:39.50	345.01	4.30	
2025-01-14 11:05:40.74	344.98	4.21	
2025-01-14 11:05:41.97	344.96	4.12	
2025-01-14 11:05:43.20	344.93	4.03	

#Closed at: 2025-01-14 11:05:43