passes_logs/2026/01/07/R3.2S_Murmansk/R3.2S_Murmansk__20260107_013152_NOAA_21_JPSS-2_rec.log

#Pass ID: 20260107_013152_NOAA 21 (JPSS-2)
#Satellite: NOAA 21 (JPSS-2)
#Configuration: NOAA-21
#almurnet v.1.7.20251203
#Start time: 2026-01-07 01:31:53

#Version: 2.2.20231116
#Station: R3.2S_Murmansk
#Location: 33.079688 lon 68.888172 lat
#TLE: 1 54234U 22150A   26005.56767909  .00000152  00000+0  92756-4 0  9990
#TLE: 2 54234  98.7490 306.5820 0001036 340.2747  19.8389 14.19532370163472

#Time	Az	El	Level	Level2	SNR	BER	BlckErr	Temp	State	Recorded	gain1	gain2
2026-01-07 01:31:53.49	28.18	2.03	-57.8	-71.5	3.8	1.49e+00	0	25	0	0	82	16842
2026-01-07 01:31:57.48	28.11	2.29	-57.7	-71.5	3.8	1.49e+00	0	25	104	0	80	18863
2026-01-07 01:32:01.48	28.04	2.54	-57.8	-71.5	3.8	1.49e+00	0	25	104	0	80	18888
2026-01-07 01:32:05.47	27.97	2.80	-57.7	-71.5	3.8	1.49e+00	0	25	104	0	80	18871
2026-01-07 01:32:09.48	27.89	3.06	-57.7	-71.2	3.8	1.49e+00	0	25	104	0	80	18265
2026-01-07 01:32:13.49	27.81	3.33	-57.6	-69.6	3.8	1.49e+00	0	26	104	0	80	15107
2026-01-07 01:32:17.48	27.73	3.59	-57.6	-69.7	3.8	1.49e+00	0	26	104	0	80	15370
2026-01-07 01:32:21.46	27.65	3.86	-57.7	-70.7	3.8	1.49e+00	0	26	104	0	80	17236
2026-01-07 01:32:25.44	27.57	4.13	-57.6	-69.4	3.9	1.48e+00	0	26	104	0	80	14785
2026-01-07 01:32:29.45	27.48	4.41	-56.8	-63.7	6.3	2.48e-01	0	26	0	6291456	80	7631
2026-01-07 01:32:33.44	27.40	4.68	-55.8	-60.4	9.0	1.02e-02	0	26	0	18874368	78	5916
2026-01-07 01:32:37.44	27.31	4.96	-55.6	-60.0	9.4	4.15e-03	0	26	0	31457280	77	5951
2026-01-07 01:32:41.45	27.22	5.24	-56.4	-61.4	8.4	2.77e-01	0	26	0	42991616	79	6253
2026-01-07 01:32:45.44	27.12	5.53	-52.5	-54.5	13.2	0.00e+00	0	26	0	55574528	71	4460
2026-01-07 01:32:49.45	27.03	5.82	-52.4	-54.4	13.3	0.00e+00	0	26	0	68157440	71	4400
2026-01-07 01:32:53.44	26.93	6.11	-52.4	-54.4	13.3	0.00e+00	0	26	0	80740352	71	4424
2026-01-07 01:32:57.43	26.83	6.40	-51.8	-53.5	13.6	0.00e+00	0	26	0	93323264	69	4492
2026-01-07 01:33:01.44	26.73	6.70	-51.6	-53.3	13.8	0.00e+00	0	26	0	105906176	69	4358
2026-01-07 01:33:05.45	26.62	7.00	-51.4	-53.1	13.9	0.00e+00	0	26	0	118489088	69	4273
2026-01-07 01:33:09.45	26.52	7.31	-51.3	-53.0	13.9	0.00e+00	0	27	0	131072000	68	4458
2026-01-07 01:33:13.45	26.41	7.62	-51.0	-52.6	14.1	0.00e+00	0	27	0	143654912	68	4259
2026-01-07 01:33:17.45	26.29	7.93	-51.3	-52.9	13.9	0.00e+00	0	27	0	156237824	68	4408
2026-01-07 01:33:21.44	26.18	8.24	-51.0	-52.5	14.1	0.00e+00	0	27	0	168820736	68	4234
2026-01-07 01:33:25.42	26.06	8.56	-50.9	-52.4	14.2	0.00e+00	0	27	0	180355072	68	4178
2026-01-07 01:33:29.42	25.94	8.89	-50.8	-52.3	14.2	0.00e+00	0	27	0	192937984	68	4145
2026-01-07 01:33:33.42	25.81	9.21	-50.7	-52.2	14.3	0.00e+00	0	27	0	205520896	68	4072
2026-01-07 01:33:37.42	25.69	9.55	-50.8	-52.3	14.2	0.00e+00	0	27	0	218103808	68	4135
2026-01-07 01:33:41.42	25.56	9.88	-50.3	-51.8	14.4	0.00e+00	0	27	0	230686720	67	4107
2026-01-07 01:33:45.42	25.42	10.22	-50.3	-51.7	14.4	0.00e+00	0	27	0	243269632	67	4071
2026-01-07 01:33:49.42	25.28	10.57	-50.1	-51.5	14.4	0.00e+00	0	27	0	255852544	66	4227
2026-01-07 01:33:53.42	25.14	10.92	-50.0	-51.4	14.4	0.00e+00	0	27	0	268435456	66	4178
2026-01-07 01:33:57.43	25.00	11.27	-49.8	-51.2	14.5	0.00e+00	0	27	0	281018368	66	4075
2026-01-07 01:34:01.43	24.85	11.63	-49.8	-51.2	14.5	0.00e+00	0	27	0	293601280	66	4054
2026-01-07 01:34:05.42	24.69	12.00	-49.6	-50.9	14.5	0.00e+00	0	27	0	306184192	65	4175
2026-01-07 01:34:09.43	24.53	12.37	-49.5	-50.8	14.6	0.00e+00	0	27	0	318767104	65	4132
2026-01-07 01:34:13.45	24.37	12.74	-49.4	-50.7	14.6	0.00e+00	0	27	0	331350016	65	4092
2026-01-07 01:34:17.44	24.20	13.13	-49.4	-50.7	14.6	0.00e+00	0	27	0	343932928	65	4095
2026-01-07 01:34:21.44	24.03	13.51	-49.4	-50.7	14.6	0.00e+00	0	27	0	356515840	65	4087
2026-01-07 01:34:25.43	23.86	13.90	-49.5	-50.8	14.6	0.00e+00	0	27	0	368050176	65	4110
2026-01-07 01:34:29.41	23.67	14.30	-49.4	-50.7	14.6	0.00e+00	0	27	0	380633088	65	4057
2026-01-07 01:34:33.41	23.49	14.71	-49.3	-50.6	14.7	0.00e+00	0	27	0	393216000	65	4008
2026-01-07 01:34:37.40	23.29	15.12	-49.4	-50.6	14.7	0.00e+00	0	27	0	405798912	65	4047
2026-01-07 01:34:41.41	23.09	15.54	-49.3	-50.6	14.7	0.00e+00	0	27	0	418381824	65	4023
2026-01-07 01:34:45.41	22.89	15.96	-49.2	-50.5	14.7	0.00e+00	0	27	0	430964736	65	3971
2026-01-07 01:34:49.42	22.68	16.40	-49.2	-50.5	14.7	0.00e+00	0	27	0	443547648	65	3982
2026-01-07 01:34:53.43	22.46	16.84	-49.3	-50.5	14.7	0.00e+00	0	27	0	456130560	65	3999
2026-01-07 01:34:57.43	22.23	17.28	-49.4	-50.7	14.6	0.00e+00	0	27	0	468713472	65	4079
2026-01-07 01:35:01.43	22.00	17.74	-49.6	-51.0	14.5	0.00e+00	0	27	0	481296384	65	4198
2026-01-07 01:35:05.44	21.76	18.20	-49.7	-51.0	14.5	0.00e+00	0	27	0	493879296	65	4217
2026-01-07 01:35:09.44	21.51	18.68	-49.7	-51.0	14.5	0.00e+00	0	27	0	506462208	65	4228
2026-01-07 01:35:13.44	21.25	19.16	-49.6	-50.9	14.6	0.00e+00	0	27	0	517996544	65	4170
2026-01-07 01:35:17.43	20.99	19.64	-49.5	-50.8	14.6	0.00e+00	0	27	0	530579456	65	4116
2026-01-07 01:35:21.42	20.71	20.14	-49.1	-50.4	14.7	0.00e+00	0	27	0	543162368	64	4155
2026-01-07 01:35:25.39	20.43	20.64	-49.0	-50.2	14.7	0.00e+00	0	27	0	555745280	64	4075
2026-01-07 01:35:29.40	20.14	21.16	-48.8	-50.0	14.8	0.00e+00	0	27	0	568328192	64	3991
2026-01-07 01:35:33.39	19.83	21.69	-48.7	-49.9	14.7	0.00e+00	0	27	0	580911104	63	4151
2026-01-07 01:35:37.39	19.52	22.23	-48.6	-49.8	14.8	0.00e+00	0	27	0	593494016	63	4113
2026-01-07 01:35:41.37	19.19	22.77	-48.3	-49.5	14.9	0.00e+00	0	27	0	606076928	63	3972
2026-01-07 01:35:45.38	18.85	23.33	-48.2	-49.3	14.8	0.00e+00	0	27	0	618659840	62	4123
2026-01-07 01:35:49.37	18.50	23.90	-48.3	-49.4	14.8	0.00e+00	0	27	0	630194176	62	4186
2026-01-07 01:35:53.37	18.13	24.48	-48.4	-49.6	14.7	0.00e+00	0	27	0	642777088	62	4259
2026-01-07 01:35:57.38	17.75	25.07	-48.5	-49.7	14.7	0.00e+00	0	27	0	655360000	62	4307
2026-01-07 01:36:01.38	17.35	25.68	-48.7	-49.9	14.6	0.00e+00	0	27	0	667942912	62	4414
2026-01-07 01:36:05.38	16.94	26.30	-49.0	-50.2	14.6	0.00e+00	0	27	0	680525824	63	4303
2026-01-07 01:36:09.39	16.50	26.93	-49.4	-50.6	14.5	0.00e+00	0	27	0	693108736	63	4532
2026-01-07 01:36:13.40	16.06	27.57	-49.6	-50.9	14.5	0.00e+00	0	27	0	705691648	64	4435
2026-01-07 01:36:17.40	15.59	28.23	-49.7	-51.0	14.5	0.00e+00	0	27	0	718274560	64	4469
2026-01-07 01:36:21.41	15.10	28.90	-49.7	-51.0	14.5	0.00e+00	0	27	0	730857472	64	4481
2026-01-07 01:36:25.41	14.59	29.58	-49.4	-50.6	14.6	0.00e+00	0	27	0	743440384	64	4267
2026-01-07 01:36:29.40	14.06	30.28	-49.0	-50.2	14.8	0.00e+00	0	27	0	756023296	64	4057
2026-01-07 01:36:33.40	13.50	30.99	-49.2	-50.4	14.7	0.00e+00	0	27	0	768606208	64	4182
2026-01-07 01:36:37.40	12.92	31.72	-49.2	-50.5	14.7	0.00e+00	0	27	0	781189120	64	4196
2026-01-07 01:36:41.40	12.31	32.46	-49.2	-50.4	14.7	0.00e+00	0	27	0	793772032	64	4168
2026-01-07 01:36:45.38	11.67	33.21	-49.5	-50.8	14.6	0.00e+00	0	27	0	805306368	64	4343
2026-01-07 01:36:49.38	11.00	33.98	-49.9	-51.2	14.4	0.00e+00	0	27	0	817889280	64	4567
2026-01-07 01:36:53.39	10.29	34.77	-50.3	-51.7	14.3	0.00e+00	0	27	0	830472192	65	4550
2026-01-07 01:36:57.37	9.56	35.56	-51.0	-52.4	14.2	0.00e+00	0	27	0	843055104	67	4429
2026-01-07 01:37:01.36	8.78	36.38	-51.1	-52.5	14.2	0.00e+00	0	27	0	855638016	67	4468
2026-01-07 01:37:05.37	7.96	37.21	-50.9	-52.3	14.3	0.00e+00	0	28	0	868220928	67	4355
2026-01-07 01:37:09.36	7.10	38.05	-50.9	-52.4	14.3	0.00e+00	0	28	0	880803840	67	4401
2026-01-07 01:37:13.37	6.18	38.91	-50.9	-52.3	14.3	0.00e+00	0	27	0	893386752	67	4371
2026-01-07 01:37:17.39	5.22	39.78	-50.8	-52.1	14.4	0.00e+00	0	28	0	905969664	67	4291
2026-01-07 01:37:21.38	4.21	40.66	-50.8	-52.2	14.4	0.00e+00	0	27	0	918552576	67	4309
2026-01-07 01:37:25.38	3.13	41.55	-50.6	-51.9	14.5	0.00e+00	0	27	0	931135488	67	4167
2026-01-07 01:37:29.38	2.00	42.45	-51.3	-52.7	14.2	0.00e+00	0	27	0	943718400	67	4587
2026-01-07 01:37:33.36	0.80	43.36	-52.2	-53.7	14.0	0.00e+00	0	27	0	955252736	69	4581
2026-01-07 01:37:37.35	359.53	44.28	-52.1	-53.6	14.0	0.00e+00	0	28	0	967835648	69	4536
2026-01-07 01:37:41.35	358.18	45.20	-52.0	-53.6	14.0	0.00e+00	0	27	0	980418560	69	4508
2026-01-07 01:37:45.36	356.75	46.13	-52.7	-54.4	13.8	0.00e+00	0	27	0	993001472	70	4662
2026-01-07 01:37:49.37	355.23	47.05	-52.2	-53.7	14.0	0.00e+00	0	28	0	1005584384	70	4338
2026-01-07 01:37:53.38	353.61	47.98	-52.4	-54.0	13.9	0.00e+00	0	27	0	1018167296	70	4491
2026-01-07 01:37:57.39	351.89	48.89	-52.6	-54.2	13.8	0.00e+00	0	27	0	1030750208	70	4592
2026-01-07 01:38:01.38	350.08	49.80	-52.0	-53.4	14.2	0.00e+00	0	27	0	1043333120	70	4187
2026-01-07 01:38:05.38	348.15	50.69	-51.4	-52.8	14.4	0.00e+00	0	28	0	1055916032	69	4127
2026-01-07 01:38:09.38	346.11	51.55	-51.1	-52.4	14.4	0.00e+00	0	27	0	1068498944	68	4178
2026-01-07 01:38:13.39	343.94	52.40	-50.8	-52.1	14.5	0.00e+00	0	27	0	1081081856	68	4032
2026-01-07 01:38:17.39	341.65	53.21	-50.3	-51.6	14.6	0.00e+00	0	27	0	1093664768	67	4030
2026-01-07 01:38:21.39	339.22	53.99	-50.6	-52.0	14.5	0.00e+00	0	28	0	1106247680	67	4201
2026-01-07 01:38:25.40	336.66	54.72	-49.9	-51.1	14.7	0.00e+00	0	28	0	1118830592	66	4029
2026-01-07 01:38:29.38	333.99	55.40	-49.5	-50.7	14.7	0.00e+00	0	28	0	1130364928	65	4087
2026-01-07 01:38:33.36	331.20	56.03	-50.1	-51.3	14.5	0.00e+00	0	28	0	1142947840	65	4385
2026-01-07 01:38:37.37	328.25	56.59	-49.4	-50.6	14.8	0.00e+00	0	28	0	1155530752	65	4013
2026-01-07 01:38:41.37	325.21	57.08	-49.3	-50.5	14.7	0.00e+00	0	27	0	1168113664	64	4235
2026-01-07 01:38:45.38	322.05	57.49	-49.7	-50.9	14.6	0.00e+00	0	27	0	1180696576	64	4408
2026-01-07 01:38:49.38	318.81	57.82	-50.0	-51.2	14.5	0.00e+00	0	28	0	1193279488	65	4339
2026-01-07 01:38:53.38	315.50	58.07	-49.1	-50.3	14.8	0.00e+00	0	28	0	1205862400	64	4111
2026-01-07 01:38:57.38	312.14	58.22	-49.0	-50.1	14.9	0.00e+00	0	28	0	1218445312	64	4035
2026-01-07 01:39:01.37	308.76	58.28	-49.7	-51.0	14.6	0.00e+00	0	28	0	1231028224	64	4442
2026-01-07 01:39:05.38	305.36	58.24	-49.5	-50.8	14.6	0.00e+00	0	27	0	1243611136	64	4349
2026-01-07 01:39:09.39	301.98	58.11	-49.4	-50.6	14.8	0.00e+00	0	27	0	1256194048	65	4032
2026-01-07 01:39:13.40	298.65	57.89	-49.6	-50.8	14.6	0.00e+00	0	28	0	1268776960	64	4366
2026-01-07 01:39:17.40	295.38	57.58	-49.6	-50.8	14.7	0.00e+00	0	28	0	1281359872	65	4140
2026-01-07 01:39:21.39	292.21	57.19	-49.4	-50.6	14.8	0.00e+00	0	27	0	1292894208	65	4026
2026-01-07 01:39:25.40	289.13	56.72	-50.0	-51.2	14.6	0.00e+00	0	27	0	1305477120	65	4335
2026-01-07 01:39:29.39	286.17	56.18	-50.1	-51.4	14.5	0.00e+00	0	27	0	1318060032	65	4430
2026-01-07 01:39:33.38	283.33	55.57	-50.3	-51.6	14.6	0.00e+00	0	27	0	1330642944	66	4259
2026-01-07 01:39:37.37	280.61	54.90	-49.6	-50.8	14.7	0.00e+00	0	27	0	1343225856	65	4144
2026-01-07 01:39:41.36	278.03	54.18	-50.0	-51.3	14.5	0.00e+00	0	27	0	1355808768	65	4349
2026-01-07 01:39:45.35	275.58	53.42	-50.1	-51.4	14.5	0.00e+00	0	27	0	1368391680	65	4413
2026-01-07 01:39:49.35	273.25	52.61	-50.6	-51.9	14.5	0.00e+00	0	28	0	1380974592	67	4180
2026-01-07 01:39:53.36	271.04	51.77	-51.3	-52.7	14.2	0.00e+00	0	28	0	1393557504	67	4587
2026-01-07 01:39:57.35	268.97	50.91	-51.0	-52.3	14.4	0.00e+00	0	28	0	1406140416	68	4125
2026-01-07 01:40:01.35	267.01	50.02	-52.2	-53.9	13.8	0.00e+00	0	28	0	1418723328	69	4655
2026-01-07 01:40:05.33	265.17	49.12	-52.2	-53.7	14.1	0.00e+00	0	27	0	1430257664	70	4325
2026-01-07 01:40:09.34	263.42	48.21	-51.7	-53.2	14.1	0.00e+00	0	28	0	1442840576	69	4319
2026-01-07 01:40:13.35	261.78	47.28	-51.1	-52.4	14.3	0.00e+00	0	28	0	1455423488	68	4188
2026-01-07 01:40:17.33	260.24	46.36	-51.7	-53.2	14.1	0.00e+00	0	28	0	1468006400	68	4567
2026-01-07 01:40:21.34	258.78	45.43	-53.5	-55.4	13.4	0.00e+00	0	27	0	1480589312	72	4653
2026-01-07 01:40:25.33	257.41	44.51	-51.9	-53.3	14.2	0.00e+00	0	27	0	1493172224	70	4143
2026-01-07 01:40:29.33	256.11	43.59	-53.0	-54.7	13.7	0.00e+00	0	27	0	1505755136	71	4563
2026-01-07 01:40:33.32	254.89	42.67	-52.1	-53.6	14.1	0.00e+00	0	27	0	1518338048	70	4283
2026-01-07 01:40:37.31	253.74	41.77	-51.0	-52.3	14.5	0.00e+00	0	28	0	1530920960	68	4118
2026-01-07 01:40:41.31	252.65	40.87	-53.5	-55.4	13.3	0.00e+00	0	27	0	1543503872	72	4674
2026-01-07 01:40:45.31	251.62	39.98	-51.9	-53.4	14.2	0.00e+00	0	28	0	1555038208	70	4172
2026-01-07 01:40:49.30	250.64	39.11	-51.2	-52.6	14.4	0.00e+00	0	28	0	1567621120	69	4046
2026-01-07 01:40:53.30	249.72	38.25	-52.8	-54.5	13.7	0.00e+00	0	28	0	1580204032	70	4731
2026-01-07 01:40:57.30	248.84	37.40	-52.1	-53.7	14.0	0.00e+00	0	27	0	1592786944	70	4298
2026-01-07 01:41:01.29	248.01	36.57	-50.8	-52.2	14.5	0.00e+00	0	28	0	1605369856	68	4072
2026-01-07 01:41:05.32	247.21	35.74	-50.9	-52.2	14.5	0.00e+00	0	27	0	1617952768	68	4087
2026-01-07 01:41:09.31	246.46	34.94	-49.9	-51.2	14.7	0.00e+00	0	28	0	1630535680	66	4067
2026-01-07 01:41:13.31	245.74	34.14	-50.4	-51.8	14.4	0.00e+00	0	28	0	1643118592	66	4356
2026-01-07 01:41:17.32	245.06	33.37	-50.4	-51.7	14.4	0.00e+00	0	28	0	1655701504	66	4306
2026-01-07 01:41:21.34	244.41	32.60	-50.2	-51.5	14.5	0.00e+00	0	28	0	1668284416	66	4234
2026-01-07 01:41:25.35	243.79	31.85	-49.8	-51.0	14.7	0.00e+00	0	27	0	1680867328	66	3995
2026-01-07 01:41:29.34	243.20	31.12	-49.1	-50.3	14.7	0.00e+00	0	28	0	1693450240	64	4130
2026-01-07 01:41:33.34	242.63	30.41	-49.1	-50.3	14.7	0.00e+00	0	28	0	1706033152	64	4108
2026-01-07 01:41:37.33	242.09	29.70	-49.9	-51.2	14.4	0.00e+00	0	28	0	1717567488	64	4591
2026-01-07 01:41:41.33	241.57	29.01	-50.0	-51.3	14.5	0.00e+00	0	28	0	1730150400	65	4364
2026-01-07 01:41:45.32	241.08	28.34	-49.5	-50.7	14.7	0.00e+00	0	28	0	1742733312	65	4076
2026-01-07 01:41:49.31	240.61	27.68	-49.0	-50.2	14.8	0.00e+00	0	27	0	1755316224	64	4073
2026-01-07 01:41:53.33	240.15	27.03	-48.9	-50.1	14.8	0.00e+00	0	27	0	1767899136	64	4041
2026-01-07 01:41:57.32	239.71	26.40	-48.9	-50.1	14.8	0.00e+00	0	28	0	1780482048	64	4026
2026-01-07 01:42:01.32	239.29	25.78	-49.2	-50.4	14.7	0.00e+00	0	28	0	1793064960	64	4181
2026-01-07 01:42:05.32	238.89	25.17	-49.1	-50.3	14.7	0.00e+00	0	28	0	1805647872	64	4131
2026-01-07 01:42:09.33	238.50	24.57	-49.2	-50.5	14.7	0.00e+00	0	28	0	1818230784	64	4205
2026-01-07 01:42:13.33	238.13	23.98	-49.2	-50.5	14.6	0.00e+00	0	28	0	1830813696	64	4207
2026-01-07 01:42:17.31	237.77	23.41	-49.0	-50.2	14.7	0.00e+00	0	28	0	1843396608	64	4093
2026-01-07 01:42:21.31	237.43	22.85	-49.0	-50.3	14.7	0.00e+00	0	27	0	1855979520	64	4104
2026-01-07 01:42:25.31	237.10	22.30	-49.1	-50.4	14.7	0.00e+00	0	27	0	1868562432	64	4156
2026-01-07 01:42:29.31	236.78	21.76	-49.0	-50.2	14.8	0.00e+00	0	28	0	1880096768	64	4059
2026-01-07 01:42:33.31	236.47	21.22	-48.8	-50.0	14.8	0.00e+00	0	27	0	1892679680	64	3959
2026-01-07 01:42:37.30	236.17	20.71	-48.8	-50.0	14.8	0.00e+00	0	28	0	1905262592	64	3968
2026-01-07 01:42:41.29	235.88	20.20	-49.0	-50.2	14.7	0.00e+00	0	28	0	1917845504	64	4075
2026-01-07 01:42:45.29	235.60	19.69	-49.1	-50.4	14.7	0.00e+00	0	27	0	1930428416	64	4159
2026-01-07 01:42:49.29	235.33	19.20	-49.2	-50.5	14.6	0.00e+00	0	28	0	1943011328	64	4205
2026-01-07 01:42:53.29	235.07	18.72	-49.2	-50.5	14.6	0.00e+00	0	28	0	1955594240	64	4209
2026-01-07 01:42:57.32	234.82	18.24	-49.2	-50.4	14.6	0.00e+00	0	28	0	1968177152	64	4173
2026-01-07 01:43:01.32	234.57	17.77	-49.2	-50.4	14.6	0.00e+00	0	27	0	1980760064	64	4173
2026-01-07 01:43:05.33	234.33	17.31	-49.1	-50.4	14.7	0.00e+00	0	27	0	1993342976	64	4149
2026-01-07 01:43:09.32	234.11	16.86	-49.3	-50.5	14.6	0.00e+00	0	27	0	2005925888	64	4236
2026-01-07 01:43:13.32	233.88	16.42	-49.5	-50.8	14.5	0.00e+00	0	28	0	2018508800	64	4341
2026-01-07 01:43:17.32	233.67	15.99	-49.6	-51.0	14.5	0.00e+00	0	28	0	2030043136	64	4447
2026-01-07 01:43:21.31	233.46	15.56	-49.6	-50.9	14.5	0.00e+00	0	28	0	2042626048	64	4425
2026-01-07 01:43:25.32	233.26	15.14	-49.6	-50.9	14.5	0.00e+00	0	28	0	2055208960	64	4435
2026-01-07 01:43:29.32	233.06	14.72	-49.7	-51.0	14.4	0.00e+00	0	28	0	2067791872	64	4460
2026-01-07 01:43:33.32	232.87	14.31	-49.8	-51.1	14.4	0.00e+00	0	28	0	2080374784	64	4518
2026-01-07 01:43:37.32	232.68	13.91	-49.8	-51.1	14.5	0.00e+00	0	28	0	2092957696	65	4276
2026-01-07 01:43:41.33	232.50	13.52	-49.9	-51.3	14.4	0.00e+00	0	28	0	2105540608	65	4346
2026-01-07 01:43:45.33	232.33	13.13	-49.9	-51.3	14.4	0.00e+00	0	28	0	2118123520	65	4343
2026-01-07 01:43:49.33	232.16	12.74	-49.8	-51.1	14.5	0.00e+00	0	28	0	2130706432	65	4273
2026-01-07 01:43:53.32	231.99	12.37	-49.9	-51.2	14.4	0.00e+00	0	28	0	2143289344	65	4320
2026-01-07 01:43:57.32	231.83	12.00	-49.8	-51.1	14.4	0.00e+00	0	28	0	2155872256	65	4291
2026-01-07 01:44:01.33	231.67	11.63	-49.9	-51.2	14.4	0.00e+00	0	28	0	2168455168	65	4316
2026-01-07 01:44:05.34	231.52	11.27	-49.9	-51.2	14.4	0.00e+00	0	28	0	2181038080	65	4330
2026-01-07 01:44:09.33	231.37	10.91	-50.0	-51.4	14.3	0.00e+00	0	28	0	2192572416	65	4408
2026-01-07 01:44:13.34	231.23	10.56	-50.2	-51.6	14.2	0.00e+00	0	28	0	2206203904	65	4505
2026-01-07 01:44:17.35	231.09	10.21	-50.3	-51.7	14.2	0.00e+00	0	28	0	2217738240	65	4584
2026-01-07 01:44:21.35	230.95	9.87	-50.3	-51.7	14.2	0.00e+00	0	28	0	2230321152	65	4593
2026-01-07 01:44:25.36	230.81	9.53	-50.5	-51.9	14.2	0.00e+00	0	28	0	2242904064	66	4438
2026-01-07 01:44:29.35	230.68	9.20	-50.6	-52.0	14.1	0.00e+00	0	28	0	2255486976	66	4486
2026-01-07 01:44:33.35	230.56	8.87	-50.7	-52.2	14.1	0.00e+00	0	27	0	2268069888	66	4580
2026-01-07 01:44:37.34	230.43	8.54	-50.8	-52.3	14.0	0.00e+00	0	28	0	2280652800	66	4635
2026-01-07 01:44:41.33	230.31	8.22	-50.9	-52.4	14.0	0.00e+00	0	28	0	2293235712	66	4693
2026-01-07 01:44:45.38	230.19	7.90	-51.0	-52.5	14.0	0.00e+00	0	28	0	2306867200	67	4488
2026-01-07 01:44:49.40	230.07	7.59	-51.1	-52.7	13.9	0.00e+00	0	28	0	2319450112	67	4586
2026-01-07 01:44:53.41	229.96	7.28	-51.2	-52.8	13.8	0.00e+00	0	28	0	2332033024	67	4631
2026-01-07 01:44:57.41	229.85	6.97	-51.5	-53.2	13.8	0.00e+00	0	28	0	2344615936	68	4572
2026-01-07 01:45:01.43	229.74	6.67	-51.7	-53.5	13.6	0.00e+00	0	28	0	2357198848	68	4723
2026-01-07 01:45:05.44	229.64	6.37	-51.9	-53.7	13.5	0.00e+00	0	27	0	2369781760	68	4821
2026-01-07 01:45:09.45	229.53	6.07	-52.1	-53.9	13.5	0.00e+00	0	28	0	2382364672	69	4685
2026-01-07 01:45:13.46	229.43	5.78	-52.1	-54.0	13.4	0.00e+00	0	27	0	2394947584	69	4709
2026-01-07 01:45:17.48	229.33	5.49	-52.2	-54.1	13.3	0.00e+00	0	27	0	2406481920	69	4789
2026-01-07 01:45:21.50	229.24	5.20	-52.3	-54.2	13.3	0.00e+00	0	28	0	2420113408	70	4575
2026-01-07 01:45:25.52	229.14	4.91	-59.1	-72.9	3.8	1.49e+00	0	28	104	2428502016	83	18617
2026-01-07 01:45:29.53	229.05	4.63	-60.0	-73.8	3.8	1.49e+00	0	28	104	2428502016	85	18464
2026-01-07 01:45:33.55	228.96	4.35	-60.3	-74.1	3.8	1.49e+00	0	28	104	2428502016	85	19128
2026-01-07 01:45:37.55	228.87	4.08	-60.3	-74.2	3.8	1.49e+00	0	28	104	2428502016	85	19291
2026-01-07 01:45:41.56	228.78	3.80	-60.4	-74.3	3.8	1.49e+00	0	28	104	2428502016	85	19474
2026-01-07 01:45:45.57	228.70	3.53	-60.5	-74.4	3.8	1.49e+00	0	28	104	2428502016	86	18573
2026-01-07 01:45:49.59	228.62	3.27	-60.5	-74.4	3.8	1.49e+00	0	28	104	2428502016	86	18531
2026-01-07 01:45:53.62	228.54	3.00	-60.4	-74.3	3.8	1.49e+00	0	28	104	2428502016	86	18368
2026-01-07 01:45:57.64	228.46	2.74	-60.4	-74.3	3.8	1.49e+00	0	28	104	2428502016	86	18341
2026-01-07 01:46:01.66	228.38	2.48	-60.4	-74.2	3.8	1.49e+00	0	28	104	2428502016	86	18292
2026-01-07 01:46:05.68	228.30	2.22	-60.4	-74.2	3.8	1.49e+00	0	28	104	2428502016	86	18201
2026-01-07 01:46:09.68	228.23	1.96	-60.4	-74.2	3.8	1.49e+00	0	28	104	2428502016	86	18234

#Closed at: 2026-01-07 01:46:10
#Recorded file [2428 MB]: D:/lorett/data/31004_260107_043153.dat