passes_logs/2026/01/07/R3.2S_Murmansk/R3.2S_Murmansk__20260107_034534_AQUA_rec.log

#Pass ID: 20260107_034534_AQUA
#Satellite: AQUA
#Configuration: AQUA
#almurnet v.1.7.20251203
#Start time: 2026-01-07 03:45:36

#Version: 2.2.20231116
#Station: R3.2S_Murmansk
#Location: 33.079688 lon 68.888172 lat
#TLE: 1 27424U 02022A   26004.96787593  .00001598  00000+0  32997-3 0  9996
#TLE: 2 27424  98.4069 331.2279 0002002  90.2377   0.6092 14.61798176259425

#Time	Az	El	Level	Level2	SNR	BER	BlckErr	Temp	State	Recorded	gain1	gain2
2026-01-07 03:45:36.47	28.92	2.13	-56.8	-76.2	3.8	7.47e-01	0	23	0	0	82	33375
2026-01-07 03:45:39.47	28.80	2.32	-56.7	-76.1	3.8	7.48e-01	0	23	104	0	81	35144
2026-01-07 03:45:42.46	28.68	2.51	-56.8	-76.1	3.8	7.47e-01	0	23	104	0	81	35084
2026-01-07 03:45:45.47	28.55	2.71	-56.7	-76.1	3.8	7.49e-01	0	23	104	0	81	35045
2026-01-07 03:45:48.48	28.43	2.91	-56.7	-76.0	3.8	7.45e-01	0	23	104	0	81	34823
2026-01-07 03:45:51.47	28.30	3.11	-56.8	-76.1	3.8	7.46e-01	0	24	104	0	81	35199
2026-01-07 03:45:54.48	28.17	3.31	-56.8	-76.1	3.8	7.45e-01	0	24	104	0	81	35009
2026-01-07 03:45:57.48	28.04	3.51	-56.8	-76.1	3.8	7.45e-01	0	24	104	0	81	35058
2026-01-07 03:46:00.48	27.91	3.71	-56.7	-75.9	3.8	7.49e-01	0	24	104	0	81	34100
2026-01-07 03:46:03.48	27.77	3.92	-56.7	-75.5	3.8	7.46e-01	0	24	104	0	81	32786
2026-01-07 03:46:06.47	27.64	4.12	-56.6	-75.2	3.8	7.44e-01	0	24	104	0	81	31565
2026-01-07 03:46:09.47	27.50	4.33	-56.5	-74.0	3.8	7.43e-01	0	24	104	0	81	27664
2026-01-07 03:46:12.47	27.35	4.54	-55.7	-71.2	3.8	7.45e-01	0	24	104	0	80	21033
2026-01-07 03:46:15.46	27.21	4.75	-54.9	-69.1	3.8	7.45e-01	0	24	104	0	79	17599
2026-01-07 03:46:18.48	27.06	4.97	-54.8	-68.8	3.9	7.45e-01	0	24	104	0	78	17925
2026-01-07 03:46:21.47	26.91	5.18	-54.9	-68.7	3.8	7.48e-01	0	24	104	0	79	16825
2026-01-07 03:46:24.47	26.76	5.40	-55.3	-69.4	3.9	7.46e-01	0	24	104	0	79	18274
2026-01-07 03:46:27.47	26.60	5.62	-51.8	-63.8	3.8	7.50e-01	0	24	104	0	72	14273
2026-01-07 03:46:30.47	26.45	5.84	-55.3	-69.5	3.9	7.44e-01	0	24	104	0	80	17378
2026-01-07 03:46:33.47	26.29	6.06	-51.8	-63.7	3.8	7.43e-01	0	24	104	0	72	14177
2026-01-07 03:46:36.45	26.12	6.28	-51.8	-63.8	3.8	7.45e-01	0	24	104	0	72	14289
2026-01-07 03:46:39.44	25.96	6.51	-51.9	-63.8	3.8	7.43e-01	0	24	104	0	73	13549
2026-01-07 03:46:42.43	25.79	6.73	-51.3	-63.0	3.8	7.48e-01	0	24	104	0	71	13885
2026-01-07 03:46:45.43	25.61	6.96	-53.5	-66.0	3.8	7.44e-01	0	24	104	0	74	16407
2026-01-07 03:46:48.44	25.44	7.20	-53.7	-66.3	3.9	7.47e-01	0	24	104	0	76	15122
2026-01-07 03:46:51.44	25.26	7.43	-51.0	-62.7	3.9	7.47e-01	0	25	104	0	71	13327
2026-01-07 03:46:54.44	25.08	7.67	-54.8	-68.6	3.8	7.44e-01	0	24	104	0	79	16675
2026-01-07 03:46:57.43	24.89	7.90	-50.9	-62.5	3.8	7.43e-01	0	24	104	0	71	13105
2026-01-07 03:47:00.43	24.70	8.14	-51.5	-63.2	3.9	7.48e-01	0	25	104	0	72	13397
2026-01-07 03:47:03.43	24.51	8.39	-51.4	-63.2	3.9	7.47e-01	0	25	104	0	72	13314
2026-01-07 03:47:06.43	24.31	8.63	-50.7	-62.3	3.8	7.47e-01	0	25	104	0	70	13489
2026-01-07 03:47:09.42	24.11	8.88	-53.1	-65.2	3.8	7.47e-01	0	24	104	0	73	15906
2026-01-07 03:47:12.43	23.90	9.13	-51.8	-63.9	3.8	7.43e-01	0	25	104	0	73	13692
2026-01-07 03:47:15.43	23.69	9.38	-51.3	-62.9	3.8	7.48e-01	0	25	104	0	70	14528
2026-01-07 03:47:18.42	23.48	9.64	-55.4	-69.1	3.9	7.42e-01	0	24	104	0	80	16594
2026-01-07 03:47:21.42	23.26	9.89	-50.5	-62.0	3.8	7.42e-01	0	25	104	0	70	13089
2026-01-07 03:47:24.41	23.04	10.15	-52.0	-63.9	3.9	7.42e-01	0	25	104	0	73	13654
2026-01-07 03:47:27.42	22.82	10.42	-51.5	-63.3	3.9	7.44e-01	0	25	104	0	72	13442
2026-01-07 03:47:30.41	22.59	10.68	-50.2	-61.7	3.9	7.45e-01	0	25	104	0	69	13306
2026-01-07 03:47:33.42	22.35	10.95	-53.2	-65.1	3.9	7.47e-01	0	25	104	0	73	15649
2026-01-07 03:47:36.41	22.11	11.22	-52.6	-64.7	3.9	7.44e-01	0	25	104	0	74	14071
2026-01-07 03:47:39.42	21.86	11.49	-50.4	-61.9	3.9	7.43e-01	0	25	104	0	69	13694
2026-01-07 03:47:42.43	21.61	11.77	-55.0	-68.2	3.9	7.47e-01	0	25	104	0	79	15763
2026-01-07 03:47:45.42	21.35	12.05	-50.2	-61.6	3.9	7.44e-01	0	25	104	0	69	13256
2026-01-07 03:47:48.43	21.09	12.34	-51.0	-62.6	3.8	7.46e-01	0	25	104	0	71	13245
2026-01-07 03:47:51.41	20.82	12.62	-51.1	-62.7	3.9	7.45e-01	0	25	104	0	71	13359
2026-01-07 03:47:54.41	20.55	12.91	-50.2	-61.6	3.9	7.45e-01	0	25	104	0	69	13180
2026-01-07 03:47:57.40	20.27	13.20	-51.6	-63.2	3.9	7.44e-01	0	25	104	0	70	14952
2026-01-07 03:48:00.41	19.98	13.50	-52.0	-63.9	3.9	7.44e-01	0	25	104	0	73	13580
2026-01-07 03:48:03.42	19.69	13.80	-49.6	-60.9	3.9	7.48e-01	0	25	104	0	68	12848
2026-01-07 03:48:06.41	19.39	14.10	-55.2	-68.3	3.8	7.47e-01	0	25	104	0	79	15966
2026-01-07 03:48:09.42	19.08	14.40	-50.0	-61.4	3.8	7.47e-01	0	25	104	0	69	12844
2026-01-07 03:48:12.41	18.77	14.71	-50.1	-61.6	3.9	7.44e-01	0	25	104	0	68	13922
2026-01-07 03:48:15.42	18.45	15.02	-51.0	-62.5	3.9	7.46e-01	0	25	104	0	71	13087
2026-01-07 03:48:18.41	18.12	15.34	-49.6	-60.9	3.8	7.46e-01	0	25	104	0	68	12897
2026-01-07 03:48:21.41	17.79	15.66	-51.3	-63.1	3.8	7.48e-01	0	25	104	0	70	14743
2026-01-07 03:48:24.41	17.44	15.98	-51.1	-62.7	3.9	7.44e-01	0	25	104	0	71	13309
2026-01-07 03:48:27.41	17.09	16.31	-49.6	-60.9	3.9	7.46e-01	0	25	104	0	68	12953
2026-01-07 03:48:30.40	16.73	16.64	-55.0	-68.0	3.9	7.44e-01	0	25	104	0	79	15484
2026-01-07 03:48:33.40	16.36	16.98	-49.7	-61.0	3.8	7.46e-01	0	25	104	0	68	13078
2026-01-07 03:48:36.39	15.98	17.31	-51.0	-62.6	3.8	7.47e-01	0	25	104	0	71	13207
2026-01-07 03:48:39.38	15.60	17.65	-50.8	-62.0	3.8	7.45e-01	0	25	104	0	70	13014
2026-01-07 03:48:42.38	15.20	18.00	-49.3	-60.6	3.9	7.46e-01	0	25	104	0	67	13183
2026-01-07 03:48:45.37	14.79	18.35	-51.2	-62.6	3.8	7.48e-01	0	25	104	0	69	14846
2026-01-07 03:48:48.37	14.37	18.70	-51.4	-63.1	3.9	7.43e-01	0	25	104	0	72	13118
2026-01-07 03:48:51.38	13.94	19.06	-49.3	-60.6	3.9	7.47e-01	0	25	104	0	67	13238
2026-01-07 03:48:54.39	13.50	19.43	-55.0	-67.9	3.9	7.43e-01	0	25	104	0	79	15336
2026-01-07 03:48:57.37	13.05	19.79	-49.8	-61.2	3.9	7.45e-01	0	25	104	0	68	13361
2026-01-07 03:49:00.37	12.59	20.16	-51.1	-62.7	3.9	7.44e-01	0	25	104	0	71	13340
2026-01-07 03:49:03.37	12.11	20.54	-51.0	-62.6	3.9	7.47e-01	0	25	104	0	71	13234
2026-01-07 03:49:06.37	11.62	20.92	-50.0	-61.4	3.8	7.45e-01	0	25	104	0	69	12947
2026-01-07 03:49:09.39	11.12	21.30	-51.4	-63.0	3.8	7.43e-01	0	25	104	0	70	14669
2026-01-07 03:49:12.39	10.60	21.69	-51.7	-63.3	3.9	7.47e-01	0	25	104	0	72	13553
2026-01-07 03:49:15.38	10.07	22.08	-50.0	-61.4	3.9	7.48e-01	0	25	104	0	68	13574
2026-01-07 03:49:18.37	9.53	22.48	-55.2	-68.1	3.9	7.49e-01	0	25	104	0	79	15606
2026-01-07 03:49:21.36	8.97	22.87	-50.5	-62.0	3.9	7.43e-01	0	25	104	0	70	13027
2026-01-07 03:49:24.37	8.40	23.28	-51.4	-63.0	3.9	7.48e-01	0	25	104	0	71	13811
2026-01-07 03:49:27.37	7.81	23.69	-51.9	-63.7	3.9	7.46e-01	0	25	104	0	73	13382
2026-01-07 03:49:30.36	7.20	24.09	-50.2	-61.5	3.8	7.43e-01	0	25	104	0	69	13048
2026-01-07 03:49:33.36	6.58	24.51	-50.7	-62.4	3.9	7.47e-01	0	25	104	0	69	14464
2026-01-07 03:49:36.37	5.93	24.93	-51.8	-63.3	3.9	7.46e-01	0	25	104	0	72	13448
2026-01-07 03:49:39.36	5.27	25.35	-49.8	-61.2	3.9	7.45e-01	0	25	104	0	68	13287
2026-01-07 03:49:42.35	4.60	25.77	-55.5	-68.7	3.9	7.45e-01	0	25	104	0	80	15781
2026-01-07 03:49:45.35	3.90	26.20	-49.7	-61.1	3.8	7.45e-01	0	25	104	0	68	13131
2026-01-07 03:49:48.35	3.18	26.63	-51.5	-63.1	3.8	7.46e-01	0	25	104	0	72	13145
2026-01-07 03:49:51.34	2.44	27.06	-51.5	-63.2	3.9	7.42e-01	0	25	104	0	72	13289
2026-01-07 03:49:54.34	1.68	27.49	-49.5	-60.8	3.9	7.47e-01	0	25	104	0	68	12763
2026-01-07 03:49:57.34	0.90	27.93	-50.4	-61.7	3.8	7.44e-01	0	25	104	0	68	14085
2026-01-07 03:50:00.34	0.09	28.36	-51.6	-63.2	3.8	7.45e-01	0	25	104	0	72	13410
2026-01-07 03:50:03.35	359.26	28.80	-49.0	-60.2	3.8	7.45e-01	0	25	104	0	67	12601
2026-01-07 03:50:06.36	358.40	29.25	-55.2	-67.9	3.8	7.44e-01	0	25	104	0	79	15355
2026-01-07 03:50:09.38	357.52	29.69	-49.1	-60.3	3.9	7.48e-01	0	25	104	0	67	12710
2026-01-07 03:50:12.37	356.62	30.12	-51.4	-62.9	3.8	7.42e-01	0	25	104	0	72	12927
2026-01-07 03:50:15.38	355.68	30.56	-50.4	-61.8	3.8	7.45e-01	0	25	104	0	70	12777
2026-01-07 03:50:18.37	354.73	31.00	-49.0	-60.3	3.8	7.48e-01	0	25	104	0	67	12679
2026-01-07 03:50:21.37	353.75	31.43	-50.6	-62.0	3.8	7.42e-01	0	25	104	0	68	14598
2026-01-07 03:50:24.37	352.73	31.87	-50.9	-62.4	3.8	7.44e-01	0	25	104	0	71	12850
2026-01-07 03:50:27.37	351.69	32.29	-49.6	-60.9	3.9	7.49e-01	0	25	104	0	67	13615
2026-01-07 03:50:30.37	350.63	32.72	-54.3	-66.8	3.8	7.48e-01	0	25	104	0	78	14317
2026-01-07 03:50:33.36	349.53	33.14	-49.5	-60.8	3.8	7.46e-01	0	25	104	0	68	12715
2026-01-07 03:50:36.37	348.40	33.55	-50.3	-61.6	3.9	7.44e-01	0	25	104	0	69	13181
2026-01-07 03:50:39.36	347.25	33.96	-51.4	-63.0	3.9	7.44e-01	0	25	104	0	72	12998
2026-01-07 03:50:42.36	346.06	34.35	-49.9	-61.2	3.8	7.47e-01	0	25	104	0	68	13309
2026-01-07 03:50:45.35	344.85	34.74	-50.7	-62.1	3.8	7.47e-01	0	25	104	0	69	13927
2026-01-07 03:50:48.35	343.60	35.12	-52.2	-63.7	3.9	7.45e-01	0	25	104	0	73	13385
2026-01-07 03:50:51.35	342.32	35.49	-50.3	-61.6	3.9	7.46e-01	0	25	104	0	69	13146
2026-01-07 03:50:54.35	341.02	35.85	-55.3	-68.3	3.8	7.46e-01	0	25	104	0	80	15209
2026-01-07 03:50:57.35	339.68	36.19	-50.4	-61.8	3.8	7.45e-01	0	25	104	0	70	12751
2026-01-07 03:51:00.34	338.32	36.52	-51.5	-63.0	3.9	7.46e-01	0	25	104	0	72	13089
2026-01-07 03:51:03.35	336.92	36.84	-51.9	-63.5	3.9	7.45e-01	0	25	104	0	73	13095
2026-01-07 03:51:06.35	335.50	37.14	-50.8	-62.2	3.8	7.46e-01	0	25	104	0	70	13353
2026-01-07 03:51:09.34	334.06	37.42	-51.4	-62.9	3.8	7.44e-01	0	25	104	0	70	14387
2026-01-07 03:51:12.35	332.59	37.68	-53.1	-65.0	3.9	7.43e-01	0	25	104	0	75	13775
2026-01-07 03:51:15.36	331.08	37.93	-51.0	-62.3	3.8	7.44e-01	0	25	104	0	70	13495
2026-01-07 03:51:18.35	329.57	38.15	-56.3	-69.3	3.9	7.42e-01	0	25	104	0	81	16025
2026-01-07 03:51:21.34	328.04	38.35	-50.9	-62.3	3.8	7.47e-01	0	25	104	0	70	13460
2026-01-07 03:51:24.35	326.48	38.53	-52.1	-63.7	3.8	7.44e-01	0	25	104	0	73	13292
2026-01-07 03:51:27.35	324.90	38.69	-51.8	-63.5	3.9	7.46e-01	0	25	104	0	73	13030
2026-01-07 03:51:30.35	323.31	38.82	-50.9	-62.3	3.8	7.47e-01	0	25	104	0	71	12758
2026-01-07 03:51:33.34	321.72	38.93	-51.3	-62.7	3.8	7.48e-01	0	25	104	0	70	14171
2026-01-07 03:51:36.34	320.11	39.02	-53.9	-66.1	3.9	7.44e-01	0	25	104	0	77	13964
2026-01-07 03:51:39.34	318.49	39.07	-51.0	-62.4	3.8	7.46e-01	0	25	104	0	70	13676
2026-01-07 03:51:42.33	316.87	39.11	-56.3	-69.2	3.9	7.45e-01	0	25	104	0	81	15796
2026-01-07 03:51:45.32	315.26	39.11	-51.2	-62.8	3.8	7.47e-01	0	25	104	0	71	13442
2026-01-07 03:51:48.33	313.63	39.10	-50.7	-52.4	15.6	6.04e-01	0	25	0	2097152	70	4309
2026-01-07 03:51:51.32	312.01	39.05	-50.6	-52.3	15.5	6.03e-01	0	25	0	7340032	69	4509
2026-01-07 03:51:54.33	310.39	38.98	-50.5	-52.2	15.5	6.03e-01	0	25	0	13107200	69	4448
2026-01-07 03:51:57.33	308.78	38.89	-50.9	-52.7	15.5	6.01e-01	0	25	0	18874368	70	4445
2026-01-07 03:52:00.32	307.19	38.77	-50.7	-52.4	15.6	6.02e-01	0	25	0	24641536	70	4316
2026-01-07 03:52:03.32	305.61	38.62	-50.5	-52.2	15.5	6.02e-01	0	25	0	29884416	69	4469
2026-01-07 03:52:06.32	304.04	38.46	-50.3	-52.0	15.6	6.03e-01	0	25	0	35651584	69	4376
2026-01-07 03:52:09.32	302.49	38.27	-51.2	-53.1	15.2	6.03e-01	0	25	0	41418752	70	4680
2026-01-07 03:52:12.31	300.97	38.06	-50.7	-52.5	15.4	6.02e-01	0	25	0	46661632	69	4615
2026-01-07 03:52:15.32	299.45	37.82	-52.1	-54.3	15.1	6.04e-01	0	25	0	52428800	71	5078
2026-01-07 03:52:18.32	297.96	37.57	-51.2	-53.1	15.4	6.01e-01	0	25	0	58195968	71	4404
2026-01-07 03:52:21.31	296.51	37.30	-51.4	-53.3	15.3	6.05e-01	0	25	0	63963136	70	4777
2026-01-07 03:52:24.32	295.06	37.01	-51.7	-53.7	15.3	6.03e-01	0	25	0	69206016	72	4474
2026-01-07 03:52:27.31	293.66	36.70	-50.3	-51.9	15.6	6.03e-01	0	25	0	74973184	69	4332
2026-01-07 03:52:30.28	292.29	36.38	-50.9	-52.6	15.5	6.03e-01	0	25	0	80740352	70	4439
2026-01-07 03:52:33.27	290.94	36.05	-50.2	-51.8	15.6	6.03e-01	0	25	0	86507520	69	4287
2026-01-07 03:52:36.28	289.61	35.70	-50.4	-52.1	15.5	6.02e-01	0	25	0	91750400	69	4417
2026-01-07 03:52:39.28	288.31	35.33	-50.7	-52.5	15.4	6.04e-01	0	25	0	97517568	69	4619
2026-01-07 03:52:42.26	287.05	34.96	-50.7	-52.4	15.4	6.04e-01	0	25	0	103284736	69	4593
2026-01-07 03:52:45.26	285.82	34.57	-50.8	-52.6	15.4	6.01e-01	0	25	0	108527616	69	4654
2026-01-07 03:52:48.26	284.61	34.18	-50.4	-52.1	15.5	6.03e-01	0	25	0	114294784	69	4403
2026-01-07 03:52:51.26	283.43	33.78	-50.8	-52.5	15.6	6.05e-01	0	25	0	120061952	70	4347
2026-01-07 03:52:54.26	282.29	33.37	-50.9	-52.7	15.4	6.03e-01	0	25	0	125304832	70	4481
2026-01-07 03:52:57.26	281.17	32.95	-51.5	-53.5	15.2	6.01e-01	0	25	0	131072000	70	4889
2026-01-07 03:53:00.25	280.09	32.53	-49.4	-50.9	15.7	6.03e-01	0	25	0	136839168	68	4075
2026-01-07 03:53:03.25	279.03	32.10	-50.7	-52.6	15.4	6.04e-01	0	25	0	142606336	69	4665
2026-01-07 03:53:06.25	278.00	31.67	-50.0	-51.6	15.6	6.03e-01	0	25	0	147849216	69	4158
2026-01-07 03:53:09.25	277.00	31.24	-49.6	-51.2	15.7	6.03e-01	0	25	0	153616384	68	4210
2026-01-07 03:53:12.25	276.02	30.80	-50.3	-52.0	15.4	6.03e-01	0	25	0	159383552	68	4628
2026-01-07 03:53:15.24	275.08	30.36	-50.3	-52.0	15.4	6.02e-01	0	25	0	165150720	68	4648
2026-01-07 03:53:18.24	274.16	29.92	-50.6	-52.5	15.4	6.02e-01	0	25	0	170393600	69	4600
2026-01-07 03:53:21.22	273.27	29.49	-50.2	-51.9	15.4	6.02e-01	0	25	0	176160768	68	4571
2026-01-07 03:53:24.24	272.39	29.04	-50.1	-51.9	15.4	6.03e-01	0	25	0	181927936	68	4547
2026-01-07 03:53:27.25	271.54	28.60	-50.1	-51.8	15.5	6.02e-01	0	25	0	187170816	68	4518
2026-01-07 03:53:30.24	270.72	28.16	-50.2	-51.9	15.5	6.03e-01	0	25	0	192937984	68	4574
2026-01-07 03:53:33.24	269.92	27.72	-50.1	-51.8	15.5	6.02e-01	0	25	0	198705152	68	4498
2026-01-07 03:53:36.25	269.15	27.29	-49.8	-51.5	15.5	6.03e-01	0	25	0	204472320	68	4357
2026-01-07 03:53:39.26	268.39	26.85	-50.4	-52.2	15.3	6.01e-01	0	25	0	209715200	68	4753
2026-01-07 03:53:42.26	267.66	26.42	-49.8	-51.5	15.6	6.04e-01	0	25	0	215482368	68	4350
2026-01-07 03:53:45.24	266.95	25.99	-50.4	-52.2	15.3	6.01e-01	0	25	0	221249536	68	4752
2026-01-07 03:53:48.24	266.26	25.56	-50.1	-51.8	15.5	6.01e-01	0	25	0	227016704	68	4512
2026-01-07 03:53:51.24	265.58	25.14	-50.0	-51.7	15.5	6.03e-01	0	25	0	232259584	68	4462
2026-01-07 03:53:54.25	264.93	24.72	-50.4	-52.1	15.4	6.03e-01	0	25	0	238026752	68	4688
2026-01-07 03:53:57.25	264.29	24.30	-50.1	-51.9	15.5	6.03e-01	0	25	0	243793920	68	4555
2026-01-07 03:54:00.26	263.67	23.89	-50.1	-51.9	15.4	6.03e-01	0	25	0	249036800	68	4547
2026-01-07 03:54:03.27	263.06	23.47	-50.1	-51.8	15.4	6.03e-01	0	25	0	254803968	68	4543
2026-01-07 03:54:06.29	262.47	23.06	-50.2	-52.0	15.4	6.03e-01	0	25	0	260571136	68	4605
2026-01-07 03:54:09.30	261.90	22.66	-50.4	-52.2	15.4	6.04e-01	0	25	0	266338304	68	4710
2026-01-07 03:54:12.31	261.35	22.26	-50.2	-51.9	15.4	6.03e-01	0	25	0	272105472	68	4562
2026-01-07 03:54:15.30	260.81	21.87	-49.9	-51.6	15.5	6.03e-01	0	25	0	277348352	68	4410
2026-01-07 03:54:18.31	260.28	21.48	-50.1	-51.8	15.5	6.03e-01	0	25	0	283115520	68	4527
2026-01-07 03:54:21.31	259.77	21.09	-50.0	-51.7	15.5	5.99e-01	0	25	0	288882688	68	4462
2026-01-07 03:54:24.32	259.27	20.70	-50.0	-51.7	15.5	6.04e-01	0	25	0	294125568	68	4493
2026-01-07 03:54:27.33	258.79	20.33	-50.1	-51.8	15.5	6.04e-01	0	25	0	299892736	68	4503
2026-01-07 03:54:30.31	258.32	19.95	-50.0	-51.7	15.5	6.01e-01	0	25	0	305659904	68	4459
2026-01-07 03:54:33.31	257.86	19.58	-49.9	-51.6	15.5	6.03e-01	0	25	0	311427072	68	4415
2026-01-07 03:54:36.32	257.41	19.22	-50.0	-51.8	15.5	5.99e-01	0	25	0	317194240	68	4505
2026-01-07 03:54:39.31	256.97	18.86	-49.9	-51.6	15.5	6.03e-01	0	25	0	322437120	68	4434
2026-01-07 03:54:42.30	256.55	18.50	-49.7	-51.4	15.6	6.04e-01	0	25	0	328204288	68	4317
2026-01-07 03:54:45.30	256.13	18.14	-49.9	-51.6	15.5	6.04e-01	0	25	0	333971456	68	4430
2026-01-07 03:54:48.30	255.73	17.80	-49.9	-51.6	15.5	6.03e-01	0	25	0	339214336	68	4397
2026-01-07 03:54:51.29	255.33	17.45	-50.0	-51.7	15.5	6.03e-01	0	25	0	344981504	68	4452
2026-01-07 03:54:54.27	254.95	17.11	-50.0	-51.7	15.5	6.04e-01	0	25	0	350748672	68	4460
2026-01-07 03:54:57.27	254.57	16.77	-49.7	-51.4	15.6	6.04e-01	0	25	0	355991552	68	4314
2026-01-07 03:55:00.26	254.21	16.44	-49.8	-51.5	15.5	6.01e-01	0	25	0	361758720	68	4390
2026-01-07 03:55:03.27	253.85	16.11	-50.1	-51.8	15.5	6.02e-01	0	25	0	367525888	68	4543
2026-01-07 03:55:06.26	253.50	15.78	-49.9	-51.6	15.5	6.03e-01	0	25	0	372768768	68	4418
2026-01-07 03:55:09.27	253.16	15.46	-49.7	-51.4	15.6	6.03e-01	0	25	0	378535936	68	4313
2026-01-07 03:55:12.26	252.82	15.14	-50.0	-51.7	15.5	6.04e-01	0	25	0	384303104	68	4470
2026-01-07 03:55:15.27	252.49	14.83	-50.0	-51.7	15.5	6.02e-01	0	25	0	390070272	68	4485
2026-01-07 03:55:18.28	252.17	14.51	-49.9	-51.6	15.5	6.00e-01	0	25	0	395837440	68	4415
2026-01-07 03:55:21.28	251.86	14.21	-50.0	-51.7	15.5	6.02e-01	0	25	0	401080320	68	4470
2026-01-07 03:55:24.28	251.56	13.90	-50.0	-51.7	15.5	6.03e-01	0	25	0	406847488	68	4472
2026-01-07 03:55:27.29	251.26	13.60	-50.1	-51.9	15.4	6.02e-01	0	25	0	412614656	68	4590
2026-01-07 03:55:30.30	250.97	13.30	-50.1	-51.9	15.4	6.04e-01	0	25	0	417857536	68	4548
2026-01-07 03:55:33.29	250.68	13.01	-50.1	-51.9	15.4	6.03e-01	0	25	0	423624704	68	4574
2026-01-07 03:55:36.29	250.40	12.71	-50.1	-51.9	15.4	6.02e-01	0	25	0	429391872	68	4577
2026-01-07 03:55:39.30	250.13	12.42	-50.3	-52.1	15.4	6.03e-01	0	25	0	435159040	68	4665
2026-01-07 03:55:42.29	249.86	12.14	-50.2	-52.0	15.4	6.04e-01	0	25	0	440401920	68	4647
2026-01-07 03:55:45.30	249.60	11.86	-50.3	-52.1	15.4	6.03e-01	0	25	0	446169088	68	4668
2026-01-07 03:55:48.30	249.35	11.58	-50.2	-52.0	15.4	6.03e-01	0	25	0	451936256	68	4643
2026-01-07 03:55:51.30	249.10	11.30	-50.2	-52.0	15.4	6.05e-01	0	25	0	457703424	68	4640
2026-01-07 03:55:54.30	248.85	11.03	-50.3	-52.1	15.3	6.03e-01	0	25	0	462946304	68	4678
2026-01-07 03:55:57.31	248.61	10.76	-50.5	-52.4	15.3	6.03e-01	0	25	0	468713472	68	4839
2026-01-07 03:56:00.33	248.37	10.49	-50.6	-52.5	15.2	6.02e-01	0	25	0	474480640	68	4901
2026-01-07 03:56:03.32	248.14	10.23	-50.5	-52.4	15.4	6.02e-01	0	25	0	480247808	69	4547
2026-01-07 03:56:06.34	247.92	9.96	-50.4	-52.3	15.4	6.04e-01	0	25	0	485490688	69	4505
2026-01-07 03:56:09.34	247.69	9.70	-50.3	-52.2	15.5	6.01e-01	0	25	0	491257856	69	4461
2026-01-07 03:56:12.36	247.48	9.44	-50.4	-52.2	15.4	6.03e-01	0	25	0	497025024	69	4487
2026-01-07 03:56:15.37	247.26	9.19	-50.6	-52.5	15.3	6.00e-01	0	25	0	502792192	69	4624
2026-01-07 03:56:18.37	247.05	8.94	-50.5	-52.4	15.4	6.03e-01	0	25	0	508035072	69	4568
2026-01-07 03:56:21.38	246.85	8.69	-50.6	-52.5	15.4	6.02e-01	0	25	0	513802240	69	4611
2026-01-07 03:56:24.39	246.65	8.44	-50.6	-52.5	15.3	6.04e-01	0	25	0	519569408	69	4623
2026-01-07 03:56:27.39	246.45	8.19	-50.7	-52.6	15.3	6.03e-01	0	25	0	525336576	69	4687
2026-01-07 03:56:30.39	246.26	7.95	-50.8	-52.8	15.2	6.02e-01	0	25	0	530579456	69	4796
2026-01-07 03:56:33.38	246.07	7.71	-50.9	-52.9	15.2	6.00e-01	0	25	0	536346624	69	4836
2026-01-07 03:56:36.38	245.88	7.48	-51.0	-53.1	15.2	6.04e-01	0	25	0	542113792	69	4955
2026-01-07 03:56:39.39	245.70	7.24	-51.1	-53.2	15.1	6.04e-01	0	25	0	547880960	69	4987
2026-01-07 03:56:42.39	245.52	7.01	-51.0	-53.1	15.1	6.02e-01	0	25	0	553123840	69	4965
2026-01-07 03:56:45.39	245.34	6.77	-51.4	-53.5	15.1	6.02e-01	0	25	0	558891008	70	4924
2026-01-07 03:56:48.39	245.17	6.55	-51.4	-53.6	15.3	6.03e-01	0	25	0	564658176	71	4654
2026-01-07 03:56:51.39	245.00	6.32	-51.5	-53.7	15.2	6.02e-01	0	25	0	570425344	71	4708
2026-01-07 03:56:54.39	244.83	6.09	-51.2	-53.4	15.3	6.04e-01	0	25	0	575668224	71	4547
2026-01-07 03:56:57.40	244.67	5.87	-51.3	-53.5	15.3	6.02e-01	0	25	0	581435392	71	4616
2026-01-07 03:57:00.40	244.51	5.65	-51.5	-53.7	15.2	6.03e-01	0	25	0	587202560	71	4756
2026-01-07 03:57:03.39	244.35	5.43	-51.6	-53.8	15.1	6.03e-01	0	25	0	592445440	71	4813
2026-01-07 03:57:06.40	244.19	5.21	-51.4	-53.6	15.2	6.04e-01	0	25	0	598212608	71	4681
2026-01-07 03:57:09.40	244.04	4.99	-52.7	-55.1	14.9	6.02e-01	0	25	0	603979776	72	5223
2026-01-07 03:57:12.40	243.89	4.78	-58.8	-78.1	3.8	7.46e-01	0	25	104	605028352	85	35235
2026-01-07 03:57:15.40	243.74	4.57	-59.1	-78.5	3.8	7.44e-01	0	25	104	605028352	85	36577
2026-01-07 03:57:18.40	243.60	4.36	-59.4	-78.8	3.8	7.47e-01	0	25	104	605028352	86	35900
2026-01-07 03:57:21.40	243.46	4.15	-59.5	-78.9	3.8	7.48e-01	0	25	104	605028352	86	36291
2026-01-07 03:57:24.40	243.31	3.94	-59.6	-79.0	3.8	7.47e-01	0	25	104	605028352	86	36588
2026-01-07 03:57:27.41	243.18	3.73	-59.6	-79.0	3.8	7.46e-01	0	25	104	605028352	86	36620
2026-01-07 03:57:30.40	243.04	3.53	-59.7	-79.0	3.8	7.50e-01	0	25	104	605028352	87	34824
2026-01-07 03:57:33.41	242.91	3.33	-59.7	-79.0	3.8	7.49e-01	0	25	104	605028352	87	34729
2026-01-07 03:57:36.41	242.77	3.12	-59.6	-79.0	3.8	7.46e-01	0	25	104	605028352	87	34594
2026-01-07 03:57:39.42	242.64	2.92	-59.6	-79.0	3.8	7.45e-01	0	25	104	605028352	87	34559
2026-01-07 03:57:42.43	242.52	2.72	-59.6	-78.9	3.8	7.50e-01	0	25	104	605028352	87	34411
2026-01-07 03:57:45.44	242.39	2.53	-59.6	-78.9	3.8	7.44e-01	0	25	104	605028352	87	34343
2026-01-07 03:57:48.43	242.27	2.33	-59.5	-78.9	3.8	7.44e-01	0	25	104	605028352	87	34272
2026-01-07 03:57:51.42	242.15	2.14	-59.5	-78.9	3.8	7.48e-01	0	25	104	605028352	87	34193
2026-01-07 03:57:54.42	242.03	1.94	-59.5	-78.8	3.8	7.44e-01	0	25	104	605028352	87	34079

#Closed at: 2026-01-07 03:57:56
#Recorded file [605 MB]: D:/lorett/data/31004_260107_064536.dat