passes_logs/2026/01/07/R3.2S_Murmansk/R3.2S_Murmansk__20260107_063010_NOAA_21_JPSS-2_rec.log

#Pass ID: 20260107_063010_NOAA 21 (JPSS-2)
#Satellite: NOAA 21 (JPSS-2)
#Configuration: NOAA-21
#almurnet v.1.7.20251203
#Start time: 2026-01-07 06:30:11

#Version: 2.2.20231116
#Station: R3.2S_Murmansk
#Location: 33.079688 lon 68.888172 lat
#TLE: 1 54234U 22150A   26005.56767909  .00000152  00000+0  92756-4 0  9990
#TLE: 2 54234  98.7490 306.5820 0001036 340.2747  19.8389 14.19532370163472

#Time	Az	El	Level	Level2	SNR	BER	BlckErr	Temp	State	Recorded	gain1	gain2
2026-01-07 06:30:11.67	85.07	2.09	-57.6	-71.4	3.8	1.49e+00	0	23	0	0	81	17537
2026-01-07 06:30:15.66	84.84	2.33	-57.6	-71.3	3.8	1.49e+00	0	23	104	0	80	18398
2026-01-07 06:30:19.67	84.60	2.56	-57.6	-71.3	3.8	1.49e+00	0	23	104	0	80	18427
2026-01-07 06:30:23.67	84.37	2.80	-57.6	-71.3	3.8	1.49e+00	0	23	104	0	80	18476
2026-01-07 06:30:27.66	84.13	3.04	-57.6	-71.3	3.8	1.49e+00	0	24	104	0	80	18513
2026-01-07 06:30:31.66	83.88	3.28	-57.6	-71.3	3.8	1.49e+00	0	24	104	0	80	18361
2026-01-07 06:30:35.67	83.63	3.52	-57.6	-71.3	3.8	1.49e+00	0	24	104	0	80	18496
2026-01-07 06:30:39.66	83.37	3.77	-57.6	-71.2	3.8	1.49e+00	0	24	104	0	80	18227
2026-01-07 06:30:43.66	83.11	4.01	-57.6	-71.2	3.8	1.49e+00	0	24	104	0	80	18162
2026-01-07 06:30:47.65	82.85	4.26	-57.6	-71.0	3.8	1.49e+00	0	24	104	0	80	17843
2026-01-07 06:30:51.65	82.58	4.51	-57.3	-68.0	3.9	1.45e+00	0	24	104	0	80	12567
2026-01-07 06:30:55.66	82.31	4.76	-56.7	-63.7	6.2	2.75e-01	0	24	0	6291456	80	7643
2026-01-07 06:30:59.67	82.03	5.01	-56.1	-61.4	8.1	4.57e-02	0	24	0	18874368	78	6640
2026-01-07 06:31:03.67	81.75	5.27	-56.7	-62.9	7.2	8.46e-02	0	24	0	29360128	79	7377
2026-01-07 06:31:07.68	81.46	5.52	-52.6	-54.8	13.0	0.00e+00	0	24	0	41943040	71	4620
2026-01-07 06:31:11.68	81.16	5.78	-51.5	-53.4	13.7	0.00e+00	0	24	0	54525952	69	4415
2026-01-07 06:31:15.69	80.86	6.04	-51.4	-53.3	13.8	0.00e+00	0	24	0	67108864	69	4345
2026-01-07 06:31:19.68	80.56	6.30	-51.4	-53.2	13.9	0.00e+00	0	24	0	79691776	69	4296
2026-01-07 06:31:23.69	80.25	6.56	-51.1	-52.8	13.9	0.00e+00	0	24	0	92274688	68	4390
2026-01-07 06:31:27.70	79.93	6.83	-50.9	-52.6	14.1	0.00e+00	0	25	0	104857600	68	4261
2026-01-07 06:31:31.70	79.61	7.10	-50.9	-52.5	14.1	0.00e+00	0	24	0	117440512	68	4233
2026-01-07 06:31:35.69	79.28	7.36	-51.0	-52.7	14.1	0.00e+00	0	25	0	130023424	68	4303
2026-01-07 06:31:39.69	78.94	7.63	-50.8	-52.5	14.2	0.00e+00	0	24	0	142606336	68	4211
2026-01-07 06:31:43.68	78.60	7.91	-50.9	-52.5	14.2	0.00e+00	0	25	0	154140672	68	4214
2026-01-07 06:31:47.68	78.25	8.18	-50.4	-52.0	14.3	0.00e+00	0	24	0	166723584	67	4210
2026-01-07 06:31:51.66	77.90	8.46	-50.5	-52.1	14.2	0.00e+00	0	24	0	179306496	67	4271
2026-01-07 06:31:55.66	77.54	8.73	-50.4	-51.9	14.3	0.00e+00	0	25	0	191889408	67	4184
2026-01-07 06:31:59.64	77.17	9.01	-50.2	-51.7	14.4	0.00e+00	0	25	0	204472320	67	4097
2026-01-07 06:32:03.65	76.79	9.30	-50.0	-51.5	14.4	0.00e+00	0	25	0	217055232	66	4235
2026-01-07 06:32:07.65	76.40	9.58	-49.9	-51.4	14.5	0.00e+00	0	25	0	229638144	66	4148
2026-01-07 06:32:11.65	76.01	9.87	-49.7	-51.2	14.5	0.00e+00	0	25	0	242221056	65	4299
2026-01-07 06:32:15.64	75.61	10.15	-49.5	-50.9	14.5	0.00e+00	0	25	0	254803968	65	4187
2026-01-07 06:32:19.65	75.20	10.44	-49.5	-50.9	14.6	0.00e+00	0	25	0	267386880	65	4158
2026-01-07 06:32:23.67	74.78	10.74	-49.3	-50.7	14.7	0.00e+00	0	25	0	279969792	65	4064
2026-01-07 06:32:27.67	74.36	11.03	-49.4	-50.8	14.7	0.00e+00	0	25	0	292552704	65	4108
2026-01-07 06:32:31.66	73.92	11.33	-49.1	-50.5	14.7	0.00e+00	0	25	0	304087040	64	4197
2026-01-07 06:32:35.66	73.48	11.62	-48.9	-50.3	14.8	0.00e+00	0	25	0	316669952	64	4113
2026-01-07 06:32:39.67	73.02	11.92	-48.8	-50.2	14.8	0.00e+00	0	25	0	329252864	64	4070
2026-01-07 06:32:43.67	72.56	12.23	-48.9	-50.3	14.8	0.00e+00	0	25	0	341835776	64	4118
2026-01-07 06:32:47.66	72.09	12.53	-48.9	-50.2	14.8	0.00e+00	0	25	0	354418688	64	4080
2026-01-07 06:32:51.66	71.61	12.83	-48.8	-50.1	14.9	0.00e+00	0	25	0	367001600	64	4045
2026-01-07 06:32:55.67	71.11	13.14	-48.8	-50.2	14.8	0.00e+00	0	25	0	379584512	64	4060
2026-01-07 06:32:59.68	70.61	13.45	-49.0	-50.3	14.8	0.00e+00	0	25	0	392167424	64	4137
2026-01-07 06:33:03.68	70.09	13.76	-49.0	-50.3	14.8	0.00e+00	0	25	0	404750336	64	4125
2026-01-07 06:33:07.69	69.56	14.07	-49.2	-50.6	14.6	0.00e+00	0	25	0	417333248	64	4280
2026-01-07 06:33:11.69	69.03	14.39	-48.9	-50.2	14.8	0.00e+00	0	25	0	429916160	64	4083
2026-01-07 06:33:15.70	68.47	14.70	-49.0	-50.4	14.8	0.00e+00	0	25	0	442499072	64	4157
2026-01-07 06:33:19.70	67.91	15.02	-49.2	-50.5	14.7	0.00e+00	0	25	0	455081984	64	4232
2026-01-07 06:33:23.70	67.34	15.33	-49.0	-50.3	14.8	0.00e+00	0	25	0	466616320	64	4138
2026-01-07 06:33:27.71	66.75	15.65	-49.0	-50.4	14.8	0.00e+00	0	25	0	479199232	64	4164
2026-01-07 06:33:31.69	66.16	15.97	-49.2	-50.6	14.7	0.00e+00	0	25	0	491782144	64	4275
2026-01-07 06:33:35.69	65.54	16.29	-49.4	-50.8	14.6	0.00e+00	0	25	0	504365056	64	4391
2026-01-07 06:33:39.67	64.92	16.61	-49.3	-50.7	14.6	0.00e+00	0	25	0	516947968	64	4332
2026-01-07 06:33:43.66	64.28	16.93	-49.3	-50.7	14.6	0.00e+00	0	25	0	529530880	64	4326
2026-01-07 06:33:47.64	63.63	17.25	-49.2	-50.5	14.7	0.00e+00	0	25	0	542113792	64	4235
2026-01-07 06:33:51.62	62.97	17.57	-49.1	-50.4	14.7	0.00e+00	0	25	0	554696704	64	4191
2026-01-07 06:33:55.61	62.29	17.90	-49.0	-50.3	14.8	0.00e+00	0	25	0	567279616	64	4107
2026-01-07 06:33:59.60	61.60	18.22	-49.1	-50.4	14.8	0.00e+00	0	25	0	578813952	64	4172
2026-01-07 06:34:03.60	60.88	18.54	-48.8	-50.2	14.9	0.00e+00	0	25	0	591396864	64	4055
2026-01-07 06:34:07.60	60.16	18.86	-48.7	-50.0	15.0	0.00e+00	0	25	0	603979776	64	3985
2026-01-07 06:34:11.60	59.41	19.18	-48.6	-49.9	14.9	0.00e+00	0	25	0	616562688	63	4147
2026-01-07 06:34:15.61	58.65	19.50	-48.4	-49.6	15.0	0.00e+00	0	25	0	629145600	63	4039
2026-01-07 06:34:19.61	57.88	19.82	-48.4	-49.6	15.0	0.00e+00	0	25	0	641728512	63	4033
2026-01-07 06:34:23.60	57.09	20.14	-48.6	-49.8	14.9	0.00e+00	0	25	0	654311424	63	4140
2026-01-07 06:34:27.58	56.28	20.45	-48.5	-49.8	14.9	0.00e+00	0	25	0	666894336	63	4101
2026-01-07 06:34:31.57	55.46	20.76	-48.5	-49.8	14.9	0.00e+00	0	25	0	679477248	63	4119
2026-01-07 06:34:35.57	54.62	21.07	-48.3	-49.5	15.1	0.00e+00	0	25	0	692060160	63	3979
2026-01-07 06:34:39.56	53.76	21.38	-48.0	-49.2	15.0	0.00e+00	0	25	0	704643072	62	4098
2026-01-07 06:34:43.56	52.89	21.68	-48.1	-49.3	15.0	0.00e+00	0	25	0	717225984	62	4129
2026-01-07 06:34:47.56	51.99	21.98	-48.2	-49.4	14.9	0.00e+00	0	25	0	728760320	62	4179
2026-01-07 06:34:51.56	51.08	22.28	-48.4	-49.6	14.9	0.00e+00	0	25	0	741343232	62	4277
2026-01-07 06:34:55.56	50.15	22.57	-48.3	-49.5	14.9	0.00e+00	0	25	0	753926144	62	4216
2026-01-07 06:34:59.57	49.20	22.86	-48.2	-49.5	14.9	0.00e+00	0	25	0	766509056	62	4196
2026-01-07 06:35:03.57	48.24	23.14	-48.4	-49.7	14.8	0.00e+00	0	25	0	779091968	62	4319
2026-01-07 06:35:07.57	47.26	23.41	-48.3	-49.6	14.9	0.00e+00	0	25	0	791674880	62	4259
2026-01-07 06:35:11.57	46.26	23.68	-48.6	-49.9	14.8	0.00e+00	0	25	0	804257792	62	4404
2026-01-07 06:35:15.57	45.25	23.94	-48.6	-49.9	14.8	0.00e+00	0	25	0	816840704	62	4425
2026-01-07 06:35:19.57	44.21	24.20	-48.4	-49.7	14.8	0.00e+00	0	25	0	829423616	62	4316
2026-01-07 06:35:23.58	43.16	24.44	-48.4	-49.7	14.8	0.00e+00	0	25	0	842006528	62	4312
2026-01-07 06:35:27.58	42.09	24.68	-48.4	-49.7	14.8	0.00e+00	0	25	0	854589440	62	4310
2026-01-07 06:35:31.57	41.02	24.91	-48.7	-50.0	14.7	0.00e+00	0	25	0	867172352	62	4489
2026-01-07 06:35:35.58	39.92	25.13	-48.5	-49.8	14.8	0.00e+00	0	25	0	879755264	62	4373
2026-01-07 06:35:39.59	38.80	25.34	-48.3	-49.5	14.9	0.00e+00	0	25	0	891289600	62	4227
2026-01-07 06:35:43.59	37.67	25.54	-48.1	-49.4	15.0	0.00e+00	0	25	0	903872512	62	4149
2026-01-07 06:35:47.58	36.54	25.72	-48.2	-49.4	15.0	0.00e+00	0	25	0	916455424	62	4177
2026-01-07 06:35:51.58	35.38	25.90	-48.1	-49.3	15.0	0.00e+00	0	25	0	929038336	62	4125
2026-01-07 06:35:55.59	34.21	26.07	-47.9	-49.1	15.1	0.00e+00	0	25	0	941621248	62	4017
2026-01-07 06:35:59.60	33.03	26.22	-48.0	-49.2	15.0	0.00e+00	0	25	0	954204160	62	4052
2026-01-07 06:36:03.61	31.84	26.36	-48.0	-49.2	15.0	0.00e+00	0	25	0	966787072	62	4086
2026-01-07 06:36:07.62	30.64	26.49	-48.2	-49.4	14.9	0.00e+00	0	25	0	979369984	62	4193
2026-01-07 06:36:11.63	29.43	26.60	-48.3	-49.5	14.9	0.00e+00	0	25	0	991952896	62	4206
2026-01-07 06:36:15.64	28.21	26.70	-48.4	-49.7	14.9	0.00e+00	0	25	0	1004535808	62	4297
2026-01-07 06:36:19.64	26.98	26.78	-48.3	-49.5	14.9	0.00e+00	0	25	0	1017118720	62	4225
2026-01-07 06:36:23.66	25.75	26.86	-48.7	-50.0	14.7	0.00e+00	0	25	0	1029701632	62	4458
2026-01-07 06:36:27.67	24.51	26.91	-48.7	-49.9	14.8	0.00e+00	0	25	0	1042284544	62	4424
2026-01-07 06:36:31.67	23.27	26.95	-48.4	-49.7	14.9	0.00e+00	0	25	0	1054867456	62	4307
2026-01-07 06:36:35.67	22.03	26.98	-48.5	-49.8	14.8	0.00e+00	0	25	0	1067450368	62	4344
2026-01-07 06:36:39.67	20.79	26.99	-48.5	-49.8	14.8	0.00e+00	0	25	0	1080033280	62	4342
2026-01-07 06:36:43.63	19.56	26.99	-48.7	-50.0	14.7	0.00e+00	0	25	0	1091567616	62	4480
2026-01-07 06:36:47.64	18.31	26.97	-48.4	-49.7	15.0	0.00e+00	0	25	0	1104150528	63	4058
2026-01-07 06:36:51.63	17.07	26.94	-48.1	-49.3	15.0	0.00e+00	0	25	0	1116733440	62	4103
2026-01-07 06:36:55.64	15.83	26.89	-48.2	-49.4	14.9	0.00e+00	0	25	0	1129316352	62	4190
2026-01-07 06:36:59.64	14.60	26.83	-48.4	-49.6	14.9	0.00e+00	0	25	0	1141899264	62	4289
2026-01-07 06:37:03.64	13.37	26.75	-48.4	-49.7	14.8	0.00e+00	0	25	0	1154482176	62	4297
2026-01-07 06:37:07.63	12.16	26.66	-48.4	-49.6	14.9	0.00e+00	0	25	0	1167065088	62	4286
2026-01-07 06:37:11.63	10.94	26.56	-48.3	-49.6	14.9	0.00e+00	0	25	0	1179648000	62	4250
2026-01-07 06:37:15.62	9.74	26.44	-48.4	-49.6	14.9	0.00e+00	0	25	0	1192230912	62	4288
2026-01-07 06:37:19.63	8.54	26.31	-48.2	-49.4	14.9	0.00e+00	0	25	0	1204813824	62	4173
2026-01-07 06:37:23.63	7.36	26.16	-48.0	-49.2	15.0	0.00e+00	0	25	0	1217396736	62	4078
2026-01-07 06:37:27.63	6.19	26.01	-48.2	-49.4	14.9	0.00e+00	0	25	0	1228931072	62	4191
2026-01-07 06:37:31.63	5.03	25.84	-48.1	-49.3	15.0	0.00e+00	0	25	0	1241513984	62	4102
2026-01-07 06:37:35.64	3.87	25.66	-48.3	-49.5	14.9	0.00e+00	0	25	0	1254096896	62	4194
2026-01-07 06:37:39.65	2.74	25.46	-48.2	-49.4	14.9	0.00e+00	0	25	0	1266679808	62	4172
2026-01-07 06:37:43.65	1.62	25.26	-48.3	-49.5	14.9	0.00e+00	0	25	0	1279262720	62	4214
2026-01-07 06:37:47.64	0.51	25.05	-48.4	-49.6	14.9	0.00e+00	0	25	0	1291845632	62	4286
2026-01-07 06:37:51.64	359.42	24.83	-48.5	-49.8	14.8	0.00e+00	0	25	0	1304428544	62	4343
2026-01-07 06:37:55.64	358.35	24.59	-48.7	-50.0	14.7	0.00e+00	0	25	0	1317011456	62	4445
2026-01-07 06:37:59.66	357.29	24.35	-48.2	-49.4	14.9	0.00e+00	0	25	0	1329594368	62	4167
2026-01-07 06:38:03.66	356.24	24.10	-48.8	-50.1	14.7	0.00e+00	0	25	0	1342177280	62	4512
2026-01-07 06:38:07.67	355.22	23.85	-48.4	-49.6	14.8	0.00e+00	0	25	0	1354760192	62	4267
2026-01-07 06:38:11.67	354.21	23.58	-47.7	-48.9	15.0	0.00e+00	0	25	0	1367343104	61	4172
2026-01-07 06:38:15.67	353.22	23.31	-48.4	-49.6	14.7	0.00e+00	0	25	0	1379926016	61	4542
2026-01-07 06:38:19.67	352.25	23.04	-48.2	-49.4	14.9	0.00e+00	0	25	0	1392508928	62	4184
2026-01-07 06:38:23.68	351.29	22.75	-48.2	-49.4	15.0	0.00e+00	0	25	0	1405091840	62	4155
2026-01-07 06:38:27.66	350.35	22.47	-48.1	-49.3	15.0	0.00e+00	0	25	0	1416626176	62	4099
2026-01-07 06:38:31.66	349.43	22.17	-48.4	-49.6	14.9	0.00e+00	0	25	0	1429209088	62	4283
2026-01-07 06:38:35.66	348.53	21.88	-48.7	-50.0	14.7	0.00e+00	0	25	0	1441792000	62	4455
2026-01-07 06:38:39.65	347.65	21.58	-48.3	-49.5	14.9	0.00e+00	0	25	0	1454374912	62	4242
2026-01-07 06:38:43.65	346.78	21.27	-48.2	-49.4	14.9	0.00e+00	0	25	0	1466957824	62	4183
2026-01-07 06:38:47.65	345.93	20.96	-48.3	-49.5	14.9	0.00e+00	0	25	0	1479540736	62	4236
2026-01-07 06:38:51.64	345.10	20.66	-48.6	-49.8	14.8	0.00e+00	0	25	0	1492123648	62	4389
2026-01-07 06:38:55.65	344.28	20.34	-48.7	-50.0	14.7	0.00e+00	0	25	0	1504706560	62	4446
2026-01-07 06:38:59.64	343.48	20.03	-48.4	-49.6	14.8	0.00e+00	0	25	0	1517289472	62	4282
2026-01-07 06:39:03.63	342.70	19.71	-48.5	-49.7	14.8	0.00e+00	0	25	0	1529872384	62	4316
2026-01-07 06:39:07.65	341.93	19.39	-48.8	-50.2	14.7	0.00e+00	0	25	0	1542455296	62	4546
2026-01-07 06:39:11.65	341.17	19.07	-48.9	-50.2	14.7	0.00e+00	0	25	0	1553989632	63	4340
2026-01-07 06:39:15.64	340.44	18.75	-48.9	-50.3	14.7	0.00e+00	0	25	0	1566572544	63	4343
2026-01-07 06:39:19.65	339.72	18.43	-49.0	-50.3	14.7	0.00e+00	0	25	0	1579155456	63	4374
2026-01-07 06:39:23.65	339.01	18.11	-48.8	-50.1	14.8	0.00e+00	0	25	0	1591738368	63	4287
2026-01-07 06:39:27.66	338.32	17.79	-48.7	-50.0	14.8	0.00e+00	0	25	0	1604321280	63	4217
2026-01-07 06:39:31.66	337.65	17.46	-48.6	-49.8	14.9	0.00e+00	0	25	0	1616904192	63	4129
2026-01-07 06:39:35.66	336.99	17.14	-48.7	-49.9	14.8	0.00e+00	0	25	0	1629487104	63	4193
2026-01-07 06:39:39.65	336.34	16.82	-48.9	-50.2	14.7	0.00e+00	0	25	0	1642070016	63	4322
2026-01-07 06:39:43.64	335.71	16.50	-48.9	-50.2	14.8	0.00e+00	0	25	0	1654652928	63	4295
2026-01-07 06:39:47.63	335.10	16.18	-48.6	-49.9	14.9	0.00e+00	0	25	0	1667235840	63	4181
2026-01-07 06:39:51.60	334.50	15.86	-49.2	-50.5	14.6	0.00e+00	0	25	0	1678770176	63	4491
2026-01-07 06:39:55.60	333.90	15.55	-49.3	-50.8	14.5	0.00e+00	0	25	0	1691353088	63	4600
2026-01-07 06:39:59.59	333.32	15.23	-49.0	-50.3	14.7	0.00e+00	0	25	0	1703936000	63	4364
2026-01-07 06:40:03.60	332.76	14.91	-49.0	-50.3	14.7	0.00e+00	0	25	0	1716518912	63	4370
2026-01-07 06:40:07.59	332.20	14.60	-49.4	-50.9	14.6	0.00e+00	0	25	0	1729101824	64	4392
2026-01-07 06:40:11.59	331.66	14.28	-49.5	-50.9	14.5	0.00e+00	0	25	0	1741684736	64	4421
2026-01-07 06:40:15.58	331.13	13.97	-49.1	-50.5	14.7	0.00e+00	0	25	0	1754267648	64	4211
2026-01-07 06:40:19.58	330.61	13.66	-49.1	-50.5	14.7	0.00e+00	0	25	0	1766850560	64	4203
2026-01-07 06:40:23.58	330.10	13.35	-49.5	-50.9	14.5	0.00e+00	0	25	0	1779433472	64	4428
2026-01-07 06:40:27.59	329.60	13.05	-49.6	-51.0	14.4	0.00e+00	0	25	0	1792016384	64	4480
2026-01-07 06:40:31.60	329.11	12.74	-49.2	-50.6	14.6	0.00e+00	0	25	0	1804599296	64	4247
2026-01-07 06:40:35.61	328.63	12.43	-48.8	-50.1	14.9	0.00e+00	0	25	0	1817182208	64	4024
2026-01-07 06:40:39.60	328.16	12.13	-49.0	-50.3	14.8	0.00e+00	0	25	0	1829765120	64	4117
2026-01-07 06:40:43.60	327.71	11.83	-49.8	-51.2	14.4	0.00e+00	0	25	0	1841299456	64	4583
2026-01-07 06:40:47.62	327.26	11.53	-50.0	-51.5	14.3	0.00e+00	0	25	0	1854930944	65	4453
2026-01-07 06:40:51.61	326.82	11.24	-49.7	-51.1	14.5	0.00e+00	0	25	0	1866465280	65	4282
2026-01-07 06:40:55.61	326.39	10.94	-49.3	-50.6	14.7	0.00e+00	0	25	0	1879048192	65	4048
2026-01-07 06:40:59.62	325.96	10.65	-49.3	-50.7	14.7	0.00e+00	0	25	0	1891631104	65	4060
2026-01-07 06:41:03.61	325.55	10.36	-50.0	-51.4	14.4	0.00e+00	0	25	0	1904214016	65	4420
2026-01-07 06:41:07.62	325.15	10.07	-50.2	-51.8	14.2	0.00e+00	0	25	0	1916796928	65	4602
2026-01-07 06:41:11.65	324.75	9.78	-50.3	-51.9	14.1	0.00e+00	0	25	0	1929379840	65	4678
2026-01-07 06:41:15.67	324.36	9.49	-50.2	-51.7	14.3	0.00e+00	0	25	0	1941962752	66	4329
2026-01-07 06:41:19.67	323.98	9.21	-50.1	-51.6	14.4	0.00e+00	0	25	0	1954545664	66	4273
2026-01-07 06:41:23.67	323.60	8.93	-50.3	-51.9	14.2	0.00e+00	0	25	0	1967128576	66	4404
2026-01-07 06:41:27.70	323.24	8.65	-50.6	-52.1	14.1	0.00e+00	0	25	0	1979711488	66	4534
2026-01-07 06:41:31.68	322.88	8.37	-50.8	-52.4	13.9	0.00e+00	0	25	0	1992294400	66	4687
2026-01-07 06:41:35.68	322.53	8.10	-51.0	-52.7	13.9	0.00e+00	0	25	0	2004877312	67	4565
2026-01-07 06:41:39.67	322.18	7.83	-50.9	-52.6	13.9	0.00e+00	0	25	0	2017460224	67	4503
2026-01-07 06:41:43.68	321.84	7.55	-50.8	-52.4	14.0	0.00e+00	0	25	0	2030043136	67	4413
2026-01-07 06:41:47.67	321.51	7.29	-50.8	-52.5	14.0	0.00e+00	0	25	0	2041577472	67	4447
2026-01-07 06:41:51.66	321.19	7.02	-50.7	-52.4	14.1	0.00e+00	0	25	0	2054160384	67	4397
2026-01-07 06:41:55.66	320.87	6.75	-51.0	-52.7	13.8	0.00e+00	0	25	0	2066743296	67	4565
2026-01-07 06:41:59.64	320.56	6.49	-51.3	-53.1	13.6	0.00e+00	0	25	0	2079326208	67	4812
2026-01-07 06:42:03.63	320.25	6.23	-51.7	-53.6	13.5	0.00e+00	0	25	0	2091909120	68	4782
2026-01-07 06:42:07.64	319.95	5.97	-51.6	-53.4	13.6	0.00e+00	0	25	0	2104492032	68	4670
2026-01-07 06:42:11.64	319.65	5.71	-51.6	-53.4	13.6	0.00e+00	0	25	0	2117074944	68	4683
2026-01-07 06:42:15.64	319.36	5.45	-51.5	-53.3	13.6	0.00e+00	0	25	0	2129657856	68	4628
2026-01-07 06:42:19.63	319.08	5.20	-51.3	-53.1	13.7	0.00e+00	0	25	0	2142240768	68	4525
2026-01-07 06:42:23.63	318.80	4.95	-58.4	-72.0	3.8	1.49e+00	0	25	104	2152726528	81	18835
2026-01-07 06:42:27.64	318.52	4.70	-59.4	-73.2	3.8	1.49e+00	0	25	104	2152726528	83	19272
2026-01-07 06:42:31.65	318.25	4.44	-60.0	-73.8	3.8	1.49e+00	0	25	104	2152726528	85	18414
2026-01-07 06:42:35.65	317.99	4.20	-60.2	-74.0	3.8	1.49e+00	0	26	104	2152726528	85	18932
2026-01-07 06:42:39.65	317.73	3.95	-60.3	-74.2	3.8	1.49e+00	0	25	104	2152726528	85	19197
2026-01-07 06:42:43.66	317.47	3.71	-60.3	-74.2	3.8	1.49e+00	0	25	104	2152726528	85	19225
2026-01-07 06:42:47.65	317.22	3.46	-60.2	-74.1	3.8	1.49e+00	0	25	104	2152726528	85	18996
2026-01-07 06:42:51.64	316.97	3.22	-60.2	-74.0	3.8	1.49e+00	0	25	104	2152726528	85	18886
2026-01-07 06:42:55.63	316.73	2.98	-60.1	-74.0	3.8	1.49e+00	0	26	104	2152726528	85	18900
2026-01-07 06:42:59.63	316.49	2.75	-60.1	-74.0	3.8	1.49e+00	0	25	104	2152726528	85	18811
2026-01-07 06:43:03.62	316.26	2.51	-60.1	-73.9	3.8	1.49e+00	0	25	104	2152726528	85	18725
2026-01-07 06:43:07.63	316.02	2.27	-60.1	-74.0	3.8	1.49e+00	0	26	104	2152726528	85	18746
2026-01-07 06:43:11.64	315.80	2.04	-60.1	-73.9	3.8	1.49e+00	0	26	104	2152726528	85	18670

#Closed at: 2026-01-07 06:43:13
#Recorded file [2152 MB]: D:/lorett/data/31004_260107_093011.dat