passes_logs/2026/01/07/R3.2S_Murmansk/R3.2S_Murmansk__20260107_094814_TY-42_rec.log

#Pass ID: 20260107_094814_TY-42
#Satellite: TY-42
#Configuration: TY-42_900M
#almurnet v.1.7.20251203
#Start time: 2026-01-07 09:48:16

#Version: 2.2.20231116
#Station: R3.2S_Murmansk
#Location: 33.079688 lon 68.888172 lat
#TLE: 1 64048U 25103A   26007.22115741  .00008010  00000-0  38191-3 0 09995
#TLE: 2 64048 097.4112 082.7846 0001819 091.9666 052.8694 15.19168316 35631

#Time	Az	El	Level	Level2	SNR	BER	BlckErr	Temp	State	Recorded	gain1	gain2
2026-01-07 09:48:16.15	21.06	2.09	-57.2	-60.4	6.1	0.00e+00	0	30	0	0	81	20626
2026-01-07 09:48:19.17	21.02	2.30	-57.3	-60.5	6.2	0.00e+00	0	30	104	0	81	20715
2026-01-07 09:48:22.19	20.98	2.51	-57.2	-60.4	6.2	0.00e+00	0	31	104	0	81	20618
2026-01-07 09:48:25.21	20.93	2.73	-57.2	-60.4	6.2	0.00e+00	0	31	104	0	81	20630
2026-01-07 09:48:28.24	20.89	2.95	-57.3	-60.5	6.2	0.00e+00	0	31	104	0	81	20754
2026-01-07 09:48:31.27	20.84	3.17	-57.3	-60.5	6.2	0.00e+00	0	31	104	0	81	20689
2026-01-07 09:48:34.29	20.80	3.39	-57.2	-60.5	6.2	0.00e+00	0	31	104	0	81	20652
2026-01-07 09:48:37.30	20.75	3.61	-57.2	-60.4	6.2	0.00e+00	0	31	104	0	81	20491
2026-01-07 09:48:40.33	20.70	3.84	-57.2	-60.4	6.2	0.00e+00	0	31	104	0	81	20475
2026-01-07 09:48:43.36	20.65	4.07	-57.3	-60.5	6.2	0.00e+00	0	31	104	0	81	20669
2026-01-07 09:48:46.37	20.60	4.30	-57.3	-60.5	6.2	0.00e+00	0	31	104	0	81	20688
2026-01-07 09:48:49.39	20.54	4.54	-57.3	-60.5	6.2	0.00e+00	0	31	104	0	81	20759
2026-01-07 09:48:52.41	20.49	4.77	-57.3	-60.5	6.2	0.00e+00	0	31	104	0	81	20871
2026-01-07 09:48:55.43	20.43	5.01	-57.3	-60.5	6.2	0.00e+00	0	32	104	0	81	20733
2026-01-07 09:48:58.46	20.37	5.26	-57.4	-60.6	6.2	0.00e+00	0	32	104	0	81	20958
2026-01-07 09:49:01.47	20.32	5.50	-57.4	-60.6	6.1	0.00e+00	0	32	104	0	81	20928
2026-01-07 09:49:04.48	20.26	5.75	-57.5	-60.6	6.2	0.00e+00	0	32	104	0	81	21090
2026-01-07 09:49:07.49	20.19	6.00	-57.5	-60.7	6.2	0.00e+00	0	32	104	0	81	21273
2026-01-07 09:49:10.50	20.13	6.25	-57.5	-60.7	6.1	0.00e+00	0	32	104	0	81	21261
2026-01-07 09:49:13.52	20.06	6.51	-57.5	-60.7	6.2	0.00e+00	0	32	104	0	81	21283
2026-01-07 09:49:16.54	20.00	6.77	-57.6	-60.8	6.2	0.00e+00	0	32	104	0	81	21445
2026-01-07 09:49:19.54	19.93	7.04	-57.6	-60.8	6.2	0.00e+00	0	32	104	0	81	21573
2026-01-07 09:49:22.56	19.86	7.31	-57.6	-60.8	6.2	0.00e+00	0	32	104	0	81	21585
2026-01-07 09:49:25.58	19.79	7.58	-57.6	-60.8	6.2	0.00e+00	0	32	104	0	81	21579
2026-01-07 09:49:28.59	19.71	7.85	-57.7	-60.9	6.2	0.00e+00	0	32	104	0	81	21664
2026-01-07 09:49:31.60	19.63	8.13	-57.8	-61.0	6.1	0.00e+00	0	33	104	0	81	21986
2026-01-07 09:49:34.61	19.56	8.42	-51.8	-52.8	8.0	0.00e+00	1206	34	104	25165824	69	17038
2026-01-07 09:49:37.64	19.47	8.71	-45.5	-45.9	9.7	0.00e+00	0	33	104	83886080	58	14477
2026-01-07 09:49:40.66	19.39	9.00	-43.0	-43.3	11.8	6.26e-02	0	34	0	385875968	53	14378
2026-01-07 09:49:43.68	19.30	9.30	-42.0	-42.3	12.1	4.13e-02	0	34	0	721420288	51	14373
2026-01-07 09:49:46.69	19.22	9.60	-41.9	-42.2	12.1	1.70e-02	0	34	0	1065353216	50	15068
2026-01-07 09:49:49.70	19.12	9.91	-41.8	-42.1	12.1	1.60e-02	0	34	0	1409286144	50	14939
2026-01-07 09:49:52.72	19.03	10.22	-41.7	-42.1	12.1	1.38e-02	0	34	0	1744830464	50	14809
2026-01-07 09:49:55.74	18.93	10.54	-41.5	-41.8	12.2	1.21e-02	0	35	0	2080374784	50	14394
2026-01-07 09:49:58.76	18.83	10.86	-41.1	-41.4	12.3	1.07e-02	0	35	0	2424307712	49	14568
2026-01-07 09:50:01.78	18.73	11.19	-41.4	-41.7	12.2	9.98e-03	0	35	0	2759852032	49	15042
2026-01-07 09:50:04.79	18.63	11.52	-41.0	-41.3	12.4	7.99e-03	0	35	0	3095396352	49	14330
2026-01-07 09:50:07.80	18.52	11.86	-41.1	-41.4	12.4	7.10e-03	0	35	0	3439329280	49	14485
2026-01-07 09:50:10.83	18.40	12.21	-40.7	-41.0	12.4	5.94e-03	0	35	0	3783262208	48	14696
2026-01-07 09:50:13.84	18.29	12.56	-40.7	-41.0	12.4	5.35e-03	0	35	0	4118806528	48	14738
2026-01-07 09:50:16.86	18.17	12.92	-40.6	-40.9	12.5	4.85e-03	0	35	0	4462739456	48	14465
2026-01-07 09:50:19.86	18.04	13.29	-39.5	-39.8	12.4	4.01e-03	0	36	0	4798283776	46	14347
2026-01-07 09:50:22.87	17.92	13.66	-39.5	-39.8	12.4	6.08e-03	0	35	0	5133828096	46	14364
2026-01-07 09:50:25.90	17.78	14.05	-39.2	-39.5	12.4	5.37e-03	0	36	0	5469372416	45	14631
2026-01-07 09:50:28.91	17.65	14.43	-39.1	-39.4	12.5	5.09e-03	0	36	0	5813305344	45	14521
2026-01-07 09:50:31.91	17.51	14.83	-38.9	-39.3	12.6	3.80e-03	0	36	0	6157238272	45	14278
2026-01-07 09:50:34.92	17.36	15.23	-38.8	-39.1	12.5	3.42e-03	0	36	0	6492782592	44	14796
2026-01-07 09:50:37.93	17.21	15.65	-38.6	-38.9	12.6	3.09e-03	0	36	0	6828326912	44	14462
2026-01-07 09:50:40.94	17.05	16.07	-38.4	-38.7	12.6	2.40e-03	0	36	0	7163871232	43	15069
2026-01-07 09:50:43.95	16.89	16.50	-38.5	-38.8	12.5	2.19e-03	0	36	0	7507804160	43	15177
2026-01-07 09:50:46.97	16.72	16.94	-38.3	-38.6	12.6	2.29e-03	0	36	0	7843348480	43	14925
2026-01-07 09:50:49.98	16.54	17.40	-38.1	-38.4	12.7	1.97e-03	0	36	0	8187281408	43	14473
2026-01-07 09:50:52.99	16.36	17.86	-37.8	-38.1	12.6	1.60e-03	0	36	0	8522825728	42	14883
2026-01-07 09:50:56.01	16.17	18.33	-37.6	-37.9	12.7	1.48e-03	0	36	0	8866758656	42	14542
2026-01-07 09:50:59.02	15.98	18.82	-37.4	-37.7	12.7	1.38e-03	0	36	0	9202302976	42	14177
2026-01-07 09:51:02.03	15.77	19.31	-37.0	-37.3	12.7	1.43e-03	0	36	0	9537847296	41	14377
2026-01-07 09:51:05.04	15.56	19.82	-36.8	-37.1	12.6	1.04e-03	0	37	0	9873391616	40	14863
2026-01-07 09:51:08.07	15.34	20.35	-36.4	-36.7	12.6	1.27e-03	0	36	0	10217324544	39	15029
2026-01-07 09:51:11.07	15.11	20.88	-36.0	-36.3	12.8	9.49e-04	0	36	0	10561257472	39	14379
2026-01-07 09:51:14.08	14.87	21.43	-36.0	-36.3	12.8	4.53e-04	0	37	0	10896801792	39	14415
2026-01-07 09:51:17.10	14.62	22.00	-35.8	-36.1	12.8	3.77e-04	0	37	0	11232346112	38	14902
2026-01-07 09:51:20.09	14.36	22.58	-35.4	-35.7	12.9	3.15e-04	0	37	0	11567890432	38	14185
2026-01-07 09:51:23.12	14.08	23.18	-35.2	-35.5	13.0	1.52e-04	0	37	0	11911823360	37	14620
2026-01-07 09:51:26.12	13.80	23.79	-35.0	-35.3	13.0	1.33e-04	0	37	0	12247367680	37	14371
2026-01-07 09:51:29.14	13.50	24.42	-34.8	-35.1	13.0	4.76e-05	0	37	0	12591300608	36	14820
2026-01-07 09:51:32.14	13.18	25.06	-34.7	-35.0	13.0	3.33e-05	0	37	0	12926844928	36	14636
2026-01-07 09:51:35.16	12.85	25.73	-34.7	-35.0	13.1	2.38e-05	0	37	0	13270777856	36	14642
2026-01-07 09:51:38.17	12.51	26.42	-34.5	-34.7	13.1	3.33e-05	0	37	0	13606322176	36	14272
2026-01-07 09:51:41.19	12.14	27.13	-31.4	-31.7	13.0	6.19e-05	0	37	0	13941866496	30	14229
2026-01-07 09:51:44.21	11.76	27.86	-31.1	-31.5	13.0	6.19e-05	0	37	0	14285799424	29	14610
2026-01-07 09:51:47.22	11.35	28.61	-30.8	-31.1	13.0	9.53e-05	0	37	0	14621343744	28	14815
2026-01-07 09:51:50.23	10.93	29.39	-30.7	-31.0	13.1	1.10e-04	0	37	0	14965276672	28	14713
2026-01-07 09:51:53.24	10.48	30.19	-30.5	-30.8	13.2	1.86e-04	0	37	0	15300820992	28	14286
2026-01-07 09:51:56.25	10.00	31.01	-30.2	-30.5	13.2	9.53e-05	0	37	0	15636365312	27	14668
2026-01-07 09:51:59.26	9.50	31.86	-29.9	-30.2	13.3	9.50e-06	0	37	0	15980298240	27	14195
2026-01-07 09:52:02.28	8.97	32.74	-29.6	-29.9	13.2	2.38e-05	0	37	0	16315842560	26	14584
2026-01-07 09:52:05.29	8.40	33.65	-29.2	-29.5	13.1	1.43e-05	0	37	0	16659775488	25	14776
2026-01-07 09:52:08.31	7.80	34.59	-28.8	-29.0	13.2	1.90e-05	0	37	0	16995319808	24	14756
2026-01-07 09:52:11.32	7.16	35.55	-28.5	-28.8	13.3	0.00e+00	0	37	0	17339252736	24	14331
2026-01-07 09:52:14.35	6.47	36.55	-28.5	-28.7	13.3	0.00e+00	0	37	0	17674797056	24	14247
2026-01-07 09:52:17.37	5.73	37.58	-28.0	-28.2	13.3	0.00e+00	0	37	0	18018729984	23	14231
2026-01-07 09:52:20.38	4.95	38.64	-27.6	-27.9	13.3	0.00e+00	0	37	0	18354274304	22	14575
2026-01-07 09:52:23.40	4.11	39.73	-27.5	-27.7	13.4	0.00e+00	0	37	0	18698207232	22	14254
2026-01-07 09:52:26.41	3.20	40.86	-27.1	-27.4	13.3	0.00e+00	0	37	0	19033751552	21	14528
2026-01-07 09:52:29.43	2.23	42.02	-26.8	-27.0	13.3	0.00e+00	0	37	0	19369295872	20	14738
2026-01-07 09:52:32.45	1.17	43.21	-26.6	-26.8	13.4	0.00e+00	0	37	0	19713228800	20	14439
2026-01-07 09:52:35.47	0.03	44.43	-26.5	-26.7	13.4	0.00e+00	0	37	0	20057161728	20	14256
2026-01-07 09:52:38.49	358.79	45.69	-26.3	-26.6	13.4	0.00e+00	0	37	0	20392706048	19	14842
2026-01-07 09:52:41.51	357.45	46.97	-26.0	-26.2	13.4	0.00e+00	0	37	0	20736638976	19	14249
2026-01-07 09:52:44.53	355.98	48.28	-26.1	-26.3	13.4	0.00e+00	0	37	0	21072183296	19	14386
2026-01-07 09:52:47.55	354.38	49.61	-25.6	-25.8	13.4	0.00e+00	0	37	0	21407727616	18	14403
2026-01-07 09:52:50.56	352.63	50.96	-25.2	-25.4	13.3	0.00e+00	0	37	0	21751660544	17	14596
2026-01-07 09:52:53.58	350.70	52.32	-25.0	-25.3	13.4	3.81e-05	0	37	0	22087204864	17	14378
2026-01-07 09:52:56.58	348.60	53.68	-24.9	-25.1	13.4	9.50e-06	0	37	0	22431137792	17	14096
2026-01-07 09:52:59.60	346.26	55.05	-59.7	-63.0	6.2	9.50e-06	0	36	104	22506635264	85	21910
2026-01-07 09:53:02.62	343.69	56.40	-59.8	-63.0	6.2	9.50e-06	0	36	104	22506635264	85	22066
2026-01-07 09:53:05.64	340.85	57.73	-59.8	-63.0	6.1	4.70e-06	0	36	104	22506635264	85	21992
2026-01-07 09:53:08.67	337.70	59.02	-59.8	-63.0	6.1	4.70e-06	0	36	104	22506635264	85	22065
2026-01-07 09:53:11.68	334.26	60.24	-59.8	-63.0	6.1	4.70e-06	0	36	104	22506635264	85	22035
2026-01-07 09:53:14.69	330.47	61.39	-59.9	-63.1	6.1	4.70e-06	0	36	104	22506635264	85	22291
2026-01-07 09:53:17.71	326.31	62.45	-59.9	-63.1	6.2	0.00e+00	0	36	104	22506635264	85	22173
2026-01-07 09:53:20.72	321.81	63.38	-59.8	-63.1	6.2	0.00e+00	0	36	104	22506635264	85	22227
2026-01-07 09:53:23.74	316.94	64.16	-59.8	-63.1	6.2	0.00e+00	0	36	104	22506635264	85	22178
2026-01-07 09:53:26.76	311.77	64.78	-59.9	-63.1	6.1	0.00e+00	0	36	104	22506635264	85	22331
2026-01-07 09:53:29.77	306.37	65.21	-59.9	-63.1	6.1	0.00e+00	0	36	104	22506635264	85	22343
2026-01-07 09:53:32.79	300.79	65.43	-59.9	-63.1	6.1	0.00e+00	0	35	104	22506635264	85	22227
2026-01-07 09:53:35.80	295.16	65.44	-59.9	-63.1	6.1	0.00e+00	0	35	104	22506635264	85	22328
2026-01-07 09:53:38.82	289.57	65.24	-59.9	-63.2	6.2	0.00e+00	0	35	104	22506635264	85	22373
2026-01-07 09:53:41.84	284.12	64.84	-59.9	-63.2	6.2	0.00e+00	0	35	104	22506635264	85	22397
2026-01-07 09:53:44.84	278.95	64.25	-59.9	-63.1	6.1	0.00e+00	0	35	104	22506635264	85	22257
2026-01-07 09:53:47.87	274.03	63.47	-59.8	-63.1	6.1	0.00e+00	0	35	104	22506635264	85	22133
2026-01-07 09:53:50.87	269.49	62.56	-59.8	-63.1	6.1	0.00e+00	0	35	104	22506635264	85	22171
2026-01-07 09:53:53.88	265.30	61.53	-59.8	-63.0	6.2	0.00e+00	0	35	104	22506635264	85	22099
2026-01-07 09:53:56.90	261.45	60.38	-59.8	-63.0	6.2	0.00e+00	0	35	104	22506635264	85	22002
2026-01-07 09:53:59.91	257.96	59.16	-59.7	-63.0	6.2	0.00e+00	0	35	104	22506635264	85	21914
2026-01-07 09:54:02.93	254.78	57.88	-59.8	-63.0	6.2	0.00e+00	0	35	104	22506635264	85	22006
2026-01-07 09:54:05.95	251.90	56.55	-59.7	-63.0	6.2	0.00e+00	0	35	104	22506635264	85	21929
2026-01-07 09:54:08.97	249.29	55.20	-59.7	-62.9	6.2	0.00e+00	0	35	104	22506635264	85	21704
2026-01-07 09:54:11.98	246.94	53.83	-59.7	-62.9	6.1	0.00e+00	0	35	104	22506635264	85	21675
2026-01-07 09:54:15.00	244.79	52.46	-59.7	-62.9	6.1	0.00e+00	0	35	104	22506635264	85	21788
2026-01-07 09:54:18.02	242.84	51.09	-59.7	-62.9	6.2	0.00e+00	0	35	104	22506635264	85	21752
2026-01-07 09:54:21.04	241.07	49.74	-59.6	-62.9	6.2	0.00e+00	0	35	104	22506635264	85	21640
2026-01-07 09:54:24.05	239.45	48.40	-59.6	-62.8	6.1	0.00e+00	0	35	104	22506635264	85	21496
2026-01-07 09:54:27.07	237.96	47.09	-59.6	-62.8	6.1	0.00e+00	0	35	104	22506635264	85	21588
2026-01-07 09:54:30.09	236.60	45.80	-59.6	-62.8	6.2	0.00e+00	0	35	104	22506635264	85	21543
2026-01-07 09:54:33.11	235.35	44.54	-59.6	-62.8	6.2	0.00e+00	0	35	104	22506635264	85	21386
2026-01-07 09:54:36.13	234.20	43.30	-59.5	-62.7	6.1	0.00e+00	0	35	104	22506635264	85	21318
2026-01-07 09:54:39.14	233.13	42.11	-59.5	-62.7	6.1	0.00e+00	0	35	104	22506635264	85	21281
2026-01-07 09:54:42.16	232.15	40.94	-59.5	-62.7	6.1	0.00e+00	0	35	104	22506635264	85	21254
2026-01-07 09:54:45.17	231.23	39.81	-59.5	-62.7	6.1	0.00e+00	0	35	104	22506635264	85	21237
2026-01-07 09:54:48.19	230.38	38.71	-59.4	-62.6	6.2	0.00e+00	0	35	104	22506635264	85	21049
2026-01-07 09:54:51.20	229.59	37.65	-59.4	-62.6	6.2	0.00e+00	0	35	104	22506635264	85	21113
2026-01-07 09:54:54.21	228.85	36.61	-59.4	-62.6	6.1	0.00e+00	0	35	104	22506635264	85	21103
2026-01-07 09:54:57.24	228.16	35.60	-59.4	-62.6	6.1	0.00e+00	0	35	104	22506635264	85	21018
2026-01-07 09:55:00.24	227.51	34.64	-59.3	-62.6	6.2	0.00e+00	0	35	104	22506635264	85	20878
2026-01-07 09:55:03.25	226.90	33.70	-59.3	-62.6	6.2	0.00e+00	0	35	104	22506635264	85	20955
2026-01-07 09:55:06.27	226.33	32.78	-59.3	-62.5	6.2	0.00e+00	0	35	104	22506635264	85	20860
2026-01-07 09:55:09.28	225.79	31.90	-59.3	-62.5	6.2	0.00e+00	0	35	104	22506635264	85	20658
2026-01-07 09:55:12.30	225.28	31.04	-59.2	-62.5	6.2	0.00e+00	0	35	104	22506635264	85	20676
2026-01-07 09:55:15.32	224.80	30.21	-59.3	-62.5	6.1	0.00e+00	0	35	104	22506635264	85	20667
2026-01-07 09:55:18.35	224.35	29.40	-59.2	-62.5	6.2	0.00e+00	0	35	104	22506635264	85	20679
2026-01-07 09:55:21.36	223.92	28.62	-59.2	-62.4	6.2	0.00e+00	0	35	104	22506635264	85	20566
2026-01-07 09:55:24.37	223.51	27.86	-59.2	-62.4	6.1	0.00e+00	0	35	104	22506635264	85	20554
2026-01-07 09:55:27.38	223.13	27.13	-59.2	-62.4	6.2	0.00e+00	0	35	104	22506635264	85	20490
2026-01-07 09:55:30.40	222.76	26.41	-59.1	-62.4	6.2	0.00e+00	0	35	104	22506635264	85	20437
2026-01-07 09:55:33.41	222.41	25.72	-59.1	-62.3	6.2	0.00e+00	0	34	104	22506635264	85	20393
2026-01-07 09:55:36.43	222.07	25.05	-59.1	-62.3	6.2	0.00e+00	0	35	104	22506635264	85	20215
2026-01-07 09:55:39.44	221.76	24.39	-59.1	-62.3	6.1	0.00e+00	0	35	104	22506635264	85	20308
2026-01-07 09:55:42.46	221.45	23.76	-59.0	-62.3	6.2	0.00e+00	0	35	104	22506635264	85	20193
2026-01-07 09:55:45.48	221.16	23.14	-59.0	-62.3	6.2	0.00e+00	0	35	104	22506635264	85	20180
2026-01-07 09:55:48.49	220.89	22.54	-59.0	-62.2	6.1	0.00e+00	0	35	104	22506635264	85	20047
2026-01-07 09:55:51.50	220.62	21.96	-59.0	-62.2	6.1	0.00e+00	0	34	104	22506635264	85	20103
2026-01-07 09:55:54.50	220.37	21.39	-59.0	-62.2	6.1	0.00e+00	0	35	104	22506635264	85	20052
2026-01-07 09:55:57.51	220.13	20.84	-58.9	-62.1	6.2	0.00e+00	0	35	104	22506635264	85	19908
2026-01-07 09:56:00.53	219.90	20.30	-58.9	-62.1	6.1	0.00e+00	0	34	104	22506635264	85	19909
2026-01-07 09:56:03.53	219.67	19.78	-58.9	-62.1	6.1	0.00e+00	0	35	104	22506635264	85	19901
2026-01-07 09:56:06.56	219.46	19.26	-58.8	-62.1	6.2	0.00e+00	0	34	104	22506635264	84	20961
2026-01-07 09:56:09.56	219.25	18.76	-58.8	-62.1	6.1	0.00e+00	0	34	104	22506635264	84	20916
2026-01-07 09:56:12.57	219.05	18.28	-58.8	-62.0	6.2	0.00e+00	0	34	104	22506635264	84	20852
2026-01-07 09:56:15.58	218.86	17.80	-58.8	-62.0	6.2	0.00e+00	0	35	104	22506635264	84	20823
2026-01-07 09:56:18.61	218.68	17.33	-58.8	-62.0	6.2	0.00e+00	0	34	104	22506635264	84	20748
2026-01-07 09:56:21.63	218.50	16.88	-58.7	-62.0	6.1	0.00e+00	0	35	104	22506635264	84	20703
2026-01-07 09:56:24.65	218.33	16.43	-58.8	-62.0	6.2	0.00e+00	0	34	104	22506635264	84	20704
2026-01-07 09:56:27.67	218.17	16.00	-58.7	-62.0	6.2	0.00e+00	0	34	104	22506635264	84	20662
2026-01-07 09:56:30.68	218.01	15.57	-58.7	-61.9	6.2	0.00e+00	0	34	104	22506635264	84	20566
2026-01-07 09:56:33.70	217.85	15.16	-58.7	-61.9	6.2	0.00e+00	0	35	104	22506635264	84	20533
2026-01-07 09:56:36.71	217.71	14.75	-58.6	-61.9	6.1	0.00e+00	0	35	104	22506635264	84	20454
2026-01-07 09:56:39.71	217.56	14.35	-58.6	-61.9	6.2	0.00e+00	0	35	104	22506635264	84	20407
2026-01-07 09:56:42.73	217.42	13.96	-58.6	-61.8	6.2	0.00e+00	0	34	104	22506635264	84	20362
2026-01-07 09:56:45.74	217.29	13.58	-58.6	-61.8	6.2	0.00e+00	0	35	104	22506635264	84	20226
2026-01-07 09:56:48.75	217.16	13.21	-58.6	-61.8	6.2	0.00e+00	0	35	104	22506635264	84	20316
2026-01-07 09:56:51.77	217.03	12.84	-58.5	-61.8	6.1	0.00e+00	0	35	104	22506635264	84	20237
2026-01-07 09:56:54.79	216.91	12.48	-58.5	-61.7	6.1	0.00e+00	0	35	104	22506635264	84	20054
2026-01-07 09:56:57.78	216.80	12.13	-58.5	-61.7	6.2	0.00e+00	0	35	104	22506635264	84	20074
2026-01-07 09:57:00.80	216.68	11.78	-58.5	-61.7	6.2	0.00e+00	0	34	104	22506635264	84	20058
2026-01-07 09:57:03.81	216.57	11.44	-58.5	-61.7	6.2	0.00e+00	0	35	104	22506635264	84	20030
2026-01-07 09:57:06.83	216.46	11.10	-58.4	-61.7	6.2	0.00e+00	0	34	104	22506635264	84	19936
2026-01-07 09:57:09.85	216.36	10.77	-58.4	-61.6	6.2	0.00e+00	0	35	104	22506635264	84	19869
2026-01-07 09:57:12.86	216.26	10.45	-58.2	-61.4	6.2	0.00e+00	0	35	104	22506635264	83	20616
2026-01-07 09:57:15.87	216.16	10.13	-58.2	-61.4	6.1	0.00e+00	0	35	104	22506635264	83	20570
2026-01-07 09:57:18.88	216.06	9.82	-58.1	-61.3	6.2	0.00e+00	0	35	104	22506635264	83	20351
2026-01-07 09:57:21.90	215.97	9.51	-58.1	-61.3	6.1	0.00e+00	0	35	104	22506635264	83	20302
2026-01-07 09:57:24.92	215.88	9.20	-58.1	-61.3	6.2	0.00e+00	0	34	104	22506635264	83	20336
2026-01-07 09:57:27.92	215.79	8.91	-58.1	-61.3	6.2	0.00e+00	0	35	104	22506635264	83	20337
2026-01-07 09:57:30.94	215.71	8.61	-58.0	-61.3	6.2	0.00e+00	0	34	104	22506635264	83	20176
2026-01-07 09:57:33.94	215.63	8.32	-58.0	-61.2	6.2	0.00e+00	0	35	104	22506635264	83	20072
2026-01-07 09:57:36.96	215.55	8.04	-58.0	-61.2	6.1	0.00e+00	0	34	104	22506635264	83	20140
2026-01-07 09:57:39.98	215.47	7.76	-58.0	-61.2	6.2	0.00e+00	0	35	104	22506635264	83	19976
2026-01-07 09:57:43.00	215.39	7.48	-57.8	-61.0	6.1	0.00e+00	0	35	104	22506635264	82	20868
2026-01-07 09:57:46.01	215.32	7.21	-57.8	-61.0	6.2	0.00e+00	0	34	104	22506635264	82	20814
2026-01-07 09:57:49.04	215.24	6.94	-57.8	-61.0	6.2	0.00e+00	0	35	104	22506635264	82	20825
2026-01-07 09:57:52.06	215.17	6.67	-57.9	-61.1	6.2	0.00e+00	0	34	104	22506635264	82	20895
2026-01-07 09:57:55.08	215.10	6.41	-57.7	-61.0	6.1	0.00e+00	0	35	104	22506635264	82	20659
2026-01-07 09:57:58.10	215.04	6.15	-57.7	-60.9	6.1	0.00e+00	0	35	104	22506635264	82	20616
2026-01-07 09:58:01.12	214.97	5.89	-57.7	-60.9	6.2	0.00e+00	0	35	104	22506635264	82	20545
2026-01-07 09:58:04.14	214.91	5.64	-57.7	-61.0	6.2	0.00e+00	0	35	104	22506635264	82	20689
2026-01-07 09:58:07.16	214.84	5.39	-57.6	-60.8	6.1	0.00e+00	0	35	104	22506635264	82	20262
2026-01-07 09:58:10.18	214.78	5.14	-57.5	-60.7	6.2	0.00e+00	0	34	104	22506635264	82	20138
2026-01-07 09:58:13.19	214.72	4.90	-58.3	-61.6	6.1	0.00e+00	0	34	104	22506635264	82	22135
2026-01-07 09:58:16.22	214.67	4.66	-59.0	-62.2	6.1	0.00e+00	0	35	104	22506635264	83	22584
2026-01-07 09:58:19.25	214.61	4.42	-59.4	-62.7	6.2	0.00e+00	0	35	104	22506635264	84	22454
2026-01-07 09:58:22.27	214.56	4.19	-59.6	-62.9	6.1	0.00e+00	0	35	104	22506635264	85	21724
2026-01-07 09:58:25.29	214.50	3.96	-59.8	-63.0	6.2	0.00e+00	0	35	104	22506635264	85	21988
2026-01-07 09:58:28.31	214.45	3.73	-59.9	-63.1	6.2	0.00e+00	0	35	104	22506635264	85	22194
2026-01-07 09:58:31.34	214.40	3.50	-59.9	-63.2	6.1	0.00e+00	0	35	104	22506635264	85	22461
2026-01-07 09:58:34.36	214.35	3.27	-60.0	-63.2	6.2	0.00e+00	0	35	104	22506635264	85	22460
2026-01-07 09:58:37.38	214.30	3.05	-59.9	-63.1	6.1	0.00e+00	0	35	104	22506635264	85	22318
2026-01-07 09:58:40.40	214.25	2.83	-59.8	-63.1	6.2	0.00e+00	0	35	104	22506635264	85	22181
2026-01-07 09:58:43.43	214.20	2.61	-59.8	-63.0	6.1	0.00e+00	0	35	104	22506635264	85	22061
2026-01-07 09:58:46.45	214.16	2.40	-59.8	-63.0	6.2	0.00e+00	0	35	104	22506635264	85	22048
2026-01-07 09:58:49.47	214.11	2.18	-59.7	-63.0	6.2	0.00e+00	0	34	104	22506635264	85	21904
2026-01-07 09:58:52.50	214.07	1.97	-59.7	-63.0	6.2	0.00e+00	0	35	104	22506635264	85	21857

#Closed at: 2026-01-07 09:58:54
#Recorded file [22506 MB]: D:/lorett/data/31004_260107_124815.dat