passes_logs/2026/01/07/R3.2S_Murmansk/R3.2S_Murmansk__20260107_233237_NOAA_21_JPSS-2_rec.log

#Pass ID: 20260107_233237_NOAA 21 (JPSS-2)
#Satellite: NOAA 21 (JPSS-2)
#Configuration: NOAA-21
#almurnet v.1.7.20251203
#Start time: 2026-01-07 23:32:39

#Version: 2.2.20231116
#Station: R3.2S_Murmansk
#Location: 33.079688 lon 68.888172 lat
#TLE: 1 54234U 22150A   26005.56767909  .00000152  00000+0  92756-4 0  9990
#TLE: 2 54234  98.7490 306.5820 0001036 340.2747  19.8389 14.19532370163472

#Time	Az	El	Level	Level2	SNR	BER	BlckErr	Temp	State	Recorded	gain1	gain2
2026-01-07 23:32:39.10	21.00	2.12	-57.5	-70.9	3.8	1.49e+00	0	23	0	0	81	16632
2026-01-07 23:32:43.11	21.15	2.37	-57.3	-70.0	3.8	1.49e+00	0	23	104	0	80	15886
2026-01-07 23:32:47.11	21.29	2.62	-57.0	-69.9	3.9	1.49e+00	0	23	104	0	80	15645
2026-01-07 23:32:51.10	21.44	2.87	-56.7	-69.5	3.8	1.49e+00	0	23	104	0	80	14941
2026-01-07 23:32:55.11	21.59	3.13	-56.7	-66.4	4.2	1.11e+00	0	23	104	0	79	11109
2026-01-07 23:32:59.11	21.74	3.38	-56.8	-65.6	5.1	5.85e-01	0	23	0	7340032	79	10145
2026-01-07 23:33:03.10	21.89	3.64	-56.7	-64.3	5.8	3.79e-01	0	24	0	19922944	79	8691
2026-01-07 23:33:07.09	22.05	3.90	-55.5	-60.0	9.3	8.22e-03	0	24	0	31457280	77	5980
2026-01-07 23:33:11.09	22.21	4.17	-53.9	-56.9	11.7	3.35e-05	0	24	0	44040192	74	4943
2026-01-07 23:33:15.05	22.37	4.43	-53.3	-55.9	12.3	7.00e-07	0	23	0	56623104	72	4942
2026-01-07 23:33:19.05	22.53	4.70	-54.2	-57.5	11.1	1.05e-04	0	24	0	69206016	73	5651
2026-01-07 23:33:23.04	22.70	4.97	-55.8	-60.7	8.6	1.39e-02	0	24	0	81788928	76	6854
2026-01-07 23:33:27.04	22.87	5.25	-57.4	-67.7	4.0	4.95e-01	0	24	104	93323264	79	12949
2026-01-07 23:33:31.04	23.04	5.52	-51.9	-53.9	13.5	0.00e+00	0	24	0	101711872	70	4418
2026-01-07 23:33:35.03	23.22	5.80	-51.4	-53.3	13.8	0.00e+00	0	24	0	114294784	69	4344
2026-01-07 23:33:39.02	23.39	6.08	-51.0	-52.8	14.0	0.00e+00	0	24	0	126877696	68	4363
2026-01-07 23:33:43.01	23.58	6.37	-51.3	-53.1	13.8	0.00e+00	0	24	0	139460608	68	4512
2026-01-07 23:33:47.01	23.76	6.66	-51.0	-52.8	14.0	0.00e+00	0	24	0	150994944	68	4344
2026-01-07 23:33:51.01	23.95	6.95	-51.0	-52.7	14.1	0.00e+00	0	24	0	163577856	68	4311
2026-01-07 23:33:55.00	24.14	7.24	-50.8	-52.4	14.2	0.00e+00	0	24	0	176160768	68	4181
2026-01-07 23:33:59.00	24.34	7.54	-50.7	-52.4	14.3	0.00e+00	0	24	0	188743680	68	4157
2026-01-07 23:34:02.98	24.53	7.84	-50.4	-51.9	14.3	0.00e+00	0	24	0	201326592	67	4186
2026-01-07 23:34:06.96	24.74	8.14	-50.3	-51.9	14.3	0.00e+00	0	24	0	213909504	67	4177
2026-01-07 23:34:10.94	24.94	8.45	-50.1	-51.7	14.4	0.00e+00	0	24	0	226492416	66	4298
2026-01-07 23:34:14.92	25.15	8.75	-50.0	-51.5	14.4	0.00e+00	0	24	0	239075328	66	4241
2026-01-07 23:34:18.90	25.36	9.07	-49.9	-51.4	14.5	0.00e+00	0	24	0	251658240	66	4170
2026-01-07 23:34:22.90	25.58	9.39	-49.9	-51.4	14.5	0.00e+00	0	24	0	263192576	66	4152
2026-01-07 23:34:26.89	25.80	9.71	-49.5	-50.9	14.6	0.00e+00	0	24	0	275775488	65	4171
2026-01-07 23:34:30.89	26.03	10.03	-49.5	-50.9	14.6	0.00e+00	0	24	0	288358400	65	4177
2026-01-07 23:34:34.89	26.27	10.36	-49.5	-50.9	14.6	0.00e+00	0	24	0	300941312	65	4180
2026-01-07 23:34:38.88	26.50	10.70	-49.6	-51.0	14.6	0.00e+00	0	24	0	313524224	65	4230
2026-01-07 23:34:42.86	26.74	11.03	-49.3	-50.7	14.8	0.00e+00	0	24	0	326107136	65	4061
2026-01-07 23:34:46.86	26.99	11.37	-49.3	-50.7	14.7	0.00e+00	0	24	0	338690048	65	4069
2026-01-07 23:34:50.86	27.24	11.72	-49.2	-50.5	14.8	0.00e+00	0	24	0	351272960	65	3983
2026-01-07 23:34:54.87	27.50	12.07	-49.2	-50.5	14.7	0.00e+00	0	25	0	363855872	64	4239
2026-01-07 23:34:58.87	27.77	12.43	-49.0	-50.3	14.8	0.00e+00	0	24	0	376438784	64	4128
2026-01-07 23:35:02.85	28.04	12.79	-48.9	-50.2	14.8	0.00e+00	0	24	0	387973120	64	4068
2026-01-07 23:35:06.83	28.31	13.15	-48.8	-50.1	14.9	0.00e+00	0	24	0	400556032	64	4023
2026-01-07 23:35:10.83	28.60	13.52	-48.9	-50.2	14.9	0.00e+00	0	25	0	413138944	64	4065
2026-01-07 23:35:14.81	28.89	13.90	-48.9	-50.2	14.9	0.00e+00	0	24	0	425721856	64	4057
2026-01-07 23:35:18.80	29.18	14.28	-49.0	-50.3	14.8	0.00e+00	0	25	0	438304768	64	4117
2026-01-07 23:35:22.80	29.49	14.66	-48.8	-50.1	14.9	0.00e+00	0	25	0	450887680	64	4027
2026-01-07 23:35:26.79	29.80	15.05	-48.9	-50.3	14.8	0.00e+00	0	25	0	463470592	64	4099
2026-01-07 23:35:30.79	30.12	15.45	-49.0	-50.3	14.8	0.00e+00	0	25	0	476053504	64	4116
2026-01-07 23:35:34.79	30.44	15.86	-49.1	-50.4	14.8	0.00e+00	0	25	0	488636416	64	4163
2026-01-07 23:35:38.78	30.78	16.26	-49.0	-50.3	14.8	0.00e+00	0	25	0	501219328	64	4135
2026-01-07 23:35:42.78	31.13	16.68	-49.2	-50.5	14.7	0.00e+00	0	25	0	512753664	64	4214
2026-01-07 23:35:46.78	31.48	17.10	-49.2	-50.5	14.7	0.00e+00	0	25	0	525336576	64	4229
2026-01-07 23:35:50.77	31.84	17.53	-49.2	-50.6	14.7	0.00e+00	0	25	0	537919488	64	4246
2026-01-07 23:35:54.77	32.22	17.96	-49.0	-50.3	14.8	0.00e+00	0	25	0	550502400	64	4126
2026-01-07 23:35:58.77	32.60	18.40	-49.0	-50.3	14.9	0.00e+00	0	25	0	563085312	64	4100
2026-01-07 23:36:02.77	33.00	18.85	-49.0	-50.3	14.8	0.00e+00	0	25	0	575668224	64	4138
2026-01-07 23:36:06.75	33.40	19.30	-48.9	-50.2	14.9	0.00e+00	0	25	0	588251136	64	4069
2026-01-07 23:36:10.76	33.82	19.77	-48.5	-49.7	14.9	0.00e+00	0	25	0	600834048	63	4084
2026-01-07 23:36:14.73	34.25	20.23	-48.3	-49.5	15.0	0.00e+00	0	25	0	613416960	63	3985
2026-01-07 23:36:18.72	34.69	20.71	-48.3	-49.5	15.0	0.00e+00	0	25	0	625999872	63	4000
2026-01-07 23:36:22.70	35.14	21.19	-48.3	-49.5	15.0	0.00e+00	0	25	0	637534208	63	3988
2026-01-07 23:36:26.70	35.62	21.68	-48.0	-49.2	15.0	0.00e+00	0	25	0	650117120	62	4071
2026-01-07 23:36:30.70	36.10	22.18	-48.0	-49.1	15.0	0.00e+00	0	25	0	662700032	62	4050
2026-01-07 23:36:34.70	36.60	22.69	-48.0	-49.1	15.0	0.00e+00	0	25	0	675282944	62	4051
2026-01-07 23:36:38.70	37.12	23.20	-47.9	-49.0	15.1	0.00e+00	0	25	0	687865856	62	3999
2026-01-07 23:36:42.68	37.65	23.72	-47.5	-48.6	15.1	0.00e+00	0	25	0	700448768	61	4045
2026-01-07 23:36:46.68	38.20	24.26	-47.7	-48.9	15.0	0.00e+00	0	25	0	713031680	61	4182
2026-01-07 23:36:50.68	38.77	24.80	-47.9	-49.1	14.9	0.00e+00	0	25	0	725614592	61	4248
2026-01-07 23:36:54.67	39.36	25.34	-47.8	-48.9	15.0	0.00e+00	0	25	0	738197504	61	4180
2026-01-07 23:36:58.66	39.97	25.90	-48.1	-49.3	14.9	0.00e+00	0	25	0	750780416	61	4369
2026-01-07 23:37:02.65	40.59	26.46	-48.2	-49.4	14.8	0.00e+00	0	25	0	763363328	61	4435
2026-01-07 23:37:06.66	41.25	27.04	-48.3	-49.5	14.8	0.00e+00	0	25	0	774897664	61	4491
2026-01-07 23:37:10.65	41.92	27.62	-48.6	-49.8	14.8	0.00e+00	0	25	0	787480576	62	4386
2026-01-07 23:37:14.64	42.62	28.21	-48.8	-50.0	14.7	0.00e+00	0	25	0	800063488	62	4478
2026-01-07 23:37:18.63	43.35	28.80	-48.6	-49.9	14.8	0.00e+00	0	25	0	812646400	62	4405
2026-01-07 23:37:22.63	44.10	29.41	-48.8	-50.1	14.7	0.00e+00	0	25	0	825229312	62	4505
2026-01-07 23:37:26.62	44.88	30.02	-48.5	-49.8	14.8	0.00e+00	0	25	0	837812224	62	4347
2026-01-07 23:37:30.62	45.69	30.64	-48.3	-49.5	14.9	0.00e+00	0	25	0	850395136	62	4223
2026-01-07 23:37:34.60	46.53	31.27	-48.5	-49.8	14.8	0.00e+00	0	25	0	862978048	62	4353
2026-01-07 23:37:38.60	47.40	31.90	-48.2	-49.4	15.0	0.00e+00	0	25	0	875560960	62	4189
2026-01-07 23:37:42.60	48.31	32.55	-48.7	-50.0	14.8	0.00e+00	0	25	0	887095296	62	4443
2026-01-07 23:37:46.59	49.26	33.19	-49.0	-50.3	14.7	0.00e+00	0	25	0	899678208	63	4350
2026-01-07 23:37:50.59	50.24	33.84	-49.2	-50.5	14.7	0.00e+00	0	25	0	912261120	63	4467
2026-01-07 23:37:54.59	51.26	34.50	-49.4	-50.7	14.7	0.00e+00	0	25	0	924844032	64	4315
2026-01-07 23:37:58.58	52.32	35.16	-49.5	-50.8	14.6	0.00e+00	0	25	0	937426944	64	4362
2026-01-07 23:38:02.58	53.43	35.83	-49.8	-51.2	14.5	0.00e+00	0	25	0	950009856	64	4582
2026-01-07 23:38:06.56	54.58	36.49	-50.1	-51.5	14.5	0.00e+00	0	25	0	962592768	65	4454
2026-01-07 23:38:10.55	55.77	37.15	-50.3	-51.7	14.4	0.00e+00	0	25	0	975175680	65	4552
2026-01-07 23:38:14.52	57.01	37.81	-50.3	-51.7	14.4	0.00e+00	0	25	0	987758592	65	4594
2026-01-07 23:38:18.51	58.31	38.47	-50.5	-51.9	14.4	0.00e+00	0	25	0	1000341504	66	4440
2026-01-07 23:38:22.49	59.66	39.13	-50.4	-51.8	14.4	0.00e+00	0	25	0	1011875840	66	4391
2026-01-07 23:38:26.50	61.07	39.79	-50.5	-52.0	14.4	0.00e+00	0	25	0	1024458752	66	4452
2026-01-07 23:38:30.50	62.53	40.43	-50.4	-51.8	14.5	0.00e+00	0	25	0	1037041664	66	4363
2026-01-07 23:38:34.51	64.06	41.07	-50.9	-52.4	14.3	0.00e+00	0	25	0	1049624576	67	4438
2026-01-07 23:38:38.49	65.63	41.69	-51.1	-52.7	14.2	0.00e+00	0	25	0	1062207488	67	4568
2026-01-07 23:38:42.49	67.28	42.30	-50.9	-52.4	14.3	0.00e+00	0	25	0	1074790400	67	4424
2026-01-07 23:38:46.46	68.97	42.89	-50.8	-52.3	14.4	0.00e+00	0	25	0	1087373312	67	4359
2026-01-07 23:38:50.45	70.73	43.46	-50.6	-52.0	14.5	0.00e+00	0	25	0	1099956224	67	4212
2026-01-07 23:38:54.45	72.56	44.02	-51.0	-52.5	14.2	0.00e+00	0	25	0	1112539136	67	4484
2026-01-07 23:38:58.45	74.45	44.54	-50.7	-52.2	14.4	0.00e+00	0	25	0	1125122048	67	4325
2026-01-07 23:39:02.45	76.41	45.04	-51.0	-52.5	14.2	0.00e+00	0	25	0	1137704960	67	4471
2026-01-07 23:39:06.45	78.42	45.51	-51.1	-52.7	14.2	0.00e+00	0	25	0	1149239296	67	4558
2026-01-07 23:39:10.45	80.49	45.94	-51.0	-52.4	14.3	0.00e+00	0	25	0	1161822208	67	4433
2026-01-07 23:39:14.43	82.61	46.34	-50.9	-52.4	14.3	0.00e+00	0	25	0	1174405120	67	4396
2026-01-07 23:39:18.41	84.77	46.69	-51.1	-52.6	14.2	0.00e+00	0	25	0	1186988032	67	4510
2026-01-07 23:39:22.42	87.00	47.01	-51.0	-52.5	14.2	0.00e+00	0	25	0	1199570944	67	4444
2026-01-07 23:39:26.41	89.26	47.27	-50.8	-52.3	14.4	0.00e+00	0	25	0	1212153856	67	4349
2026-01-07 23:39:30.42	91.57	47.50	-50.3	-51.6	14.7	0.00e+00	0	25	0	1224736768	67	4036
2026-01-07 23:39:34.41	93.89	47.67	-51.0	-52.5	14.2	0.00e+00	0	25	0	1237319680	67	4475
2026-01-07 23:39:38.39	96.23	47.79	-50.4	-51.8	14.6	0.00e+00	0	25	0	1249902592	67	4136
2026-01-07 23:39:42.39	98.60	47.86	-50.5	-51.9	14.4	0.00e+00	0	25	0	1262485504	66	4419
2026-01-07 23:39:46.39	100.98	47.88	-50.8	-52.2	14.3	0.00e+00	0	25	0	1274019840	66	4583
2026-01-07 23:39:50.38	103.34	47.85	-51.1	-52.6	14.2	0.00e+00	0	25	0	1286602752	67	4531
2026-01-07 23:39:54.37	105.70	47.77	-50.9	-52.4	14.3	0.00e+00	0	25	0	1299185664	67	4398
2026-01-07 23:39:58.36	108.05	47.63	-51.2	-52.8	14.2	0.00e+00	0	25	0	1311768576	67	4609
2026-01-07 23:40:02.35	110.37	47.45	-51.1	-52.6	14.2	0.00e+00	0	25	0	1324351488	67	4507
2026-01-07 23:40:06.36	112.67	47.21	-51.6	-53.3	14.1	0.00e+00	0	25	0	1336934400	68	4618
2026-01-07 23:40:10.34	114.91	46.93	-51.2	-52.7	14.3	0.00e+00	0	25	0	1349517312	68	4317
2026-01-07 23:40:14.31	117.11	46.61	-51.6	-53.3	14.1	0.00e+00	0	25	0	1362100224	69	4358
2026-01-07 23:40:18.30	119.28	46.25	-50.9	-52.4	14.5	0.00e+00	0	25	0	1374683136	68	4164
2026-01-07 23:40:22.28	121.38	45.84	-51.2	-52.7	14.3	0.00e+00	0	25	0	1386217472	68	4312
2026-01-07 23:40:26.27	123.44	45.40	-49.9	-51.3	14.7	0.00e+00	0	25	0	1398800384	66	4106
2026-01-07 23:40:30.28	125.44	44.92	-50.0	-51.3	14.7	0.00e+00	0	25	0	1411383296	66	4135
2026-01-07 23:40:34.27	127.38	44.42	-50.4	-51.8	14.4	0.00e+00	0	25	0	1423966208	66	4391
2026-01-07 23:40:38.28	129.27	43.88	-50.6	-52.0	14.3	0.00e+00	0	25	0	1436549120	66	4486
2026-01-07 23:40:42.27	131.08	43.33	-51.1	-52.6	14.1	0.00e+00	0	25	0	1449132032	67	4540
2026-01-07 23:40:46.26	132.83	42.75	-51.6	-53.2	14.0	0.00e+00	0	25	0	1461714944	68	4573
2026-01-07 23:40:50.26	134.53	42.15	-51.3	-52.8	14.2	0.00e+00	0	25	0	1474297856	68	4364
2026-01-07 23:40:54.26	136.16	41.53	-50.9	-52.4	14.5	0.00e+00	0	25	0	1486880768	68	4159
2026-01-07 23:40:58.25	137.73	40.90	-50.1	-51.5	14.6	0.00e+00	0	25	0	1499463680	66	4225
2026-01-07 23:41:02.27	139.25	40.26	-50.6	-52.0	14.3	0.00e+00	0	25	0	1512046592	66	4482
2026-01-07 23:41:06.26	140.70	39.61	-50.4	-51.8	14.4	0.00e+00	0	25	0	1524629504	66	4366
2026-01-07 23:41:10.25	142.09	38.95	-51.2	-52.8	14.1	0.00e+00	0	25	0	1536163840	67	4614
2026-01-07 23:41:14.24	143.43	38.29	-49.9	-51.2	14.7	0.00e+00	0	25	0	1548746752	66	4085
2026-01-07 23:41:18.24	144.72	37.62	-49.7	-51.0	14.7	0.00e+00	0	25	0	1561329664	65	4216
2026-01-07 23:41:22.24	145.96	36.95	-49.5	-50.9	14.7	0.00e+00	0	25	0	1573912576	65	4152
2026-01-07 23:41:26.23	147.14	36.29	-49.5	-50.8	14.8	0.00e+00	0	25	0	1586495488	65	4110
2026-01-07 23:41:30.22	148.28	35.62	-49.5	-50.8	14.8	0.00e+00	0	25	0	1599078400	65	4138
2026-01-07 23:41:34.20	149.38	34.96	-50.1	-51.5	14.5	0.00e+00	0	25	0	1611661312	65	4474
2026-01-07 23:41:38.20	150.43	34.29	-49.6	-50.9	14.7	0.00e+00	0	25	0	1624244224	65	4182
2026-01-07 23:41:42.19	151.44	33.64	-49.8	-51.2	14.6	0.00e+00	0	25	0	1636827136	65	4300
2026-01-07 23:41:46.19	152.42	32.98	-49.5	-50.8	14.8	0.00e+00	0	25	0	1648361472	65	4121
2026-01-07 23:41:50.17	153.35	32.33	-49.3	-50.6	14.8	0.00e+00	0	25	0	1660944384	65	4035
2026-01-07 23:41:54.17	154.25	31.69	-48.8	-50.1	14.9	0.00e+00	0	25	0	1673527296	64	4020
2026-01-07 23:41:58.17	155.12	31.06	-48.9	-50.2	14.9	0.00e+00	0	25	0	1686110208	64	4059
2026-01-07 23:42:02.16	155.95	30.43	-48.8	-50.0	15.0	0.00e+00	0	25	0	1698693120	64	3970
2026-01-07 23:42:06.16	156.76	29.80	-48.3	-49.5	15.0	0.00e+00	0	25	0	1711276032	63	3969
2026-01-07 23:42:10.16	157.53	29.19	-48.3	-49.5	14.9	0.00e+00	0	25	0	1723858944	62	4229
2026-01-07 23:42:14.15	158.28	28.58	-48.2	-49.4	14.9	0.00e+00	0	25	0	1736441856	62	4186
2026-01-07 23:42:18.13	158.99	27.99	-48.3	-49.5	14.9	0.00e+00	0	25	0	1749024768	62	4218
2026-01-07 23:42:22.11	159.68	27.40	-48.6	-49.8	14.8	0.00e+00	0	25	0	1761607680	62	4387
2026-01-07 23:42:26.07	160.35	26.82	-48.2	-49.4	14.9	0.00e+00	0	25	0	1773142016	62	4175
2026-01-07 23:42:30.06	160.99	26.25	-47.8	-49.0	15.1	0.00e+00	0	25	0	1785724928	62	3988
2026-01-07 23:42:34.06	161.62	25.69	-47.9	-49.0	15.1	0.00e+00	0	25	0	1798307840	62	4001
2026-01-07 23:42:38.05	162.22	25.13	-47.9	-49.1	15.0	0.00e+00	0	25	0	1810890752	62	4028
2026-01-07 23:42:42.04	162.80	24.58	-47.6	-48.8	15.0	0.00e+00	0	25	0	1823473664	61	4117
2026-01-07 23:42:46.03	163.37	24.04	-47.9	-49.1	14.9	0.00e+00	0	25	0	1836056576	61	4275
2026-01-07 23:42:50.01	163.91	23.51	-48.2	-49.4	14.8	0.00e+00	0	25	0	1848639488	61	4396
2026-01-07 23:42:54.02	164.44	22.99	-48.5	-49.8	14.8	0.00e+00	0	25	0	1861222400	62	4354
2026-01-07 23:42:58.02	164.96	22.47	-49.0	-50.3	14.7	0.00e+00	0	25	0	1873805312	63	4372
2026-01-07 23:43:02.03	165.45	21.96	-48.9	-50.2	14.7	0.00e+00	0	25	0	1886388224	63	4332
2026-01-07 23:43:06.02	165.93	21.47	-48.6	-49.8	14.9	0.00e+00	0	25	0	1897922560	63	4126
2026-01-07 23:43:10.00	166.40	20.98	-48.3	-49.5	15.0	0.00e+00	0	25	0	1910505472	63	3989
2026-01-07 23:43:13.99	166.85	20.49	-48.2	-49.4	15.0	0.00e+00	0	25	0	1923088384	63	3952
2026-01-07 23:43:17.98	167.29	20.02	-48.2	-49.4	14.9	0.00e+00	0	25	0	1935671296	62	4180
2026-01-07 23:43:21.96	167.71	19.55	-48.3	-49.6	14.9	0.00e+00	0	25	0	1948254208	62	4258
2026-01-07 23:43:25.93	168.12	19.09	-48.5	-49.8	14.8	0.00e+00	0	25	0	1960837120	62	4365
2026-01-07 23:43:29.91	168.52	18.64	-48.8	-50.1	14.7	0.00e+00	0	25	0	1973420032	62	4519
2026-01-07 23:43:33.90	168.92	18.19	-48.5	-49.8	14.7	0.00e+00	0	25	0	1984954368	62	4365
2026-01-07 23:43:37.89	169.29	17.75	-48.5	-49.7	14.8	0.00e+00	0	25	0	1997537280	62	4328
2026-01-07 23:43:41.89	169.67	17.32	-48.4	-49.6	14.8	0.00e+00	0	25	0	2010120192	62	4271
2026-01-07 23:43:45.88	170.03	16.89	-48.4	-49.6	14.8	0.00e+00	0	25	0	2022703104	62	4284
2026-01-07 23:43:49.88	170.38	16.47	-48.2	-49.4	14.9	0.00e+00	0	25	0	2035286016	62	4150
2026-01-07 23:43:53.87	170.72	16.05	-48.4	-49.6	14.8	0.00e+00	0	25	0	2047868928	62	4290
2026-01-07 23:43:57.87	171.05	15.64	-48.6	-49.9	14.7	0.00e+00	0	25	0	2060451840	62	4401
2026-01-07 23:44:01.87	171.37	15.24	-48.8	-50.1	14.6	0.00e+00	0	25	0	2073034752	62	4542
2026-01-07 23:44:05.86	171.69	14.84	-49.0	-50.4	14.6	0.00e+00	0	25	0	2085617664	63	4399
2026-01-07 23:44:09.86	172.00	14.45	-49.1	-50.4	14.6	0.00e+00	0	25	0	2098200576	63	4435
2026-01-07 23:44:13.86	172.30	14.07	-49.1	-50.5	14.6	0.00e+00	0	25	0	2110783488	63	4463
2026-01-07 23:44:17.84	172.59	13.69	-49.3	-50.6	14.5	0.00e+00	0	25	0	2122317824	63	4544
2026-01-07 23:44:21.83	172.88	13.31	-49.2	-50.6	14.5	0.00e+00	0	25	0	2134900736	63	4510
2026-01-07 23:44:25.84	173.16	12.94	-49.2	-50.6	14.5	0.00e+00	0	25	0	2147483648	63	4508
2026-01-07 23:44:29.84	173.43	12.57	-49.3	-50.7	14.5	0.00e+00	0	25	0	2160066560	63	4548
2026-01-07 23:44:33.83	173.70	12.21	-49.4	-50.8	14.5	0.00e+00	0	25	0	2172649472	64	4343
2026-01-07 23:44:37.82	173.96	11.86	-49.5	-50.9	14.4	0.00e+00	0	25	0	2185232384	64	4438
2026-01-07 23:44:41.82	174.22	11.51	-49.6	-51.1	14.4	0.00e+00	0	25	0	2197815296	64	4506
2026-01-07 23:44:45.82	174.46	11.16	-49.7	-51.1	14.3	0.00e+00	0	25	0	2210398208	64	4538
2026-01-07 23:44:49.82	174.71	10.82	-49.7	-51.2	14.3	0.00e+00	0	25	0	2222981120	64	4559
2026-01-07 23:44:53.82	174.95	10.48	-49.7	-51.1	14.3	0.00e+00	0	25	0	2235564032	64	4536
2026-01-07 23:44:57.82	175.18	10.14	-49.7	-51.2	14.3	0.00e+00	0	25	0	2248146944	64	4555
2026-01-07 23:45:01.81	175.41	9.82	-49.8	-51.2	14.3	0.00e+00	0	25	0	2260729856	64	4596
2026-01-07 23:45:05.81	175.64	9.49	-49.6	-51.1	14.3	0.00e+00	0	25	0	2272264192	64	4495
2026-01-07 23:45:09.81	175.86	9.17	-49.8	-51.3	14.2	0.00e+00	0	25	0	2284847104	64	4647
2026-01-07 23:45:13.80	176.07	8.85	-49.8	-51.3	14.2	0.00e+00	0	25	0	2297430016	64	4645
2026-01-07 23:45:17.79	176.28	8.54	-50.0	-51.5	14.2	0.00e+00	0	25	0	2310012928	65	4491
2026-01-07 23:45:21.78	176.49	8.22	-50.1	-51.7	14.1	0.00e+00	0	25	0	2322595840	65	4551
2026-01-07 23:45:25.76	176.69	7.92	-50.2	-51.7	14.1	0.00e+00	0	25	0	2335178752	65	4584
2026-01-07 23:45:29.74	176.89	7.62	-50.3	-51.8	14.0	0.00e+00	0	25	0	2347761664	65	4645
2026-01-07 23:45:33.74	177.08	7.31	-50.5	-52.1	14.0	0.00e+00	0	25	0	2360344576	66	4545
2026-01-07 23:45:37.73	177.27	7.02	-50.4	-52.0	14.1	0.00e+00	0	25	0	2372927488	66	4479
2026-01-07 23:45:41.74	177.46	6.72	-50.6	-52.3	13.9	0.00e+00	0	25	0	2384461824	66	4613
2026-01-07 23:45:45.74	177.65	6.43	-50.9	-52.6	13.7	0.00e+00	0	25	0	2397044736	66	4795
2026-01-07 23:45:49.73	177.83	6.14	-50.9	-52.6	13.8	0.00e+00	0	25	0	2409627648	67	4545
2026-01-07 23:45:53.73	178.01	5.86	-51.2	-53.0	13.5	0.00e+00	0	25	0	2422210560	67	4741
2026-01-07 23:45:57.73	178.18	5.58	-51.3	-53.2	13.4	0.00e+00	0	25	0	2434793472	67	4829
2026-01-07 23:46:01.73	178.35	5.30	-51.6	-53.6	13.4	0.00e+00	0	25	0	2447376384	68	4766
2026-01-07 23:46:05.73	178.52	5.02	-51.7	-53.8	13.2	0.00e+00	0	25	0	2459959296	68	4900
2026-01-07 23:46:09.74	178.69	4.74	-58.7	-72.6	3.8	1.49e+00	0	25	104	2463105024	82	19031
2026-01-07 23:46:13.74	178.85	4.47	-59.4	-73.2	3.8	1.49e+00	0	25	104	2463105024	83	19370
2026-01-07 23:46:17.74	179.01	4.20	-59.9	-73.7	3.8	1.49e+00	0	25	104	2463105024	84	19330
2026-01-07 23:46:21.74	179.17	3.94	-60.1	-73.9	3.8	1.49e+00	0	25	104	2463105024	85	18696
2026-01-07 23:46:25.73	179.32	3.67	-60.2	-74.0	3.8	1.49e+00	0	25	104	2463105024	85	18916
2026-01-07 23:46:29.71	179.48	3.41	-60.2	-74.0	3.8	1.49e+00	0	25	104	2463105024	85	18942
2026-01-07 23:46:33.70	179.63	3.15	-60.1	-74.0	3.8	1.49e+00	0	25	104	2463105024	85	18817
2026-01-07 23:46:37.69	179.77	2.90	-60.1	-74.0	3.8	1.49e+00	0	25	104	2463105024	85	18753
2026-01-07 23:46:41.70	179.92	2.64	-60.0	-73.9	3.8	1.49e+00	0	25	104	2463105024	85	18671
2026-01-07 23:46:45.69	180.06	2.39	-60.0	-73.9	3.8	1.49e+00	0	25	104	2463105024	85	18530
2026-01-07 23:46:49.70	180.20	2.14	-60.0	-73.8	3.8	1.49e+00	0	25	104	2463105024	85	18426

#Closed at: 2026-01-07 23:46:53
#Recorded file [2463 MB]: D:/lorett/data/31004_260108_023238.dat