passes_logs/2026/01/07/R3.2S_Murmansk/R3.2S_Murmansk__20260107_132723_AQUA_rec.log

#Pass ID: 20260107_132723_AQUA
#Satellite: AQUA
#Configuration: AQUA
#almurnet v.1.7.20251203
#Start time: 2026-01-07 13:27:26

#Version: 2.2.20231116
#Station: R3.2S_Murmansk
#Location: 33.079688 lon 68.888172 lat
#TLE: 1 27424U 02022A   26004.96787593  .00001598  00000+0  32997-3 0  9996
#TLE: 2 27424  98.4069 331.2279 0002002  90.2377   0.6092 14.61798176259425

#Time	Az	El	Level	Level2	SNR	BER	BlckErr	Temp	State	Recorded	gain1	gain2
2026-01-07 13:27:26.02	210.51	2.14	-57.6	-76.9	3.8	7.46e-01	0	23	0	0	84	32485
2026-01-07 13:27:29.05	210.75	2.31	-57.4	-76.5	3.8	7.46e-01	0	23	104	0	82	34732
2026-01-07 13:27:32.07	210.99	2.49	-57.4	-76.4	3.8	7.46e-01	0	23	104	0	82	34193
2026-01-07 13:27:35.09	211.23	2.66	-57.4	-76.6	3.8	7.44e-01	0	23	104	0	82	35253
2026-01-07 13:27:38.11	211.48	2.84	-57.4	-76.5	3.8	7.43e-01	0	23	104	0	82	34728
2026-01-07 13:27:41.14	211.73	3.02	-57.3	-75.8	3.8	7.45e-01	0	23	104	0	82	32108
2026-01-07 13:27:44.17	211.98	3.20	-57.4	-76.2	3.8	7.45e-01	0	24	104	0	82	33409
2026-01-07 13:27:47.19	212.24	3.38	-57.4	-76.7	3.8	7.45e-01	0	24	104	0	82	35459
2026-01-07 13:27:50.21	212.50	3.56	-57.4	-76.5	3.8	7.47e-01	0	24	104	0	82	34495
2026-01-07 13:27:53.24	212.76	3.74	-57.3	-75.8	3.8	7.46e-01	0	24	104	0	82	31819
2026-01-07 13:27:56.26	213.03	3.93	-57.3	-74.9	3.9	7.45e-01	0	24	104	0	82	28704
2026-01-07 13:27:59.28	213.30	4.11	-57.3	-73.7	3.9	7.42e-01	0	24	104	0	82	25256
2026-01-07 13:28:02.31	213.57	4.29	-57.4	-76.3	3.8	7.46e-01	0	24	104	0	82	34028
2026-01-07 13:28:05.34	213.85	4.48	-57.2	-71.0	5.0	7.08e-01	0	24	104	0	82	18462
2026-01-07 13:28:08.36	214.13	4.67	-57.0	-67.7	7.3	6.53e-01	92	24	0	4194304	82	12626
2026-01-07 13:28:11.38	214.42	4.85	-57.0	-67.5	7.4	6.50e-01	85	24	0	9961472	82	12256
2026-01-07 13:28:14.41	214.71	5.04	-56.3	-63.3	10.9	6.11e-01	0	24	0	15728640	81	8046
2026-01-07 13:28:17.43	215.00	5.23	-54.3	-58.1	14.1	6.06e-01	0	24	0	19398656	76	5876
2026-01-07 13:28:20.45	215.30	5.42	-51.5	-53.7	15.5	6.07e-01	0	24	0	25165824	72	4482
2026-01-07 13:28:23.47	215.60	5.61	-51.4	-53.7	15.3	6.05e-01	0	24	0	30932992	71	4737
2026-01-07 13:28:26.50	215.90	5.80	-51.2	-53.4	15.4	6.08e-01	0	24	0	36175872	71	4563
2026-01-07 13:28:29.53	216.21	6.00	-51.3	-53.6	15.4	6.06e-01	0	24	0	41943040	71	4668
2026-01-07 13:28:32.55	216.52	6.19	-51.1	-53.3	15.5	6.08e-01	0	24	0	47710208	71	4513
2026-01-07 13:28:35.57	216.84	6.39	-51.1	-53.2	15.5	6.07e-01	0	24	0	53477376	71	4451
2026-01-07 13:28:38.59	217.16	6.58	-51.0	-53.0	15.6	6.05e-01	0	24	0	59244544	71	4387
2026-01-07 13:28:41.62	217.49	6.78	-51.0	-53.1	15.6	6.06e-01	0	24	0	64487424	71	4431
2026-01-07 13:28:44.65	217.82	6.98	-50.8	-52.9	15.5	6.06e-01	0	24	0	70254592	70	4567
2026-01-07 13:28:47.67	218.16	7.17	-51.1	-53.2	15.3	6.07e-01	0	24	0	76021760	70	4743
2026-01-07 13:28:50.69	218.50	7.37	-50.9	-52.9	15.4	6.07e-01	0	25	0	81788928	70	4583
2026-01-07 13:28:53.71	218.85	7.57	-50.7	-52.6	15.5	6.05e-01	0	25	0	87556096	70	4435
2026-01-07 13:28:56.74	219.20	7.78	-50.7	-52.7	15.6	6.05e-01	0	24	0	92798976	70	4445
2026-01-07 13:28:59.76	219.55	7.98	-50.6	-52.6	15.6	6.05e-01	0	25	0	98566144	70	4417
2026-01-07 13:29:02.77	219.91	8.18	-50.6	-52.6	15.6	6.05e-01	0	25	0	104333312	70	4415
2026-01-07 13:29:05.79	220.28	8.39	-50.5	-52.4	15.6	6.06e-01	0	25	0	110100480	70	4322
2026-01-07 13:29:08.82	220.65	8.59	-50.6	-52.5	15.6	6.08e-01	0	24	0	115867648	70	4389
2026-01-07 13:29:11.84	221.03	8.80	-50.4	-52.4	15.7	6.08e-01	0	25	0	121110528	70	4294
2026-01-07 13:29:14.85	221.41	9.00	-50.3	-52.2	15.5	6.08e-01	0	25	0	126877696	69	4473
2026-01-07 13:29:17.87	221.80	9.21	-50.4	-52.3	15.5	6.06e-01	0	25	0	132644864	69	4527
2026-01-07 13:29:20.89	222.19	9.42	-50.2	-52.1	15.6	6.05e-01	0	25	0	138412032	69	4413
2026-01-07 13:29:23.91	222.59	9.63	-50.3	-52.1	15.6	6.06e-01	0	24	0	144179200	69	4431
2026-01-07 13:29:26.93	223.00	9.84	-50.4	-52.3	15.5	6.06e-01	0	25	0	149422080	69	4511
2026-01-07 13:29:29.96	223.41	10.05	-50.3	-52.2	15.5	6.07e-01	0	25	0	155189248	69	4487
2026-01-07 13:29:32.98	223.83	10.26	-50.1	-52.0	15.6	6.07e-01	0	25	0	160956416	69	4364
2026-01-07 13:29:36.01	224.26	10.47	-50.1	-52.0	15.6	6.07e-01	0	25	0	166723584	69	4356
2026-01-07 13:29:39.03	224.69	10.69	-50.1	-51.9	15.7	6.07e-01	0	25	0	172490752	69	4300
2026-01-07 13:29:42.04	225.13	10.90	-50.0	-51.8	15.7	6.06e-01	0	25	0	177733632	69	4289
2026-01-07 13:29:45.06	225.57	11.11	-49.9	-51.7	15.8	6.07e-01	0	25	0	183500800	69	4208
2026-01-07 13:29:48.09	226.02	11.33	-50.0	-51.7	15.7	6.04e-01	0	25	0	189267968	69	4239
2026-01-07 13:29:51.11	226.48	11.55	-49.9	-51.7	15.6	6.06e-01	0	25	0	195035136	68	4443
2026-01-07 13:29:54.13	226.95	11.76	-49.9	-51.7	15.6	6.06e-01	0	25	0	200802304	68	4479
2026-01-07 13:29:57.16	227.42	11.98	-49.6	-51.3	15.7	6.06e-01	0	25	0	206045184	68	4282
2026-01-07 13:30:00.18	227.90	12.20	-49.7	-51.4	15.7	6.08e-01	0	25	0	211812352	68	4339
2026-01-07 13:30:03.20	228.39	12.41	-49.6	-51.4	15.7	6.05e-01	0	25	0	217579520	68	4293
2026-01-07 13:30:06.22	228.89	12.63	-49.5	-51.3	15.7	6.06e-01	0	25	0	223346688	68	4245
2026-01-07 13:30:09.25	229.39	12.85	-49.7	-51.4	15.7	6.07e-01	0	25	0	229113856	68	4322
2026-01-07 13:30:12.27	229.90	13.07	-49.4	-51.1	15.6	6.05e-01	0	25	0	234356736	67	4392
2026-01-07 13:30:15.29	230.42	13.29	-49.4	-51.1	15.6	6.06e-01	0	24	0	240123904	67	4438
2026-01-07 13:30:18.31	230.95	13.51	-49.3	-51.0	15.6	6.05e-01	0	25	0	245891072	67	4365
2026-01-07 13:30:21.33	231.48	13.73	-49.4	-51.1	15.6	6.05e-01	0	25	0	251658240	67	4435
2026-01-07 13:30:24.36	232.03	13.94	-49.4	-51.2	15.6	6.05e-01	0	25	0	257425408	67	4446
2026-01-07 13:30:27.38	232.58	14.16	-49.3	-50.9	15.6	6.05e-01	0	25	0	263192576	67	4339
2026-01-07 13:30:30.41	233.14	14.38	-49.3	-51.0	15.6	6.06e-01	0	25	0	268435456	67	4355
2026-01-07 13:30:33.43	233.71	14.60	-49.4	-51.1	15.6	6.07e-01	0	25	0	274202624	67	4402
2026-01-07 13:30:36.46	234.29	14.82	-49.4	-51.0	15.6	6.05e-01	0	25	0	279969792	67	4387
2026-01-07 13:30:39.48	234.87	15.04	-49.2	-50.9	15.7	6.07e-01	0	25	0	285736960	67	4312
2026-01-07 13:30:42.50	235.47	15.25	-49.2	-50.9	15.7	6.08e-01	0	25	0	291504128	67	4299
2026-01-07 13:30:45.53	236.08	15.47	-49.2	-50.9	15.7	6.07e-01	0	25	0	297271296	67	4320
2026-01-07 13:30:48.55	236.69	15.69	-49.0	-50.6	15.8	6.07e-01	0	25	0	302514176	67	4190
2026-01-07 13:30:51.57	237.31	15.90	-49.1	-50.8	15.7	6.06e-01	0	25	0	308281344	67	4252
2026-01-07 13:30:54.59	237.94	16.11	-49.1	-50.7	15.7	6.06e-01	0	25	0	314048512	67	4237
2026-01-07 13:30:57.61	238.58	16.33	-49.1	-50.8	15.7	6.06e-01	0	25	0	319815680	67	4261
2026-01-07 13:31:00.63	239.23	16.54	-49.0	-50.7	15.7	6.08e-01	0	25	0	325582848	67	4194
2026-01-07 13:31:03.66	239.90	16.75	-49.1	-50.7	15.7	6.06e-01	0	25	0	330825728	67	4232
2026-01-07 13:31:06.68	240.57	16.96	-49.2	-50.8	15.7	6.06e-01	0	25	0	336592896	67	4264
2026-01-07 13:31:09.70	241.24	17.16	-49.0	-50.6	15.8	6.06e-01	0	25	0	342360064	67	4191
2026-01-07 13:31:12.73	241.94	17.37	-49.1	-50.8	15.7	6.06e-01	0	25	0	348127232	67	4243
2026-01-07 13:31:15.75	242.63	17.57	-49.1	-50.7	15.7	6.07e-01	0	25	0	353894400	67	4219
2026-01-07 13:31:18.77	243.34	17.77	-49.1	-50.7	15.7	6.07e-01	0	25	0	359137280	67	4207
2026-01-07 13:31:21.79	244.06	17.97	-49.1	-50.7	15.7	6.06e-01	0	25	0	364904448	67	4218
2026-01-07 13:31:24.81	244.79	18.17	-49.2	-50.9	15.7	6.07e-01	0	25	0	370671616	67	4298
2026-01-07 13:31:27.84	245.53	18.36	-49.3	-50.9	15.7	6.08e-01	0	25	0	376438784	67	4333
2026-01-07 13:31:30.87	246.28	18.55	-49.3	-51.0	15.6	6.07e-01	0	25	0	382205952	67	4344
2026-01-07 13:31:33.89	247.03	18.74	-49.2	-50.9	15.7	6.05e-01	0	25	0	387448832	67	4302
2026-01-07 13:31:36.91	247.80	18.92	-49.1	-50.7	15.7	6.05e-01	0	25	0	393216000	67	4240
2026-01-07 13:31:39.93	248.57	19.10	-49.2	-50.9	15.7	6.07e-01	0	25	0	398983168	67	4305
2026-01-07 13:31:42.96	249.36	19.28	-49.2	-50.8	15.7	6.07e-01	0	25	0	404750336	67	4289
2026-01-07 13:31:45.98	250.16	19.45	-49.1	-50.8	15.7	6.08e-01	0	25	0	410517504	67	4244
2026-01-07 13:31:49.00	250.96	19.62	-49.2	-50.8	15.7	6.07e-01	0	25	0	415760384	67	4278
2026-01-07 13:31:52.02	251.77	19.79	-49.2	-50.8	15.7	6.07e-01	0	25	0	421527552	67	4261
2026-01-07 13:31:55.05	252.60	19.95	-49.2	-50.8	15.7	6.07e-01	0	25	0	427294720	67	4282
2026-01-07 13:31:58.07	253.43	20.10	-49.4	-51.0	15.6	6.06e-01	0	25	0	433061888	67	4381
2026-01-07 13:32:01.10	254.27	20.26	-49.3	-50.9	15.7	6.06e-01	0	25	0	438829056	67	4324
2026-01-07 13:32:04.12	255.12	20.40	-49.3	-51.0	15.6	6.05e-01	0	25	0	444071936	67	4367
2026-01-07 13:32:07.14	255.97	20.54	-49.4	-51.0	15.6	6.05e-01	0	25	0	449839104	67	4383
2026-01-07 13:32:10.17	256.84	20.68	-49.4	-51.1	15.6	6.08e-01	0	25	0	455606272	67	4403
2026-01-07 13:32:13.19	257.71	20.81	-49.4	-51.1	15.6	6.06e-01	0	25	0	461373440	67	4394
2026-01-07 13:32:16.21	258.59	20.94	-49.3	-50.9	15.6	6.06e-01	0	25	0	467140608	67	4337
2026-01-07 13:32:19.24	259.48	21.06	-49.3	-50.9	15.7	6.05e-01	0	25	0	472907776	67	4315
2026-01-07 13:32:22.25	260.36	21.17	-49.4	-51.1	15.6	6.06e-01	0	25	0	478150656	67	4398
2026-01-07 13:32:25.28	261.27	21.28	-49.5	-51.2	15.6	6.05e-01	0	25	0	483917824	67	4463
2026-01-07 13:32:28.30	262.17	21.38	-49.4	-51.1	15.6	6.06e-01	0	25	0	489684992	67	4431
2026-01-07 13:32:31.33	263.09	21.47	-49.5	-51.2	15.6	6.06e-01	0	25	0	495452160	67	4450
2026-01-07 13:32:34.35	264.00	21.56	-49.4	-51.0	15.6	6.06e-01	0	25	0	501219328	67	4377
2026-01-07 13:32:37.36	264.92	21.64	-49.5	-51.2	15.6	6.08e-01	0	25	0	506462208	67	4458
2026-01-07 13:32:40.39	265.85	21.71	-49.4	-51.0	15.6	6.05e-01	0	25	0	512229376	67	4382
2026-01-07 13:32:43.41	266.78	21.78	-49.5	-51.2	15.6	6.07e-01	0	25	0	517996544	67	4467
2026-01-07 13:32:46.44	267.72	21.83	-49.4	-51.0	15.6	6.03e-01	0	25	0	523763712	67	4375
2026-01-07 13:32:49.46	268.65	21.89	-49.5	-51.1	15.6	6.04e-01	0	25	0	529530880	67	4426
2026-01-07 13:32:52.48	269.59	21.93	-49.5	-51.2	15.6	6.03e-01	0	25	0	535298048	67	4457
2026-01-07 13:32:55.51	270.54	21.97	-49.5	-51.1	15.6	6.03e-01	0	25	0	540540928	67	4432
2026-01-07 13:32:58.53	271.49	22.00	-49.5	-51.2	15.6	6.03e-01	0	25	0	546308096	67	4449
2026-01-07 13:33:01.56	272.43	22.02	-49.4	-51.1	15.6	6.02e-01	0	25	0	552075264	67	4401
2026-01-07 13:33:04.58	273.38	22.03	-49.6	-51.3	15.5	6.05e-01	0	25	0	557842432	67	4527
2026-01-07 13:33:07.60	274.33	22.04	-49.7	-51.4	15.5	6.01e-01	0	25	0	563609600	67	4550
2026-01-07 13:33:10.63	275.28	22.04	-49.4	-51.0	15.6	6.05e-01	0	25	0	568852480	67	4373
2026-01-07 13:33:13.65	276.23	22.03	-49.5	-51.2	15.6	6.01e-01	0	25	0	574619648	67	4448
2026-01-07 13:33:16.68	277.18	22.01	-49.5	-51.2	15.6	6.03e-01	0	25	0	580386816	67	4460
2026-01-07 13:33:19.71	278.13	21.99	-49.5	-51.1	15.6	6.04e-01	0	25	0	586153984	67	4439
2026-01-07 13:33:22.72	279.07	21.95	-49.5	-51.1	15.6	6.04e-01	0	25	0	591921152	67	4439
2026-01-07 13:33:25.75	280.01	21.91	-49.5	-51.2	15.6	6.04e-01	0	25	0	597164032	67	4449
2026-01-07 13:33:28.77	280.95	21.87	-49.5	-51.2	15.6	6.05e-01	0	25	0	602931200	67	4462
2026-01-07 13:33:31.80	281.89	21.81	-49.5	-51.1	15.6	6.01e-01	0	25	0	608698368	67	4441
2026-01-07 13:33:34.83	282.82	21.75	-49.5	-51.1	15.6	6.03e-01	0	25	0	614465536	67	4424
2026-01-07 13:33:37.84	283.75	21.68	-49.3	-51.0	15.6	6.03e-01	0	25	0	620232704	67	4352
2026-01-07 13:33:40.87	284.67	21.61	-49.5	-51.1	15.6	6.03e-01	0	25	0	625475584	67	4419
2026-01-07 13:33:43.88	285.59	21.53	-49.3	-51.0	15.6	6.03e-01	0	25	0	631242752	67	4353
2026-01-07 13:33:46.90	286.50	21.44	-49.4	-51.1	15.6	6.04e-01	0	25	0	637009920	67	4403
2026-01-07 13:33:49.92	287.41	21.34	-49.6	-51.2	15.5	6.01e-01	0	25	0	642777088	67	4493
2026-01-07 13:33:52.93	288.31	21.24	-49.3	-50.9	15.6	6.04e-01	0	25	0	648544256	67	4330
2026-01-07 13:33:55.95	289.20	21.13	-49.3	-51.0	15.6	6.01e-01	0	25	0	653787136	67	4348
2026-01-07 13:33:58.97	290.09	21.02	-49.3	-51.0	15.6	6.03e-01	0	25	0	659554304	67	4351
2026-01-07 13:34:01.99	290.97	20.89	-49.3	-51.0	15.6	6.03e-01	0	25	0	665321472	67	4350
2026-01-07 13:34:05.02	291.85	20.77	-49.5	-51.1	15.6	6.04e-01	0	25	0	671088640	67	4438
2026-01-07 13:34:08.03	292.71	20.64	-49.4	-51.1	15.6	6.04e-01	0	25	0	676855808	67	4393
2026-01-07 13:34:11.06	293.57	20.50	-49.3	-50.9	15.6	6.02e-01	0	25	0	682098688	67	4339
2026-01-07 13:34:14.09	294.42	20.36	-49.3	-51.0	15.6	6.02e-01	0	25	0	687865856	67	4343
2026-01-07 13:34:17.11	295.27	20.21	-49.4	-51.0	15.6	6.04e-01	0	25	0	693633024	67	4361
2026-01-07 13:34:20.13	296.10	20.06	-49.3	-50.9	15.6	6.02e-01	0	25	0	699400192	67	4337
2026-01-07 13:34:23.16	296.93	19.90	-49.3	-50.9	15.6	6.04e-01	0	25	0	705167360	67	4324
2026-01-07 13:34:26.18	297.74	19.74	-49.3	-50.9	15.7	6.05e-01	0	25	0	710934528	67	4303
2026-01-07 13:34:29.19	298.55	19.57	-49.2	-50.8	15.6	6.04e-01	0	25	0	716177408	67	4290
2026-01-07 13:34:32.21	299.34	19.40	-49.2	-50.9	15.7	6.04e-01	0	25	0	721944576	67	4300
2026-01-07 13:34:35.24	300.14	19.23	-49.3	-50.9	15.7	6.03e-01	0	25	0	727711744	67	4305
2026-01-07 13:34:38.26	300.91	19.05	-49.2	-50.8	15.7	6.03e-01	0	25	0	733478912	67	4279
2026-01-07 13:34:41.29	301.69	18.87	-49.1	-50.7	15.7	6.02e-01	0	25	0	739246080	67	4236
2026-01-07 13:34:44.31	302.45	18.68	-49.1	-50.7	15.7	6.03e-01	0	25	0	744488960	67	4230
2026-01-07 13:34:47.33	303.20	18.50	-49.2	-50.9	15.7	6.01e-01	0	25	0	750256128	67	4301
2026-01-07 13:34:50.35	303.94	18.31	-49.2	-50.8	15.7	6.02e-01	0	25	0	756023296	67	4268
2026-01-07 13:34:53.37	304.67	18.11	-49.0	-50.6	15.8	6.05e-01	0	25	0	761790464	67	4152
2026-01-07 13:34:56.39	305.39	17.92	-49.1	-50.7	15.7	6.05e-01	0	25	0	767557632	67	4237
2026-01-07 13:34:59.42	306.10	17.72	-49.1	-50.7	15.7	6.04e-01	0	25	0	772800512	67	4196
2026-01-07 13:35:02.43	306.80	17.52	-49.1	-50.6	15.7	6.04e-01	0	25	0	778567680	67	4192
2026-01-07 13:35:05.46	307.50	17.32	-49.0	-50.6	15.8	6.04e-01	0	25	0	784334848	67	4148
2026-01-07 13:35:08.48	308.18	17.11	-49.0	-50.6	15.7	6.00e-01	0	25	0	790102016	67	4189
2026-01-07 13:35:11.50	308.86	16.91	-49.0	-50.6	15.8	6.04e-01	0	25	0	795869184	67	4177
2026-01-07 13:35:14.53	309.52	16.70	-49.0	-50.6	15.7	6.04e-01	0	25	0	801636352	67	4171
2026-01-07 13:35:17.55	310.18	16.49	-49.1	-50.7	15.7	6.04e-01	0	25	0	806879232	67	4199
2026-01-07 13:35:20.58	310.82	16.28	-49.0	-50.6	15.7	6.02e-01	0	25	0	812646400	67	4180
2026-01-07 13:35:23.60	311.46	16.07	-49.0	-50.6	15.7	6.03e-01	0	25	0	818413568	67	4185
2026-01-07 13:35:26.62	312.08	15.86	-48.9	-50.5	15.8	6.03e-01	0	25	0	824180736	67	4130
2026-01-07 13:35:29.64	312.70	15.64	-49.0	-50.6	15.7	6.03e-01	0	25	0	829947904	67	4176
2026-01-07 13:35:32.66	313.31	15.43	-49.0	-50.6	15.7	6.05e-01	0	25	0	835190784	67	4167
2026-01-07 13:35:35.68	313.91	15.21	-49.0	-50.6	15.7	6.04e-01	0	25	0	840957952	67	4165
2026-01-07 13:35:38.70	314.50	15.00	-48.9	-50.6	15.6	6.04e-01	0	25	0	846725120	66	4393
2026-01-07 13:35:41.72	315.08	14.78	-49.0	-50.7	15.5	6.02e-01	0	25	0	852492288	66	4451
2026-01-07 13:35:44.74	315.65	14.56	-49.0	-50.7	15.5	6.06e-01	0	25	0	858259456	66	4451
2026-01-07 13:35:47.76	316.21	14.35	-49.0	-50.7	15.6	6.01e-01	0	25	0	863502336	66	4453
2026-01-07 13:35:50.79	316.77	14.13	-49.1	-50.7	15.5	6.02e-01	0	25	0	869269504	66	4466
2026-01-07 13:35:53.81	317.32	13.91	-49.1	-50.7	15.5	6.04e-01	0	25	0	875036672	66	4481
2026-01-07 13:35:56.83	317.86	13.70	-49.0	-50.7	15.6	6.04e-01	0	25	0	880803840	66	4453
2026-01-07 13:35:59.86	318.39	13.48	-49.0	-50.7	15.5	6.03e-01	0	25	0	886571008	66	4458
2026-01-07 13:36:02.88	318.91	13.26	-49.0	-50.7	15.6	6.03e-01	0	25	0	891813888	66	4452
2026-01-07 13:36:05.90	319.43	13.04	-49.0	-50.7	15.5	6.03e-01	0	25	0	897581056	66	4470
2026-01-07 13:36:08.92	319.93	12.83	-49.1	-50.8	15.5	6.03e-01	0	25	0	903348224	66	4521
2026-01-07 13:36:11.95	320.43	12.61	-49.2	-50.9	15.5	6.04e-01	0	25	0	909115392	66	4582
2026-01-07 13:36:14.96	320.92	12.39	-49.2	-50.9	15.5	6.04e-01	0	25	0	914882560	66	4576
2026-01-07 13:36:17.98	321.41	12.18	-49.2	-50.9	15.5	6.04e-01	0	25	0	920125440	66	4562
2026-01-07 13:36:21.00	321.88	11.96	-49.2	-50.9	15.5	6.05e-01	0	25	0	925892608	66	4578
2026-01-07 13:36:24.01	322.35	11.75	-49.2	-50.9	15.5	6.01e-01	0	25	0	931659776	66	4554
2026-01-07 13:36:27.04	322.81	11.53	-49.3	-51.0	15.5	6.03e-01	0	25	0	937426944	66	4615
2026-01-07 13:36:30.06	323.27	11.32	-49.3	-51.0	15.5	6.02e-01	0	25	0	943194112	66	4604
2026-01-07 13:36:33.08	323.72	11.11	-49.3	-51.0	15.5	6.04e-01	0	25	0	948436992	66	4612
2026-01-07 13:36:36.09	324.16	10.89	-49.4	-51.1	15.4	6.02e-01	0	25	0	954204160	66	4684
2026-01-07 13:36:39.10	324.59	10.68	-49.3	-51.0	15.5	6.03e-01	0	25	0	959971328	66	4611
2026-01-07 13:36:42.13	325.02	10.47	-49.4	-51.1	15.4	6.04e-01	0	25	0	965738496	66	4687
2026-01-07 13:36:45.14	325.44	10.26	-49.5	-51.3	15.4	6.02e-01	0	25	0	971505664	66	4760
2026-01-07 13:36:48.15	325.86	10.05	-49.5	-51.3	15.4	6.03e-01	0	25	0	976748544	66	4792
2026-01-07 13:36:51.18	326.27	9.84	-49.6	-51.3	15.5	6.03e-01	0	25	0	982515712	67	4545
2026-01-07 13:36:54.20	326.67	9.63	-49.7	-51.6	15.4	6.00e-01	0	25	0	988282880	67	4652
2026-01-07 13:36:57.22	327.07	9.43	-49.7	-51.5	15.5	6.02e-01	0	25	0	994050048	67	4610
2026-01-07 13:37:00.24	327.46	9.22	-49.7	-51.5	15.4	6.03e-01	0	25	0	999817216	67	4645
2026-01-07 13:37:03.26	327.85	9.01	-49.9	-51.8	15.3	6.04e-01	0	25	0	1005060096	67	4770
2026-01-07 13:37:06.29	328.23	8.81	-49.8	-51.7	15.3	6.04e-01	0	25	0	1010827264	67	4720
2026-01-07 13:37:09.30	328.60	8.60	-49.7	-51.5	15.4	6.04e-01	0	25	0	1016594432	67	4619
2026-01-07 13:37:12.33	328.97	8.40	-49.8	-51.6	15.4	6.04e-01	0	25	0	1022361600	67	4681
2026-01-07 13:37:15.35	329.34	8.20	-49.8	-51.7	15.3	6.02e-01	0	25	0	1028128768	67	4735
2026-01-07 13:37:18.38	329.70	8.00	-49.9	-51.8	15.3	6.02e-01	0	25	0	1033371648	67	4792
2026-01-07 13:37:21.40	330.05	7.80	-50.1	-52.0	15.3	6.04e-01	0	25	0	1039138816	67	4887
2026-01-07 13:37:24.42	330.40	7.60	-50.1	-52.0	15.4	6.03e-01	0	25	0	1044905984	68	4648
2026-01-07 13:37:27.44	330.74	7.40	-50.2	-52.2	15.3	6.03e-01	0	25	0	1050673152	68	4715
2026-01-07 13:37:30.47	331.09	7.20	-50.4	-52.3	15.3	6.04e-01	0	25	0	1056440320	68	4802
2026-01-07 13:37:33.49	331.42	7.00	-50.3	-52.3	15.3	6.04e-01	0	25	0	1061683200	68	4764
2026-01-07 13:37:36.51	331.75	6.81	-50.3	-52.3	15.3	6.02e-01	0	25	0	1067450368	68	4778
2026-01-07 13:37:39.53	332.07	6.61	-50.3	-52.3	15.3	6.03e-01	0	25	0	1073217536	68	4788
2026-01-07 13:37:42.55	332.40	6.42	-50.2	-52.2	15.3	6.01e-01	0	25	0	1078984704	68	4714
2026-01-07 13:37:45.58	332.71	6.22	-50.3	-52.3	15.3	6.02e-01	0	25	0	1084751872	68	4799
2026-01-07 13:37:48.61	333.03	6.03	-50.4	-52.4	15.4	6.03e-01	0	25	0	1089994752	69	4598
2026-01-07 13:37:51.64	333.33	5.84	-50.6	-52.6	15.3	6.04e-01	0	25	0	1095761920	69	4689
2026-01-07 13:37:54.65	333.64	5.65	-50.6	-52.6	15.3	6.02e-01	0	25	0	1101529088	69	4704
2026-01-07 13:37:57.68	333.94	5.46	-50.8	-52.9	15.2	6.03e-01	0	25	0	1107296256	69	4852
2026-01-07 13:38:00.70	334.23	5.27	-50.9	-53.2	15.1	6.04e-01	0	25	0	1113063424	69	5009
2026-01-07 13:38:03.73	334.53	5.08	-51.2	-53.7	15.0	6.04e-01	0	25	0	1118830592	70	4994
2026-01-07 13:38:06.75	334.81	4.90	-58.0	-77.0	3.8	7.47e-01	0	25	104	1123024896	83	34787
2026-01-07 13:38:09.78	335.10	4.71	-59.1	-78.5	3.8	7.43e-01	0	25	104	1123024896	85	36713
2026-01-07 13:38:12.80	335.38	4.53	-59.5	-78.9	3.8	7.45e-01	0	25	104	1123024896	86	36227
2026-01-07 13:38:15.82	335.65	4.34	-59.7	-79.1	3.8	7.44e-01	0	25	104	1123024896	87	35013
2026-01-07 13:38:18.85	335.93	4.16	-59.8	-79.2	3.8	7.47e-01	0	25	104	1123024896	87	35358
2026-01-07 13:38:21.88	336.20	3.98	-59.8	-79.2	3.8	7.48e-01	0	25	104	1123024896	87	35576
2026-01-07 13:38:24.89	336.46	3.80	-59.9	-79.3	3.8	7.48e-01	0	25	104	1123024896	87	35712
2026-01-07 13:38:27.92	336.73	3.62	-59.9	-79.2	3.8	7.42e-01	0	25	104	1123024896	87	35624
2026-01-07 13:38:30.95	336.99	3.44	-59.8	-79.2	3.8	7.43e-01	0	25	104	1123024896	87	35334
2026-01-07 13:38:33.96	337.24	3.26	-59.7	-79.1	3.8	7.48e-01	0	25	104	1123024896	87	35208
2026-01-07 13:38:36.98	337.50	3.08	-59.7	-79.1	3.8	7.45e-01	0	25	104	1123024896	87	35191
2026-01-07 13:38:40.01	337.75	2.90	-59.7	-79.1	3.8	7.48e-01	0	26	104	1123024896	87	35063
2026-01-07 13:38:43.03	337.99	2.73	-59.7	-79.0	3.8	7.47e-01	0	25	104	1123024896	87	34840
2026-01-07 13:38:46.06	338.24	2.55	-59.7	-79.1	3.8	7.47e-01	0	25	104	1123024896	87	34892
2026-01-07 13:38:49.07	338.48	2.38	-59.6	-79.0	3.8	7.46e-01	0	25	104	1123024896	87	34781
2026-01-07 13:38:52.10	338.72	2.20	-59.6	-79.0	3.8	7.47e-01	0	25	104	1123024896	87	34787
2026-01-07 13:38:55.12	338.95	2.03	-59.6	-79.0	3.8	7.47e-01	0	26	104	1123024896	87	34669

#Closed at: 2026-01-07 13:38:58
#Recorded file [1123 MB]: D:/lorett/data/31004_260107_162725.dat