passes_logs/2026/01/07/R3.2S_Murmansk/R3.2S_Murmansk__20260107_004152_NOAA_20_JPSS-1_rec.log

#Pass ID: 20260107_004152_NOAA 20 (JPSS-1)
#Satellite: NOAA 20 (JPSS-1)
#Configuration: NOAA 20
#almurnet v.1.7.20251203
#Start time: 2026-01-07 00:41:54

#Version: 2.2.20231116
#Station: R3.2S_Murmansk
#Location: 33.079688 lon 68.888172 lat
#TLE: 1 43013U 17073A   26006.30790171  .00000126  00000+0  80695-4 0  9991
#TLE: 2 43013  98.7629 307.3394 0001808  51.8724 308.2615 14.19533762421505

#Time	Az	El	Level	Level2	SNR	BER	BlckErr	Temp	State	Recorded	gain1	gain2
2026-01-07 00:41:54.96	24.56	2.14	-58.1	-74.1	3.8	1.49e+00	0	25	0	0	82	22745
2026-01-07 00:41:58.95	24.58	2.39	-58.1	-74.1	3.8	1.49e+00	0	25	104	0	81	24036
2026-01-07 00:42:02.90	24.59	2.65	-58.1	-74.0	3.8	1.49e+00	0	25	104	0	81	23826
2026-01-07 00:42:06.90	24.60	2.91	-58.1	-73.7	3.8	1.49e+00	0	25	104	0	81	22833
2026-01-07 00:42:10.90	24.62	3.18	-58.1	-73.0	3.8	1.49e+00	0	26	104	0	81	21090
2026-01-07 00:42:14.88	24.63	3.44	-58.1	-73.4	3.8	1.49e+00	0	26	104	0	81	22169
2026-01-07 00:42:18.89	24.64	3.72	-58.0	-72.4	3.8	1.49e+00	0	26	104	0	81	19646
2026-01-07 00:42:22.87	24.66	3.99	-57.7	-67.5	5.5	6.33e-01	0	26	0	3145728	81	11206
2026-01-07 00:42:26.88	24.67	4.26	-57.2	-64.5	7.8	5.87e-02	0	26	0	10485760	81	7906
2026-01-07 00:42:30.87	24.68	4.54	-56.8	-63.0	9.0	1.70e-02	0	26	0	17825792	80	7106
2026-01-07 00:42:34.85	24.69	4.82	-57.1	-63.9	8.3	2.35e-02	0	26	0	25165824	80	7861
2026-01-07 00:42:38.86	24.71	5.10	-56.4	-61.6	10.3	1.06e-02	0	26	0	33554432	79	6378
2026-01-07 00:42:42.85	24.72	5.39	-57.8	-69.1	4.7	1.33e-01	0	26	0	40894464	80	14240
2026-01-07 00:42:46.86	24.73	5.68	-55.4	-59.0	12.2	0.00e+00	0	26	0	48234496	77	5327
2026-01-07 00:42:50.87	24.74	5.98	-55.3	-58.9	12.4	1.50e-06	0	26	0	55574528	77	5228
2026-01-07 00:42:54.86	24.76	6.27	-55.2	-58.5	12.5	0.00e+00	0	27	0	62914560	76	5329
2026-01-07 00:42:58.87	24.77	6.57	-54.9	-58.0	12.9	0.00e+00	0	26	0	70254592	76	5005
2026-01-07 00:43:02.85	24.78	6.88	-55.0	-58.2	12.8	0.00e+00	0	26	0	77594624	76	5135
2026-01-07 00:43:06.85	24.79	7.18	-54.9	-58.0	12.9	0.00e+00	0	27	0	84934656	76	4989
2026-01-07 00:43:10.84	24.80	7.50	-54.9	-58.0	13.0	0.00e+00	0	26	0	92274688	76	4986
2026-01-07 00:43:14.82	24.81	7.81	-54.7	-57.6	13.2	0.00e+00	0	27	0	100663296	76	4797
2026-01-07 00:43:18.82	24.83	8.13	-54.6	-57.5	13.2	0.00e+00	0	26	0	108003328	75	5025
2026-01-07 00:43:22.81	24.84	8.45	-54.5	-57.3	13.3	0.00e+00	0	27	0	115343360	75	4896
2026-01-07 00:43:26.81	24.85	8.78	-54.5	-57.2	13.4	0.00e+00	0	27	0	122683392	75	4832
2026-01-07 00:43:30.80	24.86	9.11	-54.4	-57.1	13.4	0.00e+00	0	27	0	130023424	75	4769
2026-01-07 00:43:34.80	24.87	9.45	-54.4	-57.0	13.5	0.00e+00	0	27	0	137363456	75	4744
2026-01-07 00:43:38.78	24.88	9.78	-54.3	-57.0	13.5	0.00e+00	0	27	0	144703488	75	4714
2026-01-07 00:43:42.77	24.89	10.13	-54.2	-56.7	13.6	0.00e+00	0	27	0	153092096	74	4854
2026-01-07 00:43:46.77	24.90	10.48	-54.1	-56.6	13.6	0.00e+00	0	27	0	160432128	74	4779
2026-01-07 00:43:50.77	24.91	10.84	-54.0	-56.4	13.8	0.00e+00	0	27	0	167772160	74	4678
2026-01-07 00:43:54.77	24.92	11.20	-53.9	-56.3	13.8	0.00e+00	0	27	0	175112192	74	4619
2026-01-07 00:43:58.76	24.93	11.56	-54.0	-56.4	13.8	0.00e+00	0	27	0	182452224	74	4664
2026-01-07 00:44:02.73	24.94	11.93	-54.0	-56.4	13.8	0.00e+00	0	27	0	189792256	74	4681
2026-01-07 00:44:06.74	24.95	12.31	-53.9	-56.2	13.9	0.00e+00	0	27	0	197132288	74	4580
2026-01-07 00:44:10.73	24.96	12.69	-53.8	-56.1	14.0	0.00e+00	0	27	0	205520896	74	4512
2026-01-07 00:44:14.72	24.97	13.08	-53.7	-56.0	13.9	0.00e+00	0	27	0	212860928	73	4707
2026-01-07 00:44:18.71	24.98	13.47	-53.6	-55.9	14.0	0.00e+00	0	27	0	220200960	73	4663
2026-01-07 00:44:22.70	24.99	13.88	-53.6	-55.7	14.1	0.00e+00	0	27	0	227540992	73	4591
2026-01-07 00:44:26.69	24.99	14.28	-53.4	-55.6	14.2	0.00e+00	0	27	0	234881024	73	4496
2026-01-07 00:44:30.69	25.00	14.70	-53.4	-55.5	14.2	0.00e+00	0	27	0	242221056	73	4456
2026-01-07 00:44:34.68	25.01	15.12	-53.2	-55.3	14.3	0.00e+00	0	27	0	249561088	73	4358
2026-01-07 00:44:38.66	25.02	15.55	-53.2	-55.3	14.2	0.00e+00	0	27	0	257949696	72	4600
2026-01-07 00:44:42.64	25.03	15.99	-53.2	-55.2	14.2	0.00e+00	0	27	0	265289728	72	4570
2026-01-07 00:44:46.63	25.03	16.43	-53.0	-54.9	14.3	0.00e+00	0	27	0	272629760	72	4425
2026-01-07 00:44:50.63	25.04	16.89	-52.8	-54.7	14.5	0.00e+00	0	27	0	279969792	72	4337
2026-01-07 00:44:54.63	25.05	17.35	-52.8	-54.6	14.5	0.00e+00	0	27	0	287309824	72	4282
2026-01-07 00:44:58.61	25.05	17.82	-52.6	-54.5	14.5	0.00e+00	0	27	0	294649856	71	4455
2026-01-07 00:45:02.61	25.06	18.30	-52.6	-54.4	14.5	0.00e+00	0	27	0	301989888	71	4426
2026-01-07 00:45:06.61	25.06	18.80	-52.5	-54.3	14.5	0.00e+00	0	27	0	310378496	71	4369
2026-01-07 00:45:10.61	25.07	19.30	-52.4	-54.2	14.6	0.00e+00	0	27	0	317718528	71	4317
2026-01-07 00:45:14.59	25.07	19.81	-52.4	-54.2	14.6	0.00e+00	0	27	0	325058560	71	4315
2026-01-07 00:45:18.58	25.08	20.33	-52.4	-54.2	14.6	0.00e+00	0	27	0	332398592	71	4295
2026-01-07 00:45:22.58	25.08	20.86	-52.4	-54.1	14.6	0.00e+00	0	27	0	339738624	71	4290
2026-01-07 00:45:26.57	25.08	21.41	-52.3	-54.1	14.6	0.00e+00	0	27	0	347078656	71	4266
2026-01-07 00:45:30.58	25.09	21.96	-52.4	-54.1	14.6	0.00e+00	0	27	0	354418688	71	4278
2026-01-07 00:45:34.57	25.09	22.53	-52.2	-54.0	14.6	0.00e+00	0	27	0	362807296	70	4449
2026-01-07 00:45:38.57	25.09	23.12	-52.5	-54.3	14.5	0.00e+00	0	27	0	370147328	70	4605
2026-01-07 00:45:42.56	25.09	23.71	-52.4	-54.1	14.5	0.00e+00	0	27	0	377487360	70	4537
2026-01-07 00:45:46.57	25.09	24.32	-52.4	-54.2	14.5	0.00e+00	0	27	0	384827392	70	4550
2026-01-07 00:45:50.58	25.09	24.95	-52.5	-54.3	14.4	0.00e+00	0	27	0	392167424	70	4630
2026-01-07 00:45:54.57	25.09	25.59	-52.7	-54.6	14.4	0.00e+00	0	27	0	399507456	70	4770
2026-01-07 00:45:58.56	25.09	26.24	-53.0	-54.9	14.3	0.00e+00	0	27	0	406847488	71	4692
2026-01-07 00:46:02.56	25.09	26.91	-53.3	-55.3	14.1	0.00e+00	0	27	0	415236096	71	4886
2026-01-07 00:46:06.54	25.08	27.60	-53.8	-56.0	13.9	0.00e+00	0	27	0	422576128	72	5015
2026-01-07 00:46:10.54	25.08	28.31	-54.5	-56.8	13.7	0.00e+00	0	27	0	429916160	74	4920
2026-01-07 00:46:14.53	25.07	29.03	-55.2	-57.9	13.2	0.00e+00	0	27	0	437256192	75	5233
2026-01-07 00:46:18.53	25.07	29.78	-55.5	-58.3	13.2	0.00e+00	0	27	0	444596224	76	5199
2026-01-07 00:46:22.53	25.06	30.54	-55.5	-58.3	13.1	0.00e+00	0	27	0	451936256	76	5216
2026-01-07 00:46:26.53	25.05	31.33	-55.4	-58.2	13.2	0.00e+00	0	27	0	459276288	76	5105
2026-01-07 00:46:30.53	25.04	32.14	-55.1	-57.7	13.5	0.00e+00	0	27	0	467664896	76	4844
2026-01-07 00:46:34.52	25.03	32.96	-54.8	-57.2	13.8	0.00e+00	0	27	0	475004928	76	4562
2026-01-07 00:46:38.52	25.02	33.82	-53.7	-55.8	14.3	0.00e+00	0	27	0	482344960	74	4355
2026-01-07 00:46:42.52	25.01	34.70	-53.4	-55.4	14.4	0.00e+00	0	27	0	489684992	73	4407
2026-01-07 00:46:46.51	24.99	35.60	-52.0	-53.6	14.8	0.00e+00	0	27	0	497025024	70	4264
2026-01-07 00:46:50.51	24.97	36.53	-51.9	-53.5	14.8	0.00e+00	0	27	0	504365056	70	4223
2026-01-07 00:46:54.51	24.95	37.48	-51.9	-53.5	14.8	0.00e+00	0	27	0	511705088	70	4226
2026-01-07 00:46:58.52	24.93	38.47	-52.0	-53.6	14.8	0.00e+00	0	28	0	520093696	70	4287
2026-01-07 00:47:02.50	24.91	39.48	-51.8	-53.4	14.8	0.00e+00	0	27	0	527433728	70	4190
2026-01-07 00:47:06.50	24.88	40.53	-51.4	-52.9	14.9	0.00e+00	0	27	0	534773760	69	4169
2026-01-07 00:47:10.50	24.85	41.61	-51.4	-52.9	14.9	0.00e+00	0	27	0	542113792	69	4154
2026-01-07 00:47:14.50	24.82	42.72	-51.4	-52.9	14.9	0.00e+00	0	27	0	549453824	69	4190
2026-01-07 00:47:18.52	24.78	43.87	-52.3	-53.9	14.5	0.00e+00	0	27	0	556793856	69	4702
2026-01-07 00:47:22.53	24.74	45.05	-54.4	-56.6	13.8	0.00e+00	0	27	0	565182464	73	5098
2026-01-07 00:47:26.54	24.70	46.27	-54.3	-56.5	14.0	0.00e+00	0	27	0	572522496	74	4747
2026-01-07 00:47:30.54	24.65	47.52	-54.1	-56.2	14.1	0.00e+00	0	28	0	579862528	74	4591
2026-01-07 00:47:34.54	24.60	48.81	-54.2	-56.4	14.0	0.00e+00	0	27	0	587202560	74	4667
2026-01-07 00:47:38.56	24.53	50.15	-54.0	-56.1	14.1	0.00e+00	0	27	0	594542592	74	4527
2026-01-07 00:47:42.56	24.46	51.52	-52.4	-54.1	14.7	0.00e+00	0	27	0	601882624	71	4251
2026-01-07 00:47:46.57	24.39	52.93	-51.5	-53.0	14.9	0.00e+00	0	27	0	610271232	69	4218
2026-01-07 00:47:50.59	24.30	54.39	-50.1	-51.4	15.1	0.00e+00	0	27	0	617611264	66	4172
2026-01-07 00:47:54.61	24.20	55.89	-52.7	-54.4	14.5	0.00e+00	0	27	0	624951296	70	4684
2026-01-07 00:47:58.62	24.09	57.43	-54.4	-56.6	13.9	0.00e+00	0	27	0	632291328	74	4779
2026-01-07 00:48:02.62	23.97	59.01	-53.2	-55.1	14.4	0.00e+00	0	27	0	639631360	72	4513
2026-01-07 00:48:06.63	23.82	60.63	-52.3	-53.9	14.8	0.00e+00	0	27	0	646971392	71	4179
2026-01-07 00:48:10.65	23.65	62.30	-51.2	-52.6	15.1	0.00e+00	0	27	0	655360000	69	4029
2026-01-07 00:48:14.66	23.46	64.01	-50.5	-51.9	14.9	0.00e+00	0	27	0	662700032	66	4436
2026-01-07 00:48:18.67	23.23	65.76	-53.6	-55.5	14.2	0.00e+00	0	27	0	670040064	72	4759
2026-01-07 00:48:22.67	22.96	67.54	-53.7	-55.6	14.3	0.00e+00	0	27	0	677380096	73	4542
2026-01-07 00:48:26.69	22.63	69.37	-54.6	-56.9	13.8	0.00e+00	0	27	0	684720128	74	4946
2026-01-07 00:48:30.70	22.23	71.23	-54.5	-56.8	13.9	0.00e+00	0	28	0	692060160	74	4882
2026-01-07 00:48:34.71	21.74	73.13	-55.0	-57.4	13.7	0.00e+00	0	28	0	700448768	75	4945
2026-01-07 00:48:38.71	21.10	75.05	-55.7	-58.5	13.2	0.00e+00	0	28	0	707788800	76	5280
2026-01-07 00:48:42.72	20.26	77.00	-56.1	-58.9	13.1	0.00e+00	0	28	0	715128832	77	5264
2026-01-07 00:48:46.74	19.11	78.98	-55.0	-57.3	13.8	0.00e+00	0	28	0	722468864	76	4620
2026-01-07 00:48:50.74	17.44	80.96	-54.3	-56.4	14.0	0.00e+00	0	27	0	729808896	73	4939
2026-01-07 00:48:54.75	14.79	82.95	-54.7	-57.0	14.0	0.00e+00	0	27	0	737148928	76	4446
2026-01-07 00:48:58.76	10.02	84.94	-51.7	-53.2	14.9	0.00e+00	0	28	0	745537536	69	4303
2026-01-07 00:49:02.77	359.25	86.85	-52.1	-53.7	14.7	0.00e+00	0	28	0	752877568	69	4554
2026-01-07 00:49:06.79	323.48	88.37	-50.3	-51.6	15.2	0.00e+00	0	28	0	760217600	67	4029
2026-01-07 00:49:10.80	254.26	88.03	-51.9	-53.5	14.6	0.00e+00	0	28	0	767557632	68	4709
2026-01-07 00:49:14.80	229.94	86.32	-53.1	-54.9	14.6	0.00e+00	0	28	0	774897664	72	4410
2026-01-07 00:49:18.80	221.67	84.38	-51.8	-53.3	14.9	0.00e+00	0	27	0	782237696	69	4348
2026-01-07 00:49:22.81	217.70	82.39	-54.7	-56.9	13.9	0.00e+00	0	28	0	790626304	75	4664
2026-01-07 00:49:26.82	215.39	80.40	-51.7	-53.2	15.0	0.00e+00	0	28	0	797966336	70	4078
2026-01-07 00:49:30.82	213.90	78.41	-52.1	-53.6	14.7	0.00e+00	0	27	0	805306368	69	4539
2026-01-07 00:49:34.83	212.85	76.45	-54.3	-56.4	14.0	0.00e+00	0	27	0	812646400	73	4965
2026-01-07 00:49:38.83	212.08	74.51	-55.0	-57.5	13.6	0.00e+00	0	28	0	819986432	75	4989
2026-01-07 00:49:42.84	211.48	72.59	-53.4	-55.3	14.5	0.00e+00	0	27	0	828375040	73	4354
2026-01-07 00:49:46.86	211.02	70.69	-54.5	-56.7	13.9	0.00e+00	0	28	0	835715072	74	4827
2026-01-07 00:49:50.85	210.64	68.85	-56.2	-59.2	12.9	0.00e+00	0	28	0	843055104	77	5447
2026-01-07 00:49:54.87	210.33	67.03	-55.0	-57.3	13.8	0.00e+00	0	28	0	850395136	76	4639
2026-01-07 00:49:58.87	210.07	65.25	-53.3	-55.1	14.6	0.00e+00	0	28	0	857735168	73	4274
2026-01-07 00:50:02.88	209.85	63.51	-50.2	-51.5	15.2	0.00e+00	0	28	0	865075200	67	3996
2026-01-07 00:50:06.88	209.67	61.82	-50.5	-51.8	14.9	0.00e+00	0	28	0	872415232	66	4374
2026-01-07 00:50:10.89	209.51	60.16	-53.4	-55.3	14.4	0.00e+00	0	28	0	880803840	72	4636
2026-01-07 00:50:14.89	209.37	58.55	-54.4	-56.6	14.0	0.00e+00	0	28	0	888143872	74	4789
2026-01-07 00:50:18.90	209.24	56.97	-54.9	-57.2	13.9	0.00e+00	0	27	0	895483904	76	4596
2026-01-07 00:50:22.90	209.14	55.44	-52.6	-54.3	14.7	0.00e+00	0	28	0	902823936	71	4370
2026-01-07 00:50:26.91	209.04	53.96	-52.6	-54.3	14.6	0.00e+00	0	27	0	910163968	71	4376
2026-01-07 00:50:30.91	208.96	52.51	-52.4	-54.1	14.6	0.00e+00	0	28	0	917504000	70	4520
2026-01-07 00:50:34.91	208.88	51.11	-53.8	-55.8	14.1	0.00e+00	0	28	0	925892608	72	4898
2026-01-07 00:50:38.91	208.81	49.75	-54.5	-56.7	13.9	0.00e+00	0	28	0	933232640	74	4826
2026-01-07 00:50:42.91	208.75	48.42	-57.0	-60.7	12.0	4.50e-06	0	27	0	940572672	79	5780
2026-01-07 00:50:46.93	208.70	47.13	-54.2	-56.3	14.2	0.00e+00	0	28	0	947912704	75	4349
2026-01-07 00:50:50.92	208.65	45.89	-55.7	-58.5	13.2	0.00e+00	0	27	0	955252736	76	5321
2026-01-07 00:50:54.92	208.61	44.68	-55.0	-57.5	13.7	0.00e+00	0	28	0	962592768	76	4717
2026-01-07 00:50:58.92	208.57	43.51	-53.2	-55.0	14.5	0.00e+00	0	28	0	969932800	72	4462
2026-01-07 00:51:02.92	208.53	42.37	-55.3	-58.0	13.3	0.00e+00	0	27	0	978321408	75	5307
2026-01-07 00:51:06.91	208.50	41.27	-55.6	-58.3	13.3	0.00e+00	0	28	0	985661440	77	4902
2026-01-07 00:51:10.92	208.47	40.20	-54.1	-56.2	14.1	0.00e+00	0	27	0	993001472	74	4592
2026-01-07 00:51:14.92	208.44	39.16	-55.5	-58.2	13.3	0.00e+00	0	27	0	1000341504	76	5157
2026-01-07 00:51:18.92	208.42	38.15	-56.3	-59.5	12.6	0.00e+00	0	27	0	1007681536	77	5612
2026-01-07 00:51:22.91	208.40	37.17	-55.2	-57.7	13.5	0.00e+00	0	27	0	1015021568	76	4864
2026-01-07 00:51:26.90	208.38	36.22	-54.4	-56.6	14.0	0.00e+00	0	27	0	1023410176	75	4539
2026-01-07 00:51:30.89	208.36	35.29	-55.1	-57.7	13.4	0.00e+00	0	27	0	1030750208	75	5128
2026-01-07 00:51:34.89	208.34	34.39	-56.1	-59.3	12.7	0.00e+00	0	27	0	1038090240	77	5478
2026-01-07 00:51:38.90	208.33	33.52	-56.0	-59.1	12.8	0.00e+00	0	27	0	1045430272	77	5375
2026-01-07 00:51:42.90	208.31	32.67	-55.6	-58.4	13.2	0.00e+00	0	28	0	1052770304	77	4947
2026-01-07 00:51:46.90	208.30	31.84	-54.9	-57.2	13.8	0.00e+00	0	28	0	1060110336	76	4586
2026-01-07 00:51:50.89	208.29	31.04	-55.1	-57.6	13.6	0.00e+00	0	27	0	1067450368	76	4779
2026-01-07 00:51:54.89	208.28	30.26	-55.6	-58.4	13.1	0.00e+00	0	28	0	1075838976	76	5235
2026-01-07 00:51:58.87	208.27	29.50	-55.5	-58.3	13.2	0.00e+00	0	28	0	1083179008	76	5207
2026-01-07 00:52:02.87	208.27	28.76	-55.2	-57.7	13.5	0.00e+00	0	28	0	1090519040	76	4865
2026-01-07 00:52:06.88	208.26	28.03	-54.3	-56.6	14.0	0.00e+00	0	28	0	1097859072	75	4515
2026-01-07 00:52:10.89	208.26	27.33	-53.5	-55.5	14.3	0.00e+00	0	28	0	1105199104	73	4475
2026-01-07 00:52:14.88	208.25	26.64	-52.9	-54.8	14.5	0.00e+00	0	28	0	1112539136	72	4354
2026-01-07 00:52:18.88	208.25	25.97	-53.1	-55.0	14.4	0.00e+00	0	28	0	1119879168	72	4477
2026-01-07 00:52:22.88	208.25	25.32	-53.1	-54.9	14.4	0.00e+00	0	28	0	1128267776	72	4435
2026-01-07 00:52:26.87	208.24	24.69	-53.0	-54.9	14.4	0.00e+00	0	28	0	1135607808	72	4422
2026-01-07 00:52:30.88	208.24	24.06	-53.0	-54.9	14.4	0.00e+00	0	28	0	1142947840	72	4427
2026-01-07 00:52:34.87	208.24	23.46	-52.8	-54.6	14.5	0.00e+00	0	28	0	1150287872	72	4289
2026-01-07 00:52:38.86	208.24	22.86	-52.5	-54.2	14.5	0.00e+00	0	28	0	1157627904	71	4318
2026-01-07 00:52:42.85	208.24	22.28	-52.5	-54.2	14.6	0.00e+00	0	28	0	1164967936	71	4311
2026-01-07 00:52:46.85	208.24	21.72	-52.5	-54.3	14.6	0.00e+00	0	28	0	1173356544	71	4366
2026-01-07 00:52:50.86	208.24	21.16	-52.8	-54.7	14.4	0.00e+00	0	28	0	1180696576	71	4566
2026-01-07 00:52:54.87	208.24	20.61	-53.3	-55.3	14.1	0.00e+00	0	28	0	1188036608	71	4886
2026-01-07 00:52:58.88	208.25	20.08	-53.5	-55.6	14.1	0.00e+00	0	28	0	1195376640	72	4767
2026-01-07 00:53:02.88	208.25	19.56	-53.5	-55.6	14.1	0.00e+00	0	28	0	1202716672	72	4794
2026-01-07 00:53:06.88	208.25	19.05	-53.3	-55.3	14.2	0.00e+00	0	28	0	1210056704	72	4602
2026-01-07 00:53:10.89	208.26	18.55	-53.3	-55.3	14.2	0.00e+00	0	28	0	1217396736	72	4641
2026-01-07 00:53:14.89	208.26	18.06	-53.2	-55.2	14.2	0.00e+00	0	28	0	1225785344	72	4594
2026-01-07 00:53:18.88	208.26	17.58	-53.4	-55.5	14.1	0.00e+00	0	28	0	1233125376	72	4719
2026-01-07 00:53:22.88	208.27	17.11	-53.6	-55.7	14.0	0.00e+00	0	28	0	1240465408	72	4832
2026-01-07 00:53:26.86	208.27	16.65	-53.7	-55.9	13.9	0.00e+00	0	28	0	1247805440	72	4928
2026-01-07 00:53:30.86	208.28	16.20	-53.9	-56.1	13.8	0.00e+00	0	28	0	1255145472	72	5061
2026-01-07 00:53:34.86	208.28	15.75	-53.8	-56.1	13.9	0.00e+00	0	28	0	1262485504	73	4769
2026-01-07 00:53:38.86	208.29	15.31	-53.9	-56.1	13.8	0.00e+00	0	28	0	1269825536	73	4814
2026-01-07 00:53:42.86	208.29	14.89	-54.1	-56.4	13.7	0.00e+00	0	28	0	1278214144	73	4967
2026-01-07 00:53:46.87	208.30	14.46	-54.3	-56.7	13.6	0.00e+00	0	28	0	1285554176	73	5129
2026-01-07 00:53:50.87	208.30	14.05	-54.0	-56.2	13.8	0.00e+00	0	28	0	1292894208	73	4865
2026-01-07 00:53:54.88	208.31	13.64	-53.9	-56.2	13.8	0.00e+00	0	28	0	1300234240	73	4855
2026-01-07 00:53:58.89	208.32	13.24	-53.9	-56.3	13.8	0.00e+00	0	28	0	1307574272	73	4873
2026-01-07 00:54:02.90	208.32	12.84	-54.1	-56.4	13.7	0.00e+00	0	28	0	1315962880	73	4978
2026-01-07 00:54:06.90	208.33	12.45	-54.2	-56.7	13.6	0.00e+00	0	28	0	1323302912	73	5106
2026-01-07 00:54:10.90	208.34	12.07	-54.4	-56.9	13.5	0.00e+00	0	28	0	1330642944	74	4951
2026-01-07 00:54:14.89	208.35	11.69	-54.4	-57.0	13.5	0.00e+00	0	28	0	1337982976	74	4999
2026-01-07 00:54:18.90	208.35	11.32	-54.5	-57.1	13.4	0.00e+00	0	28	0	1345323008	74	5089
2026-01-07 00:54:22.87	208.36	10.96	-54.7	-57.4	13.2	0.00e+00	0	28	0	1352663040	74	5244
2026-01-07 00:54:26.88	208.37	10.60	-54.6	-57.3	13.3	0.00e+00	0	28	0	1360003072	74	5199
2026-01-07 00:54:30.87	208.38	10.25	-54.7	-57.5	13.2	0.00e+00	0	28	0	1367343104	74	5293
2026-01-07 00:54:34.85	208.38	9.90	-54.7	-57.4	13.2	0.00e+00	0	28	0	1375731712	74	5245
2026-01-07 00:54:38.84	208.39	9.55	-54.6	-57.4	13.2	0.00e+00	0	28	0	1383071744	74	5234
2026-01-07 00:54:42.85	208.40	9.21	-54.5	-57.2	13.3	0.00e+00	0	28	0	1390411776	74	5145
2026-01-07 00:54:46.84	208.41	8.88	-54.5	-57.1	13.3	0.00e+00	0	28	0	1397751808	74	5096
2026-01-07 00:54:50.85	208.42	8.55	-54.4	-57.1	13.3	0.00e+00	0	28	0	1405091840	74	5048
2026-01-07 00:54:54.85	208.43	8.22	-54.4	-57.1	13.4	0.00e+00	0	28	0	1412431872	74	5051
2026-01-07 00:54:58.86	208.43	7.90	-54.4	-57.0	13.3	0.00e+00	0	28	0	1420820480	74	5030
2026-01-07 00:55:02.86	208.44	7.58	-54.2	-56.8	13.5	0.00e+00	0	28	0	1428160512	74	4884
2026-01-07 00:55:06.86	208.45	7.26	-54.3	-56.9	13.4	0.00e+00	0	28	0	1435500544	74	4948
2026-01-07 00:55:10.87	208.46	6.95	-54.4	-57.1	13.3	0.00e+00	0	28	0	1442840576	74	5055
2026-01-07 00:55:14.87	208.47	6.65	-54.4	-57.1	13.3	0.00e+00	0	28	0	1450180608	74	5046
2026-01-07 00:55:18.88	208.48	6.34	-54.4	-57.2	13.2	0.00e+00	0	28	0	1457520640	74	5111
2026-01-07 00:55:22.87	208.49	6.04	-54.3	-57.0	13.3	0.00e+00	0	28	0	1464860672	74	5009
2026-01-07 00:55:26.86	208.50	5.75	-54.3	-57.0	13.3	0.00e+00	0	28	0	1473249280	74	5011
2026-01-07 00:55:30.85	208.51	5.46	-54.4	-57.3	13.1	0.00e+00	0	28	0	1480589312	74	5190
2026-01-07 00:55:34.84	208.52	5.17	-54.5	-57.4	13.0	0.00e+00	0	28	0	1487929344	74	5225
2026-01-07 00:55:38.83	208.53	4.88	-59.2	-75.3	3.8	1.49e+00	0	28	104	1493172224	83	24448
2026-01-07 00:55:42.85	208.54	4.60	-60.0	-76.1	3.8	1.49e+00	0	28	104	1493172224	85	24071
2026-01-07 00:55:46.85	208.55	4.31	-60.3	-76.4	3.8	1.49e+00	0	28	104	1493172224	85	24738
2026-01-07 00:55:50.86	208.56	4.04	-60.4	-76.5	3.8	1.49e+00	0	28	104	1493172224	85	25076
2026-01-07 00:55:54.86	208.57	3.76	-60.5	-76.6	3.8	1.49e+00	0	28	104	1493172224	86	23988
2026-01-07 00:55:58.87	208.58	3.49	-60.6	-76.7	3.8	1.49e+00	0	28	104	1493172224	86	24278
2026-01-07 00:56:02.87	208.59	3.22	-60.6	-76.7	3.8	1.49e+00	0	28	104	1493172224	86	24143
2026-01-07 00:56:06.86	208.60	2.95	-60.5	-76.6	3.8	1.49e+00	0	28	104	1493172224	86	24023
2026-01-07 00:56:10.86	208.61	2.69	-60.5	-76.6	3.8	1.49e+00	0	28	104	1493172224	86	23936
2026-01-07 00:56:14.86	208.62	2.43	-60.5	-76.6	3.8	1.49e+00	0	28	104	1493172224	86	23891
2026-01-07 00:56:18.85	208.63	2.17	-60.5	-76.5	3.8	1.49e+00	0	28	104	1493172224	86	23833
2026-01-07 00:56:22.86	208.64	1.91	-60.5	-76.6	3.8	1.49e+00	0	28	104	1493172224	86	23884

#Closed at: 2026-01-07 00:56:24
#Recorded file [1493 MB]: D:/lorett/data/31004_260107_034154.dat