passes_logs/2026/01/07/R3.2S_Murmansk/R3.2S_Murmansk__20260107_204208_TY-42_rec.log

#Pass ID: 20260107_204208_TY-42
#Satellite: TY-42
#Configuration: TY-42_900M
#almurnet v.1.7.20251203
#Start time: 2026-01-07 20:42:09

#Version: 2.2.20231116
#Station: R3.2S_Murmansk
#Location: 33.079688 lon 68.888172 lat
#TLE: 1 64048U 25103A   26007.59650463  .00008010  00000-0  38191-3 0 09990
#TLE: 2 64048 097.4111 083.1529 0001828 091.9744 304.3340 15.19168086 35693

#Time	Az	El	Level	Level2	SNR	BER	BlckErr	Temp	State	Recorded	gain1	gain2
2026-01-07 20:42:09.77	211.77	2.09	-57.4	-60.6	6.1	0.00e+00	0	30	0	0	81	21100
2026-01-07 20:42:12.75	212.06	2.27	-57.5	-60.7	6.2	0.00e+00	0	30	104	0	82	19997
2026-01-07 20:42:15.74	212.35	2.45	-57.5	-60.7	6.2	0.00e+00	0	30	104	0	82	20052
2026-01-07 20:42:18.74	212.65	2.63	-57.5	-60.7	6.2	0.00e+00	0	31	104	0	82	20103
2026-01-07 20:42:21.74	212.95	2.82	-57.5	-60.7	6.2	0.00e+00	0	31	104	0	82	20092
2026-01-07 20:42:24.73	213.25	3.00	-57.5	-60.7	6.2	0.00e+00	0	31	104	0	82	20106
2026-01-07 20:42:27.73	213.56	3.19	-57.5	-60.7	6.2	0.00e+00	0	31	104	0	82	20137
2026-01-07 20:42:30.72	213.88	3.37	-57.5	-60.8	6.2	0.00e+00	0	31	104	0	82	20194
2026-01-07 20:42:33.72	214.20	3.56	-57.5	-60.8	6.2	0.00e+00	0	31	104	0	82	20169
2026-01-07 20:42:36.71	214.52	3.75	-57.5	-60.7	6.2	0.00e+00	0	31	104	0	82	20151
2026-01-07 20:42:39.71	214.85	3.94	-57.5	-60.8	6.2	0.00e+00	0	31	104	0	82	20192
2026-01-07 20:42:42.70	215.19	4.13	-57.5	-60.8	6.2	0.00e+00	0	31	104	0	82	20167
2026-01-07 20:42:45.69	215.53	4.33	-57.5	-60.7	6.2	0.00e+00	0	31	104	0	82	20099
2026-01-07 20:42:48.67	215.87	4.52	-57.5	-60.8	6.2	0.00e+00	0	32	104	0	82	20190
2026-01-07 20:42:51.66	216.22	4.71	-57.5	-60.7	6.2	0.00e+00	0	32	104	0	82	20125
2026-01-07 20:42:54.66	216.58	4.91	-57.5	-60.8	6.2	0.00e+00	0	32	104	0	82	20237
2026-01-07 20:42:57.66	216.95	5.11	-57.7	-60.9	6.2	0.00e+00	0	32	104	0	82	20521
2026-01-07 20:43:00.65	217.32	5.31	-57.5	-60.7	6.2	0.00e+00	0	32	104	0	82	20048
2026-01-07 20:43:03.66	217.69	5.51	-57.6	-60.9	6.2	0.00e+00	0	32	104	0	82	20425
2026-01-07 20:43:06.65	218.07	5.71	-57.7	-60.9	6.2	0.00e+00	0	32	104	0	82	20536
2026-01-07 20:43:09.64	218.46	5.91	-57.7	-60.9	6.2	0.00e+00	0	32	104	0	82	20621
2026-01-07 20:43:12.63	218.86	6.11	-57.6	-60.8	6.2	0.00e+00	0	32	104	0	82	20375
2026-01-07 20:43:15.62	219.26	6.31	-57.7	-60.9	6.2	0.00e+00	0	32	104	0	82	20540
2026-01-07 20:43:18.61	219.67	6.52	-57.8	-61.0	6.2	0.00e+00	0	32	104	0	82	20697
2026-01-07 20:43:21.58	220.08	6.72	-57.7	-61.0	6.2	0.00e+00	0	32	104	0	82	20731
2026-01-07 20:43:24.57	220.50	6.93	-57.7	-60.9	6.2	0.00e+00	0	33	104	0	82	20586
2026-01-07 20:43:27.57	220.93	7.14	-57.8	-61.0	6.2	0.00e+00	0	33	104	0	82	20758
2026-01-07 20:43:30.55	221.36	7.35	-57.8	-61.1	6.2	0.00e+00	0	33	104	0	82	20982
2026-01-07 20:43:33.54	221.81	7.56	-57.8	-61.1	6.2	0.00e+00	0	33	104	0	82	20911
2026-01-07 20:43:36.53	222.26	7.77	-57.8	-61.0	6.1	0.00e+00	0	33	104	0	82	20814
2026-01-07 20:43:39.51	222.72	7.98	-57.8	-61.1	6.2	0.00e+00	0	33	104	0	82	21020
2026-01-07 20:43:42.49	223.19	8.19	-57.9	-61.2	6.1	0.00e+00	0	33	104	0	82	21188
2026-01-07 20:43:45.47	223.66	8.40	-57.9	-61.1	6.2	0.00e+00	0	33	104	0	82	21041
2026-01-07 20:43:48.46	224.15	8.62	-57.9	-61.1	6.2	0.00e+00	0	33	104	0	82	20983
2026-01-07 20:43:51.45	224.64	8.84	-57.9	-61.1	6.2	0.00e+00	0	33	104	0	82	21106
2026-01-07 20:43:54.43	225.14	9.05	-58.0	-61.2	6.2	0.00e+00	0	33	104	0	82	21277
2026-01-07 20:43:57.42	225.65	9.27	-58.0	-61.2	6.2	0.00e+00	0	33	104	0	82	21230
2026-01-07 20:44:00.39	226.17	9.49	-58.0	-61.2	6.2	0.00e+00	0	33	104	0	82	21211
2026-01-07 20:44:03.40	226.70	9.71	-58.0	-61.3	6.2	0.00e+00	0	33	104	0	82	21400
2026-01-07 20:44:06.40	227.24	9.93	-58.1	-61.3	6.2	0.00e+00	0	33	104	0	82	21536
2026-01-07 20:44:09.39	227.79	10.15	-58.1	-61.3	6.2	0.00e+00	0	33	104	0	82	21403
2026-01-07 20:44:12.39	228.35	10.37	-58.0	-61.3	6.2	0.00e+00	0	33	104	0	82	21420
2026-01-07 20:44:15.37	228.92	10.59	-58.1	-61.3	6.1	0.00e+00	0	33	104	0	82	21579
2026-01-07 20:44:18.36	229.50	10.81	-58.1	-61.4	6.1	0.00e+00	0	33	104	0	82	21652
2026-01-07 20:44:21.36	230.09	11.04	-58.1	-61.3	6.1	0.00e+00	0	33	104	0	82	21605
2026-01-07 20:44:24.36	230.69	11.26	-58.1	-61.3	6.2	0.00e+00	0	33	104	0	82	21524
2026-01-07 20:44:27.35	231.31	11.48	-58.1	-61.4	6.2	0.00e+00	0	33	104	0	82	21705
2026-01-07 20:44:30.34	231.93	11.71	-58.2	-61.4	6.1	0.00e+00	0	33	104	0	82	21749
2026-01-07 20:44:33.34	232.56	11.93	-58.1	-61.4	6.1	0.00e+00	0	33	104	0	82	21631
2026-01-07 20:44:36.32	233.21	12.15	-58.2	-61.4	6.1	0.00e+00	0	33	104	0	82	21776
2026-01-07 20:44:39.31	233.86	12.37	-58.2	-61.4	6.1	0.00e+00	0	33	104	0	82	21751
2026-01-07 20:44:42.30	234.53	12.60	-58.2	-61.5	6.2	0.00e+00	0	33	104	0	82	21944
2026-01-07 20:44:45.29	235.21	12.82	-58.2	-61.4	6.1	0.00e+00	0	33	104	0	82	21796
2026-01-07 20:44:48.27	235.90	13.04	-58.2	-61.5	6.2	0.00e+00	0	33	104	0	82	21970
2026-01-07 20:44:51.27	236.61	13.26	-58.3	-61.5	6.2	0.00e+00	0	33	104	0	82	22011
2026-01-07 20:44:54.24	237.32	13.48	-58.3	-61.5	6.1	0.00e+00	0	33	104	0	82	22020
2026-01-07 20:44:57.23	238.05	13.69	-58.2	-61.5	6.2	0.00e+00	0	33	104	0	82	21941
2026-01-07 20:45:00.22	238.79	13.91	-42.4	-42.8	12.1	0.00e+00	0	34	0	58720256	50	16109
2026-01-07 20:45:03.20	239.54	14.13	-37.8	-38.1	12.7	0.00e+00	0	34	0	276824064	42	14886
2026-01-07 20:45:06.19	240.31	14.34	-37.7	-38.0	12.7	1.85e-03	0	35	0	612368384	42	14639
2026-01-07 20:45:09.18	241.09	14.55	-37.6	-37.9	12.7	1.72e-03	0	35	0	956301312	42	14571
2026-01-07 20:45:12.18	241.88	14.76	-37.6	-37.9	12.7	1.90e-03	0	35	0	1291845632	42	14572
2026-01-07 20:45:15.16	242.68	14.97	-37.5	-37.8	12.8	1.23e-03	0	35	0	1627389952	42	14346
2026-01-07 20:45:18.15	243.50	15.17	-37.5	-37.8	12.8	1.66e-03	0	35	0	1962934272	42	14276
2026-01-07 20:45:21.13	244.33	15.38	-37.4	-37.7	12.8	1.43e-03	0	35	0	2298478592	42	14213
2026-01-07 20:45:24.13	245.18	15.58	-37.5	-37.8	12.8	9.44e-04	0	35	0	2634022912	42	14324
2026-01-07 20:45:27.12	246.04	15.77	-37.2	-37.5	12.8	1.27e-03	0	35	0	2969567232	41	14714
2026-01-07 20:45:30.11	246.90	15.96	-37.3	-37.6	12.8	9.06e-04	0	36	0	3313500160	41	14824
2026-01-07 20:45:33.09	247.78	16.15	-37.2	-37.5	12.8	1.28e-03	0	36	0	3640655872	41	14658
2026-01-07 20:45:36.07	248.68	16.34	-37.1	-37.4	12.8	8.87e-04	0	36	0	3976200192	41	14459
2026-01-07 20:45:39.06	249.58	16.52	-36.7	-37.0	12.9	1.05e-03	0	36	0	4311744512	40	14715
2026-01-07 20:45:42.05	250.50	16.69	-36.7	-37.0	12.9	7.44e-04	0	36	0	4647288832	40	14767
2026-01-07 20:45:45.03	251.43	16.86	-36.7	-37.0	12.9	8.11e-04	0	36	0	4982833152	40	14643
2026-01-07 20:45:48.00	252.37	17.03	-36.7	-36.9	12.9	5.01e-04	0	36	0	5318377472	40	14587
2026-01-07 20:45:50.97	253.32	17.19	-36.6	-36.9	12.8	6.96e-04	0	36	0	5653921792	40	14553
2026-01-07 20:45:53.95	254.28	17.34	-36.6	-36.9	12.9	6.87e-04	0	36	0	5989466112	40	14571
2026-01-07 20:45:56.94	255.26	17.49	-36.6	-36.9	12.9	4.15e-04	0	36	0	6325010432	40	14559
2026-01-07 20:45:59.92	256.25	17.64	-36.7	-37.0	12.9	6.91e-04	0	36	0	6660554752	40	14669
2026-01-07 20:46:02.91	257.25	17.77	-36.6	-36.9	12.9	6.34e-04	0	36	0	6996099072	40	14469
2026-01-07 20:46:05.90	258.26	17.90	-36.6	-36.9	12.9	7.06e-04	0	36	0	7331643392	40	14468
2026-01-07 20:46:08.87	259.27	18.03	-36.5	-36.8	12.9	6.01e-04	0	36	0	7667187712	40	14391
2026-01-07 20:46:11.85	260.29	18.14	-36.5	-36.8	12.9	3.91e-04	0	36	0	8002732032	40	14369
2026-01-07 20:46:14.84	261.33	18.25	-36.6	-36.9	12.9	5.01e-04	0	37	0	8338276352	40	14442
2026-01-07 20:46:17.82	262.37	18.35	-36.5	-36.8	12.9	5.48e-04	0	37	0	8673820672	40	14382
2026-01-07 20:46:20.82	263.42	18.44	-36.6	-36.9	12.9	5.29e-04	0	37	0	9017753600	40	14470
2026-01-07 20:46:23.80	264.48	18.53	-36.5	-36.8	12.9	4.72e-04	0	37	0	9344909312	40	14305
2026-01-07 20:46:26.80	265.55	18.60	-36.5	-36.8	12.9	4.24e-04	0	37	0	9680453632	40	14396
2026-01-07 20:46:29.77	266.61	18.67	-36.5	-36.8	12.9	3.86e-04	0	37	0	10024386560	40	14331
2026-01-07 20:46:32.76	267.69	18.73	-36.6	-36.9	12.8	4.86e-04	0	37	0	10359930880	40	14470
2026-01-07 20:46:35.75	268.77	18.78	-36.6	-36.9	12.8	3.86e-04	0	37	0	10687086592	40	14470
2026-01-07 20:46:38.73	269.85	18.82	-36.5	-36.8	12.9	5.05e-04	0	37	0	11031019520	40	14322
2026-01-07 20:46:41.71	270.93	18.86	-36.5	-36.8	12.9	7.15e-04	0	37	0	11366563840	40	14328
2026-01-07 20:46:44.70	272.02	18.88	-36.6	-36.9	12.8	7.15e-04	0	37	0	11693719552	40	14541
2026-01-07 20:46:47.68	273.10	18.89	-36.6	-36.9	12.9	3.72e-04	0	37	0	12037652480	40	14547
2026-01-07 20:46:50.66	274.19	18.90	-36.6	-36.9	12.8	4.24e-04	0	37	0	12373196800	40	14563
2026-01-07 20:46:53.64	275.28	18.90	-36.7	-37.0	12.8	4.86e-04	0	37	0	12700352512	40	14685
2026-01-07 20:46:56.62	276.36	18.88	-36.7	-37.0	12.8	3.86e-04	0	37	0	13044285440	40	14649
2026-01-07 20:46:59.60	277.45	18.86	-36.9	-37.1	12.8	4.91e-04	0	37	0	13371441152	40	14923
2026-01-07 20:47:02.58	278.53	18.83	-36.8	-37.1	12.8	4.53e-04	0	37	0	13706985472	40	14781
2026-01-07 20:47:05.57	279.61	18.79	-37.0	-37.3	12.7	7.63e-04	0	37	0	14050918400	40	15241
2026-01-07 20:47:08.55	280.69	18.74	-36.9	-37.2	12.7	8.20e-04	0	37	0	14378074112	40	15026
2026-01-07 20:47:11.54	281.76	18.69	-37.1	-37.4	12.7	8.82e-04	0	37	0	14713618432	40	15350
2026-01-07 20:47:14.52	282.83	18.62	-37.0	-37.3	12.7	7.34e-04	0	37	0	15057551360	40	15210
2026-01-07 20:47:17.51	283.89	18.54	-37.1	-37.3	12.7	4.24e-04	0	37	0	15384707072	40	15284
2026-01-07 20:47:20.50	284.95	18.46	-37.0	-37.3	12.8	3.19e-04	0	37	0	15720251392	40	15244
2026-01-07 20:47:23.50	286.01	18.37	-37.1	-37.3	12.8	3.58e-04	0	37	0	16064184320	40	15255
2026-01-07 20:47:26.50	287.05	18.27	-37.1	-37.4	12.8	3.24e-04	0	37	0	16399728640	40	15419
2026-01-07 20:47:29.48	288.09	18.16	-37.1	-37.4	12.8	5.34e-04	0	37	0	16735272960	40	15454
2026-01-07 20:47:32.47	289.11	18.05	-37.2	-37.5	12.8	3.38e-04	0	37	0	17070817280	40	15481
2026-01-07 20:47:35.46	290.13	17.93	-37.3	-37.6	12.8	3.67e-04	0	37	0	17414750208	40	15709
2026-01-07 20:47:38.45	291.14	17.80	-37.4	-37.6	12.8	3.29e-04	0	37	0	17741905920	40	15791
2026-01-07 20:47:41.42	292.13	17.67	-37.3	-37.6	12.8	4.24e-04	0	37	0	18077450240	40	15709
2026-01-07 20:47:44.40	293.12	17.53	-37.4	-37.7	12.8	3.58e-04	0	37	0	18412994560	40	15930
2026-01-07 20:47:47.40	294.10	17.38	-37.4	-37.7	12.8	3.86e-04	0	37	0	18748538880	40	15975
2026-01-07 20:47:50.39	295.06	17.22	-37.5	-37.8	12.8	3.24e-04	0	37	0	19084083200	40	16021
2026-01-07 20:47:53.38	296.02	17.07	-37.5	-37.7	12.8	4.48e-04	0	37	0	19428016128	40	15968
2026-01-07 20:47:56.35	296.95	16.90	-37.4	-37.7	12.8	3.62e-04	0	37	0	19755171840	40	15963
2026-01-07 20:47:59.34	297.88	16.73	-37.6	-37.9	12.8	3.67e-04	0	37	0	20090716160	40	16231
2026-01-07 20:48:02.33	298.80	16.56	-37.7	-38.0	12.8	4.29e-04	0	37	0	20434649088	41	15598
2026-01-07 20:48:05.33	299.71	16.38	-37.7	-38.0	12.8	4.58e-04	0	37	0	20770193408	41	15493
2026-01-07 20:48:08.31	300.60	16.20	-37.7	-37.9	12.9	5.29e-04	0	37	0	21105737728	41	15472
2026-01-07 20:48:11.30	301.48	16.01	-37.8	-38.1	12.9	5.63e-04	0	37	0	21441282048	41	15718
2026-01-07 20:48:14.30	302.36	15.82	-37.9	-38.2	12.8	5.10e-04	0	37	0	21776826368	41	15845
2026-01-07 20:48:17.29	303.21	15.62	-37.8	-38.1	12.9	4.53e-04	0	37	0	22112370688	41	15745
2026-01-07 20:48:20.27	304.05	15.43	-37.9	-38.2	12.9	4.10e-04	0	37	0	22447915008	41	15921
2026-01-07 20:48:23.25	304.88	15.23	-37.9	-38.2	12.9	5.05e-04	0	37	0	22783459328	41	15850
2026-01-07 20:48:26.19	305.68	15.03	-38.0	-38.3	12.8	6.05e-04	0	37	0	23127392256	41	16057
2026-01-07 20:48:29.14	306.48	14.82	-38.1	-38.3	12.8	6.39e-04	0	38	0	23454547968	41	16179
2026-01-07 20:48:32.13	307.27	14.62	-38.2	-38.5	12.8	8.25e-04	0	37	0	23798480896	42	15475
2026-01-07 20:48:35.12	308.05	14.41	-38.1	-38.4	12.9	6.82e-04	0	37	0	24134025216	42	15423
2026-01-07 20:48:38.10	308.81	14.20	-38.3	-38.6	12.8	7.68e-04	0	37	0	24461180928	42	15794
2026-01-07 20:48:41.09	309.56	13.98	-38.4	-38.7	12.8	9.82e-04	0	38	0	24805113856	42	15899
2026-01-07 20:48:44.09	310.31	13.77	-38.5	-38.8	12.8	1.00e-03	0	38	0	25140658176	42	16148
2026-01-07 20:48:47.07	311.03	13.55	-38.6	-38.9	12.7	9.96e-04	0	37	0	25476202496	43	15471
2026-01-07 20:48:50.06	311.75	13.33	-38.8	-39.1	12.7	8.58e-04	0	38	0	25811746816	43	15758
2026-01-07 20:48:53.05	312.45	13.11	-38.7	-39.0	12.7	1.05e-03	0	38	0	26147291136	43	15571
2026-01-07 20:48:56.02	313.14	12.90	-38.8	-39.1	12.7	9.54e-04	0	38	0	26482835456	43	15687
2026-01-07 20:48:59.01	313.82	12.68	-38.7	-39.0	12.7	1.11e-03	0	38	0	26818379776	43	15582
2026-01-07 20:49:01.99	314.48	12.46	-38.8	-39.1	12.7	1.13e-03	0	38	0	27153924096	43	15692
2026-01-07 20:49:04.97	315.14	12.24	-38.8	-39.1	12.7	1.02e-03	0	38	0	27489468416	43	15810
2026-01-07 20:49:07.97	315.78	12.02	-38.8	-39.1	12.7	1.12e-03	0	38	0	27825012736	43	15703
2026-01-07 20:49:10.96	316.42	11.79	-38.8	-39.1	12.7	1.11e-03	0	38	0	28168945664	43	15813
2026-01-07 20:49:13.95	317.04	11.57	-38.9	-39.2	12.7	1.11e-03	0	38	0	28496101376	43	15987
2026-01-07 20:49:16.94	317.65	11.35	-39.1	-39.4	12.6	1.18e-03	0	38	0	28831645696	43	16249
2026-01-07 20:49:19.92	318.25	11.13	-39.1	-39.4	12.6	1.28e-03	0	38	0	29175578624	44	15399
2026-01-07 20:49:22.92	318.84	10.91	-39.2	-39.6	12.6	1.19e-03	0	38	0	29511122944	44	15668
2026-01-07 20:49:25.91	319.42	10.69	-39.2	-39.5	12.6	1.52e-03	0	38	0	29846667264	44	15625
2026-01-07 20:49:28.89	319.99	10.47	-39.3	-39.6	12.6	1.59e-03	0	38	0	30182211584	44	15789
2026-01-07 20:49:31.87	320.55	10.25	-39.4	-39.7	12.5	1.65e-03	0	38	0	30517755904	44	15985
2026-01-07 20:49:34.83	321.09	10.03	-39.4	-39.7	12.5	1.92e-03	0	38	0	30853300224	44	15894
2026-01-07 20:49:37.82	321.63	9.82	-39.5	-39.8	12.5	1.83e-03	0	38	0	31188844544	45	15236
2026-01-07 20:49:40.81	322.16	9.60	-39.6	-40.0	12.5	2.47e-03	0	38	0	31524388864	45	15476
2026-01-07 20:49:43.79	322.68	9.38	-39.6	-39.9	12.5	2.50e-03	0	38	0	31859933184	45	15462
2026-01-07 20:49:46.78	323.19	9.16	-39.9	-40.2	12.4	2.92e-03	0	38	0	32195477504	45	15854
2026-01-07 20:49:49.77	323.69	8.95	-40.2	-40.5	12.4	3.44e-03	0	38	0	32531021824	46	15618
2026-01-07 20:49:52.75	324.19	8.74	-40.1	-40.4	12.4	3.44e-03	0	38	0	32866566144	46	15412
2026-01-07 20:49:55.74	324.67	8.52	-40.2	-40.5	12.4	3.25e-03	0	38	0	33202110464	46	15496
2026-01-07 20:49:58.71	325.14	8.31	-40.2	-40.5	12.4	3.41e-03	0	38	0	33537654784	46	15504
2026-01-07 20:50:01.68	325.61	8.10	-40.2	-40.5	12.3	3.45e-03	0	38	0	33873199104	46	15634
2026-01-07 20:50:04.68	326.07	7.89	-40.4	-40.7	12.3	3.85e-03	0	38	0	34208743424	46	15875
2026-01-07 20:50:07.66	326.52	7.68	-40.3	-40.6	12.3	4.50e-03	0	38	0	34544287744	46	15672
2026-01-07 20:50:10.66	326.97	7.47	-40.3	-40.6	12.3	4.79e-03	0	38	0	34879832064	46	15799
2026-01-07 20:50:13.63	327.40	7.26	-40.2	-40.5	12.3	5.13e-03	0	38	0	35215376384	46	15578
2026-01-07 20:50:16.62	327.83	7.06	-40.2	-40.5	12.3	5.85e-03	0	38	0	35550920704	46	15554
2026-01-07 20:50:19.62	328.26	6.85	-40.1	-40.4	12.3	5.85e-03	0	38	0	35886465024	46	15436
2026-01-07 20:50:22.62	328.68	6.64	-40.2	-40.5	12.3	5.46e-03	0	38	0	36230397952	46	15560
2026-01-07 20:50:25.61	329.08	6.44	-40.1	-40.4	12.3	5.70e-03	0	38	0	36565942272	46	15357
2026-01-07 20:50:28.59	329.49	6.24	-40.0	-40.3	12.3	5.70e-03	0	38	0	36893097984	46	15283
2026-01-07 20:50:31.58	329.88	6.04	-40.0	-40.4	12.3	6.00e-03	0	38	0	37237030912	46	15303
2026-01-07 20:50:34.58	330.27	5.84	-40.3	-40.6	12.2	7.38e-03	0	38	0	37572575232	46	15811
2026-01-07 20:50:37.57	330.65	5.64	-40.2	-40.5	12.2	8.43e-03	0	38	0	37908119552	46	15501
2026-01-07 20:50:40.56	331.03	5.44	-40.4	-40.8	12.1	8.95e-03	0	38	0	38243663872	46	16017
2026-01-07 20:50:43.55	331.40	5.24	-40.3	-40.6	12.2	1.06e-02	0	38	0	38579208192	47	14871
2026-01-07 20:50:46.53	331.76	5.05	-40.6	-40.9	12.1	1.13e-02	0	38	0	38914752512	47	15426
2026-01-07 20:50:49.52	332.12	4.85	-58.9	-62.2	6.2	4.98e-02	0	37	104	39065747456	83	22404
2026-01-07 20:50:52.51	332.47	4.66	-59.8	-63.0	6.2	4.98e-02	0	37	104	39065747456	85	22090
2026-01-07 20:50:55.49	332.82	4.47	-60.2	-63.5	6.2	0.00e+00	0	37	104	39065747456	86	21863
2026-01-07 20:50:58.48	333.16	4.28	-60.3	-63.6	6.2	0.00e+00	0	37	104	39065747456	86	22283
2026-01-07 20:51:01.46	333.50	4.09	-60.4	-63.7	6.2	0.00e+00	0	37	104	39065747456	86	22379
2026-01-07 20:51:04.45	333.83	3.90	-60.4	-63.7	6.2	0.00e+00	0	37	104	39065747456	86	22486
2026-01-07 20:51:07.44	334.15	3.71	-60.4	-63.7	6.2	0.00e+00	0	36	104	39065747456	86	22390
2026-01-07 20:51:10.44	334.47	3.52	-60.4	-63.6	6.1	0.00e+00	0	37	104	39065747456	86	22200
2026-01-07 20:51:13.44	334.79	3.34	-60.3	-63.5	6.2	0.00e+00	0	37	104	39065747456	86	22081
2026-01-07 20:51:16.43	335.10	3.15	-60.2	-63.5	6.2	0.00e+00	0	36	104	39065747456	86	21904
2026-01-07 20:51:19.42	335.41	2.97	-60.2	-63.4	6.2	0.00e+00	0	36	104	39065747456	86	21849
2026-01-07 20:51:22.41	335.71	2.79	-60.2	-63.4	6.2	0.00e+00	0	36	104	39065747456	86	21741
2026-01-07 20:51:25.42	336.01	2.60	-60.2	-63.4	6.2	0.00e+00	0	36	104	39065747456	86	21800
2026-01-07 20:51:28.42	336.30	2.42	-60.1	-63.4	6.2	0.00e+00	0	36	104	39065747456	86	21667
2026-01-07 20:51:31.43	336.59	2.24	-60.1	-63.3	6.2	0.00e+00	0	36	104	39065747456	86	21587
2026-01-07 20:51:34.42	336.88	2.06	-60.1	-63.4	6.2	0.00e+00	0	36	104	39065747456	86	21648
2026-01-07 20:51:37.41	337.16	1.88	-60.1	-63.3	6.1	0.00e+00	0	36	104	39065747456	86	21540

#Closed at: 2026-01-07 20:51:38
#Recorded file [39065 MB]: D:/lorett/data/31004_260107_234209.dat