passes_logs/2026/01/07/R3.2S_Murmansk/R3.2S_Murmansk__20260107_044205_FENGYUN_3D_rec.log

#Pass ID: 20260107_044205_FENGYUN 3D
#Satellite: FENGYUN 3D
#Configuration: FENGYUN 3D
#almurnet v.1.7.20251203
#Start time: 2026-01-07 04:42:05

#Version: 2.2.20231116
#Station: R3.2S_Murmansk
#Location: 33.079688 lon 68.888172 lat
#TLE: 1 43010U 17072A   26006.26440730  .00000376  00000+0  19957-3 0  9994
#TLE: 2 43010  98.9925 337.9455 0002045 123.9195 236.2175 14.19693586422016

#Time	Az	El	Level	Level2	SNR	BER	BlckErr	Temp	State	Recorded	gain1	gain2
2026-01-07 04:42:05.44	35.56	2.00	-57.4	-70.4	3.8	8.46e-01	0	23	0	0	81	15726
2026-01-07 04:42:09.45	35.40	2.25	-57.4	-70.4	3.8	8.45e-01	0	23	104	0	79	17516
2026-01-07 04:42:13.47	35.24	2.50	-57.4	-70.3	3.8	8.44e-01	0	23	104	0	79	17430
2026-01-07 04:42:17.47	35.07	2.75	-57.4	-70.3	3.8	8.46e-01	0	24	104	0	79	17374
2026-01-07 04:42:21.45	34.90	3.00	-57.4	-70.3	3.8	8.44e-01	0	24	104	0	79	17396
2026-01-07 04:42:25.44	34.73	3.25	-57.4	-70.4	3.8	8.46e-01	0	24	104	0	79	17615
2026-01-07 04:42:29.44	34.55	3.50	-57.4	-70.2	3.8	8.47e-01	0	24	104	0	79	17227
2026-01-07 04:42:33.44	34.37	3.76	-57.3	-69.2	3.8	8.45e-01	0	24	104	0	79	15309
2026-01-07 04:42:37.44	34.19	4.02	-57.2	-68.2	4.0	8.45e-01	0	24	104	0	79	13690
2026-01-07 04:42:41.43	34.00	4.28	-57.2	-67.5	4.0	8.43e-01	0	24	104	0	79	12632
2026-01-07 04:42:45.42	33.81	4.55	-56.2	-62.0	6.8	1.79e-01	0	24	0	6291456	79	6698
2026-01-07 04:42:49.42	33.62	4.81	-54.5	-58.1	10.0	3.18e-03	0	24	0	29360128	75	5360
2026-01-07 04:42:53.41	33.42	5.08	-53.3	-56.0	11.7	1.01e-03	0	24	0	51380224	73	4751
2026-01-07 04:42:57.42	33.22	5.35	-51.0	-52.8	13.6	8.00e-06	0	24	0	74448896	68	4352
2026-01-07 04:43:01.43	33.01	5.63	-50.7	-52.5	13.6	0.00e+00	0	24	0	96468992	67	4455
2026-01-07 04:43:05.43	32.80	5.90	-50.0	-51.6	14.1	0.00e+00	0	24	0	119537664	66	4264
2026-01-07 04:43:09.44	32.59	6.18	-49.4	-51.0	14.3	0.00e+00	0	24	0	141557760	65	4202
2026-01-07 04:43:13.42	32.37	6.46	-49.5	-51.0	14.3	0.00e+00	0	25	0	164626432	65	4238
2026-01-07 04:43:17.42	32.15	6.74	-49.0	-50.4	14.5	0.00e+00	0	25	0	186646528	64	4189
2026-01-07 04:43:21.41	31.92	7.03	-49.2	-50.6	14.4	0.00e+00	0	25	0	208666624	64	4259
2026-01-07 04:43:25.42	31.69	7.32	-49.0	-50.4	14.6	0.00e+00	0	25	0	231735296	64	4167
2026-01-07 04:43:29.41	31.45	7.61	-48.9	-50.3	14.7	0.00e+00	0	25	0	253755392	64	4104
2026-01-07 04:43:33.41	31.21	7.90	-48.8	-50.2	14.7	0.00e+00	0	25	0	276824064	64	4068
2026-01-07 04:43:37.42	30.96	8.20	-48.7	-50.0	14.8	0.00e+00	0	25	0	298844160	64	3998
2026-01-07 04:43:41.42	30.70	8.50	-48.7	-50.0	14.6	0.00e+00	0	25	0	321912832	63	4217
2026-01-07 04:43:45.43	30.44	8.81	-48.6	-50.0	14.6	0.00e+00	0	25	0	343932928	63	4201
2026-01-07 04:43:49.44	30.18	9.12	-48.6	-50.0	14.6	0.00e+00	0	25	0	367001600	63	4209
2026-01-07 04:43:53.45	29.91	9.43	-48.6	-50.0	14.6	0.00e+00	0	25	0	389021696	63	4200
2026-01-07 04:43:57.43	29.63	9.74	-48.6	-50.0	14.6	0.00e+00	0	25	0	412090368	63	4221
2026-01-07 04:44:01.39	29.35	10.05	-48.5	-49.8	14.8	0.00e+00	0	25	0	434110464	63	4107
2026-01-07 04:44:05.40	29.06	10.37	-48.4	-49.7	14.8	0.00e+00	0	25	0	457179136	63	4059
2026-01-07 04:44:09.41	28.76	10.70	-48.1	-49.4	14.9	0.00e+00	0	25	0	479199232	62	4151
2026-01-07 04:44:13.41	28.45	11.02	-48.1	-49.4	14.9	0.00e+00	0	25	0	501219328	62	4155
2026-01-07 04:44:17.41	28.14	11.35	-48.0	-49.3	14.9	0.00e+00	0	25	0	524288000	62	4120
2026-01-07 04:44:21.40	27.82	11.69	-47.8	-49.1	15.0	0.00e+00	0	25	0	546308096	62	4012
2026-01-07 04:44:25.40	27.50	12.02	-47.9	-49.2	15.0	0.00e+00	0	25	0	569376768	62	4068
2026-01-07 04:44:29.40	27.16	12.37	-47.7	-49.0	15.1	0.00e+00	0	25	0	591396864	62	3968
2026-01-07 04:44:33.41	26.82	12.71	-47.9	-49.2	15.0	0.00e+00	0	25	0	614465536	62	4058
2026-01-07 04:44:37.40	26.47	13.06	-47.8	-49.1	15.0	0.00e+00	0	25	0	636485632	62	4010
2026-01-07 04:44:41.40	26.11	13.41	-47.6	-48.8	15.0	0.00e+00	0	25	0	659554304	61	4104
2026-01-07 04:44:45.41	25.74	13.77	-47.6	-48.8	15.0	0.00e+00	0	25	0	681574400	61	4130
2026-01-07 04:44:49.40	25.36	14.13	-47.5	-48.7	15.0	0.00e+00	0	25	0	704643072	61	4088
2026-01-07 04:44:53.41	24.97	14.50	-47.5	-48.7	15.0	0.00e+00	0	25	0	726663168	61	4085
2026-01-07 04:44:57.40	24.57	14.87	-47.5	-48.7	15.1	0.00e+00	0	25	0	748683264	61	4063
2026-01-07 04:45:01.39	24.16	15.24	-47.1	-48.3	15.1	0.00e+00	0	25	0	771751936	60	4137
2026-01-07 04:45:05.36	23.75	15.61	-47.1	-48.3	15.1	0.00e+00	0	25	0	793772032	60	4100
2026-01-07 04:45:09.34	23.32	15.99	-47.1	-48.3	15.1	0.00e+00	0	25	0	815792128	60	4130
2026-01-07 04:45:13.28	22.88	16.37	-47.2	-48.4	15.0	0.00e+00	0	25	0	838860800	60	4155
2026-01-07 04:45:17.27	22.43	16.76	-46.9	-48.0	15.2	0.00e+00	0	25	0	860880896	60	3997
2026-01-07 04:45:21.27	21.96	17.16	-47.1	-48.3	15.0	0.00e+00	0	25	0	883949568	59	4342
2026-01-07 04:45:25.27	21.48	17.56	-47.0	-48.2	15.1	0.00e+00	0	25	0	905969664	59	4305
2026-01-07 04:45:29.29	20.99	17.96	-46.9	-48.1	15.1	0.00e+00	0	25	0	929038336	59	4260
2026-01-07 04:45:33.29	20.48	18.37	-46.9	-48.0	15.1	0.00e+00	0	25	0	951058432	59	4237
2026-01-07 04:45:37.30	19.96	18.78	-46.7	-47.9	15.2	0.00e+00	0	25	0	974127104	59	4152
2026-01-07 04:45:41.30	19.43	19.20	-46.6	-47.8	15.2	0.00e+00	0	25	0	996147200	59	4105
2026-01-07 04:45:45.29	18.88	19.62	-46.5	-47.6	15.3	0.00e+00	0	25	0	1019215872	59	4048
2026-01-07 04:45:49.31	18.31	20.05	-46.6	-47.7	15.2	0.00e+00	0	25	0	1041235968	59	4082
2026-01-07 04:45:53.31	17.72	20.48	-46.4	-47.6	15.3	0.00e+00	0	25	0	1064304640	59	4024
2026-01-07 04:45:57.31	17.12	20.91	-46.2	-47.4	15.4	0.00e+00	0	25	0	1086324736	59	3916
2026-01-07 04:46:01.30	16.51	21.35	-46.2	-47.3	15.4	0.00e+00	0	25	0	1109393408	59	3884
2026-01-07 04:46:05.30	15.87	21.79	-46.0	-47.1	15.3	0.00e+00	0	25	0	1131413504	58	4026
2026-01-07 04:46:09.30	15.22	22.23	-46.0	-47.1	15.3	0.00e+00	0	25	0	1153433600	58	4024
2026-01-07 04:46:13.31	14.54	22.68	-45.8	-46.9	15.4	0.00e+00	0	25	0	1176502272	58	3930
2026-01-07 04:46:17.31	13.85	23.14	-45.8	-46.9	15.4	0.00e+00	0	25	0	1198522368	58	3930
2026-01-07 04:46:21.32	13.13	23.59	-46.0	-47.1	15.3	0.00e+00	0	25	0	1221591040	58	4019
2026-01-07 04:46:25.32	12.39	24.05	-45.7	-46.8	15.4	0.00e+00	0	25	0	1243611136	58	3888
2026-01-07 04:46:29.33	11.63	24.52	-45.5	-46.6	15.4	0.00e+00	0	25	0	1266679808	57	4007
2026-01-07 04:46:33.34	10.85	24.98	-45.7	-46.9	15.3	0.00e+00	0	25	0	1288699904	57	4146
2026-01-07 04:46:37.32	10.05	25.45	-45.7	-46.8	15.3	0.00e+00	0	25	0	1311768576	57	4134
2026-01-07 04:46:41.32	9.21	25.91	-45.3	-46.4	15.4	0.00e+00	0	25	0	1333788672	57	3935
2026-01-07 04:46:45.32	8.36	26.38	-45.1	-46.1	15.4	0.00e+00	0	25	0	1356857344	56	4033
2026-01-07 04:46:49.31	7.48	26.85	-45.1	-46.2	15.3	0.00e+00	0	25	0	1378877440	56	4080
2026-01-07 04:46:53.32	6.57	27.33	-45.1	-46.2	15.4	0.00e+00	0	25	0	1400897536	56	4085
2026-01-07 04:46:57.31	5.63	27.80	-45.0	-46.1	15.4	0.00e+00	0	25	0	1423966208	56	4016
2026-01-07 04:47:01.28	4.68	28.26	-45.0	-46.0	15.4	0.00e+00	0	25	0	1445986304	56	4002
2026-01-07 04:47:05.26	3.69	28.73	-45.0	-46.1	15.4	0.00e+00	0	25	0	1469054976	56	4007
2026-01-07 04:47:09.25	2.67	29.19	-45.2	-46.2	15.3	0.00e+00	0	25	0	1491075072	56	4096
2026-01-07 04:47:13.25	1.61	29.66	-45.0	-46.1	15.4	0.00e+00	0	25	0	1513095168	56	4025
2026-01-07 04:47:17.25	0.53	30.12	-45.1	-46.1	15.4	0.00e+00	0	25	0	1536163840	56	4045
2026-01-07 04:47:21.26	359.41	30.57	-44.8	-45.8	15.5	0.00e+00	0	25	0	1558183936	56	3899
2026-01-07 04:47:25.27	358.26	31.02	-44.8	-45.8	15.5	0.00e+00	0	25	0	1581252608	56	3911
2026-01-07 04:47:29.26	357.08	31.46	-44.8	-45.9	15.5	0.00e+00	0	25	0	1603272704	56	3933
2026-01-07 04:47:33.25	355.87	31.90	-44.8	-45.8	15.5	0.00e+00	0	25	0	1626341376	56	3909
2026-01-07 04:47:37.25	354.62	32.32	-44.4	-45.5	15.4	0.00e+00	0	25	0	1648361472	55	3974
2026-01-07 04:47:41.24	353.35	32.74	-44.5	-45.5	15.4	0.00e+00	0	25	0	1671430144	55	3981
2026-01-07 04:47:45.24	352.04	33.15	-44.4	-45.4	15.4	0.00e+00	0	25	0	1693450240	55	3954
2026-01-07 04:47:49.24	350.69	33.54	-44.8	-45.9	15.3	0.00e+00	0	25	0	1716518912	55	4160
2026-01-07 04:47:53.25	349.31	33.92	-44.5	-45.5	15.4	0.00e+00	0	25	0	1738539008	55	3989
2026-01-07 04:47:57.24	347.90	34.28	-44.5	-45.5	15.4	0.00e+00	0	25	0	1761607680	55	3980
2026-01-07 04:48:01.24	346.46	34.63	-44.4	-45.5	15.5	0.00e+00	0	25	0	1783627776	55	3963
2026-01-07 04:48:05.25	344.98	34.96	-44.4	-45.5	15.5	0.00e+00	0	25	0	1805647872	55	3959
2026-01-07 04:48:09.24	343.49	35.28	-44.5	-45.6	15.4	0.00e+00	0	25	0	1828716544	55	4019
2026-01-07 04:48:13.25	341.95	35.57	-44.7	-45.8	15.4	0.00e+00	0	25	0	1850736640	55	4100
2026-01-07 04:48:17.23	340.40	35.84	-44.4	-45.5	15.5	0.00e+00	0	25	0	1873805312	55	3968
2026-01-07 04:48:21.23	338.82	36.09	-44.5	-45.5	15.4	0.00e+00	0	25	0	1895825408	55	3986
2026-01-07 04:48:25.22	337.22	36.31	-44.4	-45.5	15.5	0.00e+00	0	25	0	1917845504	55	3973
2026-01-07 04:48:29.23	335.58	36.52	-44.6	-45.6	15.4	0.00e+00	0	25	0	1940914176	55	4034
2026-01-07 04:48:33.23	333.94	36.69	-44.7	-45.8	15.4	0.00e+00	0	25	0	1962934272	55	4099
2026-01-07 04:48:37.23	332.27	36.84	-44.5	-45.5	15.3	0.00e+00	0	25	0	1986002944	54	4229
2026-01-07 04:48:41.23	330.60	36.96	-44.9	-45.9	15.3	0.00e+00	0	25	0	2008023040	54	4435
2026-01-07 04:48:45.23	328.91	37.05	-44.7	-45.8	15.3	0.00e+00	0	25	0	2031091712	54	4355
2026-01-07 04:48:49.25	327.20	37.12	-44.4	-45.5	15.4	0.00e+00	0	25	0	2053111808	54	4207
2026-01-07 04:48:53.25	325.50	37.16	-44.4	-45.5	15.4	0.00e+00	0	25	0	2076180480	54	4211
2026-01-07 04:48:57.26	323.79	37.16	-44.7	-45.8	15.3	0.00e+00	0	26	0	2098200576	54	4362
2026-01-07 04:49:01.25	322.09	37.14	-44.6	-45.6	15.3	0.00e+00	0	25	0	2121269248	54	4284
2026-01-07 04:49:05.25	320.39	37.09	-44.6	-45.7	15.3	0.00e+00	0	25	0	2143289344	54	4301
2026-01-07 04:49:09.25	318.70	37.01	-44.4	-45.4	15.3	0.00e+00	0	25	0	2166358016	54	4180
2026-01-07 04:49:13.24	317.02	36.91	-44.5	-45.5	15.3	0.00e+00	0	25	0	2188378112	54	4233
2026-01-07 04:49:17.23	315.35	36.77	-44.6	-45.6	15.3	0.00e+00	0	25	0	2211446784	54	4274
2026-01-07 04:49:21.22	313.70	36.61	-44.5	-45.5	15.3	0.00e+00	0	25	0	2233466880	54	4234
2026-01-07 04:49:25.22	312.06	36.42	-44.3	-45.4	15.4	0.00e+00	0	25	0	2255486976	54	4151
2026-01-07 04:49:29.22	310.44	36.21	-44.4	-45.4	15.4	0.00e+00	0	25	0	2278555648	54	4184
2026-01-07 04:49:33.21	308.85	35.97	-44.7	-45.7	15.3	0.00e+00	0	25	0	2300575744	54	4331
2026-01-07 04:49:37.22	307.27	35.71	-44.9	-46.0	15.3	0.00e+00	0	25	0	2323644416	54	4443
2026-01-07 04:49:41.22	305.72	35.43	-44.1	-45.1	15.4	0.00e+00	0	25	0	2345664512	54	4042
2026-01-07 04:49:45.23	304.20	35.13	-44.4	-45.5	15.4	0.00e+00	0	26	0	2368733184	54	4196
2026-01-07 04:49:49.25	302.70	34.80	-44.6	-45.7	15.3	0.00e+00	0	25	0	2390753280	54	4303
2026-01-07 04:49:53.25	301.24	34.46	-44.6	-45.7	15.3	0.00e+00	0	26	0	2413821952	54	4301
2026-01-07 04:49:57.25	299.81	34.10	-44.2	-45.2	15.4	0.00e+00	0	25	0	2435842048	54	4087
2026-01-07 04:50:01.25	298.42	33.73	-44.4	-45.4	15.4	0.00e+00	0	25	0	2458910720	54	4167
2026-01-07 04:50:05.25	297.05	33.34	-44.4	-45.4	15.4	0.00e+00	0	25	0	2480930816	54	4189
2026-01-07 04:50:09.23	295.73	32.95	-44.7	-45.7	15.3	0.00e+00	0	25	0	2503999488	54	4316
2026-01-07 04:50:13.25	294.42	32.53	-44.6	-45.6	15.3	0.00e+00	0	25	0	2526019584	54	4288
2026-01-07 04:50:17.24	293.16	32.11	-44.7	-45.7	15.3	0.00e+00	0	25	0	2549088256	54	4313
2026-01-07 04:50:21.24	291.93	31.68	-44.7	-45.7	15.3	0.00e+00	0	26	0	2571108352	54	4325
2026-01-07 04:50:25.25	290.73	31.24	-44.9	-45.9	15.3	0.00e+00	0	26	0	2593128448	54	4427
2026-01-07 04:50:29.26	289.56	30.79	-44.7	-45.7	15.3	0.00e+00	0	25	0	2616197120	54	4339
2026-01-07 04:50:33.25	288.42	30.34	-44.5	-45.5	15.3	0.00e+00	0	25	0	2638217216	54	4210
2026-01-07 04:50:37.26	287.32	29.88	-45.0	-46.1	15.3	0.00e+00	0	26	0	2661285888	55	4245
2026-01-07 04:50:41.24	286.25	29.42	-44.7	-45.8	15.3	0.00e+00	0	25	0	2683305984	55	4105
2026-01-07 04:50:45.23	285.21	28.95	-44.5	-45.6	15.4	0.00e+00	0	25	0	2705326080	55	4006
2026-01-07 04:50:49.23	284.20	28.48	-45.0	-46.1	15.3	0.00e+00	0	25	0	2728394752	55	4253
2026-01-07 04:50:53.23	283.22	28.01	-44.9	-45.9	15.3	0.00e+00	0	25	0	2750414848	55	4192
2026-01-07 04:50:57.24	282.27	27.54	-45.1	-46.2	15.3	0.00e+00	0	25	0	2773483520	55	4313
2026-01-07 04:51:01.24	281.34	27.07	-45.3	-46.4	15.2	0.00e+00	0	25	0	2796552192	55	4406
2026-01-07 04:51:05.24	280.44	26.59	-45.2	-46.3	15.2	0.00e+00	0	25	0	2818572288	55	4367
2026-01-07 04:51:09.24	279.57	26.12	-45.4	-46.5	15.2	0.00e+00	0	25	0	2840592384	55	4453
2026-01-07 04:51:13.24	278.73	25.65	-45.6	-46.7	15.2	0.00e+00	0	25	0	2863661056	56	4319
2026-01-07 04:51:17.24	277.91	25.18	-45.8	-46.9	15.2	0.00e+00	0	25	0	2885681152	56	4411
2026-01-07 04:51:21.24	277.11	24.72	-45.5	-46.6	15.2	0.00e+00	0	25	0	2908749824	56	4264
2026-01-07 04:51:25.23	276.34	24.25	-45.6	-46.7	15.2	0.00e+00	0	25	0	2930769920	56	4294
2026-01-07 04:51:29.24	275.59	23.79	-45.9	-47.0	15.2	0.00e+00	0	25	0	2953838592	56	4456
2026-01-07 04:51:33.24	274.86	23.33	-45.9	-47.0	15.2	0.00e+00	0	25	0	2975858688	57	4194
2026-01-07 04:51:37.23	274.16	22.88	-45.8	-46.8	15.3	0.00e+00	0	26	0	2997878784	57	4143
2026-01-07 04:51:41.23	273.47	22.43	-45.6	-46.7	15.3	0.00e+00	0	25	0	3020947456	57	4076
2026-01-07 04:51:45.23	272.80	21.98	-45.7	-46.7	15.3	0.00e+00	0	25	0	3044016128	57	4087
2026-01-07 04:51:49.22	272.16	21.53	-45.7	-46.8	15.3	0.00e+00	0	25	0	3066036224	57	4129
2026-01-07 04:51:53.21	271.53	21.09	-45.9	-47.0	15.2	0.00e+00	0	25	0	3088056320	57	4230
2026-01-07 04:51:57.22	270.92	20.66	-46.1	-47.2	15.2	0.00e+00	0	26	0	3111124992	57	4328
2026-01-07 04:52:01.22	270.33	20.22	-46.2	-47.4	15.1	0.00e+00	0	26	0	3133145088	57	4398
2026-01-07 04:52:05.23	269.75	19.79	-46.1	-47.3	15.1	0.00e+00	0	25	0	3156213760	57	4348
2026-01-07 04:52:09.22	269.19	19.37	-46.1	-47.3	15.2	0.00e+00	0	26	0	3178233856	57	4341
2026-01-07 04:52:13.21	268.64	18.95	-46.4	-47.5	15.2	0.00e+00	0	25	0	3201302528	58	4241
2026-01-07 04:52:17.20	268.12	18.54	-46.6	-47.7	15.1	0.00e+00	0	26	0	3223322624	58	4334
2026-01-07 04:52:21.18	267.60	18.13	-46.7	-47.9	15.1	0.00e+00	0	25	0	3245342720	58	4405
2026-01-07 04:52:25.18	267.10	17.72	-46.8	-48.0	15.1	0.00e+00	0	25	0	3268411392	58	4444
2026-01-07 04:52:29.19	266.61	17.32	-46.9	-48.1	15.1	0.00e+00	0	25	0	3290431488	59	4244
2026-01-07 04:52:33.21	266.13	16.92	-47.0	-48.2	15.1	0.00e+00	0	26	0	3313500160	59	4313
2026-01-07 04:52:37.23	265.67	16.52	-47.0	-48.2	15.1	0.00e+00	0	26	0	3335520256	59	4314
2026-01-07 04:52:41.22	265.22	16.13	-47.2	-48.4	15.0	0.00e+00	0	25	0	3358588928	59	4402
2026-01-07 04:52:45.23	264.78	15.75	-47.2	-48.4	15.0	0.00e+00	0	25	0	3380609024	59	4395
2026-01-07 04:52:49.23	264.35	15.37	-47.2	-48.4	15.0	0.00e+00	0	26	0	3403677696	59	4430
2026-01-07 04:52:53.24	263.94	14.99	-47.3	-48.5	14.9	0.00e+00	0	25	0	3425697792	59	4478
2026-01-07 04:52:57.25	263.53	14.62	-47.1	-48.3	15.1	0.00e+00	0	26	0	3448766464	60	4122
2026-01-07 04:53:01.25	263.14	14.25	-47.3	-48.5	15.0	0.00e+00	0	26	0	3470786560	60	4209
2026-01-07 04:53:05.26	262.75	13.88	-47.4	-48.6	15.0	0.00e+00	0	26	0	3493855232	60	4278
2026-01-07 04:53:09.27	262.37	13.52	-47.4	-48.6	15.0	0.00e+00	0	25	0	3515875328	60	4263
2026-01-07 04:53:13.27	262.01	13.17	-47.4	-48.5	15.0	0.00e+00	0	25	0	3538944000	60	4236
2026-01-07 04:53:17.28	261.65	12.82	-47.4	-48.6	15.0	0.00e+00	0	26	0	3560964096	60	4258
2026-01-07 04:53:21.28	261.30	12.47	-47.5	-48.7	14.9	0.00e+00	0	25	0	3584032768	60	4297
2026-01-07 04:53:25.28	260.96	12.12	-47.6	-48.8	14.9	0.00e+00	0	26	0	3606052864	60	4354
2026-01-07 04:53:29.28	260.63	11.78	-47.7	-49.0	14.8	0.00e+00	0	26	0	3628072960	60	4445
2026-01-07 04:53:33.28	260.30	11.45	-47.8	-49.1	14.8	0.00e+00	0	26	0	3651141632	60	4500
2026-01-07 04:53:37.29	259.99	11.11	-47.9	-49.1	14.9	0.00e+00	0	26	0	3674210304	61	4290
2026-01-07 04:53:41.29	259.68	10.79	-48.1	-49.4	14.7	0.00e+00	0	25	0	3696230400	61	4415
2026-01-07 04:53:45.30	259.37	10.46	-48.1	-49.3	14.8	0.00e+00	0	25	0	3719299072	61	4364
2026-01-07 04:53:49.31	259.08	10.14	-47.9	-49.2	14.8	0.00e+00	0	26	0	3741319168	61	4310
2026-01-07 04:53:53.30	258.79	9.82	-48.1	-49.3	14.7	0.00e+00	0	25	0	3764387840	61	4388
2026-01-07 04:53:57.30	258.51	9.50	-48.2	-49.5	14.7	0.00e+00	0	25	0	3786407936	61	4452
2026-01-07 04:54:01.31	258.23	9.19	-48.3	-49.6	14.7	0.00e+00	0	25	0	3808428032	61	4515
2026-01-07 04:54:05.29	257.96	8.88	-48.4	-49.7	14.7	0.00e+00	0	25	0	3831496704	62	4309
2026-01-07 04:54:09.29	257.70	8.58	-48.5	-49.8	14.6	0.00e+00	0	25	0	3853516800	62	4363
2026-01-07 04:54:13.29	257.44	8.27	-48.5	-49.8	14.6	0.00e+00	0	25	0	3876585472	62	4385
2026-01-07 04:54:17.28	257.19	7.98	-48.8	-50.1	14.5	0.00e+00	0	25	0	3898605568	62	4526
2026-01-07 04:54:21.28	256.94	7.68	-48.7	-50.1	14.5	0.00e+00	0	25	0	3920625664	62	4499
2026-01-07 04:54:25.27	256.70	7.39	-48.7	-50.1	14.5	0.00e+00	0	25	0	3943694336	62	4516
2026-01-07 04:54:29.28	256.46	7.09	-48.9	-50.3	14.4	0.00e+00	0	26	0	3965714432	62	4606
2026-01-07 04:54:33.29	256.23	6.81	-48.8	-50.2	14.4	0.00e+00	0	25	0	3988783104	62	4585
2026-01-07 04:54:37.29	256.00	6.52	-49.0	-50.5	14.4	0.00e+00	0	26	0	4011851776	63	4444
2026-01-07 04:54:41.31	255.78	6.24	-48.9	-50.3	14.5	0.00e+00	0	25	0	4033871872	63	4364
2026-01-07 04:54:45.31	255.56	5.96	-49.2	-50.6	14.3	0.00e+00	0	26	0	4055891968	63	4545
2026-01-07 04:54:49.31	255.34	5.68	-49.3	-50.7	14.2	0.00e+00	0	26	0	4078960640	63	4586
2026-01-07 04:54:53.31	255.13	5.40	-49.4	-50.9	14.2	0.00e+00	0	25	0	4100980736	64	4433
2026-01-07 04:54:57.33	254.93	5.13	-49.6	-51.1	14.1	0.00e+00	0	26	0	4124049408	64	4531
2026-01-07 04:55:01.32	254.73	4.86	-58.8	-71.8	3.8	8.46e-01	0	25	104	4137680896	82	17306
2026-01-07 04:55:05.32	254.53	4.59	-59.6	-72.7	3.8	8.46e-01	0	26	104	4137680896	84	17273
2026-01-07 04:55:09.32	254.33	4.33	-60.0	-73.1	3.8	8.46e-01	0	26	104	4137680896	85	16950
2026-01-07 04:55:13.33	254.14	4.06	-60.1	-73.2	3.8	8.45e-01	0	26	104	4137680896	85	17177
2026-01-07 04:55:17.32	253.96	3.80	-60.2	-73.3	3.8	8.46e-01	0	26	104	4137680896	85	17368
2026-01-07 04:55:21.30	253.78	3.55	-60.2	-73.3	3.8	8.46e-01	0	26	104	4137680896	85	17333
2026-01-07 04:55:25.30	253.60	3.29	-60.1	-73.2	3.8	8.46e-01	0	26	104	4137680896	85	17217
2026-01-07 04:55:29.30	253.42	3.04	-60.0	-73.1	3.8	8.46e-01	0	26	104	4137680896	85	17049
2026-01-07 04:55:33.30	253.25	2.78	-60.0	-73.1	3.8	8.47e-01	0	26	104	4137680896	85	17047
2026-01-07 04:55:37.30	253.08	2.53	-60.0	-73.1	3.8	8.46e-01	0	26	104	4137680896	85	17018
2026-01-07 04:55:41.31	252.91	2.28	-60.0	-73.1	3.8	8.45e-01	0	26	104	4137680896	85	16998
2026-01-07 04:55:45.31	252.75	2.04	-60.0	-73.1	3.8	8.46e-01	0	26	104	4137680896	85	16961

#Closed at: 2026-01-07 04:55:46
#Recorded file [4137 MB]: D:/lorett/data/31004_260107_074205.dat