passes_logs/2026/01/07/R3.2S_Murmansk/R3.2S_Murmansk__20260107_065921_SUOMI_NPP_rec.log

#Pass ID: 20260107_065921_SUOMI NPP
#Satellite: SUOMI NPP
#Configuration: NPP
#almurnet v.1.7.20251203
#Start time: 2026-01-07 06:59:21

#Version: 2.2.20231116
#Station: R3.2S_Murmansk
#Location: 33.079688 lon 68.888172 lat
#TLE: 1 37849U 11061A   26005.94084933  .00000134  00000+0  84554-4 0  9990
#TLE: 2 37849  98.7803 308.0679 0002567  79.1029 281.0436 14.19522657735426

#Time	Az	El	Level	Level2	SNR	BER	BlckErr	Temp	State	Recorded	gain1	gain2
2026-01-07 06:59:21.88	93.29	2.02	-57.6	-73.6	3.8	1.49e+00	0	23	0	0	81	22775
2026-01-07 06:59:25.88	93.08	2.26	-57.6	-73.6	3.8	1.49e+00	0	23	104	0	80	23887
2026-01-07 06:59:29.87	92.87	2.50	-57.6	-73.6	3.8	1.49e+00	0	23	104	0	80	23904
2026-01-07 06:59:33.86	92.66	2.74	-57.6	-73.6	3.8	1.49e+00	0	23	104	0	80	23999
2026-01-07 06:59:37.84	92.44	2.98	-57.6	-73.6	3.8	1.49e+00	0	23	104	0	80	24079
2026-01-07 06:59:41.84	92.21	3.23	-57.6	-73.6	3.8	1.49e+00	0	24	104	0	80	23865
2026-01-07 06:59:45.83	91.99	3.48	-57.6	-73.6	3.8	1.49e+00	0	24	104	0	80	23984
2026-01-07 06:59:49.83	91.75	3.72	-57.6	-73.5	3.8	1.49e+00	0	24	104	0	80	23656
2026-01-07 06:59:53.82	91.52	3.97	-57.6	-73.6	3.8	1.49e+00	0	24	104	0	80	23931
2026-01-07 06:59:57.81	91.28	4.23	-57.6	-72.9	3.8	1.49e+00	0	24	104	0	80	22048
2026-01-07 07:00:01.80	91.03	4.48	-57.5	-70.0	4.2	1.39e+00	0	24	0	0	80	15769
2026-01-07 07:00:05.79	90.79	4.73	-57.2	-67.3	5.3	5.09e-01	0	24	0	6291456	80	11595
2026-01-07 07:00:09.79	90.53	4.99	-57.0	-65.5	6.5	1.83e-01	0	24	0	13631488	80	9428
2026-01-07 07:00:13.77	90.27	5.25	-57.5	-66.7	6.0	6.98e-01	0	24	0	18874368	80	10877
2026-01-07 07:00:17.78	90.01	5.51	-54.9	-58.5	12.3	3.80e-06	0	24	0	26214400	76	5302
2026-01-07 07:00:21.78	89.74	5.78	-54.9	-58.5	12.4	7.00e-07	0	24	0	33554432	76	5282
2026-01-07 07:00:25.77	89.47	6.04	-54.5	-57.7	12.8	0.00e+00	0	24	0	40894464	75	5123
2026-01-07 07:00:29.75	89.19	6.31	-54.8	-58.3	12.4	7.00e-07	0	24	0	49283072	75	5486
2026-01-07 07:00:33.72	88.91	6.58	-54.7	-58.0	12.6	0.00e+00	0	24	0	56623104	75	5337
2026-01-07 07:00:37.72	88.62	6.85	-54.4	-57.6	12.9	0.00e+00	0	24	0	63963136	75	5067
2026-01-07 07:00:41.71	88.32	7.12	-54.3	-57.9	12.7	0.00e+00	0	25	0	71303168	75	5232
2026-01-07 07:00:45.70	88.02	7.40	-54.3	-58.0	12.7	0.00e+00	0	25	0	78643200	75	5280
2026-01-07 07:00:49.69	87.71	7.68	-53.7	-56.8	13.3	0.00e+00	0	25	0	85983232	74	4914
2026-01-07 07:00:53.70	87.40	7.96	-53.6	-56.6	13.4	0.00e+00	0	25	0	93323264	73	5072
2026-01-07 07:00:57.69	87.08	8.24	-53.5	-56.5	13.4	0.00e+00	0	25	0	101711872	73	5025
2026-01-07 07:01:01.69	86.75	8.53	-53.0	-55.8	13.7	0.00e+00	0	25	0	109051904	72	4874
2026-01-07 07:01:05.67	86.42	8.82	-53.0	-55.8	13.8	0.00e+00	0	25	0	116391936	72	4895
2026-01-07 07:01:09.66	86.08	9.11	-53.1	-55.9	13.7	0.00e+00	0	25	0	123731968	72	4977
2026-01-07 07:01:13.65	85.73	9.40	-53.1	-55.8	13.8	0.00e+00	0	25	0	131072000	72	4922
2026-01-07 07:01:17.64	85.38	9.69	-53.3	-56.3	13.5	0.00e+00	0	25	0	138412032	72	5162
2026-01-07 07:01:21.62	85.02	9.99	-53.2	-56.0	13.7	0.00e+00	0	25	0	145752064	72	5023
2026-01-07 07:01:25.61	84.65	10.29	-53.1	-55.8	13.8	0.00e+00	0	25	0	153092096	72	4921
2026-01-07 07:01:29.61	84.27	10.59	-53.1	-55.8	13.8	0.00e+00	0	25	0	161480704	72	4910
2026-01-07 07:01:33.60	83.89	10.90	-52.9	-55.5	14.0	0.00e+00	0	25	0	168820736	72	4720
2026-01-07 07:01:37.61	83.49	11.20	-53.0	-55.6	13.9	0.00e+00	0	24	0	176160768	72	4796
2026-01-07 07:01:41.60	83.09	11.51	-53.1	-55.9	13.8	0.00e+00	0	25	0	183500800	72	4935
2026-01-07 07:01:45.60	82.68	11.83	-52.9	-55.5	14.0	0.00e+00	0	25	0	190840832	72	4713
2026-01-07 07:01:49.60	82.25	12.14	-53.2	-56.1	13.7	0.00e+00	0	25	0	198180864	72	5066
2026-01-07 07:01:53.59	81.82	12.46	-53.0	-55.8	13.9	0.00e+00	0	25	0	205520896	72	4874
2026-01-07 07:01:57.60	81.38	12.78	-53.0	-55.7	13.9	0.00e+00	0	25	0	213909504	72	4869
2026-01-07 07:02:01.62	80.93	13.10	-53.1	-55.9	13.8	0.00e+00	0	25	0	221249536	72	4983
2026-01-07 07:02:05.62	80.47	13.43	-52.9	-55.5	13.9	0.00e+00	0	25	0	228589568	71	5033
2026-01-07 07:02:09.63	80.00	13.76	-52.7	-55.2	14.1	0.00e+00	0	25	0	235929600	71	4836
2026-01-07 07:02:13.65	79.51	14.09	-52.5	-54.9	14.2	0.00e+00	0	25	0	243269632	71	4668
2026-01-07 07:02:17.64	79.02	14.42	-52.6	-55.1	14.2	0.00e+00	0	25	0	250609664	71	4777
2026-01-07 07:02:21.64	78.51	14.75	-53.0	-55.6	13.8	0.00e+00	0	25	0	258998272	71	5087
2026-01-07 07:02:25.64	78.00	15.09	-52.9	-55.5	13.9	0.00e+00	0	25	0	266338304	71	5020
2026-01-07 07:02:29.64	77.47	15.43	-53.0	-55.6	13.9	0.00e+00	0	25	0	273678336	71	5086
2026-01-07 07:02:33.64	76.93	15.77	-52.8	-55.4	14.0	0.00e+00	0	25	0	281018368	71	4948
2026-01-07 07:02:37.66	76.37	16.12	-52.5	-54.9	14.2	0.00e+00	0	25	0	288358400	71	4705
2026-01-07 07:02:41.66	75.80	16.46	-52.4	-54.8	14.3	0.00e+00	0	25	0	295698432	71	4639
2026-01-07 07:02:45.66	75.22	16.81	-51.9	-54.2	14.5	0.00e+00	0	25	0	304087040	70	4550
2026-01-07 07:02:49.65	74.63	17.16	-52.0	-54.1	14.5	0.00e+00	0	25	0	311427072	70	4539
2026-01-07 07:02:53.65	74.02	17.51	-52.0	-54.2	14.5	0.00e+00	0	25	0	318767104	70	4564
2026-01-07 07:02:57.66	73.40	17.86	-52.1	-54.3	14.4	0.00e+00	0	25	0	326107136	70	4639
2026-01-07 07:03:01.66	72.76	18.22	-52.2	-54.4	14.4	0.00e+00	0	25	0	333447168	70	4688
2026-01-07 07:03:05.65	72.11	18.57	-52.2	-54.5	14.4	0.00e+00	0	25	0	340787200	70	4721
2026-01-07 07:03:09.66	71.43	18.93	-51.8	-54.1	14.6	0.00e+00	0	25	0	348127232	70	4502
2026-01-07 07:03:13.67	70.75	19.29	-51.6	-53.7	14.6	0.00e+00	0	25	0	356515840	69	4579
2026-01-07 07:03:17.67	70.05	19.65	-51.9	-54.2	14.4	0.00e+00	0	25	0	363855872	69	4831
2026-01-07 07:03:21.66	69.33	20.01	-52.4	-54.8	14.2	0.00e+00	0	25	0	371195904	70	4909
2026-01-07 07:03:25.66	68.59	20.37	-52.6	-55.0	14.1	0.00e+00	0	25	0	378535936	70	5022
2026-01-07 07:03:29.63	67.84	20.72	-52.3	-54.6	14.3	0.00e+00	0	25	0	385875968	70	4810
2026-01-07 07:03:33.62	67.07	21.08	-52.4	-54.7	14.3	0.00e+00	0	25	0	393216000	70	4830
2026-01-07 07:03:37.61	66.29	21.44	-52.8	-55.3	14.1	0.00e+00	0	25	0	400556032	71	4880
2026-01-07 07:03:41.62	65.48	21.80	-52.3	-54.5	14.5	0.00e+00	0	25	0	408944640	71	4454
2026-01-07 07:03:45.62	64.65	22.15	-52.2	-54.4	14.4	0.00e+00	0	25	0	416284672	70	4653
2026-01-07 07:03:49.62	63.80	22.51	-52.5	-54.8	14.2	0.00e+00	0	25	0	423624704	70	4881
2026-01-07 07:03:53.61	62.94	22.86	-52.0	-54.1	14.5	0.00e+00	0	25	0	430964736	70	4532
2026-01-07 07:03:57.60	62.05	23.21	-51.3	-53.2	14.9	0.00e+00	0	25	0	438304768	69	4322
2026-01-07 07:04:01.60	61.15	23.55	-50.5	-52.3	14.9	0.00e+00	0	25	0	445644800	67	4363
2026-01-07 07:04:05.62	60.21	23.90	-51.2	-53.2	14.5	0.00e+00	0	25	0	454033408	67	4858
2026-01-07 07:04:09.62	59.27	24.24	-51.1	-53.1	14.5	0.00e+00	0	25	0	461373440	67	4778
2026-01-07 07:04:13.63	58.29	24.57	-50.9	-52.8	14.7	0.00e+00	0	25	0	468713472	67	4644
2026-01-07 07:04:17.62	57.31	24.90	-51.3	-53.2	14.5	0.00e+00	0	25	0	476053504	67	4864
2026-01-07 07:04:21.59	56.30	25.23	-51.2	-53.2	14.5	0.00e+00	0	25	0	483393536	67	4861
2026-01-07 07:04:25.59	55.27	25.55	-51.0	-53.0	14.6	0.00e+00	0	25	0	490733568	67	4711
2026-01-07 07:04:29.59	54.22	25.86	-50.7	-52.5	14.8	0.00e+00	0	25	0	498073600	67	4465
2026-01-07 07:04:33.58	53.15	26.16	-51.7	-53.7	14.5	0.00e+00	0	25	0	506462208	68	4831
2026-01-07 07:04:37.58	52.06	26.46	-51.6	-53.5	14.7	0.00e+00	0	25	0	513802240	69	4470
2026-01-07 07:04:41.58	50.94	26.75	-51.7	-53.6	14.5	0.00e+00	0	25	0	521142272	69	4526
2026-01-07 07:04:45.58	49.81	27.03	-52.2	-54.4	14.2	0.00e+00	0	25	0	528482304	69	4951
2026-01-07 07:04:49.59	48.65	27.30	-51.9	-54.0	14.4	0.00e+00	0	25	0	535822336	69	4729
2026-01-07 07:04:53.60	47.47	27.56	-51.6	-53.7	14.5	0.00e+00	0	25	0	543162368	69	4550
2026-01-07 07:04:57.61	46.28	27.80	-51.8	-53.9	13.8	0.00e+00	0	25	0	550502400	69	4655
2026-01-07 07:05:01.61	45.07	28.04	-52.2	-54.4	14.1	0.00e+00	0	25	0	558891008	69	4931
2026-01-07 07:05:05.60	43.84	28.26	-51.5	-53.4	14.7	0.00e+00	0	25	0	566231040	69	4433
2026-01-07 07:05:09.58	42.60	28.47	-51.9	-54.0	14.4	0.00e+00	0	25	0	573571072	69	4743
2026-01-07 07:05:13.58	41.34	28.67	-51.3	-53.1	14.9	0.00e+00	0	25	0	580911104	69	4266
2026-01-07 07:05:17.56	40.07	28.85	-51.6	-53.5	14.5	0.00e+00	0	25	0	588251136	68	4756
2026-01-07 07:05:21.56	38.78	29.01	-52.8	-55.2	14.0	0.00e+00	0	25	0	595591168	70	5130
2026-01-07 07:05:25.55	37.49	29.16	-53.3	-55.9	13.9	0.00e+00	0	25	0	602931200	72	4946
2026-01-07 07:05:29.55	36.17	29.30	-53.5	-56.4	13.6	0.00e+00	0	25	0	611319808	72	5235
2026-01-07 07:05:33.54	34.85	29.42	-52.9	-55.3	14.1	0.00e+00	0	25	0	618659840	72	4646
2026-01-07 07:05:37.53	33.52	29.52	-52.8	-55.4	14.0	0.00e+00	0	25	0	625999872	71	4954
2026-01-07 07:05:41.53	32.18	29.60	-52.6	-55.1	14.2	0.00e+00	0	25	0	633339904	71	4772
2026-01-07 07:05:45.53	30.83	29.67	-53.4	-56.5	13.4	0.00e+00	0	25	0	640679936	71	5609
2026-01-07 07:05:49.52	29.48	29.72	-52.7	-55.2	14.3	0.00e+00	0	25	0	648019968	72	4586
2026-01-07 07:05:53.52	28.13	29.75	-52.0	-54.1	14.6	0.00e+00	0	25	0	655360000	70	4518
2026-01-07 07:05:57.52	26.77	29.77	-53.1	-55.6	13.9	0.00e+00	0	25	0	663748608	71	5089
2026-01-07 07:06:01.52	25.41	29.76	-53.1	-55.6	13.9	0.00e+00	0	25	0	671088640	71	5061
2026-01-07 07:06:05.51	24.06	29.74	-52.2	-54.3	14.5	0.00e+00	0	25	0	678428672	70	4606
2026-01-07 07:06:09.52	22.70	29.70	-52.9	-55.3	14.1	0.00e+00	0	25	0	685768704	71	4893
2026-01-07 07:06:13.53	21.35	29.64	-52.0	-53.9	14.6	0.00e+00	0	25	0	693108736	70	4440
2026-01-07 07:06:17.53	20.00	29.56	-53.5	-56.1	13.8	0.00e+00	0	25	0	700448768	72	5071
2026-01-07 07:06:21.52	18.67	29.47	-52.3	-54.5	14.5	0.00e+00	0	25	0	708837376	71	4447
2026-01-07 07:06:25.49	17.35	29.36	-52.6	-55.0	14.2	0.00e+00	0	25	0	716177408	71	4727
2026-01-07 07:06:29.48	16.03	29.23	-52.2	-54.3	14.4	0.00e+00	0	25	0	723517440	70	4650
2026-01-07 07:06:33.45	14.74	29.09	-52.3	-54.5	14.4	0.00e+00	0	25	0	730857472	70	4717
2026-01-07 07:06:37.45	13.44	28.93	-52.6	-54.9	14.1	0.00e+00	0	25	0	738197504	70	4957
2026-01-07 07:06:41.45	12.16	28.76	-51.8	-53.7	14.7	0.00e+00	0	25	0	745537536	70	4316
2026-01-07 07:06:45.46	10.89	28.57	-52.5	-54.6	14.3	0.00e+00	0	25	0	752877568	70	4769
2026-01-07 07:06:49.45	9.64	28.37	-52.2	-54.2	14.5	0.00e+00	0	25	0	760217600	70	4572
2026-01-07 07:06:53.45	8.41	28.15	-52.6	-54.8	14.2	0.00e+00	0	25	0	768606208	70	4874
2026-01-07 07:06:57.46	7.18	27.92	-53.0	-55.4	14.1	0.00e+00	0	25	0	775946240	71	4946
2026-01-07 07:07:01.44	5.99	27.68	-54.3	-57.3	13.2	0.00e+00	0	25	0	783286272	73	5521
2026-01-07 07:07:05.43	4.81	27.43	-54.5	-57.8	13.0	0.00e+00	0	25	0	790626304	74	5486
2026-01-07 07:07:09.42	3.65	27.17	-53.9	-57.0	13.5	0.00e+00	0	25	0	797966336	74	5000
2026-01-07 07:07:13.41	2.51	26.89	-52.2	-54.4	14.4	0.00e+00	0	25	0	805306368	70	4704
2026-01-07 07:07:17.41	1.39	26.61	-51.3	-53.2	14.7	0.00e+00	0	25	0	812646400	68	4593
2026-01-07 07:07:21.41	0.29	26.32	-51.7	-53.8	14.6	0.00e+00	0	25	0	821035008	69	4600
2026-01-07 07:07:25.41	359.20	26.02	-52.5	-55.0	14.1	0.00e+00	0	25	0	828375040	70	4996
2026-01-07 07:07:29.42	358.14	25.71	-52.7	-55.2	14.0	0.00e+00	0	25	0	835715072	70	5133
2026-01-07 07:07:33.41	357.10	25.39	-53.7	-56.7	13.4	0.00e+00	0	25	0	843055104	72	5434
2026-01-07 07:07:37.41	356.08	25.07	-52.7	-55.0	14.4	0.00e+00	0	25	0	850395136	72	4451
2026-01-07 07:07:41.41	355.09	24.74	-51.9	-54.0	14.5	0.00e+00	0	25	0	857735168	69	4706
2026-01-07 07:07:45.41	354.11	24.41	-51.0	-52.8	14.8	0.00e+00	0	25	0	866123776	68	4377
2026-01-07 07:07:49.41	353.15	24.08	-50.9	-52.6	14.9	0.00e+00	0	25	0	873463808	68	4285
2026-01-07 07:07:53.42	352.21	23.73	-50.3	-52.0	15.0	0.00e+00	0	25	0	880803840	67	4202
2026-01-07 07:07:57.42	351.30	23.39	-50.4	-52.1	14.8	0.00e+00	0	25	0	888143872	66	4541
2026-01-07 07:08:01.43	350.40	23.04	-51.1	-53.0	14.6	0.00e+00	0	25	0	895483904	67	4736
2026-01-07 07:08:05.43	349.53	22.69	-51.1	-53.0	14.6	0.00e+00	0	25	0	902823936	67	4737
2026-01-07 07:08:09.42	348.67	22.34	-50.7	-52.5	14.8	0.00e+00	0	25	0	910163968	67	4488
2026-01-07 07:08:13.43	347.84	21.98	-49.6	-51.2	15.1	0.00e+00	0	25	0	918552576	65	4297
2026-01-07 07:08:17.44	347.02	21.63	-50.0	-51.6	14.9	0.00e+00	0	25	0	925892608	65	4513
2026-01-07 07:08:21.44	346.22	21.27	-50.1	-51.7	14.9	0.00e+00	0	25	0	933232640	65	4575
2026-01-07 07:08:25.45	345.44	20.91	-50.1	-51.7	14.8	0.00e+00	0	25	0	940572672	65	4598
2026-01-07 07:08:29.46	344.68	20.55	-50.5	-52.2	14.8	0.00e+00	0	25	0	947912704	66	4556
2026-01-07 07:08:33.46	343.94	20.19	-50.7	-52.5	14.7	0.00e+00	0	25	0	955252736	66	4715
2026-01-07 07:08:37.46	343.21	19.83	-50.0	-51.6	15.0	0.00e+00	0	25	0	963641344	66	4254
2026-01-07 07:08:41.46	342.50	19.48	-50.5	-52.1	14.8	0.00e+00	0	25	0	970981376	66	4527
2026-01-07 07:08:45.46	341.81	19.12	-51.8	-53.8	14.4	0.00e+00	0	25	0	978321408	68	4897
2026-01-07 07:08:49.47	341.13	18.76	-51.4	-53.2	14.6	0.00e+00	0	25	0	985661440	68	4581
2026-01-07 07:08:53.47	340.47	18.41	-50.8	-52.4	15.0	0.00e+00	0	25	0	993001472	68	4190
2026-01-07 07:08:57.49	339.83	18.05	-51.0	-52.8	14.7	0.00e+00	0	25	0	1000341504	67	4636
2026-01-07 07:09:01.49	339.20	17.70	-52.4	-54.5	14.2	0.00e+00	0	25	0	1008730112	69	5013
2026-01-07 07:09:05.49	338.58	17.35	-52.1	-54.2	14.3	0.00e+00	0	25	0	1016070144	69	4836
2026-01-07 07:09:09.50	337.98	16.99	-51.8	-53.7	14.6	0.00e+00	0	25	0	1023410176	69	4568
2026-01-07 07:09:13.51	337.40	16.65	-52.3	-54.5	14.2	0.00e+00	0	25	0	1030750208	69	4990
2026-01-07 07:09:17.52	336.82	16.30	-52.3	-54.5	14.3	0.00e+00	0	25	0	1038090240	70	4707
2026-01-07 07:09:21.52	336.26	15.96	-51.7	-53.6	14.6	0.00e+00	0	25	0	1045430272	69	4524
2026-01-07 07:09:25.50	335.72	15.61	-51.2	-53.1	14.7	0.00e+00	0	25	0	1053818880	68	4496
2026-01-07 07:09:29.49	335.19	15.28	-51.3	-53.1	14.6	0.00e+00	0	25	0	1061158912	68	4538
2026-01-07 07:09:33.49	334.67	14.94	-51.8	-53.7	14.5	0.00e+00	0	25	0	1068498944	69	4581
2026-01-07 07:09:37.47	334.16	14.61	-52.0	-54.1	14.4	0.00e+00	0	25	0	1075838976	69	4767
2026-01-07 07:09:41.47	333.67	14.27	-52.2	-54.3	14.3	0.00e+00	0	25	0	1083179008	69	4880
2026-01-07 07:09:45.48	333.18	13.94	-53.2	-55.6	13.8	0.00e+00	0	25	0	1090519040	71	5100
2026-01-07 07:09:49.48	332.70	13.61	-53.6	-56.3	13.6	0.00e+00	0	25	0	1097859072	72	5174
2026-01-07 07:09:53.48	332.24	13.29	-52.4	-54.6	14.4	0.00e+00	0	25	0	1106247680	71	4502
2026-01-07 07:09:57.49	331.78	12.96	-51.8	-53.7	14.5	0.00e+00	0	25	0	1113587712	69	4596
2026-01-07 07:10:01.49	331.34	12.64	-52.2	-54.4	14.2	0.00e+00	0	25	0	1120927744	69	4968
2026-01-07 07:10:05.48	330.91	12.32	-53.4	-56.0	13.7	0.00e+00	0	25	0	1128267776	72	5038
2026-01-07 07:10:09.48	330.48	12.01	-53.6	-56.4	13.5	0.00e+00	0	25	0	1135607808	72	5233
2026-01-07 07:10:13.49	330.07	11.69	-53.5	-56.2	13.6	0.00e+00	0	25	0	1142947840	72	5147
2026-01-07 07:10:17.48	329.66	11.38	-53.4	-56.0	13.7	0.00e+00	0	25	0	1151336448	72	5034
2026-01-07 07:10:21.48	329.26	11.08	-53.5	-56.1	13.6	0.00e+00	0	25	0	1158676480	72	5084
2026-01-07 07:10:25.49	328.87	10.77	-53.6	-56.3	13.4	0.00e+00	0	25	0	1166016512	72	5218
2026-01-07 07:10:29.47	328.49	10.47	-53.8	-56.7	13.2	0.00e+00	0	25	0	1173356544	72	5436
2026-01-07 07:10:33.46	328.12	10.17	-53.3	-56.0	13.6	0.00e+00	0	25	0	1180696576	72	5008
2026-01-07 07:10:37.46	327.76	9.87	-52.7	-55.1	14.2	0.00e+00	0	25	0	1188036608	72	4496
2026-01-07 07:10:41.44	327.40	9.57	-52.2	-54.3	14.4	0.00e+00	0	25	0	1195376640	71	4387
2026-01-07 07:10:45.43	327.05	9.28	-52.4	-54.6	14.1	0.00e+00	0	25	0	1202716672	70	4784
2026-01-07 07:10:49.44	326.71	8.99	-52.9	-55.4	13.7	0.00e+00	0	25	0	1211105280	70	5222
2026-01-07 07:10:53.44	326.38	8.70	-53.5	-56.3	13.5	0.00e+00	0	25	0	1218445312	72	5177
2026-01-07 07:10:57.44	326.05	8.41	-54.1	-57.2	13.0	0.00e+00	0	25	0	1225785344	73	5415
2026-01-07 07:11:01.44	325.73	8.13	-54.4	-57.6	12.9	0.00e+00	0	25	0	1233125376	74	5399
2026-01-07 07:11:05.44	325.41	7.85	-54.2	-57.3	13.0	0.00e+00	0	25	0	1240465408	74	5175
2026-01-07 07:11:09.45	325.10	7.57	-54.0	-57.1	13.1	0.00e+00	0	25	0	1247805440	74	5049
2026-01-07 07:11:13.45	324.80	7.29	-53.8	-56.7	13.3	0.00e+00	0	25	0	1256194048	73	5114
2026-01-07 07:11:17.45	324.50	7.02	-53.6	-56.5	13.3	0.00e+00	0	25	0	1263534080	73	5029
2026-01-07 07:11:21.43	324.21	6.74	-53.6	-56.5	13.3	0.00e+00	0	25	0	1270874112	73	5011
2026-01-07 07:11:25.44	323.92	6.47	-53.9	-57.0	13.0	0.00e+00	0	25	0	1278214144	73	5297
2026-01-07 07:11:29.44	323.64	6.20	-54.3	-57.7	12.5	7.00e-07	0	25	0	1285554176	73	5777
2026-01-07 07:11:33.41	323.37	5.94	-54.6	-58.3	12.2	0.00e+00	0	25	0	1292894208	74	5844
2026-01-07 07:11:37.41	323.10	5.67	-54.6	-58.3	12.2	7.00e-07	0	25	0	1300234240	74	5816
2026-01-07 07:11:41.40	322.84	5.41	-54.5	-58.2	12.3	7.00e-07	0	25	0	1308622848	74	5762
2026-01-07 07:11:45.40	322.58	5.15	-54.5	-58.2	12.3	0.00e+00	0	25	0	1315962880	74	5749
2026-01-07 07:11:49.39	322.32	4.89	-58.7	-74.8	3.8	1.49e+00	0	25	104	1320157184	82	24440
2026-01-07 07:11:53.39	322.07	4.64	-59.7	-75.8	3.8	1.49e+00	0	25	104	1320157184	84	24479
2026-01-07 07:11:57.39	321.83	4.38	-60.1	-76.1	3.8	1.49e+00	0	25	104	1320157184	85	24067
2026-01-07 07:12:01.39	321.59	4.13	-60.3	-76.4	3.8	1.49e+00	0	25	104	1320157184	85	24716
2026-01-07 07:12:05.39	321.35	3.88	-60.4	-76.4	3.8	1.49e+00	0	25	104	1320157184	85	24940
2026-01-07 07:12:09.40	321.12	3.63	-60.3	-76.4	3.8	1.49e+00	0	25	104	1320157184	85	24779
2026-01-07 07:12:13.41	320.89	3.38	-60.2	-76.3	3.8	1.49e+00	0	26	104	1320157184	85	24635
2026-01-07 07:12:17.41	320.67	3.14	-60.2	-76.3	3.8	1.49e+00	0	25	104	1320157184	85	24552
2026-01-07 07:12:21.42	320.45	2.89	-60.2	-76.3	3.8	1.49e+00	0	26	104	1320157184	85	24502
2026-01-07 07:12:25.42	320.23	2.65	-60.2	-76.2	3.8	1.49e+00	0	26	104	1320157184	85	24365
2026-01-07 07:12:29.42	320.02	2.41	-60.1	-76.2	3.8	1.49e+00	0	25	104	1320157184	85	24404
2026-01-07 07:12:33.41	319.81	2.17	-60.1	-76.2	3.8	1.49e+00	0	26	104	1320157184	85	24395

#Closed at: 2026-01-07 07:12:36
#Recorded file [1320 MB]: D:/lorett/data/31004_260107_095921.dat