passes_logs/2026/01/07/R3.2S_Murmansk/R3.2S_Murmansk__20260107_101837_SUOMI_NPP_rec.log

#Pass ID: 20260107_101837_SUOMI NPP
#Satellite: SUOMI NPP
#Configuration: NPP
#almurnet v.1.7.20251203
#Start time: 2026-01-07 10:18:38

#Version: 2.2.20231116
#Station: R3.2S_Murmansk
#Location: 33.079688 lon 68.888172 lat
#TLE: 1 37849U 11061A   26005.94084933  .00000134  00000+0  84554-4 0  9990
#TLE: 2 37849  98.7803 308.0679 0002567  79.1029 281.0436 14.19522657735426

#Time	Az	El	Level	Level2	SNR	BER	BlckErr	Temp	State	Recorded	gain1	gain2
2026-01-07 10:18:38.41	169.11	2.06	-57.8	-73.7	3.8	1.49e+00	0	23	0	0	82	21738
2026-01-07 10:18:42.43	169.20	2.31	-57.7	-73.5	3.8	1.49e+00	0	23	104	0	80	23836
2026-01-07 10:18:46.46	169.30	2.57	-57.7	-73.6	3.8	1.49e+00	0	23	104	0	80	23887
2026-01-07 10:18:50.50	169.39	2.84	-57.7	-73.7	3.8	1.49e+00	0	24	104	0	80	24139
2026-01-07 10:18:54.53	169.49	3.10	-57.7	-73.5	3.8	1.49e+00	0	24	104	0	80	23763
2026-01-07 10:18:58.55	169.59	3.37	-57.7	-73.7	3.8	1.49e+00	0	24	104	0	80	24269
2026-01-07 10:19:02.56	169.69	3.63	-57.7	-72.6	3.8	1.49e+00	0	24	104	0	80	21263
2026-01-07 10:19:06.58	169.79	3.91	-57.5	-68.9	4.6	9.60e-01	0	24	0	1048576	80	14001
2026-01-07 10:19:10.62	169.89	4.18	-57.2	-66.4	6.0	3.33e-01	0	24	0	8388608	80	10448
2026-01-07 10:19:14.65	170.00	4.46	-56.9	-64.2	7.7	9.44e-02	0	24	0	15728640	80	8141
2026-01-07 10:19:18.69	170.10	4.74	-56.4	-62.3	9.4	4.96e-03	0	24	0	24117248	79	6880
2026-01-07 10:19:22.72	170.21	5.02	-56.0	-61.1	10.4	8.84e-04	0	24	0	31457280	78	6390
2026-01-07 10:19:26.74	170.32	5.31	-57.7	-72.5	3.8	8.65e-01	0	24	104	38797312	80	21073
2026-01-07 10:19:30.77	170.44	5.60	-53.5	-56.2	13.5	0.00e+00	0	24	0	44040192	73	4819
2026-01-07 10:19:34.80	170.55	5.89	-53.4	-56.1	13.6	0.00e+00	0	24	0	51380224	73	4777
2026-01-07 10:19:38.83	170.67	6.18	-53.5	-56.2	13.6	0.00e+00	0	24	0	59768832	73	4835
2026-01-07 10:19:42.86	170.78	6.48	-53.1	-55.6	13.8	0.00e+00	0	24	0	67108864	72	4797
2026-01-07 10:19:46.88	170.90	6.78	-53.3	-55.8	13.7	0.00e+00	0	24	0	74448896	72	4909
2026-01-07 10:19:50.91	171.03	7.09	-53.2	-55.7	13.8	0.00e+00	0	24	0	81788928	72	4846
2026-01-07 10:19:54.94	171.15	7.40	-53.0	-55.4	14.0	0.00e+00	0	24	0	89128960	72	4683
2026-01-07 10:19:58.97	171.28	7.71	-52.8	-55.1	14.1	0.00e+00	0	24	0	97517568	72	4529
2026-01-07 10:20:03.00	171.41	8.03	-53.1	-55.5	13.9	0.00e+00	0	24	0	104857600	72	4724
2026-01-07 10:20:07.02	171.54	8.35	-52.7	-55.0	14.1	0.00e+00	0	24	0	112197632	71	4726
2026-01-07 10:20:11.06	171.68	8.67	-52.8	-55.1	14.1	0.00e+00	0	25	0	119537664	71	4765
2026-01-07 10:20:15.09	171.82	9.00	-52.6	-54.8	14.2	0.00e+00	0	24	0	126877696	71	4602
2026-01-07 10:20:19.12	171.96	9.34	-52.6	-54.8	14.2	0.00e+00	0	25	0	135266304	71	4604
2026-01-07 10:20:23.14	172.10	9.67	-52.4	-54.4	14.4	0.00e+00	0	25	0	142606336	71	4436
2026-01-07 10:20:27.18	172.25	10.02	-52.2	-54.3	14.4	0.00e+00	0	25	0	149946368	70	4604
2026-01-07 10:20:31.20	172.40	10.36	-52.1	-54.1	14.4	0.00e+00	0	25	0	157286400	70	4515
2026-01-07 10:20:35.23	172.55	10.71	-52.0	-53.9	14.5	0.00e+00	0	25	0	164626432	70	4438
2026-01-07 10:20:39.27	172.71	11.07	-51.8	-53.7	14.7	0.00e+00	0	25	0	173015040	70	4308
2026-01-07 10:20:43.30	172.87	11.43	-51.7	-53.5	14.6	0.00e+00	0	25	0	180355072	69	4472
2026-01-07 10:20:47.32	173.03	11.80	-51.7	-53.5	14.6	0.00e+00	0	25	0	187695104	69	4490
2026-01-07 10:20:51.35	173.20	12.17	-51.7	-53.5	14.6	0.00e+00	0	25	0	195035136	69	4493
2026-01-07 10:20:55.38	173.37	12.55	-51.6	-53.4	14.7	0.00e+00	0	25	0	202375168	69	4414
2026-01-07 10:20:59.41	173.54	12.93	-51.4	-53.1	14.8	0.00e+00	0	25	0	210763776	69	4279
2026-01-07 10:21:03.44	173.72	13.32	-51.3	-53.1	14.8	0.00e+00	0	25	0	218103808	69	4255
2026-01-07 10:21:07.46	173.91	13.72	-51.3	-53.1	14.8	0.00e+00	0	25	0	225443840	69	4251
2026-01-07 10:21:11.50	174.10	14.12	-51.6	-53.4	14.7	0.00e+00	0	25	0	232783872	69	4392
2026-01-07 10:21:15.53	174.29	14.53	-51.6	-53.4	14.7	0.00e+00	0	25	0	240123904	69	4429
2026-01-07 10:21:19.56	174.49	14.94	-51.7	-53.5	14.7	0.00e+00	0	25	0	248512512	69	4493
2026-01-07 10:21:23.59	174.69	15.37	-51.7	-53.5	14.7	0.00e+00	0	25	0	255852544	69	4456
2026-01-07 10:21:27.62	174.90	15.79	-51.9	-53.8	14.5	0.00e+00	0	25	0	263192576	69	4640
2026-01-07 10:21:31.65	175.12	16.23	-51.9	-53.8	14.5	0.00e+00	0	25	0	270532608	69	4614
2026-01-07 10:21:35.65	175.34	16.67	-51.7	-53.9	14.5	0.00e+00	0	25	0	277872640	69	4679
2026-01-07 10:21:39.68	175.56	17.12	-52.0	-54.3	14.3	0.00e+00	0	25	0	286261248	69	4915
2026-01-07 10:21:43.71	175.80	17.58	-52.0	-54.3	14.3	0.00e+00	0	25	0	293601280	69	4886
2026-01-07 10:21:47.73	176.04	18.05	-51.9	-54.2	14.4	0.00e+00	0	25	0	300941312	69	4818
2026-01-07 10:21:51.76	176.28	18.53	-51.8	-53.9	14.5	0.00e+00	0	25	0	308281344	69	4703
2026-01-07 10:21:55.80	176.54	19.02	-52.0	-54.2	14.4	0.00e+00	0	25	0	315621376	69	4857
2026-01-07 10:21:59.83	176.80	19.51	-52.0	-54.2	14.4	0.00e+00	0	25	0	324009984	69	4845
2026-01-07 10:22:03.87	177.07	20.02	-52.0	-54.1	14.4	0.00e+00	0	25	0	331350016	69	4776
2026-01-07 10:22:07.89	177.35	20.53	-51.8	-53.9	14.5	0.00e+00	0	25	0	338690048	69	4666
2026-01-07 10:22:11.92	177.64	21.05	-52.0	-54.2	14.4	0.00e+00	0	25	0	346030080	69	4828
2026-01-07 10:22:15.94	177.94	21.59	-52.2	-54.6	14.2	0.00e+00	0	25	0	353370112	69	5061
2026-01-07 10:22:19.97	178.24	22.13	-52.0	-54.2	14.4	0.00e+00	0	25	0	361758720	69	4843
2026-01-07 10:22:23.99	178.56	22.69	-51.4	-53.4	14.8	0.00e+00	0	25	0	369098752	69	4437
2026-01-07 10:22:28.02	178.89	23.26	-51.1	-52.9	14.8	0.00e+00	0	25	0	376438784	68	4430
2026-01-07 10:22:32.05	179.23	23.84	-50.2	-51.8	15.0	0.00e+00	0	25	0	383778816	66	4363
2026-01-07 10:22:36.08	179.59	24.43	-49.7	-51.2	15.3	0.00e+00	0	25	0	391118848	66	4088
2026-01-07 10:22:40.12	179.95	25.04	-50.0	-51.7	14.9	0.00e+00	0	25	0	399507456	65	4570
2026-01-07 10:22:44.15	180.33	25.66	-49.8	-51.5	15.0	0.00e+00	0	25	0	406847488	65	4456
2026-01-07 10:22:48.18	180.73	26.29	-49.9	-51.5	15.0	0.00e+00	0	25	0	414187520	65	4488
2026-01-07 10:22:52.21	181.14	26.93	-50.3	-52.1	14.8	0.00e+00	0	25	0	421527552	65	4799
2026-01-07 10:22:56.23	181.56	27.59	-50.3	-52.0	14.9	0.00e+00	0	25	0	428867584	66	4481
2026-01-07 10:23:00.26	182.01	28.26	-50.5	-52.3	14.8	0.00e+00	0	25	0	437256192	66	4633
2026-01-07 10:23:04.29	182.47	28.95	-50.7	-52.6	14.7	0.00e+00	0	25	0	444596224	66	4767
2026-01-07 10:23:08.32	182.95	29.66	-50.7	-52.6	14.7	0.00e+00	0	25	0	451936256	66	4809
2026-01-07 10:23:12.34	183.46	30.37	-52.0	-54.2	14.5	0.00e+00	0	25	0	459276288	69	4845
2026-01-07 10:23:16.37	183.98	31.11	-52.6	-55.0	14.2	0.00e+00	0	25	0	467664896	70	5013
2026-01-07 10:23:20.40	184.53	31.86	-53.4	-56.2	13.7	0.00e+00	0	25	0	475004928	71	5444
2026-01-07 10:23:24.43	185.11	32.63	-53.8	-57.2	13.3	0.00e+00	0	25	0	482344960	73	5425
2026-01-07 10:23:28.47	185.71	33.42	-53.9	-57.1	13.4	0.00e+00	0	25	0	489684992	73	5388
2026-01-07 10:23:32.49	186.34	34.22	-53.3	-56.0	14.1	0.00e+00	0	25	0	497025024	73	4709
2026-01-07 10:23:36.52	187.00	35.04	-52.3	-54.8	14.5	0.00e+00	0	25	0	505413632	71	4617
2026-01-07 10:23:40.56	187.70	35.88	-52.8	-55.4	14.1	0.00e+00	0	25	0	512753664	71	4962
2026-01-07 10:23:44.60	188.44	36.73	-53.2	-56.1	13.9	0.00e+00	0	25	0	520093696	72	5069
2026-01-07 10:23:48.62	189.21	37.60	-53.0	-56.0	14.0	0.00e+00	0	25	0	527433728	72	5003
2026-01-07 10:23:52.65	190.02	38.49	-53.7	-56.9	13.5	0.00e+00	0	25	0	534773760	72	5571
2026-01-07 10:23:56.68	190.88	39.40	-53.3	-56.3	13.8	0.00e+00	0	25	0	543162368	72	5217
2026-01-07 10:24:00.70	191.78	40.32	-53.0	-56.1	13.9	0.00e+00	0	25	0	550502400	72	5053
2026-01-07 10:24:04.74	192.75	41.26	-52.6	-55.6	14.1	0.00e+00	0	25	0	557842432	71	5082
2026-01-07 10:24:08.76	193.76	42.22	-52.0	-54.6	14.5	0.00e+00	0	25	0	565182464	70	4798
2026-01-07 10:24:12.79	194.84	43.19	-53.1	-56.5	13.6	0.00e+00	0	25	0	572522496	71	5609
2026-01-07 10:24:16.82	195.98	44.17	-52.7	-55.6	14.0	0.00e+00	0	25	0	580911104	71	5090
2026-01-07 10:24:20.85	197.20	45.16	-52.8	-56.2	13.8	0.00e+00	0	25	0	588251136	71	5453
2026-01-07 10:24:24.88	198.49	46.17	-52.2	-54.9	14.3	0.00e+00	0	25	0	595591168	70	4965
2026-01-07 10:24:28.91	199.87	47.18	-51.7	-54.2	14.5	0.00e+00	0	25	0	602931200	69	4844
2026-01-07 10:24:32.94	201.34	48.20	-52.7	-55.8	13.8	0.00e+00	0	25	0	610271232	70	5524
2026-01-07 10:24:36.97	202.91	49.23	-51.5	-53.8	14.7	0.00e+00	0	25	0	618659840	69	4605
2026-01-07 10:24:41.00	204.59	50.25	-52.4	-55.1	14.1	0.00e+00	0	25	0	625999872	70	5065
2026-01-07 10:24:45.03	206.38	51.26	-51.4	-53.5	14.7	0.00e+00	0	25	0	633339904	69	4481
2026-01-07 10:24:49.05	208.29	52.27	-51.7	-54.2	14.4	0.00e+00	0	25	0	640679936	69	4820
2026-01-07 10:24:53.08	210.34	53.26	-51.7	-54.1	14.3	0.00e+00	0	25	0	648019968	68	5059
2026-01-07 10:24:57.11	212.53	54.24	-51.0	-53.3	14.6	0.00e+00	0	25	0	656408576	68	4630
2026-01-07 10:25:01.13	214.86	55.19	-51.1	-53.2	14.7	0.00e+00	0	25	0	663748608	68	4570
2026-01-07 10:25:05.16	217.36	56.10	-51.6	-53.9	14.4	0.00e+00	0	25	0	671088640	68	4934
2026-01-07 10:25:09.19	220.02	56.98	-51.7	-54.0	14.7	0.00e+00	0	25	0	678428672	70	4442
2026-01-07 10:25:13.23	222.86	57.80	-52.6	-55.0	14.2	0.00e+00	0	25	0	685768704	70	5031
2026-01-07 10:25:17.26	225.86	58.57	-51.9	-54.1	14.6	0.00e+00	0	25	0	694157312	70	4544
2026-01-07 10:25:21.30	229.04	59.27	-50.6	-52.4	14.9	0.00e+00	0	25	0	701497344	67	4406
2026-01-07 10:25:25.32	232.36	59.89	-51.7	-53.7	14.6	0.00e+00	0	25	0	708837376	68	4867
2026-01-07 10:25:29.33	235.83	60.43	-50.2	-51.9	15.0	0.00e+00	0	25	0	716177408	66	4398
2026-01-07 10:25:33.35	239.45	60.87	-51.8	-54.0	14.4	0.00e+00	0	25	0	723517440	68	4998
2026-01-07 10:25:37.38	243.19	61.22	-51.8	-54.0	14.5	0.00e+00	0	25	0	731906048	69	4713
2026-01-07 10:25:41.40	247.00	61.46	-52.1	-54.3	14.4	0.00e+00	0	25	0	739246080	69	4887
2026-01-07 10:25:45.43	250.88	61.59	-52.2	-54.5	14.4	0.00e+00	0	25	0	746586112	69	4988
2026-01-07 10:25:49.46	254.79	61.60	-50.2	-51.8	15.1	0.00e+00	0	25	0	753926144	66	4358
2026-01-07 10:25:53.49	258.68	61.51	-51.0	-52.8	14.8	0.00e+00	0	25	0	761266176	67	4625
2026-01-07 10:25:57.52	262.52	61.30	-51.0	-52.8	14.8	0.00e+00	0	25	0	769654784	67	4620
2026-01-07 10:26:01.56	266.29	60.98	-51.0	-52.8	15.0	0.00e+00	0	25	0	776994816	68	4343
2026-01-07 10:26:05.59	269.94	60.56	-53.3	-55.9	13.9	0.00e+00	0	25	0	784334848	71	5243
2026-01-07 10:26:09.61	273.46	60.05	-53.2	-55.7	14.2	0.00e+00	0	25	0	791674880	73	4588
2026-01-07 10:26:13.64	276.83	59.45	-54.3	-57.5	13.3	0.00e+00	0	25	0	799014912	73	5627
2026-01-07 10:26:17.67	280.04	58.77	-52.8	-55.2	14.1	0.00e+00	0	25	0	807403520	70	5132
2026-01-07 10:26:21.71	283.10	58.02	-52.1	-54.2	14.6	0.00e+00	0	25	0	814743552	70	4555
2026-01-07 10:26:25.74	285.97	57.21	-50.4	-52.0	15.1	0.00e+00	0	25	0	822083584	67	4228
2026-01-07 10:26:29.77	288.67	56.35	-50.7	-52.5	14.9	0.00e+00	0	25	0	829423616	67	4463
2026-01-07 10:26:33.79	291.20	55.45	-49.9	-51.5	15.1	0.00e+00	0	25	0	836763648	66	4233
2026-01-07 10:26:37.82	293.58	54.51	-48.9	-50.3	15.3	0.00e+00	0	25	0	845152256	64	4131
2026-01-07 10:26:41.85	295.81	53.54	-49.6	-51.3	15.1	0.00e+00	0	25	0	852492288	65	4348
2026-01-07 10:26:45.88	297.89	52.56	-48.9	-50.5	15.3	0.00e+00	0	25	0	859832320	64	4233
2026-01-07 10:26:49.92	299.84	51.55	-49.3	-50.9	15.1	0.00e+00	0	25	0	867172352	64	4431
2026-01-07 10:26:53.95	301.66	50.54	-50.8	-52.9	14.8	0.00e+00	0	25	0	875560960	67	4674
2026-01-07 10:26:57.98	303.37	49.52	-53.2	-56.6	13.3	0.00e+00	0	25	0	882900992	71	5722
2026-01-07 10:27:02.00	304.96	48.51	-55.0	-60.4	11.4	3.80e-06	0	25	0	890241024	75	6990
2026-01-07 10:27:06.03	306.45	47.49	-54.0	-57.5	13.2	0.00e+00	0	25	0	897581056	74	5301
2026-01-07 10:27:10.05	307.85	46.48	-52.9	-55.6	14.0	0.00e+00	0	25	0	904921088	72	4783
2026-01-07 10:27:14.08	309.17	45.47	-51.4	-53.3	14.8	0.00e+00	0	25	0	913309696	69	4382
2026-01-07 10:27:18.12	310.40	44.48	-53.9	-57.4	13.4	0.00e+00	0	25	0	920649728	74	5234
2026-01-07 10:27:22.15	311.57	43.49	-51.7	-53.8	14.6	0.00e+00	0	25	0	927989760	69	4618
2026-01-07 10:27:26.18	312.66	42.52	-51.9	-54.2	14.4	0.00e+00	0	25	0	935329792	69	4856
2026-01-07 10:27:30.20	313.69	41.57	-52.0	-54.3	14.4	0.00e+00	0	25	0	942669824	69	4903
2026-01-07 10:27:34.23	314.66	40.63	-51.4	-53.4	14.8	0.00e+00	0	25	0	951058432	69	4398
2026-01-07 10:27:38.26	315.58	39.71	-52.5	-54.8	14.3	0.00e+00	0	25	0	958398464	70	4883
2026-01-07 10:27:42.29	316.46	38.80	-51.3	-53.2	14.8	0.00e+00	0	25	0	965738496	69	4314
2026-01-07 10:27:46.32	317.28	37.91	-52.2	-54.2	14.4	0.00e+00	0	25	0	973078528	69	4869
2026-01-07 10:27:50.35	318.06	37.03	-54.5	-57.7	13.0	0.00e+00	0	25	0	980418560	74	5450
2026-01-07 10:27:54.38	318.81	36.18	-50.8	-52.5	15.1	0.00e+00	0	25	0	988807168	68	4197
2026-01-07 10:27:58.41	319.51	35.34	-53.6	-56.2	13.8	0.00e+00	0	25	0	996147200	72	5134
2026-01-07 10:28:02.44	320.18	34.52	-53.6	-56.1	14.0	0.00e+00	0	25	0	1003487232	73	4811
2026-01-07 10:28:06.47	320.83	33.71	-52.0	-53.9	14.5	0.00e+00	0	25	0	1010827264	69	4704
2026-01-07 10:28:10.49	321.43	32.93	-52.8	-55.1	14.1	0.00e+00	0	25	0	1018167296	70	5063
2026-01-07 10:28:14.52	322.02	32.16	-53.6	-56.3	13.9	0.00e+00	0	25	0	1026555904	73	4901
2026-01-07 10:28:18.55	322.57	31.40	-52.9	-55.3	14.3	0.00e+00	0	25	0	1033895936	72	4624
2026-01-07 10:28:22.57	323.11	30.67	-52.8	-55.1	14.3	0.00e+00	0	25	0	1041235968	72	4540
2026-01-07 10:28:26.60	323.62	29.95	-52.2	-54.2	14.7	0.00e+00	0	25	0	1048576000	71	4300
2026-01-07 10:28:30.62	324.10	29.24	-51.9	-53.8	14.7	0.00e+00	0	25	0	1055916032	70	4353
2026-01-07 10:28:34.65	324.57	28.55	-52.5	-54.7	14.3	0.00e+00	0	25	0	1064304640	70	4836
2026-01-07 10:28:38.67	325.02	27.88	-53.4	-55.9	13.8	0.00e+00	0	25	0	1071644672	71	5246
2026-01-07 10:28:42.70	325.46	27.22	-52.4	-54.5	14.6	0.00e+00	0	25	0	1078984704	71	4450
2026-01-07 10:28:46.73	325.87	26.57	-52.1	-54.1	14.6	0.00e+00	0	25	0	1086324736	70	4520
2026-01-07 10:28:50.76	326.27	25.94	-52.3	-54.3	14.4	0.00e+00	0	25	0	1093664768	70	4648
2026-01-07 10:28:54.79	326.66	25.32	-51.9	-53.8	14.7	0.00e+00	0	25	0	1102053376	70	4366
2026-01-07 10:28:58.82	327.03	24.71	-51.1	-52.8	14.9	0.00e+00	0	25	0	1109393408	68	4374
2026-01-07 10:29:02.85	327.39	24.12	-51.0	-52.7	14.9	0.00e+00	0	25	0	1116733440	68	4336
2026-01-07 10:29:06.89	327.73	23.53	-51.3	-53.1	14.7	0.00e+00	0	25	0	1124073472	68	4528
2026-01-07 10:29:10.91	328.07	22.96	-51.9	-53.9	14.4	0.00e+00	0	25	0	1131413504	68	4961
2026-01-07 10:29:14.93	328.39	22.41	-52.1	-54.3	14.3	0.00e+00	0	25	0	1139802112	69	4874
2026-01-07 10:29:18.97	328.70	21.86	-51.7	-53.8	14.6	0.00e+00	0	25	0	1147142144	69	4619
2026-01-07 10:29:23.00	329.00	21.32	-51.3	-53.2	14.9	0.00e+00	0	25	0	1154482176	69	4294
2026-01-07 10:29:27.02	329.29	20.80	-50.4	-52.1	15.0	0.00e+00	0	25	0	1161822208	67	4263
2026-01-07 10:29:31.05	329.58	20.28	-49.5	-51.0	15.2	0.00e+00	0	25	0	1170210816	65	4219
2026-01-07 10:29:35.08	329.85	19.78	-49.2	-50.7	15.1	0.00e+00	0	25	0	1177550848	64	4308
2026-01-07 10:29:39.11	330.12	19.28	-49.7	-51.3	14.9	0.00e+00	0	25	0	1184890880	64	4638
2026-01-07 10:29:43.15	330.38	18.79	-50.9	-52.7	14.6	0.00e+00	0	25	0	1192230912	66	4839
2026-01-07 10:29:47.18	330.63	18.31	-52.0	-54.1	14.4	0.00e+00	0	25	0	1199570944	69	4790
2026-01-07 10:29:51.21	330.87	17.84	-52.2	-54.3	14.3	0.00e+00	0	25	0	1207959552	69	4906
2026-01-07 10:29:55.23	331.11	17.38	-52.2	-54.3	14.3	0.00e+00	0	25	0	1215299584	69	4920
2026-01-07 10:29:59.26	331.34	16.93	-52.0	-54.1	14.4	0.00e+00	0	25	0	1222639616	69	4789
2026-01-07 10:30:03.30	331.57	16.48	-52.0	-54.0	14.4	0.00e+00	0	25	0	1229979648	69	4741
2026-01-07 10:30:07.33	331.78	16.05	-51.7	-53.7	14.6	0.00e+00	0	25	0	1237319680	69	4564
2026-01-07 10:30:11.36	332.00	15.62	-51.5	-53.5	14.7	0.00e+00	0	25	0	1245708288	69	4447
2026-01-07 10:30:15.40	332.20	15.19	-51.2	-53.1	14.9	0.00e+00	0	25	0	1253048320	69	4252
2026-01-07 10:30:19.42	332.41	14.78	-51.0	-52.8	14.8	0.00e+00	0	25	0	1260388352	68	4369
2026-01-07 10:30:23.45	332.60	14.37	-50.9	-52.7	14.8	0.00e+00	0	25	0	1267728384	68	4328
2026-01-07 10:30:27.48	332.79	13.97	-51.0	-52.8	14.8	0.00e+00	0	25	0	1275068416	68	4359
2026-01-07 10:30:31.51	332.98	13.57	-50.9	-52.8	14.8	0.00e+00	0	25	0	1283457024	68	4350
2026-01-07 10:30:35.54	333.17	13.18	-51.1	-53.0	14.7	0.00e+00	0	25	0	1290797056	68	4446
2026-01-07 10:30:39.57	333.34	12.80	-51.2	-53.1	14.6	0.00e+00	0	25	0	1298137088	68	4511
2026-01-07 10:30:43.61	333.52	12.42	-51.5	-53.5	14.5	0.00e+00	0	25	0	1305477120	68	4709
2026-01-07 10:30:47.64	333.69	12.04	-51.8	-53.9	14.3	0.00e+00	0	25	0	1312817152	68	4969
2026-01-07 10:30:51.67	333.86	11.68	-52.3	-54.6	14.0	0.00e+00	0	25	0	1321205760	69	5076
2026-01-07 10:30:55.71	334.02	11.31	-52.6	-55.0	13.9	0.00e+00	0	25	0	1328545792	70	5036
2026-01-07 10:30:59.73	334.18	10.96	-53.1	-55.7	13.7	0.00e+00	0	25	0	1335885824	71	5116
2026-01-07 10:31:03.76	334.34	10.61	-53.3	-56.0	13.5	0.00e+00	0	25	0	1343225856	71	5305
2026-01-07 10:31:07.78	334.49	10.26	-53.5	-56.3	13.4	0.00e+00	0	25	0	1350565888	72	5215
2026-01-07 10:31:11.81	334.64	9.92	-53.4	-56.2	13.5	0.00e+00	0	26	0	1358954496	72	5126
2026-01-07 10:31:15.83	334.79	9.58	-53.2	-55.9	13.7	0.00e+00	0	25	0	1366294528	72	4971
2026-01-07 10:31:19.86	334.93	9.25	-53.2	-56.0	13.6	0.00e+00	0	25	0	1373634560	72	4994
2026-01-07 10:31:23.89	335.07	8.92	-53.3	-56.1	13.6	0.00e+00	0	25	0	1380974592	72	5047
2026-01-07 10:31:27.92	335.21	8.59	-53.1	-55.7	13.8	0.00e+00	0	25	0	1388314624	72	4860
2026-01-07 10:31:31.94	335.35	8.27	-53.0	-55.7	13.8	0.00e+00	0	25	0	1396703232	72	4825
2026-01-07 10:31:35.98	335.48	7.95	-53.1	-55.8	13.7	0.00e+00	0	25	0	1404043264	72	4894
2026-01-07 10:31:40.00	335.61	7.64	-52.9	-55.5	13.9	1.14e-05	0	25	0	1411383296	72	4747
2026-01-07 10:31:44.03	335.74	7.33	-53.0	-55.7	13.8	0.00e+00	0	25	0	1418723328	72	4822
2026-01-07 10:31:48.05	335.86	7.03	-52.8	-55.4	13.9	8.30e-06	0	25	0	1426063360	72	4677
2026-01-07 10:31:52.08	335.99	6.72	-52.9	-55.5	13.8	0.00e+00	0	25	0	1434451968	72	4738
2026-01-07 10:31:56.11	336.11	6.43	-52.9	-55.5	13.8	0.00e+00	0	25	0	1441792000	72	4728
2026-01-07 10:32:00.14	336.23	6.13	-53.2	-56.0	13.5	0.00e+00	0	25	0	1449132032	72	4989
2026-01-07 10:32:04.17	336.35	5.84	-53.3	-56.1	13.5	0.00e+00	0	25	0	1456472064	72	5060
2026-01-07 10:32:08.18	336.46	5.55	-53.2	-56.0	13.4	0.00e+00	0	25	0	1463812096	72	4990
2026-01-07 10:32:12.21	336.58	5.26	-53.0	-55.7	13.6	0.00e+00	0	25	0	1472200704	72	4822
2026-01-07 10:32:16.24	336.69	4.98	-58.2	-73.4	3.8	4.22e-01	0	25	104	1478492160	81	22209
2026-01-07 10:32:20.27	336.80	4.70	-59.4	-75.5	3.8	1.49e+00	0	25	104	1478492160	83	25058
2026-01-07 10:32:24.31	336.91	4.42	-60.1	-76.1	3.8	1.49e+00	0	25	104	1478492160	85	24080
2026-01-07 10:32:28.34	337.02	4.15	-60.2	-76.3	3.8	1.49e+00	0	25	104	1478492160	85	24449
2026-01-07 10:32:32.38	337.12	3.88	-60.3	-76.3	3.8	1.49e+00	0	25	104	1478492160	85	24682
2026-01-07 10:32:36.41	337.23	3.61	-60.3	-76.4	3.8	1.49e+00	0	25	104	1478492160	85	24879
2026-01-07 10:32:40.44	337.33	3.34	-60.3	-76.3	3.8	1.49e+00	0	25	104	1478492160	85	24684
2026-01-07 10:32:44.48	337.43	3.07	-60.2	-76.3	3.8	1.49e+00	0	25	104	1478492160	85	24463
2026-01-07 10:32:48.51	337.53	2.81	-60.2	-76.3	3.8	1.49e+00	0	25	104	1478492160	85	24447
2026-01-07 10:32:52.53	337.62	2.55	-60.1	-76.2	3.8	1.49e+00	0	26	104	1478492160	85	24274
2026-01-07 10:32:56.57	337.72	2.30	-60.1	-76.2	3.8	1.49e+00	0	25	104	1478492160	85	24264
2026-01-07 10:33:00.60	337.82	2.04	-60.1	-76.2	3.8	1.49e+00	0	26	104	1478492160	85	24147

#Closed at: 2026-01-07 10:33:04
#Recorded file [1478 MB]: D:/lorett/data/31004_260107_131838.dat