passes_logs/2026/01/07/R3.2S_Murmansk/R3.2S_Murmansk__20260107_054058_NOAA_20_JPSS-1_rec.log

#Pass ID: 20260107_054058_NOAA 20 (JPSS-1)
#Satellite: NOAA 20 (JPSS-1)
#Configuration: NOAA 20
#almurnet v.1.7.20251203
#Start time: 2026-01-07 05:40:58

#Version: 2.2.20231116
#Station: R3.2S_Murmansk
#Location: 33.079688 lon 68.888172 lat
#TLE: 1 43013U 17073A   26006.30790171  .00000126  00000+0  80695-4 0  9991
#TLE: 2 43013  98.7629 307.3394 0001808  51.8724 308.2615 14.19533762421505

#Time	Az	El	Level	Level2	SNR	BER	BlckErr	Temp	State	Recorded	gain1	gain2
2026-01-07 05:40:58.68	70.39	2.00	-57.5	-73.5	3.8	1.49e+00	0	23	0	0	81	22489
2026-01-07 05:41:02.67	70.14	2.23	-57.5	-73.5	3.8	1.49e+00	0	23	104	0	80	23789
2026-01-07 05:41:06.68	69.88	2.46	-57.5	-73.5	3.8	1.49e+00	0	23	104	0	80	23709
2026-01-07 05:41:10.69	69.62	2.69	-57.5	-73.5	3.8	1.49e+00	0	23	104	0	80	23637
2026-01-07 05:41:14.69	69.36	2.92	-57.5	-73.5	3.8	1.49e+00	0	23	104	0	80	23696
2026-01-07 05:41:18.67	69.09	3.15	-57.5	-73.5	3.8	1.49e+00	0	23	104	0	80	23753
2026-01-07 05:41:22.68	68.81	3.39	-57.5	-73.5	3.8	1.49e+00	0	24	104	0	80	23691
2026-01-07 05:41:26.67	68.53	3.62	-57.5	-73.5	3.8	1.49e+00	0	24	104	0	80	23798
2026-01-07 05:41:30.65	68.25	3.86	-57.5	-73.5	3.8	1.49e+00	0	24	104	0	80	23662
2026-01-07 05:41:34.63	67.96	4.10	-57.5	-73.4	3.8	1.49e+00	0	24	104	0	80	23497
2026-01-07 05:41:38.61	67.67	4.34	-57.5	-73.3	3.8	1.49e+00	0	24	104	0	80	23094
2026-01-07 05:41:42.59	67.37	4.58	-57.4	-70.7	3.9	1.49e+00	0	24	104	0	80	17190
2026-01-07 05:41:46.57	67.07	4.82	-57.2	-67.5	5.2	6.50e-01	0	24	0	4194304	80	11888
2026-01-07 05:41:50.57	66.76	5.06	-56.6	-63.5	8.2	1.86e-01	0	24	0	11534336	79	7909
2026-01-07 05:41:54.57	66.45	5.31	-55.9	-60.9	10.3	1.04e+00	0	24	0	16777216	78	6253
2026-01-07 05:41:58.55	66.13	5.56	-55.0	-58.8	12.1	6.80e-06	0	24	0	24117248	76	5470
2026-01-07 05:42:02.53	65.80	5.80	-54.4	-57.7	12.8	0.00e+00	0	24	0	31457280	75	5114
2026-01-07 05:42:06.52	65.47	6.05	-54.4	-57.6	12.9	0.00e+00	0	24	0	39845888	75	5082
2026-01-07 05:42:10.51	65.14	6.31	-54.3	-57.5	13.0	0.00e+00	0	24	0	47185920	75	5007
2026-01-07 05:42:14.50	64.79	6.56	-54.3	-57.4	12.9	0.00e+00	0	25	0	54525952	74	5268
2026-01-07 05:42:18.50	64.44	6.81	-54.1	-57.1	13.2	0.00e+00	0	24	0	61865984	74	5051
2026-01-07 05:42:22.48	64.09	7.07	-54.2	-57.3	13.0	7.00e-07	0	25	0	69206016	74	5212
2026-01-07 05:42:26.48	63.73	7.33	-54.3	-57.4	13.0	7.00e-07	0	25	0	76546048	74	5231
2026-01-07 05:42:30.47	63.36	7.58	-54.3	-57.4	12.9	0.00e+00	0	25	0	83886080	74	5273
2026-01-07 05:42:34.46	62.98	7.85	-54.2	-57.3	13.1	0.00e+00	0	24	0	92274688	74	5162
2026-01-07 05:42:38.46	62.60	8.11	-54.1	-57.0	13.3	0.00e+00	0	24	0	99614720	74	5033
2026-01-07 05:42:42.45	62.21	8.37	-53.9	-56.6	13.5	0.00e+00	0	24	0	106954752	74	4814
2026-01-07 05:42:46.46	61.81	8.64	-53.8	-56.5	13.6	0.00e+00	0	24	0	114294784	74	4741
2026-01-07 05:42:50.46	61.40	8.90	-53.9	-56.6	13.6	0.00e+00	0	25	0	121634816	74	4800
2026-01-07 05:42:54.45	60.99	9.17	-53.8	-56.4	13.7	0.00e+00	0	25	0	128974848	74	4695
2026-01-07 05:42:58.42	60.57	9.44	-53.8	-56.4	13.7	0.00e+00	0	25	0	136314880	74	4681
2026-01-07 05:43:02.41	60.14	9.71	-53.9	-56.5	13.7	0.00e+00	0	25	0	143654912	74	4753
2026-01-07 05:43:06.40	59.71	9.98	-53.9	-56.6	13.6	0.00e+00	0	25	0	152043520	74	4778
2026-01-07 05:43:10.38	59.26	10.25	-53.9	-56.6	13.6	0.00e+00	0	25	0	159383552	74	4764
2026-01-07 05:43:14.37	58.81	10.53	-53.9	-56.6	13.6	0.00e+00	0	25	0	166723584	74	4761
2026-01-07 05:43:18.35	58.35	10.80	-53.8	-56.5	13.7	0.00e+00	0	25	0	174063616	74	4717
2026-01-07 05:43:22.33	57.88	11.08	-53.6	-56.1	13.8	0.00e+00	0	25	0	181403648	73	4806
2026-01-07 05:43:26.32	57.39	11.35	-53.7	-56.2	13.7	0.00e+00	0	25	0	188743680	73	4847
2026-01-07 05:43:30.29	56.91	11.63	-53.4	-55.8	14.0	0.00e+00	0	25	0	196083712	73	4639
2026-01-07 05:43:34.26	56.41	11.91	-53.3	-55.7	14.1	0.00e+00	0	25	0	203423744	73	4549
2026-01-07 05:43:38.24	55.90	12.19	-53.3	-55.7	14.1	0.00e+00	0	25	0	211812352	73	4563
2026-01-07 05:43:42.23	55.38	12.47	-53.3	-55.7	14.1	0.00e+00	0	25	0	219152384	73	4562
2026-01-07 05:43:46.21	54.85	12.75	-53.3	-55.7	14.1	0.00e+00	0	25	0	226492416	73	4546
2026-01-07 05:43:50.20	54.31	13.04	-53.1	-55.3	14.1	0.00e+00	0	25	0	233832448	72	4629
2026-01-07 05:43:54.20	53.76	13.32	-52.9	-55.1	14.3	0.00e+00	0	25	0	241172480	72	4514
2026-01-07 05:43:58.17	53.20	13.61	-52.8	-54.9	14.4	0.00e+00	0	25	0	248512512	72	4420
2026-01-07 05:44:02.10	52.63	13.89	-52.7	-54.8	14.5	0.00e+00	0	25	0	255852544	72	4384
2026-01-07 05:44:06.08	52.05	14.17	-52.9	-55.0	14.4	0.00e+00	0	25	0	263192576	72	4444
2026-01-07 05:44:10.06	51.46	14.46	-53.1	-55.3	14.2	0.00e+00	0	25	0	270532608	72	4623
2026-01-07 05:44:14.06	50.85	14.74	-53.0	-55.2	14.3	0.00e+00	0	25	0	278921216	72	4554
2026-01-07 05:44:18.04	50.23	15.03	-53.2	-55.4	14.1	0.00e+00	0	25	0	286261248	72	4679
2026-01-07 05:44:22.02	49.60	15.31	-53.3	-55.5	14.1	0.00e+00	0	25	0	293601280	72	4745
2026-01-07 05:44:26.00	48.96	15.60	-53.5	-55.8	13.9	0.00e+00	0	25	0	300941312	72	4905
2026-01-07 05:44:29.98	48.30	15.88	-53.3	-55.6	14.0	0.00e+00	0	25	0	308281344	72	4797
2026-01-07 05:44:33.97	47.63	16.17	-53.3	-55.6	14.1	0.00e+00	0	25	0	315621376	72	4778
2026-01-07 05:44:37.97	46.95	16.45	-53.5	-55.8	14.0	0.00e+00	0	25	0	322961408	72	4881
2026-01-07 05:44:41.95	46.25	16.74	-53.6	-55.9	13.9	0.00e+00	0	25	0	330301440	72	4980
2026-01-07 05:44:45.93	45.55	17.02	-53.5	-55.8	13.9	0.00e+00	0	25	0	338690048	72	4924
2026-01-07 05:44:49.91	44.82	17.30	-53.4	-55.7	14.0	0.00e+00	0	25	0	346030080	72	4819
2026-01-07 05:44:53.89	44.09	17.57	-53.3	-55.6	14.1	0.00e+00	0	25	0	353370112	72	4789
2026-01-07 05:44:57.88	43.34	17.85	-53.2	-55.4	14.2	0.00e+00	0	25	0	360710144	72	4670
2026-01-07 05:45:01.86	42.58	18.13	-52.8	-54.9	14.4	0.00e+00	0	25	0	368050176	72	4417
2026-01-07 05:45:05.84	41.80	18.40	-52.5	-54.4	14.5	0.00e+00	0	25	0	375390208	71	4406
2026-01-07 05:45:09.82	41.01	18.67	-52.2	-54.1	14.7	0.00e+00	0	25	0	382730240	71	4251
2026-01-07 05:45:13.80	40.21	18.93	-51.7	-53.5	14.9	0.00e+00	0	25	0	390070272	70	4197
2026-01-07 05:45:17.79	39.38	19.20	-51.6	-53.4	14.8	0.00e+00	0	25	0	398458880	69	4400
2026-01-07 05:45:21.76	38.55	19.46	-51.5	-53.1	14.9	0.00e+00	0	25	0	405798912	69	4290
2026-01-07 05:45:25.73	37.71	19.71	-51.3	-53.0	15.0	0.00e+00	0	25	0	413138944	69	4216
2026-01-07 05:45:29.70	36.85	19.96	-51.3	-52.9	15.0	0.00e+00	0	25	0	420478976	69	4184
2026-01-07 05:45:33.69	35.97	20.21	-51.1	-52.7	14.9	0.00e+00	0	25	0	427819008	68	4334
2026-01-07 05:45:37.66	35.08	20.45	-51.2	-52.8	14.9	0.00e+00	0	25	0	435159040	68	4352
2026-01-07 05:45:41.64	34.18	20.69	-51.2	-52.8	14.9	0.00e+00	0	25	0	442499072	68	4359
2026-01-07 05:45:45.65	33.25	20.92	-51.2	-52.9	14.9	0.00e+00	0	25	0	449839104	68	4407
2026-01-07 05:45:49.64	32.32	21.15	-51.4	-53.0	14.8	0.00e+00	0	25	0	458227712	68	4482
2026-01-07 05:45:53.65	31.36	21.37	-51.3	-52.9	14.9	0.00e+00	0	25	0	465567744	68	4435
2026-01-07 05:45:57.63	30.40	21.58	-51.2	-52.8	14.9	0.00e+00	0	25	0	472907776	68	4357
2026-01-07 05:46:01.60	29.43	21.79	-50.9	-52.5	15.0	0.00e+00	0	25	0	480247808	68	4213
2026-01-07 05:46:05.58	28.45	21.99	-51.0	-52.6	15.0	0.00e+00	0	25	0	487587840	68	4246
2026-01-07 05:46:09.57	27.45	22.18	-51.0	-52.6	15.0	0.00e+00	0	25	0	494927872	68	4279
2026-01-07 05:46:13.54	26.44	22.36	-50.6	-52.2	15.0	0.00e+00	0	25	0	502267904	67	4317
2026-01-07 05:46:17.53	25.41	22.53	-50.6	-52.2	15.0	0.00e+00	0	25	0	509607936	67	4297
2026-01-07 05:46:21.52	24.38	22.70	-51.0	-52.6	14.9	0.00e+00	0	25	0	517996544	67	4505
2026-01-07 05:46:25.52	23.33	22.86	-50.7	-52.3	15.0	0.00e+00	0	25	0	525336576	67	4363
2026-01-07 05:46:29.51	22.27	23.00	-50.9	-52.5	14.9	0.00e+00	0	25	0	532676608	67	4476
2026-01-07 05:46:33.49	21.21	23.14	-51.9	-53.7	14.6	0.00e+00	0	25	0	540016640	69	4584
2026-01-07 05:46:37.48	20.13	23.27	-52.1	-53.9	14.5	0.00e+00	0	25	0	547356672	69	4697
2026-01-07 05:46:41.50	19.04	23.39	-52.3	-54.2	14.6	0.00e+00	0	25	0	554696704	70	4562
2026-01-07 05:46:45.48	17.95	23.49	-52.5	-54.4	14.5	0.00e+00	0	25	0	562036736	70	4680
2026-01-07 05:46:49.47	16.85	23.59	-52.6	-54.5	14.4	0.00e+00	0	25	0	569376768	70	4739
2026-01-07 05:46:53.44	15.75	23.67	-52.9	-55.0	14.3	0.00e+00	0	25	0	577765376	71	4722
2026-01-07 05:46:57.41	14.64	23.74	-52.9	-54.9	14.4	0.00e+00	0	25	0	585105408	71	4670
2026-01-07 05:47:01.39	13.53	23.80	-52.7	-54.6	14.5	0.00e+00	0	25	0	592445440	71	4512
2026-01-07 05:47:05.38	12.41	23.85	-52.8	-54.8	14.4	0.00e+00	0	25	0	599785472	71	4610
2026-01-07 05:47:09.36	11.29	23.89	-52.6	-54.6	14.5	0.00e+00	0	25	0	607125504	71	4506
2026-01-07 05:47:13.35	10.16	23.92	-52.6	-54.6	14.5	0.00e+00	0	25	0	614465536	71	4496
2026-01-07 05:47:17.33	9.04	23.93	-52.4	-54.2	14.7	0.00e+00	0	25	0	621805568	71	4321
2026-01-07 05:47:21.30	7.92	23.93	-52.4	-54.3	14.7	0.00e+00	0	25	0	629145600	71	4342
2026-01-07 05:47:25.29	6.79	23.92	-51.9	-53.7	14.8	0.00e+00	0	25	0	637534208	70	4313
2026-01-07 05:47:29.27	5.67	23.90	-51.8	-53.5	14.9	0.00e+00	0	25	0	644874240	70	4227
2026-01-07 05:47:33.25	4.54	23.87	-51.3	-52.9	15.1	0.00e+00	0	25	0	652214272	69	4163
2026-01-07 05:47:37.24	3.42	23.82	-51.0	-52.6	15.0	0.00e+00	0	25	0	659554304	68	4265
2026-01-07 05:47:41.22	2.31	23.76	-50.9	-52.4	15.1	0.00e+00	0	25	0	666894336	68	4164
2026-01-07 05:47:45.21	1.20	23.69	-50.3	-51.8	15.2	0.00e+00	0	25	0	674234368	67	4130
2026-01-07 05:47:49.21	0.09	23.61	-50.3	-51.8	15.2	0.00e+00	0	25	0	681574400	67	4128
2026-01-07 05:47:53.19	358.99	23.52	-50.1	-51.5	15.1	0.00e+00	0	25	0	688914432	66	4234
2026-01-07 05:47:57.17	357.90	23.42	-50.4	-51.9	15.0	0.00e+00	0	25	0	697303040	66	4437
2026-01-07 05:48:01.14	356.81	23.30	-50.5	-52.0	15.0	0.00e+00	0	25	0	704643072	66	4456
2026-01-07 05:48:05.13	355.74	23.18	-50.7	-52.2	14.9	0.00e+00	0	25	0	711983104	66	4586
2026-01-07 05:48:09.11	354.67	23.05	-51.0	-52.6	14.8	0.00e+00	0	25	0	719323136	67	4525
2026-01-07 05:48:13.08	353.62	22.90	-51.3	-53.0	14.7	0.00e+00	0	25	0	726663168	67	4742
2026-01-07 05:48:17.06	352.57	22.75	-51.5	-53.2	14.8	0.00e+00	0	25	0	734003200	68	4561
2026-01-07 05:48:21.04	351.53	22.59	-51.9	-53.6	14.6	0.00e+00	0	25	0	741343232	68	4809
2026-01-07 05:48:25.02	350.51	22.41	-52.1	-53.9	14.6	0.00e+00	0	25	0	748683264	69	4699
2026-01-07 05:48:28.99	349.50	22.23	-52.2	-54.0	14.5	0.00e+00	0	25	0	756023296	69	4718
2026-01-07 05:48:33.00	348.49	22.04	-52.3	-54.1	14.5	0.00e+00	0	25	0	764411904	69	4797
2026-01-07 05:48:36.96	347.50	21.85	-52.5	-54.4	14.5	0.00e+00	0	25	0	771751936	70	4700
2026-01-07 05:48:40.93	346.53	21.65	-52.6	-54.5	14.4	0.00e+00	0	25	0	779091968	70	4748
2026-01-07 05:48:44.93	345.56	21.44	-52.6	-54.5	14.4	0.00e+00	0	25	0	786432000	70	4744
2026-01-07 05:48:48.94	344.60	21.22	-52.6	-54.5	14.4	0.00e+00	0	25	0	793772032	70	4718
2026-01-07 05:48:52.92	343.67	20.99	-52.4	-54.3	14.5	0.00e+00	0	25	0	801112064	70	4621
2026-01-07 05:48:56.91	342.74	20.76	-52.6	-54.5	14.4	0.00e+00	0	25	0	808452096	70	4741
2026-01-07 05:49:00.89	341.84	20.53	-52.2	-54.1	14.6	0.00e+00	0	25	0	816840704	70	4503
2026-01-07 05:49:04.89	340.94	20.28	-52.1	-54.0	14.7	0.00e+00	0	25	0	824180736	70	4442
2026-01-07 05:49:08.86	340.06	20.04	-52.0	-53.8	14.8	0.00e+00	0	25	0	831520768	70	4357
2026-01-07 05:49:12.86	339.19	19.79	-52.0	-53.8	14.8	0.00e+00	0	25	0	838860800	70	4370
2026-01-07 05:49:16.85	338.34	19.53	-52.0	-53.8	14.8	0.00e+00	0	25	0	846200832	70	4378
2026-01-07 05:49:20.85	337.50	19.27	-51.9	-53.7	14.8	0.00e+00	0	25	0	853540864	70	4323
2026-01-07 05:49:24.84	336.67	19.01	-52.1	-53.9	14.7	0.00e+00	0	25	0	860880896	70	4409
2026-01-07 05:49:28.81	335.87	18.75	-52.1	-54.0	14.7	0.00e+00	0	25	0	868220928	70	4451
2026-01-07 05:49:32.78	335.07	18.48	-52.3	-54.2	14.6	0.00e+00	0	25	0	876609536	70	4555
2026-01-07 05:49:36.76	334.29	18.21	-52.1	-54.0	14.7	0.00e+00	0	25	0	883949568	70	4457
2026-01-07 05:49:40.73	333.53	17.94	-52.0	-53.8	14.8	0.00e+00	0	25	0	891289600	70	4362
2026-01-07 05:49:44.73	332.78	17.66	-52.1	-54.0	14.7	0.00e+00	0	25	0	898629632	70	4461
2026-01-07 05:49:48.71	332.04	17.38	-52.0	-53.8	14.7	0.00e+00	0	25	0	905969664	70	4367
2026-01-07 05:49:52.71	331.31	17.10	-51.9	-53.6	14.8	0.00e+00	0	25	0	913309696	70	4276
2026-01-07 05:49:56.70	330.60	16.82	-51.4	-53.1	14.9	0.00e+00	0	25	0	920649728	69	4262
2026-01-07 05:50:00.69	329.90	16.54	-51.5	-53.2	14.9	0.00e+00	0	25	0	927989760	69	4318
2026-01-07 05:50:04.66	329.22	16.26	-51.4	-53.1	14.9	0.00e+00	0	25	0	936378368	69	4264
2026-01-07 05:50:08.62	328.55	15.97	-51.3	-53.0	15.0	0.00e+00	0	25	0	943718400	69	4211
2026-01-07 05:50:12.60	327.89	15.69	-51.2	-52.9	14.9	0.00e+00	0	25	0	951058432	68	4401
2026-01-07 05:50:16.59	327.24	15.41	-51.3	-53.0	14.8	0.00e+00	0	25	0	958398464	68	4456
2026-01-07 05:50:20.56	326.61	15.12	-51.3	-53.0	14.8	0.00e+00	0	25	0	965738496	68	4462
2026-01-07 05:50:24.53	325.99	14.84	-51.4	-53.1	14.8	0.00e+00	0	25	0	973078528	68	4496
2026-01-07 05:50:28.50	325.38	14.55	-51.5	-53.2	14.7	0.00e+00	0	25	0	980418560	68	4552
2026-01-07 05:50:32.47	324.79	14.27	-51.6	-53.3	14.7	0.00e+00	0	25	0	987758592	68	4621
2026-01-07 05:50:36.46	324.20	13.98	-51.9	-53.7	14.5	0.00e+00	0	25	0	995098624	68	4840
2026-01-07 05:50:40.43	323.63	13.70	-52.1	-54.0	14.5	0.00e+00	0	26	0	1002438656	69	4711
2026-01-07 05:50:44.40	323.07	13.42	-52.0	-53.9	14.5	0.00e+00	0	25	0	1010827264	69	4667
2026-01-07 05:50:48.40	322.51	13.13	-51.8	-53.6	14.6	0.00e+00	0	25	0	1018167296	69	4541
2026-01-07 05:50:52.37	321.97	12.85	-52.2	-54.1	14.4	0.00e+00	0	25	0	1025507328	69	4790
2026-01-07 05:50:56.35	321.44	12.57	-52.4	-54.4	14.3	0.00e+00	0	25	0	1032847360	69	4937
2026-01-07 05:51:00.33	320.92	12.29	-52.5	-54.5	14.3	0.00e+00	0	25	0	1040187392	70	4735
2026-01-07 05:51:04.30	320.41	12.01	-52.4	-54.4	14.4	0.00e+00	0	25	0	1047527424	70	4687
2026-01-07 05:51:08.27	319.91	11.73	-52.5	-54.5	14.3	0.00e+00	0	25	0	1054867456	70	4714
2026-01-07 05:51:12.26	319.42	11.45	-52.6	-54.6	14.3	0.00e+00	0	25	0	1062207488	70	4804
2026-01-07 05:51:16.23	318.94	11.17	-52.7	-54.9	14.2	0.00e+00	0	25	0	1069547520	70	4928
2026-01-07 05:51:20.20	318.47	10.90	-52.8	-55.0	14.1	0.00e+00	0	25	0	1077936128	70	5011
2026-01-07 05:51:24.17	318.00	10.62	-52.9	-55.1	14.2	0.00e+00	0	25	0	1085276160	71	4769
2026-01-07 05:51:28.16	317.55	10.35	-52.9	-55.0	14.2	0.00e+00	0	25	0	1092616192	71	4747
2026-01-07 05:51:32.13	317.10	10.08	-53.0	-55.2	14.1	0.00e+00	0	25	0	1099956224	71	4823
2026-01-07 05:51:36.11	316.66	9.81	-53.1	-55.3	14.0	0.00e+00	0	25	0	1107296256	71	4916
2026-01-07 05:51:40.09	316.23	9.54	-53.3	-55.7	13.8	0.00e+00	0	25	0	1114636288	71	5147
2026-01-07 05:51:44.09	315.81	9.27	-53.6	-56.1	13.7	0.00e+00	0	25	0	1121976320	72	5052
2026-01-07 05:51:48.06	315.40	9.00	-53.5	-56.0	13.7	0.00e+00	0	25	0	1129316352	72	4991
2026-01-07 05:51:52.04	314.99	8.74	-53.7	-56.3	13.5	0.00e+00	0	25	0	1137704960	72	5185
2026-01-07 05:51:56.02	314.59	8.47	-53.8	-56.5	13.5	0.00e+00	0	25	0	1145044992	73	4995
2026-01-07 05:52:00.00	314.20	8.21	-53.8	-56.4	13.5	0.00e+00	0	25	0	1152385024	73	4978
2026-01-07 05:52:03.96	313.82	7.95	-53.9	-56.5	13.5	0.00e+00	0	26	0	1159725056	73	5014
2026-01-07 05:52:07.94	313.45	7.69	-53.7	-56.3	13.6	0.00e+00	0	25	0	1167065088	73	4914
2026-01-07 05:52:11.93	313.08	7.43	-53.8	-56.4	13.5	0.00e+00	0	25	0	1174405120	73	4976
2026-01-07 05:52:15.92	312.71	7.17	-54.0	-56.8	13.3	0.00e+00	0	25	0	1181745152	73	5166
2026-01-07 05:52:19.92	312.35	6.92	-54.1	-57.0	13.2	0.00e+00	0	25	0	1189085184	73	5296
2026-01-07 05:52:23.91	312.00	6.66	-54.1	-56.9	13.2	0.00e+00	0	25	0	1197473792	73	5277
2026-01-07 05:52:27.89	311.66	6.41	-54.1	-57.0	13.1	0.00e+00	0	25	0	1204813824	73	5336
2026-01-07 05:52:31.86	311.32	6.16	-54.3	-57.4	12.8	0.00e+00	0	25	0	1212153856	73	5565
2026-01-07 05:52:35.85	310.99	5.91	-54.4	-57.5	12.9	0.00e+00	0	25	0	1219493888	74	5311
2026-01-07 05:52:39.81	310.67	5.66	-54.8	-58.3	12.3	1.50e-06	0	25	0	1226833920	74	5823
2026-01-07 05:52:43.78	310.35	5.42	-54.6	-57.9	12.6	0.00e+00	0	26	0	1234173952	74	5570
2026-01-07 05:52:47.77	310.03	5.17	-54.5	-57.9	12.6	0.00e+00	0	25	0	1241513984	74	5549
2026-01-07 05:52:51.76	309.72	4.93	-58.5	-74.3	3.8	1.49e+00	0	25	104	1247805440	82	23311
2026-01-07 05:52:55.73	309.42	4.68	-59.4	-75.4	3.8	1.49e+00	0	26	104	1247805440	83	24946
2026-01-07 05:52:59.73	309.12	4.44	-60.0	-76.1	3.8	1.49e+00	0	25	104	1247805440	85	23889
2026-01-07 05:53:03.72	308.82	4.20	-60.2	-76.3	3.8	1.49e+00	0	26	104	1247805440	85	24650
2026-01-07 05:53:07.71	308.53	3.96	-60.4	-76.4	3.8	1.49e+00	0	25	104	1247805440	85	24930
2026-01-07 05:53:11.68	308.25	3.73	-60.4	-76.5	3.8	1.49e+00	0	25	104	1247805440	85	25082
2026-01-07 05:53:15.68	307.97	3.49	-60.3	-76.4	3.8	1.49e+00	0	26	104	1247805440	85	24815
2026-01-07 05:53:19.65	307.70	3.26	-60.2	-76.3	3.8	1.49e+00	0	25	104	1247805440	85	24682
2026-01-07 05:53:23.63	307.43	3.02	-60.2	-76.3	3.8	1.49e+00	0	26	104	1247805440	85	24562
2026-01-07 05:53:27.62	307.16	2.79	-60.2	-76.3	3.8	1.49e+00	0	26	104	1247805440	85	24440
2026-01-07 05:53:31.61	306.90	2.56	-60.2	-76.2	3.8	1.49e+00	0	25	104	1247805440	85	24340
2026-01-07 05:53:35.60	306.64	2.33	-60.1	-76.2	3.8	1.49e+00	0	25	104	1247805440	85	24371
2026-01-07 05:53:39.58	306.39	2.10	-60.1	-76.2	3.8	1.49e+00	0	25	104	1247805440	85	24345

#Closed at: 2026-01-07 05:53:42
#Recorded file [1247 MB]: D:/lorett/data/31004_260107_084058.dat