passes_logs/2026/01/07/R3.2S_Murmansk/R3.2S_Murmansk__20260107_052035_SUOMI_NPP_rec.log

#Pass ID: 20260107_052035_SUOMI NPP
#Satellite: SUOMI NPP
#Configuration: NPP
#almurnet v.1.7.20251203
#Start time: 2026-01-07 05:20:37

#Version: 2.2.20231116
#Station: R3.2S_Murmansk
#Location: 33.079688 lon 68.888172 lat
#TLE: 1 37849U 11061A   26005.94084933  .00000134  00000+0  84554-4 0  9990
#TLE: 2 37849  98.7803 308.0679 0002567  79.1029 281.0436 14.19522657735426

#Time	Az	El	Level	Level2	SNR	BER	BlckErr	Temp	State	Recorded	gain1	gain2
2026-01-07 05:20:37.88	63.67	2.13	-57.5	-73.5	3.8	1.49e+00	0	23	104	0	80	23846
2026-01-07 05:20:41.11	63.46	2.31	-57.5	-73.5	3.8	1.49e+00	0	23	104	0	80	23754
2026-01-07 05:20:43.96	63.27	2.48	-57.5	-73.5	3.8	1.49e+00	0	23	104	0	80	23786
2026-01-07 05:20:47.10	63.06	2.66	-57.5	-73.5	3.8	1.49e+00	0	23	104	0	80	23774
2026-01-07 05:20:49.95	62.87	2.82	-57.5	-73.5	3.8	1.49e+00	0	23	104	0	80	23749
2026-01-07 05:20:53.09	62.66	3.00	-57.5	-73.5	3.8	1.49e+00	0	24	104	0	80	23803
2026-01-07 05:20:55.96	62.46	3.17	-57.5	-73.5	3.9	1.49e+00	0	24	104	0	80	23767
2026-01-07 05:20:59.09	62.24	3.35	-57.5	-73.5	3.8	1.49e+00	0	24	104	0	80	23645
2026-01-07 05:21:01.95	62.04	3.52	-57.5	-73.5	3.8	1.49e+00	0	24	104	0	80	23727
2026-01-07 05:21:05.09	61.82	3.70	-57.5	-73.5	3.8	1.49e+00	0	24	104	0	80	23782
2026-01-07 05:21:07.94	61.61	3.87	-57.5	-73.5	3.8	1.49e+00	0	24	104	0	80	23666
2026-01-07 05:21:11.09	61.38	4.06	-57.6	-73.5	3.8	1.49e+00	0	24	104	0	80	23798
2026-01-07 05:21:13.95	61.17	4.23	-57.5	-72.7	3.8	1.49e+00	0	24	104	0	80	21570
2026-01-07 05:21:17.11	60.93	4.42	-57.4	-70.9	3.9	1.48e+00	0	24	104	0	80	17631
2026-01-07 05:21:19.96	60.71	4.59	-57.3	-68.6	4.7	1.03e+00	0	24	0	2097152	80	13474
2026-01-07 05:21:23.11	60.47	4.78	-57.0	-65.5	6.4	2.45e-01	0	24	0	7340032	80	9471
2026-01-07 05:21:25.97	60.25	4.96	-56.8	-64.3	7.5	8.05e-02	0	24	0	12582912	80	8190
2026-01-07 05:21:29.10	60.00	5.15	-54.9	-58.6	12.2	2.62e-03	0	24	0	18874368	76	5364
2026-01-07 05:21:31.97	59.77	5.32	-55.1	-59.3	11.6	1.06e-05	0	24	0	24117248	75	6162
2026-01-07 05:21:35.10	59.51	5.51	-54.4	-57.8	12.6	0.00e+00	0	25	0	29360128	75	5186
2026-01-07 05:21:37.96	59.28	5.69	-54.3	-57.6	12.8	0.00e+00	0	24	0	34603008	75	5044
2026-01-07 05:21:41.09	59.02	5.88	-54.2	-57.4	12.9	0.00e+00	0	24	0	40894464	74	5221
2026-01-07 05:21:43.96	58.77	6.06	-54.0	-57.0	13.1	0.00e+00	0	24	0	46137344	74	4988
2026-01-07 05:21:47.10	58.50	6.26	-54.1	-57.2	13.0	0.00e+00	0	24	0	52428800	74	5123
2026-01-07 05:21:49.95	58.26	6.44	-54.4	-57.6	12.7	0.00e+00	0	25	0	57671680	74	5375
2026-01-07 05:21:53.09	57.98	6.64	-54.3	-57.6	12.7	0.00e+00	0	25	0	62914560	74	5351
2026-01-07 05:21:55.94	57.72	6.82	-54.4	-57.7	12.7	0.00e+00	0	25	0	68157440	74	5421
2026-01-07 05:21:59.07	57.44	7.02	-54.6	-58.0	12.6	0.00e+00	0	25	0	74448896	74	5604
2026-01-07 05:22:01.93	57.18	7.20	-54.4	-57.6	12.8	0.00e+00	0	25	0	79691776	74	5380
2026-01-07 05:22:05.07	56.89	7.40	-54.1	-57.1	13.1	0.00e+00	0	25	0	85983232	74	5069
2026-01-07 05:22:07.93	56.62	7.58	-54.1	-57.0	13.2	0.00e+00	0	25	0	91226112	74	5004
2026-01-07 05:22:11.08	56.32	7.79	-54.1	-57.1	13.1	0.00e+00	0	25	0	96468992	74	5052
2026-01-07 05:22:13.95	56.04	7.97	-53.8	-56.5	13.5	0.00e+00	0	25	0	102760448	74	4720
2026-01-07 05:22:17.10	55.73	8.18	-53.6	-56.3	13.6	0.00e+00	0	25	0	108003328	73	4879
2026-01-07 05:22:19.95	55.45	8.36	-53.7	-56.3	13.6	0.00e+00	0	25	0	113246208	73	4899
2026-01-07 05:22:23.09	55.13	8.57	-53.5	-56.0	13.7	0.00e+00	0	25	0	119537664	73	4753
2026-01-07 05:22:25.95	54.84	8.76	-53.7	-56.3	13.5	0.00e+00	0	25	0	124780544	73	4910
2026-01-07 05:22:29.09	54.51	8.97	-53.8	-56.5	13.4	0.00e+00	0	25	0	131072000	73	4987
2026-01-07 05:22:31.94	54.21	9.16	-53.7	-56.3	13.6	0.00e+00	0	25	0	136314880	73	4873
2026-01-07 05:22:35.08	53.87	9.37	-53.9	-56.6	13.4	0.00e+00	0	25	0	141557760	73	5062
2026-01-07 05:22:37.94	53.56	9.56	-53.7	-56.3	13.6	0.00e+00	0	25	0	147849216	73	4884
2026-01-07 05:22:41.07	53.22	9.77	-54.0	-56.7	13.3	0.00e+00	0	25	0	153092096	73	5147
2026-01-07 05:22:43.92	52.90	9.96	-53.8	-56.5	13.5	0.00e+00	0	25	0	158334976	73	5019
2026-01-07 05:22:47.06	52.55	10.17	-53.6	-56.1	13.7	0.00e+00	0	25	0	164626432	73	4803
2026-01-07 05:22:49.91	52.22	10.36	-53.8	-56.4	13.6	0.00e+00	0	25	0	169869312	73	4940
2026-01-07 05:22:53.03	51.86	10.58	-53.8	-56.5	13.5	0.00e+00	0	25	0	175112192	73	4996
2026-01-07 05:22:55.89	51.52	10.77	-53.6	-56.1	13.7	0.00e+00	0	25	0	181403648	73	4776
2026-01-07 05:22:59.05	51.14	10.99	-53.6	-56.1	13.7	0.00e+00	0	25	0	186646528	73	4768
2026-01-07 05:23:01.90	50.79	11.18	-53.4	-55.9	13.8	0.00e+00	0	25	0	191889408	73	4656
2026-01-07 05:23:05.05	50.41	11.40	-53.2	-55.5	13.9	0.00e+00	0	25	0	198180864	72	4730
2026-01-07 05:23:07.90	50.05	11.60	-53.1	-55.3	14.0	0.00e+00	0	25	0	203423744	72	4635
2026-01-07 05:23:11.06	49.65	11.82	-53.2	-55.4	14.0	0.00e+00	0	25	0	209715200	72	4705
2026-01-07 05:23:13.91	49.28	12.01	-58.5	-74.5	3.8	5.95e-01	0	25	104	213909504	82	23639
2026-01-07 05:23:17.06	48.87	12.23	-58.5	-74.4	3.8	1.49e+00	0	25	104	213909504	82	23489
2026-01-07 05:23:19.92	48.49	12.43	-58.4	-74.3	3.8	1.49e+00	0	25	104	213909504	82	23058
2026-01-07 05:23:23.05	48.07	12.65	-58.5	-74.4	3.8	1.49e+00	0	25	104	213909504	82	23432
2026-01-07 05:23:25.91	47.68	12.85	-58.4	-73.9	3.8	1.49e+00	0	25	104	213909504	82	22035
2026-01-07 05:23:29.04	47.25	13.07	-56.8	-66.8	3.8	1.49e+00	0	25	104	213909504	80	10957
2026-01-07 05:23:31.90	46.85	13.27	-58.4	-73.7	3.8	1.49e+00	0	25	104	213909504	82	21528
2026-01-07 05:23:35.05	46.40	13.49	-55.6	-65.5	3.7	1.49e+00	0	25	104	213909504	76	11868
2026-01-07 05:23:37.91	45.99	13.69	-53.1	-55.9	13.4	6.18e-01	0	25	0	213909504	72	4980
2026-01-07 05:23:41.06	45.52	13.91	-52.8	-55.6	13.8	0.00e+00	0	25	0	220200960	72	4767
2026-01-07 05:23:43.91	45.10	14.11	-52.8	-55.5	13.9	0.00e+00	0	25	0	225443840	72	4727
2026-01-07 05:23:47.06	44.62	14.33	-52.7	-55.3	14.0	0.00e+00	0	25	0	230686720	71	4892
2026-01-07 05:23:49.92	44.19	14.54	-52.6	-55.2	14.0	0.00e+00	0	25	0	235929600	71	4847
2026-01-07 05:23:53.05	43.70	14.76	-52.5	-55.1	14.1	0.00e+00	0	25	0	242221056	71	4760
2026-01-07 05:23:55.90	43.25	14.96	-52.7	-55.4	14.0	0.00e+00	0	25	0	247463936	71	4970
2026-01-07 05:23:59.04	42.75	15.18	-53.1	-56.0	13.6	0.00e+00	0	25	0	253755392	71	5309
2026-01-07 05:24:01.89	42.29	15.38	-52.9	-55.7	13.8	0.00e+00	0	25	0	258998272	71	5130
2026-01-07 05:24:05.01	41.77	15.59	-52.9	-55.7	13.8	0.00e+00	0	25	0	264241152	71	5116
2026-01-07 05:24:07.86	41.30	15.79	-52.8	-55.6	13.9	0.00e+00	0	25	0	269484032	71	5044
2026-01-07 05:24:11.00	40.76	16.01	-52.8	-55.6	13.9	0.00e+00	0	25	0	275775488	71	5057
2026-01-07 05:24:13.87	40.27	16.21	-52.8	-55.5	13.9	0.00e+00	0	25	0	281018368	71	5013
2026-01-07 05:24:17.01	39.72	16.43	-52.6	-55.2	14.1	0.00e+00	0	25	0	287309824	71	4844
2026-01-07 05:24:19.88	39.22	16.63	-52.7	-55.4	14.0	0.00e+00	0	25	0	292552704	71	4949
2026-01-07 05:24:23.03	38.65	16.84	-52.8	-55.5	14.0	0.00e+00	0	25	0	298844160	71	5007
2026-01-07 05:24:25.89	38.13	17.04	-52.9	-55.7	13.8	0.00e+00	0	25	0	304087040	71	5144
2026-01-07 05:24:29.02	37.56	17.25	-52.9	-55.7	13.8	0.00e+00	0	25	0	309329920	71	5127
2026-01-07 05:24:31.88	37.02	17.45	-52.5	-55.1	14.2	0.00e+00	0	25	0	314572800	71	4779
2026-01-07 05:24:35.02	36.43	17.66	-52.4	-54.8	14.3	0.00e+00	0	25	0	320864256	71	4645
2026-01-07 05:24:37.88	35.88	17.85	-52.3	-54.8	14.3	0.00e+00	0	25	0	326107136	71	4650
2026-01-07 05:24:41.03	35.27	18.06	-52.1	-54.7	14.2	0.00e+00	0	25	0	332398592	70	4839
2026-01-07 05:24:43.89	34.71	18.25	-51.7	-54.2	14.5	0.00e+00	0	25	0	337641472	70	4547
2026-01-07 05:24:47.03	34.08	18.46	-51.4	-53.7	14.7	0.00e+00	0	25	0	343932928	69	4555
2026-01-07 05:24:49.89	33.50	18.64	-51.4	-53.7	14.6	0.00e+00	0	25	0	349175808	69	4578
2026-01-07 05:24:53.03	32.86	18.84	-51.4	-53.7	14.6	0.00e+00	0	25	0	354418688	69	4547
2026-01-07 05:24:55.88	32.27	19.02	-51.3	-53.5	14.7	0.00e+00	0	25	0	359661568	69	4469
2026-01-07 05:24:59.02	31.61	19.22	-51.2	-53.3	14.6	0.00e+00	0	25	0	365953024	68	4635
2026-01-07 05:25:01.87	31.00	19.40	-51.1	-53.2	14.7	0.00e+00	0	25	0	371195904	68	4555
2026-01-07 05:25:05.00	30.32	19.59	-51.1	-53.2	14.7	0.00e+00	0	25	0	377487360	68	4562
2026-01-07 05:25:07.84	29.71	19.76	-51.4	-53.6	14.5	0.00e+00	0	25	0	382730240	68	4800
2026-01-07 05:25:10.98	29.01	19.95	-50.7	-52.7	14.9	0.00e+00	0	25	0	387973120	68	4328
2026-01-07 05:25:13.85	28.37	20.12	-50.8	-52.8	14.9	0.00e+00	0	25	0	394264576	68	4387
2026-01-07 05:25:16.99	27.66	20.30	-50.9	-52.9	14.9	0.00e+00	0	25	0	399507456	68	4403
2026-01-07 05:25:19.84	27.01	20.46	-50.8	-52.8	14.9	0.00e+00	0	25	0	404750336	68	4358
2026-01-07 05:25:22.98	26.29	20.63	-50.8	-52.8	14.9	0.00e+00	0	25	0	411041792	68	4349
2026-01-07 05:25:25.83	25.62	20.79	-50.5	-52.3	14.9	0.00e+00	0	25	0	416284672	67	4391
2026-01-07 05:25:28.98	24.88	20.96	-50.6	-52.4	14.9	0.00e+00	0	25	0	422576128	67	4413
2026-01-07 05:25:31.84	24.20	21.11	-50.2	-52.0	14.9	0.00e+00	0	25	0	427819008	66	4458
2026-01-07 05:25:34.99	23.44	21.27	-50.5	-52.3	14.8	0.00e+00	0	25	0	433061888	66	4613
2026-01-07 05:25:37.85	22.75	21.41	-50.4	-52.1	14.8	0.00e+00	0	25	0	438304768	66	4523
2026-01-07 05:25:40.99	21.97	21.56	-50.6	-52.4	14.7	0.00e+00	0	25	0	444596224	66	4698
2026-01-07 05:25:43.86	21.26	21.69	-50.5	-52.3	14.8	0.00e+00	0	25	0	449839104	66	4630
2026-01-07 05:25:47.00	20.48	21.83	-50.8	-52.7	14.8	0.00e+00	0	25	0	456130560	67	4548
2026-01-07 05:25:49.86	19.76	21.96	-50.4	-52.2	15.0	0.00e+00	0	25	0	461373440	67	4305
2026-01-07 05:25:53.00	18.96	22.09	-50.7	-52.5	14.8	0.00e+00	0	25	0	467664896	67	4480
2026-01-07 05:25:55.86	18.23	22.21	-50.5	-52.2	14.9	0.00e+00	0	25	0	472907776	67	4335
2026-01-07 05:25:59.00	17.42	22.33	-50.6	-52.3	14.9	0.00e+00	0	25	0	478150656	67	4379
2026-01-07 05:26:01.85	16.67	22.43	-50.7	-52.5	14.8	0.00e+00	0	25	0	483393536	67	4447
2026-01-07 05:26:04.99	15.85	22.54	-51.6	-53.6	14.5	0.00e+00	0	25	0	489684992	68	4774
2026-01-07 05:26:07.83	15.10	22.64	-52.5	-54.8	14.2	0.00e+00	0	25	0	494927872	70	4872
2026-01-07 05:26:10.97	14.27	22.74	-52.6	-55.0	14.1	0.00e+00	0	25	0	501219328	70	4987
2026-01-07 05:26:13.83	13.51	22.82	-52.2	-54.4	14.3	0.00e+00	0	25	0	506462208	70	4691
2026-01-07 05:26:16.97	12.66	22.91	-51.7	-53.7	14.6	0.00e+00	0	25	0	511705088	69	4585
2026-01-07 05:26:19.82	11.89	22.98	-52.1	-54.2	14.3	0.00e+00	0	25	0	516947968	69	4856
2026-01-07 05:26:22.97	11.04	23.06	-51.7	-53.7	14.6	0.00e+00	0	25	0	523239424	69	4584
2026-01-07 05:26:25.83	10.26	23.12	-52.1	-54.4	14.2	0.00e+00	0	25	0	528482304	69	4938
2026-01-07 05:26:28.97	9.40	23.18	-51.8	-53.9	14.4	0.00e+00	0	25	0	534773760	69	4703
2026-01-07 05:26:31.82	8.62	23.23	-52.4	-54.8	14.2	0.00e+00	0	25	0	540016640	70	4908
2026-01-07 05:26:34.96	7.76	23.28	-52.3	-54.7	14.2	0.00e+00	0	25	0	546308096	70	4849
2026-01-07 05:26:37.81	6.97	23.32	-52.4	-54.8	14.2	0.00e+00	0	25	0	551550976	70	4899
2026-01-07 05:26:40.94	6.10	23.35	-53.2	-55.9	13.7	0.00e+00	0	25	0	556793856	71	5244
2026-01-07 05:26:43.80	5.31	23.38	-53.4	-56.3	13.6	0.00e+00	0	25	0	562036736	72	5183
2026-01-07 05:26:46.94	4.44	23.40	-52.9	-55.5	14.1	0.00e+00	0	25	0	568328192	72	4719
2026-01-07 05:26:49.81	3.64	23.41	-52.0	-54.2	14.4	0.00e+00	0	25	0	573571072	70	4570
2026-01-07 05:26:52.95	2.77	23.42	-51.7	-54.0	14.4	0.00e+00	0	25	0	579862528	69	4712
2026-01-07 05:26:55.80	1.97	23.42	-52.1	-54.5	14.2	0.00e+00	0	25	0	585105408	69	5006
2026-01-07 05:26:58.92	1.11	23.42	-51.6	-53.7	14.5	0.00e+00	0	25	0	590348288	69	4598
2026-01-07 05:27:01.76	0.32	23.41	-51.7	-53.8	14.5	0.00e+00	0	25	0	595591168	69	4637
2026-01-07 05:27:04.89	359.45	23.39	-51.7	-53.9	14.5	0.00e+00	0	25	0	601882624	69	4671
2026-01-07 05:27:07.75	358.65	23.36	-51.5	-53.5	14.7	0.00e+00	0	25	0	607125504	69	4467
2026-01-07 05:27:10.89	357.78	23.33	-51.1	-53.0	14.7	0.00e+00	0	25	0	613416960	68	4463
2026-01-07 05:27:13.75	356.99	23.30	-51.8	-53.9	14.4	0.00e+00	0	25	0	618659840	68	4981
2026-01-07 05:27:16.89	356.13	23.25	-51.1	-52.9	14.8	0.00e+00	0	25	0	624951296	68	4405
2026-01-07 05:27:19.76	355.34	23.20	-51.1	-52.9	14.8	0.00e+00	0	25	0	630194176	68	4439
2026-01-07 05:27:22.91	354.48	23.14	-50.9	-52.7	14.9	0.00e+00	0	25	0	635437056	68	4297
2026-01-07 05:27:25.77	353.70	23.08	-50.7	-52.4	14.8	0.00e+00	0	25	0	640679936	67	4409
2026-01-07 05:27:28.90	352.85	23.01	-50.4	-52.1	15.0	0.00e+00	0	25	0	646971392	67	4249
2026-01-07 05:27:31.77	352.07	22.94	-50.9	-52.6	14.8	0.00e+00	0	25	0	652214272	67	4531
2026-01-07 05:27:34.91	351.23	22.85	-50.9	-52.7	14.7	0.00e+00	0	25	0	658505728	67	4568
2026-01-07 05:27:37.77	350.46	22.77	-50.9	-52.6	14.8	0.00e+00	0	25	0	663748608	67	4535
2026-01-07 05:27:40.91	349.63	22.67	-50.3	-51.9	15.0	0.00e+00	0	25	0	668991488	66	4436
2026-01-07 05:27:43.78	348.87	22.58	-51.2	-53.1	14.6	0.00e+00	0	25	0	675282944	67	4794
2026-01-07 05:27:46.92	348.04	22.47	-51.1	-52.9	14.6	0.00e+00	0	25	0	680525824	67	4677
2026-01-07 05:27:49.78	347.30	22.37	-50.8	-52.6	14.8	0.00e+00	0	25	0	685768704	67	4542
2026-01-07 05:27:52.93	346.48	22.25	-50.8	-53.0	14.7	0.00e+00	0	25	0	692060160	67	4722
2026-01-07 05:27:55.78	345.75	22.13	-50.9	-53.6	14.5	0.00e+00	0	25	0	697303040	67	5070
2026-01-07 05:27:58.92	344.95	22.00	-51.2	-54.7	14.1	0.00e+00	0	25	0	703594496	67	5772
2026-01-07 05:28:01.77	344.23	21.88	-51.4	-54.9	13.9	0.00e+00	0	25	0	708837376	67	5900
2026-01-07 05:28:04.90	343.44	21.74	-51.6	-54.5	14.2	0.00e+00	0	25	0	714080256	68	5303
2026-01-07 05:28:07.75	342.74	21.61	-51.8	-54.0	14.3	0.00e+00	0	25	0	719323136	68	5037
2026-01-07 05:28:10.89	341.96	21.46	-52.1	-54.3	14.3	0.00e+00	0	25	0	725614592	69	4897
2026-01-07 05:28:13.75	341.27	21.32	-51.6	-53.7	14.6	0.00e+00	0	25	0	730857472	69	4583
2026-01-07 05:28:16.89	340.51	21.16	-51.8	-53.9	14.5	0.00e+00	0	25	0	737148928	69	4666
2026-01-07 05:28:19.75	339.82	21.01	-51.6	-53.6	14.6	0.00e+00	0	25	0	742391808	69	4541
2026-01-07 05:28:22.90	339.08	20.85	-52.2	-54.4	14.2	0.00e+00	0	25	0	748683264	69	4977
2026-01-07 05:28:25.76	338.41	20.69	-52.4	-54.8	14.2	0.00e+00	0	25	0	753926144	70	4892
2026-01-07 05:28:28.91	337.68	20.52	-52.2	-54.5	14.3	0.00e+00	0	25	0	759169024	70	4749
2026-01-07 05:28:31.78	337.02	20.36	-52.7	-55.3	13.9	0.00e+00	0	25	0	764411904	70	5198
2026-01-07 05:28:34.90	336.31	20.18	-53.7	-57.0	13.2	0.00e+00	0	25	0	770703360	72	5655
2026-01-07 05:28:37.75	335.68	20.01	-53.3	-56.3	13.7	0.00e+00	0	25	0	775946240	73	4890
2026-01-07 05:28:40.90	334.98	19.83	-52.4	-54.9	14.3	0.00e+00	0	25	0	782237696	71	4660
2026-01-07 05:28:43.75	334.36	19.66	-52.1	-54.3	14.4	0.00e+00	0	25	0	787480576	70	4630
2026-01-07 05:28:46.89	333.68	19.46	-51.6	-53.8	14.5	0.00e+00	0	25	0	792723456	69	4602
2026-01-07 05:28:49.75	333.07	19.29	-51.1	-53.1	14.7	0.00e+00	0	25	0	799014912	68	4494
2026-01-07 05:28:52.90	332.40	19.09	-50.6	-52.5	14.8	0.00e+00	0	25	0	804257792	67	4462
2026-01-07 05:28:55.76	331.81	18.91	-50.4	-52.3	14.9	0.00e+00	0	25	0	809500672	67	4347
2026-01-07 05:28:58.90	331.16	18.71	-51.0	-53.1	14.5	0.00e+00	0	25	0	815792128	67	4768
2026-01-07 05:29:01.76	330.58	18.52	-52.4	-55.0	14.0	0.00e+00	0	25	0	821035008	70	4996
2026-01-07 05:29:04.88	329.95	18.32	-52.7	-55.4	13.8	0.00e+00	0	25	0	827326464	70	5274
2026-01-07 05:29:07.71	329.39	18.13	-52.4	-54.9	14.1	0.00e+00	0	25	0	832569344	70	4942
2026-01-07 05:29:10.84	328.78	17.93	-51.9	-54.2	14.4	0.00e+00	0	25	0	837812224	70	4554
2026-01-07 05:29:13.70	328.23	17.73	-51.5	-53.7	14.5	0.00e+00	0	25	0	843055104	69	4549
2026-01-07 05:29:16.86	327.63	17.52	-51.3	-53.3	14.6	0.00e+00	0	25	0	849346560	68	4634
2026-01-07 05:29:19.72	327.09	17.33	-51.8	-54.1	14.2	0.00e+00	0	25	0	854589440	68	5058
2026-01-07 05:29:22.86	326.51	17.11	-51.9	-54.2	14.3	0.00e+00	0	25	0	860880896	69	4825
2026-01-07 05:29:25.71	325.99	16.92	-51.7	-53.9	14.5	0.00e+00	0	25	0	866123776	69	4654
2026-01-07 05:29:28.85	325.43	16.70	-52.0	-54.2	14.3	0.00e+00	0	25	0	871366656	69	4855
2026-01-07 05:29:31.71	324.92	16.51	-52.0	-54.3	14.3	0.00e+00	0	25	0	877658112	69	4871
2026-01-07 05:29:34.84	324.37	16.29	-51.7	-53.8	14.5	0.00e+00	0	25	0	882900992	69	4645
2026-01-07 05:29:37.70	323.88	16.09	-51.4	-53.4	14.7	0.00e+00	0	25	0	888143872	69	4432
2026-01-07 05:29:40.84	323.34	15.87	-51.0	-52.9	14.8	0.00e+00	0	25	0	894435328	68	4410
2026-01-07 05:29:43.70	322.87	15.67	-51.4	-53.4	14.6	0.00e+00	0	25	0	899678208	68	4652
2026-01-07 05:29:46.85	322.34	15.45	-51.1	-52.9	14.7	0.00e+00	0	25	0	905969664	68	4439
2026-01-07 05:29:49.70	321.88	15.25	-50.2	-51.9	15.1	0.00e+00	0	25	0	911212544	67	4159
2026-01-07 05:29:52.85	321.37	15.03	-50.5	-52.2	14.9	0.00e+00	0	25	0	916455424	67	4306
2026-01-07 05:29:55.71	320.92	14.83	-50.8	-52.6	14.7	0.00e+00	0	25	0	921698304	67	4505
2026-01-07 05:29:58.85	320.43	14.61	-51.2	-53.1	14.5	0.00e+00	0	25	0	927989760	67	4764
2026-01-07 05:30:01.69	319.99	14.41	-51.1	-53.0	14.6	0.00e+00	0	25	0	933232640	67	4738
2026-01-07 05:30:04.82	319.52	14.19	-50.7	-52.4	14.8	0.00e+00	0	25	0	939524096	67	4419
2026-01-07 05:30:07.68	319.09	13.99	-50.6	-52.4	14.8	0.00e+00	0	25	0	944766976	67	4406
2026-01-07 05:30:10.82	318.63	13.77	-51.1	-53.0	14.6	0.00e+00	0	25	0	950009856	67	4708
2026-01-07 05:30:13.69	318.21	13.57	-51.8	-53.9	14.3	0.00e+00	0	25	0	956301312	68	4941
2026-01-07 05:30:16.83	317.76	13.35	-51.9	-53.9	14.4	0.00e+00	0	25	0	961544192	69	4695
2026-01-07 05:30:19.67	317.36	13.15	-51.8	-53.9	14.4	0.00e+00	0	25	0	966787072	69	4676
2026-01-07 05:30:22.82	316.92	12.93	-51.3	-53.2	14.8	0.00e+00	0	25	0	973078528	69	4294
2026-01-07 05:30:25.68	316.53	12.73	-51.1	-52.9	14.7	0.00e+00	0	25	0	978321408	68	4410
2026-01-07 05:30:28.82	316.11	12.51	-51.1	-52.8	14.7	0.00e+00	0	25	0	984612864	68	4391
2026-01-07 05:30:31.67	315.73	12.31	-51.8	-53.8	14.4	0.00e+00	0	25	0	989855744	68	4890
2026-01-07 05:30:34.80	315.32	12.09	-52.6	-54.9	14.0	0.00e+00	0	25	0	995098624	70	4976
2026-01-07 05:30:37.67	314.95	11.89	-52.2	-54.4	14.3	0.00e+00	0	25	0	1000341504	70	4663
2026-01-07 05:30:40.80	314.55	11.68	-52.1	-54.2	14.4	0.00e+00	0	25	0	1006632960	70	4564
2026-01-07 05:30:43.66	314.19	11.48	-51.8	-53.8	14.4	0.00e+00	0	25	0	1011875840	69	4646
2026-01-07 05:30:46.81	313.80	11.26	-51.8	-53.8	14.4	0.00e+00	0	25	0	1018167296	69	4633
2026-01-07 05:30:49.67	313.45	11.07	-51.8	-53.8	14.5	0.00e+00	0	25	0	1023410176	69	4618
2026-01-07 05:30:52.80	313.07	10.85	-51.8	-53.9	14.4	0.00e+00	0	25	0	1029701632	69	4669
2026-01-07 05:30:55.65	312.74	10.66	-52.2	-54.4	14.1	0.00e+00	0	25	0	1034944512	69	4955
2026-01-07 05:30:58.79	312.37	10.44	-52.4	-54.7	14.1	0.00e+00	0	25	0	1040187392	70	4841
2026-01-07 05:31:01.65	312.04	10.25	-52.5	-54.8	14.1	0.00e+00	0	25	0	1045430272	70	4914
2026-01-07 05:31:04.79	311.68	10.04	-52.6	-55.0	14.0	0.00e+00	0	25	0	1051721728	70	5015
2026-01-07 05:31:07.64	311.36	9.85	-52.6	-55.1	13.9	0.00e+00	0	25	0	1056964608	70	5058
2026-01-07 05:31:10.78	311.02	9.63	-53.2	-55.9	13.6	0.00e+00	0	25	0	1063256064	71	5223
2026-01-07 05:31:13.64	310.70	9.44	-53.1	-55.7	13.7	0.00e+00	0	25	0	1068498944	71	5136
2026-01-07 05:31:16.78	310.37	9.23	-52.7	-55.1	14.0	0.00e+00	0	25	0	1073741824	71	4808
2026-01-07 05:31:19.63	310.07	9.04	-52.4	-54.7	14.2	0.00e+00	0	25	0	1080033280	71	4552
2026-01-07 05:31:22.76	309.74	8.84	-52.2	-54.4	14.2	0.00e+00	0	25	0	1085276160	70	4695
2026-01-07 05:31:25.61	309.45	8.65	-52.4	-54.7	14.1	0.00e+00	0	25	0	1090519040	70	4833
2026-01-07 05:31:28.76	309.13	8.44	-52.7	-55.1	13.9	0.00e+00	0	25	0	1096810496	70	5092
2026-01-07 05:31:31.61	308.84	8.26	-52.7	-55.1	14.0	0.00e+00	0	25	0	1102053376	71	4789
2026-01-07 05:31:34.75	308.53	8.05	-52.6	-55.0	14.0	0.00e+00	0	25	0	1108344832	71	4731
2026-01-07 05:31:37.61	308.25	7.86	-52.6	-55.0	14.0	0.00e+00	0	25	0	1113587712	71	4719
2026-01-07 05:31:40.74	307.95	7.66	-52.6	-55.0	14.1	0.00e+00	0	25	0	1118830592	71	4706
2026-01-07 05:31:43.60	307.68	7.48	-52.7	-55.0	14.0	0.00e+00	0	25	0	1124073472	71	4759
2026-01-07 05:31:46.74	307.39	7.28	-52.9	-55.5	13.8	0.00e+00	0	25	0	1130364928	71	4993
2026-01-07 05:31:49.59	307.13	7.09	-53.2	-55.9	13.5	0.00e+00	0	25	0	1135607808	71	5224
2026-01-07 05:31:52.75	306.84	6.89	-53.4	-56.2	13.4	0.00e+00	0	25	0	1141899264	72	5129
2026-01-07 05:31:55.60	306.58	6.71	-53.7	-56.8	13.0	0.00e+00	0	25	0	1147142144	72	5481
2026-01-07 05:31:58.73	306.31	6.52	-54.1	-57.4	12.7	0.00e+00	0	25	0	1152385024	73	5579
2026-01-07 05:32:01.59	306.06	6.34	-54.3	-57.7	12.5	0.00e+00	0	25	0	1158676480	73	5755
2026-01-07 05:32:04.73	305.79	6.14	-54.3	-57.7	12.4	0.00e+00	0	25	0	1163919360	73	5781
2026-01-07 05:32:07.58	305.54	5.96	-54.2	-57.5	12.7	0.00e+00	0	25	0	1169162240	74	5326
2026-01-07 05:32:10.74	305.28	5.77	-54.2	-57.5	12.7	0.00e+00	0	26	0	1175453696	74	5327
2026-01-07 05:32:13.58	305.04	5.59	-54.3	-57.7	12.6	0.00e+00	0	25	0	1180696576	74	5454
2026-01-07 05:32:16.71	304.79	5.40	-54.4	-58.0	12.4	0.00e+00	0	25	0	1186988032	74	5617
2026-01-07 05:32:19.56	304.56	5.22	-54.6	-58.4	12.1	2.20e-06	0	25	0	1192230912	74	5897
2026-01-07 05:32:22.71	304.31	5.03	-54.6	-58.5	11.9	3.80e-06	0	25	0	1197473792	74	5988
2026-01-07 05:32:25.57	304.08	4.86	-58.6	-74.5	3.8	1.49e+00	0	25	104	1199570944	82	23849
2026-01-07 05:32:28.72	303.84	4.67	-59.2	-75.3	3.8	1.49e+00	0	25	104	1199570944	83	24530
2026-01-07 05:32:31.58	303.62	4.49	-59.8	-75.9	3.8	1.49e+00	0	25	104	1199570944	84	24755
2026-01-07 05:32:34.73	303.38	4.30	-60.1	-76.2	3.8	1.49e+00	0	26	104	1199570944	85	24132
2026-01-07 05:32:37.58	303.17	4.13	-60.2	-76.3	3.8	1.49e+00	0	26	104	1199570944	85	24533
2026-01-07 05:32:40.71	302.94	3.95	-60.3	-76.4	3.8	1.49e+00	0	25	104	1199570944	85	24826
2026-01-07 05:32:43.57	302.73	3.78	-60.4	-76.5	3.8	1.49e+00	0	25	104	1199570944	85	25052
2026-01-07 05:32:46.73	302.50	3.59	-60.3	-76.4	3.8	1.49e+00	0	26	104	1199570944	85	24935
2026-01-07 05:32:49.59	302.30	3.43	-60.3	-76.4	3.8	1.49e+00	0	25	104	1199570944	85	24730
2026-01-07 05:32:52.74	302.08	3.24	-60.2	-76.3	3.8	1.49e+00	0	26	104	1199570944	85	24432
2026-01-07 05:32:55.59	301.88	3.08	-60.1	-76.2	3.8	1.49e+00	0	26	104	1199570944	85	24314
2026-01-07 05:32:58.74	301.67	2.89	-60.1	-76.2	3.8	1.49e+00	0	25	104	1199570944	85	24248
2026-01-07 05:33:01.60	301.48	2.73	-60.1	-76.2	3.8	1.49e+00	0	25	104	1199570944	85	24256
2026-01-07 05:33:04.74	301.27	2.55	-60.1	-76.2	3.8	1.49e+00	0	25	104	1199570944	85	24218
2026-01-07 05:33:07.60	301.08	2.38	-60.1	-76.2	3.8	1.49e+00	0	26	104	1199570944	85	24131
2026-01-07 05:33:10.75	300.88	2.20	-60.1	-76.2	3.8	1.49e+00	0	26	104	1199570944	85	24152
2026-01-07 05:33:13.61	300.69	2.04	-60.0	-76.2	3.8	1.49e+00	0	25	104	1199570944	85	24135

#Closed at: 2026-01-07 05:33:16
#Recorded file [1199 MB]: D:/lorett/data/31004_260107_082037.dat