passes_logs/2026/01/07/R3.2S_Murmansk/R3.2S_Murmansk__20260107_030155_FENGYUN_3D_rec.log

#Pass ID: 20260107_030155_FENGYUN 3D
#Satellite: FENGYUN 3D
#Configuration: FENGYUN 3D
#almurnet v.1.7.20251203
#Start time: 2026-01-07 03:01:56

#Version: 2.2.20231116
#Station: R3.2S_Murmansk
#Location: 33.079688 lon 68.888172 lat
#TLE: 1 43010U 17072A   26006.26440730  .00000376  00000+0  19957-3 0  9994
#TLE: 2 43010  98.9925 337.9455 0002045 123.9195 236.2175 14.19693586422016

#Time	Az	El	Level	Level2	SNR	BER	BlckErr	Temp	State	Recorded	gain1	gain2
2026-01-07 03:01:56.94	26.22	2.11	-57.5	-70.5	3.8	8.43e-01	0	23	0	0	81	15847
2026-01-07 03:02:00.94	26.21	2.37	-57.5	-70.5	3.8	8.45e-01	0	24	104	0	80	16778
2026-01-07 03:02:04.94	26.20	2.63	-57.5	-70.5	3.8	8.46e-01	0	24	104	0	80	16760
2026-01-07 03:02:08.95	26.18	2.89	-57.5	-70.2	3.8	8.47e-01	0	24	104	0	80	16277
2026-01-07 03:02:12.95	26.17	3.15	-57.5	-70.0	3.8	8.45e-01	0	24	104	0	80	15763
2026-01-07 03:02:16.96	26.16	3.42	-57.5	-70.3	3.8	8.46e-01	0	24	104	0	80	16362
2026-01-07 03:02:20.96	26.14	3.69	-57.3	-67.7	4.0	8.42e-01	0	24	0	0	80	12142
2026-01-07 03:02:24.97	26.12	3.96	-55.8	-60.8	7.9	6.77e-02	0	24	0	10485760	78	6152
2026-01-07 03:02:28.98	26.11	4.24	-53.8	-56.8	11.2	3.11e-04	0	24	0	32505856	74	4872
2026-01-07 03:02:32.98	26.09	4.52	-53.1	-55.7	11.8	1.60e-05	0	24	0	54525952	72	4839
2026-01-07 03:02:36.99	26.07	4.80	-53.5	-56.4	11.3	8.01e-05	0	24	0	77594624	72	5223
2026-01-07 03:02:40.99	26.05	5.08	-54.4	-57.8	10.4	1.18e-03	0	24	0	100663296	74	5507
2026-01-07 03:02:44.98	26.04	5.37	-56.5	-63.7	5.6	2.74e-02	0	24	0	122683392	78	8659
2026-01-07 03:02:48.98	26.02	5.66	-50.1	-51.7	14.1	0.00e+00	0	24	0	144703488	66	4305
2026-01-07 03:02:52.96	26.00	5.95	-49.9	-51.5	14.2	0.00e+00	0	25	0	166723584	66	4196
2026-01-07 03:02:56.97	25.97	6.25	-49.8	-51.3	14.3	0.00e+00	0	25	0	189792256	66	4139
2026-01-07 03:03:00.97	25.95	6.55	-49.5	-50.9	14.4	0.00e+00	0	25	0	211812352	65	4175
2026-01-07 03:03:04.96	25.93	6.85	-49.4	-50.9	14.4	0.00e+00	0	25	0	234881024	65	4170
2026-01-07 03:03:08.96	25.90	7.16	-49.4	-50.9	14.4	0.00e+00	0	25	0	256901120	65	4169
2026-01-07 03:03:12.97	25.88	7.47	-49.0	-50.4	14.5	0.00e+00	0	25	0	279969792	64	4188
2026-01-07 03:03:16.97	25.85	7.79	-48.9	-50.2	14.7	0.00e+00	0	25	0	301989888	64	4089
2026-01-07 03:03:20.98	25.83	8.11	-48.8	-50.2	14.7	0.00e+00	0	25	0	325058560	64	4067
2026-01-07 03:03:24.99	25.80	8.43	-48.9	-50.2	14.5	0.00e+00	0	25	0	347078656	63	4317
2026-01-07 03:03:28.99	25.77	8.76	-48.7	-50.0	14.6	0.00e+00	0	25	0	370147328	63	4239
2026-01-07 03:03:32.97	25.74	9.09	-48.5	-49.8	14.8	0.00e+00	0	25	0	392167424	63	4124
2026-01-07 03:03:36.95	25.71	9.42	-48.4	-49.7	14.9	0.00e+00	0	25	0	414187520	63	4052
2026-01-07 03:03:40.93	25.68	9.76	-48.2	-49.5	14.8	0.00e+00	0	25	0	437256192	62	4196
2026-01-07 03:03:44.92	25.65	10.10	-48.1	-49.3	14.8	0.00e+00	0	25	0	459276288	62	4136
2026-01-07 03:03:48.92	25.61	10.45	-48.1	-49.3	14.9	0.00e+00	0	25	0	482344960	62	4137
2026-01-07 03:03:52.92	25.58	10.81	-48.1	-49.4	14.8	0.00e+00	0	25	0	504365056	62	4155
2026-01-07 03:03:56.92	25.54	11.17	-48.0	-49.3	14.9	0.00e+00	0	25	0	527433728	62	4117
2026-01-07 03:04:00.93	25.50	11.54	-47.9	-49.1	15.0	0.00e+00	0	25	0	549453824	62	4040
2026-01-07 03:04:04.94	25.46	11.91	-47.8	-49.1	15.0	0.00e+00	0	25	0	572522496	62	4018
2026-01-07 03:04:08.93	25.42	12.28	-47.9	-49.1	15.0	0.00e+00	0	25	0	594542592	62	4027
2026-01-07 03:04:12.94	25.38	12.67	-47.7	-49.0	15.1	0.00e+00	0	25	0	617611264	62	3964
2026-01-07 03:04:16.96	25.33	13.06	-47.8	-49.1	15.0	0.00e+00	0	25	0	639631360	62	4005
2026-01-07 03:04:20.95	25.29	13.45	-47.6	-48.8	15.0	0.00e+00	0	25	0	662700032	61	4119
2026-01-07 03:04:24.96	25.24	13.85	-47.3	-48.5	15.1	0.00e+00	0	25	0	684720128	61	3990
2026-01-07 03:04:28.96	25.19	14.26	-47.4	-48.5	15.1	0.00e+00	0	25	0	706740224	61	4002
2026-01-07 03:04:32.94	25.14	14.68	-47.1	-48.3	15.1	0.00e+00	0	25	0	729808896	60	4117
2026-01-07 03:04:36.95	25.09	15.10	-46.9	-48.0	15.1	0.00e+00	0	25	0	751828992	60	4001
2026-01-07 03:04:40.94	25.03	15.53	-46.8	-48.0	15.2	0.00e+00	0	25	0	774897664	60	3972
2026-01-07 03:04:44.95	24.97	15.97	-47.1	-48.3	15.0	0.00e+00	0	25	0	796917760	59	4352
2026-01-07 03:04:48.95	24.91	16.41	-46.9	-48.1	15.1	0.00e+00	0	25	0	819986432	59	4247
2026-01-07 03:04:52.96	24.85	16.87	-46.8	-47.9	15.1	0.00e+00	0	25	0	842006528	59	4171
2026-01-07 03:04:56.97	24.79	17.33	-46.6	-47.7	15.2	0.00e+00	0	25	0	865075200	59	4097
2026-01-07 03:05:00.98	24.72	17.80	-46.5	-47.6	15.2	0.00e+00	0	25	0	887095296	59	4051
2026-01-07 03:05:04.97	24.65	18.28	-46.5	-47.6	15.2	0.00e+00	0	25	0	910163968	59	4034
2026-01-07 03:05:08.97	24.58	18.77	-46.0	-47.1	15.3	0.00e+00	0	25	0	932184064	58	4014
2026-01-07 03:05:12.95	24.50	19.27	-46.0	-47.1	15.3	0.00e+00	0	25	0	954204160	58	4022
2026-01-07 03:05:16.94	24.43	19.78	-46.0	-47.1	15.3	0.00e+00	0	25	0	977272832	58	4009
2026-01-07 03:05:20.94	24.35	20.30	-46.1	-47.2	15.2	0.00e+00	0	25	0	999292928	58	4066
2026-01-07 03:05:24.94	24.26	20.83	-46.2	-47.3	15.2	0.00e+00	0	25	0	1022361600	58	4135
2026-01-07 03:05:28.93	24.17	21.37	-46.1	-47.2	15.2	0.00e+00	0	25	0	1044381696	58	4068
2026-01-07 03:05:32.94	24.08	21.93	-46.1	-47.2	15.2	0.00e+00	0	25	0	1067450368	58	4071
2026-01-07 03:05:36.92	23.98	22.49	-46.1	-47.2	15.3	0.00e+00	0	25	0	1089470464	58	4061
2026-01-07 03:05:40.91	23.88	23.07	-45.9	-47.0	15.3	0.00e+00	0	25	0	1111490560	58	3997
2026-01-07 03:05:44.90	23.78	23.66	-45.8	-46.9	15.4	0.00e+00	0	25	0	1134559232	58	3914
2026-01-07 03:05:48.91	23.67	24.27	-45.5	-46.6	15.3	0.00e+00	0	25	0	1156579328	57	4005
2026-01-07 03:05:52.90	23.56	24.89	-45.4	-46.4	15.4	0.00e+00	0	25	0	1179648000	57	3947
2026-01-07 03:05:56.90	23.44	25.53	-45.4	-46.5	15.4	0.00e+00	0	25	0	1201668096	57	3964
2026-01-07 03:06:00.90	23.31	26.18	-45.2	-46.3	15.4	0.00e+00	0	25	0	1224736768	57	3885
2026-01-07 03:06:04.90	23.18	26.85	-44.9	-46.0	15.4	0.00e+00	0	25	0	1246756864	56	3968
2026-01-07 03:06:08.89	23.04	27.53	-44.9	-45.9	15.4	0.00e+00	0	25	0	1269825536	56	3932
2026-01-07 03:06:12.89	22.90	28.23	-45.1	-46.1	15.3	0.00e+00	0	25	0	1291845632	56	4038
2026-01-07 03:06:16.89	22.74	28.95	-45.2	-46.2	15.3	0.00e+00	0	25	0	1314914304	56	4095
2026-01-07 03:06:20.89	22.58	29.69	-45.1	-46.2	15.3	0.00e+00	0	25	0	1336934400	56	4080
2026-01-07 03:06:24.89	22.42	30.45	-45.2	-46.3	15.3	0.00e+00	0	25	0	1358954496	56	4128
2026-01-07 03:06:28.89	22.24	31.22	-44.9	-46.0	15.4	0.00e+00	0	25	0	1382023168	56	3962
2026-01-07 03:06:32.89	22.05	32.02	-44.6	-45.6	15.3	0.00e+00	0	25	0	1404043264	55	4035
2026-01-07 03:06:36.89	21.86	32.84	-44.6	-45.6	15.3	0.00e+00	0	25	0	1427111936	55	4036
2026-01-07 03:06:40.87	21.65	33.68	-44.7	-45.8	15.3	0.00e+00	0	25	0	1449132032	55	4119
2026-01-07 03:06:44.85	21.43	34.54	-44.6	-45.6	15.3	0.00e+00	0	25	0	1471152128	55	4041
2026-01-07 03:06:48.85	21.20	35.43	-44.2	-45.3	15.5	0.00e+00	0	25	0	1494220800	55	3872
2026-01-07 03:06:52.85	20.95	36.35	-44.6	-45.6	15.3	0.00e+00	0	25	0	1516240896	55	4040
2026-01-07 03:06:56.86	20.68	37.29	-44.6	-45.7	15.3	0.00e+00	0	25	0	1539309568	55	4063
2026-01-07 03:07:00.86	20.41	38.26	-44.7	-45.8	15.3	0.00e+00	0	25	0	1561329664	55	4100
2026-01-07 03:07:04.85	20.11	39.26	-44.5	-45.5	15.4	0.00e+00	0	25	0	1584398336	55	4003
2026-01-07 03:07:08.85	19.79	40.28	-44.8	-45.8	15.3	0.00e+00	0	26	0	1606418432	55	4131
2026-01-07 03:07:12.85	19.45	41.33	-44.9	-46.0	15.3	0.00e+00	0	25	0	1629487104	55	4228
2026-01-07 03:07:16.86	19.08	42.42	-45.1	-46.2	15.2	0.00e+00	0	25	0	1651507200	55	4304
2026-01-07 03:07:20.86	18.69	43.54	-44.9	-46.0	15.3	0.00e+00	0	25	0	1674575872	55	4216
2026-01-07 03:07:24.87	18.27	44.69	-45.3	-46.4	15.2	0.00e+00	0	25	0	1696595968	55	4397
2026-01-07 03:07:28.89	17.81	45.87	-45.8	-46.9	15.2	0.00e+00	0	25	0	1719664640	56	4403
2026-01-07 03:07:32.87	17.32	47.08	-45.3	-46.3	15.3	0.00e+00	0	25	0	1741684736	56	4137
2026-01-07 03:07:36.88	16.79	48.33	-45.2	-46.2	15.3	0.00e+00	0	25	0	1763704832	56	4098
2026-01-07 03:07:40.87	16.21	49.60	-45.4	-46.5	15.3	0.00e+00	0	25	0	1786773504	56	4209
2026-01-07 03:07:44.87	15.58	50.92	-46.0	-47.1	15.2	0.00e+00	0	26	0	1808793600	57	4272
2026-01-07 03:07:48.86	14.89	52.26	-46.7	-47.9	15.1	0.00e+00	0	26	0	1831862272	58	4397
2026-01-07 03:07:52.86	14.13	53.64	-46.3	-47.4	15.2	0.00e+00	0	26	0	1853882368	58	4159
2026-01-07 03:07:56.86	13.29	55.06	-46.5	-47.6	15.2	0.00e+00	0	25	0	1876951040	58	4289
2026-01-07 03:08:00.87	12.35	56.51	-46.0	-47.1	15.3	0.00e+00	0	26	0	1898971136	58	4036
2026-01-07 03:08:04.87	11.32	57.98	-45.7	-46.8	15.4	0.00e+00	0	26	0	1922039808	58	3889
2026-01-07 03:08:08.87	10.16	59.49	-45.3	-46.4	15.4	0.00e+00	0	25	0	1944059904	57	3916
2026-01-07 03:08:12.88	8.85	61.02	-45.2	-46.2	15.5	0.00e+00	0	25	0	1967128576	57	3848
2026-01-07 03:08:16.89	7.37	62.57	-45.0	-46.0	15.4	0.00e+00	0	25	0	1989148672	56	3975
2026-01-07 03:08:20.89	5.68	64.14	-45.2	-46.3	15.3	0.00e+00	0	25	0	2012217344	56	4104
2026-01-07 03:08:24.90	3.74	65.72	-45.4	-46.5	15.3	0.00e+00	0	26	0	2034237440	56	4205
2026-01-07 03:08:28.91	1.50	67.30	-44.4	-45.5	15.4	0.00e+00	0	25	0	2057306112	55	3976
2026-01-07 03:08:32.91	358.89	68.88	-44.4	-45.4	15.3	0.00e+00	0	25	0	2079326208	54	4186
2026-01-07 03:08:36.92	355.82	70.43	-43.8	-44.8	15.5	0.00e+00	0	25	0	2102394880	54	3895
2026-01-07 03:08:40.92	352.20	71.94	-44.0	-45.1	15.3	0.00e+00	0	25	0	2124414976	53	4249
2026-01-07 03:08:44.92	347.89	73.39	-44.1	-45.1	15.3	0.00e+00	0	25	0	2146435072	53	4265
2026-01-07 03:08:48.93	342.72	74.75	-43.7	-44.7	15.4	0.00e+00	0	25	0	2169503744	53	4074
2026-01-07 03:08:52.93	336.56	75.98	-43.2	-44.1	15.4	0.00e+00	0	25	0	2191523840	52	4048
2026-01-07 03:08:56.93	329.27	77.03	-43.1	-44.0	15.4	0.00e+00	0	25	0	2214592512	52	4001
2026-01-07 03:09:00.92	320.83	77.85	-42.5	-43.5	15.5	0.00e+00	0	25	0	2236612608	51	3975
2026-01-07 03:09:04.93	311.33	78.38	-42.8	-43.8	15.4	0.00e+00	0	25	0	2259681280	51	4129
2026-01-07 03:09:08.93	301.23	78.57	-42.4	-43.4	15.4	0.00e+00	0	25	0	2281701376	51	3923
2026-01-07 03:09:12.94	291.08	78.41	-42.5	-43.4	15.4	0.00e+00	0	25	0	2304770048	51	3942
2026-01-07 03:09:16.92	281.57	77.91	-42.9	-43.8	15.4	0.00e+00	0	25	0	2326790144	51	4144
2026-01-07 03:09:20.93	272.99	77.12	-43.1	-44.1	15.4	0.00e+00	0	25	0	2349858816	51	4263
2026-01-07 03:09:24.92	265.60	76.09	-43.2	-44.3	15.4	0.00e+00	0	25	0	2371878912	51	4341
2026-01-07 03:09:28.94	259.31	74.87	-43.3	-44.3	15.4	0.00e+00	0	25	0	2394947584	52	4112
2026-01-07 03:09:32.94	254.07	73.51	-43.7	-44.7	15.3	0.00e+00	0	25	0	2416967680	52	4340
2026-01-07 03:09:36.93	249.70	72.07	-43.9	-44.9	15.3	0.00e+00	0	25	0	2438987776	52	4439
2026-01-07 03:09:40.94	246.00	70.56	-44.3	-45.3	15.3	0.00e+00	0	25	0	2462056448	53	4370
2026-01-07 03:09:44.91	242.92	69.02	-44.5	-45.5	15.3	0.00e+00	0	25	0	2484076544	54	4234
2026-01-07 03:09:48.90	240.27	67.45	-44.9	-46.0	15.3	0.00e+00	0	25	0	2507145216	54	4446
2026-01-07 03:09:52.89	238.00	65.87	-44.6	-45.6	15.3	0.00e+00	0	25	0	2529165312	54	4282
2026-01-07 03:09:56.91	236.03	64.29	-44.3	-45.4	15.3	0.00e+00	0	25	0	2552233984	54	4153
2026-01-07 03:10:00.91	234.32	62.71	-44.5	-45.5	15.3	0.00e+00	0	25	0	2574254080	54	4231
2026-01-07 03:10:04.91	232.82	61.16	-44.4	-45.4	15.3	0.00e+00	0	25	0	2597322752	54	4183
2026-01-07 03:10:08.91	231.50	59.62	-45.3	-46.3	15.2	0.00e+00	0	25	0	2619342848	55	4371
2026-01-07 03:10:12.88	230.33	58.13	-45.6	-46.7	15.2	0.00e+00	0	25	0	2641362944	56	4294
2026-01-07 03:10:16.87	229.28	56.65	-45.9	-47.0	15.2	0.00e+00	0	25	0	2664431616	57	4207
2026-01-07 03:10:20.87	228.34	55.19	-46.7	-47.8	15.1	0.00e+00	0	25	0	2686451712	58	4384
2026-01-07 03:10:24.88	227.48	53.77	-46.3	-47.4	15.2	0.00e+00	0	25	0	2709520384	58	4172
2026-01-07 03:10:28.89	226.71	52.38	-45.8	-46.9	15.4	0.00e+00	0	25	0	2731540480	58	3922
2026-01-07 03:10:32.90	226.01	51.02	-45.3	-46.3	15.4	0.00e+00	0	25	0	2754609152	57	3889
2026-01-07 03:10:36.91	225.37	49.70	-45.5	-46.6	15.3	0.00e+00	0	25	0	2776629248	57	4042
2026-01-07 03:10:40.89	224.78	48.42	-45.0	-46.0	15.4	0.00e+00	0	25	0	2799697920	56	3982
2026-01-07 03:10:44.88	224.25	47.17	-45.3	-46.3	15.3	0.00e+00	0	25	0	2821718016	56	4130
2026-01-07 03:10:48.87	223.75	45.95	-45.2	-46.3	15.3	0.00e+00	0	25	0	2843738112	56	4126
2026-01-07 03:10:52.84	223.29	44.77	-45.3	-46.4	15.3	0.00e+00	0	25	0	2866806784	56	4154
2026-01-07 03:10:56.84	222.87	43.62	-45.2	-46.2	15.3	0.00e+00	0	25	0	2888826880	56	4085
2026-01-07 03:11:00.83	222.47	42.50	-45.1	-46.2	15.3	0.00e+00	0	26	0	2911895552	56	4055
2026-01-07 03:11:04.82	222.11	41.41	-44.7	-45.7	15.5	0.00e+00	0	25	0	2933915648	56	3847
2026-01-07 03:11:08.82	221.76	40.35	-44.2	-45.2	15.5	0.00e+00	0	25	0	2955935744	55	3862
2026-01-07 03:11:12.82	221.44	39.32	-44.1	-45.2	15.4	0.00e+00	0	25	0	2979004416	54	4056
2026-01-07 03:11:16.83	221.14	38.31	-44.3	-45.3	15.3	0.00e+00	0	25	0	3001024512	54	4115
2026-01-07 03:11:20.83	220.85	37.34	-44.4	-45.5	15.3	0.00e+00	0	25	0	3024093184	54	4205
2026-01-07 03:11:24.82	220.59	36.39	-44.5	-45.5	15.3	0.00e+00	0	25	0	3046113280	54	4215
2026-01-07 03:11:28.82	220.34	35.47	-44.5	-45.5	15.3	0.00e+00	0	25	0	3069181952	54	4222
2026-01-07 03:11:32.82	220.10	34.57	-44.6	-45.7	15.3	0.00e+00	0	26	0	3091202048	54	4309
2026-01-07 03:11:36.83	219.88	33.70	-44.7	-45.7	15.3	0.00e+00	0	25	0	3114270720	54	4333
2026-01-07 03:11:40.83	219.67	32.85	-44.7	-45.8	15.2	0.00e+00	0	25	0	3136290816	54	4341
2026-01-07 03:11:44.83	219.47	32.03	-44.9	-46.0	15.2	0.00e+00	0	25	0	3159359488	54	4462
2026-01-07 03:11:48.83	219.28	31.22	-45.0	-46.0	15.3	0.00e+00	0	25	0	3181379584	55	4237
2026-01-07 03:11:52.84	219.10	30.44	-44.9	-46.0	15.3	0.00e+00	0	25	0	3204448256	55	4211
2026-01-07 03:11:56.84	218.93	29.68	-44.9	-45.9	15.3	0.00e+00	0	25	0	3226468352	55	4185
2026-01-07 03:12:00.84	218.77	28.94	-44.6	-45.7	15.3	0.00e+00	0	25	0	3249537024	55	4054
2026-01-07 03:12:04.85	218.61	28.21	-44.7	-45.7	15.3	0.00e+00	0	25	0	3271557120	55	4088
2026-01-07 03:12:08.84	218.47	27.51	-44.9	-46.0	15.3	0.00e+00	0	26	0	3294625792	55	4198
2026-01-07 03:12:12.86	218.32	26.82	-45.0	-46.1	15.2	0.00e+00	0	25	0	3316645888	55	4244
2026-01-07 03:12:16.87	218.19	26.14	-45.0	-46.0	15.3	0.00e+00	0	26	0	3338665984	55	4231
2026-01-07 03:12:20.87	218.06	25.49	-44.9	-45.9	15.3	0.00e+00	0	25	0	3361734656	55	4185
2026-01-07 03:12:24.85	217.94	24.85	-45.0	-46.0	15.2	0.00e+00	0	25	0	3383754752	55	4221
2026-01-07 03:12:28.85	217.83	24.23	-45.2	-46.2	15.2	0.00e+00	0	25	0	3406823424	55	4327
2026-01-07 03:12:32.85	217.71	23.62	-45.4	-46.4	15.2	0.00e+00	0	26	0	3428843520	55	4438
2026-01-07 03:12:36.85	217.61	23.02	-45.7	-46.8	15.1	0.00e+00	0	26	0	3451912192	56	4387
2026-01-07 03:12:40.83	217.51	22.44	-45.9	-47.0	15.1	0.00e+00	0	26	0	3473932288	56	4461
2026-01-07 03:12:44.83	217.41	21.87	-45.8	-47.0	15.2	0.00e+00	0	26	0	3495952384	57	4198
2026-01-07 03:12:48.82	217.31	21.32	-46.0	-47.1	15.2	0.00e+00	0	26	0	3519021056	57	4247
2026-01-07 03:12:52.82	217.22	20.77	-46.1	-47.2	15.1	0.00e+00	0	25	0	3541041152	57	4312
2026-01-07 03:12:56.81	217.14	20.24	-46.0	-47.1	15.1	0.00e+00	0	26	0	3564109824	57	4288
2026-01-07 03:13:00.80	217.05	19.72	-46.2	-47.4	15.1	0.00e+00	0	25	0	3586129920	57	4401
2026-01-07 03:13:04.81	216.97	19.20	-46.1	-47.2	15.1	0.00e+00	0	25	0	3609198592	57	4338
2026-01-07 03:13:08.80	216.90	18.70	-46.2	-47.3	15.1	0.00e+00	0	26	0	3631218688	57	4381
2026-01-07 03:13:12.81	216.82	18.21	-46.3	-47.4	15.1	0.00e+00	0	26	0	3654287360	57	4413
2026-01-07 03:13:16.81	216.75	17.73	-46.4	-47.5	15.1	0.00e+00	0	26	0	3676307456	58	4240
2026-01-07 03:13:20.79	216.68	17.26	-46.6	-47.7	15.0	0.00e+00	0	25	0	3699376128	58	4337
2026-01-07 03:13:24.78	216.61	16.79	-46.8	-47.9	15.0	0.00e+00	0	26	0	3721396224	58	4432
2026-01-07 03:13:28.79	216.55	16.34	-47.0	-48.1	15.0	0.00e+00	0	25	0	3743416320	59	4289
2026-01-07 03:13:32.80	216.49	15.89	-47.2	-48.4	14.9	0.00e+00	0	26	0	3766484992	59	4405
2026-01-07 03:13:36.80	216.43	15.45	-47.3	-48.5	14.9	0.00e+00	0	26	0	3788505088	59	4493
2026-01-07 03:13:40.80	216.37	15.02	-47.1	-48.3	15.0	0.00e+00	0	25	0	3811573760	60	4112
2026-01-07 03:13:44.80	216.32	14.59	-47.1	-48.3	15.0	0.00e+00	0	25	0	3833593856	60	4123
2026-01-07 03:13:48.80	216.26	14.18	-47.3	-48.5	15.0	0.00e+00	0	25	0	3856662528	60	4200
2026-01-07 03:13:52.80	216.21	13.77	-47.3	-48.5	14.9	0.00e+00	0	25	0	3878682624	60	4237
2026-01-07 03:13:56.78	216.16	13.37	-47.4	-48.6	14.9	0.00e+00	0	26	0	3900702720	60	4249
2026-01-07 03:14:00.79	216.11	12.97	-47.5	-48.7	14.8	0.00e+00	0	26	0	3923771392	60	4331
2026-01-07 03:14:04.80	216.07	12.58	-47.5	-48.6	14.9	0.00e+00	0	25	0	3946840064	60	4289
2026-01-07 03:14:08.82	216.02	12.19	-47.7	-48.9	14.8	0.00e+00	0	26	0	3968860160	60	4441
2026-01-07 03:14:12.83	215.98	11.81	-47.8	-49.0	14.7	0.00e+00	0	26	0	3990880256	60	4491
2026-01-07 03:14:16.84	215.94	11.44	-47.8	-48.9	14.9	0.00e+00	0	26	0	4013948928	61	4193
2026-01-07 03:14:20.85	215.90	11.07	-47.8	-49.1	14.8	0.00e+00	0	26	0	4037017600	61	4256
2026-01-07 03:14:24.84	215.86	10.71	-48.0	-49.2	14.8	0.00e+00	0	26	0	4059037696	61	4325
2026-01-07 03:14:28.85	215.82	10.35	-48.1	-49.3	14.7	0.00e+00	0	26	0	4082106368	61	4375
2026-01-07 03:14:32.84	215.78	10.00	-48.2	-49.5	14.7	0.00e+00	0	26	0	4104126464	61	4464
2026-01-07 03:14:36.85	215.75	9.66	-48.3	-49.5	14.6	0.00e+00	0	26	0	4126146560	61	4483
2026-01-07 03:14:40.83	215.71	9.32	-48.3	-49.6	14.7	0.00e+00	0	26	0	4149215232	62	4257
2026-01-07 03:14:44.83	215.68	8.98	-48.5	-49.8	14.6	0.00e+00	0	26	0	4171235328	62	4377
2026-01-07 03:14:48.85	215.65	8.65	-48.6	-49.9	14.6	0.00e+00	0	26	0	4194304000	62	4438
2026-01-07 03:14:52.83	215.61	8.32	-48.6	-50.0	14.5	0.00e+00	0	26	0	4216324096	62	4448
2026-01-07 03:14:56.83	215.58	8.00	-48.6	-50.0	14.5	0.00e+00	0	26	0	4239392768	62	4456
2026-01-07 03:15:00.84	215.56	7.67	-48.8	-50.1	14.5	0.00e+00	0	26	0	4261412864	62	4528
2026-01-07 03:15:04.84	215.53	7.36	-49.0	-50.4	14.5	0.00e+00	0	26	0	4284481536	63	4397
2026-01-07 03:15:08.84	215.50	7.05	-49.1	-50.5	14.4	0.00e+00	0	26	0	4306501632	63	4491
2026-01-07 03:15:12.85	215.47	6.74	-49.1	-50.6	14.3	0.00e+00	0	26	0	4329570304	63	4496
2026-01-07 03:15:16.86	215.45	6.43	-49.2	-50.6	14.3	0.00e+00	0	26	0	4351590400	63	4520
2026-01-07 03:15:20.87	215.42	6.13	-49.3	-50.8	14.2	0.00e+00	0	26	0	4373610496	63	4607
2026-01-07 03:15:24.89	215.40	5.83	-49.3	-50.8	14.3	0.00e+00	0	26	0	4396679168	64	4357
2026-01-07 03:15:28.90	215.37	5.54	-49.6	-51.1	14.2	0.00e+00	0	26	0	4419747840	64	4524
2026-01-07 03:15:32.90	215.35	5.25	-49.5	-51.0	14.2	0.00e+00	0	26	0	4441767936	64	4476
2026-01-07 03:15:36.90	215.33	4.96	-58.3	-71.0	3.8	2.02e-02	0	26	104	4462739456	81	16866
2026-01-07 03:15:40.90	215.31	4.67	-59.4	-72.4	3.8	8.45e-01	0	26	104	4462739456	83	17678
2026-01-07 03:15:44.90	215.29	4.39	-59.9	-72.9	3.8	8.44e-01	0	26	104	4462739456	84	17665
2026-01-07 03:15:48.89	215.27	4.11	-60.0	-73.1	3.8	8.46e-01	0	26	104	4462739456	85	16931
2026-01-07 03:15:52.90	215.25	3.84	-60.1	-73.2	3.8	8.46e-01	0	26	104	4462739456	85	17102
2026-01-07 03:15:56.90	215.23	3.57	-60.2	-73.3	3.8	8.45e-01	0	26	104	4462739456	85	17357
2026-01-07 03:16:00.89	215.21	3.30	-60.1	-73.2	3.8	8.46e-01	0	26	104	4462739456	85	17268
2026-01-07 03:16:04.89	215.19	3.03	-60.1	-73.2	3.8	8.46e-01	0	26	104	4462739456	85	17219
2026-01-07 03:16:08.89	215.17	2.76	-60.1	-73.2	3.8	8.47e-01	0	26	104	4462739456	85	17123
2026-01-07 03:16:12.89	215.16	2.50	-60.1	-73.2	3.8	8.45e-01	0	26	104	4462739456	85	17096
2026-01-07 03:16:16.89	215.14	2.24	-60.0	-73.2	3.8	8.44e-01	0	26	104	4462739456	85	17117
2026-01-07 03:16:20.91	215.13	1.98	-60.0	-73.1	3.8	8.46e-01	0	26	104	4462739456	85	17056

#Closed at: 2026-01-07 03:16:23
#Recorded file [4462 MB]: D:/lorett/data/31004_260107_060156.dat