passes_logs/2026/01/07/R3.2S_Murmansk/R3.2S_Murmansk__20260107_085900_NOAA_20_JPSS-1_rec.log

#Pass ID: 20260107_085900_NOAA 20 (JPSS-1)
#Satellite: NOAA 20 (JPSS-1)
#Configuration: NOAA 20
#almurnet v.1.7.20251203
#Start time: 2026-01-07 08:59:01

#Version: 2.2.20231116
#Station: R3.2S_Murmansk
#Location: 33.079688 lon 68.888172 lat
#TLE: 1 43013U 17073A   26006.30790171  .00000126  00000+0  80695-4 0  9991
#TLE: 2 43013  98.7629 307.3394 0001808  51.8724 308.2615 14.19533762421505

#Time	Az	El	Level	Level2	SNR	BER	BlckErr	Temp	State	Recorded	gain1	gain2
2026-01-07 08:59:01.85	138.86	2.11	-57.5	-73.5	3.8	1.49e+00	0	23	0	0	81	22415
2026-01-07 08:59:05.81	138.81	2.37	-57.5	-73.5	3.8	1.49e+00	0	23	104	0	80	23763
2026-01-07 08:59:09.78	138.77	2.63	-57.5	-73.5	3.8	1.49e+00	0	23	104	0	80	23707
2026-01-07 08:59:13.78	138.72	2.89	-57.5	-73.5	3.8	1.49e+00	0	23	104	0	80	23686
2026-01-07 08:59:17.74	138.67	3.15	-57.5	-73.4	3.8	1.49e+00	0	24	104	0	80	23477
2026-01-07 08:59:21.72	138.62	3.42	-57.5	-72.2	3.8	1.49e+00	0	24	104	0	80	20502
2026-01-07 08:59:25.70	138.57	3.69	-57.3	-69.4	4.3	1.35e+00	59	24	0	0	80	14757
2026-01-07 08:59:29.70	138.52	3.96	-57.0	-66.4	5.8	3.13e-01	0	24	0	7340032	80	10475
2026-01-07 08:59:33.68	138.47	4.23	-56.4	-62.9	8.7	2.45e-02	0	24	0	14680064	79	7421
2026-01-07 08:59:37.67	138.41	4.51	-55.3	-59.8	11.3	2.22e-04	0	24	0	22020096	77	5826
2026-01-07 08:59:41.66	138.36	4.79	-54.5	-58.2	12.3	4.50e-06	0	24	0	29360128	75	5431
2026-01-07 08:59:45.66	138.30	5.08	-55.7	-60.4	11.0	9.90e-06	0	24	0	36700160	76	6616
2026-01-07 08:59:49.65	138.24	5.37	-55.3	-60.1	11.1	7.00e-07	0	24	0	44040192	75	6725
2026-01-07 08:59:53.64	138.18	5.66	-53.2	-55.8	13.6	0.00e+00	0	24	0	51380224	72	4914
2026-01-07 08:59:57.63	138.12	5.95	-53.1	-55.7	13.7	0.00e+00	0	24	0	59768832	72	4816
2026-01-07 09:00:01.59	138.06	6.24	-53.0	-55.5	13.9	0.00e+00	0	24	0	67108864	72	4735
2026-01-07 09:00:05.57	137.99	6.54	-53.1	-55.7	13.7	0.00e+00	0	24	0	74448896	72	4828
2026-01-07 09:00:09.56	137.93	6.85	-53.1	-55.5	13.9	0.00e+00	0	24	0	81788928	72	4750
2026-01-07 09:00:13.54	137.86	7.15	-52.7	-55.0	14.2	0.00e+00	0	24	0	89128960	72	4463
2026-01-07 09:00:17.51	137.79	7.46	-52.6	-54.9	14.2	0.00e+00	0	24	0	96468992	71	4673
2026-01-07 09:00:21.49	137.72	7.77	-52.5	-54.8	14.3	0.00e+00	0	24	0	103809024	71	4604
2026-01-07 09:00:25.50	137.65	8.09	-52.4	-54.6	14.4	0.00e+00	0	24	0	112197632	71	4507
2026-01-07 09:00:29.47	137.57	8.42	-52.5	-54.6	14.4	0.00e+00	0	24	0	119537664	71	4521
2026-01-07 09:00:33.45	137.50	8.74	-52.3	-54.3	14.5	0.00e+00	0	25	0	126877696	71	4382
2026-01-07 09:00:37.45	137.42	9.07	-52.1	-54.1	14.5	0.00e+00	0	24	0	134217728	70	4526
2026-01-07 09:00:41.43	137.34	9.41	-52.0	-54.0	14.5	0.00e+00	0	24	0	141557760	70	4489
2026-01-07 09:00:45.41	137.26	9.75	-52.0	-54.0	14.5	0.00e+00	0	24	0	148897792	70	4486
2026-01-07 09:00:49.38	137.17	10.09	-51.9	-53.9	14.6	0.00e+00	0	25	0	156237824	70	4393
2026-01-07 09:00:53.37	137.08	10.44	-51.9	-53.8	14.7	0.00e+00	0	25	0	163577856	70	4376
2026-01-07 09:00:57.35	136.99	10.79	-51.8	-53.7	14.7	0.00e+00	0	24	0	170917888	70	4317
2026-01-07 09:01:01.34	136.90	11.15	-51.7	-53.5	14.8	0.00e+00	0	25	0	179306496	70	4241
2026-01-07 09:01:05.32	136.81	11.51	-51.6	-53.4	14.7	0.00e+00	0	24	0	186646528	69	4436
2026-01-07 09:01:09.30	136.71	11.88	-51.5	-53.3	14.8	0.00e+00	0	25	0	193986560	69	4356
2026-01-07 09:01:13.27	136.61	12.25	-51.4	-53.2	14.9	0.00e+00	0	25	0	201326592	69	4306
2026-01-07 09:01:17.26	136.50	12.64	-51.4	-53.1	14.9	0.00e+00	0	25	0	208666624	69	4280
2026-01-07 09:01:21.25	136.40	13.02	-51.4	-53.1	14.9	0.00e+00	0	24	0	216006656	69	4288
2026-01-07 09:01:25.24	136.29	13.42	-51.2	-52.9	15.0	0.00e+00	0	25	0	223346688	69	4156
2026-01-07 09:01:29.25	136.17	13.82	-51.1	-52.7	14.9	0.00e+00	0	25	0	231735296	68	4334
2026-01-07 09:01:33.24	136.06	14.22	-51.0	-52.6	15.0	0.00e+00	0	25	0	239075328	68	4291
2026-01-07 09:01:37.21	135.94	14.63	-50.9	-52.6	15.0	0.00e+00	0	25	0	246415360	68	4249
2026-01-07 09:01:41.19	135.81	15.05	-50.9	-52.6	15.0	0.00e+00	0	25	0	253755392	68	4245
2026-01-07 09:01:45.18	135.68	15.48	-50.9	-52.6	15.0	0.00e+00	0	25	0	261095424	68	4255
2026-01-07 09:01:49.17	135.55	15.91	-50.9	-52.5	15.1	0.00e+00	0	25	0	268435456	68	4208
2026-01-07 09:01:53.14	135.41	16.35	-50.8	-52.5	15.1	0.00e+00	0	25	0	275775488	68	4195
2026-01-07 09:01:57.13	135.27	16.80	-50.7	-52.3	15.2	0.00e+00	0	25	0	283115520	68	4137
2026-01-07 09:02:01.12	135.13	17.26	-50.7	-52.3	15.2	0.00e+00	0	25	0	290455552	68	4136
2026-01-07 09:02:05.10	134.98	17.72	-50.7	-52.3	15.2	0.00e+00	0	25	0	298844160	68	4115
2026-01-07 09:02:09.10	134.82	18.20	-50.7	-52.3	15.2	0.00e+00	0	25	0	306184192	68	4116
2026-01-07 09:02:13.09	134.66	18.69	-50.7	-52.3	15.2	0.00e+00	0	25	0	313524224	68	4116
2026-01-07 09:02:17.06	134.49	19.18	-50.6	-52.1	15.0	0.00e+00	0	25	0	320864256	67	4283
2026-01-07 09:02:21.04	134.32	19.68	-50.5	-52.1	15.1	0.00e+00	0	25	0	328204288	67	4278
2026-01-07 09:02:25.01	134.14	20.19	-50.5	-52.0	15.1	0.00e+00	0	25	0	335544320	67	4214
2026-01-07 09:02:28.99	133.96	20.71	-50.6	-52.2	15.1	0.00e+00	0	25	0	342884352	67	4296
2026-01-07 09:02:32.98	133.76	21.25	-50.5	-52.1	15.1	0.00e+00	0	25	0	350224384	67	4246
2026-01-07 09:02:36.97	133.56	21.79	-50.5	-52.1	15.1	0.00e+00	0	25	0	358612992	67	4250
2026-01-07 09:02:40.96	133.36	22.35	-50.4	-52.0	15.2	0.00e+00	0	25	0	365953024	67	4203
2026-01-07 09:02:44.92	133.14	22.92	-50.5	-52.1	15.1	0.00e+00	0	25	0	373293056	67	4255
2026-01-07 09:02:48.91	132.92	23.50	-50.6	-52.2	15.1	0.00e+00	0	25	0	380633088	67	4296
2026-01-07 09:02:52.88	132.68	24.09	-50.8	-52.4	15.0	0.00e+00	0	25	0	387973120	67	4408
2026-01-07 09:02:56.86	132.44	24.69	-51.1	-52.7	14.8	0.00e+00	0	25	0	395313152	67	4570
2026-01-07 09:03:00.84	132.19	25.31	-51.2	-52.8	14.8	0.00e+00	0	25	0	402653184	67	4644
2026-01-07 09:03:04.81	131.93	25.95	-51.6	-53.3	14.7	0.00e+00	0	25	0	409993216	68	4629
2026-01-07 09:03:08.80	131.65	26.60	-51.9	-53.7	14.7	0.00e+00	0	25	0	418381824	69	4565
2026-01-07 09:03:12.79	131.36	27.26	-52.5	-54.4	14.5	0.00e+00	0	25	0	425721856	70	4654
2026-01-07 09:03:16.76	131.06	27.94	-53.1	-55.2	14.3	0.00e+00	0	25	0	433061888	71	4821
2026-01-07 09:03:20.74	130.75	28.63	-53.6	-55.8	14.1	0.00e+00	0	25	0	440401920	72	4892
2026-01-07 09:03:24.72	130.42	29.35	-53.6	-55.9	14.0	0.00e+00	0	25	0	447741952	72	4929
2026-01-07 09:03:28.71	130.08	30.08	-53.7	-56.0	13.9	0.00e+00	0	25	0	455081984	72	5008
2026-01-07 09:03:32.69	129.72	30.82	-54.1	-56.5	13.8	0.00e+00	0	25	0	462422016	73	5006
2026-01-07 09:03:36.68	129.34	31.59	-54.5	-57.1	13.6	0.00e+00	0	25	0	469762048	74	5097
2026-01-07 09:03:40.66	128.94	32.37	-54.8	-57.6	13.3	0.00e+00	0	25	0	477102080	74	5364
2026-01-07 09:03:44.63	128.52	33.18	-55.0	-57.8	13.2	0.00e+00	0	25	0	485490688	75	5200
2026-01-07 09:03:48.61	128.08	34.00	-55.0	-57.8	13.3	0.00e+00	0	25	0	492830720	75	5197
2026-01-07 09:03:52.60	127.62	34.84	-54.9	-57.8	13.3	0.00e+00	0	25	0	500170752	75	5184
2026-01-07 09:03:56.58	127.13	35.71	-54.9	-57.7	13.3	0.00e+00	0	25	0	507510784	75	5159
2026-01-07 09:04:00.57	126.61	36.60	-55.3	-58.4	12.9	0.00e+00	0	25	0	514850816	75	5544
2026-01-07 09:04:04.54	126.07	37.50	-55.4	-58.5	13.0	0.00e+00	0	25	0	522190848	76	5315
2026-01-07 09:04:08.53	125.49	38.43	-55.0	-57.7	13.5	0.00e+00	0	25	0	529530880	76	4830
2026-01-07 09:04:12.52	124.87	39.39	-54.8	-57.4	13.7	0.00e+00	0	25	0	536870912	76	4695
2026-01-07 09:04:16.50	124.22	40.36	-54.1	-56.5	14.0	0.00e+00	0	25	0	545259520	74	4722
2026-01-07 09:04:20.47	123.52	41.36	-53.5	-55.7	14.3	0.00e+00	0	25	0	552599552	73	4566
2026-01-07 09:04:24.45	122.78	42.38	-53.3	-55.3	14.5	0.00e+00	0	25	0	559939584	73	4353
2026-01-07 09:04:28.42	122.00	43.42	-53.5	-55.6	14.3	0.00e+00	0	25	0	567279616	73	4518
2026-01-07 09:04:32.39	121.15	44.48	-52.7	-54.6	14.6	0.00e+00	0	25	0	574619648	71	4504
2026-01-07 09:04:36.38	120.25	45.57	-52.2	-53.9	14.8	0.00e+00	0	25	0	581959680	70	4428
2026-01-07 09:04:40.35	119.28	46.67	-52.5	-54.4	14.6	0.00e+00	0	25	0	589299712	70	4652
2026-01-07 09:04:44.33	118.24	47.80	-52.8	-54.7	14.4	0.00e+00	0	25	0	596639744	70	4857
2026-01-07 09:04:48.32	117.11	48.95	-52.8	-54.8	14.5	0.00e+00	0	25	0	603979776	71	4606
2026-01-07 09:04:52.31	115.90	50.12	-51.7	-53.3	15.1	0.00e+00	0	25	0	612368384	70	4121
2026-01-07 09:04:56.29	114.59	51.29	-51.5	-53.1	15.0	0.00e+00	0	25	0	619708416	69	4250
2026-01-07 09:05:00.27	113.17	52.49	-50.8	-52.3	15.2	0.00e+00	0	25	0	627048448	68	4106
2026-01-07 09:05:04.26	111.63	53.69	-51.4	-53.0	14.9	0.00e+00	0	25	0	634388480	68	4483
2026-01-07 09:05:08.23	109.96	54.89	-52.5	-54.3	14.6	0.00e+00	0	25	0	641728512	70	4649
2026-01-07 09:05:12.23	108.13	56.11	-54.3	-56.7	13.9	0.00e+00	0	25	0	649068544	74	4843
2026-01-07 09:05:16.22	106.13	57.31	-54.5	-57.0	13.8	0.00e+00	0	25	0	656408576	74	5012
2026-01-07 09:05:20.21	103.95	58.50	-53.9	-56.2	14.2	0.00e+00	0	25	0	664797184	74	4549
2026-01-07 09:05:24.19	101.58	59.67	-53.1	-55.0	14.5	0.00e+00	0	25	0	672137216	72	4476
2026-01-07 09:05:28.17	98.98	60.82	-50.9	-52.4	15.2	0.00e+00	0	25	0	679477248	68	4183
2026-01-07 09:05:32.16	96.12	61.93	-50.1	-51.5	15.2	0.00e+00	0	25	0	686817280	66	4199
2026-01-07 09:05:36.13	93.02	62.98	-50.5	-51.9	15.0	0.00e+00	0	25	0	694157312	66	4430
2026-01-07 09:05:40.10	89.65	63.97	-50.1	-51.5	15.2	0.00e+00	0	25	0	701497344	66	4220
2026-01-07 09:05:44.09	85.96	64.89	-51.0	-52.5	15.0	0.00e+00	0	25	0	708837376	67	4480
2026-01-07 09:05:48.06	81.99	65.72	-52.7	-54.6	14.5	0.00e+00	0	25	0	716177408	70	4790
2026-01-07 09:05:52.05	77.71	66.44	-53.2	-55.1	14.5	0.00e+00	0	25	0	723517440	72	4535
2026-01-07 09:05:56.04	73.17	67.04	-54.0	-56.2	14.1	0.00e+00	0	25	0	731906048	73	4863
2026-01-07 09:06:00.03	68.38	67.50	-54.2	-56.5	14.1	0.00e+00	0	25	0	739246080	74	4738
2026-01-07 09:06:04.02	63.41	67.81	-53.4	-55.4	14.5	0.00e+00	0	25	0	746586112	73	4401
2026-01-07 09:06:08.02	58.32	67.97	-53.6	-55.6	14.4	0.00e+00	0	25	0	753926144	73	4528
2026-01-07 09:06:12.01	53.19	67.96	-54.3	-56.7	14.0	0.00e+00	0	25	0	761266176	74	4837
2026-01-07 09:06:15.99	48.13	67.79	-53.3	-55.3	14.6	0.00e+00	0	25	0	768606208	73	4351
2026-01-07 09:06:19.99	43.16	67.47	-53.5	-55.6	14.4	0.00e+00	0	25	0	775946240	73	4509
2026-01-07 09:06:23.98	38.40	67.00	-53.3	-55.2	14.5	0.00e+00	0	25	0	784334848	72	4594
2026-01-07 09:06:27.94	33.90	66.39	-53.1	-55.1	14.6	0.00e+00	0	25	0	791674880	72	4498
2026-01-07 09:06:31.92	29.66	65.66	-51.6	-53.1	15.1	0.00e+00	0	25	0	799014912	69	4289
2026-01-07 09:06:35.90	25.71	64.83	-51.1	-52.6	15.1	0.00e+00	0	25	0	806354944	68	4287
2026-01-07 09:06:39.88	22.06	63.91	-51.1	-52.6	14.9	0.00e+00	0	25	0	813694976	67	4540
2026-01-07 09:06:43.85	18.70	62.91	-51.8	-53.4	14.8	0.00e+00	0	25	0	821035008	68	4666
2026-01-07 09:06:47.86	15.59	61.85	-52.7	-54.6	14.5	0.00e+00	0	25	0	828375040	70	4761
2026-01-07 09:06:51.83	12.78	60.74	-53.7	-55.8	14.2	0.00e+00	0	25	0	835715072	72	4894
2026-01-07 09:06:55.79	10.21	59.61	-54.3	-56.7	13.8	0.00e+00	0	25	0	843055104	73	5126
2026-01-07 09:06:59.77	7.85	58.44	-54.5	-57.0	13.8	0.00e+00	0	25	0	851443712	74	4993
2026-01-07 09:07:03.76	5.69	57.24	-54.1	-56.4	14.1	0.00e+00	0	25	0	858783744	74	4670
2026-01-07 09:07:07.73	3.72	56.05	-52.9	-54.7	14.8	0.00e+00	0	25	0	866123776	72	4333
2026-01-07 09:07:11.70	1.91	54.85	-51.9	-53.5	15.0	0.00e+00	0	25	0	873463808	70	4241
2026-01-07 09:07:15.69	0.24	53.64	-51.9	-53.6	15.0	0.00e+00	0	25	0	880803840	70	4256
2026-01-07 09:07:19.66	358.71	52.45	-51.8	-53.4	14.9	0.00e+00	0	25	0	888143872	69	4432
2026-01-07 09:07:23.65	357.30	51.26	-52.1	-53.8	14.7	0.00e+00	0	25	0	895483904	69	4623
2026-01-07 09:07:27.65	355.99	50.08	-52.7	-54.6	14.5	0.00e+00	0	25	0	902823936	70	4780
2026-01-07 09:07:31.63	354.79	48.92	-53.3	-55.3	14.3	0.00e+00	0	25	0	910163968	71	4915
2026-01-07 09:07:35.62	353.67	47.77	-53.0	-54.9	14.5	0.00e+00	0	25	0	918552576	71	4670
2026-01-07 09:07:39.60	352.64	46.65	-53.7	-55.9	14.1	0.00e+00	0	25	0	925892608	72	4939
2026-01-07 09:07:43.60	351.67	45.54	-53.8	-56.0	14.2	0.00e+00	0	25	0	933232640	73	4706
2026-01-07 09:07:47.59	350.77	44.45	-53.4	-55.4	14.5	0.00e+00	0	25	0	940572672	73	4405
2026-01-07 09:07:51.58	349.93	43.39	-54.5	-57.0	13.8	0.00e+00	0	25	0	947912704	74	5031
2026-01-07 09:07:55.57	349.14	42.35	-54.7	-57.3	13.6	0.00e+00	0	25	0	955252736	74	5187
2026-01-07 09:07:59.55	348.40	41.34	-55.0	-57.8	13.4	0.00e+00	0	25	0	962592768	75	5183
2026-01-07 09:08:03.53	347.71	40.34	-55.0	-57.7	13.5	0.00e+00	0	25	0	970981376	75	5117
2026-01-07 09:08:07.52	347.06	39.37	-54.6	-57.2	13.7	0.00e+00	0	25	0	978321408	75	4841
2026-01-07 09:08:11.51	346.45	38.42	-54.1	-56.5	14.0	0.00e+00	0	25	0	985661440	74	4707
2026-01-07 09:08:15.49	345.88	37.50	-54.3	-56.7	13.8	0.00e+00	0	25	0	993001472	74	4865
2026-01-07 09:08:19.48	345.33	36.59	-53.6	-55.7	14.3	0.00e+00	0	25	0	1000341504	73	4589
2026-01-07 09:08:23.45	344.82	35.71	-53.7	-55.9	14.2	0.00e+00	0	25	0	1007681536	73	4689
2026-01-07 09:08:27.42	344.34	34.85	-53.6	-55.8	14.3	0.00e+00	0	25	0	1015021568	73	4599
2026-01-07 09:08:31.42	343.87	34.01	-54.2	-56.5	13.8	0.00e+00	0	25	0	1022361600	73	5041
2026-01-07 09:08:35.40	343.44	33.19	-54.5	-57.0	13.7	0.00e+00	0	25	0	1030750208	74	5023
2026-01-07 09:08:39.39	343.02	32.39	-55.1	-58.0	13.2	0.00e+00	0	25	0	1038090240	75	5324
2026-01-07 09:08:43.36	342.63	31.61	-55.8	-59.1	12.6	0.00e+00	0	25	0	1045430272	76	5713
2026-01-07 09:08:47.34	342.25	30.85	-55.6	-58.7	12.9	0.00e+00	0	25	0	1052770304	76	5453
2026-01-07 09:08:51.31	341.90	30.11	-55.4	-58.5	13.0	0.00e+00	0	25	0	1060110336	76	5282
2026-01-07 09:08:55.28	341.55	29.38	-55.2	-58.0	13.3	0.00e+00	0	25	0	1067450368	76	5027
2026-01-07 09:08:59.27	341.23	28.67	-55.0	-57.7	13.5	0.00e+00	0	25	0	1074790400	76	4840
2026-01-07 09:09:03.26	340.92	27.98	-54.7	-57.3	13.8	0.00e+00	0	25	0	1082130432	76	4637
2026-01-07 09:09:07.24	340.62	27.30	-54.5	-57.0	13.8	0.00e+00	0	25	0	1089470464	75	4729
2026-01-07 09:09:11.22	340.33	26.64	-54.1	-56.5	13.9	0.00e+00	0	25	0	1097859072	74	4729
2026-01-07 09:09:15.22	340.06	25.99	-53.7	-55.9	14.3	0.00e+00	0	25	0	1105199104	74	4425
2026-01-07 09:09:19.20	339.80	25.36	-53.6	-55.8	14.2	0.00e+00	0	25	0	1112539136	73	4648
2026-01-07 09:09:23.17	339.55	24.75	-53.7	-56.0	14.1	0.00e+00	0	25	0	1119879168	73	4706
2026-01-07 09:09:27.15	339.31	24.14	-53.3	-55.4	14.4	0.00e+00	0	25	0	1127219200	73	4435
2026-01-07 09:09:31.15	339.08	23.55	-52.8	-54.8	14.6	0.00e+00	0	25	0	1134559232	72	4359
2026-01-07 09:09:35.11	338.86	22.98	-52.5	-54.3	14.7	0.00e+00	0	25	0	1141899264	71	4384
2026-01-07 09:09:39.11	338.64	22.41	-52.4	-54.2	14.7	0.00e+00	0	25	0	1149239296	71	4316
2026-01-07 09:09:43.11	338.44	21.85	-52.3	-54.2	14.7	0.00e+00	0	25	0	1157627904	71	4300
2026-01-07 09:09:47.07	338.24	21.31	-52.4	-54.2	14.7	0.00e+00	0	25	0	1164967936	71	4331
2026-01-07 09:09:51.04	338.05	20.78	-52.6	-54.5	14.5	0.00e+00	0	25	0	1172307968	71	4474
2026-01-07 09:09:55.01	337.87	20.26	-52.8	-54.8	14.4	0.00e+00	0	25	0	1179648000	71	4611
2026-01-07 09:09:58.96	337.69	19.76	-52.8	-54.8	14.4	0.00e+00	0	25	0	1186988032	71	4625
2026-01-07 09:10:02.94	337.52	19.25	-52.8	-54.8	14.4	0.00e+00	0	25	0	1194328064	71	4638
2026-01-07 09:10:06.93	337.36	18.76	-52.8	-54.8	14.4	0.00e+00	0	25	0	1201668096	71	4644
2026-01-07 09:10:10.91	337.20	18.28	-52.9	-55.0	14.3	0.00e+00	0	25	0	1209008128	71	4717
2026-01-07 09:10:14.90	337.04	17.81	-53.0	-55.1	14.2	0.00e+00	0	25	0	1216348160	71	4781
2026-01-07 09:10:18.89	336.90	17.34	-53.0	-55.1	14.2	0.00e+00	0	25	0	1224736768	71	4797
2026-01-07 09:10:22.88	336.75	16.89	-53.1	-55.3	14.1	0.00e+00	0	25	0	1232076800	71	4898
2026-01-07 09:10:26.86	336.61	16.44	-53.1	-55.3	14.1	0.00e+00	0	25	0	1239416832	71	4884
2026-01-07 09:10:30.83	336.48	16.00	-53.2	-55.4	14.1	0.00e+00	0	25	0	1246756864	71	4934
2026-01-07 09:10:34.81	336.35	15.57	-53.2	-55.4	14.1	0.00e+00	0	25	0	1254096896	71	4952
2026-01-07 09:10:38.78	336.22	15.15	-53.3	-55.6	13.9	0.00e+00	0	25	0	1261436928	71	5050
2026-01-07 09:10:42.77	336.10	14.73	-53.5	-55.8	13.9	0.00e+00	0	25	0	1268776960	72	4899
2026-01-07 09:10:46.74	335.98	14.32	-53.6	-56.0	13.8	0.00e+00	0	25	0	1276116992	72	5033
2026-01-07 09:10:50.71	335.87	13.92	-53.6	-56.1	13.8	0.00e+00	0	25	0	1283457024	72	5043
2026-01-07 09:10:54.69	335.76	13.52	-53.8	-56.2	13.7	0.00e+00	0	25	0	1291845632	72	5142
2026-01-07 09:10:58.65	335.65	13.13	-53.8	-56.2	13.6	0.00e+00	0	25	0	1299185664	72	5158
2026-01-07 09:11:02.64	335.55	12.74	-53.7	-56.2	13.7	0.00e+00	0	25	0	1306525696	72	5156
2026-01-07 09:11:06.60	335.45	12.37	-53.7	-56.3	13.6	0.00e+00	0	25	0	1313865728	72	5165
2026-01-07 09:11:10.58	335.35	11.99	-53.6	-56.1	13.7	0.00e+00	0	25	0	1321205760	72	5090
2026-01-07 09:11:14.55	335.25	11.63	-53.7	-56.2	13.7	0.00e+00	0	25	0	1328545792	72	5116
2026-01-07 09:11:18.53	335.16	11.26	-53.6	-56.0	13.7	0.00e+00	0	25	0	1335885824	72	5020
2026-01-07 09:11:22.51	335.07	10.91	-53.6	-56.1	13.7	0.00e+00	0	25	0	1343225856	72	5080
2026-01-07 09:11:26.48	334.98	10.56	-53.7	-56.2	13.6	0.00e+00	0	25	0	1350565888	72	5131
2026-01-07 09:11:30.45	334.90	10.21	-53.7	-56.2	13.6	0.00e+00	0	25	0	1358954496	72	5120
2026-01-07 09:11:34.42	334.81	9.87	-53.8	-56.4	13.5	0.00e+00	0	25	0	1366294528	72	5239
2026-01-07 09:11:38.39	334.73	9.53	-53.7	-56.3	13.5	0.00e+00	0	25	0	1373634560	72	5209
2026-01-07 09:11:42.36	334.66	9.20	-53.8	-56.4	13.4	0.00e+00	0	25	0	1380974592	72	5276
2026-01-07 09:11:46.34	334.58	8.87	-53.9	-56.6	13.4	0.00e+00	0	25	0	1388314624	72	5355
2026-01-07 09:11:50.33	334.51	8.54	-54.0	-56.8	13.3	0.00e+00	0	25	0	1395654656	73	5167
2026-01-07 09:11:54.34	334.43	8.22	-54.2	-57.1	13.1	0.00e+00	0	25	0	1402994688	73	5391
2026-01-07 09:11:58.34	334.36	7.90	-54.1	-57.1	13.1	0.00e+00	0	25	0	1410334720	73	5366
2026-01-07 09:12:02.32	334.30	7.59	-54.3	-57.4	12.9	0.00e+00	0	25	0	1417674752	73	5580
2026-01-07 09:12:06.32	334.23	7.28	-54.4	-57.5	12.8	0.00e+00	0	25	0	1426063360	73	5617
2026-01-07 09:12:10.30	334.16	6.97	-54.6	-57.8	12.7	0.00e+00	0	25	0	1433403392	74	5510
2026-01-07 09:12:14.28	334.10	6.67	-54.6	-58.0	12.5	1.50e-06	0	25	0	1440743424	74	5638
2026-01-07 09:12:18.25	334.04	6.37	-54.3	-57.5	12.8	0.00e+00	0	25	0	1448083456	74	5322
2026-01-07 09:12:22.25	333.98	6.07	-54.5	-57.9	12.6	0.00e+00	0	25	0	1455423488	74	5571
2026-01-07 09:12:26.22	333.92	5.78	-54.6	-58.0	12.5	0.00e+00	0	25	0	1462763520	74	5633
2026-01-07 09:12:30.19	333.86	5.49	-54.5	-57.9	12.5	1.50e-06	0	25	0	1470103552	74	5562
2026-01-07 09:12:34.17	333.81	5.21	-54.6	-58.1	12.3	0.00e+00	0	25	0	1477443584	74	5705
2026-01-07 09:12:38.15	333.76	4.93	-58.1	-73.5	3.8	1.19e+00	0	25	104	1484783616	81	22469
2026-01-07 09:12:42.18	333.70	4.64	-59.3	-75.3	3.8	1.49e+00	0	25	104	1484783616	83	24574
2026-01-07 09:12:46.20	333.65	4.36	-59.9	-76.0	3.8	1.49e+00	0	25	104	1484783616	84	25024
2026-01-07 09:12:50.21	333.60	4.09	-60.1	-76.2	3.8	1.49e+00	0	25	104	1484783616	85	24246
2026-01-07 09:12:54.23	333.55	3.81	-60.2	-76.3	3.8	1.49e+00	0	25	104	1484783616	85	24425
2026-01-07 09:12:58.25	333.50	3.54	-60.3	-76.4	3.8	1.49e+00	0	25	104	1484783616	85	24749
2026-01-07 09:13:02.26	333.46	3.27	-60.2	-76.3	3.8	1.49e+00	0	25	104	1484783616	85	24500
2026-01-07 09:13:06.22	333.41	3.01	-60.1	-76.2	3.8	1.49e+00	0	25	104	1484783616	85	24291
2026-01-07 09:13:10.20	333.37	2.75	-60.1	-76.2	3.8	1.49e+00	0	25	104	1484783616	85	24255
2026-01-07 09:13:14.18	333.32	2.49	-60.1	-76.2	3.8	1.49e+00	0	25	104	1484783616	85	24135
2026-01-07 09:13:18.18	333.28	2.23	-60.1	-76.1	3.8	1.49e+00	0	25	104	1484783616	85	24075
2026-01-07 09:13:22.16	333.24	1.98	-60.0	-76.1	3.8	1.49e+00	0	25	104	1484783616	85	23988

#Closed at: 2026-01-07 09:13:22
#Recorded file [1484 MB]: D:/lorett/data/31004_260107_115901.dat