passes_logs/2026/01/07/R3.2S_Murmansk/R3.2S_Murmansk__20260107_144245_FENGYUN_3D_rec.log

#Pass ID: 20260107_144245_FENGYUN 3D
#Satellite: FENGYUN 3D
#Configuration: FENGYUN 3D
#almurnet v.1.7.20251203
#Start time: 2026-01-07 14:42:46

#Version: 2.2.20231116
#Station: R3.2S_Murmansk
#Location: 33.079688 lon 68.888172 lat
#TLE: 1 43010U 17072A   26006.26440730  .00000376  00000+0  19957-3 0  9994
#TLE: 2 43010  98.9925 337.9455 0002045 123.9195 236.2175 14.19693586422016

#Time	Az	El	Level	Level2	SNR	BER	BlckErr	Temp	State	Recorded	gain1	gain2
2026-01-07 14:42:46.43	233.62	2.03	-57.9	-70.9	3.8	8.45e-01	0	23	0	0	82	15731
2026-01-07 14:42:49.46	233.89	2.18	-57.9	-70.9	3.8	8.46e-01	0	23	104	0	80	17567
2026-01-07 14:42:52.49	234.18	2.32	-57.9	-70.9	3.8	8.46e-01	0	23	104	0	80	17575
2026-01-07 14:42:55.51	234.46	2.47	-57.9	-70.9	3.8	8.45e-01	0	23	104	0	80	17587
2026-01-07 14:42:58.54	234.75	2.61	-57.9	-70.9	3.8	8.46e-01	0	23	104	0	80	17575
2026-01-07 14:43:01.56	235.04	2.76	-57.9	-70.9	3.8	8.45e-01	0	23	104	0	80	17561
2026-01-07 14:43:04.58	235.33	2.90	-57.9	-70.8	3.8	8.46e-01	0	24	104	0	80	17330
2026-01-07 14:43:07.62	235.62	3.05	-57.9	-70.8	3.8	8.46e-01	0	24	104	0	80	17426
2026-01-07 14:43:10.64	235.92	3.20	-57.9	-70.8	3.8	8.46e-01	0	24	104	0	80	17393
2026-01-07 14:43:13.68	236.22	3.34	-57.9	-70.9	3.8	8.46e-01	0	24	104	0	80	17665
2026-01-07 14:43:16.70	236.53	3.49	-57.9	-70.7	3.8	8.45e-01	0	24	104	0	80	17189
2026-01-07 14:43:19.72	236.83	3.63	-57.9	-70.7	3.8	8.46e-01	0	24	104	0	80	17099
2026-01-07 14:43:22.76	237.14	3.78	-57.9	-70.9	3.8	8.45e-01	0	24	104	0	80	17558
2026-01-07 14:43:25.78	237.45	3.93	-57.9	-70.9	3.8	8.45e-01	0	24	104	0	80	17518
2026-01-07 14:43:28.81	237.77	4.08	-57.9	-70.3	3.8	8.45e-01	0	24	104	0	80	16368
2026-01-07 14:43:31.83	238.09	4.22	-57.8	-70.2	3.8	8.45e-01	0	24	104	0	80	16133
2026-01-07 14:43:34.85	238.41	4.37	-57.8	-70.0	3.8	8.45e-01	0	24	104	0	80	15845
2026-01-07 14:43:37.88	238.73	4.52	-57.9	-70.7	3.8	8.46e-01	0	25	104	0	80	17222
2026-01-07 14:43:40.91	239.06	4.66	-57.6	-67.6	4.2	8.43e-01	0	25	104	0	80	11977
2026-01-07 14:43:43.94	239.39	4.81	-57.1	-64.4	5.5	6.47e-01	0	24	0	1048576	80	8308
2026-01-07 14:43:46.97	239.73	4.96	-55.6	-59.7	9.2	2.63e-02	0	24	0	17825792	77	5777
2026-01-07 14:43:49.99	240.06	5.11	-57.1	-64.1	5.7	3.64e-01	0	25	0	34603008	79	8509
2026-01-07 14:43:53.02	240.40	5.25	-50.6	-52.3	13.8	0.00e+00	0	24	0	51380224	66	4617
2026-01-07 14:43:56.05	240.75	5.40	-49.5	-51.0	14.4	0.00e+00	0	25	0	69206016	65	4206
2026-01-07 14:43:59.07	241.09	5.55	-49.4	-50.9	14.4	0.00e+00	0	25	0	85983232	65	4176
2026-01-07 14:44:02.09	241.44	5.70	-49.0	-50.4	14.5	0.00e+00	0	25	0	102760448	64	4190
2026-01-07 14:44:05.12	241.80	5.84	-49.1	-50.5	14.5	0.00e+00	0	25	0	119537664	64	4226
2026-01-07 14:44:08.14	242.16	5.99	-48.9	-50.3	14.6	0.00e+00	0	25	0	136314880	64	4144
2026-01-07 14:44:11.17	242.52	6.14	-48.7	-50.1	14.7	0.00e+00	0	25	0	154140672	64	4016
2026-01-07 14:44:14.20	242.88	6.28	-49.0	-50.4	14.6	0.00e+00	0	25	0	170917888	64	4180
2026-01-07 14:44:17.23	243.25	6.43	-48.7	-50.1	14.8	0.00e+00	0	25	0	187695104	64	4016
2026-01-07 14:44:20.25	243.62	6.58	-49.0	-50.4	14.6	0.00e+00	0	25	0	204472320	64	4166
2026-01-07 14:44:23.28	244.00	6.72	-48.9	-50.3	14.6	0.00e+00	0	25	0	221249536	64	4125
2026-01-07 14:44:26.30	244.37	6.87	-48.9	-50.3	14.6	0.00e+00	0	25	0	239075328	64	4136
2026-01-07 14:44:29.32	244.76	7.02	-48.6	-49.9	14.7	0.00e+00	0	25	0	255852544	63	4166
2026-01-07 14:44:32.35	245.14	7.16	-48.4	-49.7	14.8	0.00e+00	0	25	0	272629760	63	4059
2026-01-07 14:44:35.37	245.53	7.31	-48.4	-49.8	14.8	0.00e+00	0	25	0	289406976	63	4104
2026-01-07 14:44:38.40	245.93	7.45	-48.5	-49.8	14.7	0.00e+00	0	25	0	307232768	63	4142
2026-01-07 14:44:41.42	246.32	7.60	-48.7	-50.1	14.6	0.00e+00	0	25	0	324009984	63	4257
2026-01-07 14:44:44.44	246.72	7.74	-48.7	-50.1	14.6	0.00e+00	0	25	0	340787200	63	4245
2026-01-07 14:44:47.46	247.13	7.88	-48.4	-49.7	14.8	0.00e+00	0	25	0	357564416	63	4071
2026-01-07 14:44:50.49	247.54	8.03	-48.3	-49.6	14.9	0.00e+00	0	25	0	375390208	63	4038
2026-01-07 14:44:53.51	247.95	8.17	-47.9	-49.2	14.9	0.00e+00	0	25	0	392167424	62	4068
2026-01-07 14:44:56.54	248.37	8.31	-48.0	-49.3	14.9	0.00e+00	0	25	0	408944640	62	4121
2026-01-07 14:44:59.56	248.79	8.46	-48.2	-49.4	14.8	0.00e+00	0	25	0	425721856	62	4180
2026-01-07 14:45:02.58	249.21	8.60	-48.2	-49.5	14.8	0.00e+00	0	25	0	443547648	62	4220
2026-01-07 14:45:05.61	249.64	8.74	-48.1	-49.4	14.8	0.00e+00	0	25	0	460324864	62	4163
2026-01-07 14:45:08.64	250.07	8.88	-48.1	-49.4	14.8	0.00e+00	0	25	0	477102080	62	4170
2026-01-07 14:45:11.66	250.51	9.02	-48.2	-49.5	14.8	0.00e+00	0	25	0	493879296	62	4201
2026-01-07 14:45:14.68	250.95	9.16	-48.2	-49.4	14.8	0.00e+00	0	25	0	510656512	62	4191
2026-01-07 14:45:17.71	251.39	9.30	-48.2	-49.5	14.8	0.00e+00	0	25	0	528482304	62	4195
2026-01-07 14:45:20.73	251.84	9.44	-48.1	-49.4	14.8	0.00e+00	0	25	0	545259520	62	4163
2026-01-07 14:45:23.76	252.29	9.57	-47.9	-49.2	15.0	0.00e+00	0	25	0	562036736	62	4069
2026-01-07 14:45:26.78	252.75	9.71	-47.8	-49.1	15.0	0.00e+00	0	25	0	578813952	62	4006
2026-01-07 14:45:29.81	253.21	9.84	-47.6	-48.8	14.9	0.00e+00	0	25	0	595591168	61	4140
2026-01-07 14:45:32.84	253.68	9.98	-47.6	-48.9	14.9	0.00e+00	0	25	0	613416960	61	4147
2026-01-07 14:45:35.86	254.14	10.11	-47.6	-48.9	14.9	0.00e+00	0	25	0	630194176	61	4169
2026-01-07 14:45:38.89	254.62	10.25	-47.6	-48.8	14.9	0.00e+00	0	25	0	646971392	61	4143
2026-01-07 14:45:41.92	255.10	10.38	-47.6	-48.8	15.0	0.00e+00	0	25	0	663748608	61	4108
2026-01-07 14:45:44.94	255.58	10.51	-47.5	-48.7	15.0	0.00e+00	0	25	0	681574400	61	4087
2026-01-07 14:45:47.96	256.06	10.64	-47.4	-48.6	15.1	0.00e+00	0	25	0	698351616	61	4019
2026-01-07 14:45:50.99	256.55	10.77	-47.4	-48.6	15.1	0.00e+00	0	25	0	715128832	61	4027
2026-01-07 14:45:54.01	257.05	10.89	-47.4	-48.6	15.0	0.00e+00	0	25	0	731906048	61	4051
2026-01-07 14:45:57.04	257.54	11.02	-47.4	-48.6	15.1	0.00e+00	0	25	0	749731840	61	4018
2026-01-07 14:46:00.07	258.05	11.14	-47.4	-48.6	15.1	0.00e+00	0	25	0	766509056	61	4022
2026-01-07 14:46:03.08	258.55	11.27	-47.3	-48.5	15.1	0.00e+00	0	25	0	783286272	61	3979
2026-01-07 14:46:06.11	259.06	11.39	-47.1	-48.3	15.0	0.00e+00	0	25	0	800063488	60	4103
2026-01-07 14:46:09.13	259.58	11.51	-47.0	-48.2	15.1	0.00e+00	0	25	0	816840704	60	4076
2026-01-07 14:46:12.16	260.10	11.63	-47.0	-48.1	15.1	0.00e+00	0	25	0	834666496	60	4034
2026-01-07 14:46:15.18	260.62	11.75	-47.0	-48.1	15.1	0.00e+00	0	25	0	851443712	60	4050
2026-01-07 14:46:18.20	261.14	11.86	-47.1	-48.3	15.0	0.00e+00	0	25	0	868220928	60	4141
2026-01-07 14:46:21.23	261.67	11.98	-47.3	-48.5	15.0	0.00e+00	0	25	0	884998144	60	4219
2026-01-07 14:46:24.25	262.21	12.09	-47.1	-48.3	15.0	0.00e+00	0	25	0	902823936	60	4139
2026-01-07 14:46:27.28	262.75	12.20	-47.0	-48.2	15.1	0.00e+00	0	25	0	919601152	60	4065
2026-01-07 14:46:30.29	263.29	12.31	-46.9	-48.0	15.2	0.00e+00	0	25	0	936378368	60	3984
2026-01-07 14:46:33.31	263.83	12.41	-47.1	-48.3	15.1	0.00e+00	0	25	0	953155584	60	4107
2026-01-07 14:46:36.32	264.38	12.52	-47.2	-48.4	15.0	0.00e+00	0	25	0	969932800	60	4176
2026-01-07 14:46:39.34	264.93	12.62	-47.0	-48.2	15.1	0.00e+00	0	25	0	987758592	60	4074
2026-01-07 14:46:42.36	265.49	12.72	-46.7	-47.9	15.2	0.00e+00	0	25	0	1004535808	60	3920
2026-01-07 14:46:45.38	266.05	12.82	-47.3	-48.5	14.9	0.00e+00	0	25	0	1021313024	59	4475
2026-01-07 14:46:48.40	266.61	12.92	-47.1	-48.3	15.1	0.00e+00	0	25	0	1038090240	60	4118
2026-01-07 14:46:51.42	267.18	13.02	-47.0	-48.2	15.1	0.00e+00	0	25	0	1054867456	60	4065
2026-01-07 14:46:54.45	267.75	13.11	-46.7	-47.9	15.2	0.00e+00	0	25	0	1072693248	60	3927
2026-01-07 14:46:57.49	268.33	13.20	-47.1	-48.3	15.0	0.00e+00	0	25	0	1089470464	59	4380
2026-01-07 14:47:00.48	268.90	13.29	-47.1	-48.3	15.0	0.00e+00	0	25	0	1106247680	59	4353
2026-01-07 14:47:03.48	269.48	13.37	-47.2	-48.4	14.9	0.00e+00	0	25	0	1123024896	59	4409
2026-01-07 14:47:06.51	270.07	13.46	-47.3	-48.6	14.9	0.00e+00	0	25	0	1139802112	59	4499
2026-01-07 14:47:09.54	270.66	13.54	-47.2	-48.4	14.9	0.00e+00	0	25	0	1157627904	59	4441
2026-01-07 14:47:12.57	271.25	13.62	-47.3	-48.5	14.9	0.00e+00	0	25	0	1174405120	59	4454
2026-01-07 14:47:15.59	271.84	13.69	-47.1	-48.3	15.0	0.00e+00	0	25	0	1191182336	59	4381
2026-01-07 14:47:18.61	272.44	13.76	-47.3	-48.5	14.9	0.00e+00	0	25	0	1207959552	59	4490
2026-01-07 14:47:21.63	273.04	13.84	-47.1	-48.3	15.0	0.00e+00	0	25	0	1224736768	59	4373
2026-01-07 14:47:24.66	273.64	13.90	-47.0	-48.1	15.1	0.00e+00	0	25	0	1242562560	59	4270
2026-01-07 14:47:27.69	274.25	13.97	-47.1	-48.3	15.0	0.00e+00	0	25	0	1259339776	59	4378
2026-01-07 14:47:30.71	274.85	14.03	-47.1	-48.3	15.0	0.00e+00	0	25	0	1276116992	59	4380
2026-01-07 14:47:33.96	275.51	14.10	-47.0	-48.2	15.1	0.00e+00	0	25	0	1292894208	59	4294
2026-01-07 14:47:36.84	276.09	14.15	-47.1	-48.3	15.0	0.00e+00	0	25	0	1309671424	59	4382
2026-01-07 14:47:40.01	276.74	14.21	-47.1	-48.3	15.0	0.00e+00	0	25	0	1327497216	59	4375
2026-01-07 14:47:42.89	277.33	14.25	-47.4	-48.6	14.9	0.00e+00	0	25	0	1343225856	59	4508
2026-01-07 14:47:46.05	277.97	14.30	-47.1	-48.3	15.1	0.00e+00	0	25	0	1361051648	60	4109
2026-01-07 14:47:48.93	278.56	14.35	-47.0	-48.2	15.1	0.00e+00	0	25	0	1377828864	60	4066
2026-01-07 14:47:52.09	279.21	14.39	-46.7	-47.9	15.3	0.00e+00	0	25	0	1394606080	60	3928
2026-01-07 14:47:54.98	279.81	14.43	-46.9	-48.0	15.2	0.00e+00	0	25	0	1411383296	60	3993
2026-01-07 14:47:58.14	280.46	14.47	-47.0	-48.2	15.1	0.00e+00	0	25	0	1429209088	60	4060
2026-01-07 14:48:01.01	281.06	14.50	-46.9	-48.0	15.2	0.00e+00	0	25	0	1444937728	60	4000
2026-01-07 14:48:04.17	281.71	14.53	-46.9	-48.0	15.2	0.00e+00	0	25	0	1462763520	60	3991
2026-01-07 14:48:07.05	282.31	14.55	-46.7	-47.8	15.3	0.00e+00	0	25	0	1479540736	60	3906
2026-01-07 14:48:10.22	282.97	14.58	-47.0	-48.2	15.0	0.00e+00	0	25	0	1497366528	59	4320
2026-01-07 14:48:13.10	283.57	14.60	-47.2	-48.4	15.0	0.00e+00	0	25	0	1513095168	59	4409
2026-01-07 14:48:16.26	284.23	14.61	-47.3	-48.5	14.9	0.00e+00	0	25	0	1530920960	59	4466
2026-01-07 14:48:19.14	284.84	14.63	-47.2	-48.4	15.0	0.00e+00	0	25	0	1547698176	59	4409
2026-01-07 14:48:22.31	285.50	14.64	-47.3	-48.6	14.9	0.00e+00	0	25	0	1565523968	59	4496
2026-01-07 14:48:25.19	286.10	14.64	-47.2	-48.3	15.1	0.00e+00	0	25	0	1581252608	60	4134
2026-01-07 14:48:28.36	286.77	14.65	-47.2	-48.3	15.1	0.00e+00	0	25	0	1599078400	60	4143
2026-01-07 14:48:31.24	287.37	14.65	-47.1	-48.2	15.1	0.00e+00	0	25	0	1614807040	60	4087
2026-01-07 14:48:34.41	288.03	14.65	-47.0	-48.1	15.2	0.00e+00	0	25	0	1633681408	60	4042
2026-01-07 14:48:37.30	288.64	14.64	-47.1	-48.2	15.1	0.00e+00	0	25	0	1649410048	60	4093
2026-01-07 14:48:40.47	289.30	14.63	-47.1	-48.2	15.1	0.00e+00	0	25	0	1667235840	60	4073
2026-01-07 14:48:43.34	289.90	14.62	-47.1	-48.3	15.1	0.00e+00	0	25	0	1682964480	60	4122
2026-01-07 14:48:46.51	290.57	14.60	-47.2	-48.4	15.1	0.00e+00	0	25	0	1701838848	60	4155
2026-01-07 14:48:49.39	291.17	14.58	-47.3	-48.4	15.0	0.00e+00	0	25	0	1717567488	60	4184
2026-01-07 14:48:52.57	291.83	14.56	-47.2	-48.4	15.1	0.00e+00	0	25	0	1735393280	60	4176
2026-01-07 14:48:55.45	292.43	14.54	-47.0	-48.1	15.2	0.00e+00	0	26	0	1751121920	60	4039
2026-01-07 14:48:58.62	293.09	14.51	-47.1	-48.3	15.1	0.00e+00	0	25	0	1768947712	60	4100
2026-01-07 14:49:01.50	293.68	14.48	-47.2	-48.4	15.0	0.00e+00	0	25	0	1785724928	60	4160
2026-01-07 14:49:04.66	294.34	14.44	-47.1	-48.3	15.1	0.00e+00	0	25	0	1803550720	60	4124
2026-01-07 14:49:07.53	294.93	14.41	-47.3	-48.5	15.0	0.00e+00	0	25	0	1819279360	60	4205
2026-01-07 14:49:10.70	295.58	14.36	-47.2	-48.3	15.1	0.00e+00	0	25	0	1837105152	60	4142
2026-01-07 14:49:13.58	296.17	14.32	-47.2	-48.4	15.0	0.00e+00	0	25	0	1853882368	60	4163
2026-01-07 14:49:16.76	296.82	14.27	-47.0	-48.2	15.1	0.00e+00	0	25	0	1871708160	60	4065
2026-01-07 14:49:19.64	297.41	14.23	-47.1	-48.3	15.1	0.00e+00	0	25	0	1887436800	60	4103
2026-01-07 14:49:22.81	298.05	14.17	-47.2	-48.3	15.1	0.00e+00	0	25	0	1905262592	60	4139
2026-01-07 14:49:25.70	298.64	14.12	-47.3	-48.5	15.0	0.00e+00	0	25	0	1922039808	60	4228
2026-01-07 14:49:28.85	299.28	14.06	-47.3	-48.4	15.0	0.00e+00	0	25	0	1938817024	60	4181
2026-01-07 14:49:31.72	299.85	14.00	-47.3	-48.5	15.0	0.00e+00	0	25	0	1955594240	60	4199
2026-01-07 14:49:34.89	300.49	13.93	-47.3	-48.5	15.0	0.00e+00	0	25	0	1973420032	60	4198
2026-01-07 14:49:37.78	301.06	13.87	-47.3	-48.5	15.0	0.00e+00	0	25	0	1989148672	60	4199
2026-01-07 14:49:40.95	301.69	13.80	-47.4	-48.6	14.9	0.00e+00	0	25	0	2006974464	60	4281
2026-01-07 14:49:43.83	302.26	13.73	-47.4	-48.6	14.9	0.00e+00	0	25	0	2023751680	60	4276
2026-01-07 14:49:47.00	302.88	13.65	-47.4	-48.6	15.0	0.00e+00	0	25	0	2041577472	60	4250
2026-01-07 14:49:49.88	303.45	13.58	-47.4	-48.6	14.9	0.00e+00	0	25	0	2057306112	60	4289
2026-01-07 14:49:53.05	304.06	13.49	-47.5	-48.7	14.9	0.00e+00	0	25	0	2075131904	60	4304
2026-01-07 14:49:55.94	304.62	13.41	-47.3	-48.5	14.9	0.00e+00	0	25	0	2091909120	60	4236
2026-01-07 14:49:59.11	305.23	13.33	-47.4	-48.6	15.0	0.00e+00	0	25	0	2109734912	60	4260
2026-01-07 14:50:01.99	305.78	13.24	-47.3	-48.5	15.0	0.00e+00	0	25	0	2125463552	60	4219
2026-01-07 14:50:05.15	306.38	13.15	-47.3	-48.5	15.0	0.00e+00	0	26	0	2143289344	60	4209
2026-01-07 14:50:08.04	306.93	13.06	-47.5	-48.7	14.9	0.00e+00	0	25	0	2160066560	60	4339
2026-01-07 14:50:11.21	307.52	12.96	-47.6	-48.8	14.9	0.00e+00	0	25	0	2177892352	60	4366
2026-01-07 14:50:14.09	308.06	12.87	-47.4	-48.6	14.9	0.00e+00	0	25	0	2193620992	60	4285
2026-01-07 14:50:17.27	308.65	12.77	-47.4	-48.6	14.9	0.00e+00	0	25	0	2211446784	60	4289
2026-01-07 14:50:20.15	309.18	12.67	-47.4	-48.6	14.9	0.00e+00	0	25	0	2228224000	60	4290
2026-01-07 14:50:23.31	309.76	12.57	-47.4	-48.6	14.9	0.00e+00	0	25	0	2246049792	60	4281
2026-01-07 14:50:26.19	310.29	12.47	-47.6	-48.8	14.9	0.00e+00	0	25	0	2261778432	60	4387
2026-01-07 14:50:29.35	310.86	12.36	-47.6	-48.8	14.8	0.00e+00	0	25	0	2279604224	60	4390
2026-01-07 14:50:32.22	311.37	12.26	-47.4	-48.6	14.9	0.00e+00	0	25	0	2296381440	60	4291
2026-01-07 14:50:35.39	311.94	12.14	-47.6	-48.9	14.8	0.00e+00	0	25	0	2313158656	60	4399
2026-01-07 14:50:38.27	312.44	12.04	-47.7	-48.9	14.8	0.00e+00	0	25	0	2329935872	60	4430
2026-01-07 14:50:41.45	313.00	11.92	-47.6	-48.9	14.8	0.00e+00	0	25	0	2347761664	60	4396
2026-01-07 14:50:44.33	313.50	11.81	-47.8	-49.0	14.8	0.00e+00	0	25	0	2363490304	60	4486
2026-01-07 14:50:47.50	314.05	11.69	-47.9	-49.1	14.7	0.00e+00	0	25	0	2381316096	60	4531
2026-01-07 14:50:50.38	314.55	11.57	-47.7	-48.9	14.8	0.00e+00	0	25	0	2398093312	60	4414
2026-01-07 14:50:53.55	315.08	11.45	-47.6	-48.8	14.8	0.00e+00	0	25	0	2415919104	60	4386
2026-01-07 14:50:56.43	315.57	11.33	-47.8	-49.0	14.7	0.00e+00	0	25	0	2431647744	60	4474
2026-01-07 14:50:59.59	316.10	11.21	-47.9	-49.2	14.8	0.00e+00	0	25	0	2449473536	61	4303
2026-01-07 14:51:02.48	316.58	11.09	-47.9	-49.1	14.8	0.00e+00	0	25	0	2466250752	61	4288
2026-01-07 14:51:05.64	317.10	10.96	-47.7	-48.9	14.9	0.00e+00	0	25	0	2484076544	61	4187
2026-01-07 14:51:08.52	317.57	10.84	-47.7	-49.0	14.9	0.00e+00	0	25	0	2499805184	61	4201
2026-01-07 14:51:11.69	318.08	10.71	-47.8	-49.0	14.8	0.00e+00	0	25	0	2517630976	61	4237
2026-01-07 14:51:14.57	318.55	10.58	-48.0	-49.3	14.7	0.00e+00	0	25	0	2534408192	61	4346
2026-01-07 14:51:17.74	319.05	10.45	-48.1	-49.4	14.7	0.00e+00	0	25	0	2552233984	61	4440
2026-01-07 14:51:20.62	319.51	10.32	-48.2	-49.5	14.7	0.00e+00	0	25	0	2567962624	61	4465
2026-01-07 14:51:23.79	320.00	10.19	-48.2	-49.5	14.6	0.00e+00	0	25	0	2585788416	61	4491
2026-01-07 14:51:26.67	320.45	10.06	-48.1	-49.4	14.7	0.00e+00	0	25	0	2602565632	61	4422
2026-01-07 14:51:29.84	320.94	9.92	-48.3	-49.6	14.6	0.00e+00	0	25	0	2620391424	61	4499
2026-01-07 14:51:32.72	321.38	9.79	-48.1	-49.4	14.7	0.00e+00	0	26	0	2636120064	61	4420
2026-01-07 14:51:35.88	321.85	9.65	-48.2	-49.4	14.6	0.00e+00	0	25	0	2653945856	61	4440
2026-01-07 14:51:38.76	322.29	9.52	-48.2	-49.5	14.6	0.00e+00	0	25	0	2669674496	61	4470
2026-01-07 14:51:41.92	322.76	9.38	-48.1	-49.4	14.7	0.00e+00	0	25	0	2687500288	61	4426
2026-01-07 14:51:44.80	323.18	9.25	-48.1	-49.4	14.6	0.00e+00	0	25	0	2704277504	61	4419
2026-01-07 14:51:47.96	323.64	9.11	-48.2	-49.5	14.6	0.00e+00	0	25	0	2722103296	61	4451
2026-01-07 14:51:50.84	324.06	8.97	-48.2	-49.5	14.5	0.00e+00	0	25	0	2737831936	61	4445
2026-01-07 14:51:54.02	324.51	8.83	-48.2	-49.5	14.6	0.00e+00	0	25	0	2755657728	61	4476
2026-01-07 14:51:56.90	324.92	8.69	-48.4	-49.8	14.4	0.00e+00	0	25	0	2772434944	62	4366
2026-01-07 14:52:00.06	325.36	8.55	-48.4	-49.7	14.6	0.00e+00	0	25	0	2790260736	62	4332
2026-01-07 14:52:02.94	325.76	8.41	-48.4	-49.8	13.3	0.00e+00	0	25	0	2805989376	62	4362
2026-01-07 14:52:06.11	326.20	8.26	-48.4	-49.9	12.7	0.00e+00	0	25	0	2823815168	62	4411
2026-01-07 14:52:08.99	326.59	8.13	-48.6	-49.9	14.2	0.00e+00	0	25	0	2840592384	62	4433
2026-01-07 14:52:12.16	327.02	7.98	-48.7	-50.2	14.4	0.00e+00	0	25	0	2858418176	62	4556
2026-01-07 14:52:15.04	327.41	7.84	-48.5	-50.0	14.4	0.00e+00	0	25	0	2874146816	62	4462
2026-01-07 14:52:18.22	327.83	7.69	-48.8	-50.2	14.4	0.00e+00	0	25	0	2891972608	62	4590
2026-01-07 14:52:21.10	328.21	7.56	-48.9	-50.3	14.4	0.00e+00	0	25	0	2907701248	63	4348
2026-01-07 14:52:24.26	328.62	7.41	-48.6	-50.0	14.6	0.00e+00	0	25	0	2926575616	63	4218
2026-01-07 14:52:27.14	328.99	7.27	-48.8	-50.1	14.5	0.00e+00	0	25	0	2942304256	63	4285
2026-01-07 14:52:30.30	329.40	7.12	-48.9	-50.3	14.5	0.00e+00	0	25	0	2960130048	63	4356
2026-01-07 14:52:33.18	329.76	6.98	-48.7	-50.1	14.4	0.00e+00	0	25	0	2975858688	63	4271
2026-01-07 14:52:36.36	330.16	6.83	-49.0	-50.4	14.4	0.00e+00	0	25	0	2994733056	63	4412
2026-01-07 14:52:39.24	330.52	6.69	-49.0	-50.4	14.4	0.00e+00	0	25	0	3010461696	63	4428
2026-01-07 14:52:42.41	330.91	6.54	-49.0	-50.4	14.4	0.00e+00	0	25	0	3028287488	63	4420
2026-01-07 14:52:45.29	331.26	6.40	-49.2	-50.6	14.2	0.00e+00	0	25	0	3044016128	63	4536
2026-01-07 14:52:48.46	331.64	6.25	-49.0	-50.5	14.3	0.00e+00	0	25	0	3061841920	63	4457
2026-01-07 14:52:51.34	331.99	6.11	-49.0	-50.5	14.3	0.00e+00	0	25	0	3078619136	63	4442
2026-01-07 14:52:54.51	332.36	5.95	-49.1	-50.6	14.4	0.00e+00	0	25	0	3096444928	64	4245
2026-01-07 14:52:57.39	332.70	5.82	-49.5	-51.0	14.1	0.00e+00	0	25	0	3112173568	64	4479
2026-01-07 14:53:00.55	333.07	5.66	-49.7	-51.3	14.0	0.00e+00	0	25	0	3129999360	64	4615
2026-01-07 14:53:03.44	333.40	5.52	-49.8	-51.4	13.9	0.00e+00	0	25	0	3146776576	64	4684
2026-01-07 14:53:06.60	333.76	5.37	-49.7	-51.3	13.9	0.00e+00	0	25	0	3164602368	64	4649
2026-01-07 14:53:09.48	334.09	5.23	-49.8	-51.5	13.9	0.00e+00	0	25	0	3180331008	65	4448
2026-01-07 14:53:12.64	334.44	5.08	-50.1	-51.8	13.5	0.00e+00	0	25	0	3198156800	65	4650
2026-01-07 14:53:15.53	334.76	4.94	-58.2	-70.5	3.8	4.87e-01	0	25	104	3212836864	81	15841
2026-01-07 14:53:18.70	335.11	4.79	-59.3	-72.4	3.8	8.47e-01	0	25	104	3212836864	83	17487
2026-01-07 14:53:21.58	335.42	4.65	-59.9	-72.9	3.8	8.45e-01	0	25	104	3212836864	84	17665
2026-01-07 14:53:24.74	335.76	4.50	-60.1	-73.1	3.8	8.46e-01	0	25	104	3212836864	85	17060
2026-01-07 14:53:27.63	336.07	4.36	-60.2	-73.2	3.8	8.46e-01	0	25	104	3212836864	85	17244
2026-01-07 14:53:30.80	336.40	4.20	-60.2	-73.3	3.8	8.45e-01	0	25	104	3212836864	85	17345
2026-01-07 14:53:33.68	336.71	4.06	-60.3	-73.4	3.8	8.47e-01	0	25	104	3212836864	85	17540
2026-01-07 14:53:36.86	337.04	3.91	-60.3	-73.4	3.8	8.45e-01	0	26	104	3212836864	85	17524
2026-01-07 14:53:39.74	337.33	3.77	-60.2	-73.3	3.8	8.45e-01	0	25	104	3212836864	85	17315
2026-01-07 14:53:42.91	337.65	3.62	-60.1	-73.2	3.8	8.45e-01	0	25	104	3212836864	85	17270
2026-01-07 14:53:45.79	337.94	3.48	-60.1	-73.2	3.8	8.45e-01	0	25	104	3212836864	85	17210
2026-01-07 14:53:48.96	338.26	3.33	-60.1	-73.2	3.8	8.45e-01	0	26	104	3212836864	85	17132
2026-01-07 14:53:51.84	338.55	3.19	-60.0	-73.1	3.8	8.46e-01	0	26	104	3212836864	85	17040
2026-01-07 14:53:55.01	338.86	3.04	-60.0	-73.1	3.8	8.46e-01	0	25	104	3212836864	85	17058
2026-01-07 14:53:57.90	339.14	2.90	-60.0	-73.1	3.8	8.45e-01	0	25	104	3212836864	85	16988
2026-01-07 14:54:01.07	339.44	2.75	-60.0	-73.1	3.8	8.46e-01	0	25	104	3212836864	85	16900
2026-01-07 14:54:03.96	339.72	2.61	-60.0	-73.1	3.8	8.46e-01	0	26	104	3212836864	85	16899
2026-01-07 14:54:07.12	340.02	2.46	-60.0	-73.1	3.8	8.45e-01	0	25	104	3212836864	85	16901
2026-01-07 14:54:09.99	340.28	2.33	-60.0	-73.1	3.8	8.45e-01	0	26	104	3212836864	85	16928
2026-01-07 14:54:13.17	340.58	2.17	-59.9	-73.0	3.8	8.45e-01	0	26	104	3212836864	85	16779
2026-01-07 14:54:16.05	340.84	2.04	-59.9	-73.0	3.8	8.46e-01	0	25	104	3212836864	85	16845

#Closed at: 2026-01-07 14:54:18
#Recorded file [3212 MB]: D:/lorett/data/31004_260107_174246.dat