passes_logs/2026/01/07/R3.2S_Murmansk/R3.2S_Murmansk__20260107_172348_TY-39_rec.log

#Pass ID: 20260107_172348_TY-39
#Satellite: TY-39
#Configuration: TY-39
#almurnet v.1.7.20251203
#Start time: 2026-01-07 17:23:48

#Version: 2.2.20231116
#Station: R3.2S_Murmansk
#Location: 33.079688 lon 68.888172 lat
#TLE: 1 51832U 22019J   26005.60812338  .00003126  00000-0  14986-3 0  9990
#TLE: 2 51832  97.3660  72.5273 0010440  80.2600 279.9813 15.19590096213104

#Time	Az	El	Level	Level2	SNR	BER	BlckErr	Temp	State	Recorded	gain1	gain2
2026-01-07 17:23:48.33	134.15	1.98	-56.9	-60.0	3.7	0.00e+00	0	27	0	0	80	20865
2026-01-07 17:23:51.36	134.04	2.19	-57.0	-60.2	3.6	0.00e+00	0	27	104	0	81	19973
2026-01-07 17:23:54.39	133.94	2.40	-57.0	-60.1	3.7	0.00e+00	0	28	104	0	81	19919
2026-01-07 17:23:57.42	133.83	2.62	-57.0	-60.2	3.7	0.00e+00	0	28	104	0	81	20062
2026-01-07 17:24:00.45	133.72	2.83	-57.0	-60.2	3.7	0.00e+00	0	28	104	0	81	20109
2026-01-07 17:24:03.47	133.61	3.05	-57.0	-60.2	3.7	0.00e+00	0	28	104	0	81	20085
2026-01-07 17:24:06.49	133.49	3.27	-57.0	-60.2	3.6	0.00e+00	0	28	104	0	81	20131
2026-01-07 17:24:09.52	133.37	3.49	-57.0	-60.2	3.7	0.00e+00	0	28	104	0	81	20036
2026-01-07 17:24:12.55	133.25	3.72	-57.0	-60.3	3.6	0.00e+00	0	28	104	0	81	20180
2026-01-07 17:24:15.57	133.13	3.94	-57.0	-60.2	3.7	0.00e+00	0	29	104	0	81	19991
2026-01-07 17:24:18.59	133.01	4.17	-57.0	-60.2	3.7	0.00e+00	0	29	104	0	81	20102
2026-01-07 17:24:21.62	132.88	4.40	-57.0	-60.2	3.7	0.00e+00	0	29	104	0	81	20123
2026-01-07 17:24:24.64	132.75	4.64	-57.0	-60.3	3.6	0.00e+00	0	29	104	0	81	20207
2026-01-07 17:24:27.66	132.62	4.87	-57.0	-60.2	3.7	0.00e+00	0	29	104	0	81	20141
2026-01-07 17:24:30.68	132.48	5.11	-57.1	-60.3	3.7	0.00e+00	0	29	104	0	81	20260
2026-01-07 17:24:33.70	132.34	5.35	-57.2	-60.4	3.7	0.00e+00	0	29	104	0	81	20564
2026-01-07 17:24:36.70	132.20	5.60	-57.1	-60.3	3.7	0.00e+00	0	29	104	0	81	20314
2026-01-07 17:24:39.70	132.05	5.84	-57.3	-60.5	3.6	0.00e+00	0	29	104	0	81	20795
2026-01-07 17:24:42.70	131.91	6.09	-57.2	-60.4	3.7	0.00e+00	0	29	104	0	81	20625
2026-01-07 17:24:45.68	131.75	6.34	-57.3	-60.5	3.6	0.00e+00	0	29	104	0	81	20852
2026-01-07 17:24:48.69	131.60	6.60	-50.3	-51.0	7.1	9.10e-03	0	30	0	50331648	66	16522
2026-01-07 17:24:51.71	131.44	6.86	-44.1	-44.4	11.3	2.77e-05	0	30	0	218103808	55	14576
2026-01-07 17:24:54.72	131.28	7.12	-43.6	-43.9	11.5	0.00e+00	0	30	0	444596224	54	14521
2026-01-07 17:24:57.73	131.11	7.39	-43.5	-43.8	11.5	6.90e-06	0	30	0	671088640	54	14435
2026-01-07 17:25:00.73	130.94	7.65	-43.5	-43.8	11.6	0.00e+00	0	30	0	897581056	54	14303
2026-01-07 17:25:03.76	130.76	7.93	-43.2	-43.5	11.6	0.00e+00	0	31	0	1115684864	53	14710
2026-01-07 17:25:06.76	130.58	8.21	-43.3	-43.7	11.5	0.00e+00	0	31	0	1342177280	53	14952
2026-01-07 17:25:09.77	130.40	8.49	-43.1	-43.4	11.7	0.00e+00	0	31	0	1568669696	53	14605
2026-01-07 17:25:12.78	130.21	8.77	-43.0	-43.3	11.8	0.00e+00	0	31	0	1795162112	53	14354
2026-01-07 17:25:15.80	130.01	9.06	-42.8	-43.1	11.8	0.00e+00	0	31	0	2021654528	52	14928
2026-01-07 17:25:18.82	129.81	9.36	-42.8	-43.1	11.8	0.00e+00	0	31	0	2248146944	52	14905
2026-01-07 17:25:21.82	129.61	9.65	-42.8	-43.1	11.8	0.00e+00	0	31	0	2474639360	52	14861
2026-01-07 17:25:24.82	129.40	9.95	-42.7	-43.0	11.9	0.00e+00	0	31	0	2701131776	52	14627
2026-01-07 17:25:27.82	129.18	10.26	-42.6	-42.9	11.9	0.00e+00	0	31	0	2927624192	52	14600
2026-01-07 17:25:30.83	128.96	10.57	-42.5	-42.8	12.0	0.00e+00	0	31	0	3154116608	52	14282
2026-01-07 17:25:33.83	128.74	10.89	-42.5	-42.8	11.9	0.00e+00	0	31	0	3380609024	51	15141
2026-01-07 17:25:36.85	128.50	11.21	-42.4	-42.7	12.0	0.00e+00	0	31	0	3598712832	51	14965
2026-01-07 17:25:39.86	128.26	11.54	-42.2	-42.5	12.1	0.00e+00	0	31	0	3825205248	51	14617
2026-01-07 17:25:42.88	128.01	11.87	-42.1	-42.4	12.2	0.00e+00	0	31	0	4060086272	51	14445
2026-01-07 17:25:45.89	127.76	12.21	-42.0	-42.3	12.2	0.00e+00	0	31	0	4278190080	51	14406
2026-01-07 17:25:48.90	127.49	12.55	-42.0	-42.3	12.2	0.00e+00	0	31	0	4504682496	51	14355
2026-01-07 17:25:51.91	127.22	12.90	-41.8	-42.1	12.2	0.00e+00	0	31	0	4731174912	50	14854
2026-01-07 17:25:54.92	126.94	13.26	-41.7	-42.0	12.3	0.00e+00	0	31	0	4957667328	50	14667
2026-01-07 17:25:57.94	126.66	13.62	-41.7	-42.0	12.3	0.00e+00	0	31	0	5184159744	50	14640
2026-01-07 17:26:00.95	126.36	13.99	-41.5	-41.7	12.4	0.00e+00	0	32	0	5410652160	50	14265
2026-01-07 17:26:03.96	126.06	14.36	-41.5	-41.8	12.3	0.00e+00	0	31	0	5637144576	50	14411
2026-01-07 17:26:06.97	125.74	14.74	-41.3	-41.5	12.3	0.00e+00	0	31	0	5863636992	49	14755
2026-01-07 17:26:09.98	125.42	15.13	-41.2	-41.5	12.4	0.00e+00	0	32	0	6090129408	49	14643
2026-01-07 17:26:12.99	125.08	15.53	-41.0	-41.3	12.5	0.00e+00	0	31	0	6316621824	49	14384
2026-01-07 17:26:16.01	124.73	15.94	-41.0	-41.3	12.5	0.00e+00	0	32	0	6534725632	49	14348
2026-01-07 17:26:19.03	124.37	16.35	-40.8	-41.0	12.5	0.00e+00	0	32	0	6769606656	48	14768
2026-01-07 17:26:22.05	124.00	16.77	-40.7	-41.0	12.5	0.00e+00	0	32	0	6996099072	48	14699
2026-01-07 17:26:25.06	123.62	17.20	-40.6	-40.9	12.6	0.00e+00	0	32	0	7214202880	48	14454
2026-01-07 17:26:28.07	123.22	17.64	-40.4	-40.7	12.6	0.00e+00	0	32	0	7440695296	48	14169
2026-01-07 17:26:31.08	122.81	18.08	-39.6	-39.9	12.5	0.00e+00	0	32	0	7667187712	46	14527
2026-01-07 17:26:34.09	122.39	18.54	-39.5	-39.8	12.5	0.00e+00	0	32	0	7893680128	46	14365
2026-01-07 17:26:37.10	121.95	19.00	-39.3	-39.6	12.5	0.00e+00	0	32	0	8120172544	45	14845
2026-01-07 17:26:40.12	121.49	19.48	-39.3	-39.6	12.5	0.00e+00	0	32	0	8346664960	45	14901
2026-01-07 17:26:43.13	121.01	19.96	-39.2	-39.5	12.5	0.00e+00	0	32	0	8573157376	45	14634
2026-01-07 17:26:46.15	120.52	20.46	-39.0	-39.3	12.6	0.00e+00	0	32	0	8799649792	45	14363
2026-01-07 17:26:49.17	120.01	20.97	-38.9	-39.2	12.7	0.00e+00	0	32	0	9026142208	45	14150
2026-01-07 17:26:52.20	119.48	21.48	-38.7	-39.0	12.6	0.00e+00	0	32	0	9252634624	44	14731
2026-01-07 17:26:55.21	118.92	22.01	-38.6	-38.9	12.6	0.00e+00	0	32	0	9479127040	44	14557
2026-01-07 17:26:58.21	118.35	22.55	-38.5	-38.8	12.7	0.00e+00	0	32	0	9705619456	44	14279
2026-01-07 17:27:01.23	117.75	23.10	-38.4	-38.7	12.7	0.00e+00	0	32	0	9932111872	44	14141
2026-01-07 17:27:04.25	117.13	23.66	-38.2	-38.5	12.7	0.00e+00	0	32	0	10158604288	43	14622
2026-01-07 17:27:07.26	116.48	24.23	-38.0	-38.3	12.8	0.00e+00	0	32	0	10385096704	43	14358
2026-01-07 17:27:10.27	115.81	24.81	-37.9	-38.2	12.8	0.00e+00	0	32	0	10603200512	43	14204
2026-01-07 17:27:13.28	115.10	25.41	-37.8	-38.0	12.8	0.00e+00	0	32	0	10838081536	42	14774
2026-01-07 17:27:16.30	114.37	26.02	-37.7	-37.9	12.8	0.00e+00	0	32	0	11064573952	42	14571
2026-01-07 17:27:19.32	113.60	26.64	-37.6	-37.8	12.8	0.00e+00	0	32	0	11282677760	42	14417
2026-01-07 17:27:22.34	112.79	27.28	-37.4	-37.7	12.9	0.00e+00	0	32	0	11517558784	42	14192
2026-01-07 17:27:25.36	111.95	27.92	-37.3	-37.5	12.8	0.00e+00	0	32	0	11735662592	41	14762
2026-01-07 17:27:28.37	111.08	28.58	-37.2	-37.5	12.8	0.00e+00	0	32	0	11962155008	41	14666
2026-01-07 17:27:31.38	110.16	29.24	-37.1	-37.4	12.9	0.00e+00	0	32	0	12197036032	41	14484
2026-01-07 17:27:34.39	109.20	29.92	-36.9	-37.1	13.0	0.00e+00	0	32	0	12415139840	41	14053
2026-01-07 17:27:37.41	108.19	30.61	-36.8	-37.1	12.9	0.00e+00	0	32	0	12641632256	40	14814
2026-01-07 17:27:40.42	107.14	31.31	-36.5	-36.8	13.0	0.00e+00	0	32	0	12868124672	40	14330
2026-01-07 17:27:43.44	106.03	32.02	-36.6	-36.8	13.0	0.00e+00	0	32	0	13094617088	40	14391
2026-01-07 17:27:46.44	104.87	32.73	-36.4	-36.6	12.9	0.00e+00	0	32	0	13321109504	39	14900
2026-01-07 17:27:49.46	103.66	33.46	-36.3	-36.5	13.0	0.00e+00	0	32	0	13547601920	39	14751
2026-01-07 17:27:52.47	102.38	34.18	-36.2	-36.5	12.9	0.00e+00	0	32	0	13774094336	39	14645
2026-01-07 17:27:55.49	101.04	34.92	-36.0	-36.3	13.1	0.00e+00	0	32	0	14000586752	39	14314
2026-01-07 17:27:58.51	99.63	35.66	-35.9	-36.2	12.9	0.00e+00	0	32	0	14227079168	38	15013
2026-01-07 17:28:01.52	98.16	36.39	-35.7	-36.0	13.0	0.00e+00	0	32	0	14453571584	38	14666
2026-01-07 17:28:04.55	96.61	37.13	-35.5	-35.8	13.1	0.00e+00	0	32	0	14680064000	38	14322
2026-01-07 17:28:07.56	94.99	37.85	-35.5	-35.7	13.1	0.00e+00	0	32	0	14906556416	38	14194
2026-01-07 17:28:10.56	93.30	38.57	-35.3	-35.5	13.0	0.00e+00	0	32	0	15133048832	37	14704
2026-01-07 17:28:13.57	91.52	39.27	-35.2	-35.5	13.0	0.00e+00	0	32	0	15351152640	37	14616
2026-01-07 17:28:16.59	89.66	39.97	-35.2	-35.5	13.0	0.00e+00	0	32	0	15586033664	37	14647
2026-01-07 17:28:19.61	87.71	40.64	-35.0	-35.2	13.1	0.00e+00	0	32	0	15812526080	37	14266
2026-01-07 17:28:22.63	85.68	41.29	-34.9	-35.2	13.1	0.00e+00	0	32	0	16039018496	37	14150
2026-01-07 17:28:25.64	83.56	41.91	-34.8	-35.1	13.0	0.00e+00	0	32	0	16265510912	36	14806
2026-01-07 17:28:28.65	81.37	42.50	-34.8	-35.1	13.1	0.00e+00	0	32	0	16483614720	36	14817
2026-01-07 17:28:31.66	79.09	43.04	-34.8	-35.0	13.1	0.00e+00	0	32	0	16710107136	36	14725
2026-01-07 17:28:34.66	76.74	43.55	-34.6	-34.9	13.1	0.00e+00	0	32	0	16936599552	36	14523
2026-01-07 17:28:37.68	74.30	44.01	-34.6	-34.9	13.1	0.00e+00	0	32	0	17163091968	36	14456
2026-01-07 17:28:40.69	71.80	44.42	-34.6	-34.8	13.1	0.00e+00	0	32	0	17389584384	36	14381
2026-01-07 17:28:43.70	69.23	44.77	-34.5	-34.7	13.2	0.00e+00	0	32	0	17616076800	36	14215
2026-01-07 17:28:46.71	66.61	45.06	-34.5	-34.7	13.2	0.00e+00	0	32	0	17842569216	36	14199
2026-01-07 17:28:49.74	63.93	45.28	-34.5	-34.7	13.1	0.00e+00	0	32	0	18069061632	36	14272
2026-01-07 17:28:52.75	61.24	45.44	-34.4	-34.7	13.1	0.00e+00	0	32	0	18295554048	36	14178
2026-01-07 17:28:55.77	58.51	45.54	-34.6	-34.9	13.1	0.00e+00	0	32	0	18522046464	36	14499
2026-01-07 17:28:58.78	55.78	45.56	-34.4	-34.7	13.1	0.00e+00	0	32	0	18748538880	36	14152
2026-01-07 17:29:01.80	53.04	45.51	-34.5	-34.7	13.2	0.00e+00	0	32	0	18975031296	36	14245
2026-01-07 17:29:04.83	50.31	45.39	-34.4	-34.7	13.2	0.00e+00	0	32	0	19201523712	36	14138
2026-01-07 17:29:07.85	47.62	45.20	-34.4	-34.7	13.2	0.00e+00	0	33	0	19428016128	36	14169
2026-01-07 17:29:10.86	44.98	44.95	-34.5	-34.7	13.1	0.00e+00	0	32	0	19654508544	36	14243
2026-01-07 17:29:13.89	42.36	44.64	-34.7	-35.0	13.1	0.00e+00	0	32	0	19881000960	36	14649
2026-01-07 17:29:16.90	39.82	44.27	-34.6	-34.8	13.1	0.00e+00	0	32	0	20107493376	36	14414
2026-01-07 17:29:19.92	37.34	43.84	-34.7	-35.0	13.1	0.00e+00	0	32	0	20333985792	36	14634
2026-01-07 17:29:22.92	34.95	43.36	-34.8	-35.1	13.1	0.00e+00	0	32	0	20552089600	36	14845
2026-01-07 17:29:25.92	32.63	42.84	-34.9	-35.1	13.0	0.00e+00	0	32	0	20778582016	36	14899
2026-01-07 17:29:28.90	30.41	42.29	-35.0	-35.3	13.0	0.00e+00	0	32	0	21005074432	36	15204
2026-01-07 17:29:31.92	28.24	41.69	-35.0	-35.2	13.0	0.00e+00	0	33	0	21231566848	36	15062
2026-01-07 17:29:34.91	26.18	41.06	-35.1	-35.4	13.0	0.00e+00	0	32	0	21458059264	36	15334
2026-01-07 17:29:37.93	24.18	40.40	-35.1	-35.4	13.0	0.00e+00	0	32	0	21684551680	36	15394
2026-01-07 17:29:40.93	22.28	39.73	-35.3	-35.6	12.9	0.00e+00	0	32	0	21911044096	36	15716
2026-01-07 17:29:43.94	20.46	39.04	-35.5	-35.7	12.9	0.00e+00	0	32	0	22137536512	36	15998
2026-01-07 17:29:46.96	18.71	38.32	-35.5	-35.8	13.0	0.00e+00	0	32	0	22355640320	37	15160
2026-01-07 17:29:49.97	17.04	37.61	-35.8	-36.1	12.9	0.00e+00	0	32	0	22582132736	37	15685
2026-01-07 17:29:52.98	15.46	36.88	-35.7	-36.0	12.9	0.00e+00	0	32	0	22817013760	37	15576
2026-01-07 17:29:56.00	13.94	36.15	-35.8	-36.1	12.9	0.00e+00	0	32	0	23035117568	37	15794
2026-01-07 17:29:59.03	12.49	35.41	-35.9	-36.2	12.9	0.00e+00	0	32	0	23269998592	37	15963
2026-01-07 17:30:02.05	11.11	34.68	-36.1	-36.3	12.9	0.00e+00	0	32	0	23488102400	38	15293
2026-01-07 17:30:05.07	9.79	33.95	-36.3	-36.5	12.9	0.00e+00	0	32	0	23714594816	38	15646
2026-01-07 17:30:08.08	8.54	33.22	-36.4	-36.6	12.9	0.00e+00	0	32	0	23949475840	38	15768
2026-01-07 17:30:11.10	7.35	32.50	-36.5	-36.8	12.9	0.00e+00	0	32	0	24167579648	38	16094
2026-01-07 17:30:14.13	6.21	31.79	-36.6	-36.9	12.9	0.00e+00	0	32	0	24394072064	39	15411
2026-01-07 17:30:17.13	5.13	31.09	-36.8	-37.1	12.8	0.00e+00	0	33	0	24620564480	39	15745
2026-01-07 17:30:20.15	4.09	30.40	-36.9	-37.1	12.8	0.00e+00	0	32	0	24847056896	39	15829
2026-01-07 17:30:23.15	3.11	29.72	-37.0	-37.3	12.8	0.00e+00	0	33	0	25073549312	39	16085
2026-01-07 17:30:26.17	2.17	29.04	-37.2	-37.5	12.8	0.00e+00	0	33	0	25300041728	40	15504
2026-01-07 17:30:29.18	1.27	28.38	-37.2	-37.5	12.8	0.00e+00	0	33	0	25526534144	40	15578
2026-01-07 17:30:32.18	0.41	27.74	-37.4	-37.6	12.7	0.00e+00	0	33	0	25753026560	40	15828
2026-01-07 17:30:35.20	359.59	27.10	-37.5	-37.8	12.7	0.00e+00	0	32	0	25979518976	40	16083
2026-01-07 17:30:38.22	358.80	26.47	-37.6	-37.9	12.7	0.00e+00	0	33	0	26206011392	41	15395
2026-01-07 17:30:41.23	358.04	25.86	-37.8	-38.1	12.7	0.00e+00	0	33	0	26432503808	41	15744
2026-01-07 17:30:44.24	357.32	25.26	-37.9	-38.2	12.7	0.00e+00	0	33	0	26658996224	41	15955
2026-01-07 17:30:47.26	356.63	24.67	-38.1	-38.4	12.6	0.00e+00	0	33	0	26885488640	41	16217
2026-01-07 17:30:50.27	355.97	24.09	-38.2	-38.4	12.7	0.00e+00	0	33	0	27103592448	42	15460
2026-01-07 17:30:53.28	355.33	23.52	-38.3	-38.6	12.6	0.00e+00	0	33	0	27338473472	42	15758
2026-01-07 17:30:56.29	354.72	22.97	-38.5	-38.8	12.6	0.00e+00	0	33	0	27564965888	42	16070
2026-01-07 17:30:59.30	354.13	22.43	-38.5	-38.8	12.6	0.00e+00	0	33	0	27783069696	42	16169
2026-01-07 17:31:02.31	353.57	21.89	-38.7	-39.0	12.6	0.00e+00	0	33	0	28009562112	43	15489
2026-01-07 17:31:05.33	353.02	21.37	-38.9	-39.1	12.5	0.00e+00	0	33	0	28236054528	43	15809
2026-01-07 17:31:08.34	352.50	20.86	-39.0	-39.2	12.5	0.00e+00	0	33	0	28462546944	43	16003
2026-01-07 17:31:11.36	352.00	20.36	-39.1	-39.3	12.5	0.00e+00	0	33	0	28689039360	43	16184
2026-01-07 17:31:14.38	351.51	19.87	-39.2	-39.5	12.5	0.00e+00	0	33	0	28915531776	44	15539
2026-01-07 17:31:17.40	351.05	19.39	-39.4	-39.6	12.4	0.00e+00	0	33	0	29142024192	44	15809
2026-01-07 17:31:20.40	350.60	18.92	-39.5	-39.8	12.4	0.00e+00	0	33	0	29368516608	44	16142
2026-01-07 17:31:23.42	350.16	18.46	-39.6	-39.9	12.4	0.00e+00	0	33	0	29595009024	44	16233
2026-01-07 17:31:26.43	349.75	18.01	-39.7	-40.0	12.4	0.00e+00	0	33	0	29821501440	45	15588
2026-01-07 17:31:29.44	349.34	17.57	-39.9	-40.2	12.3	0.00e+00	0	33	0	30047993856	45	15842
2026-01-07 17:31:32.46	348.95	17.13	-40.0	-40.3	12.3	0.00e+00	0	33	0	30274486272	45	16044
2026-01-07 17:31:35.47	348.57	16.71	-40.0	-40.3	12.3	0.00e+00	0	33	0	30500978688	45	16134
2026-01-07 17:31:38.48	348.21	16.29	-40.2	-40.5	12.3	0.00e+00	0	33	0	30727471104	46	15555
2026-01-07 17:31:41.50	347.86	15.88	-40.4	-40.7	12.2	0.00e+00	0	33	0	30953963520	46	15884
2026-01-07 17:31:44.52	347.51	15.48	-40.5	-40.8	12.1	0.00e+00	0	33	0	31172067328	46	16053
2026-01-07 17:31:47.54	347.18	15.09	-40.6	-40.9	12.1	0.00e+00	0	33	0	31406948352	46	16275
2026-01-07 17:31:50.55	346.86	14.70	-40.7	-41.0	12.1	0.00e+00	0	33	0	31633440768	47	15520
2026-01-07 17:31:53.58	346.55	14.32	-40.8	-41.1	12.1	0.00e+00	0	33	0	31851544576	47	15746
2026-01-07 17:31:56.59	346.25	13.95	-40.8	-41.1	12.1	0.00e+00	0	33	0	32086425600	47	15780
2026-01-07 17:31:59.60	345.96	13.58	-40.9	-41.3	12.0	0.00e+00	0	33	0	32304529408	47	16019
2026-01-07 17:32:02.62	345.68	13.22	-41.0	-41.3	11.9	0.00e+00	0	33	0	32531021824	47	16146
2026-01-07 17:32:05.63	345.40	12.87	-42.0	-42.3	12.0	0.00e+00	0	33	0	32765902848	49	16165
2026-01-07 17:32:08.65	345.13	12.52	-42.1	-42.4	12.0	0.00e+00	0	33	0	32984006656	49	16307
2026-01-07 17:32:11.67	344.88	12.18	-42.3	-42.6	12.0	0.00e+00	0	33	0	33210499072	50	15664
2026-01-07 17:32:14.68	344.62	11.85	-42.3	-42.6	12.0	0.00e+00	0	33	0	33436991488	50	15816
2026-01-07 17:32:17.70	344.38	11.52	-42.4	-42.7	12.0	0.00e+00	0	33	0	33663483904	50	16010
2026-01-07 17:32:20.72	344.14	11.19	-42.6	-42.9	11.9	0.00e+00	0	33	0	33889976320	50	16322
2026-01-07 17:32:23.74	343.91	10.87	-42.6	-42.9	11.9	0.00e+00	0	33	0	34116468736	51	15473
2026-01-07 17:32:26.77	343.69	10.56	-42.7	-43.0	11.9	0.00e+00	0	33	0	34342961152	51	15599
2026-01-07 17:32:29.77	343.47	10.25	-42.8	-43.1	11.9	0.00e+00	0	33	0	34569453568	51	15680
2026-01-07 17:32:32.79	343.26	9.94	-42.9	-43.2	11.8	0.00e+00	0	33	0	34795945984	51	16002
2026-01-07 17:32:35.81	343.05	9.64	-43.0	-43.3	11.8	0.00e+00	0	33	0	35022438400	51	16138
2026-01-07 17:32:38.82	342.85	9.35	-43.1	-43.4	11.8	0.00e+00	0	33	0	35248930816	52	15357
2026-01-07 17:32:41.83	342.65	9.06	-43.1	-43.5	11.7	0.00e+00	0	33	0	35475423232	52	15490
2026-01-07 17:32:44.86	342.46	8.77	-43.4	-43.7	11.6	6.90e-06	0	33	0	35701915648	52	15961
2026-01-07 17:32:47.87	342.27	8.48	-43.3	-43.6	11.6	0.00e+00	0	33	0	35928408064	52	15773
2026-01-07 17:32:50.88	342.09	8.21	-43.6	-43.9	11.6	0.00e+00	0	33	0	36154900480	53	15380
2026-01-07 17:32:53.90	341.92	7.93	-43.6	-43.9	11.6	0.00e+00	0	33	0	36381392896	53	15329
2026-01-07 17:32:56.91	341.74	7.66	-57.9	-61.2	3.7	0.00e+00	0	32	104	36482056192	81	22424
2026-01-07 17:32:59.93	341.57	7.39	-57.8	-61.1	3.7	0.00e+00	0	32	104	36482056192	81	22116
2026-01-07 17:33:02.96	341.41	7.12	-57.8	-61.0	3.7	0.00e+00	0	32	104	36482056192	81	22087
2026-01-07 17:33:05.97	341.25	6.86	-57.8	-61.0	3.7	0.00e+00	0	32	104	36482056192	81	21938
2026-01-07 17:33:08.99	341.09	6.61	-57.8	-61.1	3.6	0.00e+00	0	32	104	36482056192	81	22140
2026-01-07 17:33:12.01	340.94	6.35	-57.8	-61.0	3.7	0.00e+00	0	32	104	36482056192	81	22084
2026-01-07 17:33:15.02	340.79	6.10	-57.6	-60.8	3.7	0.00e+00	0	32	104	36482056192	81	21455
2026-01-07 17:33:18.03	340.64	5.85	-57.6	-60.8	3.7	0.00e+00	0	32	104	36482056192	81	21524
2026-01-07 17:33:21.04	340.50	5.61	-57.6	-60.9	3.7	0.00e+00	0	32	104	36482056192	81	21748
2026-01-07 17:33:24.05	340.36	5.36	-57.6	-60.8	3.6	0.00e+00	0	32	104	36482056192	81	21585
2026-01-07 17:33:27.06	340.23	5.13	-57.4	-60.6	3.7	0.00e+00	0	32	104	36482056192	81	20924
2026-01-07 17:33:30.09	340.09	4.89	-58.4	-61.7	3.7	0.00e+00	0	32	104	36482056192	82	22418
2026-01-07 17:33:33.11	339.96	4.65	-59.3	-62.6	3.6	0.00e+00	0	32	104	36482056192	84	22170
2026-01-07 17:33:36.14	339.83	4.42	-59.7	-63.0	3.7	0.00e+00	0	32	104	36482056192	85	21866
2026-01-07 17:33:39.16	339.71	4.19	-59.9	-63.1	3.7	0.00e+00	0	32	104	36482056192	85	22363
2026-01-07 17:33:42.19	339.59	3.96	-60.0	-63.2	3.7	0.00e+00	0	32	104	36482056192	85	22617
2026-01-07 17:33:45.20	339.47	3.74	-60.1	-63.3	3.6	0.00e+00	0	32	104	36482056192	85	22815
2026-01-07 17:33:48.23	339.35	3.51	-60.1	-63.4	3.7	0.00e+00	0	32	104	36482056192	85	22940
2026-01-07 17:33:51.26	339.24	3.29	-60.1	-63.3	3.7	0.00e+00	0	32	104	36482056192	86	21470
2026-01-07 17:33:54.29	339.12	3.07	-60.1	-63.3	3.6	0.00e+00	0	31	104	36482056192	86	21517
2026-01-07 17:33:57.31	339.01	2.86	-60.0	-63.3	3.7	0.00e+00	0	31	104	36482056192	86	21380
2026-01-07 17:34:00.33	338.91	2.65	-60.0	-63.3	3.7	0.00e+00	0	32	104	36482056192	86	21370
2026-01-07 17:34:03.35	338.80	2.43	-60.0	-63.2	3.7	0.00e+00	0	32	104	36482056192	86	21307
2026-01-07 17:34:06.38	338.70	2.22	-60.0	-63.2	3.7	0.00e+00	0	32	104	36482056192	86	21216
2026-01-07 17:34:09.41	338.60	2.01	-59.9	-63.2	3.7	0.00e+00	0	31	104	36482056192	86	21160

#Closed at: 2026-01-07 17:34:10
#Recorded file [36482 MB]: D:/lorett/data/31004_260107_202348.dat