passes_logs/2026/01/07/R3.2S_Murmansk/R3.2S_Murmansk__20260107_103936_NOAA_20_JPSS-1_rec.log

#Pass ID: 20260107_103936_NOAA 20 (JPSS-1)
#Satellite: NOAA 20 (JPSS-1)
#Configuration: NOAA 20
#almurnet v.1.7.20251203
#Start time: 2026-01-07 10:39:37

#Version: 2.2.20231116
#Station: R3.2S_Murmansk
#Location: 33.079688 lon 68.888172 lat
#TLE: 1 43013U 17073A   26006.30790171  .00000126  00000+0  80695-4 0  9991
#TLE: 2 43013  98.7629 307.3394 0001808  51.8724 308.2615 14.19533762421505

#Time	Az	El	Level	Level2	SNR	BER	BlckErr	Temp	State	Recorded	gain1	gain2
2026-01-07 10:39:37.27	179.63	2.06	-57.9	-73.8	3.8	1.49e+00	0	23	0	0	82	21939
2026-01-07 10:39:41.31	179.77	2.32	-57.8	-73.8	3.8	1.49e+00	0	23	104	0	80	24557
2026-01-07 10:39:45.34	179.91	2.57	-57.8	-73.6	3.8	1.49e+00	0	23	104	0	80	24119
2026-01-07 10:39:49.37	180.06	2.83	-57.8	-73.5	3.8	1.49e+00	0	24	104	0	80	23802
2026-01-07 10:39:53.41	180.21	3.09	-57.8	-73.8	3.8	1.49e+00	0	24	104	0	80	24491
2026-01-07 10:39:57.45	180.36	3.35	-57.8	-73.6	3.8	1.49e+00	0	24	104	0	80	24004
2026-01-07 10:40:01.48	180.51	3.61	-57.8	-73.8	3.8	1.49e+00	0	24	104	0	80	24576
2026-01-07 10:40:05.51	180.67	3.88	-57.7	-71.8	3.8	1.49e+00	0	24	104	0	80	19547
2026-01-07 10:40:09.55	180.82	4.15	-57.5	-68.5	4.8	8.95e-01	0	24	0	2097152	80	13316
2026-01-07 10:40:13.58	180.99	4.42	-57.3	-66.6	5.9	3.96e-01	0	24	0	9437184	80	10756
2026-01-07 10:40:17.61	181.15	4.69	-57.0	-64.6	7.5	8.28e-02	0	24	0	17825792	80	8474
2026-01-07 10:40:21.64	181.32	4.97	-56.3	-61.9	9.9	3.95e-03	0	24	0	25165824	79	6591
2026-01-07 10:40:25.67	181.49	5.25	-56.4	-62.2	9.6	3.76e-02	0	24	0	32505856	79	6878
2026-01-07 10:40:29.70	181.66	5.53	-53.9	-56.8	13.4	0.00e+00	0	24	0	36700160	74	4892
2026-01-07 10:40:33.72	181.83	5.81	-54.1	-57.1	13.2	0.00e+00	0	24	0	44040192	74	5042
2026-01-07 10:40:37.75	182.01	6.10	-54.2	-57.1	13.2	0.00e+00	0	25	0	52428800	74	5090
2026-01-07 10:40:41.78	182.19	6.39	-53.9	-56.8	13.4	0.00e+00	0	25	0	59768832	74	4873
2026-01-07 10:40:45.81	182.38	6.68	-53.8	-56.6	13.6	0.00e+00	0	25	0	67108864	74	4771
2026-01-07 10:40:49.83	182.57	6.98	-53.7	-56.4	13.5	0.00e+00	0	25	0	74448896	73	4961
2026-01-07 10:40:53.87	182.76	7.28	-53.6	-56.3	13.7	0.00e+00	0	25	0	81788928	73	4880
2026-01-07 10:40:57.90	182.96	7.58	-53.6	-56.2	13.7	0.00e+00	0	25	0	90177536	73	4868
2026-01-07 10:41:01.93	183.16	7.89	-53.5	-56.0	13.9	0.00e+00	0	25	0	97517568	73	4717
2026-01-07 10:41:05.94	183.36	8.20	-53.4	-55.9	13.9	0.00e+00	0	25	0	104857600	73	4688
2026-01-07 10:41:09.98	183.57	8.51	-53.4	-55.9	13.9	0.00e+00	0	25	0	112197632	73	4672
2026-01-07 10:41:14.00	183.78	8.83	-53.2	-55.6	14.1	0.00e+00	0	25	0	119537664	73	4523
2026-01-07 10:41:18.02	184.00	9.15	-53.1	-55.4	14.1	0.00e+00	0	25	0	127926272	72	4661
2026-01-07 10:41:22.05	184.22	9.47	-53.1	-55.3	14.1	0.00e+00	0	25	0	135266304	72	4650
2026-01-07 10:41:26.08	184.44	9.80	-53.1	-55.3	14.1	0.00e+00	0	25	0	142606336	72	4651
2026-01-07 10:41:30.11	184.67	10.14	-53.1	-55.4	14.1	0.00e+00	0	25	0	149946368	72	4662
2026-01-07 10:41:34.14	184.91	10.47	-53.1	-55.3	14.2	0.00e+00	0	25	0	157286400	72	4622
2026-01-07 10:41:38.16	185.15	10.81	-52.8	-55.0	14.4	0.00e+00	0	25	0	165675008	72	4459
2026-01-07 10:41:42.19	185.40	11.16	-52.8	-54.9	14.4	0.00e+00	0	25	0	173015040	72	4433
2026-01-07 10:41:46.22	185.65	11.51	-52.7	-54.8	14.5	0.00e+00	0	25	0	180355072	72	4391
2026-01-07 10:41:50.24	185.90	11.86	-52.5	-54.5	14.5	0.00e+00	0	25	0	187695104	71	4474
2026-01-07 10:41:54.27	186.17	12.22	-52.4	-54.4	14.5	0.00e+00	0	25	0	195035136	71	4437
2026-01-07 10:41:58.29	186.44	12.59	-52.2	-54.1	14.7	0.00e+00	0	25	0	203423744	71	4286
2026-01-07 10:42:02.32	186.71	12.96	-52.2	-54.1	14.7	0.00e+00	0	25	0	210763776	71	4288
2026-01-07 10:42:06.35	186.99	13.33	-52.1	-53.9	14.7	0.00e+00	0	25	0	218103808	70	4434
2026-01-07 10:42:10.38	187.28	13.71	-51.9	-53.7	14.8	0.00e+00	0	25	0	225443840	70	4296
2026-01-07 10:42:14.41	187.58	14.10	-51.7	-53.4	14.8	0.00e+00	0	25	0	232783872	69	4435
2026-01-07 10:42:18.43	187.88	14.49	-51.6	-53.4	14.8	0.00e+00	0	25	0	241172480	69	4420
2026-01-07 10:42:22.47	188.19	14.88	-51.5	-53.3	14.9	0.00e+00	0	25	0	248512512	69	4345
2026-01-07 10:42:26.50	188.51	15.28	-51.5	-53.3	14.9	0.00e+00	0	25	0	255852544	69	4343
2026-01-07 10:42:30.52	188.84	15.69	-51.5	-53.2	14.9	0.00e+00	0	25	0	263192576	69	4316
2026-01-07 10:42:34.55	189.18	16.11	-51.4	-53.2	14.9	0.00e+00	0	25	0	270532608	69	4294
2026-01-07 10:42:38.58	189.52	16.53	-51.3	-53.0	15.0	0.00e+00	0	25	0	278921216	69	4217
2026-01-07 10:42:42.62	189.88	16.95	-51.4	-53.1	15.0	0.00e+00	0	25	0	286261248	69	4244
2026-01-07 10:42:46.65	190.24	17.39	-51.4	-53.1	15.0	0.00e+00	0	25	0	293601280	69	4251
2026-01-07 10:42:50.67	190.62	17.83	-51.2	-52.9	15.1	0.00e+00	0	25	0	300941312	69	4158
2026-01-07 10:42:54.70	191.00	18.27	-51.2	-52.8	15.1	0.00e+00	0	25	0	308281344	69	4127
2026-01-07 10:42:58.73	191.40	18.73	-51.3	-53.0	15.0	0.00e+00	0	25	0	316669952	69	4212
2026-01-07 10:43:02.76	191.81	19.19	-51.5	-53.2	14.9	0.00e+00	0	25	0	324009984	69	4296
2026-01-07 10:43:06.80	192.23	19.66	-51.4	-53.0	15.0	0.00e+00	0	25	0	331350016	69	4240
2026-01-07 10:43:10.82	192.66	20.13	-51.4	-53.1	15.0	0.00e+00	0	25	0	338690048	69	4260
2026-01-07 10:43:14.86	193.11	20.62	-51.6	-53.3	14.9	0.00e+00	0	25	0	346030080	69	4364
2026-01-07 10:43:18.88	193.57	21.11	-51.6	-53.3	14.9	0.00e+00	0	25	0	354418688	69	4350
2026-01-07 10:43:22.91	194.04	21.60	-51.5	-53.2	14.9	0.00e+00	0	25	0	361758720	69	4322
2026-01-07 10:43:26.94	194.53	22.11	-51.5	-53.1	14.9	0.00e+00	0	25	0	369098752	69	4276
2026-01-07 10:43:30.98	195.03	22.63	-51.6	-53.3	14.9	0.00e+00	0	25	0	376438784	69	4377
2026-01-07 10:43:35.01	195.56	23.15	-51.5	-53.2	14.9	0.00e+00	0	25	0	383778816	69	4303
2026-01-07 10:43:39.04	196.09	23.68	-51.5	-53.1	15.0	0.00e+00	0	25	0	392167424	69	4282
2026-01-07 10:43:43.07	196.65	24.22	-51.5	-53.1	15.0	0.00e+00	0	25	0	399507456	69	4275
2026-01-07 10:43:47.10	197.23	24.77	-51.8	-53.5	14.8	0.00e+00	0	25	0	406847488	69	4466
2026-01-07 10:43:51.13	197.82	25.33	-51.8	-53.5	14.8	0.00e+00	0	25	0	414187520	69	4472
2026-01-07 10:43:55.16	198.44	25.89	-51.9	-53.7	14.7	0.00e+00	0	25	0	422576128	69	4563
2026-01-07 10:43:59.19	199.08	26.47	-52.2	-54.0	14.6	0.00e+00	0	25	0	429916160	69	4754
2026-01-07 10:44:03.22	199.74	27.05	-52.2	-54.0	14.5	0.00e+00	0	25	0	437256192	69	4745
2026-01-07 10:44:07.25	200.42	27.64	-52.5	-54.4	14.5	0.00e+00	0	25	0	444596224	70	4695
2026-01-07 10:44:11.28	201.13	28.24	-52.7	-54.7	14.4	0.00e+00	0	25	0	451936256	70	4824
2026-01-07 10:44:15.31	201.87	28.85	-53.1	-55.1	14.3	0.00e+00	0	25	0	460324864	71	4805
2026-01-07 10:44:19.33	202.64	29.47	-53.9	-56.2	13.9	0.00e+00	0	25	0	467664896	72	5140
2026-01-07 10:44:23.35	203.43	30.09	-54.2	-56.7	13.7	0.00e+00	0	25	0	475004928	73	5140
2026-01-07 10:44:27.38	204.25	30.72	-54.3	-56.7	13.8	0.00e+00	0	25	0	482344960	74	4868
2026-01-07 10:44:31.41	205.11	31.36	-54.2	-56.6	13.9	0.00e+00	0	25	0	489684992	74	4807
2026-01-07 10:44:35.45	206.00	32.01	-54.1	-56.4	14.0	0.00e+00	0	25	0	498073600	74	4686
2026-01-07 10:44:39.48	206.93	32.67	-53.4	-55.5	14.4	0.00e+00	0	25	0	505413632	73	4489
2026-01-07 10:44:43.51	207.89	33.33	-52.9	-54.8	14.6	0.00e+00	0	25	0	512753664	72	4368
2026-01-07 10:44:47.54	208.90	33.99	-52.5	-54.4	14.7	0.00e+00	0	25	0	520093696	71	4414
2026-01-07 10:44:51.57	209.94	34.66	-51.9	-53.6	14.9	0.00e+00	0	25	0	527433728	70	4279
2026-01-07 10:44:55.60	211.03	35.33	-51.9	-53.6	14.9	0.00e+00	0	25	0	535822336	70	4263
2026-01-07 10:44:59.63	212.16	36.01	-52.2	-54.0	14.8	0.00e+00	0	25	0	543162368	70	4453
2026-01-07 10:45:03.66	213.34	36.69	-51.8	-53.4	15.0	0.00e+00	0	25	0	550502400	70	4182
2026-01-07 10:45:07.69	214.57	37.36	-51.4	-53.0	15.1	0.00e+00	0	25	0	557842432	69	4213
2026-01-07 10:45:11.71	215.85	38.04	-51.7	-53.3	14.8	0.00e+00	0	25	0	565182464	69	4391
2026-01-07 10:45:15.74	217.18	38.71	-51.5	-53.1	15.0	0.00e+00	0	25	0	573571072	69	4277
2026-01-07 10:45:19.76	218.56	39.38	-52.1	-53.9	14.7	0.00e+00	0	25	0	580911104	69	4692
2026-01-07 10:45:23.79	220.01	40.04	-52.0	-53.8	14.7	0.00e+00	0	25	0	588251136	69	4604
2026-01-07 10:45:27.83	221.51	40.69	-52.6	-54.5	14.5	0.00e+00	0	25	0	595591168	70	4752
2026-01-07 10:45:31.85	223.07	41.34	-52.6	-54.4	14.5	0.00e+00	0	25	0	602931200	70	4700
2026-01-07 10:45:35.87	224.70	41.96	-53.0	-54.9	14.5	0.00e+00	0	25	0	611319808	71	4686
2026-01-07 10:45:39.89	226.38	42.58	-52.4	-54.3	14.8	0.00e+00	0	25	0	618659840	71	4342
2026-01-07 10:45:43.93	228.14	43.17	-53.2	-55.3	14.3	0.00e+00	0	25	0	625999872	71	4887
2026-01-07 10:45:47.96	229.95	43.75	-53.1	-55.1	14.5	0.00e+00	0	25	0	633339904	72	4541
2026-01-07 10:45:51.98	231.83	44.30	-53.7	-56.0	14.0	0.00e+00	0	25	0	640679936	72	4986
2026-01-07 10:45:56.01	233.77	44.82	-52.9	-54.9	14.7	0.00e+00	0	25	0	649068544	72	4396
2026-01-07 10:46:00.05	235.78	45.31	-53.6	-55.7	14.2	0.00e+00	0	25	0	656408576	72	4845
2026-01-07 10:46:04.04	237.83	45.77	-53.4	-55.4	14.5	0.00e+00	0	25	0	663748608	73	4410
2026-01-07 10:46:08.07	239.95	46.19	-54.1	-56.5	13.9	0.00e+00	0	25	0	671088640	73	4989
2026-01-07 10:46:12.10	242.13	46.57	-53.9	-56.1	14.1	0.00e+00	0	25	0	678428672	73	4769
2026-01-07 10:46:16.13	244.36	46.91	-53.7	-55.9	14.2	0.00e+00	0	25	0	686817280	73	4676
2026-01-07 10:46:20.15	246.63	47.21	-53.2	-55.2	14.4	0.00e+00	0	25	0	694157312	72	4576
2026-01-07 10:46:24.18	248.94	47.46	-53.4	-55.4	14.3	0.00e+00	0	25	0	701497344	72	4703
2026-01-07 10:46:28.22	251.29	47.66	-53.9	-56.2	14.1	0.00e+00	0	25	0	708837376	73	4826
2026-01-07 10:46:32.24	253.66	47.81	-53.3	-55.3	14.5	0.00e+00	0	25	0	716177408	73	4359
2026-01-07 10:46:36.20	256.01	47.90	-53.3	-55.3	14.5	0.00e+00	0	25	0	724566016	73	4388
2026-01-07 10:46:40.23	258.41	47.95	-52.6	-54.4	14.7	0.00e+00	0	25	0	731906048	71	4418
2026-01-07 10:46:44.26	260.82	47.94	-53.0	-54.9	14.5	0.00e+00	0	25	0	739246080	71	4673
2026-01-07 10:46:48.29	263.21	47.88	-53.5	-55.6	14.2	0.00e+00	0	25	0	746586112	72	4814
2026-01-07 10:46:52.31	265.59	47.76	-53.5	-55.6	14.2	0.00e+00	0	25	0	753926144	72	4777
2026-01-07 10:46:56.35	267.96	47.60	-53.4	-55.4	14.4	0.00e+00	0	26	0	762314752	72	4673
2026-01-07 10:47:00.36	270.28	47.38	-53.3	-55.3	14.4	0.00e+00	0	25	0	769654784	72	4630
2026-01-07 10:47:04.40	272.59	47.12	-53.6	-55.7	14.2	0.00e+00	0	25	0	776994816	72	4817
2026-01-07 10:47:08.43	274.84	46.80	-54.4	-56.8	13.7	0.00e+00	0	25	0	784334848	73	5198
2026-01-07 10:47:12.46	277.05	46.45	-54.2	-56.5	14.1	0.00e+00	0	25	0	792723456	74	4713
2026-01-07 10:47:16.49	279.21	46.05	-55.1	-57.9	13.3	0.00e+00	0	25	0	800063488	75	5258
2026-01-07 10:47:20.51	281.31	45.62	-54.3	-56.6	14.0	0.00e+00	0	25	0	807403520	74	4804
2026-01-07 10:47:24.55	283.35	45.15	-54.1	-56.4	14.2	0.00e+00	0	25	0	814743552	74	4660
2026-01-07 10:47:28.58	285.33	44.65	-53.1	-55.1	14.5	0.00e+00	0	25	0	822083584	72	4524
2026-01-07 10:47:32.59	287.24	44.12	-52.8	-54.7	14.6	0.00e+00	0	25	0	829423616	71	4560
2026-01-07 10:47:36.62	289.10	43.56	-52.1	-53.7	14.9	0.00e+00	0	25	0	837812224	70	4339
2026-01-07 10:47:40.65	290.89	42.98	-51.5	-53.0	15.1	0.00e+00	0	25	0	845152256	69	4234
2026-01-07 10:47:44.68	292.62	42.38	-51.0	-52.5	15.2	0.00e+00	0	25	0	852492288	68	4199
2026-01-07 10:47:48.71	294.28	41.76	-51.1	-52.6	15.1	0.00e+00	0	25	0	859832320	68	4246
2026-01-07 10:47:52.74	295.88	41.13	-52.1	-53.9	14.7	0.00e+00	0	25	0	867172352	69	4672
2026-01-07 10:47:56.77	297.42	40.49	-52.1	-53.8	14.7	0.00e+00	0	25	0	875560960	69	4638
2026-01-07 10:48:00.79	298.89	39.83	-52.3	-54.0	14.9	0.00e+00	0	25	0	882900992	71	4207
2026-01-07 10:48:04.81	300.31	39.17	-53.4	-55.5	14.3	0.00e+00	0	25	0	890241024	72	4713
2026-01-07 10:48:08.85	301.68	38.50	-51.8	-53.4	15.0	0.00e+00	0	25	0	897581056	70	4192
2026-01-07 10:48:12.88	302.99	37.83	-52.9	-54.8	14.7	0.00e+00	0	25	0	905969664	72	4387
2026-01-07 10:48:16.90	304.25	37.16	-53.7	-55.8	14.2	0.00e+00	0	25	0	913309696	72	4916
2026-01-07 10:48:20.93	305.46	36.49	-53.0	-54.9	14.6	0.00e+00	0	25	0	920649728	72	4411
2026-01-07 10:48:24.96	306.62	35.81	-55.0	-57.7	13.5	0.00e+00	0	25	0	927989760	75	5148
2026-01-07 10:48:28.98	307.73	35.15	-53.4	-55.4	14.4	0.00e+00	0	25	0	935329792	73	4431
2026-01-07 10:48:33.01	308.80	34.48	-54.8	-57.5	13.5	0.00e+00	0	25	0	943718400	74	5280
2026-01-07 10:48:37.03	309.83	33.81	-52.6	-54.4	14.7	0.00e+00	0	25	0	951058432	71	4427
2026-01-07 10:48:41.06	310.81	33.15	-54.2	-56.5	13.9	0.00e+00	0	25	0	958398464	73	5028
2026-01-07 10:48:45.09	311.76	32.50	-54.3	-56.6	14.1	0.00e+00	0	25	0	965738496	75	4544
2026-01-07 10:48:49.12	312.68	31.85	-53.7	-55.8	14.3	0.00e+00	0	25	0	973078528	73	4616
2026-01-07 10:48:53.15	313.56	31.21	-56.3	-60.1	12.2	6.80e-06	0	25	0	981467136	78	5665
2026-01-07 10:48:57.18	314.40	30.58	-53.3	-55.3	14.5	0.00e+00	0	25	0	988807168	73	4390
2026-01-07 10:49:01.20	315.21	29.95	-53.2	-55.3	14.3	0.00e+00	0	25	0	996147200	71	4877
2026-01-07 10:49:05.23	316.00	29.33	-53.7	-55.9	14.2	0.00e+00	0	25	0	1003487232	73	4657
2026-01-07 10:49:09.26	316.75	28.72	-52.8	-54.7	14.7	0.00e+00	0	25	0	1010827264	72	4338
2026-01-07 10:49:13.29	317.48	28.12	-53.8	-56.1	14.0	0.00e+00	0	25	0	1019215872	72	5087
2026-01-07 10:49:17.32	318.18	27.52	-52.9	-54.8	14.7	0.00e+00	0	25	0	1026555904	72	4350
2026-01-07 10:49:21.36	318.86	26.93	-51.2	-52.7	15.0	0.00e+00	0	25	0	1033895936	68	4330
2026-01-07 10:49:25.39	319.51	26.36	-52.3	-54.2	14.5	0.00e+00	0	25	0	1041235968	69	4816
2026-01-07 10:49:29.42	320.14	25.79	-52.5	-54.4	14.6	0.00e+00	0	25	0	1048576000	70	4664
2026-01-07 10:49:33.44	320.75	25.23	-52.2	-54.0	14.8	0.00e+00	0	25	0	1056964608	70	4442
2026-01-07 10:49:37.46	321.34	24.68	-51.9	-53.6	14.9	0.00e+00	0	25	0	1064304640	70	4253
2026-01-07 10:49:41.49	321.91	24.14	-52.2	-54.0	14.7	0.00e+00	0	25	0	1071644672	70	4462
2026-01-07 10:49:45.52	322.46	23.60	-53.3	-55.5	14.2	0.00e+00	0	25	0	1078984704	71	4986
2026-01-07 10:49:49.55	322.99	23.07	-53.3	-55.4	14.3	0.00e+00	0	25	0	1086324736	72	4655
2026-01-07 10:49:53.59	323.51	22.55	-52.3	-54.1	14.8	0.00e+00	0	25	0	1094713344	71	4286
2026-01-07 10:49:57.62	324.01	22.04	-52.4	-54.3	14.7	0.00e+00	0	25	0	1102053376	71	4365
2026-01-07 10:50:01.65	324.49	21.54	-52.6	-54.5	14.6	0.00e+00	0	25	0	1109393408	71	4481
2026-01-07 10:50:05.68	324.96	21.05	-52.4	-54.2	14.7	0.00e+00	0	25	0	1116733440	71	4339
2026-01-07 10:50:09.71	325.42	20.56	-52.1	-53.8	14.7	0.00e+00	0	25	0	1124073472	70	4390
2026-01-07 10:50:13.73	325.86	20.09	-52.2	-54.0	14.7	0.00e+00	0	25	0	1132462080	70	4476
2026-01-07 10:50:17.76	326.29	19.61	-52.3	-54.2	14.6	0.00e+00	0	25	0	1139802112	70	4570
2026-01-07 10:50:21.79	326.70	19.15	-52.7	-54.7	14.4	0.00e+00	0	25	0	1147142144	70	4817
2026-01-07 10:50:25.82	327.11	18.69	-52.9	-55.0	14.3	0.00e+00	0	25	0	1154482176	71	4728
2026-01-07 10:50:29.85	327.50	18.24	-52.7	-54.7	14.4	0.00e+00	0	25	0	1161822208	71	4592
2026-01-07 10:50:33.88	327.89	17.80	-52.6	-54.6	14.5	0.00e+00	0	25	0	1170210816	71	4525
2026-01-07 10:50:37.90	328.26	17.37	-52.6	-54.6	14.5	0.00e+00	0	25	0	1177550848	71	4511
2026-01-07 10:50:41.92	328.62	16.94	-52.8	-54.8	14.4	0.00e+00	0	25	0	1184890880	71	4615
2026-01-07 10:50:45.95	328.97	16.52	-52.6	-54.6	14.5	0.00e+00	0	25	0	1192230912	71	4529
2026-01-07 10:50:49.98	329.32	16.10	-52.6	-54.6	14.5	0.00e+00	0	25	0	1199570944	71	4528
2026-01-07 10:50:54.00	329.65	15.69	-52.4	-54.3	14.6	0.00e+00	0	25	0	1207959552	71	4385
2026-01-07 10:50:58.03	329.98	15.29	-52.5	-54.4	14.6	0.00e+00	0	25	0	1215299584	71	4415
2026-01-07 10:51:02.06	330.30	14.89	-52.7	-54.7	14.5	0.00e+00	0	25	0	1222639616	71	4559
2026-01-07 10:51:06.09	330.61	14.49	-52.9	-55.0	14.3	0.00e+00	0	25	0	1229979648	71	4709
2026-01-07 10:51:10.11	330.91	14.11	-53.1	-55.4	14.1	0.00e+00	0	25	0	1237319680	71	4931
2026-01-07 10:51:14.14	331.20	13.73	-53.2	-55.4	14.0	0.00e+00	0	25	0	1245708288	71	4973
2026-01-07 10:51:18.18	331.49	13.35	-53.0	-55.2	14.2	0.00e+00	0	25	0	1253048320	71	4826
2026-01-07 10:51:22.20	331.78	12.98	-52.9	-55.1	14.2	0.00e+00	0	25	0	1260388352	71	4762
2026-01-07 10:51:26.24	332.05	12.61	-52.5	-54.4	14.5	0.00e+00	0	25	0	1267728384	71	4436
2026-01-07 10:51:30.27	332.32	12.25	-52.5	-54.5	14.4	0.00e+00	0	25	0	1275068416	71	4447
2026-01-07 10:51:34.30	332.58	11.89	-52.6	-54.7	14.4	1.50e-06	0	25	0	1283457024	71	4550
2026-01-07 10:51:38.32	332.84	11.54	-52.9	-55.0	14.2	0.00e+00	0	25	0	1290797056	71	4753
2026-01-07 10:51:42.35	333.09	11.19	-53.2	-55.5	13.9	0.00e+00	0	25	0	1298137088	71	5031
2026-01-07 10:51:46.38	333.34	10.85	-53.6	-56.0	13.8	0.00e+00	0	25	0	1305477120	72	5024
2026-01-07 10:51:50.41	333.58	10.51	-53.7	-56.2	13.6	0.00e+00	0	25	0	1313865728	72	5150
2026-01-07 10:51:54.43	333.82	10.18	-53.8	-56.4	13.5	0.00e+00	0	25	0	1321205760	72	5250
2026-01-07 10:51:58.46	334.05	9.85	-53.5	-56.0	13.7	0.00e+00	0	25	0	1328545792	72	4997
2026-01-07 10:52:02.49	334.27	9.52	-53.4	-55.8	13.8	0.00e+00	0	25	0	1335885824	72	4920
2026-01-07 10:52:06.52	334.50	9.20	-53.2	-55.5	14.0	0.00e+00	0	25	0	1343225856	72	4736
2026-01-07 10:52:10.55	334.71	8.88	-53.4	-55.8	13.8	6.10e-06	0	25	0	1351614464	72	4913
2026-01-07 10:52:14.59	334.93	8.57	-53.1	-55.4	14.0	0.00e+00	0	25	0	1358954496	72	4702
2026-01-07 10:52:18.62	335.14	8.25	-53.2	-55.6	13.9	0.00e+00	0	25	0	1366294528	72	4803
2026-01-07 10:52:22.65	335.34	7.95	-53.3	-55.8	13.8	0.00e+00	0	25	0	1373634560	72	4878
2026-01-07 10:52:26.68	335.54	7.64	-53.5	-56.1	13.6	0.00e+00	0	25	0	1380974592	72	5085
2026-01-07 10:52:30.72	335.74	7.34	-53.7	-56.4	13.4	0.00e+00	0	25	0	1389363200	72	5241
2026-01-07 10:52:34.74	335.93	7.04	-54.0	-56.8	13.2	0.00e+00	0	25	0	1396703232	73	5217
2026-01-07 10:52:38.78	336.13	6.75	-54.0	-56.9	13.2	0.00e+00	0	25	0	1404043264	73	5247
2026-01-07 10:52:42.80	336.31	6.46	-54.1	-57.2	13.0	0.00e+00	0	25	0	1411383296	73	5415
2026-01-07 10:52:46.83	336.50	6.17	-54.3	-57.5	12.7	0.00e+00	0	25	0	1418723328	73	5653
2026-01-07 10:52:50.86	336.68	5.88	-54.2	-57.3	12.9	0.00e+00	0	26	0	1427111936	73	5489
2026-01-07 10:52:54.89	336.85	5.60	-54.1	-57.3	12.8	0.00e+00	0	25	0	1434451968	73	5475
2026-01-07 10:52:58.92	337.03	5.32	-54.2	-57.4	12.9	0.00e+00	0	25	0	1441792000	74	5231
2026-01-07 10:53:02.94	337.20	5.05	-54.2	-57.4	12.9	0.00e+00	0	26	0	1449132032	74	5223
2026-01-07 10:53:06.97	337.37	4.77	-59.2	-75.3	3.8	1.49e+00	0	25	104	1451229184	83	24486
2026-01-07 10:53:11.00	337.53	4.50	-60.0	-76.0	3.8	1.49e+00	0	26	104	1451229184	85	23820
2026-01-07 10:53:15.03	337.70	4.23	-60.2	-76.2	3.8	1.49e+00	0	25	104	1451229184	85	24375
2026-01-07 10:53:19.07	337.86	3.96	-60.3	-76.3	3.8	1.49e+00	0	25	104	1451229184	85	24636
2026-01-07 10:53:23.10	338.01	3.70	-60.3	-76.4	3.8	1.49e+00	0	25	104	1451229184	85	24909
2026-01-07 10:53:27.13	338.17	3.44	-60.3	-76.4	3.8	1.49e+00	0	26	104	1451229184	85	24712
2026-01-07 10:53:31.16	338.32	3.18	-60.2	-76.3	3.8	1.49e+00	0	26	104	1451229184	85	24672
2026-01-07 10:53:35.19	338.47	2.92	-60.2	-76.3	3.8	1.49e+00	0	26	104	1451229184	85	24473
2026-01-07 10:53:39.22	338.62	2.67	-60.1	-76.2	3.8	1.49e+00	0	26	104	1451229184	85	24344
2026-01-07 10:53:43.26	338.77	2.41	-60.1	-76.2	3.8	1.49e+00	0	26	104	1451229184	85	24332
2026-01-07 10:53:47.30	338.91	2.16	-60.1	-76.2	3.8	1.49e+00	0	26	104	1451229184	85	24253
2026-01-07 10:53:51.33	339.06	1.91	-60.1	-76.2	3.8	1.49e+00	0	25	104	1451229184	85	24228

#Closed at: 2026-01-07 10:53:51
#Recorded file [1451 MB]: D:/lorett/data/31004_260107_133937.dat