passes_logs/2026/01/07/R3.2S_Murmansk/R3.2S_Murmansk__20260107_080903_NOAA_21_JPSS-2_rec.log

#Pass ID: 20260107_080903_NOAA 21 (JPSS-2)
#Satellite: NOAA 21 (JPSS-2)
#Configuration: NOAA-21
#almurnet v.1.7.20251203
#Start time: 2026-01-07 08:09:04

#Version: 2.2.20231116
#Station: R3.2S_Murmansk
#Location: 33.079688 lon 68.888172 lat
#TLE: 1 54234U 22150A   26005.56767909  .00000152  00000+0  92756-4 0  9990
#TLE: 2 54234  98.7490 306.5820 0001036 340.2747  19.8389 14.19532370163472

#Time	Az	El	Level	Level2	SNR	BER	BlckErr	Temp	State	Recorded	gain1	gain2
2026-01-07 08:09:04.41	119.76	2.03	-57.6	-71.3	3.8	1.49e+00	0	23	0	0	81	17432
2026-01-07 08:09:08.41	119.64	2.29	-57.6	-71.3	3.8	1.49e+00	0	23	104	0	80	18446
2026-01-07 08:09:12.39	119.51	2.54	-57.6	-71.3	3.8	1.49e+00	0	23	104	0	80	18497
2026-01-07 08:09:16.37	119.39	2.79	-57.6	-71.3	3.8	1.49e+00	0	23	104	0	80	18394
2026-01-07 08:09:20.36	119.26	3.05	-57.6	-71.2	3.8	1.49e+00	0	24	104	0	80	18273
2026-01-07 08:09:24.33	119.13	3.31	-57.6	-71.2	3.8	1.49e+00	0	24	104	0	80	18282
2026-01-07 08:09:28.32	118.99	3.57	-57.6	-71.1	3.8	1.49e+00	0	24	104	0	80	18015
2026-01-07 08:09:32.30	118.85	3.84	-57.5	-69.7	3.8	1.49e+00	0	24	104	0	80	15283
2026-01-07 08:09:36.28	118.72	4.10	-57.0	-65.4	5.1	6.15e-01	0	24	0	2097152	80	9316
2026-01-07 08:09:40.25	118.57	4.37	-55.9	-61.0	8.4	3.48e-02	0	24	0	14680064	78	6335
2026-01-07 08:09:44.23	118.43	4.64	-54.1	-57.1	11.4	7.93e-05	0	24	0	27262976	74	5091
2026-01-07 08:09:48.20	118.28	4.91	-52.2	-54.3	13.1	0.00e+00	0	24	0	38797312	70	4619
2026-01-07 08:09:52.17	118.13	5.19	-55.0	-58.7	10.5	2.86e-03	0	24	0	51380224	76	5404
2026-01-07 08:09:56.17	117.97	5.47	-51.4	-53.3	13.7	0.00e+00	0	24	0	63963136	69	4360
2026-01-07 08:10:00.17	117.82	5.75	-51.3	-53.1	13.8	0.00e+00	0	24	0	76546048	69	4268
2026-01-07 08:10:04.14	117.66	6.04	-51.1	-52.9	13.9	0.00e+00	0	25	0	89128960	68	4398
2026-01-07 08:10:08.14	117.49	6.33	-51.1	-52.8	13.9	7.00e-07	0	24	0	101711872	68	4375
2026-01-07 08:10:12.13	117.32	6.62	-51.1	-52.8	13.9	0.00e+00	0	24	0	114294784	68	4370
2026-01-07 08:10:16.13	117.15	6.91	-50.9	-52.5	14.1	0.00e+00	0	25	0	126877696	68	4233
2026-01-07 08:10:20.12	116.97	7.21	-50.8	-52.4	14.2	0.00e+00	0	25	0	139460608	68	4162
2026-01-07 08:10:24.10	116.79	7.51	-50.7	-52.3	14.3	0.00e+00	0	24	0	150994944	68	4118
2026-01-07 08:10:28.09	116.61	7.81	-50.5	-52.1	14.2	0.00e+00	0	25	0	163577856	67	4277
2026-01-07 08:10:32.09	116.42	8.12	-50.4	-51.9	14.3	0.00e+00	0	24	0	176160768	67	4179
2026-01-07 08:10:36.07	116.23	8.43	-50.3	-51.9	14.4	0.00e+00	0	25	0	188743680	67	4150
2026-01-07 08:10:40.06	116.03	8.75	-50.1	-51.6	14.4	0.00e+00	0	25	0	201326592	66	4272
2026-01-07 08:10:44.03	115.83	9.06	-50.0	-51.4	14.5	0.00e+00	0	25	0	213909504	66	4177
2026-01-07 08:10:48.01	115.63	9.38	-50.0	-51.5	14.5	0.00e+00	0	25	0	226492416	66	4196
2026-01-07 08:10:51.99	115.42	9.71	-49.9	-51.3	14.5	0.00e+00	0	25	0	238026752	66	4139
2026-01-07 08:10:55.97	115.20	10.04	-49.8	-51.3	14.6	0.00e+00	0	25	0	250609664	66	4106
2026-01-07 08:10:59.94	114.98	10.37	-49.8	-51.3	14.5	0.00e+00	0	25	0	263192576	65	4344
2026-01-07 08:11:03.93	114.75	10.70	-49.7	-51.1	14.5	0.00e+00	0	25	0	275775488	65	4279
2026-01-07 08:11:07.93	114.52	11.05	-49.8	-51.2	14.5	0.00e+00	0	25	0	288358400	65	4308
2026-01-07 08:11:11.92	114.28	11.39	-49.6	-51.0	14.6	0.00e+00	0	25	0	300941312	65	4195
2026-01-07 08:11:15.90	114.04	11.74	-49.7	-51.1	14.6	0.00e+00	0	25	0	313524224	65	4245
2026-01-07 08:11:19.89	113.79	12.10	-49.6	-50.9	14.6	0.00e+00	0	25	0	326107136	65	4187
2026-01-07 08:11:23.88	113.53	12.46	-49.3	-50.7	14.8	0.00e+00	0	25	0	338690048	65	4056
2026-01-07 08:11:27.87	113.27	12.82	-49.3	-50.6	14.6	0.00e+00	0	25	0	350224384	64	4272
2026-01-07 08:11:31.86	113.00	13.19	-49.0	-50.3	14.8	0.00e+00	0	25	0	362807296	64	4112
2026-01-07 08:11:35.84	112.72	13.56	-49.2	-50.5	14.7	0.00e+00	0	25	0	375390208	64	4228
2026-01-07 08:11:39.81	112.44	13.94	-49.1	-50.4	14.7	0.00e+00	0	25	0	387973120	64	4171
2026-01-07 08:11:43.80	112.15	14.32	-49.2	-50.5	14.7	0.00e+00	0	25	0	400556032	64	4224
2026-01-07 08:11:47.78	111.85	14.71	-49.3	-50.6	14.7	0.00e+00	0	25	0	413138944	64	4258
2026-01-07 08:11:51.75	111.54	15.11	-49.2	-50.5	14.7	0.00e+00	0	25	0	425721856	64	4206
2026-01-07 08:11:55.74	111.22	15.51	-49.0	-50.3	14.8	0.00e+00	0	25	0	437256192	64	4100
2026-01-07 08:11:59.72	110.90	15.91	-49.1	-50.4	14.8	0.00e+00	0	25	0	449839104	64	4157
2026-01-07 08:12:03.72	110.56	16.33	-49.3	-50.6	14.7	0.00e+00	0	25	0	462422016	64	4248
2026-01-07 08:12:07.70	110.22	16.74	-49.4	-50.7	14.6	0.00e+00	0	25	0	475004928	64	4315
2026-01-07 08:12:11.69	109.86	17.17	-49.6	-50.9	14.5	0.00e+00	0	25	0	487587840	64	4419
2026-01-07 08:12:15.67	109.50	17.60	-49.5	-50.9	14.6	0.00e+00	0	25	0	500170752	64	4398
2026-01-07 08:12:19.65	109.12	18.03	-49.5	-50.8	14.6	0.00e+00	0	25	0	512753664	64	4371
2026-01-07 08:12:23.63	108.73	18.48	-49.5	-50.8	14.6	0.00e+00	0	25	0	525336576	64	4373
2026-01-07 08:12:27.62	108.33	18.93	-49.4	-50.8	14.6	0.00e+00	0	25	0	537919488	64	4344
2026-01-07 08:12:31.60	107.92	19.38	-49.3	-50.7	14.6	0.00e+00	0	25	0	549453824	64	4302
2026-01-07 08:12:35.60	107.49	19.85	-49.2	-50.5	14.7	0.00e+00	0	25	0	562036736	64	4222
2026-01-07 08:12:39.60	107.05	20.32	-48.9	-50.1	14.9	0.00e+00	0	25	0	574619648	64	4028
2026-01-07 08:12:43.58	106.60	20.80	-48.4	-49.6	15.0	0.00e+00	0	25	0	587202560	63	4023
2026-01-07 08:12:47.54	106.13	21.28	-48.2	-49.4	14.9	0.00e+00	0	25	0	599785472	62	4160
2026-01-07 08:12:51.53	105.65	21.77	-48.0	-49.2	15.0	0.00e+00	0	25	0	612368384	62	4061
2026-01-07 08:12:55.52	105.15	22.27	-48.0	-49.2	15.0	0.00e+00	0	25	0	624951296	62	4056
2026-01-07 08:12:59.49	104.64	22.77	-47.9	-49.1	15.0	0.00e+00	0	25	0	636485632	62	4031
2026-01-07 08:13:03.47	104.10	23.29	-47.8	-49.0	15.1	0.00e+00	0	25	0	649068544	62	3979
2026-01-07 08:13:07.45	103.55	23.81	-47.8	-48.9	15.1	0.00e+00	0	25	0	661651456	62	3954
2026-01-07 08:13:11.43	102.98	24.33	-47.8	-49.0	15.1	0.00e+00	0	25	0	674234368	62	3968
2026-01-07 08:13:15.40	102.40	24.87	-48.1	-49.3	15.0	0.00e+00	0	25	0	686817280	62	4113
2026-01-07 08:13:19.38	101.78	25.41	-48.2	-49.4	14.9	0.00e+00	0	25	0	699400192	62	4167
2026-01-07 08:13:23.35	101.15	25.96	-48.2	-49.3	14.9	0.00e+00	0	25	0	711983104	62	4140
2026-01-07 08:13:27.33	100.50	26.52	-48.4	-49.6	14.9	0.00e+00	0	25	0	723517440	62	4245
2026-01-07 08:13:31.32	99.82	27.09	-48.5	-49.8	14.8	0.00e+00	0	25	0	736100352	62	4345
2026-01-07 08:13:35.31	99.11	27.66	-48.7	-49.9	14.8	0.00e+00	0	25	0	748683264	62	4416
2026-01-07 08:13:39.29	98.38	28.24	-48.7	-49.9	14.8	0.00e+00	0	25	0	761266176	62	4422
2026-01-07 08:13:43.28	97.62	28.83	-49.2	-50.4	14.6	0.00e+00	0	25	0	773849088	63	4440
2026-01-07 08:13:47.28	96.83	29.42	-49.5	-50.8	14.6	0.00e+00	0	25	0	786432000	64	4378
2026-01-07 08:13:51.26	96.01	30.02	-49.1	-50.4	14.8	0.00e+00	0	25	0	799014912	64	4176
2026-01-07 08:13:55.25	95.16	30.63	-49.1	-50.4	14.8	0.00e+00	0	25	0	811597824	64	4156
2026-01-07 08:13:59.23	94.28	31.24	-49.0	-50.2	14.9	0.00e+00	0	25	0	824180736	64	4091
2026-01-07 08:14:03.21	93.36	31.85	-48.8	-50.0	15.0	0.00e+00	0	25	0	835715072	64	3976
2026-01-07 08:14:07.20	92.41	32.47	-48.7	-49.9	14.9	0.00e+00	0	25	0	848297984	63	4190
2026-01-07 08:14:11.20	91.42	33.10	-48.9	-50.1	14.8	0.00e+00	0	25	0	860880896	63	4276
2026-01-07 08:14:15.20	90.38	33.73	-48.8	-50.0	14.8	0.00e+00	0	25	0	873463808	63	4229
2026-01-07 08:14:19.19	89.31	34.36	-49.5	-50.8	14.6	0.00e+00	0	25	0	886046720	64	4347
2026-01-07 08:14:23.17	88.20	34.98	-50.1	-51.5	14.5	0.00e+00	0	25	0	898629632	65	4442
2026-01-07 08:14:27.15	87.04	35.61	-50.0	-51.4	14.5	0.00e+00	0	25	0	911212544	65	4415
2026-01-07 08:14:31.13	85.84	36.23	-49.9	-51.2	14.6	0.00e+00	0	25	0	923795456	65	4326
2026-01-07 08:14:35.14	84.59	36.86	-50.2	-51.6	14.4	0.00e+00	0	25	0	936378368	65	4507
2026-01-07 08:14:39.12	83.29	37.48	-50.5	-51.9	14.4	0.00e+00	0	25	0	947912704	66	4428
2026-01-07 08:14:43.12	81.94	38.09	-50.7	-52.1	14.3	0.00e+00	0	25	0	960495616	66	4533
2026-01-07 08:14:47.09	80.54	38.70	-51.1	-52.6	14.2	0.00e+00	0	25	0	973078528	67	4525
2026-01-07 08:14:51.09	79.08	39.29	-50.5	-52.0	14.5	0.00e+00	0	25	0	985661440	67	4202
2026-01-07 08:14:55.06	77.58	39.87	-50.5	-51.9	14.5	0.00e+00	0	25	0	998244352	67	4173
2026-01-07 08:14:59.04	76.02	40.44	-51.0	-52.5	14.2	0.00e+00	0	25	0	1010827264	67	4470
2026-01-07 08:15:03.02	74.40	40.99	-51.8	-53.4	13.9	0.00e+00	0	25	0	1023410176	68	4675
2026-01-07 08:15:07.00	72.73	41.53	-51.7	-53.3	14.0	0.00e+00	0	25	0	1034944512	68	4602
2026-01-07 08:15:10.97	71.01	42.04	-51.8	-53.4	14.0	0.00e+00	0	25	0	1047527424	68	4690
2026-01-07 08:15:14.96	69.23	42.53	-50.9	-52.3	14.5	0.00e+00	0	25	0	1060110336	68	4115
2026-01-07 08:15:18.95	67.39	42.99	-50.9	-52.3	14.5	0.00e+00	0	25	0	1072693248	68	4143
2026-01-07 08:15:22.94	65.50	43.42	-51.4	-52.9	14.2	0.00e+00	0	25	0	1085276160	68	4405
2026-01-07 08:15:26.93	63.56	43.83	-51.8	-53.5	13.9	0.00e+00	0	25	0	1097859072	68	4726
2026-01-07 08:15:30.92	61.57	44.20	-51.9	-53.6	13.9	0.00e+00	0	25	0	1110441984	68	4760
2026-01-07 08:15:34.92	59.53	44.53	-51.4	-53.0	14.3	0.00e+00	0	25	0	1123024896	69	4200
2026-01-07 08:15:38.89	57.47	44.82	-51.5	-53.1	14.3	0.00e+00	0	25	0	1135607808	69	4262
2026-01-07 08:15:42.87	55.37	45.07	-51.4	-52.9	14.3	0.00e+00	0	25	0	1147142144	69	4185
2026-01-07 08:15:46.86	53.23	45.29	-52.0	-53.6	14.0	0.00e+00	0	26	0	1159725056	69	4524
2026-01-07 08:15:50.84	51.07	45.45	-50.9	-52.4	14.5	0.00e+00	0	25	0	1172307968	68	4164
2026-01-07 08:15:54.83	48.88	45.57	-50.2	-52.0	14.7	0.00e+00	0	26	0	1184890880	67	4231
2026-01-07 08:15:58.81	46.69	45.65	-51.1	-52.6	14.3	0.00e+00	0	26	0	1197473792	67	4502
2026-01-07 08:16:02.80	44.48	45.68	-51.8	-53.4	14.0	0.00e+00	0	25	0	1210056704	68	4688
2026-01-07 08:16:06.77	42.29	45.66	-51.4	-52.9	14.2	0.00e+00	0	26	0	1222639616	68	4441
2026-01-07 08:16:10.75	40.09	45.59	-50.9	-52.3	14.5	0.00e+00	0	25	0	1234173952	68	4120
2026-01-07 08:16:14.75	37.90	45.48	-50.8	-52.1	14.6	0.00e+00	0	25	0	1246756864	68	4048
2026-01-07 08:16:18.74	35.73	45.32	-51.6	-53.2	14.1	0.00e+00	0	25	0	1259339776	68	4551
2026-01-07 08:16:22.73	33.58	45.12	-51.2	-52.7	14.3	0.00e+00	0	25	0	1271922688	68	4322
2026-01-07 08:16:26.89	31.38	44.87	-51.5	-53.0	14.3	0.00e+00	0	25	0	1286602752	69	4240
2026-01-07 08:16:31.15	29.16	44.56	-51.3	-52.8	14.5	0.00e+00	0	25	0	1299185664	69	4099
2026-01-07 08:16:35.18	27.11	44.23	-51.6	-53.1	14.1	0.00e+00	0	25	0	1311768576	68	4526
2026-01-07 08:16:39.18	25.11	43.86	-51.3	-52.7	14.3	0.00e+00	0	25	0	1324351488	68	4337
2026-01-07 08:16:43.21	23.15	43.46	-52.4	-54.1	13.7	0.00e+00	0	25	0	1336934400	69	4811
2026-01-07 08:16:47.20	21.26	43.03	-51.8	-53.4	14.3	0.00e+00	0	25	0	1349517312	70	4146
2026-01-07 08:16:51.22	19.41	42.56	-52.9	-54.7	13.7	0.00e+00	0	25	0	1362100224	71	4583
2026-01-07 08:16:55.23	17.61	42.07	-51.3	-52.8	14.4	0.00e+00	0	25	0	1374683136	69	4131
2026-01-07 08:16:59.27	15.86	41.55	-51.8	-53.4	14.0	0.00e+00	0	25	0	1387266048	69	4438
2026-01-07 08:17:03.28	14.18	41.02	-50.3	-51.7	14.6	0.00e+00	0	25	0	1399848960	67	4068
2026-01-07 08:17:07.27	12.56	40.47	-53.2	-55.3	13.3	0.00e+00	0	25	0	1412431872	72	4613
2026-01-07 08:17:11.33	10.97	39.89	-51.2	-52.6	14.3	0.00e+00	0	25	0	1425014784	68	4288
2026-01-07 08:17:15.35	9.45	39.30	-51.6	-53.2	14.2	0.00e+00	0	25	0	1437597696	69	4321
2026-01-07 08:17:19.42	7.97	38.70	-49.7	-51.0	14.7	0.00e+00	0	25	0	1450180608	65	4203
2026-01-07 08:17:23.45	6.56	38.09	-51.0	-52.4	14.2	0.00e+00	0	26	0	1462763520	67	4438
2026-01-07 08:17:27.46	5.21	37.47	-49.8	-51.1	14.8	0.00e+00	0	25	0	1475346432	66	4011
2026-01-07 08:17:31.45	3.91	36.86	-50.7	-52.2	14.3	0.00e+00	0	25	0	1487929344	66	4560
2026-01-07 08:17:35.47	2.66	36.23	-50.3	-51.6	14.7	0.00e+00	0	25	0	1500512256	67	4036
2026-01-07 08:17:39.48	1.45	35.60	-50.3	-51.7	14.5	0.00e+00	0	25	0	1513095168	66	4320
2026-01-07 08:17:43.49	0.29	34.97	-49.9	-51.2	14.8	0.00e+00	0	25	0	1525678080	66	4082
2026-01-07 08:17:47.50	359.18	34.34	-49.8	-51.1	14.6	0.00e+00	0	25	0	1538260992	65	4282
2026-01-07 08:17:51.50	358.11	33.71	-49.8	-51.1	14.6	0.00e+00	0	25	0	1550843904	65	4278
2026-01-07 08:17:55.53	357.07	33.08	-48.9	-50.1	14.9	0.00e+00	0	25	0	1563426816	64	4046
2026-01-07 08:17:59.55	356.08	32.46	-49.4	-50.7	14.7	0.00e+00	0	25	0	1576009728	64	4297
2026-01-07 08:18:03.55	355.13	31.84	-49.4	-50.7	14.7	0.00e+00	0	25	0	1588592640	64	4310
2026-01-07 08:18:07.55	354.21	31.22	-49.0	-50.2	14.9	0.00e+00	0	25	0	1601175552	64	4081
2026-01-07 08:18:11.56	353.33	30.61	-48.9	-50.1	14.9	0.00e+00	0	25	0	1613758464	64	4041
2026-01-07 08:18:15.58	352.48	30.00	-48.8	-50.1	14.9	0.00e+00	0	25	0	1626341376	64	4014
2026-01-07 08:18:19.63	351.65	29.39	-48.8	-50.1	15.0	0.00e+00	0	25	0	1638924288	64	4015
2026-01-07 08:18:23.63	350.87	28.80	-48.7	-49.9	14.9	0.00e+00	0	25	0	1651507200	63	4172
2026-01-07 08:18:27.61	350.11	28.22	-48.5	-49.7	14.9	0.00e+00	0	25	0	1663041536	63	4080
2026-01-07 08:18:31.66	349.38	27.63	-48.6	-49.8	14.9	0.00e+00	0	25	0	1676673024	63	4108
2026-01-07 08:18:35.67	348.67	27.06	-48.9	-50.1	14.8	0.00e+00	0	25	0	1689255936	63	4271
2026-01-07 08:18:39.71	347.99	26.48	-48.6	-49.9	14.9	0.00e+00	0	25	0	1700790272	63	4161
2026-01-07 08:18:43.74	347.33	25.92	-48.4	-49.6	15.0	0.00e+00	0	25	0	1714421760	63	4035
2026-01-07 08:18:47.76	346.70	25.37	-48.6	-49.8	14.9	0.00e+00	0	25	0	1727004672	63	4116
2026-01-07 08:18:51.76	346.09	24.83	-48.2	-49.4	15.1	0.00e+00	0	25	0	1738539008	63	3946
2026-01-07 08:18:55.76	345.50	24.29	-48.3	-49.4	15.1	0.00e+00	0	25	0	1751121920	63	3958
2026-01-07 08:18:59.81	344.93	23.76	-48.3	-49.6	14.9	0.00e+00	0	25	0	1763704832	62	4243
2026-01-07 08:19:03.82	344.38	23.24	-48.8	-50.0	14.7	0.00e+00	0	25	0	1776287744	62	4472
2026-01-07 08:19:07.85	343.85	22.72	-48.8	-50.0	14.7	0.00e+00	0	25	0	1788870656	62	4484
2026-01-07 08:19:11.86	343.33	22.21	-48.7	-49.9	14.7	0.00e+00	0	25	0	1801453568	62	4441
2026-01-07 08:19:15.87	342.84	21.71	-48.5	-49.7	14.8	0.00e+00	0	25	0	1814036480	62	4300
2026-01-07 08:19:19.90	342.35	21.22	-48.1	-49.3	15.0	0.00e+00	0	25	0	1826619392	62	4115
2026-01-07 08:19:23.95	341.88	20.73	-48.2	-49.4	14.9	0.00e+00	0	26	0	1839202304	62	4151
2026-01-07 08:19:27.96	341.43	20.25	-48.5	-49.8	14.8	0.00e+00	0	26	0	1851785216	62	4350
2026-01-07 08:19:32.00	340.99	19.78	-48.6	-49.9	14.7	0.00e+00	0	25	0	1864368128	62	4410
2026-01-07 08:19:36.00	340.57	19.32	-48.5	-49.8	14.8	0.00e+00	0	25	0	1876951040	62	4346
2026-01-07 08:19:40.03	340.16	18.86	-48.5	-49.7	14.8	0.00e+00	0	25	0	1889533952	62	4314
2026-01-07 08:19:44.08	339.76	18.41	-48.7	-49.9	14.7	0.00e+00	0	25	0	1902116864	62	4425
2026-01-07 08:19:48.08	339.38	17.97	-49.1	-50.3	14.7	0.00e+00	0	25	0	1914699776	63	4388
2026-01-07 08:19:52.10	339.00	17.53	-49.2	-50.5	14.6	0.00e+00	0	26	0	1927282688	63	4492
2026-01-07 08:19:56.10	338.64	17.10	-49.4	-50.7	14.6	0.00e+00	0	25	0	1939865600	64	4328
2026-01-07 08:20:00.12	338.29	16.68	-49.5	-50.8	14.6	0.00e+00	0	25	0	1952448512	64	4381
2026-01-07 08:20:04.19	337.94	16.25	-49.5	-50.8	14.6	0.00e+00	0	25	0	1965031424	64	4391
2026-01-07 08:20:08.20	337.61	15.84	-49.4	-50.8	14.6	0.00e+00	0	25	0	1977614336	64	4355
2026-01-07 08:20:12.23	337.28	15.43	-49.2	-50.5	14.7	0.00e+00	0	25	0	1990197248	64	4201
2026-01-07 08:20:16.26	336.97	15.03	-49.2	-50.5	14.7	0.00e+00	0	25	0	2002780160	64	4212
2026-01-07 08:20:20.29	336.66	14.64	-49.1	-50.4	14.7	0.00e+00	0	25	0	2015363072	64	4188
2026-01-07 08:20:24.30	336.36	14.25	-49.3	-50.6	14.6	0.00e+00	0	25	0	2027945984	64	4291
2026-01-07 08:20:28.31	336.08	13.86	-49.6	-51.0	14.5	0.00e+00	0	25	0	2040528896	64	4444
2026-01-07 08:20:32.35	335.79	13.48	-49.8	-51.2	14.4	0.00e+00	0	25	0	2053111808	64	4556
2026-01-07 08:20:36.40	335.52	13.11	-49.9	-51.3	14.4	0.00e+00	0	25	0	2065694720	65	4356
2026-01-07 08:20:40.44	335.25	12.74	-49.9	-51.4	14.4	0.00e+00	0	25	0	2078277632	65	4395
2026-01-07 08:20:44.45	334.99	12.37	-49.9	-51.4	14.4	0.00e+00	0	25	0	2090860544	65	4395
2026-01-07 08:20:48.46	334.74	12.01	-49.8	-51.3	14.4	0.00e+00	0	25	0	2103443456	65	4343
2026-01-07 08:20:52.50	334.49	11.66	-49.8	-51.2	14.4	0.00e+00	0	25	0	2116026368	65	4332
2026-01-07 08:20:56.51	334.25	11.31	-49.8	-51.2	14.4	0.00e+00	0	25	0	2128609280	65	4320
2026-01-07 08:21:00.55	334.01	10.96	-49.8	-51.2	14.4	0.00e+00	0	25	0	2141192192	65	4315
2026-01-07 08:21:04.57	333.78	10.62	-49.8	-51.2	14.5	0.00e+00	0	25	0	2153775104	65	4317
2026-01-07 08:21:08.60	333.56	10.28	-50.0	-51.4	14.4	0.00e+00	0	25	0	2166358016	65	4421
2026-01-07 08:21:12.65	333.34	9.95	-49.9	-51.4	14.4	0.00e+00	0	25	0	2178940928	65	4407
2026-01-07 08:21:16.71	333.12	9.62	-50.1	-51.5	14.3	0.00e+00	0	25	0	2191523840	65	4476
2026-01-07 08:21:20.72	332.92	9.29	-50.1	-51.6	14.2	0.00e+00	0	26	0	2204106752	65	4535
2026-01-07 08:21:24.74	332.71	8.97	-50.2	-51.7	14.2	0.00e+00	0	25	0	2216689664	65	4554
2026-01-07 08:21:28.76	332.52	8.65	-50.3	-51.8	14.1	0.00e+00	0	25	0	2229272576	65	4639
2026-01-07 08:21:32.75	332.32	8.34	-50.3	-51.9	14.2	0.00e+00	0	25	0	2241855488	66	4401
2026-01-07 08:21:36.83	332.13	8.03	-50.6	-52.2	14.0	0.00e+00	0	25	0	2254438400	66	4557
2026-01-07 08:21:40.87	331.95	7.72	-50.7	-52.3	14.0	0.00e+00	0	25	0	2268069888	66	4614
2026-01-07 08:21:44.89	331.77	7.41	-50.8	-52.5	13.8	0.00e+00	0	25	0	2279604224	66	4745
2026-01-07 08:21:48.89	331.59	7.11	-50.8	-52.5	13.9	0.00e+00	0	25	0	2292187136	66	4710
2026-01-07 08:21:52.93	331.42	6.82	-50.9	-52.6	13.9	0.00e+00	0	25	0	2304770048	67	4517
2026-01-07 08:21:56.99	331.25	6.52	-51.0	-52.7	13.8	0.00e+00	0	25	0	2317352960	67	4575
2026-01-07 08:22:01.01	331.08	6.23	-51.3	-53.2	13.6	0.00e+00	0	26	0	2329935872	67	4820
2026-01-07 08:22:05.03	330.92	5.94	-51.1	-52.9	13.7	0.00e+00	0	25	0	2342518784	67	4692
2026-01-07 08:22:09.07	330.76	5.65	-51.3	-53.2	13.5	0.00e+00	0	25	0	2356150272	67	4824
2026-01-07 08:22:13.09	330.61	5.37	-51.5	-53.4	13.6	0.00e+00	0	25	0	2367684608	68	4674
2026-01-07 08:22:17.11	330.46	5.09	-51.7	-53.6	13.4	0.00e+00	0	25	0	2380267520	68	4787
2026-01-07 08:22:21.12	330.31	4.82	-59.0	-72.8	3.8	1.49e+00	0	25	104	2385510400	83	18426
2026-01-07 08:22:25.13	330.16	4.54	-59.8	-73.6	3.8	1.49e+00	0	25	104	2385510400	84	19075
2026-01-07 08:22:29.14	330.02	4.27	-60.1	-73.9	3.8	1.49e+00	0	25	104	2385510400	85	18656
2026-01-07 08:22:33.17	329.88	4.00	-60.2	-74.0	3.8	1.49e+00	0	25	104	2385510400	85	18920
2026-01-07 08:22:37.20	329.75	3.73	-60.3	-74.1	3.8	1.49e+00	0	25	104	2385510400	85	19027
2026-01-07 08:22:41.22	329.61	3.47	-60.2	-74.1	3.8	1.49e+00	0	26	104	2385510400	85	19027
2026-01-07 08:22:45.25	329.48	3.21	-60.2	-74.0	3.8	1.49e+00	0	26	104	2385510400	85	18946
2026-01-07 08:22:49.33	329.35	2.94	-60.1	-74.0	3.8	1.49e+00	0	26	104	2385510400	85	18857
2026-01-07 08:22:53.36	329.22	2.69	-60.1	-74.0	3.8	1.49e+00	0	26	104	2385510400	85	18789
2026-01-07 08:22:57.39	329.10	2.43	-60.1	-74.0	3.8	1.49e+00	0	26	104	2385510400	85	18774
2026-01-07 08:23:01.42	328.98	2.18	-60.1	-73.9	3.8	1.49e+00	0	26	104	2385510400	85	18729
2026-01-07 08:23:05.44	328.86	1.93	-60.0	-73.9	3.8	1.49e+00	0	26	104	2385510400	85	18661

#Closed at: 2026-01-07 08:23:07
#Recorded file [2385 MB]: D:/lorett/data/31004_260107_110904.dat