passes_logs/2026/01/07/R3.2S_Murmansk/R3.2S_Murmansk__20260107_224231_NOAA_20_JPSS-1_rec.log

#Pass ID: 20260107_224231_NOAA 20 (JPSS-1)
#Satellite: NOAA 20 (JPSS-1)
#Configuration: NOAA 20
#almurnet v.1.7.20251203
#Start time: 2026-01-07 22:42:31

#Version: 2.2.20231116
#Station: R3.2S_Murmansk
#Location: 33.079688 lon 68.888172 lat
#TLE: 1 43013U 17073A   26006.30790171  .00000126  00000+0  80695-4 0  9991
#TLE: 2 43013  98.7629 307.3394 0001808  51.8724 308.2615 14.19533762421505

#Time	Az	El	Level	Level2	SNR	BER	BlckErr	Temp	State	Recorded	gain1	gain2
2026-01-07 22:42:31.83	19.35	2.04	-57.7	-73.7	3.8	1.49e+00	0	23	0	0	82	21608
2026-01-07 22:42:35.82	19.59	2.27	-57.6	-73.6	3.8	1.49e+00	0	23	104	0	80	23968
2026-01-07 22:42:39.81	19.83	2.51	-57.6	-73.5	3.8	1.49e+00	0	23	104	0	80	23804
2026-01-07 22:42:43.81	20.08	2.74	-57.6	-72.9	3.8	1.49e+00	0	23	104	0	80	22205
2026-01-07 22:42:47.78	20.32	2.97	-57.6	-72.2	3.8	1.49e+00	0	24	104	0	80	20417
2026-01-07 22:42:51.77	20.58	3.21	-57.6	-72.3	3.8	1.49e+00	0	24	104	0	80	20725
2026-01-07 22:42:55.76	20.83	3.45	-57.4	-69.3	4.4	1.32e+00	66	24	0	0	80	14667
2026-01-07 22:42:59.75	21.10	3.69	-57.2	-66.8	5.6	4.79e-01	0	24	0	7340032	80	10968
2026-01-07 22:43:03.76	21.36	3.93	-57.0	-65.0	6.9	1.48e-01	0	24	0	14680064	80	8945
2026-01-07 22:43:07.77	21.63	4.17	-55.5	-60.1	11.0	8.07e-04	0	24	0	23068672	77	6058
2026-01-07 22:43:11.77	21.91	4.42	-54.1	-57.3	12.9	0.00e+00	0	24	0	30408704	74	5173
2026-01-07 22:43:15.77	22.18	4.67	-54.3	-57.7	12.5	0.00e+00	0	24	0	37748736	73	5774
2026-01-07 22:43:19.75	22.47	4.91	-56.0	-61.5	9.9	1.37e-03	0	24	0	45088768	77	7067
2026-01-07 22:43:23.75	22.75	5.16	-56.7	-64.3	7.6	2.14e-04	0	24	0	52428800	78	9249
2026-01-07 22:43:27.74	23.04	5.42	-55.4	-59.7	11.2	4.76e-01	0	24	0	59768832	77	5784
2026-01-07 22:43:31.73	23.34	5.67	-53.3	-55.9	13.7	0.00e+00	0	24	0	67108864	73	4665
2026-01-07 22:43:35.74	23.64	5.93	-53.0	-55.5	13.9	0.00e+00	0	24	0	74448896	72	4745
2026-01-07 22:43:39.73	23.95	6.18	-53.0	-55.5	13.9	0.00e+00	0	24	0	82837504	72	4728
2026-01-07 22:43:43.72	24.26	6.44	-53.0	-55.5	13.9	0.00e+00	0	24	0	90177536	72	4742
2026-01-07 22:43:47.71	24.57	6.70	-53.0	-55.4	13.9	0.00e+00	0	24	0	97517568	72	4693
2026-01-07 22:43:51.70	24.90	6.97	-52.9	-55.3	14.1	0.00e+00	0	24	0	104857600	72	4612
2026-01-07 22:43:55.67	25.22	7.23	-52.9	-55.3	14.1	0.00e+00	0	24	0	112197632	72	4615
2026-01-07 22:43:59.66	25.55	7.50	-52.9	-55.3	14.1	0.00e+00	0	24	0	119537664	72	4613
2026-01-07 22:44:03.63	25.89	7.77	-52.8	-55.2	14.2	0.00e+00	0	24	0	126877696	72	4555
2026-01-07 22:44:07.63	26.24	8.04	-52.8	-55.1	14.2	0.00e+00	0	24	0	134217728	72	4520
2026-01-07 22:44:11.62	26.59	8.31	-52.8	-55.1	14.2	0.00e+00	0	24	0	142606336	72	4509
2026-01-07 22:44:15.61	26.94	8.59	-52.7	-54.9	14.4	0.00e+00	0	24	0	149946368	72	4408
2026-01-07 22:44:19.61	27.31	8.87	-52.7	-54.9	14.2	0.00e+00	0	24	0	157286400	71	4675
2026-01-07 22:44:23.60	27.68	9.15	-52.5	-54.7	14.4	0.00e+00	0	24	0	164626432	71	4552
2026-01-07 22:44:27.59	28.05	9.43	-52.4	-54.5	14.4	0.00e+00	0	25	0	171966464	71	4461
2026-01-07 22:44:31.57	28.44	9.71	-52.2	-54.2	14.6	0.00e+00	0	25	0	179306496	71	4338
2026-01-07 22:44:35.57	28.83	10.00	-52.1	-54.1	14.5	0.00e+00	0	25	0	186646528	70	4541
2026-01-07 22:44:39.57	29.23	10.29	-52.3	-54.4	14.4	0.00e+00	0	25	0	193986560	70	4674
2026-01-07 22:44:43.56	29.63	10.58	-52.5	-54.6	14.3	0.00e+00	0	25	0	202375168	70	4773
2026-01-07 22:44:47.54	30.04	10.87	-52.4	-54.6	14.3	0.00e+00	0	25	0	209715200	70	4761
2026-01-07 22:44:51.51	30.46	11.17	-52.5	-54.6	14.3	0.00e+00	0	25	0	217055232	70	4795
2026-01-07 22:44:55.49	30.89	11.46	-52.3	-54.3	14.5	0.00e+00	0	25	0	224395264	70	4610
2026-01-07 22:44:59.46	31.33	11.76	-52.0	-54.0	14.6	0.00e+00	0	25	0	231735296	70	4459
2026-01-07 22:45:03.47	31.78	12.06	-52.1	-54.0	14.6	0.00e+00	0	25	0	239075328	70	4484
2026-01-07 22:45:07.47	32.23	12.37	-52.1	-54.0	14.6	0.00e+00	0	25	0	246415360	70	4482
2026-01-07 22:45:11.46	32.70	12.68	-52.2	-54.1	14.5	0.00e+00	0	25	0	254803968	70	4539
2026-01-07 22:45:15.46	33.17	12.98	-51.9	-53.7	14.7	0.00e+00	0	25	0	262144000	70	4336
2026-01-07 22:45:19.47	33.66	13.30	-52.1	-54.0	14.6	0.00e+00	0	25	0	269484032	70	4461
2026-01-07 22:45:23.46	34.15	13.61	-52.2	-54.2	14.5	0.00e+00	0	25	0	276824064	70	4584
2026-01-07 22:45:27.45	34.66	13.93	-52.2	-54.1	14.5	0.00e+00	0	25	0	284164096	70	4527
2026-01-07 22:45:31.46	35.17	14.24	-52.1	-54.0	14.6	0.00e+00	0	25	0	291504128	70	4488
2026-01-07 22:45:35.46	35.70	14.56	-52.1	-54.1	14.6	0.00e+00	0	25	0	298844160	70	4511
2026-01-07 22:45:39.46	36.24	14.89	-52.0	-53.8	14.7	0.00e+00	0	25	0	307232768	70	4389
2026-01-07 22:45:43.46	36.79	15.21	-51.9	-53.8	14.7	0.00e+00	0	25	0	314572800	70	4360
2026-01-07 22:45:47.45	37.35	15.54	-51.9	-53.8	14.7	0.00e+00	0	25	0	321912832	70	4379
2026-01-07 22:45:51.44	37.92	15.86	-52.1	-53.9	14.7	0.00e+00	0	25	0	329252864	70	4436
2026-01-07 22:45:55.42	38.50	16.19	-51.6	-53.4	14.8	0.00e+00	0	25	0	336592896	69	4435
2026-01-07 22:45:59.41	39.09	16.52	-51.5	-53.3	14.8	0.00e+00	0	25	0	343932928	69	4359
2026-01-07 22:46:03.40	39.70	16.85	-51.5	-53.3	14.9	0.00e+00	0	25	0	351272960	69	4351
2026-01-07 22:46:07.39	40.32	17.19	-51.5	-53.2	14.9	0.00e+00	0	25	0	359661568	69	4321
2026-01-07 22:46:11.39	40.96	17.52	-51.3	-53.0	15.0	0.00e+00	0	25	0	367001600	69	4233
2026-01-07 22:46:15.40	41.61	17.86	-51.3	-53.1	15.0	0.00e+00	0	25	0	374341632	69	4244
2026-01-07 22:46:19.37	42.27	18.20	-51.3	-53.0	15.0	0.00e+00	0	25	0	381681664	69	4220
2026-01-07 22:46:23.36	42.95	18.53	-50.9	-52.5	15.0	0.00e+00	0	25	0	389021696	68	4233
2026-01-07 22:46:27.36	43.64	18.87	-50.9	-52.6	15.0	0.00e+00	0	25	0	396361728	68	4251
2026-01-07 22:46:31.36	44.35	19.22	-51.0	-52.6	15.0	0.00e+00	0	25	0	403701760	68	4274
2026-01-07 22:46:35.36	45.08	19.56	-50.8	-52.3	15.2	0.00e+00	0	25	0	412090368	68	4140
2026-01-07 22:46:39.34	45.82	19.89	-51.0	-52.6	15.0	0.00e+00	0	25	0	419430400	68	4260
2026-01-07 22:46:43.34	46.57	20.24	-50.6	-52.2	15.0	0.00e+00	0	25	0	426770432	67	4335
2026-01-07 22:46:47.34	47.35	20.58	-50.4	-51.9	15.1	0.00e+00	0	25	0	434110464	67	4187
2026-01-07 22:46:51.32	48.13	20.91	-50.6	-52.2	15.0	0.00e+00	0	25	0	441450496	67	4301
2026-01-07 22:46:55.30	48.94	21.25	-50.7	-52.3	15.0	0.00e+00	0	25	0	448790528	67	4375
2026-01-07 22:46:59.29	49.76	21.59	-50.5	-52.0	15.1	0.00e+00	0	25	0	456130560	67	4227
2026-01-07 22:47:03.31	50.60	21.93	-50.8	-52.4	14.9	0.00e+00	0	25	0	464519168	67	4428
2026-01-07 22:47:07.28	51.46	22.26	-50.6	-52.2	15.0	0.00e+00	0	25	0	471859200	67	4309
2026-01-07 22:47:11.27	52.33	22.59	-50.4	-51.9	15.1	0.00e+00	0	25	0	479199232	67	4181
2026-01-07 22:47:15.26	53.23	22.92	-50.6	-52.2	15.0	0.00e+00	0	25	0	486539264	67	4299
2026-01-07 22:47:19.24	54.14	23.24	-50.6	-52.1	15.0	0.00e+00	0	25	0	493879296	67	4284
2026-01-07 22:47:23.23	55.07	23.57	-50.9	-52.6	14.9	0.00e+00	0	25	0	501219328	67	4499
2026-01-07 22:47:27.22	56.02	23.89	-51.3	-53.1	14.7	0.00e+00	0	25	0	508559360	67	4767
2026-01-07 22:47:31.22	57.00	24.20	-51.2	-52.9	14.7	0.00e+00	0	25	0	515899392	67	4698
2026-01-07 22:47:35.22	57.99	24.51	-51.6	-53.3	14.7	0.00e+00	0	25	0	524288000	68	4637
2026-01-07 22:47:39.21	58.99	24.81	-51.6	-53.3	14.7	0.00e+00	0	25	0	531628032	68	4626
2026-01-07 22:47:43.21	60.02	25.11	-52.2	-54.0	14.5	0.00e+00	0	25	0	538968064	69	4750
2026-01-07 22:47:47.20	61.07	25.41	-52.4	-54.3	14.5	0.00e+00	0	25	0	546308096	70	4644
2026-01-07 22:47:51.19	62.14	25.69	-52.1	-54.0	14.7	0.00e+00	0	25	0	553648128	70	4448
2026-01-07 22:47:55.19	63.22	25.97	-53.0	-55.1	14.3	0.00e+00	0	25	0	560988160	71	4789
2026-01-07 22:47:59.17	64.32	26.24	-52.7	-54.8	14.4	0.00e+00	0	25	0	568328192	71	4605
2026-01-07 22:48:03.15	65.44	26.50	-53.2	-55.3	14.2	0.00e+00	0	25	0	576716800	71	4918
2026-01-07 22:48:07.13	66.57	26.75	-53.2	-55.4	14.2	0.00e+00	0	25	0	584056832	72	4658
2026-01-07 22:48:11.12	67.73	26.99	-53.1	-55.2	14.3	0.00e+00	0	25	0	591396864	72	4575
2026-01-07 22:48:15.12	68.91	27.22	-53.5	-55.7	14.0	0.00e+00	0	25	0	598736896	72	4867
2026-01-07 22:48:19.12	70.10	27.45	-52.8	-54.8	14.6	0.00e+00	0	25	0	606076928	72	4359
2026-01-07 22:48:23.11	71.31	27.65	-53.7	-56.1	13.8	0.00e+00	0	25	0	613416960	72	5095
2026-01-07 22:48:27.11	72.53	27.85	-54.4	-57.1	13.5	0.00e+00	0	25	0	620756992	74	5078
2026-01-07 22:48:31.11	73.77	28.04	-54.0	-56.4	13.9	0.00e+00	0	25	0	629145600	74	4702
2026-01-07 22:48:35.11	75.02	28.21	-53.7	-56.0	14.2	0.00e+00	0	25	0	636485632	74	4466
2026-01-07 22:48:39.11	76.28	28.37	-53.4	-55.6	14.3	0.00e+00	0	25	0	643825664	73	4531
2026-01-07 22:48:43.11	77.56	28.51	-54.1	-56.6	13.7	0.00e+00	0	25	0	651165696	73	5050
2026-01-07 22:48:47.11	78.85	28.64	-54.2	-56.8	13.6	0.00e+00	0	25	0	658505728	73	5164
2026-01-07 22:48:51.11	80.15	28.76	-53.9	-56.3	13.9	0.00e+00	0	25	0	665845760	73	4900
2026-01-07 22:48:55.09	81.45	28.86	-53.7	-56.0	14.0	0.00e+00	0	25	0	673185792	73	4746
2026-01-07 22:48:59.04	82.74	28.94	-53.5	-55.7	14.2	0.00e+00	0	25	0	681574400	73	4593
2026-01-07 22:49:03.03	84.06	29.01	-53.0	-55.0	14.5	0.00e+00	0	25	0	688914432	72	4463
2026-01-07 22:49:07.01	85.38	29.06	-53.3	-55.5	14.2	0.00e+00	0	25	0	696254464	72	4733
2026-01-07 22:49:11.00	86.70	29.09	-53.6	-55.9	14.1	0.00e+00	0	25	0	703594496	73	4682
2026-01-07 22:49:15.00	88.03	29.11	-52.4	-54.3	14.7	0.00e+00	0	25	0	710934528	71	4362
2026-01-07 22:49:18.99	89.36	29.12	-52.9	-55.0	14.4	0.00e+00	0	25	0	718274560	71	4716
2026-01-07 22:49:23.00	90.70	29.10	-53.1	-55.2	14.2	0.00e+00	0	25	0	725614592	71	4849
2026-01-07 22:49:26.98	92.02	29.07	-52.2	-54.1	14.8	0.00e+00	0	25	0	732954624	71	4247
2026-01-07 22:49:30.97	93.34	29.03	-53.9	-56.3	13.8	0.00e+00	0	25	0	741343232	72	5177
2026-01-07 22:49:34.96	94.66	28.96	-53.9	-56.3	13.9	0.00e+00	0	25	0	748683264	73	4913
2026-01-07 22:49:38.96	95.98	28.89	-53.3	-55.5	14.2	0.00e+00	0	25	0	756023296	72	4744
2026-01-07 22:49:42.95	97.29	28.79	-54.7	-57.5	13.3	0.00e+00	0	25	0	763363328	74	5314
2026-01-07 22:49:46.94	98.58	28.68	-53.6	-55.9	14.1	0.00e+00	0	25	0	770703360	73	4670
2026-01-07 22:49:50.92	99.87	28.56	-53.7	-56.0	14.0	0.00e+00	0	25	0	778043392	73	4731
2026-01-07 22:49:54.91	101.15	28.42	-53.4	-55.6	14.1	0.00e+00	0	25	0	785383424	72	4787
2026-01-07 22:49:58.91	102.42	28.27	-53.2	-55.3	14.3	0.00e+00	0	25	0	793772032	72	4626
2026-01-07 22:50:02.89	103.67	28.10	-52.4	-54.3	14.7	0.00e+00	0	25	0	801112064	71	4348
2026-01-07 22:50:06.87	104.91	27.92	-52.0	-53.7	14.8	0.00e+00	0	25	0	808452096	70	4337
2026-01-07 22:50:10.86	106.14	27.73	-52.5	-54.4	14.5	0.00e+00	0	25	0	815792128	70	4668
2026-01-07 22:50:14.86	107.36	27.52	-52.4	-54.3	14.5	0.00e+00	0	25	0	823132160	70	4613
2026-01-07 22:50:18.85	108.56	27.30	-51.6	-53.3	15.0	0.00e+00	0	25	0	830472192	69	4378
2026-01-07 22:50:22.86	109.74	27.07	-52.0	-53.8	14.6	0.00e+00	0	25	0	837812224	69	4614
2026-01-07 22:50:26.86	110.91	26.83	-52.6	-54.5	14.4	0.00e+00	0	25	0	846200832	70	4746
2026-01-07 22:50:30.86	112.06	26.58	-52.6	-54.5	14.4	0.00e+00	0	25	0	853540864	70	4750
2026-01-07 22:50:34.86	113.19	26.32	-52.1	-53.9	14.7	0.00e+00	0	25	0	860880896	70	4427
2026-01-07 22:50:38.85	114.30	26.05	-52.5	-54.5	14.4	0.00e+00	0	25	0	868220928	70	4707
2026-01-07 22:50:42.84	115.40	25.78	-53.1	-55.3	14.2	0.00e+00	0	25	0	875560960	71	4873
2026-01-07 22:50:46.82	116.47	25.50	-52.7	-54.7	14.5	0.00e+00	0	25	0	882900992	71	4559
2026-01-07 22:50:50.83	117.53	25.20	-52.1	-53.9	14.7	0.00e+00	0	25	0	890241024	70	4428
2026-01-07 22:50:54.82	118.57	24.91	-51.7	-53.5	14.9	0.00e+00	0	25	0	898629632	70	4195
2026-01-07 22:50:58.80	119.58	24.60	-52.1	-54.0	14.5	0.00e+00	0	25	0	905969664	69	4720
2026-01-07 22:51:02.79	120.58	24.29	-51.7	-53.5	14.7	0.00e+00	0	25	0	913309696	69	4475
2026-01-07 22:51:06.76	121.55	23.98	-52.1	-53.9	14.5	0.00e+00	0	25	0	920649728	69	4684
2026-01-07 22:51:10.75	122.51	23.66	-51.6	-53.4	14.8	0.00e+00	0	25	0	927989760	69	4414
2026-01-07 22:51:14.74	123.45	23.34	-52.4	-54.3	14.3	0.00e+00	0	25	0	935329792	69	4926
2026-01-07 22:51:18.72	124.37	23.01	-52.0	-53.8	14.8	0.00e+00	0	25	0	942669824	70	4355
2026-01-07 22:51:22.72	125.28	22.68	-53.3	-55.6	14.0	0.00e+00	0	25	0	950009856	71	5067
2026-01-07 22:51:26.72	126.17	22.35	-52.3	-54.2	14.7	0.00e+00	0	25	0	958398464	71	4302
2026-01-07 22:51:30.70	127.03	22.02	-53.0	-55.1	14.2	0.00e+00	0	25	0	965738496	71	4804
2026-01-07 22:51:34.70	127.88	21.68	-52.3	-54.2	14.7	0.00e+00	0	25	0	973078528	71	4302
2026-01-07 22:51:38.69	128.71	21.34	-52.7	-54.8	14.2	0.00e+00	0	25	0	980418560	70	4904
2026-01-07 22:51:42.69	129.53	21.00	-52.3	-54.3	14.5	0.00e+00	0	25	0	987758592	70	4603
2026-01-07 22:51:46.67	130.32	20.66	-52.5	-54.5	14.4	0.00e+00	0	25	0	995098624	70	4731
2026-01-07 22:51:50.67	131.10	20.32	-52.3	-54.3	14.5	0.00e+00	0	25	0	1002438656	70	4601
2026-01-07 22:51:54.67	131.87	19.97	-51.8	-53.6	14.8	0.00e+00	0	25	0	1010827264	70	4284
2026-01-07 22:51:58.65	132.61	19.63	-51.9	-53.8	14.7	0.00e+00	0	25	0	1018167296	70	4343
2026-01-07 22:52:02.62	133.34	19.29	-51.4	-53.1	14.8	0.00e+00	0	25	0	1025507328	69	4284
2026-01-07 22:52:06.62	134.05	18.95	-51.9	-53.7	14.6	0.00e+00	0	25	0	1032847360	69	4575
2026-01-07 22:52:10.61	134.75	18.61	-51.7	-53.6	14.7	0.00e+00	0	25	0	1040187392	69	4502
2026-01-07 22:52:14.60	135.44	18.27	-51.5	-53.3	14.8	0.00e+00	0	25	0	1047527424	69	4345
2026-01-07 22:52:18.58	136.11	17.93	-51.2	-52.9	15.0	0.00e+00	0	25	0	1054867456	69	4179
2026-01-07 22:52:22.58	136.76	17.59	-51.2	-52.9	14.8	0.00e+00	0	25	0	1062207488	68	4422
2026-01-07 22:52:26.58	137.40	17.25	-51.3	-53.1	14.8	0.00e+00	0	25	0	1070596096	68	4497
2026-01-07 22:52:30.58	138.03	16.92	-51.7	-53.5	14.5	0.00e+00	0	25	0	1077936128	68	4739
2026-01-07 22:52:34.58	138.65	16.58	-51.7	-53.5	14.5	0.00e+00	0	25	0	1085276160	68	4731
2026-01-07 22:52:38.58	139.25	16.25	-51.4	-53.1	14.7	0.00e+00	0	25	0	1092616192	68	4533
2026-01-07 22:52:42.57	139.84	15.91	-51.5	-53.3	14.6	0.00e+00	0	25	0	1099956224	68	4616
2026-01-07 22:52:46.58	140.42	15.58	-51.5	-53.4	14.6	0.00e+00	0	25	0	1107296256	68	4661
2026-01-07 22:52:50.57	140.98	15.26	-51.6	-53.5	14.6	0.00e+00	0	25	0	1115684864	68	4710
2026-01-07 22:52:54.57	141.53	14.93	-52.2	-54.3	14.3	0.00e+00	0	25	0	1123024896	69	4881
2026-01-07 22:52:58.56	142.07	14.60	-52.3	-54.4	14.2	0.00e+00	0	25	0	1130364928	69	4939
2026-01-07 22:53:02.55	142.60	14.28	-52.2	-54.2	14.3	0.00e+00	0	25	0	1137704960	69	4853
2026-01-07 22:53:06.54	143.12	13.96	-52.4	-54.4	14.2	0.00e+00	0	25	0	1145044992	69	4977
2026-01-07 22:53:10.54	143.63	13.64	-52.7	-54.9	14.1	0.00e+00	0	25	0	1152385024	70	4959
2026-01-07 22:53:14.53	144.13	13.33	-52.9	-55.2	13.9	0.00e+00	0	25	0	1159725056	70	5106
2026-01-07 22:53:18.51	144.61	13.02	-52.9	-55.2	14.0	0.00e+00	0	25	0	1168113664	71	4828
2026-01-07 22:53:22.50	145.09	12.70	-52.6	-54.8	14.3	0.00e+00	0	25	0	1175453696	71	4609
2026-01-07 22:53:26.49	145.56	12.40	-52.7	-54.9	14.2	0.00e+00	0	25	0	1182793728	71	4683
2026-01-07 22:53:30.48	146.02	12.09	-53.0	-55.3	14.0	0.00e+00	0	25	0	1190133760	71	4886
2026-01-07 22:53:34.47	146.47	11.78	-53.0	-55.3	14.0	0.00e+00	0	25	0	1197473792	71	4885
2026-01-07 22:53:38.46	146.91	11.48	-52.4	-54.4	14.4	0.00e+00	0	25	0	1204813824	71	4441
2026-01-07 22:53:42.45	147.34	11.18	-52.1	-54.1	14.5	0.00e+00	0	25	0	1212153856	70	4516
2026-01-07 22:53:46.44	147.76	10.88	-52.2	-54.3	14.4	0.00e+00	0	25	0	1219493888	70	4600
2026-01-07 22:53:50.46	148.18	10.59	-52.5	-54.7	14.1	0.00e+00	0	25	0	1227882496	70	4844
2026-01-07 22:53:54.46	148.59	10.29	-52.4	-54.6	14.2	0.00e+00	0	25	0	1235222528	70	4782
2026-01-07 22:53:58.45	148.99	10.00	-52.3	-54.4	14.3	0.00e+00	0	25	0	1242562560	70	4660
2026-01-07 22:54:02.44	149.38	9.71	-52.2	-54.3	14.3	0.00e+00	0	25	0	1249902592	70	4617
2026-01-07 22:54:06.43	149.77	9.43	-52.5	-54.6	14.1	0.00e+00	0	25	0	1257242624	70	4811
2026-01-07 22:54:10.42	150.14	9.14	-52.6	-54.8	13.9	0.00e+00	0	25	0	1264582656	70	4923
2026-01-07 22:54:14.42	150.52	8.86	-52.6	-54.8	14.0	0.00e+00	0	25	0	1271922688	70	4900
2026-01-07 22:54:18.41	150.88	8.58	-52.4	-54.6	14.2	0.00e+00	0	25	0	1280311296	70	4788
2026-01-07 22:54:22.40	151.24	8.30	-52.2	-54.3	14.3	0.00e+00	0	25	0	1287651328	70	4644
2026-01-07 22:54:26.42	151.59	8.02	-52.4	-54.6	14.1	0.00e+00	0	25	0	1294991360	70	4778
2026-01-07 22:54:30.41	151.94	7.75	-52.6	-54.9	13.9	0.00e+00	0	25	0	1302331392	70	4973
2026-01-07 22:54:34.38	152.27	7.48	-52.9	-55.3	13.7	0.00e+00	0	25	0	1309671424	70	5186
2026-01-07 22:54:38.38	152.61	7.21	-52.9	-55.4	13.8	0.00e+00	0	25	0	1317011456	71	4948
2026-01-07 22:54:42.37	152.93	6.94	-52.9	-55.4	13.8	0.00e+00	0	25	0	1324351488	71	4952
2026-01-07 22:54:46.36	153.26	6.68	-52.7	-55.1	13.9	0.00e+00	0	25	0	1332740096	71	4807
2026-01-07 22:54:50.35	153.57	6.41	-52.8	-55.2	13.9	0.00e+00	0	25	0	1340080128	71	4865
2026-01-07 22:54:54.35	153.88	6.15	-53.1	-55.7	13.6	0.00e+00	0	25	0	1347420160	71	5132
2026-01-07 22:54:58.34	154.19	5.89	-53.3	-56.1	13.3	0.00e+00	0	25	0	1354760192	71	5352
2026-01-07 22:55:02.31	154.49	5.63	-53.5	-56.4	13.2	0.00e+00	0	25	0	1362100224	72	5249
2026-01-07 22:55:06.30	154.78	5.38	-53.6	-56.6	13.0	0.00e+00	0	25	0	1369440256	72	5392
2026-01-07 22:55:10.26	155.07	5.13	-53.6	-56.6	13.0	0.00e+00	0	25	0	1376780288	72	5364
2026-01-07 22:55:14.23	155.36	4.88	-58.3	-74.4	3.8	1.49e+00	0	25	104	1382023168	81	24711
2026-01-07 22:55:18.24	155.64	4.63	-59.1	-75.2	3.8	1.49e+00	0	25	104	1382023168	83	24259
2026-01-07 22:55:22.24	155.92	4.38	-59.7	-75.8	3.8	1.49e+00	0	25	104	1382023168	84	24616
2026-01-07 22:55:26.25	156.19	4.13	-60.1	-76.2	3.8	1.49e+00	0	25	104	1382023168	85	24173
2026-01-07 22:55:30.25	156.46	3.88	-60.3	-76.4	3.8	1.49e+00	0	25	104	1382023168	85	24713
2026-01-07 22:55:34.26	156.72	3.64	-60.3	-76.4	3.8	1.49e+00	0	25	104	1382023168	85	24866
2026-01-07 22:55:38.26	156.99	3.40	-60.2	-76.3	3.8	1.49e+00	0	25	104	1382023168	85	24528
2026-01-07 22:55:42.25	157.24	3.16	-60.2	-76.3	3.8	1.49e+00	0	25	104	1382023168	85	24427
2026-01-07 22:55:46.26	157.49	2.92	-60.1	-76.2	3.8	1.49e+00	0	25	104	1382023168	85	24313
2026-01-07 22:55:50.25	157.74	2.68	-60.0	-76.1	3.8	1.49e+00	0	25	104	1382023168	85	24102
2026-01-07 22:55:54.26	157.99	2.44	-60.0	-76.1	3.8	1.49e+00	0	25	104	1382023168	85	24077
2026-01-07 22:55:58.24	158.23	2.21	-60.0	-76.1	3.8	1.49e+00	0	25	104	1382023168	85	24036
2026-01-07 22:56:02.24	158.47	1.98	-60.0	-76.1	3.8	1.49e+00	0	25	104	1382023168	85	23953

#Closed at: 2026-01-07 22:56:03
#Recorded file [1382 MB]: D:/lorett/data/31004_260108_014231.dat