passes_logs/2026/01/07/R3.2S_Murmansk/R3.2S_Murmansk__20260107_111853_FENGYUN_3D_rec.log

#Pass ID: 20260107_111853_FENGYUN 3D
#Satellite: FENGYUN 3D
#Configuration: FENGYUN 3D
#almurnet v.1.7.20251203
#Start time: 2026-01-07 11:18:55

#Version: 2.2.20231116
#Station: R3.2S_Murmansk
#Location: 33.079688 lon 68.888172 lat
#TLE: 1 43010U 17072A   26006.26440730  .00000376  00000+0  19957-3 0  9994
#TLE: 2 43010  98.9925 337.9455 0002045 123.9195 236.2175 14.19693586422016

#Time	Az	El	Level	Level2	SNR	BER	BlckErr	Temp	State	Recorded	gain1	gain2
2026-01-07 11:18:55.87	146.00	2.13	-57.4	-70.4	3.8	8.45e-01	0	23	0	0	81	15713
2026-01-07 11:18:59.90	145.99	2.39	-57.4	-70.4	3.8	8.45e-01	0	23	104	0	80	16689
2026-01-07 11:19:03.93	145.98	2.65	-57.4	-70.4	3.8	8.45e-01	0	23	104	0	80	16572
2026-01-07 11:19:07.97	145.97	2.92	-57.4	-70.3	3.8	8.45e-01	0	23	104	0	80	16420
2026-01-07 11:19:12.00	145.96	3.19	-57.4	-69.9	3.8	8.45e-01	0	23	104	0	80	15641
2026-01-07 11:19:16.04	145.94	3.46	-57.3	-68.4	3.8	8.45e-01	0	23	104	0	80	13134
2026-01-07 11:19:20.07	145.93	3.73	-56.9	-65.1	4.8	7.85e-01	0	24	0	0	80	9000
2026-01-07 11:19:24.11	145.92	4.01	-55.8	-60.9	7.8	8.08e-02	0	24	0	15728640	78	6257
2026-01-07 11:19:28.13	145.90	4.29	-53.4	-56.3	11.4	2.54e-04	0	24	0	37748736	73	4923
2026-01-07 11:19:32.17	145.89	4.57	-52.3	-54.7	12.5	5.70e-06	0	24	0	60817408	71	4594
2026-01-07 11:19:36.20	145.87	4.86	-51.9	-54.1	12.9	0.00e+00	0	24	0	83886080	70	4516
2026-01-07 11:19:40.22	145.86	5.15	-53.3	-56.2	11.4	1.37e-05	0	24	0	105906176	71	5420
2026-01-07 11:19:44.26	145.84	5.44	-54.7	-58.8	9.2	6.19e-03	0	24	0	127926272	75	5847
2026-01-07 11:19:48.30	145.82	5.74	-49.2	-50.9	14.2	0.00e+00	0	24	0	150994944	64	4405
2026-01-07 11:19:52.34	145.80	6.04	-49.0	-50.6	14.4	0.00e+00	0	24	0	174063616	64	4270
2026-01-07 11:19:56.36	145.79	6.34	-48.8	-50.3	14.6	0.00e+00	0	24	0	196083712	64	4106
2026-01-07 11:20:00.39	145.77	6.64	-48.8	-50.3	14.4	0.00e+00	0	24	0	219152384	63	4357
2026-01-07 11:20:04.43	145.75	6.95	-48.7	-50.3	14.4	0.00e+00	0	24	0	242221056	63	4352
2026-01-07 11:20:08.46	145.73	7.27	-48.8	-50.3	14.5	0.00e+00	0	24	0	264241152	63	4367
2026-01-07 11:20:12.49	145.71	7.58	-48.6	-50.1	14.5	0.00e+00	0	24	0	287309824	63	4281
2026-01-07 11:20:16.52	145.68	7.90	-48.6	-50.1	14.6	0.00e+00	0	24	0	309329920	63	4245
2026-01-07 11:20:20.55	145.66	8.23	-48.2	-49.7	14.8	0.00e+00	0	25	0	332398592	63	4059
2026-01-07 11:20:24.59	145.64	8.56	-48.1	-49.5	14.8	0.00e+00	0	25	0	355467264	62	4208
2026-01-07 11:20:28.63	145.61	8.89	-48.0	-49.4	14.8	0.00e+00	0	24	0	377487360	62	4169
2026-01-07 11:20:32.66	145.59	9.23	-48.2	-49.6	14.7	0.00e+00	0	25	0	400556032	62	4287
2026-01-07 11:20:36.70	145.56	9.57	-47.9	-49.3	14.9	0.00e+00	0	25	0	423624704	62	4118
2026-01-07 11:20:40.73	145.54	9.92	-47.9	-49.2	14.9	0.00e+00	0	25	0	445644800	62	4093
2026-01-07 11:20:44.77	145.51	10.27	-47.6	-49.0	14.9	0.00e+00	0	25	0	468713472	61	4212
2026-01-07 11:20:48.80	145.48	10.63	-47.6	-49.0	14.8	0.00e+00	0	25	0	490733568	61	4223
2026-01-07 11:20:52.83	145.45	11.00	-47.6	-49.0	14.9	0.00e+00	0	25	0	513802240	61	4198
2026-01-07 11:20:56.86	145.42	11.36	-47.6	-48.9	14.9	0.00e+00	0	25	0	536870912	61	4184
2026-01-07 11:21:00.89	145.38	11.74	-47.4	-48.8	15.0	0.00e+00	0	25	0	558891008	61	4115
2026-01-07 11:21:04.92	145.35	12.12	-47.5	-48.8	15.0	0.00e+00	0	25	0	581959680	61	4132
2026-01-07 11:21:08.96	145.32	12.50	-47.2	-48.5	15.1	0.00e+00	0	25	0	605028352	61	4004
2026-01-07 11:21:12.99	145.28	12.90	-47.2	-48.6	15.1	0.00e+00	0	25	0	627048448	61	4021
2026-01-07 11:21:17.03	145.24	13.29	-47.1	-48.4	15.0	0.00e+00	0	25	0	650117120	60	4152
2026-01-07 11:21:21.06	145.20	13.70	-47.0	-48.3	15.1	0.00e+00	0	25	0	672137216	60	4128
2026-01-07 11:21:25.09	145.16	14.11	-47.0	-48.3	15.1	0.00e+00	0	25	0	695205888	60	4123
2026-01-07 11:21:29.13	145.12	14.53	-46.9	-48.2	15.1	0.00e+00	0	25	0	718274560	60	4075
2026-01-07 11:21:33.15	145.08	14.96	-46.8	-48.1	15.2	0.00e+00	0	25	0	740294656	60	4039
2026-01-07 11:21:37.17	145.03	15.39	-46.7	-48.0	15.2	0.00e+00	0	25	0	763363328	60	3987
2026-01-07 11:21:41.20	144.99	15.83	-46.8	-48.1	15.0	0.00e+00	0	25	0	786432000	59	4291
2026-01-07 11:21:45.24	144.94	16.28	-46.7	-48.0	15.1	0.00e+00	0	25	0	808452096	59	4206
2026-01-07 11:21:49.27	144.89	16.74	-46.4	-47.7	15.2	0.00e+00	0	25	0	831520768	59	4081
2026-01-07 11:21:53.29	144.83	17.21	-46.4	-47.6	15.3	0.00e+00	0	25	0	853540864	59	4045
2026-01-07 11:21:57.32	144.78	17.68	-46.2	-47.5	15.4	0.00e+00	0	25	0	876609536	59	3966
2026-01-07 11:22:01.35	144.72	18.17	-46.1	-47.4	15.2	0.00e+00	0	25	0	899678208	58	4166
2026-01-07 11:22:05.38	144.66	18.66	-45.9	-47.2	15.3	0.00e+00	0	25	0	921698304	58	4054
2026-01-07 11:22:09.41	144.60	19.17	-46.0	-47.2	15.3	0.00e+00	0	25	0	944766976	58	4085
2026-01-07 11:22:13.44	144.54	19.68	-45.9	-47.2	15.3	0.00e+00	0	25	0	967835648	58	4055
2026-01-07 11:22:17.47	144.47	20.21	-45.9	-47.2	15.3	0.00e+00	0	25	0	989855744	58	4056
2026-01-07 11:22:21.50	144.40	20.75	-46.0	-47.2	15.3	0.00e+00	0	25	0	1012924416	58	4092
2026-01-07 11:22:25.53	144.33	21.30	-45.8	-47.0	15.4	0.00e+00	0	25	0	1034944512	58	4002
2026-01-07 11:22:29.56	144.25	21.86	-45.5	-46.7	15.3	0.00e+00	0	25	0	1058013184	57	4092
2026-01-07 11:22:33.60	144.17	22.43	-45.4	-46.7	15.4	0.00e+00	0	25	0	1081081856	57	4064
2026-01-07 11:22:37.63	144.09	23.02	-45.4	-46.6	15.4	0.00e+00	0	25	0	1103101952	57	4017
2026-01-07 11:22:41.66	144.00	23.62	-45.5	-46.7	15.3	0.00e+00	0	25	0	1126170624	57	4087
2026-01-07 11:22:45.70	143.91	24.24	-45.4	-46.7	15.4	0.00e+00	0	25	0	1149239296	57	4062
2026-01-07 11:22:49.73	143.82	24.87	-45.2	-46.4	15.5	0.00e+00	0	25	0	1171259392	57	3949
2026-01-07 11:22:53.76	143.72	25.51	-45.1	-46.3	15.3	0.00e+00	0	25	0	1194328064	56	4142
2026-01-07 11:22:57.79	143.61	26.17	-45.0	-46.2	15.4	0.00e+00	0	25	0	1216348160	56	4058
2026-01-07 11:23:01.83	143.50	26.85	-44.8	-46.0	15.5	0.00e+00	0	25	0	1239416832	56	3991
2026-01-07 11:23:05.85	143.39	27.55	-44.7	-45.9	15.5	0.00e+00	0	25	0	1262485504	56	3949
2026-01-07 11:23:09.89	143.27	28.26	-44.9	-46.1	15.4	0.00e+00	0	25	0	1284505600	56	4047
2026-01-07 11:23:13.93	143.14	28.99	-44.8	-46.0	15.5	0.00e+00	0	25	0	1307574272	56	3980
2026-01-07 11:23:17.95	143.01	29.74	-44.5	-45.7	15.4	0.00e+00	0	25	0	1330642944	55	4055
2026-01-07 11:23:21.99	142.87	30.51	-44.4	-45.6	15.5	0.00e+00	0	25	0	1352663040	55	4021
2026-01-07 11:23:26.02	142.72	31.31	-44.4	-45.6	15.5	0.00e+00	0	25	0	1375731712	55	4027
2026-01-07 11:23:30.06	142.56	32.12	-44.5	-45.8	15.4	0.00e+00	0	25	0	1397751808	55	4101
2026-01-07 11:23:34.09	142.40	32.96	-44.4	-45.6	15.4	0.00e+00	0	25	0	1420820480	55	4031
2026-01-07 11:23:38.11	142.22	33.81	-44.0	-45.2	15.5	0.00e+00	0	25	0	1443889152	54	4067
2026-01-07 11:23:42.15	142.04	34.70	-43.9	-45.0	15.5	0.00e+00	0	25	0	1465909248	54	4001
2026-01-07 11:23:46.18	141.84	35.61	-43.8	-45.0	15.6	0.00e+00	0	25	0	1488977920	54	3973
2026-01-07 11:23:50.21	141.63	36.54	-44.5	-45.5	15.3	0.00e+00	0	25	0	1512046592	54	4242
2026-01-07 11:23:54.24	141.41	37.51	-44.4	-45.5	15.4	0.00e+00	0	25	0	1534066688	54	4207
2026-01-07 11:23:58.27	141.17	38.50	-44.2	-45.2	15.4	0.00e+00	0	25	0	1557135360	54	4079
2026-01-07 11:24:02.30	140.92	39.52	-44.3	-45.4	15.4	0.00e+00	0	25	0	1579155456	54	4153
2026-01-07 11:24:06.34	140.65	40.57	-44.8	-45.9	15.3	0.00e+00	0	25	0	1602224128	54	4425
2026-01-07 11:24:10.36	140.36	41.65	-44.6	-45.6	15.3	0.00e+00	0	25	0	1625292800	54	4288
2026-01-07 11:24:14.40	140.05	42.76	-44.8	-45.9	15.3	0.00e+00	0	25	0	1647312896	54	4425
2026-01-07 11:24:18.44	139.71	43.91	-44.7	-45.8	15.3	0.00e+00	0	25	0	1670381568	54	4356
2026-01-07 11:24:22.48	139.35	45.09	-45.1	-46.2	15.3	0.00e+00	0	25	0	1693450240	55	4302
2026-01-07 11:24:26.52	138.96	46.31	-44.8	-45.8	15.4	0.00e+00	0	25	0	1715470336	55	4143
2026-01-07 11:24:30.54	138.54	47.55	-44.6	-45.7	15.4	0.00e+00	0	25	0	1738539008	55	4072
2026-01-07 11:24:34.57	138.08	48.84	-44.6	-45.6	15.4	0.00e+00	0	25	0	1761607680	55	4038
2026-01-07 11:24:38.60	137.58	50.16	-45.4	-46.5	15.2	0.00e+00	0	25	0	1783627776	55	4479
2026-01-07 11:24:42.63	137.03	51.51	-46.1	-47.2	15.2	0.00e+00	0	25	0	1806696448	57	4327
2026-01-07 11:24:46.67	136.42	52.91	-46.2	-47.3	15.2	0.00e+00	0	25	0	1828716544	57	4359
2026-01-07 11:24:50.69	135.76	54.33	-46.0	-47.1	15.3	0.00e+00	0	25	0	1851785216	57	4243
2026-01-07 11:24:54.73	135.01	55.80	-45.9	-46.9	15.3	0.00e+00	0	25	0	1874853888	57	4190
2026-01-07 11:24:58.74	134.20	57.29	-45.3	-46.4	15.5	0.00e+00	0	25	0	1896873984	57	3932
2026-01-07 11:25:02.77	133.27	58.83	-45.6	-46.7	15.3	0.00e+00	0	25	0	1919942656	56	4312
2026-01-07 11:25:06.80	132.24	60.39	-45.0	-46.0	15.4	0.00e+00	0	25	0	1943011328	56	3992
2026-01-07 11:25:10.84	131.06	61.99	-44.7	-45.7	15.5	0.00e+00	0	25	0	1965031424	56	3856
2026-01-07 11:25:14.87	129.71	63.61	-44.6	-45.7	15.4	0.00e+00	0	25	0	1988100096	55	4068
2026-01-07 11:25:18.91	128.16	65.26	-44.7	-45.7	15.4	0.00e+00	0	25	0	2010120192	55	4093
2026-01-07 11:25:22.94	126.36	66.92	-43.8	-44.8	15.5	0.00e+00	0	25	0	2033188864	54	3913
2026-01-07 11:25:26.98	124.25	68.59	-43.7	-44.7	15.4	0.00e+00	0	25	0	2056257536	53	4087
2026-01-07 11:25:31.01	121.75	70.25	-43.5	-44.5	15.5	0.00e+00	0	25	0	2078277632	53	3998
2026-01-07 11:25:35.04	118.76	71.90	-43.7	-44.7	15.5	0.00e+00	0	25	0	2101346304	53	4075
2026-01-07 11:25:39.07	115.13	73.52	-43.8	-44.8	15.4	0.00e+00	0	25	0	2124414976	53	4138
2026-01-07 11:25:43.11	110.67	75.09	-43.1	-44.1	15.5	0.00e+00	0	25	0	2146435072	52	4027
2026-01-07 11:25:47.14	105.17	76.56	-42.7	-43.7	15.5	0.00e+00	0	25	0	2169503744	51	4071
2026-01-07 11:25:51.17	98.34	77.89	-42.2	-43.2	15.5	0.00e+00	0	25	0	2192572416	50	4080
2026-01-07 11:25:55.20	89.92	79.03	-41.9	-42.9	15.6	0.00e+00	0	25	0	2214592512	50	3916
2026-01-07 11:25:59.24	79.76	79.89	-41.6	-42.5	15.5	0.00e+00	0	25	0	2237661184	49	4003
2026-01-07 11:26:03.27	68.15	80.38	-42.3	-43.3	15.5	0.00e+00	0	25	0	2260729856	50	4113
2026-01-07 11:26:07.31	55.79	80.45	-41.9	-42.9	15.6	0.00e+00	0	25	0	2282749952	50	3936
2026-01-07 11:26:11.35	43.80	80.10	-42.0	-43.0	15.5	0.00e+00	0	25	0	2305818624	50	3980
2026-01-07 11:26:15.38	33.12	79.35	-42.0	-43.0	15.5	0.00e+00	0	25	0	2327838720	50	3962
2026-01-07 11:26:19.40	24.14	78.31	-41.9	-42.9	15.6	0.00e+00	0	25	0	2350907392	50	3923
2026-01-07 11:26:23.44	16.78	77.03	-42.6	-43.6	15.5	0.00e+00	0	25	0	2373976064	50	4245
2026-01-07 11:26:27.46	10.88	75.60	-42.9	-44.0	15.5	0.00e+00	0	25	0	2395996160	51	4198
2026-01-07 11:26:31.49	6.10	74.07	-43.3	-44.3	15.4	0.00e+00	0	25	0	2419064832	51	4361
2026-01-07 11:26:35.51	2.22	72.47	-43.6	-44.6	15.4	0.00e+00	0	25	0	2441084928	52	4274
2026-01-07 11:26:39.54	359.03	70.83	-43.7	-44.7	15.4	0.00e+00	0	25	0	2464153600	52	4332
2026-01-07 11:26:43.57	356.37	69.17	-44.1	-45.1	15.4	0.00e+00	0	25	0	2487222272	53	4285
2026-01-07 11:26:47.60	354.14	67.51	-44.1	-45.1	15.4	0.00e+00	0	25	0	2509242368	53	4273
2026-01-07 11:26:51.64	352.24	65.85	-44.0	-45.1	15.4	0.00e+00	0	25	0	2532311040	53	4255
2026-01-07 11:26:55.67	350.61	64.20	-44.2	-45.2	15.4	0.00e+00	0	25	0	2555379712	53	4317
2026-01-07 11:26:59.70	349.20	62.57	-44.3	-45.3	15.4	0.00e+00	0	25	0	2577399808	53	4373
2026-01-07 11:27:03.73	347.97	60.97	-44.4	-45.4	15.4	0.00e+00	0	25	0	2600468480	54	4179
2026-01-07 11:27:07.76	346.89	59.40	-44.9	-46.0	15.3	0.00e+00	0	25	0	2622488576	54	4451
2026-01-07 11:27:11.79	345.93	57.86	-45.8	-46.9	15.2	0.00e+00	0	25	0	2645557248	56	4417
2026-01-07 11:27:15.82	345.07	56.35	-45.7	-46.8	15.4	0.00e+00	0	25	0	2668625920	57	4105
2026-01-07 11:27:19.85	344.31	54.87	-45.7	-46.8	15.3	0.00e+00	0	25	0	2690646016	57	4117
2026-01-07 11:27:23.87	343.62	53.44	-46.0	-47.1	15.3	0.00e+00	0	25	0	2713714688	57	4286
2026-01-07 11:27:27.91	342.99	52.03	-45.8	-46.9	15.3	0.00e+00	0	25	0	2735734784	57	4188
2026-01-07 11:27:31.95	342.43	50.66	-45.1	-46.1	15.4	0.00e+00	0	25	0	2758803456	56	4046
2026-01-07 11:27:35.98	341.91	49.33	-44.9	-45.9	15.5	0.00e+00	0	25	0	2781872128	56	3950
2026-01-07 11:27:40.01	341.44	48.04	-44.8	-45.9	15.5	0.00e+00	0	25	0	2803892224	56	3927
2026-01-07 11:27:44.04	341.00	46.78	-44.8	-45.9	15.5	0.00e+00	0	25	0	2826960896	56	3921
2026-01-07 11:27:48.08	340.60	45.56	-44.5	-45.5	15.5	0.00e+00	0	25	0	2850029568	55	3990
2026-01-07 11:27:52.11	340.23	44.37	-44.8	-45.9	15.4	0.00e+00	0	25	0	2872049664	55	4147
2026-01-07 11:27:56.14	339.89	43.22	-44.5	-45.6	15.4	0.00e+00	0	25	0	2895118336	55	4019
2026-01-07 11:28:00.18	339.57	42.09	-44.6	-45.6	15.4	0.00e+00	0	25	0	2918187008	55	4023
2026-01-07 11:28:04.22	339.27	41.00	-44.1	-45.1	15.5	0.00e+00	0	25	0	2940207104	54	4029
2026-01-07 11:28:08.25	339.00	39.94	-43.9	-44.9	15.5	0.00e+00	0	25	0	2963275776	54	3948
2026-01-07 11:28:12.28	338.74	38.92	-43.9	-44.9	15.5	0.00e+00	0	25	0	2986344448	54	3920
2026-01-07 11:28:16.31	338.50	37.92	-43.6	-44.6	15.5	0.00e+00	0	25	0	3008364544	53	4033
2026-01-07 11:28:20.34	338.27	36.95	-43.6	-44.6	15.4	0.00e+00	0	25	0	3031433216	53	4021
2026-01-07 11:28:24.38	338.06	36.00	-44.0	-45.0	15.4	0.00e+00	0	25	0	3054501888	53	4212
2026-01-07 11:28:28.42	337.86	35.08	-44.4	-45.5	15.4	0.00e+00	0	25	0	3076521984	54	4212
2026-01-07 11:28:32.45	337.67	34.19	-44.5	-45.6	15.3	0.00e+00	0	25	0	3099590656	54	4260
2026-01-07 11:28:36.49	337.49	33.33	-44.4	-45.4	15.4	0.00e+00	0	25	0	3121610752	54	4179
2026-01-07 11:28:40.51	337.33	32.49	-44.5	-45.6	15.3	0.00e+00	0	25	0	3144679424	54	4261
2026-01-07 11:28:44.54	337.17	31.67	-44.5	-45.5	15.4	0.00e+00	0	25	0	3167748096	54	4215
2026-01-07 11:28:48.57	337.02	30.87	-44.2	-45.2	15.4	0.00e+00	0	25	0	3189768192	54	4066
2026-01-07 11:28:52.60	336.88	30.09	-44.1	-45.1	15.4	0.00e+00	0	25	0	3212836864	54	4044
2026-01-07 11:28:56.64	336.74	29.33	-44.1	-45.2	15.4	0.00e+00	0	25	0	3234856960	54	4057
2026-01-07 11:29:00.67	336.61	28.60	-44.4	-45.5	15.4	0.00e+00	0	25	0	3257925632	54	4194
2026-01-07 11:29:04.71	336.49	27.88	-44.4	-45.4	15.4	0.00e+00	0	25	0	3280994304	54	4171
2026-01-07 11:29:08.75	336.38	27.18	-44.2	-45.2	15.4	0.00e+00	0	25	0	3303014400	54	4069
2026-01-07 11:29:12.79	336.27	26.49	-44.4	-45.4	15.3	0.00e+00	0	25	0	3326083072	54	4180
2026-01-07 11:29:16.83	336.16	25.83	-44.5	-45.5	15.3	0.00e+00	0	25	0	3349151744	54	4242
2026-01-07 11:29:20.86	336.06	25.18	-44.8	-45.8	15.3	0.00e+00	0	25	0	3371171840	54	4389
2026-01-07 11:29:24.90	335.97	24.54	-45.0	-46.1	15.3	0.00e+00	0	25	0	3394240512	55	4253
2026-01-07 11:29:28.93	335.88	23.92	-44.9	-46.0	15.3	0.00e+00	0	25	0	3417309184	55	4228
2026-01-07 11:29:32.96	335.79	23.32	-44.8	-45.9	15.3	0.00e+00	0	25	0	3439329280	55	4155
2026-01-07 11:29:36.99	335.71	22.73	-44.9	-46.0	15.3	0.00e+00	0	25	0	3462397952	55	4212
2026-01-07 11:29:41.02	335.63	22.15	-45.1	-46.2	15.2	0.00e+00	0	25	0	3484418048	55	4306
2026-01-07 11:29:45.04	335.55	21.59	-45.2	-46.3	15.2	0.00e+00	0	25	0	3507486720	55	4376
2026-01-07 11:29:49.08	335.48	21.03	-45.3	-46.4	15.2	0.00e+00	0	25	0	3530555392	55	4434
2026-01-07 11:29:53.11	335.41	20.49	-45.7	-46.8	15.2	0.00e+00	0	25	0	3552575488	56	4353
2026-01-07 11:29:57.14	335.35	19.96	-45.8	-47.0	15.2	0.00e+00	0	25	0	3575644160	56	4448
2026-01-07 11:30:01.17	335.28	19.45	-45.8	-46.9	15.2	0.00e+00	0	25	0	3597664256	57	4193
2026-01-07 11:30:05.20	335.22	18.94	-45.9	-47.1	15.2	0.00e+00	0	25	0	3620732928	57	4245
2026-01-07 11:30:09.23	335.16	18.44	-46.2	-47.3	15.1	0.00e+00	0	25	0	3643801600	57	4357
2026-01-07 11:30:13.27	335.11	17.95	-46.2	-47.4	15.1	0.00e+00	0	25	0	3666870272	57	4407
2026-01-07 11:30:17.30	335.05	17.47	-46.4	-47.5	15.2	0.00e+00	0	25	0	3688890368	58	4215
2026-01-07 11:30:21.32	335.00	17.01	-46.5	-47.6	15.1	0.00e+00	0	25	0	3711959040	58	4276
2026-01-07 11:30:25.35	334.95	16.54	-46.6	-47.8	15.1	0.00e+00	0	25	0	3733979136	58	4361
2026-01-07 11:30:29.38	334.90	16.09	-46.7	-47.9	15.1	0.00e+00	0	25	0	3757047808	58	4396
2026-01-07 11:30:33.41	334.86	15.65	-46.8	-48.0	15.0	0.00e+00	0	25	0	3779067904	58	4449
2026-01-07 11:30:37.45	334.81	15.21	-46.9	-48.1	15.0	0.00e+00	0	25	0	3802136576	58	4514
2026-01-07 11:30:41.48	334.77	14.78	-46.9	-48.1	15.0	0.00e+00	0	25	0	3825205248	59	4277
2026-01-07 11:30:45.50	334.73	14.37	-47.0	-48.1	15.0	0.00e+00	0	25	0	3847225344	59	4281
2026-01-07 11:30:49.54	334.69	13.95	-47.0	-48.2	15.0	0.00e+00	0	25	0	3870294016	59	4300
2026-01-07 11:30:53.58	334.66	13.54	-47.1	-48.3	15.0	0.00e+00	0	25	0	3893362688	59	4364
2026-01-07 11:30:57.61	334.62	13.14	-47.1	-48.3	15.0	0.00e+00	0	25	0	3915382784	59	4384
2026-01-07 11:31:01.63	334.59	12.75	-47.2	-48.4	14.9	0.00e+00	0	25	0	3938451456	59	4431
2026-01-07 11:31:05.67	334.55	12.36	-47.3	-48.5	14.9	0.00e+00	0	25	0	3961520128	59	4469
2026-01-07 11:31:09.70	334.52	11.98	-47.0	-48.1	15.1	0.00e+00	0	25	0	3983540224	60	4050
2026-01-07 11:31:13.74	334.49	11.61	-47.0	-48.1	15.1	0.00e+00	0	25	0	4006608896	60	4041
2026-01-07 11:31:17.77	334.46	11.24	-47.2	-48.4	15.0	0.00e+00	0	25	0	4029677568	60	4149
2026-01-07 11:31:21.80	334.43	10.87	-47.2	-48.4	15.0	0.00e+00	0	25	0	4051697664	60	4153
2026-01-07 11:31:25.84	334.41	10.51	-47.3	-48.5	14.9	0.00e+00	0	25	0	4074766336	60	4223
2026-01-07 11:31:29.86	334.38	10.16	-47.4	-48.7	14.9	0.00e+00	0	25	0	4096786432	60	4300
2026-01-07 11:31:33.89	334.36	9.81	-47.6	-48.8	14.8	0.00e+00	0	25	0	4119855104	60	4377
2026-01-07 11:31:37.92	334.33	9.47	-47.6	-48.9	14.8	0.00e+00	0	25	0	4142923776	60	4395
2026-01-07 11:31:41.95	334.31	9.13	-47.7	-49.0	14.7	0.00e+00	0	25	0	4164943872	60	4467
2026-01-07 11:31:45.98	334.29	8.79	-47.7	-49.0	14.7	0.00e+00	0	25	0	4188012544	60	4460
2026-01-07 11:31:50.01	334.26	8.46	-48.1	-49.4	14.7	0.00e+00	0	25	0	4210032640	61	4409
2026-01-07 11:31:54.04	334.24	8.14	-47.9	-49.2	14.7	0.00e+00	0	25	0	4233101312	61	4329
2026-01-07 11:31:58.08	334.22	7.81	-48.0	-49.3	14.7	0.00e+00	0	25	0	4256169984	61	4378
2026-01-07 11:32:02.11	334.21	7.50	-48.3	-49.6	14.5	0.00e+00	0	25	0	4278190080	61	4537
2026-01-07 11:32:06.13	334.19	7.18	-48.4	-49.8	14.6	0.00e+00	0	25	0	4301258752	62	4347
2026-01-07 11:32:10.17	334.17	6.87	-48.6	-50.0	14.5	0.00e+00	0	25	0	4323278848	62	4471
2026-01-07 11:32:14.20	334.15	6.57	-48.6	-50.0	14.5	0.00e+00	0	25	0	4346347520	62	4460
2026-01-07 11:32:18.23	334.14	6.26	-48.9	-50.3	14.4	0.00e+00	0	25	0	4369416192	63	4365
2026-01-07 11:32:22.26	334.12	5.96	-48.9	-50.3	14.4	0.00e+00	0	25	0	4391436288	63	4379
2026-01-07 11:32:26.28	334.11	5.67	-49.0	-50.4	14.3	0.00e+00	0	25	0	4414504960	63	4426
2026-01-07 11:32:30.31	334.10	5.38	-48.8	-50.2	14.4	0.00e+00	0	25	0	4437573632	63	4338
2026-01-07 11:32:34.34	334.08	5.09	-48.7	-50.2	14.3	0.00e+00	0	25	0	4459593728	63	4312
2026-01-07 11:32:38.38	334.07	4.80	-59.0	-72.1	3.8	8.46e-01	0	25	104	4469030912	83	16903
2026-01-07 11:32:42.42	334.06	4.52	-59.8	-72.9	3.8	8.45e-01	0	25	104	4469030912	84	17543
2026-01-07 11:32:46.44	334.05	4.24	-60.1	-73.2	3.8	8.45e-01	0	25	104	4469030912	85	17163
2026-01-07 11:32:50.47	334.04	3.96	-60.2	-73.3	3.8	8.46e-01	0	25	104	4469030912	85	17391
2026-01-07 11:32:54.51	334.02	3.68	-60.3	-73.4	3.8	8.45e-01	0	25	104	4469030912	85	17588
2026-01-07 11:32:58.54	334.02	3.41	-60.3	-73.3	3.8	8.46e-01	0	25	104	4469030912	85	17456
2026-01-07 11:33:02.57	334.01	3.14	-60.2	-73.3	3.8	8.45e-01	0	25	104	4469030912	85	17395
2026-01-07 11:33:06.60	334.00	2.88	-60.2	-73.3	3.8	8.46e-01	0	25	104	4469030912	85	17324
2026-01-07 11:33:10.64	333.99	2.61	-60.1	-73.2	3.8	8.46e-01	0	25	104	4469030912	85	17224
2026-01-07 11:33:14.68	333.98	2.35	-60.1	-73.2	3.8	8.46e-01	0	25	104	4469030912	85	17200
2026-01-07 11:33:18.71	333.97	2.09	-60.1	-73.2	3.8	8.45e-01	0	25	104	4469030912	85	17163

#Closed at: 2026-01-07 11:33:22
#Recorded file [4469 MB]: D:/lorett/data/31004_260107_141855.dat