passes_logs/2026/01/07/R3.2S_Murmansk/R3.2S_Murmansk__20260107_022208_NOAA_20_JPSS-1_rec.log

#Pass ID: 20260107_022208_NOAA 20 (JPSS-1)
#Satellite: NOAA 20 (JPSS-1)
#Configuration: NOAA 20
#almurnet v.1.7.20251203
#Start time: 2026-01-07 02:22:08

#Version: 2.2.20231116
#Station: R3.2S_Murmansk
#Location: 33.079688 lon 68.888172 lat
#TLE: 1 43013U 17073A   26006.30790171  .00000126  00000+0  80695-4 0  9991
#TLE: 2 43013  98.7629 307.3394 0001808  51.8724 308.2615 14.19533762421505

#Time	Az	El	Level	Level2	SNR	BER	BlckErr	Temp	State	Recorded	gain1	gain2
2026-01-07 02:22:08.83	33.05	1.99	-58.0	-74.0	3.8	1.49e+00	0	27	0	0	82	22344
2026-01-07 02:22:12.79	32.91	2.24	-57.9	-73.9	3.8	1.49e+00	0	27	104	0	81	23575
2026-01-07 02:22:16.75	32.76	2.48	-57.9	-73.8	3.8	1.49e+00	0	27	104	0	81	23248
2026-01-07 02:22:20.74	32.61	2.74	-57.9	-73.8	3.8	1.49e+00	0	27	104	0	81	23151
2026-01-07 02:22:24.71	32.46	2.99	-57.9	-73.8	3.8	1.49e+00	0	27	104	0	81	23224
2026-01-07 02:22:28.69	32.31	3.24	-57.9	-74.0	3.8	1.49e+00	0	27	104	0	81	23594
2026-01-07 02:22:32.66	32.15	3.50	-57.9	-73.9	3.8	1.49e+00	0	27	104	0	81	23560
2026-01-07 02:22:36.63	31.99	3.76	-57.9	-73.6	3.8	1.49e+00	0	27	104	0	81	22595
2026-01-07 02:22:40.58	31.83	4.01	-57.9	-72.8	3.8	1.49e+00	0	27	104	0	81	20614
2026-01-07 02:22:44.53	31.67	4.28	-57.8	-72.0	3.8	1.49e+00	0	27	104	0	81	18898
2026-01-07 02:22:48.49	31.50	4.54	-57.7	-69.6	4.4	1.36e+00	74	27	0	0	81	14293
2026-01-07 02:22:52.45	31.33	4.81	-57.4	-66.7	5.9	4.21e-01	0	27	0	7340032	81	10203
2026-01-07 02:22:56.42	31.15	5.08	-57.5	-66.5	6.1	1.49e-01	0	27	0	14680064	81	9975
2026-01-07 02:23:00.38	30.97	5.35	-56.5	-61.5	10.1	2.80e-01	0	27	0	22020096	79	6330
2026-01-07 02:23:04.33	30.79	5.62	-55.1	-58.6	12.3	7.00e-07	0	27	0	29360128	76	5366
2026-01-07 02:23:08.27	30.60	5.89	-54.8	-58.0	12.6	0.00e+00	0	27	0	36700160	75	5314
2026-01-07 02:23:12.24	30.41	6.17	-54.1	-56.8	13.3	0.00e+00	0	27	0	44040192	74	4898
2026-01-07 02:23:16.17	30.22	6.45	-54.1	-56.8	13.3	0.00e+00	0	27	0	51380224	74	4909
2026-01-07 02:23:20.12	30.02	6.74	-54.1	-56.8	13.4	0.00e+00	0	27	0	58720256	74	4903
2026-01-07 02:23:24.07	29.82	7.02	-54.1	-56.8	13.4	0.00e+00	0	27	0	66060288	74	4892
2026-01-07 02:23:28.01	29.61	7.31	-53.9	-56.5	13.6	0.00e+00	0	27	0	73400320	74	4710
2026-01-07 02:23:31.95	29.40	7.60	-53.9	-56.4	13.6	0.00e+00	0	27	0	80740352	74	4697
2026-01-07 02:23:35.91	29.18	7.90	-53.8	-56.3	13.7	0.00e+00	0	27	0	88080384	74	4637
2026-01-07 02:23:39.87	28.96	8.20	-53.7	-56.1	13.8	0.00e+00	0	27	0	95420416	74	4542
2026-01-07 02:23:43.81	28.74	8.50	-53.5	-55.9	13.9	0.00e+00	0	27	0	102760448	73	4662
2026-01-07 02:23:47.75	28.51	8.80	-53.5	-55.7	13.9	0.00e+00	0	27	0	110100480	73	4589
2026-01-07 02:23:51.72	28.27	9.11	-53.4	-55.7	14.0	0.00e+00	0	27	0	117440512	73	4552
2026-01-07 02:23:55.68	28.03	9.42	-53.2	-55.4	14.1	0.00e+00	0	27	0	125829120	73	4427
2026-01-07 02:23:59.66	27.78	9.74	-53.4	-55.6	14.0	0.00e+00	0	27	0	133169152	73	4508
2026-01-07 02:24:03.64	27.53	10.06	-53.3	-55.5	14.0	0.00e+00	0	27	0	140509184	73	4487
2026-01-07 02:24:07.64	27.26	10.39	-53.3	-55.5	14.1	0.00e+00	0	27	0	147849216	73	4462
2026-01-07 02:24:11.64	27.00	10.72	-53.3	-55.5	14.1	0.00e+00	0	27	0	155189248	73	4450
2026-01-07 02:24:15.63	26.72	11.05	-53.2	-55.3	14.1	0.00e+00	0	27	0	162529280	72	4631
2026-01-07 02:24:19.63	26.44	11.39	-53.2	-55.3	14.1	0.00e+00	0	27	0	169869312	72	4620
2026-01-07 02:24:23.64	26.15	11.73	-53.2	-55.3	14.1	0.00e+00	0	27	0	177209344	72	4620
2026-01-07 02:24:27.63	25.86	12.07	-53.0	-55.0	14.3	0.00e+00	0	27	0	185597952	72	4463
2026-01-07 02:24:31.63	25.56	12.42	-53.1	-55.1	14.2	0.00e+00	0	27	0	192937984	72	4528
2026-01-07 02:24:35.62	25.25	12.77	-52.9	-54.8	14.3	0.00e+00	0	27	0	200278016	72	4384
2026-01-07 02:24:39.61	24.93	13.13	-52.9	-54.8	14.3	0.00e+00	0	27	0	207618048	72	4383
2026-01-07 02:24:43.60	24.60	13.49	-52.8	-54.8	14.4	0.00e+00	0	27	0	214958080	72	4374
2026-01-07 02:24:47.62	24.27	13.86	-52.8	-54.7	14.4	0.00e+00	0	27	0	222298112	72	4336
2026-01-07 02:24:51.61	23.92	14.23	-52.8	-54.8	14.4	0.00e+00	0	27	0	229638144	72	4373
2026-01-07 02:24:55.61	23.57	14.61	-52.8	-54.8	14.4	0.00e+00	0	27	0	238026752	72	4366
2026-01-07 02:24:59.61	23.21	14.99	-52.8	-54.8	14.4	0.00e+00	0	27	0	245366784	72	4367
2026-01-07 02:25:03.62	22.84	15.37	-52.8	-54.8	14.4	0.00e+00	0	27	0	252706816	72	4363
2026-01-07 02:25:07.61	22.46	15.76	-53.0	-55.0	14.3	0.00e+00	0	27	0	260046848	72	4448
2026-01-07 02:25:11.63	22.06	16.16	-53.0	-55.0	14.3	0.00e+00	0	27	0	267386880	72	4465
2026-01-07 02:25:15.65	21.65	16.56	-53.1	-55.0	14.3	0.00e+00	0	27	0	274726912	72	4487
2026-01-07 02:25:19.64	21.24	16.97	-53.0	-55.0	14.3	0.00e+00	0	27	0	283115520	72	4442
2026-01-07 02:25:23.66	20.81	17.38	-52.9	-54.8	14.4	0.00e+00	0	27	0	290455552	72	4384
2026-01-07 02:25:27.64	20.37	17.79	-52.9	-54.8	14.4	0.00e+00	0	27	0	297795584	72	4349
2026-01-07 02:25:31.65	19.92	18.21	-52.9	-54.8	14.4	0.00e+00	0	27	0	305135616	72	4357
2026-01-07 02:25:35.65	19.46	18.64	-53.0	-55.0	14.3	0.00e+00	0	27	0	312475648	72	4455
2026-01-07 02:25:39.64	18.98	19.07	-52.6	-54.5	14.4	0.00e+00	0	27	0	319815680	71	4463
2026-01-07 02:25:43.63	18.49	19.51	-52.7	-54.6	14.4	0.00e+00	0	27	0	328204288	71	4509
2026-01-07 02:25:47.62	17.98	19.95	-52.9	-54.8	14.3	0.00e+00	0	27	0	335544320	71	4640
2026-01-07 02:25:51.61	17.46	20.39	-53.0	-55.0	14.3	0.00e+00	0	27	0	342884352	71	4717
2026-01-07 02:25:55.61	16.92	20.85	-53.1	-55.0	14.2	0.00e+00	0	27	0	350224384	71	4747
2026-01-07 02:25:59.60	16.37	21.30	-53.1	-55.1	14.2	0.00e+00	0	27	0	357564416	71	4804
2026-01-07 02:26:03.59	15.80	21.77	-53.1	-55.0	14.2	0.00e+00	0	27	0	364904448	71	4756
2026-01-07 02:26:07.58	15.21	22.24	-53.0	-55.0	14.3	0.00e+00	0	27	0	372244480	71	4727
2026-01-07 02:26:11.58	14.60	22.71	-53.1	-55.1	14.2	0.00e+00	0	27	0	379584512	71	4773
2026-01-07 02:26:15.57	13.97	23.19	-53.2	-55.2	14.1	0.00e+00	0	27	0	387973120	71	4865
2026-01-07 02:26:19.56	13.32	23.67	-53.3	-55.4	14.1	0.00e+00	0	27	0	395313152	71	4949
2026-01-07 02:26:23.56	12.65	24.16	-53.4	-55.4	14.1	0.00e+00	0	27	0	402653184	71	4954
2026-01-07 02:26:27.58	11.96	24.66	-53.4	-55.4	14.2	0.00e+00	0	27	0	409993216	72	4663
2026-01-07 02:26:31.59	11.24	25.16	-53.1	-55.1	14.3	0.00e+00	0	27	0	417333248	72	4512
2026-01-07 02:26:35.59	10.51	25.66	-53.1	-55.1	14.3	0.00e+00	0	27	0	424673280	72	4513
2026-01-07 02:26:39.58	9.75	26.17	-53.5	-55.5	14.1	0.00e+00	0	27	0	433061888	72	4742
2026-01-07 02:26:43.57	8.96	26.68	-53.7	-55.8	14.0	0.00e+00	0	28	0	440401920	72	4922
2026-01-07 02:26:47.55	8.15	27.19	-54.0	-56.3	13.9	0.00e+00	0	27	0	447741952	73	4875
2026-01-07 02:26:51.54	7.32	27.71	-54.7	-57.1	13.6	0.00e+00	0	27	0	455081984	74	5091
2026-01-07 02:26:55.53	6.45	28.23	-55.3	-58.1	13.2	0.00e+00	0	27	0	462422016	75	5343
2026-01-07 02:26:59.52	5.56	28.75	-55.8	-58.8	12.8	0.00e+00	0	27	0	469762048	76	5528
2026-01-07 02:27:03.53	4.63	29.28	-55.8	-58.8	12.8	0.00e+00	0	27	0	477102080	76	5525
2026-01-07 02:27:07.54	3.66	29.81	-55.6	-58.4	13.1	0.00e+00	0	27	0	485490688	76	5275
2026-01-07 02:27:11.53	2.68	30.33	-55.8	-58.7	12.9	0.00e+00	0	27	0	492830720	76	5464
2026-01-07 02:27:15.52	1.65	30.86	-55.5	-58.3	13.1	0.00e+00	0	27	0	500170752	76	5208
2026-01-07 02:27:19.53	0.59	31.38	-56.1	-59.3	12.6	0.00e+00	0	27	0	507510784	77	5520
2026-01-07 02:27:23.54	359.50	31.91	-56.1	-59.4	12.6	0.00e+00	0	27	0	514850816	77	5566
2026-01-07 02:27:27.56	358.36	32.43	-55.3	-58.0	13.5	0.00e+00	0	27	0	522190848	77	4742
2026-01-07 02:27:31.55	357.20	32.94	-54.8	-57.3	13.8	0.00e+00	0	27	0	529530880	76	4599
2026-01-07 02:27:35.55	355.99	33.45	-54.7	-57.1	13.9	0.00e+00	0	27	0	537919488	76	4525
2026-01-07 02:27:39.55	354.75	33.95	-55.1	-57.7	13.5	0.00e+00	0	27	0	545259520	76	4858
2026-01-07 02:27:43.53	353.48	34.45	-55.1	-57.6	13.6	0.00e+00	0	27	0	552599552	76	4788
2026-01-07 02:27:47.53	352.15	34.93	-55.5	-58.3	13.2	0.00e+00	0	27	0	559939584	76	5164
2026-01-07 02:27:51.51	350.80	35.41	-55.5	-58.3	13.2	0.00e+00	0	27	0	567279616	76	5177
2026-01-07 02:27:55.50	349.40	35.87	-56.2	-59.4	12.6	7.00e-07	0	27	0	574619648	77	5580
2026-01-07 02:27:59.50	347.96	36.32	-55.8	-58.6	13.1	0.00e+00	0	27	0	581959680	77	5097
2026-01-07 02:28:03.49	346.48	36.75	-55.3	-57.9	13.6	0.00e+00	0	27	0	590348288	77	4680
2026-01-07 02:28:07.50	344.96	37.17	-55.0	-57.4	13.7	0.00e+00	0	27	0	597688320	76	4702
2026-01-07 02:28:11.51	343.39	37.57	-54.9	-57.3	13.8	0.00e+00	0	27	0	605028352	76	4627
2026-01-07 02:28:15.50	341.80	37.95	-54.0	-56.1	14.2	0.00e+00	0	27	0	612368384	74	4499
2026-01-07 02:28:19.49	340.17	38.31	-53.7	-55.7	14.4	0.00e+00	0	27	0	619708416	74	4318
2026-01-07 02:28:23.50	338.49	38.64	-53.6	-55.6	14.3	0.00e+00	0	27	0	627048448	73	4502
2026-01-07 02:28:27.50	336.79	38.95	-53.1	-55.0	14.5	0.00e+00	0	27	0	635437056	72	4448
2026-01-07 02:28:31.50	335.06	39.23	-52.8	-54.6	14.7	0.00e+00	0	27	0	642777088	72	4273
2026-01-07 02:28:35.51	333.29	39.49	-52.6	-54.3	14.6	0.00e+00	0	27	0	650117120	71	4367
2026-01-07 02:28:39.50	331.50	39.71	-52.4	-54.1	14.7	0.00e+00	0	27	0	657457152	71	4267
2026-01-07 02:28:43.49	329.69	39.90	-52.5	-54.2	14.7	0.00e+00	0	27	0	664797184	71	4301
2026-01-07 02:28:47.48	327.86	40.06	-52.5	-54.2	14.7	0.00e+00	0	27	0	672137216	71	4307
2026-01-07 02:28:51.49	326.01	40.19	-52.2	-53.8	14.8	0.00e+00	0	27	0	679477248	70	4350
2026-01-07 02:28:55.49	324.15	40.28	-52.4	-54.1	14.6	0.00e+00	0	27	0	687865856	70	4504
2026-01-07 02:28:59.49	322.27	40.34	-52.5	-54.2	14.6	0.00e+00	0	27	0	695205888	70	4553
2026-01-07 02:29:03.51	320.39	40.36	-53.2	-55.1	14.3	0.00e+00	0	27	0	702545920	71	4784
2026-01-07 02:29:07.51	318.51	40.35	-53.8	-55.8	14.1	0.00e+00	0	27	0	709885952	72	4894
2026-01-07 02:29:11.51	316.64	40.30	-54.0	-56.0	14.1	0.00e+00	0	27	0	717225984	73	4750
2026-01-07 02:29:15.51	314.77	40.22	-55.1	-57.6	13.6	0.00e+00	0	27	0	724566016	75	5077
2026-01-07 02:29:19.50	312.92	40.11	-55.0	-57.5	13.6	0.00e+00	0	27	0	732954624	75	4991
2026-01-07 02:29:23.52	311.07	39.96	-55.7	-58.5	13.2	0.00e+00	0	27	0	740294656	76	5312
2026-01-07 02:29:27.52	309.25	39.78	-56.3	-59.4	12.7	0.00e+00	0	27	0	747634688	77	5589
2026-01-07 02:29:31.52	307.45	39.56	-55.9	-58.6	13.3	0.00e+00	0	27	0	754974720	78	4808
2026-01-07 02:29:35.51	305.68	39.32	-55.5	-58.2	13.5	0.00e+00	0	27	0	762314752	77	4816
2026-01-07 02:29:39.49	303.94	39.05	-54.8	-57.1	14.0	0.00e+00	0	27	0	769654784	76	4517
2026-01-07 02:29:43.48	302.23	38.75	-53.2	-55.0	14.6	0.00e+00	0	27	0	776994816	73	4234
2026-01-07 02:29:47.47	300.55	38.43	-53.1	-54.9	14.5	0.00e+00	0	27	0	784334848	72	4426
2026-01-07 02:29:51.46	298.90	38.08	-52.0	-53.6	14.8	0.00e+00	0	27	0	792723456	70	4254
2026-01-07 02:29:55.45	297.29	37.71	-52.2	-53.8	14.7	0.00e+00	0	27	0	800063488	70	4371
2026-01-07 02:29:59.45	295.72	37.32	-52.4	-54.1	14.6	0.00e+00	0	27	0	807403520	70	4507
2026-01-07 02:30:03.44	294.19	36.91	-52.1	-53.7	14.8	0.00e+00	0	27	0	814743552	70	4309
2026-01-07 02:30:07.44	292.69	36.48	-52.8	-54.6	14.4	0.00e+00	0	27	0	822083584	70	4792
2026-01-07 02:30:11.43	291.23	36.03	-52.7	-54.4	14.6	0.00e+00	0	27	0	829423616	71	4421
2026-01-07 02:30:15.44	289.81	35.57	-53.3	-55.2	14.3	0.00e+00	0	27	0	837812224	71	4835
2026-01-07 02:30:19.44	288.43	35.10	-53.0	-54.8	14.5	0.00e+00	0	27	0	845152256	71	4606
2026-01-07 02:30:23.44	287.10	34.61	-53.1	-55.0	14.3	0.00e+00	0	27	0	852492288	71	4720
2026-01-07 02:30:27.44	285.80	34.12	-53.3	-55.2	14.3	0.00e+00	0	27	0	859832320	71	4816
2026-01-07 02:30:31.44	284.54	33.62	-53.8	-55.9	14.0	0.00e+00	0	27	0	867172352	72	4967
2026-01-07 02:30:35.43	283.32	33.11	-54.2	-56.4	13.9	0.00e+00	0	27	0	874512384	73	4961
2026-01-07 02:30:39.42	282.14	32.60	-54.6	-57.0	13.7	0.00e+00	0	27	0	881852416	74	5022
2026-01-07 02:30:43.40	281.00	32.08	-55.1	-57.6	13.5	0.00e+00	0	27	0	890241024	75	5099
2026-01-07 02:30:47.39	279.90	31.56	-54.9	-57.4	13.6	0.00e+00	0	27	0	897581056	75	4966
2026-01-07 02:30:51.39	278.83	31.04	-54.9	-57.5	13.5	0.00e+00	0	27	0	904921088	75	4993
2026-01-07 02:30:55.36	277.79	30.51	-54.4	-56.7	13.9	0.00e+00	0	27	0	912261120	75	4573
2026-01-07 02:30:59.36	276.79	29.99	-54.4	-56.7	14.0	0.00e+00	0	27	0	919601152	75	4564
2026-01-07 02:31:03.34	275.82	29.46	-54.2	-56.4	14.0	0.00e+00	0	27	0	926941184	74	4687
2026-01-07 02:31:07.33	274.88	28.94	-53.6	-55.7	14.2	0.00e+00	0	27	0	934281216	73	4551
2026-01-07 02:31:11.33	273.97	28.41	-53.7	-55.8	14.2	0.00e+00	0	27	0	941621248	73	4623
2026-01-07 02:31:15.33	273.09	27.89	-53.5	-55.5	14.3	0.00e+00	0	27	0	950009856	73	4492
2026-01-07 02:31:19.35	272.23	27.36	-53.4	-55.4	14.3	0.00e+00	0	27	0	957349888	73	4427
2026-01-07 02:31:23.35	271.41	26.85	-53.5	-55.5	14.3	0.00e+00	0	27	0	964689920	73	4443
2026-01-07 02:31:27.34	270.61	26.33	-53.1	-55.0	14.4	0.00e+00	0	27	0	972029952	72	4453
2026-01-07 02:31:31.34	269.84	25.82	-53.0	-54.9	14.5	0.00e+00	0	27	0	979369984	72	4413
2026-01-07 02:31:35.33	269.10	25.32	-52.9	-54.8	14.5	0.00e+00	0	27	0	986710016	72	4360
2026-01-07 02:31:39.33	268.37	24.82	-53.1	-55.0	14.4	0.00e+00	0	27	0	994050048	72	4450
2026-01-07 02:31:43.32	267.67	24.32	-53.5	-55.6	14.1	0.00e+00	0	27	0	1002438656	72	4764
2026-01-07 02:31:47.32	266.99	23.83	-53.2	-55.1	14.4	0.00e+00	0	27	0	1009778688	72	4505
2026-01-07 02:31:51.30	266.34	23.34	-53.4	-55.4	14.2	0.00e+00	0	27	0	1017118720	72	4666
2026-01-07 02:31:55.30	265.70	22.86	-53.9	-56.1	14.0	0.00e+00	0	27	0	1024458752	73	4765
2026-01-07 02:31:59.28	265.09	22.38	-53.9	-56.0	14.0	0.00e+00	0	27	0	1031798784	73	4725
2026-01-07 02:32:03.28	264.49	21.91	-53.9	-56.1	14.0	0.00e+00	0	27	0	1039138816	73	4795
2026-01-07 02:32:07.27	263.91	21.44	-54.1	-56.3	13.9	0.00e+00	0	27	0	1046478848	73	4909
2026-01-07 02:32:11.29	263.34	20.98	-53.7	-55.8	14.1	0.00e+00	0	27	0	1054867456	73	4650
2026-01-07 02:32:15.28	262.80	20.53	-53.9	-56.1	14.0	0.00e+00	0	27	0	1062207488	73	4768
2026-01-07 02:32:19.28	262.26	20.08	-54.1	-56.3	13.9	0.00e+00	0	27	0	1069547520	73	4908
2026-01-07 02:32:23.28	261.75	19.63	-53.8	-55.9	14.1	0.00e+00	0	27	0	1076887552	73	4690
2026-01-07 02:32:27.27	261.25	19.19	-53.7	-55.8	14.1	0.00e+00	0	27	0	1084227584	73	4606
2026-01-07 02:32:31.26	260.77	18.76	-53.7	-55.8	14.1	0.00e+00	0	27	0	1091567616	73	4651
2026-01-07 02:32:35.27	260.29	18.33	-53.6	-55.7	14.2	0.00e+00	0	27	0	1099956224	73	4553
2026-01-07 02:32:39.28	259.83	17.90	-53.7	-55.8	14.1	0.00e+00	0	27	0	1107296256	73	4619
2026-01-07 02:32:43.27	259.39	17.49	-53.7	-55.9	14.0	0.00e+00	0	27	0	1114636288	73	4678
2026-01-07 02:32:47.27	258.96	17.07	-53.8	-55.9	14.0	0.00e+00	0	27	0	1121976320	73	4695
2026-01-07 02:32:51.25	258.54	16.67	-53.6	-55.7	14.1	0.00e+00	0	27	0	1129316352	73	4598
2026-01-07 02:32:55.24	258.13	16.27	-53.4	-55.5	14.2	0.00e+00	0	27	0	1136656384	73	4454
2026-01-07 02:32:59.23	257.73	15.87	-53.3	-55.3	14.3	0.00e+00	0	27	0	1143996416	73	4381
2026-01-07 02:33:03.23	257.34	15.48	-53.2	-55.2	14.4	0.00e+00	0	27	0	1152385024	73	4340
2026-01-07 02:33:07.22	256.97	15.09	-53.5	-55.6	14.1	0.00e+00	0	27	0	1159725056	73	4537
2026-01-07 02:33:11.22	256.60	14.71	-53.8	-56.0	14.0	0.00e+00	0	27	0	1167065088	73	4729
2026-01-07 02:33:15.22	256.24	14.33	-53.9	-56.1	13.9	0.00e+00	0	27	0	1174405120	73	4800
2026-01-07 02:33:19.21	255.89	13.96	-53.8	-56.0	13.9	0.00e+00	0	27	0	1181745152	73	4749
2026-01-07 02:33:23.21	255.55	13.59	-53.8	-56.1	13.9	0.00e+00	0	27	0	1189085184	73	4784
2026-01-07 02:33:27.21	255.22	13.22	-53.9	-56.2	13.8	0.00e+00	0	27	0	1196425216	73	4868
2026-01-07 02:33:31.21	254.90	12.86	-54.2	-56.6	13.6	0.00e+00	0	27	0	1204813824	73	5067
2026-01-07 02:33:35.22	254.58	12.51	-54.3	-56.8	13.5	0.00e+00	0	27	0	1212153856	73	5211
2026-01-07 02:33:39.21	254.28	12.16	-54.5	-57.0	13.5	0.00e+00	0	27	0	1219493888	74	5015
2026-01-07 02:33:43.21	253.98	11.81	-54.4	-56.9	13.5	0.00e+00	0	27	0	1226833920	74	4970
2026-01-07 02:33:47.19	253.68	11.47	-54.5	-57.2	13.4	0.00e+00	0	27	0	1234173952	74	5110
2026-01-07 02:33:51.19	253.40	11.13	-54.6	-57.2	13.3	0.00e+00	0	27	0	1241513984	74	5148
2026-01-07 02:33:55.18	253.12	10.79	-54.7	-57.4	13.2	0.00e+00	0	27	0	1249902592	74	5266
2026-01-07 02:33:59.18	252.85	10.46	-54.7	-57.4	13.2	0.00e+00	0	27	0	1257242624	74	5258
2026-01-07 02:34:03.17	252.58	10.14	-54.8	-57.7	13.1	0.00e+00	0	27	0	1264582656	74	5423
2026-01-07 02:34:07.17	252.32	9.81	-54.7	-57.6	13.1	0.00e+00	0	27	0	1271922688	74	5345
2026-01-07 02:34:11.17	252.07	9.49	-54.8	-57.7	13.0	0.00e+00	0	27	0	1279262720	74	5433
2026-01-07 02:34:15.16	251.82	9.18	-54.9	-57.8	13.0	0.00e+00	0	27	0	1286602752	74	5484
2026-01-07 02:34:19.15	251.58	8.86	-54.8	-57.6	13.0	0.00e+00	0	27	0	1293942784	74	5393
2026-01-07 02:34:23.15	251.34	8.55	-54.8	-57.7	13.1	0.00e+00	0	27	0	1301282816	75	5129
2026-01-07 02:34:27.14	251.11	8.25	-55.0	-58.0	12.9	0.00e+00	0	27	0	1309671424	75	5297
2026-01-07 02:34:31.13	250.88	7.94	-55.2	-58.3	12.7	0.00e+00	0	27	0	1317011456	75	5509
2026-01-07 02:34:35.14	250.66	7.64	-55.2	-58.5	12.6	0.00e+00	0	27	0	1324351488	75	5624
2026-01-07 02:34:39.14	250.44	7.35	-55.3	-58.6	12.5	0.00e+00	0	27	0	1331691520	75	5664
2026-01-07 02:34:43.14	250.23	7.05	-55.2	-58.5	12.5	0.00e+00	0	27	0	1339031552	75	5613
2026-01-07 02:34:47.13	250.02	6.76	-55.2	-58.5	12.5	0.00e+00	0	27	0	1346371584	75	5610
2026-01-07 02:34:51.12	249.82	6.47	-55.1	-58.4	12.5	0.00e+00	0	27	0	1353711616	75	5592
2026-01-07 02:34:55.10	249.62	6.19	-55.1	-58.5	12.4	0.00e+00	0	27	0	1362100224	75	5601
2026-01-07 02:34:59.10	249.43	5.91	-55.3	-58.9	12.1	0.00e+00	0	27	0	1369440256	75	5898
2026-01-07 02:35:03.10	249.24	5.63	-55.3	-58.9	12.1	7.00e-07	0	27	0	1376780288	75	5906
2026-01-07 02:35:07.10	249.05	5.35	-55.3	-58.8	12.2	0.00e+00	0	28	0	1384120320	76	5521
2026-01-07 02:35:11.10	248.86	5.07	-55.3	-58.8	12.2	0.00e+00	0	27	0	1391460352	76	5498
2026-01-07 02:35:15.11	248.68	4.80	-59.4	-75.5	3.8	1.49e+00	0	28	104	1394606080	83	25118
2026-01-07 02:35:19.10	248.51	4.53	-60.0	-76.4	3.8	1.49e+00	0	27	104	1394606080	85	24729
2026-01-07 02:35:23.12	248.33	4.26	-60.3	-76.4	3.8	1.49e+00	0	27	104	1394606080	85	24948
2026-01-07 02:35:27.11	248.16	4.00	-60.5	-76.6	3.8	1.49e+00	0	27	104	1394606080	86	24004
2026-01-07 02:35:31.10	248.00	3.74	-60.5	-76.6	3.8	1.49e+00	0	28	104	1394606080	86	23940
2026-01-07 02:35:35.10	247.83	3.47	-60.5	-76.6	3.8	1.49e+00	0	27	104	1394606080	86	23947
2026-01-07 02:35:39.10	247.67	3.22	-60.4	-76.5	3.8	1.49e+00	0	28	104	1394606080	86	23804
2026-01-07 02:35:43.11	247.51	2.96	-60.4	-76.5	3.8	1.49e+00	0	27	104	1394606080	86	23824
2026-01-07 02:35:47.11	247.36	2.71	-60.4	-76.5	3.8	1.49e+00	0	27	104	1394606080	86	23696
2026-01-07 02:35:51.11	247.21	2.45	-60.4	-76.4	3.8	1.49e+00	0	27	104	1394606080	86	23578
2026-01-07 02:35:55.09	247.06	2.20	-60.4	-76.5	3.8	1.49e+00	0	28	104	1394606080	86	23590
2026-01-07 02:35:59.08	246.91	1.96	-60.3	-76.4	3.8	1.49e+00	0	27	104	1394606080	86	23481

#Closed at: 2026-01-07 02:35:59
#Recorded file [1394 MB]: D:/lorett/data/31004_260107_052208.dat