passes_logs/2026/01/07/R3.2S_Murmansk/R3.2S_Murmansk__20260107_020803_AQUA_rec.log

#Pass ID: 20260107_020803_AQUA
#Satellite: AQUA
#Configuration: AQUA
#almurnet v.1.7.20251203
#Start time: 2026-01-07 02:08:04

#Version: 2.2.20231116
#Station: R3.2S_Murmansk
#Location: 33.079688 lon 68.888172 lat
#TLE: 1 27424U 02022A   26004.96787593  .00001598  00000+0  32997-3 0  9996
#TLE: 2 27424  98.4069 331.2279 0002002  90.2377   0.6092 14.61798176259425

#Time	Az	El	Level	Level2	SNR	BER	BlckErr	Temp	State	Recorded	gain1	gain2
2026-01-07 02:08:04.31	23.14	2.03	-57.7	-77.0	3.8	7.46e-01	0	24	0	0	84	32711
2026-01-07 02:08:08.32	23.18	2.29	-57.5	-76.1	3.8	7.47e-01	0	25	104	0	82	33270
2026-01-07 02:08:12.32	23.22	2.56	-57.5	-76.2	3.8	7.47e-01	0	25	104	0	82	33526
2026-01-07 02:08:16.32	23.26	2.83	-57.4	-75.0	3.9	7.45e-01	0	25	104	0	82	29314
2026-01-07 02:08:20.33	23.30	3.11	-57.3	-69.9	5.7	6.91e-01	90	25	0	0	82	16234
2026-01-07 02:08:24.33	23.34	3.38	-57.3	-70.8	5.2	7.02e-01	43	25	0	3145728	82	17980
2026-01-07 02:08:28.33	23.38	3.66	-57.2	-68.5	6.7	6.63e-01	92	25	0	5767168	82	13749
2026-01-07 02:08:32.32	23.42	3.95	-55.8	-61.5	12.2	6.06e-01	0	25	0	13107200	80	6945
2026-01-07 02:08:36.33	23.46	4.23	-54.5	-58.4	13.9	6.03e-01	0	25	0	20971520	78	5455
2026-01-07 02:08:40.33	23.50	4.52	-53.8	-57.2	14.3	6.05e-01	0	26	0	28311552	76	5287
2026-01-07 02:08:44.34	23.54	4.82	-54.5	-58.4	13.7	6.04e-01	0	25	0	35651584	76	6125
2026-01-07 02:08:48.34	23.59	5.12	-53.3	-56.4	14.6	6.02e-01	0	26	0	43515904	75	5105
2026-01-07 02:08:52.34	23.63	5.42	-56.3	-63.2	10.4	6.12e-01	0	26	0	50855936	81	7968
2026-01-07 02:08:56.35	23.68	5.72	-51.7	-54.0	15.1	6.03e-01	0	26	0	58195968	72	4602
2026-01-07 02:09:00.35	23.72	6.03	-51.2	-53.2	15.2	6.05e-01	0	26	0	65536000	71	4488
2026-01-07 02:09:04.35	23.77	6.35	-51.6	-53.8	15.0	6.05e-01	0	26	0	73400320	71	4784
2026-01-07 02:09:08.35	23.81	6.66	-51.2	-53.3	15.2	6.04e-01	0	26	0	80740352	71	4542
2026-01-07 02:09:12.35	23.86	6.98	-51.2	-53.3	15.2	6.05e-01	0	26	0	88080384	71	4521
2026-01-07 02:09:16.34	23.91	7.31	-51.2	-53.3	15.2	6.04e-01	0	26	0	95944704	71	4508
2026-01-07 02:09:20.34	23.95	7.64	-51.0	-53.1	15.3	6.05e-01	0	26	0	103284736	71	4399
2026-01-07 02:09:24.35	24.00	7.98	-50.9	-52.8	15.2	6.04e-01	0	26	0	110624768	70	4545
2026-01-07 02:09:28.36	24.05	8.32	-50.9	-52.9	15.2	6.04e-01	0	26	0	118489088	70	4558
2026-01-07 02:09:32.35	24.10	8.67	-50.6	-52.5	15.4	6.05e-01	0	26	0	125829120	70	4368
2026-01-07 02:09:36.35	24.16	9.02	-50.4	-52.3	15.4	6.04e-01	0	26	0	133169152	70	4251
2026-01-07 02:09:40.36	24.21	9.38	-50.4	-52.3	15.4	6.06e-01	0	26	0	141033472	70	4251
2026-01-07 02:09:44.35	24.26	9.74	-50.4	-52.2	15.3	6.05e-01	0	26	0	148373504	69	4475
2026-01-07 02:09:48.34	24.32	10.11	-50.4	-52.2	15.3	6.02e-01	0	26	0	155713536	69	4482
2026-01-07 02:09:52.35	24.37	10.48	-50.3	-52.2	15.3	6.05e-01	0	27	0	163053568	69	4447
2026-01-07 02:09:56.35	24.43	10.87	-50.3	-52.1	15.4	6.04e-01	0	27	0	170917888	69	4403
2026-01-07 02:10:00.35	24.49	11.25	-50.3	-52.1	15.4	6.02e-01	0	26	0	178257920	69	4418
2026-01-07 02:10:04.35	24.54	11.65	-50.2	-52.0	15.4	6.05e-01	0	27	0	185597952	69	4378
2026-01-07 02:10:08.36	24.60	12.05	-50.0	-51.8	15.4	6.03e-01	0	27	0	193462272	69	4261
2026-01-07 02:10:12.37	24.67	12.46	-50.1	-51.9	15.4	6.03e-01	0	26	0	200802304	69	4302
2026-01-07 02:10:16.39	24.73	12.88	-49.9	-51.6	15.5	6.02e-01	0	26	0	208142336	69	4191
2026-01-07 02:10:20.38	24.79	13.31	-49.7	-51.4	15.4	6.04e-01	0	27	0	216006656	68	4313
2026-01-07 02:10:24.37	24.86	13.74	-49.8	-51.5	15.4	6.03e-01	0	27	0	223346688	68	4363
2026-01-07 02:10:28.37	24.92	14.19	-49.6	-51.3	15.4	6.04e-01	0	27	0	230686720	68	4279
2026-01-07 02:10:32.38	24.99	14.64	-49.8	-51.5	15.4	6.04e-01	0	27	0	238551040	68	4384
2026-01-07 02:10:36.37	25.06	15.10	-49.7	-51.4	15.4	6.03e-01	0	27	0	245891072	68	4322
2026-01-07 02:10:40.36	25.14	15.57	-49.9	-51.6	15.4	6.04e-01	0	27	0	253231104	68	4416
2026-01-07 02:10:44.36	25.21	16.06	-49.5	-51.2	15.5	6.04e-01	0	27	0	261095424	68	4209
2026-01-07 02:10:48.35	25.29	16.55	-49.4	-51.1	15.4	6.03e-01	0	27	0	268435456	67	4393
2026-01-07 02:10:52.35	25.36	17.05	-49.4	-51.0	15.4	6.03e-01	0	27	0	275775488	67	4370
2026-01-07 02:10:56.36	25.45	17.57	-49.5	-51.1	15.4	6.04e-01	0	26	0	283639808	67	4441
2026-01-07 02:11:00.37	25.53	18.10	-49.6	-51.3	15.3	6.05e-01	0	27	0	290979840	67	4507
2026-01-07 02:11:04.37	25.61	18.64	-49.6	-51.2	15.3	6.05e-01	0	27	0	298319872	67	4485
2026-01-07 02:11:08.37	25.70	19.19	-49.5	-51.1	15.4	6.04e-01	0	27	0	305659904	67	4439
2026-01-07 02:11:12.37	25.79	19.76	-49.6	-51.2	15.3	6.06e-01	0	27	0	313524224	67	4469
2026-01-07 02:11:16.36	25.89	20.34	-49.5	-51.2	15.3	6.03e-01	0	27	0	320864256	67	4459
2026-01-07 02:11:20.35	25.98	20.94	-49.6	-51.3	15.3	6.03e-01	0	27	0	328204288	67	4495
2026-01-07 02:11:24.35	26.08	21.56	-49.9	-51.7	15.2	6.05e-01	0	27	0	335544320	67	4706
2026-01-07 02:11:28.36	26.19	22.19	-50.1	-51.8	15.3	6.04e-01	0	27	0	343408640	68	4504
2026-01-07 02:11:32.35	26.30	22.83	-50.0	-51.7	15.3	6.02e-01	0	27	0	350748672	68	4446
2026-01-07 02:11:36.35	26.41	23.50	-49.9	-51.6	15.3	6.03e-01	0	27	0	358088704	68	4416
2026-01-07 02:11:40.36	26.52	24.19	-50.0	-51.7	15.3	6.02e-01	0	27	0	365953024	68	4472
2026-01-07 02:11:44.35	26.64	24.89	-50.1	-51.8	15.3	6.04e-01	0	27	0	373293056	68	4539
2026-01-07 02:11:48.34	26.77	25.62	-50.2	-52.0	15.3	6.03e-01	0	27	0	380633088	68	4605
2026-01-07 02:11:52.34	26.90	26.37	-50.0	-51.7	15.3	6.05e-01	0	27	0	388497408	68	4446
2026-01-07 02:11:56.34	27.04	27.14	-49.8	-51.4	15.4	6.03e-01	0	27	0	395837440	68	4328
2026-01-07 02:12:00.33	27.18	27.93	-49.5	-51.2	15.5	6.04e-01	0	27	0	403177472	68	4198
2026-01-07 02:12:04.33	27.33	28.75	-49.5	-51.1	15.5	6.03e-01	0	27	0	411041792	68	4184
2026-01-07 02:12:08.34	27.49	29.60	-49.6	-51.2	15.5	6.03e-01	0	27	0	418381824	68	4236
2026-01-07 02:12:12.33	27.66	30.48	-49.4	-50.9	15.4	6.05e-01	0	27	0	425721856	67	4339
2026-01-07 02:12:16.35	27.83	31.38	-49.5	-51.1	15.3	6.04e-01	0	27	0	433061888	67	4424
2026-01-07 02:12:20.33	28.01	32.32	-49.5	-51.1	15.4	6.04e-01	0	27	0	440926208	67	4415
2026-01-07 02:12:24.32	28.21	33.28	-49.8	-51.5	15.3	6.05e-01	0	27	0	448266240	67	4623
2026-01-07 02:12:28.31	28.41	34.28	-50.2	-51.9	15.3	6.04e-01	0	27	0	455606272	68	4582
2026-01-07 02:12:32.32	28.63	35.32	-50.4	-52.1	15.2	6.04e-01	0	27	0	463470592	68	4704
2026-01-07 02:12:36.32	28.86	36.39	-50.7	-52.4	15.3	6.03e-01	0	27	0	470810624	69	4588
2026-01-07 02:12:40.32	29.11	37.51	-51.4	-53.2	15.2	6.03e-01	0	27	0	478150656	70	4753
2026-01-07 02:12:44.31	29.38	38.65	-51.7	-53.6	15.2	6.04e-01	0	27	0	486014976	71	4684
2026-01-07 02:12:48.31	29.66	39.85	-51.5	-53.3	15.3	6.03e-01	0	27	0	493355008	71	4535
2026-01-07 02:12:52.31	29.96	41.09	-51.3	-53.2	15.3	6.04e-01	0	27	0	500695040	71	4456
2026-01-07 02:12:56.31	30.29	42.37	-50.5	-52.2	15.4	6.04e-01	0	27	0	508035072	70	4233
2026-01-07 02:13:00.32	30.65	43.71	-50.1	-51.8	15.4	6.04e-01	0	27	0	515899392	69	4243
2026-01-07 02:13:04.32	31.03	45.09	-49.8	-51.4	15.4	6.04e-01	0	27	0	523239424	68	4315
2026-01-07 02:13:08.32	31.45	46.52	-49.8	-51.4	15.4	6.03e-01	0	27	0	530579456	68	4315
2026-01-07 02:13:12.32	31.91	48.00	-49.7	-51.3	15.4	6.04e-01	0	27	0	538443776	68	4274
2026-01-07 02:13:16.33	32.42	49.54	-49.8	-51.4	15.4	6.05e-01	0	27	0	545783808	68	4305
2026-01-07 02:13:20.32	32.98	51.13	-49.6	-51.1	15.5	6.01e-01	0	27	0	553123840	68	4192
2026-01-07 02:13:24.31	33.60	52.77	-48.9	-50.4	15.6	6.03e-01	0	27	0	560988160	67	4082
2026-01-07 02:13:28.31	34.29	54.48	-49.0	-50.5	15.5	6.03e-01	0	27	0	568328192	67	4132
2026-01-07 02:13:32.29	35.07	56.23	-49.8	-51.4	15.3	6.03e-01	0	27	0	575668224	67	4573
2026-01-07 02:13:36.30	35.97	58.04	-50.7	-52.5	15.3	6.05e-01	0	27	0	583008256	69	4616
2026-01-07 02:13:40.30	36.99	59.91	-51.2	-53.0	15.2	6.05e-01	0	27	0	590872576	70	4629
2026-01-07 02:13:44.30	38.17	61.82	-51.9	-53.8	15.1	6.03e-01	0	27	0	598212608	71	4781
2026-01-07 02:13:48.29	39.54	63.78	-52.8	-55.0	15.0	6.05e-01	0	27	0	605552640	73	4892
2026-01-07 02:13:52.28	41.17	65.78	-54.3	-56.9	14.7	6.02e-01	0	27	0	613416960	76	5123
2026-01-07 02:13:56.27	43.13	67.81	-54.7	-57.6	14.6	6.04e-01	0	27	0	620756992	77	5221
2026-01-07 02:14:00.28	45.53	69.87	-54.8	-57.7	14.6	6.01e-01	0	27	0	628097024	77	5285
2026-01-07 02:14:04.28	48.51	71.93	-54.6	-57.3	14.7	6.03e-01	0	27	0	635961344	78	4805
2026-01-07 02:14:08.29	52.32	73.98	-53.4	-55.7	15.0	6.04e-01	0	27	0	643301376	75	4710
2026-01-07 02:14:12.29	57.26	75.97	-52.7	-54.9	15.2	6.04e-01	0	27	0	650641408	74	4547
2026-01-07 02:14:16.29	63.85	77.85	-52.3	-54.4	15.2	6.03e-01	0	27	0	657981440	73	4546
2026-01-07 02:14:20.29	72.77	79.55	-51.5	-53.4	15.4	6.03e-01	0	27	0	665845760	72	4296
2026-01-07 02:14:24.26	84.70	80.91	-50.5	-52.2	15.5	6.04e-01	0	27	0	673185792	70	4212
2026-01-07 02:14:28.26	100.10	81.77	-51.0	-52.7	15.3	6.05e-01	0	27	0	680525824	70	4472
2026-01-07 02:14:32.23	117.43	81.95	-51.1	-52.9	15.2	6.05e-01	0	27	0	687865856	70	4550
2026-01-07 02:14:36.23	134.11	81.40	-50.7	-52.4	15.4	6.04e-01	0	27	0	695730176	70	4333
2026-01-07 02:14:40.24	147.81	80.24	-51.2	-53.0	15.2	6.04e-01	0	27	0	703070208	70	4630
2026-01-07 02:14:44.29	158.22	78.66	-51.5	-53.3	15.2	6.05e-01	0	27	0	710410240	71	4507
2026-01-07 02:14:48.26	165.73	76.86	-51.9	-53.8	15.3	6.03e-01	0	27	0	718274560	72	4505
2026-01-07 02:14:52.26	171.37	74.91	-52.7	-54.8	15.1	6.04e-01	0	27	0	725614592	73	4783
2026-01-07 02:14:56.27	175.66	72.87	-53.1	-55.3	14.9	6.05e-01	0	27	0	732954624	73	5095
2026-01-07 02:15:00.26	178.98	70.82	-52.7	-55.0	14.8	6.04e-01	0	27	0	740818944	73	4907
2026-01-07 02:15:04.27	181.63	68.75	-53.0	-55.1	15.2	6.03e-01	0	27	0	748158976	75	4433
2026-01-07 02:15:08.26	183.78	66.70	-53.1	-55.2	15.1	6.05e-01	0	27	0	755499008	75	4475
2026-01-07 02:15:12.27	185.56	64.68	-53.6	-55.8	15.1	6.06e-01	0	27	0	763363328	76	4532
2026-01-07 02:15:16.29	187.05	62.68	-51.5	-53.3	15.4	6.04e-01	0	27	0	770703360	72	4276
2026-01-07 02:15:20.29	188.32	60.74	-51.3	-53.0	15.3	6.03e-01	0	27	0	778043392	71	4390
2026-01-07 02:15:24.28	189.40	58.85	-51.2	-52.9	15.4	6.04e-01	0	27	0	785383424	71	4331
2026-01-07 02:15:28.28	190.35	57.01	-50.5	-52.2	15.4	6.02e-01	0	27	0	793247744	70	4229
2026-01-07 02:15:32.27	191.17	55.23	-49.8	-51.4	15.4	6.02e-01	0	27	0	800587776	68	4310
2026-01-07 02:15:36.26	191.91	53.50	-49.6	-51.1	15.5	6.05e-01	0	27	0	807927808	68	4192
2026-01-07 02:15:40.26	192.56	51.83	-49.7	-51.3	15.4	6.02e-01	0	27	0	815792128	68	4253
2026-01-07 02:15:44.26	193.15	50.21	-50.1	-51.7	15.3	6.02e-01	0	27	0	823132160	68	4445
2026-01-07 02:15:48.24	193.67	48.65	-50.5	-52.2	15.2	6.02e-01	0	27	0	830472192	68	4740
2026-01-07 02:15:52.24	194.15	47.14	-50.1	-51.7	15.3	6.04e-01	0	27	0	837812224	68	4491
2026-01-07 02:15:56.23	194.59	45.68	-50.4	-52.2	15.2	6.07e-01	0	27	0	845676544	68	4715
2026-01-07 02:16:00.25	194.99	44.27	-50.3	-52.0	15.3	6.04e-01	0	27	0	853016576	68	4610
2026-01-07 02:16:04.24	195.36	42.91	-50.5	-52.2	15.2	6.06e-01	0	27	0	860356608	68	4725
2026-01-07 02:16:08.23	195.70	41.61	-50.8	-52.6	15.2	6.03e-01	0	27	0	868220928	69	4684
2026-01-07 02:16:12.25	196.01	40.34	-51.0	-52.8	15.2	6.03e-01	0	27	0	875560960	69	4793
2026-01-07 02:16:16.26	196.31	39.12	-51.4	-53.3	15.1	6.04e-01	0	27	0	882900992	70	4764
2026-01-07 02:16:20.26	196.58	37.94	-51.0	-52.8	15.3	6.04e-01	0	27	0	890765312	70	4533
2026-01-07 02:16:24.25	196.83	36.81	-50.8	-52.5	15.3	6.04e-01	0	27	0	898105344	70	4381
2026-01-07 02:16:28.24	197.07	35.72	-50.5	-52.2	15.4	6.04e-01	0	27	0	905445376	70	4224
2026-01-07 02:16:32.22	197.29	34.67	-50.1	-51.7	15.5	6.06e-01	0	27	0	912785408	69	4216
2026-01-07 02:16:36.21	197.50	33.65	-49.6	-51.2	15.5	6.03e-01	0	27	0	920649728	68	4226
2026-01-07 02:16:40.21	197.70	32.67	-49.5	-51.0	15.5	6.05e-01	0	27	0	927989760	68	4142
2026-01-07 02:16:44.20	197.89	31.72	-49.0	-50.5	15.5	6.02e-01	0	27	0	935329792	67	4131
2026-01-07 02:16:48.20	198.06	30.80	-49.1	-50.7	15.5	6.02e-01	0	27	0	943194112	67	4206
2026-01-07 02:16:52.21	198.23	29.90	-49.4	-51.0	15.4	6.05e-01	0	27	0	950534144	67	4345
2026-01-07 02:16:56.20	198.39	29.04	-49.6	-51.3	15.3	6.03e-01	0	27	0	957874176	67	4516
2026-01-07 02:17:00.19	198.55	28.21	-49.5	-51.1	15.4	6.04e-01	0	27	0	965214208	67	4428
2026-01-07 02:17:04.19	198.69	27.40	-49.5	-51.1	15.3	6.03e-01	0	27	0	973078528	67	4429
2026-01-07 02:17:08.19	198.83	26.61	-49.6	-51.2	15.3	6.04e-01	0	27	0	980418560	67	4482
2026-01-07 02:17:12.18	198.96	25.86	-49.9	-51.5	15.3	6.05e-01	0	27	0	987758592	67	4647
2026-01-07 02:17:16.19	199.09	25.12	-50.1	-51.8	15.2	6.03e-01	0	27	0	995622912	67	4778
2026-01-07 02:17:20.19	199.21	24.40	-50.3	-52.1	15.2	6.04e-01	0	27	0	1002962944	68	4660
2026-01-07 02:17:24.17	199.33	23.71	-50.4	-52.2	15.2	6.05e-01	0	27	0	1010302976	68	4710
2026-01-07 02:17:28.15	199.44	23.03	-50.4	-52.1	15.2	6.03e-01	0	27	0	1018167296	68	4683
2026-01-07 02:17:32.15	199.55	22.37	-50.0	-51.7	15.3	6.04e-01	0	27	0	1025507328	68	4479
2026-01-07 02:17:36.15	199.65	21.73	-50.0	-51.6	15.3	6.05e-01	0	27	0	1032847360	68	4435
2026-01-07 02:17:40.14	199.75	21.11	-49.9	-51.5	15.3	6.05e-01	0	27	0	1040187392	68	4371
2026-01-07 02:17:44.13	199.85	20.51	-49.8	-51.4	15.4	6.05e-01	0	27	0	1048051712	68	4328
2026-01-07 02:17:48.11	199.94	19.92	-49.8	-51.4	15.4	6.03e-01	0	27	0	1055391744	68	4334
2026-01-07 02:17:52.13	200.04	19.34	-49.9	-51.5	15.4	6.04e-01	0	27	0	1062731776	68	4383
2026-01-07 02:17:56.12	200.12	18.78	-49.8	-51.4	15.4	6.05e-01	0	27	0	1070071808	68	4314
2026-01-07 02:18:00.12	200.21	18.23	-49.8	-51.5	15.4	6.05e-01	0	27	0	1077936128	68	4349
2026-01-07 02:18:04.12	200.29	17.69	-49.9	-51.6	15.3	6.03e-01	0	27	0	1085276160	68	4438
2026-01-07 02:18:08.12	200.37	17.17	-50.0	-51.7	15.3	6.02e-01	0	27	0	1092616192	68	4479
2026-01-07 02:18:12.12	200.45	16.66	-58.7	-72.9	4.2	7.15e-01	0	27	104	1099431936	85	19351
2026-01-07 02:18:16.12	200.52	16.16	-58.7	-77.7	3.8	7.43e-01	0	27	104	1099431936	85	33652
2026-01-07 02:18:20.12	200.60	15.67	-58.5	-71.5	5.5	6.95e-01	0	27	0	1099431936	85	16349
2026-01-07 02:18:24.13	200.67	15.19	-58.4	-70.7	6.0	6.81e-01	92	27	0	1103626240	85	14891
2026-01-07 02:18:28.13	200.74	14.73	-58.5	-72.4	5.1	7.12e-01	0	27	104	1105723392	85	18114
2026-01-07 02:18:32.12	200.81	14.27	-58.4	-71.8	5.2	7.03e-01	0	27	0	1105723392	85	16988
2026-01-07 02:18:36.12	200.87	13.82	-58.4	-70.9	5.8	6.87e-01	92	27	0	1110966272	85	15304
2026-01-07 02:18:40.13	200.94	13.38	-58.5	-76.0	3.9	7.46e-01	0	27	104	1110966272	85	27403
2026-01-07 02:18:44.12	201.00	12.95	-58.4	-71.6	5.3	7.01e-01	22	28	0	1110966272	85	16583
2026-01-07 02:18:48.11	201.06	12.53	-58.2	-70.2	6.2	6.77e-01	92	27	0	1116733440	85	14148
2026-01-07 02:18:52.12	201.12	12.11	-58.5	-75.4	3.9	7.43e-01	0	27	104	1117257728	85	25808
2026-01-07 02:18:56.13	201.18	11.70	-58.3	-71.3	5.5	6.96e-01	42	27	0	1118306304	85	16087
2026-01-07 02:19:00.13	201.24	11.30	-58.4	-74.7	4.1	7.36e-01	0	28	104	1122500608	85	23823
2026-01-07 02:19:04.12	201.29	10.91	-58.3	-72.9	4.6	7.24e-01	0	27	104	1122500608	85	19212
2026-01-07 02:19:08.12	201.35	10.53	-58.3	-75.1	4.1	7.42e-01	0	27	104	1122500608	85	24872
2026-01-07 02:19:12.12	201.40	10.15	-58.2	-73.3	4.5	7.27e-01	0	28	104	1122500608	85	20169
2026-01-07 02:19:16.12	201.45	9.78	-58.1	-71.0	5.5	6.94e-01	16	27	0	1122500608	85	15458
2026-01-07 02:19:20.12	201.50	9.41	-58.2	-73.3	4.4	7.28e-01	0	27	104	1126694912	85	20201
2026-01-07 02:19:24.12	201.55	9.05	-58.2	-76.1	3.9	7.42e-01	0	28	104	1126694912	85	27864
2026-01-07 02:19:28.12	201.60	8.69	-58.1	-77.3	3.8	7.49e-01	0	28	104	1126694912	85	31893
2026-01-07 02:19:32.12	201.65	8.34	-58.1	-76.3	3.8	7.45e-01	0	28	104	1126694912	85	28542
2026-01-07 02:19:36.11	201.70	8.00	-57.9	-73.9	4.2	7.35e-01	0	28	104	1126694912	85	21698
2026-01-07 02:19:40.10	201.75	7.66	-57.9	-74.2	4.1	7.37e-01	0	27	104	1126694912	84	23599
2026-01-07 02:19:44.12	201.79	7.33	-57.8	-73.0	4.4	7.29e-01	0	28	104	1126694912	84	20647
2026-01-07 02:19:48.11	201.84	7.00	-57.9	-76.3	3.8	7.47e-01	0	27	104	1126694912	84	30345
2026-01-07 02:19:52.13	201.88	6.67	-57.7	-77.0	3.8	7.47e-01	0	28	104	1126694912	84	32715
2026-01-07 02:19:56.14	201.93	6.35	-57.7	-76.3	3.9	7.44e-01	0	27	104	1126694912	84	30057
2026-01-07 02:20:00.15	201.97	6.03	-57.5	-75.1	3.9	7.44e-01	0	28	104	1126694912	84	26412
2026-01-07 02:20:04.15	202.01	5.72	-57.3	-74.7	3.9	7.44e-01	0	27	104	1126694912	82	28034
2026-01-07 02:20:08.16	202.06	5.41	-57.2	-73.8	4.1	7.44e-01	0	27	104	1126694912	82	25276
2026-01-07 02:20:12.16	202.10	5.11	-56.3	-75.1	3.8	7.46e-01	0	27	104	1126694912	81	31121
2026-01-07 02:20:16.17	202.14	4.81	-58.7	-77.7	3.9	7.46e-01	0	27	104	1127219200	85	33509
2026-01-07 02:20:20.18	202.18	4.51	-59.3	-78.7	3.8	7.46e-01	0	27	104	1127219200	86	35442
2026-01-07 02:20:24.17	202.22	4.22	-59.6	-79.0	3.8	7.45e-01	0	27	104	1127219200	86	36674
2026-01-07 02:20:28.16	202.26	3.93	-59.6	-78.9	3.8	7.47e-01	0	27	104	1127219200	86	36338
2026-01-07 02:20:32.16	202.29	3.65	-59.7	-79.0	3.8	7.47e-01	0	27	104	1127219200	87	34785
2026-01-07 02:20:36.17	202.33	3.37	-59.7	-79.0	3.8	7.46e-01	0	27	104	1127219200	87	34849
2026-01-07 02:20:40.16	202.37	3.09	-59.7	-79.1	3.8	7.47e-01	0	27	104	1127219200	87	35112
2026-01-07 02:20:44.15	202.41	2.81	-59.9	-79.3	3.8	7.45e-01	0	27	104	1127219200	87	35711
2026-01-07 02:20:48.16	202.44	2.54	-59.9	-79.3	3.8	7.45e-01	0	27	104	1127219200	87	36104
2026-01-07 02:20:52.17	202.48	2.27	-59.9	-79.3	3.8	7.48e-01	0	27	104	1127219200	87	35747
2026-01-07 02:20:56.18	202.51	2.00	-59.9	-79.3	3.8	7.44e-01	0	27	104	1127219200	87	35827

#Closed at: 2026-01-07 02:20:57
#Recorded file [1127 MB]: D:/lorett/data/31004_260107_050804.dat