passes_logs/2026/01/07/R3.2S_Murmansk/R3.2S_Murmansk__20260107_083825_SUOMI_NPP_rec.log

#Pass ID: 20260107_083825_SUOMI NPP
#Satellite: SUOMI NPP
#Configuration: NPP
#almurnet v.1.7.20251203
#Start time: 2026-01-07 08:38:26

#Version: 2.2.20231116
#Station: R3.2S_Murmansk
#Location: 33.079688 lon 68.888172 lat
#TLE: 1 37849U 11061A   26005.94084933  .00000134  00000+0  84554-4 0  9990
#TLE: 2 37849  98.7803 308.0679 0002567  79.1029 281.0436 14.19522657735426

#Time	Az	El	Level	Level2	SNR	BER	BlckErr	Temp	State	Recorded	gain1	gain2
2026-01-07 08:38:26.24	129.22	2.08	-57.5	-73.5	3.8	1.49e+00	0	23	0	0	80	23665
2026-01-07 08:38:30.22	129.13	2.33	-57.5	-73.5	3.8	1.49e+00	0	23	104	0	80	23739
2026-01-07 08:38:34.20	129.04	2.59	-57.5	-73.5	3.8	1.49e+00	0	23	104	0	80	23631
2026-01-07 08:38:38.18	128.96	2.85	-57.5	-73.5	3.8	1.49e+00	0	23	104	0	80	23620
2026-01-07 08:38:42.15	128.87	3.11	-57.5	-73.4	3.8	1.49e+00	0	24	104	0	80	23426
2026-01-07 08:38:46.13	128.77	3.37	-57.5	-72.9	3.8	1.49e+00	0	24	104	0	80	22186
2026-01-07 08:38:50.11	128.68	3.64	-57.4	-70.4	4.1	1.44e+00	0	24	0	0	80	16567
2026-01-07 08:38:54.10	128.58	3.91	-57.1	-66.7	5.6	4.75e-01	0	24	0	4194304	80	10827
2026-01-07 08:38:58.08	128.48	4.18	-56.4	-62.7	8.8	2.73e-02	0	24	0	11534336	79	7270
2026-01-07 08:39:02.07	128.38	4.45	-54.9	-58.8	11.9	3.50e-05	0	24	0	19922944	76	5509
2026-01-07 08:39:06.08	128.28	4.73	-53.6	-56.6	13.2	0.00e+00	0	24	0	27262976	73	5063
2026-01-07 08:39:10.07	128.18	5.01	-53.6	-56.6	13.1	0.00e+00	0	24	0	34603008	73	5064
2026-01-07 08:39:14.07	128.07	5.29	-53.6	-56.5	13.1	0.00e+00	0	24	0	41943040	72	5326
2026-01-07 08:39:18.08	127.96	5.58	-52.6	-54.9	14.0	0.00e+00	0	24	0	49283072	71	4700
2026-01-07 08:39:22.06	127.85	5.87	-52.6	-54.9	13.9	0.00e+00	0	24	0	56623104	71	4702
2026-01-07 08:39:26.05	127.73	6.16	-52.5	-54.9	14.0	0.00e+00	0	24	0	63963136	71	4653
2026-01-07 08:39:30.05	127.62	6.46	-52.4	-54.6	14.2	0.00e+00	0	24	0	72351744	71	4517
2026-01-07 08:39:34.04	127.50	6.76	-52.5	-54.8	14.1	0.00e+00	0	24	0	79691776	71	4625
2026-01-07 08:39:38.01	127.38	7.06	-52.4	-54.6	14.2	0.00e+00	0	24	0	87031808	71	4537
2026-01-07 08:39:41.98	127.25	7.36	-52.5	-54.7	14.2	0.00e+00	0	24	0	94371840	71	4579
2026-01-07 08:39:45.95	127.12	7.67	-52.2	-54.3	14.4	0.00e+00	0	24	0	101711872	71	4370
2026-01-07 08:39:49.94	126.99	7.98	-52.3	-54.5	14.2	0.00e+00	0	24	0	109051904	70	4707
2026-01-07 08:39:53.93	126.86	8.30	-52.1	-54.2	14.3	0.00e+00	0	24	0	116391936	70	4598
2026-01-07 08:39:57.91	126.72	8.62	-52.2	-54.4	14.2	0.00e+00	0	24	0	123731968	70	4653
2026-01-07 08:40:01.91	126.58	8.94	-52.1	-54.2	14.4	0.00e+00	0	24	0	132120576	70	4573
2026-01-07 08:40:05.89	126.44	9.27	-52.0	-54.0	14.4	0.00e+00	0	25	0	139460608	70	4483
2026-01-07 08:40:09.89	126.29	9.60	-52.1	-54.2	14.4	0.00e+00	0	24	0	146800640	70	4553
2026-01-07 08:40:13.87	126.14	9.94	-52.0	-54.0	14.5	0.00e+00	0	24	0	154140672	70	4469
2026-01-07 08:40:17.84	125.98	10.28	-51.8	-53.7	14.6	0.00e+00	0	25	0	161480704	70	4325
2026-01-07 08:40:21.82	125.82	10.62	-51.8	-53.7	14.5	0.00e+00	0	25	0	168820736	69	4559
2026-01-07 08:40:25.82	125.66	10.97	-51.6	-53.5	14.6	0.00e+00	0	25	0	176160768	69	4486
2026-01-07 08:40:29.79	125.49	11.33	-51.6	-53.4	14.6	0.00e+00	0	25	0	183500800	69	4427
2026-01-07 08:40:33.77	125.32	11.68	-51.4	-53.2	14.8	0.00e+00	0	25	0	191889408	69	4333
2026-01-07 08:40:37.74	125.14	12.05	-51.1	-53.1	14.7	0.00e+00	0	25	0	199229440	68	4508
2026-01-07 08:40:41.72	124.96	12.42	-51.1	-53.1	14.7	0.00e+00	0	25	0	206569472	68	4514
2026-01-07 08:40:45.69	124.78	12.79	-50.9	-52.8	14.8	0.00e+00	0	25	0	213909504	68	4391
2026-01-07 08:40:49.68	124.58	13.17	-51.0	-52.9	14.8	0.00e+00	0	25	0	221249536	68	4398
2026-01-07 08:40:53.67	124.39	13.56	-51.0	-52.9	14.8	0.00e+00	0	25	0	228589568	68	4395
2026-01-07 08:40:57.64	124.19	13.95	-51.0	-52.9	14.8	0.00e+00	0	25	0	235929600	68	4431
2026-01-07 08:41:01.61	123.98	14.35	-50.9	-52.8	14.9	0.00e+00	0	25	0	243269632	68	4370
2026-01-07 08:41:05.61	123.76	14.75	-50.9	-52.8	14.9	0.00e+00	0	25	0	250609664	68	4367
2026-01-07 08:41:09.60	123.54	15.16	-51.0	-52.9	14.8	0.00e+00	0	25	0	258998272	68	4422
2026-01-07 08:41:13.56	123.32	15.58	-50.8	-52.6	15.0	0.00e+00	0	25	0	266338304	68	4268
2026-01-07 08:41:17.55	123.08	16.00	-50.9	-52.7	14.9	0.00e+00	0	25	0	273678336	68	4311
2026-01-07 08:41:21.54	122.84	16.43	-50.8	-52.6	15.0	0.00e+00	0	25	0	281018368	68	4246
2026-01-07 08:41:25.52	122.59	16.87	-51.0	-52.8	14.9	0.00e+00	0	25	0	288358400	68	4365
2026-01-07 08:41:29.50	122.34	17.32	-50.9	-52.7	14.9	0.00e+00	0	25	0	295698432	68	4320
2026-01-07 08:41:33.49	122.07	17.77	-51.1	-53.0	14.8	0.00e+00	0	25	0	303038464	68	4452
2026-01-07 08:41:37.48	121.80	18.23	-51.1	-53.0	14.8	0.00e+00	0	25	0	310378496	68	4464
2026-01-07 08:41:41.46	121.52	18.70	-50.9	-52.8	14.9	0.00e+00	0	25	0	318767104	68	4364
2026-01-07 08:41:45.44	121.22	19.18	-51.0	-52.9	14.9	0.00e+00	0	25	0	326107136	68	4409
2026-01-07 08:41:49.42	120.92	19.66	-51.1	-53.0	14.8	0.00e+00	0	25	0	333447168	68	4462
2026-01-07 08:41:53.41	120.61	20.16	-51.1	-53.0	14.8	0.00e+00	0	25	0	340787200	68	4477
2026-01-07 08:41:57.38	120.29	20.66	-51.7	-53.8	14.5	0.00e+00	0	25	0	348127232	68	4871
2026-01-07 08:42:01.37	119.96	21.17	-51.8	-53.9	14.6	0.00e+00	0	25	0	355467264	69	4663
2026-01-07 08:42:05.35	119.61	21.70	-51.7	-53.7	14.6	0.00e+00	0	25	0	362807296	69	4566
2026-01-07 08:42:09.33	119.26	22.23	-52.0	-54.1	14.4	0.00e+00	0	25	0	370147328	69	4799
2026-01-07 08:42:13.33	118.89	22.77	-52.0	-54.1	14.4	0.00e+00	0	25	0	378535936	69	4802
2026-01-07 08:42:17.30	118.50	23.32	-51.8	-53.9	14.6	0.00e+00	0	25	0	385875968	69	4682
2026-01-07 08:42:21.28	118.11	23.88	-52.5	-54.9	14.2	0.00e+00	0	25	0	393216000	70	4931
2026-01-07 08:42:25.26	117.69	24.46	-52.8	-55.2	14.0	0.00e+00	0	25	0	400556032	70	5143
2026-01-07 08:42:29.25	117.26	25.04	-52.4	-54.5	14.4	0.00e+00	0	25	0	407896064	70	4722
2026-01-07 08:42:33.23	116.82	25.64	-52.0	-54.0	14.6	0.00e+00	0	25	0	415236096	70	4483
2026-01-07 08:42:37.22	116.35	26.25	-52.5	-54.7	14.3	0.00e+00	0	25	0	422576128	70	4849
2026-01-07 08:42:41.20	115.87	26.86	-52.5	-54.8	14.3	0.00e+00	0	25	0	429916160	70	4885
2026-01-07 08:42:45.20	115.37	27.50	-52.2	-54.3	14.5	0.00e+00	0	25	0	438304768	70	4624
2026-01-07 08:42:49.18	114.85	28.14	-52.2	-54.4	14.5	0.00e+00	0	25	0	445644800	70	4681
2026-01-07 08:42:53.16	114.30	28.80	-52.6	-54.8	14.2	0.00e+00	0	25	0	452984832	70	4921
2026-01-07 08:42:57.15	113.73	29.47	-52.7	-54.9	14.4	0.00e+00	0	25	0	460324864	71	4655
2026-01-07 08:43:01.14	113.14	30.15	-53.1	-55.5	14.0	0.00e+00	0	25	0	467664896	71	5008
2026-01-07 08:43:05.14	112.52	30.84	-53.5	-56.2	13.8	0.00e+00	0	25	0	475004928	72	5112
2026-01-07 08:43:09.13	111.87	31.55	-53.4	-55.8	14.0	0.00e+00	0	25	0	482344960	72	4925
2026-01-07 08:43:13.12	111.19	32.27	-53.8	-56.6	13.6	0.00e+00	0	25	0	489684992	72	5369
2026-01-07 08:43:17.11	110.48	33.01	-54.0	-56.8	13.5	0.00e+00	0	25	0	498073600	73	5214
2026-01-07 08:43:21.11	109.73	33.75	-54.5	-57.7	13.2	0.00e+00	0	25	0	505413632	74	5414
2026-01-07 08:43:25.10	108.96	34.51	-55.0	-59.2	12.2	7.00e-07	0	25	0	512753664	75	6066
2026-01-07 08:43:29.09	108.14	35.28	-54.2	-57.6	13.3	0.00e+00	0	25	0	520093696	75	5067
2026-01-07 08:43:33.08	107.28	36.07	-53.1	-55.9	14.0	0.00e+00	0	25	0	527433728	72	4936
2026-01-07 08:43:37.07	106.38	36.86	-52.3	-54.6	14.5	0.00e+00	0	25	0	534773760	71	4534
2026-01-07 08:43:41.06	105.43	37.67	-52.7	-55.2	14.2	0.00e+00	0	25	0	542113792	71	4819
2026-01-07 08:43:45.06	104.44	38.49	-53.6	-56.7	13.5	0.00e+00	0	25	0	550502400	72	5425
2026-01-07 08:43:49.05	103.39	39.31	-53.5	-56.8	13.5	0.00e+00	0	25	0	557842432	72	5500
2026-01-07 08:43:53.04	102.29	40.14	-53.8	-57.1	13.5	0.00e+00	0	25	0	565182464	73	5396
2026-01-07 08:43:57.04	101.12	40.99	-54.3	-58.4	12.6	0.00e+00	0	25	0	572522496	73	6218
2026-01-07 08:44:01.03	99.90	41.83	-53.1	-56.0	13.9	0.00e+00	0	25	0	579862528	72	5008
2026-01-07 08:44:05.01	98.61	42.68	-52.7	-55.3	14.2	0.00e+00	0	25	0	587202560	71	4910
2026-01-07 08:44:08.98	97.25	43.53	-54.0	-57.3	13.3	0.00e+00	0	25	0	594542592	73	5486
2026-01-07 08:44:12.98	95.81	44.38	-54.2	-57.8	12.9	0.00e+00	0	25	0	601882624	73	5810
2026-01-07 08:44:16.99	94.29	45.23	-53.8	-57.1	13.4	0.00e+00	0	25	0	610271232	74	5093
2026-01-07 08:44:21.00	92.68	46.08	-53.3	-56.2	13.7	0.00e+00	0	25	0	617611264	72	5146
2026-01-07 08:44:25.01	90.99	46.91	-52.9	-55.4	14.0	0.00e+00	0	25	0	624951296	71	4963
2026-01-07 08:44:28.99	89.21	47.73	-53.7	-56.8	13.5	0.00e+00	0	25	0	632291328	73	5191
2026-01-07 08:44:32.98	87.34	48.54	-52.6	-55.1	14.2	0.00e+00	0	25	0	639631360	71	4813
2026-01-07 08:44:36.99	85.35	49.32	-51.2	-53.1	14.9	0.00e+00	0	25	0	646971392	69	4262
2026-01-07 08:44:40.99	83.27	50.08	-51.5	-53.7	14.5	0.00e+00	0	25	0	655360000	68	4817
2026-01-07 08:44:44.97	81.09	50.81	-51.4	-53.5	14.6	0.00e+00	0	25	0	662700032	68	4739
2026-01-07 08:44:48.96	78.80	51.50	-51.1	-53.1	14.8	0.00e+00	0	25	0	670040064	68	4520
2026-01-07 08:44:52.95	76.40	52.15	-52.1	-54.6	14.2	0.00e+00	0	25	0	677380096	69	5049
2026-01-07 08:44:56.95	73.90	52.76	-51.0	-53.1	14.7	0.00e+00	0	25	0	684720128	68	4536
2026-01-07 08:45:00.88	71.34	53.30	-51.3	-53.6	14.5	0.00e+00	0	25	0	692060160	68	4780
2026-01-07 08:45:04.85	68.66	53.80	-51.8	-54.3	14.3	0.00e+00	0	25	0	699400192	69	4908
2026-01-07 08:45:08.84	65.87	54.23	-50.7	-53.0	14.8	0.00e+00	0	25	0	706740224	68	4444
2026-01-07 08:45:12.83	63.01	54.60	-49.5	-51.3	15.1	0.00e+00	0	25	0	714080256	65	4385
2026-01-07 08:45:16.82	60.08	54.90	-48.8	-50.6	15.1	0.00e+00	0	25	0	722468864	63	4496
2026-01-07 08:45:20.81	57.10	55.12	-49.6	-51.6	14.8	0.00e+00	0	25	0	729808896	64	4777
2026-01-07 08:45:24.80	54.08	55.26	-48.9	-50.7	15.0	0.00e+00	0	25	0	737148928	63	4580
2026-01-07 08:45:28.80	51.03	55.33	-48.9	-50.6	15.2	0.00e+00	0	25	0	744488960	64	4253
2026-01-07 08:45:32.80	47.97	55.31	-49.3	-51.1	15.0	0.00e+00	0	25	0	751828992	64	4522
2026-01-07 08:45:36.79	44.94	55.21	-49.6	-51.5	14.9	0.00e+00	0	25	0	759169024	64	4712
2026-01-07 08:45:40.78	41.93	55.04	-48.9	-50.6	15.2	0.00e+00	0	25	0	766509056	64	4289
2026-01-07 08:45:44.75	38.99	54.79	-48.4	-50.0	15.2	0.00e+00	0	25	0	774897664	62	4442
2026-01-07 08:45:48.72	36.10	54.46	-48.3	-49.9	15.2	0.00e+00	0	25	0	782237696	62	4393
2026-01-07 08:45:52.71	33.27	54.07	-48.9	-50.5	15.0	0.00e+00	0	25	0	789577728	62	4713
2026-01-07 08:45:56.69	30.53	53.61	-49.5	-51.1	15.1	0.00e+00	0	25	0	796917760	65	4264
2026-01-07 08:46:00.68	27.87	53.09	-50.5	-52.3	14.9	0.00e+00	0	25	0	804257792	67	4355
2026-01-07 08:46:04.67	25.32	52.52	-51.0	-52.8	14.9	0.00e+00	0	25	0	811597824	68	4391
2026-01-07 08:46:08.64	22.87	51.90	-51.8	-53.9	14.7	0.00e+00	0	25	0	818937856	70	4441
2026-01-07 08:46:12.62	20.53	51.24	-52.5	-54.9	14.2	0.00e+00	0	25	0	826277888	70	4963
2026-01-07 08:46:16.60	18.29	50.53	-51.1	-53.1	14.6	0.00e+00	0	25	0	834666496	68	4500
2026-01-07 08:46:20.58	16.16	49.80	-51.5	-53.7	14.2	0.00e+00	0	25	0	842006528	68	4822
2026-01-07 08:46:24.57	14.12	49.03	-52.1	-54.4	14.3	0.00e+00	0	25	0	849346560	70	4679
2026-01-07 08:46:28.56	12.19	48.24	-52.9	-55.3	14.1	0.00e+00	0	25	0	856686592	71	4920
2026-01-07 08:46:32.54	10.36	47.43	-55.9	-60.8	11.3	2.04e-04	0	25	0	864026624	77	6533
2026-01-07 08:46:36.52	8.62	46.61	-53.5	-56.0	14.0	0.00e+00	0	25	0	871366656	73	4757
2026-01-07 08:46:40.50	6.97	45.78	-53.4	-55.9	14.1	0.00e+00	0	25	0	878706688	73	4664
2026-01-07 08:46:44.47	5.41	44.94	-52.4	-54.6	14.4	0.00e+00	0	25	0	886046720	70	4796
2026-01-07 08:46:48.44	3.94	44.10	-53.5	-56.1	13.9	0.00e+00	0	25	0	893386752	73	4797
2026-01-07 08:46:52.43	2.53	43.25	-54.3	-57.6	13.2	0.00e+00	0	25	0	900726784	74	5395
2026-01-07 08:46:56.41	1.20	42.40	-52.5	-54.7	14.4	0.00e+00	0	25	0	908066816	71	4580
2026-01-07 08:47:00.38	359.94	41.56	-52.5	-54.9	14.1	0.00e+00	0	25	0	916455424	70	4960
2026-01-07 08:47:04.36	358.75	40.72	-54.5	-58.0	13.0	0.00e+00	0	25	0	923795456	74	5601
2026-01-07 08:47:08.36	357.60	39.88	-53.9	-57.0	13.5	0.00e+00	0	25	0	931135488	74	5021
2026-01-07 08:47:12.34	356.53	39.06	-53.7	-56.7	13.5	0.00e+00	0	25	0	938475520	73	5140
2026-01-07 08:47:16.33	355.50	38.24	-53.5	-56.4	13.7	0.00e+00	0	25	0	945815552	73	4954
2026-01-07 08:47:20.33	354.52	37.42	-53.3	-56.1	13.7	0.00e+00	0	25	0	953155584	72	5073
2026-01-07 08:47:24.31	353.59	36.63	-53.3	-56.0	13.8	0.00e+00	0	25	0	960495616	72	5018
2026-01-07 08:47:28.30	352.71	35.84	-54.4	-57.8	12.9	0.00e+00	0	25	0	968884224	73	5822
2026-01-07 08:47:32.29	351.87	35.06	-52.9	-55.2	14.3	0.00e+00	0	25	0	976224256	72	4590
2026-01-07 08:47:36.29	351.07	34.29	-53.9	-56.7	13.6	0.00e+00	0	25	0	983564288	72	5426
2026-01-07 08:47:40.28	350.30	33.54	-53.4	-56.0	14.0	0.00e+00	0	25	0	990904320	73	4707
2026-01-07 08:47:44.27	349.57	32.80	-53.1	-55.7	14.0	0.00e+00	0	25	0	998244352	72	4844
2026-01-07 08:47:48.25	348.88	32.08	-53.8	-56.6	13.5	0.00e+00	0	25	0	1005584384	72	5401
2026-01-07 08:47:52.24	348.21	31.36	-52.8	-55.0	14.3	0.00e+00	0	25	0	1012924416	71	4741
2026-01-07 08:47:56.22	347.57	30.66	-53.8	-56.5	13.7	0.00e+00	0	25	0	1020264448	73	5026
2026-01-07 08:48:00.19	346.97	29.98	-52.6	-54.8	14.4	0.00e+00	0	25	0	1028653056	71	4611
2026-01-07 08:48:04.16	346.39	29.31	-52.5	-54.6	14.5	0.00e+00	0	25	0	1035993088	71	4521
2026-01-07 08:48:08.15	345.83	28.64	-51.6	-53.5	14.7	0.00e+00	0	25	0	1043333120	69	4456
2026-01-07 08:48:12.13	345.29	27.99	-52.7	-55.0	14.1	0.00e+00	0	25	0	1050673152	70	5003
2026-01-07 08:48:16.12	344.78	27.35	-53.1	-55.6	13.9	0.00e+00	0	25	0	1058013184	71	5076
2026-01-07 08:48:20.10	344.28	26.73	-52.8	-55.1	14.3	0.00e+00	0	25	0	1065353216	71	4772
2026-01-07 08:48:24.08	343.81	26.12	-51.4	-53.2	14.9	0.00e+00	0	25	0	1072693248	69	4335
2026-01-07 08:48:28.06	343.35	25.51	-52.8	-55.1	14.1	0.00e+00	0	25	0	1080033280	70	5068
2026-01-07 08:48:32.04	342.91	24.92	-53.5	-56.0	13.8	0.00e+00	0	25	0	1087373312	72	5002
2026-01-07 08:48:36.04	342.49	24.34	-53.1	-55.5	14.1	0.00e+00	0	25	0	1095761920	72	4744
2026-01-07 08:48:40.02	342.08	23.77	-53.3	-55.9	13.8	0.00e+00	0	25	0	1103101952	72	4937
2026-01-07 08:48:44.00	341.69	23.22	-52.8	-55.1	14.3	0.00e+00	0	25	0	1110441984	72	4514
2026-01-07 08:48:47.97	341.32	22.67	-52.6	-54.8	14.3	0.00e+00	0	25	0	1117782016	71	4650
2026-01-07 08:48:51.95	340.95	22.13	-52.6	-54.7	14.4	0.00e+00	0	25	0	1125122048	71	4580
2026-01-07 08:48:55.91	340.60	21.61	-52.2	-54.2	14.5	0.00e+00	0	25	0	1132462080	70	4584
2026-01-07 08:48:59.89	340.27	21.09	-52.1	-54.2	14.5	0.00e+00	0	25	0	1139802112	70	4549
2026-01-07 08:49:03.87	339.94	20.58	-52.9	-55.3	14.1	0.00e+00	0	25	0	1147142144	71	4909
2026-01-07 08:49:07.85	339.62	20.08	-54.0	-56.9	13.4	0.00e+00	0	25	0	1155530752	73	5275
2026-01-07 08:49:11.82	339.32	19.60	-53.6	-56.4	13.7	0.00e+00	0	25	0	1162870784	73	4927
2026-01-07 08:49:15.79	339.02	19.12	-52.8	-55.1	14.3	0.00e+00	0	25	0	1170210816	72	4507
2026-01-07 08:49:19.79	338.73	18.64	-52.2	-54.3	14.4	0.00e+00	0	25	0	1177550848	70	4608
2026-01-07 08:49:23.78	338.46	18.17	-51.4	-53.2	14.8	0.00e+00	0	25	0	1184890880	69	4335
2026-01-07 08:49:27.76	338.19	17.72	-51.2	-53.0	14.7	0.00e+00	0	25	0	1192230912	68	4492
2026-01-07 08:49:31.74	337.93	17.27	-51.8	-53.8	14.4	0.00e+00	0	25	0	1199570944	68	4920
2026-01-07 08:49:35.73	337.68	16.82	-52.4	-54.6	14.3	0.00e+00	0	25	0	1206910976	70	4775
2026-01-07 08:49:39.71	337.43	16.39	-52.6	-55.0	14.1	0.00e+00	0	25	0	1215299584	70	4984
2026-01-07 08:49:43.68	337.19	15.96	-52.7	-55.1	14.0	0.00e+00	0	25	0	1222639616	70	5066
2026-01-07 08:49:47.66	336.96	15.54	-52.6	-54.9	14.1	0.00e+00	0	25	0	1229979648	70	4951
2026-01-07 08:49:51.63	336.74	15.13	-52.9	-55.4	13.9	0.00e+00	0	25	0	1237319680	71	4947
2026-01-07 08:49:55.61	336.53	14.72	-53.4	-56.1	13.5	0.00e+00	0	25	0	1244659712	71	5368
2026-01-07 08:49:59.61	336.31	14.32	-53.6	-56.4	13.5	0.00e+00	0	25	0	1251999744	72	5241
2026-01-07 08:50:03.59	336.11	13.92	-53.2	-55.9	13.8	0.00e+00	0	25	0	1259339776	72	4948
2026-01-07 08:50:07.58	335.91	13.53	-52.9	-55.4	14.1	0.00e+00	0	25	0	1266679808	72	4662
2026-01-07 08:50:11.56	335.72	13.15	-52.3	-54.5	14.4	0.00e+00	0	25	0	1274019840	71	4450
2026-01-07 08:50:15.54	335.53	12.77	-52.2	-54.4	14.3	0.00e+00	0	25	0	1282408448	70	4667
2026-01-07 08:50:19.51	335.35	12.40	-52.3	-54.5	14.2	0.00e+00	0	25	0	1289748480	70	4757
2026-01-07 08:50:23.52	335.17	12.03	-52.6	-54.9	14.0	0.00e+00	0	25	0	1297088512	70	4958
2026-01-07 08:50:27.50	335.00	11.67	-52.8	-55.2	13.9	0.00e+00	0	25	0	1304428544	70	5151
2026-01-07 08:50:31.47	334.83	11.31	-52.8	-55.3	13.9	0.00e+00	0	25	0	1311768576	71	4886
2026-01-07 08:50:35.46	334.66	10.96	-53.0	-55.5	13.8	0.00e+00	0	25	0	1319108608	71	5032
2026-01-07 08:50:39.46	334.50	10.61	-52.9	-55.4	13.9	0.00e+00	0	25	0	1326448640	71	4932
2026-01-07 08:50:43.46	334.35	10.27	-53.0	-55.6	13.8	0.00e+00	0	25	0	1334837248	71	5047
2026-01-07 08:50:47.43	334.19	9.93	-53.0	-55.5	13.8	0.00e+00	0	25	0	1342177280	71	5026
2026-01-07 08:50:51.42	334.05	9.60	-53.0	-55.6	13.7	0.00e+00	0	25	0	1349517312	71	5087
2026-01-07 08:50:55.40	333.90	9.27	-53.4	-56.1	13.4	0.00e+00	0	25	0	1356857344	71	5394
2026-01-07 08:50:59.38	333.76	8.94	-53.5	-56.3	13.4	0.00e+00	0	25	0	1364197376	72	5183
2026-01-07 08:51:03.36	333.62	8.62	-53.5	-56.4	13.3	0.00e+00	0	25	0	1371537408	72	5243
2026-01-07 08:51:07.34	333.49	8.30	-53.7	-56.7	13.1	0.00e+00	0	25	0	1378877440	72	5447
2026-01-07 08:51:11.33	333.36	7.99	-54.0	-57.2	12.9	0.00e+00	0	25	0	1386217472	73	5421
2026-01-07 08:51:15.32	333.23	7.68	-54.0	-57.3	12.9	0.00e+00	0	25	0	1393557504	73	5489
2026-01-07 08:51:19.32	333.11	7.37	-54.0	-57.4	12.8	0.00e+00	0	25	0	1401946112	73	5544
2026-01-07 08:51:23.30	332.99	7.07	-54.0	-57.3	12.8	0.00e+00	0	25	0	1409286144	73	5523
2026-01-07 08:51:27.29	332.87	6.76	-54.2	-57.6	12.6	0.00e+00	0	25	0	1416626176	73	5701
2026-01-07 08:51:31.29	332.75	6.47	-54.2	-57.7	12.5	7.00e-07	0	25	0	1423966208	73	5746
2026-01-07 08:51:35.27	332.64	6.17	-54.2	-57.8	12.5	0.00e+00	0	25	0	1431306240	73	5795
2026-01-07 08:51:39.24	332.53	5.89	-54.5	-58.2	12.2	0.00e+00	0	25	0	1438646272	74	5786
2026-01-07 08:51:43.21	332.42	5.60	-54.5	-58.2	12.2	1.50e-06	0	25	0	1445986304	74	5759
2026-01-07 08:51:47.20	332.31	5.31	-54.3	-57.9	12.4	0.00e+00	0	25	0	1453326336	74	5588
2026-01-07 08:51:51.18	332.21	5.03	-54.3	-57.9	12.3	0.00e+00	0	25	0	1461714944	74	5552
2026-01-07 08:51:55.20	332.11	4.75	-59.1	-75.1	3.8	1.49e+00	0	25	104	1462763520	83	24115
2026-01-07 08:51:59.21	332.01	4.48	-59.8	-75.9	3.8	1.49e+00	0	25	104	1462763520	84	24788
2026-01-07 08:52:03.23	331.91	4.20	-60.1	-76.1	3.8	1.49e+00	0	25	104	1462763520	85	24091
2026-01-07 08:52:07.25	331.81	3.93	-60.1	-76.2	3.8	1.49e+00	0	25	104	1462763520	85	24342
2026-01-07 08:52:11.27	331.72	3.66	-60.2	-76.3	3.8	1.49e+00	0	25	104	1462763520	85	24642
2026-01-07 08:52:15.27	331.63	3.39	-60.2	-76.3	3.8	1.49e+00	0	26	104	1462763520	85	24518
2026-01-07 08:52:19.24	331.54	3.13	-60.2	-76.2	3.8	1.49e+00	0	25	104	1462763520	85	24390
2026-01-07 08:52:23.22	331.45	2.87	-60.1	-76.2	3.8	1.49e+00	0	26	104	1462763520	85	24342
2026-01-07 08:52:27.20	331.37	2.61	-60.1	-76.2	3.8	1.49e+00	0	25	104	1462763520	85	24199
2026-01-07 08:52:31.19	331.28	2.36	-60.1	-76.2	3.8	1.49e+00	0	25	104	1462763520	85	24181
2026-01-07 08:52:35.19	331.20	2.10	-60.0	-76.1	3.8	1.49e+00	0	25	104	1462763520	85	23987

#Closed at: 2026-01-07 08:52:37
#Recorded file [1462 MB]: D:/lorett/data/31004_260107_113826.dat