passes_logs/2026/01/07/R3.2S_Murmansk/R3.2S_Murmansk__20260107_122209_NOAA_20_JPSS-1_rec.log

#Pass ID: 20260107_122209_NOAA 20 (JPSS-1)
#Satellite: NOAA 20 (JPSS-1)
#Configuration: NOAA 20
#almurnet v.1.7.20251203
#Start time: 2026-01-07 12:22:09

#Version: 2.2.20231116
#Station: R3.2S_Murmansk
#Location: 33.079688 lon 68.888172 lat
#TLE: 1 43013U 17073A   26006.30790171  .00000126  00000+0  80695-4 0  9991
#TLE: 2 43013  98.7629 307.3394 0001808  51.8724 308.2615 14.19533762421505

#Time	Az	El	Level	Level2	SNR	BER	BlckErr	Temp	State	Recorded	gain1	gain2
2026-01-07 12:22:09.34	224.64	2.00	-57.9	-73.9	3.8	1.49e+00	0	23	0	0	82	22201
2026-01-07 12:22:12.38	224.89	2.15	-57.8	-73.9	3.8	1.49e+00	0	23	104	0	80	24784
2026-01-07 12:22:15.40	225.15	2.31	-57.8	-73.8	3.8	1.49e+00	0	23	104	0	80	24630
2026-01-07 12:22:18.44	225.41	2.46	-57.8	-73.8	3.8	1.49e+00	0	23	104	0	80	24501
2026-01-07 12:22:21.46	225.66	2.62	-57.8	-73.8	3.8	1.49e+00	0	23	104	0	80	24586
2026-01-07 12:22:24.48	225.93	2.78	-57.8	-73.8	3.8	1.49e+00	0	24	104	0	80	24677
2026-01-07 12:22:27.51	226.19	2.94	-57.8	-73.9	3.8	1.49e+00	0	23	104	0	80	24735
2026-01-07 12:22:30.53	226.46	3.09	-57.8	-73.8	3.8	1.49e+00	0	24	104	0	80	24669
2026-01-07 12:22:33.56	226.73	3.25	-57.8	-73.7	3.8	1.49e+00	0	24	104	0	80	24323
2026-01-07 12:22:36.59	227.00	3.41	-57.8	-73.8	3.8	1.49e+00	0	24	104	0	80	24481
2026-01-07 12:22:39.62	227.28	3.57	-57.8	-73.9	3.8	1.49e+00	0	24	104	0	80	24743
2026-01-07 12:22:42.64	227.55	3.73	-57.8	-73.8	3.8	1.49e+00	0	24	104	0	80	24548
2026-01-07 12:22:45.66	227.83	3.89	-57.8	-73.6	3.8	1.49e+00	0	24	104	0	80	23946
2026-01-07 12:22:48.69	228.12	4.05	-57.8	-73.6	3.8	1.49e+00	0	24	104	0	80	23925
2026-01-07 12:22:51.71	228.41	4.21	-57.8	-73.4	3.8	1.49e+00	0	24	104	0	80	23391
2026-01-07 12:22:54.74	228.70	4.37	-57.8	-73.7	3.8	1.49e+00	0	24	104	0	80	24360
2026-01-07 12:22:57.76	228.99	4.53	-57.8	-73.2	3.8	1.49e+00	0	24	104	0	80	22790
2026-01-07 12:23:00.79	229.29	4.69	-57.7	-71.4	3.8	1.48e+00	0	24	104	0	80	18635
2026-01-07 12:23:03.82	229.59	4.85	-57.7	-71.4	4.0	1.48e+00	0	24	0	0	80	18657
2026-01-07 12:23:06.84	229.89	5.02	-57.3	-66.4	6.1	3.48e-01	0	24	0	3145728	80	10497
2026-01-07 12:23:09.86	230.19	5.18	-56.6	-63.0	8.9	1.97e-01	0	24	0	6291456	79	7490
2026-01-07 12:23:12.89	230.50	5.34	-54.2	-57.2	13.1	0.00e+00	0	24	0	9437184	74	5143
2026-01-07 12:23:15.91	230.82	5.51	-54.3	-57.4	13.0	0.00e+00	0	25	0	14680064	74	5257
2026-01-07 12:23:18.94	231.13	5.67	-54.1	-57.1	13.2	0.00e+00	0	24	0	20971520	74	5069
2026-01-07 12:23:21.96	231.45	5.83	-54.2	-57.2	13.2	0.00e+00	0	25	0	26214400	74	5104
2026-01-07 12:23:24.97	231.77	6.00	-54.1	-57.1	13.2	0.00e+00	0	25	0	31457280	74	5073
2026-01-07 12:23:27.99	232.10	6.16	-54.1	-56.9	13.3	0.00e+00	0	24	0	37748736	74	4975
2026-01-07 12:23:31.01	232.43	6.32	-54.0	-56.8	13.5	0.00e+00	0	24	0	42991616	74	4885
2026-01-07 12:23:34.04	232.76	6.49	-54.0	-56.8	13.4	0.00e+00	0	24	0	49283072	74	4923
2026-01-07 12:23:37.06	233.10	6.66	-53.9	-56.7	13.5	0.00e+00	0	25	0	54525952	74	4826
2026-01-07 12:23:40.08	233.44	6.82	-54.0	-56.8	13.5	0.00e+00	0	25	0	59768832	74	4888
2026-01-07 12:23:43.11	233.78	6.99	-53.9	-56.7	13.6	0.00e+00	0	24	0	66060288	74	4836
2026-01-07 12:23:46.13	234.13	7.15	-53.8	-56.6	13.7	0.00e+00	0	24	0	71303168	74	4771
2026-01-07 12:23:49.14	234.48	7.32	-53.5	-56.2	13.7	0.00e+00	0	25	0	77594624	73	4835
2026-01-07 12:23:52.17	234.84	7.48	-53.5	-56.1	13.8	0.00e+00	0	25	0	82837504	73	4782
2026-01-07 12:23:55.19	235.19	7.65	-53.0	-55.6	14.0	0.00e+00	0	25	0	88080384	72	4787
2026-01-07 12:23:58.21	235.56	7.82	-52.9	-55.6	14.1	0.00e+00	0	25	0	94371840	72	4771
2026-01-07 12:24:01.23	235.92	7.98	-53.0	-55.5	14.1	0.00e+00	0	25	0	99614720	72	4710
2026-01-07 12:24:04.26	236.30	8.15	-53.1	-55.5	14.0	0.00e+00	0	25	0	105906176	72	4729
2026-01-07 12:24:07.29	236.67	8.32	-52.9	-55.3	14.2	0.00e+00	0	25	0	111149056	72	4649
2026-01-07 12:24:10.31	237.05	8.48	-52.9	-55.4	14.1	0.00e+00	0	25	0	116391936	72	4658
2026-01-07 12:24:13.33	237.44	8.65	-52.9	-55.3	14.2	0.00e+00	0	25	0	122683392	72	4651
2026-01-07 12:24:16.35	237.82	8.82	-53.1	-55.5	14.1	0.00e+00	0	25	0	127926272	72	4728
2026-01-07 12:24:19.37	238.22	8.98	-53.0	-55.5	14.1	0.00e+00	0	25	0	134217728	72	4746
2026-01-07 12:24:22.40	238.61	9.15	-53.1	-55.5	14.1	0.00e+00	0	25	0	139460608	72	4751
2026-01-07 12:24:25.42	239.02	9.32	-52.9	-55.4	14.1	0.00e+00	0	25	0	144703488	72	4680
2026-01-07 12:24:28.44	239.42	9.48	-52.8	-55.2	14.3	0.00e+00	0	25	0	150994944	72	4591
2026-01-07 12:24:31.46	239.83	9.65	-52.9	-55.3	14.2	0.00e+00	0	25	0	156237824	72	4650
2026-01-07 12:24:34.49	240.25	9.82	-52.9	-55.3	14.2	0.00e+00	0	25	0	162529280	72	4643
2026-01-07 12:24:37.51	240.66	9.98	-52.9	-55.4	14.2	0.00e+00	0	25	0	167772160	72	4676
2026-01-07 12:24:40.53	241.09	10.15	-52.7	-55.3	14.3	0.00e+00	0	25	0	173015040	72	4606
2026-01-07 12:24:43.55	241.52	10.31	-52.5	-55.0	14.3	0.00e+00	0	25	0	179306496	71	4742
2026-01-07 12:24:46.57	241.95	10.48	-52.6	-55.0	14.3	0.00e+00	0	25	0	184549376	71	4754
2026-01-07 12:24:49.59	242.39	10.64	-52.7	-55.0	14.3	0.00e+00	0	25	0	190840832	71	4747
2026-01-07 12:24:52.62	242.83	10.81	-52.8	-55.1	14.2	0.00e+00	0	25	0	196083712	71	4796
2026-01-07 12:24:55.63	243.27	10.97	-52.7	-54.9	14.3	0.00e+00	0	25	0	201326592	71	4678
2026-01-07 12:24:58.66	243.73	11.14	-52.6	-54.8	14.4	0.00e+00	0	25	0	207618048	71	4601
2026-01-07 12:25:01.68	244.18	11.30	-52.6	-54.6	14.4	0.00e+00	0	25	0	212860928	71	4545
2026-01-07 12:25:04.70	244.65	11.46	-52.5	-54.5	14.5	0.00e+00	0	25	0	219152384	71	4482
2026-01-07 12:25:07.72	245.11	11.62	-52.3	-54.2	14.7	0.00e+00	0	25	0	224395264	71	4337
2026-01-07 12:25:10.74	245.58	11.78	-52.2	-54.2	14.7	0.00e+00	0	25	0	229638144	71	4322
2026-01-07 12:25:13.77	246.06	11.95	-52.1	-54.0	14.6	0.00e+00	0	25	0	235929600	70	4481
2026-01-07 12:25:16.79	246.54	12.11	-51.9	-53.8	14.8	0.00e+00	0	25	0	241172480	70	4382
2026-01-07 12:25:19.81	247.03	12.26	-51.8	-53.7	14.8	0.00e+00	0	25	0	247463936	70	4306
2026-01-07 12:25:22.84	247.52	12.42	-51.7	-53.7	14.8	0.00e+00	0	25	0	252706816	70	4302
2026-01-07 12:25:25.86	248.02	12.58	-51.8	-53.8	14.8	0.00e+00	0	25	0	258998272	70	4388
2026-01-07 12:25:28.88	248.52	12.74	-51.6	-53.7	14.9	0.00e+00	0	25	0	264241152	69	4570
2026-01-07 12:25:31.90	249.03	12.89	-51.4	-53.4	14.9	0.00e+00	0	25	0	269484032	69	4437
2026-01-07 12:25:34.93	249.54	13.05	-51.3	-53.4	14.9	0.00e+00	0	25	0	275775488	69	4425
2026-01-07 12:25:37.96	250.06	13.20	-51.5	-53.7	14.8	0.00e+00	0	25	0	281018368	69	4553
2026-01-07 12:25:40.98	250.59	13.35	-51.5	-53.7	14.8	0.00e+00	0	25	0	287309824	69	4554
2026-01-07 12:25:44.00	251.11	13.50	-51.5	-53.8	14.8	0.00e+00	0	25	0	292552704	69	4634
2026-01-07 12:25:47.03	251.65	13.65	-51.3	-53.5	14.9	0.00e+00	0	25	0	297795584	69	4477
2026-01-07 12:25:50.05	252.19	13.80	-51.5	-53.7	14.8	0.00e+00	0	25	0	304087040	69	4592
2026-01-07 12:25:53.07	252.73	13.95	-51.5	-53.8	14.7	0.00e+00	0	25	0	309329920	69	4614
2026-01-07 12:25:56.09	253.28	14.09	-51.6	-53.9	14.7	0.00e+00	0	25	0	315621376	69	4683
2026-01-07 12:25:59.11	253.83	14.24	-51.7	-54.1	14.6	0.00e+00	0	25	0	320864256	69	4760
2026-01-07 12:26:02.13	254.39	14.38	-52.0	-54.5	14.4	0.00e+00	0	25	0	326107136	69	4993
2026-01-07 12:26:05.15	254.96	14.52	-52.2	-54.6	14.3	0.00e+00	0	25	0	332398592	69	5074
2026-01-07 12:26:08.17	255.52	14.66	-52.3	-55.0	14.1	0.00e+00	0	25	0	337641472	69	5290
2026-01-07 12:26:11.19	256.10	14.79	-52.5	-55.1	14.2	0.00e+00	0	25	0	343932928	70	5062
2026-01-07 12:26:14.20	256.68	14.93	-52.7	-55.3	14.1	0.00e+00	0	25	0	349175808	70	5178
2026-01-07 12:26:17.22	257.26	15.06	-52.8	-55.4	14.0	0.00e+00	0	25	0	354418688	70	5274
2026-01-07 12:26:20.25	257.85	15.19	-52.8	-55.5	14.0	0.00e+00	0	25	0	360710144	70	5281
2026-01-07 12:26:23.27	258.45	15.32	-53.0	-55.6	14.0	0.00e+00	0	25	0	365953024	71	5074
2026-01-07 12:26:26.29	259.05	15.45	-53.2	-56.0	13.8	0.00e+00	0	25	0	372244480	71	5295
2026-01-07 12:26:29.32	259.65	15.57	-53.4	-56.2	13.8	0.00e+00	0	25	0	377487360	72	5104
2026-01-07 12:26:32.33	260.26	15.69	-53.5	-56.2	13.8	0.00e+00	0	25	0	382730240	72	5122
2026-01-07 12:26:35.36	260.88	15.81	-53.3	-55.9	14.0	0.00e+00	0	25	0	389021696	72	4970
2026-01-07 12:26:38.38	261.49	15.93	-53.3	-55.8	14.0	0.00e+00	0	25	0	394264576	72	4903
2026-01-07 12:26:41.40	262.12	16.04	-53.2	-55.7	14.1	0.00e+00	0	25	0	400556032	72	4828
2026-01-07 12:26:44.42	262.75	16.15	-53.0	-55.4	14.2	0.00e+00	0	25	0	405798912	72	4694
2026-01-07 12:26:47.44	263.38	16.26	-52.8	-55.1	14.4	0.00e+00	0	25	0	411041792	72	4512
2026-01-07 12:26:50.46	264.01	16.36	-52.6	-54.8	14.4	0.00e+00	0	25	0	417333248	71	4634
2026-01-07 12:26:53.49	264.66	16.47	-52.4	-54.5	14.6	0.00e+00	0	25	0	422576128	71	4469
2026-01-07 12:26:56.52	265.30	16.57	-52.2	-54.3	14.7	0.00e+00	0	25	0	428867584	71	4353
2026-01-07 12:26:59.54	265.95	16.66	-52.0	-53.9	14.7	0.00e+00	0	25	0	434110464	70	4439
2026-01-07 12:27:02.56	266.61	16.76	-52.0	-54.0	14.7	0.00e+00	0	25	0	439353344	70	4463
2026-01-07 12:27:05.58	267.26	16.85	-52.1	-54.1	14.7	0.00e+00	0	25	0	445644800	70	4507
2026-01-07 12:27:08.61	267.93	16.93	-52.2	-54.3	14.6	0.00e+00	0	25	0	450887680	70	4626
2026-01-07 12:27:11.63	268.59	17.02	-52.3	-54.5	14.5	0.00e+00	0	25	0	457179136	70	4711
2026-01-07 12:27:14.65	269.26	17.10	-52.5	-54.7	14.4	0.00e+00	0	25	0	462422016	70	4834
2026-01-07 12:27:17.65	269.92	17.17	-52.4	-54.6	14.4	0.00e+00	0	25	0	467664896	70	4767
2026-01-07 12:27:20.67	270.60	17.25	-52.3	-54.4	14.5	0.00e+00	0	25	0	473956352	70	4686
2026-01-07 12:27:23.70	271.28	17.32	-52.6	-54.8	14.3	0.00e+00	0	25	0	479199232	70	4875
2026-01-07 12:27:26.72	271.96	17.38	-52.6	-54.8	14.3	0.00e+00	0	25	0	485490688	70	4892
2026-01-07 12:27:29.74	272.64	17.44	-52.6	-54.7	14.4	0.00e+00	0	25	0	490733568	70	4846
2026-01-07 12:27:32.76	273.33	17.50	-52.7	-54.8	14.3	0.00e+00	0	25	0	495976448	70	4902
2026-01-07 12:27:35.79	274.02	17.56	-52.7	-54.8	14.3	0.00e+00	0	25	0	502267904	70	4902
2026-01-07 12:27:38.81	274.71	17.61	-52.5	-54.6	14.4	0.00e+00	0	25	0	507510784	70	4804
2026-01-07 12:27:41.83	275.40	17.65	-52.6	-54.8	14.3	0.00e+00	0	25	0	513802240	70	4891
2026-01-07 12:27:44.85	276.09	17.70	-52.7	-54.8	14.3	0.00e+00	0	25	0	519045120	70	4883
2026-01-07 12:27:47.86	276.79	17.74	-52.5	-54.5	14.4	0.00e+00	0	25	0	524288000	70	4706
2026-01-07 12:27:50.88	277.49	17.77	-52.5	-54.5	14.4	0.00e+00	0	25	0	530579456	70	4758
2026-01-07 12:27:53.91	278.19	17.80	-52.8	-54.9	14.3	0.00e+00	0	25	0	535822336	70	4927
2026-01-07 12:27:56.94	278.89	17.83	-53.2	-55.4	14.1	0.00e+00	0	25	0	542113792	71	4979
2026-01-07 12:27:59.97	279.59	17.85	-53.4	-55.6	14.2	0.00e+00	0	25	0	547356672	72	4802
2026-01-07 12:28:02.98	280.30	17.87	-53.1	-55.2	14.4	0.00e+00	0	25	0	552599552	72	4577
2026-01-07 12:28:06.00	281.00	17.88	-52.9	-55.0	14.5	0.00e+00	0	25	0	558891008	72	4448
2026-01-07 12:28:09.03	281.70	17.89	-53.1	-55.2	14.3	0.00e+00	0	25	0	564133888	72	4575
2026-01-07 12:28:12.04	282.41	17.90	-53.2	-55.4	14.2	0.00e+00	0	25	0	570425344	72	4671
2026-01-07 12:28:15.06	283.11	17.90	-53.1	-55.2	14.3	0.00e+00	0	25	0	575668224	72	4578
2026-01-07 12:28:18.08	283.81	17.90	-53.1	-55.1	14.4	0.00e+00	0	25	0	580911104	72	4542
2026-01-07 12:28:21.11	284.52	17.89	-53.0	-55.0	14.5	0.00e+00	0	25	0	587202560	72	4446
2026-01-07 12:28:24.14	285.23	17.88	-53.0	-55.0	14.4	0.00e+00	0	25	0	592445440	72	4489
2026-01-07 12:28:27.16	285.93	17.87	-53.1	-55.1	14.4	0.00e+00	0	25	0	598736896	72	4536
2026-01-07 12:28:30.18	286.63	17.85	-52.9	-54.9	14.5	0.00e+00	0	25	0	603979776	72	4440
2026-01-07 12:28:33.20	287.33	17.83	-52.8	-54.8	14.6	0.00e+00	0	25	0	610271232	72	4348
2026-01-07 12:28:36.23	288.03	17.80	-52.8	-54.7	14.6	0.00e+00	0	25	0	615514112	72	4317
2026-01-07 12:28:39.26	288.74	17.77	-52.7	-54.6	14.7	0.00e+00	0	25	0	620756992	72	4286
2026-01-07 12:28:42.28	289.43	17.73	-52.9	-54.9	14.5	0.00e+00	0	25	0	627048448	72	4438
2026-01-07 12:28:45.30	290.13	17.69	-53.1	-55.1	14.4	0.00e+00	0	25	0	632291328	72	4544
2026-01-07 12:28:48.32	290.82	17.65	-52.9	-54.9	14.5	0.00e+00	0	25	0	638582784	72	4404
2026-01-07 12:28:51.34	291.51	17.60	-52.4	-54.3	14.7	0.00e+00	0	25	0	643825664	71	4351
2026-01-07 12:28:54.36	292.20	17.55	-52.2	-54.1	14.8	0.00e+00	0	25	0	649068544	71	4247
2026-01-07 12:28:57.37	292.89	17.50	-52.4	-54.2	14.7	0.00e+00	0	25	0	655360000	71	4317
2026-01-07 12:29:00.40	293.57	17.44	-52.3	-54.1	14.8	0.00e+00	0	25	0	660602880	71	4291
2026-01-07 12:29:03.42	294.25	17.38	-52.4	-54.2	14.7	0.00e+00	0	25	0	666894336	71	4316
2026-01-07 12:29:06.44	294.93	17.31	-52.1	-53.9	14.8	0.00e+00	0	25	0	672137216	70	4393
2026-01-07 12:29:09.47	295.61	17.24	-52.0	-53.8	14.8	0.00e+00	0	25	0	677380096	70	4345
2026-01-07 12:29:12.49	296.28	17.17	-51.9	-53.6	14.9	0.00e+00	0	25	0	683671552	70	4270
2026-01-07 12:29:15.51	296.95	17.09	-51.8	-53.5	14.9	0.00e+00	0	25	0	688914432	70	4232
2026-01-07 12:29:18.52	297.62	17.01	-51.8	-53.5	14.9	0.00e+00	0	25	0	695205888	70	4214
2026-01-07 12:29:21.55	298.28	16.93	-52.1	-53.9	14.8	0.00e+00	0	25	0	700448768	70	4402
2026-01-07 12:29:24.56	298.94	16.84	-52.0	-53.8	14.8	0.00e+00	0	25	0	705691648	70	4376
2026-01-07 12:29:27.58	299.59	16.75	-51.8	-53.5	14.9	0.00e+00	0	25	0	711983104	70	4223
2026-01-07 12:29:30.60	300.24	16.66	-51.4	-53.1	14.9	0.00e+00	0	25	0	717225984	69	4273
2026-01-07 12:29:33.61	300.89	16.56	-51.1	-52.7	15.0	0.00e+00	0	25	0	723517440	68	4323
2026-01-07 12:29:36.64	301.53	16.46	-51.1	-52.7	15.0	0.00e+00	0	25	0	728760320	68	4330
2026-01-07 12:29:39.67	302.17	16.36	-51.3	-53.0	14.8	0.00e+00	0	25	0	734003200	68	4460
2026-01-07 12:29:42.69	302.81	16.25	-51.4	-53.0	14.8	0.00e+00	0	25	0	740294656	68	4489
2026-01-07 12:29:45.71	303.44	16.14	-51.3	-52.9	14.9	0.00e+00	0	25	0	745537536	68	4436
2026-01-07 12:29:48.73	304.06	16.03	-50.9	-52.4	15.1	0.00e+00	0	25	0	751828992	68	4193
2026-01-07 12:29:51.75	304.68	15.92	-50.8	-52.3	15.1	0.00e+00	0	25	0	757071872	68	4140
2026-01-07 12:29:54.77	305.30	15.80	-51.1	-52.8	14.9	0.00e+00	0	25	0	762314752	68	4346
2026-01-07 12:29:57.80	305.91	15.68	-51.6	-53.4	14.7	0.00e+00	0	25	0	768606208	68	4656
2026-01-07 12:30:00.82	306.52	15.56	-51.6	-53.4	14.7	0.00e+00	0	25	0	773849088	68	4672
2026-01-07 12:30:03.84	307.12	15.44	-51.6	-53.4	14.6	0.00e+00	0	25	0	780140544	68	4668
2026-01-07 12:30:06.87	307.72	15.31	-51.6	-53.4	14.7	0.00e+00	0	25	0	785383424	68	4676
2026-01-07 12:30:09.89	308.31	15.19	-51.3	-53.0	14.8	0.00e+00	0	25	0	790626304	68	4454
2026-01-07 12:30:12.91	308.90	15.06	-51.7	-53.4	14.6	0.00e+00	0	25	0	796917760	68	4704
2026-01-07 12:30:15.94	309.48	14.92	-52.5	-54.5	14.4	0.00e+00	0	25	0	802160640	70	4710
2026-01-07 12:30:18.96	310.06	14.79	-53.0	-55.1	14.2	0.00e+00	0	25	0	808452096	71	4803
2026-01-07 12:30:21.98	310.63	14.65	-53.1	-55.3	14.1	0.00e+00	0	25	0	813694976	71	4890
2026-01-07 12:30:25.00	311.20	14.52	-53.1	-55.3	14.1	0.00e+00	0	25	0	818937856	71	4902
2026-01-07 12:30:28.03	311.76	14.38	-53.0	-55.1	14.2	0.00e+00	0	25	0	825229312	71	4800
2026-01-07 12:30:31.05	312.31	14.23	-53.0	-55.1	14.2	0.00e+00	0	25	0	830472192	71	4788
2026-01-07 12:30:34.07	312.87	14.09	-52.8	-54.8	14.3	0.00e+00	0	25	0	836763648	71	4637
2026-01-07 12:30:37.10	313.41	13.95	-53.1	-55.3	14.1	0.00e+00	0	25	0	842006528	71	4916
2026-01-07 12:30:40.12	313.95	13.80	-53.3	-55.6	13.9	0.00e+00	0	25	0	847249408	71	5089
2026-01-07 12:30:43.13	314.49	13.65	-53.5	-55.9	13.9	0.00e+00	0	25	0	853540864	72	4959
2026-01-07 12:30:46.16	315.02	13.51	-53.4	-55.7	14.0	0.00e+00	0	25	0	858783744	72	4844
2026-01-07 12:30:49.17	315.54	13.36	-53.3	-55.6	14.1	0.00e+00	0	25	0	865075200	72	4764
2026-01-07 12:30:52.19	316.06	13.21	-53.1	-55.3	14.2	0.00e+00	0	25	0	870318080	72	4615
2026-01-07 12:30:55.22	316.58	13.05	-53.1	-55.3	14.2	0.00e+00	0	25	0	875560960	72	4623
2026-01-07 12:30:58.24	317.09	12.90	-53.0	-55.1	14.3	0.00e+00	0	25	0	881852416	72	4513
2026-01-07 12:31:01.26	317.60	12.75	-52.5	-54.5	14.5	0.00e+00	0	25	0	887095296	71	4444
2026-01-07 12:31:04.28	318.09	12.59	-52.4	-54.3	14.6	0.00e+00	0	25	0	893386752	71	4380
2026-01-07 12:31:07.30	318.59	12.43	-52.6	-54.6	14.4	0.00e+00	0	25	0	898629632	71	4542
2026-01-07 12:31:10.32	319.08	12.28	-52.9	-55.1	14.2	0.00e+00	0	25	0	903872512	71	4768
2026-01-07 12:31:13.35	319.56	12.12	-53.2	-55.5	13.9	0.00e+00	0	25	0	910163968	71	5031
2026-01-07 12:31:16.37	320.04	11.96	-52.9	-55.0	14.2	0.00e+00	0	25	0	915406848	71	4742
2026-01-07 12:31:19.40	320.52	11.80	-52.2	-54.2	14.6	0.00e+00	0	25	0	921698304	71	4293
2026-01-07 12:31:22.42	320.99	11.64	-52.1	-54.0	14.6	0.00e+00	0	25	0	926941184	70	4470
2026-01-07 12:31:25.43	321.45	11.48	-52.1	-54.0	14.6	0.00e+00	0	25	0	932184064	70	4488
2026-01-07 12:31:28.45	321.91	11.32	-52.2	-54.1	14.5	0.00e+00	0	25	0	938475520	70	4525
2026-01-07 12:31:31.47	322.37	11.16	-52.2	-54.1	14.5	0.00e+00	0	25	0	943718400	70	4530
2026-01-07 12:31:34.48	322.81	10.99	-52.1	-54.1	14.5	0.00e+00	0	25	0	950009856	70	4496
2026-01-07 12:31:37.50	323.26	10.83	-52.5	-54.5	14.3	0.00e+00	0	25	0	955252736	70	4752
2026-01-07 12:31:40.52	323.70	10.67	-52.5	-54.5	14.3	0.00e+00	0	25	0	960495616	70	4736
2026-01-07 12:31:43.54	324.14	10.51	-52.0	-54.0	14.6	0.00e+00	0	25	0	966787072	70	4443
2026-01-07 12:31:46.56	324.57	10.34	-52.1	-54.0	14.5	0.00e+00	0	25	0	972029952	70	4473
2026-01-07 12:31:49.58	324.99	10.18	-52.3	-54.3	14.4	0.00e+00	0	25	0	978321408	70	4645
2026-01-07 12:31:52.59	325.41	10.01	-52.6	-54.8	14.1	0.00e+00	0	25	0	983564288	70	4879
2026-01-07 12:31:55.61	325.83	9.85	-52.3	-54.4	14.3	0.00e+00	0	25	0	988807168	70	4667
2026-01-07 12:31:58.63	326.24	9.68	-52.2	-54.2	14.4	0.00e+00	0	25	0	995098624	70	4576
2026-01-07 12:32:01.65	326.65	9.52	-52.4	-54.4	14.3	0.00e+00	0	25	0	1000341504	70	4696
2026-01-07 12:32:04.67	327.05	9.35	-52.6	-54.8	14.1	0.00e+00	0	25	0	1006632960	70	4890
2026-01-07 12:32:07.69	327.45	9.19	-52.7	-54.9	14.1	0.00e+00	0	25	0	1011875840	70	4935
2026-01-07 12:32:10.72	327.85	9.02	-52.4	-54.4	14.3	0.00e+00	0	25	0	1017118720	70	4689
2026-01-07 12:32:13.74	328.24	8.86	-52.1	-54.1	14.4	0.00e+00	0	25	0	1023410176	70	4528
2026-01-07 12:32:16.77	328.63	8.69	-52.5	-54.6	14.2	0.00e+00	0	25	0	1028653056	70	4767
2026-01-07 12:32:19.79	329.01	8.53	-52.7	-55.0	14.0	0.00e+00	0	25	0	1034944512	70	4992
2026-01-07 12:32:22.81	329.39	8.36	-52.9	-55.3	14.0	0.00e+00	0	25	0	1040187392	71	4885
2026-01-07 12:32:25.83	329.76	8.20	-53.0	-55.3	14.0	0.00e+00	0	25	0	1045430272	71	4891
2026-01-07 12:32:28.85	330.13	8.03	-53.1	-55.5	13.8	0.00e+00	0	25	0	1051721728	71	5029
2026-01-07 12:32:31.87	330.50	7.87	-53.2	-55.7	13.7	0.00e+00	0	25	0	1056964608	71	5124
2026-01-07 12:32:34.90	330.86	7.70	-53.4	-55.9	13.7	0.00e+00	0	25	0	1063256064	72	4930
2026-01-07 12:32:37.92	331.22	7.54	-53.2	-55.7	13.8	0.00e+00	0	25	0	1068498944	72	4831
2026-01-07 12:32:40.95	331.58	7.37	-53.2	-55.7	13.8	0.00e+00	0	25	0	1074790400	72	4834
2026-01-07 12:32:43.97	331.93	7.21	-53.4	-56.0	13.6	0.00e+00	0	25	0	1080033280	72	5000
2026-01-07 12:32:46.99	332.27	7.04	-53.6	-56.3	13.5	0.00e+00	0	25	0	1085276160	72	5162
2026-01-07 12:32:50.01	332.62	6.88	-53.6	-56.3	13.4	0.00e+00	0	25	0	1091567616	72	5190
2026-01-07 12:32:53.03	332.96	6.71	-53.4	-56.1	13.5	0.00e+00	0	25	0	1096810496	72	5048
2026-01-07 12:32:56.06	333.29	6.55	-53.3	-55.9	13.6	0.00e+00	0	25	0	1103101952	72	4960
2026-01-07 12:32:59.08	333.62	6.39	-53.2	-55.7	13.7	0.00e+00	0	25	0	1108344832	72	4859
2026-01-07 12:33:02.10	333.95	6.22	-53.5	-56.1	13.5	0.00e+00	0	25	0	1113587712	72	5081
2026-01-07 12:33:05.13	334.28	6.06	-53.8	-56.7	13.1	0.00e+00	0	25	0	1119879168	72	5458
2026-01-07 12:33:08.15	334.60	5.90	-53.9	-56.9	13.0	0.00e+00	0	25	0	1125122048	73	5235
2026-01-07 12:33:11.18	334.92	5.74	-53.7	-56.5	13.2	0.00e+00	0	25	0	1131413504	73	5036
2026-01-07 12:33:14.20	335.24	5.57	-53.8	-56.8	13.1	0.00e+00	0	25	0	1136656384	73	5179
2026-01-07 12:33:17.21	335.55	5.41	-53.9	-57.0	13.0	0.00e+00	0	26	0	1141899264	73	5280
2026-01-07 12:33:20.23	335.85	5.25	-53.9	-56.9	13.1	0.00e+00	0	25	0	1148190720	73	5219
2026-01-07 12:33:23.26	336.16	5.09	-53.9	-57.0	12.9	0.00e+00	0	25	0	1153433600	73	5307
2026-01-07 12:33:26.29	336.46	4.93	-58.8	-74.8	3.8	1.49e+00	0	25	104	1156579328	82	24632
2026-01-07 12:33:29.31	336.76	4.77	-59.7	-75.8	3.8	1.49e+00	0	25	104	1156579328	84	24446
2026-01-07 12:33:32.33	337.06	4.61	-60.0	-76.1	3.8	1.49e+00	0	25	104	1156579328	85	23978
2026-01-07 12:33:35.34	337.35	4.45	-60.2	-76.3	3.8	1.49e+00	0	25	104	1156579328	85	24429
2026-01-07 12:33:38.37	337.64	4.29	-60.3	-76.4	3.8	1.49e+00	0	25	104	1156579328	85	24722
2026-01-07 12:33:41.40	337.93	4.13	-60.3	-76.4	3.8	1.49e+00	0	25	104	1156579328	85	24894
2026-01-07 12:33:44.42	338.21	3.97	-60.4	-76.5	3.8	1.49e+00	0	26	104	1156579328	85	25001
2026-01-07 12:33:47.45	338.49	3.81	-60.3	-76.4	3.8	1.49e+00	0	25	104	1156579328	85	24861
2026-01-07 12:33:50.47	338.77	3.66	-60.3	-76.3	3.8	1.49e+00	0	26	104	1156579328	85	24628
2026-01-07 12:33:53.49	339.05	3.50	-60.2	-76.3	3.8	1.49e+00	0	25	104	1156579328	85	24503
2026-01-07 12:33:56.51	339.32	3.34	-60.2	-76.3	3.8	1.49e+00	0	26	104	1156579328	85	24537
2026-01-07 12:33:59.54	339.59	3.18	-60.2	-76.2	3.8	1.49e+00	0	25	104	1156579328	85	24379
2026-01-07 12:34:02.56	339.86	3.03	-60.2	-76.2	3.8	1.49e+00	0	25	104	1156579328	85	24367
2026-01-07 12:34:05.58	340.12	2.87	-60.1	-76.2	3.8	1.49e+00	0	25	104	1156579328	85	24321
2026-01-07 12:34:08.61	340.38	2.72	-60.1	-76.2	3.8	1.49e+00	0	25	104	1156579328	85	24224
2026-01-07 12:34:11.64	340.64	2.56	-60.1	-76.2	3.8	1.49e+00	0	26	104	1156579328	85	24192
2026-01-07 12:34:14.66	340.90	2.41	-60.1	-76.2	3.8	1.49e+00	0	26	104	1156579328	85	24179
2026-01-07 12:34:17.69	341.16	2.25	-60.1	-76.2	3.8	1.49e+00	0	25	104	1156579328	85	24139
2026-01-07 12:34:20.71	341.41	2.10	-60.1	-76.1	3.8	1.49e+00	0	26	104	1156579328	85	24121

#Closed at: 2026-01-07 12:34:23
#Recorded file [1156 MB]: D:/lorett/data/31004_260107_152209.dat