passes_logs/2026/01/07/R3.2S_Murmansk/R3.2S_Murmansk__20260107_215204_NOAA_21_JPSS-2_rec.log

#Pass ID: 20260107_215204_NOAA 21 (JPSS-2)
#Satellite: NOAA 21 (JPSS-2)
#Configuration: NOAA-21
#almurnet v.1.7.20251203
#Start time: 2026-01-07 21:52:04

#Version: 2.2.20231116
#Station: R3.2S_Murmansk
#Location: 33.079688 lon 68.888172 lat
#TLE: 1 54234U 22150A   26005.56767909  .00000152  00000+0  92756-4 0  9990
#TLE: 2 54234  98.7490 306.5820 0001036 340.2747  19.8389 14.19532370163472

#Time	Az	El	Level	Level2	SNR	BER	BlckErr	Temp	State	Recorded	gain1	gain2
2026-01-07 21:52:04.40	18.37	2.01	-57.6	-71.3	3.8	1.49e+00	0	23	0	0	81	17410
2026-01-07 21:52:07.39	18.62	2.16	-57.6	-71.3	3.8	1.49e+00	0	23	104	0	80	18431
2026-01-07 21:52:10.38	18.87	2.31	-57.6	-71.4	3.8	1.49e+00	0	23	104	0	80	18539
2026-01-07 21:52:13.38	19.12	2.47	-57.6	-71.3	3.8	1.49e+00	0	23	104	0	80	18394
2026-01-07 21:52:16.38	19.38	2.62	-57.6	-71.2	3.8	1.49e+00	0	23	104	0	80	18203
2026-01-07 21:52:19.39	19.64	2.77	-57.6	-71.3	3.8	1.49e+00	0	23	104	0	80	18410
2026-01-07 21:52:22.40	19.90	2.93	-57.6	-71.4	3.8	1.49e+00	0	23	104	0	80	18568
2026-01-07 21:52:25.40	20.16	3.08	-57.6	-71.2	3.8	1.49e+00	0	23	104	0	80	18301
2026-01-07 21:52:28.40	20.43	3.24	-57.6	-71.4	3.8	1.49e+00	0	23	104	0	80	18606
2026-01-07 21:52:31.39	20.70	3.39	-57.6	-70.9	3.8	1.49e+00	0	23	104	0	80	17485
2026-01-07 21:52:34.38	20.97	3.55	-57.5	-70.2	3.8	1.49e+00	0	24	104	0	80	16183
2026-01-07 21:52:37.38	21.24	3.71	-57.5	-70.4	3.8	1.49e+00	0	24	104	0	80	16690
2026-01-07 21:52:40.37	21.52	3.86	-57.4	-68.4	3.9	1.48e+00	0	24	104	0	80	13131
2026-01-07 21:52:43.37	21.80	4.02	-57.1	-65.9	4.9	7.77e-01	0	24	0	1048576	80	9935
2026-01-07 21:52:46.37	22.08	4.18	-56.9	-64.3	5.9	4.22e-01	0	24	0	7340032	80	8184
2026-01-07 21:52:49.37	22.36	4.33	-54.9	-58.6	10.5	1.63e-03	0	24	0	16777216	76	5350
2026-01-07 21:52:52.38	22.65	4.49	-52.3	-54.4	13.2	0.00e+00	0	24	0	26214400	71	4412
2026-01-07 21:52:55.38	22.95	4.65	-51.7	-53.8	13.4	0.00e+00	0	24	0	35651584	69	4599
2026-01-07 21:52:58.38	23.24	4.81	-53.2	-55.9	12.2	2.20e-06	0	24	0	44040192	71	5237
2026-01-07 21:53:01.38	23.54	4.97	-55.8	-60.8	8.6	1.45e-02	0	24	0	53477376	76	6891
2026-01-07 21:53:04.37	23.84	5.13	-54.9	-58.8	10.2	3.00e-06	0	24	0	62914560	74	6201
2026-01-07 21:53:07.38	24.14	5.29	-54.5	-57.7	11.2	1.13e-03	0	24	0	70254592	75	5119
2026-01-07 21:53:10.37	24.45	5.45	-52.5	-54.8	13.0	0.00e+00	0	24	0	79691776	71	4600
2026-01-07 21:53:13.37	24.76	5.61	-51.3	-53.1	13.9	0.00e+00	0	24	0	89128960	69	4261
2026-01-07 21:53:16.38	25.07	5.77	-51.3	-53.0	13.9	0.00e+00	0	24	0	98566144	69	4239
2026-01-07 21:53:19.37	25.39	5.93	-51.4	-53.2	13.7	0.00e+00	0	24	0	106954752	68	4558
2026-01-07 21:53:22.37	25.71	6.09	-51.3	-53.1	13.8	0.00e+00	0	24	0	116391936	68	4514
2026-01-07 21:53:25.36	26.03	6.25	-51.2	-53.0	13.8	0.00e+00	0	24	0	125829120	68	4467
2026-01-07 21:53:28.35	26.36	6.42	-51.3	-53.1	13.8	0.00e+00	0	24	0	135266304	68	4510
2026-01-07 21:53:31.34	26.69	6.58	-50.9	-52.6	14.1	0.00e+00	0	24	0	144703488	68	4284
2026-01-07 21:53:34.33	27.02	6.74	-50.9	-52.6	14.1	0.00e+00	0	24	0	154140672	68	4249
2026-01-07 21:53:37.32	27.35	6.90	-50.9	-52.5	14.1	0.00e+00	0	24	0	163577856	68	4235
2026-01-07 21:53:40.30	27.69	7.06	-51.1	-52.8	14.0	0.00e+00	0	24	0	173015040	68	4369
2026-01-07 21:53:43.29	28.04	7.23	-51.0	-52.6	14.1	0.00e+00	0	24	0	182452224	68	4290
2026-01-07 21:53:46.29	28.38	7.39	-51.0	-52.7	14.0	0.00e+00	0	24	0	191889408	68	4333
2026-01-07 21:53:49.28	28.74	7.55	-50.9	-52.6	14.1	0.00e+00	0	24	0	201326592	68	4263
2026-01-07 21:53:52.29	29.09	7.72	-50.7	-52.4	14.2	0.00e+00	0	24	0	210763776	68	4146
2026-01-07 21:53:55.29	29.45	7.88	-50.4	-52.0	14.3	0.00e+00	0	24	0	219152384	67	4201
2026-01-07 21:53:58.30	29.82	8.04	-50.4	-51.9	14.3	0.00e+00	0	24	0	228589568	67	4178
2026-01-07 21:54:01.30	30.18	8.21	-50.3	-51.8	14.4	0.00e+00	0	24	0	238026752	67	4129
2026-01-07 21:54:04.30	30.56	8.37	-50.3	-51.9	14.3	0.00e+00	0	24	0	247463936	67	4169
2026-01-07 21:54:07.29	30.93	8.53	-50.2	-51.8	14.4	0.00e+00	0	24	0	256901120	67	4113
2026-01-07 21:54:10.30	31.31	8.70	-50.0	-51.5	14.4	0.00e+00	0	24	0	266338304	66	4194
2026-01-07 21:54:13.30	31.69	8.86	-49.9	-51.4	14.5	0.00e+00	0	24	0	275775488	66	4162
2026-01-07 21:54:16.29	32.08	9.03	-49.8	-51.2	14.6	0.00e+00	0	24	0	285212672	66	4090
2026-01-07 21:54:19.30	32.47	9.19	-49.8	-51.3	14.5	0.00e+00	0	25	0	294649856	66	4121
2026-01-07 21:54:22.30	32.87	9.36	-50.0	-51.5	14.4	0.00e+00	0	25	0	304087040	66	4210
2026-01-07 21:54:25.30	33.27	9.52	-50.1	-51.6	14.3	0.00e+00	0	24	0	313524224	66	4279
2026-01-07 21:54:28.27	33.67	9.68	-49.9	-51.3	14.5	0.00e+00	0	24	0	322961408	66	4144
2026-01-07 21:54:31.26	34.08	9.84	-49.8	-51.3	14.5	0.00e+00	0	25	0	332398592	66	4111
2026-01-07 21:54:34.25	34.49	10.01	-49.7	-51.2	14.5	0.00e+00	0	24	0	341835776	65	4292
2026-01-07 21:54:37.23	34.91	10.17	-49.6	-51.1	14.5	0.00e+00	0	25	0	350224384	65	4254
2026-01-07 21:54:40.22	35.33	10.33	-49.7	-51.1	14.5	0.00e+00	0	25	0	359661568	65	4288
2026-01-07 21:54:43.20	35.75	10.49	-49.6	-51.0	14.5	0.00e+00	0	24	0	369098752	65	4234
2026-01-07 21:54:46.20	36.19	10.65	-49.2	-50.6	14.7	0.00e+00	0	25	0	378535936	65	4025
2026-01-07 21:54:49.19	36.62	10.82	-49.2	-50.6	14.6	0.00e+00	0	24	0	387973120	64	4272
2026-01-07 21:54:52.19	37.06	10.98	-49.4	-50.8	14.5	0.00e+00	0	24	0	397410304	64	4348
2026-01-07 21:54:55.19	37.51	11.14	-49.5	-50.9	14.5	0.00e+00	0	25	0	406847488	64	4409
2026-01-07 21:54:58.20	37.96	11.30	-49.4	-50.8	14.5	0.00e+00	0	25	0	416284672	64	4366
2026-01-07 21:55:01.18	38.41	11.46	-49.3	-50.7	14.6	0.00e+00	0	24	0	425721856	64	4311
2026-01-07 21:55:04.19	38.87	11.62	-49.1	-50.5	14.7	0.00e+00	0	24	0	435159040	64	4211
2026-01-07 21:55:07.20	39.34	11.78	-49.0	-50.3	14.7	0.00e+00	0	25	0	444596224	64	4140
2026-01-07 21:55:10.20	39.81	11.94	-49.2	-50.5	14.6	0.00e+00	0	24	0	454033408	64	4226
2026-01-07 21:55:13.19	40.28	12.09	-49.2	-50.5	14.6	0.00e+00	0	25	0	463470592	64	4228
2026-01-07 21:55:16.20	40.76	12.25	-49.0	-50.4	14.7	0.00e+00	0	25	0	472907776	64	4164
2026-01-07 21:55:19.19	41.25	12.41	-49.1	-50.4	14.7	0.00e+00	0	25	0	481296384	64	4170
2026-01-07 21:55:22.18	41.74	12.56	-49.1	-50.4	14.7	0.00e+00	0	25	0	490733568	64	4165
2026-01-07 21:55:25.19	42.23	12.72	-49.2	-50.5	14.6	0.00e+00	0	25	0	500170752	64	4220
2026-01-07 21:55:28.19	42.73	12.87	-49.0	-50.4	14.7	0.00e+00	0	25	0	509607936	64	4162
2026-01-07 21:55:31.18	43.23	13.02	-49.1	-50.4	14.7	0.00e+00	0	25	0	519045120	64	4165
2026-01-07 21:55:34.18	43.74	13.17	-49.1	-50.4	14.7	0.00e+00	0	25	0	528482304	64	4173
2026-01-07 21:55:37.17	44.26	13.32	-49.2	-50.6	14.6	0.00e+00	0	25	0	537919488	64	4260
2026-01-07 21:55:40.15	44.77	13.47	-49.4	-50.7	14.5	0.00e+00	0	25	0	547356672	64	4340
2026-01-07 21:55:43.15	45.30	13.62	-49.4	-50.8	14.5	0.00e+00	0	25	0	556793856	64	4352
2026-01-07 21:55:46.15	45.83	13.76	-49.3	-50.7	14.6	0.00e+00	0	25	0	566231040	64	4312
2026-01-07 21:55:49.15	46.36	13.91	-49.3	-50.7	14.6	0.00e+00	0	25	0	575668224	64	4310
2026-01-07 21:55:52.14	46.90	14.05	-49.1	-50.5	14.7	0.00e+00	0	25	0	585105408	64	4208
2026-01-07 21:55:55.15	47.45	14.19	-49.0	-50.3	14.7	0.00e+00	0	25	0	594542592	64	4136
2026-01-07 21:55:58.14	48.00	14.33	-49.2	-50.6	14.6	0.00e+00	0	25	0	603979776	64	4269
2026-01-07 21:56:01.14	48.55	14.47	-49.3	-50.7	14.6	0.00e+00	0	25	0	613416960	64	4322
2026-01-07 21:56:04.14	49.11	14.61	-49.3	-50.6	14.6	0.00e+00	0	25	0	621805568	64	4268
2026-01-07 21:56:07.13	49.68	14.74	-49.0	-50.3	14.8	0.00e+00	0	25	0	631242752	64	4124
2026-01-07 21:56:10.12	50.25	14.88	-49.1	-50.4	14.7	0.00e+00	0	25	0	640679936	64	4160
2026-01-07 21:56:13.12	50.82	15.01	-49.2	-50.5	14.7	0.00e+00	0	25	0	650117120	64	4227
2026-01-07 21:56:16.11	51.40	15.14	-49.2	-50.6	14.6	0.00e+00	0	25	0	659554304	64	4269
2026-01-07 21:56:19.12	51.99	15.27	-48.9	-50.2	14.8	0.00e+00	0	25	0	668991488	64	4098
2026-01-07 21:56:22.11	52.58	15.39	-48.8	-50.1	14.9	0.00e+00	0	25	0	678428672	64	4010
2026-01-07 21:56:25.11	53.17	15.51	-48.9	-50.2	14.8	0.00e+00	0	25	0	687865856	64	4059
2026-01-07 21:56:28.10	53.77	15.64	-49.1	-50.4	14.7	0.00e+00	0	25	0	697303040	64	4181
2026-01-07 21:56:31.10	54.37	15.75	-48.8	-50.2	14.8	0.00e+00	0	25	0	706740224	64	4054
2026-01-07 21:56:34.10	54.98	15.87	-48.6	-49.9	14.8	0.00e+00	0	25	0	716177408	63	4166
2026-01-07 21:56:37.08	55.59	15.98	-48.7	-50.0	14.8	0.00e+00	0	25	0	725614592	63	4211
2026-01-07 21:56:40.08	56.21	16.09	-48.7	-50.0	14.7	0.00e+00	0	25	0	735051776	63	4217
2026-01-07 21:56:43.07	56.83	16.20	-48.8	-50.1	14.7	0.00e+00	0	25	0	744488960	63	4273
2026-01-07 21:56:46.05	57.45	16.31	-48.7	-50.0	14.8	0.00e+00	0	25	0	752877568	63	4221
2026-01-07 21:56:49.05	58.08	16.41	-48.5	-49.8	14.8	0.00e+00	0	25	0	762314752	63	4122
2026-01-07 21:56:52.03	58.71	16.51	-48.5	-49.7	14.9	0.00e+00	0	25	0	771751936	63	4093
2026-01-07 21:56:55.02	59.35	16.61	-48.6	-49.9	14.8	0.00e+00	0	25	0	781189120	63	4168
2026-01-07 21:56:58.02	59.99	16.70	-48.5	-49.8	14.9	0.00e+00	0	25	0	790626304	63	4118
2026-01-07 21:57:01.01	60.64	16.79	-48.5	-49.7	14.9	0.00e+00	0	25	0	800063488	63	4085
2026-01-07 21:57:03.99	61.29	16.88	-48.4	-49.6	14.9	0.00e+00	0	25	0	809500672	63	4051
2026-01-07 21:57:06.98	61.94	16.96	-48.4	-49.6	14.9	0.00e+00	0	25	0	818937856	63	4037
2026-01-07 21:57:09.97	62.59	17.04	-48.4	-49.6	14.9	0.00e+00	0	25	0	828375040	63	4030
2026-01-07 21:57:12.95	63.25	17.12	-48.4	-49.7	14.9	0.00e+00	0	25	0	837812224	63	4063
2026-01-07 21:57:15.93	63.91	17.20	-48.4	-49.7	14.9	0.00e+00	0	24	0	846200832	63	4067
2026-01-07 21:57:18.93	64.58	17.27	-48.4	-49.7	14.9	0.00e+00	0	25	0	855638016	63	4065
2026-01-07 21:57:21.93	65.25	17.33	-48.3	-49.6	15.0	0.00e+00	0	25	0	865075200	63	4017
2026-01-07 21:57:24.92	65.92	17.40	-48.6	-49.8	14.8	0.00e+00	0	25	0	874512384	63	4142
2026-01-07 21:57:27.92	66.60	17.46	-48.7	-50.0	14.8	0.00e+00	0	25	0	883949568	63	4216
2026-01-07 21:57:30.91	67.28	17.52	-48.6	-49.9	14.8	0.00e+00	0	25	0	893386752	63	4173
2026-01-07 21:57:33.90	67.96	17.57	-48.7	-50.0	14.8	0.00e+00	0	25	0	902823936	63	4216
2026-01-07 21:57:36.88	68.64	17.62	-48.7	-50.0	14.8	0.00e+00	0	25	0	912261120	63	4200
2026-01-07 21:57:39.88	69.32	17.66	-48.4	-49.6	14.9	0.00e+00	0	25	0	921698304	63	4019
2026-01-07 21:57:42.86	70.01	17.70	-48.6	-49.8	14.8	0.00e+00	0	25	0	931135488	63	4145
2026-01-07 21:57:45.85	70.69	17.74	-48.5	-49.8	14.9	0.00e+00	0	25	0	940572672	63	4102
2026-01-07 21:57:48.84	71.38	17.77	-48.6	-49.9	14.8	0.00e+00	0	25	0	948961280	63	4172
2026-01-07 21:57:51.82	72.07	17.80	-48.6	-49.9	14.8	0.00e+00	0	25	0	958398464	63	4171
2026-01-07 21:57:54.83	72.77	17.83	-48.6	-49.8	14.9	0.00e+00	0	25	0	967835648	63	4124
2026-01-07 21:57:57.80	73.46	17.85	-48.5	-49.8	14.9	0.00e+00	0	25	0	977272832	63	4110
2026-01-07 21:58:00.79	74.15	17.87	-48.6	-49.8	14.9	0.00e+00	0	25	0	986710016	63	4127
2026-01-07 21:58:03.80	74.85	17.88	-48.5	-49.7	14.9	0.00e+00	0	25	0	996147200	63	4072
2026-01-07 21:58:06.81	75.55	17.89	-48.3	-49.6	14.9	0.00e+00	0	25	0	1005584384	63	4017
2026-01-07 21:58:09.80	76.24	17.90	-48.4	-49.6	15.0	0.00e+00	0	25	0	1015021568	63	4028
2026-01-07 21:58:12.79	76.94	17.90	-48.4	-49.7	14.9	0.00e+00	0	25	0	1024458752	63	4061
2026-01-07 21:58:15.79	77.64	17.90	-48.5	-49.8	14.9	0.00e+00	0	25	0	1033895936	63	4112
2026-01-07 21:58:18.78	78.33	17.89	-48.5	-49.8	14.9	0.00e+00	0	25	0	1043333120	63	4100
2026-01-07 21:58:21.78	79.03	17.88	-48.6	-49.9	14.8	0.00e+00	0	25	0	1052770304	63	4170
2026-01-07 21:58:24.78	79.73	17.87	-48.7	-50.0	14.8	0.00e+00	0	25	0	1062207488	63	4210
2026-01-07 21:58:27.78	80.42	17.85	-48.5	-49.8	14.9	0.00e+00	0	25	0	1071644672	63	4114
2026-01-07 21:58:30.78	81.12	17.82	-48.7	-50.0	14.8	0.00e+00	0	25	0	1080033280	63	4217
2026-01-07 21:58:33.77	81.81	17.80	-48.4	-49.6	14.9	0.00e+00	0	25	0	1089470464	63	4046
2026-01-07 21:58:36.76	82.50	17.77	-48.5	-49.8	14.8	0.00e+00	0	25	0	1098907648	63	4115
2026-01-07 21:58:39.74	83.19	17.73	-48.7	-50.1	14.8	0.00e+00	0	25	0	1108344832	63	4243
2026-01-07 21:58:42.73	83.88	17.69	-48.6	-49.9	14.8	0.00e+00	0	25	0	1117782016	63	4157
2026-01-07 21:58:45.74	84.57	17.65	-48.5	-49.7	14.9	0.00e+00	0	25	0	1127219200	63	4081
2026-01-07 21:58:48.72	85.25	17.60	-48.4	-49.6	14.9	0.00e+00	0	25	0	1136656384	63	4045
2026-01-07 21:58:51.71	85.93	17.55	-48.3	-49.5	14.9	0.00e+00	0	25	0	1146093568	63	3999
2026-01-07 21:58:54.72	86.62	17.50	-48.4	-49.6	14.9	0.00e+00	0	25	0	1155530752	63	4046
2026-01-07 21:58:57.71	87.29	17.44	-48.5	-49.8	14.9	0.00e+00	0	25	0	1164967936	63	4115
2026-01-07 21:59:00.71	87.97	17.38	-48.4	-49.6	14.9	0.00e+00	0	25	0	1174405120	63	4036
2026-01-07 21:59:03.71	88.64	17.31	-48.5	-49.8	14.9	0.00e+00	0	25	0	1183842304	63	4106
2026-01-07 21:59:06.70	89.31	17.24	-48.4	-49.7	14.9	0.00e+00	0	25	0	1193279488	63	4059
2026-01-07 21:59:09.70	89.98	17.17	-48.6	-49.9	14.8	0.00e+00	0	25	0	1201668096	63	4183
2026-01-07 21:59:12.68	90.64	17.10	-48.5	-49.8	14.9	0.00e+00	0	25	0	1211105280	63	4113
2026-01-07 21:59:15.68	91.31	17.02	-48.4	-49.6	14.9	0.00e+00	0	25	0	1220542464	63	4033
2026-01-07 21:59:18.68	91.96	16.93	-48.4	-49.7	14.9	0.00e+00	0	25	0	1229979648	63	4057
2026-01-07 21:59:21.69	92.62	16.85	-48.2	-49.4	15.0	0.00e+00	0	25	0	1239416832	63	3939
2026-01-07 21:59:24.68	93.27	16.76	-48.3	-49.5	15.0	0.00e+00	0	25	0	1248854016	63	3969
2026-01-07 21:59:27.69	93.92	16.67	-48.3	-49.6	15.0	0.00e+00	0	25	0	1258291200	63	4012
2026-01-07 21:59:30.69	94.56	16.57	-48.5	-49.8	14.9	0.00e+00	0	25	0	1267728384	63	4099
2026-01-07 21:59:33.68	95.20	16.47	-48.4	-49.6	14.9	0.00e+00	0	25	0	1277165568	63	4026
2026-01-07 21:59:36.68	95.84	16.37	-48.6	-49.8	14.9	0.00e+00	0	25	0	1286602752	63	4124
2026-01-07 21:59:39.66	96.46	16.27	-48.6	-49.9	14.8	0.00e+00	0	25	0	1296039936	63	4153
2026-01-07 21:59:42.64	97.09	16.16	-48.5	-49.8	14.9	0.00e+00	0	25	0	1305477120	63	4100
2026-01-07 21:59:45.63	97.71	16.05	-48.5	-49.7	14.9	0.00e+00	0	25	0	1314914304	63	4093
2026-01-07 21:59:48.62	98.32	15.94	-48.4	-49.7	14.9	0.00e+00	0	25	0	1324351488	63	4053
2026-01-07 21:59:51.62	98.94	15.83	-48.5	-49.8	14.9	0.00e+00	0	25	0	1332740096	63	4113
2026-01-07 21:59:54.62	99.55	15.71	-48.8	-50.1	14.7	0.00e+00	0	25	0	1342177280	63	4289
2026-01-07 21:59:57.63	100.15	15.59	-48.9	-50.2	14.7	0.00e+00	0	25	0	1351614464	63	4325
2026-01-07 22:00:00.63	100.75	15.47	-49.0	-50.3	14.6	0.00e+00	0	25	0	1361051648	63	4350
2026-01-07 22:00:03.63	101.35	15.34	-48.8	-50.1	14.7	0.00e+00	0	25	0	1370488832	63	4251
2026-01-07 22:00:06.64	101.94	15.21	-49.1	-50.4	14.6	0.00e+00	0	25	0	1379926016	63	4431
2026-01-07 22:00:09.64	102.53	15.08	-49.3	-50.7	14.5	0.00e+00	0	25	0	1389363200	63	4548
2026-01-07 22:00:12.62	103.10	14.95	-49.2	-50.6	14.5	0.00e+00	0	25	0	1398800384	63	4495
2026-01-07 22:00:15.61	103.68	14.82	-49.0	-50.3	14.6	0.00e+00	0	25	0	1408237568	63	4362
2026-01-07 22:00:18.62	104.25	14.69	-48.9	-50.2	14.6	0.00e+00	0	25	0	1417674752	63	4333
2026-01-07 22:00:21.62	104.81	14.55	-49.2	-50.5	14.5	0.00e+00	0	25	0	1427111936	63	4485
2026-01-07 22:00:24.62	105.37	14.41	-49.1	-50.5	14.6	0.00e+00	0	25	0	1436549120	63	4468
2026-01-07 22:00:27.63	105.93	14.27	-49.3	-50.6	14.5	0.00e+00	0	25	0	1445986304	63	4538
2026-01-07 22:00:30.63	106.48	14.13	-49.1	-50.4	14.6	0.00e+00	0	25	0	1455423488	63	4411
2026-01-07 22:00:33.63	107.03	13.98	-49.0	-50.3	14.6	0.00e+00	0	25	0	1464860672	63	4360
2026-01-07 22:00:36.63	107.57	13.84	-49.1	-50.4	14.6	0.00e+00	0	25	0	1474297856	63	4424
2026-01-07 22:00:39.61	108.10	13.69	-49.3	-50.7	14.5	0.00e+00	0	25	0	1482686464	63	4551
2026-01-07 22:00:42.59	108.63	13.55	-49.3	-50.7	14.6	0.00e+00	0	25	0	1492123648	64	4314
2026-01-07 22:00:45.58	109.15	13.40	-49.2	-50.5	14.6	0.00e+00	0	25	0	1501560832	64	4212
2026-01-07 22:00:48.58	109.67	13.25	-49.1	-50.5	14.7	0.00e+00	0	25	0	1510998016	64	4216
2026-01-07 22:00:51.57	110.18	13.10	-49.1	-50.4	14.7	0.00e+00	0	25	0	1520435200	64	4184
2026-01-07 22:00:54.56	110.69	12.95	-49.1	-50.4	14.7	0.00e+00	0	25	0	1529872384	64	4173
2026-01-07 22:00:57.55	111.19	12.79	-49.3	-50.6	14.6	0.00e+00	0	25	0	1539309568	64	4276
2026-01-07 22:01:00.55	111.69	12.64	-49.3	-50.7	14.5	0.00e+00	0	25	0	1548746752	64	4316
2026-01-07 22:01:03.56	112.19	12.48	-49.2	-50.5	14.6	0.00e+00	0	25	0	1558183936	64	4238
2026-01-07 22:01:06.55	112.68	12.33	-49.2	-50.6	14.6	0.00e+00	0	25	0	1567621120	64	4245
2026-01-07 22:01:09.54	113.16	12.17	-49.1	-50.4	14.7	0.00e+00	0	25	0	1577058304	64	4177
2026-01-07 22:01:12.55	113.64	12.01	-49.1	-50.5	14.6	0.00e+00	0	25	0	1586495488	64	4199
2026-01-07 22:01:15.53	114.11	11.85	-49.2	-50.6	14.6	0.00e+00	0	25	0	1594884096	64	4263
2026-01-07 22:01:18.52	114.58	11.69	-49.3	-50.7	14.5	0.00e+00	0	25	0	1604321280	64	4327
2026-01-07 22:01:21.51	115.04	11.53	-49.2	-50.6	14.6	0.00e+00	0	25	0	1613758464	64	4278
2026-01-07 22:01:24.51	115.50	11.37	-49.2	-50.6	14.6	0.00e+00	0	25	0	1623195648	64	4265
2026-01-07 22:01:27.48	115.95	11.21	-49.2	-50.6	14.6	0.00e+00	0	25	0	1632632832	64	4249
2026-01-07 22:01:30.48	116.40	11.05	-49.1	-50.5	14.6	0.00e+00	0	25	0	1642070016	64	4214
2026-01-07 22:01:33.48	116.85	10.89	-49.2	-50.6	14.6	0.00e+00	0	25	0	1651507200	64	4253
2026-01-07 22:01:36.47	117.29	10.73	-49.3	-50.6	14.5	0.00e+00	0	25	0	1660944384	64	4288
2026-01-07 22:01:39.46	117.72	10.56	-49.4	-50.8	14.5	0.00e+00	0	25	0	1670381568	64	4346
2026-01-07 22:01:42.46	118.15	10.40	-49.5	-51.0	14.4	0.00e+00	0	25	0	1679818752	64	4447
2026-01-07 22:01:45.45	118.58	10.24	-49.6	-51.0	14.3	0.00e+00	0	25	0	1689255936	64	4487
2026-01-07 22:01:48.42	119.00	10.07	-49.7	-51.1	14.3	0.00e+00	0	25	0	1698693120	64	4537
2026-01-07 22:01:51.40	119.41	9.91	-49.7	-51.2	14.2	0.00e+00	0	25	0	1707081728	64	4588
2026-01-07 22:01:54.40	119.83	9.75	-49.9	-51.4	14.2	0.00e+00	0	25	0	1716518912	65	4417
2026-01-07 22:01:57.41	120.24	9.58	-50.0	-51.5	14.2	0.00e+00	0	25	0	1725956096	65	4481
2026-01-07 22:02:00.41	120.64	9.42	-50.1	-51.6	14.1	0.00e+00	0	25	0	1735393280	65	4536
2026-01-07 22:02:03.40	121.04	9.25	-50.0	-51.5	14.2	0.00e+00	0	25	0	1744830464	65	4486
2026-01-07 22:02:06.41	121.44	9.08	-49.9	-51.4	14.2	0.00e+00	0	25	0	1754267648	65	4396
2026-01-07 22:02:09.41	121.83	8.92	-49.9	-51.4	14.2	0.00e+00	0	25	0	1763704832	65	4404
2026-01-07 22:02:12.40	122.21	8.75	-49.9	-51.4	14.2	0.00e+00	0	25	0	1773142016	65	4424
2026-01-07 22:02:15.40	122.60	8.59	-50.0	-51.6	14.1	0.00e+00	0	25	0	1782579200	65	4497
2026-01-07 22:02:18.40	122.98	8.42	-50.1	-51.7	14.1	0.00e+00	0	25	0	1792016384	65	4572
2026-01-07 22:02:21.39	123.35	8.26	-50.2	-51.8	14.0	0.00e+00	0	25	0	1801453568	65	4618
2026-01-07 22:02:24.38	123.72	8.09	-50.2	-51.8	14.0	0.00e+00	0	25	0	1810890752	65	4607
2026-01-07 22:02:27.39	124.09	7.93	-50.1	-51.7	14.0	0.00e+00	0	25	0	1820327936	65	4579
2026-01-07 22:02:30.38	124.45	7.76	-50.1	-51.7	14.0	0.00e+00	0	25	0	1829765120	65	4566
2026-01-07 22:02:33.39	124.81	7.60	-50.2	-51.8	14.0	0.00e+00	0	25	0	1838153728	65	4632
2026-01-07 22:02:36.39	125.16	7.43	-50.3	-52.0	13.9	0.00e+00	0	25	0	1847590912	65	4717
2026-01-07 22:02:39.39	125.51	7.27	-50.3	-51.9	13.9	0.00e+00	0	25	0	1857028096	65	4682
2026-01-07 22:02:42.38	125.86	7.11	-50.3	-51.9	13.9	0.00e+00	0	25	0	1866465280	65	4683
2026-01-07 22:02:45.36	126.20	6.94	-50.4	-52.1	13.8	0.00e+00	0	25	0	1875902464	65	4766
2026-01-07 22:02:48.35	126.54	6.78	-50.5	-52.2	13.8	0.00e+00	0	25	0	1885339648	66	4588
2026-01-07 22:02:51.33	126.87	6.62	-50.5	-52.3	13.8	0.00e+00	0	25	0	1894776832	66	4611
2026-01-07 22:02:54.31	127.21	6.45	-50.7	-52.5	13.7	0.00e+00	0	25	0	1904214016	66	4744
2026-01-07 22:02:57.31	127.53	6.29	-50.8	-52.6	13.6	0.00e+00	0	25	0	1913651200	66	4806
2026-01-07 22:03:00.30	127.86	6.13	-50.7	-52.5	13.7	0.00e+00	0	25	0	1923088384	66	4726
2026-01-07 22:03:03.30	128.18	5.96	-50.8	-52.6	13.6	0.00e+00	0	25	0	1932525568	66	4776
2026-01-07 22:03:06.29	128.50	5.80	-50.7	-52.5	13.6	0.00e+00	0	25	0	1941962752	66	4721
2026-01-07 22:03:09.29	128.81	5.64	-50.7	-52.5	13.6	0.00e+00	0	25	0	1950351360	66	4706
2026-01-07 22:03:12.28	129.13	5.48	-50.8	-52.7	13.5	0.00e+00	0	25	0	1959788544	66	4835
2026-01-07 22:03:15.28	129.43	5.32	-50.8	-52.7	13.6	0.00e+00	0	25	0	1969225728	67	4567
2026-01-07 22:03:18.27	129.74	5.16	-51.0	-52.9	13.5	0.00e+00	0	25	0	1978662912	67	4667
2026-01-07 22:03:21.28	130.04	4.99	-51.0	-53.0	13.4	0.00e+00	0	25	0	1988100096	67	4720
2026-01-07 22:03:24.26	130.34	4.83	-58.4	-72.2	3.8	1.49e+00	0	25	104	1990197248	81	19280
2026-01-07 22:03:27.26	130.64	4.67	-58.9	-72.8	3.8	1.49e+00	0	25	104	1990197248	83	18392
2026-01-07 22:03:30.27	130.93	4.51	-59.3	-73.1	3.8	1.49e+00	0	25	104	1990197248	83	19167
2026-01-07 22:03:33.27	131.22	4.35	-59.7	-73.6	3.8	1.49e+00	0	25	104	1990197248	84	19007
2026-01-07 22:03:36.26	131.51	4.20	-59.9	-73.8	3.8	1.49e+00	0	25	104	1990197248	84	19484
2026-01-07 22:03:39.26	131.79	4.04	-60.1	-74.0	3.8	1.49e+00	0	25	104	1990197248	85	18879
2026-01-07 22:03:42.26	132.07	3.88	-60.3	-74.2	3.8	1.49e+00	0	25	104	1990197248	85	19194
2026-01-07 22:03:45.23	132.35	3.72	-60.3	-74.2	3.8	1.49e+00	0	25	104	1990197248	85	19303
2026-01-07 22:03:48.23	132.62	3.56	-60.3	-74.2	3.8	1.49e+00	0	25	104	1990197248	85	19190
2026-01-07 22:03:51.22	132.90	3.41	-60.2	-74.1	3.8	1.49e+00	0	25	104	1990197248	85	19150
2026-01-07 22:03:54.22	133.17	3.25	-60.2	-74.1	3.8	1.49e+00	0	25	104	1990197248	85	19046
2026-01-07 22:03:57.20	133.43	3.09	-60.2	-74.1	3.8	1.49e+00	0	25	104	1990197248	85	19017
2026-01-07 22:04:00.19	133.69	2.94	-60.1	-74.0	3.8	1.49e+00	0	25	104	1990197248	85	18924
2026-01-07 22:04:03.20	133.96	2.78	-60.1	-74.0	3.8	1.49e+00	0	25	104	1990197248	85	18827
2026-01-07 22:04:06.20	134.22	2.63	-60.1	-74.0	3.8	1.49e+00	0	25	104	1990197248	85	18758
2026-01-07 22:04:09.20	134.47	2.47	-60.1	-74.0	3.8	1.49e+00	0	25	104	1990197248	85	18733
2026-01-07 22:04:12.20	134.73	2.32	-60.0	-73.9	3.8	1.49e+00	0	25	104	1990197248	85	18675
2026-01-07 22:04:15.21	134.98	2.16	-60.0	-73.9	3.8	1.49e+00	0	25	104	1990197248	85	18647
2026-01-07 22:04:18.21	135.23	2.01	-60.0	-73.9	3.8	1.49e+00	0	25	104	1990197248	85	18578

#Closed at: 2026-01-07 22:04:18
#Recorded file [1990 MB]: D:/lorett/data/31004_260108_005204.dat