passes_logs/2026/01/07/R3.2S_Murmansk/R3.2S_Murmansk__20260107_222143_SUOMI_NPP_rec.log

#Pass ID: 20260107_222143_SUOMI NPP
#Satellite: SUOMI NPP
#Configuration: NPP
#almurnet v.1.7.20251203
#Start time: 2026-01-07 22:21:44

#Version: 2.2.20231116
#Station: R3.2S_Murmansk
#Location: 33.079688 lon 68.888172 lat
#TLE: 1 37849U 11061A   26005.94084933  .00000134  00000+0  84554-4 0  9990
#TLE: 2 37849  98.7803 308.0679 0002567  79.1029 281.0436 14.19522657735426

#Time	Az	El	Level	Level2	SNR	BER	BlckErr	Temp	State	Recorded	gain1	gain2
2026-01-07 22:21:44.53	18.91	2.07	-57.7	-73.7	3.8	1.49e+00	0	23	0	0	82	21599
2026-01-07 22:21:48.52	19.20	2.29	-57.6	-73.4	3.8	1.49e+00	0	23	104	0	80	23507
2026-01-07 22:21:52.52	19.49	2.51	-57.7	-73.7	3.8	1.49e+00	0	23	104	0	80	24259
2026-01-07 22:21:56.51	19.79	2.73	-57.6	-73.5	3.8	1.49e+00	0	23	104	0	80	23731
2026-01-07 22:22:00.52	20.09	2.95	-57.6	-73.5	3.8	1.49e+00	0	24	104	0	80	23820
2026-01-07 22:22:04.53	20.39	3.17	-57.6	-72.1	3.8	1.49e+00	0	24	104	0	80	20283
2026-01-07 22:22:08.53	20.70	3.40	-57.6	-72.0	3.8	1.49e+00	0	24	104	0	80	20011
2026-01-07 22:22:12.53	21.02	3.62	-57.4	-69.5	4.4	1.40e+00	92	24	0	0	80	15027
2026-01-07 22:22:16.54	21.33	3.85	-57.2	-67.0	5.6	4.28e-01	0	24	0	7340032	80	11162
2026-01-07 22:22:20.51	21.66	4.08	-56.9	-65.0	7.0	2.27e-01	0	24	0	14680064	80	8894
2026-01-07 22:22:24.49	21.98	4.31	-54.8	-58.8	12.0	2.13e-05	0	24	0	22020096	76	5494
2026-01-07 22:22:28.49	22.31	4.54	-53.4	-56.4	13.3	0.00e+00	0	24	0	29360128	73	4935
2026-01-07 22:22:32.50	22.65	4.77	-54.6	-58.5	12.0	0.00e+00	0	24	0	36700160	74	5971
2026-01-07 22:22:36.49	22.99	5.00	-56.6	-63.8	8.0	2.65e-02	0	24	0	45088768	78	8749
2026-01-07 22:22:40.49	23.34	5.23	-56.5	-62.8	8.6	1.07e+00	0	24	0	51380224	79	7370
2026-01-07 22:22:44.50	23.70	5.47	-53.5	-56.6	13.2	0.00e+00	0	24	0	59768832	73	5070
2026-01-07 22:22:48.51	24.06	5.71	-53.0	-55.8	13.6	0.00e+00	0	24	0	67108864	72	4910
2026-01-07 22:22:52.51	24.42	5.94	-53.0	-55.7	13.7	0.00e+00	0	24	0	74448896	72	4825
2026-01-07 22:22:56.50	24.79	6.18	-52.9	-55.6	13.8	0.00e+00	0	24	0	81788928	72	4791
2026-01-07 22:23:00.51	25.16	6.42	-53.0	-55.7	13.7	0.00e+00	0	24	0	89128960	72	4829
2026-01-07 22:23:04.50	25.54	6.66	-53.1	-55.9	13.5	0.00e+00	0	24	0	96468992	72	4975
2026-01-07 22:23:08.49	25.93	6.91	-53.3	-56.1	13.4	0.00e+00	0	25	0	104857600	72	5066
2026-01-07 22:23:12.48	26.32	7.15	-53.4	-56.4	13.3	0.00e+00	0	25	0	112197632	72	5244
2026-01-07 22:23:16.48	26.72	7.39	-53.5	-56.5	13.2	0.00e+00	0	25	0	119537664	72	5328
2026-01-07 22:23:20.46	27.13	7.64	-53.3	-56.3	13.4	0.00e+00	0	24	0	126877696	72	5160
2026-01-07 22:23:24.44	27.54	7.89	-53.1	-55.9	13.7	0.00e+00	0	24	0	134217728	72	4935
2026-01-07 22:23:28.42	27.96	8.13	-53.0	-55.8	13.7	0.00e+00	0	25	0	141557760	72	4873
2026-01-07 22:23:32.41	28.38	8.38	-52.9	-55.5	13.9	0.00e+00	0	24	0	148897792	72	4752
2026-01-07 22:23:36.38	28.81	8.63	-52.7	-55.2	14.0	0.00e+00	0	25	0	156237824	72	4580
2026-01-07 22:23:40.37	29.25	8.88	-52.5	-54.9	14.1	0.00e+00	0	25	0	163577856	71	4680
2026-01-07 22:23:44.37	29.70	9.14	-52.2	-54.5	14.4	0.00e+00	0	25	0	171966464	71	4480
2026-01-07 22:23:48.37	30.16	9.39	-52.3	-54.7	14.2	0.00e+00	0	25	0	179306496	71	4550
2026-01-07 22:23:52.36	30.62	9.65	-52.3	-54.7	14.1	0.00e+00	0	25	0	186646528	70	4845
2026-01-07 22:23:56.36	31.09	9.90	-52.3	-54.7	14.1	0.00e+00	0	25	0	193986560	70	4818
2026-01-07 22:24:00.36	31.57	10.16	-52.3	-54.6	14.1	0.00e+00	0	25	0	201326592	70	4809
2026-01-07 22:24:04.36	32.06	10.42	-52.2	-54.4	14.3	0.00e+00	0	25	0	208666624	70	4688
2026-01-07 22:24:08.36	32.55	10.68	-52.0	-54.2	14.4	0.00e+00	0	25	0	217055232	70	4568
2026-01-07 22:24:12.37	33.06	10.94	-51.9	-54.0	14.4	0.00e+00	0	25	0	224395264	70	4491
2026-01-07 22:24:16.37	33.57	11.20	-51.9	-54.0	14.5	0.00e+00	0	25	0	231735296	70	4480
2026-01-07 22:24:20.35	34.09	11.46	-51.9	-54.0	14.5	0.00e+00	0	25	0	239075328	70	4492
2026-01-07 22:24:24.31	34.61	11.72	-51.7	-53.8	14.6	0.00e+00	0	25	0	246415360	70	4354
2026-01-07 22:24:28.31	35.15	11.98	-51.6	-53.6	14.5	0.00e+00	0	25	0	253755392	69	4537
2026-01-07 22:24:32.29	35.70	12.25	-51.6	-53.7	14.5	0.00e+00	0	25	0	261095424	69	4572
2026-01-07 22:24:36.29	36.26	12.51	-51.8	-53.9	14.4	0.00e+00	0	25	0	269484032	69	4661
2026-01-07 22:24:40.28	36.83	12.78	-51.8	-53.9	14.4	0.00e+00	0	25	0	276824064	69	4702
2026-01-07 22:24:44.28	37.40	13.04	-51.9	-54.1	14.3	0.00e+00	0	25	0	284164096	69	4770
2026-01-07 22:24:48.27	37.99	13.31	-52.1	-54.4	14.2	0.00e+00	0	25	0	291504128	69	4951
2026-01-07 22:24:52.26	38.59	13.57	-51.8	-53.9	14.4	0.00e+00	0	25	0	298844160	69	4701
2026-01-07 22:24:56.24	39.19	13.83	-51.5	-53.5	14.6	0.00e+00	0	25	0	306184192	69	4485
2026-01-07 22:25:00.23	39.81	14.10	-51.4	-53.5	14.6	0.00e+00	0	25	0	313524224	69	4465
2026-01-07 22:25:04.21	40.44	14.36	-51.3	-53.3	14.8	0.00e+00	0	25	0	320864256	69	4352
2026-01-07 22:25:08.21	41.08	14.63	-51.3	-53.3	14.7	0.00e+00	0	25	0	329252864	69	4383
2026-01-07 22:25:12.20	41.73	14.89	-51.5	-53.5	14.6	0.00e+00	0	25	0	336592896	69	4486
2026-01-07 22:25:16.18	42.39	15.15	-51.4	-53.5	14.6	0.00e+00	0	25	0	343932928	69	4468
2026-01-07 22:25:20.16	43.07	15.42	-51.5	-53.6	14.6	0.00e+00	0	25	0	351272960	69	4542
2026-01-07 22:25:24.15	43.75	15.68	-51.3	-53.5	14.7	0.00e+00	0	25	0	358612992	69	4448
2026-01-07 22:25:28.14	44.45	15.94	-51.2	-53.3	14.6	0.00e+00	0	25	0	365953024	68	4616
2026-01-07 22:25:32.12	45.15	16.20	-51.4	-53.6	14.4	0.00e+00	0	25	0	373293056	68	4798
2026-01-07 22:25:36.11	45.88	16.46	-51.1	-53.2	14.7	0.00e+00	0	25	0	380633088	68	4558
2026-01-07 22:25:40.10	46.61	16.71	-50.8	-52.9	14.8	0.00e+00	0	25	0	389021696	68	4406
2026-01-07 22:25:44.09	47.35	16.97	-51.0	-53.2	14.7	0.00e+00	0	25	0	396361728	68	4549
2026-01-07 22:25:48.08	48.11	17.22	-51.0	-53.1	14.7	0.00e+00	0	25	0	403701760	68	4539
2026-01-07 22:25:52.07	48.88	17.47	-51.2	-53.4	14.6	0.00e+00	0	25	0	411041792	68	4667
2026-01-07 22:25:56.06	49.66	17.72	-51.0	-53.2	14.6	0.00e+00	0	25	0	418381824	68	4557
2026-01-07 22:26:00.05	50.46	17.96	-51.2	-53.4	14.5	0.00e+00	0	25	0	425721856	68	4659
2026-01-07 22:26:04.04	51.27	18.21	-51.4	-53.7	14.4	0.00e+00	0	25	0	433061888	68	4862
2026-01-07 22:26:08.04	52.09	18.45	-51.3	-53.5	14.5	0.00e+00	0	25	0	441450496	68	4743
2026-01-07 22:26:12.02	52.92	18.68	-52.0	-54.4	14.2	0.00e+00	0	25	0	448790528	69	4965
2026-01-07 22:26:16.01	53.76	18.91	-51.7	-54.0	14.4	0.00e+00	0	25	0	456130560	69	4724
2026-01-07 22:26:19.99	54.62	19.14	-52.5	-55.1	13.9	0.00e+00	0	25	0	463470592	70	5079
2026-01-07 22:26:23.98	55.49	19.37	-52.8	-55.4	13.8	0.00e+00	0	25	0	470810624	70	5246
2026-01-07 22:26:27.96	56.37	19.58	-52.9	-55.6	13.9	0.00e+00	0	25	0	478150656	71	5053
2026-01-07 22:26:31.96	57.27	19.80	-52.6	-55.1	14.1	0.00e+00	0	25	0	485490688	71	4781
2026-01-07 22:26:35.95	58.18	20.01	-52.4	-54.7	14.3	0.00e+00	0	25	0	492830720	71	4564
2026-01-07 22:26:39.93	59.09	20.21	-52.4	-54.8	14.1	0.00e+00	0	25	0	501219328	70	4883
2026-01-07 22:26:43.92	60.03	20.41	-52.4	-54.8	14.1	0.00e+00	0	25	0	508559360	70	4908
2026-01-07 22:26:47.93	60.97	20.60	-51.8	-54.0	14.4	0.00e+00	0	25	0	515899392	69	4729
2026-01-07 22:26:51.91	61.93	20.79	-52.2	-54.5	14.2	0.00e+00	0	25	0	523239424	69	4990
2026-01-07 22:26:55.90	62.89	20.97	-52.1	-54.3	14.3	0.00e+00	0	25	0	530579456	69	4881
2026-01-07 22:26:59.90	63.87	21.14	-52.4	-54.7	14.2	0.00e+00	0	25	0	537919488	70	4842
2026-01-07 22:27:03.90	64.86	21.31	-51.2	-53.1	14.9	0.00e+00	0	25	0	545259520	69	4269
2026-01-07 22:27:07.90	65.86	21.47	-51.6	-53.6	14.6	0.00e+00	0	25	0	553648128	69	4498
2026-01-07 22:27:11.90	66.87	21.62	-51.7	-53.7	14.6	0.00e+00	0	25	0	560988160	69	4595
2026-01-07 22:27:15.89	67.89	21.76	-51.3	-53.2	14.8	0.00e+00	0	25	0	568328192	69	4331
2026-01-07 22:27:19.88	68.91	21.89	-51.5	-53.4	14.7	0.00e+00	0	25	0	575668224	69	4416
2026-01-07 22:27:23.86	69.95	22.02	-51.5	-53.5	14.7	0.00e+00	0	25	0	583008256	69	4449
2026-01-07 22:27:27.83	70.98	22.13	-51.9	-54.0	14.4	0.00e+00	0	25	0	590348288	69	4741
2026-01-07 22:27:31.81	72.03	22.24	-51.9	-54.0	14.4	0.00e+00	0	25	0	597688320	69	4734
2026-01-07 22:27:35.80	73.09	22.34	-51.8	-53.9	14.5	0.00e+00	0	25	0	606076928	69	4652
2026-01-07 22:27:39.80	74.15	22.42	-51.6	-53.7	14.4	0.00e+00	0	25	0	613416960	68	4858
2026-01-07 22:27:43.80	75.22	22.50	-51.6	-53.7	14.6	0.00e+00	0	25	0	620756992	69	4562
2026-01-07 22:27:47.79	76.29	22.57	-51.7	-53.8	14.5	0.00e+00	0	25	0	628097024	69	4637
2026-01-07 22:27:51.78	77.37	22.63	-51.2	-53.1	14.9	0.00e+00	0	25	0	635437056	69	4267
2026-01-07 22:27:55.78	78.46	22.68	-51.6	-53.6	14.6	0.00e+00	0	25	0	642777088	69	4501
2026-01-07 22:27:59.76	79.54	22.71	-51.6	-53.6	14.6	0.00e+00	0	25	0	650117120	69	4529
2026-01-07 22:28:03.76	80.63	22.74	-52.2	-54.4	14.2	0.00e+00	0	25	0	657457152	69	4957
2026-01-07 22:28:07.74	81.71	22.76	-51.9	-54.0	14.4	0.00e+00	0	25	0	665845760	69	4726
2026-01-07 22:28:11.73	82.80	22.77	-51.7	-53.6	14.6	0.00e+00	0	25	0	673185792	69	4532
2026-01-07 22:28:15.73	83.89	22.76	-51.7	-53.7	14.5	0.00e+00	0	25	0	680525824	69	4581
2026-01-07 22:28:19.72	84.98	22.75	-51.4	-53.2	14.8	0.00e+00	0	25	0	687865856	69	4306
2026-01-07 22:28:23.72	86.07	22.72	-50.9	-52.7	14.9	0.00e+00	0	25	0	695205888	68	4293
2026-01-07 22:28:27.69	87.15	22.69	-51.1	-53.0	14.8	0.00e+00	0	25	0	702545920	68	4456
2026-01-07 22:28:31.66	88.23	22.64	-51.2	-53.1	14.7	0.00e+00	0	25	0	709885952	68	4499
2026-01-07 22:28:35.64	89.31	22.59	-51.5	-53.5	14.5	0.00e+00	0	25	0	718274560	68	4749
2026-01-07 22:28:39.63	90.38	22.52	-51.3	-53.2	14.7	0.00e+00	0	25	0	725614592	68	4576
2026-01-07 22:28:43.61	91.45	22.45	-51.8	-53.8	14.4	0.00e+00	0	25	0	732954624	68	4921
2026-01-07 22:28:47.60	92.52	22.36	-51.6	-53.5	14.7	0.00e+00	0	25	0	740294656	69	4471
2026-01-07 22:28:51.60	93.58	22.26	-50.8	-52.6	14.9	0.00e+00	0	25	0	747634688	68	4271
2026-01-07 22:28:55.59	94.63	22.16	-50.4	-52.1	15.0	0.00e+00	0	25	0	754974720	67	4260
2026-01-07 22:28:59.58	95.68	22.05	-50.3	-52.1	14.9	0.00e+00	0	25	0	762314752	66	4499
2026-01-07 22:29:03.57	96.72	21.92	-50.5	-52.3	14.8	0.00e+00	0	25	0	769654784	66	4647
2026-01-07 22:29:07.57	97.75	21.79	-50.6	-52.4	14.7	0.00e+00	0	25	0	778043392	66	4696
2026-01-07 22:29:11.56	98.77	21.65	-50.5	-52.4	14.7	0.00e+00	0	25	0	785383424	66	4655
2026-01-07 22:29:15.55	99.78	21.50	-50.2	-51.9	14.9	0.00e+00	0	25	0	792723456	66	4410
2026-01-07 22:29:19.54	100.78	21.35	-49.8	-51.4	15.1	0.00e+00	0	25	0	800063488	66	4165
2026-01-07 22:29:23.53	101.78	21.18	-50.2	-51.9	14.9	0.00e+00	0	25	0	807403520	66	4403
2026-01-07 22:29:27.51	102.75	21.01	-50.4	-52.2	14.8	0.00e+00	0	25	0	814743552	66	4563
2026-01-07 22:29:31.50	103.73	20.83	-50.3	-52.0	14.9	0.00e+00	0	25	0	822083584	66	4490
2026-01-07 22:29:35.49	104.69	20.65	-50.8	-52.7	14.6	0.00e+00	0	25	0	830472192	66	4815
2026-01-07 22:29:39.47	105.63	20.46	-50.3	-52.0	14.9	0.00e+00	0	25	0	837812224	66	4479
2026-01-07 22:29:43.47	106.57	20.26	-50.5	-52.3	14.7	0.00e+00	0	25	0	845152256	66	4646
2026-01-07 22:29:47.47	107.50	20.06	-51.7	-54.0	14.3	0.00e+00	0	25	0	852492288	68	5010
2026-01-07 22:29:51.48	108.42	19.85	-51.7	-54.0	14.2	0.00e+00	0	25	0	859832320	68	5021
2026-01-07 22:29:55.47	109.32	19.63	-51.7	-53.9	14.3	0.00e+00	0	25	0	867172352	68	4961
2026-01-07 22:29:59.47	110.21	19.41	-51.3	-53.5	14.5	0.00e+00	0	25	0	874512384	68	4712
2026-01-07 22:30:03.47	111.09	19.19	-51.5	-53.7	14.4	0.00e+00	0	25	0	882900992	68	4858
2026-01-07 22:30:07.46	111.95	18.96	-51.5	-53.8	14.3	0.00e+00	0	25	0	890241024	68	4912
2026-01-07 22:30:11.46	112.80	18.73	-52.4	-55.1	14.0	0.00e+00	0	25	0	897581056	70	5046
2026-01-07 22:30:15.45	113.64	18.49	-51.7	-54.0	14.4	0.00e+00	0	25	0	904921088	69	4712
2026-01-07 22:30:19.43	114.47	18.25	-51.7	-54.0	14.4	0.00e+00	0	25	0	912261120	69	4732
2026-01-07 22:30:23.43	115.28	18.01	-51.5	-53.7	14.5	0.00e+00	0	25	0	919601152	69	4565
2026-01-07 22:30:27.41	116.08	17.76	-51.7	-54.0	14.3	0.00e+00	0	25	0	926941184	69	4758
2026-01-07 22:30:31.39	116.87	17.51	-51.6	-53.9	14.4	0.00e+00	0	25	0	934281216	69	4705
2026-01-07 22:30:35.37	117.64	17.26	-51.5	-53.7	14.5	0.00e+00	0	25	0	942669824	69	4573
2026-01-07 22:30:39.35	118.40	17.01	-51.6	-53.8	14.5	0.00e+00	0	25	0	950009856	69	4608
2026-01-07 22:30:43.35	119.15	16.75	-50.9	-52.7	14.8	0.00e+00	0	25	0	957349888	68	4340
2026-01-07 22:30:47.36	119.89	16.49	-51.5	-53.6	14.4	0.00e+00	0	25	0	964689920	68	4811
2026-01-07 22:30:51.35	120.62	16.23	-51.6	-53.7	14.3	0.00e+00	0	25	0	972029952	68	4870
2026-01-07 22:30:55.35	121.34	15.97	-52.2	-54.7	14.0	0.00e+00	0	25	0	979369984	69	5134
2026-01-07 22:30:59.34	122.04	15.71	-51.9	-54.3	14.2	0.00e+00	0	25	0	986710016	69	4881
2026-01-07 22:31:03.33	122.73	15.45	-51.1	-53.1	14.6	0.00e+00	0	25	0	995098624	68	4524
2026-01-07 22:31:07.34	123.41	15.18	-51.5	-53.7	14.4	0.00e+00	0	25	0	1002438656	68	4821
2026-01-07 22:31:11.34	124.08	14.92	-51.2	-53.2	14.6	0.00e+00	0	25	0	1009778688	68	4592
2026-01-07 22:31:15.33	124.73	14.65	-50.8	-52.7	14.8	0.00e+00	0	25	0	1017118720	68	4302
2026-01-07 22:31:19.33	125.38	14.38	-51.6	-53.7	14.3	0.00e+00	0	25	0	1024458752	68	4866
2026-01-07 22:31:23.32	126.01	14.12	-51.4	-53.5	14.4	0.00e+00	0	25	0	1031798784	68	4747
2026-01-07 22:31:27.30	126.63	13.85	-52.1	-54.4	14.1	0.00e+00	0	25	0	1039138816	69	4963
2026-01-07 22:31:31.28	127.24	13.59	-52.2	-54.6	14.0	0.00e+00	0	25	0	1047527424	69	5074
2026-01-07 22:31:35.26	127.84	13.32	-51.7	-53.9	14.4	0.00e+00	0	25	0	1054867456	69	4670
2026-01-07 22:31:39.24	128.43	13.05	-52.0	-54.3	14.1	0.00e+00	0	25	0	1062207488	69	4879
2026-01-07 22:31:43.21	129.01	12.79	-52.2	-54.6	14.0	0.00e+00	0	25	0	1069547520	69	5099
2026-01-07 22:31:47.21	129.58	12.52	-52.1	-54.1	14.2	0.00e+00	0	25	0	1076887552	69	4814
2026-01-07 22:31:51.20	130.14	12.26	-52.6	-54.7	14.1	0.00e+00	0	25	0	1084227584	70	4870
2026-01-07 22:31:55.19	130.69	11.99	-52.3	-54.4	14.3	0.00e+00	0	25	0	1091567616	70	4655
2026-01-07 22:31:59.19	131.23	11.73	-51.7	-53.6	14.7	0.00e+00	0	25	0	1098907648	70	4269
2026-01-07 22:32:03.17	131.77	11.46	-51.8	-53.7	14.5	0.00e+00	0	25	0	1107296256	69	4568
2026-01-07 22:32:07.16	132.29	11.20	-52.1	-54.1	14.2	0.00e+00	0	25	0	1114636288	69	4792
2026-01-07 22:32:11.15	132.80	10.94	-52.0	-54.1	14.2	0.00e+00	0	25	0	1121976320	69	4777
2026-01-07 22:32:15.14	133.31	10.68	-52.0	-54.0	14.3	0.00e+00	0	25	0	1129316352	69	4714
2026-01-07 22:32:19.14	133.81	10.41	-52.6	-54.8	14.0	0.00e+00	0	25	0	1136656384	70	4912
2026-01-07 22:32:23.13	134.29	10.15	-52.6	-54.8	14.0	0.00e+00	0	25	0	1143996416	70	4903
2026-01-07 22:32:27.11	134.77	9.90	-52.1	-54.2	14.3	0.00e+00	0	25	0	1151336448	70	4574
2026-01-07 22:32:31.08	135.24	9.64	-52.5	-54.7	14.0	0.00e+00	0	25	0	1159725056	70	4851
2026-01-07 22:32:35.07	135.71	9.38	-52.7	-55.0	13.8	0.00e+00	0	25	0	1167065088	70	5034
2026-01-07 22:32:39.07	136.16	9.13	-52.7	-55.0	13.9	0.00e+00	0	25	0	1174405120	70	5012
2026-01-07 22:32:43.06	136.61	8.87	-52.8	-55.2	13.9	0.00e+00	0	25	0	1181745152	71	4863
2026-01-07 22:32:47.05	137.05	8.62	-52.9	-55.4	13.8	0.00e+00	0	25	0	1189085184	71	4947
2026-01-07 22:32:51.05	137.49	8.36	-52.7	-55.1	13.9	0.00e+00	0	25	0	1196425216	71	4779
2026-01-07 22:32:55.04	137.91	8.11	-52.5	-54.8	14.0	0.00e+00	0	25	0	1203765248	71	4644
2026-01-07 22:32:59.03	138.33	7.86	-52.6	-54.9	14.0	0.00e+00	0	25	0	1212153856	71	4697
2026-01-07 22:33:03.03	138.75	7.61	-52.4	-54.7	14.1	0.00e+00	0	25	0	1219493888	71	4576
2026-01-07 22:33:07.01	139.15	7.37	-52.5	-54.9	14.0	0.00e+00	0	25	0	1226833920	71	4666
2026-01-07 22:33:11.00	139.55	7.12	-53.0	-55.5	13.6	0.00e+00	0	25	0	1234173952	71	5021
2026-01-07 22:33:15.00	139.95	6.87	-53.6	-56.5	13.1	0.00e+00	0	25	0	1241513984	72	5281
2026-01-07 22:33:18.99	140.34	6.63	-53.8	-56.9	12.9	0.00e+00	0	25	0	1248854016	72	5540
2026-01-07 22:33:22.98	140.72	6.39	-53.6	-56.5	13.1	0.00e+00	0	25	0	1256194048	72	5321
2026-01-07 22:33:26.98	141.09	6.15	-52.8	-55.4	13.8	0.00e+00	0	25	0	1263534080	72	4653
2026-01-07 22:33:30.94	141.46	5.91	-52.8	-55.4	13.7	0.00e+00	0	25	0	1271922688	72	4654
2026-01-07 22:33:34.93	141.82	5.67	-53.0	-55.7	13.5	0.00e+00	0	25	0	1279262720	72	4838
2026-01-07 22:33:38.89	142.18	5.43	-53.4	-56.3	13.2	0.00e+00	0	25	0	1286602752	72	5184
2026-01-07 22:33:42.88	142.53	5.20	-53.7	-56.8	12.8	0.00e+00	0	25	0	1293942784	72	5524
2026-01-07 22:33:46.88	142.88	4.96	-57.3	-68.8	4.8	0.00e+00	0	25	0	1301282816	79	14635
2026-01-07 22:33:50.88	143.22	4.73	-58.8	-74.9	3.8	1.49e+00	0	25	104	1301282816	82	24735
2026-01-07 22:33:54.88	143.56	4.49	-59.3	-75.4	3.8	1.49e+00	0	25	104	1301282816	83	24916
2026-01-07 22:33:58.89	143.89	4.26	-59.8	-76.0	3.8	1.49e+00	0	25	104	1301282816	84	25004
2026-01-07 22:34:02.88	144.22	4.03	-60.1	-76.2	3.8	1.49e+00	0	25	104	1301282816	85	24393
2026-01-07 22:34:06.88	144.54	3.80	-60.3	-76.4	3.8	1.49e+00	0	25	104	1301282816	85	24893
2026-01-07 22:34:10.87	144.86	3.57	-60.2	-76.4	3.8	1.49e+00	0	25	104	1301282816	85	24743
2026-01-07 22:34:14.86	145.17	3.34	-60.2	-76.3	3.8	1.49e+00	0	25	104	1301282816	85	24551
2026-01-07 22:34:18.86	145.48	3.12	-60.1	-76.2	3.8	1.49e+00	0	25	104	1301282816	85	24383
2026-01-07 22:34:22.86	145.78	2.89	-60.1	-76.2	3.8	1.49e+00	0	25	104	1301282816	85	24285
2026-01-07 22:34:26.85	146.08	2.67	-60.1	-76.2	3.8	1.49e+00	0	25	104	1301282816	85	24243
2026-01-07 22:34:30.83	146.37	2.45	-60.1	-76.2	3.8	1.49e+00	0	25	104	1301282816	85	24173
2026-01-07 22:34:34.81	146.66	2.23	-60.0	-76.1	3.8	1.49e+00	0	25	104	1301282816	85	24019
2026-01-07 22:34:38.79	146.95	2.01	-60.0	-76.1	3.8	1.49e+00	0	26	104	1301282816	85	23874

#Closed at: 2026-01-07 22:34:40
#Recorded file [1301 MB]: D:/lorett/data/31004_260108_012144.dat