passes_logs/2026/01/07/R3.2S_Murmansk/R3.2S_Murmansk__20260107_125947_FENGYUN_3D_rec.log

#Pass ID: 20260107_125947_FENGYUN 3D
#Satellite: FENGYUN 3D
#Configuration: FENGYUN 3D
#almurnet v.1.7.20251203
#Start time: 2026-01-07 12:59:48

#Version: 2.2.20231116
#Station: R3.2S_Murmansk
#Location: 33.079688 lon 68.888172 lat
#TLE: 1 43010U 17072A   26006.26440730  .00000376  00000+0  19957-3 0  9994
#TLE: 2 43010  98.9925 337.9455 0002045 123.9195 236.2175 14.19693586422016

#Time	Az	El	Level	Level2	SNR	BER	BlckErr	Temp	State	Recorded	gain1	gain2
2026-01-07 12:59:48.43	187.36	2.04	-57.8	-70.7	3.8	8.45e-01	0	23	0	0	81	16251
2026-01-07 12:59:52.45	187.54	2.28	-57.7	-70.6	3.8	8.45e-01	0	23	104	0	80	17029
2026-01-07 12:59:56.48	187.72	2.53	-57.7	-70.6	3.8	8.45e-01	0	23	104	0	80	16959
2026-01-07 13:00:00.51	187.91	2.78	-57.7	-70.4	3.8	8.44e-01	0	24	104	0	80	16662
2026-01-07 13:00:04.54	188.10	3.03	-57.7	-70.5	3.8	8.45e-01	0	24	104	0	80	16839
2026-01-07 13:00:08.57	188.29	3.29	-57.7	-70.2	3.8	8.45e-01	0	24	104	0	80	16164
2026-01-07 13:00:12.61	188.48	3.55	-57.7	-70.3	3.8	8.45e-01	0	24	104	0	80	16380
2026-01-07 13:00:16.64	188.68	3.80	-57.7	-70.4	3.8	8.45e-01	0	24	104	0	80	16660
2026-01-07 13:00:20.67	188.88	4.07	-57.4	-66.8	4.3	8.30e-01	0	24	0	0	80	10920
2026-01-07 13:00:24.71	189.09	4.33	-57.1	-65.1	5.0	7.45e-01	0	24	0	0	80	8991
2026-01-07 13:00:28.73	189.29	4.59	-57.1	-64.9	5.1	7.53e-01	0	24	0	0	80	8782
2026-01-07 13:00:32.77	189.51	4.86	-56.4	-62.2	6.9	1.49e-01	0	24	0	15728640	79	6866
2026-01-07 13:00:36.80	189.72	5.13	-57.1	-64.5	5.3	2.20e-01	0	24	0	37748736	79	8950
2026-01-07 13:00:40.82	189.94	5.41	-49.8	-51.5	14.2	0.00e+00	0	24	0	48234496	66	4206
2026-01-07 13:00:44.86	190.16	5.68	-49.3	-50.9	14.4	0.00e+00	0	24	0	70254592	65	4168
2026-01-07 13:00:48.89	190.39	5.96	-49.0	-50.6	14.4	0.00e+00	0	24	0	93323264	64	4248
2026-01-07 13:00:52.92	190.62	6.24	-48.9	-50.5	14.5	0.00e+00	0	25	0	116391936	64	4195
2026-01-07 13:00:56.96	190.86	6.52	-48.8	-50.4	14.6	0.00e+00	0	24	0	138412032	64	4146
2026-01-07 13:01:00.99	191.09	6.81	-48.8	-50.2	14.7	0.00e+00	0	25	0	161480704	64	4096
2026-01-07 13:01:05.02	191.34	7.10	-48.6	-50.0	14.6	0.00e+00	0	25	0	183500800	63	4238
2026-01-07 13:01:09.04	191.59	7.39	-48.6	-50.0	14.7	0.00e+00	0	24	0	206569472	63	4226
2026-01-07 13:01:13.08	191.84	7.69	-48.2	-49.7	14.7	0.00e+00	0	25	0	229638144	62	4306
2026-01-07 13:01:17.11	192.10	7.98	-48.1	-49.6	14.7	0.00e+00	0	25	0	251658240	62	4252
2026-01-07 13:01:21.14	192.36	8.28	-48.0	-49.4	14.8	0.00e+00	0	25	0	274726912	62	4182
2026-01-07 13:01:25.18	192.63	8.59	-48.0	-49.4	14.8	0.00e+00	0	25	0	297795584	62	4185
2026-01-07 13:01:29.22	192.90	8.90	-47.8	-49.2	14.9	0.00e+00	0	25	0	319815680	62	4052
2026-01-07 13:01:33.24	193.18	9.21	-47.9	-49.3	14.9	0.00e+00	0	25	0	342884352	62	4114
2026-01-07 13:01:37.27	193.47	9.52	-48.0	-49.4	14.8	0.00e+00	0	25	0	365953024	62	4176
2026-01-07 13:01:41.30	193.76	9.84	-47.9	-49.3	14.9	0.00e+00	0	25	0	387973120	62	4109
2026-01-07 13:01:45.34	194.06	10.16	-47.8	-49.2	15.0	0.00e+00	0	25	0	411041792	62	4053
2026-01-07 13:01:49.36	194.36	10.48	-47.6	-48.9	14.9	0.00e+00	0	25	0	433061888	61	4183
2026-01-07 13:01:53.39	194.67	10.81	-47.7	-49.1	14.9	0.00e+00	0	25	0	456130560	61	4245
2026-01-07 13:01:57.42	194.98	11.14	-47.6	-49.0	14.9	0.00e+00	0	25	0	479199232	61	4218
2026-01-07 13:02:01.46	195.31	11.48	-47.5	-48.9	15.0	0.00e+00	0	25	0	501219328	61	4154
2026-01-07 13:02:05.49	195.64	11.82	-47.6	-49.0	14.9	0.00e+00	0	25	0	524288000	61	4203
2026-01-07 13:02:09.52	195.98	12.16	-47.5	-48.9	15.0	0.00e+00	0	25	0	547356672	61	4159
2026-01-07 13:02:13.56	196.32	12.51	-47.4	-48.7	15.0	0.00e+00	0	25	0	569376768	61	4094
2026-01-07 13:02:17.59	196.67	12.86	-47.3	-48.6	15.0	0.00e+00	0	25	0	592445440	60	4254
2026-01-07 13:02:21.62	197.04	13.22	-47.0	-48.3	15.1	0.00e+00	0	25	0	614465536	60	4102
2026-01-07 13:02:25.66	197.41	13.58	-46.9	-48.2	15.1	0.00e+00	0	25	0	637534208	60	4074
2026-01-07 13:02:29.69	197.78	13.94	-46.9	-48.1	15.2	0.00e+00	0	25	0	660602880	60	4048
2026-01-07 13:02:33.73	198.17	14.31	-46.7	-48.0	15.2	0.00e+00	0	25	0	682622976	60	3997
2026-01-07 13:02:37.75	198.57	14.68	-46.8	-48.1	15.2	0.00e+00	0	25	0	705691648	60	4012
2026-01-07 13:02:41.79	198.98	15.06	-46.8	-48.1	15.1	0.00e+00	0	25	0	728760320	59	4264
2026-01-07 13:02:45.82	199.39	15.44	-47.0	-48.4	15.0	0.00e+00	0	25	0	750780416	59	4408
2026-01-07 13:02:49.85	199.82	15.83	-47.0	-48.4	15.0	0.00e+00	0	25	0	773849088	59	4407
2026-01-07 13:02:53.88	200.26	16.22	-46.6	-47.9	15.1	0.00e+00	0	25	0	795869184	59	4185
2026-01-07 13:02:57.91	200.71	16.62	-48.7	-50.1	14.7	0.00e+00	0	25	0	818937856	61	4793
2026-01-07 13:03:01.94	201.17	17.02	-55.5	-58.8	10.6	9.31e-04	0	25	0	842006528	77	5196
2026-01-07 13:03:05.98	201.64	17.43	-51.5	-53.2	13.9	0.00e+00	0	25	0	864026624	69	4322
2026-01-07 13:03:10.01	202.12	17.84	-48.3	-49.5	14.9	0.00e+00	0	25	0	887095296	62	4235
2026-01-07 13:03:14.05	202.62	18.25	-46.9	-48.0	15.1	0.00e+00	0	25	0	910163968	59	4242
2026-01-07 13:03:18.08	203.13	18.68	-46.4	-47.5	15.3	0.00e+00	0	25	0	932184064	59	3978
2026-01-07 13:03:22.11	203.66	19.10	-46.2	-47.3	15.4	0.00e+00	0	25	0	955252736	59	3903
2026-01-07 13:03:26.14	204.20	19.53	-45.9	-47.0	15.4	0.00e+00	0	25	0	977272832	58	3993
2026-01-07 13:03:30.17	204.75	19.97	-45.5	-46.6	15.4	0.00e+00	0	25	0	1000341504	57	4027
2026-01-07 13:03:34.20	205.32	20.41	-45.4	-46.5	15.4	0.00e+00	0	25	0	1023410176	57	3961
2026-01-07 13:03:38.23	205.91	20.86	-45.8	-46.9	15.3	0.00e+00	0	25	0	1045430272	57	4158
2026-01-07 13:03:42.27	206.52	21.31	-45.8	-46.9	15.3	0.00e+00	0	25	0	1068498944	57	4186
2026-01-07 13:03:46.31	207.14	21.77	-45.7	-46.8	15.3	0.00e+00	0	25	0	1091567616	57	4110
2026-01-07 13:03:50.34	207.78	22.23	-45.5	-46.6	15.4	0.00e+00	0	25	0	1113587712	57	4018
2026-01-07 13:03:54.37	208.43	22.69	-45.3	-46.4	15.5	0.00e+00	0	25	0	1136656384	57	3922
2026-01-07 13:03:58.40	209.11	23.16	-45.2	-46.2	15.4	0.00e+00	0	25	0	1159725056	56	4096
2026-01-07 13:04:02.43	209.81	23.64	-45.0	-46.1	15.4	0.00e+00	0	25	0	1181745152	56	4010
2026-01-07 13:04:06.46	210.52	24.12	-45.3	-46.4	15.3	0.00e+00	0	25	0	1204813824	56	4166
2026-01-07 13:04:10.49	211.26	24.60	-45.1	-46.1	15.4	0.00e+00	0	25	0	1226833920	56	4045
2026-01-07 13:04:14.54	212.03	25.09	-45.2	-46.2	15.4	0.00e+00	0	25	0	1249902592	56	4087
2026-01-07 13:04:18.56	212.81	25.58	-45.0	-46.1	15.4	0.00e+00	0	25	0	1272971264	56	4015
2026-01-07 13:04:22.60	213.62	26.08	-45.2	-46.2	15.4	0.00e+00	0	25	0	1294991360	56	4093
2026-01-07 13:04:26.62	214.46	26.58	-44.7	-45.7	15.5	0.00e+00	0	25	0	1318060032	56	3858
2026-01-07 13:04:30.66	215.32	27.08	-44.6	-45.6	15.4	0.00e+00	0	25	0	1341128704	55	4036
2026-01-07 13:04:34.69	216.21	27.58	-44.6	-45.6	15.4	0.00e+00	0	25	0	1363148800	55	4023
2026-01-07 13:04:38.72	217.12	28.09	-44.5	-45.5	15.4	0.00e+00	0	25	0	1386217472	55	3984
2026-01-07 13:04:42.75	218.07	28.59	-44.4	-45.4	15.5	0.00e+00	0	25	0	1408237568	55	3934
2026-01-07 13:04:46.78	219.04	29.10	-44.4	-45.4	15.5	0.00e+00	0	25	0	1431306240	55	3953
2026-01-07 13:04:50.80	220.04	29.60	-44.4	-45.4	15.5	0.00e+00	0	25	0	1454374912	55	3937
2026-01-07 13:04:54.83	221.08	30.11	-44.3	-45.3	15.5	0.00e+00	0	25	0	1476395008	55	3907
2026-01-07 13:04:58.87	222.15	30.62	-44.3	-45.3	15.5	0.00e+00	0	25	0	1499463680	55	3899
2026-01-07 13:05:02.90	223.25	31.12	-44.3	-45.4	15.5	0.00e+00	0	25	0	1522532352	55	3924
2026-01-07 13:05:06.93	224.38	31.62	-44.2	-45.2	15.4	0.00e+00	0	25	0	1544552448	54	4068
2026-01-07 13:05:10.96	225.55	32.11	-44.3	-45.4	15.4	0.00e+00	0	25	0	1567621120	54	4151
2026-01-07 13:05:14.99	226.76	32.60	-44.0	-45.0	15.5	0.00e+00	0	25	0	1589641216	54	3976
2026-01-07 13:05:19.02	228.00	33.09	-44.4	-45.4	15.4	0.00e+00	0	25	0	1612709888	54	4193
2026-01-07 13:05:23.05	229.27	33.56	-44.5	-45.5	15.4	0.00e+00	0	25	0	1635778560	54	4239
2026-01-07 13:05:27.08	230.59	34.03	-44.2	-45.3	15.4	0.00e+00	0	25	0	1657798656	54	4101
2026-01-07 13:05:31.12	231.94	34.49	-44.3	-45.3	15.4	0.00e+00	0	25	0	1680867328	54	4119
2026-01-07 13:05:35.15	233.33	34.94	-44.2	-45.2	15.4	0.00e+00	0	25	0	1703936000	54	4074
2026-01-07 13:05:39.18	234.76	35.37	-44.3	-45.3	15.4	0.00e+00	0	25	0	1725956096	54	4118
2026-01-07 13:05:43.22	236.22	35.79	-44.1	-45.2	15.4	0.00e+00	0	25	0	1749024768	54	4061
2026-01-07 13:05:47.25	237.72	36.20	-44.0	-45.1	15.5	0.00e+00	0	25	0	1771044864	54	4013
2026-01-07 13:05:51.29	239.26	36.59	-44.0	-45.0	15.5	0.00e+00	0	25	0	1794113536	54	4000
2026-01-07 13:05:55.32	240.83	36.95	-44.0	-45.1	15.5	0.00e+00	0	25	0	1817182208	54	4015
2026-01-07 13:05:59.36	242.44	37.30	-43.8	-44.9	15.5	0.00e+00	0	25	0	1839202304	54	3915
2026-01-07 13:06:03.40	244.09	37.63	-43.8	-44.8	15.5	0.00e+00	0	25	0	1862270976	54	3913
2026-01-07 13:06:07.43	245.76	37.93	-44.0	-45.0	15.5	0.00e+00	0	25	0	1885339648	54	3969
2026-01-07 13:06:11.46	247.46	38.21	-43.9	-44.9	15.5	0.00e+00	0	25	0	1907359744	54	3934
2026-01-07 13:06:15.49	249.18	38.46	-43.9	-44.9	15.5	0.00e+00	0	25	0	1930428416	54	3943
2026-01-07 13:06:19.52	250.94	38.68	-43.9	-44.9	15.5	0.00e+00	0	25	0	1952448512	54	3928
2026-01-07 13:06:23.54	252.71	38.88	-44.1	-45.2	15.5	0.00e+00	0	25	0	1975517184	54	4053
2026-01-07 13:06:27.58	254.50	39.04	-43.9	-44.9	15.5	0.00e+00	0	25	0	1998585856	54	3935
2026-01-07 13:06:31.61	256.31	39.18	-43.8	-44.8	15.5	0.00e+00	0	25	0	2020605952	54	3897
2026-01-07 13:06:35.64	258.14	39.28	-44.4	-45.4	15.4	0.00e+00	0	25	0	2043674624	54	4179
2026-01-07 13:06:39.66	259.97	39.36	-44.0	-45.0	15.5	0.00e+00	0	25	0	2066743296	54	3973
2026-01-07 13:06:43.69	261.81	39.40	-44.1	-45.1	15.4	0.00e+00	0	25	0	2088763392	54	4051
2026-01-07 13:06:47.72	263.65	39.40	-44.2	-45.2	15.4	0.00e+00	0	25	0	2111832064	54	4078
2026-01-07 13:06:51.74	265.48	39.38	-43.9	-44.9	15.5	0.00e+00	0	25	0	2133852160	54	3957
2026-01-07 13:06:55.77	267.32	39.32	-44.1	-45.2	15.4	0.00e+00	0	25	0	2156920832	54	4059
2026-01-07 13:06:59.80	269.14	39.23	-44.3	-45.3	15.4	0.00e+00	0	25	0	2179989504	54	4120
2026-01-07 13:07:03.84	270.96	39.11	-44.1	-45.1	15.4	0.00e+00	0	25	0	2202009600	54	4022
2026-01-07 13:07:07.87	272.76	38.96	-44.3	-45.3	15.4	0.00e+00	0	25	0	2225078272	54	4127
2026-01-07 13:07:11.90	274.55	38.78	-44.2	-45.2	15.4	0.00e+00	0	25	0	2248146944	54	4073
2026-01-07 13:07:15.93	276.31	38.57	-44.1	-45.1	15.4	0.00e+00	0	25	0	2270167040	54	4044
2026-01-07 13:07:19.96	278.04	38.33	-44.1	-45.1	15.4	0.00e+00	0	25	0	2293235712	54	4033
2026-01-07 13:07:23.99	279.75	38.06	-44.1	-45.1	15.4	0.00e+00	0	25	0	2315255808	54	4051
2026-01-07 13:07:28.03	281.44	37.77	-44.3	-45.3	15.4	0.00e+00	0	25	0	2338324480	54	4125
2026-01-07 13:07:32.06	283.09	37.46	-44.3	-45.4	15.4	0.00e+00	0	25	0	2361393152	54	4157
2026-01-07 13:07:36.08	284.71	37.12	-44.1	-45.1	15.4	0.00e+00	0	25	0	2383413248	54	4019
2026-01-07 13:07:40.12	286.29	36.76	-44.3	-45.3	15.4	0.00e+00	0	25	0	2406481920	54	4121
2026-01-07 13:07:44.16	287.85	36.38	-44.5	-45.6	15.3	0.00e+00	0	25	0	2429550592	54	4267
2026-01-07 13:07:48.19	289.36	35.99	-44.4	-45.4	15.4	0.00e+00	0	25	0	2451570688	54	4174
2026-01-07 13:07:52.23	290.84	35.58	-44.3	-45.3	15.4	0.00e+00	0	25	0	2474639360	54	4143
2026-01-07 13:07:56.25	292.28	35.15	-44.5	-45.6	15.4	0.00e+00	0	25	0	2496659456	54	4251
2026-01-07 13:08:00.28	293.68	34.71	-44.3	-45.3	15.4	0.00e+00	0	25	0	2519728128	54	4139
2026-01-07 13:08:04.32	295.05	34.26	-44.5	-45.6	15.3	0.00e+00	0	25	0	2542796800	54	4261
2026-01-07 13:08:08.34	296.37	33.80	-44.5	-45.6	15.3	0.00e+00	0	25	0	2564816896	54	4260
2026-01-07 13:08:12.38	297.67	33.33	-44.6	-45.6	15.3	0.00e+00	0	25	0	2587885568	54	4267
2026-01-07 13:08:16.41	298.92	32.85	-44.6	-45.6	15.3	0.00e+00	0	25	0	2610954240	54	4284
2026-01-07 13:08:20.44	300.14	32.36	-44.9	-45.9	15.3	0.00e+00	0	25	0	2632974336	54	4431
2026-01-07 13:08:24.47	301.33	31.87	-44.6	-45.6	15.3	0.00e+00	0	25	0	2656043008	54	4275
2026-01-07 13:08:28.51	302.48	31.37	-44.7	-45.8	15.3	0.00e+00	0	26	0	2678063104	54	4348
2026-01-07 13:08:32.54	303.59	30.87	-44.9	-46.0	15.3	0.00e+00	0	25	0	2701131776	55	4232
2026-01-07 13:08:36.58	304.67	30.37	-44.9	-45.9	15.3	0.00e+00	0	25	0	2724200448	55	4187
2026-01-07 13:08:40.61	305.72	29.87	-44.9	-46.0	15.3	0.00e+00	0	25	0	2746220544	55	4205
2026-01-07 13:08:44.64	306.74	29.36	-45.1	-46.2	15.3	0.00e+00	0	25	0	2769289216	55	4299
2026-01-07 13:08:48.68	307.73	28.86	-45.1	-46.1	15.3	0.00e+00	0	25	0	2792357888	55	4286
2026-01-07 13:08:52.71	308.68	28.35	-45.6	-46.7	15.3	0.00e+00	0	25	0	2814377984	56	4305
2026-01-07 13:08:56.74	309.61	27.85	-45.0	-46.0	15.4	0.00e+00	0	25	0	2837446656	56	3998
2026-01-07 13:09:00.77	310.51	27.35	-45.1	-46.2	15.4	0.00e+00	0	25	0	2860515328	56	4078
2026-01-07 13:09:04.80	311.38	26.85	-45.3	-46.4	15.4	0.00e+00	0	25	0	2882535424	56	4146
2026-01-07 13:09:08.83	312.22	26.35	-44.9	-46.0	15.5	0.00e+00	0	25	0	2905604096	56	3966
2026-01-07 13:09:12.86	313.04	25.86	-45.1	-46.2	15.4	0.00e+00	0	25	0	2927624192	56	4073
2026-01-07 13:09:16.88	313.84	25.37	-45.1	-46.2	15.4	0.00e+00	0	26	0	2950692864	56	4052
2026-01-07 13:09:20.92	314.61	24.88	-45.2	-46.2	15.4	0.00e+00	0	25	0	2973761536	56	4098
2026-01-07 13:09:24.94	315.36	24.40	-45.5	-46.5	15.3	0.00e+00	0	25	0	2995781632	56	4236
2026-01-07 13:09:28.97	316.08	23.92	-45.3	-46.4	15.3	0.00e+00	0	25	0	3018850304	56	4180
2026-01-07 13:09:33.00	316.79	23.45	-45.3	-46.4	15.3	0.00e+00	0	26	0	3040870400	56	4177
2026-01-07 13:09:37.04	317.48	22.97	-45.7	-46.8	15.2	0.00e+00	0	25	0	3063939072	56	4352
2026-01-07 13:09:41.07	318.14	22.51	-45.8	-46.9	15.2	0.00e+00	0	25	0	3087007744	56	4399
2026-01-07 13:09:45.10	318.79	22.05	-45.5	-46.6	15.2	0.00e+00	0	25	0	3109027840	56	4264
2026-01-07 13:09:49.14	319.42	21.59	-45.8	-46.9	15.2	0.00e+00	0	25	0	3132096512	56	4403
2026-01-07 13:09:53.17	320.03	21.14	-46.1	-47.3	15.2	0.00e+00	0	25	0	3155165184	57	4343
2026-01-07 13:09:57.20	320.62	20.69	-46.1	-47.2	15.2	0.00e+00	0	25	0	3177185280	57	4333
2026-01-07 13:10:01.23	321.20	20.25	-46.2	-47.3	15.2	0.00e+00	0	25	0	3200253952	57	4354
2026-01-07 13:10:05.25	321.76	19.82	-46.5	-47.6	15.1	0.00e+00	0	26	0	3222274048	58	4282
2026-01-07 13:10:09.28	322.31	19.38	-46.6	-47.7	15.1	0.00e+00	0	25	0	3245342720	58	4330
2026-01-07 13:10:13.30	322.84	18.96	-46.7	-47.8	15.1	0.00e+00	0	25	0	3268411392	58	4388
2026-01-07 13:10:17.34	323.36	18.54	-46.5	-47.6	15.1	0.00e+00	0	25	0	3290431488	58	4289
2026-01-07 13:10:21.37	323.86	18.12	-46.6	-47.8	15.1	0.00e+00	0	26	0	3313500160	58	4349
2026-01-07 13:10:25.40	324.35	17.71	-46.7	-47.9	15.2	0.00e+00	0	25	0	3336568832	59	4156
2026-01-07 13:10:29.44	324.84	17.30	-46.8	-47.9	15.1	0.00e+00	0	25	0	3358588928	59	4178
2026-01-07 13:10:33.46	325.30	16.90	-46.9	-48.1	15.1	0.00e+00	0	25	0	3381657600	59	4245
2026-01-07 13:10:37.50	325.76	16.50	-46.9	-48.1	14.9	0.00e+00	0	25	0	3403677696	59	4284
2026-01-07 13:10:41.53	326.20	16.11	-47.1	-48.3	14.9	0.00e+00	0	25	0	3426746368	59	4376
2026-01-07 13:10:45.57	326.63	15.72	-47.1	-48.3	14.5	0.00e+00	0	25	0	3449815040	59	4380
2026-01-07 13:10:49.60	327.06	15.34	-47.1	-48.3	14.8	0.00e+00	0	25	0	3471835136	59	4384
2026-01-07 13:10:53.63	327.47	14.96	-47.2	-48.3	14.9	0.00e+00	0	25	0	3494903808	59	4390
2026-01-07 13:10:57.66	327.87	14.59	-47.2	-48.4	15.0	0.00e+00	0	25	0	3517972480	60	4160
2026-01-07 13:11:01.70	328.27	14.22	-47.2	-48.4	15.0	0.00e+00	0	26	0	3539992576	60	4175
2026-01-07 13:11:05.73	328.65	13.85	-47.5	-48.8	14.9	0.00e+00	0	25	0	3563061248	60	4342
2026-01-07 13:11:09.76	329.02	13.49	-47.5	-48.7	14.9	0.00e+00	0	26	0	3585081344	60	4311
2026-01-07 13:11:13.79	329.39	13.14	-47.5	-48.8	14.9	0.00e+00	0	25	0	3608150016	60	4341
2026-01-07 13:11:17.82	329.75	12.79	-47.5	-48.7	14.9	0.00e+00	0	26	0	3631218688	60	4319
2026-01-07 13:11:21.84	330.10	12.44	-47.5	-48.8	14.9	0.00e+00	0	25	0	3653238784	60	4342
2026-01-07 13:11:25.87	330.44	12.10	-47.5	-48.7	14.9	0.00e+00	0	25	0	3676307456	60	4325
2026-01-07 13:11:29.90	330.78	11.76	-47.6	-48.8	14.8	0.00e+00	0	25	0	3699376128	60	4380
2026-01-07 13:11:33.92	331.10	11.42	-47.7	-48.9	14.8	0.00e+00	0	25	0	3721396224	60	4428
2026-01-07 13:11:37.95	331.43	11.09	-47.8	-49.1	14.7	0.00e+00	0	25	0	3744464896	60	4522
2026-01-07 13:11:41.98	331.74	10.76	-48.0	-49.3	14.8	0.00e+00	0	25	0	3766484992	61	4357
2026-01-07 13:11:46.02	332.05	10.44	-47.9	-49.2	14.8	0.00e+00	0	25	0	3789553664	61	4310
2026-01-07 13:11:50.04	332.35	10.11	-48.0	-49.3	14.7	0.00e+00	0	25	0	3812622336	61	4375
2026-01-07 13:11:54.06	332.64	9.80	-48.0	-49.3	14.7	0.00e+00	0	25	0	3834642432	61	4367
2026-01-07 13:11:58.09	332.93	9.48	-48.2	-49.5	14.6	0.00e+00	0	25	0	3857711104	61	4480
2026-01-07 13:12:02.12	333.22	9.17	-48.4	-49.7	14.6	0.00e+00	0	25	0	3880779776	61	4576
2026-01-07 13:12:06.15	333.50	8.87	-48.4	-49.7	14.5	0.00e+00	0	25	0	3902799872	61	4567
2026-01-07 13:12:10.18	333.77	8.56	-48.4	-49.7	14.7	0.00e+00	0	25	0	3925868544	62	4332
2026-01-07 13:12:14.21	334.04	8.26	-48.4	-49.7	14.7	0.00e+00	0	26	0	3947888640	62	4311
2026-01-07 13:12:18.25	334.30	7.96	-48.5	-49.8	14.6	0.00e+00	0	26	0	3970957312	62	4360
2026-01-07 13:12:22.29	334.56	7.67	-48.6	-49.9	14.5	0.00e+00	0	25	0	3994025984	62	4422
2026-01-07 13:12:26.31	334.81	7.37	-48.6	-50.0	14.5	0.00e+00	0	25	0	4016046080	62	4462
2026-01-07 13:12:30.34	335.06	7.09	-48.9	-50.3	14.5	0.00e+00	0	25	0	4039114752	63	4352
2026-01-07 13:12:34.38	335.30	6.80	-48.8	-50.2	14.5	0.00e+00	0	25	0	4062183424	63	4323
2026-01-07 13:12:38.41	335.54	6.51	-48.9	-50.3	14.5	0.00e+00	0	26	0	4084203520	63	4373
2026-01-07 13:12:42.44	335.78	6.23	-48.9	-50.4	14.4	0.00e+00	0	25	0	4107272192	63	4400
2026-01-07 13:12:46.46	336.01	5.96	-48.9	-50.4	14.4	0.00e+00	0	25	0	4129292288	63	4398
2026-01-07 13:12:50.50	336.24	5.68	-49.0	-50.5	14.3	0.00e+00	0	25	0	4152360960	63	4453
2026-01-07 13:12:54.53	336.46	5.41	-49.2	-50.7	14.2	0.00e+00	0	25	0	4175429632	63	4589
2026-01-07 13:12:58.55	336.68	5.14	-49.4	-50.9	14.2	0.00e+00	0	25	0	4197449728	64	4404
2026-01-07 13:13:02.59	336.90	4.87	-58.9	-71.9	3.8	8.45e-01	0	25	104	4211081216	82	17589
2026-01-07 13:13:06.63	337.11	4.60	-59.8	-72.9	3.8	8.45e-01	0	25	104	4211081216	84	17529
2026-01-07 13:13:10.66	337.32	4.34	-60.1	-73.2	3.8	8.45e-01	0	25	104	4211081216	85	17207
2026-01-07 13:13:14.69	337.53	4.08	-60.2	-73.3	3.8	8.45e-01	0	25	104	4211081216	85	17396
2026-01-07 13:13:18.72	337.73	3.82	-60.3	-73.4	3.8	8.46e-01	0	25	104	4211081216	85	17601
2026-01-07 13:13:22.75	337.93	3.56	-60.3	-73.4	3.8	8.46e-01	0	25	104	4211081216	85	17656
2026-01-07 13:13:26.78	338.12	3.31	-60.2	-73.3	3.8	8.47e-01	0	25	104	4211081216	85	17448
2026-01-07 13:13:30.81	338.32	3.05	-60.2	-73.3	3.8	8.45e-01	0	26	104	4211081216	85	17429
2026-01-07 13:13:34.85	338.51	2.80	-60.1	-73.2	3.8	8.45e-01	0	25	104	4211081216	85	17225
2026-01-07 13:13:38.88	338.69	2.56	-60.1	-73.2	3.8	8.45e-01	0	26	104	4211081216	85	17089
2026-01-07 13:13:42.91	338.88	2.31	-60.1	-73.2	3.8	8.45e-01	0	25	104	4211081216	85	17100
2026-01-07 13:13:46.95	339.06	2.06	-60.0	-73.2	3.8	8.44e-01	0	26	104	4211081216	85	17097

#Closed at: 2026-01-07 13:13:48
#Recorded file [4211 MB]: D:/lorett/data/31004_260107_155948.dat