passes_logs/2026/01/07/R3.2S_Murmansk/R3.2S_Murmansk__20260107_071943_NOAA_20_JPSS-1_rec.log

#Pass ID: 20260107_071943_NOAA 20 (JPSS-1)
#Satellite: NOAA 20 (JPSS-1)
#Configuration: NOAA 20
#almurnet v.1.7.20251203
#Start time: 2026-01-07 07:19:45

#Version: 2.2.20231116
#Station: R3.2S_Murmansk
#Location: 33.079688 lon 68.888172 lat
#TLE: 1 43013U 17073A   26006.30790171  .00000126  00000+0  80695-4 0  9991
#TLE: 2 43013  98.7629 307.3394 0001808  51.8724 308.2615 14.19533762421505

#Time	Az	El	Level	Level2	SNR	BER	BlckErr	Temp	State	Recorded	gain1	gain2
2026-01-07 07:19:45.15	101.74	2.08	-57.7	-73.6	3.8	1.49e+00	0	23	0	0	81	22723
2026-01-07 07:19:49.14	101.56	2.33	-57.6	-73.6	3.8	1.49e+00	0	23	104	0	80	23994
2026-01-07 07:19:53.14	101.37	2.57	-57.6	-73.6	3.8	1.49e+00	0	24	104	0	80	24078
2026-01-07 07:19:57.13	101.18	2.82	-57.6	-73.7	3.8	1.49e+00	0	24	104	0	80	24188
2026-01-07 07:20:01.12	100.98	3.07	-57.6	-73.6	3.8	1.49e+00	0	24	104	0	80	24003
2026-01-07 07:20:05.12	100.79	3.32	-57.7	-73.7	3.8	1.49e+00	0	24	104	0	80	24161
2026-01-07 07:20:09.12	100.58	3.57	-57.7	-73.5	3.8	1.49e+00	0	24	104	0	80	23664
2026-01-07 07:20:13.12	100.38	3.82	-57.6	-73.4	3.8	1.49e+00	0	24	104	0	80	23406
2026-01-07 07:20:17.12	100.17	4.08	-57.6	-73.6	3.8	1.49e+00	0	24	104	0	80	23968
2026-01-07 07:20:21.12	99.95	4.34	-57.6	-71.6	3.8	1.49e+00	0	24	104	0	80	19051
2026-01-07 07:20:25.13	99.73	4.60	-57.4	-68.1	5.0	7.76e-01	0	24	0	3145728	80	12728
2026-01-07 07:20:29.12	99.51	4.86	-57.1	-65.7	6.4	2.19e-01	0	24	0	10485760	80	9615
2026-01-07 07:20:33.12	99.28	5.13	-57.0	-64.9	7.0	1.21e-01	0	24	0	17825792	80	8818
2026-01-07 07:20:37.13	99.05	5.40	-55.6	-60.0	11.2	5.14e-04	0	25	0	23068672	77	5977
2026-01-07 07:20:41.11	98.82	5.67	-54.3	-57.4	13.0	7.00e-07	0	25	0	30408704	75	4971
2026-01-07 07:20:45.09	98.58	5.94	-53.9	-56.8	13.3	7.00e-07	0	25	0	37748736	74	4883
2026-01-07 07:20:49.06	98.33	6.21	-53.9	-56.8	13.3	0.00e+00	0	24	0	46137344	74	4901
2026-01-07 07:20:53.06	98.08	6.49	-53.9	-56.7	13.4	0.00e+00	0	25	0	53477376	74	4839
2026-01-07 07:20:57.06	97.83	6.76	-54.0	-56.9	13.3	0.00e+00	0	25	0	60817408	74	4947
2026-01-07 07:21:01.06	97.57	7.05	-54.0	-57.0	13.2	0.00e+00	0	25	0	68157440	74	4984
2026-01-07 07:21:05.06	97.30	7.33	-53.9	-56.7	13.4	0.00e+00	0	25	0	75497472	74	4841
2026-01-07 07:21:09.06	97.03	7.62	-54.0	-56.9	13.3	0.00e+00	0	25	0	82837504	74	4937
2026-01-07 07:21:13.06	96.76	7.91	-53.9	-56.7	13.4	0.00e+00	0	25	0	90177536	74	4846
2026-01-07 07:21:17.06	96.47	8.20	-53.9	-56.7	13.5	0.00e+00	0	25	0	98566144	74	4841
2026-01-07 07:21:21.06	96.18	8.49	-53.8	-56.5	13.6	0.00e+00	0	25	0	105906176	74	4737
2026-01-07 07:21:25.06	95.89	8.79	-53.8	-56.5	13.6	0.00e+00	0	25	0	113246208	74	4756
2026-01-07 07:21:29.06	95.59	9.09	-53.5	-56.1	13.7	0.00e+00	0	25	0	120586240	73	4778
2026-01-07 07:21:33.07	95.28	9.40	-53.5	-56.1	13.7	0.00e+00	0	25	0	127926272	73	4787
2026-01-07 07:21:37.08	94.96	9.70	-53.6	-56.3	13.7	0.00e+00	0	25	0	135266304	73	4875
2026-01-07 07:21:41.08	94.64	10.01	-53.4	-55.9	13.9	0.00e+00	0	25	0	143654912	73	4656
2026-01-07 07:21:45.07	94.31	10.32	-53.2	-55.5	14.1	0.00e+00	0	25	0	150994944	73	4477
2026-01-07 07:21:49.07	93.98	10.64	-53.1	-55.4	14.0	0.00e+00	0	25	0	158334976	72	4689
2026-01-07 07:21:53.07	93.63	10.96	-53.0	-55.3	14.1	0.00e+00	0	25	0	165675008	72	4641
2026-01-07 07:21:57.07	93.28	11.28	-53.0	-55.3	14.1	0.00e+00	0	25	0	173015040	72	4619
2026-01-07 07:22:01.08	92.92	11.60	-52.9	-55.1	14.2	0.00e+00	0	25	0	180355072	72	4518
2026-01-07 07:22:05.10	92.55	11.93	-53.0	-55.3	14.1	0.00e+00	0	25	0	188743680	72	4603
2026-01-07 07:22:09.10	92.18	12.26	-52.9	-55.2	14.2	0.00e+00	0	25	0	196083712	72	4559
2026-01-07 07:22:13.11	91.79	12.60	-53.0	-55.2	14.2	0.00e+00	0	25	0	203423744	72	4581
2026-01-07 07:22:17.09	91.40	12.93	-52.8	-54.9	14.3	0.00e+00	0	25	0	210763776	72	4435
2026-01-07 07:22:21.08	90.99	13.27	-52.8	-54.9	14.4	0.00e+00	0	25	0	218103808	72	4439
2026-01-07 07:22:25.09	90.58	13.62	-52.7	-54.8	14.4	0.00e+00	0	25	0	225443840	72	4380
2026-01-07 07:22:29.09	90.16	13.96	-52.7	-54.8	14.4	0.00e+00	0	25	0	232783872	72	4382
2026-01-07 07:22:33.09	89.72	14.31	-52.7	-54.8	14.4	0.00e+00	0	25	0	241172480	72	4369
2026-01-07 07:22:37.09	89.28	14.67	-52.9	-55.1	14.3	0.00e+00	0	25	0	248512512	72	4512
2026-01-07 07:22:41.08	88.82	15.02	-53.1	-55.3	14.2	0.00e+00	0	25	0	255852544	72	4615
2026-01-07 07:22:45.07	88.36	15.38	-53.0	-55.2	14.3	0.00e+00	0	25	0	263192576	72	4557
2026-01-07 07:22:49.07	87.88	15.75	-53.0	-55.1	14.3	0.00e+00	0	25	0	270532608	72	4545
2026-01-07 07:22:53.06	87.39	16.11	-52.8	-54.9	14.4	0.00e+00	0	25	0	277872640	72	4417
2026-01-07 07:22:57.03	86.89	16.48	-53.0	-55.1	14.3	0.00e+00	0	25	0	285212672	72	4521
2026-01-07 07:23:01.02	86.37	16.85	-53.1	-55.2	14.2	0.00e+00	0	25	0	292552704	72	4597
2026-01-07 07:23:05.00	85.85	17.23	-53.0	-55.2	14.2	0.00e+00	0	25	0	300941312	72	4579
2026-01-07 07:23:09.00	85.30	17.61	-53.0	-55.1	14.3	0.00e+00	0	25	0	308281344	72	4542
2026-01-07 07:23:13.01	84.74	17.99	-52.9	-55.0	14.4	0.00e+00	0	25	0	315621376	72	4462
2026-01-07 07:23:17.00	84.17	18.38	-52.9	-55.1	14.4	0.00e+00	0	25	0	322961408	72	4503
2026-01-07 07:23:20.98	83.59	18.77	-52.8	-54.8	14.5	0.00e+00	0	25	0	330301440	72	4366
2026-01-07 07:23:24.97	82.99	19.16	-52.6	-54.6	14.4	0.00e+00	0	25	0	337641472	71	4535
2026-01-07 07:23:28.97	82.37	19.56	-52.6	-54.6	14.5	0.00e+00	0	25	0	344981504	71	4498
2026-01-07 07:23:32.97	81.73	19.95	-52.5	-54.5	14.5	0.00e+00	0	25	0	353370112	71	4472
2026-01-07 07:23:36.96	81.08	20.35	-52.3	-54.2	14.7	0.00e+00	0	25	0	360710144	71	4303
2026-01-07 07:23:40.95	80.42	20.76	-52.2	-54.0	14.6	0.00e+00	0	25	0	368050176	70	4480
2026-01-07 07:23:44.93	79.73	21.16	-52.3	-54.1	14.6	0.00e+00	0	25	0	375390208	70	4541
2026-01-07 07:23:48.92	79.03	21.56	-52.4	-54.3	14.5	0.00e+00	0	25	0	382730240	70	4641
2026-01-07 07:23:52.91	78.30	21.97	-52.6	-54.6	14.3	0.00e+00	0	25	0	390070272	70	4792
2026-01-07 07:23:56.91	77.56	22.38	-52.7	-54.8	14.3	0.00e+00	0	25	0	397410304	70	4879
2026-01-07 07:24:00.90	76.80	22.79	-52.9	-54.9	14.2	0.00e+00	0	25	0	405798912	70	4981
2026-01-07 07:24:04.89	76.01	23.20	-52.8	-54.8	14.4	0.00e+00	0	25	0	413138944	71	4638
2026-01-07 07:24:08.88	75.21	23.62	-52.7	-54.7	14.4	0.00e+00	0	25	0	420478976	71	4597
2026-01-07 07:24:12.86	74.38	24.03	-52.5	-54.5	14.6	0.00e+00	0	25	0	427819008	71	4454
2026-01-07 07:24:16.84	73.54	24.44	-52.7	-54.6	14.5	0.00e+00	0	25	0	435159040	71	4535
2026-01-07 07:24:20.83	72.67	24.85	-52.2	-54.0	14.8	0.00e+00	0	25	0	442499072	71	4239
2026-01-07 07:24:24.81	71.77	25.26	-52.1	-53.9	14.7	0.00e+00	0	25	0	449839104	70	4433
2026-01-07 07:24:28.80	70.86	25.67	-52.2	-54.0	14.7	0.00e+00	0	25	0	457179136	70	4462
2026-01-07 07:24:32.80	69.91	26.08	-52.3	-54.1	14.6	0.00e+00	0	25	0	465567744	70	4525
2026-01-07 07:24:36.78	68.95	26.48	-52.2	-54.1	14.6	0.00e+00	0	25	0	472907776	70	4512
2026-01-07 07:24:40.78	67.95	26.88	-52.3	-54.1	14.6	0.00e+00	0	25	0	480247808	70	4542
2026-01-07 07:24:44.77	66.93	27.28	-52.3	-54.1	14.6	0.00e+00	0	25	0	487587840	70	4514
2026-01-07 07:24:48.78	65.89	27.67	-53.0	-55.1	14.2	0.00e+00	0	25	0	494927872	71	4797
2026-01-07 07:24:52.77	64.82	28.06	-53.3	-55.5	14.1	0.00e+00	0	25	0	502267904	71	4984
2026-01-07 07:24:56.77	63.72	28.44	-53.7	-56.0	13.9	0.00e+00	0	25	0	509607936	72	5024
2026-01-07 07:25:00.77	62.59	28.82	-54.1	-56.6	13.7	0.00e+00	0	25	0	517996544	73	5045
2026-01-07 07:25:04.76	61.45	29.18	-54.2	-56.7	13.6	0.00e+00	0	25	0	525336576	73	5159
2026-01-07 07:25:08.76	60.27	29.54	-54.7	-57.5	13.3	0.00e+00	0	25	0	532676608	74	5325
2026-01-07 07:25:12.74	59.07	29.89	-54.7	-57.4	13.5	0.00e+00	0	25	0	540016640	75	4971
2026-01-07 07:25:16.73	57.85	30.22	-54.1	-56.5	13.9	0.00e+00	0	25	0	547356672	74	4717
2026-01-07 07:25:20.72	56.59	30.55	-54.3	-56.9	13.7	0.00e+00	0	25	0	554696704	74	4957
2026-01-07 07:25:24.73	55.31	30.87	-54.0	-56.4	13.9	0.00e+00	0	25	0	562036736	74	4681
2026-01-07 07:25:28.71	54.01	31.17	-53.9	-56.2	14.1	0.00e+00	0	25	0	570425344	74	4581
2026-01-07 07:25:32.70	52.69	31.45	-54.0	-56.4	14.0	0.00e+00	0	25	0	577765376	74	4652
2026-01-07 07:25:36.68	51.34	31.72	-53.9	-56.2	14.1	0.00e+00	0	25	0	585105408	74	4577
2026-01-07 07:25:40.67	49.97	31.98	-54.2	-56.6	13.8	0.00e+00	0	25	0	592445440	74	4788
2026-01-07 07:25:44.68	48.57	32.22	-53.8	-56.0	14.2	0.00e+00	0	25	0	599785472	74	4489
2026-01-07 07:25:48.68	47.16	32.44	-53.5	-55.6	14.3	0.00e+00	0	25	0	607125504	73	4531
2026-01-07 07:25:52.66	45.73	32.65	-53.6	-55.8	14.1	0.00e+00	0	25	0	614465536	73	4647
2026-01-07 07:25:56.65	44.28	32.83	-53.4	-55.5	14.3	0.00e+00	0	25	0	622854144	73	4461
2026-01-07 07:26:00.66	42.81	32.99	-52.6	-54.5	14.6	0.00e+00	0	25	0	630194176	71	4458
2026-01-07 07:26:04.65	41.33	33.14	-53.0	-55.0	14.4	0.00e+00	0	25	0	637534208	71	4720
2026-01-07 07:26:08.66	39.83	33.26	-53.1	-55.1	14.3	0.00e+00	0	25	0	644874240	71	4813
2026-01-07 07:26:12.66	38.33	33.36	-53.4	-55.6	14.2	0.00e+00	0	25	0	652214272	72	4783
2026-01-07 07:26:16.66	36.82	33.44	-53.5	-55.7	14.1	0.00e+00	0	25	0	659554304	72	4841
2026-01-07 07:26:20.68	35.29	33.49	-53.4	-55.6	14.2	0.00e+00	0	25	0	666894336	72	4783
2026-01-07 07:26:24.69	33.77	33.52	-53.5	-55.6	14.1	0.00e+00	0	25	0	675282944	72	4812
2026-01-07 07:26:28.70	32.24	33.53	-53.5	-55.6	14.2	0.00e+00	0	25	0	682622976	72	4791
2026-01-07 07:26:32.71	30.71	33.52	-53.3	-55.4	14.3	0.00e+00	0	25	0	689963008	72	4652
2026-01-07 07:26:36.72	29.19	33.48	-53.9	-56.2	13.9	0.00e+00	0	25	0	697303040	72	5127
2026-01-07 07:26:40.73	27.67	33.42	-53.9	-56.2	14.0	0.00e+00	0	25	0	704643072	73	4856
2026-01-07 07:26:44.74	26.16	33.34	-54.0	-56.3	13.9	0.00e+00	0	25	0	711983104	73	4906
2026-01-07 07:26:48.75	24.65	33.23	-53.9	-56.2	14.0	0.00e+00	0	25	0	720371712	73	4866
2026-01-07 07:26:52.76	23.16	33.10	-53.9	-56.3	13.9	0.00e+00	0	25	0	727711744	73	4873
2026-01-07 07:26:56.77	21.68	32.96	-54.4	-56.9	13.7	0.00e+00	0	25	0	735051776	74	4976
2026-01-07 07:27:00.79	20.21	32.79	-54.4	-57.0	13.7	0.00e+00	0	25	0	742391808	74	4984
2026-01-07 07:27:04.80	18.76	32.60	-54.5	-57.1	13.6	0.00e+00	0	26	0	749731840	74	5091
2026-01-07 07:27:08.81	17.33	32.39	-54.3	-56.8	13.8	0.00e+00	0	25	0	758120448	74	4877
2026-01-07 07:27:12.82	15.92	32.16	-54.1	-56.4	14.0	0.00e+00	0	25	0	765460480	74	4669
2026-01-07 07:27:16.82	14.53	31.92	-54.4	-56.9	13.7	0.00e+00	0	25	0	772800512	74	4949
2026-01-07 07:27:20.83	13.16	31.66	-54.1	-56.5	14.0	0.00e+00	0	26	0	780140544	74	4715
2026-01-07 07:27:24.82	11.82	31.38	-54.4	-57.0	13.7	0.00e+00	0	25	0	787480576	74	5003
2026-01-07 07:27:28.81	10.50	31.09	-54.5	-57.1	13.6	0.00e+00	0	25	0	794820608	74	5076
2026-01-07 07:27:32.80	9.21	30.79	-54.5	-57.1	13.6	0.00e+00	0	25	0	803209216	74	5063
2026-01-07 07:27:36.79	7.94	30.47	-54.6	-57.2	13.5	0.00e+00	0	25	0	810549248	74	5155
2026-01-07 07:27:40.77	6.70	30.14	-54.3	-56.7	13.8	0.00e+00	0	25	0	817889280	74	4840
2026-01-07 07:27:44.75	5.48	29.80	-54.1	-56.5	13.9	0.00e+00	0	25	0	825229312	74	4745
2026-01-07 07:27:48.73	4.29	29.45	-54.3	-56.8	13.8	0.00e+00	0	25	0	832569344	74	4887
2026-01-07 07:27:52.71	3.13	29.10	-53.8	-56.0	14.2	0.00e+00	0	25	0	839909376	74	4471
2026-01-07 07:27:56.69	2.00	28.73	-53.9	-56.3	14.0	0.00e+00	0	25	0	847249408	74	4603
2026-01-07 07:28:00.68	0.88	28.36	-54.0	-56.4	14.0	0.00e+00	0	25	0	854589440	74	4673
2026-01-07 07:28:04.69	359.79	27.97	-53.8	-56.1	14.2	0.00e+00	0	26	0	861929472	74	4521
2026-01-07 07:28:08.72	358.72	27.58	-53.1	-55.1	14.4	0.00e+00	0	25	0	870318080	72	4502
2026-01-07 07:28:12.72	357.68	27.19	-53.0	-55.0	14.5	0.00e+00	0	25	0	877658112	72	4453
2026-01-07 07:28:16.72	356.67	26.79	-52.6	-54.4	14.6	0.00e+00	0	25	0	884998144	71	4438
2026-01-07 07:28:20.74	355.68	26.39	-51.9	-53.7	14.8	0.00e+00	0	25	0	892338176	70	4307
2026-01-07 07:28:24.77	354.71	25.98	-51.6	-53.3	14.9	0.00e+00	0	25	0	899678208	69	4368
2026-01-07 07:28:28.78	353.78	25.57	-51.2	-52.8	14.9	0.00e+00	0	25	0	908066816	68	4379
2026-01-07 07:28:32.79	352.86	25.16	-51.1	-52.6	15.0	0.00e+00	0	25	0	915406848	68	4275
2026-01-07 07:28:36.80	351.97	24.75	-50.6	-52.1	15.1	0.00e+00	0	25	0	922746880	67	4262
2026-01-07 07:28:40.81	351.11	24.33	-50.3	-51.7	15.2	0.00e+00	0	25	0	930086912	67	4098
2026-01-07 07:28:44.83	350.26	23.92	-50.5	-52.0	15.1	0.00e+00	0	25	0	937426944	67	4213
2026-01-07 07:28:48.83	349.44	23.51	-50.7	-52.3	15.0	0.00e+00	0	25	0	944766976	67	4354
2026-01-07 07:28:52.83	348.64	23.10	-50.8	-52.4	14.9	0.00e+00	0	25	0	953155584	67	4398
2026-01-07 07:28:56.85	347.86	22.68	-51.0	-52.6	14.9	0.00e+00	0	25	0	960495616	67	4500
2026-01-07 07:29:00.85	347.10	22.27	-51.1	-52.7	14.8	0.00e+00	0	25	0	967835648	67	4569
2026-01-07 07:29:04.86	346.37	21.86	-51.2	-52.9	14.7	0.00e+00	0	25	0	975175680	67	4665
2026-01-07 07:29:08.86	345.65	21.46	-51.1	-52.7	14.8	0.00e+00	0	25	0	982515712	67	4598
2026-01-07 07:29:12.86	344.95	21.05	-51.3	-52.9	14.7	0.00e+00	0	25	0	989855744	67	4699
2026-01-07 07:29:16.88	344.27	20.64	-51.6	-53.4	14.7	0.00e+00	0	25	0	998244352	68	4655
2026-01-07 07:29:20.86	343.61	20.25	-51.7	-53.4	14.6	0.00e+00	0	25	0	1005584384	68	4696
2026-01-07 07:29:24.85	342.97	19.85	-52.1	-53.9	14.6	0.00e+00	0	25	0	1012924416	69	4668
2026-01-07 07:29:28.84	342.34	19.45	-52.1	-53.9	14.5	0.00e+00	0	25	0	1020264448	69	4694
2026-01-07 07:29:32.82	341.73	19.06	-52.4	-54.3	14.4	0.00e+00	0	25	0	1027604480	69	4877
2026-01-07 07:29:36.81	341.14	18.67	-52.6	-54.5	14.4	0.00e+00	0	25	0	1034944512	70	4738
2026-01-07 07:29:40.80	340.56	18.28	-52.7	-54.7	14.3	0.00e+00	0	25	0	1042284544	70	4869
2026-01-07 07:29:44.79	340.00	17.90	-52.6	-54.5	14.4	0.00e+00	0	25	0	1049624576	70	4744
2026-01-07 07:29:48.79	339.45	17.52	-52.6	-54.6	14.4	3.00e-06	0	25	0	1058013184	70	4760
2026-01-07 07:29:52.77	338.91	17.14	-52.9	-54.9	14.2	0.00e+00	0	25	0	1065353216	70	4972
2026-01-07 07:29:56.77	338.39	16.77	-53.0	-55.1	14.2	0.00e+00	0	25	0	1072693248	71	4809
2026-01-07 07:30:00.76	337.88	16.40	-53.0	-55.1	14.2	0.00e+00	0	25	0	1080033280	71	4809
2026-01-07 07:30:04.74	337.39	16.03	-53.1	-55.2	14.1	0.00e+00	0	25	0	1087373312	71	4850
2026-01-07 07:30:08.73	336.90	15.67	-53.0	-55.1	14.2	0.00e+00	0	25	0	1094713344	71	4812
2026-01-07 07:30:12.73	336.43	15.30	-53.0	-55.1	14.2	0.00e+00	0	25	0	1102053376	71	4782
2026-01-07 07:30:16.71	335.97	14.95	-52.9	-54.9	14.3	0.00e+00	0	25	0	1110441984	71	4697
2026-01-07 07:30:20.70	335.52	14.59	-53.1	-55.3	14.1	0.00e+00	0	25	0	1117782016	71	4884
2026-01-07 07:30:24.70	335.08	14.24	-53.2	-55.4	14.0	0.00e+00	0	25	0	1125122048	71	4963
2026-01-07 07:30:28.70	334.65	13.89	-53.0	-55.2	14.1	0.00e+00	0	25	0	1132462080	71	4842
2026-01-07 07:30:32.69	334.24	13.55	-53.1	-55.2	14.1	0.00e+00	0	25	0	1139802112	71	4866
2026-01-07 07:30:36.70	333.83	13.20	-53.0	-55.2	14.1	0.00e+00	0	25	0	1147142144	71	4844
2026-01-07 07:30:40.70	333.43	12.87	-53.0	-55.1	14.1	0.00e+00	0	25	0	1154482176	71	4806
2026-01-07 07:30:44.70	333.04	12.53	-53.1	-55.3	14.1	0.00e+00	0	25	0	1162870784	71	4878
2026-01-07 07:30:48.71	332.66	12.20	-53.3	-55.6	13.9	0.00e+00	0	25	0	1170210816	71	5044
2026-01-07 07:30:52.71	332.28	11.87	-53.6	-55.9	13.8	0.00e+00	0	26	0	1177550848	72	4983
2026-01-07 07:30:56.72	331.92	11.54	-53.7	-56.2	13.7	0.00e+00	0	26	0	1184890880	72	5111
2026-01-07 07:31:00.73	331.56	11.22	-53.7	-56.2	13.6	0.00e+00	0	25	0	1192230912	72	5124
2026-01-07 07:31:04.74	331.22	10.90	-53.7	-56.2	13.6	0.00e+00	0	25	0	1199570944	72	5126
2026-01-07 07:31:08.75	330.88	10.58	-53.8	-56.3	13.6	0.00e+00	0	25	0	1207959552	72	5199
2026-01-07 07:31:12.77	330.54	10.27	-53.9	-56.5	13.4	0.00e+00	0	25	0	1215299584	72	5307
2026-01-07 07:31:16.78	330.22	9.96	-53.9	-56.5	13.6	0.00e+00	0	25	0	1222639616	73	4991
2026-01-07 07:31:20.78	329.90	9.65	-54.0	-56.7	13.4	0.00e+00	0	25	0	1229979648	73	5142
2026-01-07 07:31:24.78	329.59	9.34	-54.1	-56.9	13.3	0.00e+00	0	25	0	1237319680	73	5222
2026-01-07 07:31:28.79	329.28	9.04	-54.2	-57.0	13.2	0.00e+00	0	25	0	1244659712	73	5305
2026-01-07 07:31:32.78	328.99	8.74	-54.3	-57.2	13.1	0.00e+00	0	25	0	1253048320	73	5421
2026-01-07 07:31:36.77	328.70	8.45	-54.3	-57.2	13.1	0.00e+00	0	26	0	1260388352	73	5418
2026-01-07 07:31:40.76	328.41	8.16	-54.3	-57.3	13.0	0.00e+00	0	25	0	1267728384	73	5496
2026-01-07 07:31:44.75	328.14	7.87	-54.5	-57.5	13.0	0.00e+00	0	25	0	1275068416	74	5312
2026-01-07 07:31:48.74	327.86	7.58	-54.6	-57.7	12.8	0.00e+00	0	25	0	1282408448	74	5445
2026-01-07 07:31:52.72	327.60	7.29	-54.7	-58.0	12.6	0.00e+00	0	25	0	1289748480	74	5623
2026-01-07 07:31:56.71	327.34	7.01	-54.7	-58.1	12.5	0.00e+00	0	25	0	1297088512	74	5669
2026-01-07 07:32:00.70	327.08	6.73	-54.8	-58.3	12.4	0.00e+00	0	25	0	1305477120	74	5804
2026-01-07 07:32:04.68	326.83	6.46	-54.8	-58.2	12.4	0.00e+00	0	25	0	1312817152	74	5740
2026-01-07 07:32:08.66	326.58	6.18	-54.7	-58.0	12.5	7.00e-07	0	25	0	1320157184	74	5625
2026-01-07 07:32:12.67	326.34	5.91	-54.6	-57.8	12.6	0.00e+00	0	25	0	1327497216	74	5522
2026-01-07 07:32:16.69	326.10	5.64	-54.8	-58.3	12.3	0.00e+00	0	25	0	1334837248	74	5813
2026-01-07 07:32:20.69	325.87	5.37	-55.0	-58.7	12.1	3.00e-06	0	25	0	1342177280	75	5752
2026-01-07 07:32:24.70	325.64	5.10	-55.0	-58.8	12.0	4.50e-06	0	25	0	1349517312	75	5825
2026-01-07 07:32:28.71	325.42	4.84	-58.8	-74.9	3.8	1.49e+00	0	25	104	1353711616	82	24736
2026-01-07 07:32:32.70	325.20	4.57	-59.7	-75.8	3.8	1.49e+00	0	25	104	1353711616	84	24460
2026-01-07 07:32:36.70	324.98	4.31	-60.1	-76.1	3.8	1.49e+00	0	25	104	1353711616	85	23958
2026-01-07 07:32:40.69	324.77	4.06	-60.2	-76.3	3.8	1.49e+00	0	25	104	1353711616	85	24559
2026-01-07 07:32:44.69	324.57	3.80	-60.3	-76.4	3.8	1.49e+00	0	25	104	1353711616	85	24787
2026-01-07 07:32:48.69	324.36	3.55	-60.3	-76.4	3.8	1.49e+00	0	26	104	1353711616	85	24803
2026-01-07 07:32:52.70	324.16	3.30	-60.2	-76.3	3.8	1.49e+00	0	25	104	1353711616	85	24509
2026-01-07 07:32:56.70	323.97	3.05	-60.2	-76.3	3.8	1.49e+00	0	25	104	1353711616	85	24486
2026-01-07 07:33:00.70	323.78	2.80	-60.1	-76.2	3.8	1.49e+00	0	26	104	1353711616	85	24352
2026-01-07 07:33:04.70	323.59	2.55	-60.1	-76.2	3.8	1.49e+00	0	25	104	1353711616	85	24385
2026-01-07 07:33:08.72	323.40	2.31	-60.1	-76.2	3.8	1.49e+00	0	26	104	1353711616	85	24274
2026-01-07 07:33:12.72	323.22	2.06	-59.9	-76.1	3.8	1.49e+00	0	26	104	1353711616	85	23895

#Closed at: 2026-01-07 07:33:14
#Recorded file [1353 MB]: D:/lorett/data/31004_260107_101944.dat