passes_logs/2026/01/07/R3.2S_Murmansk/R3.2S_Murmansk__20260107_210203_NOAA_20_JPSS-1_rec.log

#Pass ID: 20260107_210203_NOAA 20 (JPSS-1)
#Satellite: NOAA 20 (JPSS-1)
#Configuration: NOAA 20
#almurnet v.1.7.20251203
#Start time: 2026-01-07 21:02:06

#Version: 2.2.20231116
#Station: R3.2S_Murmansk
#Location: 33.079688 lon 68.888172 lat
#TLE: 1 43013U 17073A   26006.30790171  .00000126  00000+0  80695-4 0  9991
#TLE: 2 43013  98.7629 307.3394 0001808  51.8724 308.2615 14.19533762421505

#Time	Az	El	Level	Level2	SNR	BER	BlckErr	Temp	State	Recorded	gain1	gain2
2026-01-07 21:02:06.03	18.90	2.09	-57.5	-73.5	3.8	1.49e+00	0	23	0	0	81	22265
2026-01-07 21:02:09.00	19.21	2.21	-57.5	-73.4	3.8	1.49e+00	0	23	104	0	80	23429
2026-01-07 21:02:11.98	19.52	2.34	-57.5	-73.4	3.8	1.49e+00	0	23	104	0	80	23427
2026-01-07 21:02:14.96	19.84	2.46	-57.4	-73.3	3.8	1.49e+00	0	23	104	0	80	23206
2026-01-07 21:02:17.96	20.17	2.58	-57.5	-73.2	3.8	1.49e+00	0	23	104	0	80	22900
2026-01-07 21:02:20.94	20.49	2.70	-57.5	-73.3	3.8	1.49e+00	0	24	104	0	80	23245
2026-01-07 21:02:23.92	20.81	2.82	-57.4	-73.4	3.8	1.49e+00	0	24	104	0	80	23334
2026-01-07 21:02:26.89	21.14	2.95	-57.4	-73.3	3.8	1.49e+00	0	24	104	0	80	23250
2026-01-07 21:02:29.89	21.47	3.07	-57.5	-73.4	3.8	1.49e+00	0	24	104	0	80	23474
2026-01-07 21:02:32.89	21.81	3.19	-57.5	-73.4	3.8	1.49e+00	0	24	104	0	80	23476
2026-01-07 21:02:35.88	22.15	3.31	-57.5	-73.5	3.8	1.49e+00	0	24	104	0	80	23603
2026-01-07 21:02:38.87	22.49	3.43	-57.5	-73.4	3.8	1.49e+00	0	24	104	0	80	23494
2026-01-07 21:02:41.86	22.83	3.55	-57.5	-73.4	3.8	1.49e+00	0	24	104	0	80	23350
2026-01-07 21:02:44.86	23.17	3.67	-57.5	-73.4	3.8	1.49e+00	0	24	104	0	80	23462
2026-01-07 21:02:47.85	23.52	3.79	-57.5	-73.4	3.8	1.49e+00	0	24	104	0	80	23417
2026-01-07 21:02:50.85	23.87	3.91	-57.5	-73.4	3.8	1.49e+00	0	24	104	0	80	23501
2026-01-07 21:02:53.84	24.23	4.03	-57.5	-73.3	3.8	1.49e+00	0	24	104	0	80	23152
2026-01-07 21:02:56.82	24.58	4.15	-57.4	-73.3	3.8	1.49e+00	0	24	104	0	80	23149
2026-01-07 21:02:59.82	24.94	4.27	-57.4	-73.1	3.8	1.49e+00	0	24	104	0	80	22687
2026-01-07 21:03:02.81	25.30	4.39	-57.4	-71.2	3.9	1.49e+00	0	24	104	0	80	18187
2026-01-07 21:03:05.82	25.67	4.51	-57.3	-69.7	4.2	1.45e+00	0	24	0	0	80	15333
2026-01-07 21:03:08.82	26.04	4.62	-55.9	-61.5	9.7	9.40e-03	0	24	0	5242880	78	6677
2026-01-07 21:03:11.81	26.41	4.74	-54.1	-57.4	12.7	0.00e+00	0	24	0	10485760	74	5251
2026-01-07 21:03:14.81	26.78	4.86	-54.3	-57.8	12.4	7.00e-07	0	24	0	15728640	74	5495
2026-01-07 21:03:17.80	27.16	4.97	-56.2	-62.6	8.8	1.74e-03	0	24	0	22020096	77	8048
2026-01-07 21:03:20.77	27.54	5.09	-56.7	-66.7	5.5	6.13e-02	0	24	0	27262976	78	12122
2026-01-07 21:03:23.74	27.91	5.20	-57.2	-67.3	5.4	3.67e-03	0	24	0	32505856	79	12341
2026-01-07 21:03:26.73	28.30	5.32	-53.8	-56.7	13.3	0.00e+00	0	24	0	38797312	74	4827
2026-01-07 21:03:29.71	28.68	5.43	-53.6	-56.5	13.3	0.00e+00	0	25	0	44040192	73	5001
2026-01-07 21:03:32.71	29.08	5.55	-53.7	-56.7	13.2	0.00e+00	0	25	0	49283072	73	5107
2026-01-07 21:03:35.70	29.47	5.66	-53.7	-56.5	13.3	0.00e+00	0	25	0	55574528	73	5037
2026-01-07 21:03:38.70	29.87	5.77	-53.7	-56.6	13.3	0.00e+00	0	25	0	60817408	73	5076
2026-01-07 21:03:41.68	30.26	5.88	-53.9	-56.9	13.1	0.00e+00	0	25	0	66060288	73	5244
2026-01-07 21:03:44.69	30.67	5.99	-53.6	-56.3	13.5	0.00e+00	0	25	0	72351744	73	4915
2026-01-07 21:03:47.69	31.08	6.10	-53.8	-56.6	13.3	0.00e+00	0	24	0	77594624	73	5060
2026-01-07 21:03:50.68	31.48	6.21	-53.5	-56.2	13.5	0.00e+00	0	25	0	82837504	73	4832
2026-01-07 21:03:53.68	31.89	6.32	-53.5	-56.2	13.6	0.00e+00	0	24	0	89128960	73	4830
2026-01-07 21:03:56.67	32.31	6.43	-53.4	-55.9	13.7	0.00e+00	0	25	0	94371840	73	4693
2026-01-07 21:03:59.68	32.73	6.54	-53.4	-56.0	13.7	0.00e+00	0	25	0	100663296	73	4752
2026-01-07 21:04:02.68	33.15	6.64	-53.4	-56.0	13.7	0.00e+00	0	25	0	105906176	73	4713
2026-01-07 21:04:05.66	33.57	6.75	-53.5	-56.1	13.6	0.00e+00	0	25	0	111149056	73	4812
2026-01-07 21:04:08.66	34.00	6.85	-53.2	-55.8	13.7	0.00e+00	0	25	0	117440512	72	4885
2026-01-07 21:04:11.66	34.43	6.96	-53.3	-55.8	13.7	0.00e+00	0	25	0	122683392	72	4887
2026-01-07 21:04:14.64	34.86	7.06	-53.3	-55.8	13.7	0.00e+00	0	25	0	127926272	72	4907
2026-01-07 21:04:17.64	35.29	7.16	-53.4	-56.0	13.6	0.00e+00	0	25	0	134217728	72	5039
2026-01-07 21:04:20.62	35.73	7.26	-53.5	-56.2	13.5	0.00e+00	0	25	0	139460608	72	5112
2026-01-07 21:04:23.62	36.17	7.36	-53.6	-56.3	13.4	0.00e+00	0	25	0	144703488	72	5181
2026-01-07 21:04:26.61	36.61	7.46	-53.3	-55.9	13.7	0.00e+00	0	25	0	150994944	72	4927
2026-01-07 21:04:29.59	37.06	7.56	-53.3	-55.9	13.7	0.00e+00	0	25	0	156237824	72	4933
2026-01-07 21:04:32.59	37.51	7.66	-53.4	-55.9	13.6	0.00e+00	0	25	0	161480704	72	4961
2026-01-07 21:04:35.57	37.96	7.75	-53.4	-55.9	13.7	0.00e+00	0	25	0	167772160	72	4972
2026-01-07 21:04:38.56	38.41	7.85	-53.5	-56.0	13.5	0.00e+00	0	25	0	173015040	72	5032
2026-01-07 21:04:41.54	38.87	7.94	-53.7	-56.4	13.4	0.00e+00	0	25	0	178257920	72	5273
2026-01-07 21:04:44.51	39.33	8.03	-53.7	-56.4	13.4	0.00e+00	0	25	0	184549376	72	5260
2026-01-07 21:04:47.51	39.79	8.12	-53.6	-56.3	13.5	0.00e+00	0	25	0	189792256	72	5182
2026-01-07 21:04:50.50	40.26	8.21	-53.5	-56.2	13.5	0.00e+00	0	25	0	195035136	72	5106
2026-01-07 21:04:53.49	40.72	8.30	-53.5	-56.1	13.5	0.00e+00	0	25	0	201326592	72	5085
2026-01-07 21:04:56.49	41.20	8.39	-53.5	-56.0	13.6	0.00e+00	0	25	0	206569472	72	5036
2026-01-07 21:04:59.48	41.67	8.47	-53.4	-55.9	13.6	0.00e+00	0	25	0	211812352	72	4969
2026-01-07 21:05:02.48	42.15	8.55	-53.5	-56.1	13.6	0.00e+00	0	25	0	218103808	72	5053
2026-01-07 21:05:05.47	42.63	8.64	-53.5	-56.1	13.5	0.00e+00	0	25	0	223346688	72	5067
2026-01-07 21:05:08.47	43.11	8.72	-53.5	-56.1	13.5	0.00e+00	0	25	0	229638144	72	5071
2026-01-07 21:05:11.47	43.60	8.80	-53.7	-56.4	13.5	0.00e+00	0	25	0	234881024	72	5227
2026-01-07 21:05:14.47	44.09	8.88	-53.5	-56.1	13.6	0.00e+00	0	25	0	240123904	72	5075
2026-01-07 21:05:17.45	44.58	8.95	-53.4	-55.9	13.7	0.00e+00	0	25	0	246415360	72	4942
2026-01-07 21:05:20.44	45.07	9.03	-53.2	-55.6	13.8	0.00e+00	0	25	0	251658240	72	4809
2026-01-07 21:05:23.43	45.56	9.10	-53.2	-55.6	13.7	0.00e+00	0	25	0	256901120	72	4805
2026-01-07 21:05:26.42	46.06	9.17	-53.3	-55.8	13.7	0.00e+00	0	25	0	263192576	72	4901
2026-01-07 21:05:29.42	46.56	9.24	-53.4	-56.0	13.8	0.00e+00	0	25	0	268435456	72	5009
2026-01-07 21:05:32.42	47.06	9.31	-53.4	-55.9	13.7	0.00e+00	0	25	0	273678336	72	4973
2026-01-07 21:05:35.42	47.57	9.38	-53.0	-55.4	13.9	0.00e+00	0	25	0	279969792	72	4668
2026-01-07 21:05:38.41	48.07	9.44	-53.2	-55.6	13.9	0.00e+00	0	25	0	285212672	72	4768
2026-01-07 21:05:41.41	48.58	9.51	-53.1	-55.5	13.9	0.00e+00	0	25	0	290455552	72	4728
2026-01-07 21:05:44.41	49.10	9.57	-53.2	-55.6	13.8	0.00e+00	0	25	0	296747008	72	4803
2026-01-07 21:05:47.40	49.61	9.63	-53.1	-55.5	13.9	0.00e+00	0	25	0	301989888	72	4751
2026-01-07 21:05:50.40	50.12	9.69	-53.2	-55.7	13.8	0.00e+00	0	25	0	308281344	72	4823
2026-01-07 21:05:53.39	50.64	9.74	-53.3	-55.7	13.8	0.00e+00	0	25	0	313524224	72	4866
2026-01-07 21:05:56.40	51.16	9.80	-53.3	-55.8	13.8	0.00e+00	0	25	0	318767104	72	4906
2026-01-07 21:05:59.38	51.68	9.85	-53.4	-55.9	13.6	0.00e+00	0	25	0	325058560	72	4949
2026-01-07 21:06:02.38	52.21	9.90	-53.4	-56.0	13.6	0.00e+00	0	25	0	330301440	72	5005
2026-01-07 21:06:05.37	52.73	9.95	-53.6	-56.1	13.6	0.00e+00	0	25	0	335544320	72	5099
2026-01-07 21:06:08.36	53.25	9.99	-53.4	-55.9	13.7	0.00e+00	0	25	0	341835776	72	4930
2026-01-07 21:06:11.36	53.78	10.04	-53.6	-56.3	13.5	0.00e+00	0	25	0	347078656	72	5164
2026-01-07 21:06:14.35	54.31	10.08	-53.9	-56.6	13.3	0.00e+00	0	25	0	352321536	72	5390
2026-01-07 21:06:17.34	54.84	10.12	-54.1	-57.0	13.2	0.00e+00	0	25	0	358612992	73	5310
2026-01-07 21:06:20.31	55.37	10.15	-53.9	-56.8	13.3	0.00e+00	0	25	0	363855872	73	5162
2026-01-07 21:06:23.29	55.90	10.19	-53.8	-56.5	13.4	0.00e+00	0	25	0	369098752	73	5039
2026-01-07 21:06:26.26	56.43	10.22	-53.7	-56.4	13.6	0.00e+00	0	25	0	375390208	73	4945
2026-01-07 21:06:29.25	56.96	10.25	-53.7	-56.3	13.6	0.00e+00	0	25	0	380633088	73	4900
2026-01-07 21:06:32.24	57.50	10.28	-53.8	-56.5	13.4	0.00e+00	0	25	0	385875968	73	5005
2026-01-07 21:06:35.24	58.04	10.31	-53.8	-56.5	13.4	0.00e+00	0	25	0	392167424	73	5019
2026-01-07 21:06:38.25	58.58	10.34	-53.6	-56.2	13.6	0.00e+00	0	25	0	397410304	73	4826
2026-01-07 21:06:41.25	59.12	10.36	-53.4	-55.9	13.9	0.00e+00	0	25	0	402653184	73	4660
2026-01-07 21:06:44.24	59.66	10.38	-53.4	-55.9	13.8	0.00e+00	0	25	0	408944640	73	4703
2026-01-07 21:06:47.23	60.20	10.40	-53.4	-55.9	13.8	0.00e+00	0	25	0	414187520	73	4696
2026-01-07 21:06:50.22	60.74	10.41	-53.4	-55.9	13.8	0.00e+00	0	25	0	419430400	73	4657
2026-01-07 21:06:53.22	61.29	10.43	-53.4	-55.9	13.8	0.00e+00	0	25	0	425721856	73	4691
2026-01-07 21:06:56.22	61.83	10.44	-53.3	-55.8	13.9	0.00e+00	0	25	0	430964736	73	4606
2026-01-07 21:06:59.21	62.37	10.45	-53.1	-55.5	13.9	0.00e+00	0	25	0	437256192	72	4726
2026-01-07 21:07:02.21	62.92	10.46	-52.9	-55.2	14.2	0.00e+00	0	25	0	442499072	72	4554
2026-01-07 21:07:05.20	63.46	10.46	-52.7	-54.9	14.3	0.00e+00	0	25	0	447741952	72	4426
2026-01-07 21:07:08.21	64.01	10.46	-52.8	-55.1	14.1	0.00e+00	0	25	0	454033408	72	4512
2026-01-07 21:07:11.20	64.55	10.46	-52.8	-55.1	14.1	0.00e+00	0	25	0	459276288	72	4500
2026-01-07 21:07:14.20	65.09	10.46	-52.5	-54.6	14.3	0.00e+00	0	25	0	464519168	71	4532
2026-01-07 21:07:17.18	65.64	10.46	-52.1	-54.1	14.4	0.00e+00	0	25	0	470810624	70	4534
2026-01-07 21:07:20.18	66.18	10.45	-52.1	-54.1	14.4	0.00e+00	0	25	0	476053504	70	4532
2026-01-07 21:07:23.17	66.72	10.44	-52.4	-54.5	14.2	0.00e+00	0	25	0	481296384	70	4706
2026-01-07 21:07:26.16	67.26	10.43	-52.4	-54.6	14.2	0.00e+00	0	25	0	487587840	70	4780
2026-01-07 21:07:29.15	67.81	10.42	-52.5	-54.6	14.1	0.00e+00	0	25	0	492830720	70	4796
2026-01-07 21:07:32.13	68.35	10.40	-52.3	-54.4	14.3	0.00e+00	0	25	0	498073600	70	4686
2026-01-07 21:07:35.11	68.89	10.38	-52.2	-54.3	14.3	0.00e+00	0	25	0	504365056	70	4633
2026-01-07 21:07:38.10	69.43	10.36	-52.3	-54.4	14.3	0.00e+00	0	25	0	509607936	70	4672
2026-01-07 21:07:41.11	69.97	10.34	-52.3	-54.4	14.3	0.00e+00	0	25	0	514850816	70	4682
2026-01-07 21:07:44.10	70.51	10.32	-52.3	-54.3	14.3	0.00e+00	0	25	0	521142272	70	4645
2026-01-07 21:07:47.11	71.05	10.29	-52.5	-54.6	14.1	0.00e+00	0	25	0	526385152	70	4788
2026-01-07 21:07:50.11	71.59	10.26	-52.5	-54.6	14.2	0.00e+00	0	25	0	532676608	70	4806
2026-01-07 21:07:53.11	72.12	10.23	-52.6	-54.8	14.0	0.00e+00	0	25	0	537919488	70	4918
2026-01-07 21:07:56.10	72.66	10.20	-52.7	-55.0	14.0	0.00e+00	0	25	0	543162368	70	5010
2026-01-07 21:07:59.09	73.19	10.16	-52.7	-55.0	14.0	0.00e+00	0	25	0	549453824	70	5006
2026-01-07 21:08:02.10	73.73	10.12	-52.8	-55.0	13.9	0.00e+00	0	25	0	554696704	70	5039
2026-01-07 21:08:05.10	74.26	10.09	-52.6	-54.8	14.1	0.00e+00	0	25	0	559939584	70	4873
2026-01-07 21:08:08.09	74.79	10.04	-52.3	-54.4	14.3	0.00e+00	0	25	0	566231040	70	4653
2026-01-07 21:08:11.10	75.32	10.00	-52.3	-54.4	14.3	0.00e+00	0	25	0	571473920	70	4653
2026-01-07 21:08:14.10	75.85	9.95	-52.5	-54.6	14.1	0.00e+00	0	25	0	576716800	70	4802
2026-01-07 21:08:17.08	76.37	9.91	-52.5	-54.7	14.1	0.00e+00	0	25	0	583008256	70	4833
2026-01-07 21:08:20.07	76.90	9.86	-52.4	-54.6	14.1	0.00e+00	0	25	0	588251136	70	4793
2026-01-07 21:08:23.05	77.42	9.81	-52.5	-54.7	14.1	0.00e+00	0	25	0	593494016	70	4851
2026-01-07 21:08:26.03	77.93	9.75	-52.3	-54.4	14.3	0.00e+00	0	25	0	599785472	70	4671
2026-01-07 21:08:29.02	78.45	9.70	-52.2	-54.3	14.3	0.00e+00	0	25	0	605028352	70	4634
2026-01-07 21:08:32.01	78.97	9.64	-52.0	-54.0	14.5	0.00e+00	0	25	0	610271232	70	4473
2026-01-07 21:08:35.00	79.48	9.58	-51.9	-54.0	14.5	0.00e+00	0	25	0	616562688	70	4445
2026-01-07 21:08:37.99	79.99	9.52	-52.1	-54.1	14.4	0.00e+00	0	25	0	621805568	70	4533
2026-01-07 21:08:40.99	80.50	9.46	-52.2	-54.4	14.3	0.00e+00	0	25	0	628097024	70	4654
2026-01-07 21:08:43.99	81.01	9.39	-52.2	-54.3	14.3	0.00e+00	0	25	0	633339904	70	4606
2026-01-07 21:08:47.00	81.52	9.32	-52.3	-54.5	14.2	0.00e+00	0	25	0	638582784	70	4723
2026-01-07 21:08:49.99	82.03	9.25	-52.3	-54.4	14.2	0.00e+00	0	25	0	644874240	70	4692
2026-01-07 21:08:52.99	82.53	9.18	-52.0	-54.0	14.4	0.00e+00	0	25	0	650117120	70	4468
2026-01-07 21:08:55.99	83.03	9.11	-52.1	-54.1	14.4	0.00e+00	0	25	0	655360000	70	4516
2026-01-07 21:08:58.98	83.53	9.04	-52.4	-54.6	14.2	0.00e+00	0	25	0	661651456	70	4764
2026-01-07 21:09:01.99	84.02	8.96	-52.6	-54.9	14.0	0.00e+00	0	25	0	666894336	70	4938
2026-01-07 21:09:04.98	84.51	8.89	-52.5	-54.7	14.1	0.00e+00	0	25	0	672137216	70	4859
2026-01-07 21:09:07.97	85.00	8.81	-52.5	-54.7	14.1	0.00e+00	0	25	0	678428672	70	4829
2026-01-07 21:09:10.97	85.49	8.73	-52.5	-54.7	14.1	0.00e+00	0	25	0	683671552	70	4827
2026-01-07 21:09:13.98	85.98	8.65	-52.8	-55.2	13.8	0.00e+00	0	25	0	689963008	70	5122
2026-01-07 21:09:16.98	86.46	8.56	-53.0	-55.5	13.7	0.00e+00	0	25	0	695205888	71	5026
2026-01-07 21:09:19.97	86.94	8.48	-53.3	-55.9	13.5	0.00e+00	0	25	0	700448768	71	5227
2026-01-07 21:09:22.97	87.42	8.39	-53.8	-56.6	13.2	0.00e+00	0	25	0	706740224	72	5388
2026-01-07 21:09:25.95	87.89	8.31	-54.0	-57.0	13.1	0.00e+00	0	25	0	711983104	73	5300
2026-01-07 21:09:28.95	88.36	8.22	-53.9	-56.9	13.1	0.00e+00	0	25	0	717225984	73	5271
2026-01-07 21:09:31.94	88.83	8.13	-53.6	-56.4	13.4	0.00e+00	0	25	0	723517440	73	4963
2026-01-07 21:09:34.94	89.29	8.04	-53.7	-56.5	13.4	0.00e+00	0	25	0	728760320	73	5001
2026-01-07 21:09:37.94	89.76	7.95	-53.7	-56.6	13.3	0.00e+00	0	25	0	734003200	73	5044
2026-01-07 21:09:40.93	90.22	7.85	-53.9	-56.8	13.1	0.00e+00	0	25	0	740294656	73	5183
2026-01-07 21:09:43.92	90.67	7.76	-54.2	-57.4	12.8	0.00e+00	0	25	0	745537536	73	5546
2026-01-07 21:09:46.91	91.13	7.66	-54.7	-58.3	12.2	1.50e-06	0	25	0	750780416	74	5848
2026-01-07 21:09:49.91	91.58	7.56	-54.8	-58.6	12.0	7.00e-07	0	25	0	757071872	74	6012
2026-01-07 21:09:52.90	92.03	7.47	-54.7	-58.3	12.2	2.20e-06	0	25	0	762314752	74	5853
2026-01-07 21:09:55.89	92.47	7.37	-54.5	-58.0	12.5	0.00e+00	0	25	0	768606208	74	5603
2026-01-07 21:09:58.87	92.91	7.27	-54.4	-57.8	12.6	0.00e+00	0	25	0	773849088	74	5470
2026-01-07 21:10:01.87	93.35	7.17	-54.3	-57.5	12.7	0.00e+00	0	25	0	779091968	74	5337
2026-01-07 21:10:04.87	93.79	7.06	-54.4	-57.8	12.6	0.00e+00	0	25	0	785383424	74	5492
2026-01-07 21:10:07.87	94.22	6.96	-54.5	-58.0	12.4	7.00e-07	0	25	0	790626304	74	5609
2026-01-07 21:10:10.86	94.65	6.86	-54.4	-57.8	12.5	0.00e+00	0	25	0	795869184	74	5471
2026-01-07 21:10:13.86	95.08	6.75	-54.1	-57.3	12.9	0.00e+00	0	25	0	802160640	74	5196
2026-01-07 21:10:16.85	95.51	6.64	-54.1	-57.2	13.0	0.00e+00	0	25	0	807403520	74	5121
2026-01-07 21:10:19.85	95.93	6.54	-54.3	-57.8	12.5	0.00e+00	0	25	0	812646400	74	5473
2026-01-07 21:10:22.83	96.35	6.43	-54.5	-58.0	12.4	0.00e+00	0	25	0	818937856	74	5623
2026-01-07 21:10:25.81	96.76	6.32	-54.2	-57.5	12.8	0.00e+00	0	25	0	824180736	74	5282
2026-01-07 21:10:28.82	97.18	6.21	-53.7	-56.6	13.3	0.00e+00	0	25	0	829423616	74	4768
2026-01-07 21:10:31.81	97.58	6.10	-53.7	-56.6	13.2	0.00e+00	0	25	0	835715072	73	5073
2026-01-07 21:10:34.80	97.99	5.99	-53.8	-56.8	13.1	0.00e+00	0	25	0	840957952	73	5179
2026-01-07 21:10:37.79	98.39	5.88	-53.7	-56.7	13.1	0.00e+00	0	25	0	846200832	73	5150
2026-01-07 21:10:40.79	98.80	5.77	-53.6	-56.6	13.2	0.00e+00	0	25	0	852492288	73	5050
2026-01-07 21:10:43.79	99.20	5.65	-53.7	-56.7	13.1	0.00e+00	0	25	0	857735168	73	5113
2026-01-07 21:10:46.79	99.59	5.54	-53.9	-57.1	12.8	0.00e+00	0	25	0	864026624	73	5364
2026-01-07 21:10:49.78	99.98	5.43	-53.8	-57.0	12.9	0.00e+00	0	25	0	869269504	73	5305
2026-01-07 21:10:52.78	100.37	5.31	-53.5	-56.4	13.3	0.00e+00	0	25	0	874512384	73	4946
2026-01-07 21:10:55.77	100.76	5.20	-53.3	-56.1	13.4	0.00e+00	0	25	0	880803840	73	4772
2026-01-07 21:10:58.78	101.14	5.08	-53.1	-55.8	13.5	0.00e+00	0	25	0	886046720	72	4925
2026-01-07 21:11:01.77	101.52	4.96	-57.9	-74.1	3.8	1.49e+00	0	25	104	890241024	81	23876
2026-01-07 21:11:04.77	101.90	4.84	-58.7	-74.8	3.8	1.49e+00	0	25	104	890241024	82	24467
2026-01-07 21:11:07.76	102.28	4.73	-59.1	-75.2	3.8	1.49e+00	0	25	104	890241024	83	24283
2026-01-07 21:11:10.76	102.65	4.61	-59.4	-75.5	3.8	1.49e+00	0	25	104	890241024	83	25097
2026-01-07 21:11:13.75	103.02	4.49	-59.8	-75.9	3.8	1.49e+00	0	25	104	890241024	84	24724
2026-01-07 21:11:16.76	103.39	4.37	-59.9	-76.0	3.8	1.49e+00	0	25	104	890241024	84	25087
2026-01-07 21:11:19.75	103.75	4.25	-60.1	-76.2	3.8	1.49e+00	0	25	104	890241024	85	24235
2026-01-07 21:11:22.74	104.11	4.13	-60.1	-76.2	3.8	1.49e+00	0	25	104	890241024	85	24394
2026-01-07 21:11:25.74	104.47	4.01	-60.2	-76.3	3.8	1.49e+00	0	25	104	890241024	85	24650
2026-01-07 21:11:28.72	104.82	3.89	-60.3	-76.4	3.8	1.49e+00	0	25	104	890241024	85	24826
2026-01-07 21:11:31.71	105.17	3.77	-60.2	-76.3	3.8	1.49e+00	0	25	104	890241024	85	24554
2026-01-07 21:11:34.70	105.52	3.65	-60.2	-76.3	3.8	1.49e+00	0	25	104	890241024	85	24495
2026-01-07 21:11:37.69	105.87	3.53	-60.1	-76.3	3.8	1.49e+00	0	25	104	890241024	85	24424
2026-01-07 21:11:40.68	106.21	3.41	-60.1	-76.2	3.8	1.49e+00	0	25	104	890241024	85	24320
2026-01-07 21:11:43.68	106.55	3.29	-60.1	-76.2	3.8	1.49e+00	0	25	104	890241024	85	24247
2026-01-07 21:11:46.66	106.89	3.16	-60.1	-76.2	3.8	1.49e+00	0	25	104	890241024	85	24200
2026-01-07 21:11:49.65	107.22	3.04	-60.1	-76.2	3.8	1.49e+00	0	25	104	890241024	85	24163
2026-01-07 21:11:52.65	107.56	2.92	-60.0	-76.2	3.8	1.49e+00	0	25	104	890241024	85	24188
2026-01-07 21:11:55.66	107.89	2.80	-60.0	-76.2	3.8	1.49e+00	0	25	104	890241024	85	24150
2026-01-07 21:11:58.65	108.22	2.67	-60.0	-76.1	3.8	1.49e+00	0	25	104	890241024	85	24078
2026-01-07 21:12:01.65	108.54	2.55	-60.0	-76.1	3.8	1.49e+00	0	25	104	890241024	85	23971
2026-01-07 21:12:04.64	108.86	2.43	-60.0	-76.1	3.8	1.49e+00	0	25	104	890241024	85	23959
2026-01-07 21:12:07.62	109.18	2.30	-60.0	-76.1	3.8	1.49e+00	0	25	104	890241024	85	23957
2026-01-07 21:12:10.62	109.50	2.18	-60.0	-76.1	3.8	1.49e+00	0	25	104	890241024	85	23870
2026-01-07 21:12:13.62	109.82	2.05	-60.0	-76.1	3.8	1.49e+00	0	25	104	890241024	85	23866
2026-01-07 21:12:16.63	110.13	1.93	-59.9	-76.0	3.8	1.49e+00	0	25	104	890241024	85	23827

#Closed at: 2026-01-07 21:12:16
#Recorded file [890 MB]: D:/lorett/data/31004_260108_000205.dat