passes_logs/2026/01/07/R3.2S_Murmansk/R3.2S_Murmansk__20260107_114828_AQUA_rec.log

#Pass ID: 20260107_114828_AQUA
#Satellite: AQUA
#Configuration: AQUA
#almurnet v.1.7.20251203
#Start time: 2026-01-07 11:48:29

#Version: 2.2.20231116
#Station: R3.2S_Murmansk
#Location: 33.079688 lon 68.888172 lat
#TLE: 1 27424U 02022A   26004.96787593  .00001598  00000+0  32997-3 0  9996
#TLE: 2 27424  98.4069 331.2279 0002002  90.2377   0.6092 14.61798176259425

#Time	Az	El	Level	Level2	SNR	BER	BlckErr	Temp	State	Recorded	gain1	gain2
2026-01-07 11:48:29.34	166.12	2.08	-57.2	-76.4	3.8	7.47e-01	0	23	0	0	83	32492
2026-01-07 11:48:33.38	166.20	2.35	-57.2	-75.6	3.8	7.46e-01	0	23	104	0	82	31267
2026-01-07 11:48:37.42	166.28	2.62	-57.2	-76.2	3.8	7.46e-01	0	23	104	0	82	33516
2026-01-07 11:48:41.45	166.37	2.90	-57.2	-75.7	3.8	7.45e-01	0	23	104	0	82	31796
2026-01-07 11:48:45.49	166.46	3.17	-57.2	-76.4	3.8	7.47e-01	0	23	104	0	82	34474
2026-01-07 11:48:49.53	166.54	3.45	-57.1	-71.6	4.6	7.18e-01	0	24	104	0	82	19633
2026-01-07 11:48:53.57	166.63	3.74	-56.6	-65.5	9.1	6.29e-01	0	24	0	5242880	82	9761
2026-01-07 11:48:57.60	166.73	4.02	-56.1	-62.9	11.2	6.11e-01	0	24	0	13107200	81	7653
2026-01-07 11:49:01.62	166.82	4.31	-55.6	-61.4	12.3	6.10e-01	0	24	0	20447232	80	6812
2026-01-07 11:49:05.66	166.91	4.61	-55.1	-59.9	13.3	6.06e-01	0	24	0	27787264	79	6093
2026-01-07 11:49:09.70	167.01	4.91	-55.5	-61.1	12.3	6.09e-01	0	24	0	35651584	79	7008
2026-01-07 11:49:13.73	167.11	5.21	-52.6	-55.4	14.7	6.05e-01	0	24	0	40894464	74	4844
2026-01-07 11:49:17.75	167.21	5.51	-51.1	-53.3	15.5	6.07e-01	0	24	0	48234496	71	4508
2026-01-07 11:49:21.78	167.31	5.82	-50.8	-53.0	15.4	6.07e-01	0	24	0	55574528	70	4617
2026-01-07 11:49:25.81	167.42	6.13	-50.7	-52.8	15.5	6.08e-01	0	24	0	63438848	70	4542
2026-01-07 11:49:29.85	167.53	6.45	-50.8	-52.8	15.5	6.08e-01	0	24	0	70778880	70	4542
2026-01-07 11:49:33.87	167.63	6.77	-50.6	-52.7	15.6	6.08e-01	0	24	0	78643200	70	4446
2026-01-07 11:49:37.91	167.75	7.09	-50.6	-52.5	15.6	6.05e-01	0	24	0	85983232	70	4391
2026-01-07 11:49:41.93	167.86	7.42	-50.8	-52.9	15.5	6.07e-01	0	24	0	93847552	70	4547
2026-01-07 11:49:45.97	167.98	7.76	-50.4	-52.4	15.7	6.06e-01	0	24	0	101187584	70	4299
2026-01-07 11:49:50.00	168.10	8.10	-50.3	-52.3	15.5	6.06e-01	0	25	0	108527616	69	4504
2026-01-07 11:49:54.03	168.22	8.44	-50.4	-52.3	15.5	6.07e-01	0	24	0	116391936	69	4543
2026-01-07 11:49:58.05	168.34	8.79	-50.1	-52.0	15.5	6.07e-01	0	25	0	123731968	69	4379
2026-01-07 11:50:02.08	168.47	9.15	-50.1	-52.0	15.7	6.05e-01	0	24	0	131596288	69	4345
2026-01-07 11:50:06.10	168.60	9.51	-50.0	-51.9	15.7	6.06e-01	0	24	0	138936320	69	4312
2026-01-07 11:50:10.13	168.73	9.88	-50.0	-51.8	15.7	6.07e-01	0	25	0	146276352	69	4287
2026-01-07 11:50:14.16	168.87	10.25	-50.0	-51.9	15.7	6.07e-01	0	25	0	154140672	69	4313
2026-01-07 11:50:18.19	169.01	10.63	-49.8	-51.6	15.6	6.07e-01	0	24	0	161480704	68	4406
2026-01-07 11:50:22.22	169.15	11.01	-49.6	-51.4	15.7	6.08e-01	0	24	0	169345024	68	4319
2026-01-07 11:50:26.26	169.30	11.41	-49.6	-51.3	15.7	6.06e-01	0	25	0	176685056	68	4281
2026-01-07 11:50:30.29	169.45	11.81	-49.8	-51.6	15.6	6.08e-01	0	25	0	184025088	68	4393
2026-01-07 11:50:34.31	169.61	12.21	-49.5	-51.2	15.7	6.08e-01	0	24	0	191889408	68	4236
2026-01-07 11:50:38.34	169.77	12.63	-49.5	-51.2	15.8	6.07e-01	0	24	0	199229440	68	4210
2026-01-07 11:50:42.35	169.93	13.05	-49.5	-51.2	15.7	6.06e-01	0	25	0	207093760	68	4223
2026-01-07 11:50:46.39	170.10	13.48	-49.4	-51.1	15.8	6.06e-01	0	25	0	214433792	68	4176
2026-01-07 11:50:50.41	170.28	13.92	-49.4	-51.1	15.6	6.06e-01	0	25	0	221773824	67	4399
2026-01-07 11:50:54.44	170.45	14.36	-49.3	-51.0	15.6	6.05e-01	0	25	0	229638144	67	4380
2026-01-07 11:50:58.46	170.64	14.82	-49.2	-50.9	15.7	6.06e-01	0	25	0	236978176	67	4324
2026-01-07 11:51:02.49	170.83	15.28	-49.2	-50.9	15.7	6.06e-01	0	25	0	244842496	67	4324
2026-01-07 11:51:06.52	171.03	15.76	-49.2	-50.9	15.7	6.07e-01	0	25	0	252182528	67	4315
2026-01-07 11:51:10.54	171.23	16.24	-49.1	-50.7	15.8	6.05e-01	0	25	0	259522560	67	4222
2026-01-07 11:51:14.57	171.44	16.74	-49.1	-50.7	15.7	6.06e-01	0	25	0	267386880	67	4221
2026-01-07 11:51:18.61	171.65	17.25	-49.1	-50.8	15.7	6.04e-01	0	25	0	274726912	67	4255
2026-01-07 11:51:22.63	171.88	17.77	-49.1	-50.8	15.7	6.07e-01	0	25	0	282591232	67	4252
2026-01-07 11:51:26.65	172.11	18.30	-49.1	-50.7	15.7	6.07e-01	0	25	0	289931264	67	4222
2026-01-07 11:51:30.69	172.35	18.84	-49.0	-50.6	15.8	6.05e-01	0	25	0	297271296	67	4188
2026-01-07 11:51:34.71	172.59	19.40	-49.2	-50.8	15.7	6.08e-01	0	25	0	305135616	67	4289
2026-01-07 11:51:38.74	172.85	19.97	-49.3	-51.0	15.6	6.07e-01	0	24	0	312475648	67	4365
2026-01-07 11:51:42.76	173.12	20.55	-49.1	-50.7	15.7	6.04e-01	0	25	0	320339968	67	4233
2026-01-07 11:51:46.80	173.40	21.15	-49.1	-50.8	15.7	6.06e-01	0	25	0	327680000	67	4246
2026-01-07 11:51:50.82	173.68	21.76	-49.3	-51.0	15.6	6.04e-01	0	25	0	335020032	67	4363
2026-01-07 11:51:54.84	173.98	22.39	-49.3	-50.9	15.7	6.05e-01	0	25	0	342884352	67	4324
2026-01-07 11:51:58.87	174.29	23.04	-49.4	-51.0	15.6	6.08e-01	0	25	0	350224384	67	4368
2026-01-07 11:52:02.90	174.62	23.70	-49.6	-51.3	15.5	6.05e-01	0	25	0	358088704	67	4509
2026-01-07 11:52:06.93	174.96	24.38	-49.5	-51.1	15.6	6.03e-01	0	25	0	365428736	67	4433
2026-01-07 11:52:10.95	175.31	25.08	-49.3	-51.0	15.6	6.06e-01	0	24	0	373293056	67	4360
2026-01-07 11:52:14.97	175.68	25.80	-49.5	-51.2	15.6	6.04e-01	0	25	0	380633088	67	4454
2026-01-07 11:52:19.01	176.07	26.54	-49.3	-50.9	15.7	6.04e-01	0	25	0	387973120	67	4314
2026-01-07 11:52:23.04	176.48	27.30	-49.3	-50.9	15.7	6.06e-01	0	25	0	395837440	67	4340
2026-01-07 11:52:27.07	176.91	28.09	-49.1	-50.7	15.8	6.06e-01	0	25	0	403177472	67	4196
2026-01-07 11:52:31.10	177.36	28.89	-48.9	-50.5	15.8	6.08e-01	0	25	0	411041792	67	4130
2026-01-07 11:52:35.12	177.83	29.72	-48.8	-50.3	15.7	6.07e-01	0	25	0	418381824	66	4288
2026-01-07 11:52:39.14	178.33	30.57	-49.1	-50.7	15.6	6.06e-01	0	25	0	425721856	66	4474
2026-01-07 11:52:43.17	178.85	31.45	-49.0	-50.6	15.6	6.06e-01	0	25	0	433586176	66	4393
2026-01-07 11:52:47.19	179.40	32.36	-49.0	-50.6	15.6	6.06e-01	0	25	0	440926208	66	4433
2026-01-07 11:52:51.23	179.99	33.29	-49.4	-51.1	15.5	6.07e-01	0	25	0	448266240	66	4671
2026-01-07 11:52:55.25	180.61	34.25	-49.8	-51.6	15.5	6.06e-01	0	25	0	456130560	67	4653
2026-01-07 11:52:59.27	181.27	35.24	-49.8	-51.5	15.5	6.07e-01	0	25	0	463470592	67	4629
2026-01-07 11:53:03.30	181.97	36.26	-50.5	-52.3	15.4	6.05e-01	0	25	0	471334912	68	4780
2026-01-07 11:53:07.34	182.72	37.31	-50.7	-52.5	15.5	6.04e-01	0	25	0	478674944	69	4617
2026-01-07 11:53:11.37	183.52	38.40	-50.9	-52.8	15.4	6.06e-01	0	25	0	486539264	69	4774
2026-01-07 11:53:15.39	184.37	39.51	-50.6	-52.5	15.5	6.08e-01	0	25	0	493879296	69	4605
2026-01-07 11:53:19.42	185.29	40.65	-50.2	-51.9	15.7	6.07e-01	0	25	0	501219328	69	4332
2026-01-07 11:53:23.45	186.27	41.82	-49.9	-51.6	15.8	6.06e-01	0	25	0	509083648	69	4160
2026-01-07 11:53:27.48	187.33	43.03	-49.1	-50.7	15.8	6.08e-01	0	25	0	516423680	67	4200
2026-01-07 11:53:31.51	188.47	44.27	-49.0	-50.6	15.8	6.06e-01	0	25	0	524288000	67	4166
2026-01-07 11:53:35.53	189.70	45.53	-48.8	-50.4	15.7	6.05e-01	0	25	0	531628032	66	4299
2026-01-07 11:53:39.56	191.04	46.82	-48.6	-50.1	15.8	6.07e-01	0	25	0	538968064	66	4179
2026-01-07 11:53:43.59	192.49	48.14	-48.6	-50.2	15.7	6.07e-01	0	25	0	546832384	66	4202
2026-01-07 11:53:47.62	194.07	49.47	-48.7	-50.2	15.7	6.08e-01	0	25	0	554172416	66	4220
2026-01-07 11:53:51.66	195.81	50.83	-48.7	-50.2	15.7	6.05e-01	0	25	0	562036736	66	4236
2026-01-07 11:53:55.69	197.70	52.20	-48.6	-50.1	15.6	6.06e-01	0	25	0	569376768	65	4402
2026-01-07 11:53:59.72	199.78	53.57	-48.4	-49.9	15.7	6.07e-01	0	25	0	576716800	65	4327
2026-01-07 11:54:03.76	202.07	54.95	-48.8	-50.3	15.6	6.03e-01	0	25	0	584581120	65	4534
2026-01-07 11:54:07.79	204.58	56.31	-49.3	-50.9	15.5	6.05e-01	0	25	0	591921152	66	4592
2026-01-07 11:54:11.82	207.35	57.64	-50.2	-52.0	15.5	6.01e-01	0	25	0	599785472	68	4607
2026-01-07 11:54:15.85	210.41	58.94	-51.1	-53.0	15.3	6.01e-01	0	25	0	607125504	69	4873
2026-01-07 11:54:19.89	213.78	60.19	-51.5	-53.5	15.3	6.01e-01	0	25	0	614989824	70	4886
2026-01-07 11:54:23.92	217.48	61.36	-51.7	-53.6	15.4	6.02e-01	0	25	0	622329856	71	4689
2026-01-07 11:54:27.95	221.53	62.44	-52.1	-54.2	15.3	6.01e-01	0	25	0	630194176	72	4733
2026-01-07 11:54:31.98	225.93	63.41	-52.7	-55.0	15.2	6.01e-01	0	25	0	637534208	73	4886
2026-01-07 11:54:36.01	230.68	64.24	-52.9	-55.2	15.1	6.03e-01	0	25	0	644874240	73	5021
2026-01-07 11:54:40.03	235.74	64.90	-52.7	-54.9	15.3	6.00e-01	0	25	0	652738560	74	4577
2026-01-07 11:54:44.06	241.08	65.39	-53.2	-55.6	15.1	6.02e-01	0	25	0	660078592	74	4931
2026-01-07 11:54:48.10	246.62	65.69	-52.7	-54.9	15.4	6.01e-01	0	25	0	667942912	74	4562
2026-01-07 11:54:52.13	252.25	65.78	-52.9	-55.1	15.2	6.01e-01	0	25	0	675282944	74	4696
2026-01-07 11:54:56.15	257.85	65.65	-52.4	-54.5	15.4	6.00e-01	0	25	0	682622976	73	4611
2026-01-07 11:55:00.18	263.35	65.33	-52.4	-54.5	15.3	6.01e-01	0	25	0	690487296	73	4610
2026-01-07 11:55:04.21	268.65	64.81	-51.7	-53.6	15.5	6.01e-01	0	25	0	697827328	72	4415
2026-01-07 11:55:08.24	273.67	64.11	-51.6	-53.5	15.4	6.00e-01	0	25	0	705691648	71	4629
2026-01-07 11:55:12.27	278.36	63.26	-51.7	-53.7	15.4	6.01e-01	0	25	0	713031680	71	4733
2026-01-07 11:55:16.30	282.70	62.27	-50.9	-52.6	15.7	6.01e-01	0	25	0	720371712	71	4185
2026-01-07 11:55:20.33	286.69	61.18	-50.5	-52.2	15.7	6.00e-01	0	25	0	728236032	70	4231
2026-01-07 11:55:24.36	290.32	59.99	-50.9	-52.7	15.5	5.98e-01	0	25	0	735576064	70	4469
2026-01-07 11:55:28.39	293.63	58.74	-50.6	-52.3	15.7	6.01e-01	0	25	0	743440384	70	4272
2026-01-07 11:55:32.42	296.63	57.44	-49.8	-51.4	15.6	6.01e-01	0	25	0	750780416	68	4304
2026-01-07 11:55:36.44	299.35	56.11	-49.2	-50.7	15.7	6.01e-01	0	25	0	758120448	67	4207
2026-01-07 11:55:40.47	301.82	54.75	-49.2	-50.8	15.5	6.00e-01	0	25	0	765984768	66	4529
2026-01-07 11:55:44.51	304.08	53.38	-49.1	-50.6	15.6	6.01e-01	0	25	0	773324800	66	4424
2026-01-07 11:55:48.55	306.12	52.00	-49.2	-50.7	15.5	5.99e-01	0	25	0	781189120	66	4482
2026-01-07 11:55:52.57	307.98	50.65	-49.8	-51.4	15.5	6.02e-01	0	25	0	788529152	67	4595
2026-01-07 11:55:56.60	309.69	49.30	-49.8	-51.4	15.5	6.04e-01	0	25	0	796393472	67	4596
2026-01-07 11:56:00.62	311.25	47.97	-49.9	-51.5	15.4	6.02e-01	0	25	0	803733504	67	4645
2026-01-07 11:56:04.65	312.68	46.66	-50.0	-51.7	15.4	6.04e-01	0	25	0	811073536	67	4725
2026-01-07 11:56:08.69	314.00	45.37	-49.7	-51.4	15.5	6.01e-01	0	25	0	818937856	67	4554
2026-01-07 11:56:12.72	315.22	44.12	-49.8	-51.5	15.5	6.00e-01	0	25	0	826277888	67	4618
2026-01-07 11:56:16.75	316.35	42.89	-49.8	-51.5	15.5	6.00e-01	0	25	0	834142208	67	4611
2026-01-07 11:56:20.77	317.39	41.70	-50.0	-51.7	15.4	6.00e-01	0	25	0	841482240	67	4715
2026-01-07 11:56:24.80	318.36	40.53	-50.4	-52.1	15.4	6.02e-01	0	25	0	848822272	68	4703
2026-01-07 11:56:28.82	319.26	39.40	-50.3	-52.0	15.5	6.02e-01	0	25	0	856686592	68	4601
2026-01-07 11:56:32.85	320.11	38.29	-50.1	-51.8	15.5	6.00e-01	0	25	0	864026624	68	4529
2026-01-07 11:56:36.88	320.90	37.22	-49.8	-51.4	15.6	6.01e-01	0	25	0	871366656	68	4307
2026-01-07 11:56:40.90	321.64	36.18	-49.5	-51.2	15.7	6.00e-01	0	25	0	879230976	68	4194
2026-01-07 11:56:44.93	322.33	35.17	-49.4	-50.9	15.8	6.00e-01	0	25	0	886571008	68	4098
2026-01-07 11:56:48.96	322.99	34.19	-48.7	-50.2	15.7	6.01e-01	0	25	0	894435328	66	4241
2026-01-07 11:56:52.99	323.60	33.23	-48.5	-50.0	15.8	6.02e-01	0	25	0	901775360	66	4124
2026-01-07 11:56:57.03	324.19	32.30	-48.4	-49.9	15.6	6.00e-01	0	25	0	909639680	65	4336
2026-01-07 11:57:01.06	324.74	31.40	-48.2	-49.7	15.7	6.02e-01	0	25	0	916979712	65	4229
2026-01-07 11:57:05.09	325.26	30.53	-48.2	-49.6	15.7	6.03e-01	0	25	0	924319744	65	4182
2026-01-07 11:57:09.12	325.75	29.68	-48.2	-49.6	15.7	6.01e-01	0	25	0	932184064	65	4183
2026-01-07 11:57:13.16	326.22	28.86	-48.4	-50.0	15.6	6.00e-01	0	25	0	939524096	65	4342
2026-01-07 11:57:17.19	326.67	28.06	-48.7	-50.2	15.5	6.02e-01	0	25	0	947388416	65	4485
2026-01-07 11:57:21.22	327.09	27.28	-48.7	-50.3	15.6	6.02e-01	0	25	0	954728448	65	4511
2026-01-07 11:57:25.24	327.50	26.52	-49.0	-50.6	15.5	6.00e-01	0	25	0	962068480	65	4700
2026-01-07 11:57:29.27	327.88	25.79	-49.1	-50.7	15.5	5.99e-01	0	25	0	969932800	65	4739
2026-01-07 11:57:33.29	328.25	25.08	-49.3	-50.9	15.5	6.01e-01	0	25	0	977272832	66	4597
2026-01-07 11:57:37.32	328.60	24.38	-49.4	-51.0	15.5	5.99e-01	0	25	0	985137152	66	4646
2026-01-07 11:57:41.35	328.94	23.71	-49.6	-51.3	15.4	5.99e-01	0	25	0	992477184	66	4780
2026-01-07 11:57:45.37	329.27	23.05	-49.5	-51.2	15.6	5.99e-01	0	25	0	999817216	67	4453
2026-01-07 11:57:49.40	329.58	22.41	-49.4	-51.0	15.6	6.02e-01	0	25	0	1007681536	67	4368
2026-01-07 11:57:53.43	329.88	21.78	-49.2	-50.8	15.7	6.02e-01	0	25	0	1015021568	67	4275
2026-01-07 11:57:57.47	330.17	21.17	-49.3	-50.9	15.6	6.02e-01	0	25	0	1022885888	67	4328
2026-01-07 11:58:01.49	330.44	20.58	-49.0	-50.6	15.7	6.02e-01	0	25	0	1030225920	67	4193
2026-01-07 11:58:05.53	330.71	19.99	-48.9	-50.5	15.8	6.02e-01	0	25	0	1038090240	67	4121
2026-01-07 11:58:09.56	330.97	19.43	-48.9	-50.5	15.8	6.01e-01	0	25	0	1045430272	67	4130
2026-01-07 11:58:13.59	331.22	18.88	-49.0	-50.6	15.7	6.01e-01	0	25	0	1052770304	67	4157
2026-01-07 11:58:17.62	331.46	18.34	-49.0	-50.6	15.7	6.02e-01	0	25	0	1060634624	67	4174
2026-01-07 11:58:21.65	331.69	17.81	-49.1	-50.7	15.7	6.01e-01	0	25	0	1067974656	67	4209
2026-01-07 11:58:25.68	331.91	17.29	-49.0	-50.7	15.7	6.00e-01	0	25	0	1075838976	67	4194
2026-01-07 11:58:29.71	332.13	16.79	-49.0	-50.6	15.8	5.99e-01	0	25	0	1083179008	67	4173
2026-01-07 11:58:33.74	332.34	16.29	-49.0	-50.6	15.7	6.01e-01	0	25	0	1090519040	67	4192
2026-01-07 11:58:37.77	332.54	15.81	-48.9	-50.5	15.6	5.99e-01	0	25	0	1098383360	66	4374
2026-01-07 11:58:41.80	332.74	15.34	-48.9	-50.5	15.6	6.01e-01	0	25	0	1105723392	66	4359
2026-01-07 11:58:45.84	332.93	14.87	-48.8	-50.4	15.6	5.99e-01	0	25	0	1113587712	66	4340
2026-01-07 11:58:49.87	333.11	14.42	-48.9	-50.5	15.6	6.00e-01	0	25	0	1120927744	66	4374
2026-01-07 11:58:53.90	333.29	13.98	-48.8	-50.4	15.6	6.02e-01	0	25	0	1128792064	66	4340
2026-01-07 11:58:57.92	333.47	13.54	-48.9	-50.5	15.6	6.02e-01	0	25	0	1136132096	66	4360
2026-01-07 11:59:01.95	333.64	13.11	-49.0	-50.7	15.6	5.98e-01	0	25	0	1143472128	66	4442
2026-01-07 11:59:05.98	333.80	12.69	-48.9	-50.6	15.6	6.01e-01	0	25	0	1151336448	66	4405
2026-01-07 11:59:10.02	333.97	12.28	-49.0	-50.7	15.5	6.01e-01	0	25	0	1158676480	66	4467
2026-01-07 11:59:14.04	334.12	11.88	-49.1	-50.7	15.5	6.02e-01	0	25	0	1166540800	66	4480
2026-01-07 11:59:18.08	334.28	11.48	-49.1	-50.8	15.4	6.02e-01	0	25	0	1173880832	66	4518
2026-01-07 11:59:22.11	334.43	11.09	-49.2	-50.9	15.5	6.00e-01	0	25	0	1181220864	66	4552
2026-01-07 11:59:26.14	334.57	10.70	-49.2	-50.9	15.5	6.02e-01	0	25	0	1189085184	66	4583
2026-01-07 11:59:30.17	334.71	10.33	-49.3	-51.0	15.5	6.01e-01	0	25	0	1196425216	66	4644
2026-01-07 11:59:34.19	334.85	9.96	-49.4	-51.1	15.4	6.01e-01	0	25	0	1204289536	66	4678
2026-01-07 11:59:38.21	334.99	9.59	-49.4	-51.2	15.4	6.02e-01	0	25	0	1211629568	66	4733
2026-01-07 11:59:42.24	335.12	9.23	-49.6	-51.4	15.5	5.99e-01	0	25	0	1219493888	67	4556
2026-01-07 11:59:46.27	335.25	8.88	-49.6	-51.4	15.5	6.00e-01	0	25	0	1226833920	67	4587
2026-01-07 11:59:50.30	335.37	8.53	-49.8	-51.6	15.2	6.04e-01	0	25	0	1234173952	67	4694
2026-01-07 11:59:54.33	335.50	8.19	-49.8	-51.6	15.4	6.00e-01	0	25	0	1242038272	67	4682
2026-01-07 11:59:58.36	335.62	7.85	-49.9	-51.7	15.4	6.00e-01	0	25	0	1249378304	67	4744
2026-01-07 12:00:02.38	335.74	7.52	-50.0	-51.9	15.3	6.02e-01	0	25	0	1256718336	67	4851
2026-01-07 12:00:06.41	335.85	7.19	-50.0	-51.9	15.4	5.99e-01	0	25	0	1264582656	68	4596
2026-01-07 12:00:10.44	335.97	6.87	-50.3	-52.2	15.3	6.02e-01	0	25	0	1271922688	68	4744
2026-01-07 12:00:14.47	336.08	6.55	-50.4	-52.5	15.3	6.00e-01	0	25	0	1279787008	68	4875
2026-01-07 12:00:18.50	336.19	6.23	-50.6	-52.7	15.2	6.03e-01	0	25	0	1287127040	68	5007
2026-01-07 12:00:22.53	336.29	5.92	-50.6	-52.7	15.3	6.00e-01	0	25	0	1294467072	69	4749
2026-01-07 12:00:26.56	336.40	5.61	-50.6	-52.7	15.3	6.03e-01	0	25	0	1302331392	69	4719
2026-01-07 12:00:30.59	336.50	5.31	-50.6	-52.7	15.3	6.01e-01	0	25	0	1309671424	69	4728
2026-01-07 12:00:34.63	336.60	5.01	-54.6	-58.8	14.2	6.01e-01	0	25	0	1317535744	76	6368
2026-01-07 12:00:38.66	336.70	4.71	-59.0	-78.3	3.8	7.46e-01	0	25	104	1318584320	85	36063
2026-01-07 12:00:42.69	336.80	4.42	-59.5	-78.8	3.8	7.45e-01	0	25	104	1318584320	86	36078
2026-01-07 12:00:46.72	336.90	4.13	-59.7	-79.1	3.8	7.48e-01	0	25	104	1318584320	87	34914
2026-01-07 12:00:50.75	336.99	3.85	-59.7	-79.1	3.8	7.46e-01	0	25	104	1318584320	87	35144
2026-01-07 12:00:54.78	337.08	3.56	-59.8	-79.2	3.8	7.47e-01	0	25	104	1318584320	87	35435
2026-01-07 12:00:58.82	337.18	3.29	-59.7	-79.1	3.8	7.49e-01	0	25	104	1318584320	87	35195
2026-01-07 12:01:02.85	337.26	3.01	-59.7	-79.1	3.8	7.50e-01	0	25	104	1318584320	87	34911
2026-01-07 12:01:06.88	337.35	2.74	-59.6	-79.0	3.8	7.44e-01	0	25	104	1318584320	87	34816
2026-01-07 12:01:10.91	337.44	2.47	-59.6	-79.0	3.8	7.46e-01	0	25	104	1318584320	87	34571
2026-01-07 12:01:14.94	337.53	2.20	-59.6	-78.9	3.8	7.44e-01	0	25	104	1318584320	87	34461
2026-01-07 12:01:18.97	337.61	1.93	-59.6	-79.0	3.8	7.44e-01	0	25	104	1318584320	87	34529

#Closed at: 2026-01-07 12:01:19
#Recorded file [1318 MB]: D:/lorett/data/31004_260107_144829.dat