passes_logs/2026/01/07/R3.2S_Murmansk/R3.2S_Murmansk__20260107_040154_NOAA_20_JPSS-1_rec.log

#Pass ID: 20260107_040154_NOAA 20 (JPSS-1)
#Satellite: NOAA 20 (JPSS-1)
#Configuration: NOAA 20
#almurnet v.1.7.20251203
#Start time: 2026-01-07 04:01:53

#Version: 2.2.20231116
#Station: R3.2S_Murmansk
#Location: 33.079688 lon 68.888172 lat
#TLE: 1 43013U 17073A   26006.30790171  .00000126  00000+0  80695-4 0  9991
#TLE: 2 43013  98.7629 307.3394 0001808  51.8724 308.2615 14.19533762421505

#Time	Az	El	Level	Level2	SNR	BER	BlckErr	Temp	State	Recorded	gain1	gain2
2026-01-07 04:01:53.60	47.50	1.97	-57.5	-73.5	3.8	1.49e+00	0	23	0	0	81	22300
2026-01-07 04:01:57.61	47.26	2.20	-57.5	-73.4	3.8	1.49e+00	0	23	104	0	80	23573
2026-01-07 04:02:01.61	47.02	2.44	-57.5	-73.5	3.8	1.49e+00	0	24	104	0	80	23630
2026-01-07 04:02:05.60	46.77	2.67	-57.5	-73.4	3.8	1.49e+00	0	24	104	0	80	23521
2026-01-07 04:02:09.59	46.52	2.90	-57.5	-73.5	3.8	1.49e+00	0	24	104	0	80	23601
2026-01-07 04:02:13.59	46.27	3.14	-57.5	-73.4	3.8	1.49e+00	0	24	104	0	80	23561
2026-01-07 04:02:17.59	46.01	3.38	-57.5	-73.4	3.8	1.49e+00	0	24	104	0	80	23540
2026-01-07 04:02:21.59	45.75	3.62	-57.5	-73.4	3.8	1.49e+00	0	24	104	0	80	23557
2026-01-07 04:02:25.59	45.48	3.86	-57.5	-73.5	3.8	1.49e+00	0	24	104	0	80	23663
2026-01-07 04:02:29.59	45.21	4.10	-57.5	-73.2	3.8	1.49e+00	0	24	104	0	80	23010
2026-01-07 04:02:33.61	44.93	4.35	-57.4	-71.7	3.8	1.49e+00	0	24	104	0	80	19330
2026-01-07 04:02:37.60	44.65	4.59	-57.3	-69.2	4.4	1.35e+00	87	24	0	0	80	14530
2026-01-07 04:02:41.61	44.36	4.84	-56.9	-65.2	6.6	2.04e-01	0	25	0	7340032	80	9145
2026-01-07 04:02:45.59	44.07	5.09	-56.6	-63.7	8.2	5.64e-02	0	25	0	14680064	79	8118
2026-01-07 04:02:49.60	43.77	5.34	-56.9	-65.3	6.9	2.20e-06	0	25	0	22020096	78	10301
2026-01-07 04:02:53.60	43.47	5.59	-54.6	-58.1	12.5	7.00e-07	0	25	0	29360128	75	5349
2026-01-07 04:02:57.57	43.16	5.84	-54.3	-57.6	12.8	0.00e+00	0	25	0	36700160	75	5085
2026-01-07 04:03:01.57	42.85	6.10	-54.2	-57.2	13.0	0.00e+00	0	25	0	44040192	74	5158
2026-01-07 04:03:05.58	42.52	6.36	-54.2	-57.3	13.0	0.00e+00	0	25	0	51380224	74	5164
2026-01-07 04:03:09.59	42.20	6.62	-54.1	-57.0	13.2	0.00e+00	0	25	0	59768832	74	5032
2026-01-07 04:03:13.57	41.87	6.88	-54.0	-56.9	13.3	0.00e+00	0	25	0	67108864	74	4972
2026-01-07 04:03:17.57	41.53	7.14	-54.1	-57.0	13.2	0.00e+00	0	25	0	74448896	74	4998
2026-01-07 04:03:21.58	41.18	7.40	-54.1	-57.0	13.2	0.00e+00	0	25	0	81788928	74	5032
2026-01-07 04:03:25.57	40.83	7.67	-54.2	-57.2	13.1	0.00e+00	0	25	0	89128960	74	5137
2026-01-07 04:03:29.57	40.47	7.93	-54.2	-57.1	13.2	0.00e+00	0	25	0	96468992	74	5046
2026-01-07 04:03:33.55	40.11	8.20	-54.2	-57.1	13.3	0.00e+00	0	25	0	104857600	74	5046
2026-01-07 04:03:37.55	39.74	8.47	-54.0	-56.8	13.5	0.00e+00	0	25	0	112197632	74	4888
2026-01-07 04:03:41.54	39.36	8.75	-54.0	-56.8	13.5	0.00e+00	0	25	0	119537664	74	4886
2026-01-07 04:03:45.54	38.97	9.02	-54.0	-56.7	13.5	0.00e+00	0	25	0	126877696	74	4819
2026-01-07 04:03:49.54	38.58	9.30	-54.0	-56.7	13.6	0.00e+00	0	25	0	134217728	74	4817
2026-01-07 04:03:53.54	38.18	9.57	-54.0	-56.6	13.6	0.00e+00	0	25	0	141557760	74	4797
2026-01-07 04:03:57.53	37.77	9.85	-54.0	-56.6	13.6	0.00e+00	0	25	0	148897792	74	4786
2026-01-07 04:04:01.54	37.35	10.13	-53.9	-56.5	13.7	0.00e+00	0	25	0	156237824	74	4720
2026-01-07 04:04:05.53	36.92	10.42	-53.7	-56.2	13.7	0.00e+00	0	25	0	164626432	73	4825
2026-01-07 04:04:09.54	36.48	10.70	-53.4	-55.8	14.0	0.00e+00	0	25	0	171966464	73	4643
2026-01-07 04:04:13.54	36.04	10.99	-53.5	-55.9	13.9	0.00e+00	0	25	0	179306496	73	4681
2026-01-07 04:04:17.53	35.59	11.27	-53.5	-56.0	13.9	0.00e+00	0	25	0	186646528	73	4720
2026-01-07 04:04:21.53	35.12	11.56	-53.6	-56.0	13.9	0.00e+00	0	25	0	193986560	73	4743
2026-01-07 04:04:25.53	34.65	11.85	-53.7	-56.2	13.8	0.00e+00	0	25	0	201326592	73	4829
2026-01-07 04:04:29.53	34.17	12.15	-53.5	-56.0	13.9	0.00e+00	0	25	0	209715200	73	4708
2026-01-07 04:04:33.53	33.68	12.44	-53.6	-56.0	13.9	0.00e+00	0	25	0	217055232	73	4712
2026-01-07 04:04:37.54	33.18	12.73	-53.4	-55.7	14.1	0.00e+00	0	25	0	224395264	73	4590
2026-01-07 04:04:41.54	32.66	13.03	-53.3	-55.7	14.1	0.00e+00	0	25	0	231735296	73	4547
2026-01-07 04:04:45.53	32.14	13.33	-53.4	-55.8	14.1	0.00e+00	0	25	0	239075328	73	4612
2026-01-07 04:04:49.53	31.61	13.63	-53.2	-55.4	14.3	0.00e+00	0	25	0	246415360	73	4409
2026-01-07 04:04:53.54	31.06	13.93	-53.0	-55.1	14.3	0.00e+00	0	25	0	253755392	72	4537
2026-01-07 04:04:57.53	30.51	14.23	-53.1	-55.2	14.2	0.00e+00	0	25	0	262144000	72	4593
2026-01-07 04:05:01.54	29.94	14.53	-53.0	-55.1	14.3	0.00e+00	0	25	0	269484032	72	4523
2026-01-07 04:05:05.53	29.36	14.83	-52.9	-55.0	14.3	0.00e+00	0	25	0	276824064	72	4486
2026-01-07 04:05:09.53	28.76	15.13	-52.8	-54.9	14.4	0.00e+00	0	25	0	284164096	72	4396
2026-01-07 04:05:13.53	28.16	15.44	-52.8	-54.8	14.5	0.00e+00	0	25	0	291504128	72	4370
2026-01-07 04:05:17.54	27.54	15.74	-52.9	-55.0	14.4	0.00e+00	0	25	0	298844160	72	4442
2026-01-07 04:05:21.54	26.91	16.05	-52.9	-55.0	14.4	0.00e+00	0	25	0	307232768	72	4481
2026-01-07 04:05:25.52	26.27	16.35	-53.1	-55.2	14.3	0.00e+00	0	25	0	314572800	72	4577
2026-01-07 04:05:29.51	25.61	16.66	-53.1	-55.2	14.3	0.00e+00	0	25	0	321912832	72	4569
2026-01-07 04:05:33.51	24.94	16.96	-53.2	-55.4	14.2	0.00e+00	0	25	0	329252864	72	4685
2026-01-07 04:05:37.52	24.26	17.27	-53.1	-55.3	14.2	0.00e+00	0	25	0	336592896	72	4626
2026-01-07 04:05:41.51	23.56	17.57	-53.1	-55.2	14.3	0.00e+00	0	25	0	343932928	72	4593
2026-01-07 04:05:45.50	22.85	17.87	-53.4	-55.6	14.1	0.00e+00	0	25	0	351272960	72	4788
2026-01-07 04:05:49.50	22.12	18.17	-53.4	-55.6	14.1	0.00e+00	0	25	0	359661568	72	4780
2026-01-07 04:05:53.47	21.38	18.47	-53.4	-55.6	14.1	0.00e+00	0	25	0	367001600	72	4795
2026-01-07 04:05:57.47	20.63	18.77	-53.1	-55.3	14.3	0.00e+00	0	25	0	374341632	72	4606
2026-01-07 04:06:01.46	19.86	19.07	-53.2	-55.4	14.2	0.00e+00	0	25	0	381681664	72	4683
2026-01-07 04:06:05.45	19.07	19.36	-53.0	-55.1	14.4	0.00e+00	0	25	0	389021696	72	4506
2026-01-07 04:06:09.46	18.26	19.66	-52.8	-54.8	14.5	0.00e+00	0	25	0	396361728	72	4391
2026-01-07 04:06:13.45	17.45	19.95	-52.5	-54.5	14.5	0.00e+00	0	25	0	403701760	71	4448
2026-01-07 04:06:17.46	16.61	20.23	-51.9	-53.7	14.8	0.00e+00	0	25	0	412090368	70	4294
2026-01-07 04:06:21.44	15.76	20.52	-51.8	-53.5	14.9	0.00e+00	0	25	0	419430400	70	4212
2026-01-07 04:06:25.43	14.90	20.80	-51.6	-53.3	14.9	0.00e+00	0	25	0	426770432	69	4351
2026-01-07 04:06:29.43	14.01	21.07	-51.4	-53.1	14.9	0.00e+00	0	25	0	434110464	69	4267
2026-01-07 04:06:33.43	13.12	21.35	-51.3	-53.0	15.0	0.00e+00	0	25	0	441450496	69	4197
2026-01-07 04:06:37.43	12.20	21.61	-51.3	-52.9	15.0	0.00e+00	0	25	0	448790528	69	4164
2026-01-07 04:06:41.43	11.27	21.88	-51.2	-52.8	15.1	0.00e+00	0	25	0	456130560	69	4144
2026-01-07 04:06:45.44	10.32	22.13	-51.0	-52.6	15.0	0.00e+00	0	25	0	464519168	68	4267
2026-01-07 04:06:49.43	9.36	22.38	-51.4	-53.0	14.8	0.00e+00	0	25	0	471859200	68	4475
2026-01-07 04:06:53.42	8.38	22.63	-51.3	-52.9	14.9	0.00e+00	0	25	0	479199232	68	4419
2026-01-07 04:06:57.42	7.39	22.86	-51.4	-53.1	14.8	0.00e+00	0	25	0	486539264	68	4514
2026-01-07 04:07:01.40	6.39	23.09	-51.2	-52.8	14.9	0.00e+00	0	25	0	493879296	68	4357
2026-01-07 04:07:05.41	5.36	23.32	-51.0	-52.5	15.0	0.00e+00	0	25	0	501219328	68	4237
2026-01-07 04:07:09.40	4.33	23.53	-51.1	-52.7	15.0	0.00e+00	0	25	0	508559360	68	4326
2026-01-07 04:07:13.40	3.27	23.73	-50.9	-52.4	15.1	0.00e+00	0	25	0	516947968	68	4164
2026-01-07 04:07:17.39	2.21	23.93	-50.7	-52.2	15.2	0.00e+00	0	25	0	524288000	68	4068
2026-01-07 04:07:21.38	1.13	24.12	-50.7	-52.3	15.0	0.00e+00	0	25	0	531628032	67	4350
2026-01-07 04:07:25.39	0.04	24.29	-51.0	-52.6	14.8	0.00e+00	0	25	0	538968064	67	4541
2026-01-07 04:07:29.39	358.94	24.46	-51.3	-52.9	14.7	0.00e+00	0	25	0	546308096	67	4686
2026-01-07 04:07:33.38	357.82	24.62	-51.7	-53.5	14.6	0.00e+00	0	25	0	553648128	68	4717
2026-01-07 04:07:37.37	356.70	24.76	-51.8	-53.5	14.6	0.00e+00	0	25	0	560988160	68	4736
2026-01-07 04:07:41.35	355.57	24.89	-52.3	-54.1	14.5	0.00e+00	0	25	0	569376768	69	4808
2026-01-07 04:07:45.34	354.43	25.02	-52.5	-54.3	14.5	0.00e+00	0	25	0	576716800	70	4642
2026-01-07 04:07:49.33	353.27	25.13	-52.7	-54.7	14.4	0.00e+00	0	25	0	584056832	70	4840
2026-01-07 04:07:53.33	352.11	25.22	-52.8	-54.8	14.3	0.00e+00	0	25	0	591396864	70	4872
2026-01-07 04:07:57.34	350.94	25.31	-52.8	-54.8	14.4	0.00e+00	0	25	0	598736896	71	4629
2026-01-07 04:08:01.34	349.77	25.38	-53.0	-55.0	14.3	0.00e+00	0	25	0	606076928	71	4738
2026-01-07 04:08:05.34	348.59	25.44	-52.8	-54.8	14.5	0.00e+00	0	25	0	613416960	71	4607
2026-01-07 04:08:09.33	347.41	25.48	-52.9	-54.9	14.4	0.00e+00	0	25	0	621805568	71	4670
2026-01-07 04:08:13.33	346.22	25.51	-53.1	-55.2	14.3	0.00e+00	0	25	0	629145600	71	4838
2026-01-07 04:08:17.33	345.03	25.53	-52.7	-54.6	14.5	0.00e+00	0	25	0	636485632	71	4526
2026-01-07 04:08:21.33	343.84	25.54	-52.6	-54.4	14.6	0.00e+00	0	25	0	643825664	71	4422
2026-01-07 04:08:25.33	342.66	25.53	-52.2	-54.0	14.9	0.00e+00	0	25	0	651165696	71	4199
2026-01-07 04:08:29.33	341.47	25.51	-52.0	-53.8	14.8	0.00e+00	0	25	0	658505728	70	4356
2026-01-07 04:08:33.32	340.29	25.47	-51.6	-53.3	14.9	0.00e+00	0	25	0	666894336	69	4357
2026-01-07 04:08:37.32	339.10	25.42	-51.6	-53.2	14.9	0.00e+00	0	25	0	674234368	69	4307
2026-01-07 04:08:41.30	337.93	25.36	-51.3	-52.9	15.1	0.00e+00	0	25	0	681574400	69	4167
2026-01-07 04:08:45.31	336.75	25.29	-50.9	-52.4	15.1	0.00e+00	0	25	0	688914432	68	4169
2026-01-07 04:08:49.30	335.59	25.20	-50.8	-52.4	15.1	0.00e+00	0	25	0	696254464	68	4147
2026-01-07 04:08:53.31	334.43	25.10	-50.5	-52.0	15.1	0.00e+00	0	25	0	703594496	67	4211
2026-01-07 04:08:57.30	333.28	24.99	-50.8	-52.4	15.0	0.00e+00	0	25	0	710934528	67	4417
2026-01-07 04:09:01.31	332.13	24.86	-50.9	-52.5	14.9	0.00e+00	0	25	0	719323136	67	4450
2026-01-07 04:09:05.32	330.99	24.72	-51.1	-52.7	14.8	0.00e+00	0	25	0	726663168	67	4566
2026-01-07 04:09:09.31	329.87	24.58	-51.4	-53.0	14.7	0.00e+00	0	25	0	734003200	67	4744
2026-01-07 04:09:13.32	328.76	24.42	-51.9	-53.6	14.6	0.00e+00	0	25	0	741343232	68	4790
2026-01-07 04:09:17.31	327.66	24.25	-51.8	-53.5	14.8	0.00e+00	0	25	0	748683264	69	4460
2026-01-07 04:09:21.31	326.57	24.07	-52.3	-54.1	14.5	0.00e+00	0	25	0	756023296	69	4763
2026-01-07 04:09:25.32	325.49	23.88	-52.5	-54.4	14.5	0.00e+00	0	25	0	764411904	70	4663
2026-01-07 04:09:29.32	324.43	23.68	-52.5	-54.4	14.5	0.00e+00	0	25	0	771751936	70	4671
2026-01-07 04:09:33.32	323.38	23.47	-52.6	-54.5	14.5	0.00e+00	0	25	0	779091968	70	4730
2026-01-07 04:09:37.33	322.34	23.25	-52.7	-54.6	14.4	0.00e+00	0	25	0	786432000	70	4797
2026-01-07 04:09:41.32	321.33	23.03	-52.7	-54.6	14.4	0.00e+00	0	25	0	793772032	70	4762
2026-01-07 04:09:45.31	320.32	22.80	-52.9	-54.9	14.2	0.00e+00	0	25	0	801112064	70	4954
2026-01-07 04:09:49.32	319.33	22.56	-53.0	-55.0	14.3	0.00e+00	0	25	0	808452096	71	4755
2026-01-07 04:09:53.31	318.36	22.31	-53.0	-55.0	14.4	0.00e+00	0	25	0	816840704	71	4726
2026-01-07 04:09:57.30	317.40	22.06	-52.8	-54.7	14.5	0.00e+00	0	25	0	824180736	71	4561
2026-01-07 04:10:01.28	316.46	21.80	-52.4	-54.2	14.7	0.00e+00	0	25	0	831520768	71	4306
2026-01-07 04:10:05.28	315.54	21.54	-52.1	-53.9	14.7	0.00e+00	0	25	0	838860800	70	4396
2026-01-07 04:10:09.26	314.63	21.27	-51.9	-53.7	14.8	0.00e+00	0	25	0	846200832	70	4299
2026-01-07 04:10:13.27	313.73	21.00	-51.9	-53.6	14.9	0.00e+00	0	25	0	853540864	70	4281
2026-01-07 04:10:17.26	312.86	20.72	-51.9	-53.7	14.8	0.00e+00	0	25	0	860880896	70	4302
2026-01-07 04:10:21.26	311.99	20.44	-52.0	-53.7	14.8	0.00e+00	0	25	0	869269504	70	4309
2026-01-07 04:10:25.25	311.15	20.15	-52.0	-53.7	14.8	0.00e+00	0	25	0	876609536	70	4316
2026-01-07 04:10:29.25	310.32	19.86	-52.0	-53.7	14.8	0.00e+00	0	25	0	883949568	70	4335
2026-01-07 04:10:33.26	309.50	19.57	-52.0	-53.7	14.8	0.00e+00	0	25	0	891289600	70	4324
2026-01-07 04:10:37.26	308.70	19.28	-51.8	-53.5	14.9	0.00e+00	0	25	0	898629632	70	4239
2026-01-07 04:10:41.25	307.92	18.98	-51.7	-53.3	14.8	0.00e+00	0	25	0	905969664	69	4381
2026-01-07 04:10:45.26	307.14	18.68	-51.6	-53.3	14.8	0.00e+00	0	25	0	913309696	69	4381
2026-01-07 04:10:49.27	306.39	18.38	-51.5	-53.2	14.9	0.00e+00	0	25	0	921698304	69	4295
2026-01-07 04:10:53.27	305.65	18.08	-51.1	-52.6	15.0	0.00e+00	0	25	0	929038336	68	4269
2026-01-07 04:10:57.26	304.93	17.78	-51.2	-52.8	14.9	0.00e+00	0	25	0	936378368	68	4364
2026-01-07 04:11:01.25	304.22	17.48	-51.1	-52.7	15.0	0.00e+00	0	25	0	943718400	68	4319
2026-01-07 04:11:05.26	303.52	17.17	-51.0	-52.5	15.0	0.00e+00	0	25	0	951058432	68	4240
2026-01-07 04:11:09.25	302.84	16.87	-51.1	-52.7	15.0	0.00e+00	0	25	0	958398464	68	4295
2026-01-07 04:11:13.25	302.17	16.56	-51.4	-53.0	14.8	0.00e+00	0	25	0	966787072	68	4478
2026-01-07 04:11:17.25	301.52	16.26	-51.2	-52.8	14.9	0.00e+00	0	25	0	974127104	68	4378
2026-01-07 04:11:21.24	300.88	15.95	-51.2	-52.8	14.9	0.00e+00	0	25	0	981467136	68	4374
2026-01-07 04:11:25.25	300.25	15.65	-51.3	-53.0	14.8	0.00e+00	0	25	0	988807168	68	4450
2026-01-07 04:11:29.24	299.64	15.34	-51.6	-53.3	14.7	0.00e+00	0	25	0	996147200	68	4632
2026-01-07 04:11:33.24	299.04	15.04	-51.8	-53.6	14.6	0.00e+00	0	25	0	1003487232	68	4786
2026-01-07 04:11:37.24	298.45	14.74	-52.1	-54.0	14.5	0.00e+00	0	25	0	1010827264	69	4725
2026-01-07 04:11:41.25	297.87	14.43	-52.2	-54.0	14.5	0.00e+00	0	25	0	1019215872	69	4750
2026-01-07 04:11:45.24	297.31	14.13	-52.0	-53.8	14.5	0.00e+00	0	25	0	1026555904	69	4644
2026-01-07 04:11:49.23	296.75	13.83	-52.3	-54.2	14.5	0.00e+00	0	25	0	1033895936	69	4817
2026-01-07 04:11:53.23	296.21	13.53	-52.5	-54.4	14.4	0.00e+00	0	25	0	1041235968	70	4678
2026-01-07 04:11:57.22	295.68	13.23	-52.4	-54.3	14.5	0.00e+00	0	25	0	1048576000	70	4650
2026-01-07 04:12:01.22	295.16	12.94	-52.6	-54.5	14.4	0.00e+00	0	25	0	1055916032	70	4731
2026-01-07 04:12:05.22	294.65	12.64	-52.7	-54.6	14.3	0.00e+00	0	25	0	1063256064	70	4807
2026-01-07 04:12:09.21	294.15	12.35	-52.8	-54.8	14.2	0.00e+00	0	25	0	1071644672	70	4922
2026-01-07 04:12:13.21	293.66	12.05	-52.9	-54.9	14.2	0.00e+00	0	25	0	1078984704	70	4968
2026-01-07 04:12:17.20	293.18	11.76	-52.9	-54.9	14.2	0.00e+00	0	25	0	1086324736	70	4982
2026-01-07 04:12:21.19	292.71	11.47	-53.0	-55.1	14.2	0.00e+00	0	25	0	1093664768	71	4780
2026-01-07 04:12:25.18	292.25	11.19	-53.0	-55.1	14.2	0.00e+00	0	25	0	1101004800	71	4774
2026-01-07 04:12:29.16	291.80	10.90	-53.1	-55.2	14.1	0.00e+00	0	25	0	1108344832	71	4861
2026-01-07 04:12:33.16	291.36	10.61	-53.4	-55.6	13.9	0.00e+00	0	25	0	1115684864	71	5090
2026-01-07 04:12:37.15	290.93	10.33	-53.6	-56.0	13.8	0.00e+00	0	25	0	1123024896	72	5027
2026-01-07 04:12:41.14	290.50	10.05	-53.6	-56.0	13.8	0.00e+00	0	25	0	1131413504	72	5013
2026-01-07 04:12:45.14	290.09	9.77	-53.8	-56.2	13.7	0.00e+00	0	25	0	1138753536	72	5137
2026-01-07 04:12:49.13	289.68	9.49	-54.0	-56.6	13.6	0.00e+00	0	25	0	1146093568	73	5044
2026-01-07 04:12:53.13	289.28	9.21	-54.0	-56.6	13.6	0.00e+00	0	25	0	1153433600	73	5046
2026-01-07 04:12:57.11	288.89	8.94	-53.9	-56.4	13.6	0.00e+00	0	25	0	1160773632	73	4966
2026-01-07 04:13:01.11	288.50	8.66	-53.9	-56.5	13.6	0.00e+00	0	25	0	1168113664	73	5002
2026-01-07 04:13:05.11	288.12	8.39	-54.0	-56.6	13.5	0.00e+00	0	25	0	1176502272	73	5066
2026-01-07 04:13:09.11	287.75	8.12	-54.1	-56.8	13.4	0.00e+00	0	25	0	1183842304	73	5160
2026-01-07 04:13:13.11	287.39	7.85	-54.3	-57.1	13.2	0.00e+00	0	25	0	1191182336	73	5353
2026-01-07 04:13:17.09	287.03	7.59	-54.3	-57.1	13.2	0.00e+00	0	25	0	1198522368	73	5352
2026-01-07 04:13:21.09	286.68	7.32	-54.3	-57.2	13.1	0.00e+00	0	25	0	1205862400	73	5444
2026-01-07 04:13:25.08	286.34	7.06	-54.5	-57.4	13.1	0.00e+00	0	25	0	1213202432	74	5262
2026-01-07 04:13:29.07	286.00	6.80	-54.8	-58.0	12.7	0.00e+00	0	25	0	1220542464	74	5649
2026-01-07 04:13:33.06	285.67	6.54	-54.7	-57.9	12.8	0.00e+00	0	25	0	1228931072	74	5544
2026-01-07 04:13:37.07	285.34	6.28	-54.7	-57.9	12.7	0.00e+00	0	25	0	1236271104	74	5580
2026-01-07 04:13:41.07	285.02	6.02	-54.7	-58.0	12.6	7.00e-07	0	25	0	1243611136	74	5637
2026-01-07 04:13:45.08	284.71	5.77	-54.7	-58.0	12.6	0.00e+00	0	25	0	1250951168	74	5613
2026-01-07 04:13:49.08	284.40	5.51	-54.7	-58.0	12.6	0.00e+00	0	25	0	1258291200	74	5647
2026-01-07 04:13:53.07	284.10	5.26	-54.7	-58.0	12.6	0.00e+00	0	25	0	1265631232	74	5616
2026-01-07 04:13:57.07	283.80	5.01	-54.7	-58.1	12.5	0.00e+00	0	25	0	1272971264	74	5696
2026-01-07 04:14:01.07	283.51	4.76	-59.2	-75.2	3.8	1.49e+00	0	25	104	1275068416	83	24347
2026-01-07 04:14:05.07	283.22	4.52	-59.7	-75.8	3.8	1.49e+00	0	26	104	1275068416	84	24653
2026-01-07 04:14:09.08	282.94	4.27	-60.0	-76.1	3.8	1.49e+00	0	25	104	1275068416	85	24079
2026-01-07 04:14:13.08	282.66	4.03	-60.2	-76.3	3.8	1.49e+00	0	25	104	1275068416	85	24606
2026-01-07 04:14:17.06	282.39	3.78	-60.2	-76.3	3.8	1.49e+00	0	25	104	1275068416	85	24597
2026-01-07 04:14:21.06	282.12	3.54	-60.2	-76.4	3.8	1.49e+00	0	25	104	1275068416	85	24722
2026-01-07 04:14:25.05	281.86	3.30	-60.2	-76.3	3.8	1.49e+00	0	25	104	1275068416	85	24590
2026-01-07 04:14:29.04	281.60	3.07	-60.1	-76.2	3.8	1.49e+00	0	26	104	1275068416	85	24245
2026-01-07 04:14:33.02	281.35	2.83	-60.1	-76.2	3.8	1.49e+00	0	25	104	1275068416	85	24142
2026-01-07 04:14:37.03	281.10	2.60	-60.0	-76.1	3.8	1.49e+00	0	26	104	1275068416	85	24071
2026-01-07 04:14:41.02	280.86	2.36	-60.0	-76.1	3.8	1.49e+00	0	26	104	1275068416	85	23976
2026-01-07 04:14:45.01	280.61	2.13	-60.0	-76.1	3.8	1.49e+00	0	26	104	1275068416	85	23990
2026-01-07 04:14:49.01	280.38	1.90	-60.0	-76.1	3.8	1.49e+00	0	25	104	1275068416	85	23947

#Closed at: 2026-01-07 04:14:49
#Recorded file [1275 MB]: D:/lorett/data/31004_260107_070153.dat