passes_logs/2025/01/18/planumMaritime01/planumMaritime01__20250118_095551_METEOR-M2_4_rec.log

#Pass ID: 20250118_095551_METEOR-M2 4
#Satellite: METEOR-M2 4
#Configuration: METEOR-M2 4
#Start time: 2025-01-18 09:55:56.647091

#LorettStation: 1.0.0 05.05.2024
#Station: planumMaritime01
#Location: 37.49445 lon 55.92918 lat
#TLE: 1 59051U 24039A   25017.13836119  .00000085  00000+0  57680-4 0  9997
#TLE: 2 59051  98.6297 340.1037 0006274 217.8587 142.2151 14.22325694 45900

#Time	Az	El	Level	SNR
2025-01-18 09:55:58.800725	106.4	10.2	-94.2	0.0
2025-01-18 09:56:01.040568	106.2	10.3	-94.5	0.0
2025-01-18 09:56:03.283772	105.9	10.5	-94.4	0.0
2025-01-18 09:56:05.524249	105.7	10.6	-94.6	0.0
2025-01-18 09:56:07.765644	105.4	10.8	-94.3	0.0
2025-01-18 09:56:10.007806	105.2	11.0	-94.4	0.0
2025-01-18 09:56:12.247133	104.9	11.1	-94.5	0.0
2025-01-18 09:56:14.488913	104.7	11.3	-94.3	0.0
2025-01-18 09:56:16.730193	104.4	11.4	-94.2	0.0
2025-01-18 09:56:18.971864	104.1	11.6	-94.3	0.0
2025-01-18 09:56:21.212078	103.9	11.8	-94.7	0.0
2025-01-18 09:56:23.451957	103.6	11.9	-94.7	0.0
2025-01-18 09:56:25.694854	103.3	12.1	-94.5	0.0
2025-01-18 09:56:27.937976	103.0	12.3	-94.7	0.0
2025-01-18 09:56:30.177474	102.8	12.4	-94.6	0.0
2025-01-18 09:56:32.421189	102.5	12.6	-94.6	0.0
2025-01-18 09:56:34.665050	102.2	12.8	-94.8	0.0
2025-01-18 09:56:36.907391	101.9	12.9	-94.3	0.0
2025-01-18 09:56:39.146030	101.6	13.1	-94.7	0.0
2025-01-18 09:56:41.385156	101.3	13.3	-94.6	0.0
2025-01-18 09:56:43.626397	101.0	13.4	-94.6	0.0
2025-01-18 09:56:45.870096	100.7	13.6	-94.7	0.0
2025-01-18 09:56:48.110561	100.4	13.8	-94.6	0.0
2025-01-18 09:56:50.351475	100.1	13.9	-94.8	0.0
2025-01-18 09:56:52.594819	99.8	14.1	-94.6	0.0
2025-01-18 09:56:54.836925	99.4	14.3	-94.6	0.0
2025-01-18 09:56:57.078100	99.1	14.4	-94.9	0.0
2025-01-18 09:56:59.320551	98.8	14.6	-94.5	0.0
2025-01-18 09:57:01.562763	98.5	14.8	-94.8	0.0
2025-01-18 09:57:03.803110	98.1	14.9	-94.5	0.0
2025-01-18 09:57:06.047150	97.8	15.1	-94.6	0.0
2025-01-18 09:57:08.287825	97.4	15.3	-94.8	0.0
2025-01-18 09:57:10.529622	97.1	15.5	-94.6	0.0
2025-01-18 09:57:12.769261	96.7	15.6	-94.4	0.0
2025-01-18 09:57:15.010881	96.4	15.8	-94.8	0.0
2025-01-18 09:57:17.253272	96.0	16.0	-94.4	0.0
2025-01-18 09:57:19.493810	95.7	16.1	-94.7	0.0
2025-01-18 09:57:21.735329	95.3	16.3	-94.6	0.0
2025-01-18 09:57:23.976587	94.9	16.5	-94.8	0.0
2025-01-18 09:57:26.221005	94.5	16.6	-94.8	0.0
2025-01-18 09:57:28.461221	94.2	16.8	-94.4	0.0
2025-01-18 09:57:30.703966	93.8	17.0	-94.8	0.0
2025-01-18 09:57:32.944125	93.4	17.2	-94.3	0.0
2025-01-18 09:57:35.189076	93.0	17.3	-94.6	0.0
2025-01-18 09:57:37.432767	92.6	17.5	-94.6	0.0
2025-01-18 09:57:39.674238	92.2	17.7	-94.6	0.0
2025-01-18 09:57:41.916892	91.8	17.8	-94.7	0.0
2025-01-18 09:57:44.157616	91.4	18.0	-94.6	0.0
2025-01-18 09:57:46.398869	91.0	18.2	-94.7	0.0
2025-01-18 09:57:48.641305	90.5	18.3	-94.7	0.0
2025-01-18 09:57:50.879253	90.1	18.5	-94.6	0.0
2025-01-18 09:57:53.120513	89.7	18.7	-94.7	0.0
2025-01-18 09:57:55.364465	89.3	18.9	-94.6	0.0
2025-01-18 09:57:57.603413	88.8	19.0	-94.6	0.0
2025-01-18 09:57:59.843166	88.4	19.2	-94.8	0.0
2025-01-18 09:58:02.084050	87.9	19.3	-94.8	0.0
2025-01-18 09:58:04.324878	87.5	19.5	-94.7	0.0
2025-01-18 09:58:06.565908	87.0	19.7	-94.8	0.0
2025-01-18 09:58:08.808932	86.5	19.8	-94.7	0.0
2025-01-18 09:58:11.050439	86.1	20.0	-94.6	0.0
2025-01-18 09:58:13.291130	85.6	20.2	-94.9	0.0
2025-01-18 09:58:15.534471	85.1	20.3	-94.7	0.0
2025-01-18 09:58:17.776270	84.6	20.5	-94.7	0.0
2025-01-18 09:58:20.014311	84.1	20.6	-94.4	0.0
2025-01-18 09:58:22.257743	83.6	20.8	-94.8	0.0
2025-01-18 09:58:24.500857	83.1	20.9	-94.7	0.0
2025-01-18 09:58:26.743301	82.6	21.1	-94.8	0.0
2025-01-18 09:58:28.981591	82.1	21.3	-94.9	0.0
2025-01-18 09:58:31.222525	81.6	21.4	-94.7	0.0
2025-01-18 09:58:33.459989	81.1	21.6	-94.8	0.0
2025-01-18 09:58:35.704201	80.6	21.7	-94.5	0.0
2025-01-18 09:58:37.945248	80.0	21.8	-94.8	0.0
2025-01-18 09:58:40.190647	79.5	22.0	-94.6	0.0
2025-01-18 09:58:42.430773	79.0	22.1	-94.7	0.0
2025-01-18 09:58:44.674355	78.4	22.3	-94.8	0.0
2025-01-18 09:58:46.916182	77.9	22.4	-94.8	0.0
2025-01-18 09:58:49.158199	77.3	22.5	-94.5	0.0
2025-01-18 09:58:51.400837	76.7	22.7	-94.8	0.0
2025-01-18 09:58:53.642626	76.2	22.8	-94.8	0.0
2025-01-18 09:58:55.886266	75.6	22.9	-94.7	0.0
2025-01-18 09:58:58.126232	75.0	23.1	-94.6	0.0
2025-01-18 09:59:00.363825	74.5	23.2	-94.7	0.0
2025-01-18 09:59:02.603998	73.9	23.3	-94.6	0.0
2025-01-18 09:59:04.845437	73.3	23.4	-94.5	0.0
2025-01-18 09:59:07.087049	72.7	23.5	-94.6	0.0
2025-01-18 09:59:09.331495	72.1	23.7	-94.8	0.0
2025-01-18 09:59:11.572351	71.5	23.8	-94.8	0.0
2025-01-18 09:59:13.814388	70.9	23.9	-94.7	0.0
2025-01-18 09:59:16.059128	70.3	24.0	-94.9	0.0
2025-01-18 09:59:18.304116	69.7	24.1	-94.9	0.0
2025-01-18 09:59:20.543119	69.1	24.2	-94.7	0.0
2025-01-18 09:59:22.784915	68.4	24.3	-94.8	0.0
2025-01-18 09:59:25.027915	67.8	24.4	-94.6	0.0
2025-01-18 09:59:27.268658	67.2	24.4	-94.3	0.0
2025-01-18 09:59:29.510595	66.5	24.5	-94.8	0.0
2025-01-18 09:59:31.751948	65.9	24.6	-94.5	0.0
2025-01-18 09:59:33.995250	65.3	24.7	-94.8	0.0
2025-01-18 09:59:36.235976	64.6	24.8	-94.5	0.0
2025-01-18 09:59:38.475698	64.0	24.8	-94.5	0.0
2025-01-18 09:59:40.719203	63.3	24.9	-94.8	0.0
2025-01-18 09:59:42.961261	62.7	25.0	-94.7	0.0
2025-01-18 09:59:45.198687	62.0	25.0	-94.9	0.0
2025-01-18 09:59:47.437474	61.4	25.1	-94.6	0.0
2025-01-18 09:59:49.675451	60.7	25.1	-94.8	0.0
2025-01-18 09:59:51.917660	60.1	25.2	-94.8	0.0
2025-01-18 09:59:54.161406	59.4	25.2	-94.9	0.0
2025-01-18 09:59:56.404147	58.8	25.2	-94.8	0.0
2025-01-18 09:59:58.646075	58.1	25.3	-94.6	0.0
2025-01-18 10:00:00.889917	57.4	25.3	-94.7	0.0
2025-01-18 10:00:03.134533	56.8	25.3	-94.7	0.0
2025-01-18 10:00:05.377823	56.1	25.4	-94.9	0.0
2025-01-18 10:00:07.618246	55.4	25.4	-94.5	0.0
2025-01-18 10:00:09.861506	54.8	25.4	-94.9	0.0
2025-01-18 10:00:12.102496	54.1	25.4	-94.6	0.0
2025-01-18 10:00:14.342372	53.4	25.4	-94.8	0.0
2025-01-18 10:00:16.584918	52.7	25.4	-95.0	0.0
2025-01-18 10:00:18.829819	52.1	25.4	-94.9	0.0
2025-01-18 10:00:21.072483	51.4	25.4	-94.9	0.0
2025-01-18 10:00:23.311670	50.7	25.4	-94.9	0.0
2025-01-18 10:00:25.554300	50.1	25.4	-94.9	0.0
2025-01-18 10:00:27.797223	49.4	25.3	-94.7	0.0
2025-01-18 10:00:30.037171	48.7	25.3	-94.9	0.0
2025-01-18 10:00:32.278029	48.1	25.3	-94.9	0.0
2025-01-18 10:00:34.521363	47.4	25.3	-94.8	0.0
2025-01-18 10:00:36.762081	46.8	25.2	-94.7	0.0
2025-01-18 10:00:39.001697	46.1	25.2	-94.8	0.0
2025-01-18 10:00:41.242137	45.4	25.1	-94.6	0.0
2025-01-18 10:00:43.485169	44.8	25.1	-94.9	0.0
2025-01-18 10:00:45.727372	44.1	25.0	-94.6	0.0
2025-01-18 10:00:47.969784	43.5	25.0	-94.7	0.0
2025-01-18 10:00:50.211313	42.8	24.9	-94.6	0.0
2025-01-18 10:00:52.453243	42.2	24.8	-94.6	0.0
2025-01-18 10:00:54.696312	41.5	24.8	-94.3	0.0
2025-01-18 10:00:56.936387	40.9	24.7	-94.6	0.0
2025-01-18 10:00:59.180518	40.3	24.6	-94.7	0.0
2025-01-18 10:01:01.420465	39.6	24.5	-94.5	0.0
2025-01-18 10:01:03.661726	39.0	24.5	-94.5	0.0
2025-01-18 10:01:05.904038	38.4	24.4	-94.4	0.0
2025-01-18 10:01:08.147637	37.7	24.3	-94.6	0.0
2025-01-18 10:01:10.394038	37.1	24.2	-94.7	0.0
2025-01-18 10:01:12.636261	36.5	24.1	-94.7	0.0
2025-01-18 10:01:14.877679	35.9	24.0	-95.0	0.0
2025-01-18 10:01:17.120383	35.3	23.9	-94.9	0.0
2025-01-18 10:01:19.363256	34.7	23.8	-94.8	0.0
2025-01-18 10:01:21.605166	34.1	23.7	-94.5	0.0
2025-01-18 10:01:23.847093	33.5	23.6	-95.0	0.0
2025-01-18 10:01:26.091075	32.9	23.4	-94.6	0.0
2025-01-18 10:01:28.332123	32.3	23.3	-94.9	0.0
2025-01-18 10:01:30.576247	31.7	23.2	-94.5	0.0
2025-01-18 10:01:32.816129	31.1	23.1	-94.7	0.0
2025-01-18 10:01:35.057344	30.6	23.0	-94.7	0.0
2025-01-18 10:01:37.299118	30.0	22.8	-94.7	0.0
2025-01-18 10:01:39.539577	29.4	22.7	-94.7	0.0
2025-01-18 10:01:41.779274	28.9	22.6	-94.7	0.0
2025-01-18 10:01:44.020834	28.3	22.4	-94.6	0.0
2025-01-18 10:01:46.261634	27.8	22.3	-94.6	0.0
2025-01-18 10:01:48.505994	27.2	22.1	-94.6	0.0
2025-01-18 10:01:50.750103	26.7	22.0	-94.8	0.0
2025-01-18 10:01:52.993036	26.2	21.9	-94.6	0.0
2025-01-18 10:01:55.233442	25.6	21.7	-94.8	0.0
2025-01-18 10:01:57.476421	25.1	21.6	-94.8	0.0
2025-01-18 10:01:59.718712	24.6	21.4	-94.8	0.0
2025-01-18 10:02:01.960605	24.1	21.3	-95.0	0.0
2025-01-18 10:02:04.201580	23.6	21.1	-95.0	0.0
2025-01-18 10:02:06.443221	23.1	21.0	-94.9	0.0
2025-01-18 10:02:08.683240	22.6	20.8	-95.0	0.0
2025-01-18 10:02:10.926836	22.1	20.7	-94.8	0.0
2025-01-18 10:02:13.170141	21.6	20.5	-94.8	0.0
2025-01-18 10:02:15.414427	21.1	20.3	-94.8	0.0
2025-01-18 10:02:17.655844	20.6	20.2	-94.8	0.0
2025-01-18 10:02:19.899101	20.1	20.0	-94.9	0.0
2025-01-18 10:02:22.140211	19.7	19.9	-95.0	0.0
2025-01-18 10:02:24.381669	19.2	19.7	-95.1	0.0
2025-01-18 10:02:26.620675	18.7	19.5	-94.9	0.0
2025-01-18 10:02:28.862145	18.3	19.4	-94.8	0.0
2025-01-18 10:02:31.105138	17.8	19.2	-94.7	0.0
2025-01-18 10:02:33.345698	17.4	19.0	-95.0	0.0
2025-01-18 10:02:35.590219	17.0	18.9	-94.6	0.0
2025-01-18 10:02:37.830910	16.5	18.7	-94.8	0.0
2025-01-18 10:02:40.071538	16.1	18.5	-94.8	0.0
2025-01-18 10:02:42.311690	15.7	18.4	-94.8	0.0
2025-01-18 10:02:44.555398	15.3	18.2	-94.8	0.0
2025-01-18 10:02:46.798775	14.8	18.0	-94.7	0.0
2025-01-18 10:02:49.039121	14.4	17.9	-94.7	0.0
2025-01-18 10:02:51.281098	14.0	17.7	-94.7	0.0
2025-01-18 10:02:53.525170	13.6	17.5	-94.6	0.0
2025-01-18 10:02:55.767635	13.2	17.4	-94.6	0.0
2025-01-18 10:02:58.007783	12.8	17.2	-95.0	0.0
2025-01-18 10:03:00.250246	12.4	17.0	-94.8	0.0
2025-01-18 10:03:02.491015	12.1	16.9	-94.7	0.0
2025-01-18 10:03:04.735189	11.7	16.7	-94.7	0.0
2025-01-18 10:03:06.977555	11.3	16.5	-94.8	0.0
2025-01-18 10:03:09.219582	10.9	16.3	-94.8	0.0
2025-01-18 10:03:11.464142	10.6	16.2	-94.8	0.0
2025-01-18 10:03:13.707229	10.2	16.0	-95.0	0.0
2025-01-18 10:03:15.945692	9.9	15.8	-94.7	0.0
2025-01-18 10:03:18.191247	9.5	15.7	-95.0	0.0
2025-01-18 10:03:20.438417	9.2	15.5	-95.0	0.0
2025-01-18 10:03:22.683090	8.8	15.3	-95.0	0.0
2025-01-18 10:03:24.924000	8.5	15.2	-94.7	0.0
2025-01-18 10:03:27.165714	8.1	15.0	-95.0	0.0
2025-01-18 10:03:29.404191	7.8	14.8	-95.0	0.0
2025-01-18 10:03:31.647310	7.5	14.6	-94.7	0.0
2025-01-18 10:03:33.889162	7.1	14.5	-94.8	0.0
2025-01-18 10:03:36.129841	6.8	14.3	-94.7	0.0
2025-01-18 10:03:38.370799	6.5	14.1	-94.9	0.0
2025-01-18 10:03:40.614418	6.2	14.0	-94.8	0.0
2025-01-18 10:03:42.854113	5.9	13.8	-94.9	0.0
2025-01-18 10:03:45.096676	5.6	13.6	-94.9	0.0
2025-01-18 10:03:47.338548	5.3	13.5	-94.8	0.0
2025-01-18 10:03:49.580169	5.0	13.3	-94.6	0.0
2025-01-18 10:03:51.820274	4.7	13.1	-94.7	0.0
2025-01-18 10:03:54.061860	4.4	13.0	-94.8	0.0
2025-01-18 10:03:56.304022	4.1	12.8	-94.6	0.0
2025-01-18 10:03:58.545387	3.8	12.6	-94.6	0.0
2025-01-18 10:04:00.787900	3.5	12.5	-94.9	0.0
2025-01-18 10:04:03.030966	3.2	12.3	-94.7	0.0
2025-01-18 10:04:05.269436	3.0	12.1	-94.7	0.0
2025-01-18 10:04:07.512216	2.7	12.0	-94.9	0.0
2025-01-18 10:04:09.753458	2.4	11.8	-95.0	0.0
2025-01-18 10:04:11.999782	2.1	11.7	-94.8	0.0
2025-01-18 10:04:14.241556	1.9	11.5	-95.0	0.0
2025-01-18 10:04:16.485970	1.6	11.3	-94.8	0.0
2025-01-18 10:04:18.729150	1.4	11.2	-94.9	0.0
2025-01-18 10:04:20.973055	1.1	11.0	-94.8	0.0
2025-01-18 10:04:23.211445	0.9	10.8	-94.8	0.0
2025-01-18 10:04:25.451755	0.6	10.7	-94.7	0.0
2025-01-18 10:04:27.694258	0.4	10.5	-94.8	0.0
2025-01-18 10:04:29.938043	0.1	10.4	-94.8	0.0
2025-01-18 10:04:32.179299	359.9	10.2	-94.8	0.0
2025-01-18 10:04:34.421713	359.6	10.0	-94.8	0.0
#Closed at: 2025-01-18 09:55:51.649093