passes_logs/2025/01/18/planumMaritime01/planumMaritime01__20250118_175831_METOP-C_rec.log

#Pass ID: 20250118_175831_METOP-C
#Satellite: METOP-C
#Configuration: METOP-C
#Start time: 2025-01-18 17:58:36.124638

#LorettStation: 1.0.0 05.05.2024
#Station: planumMaritime01
#Location: 37.49445 lon 55.92918 lat
#TLE: 1 43689U 18087A   25018.03773577  .00000274  00000+0  14504-3 0  9998
#TLE: 2 43689  98.6959  80.4846 0001564 158.8304 201.2938 14.21483020321649

#Time	Az	El	Level	SNR
2025-01-18 17:58:38.261368	158.1	10.2	-94.3	0.0
2025-01-18 17:58:40.502022	158.1	10.4	-94.2	0.0
2025-01-18 17:58:42.742940	158.1	10.6	-94.3	0.0
2025-01-18 17:58:44.987016	158.1	10.8	-94.6	0.0
2025-01-18 17:58:47.232620	158.1	11.0	-94.6	0.0
2025-01-18 17:58:49.475489	158.1	11.2	-94.5	0.0
2025-01-18 17:58:51.717652	158.1	11.4	-94.7	0.0
2025-01-18 17:58:53.960546	158.1	11.6	-94.7	0.0
2025-01-18 17:58:56.203073	158.0	11.8	-94.7	0.0
2025-01-18 17:58:58.445755	158.0	12.0	-94.5	0.0
2025-01-18 17:59:00.686150	158.0	12.3	-94.8	0.0
2025-01-18 17:59:02.933028	158.0	12.5	-94.6	0.0
2025-01-18 17:59:05.175501	158.0	12.7	-94.7	0.0
2025-01-18 17:59:07.418902	158.0	12.9	-94.5	0.0
2025-01-18 17:59:09.662914	158.0	13.1	-94.8	0.0
2025-01-18 17:59:11.905186	158.0	13.4	-94.9	0.0
2025-01-18 17:59:14.146454	158.0	13.6	-94.5	0.0
2025-01-18 17:59:16.391225	157.9	13.8	-95.0	0.0
2025-01-18 17:59:18.635162	157.9	14.0	-94.7	0.0
2025-01-18 17:59:20.875666	157.9	14.3	-94.5	0.0
2025-01-18 17:59:23.117350	157.9	14.5	-94.8	0.0
2025-01-18 17:59:25.360879	157.9	14.7	-94.5	0.0
2025-01-18 17:59:27.604593	157.9	15.0	-94.6	0.0
2025-01-18 17:59:29.847156	157.9	15.2	-94.2	0.0
2025-01-18 17:59:32.088161	157.8	15.5	-94.6	0.0
2025-01-18 17:59:34.330778	157.8	15.7	-94.5	0.0
2025-01-18 17:59:36.572756	157.8	16.0	-94.6	0.0
2025-01-18 17:59:38.817391	157.8	16.2	-94.8	0.0
2025-01-18 17:59:41.060239	157.8	16.5	-94.8	0.0
2025-01-18 17:59:43.305819	157.8	16.7	-94.9	0.0
2025-01-18 17:59:45.548263	157.7	17.0	-94.6	0.0
2025-01-18 17:59:47.790085	157.7	17.3	-94.9	0.0
2025-01-18 17:59:50.033039	157.7	17.5	-94.8	0.0
2025-01-18 17:59:52.273370	157.7	17.8	-94.7	0.0
2025-01-18 17:59:54.516204	157.7	18.1	-94.7	0.0
2025-01-18 17:59:56.756766	157.7	18.3	-94.6	0.0
2025-01-18 17:59:58.999037	157.6	18.6	-94.8	0.0
2025-01-18 18:00:01.240925	157.6	18.9	-94.5	0.0
2025-01-18 18:00:03.484954	157.6	19.2	-94.5	0.0
2025-01-18 18:00:05.726974	157.6	19.5	-94.5	0.0
2025-01-18 18:00:07.969526	157.6	19.8	-94.5	0.0
2025-01-18 18:00:10.211935	157.5	20.1	-94.4	0.0
2025-01-18 18:00:12.454552	157.5	20.4	-94.6	0.0
2025-01-18 18:00:14.698582	157.5	20.7	-94.7	0.0
2025-01-18 18:00:16.937875	157.5	21.0	-94.6	0.0
2025-01-18 18:00:19.181797	157.4	21.3	-94.7	0.0
2025-01-18 18:00:21.424361	157.4	21.6	-94.6	0.0
2025-01-18 18:00:23.667659	157.4	21.9	-94.8	0.0
2025-01-18 18:00:25.912920	157.4	22.2	-94.8	0.0
2025-01-18 18:00:28.153036	157.3	22.6	-94.9	0.0
2025-01-18 18:00:30.395813	157.3	22.9	-94.8	0.0
2025-01-18 18:00:32.636928	157.3	23.2	-94.5	0.0
2025-01-18 18:00:34.881866	157.2	23.6	-94.9	0.0
2025-01-18 18:00:37.124505	157.2	23.9	-94.8	0.0
2025-01-18 18:00:39.367833	157.2	24.3	-94.8	0.0
2025-01-18 18:00:41.612926	157.2	24.6	-94.9	0.0
2025-01-18 18:00:43.859004	157.1	25.0	-94.5	0.0
2025-01-18 18:00:46.101796	157.1	25.3	-94.8	0.0
2025-01-18 18:00:48.343097	157.1	25.7	-94.6	0.0
2025-01-18 18:00:50.586839	157.0	26.1	-94.7	0.0
2025-01-18 18:00:52.832836	157.0	26.4	-94.8	0.0
2025-01-18 18:00:55.073766	156.9	26.8	-94.9	0.0
2025-01-18 18:00:57.315011	156.9	27.2	-94.6	0.0
2025-01-18 18:00:59.557146	156.9	27.6	-94.8	0.0
2025-01-18 18:01:01.797899	156.8	28.0	-94.5	0.0
2025-01-18 18:01:04.036869	156.8	28.4	-94.9	0.0
2025-01-18 18:01:06.277862	156.7	28.8	-94.4	0.0
2025-01-18 18:01:08.520207	156.7	29.2	-94.7	0.0
2025-01-18 18:01:10.761469	156.6	29.7	-95.0	0.0
2025-01-18 18:01:13.003315	156.6	30.1	-94.5	0.0
2025-01-18 18:01:15.247584	156.5	30.5	-94.8	0.0
2025-01-18 18:01:17.490046	156.5	31.0	-95.0	0.0
2025-01-18 18:01:19.733942	156.4	31.4	-94.7	0.0
2025-01-18 18:01:21.977091	156.4	31.9	-94.7	0.0
2025-01-18 18:01:24.219762	156.3	32.3	-94.9	0.0
2025-01-18 18:01:26.462944	156.3	32.8	-94.7	0.0
2025-01-18 18:01:28.704775	156.2	33.3	-94.5	0.0
2025-01-18 18:01:30.946928	156.2	33.8	-94.7	0.0
2025-01-18 18:01:33.186562	156.1	34.3	-94.8	0.0
2025-01-18 18:01:35.430014	156.0	34.8	-94.7	0.0
2025-01-18 18:01:37.676177	156.0	35.3	-94.6	0.0
2025-01-18 18:01:39.918712	155.9	35.8	-94.8	0.0
2025-01-18 18:01:42.161047	155.8	36.3	-94.8	0.0
2025-01-18 18:01:44.405779	155.7	36.9	-94.8	0.0
2025-01-18 18:01:46.647441	155.7	37.4	-94.8	0.0
2025-01-18 18:01:48.889219	155.6	38.0	-94.9	0.0
2025-01-18 18:01:51.129456	155.5	38.5	-94.7	0.0
2025-01-18 18:01:53.374004	155.4	39.1	-94.8	0.0
2025-01-18 18:01:55.616941	155.3	39.7	-94.9	0.0
2025-01-18 18:01:57.857954	155.2	40.3	-94.9	0.0
2025-01-18 18:02:00.100593	155.1	40.9	-95.0	0.0
2025-01-18 18:02:02.340570	155.0	41.5	-94.7	0.0
2025-01-18 18:02:04.583708	154.9	42.1	-94.9	0.0
2025-01-18 18:02:06.826584	154.8	42.8	-94.9	0.0
2025-01-18 18:02:09.064895	154.7	43.4	-94.9	0.0
2025-01-18 18:02:11.306768	154.6	44.1	-95.0	0.0
2025-01-18 18:02:13.549651	154.4	44.7	-94.8	0.0
2025-01-18 18:02:15.792654	154.3	45.4	-94.8	0.0
2025-01-18 18:02:18.034334	154.2	46.1	-94.7	0.0
2025-01-18 18:02:20.275874	154.0	46.8	-94.6	0.0
2025-01-18 18:02:22.518470	153.9	47.5	-94.9	0.0
2025-01-18 18:02:24.761764	153.7	48.2	-94.6	0.0
2025-01-18 18:02:27.006088	153.6	49.0	-94.7	0.0
2025-01-18 18:02:29.246029	153.4	49.7	-94.6	0.0
2025-01-18 18:02:31.488692	153.2	50.5	-94.9	0.0
2025-01-18 18:02:33.734773	153.0	51.2	-94.9	0.0
2025-01-18 18:02:35.978513	152.8	52.0	-94.5	0.0
2025-01-18 18:02:38.222946	152.6	52.8	-94.5	0.0
2025-01-18 18:02:40.464998	152.3	53.6	-94.7	0.0
2025-01-18 18:02:42.707368	152.1	54.5	-94.8	0.0
2025-01-18 18:02:44.952336	151.8	55.3	-94.9	0.0
2025-01-18 18:02:47.195395	151.6	56.1	-94.9	0.0
2025-01-18 18:02:49.437797	151.3	57.0	-95.0	0.0
2025-01-18 18:02:51.679881	151.0	57.9	-94.9	0.0
2025-01-18 18:02:53.923447	150.6	58.8	-94.6	0.0
2025-01-18 18:02:56.168161	150.3	59.7	-94.7	0.0
2025-01-18 18:02:58.410394	149.9	60.6	-94.6	0.0
2025-01-18 18:03:00.649978	149.5	61.5	-94.7	0.0
2025-01-18 18:03:02.892687	149.0	62.4	-94.4	0.0
2025-01-18 18:03:05.136797	148.5	63.4	-94.8	0.0
2025-01-18 18:03:07.379211	148.0	64.3	-94.7	0.0
2025-01-18 18:03:09.622295	147.5	65.3	-94.8	0.0
2025-01-18 18:03:11.864777	146.8	66.3	-94.7	0.0
2025-01-18 18:03:14.106278	146.1	67.2	-94.7	0.0
2025-01-18 18:03:16.346925	145.4	68.2	-94.8	0.0
2025-01-18 18:03:18.587367	144.6	69.2	-94.7	0.0
2025-01-18 18:03:20.827267	143.6	70.2	-94.7	0.0
2025-01-18 18:03:23.071481	142.6	71.2	-94.8	0.0
2025-01-18 18:03:25.314081	141.5	72.3	-94.6	0.0
2025-01-18 18:03:27.553083	140.2	73.3	-94.9	0.0
2025-01-18 18:03:29.797838	138.7	74.3	-94.9	0.0
2025-01-18 18:03:32.041784	137.0	75.3	-95.0	0.0
2025-01-18 18:03:34.285597	135.0	76.3	-95.0	0.0
2025-01-18 18:03:36.527733	132.8	77.3	-95.0	0.0
2025-01-18 18:03:38.771724	130.1	78.3	-94.9	0.0
2025-01-18 18:03:41.013319	126.9	79.2	-94.8	0.0
2025-01-18 18:03:43.255260	123.1	80.1	-94.9	0.0
2025-01-18 18:03:45.495916	118.6	81.0	-95.1	0.0
2025-01-18 18:03:47.736891	113.1	81.8	-95.0	0.0
2025-01-18 18:03:49.979039	106.5	82.5	-95.1	0.0
2025-01-18 18:03:52.220687	98.5	83.1	-94.8	0.0
2025-01-18 18:03:54.463992	89.2	83.6	-94.9	0.0
2025-01-18 18:03:56.708954	78.9	83.9	-94.7	0.0
2025-01-18 18:03:58.950838	68.0	83.9	-94.9	0.0
2025-01-18 18:04:01.192447	57.3	83.7	-95.0	0.0
2025-01-18 18:04:03.437184	47.6	83.4	-94.9	0.0
2025-01-18 18:04:05.680826	39.1	82.8	-95.0	0.0
2025-01-18 18:04:07.924350	31.9	82.1	-94.8	0.0
2025-01-18 18:04:10.167027	25.9	81.4	-94.7	0.0
2025-01-18 18:04:12.408777	21.0	80.5	-94.7	0.0
2025-01-18 18:04:14.648867	16.9	79.6	-94.6	0.0
2025-01-18 18:04:16.892629	13.5	78.7	-94.8	0.0
2025-01-18 18:04:19.135660	10.7	77.7	-95.0	0.0
2025-01-18 18:04:21.376675	8.2	76.7	-94.8	0.0
2025-01-18 18:04:23.619029	6.1	75.7	-94.7	0.0
2025-01-18 18:04:25.861482	4.3	74.7	-94.8	0.0
2025-01-18 18:04:28.105513	2.8	73.7	-94.7	0.0
2025-01-18 18:04:30.346647	1.4	72.7	-94.7	0.0
2025-01-18 18:04:32.590282	0.2	71.7	-94.9	0.0
2025-01-18 18:04:34.833482	359.1	70.7	-94.7	0.0
2025-01-18 18:04:37.078934	358.2	69.7	-95.0	0.0
2025-01-18 18:04:39.321120	357.3	68.7	-94.5	0.0
2025-01-18 18:04:41.564447	356.5	67.7	-94.7	0.0
2025-01-18 18:04:43.807412	355.8	66.7	-94.4	0.0
2025-01-18 18:04:46.052247	355.2	65.7	-94.7	0.0
2025-01-18 18:04:48.291994	354.6	64.8	-94.7	0.0
2025-01-18 18:04:50.535046	354.0	63.8	-94.6	0.0
2025-01-18 18:04:52.777409	353.5	62.8	-94.5	0.0
2025-01-18 18:04:55.020371	353.1	61.9	-94.9	0.0
2025-01-18 18:04:57.263296	352.6	61.0	-94.6	0.0
2025-01-18 18:04:59.505563	352.2	60.1	-94.7	0.0
2025-01-18 18:05:01.747346	351.9	59.2	-94.9	0.0
2025-01-18 18:05:03.988644	351.5	58.3	-95.1	0.0
2025-01-18 18:05:06.232959	351.2	57.4	-94.7	0.0
2025-01-18 18:05:08.474567	350.9	56.5	-94.9	0.0
2025-01-18 18:05:10.719456	350.6	55.7	-94.9	0.0
2025-01-18 18:05:12.964691	350.4	54.9	-94.9	0.0
2025-01-18 18:05:15.204975	350.1	54.0	-94.7	0.0
2025-01-18 18:05:17.447740	349.9	53.2	-94.9	0.0
2025-01-18 18:05:19.692352	349.7	52.4	-95.0	0.0
2025-01-18 18:05:21.934907	349.4	51.6	-94.9	0.0
2025-01-18 18:05:24.176778	349.2	50.9	-94.9	0.0
2025-01-18 18:05:26.419892	349.1	50.1	-94.9	0.0
2025-01-18 18:05:28.663070	348.9	49.3	-94.8	0.0
2025-01-18 18:05:30.903087	348.7	48.6	-95.0	0.0
2025-01-18 18:05:33.147830	348.5	47.9	-94.8	0.0
2025-01-18 18:05:35.392721	348.4	47.2	-94.8	0.0
2025-01-18 18:05:37.632262	348.2	46.5	-94.7	0.0
2025-01-18 18:05:39.874809	348.1	45.8	-94.7	0.0
2025-01-18 18:05:42.115916	348.0	45.1	-94.8	0.0
2025-01-18 18:05:44.357359	347.8	44.4	-94.7	0.0
2025-01-18 18:05:46.598588	347.7	43.8	-94.8	0.0
2025-01-18 18:05:48.841327	347.6	43.1	-94.6	0.0
2025-01-18 18:05:51.084562	347.5	42.5	-95.0	0.0
2025-01-18 18:05:53.328848	347.4	41.9	-95.1	0.0
2025-01-18 18:05:55.568928	347.3	41.2	-94.7	0.0
2025-01-18 18:05:57.814653	347.2	40.6	-95.1	0.0
2025-01-18 18:06:00.057077	347.1	40.0	-94.9	0.0
2025-01-18 18:06:02.298928	347.0	39.5	-95.1	0.0
2025-01-18 18:06:04.540336	346.9	38.9	-95.0	0.0
2025-01-18 18:06:06.781380	346.8	38.3	-95.0	0.0
2025-01-18 18:06:09.021356	346.7	37.8	-94.9	0.0
2025-01-18 18:06:11.263038	346.7	37.2	-95.0	0.0
2025-01-18 18:06:13.506744	346.6	36.7	-94.8	0.0
2025-01-18 18:06:15.746912	346.5	36.1	-95.1	0.0
2025-01-18 18:06:17.990849	346.4	35.6	-94.9	0.0
2025-01-18 18:06:20.231904	346.4	35.1	-94.8	0.0
2025-01-18 18:06:22.477265	346.3	34.6	-94.7	0.0
2025-01-18 18:06:24.719673	346.2	34.1	-94.7	0.0
2025-01-18 18:06:26.962842	346.2	33.6	-94.8	0.0
2025-01-18 18:06:29.205733	346.1	33.1	-94.6	0.0
2025-01-18 18:06:31.447937	346.1	32.7	-94.9	0.0
2025-01-18 18:06:33.688434	346.0	32.2	-94.7	0.0
2025-01-18 18:06:35.927910	346.0	31.7	-94.8	0.0
2025-01-18 18:06:38.170911	345.9	31.3	-95.1	0.0
2025-01-18 18:06:40.411950	345.9	30.8	-94.8	0.0
2025-01-18 18:06:42.654854	345.8	30.4	-95.1	0.0
2025-01-18 18:06:44.895692	345.8	30.0	-94.7	0.0
2025-01-18 18:06:47.136985	345.7	29.6	-94.9	0.0
2025-01-18 18:06:49.380817	345.7	29.1	-95.1	0.0
2025-01-18 18:06:51.620925	345.6	28.7	-95.0	0.0
2025-01-18 18:06:53.862255	345.6	28.3	-95.0	0.0
2025-01-18 18:06:56.103391	345.5	27.9	-95.1	0.0
2025-01-18 18:06:58.343804	345.5	27.5	-94.9	0.0
2025-01-18 18:07:00.587424	345.5	27.1	-95.1	0.0
2025-01-18 18:07:02.829053	345.4	26.7	-95.0	0.0
2025-01-18 18:07:05.074305	345.4	26.4	-94.9	0.0
2025-01-18 18:07:07.315278	345.4	26.0	-95.0	0.0
2025-01-18 18:07:09.559463	345.3	25.6	-95.1	0.0
2025-01-18 18:07:11.800534	345.3	25.3	-94.8	0.0
2025-01-18 18:07:14.041491	345.3	24.9	-94.9	0.0
2025-01-18 18:07:16.282205	345.2	24.6	-94.9	0.0
2025-01-18 18:07:18.522865	345.2	24.2	-95.0	0.0
2025-01-18 18:07:20.766938	345.2	23.9	-94.9	0.0
2025-01-18 18:07:23.010610	345.1	23.5	-94.6	0.0
2025-01-18 18:07:25.250777	345.1	23.2	-94.6	0.0
2025-01-18 18:07:27.492938	345.1	22.9	-94.7	0.0
2025-01-18 18:07:29.733761	345.1	22.5	-94.7	0.0
2025-01-18 18:07:31.976771	345.0	22.2	-94.9	0.0
2025-01-18 18:07:34.217744	345.0	21.9	-94.4	0.0
2025-01-18 18:07:36.461927	345.0	21.6	-94.8	0.0
2025-01-18 18:07:38.704387	345.0	21.3	-94.8	0.0
2025-01-18 18:07:40.943113	344.9	21.0	-94.5	0.0
2025-01-18 18:07:43.183400	344.9	20.7	-95.0	0.0
2025-01-18 18:07:45.423974	344.9	20.4	-94.8	0.0
2025-01-18 18:07:47.664712	344.9	20.1	-94.7	0.0
2025-01-18 18:07:49.907026	344.9	19.8	-94.8	0.0
2025-01-18 18:07:52.147038	344.8	19.5	-94.8	0.0
2025-01-18 18:07:54.387095	344.8	19.2	-94.9	0.0
2025-01-18 18:07:56.630494	344.8	18.9	-94.7	0.0
2025-01-18 18:07:58.871052	344.8	18.6	-94.8	0.0
2025-01-18 18:08:01.110697	344.8	18.4	-94.6	0.0
2025-01-18 18:08:03.353038	344.8	18.1	-94.8	0.0
2025-01-18 18:08:05.593253	344.7	17.8	-94.9	0.0
2025-01-18 18:08:07.833454	344.7	17.5	-94.8	0.0
2025-01-18 18:08:10.078003	344.7	17.3	-94.7	0.0
2025-01-18 18:08:12.320798	344.7	17.0	-95.4	0.0
2025-01-18 18:08:14.564253	344.7	16.8	-94.7	0.0
2025-01-18 18:08:16.804732	344.7	16.5	-95.3	0.0
2025-01-18 18:08:19.049261	344.6	16.3	-94.9	0.0
2025-01-18 18:08:21.291852	344.6	16.0	-94.8	0.0
2025-01-18 18:08:23.534391	344.6	15.8	-95.0	0.0
2025-01-18 18:08:25.780602	344.6	15.5	-94.7	0.0
2025-01-18 18:08:28.024066	344.6	15.3	-94.8	0.0
2025-01-18 18:08:30.266852	344.6	15.0	-94.8	0.0
2025-01-18 18:08:32.513229	344.6	14.8	-94.9	0.0
2025-01-18 18:08:34.758337	344.6	14.6	-94.9	0.0
2025-01-18 18:08:37.000285	344.5	14.3	-94.8	0.0
2025-01-18 18:08:39.239107	344.5	14.1	-94.8	0.0
2025-01-18 18:08:41.481927	344.5	13.9	-94.9	0.0
2025-01-18 18:08:43.722891	344.5	13.6	-94.9	0.0
2025-01-18 18:08:45.963568	344.5	13.4	-95.0	0.0
2025-01-18 18:08:48.203976	344.5	13.2	-94.8	0.0
2025-01-18 18:08:50.445295	344.5	13.0	-95.1	0.0
2025-01-18 18:08:52.685882	344.5	12.7	-95.1	0.0
2025-01-18 18:08:54.925585	344.5	12.5	-94.7	0.0
2025-01-18 18:08:57.168793	344.5	12.3	-95.0	0.0
2025-01-18 18:08:59.413190	344.4	12.1	-95.1	0.0
2025-01-18 18:09:01.655994	344.4	11.9	-94.7	0.0
2025-01-18 18:09:03.899807	344.4	11.7	-95.0	0.0
2025-01-18 18:09:06.140571	344.4	11.5	-94.7	0.0
2025-01-18 18:09:08.379575	344.4	11.3	-95.0	0.0
2025-01-18 18:09:10.619386	344.4	11.1	-94.7	0.0
2025-01-18 18:09:12.862235	344.4	10.9	-94.9	0.0
2025-01-18 18:09:15.101433	344.4	10.7	-94.9	0.0
2025-01-18 18:09:17.345763	344.4	10.5	-94.9	0.0
2025-01-18 18:09:19.587510	344.4	10.3	-94.8	0.0
2025-01-18 18:09:21.830100	344.4	10.1	-94.8	0.0
#Closed at: 2025-01-18 17:58:31.126927