passes_logs/2025/01/18/planumMaritime01/planumMaritime01__20250118_005726_METEOR-M2_2_rec.log

#Pass ID: 20250118_005726_METEOR-M2 2
#Satellite: METEOR-M2 2
#Configuration: METEOR-M2 2
#Start time: 2025-01-18 00:57:31.671434

#LorettStation: 1.0.0 05.05.2024
#Station: planumMaritime01
#Location: 37.49445 lon 55.92918 lat
#TLE: 1 44387U 19038A   25017.10552627  .00000225  00000+0  11761-3 0  9997
#TLE: 2 44387  98.8570 353.5196 0002279  75.7364 284.4068 14.24118150287836

#Time	Az	El	Level	SNR
2025-01-18 00:57:33.829068	31.6	10.2	-94.6	0.0
2025-01-18 00:57:36.070592	31.8	10.3	-94.4	0.0
2025-01-18 00:57:38.312727	32.0	10.5	-94.4	0.0
2025-01-18 00:57:40.554544	32.2	10.7	-94.4	0.0
2025-01-18 00:57:42.796271	32.5	10.8	-94.3	0.0
2025-01-18 00:57:45.037177	32.7	11.0	-94.5	0.0
2025-01-18 00:57:47.281785	32.9	11.2	-94.6	0.0
2025-01-18 00:57:49.525064	33.1	11.4	-94.7	0.0
2025-01-18 00:57:51.763688	33.4	11.5	-94.7	0.0
2025-01-18 00:57:54.004846	33.6	11.7	-94.7	0.0
2025-01-18 00:57:56.249194	33.8	11.9	-94.7	0.0
2025-01-18 00:57:58.492523	34.1	12.1	-94.7	0.0
2025-01-18 00:58:00.734649	34.3	12.3	-94.7	0.0
2025-01-18 00:58:02.976745	34.5	12.4	-94.5	0.0
2025-01-18 00:58:05.216565	34.8	12.6	-94.8	0.0
2025-01-18 00:58:07.458385	35.0	12.8	-94.6	0.0
2025-01-18 00:58:09.700737	35.3	13.0	-94.7	0.0
2025-01-18 00:58:11.940592	35.5	13.2	-94.7	0.0
2025-01-18 00:58:14.183375	35.8	13.3	-94.7	0.0
2025-01-18 00:58:16.424682	36.1	13.5	-94.7	0.0
2025-01-18 00:58:18.667740	36.3	13.7	-94.7	0.0
2025-01-18 00:58:20.910068	36.6	13.9	-94.6	0.0
2025-01-18 00:58:23.152390	36.9	14.1	-94.8	0.0
2025-01-18 00:58:25.393596	37.1	14.3	-94.6	0.0
2025-01-18 00:58:27.632757	37.4	14.5	-94.7	0.0
2025-01-18 00:58:29.873773	37.7	14.7	-94.8	0.0
2025-01-18 00:58:32.117167	38.0	14.9	-94.8	0.0
2025-01-18 00:58:34.357720	38.3	15.0	-94.6	0.0
2025-01-18 00:58:36.597754	38.5	15.2	-94.5	0.0
2025-01-18 00:58:38.837978	38.8	15.4	-94.6	0.0
2025-01-18 00:58:41.075726	39.1	15.6	-94.8	0.0
2025-01-18 00:58:43.317593	39.4	15.8	-94.5	0.0
2025-01-18 00:58:45.560960	39.7	16.0	-94.7	0.0
2025-01-18 00:58:47.803171	40.1	16.2	-94.4	0.0
2025-01-18 00:58:50.046465	40.4	16.4	-94.6	0.0
2025-01-18 00:58:52.289836	40.7	16.6	-94.8	0.0
2025-01-18 00:58:54.529478	41.0	16.8	-94.8	0.0
2025-01-18 00:58:56.772985	41.3	17.0	-94.7	0.0
2025-01-18 00:58:59.018048	41.7	17.2	-94.7	0.0
2025-01-18 00:59:01.262181	42.0	17.4	-94.9	0.0
2025-01-18 00:59:03.503839	42.3	17.6	-94.9	0.0
2025-01-18 00:59:05.746624	42.7	17.8	-94.6	0.0
2025-01-18 00:59:07.989691	43.0	18.0	-95.2	0.0
2025-01-18 00:59:10.232106	43.4	18.2	-94.8	0.0
2025-01-18 00:59:12.474021	43.7	18.5	-95.0	0.0
2025-01-18 00:59:14.714596	44.1	18.7	-94.7	0.0
2025-01-18 00:59:16.957059	44.5	18.9	-94.9	0.0
2025-01-18 00:59:19.197924	44.9	19.1	-94.9	0.0
2025-01-18 00:59:21.438633	45.2	19.3	-94.9	0.0
2025-01-18 00:59:23.681634	45.6	19.5	-95.0	0.0
2025-01-18 00:59:25.922812	46.0	19.7	-94.7	0.0
2025-01-18 00:59:28.163509	46.4	19.9	-94.7	0.0
2025-01-18 00:59:30.404421	46.8	20.1	-94.8	0.0
2025-01-18 00:59:32.645778	47.2	20.3	-94.5	0.0
2025-01-18 00:59:34.885604	47.6	20.6	-94.7	0.0
2025-01-18 00:59:37.125071	48.0	20.8	-94.9	0.0
2025-01-18 00:59:39.365654	48.4	21.0	-94.5	0.0
2025-01-18 00:59:41.608560	48.9	21.2	-94.6	0.0
2025-01-18 00:59:43.850119	49.3	21.4	-94.5	0.0
2025-01-18 00:59:46.093535	49.7	21.6	-94.9	0.0
2025-01-18 00:59:48.335720	50.2	21.8	-94.7	0.0
2025-01-18 00:59:50.574758	50.6	22.0	-94.7	0.0
2025-01-18 00:59:52.817377	51.1	22.3	-94.8	0.0
2025-01-18 00:59:55.059732	51.6	22.5	-94.8	0.0
2025-01-18 00:59:57.300665	52.0	22.7	-94.8	0.0
2025-01-18 00:59:59.541684	52.5	22.9	-94.9	0.0
2025-01-18 01:00:01.781361	53.0	23.1	-94.8	0.0
2025-01-18 01:00:04.021937	53.5	23.3	-94.7	0.0
2025-01-18 01:00:06.260613	54.0	23.5	-95.0	0.0
2025-01-18 01:00:08.501428	54.5	23.8	-94.6	0.0
2025-01-18 01:00:10.743602	55.0	24.0	-94.9	0.0
2025-01-18 01:00:12.984977	55.5	24.2	-95.2	0.0
2025-01-18 01:00:15.230705	56.0	24.4	-94.9	0.0
2025-01-18 01:00:17.472379	56.5	24.6	-95.2	0.0
2025-01-18 01:00:19.716574	57.1	24.8	-95.0	0.0
2025-01-18 01:00:21.958861	57.6	25.0	-94.7	0.0
2025-01-18 01:00:24.200077	58.2	25.2	-94.8	0.0
2025-01-18 01:00:26.442350	58.7	25.4	-94.8	0.0
2025-01-18 01:00:28.683440	59.3	25.6	-94.7	0.0
2025-01-18 01:00:30.922468	59.9	25.8	-94.6	0.0
2025-01-18 01:00:33.163104	60.5	26.0	-94.9	0.0
2025-01-18 01:00:35.404539	61.0	26.2	-95.0	0.0
2025-01-18 01:00:37.644392	61.6	26.4	-94.8	0.0
2025-01-18 01:00:39.887782	62.2	26.6	-94.8	0.0
2025-01-18 01:00:42.128794	62.8	26.8	-94.8	0.0
2025-01-18 01:00:44.367780	63.5	27.0	-95.2	0.0
2025-01-18 01:00:46.609079	64.1	27.2	-94.7	0.0
2025-01-18 01:00:48.852561	64.7	27.4	-94.9	0.0
2025-01-18 01:00:51.095377	65.4	27.6	-94.5	0.0
2025-01-18 01:00:53.335451	66.0	27.8	-95.0	0.0
2025-01-18 01:00:55.576381	66.7	28.0	-94.6	0.0
2025-01-18 01:00:57.821068	67.3	28.1	-94.6	0.0
2025-01-18 01:01:00.064584	68.0	28.3	-94.4	0.0
2025-01-18 01:01:02.308686	68.7	28.5	-94.8	0.0
2025-01-18 01:01:04.551845	69.3	28.7	-94.4	0.0
2025-01-18 01:01:06.795056	70.0	28.8	-95.0	0.0
2025-01-18 01:01:09.038136	70.7	29.0	-94.8	0.0
2025-01-18 01:01:11.279891	71.4	29.2	-94.9	0.0
2025-01-18 01:01:13.523464	72.1	29.3	-94.5	0.0
2025-01-18 01:01:15.767034	72.9	29.5	-94.8	0.0
2025-01-18 01:01:18.009449	73.6	29.6	-94.6	0.0
2025-01-18 01:01:20.250049	74.3	29.8	-94.9	0.0
2025-01-18 01:01:22.493962	75.1	29.9	-94.8	0.0
2025-01-18 01:01:24.735308	75.8	30.0	-94.8	0.0
2025-01-18 01:01:26.978786	76.6	30.2	-94.8	0.0
2025-01-18 01:01:29.219003	77.3	30.3	-94.7	0.0
2025-01-18 01:01:31.461913	78.1	30.4	-94.5	0.0
2025-01-18 01:01:33.705014	78.8	30.5	-94.7	0.0
2025-01-18 01:01:35.947717	79.6	30.6	-94.7	0.0
2025-01-18 01:01:38.191702	80.4	30.7	-94.7	0.0
2025-01-18 01:01:40.435772	81.2	30.8	-94.6	0.0
2025-01-18 01:01:42.676703	82.0	30.9	-94.9	0.0
2025-01-18 01:01:44.919914	82.7	31.0	-94.8	0.0
2025-01-18 01:01:47.160706	83.5	31.1	-94.7	0.0
2025-01-18 01:01:49.399017	84.3	31.2	-94.8	0.0
2025-01-18 01:01:51.641025	85.1	31.3	-94.6	0.0
2025-01-18 01:01:53.885633	86.0	31.3	-94.5	0.0
2025-01-18 01:01:56.127378	86.8	31.4	-94.8	0.0
2025-01-18 01:01:58.372088	87.6	31.4	-94.7	0.0
2025-01-18 01:02:00.614931	88.4	31.5	-94.8	0.0
2025-01-18 01:02:02.860674	89.2	31.5	-94.8	0.0
2025-01-18 01:02:05.101759	90.0	31.6	-95.1	0.0
2025-01-18 01:02:07.343714	90.9	31.6	-94.7	0.0
2025-01-18 01:02:09.586689	91.7	31.6	-95.1	0.0
2025-01-18 01:02:11.827831	92.5	31.6	-95.1	0.0
2025-01-18 01:02:14.071718	93.3	31.6	-94.8	0.0
2025-01-18 01:02:16.318585	94.1	31.6	-95.0	0.0
2025-01-18 01:02:18.560700	95.0	31.6	-94.6	0.0
2025-01-18 01:02:20.804539	95.8	31.6	-94.7	0.0
2025-01-18 01:02:23.049767	96.6	31.6	-95.1	0.0
2025-01-18 01:02:25.290599	97.4	31.6	-94.4	0.0
2025-01-18 01:02:27.535836	98.3	31.6	-94.9	0.0
2025-01-18 01:02:29.778383	99.1	31.5	-94.9	0.0
2025-01-18 01:02:32.020689	99.9	31.5	-94.9	0.0
2025-01-18 01:02:34.262899	100.7	31.4	-94.7	0.0
2025-01-18 01:02:36.505052	101.5	31.4	-95.1	0.0
2025-01-18 01:02:38.745369	102.3	31.3	-94.9	0.0
2025-01-18 01:02:40.986110	103.2	31.2	-95.2	0.0
2025-01-18 01:02:43.229942	104.0	31.2	-95.2	0.0
2025-01-18 01:02:45.470768	104.8	31.1	-94.8	0.0
2025-01-18 01:02:47.711544	105.6	31.0	-95.0	0.0
2025-01-18 01:02:49.955101	106.3	30.9	-94.9	0.0
2025-01-18 01:02:52.196637	107.1	30.8	-94.9	0.0
2025-01-18 01:02:54.440769	107.9	30.7	-95.0	0.0
2025-01-18 01:02:56.684729	108.7	30.6	-94.7	0.0
2025-01-18 01:02:58.927418	109.5	30.5	-94.7	0.0
2025-01-18 01:03:01.169437	110.2	30.4	-94.7	0.0
2025-01-18 01:03:03.412759	111.0	30.3	-95.0	0.0
2025-01-18 01:03:05.655794	111.8	30.1	-94.7	0.0
2025-01-18 01:03:07.896707	112.5	30.0	-94.6	0.0
2025-01-18 01:03:10.135321	113.3	29.9	-94.9	0.0
2025-01-18 01:03:12.377783	114.0	29.7	-94.6	0.0
2025-01-18 01:03:14.618864	114.7	29.6	-94.9	0.0
2025-01-18 01:03:16.862191	115.5	29.4	-94.9	0.0
2025-01-18 01:03:19.105271	116.2	29.3	-94.8	0.0
2025-01-18 01:03:21.347731	116.9	29.1	-94.9	0.0
2025-01-18 01:03:23.592752	117.6	29.0	-94.9	0.0
2025-01-18 01:03:25.834365	118.3	28.8	-94.6	0.0
2025-01-18 01:03:28.075345	119.0	28.6	-94.8	0.0
2025-01-18 01:03:30.317767	119.7	28.5	-94.9	0.0
2025-01-18 01:03:32.561992	120.3	28.3	-94.9	0.0
2025-01-18 01:03:34.804007	121.0	28.1	-94.9	0.0
2025-01-18 01:03:37.050205	121.7	27.9	-95.1	0.0
2025-01-18 01:03:39.292929	122.3	27.8	-95.0	0.0
2025-01-18 01:03:41.534721	123.0	27.6	-94.9	0.0
2025-01-18 01:03:43.776193	123.6	27.4	-95.1	0.0
2025-01-18 01:03:46.021081	124.3	27.2	-94.8	0.0
2025-01-18 01:03:48.261551	124.9	27.0	-94.7	0.0
2025-01-18 01:03:50.501808	125.5	26.8	-94.9	0.0
2025-01-18 01:03:52.745421	126.1	26.6	-94.7	0.0
2025-01-18 01:03:54.989061	126.7	26.4	-94.7	0.0
2025-01-18 01:03:57.230921	127.3	26.2	-94.8	0.0
2025-01-18 01:03:59.471644	127.9	26.0	-94.7	0.0
2025-01-18 01:04:01.716554	128.5	25.8	-94.6	0.0
2025-01-18 01:04:03.957680	129.1	25.6	-94.5	0.0
2025-01-18 01:04:06.200613	129.6	25.4	-94.8	0.0
2025-01-18 01:04:08.441877	130.2	25.2	-94.7	0.0
2025-01-18 01:04:10.687679	130.7	25.0	-94.9	0.0
2025-01-18 01:04:12.932718	131.3	24.8	-95.0	0.0
2025-01-18 01:04:15.173678	131.8	24.5	-94.9	0.0
2025-01-18 01:04:17.415597	132.3	24.3	-95.1	0.0
2025-01-18 01:04:19.657557	132.9	24.1	-94.9	0.0
2025-01-18 01:04:21.899378	133.4	23.9	-94.8	0.0
2025-01-18 01:04:24.138725	133.9	23.7	-95.0	0.0
2025-01-18 01:04:26.380848	134.4	23.5	-94.8	0.0
2025-01-18 01:04:28.622948	134.9	23.3	-94.9	0.0
2025-01-18 01:04:30.864964	135.4	23.1	-95.1	0.0
2025-01-18 01:04:33.107347	135.9	22.8	-94.9	0.0
2025-01-18 01:04:35.349323	136.3	22.6	-94.7	0.0
2025-01-18 01:04:37.587911	136.8	22.4	-94.9	0.0
2025-01-18 01:04:39.829879	137.3	22.2	-95.1	0.0
2025-01-18 01:04:42.070731	137.7	22.0	-94.9	0.0
2025-01-18 01:04:44.313287	138.2	21.8	-94.7	0.0
2025-01-18 01:04:46.553458	138.6	21.5	-95.1	0.0
2025-01-18 01:04:48.798600	139.1	21.3	-94.8	0.0
2025-01-18 01:04:51.038634	139.5	21.1	-94.6	0.0
2025-01-18 01:04:53.282058	139.9	20.9	-94.5	0.0
2025-01-18 01:04:55.521308	140.4	20.7	-94.7	0.0
2025-01-18 01:04:57.763171	140.8	20.5	-94.4	0.0
2025-01-18 01:05:00.004889	141.2	20.3	-94.8	0.0
2025-01-18 01:05:02.248820	141.6	20.0	-94.6	0.0
2025-01-18 01:05:04.489937	142.0	19.8	-94.7	0.0
2025-01-18 01:05:06.731461	142.4	19.6	-94.8	0.0
2025-01-18 01:05:08.971880	142.8	19.4	-94.7	0.0
2025-01-18 01:05:11.215388	143.1	19.2	-94.6	0.0
2025-01-18 01:05:13.457782	143.5	19.0	-94.7	0.0
2025-01-18 01:05:15.696613	143.9	18.8	-94.7	0.0
2025-01-18 01:05:17.939876	144.3	18.6	-94.9	0.0
2025-01-18 01:05:20.178760	144.6	18.4	-94.5	0.0
2025-01-18 01:05:22.419322	145.0	18.1	-94.8	0.0
2025-01-18 01:05:24.661578	145.3	17.9	-94.5	0.0
2025-01-18 01:05:26.904504	145.7	17.7	-94.9	0.0
2025-01-18 01:05:29.144757	146.0	17.5	-94.7	0.0
2025-01-18 01:05:31.388259	146.4	17.3	-94.8	0.0
2025-01-18 01:05:33.629840	146.7	17.1	-94.9	0.0
2025-01-18 01:05:35.871924	147.0	16.9	-95.2	0.0
2025-01-18 01:05:38.117037	147.4	16.7	-95.0	0.0
2025-01-18 01:05:40.356272	147.7	16.5	-95.1	0.0
2025-01-18 01:05:42.600451	148.0	16.3	-95.0	0.0
2025-01-18 01:05:44.841738	148.3	16.1	-94.9	0.0
2025-01-18 01:05:47.082399	148.6	15.9	-95.0	0.0
2025-01-18 01:05:49.323159	148.9	15.7	-94.9	0.0
2025-01-18 01:05:51.566581	149.2	15.5	-95.2	0.0
2025-01-18 01:05:53.807633	149.5	15.3	-95.1	0.0
2025-01-18 01:05:56.050981	149.8	15.1	-94.9	0.0
2025-01-18 01:05:58.291760	150.1	14.9	-95.2	0.0
2025-01-18 01:06:00.531793	150.4	14.7	-94.9	0.0
2025-01-18 01:06:02.771354	150.7	14.5	-94.9	0.0
2025-01-18 01:06:05.014799	151.0	14.3	-95.0	0.0
2025-01-18 01:06:07.256500	151.2	14.1	-94.9	0.0
2025-01-18 01:06:09.496291	151.5	14.0	-94.9	0.0
2025-01-18 01:06:11.737269	151.8	13.8	-94.9	0.0
2025-01-18 01:06:13.977739	152.1	13.6	-95.0	0.0
2025-01-18 01:06:16.221680	152.3	13.4	-95.0	0.0
2025-01-18 01:06:18.465554	152.6	13.2	-94.7	0.0
2025-01-18 01:06:20.705683	152.8	13.0	-95.0	0.0
2025-01-18 01:06:22.949717	153.1	12.8	-94.8	0.0
2025-01-18 01:06:25.189674	153.3	12.7	-94.9	0.0
2025-01-18 01:06:27.429012	153.6	12.5	-94.8	0.0
2025-01-18 01:06:29.671545	153.8	12.3	-94.8	0.0
2025-01-18 01:06:31.911417	154.1	12.1	-94.9	0.0
2025-01-18 01:06:34.154421	154.3	11.9	-95.1	0.0
2025-01-18 01:06:36.398614	154.5	11.7	-94.9	0.0
2025-01-18 01:06:38.643171	154.8	11.6	-94.9	0.0
2025-01-18 01:06:40.886731	155.0	11.4	-95.1	0.0
2025-01-18 01:06:43.127712	155.2	11.2	-95.1	0.0
2025-01-18 01:06:45.368731	155.5	11.0	-95.1	0.0
2025-01-18 01:06:47.610616	155.7	10.9	-95.2	0.0
2025-01-18 01:06:49.855138	155.9	10.7	-94.9	0.0
2025-01-18 01:06:52.096740	156.1	10.5	-95.1	0.0
2025-01-18 01:06:54.336613	156.3	10.3	-95.1	0.0
2025-01-18 01:06:56.580021	156.5	10.2	-95.0	0.0
2025-01-18 01:06:58.822507	156.7	10.0	-95.1	0.0
#Closed at: 2025-01-18 00:57:26.673568