passes_logs/2025/01/18/planumMaritime01/planumMaritime01__20250118_234349_METEOR-M2_4_rec.log

#Pass ID: 20250118_234349_METEOR-M2 4
#Satellite: METEOR-M2 4
#Configuration: METEOR-M2 4
#Start time: 2025-01-18 23:43:54.394421

#LorettStation: 1.0.0 05.05.2024
#Station: planumMaritime01
#Location: 37.49445 lon 55.92918 lat
#TLE: 1 59051U 24039A   25018.12322251  .00000104  00000+0  66034-4 0  9999
#TLE: 2 59051  98.6299 341.0677 0006317 214.7140 145.3626 14.22326011 46042

#Time	Az	El	Level	SNR
2025-01-18 23:43:56.554929	36.5	10.1	-94.4	0.0
2025-01-18 23:43:58.797032	36.8	10.3	-94.3	0.0
2025-01-18 23:44:01.040728	37.0	10.4	-94.6	0.0
2025-01-18 23:44:03.283657	37.3	10.6	-94.8	0.0
2025-01-18 23:44:05.525153	37.6	10.7	-94.7	0.0
2025-01-18 23:44:07.766657	37.8	10.9	-94.7	0.0
2025-01-18 23:44:10.010900	38.1	11.0	-94.4	0.0
2025-01-18 23:44:12.251421	38.4	11.2	-94.7	0.0
2025-01-18 23:44:14.494776	38.7	11.4	-94.7	0.0
2025-01-18 23:44:16.737427	39.0	11.5	-94.4	0.0
2025-01-18 23:44:18.981398	39.2	11.7	-94.3	0.0
2025-01-18 23:44:21.222350	39.5	11.8	-94.5	0.0
2025-01-18 23:44:23.463198	39.8	12.0	-94.6	0.0
2025-01-18 23:44:25.705259	40.1	12.1	-94.5	0.0
2025-01-18 23:44:27.947240	40.4	12.3	-94.8	0.0
2025-01-18 23:44:30.189145	40.7	12.4	-94.5	0.0
2025-01-18 23:44:32.432414	41.0	12.6	-94.6	0.0
2025-01-18 23:44:34.676656	41.3	12.7	-94.4	0.0
2025-01-18 23:44:36.915233	41.7	12.9	-94.5	0.0
2025-01-18 23:44:39.155813	42.0	13.1	-94.5	0.0
2025-01-18 23:44:41.396476	42.3	13.2	-94.3	0.0
2025-01-18 23:44:43.639116	42.6	13.4	-94.3	0.0
2025-01-18 23:44:45.879497	42.9	13.5	-94.7	0.0
2025-01-18 23:44:48.120358	43.3	13.7	-94.3	0.0
2025-01-18 23:44:50.360842	43.6	13.8	-94.8	0.0
2025-01-18 23:44:52.605247	43.9	14.0	-94.8	0.0
2025-01-18 23:44:54.848410	44.3	14.1	-94.5	0.0
2025-01-18 23:44:57.089761	44.6	14.3	-94.8	0.0
2025-01-18 23:44:59.330707	45.0	14.5	-94.7	0.0
2025-01-18 23:45:01.574938	45.3	14.6	-94.8	0.0
2025-01-18 23:45:03.817110	45.7	14.8	-94.9	0.0
2025-01-18 23:45:06.059264	46.0	14.9	-94.9	0.0
2025-01-18 23:45:08.300098	46.4	15.1	-94.8	0.0
2025-01-18 23:45:10.542451	46.7	15.2	-94.8	0.0
2025-01-18 23:45:12.783816	47.1	15.4	-94.8	0.0
2025-01-18 23:45:15.025361	47.5	15.6	-95.1	0.0
2025-01-18 23:45:17.269157	47.9	15.7	-94.7	0.0
2025-01-18 23:45:19.513056	48.2	15.9	-94.5	0.0
2025-01-18 23:45:21.755069	48.6	16.0	-94.5	0.0
2025-01-18 23:45:23.997505	49.0	16.2	-94.6	0.0
2025-01-18 23:45:26.239145	49.4	16.3	-94.7	0.0
2025-01-18 23:45:28.481195	49.8	16.5	-94.6	0.0
2025-01-18 23:45:30.722804	50.2	16.7	-94.7	0.0
2025-01-18 23:45:32.965504	50.6	16.8	-94.5	0.0
2025-01-18 23:45:35.210673	51.0	17.0	-94.7	0.0
2025-01-18 23:45:37.455165	51.4	17.1	-94.7	0.0
2025-01-18 23:45:39.697383	51.8	17.3	-94.7	0.0
2025-01-18 23:45:41.937562	52.2	17.4	-94.7	0.0
2025-01-18 23:45:44.182550	52.7	17.6	-94.7	0.0
2025-01-18 23:45:46.422920	53.1	17.7	-94.8	0.0
2025-01-18 23:45:48.664339	53.5	17.9	-94.8	0.0
2025-01-18 23:45:50.906653	54.0	18.0	-94.7	0.0
2025-01-18 23:45:53.149746	54.4	18.2	-94.8	0.0
2025-01-18 23:45:55.390302	54.9	18.3	-94.6	0.0
2025-01-18 23:45:57.630299	55.3	18.5	-94.8	0.0
2025-01-18 23:45:59.873211	55.8	18.6	-94.8	0.0
2025-01-18 23:46:02.115843	56.2	18.8	-94.8	0.0
2025-01-18 23:46:04.359673	56.7	18.9	-94.6	0.0
2025-01-18 23:46:06.600377	57.1	19.1	-94.7	0.0
2025-01-18 23:46:08.842478	57.6	19.2	-94.7	0.0
2025-01-18 23:46:11.081806	58.1	19.4	-94.7	0.0
2025-01-18 23:46:13.323505	58.6	19.5	-94.6	0.0
2025-01-18 23:46:15.563655	59.1	19.7	-94.6	0.0
2025-01-18 23:46:17.811575	59.6	19.8	-94.8	0.0
2025-01-18 23:46:20.050801	60.0	19.9	-94.6	0.0
2025-01-18 23:46:22.291650	60.5	20.1	-94.7	0.0
2025-01-18 23:46:24.537396	61.1	20.2	-94.8	0.0
2025-01-18 23:46:26.782874	61.6	20.4	-94.6	0.0
2025-01-18 23:46:29.025832	62.1	20.5	-94.8	0.0
2025-01-18 23:46:31.268527	62.6	20.6	-94.8	0.0
2025-01-18 23:46:33.509368	63.1	20.8	-94.6	0.0
2025-01-18 23:46:35.750015	63.6	20.9	-94.6	0.0
2025-01-18 23:46:37.992403	64.2	21.0	-94.7	0.0
2025-01-18 23:46:40.233643	64.7	21.1	-94.5	0.0
2025-01-18 23:46:42.474352	65.2	21.3	-94.8	0.0
2025-01-18 23:46:44.719560	65.8	21.4	-94.8	0.0
2025-01-18 23:46:46.964681	66.3	21.5	-94.7	0.0
2025-01-18 23:46:49.208070	66.9	21.6	-94.9	0.0
2025-01-18 23:46:51.448300	67.4	21.7	-95.0	0.0
2025-01-18 23:46:53.693342	68.0	21.8	-94.9	0.0
2025-01-18 23:46:55.934326	68.6	22.0	-95.1	0.0
2025-01-18 23:46:58.177708	69.1	22.1	-95.1	0.0
2025-01-18 23:47:00.419835	69.7	22.2	-94.7	0.0
2025-01-18 23:47:02.663019	70.3	22.3	-94.8	0.0
2025-01-18 23:47:04.906693	70.8	22.4	-94.7	0.0
2025-01-18 23:47:07.147042	71.4	22.5	-95.1	0.0
2025-01-18 23:47:09.387502	72.0	22.6	-94.5	0.0
2025-01-18 23:47:11.626663	72.6	22.7	-94.8	0.0
2025-01-18 23:47:13.870204	73.2	22.8	-94.8	0.0
2025-01-18 23:47:16.111874	73.8	22.9	-94.6	0.0
2025-01-18 23:47:18.352406	74.4	22.9	-94.8	0.0
2025-01-18 23:47:20.594458	75.0	23.0	-94.6	0.0
2025-01-18 23:47:22.836981	75.6	23.1	-94.7	0.0
2025-01-18 23:47:25.078508	76.2	23.2	-94.8	0.0
2025-01-18 23:47:27.319046	76.8	23.2	-94.4	0.0
2025-01-18 23:47:29.560997	77.4	23.3	-94.7	0.0
2025-01-18 23:47:31.802787	78.1	23.4	-94.5	0.0
2025-01-18 23:47:34.045458	78.7	23.4	-94.6	0.0
2025-01-18 23:47:36.283914	79.3	23.5	-94.6	0.0
2025-01-18 23:47:38.527818	79.9	23.6	-94.7	0.0
2025-01-18 23:47:40.770533	80.6	23.6	-95.0	0.0
2025-01-18 23:47:43.016025	81.2	23.7	-94.9	0.0
2025-01-18 23:47:45.258003	81.8	23.7	-94.8	0.0
2025-01-18 23:47:47.499806	82.4	23.8	-94.9	0.0
2025-01-18 23:47:49.737595	83.1	23.8	-94.8	0.0
2025-01-18 23:47:51.980914	83.7	23.8	-94.7	0.0
2025-01-18 23:47:54.221547	84.4	23.9	-94.9	0.0
2025-01-18 23:47:56.467038	85.0	23.9	-94.9	0.0
2025-01-18 23:47:58.710515	85.6	23.9	-94.6	0.0
2025-01-18 23:48:00.954614	86.3	23.9	-94.9	0.0
2025-01-18 23:48:03.196311	86.9	24.0	-94.9	0.0
2025-01-18 23:48:05.436094	87.6	24.0	-94.5	0.0
2025-01-18 23:48:07.676638	88.2	24.0	-94.8	0.0
2025-01-18 23:48:09.917632	88.8	24.0	-94.5	0.0
2025-01-18 23:48:12.159920	89.5	24.0	-94.9	0.0
2025-01-18 23:48:14.402144	90.1	24.0	-94.5	0.0
2025-01-18 23:48:16.646668	90.8	24.0	-94.6	0.0
2025-01-18 23:48:18.888122	91.4	24.0	-94.7	0.0
2025-01-18 23:48:21.129784	92.1	24.0	-94.6	0.0
2025-01-18 23:48:23.371414	92.7	24.0	-94.3	0.0
2025-01-18 23:48:25.615548	93.4	23.9	-94.7	0.0
2025-01-18 23:48:27.856360	94.0	23.9	-94.5	0.0
2025-01-18 23:48:30.095833	94.6	23.9	-94.9	0.0
2025-01-18 23:48:32.338602	95.3	23.9	-94.9	0.0
2025-01-18 23:48:34.583457	95.9	23.8	-95.0	0.0
2025-01-18 23:48:36.826599	96.6	23.8	-95.1	0.0
2025-01-18 23:48:39.067878	97.2	23.8	-95.0	0.0
2025-01-18 23:48:41.313026	97.8	23.7	-94.8	0.0
2025-01-18 23:48:43.554671	98.5	23.7	-94.8	0.0
2025-01-18 23:48:45.795617	99.1	23.6	-95.0	0.0
2025-01-18 23:48:48.038021	99.7	23.6	-95.1	0.0
2025-01-18 23:48:50.281184	100.3	23.5	-94.8	0.0
2025-01-18 23:48:52.521298	101.0	23.4	-94.8	0.0
2025-01-18 23:48:54.763958	101.6	23.4	-94.7	0.0
2025-01-18 23:48:57.008249	102.2	23.3	-94.7	0.0
2025-01-18 23:48:59.249944	102.8	23.2	-94.7	0.0
2025-01-18 23:49:01.494537	103.4	23.2	-95.0	0.0
2025-01-18 23:49:03.736550	104.1	23.1	-95.0	0.0
2025-01-18 23:49:05.978550	104.7	23.0	-94.9	0.0
2025-01-18 23:49:08.219617	105.3	22.9	-94.8	0.0
2025-01-18 23:49:10.463644	105.9	22.8	-94.8	0.0
2025-01-18 23:49:12.704339	106.5	22.7	-94.9	0.0
2025-01-18 23:49:14.943301	107.1	22.6	-94.7	0.0
2025-01-18 23:49:17.184347	107.7	22.6	-94.9	0.0
2025-01-18 23:49:19.429254	108.2	22.5	-94.8	0.0
2025-01-18 23:49:21.670574	108.8	22.4	-95.0	0.0
2025-01-18 23:49:23.913775	109.4	22.3	-94.9	0.0
2025-01-18 23:49:26.156779	110.0	22.1	-94.9	0.0
2025-01-18 23:49:28.398300	110.6	22.0	-94.9	0.0
2025-01-18 23:49:30.639987	111.1	21.9	-94.9	0.0
2025-01-18 23:49:32.883066	111.7	21.8	-94.8	0.0
2025-01-18 23:49:35.126868	112.3	21.7	-94.8	0.0
2025-01-18 23:49:37.369494	112.8	21.6	-94.8	0.0
2025-01-18 23:49:39.611739	113.4	21.5	-94.8	0.0
2025-01-18 23:49:41.853454	113.9	21.3	-94.7	0.0
2025-01-18 23:49:44.094827	114.5	21.2	-94.6	0.0
2025-01-18 23:49:46.335449	115.0	21.1	-94.8	0.0
2025-01-18 23:49:48.578717	115.5	21.0	-94.9	0.0
2025-01-18 23:49:50.820215	116.1	20.8	-94.8	0.0
2025-01-18 23:49:53.062621	116.6	20.7	-95.0	0.0
2025-01-18 23:49:55.302443	117.1	20.6	-94.8	0.0
2025-01-18 23:49:57.546088	117.6	20.4	-94.9	0.0
2025-01-18 23:49:59.786431	118.1	20.3	-94.7	0.0
2025-01-18 23:50:02.026677	118.7	20.2	-94.8	0.0
2025-01-18 23:50:04.269212	119.2	20.0	-94.9	0.0
2025-01-18 23:50:06.510119	119.7	19.9	-94.9	0.0
2025-01-18 23:50:08.750275	120.2	19.7	-94.8	0.0
2025-01-18 23:50:10.992564	120.6	19.6	-94.8	0.0
2025-01-18 23:50:13.231738	121.1	19.5	-94.7	0.0
2025-01-18 23:50:15.470491	121.6	19.3	-94.6	0.0
2025-01-18 23:50:17.711835	122.1	19.2	-94.7	0.0
2025-01-18 23:50:19.955344	122.6	19.0	-94.5	0.0
2025-01-18 23:50:22.196768	123.0	18.9	-94.7	0.0
2025-01-18 23:50:24.440614	123.5	18.7	-94.8	0.0
2025-01-18 23:50:26.682740	124.0	18.6	-94.8	0.0
2025-01-18 23:50:28.920712	124.4	18.4	-94.9	0.0
2025-01-18 23:50:31.159917	124.9	18.3	-94.4	0.0
2025-01-18 23:50:33.401613	125.3	18.1	-94.7	0.0
2025-01-18 23:50:35.645000	125.8	18.0	-95.1	0.0
2025-01-18 23:50:37.886959	126.2	17.8	-94.7	0.0
2025-01-18 23:50:40.126821	126.6	17.7	-94.9	0.0
2025-01-18 23:50:42.368249	127.1	17.5	-94.5	0.0
2025-01-18 23:50:44.610122	127.5	17.4	-94.9	0.0
2025-01-18 23:50:46.849349	127.9	17.2	-94.7	0.0
2025-01-18 23:50:49.090515	128.3	17.0	-94.7	0.0
2025-01-18 23:50:51.331096	128.7	16.9	-94.7	0.0
2025-01-18 23:50:53.571248	129.2	16.7	-94.7	0.0
2025-01-18 23:50:55.812666	129.6	16.6	-94.7	0.0
2025-01-18 23:50:58.056324	130.0	16.4	-94.9	0.0
2025-01-18 23:51:00.297704	130.4	16.2	-94.7	0.0
2025-01-18 23:51:02.538608	130.7	16.1	-95.0	0.0
2025-01-18 23:51:04.781469	131.1	15.9	-94.7	0.0
2025-01-18 23:51:07.024577	131.5	15.8	-94.9	0.0
2025-01-18 23:51:09.264647	131.9	15.6	-95.1	0.0
2025-01-18 23:51:11.505502	132.3	15.5	-94.8	0.0
2025-01-18 23:51:13.748484	132.6	15.3	-95.0	0.0
2025-01-18 23:51:15.990505	133.0	15.1	-94.8	0.0
2025-01-18 23:51:18.234603	133.4	15.0	-94.9	0.0
2025-01-18 23:51:20.474312	133.7	14.8	-94.9	0.0
2025-01-18 23:51:22.715741	134.1	14.7	-94.8	0.0
2025-01-18 23:51:24.959863	134.5	14.5	-94.9	0.0
2025-01-18 23:51:27.202378	134.8	14.3	-94.7	0.0
2025-01-18 23:51:29.444227	135.2	14.2	-94.7	0.0
2025-01-18 23:51:31.686717	135.5	14.0	-94.6	0.0
2025-01-18 23:51:33.927322	135.8	13.9	-94.7	0.0
2025-01-18 23:51:36.170849	136.2	13.7	-94.6	0.0
2025-01-18 23:51:38.413664	136.5	13.5	-94.5	0.0
2025-01-18 23:51:40.656612	136.8	13.4	-94.9	0.0
2025-01-18 23:51:42.897984	137.2	13.2	-94.8	0.0
2025-01-18 23:51:45.138830	137.5	13.1	-94.9	0.0
2025-01-18 23:51:47.380083	137.8	12.9	-94.7	0.0
2025-01-18 23:51:49.621531	138.1	12.8	-94.7	0.0
2025-01-18 23:51:51.864515	138.4	12.6	-95.1	0.0
2025-01-18 23:51:54.108640	138.7	12.4	-95.1	0.0
2025-01-18 23:51:56.353188	139.0	12.3	-95.0	0.0
2025-01-18 23:51:58.594402	139.3	12.1	-95.1	0.0
2025-01-18 23:52:00.835603	139.6	12.0	-95.0	0.0
2025-01-18 23:52:03.080047	139.9	11.8	-95.0	0.0
2025-01-18 23:52:05.321044	140.2	11.7	-95.1	0.0
2025-01-18 23:52:07.561282	140.5	11.5	-95.1	0.0
2025-01-18 23:52:09.803904	140.8	11.3	-94.8	0.0
2025-01-18 23:52:12.049484	141.1	11.2	-94.4	0.0
2025-01-18 23:52:14.292640	141.4	11.0	-94.7	0.0
2025-01-18 23:52:16.534431	141.7	10.9	-94.6	0.0
2025-01-18 23:52:18.774532	141.9	10.7	-94.8	0.0
2025-01-18 23:52:21.017071	142.2	10.6	-94.7	0.0
2025-01-18 23:52:23.258236	142.5	10.4	-94.6	0.0
2025-01-18 23:52:25.499716	142.7	10.3	-94.8	0.0
2025-01-18 23:52:27.742695	143.0	10.1	-94.8	0.0
2025-01-18 23:52:29.986834	143.3	10.0	-94.9	0.0
#Closed at: 2025-01-18 23:43:49.395974