passes_logs/2025/01/18/planumMaritime01/planumMaritime01__20250118_122551_METEOR-M2_2_rec.log

#Pass ID: 20250118_122551_METEOR-M2 2
#Satellite: METEOR-M2 2
#Configuration: METEOR-M2 2
#Start time: 2025-01-18 12:25:56.448514

#LorettStation: 1.0.0 05.05.2024
#Station: planumMaritime01
#Location: 37.49445 lon 55.92918 lat
#TLE: 1 44387U 19038A   25017.10552627  .00000225  00000+0  11761-3 0  9997
#TLE: 2 44387  98.8570 353.5196 0002279  75.7364 284.4068 14.24118150287836

#Time	Az	El	Level	SNR
2025-01-18 12:25:58.604835	165.2	10.2	-94.3	0.0
2025-01-18 12:26:00.843967	165.2	10.4	-94.6	0.0
2025-01-18 12:26:03.085684	165.3	10.6	-94.4	0.0
2025-01-18 12:26:05.329320	165.3	10.8	-94.2	0.0
2025-01-18 12:26:07.570914	165.3	11.0	-94.4	0.0
2025-01-18 12:26:09.813288	165.3	11.2	-94.1	0.0
2025-01-18 12:26:12.053514	165.4	11.4	-94.3	0.0
2025-01-18 12:26:14.296254	165.4	11.6	-94.2	0.0
2025-01-18 12:26:16.535031	165.4	11.8	-94.2	0.0
2025-01-18 12:26:18.778183	165.5	12.0	-94.4	0.0
2025-01-18 12:26:21.021944	165.5	12.3	-94.6	0.0
2025-01-18 12:26:23.261068	165.5	12.5	-94.4	0.0
2025-01-18 12:26:25.503762	165.6	12.7	-94.7	0.0
2025-01-18 12:26:27.743785	165.6	12.9	-94.5	0.0
2025-01-18 12:26:29.987571	165.6	13.1	-94.6	0.0
2025-01-18 12:26:32.229385	165.7	13.4	-94.7	0.0
2025-01-18 12:26:34.471933	165.7	13.6	-94.9	0.0
2025-01-18 12:26:36.714696	165.7	13.8	-94.8	0.0
2025-01-18 12:26:38.957652	165.8	14.1	-94.6	0.0
2025-01-18 12:26:41.198739	165.8	14.3	-94.8	0.0
2025-01-18 12:26:43.441068	165.8	14.5	-94.6	0.0
2025-01-18 12:26:45.683374	165.9	14.8	-94.8	0.0
2025-01-18 12:26:47.927706	165.9	15.0	-94.8	0.0
2025-01-18 12:26:50.171547	165.9	15.3	-94.7	0.0
2025-01-18 12:26:52.412270	166.0	15.5	-94.5	0.0
2025-01-18 12:26:54.657077	166.0	15.7	-94.6	0.0
2025-01-18 12:26:56.900854	166.1	16.0	-94.9	0.0
2025-01-18 12:26:59.144738	166.1	16.3	-94.7	0.0
2025-01-18 12:27:01.387984	166.1	16.5	-94.6	0.0
2025-01-18 12:27:03.630867	166.2	16.8	-94.5	0.0
2025-01-18 12:27:05.873936	166.2	17.0	-94.8	0.0
2025-01-18 12:27:08.118393	166.3	17.3	-94.7	0.0
2025-01-18 12:27:10.362541	166.3	17.6	-94.7	0.0
2025-01-18 12:27:12.605879	166.3	17.8	-94.7	0.0
2025-01-18 12:27:14.848770	166.4	18.1	-94.8	0.0
2025-01-18 12:27:17.093171	166.4	18.4	-94.5	0.0
2025-01-18 12:27:19.334378	166.5	18.7	-94.7	0.0
2025-01-18 12:27:21.575909	166.5	19.0	-94.9	0.0
2025-01-18 12:27:23.819756	166.6	19.2	-94.7	0.0
2025-01-18 12:27:26.063321	166.6	19.5	-94.7	0.0
2025-01-18 12:27:28.305391	166.6	19.8	-94.8	0.0
2025-01-18 12:27:30.546773	166.7	20.1	-94.6	0.0
2025-01-18 12:27:32.792349	166.7	20.4	-94.7	0.0
2025-01-18 12:27:35.033679	166.8	20.7	-94.5	0.0
2025-01-18 12:27:37.272920	166.8	21.0	-94.8	0.0
2025-01-18 12:27:39.513292	166.9	21.4	-94.8	0.0
2025-01-18 12:27:41.754018	167.0	21.7	-94.7	0.0
2025-01-18 12:27:43.993205	167.0	22.0	-94.6	0.0
2025-01-18 12:27:46.233705	167.1	22.3	-94.6	0.0
2025-01-18 12:27:48.477938	167.1	22.6	-94.6	0.0
2025-01-18 12:27:50.723986	167.2	23.0	-94.7	0.0
2025-01-18 12:27:52.968658	167.2	23.3	-94.6	0.0
2025-01-18 12:27:55.210684	167.3	23.7	-94.7	0.0
2025-01-18 12:27:57.453943	167.3	24.0	-94.6	0.0
2025-01-18 12:27:59.695407	167.4	24.4	-94.7	0.0
2025-01-18 12:28:01.940668	167.5	24.7	-95.0	0.0
2025-01-18 12:28:04.179758	167.5	25.1	-94.6	0.0
2025-01-18 12:28:06.422111	167.6	25.4	-94.9	0.0
2025-01-18 12:28:08.664452	167.7	25.8	-94.9	0.0
2025-01-18 12:28:10.905686	167.7	26.2	-94.7	0.0
2025-01-18 12:28:13.145546	167.8	26.6	-94.8	0.0
2025-01-18 12:28:15.389772	167.9	26.9	-94.7	0.0
2025-01-18 12:28:17.629859	167.9	27.3	-94.9	0.0
2025-01-18 12:28:19.870866	168.0	27.7	-94.6	0.0
2025-01-18 12:28:22.114246	168.1	28.1	-94.7	0.0
2025-01-18 12:28:24.355791	168.2	28.6	-94.7	0.0
2025-01-18 12:28:26.599240	168.2	29.0	-94.7	0.0
2025-01-18 12:28:28.841946	168.3	29.4	-94.8	0.0
2025-01-18 12:28:31.083943	168.4	29.8	-94.4	0.0
2025-01-18 12:28:33.324398	168.5	30.3	-94.6	0.0
2025-01-18 12:28:35.564436	168.6	30.7	-94.5	0.0
2025-01-18 12:28:37.805052	168.7	31.1	-94.6	0.0
2025-01-18 12:28:40.048570	168.8	31.6	-94.6	0.0
2025-01-18 12:28:42.295820	168.9	32.1	-94.8	0.0
2025-01-18 12:28:44.537207	169.0	32.5	-94.7	0.0
2025-01-18 12:28:46.780411	169.1	33.0	-94.9	0.0
2025-01-18 12:28:49.023832	169.2	33.5	-95.0	0.0
2025-01-18 12:28:51.268280	169.3	34.0	-94.7	0.0
2025-01-18 12:28:53.510915	169.4	34.5	-94.8	0.0
2025-01-18 12:28:55.751788	169.5	35.0	-94.9	0.0
2025-01-18 12:28:57.995040	169.6	35.5	-94.8	0.0
2025-01-18 12:29:00.237032	169.7	36.1	-94.7	0.0
2025-01-18 12:29:02.478328	169.8	36.6	-94.7	0.0
2025-01-18 12:29:04.721312	170.0	37.1	-94.6	0.0
2025-01-18 12:29:06.964871	170.1	37.7	-94.8	0.0
2025-01-18 12:29:09.206071	170.2	38.2	-94.5	0.0
2025-01-18 12:29:11.447361	170.4	38.8	-94.8	0.0
2025-01-18 12:29:13.688163	170.5	39.4	-94.6	0.0
2025-01-18 12:29:15.930664	170.6	40.0	-94.6	0.0
2025-01-18 12:29:18.170938	170.8	40.6	-94.8	0.0
2025-01-18 12:29:20.414919	171.0	41.2	-94.6	0.0
2025-01-18 12:29:22.656231	171.1	41.8	-94.7	0.0
2025-01-18 12:29:24.897098	171.3	42.5	-94.7	0.0
2025-01-18 12:29:27.139772	171.5	43.1	-94.5	0.0
2025-01-18 12:29:29.380357	171.7	43.8	-94.6	0.0
2025-01-18 12:29:31.621098	171.8	44.4	-94.6	0.0
2025-01-18 12:29:33.862437	172.0	45.1	-94.7	0.0
2025-01-18 12:29:36.105776	172.3	45.8	-94.6	0.0
2025-01-18 12:29:38.348556	172.5	46.5	-94.6	0.0
2025-01-18 12:29:40.590043	172.7	47.2	-94.8	0.0
2025-01-18 12:29:42.831554	172.9	47.9	-94.8	0.0
2025-01-18 12:29:45.071612	173.2	48.6	-94.7	0.0
2025-01-18 12:29:47.315891	173.4	49.4	-95.0	0.0
2025-01-18 12:29:49.558941	173.7	50.1	-94.9	0.0
2025-01-18 12:29:51.798962	174.0	50.9	-94.7	0.0
2025-01-18 12:29:54.042294	174.3	51.7	-95.0	0.0
2025-01-18 12:29:56.284920	174.6	52.5	-94.8	0.0
2025-01-18 12:29:58.527604	174.9	53.3	-94.7	0.0
2025-01-18 12:30:00.767919	175.3	54.1	-95.0	0.0
2025-01-18 12:30:03.008938	175.7	54.9	-94.9	0.0
2025-01-18 12:30:05.249419	176.1	55.8	-94.7	0.0
2025-01-18 12:30:07.491085	176.5	56.6	-94.9	0.0
2025-01-18 12:30:09.732797	176.9	57.5	-94.8	0.0
2025-01-18 12:30:11.974792	177.4	58.4	-94.9	0.0
2025-01-18 12:30:14.220105	177.9	59.3	-94.8	0.0
2025-01-18 12:30:16.466196	178.5	60.2	-95.0	0.0
2025-01-18 12:30:18.705929	179.0	61.1	-94.9	0.0
2025-01-18 12:30:20.951558	179.7	62.0	-94.9	0.0
2025-01-18 12:30:23.194854	180.3	62.9	-95.1	0.0
2025-01-18 12:30:25.437077	181.1	63.9	-94.9	0.0
2025-01-18 12:30:27.677831	181.9	64.8	-94.8	0.0
2025-01-18 12:30:29.918456	182.7	65.8	-94.8	0.0
2025-01-18 12:30:32.161975	183.6	66.7	-94.7	0.0
2025-01-18 12:30:34.404749	184.7	67.7	-94.8	0.0
2025-01-18 12:30:36.646564	185.8	68.7	-94.7	0.0
2025-01-18 12:30:38.887914	187.0	69.6	-94.7	0.0
2025-01-18 12:30:41.128178	188.4	70.6	-94.9	0.0
2025-01-18 12:30:43.372316	189.9	71.6	-94.8	0.0
2025-01-18 12:30:45.611050	191.6	72.6	-94.8	0.0
2025-01-18 12:30:47.853474	193.5	73.5	-94.8	0.0
2025-01-18 12:30:50.095268	195.7	74.5	-95.0	0.0
2025-01-18 12:30:52.335382	198.1	75.4	-94.8	0.0
2025-01-18 12:30:54.576167	200.9	76.3	-94.9	0.0
2025-01-18 12:30:56.817299	204.1	77.2	-94.8	0.0
2025-01-18 12:30:59.058390	207.7	78.0	-95.1	0.0
2025-01-18 12:31:01.300506	211.9	78.8	-94.8	0.0
2025-01-18 12:31:03.542383	216.8	79.5	-95.0	0.0
2025-01-18 12:31:05.783799	222.2	80.2	-94.6	0.0
2025-01-18 12:31:08.023892	228.4	80.7	-95.2	0.0
2025-01-18 12:31:10.261862	235.3	81.1	-94.8	0.0
2025-01-18 12:31:12.503317	242.8	81.4	-95.1	0.0
2025-01-18 12:31:14.744468	250.6	81.5	-94.8	0.0
2025-01-18 12:31:16.988491	258.6	81.5	-94.7	0.0
2025-01-18 12:31:19.228912	266.4	81.3	-94.8	0.0
2025-01-18 12:31:21.469756	273.7	81.0	-94.8	0.0
2025-01-18 12:31:23.716090	280.4	80.5	-94.4	0.0
2025-01-18 12:31:25.956572	286.4	80.0	-94.8	0.0
2025-01-18 12:31:28.199135	291.6	79.3	-94.5	0.0
2025-01-18 12:31:30.438502	296.2	78.6	-94.6	0.0
2025-01-18 12:31:32.679983	300.3	77.8	-94.6	0.0
2025-01-18 12:31:34.923296	303.8	76.9	-94.6	0.0
2025-01-18 12:31:37.165674	306.8	76.0	-94.5	0.0
2025-01-18 12:31:39.406313	309.5	75.1	-94.5	0.0
2025-01-18 12:31:41.652102	311.8	74.2	-94.5	0.0
2025-01-18 12:31:43.894010	313.9	73.2	-94.8	0.0
2025-01-18 12:31:46.137655	315.8	72.3	-94.7	0.0
2025-01-18 12:31:48.377503	317.4	71.3	-94.7	0.0
2025-01-18 12:31:50.616563	318.9	70.3	-94.9	0.0
2025-01-18 12:31:52.854766	320.2	69.4	-94.6	0.0
2025-01-18 12:31:55.096937	321.4	68.4	-94.7	0.0
2025-01-18 12:31:57.341263	322.5	67.4	-94.7	0.0
2025-01-18 12:31:59.580288	323.5	66.5	-94.8	0.0
2025-01-18 12:32:01.822016	324.4	65.5	-95.1	0.0
2025-01-18 12:32:04.063826	325.2	64.6	-94.6	0.0
2025-01-18 12:32:06.307867	326.0	63.6	-94.9	0.0
2025-01-18 12:32:08.548706	326.7	62.7	-94.8	0.0
2025-01-18 12:32:10.793530	327.4	61.8	-94.9	0.0
2025-01-18 12:32:13.035242	328.0	60.8	-95.0	0.0
2025-01-18 12:32:15.277248	328.5	59.9	-94.8	0.0
2025-01-18 12:32:17.519862	329.1	59.0	-94.7	0.0
2025-01-18 12:32:19.762162	329.6	58.2	-94.8	0.0
2025-01-18 12:32:22.004195	330.0	57.3	-94.7	0.0
2025-01-18 12:32:24.247068	330.5	56.4	-94.6	0.0
2025-01-18 12:32:26.490292	330.9	55.6	-94.5	0.0
2025-01-18 12:32:28.732118	331.3	54.8	-94.6	0.0
2025-01-18 12:32:30.975944	331.6	53.9	-94.4	0.0
2025-01-18 12:32:33.214422	332.0	53.1	-94.7	0.0
2025-01-18 12:32:35.459671	332.3	52.3	-94.8	0.0
2025-01-18 12:32:37.702485	332.6	51.5	-94.9	0.0
2025-01-18 12:32:39.943661	332.9	50.8	-94.7	0.0
2025-01-18 12:32:42.185947	333.2	50.0	-94.9	0.0
2025-01-18 12:32:44.428876	333.5	49.2	-94.8	0.0
2025-01-18 12:32:46.670010	333.7	48.5	-94.8	0.0
2025-01-18 12:32:48.910811	334.0	47.8	-94.6	0.0
2025-01-18 12:32:51.154801	334.2	47.1	-94.7	0.0
2025-01-18 12:32:53.398070	334.4	46.4	-94.7	0.0
2025-01-18 12:32:55.640687	334.6	45.7	-94.8	0.0
2025-01-18 12:32:57.885065	334.9	45.0	-94.7	0.0
2025-01-18 12:33:00.129895	335.1	44.3	-94.9	0.0
2025-01-18 12:33:02.369044	335.2	43.6	-94.7	0.0
2025-01-18 12:33:04.607765	335.4	43.0	-94.9	0.0
2025-01-18 12:33:06.847228	335.6	42.4	-94.6	0.0
2025-01-18 12:33:09.090342	335.8	41.7	-94.9	0.0
2025-01-18 12:33:11.333902	335.9	41.1	-94.8	0.0
2025-01-18 12:33:13.575530	336.1	40.5	-94.8	0.0
2025-01-18 12:33:15.821757	336.2	39.9	-94.9	0.0
2025-01-18 12:33:18.065510	336.4	39.3	-95.0	0.0
2025-01-18 12:33:20.308112	336.5	38.8	-94.9	0.0
2025-01-18 12:33:22.549280	336.7	38.2	-95.0	0.0
2025-01-18 12:33:24.793717	336.8	37.6	-94.6	0.0
2025-01-18 12:33:27.034864	336.9	37.1	-94.8	0.0
2025-01-18 12:33:29.278661	337.1	36.5	-95.0	0.0
2025-01-18 12:33:31.522138	337.2	36.0	-94.6	0.0
2025-01-18 12:33:33.763781	337.3	35.5	-94.7	0.0
2025-01-18 12:33:36.007633	337.4	35.0	-94.6	0.0
2025-01-18 12:33:38.250335	337.5	34.5	-95.0	0.0
2025-01-18 12:33:40.491591	337.6	34.0	-94.8	0.0
2025-01-18 12:33:42.733960	337.7	33.5	-95.1	0.0
2025-01-18 12:33:44.976815	337.8	33.0	-95.1	0.0
2025-01-18 12:33:47.218805	337.9	32.5	-94.9	0.0
2025-01-18 12:33:49.462708	338.0	32.1	-95.0	0.0
2025-01-18 12:33:51.705059	338.1	31.6	-94.9	0.0
2025-01-18 12:33:53.947907	338.2	31.2	-94.8	0.0
2025-01-18 12:33:56.190577	338.3	30.7	-94.8	0.0
2025-01-18 12:33:58.429648	338.4	30.3	-94.8	0.0
2025-01-18 12:34:00.669426	338.5	29.8	-95.0	0.0
2025-01-18 12:34:02.912749	338.6	29.4	-95.1	0.0
2025-01-18 12:34:05.154487	338.6	29.0	-94.8	0.0
2025-01-18 12:34:07.394435	338.7	28.6	-95.0	0.0
2025-01-18 12:34:09.636192	338.8	28.2	-94.9	0.0
2025-01-18 12:34:11.876017	338.9	27.8	-95.1	0.0
2025-01-18 12:34:14.119456	339.0	27.4	-94.9	0.0
2025-01-18 12:34:16.358901	339.0	27.0	-94.8	0.0
2025-01-18 12:34:18.598478	339.1	26.6	-94.9	0.0
2025-01-18 12:34:20.840795	339.2	26.2	-94.8	0.0
2025-01-18 12:34:23.081990	339.2	25.9	-95.0	0.0
2025-01-18 12:34:25.324136	339.3	25.5	-94.8	0.0
2025-01-18 12:34:27.563923	339.4	25.1	-94.9	0.0
2025-01-18 12:34:29.804268	339.4	24.8	-95.0	0.0
2025-01-18 12:34:32.044863	339.5	24.4	-94.7	0.0
2025-01-18 12:34:34.285653	339.6	24.1	-94.8	0.0
2025-01-18 12:34:36.526875	339.6	23.7	-94.6	0.0
2025-01-18 12:34:38.767376	339.7	23.4	-94.9	0.0
2025-01-18 12:34:41.010447	339.7	23.0	-95.0	0.0
2025-01-18 12:34:43.252770	339.8	22.7	-94.7	0.0
2025-01-18 12:34:45.491890	339.8	22.4	-95.0	0.0
2025-01-18 12:34:47.735772	339.9	22.1	-94.6	0.0
2025-01-18 12:34:49.977527	340.0	21.7	-95.1	0.0
2025-01-18 12:34:52.220471	340.0	21.4	-94.8	0.0
2025-01-18 12:34:54.463750	340.1	21.1	-94.7	0.0
2025-01-18 12:34:56.706745	340.1	20.8	-95.0	0.0
2025-01-18 12:34:58.947921	340.2	20.5	-95.0	0.0
2025-01-18 12:35:01.193067	340.2	20.2	-95.1	0.0
2025-01-18 12:35:03.436778	340.3	19.9	-94.9	0.0
2025-01-18 12:35:05.679607	340.3	19.6	-95.0	0.0
2025-01-18 12:35:07.920853	340.4	19.3	-95.2	0.0
2025-01-18 12:35:10.162760	340.4	19.0	-95.1	0.0
2025-01-18 12:35:12.404039	340.5	18.8	-95.2	0.0
2025-01-18 12:35:14.644891	340.5	18.5	-94.9	0.0
2025-01-18 12:35:16.886891	340.5	18.2	-95.0	0.0
2025-01-18 12:35:19.130146	340.6	17.9	-94.8	0.0
2025-01-18 12:35:21.372922	340.6	17.7	-95.0	0.0
2025-01-18 12:35:23.615191	340.7	17.4	-94.7	0.0
2025-01-18 12:35:25.856311	340.7	17.1	-95.1	0.0
2025-01-18 12:35:28.099448	340.8	16.9	-94.8	0.0
2025-01-18 12:35:30.343283	340.8	16.6	-94.7	0.0
2025-01-18 12:35:32.586604	340.8	16.4	-94.6	0.0
2025-01-18 12:35:34.827842	340.9	16.1	-94.7	0.0
2025-01-18 12:35:37.071183	340.9	15.9	-94.5	0.0
2025-01-18 12:35:39.313944	341.0	15.6	-94.8	0.0
2025-01-18 12:35:41.555824	341.0	15.4	-95.1	0.0
2025-01-18 12:35:43.796922	341.0	15.1	-94.8	0.0
2025-01-18 12:35:46.036930	341.1	14.9	-94.9	0.0
2025-01-18 12:35:48.276174	341.1	14.7	-94.6	0.0
2025-01-18 12:35:50.520640	341.2	14.4	-95.0	0.0
2025-01-18 12:35:52.763318	341.2	14.2	-95.1	0.0
2025-01-18 12:35:55.003951	341.2	14.0	-94.7	0.0
2025-01-18 12:35:57.249590	341.3	13.7	-95.2	0.0
2025-01-18 12:35:59.492056	341.3	13.5	-95.2	0.0
2025-01-18 12:36:01.733743	341.3	13.3	-94.7	0.0
2025-01-18 12:36:03.974270	341.4	13.1	-95.2	0.0
2025-01-18 12:36:06.219133	341.4	12.8	-94.7	0.0
2025-01-18 12:36:08.457808	341.4	12.6	-95.0	0.0
2025-01-18 12:36:10.700333	341.5	12.4	-94.8	0.0
2025-01-18 12:36:12.941444	341.5	12.2	-95.0	0.0
2025-01-18 12:36:15.184563	341.5	12.0	-94.5	0.0
2025-01-18 12:36:17.426185	341.6	11.8	-94.8	0.0
2025-01-18 12:36:19.667682	341.6	11.6	-94.7	0.0
2025-01-18 12:36:21.910879	341.6	11.3	-94.6	0.0
2025-01-18 12:36:24.152926	341.7	11.1	-94.8	0.0
2025-01-18 12:36:26.396607	341.7	10.9	-94.6	0.0
2025-01-18 12:36:28.640073	341.7	10.7	-94.8	0.0
2025-01-18 12:36:30.879320	341.8	10.5	-94.8	0.0
2025-01-18 12:36:33.122251	341.8	10.3	-94.6	0.0
2025-01-18 12:36:35.363672	341.8	10.1	-94.7	0.0
#Closed at: 2025-01-18 12:25:51.450611