passes_logs/2025/01/18/planumMaritime01/planumMaritime01__20250118_170245_METOP-B_rec.log

#Pass ID: 20250118_170245_METOP-B
#Satellite: METOP-B
#Configuration: METOP-B
#Start time: 2025-01-18 17:02:50.671139

#LorettStation: 1.0.0 05.05.2024
#Station: planumMaritime01
#Location: 37.49445 lon 55.92918 lat
#TLE: 1 38771U 12049A   25018.13917443  .00000268  00000+0  14250-3 0  9990
#TLE: 2 38771  98.6005  76.2164 0001715  78.2005 281.9365 14.21412314640083

#Time	Az	El	Level	SNR
2025-01-18 17:02:52.834965	135.1	10.2	-94.4	0.0
2025-01-18 17:02:55.075360	135.0	10.4	-94.6	0.0
2025-01-18 17:02:57.321426	134.9	10.6	-94.3	0.0
2025-01-18 17:02:59.562382	134.8	10.8	-94.7	0.0
2025-01-18 17:03:01.804364	134.6	10.9	-94.7	0.0
2025-01-18 17:03:04.047684	134.5	11.1	-94.6	0.0
2025-01-18 17:03:06.291179	134.4	11.3	-94.7	0.0
2025-01-18 17:03:08.536480	134.2	11.5	-94.6	0.0
2025-01-18 17:03:10.778421	134.1	11.7	-94.6	0.0
2025-01-18 17:03:13.022758	134.0	11.9	-94.5	0.0
2025-01-18 17:03:15.264850	133.8	12.1	-94.6	0.0
2025-01-18 17:03:17.507070	133.7	12.3	-94.6	0.0
2025-01-18 17:03:19.747482	133.6	12.6	-94.6	0.0
2025-01-18 17:03:21.990400	133.4	12.8	-94.8	0.0
2025-01-18 17:03:24.234071	133.3	13.0	-94.6	0.0
2025-01-18 17:03:26.473143	133.1	13.2	-94.7	0.0
2025-01-18 17:03:28.718564	133.0	13.4	-94.7	0.0
2025-01-18 17:03:30.958941	132.8	13.6	-94.7	0.0
2025-01-18 17:03:33.200842	132.7	13.8	-95.1	0.0
2025-01-18 17:03:35.444208	132.5	14.0	-94.5	0.0
2025-01-18 17:03:37.686923	132.4	14.3	-94.7	0.0
2025-01-18 17:03:39.929145	132.2	14.5	-94.5	0.0
2025-01-18 17:03:42.171524	132.0	14.7	-94.6	0.0
2025-01-18 17:03:44.412598	131.9	14.9	-94.7	0.0
2025-01-18 17:03:46.654662	131.7	15.2	-94.4	0.0
2025-01-18 17:03:48.896199	131.5	15.4	-94.8	0.0
2025-01-18 17:03:51.137862	131.3	15.6	-94.7	0.0
2025-01-18 17:03:53.378738	131.2	15.8	-94.5	0.0
2025-01-18 17:03:55.623486	131.0	16.1	-94.6	0.0
2025-01-18 17:03:57.866189	130.8	16.3	-94.7	0.0
2025-01-18 17:04:00.109782	130.6	16.6	-94.5	0.0
2025-01-18 17:04:02.355596	130.4	16.8	-94.8	0.0
2025-01-18 17:04:04.597962	130.2	17.0	-94.9	0.0
2025-01-18 17:04:06.838427	130.0	17.3	-94.9	0.0
2025-01-18 17:04:09.079541	129.8	17.5	-95.0	0.0
2025-01-18 17:04:11.323161	129.6	17.8	-94.7	0.0
2025-01-18 17:04:13.565972	129.4	18.0	-95.0	0.0
2025-01-18 17:04:15.806072	129.2	18.3	-94.9	0.0
2025-01-18 17:04:18.047232	129.0	18.5	-94.8	0.0
2025-01-18 17:04:20.292223	128.8	18.8	-94.6	0.0
2025-01-18 17:04:22.534985	128.6	19.1	-95.0	0.0
2025-01-18 17:04:24.778200	128.3	19.3	-94.6	0.0
2025-01-18 17:04:27.020856	128.1	19.6	-94.7	0.0
2025-01-18 17:04:29.264631	127.9	19.8	-94.5	0.0
2025-01-18 17:04:31.503616	127.6	20.1	-94.7	0.0
2025-01-18 17:04:33.748049	127.4	20.4	-94.6	0.0
2025-01-18 17:04:35.990871	127.2	20.7	-94.6	0.0
2025-01-18 17:04:38.235863	126.9	20.9	-94.8	0.0
2025-01-18 17:04:40.476818	126.6	21.2	-94.6	0.0
2025-01-18 17:04:42.719582	126.4	21.5	-94.7	0.0
2025-01-18 17:04:44.961414	126.1	21.8	-94.7	0.0
2025-01-18 17:04:47.206146	125.9	22.1	-94.8	0.0
2025-01-18 17:04:49.447448	125.6	22.4	-94.7	0.0
2025-01-18 17:04:51.693261	125.3	22.6	-94.8	0.0
2025-01-18 17:04:53.935026	125.0	22.9	-94.7	0.0
2025-01-18 17:04:56.176305	124.7	23.2	-94.8	0.0
2025-01-18 17:04:58.419776	124.4	23.5	-94.6	0.0
2025-01-18 17:05:00.661849	124.1	23.8	-94.8	0.0
2025-01-18 17:05:02.902483	123.8	24.1	-94.4	0.0
2025-01-18 17:05:05.143494	123.5	24.4	-94.9	0.0
2025-01-18 17:05:07.386801	123.2	24.8	-94.7	0.0
2025-01-18 17:05:09.627523	122.9	25.1	-94.7	0.0
2025-01-18 17:05:11.871046	122.5	25.4	-94.7	0.0
2025-01-18 17:05:14.110506	122.2	25.7	-94.5	0.0
2025-01-18 17:05:16.356703	121.8	26.0	-94.8	0.0
2025-01-18 17:05:18.598885	121.5	26.3	-94.7	0.0
2025-01-18 17:05:20.842137	121.1	26.7	-94.8	0.0
2025-01-18 17:05:23.081528	120.7	27.0	-94.8	0.0
2025-01-18 17:05:25.323566	120.4	27.3	-94.8	0.0
2025-01-18 17:05:27.566310	120.0	27.7	-94.8	0.0
2025-01-18 17:05:29.807517	119.6	28.0	-94.7	0.0
2025-01-18 17:05:32.046099	119.2	28.3	-94.7	0.0
2025-01-18 17:05:34.289202	118.8	28.7	-94.9	0.0
2025-01-18 17:05:36.533859	118.3	29.0	-94.8	0.0
2025-01-18 17:05:38.774785	117.9	29.4	-94.9	0.0
2025-01-18 17:05:41.017218	117.5	29.7	-94.8	0.0
2025-01-18 17:05:43.258546	117.0	30.1	-94.8	0.0
2025-01-18 17:05:45.500177	116.6	30.4	-95.0	0.0
2025-01-18 17:05:47.742033	116.1	30.8	-94.8	0.0
2025-01-18 17:05:49.982979	115.6	31.1	-94.9	0.0
2025-01-18 17:05:52.228086	115.1	31.5	-94.7	0.0
2025-01-18 17:05:54.472033	114.6	31.9	-94.8	0.0
2025-01-18 17:05:56.713647	114.1	32.2	-94.7	0.0
2025-01-18 17:05:58.955015	113.6	32.6	-94.7	0.0
2025-01-18 17:06:01.196273	113.0	33.0	-94.9	0.0
2025-01-18 17:06:03.438871	112.5	33.3	-94.5	0.0
2025-01-18 17:06:05.680679	111.9	33.7	-94.7	0.0
2025-01-18 17:06:07.923247	111.4	34.1	-94.6	0.0
2025-01-18 17:06:10.169168	110.8	34.4	-94.8	0.0
2025-01-18 17:06:12.407701	110.2	34.8	-94.7	0.0
2025-01-18 17:06:14.647817	109.5	35.2	-94.6	0.0
2025-01-18 17:06:16.892177	108.9	35.6	-94.9	0.0
2025-01-18 17:06:19.134556	108.3	35.9	-94.7	0.0
2025-01-18 17:06:21.378526	107.6	36.3	-94.7	0.0
2025-01-18 17:06:23.620367	106.9	36.7	-94.6	0.0
2025-01-18 17:06:25.863136	106.2	37.1	-94.7	0.0
2025-01-18 17:06:28.106202	105.5	37.4	-94.8	0.0
2025-01-18 17:06:30.346305	104.8	37.8	-94.9	0.0
2025-01-18 17:06:32.592821	104.1	38.2	-94.8	0.0
2025-01-18 17:06:34.832156	103.3	38.6	-94.6	0.0
2025-01-18 17:06:37.075209	102.5	38.9	-94.9	0.0
2025-01-18 17:06:39.315881	101.7	39.3	-94.7	0.0
2025-01-18 17:06:41.559713	100.9	39.7	-94.7	0.0
2025-01-18 17:06:43.801165	100.1	40.0	-95.1	0.0
2025-01-18 17:06:46.042718	99.2	40.4	-94.9	0.0
2025-01-18 17:06:48.287962	98.4	40.7	-95.0	0.0
2025-01-18 17:06:50.527202	97.5	41.1	-95.0	0.0
2025-01-18 17:06:52.771906	96.6	41.4	-94.7	0.0
2025-01-18 17:06:55.015136	95.6	41.8	-94.8	0.0
2025-01-18 17:06:57.255734	94.7	42.1	-94.8	0.0
2025-01-18 17:06:59.500526	93.7	42.4	-94.5	0.0
2025-01-18 17:07:01.745186	92.7	42.7	-94.6	0.0
2025-01-18 17:07:03.989965	91.7	43.1	-94.5	0.0
2025-01-18 17:07:06.233054	90.7	43.4	-94.7	0.0
2025-01-18 17:07:08.471378	89.6	43.7	-94.3	0.0
2025-01-18 17:07:10.714098	88.6	44.0	-94.9	0.0
2025-01-18 17:07:12.952794	87.5	44.2	-94.4	0.0
2025-01-18 17:07:15.192417	86.4	44.5	-94.5	0.0
2025-01-18 17:07:17.434614	85.3	44.8	-94.6	0.0
2025-01-18 17:07:19.675056	84.1	45.0	-94.5	0.0
2025-01-18 17:07:21.915148	83.0	45.3	-94.6	0.0
2025-01-18 17:07:24.159195	81.8	45.5	-94.6	0.0
2025-01-18 17:07:26.402143	80.6	45.7	-94.7	0.0
2025-01-18 17:07:28.646054	79.4	45.9	-94.9	0.0
2025-01-18 17:07:30.888119	78.2	46.1	-94.9	0.0
2025-01-18 17:07:33.127739	76.9	46.3	-94.8	0.0
2025-01-18 17:07:35.366852	75.7	46.4	-94.7	0.0
2025-01-18 17:07:37.607290	74.4	46.6	-95.0	0.0
2025-01-18 17:07:39.851162	73.2	46.7	-94.9	0.0
2025-01-18 17:07:42.098030	71.9	46.8	-95.0	0.0
2025-01-18 17:07:44.337197	70.6	46.9	-95.0	0.0
2025-01-18 17:07:46.575126	69.3	47.0	-95.1	0.0
2025-01-18 17:07:48.817767	68.0	47.1	-94.7	0.0
2025-01-18 17:07:51.059736	66.7	47.1	-95.1	0.0
2025-01-18 17:07:53.302099	65.3	47.2	-94.9	0.0
2025-01-18 17:07:55.542904	64.0	47.2	-95.1	0.0
2025-01-18 17:07:57.782636	62.7	47.2	-95.0	0.0
2025-01-18 17:08:00.026137	61.4	47.2	-94.9	0.0
2025-01-18 17:08:02.267942	60.1	47.1	-95.1	0.0
2025-01-18 17:08:04.511043	58.8	47.1	-94.6	0.0
2025-01-18 17:08:06.754286	57.5	47.0	-94.9	0.0
2025-01-18 17:08:08.996897	56.2	46.9	-94.7	0.0
2025-01-18 17:08:11.237956	54.9	46.8	-95.0	0.0
2025-01-18 17:08:13.479875	53.6	46.7	-94.8	0.0
2025-01-18 17:08:15.724115	52.3	46.6	-94.7	0.0
2025-01-18 17:08:17.964835	51.0	46.5	-94.8	0.0
2025-01-18 17:08:20.208557	49.8	46.3	-94.6	0.0
2025-01-18 17:08:22.450613	48.5	46.1	-94.8	0.0
2025-01-18 17:08:24.690466	47.3	46.0	-94.7	0.0
2025-01-18 17:08:26.934709	46.1	45.8	-94.7	0.0
2025-01-18 17:08:29.178185	44.9	45.6	-95.1	0.0
2025-01-18 17:08:31.423464	43.7	45.3	-95.3	0.0
2025-01-18 17:08:33.666999	42.6	45.1	-95.0	0.0
2025-01-18 17:08:35.907996	41.4	44.8	-94.9	0.0
2025-01-18 17:08:38.151685	40.3	44.6	-94.8	0.0
2025-01-18 17:08:40.394294	39.2	44.3	-95.0	0.0
2025-01-18 17:08:42.637496	38.1	44.0	-94.8	0.0
2025-01-18 17:08:44.883183	37.0	43.8	-95.0	0.0
2025-01-18 17:08:47.124200	36.0	43.5	-94.6	0.0
2025-01-18 17:08:49.367131	35.0	43.2	-95.0	0.0
2025-01-18 17:08:51.610729	33.9	42.8	-95.1	0.0
2025-01-18 17:08:53.853387	33.0	42.5	-94.8	0.0
2025-01-18 17:08:56.097068	32.0	42.2	-94.9	0.0
2025-01-18 17:08:58.340568	31.0	41.9	-94.7	0.0
2025-01-18 17:09:00.580631	30.1	41.5	-94.8	0.0
2025-01-18 17:09:02.824551	29.2	41.2	-95.0	0.0
2025-01-18 17:09:05.068500	28.3	40.8	-95.0	0.0
2025-01-18 17:09:07.309629	27.4	40.5	-95.0	0.0
2025-01-18 17:09:09.549408	26.6	40.1	-94.8	0.0
2025-01-18 17:09:11.789589	25.7	39.8	-95.1	0.0
2025-01-18 17:09:14.030966	24.9	39.4	-94.8	0.0
2025-01-18 17:09:16.270140	24.1	39.1	-95.2	0.0
2025-01-18 17:09:18.511796	23.3	38.7	-94.9	0.0
2025-01-18 17:09:20.752436	22.6	38.3	-94.9	0.0
2025-01-18 17:09:22.995437	21.8	37.9	-94.8	0.0
2025-01-18 17:09:25.236452	21.1	37.6	-95.2	0.0
2025-01-18 17:09:27.478040	20.4	37.2	-94.9	0.0
2025-01-18 17:09:29.721618	19.7	36.8	-95.0	0.0
2025-01-18 17:09:31.967008	19.0	36.5	-94.9	0.0
2025-01-18 17:09:34.211636	18.4	36.1	-95.0	0.0
2025-01-18 17:09:36.455071	17.7	35.7	-94.9	0.0
2025-01-18 17:09:38.696044	17.1	35.3	-94.9	0.0
2025-01-18 17:09:40.936874	16.5	35.0	-95.0	0.0
2025-01-18 17:09:43.180427	15.8	34.6	-94.8	0.0
2025-01-18 17:09:45.424199	15.3	34.2	-94.6	0.0
2025-01-18 17:09:47.666578	14.7	33.8	-94.8	0.0
2025-01-18 17:09:49.908580	14.1	33.5	-94.8	0.0
2025-01-18 17:09:52.152109	13.6	33.1	-94.6	0.0
2025-01-18 17:09:54.395446	13.0	32.7	-94.8	0.0
2025-01-18 17:09:56.638023	12.5	32.4	-95.0	0.0
2025-01-18 17:09:58.877875	12.0	32.0	-94.9	0.0
2025-01-18 17:10:01.119661	11.5	31.7	-95.0	0.0
2025-01-18 17:10:03.361398	11.0	31.3	-94.6	0.0
2025-01-18 17:10:05.649487	10.5	30.9	-95.0	0.0
2025-01-18 17:10:07.892012	10.0	30.6	-94.9	0.0
2025-01-18 17:10:10.134133	9.6	30.2	-95.0	0.0
2025-01-18 17:10:12.376797	9.1	29.9	-94.8	0.0
2025-01-18 17:10:14.629417	8.7	29.5	-94.9	0.0
2025-01-18 17:10:16.870843	8.2	29.2	-94.9	0.0
2025-01-18 17:10:19.115870	7.8	28.8	-94.8	0.0
2025-01-18 17:10:21.359516	7.4	28.5	-94.9	0.0
2025-01-18 17:10:23.601581	7.0	28.2	-95.0	0.0
2025-01-18 17:10:25.843805	6.6	27.8	-95.0	0.0
2025-01-18 17:10:28.083691	6.2	27.5	-94.8	0.0
2025-01-18 17:10:30.328144	5.8	27.2	-95.0	0.0
2025-01-18 17:10:32.570831	5.5	26.8	-95.0	0.0
2025-01-18 17:10:34.813314	5.1	26.5	-94.8	0.0
2025-01-18 17:10:37.055388	4.8	26.2	-94.8	0.0
2025-01-18 17:10:39.296340	4.4	25.9	-94.7	0.0
2025-01-18 17:10:41.536662	4.1	25.5	-94.9	0.0
2025-01-18 17:10:43.777494	3.7	25.2	-95.0	0.0
2025-01-18 17:10:46.018211	3.4	24.9	-94.7	0.0
2025-01-18 17:10:48.263330	3.1	24.6	-94.9	0.0
2025-01-18 17:10:50.507330	2.8	24.3	-94.7	0.0
2025-01-18 17:10:52.749030	2.5	24.0	-94.7	0.0
2025-01-18 17:10:54.989735	2.2	23.7	-95.0	0.0
2025-01-18 17:10:57.232016	1.9	23.4	-94.7	0.0
2025-01-18 17:10:59.473798	1.6	23.1	-94.7	0.0
2025-01-18 17:11:01.715057	1.3	22.8	-94.8	0.0
2025-01-18 17:11:03.958338	1.0	22.5	-94.9	0.0
2025-01-18 17:11:06.199012	0.7	22.2	-94.9	0.0
2025-01-18 17:11:08.440051	0.5	21.9	-94.9	0.0
2025-01-18 17:11:10.681217	0.2	21.7	-94.8	0.0
2025-01-18 17:11:12.926372	359.9	21.4	-95.0	0.0
2025-01-18 17:11:15.169278	359.7	21.1	-94.9	0.0
2025-01-18 17:11:17.409413	359.4	20.8	-94.9	0.0
2025-01-18 17:11:19.648251	359.2	20.6	-94.8	0.0
2025-01-18 17:11:21.888492	358.9	20.3	-94.9	0.0
2025-01-18 17:11:24.132138	358.7	20.0	-94.6	0.0
2025-01-18 17:11:26.375013	358.5	19.8	-95.0	0.0
2025-01-18 17:11:28.619203	358.3	19.5	-94.9	0.0
2025-01-18 17:11:30.861582	358.0	19.2	-95.0	0.0
2025-01-18 17:11:33.101341	357.8	19.0	-95.0	0.0
2025-01-18 17:11:35.343532	357.6	18.7	-94.9	0.0
2025-01-18 17:11:37.585382	357.4	18.5	-94.8	0.0
2025-01-18 17:11:39.829393	357.2	18.2	-94.8	0.0
2025-01-18 17:11:42.071217	357.0	18.0	-94.7	0.0
2025-01-18 17:11:44.311268	356.8	17.7	-95.1	0.0
2025-01-18 17:11:46.549406	356.6	17.5	-94.7	0.0
2025-01-18 17:11:48.792251	356.4	17.2	-94.7	0.0
2025-01-18 17:11:51.038183	356.2	17.0	-94.7	0.0
2025-01-18 17:11:53.275952	356.0	16.7	-95.0	0.0
2025-01-18 17:11:55.518821	355.8	16.5	-94.9	0.0
2025-01-18 17:11:57.762843	355.6	16.3	-94.8	0.0
2025-01-18 17:12:00.004904	355.4	16.0	-94.9	0.0
2025-01-18 17:12:02.249144	355.3	15.8	-94.5	0.0
2025-01-18 17:12:04.489550	355.1	15.6	-94.6	0.0
2025-01-18 17:12:06.731221	354.9	15.3	-94.6	0.0
2025-01-18 17:12:08.972118	354.8	15.1	-94.9	0.0
2025-01-18 17:12:11.213048	354.6	14.9	-94.8	0.0
2025-01-18 17:12:13.456743	354.4	14.7	-94.8	0.0
2025-01-18 17:12:15.698765	354.3	14.4	-95.1	0.0
2025-01-18 17:12:17.940976	354.1	14.2	-94.8	0.0
2025-01-18 17:12:20.184978	354.0	14.0	-94.9	0.0
2025-01-18 17:12:22.427318	353.8	13.8	-95.2	0.0
2025-01-18 17:12:24.668212	353.6	13.6	-94.9	0.0
2025-01-18 17:12:26.912275	353.5	13.4	-95.0	0.0
2025-01-18 17:12:29.152408	353.4	13.2	-94.9	0.0
2025-01-18 17:12:31.392381	353.2	12.9	-94.8	0.0
2025-01-18 17:12:33.638207	353.1	12.7	-94.7	0.0
2025-01-18 17:12:35.879530	352.9	12.5	-94.8	0.0
2025-01-18 17:12:38.125084	352.8	12.3	-94.8	0.0
2025-01-18 17:12:40.369542	352.7	12.1	-94.6	0.0
2025-01-18 17:12:42.611890	352.5	11.9	-94.5	0.0
2025-01-18 17:12:44.855988	352.4	11.7	-95.0	0.0
2025-01-18 17:12:47.099572	352.3	11.5	-94.9	0.0
2025-01-18 17:12:49.343226	352.1	11.3	-94.9	0.0
2025-01-18 17:12:51.583849	352.0	11.1	-95.2	0.0
2025-01-18 17:12:53.829171	351.9	10.9	-95.0	0.0
2025-01-18 17:12:56.070812	351.8	10.7	-94.9	0.0
2025-01-18 17:12:58.312041	351.6	10.6	-95.2	0.0
2025-01-18 17:13:00.553914	351.5	10.4	-95.0	0.0
2025-01-18 17:13:02.796129	351.4	10.2	-94.7	0.0
2025-01-18 17:13:05.037493	351.3	10.0	-94.8	0.0
#Closed at: 2025-01-18 17:02:45.672329