passes_logs/2025/01/18/planumMaritime01/planumMaritime01__20250118_085046_NOAA_18_rec.log

#Pass ID: 20250118_085046_NOAA 18
#Satellite: NOAA 18
#Configuration: NOAA 18
#Start time: 2025-01-18 08:50:51.832669

#LorettStation: 1.0.0 05.05.2024
#Station: planumMaritime01
#Location: 37.49445 lon 55.92918 lat
#TLE: 1 28654U 05018A   25017.14480960  .00000361  00000+0  21486-3 0  9999
#TLE: 2 28654  98.8562  98.1779 0014463 173.1209 187.0164 14.13488310 13483

#Time	Az	El	Level	SNR
2025-01-18 08:50:53.996517	19.0	10.2	-94.3	0.0
2025-01-18 08:50:56.238739	19.0	10.4	-94.7	0.0
2025-01-18 08:50:58.478908	19.1	10.6	-94.6	0.0
2025-01-18 08:51:00.722399	19.1	10.8	-94.6	0.0
2025-01-18 08:51:02.964463	19.2	11.0	-94.8	0.0
2025-01-18 08:51:05.203909	19.2	11.2	-94.6	0.0
2025-01-18 08:51:07.444444	19.3	11.4	-94.8	0.0
2025-01-18 08:51:09.686229	19.3	11.6	-94.8	0.0
2025-01-18 08:51:11.925961	19.4	11.8	-94.5	0.0
2025-01-18 08:51:14.170907	19.4	12.0	-94.8	0.0
2025-01-18 08:51:16.414368	19.4	12.2	-94.7	0.0
2025-01-18 08:51:18.657811	19.5	12.4	-94.7	0.0
2025-01-18 08:51:20.900621	19.5	12.6	-94.4	0.0
2025-01-18 08:51:23.145225	19.6	12.8	-94.5	0.0
2025-01-18 08:51:25.387507	19.6	13.0	-94.7	0.0
2025-01-18 08:51:27.631040	19.7	13.3	-94.5	0.0
2025-01-18 08:51:29.873179	19.7	13.5	-94.6	0.0
2025-01-18 08:51:32.113032	19.8	13.7	-94.6	0.0
2025-01-18 08:51:34.359058	19.8	13.9	-94.6	0.0
2025-01-18 08:51:36.601826	19.9	14.1	-94.5	0.0
2025-01-18 08:51:38.842785	20.0	14.4	-94.7	0.0
2025-01-18 08:51:41.086880	20.0	14.6	-94.8	0.0
2025-01-18 08:51:43.326562	20.1	14.8	-94.7	0.0
2025-01-18 08:51:45.569420	20.1	15.1	-94.7	0.0
2025-01-18 08:51:47.809400	20.2	15.3	-94.6	0.0
2025-01-18 08:51:50.054925	20.2	15.5	-94.8	0.0
2025-01-18 08:51:52.297922	20.3	15.8	-94.7	0.0
2025-01-18 08:51:54.540145	20.3	16.0	-94.6	0.0
2025-01-18 08:51:56.784365	20.4	16.3	-94.4	0.0
2025-01-18 08:51:59.026759	20.5	16.5	-94.7	0.0
2025-01-18 08:52:01.269170	20.5	16.8	-94.4	0.0
2025-01-18 08:52:03.511330	20.6	17.0	-94.8	0.0
2025-01-18 08:52:05.754915	20.7	17.3	-94.9	0.0
2025-01-18 08:52:07.997755	20.7	17.5	-94.8	0.0
2025-01-18 08:52:10.240123	20.8	17.8	-94.6	0.0
2025-01-18 08:52:12.482884	20.8	18.0	-94.7	0.0
2025-01-18 08:52:14.728946	20.9	18.3	-94.9	0.0
2025-01-18 08:52:16.972359	21.0	18.6	-94.6	0.0
2025-01-18 08:52:19.215182	21.0	18.9	-94.6	0.0
2025-01-18 08:52:21.459836	21.1	19.1	-94.5	0.0
2025-01-18 08:52:23.700657	21.2	19.4	-94.9	0.0
2025-01-18 08:52:25.943091	21.3	19.7	-94.5	0.0
2025-01-18 08:52:28.186727	21.3	20.0	-94.6	0.0
2025-01-18 08:52:30.430928	21.4	20.3	-94.9	0.0
2025-01-18 08:52:32.673757	21.5	20.6	-94.7	0.0
2025-01-18 08:52:34.915737	21.6	20.8	-95.1	0.0
2025-01-18 08:52:37.158370	21.6	21.1	-94.9	0.0
2025-01-18 08:52:39.396168	21.7	21.4	-94.9	0.0
2025-01-18 08:52:41.637990	21.8	21.7	-94.7	0.0
2025-01-18 08:52:43.877393	21.9	22.1	-94.8	0.0
2025-01-18 08:52:46.122692	22.0	22.4	-94.7	0.0
2025-01-18 08:52:48.365844	22.0	22.7	-95.0	0.0
2025-01-18 08:52:50.607907	22.1	23.0	-94.7	0.0
2025-01-18 08:52:52.849869	22.2	23.3	-94.5	0.0
2025-01-18 08:52:55.089787	22.3	23.7	-94.9	0.0
2025-01-18 08:52:57.333426	22.4	24.0	-94.7	0.0
2025-01-18 08:52:59.572563	22.5	24.3	-94.3	0.0
2025-01-18 08:53:01.817448	22.6	24.7	-94.5	0.0
2025-01-18 08:53:04.060846	22.7	25.0	-94.5	0.0
2025-01-18 08:53:06.302036	22.8	25.4	-94.4	0.0
2025-01-18 08:53:08.543529	22.9	25.7	-94.5	0.0
2025-01-18 08:53:10.786028	23.0	26.1	-94.2	0.0
2025-01-18 08:53:13.026676	23.1	26.4	-94.6	0.0
2025-01-18 08:53:15.268926	23.2	26.8	-94.8	0.0
2025-01-18 08:53:17.511268	23.3	27.2	-94.5	0.0
2025-01-18 08:53:19.755058	23.4	27.5	-94.8	0.0
2025-01-18 08:53:21.995738	23.5	27.9	-94.7	0.0
2025-01-18 08:53:24.236945	23.7	28.3	-94.8	0.0
2025-01-18 08:53:26.480383	23.8	28.7	-94.8	0.0
2025-01-18 08:53:28.721881	23.9	29.1	-94.9	0.0
2025-01-18 08:53:30.963933	24.0	29.5	-94.9	0.0
2025-01-18 08:53:33.205620	24.2	29.9	-94.9	0.0
2025-01-18 08:53:35.446878	24.3	30.3	-95.0	0.0
2025-01-18 08:53:37.688825	24.4	30.8	-94.9	0.0
2025-01-18 08:53:39.933096	24.6	31.2	-94.8	0.0
2025-01-18 08:53:42.175165	24.7	31.6	-94.8	0.0
2025-01-18 08:53:44.419317	24.8	32.1	-94.5	0.0
2025-01-18 08:53:46.660949	25.0	32.5	-94.7	0.0
2025-01-18 08:53:48.905502	25.2	33.0	-94.6	0.0
2025-01-18 08:53:51.146708	25.3	33.4	-94.6	0.0
2025-01-18 08:53:53.390605	25.5	33.9	-94.6	0.0
2025-01-18 08:53:55.631551	25.6	34.4	-95.0	0.0
2025-01-18 08:53:57.873229	25.8	34.8	-94.7	0.0
2025-01-18 08:54:00.116785	26.0	35.3	-94.6	0.0
2025-01-18 08:54:02.359828	26.2	35.8	-94.8	0.0
2025-01-18 08:54:04.600843	26.3	36.3	-94.9	0.0
2025-01-18 08:54:06.844889	26.5	36.8	-94.8	0.0
2025-01-18 08:54:09.088866	26.7	37.4	-94.7	0.0
2025-01-18 08:54:11.332730	26.9	37.9	-94.8	0.0
2025-01-18 08:54:13.572766	27.2	38.4	-94.9	0.0
2025-01-18 08:54:15.816755	27.4	39.0	-94.8	0.0
2025-01-18 08:54:18.060875	27.6	39.5	-95.1	0.0
2025-01-18 08:54:20.303198	27.8	40.1	-94.6	0.0
2025-01-18 08:54:22.546569	28.1	40.6	-94.8	0.0
2025-01-18 08:54:24.788362	28.3	41.2	-94.9	0.0
2025-01-18 08:54:27.035282	28.6	41.8	-94.9	0.0
2025-01-18 08:54:29.276937	28.8	42.4	-94.9	0.0
2025-01-18 08:54:31.520995	29.1	43.0	-94.6	0.0
2025-01-18 08:54:33.762338	29.4	43.6	-94.8	0.0
2025-01-18 08:54:36.005775	29.7	44.2	-94.7	0.0
2025-01-18 08:54:38.247989	30.0	44.9	-94.5	0.0
2025-01-18 08:54:40.491545	30.3	45.5	-94.7	0.0
2025-01-18 08:54:42.732154	30.7	46.2	-94.6	0.0
2025-01-18 08:54:44.973737	31.0	46.8	-94.6	0.0
2025-01-18 08:54:47.218816	31.4	47.5	-94.7	0.0
2025-01-18 08:54:49.460609	31.7	48.2	-94.8	0.0
2025-01-18 08:54:51.702577	32.1	48.9	-94.9	0.0
2025-01-18 08:54:53.945771	32.5	49.6	-94.8	0.0
2025-01-18 08:54:56.189643	33.0	50.3	-95.0	0.0
2025-01-18 08:54:58.433828	33.4	51.0	-94.8	0.0
2025-01-18 08:55:00.676628	33.9	51.7	-94.8	0.0
2025-01-18 08:55:02.918977	34.4	52.4	-94.7	0.0
2025-01-18 08:55:05.161758	34.9	53.2	-94.8	0.0
2025-01-18 08:55:07.405263	35.5	53.9	-94.9	0.0
2025-01-18 08:55:09.646774	36.0	54.7	-94.9	0.0
2025-01-18 08:55:11.888093	36.6	55.5	-94.6	0.0
2025-01-18 08:55:14.132459	37.3	56.2	-94.6	0.0
2025-01-18 08:55:16.376719	38.0	57.0	-94.5	0.0
2025-01-18 08:55:18.622242	38.7	57.8	-94.8	0.0
2025-01-18 08:55:20.864840	39.4	58.6	-94.7	0.0
2025-01-18 08:55:23.108421	40.3	59.4	-94.7	0.0
2025-01-18 08:55:25.348927	41.1	60.2	-94.7	0.0
2025-01-18 08:55:27.590705	42.0	61.0	-94.7	0.0
2025-01-18 08:55:29.832170	43.0	61.9	-94.4	0.0
2025-01-18 08:55:32.074172	44.0	62.7	-94.7	0.0
2025-01-18 08:55:34.318593	45.2	63.5	-94.5	0.0
2025-01-18 08:55:36.561985	46.4	64.3	-94.7	0.0
2025-01-18 08:55:38.806210	47.6	65.1	-94.8	0.0
2025-01-18 08:55:41.050661	49.0	65.9	-95.0	0.0
2025-01-18 08:55:43.293358	50.5	66.8	-94.8	0.0
2025-01-18 08:55:45.534854	52.1	67.6	-94.6	0.0
2025-01-18 08:55:47.777971	53.9	68.4	-94.7	0.0
2025-01-18 08:55:50.019439	55.7	69.1	-94.8	0.0
2025-01-18 08:55:52.258693	57.8	69.9	-94.9	0.0
2025-01-18 08:55:54.500481	60.0	70.6	-94.7	0.0
2025-01-18 08:55:56.742523	62.3	71.4	-94.6	0.0
2025-01-18 08:55:58.986236	64.9	72.1	-94.5	0.0
2025-01-18 08:56:01.227499	67.7	72.7	-94.6	0.0
2025-01-18 08:56:03.470197	70.8	73.3	-94.6	0.0
2025-01-18 08:56:05.713299	74.0	73.9	-94.5	0.0
2025-01-18 08:56:07.953736	77.5	74.5	-94.8	0.0
2025-01-18 08:56:10.196854	81.3	74.9	-94.7	0.0
2025-01-18 08:56:12.437914	85.3	75.3	-94.5	0.0
2025-01-18 08:56:14.678844	89.5	75.7	-94.5	0.0
2025-01-18 08:56:16.919737	93.8	75.9	-94.6	0.0
2025-01-18 08:56:19.163195	98.4	76.1	-94.7	0.0
2025-01-18 08:56:21.407845	103.0	76.2	-94.7	0.0
2025-01-18 08:56:23.650016	107.6	76.2	-94.8	0.0
2025-01-18 08:56:25.891601	112.3	76.1	-94.9	0.0
2025-01-18 08:56:28.134769	116.8	75.9	-94.9	0.0
2025-01-18 08:56:30.377670	121.2	75.7	-94.9	0.0
2025-01-18 08:56:32.618321	125.4	75.4	-94.9	0.0
2025-01-18 08:56:34.860601	129.4	75.0	-94.7	0.0
2025-01-18 08:56:37.105015	133.2	74.5	-94.6	0.0
2025-01-18 08:56:39.347846	136.8	74.0	-94.6	0.0
2025-01-18 08:56:41.590177	140.1	73.4	-94.9	0.0
2025-01-18 08:56:43.833830	143.1	72.8	-94.7	0.0
2025-01-18 08:56:46.079195	145.9	72.1	-94.6	0.0
2025-01-18 08:56:48.318602	148.5	71.4	-94.7	0.0
2025-01-18 08:56:50.559736	150.9	70.7	-94.5	0.0
2025-01-18 08:56:52.799221	153.2	70.0	-94.6	0.0
2025-01-18 08:56:55.039706	155.2	69.2	-94.6	0.0
2025-01-18 08:56:57.284856	157.1	68.4	-94.7	0.0
2025-01-18 08:56:59.527670	158.9	67.6	-94.8	0.0
2025-01-18 08:57:01.768166	160.5	66.8	-94.5	0.0
2025-01-18 08:57:04.009762	162.0	66.0	-94.7	0.0
2025-01-18 08:57:06.250861	163.4	65.2	-95.0	0.0
2025-01-18 08:57:08.492269	164.7	64.4	-94.7	0.0
2025-01-18 08:57:10.731454	165.9	63.5	-94.8	0.0
2025-01-18 08:57:12.974096	167.0	62.7	-94.2	0.0
2025-01-18 08:57:15.218746	168.0	61.9	-94.7	0.0
2025-01-18 08:57:17.461079	169.0	61.1	-95.0	0.0
2025-01-18 08:57:19.703313	169.9	60.2	-94.8	0.0
2025-01-18 08:57:21.947904	170.8	59.4	-94.7	0.0
2025-01-18 08:57:24.190862	171.6	58.6	-94.7	0.0
2025-01-18 08:57:26.432789	172.4	57.8	-94.9	0.0
2025-01-18 08:57:28.674922	173.1	57.0	-94.9	0.0
2025-01-18 08:57:30.916725	173.8	56.2	-95.0	0.0
2025-01-18 08:57:33.158108	174.4	55.5	-94.8	0.0
2025-01-18 08:57:35.399892	175.1	54.7	-94.9	0.0
2025-01-18 08:57:37.642096	175.6	53.9	-94.9	0.0
2025-01-18 08:57:39.884585	176.2	53.2	-95.0	0.0
2025-01-18 08:57:42.125619	176.7	52.4	-94.8	0.0
2025-01-18 08:57:44.367908	177.2	51.7	-94.8	0.0
2025-01-18 08:57:46.611294	177.7	50.9	-94.7	0.0
2025-01-18 08:57:48.855226	178.1	50.2	-94.8	0.0
2025-01-18 08:57:51.096886	178.6	49.5	-95.1	0.0
2025-01-18 08:57:53.340121	179.0	48.8	-95.0	0.0
2025-01-18 08:57:55.582006	179.4	48.1	-94.7	0.0
2025-01-18 08:57:57.823542	179.8	47.4	-94.9	0.0
2025-01-18 08:58:00.067725	180.1	46.8	-94.7	0.0
2025-01-18 08:58:02.312697	180.5	46.1	-94.8	0.0
2025-01-18 08:58:04.553198	180.8	45.4	-94.9	0.0
2025-01-18 08:58:06.797647	181.1	44.8	-94.9	0.0
2025-01-18 08:58:09.037908	181.4	44.2	-95.0	0.0
2025-01-18 08:58:11.279653	181.7	43.5	-94.7	0.0
2025-01-18 08:58:13.519384	182.0	42.9	-94.8	0.0
2025-01-18 08:58:15.763274	182.3	42.3	-94.8	0.0
2025-01-18 08:58:18.005811	182.6	41.7	-95.0	0.0
2025-01-18 08:58:20.246324	182.8	41.1	-94.5	0.0
2025-01-18 08:58:22.487895	183.1	40.5	-95.0	0.0
2025-01-18 08:58:24.729065	183.3	40.0	-95.1	0.0
2025-01-18 08:58:26.969101	183.5	39.4	-94.9	0.0
2025-01-18 08:58:29.210111	183.8	38.8	-95.2	0.0
2025-01-18 08:58:31.449950	184.0	38.3	-94.7	0.0
2025-01-18 08:58:33.690216	184.2	37.8	-95.0	0.0
2025-01-18 08:58:35.932745	184.4	37.2	-94.8	0.0
2025-01-18 08:58:38.175913	184.6	36.7	-94.9	0.0
2025-01-18 08:58:40.419356	184.8	36.2	-95.1	0.0
2025-01-18 08:58:42.661905	185.0	35.7	-94.9	0.0
2025-01-18 08:58:44.904780	185.1	35.2	-95.0	0.0
2025-01-18 08:58:47.147870	185.3	34.7	-95.2	0.0
2025-01-18 08:58:49.394483	185.5	34.2	-95.0	0.0
2025-01-18 08:58:51.634909	185.6	33.7	-94.9	0.0
2025-01-18 08:58:53.874956	185.8	33.3	-94.6	0.0
2025-01-18 08:58:56.120176	186.0	32.8	-94.8	0.0
2025-01-18 08:58:58.363506	186.1	32.3	-94.9	0.0
2025-01-18 08:59:00.604468	186.3	31.9	-94.4	0.0
2025-01-18 08:59:02.848022	186.4	31.4	-95.0	0.0
2025-01-18 08:59:05.091317	186.6	31.0	-95.0	0.0
2025-01-18 08:59:07.330989	186.7	30.6	-94.8	0.0
2025-01-18 08:59:09.573562	186.8	30.1	-95.0	0.0
2025-01-18 08:59:11.814016	187.0	29.7	-95.0	0.0
2025-01-18 08:59:14.058845	187.1	29.3	-95.0	0.0
2025-01-18 08:59:16.301510	187.2	28.9	-95.0	0.0
2025-01-18 08:59:18.542222	187.3	28.5	-95.0	0.0
2025-01-18 08:59:20.784726	187.5	28.1	-95.1	0.0
2025-01-18 08:59:23.025831	187.6	27.7	-95.0	0.0
2025-01-18 08:59:25.268737	187.7	27.3	-94.9	0.0
2025-01-18 08:59:27.510283	187.8	27.0	-95.2	0.0
2025-01-18 08:59:29.751695	187.9	26.6	-94.9	0.0
2025-01-18 08:59:31.996723	188.0	26.2	-95.1	0.0
2025-01-18 08:59:34.236547	188.1	25.8	-94.8	0.0
2025-01-18 08:59:36.478895	188.2	25.5	-95.0	0.0
2025-01-18 08:59:38.720068	188.3	25.1	-94.4	0.0
2025-01-18 08:59:40.962523	188.4	24.8	-94.9	0.0
2025-01-18 08:59:43.201672	188.5	24.4	-94.7	0.0
2025-01-18 08:59:45.443589	188.6	24.1	-94.9	0.0
2025-01-18 08:59:47.686462	188.7	23.8	-94.8	0.0
2025-01-18 08:59:49.929496	188.8	23.4	-94.8	0.0
2025-01-18 08:59:52.172846	188.9	23.1	-94.6	0.0
2025-01-18 08:59:54.416104	189.0	22.8	-95.0	0.0
2025-01-18 08:59:56.658054	189.0	22.4	-94.7	0.0
2025-01-18 08:59:58.901450	189.1	22.1	-95.0	0.0
2025-01-18 09:00:01.145900	189.2	21.8	-95.2	0.0
2025-01-18 09:00:03.389847	189.3	21.5	-95.0	0.0
2025-01-18 09:00:05.631242	189.4	21.2	-94.8	0.0
2025-01-18 09:00:07.873137	189.4	20.9	-95.2	0.0
2025-01-18 09:00:10.116187	189.5	20.6	-95.0	0.0
2025-01-18 09:00:12.356978	189.6	20.3	-94.9	0.0
2025-01-18 09:00:14.596860	189.7	20.0	-95.1	0.0
2025-01-18 09:00:16.837923	189.7	19.7	-94.8	0.0
2025-01-18 09:00:19.081414	189.8	19.4	-95.0	0.0
2025-01-18 09:00:21.326917	189.9	19.1	-94.9	0.0
2025-01-18 09:00:23.569061	190.0	18.9	-94.8	0.0
2025-01-18 09:00:25.809907	190.0	18.6	-94.9	0.0
2025-01-18 09:00:28.052205	190.1	18.3	-95.1	0.0
2025-01-18 09:00:30.294596	190.2	18.0	-94.7	0.0
2025-01-18 09:00:32.534832	190.2	17.8	-94.9	0.0
2025-01-18 09:00:34.777990	190.3	17.5	-94.6	0.0
2025-01-18 09:00:37.022001	190.4	17.3	-94.9	0.0
2025-01-18 09:00:39.264539	190.4	17.0	-94.9	0.0
2025-01-18 09:00:41.507776	190.5	16.7	-95.0	0.0
2025-01-18 09:00:43.752020	190.5	16.5	-94.8	0.0
2025-01-18 09:00:45.994002	190.6	16.2	-94.9	0.0
2025-01-18 09:00:48.235693	190.7	16.0	-95.1	0.0
2025-01-18 09:00:50.474321	190.7	15.7	-94.8	0.0
2025-01-18 09:00:52.718271	190.8	15.5	-94.8	0.0
2025-01-18 09:00:54.960089	190.8	15.3	-95.1	0.0
2025-01-18 09:00:57.202871	190.9	15.0	-94.8	0.0
2025-01-18 09:00:59.445076	190.9	14.8	-95.0	0.0
2025-01-18 09:01:01.689094	191.0	14.5	-94.8	0.0
2025-01-18 09:01:03.929407	191.0	14.3	-94.9	0.0
2025-01-18 09:01:06.172182	191.1	14.1	-95.0	0.0
2025-01-18 09:01:08.412166	191.1	13.9	-95.0	0.0
2025-01-18 09:01:10.655963	191.2	13.6	-94.8	0.0
2025-01-18 09:01:12.895395	191.2	13.4	-94.8	0.0
2025-01-18 09:01:15.135791	191.3	13.2	-94.7	0.0
2025-01-18 09:01:17.377210	191.3	13.0	-94.9	0.0
2025-01-18 09:01:19.618891	191.4	12.7	-94.8	0.0
2025-01-18 09:01:21.859780	191.4	12.5	-94.9	0.0
2025-01-18 09:01:24.101686	191.5	12.3	-94.9	0.0
2025-01-18 09:01:26.343911	191.5	12.1	-94.7	0.0
2025-01-18 09:01:28.584572	191.6	11.9	-94.9	0.0
2025-01-18 09:01:30.827652	191.6	11.7	-94.9	0.0
2025-01-18 09:01:33.066037	191.7	11.5	-94.9	0.0
2025-01-18 09:01:35.306061	191.7	11.3	-94.8	0.0
2025-01-18 09:01:37.545999	191.8	11.1	-94.6	0.0
2025-01-18 09:01:39.790297	191.8	10.9	-94.8	0.0
2025-01-18 09:01:42.029407	191.8	10.7	-94.8	0.0
2025-01-18 09:01:44.271608	191.9	10.5	-94.8	0.0
2025-01-18 09:01:46.511641	191.9	10.3	-94.8	0.0
2025-01-18 09:01:48.756862	192.0	10.1	-94.5	0.0
#Closed at: 2025-01-18 08:50:46.834999