passes_logs/2025/01/18/planumMaritime01/planumMaritime01__20250118_200315_NOAA_19_rec.log

#Pass ID: 20250118_200315_NOAA 19
#Satellite: NOAA 19
#Configuration: NOAA 19
#Start time: 2025-01-18 20:03:20.996444

#LorettStation: 1.0.0 05.05.2024
#Station: planumMaritime01
#Location: 37.49445 lon 55.92918 lat
#TLE: 1 33591U 09005A   25018.04840605  .00000325  00000+0  19728-3 0  9997
#TLE: 2 33591  99.0190  81.8343 0014373  49.4310 310.8111 14.13261983821977

#Time	Az	El	Level	SNR
2025-01-18 20:03:23.159128	237.7	10.1	-94.6	0.0
2025-01-18 20:03:24.280805	237.9	10.2	-94.5	0.0
2025-01-18 20:03:25.401677	238.0	10.2	-94.5	0.0
2025-01-18 20:03:26.523387	238.2	10.3	-94.7	0.0
2025-01-18 20:03:27.645298	238.4	10.3	-94.7	0.0
2025-01-18 20:03:28.768540	238.5	10.4	-94.4	0.0
2025-01-18 20:03:29.891384	238.7	10.4	-94.3	0.0
2025-01-18 20:03:31.011134	238.9	10.5	-94.3	0.0
2025-01-18 20:03:32.132063	239.0	10.5	-94.4	0.0
2025-01-18 20:03:33.252542	239.2	10.6	-94.3	0.0
2025-01-18 20:03:34.373994	239.4	10.7	-94.6	0.0
2025-01-18 20:03:35.493750	239.6	10.7	-94.6	0.0
2025-01-18 20:03:36.615552	239.7	10.8	-94.4	0.0
2025-01-18 20:03:37.735473	239.9	10.8	-94.5	0.0
2025-01-18 20:03:38.856474	240.1	10.9	-94.6	0.0
2025-01-18 20:03:39.977651	240.3	10.9	-94.4	0.0
2025-01-18 20:03:41.098004	240.4	11.0	-94.4	0.0
2025-01-18 20:03:42.218185	240.6	11.0	-94.4	0.0
2025-01-18 20:03:43.339357	240.8	11.1	-94.6	0.0
2025-01-18 20:03:44.458605	241.0	11.1	-94.8	0.0
2025-01-18 20:03:45.580536	241.1	11.2	-94.5	0.0
2025-01-18 20:03:46.701302	241.3	11.3	-94.5	0.0
2025-01-18 20:03:47.824160	241.5	11.3	-94.5	0.0
2025-01-18 20:03:48.944953	241.7	11.4	-94.5	0.0
2025-01-18 20:03:50.067881	241.8	11.4	-94.5	0.0
2025-01-18 20:03:51.188442	242.0	11.5	-94.6	0.0
2025-01-18 20:03:52.309827	242.2	11.5	-94.6	0.0
2025-01-18 20:03:53.431676	242.4	11.6	-94.4	0.0
2025-01-18 20:03:54.555133	242.6	11.6	-94.5	0.0
2025-01-18 20:03:55.674267	242.8	11.7	-94.4	0.0
2025-01-18 20:03:56.795500	242.9	11.7	-94.4	0.0
2025-01-18 20:03:57.916205	243.1	11.8	-94.6	0.0
2025-01-18 20:03:59.038169	243.3	11.8	-94.6	0.0
2025-01-18 20:04:00.160441	243.5	11.9	-94.6	0.0
2025-01-18 20:04:01.281645	243.7	11.9	-94.7	0.0
2025-01-18 20:04:02.402907	243.9	12.0	-94.5	0.0
2025-01-18 20:04:03.525316	244.1	12.0	-94.5	0.0
2025-01-18 20:04:04.645133	244.2	12.1	-94.3	0.0
2025-01-18 20:04:05.766480	244.4	12.1	-94.5	0.0
2025-01-18 20:04:06.887315	244.6	12.2	-94.5	0.0
2025-01-18 20:04:08.009237	244.8	12.2	-94.8	0.0
2025-01-18 20:04:09.131291	245.0	12.3	-94.6	0.0
2025-01-18 20:04:10.253557	245.2	12.3	-94.6	0.0
2025-01-18 20:04:11.372603	245.4	12.4	-94.8	0.0
2025-01-18 20:04:12.493165	245.6	12.4	-94.7	0.0
2025-01-18 20:04:13.613341	245.8	12.5	-94.7	0.0
2025-01-18 20:04:14.732859	246.0	12.5	-94.7	0.0
2025-01-18 20:04:15.853436	246.2	12.6	-94.6	0.0
2025-01-18 20:04:16.973662	246.4	12.6	-94.8	0.0
2025-01-18 20:04:18.094907	246.5	12.7	-94.7	0.0
2025-01-18 20:04:19.214468	246.7	12.7	-94.7	0.0
2025-01-18 20:04:20.334451	246.9	12.8	-94.6	0.0
2025-01-18 20:04:21.457005	247.1	12.8	-94.8	0.0
2025-01-18 20:04:22.578737	247.3	12.9	-94.9	0.0
2025-01-18 20:04:23.697327	247.5	12.9	-94.4	0.0
2025-01-18 20:04:24.819517	247.7	13.0	-94.6	0.0
2025-01-18 20:04:25.940082	247.9	13.0	-94.4	0.0
2025-01-18 20:04:27.060527	248.1	13.1	-94.7	0.0
2025-01-18 20:04:28.181529	248.3	13.1	-94.7	0.0
2025-01-18 20:04:29.301378	248.5	13.2	-94.7	0.0
2025-01-18 20:04:30.423989	248.7	13.2	-94.7	0.0
2025-01-18 20:04:31.543446	248.9	13.3	-94.5	0.0
2025-01-18 20:04:32.666761	249.1	13.3	-94.7	0.0
2025-01-18 20:04:33.788592	249.3	13.3	-94.5	0.0
2025-01-18 20:04:34.909357	249.6	13.4	-94.7	0.0
2025-01-18 20:04:36.030722	249.8	13.4	-94.4	0.0
2025-01-18 20:04:37.152648	250.0	13.5	-94.7	0.0
2025-01-18 20:04:38.272487	250.2	13.5	-94.7	0.0
2025-01-18 20:04:39.394640	250.4	13.6	-94.7	0.0
2025-01-18 20:04:40.515089	250.6	13.6	-94.5	0.0
2025-01-18 20:04:41.636747	250.8	13.7	-94.6	0.0
2025-01-18 20:04:42.759113	251.0	13.7	-94.7	0.0
2025-01-18 20:04:43.881839	251.2	13.7	-94.7	0.0
2025-01-18 20:04:45.003012	251.4	13.8	-94.7	0.0
2025-01-18 20:04:46.124052	251.6	13.8	-94.6	0.0
2025-01-18 20:04:47.246464	251.8	13.9	-94.4	0.0
2025-01-18 20:04:48.370196	252.1	13.9	-94.4	0.0
2025-01-18 20:04:49.492673	252.3	14.0	-94.3	0.0
2025-01-18 20:04:50.616458	252.5	14.0	-94.3	0.0
2025-01-18 20:04:51.737540	252.7	14.0	-94.4	0.0
2025-01-18 20:04:52.859135	252.9	14.1	-94.6	0.0
2025-01-18 20:04:53.980336	253.1	14.1	-94.8	0.0
2025-01-18 20:04:55.101768	253.3	14.2	-94.9	0.0
2025-01-18 20:04:56.223122	253.6	14.2	-94.9	0.0
2025-01-18 20:04:57.344310	253.8	14.2	-94.6	0.0
2025-01-18 20:04:58.463671	254.0	14.3	-94.9	0.0
2025-01-18 20:04:59.586370	254.2	14.3	-94.9	0.0
2025-01-18 20:05:00.706738	254.4	14.4	-94.9	0.0
2025-01-18 20:05:01.827701	254.6	14.4	-94.9	0.0
2025-01-18 20:05:02.947601	254.9	14.4	-94.8	0.0
2025-01-18 20:05:04.070642	255.1	14.5	-94.9	0.0
2025-01-18 20:05:05.193526	255.3	14.5	-94.9	0.0
2025-01-18 20:05:06.316085	255.5	14.5	-94.5	0.0
2025-01-18 20:05:07.437136	255.7	14.6	-94.6	0.0
2025-01-18 20:05:08.559690	256.0	14.6	-94.5	0.0
2025-01-18 20:05:09.682992	256.2	14.6	-94.8	0.0
2025-01-18 20:05:10.803544	256.4	14.7	-94.8	0.0
2025-01-18 20:05:11.925739	256.6	14.7	-94.6	0.0
2025-01-18 20:05:13.044947	256.9	14.8	-94.7	0.0
2025-01-18 20:05:14.164530	257.1	14.8	-94.5	0.0
2025-01-18 20:05:15.284356	257.3	14.8	-94.8	0.0
2025-01-18 20:05:16.402881	257.5	14.9	-94.6	0.0
2025-01-18 20:05:17.524574	257.8	14.9	-94.4	0.0
2025-01-18 20:05:18.646154	258.0	14.9	-94.4	0.0
2025-01-18 20:05:19.767076	258.2	15.0	-94.6	0.0
2025-01-18 20:05:20.889253	258.4	15.0	-94.5	0.0
2025-01-18 20:05:22.011955	258.7	15.0	-94.6	0.0
2025-01-18 20:05:23.132514	258.9	15.1	-94.8	0.0
2025-01-18 20:05:24.254690	259.1	15.1	-94.8	0.0
2025-01-18 20:05:25.373872	259.4	15.1	-94.5	0.0
2025-01-18 20:05:26.495149	259.6	15.1	-94.6	0.0
2025-01-18 20:05:27.615310	259.8	15.2	-94.8	0.0
2025-01-18 20:05:28.735948	260.0	15.2	-94.7	0.0
2025-01-18 20:05:29.856452	260.3	15.2	-94.4	0.0
2025-01-18 20:05:30.978375	260.5	15.3	-94.5	0.0
2025-01-18 20:05:32.098688	260.7	15.3	-94.8	0.0
2025-01-18 20:05:33.219514	261.0	15.3	-94.5	0.0
2025-01-18 20:05:34.341433	261.2	15.3	-94.6	0.0
2025-01-18 20:05:35.463359	261.4	15.4	-94.6	0.0
2025-01-18 20:05:36.584851	261.7	15.4	-94.6	0.0
2025-01-18 20:05:37.707356	261.9	15.4	-94.9	0.0
2025-01-18 20:05:38.828343	262.1	15.5	-94.9	0.0
2025-01-18 20:05:39.949410	262.4	15.5	-94.7	0.0
2025-01-18 20:05:41.070729	262.6	15.5	-94.9	0.0
2025-01-18 20:05:42.192270	262.8	15.5	-94.9	0.0
2025-01-18 20:05:43.312811	263.1	15.6	-94.7	0.0
2025-01-18 20:05:44.433544	263.3	15.6	-94.8	0.0
2025-01-18 20:05:45.553882	263.5	15.6	-94.8	0.0
2025-01-18 20:05:46.675686	263.8	15.6	-94.7	0.0
2025-01-18 20:05:47.799554	264.0	15.6	-94.4	0.0
2025-01-18 20:05:48.921381	264.3	15.7	-94.6	0.0
2025-01-18 20:05:50.042284	264.5	15.7	-94.7	0.0
2025-01-18 20:05:51.164795	264.7	15.7	-94.5	0.0
2025-01-18 20:05:52.286941	265.0	15.7	-94.9	0.0
2025-01-18 20:05:53.407356	265.2	15.7	-94.5	0.0
2025-01-18 20:05:54.529747	265.4	15.8	-94.6	0.0
2025-01-18 20:05:55.651205	265.7	15.8	-94.7	0.0
2025-01-18 20:05:56.772285	265.9	15.8	-94.7	0.0
2025-01-18 20:05:57.893380	266.2	15.8	-94.7	0.0
2025-01-18 20:05:59.013932	266.4	15.8	-95.0	0.0
2025-01-18 20:06:00.133424	266.6	15.9	-94.5	0.0
2025-01-18 20:06:01.255202	266.9	15.9	-94.7	0.0
2025-01-18 20:06:02.374538	267.1	15.9	-94.7	0.0
2025-01-18 20:06:03.494233	267.4	15.9	-94.9	0.0
2025-01-18 20:06:04.616308	267.6	15.9	-94.8	0.0
2025-01-18 20:06:05.736979	267.9	15.9	-94.7	0.0
2025-01-18 20:06:06.858550	268.1	16.0	-94.8	0.0
2025-01-18 20:06:07.980109	268.3	16.0	-94.7	0.0
2025-01-18 20:06:09.098353	268.6	16.0	-94.7	0.0
2025-01-18 20:06:10.218369	268.8	16.0	-94.4	0.0
2025-01-18 20:06:11.337329	269.1	16.0	-94.8	0.0
2025-01-18 20:06:12.456386	269.3	16.0	-94.7	0.0
2025-01-18 20:06:13.576549	269.5	16.0	-94.7	0.0
2025-01-18 20:06:14.697517	269.8	16.0	-94.5	0.0
2025-01-18 20:06:15.818506	270.0	16.1	-94.6	0.0
2025-01-18 20:06:16.942417	270.3	16.1	-94.9	0.0
2025-01-18 20:06:18.063564	270.5	16.1	-94.7	0.0
2025-01-18 20:06:19.184354	270.8	16.1	-94.6	0.0
2025-01-18 20:06:20.305394	271.0	16.1	-94.8	0.0
2025-01-18 20:06:21.427735	271.3	16.1	-94.8	0.0
2025-01-18 20:06:22.549890	271.5	16.1	-94.9	0.0
2025-01-18 20:06:23.672084	271.7	16.1	-94.9	0.0
2025-01-18 20:06:24.793989	272.0	16.1	-94.7	0.0
2025-01-18 20:06:25.915598	272.2	16.1	-94.7	0.0
2025-01-18 20:06:27.034461	272.5	16.1	-94.8	0.0
2025-01-18 20:06:28.155020	272.7	16.1	-94.9	0.0
2025-01-18 20:06:29.274516	273.0	16.1	-94.6	0.0
2025-01-18 20:06:30.396367	273.2	16.1	-94.6	0.0
2025-01-18 20:06:31.517979	273.5	16.2	-94.7	0.0
2025-01-18 20:06:32.639872	273.7	16.2	-94.8	0.0
2025-01-18 20:06:33.761572	273.9	16.2	-94.9	0.0
2025-01-18 20:06:34.883206	274.2	16.2	-94.6	0.0
2025-01-18 20:06:36.003138	274.4	16.2	-94.6	0.0
2025-01-18 20:06:37.123484	274.7	16.2	-94.6	0.0
2025-01-18 20:06:38.245965	274.9	16.2	-94.7	0.0
2025-01-18 20:06:39.366381	275.2	16.2	-94.9	0.0
2025-01-18 20:06:40.488060	275.4	16.2	-94.9	0.0
2025-01-18 20:06:41.608483	275.7	16.2	-94.7	0.0
2025-01-18 20:06:42.731151	275.9	16.2	-94.7	0.0
2025-01-18 20:06:43.853005	276.1	16.2	-95.0	0.0
2025-01-18 20:06:44.975440	276.4	16.2	-94.7	0.0
2025-01-18 20:06:46.095464	276.6	16.2	-94.8	0.0
2025-01-18 20:06:47.215951	276.9	16.2	-94.8	0.0
2025-01-18 20:06:48.336403	277.1	16.2	-94.9	0.0
2025-01-18 20:06:49.456598	277.4	16.1	-94.8	0.0
2025-01-18 20:06:50.579247	277.6	16.1	-94.9	0.0
2025-01-18 20:06:51.700379	277.9	16.1	-94.7	0.0
2025-01-18 20:06:52.823361	278.1	16.1	-94.6	0.0
2025-01-18 20:06:53.944155	278.3	16.1	-95.0	0.0
2025-01-18 20:06:55.064010	278.6	16.1	-94.9	0.0
2025-01-18 20:06:56.186606	278.8	16.1	-94.9	0.0
2025-01-18 20:06:57.307439	279.1	16.1	-94.7	0.0
2025-01-18 20:06:58.428699	279.3	16.1	-94.6	0.0
2025-01-18 20:06:59.550495	279.6	16.1	-95.0	0.0
2025-01-18 20:07:00.673002	279.8	16.1	-94.8	0.0
2025-01-18 20:07:01.794134	280.1	16.1	-94.7	0.0
2025-01-18 20:07:02.916343	280.3	16.1	-94.8	0.0
2025-01-18 20:07:04.036602	280.5	16.0	-94.7	0.0
2025-01-18 20:07:05.158182	280.8	16.0	-94.6	0.0
2025-01-18 20:07:06.279290	281.0	16.0	-94.4	0.0
2025-01-18 20:07:07.399612	281.3	16.0	-94.4	0.0
2025-01-18 20:07:08.520624	281.5	16.0	-94.8	0.0
2025-01-18 20:07:09.640394	281.8	16.0	-94.7	0.0
2025-01-18 20:07:10.761300	282.0	16.0	-94.7	0.0
2025-01-18 20:07:11.882958	282.2	16.0	-94.7	0.0
2025-01-18 20:07:13.004460	282.5	15.9	-94.4	0.0
2025-01-18 20:07:14.125691	282.7	15.9	-95.0	0.0
2025-01-18 20:07:15.246752	283.0	15.9	-94.6	0.0
2025-01-18 20:07:16.367844	283.2	15.9	-94.6	0.0
2025-01-18 20:07:17.490138	283.4	15.9	-94.5	0.0
2025-01-18 20:07:18.611629	283.7	15.9	-94.4	0.0
2025-01-18 20:07:19.732214	283.9	15.9	-94.5	0.0
2025-01-18 20:07:20.852530	284.2	15.8	-95.0	0.0
2025-01-18 20:07:21.973217	284.4	15.8	-94.7	0.0
2025-01-18 20:07:23.095205	284.6	15.8	-95.0	0.0
2025-01-18 20:07:24.216660	284.9	15.8	-94.4	0.0
2025-01-18 20:07:25.335525	285.1	15.8	-94.7	0.0
2025-01-18 20:07:26.457158	285.4	15.7	-94.9	0.0
2025-01-18 20:07:27.579693	285.6	15.7	-94.9	0.0
2025-01-18 20:07:28.700441	285.8	15.7	-95.0	0.0
2025-01-18 20:07:29.819860	286.1	15.7	-94.7	0.0
2025-01-18 20:07:30.938716	286.3	15.7	-94.7	0.0
2025-01-18 20:07:32.061391	286.5	15.6	-94.8	0.0
2025-01-18 20:07:33.182460	286.8	15.6	-95.1	0.0
2025-01-18 20:07:34.302531	287.0	15.6	-94.7	0.0
2025-01-18 20:07:35.425560	287.2	15.6	-94.9	0.0
2025-01-18 20:07:36.545812	287.5	15.5	-94.6	0.0
2025-01-18 20:07:37.667353	287.7	15.5	-94.8	0.0
2025-01-18 20:07:38.789670	288.0	15.5	-95.0	0.0
2025-01-18 20:07:39.910336	288.2	15.5	-95.1	0.0
2025-01-18 20:07:41.032630	288.4	15.4	-94.7	0.0
2025-01-18 20:07:42.154805	288.7	15.4	-94.8	0.0
2025-01-18 20:07:43.275770	288.9	15.4	-94.7	0.0
2025-01-18 20:07:44.396022	289.1	15.4	-94.6	0.0
2025-01-18 20:07:45.517380	289.3	15.3	-94.6	0.0
2025-01-18 20:07:46.638475	289.6	15.3	-94.9	0.0
2025-01-18 20:07:47.759868	289.8	15.3	-94.9	0.0
2025-01-18 20:07:48.880477	290.0	15.3	-94.7	0.0
2025-01-18 20:07:50.000942	290.3	15.2	-94.6	0.0
2025-01-18 20:07:51.123005	290.5	15.2	-94.5	0.0
2025-01-18 20:07:52.242668	290.7	15.2	-94.3	0.0
2025-01-18 20:07:53.363782	291.0	15.1	-94.7	0.0
2025-01-18 20:07:54.485370	291.2	15.1	-94.7	0.0
2025-01-18 20:07:55.606651	291.4	15.1	-94.7	0.0
2025-01-18 20:07:56.730504	291.6	15.0	-94.5	0.0
2025-01-18 20:07:57.853022	291.9	15.0	-94.6	0.0
2025-01-18 20:07:58.972892	292.1	15.0	-94.6	0.0
2025-01-18 20:08:00.094629	292.3	15.0	-94.6	0.0
2025-01-18 20:08:01.216346	292.6	14.9	-94.8	0.0
2025-01-18 20:08:02.340087	292.8	14.9	-94.6	0.0
2025-01-18 20:08:03.461433	293.0	14.9	-94.6	0.0
2025-01-18 20:08:04.584057	293.2	14.8	-94.8	0.0
2025-01-18 20:08:05.704534	293.4	14.8	-94.8	0.0
2025-01-18 20:08:06.825791	293.7	14.7	-94.7	0.0
2025-01-18 20:08:07.946597	293.9	14.7	-94.8	0.0
2025-01-18 20:08:09.068488	294.1	14.7	-94.7	0.0
2025-01-18 20:08:10.190019	294.3	14.6	-94.8	0.0
2025-01-18 20:08:11.311176	294.6	14.6	-94.6	0.0
2025-01-18 20:08:12.429143	294.8	14.6	-94.9	0.0
2025-01-18 20:08:13.552397	295.0	14.5	-94.7	0.0
2025-01-18 20:08:14.673696	295.2	14.5	-94.9	0.0
2025-01-18 20:08:15.794465	295.4	14.5	-94.7	0.0
2025-01-18 20:08:16.916235	295.7	14.4	-94.9	0.0
2025-01-18 20:08:18.038114	295.9	14.4	-94.7	0.0
2025-01-18 20:08:19.158773	296.1	14.3	-94.8	0.0
2025-01-18 20:08:20.280873	296.3	14.3	-94.6	0.0
2025-01-18 20:08:21.402791	296.5	14.3	-94.8	0.0
2025-01-18 20:08:22.523642	296.7	14.2	-94.8	0.0
2025-01-18 20:08:23.646541	297.0	14.2	-94.7	0.0
2025-01-18 20:08:24.766023	297.2	14.2	-94.8	0.0
2025-01-18 20:08:25.886574	297.4	14.1	-95.0	0.0
2025-01-18 20:08:27.006504	297.6	14.1	-94.7	0.0
2025-01-18 20:08:28.131569	297.8	14.0	-94.9	0.0
2025-01-18 20:08:29.252545	298.0	14.0	-94.8	0.0
2025-01-18 20:08:30.374610	298.2	14.0	-94.7	0.0
2025-01-18 20:08:31.494379	298.4	13.9	-94.9	0.0
2025-01-18 20:08:32.614222	298.7	13.9	-95.0	0.0
2025-01-18 20:08:33.733149	298.9	13.8	-94.8	0.0
2025-01-18 20:08:34.855276	299.1	13.8	-94.9	0.0
2025-01-18 20:08:35.977525	299.3	13.7	-94.6	0.0
2025-01-18 20:08:37.096646	299.5	13.7	-95.0	0.0
2025-01-18 20:08:38.218740	299.7	13.7	-94.7	0.0
2025-01-18 20:08:39.339348	299.9	13.6	-94.7	0.0
2025-01-18 20:08:40.461816	300.1	13.6	-94.9	0.0
2025-01-18 20:08:41.580929	300.3	13.5	-94.8	0.0
2025-01-18 20:08:42.702880	300.5	13.5	-94.8	0.0
2025-01-18 20:08:43.826547	300.7	13.4	-94.6	0.0
2025-01-18 20:08:44.947201	300.9	13.4	-94.6	0.0
2025-01-18 20:08:46.068085	301.1	13.3	-94.8	0.0
2025-01-18 20:08:47.190585	301.3	13.3	-94.8	0.0
2025-01-18 20:08:48.311090	301.5	13.3	-94.8	0.0
2025-01-18 20:08:49.433547	301.7	13.2	-94.9	0.0
2025-01-18 20:08:50.555355	301.9	13.2	-94.9	0.0
2025-01-18 20:08:51.675161	302.1	13.1	-94.6	0.0
2025-01-18 20:08:52.795985	302.3	13.1	-94.7	0.0
2025-01-18 20:08:53.915582	302.5	13.0	-94.8	0.0
2025-01-18 20:08:55.036514	302.7	13.0	-94.8	0.0
2025-01-18 20:08:56.156767	302.9	12.9	-94.7	0.0
2025-01-18 20:08:57.277609	303.1	12.9	-94.6	0.0
2025-01-18 20:08:58.399602	303.3	12.8	-94.8	0.0
2025-01-18 20:08:59.521767	303.5	12.8	-94.7	0.0
2025-01-18 20:09:00.644793	303.7	12.7	-94.8	0.0
2025-01-18 20:09:01.766645	303.9	12.7	-94.6	0.0
2025-01-18 20:09:02.887572	304.1	12.6	-94.8	0.0
2025-01-18 20:09:04.008795	304.3	12.6	-94.7	0.0
2025-01-18 20:09:05.129729	304.5	12.5	-95.1	0.0
2025-01-18 20:09:06.251685	304.7	12.5	-94.9	0.0
2025-01-18 20:09:07.372355	304.9	12.4	-95.2	0.0
2025-01-18 20:09:08.494379	305.1	12.4	-94.9	0.0
2025-01-18 20:09:09.614990	305.3	12.4	-94.9	0.0
2025-01-18 20:09:10.735854	305.5	12.3	-95.1	0.0
2025-01-18 20:09:11.856660	305.6	12.3	-95.2	0.0
2025-01-18 20:09:12.977901	305.8	12.2	-95.1	0.0
2025-01-18 20:09:14.098809	306.0	12.2	-95.0	0.0
2025-01-18 20:09:15.221138	306.2	12.1	-94.8	0.0
2025-01-18 20:09:16.340137	306.4	12.1	-95.2	0.0
2025-01-18 20:09:17.460965	306.6	12.0	-95.1	0.0
2025-01-18 20:09:18.583108	306.8	11.9	-94.8	0.0
2025-01-18 20:09:19.704378	307.0	11.9	-94.8	0.0
2025-01-18 20:09:20.824992	307.1	11.8	-95.1	0.0
2025-01-18 20:09:21.947550	307.3	11.8	-95.1	0.0
2025-01-18 20:09:23.069186	307.5	11.7	-94.7	0.0
2025-01-18 20:09:24.191515	307.7	11.7	-94.6	0.0
2025-01-18 20:09:25.311568	307.9	11.6	-94.8	0.0
2025-01-18 20:09:26.434090	308.1	11.6	-94.8	0.0
2025-01-18 20:09:27.554730	308.2	11.5	-95.0	0.0
2025-01-18 20:09:28.675499	308.4	11.5	-94.6	0.0
2025-01-18 20:09:29.796616	308.6	11.4	-94.6	0.0
2025-01-18 20:09:30.918197	308.8	11.4	-94.6	0.0
2025-01-18 20:09:32.036638	309.0	11.3	-94.9	0.0
2025-01-18 20:09:33.159346	309.1	11.3	-94.9	0.0
2025-01-18 20:09:34.282191	309.3	11.2	-94.7	0.0
2025-01-18 20:09:35.401677	309.5	11.2	-94.6	0.0
2025-01-18 20:09:36.524411	309.7	11.1	-94.6	0.0
2025-01-18 20:09:37.646888	309.8	11.1	-94.8	0.0
2025-01-18 20:09:38.769543	310.0	11.0	-94.9	0.0
2025-01-18 20:09:39.891457	310.2	11.0	-94.9	0.0
2025-01-18 20:09:41.013917	310.4	10.9	-94.9	0.0
2025-01-18 20:09:42.136159	310.5	10.8	-94.8	0.0
2025-01-18 20:09:43.255506	310.7	10.8	-94.9	0.0
2025-01-18 20:09:44.375471	310.9	10.7	-94.9	0.0
2025-01-18 20:09:45.496054	311.0	10.7	-94.9	0.0
2025-01-18 20:09:46.615245	311.2	10.6	-95.1	0.0
2025-01-18 20:09:47.735090	311.4	10.6	-94.8	0.0
2025-01-18 20:09:48.857905	311.5	10.5	-95.1	0.0
2025-01-18 20:09:49.981728	311.7	10.5	-94.9	0.0
2025-01-18 20:09:51.102032	311.9	10.4	-94.9	0.0
2025-01-18 20:09:52.221546	312.1	10.4	-94.8	0.0
2025-01-18 20:09:53.342201	312.2	10.3	-95.1	0.0
2025-01-18 20:09:54.462211	312.4	10.3	-95.0	0.0
2025-01-18 20:09:55.584874	312.6	10.2	-94.9	0.0
2025-01-18 20:09:56.705812	312.7	10.1	-94.9	0.0
2025-01-18 20:09:57.827834	312.9	10.1	-94.8	0.0
2025-01-18 20:09:58.947273	313.0	10.0	-94.9	0.0
#Closed at: 2025-01-18 20:03:15.998574