passes_logs/2025/01/18/planumMaritime01/planumMaritime01__20250118_082619_NOAA_19_rec.log

#Pass ID: 20250118_082619_NOAA 19
#Satellite: NOAA 19
#Configuration: NOAA 19
#Start time: 2025-01-18 08:26:24.688630

#LorettStation: 1.0.0 05.05.2024
#Station: planumMaritime01
#Location: 37.49445 lon 55.92918 lat
#TLE: 1 33591U 09005A   25017.12803845  .00000314  00000+0  19161-3 0  9999
#TLE: 2 33591  99.0192  80.9069 0014403  51.8715 308.3753 14.13261185821848

#Time	Az	El	Level	SNR
2025-01-18 08:26:26.844684	11.9	10.2	-94.4	0.0
2025-01-18 08:26:29.085128	11.8	10.4	-94.4	0.0
2025-01-18 08:26:31.326753	11.7	10.6	-94.6	0.0
2025-01-18 08:26:33.570650	11.6	10.8	-94.3	0.0
2025-01-18 08:26:35.814885	11.6	11.0	-94.8	0.0
2025-01-18 08:26:38.058112	11.5	11.2	-94.6	0.0
2025-01-18 08:26:40.301124	11.4	11.4	-94.7	0.0
2025-01-18 08:26:42.543649	11.3	11.6	-94.8	0.0
2025-01-18 08:26:44.786527	11.2	11.8	-94.8	0.0
2025-01-18 08:26:47.028567	11.1	12.0	-94.6	0.0
2025-01-18 08:26:49.272167	11.0	12.2	-95.0	0.0
2025-01-18 08:26:51.516646	11.0	12.4	-94.7	0.0
2025-01-18 08:26:53.761313	10.9	12.6	-94.6	0.0
2025-01-18 08:26:56.003504	10.8	12.8	-94.2	0.0
2025-01-18 08:26:58.246187	10.7	13.0	-94.4	0.0
2025-01-18 08:27:00.489154	10.6	13.2	-94.4	0.0
2025-01-18 08:27:02.731259	10.5	13.4	-94.4	0.0
2025-01-18 08:27:04.973667	10.4	13.7	-94.7	0.0
2025-01-18 08:27:07.216134	10.3	13.9	-94.5	0.0
2025-01-18 08:27:09.456506	10.2	14.1	-94.6	0.0
2025-01-18 08:27:11.700228	10.1	14.3	-94.6	0.0
2025-01-18 08:27:13.941481	10.0	14.5	-94.8	0.0
2025-01-18 08:27:16.182131	9.9	14.8	-94.6	0.0
2025-01-18 08:27:18.423572	9.8	15.0	-94.8	0.0
2025-01-18 08:27:20.664228	9.7	15.2	-94.9	0.0
2025-01-18 08:27:22.905800	9.5	15.5	-94.9	0.0
2025-01-18 08:27:25.147429	9.4	15.7	-94.8	0.0
2025-01-18 08:27:27.387946	9.3	15.9	-94.9	0.0
2025-01-18 08:27:29.631724	9.2	16.2	-94.8	0.0
2025-01-18 08:27:31.873862	9.1	16.4	-94.7	0.0
2025-01-18 08:27:34.116562	8.9	16.7	-94.6	0.0
2025-01-18 08:27:36.358923	8.8	16.9	-95.1	0.0
2025-01-18 08:27:38.601939	8.7	17.1	-94.9	0.0
2025-01-18 08:27:40.843190	8.6	17.4	-94.4	0.0
2025-01-18 08:27:43.084174	8.4	17.7	-94.8	0.0
2025-01-18 08:27:45.327546	8.3	17.9	-94.7	0.0
2025-01-18 08:27:47.567616	8.2	18.2	-94.7	0.0
2025-01-18 08:27:49.809435	8.0	18.4	-94.6	0.0
2025-01-18 08:27:52.053021	7.9	18.7	-94.6	0.0
2025-01-18 08:27:54.293736	7.7	19.0	-94.6	0.0
2025-01-18 08:27:56.534580	7.6	19.2	-94.4	0.0
2025-01-18 08:27:58.776663	7.5	19.5	-94.7	0.0
2025-01-18 08:28:01.019978	7.3	19.8	-94.7	0.0
2025-01-18 08:28:03.261216	7.1	20.0	-94.4	0.0
2025-01-18 08:28:05.505609	7.0	20.3	-94.4	0.0
2025-01-18 08:28:07.747695	6.8	20.6	-94.5	0.0
2025-01-18 08:28:09.990629	6.7	20.9	-94.7	0.0
2025-01-18 08:28:12.235646	6.5	21.2	-94.7	0.0
2025-01-18 08:28:14.480922	6.3	21.5	-94.6	0.0
2025-01-18 08:28:16.726451	6.2	21.8	-94.6	0.0
2025-01-18 08:28:18.970460	6.0	22.1	-94.9	0.0
2025-01-18 08:28:21.211480	5.8	22.4	-94.7	0.0
2025-01-18 08:28:23.453911	5.6	22.7	-94.7	0.0
2025-01-18 08:28:25.693345	5.4	23.0	-95.0	0.0
2025-01-18 08:28:27.936649	5.2	23.3	-94.7	0.0
2025-01-18 08:28:30.177580	5.0	23.6	-94.9	0.0
2025-01-18 08:28:32.418930	4.8	23.9	-94.9	0.0
2025-01-18 08:28:34.662555	4.6	24.2	-94.8	0.0
2025-01-18 08:28:36.905517	4.4	24.6	-94.9	0.0
2025-01-18 08:28:39.147186	4.2	24.9	-94.8	0.0
2025-01-18 08:28:41.390403	4.0	25.2	-94.8	0.0
2025-01-18 08:28:43.631776	3.8	25.6	-94.9	0.0
2025-01-18 08:28:45.875797	3.5	25.9	-94.7	0.0
2025-01-18 08:28:48.114973	3.3	26.2	-94.6	0.0
2025-01-18 08:28:50.356375	3.1	26.6	-94.9	0.0
2025-01-18 08:28:52.599918	2.8	26.9	-94.5	0.0
2025-01-18 08:28:54.840649	2.6	27.3	-94.6	0.0
2025-01-18 08:28:57.082528	2.3	27.7	-94.5	0.0
2025-01-18 08:28:59.325291	2.1	28.0	-94.8	0.0
2025-01-18 08:29:01.567783	1.8	28.4	-94.9	0.0
2025-01-18 08:29:03.813256	1.5	28.8	-94.9	0.0
2025-01-18 08:29:06.056291	1.2	29.1	-95.0	0.0
2025-01-18 08:29:08.298037	1.0	29.5	-94.8	0.0
2025-01-18 08:29:10.541115	0.7	29.9	-94.8	0.0
2025-01-18 08:29:12.782046	0.4	30.3	-95.0	0.0
2025-01-18 08:29:15.025520	0.1	30.7	-94.7	0.0
2025-01-18 08:29:17.266616	359.7	31.1	-95.0	0.0
2025-01-18 08:29:19.505406	359.4	31.5	-94.7	0.0
2025-01-18 08:29:21.749887	359.1	31.9	-94.9	0.0
2025-01-18 08:29:23.993281	358.7	32.3	-94.6	0.0
2025-01-18 08:29:26.235624	358.4	32.7	-94.7	0.0
2025-01-18 08:29:28.477580	358.0	33.1	-94.5	0.0
2025-01-18 08:29:30.716095	357.7	33.5	-94.7	0.0
2025-01-18 08:29:32.957276	357.3	34.0	-94.7	0.0
2025-01-18 08:29:35.199809	356.9	34.4	-94.9	0.0
2025-01-18 08:29:37.439998	356.5	34.8	-94.6	0.0
2025-01-18 08:29:39.685493	356.1	35.3	-94.5	0.0
2025-01-18 08:29:41.926671	355.7	35.7	-94.7	0.0
2025-01-18 08:29:44.170452	355.2	36.2	-94.7	0.0
2025-01-18 08:29:46.409717	354.8	36.6	-94.6	0.0
2025-01-18 08:29:48.651417	354.3	37.1	-94.6	0.0
2025-01-18 08:29:50.893521	353.9	37.5	-94.6	0.0
2025-01-18 08:29:53.133450	353.4	38.0	-94.5	0.0
2025-01-18 08:29:55.374175	352.9	38.5	-94.6	0.0
2025-01-18 08:29:57.614626	352.4	38.9	-94.7	0.0
2025-01-18 08:29:59.858360	351.8	39.4	-94.6	0.0
2025-01-18 08:30:02.099494	351.3	39.9	-94.6	0.0
2025-01-18 08:30:04.342473	350.7	40.4	-94.5	0.0
2025-01-18 08:30:06.583315	350.1	40.9	-94.7	0.0
2025-01-18 08:30:08.823589	349.5	41.4	-94.7	0.0
2025-01-18 08:30:11.065077	348.9	41.9	-94.7	0.0
2025-01-18 08:30:13.306231	348.3	42.3	-94.6	0.0
2025-01-18 08:30:15.549555	347.6	42.8	-94.8	0.0
2025-01-18 08:30:17.792521	347.0	43.4	-94.9	0.0
2025-01-18 08:30:20.037259	346.3	43.9	-94.7	0.0
2025-01-18 08:30:22.279248	345.5	44.4	-95.1	0.0
2025-01-18 08:30:24.522327	344.8	44.9	-95.0	0.0
2025-01-18 08:30:26.763580	344.0	45.4	-94.9	0.0
2025-01-18 08:30:29.003763	343.2	45.9	-94.9	0.0
2025-01-18 08:30:31.248651	342.4	46.4	-94.7	0.0
2025-01-18 08:30:33.492473	341.6	46.9	-94.6	0.0
2025-01-18 08:30:35.730746	340.7	47.4	-94.9	0.0
2025-01-18 08:30:37.972495	339.8	47.9	-94.7	0.0
2025-01-18 08:30:40.213083	338.8	48.4	-94.7	0.0
2025-01-18 08:30:42.455347	337.9	48.9	-94.6	0.0
2025-01-18 08:30:44.699107	336.9	49.4	-94.6	0.0
2025-01-18 08:30:46.940649	335.8	49.9	-94.4	0.0
2025-01-18 08:30:49.183257	334.8	50.4	-94.6	0.0
2025-01-18 08:30:51.427752	333.7	50.9	-94.5	0.0
2025-01-18 08:30:53.670370	332.5	51.3	-94.4	0.0
2025-01-18 08:30:55.911281	331.4	51.8	-94.6	0.0
2025-01-18 08:30:58.151824	330.2	52.3	-94.4	0.0
2025-01-18 08:31:00.396156	328.9	52.7	-94.9	0.0
2025-01-18 08:31:02.636514	327.6	53.1	-94.6	0.0
2025-01-18 08:31:04.877600	326.3	53.6	-94.7	0.0
2025-01-18 08:31:07.123665	324.9	54.0	-94.6	0.0
2025-01-18 08:31:09.365215	323.5	54.4	-94.8	0.0
2025-01-18 08:31:11.605494	322.1	54.8	-94.7	0.0
2025-01-18 08:31:13.848722	320.6	55.1	-95.0	0.0
2025-01-18 08:31:16.089996	319.1	55.5	-94.8	0.0
2025-01-18 08:31:18.329068	317.6	55.8	-94.9	0.0
2025-01-18 08:31:20.571964	316.0	56.1	-94.7	0.0
2025-01-18 08:31:22.815479	314.3	56.4	-95.0	0.0
2025-01-18 08:31:25.056685	312.7	56.7	-94.5	0.0
2025-01-18 08:31:27.299577	311.0	57.0	-94.9	0.0
2025-01-18 08:31:29.539514	309.3	57.2	-94.7	0.0
2025-01-18 08:31:31.781812	307.5	57.4	-94.6	0.0
2025-01-18 08:31:34.023804	305.7	57.6	-94.7	0.0
2025-01-18 08:31:36.265545	303.9	57.7	-94.6	0.0
2025-01-18 08:31:38.505845	302.1	57.8	-94.6	0.0
2025-01-18 08:31:40.748434	300.3	57.9	-94.6	0.0
2025-01-18 08:31:42.988919	298.5	58.0	-94.5	0.0
2025-01-18 08:31:45.229275	296.6	58.0	-94.7	0.0
2025-01-18 08:31:47.470563	294.8	58.1	-94.5	0.0
2025-01-18 08:31:49.713234	292.9	58.0	-94.6	0.0
2025-01-18 08:31:51.954137	291.1	58.0	-94.7	0.0
2025-01-18 08:31:54.198119	289.2	57.9	-94.4	0.0
2025-01-18 08:31:56.439219	287.4	57.8	-94.7	0.0
2025-01-18 08:31:58.683880	285.6	57.7	-94.9	0.0
2025-01-18 08:32:00.926580	283.8	57.6	-94.7	0.0
2025-01-18 08:32:03.167196	282.0	57.4	-94.8	0.0
2025-01-18 08:32:05.411249	280.2	57.2	-95.0	0.0
2025-01-18 08:32:07.653895	278.5	56.9	-94.8	0.0
2025-01-18 08:32:09.894482	276.8	56.7	-94.9	0.0
2025-01-18 08:32:12.137945	275.2	56.4	-94.9	0.0
2025-01-18 08:32:14.379909	273.5	56.1	-95.0	0.0
2025-01-18 08:32:16.621361	272.0	55.8	-94.9	0.0
2025-01-18 08:32:18.861571	270.4	55.5	-94.7	0.0
2025-01-18 08:32:21.104679	268.9	55.1	-95.0	0.0
2025-01-18 08:32:23.349242	267.4	54.8	-94.9	0.0
2025-01-18 08:32:25.589924	266.0	54.4	-94.9	0.0
2025-01-18 08:32:27.831354	264.6	54.0	-94.7	0.0
2025-01-18 08:32:30.073711	263.2	53.5	-94.6	0.0
2025-01-18 08:32:32.315578	261.9	53.1	-94.6	0.0
2025-01-18 08:32:34.555663	260.6	52.7	-94.7	0.0
2025-01-18 08:32:36.798510	259.4	52.2	-94.8	0.0
2025-01-18 08:32:39.042277	258.1	51.8	-94.6	0.0
2025-01-18 08:32:41.284479	257.0	51.3	-94.6	0.0
2025-01-18 08:32:43.525805	255.8	50.8	-94.6	0.0
2025-01-18 08:32:45.769266	254.7	50.4	-94.5	0.0
2025-01-18 08:32:48.014154	253.7	49.9	-94.8	0.0
2025-01-18 08:32:50.254727	252.6	49.4	-94.9	0.0
2025-01-18 08:32:52.496595	251.6	48.9	-94.8	0.0
2025-01-18 08:32:54.737993	250.7	48.4	-94.8	0.0
2025-01-18 08:32:56.983740	249.7	47.9	-94.9	0.0
2025-01-18 08:32:59.224509	248.8	47.4	-94.8	0.0
2025-01-18 08:33:01.466083	248.0	46.9	-94.9	0.0
2025-01-18 08:33:03.707457	247.1	46.4	-94.9	0.0
2025-01-18 08:33:05.950861	246.3	45.9	-94.7	0.0
2025-01-18 08:33:08.198173	245.5	45.3	-94.9	0.0
2025-01-18 08:33:10.439914	244.7	44.8	-94.7	0.0
2025-01-18 08:33:12.682075	244.0	44.3	-94.6	0.0
2025-01-18 08:33:14.924104	243.3	43.8	-95.0	0.0
2025-01-18 08:33:17.164872	242.6	43.3	-94.9	0.0
2025-01-18 08:33:19.407825	241.9	42.8	-95.0	0.0
2025-01-18 08:33:21.651211	241.2	42.3	-94.9	0.0
2025-01-18 08:33:23.893540	240.6	41.8	-94.9	0.0
2025-01-18 08:33:26.134915	240.0	41.3	-95.0	0.0
2025-01-18 08:33:28.376278	239.4	40.8	-94.5	0.0
2025-01-18 08:33:30.617086	238.8	40.3	-95.0	0.0
2025-01-18 08:33:32.860558	238.2	39.9	-94.8	0.0
2025-01-18 08:33:35.104530	237.7	39.4	-94.9	0.0
2025-01-18 08:33:37.346927	237.2	38.9	-94.7	0.0
2025-01-18 08:33:39.585481	236.7	38.4	-94.9	0.0
2025-01-18 08:33:41.829478	236.2	38.0	-94.8	0.0
2025-01-18 08:33:44.071563	235.7	37.5	-94.9	0.0
2025-01-18 08:33:46.315112	235.2	37.0	-94.9	0.0
2025-01-18 08:33:48.556647	234.7	36.6	-94.8	0.0
2025-01-18 08:33:50.800444	234.3	36.1	-95.4	0.0
2025-01-18 08:33:53.041639	233.9	35.7	-94.9	0.0
2025-01-18 08:33:55.284622	233.4	35.2	-94.9	0.0
2025-01-18 08:33:57.528982	233.0	34.8	-95.2	0.0
2025-01-18 08:33:59.770606	232.6	34.4	-94.8	0.0
2025-01-18 08:34:02.014518	232.2	33.9	-95.1	0.0
2025-01-18 08:34:04.255406	231.9	33.5	-95.2	0.0
2025-01-18 08:34:06.496576	231.5	33.1	-95.0	0.0
2025-01-18 08:34:08.739413	231.1	32.7	-95.1	0.0
2025-01-18 08:34:10.982983	230.8	32.2	-95.0	0.0
2025-01-18 08:34:13.223852	230.4	31.8	-94.8	0.0
2025-01-18 08:34:15.467762	230.1	31.4	-94.6	0.0
2025-01-18 08:34:17.711081	229.8	31.0	-94.6	0.0
2025-01-18 08:34:19.951787	229.5	30.6	-94.8	0.0
2025-01-18 08:34:22.193353	229.2	30.2	-94.8	0.0
2025-01-18 08:34:24.433314	228.9	29.9	-94.9	0.0
2025-01-18 08:34:26.672835	228.6	29.5	-94.8	0.0
2025-01-18 08:34:28.913915	228.3	29.1	-94.6	0.0
2025-01-18 08:34:31.153752	228.0	28.7	-94.8	0.0
2025-01-18 08:34:33.397734	227.7	28.3	-94.8	0.0
2025-01-18 08:34:35.639591	227.5	28.0	-95.0	0.0
2025-01-18 08:34:37.881727	227.2	27.6	-94.5	0.0
2025-01-18 08:34:40.122351	226.9	27.3	-94.8	0.0
2025-01-18 08:34:42.367980	226.7	26.9	-94.9	0.0
2025-01-18 08:34:44.615518	226.4	26.6	-94.8	0.0
2025-01-18 08:34:46.858905	226.2	26.2	-95.0	0.0
2025-01-18 08:34:49.099175	226.0	25.9	-95.3	0.0
2025-01-18 08:34:51.341514	225.7	25.5	-94.8	0.0
2025-01-18 08:34:53.584026	225.5	25.2	-95.0	0.0
2025-01-18 08:34:55.827132	225.3	24.9	-94.7	0.0
2025-01-18 08:34:58.067499	225.1	24.5	-94.8	0.0
2025-01-18 08:35:00.310737	224.9	24.2	-94.8	0.0
2025-01-18 08:35:02.551905	224.7	23.9	-95.1	0.0
2025-01-18 08:35:04.793478	224.5	23.6	-94.8	0.0
2025-01-18 08:35:07.035395	224.3	23.3	-94.7	0.0
2025-01-18 08:35:09.280623	224.1	22.9	-94.7	0.0
2025-01-18 08:35:11.526572	223.9	22.6	-94.7	0.0
2025-01-18 08:35:13.769884	223.7	22.3	-95.0	0.0
2025-01-18 08:35:16.014523	223.5	22.0	-94.8	0.0
2025-01-18 08:35:18.257635	223.3	21.7	-94.8	0.0
2025-01-18 08:35:20.500177	223.2	21.4	-95.0	0.0
2025-01-18 08:35:22.741455	223.0	21.2	-94.8	0.0
2025-01-18 08:35:24.982292	222.8	20.9	-95.0	0.0
2025-01-18 08:35:27.220745	222.7	20.6	-94.9	0.0
2025-01-18 08:35:29.461862	222.5	20.3	-95.0	0.0
2025-01-18 08:35:31.703564	222.3	20.0	-95.1	0.0
2025-01-18 08:35:33.945674	222.2	19.7	-95.0	0.0
2025-01-18 08:35:36.187102	222.0	19.5	-95.0	0.0
2025-01-18 08:35:38.428463	221.9	19.2	-95.0	0.0
2025-01-18 08:35:40.671558	221.7	18.9	-94.7	0.0
2025-01-18 08:35:42.914714	221.6	18.7	-94.9	0.0
2025-01-18 08:35:45.156500	221.4	18.4	-95.0	0.0
2025-01-18 08:35:47.399824	221.3	18.1	-95.0	0.0
2025-01-18 08:35:49.642753	221.2	17.9	-94.6	0.0
2025-01-18 08:35:51.885649	221.0	17.6	-95.0	0.0
2025-01-18 08:35:54.127413	220.9	17.4	-94.8	0.0
2025-01-18 08:35:56.369893	220.8	17.1	-94.7	0.0
2025-01-18 08:35:58.615491	220.6	16.9	-94.9	0.0
2025-01-18 08:36:00.857396	220.5	16.6	-94.8	0.0
2025-01-18 08:36:03.099127	220.4	16.4	-94.9	0.0
2025-01-18 08:36:05.340330	220.3	16.1	-94.9	0.0
2025-01-18 08:36:07.582524	220.2	15.9	-95.0	0.0
2025-01-18 08:36:09.822459	220.0	15.7	-95.0	0.0
2025-01-18 08:36:12.064175	219.9	15.4	-94.9	0.0
2025-01-18 08:36:14.302877	219.8	15.2	-95.0	0.0
2025-01-18 08:36:16.543027	219.7	15.0	-94.9	0.0
2025-01-18 08:36:18.781514	219.6	14.7	-95.1	0.0
2025-01-18 08:36:21.021977	219.5	14.5	-95.1	0.0
2025-01-18 08:36:23.263169	219.4	14.3	-95.1	0.0
2025-01-18 08:36:25.505067	219.3	14.1	-95.0	0.0
2025-01-18 08:36:27.748648	219.2	13.8	-94.9	0.0
2025-01-18 08:36:29.991011	219.1	13.6	-95.0	0.0
2025-01-18 08:36:32.235621	219.0	13.4	-94.7	0.0
2025-01-18 08:36:34.477885	218.9	13.2	-94.8	0.0
2025-01-18 08:36:36.719499	218.8	13.0	-94.9	0.0
2025-01-18 08:36:38.960228	218.7	12.8	-95.0	0.0
2025-01-18 08:36:41.203056	218.6	12.6	-94.7	0.0
2025-01-18 08:36:43.444012	218.5	12.3	-95.0	0.0
2025-01-18 08:36:45.686842	218.4	12.1	-94.9	0.0
2025-01-18 08:36:47.932242	218.3	11.9	-94.8	0.0
2025-01-18 08:36:50.172512	218.2	11.7	-94.9	0.0
2025-01-18 08:36:52.411721	218.1	11.5	-95.0	0.0
2025-01-18 08:36:54.655967	218.0	11.3	-94.7	0.0
2025-01-18 08:36:56.897096	217.9	11.1	-95.0	0.0
2025-01-18 08:36:59.137293	217.9	10.9	-94.7	0.0
2025-01-18 08:37:01.381096	217.8	10.7	-95.1	0.0
2025-01-18 08:37:03.623788	217.7	10.5	-95.0	0.0
2025-01-18 08:37:05.864518	217.6	10.3	-94.9	0.0
2025-01-18 08:37:08.107091	217.5	10.2	-94.7	0.0
2025-01-18 08:37:10.350542	217.5	10.0	-95.1	0.0
#Closed at: 2025-01-18 08:26:19.692657