passes_logs/2025/01/18/planumMaritime01/planumMaritime01__20250118_071230_METOP-B_rec.log

#Pass ID: 20250118_071230_METOP-B
#Satellite: METOP-B
#Configuration: METOP-B
#Start time: 2025-01-18 07:12:35.339086

#LorettStation: 1.0.0 05.05.2024
#Station: planumMaritime01
#Location: 37.49445 lon 55.92918 lat
#TLE: 1 38771U 12049A   25017.15368062  .00000245  00000+0  13171-3 0  9994
#TLE: 2 38771  98.6007  75.2563 0001735  79.5844 280.5529 14.21411545639949

#Time	Az	El	Level	SNR
2025-01-18 07:12:37.500726	19.6	10.2	-94.2	0.0
2025-01-18 07:12:39.742877	19.7	10.4	-94.4	0.0
2025-01-18 07:12:41.985063	19.7	10.6	-94.5	0.0
2025-01-18 07:12:44.227496	19.8	10.8	-94.6	0.0
2025-01-18 07:12:46.470131	19.9	11.0	-94.5	0.0
2025-01-18 07:12:48.711649	19.9	11.2	-94.6	0.0
2025-01-18 07:12:50.953475	20.0	11.4	-94.8	0.0
2025-01-18 07:12:53.192243	20.0	11.6	-94.8	0.0
2025-01-18 07:12:55.438340	20.1	11.8	-94.8	0.0
2025-01-18 07:12:57.680813	20.2	12.0	-94.4	0.0
2025-01-18 07:12:59.924227	20.2	12.2	-94.4	0.0
2025-01-18 07:13:02.167043	20.3	12.4	-94.7	0.0
2025-01-18 07:13:04.410610	20.4	12.6	-94.5	0.0
2025-01-18 07:13:06.653401	20.4	12.8	-94.5	0.0
2025-01-18 07:13:08.897419	20.5	13.1	-94.5	0.0
2025-01-18 07:13:11.140300	20.6	13.3	-94.8	0.0
2025-01-18 07:13:13.382196	20.6	13.5	-94.8	0.0
2025-01-18 07:13:15.625656	20.7	13.7	-94.6	0.0
2025-01-18 07:13:17.868599	20.8	14.0	-94.7	0.0
2025-01-18 07:13:20.111307	20.9	14.2	-94.7	0.0
2025-01-18 07:13:22.353632	20.9	14.4	-94.6	0.0
2025-01-18 07:13:24.597216	21.0	14.6	-94.5	0.0
2025-01-18 07:13:26.840299	21.1	14.9	-94.5	0.0
2025-01-18 07:13:29.082300	21.2	15.1	-94.7	0.0
2025-01-18 07:13:31.322940	21.3	15.3	-94.5	0.0
2025-01-18 07:13:33.563882	21.3	15.6	-94.7	0.0
2025-01-18 07:13:35.807890	21.4	15.8	-94.6	0.0
2025-01-18 07:13:38.049340	21.5	16.1	-94.7	0.0
2025-01-18 07:13:40.291056	21.6	16.3	-94.7	0.0
2025-01-18 07:13:42.534443	21.7	16.6	-94.7	0.0
2025-01-18 07:13:44.776159	21.8	16.8	-95.0	0.0
2025-01-18 07:13:47.019169	21.8	17.1	-95.1	0.0
2025-01-18 07:13:49.262435	21.9	17.3	-95.0	0.0
2025-01-18 07:13:51.504497	22.0	17.6	-94.9	0.0
2025-01-18 07:13:53.747998	22.1	17.9	-94.7	0.0
2025-01-18 07:13:55.990994	22.2	18.1	-94.6	0.0
2025-01-18 07:13:58.233472	22.3	18.4	-94.8	0.0
2025-01-18 07:14:00.475300	22.4	18.7	-94.9	0.0
2025-01-18 07:14:02.718586	22.5	19.0	-94.6	0.0
2025-01-18 07:14:04.961217	22.6	19.2	-94.3	0.0
2025-01-18 07:14:07.204432	22.7	19.5	-94.7	0.0
2025-01-18 07:14:09.450377	22.8	19.8	-94.8	0.0
2025-01-18 07:14:11.692149	22.9	20.1	-94.7	0.0
2025-01-18 07:14:13.931529	23.0	20.4	-94.7	0.0
2025-01-18 07:14:16.175076	23.1	20.7	-94.7	0.0
2025-01-18 07:14:18.415393	23.2	21.0	-94.7	0.0
2025-01-18 07:14:20.659078	23.3	21.3	-94.7	0.0
2025-01-18 07:14:22.901461	23.5	21.6	-94.7	0.0
2025-01-18 07:14:25.141850	23.6	21.9	-94.7	0.0
2025-01-18 07:14:27.385666	23.7	22.2	-94.8	0.0
2025-01-18 07:14:29.625742	23.8	22.5	-94.8	0.0
2025-01-18 07:14:31.870851	23.9	22.8	-94.6	0.0
2025-01-18 07:14:34.112259	24.1	23.2	-94.6	0.0
2025-01-18 07:14:36.355921	24.2	23.5	-94.3	0.0
2025-01-18 07:14:38.602507	24.3	23.8	-94.6	0.0
2025-01-18 07:14:40.846115	24.4	24.2	-94.4	0.0
2025-01-18 07:14:43.089590	24.6	24.5	-94.8	0.0
2025-01-18 07:14:45.330115	24.7	24.8	-94.7	0.0
2025-01-18 07:14:47.571289	24.9	25.2	-94.7	0.0
2025-01-18 07:14:49.814767	25.0	25.5	-94.7	0.0
2025-01-18 07:14:52.057011	25.2	25.9	-94.7	0.0
2025-01-18 07:14:54.300050	25.3	26.3	-94.5	0.0
2025-01-18 07:14:56.543038	25.5	26.6	-94.8	0.0
2025-01-18 07:14:58.785644	25.6	27.0	-94.7	0.0
2025-01-18 07:15:01.027774	25.8	27.4	-94.8	0.0
2025-01-18 07:15:03.269491	25.9	27.8	-94.6	0.0
2025-01-18 07:15:05.513900	26.1	28.2	-94.8	0.0
2025-01-18 07:15:07.755857	26.3	28.5	-94.6	0.0
2025-01-18 07:15:09.996001	26.5	28.9	-94.9	0.0
2025-01-18 07:15:12.236472	26.6	29.4	-94.8	0.0
2025-01-18 07:15:14.477309	26.8	29.8	-94.7	0.0
2025-01-18 07:15:16.717199	27.0	30.2	-94.8	0.0
2025-01-18 07:15:18.959057	27.2	30.6	-94.9	0.0
2025-01-18 07:15:21.201801	27.4	31.0	-94.8	0.0
2025-01-18 07:15:23.445459	27.6	31.5	-94.7	0.0
2025-01-18 07:15:25.688867	27.8	31.9	-94.8	0.0
2025-01-18 07:15:27.930621	28.0	32.3	-94.8	0.0
2025-01-18 07:15:30.173150	28.3	32.8	-94.9	0.0
2025-01-18 07:15:32.411683	28.5	33.3	-94.7	0.0
2025-01-18 07:15:34.655372	28.7	33.7	-95.0	0.0
2025-01-18 07:15:36.899510	29.0	34.2	-94.6	0.0
2025-01-18 07:15:39.140297	29.2	34.7	-94.7	0.0
2025-01-18 07:15:41.381168	29.5	35.2	-94.7	0.0
2025-01-18 07:15:43.623143	29.7	35.7	-94.7	0.0
2025-01-18 07:15:45.867086	30.0	36.2	-94.7	0.0
2025-01-18 07:15:48.111903	30.3	36.7	-94.6	0.0
2025-01-18 07:15:50.352783	30.6	37.2	-94.6	0.0
2025-01-18 07:15:52.595761	30.9	37.7	-94.5	0.0
2025-01-18 07:15:54.838377	31.2	38.2	-94.5	0.0
2025-01-18 07:15:57.083089	31.5	38.8	-94.8	0.0
2025-01-18 07:15:59.322449	31.8	39.3	-94.7	0.0
2025-01-18 07:16:01.566152	32.1	39.9	-94.8	0.0
2025-01-18 07:16:03.807331	32.5	40.4	-94.4	0.0
2025-01-18 07:16:06.050117	32.8	41.0	-94.8	0.0
2025-01-18 07:16:08.293170	33.2	41.6	-94.8	0.0
2025-01-18 07:16:10.536577	33.6	42.2	-94.8	0.0
2025-01-18 07:16:12.776215	34.0	42.8	-94.8	0.0
2025-01-18 07:16:15.019148	34.4	43.4	-94.9	0.0
2025-01-18 07:16:17.262152	34.8	44.0	-94.6	0.0
2025-01-18 07:16:19.501222	35.3	44.6	-94.9	0.0
2025-01-18 07:16:21.743137	35.8	45.2	-94.6	0.0
2025-01-18 07:16:23.985023	36.2	45.8	-94.9	0.0
2025-01-18 07:16:26.225249	36.7	46.5	-94.9	0.0
2025-01-18 07:16:28.466877	37.3	47.1	-94.7	0.0
2025-01-18 07:16:30.708916	37.8	47.8	-94.7	0.0
2025-01-18 07:16:32.952271	38.4	48.5	-94.7	0.0
2025-01-18 07:16:35.196293	39.0	49.1	-94.7	0.0
2025-01-18 07:16:37.438555	39.6	49.8	-94.3	0.0
2025-01-18 07:16:39.680108	40.2	50.5	-94.9	0.0
2025-01-18 07:16:41.923757	40.9	51.2	-94.3	0.0
2025-01-18 07:16:44.165474	41.6	51.9	-94.5	0.0
2025-01-18 07:16:46.408884	42.4	52.6	-94.7	0.0
2025-01-18 07:16:48.653673	43.1	53.3	-94.9	0.0
2025-01-18 07:16:50.895480	43.9	54.0	-94.9	0.0
2025-01-18 07:16:53.133189	44.8	54.7	-94.9	0.0
2025-01-18 07:16:55.374325	45.7	55.4	-94.6	0.0
2025-01-18 07:16:57.616170	46.7	56.2	-95.0	0.0
2025-01-18 07:16:59.858667	47.6	56.9	-94.9	0.0
2025-01-18 07:17:02.099100	48.7	57.6	-95.0	0.0
2025-01-18 07:17:04.341949	49.8	58.3	-95.0	0.0
2025-01-18 07:17:06.584893	51.0	59.0	-94.9	0.0
2025-01-18 07:17:08.826712	52.2	59.8	-95.0	0.0
2025-01-18 07:17:11.070165	53.5	60.5	-94.9	0.0
2025-01-18 07:17:13.315313	54.9	61.2	-95.0	0.0
2025-01-18 07:17:15.560713	56.4	61.9	-94.8	0.0
2025-01-18 07:17:17.803456	57.9	62.6	-94.5	0.0
2025-01-18 07:17:20.045189	59.6	63.3	-94.7	0.0
2025-01-18 07:17:22.290357	61.3	63.9	-94.8	0.0
2025-01-18 07:17:24.532290	63.1	64.6	-94.6	0.0
2025-01-18 07:17:26.779567	65.1	65.2	-94.8	0.0
2025-01-18 07:17:29.022401	67.1	65.8	-94.7	0.0
2025-01-18 07:17:31.263587	69.3	66.4	-94.9	0.0
2025-01-18 07:17:33.504981	71.6	67.0	-94.8	0.0
2025-01-18 07:17:35.747269	74.0	67.5	-94.7	0.0
2025-01-18 07:17:37.994326	76.5	68.0	-94.8	0.0
2025-01-18 07:17:40.235703	79.2	68.5	-94.7	0.0
2025-01-18 07:17:42.478840	81.9	68.9	-94.9	0.0
2025-01-18 07:17:44.719453	84.8	69.2	-95.1	0.0
2025-01-18 07:17:46.958696	87.8	69.6	-94.9	0.0
2025-01-18 07:17:49.204600	90.9	69.8	-95.0	0.0
2025-01-18 07:17:51.447142	94.0	70.0	-95.3	0.0
2025-01-18 07:17:53.690206	97.2	70.2	-94.9	0.0
2025-01-18 07:17:55.928373	100.5	70.3	-95.1	0.0
2025-01-18 07:17:58.168088	103.8	70.3	-94.8	0.0
2025-01-18 07:18:00.411198	107.0	70.3	-95.0	0.0
2025-01-18 07:18:02.650462	110.3	70.2	-95.1	0.0
2025-01-18 07:18:04.892712	113.5	70.1	-94.8	0.0
2025-01-18 07:18:07.135693	116.7	69.9	-95.0	0.0
2025-01-18 07:18:09.379384	119.8	69.6	-94.9	0.0
2025-01-18 07:18:11.619796	122.8	69.3	-94.7	0.0
2025-01-18 07:18:13.862351	125.7	68.9	-94.6	0.0
2025-01-18 07:18:16.103281	128.5	68.5	-94.7	0.0
2025-01-18 07:18:18.345381	131.1	68.1	-94.8	0.0
2025-01-18 07:18:20.586191	133.7	67.6	-94.8	0.0
2025-01-18 07:18:22.828616	136.1	67.1	-94.9	0.0
2025-01-18 07:18:25.071846	138.4	66.5	-94.8	0.0
2025-01-18 07:18:27.315336	140.6	65.9	-94.7	0.0
2025-01-18 07:18:29.557719	142.7	65.3	-94.6	0.0
2025-01-18 07:18:31.800034	144.7	64.7	-94.6	0.0
2025-01-18 07:18:34.043324	146.5	64.1	-94.9	0.0
2025-01-18 07:18:36.287797	148.3	63.4	-94.9	0.0
2025-01-18 07:18:38.527260	149.9	62.7	-94.7	0.0
2025-01-18 07:18:40.770869	151.5	62.0	-95.1	0.0
2025-01-18 07:18:43.013866	153.0	61.3	-95.0	0.0
2025-01-18 07:18:45.254734	154.4	60.6	-95.0	0.0
2025-01-18 07:18:47.497288	155.7	59.9	-94.7	0.0
2025-01-18 07:18:49.740805	156.9	59.2	-94.9	0.0
2025-01-18 07:18:51.984945	158.1	58.4	-94.4	0.0
2025-01-18 07:18:54.224685	159.3	57.7	-94.9	0.0
2025-01-18 07:18:56.469841	160.3	57.0	-94.5	0.0
2025-01-18 07:18:58.713427	161.3	56.3	-94.6	0.0
2025-01-18 07:19:00.955833	162.3	55.5	-94.2	0.0
2025-01-18 07:19:03.197288	163.2	54.8	-94.6	0.0
2025-01-18 07:19:05.438196	164.1	54.1	-94.4	0.0
2025-01-18 07:19:07.681844	164.9	53.4	-94.7	0.0
2025-01-18 07:19:09.920213	165.7	52.7	-94.4	0.0
2025-01-18 07:19:12.164770	166.4	52.0	-94.7	0.0
2025-01-18 07:19:14.407196	167.1	51.3	-94.7	0.0
2025-01-18 07:19:16.650735	167.8	50.6	-94.8	0.0
2025-01-18 07:19:18.895132	168.5	49.9	-95.0	0.0
2025-01-18 07:19:21.138478	169.1	49.2	-94.7	0.0
2025-01-18 07:19:23.379096	169.7	48.5	-94.9	0.0
2025-01-18 07:19:25.622108	170.3	47.8	-95.0	0.0
2025-01-18 07:19:27.865546	170.8	47.2	-94.8	0.0
2025-01-18 07:19:30.107308	171.3	46.5	-94.8	0.0
2025-01-18 07:19:32.348283	171.8	45.9	-94.7	0.0
2025-01-18 07:19:34.590537	172.3	45.3	-94.5	0.0
2025-01-18 07:19:36.831571	172.8	44.6	-95.0	0.0
2025-01-18 07:19:39.077174	173.2	44.0	-94.7	0.0
2025-01-18 07:19:41.318669	173.7	43.4	-94.9	0.0
2025-01-18 07:19:43.561144	174.1	42.8	-94.7	0.0
2025-01-18 07:19:45.806570	174.5	42.2	-94.8	0.0
2025-01-18 07:19:48.047576	174.9	41.6	-94.9	0.0
2025-01-18 07:19:50.287611	175.3	41.0	-94.8	0.0
2025-01-18 07:19:52.528289	175.6	40.4	-94.7	0.0
2025-01-18 07:19:54.772093	176.0	39.9	-94.7	0.0
2025-01-18 07:19:57.016261	176.3	39.3	-95.1	0.0
2025-01-18 07:19:59.256917	176.6	38.8	-94.8	0.0
2025-01-18 07:20:01.499331	176.9	38.2	-94.9	0.0
2025-01-18 07:20:03.739796	177.2	37.7	-94.7	0.0
2025-01-18 07:20:05.982186	177.5	37.2	-94.7	0.0
2025-01-18 07:20:08.221983	177.8	36.7	-94.7	0.0
2025-01-18 07:20:10.463083	178.1	36.1	-94.8	0.0
2025-01-18 07:20:12.704638	178.4	35.6	-94.9	0.0
2025-01-18 07:20:14.950453	178.6	35.1	-94.9	0.0
2025-01-18 07:20:17.193950	178.9	34.7	-94.8	0.0
2025-01-18 07:20:19.437272	179.1	34.2	-94.7	0.0
2025-01-18 07:20:21.681275	179.4	33.7	-95.0	0.0
2025-01-18 07:20:23.921693	179.6	33.2	-95.2	0.0
2025-01-18 07:20:26.164953	179.8	32.8	-94.8	0.0
2025-01-18 07:20:28.406801	180.1	32.3	-94.8	0.0
2025-01-18 07:20:30.647180	180.3	31.9	-95.0	0.0
2025-01-18 07:20:32.889969	180.5	31.4	-94.8	0.0
2025-01-18 07:20:35.135106	180.7	31.0	-95.2	0.0
2025-01-18 07:20:37.375424	180.9	30.5	-94.8	0.0
2025-01-18 07:20:39.615528	181.1	30.1	-95.0	0.0
2025-01-18 07:20:41.856859	181.3	29.7	-95.0	0.0
2025-01-18 07:20:44.099350	181.5	29.3	-94.9	0.0
2025-01-18 07:20:46.341153	181.6	28.9	-95.0	0.0
2025-01-18 07:20:48.582603	181.8	28.5	-95.0	0.0
2025-01-18 07:20:50.823415	182.0	28.1	-94.8	0.0
2025-01-18 07:20:53.062517	182.2	27.7	-95.0	0.0
2025-01-18 07:20:55.305951	182.3	27.3	-94.8	0.0
2025-01-18 07:20:57.547294	182.5	26.9	-95.0	0.0
2025-01-18 07:20:59.788724	182.6	26.6	-94.8	0.0
2025-01-18 07:21:02.033211	182.8	26.2	-94.9	0.0
2025-01-18 07:21:04.276182	182.9	25.8	-94.9	0.0
2025-01-18 07:21:06.517185	183.1	25.5	-94.9	0.0
2025-01-18 07:21:08.758847	183.2	25.1	-94.8	0.0
2025-01-18 07:21:11.005387	183.4	24.7	-94.9	0.0
2025-01-18 07:21:13.248370	183.5	24.4	-94.9	0.0
2025-01-18 07:21:15.491004	183.7	24.1	-95.1	0.0
2025-01-18 07:21:17.732179	183.8	23.7	-94.9	0.0
2025-01-18 07:21:19.977470	183.9	23.4	-95.0	0.0
2025-01-18 07:21:22.219148	184.0	23.1	-95.0	0.0
2025-01-18 07:21:24.461739	184.2	22.7	-95.0	0.0
2025-01-18 07:21:26.704652	184.3	22.4	-94.8	0.0
2025-01-18 07:21:28.946462	184.4	22.1	-95.0	0.0
2025-01-18 07:21:31.189748	184.5	21.8	-94.7	0.0
2025-01-18 07:21:33.430303	184.6	21.5	-94.6	0.0
2025-01-18 07:21:35.673312	184.8	21.2	-94.8	0.0
2025-01-18 07:21:37.914069	184.9	20.9	-94.7	0.0
2025-01-18 07:21:40.155129	185.0	20.6	-94.8	0.0
2025-01-18 07:21:42.398366	185.1	20.3	-94.8	0.0
2025-01-18 07:21:44.642630	185.2	20.0	-94.6	0.0
2025-01-18 07:21:46.884762	185.3	19.7	-94.8	0.0
2025-01-18 07:21:49.129178	185.4	19.4	-95.0	0.0
2025-01-18 07:21:51.373284	185.5	19.1	-94.8	0.0
2025-01-18 07:21:53.616335	185.6	18.8	-95.0	0.0
2025-01-18 07:21:55.857221	185.7	18.5	-94.9	0.0
2025-01-18 07:21:58.102176	185.8	18.3	-94.9	0.0
2025-01-18 07:22:00.344445	185.9	18.0	-94.8	0.0
2025-01-18 07:22:02.589538	186.0	17.7	-94.8	0.0
2025-01-18 07:22:04.830241	186.1	17.5	-94.8	0.0
2025-01-18 07:22:07.072229	186.1	17.2	-94.8	0.0
2025-01-18 07:22:09.314346	186.2	17.0	-95.0	0.0
2025-01-18 07:22:11.557499	186.3	16.7	-94.8	0.0
2025-01-18 07:22:13.801424	186.4	16.4	-95.0	0.0
2025-01-18 07:22:16.042190	186.5	16.2	-94.9	0.0
2025-01-18 07:22:18.283135	186.6	15.9	-95.0	0.0
2025-01-18 07:22:20.524292	186.6	15.7	-94.9	0.0
2025-01-18 07:22:22.766137	186.7	15.4	-94.8	0.0
2025-01-18 07:22:25.009092	186.8	15.2	-94.9	0.0
2025-01-18 07:22:27.249568	186.9	15.0	-95.0	0.0
2025-01-18 07:22:29.490805	187.0	14.7	-94.8	0.0
2025-01-18 07:22:31.737029	187.0	14.5	-94.8	0.0
2025-01-18 07:22:33.979413	187.1	14.3	-95.0	0.0
2025-01-18 07:22:36.221240	187.2	14.0	-94.8	0.0
2025-01-18 07:22:38.462019	187.3	13.8	-95.0	0.0
2025-01-18 07:22:40.704417	187.3	13.6	-94.6	0.0
2025-01-18 07:22:42.944521	187.4	13.4	-94.9	0.0
2025-01-18 07:22:45.189145	187.5	13.1	-94.7	0.0
2025-01-18 07:22:47.431276	187.5	12.9	-94.8	0.0
2025-01-18 07:22:49.676072	187.6	12.7	-94.9	0.0
2025-01-18 07:22:51.916861	187.7	12.5	-95.1	0.0
2025-01-18 07:22:54.158833	187.7	12.3	-95.1	0.0
2025-01-18 07:22:56.400976	187.8	12.1	-94.9	0.0
2025-01-18 07:22:58.643483	187.9	11.8	-95.0	0.0
2025-01-18 07:23:00.887200	187.9	11.6	-94.7	0.0
2025-01-18 07:23:03.129301	188.0	11.4	-95.0	0.0
2025-01-18 07:23:05.371019	188.0	11.2	-94.8	0.0
2025-01-18 07:23:07.615515	188.1	11.0	-94.8	0.0
2025-01-18 07:23:09.857287	188.2	10.8	-94.9	0.0
2025-01-18 07:23:12.099304	188.2	10.6	-95.0	0.0
2025-01-18 07:23:14.338874	188.3	10.4	-94.8	0.0
2025-01-18 07:23:16.584234	188.3	10.2	-94.6	0.0
2025-01-18 07:23:18.829778	188.4	10.0	-94.8	0.0
#Closed at: 2025-01-18 07:12:30.341444