passes_logs/2025/01/18/planumMaritime01/planumMaritime01__20250118_014459_METEOR-M2_4_rec.log

#Pass ID: 20250118_014459_METEOR-M2 4
#Satellite: METEOR-M2 4
#Configuration: METEOR-M2 4
#Start time: 2025-01-18 01:45:04.162779

#LorettStation: 1.0.0 05.05.2024
#Station: planumMaritime01
#Location: 37.49445 lon 55.92918 lat
#TLE: 1 59051U 24039A   25017.13836119  .00000085  00000+0  57680-4 0  9997
#TLE: 2 59051  98.6297 340.1037 0006274 217.8587 142.2151 14.22325694 45900

#Time	Az	El	Level	SNR
2025-01-18 01:45:06.319857	10.2	10.2	-94.4	0.0
2025-01-18 01:45:08.564476	10.1	10.4	-94.6	0.0
2025-01-18 01:45:10.802994	10.0	10.6	-94.6	0.0
2025-01-18 01:45:13.043576	9.9	10.8	-94.5	0.0
2025-01-18 01:45:15.285878	9.8	11.0	-94.7	0.0
2025-01-18 01:45:17.526380	9.7	11.2	-94.5	0.0
2025-01-18 01:45:19.767241	9.6	11.4	-94.4	0.0
2025-01-18 01:45:22.009458	9.5	11.6	-94.6	0.0
2025-01-18 01:45:24.252907	9.4	11.8	-94.2	0.0
2025-01-18 01:45:26.494554	9.3	12.0	-94.6	0.0
2025-01-18 01:45:28.737605	9.2	12.2	-94.5	0.0
2025-01-18 01:45:30.977953	9.1	12.4	-94.5	0.0
2025-01-18 01:45:33.221482	9.0	12.6	-94.5	0.0
2025-01-18 01:45:35.464094	8.9	12.8	-94.7	0.0
2025-01-18 01:45:37.706175	8.7	13.0	-94.7	0.0
2025-01-18 01:45:39.947984	8.6	13.2	-94.8	0.0
2025-01-18 01:45:42.186901	8.5	13.4	-94.5	0.0
2025-01-18 01:45:44.428996	8.4	13.6	-94.4	0.0
2025-01-18 01:45:46.673118	8.3	13.9	-94.7	0.0
2025-01-18 01:45:48.914442	8.2	14.1	-94.7	0.0
2025-01-18 01:45:51.156536	8.0	14.3	-94.6	0.0
2025-01-18 01:45:53.395185	7.9	14.5	-94.6	0.0
2025-01-18 01:45:55.637441	7.8	14.8	-94.8	0.0
2025-01-18 01:45:57.878765	7.6	15.0	-94.7	0.0
2025-01-18 01:46:00.124892	7.5	15.2	-95.1	0.0
2025-01-18 01:46:02.366437	7.4	15.5	-94.8	0.0
2025-01-18 01:46:04.609820	7.2	15.7	-94.8	0.0
2025-01-18 01:46:06.851519	7.1	15.9	-94.8	0.0
2025-01-18 01:46:09.092851	7.0	16.2	-94.5	0.0
2025-01-18 01:46:11.337858	6.8	16.4	-94.7	0.0
2025-01-18 01:46:13.580251	6.7	16.6	-94.7	0.0
2025-01-18 01:46:15.822743	6.5	16.9	-94.5	0.0
2025-01-18 01:46:18.065291	6.4	17.1	-94.8	0.0
2025-01-18 01:46:20.305414	6.2	17.4	-94.8	0.0
2025-01-18 01:46:22.547218	6.1	17.6	-94.6	0.0
2025-01-18 01:46:24.787962	5.9	17.9	-94.7	0.0
2025-01-18 01:46:27.029134	5.7	18.2	-94.5	0.0
2025-01-18 01:46:29.268451	5.6	18.4	-94.5	0.0
2025-01-18 01:46:31.511217	5.4	18.7	-94.7	0.0
2025-01-18 01:46:33.754780	5.2	18.9	-94.8	0.0
2025-01-18 01:46:35.996453	5.0	19.2	-94.5	0.0
2025-01-18 01:46:38.237599	4.9	19.5	-94.8	0.0
2025-01-18 01:46:40.477877	4.7	19.8	-94.6	0.0
2025-01-18 01:46:42.719090	4.5	20.0	-95.0	0.0
2025-01-18 01:46:44.962792	4.3	20.3	-94.9	0.0
2025-01-18 01:46:47.205481	4.1	20.6	-94.6	0.0
2025-01-18 01:46:49.448036	3.9	20.9	-94.7	0.0
2025-01-18 01:46:51.690598	3.7	21.2	-94.6	0.0
2025-01-18 01:46:53.929789	3.5	21.4	-94.9	0.0
2025-01-18 01:46:56.169224	3.3	21.7	-94.8	0.0
2025-01-18 01:46:58.410862	3.1	22.0	-94.9	0.0
2025-01-18 01:47:00.652632	2.9	22.3	-95.0	0.0
2025-01-18 01:47:02.896314	2.7	22.6	-94.5	0.0
2025-01-18 01:47:05.138320	2.4	22.9	-94.9	0.0
2025-01-18 01:47:07.379185	2.2	23.3	-94.8	0.0
2025-01-18 01:47:09.617957	2.0	23.6	-95.1	0.0
2025-01-18 01:47:11.860672	1.7	23.9	-94.6	0.0
2025-01-18 01:47:14.102666	1.5	24.2	-94.8	0.0
2025-01-18 01:47:16.343071	1.2	24.5	-94.7	0.0
2025-01-18 01:47:18.584753	1.0	24.8	-95.0	0.0
2025-01-18 01:47:20.828801	0.7	25.2	-94.7	0.0
2025-01-18 01:47:23.069907	0.4	25.5	-94.7	0.0
2025-01-18 01:47:25.309910	0.2	25.8	-94.4	0.0
2025-01-18 01:47:27.549290	359.9	26.2	-94.9	0.0
2025-01-18 01:47:29.792540	359.6	26.5	-94.5	0.0
2025-01-18 01:47:32.035012	359.3	26.9	-94.6	0.0
2025-01-18 01:47:34.274355	359.0	27.2	-94.6	0.0
2025-01-18 01:47:36.513594	358.7	27.6	-94.8	0.0
2025-01-18 01:47:38.757421	358.4	27.9	-94.9	0.0
2025-01-18 01:47:40.998335	358.1	28.3	-94.6	0.0
2025-01-18 01:47:43.238509	357.8	28.7	-94.9	0.0
2025-01-18 01:47:45.479484	357.4	29.0	-94.8	0.0
2025-01-18 01:47:47.721504	357.1	29.4	-94.6	0.0
2025-01-18 01:47:49.964316	356.7	29.8	-94.9	0.0
2025-01-18 01:47:52.207197	356.4	30.2	-94.6	0.0
2025-01-18 01:47:54.450378	356.0	30.5	-94.6	0.0
2025-01-18 01:47:56.692209	355.6	30.9	-94.9	0.0
2025-01-18 01:47:58.932440	355.2	31.3	-94.6	0.0
2025-01-18 01:48:01.173446	354.8	31.7	-94.4	0.0
2025-01-18 01:48:03.416073	354.4	32.1	-94.6	0.0
2025-01-18 01:48:05.657107	354.0	32.5	-94.6	0.0
2025-01-18 01:48:07.896016	353.6	32.9	-94.7	0.0
2025-01-18 01:48:10.137462	353.2	33.3	-94.5	0.0
2025-01-18 01:48:12.379283	352.7	33.7	-94.6	0.0
2025-01-18 01:48:14.622762	352.2	34.2	-94.7	0.0
2025-01-18 01:48:16.865285	351.8	34.6	-94.6	0.0
2025-01-18 01:48:19.105264	351.3	35.0	-94.9	0.0
2025-01-18 01:48:21.346109	350.8	35.4	-94.7	0.0
2025-01-18 01:48:23.585551	350.3	35.9	-94.8	0.0
2025-01-18 01:48:25.826862	349.7	36.3	-94.9	0.0
2025-01-18 01:48:28.064860	349.2	36.7	-94.7	0.0
2025-01-18 01:48:30.306628	348.6	37.2	-94.9	0.0
2025-01-18 01:48:32.546602	348.1	37.6	-94.9	0.0
2025-01-18 01:48:34.785864	347.5	38.1	-94.6	0.0
2025-01-18 01:48:37.027869	346.9	38.5	-95.0	0.0
2025-01-18 01:48:39.266336	346.3	38.9	-94.9	0.0
2025-01-18 01:48:41.506794	345.6	39.4	-94.8	0.0
2025-01-18 01:48:43.750485	345.0	39.9	-94.9	0.0
2025-01-18 01:48:45.993316	344.3	40.3	-94.8	0.0
2025-01-18 01:48:48.231649	343.6	40.8	-95.1	0.0
2025-01-18 01:48:50.473574	342.9	41.2	-95.0	0.0
2025-01-18 01:48:52.715517	342.1	41.7	-94.9	0.0
2025-01-18 01:48:54.957215	341.4	42.1	-94.9	0.0
2025-01-18 01:48:57.197600	340.6	42.6	-94.8	0.0
2025-01-18 01:48:59.439881	339.8	43.1	-94.8	0.0
2025-01-18 01:49:01.681103	339.0	43.5	-94.7	0.0
2025-01-18 01:49:03.924622	338.1	44.0	-94.4	0.0
2025-01-18 01:49:06.163961	337.2	44.4	-94.7	0.0
2025-01-18 01:49:08.406486	336.3	44.9	-94.4	0.0
2025-01-18 01:49:10.647504	335.4	45.3	-94.7	0.0
2025-01-18 01:49:12.889337	334.4	45.8	-94.7	0.0
2025-01-18 01:49:15.133100	333.5	46.2	-94.5	0.0
2025-01-18 01:49:17.376337	332.4	46.6	-94.7	0.0
2025-01-18 01:49:19.615684	331.4	47.1	-94.6	0.0
2025-01-18 01:49:21.854975	330.3	47.5	-94.5	0.0
2025-01-18 01:49:24.097178	329.2	47.9	-94.7	0.0
2025-01-18 01:49:26.336900	328.1	48.3	-94.7	0.0
2025-01-18 01:49:28.576635	327.0	48.7	-94.7	0.0
2025-01-18 01:49:30.819466	325.8	49.1	-94.8	0.0
2025-01-18 01:49:33.060932	324.6	49.5	-95.0	0.0
2025-01-18 01:49:35.302761	323.3	49.8	-94.7	0.0
2025-01-18 01:49:37.542788	322.0	50.2	-94.7	0.0
2025-01-18 01:49:39.781852	320.7	50.5	-94.9	0.0
2025-01-18 01:49:42.021331	319.4	50.9	-94.9	0.0
2025-01-18 01:49:44.264451	318.0	51.2	-95.1	0.0
2025-01-18 01:49:46.505216	316.6	51.5	-94.6	0.0
2025-01-18 01:49:48.747467	315.2	51.8	-94.8	0.0
2025-01-18 01:49:50.992364	313.7	52.0	-94.9	0.0
2025-01-18 01:49:53.233370	312.3	52.3	-94.6	0.0
2025-01-18 01:49:55.475855	310.8	52.5	-94.8	0.0
2025-01-18 01:49:57.717391	309.2	52.7	-94.9	0.0
2025-01-18 01:49:59.958615	307.7	52.9	-94.8	0.0
2025-01-18 01:50:02.195359	306.1	53.1	-94.8	0.0
2025-01-18 01:50:04.438503	304.6	53.2	-94.7	0.0
2025-01-18 01:50:06.680802	303.0	53.4	-94.9	0.0
2025-01-18 01:50:08.923313	301.3	53.5	-94.7	0.0
2025-01-18 01:50:11.166278	299.7	53.5	-94.9	0.0
2025-01-18 01:50:13.407405	298.1	53.6	-95.1	0.0
2025-01-18 01:50:15.646877	296.5	53.6	-94.9	0.0
2025-01-18 01:50:17.886338	294.8	53.6	-94.9	0.0
2025-01-18 01:50:20.131486	293.2	53.6	-94.9	0.0
2025-01-18 01:50:22.372357	291.6	53.6	-94.6	0.0
2025-01-18 01:50:24.613711	289.9	53.5	-95.0	0.0
2025-01-18 01:50:26.860414	288.3	53.4	-94.9	0.0
2025-01-18 01:50:29.100341	286.7	53.3	-94.7	0.0
2025-01-18 01:50:31.342283	285.1	53.2	-94.9	0.0
2025-01-18 01:50:33.581489	283.5	53.0	-94.6	0.0
2025-01-18 01:50:35.824289	282.0	52.9	-94.9	0.0
2025-01-18 01:50:38.065103	280.4	52.7	-95.0	0.0
2025-01-18 01:50:40.307300	278.9	52.5	-94.8	0.0
2025-01-18 01:50:42.546400	277.4	52.2	-95.0	0.0
2025-01-18 01:50:44.790809	275.9	52.0	-94.6	0.0
2025-01-18 01:50:47.034883	274.5	51.7	-95.0	0.0
2025-01-18 01:50:49.276869	273.1	51.4	-94.9	0.0
2025-01-18 01:50:51.518927	271.7	51.1	-94.8	0.0
2025-01-18 01:50:53.759530	270.3	50.8	-94.8	0.0
2025-01-18 01:50:56.002367	269.0	50.4	-94.8	0.0
2025-01-18 01:50:58.245251	267.7	50.1	-94.7	0.0
2025-01-18 01:51:00.487343	266.4	49.7	-94.7	0.0
2025-01-18 01:51:02.728399	265.2	49.4	-94.8	0.0
2025-01-18 01:51:04.970007	264.0	49.0	-94.7	0.0
2025-01-18 01:51:07.218060	262.8	48.6	-94.8	0.0
2025-01-18 01:51:09.460421	261.6	48.2	-94.9	0.0
2025-01-18 01:51:11.704356	260.5	47.8	-95.2	0.0
2025-01-18 01:51:13.946490	259.4	47.3	-94.9	0.0
2025-01-18 01:51:16.189716	258.3	46.9	-95.1	0.0
2025-01-18 01:51:18.429473	257.3	46.5	-95.1	0.0
2025-01-18 01:51:20.671468	256.3	46.0	-94.7	0.0
2025-01-18 01:51:22.913801	255.3	45.6	-94.9	0.0
2025-01-18 01:51:25.156344	254.4	45.2	-94.9	0.0
2025-01-18 01:51:27.403924	253.4	44.7	-94.5	0.0
2025-01-18 01:51:29.645454	252.5	44.3	-94.5	0.0
2025-01-18 01:51:31.884941	251.7	43.8	-94.8	0.0
2025-01-18 01:51:34.127396	250.8	43.3	-94.7	0.0
2025-01-18 01:51:36.369796	250.0	42.9	-94.8	0.0
2025-01-18 01:51:38.611337	249.2	42.4	-94.3	0.0
2025-01-18 01:51:40.851146	248.4	42.0	-94.6	0.0
2025-01-18 01:51:43.093441	247.7	41.5	-94.9	0.0
2025-01-18 01:51:45.335629	246.9	41.0	-94.8	0.0
2025-01-18 01:51:47.578061	246.2	40.6	-94.8	0.0
2025-01-18 01:51:49.819013	245.5	40.1	-94.9	0.0
2025-01-18 01:51:52.058567	244.8	39.7	-95.0	0.0
2025-01-18 01:51:54.298121	244.2	39.2	-94.7	0.0
2025-01-18 01:51:56.539426	243.5	38.8	-94.9	0.0
2025-01-18 01:51:58.781433	242.9	38.3	-94.7	0.0
2025-01-18 01:52:01.022298	242.3	37.9	-94.8	0.0
2025-01-18 01:52:03.264113	241.7	37.4	-94.7	0.0
2025-01-18 01:52:05.507472	241.2	37.0	-95.0	0.0
2025-01-18 01:52:07.748156	240.6	36.5	-94.7	0.0
2025-01-18 01:52:09.988515	240.1	36.1	-95.2	0.0
2025-01-18 01:52:12.230298	239.5	35.6	-94.7	0.0
2025-01-18 01:52:14.474035	239.0	35.2	-95.0	0.0
2025-01-18 01:52:16.713929	238.5	34.8	-95.2	0.0
2025-01-18 01:52:18.957264	238.0	34.4	-94.8	0.0
2025-01-18 01:52:21.199649	237.6	33.9	-95.1	0.0
2025-01-18 01:52:23.442174	237.1	33.5	-95.1	0.0
2025-01-18 01:52:25.681230	236.7	33.1	-95.0	0.0
2025-01-18 01:52:27.923073	236.2	32.7	-95.1	0.0
2025-01-18 01:52:30.163994	235.8	32.3	-94.9	0.0
2025-01-18 01:52:32.406073	235.4	31.9	-95.1	0.0
2025-01-18 01:52:34.646812	235.0	31.5	-95.1	0.0
2025-01-18 01:52:36.889377	234.6	31.1	-94.9	0.0
2025-01-18 01:52:39.130997	234.2	30.7	-95.0	0.0
2025-01-18 01:52:41.371980	233.8	30.3	-94.8	0.0
2025-01-18 01:52:43.612672	233.5	29.9	-95.0	0.0
2025-01-18 01:52:45.856563	233.1	29.5	-95.0	0.0
2025-01-18 01:52:48.097942	232.7	29.2	-94.8	0.0
2025-01-18 01:52:50.339859	232.4	28.8	-95.0	0.0
2025-01-18 01:52:52.582145	232.1	28.4	-94.7	0.0
2025-01-18 01:52:54.826263	231.7	28.1	-94.8	0.0
2025-01-18 01:52:57.068377	231.4	27.7	-94.7	0.0
2025-01-18 01:52:59.308396	231.1	27.3	-94.8	0.0
2025-01-18 01:53:01.547766	230.8	27.0	-95.0	0.0
2025-01-18 01:53:03.787675	230.5	26.6	-94.9	0.0
2025-01-18 01:53:06.030292	230.2	26.3	-94.8	0.0
2025-01-18 01:53:08.270350	229.9	25.9	-94.9	0.0
2025-01-18 01:53:10.511313	229.7	25.6	-94.9	0.0
2025-01-18 01:53:12.752993	229.4	25.3	-95.0	0.0
2025-01-18 01:53:14.992944	229.1	24.9	-94.9	0.0
2025-01-18 01:53:17.234693	228.9	24.6	-94.9	0.0
2025-01-18 01:53:19.477399	228.6	24.3	-94.8	0.0
2025-01-18 01:53:21.723498	228.3	24.0	-94.9	0.0
2025-01-18 01:53:23.965630	228.1	23.6	-95.1	0.0
2025-01-18 01:53:26.207447	227.9	23.3	-94.9	0.0
2025-01-18 01:53:28.451470	227.6	23.0	-95.2	0.0
2025-01-18 01:53:30.690889	227.4	22.7	-94.9	0.0
2025-01-18 01:53:32.932839	227.2	22.4	-94.9	0.0
2025-01-18 01:53:35.172727	226.9	22.1	-95.1	0.0
2025-01-18 01:53:37.414447	226.7	21.8	-94.9	0.0
2025-01-18 01:53:39.654645	226.5	21.5	-95.0	0.0
2025-01-18 01:53:41.897034	226.3	21.2	-95.1	0.0
2025-01-18 01:53:44.136275	226.1	20.9	-94.9	0.0
2025-01-18 01:53:46.380607	225.9	20.6	-95.0	0.0
2025-01-18 01:53:48.622519	225.7	20.3	-94.9	0.0
2025-01-18 01:53:50.864708	225.5	20.1	-95.1	0.0
2025-01-18 01:53:53.107649	225.3	19.8	-95.0	0.0
2025-01-18 01:53:55.348690	225.1	19.5	-95.0	0.0
2025-01-18 01:53:57.590737	224.9	19.2	-94.9	0.0
2025-01-18 01:53:59.831528	224.8	19.0	-94.9	0.0
2025-01-18 01:54:02.070376	224.6	18.7	-95.1	0.0
2025-01-18 01:54:04.312778	224.4	18.4	-94.9	0.0
2025-01-18 01:54:06.550776	224.2	18.2	-94.8	0.0
2025-01-18 01:54:08.792506	224.1	17.9	-94.9	0.0
2025-01-18 01:54:11.034354	223.9	17.6	-95.1	0.0
2025-01-18 01:54:13.274895	223.8	17.4	-94.8	0.0
2025-01-18 01:54:15.517360	223.6	17.1	-94.7	0.0
2025-01-18 01:54:17.761100	223.4	16.9	-95.0	0.0
2025-01-18 01:54:20.003735	223.3	16.6	-94.9	0.0
2025-01-18 01:54:22.245212	223.1	16.4	-95.0	0.0
2025-01-18 01:54:24.488555	223.0	16.1	-94.9	0.0
2025-01-18 01:54:26.729599	222.8	15.9	-94.8	0.0
2025-01-18 01:54:28.973346	222.7	15.7	-94.9	0.0
2025-01-18 01:54:31.214696	222.6	15.4	-94.9	0.0
2025-01-18 01:54:33.455970	222.4	15.2	-94.9	0.0
2025-01-18 01:54:35.696020	222.3	15.0	-94.9	0.0
2025-01-18 01:54:37.940046	222.2	14.7	-95.0	0.0
2025-01-18 01:54:40.181423	222.0	14.5	-94.8	0.0
2025-01-18 01:54:42.423290	221.9	14.3	-94.9	0.0
2025-01-18 01:54:44.664869	221.8	14.0	-95.0	0.0
2025-01-18 01:54:46.909116	221.6	13.8	-94.8	0.0
2025-01-18 01:54:49.147975	221.5	13.6	-94.9	0.0
2025-01-18 01:54:51.388495	221.4	13.4	-94.9	0.0
2025-01-18 01:54:53.630833	221.3	13.2	-94.9	0.0
2025-01-18 01:54:55.872497	221.2	12.9	-94.5	0.0
2025-01-18 01:54:58.116408	221.0	12.7	-94.6	0.0
2025-01-18 01:55:00.360433	220.9	12.5	-94.9	0.0
2025-01-18 01:55:02.602900	220.8	12.3	-94.8	0.0
2025-01-18 01:55:04.846335	220.7	12.1	-94.8	0.0
2025-01-18 01:55:07.090905	220.6	11.9	-94.8	0.0
2025-01-18 01:55:09.332843	220.5	11.7	-94.9	0.0
2025-01-18 01:55:11.573399	220.4	11.5	-94.8	0.0
2025-01-18 01:55:13.816201	220.3	11.3	-94.7	0.0
2025-01-18 01:55:16.053514	220.2	11.1	-94.8	0.0
2025-01-18 01:55:18.296358	220.1	10.9	-94.9	0.0
2025-01-18 01:55:20.541114	220.0	10.7	-94.7	0.0
2025-01-18 01:55:22.786098	219.9	10.5	-94.9	0.0
2025-01-18 01:55:25.029968	219.8	10.3	-94.8	0.0
2025-01-18 01:55:27.270750	219.7	10.1	-94.9	0.0
#Closed at: 2025-01-18 01:44:59.164747