passes_logs/2025/01/18/planumMaritime01/planumMaritime01__20250118_181933_NOAA_19_rec.log

#Pass ID: 20250118_181933_NOAA 19
#Satellite: NOAA 19
#Configuration: NOAA 19
#Start time: 2025-01-18 18:19:38.236328

#LorettStation: 1.0.0 05.05.2024
#Station: planumMaritime01
#Location: 37.49445 lon 55.92918 lat
#TLE: 1 33591U 09005A   25018.04840605  .00000325  00000+0  19728-3 0  9997
#TLE: 2 33591  99.0190  81.8343 0014373  49.4310 310.8111 14.13261983821977

#Time	Az	El	Level	SNR
2025-01-18 18:19:40.388319	168.0	10.2	-94.4	0.0
2025-01-18 18:19:42.629114	168.0	10.4	-94.5	0.0
2025-01-18 18:19:44.872948	168.1	10.6	-94.7	0.0
2025-01-18 18:19:47.120263	168.1	10.8	-94.4	0.0
2025-01-18 18:19:49.361502	168.1	11.0	-94.5	0.0
2025-01-18 18:19:51.606139	168.2	11.2	-94.6	0.0
2025-01-18 18:19:53.852440	168.2	11.4	-94.6	0.0
2025-01-18 18:19:56.093249	168.3	11.6	-94.7	0.0
2025-01-18 18:19:58.334938	168.3	11.8	-94.9	0.0
2025-01-18 18:20:00.580197	168.4	12.0	-94.7	0.0
2025-01-18 18:20:02.821317	168.4	12.2	-94.6	0.0
2025-01-18 18:20:05.066095	168.5	12.4	-94.5	0.0
2025-01-18 18:20:07.308422	168.5	12.7	-94.4	0.0
2025-01-18 18:20:09.552184	168.6	12.9	-94.7	0.0
2025-01-18 18:20:11.796361	168.6	13.1	-94.5	0.0
2025-01-18 18:20:14.038128	168.7	13.3	-94.7	0.0
2025-01-18 18:20:16.281872	168.7	13.5	-94.3	0.0
2025-01-18 18:20:18.525968	168.8	13.8	-94.6	0.0
2025-01-18 18:20:20.768654	168.8	14.0	-94.8	0.0
2025-01-18 18:20:23.011373	168.9	14.2	-94.5	0.0
2025-01-18 18:20:25.253856	168.9	14.4	-94.5	0.0
2025-01-18 18:20:27.494303	169.0	14.7	-94.8	0.0
2025-01-18 18:20:29.736969	169.0	14.9	-94.7	0.0
2025-01-18 18:20:31.980474	169.1	15.2	-94.5	0.0
2025-01-18 18:20:34.220962	169.2	15.4	-94.7	0.0
2025-01-18 18:20:36.461623	169.2	15.6	-94.8	0.0
2025-01-18 18:20:38.706595	169.3	15.9	-94.6	0.0
2025-01-18 18:20:40.948298	169.3	16.1	-94.9	0.0
2025-01-18 18:20:43.190130	169.4	16.4	-94.7	0.0
2025-01-18 18:20:45.435226	169.5	16.6	-94.6	0.0
2025-01-18 18:20:47.676370	169.5	16.9	-94.9	0.0
2025-01-18 18:20:49.919228	169.6	17.1	-94.7	0.0
2025-01-18 18:20:52.161048	169.6	17.4	-94.8	0.0
2025-01-18 18:20:54.403731	169.7	17.7	-94.7	0.0
2025-01-18 18:20:56.645004	169.8	17.9	-94.5	0.0
2025-01-18 18:20:58.884917	169.8	18.2	-94.9	0.0
2025-01-18 18:21:01.129045	169.9	18.5	-94.9	0.0
2025-01-18 18:21:03.373155	170.0	18.7	-94.7	0.0
2025-01-18 18:21:05.613210	170.0	19.0	-94.8	0.0
2025-01-18 18:21:07.855022	170.1	19.3	-94.6	0.0
2025-01-18 18:21:10.096153	170.2	19.6	-94.6	0.0
2025-01-18 18:21:12.339113	170.3	19.9	-94.7	0.0
2025-01-18 18:21:14.581190	170.3	20.2	-94.5	0.0
2025-01-18 18:21:16.826947	170.4	20.5	-94.1	0.0
2025-01-18 18:21:19.069478	170.5	20.8	-94.6	0.0
2025-01-18 18:21:21.314170	170.6	21.1	-94.7	0.0
2025-01-18 18:21:23.556677	170.7	21.4	-94.7	0.0
2025-01-18 18:21:25.801223	170.7	21.7	-94.7	0.0
2025-01-18 18:21:28.044211	170.8	22.0	-94.8	0.0
2025-01-18 18:21:30.286815	170.9	22.3	-95.0	0.0
2025-01-18 18:21:32.528939	171.0	22.6	-94.7	0.0
2025-01-18 18:21:34.769065	171.1	22.9	-94.9	0.0
2025-01-18 18:21:37.008027	171.2	23.3	-94.8	0.0
2025-01-18 18:21:39.250383	171.3	23.6	-94.9	0.0
2025-01-18 18:21:41.491987	171.4	23.9	-94.8	0.0
2025-01-18 18:21:43.734309	171.5	24.3	-94.9	0.0
2025-01-18 18:21:45.976971	171.6	24.6	-94.6	0.0
2025-01-18 18:21:48.218787	171.7	25.0	-95.1	0.0
2025-01-18 18:21:50.462100	171.8	25.3	-94.4	0.0
2025-01-18 18:21:52.707132	171.9	25.7	-94.5	0.0
2025-01-18 18:21:54.949549	172.0	26.0	-94.7	0.0
2025-01-18 18:21:57.190782	172.1	26.4	-94.5	0.0
2025-01-18 18:21:59.434318	172.2	26.8	-94.6	0.0
2025-01-18 18:22:01.677972	172.3	27.2	-94.8	0.0
2025-01-18 18:22:03.920323	172.4	27.5	-94.8	0.0
2025-01-18 18:22:06.161963	172.5	27.9	-94.6	0.0
2025-01-18 18:22:08.404718	172.7	28.3	-94.8	0.0
2025-01-18 18:22:10.648233	172.8	28.7	-94.7	0.0
2025-01-18 18:22:12.888809	172.9	29.1	-94.7	0.0
2025-01-18 18:22:15.132321	173.0	29.5	-94.6	0.0
2025-01-18 18:22:17.374150	173.2	30.0	-94.6	0.0
2025-01-18 18:22:19.613867	173.3	30.4	-94.9	0.0
2025-01-18 18:22:21.856499	173.4	30.8	-94.7	0.0
2025-01-18 18:22:24.099131	173.6	31.2	-94.6	0.0
2025-01-18 18:22:26.341039	173.7	31.7	-94.8	0.0
2025-01-18 18:22:28.581413	173.9	32.1	-94.7	0.0
2025-01-18 18:22:30.822783	174.0	32.6	-94.6	0.0
2025-01-18 18:22:33.065209	174.2	33.0	-94.8	0.0
2025-01-18 18:22:35.307664	174.4	33.5	-94.6	0.0
2025-01-18 18:22:37.551549	174.5	34.0	-94.8	0.0
2025-01-18 18:22:39.794158	174.7	34.5	-94.7	0.0
2025-01-18 18:22:42.037674	174.9	35.0	-94.9	0.0
2025-01-18 18:22:44.279340	175.1	35.5	-94.7	0.0
2025-01-18 18:22:46.520488	175.3	36.0	-94.6	0.0
2025-01-18 18:22:48.761171	175.4	36.5	-94.8	0.0
2025-01-18 18:22:51.002785	175.6	37.0	-94.7	0.0
2025-01-18 18:22:53.247479	175.9	37.5	-94.7	0.0
2025-01-18 18:22:55.490112	176.1	38.0	-94.7	0.0
2025-01-18 18:22:57.732021	176.3	38.6	-94.5	0.0
2025-01-18 18:22:59.974920	176.5	39.1	-94.7	0.0
2025-01-18 18:23:02.217219	176.8	39.7	-94.7	0.0
2025-01-18 18:23:04.460373	177.0	40.3	-94.7	0.0
2025-01-18 18:23:06.703779	177.2	40.8	-94.7	0.0
2025-01-18 18:23:08.947743	177.5	41.4	-94.8	0.0
2025-01-18 18:23:11.189324	177.8	42.0	-95.1	0.0
2025-01-18 18:23:13.431026	178.1	42.6	-94.7	0.0
2025-01-18 18:23:15.676441	178.3	43.2	-94.9	0.0
2025-01-18 18:23:17.920078	178.6	43.9	-95.0	0.0
2025-01-18 18:23:20.163299	179.0	44.5	-94.8	0.0
2025-01-18 18:23:22.405775	179.3	45.1	-94.5	0.0
2025-01-18 18:23:24.647242	179.6	45.8	-94.8	0.0
2025-01-18 18:23:26.887596	180.0	46.4	-94.7	0.0
2025-01-18 18:23:29.131494	180.3	47.1	-94.6	0.0
2025-01-18 18:23:31.373490	180.7	47.8	-94.6	0.0
2025-01-18 18:23:33.615807	181.1	48.5	-94.4	0.0
2025-01-18 18:23:35.856655	181.5	49.2	-94.6	0.0
2025-01-18 18:23:38.100715	182.0	49.9	-94.6	0.0
2025-01-18 18:23:40.339410	182.4	50.6	-94.6	0.0
2025-01-18 18:23:42.580171	182.9	51.3	-94.5	0.0
2025-01-18 18:23:44.821069	183.4	52.1	-94.6	0.0
2025-01-18 18:23:47.064901	183.9	52.8	-94.5	0.0
2025-01-18 18:23:49.307543	184.5	53.5	-94.9	0.0
2025-01-18 18:23:51.549891	185.1	54.3	-94.6	0.0
2025-01-18 18:23:53.791421	185.7	55.1	-95.0	0.0
2025-01-18 18:23:56.032815	186.3	55.9	-95.0	0.0
2025-01-18 18:23:58.275441	187.0	56.6	-95.0	0.0
2025-01-18 18:24:00.518693	187.8	57.4	-94.9	0.0
2025-01-18 18:24:02.760298	188.5	58.2	-94.9	0.0
2025-01-18 18:24:05.004711	189.3	59.0	-94.9	0.0
2025-01-18 18:24:07.247251	190.2	59.8	-94.7	0.0
2025-01-18 18:24:09.489987	191.1	60.6	-95.0	0.0
2025-01-18 18:24:11.735823	192.1	61.5	-94.8	0.0
2025-01-18 18:24:13.978693	193.2	62.3	-94.9	0.0
2025-01-18 18:24:16.216580	194.3	63.1	-95.0	0.0
2025-01-18 18:24:18.459132	195.5	63.9	-94.7	0.0
2025-01-18 18:24:20.697052	196.8	64.7	-94.9	0.0
2025-01-18 18:24:22.938513	198.1	65.5	-95.1	0.0
2025-01-18 18:24:25.177982	199.6	66.3	-94.9	0.0
2025-01-18 18:24:27.418157	201.2	67.1	-94.9	0.0
2025-01-18 18:24:29.658746	202.9	67.9	-94.9	0.0
2025-01-18 18:24:31.904015	204.8	68.7	-94.8	0.0
2025-01-18 18:24:34.146275	206.8	69.5	-94.7	0.0
2025-01-18 18:24:36.389363	209.0	70.2	-94.7	0.0
2025-01-18 18:24:38.633227	211.4	70.9	-95.0	0.0
2025-01-18 18:24:40.879005	213.9	71.6	-94.9	0.0
2025-01-18 18:24:43.123122	216.7	72.3	-95.0	0.0
2025-01-18 18:24:45.364638	219.6	72.9	-94.8	0.0
2025-01-18 18:24:47.607152	222.8	73.5	-94.9	0.0
2025-01-18 18:24:49.851383	226.3	74.0	-94.9	0.0
2025-01-18 18:24:52.091174	229.9	74.5	-94.8	0.0
2025-01-18 18:24:54.334320	233.8	74.9	-95.0	0.0
2025-01-18 18:24:56.575316	237.9	75.2	-94.7	0.0
2025-01-18 18:24:58.819562	242.1	75.5	-95.0	0.0
2025-01-18 18:25:01.061995	246.5	75.7	-94.8	0.0
2025-01-18 18:25:03.304889	251.0	75.8	-94.8	0.0
2025-01-18 18:25:05.543890	255.5	75.8	-94.9	0.0
2025-01-18 18:25:07.784837	260.0	75.7	-94.9	0.0
2025-01-18 18:25:10.027097	264.5	75.6	-94.7	0.0
2025-01-18 18:25:12.273088	268.8	75.4	-95.0	0.0
2025-01-18 18:25:14.516922	273.0	75.0	-94.9	0.0
2025-01-18 18:25:16.756635	276.9	74.7	-94.9	0.0
2025-01-18 18:25:18.999056	280.7	74.2	-94.8	0.0
2025-01-18 18:25:21.241585	284.2	73.7	-94.7	0.0
2025-01-18 18:25:23.483730	287.5	73.2	-94.8	0.0
2025-01-18 18:25:25.724953	290.5	72.6	-94.5	0.0
2025-01-18 18:25:27.967546	293.4	71.9	-94.9	0.0
2025-01-18 18:25:30.208152	296.0	71.2	-94.6	0.0
2025-01-18 18:25:32.452550	298.4	70.5	-94.7	0.0
2025-01-18 18:25:34.693150	300.7	69.8	-94.9	0.0
2025-01-18 18:25:36.938183	302.8	69.0	-94.7	0.0
2025-01-18 18:25:39.184980	304.7	68.3	-94.6	0.0
2025-01-18 18:25:41.426254	306.5	67.5	-94.9	0.0
2025-01-18 18:25:43.668197	308.1	66.7	-94.9	0.0
2025-01-18 18:25:45.912054	309.7	65.9	-95.0	0.0
2025-01-18 18:25:48.153838	311.1	65.1	-95.0	0.0
2025-01-18 18:25:50.394761	312.4	64.3	-95.0	0.0
2025-01-18 18:25:52.637251	313.6	63.5	-94.8	0.0
2025-01-18 18:25:54.878307	314.8	62.6	-94.8	0.0
2025-01-18 18:25:57.119479	315.9	61.8	-95.0	0.0
2025-01-18 18:25:59.360118	316.9	61.0	-95.3	0.0
2025-01-18 18:26:01.600555	317.8	60.2	-94.8	0.0
2025-01-18 18:26:03.842998	318.7	59.4	-94.8	0.0
2025-01-18 18:26:06.084848	319.5	58.6	-94.8	0.0
2025-01-18 18:26:08.327221	320.3	57.8	-94.7	0.0
2025-01-18 18:26:10.568818	321.1	57.0	-94.8	0.0
2025-01-18 18:26:12.809168	321.8	56.2	-94.9	0.0
2025-01-18 18:26:15.054298	322.4	55.5	-94.6	0.0
2025-01-18 18:26:17.297402	323.1	54.7	-94.7	0.0
2025-01-18 18:26:19.539451	323.7	53.9	-94.5	0.0
2025-01-18 18:26:21.780893	324.2	53.2	-94.7	0.0
2025-01-18 18:26:24.025872	324.8	52.4	-94.5	0.0
2025-01-18 18:26:26.265914	325.3	51.7	-94.5	0.0
2025-01-18 18:26:28.512893	325.8	51.0	-94.9	0.0
2025-01-18 18:26:30.757664	326.2	50.3	-94.9	0.0
2025-01-18 18:26:32.998253	326.7	49.6	-95.0	0.0
2025-01-18 18:26:35.242151	327.1	48.9	-94.9	0.0
2025-01-18 18:26:37.483885	327.5	48.2	-95.0	0.0
2025-01-18 18:26:39.729324	327.9	47.5	-94.7	0.0
2025-01-18 18:26:41.971604	328.3	46.8	-94.7	0.0
2025-01-18 18:26:44.212899	328.6	46.2	-94.8	0.0
2025-01-18 18:26:46.454305	329.0	45.5	-94.7	0.0
2025-01-18 18:26:48.696424	329.3	44.9	-94.7	0.0
2025-01-18 18:26:50.940373	329.6	44.2	-94.8	0.0
2025-01-18 18:26:53.183569	329.9	43.6	-94.5	0.0
2025-01-18 18:26:55.423436	330.2	43.0	-94.6	0.0
2025-01-18 18:26:57.667414	330.5	42.4	-94.6	0.0
2025-01-18 18:26:59.909056	330.8	41.8	-94.6	0.0
2025-01-18 18:27:02.152863	331.1	41.2	-94.7	0.0
2025-01-18 18:27:04.395589	331.3	40.6	-94.9	0.0
2025-01-18 18:27:06.639378	331.6	40.1	-94.7	0.0
2025-01-18 18:27:08.878634	331.8	39.5	-94.7	0.0
2025-01-18 18:27:11.119006	332.0	39.0	-94.7	0.0
2025-01-18 18:27:13.360114	332.3	38.4	-94.8	0.0
2025-01-18 18:27:15.602740	332.5	37.9	-94.7	0.0
2025-01-18 18:27:17.846229	332.7	37.3	-94.8	0.0
2025-01-18 18:27:20.088285	332.9	36.8	-94.8	0.0
2025-01-18 18:27:22.330201	333.1	36.3	-94.8	0.0
2025-01-18 18:27:24.573252	333.3	35.8	-94.7	0.0
2025-01-18 18:27:26.816704	333.5	35.3	-95.0	0.0
2025-01-18 18:27:29.058517	333.6	34.8	-94.7	0.0
2025-01-18 18:27:31.299956	333.8	34.3	-95.0	0.0
2025-01-18 18:27:33.542636	334.0	33.9	-94.7	0.0
2025-01-18 18:27:35.783851	334.2	33.4	-95.0	0.0
2025-01-18 18:27:38.024806	334.3	32.9	-94.6	0.0
2025-01-18 18:27:40.269666	334.5	32.5	-94.8	0.0
2025-01-18 18:27:42.511700	334.6	32.0	-94.7	0.0
2025-01-18 18:27:44.754799	334.8	31.6	-95.0	0.0
2025-01-18 18:27:46.994153	334.9	31.2	-94.7	0.0
2025-01-18 18:27:49.234695	335.1	30.7	-94.9	0.0
2025-01-18 18:27:51.474475	335.2	30.3	-94.9	0.0
2025-01-18 18:27:53.718835	335.3	29.9	-94.8	0.0
2025-01-18 18:27:55.962177	335.5	29.5	-94.9	0.0
2025-01-18 18:27:58.205326	335.6	29.1	-94.8	0.0
2025-01-18 18:28:00.444308	335.7	28.7	-94.8	0.0
2025-01-18 18:28:02.688664	335.9	28.3	-94.8	0.0
2025-01-18 18:28:04.930306	336.0	27.9	-94.5	0.0
2025-01-18 18:28:07.172473	336.1	27.5	-94.8	0.0
2025-01-18 18:28:09.416874	336.2	27.1	-94.6	0.0
2025-01-18 18:28:11.658815	336.3	26.8	-94.5	0.0
2025-01-18 18:28:13.904940	336.4	26.4	-94.8	0.0
2025-01-18 18:28:16.146315	336.5	26.0	-94.9	0.0
2025-01-18 18:28:18.387097	336.6	25.7	-94.8	0.0
2025-01-18 18:28:20.631970	336.8	25.3	-94.7	0.0
2025-01-18 18:28:22.873002	336.9	25.0	-95.0	0.0
2025-01-18 18:28:25.115344	337.0	24.6	-95.0	0.0
2025-01-18 18:28:27.357856	337.1	24.3	-95.0	0.0
2025-01-18 18:28:29.600254	337.1	23.9	-94.7	0.0
2025-01-18 18:28:31.842522	337.2	23.6	-94.6	0.0
2025-01-18 18:28:34.084530	337.3	23.3	-94.6	0.0
2025-01-18 18:28:36.327495	337.4	23.0	-94.8	0.0
2025-01-18 18:28:38.568465	337.5	22.6	-94.5	0.0
2025-01-18 18:28:40.808387	337.6	22.3	-94.9	0.0
2025-01-18 18:28:43.050129	337.7	22.0	-94.7	0.0
2025-01-18 18:28:45.291238	337.8	21.7	-94.5	0.0
2025-01-18 18:28:47.535042	337.9	21.4	-94.9	0.0
2025-01-18 18:28:49.780173	337.9	21.1	-94.8	0.0
2025-01-18 18:28:52.020636	338.0	20.8	-94.5	0.0
2025-01-18 18:28:54.261385	338.1	20.5	-94.8	0.0
2025-01-18 18:28:56.504866	338.2	20.2	-94.6	0.0
2025-01-18 18:28:58.746858	338.2	19.9	-94.4	0.0
2025-01-18 18:29:00.987716	338.3	19.6	-94.9	0.0
2025-01-18 18:29:03.229168	338.4	19.4	-94.6	0.0
2025-01-18 18:29:05.472300	338.5	19.1	-94.7	0.0
2025-01-18 18:29:07.715068	338.5	18.8	-94.9	0.0
2025-01-18 18:29:09.957673	338.6	18.5	-94.8	0.0
2025-01-18 18:29:12.200083	338.7	18.3	-94.8	0.0
2025-01-18 18:29:14.440131	338.7	18.0	-95.0	0.0
2025-01-18 18:29:16.683049	338.8	17.7	-94.8	0.0
2025-01-18 18:29:18.927130	338.9	17.5	-95.0	0.0
2025-01-18 18:29:21.169543	338.9	17.2	-94.7	0.0
2025-01-18 18:29:23.410944	339.0	17.0	-94.8	0.0
2025-01-18 18:29:25.651913	339.1	16.7	-94.9	0.0
2025-01-18 18:29:27.895920	339.1	16.5	-95.0	0.0
2025-01-18 18:29:30.140406	339.2	16.2	-94.8	0.0
2025-01-18 18:29:32.383238	339.3	16.0	-94.6	0.0
2025-01-18 18:29:34.624346	339.3	15.7	-94.6	0.0
2025-01-18 18:29:36.869300	339.4	15.5	-94.9	0.0
2025-01-18 18:29:39.111879	339.4	15.2	-94.5	0.0
2025-01-18 18:29:41.353474	339.5	15.0	-94.7	0.0
2025-01-18 18:29:43.593606	339.6	14.8	-94.8	0.0
2025-01-18 18:29:45.837065	339.6	14.5	-94.7	0.0
2025-01-18 18:29:48.080199	339.7	14.3	-94.9	0.0
2025-01-18 18:29:50.320148	339.7	14.1	-94.8	0.0
2025-01-18 18:29:52.559258	339.8	13.9	-95.0	0.0
2025-01-18 18:29:54.801634	339.8	13.6	-94.8	0.0
2025-01-18 18:29:57.045943	339.9	13.4	-95.0	0.0
2025-01-18 18:29:59.287128	339.9	13.2	-94.8	0.0
2025-01-18 18:30:01.526428	340.0	13.0	-95.0	0.0
2025-01-18 18:30:03.770612	340.0	12.8	-94.7	0.0
2025-01-18 18:30:06.012230	340.1	12.5	-94.9	0.0
2025-01-18 18:30:08.254136	340.1	12.3	-95.0	0.0
2025-01-18 18:30:10.495149	340.2	12.1	-94.9	0.0
2025-01-18 18:30:12.738747	340.2	11.9	-94.9	0.0
2025-01-18 18:30:14.983118	340.3	11.7	-94.7	0.0
2025-01-18 18:30:17.227060	340.3	11.5	-94.6	0.0
2025-01-18 18:30:19.470902	340.4	11.3	-95.0	0.0
2025-01-18 18:30:21.712301	340.4	11.1	-94.8	0.0
2025-01-18 18:30:23.953253	340.5	10.9	-94.8	0.0
2025-01-18 18:30:26.195244	340.5	10.7	-94.6	0.0
2025-01-18 18:30:28.439481	340.6	10.5	-94.9	0.0
2025-01-18 18:30:30.682001	340.6	10.3	-94.7	0.0
2025-01-18 18:30:32.923472	340.6	10.1	-94.7	0.0
2025-01-18 18:30:35.166517	340.7	9.9	-94.4	0.0
#Closed at: 2025-01-18 18:19:33.239301