passes_logs/2025/01/18/planumMaritime01/planumMaritime01__20250118_080843_METOP-C_rec.log

#Pass ID: 20250118_080843_METOP-C
#Satellite: METOP-C
#Configuration: METOP-C
#Start time: 2025-01-18 08:08:48.426126

#LorettStation: 1.0.0 05.05.2024
#Station: planumMaritime01
#Location: 37.49445 lon 55.92918 lat
#TLE: 1 43689U 18087A   25017.12268116  .00000242  00000+0  13070-3 0  9997
#TLE: 2 43689  98.6961  79.5832 0001518 160.4189 199.7047 14.21482278321517

#Time	Az	El	Level	SNR
2025-01-18 08:08:50.584896	12.8	10.2	-94.7	0.0
2025-01-18 08:08:52.828633	12.8	10.4	-94.3	0.0
2025-01-18 08:08:55.069881	12.7	10.6	-94.5	0.0
2025-01-18 08:08:57.312287	12.7	10.8	-94.5	0.0
2025-01-18 08:08:59.557292	12.6	11.0	-94.6	0.0
2025-01-18 08:09:01.799734	12.6	11.2	-94.4	0.0
2025-01-18 08:09:04.042067	12.5	11.4	-94.4	0.0
2025-01-18 08:09:06.284100	12.5	11.6	-94.7	0.0
2025-01-18 08:09:08.525462	12.4	11.8	-94.5	0.0
2025-01-18 08:09:10.766473	12.3	12.0	-94.9	0.0
2025-01-18 08:09:13.008537	12.3	12.2	-94.9	0.0
2025-01-18 08:09:15.250126	12.2	12.4	-94.7	0.0
2025-01-18 08:09:17.492063	12.2	12.6	-94.6	0.0
2025-01-18 08:09:19.733113	12.1	12.9	-94.4	0.0
2025-01-18 08:09:21.978924	12.0	13.1	-94.4	0.0
2025-01-18 08:09:24.219109	12.0	13.3	-94.5	0.0
2025-01-18 08:09:26.462527	11.9	13.5	-94.6	0.0
2025-01-18 08:09:28.707254	11.8	13.7	-94.5	0.0
2025-01-18 08:09:30.947026	11.8	14.0	-94.8	0.0
2025-01-18 08:09:33.190788	11.7	14.2	-94.5	0.0
2025-01-18 08:09:35.433145	11.6	14.4	-94.5	0.0
2025-01-18 08:09:37.673543	11.6	14.6	-94.6	0.0
2025-01-18 08:09:39.913394	11.5	14.9	-94.4	0.0
2025-01-18 08:09:42.158537	11.4	15.1	-94.5	0.0
2025-01-18 08:09:44.399650	11.3	15.4	-94.5	0.0
2025-01-18 08:09:46.641590	11.3	15.6	-94.4	0.0
2025-01-18 08:09:48.885244	11.2	15.8	-94.5	0.0
2025-01-18 08:09:51.129053	11.1	16.1	-94.8	0.0
2025-01-18 08:09:53.369489	11.0	16.3	-94.5	0.0
2025-01-18 08:09:55.612673	10.9	16.6	-94.8	0.0
2025-01-18 08:09:57.852582	10.8	16.8	-94.8	0.0
2025-01-18 08:10:00.096353	10.8	17.1	-94.4	0.0
2025-01-18 08:10:02.337463	10.7	17.4	-94.7	0.0
2025-01-18 08:10:04.578660	10.6	17.6	-94.8	0.0
2025-01-18 08:10:06.820530	10.5	17.9	-94.8	0.0
2025-01-18 08:10:09.062979	10.4	18.1	-94.9	0.0
2025-01-18 08:10:11.307361	10.3	18.4	-94.9	0.0
2025-01-18 08:10:13.550415	10.2	18.7	-94.6	0.0
2025-01-18 08:10:15.790562	10.1	19.0	-94.8	0.0
2025-01-18 08:10:18.033087	10.0	19.2	-94.9	0.0
2025-01-18 08:10:20.270108	9.9	19.5	-94.7	0.0
2025-01-18 08:10:22.514234	9.8	19.8	-94.9	0.0
2025-01-18 08:10:24.758515	9.7	20.1	-94.5	0.0
2025-01-18 08:10:26.998368	9.6	20.4	-94.7	0.0
2025-01-18 08:10:29.237746	9.5	20.7	-94.6	0.0
2025-01-18 08:10:31.482060	9.4	21.0	-94.5	0.0
2025-01-18 08:10:33.723965	9.2	21.3	-94.4	0.0
2025-01-18 08:10:35.964599	9.1	21.6	-94.3	0.0
2025-01-18 08:10:38.210002	9.0	21.9	-94.5	0.0
2025-01-18 08:10:40.451309	8.9	22.2	-94.4	0.0
2025-01-18 08:10:42.693310	8.7	22.5	-94.4	0.0
2025-01-18 08:10:44.933922	8.6	22.8	-94.7	0.0
2025-01-18 08:10:47.179207	8.5	23.2	-94.6	0.0
2025-01-18 08:10:49.421472	8.3	23.5	-94.8	0.0
2025-01-18 08:10:51.663375	8.2	23.8	-94.8	0.0
2025-01-18 08:10:53.906909	8.1	24.1	-94.8	0.0
2025-01-18 08:10:56.151584	7.9	24.5	-94.7	0.0
2025-01-18 08:10:58.392279	7.8	24.8	-94.7	0.0
2025-01-18 08:11:00.634195	7.6	25.2	-94.9	0.0
2025-01-18 08:11:02.877173	7.5	25.5	-94.7	0.0
2025-01-18 08:11:05.120908	7.3	25.9	-94.7	0.0
2025-01-18 08:11:07.366490	7.1	26.3	-94.9	0.0
2025-01-18 08:11:09.607733	7.0	26.6	-94.8	0.0
2025-01-18 08:11:11.848871	6.8	27.0	-94.6	0.0
2025-01-18 08:11:14.088893	6.6	27.4	-94.6	0.0
2025-01-18 08:11:16.330570	6.5	27.7	-94.7	0.0
2025-01-18 08:11:18.570229	6.3	28.1	-94.6	0.0
2025-01-18 08:11:20.812398	6.1	28.5	-94.5	0.0
2025-01-18 08:11:23.056536	5.9	28.9	-94.5	0.0
2025-01-18 08:11:25.299398	5.7	29.3	-94.5	0.0
2025-01-18 08:11:27.541481	5.5	29.7	-94.8	0.0
2025-01-18 08:11:29.788210	5.3	30.1	-94.7	0.0
2025-01-18 08:11:32.029666	5.1	30.6	-94.8	0.0
2025-01-18 08:11:34.274189	4.8	31.0	-94.7	0.0
2025-01-18 08:11:36.513460	4.6	31.4	-94.8	0.0
2025-01-18 08:11:38.753009	4.4	31.8	-94.6	0.0
2025-01-18 08:11:40.996521	4.1	32.3	-94.8	0.0
2025-01-18 08:11:43.239229	3.9	32.7	-94.6	0.0
2025-01-18 08:11:45.481218	3.6	33.2	-94.8	0.0
2025-01-18 08:11:47.720949	3.4	33.7	-94.7	0.0
2025-01-18 08:11:49.964392	3.1	34.1	-94.7	0.0
2025-01-18 08:11:52.205517	2.8	34.6	-94.7	0.0
2025-01-18 08:11:54.446426	2.5	35.1	-94.8	0.0
2025-01-18 08:11:56.688050	2.2	35.6	-94.5	0.0
2025-01-18 08:11:58.929595	1.9	36.0	-94.9	0.0
2025-01-18 08:12:01.170473	1.6	36.5	-94.5	0.0
2025-01-18 08:12:03.414793	1.3	37.1	-94.9	0.0
2025-01-18 08:12:05.655190	1.0	37.6	-94.4	0.0
2025-01-18 08:12:07.896475	0.6	38.1	-94.4	0.0
2025-01-18 08:12:10.137013	0.3	38.6	-94.6	0.0
2025-01-18 08:12:12.378383	359.9	39.1	-94.6	0.0
2025-01-18 08:12:14.620503	359.5	39.7	-94.6	0.0
2025-01-18 08:12:16.861468	359.1	40.2	-94.6	0.0
2025-01-18 08:12:19.104758	358.7	40.8	-94.4	0.0
2025-01-18 08:12:21.345454	358.3	41.3	-94.7	0.0
2025-01-18 08:12:23.586899	357.9	41.9	-94.3	0.0
2025-01-18 08:12:25.825948	357.4	42.5	-94.7	0.0
2025-01-18 08:12:28.066365	356.9	43.1	-94.6	0.0
2025-01-18 08:12:30.310607	356.4	43.7	-94.6	0.0
2025-01-18 08:12:32.554004	355.9	44.3	-94.6	0.0
2025-01-18 08:12:34.797579	355.4	44.9	-95.0	0.0
2025-01-18 08:12:37.041835	354.8	45.5	-94.9	0.0
2025-01-18 08:12:39.282199	354.3	46.1	-94.6	0.0
2025-01-18 08:12:41.526881	353.7	46.7	-94.9	0.0
2025-01-18 08:12:43.767569	353.1	47.3	-94.9	0.0
2025-01-18 08:12:46.010941	352.4	48.0	-94.9	0.0
2025-01-18 08:12:48.251208	351.7	48.6	-94.8	0.0
2025-01-18 08:12:50.492669	351.0	49.2	-94.8	0.0
2025-01-18 08:12:52.732970	350.3	49.9	-94.8	0.0
2025-01-18 08:12:54.975552	349.5	50.5	-94.8	0.0
2025-01-18 08:12:57.216775	348.8	51.2	-94.8	0.0
2025-01-18 08:12:59.455541	347.9	51.9	-94.9	0.0
2025-01-18 08:13:01.698068	347.0	52.5	-94.6	0.0
2025-01-18 08:13:03.941066	346.1	53.2	-94.8	0.0
2025-01-18 08:13:06.181811	345.2	53.8	-94.7	0.0
2025-01-18 08:13:08.420559	344.2	54.5	-94.9	0.0
2025-01-18 08:13:10.660568	343.1	55.2	-94.8	0.0
2025-01-18 08:13:12.901105	342.0	55.8	-94.7	0.0
2025-01-18 08:13:15.143479	340.9	56.5	-94.9	0.0
2025-01-18 08:13:17.387686	339.7	57.1	-94.5	0.0
2025-01-18 08:13:19.628635	338.4	57.8	-95.0	0.0
2025-01-18 08:13:21.870789	337.1	58.4	-94.8	0.0
2025-01-18 08:13:24.113166	335.7	59.1	-94.2	0.0
2025-01-18 08:13:26.354624	334.2	59.7	-94.8	0.0
2025-01-18 08:13:28.595974	332.7	60.3	-94.5	0.0
2025-01-18 08:13:30.839104	331.1	60.9	-94.6	0.0
2025-01-18 08:13:33.078168	329.4	61.5	-94.8	0.0
2025-01-18 08:13:35.322033	327.6	62.0	-94.3	0.0
2025-01-18 08:13:37.566161	325.7	62.6	-94.8	0.0
2025-01-18 08:13:39.809651	323.8	63.1	-94.7	0.0
2025-01-18 08:13:42.052661	321.8	63.6	-94.8	0.0
2025-01-18 08:13:44.295039	319.7	64.1	-94.8	0.0
2025-01-18 08:13:46.535606	317.5	64.5	-94.9	0.0
2025-01-18 08:13:48.777139	315.2	64.9	-94.8	0.0
2025-01-18 08:13:51.021650	312.8	65.3	-94.8	0.0
2025-01-18 08:13:53.265021	310.4	65.6	-94.8	0.0
2025-01-18 08:13:55.510953	307.9	65.9	-94.7	0.0
2025-01-18 08:13:57.750620	305.3	66.2	-94.8	0.0
2025-01-18 08:13:59.993458	302.7	66.4	-94.8	0.0
2025-01-18 08:14:02.234197	300.0	66.6	-94.8	0.0
2025-01-18 08:14:04.477020	297.3	66.7	-94.7	0.0
2025-01-18 08:14:06.718920	294.6	66.7	-94.9	0.0
2025-01-18 08:14:08.964044	291.8	66.8	-94.9	0.0
2025-01-18 08:14:11.206593	289.1	66.7	-94.8	0.0
2025-01-18 08:14:13.446904	286.4	66.6	-94.9	0.0
2025-01-18 08:14:15.687408	283.7	66.5	-94.9	0.0
2025-01-18 08:14:17.929260	281.0	66.3	-94.9	0.0
2025-01-18 08:14:20.170482	278.4	66.1	-94.8	0.0
2025-01-18 08:14:22.411734	275.8	65.9	-94.8	0.0
2025-01-18 08:14:24.655649	273.3	65.6	-94.5	0.0
2025-01-18 08:14:26.897723	270.9	65.2	-95.1	0.0
2025-01-18 08:14:29.137091	268.6	64.8	-94.7	0.0
2025-01-18 08:14:31.379420	266.3	64.4	-94.9	0.0
2025-01-18 08:14:33.623975	264.1	64.0	-94.8	0.0
2025-01-18 08:14:35.867183	262.0	63.5	-94.8	0.0
2025-01-18 08:14:38.109086	260.0	63.0	-94.7	0.0
2025-01-18 08:14:40.352969	258.1	62.5	-94.9	0.0
2025-01-18 08:14:42.595541	256.2	61.9	-94.9	0.0
2025-01-18 08:14:44.837481	254.5	61.4	-94.8	0.0
2025-01-18 08:14:47.078594	252.8	60.8	-94.9	0.0
2025-01-18 08:14:49.323767	251.2	60.2	-95.2	0.0
2025-01-18 08:14:51.565810	249.7	59.5	-94.8	0.0
2025-01-18 08:14:53.807849	248.2	58.9	-95.2	0.0
2025-01-18 08:14:56.051519	246.8	58.3	-95.1	0.0
2025-01-18 08:14:58.291429	245.5	57.6	-94.9	0.0
2025-01-18 08:15:00.534751	244.2	57.0	-95.2	0.0
2025-01-18 08:15:02.776262	243.0	56.3	-94.9	0.0
2025-01-18 08:15:05.019599	241.9	55.7	-94.7	0.0
2025-01-18 08:15:07.261632	240.8	55.0	-94.8	0.0
2025-01-18 08:15:09.503880	239.8	54.3	-94.9	0.0
2025-01-18 08:15:11.748232	238.8	53.7	-94.6	0.0
2025-01-18 08:15:13.990636	237.8	53.0	-94.6	0.0
2025-01-18 08:15:16.231456	236.9	52.3	-94.6	0.0
2025-01-18 08:15:18.473028	236.1	51.7	-94.7	0.0
2025-01-18 08:15:20.718682	235.2	51.0	-94.7	0.0
2025-01-18 08:15:22.960059	234.4	50.4	-94.7	0.0
2025-01-18 08:15:25.199786	233.7	49.7	-94.7	0.0
2025-01-18 08:15:27.443668	232.9	49.1	-94.9	0.0
2025-01-18 08:15:29.685650	232.3	48.4	-95.0	0.0
2025-01-18 08:15:31.928231	231.6	47.8	-94.5	0.0
2025-01-18 08:15:34.167089	230.9	47.1	-95.0	0.0
2025-01-18 08:15:36.409622	230.3	46.5	-94.6	0.0
2025-01-18 08:15:38.651398	229.7	45.9	-94.8	0.0
2025-01-18 08:15:40.893721	229.2	45.3	-95.1	0.0
2025-01-18 08:15:43.140893	228.6	44.7	-94.9	0.0
2025-01-18 08:15:45.383466	228.1	44.1	-94.8	0.0
2025-01-18 08:15:47.626064	227.6	43.5	-94.5	0.0
2025-01-18 08:15:49.869502	227.1	42.9	-94.7	0.0
2025-01-18 08:15:52.107675	226.6	42.3	-94.5	0.0
2025-01-18 08:15:54.352231	226.2	41.7	-94.8	0.0
2025-01-18 08:15:56.594331	225.7	41.1	-94.4	0.0
2025-01-18 08:15:58.841910	225.3	40.6	-94.9	0.0
2025-01-18 08:16:01.083791	224.9	40.0	-94.6	0.0
2025-01-18 08:16:03.324188	224.5	39.5	-94.7	0.0
2025-01-18 08:16:05.568255	224.1	38.9	-94.8	0.0
2025-01-18 08:16:07.812343	223.8	38.4	-94.6	0.0
2025-01-18 08:16:10.055115	223.4	37.9	-94.8	0.0
2025-01-18 08:16:12.294753	223.1	37.4	-94.9	0.0
2025-01-18 08:16:14.536380	222.7	36.8	-94.7	0.0
2025-01-18 08:16:16.778685	222.4	36.3	-95.0	0.0
2025-01-18 08:16:19.023206	222.1	35.8	-94.7	0.0
2025-01-18 08:16:21.265098	221.8	35.3	-94.6	0.0
2025-01-18 08:16:23.507699	221.5	34.9	-94.7	0.0
2025-01-18 08:16:25.750845	221.2	34.4	-94.5	0.0
2025-01-18 08:16:27.992543	220.9	33.9	-94.8	0.0
2025-01-18 08:16:30.237045	220.7	33.4	-94.6	0.0
2025-01-18 08:16:32.480446	220.4	33.0	-95.1	0.0
2025-01-18 08:16:34.724274	220.2	32.5	-94.9	0.0
2025-01-18 08:16:36.966728	219.9	32.1	-94.6	0.0
2025-01-18 08:16:39.208959	219.7	31.6	-94.9	0.0
2025-01-18 08:16:41.450664	219.4	31.2	-94.8	0.0
2025-01-18 08:16:43.695370	219.2	30.8	-94.7	0.0
2025-01-18 08:16:45.935870	219.0	30.3	-94.9	0.0
2025-01-18 08:16:48.180318	218.8	29.9	-94.8	0.0
2025-01-18 08:16:50.424814	218.6	29.5	-94.7	0.0
2025-01-18 08:16:52.667930	218.4	29.1	-94.5	0.0
2025-01-18 08:16:54.908728	218.2	28.7	-94.8	0.0
2025-01-18 08:16:57.153095	218.0	28.3	-94.8	0.0
2025-01-18 08:16:59.394952	217.8	27.9	-94.9	0.0
2025-01-18 08:17:01.635944	217.6	27.5	-94.9	0.0
2025-01-18 08:17:03.879194	217.4	27.1	-95.0	0.0
2025-01-18 08:17:06.123170	217.2	26.8	-95.0	0.0
2025-01-18 08:17:08.368371	217.1	26.4	-94.8	0.0
2025-01-18 08:17:10.612321	216.9	26.0	-94.6	0.0
2025-01-18 08:17:12.853946	216.7	25.7	-94.7	0.0
2025-01-18 08:17:15.097107	216.6	25.3	-94.7	0.0
2025-01-18 08:17:17.337008	216.4	25.0	-94.7	0.0
2025-01-18 08:17:19.581701	216.3	24.6	-95.0	0.0
2025-01-18 08:17:21.822172	216.1	24.3	-94.9	0.0
2025-01-18 08:17:24.064729	216.0	23.9	-94.7	0.0
2025-01-18 08:17:26.306249	215.8	23.6	-94.7	0.0
2025-01-18 08:17:28.548265	215.7	23.3	-94.6	0.0
2025-01-18 08:17:30.788615	215.6	22.9	-95.0	0.0
2025-01-18 08:17:33.031995	215.4	22.6	-94.7	0.0
2025-01-18 08:17:35.273615	215.3	22.3	-94.8	0.0
2025-01-18 08:17:37.516675	215.2	22.0	-94.7	0.0
2025-01-18 08:17:39.757680	215.0	21.7	-94.9	0.0
2025-01-18 08:17:42.000596	214.9	21.4	-94.7	0.0
2025-01-18 08:17:44.242620	214.8	21.0	-94.9	0.0
2025-01-18 08:17:46.484479	214.7	20.7	-94.9	0.0
2025-01-18 08:17:48.727326	214.6	20.4	-94.8	0.0
2025-01-18 08:17:50.967828	214.5	20.2	-94.8	0.0
2025-01-18 08:17:53.211320	214.3	19.9	-94.9	0.0
2025-01-18 08:17:55.452373	214.2	19.6	-94.9	0.0
2025-01-18 08:17:57.693671	214.1	19.3	-94.9	0.0
2025-01-18 08:17:59.936848	214.0	19.0	-94.8	0.0
2025-01-18 08:18:02.179460	213.9	18.7	-94.9	0.0
2025-01-18 08:18:04.421754	213.8	18.5	-94.8	0.0
2025-01-18 08:18:06.662567	213.7	18.2	-95.0	0.0
2025-01-18 08:18:08.904524	213.6	17.9	-94.7	0.0
2025-01-18 08:18:11.144917	213.5	17.6	-95.0	0.0
2025-01-18 08:18:13.385868	213.4	17.4	-94.6	0.0
2025-01-18 08:18:15.630674	213.3	17.1	-95.1	0.0
2025-01-18 08:18:17.873552	213.3	16.9	-94.6	0.0
2025-01-18 08:18:20.116721	213.2	16.6	-94.9	0.0
2025-01-18 08:18:22.359941	213.1	16.4	-95.0	0.0
2025-01-18 08:18:24.608633	213.0	16.1	-94.8	0.0
2025-01-18 08:18:26.851947	212.9	15.9	-94.6	0.0
2025-01-18 08:18:29.093964	212.8	15.6	-94.7	0.0
2025-01-18 08:18:31.337268	212.8	15.4	-94.9	0.0
2025-01-18 08:18:33.581635	212.7	15.1	-95.0	0.0
2025-01-18 08:18:35.822492	212.6	14.9	-94.7	0.0
2025-01-18 08:18:38.062010	212.5	14.7	-95.0	0.0
2025-01-18 08:18:40.304926	212.4	14.4	-95.0	0.0
2025-01-18 08:18:42.545677	212.4	14.2	-95.0	0.0
2025-01-18 08:18:44.789605	212.3	14.0	-95.0	0.0
2025-01-18 08:18:47.033184	212.2	13.7	-94.9	0.0
2025-01-18 08:18:49.275955	212.2	13.5	-95.0	0.0
2025-01-18 08:18:51.516224	212.1	13.3	-95.1	0.0
2025-01-18 08:18:53.757805	212.0	13.1	-94.8	0.0
2025-01-18 08:18:56.001672	212.0	12.8	-94.8	0.0
2025-01-18 08:18:58.241031	211.9	12.6	-94.9	0.0
2025-01-18 08:19:00.484805	211.8	12.4	-94.7	0.0
2025-01-18 08:19:02.725423	211.8	12.2	-94.9	0.0
2025-01-18 08:19:04.968679	211.7	12.0	-94.8	0.0
2025-01-18 08:19:07.209839	211.6	11.8	-94.7	0.0
2025-01-18 08:19:09.452661	211.6	11.6	-94.6	0.0
2025-01-18 08:19:11.696073	211.5	11.4	-95.0	0.0
2025-01-18 08:19:13.938272	211.5	11.1	-94.7	0.0
2025-01-18 08:19:16.181668	211.4	10.9	-94.9	0.0
2025-01-18 08:19:18.424883	211.3	10.7	-94.6	0.0
2025-01-18 08:19:20.667015	211.3	10.5	-94.9	0.0
2025-01-18 08:19:22.908907	211.2	10.3	-94.8	0.0
2025-01-18 08:19:25.152716	211.2	10.1	-95.1	0.0
#Closed at: 2025-01-18 08:08:43.430177