passes_logs/2025/01/18/planumMaritime01/planumMaritime01__20250118_100802_NOAA_19_rec.log

#Pass ID: 20250118_100802_NOAA 19
#Satellite: NOAA 19
#Configuration: NOAA 19
#Start time: 2025-01-18 10:08:07.219023

#LorettStation: 1.0.0 05.05.2024
#Station: planumMaritime01
#Location: 37.49445 lon 55.92918 lat
#TLE: 1 33591U 09005A   25017.12803845  .00000314  00000+0  19161-3 0  9999
#TLE: 2 33591  99.0192  80.9069 0014403  51.8715 308.3753 14.13261185821848

#Time	Az	El	Level	SNR
2025-01-18 10:08:09.379310	353.6	10.1	-94.6	0.0
2025-01-18 10:08:10.502186	353.5	10.2	-94.6	0.0
2025-01-18 10:08:11.623097	353.3	10.2	-94.6	0.0
2025-01-18 10:08:12.745734	353.1	10.3	-94.7	0.0
2025-01-18 10:08:13.866470	353.0	10.3	-94.6	0.0
2025-01-18 10:08:14.985560	352.8	10.4	-94.7	0.0
2025-01-18 10:08:16.108408	352.7	10.5	-94.4	0.0
2025-01-18 10:08:17.229038	352.5	10.5	-94.7	0.0
2025-01-18 10:08:18.351650	352.3	10.6	-94.9	0.0
2025-01-18 10:08:19.472888	352.2	10.6	-94.6	0.0
2025-01-18 10:08:20.594680	352.0	10.7	-94.5	0.0
2025-01-18 10:08:21.715884	351.8	10.8	-94.6	0.0
2025-01-18 10:08:22.836078	351.7	10.8	-94.5	0.0
2025-01-18 10:08:23.956095	351.5	10.9	-94.4	0.0
2025-01-18 10:08:25.078869	351.3	10.9	-94.6	0.0
2025-01-18 10:08:26.199537	351.2	11.0	-94.5	0.0
2025-01-18 10:08:27.320094	351.0	11.0	-94.8	0.0
2025-01-18 10:08:28.440670	350.8	11.1	-94.7	0.0
2025-01-18 10:08:29.562427	350.7	11.2	-94.7	0.0
2025-01-18 10:08:30.683279	350.5	11.2	-94.7	0.0
2025-01-18 10:08:31.807248	350.3	11.3	-94.7	0.0
2025-01-18 10:08:32.929116	350.2	11.3	-94.9	0.0
2025-01-18 10:08:34.052071	350.0	11.4	-94.9	0.0
2025-01-18 10:08:35.176503	349.8	11.4	-94.8	0.0
2025-01-18 10:08:36.298705	349.6	11.5	-95.0	0.0
2025-01-18 10:08:37.419942	349.5	11.5	-94.6	0.0
2025-01-18 10:08:38.540391	349.3	11.6	-94.8	0.0
2025-01-18 10:08:39.661365	349.1	11.7	-94.7	0.0
2025-01-18 10:08:40.782739	348.9	11.7	-94.6	0.0
2025-01-18 10:08:41.903956	348.8	11.8	-94.8	0.0
2025-01-18 10:08:43.027835	348.6	11.8	-94.6	0.0
2025-01-18 10:08:44.148619	348.4	11.9	-94.6	0.0
2025-01-18 10:08:45.270099	348.2	11.9	-94.5	0.0
2025-01-18 10:08:46.392610	348.0	12.0	-94.4	0.0
2025-01-18 10:08:47.514451	347.9	12.0	-94.4	0.0
2025-01-18 10:08:48.635909	347.7	12.1	-94.6	0.0
2025-01-18 10:08:49.759165	347.5	12.2	-94.7	0.0
2025-01-18 10:08:50.880127	347.3	12.2	-94.7	0.0
2025-01-18 10:08:52.002863	347.1	12.3	-94.6	0.0
2025-01-18 10:08:53.123951	346.9	12.3	-94.8	0.0
2025-01-18 10:08:54.244098	346.8	12.4	-94.5	0.0
2025-01-18 10:08:55.365308	346.6	12.4	-94.7	0.0
2025-01-18 10:08:56.486325	346.4	12.5	-94.5	0.0
2025-01-18 10:08:57.606564	346.2	12.5	-94.6	0.0
2025-01-18 10:08:58.727246	346.0	12.6	-94.7	0.0
2025-01-18 10:08:59.849047	345.8	12.6	-94.7	0.0
2025-01-18 10:09:00.968982	345.6	12.7	-94.7	0.0
2025-01-18 10:09:02.089703	345.5	12.7	-94.6	0.0
2025-01-18 10:09:03.210819	345.3	12.8	-94.9	0.0
2025-01-18 10:09:04.335290	345.1	12.8	-94.6	0.0
2025-01-18 10:09:05.455480	344.9	12.9	-94.6	0.0
2025-01-18 10:09:06.576461	344.7	13.0	-94.6	0.0
2025-01-18 10:09:07.696741	344.5	13.0	-94.8	0.0
2025-01-18 10:09:08.817361	344.3	13.1	-94.8	0.0
2025-01-18 10:09:09.938444	344.1	13.1	-94.7	0.0
2025-01-18 10:09:11.059789	343.9	13.2	-94.6	0.0
2025-01-18 10:09:12.179204	343.7	13.2	-94.9	0.0
2025-01-18 10:09:13.301645	343.5	13.3	-94.8	0.0
2025-01-18 10:09:14.422979	343.3	13.3	-94.7	0.0
2025-01-18 10:09:15.543026	343.1	13.4	-94.6	0.0
2025-01-18 10:09:16.662968	342.9	13.4	-94.6	0.0
2025-01-18 10:09:17.783341	342.7	13.5	-94.7	0.0
2025-01-18 10:09:18.904284	342.5	13.5	-94.4	0.0
2025-01-18 10:09:20.025310	342.3	13.6	-94.8	0.0
2025-01-18 10:09:21.145730	342.1	13.6	-94.7	0.0
2025-01-18 10:09:22.265345	341.9	13.6	-94.9	0.0
2025-01-18 10:09:23.386658	341.7	13.7	-94.9	0.0
2025-01-18 10:09:24.506905	341.5	13.7	-94.7	0.0
2025-01-18 10:09:25.626762	341.3	13.8	-95.0	0.0
2025-01-18 10:09:26.746638	341.1	13.8	-94.9	0.0
2025-01-18 10:09:27.868565	340.9	13.9	-94.9	0.0
2025-01-18 10:09:28.989963	340.7	13.9	-94.9	0.0
2025-01-18 10:09:30.111503	340.5	14.0	-94.8	0.0
2025-01-18 10:09:31.232088	340.3	14.0	-94.6	0.0
2025-01-18 10:09:32.353687	340.1	14.1	-94.9	0.0
2025-01-18 10:09:33.476863	339.9	14.1	-94.9	0.0
2025-01-18 10:09:34.597798	339.7	14.2	-94.7	0.0
2025-01-18 10:09:35.717945	339.5	14.2	-94.7	0.0
2025-01-18 10:09:36.837471	339.3	14.3	-94.9	0.0
2025-01-18 10:09:37.959839	339.0	14.3	-94.9	0.0
2025-01-18 10:09:39.081495	338.8	14.3	-94.8	0.0
2025-01-18 10:09:40.204048	338.6	14.4	-94.8	0.0
2025-01-18 10:09:41.324441	338.4	14.4	-95.0	0.0
2025-01-18 10:09:42.445189	338.2	14.5	-95.1	0.0
2025-01-18 10:09:43.570825	338.0	14.5	-94.9	0.0
2025-01-18 10:09:44.690846	337.8	14.6	-94.8	0.0
2025-01-18 10:09:45.812433	337.5	14.6	-94.9	0.0
2025-01-18 10:09:46.934089	337.3	14.6	-94.7	0.0
2025-01-18 10:09:48.053539	337.1	14.7	-94.9	0.0
2025-01-18 10:09:49.175641	336.9	14.7	-95.0	0.0
2025-01-18 10:09:50.296100	336.7	14.8	-94.9	0.0
2025-01-18 10:09:51.419761	336.5	14.8	-94.8	0.0
2025-01-18 10:09:52.538916	336.2	14.8	-94.7	0.0
2025-01-18 10:09:53.659870	336.0	14.9	-95.1	0.0
2025-01-18 10:09:54.781227	335.8	14.9	-94.8	0.0
2025-01-18 10:09:55.903272	335.6	15.0	-94.8	0.0
2025-01-18 10:09:57.025601	335.4	15.0	-94.9	0.0
2025-01-18 10:09:58.146529	335.1	15.0	-94.8	0.0
2025-01-18 10:09:59.267658	334.9	15.1	-94.6	0.0
2025-01-18 10:10:00.389086	334.7	15.1	-94.8	0.0
2025-01-18 10:10:01.511089	334.5	15.1	-94.7	0.0
2025-01-18 10:10:02.633576	334.3	15.2	-94.7	0.0
2025-01-18 10:10:03.755002	334.0	15.2	-94.6	0.0
2025-01-18 10:10:04.875508	333.8	15.3	-94.8	0.0
2025-01-18 10:10:05.998647	333.6	15.3	-94.9	0.0
2025-01-18 10:10:07.118527	333.4	15.3	-94.6	0.0
2025-01-18 10:10:08.240034	333.1	15.4	-94.7	0.0
2025-01-18 10:10:09.363976	332.9	15.4	-94.6	0.0
2025-01-18 10:10:10.484189	332.7	15.4	-94.6	0.0
2025-01-18 10:10:11.605510	332.4	15.5	-95.0	0.0
2025-01-18 10:10:12.729822	332.2	15.5	-95.0	0.0
2025-01-18 10:10:13.850877	332.0	15.5	-94.9	0.0
2025-01-18 10:10:14.971839	331.8	15.6	-94.8	0.0
2025-01-18 10:10:16.094325	331.5	15.6	-94.8	0.0
2025-01-18 10:10:17.216144	331.3	15.6	-95.1	0.0
2025-01-18 10:10:18.337105	331.1	15.7	-94.8	0.0
2025-01-18 10:10:19.457597	330.8	15.7	-94.7	0.0
2025-01-18 10:10:20.577956	330.6	15.7	-95.0	0.0
2025-01-18 10:10:21.697816	330.4	15.7	-95.0	0.0
2025-01-18 10:10:22.816612	330.1	15.8	-94.9	0.0
2025-01-18 10:10:23.938054	329.9	15.8	-94.9	0.0
2025-01-18 10:10:25.058423	329.7	15.8	-94.8	0.0
2025-01-18 10:10:26.179203	329.4	15.9	-94.8	0.0
2025-01-18 10:10:27.301670	329.2	15.9	-94.9	0.0
2025-01-18 10:10:28.423022	329.0	15.9	-94.8	0.0
2025-01-18 10:10:29.545399	328.7	15.9	-94.5	0.0
2025-01-18 10:10:30.667666	328.5	16.0	-94.7	0.0
2025-01-18 10:10:31.788285	328.3	16.0	-94.6	0.0
2025-01-18 10:10:32.910918	328.0	16.0	-94.6	0.0
2025-01-18 10:10:34.032918	327.8	16.0	-94.6	0.0
2025-01-18 10:10:35.152316	327.6	16.1	-94.6	0.0
2025-01-18 10:10:36.274864	327.3	16.1	-94.4	0.0
2025-01-18 10:10:37.395378	327.1	16.1	-94.4	0.0
2025-01-18 10:10:38.516124	326.8	16.1	-94.7	0.0
2025-01-18 10:10:39.638816	326.6	16.2	-94.8	0.0
2025-01-18 10:10:40.759883	326.4	16.2	-94.7	0.0
2025-01-18 10:10:41.880302	326.1	16.2	-94.4	0.0
2025-01-18 10:10:43.002142	325.9	16.2	-94.4	0.0
2025-01-18 10:10:44.122806	325.6	16.2	-95.0	0.0
2025-01-18 10:10:45.242837	325.4	16.3	-94.8	0.0
2025-01-18 10:10:46.365504	325.2	16.3	-94.5	0.0
2025-01-18 10:10:47.484865	324.9	16.3	-94.8	0.0
2025-01-18 10:10:48.604681	324.7	16.3	-94.5	0.0
2025-01-18 10:10:49.723945	324.4	16.3	-94.6	0.0
2025-01-18 10:10:50.844917	324.2	16.3	-94.6	0.0
2025-01-18 10:10:51.965326	324.0	16.4	-94.7	0.0
2025-01-18 10:10:53.083583	323.7	16.4	-94.6	0.0
2025-01-18 10:10:54.205893	323.5	16.4	-94.4	0.0
2025-01-18 10:10:55.326829	323.2	16.4	-94.7	0.0
2025-01-18 10:10:56.449594	323.0	16.4	-94.7	0.0
2025-01-18 10:10:57.571787	322.7	16.4	-94.9	0.0
2025-01-18 10:10:58.693016	322.5	16.5	-94.7	0.0
2025-01-18 10:10:59.816816	322.2	16.5	-94.7	0.0
2025-01-18 10:11:00.938880	322.0	16.5	-95.0	0.0
2025-01-18 10:11:02.059884	321.8	16.5	-94.9	0.0
2025-01-18 10:11:03.183643	321.5	16.5	-94.9	0.0
2025-01-18 10:11:04.305939	321.3	16.5	-94.6	0.0
2025-01-18 10:11:05.426831	321.0	16.5	-94.8	0.0
2025-01-18 10:11:06.548157	320.8	16.5	-95.0	0.0
2025-01-18 10:11:07.667990	320.5	16.5	-94.8	0.0
2025-01-18 10:11:08.788652	320.3	16.6	-94.5	0.0
2025-01-18 10:11:09.910815	320.0	16.6	-94.5	0.0
2025-01-18 10:11:11.032802	319.8	16.6	-94.8	0.0
2025-01-18 10:11:12.154703	319.6	16.6	-94.9	0.0
2025-01-18 10:11:13.276987	319.3	16.6	-94.9	0.0
2025-01-18 10:11:14.396753	319.1	16.6	-94.7	0.0
2025-01-18 10:11:15.515790	318.8	16.6	-94.8	0.0
2025-01-18 10:11:16.637442	318.6	16.6	-94.9	0.0
2025-01-18 10:11:17.757159	318.3	16.6	-94.7	0.0
2025-01-18 10:11:18.880091	318.1	16.6	-94.7	0.0
2025-01-18 10:11:20.001778	317.8	16.6	-94.7	0.0
2025-01-18 10:11:21.121722	317.6	16.6	-95.0	0.0
2025-01-18 10:11:22.243530	317.3	16.6	-94.8	0.0
2025-01-18 10:11:23.365442	317.1	16.6	-94.7	0.0
2025-01-18 10:11:24.485909	316.8	16.6	-94.8	0.0
2025-01-18 10:11:25.607258	316.6	16.6	-94.7	0.0
2025-01-18 10:11:26.728646	316.4	16.6	-94.9	0.0
2025-01-18 10:11:27.850834	316.1	16.6	-94.7	0.0
2025-01-18 10:11:28.971072	315.9	16.6	-94.8	0.0
2025-01-18 10:11:30.090700	315.6	16.6	-94.8	0.0
2025-01-18 10:11:31.211696	315.4	16.6	-94.6	0.0
2025-01-18 10:11:32.333497	315.1	16.6	-94.9	0.0
2025-01-18 10:11:33.453410	314.9	16.6	-94.8	0.0
2025-01-18 10:11:34.574336	314.6	16.6	-94.9	0.0
2025-01-18 10:11:35.694762	314.4	16.6	-94.6	0.0
2025-01-18 10:11:36.815364	314.1	16.6	-94.6	0.0
2025-01-18 10:11:37.935565	313.9	16.6	-94.8	0.0
2025-01-18 10:11:39.054939	313.6	16.6	-94.8	0.0
2025-01-18 10:11:40.175525	313.4	16.6	-94.7	0.0
2025-01-18 10:11:41.298894	313.2	16.6	-94.5	0.0
2025-01-18 10:11:42.419849	312.9	16.6	-94.8	0.0
2025-01-18 10:11:43.540279	312.7	16.6	-94.8	0.0
2025-01-18 10:11:44.658519	312.4	16.5	-94.7	0.0
2025-01-18 10:11:45.778867	312.2	16.5	-94.9	0.0
2025-01-18 10:11:46.900528	311.9	16.5	-94.7	0.0
2025-01-18 10:11:48.019397	311.7	16.5	-94.9	0.0
2025-01-18 10:11:49.141688	311.4	16.5	-94.7	0.0
2025-01-18 10:11:50.261969	311.2	16.5	-94.9	0.0
2025-01-18 10:11:51.383335	310.9	16.5	-94.7	0.0
2025-01-18 10:11:52.505331	310.7	16.5	-94.8	0.0
2025-01-18 10:11:53.625777	310.5	16.5	-94.7	0.0
2025-01-18 10:11:54.747453	310.2	16.4	-94.8	0.0
2025-01-18 10:11:55.869959	310.0	16.4	-94.8	0.0
2025-01-18 10:11:56.992034	309.7	16.4	-94.9	0.0
2025-01-18 10:11:58.114757	309.5	16.4	-94.9	0.0
2025-01-18 10:11:59.235184	309.2	16.4	-94.8	0.0
2025-01-18 10:12:00.357070	309.0	16.4	-94.9	0.0
2025-01-18 10:12:01.478389	308.8	16.4	-94.9	0.0
2025-01-18 10:12:02.599377	308.5	16.3	-94.8	0.0
2025-01-18 10:12:03.719889	308.3	16.3	-94.7	0.0
2025-01-18 10:12:04.841394	308.0	16.3	-95.1	0.0
2025-01-18 10:12:05.964512	307.8	16.3	-95.2	0.0
2025-01-18 10:12:07.086544	307.5	16.3	-94.8	0.0
2025-01-18 10:12:08.207990	307.3	16.2	-95.0	0.0
2025-01-18 10:12:09.327312	307.1	16.2	-95.0	0.0
2025-01-18 10:12:10.448095	306.8	16.2	-95.2	0.0
2025-01-18 10:12:11.570020	306.6	16.2	-95.1	0.0
2025-01-18 10:12:12.689968	306.3	16.2	-94.8	0.0
2025-01-18 10:12:13.811274	306.1	16.1	-94.9	0.0
2025-01-18 10:12:14.934054	305.9	16.1	-94.9	0.0
2025-01-18 10:12:16.055047	305.6	16.1	-94.9	0.0
2025-01-18 10:12:17.175453	305.4	16.1	-95.0	0.0
2025-01-18 10:12:18.298978	305.2	16.1	-94.9	0.0
2025-01-18 10:12:19.419737	304.9	16.0	-95.2	0.0
2025-01-18 10:12:20.541563	304.7	16.0	-94.7	0.0
2025-01-18 10:12:21.661985	304.4	16.0	-94.6	0.0
2025-01-18 10:12:22.782027	304.2	16.0	-94.7	0.0
2025-01-18 10:12:23.902942	304.0	15.9	-95.1	0.0
2025-01-18 10:12:25.024956	303.7	15.9	-95.0	0.0
2025-01-18 10:12:26.144957	303.5	15.9	-94.5	0.0
2025-01-18 10:12:27.266802	303.3	15.8	-94.7	0.0
2025-01-18 10:12:28.386553	303.0	15.8	-94.8	0.0
2025-01-18 10:12:29.506928	302.8	15.8	-94.4	0.0
2025-01-18 10:12:30.628346	302.6	15.8	-94.9	0.0
2025-01-18 10:12:31.749503	302.3	15.7	-94.7	0.0
2025-01-18 10:12:32.869478	302.1	15.7	-94.8	0.0
2025-01-18 10:12:33.990002	301.9	15.7	-94.9	0.0
2025-01-18 10:12:35.111107	301.6	15.6	-94.6	0.0
2025-01-18 10:12:36.232901	301.4	15.6	-94.8	0.0
2025-01-18 10:12:37.354452	301.2	15.6	-94.8	0.0
2025-01-18 10:12:38.478059	301.0	15.5	-94.9	0.0
2025-01-18 10:12:39.600026	300.7	15.5	-95.1	0.0
2025-01-18 10:12:40.720225	300.5	15.5	-94.5	0.0
2025-01-18 10:12:41.841587	300.3	15.4	-94.8	0.0
2025-01-18 10:12:42.961954	300.0	15.4	-94.6	0.0
2025-01-18 10:12:44.083927	299.8	15.4	-95.1	0.0
2025-01-18 10:12:45.205183	299.6	15.3	-95.0	0.0
2025-01-18 10:12:46.326929	299.4	15.3	-95.1	0.0
2025-01-18 10:12:47.446159	299.1	15.3	-94.8	0.0
2025-01-18 10:12:48.567023	298.9	15.2	-94.8	0.0
2025-01-18 10:12:49.687196	298.7	15.2	-95.1	0.0
2025-01-18 10:12:50.808446	298.5	15.2	-95.1	0.0
2025-01-18 10:12:51.931158	298.2	15.1	-94.9	0.0
2025-01-18 10:12:53.050489	298.0	15.1	-94.8	0.0
2025-01-18 10:12:54.174044	297.8	15.1	-95.1	0.0
2025-01-18 10:12:55.293763	297.6	15.0	-95.0	0.0
2025-01-18 10:12:56.417692	297.3	15.0	-94.6	0.0
2025-01-18 10:12:57.537837	297.1	14.9	-94.9	0.0
2025-01-18 10:12:58.659704	296.9	14.9	-94.8	0.0
2025-01-18 10:12:59.783965	296.7	14.9	-94.7	0.0
2025-01-18 10:13:00.904951	296.5	14.8	-94.9	0.0
2025-01-18 10:13:02.024314	296.3	14.8	-94.8	0.0
2025-01-18 10:13:03.145336	296.0	14.7	-94.9	0.0
2025-01-18 10:13:04.265820	295.8	14.7	-94.6	0.0
2025-01-18 10:13:05.386849	295.6	14.7	-94.8	0.0
2025-01-18 10:13:06.509780	295.4	14.6	-95.0	0.0
2025-01-18 10:13:07.630167	295.2	14.6	-94.9	0.0
2025-01-18 10:13:08.750997	295.0	14.5	-94.5	0.0
2025-01-18 10:13:09.870906	294.7	14.5	-94.8	0.0
2025-01-18 10:13:10.989989	294.5	14.4	-94.7	0.0
2025-01-18 10:13:12.111112	294.3	14.4	-94.7	0.0
2025-01-18 10:13:13.234906	294.1	14.4	-94.9	0.0
2025-01-18 10:13:14.354203	293.9	14.3	-94.7	0.0
2025-01-18 10:13:15.476071	293.7	14.3	-94.5	0.0
2025-01-18 10:13:16.597274	293.5	14.2	-94.6	0.0
2025-01-18 10:13:17.718584	293.3	14.2	-94.6	0.0
2025-01-18 10:13:18.839886	293.1	14.1	-94.9	0.0
2025-01-18 10:13:19.962019	292.8	14.1	-94.9	0.0
2025-01-18 10:13:21.083291	292.6	14.0	-94.7	0.0
2025-01-18 10:13:22.205555	292.4	14.0	-94.5	0.0
2025-01-18 10:13:23.325982	292.2	14.0	-94.8	0.0
2025-01-18 10:13:24.446265	292.0	13.9	-95.1	0.0
2025-01-18 10:13:25.568340	291.8	13.9	-94.9	0.0
2025-01-18 10:13:26.689513	291.6	13.8	-94.8	0.0
2025-01-18 10:13:27.811840	291.4	13.8	-95.0	0.0
2025-01-18 10:13:28.934240	291.2	13.7	-95.1	0.0
2025-01-18 10:13:30.055745	291.0	13.7	-94.9	0.0
2025-01-18 10:13:31.177811	290.8	13.6	-94.7	0.0
2025-01-18 10:13:32.299154	290.6	13.6	-94.8	0.0
2025-01-18 10:13:33.420029	290.4	13.5	-94.9	0.0
2025-01-18 10:13:34.543169	290.2	13.5	-94.9	0.0
2025-01-18 10:13:35.666122	290.0	13.4	-95.0	0.0
2025-01-18 10:13:36.788299	289.8	13.4	-94.9	0.0
2025-01-18 10:13:37.907787	289.6	13.3	-94.8	0.0
2025-01-18 10:13:39.030695	289.4	13.3	-95.0	0.0
2025-01-18 10:13:40.152980	289.2	13.2	-95.0	0.0
2025-01-18 10:13:41.272007	289.0	13.2	-94.8	0.0
2025-01-18 10:13:42.390552	288.8	13.1	-94.9	0.0
2025-01-18 10:13:43.511170	288.6	13.1	-94.8	0.0
2025-01-18 10:13:44.632419	288.4	13.0	-95.0	0.0
2025-01-18 10:13:45.752690	288.2	13.0	-94.9	0.0
2025-01-18 10:13:46.873027	288.0	12.9	-94.9	0.0
2025-01-18 10:13:47.995056	287.8	12.9	-94.9	0.0
2025-01-18 10:13:49.117120	287.7	12.8	-95.0	0.0
2025-01-18 10:13:50.241226	287.5	12.8	-94.9	0.0
2025-01-18 10:13:51.362013	287.3	12.7	-94.9	0.0
2025-01-18 10:13:52.482241	287.1	12.7	-94.9	0.0
2025-01-18 10:13:53.604544	286.9	12.6	-94.9	0.0
2025-01-18 10:13:54.725379	286.7	12.6	-95.0	0.0
2025-01-18 10:13:55.845822	286.5	12.5	-95.0	0.0
2025-01-18 10:13:56.966597	286.3	12.5	-94.9	0.0
2025-01-18 10:13:58.087836	286.2	12.4	-94.8	0.0
2025-01-18 10:13:59.209827	286.0	12.3	-94.8	0.0
2025-01-18 10:14:00.331242	285.8	12.3	-94.9	0.0
2025-01-18 10:14:01.451392	285.6	12.2	-94.9	0.0
2025-01-18 10:14:02.572362	285.4	12.2	-94.9	0.0
2025-01-18 10:14:03.692006	285.2	12.1	-94.7	0.0
2025-01-18 10:14:04.810693	285.1	12.1	-94.8	0.0
2025-01-18 10:14:05.930429	284.9	12.0	-95.0	0.0
2025-01-18 10:14:07.052930	284.7	12.0	-94.9	0.0
2025-01-18 10:14:08.175369	284.5	11.9	-95.0	0.0
2025-01-18 10:14:09.296133	284.3	11.9	-94.9	0.0
2025-01-18 10:14:10.415229	284.2	11.8	-94.9	0.0
2025-01-18 10:14:11.539430	284.0	11.8	-94.7	0.0
2025-01-18 10:14:12.661075	283.8	11.7	-94.6	0.0
2025-01-18 10:14:13.782550	283.6	11.6	-94.7	0.0
2025-01-18 10:14:14.903072	283.4	11.6	-94.8	0.0
2025-01-18 10:14:16.022032	283.3	11.5	-94.8	0.0
2025-01-18 10:14:17.144092	283.1	11.5	-94.7	0.0
2025-01-18 10:14:18.264032	282.9	11.4	-94.8	0.0
2025-01-18 10:14:19.384878	282.8	11.4	-94.8	0.0
2025-01-18 10:14:20.506989	282.6	11.3	-94.7	0.0
2025-01-18 10:14:21.629260	282.4	11.2	-94.8	0.0
2025-01-18 10:14:22.748048	282.2	11.2	-95.0	0.0
2025-01-18 10:14:23.868863	282.1	11.1	-94.8	0.0
2025-01-18 10:14:24.988846	281.9	11.1	-94.9	0.0
2025-01-18 10:14:26.109990	281.7	11.0	-94.8	0.0
2025-01-18 10:14:27.233234	281.6	11.0	-94.9	0.0
2025-01-18 10:14:28.354414	281.4	10.9	-94.9	0.0
2025-01-18 10:14:29.475238	281.2	10.8	-94.9	0.0
2025-01-18 10:14:30.597448	281.1	10.8	-94.7	0.0
2025-01-18 10:14:31.719793	280.9	10.7	-94.9	0.0
2025-01-18 10:14:32.839734	280.7	10.7	-95.1	0.0
2025-01-18 10:14:33.960847	280.6	10.6	-95.1	0.0
2025-01-18 10:14:35.080091	280.4	10.6	-94.7	0.0
2025-01-18 10:14:36.202796	280.2	10.5	-95.0	0.0
2025-01-18 10:14:37.325019	280.1	10.4	-95.1	0.0
2025-01-18 10:14:38.448362	279.9	10.4	-95.2	0.0
2025-01-18 10:14:39.568846	279.7	10.3	-94.9	0.0
2025-01-18 10:14:40.690721	279.6	10.3	-95.0	0.0
2025-01-18 10:14:41.814054	279.4	10.2	-95.1	0.0
2025-01-18 10:14:42.934475	279.3	10.2	-95.0	0.0
2025-01-18 10:14:44.055974	279.1	10.1	-94.7	0.0
#Closed at: 2025-01-18 10:08:02.220524