passes_logs/2025/01/18/planumMaritime01/planumMaritime01__20250118_184404_NOAA_18_rec.log

#Pass ID: 20250118_184404_NOAA 18
#Satellite: NOAA 18
#Configuration: NOAA 18
#Start time: 2025-01-18 18:44:09.813460

#LorettStation: 1.0.0 05.05.2024
#Station: planumMaritime01
#Location: 37.49445 lon 55.92918 lat
#TLE: 1 28654U 05018A   25018.13582066  .00000389  00000+0  23006-3 0  9999
#TLE: 2 28654  98.8561  99.1591 0014505 170.4027 189.7425 14.13489305 13620

#Time	Az	El	Level	SNR
2025-01-18 18:44:11.971416	141.7	10.2	-94.6	0.0
2025-01-18 18:44:14.212806	141.7	10.4	-94.7	0.0
2025-01-18 18:44:16.452632	141.6	10.6	-94.4	0.0
2025-01-18 18:44:18.693482	141.5	10.8	-94.8	0.0
2025-01-18 18:44:20.936225	141.4	11.0	-94.7	0.0
2025-01-18 18:44:23.180586	141.3	11.2	-94.5	0.0
2025-01-18 18:44:25.421923	141.2	11.3	-94.6	0.0
2025-01-18 18:44:27.666493	141.1	11.5	-94.5	0.0
2025-01-18 18:44:29.909259	141.0	11.7	-94.4	0.0
2025-01-18 18:44:32.151612	141.0	12.0	-94.4	0.0
2025-01-18 18:44:34.392333	140.9	12.2	-94.4	0.0
2025-01-18 18:44:36.636086	140.8	12.4	-94.6	0.0
2025-01-18 18:44:38.879342	140.7	12.6	-94.6	0.0
2025-01-18 18:44:41.125290	140.6	12.8	-94.7	0.0
2025-01-18 18:44:43.367120	140.5	13.0	-94.9	0.0
2025-01-18 18:44:45.610649	140.4	13.2	-94.7	0.0
2025-01-18 18:44:47.851418	140.3	13.4	-94.9	0.0
2025-01-18 18:44:50.094182	140.1	13.6	-94.9	0.0
2025-01-18 18:44:52.337496	140.0	13.9	-94.8	0.0
2025-01-18 18:44:54.580588	139.9	14.1	-94.6	0.0
2025-01-18 18:44:56.820775	139.8	14.3	-94.6	0.0
2025-01-18 18:44:59.063380	139.7	14.5	-94.5	0.0
2025-01-18 18:45:01.305147	139.6	14.7	-94.4	0.0
2025-01-18 18:45:03.546733	139.5	15.0	-94.7	0.0
2025-01-18 18:45:05.791934	139.4	15.2	-94.3	0.0
2025-01-18 18:45:08.032276	139.2	15.4	-94.6	0.0
2025-01-18 18:45:10.275908	139.1	15.7	-94.4	0.0
2025-01-18 18:45:12.520695	139.0	15.9	-94.7	0.0
2025-01-18 18:45:14.761556	138.9	16.1	-94.5	0.0
2025-01-18 18:45:17.002708	138.7	16.4	-94.7	0.0
2025-01-18 18:45:19.246245	138.6	16.6	-94.7	0.0
2025-01-18 18:45:21.488580	138.5	16.9	-94.7	0.0
2025-01-18 18:45:23.734932	138.3	17.1	-94.7	0.0
2025-01-18 18:45:25.977913	138.2	17.4	-94.9	0.0
2025-01-18 18:45:28.218723	138.1	17.6	-94.7	0.0
2025-01-18 18:45:30.461419	137.9	17.9	-94.8	0.0
2025-01-18 18:45:32.704067	137.8	18.1	-94.7	0.0
2025-01-18 18:45:34.948593	137.6	18.4	-94.7	0.0
2025-01-18 18:45:37.191764	137.5	18.6	-94.7	0.0
2025-01-18 18:45:39.435895	137.3	18.9	-94.9	0.0
2025-01-18 18:45:41.677650	137.2	19.2	-94.8	0.0
2025-01-18 18:45:43.922501	137.0	19.4	-94.8	0.0
2025-01-18 18:45:46.165442	136.9	19.7	-94.5	0.0
2025-01-18 18:45:48.405537	136.7	20.0	-94.8	0.0
2025-01-18 18:45:50.651336	136.5	20.3	-94.5	0.0
2025-01-18 18:45:52.895733	136.4	20.5	-94.6	0.0
2025-01-18 18:45:55.136403	136.2	20.8	-94.8	0.0
2025-01-18 18:45:57.380623	136.0	21.1	-94.8	0.0
2025-01-18 18:45:59.621417	135.8	21.4	-94.7	0.0
2025-01-18 18:46:01.861557	135.7	21.7	-94.7	0.0
2025-01-18 18:46:04.100499	135.5	22.0	-94.3	0.0
2025-01-18 18:46:06.342358	135.3	22.3	-94.7	0.0
2025-01-18 18:46:08.583398	135.1	22.6	-94.6	0.0
2025-01-18 18:46:10.826836	134.9	22.9	-94.7	0.0
2025-01-18 18:46:13.066283	134.7	23.2	-94.5	0.0
2025-01-18 18:46:15.307544	134.5	23.5	-94.6	0.0
2025-01-18 18:46:17.549903	134.3	23.8	-94.5	0.0
2025-01-18 18:46:19.794355	134.1	24.1	-95.0	0.0
2025-01-18 18:46:22.036792	133.9	24.4	-94.6	0.0
2025-01-18 18:46:24.279792	133.6	24.8	-95.0	0.0
2025-01-18 18:46:26.522599	133.4	25.1	-94.9	0.0
2025-01-18 18:46:28.767017	133.2	25.4	-94.9	0.0
2025-01-18 18:46:31.010429	132.9	25.7	-94.7	0.0
2025-01-18 18:46:33.250157	132.7	26.1	-94.8	0.0
2025-01-18 18:46:35.493088	132.4	26.4	-94.8	0.0
2025-01-18 18:46:37.734502	132.2	26.8	-94.5	0.0
2025-01-18 18:46:39.975923	131.9	27.1	-94.6	0.0
2025-01-18 18:46:42.217692	131.7	27.5	-94.7	0.0
2025-01-18 18:46:44.461219	131.4	27.8	-94.7	0.0
2025-01-18 18:46:46.706474	131.1	28.2	-94.5	0.0
2025-01-18 18:46:48.948537	130.8	28.5	-94.7	0.0
2025-01-18 18:46:51.192348	130.5	28.9	-94.8	0.0
2025-01-18 18:46:53.434598	130.2	29.3	-94.7	0.0
2025-01-18 18:46:55.677649	129.9	29.7	-94.7	0.0
2025-01-18 18:46:57.920295	129.6	30.0	-94.7	0.0
2025-01-18 18:47:00.160240	129.3	30.4	-95.0	0.0
2025-01-18 18:47:02.403361	129.0	30.8	-95.0	0.0
2025-01-18 18:47:04.645575	128.7	31.2	-94.7	0.0
2025-01-18 18:47:06.889956	128.3	31.6	-94.7	0.0
2025-01-18 18:47:09.132297	128.0	32.0	-95.0	0.0
2025-01-18 18:47:11.373830	127.6	32.4	-94.9	0.0
2025-01-18 18:47:13.617174	127.2	32.8	-94.8	0.0
2025-01-18 18:47:15.857055	126.9	33.2	-94.8	0.0
2025-01-18 18:47:18.100595	126.5	33.6	-94.7	0.0
2025-01-18 18:47:20.346332	126.1	34.1	-95.0	0.0
2025-01-18 18:47:22.588540	125.7	34.5	-94.6	0.0
2025-01-18 18:47:24.829113	125.2	34.9	-95.1	0.0
2025-01-18 18:47:27.072631	124.8	35.3	-94.8	0.0
2025-01-18 18:47:29.314903	124.4	35.8	-95.0	0.0
2025-01-18 18:47:31.558763	123.9	36.2	-94.8	0.0
2025-01-18 18:47:33.801215	123.4	36.7	-94.8	0.0
2025-01-18 18:47:36.045496	123.0	37.1	-94.5	0.0
2025-01-18 18:47:38.287265	122.5	37.6	-94.7	0.0
2025-01-18 18:47:40.529078	121.9	38.0	-94.7	0.0
2025-01-18 18:47:42.773845	121.4	38.5	-94.6	0.0
2025-01-18 18:47:45.014787	120.9	38.9	-94.9	0.0
2025-01-18 18:47:47.255847	120.3	39.4	-94.7	0.0
2025-01-18 18:47:49.501263	119.8	39.9	-94.8	0.0
2025-01-18 18:47:51.746567	119.2	40.3	-95.0	0.0
2025-01-18 18:47:53.989267	118.6	40.8	-95.0	0.0
2025-01-18 18:47:56.232550	117.9	41.3	-94.7	0.0
2025-01-18 18:47:58.479805	117.3	41.8	-94.6	0.0
2025-01-18 18:48:00.722244	116.6	42.2	-94.5	0.0
2025-01-18 18:48:02.966266	116.0	42.7	-94.8	0.0
2025-01-18 18:48:05.207084	115.3	43.2	-95.0	0.0
2025-01-18 18:48:07.450078	114.5	43.7	-94.5	0.0
2025-01-18 18:48:09.693513	113.8	44.2	-94.8	0.0
2025-01-18 18:48:11.934944	113.0	44.7	-94.6	0.0
2025-01-18 18:48:14.180927	112.2	45.1	-94.9	0.0
2025-01-18 18:48:16.423439	111.4	45.6	-94.9	0.0
2025-01-18 18:48:18.667725	110.6	46.1	-94.9	0.0
2025-01-18 18:48:20.911598	109.7	46.6	-94.8	0.0
2025-01-18 18:48:23.153450	108.8	47.1	-95.0	0.0
2025-01-18 18:48:25.394549	107.9	47.6	-94.8	0.0
2025-01-18 18:48:27.637484	106.9	48.0	-95.0	0.0
2025-01-18 18:48:29.878631	105.9	48.5	-94.6	0.0
2025-01-18 18:48:32.122581	104.9	49.0	-94.8	0.0
2025-01-18 18:48:34.364289	103.9	49.4	-94.8	0.0
2025-01-18 18:48:36.608703	102.8	49.9	-94.9	0.0
2025-01-18 18:48:38.850231	101.7	50.3	-94.9	0.0
2025-01-18 18:48:41.093282	100.5	50.8	-94.8	0.0
2025-01-18 18:48:43.333566	99.4	51.2	-94.7	0.0
2025-01-18 18:48:45.578859	98.2	51.6	-94.6	0.0
2025-01-18 18:48:47.820874	96.9	52.0	-94.6	0.0
2025-01-18 18:48:50.067398	95.6	52.4	-94.8	0.0
2025-01-18 18:48:52.310647	94.3	52.8	-94.4	0.0
2025-01-18 18:48:54.554574	93.0	53.2	-94.6	0.0
2025-01-18 18:48:56.795193	91.6	53.6	-95.1	0.0
2025-01-18 18:48:59.037533	90.2	53.9	-94.8	0.0
2025-01-18 18:49:01.280141	88.7	54.3	-94.7	0.0
2025-01-18 18:49:03.523330	87.2	54.6	-94.8	0.0
2025-01-18 18:49:05.765768	85.7	54.9	-94.9	0.0
2025-01-18 18:49:08.003730	84.2	55.1	-94.8	0.0
2025-01-18 18:49:10.245630	82.6	55.4	-94.9	0.0
2025-01-18 18:49:12.488539	81.0	55.6	-94.6	0.0
2025-01-18 18:49:14.729827	79.3	55.9	-94.8	0.0
2025-01-18 18:49:16.974837	77.7	56.0	-95.0	0.0
2025-01-18 18:49:19.215091	76.0	56.2	-94.8	0.0
2025-01-18 18:49:21.455561	74.3	56.4	-94.9	0.0
2025-01-18 18:49:23.698170	72.6	56.5	-95.0	0.0
2025-01-18 18:49:25.941152	70.9	56.6	-94.7	0.0
2025-01-18 18:49:28.183265	69.1	56.7	-95.0	0.0
2025-01-18 18:49:30.426986	67.4	56.7	-94.8	0.0
2025-01-18 18:49:32.671389	65.6	56.7	-94.6	0.0
2025-01-18 18:49:34.914837	63.9	56.7	-94.7	0.0
2025-01-18 18:49:37.155486	62.1	56.7	-94.8	0.0
2025-01-18 18:49:39.396594	60.4	56.6	-94.7	0.0
2025-01-18 18:49:41.641041	58.6	56.5	-94.7	0.0
2025-01-18 18:49:43.882175	56.9	56.4	-94.6	0.0
2025-01-18 18:49:46.122511	55.2	56.3	-94.7	0.0
2025-01-18 18:49:48.363751	53.5	56.1	-94.9	0.0
2025-01-18 18:49:50.609299	51.9	56.0	-95.0	0.0
2025-01-18 18:49:52.848026	50.2	55.8	-94.6	0.0
2025-01-18 18:49:55.092832	48.6	55.5	-94.7	0.0
2025-01-18 18:49:57.336479	47.0	55.3	-94.8	0.0
2025-01-18 18:49:59.578804	45.4	55.0	-94.8	0.0
2025-01-18 18:50:01.818693	43.9	54.7	-94.8	0.0
2025-01-18 18:50:04.065949	42.4	54.4	-94.9	0.0
2025-01-18 18:50:06.308457	40.9	54.1	-94.8	0.0
2025-01-18 18:50:08.551558	39.5	53.8	-95.0	0.0
2025-01-18 18:50:10.791934	38.1	53.4	-94.9	0.0
2025-01-18 18:50:13.031517	36.7	53.0	-94.8	0.0
2025-01-18 18:50:15.273245	35.4	52.7	-95.0	0.0
2025-01-18 18:50:17.516121	34.1	52.3	-94.9	0.0
2025-01-18 18:50:19.758838	32.8	51.9	-94.9	0.0
2025-01-18 18:50:22.003266	31.6	51.4	-94.9	0.0
2025-01-18 18:50:24.247048	30.4	51.0	-94.9	0.0
2025-01-18 18:50:26.490347	29.2	50.6	-94.8	0.0
2025-01-18 18:50:28.734011	28.1	50.1	-94.7	0.0
2025-01-18 18:50:30.976823	27.0	49.7	-94.6	0.0
2025-01-18 18:50:33.220219	25.9	49.2	-95.0	0.0
2025-01-18 18:50:35.462581	24.9	48.8	-94.6	0.0
2025-01-18 18:50:37.705633	23.9	48.3	-94.9	0.0
2025-01-18 18:50:39.947883	22.9	47.8	-94.9	0.0
2025-01-18 18:50:42.189816	22.0	47.4	-94.9	0.0
2025-01-18 18:50:44.433122	21.1	46.9	-94.9	0.0
2025-01-18 18:50:46.675989	20.2	46.4	-95.2	0.0
2025-01-18 18:50:48.918506	19.4	45.9	-95.1	0.0
2025-01-18 18:50:51.162840	18.5	45.4	-94.8	0.0
2025-01-18 18:50:53.404050	17.7	44.9	-95.2	0.0
2025-01-18 18:50:55.645308	16.9	44.5	-94.9	0.0
2025-01-18 18:50:57.888497	16.2	44.0	-94.6	0.0
2025-01-18 18:51:00.128606	15.4	43.5	-95.1	0.0
2025-01-18 18:51:02.370131	14.7	43.0	-95.1	0.0
2025-01-18 18:51:04.612326	14.0	42.5	-94.6	0.0
2025-01-18 18:51:06.854147	13.4	42.0	-94.9	0.0
2025-01-18 18:51:09.095323	12.7	41.6	-94.6	0.0
2025-01-18 18:51:11.335161	12.1	41.1	-95.0	0.0
2025-01-18 18:51:13.580279	11.5	40.6	-94.9	0.0
2025-01-18 18:51:15.820411	10.9	40.1	-94.7	0.0
2025-01-18 18:51:18.060929	10.3	39.7	-95.1	0.0
2025-01-18 18:51:20.302971	9.7	39.2	-94.7	0.0
2025-01-18 18:51:22.545423	9.2	38.7	-94.9	0.0
2025-01-18 18:51:24.785442	8.6	38.3	-94.9	0.0
2025-01-18 18:51:27.025450	8.1	37.8	-94.9	0.0
2025-01-18 18:51:29.266395	7.6	37.4	-94.9	0.0
2025-01-18 18:51:31.509327	7.1	36.9	-94.7	0.0
2025-01-18 18:51:33.750684	6.7	36.5	-94.6	0.0
2025-01-18 18:51:35.992497	6.2	36.0	-94.8	0.0
2025-01-18 18:51:38.236606	5.8	35.6	-94.8	0.0
2025-01-18 18:51:40.479411	5.3	35.2	-95.2	0.0
2025-01-18 18:51:42.720472	4.9	34.7	-95.1	0.0
2025-01-18 18:51:44.958495	4.5	34.3	-94.9	0.0
2025-01-18 18:51:47.199456	4.1	33.9	-94.8	0.0
2025-01-18 18:51:49.440498	3.7	33.5	-95.0	0.0
2025-01-18 18:51:51.686157	3.3	33.1	-95.1	0.0
2025-01-18 18:51:53.928900	2.9	32.6	-95.1	0.0
2025-01-18 18:51:56.172461	2.6	32.2	-95.1	0.0
2025-01-18 18:51:58.413105	2.2	31.8	-95.0	0.0
2025-01-18 18:52:00.656730	1.9	31.4	-94.8	0.0
2025-01-18 18:52:02.898816	1.5	31.0	-95.1	0.0
2025-01-18 18:52:05.139197	1.2	30.7	-95.0	0.0
2025-01-18 18:52:07.382153	0.9	30.3	-95.0	0.0
2025-01-18 18:52:09.622713	0.6	29.9	-94.9	0.0
2025-01-18 18:52:11.864463	0.2	29.5	-95.1	0.0
2025-01-18 18:52:14.108515	359.9	29.1	-94.8	0.0
2025-01-18 18:52:16.350482	359.7	28.8	-94.7	0.0
2025-01-18 18:52:18.593601	359.4	28.4	-94.9	0.0
2025-01-18 18:52:20.832936	359.1	28.0	-94.7	0.0
2025-01-18 18:52:23.077277	358.8	27.7	-94.7	0.0
2025-01-18 18:52:25.321482	358.5	27.3	-95.1	0.0
2025-01-18 18:52:27.561839	358.3	27.0	-94.6	0.0
2025-01-18 18:52:29.805703	358.0	26.6	-94.9	0.0
2025-01-18 18:52:32.046271	357.8	26.3	-94.9	0.0
2025-01-18 18:52:34.287333	357.5	26.0	-94.8	0.0
2025-01-18 18:52:36.529000	357.3	25.6	-94.9	0.0
2025-01-18 18:52:38.774034	357.1	25.3	-95.1	0.0
2025-01-18 18:52:41.013055	356.8	25.0	-95.1	0.0
2025-01-18 18:52:43.255239	356.6	24.6	-95.0	0.0
2025-01-18 18:52:45.495410	356.4	24.3	-94.7	0.0
2025-01-18 18:52:47.739508	356.2	24.0	-95.1	0.0
2025-01-18 18:52:49.983128	356.0	23.7	-95.1	0.0
2025-01-18 18:52:52.228114	355.8	23.4	-95.2	0.0
2025-01-18 18:52:54.470384	355.6	23.1	-95.0	0.0
2025-01-18 18:52:56.712347	355.4	22.8	-95.0	0.0
2025-01-18 18:52:58.953491	355.2	22.5	-95.0	0.0
2025-01-18 18:53:01.195468	355.0	22.2	-95.0	0.0
2025-01-18 18:53:03.440401	354.8	21.9	-95.1	0.0
2025-01-18 18:53:05.683053	354.6	21.6	-94.9	0.0
2025-01-18 18:53:07.922920	354.4	21.3	-94.5	0.0
2025-01-18 18:53:10.165278	354.3	21.0	-94.9	0.0
2025-01-18 18:53:12.406906	354.1	20.7	-94.9	0.0
2025-01-18 18:53:14.649806	353.9	20.4	-94.9	0.0
2025-01-18 18:53:16.892513	353.7	20.2	-95.0	0.0
2025-01-18 18:53:19.134667	353.6	19.9	-95.1	0.0
2025-01-18 18:53:21.378328	353.4	19.6	-95.1	0.0
2025-01-18 18:53:23.622928	353.3	19.3	-94.9	0.0
2025-01-18 18:53:25.866739	353.1	19.1	-94.9	0.0
2025-01-18 18:53:28.110843	353.0	18.8	-94.9	0.0
2025-01-18 18:53:30.351900	352.8	18.5	-94.9	0.0
2025-01-18 18:53:32.595214	352.7	18.3	-95.0	0.0
2025-01-18 18:53:34.838657	352.5	18.0	-95.2	0.0
2025-01-18 18:53:37.082439	352.4	17.8	-95.0	0.0
2025-01-18 18:53:39.322877	352.2	17.5	-94.9	0.0
2025-01-18 18:53:41.568187	352.1	17.3	-95.2	0.0
2025-01-18 18:53:43.807561	352.0	17.0	-95.1	0.0
2025-01-18 18:53:46.050532	351.8	16.8	-94.7	0.0
2025-01-18 18:53:48.290869	351.7	16.5	-94.9	0.0
2025-01-18 18:53:50.532577	351.6	16.3	-94.6	0.0
2025-01-18 18:53:52.774372	351.5	16.1	-95.1	0.0
2025-01-18 18:53:55.016237	351.3	15.8	-94.9	0.0
2025-01-18 18:53:57.261331	351.2	15.6	-94.9	0.0
2025-01-18 18:53:59.503358	351.1	15.3	-94.6	0.0
2025-01-18 18:54:01.746722	351.0	15.1	-94.7	0.0
2025-01-18 18:54:03.986493	350.9	14.9	-94.7	0.0
2025-01-18 18:54:06.228495	350.7	14.7	-94.7	0.0
2025-01-18 18:54:08.471882	350.6	14.4	-94.7	0.0
2025-01-18 18:54:10.714982	350.5	14.2	-94.6	0.0
2025-01-18 18:54:12.957198	350.4	14.0	-94.7	0.0
2025-01-18 18:54:15.199616	350.3	13.8	-95.2	0.0
2025-01-18 18:54:17.442117	350.2	13.6	-94.7	0.0
2025-01-18 18:54:19.685910	350.1	13.3	-95.2	0.0
2025-01-18 18:54:21.928503	350.0	13.1	-95.1	0.0
2025-01-18 18:54:24.173570	349.9	12.9	-95.0	0.0
2025-01-18 18:54:26.417756	349.8	12.7	-94.8	0.0
2025-01-18 18:54:28.661031	349.7	12.5	-94.5	0.0
2025-01-18 18:54:30.900199	349.6	12.3	-95.0	0.0
2025-01-18 18:54:33.142612	349.5	12.1	-94.6	0.0
2025-01-18 18:54:35.381916	349.4	11.9	-94.8	0.0
2025-01-18 18:54:37.624594	349.3	11.7	-94.6	0.0
2025-01-18 18:54:39.867326	349.2	11.5	-94.8	0.0
2025-01-18 18:54:42.110746	349.2	11.3	-94.9	0.0
2025-01-18 18:54:44.354412	349.1	11.1	-95.0	0.0
2025-01-18 18:54:46.593886	349.0	10.9	-94.8	0.0
2025-01-18 18:54:48.834752	348.9	10.7	-94.9	0.0
2025-01-18 18:54:51.076134	348.8	10.5	-94.7	0.0
2025-01-18 18:54:53.319567	348.7	10.3	-94.9	0.0
2025-01-18 18:54:55.559543	348.7	10.1	-94.7	0.0
#Closed at: 2025-01-18 18:44:04.815724