passes_logs/2025/01/18/planumMaritime01/planumMaritime01__20250118_202527_NOAA_18_rec.log

#Pass ID: 20250118_202527_NOAA 18
#Satellite: NOAA 18
#Configuration: NOAA 18
#Start time: 2025-01-18 20:25:32.463769

#LorettStation: 1.0.0 05.05.2024
#Station: planumMaritime01
#Location: 37.49445 lon 55.92918 lat
#TLE: 1 28654U 05018A   25018.13582066  .00000389  00000+0  23006-3 0  9999
#TLE: 2 28654  98.8561  99.1591 0014505 170.4027 189.7425 14.13489305 13620

#Time	Az	El	Level	SNR
2025-01-18 20:25:34.621454	202.5	10.2	-94.3	0.0
2025-01-18 20:25:36.863826	202.7	10.3	-94.5	0.0
2025-01-18 20:25:39.104592	202.9	10.5	-94.6	0.0
2025-01-18 20:25:41.347990	203.1	10.7	-94.3	0.0
2025-01-18 20:25:43.589741	203.3	10.8	-94.6	0.0
2025-01-18 20:25:45.832049	203.5	11.0	-94.3	0.0
2025-01-18 20:25:48.072723	203.7	11.2	-94.4	0.0
2025-01-18 20:25:50.314607	203.9	11.4	-94.8	0.0
2025-01-18 20:25:52.558035	204.1	11.5	-94.6	0.0
2025-01-18 20:25:54.798859	204.3	11.7	-94.6	0.0
2025-01-18 20:25:57.040119	204.5	11.9	-94.8	0.0
2025-01-18 20:25:59.283063	204.8	12.1	-94.8	0.0
2025-01-18 20:26:01.524879	205.0	12.2	-94.7	0.0
2025-01-18 20:26:03.765574	205.2	12.4	-94.8	0.0
2025-01-18 20:26:06.007141	205.5	12.6	-94.8	0.0
2025-01-18 20:26:08.249040	205.7	12.8	-94.8	0.0
2025-01-18 20:26:10.491624	205.9	13.0	-94.5	0.0
2025-01-18 20:26:12.733368	206.2	13.2	-94.6	0.0
2025-01-18 20:26:14.976550	206.4	13.3	-94.6	0.0
2025-01-18 20:26:17.222545	206.6	13.5	-94.5	0.0
2025-01-18 20:26:19.465497	206.9	13.7	-94.4	0.0
2025-01-18 20:26:21.704598	207.1	13.9	-94.5	0.0
2025-01-18 20:26:23.948384	207.4	14.1	-94.5	0.0
2025-01-18 20:26:26.193274	207.6	14.3	-94.5	0.0
2025-01-18 20:26:28.433386	207.9	14.5	-94.7	0.0
2025-01-18 20:26:30.675897	208.2	14.6	-94.5	0.0
2025-01-18 20:26:32.917033	208.4	14.8	-94.7	0.0
2025-01-18 20:26:35.159030	208.7	15.0	-94.7	0.0
2025-01-18 20:26:37.401451	209.0	15.2	-94.7	0.0
2025-01-18 20:26:39.640287	209.3	15.4	-94.8	0.0
2025-01-18 20:26:41.881444	209.5	15.6	-94.6	0.0
2025-01-18 20:26:44.123826	209.8	15.8	-94.7	0.0
2025-01-18 20:26:46.366122	210.1	16.0	-94.9	0.0
2025-01-18 20:26:48.610006	210.4	16.2	-94.8	0.0
2025-01-18 20:26:50.853978	210.7	16.4	-94.7	0.0
2025-01-18 20:26:53.096943	211.0	16.6	-94.9	0.0
2025-01-18 20:26:55.339629	211.3	16.8	-94.7	0.0
2025-01-18 20:26:57.580730	211.6	17.0	-94.4	0.0
2025-01-18 20:26:59.824026	211.9	17.2	-94.5	0.0
2025-01-18 20:27:02.065599	212.2	17.4	-94.7	0.0
2025-01-18 20:27:04.308316	212.5	17.6	-94.4	0.0
2025-01-18 20:27:06.551280	212.8	17.8	-94.6	0.0
2025-01-18 20:27:08.795484	213.2	18.0	-94.6	0.0
2025-01-18 20:27:11.037501	213.5	18.2	-94.5	0.0
2025-01-18 20:27:13.278534	213.8	18.4	-94.4	0.0
2025-01-18 20:27:15.524198	214.2	18.6	-94.8	0.0
2025-01-18 20:27:17.767140	214.5	18.9	-94.7	0.0
2025-01-18 20:27:20.006355	214.9	19.1	-94.6	0.0
2025-01-18 20:27:22.251753	215.2	19.3	-94.7	0.0
2025-01-18 20:27:24.497379	215.6	19.5	-94.8	0.0
2025-01-18 20:27:26.742306	215.9	19.7	-95.0	0.0
2025-01-18 20:27:28.988138	216.3	19.9	-95.0	0.0
2025-01-18 20:27:31.229249	216.7	20.1	-94.6	0.0
2025-01-18 20:27:33.472684	217.1	20.3	-94.9	0.0
2025-01-18 20:27:35.714003	217.4	20.5	-94.9	0.0
2025-01-18 20:27:37.958094	217.8	20.8	-94.8	0.0
2025-01-18 20:27:40.197526	218.2	21.0	-95.0	0.0
2025-01-18 20:27:42.438675	218.6	21.2	-94.7	0.0
2025-01-18 20:27:44.681011	219.0	21.4	-94.9	0.0
2025-01-18 20:27:46.923824	219.4	21.6	-94.8	0.0
2025-01-18 20:27:49.165166	219.8	21.8	-94.6	0.0
2025-01-18 20:27:51.406036	220.3	22.0	-94.9	0.0
2025-01-18 20:27:53.647431	220.7	22.3	-94.8	0.0
2025-01-18 20:27:55.891948	221.1	22.5	-94.6	0.0
2025-01-18 20:27:58.136459	221.5	22.7	-94.3	0.0
2025-01-18 20:28:00.379461	222.0	22.9	-94.7	0.0
2025-01-18 20:28:02.620686	222.4	23.1	-94.4	0.0
2025-01-18 20:28:04.861525	222.9	23.4	-94.3	0.0
2025-01-18 20:28:07.102683	223.4	23.6	-94.5	0.0
2025-01-18 20:28:09.345941	223.8	23.8	-94.4	0.0
2025-01-18 20:28:11.588797	224.3	24.0	-94.8	0.0
2025-01-18 20:28:13.829492	224.8	24.2	-95.0	0.0
2025-01-18 20:28:16.073221	225.3	24.4	-94.7	0.0
2025-01-18 20:28:18.312032	225.8	24.7	-94.8	0.0
2025-01-18 20:28:20.555653	226.3	24.9	-94.9	0.0
2025-01-18 20:28:22.795673	226.8	25.1	-95.0	0.0
2025-01-18 20:28:25.037171	227.3	25.3	-95.0	0.0
2025-01-18 20:28:27.280891	227.8	25.5	-94.7	0.0
2025-01-18 20:28:29.524832	228.3	25.7	-94.8	0.0
2025-01-18 20:28:31.768304	228.9	25.9	-94.8	0.0
2025-01-18 20:28:34.011090	229.4	26.1	-94.8	0.0
2025-01-18 20:28:36.255965	229.9	26.4	-94.7	0.0
2025-01-18 20:28:38.497891	230.5	26.6	-94.4	0.0
2025-01-18 20:28:40.738257	231.1	26.8	-94.8	0.0
2025-01-18 20:28:42.981920	231.6	27.0	-94.4	0.0
2025-01-18 20:28:45.223845	232.2	27.2	-94.7	0.0
2025-01-18 20:28:47.463564	232.8	27.4	-94.6	0.0
2025-01-18 20:28:49.705358	233.4	27.6	-94.6	0.0
2025-01-18 20:28:51.948830	234.0	27.8	-94.8	0.0
2025-01-18 20:28:54.193008	234.6	28.0	-94.9	0.0
2025-01-18 20:28:56.433546	235.2	28.2	-94.8	0.0
2025-01-18 20:28:58.674087	235.8	28.4	-95.0	0.0
2025-01-18 20:29:00.914621	236.4	28.6	-94.7	0.0
2025-01-18 20:29:03.156646	237.1	28.7	-95.0	0.0
2025-01-18 20:29:05.396975	237.7	28.9	-94.9	0.0
2025-01-18 20:29:07.639219	238.4	29.1	-95.0	0.0
2025-01-18 20:29:09.883056	239.0	29.3	-94.9	0.0
2025-01-18 20:29:12.129053	239.7	29.5	-94.9	0.0
2025-01-18 20:29:14.370139	240.3	29.6	-94.6	0.0
2025-01-18 20:29:16.612233	241.0	29.8	-95.0	0.0
2025-01-18 20:29:18.854973	241.7	30.0	-94.8	0.0
2025-01-18 20:29:21.096104	242.4	30.1	-94.8	0.0
2025-01-18 20:29:23.340100	243.1	30.3	-94.7	0.0
2025-01-18 20:29:25.582116	243.8	30.5	-94.8	0.0
2025-01-18 20:29:27.825025	244.5	30.6	-94.5	0.0
2025-01-18 20:29:30.069111	245.2	30.8	-94.8	0.0
2025-01-18 20:29:32.312054	246.0	30.9	-94.8	0.0
2025-01-18 20:29:34.554910	246.7	31.0	-94.8	0.0
2025-01-18 20:29:36.800945	247.4	31.2	-94.8	0.0
2025-01-18 20:29:39.038541	248.2	31.3	-94.9	0.0
2025-01-18 20:29:41.280691	248.9	31.4	-94.8	0.0
2025-01-18 20:29:43.522556	249.7	31.6	-94.9	0.0
2025-01-18 20:29:45.765517	250.4	31.7	-94.9	0.0
2025-01-18 20:29:48.005738	251.2	31.8	-94.8	0.0
2025-01-18 20:29:50.248524	252.0	31.9	-94.8	0.0
2025-01-18 20:29:52.491918	252.7	32.0	-95.0	0.0
2025-01-18 20:29:54.733645	253.5	32.1	-94.7	0.0
2025-01-18 20:29:56.978773	254.3	32.2	-94.9	0.0
2025-01-18 20:29:59.222178	255.1	32.3	-94.9	0.0
2025-01-18 20:30:01.463034	255.9	32.3	-94.9	0.0
2025-01-18 20:30:03.702944	256.7	32.4	-94.9	0.0
2025-01-18 20:30:05.943890	257.5	32.5	-94.8	0.0
2025-01-18 20:30:08.182312	258.3	32.5	-95.0	0.0
2025-01-18 20:30:10.424680	259.1	32.6	-94.8	0.0
2025-01-18 20:30:12.669294	259.9	32.7	-94.8	0.0
2025-01-18 20:30:14.913912	260.7	32.7	-94.6	0.0
2025-01-18 20:30:17.157992	261.5	32.7	-95.1	0.0
2025-01-18 20:30:19.401754	262.3	32.8	-94.9	0.0
2025-01-18 20:30:21.643175	263.1	32.8	-94.7	0.0
2025-01-18 20:30:23.885031	263.9	32.8	-95.0	0.0
2025-01-18 20:30:26.126702	264.7	32.8	-94.8	0.0
2025-01-18 20:30:28.367737	265.6	32.8	-94.8	0.0
2025-01-18 20:30:30.612071	266.4	32.8	-94.5	0.0
2025-01-18 20:30:32.854172	267.2	32.8	-94.7	0.0
2025-01-18 20:30:35.091791	268.0	32.8	-94.7	0.0
2025-01-18 20:30:37.333467	268.8	32.8	-94.9	0.0
2025-01-18 20:30:39.573371	269.6	32.8	-94.8	0.0
2025-01-18 20:30:41.814700	270.4	32.7	-94.7	0.0
2025-01-18 20:30:44.057339	271.3	32.7	-94.7	0.0
2025-01-18 20:30:46.300553	272.1	32.6	-94.7	0.0
2025-01-18 20:30:48.542124	272.9	32.6	-94.8	0.0
2025-01-18 20:30:50.785943	273.7	32.5	-94.6	0.0
2025-01-18 20:30:53.027003	274.5	32.5	-94.7	0.0
2025-01-18 20:30:55.268949	275.3	32.4	-94.5	0.0
2025-01-18 20:30:57.511360	276.1	32.3	-94.6	0.0
2025-01-18 20:30:59.756730	276.9	32.2	-94.7	0.0
2025-01-18 20:31:01.997841	277.6	32.2	-95.1	0.0
2025-01-18 20:31:04.240670	278.4	32.1	-95.0	0.0
2025-01-18 20:31:06.487049	279.2	32.0	-94.7	0.0
2025-01-18 20:31:08.727058	280.0	31.9	-95.1	0.0
2025-01-18 20:31:10.971465	280.7	31.7	-94.8	0.0
2025-01-18 20:31:13.215578	281.5	31.6	-94.8	0.0
2025-01-18 20:31:15.457920	282.3	31.5	-94.4	0.0
2025-01-18 20:31:17.699417	283.0	31.4	-94.7	0.0
2025-01-18 20:31:19.942576	283.7	31.3	-94.6	0.0
2025-01-18 20:31:22.186365	284.5	31.1	-94.6	0.0
2025-01-18 20:31:24.427492	285.2	31.0	-94.8	0.0
2025-01-18 20:31:26.669726	285.9	30.9	-94.7	0.0
2025-01-18 20:31:28.913582	286.7	30.7	-94.6	0.0
2025-01-18 20:31:31.158021	287.4	30.6	-94.9	0.0
2025-01-18 20:31:33.398244	288.1	30.4	-94.8	0.0
2025-01-18 20:31:35.640322	288.8	30.2	-95.0	0.0
2025-01-18 20:31:37.882736	289.5	30.1	-94.8	0.0
2025-01-18 20:31:40.126656	290.2	29.9	-95.0	0.0
2025-01-18 20:31:42.369946	290.9	29.8	-94.8	0.0
2025-01-18 20:31:44.616859	291.5	29.6	-94.9	0.0
2025-01-18 20:31:46.860065	292.2	29.4	-94.8	0.0
2025-01-18 20:31:49.101289	292.9	29.2	-94.8	0.0
2025-01-18 20:31:51.344942	293.5	29.0	-95.0	0.0
2025-01-18 20:31:53.589776	294.2	28.9	-95.0	0.0
2025-01-18 20:31:55.829457	294.8	28.7	-95.0	0.0
2025-01-18 20:31:58.073568	295.4	28.5	-94.9	0.0
2025-01-18 20:32:00.316743	296.0	28.3	-94.8	0.0
2025-01-18 20:32:02.555392	296.7	28.1	-94.9	0.0
2025-01-18 20:32:04.798786	297.3	27.9	-94.8	0.0
2025-01-18 20:32:07.039923	297.9	27.7	-94.8	0.0
2025-01-18 20:32:09.279705	298.5	27.5	-95.0	0.0
2025-01-18 20:32:11.518857	299.1	27.3	-94.9	0.0
2025-01-18 20:32:13.761272	299.6	27.1	-94.8	0.0
2025-01-18 20:32:16.000249	300.2	26.9	-95.0	0.0
2025-01-18 20:32:18.241962	300.8	26.7	-94.9	0.0
2025-01-18 20:32:20.486027	301.3	26.5	-94.9	0.0
2025-01-18 20:32:22.731283	301.9	26.3	-94.9	0.0
2025-01-18 20:32:24.973963	302.4	26.1	-94.8	0.0
2025-01-18 20:32:27.216003	303.0	25.9	-94.9	0.0
2025-01-18 20:32:29.459212	303.5	25.7	-94.9	0.0
2025-01-18 20:32:31.702031	304.0	25.4	-95.0	0.0
2025-01-18 20:32:33.944163	304.5	25.2	-95.1	0.0
2025-01-18 20:32:36.185787	305.0	25.0	-94.8	0.0
2025-01-18 20:32:38.426621	305.5	24.8	-94.9	0.0
2025-01-18 20:32:40.668422	306.0	24.6	-95.0	0.0
2025-01-18 20:32:42.910671	306.5	24.4	-95.0	0.0
2025-01-18 20:32:45.153103	307.0	24.2	-94.9	0.0
2025-01-18 20:32:47.394937	307.5	23.9	-95.1	0.0
2025-01-18 20:32:49.636084	308.0	23.7	-95.0	0.0
2025-01-18 20:32:51.880490	308.4	23.5	-95.0	0.0
2025-01-18 20:32:54.122465	308.9	23.3	-94.9	0.0
2025-01-18 20:32:56.364300	309.3	23.1	-94.8	0.0
2025-01-18 20:32:58.606892	309.8	22.9	-94.9	0.0
2025-01-18 20:33:00.849635	310.2	22.6	-94.8	0.0
2025-01-18 20:33:03.092785	310.7	22.4	-94.7	0.0
2025-01-18 20:33:05.335477	311.1	22.2	-94.8	0.0
2025-01-18 20:33:07.578203	311.5	22.0	-95.0	0.0
2025-01-18 20:33:09.818611	311.9	21.8	-94.6	0.0
2025-01-18 20:33:12.059650	312.3	21.6	-94.6	0.0
2025-01-18 20:33:14.304075	312.8	21.3	-95.1	0.0
2025-01-18 20:33:16.547109	313.2	21.1	-94.8	0.0
2025-01-18 20:33:18.789090	313.6	20.9	-95.1	0.0
2025-01-18 20:33:21.029939	313.9	20.7	-94.9	0.0
2025-01-18 20:33:23.270299	314.3	20.5	-94.8	0.0
2025-01-18 20:33:25.510873	314.7	20.3	-95.1	0.0
2025-01-18 20:33:27.751906	315.1	20.1	-94.9	0.0
2025-01-18 20:33:29.994962	315.5	19.9	-95.0	0.0
2025-01-18 20:33:32.234894	315.8	19.6	-94.9	0.0
2025-01-18 20:33:34.476712	316.2	19.4	-94.8	0.0
2025-01-18 20:33:36.718137	316.5	19.2	-95.3	0.0
2025-01-18 20:33:38.960529	316.9	19.0	-95.0	0.0
2025-01-18 20:33:41.204803	317.2	18.8	-95.2	0.0
2025-01-18 20:33:43.448952	317.6	18.6	-95.0	0.0
2025-01-18 20:33:45.693396	317.9	18.4	-95.0	0.0
2025-01-18 20:33:47.934719	318.2	18.2	-94.7	0.0
2025-01-18 20:33:50.178252	318.6	18.0	-94.7	0.0
2025-01-18 20:33:52.422281	318.9	17.8	-94.9	0.0
2025-01-18 20:33:54.666137	319.2	17.6	-94.9	0.0
2025-01-18 20:33:56.907568	319.5	17.4	-94.8	0.0
2025-01-18 20:33:59.151953	319.8	17.2	-94.9	0.0
2025-01-18 20:34:01.393203	320.2	17.0	-95.0	0.0
2025-01-18 20:34:03.632943	320.5	16.8	-95.0	0.0
2025-01-18 20:34:05.872434	320.8	16.6	-95.2	0.0
2025-01-18 20:34:08.114451	321.1	16.4	-94.9	0.0
2025-01-18 20:34:10.358227	321.4	16.2	-95.0	0.0
2025-01-18 20:34:12.597943	321.6	16.0	-94.9	0.0
2025-01-18 20:34:14.836627	321.9	15.8	-95.2	0.0
2025-01-18 20:34:17.080382	322.2	15.6	-95.0	0.0
2025-01-18 20:34:19.324097	322.5	15.4	-95.1	0.0
2025-01-18 20:34:21.563697	322.8	15.2	-94.9	0.0
2025-01-18 20:34:23.806430	323.0	15.0	-95.3	0.0
2025-01-18 20:34:26.049487	323.3	14.8	-95.0	0.0
2025-01-18 20:34:28.293787	323.6	14.6	-95.0	0.0
2025-01-18 20:34:30.538842	323.8	14.4	-94.8	0.0
2025-01-18 20:34:32.779602	324.1	14.3	-94.8	0.0
2025-01-18 20:34:35.022496	324.4	14.1	-94.7	0.0
2025-01-18 20:34:37.262403	324.6	13.9	-95.0	0.0
2025-01-18 20:34:39.506225	324.9	13.7	-94.6	0.0
2025-01-18 20:34:41.749352	325.1	13.5	-94.9	0.0
2025-01-18 20:34:43.995342	325.3	13.3	-94.8	0.0
2025-01-18 20:34:46.234223	325.6	13.1	-95.2	0.0
2025-01-18 20:34:48.475974	325.8	13.0	-94.8	0.0
2025-01-18 20:34:50.718250	326.1	12.8	-94.8	0.0
2025-01-18 20:34:52.958384	326.3	12.6	-94.9	0.0
2025-01-18 20:34:55.198015	326.5	12.4	-94.7	0.0
2025-01-18 20:34:57.436180	326.8	12.2	-94.7	0.0
2025-01-18 20:34:59.676691	327.0	12.1	-94.9	0.0
2025-01-18 20:35:01.921690	327.2	11.9	-95.1	0.0
2025-01-18 20:35:04.165038	327.4	11.7	-94.7	0.0
2025-01-18 20:35:06.408615	327.6	11.5	-95.1	0.0
2025-01-18 20:35:08.650777	327.9	11.4	-94.9	0.0
2025-01-18 20:35:10.892447	328.1	11.2	-95.1	0.0
2025-01-18 20:35:13.133239	328.3	11.0	-94.9	0.0
2025-01-18 20:35:15.375977	328.5	10.8	-94.9	0.0
2025-01-18 20:35:17.621937	328.7	10.7	-95.0	0.0
2025-01-18 20:35:19.860301	328.9	10.5	-95.0	0.0
2025-01-18 20:35:22.102215	329.1	10.3	-95.1	0.0
2025-01-18 20:35:24.341767	329.3	10.2	-95.0	0.0
2025-01-18 20:35:26.584188	329.5	10.0	-95.0	0.0
#Closed at: 2025-01-18 20:25:27.467562