passes_logs/2025/01/18/planumMaritime01/planumMaritime01__20250118_023710_METEOR-M2_2_rec.log

#Pass ID: 20250118_023710_METEOR-M2 2
#Satellite: METEOR-M2 2
#Configuration: METEOR-M2 2
#Start time: 2025-01-18 02:37:15.424475

#LorettStation: 1.0.0 05.05.2024
#Station: planumMaritime01
#Location: 37.49445 lon 55.92918 lat
#TLE: 1 44387U 19038A   25017.10552627  .00000225  00000+0  11761-3 0  9997
#TLE: 2 44387  98.8570 353.5196 0002279  75.7364 284.4068 14.24118150287836

#Time	Az	El	Level	SNR
2025-01-18 02:37:17.583545	11.1	10.2	-94.6	0.0
2025-01-18 02:37:19.824128	11.0	10.4	-94.7	0.0
2025-01-18 02:37:22.066313	10.9	10.6	-94.5	0.0
2025-01-18 02:37:24.305428	10.8	10.8	-94.7	0.0
2025-01-18 02:37:26.549327	10.7	11.0	-94.8	0.0
2025-01-18 02:37:28.790346	10.6	11.2	-94.5	0.0
2025-01-18 02:37:31.031703	10.5	11.4	-94.4	0.0
2025-01-18 02:37:33.274311	10.5	11.6	-94.5	0.0
2025-01-18 02:37:35.515716	10.4	11.8	-94.4	0.0
2025-01-18 02:37:37.759301	10.3	12.0	-94.4	0.0
2025-01-18 02:37:40.000936	10.2	12.2	-94.5	0.0
2025-01-18 02:37:42.244457	10.1	12.4	-94.3	0.0
2025-01-18 02:37:44.486484	10.0	12.6	-94.6	0.0
2025-01-18 02:37:46.727060	9.9	12.8	-94.4	0.0
2025-01-18 02:37:48.969365	9.8	13.0	-94.7	0.0
2025-01-18 02:37:51.210581	9.7	13.3	-94.6	0.0
2025-01-18 02:37:53.453192	9.5	13.5	-94.4	0.0
2025-01-18 02:37:55.694395	9.4	13.7	-94.7	0.0
2025-01-18 02:37:57.939103	9.3	13.9	-94.7	0.0
2025-01-18 02:38:00.182673	9.2	14.1	-95.0	0.0
2025-01-18 02:38:02.422456	9.1	14.4	-94.8	0.0
2025-01-18 02:38:04.664629	9.0	14.6	-94.5	0.0
2025-01-18 02:38:06.904017	8.9	14.8	-94.9	0.0
2025-01-18 02:38:09.146434	8.7	15.1	-94.6	0.0
2025-01-18 02:38:11.390022	8.6	15.3	-94.8	0.0
2025-01-18 02:38:13.632087	8.5	15.5	-94.7	0.0
2025-01-18 02:38:15.875939	8.4	15.8	-94.5	0.0
2025-01-18 02:38:18.118088	8.2	16.0	-94.7	0.0
2025-01-18 02:38:20.359461	8.1	16.3	-94.8	0.0
2025-01-18 02:38:22.604411	8.0	16.5	-94.8	0.0
2025-01-18 02:38:24.844703	7.8	16.7	-94.5	0.0
2025-01-18 02:38:27.087267	7.7	17.0	-94.6	0.0
2025-01-18 02:38:29.332996	7.6	17.2	-94.7	0.0
2025-01-18 02:38:31.575931	7.4	17.5	-94.9	0.0
2025-01-18 02:38:33.817059	7.3	17.8	-94.6	0.0
2025-01-18 02:38:36.058056	7.1	18.0	-94.5	0.0
2025-01-18 02:38:38.299140	7.0	18.3	-94.8	0.0
2025-01-18 02:38:40.540703	6.8	18.6	-94.6	0.0
2025-01-18 02:38:42.783274	6.6	18.8	-94.7	0.0
2025-01-18 02:38:45.025164	6.5	19.1	-94.6	0.0
2025-01-18 02:38:47.267706	6.3	19.4	-94.4	0.0
2025-01-18 02:38:49.512541	6.2	19.6	-94.6	0.0
2025-01-18 02:38:51.755315	6.0	19.9	-94.6	0.0
2025-01-18 02:38:53.998336	5.8	20.2	-94.7	0.0
2025-01-18 02:38:56.242192	5.6	20.5	-94.7	0.0
2025-01-18 02:38:58.483782	5.5	20.8	-94.9	0.0
2025-01-18 02:39:00.726209	5.3	21.1	-95.0	0.0
2025-01-18 02:39:02.968396	5.1	21.4	-94.9	0.0
2025-01-18 02:39:05.206804	4.9	21.7	-94.9	0.0
2025-01-18 02:39:07.447162	4.7	22.0	-94.9	0.0
2025-01-18 02:39:09.689872	4.5	22.3	-94.9	0.0
2025-01-18 02:39:11.933347	4.3	22.6	-95.0	0.0
2025-01-18 02:39:14.174796	4.1	22.9	-94.7	0.0
2025-01-18 02:39:16.418221	3.9	23.2	-95.1	0.0
2025-01-18 02:39:18.659604	3.7	23.5	-94.8	0.0
2025-01-18 02:39:20.901395	3.4	23.8	-95.1	0.0
2025-01-18 02:39:23.145109	3.2	24.2	-94.9	0.0
2025-01-18 02:39:25.384629	3.0	24.5	-94.8	0.0
2025-01-18 02:39:27.617622	2.7	24.8	-94.8	0.0
2025-01-18 02:39:29.863980	2.5	25.2	-94.7	0.0
2025-01-18 02:39:32.104159	2.3	25.5	-94.7	0.0
2025-01-18 02:39:34.348226	2.0	25.8	-94.4	0.0
2025-01-18 02:39:36.590513	1.7	26.2	-94.5	0.0
2025-01-18 02:39:38.832919	1.5	26.5	-94.5	0.0
2025-01-18 02:39:41.073801	1.2	26.9	-94.7	0.0
2025-01-18 02:39:43.312348	0.9	27.3	-94.6	0.0
2025-01-18 02:39:45.550701	0.7	27.6	-94.7	0.0
2025-01-18 02:39:47.792601	0.4	28.0	-94.6	0.0
2025-01-18 02:39:50.033281	0.1	28.4	-94.7	0.0
2025-01-18 02:39:52.270602	359.8	28.7	-94.7	0.0
2025-01-18 02:39:54.513314	359.5	29.1	-94.8	0.0
2025-01-18 02:39:56.755068	359.1	29.5	-94.9	0.0
2025-01-18 02:39:58.996230	358.8	29.9	-94.7	0.0
2025-01-18 02:40:01.239669	358.5	30.3	-94.7	0.0
2025-01-18 02:40:03.482430	358.1	30.7	-94.8	0.0
2025-01-18 02:40:05.726587	357.8	31.1	-94.7	0.0
2025-01-18 02:40:07.970025	357.4	31.5	-94.8	0.0
2025-01-18 02:40:10.211246	357.0	31.9	-94.9	0.0
2025-01-18 02:40:12.451494	356.7	32.3	-94.9	0.0
2025-01-18 02:40:14.695657	356.3	32.7	-94.8	0.0
2025-01-18 02:40:16.937392	355.9	33.2	-95.1	0.0
2025-01-18 02:40:19.180473	355.5	33.6	-94.8	0.0
2025-01-18 02:40:21.422825	355.0	34.0	-94.6	0.0
2025-01-18 02:40:23.669114	354.6	34.5	-95.0	0.0
2025-01-18 02:40:25.911501	354.1	34.9	-94.7	0.0
2025-01-18 02:40:28.156842	353.7	35.3	-94.8	0.0
2025-01-18 02:40:30.400601	353.2	35.8	-94.5	0.0
2025-01-18 02:40:32.644451	352.7	36.2	-94.5	0.0
2025-01-18 02:40:34.888660	352.2	36.7	-94.8	0.0
2025-01-18 02:40:37.131725	351.7	37.2	-94.8	0.0
2025-01-18 02:40:39.375843	351.2	37.6	-94.8	0.0
2025-01-18 02:40:41.619434	350.6	38.1	-94.9	0.0
2025-01-18 02:40:43.860569	350.1	38.6	-94.9	0.0
2025-01-18 02:40:46.101567	349.5	39.1	-94.7	0.0
2025-01-18 02:40:48.344662	348.9	39.5	-94.9	0.0
2025-01-18 02:40:50.586826	348.3	40.0	-94.9	0.0
2025-01-18 02:40:52.828435	347.6	40.5	-94.9	0.0
2025-01-18 02:40:55.070491	347.0	41.0	-94.7	0.0
2025-01-18 02:40:57.311250	346.3	41.5	-94.9	0.0
2025-01-18 02:40:59.550781	345.6	42.0	-95.0	0.0
2025-01-18 02:41:01.795287	344.9	42.5	-94.9	0.0
2025-01-18 02:41:04.041736	344.2	43.0	-94.7	0.0
2025-01-18 02:41:06.282228	343.4	43.5	-94.6	0.0
2025-01-18 02:41:08.528400	342.6	44.0	-94.8	0.0
2025-01-18 02:41:10.769997	341.8	44.5	-95.1	0.0
2025-01-18 02:41:13.010978	340.9	44.9	-94.7	0.0
2025-01-18 02:41:15.252475	340.1	45.4	-94.8	0.0
2025-01-18 02:41:17.494471	339.2	45.9	-94.8	0.0
2025-01-18 02:41:19.737035	338.3	46.4	-94.7	0.0
2025-01-18 02:41:21.977417	337.3	46.9	-94.8	0.0
2025-01-18 02:41:24.216981	336.3	47.4	-94.8	0.0
2025-01-18 02:41:26.458375	335.3	47.9	-94.7	0.0
2025-01-18 02:41:28.699107	334.3	48.4	-94.9	0.0
2025-01-18 02:41:30.941623	333.2	48.8	-94.7	0.0
2025-01-18 02:41:33.186022	332.1	49.3	-94.8	0.0
2025-01-18 02:41:35.428525	330.9	49.8	-94.9	0.0
2025-01-18 02:41:37.669288	329.7	50.2	-94.8	0.0
2025-01-18 02:41:39.911842	328.5	50.7	-94.8	0.0
2025-01-18 02:41:42.152452	327.3	51.1	-94.9	0.0
2025-01-18 02:41:44.394704	326.0	51.5	-95.0	0.0
2025-01-18 02:41:46.636310	324.7	51.9	-94.9	0.0
2025-01-18 02:41:48.876576	323.3	52.3	-94.8	0.0
2025-01-18 02:41:51.119980	321.9	52.7	-94.8	0.0
2025-01-18 02:41:53.362847	320.4	53.1	-95.1	0.0
2025-01-18 02:41:55.605304	319.0	53.4	-94.8	0.0
2025-01-18 02:41:57.847298	317.5	53.8	-95.0	0.0
2025-01-18 02:42:00.089269	315.9	54.1	-94.7	0.0
2025-01-18 02:42:02.329240	314.3	54.4	-94.9	0.0
2025-01-18 02:42:04.572503	312.7	54.6	-94.7	0.0
2025-01-18 02:42:06.813496	311.1	54.9	-94.8	0.0
2025-01-18 02:42:09.058273	309.4	55.1	-94.8	0.0
2025-01-18 02:42:11.298473	307.7	55.3	-95.0	0.0
2025-01-18 02:42:13.541781	306.0	55.5	-94.9	0.0
2025-01-18 02:42:15.783501	304.3	55.7	-94.9	0.0
2025-01-18 02:42:18.029579	302.5	55.8	-94.7	0.0
2025-01-18 02:42:20.269995	300.7	55.9	-94.9	0.0
2025-01-18 02:42:22.510257	299.0	56.0	-94.9	0.0
2025-01-18 02:42:24.753616	297.2	56.0	-95.0	0.0
2025-01-18 02:42:26.997740	295.4	56.0	-94.7	0.0
2025-01-18 02:42:29.241192	293.6	56.0	-94.8	0.0
2025-01-18 02:42:31.482046	291.8	56.0	-94.7	0.0
2025-01-18 02:42:33.723443	290.0	56.0	-94.6	0.0
2025-01-18 02:42:35.968803	288.2	55.9	-94.4	0.0
2025-01-18 02:42:38.210146	286.4	55.8	-94.6	0.0
2025-01-18 02:42:40.453938	284.7	55.6	-94.6	0.0
2025-01-18 02:42:42.689968	283.0	55.5	-94.6	0.0
2025-01-18 02:42:44.932376	281.2	55.3	-94.6	0.0
2025-01-18 02:42:47.173250	279.6	55.0	-94.6	0.0
2025-01-18 02:42:49.414662	277.9	54.8	-94.8	0.0
2025-01-18 02:42:51.659330	276.3	54.5	-95.0	0.0
2025-01-18 02:42:53.898740	274.7	54.3	-94.8	0.0
2025-01-18 02:42:56.142483	273.1	54.0	-95.0	0.0
2025-01-18 02:42:58.383475	271.6	53.6	-94.6	0.0
2025-01-18 02:43:00.625908	270.1	53.3	-95.1	0.0
2025-01-18 02:43:02.868086	268.6	52.9	-94.9	0.0
2025-01-18 02:43:05.109643	267.2	52.6	-94.7	0.0
2025-01-18 02:43:07.353553	265.8	52.2	-94.9	0.0
2025-01-18 02:43:09.596498	264.4	51.8	-94.9	0.0
2025-01-18 02:43:11.838241	263.1	51.4	-94.7	0.0
2025-01-18 02:43:14.082409	261.8	50.9	-94.7	0.0
2025-01-18 02:43:16.325372	260.6	50.5	-94.3	0.0
2025-01-18 02:43:18.570046	259.4	50.1	-95.0	0.0
2025-01-18 02:43:20.812013	258.2	49.6	-94.7	0.0
2025-01-18 02:43:23.056940	257.0	49.1	-94.6	0.0
2025-01-18 02:43:25.300674	255.9	48.7	-95.0	0.0
2025-01-18 02:43:27.540831	254.9	48.2	-95.0	0.0
2025-01-18 02:43:29.784663	253.8	47.7	-94.9	0.0
2025-01-18 02:43:32.028483	252.8	47.2	-94.9	0.0
2025-01-18 02:43:34.271148	251.8	46.7	-94.9	0.0
2025-01-18 02:43:36.513320	250.9	46.2	-94.9	0.0
2025-01-18 02:43:38.759785	250.0	45.7	-94.6	0.0
2025-01-18 02:43:40.999424	249.1	45.3	-95.0	0.0
2025-01-18 02:43:43.240896	248.2	44.8	-94.7	0.0
2025-01-18 02:43:45.480495	247.4	44.3	-94.8	0.0
2025-01-18 02:43:47.724110	246.6	43.8	-94.6	0.0
2025-01-18 02:43:49.964728	245.8	43.3	-94.8	0.0
2025-01-18 02:43:52.206878	245.1	42.8	-94.7	0.0
2025-01-18 02:43:54.451467	244.3	42.3	-95.0	0.0
2025-01-18 02:43:56.698551	243.6	41.8	-94.8	0.0
2025-01-18 02:43:58.939232	242.9	41.3	-94.8	0.0
2025-01-18 02:44:01.182209	242.3	40.8	-94.9	0.0
2025-01-18 02:44:03.424317	241.6	40.3	-94.9	0.0
2025-01-18 02:44:05.663488	241.0	39.8	-95.1	0.0
2025-01-18 02:44:07.906266	240.4	39.3	-95.1	0.0
2025-01-18 02:44:10.148519	239.8	38.8	-94.8	0.0
2025-01-18 02:44:12.392261	239.2	38.4	-94.9	0.0
2025-01-18 02:44:14.634790	238.6	37.9	-95.0	0.0
2025-01-18 02:44:16.876894	238.1	37.4	-95.0	0.0
2025-01-18 02:44:19.117654	237.6	37.0	-95.0	0.0
2025-01-18 02:44:21.360127	237.1	36.5	-94.9	0.0
2025-01-18 02:44:23.604665	236.6	36.0	-94.7	0.0
2025-01-18 02:44:25.847253	236.1	35.6	-95.0	0.0
2025-01-18 02:44:28.091658	235.6	35.1	-95.1	0.0
2025-01-18 02:44:30.334472	235.1	34.7	-95.0	0.0
2025-01-18 02:44:32.576686	234.7	34.2	-94.8	0.0
2025-01-18 02:44:34.818586	234.3	33.8	-95.0	0.0
2025-01-18 02:44:37.064792	233.8	33.4	-94.7	0.0
2025-01-18 02:44:39.306605	233.4	32.9	-94.9	0.0
2025-01-18 02:44:41.549057	233.0	32.5	-94.5	0.0
2025-01-18 02:44:43.788513	232.6	32.1	-94.9	0.0
2025-01-18 02:44:46.027226	232.3	31.7	-94.8	0.0
2025-01-18 02:44:48.268869	231.9	31.3	-94.9	0.0
2025-01-18 02:44:50.508778	231.5	30.9	-94.8	0.0
2025-01-18 02:44:52.751755	231.2	30.5	-94.8	0.0
2025-01-18 02:44:54.994784	230.8	30.1	-94.8	0.0
2025-01-18 02:44:57.238656	230.5	29.7	-94.7	0.0
2025-01-18 02:44:59.480007	230.2	29.3	-94.9	0.0
2025-01-18 02:45:01.721674	229.9	28.9	-95.0	0.0
2025-01-18 02:45:03.962001	229.5	28.5	-94.7	0.0
2025-01-18 02:45:06.204563	229.2	28.1	-94.8	0.0
2025-01-18 02:45:08.446421	228.9	27.8	-95.0	0.0
2025-01-18 02:45:10.691048	228.7	27.4	-94.9	0.0
2025-01-18 02:45:12.930652	228.4	27.0	-95.0	0.0
2025-01-18 02:45:15.170569	228.1	26.7	-94.7	0.0
2025-01-18 02:45:17.412173	227.8	26.3	-95.0	0.0
2025-01-18 02:45:19.655514	227.6	26.0	-95.1	0.0
2025-01-18 02:45:21.895771	227.3	25.6	-95.0	0.0
2025-01-18 02:45:24.134691	227.1	25.3	-95.0	0.0
2025-01-18 02:45:26.376182	226.8	24.9	-94.9	0.0
2025-01-18 02:45:28.621336	226.6	24.6	-95.0	0.0
2025-01-18 02:45:30.862579	226.3	24.3	-95.0	0.0
2025-01-18 02:45:33.103020	226.1	24.0	-95.0	0.0
2025-01-18 02:45:35.342903	225.9	23.6	-95.0	0.0
2025-01-18 02:45:37.585705	225.7	23.3	-94.9	0.0
2025-01-18 02:45:39.825987	225.4	23.0	-94.8	0.0
2025-01-18 02:45:42.069835	225.2	22.7	-95.1	0.0
2025-01-18 02:45:44.311231	225.0	22.4	-94.8	0.0
2025-01-18 02:45:46.556042	224.8	22.1	-95.1	0.0
2025-01-18 02:45:48.796792	224.6	21.7	-95.0	0.0
2025-01-18 02:45:51.039140	224.4	21.4	-94.9	0.0
2025-01-18 02:45:53.280848	224.2	21.2	-94.9	0.0
2025-01-18 02:45:55.523260	224.0	20.9	-94.8	0.0
2025-01-18 02:45:57.766813	223.9	20.6	-94.6	0.0
2025-01-18 02:46:00.009547	223.7	20.3	-94.8	0.0
2025-01-18 02:46:02.249066	223.5	20.0	-94.9	0.0
2025-01-18 02:46:04.492406	223.3	19.7	-94.6	0.0
2025-01-18 02:46:06.735489	223.2	19.4	-94.6	0.0
2025-01-18 02:46:08.976071	223.0	19.2	-94.9	0.0
2025-01-18 02:46:11.219694	222.8	18.9	-94.8	0.0
2025-01-18 02:46:13.462525	222.7	18.6	-94.8	0.0
2025-01-18 02:46:15.702131	222.5	18.3	-94.8	0.0
2025-01-18 02:46:17.944715	222.3	18.1	-94.9	0.0
2025-01-18 02:46:20.186703	222.2	17.8	-94.9	0.0
2025-01-18 02:46:22.428164	222.0	17.6	-94.8	0.0
2025-01-18 02:46:24.668213	221.9	17.3	-94.6	0.0
2025-01-18 02:46:26.907887	221.8	17.0	-94.9	0.0
2025-01-18 02:46:29.148546	221.6	16.8	-94.7	0.0
2025-01-18 02:46:31.391948	221.5	16.5	-94.9	0.0
2025-01-18 02:46:33.634483	221.3	16.3	-94.9	0.0
2025-01-18 02:46:35.875744	221.2	16.0	-94.9	0.0
2025-01-18 02:46:38.119618	221.1	15.8	-95.1	0.0
2025-01-18 02:46:40.359783	220.9	15.6	-95.0	0.0
2025-01-18 02:46:42.599510	220.8	15.3	-94.8	0.0
2025-01-18 02:46:44.843006	220.7	15.1	-94.9	0.0
2025-01-18 02:46:47.082613	220.6	14.8	-94.7	0.0
2025-01-18 02:46:49.324057	220.4	14.6	-94.6	0.0
2025-01-18 02:46:51.564996	220.3	14.4	-94.8	0.0
2025-01-18 02:46:53.806813	220.2	14.2	-95.0	0.0
2025-01-18 02:46:56.048800	220.1	13.9	-94.6	0.0
2025-01-18 02:46:58.289068	220.0	13.7	-94.8	0.0
2025-01-18 02:47:00.532906	219.9	13.5	-94.8	0.0
2025-01-18 02:47:02.775865	219.7	13.3	-94.9	0.0
2025-01-18 02:47:05.016917	219.6	13.0	-95.0	0.0
2025-01-18 02:47:07.257835	219.5	12.8	-95.0	0.0
2025-01-18 02:47:09.501635	219.4	12.6	-94.9	0.0
2025-01-18 02:47:11.742222	219.3	12.4	-94.9	0.0
2025-01-18 02:47:13.985739	219.2	12.2	-94.8	0.0
2025-01-18 02:47:16.229496	219.1	12.0	-94.7	0.0
2025-01-18 02:47:18.470795	219.0	11.8	-94.7	0.0
2025-01-18 02:47:20.714770	218.9	11.6	-94.7	0.0
2025-01-18 02:47:22.956718	218.8	11.4	-94.7	0.0
2025-01-18 02:47:25.199195	218.7	11.2	-94.8	0.0
2025-01-18 02:47:27.441705	218.6	11.0	-95.0	0.0
2025-01-18 02:47:29.681930	218.5	10.8	-94.7	0.0
2025-01-18 02:47:31.925180	218.4	10.6	-95.0	0.0
2025-01-18 02:47:34.165137	218.4	10.4	-94.8	0.0
2025-01-18 02:47:36.409293	218.3	10.2	-94.9	0.0
#Closed at: 2025-01-18 02:37:10.428034