passes_logs/2025/01/18/planumMaritime01/planumMaritime01__20250118_103157_NOAA_18_rec.log

#Pass ID: 20250118_103157_NOAA 18
#Satellite: NOAA 18
#Configuration: NOAA 18
#Start time: 2025-01-18 10:32:02.462358

#LorettStation: 1.0.0 05.05.2024
#Station: planumMaritime01
#Location: 37.49445 lon 55.92918 lat
#TLE: 1 28654U 05018A   25017.14480960  .00000361  00000+0  21486-3 0  9999
#TLE: 2 28654  98.8562  98.1779 0014463 173.1209 187.0164 14.13488310 13483

#Time	Az	El	Level	SNR
2025-01-18 10:32:04.615914	2.0	10.2	-94.7	0.0
2025-01-18 10:32:06.858814	1.8	10.3	-94.7	0.0
2025-01-18 10:32:09.100123	1.6	10.5	-94.5	0.0
2025-01-18 10:32:11.343813	1.4	10.6	-94.5	0.0
2025-01-18 10:32:13.584397	1.1	10.8	-94.5	0.0
2025-01-18 10:32:15.827094	0.9	11.0	-94.9	0.0
2025-01-18 10:32:18.067635	0.7	11.1	-94.6	0.0
2025-01-18 10:32:20.308413	0.4	11.3	-94.6	0.0
2025-01-18 10:32:22.552010	0.2	11.5	-94.6	0.0
2025-01-18 10:32:24.793685	359.9	11.6	-94.6	0.0
2025-01-18 10:32:27.037446	359.7	11.8	-94.8	0.0
2025-01-18 10:32:29.280720	359.4	12.0	-94.8	0.0
2025-01-18 10:32:31.522000	359.2	12.1	-94.7	0.0
2025-01-18 10:32:33.758820	358.9	12.3	-94.7	0.0
2025-01-18 10:32:36.002483	358.7	12.5	-94.7	0.0
2025-01-18 10:32:38.245505	358.4	12.6	-94.8	0.0
2025-01-18 10:32:40.485447	358.1	12.8	-94.7	0.0
2025-01-18 10:32:42.724187	357.9	13.0	-94.5	0.0
2025-01-18 10:32:44.968617	357.6	13.1	-94.7	0.0
2025-01-18 10:32:47.211527	357.3	13.3	-94.4	0.0
2025-01-18 10:32:49.451322	357.0	13.5	-94.6	0.0
2025-01-18 10:32:51.690235	356.8	13.6	-94.6	0.0
2025-01-18 10:32:53.932019	356.5	13.8	-94.7	0.0
2025-01-18 10:32:56.173831	356.2	14.0	-94.7	0.0
2025-01-18 10:32:58.415237	355.9	14.2	-94.7	0.0
2025-01-18 10:33:00.659476	355.6	14.3	-94.7	0.0
2025-01-18 10:33:02.902838	355.3	14.5	-94.7	0.0
2025-01-18 10:33:05.147144	355.0	14.7	-94.8	0.0
2025-01-18 10:33:07.386977	354.7	14.9	-94.8	0.0
2025-01-18 10:33:09.628335	354.4	15.0	-94.8	0.0
2025-01-18 10:33:11.870739	354.1	15.2	-94.7	0.0
2025-01-18 10:33:14.113406	353.8	15.4	-94.7	0.0
2025-01-18 10:33:16.353967	353.4	15.6	-94.8	0.0
2025-01-18 10:33:18.591479	353.1	15.7	-94.7	0.0
2025-01-18 10:33:20.835969	352.8	15.9	-94.8	0.0
2025-01-18 10:33:23.078658	352.4	16.1	-94.6	0.0
2025-01-18 10:33:25.318909	352.1	16.3	-94.7	0.0
2025-01-18 10:33:27.560974	351.8	16.4	-94.5	0.0
2025-01-18 10:33:29.803466	351.4	16.6	-94.6	0.0
2025-01-18 10:33:32.042407	351.1	16.8	-94.6	0.0
2025-01-18 10:33:34.281881	350.7	17.0	-94.4	0.0
2025-01-18 10:33:36.525761	350.4	17.2	-94.7	0.0
2025-01-18 10:33:38.767393	350.0	17.3	-94.3	0.0
2025-01-18 10:33:41.006444	349.6	17.5	-94.7	0.0
2025-01-18 10:33:43.248345	349.3	17.7	-94.4	0.0
2025-01-18 10:33:45.488796	348.9	17.9	-94.5	0.0
2025-01-18 10:33:47.730626	348.5	18.1	-94.6	0.0
2025-01-18 10:33:49.974470	348.1	18.2	-94.5	0.0
2025-01-18 10:33:52.218453	347.7	18.4	-94.5	0.0
2025-01-18 10:33:54.462658	347.3	18.6	-94.6	0.0
2025-01-18 10:33:56.704741	346.9	18.8	-94.8	0.0
2025-01-18 10:33:58.946092	346.5	19.0	-94.7	0.0
2025-01-18 10:34:01.188406	346.1	19.1	-94.8	0.0
2025-01-18 10:34:03.432024	345.7	19.3	-94.7	0.0
2025-01-18 10:34:05.673701	345.3	19.5	-94.9	0.0
2025-01-18 10:34:07.917042	344.9	19.7	-94.7	0.0
2025-01-18 10:34:10.159115	344.4	19.8	-94.9	0.0
2025-01-18 10:34:12.400767	344.0	20.0	-94.7	0.0
2025-01-18 10:34:14.643945	343.6	20.2	-94.6	0.0
2025-01-18 10:34:16.887786	343.1	20.4	-94.7	0.0
2025-01-18 10:34:19.132588	342.7	20.5	-94.9	0.0
2025-01-18 10:34:21.373659	342.2	20.7	-94.9	0.0
2025-01-18 10:34:23.617750	341.8	20.9	-95.1	0.0
2025-01-18 10:34:25.860775	341.3	21.1	-95.0	0.0
2025-01-18 10:34:28.103500	340.8	21.2	-94.8	0.0
2025-01-18 10:34:30.345875	340.4	21.4	-94.7	0.0
2025-01-18 10:34:32.590920	339.9	21.6	-94.5	0.0
2025-01-18 10:34:34.834508	339.4	21.7	-94.7	0.0
2025-01-18 10:34:37.082842	338.9	21.9	-94.8	0.0
2025-01-18 10:34:39.324269	338.4	22.1	-94.6	0.0
2025-01-18 10:34:41.566919	337.9	22.2	-95.0	0.0
2025-01-18 10:34:43.811781	337.4	22.4	-95.0	0.0
2025-01-18 10:34:46.054078	336.9	22.6	-94.8	0.0
2025-01-18 10:34:48.297726	336.4	22.7	-94.5	0.0
2025-01-18 10:34:50.539990	335.8	22.9	-94.9	0.0
2025-01-18 10:34:52.781428	335.3	23.0	-94.5	0.0
2025-01-18 10:34:55.024823	334.8	23.2	-94.8	0.0
2025-01-18 10:34:57.267635	334.2	23.4	-94.8	0.0
2025-01-18 10:34:59.509338	333.7	23.5	-94.6	0.0
2025-01-18 10:35:01.751871	333.1	23.7	-94.6	0.0
2025-01-18 10:35:03.991927	332.6	23.8	-94.5	0.0
2025-01-18 10:35:06.235545	332.0	23.9	-94.7	0.0
2025-01-18 10:35:08.478813	331.4	24.1	-94.7	0.0
2025-01-18 10:35:10.720145	330.9	24.2	-94.5	0.0
2025-01-18 10:35:12.965197	330.3	24.4	-94.7	0.0
2025-01-18 10:35:15.207367	329.7	24.5	-94.6	0.0
2025-01-18 10:35:17.450711	329.1	24.6	-94.6	0.0
2025-01-18 10:35:19.696772	328.5	24.8	-94.4	0.0
2025-01-18 10:35:21.940074	327.9	24.9	-94.8	0.0
2025-01-18 10:35:24.185045	327.3	25.0	-95.0	0.0
2025-01-18 10:35:26.428714	326.7	25.2	-94.9	0.0
2025-01-18 10:35:28.670115	326.1	25.3	-94.8	0.0
2025-01-18 10:35:30.911979	325.5	25.4	-95.0	0.0
2025-01-18 10:35:33.157025	324.9	25.5	-94.8	0.0
2025-01-18 10:35:35.400040	324.3	25.6	-94.5	0.0
2025-01-18 10:35:37.640965	323.6	25.7	-94.9	0.0
2025-01-18 10:35:39.883813	323.0	25.8	-94.8	0.0
2025-01-18 10:35:42.129094	322.3	25.9	-94.7	0.0
2025-01-18 10:35:44.373141	321.7	26.0	-94.7	0.0
2025-01-18 10:35:46.614167	321.1	26.1	-94.7	0.0
2025-01-18 10:35:48.855439	320.4	26.2	-94.5	0.0
2025-01-18 10:35:51.098312	319.8	26.3	-94.6	0.0
2025-01-18 10:35:53.341639	319.1	26.4	-94.7	0.0
2025-01-18 10:35:55.586669	318.4	26.4	-94.7	0.0
2025-01-18 10:35:57.829935	317.8	26.5	-94.8	0.0
2025-01-18 10:36:00.072528	317.1	26.6	-94.8	0.0
2025-01-18 10:36:02.315284	316.4	26.7	-94.8	0.0
2025-01-18 10:36:04.558299	315.8	26.7	-94.8	0.0
2025-01-18 10:36:06.801934	315.1	26.8	-95.0	0.0
2025-01-18 10:36:09.049567	314.4	26.8	-94.9	0.0
2025-01-18 10:36:11.290997	313.7	26.9	-95.1	0.0
2025-01-18 10:36:13.538986	313.0	26.9	-95.1	0.0
2025-01-18 10:36:15.781783	312.4	27.0	-94.8	0.0
2025-01-18 10:36:18.026169	311.7	27.0	-94.6	0.0
2025-01-18 10:36:20.268038	311.0	27.0	-94.5	0.0
2025-01-18 10:36:22.514309	310.3	27.1	-94.9	0.0
2025-01-18 10:36:24.756751	309.6	27.1	-94.9	0.0
2025-01-18 10:36:27.001152	308.9	27.1	-95.0	0.0
2025-01-18 10:36:29.245260	308.2	27.1	-94.9	0.0
2025-01-18 10:36:31.487692	307.5	27.1	-94.9	0.0
2025-01-18 10:36:33.728645	306.8	27.1	-94.8	0.0
2025-01-18 10:36:35.973595	306.2	27.1	-94.8	0.0
2025-01-18 10:36:38.218984	305.5	27.1	-94.8	0.0
2025-01-18 10:36:40.457657	304.8	27.1	-94.8	0.0
2025-01-18 10:36:42.699822	304.1	27.1	-94.7	0.0
2025-01-18 10:36:44.940102	303.4	27.1	-95.0	0.0
2025-01-18 10:36:47.183800	302.7	27.0	-94.7	0.0
2025-01-18 10:36:49.427431	302.0	27.0	-94.8	0.0
2025-01-18 10:36:51.672808	301.3	27.0	-95.1	0.0
2025-01-18 10:36:53.914769	300.6	26.9	-94.8	0.0
2025-01-18 10:36:56.157129	300.0	26.9	-94.8	0.0
2025-01-18 10:36:58.400258	299.3	26.8	-94.8	0.0
2025-01-18 10:37:00.642169	298.6	26.8	-95.0	0.0
2025-01-18 10:37:02.883325	297.9	26.7	-94.7	0.0
2025-01-18 10:37:05.128092	297.2	26.7	-94.6	0.0
2025-01-18 10:37:07.372511	296.6	26.6	-94.6	0.0
2025-01-18 10:37:09.613932	295.9	26.5	-94.8	0.0
2025-01-18 10:37:11.857526	295.2	26.5	-94.6	0.0
2025-01-18 10:37:14.102476	294.6	26.4	-94.8	0.0
2025-01-18 10:37:16.343163	293.9	26.3	-95.0	0.0
2025-01-18 10:37:18.585268	293.3	26.2	-94.9	0.0
2025-01-18 10:37:20.828316	292.6	26.1	-95.0	0.0
2025-01-18 10:37:23.071521	291.9	26.0	-95.0	0.0
2025-01-18 10:37:25.316799	291.3	25.9	-94.9	0.0
2025-01-18 10:37:27.557551	290.7	25.8	-94.8	0.0
2025-01-18 10:37:29.801373	290.0	25.7	-94.5	0.0
2025-01-18 10:37:32.044340	289.4	25.6	-94.9	0.0
2025-01-18 10:37:34.287438	288.8	25.5	-94.5	0.0
2025-01-18 10:37:36.531090	288.1	25.4	-94.8	0.0
2025-01-18 10:37:38.776006	287.5	25.3	-94.5	0.0
2025-01-18 10:37:41.019658	286.9	25.2	-94.9	0.0
2025-01-18 10:37:43.259919	286.3	25.1	-94.9	0.0
2025-01-18 10:37:45.501534	285.7	24.9	-94.9	0.0
2025-01-18 10:37:47.741791	285.1	24.8	-94.9	0.0
2025-01-18 10:37:49.982642	284.5	24.7	-94.7	0.0
2025-01-18 10:37:52.225238	283.9	24.5	-94.7	0.0
2025-01-18 10:37:54.469663	283.3	24.4	-94.9	0.0
2025-01-18 10:37:56.712048	282.7	24.3	-94.9	0.0
2025-01-18 10:37:58.953773	282.1	24.1	-94.8	0.0
2025-01-18 10:38:01.198162	281.6	24.0	-94.7	0.0
2025-01-18 10:38:03.441467	281.0	23.8	-94.9	0.0
2025-01-18 10:38:05.684541	280.4	23.7	-95.0	0.0
2025-01-18 10:38:07.925301	279.9	23.5	-95.0	0.0
2025-01-18 10:38:10.167467	279.3	23.4	-94.9	0.0
2025-01-18 10:38:12.408804	278.8	23.2	-94.8	0.0
2025-01-18 10:38:14.648343	278.3	23.1	-94.5	0.0
2025-01-18 10:38:16.890888	277.7	22.9	-94.9	0.0
2025-01-18 10:38:19.132842	277.2	22.7	-95.0	0.0
2025-01-18 10:38:21.377108	276.7	22.6	-95.0	0.0
2025-01-18 10:38:23.618765	276.2	22.4	-95.0	0.0
2025-01-18 10:38:25.859015	275.6	22.3	-95.0	0.0
2025-01-18 10:38:28.101670	275.1	22.1	-94.7	0.0
2025-01-18 10:38:30.342978	274.6	21.9	-95.1	0.0
2025-01-18 10:38:32.585002	274.1	21.8	-94.7	0.0
2025-01-18 10:38:34.826072	273.6	21.6	-94.7	0.0
2025-01-18 10:38:37.069112	273.2	21.4	-94.8	0.0
2025-01-18 10:38:39.312017	272.7	21.2	-94.6	0.0
2025-01-18 10:38:41.553704	272.2	21.1	-94.6	0.0
2025-01-18 10:38:43.795140	271.7	20.9	-94.7	0.0
2025-01-18 10:38:46.034972	271.3	20.7	-94.8	0.0
2025-01-18 10:38:48.277469	270.8	20.5	-94.6	0.0
2025-01-18 10:38:50.517298	270.4	20.4	-94.6	0.0
2025-01-18 10:38:52.758270	269.9	20.2	-94.7	0.0
2025-01-18 10:38:55.003488	269.5	20.0	-94.8	0.0
2025-01-18 10:38:57.246579	269.0	19.8	-94.6	0.0
2025-01-18 10:38:59.491694	268.6	19.7	-94.7	0.0
2025-01-18 10:39:01.732757	268.2	19.5	-94.6	0.0
2025-01-18 10:39:03.975799	267.7	19.3	-95.0	0.0
2025-01-18 10:39:06.218862	267.3	19.1	-94.7	0.0
2025-01-18 10:39:08.464300	266.9	18.9	-95.0	0.0
2025-01-18 10:39:10.706556	266.5	18.8	-95.0	0.0
2025-01-18 10:39:12.944728	266.1	18.6	-94.8	0.0
2025-01-18 10:39:15.185349	265.7	18.4	-95.2	0.0
2025-01-18 10:39:17.426940	265.3	18.2	-95.1	0.0
2025-01-18 10:39:19.669997	264.9	18.0	-94.9	0.0
2025-01-18 10:39:21.912917	264.5	17.9	-95.0	0.0
2025-01-18 10:39:24.154656	264.1	17.7	-94.6	0.0
2025-01-18 10:39:26.397979	263.8	17.5	-94.9	0.0
2025-01-18 10:39:28.641199	263.4	17.3	-94.5	0.0
2025-01-18 10:39:30.883671	263.0	17.1	-94.8	0.0
2025-01-18 10:39:33.126322	262.7	17.0	-94.5	0.0
2025-01-18 10:39:35.368832	262.3	16.8	-94.6	0.0
2025-01-18 10:39:37.613953	262.0	16.6	-95.1	0.0
2025-01-18 10:39:39.852924	261.6	16.4	-94.6	0.0
2025-01-18 10:39:42.097348	261.3	16.2	-94.9	0.0
2025-01-18 10:39:44.344121	260.9	16.1	-94.9	0.0
2025-01-18 10:39:46.587763	260.6	15.9	-95.1	0.0
2025-01-18 10:39:48.830092	260.2	15.7	-94.8	0.0
2025-01-18 10:39:51.074529	259.9	15.5	-95.1	0.0
2025-01-18 10:39:53.318034	259.6	15.3	-94.9	0.0
2025-01-18 10:39:55.559477	259.3	15.2	-94.9	0.0
2025-01-18 10:39:57.804406	258.9	15.0	-94.9	0.0
2025-01-18 10:40:00.045425	258.6	14.8	-94.7	0.0
2025-01-18 10:40:02.286416	258.3	14.6	-94.8	0.0
2025-01-18 10:40:04.530133	258.0	14.5	-94.6	0.0
2025-01-18 10:40:06.772757	257.7	14.3	-94.9	0.0
2025-01-18 10:40:09.016681	257.4	14.1	-94.8	0.0
2025-01-18 10:40:11.258765	257.1	13.9	-94.9	0.0
2025-01-18 10:40:13.501594	256.8	13.8	-94.9	0.0
2025-01-18 10:40:15.742990	256.5	13.6	-95.0	0.0
2025-01-18 10:40:17.988914	256.3	13.4	-94.6	0.0
2025-01-18 10:40:20.231394	256.0	13.2	-94.8	0.0
2025-01-18 10:40:22.474246	255.7	13.1	-94.8	0.0
2025-01-18 10:40:24.716192	255.4	12.9	-94.8	0.0
2025-01-18 10:40:26.954995	255.1	12.7	-94.8	0.0
2025-01-18 10:40:29.196354	254.9	12.6	-94.9	0.0
2025-01-18 10:40:31.440200	254.6	12.4	-94.9	0.0
2025-01-18 10:40:33.679697	254.3	12.2	-94.8	0.0
2025-01-18 10:40:35.922195	254.1	12.0	-94.9	0.0
2025-01-18 10:40:38.162336	253.8	11.9	-94.7	0.0
2025-01-18 10:40:40.408405	253.6	11.7	-94.9	0.0
2025-01-18 10:40:42.651085	253.3	11.5	-95.0	0.0
2025-01-18 10:40:44.888947	253.1	11.4	-95.0	0.0
2025-01-18 10:40:47.128457	252.8	11.2	-95.0	0.0
2025-01-18 10:40:49.372867	252.6	11.0	-94.8	0.0
2025-01-18 10:40:51.618573	252.3	10.9	-95.0	0.0
2025-01-18 10:40:53.860299	252.1	10.7	-94.9	0.0
2025-01-18 10:40:56.104246	251.9	10.6	-94.9	0.0
2025-01-18 10:40:58.345285	251.6	10.4	-95.0	0.0
2025-01-18 10:41:00.586048	251.4	10.2	-94.9	0.0
2025-01-18 10:41:02.826877	251.2	10.1	-94.9	0.0
#Closed at: 2025-01-18 10:31:57.466090