passes_logs/2025/01/18/planumMaritime01/planumMaritime01__20250118_164018_NOAA_19_rec.log

#Pass ID: 20250118_164018_NOAA 19
#Satellite: NOAA 19
#Configuration: NOAA 19
#Start time: 2025-01-18 16:40:23.315350

#LorettStation: 1.0.0 05.05.2024
#Station: planumMaritime01
#Location: 37.49445 lon 55.92918 lat
#TLE: 1 33591U 09005A   25018.04840605  .00000325  00000+0  19728-3 0  9997
#TLE: 2 33591  99.0190  81.8343 0014373  49.4310 310.8111 14.13261983821977

#Time	Az	El	Level	SNR
2025-01-18 16:40:25.468183	108.7	10.2	-94.6	0.0
2025-01-18 16:40:27.710804	108.5	10.3	-94.4	0.0
2025-01-18 16:40:29.950792	108.2	10.5	-94.3	0.0
2025-01-18 16:40:32.190769	108.0	10.6	-94.8	0.0
2025-01-18 16:40:34.429620	107.8	10.8	-94.6	0.0
2025-01-18 16:40:36.673232	107.5	11.0	-94.7	0.0
2025-01-18 16:40:38.916966	107.3	11.1	-94.6	0.0
2025-01-18 16:40:41.159593	107.0	11.3	-94.6	0.0
2025-01-18 16:40:43.401743	106.8	11.5	-94.6	0.0
2025-01-18 16:40:45.644232	106.5	11.6	-94.6	0.0
2025-01-18 16:40:47.883877	106.3	11.8	-94.6	0.0
2025-01-18 16:40:50.127228	106.0	12.0	-94.7	0.0
2025-01-18 16:40:52.371339	105.8	12.1	-94.9	0.0
2025-01-18 16:40:54.613108	105.5	12.3	-94.9	0.0
2025-01-18 16:40:56.854194	105.3	12.5	-94.8	0.0
2025-01-18 16:40:59.096812	105.0	12.7	-94.6	0.0
2025-01-18 16:41:01.342942	104.7	12.8	-94.6	0.0
2025-01-18 16:41:03.588564	104.4	13.0	-94.7	0.0
2025-01-18 16:41:05.829468	104.2	13.2	-94.7	0.0
2025-01-18 16:41:08.072954	103.9	13.3	-94.5	0.0
2025-01-18 16:41:10.310835	103.6	13.5	-94.9	0.0
2025-01-18 16:41:12.553094	103.3	13.7	-94.6	0.0
2025-01-18 16:41:14.794200	103.0	13.9	-94.6	0.0
2025-01-18 16:41:17.039053	102.7	14.0	-94.5	0.0
2025-01-18 16:41:19.281518	102.4	14.2	-94.6	0.0
2025-01-18 16:41:21.526403	102.1	14.4	-94.2	0.0
2025-01-18 16:41:23.767319	101.8	14.6	-94.5	0.0
2025-01-18 16:41:26.007187	101.5	14.7	-94.4	0.0
2025-01-18 16:41:28.246898	101.2	14.9	-94.5	0.0
2025-01-18 16:41:30.490679	100.9	15.1	-94.6	0.0
2025-01-18 16:41:32.734813	100.6	15.3	-94.9	0.0
2025-01-18 16:41:34.976483	100.2	15.5	-94.5	0.0
2025-01-18 16:41:37.218122	99.9	15.6	-94.9	0.0
2025-01-18 16:41:39.461962	99.6	15.8	-94.8	0.0
2025-01-18 16:41:41.704213	99.3	16.0	-94.9	0.0
2025-01-18 16:41:43.943706	98.9	16.2	-94.9	0.0
2025-01-18 16:41:46.185055	98.6	16.4	-94.9	0.0
2025-01-18 16:41:48.426937	98.2	16.5	-94.9	0.0
2025-01-18 16:41:50.667770	97.9	16.7	-94.9	0.0
2025-01-18 16:41:52.908090	97.5	16.9	-95.0	0.0
2025-01-18 16:41:55.152618	97.2	17.1	-95.0	0.0
2025-01-18 16:41:57.397195	96.8	17.3	-94.8	0.0
2025-01-18 16:41:59.639065	96.4	17.4	-94.5	0.0
2025-01-18 16:42:01.879447	96.1	17.6	-94.7	0.0
2025-01-18 16:42:04.122037	95.7	17.8	-94.7	0.0
2025-01-18 16:42:06.363427	95.3	18.0	-94.7	0.0
2025-01-18 16:42:08.606943	94.9	18.2	-94.6	0.0
2025-01-18 16:42:10.851178	94.5	18.3	-94.5	0.0
2025-01-18 16:42:13.095934	94.1	18.5	-94.7	0.0
2025-01-18 16:42:15.338244	93.7	18.7	-94.6	0.0
2025-01-18 16:42:17.577296	93.3	18.9	-94.8	0.0
2025-01-18 16:42:19.820616	92.9	19.1	-94.6	0.0
2025-01-18 16:42:22.061226	92.5	19.3	-94.7	0.0
2025-01-18 16:42:24.305261	92.1	19.4	-94.9	0.0
2025-01-18 16:42:26.550160	91.6	19.6	-94.8	0.0
2025-01-18 16:42:28.789287	91.2	19.8	-94.8	0.0
2025-01-18 16:42:31.032479	90.8	20.0	-94.6	0.0
2025-01-18 16:42:33.274613	90.3	20.2	-94.4	0.0
2025-01-18 16:42:35.517579	89.9	20.3	-94.7	0.0
2025-01-18 16:42:37.758474	89.4	20.5	-94.9	0.0
2025-01-18 16:42:40.000127	89.0	20.7	-94.4	0.0
2025-01-18 16:42:42.241217	88.5	20.9	-94.9	0.0
2025-01-18 16:42:44.484385	88.0	21.0	-94.8	0.0
2025-01-18 16:42:46.727314	87.6	21.2	-94.6	0.0
2025-01-18 16:42:48.969989	87.1	21.4	-94.6	0.0
2025-01-18 16:42:51.212876	86.6	21.6	-94.9	0.0
2025-01-18 16:42:53.459735	86.1	21.7	-95.0	0.0
2025-01-18 16:42:55.702548	85.6	21.9	-94.5	0.0
2025-01-18 16:42:57.942451	85.1	22.1	-95.0	0.0
2025-01-18 16:43:00.187012	84.6	22.2	-94.7	0.0
2025-01-18 16:43:02.432002	84.1	22.4	-94.7	0.0
2025-01-18 16:43:04.670814	83.6	22.6	-94.6	0.0
2025-01-18 16:43:06.914108	83.1	22.7	-94.7	0.0
2025-01-18 16:43:09.155200	82.5	22.9	-94.8	0.0
2025-01-18 16:43:11.393922	82.0	23.1	-94.8	0.0
2025-01-18 16:43:13.637002	81.5	23.2	-94.8	0.0
2025-01-18 16:43:15.879359	80.9	23.4	-94.8	0.0
2025-01-18 16:43:18.121025	80.4	23.5	-94.8	0.0
2025-01-18 16:43:20.360341	79.8	23.7	-94.8	0.0
2025-01-18 16:43:22.603965	79.3	23.8	-94.9	0.0
2025-01-18 16:43:24.846489	78.7	24.0	-94.9	0.0
2025-01-18 16:43:27.089746	78.1	24.1	-95.0	0.0
2025-01-18 16:43:29.332237	77.5	24.3	-94.9	0.0
2025-01-18 16:43:31.572127	77.0	24.4	-94.5	0.0
2025-01-18 16:43:33.812921	76.4	24.6	-94.8	0.0
2025-01-18 16:43:36.055604	75.8	24.7	-95.0	0.0
2025-01-18 16:43:38.295912	75.2	24.8	-94.9	0.0
2025-01-18 16:43:40.540052	74.6	25.0	-94.8	0.0
2025-01-18 16:43:42.783693	74.0	25.1	-95.0	0.0
2025-01-18 16:43:45.025720	73.4	25.2	-94.9	0.0
2025-01-18 16:43:47.267915	72.7	25.3	-95.0	0.0
2025-01-18 16:43:49.510689	72.1	25.5	-94.9	0.0
2025-01-18 16:43:51.754931	71.5	25.6	-94.8	0.0
2025-01-18 16:43:53.998212	70.9	25.7	-94.7	0.0
2025-01-18 16:43:56.238203	70.2	25.8	-94.7	0.0
2025-01-18 16:43:58.480149	69.6	25.9	-94.6	0.0
2025-01-18 16:44:00.724517	69.0	26.0	-94.5	0.0
2025-01-18 16:44:02.965620	68.3	26.1	-94.8	0.0
2025-01-18 16:44:05.207065	67.7	26.2	-94.8	0.0
2025-01-18 16:44:07.448937	67.0	26.3	-94.6	0.0
2025-01-18 16:44:09.692524	66.3	26.4	-94.8	0.0
2025-01-18 16:44:11.934168	65.7	26.5	-94.6	0.0
2025-01-18 16:44:14.177032	65.0	26.5	-94.7	0.0
2025-01-18 16:44:16.418823	64.3	26.6	-95.0	0.0
2025-01-18 16:44:18.659140	63.7	26.7	-94.6	0.0
2025-01-18 16:44:20.900887	63.0	26.8	-94.8	0.0
2025-01-18 16:44:23.145200	62.3	26.8	-94.7	0.0
2025-01-18 16:44:25.386615	61.6	26.9	-94.9	0.0
2025-01-18 16:44:27.629144	61.0	26.9	-95.0	0.0
2025-01-18 16:44:29.868423	60.3	27.0	-94.6	0.0
2025-01-18 16:44:32.109106	59.6	27.0	-94.9	0.0
2025-01-18 16:44:34.351095	58.9	27.1	-94.9	0.0
2025-01-18 16:44:36.595422	58.2	27.1	-94.7	0.0
2025-01-18 16:44:38.839526	57.5	27.1	-94.4	0.0
2025-01-18 16:44:41.082166	56.8	27.2	-94.8	0.0
2025-01-18 16:44:43.324863	56.1	27.2	-94.5	0.0
2025-01-18 16:44:45.567824	55.4	27.2	-94.7	0.0
2025-01-18 16:44:47.809952	54.7	27.2	-94.9	0.0
2025-01-18 16:44:50.053249	54.0	27.2	-94.6	0.0
2025-01-18 16:44:52.296057	53.3	27.2	-94.4	0.0
2025-01-18 16:44:54.534219	52.6	27.2	-94.8	0.0
2025-01-18 16:44:56.775732	51.9	27.2	-94.6	0.0
2025-01-18 16:44:59.017177	51.2	27.2	-95.0	0.0
2025-01-18 16:45:01.257970	50.6	27.2	-94.6	0.0
2025-01-18 16:45:03.501277	49.9	27.2	-94.7	0.0
2025-01-18 16:45:05.744082	49.2	27.2	-95.0	0.0
2025-01-18 16:45:07.986281	48.5	27.1	-94.9	0.0
2025-01-18 16:45:10.228048	47.8	27.1	-94.6	0.0
2025-01-18 16:45:12.472048	47.1	27.1	-95.0	0.0
2025-01-18 16:45:14.714086	46.4	27.0	-94.7	0.0
2025-01-18 16:45:16.958029	45.7	27.0	-94.9	0.0
2025-01-18 16:45:19.196029	45.0	26.9	-94.9	0.0
2025-01-18 16:45:21.440030	44.4	26.9	-94.9	0.0
2025-01-18 16:45:23.682431	43.7	26.8	-94.4	0.0
2025-01-18 16:45:25.920160	43.0	26.7	-95.0	0.0
2025-01-18 16:45:28.165329	42.3	26.7	-94.7	0.0
2025-01-18 16:45:30.406552	41.7	26.6	-94.9	0.0
2025-01-18 16:45:32.650659	41.0	26.5	-94.8	0.0
2025-01-18 16:45:34.890969	40.3	26.4	-94.6	0.0
2025-01-18 16:45:37.134176	39.7	26.4	-94.6	0.0
2025-01-18 16:45:39.374649	39.0	26.3	-94.7	0.0
2025-01-18 16:45:41.616031	38.4	26.2	-94.6	0.0
2025-01-18 16:45:43.857843	37.7	26.1	-94.8	0.0
2025-01-18 16:45:46.097052	37.1	26.0	-94.5	0.0
2025-01-18 16:45:48.336580	36.4	25.9	-94.8	0.0
2025-01-18 16:45:50.578054	35.8	25.8	-94.7	0.0
2025-01-18 16:45:52.820144	35.2	25.7	-95.0	0.0
2025-01-18 16:45:55.062897	34.5	25.5	-94.7	0.0
2025-01-18 16:45:57.304817	33.9	25.4	-94.5	0.0
2025-01-18 16:45:59.545462	33.3	25.3	-94.7	0.0
2025-01-18 16:46:01.786883	32.7	25.2	-94.7	0.0
2025-01-18 16:46:04.027213	32.1	25.1	-94.9	0.0
2025-01-18 16:46:06.268160	31.5	24.9	-94.8	0.0
2025-01-18 16:46:08.511601	30.9	24.8	-94.7	0.0
2025-01-18 16:46:10.752409	30.3	24.7	-94.8	0.0
2025-01-18 16:46:12.994846	29.7	24.5	-94.8	0.0
2025-01-18 16:46:15.237488	29.1	24.4	-94.7	0.0
2025-01-18 16:46:17.479206	28.5	24.2	-95.1	0.0
2025-01-18 16:46:19.717493	28.0	24.1	-94.6	0.0
2025-01-18 16:46:21.962152	27.4	24.0	-95.0	0.0
2025-01-18 16:46:24.202493	26.8	23.8	-95.0	0.0
2025-01-18 16:46:26.443535	26.3	23.7	-94.8	0.0
2025-01-18 16:46:28.686024	25.7	23.5	-95.0	0.0
2025-01-18 16:46:30.927978	25.2	23.3	-95.1	0.0
2025-01-18 16:46:33.169319	24.6	23.2	-95.2	0.0
2025-01-18 16:46:35.408531	24.1	23.0	-94.9	0.0
2025-01-18 16:46:37.651000	23.6	22.9	-94.8	0.0
2025-01-18 16:46:39.890397	23.0	22.7	-94.8	0.0
2025-01-18 16:46:42.131992	22.5	22.5	-95.1	0.0
2025-01-18 16:46:44.371496	22.0	22.4	-95.0	0.0
2025-01-18 16:46:46.616783	21.5	22.2	-94.9	0.0
2025-01-18 16:46:48.860675	21.0	22.0	-94.7	0.0
2025-01-18 16:46:51.101009	20.5	21.9	-95.1	0.0
2025-01-18 16:46:53.340411	20.0	21.7	-94.7	0.0
2025-01-18 16:46:55.584567	19.5	21.5	-94.8	0.0
2025-01-18 16:46:57.827972	19.1	21.4	-94.9	0.0
2025-01-18 16:47:00.069491	18.6	21.2	-94.9	0.0
2025-01-18 16:47:02.314272	18.1	21.0	-94.7	0.0
2025-01-18 16:47:04.556457	17.6	20.8	-94.9	0.0
2025-01-18 16:47:06.799439	17.2	20.7	-94.8	0.0
2025-01-18 16:47:09.035811	16.7	20.5	-95.0	0.0
2025-01-18 16:47:11.277203	16.3	20.3	-94.8	0.0
2025-01-18 16:47:13.519765	15.8	20.1	-94.9	0.0
2025-01-18 16:47:15.763144	15.4	20.0	-95.1	0.0
2025-01-18 16:47:18.004463	15.0	19.8	-95.0	0.0
2025-01-18 16:47:20.243905	14.6	19.6	-94.9	0.0
2025-01-18 16:47:22.483830	14.1	19.4	-94.9	0.0
2025-01-18 16:47:24.726396	13.7	19.2	-94.6	0.0
2025-01-18 16:47:26.966810	13.3	19.1	-94.9	0.0
2025-01-18 16:47:29.205749	12.9	18.9	-95.0	0.0
2025-01-18 16:47:31.444120	12.5	18.7	-95.1	0.0
2025-01-18 16:47:33.685092	12.1	18.5	-94.8	0.0
2025-01-18 16:47:35.927088	11.7	18.3	-95.1	0.0
2025-01-18 16:47:38.167781	11.3	18.2	-94.8	0.0
2025-01-18 16:47:40.408523	10.9	18.0	-95.1	0.0
2025-01-18 16:47:42.652200	10.6	17.8	-94.7	0.0
2025-01-18 16:47:44.892941	10.2	17.6	-95.1	0.0
2025-01-18 16:47:47.133353	9.8	17.4	-94.9	0.0
2025-01-18 16:47:49.377176	9.4	17.3	-95.1	0.0
2025-01-18 16:47:51.619719	9.1	17.1	-94.9	0.0
2025-01-18 16:47:53.861028	8.7	16.9	-95.0	0.0
2025-01-18 16:47:56.103978	8.4	16.7	-94.9	0.0
2025-01-18 16:47:58.349660	8.0	16.5	-94.9	0.0
2025-01-18 16:48:00.590117	7.7	16.4	-94.8	0.0
2025-01-18 16:48:02.831076	7.3	16.2	-94.9	0.0
2025-01-18 16:48:05.073084	7.0	16.0	-94.9	0.0
2025-01-18 16:48:07.314467	6.7	15.8	-94.8	0.0
2025-01-18 16:48:09.552500	6.3	15.7	-94.9	0.0
2025-01-18 16:48:11.794238	6.0	15.5	-94.7	0.0
2025-01-18 16:48:14.036064	5.7	15.3	-94.6	0.0
2025-01-18 16:48:16.277029	5.4	15.1	-94.7	0.0
2025-01-18 16:48:18.518457	5.1	14.9	-94.7	0.0
2025-01-18 16:48:20.760404	4.8	14.8	-94.6	0.0
2025-01-18 16:48:23.001678	4.5	14.6	-94.7	0.0
2025-01-18 16:48:25.245694	4.2	14.4	-94.7	0.0
2025-01-18 16:48:27.488715	3.9	14.2	-94.7	0.0
2025-01-18 16:48:29.730324	3.6	14.1	-94.9	0.0
2025-01-18 16:48:31.971553	3.3	13.9	-94.7	0.0
2025-01-18 16:48:34.213490	3.0	13.7	-95.0	0.0
2025-01-18 16:48:36.457202	2.7	13.5	-95.0	0.0
2025-01-18 16:48:38.697092	2.4	13.4	-95.1	0.0
2025-01-18 16:48:40.937779	2.2	13.2	-95.0	0.0
2025-01-18 16:48:43.178200	1.9	13.0	-94.9	0.0
2025-01-18 16:48:45.420501	1.6	12.9	-94.9	0.0
2025-01-18 16:48:47.661022	1.3	12.7	-94.9	0.0
2025-01-18 16:48:49.902573	1.1	12.5	-95.0	0.0
2025-01-18 16:48:52.143638	0.8	12.3	-95.1	0.0
2025-01-18 16:48:54.386943	0.6	12.2	-94.6	0.0
2025-01-18 16:48:56.630206	0.3	12.0	-94.8	0.0
2025-01-18 16:48:58.874936	0.1	11.8	-94.9	0.0
2025-01-18 16:49:01.117294	359.8	11.7	-94.8	0.0
2025-01-18 16:49:03.359084	359.6	11.5	-94.7	0.0
2025-01-18 16:49:05.597508	359.3	11.3	-95.0	0.0
2025-01-18 16:49:07.842044	359.1	11.2	-94.8	0.0
2025-01-18 16:49:10.082997	358.8	11.0	-95.0	0.0
2025-01-18 16:49:12.323843	358.6	10.9	-94.9	0.0
2025-01-18 16:49:14.563401	358.4	10.7	-95.0	0.0
2025-01-18 16:49:16.805848	358.1	10.5	-94.9	0.0
2025-01-18 16:49:19.048984	357.9	10.4	-94.8	0.0
2025-01-18 16:49:21.288922	357.7	10.2	-94.9	0.0
#Closed at: 2025-01-18 16:40:18.318456