passes_logs/2025/01/18/planumMaritime01/planumMaritime01__20250118_131712_METEOR-M2_4_rec.log

#Pass ID: 20250118_131712_METEOR-M2 4
#Satellite: METEOR-M2 4
#Configuration: METEOR-M2 4
#Start time: 2025-01-18 13:17:17.570661

#LorettStation: 1.0.0 05.05.2024
#Station: planumMaritime01
#Location: 37.49445 lon 55.92918 lat
#TLE: 1 59051U 24039A   25017.13836119  .00000085  00000+0  57680-4 0  9997
#TLE: 2 59051  98.6297 340.1037 0006274 217.8587 142.2151 14.22325694 45900

#Time	Az	El	Level	SNR
2025-01-18 13:17:19.724761	235.0	10.1	-94.4	0.0
2025-01-18 13:17:20.846799	235.2	10.2	-94.1	0.0
2025-01-18 13:17:21.968874	235.3	10.2	-94.8	0.0
2025-01-18 13:17:23.089101	235.5	10.3	-94.5	0.0
2025-01-18 13:17:24.210613	235.7	10.4	-94.7	0.0
2025-01-18 13:17:25.333583	235.8	10.4	-94.6	0.0
2025-01-18 13:17:26.455548	236.0	10.5	-94.5	0.0
2025-01-18 13:17:27.578405	236.2	10.5	-94.5	0.0
2025-01-18 13:17:28.699454	236.3	10.6	-94.4	0.0
2025-01-18 13:17:29.820969	236.5	10.6	-94.5	0.0
2025-01-18 13:17:30.943885	236.7	10.7	-94.7	0.0
2025-01-18 13:17:32.065659	236.8	10.8	-94.6	0.0
2025-01-18 13:17:33.187345	237.0	10.8	-94.7	0.0
2025-01-18 13:17:34.308503	237.2	10.9	-94.6	0.0
2025-01-18 13:17:35.430556	237.4	10.9	-94.6	0.0
2025-01-18 13:17:36.553324	237.5	11.0	-94.5	0.0
2025-01-18 13:17:37.676654	237.7	11.1	-94.6	0.0
2025-01-18 13:17:38.799812	237.9	11.1	-94.9	0.0
2025-01-18 13:17:39.922673	238.0	11.2	-94.6	0.0
2025-01-18 13:17:41.043464	238.2	11.2	-94.7	0.0
2025-01-18 13:17:42.164627	238.4	11.3	-94.9	0.0
2025-01-18 13:17:43.283484	238.6	11.3	-94.7	0.0
2025-01-18 13:17:44.405939	238.7	11.4	-94.7	0.0
2025-01-18 13:17:45.527609	238.9	11.5	-94.6	0.0
2025-01-18 13:17:46.648601	239.1	11.5	-94.3	0.0
2025-01-18 13:17:47.768613	239.3	11.6	-94.7	0.0
2025-01-18 13:17:48.892474	239.5	11.6	-94.5	0.0
2025-01-18 13:17:50.013332	239.6	11.7	-94.5	0.0
2025-01-18 13:17:51.133555	239.8	11.7	-94.4	0.0
2025-01-18 13:17:52.253433	240.0	11.8	-94.5	0.0
2025-01-18 13:17:53.375077	240.2	11.9	-94.5	0.0
2025-01-18 13:17:54.497221	240.4	11.9	-94.2	0.0
2025-01-18 13:17:55.618464	240.6	12.0	-94.2	0.0
2025-01-18 13:17:56.739160	240.7	12.0	-94.3	0.0
2025-01-18 13:17:57.859013	240.9	12.1	-94.5	0.0
2025-01-18 13:17:58.980341	241.1	12.1	-94.7	0.0
2025-01-18 13:18:00.100430	241.3	12.2	-94.7	0.0
2025-01-18 13:18:01.221568	241.5	12.2	-94.5	0.0
2025-01-18 13:18:02.341966	241.7	12.3	-94.6	0.0
2025-01-18 13:18:03.464744	241.9	12.4	-94.7	0.0
2025-01-18 13:18:04.586751	242.0	12.4	-94.5	0.0
2025-01-18 13:18:05.707938	242.2	12.5	-94.5	0.0
2025-01-18 13:18:06.829085	242.4	12.5	-94.7	0.0
2025-01-18 13:18:07.950464	242.6	12.6	-94.7	0.0
2025-01-18 13:18:09.071428	242.8	12.6	-94.8	0.0
2025-01-18 13:18:10.192630	243.0	12.7	-94.9	0.0
2025-01-18 13:18:11.311166	243.2	12.7	-94.5	0.0
2025-01-18 13:18:12.433437	243.4	12.8	-94.5	0.0
2025-01-18 13:18:13.552870	243.6	12.8	-94.6	0.0
2025-01-18 13:18:14.675014	243.8	12.9	-94.9	0.0
2025-01-18 13:18:15.797485	244.0	13.0	-94.8	0.0
2025-01-18 13:18:16.918553	244.2	13.0	-94.8	0.0
2025-01-18 13:18:18.041255	244.4	13.1	-94.9	0.0
2025-01-18 13:18:19.162578	244.6	13.1	-94.7	0.0
2025-01-18 13:18:20.281478	244.8	13.2	-94.8	0.0
2025-01-18 13:18:21.402618	245.0	13.2	-94.8	0.0
2025-01-18 13:18:22.523698	245.2	13.3	-94.9	0.0
2025-01-18 13:18:23.646044	245.4	13.3	-95.0	0.0
2025-01-18 13:18:24.766501	245.6	13.4	-94.7	0.0
2025-01-18 13:18:25.884875	245.8	13.4	-94.7	0.0
2025-01-18 13:18:27.008001	246.0	13.5	-94.8	0.0
2025-01-18 13:18:28.129123	246.2	13.5	-94.8	0.0
2025-01-18 13:18:29.247966	246.4	13.6	-95.1	0.0
2025-01-18 13:18:30.370611	246.6	13.6	-94.6	0.0
2025-01-18 13:18:31.493558	246.8	13.7	-94.7	0.0
2025-01-18 13:18:32.614567	247.0	13.7	-94.7	0.0
2025-01-18 13:18:33.737468	247.2	13.8	-94.5	0.0
2025-01-18 13:18:34.858296	247.4	13.8	-94.7	0.0
2025-01-18 13:18:35.978043	247.6	13.9	-94.6	0.0
2025-01-18 13:18:37.099222	247.8	13.9	-94.7	0.0
2025-01-18 13:18:38.221782	248.0	14.0	-94.5	0.0
2025-01-18 13:18:39.343992	248.2	14.0	-94.6	0.0
2025-01-18 13:18:40.466118	248.5	14.1	-94.5	0.0
2025-01-18 13:18:41.588579	248.7	14.1	-94.4	0.0
2025-01-18 13:18:42.708889	248.9	14.2	-94.7	0.0
2025-01-18 13:18:43.832880	249.1	14.2	-94.7	0.0
2025-01-18 13:18:44.952965	249.3	14.3	-94.7	0.0
2025-01-18 13:18:46.074298	249.5	14.3	-94.7	0.0
2025-01-18 13:18:47.196935	249.7	14.4	-94.7	0.0
2025-01-18 13:18:48.318878	250.0	14.4	-94.6	0.0
2025-01-18 13:18:49.440465	250.2	14.5	-94.7	0.0
2025-01-18 13:18:50.563046	250.4	14.5	-94.6	0.0
2025-01-18 13:18:51.682287	250.6	14.5	-94.6	0.0
2025-01-18 13:18:52.805610	250.8	14.6	-94.8	0.0
2025-01-18 13:18:53.927533	251.0	14.6	-94.6	0.0
2025-01-18 13:18:55.046342	251.3	14.7	-94.9	0.0
2025-01-18 13:18:56.168421	251.5	14.7	-94.5	0.0
2025-01-18 13:18:57.289853	251.7	14.8	-94.5	0.0
2025-01-18 13:18:58.410257	251.9	14.8	-94.7	0.0
2025-01-18 13:18:59.532111	252.1	14.9	-94.6	0.0
2025-01-18 13:19:00.651778	252.4	14.9	-94.8	0.0
2025-01-18 13:19:01.774322	252.6	14.9	-94.8	0.0
2025-01-18 13:19:02.897452	252.8	15.0	-94.8	0.0
2025-01-18 13:19:04.021532	253.0	15.0	-94.8	0.0
2025-01-18 13:19:05.145580	253.3	15.1	-94.8	0.0
2025-01-18 13:19:06.268658	253.5	15.1	-94.7	0.0
2025-01-18 13:19:07.388755	253.7	15.2	-94.4	0.0
2025-01-18 13:19:08.510824	253.9	15.2	-94.5	0.0
2025-01-18 13:19:09.632302	254.2	15.2	-94.5	0.0
2025-01-18 13:19:10.754905	254.4	15.3	-94.6	0.0
2025-01-18 13:19:11.877447	254.6	15.3	-94.3	0.0
2025-01-18 13:19:13.000302	254.9	15.4	-94.5	0.0
2025-01-18 13:19:14.121943	255.1	15.4	-94.6	0.0
2025-01-18 13:19:15.242003	255.3	15.4	-94.5	0.0
2025-01-18 13:19:16.365361	255.6	15.5	-94.4	0.0
2025-01-18 13:19:17.487001	255.8	15.5	-94.4	0.0
2025-01-18 13:19:18.611123	256.0	15.5	-94.8	0.0
2025-01-18 13:19:19.731320	256.3	15.6	-94.8	0.0
2025-01-18 13:19:20.852526	256.5	15.6	-94.8	0.0
2025-01-18 13:19:21.973212	256.7	15.7	-95.0	0.0
2025-01-18 13:19:23.093500	257.0	15.7	-95.0	0.0
2025-01-18 13:19:24.214629	257.2	15.7	-94.9	0.0
2025-01-18 13:19:25.333995	257.4	15.8	-94.8	0.0
2025-01-18 13:19:26.456252	257.7	15.8	-94.9	0.0
2025-01-18 13:19:27.577168	257.9	15.8	-94.9	0.0
2025-01-18 13:19:28.700957	258.1	15.9	-94.8	0.0
2025-01-18 13:19:29.822625	258.4	15.9	-94.8	0.0
2025-01-18 13:19:30.943768	258.6	15.9	-94.9	0.0
2025-01-18 13:19:32.065019	258.8	16.0	-95.0	0.0
2025-01-18 13:19:33.186723	259.1	16.0	-94.6	0.0
2025-01-18 13:19:34.309118	259.3	16.0	-94.5	0.0
2025-01-18 13:19:35.430220	259.6	16.1	-94.7	0.0
2025-01-18 13:19:36.552065	259.8	16.1	-95.0	0.0
2025-01-18 13:19:37.673525	260.0	16.1	-94.7	0.0
2025-01-18 13:19:38.794287	260.3	16.1	-94.5	0.0
2025-01-18 13:19:39.915588	260.5	16.2	-95.0	0.0
2025-01-18 13:19:41.038187	260.8	16.2	-94.8	0.0
2025-01-18 13:19:42.158150	261.0	16.2	-94.7	0.0
2025-01-18 13:19:43.278750	261.3	16.3	-94.7	0.0
2025-01-18 13:19:44.398782	261.5	16.3	-94.6	0.0
2025-01-18 13:19:45.519600	261.7	16.3	-94.5	0.0
2025-01-18 13:19:46.641767	262.0	16.3	-94.7	0.0
2025-01-18 13:19:47.762388	262.2	16.4	-94.7	0.0
2025-01-18 13:19:48.881928	262.5	16.4	-94.8	0.0
2025-01-18 13:19:50.004368	262.7	16.4	-94.6	0.0
2025-01-18 13:19:51.125470	263.0	16.4	-94.9	0.0
2025-01-18 13:19:52.246560	263.2	16.5	-94.8	0.0
2025-01-18 13:19:53.370547	263.5	16.5	-94.7	0.0
2025-01-18 13:19:54.491400	263.7	16.5	-94.6	0.0
2025-01-18 13:19:55.614002	264.0	16.5	-94.8	0.0
2025-01-18 13:19:56.734667	264.2	16.6	-94.8	0.0
2025-01-18 13:19:57.857960	264.5	16.6	-94.6	0.0
2025-01-18 13:19:58.980633	264.7	16.6	-94.6	0.0
2025-01-18 13:20:00.101540	265.0	16.6	-94.5	0.0
2025-01-18 13:20:01.221209	265.2	16.7	-94.5	0.0
2025-01-18 13:20:02.342437	265.5	16.7	-94.7	0.0
2025-01-18 13:20:03.461707	265.7	16.7	-94.7	0.0
2025-01-18 13:20:04.581862	266.0	16.7	-94.7	0.0
2025-01-18 13:20:05.702614	266.2	16.7	-94.7	0.0
2025-01-18 13:20:06.824111	266.5	16.7	-94.4	0.0
2025-01-18 13:20:07.945329	266.7	16.8	-94.6	0.0
2025-01-18 13:20:09.065879	267.0	16.8	-94.5	0.0
2025-01-18 13:20:10.185274	267.2	16.8	-94.7	0.0
2025-01-18 13:20:11.307479	267.5	16.8	-94.8	0.0
2025-01-18 13:20:12.429651	267.7	16.8	-94.6	0.0
2025-01-18 13:20:13.549342	268.0	16.8	-94.6	0.0
2025-01-18 13:20:14.669811	268.2	16.9	-94.5	0.0
2025-01-18 13:20:15.791603	268.5	16.9	-94.8	0.0
2025-01-18 13:20:16.911981	268.7	16.9	-94.6	0.0
2025-01-18 13:20:18.032911	269.0	16.9	-94.7	0.0
2025-01-18 13:20:19.153981	269.2	16.9	-94.6	0.0
2025-01-18 13:20:20.275087	269.5	16.9	-94.6	0.0
2025-01-18 13:20:21.396944	269.7	16.9	-94.7	0.0
2025-01-18 13:20:22.515468	270.0	16.9	-94.7	0.0
2025-01-18 13:20:23.636455	270.3	17.0	-94.7	0.0
2025-01-18 13:20:24.757791	270.5	17.0	-94.7	0.0
2025-01-18 13:20:25.877868	270.8	17.0	-94.8	0.0
2025-01-18 13:20:26.999710	271.0	17.0	-95.0	0.0
2025-01-18 13:20:28.120306	271.3	17.0	-94.8	0.0
2025-01-18 13:20:29.241830	271.5	17.0	-94.9	0.0
2025-01-18 13:20:30.363503	271.8	17.0	-94.9	0.0
2025-01-18 13:20:31.486430	272.0	17.0	-94.7	0.0
2025-01-18 13:20:32.606394	272.3	17.0	-94.7	0.0
2025-01-18 13:20:33.727057	272.6	17.0	-94.8	0.0
2025-01-18 13:20:34.848807	272.8	17.0	-95.0	0.0
2025-01-18 13:20:35.972389	273.1	17.0	-95.0	0.0
2025-01-18 13:20:37.093216	273.3	17.0	-94.7	0.0
2025-01-18 13:20:38.214441	273.6	17.0	-94.8	0.0
2025-01-18 13:20:39.337046	273.8	17.0	-94.6	0.0
2025-01-18 13:20:40.458778	274.1	17.0	-94.8	0.0
2025-01-18 13:20:41.579103	274.3	17.0	-94.6	0.0
2025-01-18 13:20:42.699965	274.6	17.0	-94.8	0.0
2025-01-18 13:20:43.820841	274.9	17.0	-94.8	0.0
2025-01-18 13:20:44.942155	275.1	17.0	-94.8	0.0
2025-01-18 13:20:46.063082	275.4	17.0	-94.9	0.0
2025-01-18 13:20:47.182960	275.6	17.0	-94.6	0.0
2025-01-18 13:20:48.302780	275.9	17.0	-94.8	0.0
2025-01-18 13:20:49.423513	276.1	17.0	-94.8	0.0
2025-01-18 13:20:50.545996	276.4	17.0	-94.8	0.0
2025-01-18 13:20:51.666466	276.6	17.0	-94.6	0.0
2025-01-18 13:20:52.785763	276.9	17.0	-94.9	0.0
2025-01-18 13:20:53.907819	277.2	17.0	-95.0	0.0
2025-01-18 13:20:55.027149	277.4	17.0	-94.8	0.0
2025-01-18 13:20:56.150006	277.7	17.0	-94.5	0.0
2025-01-18 13:20:57.271202	277.9	17.0	-94.9	0.0
2025-01-18 13:20:58.392597	278.2	17.0	-94.7	0.0
2025-01-18 13:20:59.514467	278.4	17.0	-94.7	0.0
2025-01-18 13:21:00.635696	278.7	17.0	-94.7	0.0
2025-01-18 13:21:01.756443	278.9	17.0	-94.5	0.0
2025-01-18 13:21:02.878117	279.2	17.0	-94.8	0.0
2025-01-18 13:21:03.997786	279.5	17.0	-94.8	0.0
2025-01-18 13:21:05.120833	279.7	16.9	-94.5	0.0
2025-01-18 13:21:06.243052	280.0	16.9	-94.7	0.0
2025-01-18 13:21:07.366037	280.2	16.9	-94.6	0.0
2025-01-18 13:21:08.489463	280.5	16.9	-94.9	0.0
2025-01-18 13:21:09.610403	280.7	16.9	-94.8	0.0
2025-01-18 13:21:10.732128	281.0	16.9	-94.9	0.0
2025-01-18 13:21:11.851819	281.2	16.9	-94.7	0.0
2025-01-18 13:21:12.975487	281.5	16.9	-94.7	0.0
2025-01-18 13:21:14.096351	281.7	16.9	-94.8	0.0
2025-01-18 13:21:15.216059	282.0	16.8	-94.7	0.0
2025-01-18 13:21:16.338153	282.2	16.8	-94.8	0.0
2025-01-18 13:21:17.457825	282.5	16.8	-94.9	0.0
2025-01-18 13:21:18.578298	282.7	16.8	-94.9	0.0
2025-01-18 13:21:19.698703	283.0	16.8	-94.7	0.0
2025-01-18 13:21:20.818631	283.2	16.8	-95.1	0.0
2025-01-18 13:21:21.938709	283.5	16.7	-95.0	0.0
2025-01-18 13:21:23.058518	283.7	16.7	-95.0	0.0
2025-01-18 13:21:24.179109	284.0	16.7	-94.6	0.0
2025-01-18 13:21:25.299461	284.2	16.7	-95.1	0.0
2025-01-18 13:21:26.419217	284.5	16.7	-95.2	0.0
2025-01-18 13:21:27.541319	284.7	16.6	-95.0	0.0
2025-01-18 13:21:28.663505	285.0	16.6	-94.6	0.0
2025-01-18 13:21:29.785214	285.2	16.6	-94.7	0.0
2025-01-18 13:21:30.906022	285.5	16.6	-94.7	0.0
2025-01-18 13:21:32.026763	285.7	16.6	-94.8	0.0
2025-01-18 13:21:33.146611	286.0	16.5	-94.9	0.0
2025-01-18 13:21:34.267112	286.2	16.5	-94.6	0.0
2025-01-18 13:21:35.388015	286.5	16.5	-94.7	0.0
2025-01-18 13:21:36.508791	286.7	16.5	-94.8	0.0
2025-01-18 13:21:37.630834	287.0	16.4	-94.6	0.0
2025-01-18 13:21:38.753017	287.2	16.4	-94.5	0.0
2025-01-18 13:21:39.875266	287.5	16.4	-94.4	0.0
2025-01-18 13:21:40.994422	287.7	16.4	-94.5	0.0
2025-01-18 13:21:42.115194	288.0	16.3	-94.5	0.0
2025-01-18 13:21:43.234798	288.2	16.3	-94.7	0.0
2025-01-18 13:21:44.356255	288.4	16.3	-94.4	0.0
2025-01-18 13:21:45.479057	288.7	16.3	-94.4	0.0
2025-01-18 13:21:46.599098	288.9	16.2	-94.7	0.0
2025-01-18 13:21:47.721890	289.2	16.2	-94.7	0.0
2025-01-18 13:21:48.842751	289.4	16.2	-94.8	0.0
2025-01-18 13:21:49.963186	289.6	16.1	-94.5	0.0
2025-01-18 13:21:51.085290	289.9	16.1	-94.6	0.0
2025-01-18 13:21:52.206164	290.1	16.1	-94.5	0.0
2025-01-18 13:21:53.330005	290.4	16.0	-94.9	0.0
2025-01-18 13:21:54.450519	290.6	16.0	-94.7	0.0
2025-01-18 13:21:55.572675	290.8	16.0	-94.7	0.0
2025-01-18 13:21:56.695384	291.1	15.9	-94.7	0.0
2025-01-18 13:21:57.817498	291.3	15.9	-94.9	0.0
2025-01-18 13:21:58.938219	291.6	15.9	-94.9	0.0
2025-01-18 13:22:00.058885	291.8	15.8	-94.7	0.0
2025-01-18 13:22:01.180849	292.0	15.8	-94.9	0.0
2025-01-18 13:22:02.303182	292.3	15.8	-94.9	0.0
2025-01-18 13:22:03.422484	292.5	15.7	-94.8	0.0
2025-01-18 13:22:04.543383	292.7	15.7	-94.7	0.0
2025-01-18 13:22:05.665399	293.0	15.7	-94.6	0.0
2025-01-18 13:22:06.787498	293.2	15.6	-94.9	0.0
2025-01-18 13:22:07.910207	293.4	15.6	-94.8	0.0
2025-01-18 13:22:09.031044	293.7	15.6	-94.7	0.0
2025-01-18 13:22:10.153200	293.9	15.5	-94.8	0.0
2025-01-18 13:22:11.275520	294.1	15.5	-94.8	0.0
2025-01-18 13:22:12.396366	294.4	15.5	-94.8	0.0
2025-01-18 13:22:13.515290	294.6	15.4	-94.7	0.0
2025-01-18 13:22:14.636822	294.8	15.4	-94.8	0.0
2025-01-18 13:22:15.756112	295.1	15.3	-94.8	0.0
2025-01-18 13:22:16.876630	295.3	15.3	-94.8	0.0
2025-01-18 13:22:17.999509	295.5	15.3	-94.6	0.0
2025-01-18 13:22:19.120309	295.7	15.2	-94.6	0.0
2025-01-18 13:22:20.241900	296.0	15.2	-94.8	0.0
2025-01-18 13:22:21.363287	296.2	15.1	-94.8	0.0
2025-01-18 13:22:22.485812	296.4	15.1	-94.8	0.0
2025-01-18 13:22:23.607624	296.6	15.1	-94.7	0.0
2025-01-18 13:22:24.728220	296.9	15.0	-94.9	0.0
2025-01-18 13:22:25.849302	297.1	15.0	-94.7	0.0
2025-01-18 13:22:26.970626	297.3	14.9	-94.7	0.0
2025-01-18 13:22:28.090107	297.5	14.9	-94.7	0.0
2025-01-18 13:22:29.209584	297.8	14.8	-94.9	0.0
2025-01-18 13:22:30.330304	298.0	14.8	-94.9	0.0
2025-01-18 13:22:31.450984	298.2	14.8	-94.8	0.0
2025-01-18 13:22:32.571406	298.4	14.7	-94.5	0.0
2025-01-18 13:22:33.693455	298.6	14.7	-94.8	0.0
2025-01-18 13:22:34.814423	298.8	14.6	-94.9	0.0
2025-01-18 13:22:35.935716	299.1	14.6	-94.7	0.0
2025-01-18 13:22:37.055265	299.3	14.5	-94.8	0.0
2025-01-18 13:22:38.177299	299.5	14.5	-94.9	0.0
2025-01-18 13:22:39.299473	299.7	14.4	-94.6	0.0
2025-01-18 13:22:40.417281	299.9	14.4	-95.0	0.0
2025-01-18 13:22:41.540149	300.1	14.4	-94.9	0.0
2025-01-18 13:22:42.662590	300.4	14.3	-94.8	0.0
2025-01-18 13:22:43.783040	300.6	14.3	-94.9	0.0
2025-01-18 13:22:44.904596	300.8	14.2	-94.8	0.0
2025-01-18 13:22:46.027336	301.0	14.2	-94.6	0.0
2025-01-18 13:22:47.148539	301.2	14.1	-94.8	0.0
2025-01-18 13:22:48.269575	301.4	14.1	-94.6	0.0
2025-01-18 13:22:49.388997	301.6	14.0	-94.8	0.0
2025-01-18 13:22:50.510616	301.8	14.0	-94.8	0.0
2025-01-18 13:22:51.630759	302.0	13.9	-94.9	0.0
2025-01-18 13:22:52.751130	302.3	13.9	-94.8	0.0
2025-01-18 13:22:53.873508	302.5	13.8	-94.8	0.0
2025-01-18 13:22:54.991106	302.7	13.8	-94.8	0.0
2025-01-18 13:22:56.111686	302.9	13.7	-94.9	0.0
2025-01-18 13:22:57.233203	303.1	13.7	-95.0	0.0
2025-01-18 13:22:58.355021	303.3	13.6	-94.6	0.0
2025-01-18 13:22:59.478332	303.5	13.6	-94.9	0.0
2025-01-18 13:23:00.598745	303.7	13.5	-95.0	0.0
2025-01-18 13:23:01.719237	303.9	13.5	-94.8	0.0
2025-01-18 13:23:02.841368	304.1	13.4	-94.8	0.0
2025-01-18 13:23:03.962352	304.3	13.4	-94.8	0.0
2025-01-18 13:23:05.082610	304.5	13.3	-94.7	0.0
2025-01-18 13:23:06.202356	304.7	13.3	-94.8	0.0
2025-01-18 13:23:07.324238	304.9	13.2	-94.9	0.0
2025-01-18 13:23:08.446721	305.1	13.2	-95.1	0.0
2025-01-18 13:23:09.566506	305.3	13.1	-95.0	0.0
2025-01-18 13:23:10.687233	305.5	13.1	-94.8	0.0
2025-01-18 13:23:11.810524	305.7	13.0	-94.7	0.0
2025-01-18 13:23:12.930613	305.9	13.0	-95.1	0.0
2025-01-18 13:23:14.051610	306.1	12.9	-95.2	0.0
2025-01-18 13:23:15.172243	306.3	12.8	-94.9	0.0
2025-01-18 13:23:16.294490	306.5	12.8	-95.0	0.0
2025-01-18 13:23:17.413994	306.7	12.7	-95.2	0.0
2025-01-18 13:23:18.535012	306.8	12.7	-94.5	0.0
2025-01-18 13:23:19.656700	307.0	12.6	-94.9	0.0
2025-01-18 13:23:20.776901	307.2	12.6	-95.0	0.0
2025-01-18 13:23:21.898287	307.4	12.5	-95.0	0.0
2025-01-18 13:23:23.017422	307.6	12.5	-94.8	0.0
2025-01-18 13:23:24.139541	307.8	12.4	-94.7	0.0
2025-01-18 13:23:25.262179	308.0	12.4	-95.1	0.0
2025-01-18 13:23:26.381234	308.2	12.3	-95.0	0.0
2025-01-18 13:23:27.502551	308.4	12.3	-94.8	0.0
2025-01-18 13:23:28.623238	308.5	12.2	-94.9	0.0
2025-01-18 13:23:29.745288	308.7	12.1	-94.9	0.0
2025-01-18 13:23:30.866907	308.9	12.1	-95.0	0.0
2025-01-18 13:23:31.986634	309.1	12.0	-94.8	0.0
2025-01-18 13:23:33.109167	309.3	12.0	-94.9	0.0
2025-01-18 13:23:34.231037	309.5	11.9	-95.0	0.0
2025-01-18 13:23:35.351437	309.6	11.9	-94.7	0.0
2025-01-18 13:23:36.471502	309.8	11.8	-94.9	0.0
2025-01-18 13:23:37.593441	310.0	11.8	-94.8	0.0
2025-01-18 13:23:38.714217	310.2	11.7	-94.9	0.0
2025-01-18 13:23:39.836484	310.4	11.6	-94.7	0.0
2025-01-18 13:23:40.957436	310.5	11.6	-94.8	0.0
2025-01-18 13:23:42.079626	310.7	11.5	-94.7	0.0
2025-01-18 13:23:43.201357	310.9	11.5	-94.8	0.0
2025-01-18 13:23:44.321770	311.1	11.4	-94.7	0.0
2025-01-18 13:23:45.442543	311.3	11.4	-94.9	0.0
2025-01-18 13:23:46.563199	311.4	11.3	-94.9	0.0
2025-01-18 13:23:47.682448	311.6	11.2	-95.2	0.0
2025-01-18 13:23:48.803629	311.8	11.2	-94.8	0.0
2025-01-18 13:23:49.924999	311.9	11.1	-94.8	0.0
2025-01-18 13:23:51.046423	312.1	11.1	-94.7	0.0
2025-01-18 13:23:52.169315	312.3	11.0	-95.0	0.0
2025-01-18 13:23:53.291368	312.5	11.0	-95.0	0.0
2025-01-18 13:23:54.412271	312.6	10.9	-95.1	0.0
2025-01-18 13:23:55.534572	312.8	10.8	-94.9	0.0
2025-01-18 13:23:56.654750	313.0	10.8	-95.0	0.0
2025-01-18 13:23:57.777706	313.1	10.7	-94.5	0.0
2025-01-18 13:23:58.899710	313.3	10.7	-95.0	0.0
2025-01-18 13:24:00.019011	313.5	10.6	-95.1	0.0
2025-01-18 13:24:01.138308	313.6	10.5	-95.1	0.0
2025-01-18 13:24:02.258710	313.8	10.5	-94.9	0.0
2025-01-18 13:24:03.380050	314.0	10.4	-94.9	0.0
2025-01-18 13:24:04.501442	314.1	10.4	-94.9	0.0
2025-01-18 13:24:05.622826	314.3	10.3	-95.0	0.0
2025-01-18 13:24:06.743762	314.5	10.3	-95.0	0.0
2025-01-18 13:24:07.864616	314.6	10.2	-94.9	0.0
2025-01-18 13:24:08.984214	314.8	10.1	-94.9	0.0
2025-01-18 13:24:10.105988	315.0	10.1	-94.8	0.0
2025-01-18 13:24:11.227610	315.1	10.0	-94.9	0.0
#Closed at: 2025-01-18 13:17:12.573886