passes_logs/2026/01/07/R4.6S_Anadyr_2ch/R4.6S_Anadyr_2ch__20260107_015440_AQUA_rec.log

#Pass ID: 20260107_015440_AQUA
#Satellite: AQUA
#Configuration: AQUA
#almurnet v.1.7.20251203
#Start time: 2026-01-07 01:54:41

#Version: 2.2.20231116
#Station: R4.6S_Anadyr_2ch
#Location: 177.4865 lon 64.73178 lat
#TLE: 1 27424U 02022A   25351.00450321  .00000925  00000+0  19503-3 0  9992
#TLE: 2 27424  98.4041 311.9529 0001248 113.7180 322.1616 14.61819266256652

#Time	Az	El	Level	Level2	SNR	BER	BlckErr	Temp	State	Recorded	gain1	gain2
2026-01-07 01:54:41.71	155.84	0.10	-51.5	-63.4	3.5	8.46e-01	0	29	0	0	60	71901
2026-01-07 01:54:45.76	155.84	0.35	-51.6	-69.4	3.5	3.02e+01	0	31	104	0	60	153253
2026-01-07 01:54:49.80	155.85	0.61	-51.6	-69.5	3.5	3.02e+01	0	31	104	0	60	154342
2026-01-07 01:54:53.84	155.86	0.86	-51.6	-69.4	3.5	3.02e+01	0	31	104	0	60	154025
2026-01-07 01:54:57.89	155.86	1.12	-51.6	-69.5	3.5	3.02e+01	0	31	104	0	60	154673
2026-01-07 01:55:01.93	155.87	1.38	-51.6	-69.4	3.5	3.02e+01	0	31	104	0	60	153852
2026-01-07 01:55:05.98	155.87	1.65	-51.6	-69.4	3.5	3.02e+01	0	31	104	0	60	153247
2026-01-07 01:55:10.02	155.88	1.92	-51.6	-69.5	3.5	3.02e+01	0	31	104	0	60	154209
2026-01-07 01:55:14.06	155.89	2.19	-51.6	-69.4	3.5	3.02e+01	0	31	104	0	60	153239
2026-01-07 01:55:18.11	155.89	2.46	-51.6	-69.5	3.5	3.02e+01	0	31	104	0	60	154167
2026-01-07 01:55:22.15	155.90	2.73	-51.6	-69.4	3.5	3.02e+01	0	31	104	0	60	152913
2026-01-07 01:55:26.20	155.90	3.01	-51.6	-69.4	3.5	3.02e+01	0	31	104	0	60	153783
2026-01-07 01:55:30.24	155.91	3.30	-51.6	-69.4	3.5	3.02e+01	0	31	104	0	60	154009
2026-01-07 01:55:34.28	155.91	3.58	-51.6	-69.5	3.5	3.02e+01	0	31	104	0	60	154216
2026-01-07 01:55:38.33	155.92	3.87	-51.8	-69.5	3.5	3.02e+01	0	31	104	0	60	155717
2026-01-07 01:55:42.37	155.92	4.16	-51.9	-69.7	3.5	3.02e+01	0	31	104	0	60	158981
2026-01-07 01:55:46.41	155.93	4.46	-51.7	-69.5	3.5	3.02e+01	0	31	104	0	60	155583
2026-01-07 01:55:50.46	155.93	4.76	-50.3	-68.1	3.5	3.02e+01	0	31	104	0	60	132325
2026-01-07 01:55:54.50	155.94	5.06	-49.8	-67.7	3.5	3.02e+01	0	31	104	0	60	125921
2026-01-07 01:55:58.54	155.94	5.37	-49.8	-67.7	3.5	3.02e+01	0	31	104	0	60	125461
2026-01-07 01:56:02.58	155.94	5.68	-49.8	-66.7	3.5	3.02e+01	0	32	104	0	60	112107
2026-01-07 01:56:06.63	155.95	5.99	-49.8	-67.6	3.5	3.02e+01	0	32	104	0	60	124708
2026-01-07 01:56:10.67	155.95	6.31	-49.8	-67.5	3.5	3.02e+01	0	32	104	0	60	122767
2026-01-07 01:56:14.72	155.95	6.64	-49.7	-65.4	3.6	3.02e+01	0	32	104	0	60	96961
2026-01-07 01:56:18.76	155.96	6.97	-49.8	-67.3	3.5	3.02e+01	0	32	104	0	60	119636
2026-01-07 01:56:22.80	155.96	7.30	-49.8	-66.6	3.5	3.02e+01	0	32	104	0	60	110849
2026-01-07 01:56:26.85	155.96	7.64	-48.6	-55.1	11.8	3.02e+01	90	32	102	524288	60	29439
2026-01-07 01:56:30.89	155.97	7.98	-46.0	-49.3	17.5	3.02e+01	90	32	102	524288	60	15085
2026-01-07 01:56:34.93	155.97	8.33	-46.1	-49.4	17.7	3.02e+01	92	32	102	524288	60	15365
2026-01-07 01:56:38.97	155.97	8.68	-47.3	-51.7	14.7	3.02e+01	0	32	104	524288	60	19876
2026-01-07 01:56:43.02	155.97	9.04	-41.8	-43.4	23.8	3.02e+01	88	32	0	524288	60	7721
2026-01-07 01:56:47.06	155.97	9.41	-41.5	-43.2	24.2	3.02e+01	92	32	0	524288	60	7492
2026-01-07 01:56:51.10	155.97	9.78	-41.3	-42.9	24.5	3.02e+01	92	32	101	524288	60	7251
2026-01-07 01:56:55.14	155.97	10.16	-41.3	-42.9	24.7	3.02e+01	92	32	101	524288	60	7210
2026-01-07 01:56:59.19	155.97	10.54	-40.9	-42.5	25.0	3.02e+01	92	32	101	524288	60	6909
2026-01-07 01:57:03.23	155.97	10.94	-40.6	-42.1	25.5	3.02e+01	92	32	101	524288	60	6592
2026-01-07 01:57:07.27	155.97	11.33	-40.6	-42.1	25.6	3.02e+01	92	32	101	524288	60	6578
2026-01-07 01:57:11.31	155.97	11.74	-40.1	-41.6	26.1	3.02e+01	92	32	101	524288	60	6209
2026-01-07 01:57:15.36	155.97	12.15	-40.5	-41.9	25.8	3.02e+01	92	32	101	524288	60	6478
2026-01-07 01:57:19.40	155.97	12.57	-39.7	-41.1	26.6	3.02e+01	91	32	101	524288	60	5883
2026-01-07 01:57:23.44	155.96	13.00	-39.7	-41.1	26.7	3.02e+01	92	32	101	524288	60	5893
2026-01-07 01:57:27.49	155.96	13.44	-39.5	-40.8	26.9	3.02e+01	91	32	101	524288	60	5708
2026-01-07 01:57:31.53	155.96	13.89	-39.3	-40.6	27.1	3.02e+01	92	32	101	524288	58	6234
2026-01-07 01:57:35.57	155.95	14.35	-39.4	-40.8	26.9	3.02e+01	92	32	101	524288	58	6381
2026-01-07 01:57:39.61	155.95	14.81	-39.2	-40.5	27.2	3.02e+01	92	32	101	524288	58	6181
2026-01-07 01:57:43.66	155.94	15.29	-39.1	-40.4	27.3	3.02e+01	91	32	101	524288	58	6105
2026-01-07 01:57:47.70	155.94	15.78	-38.8	-40.1	27.6	3.02e+01	90	32	101	524288	58	5894
2026-01-07 01:57:51.75	155.93	16.28	-38.7	-40.0	27.7	3.02e+01	92	32	101	524288	58	5847
2026-01-07 01:57:55.79	155.92	16.78	-38.6	-39.8	27.9	3.02e+01	92	32	101	524288	58	5718
2026-01-07 01:57:59.83	155.91	17.31	-38.6	-39.9	28.0	3.02e+01	87	32	101	524288	56	6445
2026-01-07 01:58:03.87	155.90	17.84	-38.3	-39.6	28.3	3.02e+01	92	32	101	524288	56	6225
2026-01-07 01:58:07.92	155.89	18.39	-38.1	-39.4	28.5	3.02e+01	91	32	101	524288	56	6074
2026-01-07 01:58:11.96	155.88	18.95	-38.0	-39.3	28.7	3.02e+01	92	32	101	524288	56	6005
2026-01-07 01:58:16.00	155.87	19.52	-37.9	-39.1	28.8	3.02e+01	89	32	101	524288	56	5896
2026-01-07 01:58:20.04	155.86	20.11	-37.9	-39.1	28.8	3.02e+01	91	32	101	524288	56	5918
2026-01-07 01:58:24.07	155.84	20.72	-37.7	-38.9	29.0	3.02e+01	91	32	101	524288	56	5778
2026-01-07 01:58:28.11	155.83	21.34	-37.7	-38.9	29.0	3.02e+01	90	32	101	524288	56	5764
2026-01-07 01:58:32.14	155.81	21.97	-37.7	-38.9	29.0	3.02e+01	91	32	101	524288	56	5775
2026-01-07 01:58:36.19	155.79	22.63	-37.7	-38.9	29.0	3.02e+01	92	32	101	524288	56	5750
2026-01-07 01:58:40.22	155.77	23.31	-37.7	-39.0	28.9	3.02e+01	92	32	101	524288	56	5795
2026-01-07 01:58:44.26	155.75	24.00	-37.7	-38.9	29.0	3.02e+01	93	32	101	524288	56	5774
2026-01-07 01:58:48.29	155.73	24.72	-37.5	-38.8	29.1	3.02e+01	92	32	101	524288	56	5662
2026-01-07 01:58:52.33	155.71	25.45	-37.3	-38.5	29.3	3.02e+01	92	32	101	524288	54	6158
2026-01-07 01:58:56.37	155.68	26.21	-37.8	-48.0	3.6	3.02e+01	0	32	104	524288	54	18462
2026-01-07 01:59:00.41	155.65	27.00	-50.4	-65.9	3.5	3.02e+01	0	32	104	524288	60	102983
2026-01-07 01:59:04.45	155.62	27.81	-39.7	-49.9	3.6	3.02e+01	0	32	104	524288	60	16281
2026-01-07 01:59:08.48	155.59	28.64	-39.5	-49.7	3.6	3.02e+01	0	32	104	524288	60	15930
2026-01-07 01:59:12.52	155.55	29.50	-40.2	-50.5	4.1	3.02e+01	0	32	104	524288	60	17293
2026-01-07 01:59:16.56	155.51	30.40	-40.1	-50.4	3.4	3.02e+01	0	32	104	524288	60	17134
2026-01-07 01:59:20.60	155.47	31.32	-40.9	-51.4	3.5	3.02e+01	0	32	104	524288	60	19216
2026-01-07 01:59:24.64	155.43	32.27	-37.8	-48.1	3.5	3.02e+01	0	32	104	524288	56	16544
2026-01-07 01:59:28.68	155.38	33.26	-47.5	-59.2	3.5	3.02e+01	0	32	104	524288	60	47403
2026-01-07 01:59:32.71	155.32	34.28	-40.1	-50.4	3.5	3.02e+01	0	32	104	524288	60	17183
2026-01-07 01:59:36.75	155.27	35.35	-51.4	-69.2	3.5	3.02e+01	0	32	104	524288	60	149795
2026-01-07 01:59:40.79	155.20	36.45	-39.4	-49.7	3.5	3.02e+01	0	32	104	524288	60	15869
2026-01-07 01:59:44.83	155.14	37.59	-51.5	-69.3	3.5	3.02e+01	0	32	104	524288	60	151347
2026-01-07 01:59:48.87	155.06	38.77	-38.8	-49.0	3.5	3.02e+01	0	32	104	524288	58	16348
2026-01-07 01:59:52.91	154.98	40.00	-45.0	-56.0	3.5	3.02e+01	0	32	104	524288	60	32578
2026-01-07 01:59:56.94	154.89	41.27	-42.3	-52.9	3.5	3.02e+01	0	32	104	524288	60	22918
2026-01-07 02:00:00.98	154.79	42.60	-41.4	-51.8	3.5	3.02e+01	0	32	104	524288	60	20097
2026-01-07 02:00:05.02	154.69	43.97	-44.5	-55.4	3.5	3.02e+01	0	32	104	524288	60	30438
2026-01-07 02:00:09.06	154.57	45.40	-37.3	-47.6	3.5	3.02e+01	0	32	104	524288	56	15657
2026-01-07 02:00:13.10	154.43	46.88	-40.3	-50.6	3.5	3.02e+01	0	32	104	524288	60	17596
2026-01-07 02:00:17.14	154.29	48.42	-37.4	-47.6	3.5	3.02e+01	0	32	104	524288	56	15645
2026-01-07 02:00:21.17	154.12	50.01	-51.6	-69.1	3.5	3.02e+01	0	32	104	524288	60	147735
2026-01-07 02:00:25.21	153.94	51.67	-42.3	-52.9	3.5	3.02e+01	0	32	104	524288	60	22934
2026-01-07 02:00:29.24	153.73	53.39	-49.8	-63.6	3.5	3.02e+01	0	32	104	524288	60	78222
2026-01-07 02:00:33.28	153.49	55.17	-43.0	-53.5	3.5	3.02e+01	0	32	104	524288	60	24658
2026-01-07 02:00:37.31	153.22	57.01	-40.5	-50.9	3.5	3.02e+01	0	32	104	524288	60	18120
2026-01-07 02:00:41.35	152.90	58.92	-50.2	-64.1	3.5	3.02e+01	0	32	104	524288	60	83331
2026-01-07 02:00:45.39	152.53	60.89	-39.6	-50.0	3.5	3.02e+01	0	32	104	524288	58	18352
2026-01-07 02:00:49.42	152.10	62.92	-42.3	-52.8	3.5	3.02e+01	0	32	104	524288	60	22613
2026-01-07 02:00:53.46	151.57	65.02	-42.6	-53.2	3.5	3.02e+01	0	32	104	524288	60	23633
2026-01-07 02:00:57.50	150.94	67.17	-47.1	-58.6	3.5	3.02e+01	0	32	104	524288	60	44220
2026-01-07 02:01:01.54	150.16	69.38	-38.7	-48.9	3.6	3.02e+01	0	32	104	524288	58	16301
2026-01-07 02:01:05.57	149.16	71.63	-41.2	-51.6	3.4	3.02e+01	0	32	104	524288	56	24706
2026-01-07 02:01:09.61	147.86	73.94	-39.0	-49.3	3.5	3.02e+01	0	32	104	524288	58	16952
2026-01-07 02:01:13.65	146.09	76.27	-37.9	-48.2	3.5	3.02e+01	0	32	104	524288	54	18751
2026-01-07 02:01:17.69	143.56	78.63	-46.3	-57.7	3.5	3.02e+01	0	32	104	524288	60	39673
2026-01-07 02:01:21.73	139.65	80.99	-47.8	-59.9	3.5	3.02e+01	0	32	104	524288	60	51047
2026-01-07 02:01:25.76	132.97	83.29	-46.0	-57.0	3.5	3.02e+01	0	32	104	524288	60	36881
2026-01-07 02:01:29.80	119.57	85.44	-39.2	-49.5	3.5	3.02e+01	0	32	104	524288	58	17350
2026-01-07 02:01:33.84	88.50	86.98	-46.2	-57.3	3.6	3.02e+01	0	32	104	524288	60	37991
2026-01-07 02:01:37.88	40.69	86.82	-39.5	-49.6	3.5	3.02e+01	0	32	104	524288	60	15762
2026-01-07 02:01:41.92	13.37	85.13	-47.9	-59.8	3.5	3.02e+01	0	32	104	524288	60	50657
2026-01-07 02:01:45.96	1.47	82.95	-45.3	-56.4	3.5	3.02e+01	0	32	104	524288	60	34333
2026-01-07 02:01:50.00	355.37	80.62	-46.7	-58.3	3.5	3.02e+01	0	32	104	524288	60	42556
2026-01-07 02:01:54.03	351.75	78.27	-47.0	-58.4	3.5	3.02e+01	0	32	104	524288	60	43124
2026-01-07 02:01:58.07	349.36	75.92	-51.4	-68.7	3.5	3.02e+01	0	32	104	524288	60	140986
2026-01-07 02:02:02.11	347.68	73.59	-48.8	-61.5	3.5	3.02e+01	0	32	104	524288	60	61510
2026-01-07 02:02:06.15	346.43	71.30	-42.3	-52.7	3.5	3.02e+01	0	32	104	524288	60	22526
2026-01-07 02:02:10.19	345.47	69.05	-48.6	-60.9	3.5	3.02e+01	0	32	104	524288	60	57913
2026-01-07 02:02:14.23	344.72	66.86	-44.9	-56.0	3.5	3.02e+01	0	32	104	524288	60	32774
2026-01-07 02:02:18.28	344.10	64.71	-48.7	-60.9	3.5	3.02e+01	0	32	104	524288	60	57576
2026-01-07 02:02:22.32	343.60	62.63	-42.2	-52.8	3.6	3.02e+01	0	32	104	524288	60	22586
2026-01-07 02:02:26.37	343.17	60.60	-40.4	-50.6	3.6	3.02e+01	0	32	104	524288	60	17539
2026-01-07 02:02:30.41	342.82	58.65	-38.8	-49.2	3.6	3.02e+01	0	32	104	524288	56	18771
2026-01-07 02:02:34.45	342.51	56.75	-40.8	-50.9	3.5	3.02e+01	0	32	104	524288	60	18290
2026-01-07 02:02:38.49	342.24	54.92	-48.0	-60.2	3.5	3.02e+01	0	32	104	524288	60	53316
2026-01-07 02:02:42.54	342.01	53.15	-43.5	-54.2	3.5	3.02e+01	0	32	104	524288	60	26662
2026-01-07 02:02:46.58	341.80	51.45	-39.7	-49.6	3.5	3.02e+01	0	32	104	524288	60	15665
2026-01-07 02:02:50.62	341.62	49.81	-42.4	-53.1	3.5	3.02e+01	0	32	104	524288	60	23515
2026-01-07 02:02:54.67	341.46	48.22	-50.5	-65.4	3.5	3.02e+01	0	32	104	524288	60	96378
2026-01-07 02:02:58.71	341.32	46.69	-42.0	-52.5	3.5	3.02e+01	0	32	104	524288	60	21913
2026-01-07 02:03:02.76	341.19	45.22	-51.3	-68.4	3.5	3.02e+01	0	32	104	524288	60	136521
2026-01-07 02:03:06.80	341.07	43.81	-49.8	-63.5	3.5	3.02e+01	0	32	104	524288	60	77322
2026-01-07 02:03:10.84	340.97	42.45	-51.0	-67.2	3.5	3.02e+01	0	32	104	524288	60	119379
2026-01-07 02:03:14.89	340.87	41.13	-42.8	-53.9	3.5	3.02e+01	0	32	104	524288	60	25615
2026-01-07 02:03:18.93	340.78	39.87	-44.5	-55.3	3.5	3.02e+01	0	32	104	524288	60	30207
2026-01-07 02:03:22.97	340.70	38.65	-49.2	-62.1	3.5	3.02e+01	0	32	104	524288	60	65751
2026-01-07 02:03:27.02	340.63	37.48	-39.6	-49.7	3.5	3.02e+01	0	32	104	524288	60	15912
2026-01-07 02:03:31.06	340.57	36.35	-50.8	-65.7	3.5	3.02e+01	0	32	104	524288	60	100024
2026-01-07 02:03:35.10	340.50	35.26	-47.1	-58.6	3.5	3.02e+01	0	32	104	524288	60	44101
2026-01-07 02:03:39.15	340.45	34.21	-49.6	-62.7	3.5	3.02e+01	0	33	104	524288	60	70437
2026-01-07 02:03:43.19	340.40	33.19	-38.8	-48.8	3.5	3.02e+01	0	32	104	524288	58	16129
2026-01-07 02:03:47.24	340.35	32.21	-38.7	-49.0	3.3	3.02e+01	0	32	104	524288	60	14649
2026-01-07 02:03:51.28	340.31	31.26	-40.3	-50.6	3.5	3.02e+01	0	32	104	524288	60	17563
2026-01-07 02:03:55.33	340.27	30.35	-39.0	-49.0	3.5	3.02e+01	0	32	104	524288	60	14642
2026-01-07 02:03:59.37	340.23	29.46	-50.8	-66.3	3.5	3.02e+01	0	32	104	524288	60	107083
2026-01-07 02:04:03.41	340.20	28.61	-41.2	-51.5	3.5	3.02e+01	0	32	104	524288	60	19514
2026-01-07 02:04:07.45	340.17	27.78	-44.4	-55.5	3.6	3.02e+01	0	32	104	524288	60	30848
2026-01-07 02:04:11.50	340.14	26.98	-39.8	-50.3	3.5	3.02e+01	0	33	104	524288	60	17079
2026-01-07 02:04:15.54	340.11	26.20	-50.0	-63.8	3.5	3.02e+01	0	33	104	524288	60	80055
2026-01-07 02:04:19.58	340.09	25.44	-40.9	-51.3	3.5	3.02e+01	0	32	104	524288	60	18974
2026-01-07 02:04:23.63	340.06	24.71	-47.9	-60.0	3.5	3.02e+01	0	32	104	524288	60	51931
2026-01-07 02:04:27.67	340.04	24.00	-44.0	-54.6	3.5	3.02e+01	0	33	104	524288	60	27841
2026-01-07 02:04:31.71	340.02	23.31	-48.3	-60.7	3.5	3.02e+01	0	33	104	524288	60	56172
2026-01-07 02:04:35.76	340.01	22.64	-38.7	-48.9	3.5	3.02e+01	0	32	104	524288	58	16278
2026-01-07 02:04:39.80	339.99	21.99	-38.6	-48.6	3.5	3.02e+01	0	33	104	524288	54	19801
2026-01-07 02:04:43.85	339.98	21.35	-47.7	-59.5	3.5	3.02e+01	0	32	104	524288	60	49061
2026-01-07 02:04:47.89	339.96	20.74	-37.2	-47.7	3.5	3.02e+01	0	32	104	524288	54	17800
2026-01-07 02:04:51.94	339.95	20.14	-47.4	-59.1	3.5	3.02e+01	0	32	104	524288	60	46722
2026-01-07 02:04:55.98	339.94	19.55	-39.9	-50.2	3.5	3.02e+01	0	33	104	524288	60	16853
2026-01-07 02:05:00.02	339.93	18.98	-47.8	-59.3	3.5	3.02e+01	0	32	104	524288	60	48113
2026-01-07 02:05:04.07	339.92	18.42	-39.6	-49.9	3.5	3.02e+01	0	33	104	524288	60	16178
2026-01-07 02:05:08.11	339.91	17.88	-40.2	-50.7	3.5	3.02e+01	0	32	104	524288	58	19896
2026-01-07 02:05:12.16	339.91	17.35	-40.9	-51.3	3.5	3.02e+01	0	33	104	524288	60	19151
2026-01-07 02:05:16.20	339.90	16.83	-38.8	-49.2	3.5	3.02e+01	0	33	104	524288	58	16810
2026-01-07 02:05:20.24	339.90	16.33	-46.6	-58.0	3.5	3.02e+01	0	33	104	524288	60	41468
2026-01-07 02:05:24.29	339.89	15.83	-39.4	-49.7	3.5	3.02e+01	0	33	104	524288	60	15851
2026-01-07 02:05:28.33	339.89	15.35	-50.0	-64.3	3.6	3.02e+01	0	33	104	524288	60	85474
2026-01-07 02:05:32.37	339.88	14.88	-40.4	-50.6	3.4	3.02e+01	0	32	104	524288	60	17577
2026-01-07 02:05:36.42	339.88	14.41	-51.0	-62.3	11.3	3.02e+01	59	33	104	524288	60	67890
2026-01-07 02:05:40.46	339.88	13.96	-39.6	-40.9	27.4	3.02e+01	58	32	0	524288	60	5761
2026-01-07 02:05:44.50	339.88	13.51	-37.0	-38.2	29.8	3.02e+01	62	32	0	524288	54	5957
2026-01-07 02:05:48.54	339.88	13.08	-37.1	-38.3	29.6	3.02e+01	61	32	101	524288	54	6036
2026-01-07 02:05:52.58	339.88	12.65	-37.0	-38.2	29.7	3.02e+01	56	32	101	524288	54	5960
2026-01-07 02:05:56.61	339.88	12.23	-37.1	-38.3	29.7	3.02e+01	59	32	101	524288	54	6028
2026-01-07 02:06:00.65	339.88	11.82	-37.2	-38.4	29.6	3.02e+01	60	32	101	524288	54	6111
2026-01-07 02:06:04.69	339.88	11.42	-37.1	-38.3	29.6	3.02e+01	60	33	101	524288	54	5997
2026-01-07 02:06:08.72	339.88	11.02	-37.1	-38.3	29.6	3.02e+01	60	32	101	524288	54	6032
2026-01-07 02:06:12.76	339.88	10.64	-37.1	-38.2	29.6	3.02e+01	59	32	101	524288	54	5994
2026-01-07 02:06:16.80	339.89	10.25	-37.0	-38.2	29.7	3.02e+01	45	32	101	524288	54	5977
2026-01-07 02:06:20.84	339.89	9.88	-37.2	-38.4	29.5	3.02e+01	60	32	101	524288	54	6085
2026-01-07 02:06:24.87	339.89	9.51	-37.1	-38.3	29.5	3.02e+01	44	32	101	524288	54	6051
2026-01-07 02:06:28.91	339.90	9.15	-37.1	-38.3	29.4	3.02e+01	58	32	101	524288	54	6008
2026-01-07 02:06:32.95	339.90	8.79	-37.0	-38.2	29.5	3.02e+01	53	32	101	524288	54	5931
2026-01-07 02:06:36.98	339.91	8.44	-36.9	-38.1	29.7	3.02e+01	60	32	101	524288	54	5873
2026-01-07 02:06:41.02	339.91	8.09	-36.9	-38.1	29.6	3.02e+01	47	32	101	524288	54	5891
2026-01-07 02:06:45.06	339.92	7.75	-37.0	-38.2	29.6	3.02e+01	59	32	101	524288	54	5945
2026-01-07 02:06:49.10	339.92	7.41	-37.0	-38.2	29.6	3.02e+01	52	32	101	524288	54	5978
2026-01-07 02:06:53.13	339.93	7.08	-37.0	-38.2	29.5	3.02e+01	60	32	101	524288	54	5939
2026-01-07 02:06:57.17	339.93	6.75	-37.1	-38.2	29.5	3.02e+01	51	32	101	524288	54	5989
2026-01-07 02:07:01.21	339.94	6.43	-37.1	-38.3	29.4	3.02e+01	57	32	101	524288	54	6054
2026-01-07 02:07:05.24	339.95	6.11	-37.4	-38.6	29.2	3.02e+01	53	32	101	524288	54	6227
2026-01-07 02:07:09.28	339.95	5.80	-37.3	-38.5	29.2	3.02e+01	61	32	101	524288	54	6203
2026-01-07 02:07:13.32	339.96	5.49	-37.4	-38.7	29.1	3.02e+01	54	32	101	524288	54	6281
2026-01-07 02:07:17.36	339.97	5.19	-37.6	-38.8	29.0	3.02e+01	62	32	101	524288	54	6395
2026-01-07 02:07:21.40	339.98	4.88	-37.9	-39.1	28.7	3.02e+01	54	32	101	524288	54	6622
2026-01-07 02:07:25.44	339.98	4.59	-37.7	-39.0	28.7	3.02e+01	59	32	101	524288	54	6525
2026-01-07 02:07:29.47	339.99	4.29	-37.9	-39.2	28.5	3.02e+01	51	32	101	524288	54	6666
2026-01-07 02:07:33.51	340.00	4.00	-38.0	-39.2	28.4	3.02e+01	58	32	101	524288	54	6709
2026-01-07 02:07:37.54	340.01	3.72	-38.1	-39.4	28.3	3.02e+01	58	32	101	524288	54	6817
2026-01-07 02:07:41.58	340.02	3.43	-38.3	-39.6	28.1	3.02e+01	56	32	101	524288	54	6970
2026-01-07 02:07:45.61	340.03	3.15	-38.4	-39.7	28.0	3.02e+01	60	32	101	524288	56	6330
2026-01-07 02:07:49.65	340.04	2.87	-38.7	-40.0	27.7	3.02e+01	61	32	101	524288	56	6537
2026-01-07 02:07:53.69	340.04	2.60	-38.8	-40.1	27.6	3.02e+01	60	32	101	524288	56	6613
2026-01-07 02:07:57.73	340.05	2.33	-38.6	-40.0	27.7	3.02e+01	59	32	101	524288	56	6502
2026-01-07 02:08:01.77	340.06	2.06	-38.8	-40.2	27.4	3.02e+01	61	32	101	524288	56	6660
2026-01-07 02:08:05.81	340.07	1.79	-39.4	-40.8	25.8	3.02e+01	57	32	101	524288	56	7140
2026-01-07 02:08:09.84	340.08	1.53	-40.4	-41.9	24.9	3.02e+01	53	32	101	524288	58	7274
2026-01-07 02:08:13.88	340.09	1.27	-42.1	-44.0	22.3	3.02e+01	60	32	101	524288	60	8270
2026-01-07 02:08:17.92	340.10	1.01	-44.1	-47.2	18.3	3.02e+01	57	32	101	524288	60	11849
2026-01-07 02:08:21.96	340.11	0.76	-45.7	-51.0	13.8	3.02e+01	60	32	101	524288	60	18332
2026-01-07 02:08:26.00	340.12	0.50	-46.6	-55.6	8.0	3.02e+01	64	32	101	524288	60	31106
2026-01-07 02:08:30.03	340.14	0.25	-46.8	-60.4	4.7	3.02e+01	0	32	104	524288	60	54384
2026-01-07 02:08:34.07	340.15	0.00	-46.8	-64.1	3.5	3.02e+01	0	33	104	524288	60	83445

#Closed at: 2026-01-07 02:08:35
#Recorded file [0 MB]: D:/lorett/data/35034_260107_045441.dat