passes_logs/2026/01/07/R4.6S_Anadyr_2ch/R4.6S_Anadyr_2ch__20260107_171442_SUOMI_NPP_rec.log

#Pass ID: 20260107_171442_SUOMI NPP
#Satellite: SUOMI NPP
#Configuration: NPP
#almurnet v.1.7.20251203
#Start time: 2026-01-07 17:14:45

#Version: 2.2.20231116
#Station: R4.6S_Anadyr_2ch
#Location: 177.4865 lon 64.73178 lat
#TLE: 1 37849U 11061A   25350.92281687  .00000071  00000+0  54882-4 0  9996
#TLE: 2 37849  98.7777 288.2268 0002366 112.8570 247.2856 14.19515404732588

#Time	Az	El	Level	Level2	SNR	BER	BlckErr	Temp	State	Recorded	gain1	gain2
2026-01-07 17:14:45.42	30.04	0.18	-52.0	-65.9	3.3	1.54e+00	0	34	0	0	60	96129
2026-01-07 17:14:49.46	29.81	0.40	-52.0	-67.3	3.6	1.51e+00	0	34	104	0	60	113492
2026-01-07 17:14:53.50	29.59	0.62	-51.6	-67.0	3.6	1.51e+00	0	34	104	0	60	109215
2026-01-07 17:14:57.54	29.36	0.85	-50.8	-66.1	3.6	1.51e+00	0	34	104	0	60	98270
2026-01-07 17:15:01.59	29.13	1.07	-50.4	-65.8	3.6	1.51e+00	0	34	104	0	60	94633
2026-01-07 17:15:05.63	28.89	1.30	-50.4	-65.7	3.6	1.51e+00	0	34	104	0	60	93890
2026-01-07 17:15:09.67	28.65	1.52	-50.4	-65.7	3.6	1.51e+00	0	34	104	0	60	94212
2026-01-07 17:15:13.72	28.40	1.75	-50.4	-65.8	3.6	1.51e+00	0	34	104	0	60	94808
2026-01-07 17:15:17.76	28.16	1.98	-50.4	-65.7	3.6	1.51e+00	0	34	104	0	60	93713
2026-01-07 17:15:21.80	27.90	2.21	-50.4	-65.6	3.6	1.51e+00	0	34	104	0	60	93258
2026-01-07 17:15:25.85	27.65	2.44	-50.4	-65.7	3.6	1.51e+00	0	34	104	0	60	93884
2026-01-07 17:15:29.89	27.39	2.67	-50.4	-65.5	3.6	1.51e+00	0	34	104	0	60	92229
2026-01-07 17:15:33.93	27.12	2.91	-50.4	-65.5	3.6	1.51e+00	0	34	104	0	60	91845
2026-01-07 17:15:37.97	26.85	3.14	-49.8	-57.2	6.5	3.45e-01	0	34	102	1048576	60	35331
2026-01-07 17:15:42.02	26.58	3.38	-50.4	-65.8	3.6	1.51e+00	0	34	104	1048576	60	94703
2026-01-07 17:15:46.06	26.30	3.62	-50.3	-65.6	3.6	1.51e+00	0	35	104	1048576	60	93200
2026-01-07 17:15:50.10	26.01	3.86	-50.3	-65.7	3.6	1.51e+00	0	35	104	1048576	60	93645
2026-01-07 17:15:54.15	25.72	4.10	-50.3	-65.6	3.6	1.51e+00	0	35	104	1048576	60	92601
2026-01-07 17:15:58.19	25.43	4.35	-50.3	-65.6	3.6	1.51e+00	0	35	104	1048576	60	93190
2026-01-07 17:16:02.23	25.13	4.59	-50.3	-65.6	3.6	1.51e+00	0	35	104	1048576	60	92526
2026-01-07 17:16:06.28	24.82	4.84	-50.3	-65.5	3.6	1.51e+00	0	35	104	1048576	60	92247
2026-01-07 17:16:10.32	24.51	5.08	-50.3	-65.6	3.6	1.51e+00	0	35	104	1048576	60	92925
2026-01-07 17:16:14.36	24.20	5.33	-50.3	-65.6	3.6	1.51e+00	0	35	104	1048576	60	93024
2026-01-07 17:16:18.41	23.88	5.58	-50.3	-65.6	3.6	1.51e+00	0	35	104	1048576	60	92668
2026-01-07 17:16:22.45	23.55	5.83	-50.3	-65.6	3.6	1.51e+00	0	35	104	1048576	60	92558
2026-01-07 17:16:26.49	23.22	6.09	-50.3	-65.6	3.6	1.51e+00	0	35	104	1048576	60	93370
2026-01-07 17:16:30.54	22.88	6.34	-50.3	-65.6	3.6	1.51e+00	0	35	104	1048576	60	92634
2026-01-07 17:16:34.58	22.53	6.60	-50.3	-65.6	3.6	1.51e+00	0	35	104	1048576	60	93404
2026-01-07 17:16:38.63	22.18	6.86	-50.3	-65.7	3.6	1.51e+00	0	35	104	1048576	60	93709
2026-01-07 17:16:42.67	21.82	7.12	-50.3	-65.6	3.6	1.51e+00	0	35	104	1048576	60	93076
2026-01-07 17:16:46.71	21.46	7.38	-50.4	-65.7	3.6	1.51e+00	0	35	104	1048576	60	94273
2026-01-07 17:16:50.76	21.08	7.64	-50.3	-65.7	3.6	1.51e+00	0	35	104	1048576	60	93718
2026-01-07 17:16:54.80	20.70	7.90	-50.3	-65.6	3.6	1.51e+00	0	35	104	1048576	60	93376
2026-01-07 17:16:58.85	20.32	8.17	-50.3	-65.7	3.6	1.51e+00	0	35	104	1048576	60	93717
2026-01-07 17:17:02.89	19.92	8.44	-50.4	-65.6	3.6	1.51e+00	0	35	104	1048576	60	93446
2026-01-07 17:17:06.94	19.52	8.71	-50.4	-65.7	3.6	1.51e+00	0	35	104	1048576	60	93534
2026-01-07 17:17:10.98	19.11	8.98	-50.4	-65.7	3.6	1.51e+00	0	35	104	1048576	60	93467
2026-01-07 17:17:15.02	18.69	9.25	-50.3	-65.7	3.6	1.51e+00	0	35	104	1048576	60	94141
2026-01-07 17:17:19.07	18.27	9.52	-50.4	-65.7	3.6	1.51e+00	0	35	104	1048576	60	93913
2026-01-07 17:17:23.11	17.83	9.79	-50.4	-65.7	3.6	1.51e+00	0	35	104	1048576	60	93748
2026-01-07 17:17:27.16	17.39	10.07	-50.4	-65.7	3.6	1.51e+00	0	35	104	1048576	60	94156
2026-01-07 17:17:31.20	16.94	10.35	-50.4	-65.7	3.6	1.51e+00	0	35	104	1048576	60	93800
2026-01-07 17:17:35.24	16.48	10.63	-50.4	-65.7	3.6	1.51e+00	0	35	104	1048576	60	94257
2026-01-07 17:17:39.29	16.01	10.91	-50.4	-65.7	3.6	1.51e+00	0	35	104	1048576	60	94001
2026-01-07 17:17:43.33	15.53	11.19	-50.4	-65.7	3.6	1.51e+00	0	35	104	1048576	60	93842
2026-01-07 17:17:47.37	15.05	11.47	-50.4	-65.7	3.6	1.51e+00	0	35	104	1048576	60	93960
2026-01-07 17:17:51.42	14.55	11.75	-50.4	-65.7	3.6	1.51e+00	0	35	104	1048576	60	94295
2026-01-07 17:17:55.46	14.04	12.04	-50.4	-65.7	3.6	1.51e+00	0	35	104	1048576	60	94029
2026-01-07 17:17:59.51	13.52	12.32	-50.4	-65.7	3.6	1.51e+00	0	35	104	1048576	60	94320
2026-01-07 17:18:03.55	12.99	12.61	-50.4	-65.7	3.6	1.51e+00	0	35	104	1048576	60	93793
2026-01-07 17:18:07.60	12.45	12.90	-50.4	-65.7	3.6	1.51e+00	0	35	104	1048576	60	94352
2026-01-07 17:18:11.64	11.90	13.19	-50.4	-65.7	3.6	1.51e+00	0	35	104	1048576	60	93682
2026-01-07 17:18:15.68	11.34	13.47	-50.4	-65.7	3.6	1.51e+00	0	35	104	1048576	60	93823
2026-01-07 17:18:19.73	10.77	13.76	-50.4	-65.7	3.6	1.51e+00	0	35	104	1048576	60	94143
2026-01-07 17:18:23.77	10.19	14.05	-50.4	-65.7	3.6	1.51e+00	0	35	104	1048576	60	93971
2026-01-07 17:18:27.81	9.59	14.34	-50.4	-65.7	3.6	1.51e+00	0	35	104	1048576	60	93564
2026-01-07 17:18:31.86	8.98	14.64	-50.4	-65.7	3.6	1.51e+00	0	35	104	1048576	60	93571
2026-01-07 17:18:35.90	8.36	14.93	-50.4	-65.7	3.6	1.51e+00	0	35	104	1048576	60	93708
2026-01-07 17:18:39.94	7.73	15.22	-50.4	-65.8	3.6	1.51e+00	0	35	104	1048576	60	94592
2026-01-07 17:18:43.98	7.09	15.51	-50.4	-65.8	3.6	1.51e+00	0	35	104	1048576	60	94656
2026-01-07 17:18:48.03	6.43	15.80	-50.4	-65.7	3.6	1.51e+00	0	35	104	1048576	60	94277
2026-01-07 17:18:52.07	5.76	16.09	-50.4	-65.7	3.6	1.51e+00	0	35	104	1048576	60	93961
2026-01-07 17:18:56.12	5.07	16.38	-50.4	-65.7	3.6	1.51e+00	0	35	104	1048576	60	94381
2026-01-07 17:19:00.16	4.37	16.67	-50.4	-65.7	3.6	1.51e+00	0	35	104	1048576	60	94372
2026-01-07 17:19:04.20	3.66	16.95	-50.4	-65.8	3.6	1.51e+00	0	35	104	1048576	60	94580
2026-01-07 17:19:08.25	2.94	17.24	-50.4	-65.7	3.6	1.51e+00	0	35	104	1048576	60	94056
2026-01-07 17:19:12.29	2.20	17.52	-50.4	-65.7	3.6	1.51e+00	0	35	104	1048576	60	94311
2026-01-07 17:19:16.33	1.44	17.81	-50.4	-65.7	3.6	1.51e+00	0	35	104	1048576	60	94462
2026-01-07 17:19:20.37	0.68	18.09	-50.4	-65.7	3.6	1.51e+00	0	35	104	1048576	60	94391
2026-01-07 17:19:24.42	359.89	18.37	-50.4	-65.8	3.6	1.51e+00	0	35	104	1048576	60	94787
2026-01-07 17:19:28.46	359.09	18.64	-50.4	-65.8	3.6	1.51e+00	0	35	104	1048576	60	95036
2026-01-07 17:19:32.50	358.28	18.91	-50.4	-65.7	3.6	1.51e+00	0	35	104	1048576	60	93952
2026-01-07 17:19:36.55	357.45	19.18	-50.4	-65.7	3.6	1.51e+00	0	35	104	1048576	60	94226
2026-01-07 17:19:40.59	356.61	19.45	-50.4	-65.8	3.6	1.51e+00	0	35	104	1048576	60	94854
2026-01-07 17:19:44.63	355.76	19.71	-50.4	-65.7	3.6	1.51e+00	0	35	104	1048576	60	94278
2026-01-07 17:19:48.67	354.88	19.97	-50.4	-65.7	3.6	1.51e+00	0	35	104	1048576	60	94201
2026-01-07 17:19:52.72	354.00	20.22	-50.4	-65.7	3.6	1.51e+00	0	35	104	1048576	60	93827
2026-01-07 17:19:56.76	353.10	20.47	-50.4	-65.7	3.6	1.51e+00	0	35	104	1048576	60	94025
2026-01-07 17:20:00.80	352.18	20.72	-50.4	-65.7	3.6	1.51e+00	0	35	104	1048576	60	94407
2026-01-07 17:20:04.85	351.25	20.96	-50.4	-65.8	3.6	1.51e+00	0	35	104	1048576	60	94701
2026-01-07 17:20:08.89	350.30	21.19	-50.4	-65.8	3.6	1.51e+00	0	35	104	1048576	60	94624
2026-01-07 17:20:12.94	349.34	21.41	-50.4	-65.8	3.6	1.51e+00	0	35	104	1048576	60	94630
2026-01-07 17:20:16.98	348.37	21.63	-50.4	-65.7	3.6	1.51e+00	0	35	104	1048576	60	93984
2026-01-07 17:20:21.02	347.38	21.85	-50.4	-65.7	3.6	1.51e+00	0	35	104	1048576	60	94093
2026-01-07 17:20:25.07	346.38	22.05	-50.4	-65.7	3.6	1.51e+00	0	35	104	1048576	60	94252
2026-01-07 17:20:29.11	345.36	22.25	-50.4	-65.7	3.6	1.51e+00	0	36	104	1048576	60	94132
2026-01-07 17:20:33.16	344.33	22.44	-50.4	-65.7	3.6	1.51e+00	0	35	104	1048576	60	94508
2026-01-07 17:20:37.20	343.30	22.62	-50.4	-65.7	3.6	1.51e+00	0	35	104	1048576	60	94444
2026-01-07 17:20:41.24	342.25	22.79	-50.4	-65.7	3.6	1.51e+00	0	35	104	1048576	60	94410
2026-01-07 17:20:45.29	341.18	22.95	-50.4	-65.8	3.6	1.51e+00	0	35	104	1048576	60	94757
2026-01-07 17:20:49.33	340.11	23.10	-50.4	-65.8	3.5	1.51e+00	0	35	104	1048576	60	94684
2026-01-07 17:20:53.37	339.02	23.24	-50.4	-65.8	3.6	1.51e+00	0	35	104	1048576	60	94723
2026-01-07 17:20:57.41	337.93	23.37	-50.4	-65.7	3.6	1.51e+00	0	35	104	1048576	60	94168
2026-01-07 17:21:01.46	336.83	23.49	-50.4	-65.8	3.6	1.51e+00	0	36	104	1048576	60	94873
2026-01-07 17:21:05.50	335.72	23.60	-50.4	-65.7	3.6	1.51e+00	0	35	104	1048576	60	94080
2026-01-07 17:21:09.54	334.60	23.70	-50.4	-65.8	3.6	1.51e+00	0	35	104	1048576	60	94624
2026-01-07 17:21:13.59	333.47	23.78	-50.4	-65.8	3.6	1.51e+00	0	35	104	1048576	60	94616
2026-01-07 17:21:17.63	332.34	23.86	-50.4	-65.8	3.6	1.51e+00	0	35	104	1048576	60	94738
2026-01-07 17:21:21.67	331.21	23.92	-50.4	-65.7	3.6	1.51e+00	0	36	104	1048576	60	93894
2026-01-07 17:21:25.71	330.07	23.97	-50.4	-65.8	3.6	1.51e+00	0	36	104	1048576	60	94595
2026-01-07 17:21:29.75	328.92	24.01	-50.4	-65.7	3.6	1.51e+00	0	35	104	1048576	60	94112
2026-01-07 17:21:33.80	327.78	24.04	-50.4	-65.7	3.6	1.51e+00	0	35	104	1048576	60	94334
2026-01-07 17:21:37.84	326.63	24.05	-50.4	-65.7	3.6	1.51e+00	0	35	104	1048576	60	94490
2026-01-07 17:21:41.89	325.48	24.05	-50.4	-65.7	3.6	1.51e+00	0	35	104	1048576	60	94460
2026-01-07 17:21:45.93	324.33	24.04	-50.4	-65.8	3.6	1.51e+00	0	35	104	1048576	60	94807
2026-01-07 17:21:49.97	323.19	24.01	-50.4	-65.8	3.6	1.51e+00	0	35	104	1048576	60	94752
2026-01-07 17:21:54.02	322.04	23.98	-50.4	-65.8	3.6	1.51e+00	0	36	104	1048576	60	95133
2026-01-07 17:21:58.06	320.90	23.93	-50.4	-65.7	3.6	1.51e+00	0	35	104	1048576	60	94266
2026-01-07 17:22:02.11	319.76	23.87	-50.4	-65.7	3.6	1.51e+00	0	35	104	1048576	60	94512
2026-01-07 17:22:06.15	318.63	23.79	-50.4	-65.8	3.6	1.51e+00	0	36	104	1048576	60	94808
2026-01-07 17:22:10.19	317.51	23.71	-50.4	-65.8	3.6	1.51e+00	0	36	104	1048576	60	94609
2026-01-07 17:22:14.24	316.38	23.61	-50.4	-65.8	3.6	1.51e+00	0	36	104	1048576	60	95038
2026-01-07 17:22:18.28	315.27	23.50	-50.4	-65.8	3.6	1.51e+00	0	36	104	1048576	60	94772
2026-01-07 17:22:22.33	314.17	23.39	-50.4	-65.7	3.6	1.51e+00	0	35	104	1048576	60	94378
2026-01-07 17:22:26.37	313.07	23.26	-50.4	-65.8	3.6	1.51e+00	0	36	104	1048576	60	94608
2026-01-07 17:22:30.41	311.99	23.12	-50.4	-65.8	3.6	1.51e+00	0	36	104	1048576	60	94630
2026-01-07 17:22:34.46	310.91	22.97	-50.4	-65.8	3.6	1.51e+00	0	35	104	1048576	60	94725
2026-01-07 17:22:38.50	309.84	22.81	-50.4	-65.8	3.6	1.51e+00	0	36	104	1048576	60	94846
2026-01-07 17:22:42.54	308.79	22.64	-50.4	-65.7	3.6	1.51e+00	0	35	104	1048576	60	94414
2026-01-07 17:22:46.59	307.75	22.46	-50.4	-65.8	3.6	1.51e+00	0	35	104	1048576	60	94817
2026-01-07 17:22:50.63	306.72	22.27	-50.4	-65.8	3.6	1.51e+00	0	36	104	1048576	60	94613
2026-01-07 17:22:54.68	305.70	22.07	-50.4	-65.8	3.6	1.51e+00	0	36	104	1048576	60	94752
2026-01-07 17:22:58.72	304.69	21.87	-50.4	-65.8	3.6	1.51e+00	0	36	104	1048576	60	94913
2026-01-07 17:23:02.76	303.70	21.66	-50.4	-65.8	3.6	1.51e+00	0	36	104	1048576	60	94788
2026-01-07 17:23:06.81	302.72	21.44	-50.4	-65.8	3.6	1.51e+00	0	36	104	1048576	60	94748
2026-01-07 17:23:10.85	301.76	21.21	-50.4	-65.7	3.6	1.51e+00	0	35	104	1048576	60	94481
2026-01-07 17:23:14.90	300.81	20.98	-50.4	-65.8	3.6	1.51e+00	0	35	104	1048576	60	94714
2026-01-07 17:23:18.94	299.88	20.74	-50.4	-65.8	3.6	1.51e+00	0	35	104	1048576	60	94619
2026-01-07 17:23:22.98	298.96	20.50	-50.4	-65.8	3.6	1.51e+00	0	36	104	1048576	60	94666
2026-01-07 17:23:27.03	298.05	20.25	-50.4	-65.8	3.6	1.51e+00	0	35	104	1048576	60	94893
2026-01-07 17:23:31.07	297.16	20.00	-50.4	-65.8	3.6	1.51e+00	0	35	104	1048576	60	94960
2026-01-07 17:23:35.11	296.29	19.74	-50.4	-65.8	3.6	1.51e+00	0	36	104	1048576	60	95186
2026-01-07 17:23:39.16	295.42	19.48	-50.4	-65.8	3.6	1.51e+00	0	36	104	1048576	60	94772
2026-01-07 17:23:43.20	294.58	19.21	-50.4	-65.8	3.6	1.51e+00	0	35	104	1048576	60	94529
2026-01-07 17:23:47.24	293.75	18.94	-50.4	-65.8	3.6	1.51e+00	0	35	104	1048576	60	95190
2026-01-07 17:23:51.29	292.93	18.67	-50.4	-65.8	3.6	1.51e+00	0	36	104	1048576	60	94705
2026-01-07 17:23:55.33	292.13	18.39	-50.4	-65.8	3.5	1.51e+00	0	36	104	1048576	60	94844
2026-01-07 17:23:59.37	291.34	18.11	-50.4	-65.8	3.6	1.51e+00	0	35	104	1048576	60	94733
2026-01-07 17:24:03.42	290.57	17.83	-50.4	-65.8	3.6	1.51e+00	0	36	104	1048576	60	94788
2026-01-07 17:24:07.46	289.81	17.55	-50.4	-65.8	3.6	1.51e+00	0	36	104	1048576	60	95083
2026-01-07 17:24:11.50	289.07	17.26	-50.4	-65.8	3.6	1.51e+00	0	36	104	1048576	60	94871
2026-01-07 17:24:15.55	288.34	16.98	-50.4	-65.8	3.6	1.51e+00	0	36	104	1048576	60	94756
2026-01-07 17:24:19.60	287.62	16.69	-50.4	-65.8	3.6	1.51e+00	0	36	104	1048576	60	94633
2026-01-07 17:24:23.64	286.92	16.40	-50.4	-65.8	3.6	1.51e+00	0	36	104	1048576	60	94550
2026-01-07 17:24:27.69	286.23	16.11	-50.4	-65.7	3.6	1.51e+00	0	36	104	1048576	60	94414
2026-01-07 17:24:31.73	285.56	15.82	-50.4	-65.8	3.6	1.51e+00	0	36	104	1048576	60	94985
2026-01-07 17:24:35.77	284.90	15.53	-50.4	-65.7	3.6	1.51e+00	0	36	104	1048576	60	94490
2026-01-07 17:24:39.82	284.25	15.24	-50.4	-65.8	3.6	1.51e+00	0	36	104	1048576	60	94712
2026-01-07 17:24:43.86	283.61	14.95	-50.4	-65.7	3.6	1.51e+00	0	36	104	1048576	60	94279
2026-01-07 17:24:47.91	282.99	14.65	-50.4	-65.7	3.6	1.51e+00	0	35	104	1048576	60	94380
2026-01-07 17:24:51.95	282.38	14.36	-50.4	-65.8	3.6	1.51e+00	0	36	104	1048576	60	94543
2026-01-07 17:24:55.99	281.78	14.07	-50.4	-65.8	3.6	1.51e+00	0	36	104	1048576	60	94870
2026-01-07 17:25:00.04	281.19	13.78	-50.4	-65.8	3.6	1.51e+00	0	36	104	1048576	60	94649
2026-01-07 17:25:04.08	280.62	13.49	-50.4	-65.7	3.6	1.51e+00	0	36	104	1048576	60	94413
2026-01-07 17:25:08.13	280.05	13.20	-50.4	-65.8	3.6	1.51e+00	0	36	104	1048576	60	94648
2026-01-07 17:25:12.17	279.50	12.91	-50.4	-65.7	3.6	1.51e+00	0	36	104	1048576	60	94404
2026-01-07 17:25:16.22	278.95	12.62	-50.4	-65.8	3.6	1.51e+00	0	36	104	1048576	60	94948
2026-01-07 17:25:20.26	278.42	12.34	-50.4	-65.7	3.6	1.51e+00	0	36	104	1048576	60	94494
2026-01-07 17:25:24.31	277.90	12.05	-50.4	-65.8	3.6	1.51e+00	0	36	104	1048576	60	94990
2026-01-07 17:25:28.35	277.39	11.76	-50.4	-65.8	3.6	1.51e+00	0	36	104	1048576	60	94829
2026-01-07 17:25:32.39	276.89	11.48	-50.4	-65.8	3.6	1.51e+00	0	36	104	1048576	60	94887
2026-01-07 17:25:36.44	276.40	11.20	-50.4	-65.7	3.6	1.51e+00	0	36	104	1048576	60	94513
2026-01-07 17:25:40.49	275.92	10.92	-50.4	-65.7	3.6	1.51e+00	0	36	104	1048576	60	94403
2026-01-07 17:25:44.52	275.45	10.64	-50.4	-65.7	3.6	1.51e+00	0	36	104	1048576	60	94262
2026-01-07 17:25:48.57	274.98	10.36	-50.4	-65.8	3.6	1.51e+00	0	36	104	1048576	60	94830
2026-01-07 17:25:52.61	274.53	10.08	-50.4	-65.8	3.6	1.51e+00	0	35	104	1048576	60	95209
2026-01-07 17:25:56.65	274.08	9.80	-50.4	-65.7	3.6	1.51e+00	0	36	104	1048576	60	94485
2026-01-07 17:26:00.70	273.64	9.53	-50.4	-65.8	3.6	1.51e+00	0	36	104	1048576	60	94754
2026-01-07 17:26:04.74	273.22	9.25	-50.4	-65.8	3.6	1.51e+00	0	36	104	1048576	60	94873
2026-01-07 17:26:08.78	272.80	8.98	-50.4	-65.8	3.6	1.51e+00	0	36	104	1048576	60	94681
2026-01-07 17:26:12.83	272.38	8.71	-50.4	-65.8	3.6	1.51e+00	0	36	104	1048576	60	94633
2026-01-07 17:26:16.87	271.98	8.44	-50.4	-65.8	3.6	1.51e+00	0	36	104	1048576	60	94606
2026-01-07 17:26:20.92	271.58	8.17	-50.4	-65.8	3.6	1.51e+00	0	36	104	1048576	60	94742
2026-01-07 17:26:24.96	271.19	7.91	-50.4	-65.8	3.6	1.51e+00	0	36	104	1048576	60	94627
2026-01-07 17:26:29.01	270.81	7.64	-50.4	-65.8	3.6	1.51e+00	0	36	104	1048576	60	94555
2026-01-07 17:26:33.05	270.43	7.38	-50.4	-65.8	3.6	1.51e+00	0	36	104	1048576	60	94700
2026-01-07 17:26:37.10	270.06	7.12	-50.4	-65.7	3.6	1.51e+00	0	36	104	1048576	60	94492
2026-01-07 17:26:41.14	269.70	6.86	-50.4	-65.8	3.6	1.51e+00	0	35	104	1048576	60	94819
2026-01-07 17:26:45.18	269.35	6.60	-50.4	-65.8	3.6	1.51e+00	0	36	104	1048576	60	95084
2026-01-07 17:26:49.23	269.00	6.34	-50.4	-65.7	3.6	1.51e+00	0	36	104	1048576	60	94520
2026-01-07 17:26:53.27	268.66	6.09	-50.4	-65.7	3.6	1.51e+00	0	36	104	1048576	60	94389
2026-01-07 17:26:57.32	268.32	5.83	-50.4	-65.8	3.6	1.51e+00	0	36	104	1048576	60	94544
2026-01-07 17:27:01.36	267.99	5.58	-50.4	-65.8	3.6	1.51e+00	0	36	104	1048576	60	95008
2026-01-07 17:27:05.41	267.66	5.33	-50.4	-65.8	3.6	1.51e+00	0	36	104	1048576	60	94924
2026-01-07 17:27:09.45	267.35	5.08	-50.4	-65.8	3.6	1.51e+00	0	35	104	1048576	60	95471
2026-01-07 17:27:13.49	267.03	4.83	-50.4	-65.7	3.6	1.51e+00	0	36	104	1048576	60	94282
2026-01-07 17:27:17.54	266.73	4.59	-50.4	-65.7	3.6	1.51e+00	0	36	104	1048576	60	94326
2026-01-07 17:27:21.58	266.42	4.34	-50.4	-65.8	3.6	1.51e+00	0	36	104	1048576	60	94602
2026-01-07 17:27:25.63	266.13	4.10	-50.4	-65.8	3.6	1.51e+00	0	36	104	1048576	60	95113
2026-01-07 17:27:29.67	265.83	3.86	-50.4	-65.8	3.6	1.51e+00	0	36	104	1048576	60	94728
2026-01-07 17:27:33.72	265.55	3.62	-50.4	-65.7	3.6	1.51e+00	0	36	104	1048576	60	94453
2026-01-07 17:27:37.76	265.26	3.38	-50.4	-65.7	3.6	1.51e+00	0	36	104	1048576	60	94250
2026-01-07 17:27:41.80	264.99	3.14	-50.4	-65.8	3.6	1.51e+00	0	36	104	1048576	60	95009
2026-01-07 17:27:45.85	264.71	2.90	-50.4	-65.8	3.6	1.51e+00	0	36	104	1048576	60	94791
2026-01-07 17:27:49.89	264.44	2.67	-50.4	-65.7	3.6	1.51e+00	0	36	104	1048576	60	94431
2026-01-07 17:27:53.94	264.18	2.43	-50.4	-65.8	3.6	1.51e+00	0	36	104	1048576	60	94848
2026-01-07 17:27:57.98	263.92	2.20	-50.4	-65.8	3.6	1.51e+00	0	35	104	1048576	60	95009
2026-01-07 17:28:02.02	263.67	1.97	-50.4	-65.8	3.6	1.51e+00	0	36	104	1048576	60	94761
2026-01-07 17:28:06.07	263.41	1.74	-50.4	-65.8	3.6	1.51e+00	0	36	104	1048576	60	94609
2026-01-07 17:28:10.11	263.17	1.51	-50.4	-65.7	3.6	1.51e+00	0	36	104	1048576	60	94519
2026-01-07 17:28:14.16	262.92	1.29	-50.4	-65.8	3.6	1.51e+00	0	36	104	1048576	60	94764
2026-01-07 17:28:18.20	262.68	1.06	-50.4	-65.8	3.6	1.51e+00	0	36	104	1048576	60	94993
2026-01-07 17:28:22.24	262.45	0.84	-50.4	-65.8	3.6	1.51e+00	0	36	104	1048576	60	94905
2026-01-07 17:28:26.29	262.22	0.61	-50.4	-65.7	3.6	1.51e+00	0	36	104	1048576	60	94454
2026-01-07 17:28:30.33	261.99	0.39	-50.4	-65.8	3.6	1.51e+00	0	35	104	1048576	60	94682
2026-01-07 17:28:34.37	261.76	0.17	-50.4	-65.8	3.6	1.51e+00	0	36	104	1048576	60	95069

#Closed at: 2026-01-07 17:28:37
#Recorded file [1 MB]: D:/lorett/data/35034_260107_201445.dat