passes_logs/2026/01/07/R4.6S_Anadyr_2ch/R4.6S_Anadyr_2ch__20260107_135409_SUOMI_NPP_rec.log

#Pass ID: 20260107_135409_SUOMI NPP
#Satellite: SUOMI NPP
#Configuration: NPP
#almurnet v.1.7.20251203
#Start time: 2026-01-07 13:54:11

#Version: 2.2.20231116
#Station: R4.6S_Anadyr_2ch
#Location: 177.4865 lon 64.73178 lat
#TLE: 1 37849U 11061A   25350.92281687  .00000071  00000+0  54882-4 0  9996
#TLE: 2 37849  98.7777 288.2268 0002366 112.8570 247.2856 14.19515404732588

#Time	Az	El	Level	Level2	SNR	BER	BlckErr	Temp	State	Recorded	gain1	gain2
2026-01-07 13:54:11.00	19.20	0.07	-51.9	-64.6	3.5	1.52e+00	0	32	0	0	60	80166
2026-01-07 13:54:15.05	19.33	0.31	-51.9	-67.4	3.6	1.51e+00	0	34	104	0	60	114821
2026-01-07 13:54:19.07	19.45	0.54	-52.0	-67.4	3.6	1.51e+00	0	34	104	0	60	113733
2026-01-07 13:54:23.11	19.58	0.78	-51.6	-67.1	3.6	1.51e+00	0	34	104	0	60	110094
2026-01-07 13:54:27.16	19.71	1.02	-50.7	-66.1	3.6	1.51e+00	0	34	104	0	60	98701
2026-01-07 13:54:31.20	19.85	1.26	-50.5	-65.8	3.6	1.51e+00	0	34	104	0	60	95273
2026-01-07 13:54:35.24	19.98	1.51	-50.5	-65.8	3.6	1.51e+00	0	34	104	0	60	95209
2026-01-07 13:54:39.29	20.12	1.76	-50.5	-65.8	3.6	1.51e+00	0	34	104	0	60	95188
2026-01-07 13:54:43.33	20.25	2.00	-50.4	-65.5	3.6	1.51e+00	0	34	104	0	60	91852
2026-01-07 13:54:47.38	20.40	2.26	-50.4	-64.6	3.6	1.51e+00	0	34	104	0	60	82863
2026-01-07 13:54:51.42	20.54	2.51	-50.2	-60.3	4.6	1.19e+00	82	34	0	0	60	50696
2026-01-07 13:54:55.46	20.68	2.76	-47.6	-50.9	13.8	4.04e-05	0	34	102	1048576	60	17201
2026-01-07 13:54:59.50	20.83	3.02	-45.9	-48.2	16.6	0.00e+00	0	34	102	1048576	60	12537
2026-01-07 13:55:03.55	20.98	3.28	-47.5	-50.9	13.7	1.50e-06	0	34	102	1048576	60	17168
2026-01-07 13:55:07.59	21.13	3.54	-49.2	-55.2	7.4	3.36e-04	83	34	102	1048576	60	28148
2026-01-07 13:55:11.63	21.28	3.80	-50.2	-60.8	5.1	1.51e+00	0	34	104	1048576	60	53374
2026-01-07 13:55:15.67	21.44	4.07	-46.9	-49.6	15.1	0.00e+00	0	34	0	1048576	60	14795
2026-01-07 13:55:19.72	21.60	4.34	-46.1	-48.3	16.8	0.00e+00	0	34	0	1048576	60	12660
2026-01-07 13:55:23.76	21.76	4.61	-45.5	-47.4	17.7	0.00e+00	0	34	0	1048576	60	11453
2026-01-07 13:55:27.81	21.92	4.89	-45.0	-46.8	18.1	0.00e+00	0	34	0	1048576	60	10698
2026-01-07 13:55:31.85	22.09	5.16	-44.5	-46.1	18.8	0.00e+00	0	34	101	1048576	60	9890
2026-01-07 13:55:35.90	22.26	5.44	-44.1	-45.7	19.4	0.00e+00	83	34	101	1048576	60	9380
2026-01-07 13:55:39.94	22.43	5.73	-43.9	-45.4	19.6	0.00e+00	0	34	101	1048576	60	9067
2026-01-07 13:55:43.98	22.61	6.01	-44.0	-45.5	19.6	0.00e+00	0	34	101	1048576	60	9193
2026-01-07 13:55:48.02	22.78	6.30	-43.8	-45.2	19.9	0.00e+00	0	34	101	1048576	60	8912
2026-01-07 13:55:52.07	22.97	6.59	-43.9	-45.4	19.8	0.00e+00	53	34	101	1048576	60	9109
2026-01-07 13:55:56.11	23.15	6.88	-43.8	-45.3	19.9	0.00e+00	0	34	101	1048576	60	8927
2026-01-07 13:56:00.16	23.34	7.18	-44.0	-45.5	19.7	0.00e+00	0	35	101	1048576	60	9167
2026-01-07 13:56:04.20	23.53	7.48	-43.8	-45.2	20.0	0.00e+00	1	34	101	1048576	60	8898
2026-01-07 13:56:08.24	23.73	7.79	-43.3	-44.7	20.4	0.00e+00	0	34	101	1048576	60	8331
2026-01-07 13:56:12.29	23.93	8.10	-43.3	-44.7	20.5	0.00e+00	0	34	101	1048576	60	8348
2026-01-07 13:56:16.33	24.13	8.41	-43.0	-44.2	20.9	0.00e+00	0	34	101	1048576	60	7937
2026-01-07 13:56:20.38	24.34	8.72	-43.2	-44.4	20.8	0.00e+00	87	34	101	1048576	60	8123
2026-01-07 13:56:24.42	24.55	9.04	-42.6	-43.7	21.4	0.00e+00	0	34	101	1048576	60	7504
2026-01-07 13:56:28.47	24.77	9.36	-42.6	-43.7	21.5	0.00e+00	0	34	101	1048576	60	7506
2026-01-07 13:56:32.51	24.98	9.69	-42.5	-43.7	21.6	0.00e+00	25	34	101	1048576	60	7425
2026-01-07 13:56:36.55	25.21	10.02	-42.6	-43.7	21.5	0.00e+00	82	35	101	1048576	60	7480
2026-01-07 13:56:40.59	25.44	10.35	-42.4	-43.5	21.7	0.00e+00	0	35	101	1048576	60	7309
2026-01-07 13:56:44.64	25.67	10.69	-42.3	-43.4	21.8	0.00e+00	0	35	101	1048576	60	7220
2026-01-07 13:56:48.68	25.91	11.04	-42.2	-43.3	22.0	0.00e+00	73	35	101	1048576	60	7118
2026-01-07 13:56:52.73	26.16	11.39	-42.0	-43.1	22.0	0.00e+00	0	34	101	1048576	60	6980
2026-01-07 13:56:56.77	26.41	11.74	-41.8	-42.9	22.3	0.00e+00	0	34	101	1048576	60	6810
2026-01-07 13:57:00.82	26.66	12.09	-41.5	-42.6	22.5	0.00e+00	0	34	101	1048576	60	6552
2026-01-07 13:57:04.86	26.92	12.46	-41.4	-42.5	22.6	0.00e+00	84	34	101	1048576	60	6472
2026-01-07 13:57:08.91	27.19	12.82	-41.1	-42.1	22.9	0.00e+00	0	35	101	1048576	60	6198
2026-01-07 13:57:12.95	27.47	13.20	-41.0	-42.0	23.0	0.00e+00	0	35	101	1048576	60	6145
2026-01-07 13:57:16.99	27.75	13.57	-40.7	-41.7	23.3	0.00e+00	0	34	101	1048576	60	5921
2026-01-07 13:57:21.04	28.03	13.95	-40.7	-41.6	23.4	0.00e+00	90	34	101	1048576	60	5863
2026-01-07 13:57:25.08	28.33	14.34	-40.8	-41.8	23.3	0.00e+00	0	34	101	1048576	60	5972
2026-01-07 13:57:29.12	28.63	14.74	-40.7	-41.6	23.4	0.00e+00	0	35	101	1048576	60	5866
2026-01-07 13:57:33.16	28.94	15.13	-40.4	-41.3	23.6	0.00e+00	14	34	101	1048576	60	5694
2026-01-07 13:57:37.21	29.26	15.54	-40.0	-40.8	24.0	0.00e+00	0	34	101	1048576	58	6007
2026-01-07 13:57:41.25	29.58	15.95	-40.2	-41.1	23.8	0.00e+00	0	34	101	1048576	58	6200
2026-01-07 13:57:45.30	29.92	16.37	-40.3	-41.2	23.6	0.00e+00	0	35	101	1048576	58	6306
2026-01-07 13:57:49.34	30.26	16.79	-40.7	-41.6	23.4	0.00e+00	46	35	101	1048576	58	6586
2026-01-07 13:57:53.38	30.61	17.22	-41.2	-42.2	23.1	0.00e+00	0	35	101	1048576	60	6314
2026-01-07 13:57:57.42	30.97	17.66	-41.3	-42.3	22.9	0.00e+00	0	35	101	1048576	60	6382
2026-01-07 13:58:01.47	31.35	18.10	-41.4	-42.4	22.9	0.00e+00	0	34	101	1048576	60	6403
2026-01-07 13:58:05.51	31.73	18.56	-41.4	-42.5	22.9	0.00e+00	92	35	101	1048576	60	6468
2026-01-07 13:58:09.56	32.12	19.01	-41.7	-42.7	22.6	0.00e+00	0	35	101	1048576	60	6638
2026-01-07 13:58:13.60	32.53	19.48	-41.2	-42.1	23.1	0.00e+00	0	35	101	1048576	60	6238
2026-01-07 13:58:17.64	32.95	19.95	-41.3	-42.3	23.0	0.00e+00	0	35	101	1048576	60	6359
2026-01-07 13:58:21.69	33.38	20.43	-41.6	-42.6	22.7	0.00e+00	0	35	101	1048576	60	6595
2026-01-07 13:58:25.73	33.82	20.92	-41.4	-42.4	22.9	0.00e+00	0	35	101	1048576	60	6424
2026-01-07 13:58:29.77	34.28	21.42	-41.0	-41.9	23.0	0.00e+00	0	35	101	1048576	60	6095
2026-01-07 13:58:33.82	34.75	21.92	-40.8	-41.7	23.5	0.00e+00	88	35	101	1048576	60	5956
2026-01-07 13:58:37.86	35.24	22.44	-40.8	-41.6	23.5	0.00e+00	0	35	101	1048576	60	5896
2026-01-07 13:58:41.91	35.74	22.96	-41.1	-42.1	23.2	0.00e+00	0	35	101	1048576	60	6176
2026-01-07 13:58:45.95	36.26	23.49	-41.2	-42.2	23.1	0.00e+00	0	35	101	1048576	60	6270
2026-01-07 13:58:49.99	36.79	24.03	-41.3	-42.3	23.1	0.00e+00	90	35	101	1048576	60	6333
2026-01-07 13:58:54.03	37.35	24.57	-41.1	-42.1	23.2	0.00e+00	0	35	101	1048576	60	6190
2026-01-07 13:58:58.08	37.92	25.13	-41.5	-42.4	23.0	0.00e+00	0	35	101	1048576	60	6442
2026-01-07 13:59:02.12	38.52	25.70	-42.2	-43.2	22.3	0.00e+00	73	34	101	1048576	60	7076
2026-01-07 13:59:06.17	39.13	26.27	-41.9	-42.9	22.6	0.00e+00	0	35	101	1048576	60	6822
2026-01-07 13:59:10.21	39.77	26.86	-41.8	-42.8	22.8	0.00e+00	0	35	101	1048576	60	6708
2026-01-07 13:59:14.26	40.43	27.45	-42.2	-43.2	22.2	0.00e+00	0	35	101	1048576	60	7061
2026-01-07 13:59:18.30	41.11	28.05	-42.3	-43.4	22.2	0.00e+00	72	35	101	1048576	60	7200
2026-01-07 13:59:22.34	41.82	28.66	-41.9	-42.9	22.7	0.00e+00	0	35	101	1048576	60	6797
2026-01-07 13:59:26.39	42.56	29.28	-41.7	-42.7	22.8	0.00e+00	0	35	101	1048576	60	6636
2026-01-07 13:59:30.43	43.33	29.91	-42.1	-43.1	22.5	0.00e+00	0	35	101	1048576	60	6939
2026-01-07 13:59:34.48	44.12	30.54	-42.3	-43.4	22.2	0.00e+00	91	35	101	1048576	60	7187
2026-01-07 13:59:38.52	44.95	31.19	-42.7	-43.8	22.0	0.00e+00	0	35	101	1048576	60	7519
2026-01-07 13:59:42.56	45.81	31.84	-42.6	-43.7	22.1	0.00e+00	0	35	101	1048576	60	7473
2026-01-07 13:59:46.61	46.71	32.50	-41.6	-42.6	22.8	0.00e+00	92	35	101	1048576	60	6541
2026-01-07 13:59:50.65	47.64	33.17	-42.1	-43.1	22.4	0.00e+00	0	35	101	1048576	60	6984
2026-01-07 13:59:54.70	48.61	33.84	-42.4	-43.5	22.2	0.00e+00	0	35	101	1048576	60	7309
2026-01-07 13:59:58.74	49.62	34.52	-42.4	-43.5	22.1	0.00e+00	0	35	101	1048576	60	7277
2026-01-07 14:00:02.78	50.67	35.20	-41.8	-42.7	22.8	0.00e+00	85	35	101	1048576	60	6674
2026-01-07 14:00:06.83	51.77	35.89	-41.2	-42.2	23.2	0.00e+00	0	35	101	1048576	60	6256
2026-01-07 14:00:10.87	52.91	36.58	-40.3	-41.1	24.0	0.00e+00	0	35	101	1048576	60	5536
2026-01-07 14:00:14.91	54.10	37.27	-40.7	-41.6	23.6	0.00e+00	14	35	101	1048576	58	6545
2026-01-07 14:00:18.95	55.35	37.97	-41.1	-42.0	23.2	0.00e+00	91	35	101	1048576	60	6149
2026-01-07 14:00:23.00	56.65	38.66	-41.7	-42.7	23.0	0.00e+00	0	35	101	1048576	60	6641
2026-01-07 14:00:27.04	58.00	39.35	-40.8	-41.7	23.6	0.00e+00	0	35	101	1048576	60	5915
2026-01-07 14:00:31.09	59.41	40.03	-42.3	-43.3	22.3	0.00e+00	22	35	101	1048576	60	7169
2026-01-07 14:00:35.13	60.88	40.71	-40.7	-41.6	23.8	0.00e+00	22	35	101	1048576	60	5844
2026-01-07 14:00:39.18	62.41	41.38	-41.0	-42.0	23.5	0.00e+00	0	35	101	1048576	60	6105
2026-01-07 14:00:43.22	64.00	42.04	-41.8	-42.8	22.8	0.00e+00	4	35	101	1048576	60	6707
2026-01-07 14:00:47.26	65.66	42.69	-41.7	-42.6	22.8	0.00e+00	91	35	101	1048576	60	6613
2026-01-07 14:00:51.31	67.39	43.31	-42.9	-44.0	21.5	0.00e+00	0	35	101	1048576	60	7727
2026-01-07 14:00:55.35	69.18	43.92	-41.7	-42.7	22.9	0.00e+00	0	35	101	1048576	60	6638
2026-01-07 14:00:59.39	71.04	44.51	-41.4	-42.3	23.2	0.00e+00	0	35	101	1048576	60	6344
2026-01-07 14:01:03.44	72.98	45.07	-42.7	-43.7	21.9	0.00e+00	88	35	101	1048576	60	7498
2026-01-07 14:01:07.48	74.97	45.60	-44.1	-45.4	20.4	0.00e+00	0	35	101	1048576	60	9071
2026-01-07 14:01:11.53	77.04	46.11	-44.3	-45.7	20.3	0.00e+00	0	35	101	1048576	60	9388
2026-01-07 14:01:15.57	79.16	46.57	-42.4	-43.4	22.2	0.00e+00	1	35	101	1048576	60	7214
2026-01-07 14:01:19.61	81.35	47.00	-43.3	-44.4	21.4	0.00e+00	0	35	101	1048576	60	8116
2026-01-07 14:01:23.66	83.59	47.38	-45.0	-46.5	19.2	0.00e+00	0	35	101	1048576	60	10319
2026-01-07 14:01:27.70	85.89	47.72	-44.4	-45.7	20.1	0.00e+00	0	35	101	1048576	60	9437
2026-01-07 14:01:31.74	88.23	48.01	-43.7	-44.9	20.8	0.00e+00	55	35	101	1048576	60	8586
2026-01-07 14:01:35.79	90.62	48.26	-43.4	-44.6	21.2	0.00e+00	0	35	101	1048576	60	8321
2026-01-07 14:01:39.83	93.04	48.45	-43.1	-44.2	21.5	0.00e+00	0	35	101	1048576	60	7930
2026-01-07 14:01:43.87	95.48	48.58	-42.7	-43.8	21.9	0.00e+00	3	35	101	1048576	60	7535
2026-01-07 14:01:47.92	97.94	48.66	-42.6	-43.8	22.1	0.00e+00	92	35	101	1048576	60	7521
2026-01-07 14:01:51.96	100.41	48.69	-41.4	-42.3	23.0	0.00e+00	0	35	101	1048576	60	6381
2026-01-07 14:01:56.00	102.88	48.66	-44.3	-45.7	20.4	0.00e+00	0	35	101	1048576	60	9361
2026-01-07 14:02:00.05	105.34	48.57	-44.3	-45.6	20.1	0.00e+00	49	35	101	1048576	60	9329
2026-01-07 14:02:04.09	107.78	48.43	-42.1	-43.1	22.6	0.00e+00	0	35	101	1048576	60	6973
2026-01-07 14:02:08.14	110.20	48.23	-41.4	-42.3	23.2	0.00e+00	0	35	101	1048576	60	6351
2026-01-07 14:02:12.18	112.58	47.99	-44.0	-45.3	20.2	0.00e+00	0	35	101	1048576	60	8940
2026-01-07 14:02:16.22	114.92	47.69	-45.1	-46.5	19.1	0.00e+00	90	35	101	1048576	60	10351
2026-01-07 14:02:20.27	117.22	47.34	-45.7	-47.3	18.7	0.00e+00	0	35	101	1048576	60	11348
2026-01-07 14:02:24.31	119.46	46.96	-42.5	-43.6	21.9	0.00e+00	0	35	101	1048576	60	7379
2026-01-07 14:02:28.36	121.65	46.52	-44.5	-46.0	20.1	0.00e+00	0	35	101	1048576	60	9684
2026-01-07 14:02:32.40	123.77	46.05	-42.3	-43.4	22.3	0.00e+00	79	35	101	1048576	60	7191
2026-01-07 14:02:36.44	125.83	45.55	-42.2	-43.2	22.5	0.00e+00	0	35	101	1048576	60	7084
2026-01-07 14:02:40.49	127.83	45.01	-42.2	-43.2	22.4	0.00e+00	0	35	101	1048576	60	7063
2026-01-07 14:02:44.53	129.75	44.45	-39.7	-40.5	24.4	0.00e+00	0	35	101	1048576	58	5827
2026-01-07 14:02:48.58	131.61	43.85	-39.3	-40.1	24.8	0.00e+00	0	35	101	1048576	56	6195
2026-01-07 14:02:52.62	133.40	43.24	-40.2	-41.0	24.1	0.00e+00	0	35	101	1048576	58	6172
2026-01-07 14:02:56.67	135.13	42.61	-39.8	-40.6	24.6	0.00e+00	0	35	101	1048576	56	6596
2026-01-07 14:03:00.71	136.78	41.96	-37.8	-38.5	25.7	0.00e+00	89	35	101	1048576	54	5768
2026-01-07 14:03:04.75	138.37	41.30	-38.5	-39.3	25.3	0.00e+00	0	35	101	1048576	54	6334
2026-01-07 14:03:08.79	139.90	40.63	-39.1	-39.9	24.8	0.00e+00	0	35	101	1048576	56	6040
2026-01-07 14:03:12.84	141.37	39.94	-41.2	-42.1	23.4	0.00e+00	0	35	101	1048576	60	6204
2026-01-07 14:03:16.88	142.77	39.26	-41.3	-42.2	23.2	0.00e+00	90	35	101	1048576	60	6287
2026-01-07 14:03:20.93	144.12	38.56	-44.1	-45.4	20.5	0.00e+00	32	35	101	1048576	60	9127
2026-01-07 14:03:24.97	145.42	37.87	-43.5	-44.7	21.0	0.00e+00	0	35	101	1048576	60	8347
2026-01-07 14:03:29.01	146.66	37.17	-44.3	-45.6	20.4	0.00e+00	0	35	101	1048576	60	9300
2026-01-07 14:03:33.06	147.85	36.47	-43.0	-44.1	21.7	0.00e+00	0	35	101	1048576	60	7807
2026-01-07 14:03:37.10	148.99	35.78	-46.5	-48.5	17.3	0.00e+00	33	35	101	1048576	60	12959
2026-01-07 14:03:41.14	150.08	35.09	-42.9	-44.1	21.9	0.00e+00	0	35	101	1048576	60	7811
2026-01-07 14:03:45.19	151.13	34.40	-42.6	-43.7	22.0	0.00e+00	84	35	101	1048576	60	7432
2026-01-07 14:03:49.23	152.14	33.72	-43.3	-44.5	21.4	0.00e+00	0	35	101	1048576	60	8153
2026-01-07 14:03:53.27	153.11	33.05	-43.0	-44.0	21.7	0.00e+00	0	35	101	1048576	60	7772
2026-01-07 14:03:57.31	154.03	32.38	-42.6	-43.7	22.0	0.00e+00	0	35	101	1048576	60	7455
2026-01-07 14:04:01.36	154.93	31.72	-41.8	-42.8	22.7	0.00e+00	92	35	101	1048576	60	6743
2026-01-07 14:04:05.40	155.79	31.06	-44.0	-45.4	20.4	0.00e+00	0	35	101	1048576	60	9064
2026-01-07 14:04:09.45	156.61	30.41	-42.1	-43.1	22.5	0.00e+00	33	35	101	1048576	60	6962
2026-01-07 14:04:13.49	157.40	29.78	-42.1	-43.1	22.5	0.00e+00	0	35	101	1048576	60	6957
2026-01-07 14:04:17.53	158.17	29.15	-41.9	-42.9	22.7	0.00e+00	0	35	101	1048576	60	6839
2026-01-07 14:04:21.57	158.90	28.53	-41.7	-42.7	22.8	0.00e+00	0	35	101	1048576	60	6633
2026-01-07 14:04:25.62	159.61	27.91	-40.9	-41.9	23.4	0.00e+00	0	35	101	1048576	60	6037
2026-01-07 14:04:29.66	160.29	27.31	-40.5	-41.4	23.7	0.00e+00	92	35	101	1048576	60	5750
2026-01-07 14:04:33.70	160.95	26.72	-40.8	-41.7	23.5	0.00e+00	0	35	101	1048576	60	5928
2026-01-07 14:04:37.75	161.58	26.13	-41.0	-41.9	23.4	0.00e+00	0	35	101	1048576	60	6048
2026-01-07 14:04:41.79	162.20	25.55	-40.5	-41.3	23.8	0.00e+00	0	35	101	1048576	60	5676
2026-01-07 14:04:45.84	162.79	24.99	-41.6	-42.6	22.7	0.00e+00	73	35	101	1048576	60	6596
2026-01-07 14:04:49.88	163.36	24.43	-41.0	-41.9	23.3	0.00e+00	0	35	101	1048576	60	6060
2026-01-07 14:04:53.93	163.91	23.88	-40.4	-41.3	23.9	0.00e+00	0	35	101	1048576	60	5639
2026-01-07 14:04:57.97	164.45	23.34	-41.5	-42.5	22.8	0.00e+00	89	35	101	1048576	60	6506
2026-01-07 14:05:02.02	164.96	22.81	-41.7	-42.7	22.6	0.00e+00	0	35	101	1048576	60	6668
2026-01-07 14:05:06.06	165.46	22.28	-41.5	-42.5	22.8	0.00e+00	0	35	101	1048576	60	6513
2026-01-07 14:05:10.10	165.95	21.77	-40.7	-41.6	23.5	0.00e+00	0	35	101	1048576	60	5875
2026-01-07 14:05:14.14	166.42	21.26	-40.4	-41.3	23.8	0.00e+00	83	35	101	1048576	58	6379
2026-01-07 14:05:18.19	166.87	20.76	-41.8	-42.8	22.5	0.00e+00	33	35	101	1048576	60	6761
2026-01-07 14:05:22.23	167.31	20.28	-42.6	-43.7	21.8	0.00e+00	0	35	101	1048576	60	7499
2026-01-07 14:05:26.28	167.74	19.79	-42.1	-43.2	22.2	0.00e+00	0	35	101	1048576	60	7054
2026-01-07 14:05:30.32	168.15	19.32	-40.7	-41.6	23.4	0.00e+00	57	35	101	1048576	60	5893
2026-01-07 14:05:34.36	168.56	18.85	-40.5	-41.4	23.6	0.00e+00	0	35	101	1048576	60	5735
2026-01-07 14:05:38.41	168.95	18.39	-40.9	-41.8	23.2	0.00e+00	0	35	101	1048576	60	5990
2026-01-07 14:05:42.45	169.33	17.94	-41.3	-42.3	22.8	0.00e+00	8	35	101	1048576	60	6336
2026-01-07 14:05:46.49	169.70	17.50	-41.1	-42.0	23.1	0.00e+00	46	35	101	1048576	60	6146
2026-01-07 14:05:50.54	170.06	17.06	-40.5	-41.4	23.7	0.00e+00	0	35	101	1048576	60	5705
2026-01-07 14:05:54.58	170.41	16.63	-39.8	-40.6	24.1	0.00e+00	0	35	101	1048576	58	5872
2026-01-07 14:05:58.63	170.75	16.20	-39.7	-40.5	24.1	0.00e+00	65	35	101	1048576	58	5772
2026-01-07 14:06:02.67	171.08	15.78	-39.8	-40.7	24.2	0.00e+00	0	35	101	1048576	58	5909
2026-01-07 14:06:06.71	171.40	15.37	-40.3	-41.2	23.5	0.00e+00	0	35	101	1048576	58	6295
2026-01-07 14:06:10.76	171.72	14.96	-41.4	-42.4	22.7	0.00e+00	0	35	101	1048576	60	6416
2026-01-07 14:06:14.80	172.02	14.56	-42.2	-43.3	22.0	0.00e+00	92	35	101	1048576	60	7093
2026-01-07 14:06:18.85	172.32	14.17	-42.5	-43.7	21.7	0.00e+00	0	35	101	1048576	60	7444
2026-01-07 14:06:22.89	172.61	13.78	-42.4	-43.6	21.9	0.00e+00	0	35	101	1048576	60	7339
2026-01-07 14:06:26.94	172.90	13.40	-41.5	-42.5	22.7	0.00e+00	73	35	101	1048576	60	6490
2026-01-07 14:06:30.98	173.18	13.02	-40.8	-41.7	23.3	0.00e+00	32	35	101	1048576	60	5921
2026-01-07 14:06:35.02	173.45	12.65	-40.5	-41.4	23.4	0.00e+00	0	35	101	1048576	60	5706
2026-01-07 14:06:39.07	173.71	12.28	-40.3	-41.1	23.5	0.00e+00	0	35	101	1048576	58	6223
2026-01-07 14:06:43.11	173.97	11.91	-40.5	-41.4	23.4	0.00e+00	88	35	101	1048576	58	6391
2026-01-07 14:06:47.15	174.22	11.56	-40.7	-41.7	23.1	0.00e+00	0	35	101	1048576	58	6622
2026-01-07 14:06:51.20	174.47	11.20	-41.1	-42.1	22.9	0.00e+00	0	35	101	1048576	58	6961
2026-01-07 14:06:55.24	174.71	10.86	-41.6	-42.6	22.6	0.00e+00	0	35	101	1048576	60	6602
2026-01-07 14:06:59.29	174.95	10.51	-41.6	-42.6	22.4	0.00e+00	92	35	101	1048576	60	6571
2026-01-07 14:07:03.33	175.18	10.17	-41.7	-42.8	22.3	0.00e+00	0	35	101	1048576	60	6735
2026-01-07 14:07:07.37	175.40	9.84	-41.7	-42.8	22.3	0.00e+00	0	35	101	1048576	60	6715
2026-01-07 14:07:11.41	175.62	9.51	-41.6	-42.7	22.3	0.00e+00	0	35	101	1048576	60	6644
2026-01-07 14:07:15.46	175.84	9.18	-41.9	-42.9	22.0	0.00e+00	17	35	101	1048576	60	6841
2026-01-07 14:07:19.50	176.05	8.85	-42.0	-43.1	21.9	0.00e+00	0	35	101	1048576	60	6943
2026-01-07 14:07:23.54	176.26	8.54	-42.3	-43.4	21.7	0.00e+00	0	35	101	1048576	60	7214
2026-01-07 14:07:27.59	176.47	8.22	-42.5	-43.6	21.4	0.00e+00	77	35	101	1048576	60	7415
2026-01-07 14:07:31.63	176.66	7.91	-42.7	-43.9	21.2	0.00e+00	0	35	101	1048576	60	7634
2026-01-07 14:07:35.67	176.86	7.60	-42.9	-44.1	21.0	0.00e+00	0	35	101	1048576	60	7784
2026-01-07 14:07:39.71	177.05	7.29	-43.2	-44.4	20.6	0.00e+00	0	35	101	1048576	60	8119
2026-01-07 14:07:43.76	177.24	6.99	-43.6	-45.0	20.3	0.00e+00	92	35	101	1048576	60	8697
2026-01-07 14:07:47.80	177.43	6.69	-44.1	-45.6	19.6	0.00e+00	0	35	101	1048576	60	9251
2026-01-07 14:07:51.84	177.61	6.40	-44.1	-45.7	19.4	0.00e+00	0	35	101	1048576	60	9347
2026-01-07 14:07:55.89	177.79	6.11	-44.4	-45.9	19.2	0.00e+00	0	35	101	1048576	60	9661
2026-01-07 14:07:59.93	177.96	5.82	-44.5	-46.0	19.0	0.00e+00	87	35	101	1048576	60	9776
2026-01-07 14:08:03.97	178.13	5.53	-44.8	-46.4	18.6	0.00e+00	0	35	101	1048576	60	10237
2026-01-07 14:08:08.01	178.30	5.25	-44.9	-46.7	18.4	0.00e+00	0	35	101	1048576	60	10521
2026-01-07 14:08:12.06	178.47	4.97	-45.0	-46.8	18.2	0.00e+00	91	35	101	1048576	60	10652
2026-01-07 14:08:16.10	178.63	4.69	-45.3	-47.2	18.0	0.00e+00	33	35	101	1048576	60	11127
2026-01-07 14:08:20.15	178.79	4.41	-45.0	-46.9	18.1	0.00e+00	0	35	101	1048576	60	10767
2026-01-07 14:08:24.19	178.95	4.14	-45.1	-47.0	18.0	0.00e+00	0	35	101	1048576	60	10873
2026-01-07 14:08:28.24	179.10	3.87	-45.0	-46.8	18.0	0.00e+00	95	35	101	1048576	60	10684
2026-01-07 14:08:32.28	179.25	3.61	-44.9	-46.8	18.0	0.00e+00	0	35	101	1048576	60	10637
2026-01-07 14:08:36.33	179.40	3.34	-44.8	-46.6	18.2	0.00e+00	0	35	101	1048576	60	10420
2026-01-07 14:08:40.37	179.55	3.08	-51.2	-66.4	3.6	1.51e+00	0	35	104	1048576	60	102312
2026-01-07 14:08:44.41	179.69	2.82	-51.9	-67.3	3.6	1.51e+00	0	35	104	1048576	60	112648
2026-01-07 14:08:48.46	179.84	2.56	-52.0	-67.4	3.6	1.51e+00	0	35	104	1048576	60	113686
2026-01-07 14:08:52.50	179.98	2.30	-51.9	-67.3	3.6	1.51e+00	0	35	104	1048576	60	113503
2026-01-07 14:08:56.55	180.11	2.05	-51.9	-67.3	3.6	1.51e+00	0	35	104	1048576	60	113558
2026-01-07 14:09:00.59	180.25	1.80	-51.9	-67.3	3.6	1.51e+00	0	35	104	1048576	60	112507
2026-01-07 14:09:04.63	180.38	1.55	-51.9	-67.3	3.6	1.51e+00	0	35	104	1048576	60	113070
2026-01-07 14:09:08.67	180.52	1.30	-51.9	-67.3	3.6	1.51e+00	0	35	104	1048576	60	112524
2026-01-07 14:09:12.71	180.65	1.06	-51.9	-67.3	3.6	1.51e+00	0	35	104	1048576	60	113095
2026-01-07 14:09:16.76	180.77	0.82	-51.9	-67.3	3.6	1.51e+00	0	35	104	1048576	60	112810
2026-01-07 14:09:20.80	180.90	0.57	-51.9	-67.3	3.6	1.51e+00	0	35	104	1048576	60	113002
2026-01-07 14:09:24.84	181.02	0.33	-51.9	-67.3	3.6	1.51e+00	0	35	104	1048576	60	112398
2026-01-07 14:09:28.89	181.15	0.10	-51.9	-67.3	3.6	1.51e+00	0	35	104	1048576	60	112637
2026-01-07 14:09:32.93	181.27	-0.14	-51.9	-67.2	3.6	1.51e+00	0	35	104	1048576	60	112259

#Closed at: 2026-01-07 14:09:33
#Recorded file [1 MB]: D:/lorett/data/35034_260107_165410.dat