passes_logs/2026/01/07/R4.6S_Anadyr_2ch/R4.6S_Anadyr_2ch__20260107_132431_NOAA_21_JPSS-2_rec.log

#Pass ID: 20260107_132431_NOAA 21 (JPSS-2)
#Satellite: NOAA 21 (JPSS-2)
#Configuration: NOAA-21
#almurnet v.1.7.20251203
#Start time: 2026-01-07 13:24:32

#Version: 2.2.20231116
#Station: R4.6S_Anadyr_2ch
#Location: 177.4865 lon 64.73178 lat
#TLE: 1 54234U 22150A   25350.97269056  .00000057  00000+0  47676-4 0  9992
#TLE: 2 54234  98.7466 287.2282 0002043  29.8355 330.2937 14.19525482160692

#Time	Az	El	Level	Level2	SNR	BER	BlckErr	Temp	State	Recorded	gain1	gain2
2026-01-07 13:24:32.77	18.78	0.05	-51.9	-66.9	3.5	1.51e+00	0	32	0	0	60	108304
2026-01-07 13:24:36.81	18.96	0.27	-51.9	-65.0	3.5	1.52e+00	0	34	104	0	60	83972
2026-01-07 13:24:40.85	19.14	0.50	-51.8	-64.8	3.5	1.52e+00	0	34	104	0	60	82245
2026-01-07 13:24:44.90	19.32	0.73	-51.3	-64.3	3.5	1.52e+00	0	34	104	0	60	77529
2026-01-07 13:24:48.94	19.50	0.97	-50.4	-63.4	3.5	1.52e+00	0	34	104	0	60	69738
2026-01-07 13:24:52.99	19.68	1.20	-50.4	-63.4	3.5	1.52e+00	0	34	104	0	60	69688
2026-01-07 13:24:57.03	19.87	1.44	-50.4	-63.1	3.5	1.52e+00	0	34	104	0	60	68003
2026-01-07 13:25:01.07	20.06	1.67	-50.4	-63.3	3.5	1.52e+00	0	34	104	0	60	69276
2026-01-07 13:25:05.12	20.26	1.91	-50.4	-63.4	3.5	1.52e+00	0	34	104	0	60	69849
2026-01-07 13:25:09.16	20.45	2.16	-50.3	-62.2	3.5	1.51e+00	0	34	104	0	60	60767
2026-01-07 13:25:13.21	20.65	2.40	-50.3	-63.0	3.5	1.52e+00	0	34	104	0	60	67134
2026-01-07 13:25:17.25	20.85	2.64	-46.1	-48.5	14.2	6.10e-06	0	34	102	1048576	60	12625
2026-01-07 13:25:21.29	21.06	2.89	-41.9	-43.2	19.4	0.00e+00	0	34	102	1048576	60	6820
2026-01-07 13:25:25.34	21.27	3.14	-43.0	-44.5	18.0	0.00e+00	0	34	102	1048576	60	7972
2026-01-07 13:25:29.38	21.48	3.39	-47.8	-51.4	11.6	1.17e-02	0	34	102	1048576	60	17627
2026-01-07 13:25:33.43	21.69	3.64	-44.1	-45.9	14.0	0.00e+00	0	35	0	1048576	60	9292
2026-01-07 13:25:37.47	21.91	3.90	-41.7	-43.0	19.7	0.00e+00	0	34	0	1048576	60	6651
2026-01-07 13:25:41.52	22.13	4.15	-41.1	-42.3	20.4	0.00e+00	0	34	0	1048576	60	6141
2026-01-07 13:25:45.56	22.36	4.41	-40.9	-42.1	20.6	0.00e+00	0	35	101	1048576	60	6016
2026-01-07 13:25:49.60	22.59	4.67	-40.7	-41.9	21.0	0.00e+00	0	34	101	1048576	60	5865
2026-01-07 13:25:53.65	22.82	4.94	-40.6	-41.8	21.1	0.00e+00	0	35	101	1048576	60	5821
2026-01-07 13:25:57.69	23.06	5.20	-40.4	-41.6	21.2	0.00e+00	0	35	101	1048576	60	5671
2026-01-07 13:26:01.73	23.30	5.47	-40.8	-41.9	21.0	0.00e+00	0	35	101	1048576	60	5902
2026-01-07 13:26:05.78	23.54	5.74	-40.2	-41.3	21.5	0.00e+00	0	35	101	1048576	60	5469
2026-01-07 13:26:09.82	23.79	6.01	-40.1	-41.2	21.6	0.00e+00	0	35	101	1048576	58	6084
2026-01-07 13:26:13.87	24.04	6.29	-40.3	-41.4	21.4	0.00e+00	0	35	101	1048576	58	6217
2026-01-07 13:26:17.91	24.30	6.57	-40.1	-41.1	21.7	0.00e+00	0	35	101	1048576	58	6064
2026-01-07 13:26:21.95	24.56	6.85	-40.0	-41.0	21.8	0.00e+00	0	35	101	1048576	58	5994
2026-01-07 13:26:26.00	24.83	7.13	-40.0	-41.1	21.9	0.00e+00	0	35	101	1048576	58	6003
2026-01-07 13:26:30.04	25.10	7.41	-39.9	-40.9	22.0	0.00e+00	0	35	101	1048576	58	5908
2026-01-07 13:26:34.08	25.38	7.70	-39.8	-40.8	22.1	0.00e+00	0	35	101	1048576	58	5830
2026-01-07 13:26:38.12	25.66	7.99	-39.6	-40.7	22.3	0.00e+00	0	35	101	1048576	58	5733
2026-01-07 13:26:42.17	25.95	8.29	-39.7	-40.7	22.2	0.00e+00	0	35	101	1048576	58	5768
2026-01-07 13:26:46.21	26.24	8.58	-39.5	-40.5	22.3	0.00e+00	0	35	101	1048576	58	5631
2026-01-07 13:26:50.26	26.54	8.88	-39.4	-40.5	22.4	0.00e+00	0	35	101	1048576	58	5608
2026-01-07 13:26:54.30	26.84	9.19	-39.3	-40.3	22.6	0.00e+00	0	35	101	1048576	58	5500
2026-01-07 13:26:58.35	27.15	9.49	-39.3	-40.3	22.7	0.00e+00	0	35	101	1048576	58	5498
2026-01-07 13:27:02.39	27.47	9.80	-39.3	-40.3	22.7	0.00e+00	0	35	101	1048576	56	6156
2026-01-07 13:27:06.43	27.79	10.11	-38.9	-39.9	23.0	0.00e+00	0	35	101	1048576	56	5901
2026-01-07 13:27:10.48	28.12	10.43	-38.9	-39.9	23.0	0.00e+00	0	35	101	1048576	56	5898
2026-01-07 13:27:14.52	28.46	10.74	-38.9	-39.9	23.0	0.00e+00	0	35	101	1048576	56	5883
2026-01-07 13:27:18.56	28.80	11.07	-38.8	-39.7	23.2	0.00e+00	0	35	101	1048576	56	5776
2026-01-07 13:27:22.61	29.15	11.39	-38.5	-39.5	23.4	0.00e+00	0	35	101	1048576	56	5600
2026-01-07 13:27:26.65	29.51	11.72	-38.5	-39.5	23.5	0.00e+00	0	35	101	1048576	56	5621
2026-01-07 13:27:30.70	29.88	12.05	-38.5	-39.5	23.5	0.00e+00	0	35	101	1048576	56	5638
2026-01-07 13:27:34.74	30.25	12.39	-38.4	-39.3	23.6	0.00e+00	0	35	101	1048576	56	5528
2026-01-07 13:27:38.78	30.63	12.73	-38.3	-39.2	23.7	0.00e+00	0	35	101	1048576	56	5445
2026-01-07 13:27:42.83	31.02	13.07	-38.3	-39.2	23.7	0.00e+00	0	35	101	1048576	56	5439
2026-01-07 13:27:46.87	31.42	13.42	-38.1	-39.1	23.7	0.00e+00	0	35	101	1048576	54	6013
2026-01-07 13:27:50.91	31.83	13.77	-38.1	-39.1	23.8	0.00e+00	0	35	101	1048576	54	5999
2026-01-07 13:27:54.96	32.24	14.12	-38.1	-39.0	23.8	0.00e+00	0	35	101	1048576	54	5983
2026-01-07 13:27:59.00	32.67	14.48	-38.3	-39.2	23.7	0.00e+00	0	35	101	1048576	54	6122
2026-01-07 13:28:03.05	33.11	14.84	-38.0	-38.9	23.9	0.00e+00	0	35	101	1048576	54	5894
2026-01-07 13:28:07.09	33.56	15.21	-38.2	-39.1	23.8	0.00e+00	0	35	101	1048576	54	6052
2026-01-07 13:28:11.14	34.01	15.58	-38.2	-39.2	23.8	0.00e+00	0	35	101	1048576	54	6075
2026-01-07 13:28:15.18	34.48	15.95	-38.4	-39.3	23.6	0.00e+00	0	35	101	1048576	54	6194
2026-01-07 13:28:19.22	34.96	16.33	-38.3	-39.2	23.8	0.00e+00	0	35	101	1048576	54	6101
2026-01-07 13:28:23.27	35.45	16.71	-38.3	-39.2	23.8	0.00e+00	0	35	101	1048576	54	6122
2026-01-07 13:28:27.31	35.96	17.09	-38.2	-39.1	23.9	0.00e+00	0	35	101	1048576	54	6046
2026-01-07 13:28:31.35	36.47	17.48	-38.2	-39.2	23.8	0.00e+00	0	35	101	1048576	54	6081
2026-01-07 13:28:35.40	37.01	17.88	-37.9	-38.8	24.0	0.00e+00	0	35	101	1048576	54	5850
2026-01-07 13:28:39.44	37.55	18.28	-38.0	-38.9	24.1	0.00e+00	0	35	101	1048576	54	5884
2026-01-07 13:28:43.48	38.11	18.68	-37.9	-38.8	24.2	0.00e+00	0	35	101	1048576	54	5819
2026-01-07 13:28:47.53	38.68	19.08	-37.7	-38.7	24.2	0.00e+00	0	35	101	1048576	54	5726
2026-01-07 13:28:51.57	39.26	19.49	-37.9	-38.8	24.1	0.00e+00	0	35	101	1048576	54	5857
2026-01-07 13:28:55.61	39.87	19.91	-37.6	-38.6	24.4	0.00e+00	0	35	101	1048576	54	5662
2026-01-07 13:28:59.66	40.49	20.33	-37.4	-38.3	24.4	0.00e+00	0	35	101	1048576	54	5516
2026-01-07 13:29:03.70	41.12	20.75	-37.2	-38.1	24.5	0.00e+00	0	35	101	1048576	52	6009
2026-01-07 13:29:07.74	41.77	21.17	-37.0	-37.9	24.7	0.00e+00	0	35	101	1048576	52	5900
2026-01-07 13:29:11.78	42.44	21.60	-36.8	-37.7	25.0	0.00e+00	0	35	101	1048576	52	5756
2026-01-07 13:29:15.82	43.13	22.03	-36.7	-37.6	25.0	0.00e+00	0	35	101	1048576	52	5695
2026-01-07 13:29:19.87	43.84	22.47	-36.7	-37.5	25.1	0.00e+00	0	35	101	1048576	52	5651
2026-01-07 13:29:23.91	44.56	22.91	-36.4	-37.3	25.3	0.00e+00	0	35	101	1048576	52	5490
2026-01-07 13:29:27.96	45.31	23.35	-36.6	-37.4	25.2	0.00e+00	0	35	101	1048576	52	5593
2026-01-07 13:29:32.00	46.08	23.79	-36.5	-37.3	25.2	0.00e+00	0	35	101	1048576	52	5512
2026-01-07 13:29:36.05	46.87	24.24	-36.4	-37.2	25.3	0.00e+00	0	35	101	1048576	52	5453
2026-01-07 13:29:40.09	47.68	24.68	-36.6	-37.5	25.1	0.00e+00	0	35	101	1048576	52	5599
2026-01-07 13:29:44.13	48.51	25.13	-36.9	-37.8	24.9	0.00e+00	0	35	101	1048576	52	5811
2026-01-07 13:29:48.17	49.37	25.58	-37.2	-38.1	24.7	0.00e+00	0	35	101	1048576	52	6032
2026-01-07 13:29:52.22	50.25	26.04	-37.3	-38.2	24.5	0.00e+00	0	35	101	1048576	52	6104
2026-01-07 13:29:56.26	51.16	26.49	-37.5	-38.4	24.4	0.00e+00	0	35	101	1048576	52	6254
2026-01-07 13:30:00.30	52.09	26.94	-37.5	-38.4	24.5	0.00e+00	0	35	101	1048576	52	6217
2026-01-07 13:30:04.34	53.05	27.39	-37.5	-38.4	24.5	0.00e+00	0	35	101	1048576	52	6263
2026-01-07 13:30:08.39	54.04	27.84	-38.1	-39.0	24.1	0.00e+00	0	35	101	1048576	52	6690
2026-01-07 13:30:12.43	55.05	28.29	-37.7	-38.6	24.4	0.00e+00	0	35	101	1048576	52	6378
2026-01-07 13:30:16.47	56.09	28.74	-37.7	-38.6	24.4	0.00e+00	0	35	101	1048576	52	6399
2026-01-07 13:30:20.51	57.16	29.18	-37.6	-38.5	24.4	0.00e+00	0	35	101	1048576	52	6344
2026-01-07 13:30:24.55	58.26	29.62	-37.8	-38.7	24.4	0.00e+00	0	35	101	1048576	52	6466
2026-01-07 13:30:28.60	59.39	30.05	-37.4	-38.2	24.8	0.00e+00	0	35	101	1048576	52	6129
2026-01-07 13:30:32.64	60.55	30.48	-37.1	-38.0	24.7	0.00e+00	0	35	101	1048576	52	5952
2026-01-07 13:30:36.68	61.73	30.90	-37.6	-38.5	24.5	0.00e+00	0	35	101	1048576	52	6290
2026-01-07 13:30:40.73	62.96	31.32	-37.6	-38.5	24.4	0.00e+00	0	35	101	1048576	52	6284
2026-01-07 13:30:44.77	64.21	31.72	-37.6	-38.5	24.5	0.00e+00	0	35	101	1048576	52	6340
2026-01-07 13:30:48.81	65.49	32.12	-37.7	-38.6	24.4	0.00e+00	0	35	101	1048576	52	6420
2026-01-07 13:30:52.86	66.80	32.50	-38.0	-38.9	24.2	0.00e+00	0	35	101	1048576	52	6629
2026-01-07 13:30:56.90	68.14	32.88	-38.2	-39.2	24.1	0.00e+00	0	35	101	1048576	54	6065
2026-01-07 13:31:00.94	69.52	33.24	-38.5	-39.4	23.8	0.00e+00	0	35	101	1048576	54	6235
2026-01-07 13:31:04.98	70.92	33.58	-38.1	-39.0	24.0	0.00e+00	0	35	101	1048576	54	5986
2026-01-07 13:31:09.03	72.35	33.92	-38.4	-39.3	23.7	0.00e+00	0	35	101	1048576	54	6176
2026-01-07 13:31:13.07	73.81	34.23	-38.4	-39.4	23.7	0.00e+00	0	35	101	1048576	54	6240
2026-01-07 13:31:17.12	75.30	34.53	-38.2	-39.1	23.9	0.00e+00	0	35	101	1048576	54	6050
2026-01-07 13:31:21.16	76.82	34.80	-38.3	-39.3	23.7	0.00e+00	0	35	101	1048576	54	6168
2026-01-07 13:31:25.20	78.36	35.06	-38.5	-39.4	23.7	0.00e+00	0	35	101	1048576	54	6270
2026-01-07 13:31:29.25	79.92	35.30	-38.1	-39.1	24.1	0.00e+00	0	35	101	1048576	54	6010
2026-01-07 13:31:33.29	81.51	35.51	-38.5	-39.4	23.8	0.00e+00	0	35	101	1048576	54	6235
2026-01-07 13:31:37.34	83.11	35.71	-38.5	-39.5	23.6	0.00e+00	0	35	101	1048576	54	6291
2026-01-07 13:31:41.38	84.73	35.87	-39.2	-40.1	23.2	0.00e+00	0	35	101	1048576	54	6803
2026-01-07 13:31:45.42	86.37	36.02	-39.0	-39.9	23.6	0.00e+00	0	35	101	1048576	56	5896
2026-01-07 13:31:49.47	88.02	36.14	-38.8	-39.8	23.6	0.00e+00	0	35	101	1048576	56	5822
2026-01-07 13:31:53.51	89.68	36.23	-38.7	-39.7	23.5	0.00e+00	0	35	101	1048576	56	5738
2026-01-07 13:31:57.56	91.35	36.29	-38.6	-39.5	23.8	0.00e+00	0	35	101	1048576	56	5626
2026-01-07 13:32:01.60	93.03	36.33	-38.0	-38.9	24.2	0.00e+00	0	35	101	1048576	54	5886
2026-01-07 13:32:05.64	94.70	36.34	-38.2	-39.2	24.0	0.00e+00	0	35	101	1048576	54	6074
2026-01-07 13:32:09.69	96.38	36.33	-39.1	-40.1	23.2	0.00e+00	0	35	101	1048576	54	6750
2026-01-07 13:32:13.73	98.06	36.29	-39.0	-39.9	23.4	0.00e+00	0	35	101	1048576	56	5923
2026-01-07 13:32:17.77	99.73	36.22	-38.8	-39.7	23.7	0.00e+00	0	35	101	1048576	56	5751
2026-01-07 13:32:21.82	101.39	36.12	-38.8	-39.7	23.6	0.00e+00	0	35	101	1048576	56	5790
2026-01-07 13:32:25.86	103.04	36.00	-39.5	-40.5	23.1	0.00e+00	0	35	101	1048576	56	6316
2026-01-07 13:32:29.90	104.68	35.85	-38.9	-39.8	23.5	0.00e+00	0	35	101	1048576	56	5855
2026-01-07 13:32:33.95	106.30	35.68	-38.9	-39.9	23.5	0.00e+00	0	35	101	1048576	56	5893
2026-01-07 13:32:37.99	107.90	35.49	-39.2	-40.2	23.1	0.00e+00	0	35	101	1048576	56	6071
2026-01-07 13:32:42.04	109.49	35.27	-39.0	-39.9	23.5	0.00e+00	0	35	101	1048576	56	5918
2026-01-07 13:32:46.08	111.05	35.03	-38.8	-39.7	23.6	0.00e+00	0	35	101	1048576	56	5760
2026-01-07 13:32:50.12	112.59	34.77	-38.3	-39.2	24.1	0.00e+00	0	35	101	1048576	56	5435
2026-01-07 13:32:54.16	114.10	34.49	-38.3	-39.2	23.9	0.00e+00	0	35	101	1048576	54	6123
2026-01-07 13:32:58.21	115.59	34.19	-38.0	-38.9	23.9	0.00e+00	0	35	101	1048576	54	5914
2026-01-07 13:33:02.25	117.05	33.87	-38.2	-39.1	24.1	0.00e+00	0	35	101	1048576	54	6041
2026-01-07 13:33:06.30	118.49	33.53	-38.0	-39.0	24.2	0.00e+00	0	35	101	1048576	54	5941
2026-01-07 13:33:10.34	119.89	33.18	-37.8	-38.7	24.4	0.00e+00	0	35	101	1048576	54	5758
2026-01-07 13:33:14.38	121.26	32.82	-37.9	-38.8	24.1	0.00e+00	0	35	101	1048576	54	5810
2026-01-07 13:33:18.42	122.60	32.44	-37.6	-38.5	24.4	0.00e+00	0	35	101	1048576	54	5627
2026-01-07 13:33:22.47	123.92	32.05	-37.6	-38.5	24.2	0.00e+00	0	35	101	1048576	54	5627
2026-01-07 13:33:26.51	125.20	31.66	-37.6	-38.5	24.5	0.00e+00	0	35	101	1048576	54	5644
2026-01-07 13:33:30.55	126.45	31.25	-37.3	-38.2	24.7	0.00e+00	0	35	101	1048576	54	5427
2026-01-07 13:33:34.60	127.67	30.83	-37.6	-38.5	24.5	0.00e+00	0	35	101	1048576	54	5655
2026-01-07 13:33:38.64	128.86	30.40	-37.1	-38.0	24.9	0.00e+00	0	35	101	1048576	52	5932
2026-01-07 13:33:42.68	130.01	29.97	-36.9	-37.8	24.6	0.00e+00	0	35	101	1048576	52	5817
2026-01-07 13:33:46.72	131.14	29.54	-37.0	-37.9	25.0	0.00e+00	0	35	101	1048576	52	5872
2026-01-07 13:33:50.77	132.24	29.09	-37.5	-38.4	24.5	0.00e+00	0	35	101	1048576	52	6225
2026-01-07 13:33:54.81	133.31	28.65	-37.6	-38.4	24.5	0.00e+00	0	35	101	1048576	52	6265
2026-01-07 13:33:58.86	134.35	28.20	-37.1	-37.9	24.9	0.00e+00	0	35	101	1048576	52	5920
2026-01-07 13:34:02.90	135.36	27.75	-37.2	-38.1	24.7	0.00e+00	0	35	101	1048576	52	6046
2026-01-07 13:34:06.94	136.35	27.29	-37.0	-37.9	24.9	0.00e+00	0	35	101	1048576	52	5900
2026-01-07 13:34:10.98	137.31	26.84	-37.0	-37.9	24.9	0.00e+00	0	35	101	1048576	52	5913
2026-01-07 13:34:15.03	138.24	26.39	-37.3	-38.2	24.7	0.00e+00	0	35	101	1048576	52	6078
2026-01-07 13:34:19.07	139.14	25.93	-36.6	-37.5	25.2	0.00e+00	0	35	101	1048576	52	5607
2026-01-07 13:34:23.12	140.03	25.48	-36.9	-37.7	25.0	0.00e+00	0	35	101	1048576	52	5789
2026-01-07 13:34:27.16	140.88	25.02	-36.8	-37.7	25.0	0.00e+00	0	35	101	1048576	52	5775
2026-01-07 13:34:31.20	141.71	24.57	-36.7	-37.6	25.0	0.00e+00	0	35	101	1048576	52	5698
2026-01-07 13:34:35.24	142.52	24.12	-36.8	-37.6	25.0	0.00e+00	0	35	101	1048576	52	5724
2026-01-07 13:34:39.29	143.31	23.67	-36.8	-37.7	25.0	0.00e+00	0	35	101	1048576	52	5753
2026-01-07 13:34:43.33	144.08	23.23	-37.1	-38.0	24.7	0.00e+00	0	35	101	1048576	52	5939
2026-01-07 13:34:47.38	144.82	22.78	-37.1	-38.0	24.7	0.00e+00	0	35	101	1048576	52	5968
2026-01-07 13:34:51.42	145.55	22.34	-37.2	-38.1	24.6	0.00e+00	0	35	101	1048576	52	6034
2026-01-07 13:34:55.46	146.25	21.90	-37.3	-38.2	24.5	0.00e+00	0	35	101	1048576	52	6129
2026-01-07 13:34:59.51	146.94	21.47	-37.6	-38.5	24.4	0.00e+00	0	35	101	1048576	52	6330
2026-01-07 13:35:03.55	147.61	21.04	-37.4	-38.3	24.5	0.00e+00	0	35	101	1048576	52	6152
2026-01-07 13:35:07.59	148.26	20.61	-37.6	-38.5	24.3	0.00e+00	0	35	101	1048576	52	6329
2026-01-07 13:35:11.63	148.89	20.19	-37.3	-38.2	24.7	0.00e+00	0	35	101	1048576	52	6091
2026-01-07 13:35:15.67	149.51	19.77	-37.1	-38.0	24.7	0.00e+00	0	35	101	1048576	52	5936
2026-01-07 13:35:19.71	150.11	19.35	-37.1	-37.9	24.8	0.00e+00	0	35	101	1048576	52	5926
2026-01-07 13:35:23.76	150.69	18.94	-36.9	-37.8	24.9	0.00e+00	0	35	101	1048576	52	5840
2026-01-07 13:35:27.80	151.26	18.53	-37.2	-38.1	24.6	0.00e+00	0	35	101	1048576	52	6060
2026-01-07 13:35:31.85	151.82	18.13	-37.3	-38.2	24.5	0.00e+00	0	35	101	1048576	52	6122
2026-01-07 13:35:35.89	152.36	17.73	-37.3	-38.2	24.5	0.00e+00	0	35	101	1048576	52	6098
2026-01-07 13:35:39.93	152.89	17.33	-37.7	-38.7	24.1	0.00e+00	0	35	101	1048576	52	6425
2026-01-07 13:35:43.97	153.40	16.94	-38.9	-39.9	22.9	0.00e+00	0	35	101	1048576	54	6617
2026-01-07 13:35:48.01	153.90	16.56	-40.4	-41.6	21.1	0.00e+00	0	35	101	1048576	58	6375
2026-01-07 13:35:52.06	154.39	16.17	-41.9	-43.2	19.6	0.00e+00	0	35	101	1048576	60	6835
2026-01-07 13:35:56.10	154.87	15.79	-42.4	-43.8	18.9	0.00e+00	0	35	101	1048576	60	7364
2026-01-07 13:36:00.15	155.34	15.42	-42.0	-43.3	19.4	0.00e+00	0	35	101	1048576	60	6948
2026-01-07 13:36:04.19	155.79	15.05	-40.6	-41.8	21.3	0.00e+00	0	35	101	1048576	60	5804
2026-01-07 13:36:08.24	156.24	14.68	-39.1	-40.1	22.9	0.00e+00	0	35	101	1048576	56	6032
2026-01-07 13:36:12.28	156.67	14.31	-38.3	-39.2	23.7	0.00e+00	0	35	101	1048576	56	5442
2026-01-07 13:36:16.32	157.10	13.96	-38.2	-39.2	23.7	0.00e+00	0	35	101	1048576	54	6086
2026-01-07 13:36:20.37	157.51	13.60	-38.2	-39.2	23.7	0.00e+00	0	35	101	1048576	54	6085
2026-01-07 13:36:24.41	157.92	13.25	-38.4	-39.4	23.4	0.00e+00	0	35	101	1048576	54	6223
2026-01-07 13:36:28.45	158.31	12.90	-38.7	-39.7	23.1	0.00e+00	0	35	101	1048576	54	6441
2026-01-07 13:36:32.50	158.70	12.56	-38.4	-39.3	23.5	0.00e+00	0	35	101	1048576	54	6205
2026-01-07 13:36:36.54	159.08	12.21	-38.5	-39.4	23.5	0.00e+00	0	36	101	1048576	54	6245
2026-01-07 13:36:40.58	159.45	11.88	-38.4	-39.4	23.5	0.00e+00	0	36	101	1048576	54	6232
2026-01-07 13:36:44.62	159.81	11.55	-38.7	-39.6	23.3	0.00e+00	0	35	101	1048576	54	6403
2026-01-07 13:36:48.66	160.17	11.22	-38.7	-39.7	23.2	0.00e+00	0	35	101	1048576	54	6442
2026-01-07 13:36:52.70	160.52	10.89	-39.0	-39.9	23.0	0.00e+00	0	35	101	1048576	54	6647
2026-01-07 13:36:56.75	160.86	10.57	-39.5	-40.5	22.5	0.00e+00	0	35	101	1048576	56	6339
2026-01-07 13:37:00.79	161.19	10.25	-39.7	-40.7	22.4	0.00e+00	0	35	101	1048576	56	6473
2026-01-07 13:37:04.83	161.52	9.93	-39.5	-40.6	22.4	0.00e+00	0	35	101	1048576	56	6372
2026-01-07 13:37:08.88	161.84	9.62	-39.5	-40.6	22.4	0.00e+00	0	35	101	1048576	56	6357
2026-01-07 13:37:12.92	162.15	9.31	-39.5	-40.6	22.4	0.00e+00	0	35	101	1048576	56	6357
2026-01-07 13:37:16.96	162.46	9.00	-39.4	-40.5	22.5	0.00e+00	0	35	101	1048576	56	6278
2026-01-07 13:37:21.01	162.76	8.70	-39.4	-40.4	22.5	0.00e+00	0	35	101	1048576	56	6244
2026-01-07 13:37:25.05	163.05	8.40	-39.4	-40.4	22.5	0.00e+00	0	35	101	1048576	56	6252
2026-01-07 13:37:29.09	163.34	8.10	-39.5	-40.5	22.4	0.00e+00	0	35	101	1048576	56	6315
2026-01-07 13:37:33.14	163.63	7.80	-39.7	-40.7	22.2	0.00e+00	0	35	101	1048576	56	6459
2026-01-07 13:37:37.18	163.91	7.51	-39.9	-41.0	21.9	0.00e+00	0	35	101	1048576	56	6671
2026-01-07 13:37:41.22	164.18	7.22	-40.0	-41.1	21.8	0.00e+00	0	35	101	1048576	58	6028
2026-01-07 13:37:45.27	164.45	6.93	-40.3	-41.4	21.5	0.00e+00	0	35	101	1048576	58	6259
2026-01-07 13:37:49.31	164.71	6.65	-40.3	-41.4	21.4	0.00e+00	0	35	101	1048576	58	6262
2026-01-07 13:37:53.35	164.97	6.37	-40.3	-41.4	21.4	0.00e+00	0	35	101	1048576	58	6256
2026-01-07 13:37:57.40	165.22	6.09	-40.5	-41.6	21.1	0.00e+00	0	35	101	1048576	58	6387
2026-01-07 13:38:01.44	165.47	5.82	-40.6	-41.8	21.0	0.00e+00	0	35	101	1048576	58	6541
2026-01-07 13:38:05.48	165.72	5.54	-40.7	-41.8	20.9	0.00e+00	0	35	101	1048576	58	6551
2026-01-07 13:38:09.52	165.96	5.27	-40.8	-42.0	20.8	0.00e+00	0	35	101	1048576	58	6668
2026-01-07 13:38:13.57	166.20	5.00	-40.8	-42.0	20.7	0.00e+00	0	35	101	1048576	58	6688
2026-01-07 13:38:17.61	166.43	4.73	-40.9	-42.1	20.7	0.00e+00	0	35	101	1048576	58	6743
2026-01-07 13:38:21.65	166.66	4.47	-40.9	-42.1	20.5	0.00e+00	0	35	101	1048576	58	6780
2026-01-07 13:38:25.69	166.88	4.21	-41.0	-42.2	20.4	0.00e+00	0	35	101	1048576	58	6844
2026-01-07 13:38:29.73	167.10	3.95	-41.3	-42.5	20.2	0.00e+00	0	35	101	1048576	60	6335
2026-01-07 13:38:33.78	167.32	3.69	-41.3	-42.5	20.0	0.00e+00	0	35	101	1048576	60	6323
2026-01-07 13:38:37.82	167.54	3.44	-41.4	-42.7	19.8	0.00e+00	0	35	101	1048576	60	6427
2026-01-07 13:38:41.86	167.75	3.18	-41.5	-42.8	19.6	0.00e+00	0	35	101	1048576	60	6541
2026-01-07 13:38:45.90	167.95	2.93	-51.1	-64.1	3.5	1.52e+00	0	35	104	1048576	60	75863
2026-01-07 13:38:49.95	168.16	2.68	-52.0	-65.1	3.5	1.52e+00	0	35	104	1048576	60	84846
2026-01-07 13:38:53.99	168.36	2.43	-52.0	-65.0	3.5	1.52e+00	0	35	104	1048576	60	84648
2026-01-07 13:38:58.03	168.56	2.19	-51.9	-65.0	3.5	1.52e+00	0	35	104	1048576	60	83749
2026-01-07 13:39:02.07	168.75	1.94	-51.9	-64.9	3.5	1.52e+00	0	35	104	1048576	60	83626
2026-01-07 13:39:06.12	168.94	1.70	-51.9	-64.9	3.5	1.52e+00	0	35	104	1048576	60	83416
2026-01-07 13:39:10.16	169.13	1.46	-51.9	-65.0	3.5	1.52e+00	0	35	104	1048576	60	83849
2026-01-07 13:39:14.21	169.32	1.22	-51.9	-64.9	3.5	1.52e+00	0	35	104	1048576	60	83544
2026-01-07 13:39:18.25	169.50	0.99	-51.9	-64.9	3.5	1.52e+00	0	36	104	1048576	60	83548
2026-01-07 13:39:22.29	169.68	0.75	-51.9	-64.9	3.5	1.52e+00	0	35	104	1048576	60	83423
2026-01-07 13:39:26.33	169.86	0.52	-51.9	-64.9	3.5	1.52e+00	0	35	104	1048576	60	83611
2026-01-07 13:39:30.38	170.04	0.29	-51.9	-64.9	3.5	1.52e+00	0	36	104	1048576	60	83469
2026-01-07 13:39:34.42	170.21	0.06	-51.9	-64.9	3.5	1.52e+00	0	36	104	1048576	60	83276

#Closed at: 2026-01-07 13:39:37
#Recorded file [1 MB]: D:/lorett/data/35034_260107_162432.dat