passes_logs/2026/01/07/R4.6S_Anadyr_2ch/R4.6S_Anadyr_2ch__20260107_150459_NOAA_21_JPSS-2_rec.log

#Pass ID: 20260107_150459_NOAA 21 (JPSS-2)
#Satellite: NOAA 21 (JPSS-2)
#Configuration: NOAA-21
#almurnet v.1.7.20251203
#Start time: 2026-01-07 15:05:01

#Version: 2.2.20231116
#Station: R4.6S_Anadyr_2ch
#Location: 177.4865 lon 64.73178 lat
#TLE: 1 54234U 22150A   25350.97269056  .00000057  00000+0  47676-4 0  9992
#TLE: 2 54234  98.7466 287.2282 0002043  29.8355 330.2937 14.19525482160692

#Time	Az	El	Level	Level2	SNR	BER	BlckErr	Temp	State	Recorded	gain1	gain2
2026-01-07 15:05:01.85	21.30	0.15	-51.9	-66.9	3.5	1.51e+00	0	32	0	0	60	108174
2026-01-07 15:05:05.89	21.27	0.39	-51.9	-64.9	3.5	1.52e+00	0	34	104	0	60	83548
2026-01-07 15:05:09.93	21.25	0.63	-51.6	-64.7	3.5	1.52e+00	0	34	104	0	60	81127
2026-01-07 15:05:13.97	21.22	0.88	-50.8	-63.8	3.5	1.52e+00	0	34	104	0	60	73466
2026-01-07 15:05:18.02	21.20	1.13	-50.4	-63.3	3.5	1.51e+00	0	34	104	0	60	69317
2026-01-07 15:05:22.06	21.17	1.38	-50.4	-62.8	3.5	1.52e+00	0	34	104	0	60	65612
2026-01-07 15:05:26.10	21.14	1.63	-50.4	-63.2	3.5	1.52e+00	0	34	104	0	60	68119
2026-01-07 15:05:30.15	21.12	1.89	-50.4	-63.4	3.5	1.52e+00	0	34	104	0	60	70112
2026-01-07 15:05:34.19	21.09	2.15	-50.4	-63.0	3.5	1.52e+00	0	34	104	0	60	67253
2026-01-07 15:05:38.23	21.06	2.41	-50.3	-61.6	3.5	1.51e+00	0	34	104	0	60	56718
2026-01-07 15:05:42.28	21.03	2.67	-50.4	-62.4	3.5	1.51e+00	0	34	104	0	60	62207
2026-01-07 15:05:46.32	21.00	2.93	-49.5	-56.7	6.2	8.02e-01	123	35	104	0	60	32507
2026-01-07 15:05:50.36	20.96	3.20	-47.4	-50.7	12.0	5.77e-04	123	35	102	1048576	60	16190
2026-01-07 15:05:54.40	20.93	3.47	-47.5	-50.8	11.8	3.33e-04	123	34	102	1048576	60	16346
2026-01-07 15:05:58.45	20.90	3.74	-44.1	-45.8	15.3	0.00e+00	122	34	102	1048576	60	9267
2026-01-07 15:06:02.49	20.86	4.02	-44.0	-45.7	17.1	0.00e+00	122	35	0	1048576	60	9168
2026-01-07 15:06:06.53	20.83	4.30	-43.7	-45.3	17.8	0.00e+00	123	35	0	1048576	60	8694
2026-01-07 15:06:10.58	20.79	4.58	-43.7	-45.3	18.1	0.00e+00	123	35	0	1048576	60	8728
2026-01-07 15:06:14.62	20.75	4.86	-42.4	-43.8	19.5	0.00e+00	120	35	101	1048576	60	7292
2026-01-07 15:06:18.67	20.71	5.15	-41.5	-42.7	20.2	0.00e+00	120	35	101	1048576	60	6490
2026-01-07 15:06:22.71	20.67	5.44	-41.4	-42.6	20.4	0.00e+00	123	35	101	1048576	60	6375
2026-01-07 15:06:26.76	20.63	5.73	-40.2	-41.3	21.4	0.00e+00	123	35	101	1048576	60	5526
2026-01-07 15:06:30.80	20.59	6.03	-40.4	-41.5	21.3	0.00e+00	123	35	101	1048576	60	5657
2026-01-07 15:06:34.84	20.54	6.33	-40.5	-41.6	21.3	0.00e+00	120	35	101	1048576	60	5708
2026-01-07 15:06:38.89	20.50	6.63	-40.4	-41.5	21.4	0.00e+00	121	35	101	1048576	60	5631
2026-01-07 15:06:42.93	20.45	6.94	-40.0	-41.0	21.9	0.00e+00	120	35	101	1048576	58	5980
2026-01-07 15:06:46.98	20.40	7.25	-39.9	-40.9	22.0	0.00e+00	120	35	101	1048576	58	5912
2026-01-07 15:06:51.02	20.35	7.56	-39.9	-40.9	22.0	0.00e+00	123	35	101	1048576	58	5911
2026-01-07 15:06:55.06	20.30	7.88	-39.7	-40.7	22.2	0.00e+00	120	35	101	1048576	58	5769
2026-01-07 15:06:59.11	20.25	8.20	-39.4	-40.5	22.4	0.00e+00	123	35	101	1048576	58	5614
2026-01-07 15:07:03.15	20.20	8.53	-39.4	-40.4	22.5	0.00e+00	123	35	101	1048576	58	5555
2026-01-07 15:07:07.19	20.14	8.86	-39.1	-40.1	22.9	0.00e+00	123	35	101	1048576	56	6032
2026-01-07 15:07:11.23	20.08	9.20	-39.0	-40.0	22.9	0.00e+00	122	35	101	1048576	56	5957
2026-01-07 15:07:15.28	20.02	9.54	-38.8	-39.8	23.1	0.00e+00	123	35	101	1048576	56	5821
2026-01-07 15:07:19.32	19.96	9.88	-38.7	-39.7	23.2	0.00e+00	122	35	101	1048576	56	5770
2026-01-07 15:07:23.36	19.90	10.23	-38.7	-39.6	23.3	0.00e+00	123	35	101	1048576	56	5723
2026-01-07 15:07:27.40	19.84	10.58	-38.5	-39.5	23.4	0.00e+00	123	35	101	1048576	56	5618
2026-01-07 15:07:31.45	19.77	10.94	-38.5	-39.5	23.4	0.00e+00	121	35	101	1048576	56	5608
2026-01-07 15:07:35.49	19.70	11.31	-38.4	-39.3	23.6	0.00e+00	123	35	101	1048576	56	5517
2026-01-07 15:07:39.53	19.63	11.68	-38.3	-39.3	23.6	0.00e+00	123	35	101	1048576	56	5487
2026-01-07 15:07:43.58	19.56	12.05	-38.0	-39.0	23.8	0.00e+00	123	35	101	1048576	54	5940
2026-01-07 15:07:47.62	19.48	12.43	-37.9	-38.9	23.9	0.00e+00	122	35	101	1048576	54	5875
2026-01-07 15:07:51.67	19.40	12.82	-38.0	-38.9	23.8	0.00e+00	123	35	101	1048576	54	5908
2026-01-07 15:07:55.71	19.32	13.21	-37.8	-38.7	24.0	0.00e+00	122	35	101	1048576	54	5775
2026-01-07 15:07:59.75	19.24	13.61	-37.8	-38.7	24.0	0.00e+00	123	35	101	1048576	54	5768
2026-01-07 15:08:03.80	19.15	14.02	-37.7	-38.6	24.1	0.00e+00	122	35	101	1048576	54	5688
2026-01-07 15:08:07.84	19.07	14.43	-37.6	-38.5	24.2	0.00e+00	122	35	101	1048576	54	5617
2026-01-07 15:08:11.88	18.97	14.85	-37.7	-38.6	24.2	0.00e+00	123	35	101	1048576	54	5698
2026-01-07 15:08:15.93	18.88	15.28	-37.7	-38.6	24.2	0.00e+00	123	35	101	1048576	54	5682
2026-01-07 15:08:19.97	18.78	15.72	-37.8	-38.8	24.0	0.00e+00	123	35	101	1048576	54	5799
2026-01-07 15:08:24.02	18.68	16.16	-37.9	-38.8	24.0	0.00e+00	123	35	101	1048576	54	5849
2026-01-07 15:08:28.06	18.57	16.61	-38.1	-39.0	23.9	0.00e+00	123	35	101	1048576	54	5959
2026-01-07 15:08:32.10	18.47	17.07	-38.1	-39.0	23.8	0.00e+00	123	35	101	1048576	54	5984
2026-01-07 15:08:36.14	18.35	17.54	-38.1	-39.0	23.9	0.00e+00	122	35	101	1048576	54	5958
2026-01-07 15:08:40.18	18.24	18.01	-38.1	-39.1	23.9	0.00e+00	123	35	101	1048576	54	6001
2026-01-07 15:08:44.23	18.12	18.50	-38.1	-39.0	23.9	0.00e+00	123	35	101	1048576	54	5970
2026-01-07 15:08:48.27	17.99	19.00	-38.1	-39.0	23.9	0.00e+00	122	35	101	1048576	54	5979
2026-01-07 15:08:52.31	17.86	19.50	-37.9	-38.9	24.0	0.00e+00	122	35	101	1048576	54	5859
2026-01-07 15:08:56.36	17.72	20.02	-37.7	-38.6	24.2	0.00e+00	121	35	101	1048576	54	5695
2026-01-07 15:09:00.40	17.58	20.54	-37.5	-38.5	24.3	0.00e+00	122	35	101	1048576	54	5600
2026-01-07 15:09:04.44	17.44	21.08	-37.3	-38.2	24.5	0.00e+00	122	35	101	1048576	54	5465
2026-01-07 15:09:08.49	17.29	21.63	-37.2	-38.1	24.7	0.00e+00	122	35	101	1048576	52	6043
2026-01-07 15:09:12.53	17.13	22.19	-36.9	-37.8	24.9	0.00e+00	122	35	101	1048576	52	5839
2026-01-07 15:09:16.58	16.96	22.77	-36.5	-37.4	25.2	0.00e+00	122	35	101	1048576	52	5562
2026-01-07 15:09:20.62	16.79	23.35	-36.4	-37.3	25.3	0.00e+00	123	35	101	1048576	52	5483
2026-01-07 15:09:24.66	16.61	23.95	-36.5	-37.4	25.1	0.00e+00	120	35	101	1048576	52	5544
2026-01-07 15:09:28.71	16.43	24.57	-36.7	-37.5	25.1	0.00e+00	122	35	101	1048576	52	5656
2026-01-07 15:09:32.75	16.23	25.20	-37.0	-37.9	24.9	0.00e+00	123	35	101	1048576	52	5884
2026-01-07 15:09:36.79	16.03	25.84	-37.4	-38.3	24.7	0.00e+00	120	35	101	1048576	52	6163
2026-01-07 15:09:40.84	15.82	26.50	-37.8	-38.7	24.4	0.00e+00	123	35	101	1048576	52	6457
2026-01-07 15:09:44.88	15.60	27.17	-38.1	-39.0	24.2	0.00e+00	120	35	101	1048576	52	6695
2026-01-07 15:09:48.93	15.37	27.86	-38.2	-39.1	24.0	0.00e+00	120	35	101	1048576	54	6062
2026-01-07 15:09:52.97	15.12	28.57	-38.5	-39.4	23.9	0.00e+00	122	35	101	1048576	54	6253
2026-01-07 15:09:57.02	14.87	29.30	-38.0	-38.9	24.2	0.00e+00	122	35	101	1048576	54	5912
2026-01-07 15:10:01.06	14.60	30.04	-37.4	-38.3	24.6	0.00e+00	121	35	101	1048576	54	5468
2026-01-07 15:10:05.10	14.32	30.80	-37.2	-38.1	24.8	0.00e+00	120	35	101	1048576	52	6009
2026-01-07 15:10:09.15	14.02	31.59	-37.3	-38.2	24.7	0.00e+00	122	35	101	1048576	52	6078
2026-01-07 15:10:13.19	13.71	32.39	-37.6	-38.5	24.6	0.00e+00	122	35	101	1048576	52	6288
2026-01-07 15:10:17.24	13.38	33.22	-38.2	-39.1	24.2	0.00e+00	123	35	101	1048576	52	6762
2026-01-07 15:10:21.28	13.04	34.06	-38.7	-39.6	23.7	0.00e+00	123	35	101	1048576	54	6398
2026-01-07 15:10:25.32	12.67	34.93	-38.7	-39.7	23.7	0.00e+00	123	35	101	1048576	54	6455
2026-01-07 15:10:29.37	12.29	35.82	-39.4	-40.3	23.2	0.00e+00	123	35	101	1048576	56	6203
2026-01-07 15:10:33.41	11.88	36.74	-39.6	-40.5	23.1	0.00e+00	122	35	101	1048576	56	6341
2026-01-07 15:10:37.45	11.44	37.68	-39.5	-40.5	23.1	0.00e+00	123	35	101	1048576	56	6279
2026-01-07 15:10:41.49	10.98	38.64	-39.4	-40.4	23.2	0.00e+00	122	35	101	1048576	56	6207
2026-01-07 15:10:45.54	10.49	39.64	-39.7	-40.7	22.9	0.00e+00	123	35	101	1048576	56	6493
2026-01-07 15:10:49.58	9.97	40.65	-40.0	-41.0	22.6	0.00e+00	123	35	101	1048576	58	5950
2026-01-07 15:10:53.63	9.41	41.70	-40.4	-41.4	22.2	0.00e+00	122	35	101	1048576	58	6239
2026-01-07 15:10:57.67	8.81	42.77	-40.3	-41.3	22.4	0.00e+00	123	35	101	1048576	58	6159
2026-01-07 15:11:01.71	8.17	43.87	-40.3	-41.4	22.3	0.00e+00	123	35	101	1048576	58	6209
2026-01-07 15:11:05.76	7.48	45.00	-40.4	-41.4	22.4	0.00e+00	123	35	101	1048576	58	6245
2026-01-07 15:11:09.80	6.74	46.15	-39.5	-40.5	23.1	0.00e+00	120	35	101	1048576	58	5636
2026-01-07 15:11:13.85	5.94	47.33	-39.1	-40.1	23.4	0.00e+00	122	35	101	1048576	56	6011
2026-01-07 15:11:17.89	5.08	48.54	-39.2	-40.2	23.4	0.00e+00	123	35	101	1048576	56	6066
2026-01-07 15:11:21.93	4.15	49.78	-39.3	-40.2	23.3	0.00e+00	123	35	101	1048576	56	6134
2026-01-07 15:11:25.98	3.13	51.04	-39.2	-40.2	23.2	0.00e+00	123	35	101	1048576	56	6111
2026-01-07 15:11:30.02	2.02	52.33	-38.9	-39.9	23.4	0.00e+00	123	35	101	1048576	56	5861
2026-01-07 15:11:34.07	0.81	53.64	-37.7	-38.6	24.4	0.00e+00	122	35	101	1048576	54	5661
2026-01-07 15:11:38.11	359.48	54.96	-37.6	-38.5	24.5	0.00e+00	123	35	101	1048576	54	5626
2026-01-07 15:11:42.15	358.02	56.30	-37.2	-38.1	24.9	0.00e+00	122	35	101	1048576	54	5367
2026-01-07 15:11:46.20	356.41	57.66	-37.2	-38.1	24.9	0.00e+00	123	35	101	1048576	52	5995
2026-01-07 15:11:50.24	354.63	59.03	-37.2	-38.1	24.8	0.00e+00	122	35	101	1048576	52	6053
2026-01-07 15:11:54.28	352.65	60.39	-36.8	-37.7	25.0	0.00e+00	122	35	101	1048576	52	5761
2026-01-07 15:11:58.33	350.44	61.76	-36.4	-37.3	25.4	0.00e+00	122	35	101	1048576	52	5496
2026-01-07 15:12:02.37	347.97	63.11	-36.3	-37.2	25.4	0.00e+00	123	35	101	1048576	52	5417
2026-01-07 15:12:06.42	345.21	64.43	-35.8	-36.7	25.5	0.00e+00	122	35	101	1048576	50	5754
2026-01-07 15:12:10.46	342.11	65.72	-35.8	-36.6	25.8	0.00e+00	123	35	101	1048576	50	5696
2026-01-07 15:12:14.50	338.64	66.95	-36.4	-37.2	25.4	0.00e+00	122	35	101	1048576	50	6106
2026-01-07 15:12:18.55	334.74	68.12	-36.1	-37.0	25.5	0.00e+00	122	35	101	1048576	50	5937
2026-01-07 15:12:22.59	330.38	69.19	-36.0	-36.9	25.4	0.00e+00	123	35	101	1048576	50	5878
2026-01-07 15:12:26.63	325.54	70.15	-36.5	-37.4	25.2	0.00e+00	122	35	101	1048576	50	6206
2026-01-07 15:12:30.68	320.20	70.97	-36.3	-37.2	25.4	0.00e+00	123	35	101	1048576	50	6115
2026-01-07 15:12:34.72	314.41	71.63	-36.7	-37.5	25.2	0.00e+00	122	35	101	1048576	52	5648
2026-01-07 15:12:38.77	308.22	72.10	-36.1	-37.0	25.6	0.00e+00	122	35	101	1048576	50	5942
2026-01-07 15:12:42.81	301.77	72.36	-36.3	-37.1	25.5	0.00e+00	120	35	101	1048576	50	6052
2026-01-07 15:12:46.85	295.20	72.40	-36.1	-36.9	25.4	0.00e+00	123	35	101	1048576	50	5925
2026-01-07 15:12:50.90	288.67	72.22	-36.6	-37.5	25.2	0.00e+00	120	35	101	1048576	50	6307
2026-01-07 15:12:54.94	282.36	71.84	-36.4	-37.3	24.8	0.00e+00	123	35	101	1048576	50	6190
2026-01-07 15:12:58.98	276.41	71.25	-36.7	-37.7	24.9	0.00e+00	123	35	101	1048576	50	6426
2026-01-07 15:13:03.02	270.89	70.49	-36.6	-37.5	25.2	0.00e+00	123	35	101	1048576	50	6291
2026-01-07 15:13:07.07	265.83	69.58	-35.7	-36.5	25.7	0.00e+00	123	35	101	1048576	50	5652
2026-01-07 15:13:11.11	261.29	68.55	-36.4	-37.3	24.5	0.00e+00	120	35	101	1048576	50	6155
2026-01-07 15:13:15.15	257.21	67.42	-37.1	-38.0	24.5	0.00e+00	123	35	101	1048576	50	6707
2026-01-07 15:13:19.19	253.57	66.21	-36.2	-37.1	25.5	0.00e+00	123	35	101	1048576	50	6003
2026-01-07 15:13:23.24	250.32	64.94	-37.0	-37.9	24.9	0.00e+00	122	35	101	1048576	52	5865
2026-01-07 15:13:27.28	247.43	63.63	-37.3	-38.2	24.7	0.00e+00	121	35	101	1048576	50	6836
2026-01-07 15:13:31.33	244.84	62.28	-35.8	-36.6	25.7	0.00e+00	120	35	101	1048576	50	5705
2026-01-07 15:13:35.37	242.54	60.92	-37.5	-38.4	24.6	0.00e+00	123	35	101	1048576	52	6263
2026-01-07 15:13:39.41	240.47	59.55	-36.9	-37.7	25.2	0.00e+00	123	35	101	1048576	52	5754
2026-01-07 15:13:43.46	238.61	58.18	-37.9	-38.8	24.3	0.00e+00	123	35	101	1048576	52	6554
2026-01-07 15:13:47.50	236.93	56.82	-36.6	-37.4	25.2	0.00e+00	123	35	101	1048576	52	5567
2026-01-07 15:13:51.54	235.41	55.46	-38.5	-39.4	23.8	0.00e+00	123	35	101	1048576	54	6259
2026-01-07 15:13:55.58	234.03	54.13	-39.2	-40.3	22.8	0.00e+00	122	35	101	1048576	56	6149
2026-01-07 15:13:59.62	232.78	52.81	-38.1	-39.0	23.9	0.00e+00	122	35	101	1048576	54	5965
2026-01-07 15:14:03.67	231.62	51.51	-39.5	-40.4	22.9	0.00e+00	123	35	101	1048576	56	6271
2026-01-07 15:14:07.71	230.57	50.24	-39.0	-39.9	23.6	0.00e+00	123	35	101	1048576	56	5894
2026-01-07 15:14:11.75	229.61	48.99	-39.9	-40.9	22.7	0.00e+00	122	35	101	1048576	56	6620
2026-01-07 15:14:15.80	228.71	47.76	-41.3	-42.5	21.4	0.00e+00	120	35	101	1048576	60	6302
2026-01-07 15:14:19.84	227.89	46.57	-40.4	-41.4	21.9	0.00e+00	120	36	101	1048576	60	5579
2026-01-07 15:14:23.89	227.12	45.40	-39.3	-40.3	23.3	0.00e+00	123	35	101	1048576	56	6144
2026-01-07 15:14:27.93	226.41	44.26	-42.2	-43.4	20.6	0.00e+00	123	35	101	1048576	60	7019
2026-01-07 15:14:31.98	225.75	43.14	-40.1	-41.1	22.6	0.00e+00	122	35	101	1048576	58	6027
2026-01-07 15:14:36.02	225.14	42.06	-40.1	-41.2	22.4	0.00e+00	123	35	101	1048576	58	6085
2026-01-07 15:14:40.06	224.56	41.00	-38.6	-39.5	23.9	0.00e+00	122	35	101	1048576	56	5658
2026-01-07 15:14:44.10	224.03	39.97	-40.6	-41.6	22.1	0.00e+00	122	35	101	1048576	58	6414
2026-01-07 15:14:48.15	223.52	38.96	-39.9	-41.0	22.7	0.00e+00	123	35	101	1048576	58	5952
2026-01-07 15:14:52.19	223.05	37.98	-39.1	-40.1	23.4	0.00e+00	120	35	101	1048576	56	6014
2026-01-07 15:14:56.24	222.60	37.03	-38.3	-39.2	24.1	0.00e+00	122	35	101	1048576	56	5413
2026-01-07 15:15:00.28	222.18	36.10	-38.2	-39.2	24.1	0.00e+00	123	35	101	1048576	54	6083
2026-01-07 15:15:04.33	221.78	35.20	-38.2	-39.1	24.1	0.00e+00	123	35	101	1048576	54	6041
2026-01-07 15:15:08.37	221.41	34.32	-38.0	-38.9	24.1	0.00e+00	123	36	101	1048576	54	5890
2026-01-07 15:15:12.42	221.05	33.46	-38.6	-39.5	23.8	0.00e+00	123	35	101	1048576	54	6348
2026-01-07 15:15:16.46	220.72	32.62	-37.7	-38.6	24.4	0.00e+00	120	35	101	1048576	54	5688
2026-01-07 15:15:20.50	220.40	31.81	-37.4	-38.3	24.8	0.00e+00	123	35	101	1048576	54	5497
2026-01-07 15:15:24.54	220.10	31.02	-38.0	-38.9	24.2	0.00e+00	122	35	101	1048576	54	5900
2026-01-07 15:15:28.59	219.81	30.24	-38.2	-39.2	24.0	0.00e+00	120	35	101	1048576	54	6083
2026-01-07 15:15:32.63	219.53	29.49	-38.0	-38.9	24.2	0.00e+00	122	35	101	1048576	54	5874
2026-01-07 15:15:36.67	219.27	28.76	-37.1	-37.9	24.8	0.00e+00	122	35	101	1048576	52	5910
2026-01-07 15:15:40.72	219.02	28.04	-36.5	-37.4	25.3	0.00e+00	123	35	101	1048576	52	5541
2026-01-07 15:15:44.76	218.78	27.34	-36.1	-36.9	25.6	0.00e+00	122	35	101	1048576	50	5912
2026-01-07 15:15:48.81	218.56	26.66	-36.2	-37.1	25.4	0.00e+00	123	35	101	1048576	50	5998
2026-01-07 15:15:52.85	218.34	25.99	-36.9	-37.8	24.9	0.00e+00	123	35	101	1048576	50	6537
2026-01-07 15:15:56.89	218.13	25.34	-37.2	-38.1	24.7	0.00e+00	123	35	101	1048576	52	6023
2026-01-07 15:16:00.94	217.93	24.70	-37.6	-38.6	24.4	0.00e+00	122	35	101	1048576	52	6351
2026-01-07 15:16:04.98	217.74	24.08	-37.8	-38.8	24.3	0.00e+00	123	35	101	1048576	52	6502
2026-01-07 15:16:09.03	217.56	23.48	-37.7	-38.6	24.5	0.00e+00	122	35	101	1048576	52	6366
2026-01-07 15:16:13.07	217.38	22.88	-37.5	-38.4	24.6	0.00e+00	122	35	101	1048576	52	6225
2026-01-07 15:16:17.12	217.21	22.30	-37.2	-38.1	24.8	0.00e+00	122	35	101	1048576	52	6025
2026-01-07 15:16:21.16	217.05	21.74	-37.1	-38.0	24.8	0.00e+00	120	35	101	1048576	52	5955
2026-01-07 15:16:25.20	216.89	21.18	-37.2	-38.1	24.6	0.00e+00	122	35	101	1048576	52	6027
2026-01-07 15:16:29.25	216.74	20.64	-37.1	-38.0	24.7	0.00e+00	123	35	101	1048576	52	5976
2026-01-07 15:16:33.29	216.60	20.10	-37.1	-37.9	24.8	0.00e+00	122	35	101	1048576	52	5918
2026-01-07 15:16:37.34	216.46	19.58	-37.1	-38.0	24.7	0.00e+00	122	35	101	1048576	52	5930
2026-01-07 15:16:41.38	216.32	19.07	-37.4	-38.3	24.5	0.00e+00	122	35	101	1048576	52	6162
2026-01-07 15:16:45.42	216.20	18.57	-37.5	-38.4	24.5	0.00e+00	122	35	101	1048576	52	6228
2026-01-07 15:16:49.47	216.07	18.08	-37.6	-38.5	24.4	0.00e+00	120	36	101	1048576	52	6293
2026-01-07 15:16:53.51	215.95	17.60	-37.8	-38.7	24.2	0.00e+00	120	35	101	1048576	52	6481
2026-01-07 15:16:57.56	215.83	17.12	-37.9	-38.9	24.1	0.00e+00	121	35	101	1048576	52	6580
2026-01-07 15:17:01.60	215.72	16.66	-38.1	-39.1	24.0	0.00e+00	123	35	101	1048576	52	6748
2026-01-07 15:17:05.64	215.61	16.21	-38.1	-39.0	24.0	0.00e+00	122	35	101	1048576	54	5940
2026-01-07 15:17:09.69	215.51	15.76	-38.3	-39.2	23.9	0.00e+00	122	36	101	1048576	54	6127
2026-01-07 15:17:13.73	215.40	15.32	-38.3	-39.3	23.9	0.00e+00	123	35	101	1048576	54	6141
2026-01-07 15:17:17.77	215.31	14.89	-38.5	-39.5	23.7	0.00e+00	122	35	101	1048576	54	6295
2026-01-07 15:17:21.81	215.21	14.47	-38.7	-39.6	23.5	0.00e+00	122	35	101	1048576	54	6395
2026-01-07 15:17:25.85	215.12	14.05	-38.6	-39.5	23.6	0.00e+00	123	35	101	1048576	54	6347
2026-01-07 15:17:29.90	215.03	13.64	-38.7	-39.6	23.5	0.00e+00	123	35	101	1048576	54	6417
2026-01-07 15:17:33.94	214.94	13.24	-38.8	-39.8	23.3	0.00e+00	123	35	101	1048576	54	6551
2026-01-07 15:17:37.98	214.86	12.84	-38.9	-39.8	23.4	0.00e+00	120	35	101	1048576	54	6557
2026-01-07 15:17:42.03	214.78	12.45	-38.6	-39.6	23.5	0.00e+00	120	35	101	1048576	54	6385
2026-01-07 15:17:46.07	214.70	12.06	-38.7	-39.6	23.4	0.00e+00	123	35	101	1048576	54	6419
2026-01-07 15:17:50.11	214.62	11.69	-38.8	-39.7	23.3	0.00e+00	121	35	101	1048576	54	6482
2026-01-07 15:17:54.16	214.55	11.31	-38.7	-39.7	23.3	0.00e+00	120	36	101	1048576	54	6456
2026-01-07 15:17:58.20	214.47	10.95	-38.7	-39.7	23.3	0.00e+00	120	36	101	1048576	54	6470
2026-01-07 15:18:02.25	214.40	10.58	-38.9	-39.8	23.1	0.00e+00	120	36	101	1048576	54	6564
2026-01-07 15:18:06.29	214.34	10.23	-38.9	-39.8	23.1	0.00e+00	120	35	101	1048576	54	6567
2026-01-07 15:18:10.34	214.27	9.88	-39.1	-40.1	22.9	0.00e+00	123	35	101	1048576	56	6042
2026-01-07 15:18:14.38	214.20	9.53	-39.1	-40.1	22.9	0.00e+00	122	35	101	1048576	56	6056
2026-01-07 15:18:18.42	214.14	9.19	-39.2	-40.2	22.8	0.00e+00	122	35	101	1048576	56	6089
2026-01-07 15:18:22.47	214.08	8.85	-39.2	-40.2	22.8	0.00e+00	123	36	101	1048576	56	6130
2026-01-07 15:18:26.51	214.02	8.52	-39.4	-40.4	22.6	0.00e+00	123	36	101	1048576	56	6240
2026-01-07 15:18:30.55	213.96	8.19	-39.6	-40.6	22.4	0.00e+00	123	35	101	1048576	56	6422
2026-01-07 15:18:34.60	213.91	7.86	-39.7	-40.7	22.3	0.00e+00	123	36	101	1048576	56	6494
2026-01-07 15:18:38.64	213.85	7.54	-39.8	-40.8	22.2	0.00e+00	123	36	101	1048576	56	6537
2026-01-07 15:18:42.69	213.80	7.23	-40.1	-41.1	21.9	0.00e+00	122	35	101	1048576	56	6803
2026-01-07 15:18:46.73	213.75	6.91	-40.0	-41.1	22.0	0.00e+00	120	35	101	1048576	56	6764
2026-01-07 15:18:50.77	213.70	6.60	-40.2	-41.3	21.7	0.00e+00	120	35	101	1048576	58	6171
2026-01-07 15:18:54.81	213.65	6.30	-40.3	-41.4	21.5	0.00e+00	122	35	101	1048576	58	6258
2026-01-07 15:18:58.86	213.60	6.00	-40.5	-41.6	21.3	0.00e+00	123	35	101	1048576	58	6358
2026-01-07 15:19:02.90	213.55	5.70	-40.6	-41.7	21.2	0.00e+00	121	35	101	1048576	58	6498
2026-01-07 15:19:06.94	213.51	5.40	-40.8	-42.0	20.9	0.00e+00	123	35	101	1048576	58	6679
2026-01-07 15:19:10.99	213.46	5.11	-40.9	-42.1	20.8	0.00e+00	120	35	101	1048576	58	6770
2026-01-07 15:19:15.03	213.42	4.82	-41.2	-42.4	20.6	0.00e+00	120	36	101	1048576	60	6218
2026-01-07 15:19:19.07	213.38	4.54	-41.3	-42.6	20.3	0.00e+00	122	35	101	1048576	60	6374
2026-01-07 15:19:23.12	213.34	4.26	-41.6	-42.8	20.0	0.00e+00	123	36	101	1048576	60	6532
2026-01-07 15:19:27.16	213.30	3.98	-41.6	-42.8	20.0	0.00e+00	122	35	101	1048576	60	6564
2026-01-07 15:19:31.21	213.26	3.70	-42.1	-43.4	19.4	0.00e+00	123	35	101	1048576	60	7002
2026-01-07 15:19:35.25	213.22	3.43	-41.8	-43.1	19.6	0.00e+00	123	36	101	1048576	60	6752
2026-01-07 15:19:39.29	213.18	3.15	-42.1	-43.5	19.3	0.00e+00	123	36	101	1048576	60	7052
2026-01-07 15:19:43.33	213.15	2.89	-51.9	-64.9	3.5	1.52e+00	0	36	104	1048576	60	83596
2026-01-07 15:19:47.38	213.11	2.62	-52.0	-65.1	3.5	1.51e+00	0	36	104	1048576	60	84859
2026-01-07 15:19:51.42	213.08	2.36	-51.8	-65.0	3.5	1.52e+00	0	36	104	1048576	60	84067
2026-01-07 15:19:55.46	213.04	2.09	-51.9	-65.0	3.5	1.52e+00	0	36	104	1048576	60	84106
2026-01-07 15:19:59.51	213.01	1.84	-51.9	-65.0	3.5	1.52e+00	0	36	104	1048576	60	83978
2026-01-07 15:20:03.55	212.98	1.58	-51.9	-65.0	3.5	1.52e+00	0	36	104	1048576	60	83737
2026-01-07 15:20:07.59	212.95	1.32	-51.9	-65.0	3.5	1.52e+00	0	36	104	1048576	60	83979
2026-01-07 15:20:11.64	212.92	1.07	-51.9	-65.0	3.5	1.52e+00	0	36	104	1048576	60	83979
2026-01-07 15:20:15.68	212.89	0.82	-51.9	-65.0	3.5	1.52e+00	0	36	104	1048576	60	84058
2026-01-07 15:20:19.73	212.86	0.57	-51.9	-65.0	3.5	1.51e+00	0	36	104	1048576	60	84121
2026-01-07 15:20:23.77	212.83	0.33	-51.9	-64.9	3.5	1.51e+00	0	36	104	1048576	60	83624
2026-01-07 15:20:27.81	212.80	0.08	-51.9	-64.9	3.5	1.52e+00	0	36	104	1048576	60	83592

#Closed at: 2026-01-07 15:20:30
#Recorded file [1 MB]: D:/lorett/data/35034_260107_180501.dat