passes_logs/2026/01/07/R4.6S_Anadyr_2ch/R4.6S_Anadyr_2ch__20260107_153435_SUOMI_NPP_rec.log

#Pass ID: 20260107_153435_SUOMI NPP
#Satellite: SUOMI NPP
#Configuration: NPP
#almurnet v.1.7.20251203
#Start time: 2026-01-07 15:34:37

#Version: 2.2.20231116
#Station: R4.6S_Anadyr_2ch
#Location: 177.4865 lon 64.73178 lat
#TLE: 1 37849U 11061A   25350.92281687  .00000071  00000+0  54882-4 0  9996
#TLE: 2 37849  98.7777 288.2268 0002366 112.8570 247.2856 14.19515404732588

#Time	Az	El	Level	Level2	SNR	BER	BlckErr	Temp	State	Recorded	gain1	gain2
2026-01-07 15:34:37.36	22.52	0.11	-51.9	-64.6	3.5	1.52e+00	0	32	0	0	60	80375
2026-01-07 15:34:41.40	22.45	0.35	-52.0	-67.4	3.6	1.51e+00	0	34	104	0	60	114407
2026-01-07 15:34:45.45	22.38	0.60	-51.7	-67.1	3.6	1.51e+00	0	34	104	0	60	110337
2026-01-07 15:34:49.49	22.31	0.84	-51.0	-66.4	3.6	1.51e+00	0	34	104	0	60	101788
2026-01-07 15:34:53.53	22.23	1.09	-50.5	-65.9	3.6	1.51e+00	0	34	104	0	60	95762
2026-01-07 15:34:57.58	22.16	1.34	-50.5	-65.9	3.6	1.51e+00	0	34	104	0	60	95834
2026-01-07 15:35:01.62	22.08	1.59	-50.5	-65.5	3.6	1.51e+00	0	34	104	0	60	91734
2026-01-07 15:35:05.66	22.00	1.84	-50.5	-65.6	3.6	1.51e+00	0	34	104	0	60	92784
2026-01-07 15:35:09.71	21.92	2.09	-50.5	-65.9	3.6	1.51e+00	0	34	104	0	60	95744
2026-01-07 15:35:13.75	21.84	2.35	-50.5	-65.3	3.6	1.51e+00	0	34	104	0	60	90019
2026-01-07 15:35:17.80	21.76	2.61	-50.4	-64.2	3.6	1.51e+00	0	34	104	0	60	78959
2026-01-07 15:35:21.84	21.67	2.87	-50.5	-65.6	3.6	1.51e+00	0	34	104	0	60	93220
2026-01-07 15:35:25.88	21.59	3.14	-50.0	-58.2	5.8	6.54e-01	0	34	0	0	60	39413
2026-01-07 15:35:29.93	21.50	3.40	-48.9	-53.8	10.7	3.77e-03	0	34	102	1048576	60	23971
2026-01-07 15:35:33.97	21.41	3.67	-49.7	-56.3	7.6	2.11e-02	87	34	102	1048576	60	31674
2026-01-07 15:35:38.01	21.32	3.94	-50.4	-64.0	3.6	8.69e-01	0	34	104	1048576	60	77328
2026-01-07 15:35:42.06	21.22	4.22	-43.0	-44.3	20.4	0.00e+00	0	34	0	1048576	60	8032
2026-01-07 15:35:46.10	21.12	4.50	-42.9	-44.2	20.7	0.00e+00	0	34	0	1048576	60	7889
2026-01-07 15:35:50.15	21.02	4.78	-42.7	-44.0	20.8	0.00e+00	67	34	0	1048576	60	7728
2026-01-07 15:35:54.19	20.92	5.06	-42.3	-43.5	21.2	0.00e+00	0	34	0	1048576	60	7285
2026-01-07 15:35:58.23	20.82	5.34	-42.2	-43.4	21.4	0.00e+00	0	34	101	1048576	60	7179
2026-01-07 15:36:02.28	20.71	5.63	-42.2	-43.4	21.5	0.00e+00	2	34	101	1048576	60	7204
2026-01-07 15:36:06.32	20.60	5.92	-42.3	-43.5	21.4	0.00e+00	0	34	101	1048576	60	7282
2026-01-07 15:36:10.36	20.49	6.22	-42.4	-43.5	21.5	0.00e+00	0	34	101	1048576	60	7329
2026-01-07 15:36:14.41	20.38	6.52	-42.3	-43.5	21.4	0.00e+00	0	35	101	1048576	60	7284
2026-01-07 15:36:18.45	20.26	6.82	-42.0	-43.1	21.9	0.00e+00	47	34	101	1048576	60	6984
2026-01-07 15:36:22.50	20.14	7.13	-41.7	-42.8	22.1	0.00e+00	0	34	101	1048576	60	6705
2026-01-07 15:36:26.54	20.02	7.43	-41.5	-42.6	22.2	0.00e+00	0	35	101	1048576	60	6572
2026-01-07 15:36:30.58	19.90	7.75	-41.5	-42.5	22.3	0.00e+00	0	34	101	1048576	60	6520
2026-01-07 15:36:34.63	19.77	8.06	-39.4	-42.3	19.1	1.75e-02	26	35	101	1048576	56	8004
2026-01-07 15:36:38.67	19.64	8.38	-39.2	-42.4	18.8	1.76e-02	0	34	101	1048576	56	8060
2026-01-07 15:36:42.71	19.50	8.71	-38.9	-42.2	18.7	1.59e-02	0	35	101	1048576	56	7875
2026-01-07 15:36:46.76	19.36	9.03	-38.8	-42.0	18.6	1.44e-02	92	34	101	1048576	56	7707
2026-01-07 15:36:50.80	19.22	9.37	-40.8	-41.8	23.1	0.00e+00	0	35	101	1048576	60	5965
2026-01-07 15:36:54.84	19.08	9.70	-40.7	-41.7	23.1	0.00e+00	0	35	101	1048576	60	5926
2026-01-07 15:36:58.89	18.93	10.04	-40.6	-41.5	23.0	0.00e+00	32	34	101	1048576	60	5815
2026-01-07 15:37:02.93	18.77	10.39	-40.4	-41.3	23.5	0.00e+00	76	35	101	1048576	60	5695
2026-01-07 15:37:06.97	18.62	10.74	-40.3	-41.2	23.4	0.00e+00	0	35	101	1048576	60	5591
2026-01-07 15:37:11.01	18.45	11.09	-40.4	-41.3	23.5	0.00e+00	0	34	101	1048576	60	5644
2026-01-07 15:37:15.06	18.29	11.45	-40.1	-41.0	23.8	0.00e+00	0	35	101	1048576	58	6112
2026-01-07 15:37:19.10	18.12	11.82	-40.2	-41.1	23.8	0.00e+00	70	35	101	1048576	58	6207
2026-01-07 15:37:23.14	17.94	12.19	-40.2	-41.1	23.6	0.00e+00	0	35	101	1048576	58	6207
2026-01-07 15:37:27.19	17.76	12.56	-40.1	-41.0	23.8	0.00e+00	33	35	101	1048576	58	6108
2026-01-07 15:37:31.23	17.58	12.94	-40.2	-41.1	23.6	0.00e+00	80	35	101	1048576	58	6231
2026-01-07 15:37:35.27	17.39	13.33	-40.2	-41.1	23.7	0.00e+00	0	35	101	1048576	58	6192
2026-01-07 15:37:39.31	17.19	13.72	-40.1	-41.0	23.7	0.00e+00	0	35	101	1048576	58	6170
2026-01-07 15:37:43.35	16.99	14.12	-40.1	-41.0	23.8	0.00e+00	0	35	101	1048576	58	6139
2026-01-07 15:37:47.40	16.78	14.52	-40.2	-41.1	23.8	0.00e+00	92	35	101	1048576	58	6174
2026-01-07 15:37:51.44	16.57	14.93	-40.2	-41.1	23.7	0.00e+00	0	35	101	1048576	58	6175
2026-01-07 15:37:55.49	16.35	15.35	-40.3	-41.2	23.7	0.00e+00	0	35	101	1048576	58	6262
2026-01-07 15:37:59.53	16.12	15.78	-40.2	-41.1	23.6	0.00e+00	1	35	101	1048576	58	6231
2026-01-07 15:38:03.57	15.89	16.21	-40.0	-40.9	23.9	0.00e+00	89	35	101	1048576	58	6079
2026-01-07 15:38:07.62	15.64	16.65	-39.8	-40.6	24.1	0.00e+00	0	35	101	1048576	58	5859
2026-01-07 15:38:11.66	15.40	17.09	-39.9	-40.8	24.1	0.00e+00	0	35	101	1048576	58	5968
2026-01-07 15:38:15.70	15.14	17.55	-39.8	-40.7	24.2	0.00e+00	90	35	101	1048576	58	5897
2026-01-07 15:38:19.75	14.87	18.01	-39.7	-40.6	24.2	0.00e+00	0	35	101	1048576	58	5835
2026-01-07 15:38:23.79	14.60	18.48	-39.8	-40.7	24.2	0.00e+00	0	35	101	1048576	58	5921
2026-01-07 15:38:27.84	14.31	18.96	-39.7	-40.5	24.3	0.00e+00	0	35	101	1048576	58	5789
2026-01-07 15:38:31.88	14.02	19.45	-39.8	-40.7	24.1	0.00e+00	92	35	101	1048576	58	5923
2026-01-07 15:38:35.92	13.72	19.94	-39.9	-40.8	24.1	0.00e+00	0	35	101	1048576	58	5999
2026-01-07 15:38:39.97	13.40	20.45	-40.1	-41.0	24.0	0.00e+00	0	35	101	1048576	58	6130
2026-01-07 15:38:44.01	13.08	20.96	-40.5	-41.4	23.7	0.00e+00	68	35	101	1048576	58	6457
2026-01-07 15:38:48.06	12.74	21.49	-40.2	-41.1	23.8	0.00e+00	92	35	101	1048576	58	6234
2026-01-07 15:38:52.10	12.39	22.02	-40.2	-41.1	23.9	0.00e+00	0	35	101	1048576	58	6223
2026-01-07 15:38:56.14	12.03	22.56	-40.0	-40.8	24.1	0.00e+00	0	35	101	1048576	58	6003
2026-01-07 15:39:00.19	11.66	23.12	-40.3	-41.2	23.8	0.00e+00	19	35	101	1048576	58	6274
2026-01-07 15:39:04.23	11.27	23.68	-41.1	-42.1	23.2	0.00e+00	0	35	101	1048576	58	6928
2026-01-07 15:39:08.28	10.86	24.26	-41.4	-42.4	23.2	0.00e+00	28	35	101	1048576	60	6416
2026-01-07 15:39:12.32	10.44	24.85	-41.6	-42.7	22.8	0.00e+00	0	35	101	1048576	60	6619
2026-01-07 15:39:16.36	10.01	25.45	-41.4	-42.4	23.0	0.00e+00	50	35	101	1048576	60	6436
2026-01-07 15:39:20.40	9.55	26.06	-42.0	-43.0	22.8	0.00e+00	0	35	101	1048576	60	6887
2026-01-07 15:39:24.45	9.08	26.68	-42.4	-43.5	22.2	0.00e+00	0	35	101	1048576	60	7305
2026-01-07 15:39:28.49	8.59	27.32	-42.4	-43.4	22.2	0.00e+00	65	35	101	1048576	60	7244
2026-01-07 15:39:32.54	8.07	27.97	-42.2	-43.2	22.4	0.00e+00	87	35	101	1048576	60	7036
2026-01-07 15:39:36.58	7.54	28.63	-42.7	-43.8	21.8	0.00e+00	0	35	101	1048576	60	7541
2026-01-07 15:39:40.62	6.98	29.30	-43.3	-44.5	21.4	0.00e+00	0	35	101	1048576	60	8162
2026-01-07 15:39:44.66	6.39	29.99	-42.4	-43.5	22.1	0.00e+00	4	35	101	1048576	60	7258
2026-01-07 15:39:48.71	5.78	30.69	-41.9	-42.9	22.8	0.00e+00	0	35	101	1048576	60	6787
2026-01-07 15:39:52.75	5.15	31.40	-41.9	-43.0	22.6	0.00e+00	0	35	101	1048576	60	6856
2026-01-07 15:39:56.80	4.48	32.13	-42.2	-43.3	22.2	0.00e+00	0	35	101	1048576	60	7131
2026-01-07 15:40:00.84	3.78	32.87	-43.1	-44.2	21.6	0.00e+00	91	35	101	1048576	60	7912
2026-01-07 15:40:04.88	3.05	33.62	-43.3	-44.5	21.4	0.00e+00	0	35	101	1048576	60	8141
2026-01-07 15:40:08.93	2.28	34.39	-43.3	-44.5	21.2	0.00e+00	0	35	101	1048576	60	8183
2026-01-07 15:40:12.97	1.47	35.17	-44.2	-45.6	20.4	0.00e+00	7	35	101	1048576	60	9322
2026-01-07 15:40:17.02	0.62	35.96	-45.9	-47.8	18.1	0.00e+00	82	35	101	1048576	60	11908
2026-01-07 15:40:21.06	359.73	36.77	-44.5	-45.9	20.2	0.00e+00	0	35	101	1048576	60	9668
2026-01-07 15:40:25.10	358.80	37.59	-43.2	-44.3	21.4	0.00e+00	0	35	101	1048576	60	8010
2026-01-07 15:40:29.14	357.81	38.41	-43.3	-44.5	21.3	0.00e+00	72	35	101	1048576	60	8158
2026-01-07 15:40:33.19	356.77	39.25	-43.4	-44.6	21.3	0.00e+00	0	35	101	1048576	60	8249
2026-01-07 15:40:37.23	355.68	40.10	-45.4	-47.1	19.1	0.00e+00	0	35	101	1048576	60	10997
2026-01-07 15:40:41.28	354.53	40.96	-47.2	-49.6	16.6	0.00e+00	0	35	101	1048576	60	14769
2026-01-07 15:40:45.32	353.31	41.82	-44.8	-46.3	19.6	0.00e+00	92	35	101	1048576	60	10081
2026-01-07 15:40:49.37	352.02	42.68	-43.7	-44.9	21.0	0.00e+00	0	35	101	1048576	60	8594
2026-01-07 15:40:53.41	350.67	43.55	-42.9	-44.1	21.6	0.00e+00	0	35	101	1048576	60	7788
2026-01-07 15:40:57.45	349.23	44.42	-43.0	-44.1	21.7	0.00e+00	0	35	101	1048576	60	7843
2026-01-07 15:41:01.49	347.72	45.29	-43.6	-44.8	21.0	0.00e+00	65	35	101	1048576	60	8442
2026-01-07 15:41:05.53	346.12	46.15	-41.8	-42.8	22.7	0.00e+00	0	35	101	1048576	60	6699
2026-01-07 15:41:09.58	344.43	47.01	-42.9	-43.9	21.9	0.00e+00	0	35	101	1048576	60	7681
2026-01-07 15:41:13.62	342.64	47.85	-42.3	-43.4	22.5	0.00e+00	6	35	101	1048576	60	7200
2026-01-07 15:41:17.67	340.75	48.68	-42.8	-44.0	21.9	0.00e+00	0	35	101	1048576	60	7727
2026-01-07 15:41:21.71	338.77	49.49	-43.3	-44.5	21.5	0.00e+00	0	35	101	1048576	60	8219
2026-01-07 15:41:25.75	336.67	50.27	-39.8	-40.6	24.4	0.00e+00	0	35	101	1048576	58	5891
2026-01-07 15:41:29.80	334.46	51.02	-39.7	-40.6	24.5	0.00e+00	92	35	101	1048576	58	5835
2026-01-07 15:41:33.84	332.14	51.74	-40.9	-41.9	23.4	0.00e+00	0	35	101	1048576	58	6803
2026-01-07 15:41:37.89	329.71	52.41	-41.2	-42.2	23.2	0.00e+00	0	35	101	1048576	60	6301
2026-01-07 15:41:41.93	327.17	53.04	-40.6	-41.6	23.7	0.00e+00	10	35	101	1048576	60	5847
2026-01-07 15:41:45.97	324.53	53.61	-39.4	-40.1	24.7	0.00e+00	92	35	101	1048576	58	5564
2026-01-07 15:41:50.02	321.77	54.13	-40.7	-41.6	23.8	0.00e+00	0	35	101	1048576	58	6567
2026-01-07 15:41:54.06	318.93	54.58	-39.6	-40.5	24.5	0.00e+00	0	35	101	1048576	58	5775
2026-01-07 15:41:58.10	316.00	54.96	-40.9	-41.9	23.4	0.00e+00	0	35	101	1048576	58	6788
2026-01-07 15:42:02.15	313.00	55.27	-38.3	-39.1	25.2	0.00e+00	0	35	101	1048576	56	5549
2026-01-07 15:42:06.19	309.94	55.50	-39.5	-40.4	24.5	0.00e+00	11	35	101	1048576	56	6451
2026-01-07 15:42:10.24	306.83	55.65	-37.4	-38.1	26.1	0.00e+00	22	35	101	1048576	52	6186
2026-01-07 15:42:14.28	303.71	55.71	-38.5	-39.3	25.3	0.00e+00	91	35	101	1048576	54	6328
2026-01-07 15:42:18.32	300.58	55.70	-38.6	-39.4	25.2	0.00e+00	0	35	101	1048576	54	6399
2026-01-07 15:42:22.37	297.46	55.59	-38.1	-38.8	25.2	0.00e+00	0	35	101	1048576	54	5997
2026-01-07 15:42:26.41	294.38	55.41	-38.9	-39.7	25.0	0.00e+00	57	35	101	1048576	56	5943
2026-01-07 15:42:30.45	291.34	55.14	-37.0	-37.7	26.2	0.00e+00	39	35	101	1048576	52	5916
2026-01-07 15:42:34.49	288.37	54.80	-37.8	-38.5	25.8	0.00e+00	0	35	101	1048576	52	6534
2026-01-07 15:42:38.54	285.47	54.39	-37.6	-38.3	25.9	0.00e+00	0	35	101	1048576	52	6376
2026-01-07 15:42:42.58	282.67	53.90	-38.7	-39.5	25.1	0.00e+00	90	35	101	1048576	54	6499
2026-01-07 15:42:46.62	279.96	53.36	-40.0	-40.9	24.2	0.00e+00	0	35	101	1048576	56	6831
2026-01-07 15:42:50.67	277.36	52.76	-41.1	-42.0	23.7	0.00e+00	0	35	101	1048576	60	6110
2026-01-07 15:42:54.71	274.87	52.11	-41.7	-42.7	22.9	0.00e+00	0	35	101	1048576	60	6646
2026-01-07 15:42:58.75	272.48	51.41	-40.4	-41.3	23.8	0.00e+00	67	35	101	1048576	60	5661
2026-01-07 15:43:02.80	270.21	50.68	-42.3	-43.3	22.3	0.00e+00	0	35	101	1048576	60	7168
2026-01-07 15:43:06.84	268.05	49.91	-41.4	-42.3	23.2	0.00e+00	0	35	101	1048576	60	6363
2026-01-07 15:43:10.88	266.00	49.12	-41.5	-42.4	23.0	0.00e+00	58	35	101	1048576	60	6435
2026-01-07 15:43:14.93	264.05	48.30	-41.2	-42.1	23.4	0.00e+00	92	35	101	1048576	60	6187
2026-01-07 15:43:18.97	262.21	47.46	-46.2	-48.1	18.0	0.00e+00	0	35	101	1048576	60	12404
2026-01-07 15:43:23.01	260.47	46.61	-46.3	-48.1	18.3	0.00e+00	0	35	101	1048576	60	12439
2026-01-07 15:43:27.06	258.81	45.75	-43.5	-44.7	21.3	0.00e+00	66	35	101	1048576	60	8368
2026-01-07 15:43:31.10	257.25	44.88	-40.7	-41.5	23.8	0.00e+00	0	35	101	1048576	60	5826
2026-01-07 15:43:35.15	255.77	44.01	-43.6	-44.7	21.0	0.00e+00	0	35	101	1048576	60	8422
2026-01-07 15:43:39.19	254.37	43.13	-44.4	-45.8	20.2	0.00e+00	0	35	101	1048576	60	9479
2026-01-07 15:43:43.24	253.04	42.26	-44.2	-45.5	20.5	0.00e+00	50	35	101	1048576	60	9230
2026-01-07 15:43:47.28	251.78	41.40	-43.4	-44.6	21.5	0.00e+00	0	35	101	1048576	60	8239
2026-01-07 15:43:51.33	250.59	40.53	-44.9	-46.4	19.8	0.00e+00	0	35	101	1048576	60	10137
2026-01-07 15:43:55.37	249.46	39.68	-43.7	-45.0	21.0	0.00e+00	6	35	101	1048576	60	8631
2026-01-07 15:43:59.41	248.39	38.83	-43.1	-44.3	21.5	0.00e+00	84	35	101	1048576	60	7982
2026-01-07 15:44:03.45	247.38	38.00	-43.4	-44.6	21.4	0.00e+00	0	35	101	1048576	60	8299
2026-01-07 15:44:07.49	246.41	37.17	-44.5	-45.8	20.2	0.00e+00	0	35	101	1048576	60	9498
2026-01-07 15:44:11.53	245.50	36.36	-42.9	-44.0	21.9	0.00e+00	12	35	101	1048576	60	7716
2026-01-07 15:44:15.58	244.62	35.56	-43.5	-44.7	21.2	0.00e+00	0	35	101	1048576	60	8394
2026-01-07 15:44:19.62	243.79	34.77	-44.1	-45.3	20.7	0.00e+00	31	35	101	1048576	60	9021
2026-01-07 15:44:23.67	243.00	33.99	-41.9	-42.9	22.8	0.00e+00	0	35	101	1048576	60	6774
2026-01-07 15:44:27.71	242.25	33.23	-43.0	-44.0	21.7	0.00e+00	91	35	101	1048576	60	7765
2026-01-07 15:44:31.75	241.53	32.48	-43.6	-44.8	21.2	0.00e+00	0	35	101	1048576	60	8453
2026-01-07 15:44:35.80	240.84	31.74	-44.6	-46.1	20.0	0.00e+00	0	35	101	1048576	60	9831
2026-01-07 15:44:39.84	240.19	31.02	-44.3	-45.7	20.3	0.00e+00	5	35	101	1048576	60	9427
2026-01-07 15:44:43.89	239.56	30.31	-42.0	-43.0	22.6	0.00e+00	91	35	101	1048576	60	6892
2026-01-07 15:44:47.93	238.96	29.61	-42.2	-43.3	22.4	0.00e+00	0	35	101	1048576	60	7119
2026-01-07 15:44:51.98	238.38	28.93	-43.0	-44.1	21.7	0.00e+00	0	35	101	1048576	60	7831
2026-01-07 15:44:56.02	237.84	28.26	-42.3	-43.3	22.4	0.00e+00	92	35	101	1048576	60	7148
2026-01-07 15:45:00.07	237.31	27.60	-41.3	-42.2	23.2	0.00e+00	0	35	101	1048576	60	6248
2026-01-07 15:45:04.11	236.80	26.96	-41.4	-42.4	23.1	0.00e+00	0	35	101	1048576	60	6411
2026-01-07 15:45:08.15	236.32	26.33	-41.7	-42.7	22.8	0.00e+00	0	35	101	1048576	60	6655
2026-01-07 15:45:12.20	235.85	25.71	-42.2	-43.2	22.5	0.00e+00	92	35	101	1048576	60	7035
2026-01-07 15:45:16.24	235.40	25.10	-40.9	-41.8	23.5	0.00e+00	0	35	101	1048576	60	6015
2026-01-07 15:45:20.28	234.97	24.50	-41.3	-42.2	23.3	0.00e+00	0	35	101	1048576	60	6291
2026-01-07 15:45:24.33	234.55	23.92	-41.5	-42.4	23.0	0.00e+00	0	35	101	1048576	60	6437
2026-01-07 15:45:28.37	234.16	23.35	-41.7	-42.6	22.9	0.00e+00	92	35	101	1048576	60	6607
2026-01-07 15:45:32.41	233.77	22.79	-43.1	-44.3	21.4	0.00e+00	0	35	101	1048576	60	7955
2026-01-07 15:45:36.46	233.40	22.23	-43.0	-44.1	21.7	0.00e+00	0	35	101	1048576	60	7828
2026-01-07 15:45:40.50	233.04	21.69	-42.4	-43.4	22.2	0.00e+00	0	35	101	1048576	60	7253
2026-01-07 15:45:44.55	232.70	21.16	-43.1	-44.3	21.4	0.00e+00	0	35	101	1048576	60	7984
2026-01-07 15:45:48.59	232.36	20.64	-43.0	-44.2	21.5	0.00e+00	0	35	101	1048576	60	7878
2026-01-07 15:45:52.63	232.04	20.13	-42.2	-43.2	22.3	0.00e+00	0	35	101	1048576	60	7064
2026-01-07 15:45:56.68	231.73	19.63	-41.2	-42.2	23.2	0.00e+00	85	35	101	1048576	60	6255
2026-01-07 15:46:00.72	231.43	19.13	-41.4	-42.3	23.1	0.00e+00	0	35	101	1048576	60	6379
2026-01-07 15:46:04.76	231.14	18.65	-42.1	-43.1	22.4	0.00e+00	0	35	101	1048576	60	6956
2026-01-07 15:46:08.80	230.86	18.18	-42.8	-43.9	21.7	0.00e+00	1	35	101	1048576	60	7630
2026-01-07 15:46:12.85	230.58	17.71	-42.7	-43.8	21.8	0.00e+00	90	35	101	1048576	60	7587
2026-01-07 15:46:16.89	230.32	17.25	-43.1	-44.2	21.4	0.00e+00	0	35	101	1048576	60	7912
2026-01-07 15:46:20.94	230.06	16.80	-43.3	-44.5	21.1	0.00e+00	0	35	101	1048576	60	8183
2026-01-07 15:46:24.98	229.82	16.35	-42.9	-44.0	21.7	0.00e+00	1	35	101	1048576	60	7728
2026-01-07 15:46:29.02	229.58	15.92	-42.7	-43.8	21.7	0.00e+00	0	35	101	1048576	60	7588
2026-01-07 15:46:33.07	229.34	15.49	-42.9	-44.1	21.5	0.00e+00	0	35	101	1048576	60	7799
2026-01-07 15:46:37.11	229.12	15.07	-42.9	-44.0	21.5	0.00e+00	0	35	101	1048576	60	7752
2026-01-07 15:46:41.15	228.90	14.65	-43.3	-44.5	21.1	0.00e+00	92	35	101	1048576	60	8208
2026-01-07 15:46:45.20	228.68	14.24	-42.8	-44.0	21.5	0.00e+00	32	35	101	1048576	60	7701
2026-01-07 15:46:49.24	228.48	13.84	-43.0	-44.2	21.3	0.00e+00	0	35	101	1048576	60	7879
2026-01-07 15:46:53.29	228.27	13.44	-43.2	-44.4	21.1	0.00e+00	49	35	101	1048576	60	8112
2026-01-07 15:46:57.33	228.08	13.05	-43.5	-44.8	20.8	0.00e+00	91	35	101	1048576	60	8506
2026-01-07 15:47:01.37	227.89	12.67	-44.4	-45.9	19.8	0.00e+00	0	35	101	1048576	60	9643
2026-01-07 15:47:05.42	227.70	12.29	-44.9	-46.4	19.1	0.00e+00	0	35	101	1048576	60	10222
2026-01-07 15:47:09.46	227.52	11.91	-44.8	-46.3	19.3	0.00e+00	89	35	101	1048576	60	10106
2026-01-07 15:47:13.50	227.35	11.55	-44.8	-46.3	19.4	0.00e+00	0	35	101	1048576	60	10088
2026-01-07 15:47:17.55	227.18	11.18	-44.2	-45.6	20.0	0.00e+00	0	35	101	1048576	60	9330
2026-01-07 15:47:21.59	227.01	10.82	-43.9	-45.3	20.3	0.00e+00	0	35	101	1048576	60	8961
2026-01-07 15:47:25.63	226.85	10.47	-44.0	-45.4	20.1	0.00e+00	83	35	101	1048576	60	9056
2026-01-07 15:47:29.68	226.69	10.12	-44.0	-45.4	20.1	0.00e+00	0	35	101	1048576	60	9036
2026-01-07 15:47:33.72	226.53	9.78	-44.4	-45.8	19.7	0.00e+00	0	35	101	1048576	60	9551
2026-01-07 15:47:37.76	226.38	9.44	-44.2	-45.7	19.8	0.00e+00	0	35	101	1048576	60	9372
2026-01-07 15:47:41.81	226.24	9.10	-44.8	-46.4	19.1	0.00e+00	88	35	101	1048576	60	10139
2026-01-07 15:47:45.85	226.09	8.77	-45.0	-46.6	18.9	0.00e+00	0	35	101	1048576	60	10419
2026-01-07 15:47:49.89	225.95	8.45	-45.1	-46.7	18.8	0.00e+00	0	35	101	1048576	60	10587
2026-01-07 15:47:53.94	225.82	8.13	-45.1	-46.9	18.5	0.00e+00	89	35	101	1048576	60	10750
2026-01-07 15:47:57.98	225.69	7.81	-45.4	-47.2	18.1	0.00e+00	0	35	101	1048576	60	11220
2026-01-07 15:48:02.00	225.56	7.49	-45.8	-47.8	17.5	0.00e+00	0	35	101	1048576	60	11975
2026-01-07 15:48:06.04	225.43	7.18	-46.1	-48.2	17.1	0.00e+00	0	35	101	1048576	60	12504
2026-01-07 15:48:10.08	225.31	6.88	-46.3	-48.5	16.7	0.00e+00	57	35	101	1048576	60	13038
2026-01-07 15:48:14.13	225.18	6.57	-46.2	-48.5	16.7	0.00e+00	0	35	101	1048576	60	12927
2026-01-07 15:48:18.17	225.07	6.27	-46.5	-48.9	16.2	0.00e+00	0	35	101	1048576	60	13554
2026-01-07 15:48:22.22	224.95	5.97	-46.7	-49.3	15.8	0.00e+00	0	35	101	1048576	60	14199
2026-01-07 15:48:26.26	224.84	5.68	-47.0	-49.9	15.1	0.00e+00	90	35	101	1048576	60	15179
2026-01-07 15:48:30.30	224.73	5.39	-46.7	-49.4	15.5	0.00e+00	0	35	101	1048576	60	14362
2026-01-07 15:48:34.35	224.62	5.10	-47.2	-50.3	14.5	1.50e-06	0	35	101	1048576	60	15933
2026-01-07 15:48:38.39	224.51	4.82	-47.0	-49.9	14.7	7.00e-07	0	35	101	1048576	60	15313
2026-01-07 15:48:42.43	224.41	4.53	-47.1	-50.2	14.3	1.50e-06	0	35	101	1048576	60	15801
2026-01-07 15:48:46.48	224.31	4.25	-46.9	-49.9	14.5	2.20e-06	0	35	101	1048576	60	15177
2026-01-07 15:48:50.52	224.21	3.98	-47.1	-50.3	14.2	2.20e-06	0	35	101	1048576	60	15875
2026-01-07 15:48:54.56	224.11	3.71	-46.9	-50.1	14.2	7.00e-07	91	35	101	1048576	60	15525
2026-01-07 15:48:58.61	224.01	3.43	-46.9	-50.1	14.0	3.80e-06	0	35	101	1048576	60	15608
2026-01-07 15:49:02.65	223.92	3.17	-47.0	-50.4	13.6	9.10e-06	0	35	101	1048576	60	16219
2026-01-07 15:49:06.70	223.83	2.90	-51.9	-67.2	3.6	1.51e+00	0	35	104	1048576	60	112047
2026-01-07 15:49:10.74	223.74	2.64	-52.1	-67.4	3.6	1.51e+00	0	35	104	1048576	60	114172
2026-01-07 15:49:14.78	223.65	2.38	-51.6	-67.3	3.6	1.51e+00	0	35	104	1048576	60	113598
2026-01-07 15:49:18.82	223.57	2.12	-51.8	-67.3	3.6	1.51e+00	0	35	104	1048576	60	112929
2026-01-07 15:49:22.87	223.48	1.86	-52.0	-67.4	3.6	1.51e+00	0	35	104	1048576	60	113723
2026-01-07 15:49:26.91	223.40	1.61	-52.0	-67.3	3.6	1.51e+00	0	35	104	1048576	60	113162
2026-01-07 15:49:30.96	223.32	1.35	-51.9	-67.3	3.6	1.51e+00	0	35	104	1048576	60	112610
2026-01-07 15:49:35.00	223.24	1.10	-51.9	-67.3	3.6	1.51e+00	0	35	104	1048576	60	112665
2026-01-07 15:49:39.04	223.16	0.86	-51.9	-67.3	3.6	1.51e+00	0	35	104	1048576	60	112560
2026-01-07 15:49:43.09	223.08	0.61	-51.9	-67.2	3.6	1.51e+00	0	35	104	1048576	60	111995
2026-01-07 15:49:47.13	223.01	0.37	-51.9	-67.3	3.6	1.51e+00	0	35	104	1048576	60	112455
2026-01-07 15:49:51.18	222.93	0.12	-51.9	-67.3	3.6	1.51e+00	0	35	104	1048576	60	112705

#Closed at: 2026-01-07 15:49:53
#Recorded file [1 MB]: D:/lorett/data/35034_260107_183437.dat