passes_logs/2026/01/07/R4.6S_Anadyr_2ch/R4.6S_Anadyr_2ch__20260107_083332_TY-40_rec.log

#Pass ID: 20260107_083332_TY-40
#Satellite: TY-40
#Configuration: TY-39_900M
#almurnet v.1.7.20251203
#Start time: 2026-01-07 08:34:02

#Version: 2.2.20231116
#Station: R4.6S_Anadyr_2ch
#Location: 177.4865 lon 64.73178 lat
#TLE: 1 56846U 23081A   25350.97536409  .00002626  00000-0  11966-3 0  9993
#TLE: 2 56846  97.3941  59.4076 0002022  98.6035 261.5430 15.21533877140291

#Time	Az	El	Level	Level2	SNR	BER	BlckErr	Temp	State	Recorded	gain1	gain2
2026-01-07 08:34:02.30	139.37	1.99	-51.6	-53.2	5.7	0.00e+00	0	31	0	0	60	76257
2026-01-07 08:34:05.34	139.27	2.20	-51.6	-54.1	6.1	0.00e+00	0	33	104	0	60	84683
2026-01-07 08:34:08.37	139.16	2.41	-51.6	-54.1	6.1	0.00e+00	0	33	104	0	60	84330
2026-01-07 08:34:11.40	139.05	2.63	-51.6	-54.1	6.1	0.00e+00	0	33	104	0	60	84488
2026-01-07 08:34:14.43	138.93	2.84	-51.6	-54.1	6.1	0.00e+00	0	33	104	0	60	84577
2026-01-07 08:34:17.46	138.82	3.06	-51.6	-54.1	6.1	0.00e+00	0	33	104	0	60	84535
2026-01-07 08:34:20.50	138.70	3.28	-51.6	-54.1	6.1	0.00e+00	0	34	104	0	60	84625
2026-01-07 08:34:23.53	138.58	3.51	-51.6	-54.1	6.1	0.00e+00	0	34	104	0	60	84775
2026-01-07 08:34:26.56	138.46	3.73	-51.6	-54.1	6.0	0.00e+00	0	34	104	0	60	84885
2026-01-07 08:34:29.59	138.33	3.96	-51.6	-54.1	6.1	0.00e+00	0	34	104	0	60	84687
2026-01-07 08:34:32.62	138.20	4.19	-51.6	-54.1	6.1	0.00e+00	0	34	104	0	60	84521
2026-01-07 08:34:35.65	138.07	4.42	-51.6	-54.1	6.1	0.00e+00	0	34	104	0	60	84474
2026-01-07 08:34:38.69	137.94	4.66	-51.6	-54.1	6.1	0.00e+00	0	34	104	0	60	84782
2026-01-07 08:34:41.72	137.80	4.89	-51.6	-54.1	6.1	0.00e+00	0	34	104	0	60	84918
2026-01-07 08:34:44.75	137.66	5.13	-51.6	-54.1	6.1	0.00e+00	0	34	104	0	60	85040
2026-01-07 08:34:47.79	137.51	5.38	-51.6	-54.0	6.1	0.00e+00	0	34	104	0	60	84105
2026-01-07 08:34:50.82	137.37	5.62	-51.6	-54.1	6.1	0.00e+00	0	34	104	0	60	85043
2026-01-07 08:34:53.85	137.22	5.87	-51.6	-54.1	6.1	0.00e+00	0	34	104	0	60	84924
2026-01-07 08:34:56.89	137.06	6.13	-51.6	-54.1	6.1	0.00e+00	0	35	104	0	60	84958
2026-01-07 08:34:59.92	136.91	6.38	-51.6	-54.1	6.1	0.00e+00	0	34	104	0	60	84651
2026-01-07 08:35:02.95	136.75	6.64	-51.6	-54.1	6.1	0.00e+00	0	34	104	0	60	84791
2026-01-07 08:35:05.98	136.58	6.90	-51.6	-54.1	6.1	0.00e+00	0	34	104	0	60	85056
2026-01-07 08:35:09.02	136.41	7.17	-51.6	-54.1	6.1	0.00e+00	0	35	104	0	60	84842
2026-01-07 08:35:12.05	136.24	7.44	-51.6	-54.1	6.1	0.00e+00	0	35	104	0	60	85107
2026-01-07 08:35:15.08	136.06	7.71	-51.6	-54.1	6.1	0.00e+00	0	35	104	0	60	84650
2026-01-07 08:35:18.12	135.88	7.98	-51.6	-54.2	6.1	0.00e+00	0	35	104	0	60	85321
2026-01-07 08:35:21.15	135.69	8.26	-51.6	-54.1	6.0	0.00e+00	0	35	104	0	60	85151
2026-01-07 08:35:24.18	135.50	8.55	-51.6	-54.1	6.1	0.00e+00	0	35	104	0	60	85051
2026-01-07 08:35:27.21	135.31	8.84	-51.6	-54.1	6.1	0.00e+00	0	35	104	0	60	84761
2026-01-07 08:35:30.25	135.11	9.13	-51.6	-54.1	6.1	0.00e+00	0	35	104	0	60	84759
2026-01-07 08:35:33.28	134.90	9.43	-51.6	-54.1	6.1	0.00e+00	0	35	104	0	60	84910
2026-01-07 08:35:36.31	134.69	9.73	-51.6	-54.1	6.1	0.00e+00	0	35	104	0	60	84637
2026-01-07 08:35:39.35	134.47	10.03	-51.6	-54.1	6.1	0.00e+00	0	35	104	0	60	84697
2026-01-07 08:35:42.38	134.25	10.34	-51.6	-54.1	6.1	0.00e+00	0	35	104	0	60	84899
2026-01-07 08:35:45.41	134.02	10.66	-51.6	-54.1	6.1	0.00e+00	0	35	104	0	60	85148
2026-01-07 08:35:48.45	133.78	10.98	-51.6	-54.1	6.1	0.00e+00	0	35	104	0	60	85028
2026-01-07 08:35:51.48	133.54	11.31	-51.6	-54.1	6.1	0.00e+00	0	35	104	0	60	84499
2026-01-07 08:35:54.51	133.29	11.64	-51.6	-54.1	6.1	0.00e+00	0	35	104	0	60	84346
2026-01-07 08:35:57.55	133.03	11.97	-51.6	-54.1	6.1	0.00e+00	0	35	104	0	60	85191
2026-01-07 08:36:00.58	132.77	12.32	-51.6	-54.1	6.1	0.00e+00	0	35	104	0	60	84759
2026-01-07 08:36:03.61	132.50	12.66	-51.6	-54.1	6.1	0.00e+00	0	35	104	0	60	85116
2026-01-07 08:36:06.65	132.22	13.02	-51.6	-54.1	6.1	0.00e+00	0	35	104	0	60	84803
2026-01-07 08:36:09.68	131.93	13.38	-51.6	-54.1	6.1	0.00e+00	0	35	104	0	60	84306
2026-01-07 08:36:12.71	131.63	13.75	-51.6	-54.1	6.1	0.00e+00	0	35	104	0	60	84830
2026-01-07 08:36:15.75	131.32	14.12	-51.6	-54.1	6.1	0.00e+00	0	35	104	0	60	85214
2026-01-07 08:36:18.78	131.01	14.50	-51.6	-54.1	6.1	0.00e+00	0	35	104	0	60	85153
2026-01-07 08:36:21.81	130.68	14.89	-51.6	-54.1	6.1	0.00e+00	0	35	104	0	60	84660
2026-01-07 08:36:24.84	130.34	15.28	-51.6	-54.1	6.1	0.00e+00	0	35	104	0	60	84935
2026-01-07 08:36:27.88	129.99	15.69	-51.6	-54.1	6.1	0.00e+00	0	35	104	0	60	84888
2026-01-07 08:36:30.91	129.63	16.10	-51.6	-54.1	6.1	0.00e+00	0	35	104	0	60	84934
2026-01-07 08:36:33.94	129.26	16.51	-51.6	-54.1	6.1	0.00e+00	0	35	104	0	60	84803
2026-01-07 08:36:36.98	128.87	16.94	-51.6	-54.1	6.1	0.00e+00	0	35	104	0	60	84769
2026-01-07 08:36:40.01	128.48	17.38	-51.6	-54.1	6.1	0.00e+00	0	36	104	0	60	84927
2026-01-07 08:36:43.04	128.06	17.82	-51.6	-54.1	6.1	0.00e+00	0	36	104	0	60	84963
2026-01-07 08:36:46.07	127.64	18.27	-51.6	-54.1	6.1	0.00e+00	0	36	104	0	60	84944
2026-01-07 08:36:49.10	127.19	18.74	-51.6	-54.1	6.1	0.00e+00	0	35	104	0	60	85007
2026-01-07 08:36:52.14	126.73	19.21	-51.6	-54.1	6.1	0.00e+00	0	35	104	0	60	84982
2026-01-07 08:36:55.17	126.26	19.69	-51.6	-54.1	6.1	0.00e+00	0	36	104	0	60	85062
2026-01-07 08:36:58.20	125.77	20.18	-51.6	-54.1	6.1	0.00e+00	0	36	104	0	60	85029
2026-01-07 08:37:01.24	125.25	20.68	-51.6	-54.1	6.1	0.00e+00	0	36	104	0	60	85189
2026-01-07 08:37:04.27	124.72	21.20	-51.6	-54.1	6.1	0.00e+00	0	36	104	0	60	85152
2026-01-07 08:37:07.30	124.17	21.72	-51.6	-54.1	6.1	0.00e+00	0	36	104	0	60	84925
2026-01-07 08:37:10.33	123.59	22.25	-51.6	-54.1	6.1	0.00e+00	0	36	104	0	60	85197
2026-01-07 08:37:13.37	122.99	22.80	-51.6	-54.1	6.1	0.00e+00	0	36	104	0	60	84727
2026-01-07 08:37:16.40	122.37	23.36	-51.6	-54.1	6.1	0.00e+00	0	36	104	0	60	85177
2026-01-07 08:37:19.43	121.72	23.92	-51.6	-54.1	6.1	0.00e+00	0	36	104	0	60	84648
2026-01-07 08:37:22.47	121.04	24.50	-51.6	-54.1	6.1	0.00e+00	0	36	104	0	60	84675
2026-01-07 08:37:25.50	120.34	25.10	-51.6	-54.1	6.1	0.00e+00	0	36	104	0	60	85036
2026-01-07 08:37:28.53	119.60	25.70	-51.6	-54.1	6.1	0.00e+00	0	36	104	0	60	85178
2026-01-07 08:37:31.56	118.83	26.31	-51.6	-54.1	6.1	0.00e+00	0	36	104	0	60	84693
2026-01-07 08:37:34.60	118.03	26.94	-51.6	-54.1	6.1	0.00e+00	0	36	104	0	60	85178
2026-01-07 08:37:37.63	117.19	27.58	-51.6	-54.1	6.1	0.00e+00	0	36	104	0	60	84754
2026-01-07 08:37:40.66	116.31	28.23	-51.6	-54.1	6.1	0.00e+00	0	36	104	0	60	84835
2026-01-07 08:37:43.70	115.39	28.90	-51.6	-54.2	6.1	0.00e+00	0	36	104	0	60	85245
2026-01-07 08:37:46.73	114.43	29.57	-51.6	-54.1	6.1	0.00e+00	0	36	104	0	60	85151
2026-01-07 08:37:49.76	113.43	30.25	-51.6	-54.1	6.1	0.00e+00	0	36	104	0	60	84785
2026-01-07 08:37:52.80	112.37	30.95	-51.6	-54.1	6.1	0.00e+00	0	36	104	0	60	84744
2026-01-07 08:37:55.83	111.27	31.65	-51.6	-54.1	6.0	0.00e+00	0	36	104	0	60	85076
2026-01-07 08:37:58.87	110.11	32.36	-51.6	-54.1	6.1	0.00e+00	0	36	104	0	60	84516
2026-01-07 08:38:01.90	108.90	33.08	-51.6	-54.1	6.1	0.00e+00	0	36	104	0	60	84865
2026-01-07 08:38:04.93	107.63	33.80	-51.6	-54.1	6.1	0.00e+00	0	36	104	0	60	84931
2026-01-07 08:38:07.96	106.29	34.53	-51.6	-54.1	6.1	0.00e+00	0	36	104	0	60	84600
2026-01-07 08:38:11.00	104.89	35.26	-51.6	-54.1	6.1	0.00e+00	0	36	104	0	60	85081
2026-01-07 08:38:14.03	103.42	35.99	-51.6	-54.2	6.1	0.00e+00	0	36	104	0	60	85260
2026-01-07 08:38:17.06	101.89	36.71	-51.6	-54.1	6.1	0.00e+00	0	36	104	0	60	84986
2026-01-07 08:38:20.09	100.27	37.43	-51.6	-54.1	6.1	0.00e+00	0	36	104	0	60	84970
2026-01-07 08:38:23.12	98.59	38.14	-51.6	-54.1	6.1	0.00e+00	0	36	104	0	60	85017
2026-01-07 08:38:26.16	96.81	38.85	-51.6	-54.1	6.1	0.00e+00	0	36	104	0	60	84348
2026-01-07 08:38:29.19	94.96	39.53	-51.6	-54.1	6.1	0.00e+00	0	36	104	0	60	85201
2026-01-07 08:38:32.22	93.03	40.20	-51.6	-54.1	6.1	0.00e+00	0	36	104	0	60	84933
2026-01-07 08:38:35.25	91.02	40.84	-51.6	-54.1	6.1	0.00e+00	0	36	104	0	60	84965
2026-01-07 08:38:38.29	88.91	41.46	-51.6	-54.2	6.1	0.00e+00	0	36	104	0	60	85305
2026-01-07 08:38:41.32	86.73	42.05	-51.6	-54.2	6.1	0.00e+00	0	36	104	0	60	85505
2026-01-07 08:38:44.35	84.47	42.59	-51.6	-54.1	6.1	0.00e+00	0	36	104	0	60	84980
2026-01-07 08:38:47.39	82.12	43.10	-51.6	-54.1	6.0	0.00e+00	0	36	104	0	60	84995
2026-01-07 08:38:50.42	79.70	43.56	-51.7	-54.1	6.1	0.00e+00	0	36	104	0	60	84928
2026-01-07 08:38:53.45	77.22	43.96	-51.7	-54.1	6.1	0.00e+00	0	36	104	0	60	84795
2026-01-07 08:38:56.48	74.67	44.31	-51.6	-54.1	6.1	0.00e+00	0	36	104	0	60	84695
2026-01-07 08:38:59.52	72.06	44.61	-51.6	-54.2	6.1	0.00e+00	0	36	104	0	60	85312
2026-01-07 08:39:02.55	69.42	44.83	-51.6	-54.1	6.1	0.00e+00	0	36	104	0	60	84609
2026-01-07 08:39:05.58	66.74	45.00	-51.6	-54.1	6.1	0.00e+00	0	36	104	0	60	85066
2026-01-07 08:39:08.61	64.04	45.09	-51.6	-54.1	6.1	0.00e+00	0	36	104	0	60	84989
2026-01-07 08:39:11.64	61.33	45.12	-51.6	-54.1	6.0	0.00e+00	0	36	104	0	60	84841
2026-01-07 08:39:14.67	58.62	45.08	-51.7	-54.2	6.1	0.00e+00	0	36	104	0	60	85250
2026-01-07 08:39:17.71	55.92	44.97	-51.7	-54.1	6.1	0.00e+00	0	36	104	0	60	84874
2026-01-07 08:39:20.74	53.25	44.79	-51.6	-54.1	6.1	0.00e+00	0	36	104	0	60	84903
2026-01-07 08:39:23.77	50.61	44.55	-51.7	-54.1	6.1	0.00e+00	0	36	104	0	60	84950
2026-01-07 08:39:26.80	48.03	44.24	-51.6	-54.1	6.1	0.00e+00	0	36	104	0	60	85167
2026-01-07 08:39:29.83	45.50	43.88	-51.7	-54.1	6.1	0.00e+00	0	36	104	0	60	84839
2026-01-07 08:39:32.87	43.02	43.46	-51.7	-54.2	6.1	0.00e+00	0	36	104	0	60	85273
2026-01-07 08:39:35.90	40.63	42.99	-51.6	-54.2	6.1	0.00e+00	0	36	104	0	60	85350
2026-01-07 08:39:38.93	38.31	42.48	-51.6	-54.1	6.1	0.00e+00	0	36	104	0	60	85198
2026-01-07 08:39:41.97	36.06	41.93	-51.7	-54.2	6.1	0.00e+00	0	36	104	0	60	85440
2026-01-07 08:39:45.00	33.90	41.34	-51.6	-54.1	6.1	0.00e+00	0	36	104	0	60	85120
2026-01-07 08:39:48.03	31.83	40.72	-51.7	-54.1	6.1	0.00e+00	0	36	104	0	60	85113
2026-01-07 08:39:51.06	29.83	40.07	-51.7	-54.1	6.1	0.00e+00	0	36	104	0	60	84897
2026-01-07 08:39:54.10	27.92	39.40	-51.7	-54.2	6.1	0.00e+00	0	36	104	0	60	85446
2026-01-07 08:39:57.13	26.09	38.71	-51.6	-54.1	6.1	0.00e+00	0	36	104	0	60	84901
2026-01-07 08:40:00.16	24.35	38.01	-51.7	-54.2	6.1	0.00e+00	0	36	104	0	60	85410
2026-01-07 08:40:03.20	22.68	37.30	-51.6	-54.1	6.1	0.00e+00	0	36	104	0	60	85074
2026-01-07 08:40:06.23	21.09	36.58	-51.7	-54.2	6.1	0.00e+00	0	36	104	0	60	85250
2026-01-07 08:40:09.26	19.57	35.86	-51.7	-54.1	6.1	0.00e+00	0	36	104	0	60	85139
2026-01-07 08:40:12.29	18.12	35.13	-51.7	-54.1	6.1	0.00e+00	0	36	104	0	60	84617
2026-01-07 08:40:15.32	16.74	34.41	-51.7	-54.1	6.1	0.00e+00	0	36	104	0	60	85042
2026-01-07 08:40:18.36	15.42	33.68	-51.7	-54.1	6.1	0.00e+00	0	36	104	0	60	84969
2026-01-07 08:40:21.39	14.17	32.97	-51.6	-54.1	6.1	0.00e+00	0	36	104	0	60	85222
2026-01-07 08:40:24.43	12.97	32.25	-51.7	-54.1	6.1	0.00e+00	0	36	104	0	60	85095
2026-01-07 08:40:27.46	11.83	31.55	-51.7	-54.1	6.1	0.00e+00	0	36	104	0	60	85174
2026-01-07 08:40:30.49	10.74	30.85	-51.6	-54.1	6.1	0.00e+00	0	36	104	0	60	85082
2026-01-07 08:40:33.52	9.70	30.16	-51.7	-54.2	6.1	0.00e+00	0	36	104	0	60	85553
2026-01-07 08:40:36.56	8.71	29.49	-51.7	-54.1	6.1	0.00e+00	0	36	104	0	60	85161
2026-01-07 08:40:39.59	7.76	28.82	-51.7	-54.2	6.1	0.00e+00	0	36	104	0	60	85312
2026-01-07 08:40:42.62	6.86	28.16	-51.7	-54.2	6.1	0.00e+00	0	36	104	0	60	85225
2026-01-07 08:40:45.65	5.99	27.52	-51.7	-54.1	6.1	0.00e+00	0	36	104	0	60	85041
2026-01-07 08:40:48.69	5.16	26.88	-51.7	-54.1	6.1	0.00e+00	0	36	104	0	60	84809
2026-01-07 08:40:51.72	4.37	26.26	-51.7	-54.1	6.1	0.00e+00	0	36	104	0	60	84888
2026-01-07 08:40:54.75	3.61	25.65	-51.6	-54.2	6.1	0.00e+00	0	36	104	0	60	85260
2026-01-07 08:40:57.79	2.88	25.05	-51.7	-54.2	6.1	0.00e+00	0	36	104	0	60	85375
2026-01-07 08:41:00.82	2.19	24.47	-51.7	-54.2	6.1	0.00e+00	0	36	104	0	60	85225
2026-01-07 08:41:03.85	1.52	23.89	-51.7	-54.1	6.1	0.00e+00	0	36	104	0	60	85167
2026-01-07 08:41:06.88	0.88	23.33	-51.7	-54.2	6.1	0.00e+00	0	36	104	0	60	85293
2026-01-07 08:41:09.91	0.26	22.78	-51.7	-54.2	6.1	0.00e+00	0	36	104	0	60	85687
2026-01-07 08:41:12.94	359.67	22.24	-51.7	-54.1	6.1	0.00e+00	0	36	104	0	60	85134
2026-01-07 08:41:15.98	359.10	21.71	-51.7	-54.2	6.1	0.00e+00	0	36	104	0	60	85249
2026-01-07 08:41:19.01	358.56	21.19	-51.7	-54.2	6.1	0.00e+00	0	36	104	0	60	85377
2026-01-07 08:41:22.04	358.03	20.68	-51.7	-54.1	6.1	0.00e+00	0	36	104	0	60	85157
2026-01-07 08:41:25.07	357.52	20.18	-51.7	-54.1	6.1	0.00e+00	0	36	104	0	60	85062
2026-01-07 08:41:28.11	357.04	19.69	-51.7	-54.1	6.1	0.00e+00	0	36	104	0	60	84942
2026-01-07 08:41:31.14	356.57	19.22	-51.7	-54.2	6.1	0.00e+00	0	36	104	0	60	85521
2026-01-07 08:41:34.17	356.11	18.75	-51.7	-54.1	6.1	0.00e+00	0	36	104	0	60	84955
2026-01-07 08:41:37.20	355.68	18.29	-51.7	-54.2	6.1	0.00e+00	0	36	104	0	60	85507
2026-01-07 08:41:40.24	355.25	17.84	-51.7	-54.2	6.1	0.00e+00	0	36	104	0	60	85506
2026-01-07 08:41:43.27	354.85	17.40	-51.7	-54.1	6.1	0.00e+00	0	36	104	0	60	85133
2026-01-07 08:41:46.30	354.45	16.97	-51.7	-54.1	6.1	0.00e+00	0	36	104	0	60	85093
2026-01-07 08:41:49.34	354.07	16.55	-51.7	-54.2	6.1	0.00e+00	0	36	104	0	60	85239
2026-01-07 08:41:52.37	353.70	16.13	-51.7	-54.2	6.1	0.00e+00	0	36	104	0	60	85292
2026-01-07 08:41:55.40	353.35	15.72	-51.7	-54.2	6.1	0.00e+00	0	36	104	0	60	85277
2026-01-07 08:41:58.43	353.00	15.33	-51.7	-54.2	6.1	0.00e+00	0	36	104	0	60	85321
2026-01-07 08:42:01.47	352.67	14.93	-51.7	-54.1	6.1	0.00e+00	0	36	104	0	60	85037
2026-01-07 08:42:04.50	352.35	14.55	-51.7	-54.1	6.1	0.00e+00	0	36	104	0	60	84831
2026-01-07 08:42:07.53	352.03	14.17	-51.7	-54.1	6.1	0.00e+00	0	36	104	0	60	85024
2026-01-07 08:42:10.57	351.73	13.80	-51.7	-54.1	6.1	0.00e+00	0	36	104	0	60	84993
2026-01-07 08:42:13.60	351.44	13.43	-51.6	-54.1	6.1	0.00e+00	0	37	104	0	60	84928
2026-01-07 08:42:16.63	351.15	13.08	-51.7	-54.2	6.1	0.00e+00	0	36	104	0	60	85380
2026-01-07 08:42:19.66	350.88	12.73	-51.7	-54.1	6.1	0.00e+00	0	36	104	0	60	85155
2026-01-07 08:42:22.70	350.61	12.38	-51.7	-54.2	6.1	0.00e+00	0	37	104	0	60	85449
2026-01-07 08:42:25.73	350.35	12.04	-51.7	-54.2	6.1	0.00e+00	0	36	104	0	60	85250
2026-01-07 08:42:28.76	350.09	11.71	-51.7	-54.2	6.1	0.00e+00	0	36	104	0	60	85446
2026-01-07 08:42:31.80	349.85	11.38	-51.7	-54.2	6.1	0.00e+00	0	37	104	0	60	85233
2026-01-07 08:42:34.83	349.61	11.05	-51.7	-54.1	6.1	0.00e+00	0	36	104	0	60	84994
2026-01-07 08:42:37.86	349.37	10.73	-51.7	-54.1	6.1	0.00e+00	0	36	104	0	60	85206
2026-01-07 08:42:40.90	349.15	10.42	-51.7	-54.1	6.1	0.00e+00	0	36	104	0	60	85195
2026-01-07 08:42:43.93	348.93	10.11	-51.7	-54.2	6.1	0.00e+00	0	36	104	0	60	85599
2026-01-07 08:42:46.96	348.71	9.81	-51.7	-54.2	6.1	0.00e+00	0	36	104	0	60	85435
2026-01-07 08:42:49.99	348.50	9.51	-51.7	-54.2	6.1	0.00e+00	0	36	104	0	60	85420
2026-01-07 08:42:53.03	348.30	9.21	-51.7	-54.2	6.1	0.00e+00	0	36	104	0	60	85432
2026-01-07 08:42:56.06	348.10	8.92	-51.7	-54.2	6.1	0.00e+00	0	36	104	0	60	85262
2026-01-07 08:42:59.09	347.91	8.64	-51.7	-54.2	6.1	0.00e+00	0	36	104	0	60	85484
2026-01-07 08:43:02.12	347.72	8.35	-51.7	-54.1	6.1	0.00e+00	0	36	104	0	60	84850
2026-01-07 08:43:05.16	347.54	8.08	-51.7	-54.2	6.1	0.00e+00	0	37	104	0	60	85483
2026-01-07 08:43:08.19	347.36	7.80	-51.7	-54.1	6.1	0.00e+00	0	36	104	0	60	85049
2026-01-07 08:43:11.22	347.19	7.53	-51.7	-54.1	6.1	0.00e+00	0	36	104	0	60	85096
2026-01-07 08:43:14.25	347.02	7.26	-51.7	-54.1	6.1	0.00e+00	0	36	104	0	60	85070
2026-01-07 08:43:17.29	346.85	7.00	-51.7	-54.2	6.1	0.00e+00	0	37	104	0	60	85239
2026-01-07 08:43:20.32	346.69	6.74	-51.7	-54.1	6.1	0.00e+00	0	37	104	0	60	85170
2026-01-07 08:43:23.35	346.53	6.48	-51.7	-54.2	6.1	0.00e+00	0	37	104	0	60	85385
2026-01-07 08:43:26.38	346.38	6.23	-51.7	-54.1	6.1	0.00e+00	0	37	104	0	60	85177
2026-01-07 08:43:29.42	346.22	5.97	-51.7	-54.1	6.1	0.00e+00	0	36	104	0	60	85197
2026-01-07 08:43:32.45	346.08	5.73	-51.7	-54.1	6.1	0.00e+00	0	37	104	0	60	85131
2026-01-07 08:43:35.48	345.93	5.48	-51.7	-54.1	6.1	0.00e+00	0	37	104	0	60	85141
2026-01-07 08:43:38.51	345.79	5.24	-51.7	-54.1	6.1	0.00e+00	0	36	104	0	60	85201
2026-01-07 08:43:41.55	345.65	5.00	-51.7	-54.1	6.1	0.00e+00	0	37	104	0	60	84767
2026-01-07 08:43:44.58	345.52	4.76	-51.7	-54.1	6.1	0.00e+00	0	36	104	0	60	85069
2026-01-07 08:43:47.62	345.39	4.53	-51.7	-54.1	6.1	0.00e+00	0	37	104	0	60	85137
2026-01-07 08:43:50.65	345.26	4.30	-51.7	-54.2	6.1	0.00e+00	0	37	104	0	60	85421
2026-01-07 08:43:53.68	345.13	4.07	-51.7	-54.1	6.1	0.00e+00	0	37	104	0	60	84887
2026-01-07 08:43:56.71	345.01	3.84	-51.7	-54.1	6.1	0.00e+00	0	36	104	0	60	85217
2026-01-07 08:43:59.74	344.89	3.62	-51.7	-54.1	6.0	0.00e+00	0	37	104	0	60	84846
2026-01-07 08:44:02.78	344.77	3.40	-51.7	-54.2	6.1	0.00e+00	0	36	104	0	60	85587
2026-01-07 08:44:05.81	344.66	3.18	-51.7	-54.1	6.1	0.00e+00	0	37	104	0	60	85118
2026-01-07 08:44:08.84	344.55	2.96	-51.7	-54.2	6.1	0.00e+00	0	36	104	0	60	85521
2026-01-07 08:44:11.87	344.43	2.74	-51.7	-54.2	6.1	0.00e+00	0	37	104	0	60	85368
2026-01-07 08:44:14.91	344.33	2.53	-51.7	-54.1	6.1	0.00e+00	0	36	104	0	60	84817
2026-01-07 08:44:17.94	344.22	2.32	-51.7	-54.1	6.1	0.00e+00	0	37	104	0	60	85173
2026-01-07 08:44:20.97	344.12	2.11	-51.7	-54.2	6.1	0.00e+00	0	36	104	0	60	85276
2026-01-07 08:44:24.01	344.01	1.90	-51.7	-54.2	6.0	0.00e+00	0	37	104	0	60	85438
2026-01-07 08:44:27.04	343.91	1.70	-51.7	-54.2	6.1	0.00e+00	0	36	104	0	60	85482
2026-01-07 08:44:30.08	343.82	1.49	-51.7	-54.2	6.1	0.00e+00	0	37	104	0	60	85274
2026-01-07 08:44:33.11	343.72	1.29	-51.7	-54.2	6.1	0.00e+00	0	37	104	0	60	85522
2026-01-07 08:44:36.14	343.63	1.09	-51.7	-54.2	6.1	0.00e+00	0	37	104	0	60	85340
2026-01-07 08:44:39.17	343.53	0.89	-51.7	-54.2	6.1	0.00e+00	0	37	104	0	60	85718
2026-01-07 08:44:42.20	343.44	0.70	-51.7	-54.1	6.1	0.00e+00	0	37	104	0	60	85059
2026-01-07 08:44:45.24	343.35	0.50	-51.7	-54.2	6.1	0.00e+00	0	37	104	0	60	85284
2026-01-07 08:44:48.27	343.27	0.31	-51.7	-54.2	6.1	0.00e+00	0	37	104	0	60	85496
2026-01-07 08:44:51.30	343.18	0.12	-51.7	-54.1	6.1	0.00e+00	0	37	104	0	60	84860

#Closed at: 2026-01-07 08:44:54
#Recorded file [0 MB]: D:/lorett/data/35034_260107_113402.dat