passes_logs/2026/01/07/R4.6S_Anadyr_2ch/R4.6S_Anadyr_2ch__20260107_000818_SUOMI_NPP_rec.log

#Pass ID: 20260107_000818_SUOMI NPP
#Satellite: SUOMI NPP
#Configuration: NPP
#almurnet v.1.7.20251203
#Start time: 2026-01-07 00:08:21

#Version: 2.2.20231116
#Station: R4.6S_Anadyr_2ch
#Location: 177.4865 lon 64.73178 lat
#TLE: 1 37849U 11061A   25350.92281687  .00000071  00000+0  54882-4 0  9996
#TLE: 2 37849  98.7777 288.2268 0002366 112.8570 247.2856 14.19515404732588

#Time	Az	El	Level	Level2	SNR	BER	BlckErr	Temp	State	Recorded	gain1	gain2
2026-01-07 00:08:21.02	152.53	0.17	-51.5	-64.2	3.5	1.52e+00	0	30	0	0	60	76765
2026-01-07 00:08:25.06	152.53	0.41	-51.6	-67.0	3.6	1.51e+00	0	31	104	0	60	109060
2026-01-07 00:08:29.11	152.52	0.66	-51.2	-66.7	3.6	1.51e+00	0	31	104	0	60	105021
2026-01-07 00:08:33.15	152.52	0.91	-50.2	-65.6	3.6	1.51e+00	0	31	104	0	60	92427
2026-01-07 00:08:37.19	152.52	1.16	-50.0	-65.3	3.6	1.51e+00	0	31	104	0	60	90181
2026-01-07 00:08:41.24	152.51	1.41	-50.0	-65.3	3.6	1.51e+00	0	31	104	0	60	89504
2026-01-07 00:08:45.28	152.51	1.67	-50.0	-65.3	3.6	1.51e+00	0	31	104	0	60	89263
2026-01-07 00:08:49.32	152.50	1.93	-50.0	-65.3	3.6	1.51e+00	0	31	104	0	60	90048
2026-01-07 00:08:53.36	152.50	2.19	-50.0	-65.3	3.6	1.51e+00	0	31	104	0	60	89970
2026-01-07 00:08:57.40	152.49	2.45	-50.0	-65.1	3.6	1.51e+00	0	31	104	0	60	87757
2026-01-07 00:09:01.44	152.49	2.71	-50.0	-65.1	3.6	1.51e+00	0	31	104	0	60	88170
2026-01-07 00:09:05.49	152.48	2.98	-49.9	-63.1	3.7	1.51e+00	0	31	104	0	60	70035
2026-01-07 00:09:09.53	152.48	3.25	-48.8	-54.5	9.4	2.87e-02	51	31	102	1048576	60	25799
2026-01-07 00:09:13.57	152.47	3.53	-47.8	-51.8	12.4	1.85e-04	92	31	102	1048576	60	19062
2026-01-07 00:09:17.61	152.46	3.80	-48.7	-54.5	10.6	1.40e+00	92	31	104	1048576	60	25809
2026-01-07 00:09:21.65	152.46	4.08	-46.3	-49.2	14.7	9.90e-01	0	31	104	1048576	60	14070
2026-01-07 00:09:25.69	152.45	4.36	-44.9	-47.0	17.4	0.00e+00	92	31	0	1048576	60	10888
2026-01-07 00:09:29.74	152.44	4.65	-44.8	-46.8	17.6	0.00e+00	92	32	0	1048576	60	10680
2026-01-07 00:09:33.78	152.43	4.93	-44.5	-46.4	18.0	0.00e+00	0	31	0	1048576	60	10163
2026-01-07 00:09:37.82	152.42	5.23	-44.6	-46.4	18.0	0.00e+00	0	32	0	1048576	60	10214
2026-01-07 00:09:41.86	152.41	5.52	-44.6	-46.4	18.0	0.00e+00	92	32	101	1048576	60	10191
2026-01-07 00:09:45.91	152.40	5.82	-44.5	-46.3	18.3	0.00e+00	91	32	101	1048576	60	10113
2026-01-07 00:09:49.95	152.39	6.12	-44.4	-46.2	18.4	0.00e+00	0	32	101	1048576	60	9961
2026-01-07 00:09:54.00	152.38	6.42	-44.1	-45.7	18.8	0.00e+00	0	31	101	1048576	60	9449
2026-01-07 00:09:58.04	152.37	6.73	-44.2	-45.9	18.8	0.00e+00	56	32	101	1048576	60	9592
2026-01-07 00:10:02.08	152.36	7.04	-44.0	-45.6	19.1	0.00e+00	92	32	101	1048576	60	9277
2026-01-07 00:10:06.12	152.35	7.36	-43.7	-45.3	19.4	0.00e+00	0	32	101	1048576	60	8935
2026-01-07 00:10:10.17	152.34	7.68	-43.6	-45.0	19.6	0.00e+00	56	32	101	1048576	60	8720
2026-01-07 00:10:14.20	152.32	8.00	-43.4	-44.9	19.8	0.00e+00	92	32	101	1048576	60	8550
2026-01-07 00:10:18.24	152.31	8.33	-43.4	-44.8	20.0	0.00e+00	0	32	101	1048576	60	8501
2026-01-07 00:10:22.28	152.29	8.66	-43.2	-44.6	20.1	0.00e+00	0	32	101	1048576	60	8314
2026-01-07 00:10:26.32	152.28	9.00	-43.1	-44.5	20.3	0.00e+00	92	32	101	1048576	60	8150
2026-01-07 00:10:30.36	152.26	9.34	-43.1	-44.4	20.3	0.00e+00	70	32	101	1048576	60	8118
2026-01-07 00:10:34.41	152.25	9.68	-43.1	-44.4	20.4	0.00e+00	0	32	101	1048576	60	8082
2026-01-07 00:10:38.45	152.23	10.03	-42.8	-44.0	20.7	0.00e+00	0	32	101	1048576	60	7747
2026-01-07 00:10:42.49	152.21	10.39	-42.6	-43.9	20.9	0.00e+00	58	32	101	1048576	60	7624
2026-01-07 00:10:46.54	152.19	10.75	-42.9	-44.2	20.6	0.00e+00	50	32	101	1048576	60	7938
2026-01-07 00:10:50.57	152.17	11.12	-42.5	-43.8	21.1	0.00e+00	0	32	101	1048576	60	7514
2026-01-07 00:10:54.62	152.15	11.49	-42.0	-43.1	21.6	0.00e+00	57	32	101	1048576	60	6991
2026-01-07 00:10:58.66	152.13	11.87	-41.9	-43.0	21.8	0.00e+00	90	32	101	1048576	60	6926
2026-01-07 00:11:02.70	152.11	12.25	-42.3	-43.5	21.4	0.00e+00	79	32	101	1048576	60	7296
2026-01-07 00:11:06.75	152.09	12.64	-41.8	-42.9	21.8	0.00e+00	0	32	101	1048576	60	6816
2026-01-07 00:11:10.79	152.07	13.04	-41.3	-42.4	22.3	0.00e+00	92	32	101	1048576	60	6400
2026-01-07 00:11:14.83	152.04	13.44	-41.1	-42.2	22.6	0.00e+00	92	32	101	1048576	60	6258
2026-01-07 00:11:18.87	152.01	13.85	-41.2	-42.3	22.4	0.00e+00	0	32	101	1048576	60	6345
2026-01-07 00:11:22.91	151.99	14.27	-41.0	-42.0	22.6	0.00e+00	9	32	101	1048576	60	6153
2026-01-07 00:11:26.95	151.96	14.69	-40.7	-41.7	23.0	0.00e+00	68	32	101	1048576	60	5914
2026-01-07 00:11:31.00	151.93	15.12	-40.5	-41.4	23.1	0.00e+00	91	32	101	1048576	60	5742
2026-01-07 00:11:35.04	151.90	15.56	-40.3	-41.3	23.2	0.00e+00	0	32	101	1048576	60	5631
2026-01-07 00:11:39.09	151.87	16.01	-40.2	-41.2	23.3	0.00e+00	60	32	101	1048576	60	5572
2026-01-07 00:11:43.13	151.83	16.46	-40.2	-41.2	23.4	0.00e+00	72	32	101	1048576	60	5567
2026-01-07 00:11:47.17	151.80	16.93	-39.9	-40.7	23.5	0.00e+00	0	32	101	1048576	58	5959
2026-01-07 00:11:51.21	151.76	17.40	-40.1	-41.0	23.4	0.00e+00	0	32	101	1048576	58	6144
2026-01-07 00:11:55.26	151.73	17.88	-40.3	-41.2	23.5	0.00e+00	92	32	101	1048576	58	6263
2026-01-07 00:11:59.29	151.69	18.37	-40.0	-40.9	23.6	0.00e+00	92	32	101	1048576	58	6100
2026-01-07 00:12:03.32	151.65	18.88	-39.7	-40.6	23.8	0.00e+00	0	32	101	1048576	58	5849
2026-01-07 00:12:07.35	151.60	19.39	-39.9	-40.8	23.7	0.00e+00	0	32	101	1048576	58	5965
2026-01-07 00:12:11.38	151.56	19.91	-40.0	-40.9	23.5	0.00e+00	71	32	101	1048576	58	6059
2026-01-07 00:12:15.42	151.51	20.44	-40.3	-41.2	23.5	0.00e+00	92	32	101	1048576	58	6280
2026-01-07 00:12:19.47	151.46	20.99	-40.2	-41.1	23.5	0.00e+00	0	32	101	1048576	58	6238
2026-01-07 00:12:23.51	151.41	21.55	-40.4	-41.3	23.3	0.00e+00	58	32	101	1048576	58	6354
2026-01-07 00:12:27.55	151.36	22.12	-40.6	-41.5	23.2	0.00e+00	92	32	101	1048576	58	6519
2026-01-07 00:12:31.59	151.30	22.70	-40.6	-41.5	23.1	0.00e+00	90	32	101	1048576	58	6527
2026-01-07 00:12:35.63	151.24	23.30	-40.2	-41.1	23.5	0.00e+00	0	32	101	1048576	58	6237
2026-01-07 00:12:39.67	151.18	23.91	-39.9	-40.8	23.8	0.00e+00	92	32	101	1048576	58	5995
2026-01-07 00:12:43.72	151.11	24.54	-40.2	-41.1	23.5	0.00e+00	90	32	101	1048576	58	6183
2026-01-07 00:12:47.76	151.05	25.18	-40.1	-41.0	23.6	0.00e+00	0	32	101	1048576	58	6137
2026-01-07 00:12:51.80	150.97	25.83	-40.7	-41.6	23.1	0.00e+00	0	32	101	1048576	58	6611
2026-01-07 00:12:55.84	150.90	26.51	-40.2	-41.1	23.6	0.00e+00	92	32	101	1048576	58	6227
2026-01-07 00:12:59.88	150.82	27.20	-40.7	-41.6	22.9	0.00e+00	92	32	101	1048576	58	6612
2026-01-07 00:13:03.93	150.74	27.91	-41.0	-41.9	22.9	0.00e+00	0	32	101	1048576	60	6096
2026-01-07 00:13:07.97	150.65	28.63	-40.8	-41.7	23.0	0.00e+00	0	32	101	1048576	60	5948
2026-01-07 00:13:12.01	150.56	29.38	-41.7	-42.7	22.5	0.00e+00	79	32	101	1048576	60	6671
2026-01-07 00:13:16.06	150.46	30.15	-42.1	-43.2	21.9	0.00e+00	91	32	101	1048576	60	7042
2026-01-07 00:13:20.10	150.36	30.93	-42.0	-43.1	22.2	0.00e+00	0	32	101	1048576	60	6935
2026-01-07 00:13:24.15	150.25	31.75	-43.6	-45.0	20.5	0.00e+00	92	32	101	1048576	60	8624
2026-01-07 00:13:28.19	150.13	32.58	-43.2	-44.4	20.9	0.00e+00	92	32	101	1048576	60	8110
2026-01-07 00:13:32.23	150.01	33.43	-43.6	-44.9	20.6	0.00e+00	38	32	101	1048576	60	8535
2026-01-07 00:13:36.27	149.88	34.31	-42.2	-43.3	21.9	0.00e+00	0	32	101	1048576	60	7127
2026-01-07 00:13:40.32	149.74	35.22	-40.8	-41.7	23.1	0.00e+00	92	32	101	1048576	60	5925
2026-01-07 00:13:44.36	149.60	36.15	-39.5	-40.3	24.2	0.00e+00	91	32	101	1048576	58	5661
2026-01-07 00:13:48.40	149.44	37.11	-38.9	-39.7	24.6	0.00e+00	0	32	101	1048576	56	5907
2026-01-07 00:13:52.45	149.27	38.10	-39.3	-40.2	24.4	0.00e+00	11	32	101	1048576	56	6249
2026-01-07 00:13:56.49	149.10	39.12	-40.4	-41.3	23.5	0.00e+00	92	32	101	1048576	58	6341
2026-01-07 00:14:00.53	148.90	40.16	-40.6	-41.6	23.1	0.00e+00	92	32	101	1048576	58	6561
2026-01-07 00:14:04.58	148.70	41.24	-41.2	-42.2	23.0	0.00e+00	0	32	101	1048576	60	6298
2026-01-07 00:14:08.62	148.48	42.36	-41.0	-42.0	23.1	0.00e+00	91	32	101	1048576	60	6112
2026-01-07 00:14:12.66	148.25	43.50	-41.9	-42.9	22.3	0.00e+00	92	32	101	1048576	60	6836
2026-01-07 00:14:16.70	147.99	44.68	-41.1	-42.0	22.9	0.00e+00	0	32	101	1048576	60	6164
2026-01-07 00:14:20.75	147.71	45.90	-41.7	-42.8	22.4	0.00e+00	0	32	101	1048576	60	6704
2026-01-07 00:14:24.79	147.41	47.15	-42.3	-43.4	21.9	0.00e+00	92	32	101	1048576	60	7203
2026-01-07 00:14:28.83	147.09	48.44	-42.7	-43.9	21.4	0.00e+00	92	32	101	1048576	60	7615
2026-01-07 00:14:32.87	146.73	49.76	-41.1	-42.1	23.1	0.00e+00	33	32	101	1048576	60	6220
2026-01-07 00:14:36.91	146.34	51.13	-40.1	-41.0	23.8	0.00e+00	0	32	101	1048576	60	5487
2026-01-07 00:14:40.96	145.91	52.54	-40.6	-41.5	23.3	0.00e+00	73	32	101	1048576	58	6529
2026-01-07 00:14:45.00	145.44	53.98	-41.2	-42.2	23.3	0.00e+00	92	32	101	1048576	60	6294
2026-01-07 00:14:49.04	144.91	55.46	-40.3	-41.2	23.6	0.00e+00	0	32	101	1048576	58	6300
2026-01-07 00:14:53.09	144.32	56.99	-40.9	-41.8	22.9	0.00e+00	62	32	101	1048576	58	6769
2026-01-07 00:14:57.13	143.66	58.55	-43.4	-44.7	20.8	0.00e+00	90	32	101	1048576	60	8371
2026-01-07 00:15:01.17	142.92	60.15	-40.4	-41.3	23.4	0.00e+00	0	32	101	1048576	60	5672
2026-01-07 00:15:05.22	142.07	61.79	-39.9	-40.7	23.5	0.00e+00	0	32	101	1048576	58	5964
2026-01-07 00:15:09.26	141.10	63.45	-39.2	-40.0	24.3	0.00e+00	66	32	101	1048576	58	5491
2026-01-07 00:15:13.31	139.97	65.16	-40.3	-41.2	23.6	0.00e+00	92	32	101	1048576	60	5600
2026-01-07 00:15:17.35	138.66	66.89	-40.1	-41.0	23.3	0.00e+00	0	32	101	1048576	58	6139
2026-01-07 00:15:21.39	137.11	68.64	-41.6	-42.6	22.6	7.00e-07	64	32	101	1048576	60	6576
2026-01-07 00:15:25.44	135.25	70.41	-43.4	-44.7	20.8	0.00e+00	90	32	101	1048576	60	8373
2026-01-07 00:15:29.48	133.00	72.18	-38.4	-39.1	25.0	0.00e+00	79	32	101	1048576	56	5554
2026-01-07 00:15:33.52	130.22	73.95	-39.5	-40.3	23.7	0.00e+00	0	32	101	1048576	56	6376
2026-01-07 00:15:37.56	126.71	75.71	-43.1	-44.4	21.0	0.00e+00	78	32	101	1048576	60	8088
2026-01-07 00:15:41.60	122.19	77.41	-42.5	-43.6	21.7	0.00e+00	92	32	101	1048576	60	7408
2026-01-07 00:15:45.63	116.27	79.03	-42.3	-43.4	21.7	0.00e+00	0	32	101	1048576	60	7236
2026-01-07 00:15:49.67	108.33	80.51	-40.8	-41.7	23.1	0.00e+00	0	32	101	1048576	60	5933
2026-01-07 00:15:53.71	97.70	81.75	-40.4	-41.4	23.4	0.00e+00	62	32	101	1048576	58	6394
2026-01-07 00:15:57.74	83.95	82.63	-41.5	-42.6	22.5	0.00e+00	73	32	101	1048576	60	6553
2026-01-07 00:16:01.78	67.63	82.99	-39.8	-40.6	24.1	0.00e+00	0	32	101	1048576	58	5894
2026-01-07 00:16:05.82	51.00	82.76	-39.7	-40.6	24.0	0.00e+00	0	32	101	1048576	56	6555
2026-01-07 00:16:09.85	36.56	81.99	-40.8	-41.8	23.1	0.00e+00	62	32	101	1048576	60	5979
2026-01-07 00:16:13.90	25.21	80.81	-44.1	-45.6	20.1	0.00e+00	44	32	101	1048576	60	9250
2026-01-07 00:16:17.94	16.73	79.38	-46.3	-48.4	17.4	0.00e+00	0	32	101	1048576	60	12886
2026-01-07 00:16:21.98	10.41	77.78	-41.6	-42.6	22.4	0.00e+00	90	32	101	1048576	60	6607
2026-01-07 00:16:26.03	5.61	76.09	-41.8	-42.9	22.2	0.00e+00	71	32	101	1048576	60	6814
2026-01-07 00:16:30.07	1.91	74.35	-39.9	-40.7	23.9	0.00e+00	0	32	101	1048576	58	5945
2026-01-07 00:16:34.12	358.98	72.58	-44.4	-46.1	19.5	0.00e+00	0	32	101	1048576	60	9839
2026-01-07 00:16:38.16	356.62	70.81	-42.8	-43.9	21.3	0.00e+00	92	32	101	1048576	60	7665
2026-01-07 00:16:42.20	354.69	69.04	-39.5	-40.3	24.2	0.00e+00	92	32	101	1048576	58	5665
2026-01-07 00:16:46.24	353.08	67.29	-39.6	-40.4	24.1	0.00e+00	0	32	101	1048576	58	5736
2026-01-07 00:16:50.29	351.72	65.56	-40.1	-41.0	23.6	0.00e+00	0	32	101	1048576	56	6915
2026-01-07 00:16:54.33	350.56	63.85	-39.7	-40.6	23.8	0.00e+00	64	32	101	1048576	58	5853
2026-01-07 00:16:58.37	349.56	62.18	-40.6	-41.6	23.2	0.00e+00	2	32	101	1048576	60	5838
2026-01-07 00:17:02.42	348.69	60.54	-39.6	-40.4	24.0	0.00e+00	33	32	101	1048576	58	5760
2026-01-07 00:17:06.46	347.93	58.94	-39.0	-39.8	24.4	0.00e+00	92	32	101	1048576	58	5376
2026-01-07 00:17:10.51	347.25	57.37	-39.7	-40.6	23.9	0.00e+00	90	32	101	1048576	56	6607
2026-01-07 00:17:14.55	346.65	55.84	-38.9	-39.7	24.5	0.00e+00	0	32	101	1048576	56	5943
2026-01-07 00:17:18.59	346.11	54.36	-40.7	-41.7	23.3	0.00e+00	0	32	101	1048576	60	5908
2026-01-07 00:17:22.64	345.62	52.91	-38.5	-39.3	24.8	0.00e+00	79	32	101	1048576	56	5647
2026-01-07 00:17:26.68	345.18	51.50	-40.8	-41.7	23.3	0.00e+00	92	32	101	1048576	60	5963
2026-01-07 00:17:30.72	344.79	50.13	-41.1	-42.1	23.2	0.00e+00	0	32	101	1048576	60	6223
2026-01-07 00:17:34.77	344.42	48.79	-43.6	-45.0	20.5	0.00e+00	0	32	101	1048576	60	8662
2026-01-07 00:17:38.81	344.09	47.50	-42.3	-43.5	21.8	0.00e+00	63	32	101	1048576	60	7293
2026-01-07 00:17:42.85	343.79	46.24	-42.3	-43.5	21.7	0.00e+00	0	32	101	1048576	60	7262
2026-01-07 00:17:46.90	343.51	45.02	-43.7	-45.1	20.5	0.00e+00	0	32	101	1048576	60	8777
2026-01-07 00:17:50.94	343.25	43.84	-43.6	-44.9	20.6	0.00e+00	66	32	101	1048576	60	8579
2026-01-07 00:17:54.98	343.01	42.69	-42.8	-44.0	21.3	0.00e+00	91	32	101	1048576	60	7741
2026-01-07 00:17:59.03	342.79	41.57	-44.0	-45.5	20.2	0.00e+00	0	32	101	1048576	60	9160
2026-01-07 00:18:03.07	342.58	40.49	-41.4	-42.5	22.6	0.00e+00	0	32	101	1048576	60	6507
2026-01-07 00:18:07.12	342.39	39.44	-43.3	-44.6	20.8	0.00e+00	65	32	101	1048576	60	8284
2026-01-07 00:18:11.16	342.21	38.42	-43.0	-44.2	21.1	0.00e+00	66	32	101	1048576	60	7880
2026-01-07 00:18:15.21	342.04	37.42	-43.6	-44.9	20.7	0.00e+00	0	32	101	1048576	60	8595
2026-01-07 00:18:19.25	341.89	36.46	-44.1	-45.5	20.2	0.00e+00	0	32	101	1048576	60	9200
2026-01-07 00:18:23.30	341.74	35.52	-41.2	-42.2	22.8	0.00e+00	32	32	101	1048576	60	6251
2026-01-07 00:18:27.34	341.60	34.62	-44.4	-45.9	19.7	0.00e+00	0	32	101	1048576	60	9634
2026-01-07 00:18:31.39	341.47	33.73	-45.6	-47.5	18.2	0.00e+00	0	32	101	1048576	60	11541
2026-01-07 00:18:35.43	341.35	32.87	-42.7	-43.9	21.2	0.00e+00	60	32	101	1048576	60	7622
2026-01-07 00:18:39.47	341.23	32.04	-43.2	-44.5	20.8	0.00e+00	0	32	101	1048576	60	8159
2026-01-07 00:18:43.51	341.12	31.23	-42.1	-43.2	21.9	0.00e+00	0	32	101	1048576	60	7078
2026-01-07 00:18:47.56	341.02	30.44	-41.8	-42.9	22.1	0.00e+00	0	32	101	1048576	60	6776
2026-01-07 00:18:51.60	340.92	29.67	-44.0	-45.5	19.9	0.00e+00	65	32	101	1048576	60	9156
2026-01-07 00:18:55.64	340.83	28.92	-43.8	-45.3	20.1	0.00e+00	0	32	101	1048576	60	8958
2026-01-07 00:18:59.69	340.75	28.19	-41.9	-43.0	22.0	0.00e+00	0	32	101	1048576	60	6905
2026-01-07 00:19:03.73	340.66	27.48	-41.1	-42.1	22.8	0.00e+00	57	32	101	1048576	60	6198
2026-01-07 00:19:07.76	340.58	26.79	-41.6	-42.7	22.3	0.00e+00	88	32	101	1048576	60	6653
2026-01-07 00:19:11.80	340.51	26.11	-41.7	-42.8	22.2	0.00e+00	0	32	101	1048576	60	6713
2026-01-07 00:19:15.83	340.44	25.46	-40.6	-41.6	23.0	0.00e+00	0	32	101	1048576	60	5893
2026-01-07 00:19:19.86	340.37	24.82	-39.8	-40.7	23.7	0.00e+00	23	32	101	1048576	58	5948
2026-01-07 00:19:23.89	340.31	24.19	-39.5	-40.5	23.9	0.00e+00	0	32	101	1048576	58	5779
2026-01-07 00:19:27.93	340.25	23.58	-39.8	-40.8	23.6	0.00e+00	0	32	101	1048576	58	5979
2026-01-07 00:19:31.96	340.19	22.98	-40.9	-41.9	22.8	0.00e+00	0	32	101	1048576	58	6832
2026-01-07 00:19:35.99	340.14	22.40	-41.5	-42.6	22.2	0.00e+00	92	32	101	1048576	60	6582
2026-01-07 00:19:40.02	340.08	21.83	-40.9	-42.0	22.8	0.00e+00	0	32	101	1048576	60	6108
2026-01-07 00:19:44.05	340.03	21.27	-40.6	-41.6	23.1	0.00e+00	0	32	101	1048576	60	5843
2026-01-07 00:19:48.09	339.99	20.72	-41.6	-42.7	22.2	0.00e+00	0	32	101	1048576	60	6690
2026-01-07 00:19:52.12	339.94	20.19	-41.2	-42.3	22.5	0.00e+00	79	32	101	1048576	60	6322
2026-01-07 00:19:56.15	339.90	19.66	-41.8	-42.9	22.0	0.00e+00	0	32	101	1048576	60	6837
2026-01-07 00:20:00.18	339.86	19.15	-41.4	-42.5	22.2	0.00e+00	0	32	101	1048576	60	6496
2026-01-07 00:20:04.21	339.82	18.65	-41.5	-42.6	22.2	0.00e+00	0	32	101	1048576	60	6575
2026-01-07 00:20:08.26	339.78	18.16	-41.0	-42.1	22.6	0.00e+00	69	32	101	1048576	60	6230
2026-01-07 00:20:12.30	339.74	17.67	-41.1	-42.2	22.3	0.00e+00	0	32	101	1048576	60	6277
2026-01-07 00:20:16.34	339.71	17.20	-40.8	-41.8	22.7	0.00e+00	0	32	101	1048576	60	5996
2026-01-07 00:20:20.38	339.68	16.73	-40.4	-41.4	23.1	0.00e+00	46	32	101	1048576	60	5731
2026-01-07 00:20:24.43	339.65	16.28	-40.2	-41.1	23.3	0.00e+00	0	32	101	1048576	60	5543
2026-01-07 00:20:28.47	339.62	15.83	-40.4	-41.4	23.1	0.00e+00	0	32	101	1048576	58	6408
2026-01-07 00:20:32.51	339.59	15.39	-40.9	-41.9	22.6	0.00e+00	0	32	101	1048576	58	6790
2026-01-07 00:20:36.56	339.56	14.95	-41.6	-42.7	22.0	0.00e+00	92	32	101	1048576	60	6635
2026-01-07 00:20:40.60	339.53	14.53	-42.4	-43.6	21.3	0.00e+00	0	32	101	1048576	60	7379
2026-01-07 00:20:44.64	339.51	14.11	-42.9	-44.3	20.6	0.00e+00	0	32	101	1048576	60	7977
2026-01-07 00:20:48.69	339.49	13.70	-42.9	-44.2	20.8	0.00e+00	0	32	101	1048576	60	7879
2026-01-07 00:20:52.73	339.46	13.30	-42.7	-44.0	20.8	0.00e+00	92	32	101	1048576	60	7757
2026-01-07 00:20:56.77	339.44	12.90	-42.3	-43.6	21.2	0.00e+00	0	32	101	1048576	60	7363
2026-01-07 00:21:00.82	339.42	12.51	-42.3	-43.5	21.2	0.00e+00	0	32	101	1048576	60	7325
2026-01-07 00:21:04.86	339.40	12.13	-42.0	-43.2	21.6	0.00e+00	57	32	101	1048576	60	7054
2026-01-07 00:21:08.90	339.38	11.75	-41.9	-43.1	21.7	0.00e+00	0	32	101	1048576	60	6955
2026-01-07 00:21:12.95	339.37	11.38	-41.7	-42.8	21.8	0.00e+00	0	32	101	1048576	60	6748
2026-01-07 00:21:16.99	339.35	11.01	-41.9	-43.1	21.5	0.00e+00	0	32	101	1048576	60	6993
2026-01-07 00:21:21.03	339.33	10.65	-41.9	-43.1	21.5	0.00e+00	92	32	101	1048576	60	6933
2026-01-07 00:21:25.07	339.32	10.29	-41.9	-43.2	21.6	0.00e+00	0	32	101	1048576	60	7013
2026-01-07 00:21:29.12	339.30	9.94	-42.1	-43.4	21.3	0.00e+00	0	32	101	1048576	60	7180
2026-01-07 00:21:33.16	339.29	9.59	-42.2	-43.5	21.1	0.00e+00	9	32	101	1048576	60	7271
2026-01-07 00:21:37.20	339.28	9.25	-42.2	-43.4	21.2	0.00e+00	52	32	101	1048576	60	7250
2026-01-07 00:21:41.25	339.27	8.91	-42.1	-43.4	21.2	0.00e+00	0	32	101	1048576	60	7181
2026-01-07 00:21:45.29	339.25	8.58	-42.1	-43.3	21.3	0.00e+00	0	32	101	1048576	60	7147
2026-01-07 00:21:49.34	339.24	8.25	-42.3	-43.6	21.1	0.00e+00	25	32	101	1048576	60	7387
2026-01-07 00:21:53.38	339.23	7.93	-41.9	-43.1	21.4	0.00e+00	0	32	101	1048576	60	6998
2026-01-07 00:21:57.43	339.22	7.61	-42.1	-43.3	21.3	0.00e+00	0	32	101	1048576	60	7145
2026-01-07 00:22:01.47	339.22	7.29	-41.9	-43.1	21.4	0.00e+00	0	32	101	1048576	60	6997
2026-01-07 00:22:05.51	339.21	6.98	-42.0	-43.2	21.1	0.00e+00	92	32	101	1048576	60	7072
2026-01-07 00:22:09.56	339.20	6.67	-41.8	-43.1	21.3	0.00e+00	0	32	101	1048576	60	6934
2026-01-07 00:22:13.60	339.19	6.37	-42.1	-43.3	21.0	0.00e+00	0	32	101	1048576	60	7164
2026-01-07 00:22:17.64	339.19	6.07	-41.8	-43.0	21.2	0.00e+00	25	32	101	1048576	60	6904
2026-01-07 00:22:21.68	339.18	5.77	-41.9	-43.2	20.9	0.00e+00	92	32	101	1048576	60	7038
2026-01-07 00:22:25.73	339.17	5.47	-42.6	-44.2	19.6	0.00e+00	0	32	101	1048576	60	7869
2026-01-07 00:22:29.77	339.17	5.18	-43.6	-45.6	17.7	0.00e+00	0	32	101	1048576	60	9292
2026-01-07 00:22:33.81	339.16	4.90	-44.9	-48.0	14.4	0.00e+00	48	32	101	1048576	60	12239
2026-01-07 00:22:37.86	339.16	4.61	-45.9	-50.9	10.6	2.15e-03	0	32	101	1048576	60	17039
2026-01-07 00:22:41.90	339.15	4.33	-46.4	-54.1	6.4	1.77e-01	0	32	101	1048576	60	24644
2026-01-07 00:22:45.94	339.15	4.05	-46.5	-57.0	3.9	1.18e+00	0	32	101	1048576	60	34586
2026-01-07 00:22:49.98	339.15	3.77	-46.5	-60.6	3.6	1.50e+00	0	32	104	1048576	60	52057
2026-01-07 00:22:54.02	339.15	3.50	-46.6	-61.9	3.6	1.51e+00	0	32	104	1048576	60	60750
2026-01-07 00:22:58.06	339.14	3.23	-46.5	-61.9	3.6	1.51e+00	0	32	104	1048576	60	60450
2026-01-07 00:23:02.09	339.14	2.96	-50.8	-66.1	3.6	1.51e+00	0	32	104	1048576	60	98905
2026-01-07 00:23:06.13	339.14	2.70	-51.5	-66.9	3.6	1.51e+00	0	32	104	1048576	60	107653
2026-01-07 00:23:10.17	339.14	2.43	-51.4	-66.9	3.6	1.51e+00	0	32	104	1048576	60	108356
2026-01-07 00:23:14.21	339.14	2.17	-51.5	-66.9	3.6	1.51e+00	0	32	104	1048576	60	107318
2026-01-07 00:23:18.25	339.14	1.92	-51.5	-66.9	3.6	1.51e+00	0	32	104	1048576	60	107906
2026-01-07 00:23:22.29	339.14	1.66	-51.5	-66.8	3.5	1.51e+00	0	32	104	1048576	60	107178
2026-01-07 00:23:26.32	339.14	1.41	-51.5	-66.9	3.6	1.51e+00	0	32	104	1048576	60	107864
2026-01-07 00:23:30.36	339.14	1.16	-51.5	-66.9	3.6	1.51e+00	0	32	104	1048576	60	107421
2026-01-07 00:23:34.40	339.14	0.91	-51.5	-66.9	3.5	1.51e+00	0	32	104	1048576	60	107414
2026-01-07 00:23:38.44	339.14	0.66	-51.5	-66.9	3.6	1.51e+00	0	32	104	1048576	60	107325
2026-01-07 00:23:42.48	339.14	0.42	-51.5	-66.9	3.6	1.51e+00	0	32	104	1048576	60	107468
2026-01-07 00:23:46.52	339.14	0.17	-51.5	-66.8	3.6	1.51e+00	0	32	104	1048576	60	107247

#Closed at: 2026-01-07 00:23:49
#Recorded file [1 MB]: D:/lorett/data/35034_260107_030821.dat