passes_logs/2026/01/07/R4.6S_Anadyr_2ch/R4.6S_Anadyr_2ch__20260107_155519_NOAA_20_JPSS-1_rec.log

#Pass ID: 20260107_155519_NOAA 20 (JPSS-1)
#Satellite: NOAA 20 (JPSS-1)
#Configuration: NOAA 20
#almurnet v.1.7.20251203
#Start time: 2026-01-07 15:55:20

#Version: 2.2.20231116
#Station: R4.6S_Anadyr_2ch
#Location: 177.4865 lon 64.73178 lat
#TLE: 1 43013U 17073A   25350.93759711  .00000080  00000+0  58734-4 0  9994
#TLE: 2 43013  98.7603 287.1885 0002156  81.1496 278.9924 14.19526878418610

#Time	Az	El	Level	Level2	SNR	BER	BlckErr	Temp	State	Recorded	gain1	gain2
2026-01-07 15:55:20.03	23.93	0.05	-51.9	-67.0	3.5	1.51e+00	0	32	0	0	60	109096
2026-01-07 15:55:24.07	23.82	0.29	-51.8	-67.3	3.6	1.51e+00	0	34	104	0	60	113190
2026-01-07 15:55:28.11	23.70	0.53	-51.9	-67.2	3.6	1.51e+00	0	34	104	0	60	112340
2026-01-07 15:55:32.16	23.59	0.77	-51.5	-66.8	3.6	1.51e+00	0	34	104	0	60	106567
2026-01-07 15:55:36.20	23.47	1.01	-50.5	-65.8	3.6	1.51e+00	0	34	104	0	60	94937
2026-01-07 15:55:40.24	23.35	1.25	-50.5	-65.8	3.6	1.51e+00	0	34	104	0	60	95340
2026-01-07 15:55:44.29	23.23	1.50	-50.5	-65.8	3.6	1.51e+00	0	34	104	0	60	95073
2026-01-07 15:55:48.33	23.10	1.75	-50.5	-65.8	3.6	1.51e+00	0	34	104	0	60	94822
2026-01-07 15:55:52.38	22.97	2.00	-50.5	-65.5	3.6	1.51e+00	0	34	104	0	60	91938
2026-01-07 15:55:56.42	22.84	2.25	-50.5	-65.8	3.6	1.51e+00	0	34	104	0	60	95226
2026-01-07 15:56:00.46	22.71	2.50	-50.5	-65.7	3.6	1.51e+00	0	34	104	0	60	93552
2026-01-07 15:56:04.50	22.57	2.76	-50.4	-64.8	3.6	1.51e+00	0	34	104	0	60	84489
2026-01-07 15:56:08.55	22.44	3.02	-50.5	-65.5	3.6	1.51e+00	0	34	104	0	60	91473
2026-01-07 15:56:12.59	22.29	3.28	-50.2	-59.7	4.7	1.05e+00	7	34	0	0	60	46847
2026-01-07 15:56:16.64	22.15	3.54	-49.1	-54.6	9.8	1.27e-02	90	34	102	1048576	60	26088
2026-01-07 15:56:20.68	22.00	3.80	-49.3	-55.5	6.2	1.45e+00	0	34	104	1048576	60	29083
2026-01-07 15:56:24.72	21.85	4.07	-43.5	-44.8	20.1	0.00e+00	26	34	0	1048576	60	8522
2026-01-07 15:56:28.76	21.70	4.34	-43.1	-44.4	20.6	0.00e+00	21	34	0	1048576	60	8109
2026-01-07 15:56:32.81	21.55	4.61	-42.9	-44.1	21.0	0.00e+00	90	34	0	1048576	60	7814
2026-01-07 15:56:36.85	21.39	4.89	-42.7	-44.0	21.1	0.00e+00	0	34	0	1048576	60	7695
2026-01-07 15:56:40.89	21.23	5.17	-42.8	-44.0	21.1	0.00e+00	21	34	0	1048576	60	7769
2026-01-07 15:56:44.94	21.06	5.45	-42.8	-44.0	21.2	0.00e+00	21	34	101	1048576	60	7695
2026-01-07 15:56:48.98	20.89	5.73	-42.7	-43.9	21.2	0.00e+00	92	34	101	1048576	60	7620
2026-01-07 15:56:53.03	20.72	6.02	-42.6	-43.8	21.4	0.00e+00	56	34	101	1048576	60	7543
2026-01-07 15:56:57.07	20.54	6.30	-42.7	-43.9	21.3	0.00e+00	0	35	101	1048576	60	7632
2026-01-07 15:57:01.11	20.36	6.59	-42.6	-43.8	21.6	0.00e+00	0	35	101	1048576	60	7539
2026-01-07 15:57:05.15	20.17	6.89	-42.7	-43.9	21.5	0.00e+00	91	34	101	1048576	60	7606
2026-01-07 15:57:09.20	19.99	7.19	-42.7	-43.8	21.5	0.00e+00	60	34	101	1048576	60	7576
2026-01-07 15:57:13.24	19.79	7.49	-42.5	-43.7	21.7	0.00e+00	0	34	101	1048576	60	7448
2026-01-07 15:57:17.29	19.59	7.79	-42.6	-43.7	21.7	0.00e+00	0	35	101	1048576	60	7484
2026-01-07 15:57:21.33	19.39	8.10	-42.5	-43.7	21.8	0.00e+00	92	34	101	1048576	60	7427
2026-01-07 15:57:25.37	19.19	8.41	-42.3	-43.4	22.0	0.00e+00	27	35	101	1048576	60	7253
2026-01-07 15:57:29.42	18.97	8.73	-42.4	-43.5	21.9	0.00e+00	56	35	101	1048576	60	7290
2026-01-07 15:57:33.46	18.76	9.04	-42.2	-43.2	22.2	0.00e+00	92	35	101	1048576	60	7077
2026-01-07 15:57:37.50	18.54	9.36	-42.1	-43.1	22.4	0.00e+00	32	35	101	1048576	60	6993
2026-01-07 15:57:41.55	18.31	9.69	-42.0	-43.0	22.5	0.00e+00	27	35	101	1048576	60	6884
2026-01-07 15:57:45.59	18.08	10.02	-42.0	-43.0	22.5	0.00e+00	5	35	101	1048576	60	6923
2026-01-07 15:57:49.63	17.84	10.35	-41.8	-42.9	22.7	0.00e+00	92	35	101	1048576	60	6776
2026-01-07 15:57:53.68	17.59	10.69	-41.9	-42.9	22.6	0.00e+00	7	35	101	1048576	60	6790
2026-01-07 15:57:57.72	17.34	11.03	-41.7	-42.7	22.8	0.00e+00	0	35	101	1048576	60	6691
2026-01-07 15:58:01.76	17.09	11.38	-41.7	-42.7	22.8	0.00e+00	56	35	101	1048576	60	6659
2026-01-07 15:58:05.80	16.82	11.73	-41.5	-42.5	23.1	0.00e+00	92	35	101	1048576	60	6497
2026-01-07 15:58:09.84	16.56	12.08	-41.5	-42.4	23.0	0.00e+00	0	35	101	1048576	60	6464
2026-01-07 15:58:13.88	16.28	12.44	-41.5	-42.5	23.2	0.00e+00	0	35	101	1048576	60	6476
2026-01-07 15:58:17.92	16.00	12.80	-41.6	-42.5	23.1	0.00e+00	0	35	101	1048576	60	6525
2026-01-07 15:58:21.97	15.70	13.17	-41.1	-42.0	23.5	0.00e+00	92	35	101	1048576	60	6145
2026-01-07 15:58:26.01	15.40	13.54	-41.2	-42.1	23.5	0.00e+00	2	35	101	1048576	60	6213
2026-01-07 15:58:30.05	15.10	13.92	-41.1	-42.1	23.5	0.00e+00	0	35	101	1048576	60	6188
2026-01-07 15:58:34.10	14.78	14.30	-41.1	-42.1	23.5	0.00e+00	0	35	101	1048576	60	6179
2026-01-07 15:58:38.14	14.46	14.69	-41.2	-42.2	23.5	0.00e+00	79	35	101	1048576	60	6255
2026-01-07 15:58:42.19	14.12	15.09	-41.1	-42.0	23.5	0.00e+00	0	35	101	1048576	60	6170
2026-01-07 15:58:46.23	13.78	15.48	-41.2	-42.2	23.5	0.00e+00	49	35	101	1048576	60	6252
2026-01-07 15:58:50.27	13.43	15.89	-41.3	-42.2	23.4	0.00e+00	25	35	101	1048576	60	6284
2026-01-07 15:58:54.32	13.06	16.30	-41.3	-42.2	23.4	0.00e+00	26	35	101	1048576	60	6287
2026-01-07 15:58:58.36	12.69	16.71	-41.3	-42.2	23.5	0.00e+00	0	35	101	1048576	60	6295
2026-01-07 15:59:02.40	12.31	17.13	-41.3	-42.3	23.5	0.00e+00	52	35	101	1048576	60	6332
2026-01-07 15:59:06.45	11.91	17.56	-41.6	-42.5	23.2	0.00e+00	92	35	101	1048576	60	6524
2026-01-07 15:59:10.49	11.50	18.00	-41.7	-42.6	23.2	0.00e+00	0	35	101	1048576	60	6605
2026-01-07 15:59:14.53	11.09	18.43	-41.7	-42.7	23.1	0.00e+00	27	35	101	1048576	60	6651
2026-01-07 15:59:18.58	10.65	18.88	-41.6	-42.5	23.3	0.00e+00	31	35	101	1048576	60	6501
2026-01-07 15:59:22.62	10.21	19.33	-41.8	-42.7	23.1	0.00e+00	91	35	101	1048576	60	6677
2026-01-07 15:59:26.67	9.75	19.79	-41.6	-42.6	23.0	0.00e+00	0	35	101	1048576	60	6556
2026-01-07 15:59:30.71	9.27	20.26	-41.6	-42.5	23.2	0.00e+00	0	35	101	1048576	60	6533
2026-01-07 15:59:34.76	8.78	20.73	-41.7	-42.6	23.2	0.00e+00	19	35	101	1048576	60	6613
2026-01-07 15:59:38.80	8.28	21.21	-41.7	-42.7	23.2	0.00e+00	92	35	101	1048576	60	6670
2026-01-07 15:59:42.84	7.76	21.69	-41.7	-42.7	23.1	0.00e+00	0	35	101	1048576	60	6643
2026-01-07 15:59:46.89	7.22	22.18	-41.6	-42.5	23.4	0.00e+00	0	35	101	1048576	60	6507
2026-01-07 15:59:50.93	6.66	22.68	-41.7	-42.6	22.9	0.00e+00	0	35	101	1048576	60	6613
2026-01-07 15:59:54.97	6.09	23.19	-41.7	-42.7	23.3	0.00e+00	55	35	101	1048576	60	6641
2026-01-07 15:59:59.02	5.49	23.70	-41.6	-42.6	23.3	0.00e+00	47	35	101	1048576	60	6573
2026-01-07 16:00:03.06	4.88	24.22	-41.9	-42.9	23.0	0.00e+00	0	35	101	1048576	60	6820
2026-01-07 16:00:07.10	4.24	24.74	-41.8	-42.8	23.2	0.00e+00	90	35	101	1048576	60	6722
2026-01-07 16:00:11.15	3.58	25.28	-42.2	-43.3	22.6	0.00e+00	0	35	101	1048576	60	7109
2026-01-07 16:00:15.19	2.90	25.81	-41.9	-42.9	23.1	0.00e+00	45	35	101	1048576	60	6774
2026-01-07 16:00:19.23	2.19	26.36	-41.9	-42.8	23.1	0.00e+00	0	35	101	1048576	60	6769
2026-01-07 16:00:23.28	1.46	26.91	-41.8	-42.8	23.1	0.00e+00	92	35	101	1048576	60	6702
2026-01-07 16:00:27.32	0.70	27.47	-42.0	-43.0	22.4	0.00e+00	0	35	101	1048576	60	6895
2026-01-07 16:00:31.36	359.92	28.03	-42.1	-43.1	22.9	0.00e+00	50	35	101	1048576	60	6973
2026-01-07 16:00:35.41	359.11	28.60	-42.4	-43.5	22.5	0.00e+00	0	35	101	1048576	60	7271
2026-01-07 16:00:39.45	358.26	29.17	-43.2	-44.4	21.7	0.00e+00	91	35	101	1048576	60	8088
2026-01-07 16:00:43.50	357.39	29.75	-43.8	-45.0	21.0	0.00e+00	0	35	101	1048576	60	8715
2026-01-07 16:00:47.54	356.48	30.33	-44.8	-46.3	19.9	0.00e+00	34	35	101	1048576	60	10035
2026-01-07 16:00:51.58	355.54	30.91	-45.3	-46.9	19.3	0.00e+00	58	35	101	1048576	60	10797
2026-01-07 16:00:55.63	354.56	31.50	-45.1	-46.6	19.5	0.00e+00	91	35	101	1048576	60	10484
2026-01-07 16:00:59.67	353.55	32.09	-44.7	-46.1	20.0	0.00e+00	7	35	101	1048576	60	9868
2026-01-07 16:01:03.72	352.50	32.68	-45.2	-46.7	19.5	0.00e+00	0	35	101	1048576	60	10598
2026-01-07 16:01:07.76	351.41	33.27	-45.0	-46.5	19.7	0.00e+00	0	35	101	1048576	60	10289
2026-01-07 16:01:11.81	350.28	33.86	-44.7	-46.1	20.1	0.00e+00	92	35	101	1048576	60	9831
2026-01-07 16:01:15.85	349.11	34.44	-44.0	-45.3	21.0	0.00e+00	0	35	101	1048576	60	9000
2026-01-07 16:01:19.89	347.89	35.03	-43.5	-44.7	21.6	0.00e+00	0	35	101	1048576	60	8371
2026-01-07 16:01:23.94	346.63	35.61	-43.2	-44.3	22.0	0.00e+00	9	35	101	1048576	60	8013
2026-01-07 16:01:27.98	345.32	36.18	-43.0	-44.1	22.1	0.00e+00	35	35	101	1048576	60	7813
2026-01-07 16:01:32.02	343.97	36.74	-43.6	-44.7	21.6	0.00e+00	45	35	101	1048576	60	8421
2026-01-07 16:01:36.07	342.57	37.30	-43.4	-44.5	21.6	0.00e+00	0	35	101	1048576	60	8227
2026-01-07 16:01:40.11	341.12	37.85	-43.0	-44.1	22.1	0.00e+00	90	35	101	1048576	60	7830
2026-01-07 16:01:44.15	339.62	38.38	-43.5	-44.6	21.5	0.00e+00	51	35	101	1048576	60	8327
2026-01-07 16:01:48.20	338.07	38.90	-43.2	-44.3	21.8	0.00e+00	46	35	101	1048576	60	8017
2026-01-07 16:01:52.24	336.47	39.40	-42.6	-43.6	22.5	0.00e+00	52	35	101	1048576	60	7421
2026-01-07 16:01:56.28	334.83	39.88	-42.2	-43.2	22.8	0.00e+00	92	35	101	1048576	60	7066
2026-01-07 16:02:00.32	333.13	40.33	-41.2	-42.1	23.8	0.00e+00	0	35	101	1048576	60	6191
2026-01-07 16:02:04.37	331.39	40.77	-41.4	-42.3	23.7	0.00e+00	47	35	101	1048576	60	6345
2026-01-07 16:02:08.41	329.60	41.18	-41.8	-42.8	23.2	0.00e+00	52	35	101	1048576	60	6726
2026-01-07 16:02:12.45	327.76	41.56	-42.4	-43.5	22.8	0.00e+00	90	35	101	1048576	60	7271
2026-01-07 16:02:16.49	325.89	41.91	-41.1	-42.0	24.0	0.00e+00	36	35	101	1048576	60	6105
2026-01-07 16:02:20.54	323.97	42.23	-41.2	-42.1	23.8	0.00e+00	34	35	101	1048576	60	6227
2026-01-07 16:02:24.58	322.02	42.52	-41.4	-42.3	23.6	0.00e+00	2	35	101	1048576	60	6351
2026-01-07 16:02:28.62	320.03	42.76	-40.7	-41.6	24.3	0.00e+00	90	35	101	1048576	60	5847
2026-01-07 16:02:32.67	318.01	42.97	-41.5	-42.4	23.5	0.00e+00	6	35	101	1048576	60	6422
2026-01-07 16:02:36.71	315.97	43.14	-40.9	-41.8	24.2	0.00e+00	35	35	101	1048576	60	5971
2026-01-07 16:02:40.75	313.92	43.27	-41.5	-42.4	23.6	0.00e+00	75	35	101	1048576	60	6448
2026-01-07 16:02:44.80	311.84	43.36	-42.2	-43.2	22.9	0.00e+00	52	35	101	1048576	60	7017
2026-01-07 16:02:48.84	309.76	43.41	-42.3	-43.3	22.8	0.00e+00	0	35	101	1048576	60	7112
2026-01-07 16:02:52.89	307.67	43.41	-42.3	-43.3	22.1	0.00e+00	0	35	101	1048576	60	7094
2026-01-07 16:02:56.93	305.59	43.37	-43.1	-44.3	21.9	0.00e+00	92	35	101	1048576	60	7959
2026-01-07 16:03:00.98	303.51	43.29	-43.9	-45.2	21.2	0.00e+00	46	35	101	1048576	60	8846
2026-01-07 16:03:05.02	301.45	43.17	-43.9	-45.1	21.1	0.00e+00	44	35	101	1048576	60	8821
2026-01-07 16:03:09.07	299.40	43.00	-44.8	-46.2	20.2	0.00e+00	0	35	101	1048576	60	9905
2026-01-07 16:03:13.11	297.38	42.80	-44.9	-46.3	20.2	0.00e+00	92	35	101	1048576	60	10064
2026-01-07 16:03:17.15	295.39	42.55	-45.2	-46.7	19.5	0.00e+00	47	35	101	1048576	60	10582
2026-01-07 16:03:21.20	293.42	42.28	-44.4	-45.8	20.8	0.00e+00	46	35	101	1048576	60	9468
2026-01-07 16:03:25.24	291.50	41.96	-43.6	-44.8	21.5	0.00e+00	47	35	101	1048576	60	8455
2026-01-07 16:03:29.28	289.62	41.62	-42.7	-43.8	22.4	0.00e+00	92	35	101	1048576	60	7539
2026-01-07 16:03:33.33	287.77	41.24	-42.4	-43.4	22.7	0.00e+00	0	35	101	1048576	60	7207
2026-01-07 16:03:37.37	285.97	40.83	-42.4	-43.4	23.0	0.00e+00	30	35	101	1048576	60	7209
2026-01-07 16:03:41.41	284.22	40.40	-41.8	-42.7	23.6	0.00e+00	68	35	101	1048576	60	6670
2026-01-07 16:03:45.46	282.51	39.94	-41.4	-42.4	23.7	0.00e+00	92	35	101	1048576	60	6395
2026-01-07 16:03:49.50	280.85	39.46	-39.5	-40.3	25.3	0.00e+00	34	35	101	1048576	58	5639
2026-01-07 16:03:53.55	279.24	38.96	-39.6	-40.4	25.3	0.00e+00	5	35	101	1048576	58	5738
2026-01-07 16:03:57.59	277.69	38.45	-39.6	-40.4	25.2	0.00e+00	46	35	101	1048576	58	5725
2026-01-07 16:04:01.63	276.18	37.92	-40.1	-40.9	24.9	0.00e+00	0	35	101	1048576	58	6057
2026-01-07 16:04:05.68	274.72	37.37	-40.4	-41.2	24.5	0.00e+00	0	35	101	1048576	58	6314
2026-01-07 16:04:09.72	273.31	36.82	-40.7	-41.5	24.3	0.00e+00	0	35	101	1048576	58	6512
2026-01-07 16:04:13.77	271.94	36.25	-41.1	-42.0	23.9	0.00e+00	90	35	101	1048576	58	6889
2026-01-07 16:04:17.81	270.63	35.68	-42.0	-42.9	23.2	0.00e+00	46	35	101	1048576	60	6838
2026-01-07 16:04:21.85	269.36	35.10	-42.3	-43.3	22.8	0.00e+00	0	35	101	1048576	60	7127
2026-01-07 16:04:25.90	268.13	34.51	-42.6	-43.6	22.5	0.00e+00	25	35	101	1048576	60	7373
2026-01-07 16:04:29.94	266.95	33.92	-43.3	-44.4	21.7	0.00e+00	92	35	101	1048576	60	8134
2026-01-07 16:04:33.98	265.81	33.33	-43.9	-45.2	21.0	0.00e+00	34	35	101	1048576	60	8832
2026-01-07 16:04:38.03	264.71	32.74	-44.1	-45.4	21.1	0.00e+00	0	35	101	1048576	60	9028
2026-01-07 16:04:42.07	263.65	32.15	-44.1	-45.4	20.9	0.00e+00	0	35	101	1048576	60	9073
2026-01-07 16:04:46.12	262.63	31.56	-44.2	-45.4	20.8	0.00e+00	92	35	101	1048576	60	9127
2026-01-07 16:04:50.16	261.65	30.97	-43.9	-45.2	21.1	0.00e+00	0	35	101	1048576	60	8839
2026-01-07 16:04:54.21	260.70	30.38	-43.4	-44.5	21.6	0.00e+00	45	35	101	1048576	60	8227
2026-01-07 16:04:58.25	259.78	29.80	-43.1	-44.2	22.0	0.00e+00	35	35	101	1048576	60	7887
2026-01-07 16:05:02.29	258.90	29.22	-42.5	-43.5	22.6	0.00e+00	40	35	101	1048576	60	7299
2026-01-07 16:05:06.33	258.05	28.65	-42.5	-43.5	22.6	0.00e+00	0	35	101	1048576	60	7291
2026-01-07 16:05:10.38	257.23	28.08	-42.4	-43.4	22.7	0.00e+00	56	35	101	1048576	60	7205
2026-01-07 16:05:14.42	256.44	27.51	-42.3	-43.3	22.7	0.00e+00	92	35	101	1048576	60	7144
2026-01-07 16:05:18.47	255.67	26.95	-41.9	-42.8	23.2	0.00e+00	76	35	101	1048576	60	6742
2026-01-07 16:05:22.51	254.94	26.40	-42.4	-43.4	22.5	0.00e+00	0	35	101	1048576	60	7249
2026-01-07 16:05:26.55	254.23	25.85	-42.5	-43.5	22.5	0.00e+00	54	35	101	1048576	60	7323
2026-01-07 16:05:30.60	253.54	25.31	-42.2	-43.2	22.8	0.00e+00	90	35	101	1048576	60	7017
2026-01-07 16:05:34.64	252.87	24.78	-42.8	-43.9	22.2	0.00e+00	7	35	101	1048576	60	7627
2026-01-07 16:05:38.68	252.23	24.25	-43.1	-44.2	21.9	0.00e+00	7	35	101	1048576	60	7924
2026-01-07 16:05:42.73	251.61	23.73	-42.6	-43.7	22.3	0.00e+00	0	35	101	1048576	60	7447
2026-01-07 16:05:46.77	251.01	23.21	-42.5	-43.5	22.5	0.00e+00	92	35	101	1048576	60	7306
2026-01-07 16:05:50.82	250.43	22.70	-42.3	-43.3	22.7	0.00e+00	50	35	101	1048576	60	7144
2026-01-07 16:05:54.86	249.87	22.20	-42.6	-43.7	22.2	0.00e+00	2	35	101	1048576	60	7431
2026-01-07 16:05:58.90	249.33	21.71	-42.7	-43.8	22.2	0.00e+00	0	35	101	1048576	60	7572
2026-01-07 16:06:02.94	248.80	21.22	-42.6	-43.7	22.3	0.00e+00	92	35	101	1048576	60	7465
2026-01-07 16:06:06.98	248.29	20.74	-42.6	-43.7	22.1	0.00e+00	31	35	101	1048576	60	7450
2026-01-07 16:06:11.03	247.80	20.27	-42.6	-43.6	22.3	0.00e+00	0	35	101	1048576	60	7399
2026-01-07 16:06:15.07	247.32	19.80	-42.6	-43.6	22.3	0.00e+00	0	35	101	1048576	60	7418
2026-01-07 16:06:19.12	246.85	19.34	-42.8	-43.9	22.2	0.00e+00	0	35	101	1048576	60	7607
2026-01-07 16:06:23.16	246.40	18.89	-42.5	-43.5	22.4	0.00e+00	50	35	101	1048576	60	7309
2026-01-07 16:06:27.21	245.97	18.44	-42.4	-43.4	22.5	0.00e+00	0	35	101	1048576	60	7235
2026-01-07 16:06:31.25	245.54	18.00	-42.2	-43.2	22.6	0.00e+00	92	35	101	1048576	60	7060
2026-01-07 16:06:35.29	245.13	17.56	-42.3	-43.3	22.6	0.00e+00	0	35	101	1048576	60	7133
2026-01-07 16:06:39.34	244.73	17.13	-42.5	-43.6	22.3	0.00e+00	23	35	101	1048576	60	7385
2026-01-07 16:06:43.38	244.34	16.71	-42.7	-43.8	22.1	0.00e+00	0	35	101	1048576	60	7553
2026-01-07 16:06:47.43	243.97	16.29	-42.9	-44.0	21.9	0.00e+00	90	35	101	1048576	60	7755
2026-01-07 16:06:51.47	243.60	15.88	-42.7	-43.8	22.1	0.00e+00	0	35	101	1048576	60	7587
2026-01-07 16:06:55.51	243.24	15.47	-42.6	-43.7	22.2	0.00e+00	28	35	101	1048576	60	7476
2026-01-07 16:06:59.56	242.90	15.07	-43.0	-44.1	21.8	0.00e+00	57	35	101	1048576	60	7828
2026-01-07 16:07:03.60	242.56	14.68	-43.1	-44.2	21.6	0.00e+00	92	35	101	1048576	60	7926
2026-01-07 16:07:07.64	242.23	14.29	-43.3	-44.5	21.3	0.00e+00	8	35	101	1048576	60	8197
2026-01-07 16:07:11.69	241.91	13.90	-43.6	-44.8	21.0	0.00e+00	0	35	101	1048576	60	8501
2026-01-07 16:07:15.73	241.60	13.52	-43.9	-45.3	20.5	0.00e+00	0	35	101	1048576	60	8936
2026-01-07 16:07:19.78	241.30	13.15	-44.1	-45.5	20.4	0.00e+00	91	35	101	1048576	60	9141
2026-01-07 16:07:23.82	241.00	12.78	-44.3	-45.8	20.0	0.00e+00	54	35	101	1048576	60	9480
2026-01-07 16:07:27.86	240.71	12.42	-44.7	-46.2	19.5	0.00e+00	0	35	101	1048576	60	9976
2026-01-07 16:07:31.91	240.43	12.06	-45.0	-46.6	19.0	0.00e+00	67	35	101	1048576	60	10474
2026-01-07 16:07:35.95	240.16	11.70	-45.3	-47.0	18.6	0.00e+00	90	35	101	1048576	60	10900
2026-01-07 16:07:39.99	239.89	11.35	-45.5	-47.3	18.3	0.00e+00	58	35	101	1048576	60	11314
2026-01-07 16:07:44.03	239.63	11.00	-45.7	-47.6	17.9	0.00e+00	0	35	101	1048576	60	11695
2026-01-07 16:07:48.07	239.38	10.66	-46.1	-48.2	17.3	0.00e+00	92	35	101	1048576	60	12527
2026-01-07 16:07:52.11	239.13	10.32	-46.5	-48.7	16.7	0.00e+00	29	35	101	1048576	60	13245
2026-01-07 16:07:56.15	238.89	9.99	-47.0	-49.6	15.9	0.00e+00	27	35	101	1048576	60	14650
2026-01-07 16:08:00.20	238.66	9.66	-47.5	-50.3	15.0	0.00e+00	0	35	101	1048576	60	15995
2026-01-07 16:08:04.24	238.43	9.33	-48.0	-51.1	14.2	7.00e-07	92	35	101	1048576	60	17568
2026-01-07 16:08:08.28	238.20	9.01	-48.3	-51.8	13.5	1.06e-05	0	35	101	1048576	60	18885
2026-01-07 16:08:12.33	237.98	8.69	-48.6	-52.4	12.8	5.79e-05	20	35	101	1048576	60	20314
2026-01-07 16:08:16.37	237.76	8.37	-48.8	-52.9	12.1	1.72e-04	26	35	101	1048576	60	21629
2026-01-07 16:08:20.42	237.55	8.06	-49.0	-53.6	11.4	8.67e-04	91	35	101	1048576	60	23206
2026-01-07 16:08:24.46	237.35	7.75	-49.3	-54.3	10.5	3.31e-03	6	35	101	1048576	60	25421
2026-01-07 16:08:28.51	237.15	7.45	-49.5	-55.1	9.5	1.12e-02	25	35	101	1048576	60	27790
2026-01-07 16:08:32.55	236.95	7.15	-49.7	-55.8	8.6	3.48e-02	0	35	101	1048576	60	30128
2026-01-07 16:08:36.59	236.76	6.85	-49.9	-56.7	7.4	9.71e-02	92	35	101	1048576	60	33477
2026-01-07 16:08:40.64	236.57	6.55	-50.0	-57.5	6.5	2.06e-01	66	35	101	1048576	60	36731
2026-01-07 16:08:44.68	236.39	6.26	-50.1	-58.4	5.4	4.00e-01	6	35	101	1048576	60	40437
2026-01-07 16:08:48.72	236.21	5.97	-50.2	-59.1	4.8	6.10e-01	34	35	101	1048576	60	43763
2026-01-07 16:08:52.77	236.03	5.68	-50.2	-59.7	4.3	8.91e-01	91	35	101	1048576	60	47294
2026-01-07 16:08:56.81	235.86	5.40	-50.2	-60.5	3.9	1.27e+00	72	35	101	1048576	60	51670
2026-01-07 16:09:00.86	235.69	5.12	-50.2	-62.4	3.7	1.43e+00	0	35	104	1048576	60	64641
2026-01-07 16:09:04.90	235.52	4.84	-50.1	-63.3	3.7	1.50e+00	0	35	104	1048576	60	71094
2026-01-07 16:09:08.94	235.36	4.56	-50.0	-63.7	3.6	1.51e+00	0	35	104	1048576	60	74393
2026-01-07 16:09:12.99	235.20	4.29	-49.8	-64.2	3.6	1.51e+00	0	36	104	1048576	60	79153
2026-01-07 16:09:17.03	235.04	4.02	-49.8	-64.4	3.6	1.51e+00	0	35	104	1048576	60	81154
2026-01-07 16:09:21.08	234.89	3.75	-49.6	-64.5	3.6	1.51e+00	0	35	104	1048576	60	82226
2026-01-07 16:09:25.12	234.74	3.49	-49.6	-64.9	3.6	1.51e+00	0	35	104	1048576	60	85567
2026-01-07 16:09:29.16	234.59	3.22	-49.5	-64.8	3.6	1.51e+00	0	35	104	1048576	60	84882
2026-01-07 16:09:33.20	234.45	2.96	-51.4	-66.7	3.6	1.51e+00	0	35	104	1048576	60	105136
2026-01-07 16:09:37.25	234.30	2.70	-52.0	-67.3	3.6	1.51e+00	0	35	104	1048576	60	112825
2026-01-07 16:09:41.29	234.17	2.45	-51.9	-67.3	3.6	1.51e+00	0	35	104	1048576	60	113032
2026-01-07 16:09:45.33	234.03	2.19	-51.8	-67.3	3.6	1.51e+00	0	35	104	1048576	60	112382
2026-01-07 16:09:49.38	233.89	1.94	-51.9	-67.3	3.6	1.51e+00	0	35	104	1048576	60	112365
2026-01-07 16:09:53.42	233.76	1.69	-51.9	-67.2	3.6	1.51e+00	0	35	104	1048576	60	111362
2026-01-07 16:09:57.46	233.63	1.44	-51.9	-67.2	3.6	1.51e+00	0	35	104	1048576	60	111669
2026-01-07 16:10:01.51	233.51	1.19	-51.9	-67.2	3.6	1.51e+00	0	35	104	1048576	60	111906
2026-01-07 16:10:05.55	233.38	0.95	-51.9	-67.2	3.6	1.51e+00	0	35	104	1048576	60	111835
2026-01-07 16:10:09.59	233.26	0.71	-51.9	-67.2	3.6	1.51e+00	0	35	104	1048576	60	111601
2026-01-07 16:10:13.64	233.14	0.47	-51.8	-67.2	3.6	1.51e+00	0	35	104	1048576	60	111316
2026-01-07 16:10:17.68	233.02	0.23	-51.8	-67.2	3.6	1.51e+00	0	35	104	1048576	60	111262
2026-01-07 16:10:21.73	232.91	-0.01	-51.8	-67.1	3.6	1.51e+00	0	35	104	1048576	60	110520

#Closed at: 2026-01-07 16:10:24
#Recorded file [1 MB]: D:/lorett/data/35034_260107_185520.dat