passes_logs/2026/01/07/R4.6S_Anadyr_2ch/R4.6S_Anadyr_2ch__20260107_100727_TY-40_rec.log

#Pass ID: 20260107_100727_TY-40
#Satellite: TY-40
#Configuration: TY-39_900M
#almurnet v.1.7.20251203
#Start time: 2026-01-07 10:07:58

#Version: 2.2.20231116
#Station: R4.6S_Anadyr_2ch
#Location: 177.4865 lon 64.73178 lat
#TLE: 1 56846U 23081A   25350.97536409  .00002626  00000-0  11966-3 0  9993
#TLE: 2 56846  97.3941  59.4076 0002022  98.6035 261.5430 15.21533877140291

#Time	Az	El	Level	Level2	SNR	BER	BlckErr	Temp	State	Recorded	gain1	gain2
2026-01-07 10:07:58.44	186.83	1.99	-51.6	-53.2	5.7	0.00e+00	0	31	0	0	60	76378
2026-01-07 10:08:01.47	187.00	2.19	-51.5	-54.0	6.1	0.00e+00	0	34	104	0	60	83328
2026-01-07 10:08:04.50	187.17	2.40	-51.5	-54.0	6.0	0.00e+00	0	34	104	0	60	83708
2026-01-07 10:08:07.53	187.34	2.60	-51.5	-54.0	6.1	0.00e+00	0	34	104	0	60	83699
2026-01-07 10:08:10.57	187.52	2.82	-51.5	-54.0	6.1	0.00e+00	0	34	104	0	60	83544
2026-01-07 10:08:13.60	187.69	3.03	-51.5	-54.0	6.1	0.00e+00	0	34	104	0	60	83371
2026-01-07 10:08:16.63	187.88	3.24	-51.5	-54.0	6.1	0.00e+00	0	34	104	0	60	83846
2026-01-07 10:08:19.66	188.06	3.46	-51.5	-54.0	6.1	0.00e+00	0	34	104	0	60	84007
2026-01-07 10:08:22.69	188.25	3.67	-51.5	-54.0	6.1	0.00e+00	0	34	104	0	60	83566
2026-01-07 10:08:25.73	188.44	3.90	-51.5	-54.0	6.1	0.00e+00	0	34	104	0	60	83736
2026-01-07 10:08:28.76	188.63	4.12	-51.5	-54.0	6.1	0.00e+00	0	34	104	0	60	83781
2026-01-07 10:08:31.79	188.83	4.34	-51.5	-54.0	6.1	0.00e+00	0	34	104	0	60	83982
2026-01-07 10:08:34.82	189.03	4.57	-51.5	-54.0	6.1	0.00e+00	0	34	104	0	60	83684
2026-01-07 10:08:37.85	189.24	4.80	-51.5	-54.0	6.1	0.00e+00	0	34	104	0	60	83792
2026-01-07 10:08:40.89	189.45	5.03	-51.5	-54.0	6.1	0.00e+00	0	35	104	0	60	83825
2026-01-07 10:08:43.92	189.66	5.27	-51.5	-54.0	6.1	0.00e+00	0	35	104	0	60	83864
2026-01-07 10:08:46.95	189.88	5.50	-51.5	-54.0	6.1	0.00e+00	0	35	104	0	60	83832
2026-01-07 10:08:49.98	190.10	5.74	-51.5	-54.0	6.1	0.00e+00	0	35	104	0	60	83525
2026-01-07 10:08:53.01	190.33	5.98	-51.5	-54.0	6.1	0.00e+00	0	35	104	0	60	84197
2026-01-07 10:08:56.05	190.56	6.23	-51.5	-54.0	6.1	0.00e+00	0	35	104	0	60	83453
2026-01-07 10:08:59.08	190.80	6.48	-51.5	-54.0	6.1	0.00e+00	0	35	104	0	60	83846
2026-01-07 10:09:02.12	191.04	6.73	-51.5	-54.0	6.1	0.00e+00	0	35	104	0	60	84016
2026-01-07 10:09:05.15	191.29	6.98	-51.5	-54.0	6.1	0.00e+00	0	35	104	0	60	84199
2026-01-07 10:09:08.18	191.54	7.24	-51.5	-54.0	6.1	0.00e+00	0	35	104	0	60	84012
2026-01-07 10:09:11.22	191.79	7.50	-51.5	-54.0	6.1	0.00e+00	0	35	104	0	60	83437
2026-01-07 10:09:14.25	192.06	7.76	-51.5	-54.0	6.1	0.00e+00	0	35	104	0	60	83892
2026-01-07 10:09:17.28	192.32	8.03	-51.5	-54.0	6.1	0.00e+00	0	35	104	0	60	84107
2026-01-07 10:09:20.32	192.60	8.30	-51.5	-54.0	6.1	0.00e+00	0	35	104	0	60	83870
2026-01-07 10:09:23.35	192.88	8.57	-51.5	-54.0	6.1	0.00e+00	0	35	104	0	60	83625
2026-01-07 10:09:26.38	193.17	8.85	-51.5	-54.0	6.1	0.00e+00	0	35	104	0	60	84006
2026-01-07 10:09:29.41	193.46	9.13	-51.5	-54.0	6.1	0.00e+00	0	35	104	0	60	83826
2026-01-07 10:09:32.45	193.76	9.41	-51.5	-54.0	6.1	0.00e+00	0	35	104	0	60	84242
2026-01-07 10:09:35.48	194.06	9.70	-51.5	-54.0	6.1	0.00e+00	0	35	104	0	60	84084
2026-01-07 10:09:38.51	194.38	9.99	-51.5	-54.1	6.1	0.00e+00	0	35	104	0	60	84308
2026-01-07 10:09:41.54	194.70	10.28	-51.5	-54.0	6.1	0.00e+00	0	35	104	0	60	84090
2026-01-07 10:09:44.58	195.03	10.58	-51.6	-54.0	6.1	0.00e+00	0	35	104	0	60	83891
2026-01-07 10:09:47.61	195.37	10.89	-51.5	-54.0	6.1	0.00e+00	0	35	104	0	60	84226
2026-01-07 10:09:50.64	195.71	11.19	-51.5	-54.0	6.1	0.00e+00	0	35	104	0	60	84210
2026-01-07 10:09:53.68	196.07	11.51	-51.6	-54.0	6.1	0.00e+00	0	35	104	0	60	83848
2026-01-07 10:09:56.71	196.43	11.82	-51.6	-54.1	6.1	0.00e+00	0	36	104	0	60	84435
2026-01-07 10:09:59.74	196.80	12.15	-51.5	-54.0	6.1	0.00e+00	0	36	104	0	60	83983
2026-01-07 10:10:02.78	197.19	12.47	-51.6	-54.0	6.1	0.00e+00	0	36	104	0	60	83995
2026-01-07 10:10:05.81	197.58	12.80	-51.6	-54.0	6.1	0.00e+00	0	36	104	0	60	83601
2026-01-07 10:10:08.84	197.98	13.14	-51.6	-54.0	6.1	0.00e+00	0	36	104	0	60	83992
2026-01-07 10:10:11.87	198.40	13.48	-51.6	-54.0	6.1	0.00e+00	0	36	104	0	60	84096
2026-01-07 10:10:14.91	198.82	13.83	-51.6	-54.0	6.1	0.00e+00	0	36	104	0	60	83913
2026-01-07 10:10:17.94	199.26	14.18	-51.6	-54.0	6.1	0.00e+00	0	36	104	0	60	83590
2026-01-07 10:10:20.97	199.71	14.54	-51.6	-54.0	6.1	0.00e+00	0	36	104	0	60	84228
2026-01-07 10:10:24.00	200.17	14.90	-51.6	-54.1	6.1	0.00e+00	0	36	104	0	60	84385
2026-01-07 10:10:27.04	200.65	15.27	-51.6	-54.0	6.1	0.00e+00	0	36	104	0	60	83932
2026-01-07 10:10:30.07	201.14	15.64	-51.6	-54.1	6.1	0.00e+00	0	36	104	0	60	84443
2026-01-07 10:10:33.10	201.64	16.02	-51.6	-54.0	6.1	0.00e+00	0	36	104	0	60	83882
2026-01-07 10:10:36.13	202.16	16.40	-51.6	-54.0	6.1	0.00e+00	0	36	104	0	60	84190
2026-01-07 10:10:39.16	202.69	16.79	-51.6	-54.0	6.1	0.00e+00	0	36	104	0	60	84000
2026-01-07 10:10:42.20	203.24	17.19	-51.6	-54.1	6.1	0.00e+00	0	36	104	0	60	84358
2026-01-07 10:10:45.23	203.81	17.60	-51.6	-54.1	6.1	0.00e+00	0	36	104	0	60	84533
2026-01-07 10:10:48.26	204.39	18.00	-51.6	-54.0	6.1	0.00e+00	0	36	104	0	60	84223
2026-01-07 10:10:51.29	204.99	18.42	-51.6	-54.0	6.1	0.00e+00	0	36	104	0	60	84196
2026-01-07 10:10:54.33	205.62	18.84	-51.6	-54.0	6.1	0.00e+00	0	36	104	0	60	84215
2026-01-07 10:10:57.36	206.26	19.27	-51.6	-54.0	6.1	0.00e+00	0	36	104	0	60	84096
2026-01-07 10:11:00.39	206.92	19.70	-51.6	-54.1	6.1	0.00e+00	0	36	104	0	60	84371
2026-01-07 10:11:03.43	207.60	20.15	-51.6	-54.0	6.1	0.00e+00	0	36	104	0	60	84118
2026-01-07 10:11:06.46	208.31	20.59	-51.6	-54.0	6.1	0.00e+00	0	36	104	0	60	84207
2026-01-07 10:11:09.49	209.04	21.05	-51.6	-54.1	6.1	0.00e+00	0	36	104	0	60	84448
2026-01-07 10:11:12.53	209.79	21.51	-51.6	-54.1	6.0	0.00e+00	0	36	104	0	60	84513
2026-01-07 10:11:15.56	210.57	21.97	-51.6	-54.1	6.1	0.00e+00	0	36	104	0	60	84466
2026-01-07 10:11:18.59	211.38	22.44	-51.6	-54.1	6.1	0.00e+00	0	36	104	0	60	84521
2026-01-07 10:11:21.62	212.21	22.92	-51.6	-54.0	6.1	0.00e+00	0	36	104	0	60	84133
2026-01-07 10:11:24.66	213.07	23.40	-51.6	-54.0	6.1	0.00e+00	0	36	104	0	60	83987
2026-01-07 10:11:27.69	213.96	23.88	-51.6	-54.1	6.1	0.00e+00	0	36	104	0	60	84581
2026-01-07 10:11:30.72	214.88	24.37	-51.6	-54.1	6.1	0.00e+00	0	36	104	0	60	84262
2026-01-07 10:11:33.76	215.84	24.87	-51.6	-54.0	6.1	0.00e+00	0	36	104	0	60	84196
2026-01-07 10:11:36.79	216.83	25.37	-51.6	-54.1	6.1	0.00e+00	0	36	104	0	60	84587
2026-01-07 10:11:39.82	217.85	25.87	-51.6	-54.0	6.1	0.00e+00	0	36	104	0	60	83841
2026-01-07 10:11:42.86	218.91	26.37	-51.6	-54.0	6.1	0.00e+00	0	36	104	0	60	84069
2026-01-07 10:11:45.89	220.00	26.87	-51.6	-54.0	6.1	0.00e+00	0	36	104	0	60	84200
2026-01-07 10:11:48.92	221.13	27.38	-51.6	-54.1	6.1	0.00e+00	0	36	104	0	60	84307
2026-01-07 10:11:51.95	222.31	27.88	-51.6	-54.0	6.1	0.00e+00	0	36	104	0	60	83969
2026-01-07 10:11:54.99	223.52	28.39	-51.6	-54.1	6.1	0.00e+00	0	36	104	0	60	84405
2026-01-07 10:11:58.02	224.78	28.89	-51.6	-54.1	6.1	0.00e+00	0	36	104	0	60	84544
2026-01-07 10:12:01.05	226.07	29.39	-51.6	-54.1	6.1	0.00e+00	0	36	104	0	60	84450
2026-01-07 10:12:04.08	227.41	29.88	-51.6	-54.1	6.1	0.00e+00	0	36	104	0	60	84846
2026-01-07 10:12:07.12	228.80	30.37	-51.6	-54.0	6.1	0.00e+00	0	36	104	0	60	84078
2026-01-07 10:12:10.15	230.23	30.85	-51.6	-54.1	6.1	0.00e+00	0	36	104	0	60	84521
2026-01-07 10:12:13.18	231.70	31.31	-51.6	-54.1	6.1	0.00e+00	0	36	104	0	60	84431
2026-01-07 10:12:16.22	233.23	31.77	-51.6	-54.1	6.1	0.00e+00	0	36	104	0	60	84362
2026-01-07 10:12:19.25	234.79	32.22	-51.6	-54.1	6.1	0.00e+00	0	36	104	0	60	84580
2026-01-07 10:12:22.28	236.40	32.65	-51.6	-54.1	6.1	0.00e+00	0	36	104	0	60	84676
2026-01-07 10:12:25.32	238.06	33.06	-51.6	-54.1	6.0	0.00e+00	0	36	104	0	60	84460
2026-01-07 10:12:28.35	239.76	33.45	-51.6	-54.1	6.1	0.00e+00	0	36	104	0	60	84405
2026-01-07 10:12:31.38	241.50	33.82	-51.6	-54.1	6.1	0.00e+00	0	36	104	0	60	84412
2026-01-07 10:12:34.41	243.28	34.17	-51.6	-54.1	6.1	0.00e+00	0	36	104	0	60	85171
2026-01-07 10:12:37.45	245.11	34.49	-51.6	-54.1	6.1	0.00e+00	0	36	104	0	60	84812
2026-01-07 10:12:40.48	246.96	34.79	-51.6	-54.1	6.1	0.00e+00	0	36	104	0	60	84428
2026-01-07 10:12:43.51	248.85	35.05	-51.6	-54.1	6.1	0.00e+00	0	36	104	0	60	84439
2026-01-07 10:12:46.55	250.78	35.29	-51.6	-54.1	6.1	0.00e+00	0	37	104	0	60	84310
2026-01-07 10:12:49.58	252.73	35.49	-51.6	-54.0	6.1	0.00e+00	0	37	104	0	60	84217
2026-01-07 10:12:52.61	254.70	35.65	-51.6	-54.1	6.1	0.00e+00	0	37	104	0	60	84267
2026-01-07 10:12:55.64	256.69	35.79	-51.6	-54.1	6.1	0.00e+00	0	37	104	0	60	84754
2026-01-07 10:12:58.68	258.70	35.88	-51.6	-54.1	6.1	0.00e+00	0	36	104	0	60	84323
2026-01-07 10:13:01.71	260.71	35.94	-51.6	-54.1	6.1	0.00e+00	0	36	104	0	60	84269
2026-01-07 10:13:04.75	262.74	35.96	-51.6	-54.0	6.1	0.00e+00	0	37	104	0	60	83953
2026-01-07 10:13:07.78	264.76	35.95	-51.6	-54.1	6.1	0.00e+00	0	37	104	0	60	84255
2026-01-07 10:13:10.81	266.77	35.89	-51.6	-54.1	6.1	0.00e+00	0	37	104	0	60	84721
2026-01-07 10:13:13.84	268.78	35.80	-51.6	-54.0	6.1	0.00e+00	0	37	104	0	60	84172
2026-01-07 10:13:16.88	270.77	35.67	-51.6	-54.1	6.1	0.00e+00	0	37	104	0	60	84278
2026-01-07 10:13:19.91	272.75	35.51	-51.6	-54.0	6.1	0.00e+00	0	36	104	0	60	84245
2026-01-07 10:13:22.94	274.69	35.32	-51.6	-54.0	6.1	0.00e+00	0	37	104	0	60	84127
2026-01-07 10:13:25.98	276.62	35.09	-51.6	-54.1	6.1	0.00e+00	0	37	104	0	60	84259
2026-01-07 10:13:29.01	278.51	34.83	-51.6	-54.1	6.1	0.00e+00	0	37	104	0	60	84260
2026-01-07 10:13:32.04	280.37	34.54	-51.6	-54.1	6.1	0.00e+00	0	37	104	0	60	84588
2026-01-07 10:13:35.08	282.20	34.22	-51.6	-54.1	6.1	0.00e+00	0	37	104	0	60	84437
2026-01-07 10:13:38.11	283.98	33.87	-51.6	-54.0	6.1	0.00e+00	0	36	104	0	60	84168
2026-01-07 10:13:41.14	285.72	33.51	-51.6	-54.0	6.1	0.00e+00	0	36	104	0	60	83945
2026-01-07 10:13:44.18	287.42	33.12	-51.6	-54.0	6.1	0.00e+00	0	36	104	0	60	84200
2026-01-07 10:13:47.21	289.08	32.71	-51.6	-54.1	6.1	0.00e+00	0	37	104	0	60	84497
2026-01-07 10:13:50.24	290.69	32.29	-51.6	-54.1	6.1	0.00e+00	0	37	104	0	60	84411
2026-01-07 10:13:53.27	292.25	31.85	-51.6	-54.1	6.1	0.00e+00	0	37	104	0	60	84587
2026-01-07 10:13:56.31	293.78	31.40	-51.6	-54.1	6.1	0.00e+00	0	37	104	0	60	84437
2026-01-07 10:13:59.34	295.25	30.93	-51.6	-54.1	6.1	0.00e+00	0	37	104	0	60	84462
2026-01-07 10:14:02.37	296.68	30.46	-51.6	-54.1	6.1	0.00e+00	0	37	104	0	60	84606
2026-01-07 10:14:05.40	298.07	29.98	-51.6	-54.1	6.1	0.00e+00	0	36	104	0	60	84825
2026-01-07 10:14:08.44	299.41	29.48	-51.6	-54.1	6.1	0.00e+00	0	36	104	0	60	84908
2026-01-07 10:14:11.47	300.71	28.99	-51.6	-54.1	6.1	0.00e+00	0	37	104	0	60	84830
2026-01-07 10:14:14.50	301.96	28.49	-51.6	-54.1	6.1	0.00e+00	0	37	104	0	60	84553
2026-01-07 10:14:17.54	303.18	27.99	-51.6	-54.1	6.1	0.00e+00	0	37	104	0	60	84627
2026-01-07 10:14:20.57	304.35	27.49	-51.6	-54.1	6.1	0.00e+00	0	37	104	0	60	84494
2026-01-07 10:14:23.60	305.49	26.99	-51.6	-54.1	6.1	0.00e+00	0	37	104	0	60	84445
2026-01-07 10:14:26.64	306.58	26.49	-51.6	-54.1	6.1	0.00e+00	0	36	104	0	60	84487
2026-01-07 10:14:29.67	307.64	25.99	-51.6	-54.1	6.1	0.00e+00	0	37	104	0	60	84397
2026-01-07 10:14:32.70	308.66	25.49	-51.6	-54.1	6.1	0.00e+00	0	36	104	0	60	84732
2026-01-07 10:14:35.73	309.65	25.00	-51.6	-54.1	6.1	0.00e+00	0	36	104	0	60	84286
2026-01-07 10:14:38.77	310.61	24.50	-51.6	-54.1	6.1	0.00e+00	0	37	104	0	60	84598
2026-01-07 10:14:41.80	311.53	24.02	-51.6	-54.1	6.1	0.00e+00	0	37	104	0	60	84475
2026-01-07 10:14:44.83	312.42	23.53	-51.6	-54.1	6.1	0.00e+00	0	36	104	0	60	84400
2026-01-07 10:14:47.87	313.29	23.05	-51.6	-54.1	6.1	0.00e+00	0	37	104	0	60	84928
2026-01-07 10:14:50.90	314.12	22.58	-51.6	-54.1	6.1	0.00e+00	0	37	104	0	60	84466
2026-01-07 10:14:53.93	314.93	22.11	-51.6	-54.1	6.1	0.00e+00	0	37	104	0	60	84645
2026-01-07 10:14:56.97	315.71	21.65	-51.6	-54.1	6.1	0.00e+00	0	37	104	0	60	84658
2026-01-07 10:15:00.00	316.46	21.19	-51.6	-54.1	6.1	0.00e+00	0	37	104	0	60	84559
2026-01-07 10:15:03.03	317.19	20.74	-51.6	-54.1	6.1	0.00e+00	0	37	104	0	60	84426
2026-01-07 10:15:06.07	317.90	20.30	-51.6	-54.0	6.0	0.00e+00	0	37	104	0	60	84220
2026-01-07 10:15:09.10	318.59	19.86	-51.6	-54.1	6.1	0.00e+00	0	37	104	0	60	84425
2026-01-07 10:15:12.13	319.25	19.43	-51.6	-54.0	6.1	0.00e+00	0	37	104	0	60	84124
2026-01-07 10:15:15.16	319.89	19.00	-51.6	-54.1	6.1	0.00e+00	0	37	104	0	60	84536
2026-01-07 10:15:18.20	320.51	18.58	-51.6	-54.1	6.1	0.00e+00	0	37	104	0	60	85004
2026-01-07 10:15:21.23	321.12	18.17	-51.6	-54.1	6.1	0.00e+00	0	37	104	0	60	84779
2026-01-07 10:15:24.27	321.70	17.76	-51.6	-54.1	6.1	0.00e+00	0	37	104	0	60	84800
2026-01-07 10:15:27.30	322.27	17.36	-51.6	-54.1	6.1	0.00e+00	0	37	104	0	60	84418
2026-01-07 10:15:30.33	322.82	16.96	-51.6	-54.1	6.1	0.00e+00	0	37	104	0	60	84592
2026-01-07 10:15:33.36	323.36	16.57	-51.6	-54.1	6.1	0.00e+00	0	37	104	0	60	84530
2026-01-07 10:15:36.39	323.88	16.19	-51.6	-54.1	6.0	0.00e+00	0	37	104	0	60	84446
2026-01-07 10:15:39.43	324.38	15.81	-51.6	-54.1	6.1	0.00e+00	0	37	104	0	60	84638
2026-01-07 10:15:42.46	324.87	15.44	-51.6	-54.1	6.1	0.00e+00	0	37	104	0	60	84584
2026-01-07 10:15:45.49	325.35	15.07	-51.6	-54.1	6.1	0.00e+00	0	37	104	0	60	84309
2026-01-07 10:15:48.52	325.81	14.71	-51.6	-54.1	6.1	0.00e+00	0	37	104	0	60	84638
2026-01-07 10:15:51.55	326.26	14.36	-51.6	-54.1	6.1	0.00e+00	0	37	104	0	60	84902
2026-01-07 10:15:54.59	326.70	14.01	-51.6	-54.1	6.1	0.00e+00	0	37	104	0	60	84607
2026-01-07 10:15:57.62	327.13	13.66	-51.6	-54.1	6.1	0.00e+00	0	37	104	0	60	84535
2026-01-07 10:16:00.65	327.54	13.32	-51.6	-54.1	6.1	0.00e+00	0	37	104	0	60	84600
2026-01-07 10:16:03.68	327.95	12.99	-51.6	-54.1	6.1	0.00e+00	0	37	104	0	60	84602
2026-01-07 10:16:06.71	328.34	12.66	-51.6	-54.0	6.1	0.00e+00	0	37	104	0	60	84087
2026-01-07 10:16:09.75	328.73	12.33	-51.6	-54.1	6.1	0.00e+00	0	37	104	0	60	85008
2026-01-07 10:16:12.78	329.10	12.01	-51.6	-54.1	6.1	0.00e+00	0	37	104	0	60	84412
2026-01-07 10:16:15.81	329.47	11.70	-51.6	-54.1	6.1	0.00e+00	0	37	104	0	60	84576
2026-01-07 10:16:18.84	329.82	11.39	-51.6	-54.1	6.1	0.00e+00	0	37	104	0	60	84264
2026-01-07 10:16:21.88	330.17	11.08	-51.6	-54.1	6.1	0.00e+00	0	37	104	0	60	84909
2026-01-07 10:16:24.91	330.51	10.78	-51.6	-54.1	6.1	0.00e+00	0	37	104	0	60	84572
2026-01-07 10:16:27.94	330.84	10.48	-51.6	-54.1	6.1	0.00e+00	0	37	104	0	60	84939
2026-01-07 10:16:30.98	331.16	10.18	-51.6	-54.1	6.1	0.00e+00	0	37	104	0	60	84777
2026-01-07 10:16:34.01	331.48	9.89	-51.6	-54.1	6.1	0.00e+00	0	37	104	0	60	84849
2026-01-07 10:16:37.04	331.79	9.61	-51.6	-54.1	6.1	0.00e+00	0	37	104	0	60	84610
2026-01-07 10:16:40.08	332.09	9.32	-51.6	-54.1	6.1	0.00e+00	0	37	104	0	60	85017
2026-01-07 10:16:43.11	332.38	9.04	-51.6	-54.1	6.1	0.00e+00	0	37	104	0	60	84970
2026-01-07 10:16:46.14	332.67	8.77	-51.6	-54.1	6.1	0.00e+00	0	37	104	0	60	84735
2026-01-07 10:16:49.17	332.95	8.50	-51.6	-54.1	6.1	0.00e+00	0	37	104	0	60	84637
2026-01-07 10:16:52.21	333.23	8.23	-51.6	-54.1	6.1	0.00e+00	0	37	104	0	60	85110
2026-01-07 10:16:55.24	333.50	7.96	-51.6	-54.1	6.0	0.00e+00	0	37	104	0	60	84963
2026-01-07 10:16:58.27	333.76	7.70	-51.6	-54.1	6.1	0.00e+00	0	37	104	0	60	84689
2026-01-07 10:17:01.31	334.02	7.44	-51.6	-54.1	6.1	0.00e+00	0	37	104	0	60	84972
2026-01-07 10:17:04.34	334.28	7.19	-51.6	-54.1	6.1	0.00e+00	0	37	104	0	60	84675
2026-01-07 10:17:07.37	334.52	6.93	-51.6	-54.1	6.1	0.00e+00	0	37	104	0	60	84727
2026-01-07 10:17:10.40	334.77	6.68	-51.6	-54.1	6.1	0.00e+00	0	37	104	0	60	84656
2026-01-07 10:17:13.44	335.01	6.44	-51.6	-54.1	6.1	0.00e+00	0	37	104	0	60	84510
2026-01-07 10:17:16.47	335.24	6.19	-51.6	-54.1	6.1	0.00e+00	0	37	104	0	60	85196
2026-01-07 10:17:19.50	335.47	5.95	-51.6	-54.1	6.1	0.00e+00	0	37	104	0	60	84808
2026-01-07 10:17:22.53	335.69	5.71	-51.6	-54.1	6.0	0.00e+00	0	37	104	0	60	84336
2026-01-07 10:17:25.57	335.91	5.48	-51.6	-54.1	6.1	0.00e+00	0	37	104	0	60	84573
2026-01-07 10:17:28.60	336.13	5.24	-51.6	-54.1	6.1	0.00e+00	0	37	104	0	60	84889
2026-01-07 10:17:31.63	336.34	5.01	-51.6	-54.1	6.1	0.00e+00	0	37	104	0	60	84946
2026-01-07 10:17:34.67	336.55	4.78	-51.6	-54.1	6.1	0.00e+00	0	37	104	0	60	84590
2026-01-07 10:17:37.70	336.75	4.56	-51.6	-54.1	6.1	0.00e+00	0	37	104	0	60	84966
2026-01-07 10:17:40.73	336.95	4.33	-51.6	-54.1	6.1	0.00e+00	0	37	104	0	60	84993
2026-01-07 10:17:43.76	337.15	4.11	-51.6	-54.1	6.1	0.00e+00	0	37	104	0	60	84630
2026-01-07 10:17:46.80	337.34	3.89	-51.6	-54.1	6.1	0.00e+00	0	37	104	0	60	84753
2026-01-07 10:17:49.83	337.53	3.67	-51.6	-54.1	6.1	0.00e+00	0	37	104	0	60	84306
2026-01-07 10:17:52.86	337.72	3.46	-51.6	-54.1	6.1	0.00e+00	0	37	104	0	60	84796
2026-01-07 10:17:55.90	337.91	3.24	-51.6	-54.1	6.1	0.00e+00	0	37	104	0	60	84405
2026-01-07 10:17:58.93	338.09	3.03	-51.6	-54.1	6.1	0.00e+00	0	37	104	0	60	84322
2026-01-07 10:18:01.96	338.26	2.82	-51.6	-54.1	6.1	0.00e+00	0	37	104	0	60	84774
2026-01-07 10:18:04.99	338.44	2.62	-51.6	-54.1	6.1	0.00e+00	0	37	104	0	60	84874
2026-01-07 10:18:08.03	338.61	2.41	-51.6	-54.1	6.0	0.00e+00	0	37	104	0	60	84531
2026-01-07 10:18:11.06	338.78	2.21	-51.6	-54.1	6.1	0.00e+00	0	37	104	0	60	84679
2026-01-07 10:18:14.09	338.94	2.00	-51.6	-54.1	6.1	0.00e+00	0	37	104	0	60	84972
2026-01-07 10:18:17.12	339.11	1.80	-51.6	-54.1	6.1	0.00e+00	0	37	104	0	60	84738
2026-01-07 10:18:20.15	339.27	1.60	-51.6	-54.1	6.1	0.00e+00	0	37	104	0	60	84574
2026-01-07 10:18:23.19	339.43	1.41	-51.6	-54.1	6.1	0.00e+00	0	37	104	0	60	85150
2026-01-07 10:18:26.22	339.58	1.21	-51.6	-54.1	6.1	0.00e+00	0	37	104	0	60	84359
2026-01-07 10:18:29.25	339.74	1.02	-51.6	-54.1	6.1	0.00e+00	0	37	104	0	60	84899
2026-01-07 10:18:32.28	339.89	0.83	-51.6	-54.1	6.1	0.00e+00	0	37	104	0	60	84318
2026-01-07 10:18:35.32	340.04	0.63	-51.6	-54.1	6.1	0.00e+00	0	37	104	0	60	84570
2026-01-07 10:18:38.35	340.19	0.44	-51.6	-54.0	6.1	0.00e+00	0	37	104	0	60	84206
2026-01-07 10:18:41.38	340.33	0.26	-51.6	-54.1	6.1	0.00e+00	0	37	104	0	60	84829
2026-01-07 10:18:44.42	340.47	0.07	-51.6	-54.1	6.1	0.00e+00	0	37	104	0	60	84798
2026-01-07 10:18:47.45	340.61	-0.12	-51.6	-54.1	6.1	0.00e+00	0	37	104	0	60	84314

#Closed at: 2026-01-07 10:18:47
#Recorded file [0 MB]: D:/lorett/data/35034_260107_130758.dat