passes_logs/2026/01/07/R4.6S_Anadyr_2ch/R4.6S_Anadyr_2ch__20260107_114413_NOAA_21_JPSS-2_rec.log

#Pass ID: 20260107_114413_NOAA 21 (JPSS-2)
#Satellite: NOAA 21 (JPSS-2)
#Configuration: NOAA-21
#almurnet v.1.7.20251203
#Start time: 2026-01-07 11:44:17

#Version: 2.2.20231116
#Station: R4.6S_Anadyr_2ch
#Location: 177.4865 lon 64.73178 lat
#TLE: 1 54234U 22150A   25350.97269056  .00000057  00000+0  47676-4 0  9992
#TLE: 2 54234  98.7466 287.2282 0002043  29.8355 330.2937 14.19525482160692

#Time	Az	El	Level	Level2	SNR	BER	BlckErr	Temp	State	Recorded	gain1	gain2
2026-01-07 11:44:17.32	20.41	0.18	-52.0	-53.6	5.7	0.00e+00	0	31	0	0	60	79811
2026-01-07 11:44:20.35	20.69	0.31	-51.9	-64.9	3.5	1.52e+00	0	33	104	0	60	83648
2026-01-07 11:44:23.38	20.97	0.43	-51.8	-64.8	3.5	1.52e+00	0	33	104	0	60	82396
2026-01-07 11:44:26.41	21.25	0.56	-51.4	-64.5	3.5	1.51e+00	0	33	104	0	60	79258
2026-01-07 11:44:29.45	21.54	0.69	-50.7	-63.7	3.5	1.52e+00	0	33	104	0	60	72780
2026-01-07 11:44:32.48	21.83	0.81	-50.3	-63.2	3.5	1.52e+00	0	34	104	0	60	68787
2026-01-07 11:44:35.51	22.12	0.94	-50.3	-63.2	3.5	1.51e+00	0	33	104	0	60	68664
2026-01-07 11:44:38.54	22.41	1.07	-50.3	-63.3	3.5	1.52e+00	0	33	104	0	60	68865
2026-01-07 11:44:41.58	22.71	1.19	-50.2	-63.3	3.5	1.52e+00	0	34	104	0	60	68866
2026-01-07 11:44:44.61	23.00	1.32	-50.2	-63.2	3.5	1.52e+00	0	34	104	0	60	68567
2026-01-07 11:44:47.64	23.30	1.45	-50.3	-63.3	3.5	1.52e+00	0	34	104	0	60	69276
2026-01-07 11:44:50.67	23.60	1.58	-50.2	-63.2	3.5	1.51e+00	0	34	104	0	60	68313
2026-01-07 11:44:53.71	23.91	1.70	-50.2	-63.2	3.5	1.52e+00	0	34	104	0	60	68390
2026-01-07 11:44:56.74	24.21	1.83	-50.2	-63.2	3.5	1.52e+00	0	34	104	0	60	68781
2026-01-07 11:44:59.77	24.52	1.96	-50.3	-63.2	3.5	1.52e+00	0	34	104	0	60	68353
2026-01-07 11:45:02.80	24.84	2.08	-50.2	-63.1	3.5	1.51e+00	0	34	104	0	60	67900
2026-01-07 11:45:05.84	25.15	2.21	-50.2	-63.2	3.5	1.52e+00	0	34	104	0	60	68360
2026-01-07 11:45:08.87	25.47	2.33	-50.2	-63.3	3.5	1.52e+00	0	34	104	0	60	69043
2026-01-07 11:45:11.90	25.79	2.46	-50.1	-61.9	3.5	1.51e+00	0	34	104	0	60	59097
2026-01-07 11:45:14.94	26.11	2.59	-49.4	-56.8	5.9	1.45e+00	120	34	104	0	60	32924
2026-01-07 11:45:17.97	26.43	2.71	-44.1	-45.9	16.9	0.00e+00	123	34	102	1048576	60	9344
2026-01-07 11:45:21.00	26.76	2.84	-43.1	-44.7	17.8	0.00e+00	123	34	102	1048576	60	8166
2026-01-07 11:45:24.03	27.09	2.96	-48.5	-53.0	9.1	1.12e-02	122	34	102	1048576	60	21201
2026-01-07 11:45:27.06	27.42	3.09	-50.1	-61.5	3.5	1.49e+00	0	34	104	1048576	60	56311
2026-01-07 11:45:30.10	27.76	3.21	-42.4	-43.8	18.8	0.00e+00	121	34	0	1048576	60	7359
2026-01-07 11:45:33.13	28.10	3.34	-41.7	-43.0	19.5	0.00e+00	122	34	0	1048576	60	6715
2026-01-07 11:45:36.16	28.44	3.46	-41.8	-43.1	19.7	0.00e+00	120	34	0	1048576	60	6734
2026-01-07 11:45:39.19	28.78	3.59	-41.5	-42.8	19.8	0.00e+00	123	34	0	1048576	60	6547
2026-01-07 11:45:42.23	29.13	3.71	-41.4	-42.7	19.9	0.00e+00	123	34	101	1048576	60	6446
2026-01-07 11:45:45.26	29.48	3.84	-41.4	-42.7	20.0	0.00e+00	122	34	101	1048576	60	6454
2026-01-07 11:45:48.29	29.83	3.96	-41.4	-42.7	20.0	0.00e+00	121	34	101	1048576	60	6426
2026-01-07 11:45:51.32	30.19	4.08	-41.3	-42.5	20.2	0.00e+00	123	34	101	1048576	60	6328
2026-01-07 11:45:54.36	30.54	4.21	-41.1	-42.3	20.4	0.00e+00	123	34	101	1048576	60	6180
2026-01-07 11:45:57.39	30.90	4.33	-41.0	-42.2	20.4	0.00e+00	123	34	101	1048576	60	6076
2026-01-07 11:46:00.41	31.27	4.45	-41.1	-42.3	20.4	0.00e+00	120	34	101	1048576	60	6170
2026-01-07 11:46:03.44	31.63	4.57	-41.0	-42.2	20.5	0.00e+00	122	34	101	1048576	60	6067
2026-01-07 11:46:06.48	32.00	4.70	-41.0	-42.2	20.6	0.00e+00	120	34	101	1048576	60	6093
2026-01-07 11:46:09.51	32.38	4.82	-40.9	-42.1	20.7	0.00e+00	123	34	101	1048576	60	6035
2026-01-07 11:46:12.54	32.75	4.94	-40.8	-41.9	20.8	0.00e+00	123	34	101	1048576	60	5907
2026-01-07 11:46:15.58	33.13	5.06	-40.7	-41.9	20.8	0.00e+00	123	34	101	1048576	60	5878
2026-01-07 11:46:18.61	33.51	5.18	-40.7	-41.8	20.9	0.00e+00	123	34	101	1048576	60	5845
2026-01-07 11:46:21.64	33.90	5.30	-40.6	-41.7	21.1	0.00e+00	121	34	101	1048576	60	5746
2026-01-07 11:46:24.67	34.28	5.42	-40.7	-41.8	20.9	0.00e+00	123	34	101	1048576	60	5850
2026-01-07 11:46:27.71	34.67	5.53	-40.6	-41.8	21.0	0.00e+00	120	34	101	1048576	60	5796
2026-01-07 11:46:30.74	35.07	5.65	-40.7	-41.8	21.0	0.00e+00	123	34	101	1048576	60	5833
2026-01-07 11:46:33.77	35.46	5.77	-40.8	-42.0	20.9	0.00e+00	122	34	101	1048576	60	5937
2026-01-07 11:46:36.80	35.86	5.88	-40.5	-41.6	21.2	0.00e+00	122	34	101	1048576	60	5713
2026-01-07 11:46:39.84	36.27	6.00	-40.5	-41.6	21.3	0.00e+00	123	34	101	1048576	60	5696
2026-01-07 11:46:42.87	36.67	6.12	-40.5	-41.7	21.2	0.00e+00	123	34	101	1048576	60	5743
2026-01-07 11:46:45.90	37.08	6.23	-40.4	-41.5	21.3	0.00e+00	123	34	101	1048576	60	5645
2026-01-07 11:46:48.94	37.49	6.34	-40.2	-41.3	21.5	0.00e+00	123	35	101	1048576	60	5528
2026-01-07 11:46:51.97	37.91	6.46	-40.0	-41.1	21.7	0.00e+00	122	34	101	1048576	58	6048
2026-01-07 11:46:55.00	38.33	6.57	-40.1	-41.2	21.7	0.00e+00	123	35	101	1048576	58	6069
2026-01-07 11:46:58.03	38.75	6.68	-40.0	-41.1	21.7	0.00e+00	121	35	101	1048576	58	6013
2026-01-07 11:47:01.07	39.17	6.79	-39.9	-41.0	21.8	0.00e+00	123	35	101	1048576	58	5989
2026-01-07 11:47:04.10	39.60	6.90	-39.8	-40.9	21.9	0.00e+00	123	35	101	1048576	58	5885
2026-01-07 11:47:07.13	40.03	7.01	-39.9	-41.0	21.9	0.00e+00	120	34	101	1048576	58	5965
2026-01-07 11:47:10.17	40.46	7.12	-39.7	-40.7	22.1	0.00e+00	123	34	101	1048576	58	5760
2026-01-07 11:47:13.20	40.90	7.23	-39.8	-40.8	22.1	0.00e+00	120	35	101	1048576	58	5848
2026-01-07 11:47:16.23	41.34	7.33	-39.8	-40.9	22.0	0.00e+00	123	35	101	1048576	58	5882
2026-01-07 11:47:19.26	41.78	7.44	-39.9	-41.0	21.9	0.00e+00	123	34	101	1048576	58	5955
2026-01-07 11:47:22.30	42.23	7.54	-39.9	-41.0	21.9	0.00e+00	123	35	101	1048576	58	5932
2026-01-07 11:47:25.33	42.68	7.64	-39.8	-40.9	22.0	0.00e+00	123	35	101	1048576	58	5882
2026-01-07 11:47:28.36	43.13	7.75	-39.8	-40.8	22.2	0.00e+00	122	35	101	1048576	58	5856
2026-01-07 11:47:31.39	43.58	7.85	-39.7	-40.7	22.2	0.00e+00	122	35	101	1048576	58	5756
2026-01-07 11:47:34.43	44.04	7.95	-39.7	-40.7	22.2	0.00e+00	123	35	101	1048576	58	5761
2026-01-07 11:47:37.46	44.51	8.05	-39.7	-40.7	22.2	0.00e+00	122	35	101	1048576	58	5777
2026-01-07 11:47:40.50	44.97	8.14	-39.7	-40.8	22.1	0.00e+00	123	35	101	1048576	58	5827
2026-01-07 11:47:43.53	45.44	8.24	-39.5	-40.6	22.3	0.00e+00	123	35	101	1048576	58	5683
2026-01-07 11:47:46.56	45.91	8.33	-39.7	-40.8	22.2	0.00e+00	122	35	101	1048576	58	5795
2026-01-07 11:47:49.59	46.38	8.43	-39.7	-40.7	22.1	0.00e+00	120	35	101	1048576	58	5756
2026-01-07 11:47:52.63	46.86	8.52	-39.8	-40.9	22.1	0.00e+00	120	34	101	1048576	58	5883
2026-01-07 11:47:55.66	47.34	8.61	-39.8	-40.9	22.0	0.00e+00	122	35	101	1048576	58	5895
2026-01-07 11:47:58.69	47.82	8.70	-39.5	-40.6	22.4	0.00e+00	123	35	101	1048576	58	5660
2026-01-07 11:48:01.73	48.30	8.79	-39.4	-40.4	22.5	0.00e+00	123	35	101	1048576	58	5564
2026-01-07 11:48:04.76	48.79	8.88	-39.4	-40.5	22.4	0.00e+00	122	35	101	1048576	58	5599
2026-01-07 11:48:07.79	49.28	8.96	-39.3	-40.3	22.5	0.00e+00	123	35	101	1048576	58	5521
2026-01-07 11:48:10.83	49.78	9.04	-39.5	-40.5	22.5	0.00e+00	123	35	101	1048576	58	5622
2026-01-07 11:48:13.86	50.27	9.13	-39.4	-40.5	22.4	0.00e+00	123	35	101	1048576	58	5596
2026-01-07 11:48:16.89	50.77	9.21	-39.4	-40.4	22.5	0.00e+00	123	35	101	1048576	58	5544
2026-01-07 11:48:19.92	51.27	9.29	-39.4	-40.4	22.5	0.00e+00	122	35	101	1048576	58	5555
2026-01-07 11:48:22.96	51.78	9.36	-39.4	-40.5	22.5	0.00e+00	120	35	101	1048576	58	5605
2026-01-07 11:48:25.99	52.28	9.44	-39.3	-40.3	22.6	0.00e+00	122	35	101	1048576	58	5504
2026-01-07 11:48:29.02	52.79	9.51	-39.3	-40.3	22.6	0.00e+00	122	35	101	1048576	58	5527
2026-01-07 11:48:32.06	53.30	9.58	-39.5	-40.5	22.4	0.00e+00	122	35	101	1048576	58	5629
2026-01-07 11:48:35.09	53.82	9.65	-39.6	-40.7	22.3	0.00e+00	123	35	101	1048576	58	5743
2026-01-07 11:48:38.12	54.33	9.72	-39.4	-40.4	22.5	0.00e+00	122	35	101	1048576	58	5588
2026-01-07 11:48:41.16	54.85	9.79	-39.2	-40.2	22.7	0.00e+00	122	35	101	1048576	58	5457
2026-01-07 11:48:44.19	55.37	9.85	-39.3	-40.3	22.7	0.00e+00	123	35	101	1048576	56	6139
2026-01-07 11:48:47.22	55.90	9.92	-39.6	-40.7	22.5	0.00e+00	123	35	101	1048576	56	6431
2026-01-07 11:48:50.26	56.42	9.98	-39.5	-40.5	22.5	0.00e+00	122	35	101	1048576	56	6349
2026-01-07 11:48:53.29	56.95	10.04	-39.4	-40.4	22.6	0.00e+00	122	35	101	1048576	56	6274
2026-01-07 11:48:56.32	57.48	10.09	-39.4	-40.4	22.5	0.00e+00	123	35	101	1048576	56	6247
2026-01-07 11:48:59.35	58.01	10.15	-39.5	-40.5	22.4	0.00e+00	122	35	101	1048576	56	6321
2026-01-07 11:49:02.39	58.55	10.20	-39.3	-40.3	22.6	0.00e+00	122	35	101	1048576	56	6175
2026-01-07 11:49:05.42	59.08	10.25	-39.2	-40.1	22.8	0.00e+00	123	35	101	1048576	56	6061
2026-01-07 11:49:08.45	59.62	10.30	-39.1	-40.1	22.9	0.00e+00	120	35	101	1048576	56	6030
2026-01-07 11:49:11.49	60.16	10.35	-39.3	-40.3	22.7	0.00e+00	122	35	101	1048576	56	6198
2026-01-07 11:49:14.52	60.70	10.39	-39.3	-40.3	22.6	0.00e+00	123	35	101	1048576	56	6164
2026-01-07 11:49:17.55	61.24	10.43	-39.2	-40.2	22.7	0.00e+00	123	35	101	1048576	56	6084
2026-01-07 11:49:20.59	61.78	10.47	-39.2	-40.2	22.7	0.00e+00	123	35	101	1048576	56	6087
2026-01-07 11:49:23.62	62.33	10.51	-39.5	-40.5	22.5	0.00e+00	122	35	101	1048576	56	6343
2026-01-07 11:49:26.65	62.88	10.55	-39.5	-40.5	22.5	0.00e+00	123	35	101	1048576	56	6315
2026-01-07 11:49:29.69	63.42	10.58	-39.0	-40.0	23.0	0.00e+00	120	35	101	1048576	56	5944
2026-01-07 11:49:32.72	63.97	10.61	-38.9	-39.9	23.0	0.00e+00	122	35	101	1048576	56	5871
2026-01-07 11:49:35.75	64.52	10.64	-39.1	-40.1	22.8	0.00e+00	123	35	101	1048576	56	5995
2026-01-07 11:49:38.78	65.07	10.67	-39.0	-40.0	22.9	0.00e+00	122	35	101	1048576	56	5947
2026-01-07 11:49:41.81	65.62	10.69	-38.9	-39.9	22.9	0.00e+00	123	35	101	1048576	56	5893
2026-01-07 11:49:44.85	66.18	10.71	-39.0	-39.9	22.8	0.00e+00	123	35	101	1048576	56	5925
2026-01-07 11:49:47.88	66.73	10.73	-38.9	-39.9	22.9	0.00e+00	122	35	101	1048576	56	5893
2026-01-07 11:49:50.91	67.29	10.75	-39.0	-40.0	22.8	0.00e+00	123	35	101	1048576	56	5970
2026-01-07 11:49:53.95	67.84	10.76	-39.0	-39.9	22.9	0.00e+00	123	35	101	1048576	56	5925
2026-01-07 11:49:56.98	68.40	10.78	-38.9	-39.9	23.0	0.00e+00	122	35	101	1048576	56	5877
2026-01-07 11:50:00.01	68.95	10.79	-39.1	-40.1	22.8	0.00e+00	123	35	101	1048576	56	6000
2026-01-07 11:50:03.05	69.51	10.79	-39.0	-40.0	22.9	0.00e+00	123	35	101	1048576	56	5952
2026-01-07 11:50:06.08	70.07	10.80	-39.1	-40.1	22.9	0.00e+00	123	35	101	1048576	56	6008
2026-01-07 11:50:09.11	70.62	10.80	-39.2	-40.2	22.8	0.00e+00	123	35	101	1048576	56	6079
2026-01-07 11:50:12.15	71.18	10.80	-39.1	-40.1	22.8	0.00e+00	122	35	101	1048576	56	6010
2026-01-07 11:50:15.18	71.74	10.80	-39.0	-40.0	22.9	0.00e+00	122	35	101	1048576	56	5986
2026-01-07 11:50:18.21	72.29	10.80	-39.0	-40.0	23.0	0.00e+00	123	35	101	1048576	56	5953
2026-01-07 11:50:21.25	72.85	10.79	-39.0	-40.0	22.9	0.00e+00	122	35	101	1048576	56	5964
2026-01-07 11:50:24.28	73.41	10.78	-39.2	-40.2	22.8	0.00e+00	123	35	101	1048576	56	6086
2026-01-07 11:50:27.31	73.96	10.77	-39.0	-40.0	23.0	0.00e+00	123	35	101	1048576	56	5953
2026-01-07 11:50:30.34	74.52	10.76	-38.9	-39.8	23.1	0.00e+00	120	35	101	1048576	56	5849
2026-01-07 11:50:33.37	75.07	10.74	-38.8	-39.8	23.1	0.00e+00	122	35	101	1048576	56	5841
2026-01-07 11:50:36.41	75.63	10.72	-39.0	-40.0	23.0	0.00e+00	120	35	101	1048576	56	5980
2026-01-07 11:50:39.44	76.18	10.70	-39.1	-40.1	22.9	0.00e+00	123	35	101	1048576	56	6026
2026-01-07 11:50:42.47	76.73	10.68	-39.1	-40.1	22.9	0.00e+00	123	35	101	1048576	56	6011
2026-01-07 11:50:45.51	77.29	10.65	-38.9	-39.9	23.1	0.00e+00	120	35	101	1048576	56	5897
2026-01-07 11:50:48.54	77.84	10.62	-38.9	-39.9	23.1	0.00e+00	122	35	101	1048576	56	5895
2026-01-07 11:50:51.57	78.39	10.59	-39.0	-40.0	23.0	0.00e+00	123	35	101	1048576	56	5944
2026-01-07 11:50:54.61	78.94	10.56	-39.2	-40.2	22.8	0.00e+00	123	35	101	1048576	56	6103
2026-01-07 11:50:57.64	79.48	10.53	-39.2	-40.2	22.8	0.00e+00	123	35	101	1048576	56	6132
2026-01-07 11:51:00.68	80.03	10.49	-39.2	-40.2	22.7	0.00e+00	120	35	101	1048576	56	6079
2026-01-07 11:51:03.71	80.58	10.45	-39.3	-40.3	22.7	0.00e+00	121	35	101	1048576	56	6201
2026-01-07 11:51:06.74	81.12	10.41	-39.3	-40.3	22.7	0.00e+00	122	35	101	1048576	56	6169
2026-01-07 11:51:09.77	81.66	10.37	-39.2	-40.2	22.7	0.00e+00	122	35	101	1048576	56	6080
2026-01-07 11:51:12.81	82.20	10.32	-39.2	-40.3	22.7	0.00e+00	122	35	101	1048576	56	6146
2026-01-07 11:51:15.84	82.74	10.27	-39.2	-40.2	22.7	0.00e+00	123	35	101	1048576	56	6078
2026-01-07 11:51:18.87	83.28	10.22	-39.1	-40.2	22.8	0.00e+00	123	35	101	1048576	56	6071
2026-01-07 11:51:21.91	83.82	10.17	-39.3	-40.3	22.6	0.00e+00	123	35	101	1048576	56	6153
2026-01-07 11:51:24.94	84.35	10.12	-39.2	-40.2	22.7	0.00e+00	123	35	101	1048576	58	5407
2026-01-07 11:51:27.98	84.88	10.06	-39.2	-40.2	22.8	0.00e+00	123	35	101	1048576	56	6100
2026-01-07 11:51:31.01	85.41	10.00	-39.0	-40.0	22.9	0.00e+00	123	35	101	1048576	56	5988
2026-01-07 11:51:34.04	85.94	9.94	-39.1	-40.1	22.9	0.00e+00	123	35	101	1048576	56	6021
2026-01-07 11:51:37.08	86.47	9.88	-39.1	-40.1	22.9	0.00e+00	122	35	101	1048576	56	6043
2026-01-07 11:51:40.11	86.99	9.81	-39.1	-40.1	22.9	0.00e+00	123	35	101	1048576	56	6030
2026-01-07 11:51:43.14	87.51	9.75	-39.3	-40.3	22.7	0.00e+00	123	35	101	1048576	56	6141
2026-01-07 11:51:46.18	88.03	9.68	-39.0	-40.0	23.0	0.00e+00	122	35	101	1048576	56	5966
2026-01-07 11:51:49.21	88.54	9.61	-39.1	-40.1	22.8	0.00e+00	122	35	101	1048576	56	6044
2026-01-07 11:51:52.24	89.06	9.54	-39.2	-40.2	22.8	0.00e+00	123	35	101	1048576	56	6075
2026-01-07 11:51:55.28	89.57	9.46	-39.2	-40.2	22.7	0.00e+00	120	35	101	1048576	56	6117
2026-01-07 11:51:58.31	90.08	9.39	-39.1	-40.1	22.8	0.00e+00	122	35	101	1048576	56	6043
2026-01-07 11:52:01.34	90.59	9.31	-39.2	-40.3	22.6	0.00e+00	123	35	101	1048576	56	6158
2026-01-07 11:52:04.38	91.09	9.23	-39.2	-40.2	22.7	0.00e+00	123	35	101	1048576	56	6125
2026-01-07 11:52:07.41	91.59	9.15	-39.2	-40.2	22.7	0.00e+00	121	35	101	1048576	56	6129
2026-01-07 11:52:10.44	92.09	9.07	-39.3	-40.4	22.6	0.00e+00	122	35	101	1048576	56	6213
2026-01-07 11:52:13.48	92.59	8.99	-39.4	-40.4	22.5	0.00e+00	120	35	101	1048576	56	6260
2026-01-07 11:52:16.51	93.08	8.90	-39.3	-40.4	22.4	0.00e+00	122	35	101	1048576	56	6218
2026-01-07 11:52:19.54	93.57	8.82	-39.3	-40.3	22.6	0.00e+00	120	35	101	1048576	56	6181
2026-01-07 11:52:22.57	94.06	8.73	-39.1	-40.1	22.7	0.00e+00	123	35	101	1048576	56	6021
2026-01-07 11:52:25.60	94.54	8.64	-39.2	-40.2	22.7	0.00e+00	123	35	101	1048576	56	6091
2026-01-07 11:52:28.63	95.02	8.55	-39.5	-40.5	22.5	0.00e+00	123	35	101	1048576	56	6327
2026-01-07 11:52:31.67	95.51	8.46	-39.6	-40.6	22.3	0.00e+00	122	35	101	1048576	56	6393
2026-01-07 11:52:34.70	95.98	8.36	-39.6	-40.7	22.3	0.00e+00	123	35	101	1048576	56	6460
2026-01-07 11:52:37.73	96.45	8.27	-39.5	-40.6	22.4	0.00e+00	123	35	101	1048576	56	6369
2026-01-07 11:52:40.76	96.92	8.17	-39.6	-40.6	22.3	0.00e+00	123	35	101	1048576	56	6396
2026-01-07 11:52:43.80	97.39	8.07	-39.6	-40.7	22.3	0.00e+00	123	35	101	1048576	56	6440
2026-01-07 11:52:46.83	97.86	7.97	-39.7	-40.8	22.2	0.00e+00	123	35	101	1048576	56	6523
2026-01-07 11:52:49.86	98.32	7.87	-40.0	-41.1	21.9	0.00e+00	123	35	101	1048576	56	6776
2026-01-07 11:52:52.89	98.77	7.77	-39.9	-41.0	21.9	0.00e+00	123	35	101	1048576	56	6703
2026-01-07 11:52:55.93	99.23	7.67	-39.8	-40.9	22.1	0.00e+00	122	35	101	1048576	56	6608
2026-01-07 11:52:58.96	99.68	7.57	-40.0	-41.0	21.9	0.00e+00	120	35	101	1048576	56	6723
2026-01-07 11:53:01.99	100.13	7.46	-39.9	-41.0	22.0	0.00e+00	120	35	101	1048576	56	6682
2026-01-07 11:53:05.02	100.58	7.36	-40.0	-41.0	21.9	0.00e+00	122	35	101	1048576	56	6701
2026-01-07 11:53:08.06	101.02	7.25	-40.2	-41.3	21.6	0.00e+00	127	35	101	1048576	58	6158
2026-01-07 11:53:11.09	101.46	7.14	-40.1	-41.2	21.7	0.00e+00	120	35	101	1048576	58	6118
2026-01-07 11:53:14.12	101.90	7.03	-40.0	-41.1	21.7	0.00e+00	122	35	101	1048576	58	6041
2026-01-07 11:53:17.16	102.33	6.92	-40.1	-41.2	21.7	0.00e+00	122	35	101	1048576	58	6089
2026-01-07 11:53:20.19	102.76	6.81	-39.9	-41.0	21.8	0.00e+00	123	35	101	1048576	58	5964
2026-01-07 11:53:23.22	103.19	6.70	-40.0	-41.1	21.7	0.00e+00	122	35	101	1048576	58	6025
2026-01-07 11:53:26.25	103.61	6.59	-40.0	-41.1	21.6	0.00e+00	122	35	101	1048576	58	6047
2026-01-07 11:53:29.29	104.03	6.48	-40.2	-41.3	21.5	0.00e+00	120	35	101	1048576	58	6138
2026-01-07 11:53:32.32	104.45	6.36	-40.3	-41.4	21.4	0.00e+00	123	35	101	1048576	58	6218
2026-01-07 11:53:35.35	104.86	6.25	-40.2	-41.3	21.5	0.00e+00	123	35	101	1048576	58	6139
2026-01-07 11:53:38.38	105.28	6.13	-40.1	-41.3	21.5	0.00e+00	123	35	101	1048576	58	6148
2026-01-07 11:53:41.42	105.68	6.02	-40.1	-41.3	21.5	0.00e+00	123	35	101	1048576	58	6137
2026-01-07 11:53:44.45	106.09	5.90	-40.3	-41.5	21.4	0.00e+00	123	35	101	1048576	58	6279
2026-01-07 11:53:47.48	106.49	5.78	-40.3	-41.5	21.3	0.00e+00	120	35	101	1048576	58	6316
2026-01-07 11:53:50.51	106.89	5.67	-40.5	-41.7	21.1	0.00e+00	123	35	101	1048576	58	6451
2026-01-07 11:53:53.55	107.29	5.55	-40.4	-41.5	21.2	0.00e+00	123	35	101	1048576	58	6340
2026-01-07 11:53:56.58	107.68	5.43	-40.5	-41.8	21.0	0.00e+00	120	35	101	1048576	58	6500
2026-01-07 11:53:59.61	108.07	5.31	-40.6	-41.7	21.0	0.00e+00	123	35	101	1048576	58	6482
2026-01-07 11:54:02.64	108.46	5.19	-40.7	-41.9	20.8	0.00e+00	120	35	101	1048576	58	6588
2026-01-07 11:54:05.67	108.84	5.07	-40.7	-41.9	20.8	0.00e+00	122	35	101	1048576	58	6604
2026-01-07 11:54:08.71	109.22	4.95	-40.8	-42.1	20.6	0.00e+00	123	35	101	1048576	58	6729
2026-01-07 11:54:11.74	109.60	4.82	-40.8	-42.0	20.6	0.00e+00	122	35	101	1048576	58	6686
2026-01-07 11:54:14.77	109.97	4.70	-40.7	-41.9	20.8	0.00e+00	123	35	101	1048576	58	6602
2026-01-07 11:54:17.81	110.35	4.58	-40.8	-42.1	20.5	0.00e+00	122	35	101	1048576	58	6727
2026-01-07 11:54:20.84	110.71	4.46	-40.8	-42.0	20.6	0.00e+00	122	35	101	1048576	58	6658
2026-01-07 11:54:23.87	111.08	4.33	-40.7	-41.9	20.6	0.00e+00	122	35	101	1048576	58	6638
2026-01-07 11:54:26.90	111.44	4.21	-40.9	-42.1	20.3	0.00e+00	123	35	101	1048576	58	6763
2026-01-07 11:54:29.93	111.80	4.09	-40.9	-42.1	20.2	0.00e+00	123	35	101	1048576	58	6791
2026-01-07 11:54:32.97	112.16	3.96	-41.4	-42.7	19.7	0.00e+00	122	35	101	1048576	60	6452
2026-01-07 11:54:36.00	112.51	3.84	-41.2	-42.4	19.9	0.00e+00	122	35	101	1048576	60	6277
2026-01-07 11:54:39.03	112.86	3.71	-41.1	-42.4	19.9	0.00e+00	123	35	101	1048576	60	6277
2026-01-07 11:54:42.06	113.21	3.59	-41.3	-42.7	19.7	0.00e+00	123	35	101	1048576	60	6433
2026-01-07 11:54:45.10	113.56	3.46	-41.5	-43.0	19.3	0.00e+00	122	35	101	1048576	60	6656
2026-01-07 11:54:48.13	113.90	3.33	-41.6	-43.0	19.2	0.00e+00	123	35	101	1048576	60	6660
2026-01-07 11:54:51.16	114.24	3.21	-42.0	-43.4	18.8	0.00e+00	122	35	101	1048576	60	6997
2026-01-07 11:54:54.20	114.58	3.08	-41.8	-43.2	18.7	0.00e+00	122	35	101	1048576	60	6858
2026-01-07 11:54:57.23	114.91	2.95	-51.6	-64.6	3.5	1.52e+00	0	35	104	1048576	60	80710
2026-01-07 11:55:00.26	115.24	2.83	-51.9	-64.9	3.5	1.52e+00	0	35	104	1048576	60	83418
2026-01-07 11:55:03.29	115.57	2.70	-52.0	-65.0	3.5	1.52e+00	0	35	104	1048576	60	84553
2026-01-07 11:55:06.33	115.90	2.57	-51.8	-65.0	3.5	1.52e+00	0	35	104	1048576	60	84137
2026-01-07 11:55:09.36	116.22	2.45	-51.9	-64.9	3.5	1.52e+00	0	35	104	1048576	60	83630
2026-01-07 11:55:12.39	116.54	2.32	-51.9	-65.0	3.5	1.52e+00	0	35	104	1048576	60	83764
2026-01-07 11:55:15.42	116.86	2.19	-51.9	-64.9	3.5	1.52e+00	0	35	104	1048576	60	83484
2026-01-07 11:55:18.46	117.18	2.06	-51.9	-64.9	3.5	1.52e+00	0	35	104	1048576	60	83628
2026-01-07 11:55:21.49	117.49	1.94	-51.9	-64.9	3.5	1.51e+00	0	35	104	1048576	60	83195
2026-01-07 11:55:24.53	117.80	1.81	-51.9	-64.9	3.5	1.52e+00	0	35	104	1048576	60	83271
2026-01-07 11:55:27.56	118.11	1.68	-51.9	-64.9	3.5	1.52e+00	0	35	104	1048576	60	83155
2026-01-07 11:55:30.59	118.41	1.55	-51.9	-64.9	3.5	1.52e+00	0	35	104	1048576	60	83298
2026-01-07 11:55:33.62	118.72	1.42	-51.9	-64.9	3.5	1.52e+00	0	35	104	1048576	60	83404
2026-01-07 11:55:36.66	119.02	1.30	-51.9	-64.9	3.5	1.51e+00	0	35	104	1048576	60	83249
2026-01-07 11:55:39.69	119.32	1.17	-51.9	-64.9	3.5	1.51e+00	0	35	104	1048576	60	83386
2026-01-07 11:55:42.72	119.61	1.04	-51.9	-64.9	3.5	1.52e+00	0	35	104	1048576	60	83258
2026-01-07 11:55:45.75	119.90	0.91	-51.9	-64.9	3.5	1.52e+00	0	35	104	1048576	60	83322
2026-01-07 11:55:48.79	120.20	0.78	-51.9	-64.9	3.5	1.51e+00	0	35	104	1048576	60	83402
2026-01-07 11:55:51.82	120.48	0.65	-51.9	-64.9	3.5	1.52e+00	0	35	104	1048576	60	83114
2026-01-07 11:55:54.85	120.77	0.53	-51.9	-64.8	3.5	1.52e+00	0	35	104	1048576	60	82701
2026-01-07 11:55:57.88	121.05	0.40	-51.9	-64.9	3.5	1.52e+00	0	35	104	1048576	60	83172
2026-01-07 11:56:00.92	121.33	0.27	-51.9	-64.9	3.5	1.52e+00	0	35	104	1048576	60	83144
2026-01-07 11:56:03.95	121.61	0.14	-51.9	-64.9	3.5	1.52e+00	0	35	104	1048576	60	83350
2026-01-07 11:56:06.98	121.89	0.01	-51.9	-64.9	3.5	1.52e+00	0	35	104	1048576	60	83034

#Closed at: 2026-01-07 11:56:09
#Recorded file [1 MB]: D:/lorett/data/35034_260107_144417.dat