passes_logs/2026/01/07/R4.6S_Anadyr_2ch/R4.6S_Anadyr_2ch__20260107_061648_FENGYUN_3E_rec.log

#Pass ID: 20260107_061648_FENGYUN 3E
#Satellite: FENGYUN 3E
#Configuration: FENGYUN 3E
#almurnet v.1.7.20251203
#Start time: 2026-01-07 06:16:51

#Version: 2.2.20231116
#Station: R4.6S_Anadyr_2ch
#Location: 177.4865 lon 64.73178 lat
#TLE: 1 49008U 21062A   25350.97288215  .00000176  00000+0  10353-3 0  9997
#TLE: 2 49008  98.7477 351.4440 0000638 234.3856 125.7261 14.19881381230726

#Time	Az	El	Level	Level2	SNR	BER	BlckErr	Temp	State	Recorded	gain1	gain2
2026-01-07 06:16:51.71	202.38	0.16	-51.1	-61.1	3.3	8.40e-01	0	31	0	0	60	56119
2026-01-07 06:16:55.74	202.61	0.38	-51.1	-62.6	3.6	8.45e-01	0	32	104	0	60	66428
2026-01-07 06:16:59.77	202.85	0.60	-51.2	-62.8	3.6	8.45e-01	0	32	104	0	60	68070
2026-01-07 06:17:03.81	203.08	0.82	-51.3	-62.8	3.6	8.44e-01	0	32	104	0	60	68347
2026-01-07 06:17:07.85	203.33	1.05	-50.9	-62.6	3.6	8.45e-01	0	32	104	0	60	66327
2026-01-07 06:17:11.87	203.57	1.27	-50.6	-62.0	3.6	8.44e-01	0	32	104	0	60	62364
2026-01-07 06:17:15.91	203.82	1.50	-50.0	-61.2	3.6	8.44e-01	0	32	104	0	60	56917
2026-01-07 06:17:19.94	204.07	1.72	-49.9	-61.1	3.6	8.46e-01	0	32	104	0	60	56231
2026-01-07 06:17:23.98	204.33	1.95	-50.0	-61.4	3.6	8.45e-01	0	32	104	0	60	57631
2026-01-07 06:17:28.01	204.58	2.18	-50.0	-61.3	3.6	8.45e-01	0	32	104	0	60	57443
2026-01-07 06:17:32.05	204.85	2.41	-49.9	-60.9	3.6	8.45e-01	0	32	104	0	60	54507
2026-01-07 06:17:36.09	205.11	2.65	-49.9	-61.1	3.6	8.45e-01	0	32	104	0	60	55882
2026-01-07 06:17:40.12	205.38	2.88	-50.0	-61.4	3.6	8.46e-01	0	33	104	0	60	57924
2026-01-07 06:17:44.16	205.66	3.12	-49.5	-56.2	3.9	8.30e-01	0	33	0	0	60	32016
2026-01-07 06:17:48.20	205.94	3.36	-48.3	-53.0	7.3	2.71e-01	0	33	104	0	60	22097
2026-01-07 06:17:52.23	206.22	3.59	-41.3	-42.2	18.3	0.00e+00	0	33	102	1048576	60	6367
2026-01-07 06:17:56.26	206.51	3.84	-49.7	-60.2	3.6	8.48e-01	0	33	104	1048576	60	50283
2026-01-07 06:18:00.29	206.80	4.08	-39.6	-40.4	20.1	0.00e+00	0	33	0	1048576	58	5792
2026-01-07 06:18:04.32	207.10	4.32	-38.5	-39.2	21.3	0.00e+00	0	33	101	1048576	56	5663
2026-01-07 06:18:08.35	207.40	4.56	-37.9	-38.5	21.9	0.00e+00	0	33	101	1048576	54	5880
2026-01-07 06:18:12.39	207.71	4.81	-37.7	-38.3	22.1	0.00e+00	0	33	101	1048576	54	5740
2026-01-07 06:18:16.42	208.02	5.06	-37.5	-38.1	22.4	0.00e+00	0	33	101	1048576	54	5602
2026-01-07 06:18:20.46	208.34	5.31	-37.2	-37.8	22.7	0.00e+00	0	33	101	1048576	54	5424
2026-01-07 06:18:24.49	208.66	5.56	-37.2	-37.8	22.7	0.00e+00	0	33	101	1048576	54	5388
2026-01-07 06:18:28.53	208.99	5.82	-37.1	-37.7	23.0	0.00e+00	0	33	101	1048576	52	5996
2026-01-07 06:18:32.56	209.32	6.07	-36.9	-37.5	23.1	0.00e+00	0	33	101	1048576	52	5884
2026-01-07 06:18:36.59	209.66	6.33	-36.9	-37.5	23.2	0.00e+00	0	33	101	1048576	52	5859
2026-01-07 06:18:40.62	210.00	6.59	-36.4	-37.0	23.6	0.00e+00	0	33	101	1048576	52	5535
2026-01-07 06:18:44.66	210.35	6.85	-36.4	-37.0	23.8	0.00e+00	0	33	101	1048576	52	5514
2026-01-07 06:18:48.69	210.71	7.11	-36.3	-36.8	23.8	0.00e+00	0	33	101	1048576	52	5439
2026-01-07 06:18:52.72	211.07	7.37	-36.5	-37.0	23.8	0.00e+00	0	33	101	1048576	52	5543
2026-01-07 06:18:56.76	211.44	7.64	-36.7	-37.2	23.5	0.00e+00	0	33	101	1048576	52	5686
2026-01-07 06:19:00.80	211.81	7.91	-36.4	-37.0	23.8	0.00e+00	0	33	101	1048576	52	5542
2026-01-07 06:19:04.84	212.19	8.18	-36.5	-37.0	23.8	0.00e+00	0	33	101	1048576	52	5563
2026-01-07 06:19:08.89	212.59	8.45	-36.3	-36.8	24.0	0.00e+00	0	33	101	1048576	52	5419
2026-01-07 06:19:12.93	212.98	8.72	-36.0	-36.8	21.7	0.00e+00	0	33	101	1048576	50	6062
2026-01-07 06:19:16.98	213.39	9.00	-35.7	-36.5	22.0	0.00e+00	0	33	101	1048576	50	5860
2026-01-07 06:19:21.02	213.80	9.27	-35.5	-36.3	22.2	0.00e+00	0	33	101	1048576	50	5701
2026-01-07 06:19:25.06	214.21	9.55	-35.8	-36.5	22.1	0.00e+00	0	33	101	1048576	50	5866
2026-01-07 06:19:29.11	214.64	9.83	-35.6	-36.3	22.4	0.00e+00	0	33	101	1048576	50	5724
2026-01-07 06:19:33.15	215.08	10.12	-35.8	-36.5	22.3	0.00e+00	0	33	101	1048576	50	5859
2026-01-07 06:19:37.19	215.52	10.40	-35.8	-36.5	22.2	0.00e+00	0	33	101	1048576	50	5863
2026-01-07 06:19:41.23	215.97	10.69	-35.4	-36.1	22.6	0.00e+00	0	33	101	1048576	50	5613
2026-01-07 06:19:45.27	216.43	10.98	-35.2	-35.9	22.7	0.00e+00	0	33	101	1048576	50	5500
2026-01-07 06:19:49.32	216.90	11.27	-35.4	-36.1	22.6	0.00e+00	0	33	101	1048576	50	5579
2026-01-07 06:19:53.36	217.37	11.56	-35.2	-36.0	22.5	0.00e+00	0	33	101	1048576	50	5516
2026-01-07 06:19:57.40	217.86	11.85	-35.2	-35.9	22.6	0.00e+00	0	33	101	1048576	50	5462
2026-01-07 06:20:01.44	218.36	12.14	-35.0	-35.8	22.7	0.00e+00	0	33	101	1048576	48	6042
2026-01-07 06:20:05.48	218.86	12.44	-35.2	-35.9	22.6	0.00e+00	0	33	101	1048576	48	6135
2026-01-07 06:20:09.52	219.38	12.74	-34.9	-35.6	22.4	0.00e+00	0	33	101	1048576	48	5922
2026-01-07 06:20:13.57	219.90	13.04	-34.7	-35.4	22.6	0.00e+00	0	33	101	1048576	48	5816
2026-01-07 06:20:17.61	220.44	13.34	-34.7	-35.5	22.5	0.00e+00	0	33	101	1048576	48	5835
2026-01-07 06:20:21.65	220.99	13.64	-34.9	-35.7	22.3	0.00e+00	0	33	101	1048576	48	5988
2026-01-07 06:20:25.70	221.55	13.95	-34.7	-35.5	22.4	0.00e+00	0	33	101	1048576	48	5852
2026-01-07 06:20:29.74	222.11	14.25	-34.6	-35.3	22.5	0.00e+00	0	33	101	1048576	48	5743
2026-01-07 06:20:33.78	222.69	14.56	-34.4	-35.1	22.9	0.00e+00	0	33	101	1048576	48	5616
2026-01-07 06:20:37.82	223.29	14.87	-34.5	-35.2	23.0	0.00e+00	0	33	101	1048576	48	5654
2026-01-07 06:20:41.87	223.89	15.18	-34.2	-34.8	23.2	0.00e+00	0	33	101	1048576	48	5432
2026-01-07 06:20:45.91	224.51	15.49	-34.1	-34.8	23.3	0.00e+00	0	33	101	1048576	46	6047
2026-01-07 06:20:49.95	225.14	15.80	-33.8	-34.5	23.5	0.00e+00	0	33	101	1048576	46	5862
2026-01-07 06:20:54.00	225.78	16.11	-33.6	-34.3	23.7	0.00e+00	0	33	101	1048576	46	5728
2026-01-07 06:20:58.04	226.43	16.42	-33.6	-34.3	23.6	0.00e+00	0	34	101	1048576	46	5740
2026-01-07 06:21:02.08	227.10	16.73	-33.9	-34.6	23.2	0.00e+00	0	33	101	1048576	46	5919
2026-01-07 06:21:06.12	227.78	17.04	-33.5	-34.2	23.4	0.00e+00	0	33	101	1048576	46	5645
2026-01-07 06:21:10.16	228.48	17.36	-33.2	-33.8	23.5	0.00e+00	0	34	101	1048576	46	5425
2026-01-07 06:21:14.20	229.19	17.67	-33.2	-33.8	23.5	0.00e+00	0	33	101	1048576	44	6089
2026-01-07 06:21:18.25	229.91	17.98	-32.9	-33.5	23.6	0.00e+00	0	33	101	1048576	44	5892
2026-01-07 06:21:22.29	230.65	18.29	-33.1	-33.7	23.6	0.00e+00	0	33	101	1048576	44	6031
2026-01-07 06:21:26.33	231.40	18.60	-33.1	-33.8	23.6	0.00e+00	0	33	101	1048576	44	6054
2026-01-07 06:21:30.37	232.17	18.91	-33.1	-33.8	23.8	0.00e+00	0	33	101	1048576	44	6043
2026-01-07 06:21:34.41	232.95	19.22	-33.0	-33.6	24.1	0.00e+00	0	33	101	1048576	44	5928
2026-01-07 06:21:38.46	233.75	19.53	-32.8	-33.4	23.9	0.00e+00	0	33	101	1048576	44	5815
2026-01-07 06:21:42.50	234.57	19.83	-32.8	-33.5	23.7	0.00e+00	0	33	101	1048576	44	5844
2026-01-07 06:21:46.54	235.40	20.14	-32.8	-33.5	23.5	0.00e+00	0	33	101	1048576	44	5865
2026-01-07 06:21:50.59	236.25	20.44	-32.7	-33.4	23.4	0.00e+00	0	33	101	1048576	44	5818
2026-01-07 06:21:54.63	237.11	20.74	-32.7	-33.4	23.3	0.00e+00	0	33	101	1048576	44	5809
2026-01-07 06:21:58.68	237.99	21.03	-32.7	-33.4	23.6	0.00e+00	0	33	101	1048576	44	5764
2026-01-07 06:22:02.72	238.88	21.32	-32.5	-33.1	24.0	0.00e+00	0	34	101	1048576	44	5623
2026-01-07 06:22:06.76	239.80	21.61	-32.5	-33.1	24.2	0.00e+00	0	33	101	1048576	44	5605
2026-01-07 06:22:10.80	240.72	21.89	-32.5	-33.2	23.8	0.00e+00	0	33	101	1048576	44	5663
2026-01-07 06:22:14.84	241.67	22.17	-32.6	-33.3	23.6	0.00e+00	0	33	101	1048576	44	5716
2026-01-07 06:22:18.88	242.63	22.45	-32.4	-33.1	23.6	0.00e+00	0	33	101	1048576	44	5608
2026-01-07 06:22:22.93	243.61	22.72	-32.6	-33.3	23.6	0.00e+00	0	33	101	1048576	44	5732
2026-01-07 06:22:26.97	244.60	22.98	-32.2	-32.8	23.9	0.00e+00	0	34	101	1048576	44	5415
2026-01-07 06:22:31.01	245.61	23.24	-32.1	-32.7	24.1	0.00e+00	0	34	101	1048576	42	6002
2026-01-07 06:22:35.05	246.64	23.48	-32.3	-33.0	23.9	0.00e+00	0	34	101	1048576	42	6192
2026-01-07 06:22:39.10	247.69	23.73	-32.3	-32.9	23.9	0.00e+00	0	34	101	1048576	42	6173
2026-01-07 06:22:43.14	248.74	23.96	-32.3	-33.0	23.7	0.00e+00	0	34	101	1048576	42	6202
2026-01-07 06:22:47.17	249.81	24.19	-32.3	-33.0	23.8	0.00e+00	0	34	101	1048576	42	6205
2026-01-07 06:22:51.20	250.90	24.41	-32.1	-32.8	23.8	0.00e+00	0	34	101	1048576	42	6071
2026-01-07 06:22:55.24	252.00	24.62	-31.9	-32.6	24.2	0.00e+00	0	34	101	1048576	42	5913
2026-01-07 06:22:59.27	253.11	24.81	-31.7	-32.4	24.5	0.00e+00	0	34	101	1048576	42	5766
2026-01-07 06:23:03.30	254.24	25.00	-31.8	-32.4	24.4	0.00e+00	0	33	101	1048576	42	5785
2026-01-07 06:23:07.33	255.38	25.18	-31.6	-32.2	24.4	0.00e+00	0	34	101	1048576	42	5657
2026-01-07 06:23:11.36	256.53	25.35	-31.8	-32.5	23.9	0.00e+00	0	34	101	1048576	42	5861
2026-01-07 06:23:15.40	257.70	25.51	-31.9	-32.6	24.0	0.00e+00	0	34	101	1048576	42	5912
2026-01-07 06:23:19.43	258.88	25.65	-31.9	-32.5	24.1	0.00e+00	0	33	101	1048576	42	5869
2026-01-07 06:23:23.47	260.06	25.79	-31.9	-32.6	24.1	0.00e+00	0	34	101	1048576	42	5915
2026-01-07 06:23:27.50	261.26	25.91	-32.0	-32.7	24.4	0.00e+00	0	33	101	1048576	42	5968
2026-01-07 06:23:31.53	262.46	26.02	-31.8	-32.5	24.1	0.00e+00	0	34	101	1048576	42	5859
2026-01-07 06:23:35.57	263.67	26.11	-32.0	-32.7	23.6	0.00e+00	0	33	101	1048576	42	6026
2026-01-07 06:23:39.60	264.89	26.20	-31.7	-32.4	23.9	0.00e+00	0	34	101	1048576	42	5792
2026-01-07 06:23:43.64	266.11	26.27	-31.7	-32.4	23.9	0.00e+00	0	33	101	1048576	42	5803
2026-01-07 06:23:47.68	267.34	26.32	-31.5	-32.1	24.3	0.00e+00	0	34	101	1048576	42	5597
2026-01-07 06:23:51.71	268.58	26.36	-31.5	-32.2	24.3	0.00e+00	0	33	101	1048576	42	5644
2026-01-07 06:23:55.74	269.81	26.39	-31.6	-32.3	24.2	0.00e+00	0	33	101	1048576	42	5718
2026-01-07 06:23:59.77	271.04	26.41	-31.5	-32.2	24.1	0.00e+00	0	33	101	1048576	42	5654
2026-01-07 06:24:03.81	272.28	26.41	-31.6	-32.2	24.0	0.00e+00	0	33	101	1048576	42	5682
2026-01-07 06:24:07.84	273.52	26.39	-31.8	-32.5	23.9	0.00e+00	0	33	101	1048576	42	5838
2026-01-07 06:24:11.87	274.75	26.36	-31.7	-32.4	23.9	0.00e+00	0	34	101	1048576	42	5764
2026-01-07 06:24:15.87	275.97	26.32	-31.8	-32.4	24.0	0.00e+00	0	33	101	1048576	42	5820
2026-01-07 06:24:19.91	277.20	26.27	-31.6	-32.2	24.4	0.00e+00	0	34	101	1048576	42	5656
2026-01-07 06:24:23.94	278.42	26.20	-31.7	-32.3	23.9	0.00e+00	0	34	101	1048576	42	5749
2026-01-07 06:24:27.98	279.64	26.12	-31.9	-32.5	24.1	0.00e+00	0	34	101	1048576	42	5853
2026-01-07 06:24:32.01	280.85	26.02	-31.7	-32.4	23.9	0.00e+00	0	34	101	1048576	42	5773
2026-01-07 06:24:36.04	282.05	25.92	-31.8	-32.5	23.7	0.00e+00	0	33	101	1048576	42	5885
2026-01-07 06:24:40.08	283.24	25.79	-31.6	-32.3	24.0	0.00e+00	0	34	101	1048576	42	5696
2026-01-07 06:24:44.12	284.43	25.66	-31.6	-32.3	24.0	0.00e+00	0	34	101	1048576	42	5719
2026-01-07 06:24:48.15	285.60	25.52	-31.6	-32.2	24.1	0.00e+00	0	34	101	1048576	42	5693
2026-01-07 06:24:52.18	286.76	25.36	-31.9	-32.5	23.8	0.00e+00	0	34	101	1048576	42	5887
2026-01-07 06:24:56.22	287.92	25.19	-32.0	-32.7	23.9	0.00e+00	0	34	101	1048576	42	5984
2026-01-07 06:25:00.26	289.06	25.02	-32.1	-32.7	23.9	0.00e+00	0	34	101	1048576	42	6021
2026-01-07 06:25:04.30	290.19	24.83	-32.2	-32.9	23.8	0.00e+00	0	34	101	1048576	42	6139
2026-01-07 06:25:08.33	291.30	24.63	-32.1	-32.6	27.8	0.00e+00	0	34	101	1048576	42	5944
2026-01-07 06:25:12.36	292.39	24.42	-32.1	-32.6	27.9	0.00e+00	0	33	101	1048576	42	5923
2026-01-07 06:25:16.40	293.48	24.21	-32.3	-32.8	27.7	0.00e+00	0	33	101	1048576	42	6085
2026-01-07 06:25:20.43	294.55	23.98	-32.6	-33.1	27.5	0.00e+00	0	33	101	1048576	42	6258
2026-01-07 06:25:24.47	295.60	23.75	-32.5	-33.0	27.7	0.00e+00	0	33	101	1048576	42	6176
2026-01-07 06:25:28.50	296.64	23.51	-32.2	-32.7	27.9	0.00e+00	0	34	101	1048576	42	5975
2026-01-07 06:25:32.54	297.66	23.26	-32.4	-32.9	27.7	0.00e+00	0	34	101	1048576	42	6138
2026-01-07 06:25:36.57	298.67	23.01	-32.7	-33.2	27.5	0.00e+00	0	34	101	1048576	42	6322
2026-01-07 06:25:40.61	299.66	22.74	-32.9	-33.5	27.2	0.00e+00	0	34	101	1048576	44	5829
2026-01-07 06:25:44.64	300.63	22.48	-33.0	-33.4	27.3	0.00e+00	0	34	101	1048576	44	5817
2026-01-07 06:25:48.68	301.59	22.21	-32.6	-33.1	27.6	0.00e+00	0	34	101	1048576	44	5567
2026-01-07 06:25:52.72	302.54	21.93	-32.7	-33.2	27.5	0.00e+00	0	34	101	1048576	44	5636
2026-01-07 06:25:56.75	303.46	21.65	-32.8	-33.3	27.3	0.00e+00	0	34	101	1048576	44	5711
2026-01-07 06:26:00.79	304.37	21.36	-33.0	-33.5	27.1	0.00e+00	0	34	101	1048576	44	5860
2026-01-07 06:26:04.82	305.26	21.08	-33.2	-33.7	26.9	0.00e+00	0	34	101	1048576	44	5980
2026-01-07 06:26:08.86	306.14	20.78	-33.3	-33.8	26.8	0.00e+00	0	34	101	1048576	44	6038
2026-01-07 06:26:12.89	307.00	20.49	-33.5	-34.0	26.8	0.00e+00	0	34	101	1048576	44	6186
2026-01-07 06:26:16.93	307.84	20.19	-33.2	-33.7	26.9	0.00e+00	0	34	101	1048576	44	6002
2026-01-07 06:26:20.96	308.67	19.89	-33.8	-34.3	26.5	0.00e+00	0	33	101	1048576	44	6392
2026-01-07 06:26:24.99	309.48	19.59	-33.4	-33.9	26.8	0.00e+00	0	34	101	1048576	46	5488
2026-01-07 06:26:29.02	310.27	19.28	-33.5	-34.0	26.7	0.00e+00	0	34	101	1048576	46	5522
2026-01-07 06:26:33.06	311.05	18.98	-33.4	-33.9	26.9	0.00e+00	0	34	101	1048576	46	5453
2026-01-07 06:26:37.09	311.82	18.67	-33.4	-33.9	26.8	0.00e+00	0	34	101	1048576	46	5461
2026-01-07 06:26:41.13	312.57	18.36	-33.5	-34.0	26.7	0.00e+00	0	34	101	1048576	46	5536
2026-01-07 06:26:45.17	313.31	18.05	-33.9	-34.4	26.5	0.00e+00	0	34	101	1048576	46	5784
2026-01-07 06:26:49.21	314.03	17.74	-34.0	-34.5	26.3	0.00e+00	0	34	101	1048576	46	5853
2026-01-07 06:26:53.26	314.74	17.43	-33.5	-34.0	26.7	0.00e+00	0	34	101	1048576	46	5531
2026-01-07 06:26:57.30	315.43	17.12	-33.4	-33.9	26.8	0.00e+00	0	34	101	1048576	46	5488
2026-01-07 06:27:01.34	316.12	16.81	-33.8	-34.3	26.4	0.00e+00	0	34	101	1048576	46	5755
2026-01-07 06:27:05.38	316.78	16.50	-34.5	-35.0	25.9	0.00e+00	0	34	101	1048576	46	6190
2026-01-07 06:27:09.42	317.44	16.20	-34.4	-35.0	26.0	0.00e+00	0	34	101	1048576	46	6177
2026-01-07 06:27:13.47	318.08	15.89	-34.2	-34.7	26.1	0.00e+00	0	34	101	1048576	46	5984
2026-01-07 06:27:17.51	318.71	15.58	-33.7	-34.2	26.4	0.00e+00	0	34	101	1048576	46	5679
2026-01-07 06:27:21.55	319.32	15.27	-34.0	-34.5	26.3	0.00e+00	0	34	101	1048576	46	5837
2026-01-07 06:27:25.60	319.93	14.96	-34.7	-35.2	25.6	0.00e+00	0	34	101	1048576	46	6350
2026-01-07 06:27:29.64	320.52	14.66	-35.0	-35.6	25.2	0.00e+00	0	34	101	1048576	48	5917
2026-01-07 06:27:33.69	321.10	14.35	-35.1	-35.6	25.2	0.00e+00	0	34	101	1048576	48	5927
2026-01-07 06:27:37.73	321.67	14.05	-34.6	-35.2	25.6	0.00e+00	0	34	101	1048576	48	5634
2026-01-07 06:27:41.76	322.23	13.75	-34.5	-35.0	25.7	0.00e+00	0	34	101	1048576	48	5515
2026-01-07 06:27:45.81	322.77	13.45	-34.5	-35.0	25.6	0.00e+00	0	34	101	1048576	48	5544
2026-01-07 06:27:49.85	323.31	13.15	-34.9	-35.4	25.3	0.00e+00	0	34	101	1048576	48	5785
2026-01-07 06:27:53.89	323.84	12.85	-35.0	-35.6	25.1	0.00e+00	0	34	101	1048576	48	5898
2026-01-07 06:27:57.94	324.35	12.56	-35.1	-35.7	25.1	0.00e+00	0	34	101	1048576	48	5968
2026-01-07 06:28:01.98	324.86	12.26	-35.2	-35.7	24.7	0.00e+00	0	34	101	1048576	48	6002
2026-01-07 06:28:06.02	325.36	11.97	-35.1	-35.7	25.0	0.00e+00	0	34	101	1048576	48	5977
2026-01-07 06:28:10.07	325.84	11.68	-35.1	-35.6	25.0	0.00e+00	0	34	101	1048576	48	5932
2026-01-07 06:28:14.11	326.32	11.39	-35.2	-35.7	25.0	0.00e+00	0	34	101	1048576	48	6005
2026-01-07 06:28:18.15	326.79	11.10	-35.2	-35.7	25.1	0.00e+00	0	34	101	1048576	48	6006
2026-01-07 06:28:22.19	327.25	10.81	-35.2	-35.7	25.0	0.00e+00	0	34	101	1048576	48	6033
2026-01-07 06:28:26.23	327.70	10.53	-35.4	-35.9	24.8	0.00e+00	0	34	101	1048576	48	6128
2026-01-07 06:28:30.28	328.15	10.25	-35.5	-36.1	24.7	0.00e+00	0	34	101	1048576	48	6270
2026-01-07 06:28:34.32	328.58	9.97	-35.6	-36.2	24.4	0.00e+00	0	34	101	1048576	48	6362
2026-01-07 06:28:38.36	329.01	9.69	-36.0	-36.6	24.1	0.00e+00	0	34	101	1048576	48	6673
2026-01-07 06:28:42.40	329.43	9.41	-36.1	-36.6	24.1	0.00e+00	0	34	101	1048576	50	5946
2026-01-07 06:28:46.44	329.84	9.14	-36.2	-36.8	23.9	0.00e+00	0	34	101	1048576	50	6043
2026-01-07 06:28:50.49	330.25	8.86	-36.2	-36.8	23.9	0.00e+00	0	34	101	1048576	50	6043
2026-01-07 06:28:54.53	330.65	8.59	-36.1	-36.7	24.0	0.00e+00	0	34	101	1048576	50	5967
2026-01-07 06:28:58.57	331.04	8.32	-36.1	-36.7	24.0	0.00e+00	0	34	101	1048576	50	5970
2026-01-07 06:29:02.62	331.42	8.05	-36.1	-36.7	23.9	0.00e+00	0	34	101	1048576	50	5990
2026-01-07 06:29:06.66	331.80	7.79	-36.3	-36.9	23.7	0.00e+00	0	34	101	1048576	50	6149
2026-01-07 06:29:10.70	332.17	7.52	-36.5	-37.1	23.6	0.00e+00	0	34	101	1048576	50	6268
2026-01-07 06:29:14.75	332.54	7.26	-36.6	-37.2	23.4	0.00e+00	0	34	101	1048576	50	6383
2026-01-07 06:29:18.79	332.90	7.00	-36.5	-37.0	23.5	0.00e+00	0	34	101	1048576	50	6244
2026-01-07 06:29:22.83	333.25	6.74	-36.5	-37.1	23.4	0.00e+00	0	34	101	1048576	50	6291
2026-01-07 06:29:26.87	333.60	6.48	-36.3	-36.9	23.5	0.00e+00	0	34	101	1048576	50	6162
2026-01-07 06:29:30.92	333.94	6.23	-36.3	-36.9	23.5	0.00e+00	0	34	101	1048576	50	6105
2026-01-07 06:29:34.96	334.27	5.97	-36.5	-37.1	23.1	0.00e+00	0	34	101	1048576	50	6312
2026-01-07 06:29:39.00	334.60	5.72	-37.4	-38.1	21.8	0.00e+00	0	34	101	1048576	52	6282
2026-01-07 06:29:43.04	334.93	5.47	-38.9	-39.7	19.5	0.00e+00	0	34	101	1048576	54	6705
2026-01-07 06:29:47.09	335.25	5.22	-40.7	-41.9	16.2	0.00e+00	0	34	101	1048576	58	6897
2026-01-07 06:29:51.13	335.56	4.97	-42.6	-44.4	13.4	4.50e-06	0	34	101	1048576	60	8173
2026-01-07 06:29:55.17	335.87	4.73	-43.7	-46.1	11.3	9.05e-04	0	34	101	1048576	60	9944
2026-01-07 06:29:59.22	336.18	4.48	-44.7	-47.9	8.8	2.40e-02	0	34	101	1048576	60	12231
2026-01-07 06:30:03.26	336.48	4.24	-45.3	-49.4	6.9	1.50e-01	0	34	101	1048576	60	14559
2026-01-07 06:30:07.30	336.77	4.00	-45.7	-51.0	5.0	7.45e-01	0	34	101	1048576	60	17537
2026-01-07 06:30:11.34	337.07	3.76	-45.9	-52.5	4.0	8.27e-01	0	34	101	1048576	60	20704
2026-01-07 06:30:15.38	337.35	3.52	-46.1	-55.2	3.8	8.41e-01	0	34	104	1048576	60	28282
2026-01-07 06:30:19.42	337.63	3.29	-46.1	-56.4	3.6	8.45e-01	0	34	104	1048576	60	32590
2026-01-07 06:30:23.47	337.91	3.05	-46.1	-57.4	3.6	8.46e-01	0	34	104	1048576	60	36573
2026-01-07 06:30:27.51	338.19	2.82	-46.1	-57.5	3.6	8.45e-01	0	34	104	1048576	60	37081
2026-01-07 06:30:31.55	338.46	2.59	-50.7	-62.2	3.6	8.44e-01	0	34	104	1048576	60	63607
2026-01-07 06:30:35.60	338.73	2.36	-51.3	-62.8	3.6	8.45e-01	0	34	104	1048576	60	67726
2026-01-07 06:30:39.64	338.99	2.13	-51.1	-62.8	3.6	8.44e-01	0	34	104	1048576	60	68070
2026-01-07 06:30:43.67	339.25	1.90	-51.0	-62.7	3.6	8.45e-01	0	34	104	1048576	60	67482
2026-01-07 06:30:47.72	339.50	1.67	-51.2	-62.8	3.6	8.45e-01	0	34	104	1048576	60	67725
2026-01-07 06:30:51.75	339.75	1.45	-51.2	-62.7	3.6	8.45e-01	0	34	104	1048576	60	67551
2026-01-07 06:30:55.79	340.00	1.23	-51.2	-62.7	3.6	8.45e-01	0	34	104	1048576	60	67183
2026-01-07 06:30:59.83	340.25	1.01	-51.2	-62.7	3.5	8.45e-01	0	34	104	1048576	60	67343
2026-01-07 06:31:03.86	340.49	0.79	-51.2	-62.7	3.6	8.45e-01	0	34	104	1048576	60	67311
2026-01-07 06:31:07.90	340.73	0.57	-51.2	-62.7	3.6	8.45e-01	0	34	104	1048576	60	67568
2026-01-07 06:31:11.93	340.96	0.35	-51.2	-62.7	3.6	8.45e-01	0	34	104	1048576	60	67236
2026-01-07 06:31:15.97	341.19	0.13	-51.2	-62.7	3.6	8.46e-01	0	34	104	1048576	60	67425
2026-01-07 06:31:20.01	341.42	-0.08	-51.2	-62.7	3.6	8.45e-01	0	34	104	1048576	60	67264

#Closed at: 2026-01-07 06:31:21
#Recorded file [1 MB]: D:/lorett/data/35034_260107_091651.dat