passes_logs/2026/01/07/R4.6S_Anadyr_2ch/R4.6S_Anadyr_2ch__20260107_141456_NOAA_20_JPSS-1_rec.log

#Pass ID: 20260107_141456_NOAA 20 (JPSS-1)
#Satellite: NOAA 20 (JPSS-1)
#Configuration: NOAA 20
#almurnet v.1.7.20251203
#Start time: 2026-01-07 14:14:57

#Version: 2.2.20231116
#Station: R4.6S_Anadyr_2ch
#Location: 177.4865 lon 64.73178 lat
#TLE: 1 43013U 17073A   25350.93759711  .00000080  00000+0  58734-4 0  9994
#TLE: 2 43013  98.7603 287.1885 0002156  81.1496 278.9924 14.19526878418610

#Time	Az	El	Level	Level2	SNR	BER	BlckErr	Temp	State	Recorded	gain1	gain2
2026-01-07 14:14:57.82	19.68	0.09	-51.9	-67.0	3.5	1.51e+00	0	32	0	0	60	108841
2026-01-07 14:15:01.86	19.76	0.33	-52.0	-67.3	3.6	1.51e+00	0	33	104	0	60	113398
2026-01-07 14:15:05.91	19.83	0.58	-51.9	-67.3	3.6	1.51e+00	0	34	104	0	60	112552
2026-01-07 14:15:09.95	19.91	0.82	-51.3	-66.7	3.6	1.51e+00	0	34	104	0	60	105347
2026-01-07 14:15:13.99	19.98	1.07	-50.5	-65.8	3.6	1.51e+00	0	34	104	0	60	94996
2026-01-07 14:15:18.04	20.06	1.31	-50.5	-65.7	3.6	1.51e+00	0	34	104	0	60	94371
2026-01-07 14:15:22.08	20.14	1.56	-50.5	-65.8	3.6	1.51e+00	0	34	104	0	60	94903
2026-01-07 14:15:26.12	20.22	1.82	-50.5	-65.8	3.6	1.51e+00	0	34	104	0	60	95589
2026-01-07 14:15:30.17	20.30	2.07	-50.5	-65.7	3.6	1.51e+00	0	34	104	0	60	93583
2026-01-07 14:15:34.21	20.39	2.33	-50.4	-63.4	3.6	1.49e+00	0	34	104	0	60	71899
2026-01-07 14:15:38.25	20.47	2.59	-50.3	-62.2	3.9	1.48e+00	0	34	0	0	60	63150
2026-01-07 14:15:42.30	20.56	2.85	-48.6	-53.0	11.6	1.56e-03	0	34	102	1048576	60	21839
2026-01-07 14:15:46.34	20.64	3.11	-46.4	-48.8	16.2	0.00e+00	0	34	102	1048576	60	13459
2026-01-07 14:15:50.38	20.73	3.38	-46.5	-49.1	15.6	0.00e+00	92	34	102	1048576	60	13925
2026-01-07 14:15:54.42	20.82	3.65	-46.8	-49.3	16.9	5.94e-03	20	34	102	1048576	60	14241
2026-01-07 14:15:58.47	20.91	3.92	-46.5	-49.1	10.9	4.48e-02	0	34	104	1048576	60	13856
2026-01-07 14:16:02.51	21.00	4.19	-45.9	-48.1	17.0	0.00e+00	68	34	0	1048576	60	12372
2026-01-07 14:16:06.56	21.09	4.47	-46.1	-48.3	16.8	0.00e+00	91	34	0	1048576	60	12615
2026-01-07 14:16:10.60	21.18	4.75	-45.4	-47.2	18.0	0.00e+00	18	34	0	1048576	60	11231
2026-01-07 14:16:14.64	21.28	5.03	-45.5	-47.4	17.8	0.00e+00	7	34	0	1048576	60	11452
2026-01-07 14:16:18.69	21.38	5.32	-44.7	-46.4	19.1	0.00e+00	68	35	101	1048576	60	10179
2026-01-07 14:16:22.73	21.47	5.61	-42.8	-44.0	21.2	0.00e+00	92	34	101	1048576	60	7709
2026-01-07 14:16:26.77	21.57	5.90	-42.7	-43.9	21.4	0.00e+00	12	34	101	1048576	60	7607
2026-01-07 14:16:30.81	21.67	6.20	-42.8	-44.0	21.2	0.00e+00	2	34	101	1048576	60	7701
2026-01-07 14:16:34.86	21.78	6.50	-42.7	-43.9	21.4	0.00e+00	0	34	101	1048576	60	7629
2026-01-07 14:16:38.90	21.88	6.80	-42.6	-43.7	21.6	0.00e+00	92	34	101	1048576	60	7480
2026-01-07 14:16:42.95	21.99	7.10	-42.4	-43.5	21.8	0.00e+00	0	34	101	1048576	60	7319
2026-01-07 14:16:46.99	22.10	7.41	-42.4	-43.5	21.9	0.00e+00	18	34	101	1048576	60	7274
2026-01-07 14:16:51.03	22.21	7.72	-42.3	-43.4	22.0	0.00e+00	0	35	101	1048576	60	7240
2026-01-07 14:16:55.07	22.32	8.04	-42.4	-43.5	22.0	0.00e+00	92	34	101	1048576	60	7276
2026-01-07 14:16:59.11	22.44	8.36	-42.1	-43.2	22.2	0.00e+00	0	35	101	1048576	60	7012
2026-01-07 14:17:03.16	22.55	8.69	-42.2	-43.2	22.2	0.00e+00	12	35	101	1048576	60	7088
2026-01-07 14:17:07.20	22.67	9.02	-42.1	-43.2	22.2	0.00e+00	0	35	101	1048576	60	7051
2026-01-07 14:17:11.24	22.79	9.35	-42.0	-43.0	22.5	0.00e+00	0	35	101	1048576	60	6910
2026-01-07 14:17:15.29	22.92	9.69	-41.7	-42.8	22.7	0.00e+00	0	35	101	1048576	60	6700
2026-01-07 14:17:19.33	23.04	10.03	-41.7	-42.7	22.8	0.00e+00	0	34	101	1048576	60	6664
2026-01-07 14:17:23.37	23.17	10.38	-41.6	-42.6	22.9	0.00e+00	71	35	101	1048576	60	6569
2026-01-07 14:17:27.41	23.30	10.73	-41.5	-42.5	23.0	0.00e+00	6	35	101	1048576	60	6471
2026-01-07 14:17:31.45	23.44	11.09	-41.5	-42.5	23.1	0.00e+00	0	35	101	1048576	60	6483
2026-01-07 14:17:35.50	23.58	11.45	-41.5	-42.5	23.1	0.00e+00	63	35	101	1048576	60	6517
2026-01-07 14:17:39.54	23.72	11.82	-41.5	-42.4	23.1	0.00e+00	92	35	101	1048576	60	6440
2026-01-07 14:17:43.58	23.86	12.19	-41.4	-42.4	23.2	0.00e+00	7	35	101	1048576	60	6404
2026-01-07 14:17:47.63	24.01	12.57	-41.4	-42.4	23.2	0.00e+00	6	35	101	1048576	60	6442
2026-01-07 14:17:51.68	24.16	12.95	-41.4	-42.4	23.2	0.00e+00	6	35	101	1048576	60	6434
2026-01-07 14:17:55.72	24.31	13.34	-41.5	-42.4	23.2	0.00e+00	92	35	101	1048576	60	6456
2026-01-07 14:17:59.76	24.47	13.74	-41.3	-42.3	23.3	0.00e+00	66	35	101	1048576	60	6334
2026-01-07 14:18:03.81	24.63	14.14	-41.3	-42.2	23.5	0.00e+00	2	35	101	1048576	60	6301
2026-01-07 14:18:07.85	24.79	14.55	-41.4	-42.3	23.3	0.00e+00	0	35	101	1048576	60	6377
2026-01-07 14:18:11.89	24.96	14.97	-41.4	-42.4	23.3	0.00e+00	92	35	101	1048576	60	6431
2026-01-07 14:18:15.94	25.14	15.39	-41.4	-42.3	23.4	0.00e+00	11	35	101	1048576	60	6376
2026-01-07 14:18:19.98	25.31	15.82	-41.5	-42.4	23.3	0.00e+00	8	35	101	1048576	60	6450
2026-01-07 14:18:24.02	25.50	16.26	-41.5	-42.4	23.3	0.00e+00	63	35	101	1048576	60	6449
2026-01-07 14:18:28.07	25.68	16.71	-41.4	-42.3	23.4	0.00e+00	4	35	101	1048576	60	6382
2026-01-07 14:18:32.11	25.88	17.16	-41.4	-42.3	23.4	0.00e+00	69	35	101	1048576	60	6387
2026-01-07 14:18:36.16	26.07	17.63	-41.5	-42.5	23.3	0.00e+00	74	35	101	1048576	60	6477
2026-01-07 14:18:40.20	26.28	18.10	-41.4	-42.3	23.4	0.00e+00	90	35	101	1048576	60	6387
2026-01-07 14:18:44.25	26.49	18.58	-41.4	-42.3	23.5	0.00e+00	0	35	101	1048576	60	6364
2026-01-07 14:18:48.29	26.70	19.07	-41.4	-42.4	23.4	0.00e+00	69	35	101	1048576	60	6415
2026-01-07 14:18:52.33	26.93	19.57	-41.5	-42.5	23.2	0.00e+00	74	35	101	1048576	60	6493
2026-01-07 14:18:56.38	27.15	20.08	-41.5	-42.4	23.3	0.00e+00	91	35	101	1048576	60	6443
2026-01-07 14:19:00.42	27.39	20.59	-41.5	-42.5	23.4	0.00e+00	8	35	101	1048576	60	6468
2026-01-07 14:19:04.46	27.63	21.12	-41.3	-42.2	23.6	0.00e+00	6	35	101	1048576	60	6303
2026-01-07 14:19:08.51	27.89	21.66	-41.2	-42.1	23.6	0.00e+00	74	35	101	1048576	60	6208
2026-01-07 14:19:12.55	28.15	22.22	-40.9	-41.8	24.0	0.00e+00	90	35	101	1048576	60	5971
2026-01-07 14:19:16.59	28.42	22.78	-40.8	-41.6	24.1	0.00e+00	6	35	101	1048576	60	5893
2026-01-07 14:19:20.64	28.69	23.36	-40.7	-41.5	24.2	0.00e+00	0	35	101	1048576	60	5806
2026-01-07 14:19:24.68	28.98	23.94	-40.5	-41.3	24.4	0.00e+00	0	35	101	1048576	60	5686
2026-01-07 14:19:28.72	29.28	24.54	-40.4	-41.2	24.4	0.00e+00	92	35	101	1048576	60	5627
2026-01-07 14:19:32.77	29.59	25.16	-40.1	-40.9	24.5	0.00e+00	6	35	101	1048576	58	6092
2026-01-07 14:19:36.81	29.91	25.79	-39.9	-40.8	24.9	0.00e+00	6	35	101	1048576	58	5972
2026-01-07 14:19:40.85	30.25	26.43	-39.8	-40.6	25.0	0.00e+00	49	35	101	1048576	58	5831
2026-01-07 14:19:44.90	30.59	27.09	-40.0	-40.8	24.8	0.00e+00	18	35	101	1048576	58	6020
2026-01-07 14:19:48.94	30.95	27.76	-40.5	-41.4	24.4	0.00e+00	5	35	101	1048576	58	6422
2026-01-07 14:19:52.98	31.33	28.45	-41.3	-42.2	23.7	0.00e+00	6	35	101	1048576	60	6256
2026-01-07 14:19:57.03	31.72	29.15	-41.6	-42.6	23.5	0.00e+00	92	35	101	1048576	60	6553
2026-01-07 14:20:01.07	32.13	29.87	-41.9	-42.8	23.1	0.00e+00	5	35	101	1048576	60	6747
2026-01-07 14:20:05.11	32.56	30.61	-42.3	-43.3	22.7	0.00e+00	78	35	101	1048576	60	7155
2026-01-07 14:20:09.16	33.01	31.36	-42.8	-43.9	22.2	0.00e+00	72	35	101	1048576	60	7646
2026-01-07 14:20:13.20	33.47	32.14	-43.0	-44.1	22.0	0.00e+00	90	35	101	1048576	60	7776
2026-01-07 14:20:17.24	33.96	32.93	-43.4	-44.5	21.5	0.00e+00	0	35	101	1048576	60	8217
2026-01-07 14:20:21.28	34.47	33.74	-43.5	-44.7	21.5	0.00e+00	78	35	101	1048576	60	8367
2026-01-07 14:20:25.32	35.01	34.57	-43.8	-45.0	21.3	0.00e+00	76	35	101	1048576	60	8633
2026-01-07 14:20:29.37	35.58	35.42	-43.8	-45.1	21.2	0.00e+00	92	35	101	1048576	60	8729
2026-01-07 14:20:33.41	36.17	36.29	-43.6	-44.8	21.3	0.00e+00	6	35	101	1048576	60	8497
2026-01-07 14:20:37.45	36.80	37.18	-43.7	-44.9	21.3	0.00e+00	0	35	101	1048576	60	8568
2026-01-07 14:20:41.49	37.46	38.09	-44.0	-45.2	21.1	0.00e+00	0	35	101	1048576	60	8890
2026-01-07 14:20:45.54	38.16	39.03	-43.9	-45.1	21.2	0.00e+00	92	35	101	1048576	60	8744
2026-01-07 14:20:49.58	38.90	39.98	-43.5	-44.6	21.5	0.00e+00	7	35	101	1048576	60	8295
2026-01-07 14:20:53.63	39.69	40.96	-42.9	-44.0	22.1	0.00e+00	10	35	101	1048576	60	7726
2026-01-07 14:20:57.67	40.52	41.96	-42.0	-43.0	23.1	0.00e+00	0	35	101	1048576	60	6854
2026-01-07 14:21:01.71	41.41	42.97	-41.8	-42.8	23.2	0.00e+00	92	35	101	1048576	60	6734
2026-01-07 14:21:05.76	42.36	44.01	-42.8	-43.9	22.3	0.00e+00	79	35	101	1048576	60	7599
2026-01-07 14:21:09.80	43.36	45.07	-42.3	-43.3	22.8	0.00e+00	0	35	101	1048576	60	7107
2026-01-07 14:21:13.84	44.44	46.14	-43.8	-45.0	21.2	0.00e+00	92	35	101	1048576	60	8683
2026-01-07 14:21:17.88	45.59	47.23	-43.7	-45.0	21.3	0.00e+00	0	35	101	1048576	60	8623
2026-01-07 14:21:21.93	46.82	48.35	-42.5	-43.5	22.5	0.00e+00	4	35	101	1048576	60	7324
2026-01-07 14:21:25.97	48.14	49.47	-42.1	-43.1	23.0	0.00e+00	3	35	101	1048576	60	7006
2026-01-07 14:21:30.01	49.57	50.60	-39.8	-40.6	24.9	0.00e+00	92	35	101	1048576	58	5891
2026-01-07 14:21:34.06	51.11	51.74	-38.4	-39.2	26.2	0.00e+00	0	35	101	1048576	56	5575
2026-01-07 14:21:38.10	52.76	52.89	-38.0	-38.7	26.6	0.00e+00	0	35	101	1048576	54	5928
2026-01-07 14:21:42.15	54.56	54.04	-38.3	-39.1	25.3	0.00e+00	74	35	101	1048576	54	6190
2026-01-07 14:21:46.19	56.49	55.18	-40.0	-40.9	24.8	0.00e+00	92	35	101	1048576	56	6787
2026-01-07 14:21:50.24	58.60	56.32	-40.9	-41.8	24.0	0.00e+00	0	35	101	1048576	58	6765
2026-01-07 14:21:54.28	60.87	57.44	-42.0	-43.0	23.1	0.00e+00	2	35	101	1048576	60	6868
2026-01-07 14:21:58.32	63.33	58.53	-42.5	-43.6	22.5	0.00e+00	0	35	101	1048576	60	7375
2026-01-07 14:22:02.37	66.01	59.59	-40.4	-41.2	24.5	0.00e+00	92	35	101	1048576	60	5622
2026-01-07 14:22:06.41	68.91	60.61	-39.7	-40.5	25.2	0.00e+00	6	35	101	1048576	58	5793
2026-01-07 14:22:10.45	72.03	61.57	-39.6	-40.4	25.3	0.00e+00	6	35	101	1048576	56	6407
2026-01-07 14:22:14.50	75.41	62.47	-40.5	-41.3	24.4	0.00e+00	71	35	101	1048576	58	6355
2026-01-07 14:22:18.54	79.03	63.29	-39.6	-40.4	24.9	0.00e+00	5	35	101	1048576	58	5733
2026-01-07 14:22:22.58	82.89	64.02	-40.3	-41.1	24.6	0.00e+00	9	35	101	1048576	58	6240
2026-01-07 14:22:26.63	87.00	64.64	-41.4	-42.4	23.5	0.00e+00	6	35	101	1048576	60	6398
2026-01-07 14:22:30.67	91.30	65.15	-41.5	-42.4	23.6	0.00e+00	91	35	101	1048576	60	6427
2026-01-07 14:22:34.72	95.78	65.53	-43.0	-44.1	22.1	0.00e+00	79	35	101	1048576	60	7794
2026-01-07 14:22:38.76	100.39	65.77	-41.3	-42.2	23.6	0.00e+00	7	35	101	1048576	60	6308
2026-01-07 14:22:42.80	105.06	65.87	-41.0	-41.9	24.0	0.00e+00	0	35	101	1048576	60	6068
2026-01-07 14:22:46.85	109.76	65.82	-41.2	-42.1	23.8	0.00e+00	92	35	101	1048576	60	6213
2026-01-07 14:22:50.89	114.40	65.63	-40.6	-41.4	24.5	0.00e+00	3	35	101	1048576	60	5740
2026-01-07 14:22:54.93	118.93	65.30	-41.5	-42.4	23.2	0.00e+00	2	35	101	1048576	60	6394
2026-01-07 14:22:58.98	123.31	64.84	-40.8	-41.7	24.3	0.00e+00	0	35	101	1048576	60	5897
2026-01-07 14:23:03.02	127.49	64.26	-39.9	-40.7	24.8	0.00e+00	92	35	101	1048576	58	5964
2026-01-07 14:23:07.06	131.44	63.57	-39.3	-40.1	25.5	0.00e+00	0	35	101	1048576	56	6203
2026-01-07 14:23:11.11	135.16	62.78	-37.0	-37.7	27.0	0.00e+00	0	35	101	1048576	52	5904
2026-01-07 14:23:15.15	138.63	61.91	-37.3	-38.0	27.0	0.00e+00	0	35	101	1048576	52	6134
2026-01-07 14:23:19.20	141.85	60.96	-39.0	-39.7	25.7	0.00e+00	91	35	101	1048576	54	6688
2026-01-07 14:23:23.24	144.84	59.96	-40.8	-41.7	24.2	0.00e+00	0	35	101	1048576	60	5913
2026-01-07 14:23:27.28	147.59	58.92	-40.5	-41.4	24.4	0.00e+00	79	35	101	1048576	58	6420
2026-01-07 14:23:31.33	150.14	57.83	-39.1	-39.8	25.7	0.00e+00	79	35	101	1048576	56	6032
2026-01-07 14:23:35.37	152.49	56.72	-38.1	-38.8	26.5	0.00e+00	92	35	101	1048576	54	6032
2026-01-07 14:23:39.41	154.65	55.59	-38.4	-39.2	26.1	0.00e+00	5	35	101	1048576	54	6268
2026-01-07 14:23:43.45	156.65	54.44	-38.3	-39.0	26.3	0.00e+00	6	35	101	1048576	54	6139
2026-01-07 14:23:47.50	158.50	53.29	-39.8	-40.6	25.1	0.00e+00	90	35	101	1048576	56	6567
2026-01-07 14:23:51.54	160.20	52.14	-38.9	-39.6	25.8	0.00e+00	15	35	101	1048576	56	5892
2026-01-07 14:23:55.58	161.78	50.99	-41.0	-41.9	24.1	0.00e+00	12	35	101	1048576	60	6098
2026-01-07 14:23:59.63	163.25	49.85	-42.1	-43.1	23.0	0.00e+00	8	35	101	1048576	60	6943
2026-01-07 14:24:03.67	164.61	48.72	-44.8	-46.3	20.2	0.00e+00	92	35	101	1048576	60	10102
2026-01-07 14:24:07.71	165.88	47.60	-44.5	-45.9	20.1	0.00e+00	0	35	101	1048576	60	9617
2026-01-07 14:24:11.76	167.06	46.50	-42.7	-43.8	22.3	0.00e+00	72	35	101	1048576	60	7576
2026-01-07 14:24:15.80	168.16	45.41	-42.2	-43.3	22.8	0.00e+00	0	35	101	1048576	60	7115
2026-01-07 14:24:20.11	169.26	44.28	-41.1	-42.0	23.9	0.00e+00	92	35	101	1048576	60	6165
2026-01-07 14:24:24.15	170.22	43.23	-39.8	-40.6	25.0	0.00e+00	0	35	101	1048576	58	5887
2026-01-07 14:24:28.20	171.12	42.20	-40.6	-41.5	24.4	0.00e+00	77	35	101	1048576	60	5778
2026-01-07 14:24:32.24	171.97	41.20	-39.5	-40.2	25.4	0.00e+00	68	35	101	1048576	58	5625
2026-01-07 14:24:36.29	172.77	40.21	-42.1	-43.1	23.0	0.00e+00	92	35	101	1048576	60	6998
2026-01-07 14:24:40.33	173.53	39.25	-40.1	-40.9	24.9	0.00e+00	0	35	101	1048576	60	5407
2026-01-07 14:24:44.37	174.24	38.30	-39.5	-40.3	25.2	0.00e+00	0	35	101	1048576	56	6350
2026-01-07 14:24:48.42	174.91	37.38	-41.3	-42.3	23.7	0.00e+00	0	35	101	1048576	60	6319
2026-01-07 14:24:52.46	175.55	36.48	-39.9	-40.7	25.0	0.00e+00	92	35	101	1048576	58	5955
2026-01-07 14:24:56.50	176.15	35.60	-39.8	-40.6	25.0	0.00e+00	0	35	101	1048576	58	5848
2026-01-07 14:25:00.55	176.73	34.74	-41.3	-42.2	23.7	0.00e+00	76	35	101	1048576	60	6301
2026-01-07 14:25:04.59	177.27	33.90	-41.2	-42.2	23.8	0.00e+00	92	35	101	1048576	60	6253
2026-01-07 14:25:08.63	177.79	33.08	-41.6	-42.6	23.4	0.00e+00	73	35	101	1048576	60	6559
2026-01-07 14:25:12.68	178.29	32.28	-41.4	-42.3	23.7	0.00e+00	11	35	101	1048576	60	6373
2026-01-07 14:25:16.72	178.76	31.50	-41.8	-42.8	23.2	0.00e+00	0	35	101	1048576	60	6709
2026-01-07 14:25:20.76	179.21	30.74	-42.5	-43.6	22.5	0.00e+00	92	35	101	1048576	60	7359
2026-01-07 14:25:24.80	179.64	29.99	-41.7	-42.6	23.4	0.00e+00	13	35	101	1048576	60	6588
2026-01-07 14:25:28.85	180.06	29.26	-41.2	-42.1	23.8	0.00e+00	6	35	101	1048576	60	6189
2026-01-07 14:25:32.90	180.45	28.55	-40.7	-41.6	24.3	0.00e+00	7	35	101	1048576	60	5857
2026-01-07 14:25:36.94	180.83	27.86	-41.2	-42.1	23.7	0.00e+00	92	35	101	1048576	60	6245
2026-01-07 14:25:40.99	181.20	27.18	-41.2	-42.2	23.7	0.00e+00	69	35	101	1048576	60	6263
2026-01-07 14:25:45.03	181.55	26.51	-40.5	-41.4	24.4	0.00e+00	70	35	101	1048576	60	5713
2026-01-07 14:25:49.07	181.88	25.86	-39.5	-40.2	25.3	0.00e+00	0	35	101	1048576	58	5621
2026-01-07 14:25:53.11	182.20	25.23	-39.4	-40.2	25.3	0.00e+00	90	35	101	1048576	58	5584
2026-01-07 14:25:57.16	182.52	24.61	-39.7	-40.5	25.0	0.00e+00	67	35	101	1048576	58	5827
2026-01-07 14:26:01.20	182.82	24.00	-39.8	-40.6	25.0	0.00e+00	6	35	101	1048576	58	5885
2026-01-07 14:26:05.25	183.11	23.41	-39.7	-40.5	25.0	0.00e+00	92	35	101	1048576	58	5790
2026-01-07 14:26:09.29	183.39	22.83	-39.4	-40.2	25.3	0.00e+00	92	35	101	1048576	58	5621
2026-01-07 14:26:13.34	183.66	22.26	-39.4	-40.2	25.3	0.00e+00	0	35	101	1048576	58	5607
2026-01-07 14:26:17.38	183.92	21.70	-39.3	-40.1	25.1	0.00e+00	74	35	101	1048576	58	5548
2026-01-07 14:26:21.42	184.17	21.16	-39.5	-40.3	25.2	0.00e+00	90	35	101	1048576	58	5664
2026-01-07 14:26:25.47	184.41	20.62	-39.6	-40.4	25.0	0.00e+00	0	35	101	1048576	58	5735
2026-01-07 14:26:29.51	184.65	20.10	-39.6	-40.4	24.9	0.00e+00	0	35	101	1048576	58	5747
2026-01-07 14:26:33.56	184.88	19.58	-39.7	-40.5	25.0	0.00e+00	70	35	101	1048576	58	5804
2026-01-07 14:26:37.60	185.10	19.08	-39.7	-40.5	24.8	0.00e+00	92	35	101	1048576	58	5808
2026-01-07 14:26:41.65	185.32	18.59	-39.6	-40.4	25.0	0.00e+00	14	35	101	1048576	58	5754
2026-01-07 14:26:45.69	185.53	18.10	-39.8	-40.7	24.9	0.00e+00	6	35	101	1048576	58	5901
2026-01-07 14:26:49.74	185.73	17.63	-40.4	-41.2	24.4	0.00e+00	0	35	101	1048576	58	6294
2026-01-07 14:26:53.78	185.93	17.16	-40.7	-41.6	23.9	0.00e+00	90	35	101	1048576	58	6589
2026-01-07 14:26:57.82	186.12	16.70	-41.2	-42.1	23.6	0.00e+00	6	35	101	1048576	58	6971
2026-01-07 14:27:01.87	186.31	16.25	-41.1	-42.1	23.7	0.00e+00	15	35	101	1048576	60	6193
2026-01-07 14:27:05.91	186.49	15.81	-41.3	-42.2	23.5	0.00e+00	7	35	101	1048576	60	6287
2026-01-07 14:27:09.95	186.66	15.38	-41.1	-42.1	23.6	0.00e+00	92	35	101	1048576	60	6178
2026-01-07 14:27:14.00	186.84	14.95	-41.0	-41.9	23.7	0.00e+00	15	35	101	1048576	60	6098
2026-01-07 14:27:18.04	187.00	14.53	-41.1	-42.0	23.7	0.00e+00	9	35	101	1048576	60	6111
2026-01-07 14:27:22.09	187.17	14.12	-41.1	-42.0	23.6	0.00e+00	54	35	101	1048576	60	6171
2026-01-07 14:27:26.13	187.33	13.71	-41.3	-42.2	23.4	0.00e+00	92	35	101	1048576	60	6282
2026-01-07 14:27:30.17	187.48	13.31	-41.4	-42.4	23.1	0.00e+00	0	35	101	1048576	60	6427
2026-01-07 14:27:34.21	187.63	12.92	-41.5	-42.5	23.2	0.00e+00	71	35	101	1048576	60	6467
2026-01-07 14:27:38.26	187.78	12.53	-41.3	-42.2	23.4	0.00e+00	92	35	101	1048576	60	6313
2026-01-07 14:27:42.30	187.93	12.15	-41.5	-42.4	23.2	0.00e+00	0	35	101	1048576	60	6449
2026-01-07 14:27:46.34	188.07	11.77	-41.2	-42.2	23.4	0.00e+00	2	35	101	1048576	60	6270
2026-01-07 14:27:50.39	188.21	11.40	-41.4	-42.4	23.2	0.00e+00	0	35	101	1048576	60	6403
2026-01-07 14:27:54.43	188.34	11.04	-41.2	-42.1	23.4	0.00e+00	92	35	101	1048576	60	6236
2026-01-07 14:27:58.48	188.47	10.68	-41.4	-42.3	23.3	0.00e+00	9	35	101	1048576	60	6358
2026-01-07 14:28:02.52	188.60	10.33	-41.2	-42.2	23.3	0.00e+00	0	35	101	1048576	60	6273
2026-01-07 14:28:06.56	188.73	9.98	-41.3	-42.3	23.2	0.00e+00	57	35	101	1048576	60	6320
2026-01-07 14:28:10.61	188.85	9.63	-41.2	-42.1	23.3	0.00e+00	91	35	101	1048576	60	6211
2026-01-07 14:28:14.65	188.98	9.29	-41.4	-42.4	23.2	0.00e+00	6	35	101	1048576	60	6418
2026-01-07 14:28:18.70	189.10	8.96	-41.4	-42.3	23.1	0.00e+00	6	35	101	1048576	60	6365
2026-01-07 14:28:22.74	189.21	8.62	-41.5	-42.5	23.0	0.00e+00	0	35	101	1048576	60	6524
2026-01-07 14:28:26.78	189.33	8.30	-41.7	-42.7	22.6	0.00e+00	92	35	101	1048576	60	6691
2026-01-07 14:28:30.83	189.44	7.97	-41.9	-42.9	22.5	0.00e+00	67	35	101	1048576	60	6832
2026-01-07 14:28:34.87	189.55	7.66	-42.0	-43.1	22.4	0.00e+00	6	35	101	1048576	60	6930
2026-01-07 14:28:38.92	189.66	7.34	-42.2	-43.2	22.1	0.00e+00	91	35	101	1048576	60	7087
2026-01-07 14:28:42.96	189.76	7.03	-42.4	-43.5	21.9	0.00e+00	82	35	101	1048576	60	7262
2026-01-07 14:28:47.00	189.87	6.72	-42.4	-43.5	21.9	0.00e+00	14	35	101	1048576	60	7263
2026-01-07 14:28:51.05	189.97	6.42	-42.6	-43.7	21.7	0.00e+00	13	35	101	1048576	60	7492
2026-01-07 14:28:55.09	190.07	6.12	-42.6	-43.7	21.6	0.00e+00	92	35	101	1048576	60	7502
2026-01-07 14:28:59.14	190.17	5.82	-42.7	-43.9	21.4	0.00e+00	42	35	101	1048576	60	7628
2026-01-07 14:29:03.18	190.26	5.53	-42.9	-44.1	21.2	0.00e+00	0	35	101	1048576	60	7839
2026-01-07 14:29:07.23	190.36	5.24	-43.0	-44.2	21.1	0.00e+00	4	35	101	1048576	60	7892
2026-01-07 14:29:11.27	190.45	4.95	-43.0	-44.3	21.0	0.00e+00	92	35	101	1048576	60	7992
2026-01-07 14:29:15.31	190.54	4.66	-43.2	-44.5	20.6	0.00e+00	0	35	101	1048576	60	8203
2026-01-07 14:29:19.36	190.63	4.38	-43.2	-44.5	20.7	0.00e+00	66	35	101	1048576	60	8193
2026-01-07 14:29:23.40	190.72	4.10	-43.3	-44.6	20.3	0.00e+00	0	35	101	1048576	60	8247
2026-01-07 14:29:27.45	190.81	3.83	-43.5	-44.9	20.2	0.00e+00	92	35	101	1048576	60	8540
2026-01-07 14:29:31.49	190.90	3.56	-43.7	-45.1	19.8	0.00e+00	0	35	101	1048576	60	8813
2026-01-07 14:29:35.53	190.98	3.29	-43.8	-45.2	19.7	0.00e+00	0	35	101	1048576	60	8900
2026-01-07 14:29:39.57	191.06	3.02	-51.1	-66.4	3.6	1.51e+00	0	35	104	1048576	60	101474
2026-01-07 14:29:43.61	191.15	2.75	-51.8	-67.2	3.6	1.51e+00	0	35	104	1048576	60	112185
2026-01-07 14:29:47.66	191.23	2.49	-52.0	-67.4	3.6	1.51e+00	0	35	104	1048576	60	114228
2026-01-07 14:29:51.71	191.31	2.23	-51.9	-67.3	3.6	1.51e+00	0	35	104	1048576	60	113552
2026-01-07 14:29:55.75	191.39	1.97	-51.9	-67.3	3.6	1.51e+00	0	35	104	1048576	60	112624
2026-01-07 14:29:59.79	191.46	1.72	-51.9	-67.3	3.6	1.51e+00	0	35	104	1048576	60	112577
2026-01-07 14:30:03.84	191.54	1.46	-51.9	-67.3	3.6	1.51e+00	0	35	104	1048576	60	112771
2026-01-07 14:30:07.88	191.61	1.21	-51.9	-67.3	3.6	1.51e+00	0	35	104	1048576	60	112907
2026-01-07 14:30:11.92	191.69	0.96	-51.9	-67.3	3.6	1.51e+00	0	35	104	1048576	60	112420
2026-01-07 14:30:15.97	191.76	0.71	-51.9	-67.3	3.6	1.51e+00	0	35	104	1048576	60	112442
2026-01-07 14:30:20.01	191.83	0.47	-51.9	-67.2	3.6	1.51e+00	0	35	104	1048576	60	112082
2026-01-07 14:30:24.06	191.91	0.22	-51.9	-67.3	3.6	1.51e+00	0	35	104	1048576	60	112699
2026-01-07 14:30:28.10	191.98	-0.02	-51.9	-67.2	3.6	1.51e+00	0	35	104	1048576	60	111555

#Closed at: 2026-01-07 14:30:28
#Recorded file [1 MB]: D:/lorett/data/35034_260107_171457.dat