passes_logs/2026/01/07/R4.6S_Anadyr_2ch/R4.6S_Anadyr_2ch__20260107_203229_SUOMI_NPP_rec.log

#Pass ID: 20260107_203229_SUOMI NPP
#Satellite: SUOMI NPP
#Configuration: NPP
#almurnet v.1.7.20251203
#Start time: 2026-01-07 20:32:32

#Version: 2.2.20231116
#Station: R4.6S_Anadyr_2ch
#Location: 177.4865 lon 64.73178 lat
#TLE: 1 37849U 11061A   25350.92281687  .00000071  00000+0  54882-4 0  9996
#TLE: 2 37849  98.7777 288.2268 0002366 112.8570 247.2856 14.19515404732588

#Time	Az	El	Level	Level2	SNR	BER	BlckErr	Temp	State	Recorded	gain1	gain2
2026-01-07 20:32:32.18	70.62	0.12	-51.8	-62.6	3.5	8.46e-01	0	33	0	0	60	66865
2026-01-07 20:32:35.21	70.40	0.27	-52.0	-67.4	3.6	1.51e+00	0	34	104	0	60	114688
2026-01-07 20:32:38.24	70.18	0.42	-52.1	-67.4	3.5	1.51e+00	0	34	104	0	60	114938
2026-01-07 20:32:41.28	69.96	0.57	-52.0	-67.5	3.6	1.51e+00	0	34	104	0	60	115380
2026-01-07 20:32:44.31	69.73	0.72	-51.8	-67.3	3.6	1.51e+00	0	34	104	0	60	112482
2026-01-07 20:32:47.34	69.50	0.87	-50.9	-66.3	3.6	1.51e+00	0	34	104	0	60	100413
2026-01-07 20:32:50.37	69.27	1.03	-50.5	-65.9	3.6	1.51e+00	0	34	104	0	60	95689
2026-01-07 20:32:53.41	69.04	1.18	-50.5	-65.8	3.6	1.51e+00	0	34	104	0	60	95390
2026-01-07 20:32:56.44	68.80	1.33	-50.5	-65.8	3.6	1.51e+00	0	34	104	0	60	94983
2026-01-07 20:32:59.47	68.56	1.49	-50.5	-65.8	3.6	1.51e+00	0	35	104	0	60	94661
2026-01-07 20:33:02.51	68.32	1.64	-50.5	-65.8	3.6	1.51e+00	0	35	104	0	60	95335
2026-01-07 20:33:05.54	68.07	1.80	-50.5	-65.7	3.6	1.51e+00	0	35	104	0	60	94241
2026-01-07 20:33:08.57	67.83	1.95	-50.4	-65.5	3.6	1.51e+00	0	35	104	0	60	92278
2026-01-07 20:33:11.61	67.58	2.11	-50.5	-65.6	3.6	1.51e+00	0	35	104	0	60	93039
2026-01-07 20:33:14.64	67.33	2.26	-50.4	-65.7	3.6	1.51e+00	0	35	104	0	60	94425
2026-01-07 20:33:17.67	67.07	2.42	-50.5	-65.8	3.6	1.51e+00	0	35	104	0	60	94863
2026-01-07 20:33:20.70	66.81	2.57	-50.4	-65.1	3.6	1.51e+00	0	35	104	0	60	87940
2026-01-07 20:33:23.73	66.55	2.73	-50.2	-61.4	4.4	1.47e+00	10	35	104	0	60	57115
2026-01-07 20:33:26.77	66.29	2.89	-48.2	-52.1	12.6	2.83e-04	0	35	102	1048576	60	19746
2026-01-07 20:33:29.80	66.02	3.05	-48.6	-53.0	5.6	1.31e+00	30	35	104	1048576	60	21772
2026-01-07 20:33:32.84	65.75	3.20	-47.0	-49.9	13.7	2.49e-01	0	35	0	1048576	60	15254
2026-01-07 20:33:35.87	65.48	3.36	-46.0	-48.3	16.4	0.00e+00	0	35	0	1048576	60	12642
2026-01-07 20:33:38.90	65.20	3.52	-45.4	-47.4	17.6	0.00e+00	0	35	0	1048576	60	11421
2026-01-07 20:33:41.93	64.92	3.68	-44.9	-46.6	18.2	0.00e+00	0	35	0	1048576	60	10473
2026-01-07 20:33:44.97	64.64	3.84	-45.1	-46.9	18.0	0.00e+00	0	35	0	1048576	60	10795
2026-01-07 20:33:48.00	64.36	4.00	-45.2	-47.1	17.9	0.00e+00	0	35	0	1048576	60	10981
2026-01-07 20:33:51.03	64.07	4.15	-45.4	-47.3	17.7	0.00e+00	0	35	101	1048576	60	11327
2026-01-07 20:33:54.07	63.78	4.31	-45.4	-47.3	17.5	0.00e+00	0	35	101	1048576	60	11256
2026-01-07 20:33:57.10	63.48	4.47	-45.6	-47.6	17.4	0.00e+00	0	35	101	1048576	60	11680
2026-01-07 20:34:00.13	63.18	4.63	-45.5	-47.5	17.6	0.00e+00	0	35	101	1048576	60	11544
2026-01-07 20:34:03.16	62.88	4.79	-45.3	-47.2	17.9	0.00e+00	0	35	101	1048576	60	11219
2026-01-07 20:34:06.19	62.58	4.95	-45.2	-47.0	18.1	0.00e+00	0	35	101	1048576	60	10873
2026-01-07 20:34:09.23	62.27	5.12	-45.0	-46.8	18.4	0.00e+00	0	35	101	1048576	60	10676
2026-01-07 20:34:12.26	61.96	5.28	-44.9	-46.7	18.5	0.00e+00	0	35	101	1048576	60	10534
2026-01-07 20:34:15.29	61.64	5.44	-45.1	-46.9	18.5	0.00e+00	0	35	101	1048576	60	10759
2026-01-07 20:34:18.33	61.32	5.60	-45.1	-46.9	18.3	0.00e+00	0	35	101	1048576	60	10736
2026-01-07 20:34:21.36	61.00	5.76	-45.4	-47.3	17.9	0.00e+00	0	35	101	1048576	60	11246
2026-01-07 20:34:24.39	60.67	5.92	-44.9	-46.6	18.6	0.00e+00	0	35	101	1048576	60	10484
2026-01-07 20:34:27.43	60.34	6.08	-44.7	-46.4	18.8	0.00e+00	0	35	101	1048576	60	10190
2026-01-07 20:34:30.46	60.01	6.24	-44.9	-46.6	18.7	0.00e+00	0	35	101	1048576	60	10410
2026-01-07 20:34:33.49	59.67	6.41	-45.1	-46.9	18.5	0.00e+00	0	35	101	1048576	60	10759
2026-01-07 20:34:36.53	59.33	6.57	-44.6	-46.3	19.1	0.00e+00	0	35	101	1048576	60	10032
2026-01-07 20:34:39.56	58.98	6.73	-44.2	-45.7	19.6	0.00e+00	0	35	101	1048576	60	9421
2026-01-07 20:34:42.59	58.63	6.89	-44.0	-45.5	19.8	0.00e+00	0	35	101	1048576	60	9167
2026-01-07 20:34:45.62	58.28	7.05	-43.8	-45.1	20.2	0.00e+00	0	35	101	1048576	60	8814
2026-01-07 20:34:48.65	57.92	7.21	-43.6	-44.9	20.3	0.00e+00	0	35	101	1048576	60	8581
2026-01-07 20:34:51.69	57.56	7.38	-43.5	-44.9	20.5	0.00e+00	0	35	101	1048576	60	8526
2026-01-07 20:34:54.72	57.20	7.54	-43.8	-45.2	19.8	0.00e+00	0	35	101	1048576	60	8872
2026-01-07 20:34:57.75	56.83	7.70	-43.6	-44.9	20.4	0.00e+00	0	35	101	1048576	60	8564
2026-01-07 20:35:00.79	56.45	7.86	-43.6	-44.9	20.4	0.00e+00	0	35	101	1048576	60	8561
2026-01-07 20:35:03.82	56.07	8.02	-44.1	-45.5	20.2	0.00e+00	0	35	101	1048576	60	9186
2026-01-07 20:35:06.85	55.69	8.18	-43.9	-45.3	20.1	0.00e+00	0	35	101	1048576	60	8942
2026-01-07 20:35:09.89	55.30	8.34	-44.1	-45.5	20.0	0.00e+00	0	35	101	1048576	60	9215
2026-01-07 20:35:12.92	54.91	8.50	-44.3	-45.8	19.7	0.00e+00	0	35	101	1048576	60	9510
2026-01-07 20:35:15.95	54.52	8.66	-44.1	-45.6	20.0	0.00e+00	0	35	101	1048576	60	9238
2026-01-07 20:35:18.99	54.11	8.83	-43.7	-45.0	20.4	0.00e+00	0	35	101	1048576	60	8664
2026-01-07 20:35:22.02	53.71	8.98	-43.5	-44.8	20.6	0.00e+00	0	35	101	1048576	60	8484
2026-01-07 20:35:25.05	53.30	9.14	-43.7	-45.1	20.5	0.00e+00	0	35	101	1048576	60	8747
2026-01-07 20:35:28.08	52.89	9.30	-43.5	-44.8	20.5	0.00e+00	0	35	101	1048576	60	8461
2026-01-07 20:35:31.12	52.47	9.46	-43.6	-44.9	20.5	0.00e+00	0	35	101	1048576	60	8572
2026-01-07 20:35:34.15	52.04	9.62	-44.0	-45.5	20.0	0.00e+00	0	35	101	1048576	60	9141
2026-01-07 20:35:37.18	51.62	9.78	-44.1	-45.5	20.0	0.00e+00	0	35	101	1048576	60	9179
2026-01-07 20:35:40.22	51.18	9.93	-44.1	-45.5	20.0	0.00e+00	0	35	101	1048576	60	9174
2026-01-07 20:35:43.25	50.75	10.09	-44.0	-45.3	20.4	0.00e+00	0	35	101	1048576	60	9023
2026-01-07 20:35:46.28	50.30	10.25	-43.4	-44.7	20.6	0.00e+00	0	35	101	1048576	60	8382
2026-01-07 20:35:49.32	49.86	10.40	-43.3	-44.6	20.9	0.00e+00	0	35	101	1048576	60	8238
2026-01-07 20:35:52.35	49.40	10.55	-42.6	-43.7	21.6	0.00e+00	0	35	101	1048576	60	7475
2026-01-07 20:35:55.38	48.95	10.71	-42.6	-43.8	21.6	0.00e+00	0	35	101	1048576	60	7553
2026-01-07 20:35:58.41	48.49	10.86	-42.5	-43.6	21.7	0.00e+00	0	35	101	1048576	60	7392
2026-01-07 20:36:01.45	48.02	11.01	-41.8	-42.9	22.3	0.00e+00	0	35	101	1048576	60	6775
2026-01-07 20:36:04.48	47.55	11.16	-41.7	-42.7	22.5	0.00e+00	0	35	101	1048576	60	6662
2026-01-07 20:36:07.51	47.07	11.31	-41.6	-42.6	22.5	0.00e+00	0	35	101	1048576	60	6581
2026-01-07 20:36:10.54	46.59	11.46	-42.1	-43.2	22.0	0.00e+00	0	35	101	1048576	60	7050
2026-01-07 20:36:13.57	46.11	11.61	-42.1	-43.1	22.2	0.00e+00	0	35	101	1048576	60	6984
2026-01-07 20:36:16.61	45.61	11.76	-41.8	-42.9	22.3	0.00e+00	0	35	101	1048576	60	6776
2026-01-07 20:36:19.64	45.12	11.90	-41.8	-42.8	22.5	0.00e+00	0	35	101	1048576	60	6708
2026-01-07 20:36:22.67	44.62	12.04	-41.2	-42.1	22.9	0.00e+00	0	35	101	1048576	60	6241
2026-01-07 20:36:25.70	44.11	12.19	-41.4	-42.4	22.8	0.00e+00	0	35	101	1048576	60	6391
2026-01-07 20:36:28.74	43.60	12.33	-41.5	-42.5	22.6	0.00e+00	0	35	101	1048576	60	6509
2026-01-07 20:36:31.77	43.08	12.47	-41.6	-42.6	22.4	0.00e+00	0	35	101	1048576	60	6612
2026-01-07 20:36:34.80	42.56	12.61	-41.1	-42.1	22.9	0.00e+00	0	35	101	1048576	60	6223
2026-01-07 20:36:37.83	42.04	12.74	-40.5	-41.4	23.5	0.00e+00	0	35	101	1048576	60	5716
2026-01-07 20:36:40.87	41.51	12.88	-40.6	-41.5	23.4	0.00e+00	0	35	101	1048576	60	5792
2026-01-07 20:36:43.90	40.97	13.01	-40.8	-41.8	23.2	0.00e+00	0	35	101	1048576	60	5977
2026-01-07 20:36:46.93	40.43	13.14	-41.4	-42.4	22.7	0.00e+00	0	35	101	1048576	60	6406
2026-01-07 20:36:49.96	39.88	13.27	-41.7	-42.7	22.2	0.00e+00	0	35	101	1048576	60	6690
2026-01-07 20:36:52.99	39.33	13.40	-41.7	-42.8	22.5	0.00e+00	0	35	101	1048576	60	6728
2026-01-07 20:36:56.03	38.78	13.52	-41.7	-42.7	22.6	0.00e+00	0	35	101	1048576	60	6690
2026-01-07 20:36:59.06	38.22	13.65	-41.9	-43.0	22.3	0.00e+00	0	35	101	1048576	60	6901
2026-01-07 20:37:02.09	37.65	13.77	-41.8	-42.9	22.5	0.00e+00	0	35	101	1048576	60	6790
2026-01-07 20:37:05.13	37.08	13.89	-41.2	-42.1	23.0	0.00e+00	0	35	101	1048576	60	6241
2026-01-07 20:37:08.16	36.51	14.01	-41.0	-41.9	23.1	0.00e+00	0	35	101	1048576	60	6082
2026-01-07 20:37:11.19	35.93	14.12	-41.0	-42.0	23.0	0.00e+00	0	35	101	1048576	60	6123
2026-01-07 20:37:14.23	35.35	14.23	-41.3	-42.3	22.8	0.00e+00	0	35	101	1048576	60	6382
2026-01-07 20:37:17.26	34.76	14.34	-41.2	-42.2	22.8	0.00e+00	0	35	101	1048576	60	6246
2026-01-07 20:37:20.29	34.17	14.45	-41.4	-42.4	22.7	0.00e+00	0	35	101	1048576	60	6456
2026-01-07 20:37:23.33	33.57	14.56	-41.5	-42.6	22.6	0.00e+00	0	35	101	1048576	60	6562
2026-01-07 20:37:26.36	32.97	14.66	-41.3	-42.3	22.9	0.00e+00	0	35	101	1048576	60	6328
2026-01-07 20:37:29.39	32.37	14.76	-40.2	-41.1	23.8	0.00e+00	0	35	101	1048576	60	5545
2026-01-07 20:37:32.43	31.76	14.85	-40.3	-41.1	23.7	0.00e+00	0	35	101	1048576	60	5562
2026-01-07 20:37:35.46	31.15	14.95	-40.4	-41.3	23.8	0.00e+00	0	35	101	1048576	60	5651
2026-01-07 20:37:38.49	30.53	15.04	-40.6	-41.5	23.4	0.00e+00	0	35	101	1048576	60	5821
2026-01-07 20:37:41.52	29.91	15.12	-40.7	-41.6	23.4	0.00e+00	0	35	101	1048576	60	5881
2026-01-07 20:37:44.55	29.29	15.21	-41.0	-41.9	23.1	0.00e+00	0	35	101	1048576	60	6092
2026-01-07 20:37:47.59	28.66	15.29	-41.9	-42.9	22.4	0.00e+00	0	35	101	1048576	60	6818
2026-01-07 20:37:50.62	28.03	15.37	-41.5	-42.6	22.6	0.00e+00	0	35	101	1048576	60	6543
2026-01-07 20:37:53.65	27.40	15.44	-41.7	-42.8	22.5	0.00e+00	0	35	101	1048576	60	6694
2026-01-07 20:37:56.68	26.76	15.51	-41.6	-42.6	22.6	0.00e+00	0	35	101	1048576	60	6579
2026-01-07 20:37:59.72	26.12	15.58	-41.3	-42.3	22.9	0.00e+00	0	35	101	1048576	60	6346
2026-01-07 20:38:02.75	25.48	15.65	-41.2	-42.2	23.0	0.00e+00	0	35	101	1048576	60	6259
2026-01-07 20:38:05.78	24.84	15.71	-40.7	-41.6	23.4	0.00e+00	0	35	101	1048576	60	5839
2026-01-07 20:38:08.82	24.19	15.76	-40.6	-41.5	23.5	0.00e+00	0	35	101	1048576	60	5784
2026-01-07 20:38:11.85	23.54	15.82	-41.0	-42.0	23.2	0.00e+00	0	35	101	1048576	60	6112
2026-01-07 20:38:14.88	22.89	15.87	-41.3	-42.3	22.8	0.00e+00	0	35	101	1048576	60	6352
2026-01-07 20:38:17.91	22.23	15.92	-41.6	-42.7	22.6	0.00e+00	0	35	101	1048576	60	6634
2026-01-07 20:38:20.94	21.58	15.96	-41.9	-43.0	22.5	0.00e+00	0	35	101	1048576	60	6895
2026-01-07 20:38:23.98	20.92	16.00	-42.2	-43.4	22.0	0.00e+00	0	35	101	1048576	60	7190
2026-01-07 20:38:27.01	20.26	16.03	-41.9	-43.0	22.3	0.00e+00	0	35	101	1048576	60	6887
2026-01-07 20:38:30.04	19.60	16.06	-41.5	-42.5	22.8	0.00e+00	0	35	101	1048576	60	6513
2026-01-07 20:38:33.07	18.93	16.09	-41.3	-42.3	23.0	0.00e+00	0	35	101	1048576	60	6332
2026-01-07 20:38:36.11	18.27	16.12	-41.4	-42.4	22.8	0.00e+00	0	35	101	1048576	60	6407
2026-01-07 20:38:39.14	17.60	16.14	-41.3	-42.2	22.9	0.00e+00	0	35	101	1048576	60	6315
2026-01-07 20:38:42.17	16.94	16.15	-41.1	-42.1	23.1	0.00e+00	0	35	101	1048576	60	6175
2026-01-07 20:38:45.21	16.27	16.16	-41.6	-42.7	22.5	0.00e+00	0	35	101	1048576	60	6626
2026-01-07 20:38:48.24	15.60	16.17	-41.7	-42.8	22.6	0.00e+00	0	35	101	1048576	60	6715
2026-01-07 20:38:51.27	14.94	16.18	-41.3	-42.2	22.9	0.00e+00	0	35	101	1048576	60	6314
2026-01-07 20:38:54.31	14.27	16.18	-40.8	-41.7	23.3	0.00e+00	0	35	101	1048576	60	5948
2026-01-07 20:38:57.34	13.60	16.17	-41.1	-42.1	23.1	0.00e+00	0	35	101	1048576	60	6187
2026-01-07 20:39:00.37	12.94	16.17	-41.4	-42.4	22.8	0.00e+00	0	36	101	1048576	60	6443
2026-01-07 20:39:03.40	12.27	16.15	-41.7	-42.8	22.4	0.00e+00	0	35	101	1048576	60	6702
2026-01-07 20:39:06.44	11.60	16.14	-42.2	-43.3	22.1	0.00e+00	0	35	101	1048576	60	7122
2026-01-07 20:39:09.47	10.94	16.12	-42.3	-43.4	22.0	0.00e+00	0	35	101	1048576	60	7210
2026-01-07 20:39:12.50	10.28	16.10	-41.5	-42.5	22.7	0.00e+00	0	35	101	1048576	60	6529
2026-01-07 20:39:15.53	9.61	16.07	-41.4	-42.4	22.8	0.00e+00	0	35	101	1048576	60	6400
2026-01-07 20:39:18.57	8.95	16.04	-41.4	-42.4	22.8	0.00e+00	0	35	101	1048576	60	6418
2026-01-07 20:39:21.60	8.29	16.00	-41.7	-42.7	22.5	0.00e+00	0	35	101	1048576	60	6663
2026-01-07 20:39:24.63	7.63	15.96	-41.3	-42.3	22.9	0.00e+00	0	35	101	1048576	60	6368
2026-01-07 20:39:27.66	6.98	15.92	-40.9	-41.8	23.3	0.00e+00	0	35	101	1048576	60	5997
2026-01-07 20:39:30.69	6.32	15.88	-40.8	-41.8	23.4	0.00e+00	0	35	101	1048576	60	5981
2026-01-07 20:39:33.73	5.67	15.83	-40.9	-41.8	23.2	0.00e+00	0	35	101	1048576	60	6030
2026-01-07 20:39:36.76	5.02	15.77	-41.1	-42.1	23.1	0.00e+00	0	35	101	1048576	60	6175
2026-01-07 20:39:39.79	4.37	15.72	-41.2	-42.2	23.1	0.00e+00	0	35	101	1048576	60	6259
2026-01-07 20:39:42.83	3.73	15.65	-41.5	-42.5	22.7	0.00e+00	0	35	101	1048576	60	6501
2026-01-07 20:39:45.86	3.09	15.59	-41.7	-42.7	22.5	0.00e+00	0	35	101	1048576	60	6680
2026-01-07 20:39:48.89	2.45	15.52	-40.9	-41.9	23.2	0.00e+00	0	35	101	1048576	60	6049
2026-01-07 20:39:51.92	1.81	15.45	-40.5	-41.4	23.5	0.00e+00	0	35	101	1048576	60	5738
2026-01-07 20:39:54.95	1.18	15.38	-40.6	-41.5	23.4	0.00e+00	0	35	101	1048576	60	5824
2026-01-07 20:39:57.99	0.55	15.30	-40.6	-41.5	23.4	0.00e+00	0	35	101	1048576	60	5814
2026-01-07 20:40:01.02	359.92	15.22	-41.1	-42.1	23.1	0.00e+00	0	35	101	1048576	60	6190
2026-01-07 20:40:04.05	359.30	15.14	-41.7	-42.7	22.6	0.00e+00	0	35	101	1048576	60	6664
2026-01-07 20:40:07.09	358.68	15.05	-41.8	-42.8	22.5	0.00e+00	0	35	101	1048576	60	6727
2026-01-07 20:40:10.12	358.06	14.96	-42.6	-43.8	21.8	0.00e+00	0	35	101	1048576	60	7520
2026-01-07 20:40:13.15	357.45	14.87	-42.2	-43.3	22.2	0.00e+00	0	35	101	1048576	60	7109
2026-01-07 20:40:16.18	356.84	14.77	-42.0	-43.0	22.3	0.00e+00	0	35	101	1048576	60	6924
2026-01-07 20:40:19.21	356.24	14.67	-41.7	-42.7	22.6	0.00e+00	0	35	101	1048576	60	6661
2026-01-07 20:40:22.25	355.64	14.57	-41.5	-42.5	22.8	0.00e+00	0	35	101	1048576	60	6507
2026-01-07 20:40:25.28	355.04	14.47	-41.5	-42.5	22.8	0.00e+00	0	35	101	1048576	60	6480
2026-01-07 20:40:28.31	354.45	14.36	-40.7	-41.6	23.4	0.00e+00	0	35	101	1048576	60	5867
2026-01-07 20:40:31.35	353.86	14.25	-40.6	-41.5	23.1	0.00e+00	0	35	101	1048576	60	5800
2026-01-07 20:40:34.38	353.28	14.14	-40.7	-41.6	23.4	0.00e+00	0	36	101	1048576	60	5875
2026-01-07 20:40:37.41	352.70	14.02	-41.5	-42.5	22.7	0.00e+00	0	35	101	1048576	60	6507
2026-01-07 20:40:40.45	352.13	13.91	-42.4	-43.5	21.9	0.00e+00	0	35	101	1048576	60	7321
2026-01-07 20:40:43.48	351.56	13.79	-42.9	-44.1	21.4	0.00e+00	0	35	101	1048576	60	7857
2026-01-07 20:40:46.51	351.00	13.67	-42.0	-43.1	22.1	0.00e+00	0	35	101	1048576	60	6999
2026-01-07 20:40:49.54	350.44	13.54	-42.0	-43.1	21.9	0.00e+00	0	35	101	1048576	60	6959
2026-01-07 20:40:52.58	349.88	13.42	-42.1	-43.2	22.1	0.00e+00	0	35	101	1048576	60	7072
2026-01-07 20:40:55.61	349.33	13.29	-42.4	-43.5	21.9	0.00e+00	0	35	101	1048576	60	7314
2026-01-07 20:40:58.64	348.79	13.16	-42.2	-43.3	22.0	0.00e+00	0	35	101	1048576	60	7167
2026-01-07 20:41:01.67	348.25	13.03	-42.1	-43.2	22.1	0.00e+00	0	35	101	1048576	60	7051
2026-01-07 20:41:04.71	347.71	12.90	-41.6	-42.5	22.8	0.00e+00	0	35	101	1048576	60	6535
2026-01-07 20:41:07.74	347.18	12.76	-41.1	-42.0	23.0	0.00e+00	0	35	101	1048576	60	6163
2026-01-07 20:41:10.77	346.65	12.63	-41.5	-42.5	22.7	0.00e+00	0	35	101	1048576	60	6479
2026-01-07 20:41:13.80	346.13	12.49	-42.2	-43.2	22.0	0.00e+00	0	35	101	1048576	60	7081
2026-01-07 20:41:16.84	345.62	12.35	-42.3	-43.5	22.0	0.00e+00	0	35	101	1048576	60	7255
2026-01-07 20:41:19.87	345.11	12.21	-42.3	-43.4	21.9	0.00e+00	0	35	101	1048576	60	7174
2026-01-07 20:41:22.90	344.60	12.07	-42.5	-43.7	21.7	0.00e+00	0	35	101	1048576	60	7457
2026-01-07 20:41:25.94	344.10	11.92	-44.0	-45.5	20.1	0.00e+00	0	35	101	1048576	60	9139
2026-01-07 20:41:28.97	343.60	11.78	-45.7	-47.7	17.9	0.00e+00	0	35	101	1048576	60	11862
2026-01-07 20:41:32.00	343.11	11.63	-45.3	-47.2	18.5	0.00e+00	0	35	101	1048576	60	11115
2026-01-07 20:41:35.04	342.63	11.49	-44.5	-46.0	19.5	0.00e+00	0	35	101	1048576	60	9752
2026-01-07 20:41:38.07	342.15	11.34	-44.4	-45.9	19.5	0.00e+00	0	35	101	1048576	60	9635
2026-01-07 20:41:41.10	341.67	11.19	-43.5	-44.8	20.7	0.00e+00	0	35	101	1048576	60	8512
2026-01-07 20:41:44.14	341.20	11.04	-43.1	-44.3	21.0	0.00e+00	0	36	101	1048576	60	8045
2026-01-07 20:41:47.17	340.73	10.89	-43.2	-44.5	21.1	0.00e+00	0	35	101	1048576	60	8154
2026-01-07 20:41:50.20	340.27	10.73	-43.3	-44.5	20.8	0.00e+00	0	35	101	1048576	60	8223
2026-01-07 20:41:53.24	339.81	10.58	-42.9	-44.1	21.2	0.00e+00	0	35	101	1048576	60	7840
2026-01-07 20:41:56.27	339.36	10.43	-42.7	-43.9	21.4	0.00e+00	0	35	101	1048576	60	7601
2026-01-07 20:41:59.30	338.92	10.27	-42.7	-43.9	21.4	0.00e+00	0	35	101	1048576	60	7601
2026-01-07 20:42:02.34	338.47	10.12	-42.7	-43.9	21.4	0.00e+00	0	35	101	1048576	60	7659
2026-01-07 20:42:05.37	338.04	9.96	-43.1	-44.3	21.0	0.00e+00	0	35	101	1048576	60	8026
2026-01-07 20:42:08.40	337.61	9.80	-43.1	-44.3	21.0	0.00e+00	0	35	101	1048576	60	8036
2026-01-07 20:42:11.44	337.18	9.65	-43.0	-44.2	20.9	0.00e+00	0	35	101	1048576	60	7948
2026-01-07 20:42:14.47	336.75	9.49	-42.8	-44.0	21.3	0.00e+00	0	35	101	1048576	60	7717
2026-01-07 20:42:17.50	336.34	9.33	-42.7	-43.9	21.3	0.00e+00	0	36	101	1048576	60	7625
2026-01-07 20:42:20.54	335.92	9.17	-42.4	-43.6	21.5	0.00e+00	0	35	101	1048576	60	7391
2026-01-07 20:42:23.57	335.51	9.01	-41.5	-42.6	22.4	0.00e+00	0	35	101	1048576	60	6569
2026-01-07 20:42:26.60	335.11	8.85	-41.3	-42.3	22.7	0.00e+00	0	36	101	1048576	60	6367
2026-01-07 20:42:29.63	334.71	8.69	-41.5	-42.5	22.4	0.00e+00	0	36	101	1048576	60	6528
2026-01-07 20:42:32.67	334.31	8.53	-41.8	-42.9	22.1	0.00e+00	0	35	101	1048576	60	6801
2026-01-07 20:42:35.70	333.92	8.37	-41.6	-42.6	22.2	0.00e+00	0	36	101	1048576	60	6607
2026-01-07 20:42:38.73	333.54	8.21	-41.3	-42.3	22.5	0.00e+00	0	35	101	1048576	60	6379
2026-01-07 20:42:41.77	333.15	8.05	-41.5	-42.5	22.4	0.00e+00	0	35	101	1048576	60	6519
2026-01-07 20:42:44.80	332.78	7.89	-41.7	-42.7	22.1	0.00e+00	0	35	101	1048576	60	6668
2026-01-07 20:42:47.83	332.40	7.73	-42.1	-43.3	21.8	0.00e+00	0	35	101	1048576	60	7093
2026-01-07 20:42:50.87	332.03	7.57	-42.3	-43.5	21.7	0.00e+00	0	35	101	1048576	60	7272
2026-01-07 20:42:53.90	331.67	7.41	-42.4	-43.6	21.5	0.00e+00	0	36	101	1048576	60	7342
2026-01-07 20:42:56.93	331.31	7.25	-42.5	-43.6	21.4	0.00e+00	0	35	101	1048576	60	7413
2026-01-07 20:42:59.96	330.95	7.09	-42.4	-43.5	21.2	0.00e+00	0	35	101	1048576	60	7328
2026-01-07 20:43:03.00	330.60	6.92	-42.1	-43.2	21.7	0.00e+00	0	36	101	1048576	60	7084
2026-01-07 20:43:06.03	330.25	6.76	-41.8	-42.9	21.7	0.00e+00	0	36	101	1048576	60	6810
2026-01-07 20:43:09.06	329.90	6.60	-41.7	-42.8	22.1	0.00e+00	0	35	101	1048576	60	6725
2026-01-07 20:43:12.10	329.56	6.44	-41.6	-42.7	22.2	0.00e+00	0	35	101	1048576	60	6630
2026-01-07 20:43:15.13	329.22	6.28	-42.2	-43.4	21.6	0.00e+00	0	35	101	1048576	60	7171
2026-01-07 20:43:18.16	328.89	6.12	-42.8	-44.0	20.9	0.00e+00	0	35	101	1048576	60	7751
2026-01-07 20:43:21.20	328.56	5.95	-43.0	-44.3	20.8	0.00e+00	0	36	101	1048576	60	7983
2026-01-07 20:43:24.23	328.23	5.79	-42.8	-44.1	20.9	0.00e+00	0	36	101	1048576	60	7803
2026-01-07 20:43:27.26	327.91	5.63	-42.7	-43.9	21.1	0.00e+00	0	36	101	1048576	60	7670
2026-01-07 20:43:30.29	327.59	5.47	-42.1	-43.3	21.6	0.00e+00	0	35	101	1048576	60	7107
2026-01-07 20:43:33.33	327.28	5.31	-42.3	-43.4	21.5	0.00e+00	0	36	101	1048576	60	7222
2026-01-07 20:43:36.36	326.97	5.15	-42.4	-43.6	21.3	0.00e+00	0	35	101	1048576	60	7355
2026-01-07 20:43:39.39	326.66	4.99	-42.8	-44.1	20.9	0.00e+00	0	35	101	1048576	60	7807
2026-01-07 20:43:42.43	326.35	4.83	-43.4	-44.7	20.3	0.00e+00	0	35	101	1048576	60	8379
2026-01-07 20:43:45.46	326.05	4.67	-43.9	-45.3	19.7	0.00e+00	0	36	101	1048576	60	8994
2026-01-07 20:43:48.49	325.76	4.51	-44.0	-45.6	19.4	0.00e+00	0	36	101	1048576	60	9249
2026-01-07 20:43:51.53	325.46	4.35	-44.0	-45.5	19.4	0.00e+00	0	36	101	1048576	60	9172
2026-01-07 20:43:54.56	325.17	4.19	-44.2	-45.7	19.3	0.00e+00	0	35	101	1048576	60	9420
2026-01-07 20:43:57.59	324.88	4.03	-43.7	-45.2	19.7	0.00e+00	0	35	101	1048576	60	8876
2026-01-07 20:44:00.63	324.60	3.87	-44.3	-45.9	19.1	0.00e+00	0	35	101	1048576	60	9609
2026-01-07 20:44:03.66	324.32	3.71	-44.8	-46.6	18.3	0.00e+00	0	36	101	1048576	60	10397
2026-01-07 20:44:06.69	324.04	3.56	-45.2	-47.2	17.7	0.00e+00	0	35	101	1048576	60	11129
2026-01-07 20:44:09.72	323.76	3.40	-45.2	-47.2	17.7	0.00e+00	0	36	101	1048576	60	11153
2026-01-07 20:44:12.75	323.49	3.24	-44.8	-46.7	18.3	0.00e+00	0	35	101	1048576	60	10490
2026-01-07 20:44:15.78	323.22	3.08	-50.9	-66.2	3.6	0.00e+00	0	35	104	1048576	60	99858
2026-01-07 20:44:18.81	322.96	2.93	-51.9	-67.3	3.6	1.51e+00	0	36	104	1048576	60	112663
2026-01-07 20:44:21.85	322.69	2.77	-52.1	-67.4	3.6	1.51e+00	0	36	104	1048576	60	114954
2026-01-07 20:44:24.88	322.43	2.61	-52.1	-67.5	3.6	1.51e+00	0	35	104	1048576	60	115994
2026-01-07 20:44:27.91	322.18	2.46	-52.0	-67.4	3.6	1.51e+00	0	36	104	1048576	60	114237
2026-01-07 20:44:30.94	321.92	2.30	-52.0	-67.4	3.6	1.51e+00	0	36	104	1048576	60	114452
2026-01-07 20:44:33.98	321.67	2.15	-52.1	-67.5	3.6	1.51e+00	0	36	104	1048576	60	115454
2026-01-07 20:44:37.01	321.42	1.99	-52.1	-67.5	3.6	1.51e+00	0	35	104	1048576	60	115035
2026-01-07 20:44:40.04	321.18	1.84	-52.0	-67.4	3.6	1.51e+00	0	36	104	1048576	60	114383
2026-01-07 20:44:43.07	320.93	1.68	-52.0	-67.4	3.6	1.51e+00	0	36	104	1048576	60	113762
2026-01-07 20:44:46.11	320.69	1.53	-52.0	-67.4	3.6	1.51e+00	0	36	104	1048576	60	114567
2026-01-07 20:44:49.14	320.45	1.37	-52.0	-67.4	3.6	1.51e+00	0	36	104	1048576	60	114582
2026-01-07 20:44:52.17	320.22	1.22	-52.0	-67.4	3.6	1.51e+00	0	36	104	1048576	60	114211
2026-01-07 20:44:55.20	319.98	1.07	-52.0	-67.4	3.6	1.51e+00	0	36	104	1048576	60	114370
2026-01-07 20:44:58.24	319.75	0.91	-52.0	-67.4	3.6	1.51e+00	0	36	104	1048576	60	114157
2026-01-07 20:45:01.27	319.52	0.76	-52.0	-67.4	3.6	1.51e+00	0	36	104	1048576	60	114444
2026-01-07 20:45:04.30	319.30	0.61	-52.0	-67.4	3.6	1.51e+00	0	36	104	1048576	60	114269
2026-01-07 20:45:07.33	319.08	0.46	-52.0	-67.4	3.6	1.51e+00	0	36	104	1048576	60	114267
2026-01-07 20:45:10.37	318.85	0.31	-52.0	-67.4	3.6	1.51e+00	0	36	104	1048576	60	114389
2026-01-07 20:45:13.40	318.64	0.16	-52.0	-67.4	3.6	1.51e+00	0	36	104	1048576	60	113812
2026-01-07 20:45:16.43	318.42	0.01	-52.0	-67.4	3.6	1.51e+00	0	36	104	1048576	60	114303

#Closed at: 2026-01-07 20:45:18
#Recorded file [1 MB]: D:/lorett/data/35034_260107_233232.dat