passes_logs/2026/01/07/R4.6S_Anadyr_2ch/R4.6S_Anadyr_2ch__20260107_182100_FENGYUN_3E_rec.log

#Pass ID: 20260107_182100_FENGYUN 3E
#Satellite: FENGYUN 3E
#Configuration: FENGYUN 3E
#almurnet v.1.7.20251203
#Start time: 2026-01-07 18:21:01

#Version: 2.2.20231116
#Station: R4.6S_Anadyr_2ch
#Location: 177.4865 lon 64.73178 lat
#TLE: 1 49008U 21062A   25350.97288215  .00000176  00000+0  10353-3 0  9997
#TLE: 2 49008  98.7477 351.4440 0000638 234.3856 125.7261 14.19881381230726

#Time	Az	El	Level	Level2	SNR	BER	BlckErr	Temp	State	Recorded	gain1	gain2
2026-01-07 18:21:01.50	19.41	0.07	-51.9	-67.0	3.6	1.51e+00	0	32	0	0	60	109599
2026-01-07 18:21:05.54	19.50	0.31	-51.6	-63.0	3.6	8.44e-01	0	34	104	0	60	70020
2026-01-07 18:21:09.59	19.60	0.55	-51.6	-63.0	3.6	8.45e-01	0	34	104	0	60	69625
2026-01-07 18:21:13.63	19.70	0.79	-51.5	-63.0	3.6	8.45e-01	0	34	104	0	60	69775
2026-01-07 18:21:17.67	19.80	1.04	-51.6	-63.0	3.5	8.45e-01	0	34	104	0	60	69711
2026-01-07 18:21:21.72	19.90	1.28	-51.6	-63.0	3.6	8.45e-01	0	34	104	0	60	69795
2026-01-07 18:21:25.76	20.00	1.53	-51.6	-63.1	3.6	8.45e-01	0	34	104	0	60	70491
2026-01-07 18:21:29.81	20.10	1.78	-51.6	-63.1	3.6	8.47e-01	0	34	104	0	60	70479
2026-01-07 18:21:33.85	20.21	2.03	-51.6	-63.1	3.6	8.46e-01	0	34	104	0	60	70202
2026-01-07 18:21:37.90	20.32	2.29	-51.6	-63.1	3.6	8.45e-01	0	35	104	0	60	70207
2026-01-07 18:21:41.94	20.42	2.54	-51.6	-63.1	3.6	8.45e-01	0	34	104	0	60	70494
2026-01-07 18:21:45.98	20.53	2.80	-51.6	-63.1	3.6	8.45e-01	0	34	104	0	60	70163
2026-01-07 18:21:50.03	20.65	3.06	-51.6	-63.1	3.6	8.45e-01	0	35	104	0	60	70331
2026-01-07 18:21:54.07	20.76	3.33	-51.6	-63.0	3.6	8.44e-01	0	35	104	0	60	70012
2026-01-07 18:21:58.11	20.87	3.59	-51.6	-63.1	3.6	8.44e-01	0	35	104	0	60	70424
2026-01-07 18:22:02.16	20.99	3.86	-51.6	-63.1	3.6	8.46e-01	0	35	104	0	60	70108
2026-01-07 18:22:06.20	21.11	4.13	-51.6	-63.1	3.6	8.46e-01	0	35	104	0	60	70248
2026-01-07 18:22:10.25	21.23	4.41	-51.6	-63.1	3.6	8.45e-01	0	35	104	0	60	70409
2026-01-07 18:22:14.29	21.35	4.69	-51.6	-63.1	3.6	8.46e-01	0	35	104	0	60	70147
2026-01-07 18:22:18.33	21.47	4.96	-51.6	-63.1	3.6	8.45e-01	0	35	104	0	60	70189
2026-01-07 18:22:22.37	21.60	5.25	-51.6	-63.1	3.6	8.45e-01	0	35	104	0	60	70229
2026-01-07 18:22:26.42	21.73	5.53	-51.6	-63.1	3.6	8.45e-01	0	35	104	0	60	70220
2026-01-07 18:22:30.46	21.86	5.82	-51.6	-63.1	3.6	8.46e-01	0	35	104	0	60	70100
2026-01-07 18:22:34.51	21.99	6.11	-51.6	-63.1	3.6	8.46e-01	0	35	104	0	60	70158
2026-01-07 18:22:38.55	22.13	6.41	-51.6	-63.0	3.6	8.46e-01	0	35	104	0	60	69904
2026-01-07 18:22:42.59	22.27	6.71	-51.6	-63.1	3.6	8.45e-01	0	35	104	0	60	70195
2026-01-07 18:22:46.63	22.40	7.01	-51.6	-63.1	3.6	8.47e-01	0	35	104	0	60	70673
2026-01-07 18:22:50.68	22.55	7.31	-51.6	-63.1	3.6	8.46e-01	0	35	104	0	60	70380
2026-01-07 18:22:54.72	22.69	7.62	-51.6	-63.1	3.6	8.45e-01	0	35	104	0	60	70254
2026-01-07 18:22:58.76	22.84	7.93	-51.6	-63.1	3.6	8.45e-01	0	35	104	0	60	70676
2026-01-07 18:23:02.80	22.99	8.25	-51.6	-63.1	3.6	8.44e-01	0	35	104	0	60	70573
2026-01-07 18:23:06.84	23.14	8.57	-51.6	-63.1	3.6	8.45e-01	0	35	104	0	60	70400
2026-01-07 18:23:10.89	23.30	8.89	-51.6	-63.0	3.6	8.45e-01	0	35	104	0	60	69844
2026-01-07 18:23:14.93	23.46	9.22	-51.6	-63.1	3.6	8.45e-01	0	35	104	0	60	70698
2026-01-07 18:23:18.98	23.62	9.55	-51.6	-63.1	3.6	8.45e-01	0	35	104	0	60	70203
2026-01-07 18:23:23.02	23.79	9.89	-51.6	-63.1	3.6	8.45e-01	0	35	104	0	60	70128
2026-01-07 18:23:27.06	23.96	10.23	-51.6	-63.0	3.6	8.46e-01	0	35	104	0	60	69787
2026-01-07 18:23:31.11	24.13	10.57	-51.6	-63.1	3.6	8.45e-01	0	35	104	0	60	70588
2026-01-07 18:23:35.15	24.31	10.92	-51.6	-63.0	3.6	8.45e-01	0	35	104	0	60	70017
2026-01-07 18:23:39.20	24.49	11.28	-51.6	-63.1	3.6	8.45e-01	0	35	104	0	60	70365
2026-01-07 18:23:43.24	24.68	11.64	-51.6	-63.1	3.6	8.46e-01	0	35	104	0	60	70570
2026-01-07 18:23:47.28	24.86	12.00	-51.6	-63.1	3.6	8.46e-01	0	35	104	0	60	70418
2026-01-07 18:23:51.33	25.06	12.38	-51.6	-63.1	3.6	8.45e-01	0	35	104	0	60	70333
2026-01-07 18:23:55.37	25.26	12.75	-51.6	-63.1	3.6	8.45e-01	0	36	104	0	60	70117
2026-01-07 18:23:59.41	25.46	13.13	-51.6	-63.1	3.6	8.45e-01	0	36	104	0	60	70135
2026-01-07 18:24:03.46	25.67	13.52	-51.6	-63.1	3.6	8.44e-01	0	35	104	0	60	70132
2026-01-07 18:24:07.50	25.88	13.91	-51.6	-63.1	3.6	8.46e-01	0	36	104	0	60	70507
2026-01-07 18:24:11.54	26.10	14.31	-51.6	-63.0	3.6	8.45e-01	0	36	104	0	60	69929
2026-01-07 18:24:15.59	26.32	14.72	-51.6	-63.1	3.6	8.46e-01	0	36	104	0	60	70682
2026-01-07 18:24:19.59	26.55	15.13	-51.6	-63.1	3.6	8.45e-01	0	36	104	0	60	70138
2026-01-07 18:24:23.64	26.78	15.55	-51.6	-63.1	3.6	8.45e-01	0	36	104	0	60	70288
2026-01-07 18:24:27.68	27.02	15.97	-51.6	-63.1	3.6	8.46e-01	0	36	104	0	60	70369
2026-01-07 18:24:31.72	27.27	16.40	-51.6	-63.1	3.6	8.45e-01	0	36	104	0	60	70107
2026-01-07 18:24:35.77	27.52	16.85	-51.6	-63.1	3.6	8.44e-01	0	36	104	0	60	70395
2026-01-07 18:24:39.81	27.78	17.29	-51.6	-63.1	3.6	8.46e-01	0	36	104	0	60	70372
2026-01-07 18:24:43.85	28.05	17.75	-51.6	-63.1	3.6	8.45e-01	0	36	104	0	60	70668
2026-01-07 18:24:47.89	28.33	18.21	-51.6	-63.1	3.6	8.45e-01	0	36	104	0	60	70123
2026-01-07 18:24:51.93	28.61	18.69	-51.6	-63.1	3.6	8.45e-01	0	36	104	0	60	70147
2026-01-07 18:24:55.98	28.91	19.17	-51.6	-63.1	3.6	8.46e-01	0	36	104	0	60	70151
2026-01-07 18:25:00.02	29.21	19.66	-51.6	-63.1	3.6	8.45e-01	0	36	104	0	60	70362
2026-01-07 18:25:04.06	29.52	20.16	-51.6	-63.1	3.6	8.45e-01	0	36	104	0	60	70357
2026-01-07 18:25:08.11	29.84	20.66	-51.6	-63.1	3.6	8.45e-01	0	36	104	0	60	70476
2026-01-07 18:25:12.15	30.17	21.18	-51.6	-63.1	3.6	8.45e-01	0	36	104	0	60	70618
2026-01-07 18:25:16.19	30.51	21.71	-51.6	-63.1	3.6	8.45e-01	0	36	104	0	60	70409
2026-01-07 18:25:20.24	30.87	22.25	-51.6	-63.1	3.6	8.45e-01	0	36	104	0	60	70456
2026-01-07 18:25:24.28	31.23	22.80	-51.6	-63.1	3.6	8.45e-01	0	36	104	0	60	70345
2026-01-07 18:25:28.32	31.61	23.36	-51.6	-63.1	3.6	8.45e-01	0	36	104	0	60	70247
2026-01-07 18:25:32.37	32.00	23.93	-51.6	-63.1	3.6	8.44e-01	0	36	104	0	60	70154
2026-01-07 18:25:36.41	32.41	24.51	-51.6	-63.1	3.6	8.45e-01	0	36	104	0	60	70092
2026-01-07 18:25:40.45	32.83	25.10	-51.6	-63.0	3.6	8.45e-01	0	36	104	0	60	70011
2026-01-07 18:25:44.50	33.26	25.71	-51.6	-63.1	3.5	8.45e-01	0	36	104	0	60	70177
2026-01-07 18:25:48.54	33.71	26.33	-51.6	-63.0	3.6	8.45e-01	0	36	104	0	60	69874
2026-01-07 18:25:52.59	34.18	26.96	-51.6	-63.1	3.6	8.45e-01	0	36	104	0	60	70245
2026-01-07 18:25:56.63	34.67	27.61	-51.6	-63.1	3.6	8.45e-01	0	36	104	0	60	70419
2026-01-07 18:26:00.68	35.18	28.27	-51.6	-63.1	3.6	8.43e-01	0	36	104	0	60	70248
2026-01-07 18:26:04.72	35.71	28.94	-51.6	-63.1	3.6	8.45e-01	0	36	104	0	60	70143
2026-01-07 18:26:08.77	36.26	29.62	-51.6	-63.0	3.6	8.45e-01	0	36	104	0	60	69781
2026-01-07 18:26:12.81	36.83	30.32	-51.6	-63.1	3.6	8.45e-01	0	36	104	0	60	70156
2026-01-07 18:26:16.85	37.43	31.03	-51.6	-63.1	3.6	8.46e-01	0	36	104	0	60	70422
2026-01-07 18:26:20.90	38.05	31.76	-51.6	-63.1	3.6	8.45e-01	0	36	104	0	60	70190
2026-01-07 18:26:24.94	38.70	32.51	-51.6	-63.0	3.6	8.45e-01	0	36	104	0	60	70074
2026-01-07 18:26:28.99	39.39	33.27	-51.6	-63.1	3.6	8.44e-01	0	36	104	0	60	70305
2026-01-07 18:26:33.03	40.10	34.04	-51.6	-63.1	3.6	8.45e-01	0	36	104	0	60	70702
2026-01-07 18:26:37.08	40.85	34.83	-51.6	-63.1	3.6	8.46e-01	0	36	104	0	60	70542
2026-01-07 18:26:41.12	41.64	35.63	-51.6	-63.1	3.6	8.45e-01	0	36	104	0	60	70375
2026-01-07 18:26:45.17	42.46	36.45	-51.6	-63.1	3.6	8.45e-01	0	36	104	0	60	70448
2026-01-07 18:26:49.21	43.33	37.28	-51.6	-63.1	3.6	8.46e-01	0	36	104	0	60	70419
2026-01-07 18:26:53.25	44.24	38.12	-51.6	-63.1	3.6	8.45e-01	0	36	104	0	60	70437
2026-01-07 18:26:57.30	45.20	38.98	-51.6	-63.1	3.6	8.46e-01	0	36	104	0	60	70511
2026-01-07 18:27:01.34	46.21	39.85	-51.6	-63.1	3.6	8.46e-01	0	36	104	0	60	70520
2026-01-07 18:27:05.38	47.28	40.73	-51.6	-63.1	3.6	8.45e-01	0	36	104	0	60	70514
2026-01-07 18:27:09.43	48.40	41.63	-51.6	-63.1	3.6	8.45e-01	0	36	104	0	60	70243
2026-01-07 18:27:13.47	49.59	42.53	-51.6	-63.1	3.6	8.46e-01	0	36	104	0	60	70526
2026-01-07 18:27:17.51	50.84	43.44	-51.6	-63.1	3.6	8.46e-01	0	36	104	0	60	70210
2026-01-07 18:27:21.56	52.18	44.36	-51.6	-63.1	3.6	8.45e-01	0	36	104	0	60	70375
2026-01-07 18:27:25.60	53.58	45.28	-51.6	-63.1	3.6	8.44e-01	0	36	104	0	60	70447
2026-01-07 18:27:29.65	55.07	46.20	-51.6	-63.1	3.6	8.45e-01	0	36	104	0	60	70671
2026-01-07 18:27:33.69	56.65	47.12	-51.6	-63.1	3.6	8.45e-01	0	36	104	0	60	70345
2026-01-07 18:27:37.73	58.32	48.04	-51.6	-63.1	3.6	8.45e-01	0	36	104	0	60	70645
2026-01-07 18:27:41.78	60.10	48.95	-51.6	-63.1	3.6	8.45e-01	0	36	104	0	60	70293
2026-01-07 18:27:45.82	61.98	49.85	-51.6	-63.1	3.6	8.46e-01	0	36	104	0	60	70180
2026-01-07 18:27:49.86	63.97	50.73	-51.6	-63.1	3.6	8.45e-01	0	36	104	0	60	70645
2026-01-07 18:27:53.90	66.08	51.59	-51.6	-63.1	3.6	8.45e-01	0	36	104	0	60	70230
2026-01-07 18:27:57.95	68.32	52.42	-51.6	-63.1	3.6	8.46e-01	0	36	104	0	60	70731
2026-01-07 18:28:01.99	70.68	53.22	-51.6	-63.1	3.6	8.45e-01	0	36	104	0	60	70425
2026-01-07 18:28:06.03	73.17	53.98	-51.6	-63.1	3.6	8.45e-01	0	36	104	0	60	70156
2026-01-07 18:28:10.08	75.79	54.70	-51.6	-63.1	3.6	8.45e-01	0	36	104	0	60	70653
2026-01-07 18:28:14.12	78.54	55.36	-51.6	-63.1	3.6	8.45e-01	0	36	104	0	60	70282
2026-01-07 18:28:18.17	81.42	55.97	-51.6	-63.1	3.6	8.46e-01	0	36	104	0	60	70268
2026-01-07 18:28:22.21	84.41	56.51	-51.6	-63.1	3.6	8.45e-01	0	36	104	0	60	70226
2026-01-07 18:28:26.25	87.51	56.97	-51.6	-63.1	3.6	8.46e-01	0	36	104	0	60	70458
2026-01-07 18:28:30.30	90.72	57.36	-51.6	-63.1	3.6	8.46e-01	0	36	104	0	60	70115
2026-01-07 18:28:34.34	94.01	57.66	-51.6	-63.1	3.6	8.44e-01	0	36	104	0	60	70191
2026-01-07 18:28:38.39	97.36	57.87	-51.6	-63.1	3.6	8.44e-01	0	36	104	0	60	70408
2026-01-07 18:28:42.43	100.75	58.00	-51.6	-63.1	3.6	8.46e-01	0	36	104	0	60	70528
2026-01-07 18:28:46.48	104.16	58.03	-51.6	-63.1	3.6	8.45e-01	0	36	104	0	60	70342
2026-01-07 18:28:50.52	107.57	57.96	-51.6	-63.1	3.6	8.46e-01	0	36	104	0	60	70354
2026-01-07 18:28:54.56	110.94	57.80	-51.6	-63.1	3.6	8.46e-01	0	36	104	0	60	70437
2026-01-07 18:28:58.61	114.28	57.55	-51.6	-63.1	3.6	8.45e-01	0	36	104	0	60	70246
2026-01-07 18:29:02.65	117.53	57.22	-51.6	-63.1	3.6	8.45e-01	0	36	104	0	60	70457
2026-01-07 18:29:06.69	120.70	56.80	-51.6	-63.1	3.6	8.45e-01	0	36	104	0	60	70289
2026-01-07 18:29:10.74	123.77	56.31	-51.6	-63.1	3.6	8.46e-01	0	36	104	0	60	70095
2026-01-07 18:29:14.78	126.73	55.74	-51.6	-63.1	3.6	8.45e-01	0	36	104	0	60	70159
2026-01-07 18:29:18.83	129.56	55.11	-51.6	-63.1	3.6	8.44e-01	0	36	104	0	60	70438
2026-01-07 18:29:22.87	132.26	54.43	-51.6	-63.1	3.6	8.46e-01	0	36	104	0	60	70203
2026-01-07 18:29:26.91	134.84	53.69	-51.6	-63.1	3.6	8.45e-01	0	36	104	0	60	70452
2026-01-07 18:29:30.96	137.29	52.91	-51.6	-63.1	3.6	8.45e-01	0	36	104	0	60	70474
2026-01-07 18:29:35.00	139.60	52.10	-51.6	-63.1	3.6	8.46e-01	0	36	104	0	60	70751
2026-01-07 18:29:39.05	141.79	51.25	-51.6	-63.1	3.6	8.45e-01	0	36	104	0	60	70442
2026-01-07 18:29:43.09	143.86	50.38	-51.6	-63.1	3.6	8.45e-01	0	36	104	0	60	70588
2026-01-07 18:29:47.14	145.82	49.48	-51.6	-63.1	3.6	8.44e-01	0	36	104	0	60	70324
2026-01-07 18:29:51.18	147.66	48.58	-51.6	-63.1	3.6	8.45e-01	0	36	104	0	60	70355
2026-01-07 18:29:55.22	149.40	47.66	-51.6	-63.1	3.6	8.45e-01	0	36	104	0	60	70424
2026-01-07 18:29:59.27	151.04	46.74	-51.6	-63.1	3.6	8.45e-01	0	36	104	0	60	70268
2026-01-07 18:30:03.31	152.59	45.81	-51.6	-63.1	3.6	8.45e-01	0	36	104	0	60	70659
2026-01-07 18:30:07.35	154.04	44.88	-51.6	-63.1	3.6	8.45e-01	0	36	104	0	60	70609
2026-01-07 18:30:11.40	155.42	43.96	-51.6	-63.1	3.6	8.46e-01	0	36	104	0	60	70496
2026-01-07 18:30:15.44	156.73	43.04	-51.6	-63.1	3.6	8.45e-01	0	36	104	0	60	70346
2026-01-07 18:30:19.49	157.96	42.13	-51.6	-63.1	3.6	8.47e-01	0	36	104	0	60	70601
2026-01-07 18:30:23.53	159.12	41.22	-51.6	-63.1	3.6	8.46e-01	0	36	104	0	60	70621
2026-01-07 18:30:27.57	160.22	40.33	-51.6	-63.1	3.6	8.45e-01	0	36	104	0	60	70638
2026-01-07 18:30:31.62	161.27	39.45	-51.6	-63.0	3.6	8.44e-01	0	36	104	0	60	69993
2026-01-07 18:30:35.66	162.26	38.58	-51.6	-63.0	3.6	8.45e-01	0	36	104	0	60	69971
2026-01-07 18:30:39.71	163.20	37.72	-51.6	-63.1	3.6	8.46e-01	0	36	104	0	60	70610
2026-01-07 18:30:43.75	164.10	36.88	-51.6	-63.1	3.6	8.46e-01	0	36	104	0	60	70407
2026-01-07 18:30:47.79	164.95	36.05	-51.6	-63.1	3.6	8.46e-01	0	36	104	0	60	70381
2026-01-07 18:30:51.84	165.76	35.23	-51.6	-63.1	3.6	8.46e-01	0	36	104	0	60	70781
2026-01-07 18:30:55.88	166.53	34.43	-51.6	-63.1	3.6	8.44e-01	0	36	104	0	60	70445
2026-01-07 18:30:59.93	167.27	33.65	-51.6	-63.1	3.6	8.46e-01	0	36	104	0	60	70581
2026-01-07 18:31:03.97	167.97	32.88	-51.6	-63.1	3.6	8.46e-01	0	36	104	0	60	70798
2026-01-07 18:31:08.01	168.64	32.12	-51.6	-63.1	3.6	8.46e-01	0	36	104	0	60	70690
2026-01-07 18:31:12.05	169.28	31.38	-51.6	-63.0	3.5	8.46e-01	0	36	104	0	60	70002
2026-01-07 18:31:16.10	169.89	30.66	-51.6	-63.1	3.6	8.45e-01	0	36	104	0	60	70490
2026-01-07 18:31:20.14	170.48	29.94	-51.6	-63.1	3.6	8.44e-01	0	36	104	0	60	70522
2026-01-07 18:31:24.18	171.04	29.25	-51.6	-63.1	3.6	8.46e-01	0	36	104	0	60	70698
2026-01-07 18:31:28.23	171.59	28.56	-51.6	-63.1	3.6	8.45e-01	0	36	104	0	60	70779
2026-01-07 18:31:32.27	172.10	27.90	-51.6	-63.1	3.6	8.45e-01	0	36	104	0	60	70253
2026-01-07 18:31:36.32	172.60	27.24	-51.6	-63.1	3.6	8.45e-01	0	36	104	0	60	70378
2026-01-07 18:31:40.36	173.08	26.60	-51.6	-63.1	3.6	8.46e-01	0	36	104	0	60	70402
2026-01-07 18:31:44.41	173.54	25.97	-51.6	-63.1	3.6	8.46e-01	0	36	104	0	60	70723
2026-01-07 18:31:48.45	173.99	25.35	-51.6	-63.0	3.6	8.45e-01	0	36	104	0	60	70047
2026-01-07 18:31:52.49	174.42	24.75	-51.6	-63.1	3.6	8.44e-01	0	36	104	0	60	70375
2026-01-07 18:31:56.54	174.83	24.15	-51.6	-63.1	3.6	8.46e-01	0	36	104	0	60	70581
2026-01-07 18:32:00.58	175.23	23.57	-51.6	-63.1	3.6	8.45e-01	0	36	104	0	60	70714
2026-01-07 18:32:04.63	175.61	23.00	-51.6	-63.1	3.6	8.45e-01	0	36	104	0	60	70762
2026-01-07 18:32:08.67	175.98	22.45	-51.6	-63.1	3.6	8.46e-01	0	36	104	0	60	70315
2026-01-07 18:32:12.71	176.34	21.90	-51.6	-63.1	3.6	8.44e-01	0	36	104	0	60	70482
2026-01-07 18:32:16.76	176.69	21.36	-51.6	-63.2	3.6	8.45e-01	0	36	104	0	60	70929
2026-01-07 18:32:20.80	177.03	20.84	-51.6	-63.0	3.6	8.45e-01	0	36	104	0	60	70067
2026-01-07 18:32:24.85	177.35	20.32	-51.6	-63.1	3.6	8.46e-01	0	36	104	0	60	70130
2026-01-07 18:32:28.89	177.67	19.81	-51.6	-63.1	3.6	8.46e-01	0	36	104	0	60	70615
2026-01-07 18:32:32.94	177.97	19.32	-51.6	-63.1	3.6	8.45e-01	0	36	104	0	60	70574
2026-01-07 18:32:36.98	178.27	18.83	-51.6	-63.1	3.6	8.44e-01	0	36	104	0	60	70825
2026-01-07 18:32:41.02	178.56	18.35	-51.6	-63.1	3.6	8.47e-01	0	36	104	0	60	70709
2026-01-07 18:32:45.07	178.84	17.88	-51.6	-63.1	3.6	8.46e-01	0	36	104	0	60	70571
2026-01-07 18:32:49.11	179.11	17.41	-51.6	-63.1	3.6	8.45e-01	0	36	104	0	60	70409
2026-01-07 18:32:53.15	179.37	16.96	-51.6	-63.1	3.6	8.46e-01	0	36	104	0	60	70672
2026-01-07 18:32:57.20	179.63	16.51	-51.6	-63.1	3.6	8.44e-01	0	36	104	0	60	70195
2026-01-07 18:33:01.24	179.88	16.07	-51.6	-63.1	3.6	8.45e-01	0	36	104	0	60	70459
2026-01-07 18:33:05.29	180.12	15.64	-51.6	-63.1	3.6	8.46e-01	0	36	104	0	60	70574
2026-01-07 18:33:09.33	180.36	15.22	-51.6	-63.1	3.6	8.45e-01	0	36	104	0	60	70845
2026-01-07 18:33:13.37	180.59	14.80	-51.6	-63.1	3.6	8.45e-01	0	36	104	0	60	70313
2026-01-07 18:33:17.41	180.81	14.39	-51.6	-63.1	3.5	8.45e-01	0	36	104	0	60	70524
2026-01-07 18:33:21.45	181.03	13.98	-51.6	-63.1	3.6	8.46e-01	0	36	104	0	60	70268
2026-01-07 18:33:25.50	181.24	13.58	-51.6	-63.1	3.6	8.45e-01	0	36	104	0	60	70390
2026-01-07 18:33:29.54	181.45	13.19	-51.6	-63.1	3.6	8.45e-01	0	36	104	0	60	70330
2026-01-07 18:33:33.59	181.65	12.81	-51.6	-63.1	3.6	8.46e-01	0	36	104	0	60	70335
2026-01-07 18:33:37.63	181.85	12.43	-51.6	-63.1	3.6	8.44e-01	0	36	104	0	60	70583
2026-01-07 18:33:41.67	182.04	12.05	-51.6	-63.1	3.6	8.45e-01	0	36	104	0	60	70247
2026-01-07 18:33:45.72	182.23	11.68	-51.6	-63.1	3.6	8.45e-01	0	36	104	0	60	70137
2026-01-07 18:33:49.76	182.42	11.32	-51.6	-63.0	3.6	8.46e-01	0	36	104	0	60	69976
2026-01-07 18:33:53.80	182.60	10.96	-51.6	-63.1	3.6	8.46e-01	0	36	104	0	60	70478
2026-01-07 18:33:57.84	182.77	10.60	-51.6	-63.1	3.6	8.44e-01	0	36	104	0	60	70505
2026-01-07 18:34:01.89	182.95	10.25	-51.6	-63.1	3.6	8.45e-01	0	36	104	0	60	70164
2026-01-07 18:34:05.93	183.12	9.91	-51.6	-63.1	3.6	8.45e-01	0	36	104	0	60	70609
2026-01-07 18:34:09.97	183.28	9.57	-51.6	-63.1	3.6	8.45e-01	0	36	104	0	60	70616
2026-01-07 18:34:14.02	183.44	9.23	-51.6	-63.1	3.6	8.44e-01	0	36	104	0	60	70159
2026-01-07 18:34:18.06	183.60	8.90	-51.6	-63.1	3.6	8.45e-01	0	36	104	0	60	70236
2026-01-07 18:34:22.10	183.76	8.57	-51.6	-63.1	3.6	8.45e-01	0	36	104	0	60	70684
2026-01-07 18:34:26.15	183.91	8.25	-51.6	-63.1	3.6	8.44e-01	0	36	104	0	60	70298
2026-01-07 18:34:30.19	184.06	7.93	-51.6	-63.1	3.6	8.45e-01	0	36	104	0	60	70348
2026-01-07 18:34:34.23	184.20	7.62	-51.6	-63.1	3.6	8.45e-01	0	36	104	0	60	70249
2026-01-07 18:34:38.28	184.35	7.30	-51.6	-63.1	3.6	8.46e-01	0	36	104	0	60	70241
2026-01-07 18:34:42.32	184.49	7.00	-51.6	-63.1	3.6	8.46e-01	0	36	104	0	60	70418
2026-01-07 18:34:46.36	184.63	6.69	-51.6	-63.1	3.6	8.45e-01	0	36	104	0	60	70610
2026-01-07 18:34:50.41	184.76	6.39	-51.6	-63.1	3.6	8.45e-01	0	36	104	0	60	70252
2026-01-07 18:34:54.45	184.89	6.09	-51.6	-63.1	3.6	8.44e-01	0	36	104	0	60	70206
2026-01-07 18:34:58.49	185.02	5.80	-51.6	-63.1	3.6	8.45e-01	0	36	104	0	60	70329
2026-01-07 18:35:02.53	185.15	5.51	-51.6	-63.1	3.6	8.46e-01	0	36	104	0	60	70806
2026-01-07 18:35:06.58	185.28	5.22	-51.6	-63.1	3.6	8.46e-01	0	36	104	0	60	70225
2026-01-07 18:35:10.62	185.40	4.94	-51.6	-63.1	3.6	8.44e-01	0	36	104	0	60	70321
2026-01-07 18:35:14.67	185.52	4.65	-51.6	-63.1	3.6	8.46e-01	0	36	104	0	60	70465
2026-01-07 18:35:18.71	185.64	4.37	-51.6	-63.1	3.6	8.46e-01	0	36	104	0	60	70406
2026-01-07 18:35:22.75	185.76	4.10	-51.6	-63.1	3.6	8.47e-01	0	36	104	0	60	70462
2026-01-07 18:35:26.80	185.88	3.82	-51.6	-63.1	3.6	8.45e-01	0	36	104	0	60	70830
2026-01-07 18:35:30.84	185.99	3.55	-51.6	-63.1	3.6	8.45e-01	0	36	104	0	60	70422
2026-01-07 18:35:34.88	186.10	3.28	-51.6	-63.1	3.6	8.44e-01	0	36	104	0	60	70399
2026-01-07 18:35:38.93	186.21	3.02	-51.6	-63.1	3.6	8.45e-01	0	36	104	0	60	70204
2026-01-07 18:35:42.97	186.32	2.75	-51.6	-63.1	3.6	8.46e-01	0	36	104	0	60	70618
2026-01-07 18:35:47.01	186.43	2.49	-51.6	-63.1	3.6	8.45e-01	0	36	104	0	60	70425
2026-01-07 18:35:51.06	186.53	2.23	-51.6	-63.1	3.6	8.44e-01	0	36	104	0	60	70536
2026-01-07 18:35:55.10	186.64	1.98	-51.6	-63.1	3.6	8.45e-01	0	36	104	0	60	70760
2026-01-07 18:35:59.14	186.74	1.72	-51.6	-63.1	3.6	8.45e-01	0	36	104	0	60	70248
2026-01-07 18:36:03.19	186.84	1.47	-51.6	-63.1	3.6	8.45e-01	0	36	104	0	60	70206
2026-01-07 18:36:07.23	186.94	1.22	-51.6	-63.1	3.6	8.44e-01	0	36	104	0	60	70500
2026-01-07 18:36:11.27	187.03	0.97	-51.6	-63.1	3.6	8.46e-01	0	36	104	0	60	70469
2026-01-07 18:36:15.31	187.13	0.73	-51.6	-63.1	3.6	8.45e-01	0	36	104	0	60	70658
2026-01-07 18:36:19.35	187.22	0.48	-51.6	-63.1	3.6	8.47e-01	0	36	104	0	60	70087
2026-01-07 18:36:23.40	187.32	0.24	-51.6	-63.1	3.6	8.45e-01	0	36	104	0	60	70493
2026-01-07 18:36:27.44	187.41	0.00	-51.6	-63.1	3.6	8.45e-01	0	36	104	0	60	70356

#Closed at: 2026-01-07 18:36:30
#Recorded file [0 MB]: D:/lorett/data/35034_260107_212101.dat