passes_logs/2026/01/07/R4.6S_Anadyr_2ch/R4.6S_Anadyr_2ch__20260107_225809_TY-40_rec.log

#Pass ID: 20260107_225809_TY-40
#Satellite: TY-40
#Configuration: TY-39_900M
#almurnet v.1.7.20251203
#Start time: 2026-01-07 22:58:38

#Version: 2.2.20231116
#Station: R4.6S_Anadyr_2ch
#Location: 177.4865 lon 64.73178 lat
#TLE: 1 56846U 23081A   25350.97536409  .00002626  00000-0  11966-3 0  9993
#TLE: 2 56846  97.3941  59.4076 0002022  98.6035 261.5430 15.21533877140291

#Time	Az	El	Level	Level2	SNR	BER	BlckErr	Temp	State	Recorded	gain1	gain2
2026-01-07 22:58:38.89	19.02	1.95	-52.1	-67.1	3.5	1.51e+00	0	33	0	0	60	110443
2026-01-07 22:58:41.92	19.10	2.16	-51.9	-54.4	6.1	0.00e+00	0	34	104	0	60	87627
2026-01-07 22:58:44.95	19.19	2.37	-51.9	-54.4	6.1	0.00e+00	0	34	104	0	60	87312
2026-01-07 22:58:47.99	19.27	2.58	-51.9	-54.3	6.1	0.00e+00	0	35	104	0	60	87106
2026-01-07 22:58:51.02	19.35	2.80	-51.9	-54.4	6.1	0.00e+00	0	35	104	0	60	87292
2026-01-07 22:58:54.05	19.44	3.01	-51.9	-54.3	6.1	0.00e+00	0	35	104	0	60	87134
2026-01-07 22:58:57.09	19.53	3.24	-51.9	-54.3	6.1	0.00e+00	0	35	104	0	60	87200
2026-01-07 22:59:00.12	19.61	3.46	-51.9	-54.4	6.1	0.00e+00	0	35	104	0	60	87714
2026-01-07 22:59:03.15	19.70	3.68	-51.9	-54.3	6.1	0.00e+00	0	35	104	0	60	87067
2026-01-07 22:59:06.18	19.80	3.91	-51.9	-54.4	6.1	0.00e+00	0	35	104	0	60	87324
2026-01-07 22:59:09.22	19.89	4.14	-51.9	-54.4	6.1	0.00e+00	0	35	104	0	60	87705
2026-01-07 22:59:12.25	19.98	4.37	-51.9	-54.4	6.1	0.00e+00	0	35	104	0	60	87450
2026-01-07 22:59:15.28	20.08	4.60	-51.9	-54.4	6.1	0.00e+00	0	35	104	0	60	87751
2026-01-07 22:59:18.31	20.18	4.84	-51.9	-54.4	6.1	0.00e+00	0	36	104	0	60	87860
2026-01-07 22:59:21.35	20.28	5.08	-51.9	-54.4	6.1	0.00e+00	0	36	104	0	60	87496
2026-01-07 22:59:24.38	20.38	5.33	-51.9	-54.4	6.1	0.00e+00	0	36	104	0	60	87742
2026-01-07 22:59:27.41	20.48	5.57	-51.9	-54.4	6.1	0.00e+00	0	36	104	0	60	87865
2026-01-07 22:59:30.45	20.59	5.82	-51.9	-54.4	6.1	0.00e+00	0	36	104	0	60	87476
2026-01-07 22:59:33.48	20.70	6.07	-51.9	-54.4	6.1	0.00e+00	0	36	104	0	60	87333
2026-01-07 22:59:36.51	20.80	6.33	-51.9	-54.4	6.1	0.00e+00	0	36	104	0	60	87579
2026-01-07 22:59:39.55	20.92	6.59	-51.9	-54.4	6.1	0.00e+00	0	36	104	0	60	87948
2026-01-07 22:59:42.58	21.03	6.85	-51.9	-54.4	6.1	0.00e+00	0	36	104	0	60	87616
2026-01-07 22:59:45.61	21.15	7.12	-51.9	-54.4	6.1	0.00e+00	0	36	104	0	60	87504
2026-01-07 22:59:48.64	21.27	7.39	-51.9	-54.4	6.1	0.00e+00	0	36	104	0	60	87396
2026-01-07 22:59:51.68	21.39	7.66	-51.9	-54.4	6.1	0.00e+00	0	36	104	0	60	87568
2026-01-07 22:59:54.71	21.51	7.94	-51.9	-54.4	6.1	0.00e+00	0	36	104	0	60	87452
2026-01-07 22:59:57.74	21.64	8.22	-51.9	-54.3	6.1	0.00e+00	0	36	104	0	60	87108
2026-01-07 23:00:00.78	21.77	8.51	-51.9	-54.4	6.1	0.00e+00	0	36	104	0	60	87637
2026-01-07 23:00:03.81	21.90	8.80	-51.9	-54.4	6.1	0.00e+00	0	36	104	0	60	87875
2026-01-07 23:00:06.84	22.03	9.09	-51.9	-54.4	6.1	0.00e+00	0	36	104	0	60	87510
2026-01-07 23:00:09.88	22.17	9.39	-51.9	-54.4	6.1	0.00e+00	0	37	104	0	60	87625
2026-01-07 23:00:12.91	22.31	9.69	-51.9	-54.4	6.1	0.00e+00	0	36	104	0	60	87747
2026-01-07 23:00:15.94	22.46	10.00	-51.9	-54.4	6.1	0.00e+00	0	36	104	0	60	87778
2026-01-07 23:00:18.97	22.61	10.31	-51.9	-54.4	6.1	0.00e+00	0	36	104	0	60	87835
2026-01-07 23:00:22.01	22.76	10.63	-51.9	-54.4	6.1	0.00e+00	0	37	104	0	60	87693
2026-01-07 23:00:25.04	22.91	10.96	-51.9	-54.4	6.1	0.00e+00	0	36	104	0	60	87574
2026-01-07 23:00:28.07	23.07	11.29	-51.9	-54.4	6.1	0.00e+00	0	37	104	0	60	88203
2026-01-07 23:00:31.11	23.24	11.63	-51.9	-54.4	6.1	0.00e+00	0	37	104	0	60	87776
2026-01-07 23:00:34.14	23.40	11.97	-51.9	-54.4	6.1	0.00e+00	0	37	104	0	60	87638
2026-01-07 23:00:37.17	23.58	12.32	-51.9	-54.4	6.1	0.00e+00	0	37	104	0	60	87710
2026-01-07 23:00:40.20	23.75	12.67	-51.9	-54.4	6.1	0.00e+00	0	37	104	0	60	87531
2026-01-07 23:00:43.24	23.94	13.03	-51.9	-54.4	6.1	0.00e+00	0	37	104	0	60	87533
2026-01-07 23:00:46.27	24.12	13.40	-51.9	-54.4	6.1	0.00e+00	0	37	104	0	60	87862
2026-01-07 23:00:49.30	24.31	13.78	-51.9	-54.4	6.1	0.00e+00	0	37	104	0	60	87394
2026-01-07 23:00:52.34	24.51	14.16	-51.9	-54.4	6.1	0.00e+00	0	37	104	0	60	87242
2026-01-07 23:00:55.37	24.72	14.55	-51.9	-54.4	6.1	0.00e+00	0	37	104	0	60	87724
2026-01-07 23:00:58.40	24.93	14.95	-51.9	-54.4	6.1	0.00e+00	0	37	104	0	60	87492
2026-01-07 23:01:01.43	25.14	15.36	-51.9	-54.4	6.1	0.00e+00	0	37	104	0	60	87536
2026-01-07 23:01:04.47	25.36	15.78	-51.9	-54.4	6.1	0.00e+00	0	37	104	0	60	87815
2026-01-07 23:01:07.50	25.59	16.20	-51.9	-54.4	6.1	0.00e+00	0	37	104	0	60	87816
2026-01-07 23:01:10.53	25.83	16.63	-51.9	-54.4	6.1	0.00e+00	0	37	104	0	60	87513
2026-01-07 23:01:13.56	26.08	17.08	-51.9	-54.4	6.1	0.00e+00	0	37	104	0	60	87749
2026-01-07 23:01:16.59	26.33	17.53	-51.9	-54.4	6.1	0.00e+00	0	37	104	0	60	87998
2026-01-07 23:01:19.62	26.59	18.00	-51.9	-54.4	6.1	0.00e+00	0	37	104	0	60	87729
2026-01-07 23:01:22.66	26.86	18.48	-51.9	-54.4	6.1	0.00e+00	0	37	104	0	60	88041
2026-01-07 23:01:25.69	27.14	18.96	-51.9	-54.4	6.1	0.00e+00	0	37	104	0	60	87718
2026-01-07 23:01:28.72	27.43	19.46	-51.9	-54.4	6.1	0.00e+00	0	37	104	0	60	87542
2026-01-07 23:01:31.76	27.74	19.98	-51.9	-54.4	6.1	0.00e+00	0	37	104	0	60	87911
2026-01-07 23:01:34.79	28.05	20.50	-51.9	-54.4	6.1	0.00e+00	0	37	104	0	60	87922
2026-01-07 23:01:37.83	28.38	21.04	-51.9	-54.4	6.1	0.00e+00	0	37	104	0	60	87857
2026-01-07 23:01:40.86	28.71	21.60	-51.9	-54.4	6.1	0.00e+00	0	37	104	0	60	87601
2026-01-07 23:01:43.89	29.07	22.16	-51.9	-54.4	6.1	0.00e+00	0	37	104	0	60	87900
2026-01-07 23:01:46.92	29.43	22.74	-51.9	-54.4	6.1	0.00e+00	0	37	104	0	60	87497
2026-01-07 23:01:49.95	29.81	23.34	-51.9	-54.4	6.1	0.00e+00	0	37	104	0	60	87612
2026-01-07 23:01:52.99	30.21	23.96	-51.9	-54.4	6.1	0.00e+00	0	37	104	0	60	87830
2026-01-07 23:01:56.02	30.63	24.59	-51.9	-54.4	6.1	0.00e+00	0	37	104	0	60	87719
2026-01-07 23:01:59.05	31.06	25.24	-51.9	-54.4	6.1	0.00e+00	0	37	104	0	60	87410
2026-01-07 23:02:02.08	31.51	25.91	-51.9	-54.4	6.1	0.00e+00	0	37	104	0	60	87626
2026-01-07 23:02:05.11	31.99	26.59	-51.9	-54.4	6.1	0.00e+00	0	37	104	0	60	87919
2026-01-07 23:02:08.15	32.49	27.30	-51.9	-54.4	6.1	0.00e+00	0	37	104	0	60	87759
2026-01-07 23:02:11.18	33.01	28.03	-51.9	-54.4	6.1	0.00e+00	0	37	104	0	60	87919
2026-01-07 23:02:14.21	33.56	28.78	-51.9	-54.4	6.1	0.00e+00	0	37	104	0	60	87562
2026-01-07 23:02:17.24	34.13	29.55	-51.9	-54.4	6.1	0.00e+00	0	37	104	0	60	87629
2026-01-07 23:02:20.27	34.74	30.34	-51.9	-54.4	6.1	0.00e+00	0	37	104	0	60	87558
2026-01-07 23:02:23.31	35.38	31.16	-51.9	-54.4	6.1	0.00e+00	0	37	104	0	60	87628
2026-01-07 23:02:26.34	36.06	32.00	-51.9	-54.4	6.1	0.00e+00	0	37	104	0	60	87707
2026-01-07 23:02:29.37	36.77	32.86	-51.9	-54.4	6.1	0.00e+00	0	37	104	0	60	87834
2026-01-07 23:02:32.41	37.53	33.75	-51.9	-54.4	6.1	0.00e+00	0	37	104	0	60	87954
2026-01-07 23:02:35.44	38.33	34.67	-51.9	-54.4	6.1	0.00e+00	0	38	104	0	60	87754
2026-01-07 23:02:38.47	39.19	35.61	-51.9	-54.4	6.1	0.00e+00	0	37	104	0	60	87925
2026-01-07 23:02:41.51	40.09	36.58	-51.9	-54.4	6.1	0.00e+00	0	37	104	0	60	87658
2026-01-07 23:02:44.54	41.06	37.58	-51.9	-54.4	6.1	0.00e+00	0	37	104	0	60	88177
2026-01-07 23:02:47.57	42.08	38.60	-51.9	-54.4	6.1	0.00e+00	0	37	104	0	60	88038
2026-01-07 23:02:50.60	43.18	39.64	-51.9	-54.4	6.1	0.00e+00	0	37	104	0	60	87607
2026-01-07 23:02:53.64	44.36	40.71	-51.9	-54.4	6.1	0.00e+00	0	38	104	0	60	87642
2026-01-07 23:02:56.67	45.62	41.81	-51.9	-54.4	6.1	0.00e+00	0	37	104	0	60	87796
2026-01-07 23:02:59.70	46.97	42.92	-51.9	-54.4	6.1	0.00e+00	0	37	104	0	60	87797
2026-01-07 23:03:02.74	48.42	44.06	-51.9	-54.4	6.1	0.00e+00	0	38	104	0	60	87592
2026-01-07 23:03:05.77	49.99	45.22	-51.9	-54.4	6.1	0.00e+00	0	38	104	0	60	87619
2026-01-07 23:03:08.80	51.67	46.38	-51.9	-54.4	6.1	0.00e+00	0	38	104	0	60	87533
2026-01-07 23:03:11.83	53.49	47.56	-51.9	-54.4	6.1	0.00e+00	0	38	104	0	60	87882
2026-01-07 23:03:14.86	55.46	48.74	-51.9	-54.5	6.1	0.00e+00	0	38	104	0	60	88242
2026-01-07 23:03:17.90	57.59	49.92	-51.9	-54.4	6.1	0.00e+00	0	38	104	0	60	87597
2026-01-07 23:03:20.93	59.89	51.09	-51.9	-54.4	6.1	0.00e+00	0	38	104	0	60	87586
2026-01-07 23:03:23.96	62.38	52.24	-51.9	-54.4	6.1	0.00e+00	0	38	104	0	60	87836
2026-01-07 23:03:27.00	65.09	53.36	-51.9	-54.4	6.1	0.00e+00	0	38	104	0	60	87673
2026-01-07 23:03:30.03	67.99	54.44	-51.9	-54.4	6.1	0.00e+00	0	38	104	0	60	87675
2026-01-07 23:03:33.06	71.13	55.46	-51.9	-54.4	6.1	0.00e+00	0	37	104	0	60	87875
2026-01-07 23:03:36.09	74.49	56.42	-51.9	-54.4	6.1	0.00e+00	0	38	104	0	60	87784
2026-01-07 23:03:39.13	78.11	57.30	-51.9	-54.4	6.1	0.00e+00	0	38	104	0	60	87597
2026-01-07 23:03:42.16	81.93	58.07	-51.9	-54.4	6.1	0.00e+00	0	38	104	0	60	87443
2026-01-07 23:03:45.19	85.98	58.73	-51.9	-54.4	6.1	0.00e+00	0	38	104	0	60	87557
2026-01-07 23:03:48.22	90.21	59.26	-51.9	-54.4	6.0	0.00e+00	0	38	104	0	60	87852
2026-01-07 23:03:51.26	94.61	59.65	-51.9	-54.4	6.1	0.00e+00	0	38	104	0	60	87863
2026-01-07 23:03:54.29	99.10	59.89	-51.9	-54.4	6.1	0.00e+00	0	38	104	0	60	87365
2026-01-07 23:03:57.33	103.67	59.97	-51.9	-54.4	6.1	0.00e+00	0	38	104	0	60	87744
2026-01-07 23:04:00.36	108.22	59.90	-51.9	-54.4	6.1	0.00e+00	0	38	104	0	60	87536
2026-01-07 23:04:03.39	112.72	59.66	-51.9	-54.4	6.1	0.00e+00	0	38	104	0	60	87803
2026-01-07 23:04:06.42	117.11	59.27	-51.9	-54.4	6.1	0.00e+00	0	38	104	0	60	87812
2026-01-07 23:04:09.46	121.36	58.74	-51.9	-54.4	6.1	0.00e+00	0	38	104	0	60	87764
2026-01-07 23:04:12.49	125.41	58.08	-51.9	-54.4	6.1	0.00e+00	0	38	104	0	60	87607
2026-01-07 23:04:15.52	129.24	57.31	-51.9	-54.4	6.1	0.00e+00	0	38	104	0	60	87673
2026-01-07 23:04:18.55	132.85	56.43	-51.9	-54.3	6.1	0.00e+00	0	38	104	0	60	87202
2026-01-07 23:04:21.59	136.24	55.47	-51.9	-54.4	6.1	0.00e+00	0	38	104	0	60	87897
2026-01-07 23:04:24.62	139.38	54.44	-51.9	-54.4	6.1	0.00e+00	0	38	104	0	60	87846
2026-01-07 23:04:27.65	142.29	53.36	-51.9	-54.4	6.1	0.00e+00	0	38	104	0	60	87579
2026-01-07 23:04:30.69	145.00	52.24	-51.9	-54.4	6.1	0.00e+00	0	38	104	0	60	87810
2026-01-07 23:04:33.72	147.50	51.09	-51.9	-54.4	6.1	0.00e+00	0	38	104	0	60	87760
2026-01-07 23:04:36.75	149.81	49.91	-51.9	-54.4	6.1	0.00e+00	0	38	104	0	60	87485
2026-01-07 23:04:39.79	151.95	48.73	-51.9	-54.4	6.1	0.00e+00	0	38	104	0	60	87883
2026-01-07 23:04:42.82	153.92	47.55	-51.9	-54.4	6.1	0.00e+00	0	38	104	0	60	88125
2026-01-07 23:04:45.85	155.74	46.37	-51.9	-54.4	6.1	0.00e+00	0	38	104	0	60	88070
2026-01-07 23:04:48.88	157.43	45.19	-51.9	-54.4	6.1	0.00e+00	0	38	104	0	60	87336
2026-01-07 23:04:51.91	159.00	44.04	-51.9	-54.4	6.1	0.00e+00	0	38	104	0	60	87956
2026-01-07 23:04:54.94	160.45	42.90	-51.9	-54.4	6.1	0.00e+00	0	38	104	0	60	87443
2026-01-07 23:04:57.98	161.81	41.77	-51.9	-54.4	6.1	0.00e+00	0	38	104	0	60	87576
2026-01-07 23:05:01.01	163.07	40.67	-51.9	-54.4	6.1	0.00e+00	0	38	104	0	60	87850
2026-01-07 23:05:04.04	164.25	39.60	-51.9	-54.4	6.1	0.00e+00	0	38	104	0	60	87211
2026-01-07 23:05:07.07	165.35	38.55	-51.9	-54.4	6.1	0.00e+00	0	38	104	0	60	87690
2026-01-07 23:05:10.11	166.38	37.52	-51.9	-54.4	6.0	0.00e+00	0	38	104	0	60	87890
2026-01-07 23:05:13.14	167.35	36.52	-51.9	-54.4	6.1	0.00e+00	0	38	104	0	60	87673
2026-01-07 23:05:16.17	168.25	35.55	-51.9	-54.4	6.1	0.00e+00	0	38	104	0	60	88044
2026-01-07 23:05:19.21	169.11	34.60	-51.9	-54.4	6.1	0.00e+00	0	38	104	0	60	87536
2026-01-07 23:05:22.24	169.91	33.69	-51.9	-54.4	6.1	0.00e+00	0	38	104	0	60	87814
2026-01-07 23:05:25.27	170.67	32.79	-51.9	-54.4	6.1	0.00e+00	0	38	104	0	60	87611
2026-01-07 23:05:28.31	171.38	31.92	-51.9	-54.4	6.1	0.00e+00	0	38	104	0	60	87648
2026-01-07 23:05:31.34	172.06	31.08	-51.9	-54.4	6.1	0.00e+00	0	38	104	0	60	87377
2026-01-07 23:05:34.37	172.70	30.26	-51.9	-54.4	6.1	0.00e+00	0	38	104	0	60	87548
2026-01-07 23:05:37.41	173.31	29.46	-51.9	-54.3	6.1	0.00e+00	0	38	104	0	60	87008
2026-01-07 23:05:40.44	173.89	28.69	-51.9	-54.4	6.0	0.00e+00	0	38	104	0	60	87762
2026-01-07 23:05:43.47	174.44	27.94	-51.9	-54.4	6.1	0.00e+00	0	38	104	0	60	87633
2026-01-07 23:05:46.50	174.96	27.21	-51.9	-54.4	6.1	0.00e+00	0	38	104	0	60	87802
2026-01-07 23:05:49.54	175.46	26.50	-51.9	-54.4	6.1	0.00e+00	0	38	104	0	60	87491
2026-01-07 23:05:52.57	175.93	25.81	-51.9	-54.4	6.1	0.00e+00	0	38	104	0	60	88136
2026-01-07 23:05:55.60	176.39	25.14	-51.9	-54.4	6.1	0.00e+00	0	38	104	0	60	87381
2026-01-07 23:05:58.63	176.82	24.49	-51.9	-54.4	6.1	0.00e+00	0	38	104	0	60	87317
2026-01-07 23:06:01.67	177.24	23.85	-51.9	-54.4	6.0	0.00e+00	0	38	104	0	60	88183
2026-01-07 23:06:04.70	177.63	23.23	-51.9	-54.4	6.1	0.00e+00	0	38	104	0	60	87487
2026-01-07 23:06:07.74	178.01	22.63	-51.9	-54.4	6.1	0.00e+00	0	38	104	0	60	87563
2026-01-07 23:06:10.77	178.38	22.05	-51.9	-54.4	6.1	0.00e+00	0	38	104	0	60	87691
2026-01-07 23:06:13.80	178.73	21.48	-51.9	-54.4	6.1	0.00e+00	0	38	104	0	60	87978
2026-01-07 23:06:16.83	179.07	20.93	-51.9	-54.4	6.1	0.00e+00	0	38	104	0	60	87889
2026-01-07 23:06:19.87	179.39	20.38	-51.9	-54.4	6.1	0.00e+00	0	38	104	0	60	87665
2026-01-07 23:06:22.90	179.70	19.86	-51.9	-54.4	6.1	0.00e+00	0	38	104	0	60	87961
2026-01-07 23:06:25.93	180.01	19.34	-51.9	-54.4	6.1	0.00e+00	0	38	104	0	60	87481
2026-01-07 23:06:28.97	180.30	18.84	-51.9	-54.4	6.1	0.00e+00	0	38	104	0	60	87803
2026-01-07 23:06:32.00	180.58	18.35	-51.9	-54.4	6.1	0.00e+00	0	38	104	0	60	87401
2026-01-07 23:06:35.03	180.85	17.87	-51.9	-54.4	6.1	0.00e+00	0	38	104	0	60	87752
2026-01-07 23:06:38.06	181.11	17.41	-51.9	-54.4	6.1	0.00e+00	0	38	104	0	60	88071
2026-01-07 23:06:41.09	181.36	16.95	-51.9	-54.4	6.1	0.00e+00	0	38	104	0	60	87970
2026-01-07 23:06:44.12	181.60	16.51	-51.9	-54.4	6.1	0.00e+00	0	38	104	0	60	87597
2026-01-07 23:06:47.16	181.84	16.07	-51.9	-54.4	6.1	0.00e+00	0	38	104	0	60	87647
2026-01-07 23:06:50.19	182.07	15.64	-51.9	-54.4	6.1	0.00e+00	0	38	104	0	60	87512
2026-01-07 23:06:53.23	182.29	15.22	-51.9	-54.4	6.1	0.00e+00	0	38	104	0	60	87517
2026-01-07 23:06:56.26	182.51	14.81	-51.9	-54.4	6.1	0.00e+00	0	38	104	0	60	87716
2026-01-07 23:06:59.29	182.71	14.41	-51.9	-54.4	6.1	0.00e+00	0	38	104	0	60	87504
2026-01-07 23:07:02.32	182.92	14.02	-51.9	-54.4	6.1	0.00e+00	0	38	104	0	60	87564
2026-01-07 23:07:05.36	183.11	13.64	-51.9	-54.4	6.1	0.00e+00	0	38	104	0	60	87886
2026-01-07 23:07:08.39	183.30	13.26	-51.9	-54.4	6.1	0.00e+00	0	38	104	0	60	87693
2026-01-07 23:07:11.42	183.49	12.89	-51.9	-54.4	6.1	0.00e+00	0	38	104	0	60	88058
2026-01-07 23:07:14.45	183.67	12.53	-51.9	-54.4	6.1	0.00e+00	0	38	104	0	60	87686
2026-01-07 23:07:17.49	183.85	12.17	-51.9	-54.4	6.1	0.00e+00	0	38	104	0	60	87669
2026-01-07 23:07:20.52	184.02	11.82	-51.9	-54.4	6.1	0.00e+00	0	38	104	0	60	87674
2026-01-07 23:07:23.55	184.18	11.48	-51.9	-54.4	6.1	0.00e+00	0	38	104	0	60	87795
2026-01-07 23:07:26.59	184.35	11.14	-51.9	-54.4	6.1	0.00e+00	0	38	104	0	60	87558
2026-01-07 23:07:29.62	184.50	10.81	-51.9	-54.4	6.1	0.00e+00	0	38	104	0	60	87366
2026-01-07 23:07:32.65	184.66	10.49	-51.9	-54.4	6.1	0.00e+00	0	38	104	0	60	87732
2026-01-07 23:07:35.68	184.81	10.17	-51.9	-54.4	6.1	0.00e+00	0	38	104	0	60	87886
2026-01-07 23:07:38.71	184.95	9.85	-51.9	-54.4	6.1	0.00e+00	0	38	104	0	60	88035
2026-01-07 23:07:41.75	185.10	9.54	-51.9	-54.4	6.1	0.00e+00	0	38	104	0	60	87967
2026-01-07 23:07:44.78	185.24	9.24	-51.9	-54.4	6.1	0.00e+00	0	38	104	0	60	87861
2026-01-07 23:07:47.81	185.37	8.94	-51.9	-54.4	6.1	0.00e+00	0	38	104	0	60	87866
2026-01-07 23:07:50.85	185.51	8.64	-51.9	-54.4	6.1	0.00e+00	0	38	104	0	60	87674
2026-01-07 23:07:53.88	185.64	8.35	-51.9	-54.4	6.1	0.00e+00	0	38	104	0	60	87796
2026-01-07 23:07:56.91	185.76	8.07	-51.9	-54.4	6.1	0.00e+00	0	38	104	0	60	87341
2026-01-07 23:07:59.94	185.89	7.79	-51.9	-54.4	6.1	0.00e+00	0	38	104	0	60	87601
2026-01-07 23:08:02.98	186.01	7.51	-51.9	-54.4	6.1	0.00e+00	0	38	104	0	60	87436
2026-01-07 23:08:06.01	186.13	7.23	-51.9	-54.4	6.1	0.00e+00	0	38	104	0	60	87767
2026-01-07 23:08:09.04	186.25	6.96	-51.9	-54.4	6.1	0.00e+00	0	38	104	0	60	87776
2026-01-07 23:08:12.08	186.36	6.70	-51.9	-54.4	6.1	0.00e+00	0	38	104	0	60	87801
2026-01-07 23:08:15.11	186.47	6.43	-51.9	-54.4	6.1	0.00e+00	0	38	104	0	60	87545
2026-01-07 23:08:18.15	186.58	6.17	-51.9	-54.4	6.1	0.00e+00	0	38	104	0	60	87770
2026-01-07 23:08:21.18	186.69	5.92	-51.9	-54.4	6.1	0.00e+00	0	38	104	0	60	87955
2026-01-07 23:08:24.21	186.80	5.66	-51.9	-54.4	6.1	0.00e+00	0	38	104	0	60	87899
2026-01-07 23:08:27.24	186.90	5.41	-51.9	-54.5	6.1	0.00e+00	0	38	104	0	60	88340
2026-01-07 23:08:30.28	187.00	5.17	-51.9	-54.4	6.1	0.00e+00	0	38	104	0	60	87921
2026-01-07 23:08:33.31	187.10	4.92	-51.9	-54.4	6.1	0.00e+00	0	38	104	0	60	87644
2026-01-07 23:08:36.35	187.20	4.68	-51.9	-54.4	6.1	0.00e+00	0	38	104	0	60	87839
2026-01-07 23:08:39.38	187.29	4.44	-51.9	-54.4	6.1	0.00e+00	0	38	104	0	60	87742
2026-01-07 23:08:42.41	187.39	4.21	-51.9	-54.4	6.1	0.00e+00	0	38	104	0	60	87746
2026-01-07 23:08:45.44	187.48	3.98	-51.9	-54.4	6.1	0.00e+00	0	38	104	0	60	87864
2026-01-07 23:08:48.47	187.57	3.75	-51.9	-54.4	6.1	0.00e+00	0	38	104	0	60	87751
2026-01-07 23:08:51.51	187.66	3.52	-51.9	-54.4	6.1	0.00e+00	0	38	104	0	60	87699
2026-01-07 23:08:54.54	187.75	3.29	-51.9	-54.5	6.1	0.00e+00	0	38	104	0	60	88266
2026-01-07 23:08:57.57	187.83	3.07	-51.9	-54.4	6.1	0.00e+00	0	38	104	0	60	87942
2026-01-07 23:09:00.61	187.92	2.85	-51.9	-54.4	6.1	0.00e+00	0	38	104	0	60	87504
2026-01-07 23:09:03.64	188.00	2.63	-51.9	-54.4	6.1	0.00e+00	0	38	104	0	60	87491
2026-01-07 23:09:06.67	188.08	2.42	-51.9	-54.4	6.1	0.00e+00	0	38	104	0	60	87608
2026-01-07 23:09:09.71	188.17	2.20	-51.9	-54.4	6.1	0.00e+00	0	38	104	0	60	87489
2026-01-07 23:09:12.74	188.24	1.99	-51.9	-54.4	6.1	0.00e+00	0	38	104	0	60	87362
2026-01-07 23:09:15.77	188.32	1.78	-51.9	-54.4	6.1	0.00e+00	0	38	104	0	60	88040
2026-01-07 23:09:18.81	188.40	1.57	-51.9	-54.3	6.1	0.00e+00	0	38	104	0	60	87143
2026-01-07 23:09:21.84	188.48	1.37	-51.9	-54.4	6.1	0.00e+00	0	38	104	0	60	87872
2026-01-07 23:09:24.87	188.55	1.16	-51.9	-54.4	6.1	0.00e+00	0	38	104	0	60	87276
2026-01-07 23:09:27.91	188.62	0.96	-51.9	-54.4	6.1	0.00e+00	0	38	104	0	60	87571
2026-01-07 23:09:30.94	188.70	0.76	-51.9	-54.4	6.1	0.00e+00	0	38	104	0	60	87557
2026-01-07 23:09:33.97	188.77	0.56	-51.9	-54.4	6.1	0.00e+00	0	38	104	0	60	87395
2026-01-07 23:09:37.00	188.84	0.37	-51.9	-54.4	6.1	0.00e+00	0	38	104	0	60	87759
2026-01-07 23:09:40.04	188.91	0.17	-51.9	-54.4	6.1	0.00e+00	0	38	104	0	60	87509
2026-01-07 23:09:43.07	188.97	-0.02	-51.9	-54.4	6.1	0.00e+00	0	38	104	0	60	87454

#Closed at: 2026-01-07 23:09:43
#Recorded file [0 MB]: D:/lorett/data/35034_260108_015838.dat