passes_logs/2026/01/07/R4.6S_Anadyr_2ch/R4.6S_Anadyr_2ch__20260107_002903_NOAA_20_JPSS-1_rec.log

#Pass ID: 20260107_002903_NOAA 20 (JPSS-1)
#Satellite: NOAA 20 (JPSS-1)
#Configuration: NOAA 20
#almurnet v.1.7.20251203
#Start time: 2026-01-07 00:29:06

#Version: 2.2.20231116
#Station: R4.6S_Anadyr_2ch
#Location: 177.4865 lon 64.73178 lat
#TLE: 1 43013U 17073A   25350.93759711  .00000080  00000+0  58734-4 0  9994
#TLE: 2 43013  98.7603 287.1885 0002156  81.1496 278.9924 14.19526878418610

#Time	Az	El	Level	Level2	SNR	BER	BlckErr	Temp	State	Recorded	gain1	gain2
2026-01-07 00:29:06.81	162.98	0.20	-51.5	-65.4	3.3	1.54e+00	0	31	0	0	60	91219
2026-01-07 00:29:10.85	163.03	0.44	-51.6	-67.0	3.6	1.51e+00	0	31	104	0	60	108578
2026-01-07 00:29:14.88	163.07	0.69	-51.1	-66.5	3.6	1.51e+00	0	31	104	0	60	102636
2026-01-07 00:29:18.92	163.12	0.94	-50.2	-65.5	3.6	1.51e+00	0	31	104	0	60	91663
2026-01-07 00:29:22.96	163.17	1.19	-50.1	-65.5	3.6	1.51e+00	0	31	104	0	60	91425
2026-01-07 00:29:27.00	163.22	1.44	-50.1	-65.3	3.6	1.51e+00	0	31	104	0	60	90253
2026-01-07 00:29:31.03	163.27	1.69	-50.1	-65.3	3.6	1.51e+00	0	31	104	0	60	90242
2026-01-07 00:29:35.07	163.32	1.95	-50.1	-65.4	3.6	1.51e+00	0	31	104	0	60	90992
2026-01-07 00:29:39.10	163.37	2.21	-50.1	-65.2	3.6	1.51e+00	0	31	104	0	60	88632
2026-01-07 00:29:43.14	163.42	2.47	-50.1	-64.5	3.6	1.51e+00	0	31	104	0	60	81618
2026-01-07 00:29:47.17	163.47	2.74	-50.1	-65.0	3.6	1.51e+00	0	31	104	0	60	86934
2026-01-07 00:29:51.21	163.53	3.00	-49.6	-57.8	5.8	5.03e-01	92	32	0	0	60	37817
2026-01-07 00:29:55.24	163.58	3.27	-47.7	-51.5	12.9	2.14e-04	0	32	102	1048576	60	18431
2026-01-07 00:29:59.26	163.63	3.54	-47.1	-50.3	14.1	2.20e-06	8	31	102	1048576	60	16036
2026-01-07 00:30:03.30	163.69	3.82	-47.8	-51.7	13.1	4.12e-01	91	31	104	1048576	60	18655
2026-01-07 00:30:07.33	163.75	4.09	-45.6	-47.9	16.3	7.15e-01	92	32	104	1048576	60	12170
2026-01-07 00:30:11.35	163.80	4.37	-44.4	-46.2	18.5	0.00e+00	36	31	0	1048576	60	9934
2026-01-07 00:30:15.39	163.86	4.66	-44.1	-45.8	19.0	0.00e+00	61	32	0	1048576	60	9465
2026-01-07 00:30:19.42	163.92	4.94	-44.0	-45.7	19.1	0.00e+00	91	32	0	1048576	60	9360
2026-01-07 00:30:23.45	163.98	5.23	-43.9	-45.5	19.3	0.00e+00	92	32	0	1048576	60	9187
2026-01-07 00:30:27.48	164.04	5.52	-43.8	-45.3	19.5	0.00e+00	13	32	101	1048576	60	8958
2026-01-07 00:30:31.52	164.10	5.82	-43.6	-45.1	19.8	0.00e+00	0	32	101	1048576	60	8788
2026-01-07 00:30:35.55	164.16	6.12	-43.5	-44.9	19.9	0.00e+00	90	32	101	1048576	60	8618
2026-01-07 00:30:39.59	164.23	6.42	-43.4	-44.8	20.1	0.00e+00	90	32	101	1048576	60	8484
2026-01-07 00:30:43.62	164.29	6.73	-43.2	-44.6	20.4	0.00e+00	73	32	101	1048576	60	8253
2026-01-07 00:30:47.65	164.36	7.04	-43.2	-44.5	20.5	0.00e+00	67	32	101	1048576	60	8182
2026-01-07 00:30:51.69	164.42	7.35	-43.1	-44.4	20.6	0.00e+00	91	32	101	1048576	60	8072
2026-01-07 00:30:55.72	164.49	7.67	-42.9	-44.2	20.8	0.00e+00	93	32	101	1048576	60	7913
2026-01-07 00:30:59.75	164.56	7.99	-42.7	-44.0	21.1	0.00e+00	0	32	101	1048576	60	7710
2026-01-07 00:31:03.79	164.63	8.31	-42.7	-43.9	21.2	0.00e+00	75	32	101	1048576	60	7665
2026-01-07 00:31:07.82	164.70	8.64	-42.6	-43.8	21.2	0.00e+00	92	32	101	1048576	60	7592
2026-01-07 00:31:11.85	164.78	8.98	-42.5	-43.7	21.4	0.00e+00	92	32	101	1048576	60	7468
2026-01-07 00:31:15.89	164.85	9.32	-42.2	-43.4	21.7	0.00e+00	0	32	101	1048576	60	7201
2026-01-07 00:31:19.93	164.93	9.66	-42.1	-43.2	21.9	0.00e+00	92	32	101	1048576	60	7047
2026-01-07 00:31:23.96	165.00	10.01	-42.1	-43.2	22.0	0.00e+00	92	32	101	1048576	60	7036
2026-01-07 00:31:27.99	165.08	10.36	-41.7	-42.8	22.3	0.00e+00	92	32	101	1048576	60	6734
2026-01-07 00:31:32.02	165.16	10.72	-41.6	-42.7	22.5	0.00e+00	71	32	101	1048576	60	6628
2026-01-07 00:31:36.06	165.25	11.08	-41.6	-42.7	22.5	0.00e+00	92	32	101	1048576	60	6624
2026-01-07 00:31:40.09	165.33	11.45	-41.5	-42.6	22.5	0.00e+00	92	32	101	1048576	60	6551
2026-01-07 00:31:44.12	165.41	11.82	-41.2	-42.2	22.9	0.00e+00	92	32	101	1048576	60	6282
2026-01-07 00:31:48.15	165.50	12.20	-41.2	-42.2	23.0	0.00e+00	0	32	101	1048576	60	6247
2026-01-07 00:31:52.18	165.59	12.59	-41.2	-42.2	23.0	0.00e+00	93	32	101	1048576	60	6256
2026-01-07 00:31:56.22	165.68	12.98	-41.0	-42.0	23.1	0.00e+00	92	32	101	1048576	60	6130
2026-01-07 00:32:00.25	165.78	13.38	-40.9	-41.9	23.3	0.00e+00	92	32	101	1048576	60	6049
2026-01-07 00:32:04.28	165.87	13.78	-40.8	-41.8	23.4	0.00e+00	0	32	101	1048576	60	5984
2026-01-07 00:32:08.31	165.97	14.19	-40.9	-41.9	23.3	0.00e+00	92	32	101	1048576	60	6043
2026-01-07 00:32:12.35	166.07	14.61	-40.8	-41.8	23.4	0.00e+00	92	32	101	1048576	60	6002
2026-01-07 00:32:16.38	166.18	15.04	-40.9	-41.8	23.5	0.00e+00	92	32	101	1048576	60	6000
2026-01-07 00:32:20.41	166.28	15.47	-40.8	-41.7	23.5	0.00e+00	77	32	101	1048576	60	5962
2026-01-07 00:32:24.44	166.39	15.91	-40.8	-41.8	23.4	0.00e+00	90	32	101	1048576	60	5984
2026-01-07 00:32:28.47	166.50	16.36	-40.6	-41.5	23.7	0.00e+00	92	32	101	1048576	60	5803
2026-01-07 00:32:32.50	166.62	16.82	-40.7	-41.6	23.6	0.00e+00	92	32	101	1048576	60	5875
2026-01-07 00:32:36.54	166.73	17.29	-40.6	-41.5	23.8	0.00e+00	0	32	101	1048576	60	5802
2026-01-07 00:32:40.58	166.85	17.77	-40.6	-41.5	23.8	0.00e+00	92	32	101	1048576	60	5788
2026-01-07 00:32:44.62	166.98	18.25	-40.7	-41.6	23.6	0.00e+00	92	32	101	1048576	60	5865
2026-01-07 00:32:48.66	167.11	18.75	-40.8	-41.7	23.7	0.00e+00	8	32	101	1048576	60	5913
2026-01-07 00:32:52.70	167.24	19.25	-41.0	-41.9	23.4	0.00e+00	26	32	101	1048576	60	6096
2026-01-07 00:32:56.73	167.37	19.77	-41.0	-41.9	23.4	0.00e+00	92	32	101	1048576	60	6076
2026-01-07 00:33:00.77	167.51	20.29	-41.2	-42.1	23.2	0.00e+00	92	32	101	1048576	60	6234
2026-01-07 00:33:04.82	167.66	20.83	-41.3	-42.3	23.2	0.00e+00	10	32	101	1048576	60	6331
2026-01-07 00:33:08.85	167.81	21.38	-41.5	-42.4	23.0	0.00e+00	73	32	101	1048576	60	6454
2026-01-07 00:33:12.89	167.96	21.94	-41.6	-42.6	22.9	0.00e+00	92	32	101	1048576	60	6604
2026-01-07 00:33:16.93	168.12	22.52	-41.6	-42.6	22.9	0.00e+00	92	32	101	1048576	60	6550
2026-01-07 00:33:20.97	168.28	23.10	-41.6	-42.6	23.0	0.00e+00	74	32	101	1048576	60	6563
2026-01-07 00:33:25.01	168.46	23.70	-41.7	-42.7	22.9	0.00e+00	92	32	101	1048576	60	6638
2026-01-07 00:33:29.04	168.63	24.31	-41.6	-42.6	22.9	0.00e+00	91	32	101	1048576	60	6577
2026-01-07 00:33:33.08	168.81	24.94	-41.3	-42.3	23.2	0.00e+00	92	32	101	1048576	60	6339
2026-01-07 00:33:37.12	169.00	25.59	-41.2	-42.1	23.4	0.00e+00	0	32	101	1048576	60	6237
2026-01-07 00:33:41.16	169.20	26.25	-41.1	-42.0	23.5	0.00e+00	90	32	101	1048576	60	6144
2026-01-07 00:33:45.20	169.41	26.92	-41.1	-42.0	23.5	0.00e+00	92	32	101	1048576	60	6160
2026-01-07 00:33:49.23	169.62	27.61	-41.2	-42.2	23.3	0.00e+00	92	32	101	1048576	60	6263
2026-01-07 00:33:53.27	169.84	28.32	-41.7	-42.7	22.9	0.00e+00	0	32	101	1048576	60	6684
2026-01-07 00:33:57.31	170.07	29.05	-42.4	-43.4	22.2	0.00e+00	92	32	101	1048576	60	7250
2026-01-07 00:34:01.35	170.32	29.80	-42.7	-43.9	21.8	0.00e+00	92	32	101	1048576	60	7604
2026-01-07 00:34:05.38	170.57	30.56	-42.9	-44.0	21.7	0.00e+00	92	32	101	1048576	60	7758
2026-01-07 00:34:09.42	170.83	31.35	-43.4	-44.6	21.1	0.00e+00	10	32	101	1048576	60	8327
2026-01-07 00:34:13.46	171.11	32.16	-43.5	-44.8	20.9	0.00e+00	92	32	101	1048576	60	8434
2026-01-07 00:34:17.50	171.40	32.99	-42.6	-43.7	22.0	0.00e+00	92	32	101	1048576	60	7501
2026-01-07 00:34:21.53	171.71	33.84	-42.3	-43.3	22.4	0.00e+00	92	32	101	1048576	60	7167
2026-01-07 00:34:25.57	172.03	34.71	-41.3	-42.3	23.3	0.00e+00	0	32	101	1048576	60	6344
2026-01-07 00:34:29.61	172.36	35.61	-40.8	-41.6	23.9	0.00e+00	92	32	101	1048576	60	5892
2026-01-07 00:34:33.65	172.72	36.54	-40.5	-41.4	24.0	0.00e+00	92	32	101	1048576	60	5721
2026-01-07 00:34:37.69	173.10	37.49	-41.1	-42.1	23.4	0.00e+00	90	32	101	1048576	60	6183
2026-01-07 00:34:41.73	173.50	38.47	-41.1	-42.0	23.4	0.00e+00	84	32	101	1048576	60	6155
2026-01-07 00:34:45.76	173.92	39.47	-41.6	-42.6	23.0	0.00e+00	92	32	101	1048576	60	6561
2026-01-07 00:34:49.80	174.37	40.50	-41.9	-42.9	22.7	0.00e+00	92	32	101	1048576	60	6796
2026-01-07 00:34:53.84	174.84	41.56	-42.0	-43.0	22.7	0.00e+00	7	32	101	1048576	60	6906
2026-01-07 00:34:57.88	175.35	42.65	-41.8	-42.8	22.9	0.00e+00	92	32	101	1048576	60	6754
2026-01-07 00:35:01.92	175.90	43.77	-41.8	-42.9	22.8	0.00e+00	92	32	101	1048576	60	6772
2026-01-07 00:35:05.96	176.48	44.92	-42.5	-43.6	22.1	0.00e+00	91	32	101	1048576	60	7349
2026-01-07 00:35:09.99	177.11	46.10	-42.4	-43.5	22.3	0.00e+00	0	32	101	1048576	60	7259
2026-01-07 00:35:14.03	177.78	47.31	-42.4	-43.5	22.2	0.00e+00	90	32	101	1048576	60	7326
2026-01-07 00:35:18.07	178.51	48.56	-42.5	-43.6	22.2	0.00e+00	90	32	101	1048576	60	7339
2026-01-07 00:35:22.11	179.30	49.83	-41.0	-42.0	23.6	0.00e+00	92	32	101	1048576	60	6120
2026-01-07 00:35:26.15	180.16	51.14	-39.1	-39.9	25.3	0.00e+00	79	32	101	1048576	56	6079
2026-01-07 00:35:30.19	181.09	52.47	-38.4	-39.2	25.9	0.00e+00	90	32	101	1048576	56	5591
2026-01-07 00:35:34.23	182.11	53.84	-37.6	-38.3	26.5	0.00e+00	92	32	101	1048576	54	5659
2026-01-07 00:35:38.28	183.24	55.23	-37.9	-38.7	26.2	0.00e+00	27	32	101	1048576	54	5901
2026-01-07 00:35:42.32	184.48	56.65	-38.8	-39.6	25.5	0.00e+00	0	32	101	1048576	54	6588
2026-01-07 00:35:46.36	185.85	58.09	-38.9	-39.7	25.5	0.00e+00	92	32	101	1048576	56	5908
2026-01-07 00:35:50.40	187.38	59.55	-38.2	-38.9	26.0	0.00e+00	92	32	101	1048576	56	5403
2026-01-07 00:35:54.44	189.09	61.02	-37.5	-38.2	26.6	0.00e+00	11	32	101	1048576	54	5628
2026-01-07 00:35:58.48	191.01	62.50	-37.0	-37.7	27.0	0.00e+00	23	32	101	1048576	52	5932
2026-01-07 00:36:02.51	193.17	63.98	-37.8	-38.5	26.4	0.00e+00	92	32	101	1048576	52	6483
2026-01-07 00:36:06.55	195.63	65.45	-39.0	-39.8	25.3	0.00e+00	92	32	101	1048576	54	6735
2026-01-07 00:36:10.59	198.44	66.91	-42.1	-43.1	22.6	0.00e+00	84	32	101	1048576	60	6971
2026-01-07 00:36:14.62	201.64	68.33	-42.1	-43.1	22.4	0.00e+00	0	32	101	1048576	60	6993
2026-01-07 00:36:18.65	205.33	69.70	-41.4	-42.4	23.3	0.00e+00	92	32	101	1048576	60	6434
2026-01-07 00:36:22.68	209.57	71.00	-41.5	-42.5	23.0	0.00e+00	92	32	101	1048576	60	6522
2026-01-07 00:36:26.72	214.46	72.21	-42.8	-44.0	21.6	0.00e+00	0	32	101	1048576	60	7734
2026-01-07 00:36:30.75	220.04	73.29	-41.9	-42.9	22.9	0.00e+00	92	32	101	1048576	60	6787
2026-01-07 00:36:34.79	226.38	74.20	-41.7	-42.7	22.8	0.00e+00	92	32	101	1048576	60	6684
2026-01-07 00:36:38.82	233.41	74.92	-41.8	-42.8	22.7	0.00e+00	92	32	101	1048576	60	6749
2026-01-07 00:36:42.86	241.07	75.39	-41.7	-42.7	22.8	0.00e+00	0	32	101	1048576	60	6689
2026-01-07 00:36:46.89	249.09	75.61	-41.6	-42.5	23.2	0.00e+00	92	32	101	1048576	60	6520
2026-01-07 00:36:50.92	257.20	75.55	-42.9	-44.0	21.8	0.00e+00	92	32	101	1048576	60	7736
2026-01-07 00:36:54.96	265.09	75.21	-43.0	-44.2	21.4	0.00e+00	90	32	101	1048576	60	7892
2026-01-07 00:36:58.99	272.48	74.63	-44.5	-45.9	19.9	0.00e+00	8	32	101	1048576	60	9642
2026-01-07 00:37:03.03	279.22	73.82	-43.4	-44.7	21.0	0.00e+00	92	32	101	1048576	60	8369
2026-01-07 00:37:07.06	285.21	72.83	-43.2	-44.4	21.3	0.00e+00	92	32	101	1048576	60	8133
2026-01-07 00:37:11.10	290.48	71.69	-42.2	-43.3	22.5	0.00e+00	92	32	101	1048576	60	7122
2026-01-07 00:37:15.13	295.07	70.45	-42.6	-43.8	21.9	0.00e+00	0	32	101	1048576	60	7562
2026-01-07 00:37:19.17	299.06	69.11	-41.1	-42.1	23.3	0.00e+00	92	32	101	1048576	60	6183
2026-01-07 00:37:23.21	302.52	67.71	-42.4	-43.5	22.0	0.00e+00	92	32	101	1048576	60	7321
2026-01-07 00:37:27.24	305.54	66.28	-41.0	-41.9	23.5	0.00e+00	0	32	101	1048576	60	6068
2026-01-07 00:37:31.28	308.18	64.82	-38.0	-38.7	26.1	0.00e+00	0	32	101	1048576	54	5924
2026-01-07 00:37:35.31	310.50	63.35	-36.7	-37.4	27.1	0.00e+00	92	32	101	1048576	52	5706
2026-01-07 00:37:39.34	312.54	61.87	-37.8	-38.6	26.3	0.00e+00	91	32	101	1048576	52	6551
2026-01-07 00:37:43.38	314.36	60.40	-38.7	-39.5	25.5	0.00e+00	0	32	101	1048576	54	6516
2026-01-07 00:37:47.41	315.98	58.94	-41.1	-42.0	23.5	0.00e+00	0	32	101	1048576	60	6130
2026-01-07 00:37:51.45	317.44	57.49	-42.4	-43.6	22.2	0.00e+00	92	32	101	1048576	60	7374
2026-01-07 00:37:55.48	318.75	56.07	-38.7	-39.5	25.5	0.00e+00	0	32	101	1048576	56	5803
2026-01-07 00:37:59.52	319.94	54.67	-38.1	-38.9	26.2	0.00e+00	0	32	101	1048576	56	5387
2026-01-07 00:38:03.55	321.01	53.30	-38.1	-38.9	24.9	0.00e+00	0	33	101	1048576	52	6800
2026-01-07 00:38:07.58	321.99	51.95	-38.8	-39.5	25.5	0.00e+00	92	33	101	1048576	54	6533
2026-01-07 00:38:11.62	322.89	50.64	-42.5	-43.7	22.0	0.00e+00	82	32	101	1048576	60	7445
2026-01-07 00:38:15.65	323.72	49.35	-43.4	-44.7	21.2	0.00e+00	3	32	101	1048576	60	8369
2026-01-07 00:38:19.68	324.48	48.10	-42.9	-44.1	21.6	0.00e+00	92	33	101	1048576	60	7809
2026-01-07 00:38:23.71	325.18	46.88	-43.4	-44.7	21.3	0.00e+00	92	32	101	1048576	60	8370
2026-01-07 00:38:27.75	325.84	45.68	-40.7	-41.6	23.9	0.00e+00	0	32	101	1048576	60	5835
2026-01-07 00:38:31.78	326.45	44.52	-41.9	-42.9	22.7	0.00e+00	81	33	101	1048576	60	6819
2026-01-07 00:38:35.81	327.01	43.39	-40.5	-41.4	24.1	0.00e+00	92	32	101	1048576	60	5718
2026-01-07 00:38:39.84	327.54	42.29	-39.4	-40.2	25.0	0.00e+00	90	32	101	1048576	56	6301
2026-01-07 00:38:43.87	328.04	41.21	-43.4	-44.8	21.1	0.00e+00	0	32	101	1048576	60	8452
2026-01-07 00:38:47.90	328.50	40.17	-40.6	-41.5	24.1	0.00e+00	0	32	101	1048576	60	5764
2026-01-07 00:38:51.93	328.94	39.16	-41.1	-42.0	23.5	0.00e+00	92	32	101	1048576	58	6875
2026-01-07 00:38:55.97	329.35	38.17	-42.6	-43.8	22.0	0.00e+00	92	32	101	1048576	60	7555
2026-01-07 00:39:00.01	329.74	37.21	-40.3	-41.1	24.3	0.00e+00	82	32	101	1048576	60	5565
2026-01-07 00:39:04.03	330.11	36.27	-39.9	-40.7	24.5	0.00e+00	0	32	101	1048576	58	5953
2026-01-07 00:39:08.06	330.46	35.37	-41.2	-42.2	23.4	0.00e+00	92	32	101	1048576	60	6273
2026-01-07 00:39:12.09	330.79	34.48	-42.3	-43.4	22.3	0.00e+00	92	32	101	1048576	60	7195
2026-01-07 00:39:16.12	331.11	33.62	-42.5	-43.6	22.1	0.00e+00	2	32	101	1048576	60	7370
2026-01-07 00:39:20.16	331.41	32.78	-41.6	-42.6	23.0	0.00e+00	81	32	101	1048576	60	6567
2026-01-07 00:39:24.19	331.69	31.96	-41.9	-43.0	22.6	0.00e+00	91	32	101	1048576	60	6860
2026-01-07 00:39:28.23	331.97	31.17	-42.6	-43.7	21.9	0.00e+00	92	32	101	1048576	60	7493
2026-01-07 00:39:32.27	332.23	30.39	-42.6	-43.7	22.0	0.00e+00	0	32	101	1048576	60	7470
2026-01-07 00:39:36.31	332.48	29.64	-42.5	-43.6	22.1	0.00e+00	0	32	101	1048576	60	7357
2026-01-07 00:39:40.34	332.72	28.90	-41.2	-42.2	23.4	0.00e+00	92	32	101	1048576	60	6268
2026-01-07 00:39:44.38	332.94	28.18	-40.3	-41.2	24.2	0.00e+00	79	32	101	1048576	60	5593
2026-01-07 00:39:48.42	333.17	27.48	-39.6	-40.4	24.8	0.00e+00	79	32	101	1048576	58	5746
2026-01-07 00:39:52.46	333.38	26.80	-40.0	-40.9	24.4	0.00e+00	0	32	101	1048576	58	6063
2026-01-07 00:39:56.50	333.58	26.13	-40.3	-41.2	24.1	0.00e+00	92	32	101	1048576	58	6277
2026-01-07 00:40:00.54	333.78	25.48	-40.2	-41.1	24.2	0.00e+00	81	32	101	1048576	58	6195
2026-01-07 00:40:04.58	333.97	24.84	-39.5	-40.4	24.7	0.00e+00	79	32	101	1048576	58	5715
2026-01-07 00:40:08.62	334.15	24.22	-39.3	-40.2	24.9	0.00e+00	48	32	101	1048576	58	5586
2026-01-07 00:40:12.66	334.32	23.62	-39.2	-40.0	25.0	0.00e+00	92	32	101	1048576	56	6164
2026-01-07 00:40:16.70	334.49	23.02	-39.3	-40.1	24.9	0.00e+00	6	32	101	1048576	56	6200
2026-01-07 00:40:20.74	334.66	22.44	-39.3	-40.1	24.6	0.00e+00	0	32	101	1048576	56	6204
2026-01-07 00:40:24.78	334.82	21.88	-39.5	-40.3	24.7	0.00e+00	90	32	101	1048576	56	6343
2026-01-07 00:40:28.82	334.97	21.32	-39.6	-40.5	24.6	0.00e+00	86	32	101	1048576	56	6512
2026-01-07 00:40:32.86	335.12	20.78	-39.7	-40.5	24.5	0.00e+00	0	32	101	1048576	56	6534
2026-01-07 00:40:36.90	335.26	20.25	-39.6	-40.4	24.7	0.00e+00	0	32	101	1048576	56	6456
2026-01-07 00:40:40.94	335.41	19.73	-39.6	-40.5	24.6	0.00e+00	90	32	101	1048576	56	6472
2026-01-07 00:40:44.98	335.54	19.22	-39.8	-40.6	24.5	0.00e+00	79	32	101	1048576	56	6589
2026-01-07 00:40:49.02	335.67	18.72	-39.9	-40.7	24.3	0.00e+00	4	32	101	1048576	56	6687
2026-01-07 00:40:53.06	335.80	18.23	-40.0	-40.9	24.2	0.00e+00	3	32	101	1048576	56	6779
2026-01-07 00:40:57.10	335.93	17.75	-40.1	-41.0	24.1	0.00e+00	92	32	101	1048576	58	6151
2026-01-07 00:41:01.14	336.05	17.27	-40.2	-41.1	24.0	0.00e+00	0	32	101	1048576	58	6176
2026-01-07 00:41:05.17	336.17	16.81	-40.2	-41.1	24.0	0.00e+00	79	32	101	1048576	58	6195
2026-01-07 00:41:09.21	336.28	16.36	-40.2	-41.1	24.0	0.00e+00	1	32	101	1048576	58	6192
2026-01-07 00:41:13.25	336.40	15.91	-40.2	-41.1	24.0	0.00e+00	92	32	101	1048576	58	6207
2026-01-07 00:41:17.29	336.51	15.48	-40.2	-41.1	23.9	0.00e+00	0	32	101	1048576	58	6180
2026-01-07 00:41:21.33	336.61	15.05	-40.2	-41.1	23.9	0.00e+00	0	32	101	1048576	58	6235
2026-01-07 00:41:25.37	336.72	14.62	-40.3	-41.2	23.8	0.00e+00	0	32	101	1048576	58	6297
2026-01-07 00:41:29.41	336.82	14.21	-40.4	-41.3	23.7	0.00e+00	91	32	101	1048576	58	6380
2026-01-07 00:41:33.45	336.92	13.80	-40.5	-41.4	23.7	0.00e+00	5	32	101	1048576	58	6455
2026-01-07 00:41:37.49	337.02	13.40	-40.7	-41.6	23.5	0.00e+00	0	32	101	1048576	58	6599
2026-01-07 00:41:41.52	337.12	13.00	-40.9	-41.9	23.1	0.00e+00	8	32	101	1048576	58	6799
2026-01-07 00:41:45.56	337.21	12.61	-40.9	-41.8	23.3	0.00e+00	39	32	101	1048576	58	6751
2026-01-07 00:41:49.60	337.30	12.23	-40.9	-41.9	23.2	0.00e+00	10	32	101	1048576	58	6784
2026-01-07 00:41:53.64	337.39	11.85	-40.9	-41.8	23.2	0.00e+00	0	32	101	1048576	58	6768
2026-01-07 00:41:57.67	337.48	11.48	-40.9	-41.9	23.1	0.00e+00	92	32	101	1048576	58	6780
2026-01-07 00:42:01.69	337.57	11.12	-41.0	-42.0	23.0	0.00e+00	0	32	101	1048576	58	6855
2026-01-07 00:42:05.73	337.65	10.76	-40.9	-41.9	23.1	0.00e+00	0	32	101	1048576	58	6776
2026-01-07 00:42:09.77	337.73	10.40	-41.0	-41.9	23.0	0.00e+00	70	32	101	1048576	58	6839
2026-01-07 00:42:13.81	337.81	10.05	-41.0	-42.0	22.9	0.00e+00	91	32	101	1048576	58	6873
2026-01-07 00:42:17.84	337.89	9.71	-41.0	-42.1	22.9	0.00e+00	7	32	101	1048576	58	6940
2026-01-07 00:42:21.88	337.97	9.37	-41.1	-42.1	22.9	0.00e+00	0	32	101	1048576	60	6228
2026-01-07 00:42:25.92	338.05	9.03	-41.3	-42.3	22.7	0.00e+00	0	32	101	1048576	60	6376
2026-01-07 00:42:29.96	338.13	8.70	-41.4	-42.4	22.6	0.00e+00	92	32	101	1048576	60	6441
2026-01-07 00:42:34.00	338.20	8.37	-41.6	-42.6	22.4	0.00e+00	73	32	101	1048576	60	6615
2026-01-07 00:42:38.03	338.27	8.05	-41.7	-42.8	22.1	0.00e+00	0	32	101	1048576	60	6696
2026-01-07 00:42:42.07	338.35	7.73	-41.7	-42.8	22.1	0.00e+00	13	32	101	1048576	60	6755
2026-01-07 00:42:46.11	338.42	7.41	-41.8	-42.9	21.9	0.00e+00	92	32	101	1048576	60	6834
2026-01-07 00:42:50.15	338.49	7.10	-42.0	-43.2	21.6	0.00e+00	0	32	101	1048576	60	7041
2026-01-07 00:42:54.18	338.56	6.80	-42.1	-43.3	21.4	0.00e+00	6	32	101	1048576	60	7138
2026-01-07 00:42:58.21	338.62	6.49	-42.4	-43.6	21.1	0.00e+00	0	32	101	1048576	60	7397
2026-01-07 00:43:02.24	338.69	6.19	-42.1	-43.3	21.4	0.00e+00	92	32	101	1048576	60	7135
2026-01-07 00:43:06.27	338.75	5.90	-42.3	-43.6	20.8	0.00e+00	2	32	101	1048576	60	7409
2026-01-07 00:43:10.30	338.82	5.60	-42.7	-44.1	20.2	0.00e+00	0	32	101	1048576	60	7831
2026-01-07 00:43:14.33	338.88	5.31	-43.5	-45.3	18.5	0.00e+00	0	32	101	1048576	60	8986
2026-01-07 00:43:18.36	338.95	5.03	-44.8	-47.4	15.8	0.00e+00	92	32	101	1048576	60	11409
2026-01-07 00:43:22.40	339.01	4.74	-45.8	-49.8	12.3	8.16e-05	0	32	101	1048576	60	15120
2026-01-07 00:43:26.43	339.07	4.46	-46.5	-53.0	7.9	4.43e-02	7	32	101	1048576	60	21856
2026-01-07 00:43:30.45	339.13	4.18	-46.7	-55.8	4.6	6.20e-01	0	32	101	1048576	60	30227
2026-01-07 00:43:34.48	339.19	3.91	-46.7	-60.1	3.7	1.50e+00	0	33	104	1048576	60	49129
2026-01-07 00:43:38.51	339.25	3.64	-46.7	-61.2	3.6	1.51e+00	0	32	104	1048576	60	56270
2026-01-07 00:43:42.55	339.31	3.37	-46.8	-62.0	3.6	1.51e+00	0	33	104	1048576	60	61086
2026-01-07 00:43:46.58	339.36	3.10	-46.7	-62.0	3.6	1.51e+00	0	33	104	1048576	60	61292
2026-01-07 00:43:50.61	339.42	2.84	-51.4	-66.7	3.6	1.51e+00	0	33	104	1048576	60	105820
2026-01-07 00:43:54.65	339.48	2.57	-51.7	-67.0	3.6	1.51e+00	0	32	104	1048576	60	109417
2026-01-07 00:43:58.67	339.53	2.31	-51.6	-67.1	3.6	1.51e+00	0	32	104	1048576	60	110255
2026-01-07 00:44:02.70	339.59	2.06	-51.6	-67.0	3.6	1.51e+00	0	33	104	1048576	60	109064
2026-01-07 00:44:06.73	339.64	1.80	-51.6	-67.0	3.6	1.51e+00	0	32	104	1048576	60	108824
2026-01-07 00:44:10.76	339.69	1.55	-51.6	-66.9	3.6	1.51e+00	0	33	104	1048576	60	108372
2026-01-07 00:44:14.79	339.75	1.30	-51.6	-67.0	3.6	1.51e+00	0	33	104	1048576	60	108614
2026-01-07 00:44:18.82	339.80	1.05	-51.6	-67.0	3.6	1.51e+00	0	33	104	1048576	60	108561
2026-01-07 00:44:22.85	339.85	0.80	-51.5	-66.9	3.6	1.51e+00	0	33	104	1048576	60	108468
2026-01-07 00:44:26.88	339.90	0.56	-51.5	-66.9	3.6	1.51e+00	0	33	104	1048576	60	108221
2026-01-07 00:44:30.91	339.95	0.32	-51.5	-66.9	3.6	1.51e+00	0	33	104	1048576	60	108153
2026-01-07 00:44:34.94	340.00	0.08	-51.5	-66.9	3.6	1.51e+00	0	33	104	1048576	60	108282

#Closed at: 2026-01-07 00:44:37
#Recorded file [1 MB]: D:/lorett/data/35034_260107_032906.dat