passes_logs/2026/01/07/R4.6S_Anadyr_2ch/R4.6S_Anadyr_2ch__20260107_205239_NOAA_20_JPSS-1_rec.log

#Pass ID: 20260107_205239_NOAA 20 (JPSS-1)
#Satellite: NOAA 20 (JPSS-1)
#Configuration: NOAA 20
#almurnet v.1.7.20251203
#Start time: 2026-01-07 20:52:41

#Version: 2.2.20231116
#Station: R4.6S_Anadyr_2ch
#Location: 177.4865 lon 64.73178 lat
#TLE: 1 43013U 17073A   25350.93759711  .00000080  00000+0  58734-4 0  9994
#TLE: 2 43013  98.7603 287.1885 0002156  81.1496 278.9924 14.19526878418610

#Time	Az	El	Level	Level2	SNR	BER	BlckErr	Temp	State	Recorded	gain1	gain2
2026-01-07 20:52:41.29	78.67	0.08	-52.0	-67.1	3.5	1.51e+00	0	33	0	0	60	109860
2026-01-07 20:52:45.33	78.39	0.29	-52.0	-67.5	3.6	1.51e+00	0	34	104	0	60	115717
2026-01-07 20:52:49.37	78.11	0.50	-52.1	-67.5	3.6	1.51e+00	0	34	104	0	60	115344
2026-01-07 20:52:53.41	77.83	0.70	-51.9	-67.3	3.6	1.51e+00	0	34	104	0	60	113458
2026-01-07 20:52:57.46	77.54	0.91	-50.8	-66.2	3.6	1.51e+00	0	34	104	0	60	99673
2026-01-07 20:53:01.50	77.24	1.12	-50.4	-65.9	3.6	1.51e+00	0	35	104	0	60	95771
2026-01-07 20:53:05.54	76.95	1.33	-50.4	-65.9	3.6	1.51e+00	0	35	104	0	60	95853
2026-01-07 20:53:09.59	76.64	1.54	-50.4	-65.8	3.6	1.51e+00	0	35	104	0	60	95276
2026-01-07 20:53:13.63	76.34	1.75	-50.4	-65.8	3.6	1.51e+00	0	35	104	0	60	95518
2026-01-07 20:53:17.68	76.02	1.97	-50.4	-65.6	3.6	1.51e+00	0	35	104	0	60	93429
2026-01-07 20:53:21.72	75.71	2.18	-50.4	-65.8	3.6	1.51e+00	0	35	104	0	60	95177
2026-01-07 20:53:25.76	75.39	2.39	-50.4	-65.8	3.6	1.51e+00	0	35	104	0	60	95261
2026-01-07 20:53:29.81	75.06	2.61	-50.4	-65.1	3.6	1.51e+00	0	35	104	0	60	87758
2026-01-07 20:53:33.85	74.73	2.83	-50.0	-59.1	5.3	7.89e-01	0	35	0	0	60	43832
2026-01-07 20:53:37.89	74.39	3.04	-47.2	-50.3	14.5	0.00e+00	0	35	102	1048576	60	16019
2026-01-07 20:53:41.94	74.05	3.26	-50.1	-59.2	4.3	1.50e+00	47	35	104	1048576	60	44245
2026-01-07 20:53:45.98	73.71	3.48	-45.8	-47.9	17.0	0.00e+00	0	35	0	1048576	60	12132
2026-01-07 20:53:50.02	73.35	3.70	-45.1	-47.0	18.1	0.00e+00	0	35	0	1048576	60	10886
2026-01-07 20:53:54.06	73.00	3.91	-45.3	-47.1	18.1	0.00e+00	0	35	0	1048576	60	11063
2026-01-07 20:53:58.11	72.63	4.13	-45.4	-47.3	17.8	0.00e+00	0	35	0	1048576	60	11312
2026-01-07 20:54:02.15	72.26	4.36	-45.1	-46.9	18.4	0.00e+00	0	35	101	1048576	60	10828
2026-01-07 20:54:06.19	71.89	4.58	-45.1	-46.9	18.3	0.00e+00	0	35	101	1048576	60	10766
2026-01-07 20:54:10.24	71.51	4.80	-45.2	-47.0	18.3	0.00e+00	0	35	101	1048576	60	10868
2026-01-07 20:54:14.28	71.12	5.02	-45.1	-46.9	18.4	0.00e+00	0	35	101	1048576	60	10792
2026-01-07 20:54:18.32	70.73	5.24	-45.3	-47.0	18.3	0.00e+00	0	35	101	1048576	60	10966
2026-01-07 20:54:22.37	70.33	5.47	-45.2	-47.0	18.5	0.00e+00	0	35	101	1048576	60	10869
2026-01-07 20:54:26.41	69.93	5.69	-45.1	-46.8	18.6	0.00e+00	0	35	101	1048576	60	10684
2026-01-07 20:54:30.46	69.52	5.92	-45.2	-47.0	18.6	0.00e+00	0	35	101	1048576	60	10905
2026-01-07 20:54:34.50	69.10	6.14	-45.0	-46.7	18.8	0.00e+00	0	35	101	1048576	60	10546
2026-01-07 20:54:38.54	68.67	6.37	-45.1	-46.8	18.7	0.00e+00	0	35	101	1048576	60	10653
2026-01-07 20:54:42.59	68.24	6.60	-44.8	-46.4	19.1	0.00e+00	0	35	101	1048576	60	10196
2026-01-07 20:54:46.63	67.80	6.82	-44.4	-45.9	19.8	0.00e+00	0	35	101	1048576	60	9589
2026-01-07 20:54:50.67	67.36	7.05	-44.2	-45.7	19.8	0.00e+00	0	35	101	1048576	60	9362
2026-01-07 20:54:54.72	66.90	7.28	-44.1	-45.5	20.0	0.00e+00	0	35	101	1048576	60	9226
2026-01-07 20:54:58.76	66.44	7.51	-44.1	-45.5	20.1	0.00e+00	0	35	101	1048576	60	9200
2026-01-07 20:55:02.80	65.98	7.74	-44.0	-45.4	20.2	0.00e+00	0	35	101	1048576	60	9120
2026-01-07 20:55:06.84	65.50	7.96	-43.8	-45.1	20.4	0.00e+00	0	35	101	1048576	60	8789
2026-01-07 20:55:10.89	65.02	8.19	-43.6	-44.9	20.7	0.00e+00	0	35	101	1048576	60	8593
2026-01-07 20:55:14.93	64.53	8.42	-43.7	-45.1	20.6	0.00e+00	0	35	101	1048576	60	8726
2026-01-07 20:55:18.97	64.03	8.65	-43.9	-45.2	20.5	0.00e+00	0	35	101	1048576	60	8895
2026-01-07 20:55:23.02	63.52	8.88	-44.0	-45.4	20.3	0.00e+00	0	35	101	1048576	60	9046
2026-01-07 20:55:27.06	63.01	9.11	-44.1	-45.5	20.2	0.00e+00	0	35	101	1048576	60	9145
2026-01-07 20:55:31.11	62.48	9.34	-43.8	-45.2	20.6	0.00e+00	0	35	101	1048576	60	8844
2026-01-07 20:55:35.15	61.95	9.56	-43.6	-44.8	20.9	0.00e+00	0	35	101	1048576	60	8515
2026-01-07 20:55:39.20	61.41	9.79	-43.4	-44.6	21.1	0.00e+00	0	35	101	1048576	60	8287
2026-01-07 20:55:43.24	60.86	10.02	-43.2	-44.4	21.3	0.00e+00	0	35	101	1048576	60	8108
2026-01-07 20:55:47.28	60.31	10.25	-43.3	-44.5	21.3	0.00e+00	0	35	101	1048576	60	8174
2026-01-07 20:55:51.33	59.74	10.47	-43.4	-44.6	21.2	0.00e+00	0	35	101	1048576	60	8271
2026-01-07 20:55:55.37	59.16	10.70	-43.4	-44.7	21.1	0.00e+00	0	35	101	1048576	60	8351
2026-01-07 20:55:59.42	58.58	10.92	-43.5	-44.7	21.0	0.00e+00	0	35	101	1048576	60	8413
2026-01-07 20:56:03.46	57.99	11.15	-43.3	-44.5	21.3	0.00e+00	0	35	101	1048576	60	8176
2026-01-07 20:56:07.50	57.38	11.37	-43.5	-44.8	21.1	0.00e+00	0	35	101	1048576	60	8434
2026-01-07 20:56:11.54	56.77	11.59	-43.5	-44.7	21.0	0.00e+00	0	35	101	1048576	60	8423
2026-01-07 20:56:15.59	56.15	11.81	-43.5	-44.7	21.1	0.00e+00	0	35	101	1048576	60	8389
2026-01-07 20:56:19.63	55.52	12.03	-43.1	-44.3	21.6	0.00e+00	0	35	101	1048576	60	7985
2026-01-07 20:56:23.67	54.88	12.25	-42.9	-44.0	21.8	0.00e+00	0	35	101	1048576	60	7744
2026-01-07 20:56:27.72	54.23	12.47	-42.4	-43.4	22.3	0.00e+00	0	35	101	1048576	60	7223
2026-01-07 20:56:31.77	53.57	12.68	-42.2	-43.3	22.5	0.00e+00	0	35	101	1048576	60	7104
2026-01-07 20:56:35.81	52.90	12.89	-42.0	-43.1	22.7	0.00e+00	0	35	101	1048576	60	6931
2026-01-07 20:56:39.85	52.22	13.10	-41.9	-42.9	22.8	0.00e+00	0	35	101	1048576	60	6810
2026-01-07 20:56:43.90	51.53	13.31	-42.0	-43.0	22.8	0.00e+00	0	35	101	1048576	60	6873
2026-01-07 20:56:47.94	50.83	13.51	-41.9	-42.9	22.9	0.00e+00	0	35	101	1048576	60	6785
2026-01-07 20:56:51.99	50.12	13.72	-41.2	-42.1	23.5	0.00e+00	0	35	101	1048576	60	6232
2026-01-07 20:56:56.03	49.40	13.92	-41.1	-42.0	23.6	0.00e+00	0	35	101	1048576	60	6158
2026-01-07 20:57:00.07	48.67	14.11	-41.0	-41.9	23.7	0.00e+00	0	35	101	1048576	60	6062
2026-01-07 20:57:04.12	47.93	14.31	-40.9	-41.8	23.9	0.00e+00	0	35	101	1048576	60	5984
2026-01-07 20:57:08.16	47.19	14.50	-41.1	-42.0	23.6	0.00e+00	0	35	101	1048576	60	6141
2026-01-07 20:57:12.20	46.43	14.69	-41.5	-42.4	23.3	0.00e+00	0	35	101	1048576	60	6444
2026-01-07 20:57:16.25	45.66	14.87	-41.4	-42.3	23.4	0.00e+00	0	35	101	1048576	60	6384
2026-01-07 20:57:20.29	44.88	15.05	-41.3	-42.3	23.5	0.00e+00	0	35	101	1048576	60	6338
2026-01-07 20:57:24.34	44.10	15.22	-41.3	-42.2	23.5	0.00e+00	0	35	101	1048576	60	6310
2026-01-07 20:57:28.38	43.30	15.40	-41.1	-42.0	23.7	0.00e+00	0	35	101	1048576	60	6118
2026-01-07 20:57:32.42	42.50	15.56	-40.9	-41.8	23.9	0.00e+00	0	35	101	1048576	60	6027
2026-01-07 20:57:36.47	41.68	15.72	-40.8	-41.7	24.0	0.00e+00	0	35	101	1048576	60	5950
2026-01-07 20:57:40.51	40.86	15.88	-40.8	-41.7	24.0	0.00e+00	0	35	101	1048576	60	5908
2026-01-07 20:57:44.56	40.03	16.03	-40.9	-41.7	23.9	0.00e+00	0	35	101	1048576	60	5963
2026-01-07 20:57:48.60	39.19	16.18	-40.5	-41.4	24.2	0.00e+00	0	35	101	1048576	60	5736
2026-01-07 20:57:52.65	38.34	16.32	-40.6	-41.5	24.3	0.00e+00	0	35	101	1048576	60	5779
2026-01-07 20:57:56.69	37.49	16.46	-40.9	-41.8	23.9	0.00e+00	0	35	101	1048576	60	5979
2026-01-07 20:58:00.73	36.62	16.59	-40.9	-41.8	23.9	0.00e+00	0	35	101	1048576	60	5998
2026-01-07 20:58:04.78	35.75	16.71	-40.7	-41.6	24.1	0.00e+00	0	35	101	1048576	60	5862
2026-01-07 20:58:08.82	34.88	16.83	-40.9	-41.7	23.9	0.00e+00	0	35	101	1048576	60	5955
2026-01-07 20:58:12.87	33.99	16.94	-40.9	-41.8	24.0	0.00e+00	0	35	101	1048576	60	5978
2026-01-07 20:58:16.91	33.10	17.04	-41.4	-42.3	23.5	0.00e+00	0	35	101	1048576	60	6363
2026-01-07 20:58:20.95	32.20	17.14	-41.6	-42.6	23.3	0.00e+00	0	35	101	1048576	60	6559
2026-01-07 20:58:25.00	31.30	17.23	-41.6	-42.5	23.3	0.00e+00	0	35	101	1048576	60	6505
2026-01-07 20:58:29.04	30.39	17.32	-41.5	-42.4	23.4	0.00e+00	0	35	101	1048576	60	6446
2026-01-07 20:58:33.08	29.48	17.39	-41.3	-42.3	23.5	0.00e+00	0	35	101	1048576	60	6325
2026-01-07 20:58:37.12	28.57	17.46	-41.8	-42.8	23.1	0.00e+00	0	35	101	1048576	60	6757
2026-01-07 20:58:41.17	27.64	17.53	-41.9	-42.9	22.8	0.00e+00	0	35	101	1048576	60	6814
2026-01-07 20:58:45.21	26.72	17.58	-41.7	-42.7	23.2	0.00e+00	0	35	101	1048576	60	6637
2026-01-07 20:58:49.25	25.79	17.63	-42.1	-43.1	22.9	0.00e+00	0	35	101	1048576	60	6990
2026-01-07 20:58:53.30	24.86	17.67	-41.8	-42.7	23.1	0.00e+00	0	35	101	1048576	60	6676
2026-01-07 20:58:57.34	23.93	17.70	-41.9	-42.8	23.1	0.00e+00	0	35	101	1048576	60	6769
2026-01-07 20:59:01.39	23.00	17.72	-41.7	-42.6	23.2	0.00e+00	0	35	101	1048576	60	6585
2026-01-07 20:59:05.43	22.06	17.74	-41.9	-42.9	22.9	0.00e+00	0	35	101	1048576	60	6827
2026-01-07 20:59:09.47	21.13	17.75	-42.0	-43.0	23.0	0.00e+00	0	35	101	1048576	60	6872
2026-01-07 20:59:13.52	20.19	17.75	-41.8	-42.8	23.1	0.00e+00	0	35	101	1048576	60	6700
2026-01-07 20:59:17.56	19.25	17.74	-41.7	-42.6	23.1	0.00e+00	0	35	101	1048576	60	6608
2026-01-07 20:59:21.60	18.32	17.72	-41.7	-42.6	23.2	0.00e+00	0	35	101	1048576	60	6600
2026-01-07 20:59:25.65	17.38	17.70	-41.3	-42.2	23.6	0.00e+00	0	35	101	1048576	60	6316
2026-01-07 20:59:29.69	16.45	17.67	-41.1	-42.1	23.7	0.00e+00	0	35	101	1048576	60	6183
2026-01-07 20:59:33.73	15.52	17.63	-41.2	-42.1	23.7	0.00e+00	0	36	101	1048576	60	6230
2026-01-07 20:59:37.77	14.60	17.58	-40.9	-41.8	24.0	0.00e+00	0	35	101	1048576	60	5972
2026-01-07 20:59:41.82	13.67	17.53	-40.9	-41.8	24.0	0.00e+00	0	35	101	1048576	60	6012
2026-01-07 20:59:45.86	12.75	17.47	-40.5	-41.4	24.3	0.00e+00	0	35	101	1048576	60	5698
2026-01-07 20:59:49.90	11.84	17.40	-40.4	-41.3	24.3	0.00e+00	0	35	101	1048576	60	5643
2026-01-07 20:59:53.95	10.92	17.32	-40.8	-41.7	24.0	0.00e+00	0	35	101	1048576	60	5950
2026-01-07 20:59:57.99	10.02	17.24	-40.7	-41.6	24.0	0.00e+00	0	35	101	1048576	60	5858
2026-01-07 21:00:02.03	9.12	17.15	-41.0	-41.9	23.9	0.00e+00	0	35	101	1048576	60	6049
2026-01-07 21:00:06.08	8.22	17.05	-41.0	-42.0	23.8	0.00e+00	0	35	101	1048576	60	6111
2026-01-07 21:00:10.12	7.33	16.95	-41.1	-42.0	23.7	0.00e+00	0	35	101	1048576	60	6118
2026-01-07 21:00:14.17	6.45	16.84	-41.5	-42.4	23.5	0.00e+00	0	35	101	1048576	60	6432
2026-01-07 21:00:18.21	5.57	16.72	-41.5	-42.5	23.4	0.00e+00	0	35	101	1048576	60	6476
2026-01-07 21:00:22.26	4.70	16.59	-41.8	-42.7	23.1	0.00e+00	0	35	101	1048576	60	6685
2026-01-07 21:00:26.30	3.84	16.47	-41.5	-42.5	23.4	0.00e+00	0	35	101	1048576	60	6493
2026-01-07 21:00:30.35	2.98	16.33	-41.1	-42.1	23.7	0.00e+00	0	35	101	1048576	60	6181
2026-01-07 21:00:34.39	2.14	16.19	-41.4	-42.3	23.2	0.00e+00	0	35	101	1048576	60	6360
2026-01-07 21:00:38.44	1.30	16.04	-41.3	-42.2	23.5	0.00e+00	0	35	101	1048576	60	6294
2026-01-07 21:00:42.48	0.47	15.89	-41.6	-42.5	23.3	0.00e+00	0	35	101	1048576	60	6539
2026-01-07 21:00:46.52	359.65	15.74	-41.8	-42.8	23.2	0.00e+00	0	35	101	1048576	60	6719
2026-01-07 21:00:50.56	358.83	15.57	-41.3	-42.3	23.5	0.00e+00	0	35	101	1048576	60	6340
2026-01-07 21:00:54.61	358.03	15.41	-41.9	-42.9	23.0	0.00e+00	0	36	101	1048576	60	6780
2026-01-07 21:00:58.65	357.24	15.24	-41.8	-42.8	23.1	0.00e+00	0	35	101	1048576	60	6748
2026-01-07 21:01:02.69	356.45	15.06	-41.8	-42.8	23.1	0.00e+00	0	36	101	1048576	60	6716
2026-01-07 21:01:06.74	355.67	14.88	-42.0	-43.0	22.8	0.00e+00	0	35	101	1048576	60	6906
2026-01-07 21:01:10.78	354.91	14.70	-41.9	-42.9	22.8	0.00e+00	0	36	101	1048576	60	6843
2026-01-07 21:01:14.82	354.15	14.51	-42.3	-43.3	22.6	0.00e+00	0	36	101	1048576	60	7149
2026-01-07 21:01:18.87	353.40	14.32	-42.4	-43.4	22.4	0.00e+00	0	35	101	1048576	60	7245
2026-01-07 21:01:22.92	352.67	14.13	-42.7	-43.8	22.2	0.00e+00	0	35	101	1048576	60	7547
2026-01-07 21:01:26.96	351.94	13.93	-43.1	-44.3	21.6	0.00e+00	0	35	101	1048576	60	7988
2026-01-07 21:01:31.00	351.22	13.73	-43.0	-44.2	21.7	0.00e+00	0	36	101	1048576	60	7893
2026-01-07 21:01:35.04	350.52	13.53	-43.1	-44.3	21.6	0.00e+00	0	35	101	1048576	60	7997
2026-01-07 21:01:39.09	349.82	13.33	-43.6	-44.8	21.1	0.00e+00	0	35	101	1048576	60	8485
2026-01-07 21:01:43.13	349.13	13.12	-43.4	-44.6	21.3	0.00e+00	0	36	101	1048576	60	8241
2026-01-07 21:01:47.17	348.45	12.91	-43.4	-44.6	21.3	0.00e+00	0	36	101	1048576	60	8290
2026-01-07 21:01:51.22	347.78	12.70	-43.4	-44.7	21.2	0.00e+00	0	36	101	1048576	60	8348
2026-01-07 21:01:55.26	347.12	12.49	-43.5	-44.8	21.1	0.00e+00	0	35	101	1048576	60	8443
2026-01-07 21:01:59.31	346.47	12.27	-43.7	-45.0	21.0	0.00e+00	0	36	101	1048576	60	8630
2026-01-07 21:02:03.35	345.84	12.05	-43.7	-45.0	20.9	0.00e+00	0	36	101	1048576	60	8625
2026-01-07 21:02:07.39	345.21	11.83	-43.1	-44.3	21.5	0.00e+00	0	36	101	1048576	60	8002
2026-01-07 21:02:11.44	344.59	11.61	-42.8	-44.0	21.8	0.00e+00	0	36	101	1048576	60	7703
2026-01-07 21:02:15.48	343.98	11.39	-42.8	-43.9	21.9	0.00e+00	0	36	101	1048576	60	7646
2026-01-07 21:02:19.53	343.37	11.17	-43.0	-44.2	21.5	0.00e+00	0	36	101	1048576	60	7882
2026-01-07 21:02:23.57	342.78	10.95	-42.6	-43.7	22.0	0.00e+00	0	36	101	1048576	60	7450
2026-01-07 21:02:27.61	342.20	10.72	-42.4	-43.5	22.1	0.00e+00	0	35	101	1048576	60	7278
2026-01-07 21:02:31.65	341.63	10.50	-42.0	-43.0	22.5	0.00e+00	0	36	101	1048576	60	6898
2026-01-07 21:02:35.70	341.06	10.27	-41.9	-42.9	22.7	0.00e+00	0	36	101	1048576	60	6804
2026-01-07 21:02:39.74	340.50	10.05	-41.8	-42.8	22.8	0.00e+00	0	36	101	1048576	60	6718
2026-01-07 21:02:43.78	339.96	9.82	-41.6	-42.6	22.9	0.00e+00	0	36	101	1048576	60	6593
2026-01-07 21:02:47.83	339.42	9.59	-41.3	-42.3	23.2	0.00e+00	0	36	101	1048576	60	6367
2026-01-07 21:02:51.87	338.89	9.36	-41.5	-42.5	22.9	0.00e+00	0	36	101	1048576	60	6479
2026-01-07 21:02:55.91	338.37	9.14	-41.6	-42.7	22.8	0.00e+00	0	35	101	1048576	60	6636
2026-01-07 21:02:59.95	337.85	8.91	-41.8	-42.8	22.8	0.00e+00	0	36	101	1048576	60	6718
2026-01-07 21:03:04.00	337.35	8.68	-42.0	-43.1	22.5	0.00e+00	0	36	101	1048576	60	6939
2026-01-07 21:03:08.04	336.85	8.45	-42.2	-43.2	22.4	0.00e+00	0	36	101	1048576	60	7068
2026-01-07 21:03:12.08	336.36	8.22	-42.2	-43.3	22.3	0.00e+00	0	36	101	1048576	60	7127
2026-01-07 21:03:16.13	335.88	8.00	-42.3	-43.4	22.1	0.00e+00	0	36	101	1048576	60	7226
2026-01-07 21:03:20.17	335.41	7.77	-42.1	-43.2	22.3	0.00e+00	0	35	101	1048576	60	7012
2026-01-07 21:03:24.21	334.94	7.54	-42.3	-43.4	21.9	0.00e+00	0	35	101	1048576	60	7249
2026-01-07 21:03:28.25	334.48	7.31	-42.7	-43.8	21.6	0.00e+00	0	36	101	1048576	60	7561
2026-01-07 21:03:32.30	334.03	7.09	-42.9	-44.1	21.4	0.00e+00	0	35	101	1048576	60	7815
2026-01-07 21:03:36.34	333.59	6.86	-42.9	-44.1	21.3	0.00e+00	0	36	101	1048576	60	7857
2026-01-07 21:03:40.38	333.15	6.63	-43.1	-44.4	21.0	0.00e+00	0	35	101	1048576	60	8081
2026-01-07 21:03:44.43	332.72	6.41	-43.5	-44.9	20.6	0.00e+00	0	36	101	1048576	60	8529
2026-01-07 21:03:48.47	332.30	6.18	-43.7	-45.1	20.4	0.00e+00	0	35	101	1048576	60	8723
2026-01-07 21:03:52.51	331.88	5.96	-43.8	-45.2	20.2	7.00e-07	0	35	101	1048576	60	8900
2026-01-07 21:03:56.56	331.47	5.73	-43.8	-45.2	20.2	0.00e+00	0	35	101	1048576	60	8857
2026-01-07 21:04:00.60	331.07	5.51	-44.1	-45.6	19.8	0.00e+00	0	35	101	1048576	60	9293
2026-01-07 21:04:04.65	330.67	5.28	-44.2	-45.7	19.7	0.00e+00	0	35	101	1048576	60	9359
2026-01-07 21:04:08.69	330.28	5.06	-44.4	-45.9	19.5	0.00e+00	0	35	101	1048576	60	9597
2026-01-07 21:04:12.73	329.89	4.84	-44.3	-45.8	19.5	0.00e+00	0	35	101	1048576	60	9520
2026-01-07 21:04:16.78	329.51	4.62	-44.7	-46.3	19.0	0.00e+00	0	36	101	1048576	60	10120
2026-01-07 21:04:20.82	329.14	4.39	-45.0	-46.7	18.5	0.00e+00	0	35	101	1048576	60	10595
2026-01-07 21:04:24.86	328.77	4.17	-44.8	-46.5	18.7	0.00e+00	0	36	101	1048576	60	10323
2026-01-07 21:04:28.90	328.41	3.95	-44.7	-46.4	18.7	0.00e+00	0	35	101	1048576	60	10166
2026-01-07 21:04:32.94	328.06	3.74	-44.7	-46.4	18.7	0.00e+00	0	35	101	1048576	60	10184
2026-01-07 21:04:36.99	327.71	3.52	-44.9	-46.6	18.5	0.00e+00	0	36	101	1048576	60	10426
2026-01-07 21:04:41.03	327.36	3.30	-45.1	-46.9	18.1	0.00e+00	0	36	101	1048576	60	10801
2026-01-07 21:04:45.08	327.02	3.08	-45.3	-47.3	17.7	0.00e+00	0	36	101	1048576	60	11268
2026-01-07 21:04:49.12	326.69	2.87	-52.0	-67.4	3.6	1.51e+00	0	36	104	1048576	60	114076
2026-01-07 21:04:53.17	326.36	2.65	-52.2	-67.5	3.6	1.51e+00	0	36	104	1048576	60	116253
2026-01-07 21:04:57.21	326.03	2.44	-52.1	-67.5	3.6	1.51e+00	0	36	104	1048576	60	115723
2026-01-07 21:05:01.25	325.71	2.22	-52.1	-67.5	3.6	1.51e+00	0	36	104	1048576	60	115398
2026-01-07 21:05:05.29	325.40	2.01	-52.1	-67.5	3.6	1.51e+00	0	36	104	1048576	60	115871
2026-01-07 21:05:09.33	325.09	1.80	-52.1	-67.5	3.6	1.51e+00	0	36	104	1048576	60	115987
2026-01-07 21:05:13.38	324.78	1.59	-52.1	-67.5	3.6	1.51e+00	0	36	104	1048576	60	115503
2026-01-07 21:05:17.42	324.48	1.38	-52.1	-67.4	3.6	1.51e+00	0	36	104	1048576	60	114898
2026-01-07 21:05:21.46	324.19	1.17	-52.1	-67.5	3.6	1.51e+00	0	36	104	1048576	60	115362
2026-01-07 21:05:25.51	323.90	0.96	-52.1	-67.5	3.6	1.51e+00	0	36	104	1048576	60	115040
2026-01-07 21:05:29.55	323.61	0.75	-52.1	-67.5	3.5	1.51e+00	0	35	104	1048576	60	115062
2026-01-07 21:05:33.60	323.32	0.54	-52.1	-67.4	3.6	1.51e+00	0	36	104	1048576	60	114375
2026-01-07 21:05:37.64	323.04	0.33	-52.1	-67.4	3.6	1.51e+00	0	36	104	1048576	60	114728
2026-01-07 21:05:41.68	322.77	0.13	-52.1	-67.4	3.6	1.51e+00	0	36	104	1048576	60	114851
2026-01-07 21:05:45.73	322.50	-0.08	-52.1	-67.4	3.6	1.51e+00	0	36	104	1048576	60	113871

#Closed at: 2026-01-07 21:05:46
#Recorded file [1 MB]: D:/lorett/data/35034_260107_235241.dat