passes_logs/2026/01/07/R4.6S_Anadyr_2ch/R4.6S_Anadyr_2ch__20260107_200123_FENGYUN_3E_rec.log

#Pass ID: 20260107_200123_FENGYUN 3E
#Satellite: FENGYUN 3E
#Configuration: FENGYUN 3E
#almurnet v.1.7.20251203
#Start time: 2026-01-07 20:01:26

#Version: 2.2.20231116
#Station: R4.6S_Anadyr_2ch
#Location: 177.4865 lon 64.73178 lat
#TLE: 1 49008U 21062A   25350.97288215  .00000176  00000+0  10353-3 0  9997
#TLE: 2 49008  98.7477 351.4440 0000638 234.3856 125.7261 14.19881381230726

#Time	Az	El	Level	Level2	SNR	BER	BlckErr	Temp	State	Recorded	gain1	gain2
2026-01-07 20:01:26.14	23.20	0.18	-51.6	-61.7	3.3	8.40e-01	0	34	0	0	60	59684
2026-01-07 20:01:30.18	23.11	0.42	-51.6	-63.1	3.6	8.45e-01	0	34	104	0	60	70464
2026-01-07 20:01:34.22	23.01	0.66	-51.7	-63.3	3.6	8.46e-01	0	34	104	0	60	72061
2026-01-07 20:01:38.26	22.91	0.90	-51.8	-63.3	3.6	8.46e-01	0	34	104	0	60	71737
2026-01-07 20:01:42.31	22.81	1.15	-51.4	-63.0	3.6	8.45e-01	0	35	104	0	60	69371
2026-01-07 20:01:46.35	22.71	1.39	-50.5	-62.1	3.6	8.43e-01	0	35	104	0	60	62531
2026-01-07 20:01:50.40	22.60	1.64	-50.3	-61.7	3.6	8.45e-01	0	34	104	0	60	60103
2026-01-07 20:01:54.44	22.50	1.89	-50.3	-61.5	3.6	8.45e-01	0	35	104	0	60	58874
2026-01-07 20:01:58.48	22.39	2.15	-50.3	-61.1	3.6	8.46e-01	0	35	104	0	60	55896
2026-01-07 20:02:02.53	22.28	2.40	-50.3	-61.7	3.6	8.45e-01	0	35	104	0	60	60149
2026-01-07 20:02:06.57	22.16	2.66	-50.3	-61.3	3.6	8.45e-01	0	35	104	0	60	57299
2026-01-07 20:02:10.62	22.05	2.92	-50.1	-60.0	3.6	8.45e-01	0	35	104	0	60	49104
2026-01-07 20:02:14.66	21.93	3.18	-50.3	-60.9	3.6	8.45e-01	0	35	104	0	60	54839
2026-01-07 20:02:18.70	21.81	3.44	-47.5	-50.3	10.2	1.49e-02	0	35	102	1048576	60	16108
2026-01-07 20:02:22.75	21.68	3.71	-42.5	-43.5	17.3	0.00e+00	0	35	102	1048576	60	7401
2026-01-07 20:02:26.79	21.56	3.98	-42.1	-43.1	17.7	0.00e+00	0	35	102	1048576	60	7052
2026-01-07 20:02:30.83	21.43	4.25	-41.6	-42.5	18.1	3.02e-01	0	35	104	1048576	60	6613
2026-01-07 20:02:34.88	21.30	4.53	-37.8	-38.6	22.3	0.00e+00	0	35	0	1048576	56	5271
2026-01-07 20:02:38.92	21.17	4.80	-37.9	-38.6	22.2	0.00e+00	0	35	101	1048576	54	5953
2026-01-07 20:02:42.97	21.03	5.08	-37.5	-38.2	22.7	0.00e+00	0	35	101	1048576	54	5676
2026-01-07 20:02:47.01	20.89	5.37	-37.5	-38.2	22.7	0.00e+00	0	35	101	1048576	54	5693
2026-01-07 20:02:51.05	20.75	5.65	-37.4	-38.1	22.8	0.00e+00	0	35	101	1048576	54	5622
2026-01-07 20:02:55.09	20.60	5.94	-37.2	-38.0	23.0	0.00e+00	0	35	101	1048576	54	5505
2026-01-07 20:02:59.14	20.45	6.23	-37.1	-37.8	23.2	0.00e+00	0	35	101	1048576	52	6096
2026-01-07 20:03:03.18	20.30	6.52	-37.1	-37.9	23.2	0.00e+00	0	35	101	1048576	52	6109
2026-01-07 20:03:07.23	20.14	6.82	-37.0	-37.7	23.4	0.00e+00	0	35	101	1048576	52	6010
2026-01-07 20:03:11.27	19.98	7.12	-37.0	-37.7	23.4	0.00e+00	0	36	101	1048576	52	6002
2026-01-07 20:03:15.31	19.82	7.43	-37.0	-37.7	23.4	0.00e+00	0	35	101	1048576	52	6024
2026-01-07 20:03:19.36	19.65	7.73	-36.8	-37.5	23.7	0.00e+00	0	35	101	1048576	52	5841
2026-01-07 20:03:23.40	19.48	8.05	-36.6	-37.3	24.0	0.00e+00	0	36	101	1048576	52	5696
2026-01-07 20:03:27.44	19.30	8.36	-36.6	-37.3	23.9	0.00e+00	0	35	101	1048576	52	5741
2026-01-07 20:03:31.48	19.12	8.68	-36.3	-36.9	24.3	0.00e+00	0	36	101	1048576	52	5498
2026-01-07 20:03:35.53	18.94	9.00	-36.4	-37.1	24.2	0.00e+00	0	36	101	1048576	52	5568
2026-01-07 20:03:39.57	18.75	9.33	-36.2	-36.9	24.4	0.00e+00	0	35	101	1048576	52	5461
2026-01-07 20:03:43.61	18.56	9.66	-36.2	-36.8	24.4	0.00e+00	0	36	101	1048576	50	6094
2026-01-07 20:03:47.66	18.36	9.99	-35.9	-36.6	24.6	0.00e+00	0	35	101	1048576	50	5935
2026-01-07 20:03:51.70	18.16	10.33	-36.3	-36.9	24.4	0.00e+00	0	35	101	1048576	50	6158
2026-01-07 20:03:55.75	17.95	10.67	-35.9	-36.6	24.7	0.00e+00	0	35	101	1048576	50	5925
2026-01-07 20:03:59.79	17.74	11.02	-35.7	-36.4	24.9	0.00e+00	0	36	101	1048576	50	5788
2026-01-07 20:04:03.83	17.52	11.37	-35.6	-36.3	25.0	0.00e+00	0	35	101	1048576	50	5709
2026-01-07 20:04:07.88	17.29	11.73	-35.4	-36.1	25.2	0.00e+00	0	36	101	1048576	50	5581
2026-01-07 20:04:11.92	17.06	12.09	-35.2	-35.8	25.3	0.00e+00	0	36	101	1048576	50	5434
2026-01-07 20:04:15.96	16.82	12.45	-35.3	-35.9	25.4	0.00e+00	0	36	101	1048576	50	5475
2026-01-07 20:04:20.01	16.58	12.82	-35.5	-36.1	25.1	0.00e+00	0	36	101	1048576	50	5605
2026-01-07 20:04:24.05	16.33	13.20	-35.4	-36.1	25.3	0.00e+00	0	36	101	1048576	50	5591
2026-01-07 20:04:28.10	16.07	13.58	-35.0	-35.6	25.6	0.00e+00	0	36	101	1048576	48	5929
2026-01-07 20:04:32.14	15.81	13.97	-34.9	-35.5	25.7	0.00e+00	0	36	101	1048576	48	5863
2026-01-07 20:04:36.18	15.54	14.36	-34.9	-35.6	25.8	0.00e+00	0	36	101	1048576	48	5899
2026-01-07 20:04:40.22	15.26	14.76	-34.8	-35.4	25.9	0.00e+00	0	36	101	1048576	48	5815
2026-01-07 20:04:44.27	14.97	15.16	-34.6	-35.2	26.1	0.00e+00	0	36	101	1048576	48	5658
2026-01-07 20:04:48.31	14.68	15.57	-34.4	-35.1	26.2	0.00e+00	0	36	101	1048576	48	5567
2026-01-07 20:04:52.36	14.37	15.99	-34.2	-34.9	26.3	0.00e+00	0	36	101	1048576	48	5444
2026-01-07 20:04:56.40	14.06	16.41	-34.0	-34.7	26.5	0.00e+00	0	36	101	1048576	48	5323
2026-01-07 20:05:00.44	13.74	16.84	-34.0	-34.7	26.5	0.00e+00	0	36	101	1048576	46	5967
2026-01-07 20:05:04.49	13.41	17.27	-34.0	-34.6	26.6	0.00e+00	0	36	101	1048576	46	5914
2026-01-07 20:05:08.53	13.06	17.71	-34.0	-34.6	26.6	0.00e+00	0	36	101	1048576	46	5947
2026-01-07 20:05:12.58	12.71	18.16	-34.0	-34.6	26.7	0.00e+00	0	36	101	1048576	46	5911
2026-01-07 20:05:16.62	12.34	18.62	-34.0	-34.6	26.6	0.00e+00	0	36	101	1048576	46	5934
2026-01-07 20:05:20.66	11.97	19.08	-33.5	-34.1	27.0	0.00e+00	0	36	101	1048576	46	5600
2026-01-07 20:05:24.70	11.58	19.55	-33.3	-33.9	27.2	0.00e+00	0	36	101	1048576	46	5465
2026-01-07 20:05:28.75	11.18	20.03	-33.1	-33.7	27.4	0.00e+00	0	36	101	1048576	44	6020
2026-01-07 20:05:32.79	10.76	20.52	-32.8	-33.4	27.5	0.00e+00	0	36	101	1048576	44	5801
2026-01-07 20:05:36.83	10.34	21.01	-33.0	-33.6	27.4	0.00e+00	0	36	101	1048576	44	5920
2026-01-07 20:05:40.88	9.89	21.52	-32.8	-33.5	27.6	0.00e+00	0	36	101	1048576	44	5831
2026-01-07 20:05:44.92	9.44	22.03	-32.7	-33.3	27.6	0.00e+00	0	36	101	1048576	44	5756
2026-01-07 20:05:48.97	8.96	22.55	-32.9	-33.5	27.7	0.00e+00	0	36	101	1048576	44	5863
2026-01-07 20:05:53.01	8.47	23.07	-32.9	-33.5	27.6	0.00e+00	0	36	101	1048576	44	5860
2026-01-07 20:05:57.06	7.96	23.61	-33.0	-33.6	27.5	0.00e+00	0	36	101	1048576	44	5915
2026-01-07 20:06:01.10	7.44	24.16	-33.1	-33.7	27.4	0.00e+00	0	36	101	1048576	44	6013
2026-01-07 20:06:05.14	6.89	24.71	-33.1	-33.7	27.5	0.00e+00	0	36	101	1048576	44	5998
2026-01-07 20:06:09.18	6.32	25.27	-33.2	-33.8	27.3	0.00e+00	0	36	101	1048576	44	6070
2026-01-07 20:06:13.23	5.74	25.84	-33.1	-33.8	27.4	0.00e+00	0	36	101	1048576	44	6040
2026-01-07 20:06:17.27	5.13	26.42	-33.3	-33.9	27.4	0.00e+00	0	36	101	1048576	44	6121
2026-01-07 20:06:21.32	4.49	27.01	-33.0	-33.6	27.5	0.00e+00	0	36	101	1048576	44	5964
2026-01-07 20:06:25.36	3.84	27.61	-32.7	-33.3	27.6	0.00e+00	0	36	101	1048576	44	5716
2026-01-07 20:06:29.40	3.15	28.22	-32.4	-33.0	28.0	0.00e+00	0	36	101	1048576	44	5538
2026-01-07 20:06:33.45	2.44	28.83	-31.7	-32.3	28.5	0.00e+00	0	36	101	1048576	42	5729
2026-01-07 20:06:37.49	1.70	29.46	-31.8	-32.4	28.5	0.00e+00	0	36	101	1048576	42	5777
2026-01-07 20:06:41.53	0.94	30.09	-32.0	-32.6	28.3	0.00e+00	0	36	101	1048576	42	5916
2026-01-07 20:06:45.58	0.14	30.73	-32.2	-32.7	28.1	0.00e+00	0	36	101	1048576	42	6031
2026-01-07 20:06:49.62	359.30	31.38	-32.3	-32.9	28.2	0.00e+00	0	36	101	1048576	42	6144
2026-01-07 20:06:53.67	358.43	32.03	-32.6	-33.2	27.9	0.00e+00	0	36	101	1048576	42	6332
2026-01-07 20:06:57.71	357.53	32.69	-32.6	-33.2	27.9	0.00e+00	0	36	101	1048576	44	5659
2026-01-07 20:07:01.75	356.59	33.36	-32.4	-33.0	28.2	0.00e+00	0	36	101	1048576	44	5526
2026-01-07 20:07:05.80	355.60	34.04	-32.0	-32.5	28.4	0.00e+00	0	36	101	1048576	42	5895
2026-01-07 20:07:09.84	354.58	34.71	-31.7	-32.3	28.6	0.00e+00	0	36	101	1048576	42	5713
2026-01-07 20:07:13.88	353.51	35.40	-31.9	-32.5	28.4	0.00e+00	0	36	101	1048576	42	5852
2026-01-07 20:07:17.93	352.39	36.08	-31.9	-32.5	28.5	0.00e+00	0	36	101	1048576	42	5836
2026-01-07 20:07:21.97	351.23	36.77	-32.3	-32.9	28.1	0.00e+00	0	36	101	1048576	42	6170
2026-01-07 20:07:26.02	350.01	37.46	-32.4	-33.0	28.0	0.00e+00	0	36	101	1048576	42	6232
2026-01-07 20:07:30.06	348.74	38.14	-32.4	-33.0	27.9	0.00e+00	0	36	101	1048576	42	6223
2026-01-07 20:07:34.11	347.42	38.83	-32.3	-32.9	28.2	0.00e+00	0	36	101	1048576	42	6123
2026-01-07 20:07:38.15	346.04	39.50	-32.3	-32.9	28.1	0.00e+00	0	36	101	1048576	42	6166
2026-01-07 20:07:42.19	344.60	40.18	-32.3	-32.9	28.2	0.00e+00	0	36	101	1048576	42	6144
2026-01-07 20:07:46.24	343.09	40.84	-32.1	-32.7	28.5	0.00e+00	0	36	101	1048576	42	5978
2026-01-07 20:07:50.28	341.53	41.49	-32.4	-32.9	28.2	0.00e+00	0	36	101	1048576	42	6170
2026-01-07 20:07:54.33	339.90	42.13	-33.0	-33.6	27.6	0.00e+00	0	36	101	1048576	44	5944
2026-01-07 20:07:58.37	338.21	42.75	-32.6	-33.2	28.0	0.00e+00	0	36	101	1048576	44	5642
2026-01-07 20:08:02.42	336.45	43.35	-32.5	-33.1	28.0	0.00e+00	0	36	101	1048576	44	5568
2026-01-07 20:08:06.46	334.62	43.93	-32.9	-33.5	27.7	0.00e+00	0	36	101	1048576	44	5844
2026-01-07 20:08:10.50	332.73	44.48	-33.1	-33.7	27.5	0.00e+00	0	36	101	1048576	44	5992
2026-01-07 20:08:14.55	330.77	45.01	-32.2	-32.8	28.2	0.00e+00	0	36	101	1048576	44	5417
2026-01-07 20:08:18.59	328.75	45.50	-32.3	-32.9	28.2	0.00e+00	0	36	101	1048576	44	5488
2026-01-07 20:08:22.63	326.66	45.96	-33.3	-33.9	27.4	0.00e+00	0	36	101	1048576	44	6108
2026-01-07 20:08:26.68	324.51	46.38	-32.9	-33.5	27.7	0.00e+00	0	36	101	1048576	44	5867
2026-01-07 20:08:30.72	322.31	46.76	-32.5	-33.1	28.0	0.00e+00	0	36	101	1048576	44	5609
2026-01-07 20:08:34.77	320.06	47.09	-33.0	-33.6	27.6	0.00e+00	0	36	101	1048576	44	5927
2026-01-07 20:08:38.81	317.76	47.38	-32.9	-33.5	27.7	0.00e+00	0	36	101	1048576	44	5869
2026-01-07 20:08:42.86	315.42	47.61	-33.6	-34.2	27.3	0.00e+00	0	36	101	1048576	44	6376
2026-01-07 20:08:46.90	313.06	47.80	-32.7	-33.3	27.8	0.00e+00	0	36	101	1048576	44	5707
2026-01-07 20:08:50.95	310.66	47.93	-33.0	-33.6	27.4	0.00e+00	0	36	101	1048576	44	5909
2026-01-07 20:08:54.99	308.25	48.01	-33.3	-33.9	27.4	0.00e+00	0	36	101	1048576	44	6105
2026-01-07 20:08:59.03	305.84	48.03	-33.5	-34.0	27.3	0.00e+00	0	36	101	1048576	44	6243
2026-01-07 20:09:03.08	303.42	47.99	-33.1	-33.7	27.6	0.00e+00	0	36	101	1048576	44	6014
2026-01-07 20:09:07.12	301.01	47.90	-33.3	-33.9	27.4	0.00e+00	0	36	101	1048576	44	6146
2026-01-07 20:09:11.17	298.62	47.76	-33.2	-33.7	27.6	0.00e+00	0	36	101	1048576	44	6029
2026-01-07 20:09:15.21	296.26	47.56	-33.5	-34.1	27.2	0.00e+00	0	36	101	1048576	44	6278
2026-01-07 20:09:19.26	293.93	47.31	-33.3	-33.9	27.5	0.00e+00	0	36	101	1048576	44	6125
2026-01-07 20:09:23.30	291.64	47.02	-33.4	-34.0	27.3	0.00e+00	0	36	101	1048576	44	6226
2026-01-07 20:09:27.34	289.40	46.67	-33.1	-33.8	27.6	0.00e+00	0	36	101	1048576	44	6037
2026-01-07 20:09:31.39	287.20	46.29	-33.2	-33.8	27.5	0.00e+00	0	36	101	1048576	44	6053
2026-01-07 20:09:35.43	285.07	45.86	-33.1	-33.7	27.7	0.00e+00	0	36	101	1048576	44	5995
2026-01-07 20:09:39.47	283.00	45.39	-32.7	-33.3	27.9	0.00e+00	0	36	101	1048576	44	5753
2026-01-07 20:09:43.52	280.98	44.89	-33.1	-33.6	27.5	0.00e+00	0	36	101	1048576	44	5964
2026-01-07 20:09:47.56	279.04	44.36	-32.8	-33.4	27.9	0.00e+00	0	36	101	1048576	44	5820
2026-01-07 20:09:51.61	277.15	43.79	-32.5	-33.1	28.0	0.00e+00	0	36	101	1048576	44	5603
2026-01-07 20:09:55.65	275.34	43.21	-32.1	-32.7	28.4	0.00e+00	0	36	101	1048576	42	5996
2026-01-07 20:09:59.69	273.59	42.60	-32.1	-32.7	28.3	0.00e+00	0	36	101	1048576	42	5968
2026-01-07 20:10:03.73	271.91	41.97	-32.2	-32.8	28.2	0.00e+00	0	36	101	1048576	42	6064
2026-01-07 20:10:07.78	270.29	41.33	-32.0	-32.6	28.5	0.00e+00	0	36	101	1048576	42	5915
2026-01-07 20:10:11.82	268.74	40.67	-32.4	-33.0	28.1	0.00e+00	0	36	101	1048576	42	6231
2026-01-07 20:10:15.87	267.24	40.01	-32.4	-33.0	28.2	0.00e+00	0	36	101	1048576	42	6201
2026-01-07 20:10:19.91	265.82	39.33	-32.5	-33.1	27.9	0.00e+00	0	36	101	1048576	42	6293
2026-01-07 20:10:23.95	264.45	38.65	-32.4	-33.0	28.2	0.00e+00	0	36	101	1048576	42	6212
2026-01-07 20:10:28.00	263.13	37.96	-32.6	-33.2	28.0	0.00e+00	0	36	101	1048576	42	6371
2026-01-07 20:10:32.04	261.87	37.27	-32.6	-33.2	28.0	0.00e+00	0	36	101	1048576	42	6378
2026-01-07 20:10:36.09	260.66	36.58	-32.5	-33.1	27.9	0.00e+00	0	36	101	1048576	42	6261
2026-01-07 20:10:40.13	259.51	35.89	-32.1	-32.7	28.4	0.00e+00	0	36	101	1048576	42	5997
2026-01-07 20:10:44.18	258.39	35.21	-32.4	-33.0	28.2	0.00e+00	0	36	101	1048576	42	6243
2026-01-07 20:10:48.22	257.33	34.52	-32.1	-32.7	28.3	0.00e+00	0	36	101	1048576	42	5985
2026-01-07 20:10:52.27	256.31	33.84	-32.5	-33.1	27.9	0.00e+00	0	36	101	1048576	42	6303
2026-01-07 20:10:56.31	255.34	33.17	-32.7	-33.3	28.0	0.00e+00	0	36	101	1048576	42	6413
2026-01-07 20:11:00.36	254.40	32.50	-32.4	-33.0	28.2	0.00e+00	0	36	101	1048576	42	6184
2026-01-07 20:11:04.40	253.50	31.83	-32.3	-32.9	28.3	0.00e+00	0	36	101	1048576	42	6143
2026-01-07 20:11:08.45	252.64	31.18	-32.8	-33.4	27.8	0.00e+00	0	36	101	1048576	42	6468
2026-01-07 20:11:12.49	251.81	30.53	-32.2	-33.1	23.6	0.00e+00	0	36	101	1048576	42	6251
2026-01-07 20:11:16.53	251.01	29.89	-32.2	-33.0	23.7	0.00e+00	0	36	101	1048576	42	6232
2026-01-07 20:11:20.58	250.25	29.25	-32.2	-33.0	23.7	0.00e+00	0	36	101	1048576	42	6210
2026-01-07 20:11:24.62	249.51	28.63	-32.0	-32.8	24.0	0.00e+00	0	36	101	1048576	42	6056
2026-01-07 20:11:28.67	248.81	28.01	-32.2	-33.0	23.9	0.00e+00	0	36	101	1048576	42	6208
2026-01-07 20:11:32.71	248.13	27.41	-32.3	-33.1	24.0	0.00e+00	0	36	101	1048576	42	6252
2026-01-07 20:11:36.76	247.47	26.81	-32.7	-33.5	23.7	0.00e+00	0	36	101	1048576	42	6567
2026-01-07 20:11:40.80	246.84	26.22	-32.4	-33.3	23.8	0.00e+00	0	36	101	1048576	42	6395
2026-01-07 20:11:44.85	246.23	25.64	-32.9	-33.7	23.4	0.00e+00	0	36	101	1048576	42	6737
2026-01-07 20:11:48.89	245.65	25.07	-32.8	-33.7	23.3	0.00e+00	0	36	101	1048576	42	6719
2026-01-07 20:11:52.93	245.09	24.51	-32.9	-33.7	23.5	0.00e+00	0	36	101	1048576	42	6761
2026-01-07 20:11:56.97	244.54	23.95	-32.6	-33.4	23.6	0.00e+00	0	36	101	1048576	42	6500
2026-01-07 20:12:01.02	244.02	23.41	-32.3	-33.1	24.0	0.00e+00	0	36	101	1048576	42	6304
2026-01-07 20:12:05.06	243.51	22.87	-32.2	-33.0	23.9	0.00e+00	0	36	101	1048576	42	6227
2026-01-07 20:12:09.10	243.02	22.35	-32.5	-33.3	23.9	0.00e+00	0	36	101	1048576	42	6423
2026-01-07 20:12:13.15	242.55	21.83	-32.8	-33.6	23.8	0.00e+00	0	36	101	1048576	42	6676
2026-01-07 20:12:17.19	242.09	21.32	-32.9	-33.8	23.6	0.00e+00	0	36	101	1048576	44	6043
2026-01-07 20:12:21.23	241.65	20.81	-32.9	-33.8	23.7	0.00e+00	0	36	101	1048576	44	6034
2026-01-07 20:12:25.28	241.22	20.32	-32.8	-33.6	23.8	0.00e+00	0	36	101	1048576	44	5957
2026-01-07 20:12:29.32	240.81	19.83	-33.0	-33.8	23.9	0.00e+00	0	36	101	1048576	44	6077
2026-01-07 20:12:33.36	240.41	19.36	-33.1	-33.9	23.9	0.00e+00	0	36	101	1048576	44	6131
2026-01-07 20:12:37.41	240.02	18.88	-33.5	-34.3	23.6	0.00e+00	0	36	101	1048576	44	6445
2026-01-07 20:12:41.45	239.65	18.42	-33.6	-34.5	23.5	0.00e+00	0	36	101	1048576	44	6551
2026-01-07 20:12:45.49	239.28	17.96	-33.8	-34.6	23.3	0.00e+00	0	36	101	1048576	44	6643
2026-01-07 20:12:49.54	238.93	17.52	-33.5	-34.4	23.4	0.00e+00	0	36	101	1048576	44	6465
2026-01-07 20:12:53.58	238.59	17.07	-33.5	-34.3	23.5	0.00e+00	0	36	101	1048576	44	6417
2026-01-07 20:12:57.63	238.25	16.64	-33.8	-34.6	23.4	0.00e+00	0	36	101	1048576	44	6652
2026-01-07 20:13:01.67	237.93	16.21	-34.1	-34.9	23.2	0.00e+00	0	36	101	1048576	46	6157
2026-01-07 20:13:05.71	237.62	15.79	-34.4	-35.2	23.1	0.00e+00	0	36	101	1048576	46	6376
2026-01-07 20:13:09.76	237.31	15.37	-34.6	-35.5	23.0	0.00e+00	0	36	101	1048576	46	6572
2026-01-07 20:13:13.80	237.02	14.96	-34.8	-35.6	23.0	0.00e+00	0	36	101	1048576	46	6661
2026-01-07 20:13:17.85	236.73	14.56	-35.0	-35.9	22.8	0.00e+00	0	36	101	1048576	46	6859
2026-01-07 20:13:21.89	236.45	14.16	-35.3	-36.1	22.6	0.00e+00	0	36	101	1048576	48	6315
2026-01-07 20:13:25.93	236.18	13.77	-35.6	-36.4	22.5	0.00e+00	0	36	101	1048576	48	6523
2026-01-07 20:13:29.98	235.91	13.38	-35.8	-36.7	22.3	0.00e+00	0	36	101	1048576	48	6751
2026-01-07 20:13:34.02	235.65	13.00	-36.1	-37.0	22.1	0.00e+00	0	36	101	1048576	50	6227
2026-01-07 20:13:38.07	235.40	12.62	-36.4	-37.3	21.8	0.00e+00	0	36	101	1048576	50	6455
2026-01-07 20:13:42.11	235.16	12.25	-36.9	-37.8	21.6	0.00e+00	0	36	101	1048576	50	6817
2026-01-07 20:13:46.15	234.92	11.89	-37.4	-38.3	21.3	0.00e+00	0	36	101	1048576	52	6454
2026-01-07 20:13:50.19	234.69	11.53	-37.8	-38.8	21.0	0.00e+00	0	36	101	1048576	52	6779
2026-01-07 20:13:54.23	234.46	11.17	-38.2	-39.2	20.5	0.00e+00	0	36	101	1048576	54	6365
2026-01-07 20:13:58.28	234.24	10.82	-38.9	-39.9	20.2	0.00e+00	0	36	101	1048576	54	6850
2026-01-07 20:14:02.32	234.03	10.48	-39.3	-40.4	19.8	0.00e+00	0	36	101	1048576	56	6491
2026-01-07 20:14:06.36	233.82	10.13	-39.9	-40.9	19.4	0.00e+00	0	36	101	1048576	56	6913
2026-01-07 20:14:10.40	233.61	9.80	-40.3	-41.4	19.0	0.00e+00	0	36	101	1048576	58	6484
2026-01-07 20:14:14.45	233.41	9.46	-40.8	-41.9	18.6	0.00e+00	0	36	101	1048576	58	6915
2026-01-07 20:14:18.49	233.22	9.13	-41.3	-42.5	18.1	0.00e+00	0	36	101	1048576	60	6593
2026-01-07 20:14:22.53	233.03	8.81	-42.0	-43.0	18.6	0.00e+00	0	36	101	1048576	60	6990
2026-01-07 20:14:26.58	232.84	8.48	-42.5	-43.6	18.0	0.00e+00	0	36	101	1048576	60	7469
2026-01-07 20:14:30.62	232.66	8.17	-43.1	-44.3	17.3	0.00e+00	0	36	101	1048576	60	8080
2026-01-07 20:14:34.67	232.48	7.85	-43.4	-44.7	16.8	0.00e+00	0	36	101	1048576	60	8459
2026-01-07 20:14:38.71	232.31	7.54	-43.8	-45.2	16.2	0.00e+00	0	36	101	1048576	60	8996
2026-01-07 20:14:42.75	232.14	7.23	-44.3	-45.7	15.6	0.00e+00	0	36	101	1048576	60	9524
2026-01-07 20:14:46.79	231.98	6.93	-44.5	-46.1	15.2	0.00e+00	0	36	101	1048576	60	9963
2026-01-07 20:14:50.84	231.81	6.63	-44.8	-46.6	14.6	0.00e+00	0	36	101	1048576	60	10544
2026-01-07 20:14:54.88	231.66	6.33	-45.0	-47.0	14.1	1.10e-06	0	36	101	1048576	60	11086
2026-01-07 20:14:58.92	231.50	6.04	-45.0	-47.4	13.6	1.25e-05	0	36	101	1048576	60	11548
2026-01-07 20:15:02.97	231.35	5.75	-45.4	-47.7	13.1	2.86e-05	0	36	101	1048576	60	12028
2026-01-07 20:15:07.01	231.20	5.46	-45.8	-48.2	12.5	1.17e-04	0	36	101	1048576	60	12723
2026-01-07 20:15:11.05	231.05	5.17	-46.2	-48.7	11.9	4.76e-04	0	36	101	1048576	60	13356
2026-01-07 20:15:15.10	230.91	4.89	-46.5	-49.0	11.4	1.22e-03	0	36	101	1048576	60	13974
2026-01-07 20:15:19.14	230.77	4.61	-46.6	-49.4	10.7	3.67e-03	0	36	101	1048576	60	14601
2026-01-07 20:15:23.19	230.64	4.33	-46.8	-50.0	10.0	7.82e-03	0	36	101	1048576	60	15542
2026-01-07 20:15:27.23	230.50	4.06	-46.9	-50.4	9.4	1.53e-02	0	36	101	1048576	60	16290
2026-01-07 20:15:31.27	230.37	3.79	-47.2	-50.9	8.5	3.79e-02	0	36	101	1048576	60	17263
2026-01-07 20:15:35.32	230.24	3.52	-47.2	-51.3	8.1	6.22e-02	0	36	101	1048576	60	18024
2026-01-07 20:15:39.36	230.12	3.25	-47.5	-51.6	7.4	1.03e-01	0	36	101	1048576	60	18737
2026-01-07 20:15:43.41	229.99	2.99	-47.5	-51.7	7.1	1.59e-01	0	36	101	1048576	60	19030
2026-01-07 20:15:47.45	229.87	2.73	-47.6	-52.4	6.2	2.27e-01	0	36	101	1048576	60	20656
2026-01-07 20:15:51.49	229.75	2.47	-51.8	-63.3	3.6	8.45e-01	0	36	104	1048576	60	71851
2026-01-07 20:15:55.53	229.64	2.21	-51.9	-63.3	3.6	8.44e-01	0	36	104	1048576	60	72526
2026-01-07 20:15:59.58	229.52	1.96	-51.7	-63.3	3.6	8.46e-01	0	36	104	1048576	60	71735
2026-01-07 20:16:03.62	229.41	1.70	-51.1	-63.2	3.6	8.45e-01	0	36	104	1048576	60	71344
2026-01-07 20:16:07.67	229.30	1.45	-51.8	-63.3	3.6	8.45e-01	0	36	104	1048576	60	71810
2026-01-07 20:16:11.71	229.19	1.20	-51.8	-63.3	3.6	8.45e-01	0	36	104	1048576	60	71767
2026-01-07 20:16:15.75	229.09	0.96	-51.8	-63.2	3.6	8.45e-01	0	36	104	1048576	60	71604
2026-01-07 20:16:19.80	228.98	0.71	-51.8	-63.3	3.6	8.45e-01	0	36	104	1048576	60	71719
2026-01-07 20:16:23.84	228.88	0.47	-51.8	-63.2	3.6	8.45e-01	0	36	104	1048576	60	71656
2026-01-07 20:16:27.89	228.78	0.23	-51.8	-63.3	3.6	8.45e-01	0	36	104	1048576	60	71746
2026-01-07 20:16:31.93	228.68	-0.01	-51.8	-63.2	3.6	8.46e-01	0	36	104	1048576	60	71562

#Closed at: 2026-01-07 20:16:34
#Recorded file [1 MB]: D:/lorett/data/35034_260107_230126.dat