passes_logs/2026/01/07/R4.6S_Anadyr_2ch/R4.6S_Anadyr_2ch__20260107_214131_NOAA_21_JPSS-2_rec.log

#Pass ID: 20260107_214131_NOAA 21 (JPSS-2)
#Satellite: NOAA 21 (JPSS-2)
#Configuration: NOAA-21
#almurnet v.1.7.20251203
#Start time: 2026-01-07 21:41:34

#Version: 2.2.20231116
#Station: R4.6S_Anadyr_2ch
#Location: 177.4865 lon 64.73178 lat
#TLE: 1 54234U 22150A   25350.97269056  .00000057  00000+0  47676-4 0  9992
#TLE: 2 54234  98.7466 287.2282 0002043  29.8355 330.2937 14.19525482160692

#Time	Az	El	Level	Level2	SNR	BER	BlckErr	Temp	State	Recorded	gain1	gain2
2026-01-07 21:41:34.15	96.05	0.14	-52.1	-67.1	3.5	1.51e+00	0	33	0	0	60	110285
2026-01-07 21:41:38.19	95.82	0.36	-52.0	-65.1	3.5	1.52e+00	0	34	104	0	60	85515
2026-01-07 21:41:42.23	95.58	0.58	-52.1	-65.1	3.5	1.52e+00	0	34	104	0	60	85167
2026-01-07 21:41:46.28	95.34	0.80	-51.5	-64.8	3.5	1.52e+00	0	34	104	0	60	82013
2026-01-07 21:41:50.32	95.10	1.02	-49.5	-63.3	3.5	1.52e+00	0	35	104	0	60	69375
2026-01-07 21:41:54.36	94.85	1.25	-49.5	-63.4	3.5	1.51e+00	0	35	104	0	60	69744
2026-01-07 21:41:58.41	94.60	1.47	-49.5	-63.4	3.5	1.52e+00	0	35	104	0	60	69952
2026-01-07 21:42:02.45	94.35	1.70	-49.5	-63.4	3.5	1.52e+00	0	35	104	0	60	70309
2026-01-07 21:42:06.50	94.09	1.93	-49.5	-63.3	3.5	1.52e+00	0	35	104	0	60	69452
2026-01-07 21:42:10.54	93.83	2.15	-49.5	-63.3	3.5	1.52e+00	0	35	104	0	60	69316
2026-01-07 21:42:14.58	93.56	2.38	-49.5	-63.4	3.5	1.52e+00	0	35	104	0	60	70217
2026-01-07 21:42:18.63	93.29	2.62	-49.4	-62.8	3.5	1.52e+00	0	35	104	0	60	65139
2026-01-07 21:42:22.67	93.01	2.85	-49.4	-62.0	3.5	1.52e+00	0	35	104	0	60	59623
2026-01-07 21:42:26.71	92.73	3.08	-45.4	-48.1	14.7	8.30e-06	123	35	102	1048576	60	11966
2026-01-07 21:42:30.76	92.45	3.32	-44.6	-46.5	16.1	0.00e+00	123	35	102	1048576	60	10064
2026-01-07 21:42:34.80	92.16	3.55	-47.0	-50.7	12.6	2.94e-02	123	35	0	1048576	60	16151
2026-01-07 21:42:38.85	91.86	3.79	-46.9	-50.0	12.3	1.16e-04	123	35	0	1048576	60	15018
2026-01-07 21:42:42.89	91.56	4.03	-47.3	-50.3	12.5	4.06e-04	123	35	0	1048576	60	15566
2026-01-07 21:42:46.93	91.26	4.27	-45.9	-48.3	14.7	0.00e+00	122	35	101	1048576	60	12283
2026-01-07 21:42:50.98	90.94	4.51	-42.5	-43.8	19.3	0.00e+00	123	35	101	1048576	60	7346
2026-01-07 21:42:55.02	90.63	4.76	-41.2	-42.4	20.6	0.00e+00	121	35	101	1048576	60	6223
2026-01-07 21:42:59.06	90.31	5.00	-41.0	-42.2	20.7	0.00e+00	120	35	101	1048576	60	6098
2026-01-07 21:43:03.11	89.98	5.25	-40.9	-42.1	20.9	0.00e+00	122	35	101	1048576	60	6000
2026-01-07 21:43:07.15	89.65	5.49	-40.7	-41.9	21.1	0.00e+00	123	35	101	1048576	60	5881
2026-01-07 21:43:11.20	89.31	5.74	-40.6	-41.8	21.3	0.00e+00	122	35	101	1048576	60	5794
2026-01-07 21:43:15.24	88.96	5.99	-40.5	-41.7	21.3	0.00e+00	123	35	101	1048576	60	5740
2026-01-07 21:43:19.29	88.61	6.25	-40.3	-41.4	21.6	0.00e+00	123	35	101	1048576	60	5548
2026-01-07 21:43:23.33	88.26	6.50	-40.3	-41.4	21.6	0.00e+00	123	35	101	1048576	60	5572
2026-01-07 21:43:27.37	87.89	6.75	-39.9	-41.0	21.9	0.00e+00	123	35	101	1048576	58	5945
2026-01-07 21:43:31.42	87.52	7.01	-39.8	-40.8	22.1	0.00e+00	123	36	101	1048576	58	5853
2026-01-07 21:43:35.46	87.15	7.27	-39.6	-40.6	22.3	0.00e+00	122	35	101	1048576	58	5705
2026-01-07 21:43:39.50	86.76	7.52	-39.6	-40.7	22.2	0.00e+00	123	36	101	1048576	58	5738
2026-01-07 21:43:43.54	86.37	7.78	-39.4	-40.4	22.5	0.00e+00	123	36	101	1048576	58	5591
2026-01-07 21:43:47.59	85.97	8.05	-39.3	-40.3	22.5	0.00e+00	123	36	101	1048576	58	5525
2026-01-07 21:43:51.63	85.57	8.31	-39.4	-40.4	22.6	0.00e+00	122	35	101	1048576	58	5556
2026-01-07 21:43:55.68	85.15	8.57	-39.3	-40.3	22.6	0.00e+00	122	36	101	1048576	56	6203
2026-01-07 21:43:59.72	84.73	8.84	-39.2	-40.2	22.7	0.00e+00	122	36	101	1048576	56	6070
2026-01-07 21:44:03.76	84.30	9.10	-39.1	-40.0	23.0	0.00e+00	120	36	101	1048576	56	5985
2026-01-07 21:44:07.81	83.87	9.37	-38.9	-39.9	23.1	0.00e+00	123	36	101	1048576	56	5888
2026-01-07 21:44:11.85	83.42	9.64	-39.0	-40.0	23.1	0.00e+00	120	36	101	1048576	56	5939
2026-01-07 21:44:15.90	82.97	9.91	-38.7	-39.7	23.2	0.00e+00	122	36	101	1048576	56	5748
2026-01-07 21:44:19.94	82.50	10.18	-38.8	-39.7	23.2	0.00e+00	122	36	101	1048576	56	5782
2026-01-07 21:44:23.98	82.03	10.45	-38.8	-39.8	23.3	0.00e+00	122	36	101	1048576	56	5801
2026-01-07 21:44:28.03	81.55	10.73	-38.4	-39.4	23.5	0.00e+00	123	36	101	1048576	56	5549
2026-01-07 21:44:32.07	81.06	11.00	-38.6	-39.5	23.5	0.00e+00	123	36	101	1048576	56	5637
2026-01-07 21:44:36.12	80.56	11.28	-38.5	-39.4	23.4	0.00e+00	123	36	101	1048576	56	5588
2026-01-07 21:44:40.16	80.05	11.56	-38.4	-39.3	23.6	0.00e+00	123	36	101	1048576	56	5520
2026-01-07 21:44:44.20	79.53	11.83	-38.3	-39.2	23.7	0.00e+00	123	36	101	1048576	56	5428
2026-01-07 21:44:48.25	79.01	12.11	-38.1	-39.1	23.8	0.00e+00	122	36	101	1048576	54	6009
2026-01-07 21:44:52.29	78.47	12.39	-38.5	-39.5	23.5	0.00e+00	122	36	101	1048576	54	6301
2026-01-07 21:44:56.33	77.92	12.67	-38.1	-39.0	23.9	0.00e+00	122	36	101	1048576	54	5976
2026-01-07 21:45:00.37	77.36	12.95	-37.9	-38.8	24.0	0.00e+00	123	36	101	1048576	54	5845
2026-01-07 21:45:04.42	76.78	13.23	-38.2	-39.1	23.8	0.00e+00	120	36	101	1048576	54	6040
2026-01-07 21:45:08.46	76.20	13.51	-38.2	-39.1	23.8	0.00e+00	123	36	101	1048576	54	6046
2026-01-07 21:45:12.50	75.61	13.79	-38.0	-38.9	24.0	0.00e+00	123	36	101	1048576	54	5921
2026-01-07 21:45:16.55	75.00	14.07	-38.2	-39.2	23.7	0.00e+00	122	36	101	1048576	54	6096
2026-01-07 21:45:20.59	74.39	14.35	-38.2	-39.1	23.8	0.00e+00	122	36	101	1048576	54	6041
2026-01-07 21:45:24.63	73.76	14.64	-38.2	-39.1	23.8	0.00e+00	123	36	101	1048576	54	6062
2026-01-07 21:45:28.68	73.12	14.92	-38.4	-39.4	23.6	0.00e+00	123	36	101	1048576	54	6224
2026-01-07 21:45:32.72	72.46	15.20	-38.4	-39.3	23.7	0.00e+00	123	36	101	1048576	54	6194
2026-01-07 21:45:36.77	71.80	15.48	-38.2	-39.1	23.9	0.00e+00	123	36	101	1048576	54	6063
2026-01-07 21:45:40.81	71.12	15.75	-38.2	-39.1	23.9	0.00e+00	122	36	101	1048576	54	6044
2026-01-07 21:45:44.85	70.43	16.03	-37.9	-38.8	24.1	0.00e+00	122	36	101	1048576	54	5833
2026-01-07 21:45:48.89	69.72	16.31	-38.0	-38.9	24.0	0.00e+00	123	36	101	1048576	54	5910
2026-01-07 21:45:52.94	69.00	16.58	-37.9	-38.9	24.0	0.00e+00	123	36	101	1048576	54	5864
2026-01-07 21:45:56.98	68.27	16.86	-38.0	-38.9	24.0	0.00e+00	123	36	101	1048576	54	5923
2026-01-07 21:46:01.03	67.53	17.13	-38.3	-39.2	23.8	0.00e+00	122	36	101	1048576	54	6134
2026-01-07 21:46:05.07	66.77	17.40	-38.1	-39.0	24.1	0.00e+00	122	36	101	1048576	54	5933
2026-01-07 21:46:09.11	66.00	17.67	-38.0	-38.9	24.1	0.00e+00	122	36	101	1048576	54	5891
2026-01-07 21:46:13.16	65.21	17.93	-37.9	-38.8	24.2	0.00e+00	123	36	101	1048576	54	5841
2026-01-07 21:46:17.20	64.41	18.19	-38.0	-38.9	24.1	0.00e+00	123	36	101	1048576	54	5876
2026-01-07 21:46:21.24	63.60	18.45	-37.8	-38.7	24.1	0.00e+00	122	36	101	1048576	54	5789
2026-01-07 21:46:25.29	62.77	18.71	-37.7	-38.6	24.3	0.00e+00	122	36	101	1048576	54	5709
2026-01-07 21:46:29.33	61.93	18.96	-37.9	-38.9	24.1	0.00e+00	122	36	101	1048576	54	5860
2026-01-07 21:46:33.38	61.07	19.20	-37.8	-38.7	24.2	0.00e+00	123	36	101	1048576	54	5748
2026-01-07 21:46:37.42	60.20	19.45	-37.4	-38.4	24.6	0.00e+00	123	36	101	1048576	54	5533
2026-01-07 21:46:41.46	59.32	19.68	-37.5	-38.4	24.5	0.00e+00	122	36	101	1048576	54	5563
2026-01-07 21:46:45.51	58.42	19.92	-37.4	-38.3	24.6	0.00e+00	122	36	101	1048576	54	5477
2026-01-07 21:46:49.55	57.51	20.15	-37.2	-38.1	24.6	0.00e+00	120	36	101	1048576	54	5361
2026-01-07 21:46:53.59	56.59	20.37	-37.5	-38.4	24.6	0.00e+00	122	36	101	1048576	54	5562
2026-01-07 21:46:57.63	55.65	20.58	-37.2	-38.1	24.7	0.00e+00	123	36	101	1048576	54	5384
2026-01-07 21:47:01.68	54.70	20.79	-37.3	-38.2	24.7	0.00e+00	123	36	101	1048576	54	5453
2026-01-07 21:47:05.72	53.74	21.00	-37.3	-38.2	24.7	0.00e+00	123	36	101	1048576	52	6117
2026-01-07 21:47:09.76	52.76	21.19	-36.9	-37.7	25.0	0.00e+00	121	36	101	1048576	52	5784
2026-01-07 21:47:13.81	51.77	21.38	-37.0	-37.9	24.9	0.00e+00	122	36	101	1048576	52	5875
2026-01-07 21:47:17.85	50.77	21.56	-37.2	-38.1	24.8	0.00e+00	122	36	101	1048576	52	6055
2026-01-07 21:47:21.90	49.76	21.73	-37.2	-38.1	24.8	0.00e+00	123	36	101	1048576	52	6041
2026-01-07 21:47:25.94	48.73	21.89	-37.1	-38.0	24.9	0.00e+00	123	36	101	1048576	52	5963
2026-01-07 21:47:29.98	47.70	22.05	-37.1	-38.0	25.0	0.00e+00	123	36	101	1048576	52	5941
2026-01-07 21:47:34.03	46.66	22.19	-37.2	-38.1	24.8	0.00e+00	123	36	101	1048576	52	5999
2026-01-07 21:47:38.07	45.60	22.33	-37.2	-38.0	24.9	0.00e+00	123	36	101	1048576	52	5994
2026-01-07 21:47:42.11	44.54	22.46	-37.5	-38.4	24.7	0.00e+00	123	36	101	1048576	52	6213
2026-01-07 21:47:46.16	43.47	22.57	-37.5	-38.4	24.6	0.00e+00	123	36	101	1048576	52	6208
2026-01-07 21:47:50.20	42.39	22.68	-37.2	-38.1	24.7	0.00e+00	122	36	101	1048576	52	6044
2026-01-07 21:47:54.25	41.31	22.77	-37.2	-38.1	24.8	0.00e+00	122	36	101	1048576	52	6015
2026-01-07 21:47:58.29	40.22	22.86	-37.4	-38.3	24.7	0.00e+00	122	36	101	1048576	52	6137
2026-01-07 21:48:02.33	39.12	22.93	-37.4	-38.3	24.7	0.00e+00	122	36	101	1048576	52	6147
2026-01-07 21:48:06.38	38.02	22.99	-37.2	-38.1	24.9	0.00e+00	123	36	101	1048576	52	6023
2026-01-07 21:48:10.42	36.91	23.04	-36.8	-37.7	25.2	0.00e+00	123	36	101	1048576	52	5759
2026-01-07 21:48:14.47	35.80	23.08	-37.1	-38.0	24.9	0.00e+00	123	36	101	1048576	52	5982
2026-01-07 21:48:18.51	34.69	23.11	-37.5	-38.4	24.7	0.00e+00	123	36	101	1048576	52	6256
2026-01-07 21:48:22.56	33.58	23.13	-37.4	-38.2	24.8	0.00e+00	123	36	101	1048576	52	6133
2026-01-07 21:48:26.60	32.47	23.13	-36.9	-37.8	25.1	0.00e+00	122	36	101	1048576	52	5831
2026-01-07 21:48:30.64	31.36	23.12	-36.9	-37.7	25.1	0.00e+00	123	36	101	1048576	52	5774
2026-01-07 21:48:34.69	30.24	23.10	-36.9	-37.8	25.0	0.00e+00	122	36	101	1048576	52	5843
2026-01-07 21:48:38.73	29.13	23.07	-37.1	-38.0	24.9	0.00e+00	122	36	101	1048576	52	5961
2026-01-07 21:48:42.78	28.03	23.03	-37.1	-38.0	24.8	0.00e+00	123	36	101	1048576	52	5930
2026-01-07 21:48:46.82	26.92	22.98	-36.9	-37.7	25.0	0.00e+00	123	36	101	1048576	52	5782
2026-01-07 21:48:50.86	25.82	22.91	-36.9	-37.8	25.1	0.00e+00	122	36	101	1048576	52	5812
2026-01-07 21:48:54.91	24.73	22.84	-37.2	-38.1	24.8	0.00e+00	123	36	101	1048576	52	6022
2026-01-07 21:48:58.95	23.64	22.75	-37.1	-38.0	24.9	0.00e+00	123	36	101	1048576	52	5933
2026-01-07 21:49:02.99	22.56	22.65	-37.4	-38.3	24.7	0.00e+00	123	36	101	1048576	52	6158
2026-01-07 21:49:07.04	21.48	22.55	-37.1	-38.0	24.9	0.00e+00	123	36	101	1048576	52	5929
2026-01-07 21:49:11.08	20.42	22.43	-37.1	-38.0	24.8	0.00e+00	122	36	101	1048576	52	5946
2026-01-07 21:49:15.13	19.36	22.30	-37.4	-38.3	24.7	0.00e+00	122	36	101	1048576	52	6163
2026-01-07 21:49:19.17	18.31	22.16	-37.4	-38.3	24.6	0.00e+00	123	36	101	1048576	52	6165
2026-01-07 21:49:23.21	17.27	22.02	-37.3	-38.2	24.6	0.00e+00	123	36	101	1048576	52	6103
2026-01-07 21:49:27.26	16.24	21.86	-37.1	-38.0	24.8	0.00e+00	122	36	101	1048576	52	5986
2026-01-07 21:49:31.30	15.22	21.69	-37.5	-38.4	24.6	0.00e+00	122	36	101	1048576	52	6263
2026-01-07 21:49:35.35	14.21	21.52	-37.6	-38.5	24.6	0.00e+00	120	36	101	1048576	52	6291
2026-01-07 21:49:39.39	13.22	21.34	-37.7	-38.7	24.5	0.00e+00	123	36	101	1048576	52	6430
2026-01-07 21:49:43.44	12.23	21.15	-37.6	-38.5	24.5	0.00e+00	122	36	101	1048576	52	6313
2026-01-07 21:49:47.48	11.26	20.95	-37.2	-38.1	24.8	0.00e+00	123	36	101	1048576	52	6028
2026-01-07 21:49:51.52	10.30	20.75	-37.9	-38.8	24.3	0.00e+00	120	36	101	1048576	52	6541
2026-01-07 21:49:55.56	9.36	20.54	-38.0	-38.9	24.2	0.00e+00	121	36	101	1048576	54	5894
2026-01-07 21:49:59.61	8.42	20.32	-37.4	-38.3	24.7	0.00e+00	122	36	101	1048576	54	5475
2026-01-07 21:50:03.65	7.51	20.10	-37.6	-38.5	24.4	0.00e+00	120	36	101	1048576	54	5658
2026-01-07 21:50:07.70	6.60	19.87	-37.3	-38.2	24.7	0.00e+00	123	36	101	1048576	54	5433
2026-01-07 21:50:11.74	5.71	19.64	-37.6	-38.5	24.5	0.00e+00	121	36	101	1048576	54	5635
2026-01-07 21:50:15.79	4.83	19.40	-37.4	-38.3	24.6	0.00e+00	120	36	101	1048576	54	5506
2026-01-07 21:50:19.83	3.97	19.16	-37.3	-38.2	24.8	0.00e+00	123	36	101	1048576	54	5449
2026-01-07 21:50:23.87	3.12	18.91	-37.8	-38.7	24.4	0.00e+00	122	36	101	1048576	54	5776
2026-01-07 21:50:27.92	2.28	18.66	-37.5	-38.4	24.6	0.00e+00	122	36	101	1048576	54	5557
2026-01-07 21:50:31.96	1.46	18.40	-37.6	-38.5	24.4	0.00e+00	123	36	101	1048576	54	5614
2026-01-07 21:50:36.00	0.65	18.14	-37.6	-38.5	24.6	0.00e+00	122	36	101	1048576	54	5649
2026-01-07 21:50:40.05	359.86	17.88	-37.6	-38.5	24.6	0.00e+00	123	36	101	1048576	54	5630
2026-01-07 21:50:44.09	359.08	17.62	-38.2	-39.2	24.0	0.00e+00	122	36	101	1048576	54	6082
2026-01-07 21:50:48.14	358.31	17.35	-38.2	-39.1	24.0	0.00e+00	123	36	101	1048576	54	6050
2026-01-07 21:50:52.18	357.56	17.08	-37.7	-38.6	24.3	0.00e+00	123	36	101	1048576	54	5699
2026-01-07 21:50:56.23	356.82	16.81	-37.8	-38.7	24.3	0.00e+00	123	36	101	1048576	54	5763
2026-01-07 21:51:00.26	356.10	16.54	-37.4	-38.3	24.5	0.00e+00	123	36	101	1048576	54	5528
2026-01-07 21:51:04.30	355.38	16.26	-37.8	-38.7	24.2	0.00e+00	122	36	101	1048576	54	5763
2026-01-07 21:51:08.34	354.69	15.99	-38.0	-38.9	24.1	0.00e+00	123	36	101	1048576	54	5883
2026-01-07 21:51:12.38	354.00	15.71	-38.0	-39.0	24.0	0.00e+00	123	36	101	1048576	54	5948
2026-01-07 21:51:16.43	353.33	15.43	-38.2	-39.1	23.9	0.00e+00	120	36	101	1048576	54	6048
2026-01-07 21:51:20.47	352.67	15.15	-38.3	-39.2	23.8	0.00e+00	120	36	101	1048576	54	6104
2026-01-07 21:51:24.51	352.02	14.87	-38.2	-39.1	23.9	0.00e+00	123	36	101	1048576	54	6028
2026-01-07 21:51:28.55	351.38	14.59	-38.0	-38.9	24.0	0.00e+00	123	36	101	1048576	54	5901
2026-01-07 21:51:32.60	350.76	14.31	-38.1	-39.1	23.9	0.00e+00	123	36	101	1048576	54	6008
2026-01-07 21:51:36.64	350.15	14.03	-38.1	-39.0	24.0	0.00e+00	123	36	101	1048576	54	5960
2026-01-07 21:51:40.68	349.55	13.75	-38.4	-39.3	23.8	0.00e+00	122	36	101	1048576	54	6196
2026-01-07 21:51:44.73	348.96	13.47	-38.9	-39.9	23.3	0.00e+00	123	36	101	1048576	54	6580
2026-01-07 21:51:48.77	348.38	13.19	-39.1	-40.1	22.9	0.00e+00	123	36	101	1048576	56	6057
2026-01-07 21:51:52.81	347.82	12.91	-38.8	-39.8	23.3	0.00e+00	123	36	101	1048576	56	5809
2026-01-07 21:51:56.86	347.26	12.64	-39.1	-40.1	23.2	0.00e+00	123	36	101	1048576	56	6042
2026-01-07 21:52:00.90	346.72	12.36	-39.4	-40.4	22.8	0.00e+00	122	36	101	1048576	56	6251
2026-01-07 21:52:04.94	346.18	12.08	-39.1	-40.1	23.1	0.00e+00	122	36	101	1048576	56	6008
2026-01-07 21:52:08.99	345.66	11.80	-38.8	-39.8	23.2	0.00e+00	123	36	101	1048576	56	5840
2026-01-07 21:52:13.03	345.14	11.53	-38.8	-39.8	23.4	0.00e+00	123	36	101	1048576	56	5796
2026-01-07 21:52:17.07	344.64	11.25	-39.3	-40.3	22.9	0.00e+00	122	36	101	1048576	56	6138
2026-01-07 21:52:21.12	344.15	10.98	-39.4	-40.4	22.8	0.00e+00	120	36	101	1048576	56	6209
2026-01-07 21:52:25.16	343.66	10.70	-39.1	-40.1	22.9	0.00e+00	123	36	101	1048576	56	6055
2026-01-07 21:52:29.20	343.19	10.43	-39.3	-40.3	22.8	0.00e+00	123	36	101	1048576	56	6180
2026-01-07 21:52:33.25	342.72	10.16	-39.8	-40.8	22.4	0.00e+00	122	36	101	1048576	56	6571
2026-01-07 21:52:37.29	342.26	9.89	-40.3	-41.4	21.8	0.00e+00	122	36	101	1048576	58	6263
2026-01-07 21:52:41.34	341.81	9.62	-39.8	-40.9	22.0	0.00e+00	123	36	101	1048576	58	5904
2026-01-07 21:52:45.38	341.37	9.35	-39.2	-40.2	22.7	0.00e+00	123	36	101	1048576	58	5464
2026-01-07 21:52:49.42	340.94	9.08	-39.5	-40.5	22.7	0.00e+00	122	36	101	1048576	56	6312
2026-01-07 21:52:53.46	340.51	8.82	-39.9	-41.0	22.1	0.00e+00	120	36	101	1048576	56	6656
2026-01-07 21:52:57.51	340.10	8.55	-40.3	-41.4	21.8	0.00e+00	122	36	101	1048576	58	6242
2026-01-07 21:53:01.55	339.69	8.29	-40.3	-41.4	21.6	0.00e+00	123	36	101	1048576	58	6252
2026-01-07 21:53:05.59	339.29	8.03	-39.8	-40.9	22.1	0.00e+00	123	36	101	1048576	58	5878
2026-01-07 21:53:09.64	338.89	7.77	-39.6	-40.6	22.4	0.00e+00	123	36	101	1048576	58	5724
2026-01-07 21:53:13.68	338.50	7.51	-39.7	-40.8	22.2	0.00e+00	122	36	101	1048576	58	5825
2026-01-07 21:53:17.73	338.12	7.25	-40.3	-41.4	21.7	0.00e+00	123	36	101	1048576	58	6211
2026-01-07 21:53:21.77	337.75	7.00	-40.7	-41.8	21.2	0.00e+00	120	36	101	1048576	58	6564
2026-01-07 21:53:25.81	337.39	6.74	-40.8	-41.9	21.1	0.00e+00	123	36	101	1048576	58	6625
2026-01-07 21:53:29.85	337.03	6.49	-40.3	-41.4	21.4	0.00e+00	123	36	101	1048576	58	6273
2026-01-07 21:53:33.90	336.67	6.24	-40.3	-41.5	21.2	0.00e+00	121	36	101	1048576	58	6293
2026-01-07 21:53:37.94	336.33	5.99	-41.0	-42.2	20.3	0.00e+00	123	36	101	1048576	58	6848
2026-01-07 21:53:41.99	335.98	5.74	-42.5	-44.0	18.1	0.00e+00	122	36	101	1048576	60	7512
2026-01-07 21:53:46.03	335.65	5.49	-44.2	-46.5	14.7	0.00e+00	123	36	101	1048576	60	10021
2026-01-07 21:53:50.07	335.32	5.24	-45.8	-49.8	10.1	4.10e-03	121	36	101	1048576	60	14597
2026-01-07 21:53:54.12	335.00	5.00	-46.5	-52.5	6.3	2.10e-01	122	36	101	1048576	60	19861
2026-01-07 21:53:58.16	334.68	4.75	-46.7	-55.7	4.6	8.15e-01	123	36	104	1048576	60	28793
2026-01-07 21:54:02.21	334.37	4.51	-46.9	-58.9	3.5	1.52e+00	0	36	104	1048576	60	41939
2026-01-07 21:54:06.25	334.06	4.27	-47.0	-58.5	3.5	1.51e+00	0	36	104	1048576	60	39695
2026-01-07 21:54:10.29	333.76	4.03	-48.6	-59.0	4.0	1.50e+00	0	36	104	1048576	60	42001
2026-01-07 21:54:14.34	333.46	3.79	-47.1	-59.8	3.5	1.52e+00	0	36	104	1048576	60	46030
2026-01-07 21:54:18.38	333.17	3.55	-47.0	-58.1	3.6	1.51e+00	0	36	104	1048576	60	37984
2026-01-07 21:54:22.39	332.89	3.32	-47.1	-58.1	3.6	1.51e+00	0	36	104	1048576	60	38106
2026-01-07 21:54:26.44	332.61	3.09	-48.0	-57.8	3.6	1.49e+00	0	36	104	1048576	60	36883
2026-01-07 21:54:30.48	332.33	2.85	-52.0	-65.0	3.5	1.51e+00	0	36	104	1048576	60	84358
2026-01-07 21:54:34.52	332.06	2.62	-52.1	-65.2	3.5	1.52e+00	0	36	104	1048576	60	86113
2026-01-07 21:54:38.56	331.79	2.39	-52.1	-65.3	3.5	1.52e+00	0	36	104	1048576	60	86829
2026-01-07 21:54:42.61	331.53	2.16	-52.2	-65.3	3.5	1.52e+00	0	36	104	1048576	60	86655
2026-01-07 21:54:46.65	331.27	1.93	-52.1	-65.1	3.5	1.52e+00	0	36	104	1048576	60	85319
2026-01-07 21:54:50.69	331.01	1.71	-52.1	-65.1	3.5	1.52e+00	0	36	104	1048576	60	85447
2026-01-07 21:54:54.74	330.76	1.48	-52.1	-65.1	3.5	1.52e+00	0	36	104	1048576	60	85123
2026-01-07 21:54:58.78	330.51	1.26	-52.1	-65.1	3.5	1.52e+00	0	36	104	1048576	60	85226
2026-01-07 21:55:02.83	330.27	1.03	-52.1	-65.1	3.5	1.51e+00	0	36	104	1048576	60	85086
2026-01-07 21:55:06.87	330.03	0.81	-52.1	-65.1	3.5	1.52e+00	0	36	104	1048576	60	85262
2026-01-07 21:55:10.91	329.80	0.59	-52.1	-65.1	3.5	1.52e+00	0	36	104	1048576	60	84816
2026-01-07 21:55:14.96	329.56	0.37	-52.0	-65.1	3.5	1.52e+00	0	36	104	1048576	60	85038
2026-01-07 21:55:19.00	329.34	0.15	-52.0	-65.1	3.5	1.52e+00	0	36	104	1048576	60	85034
2026-01-07 21:55:23.04	329.11	-0.06	-52.0	-65.0	3.5	1.52e+00	0	36	104	1048576	60	84632

#Closed at: 2026-01-07 21:55:23
#Recorded file [1 MB]: D:/lorett/data/35034_260108_004134.dat