passes_logs/2026/01/07/R4.6S_Anadyr_2ch/R4.6S_Anadyr_2ch__20260107_033307_AQUA_rec.log

#Pass ID: 20260107_033307_AQUA
#Satellite: AQUA
#Configuration: AQUA
#almurnet v.1.7.20251203
#Start time: 2026-01-07 03:33:09

#Version: 2.2.20231116
#Station: R4.6S_Anadyr_2ch
#Location: 177.4865 lon 64.73178 lat
#TLE: 1 27424U 02022A   25351.00450321  .00000925  00000+0  19503-3 0  9992
#TLE: 2 27424  98.4041 311.9529 0001248 113.7180 322.1616 14.61819266256652

#Time	Az	El	Level	Level2	SNR	BER	BlckErr	Temp	State	Recorded	gain1	gain2
2026-01-07 03:33:09.14	200.15	0.08	-51.2	-63.1	3.5	8.46e-01	0	29	0	0	60	69332
2026-01-07 03:33:13.17	200.40	0.31	-51.4	-69.3	3.5	3.04e+01	0	30	104	0	60	151518
2026-01-07 03:33:17.21	200.65	0.54	-51.4	-69.3	3.5	3.04e+01	0	30	104	0	60	151047
2026-01-07 03:33:21.24	200.90	0.77	-51.4	-69.3	3.5	3.04e+01	0	30	104	0	60	150832
2026-01-07 03:33:25.27	201.16	1.00	-51.4	-69.3	3.5	3.04e+01	0	30	104	0	60	151518
2026-01-07 03:33:29.29	201.42	1.23	-51.4	-69.3	3.5	3.04e+01	0	30	104	0	60	150635
2026-01-07 03:33:33.32	201.69	1.47	-51.4	-69.3	3.5	3.04e+01	0	30	104	0	60	151124
2026-01-07 03:33:37.35	201.96	1.71	-51.4	-69.3	3.5	3.04e+01	0	30	104	0	60	151275
2026-01-07 03:33:41.38	202.23	1.95	-51.4	-69.3	3.5	3.04e+01	0	30	104	0	60	151339
2026-01-07 03:33:45.41	202.51	2.19	-51.4	-69.3	3.5	3.04e+01	0	31	104	0	60	151910
2026-01-07 03:33:49.44	202.80	2.43	-51.4	-69.3	3.5	3.04e+01	0	31	104	0	60	151096
2026-01-07 03:33:53.48	203.09	2.67	-51.4	-69.3	3.5	3.04e+01	0	31	104	0	60	151101
2026-01-07 03:33:57.51	203.38	2.92	-51.4	-69.3	3.5	3.04e+01	0	31	104	0	60	151364
2026-01-07 03:34:01.54	203.68	3.17	-51.4	-69.2	3.5	3.04e+01	0	31	104	0	60	150538
2026-01-07 03:34:05.57	203.99	3.42	-51.4	-69.3	3.5	3.04e+01	0	31	104	0	60	151265
2026-01-07 03:34:09.61	204.30	3.67	-51.5	-69.5	3.5	3.04e+01	0	31	104	0	60	155282
2026-01-07 03:34:13.65	204.62	3.92	-51.6	-69.5	3.5	3.04e+01	0	31	104	0	60	155272
2026-01-07 03:34:17.68	204.94	4.18	-51.6	-69.5	3.5	3.04e+01	0	31	104	0	60	154503
2026-01-07 03:34:21.71	205.27	4.44	-51.2	-69.0	3.5	3.04e+01	0	31	104	0	60	146440
2026-01-07 03:34:25.74	205.60	4.70	-50.4	-68.1	3.5	3.04e+01	0	31	104	0	60	132077
2026-01-07 03:34:29.77	205.94	4.96	-50.4	-68.0	3.5	3.04e+01	0	31	104	0	60	131052
2026-01-07 03:34:33.81	206.29	5.22	-50.4	-67.8	3.5	3.04e+01	0	31	104	0	60	126885
2026-01-07 03:34:37.85	206.64	5.49	-50.4	-68.2	3.5	3.04e+01	0	31	104	0	60	133763
2026-01-07 03:34:41.88	207.01	5.76	-50.4	-68.2	3.5	3.04e+01	0	31	104	0	60	133814
2026-01-07 03:34:45.92	207.37	6.03	-50.4	-67.8	3.5	3.04e+01	0	31	104	0	60	128098
2026-01-07 03:34:49.95	207.75	6.30	-50.4	-67.6	3.6	3.04e+01	0	31	104	0	60	124457
2026-01-07 03:34:53.98	208.13	6.57	-50.2	-64.6	3.7	3.04e+01	0	31	104	0	60	87995
2026-01-07 03:34:58.01	208.52	6.85	-50.3	-66.4	3.5	3.04e+01	0	31	104	524288	60	108031
2026-01-07 03:35:02.05	208.92	7.13	-44.8	-47.1	20.8	3.04e+01	91	31	0	524288	60	11782
2026-01-07 03:35:06.08	209.32	7.41	-45.1	-47.5	20.5	3.04e+01	92	31	0	524288	60	12320
2026-01-07 03:35:10.11	209.74	7.70	-46.5	-49.6	18.3	3.04e+01	86	31	0	524288	60	15599
2026-01-07 03:35:14.15	210.16	7.98	-42.5	-44.2	23.7	3.04e+01	92	31	0	524288	60	8380
2026-01-07 03:35:18.19	210.59	8.27	-42.0	-43.7	24.5	3.04e+01	92	31	101	524288	60	7903
2026-01-07 03:35:22.24	211.04	8.57	-40.9	-42.3	25.5	3.04e+01	92	31	101	524288	60	6803
2026-01-07 03:35:26.28	211.49	8.86	-40.5	-42.0	25.9	3.04e+01	90	31	101	524288	60	6520
2026-01-07 03:35:30.32	211.95	9.16	-40.4	-41.8	26.0	3.04e+01	92	31	101	524288	60	6395
2026-01-07 03:35:34.37	212.42	9.46	-40.3	-41.7	26.2	3.04e+01	92	31	101	524288	60	6286
2026-01-07 03:35:38.41	212.90	9.76	-40.2	-41.6	26.4	3.04e+01	92	31	101	524288	60	6229
2026-01-07 03:35:42.45	213.39	10.06	-39.9	-41.2	26.7	3.04e+01	91	31	101	524288	60	5971
2026-01-07 03:35:46.49	213.89	10.37	-39.9	-41.3	26.6	3.04e+01	92	31	101	524288	60	6020
2026-01-07 03:35:50.53	214.40	10.68	-39.6	-40.9	27.0	3.04e+01	92	31	101	524288	60	5772
2026-01-07 03:35:54.58	214.93	10.99	-39.5	-40.9	27.2	3.04e+01	92	31	101	524288	60	5726
2026-01-07 03:35:58.62	215.47	11.31	-39.6	-40.9	27.1	3.04e+01	90	31	101	524288	60	5762
2026-01-07 03:36:02.66	216.01	11.62	-39.4	-40.8	27.3	3.04e+01	92	31	101	524288	60	5681
2026-01-07 03:36:06.70	216.58	11.94	-39.3	-40.6	27.4	3.04e+01	90	31	101	524288	58	6235
2026-01-07 03:36:10.75	217.15	12.26	-39.3	-40.7	27.4	3.04e+01	92	31	101	524288	58	6288
2026-01-07 03:36:14.79	217.74	12.59	-39.0	-40.3	27.7	3.04e+01	91	31	101	524288	58	6055
2026-01-07 03:36:18.83	218.34	12.91	-39.0	-40.3	27.7	3.04e+01	92	31	101	524288	58	6028
2026-01-07 03:36:22.87	218.95	13.24	-39.0	-40.3	27.8	3.04e+01	92	31	101	524288	58	6031
2026-01-07 03:36:26.91	219.58	13.57	-38.8	-40.1	27.9	3.04e+01	91	31	101	524288	58	5887
2026-01-07 03:36:30.95	220.22	13.90	-38.8	-40.1	28.0	3.04e+01	91	31	101	524288	58	5912
2026-01-07 03:36:35.00	220.88	14.23	-38.6	-39.9	28.1	3.04e+01	89	31	101	524288	58	5761
2026-01-07 03:36:39.04	221.56	14.57	-38.6	-39.9	28.2	3.04e+01	91	31	101	524288	58	5727
2026-01-07 03:36:43.08	222.25	14.90	-38.7	-39.9	28.2	3.04e+01	92	31	101	524288	58	5769
2026-01-07 03:36:47.13	222.96	15.24	-38.6	-39.8	28.2	3.04e+01	91	31	101	524288	58	5709
2026-01-07 03:36:51.17	223.68	15.58	-38.4	-39.7	28.4	3.04e+01	92	31	101	524288	56	6284
2026-01-07 03:36:55.22	224.42	15.92	-38.5	-39.8	28.3	3.04e+01	90	31	101	524288	56	6364
2026-01-07 03:36:59.26	225.18	16.26	-38.5	-39.7	28.4	3.04e+01	90	31	101	524288	56	6335
2026-01-07 03:37:03.30	225.96	16.61	-38.4	-39.6	28.5	3.04e+01	90	31	101	524288	56	6276
2026-01-07 03:37:07.34	226.75	16.95	-38.3	-39.5	28.6	3.04e+01	92	31	101	524288	56	6179
2026-01-07 03:37:11.38	227.56	17.29	-38.4	-39.7	28.6	3.04e+01	92	31	101	524288	56	6304
2026-01-07 03:37:15.43	228.40	17.63	-38.2	-39.4	28.7	3.04e+01	92	31	101	524288	56	6095
2026-01-07 03:37:19.47	229.25	17.97	-38.2	-39.4	28.7	3.04e+01	91	31	101	524288	56	6121
2026-01-07 03:37:23.51	230.12	18.32	-38.0	-39.2	28.9	3.04e+01	92	31	101	524288	56	5992
2026-01-07 03:37:27.55	231.02	18.65	-38.0	-39.2	28.9	3.04e+01	90	31	101	524288	56	5976
2026-01-07 03:37:31.60	231.93	18.99	-37.9	-39.1	29.0	3.04e+01	92	31	101	524288	56	5923
2026-01-07 03:37:35.64	232.87	19.33	-37.8	-39.0	29.1	3.04e+01	91	31	101	524288	56	5855
2026-01-07 03:37:39.68	233.82	19.66	-37.9	-39.1	29.1	3.04e+01	91	31	101	524288	56	5892
2026-01-07 03:37:43.72	234.80	19.99	-37.7	-38.9	29.3	3.04e+01	92	31	101	524288	56	5745
2026-01-07 03:37:47.76	235.80	20.32	-37.7	-38.9	29.2	3.04e+01	92	31	101	524288	56	5764
2026-01-07 03:37:51.80	236.82	20.65	-37.7	-38.9	29.2	3.04e+01	92	31	101	524288	56	5765
2026-01-07 03:37:55.85	237.87	20.97	-37.6	-38.8	29.3	3.04e+01	91	31	101	524288	56	5662
2026-01-07 03:37:59.89	238.93	21.28	-37.5	-38.7	29.4	3.04e+01	90	31	101	524288	56	5652
2026-01-07 03:38:03.93	240.02	21.59	-37.6	-38.8	29.4	3.04e+01	92	31	101	524288	56	5666
2026-01-07 03:38:07.98	241.13	21.89	-37.5	-38.6	29.5	3.04e+01	92	31	101	524288	56	5589
2026-01-07 03:38:12.02	242.27	22.19	-37.6	-38.8	29.4	3.04e+01	92	31	101	524288	56	5710
2026-01-07 03:38:16.06	243.42	22.48	-37.6	-38.8	29.4	3.04e+01	92	31	101	524288	56	5714
2026-01-07 03:38:20.10	244.60	22.76	-37.5	-38.7	29.5	3.04e+01	92	31	101	524288	56	5627
2026-01-07 03:38:24.14	245.79	23.03	-37.7	-38.9	29.3	3.04e+01	91	31	101	524288	56	5790
2026-01-07 03:38:28.18	247.01	23.29	-37.4	-38.6	29.6	3.04e+01	92	31	101	524288	56	5551
2026-01-07 03:38:32.23	248.26	23.54	-37.5	-38.7	29.5	3.04e+01	92	31	101	524288	56	5621
2026-01-07 03:38:36.27	249.51	23.78	-37.6	-38.8	29.4	3.04e+01	92	31	101	524288	56	5705
2026-01-07 03:38:40.31	250.79	24.01	-37.8	-39.0	29.2	3.04e+01	92	31	101	524288	56	5794
2026-01-07 03:38:44.36	252.09	24.23	-37.8	-39.0	29.2	3.04e+01	92	31	101	524288	56	5823
2026-01-07 03:38:48.40	253.41	24.43	-37.6	-38.8	29.4	3.04e+01	92	31	101	524288	56	5688
2026-01-07 03:38:52.45	254.74	24.62	-37.8	-39.0	29.2	3.04e+01	91	31	101	524288	56	5847
2026-01-07 03:38:56.49	256.09	24.79	-37.8	-39.0	29.3	3.04e+01	92	31	101	524288	56	5831
2026-01-07 03:39:00.53	257.45	24.95	-37.8	-39.0	29.3	3.04e+01	86	31	101	524288	56	5813
2026-01-07 03:39:04.57	258.83	25.10	-37.9	-39.1	29.2	3.04e+01	92	31	101	524288	56	5865
2026-01-07 03:39:08.60	260.21	25.23	-37.9	-39.1	29.2	3.04e+01	91	31	101	524288	56	5911
2026-01-07 03:39:12.63	261.61	25.34	-37.8	-39.0	29.3	3.04e+01	90	31	101	524288	56	5830
2026-01-07 03:39:16.66	263.01	25.43	-37.7	-38.9	29.4	3.04e+01	92	31	101	524288	56	5778
2026-01-07 03:39:20.69	264.42	25.51	-38.0	-39.2	29.0	3.04e+01	92	31	101	524288	56	5955
2026-01-07 03:39:24.72	265.84	25.57	-38.1	-39.3	29.0	3.04e+01	93	31	101	524288	56	6019
2026-01-07 03:39:28.74	267.26	25.61	-38.3	-39.6	28.8	3.04e+01	92	31	101	524288	56	6210
2026-01-07 03:39:32.77	268.69	25.64	-38.1	-39.3	29.0	3.04e+01	93	31	101	524288	56	6058
2026-01-07 03:39:36.81	270.12	25.64	-37.8	-39.0	29.4	3.04e+01	92	31	101	524288	56	5849
2026-01-07 03:39:40.84	271.54	25.63	-38.1	-39.3	29.1	3.04e+01	91	31	101	524288	56	6036
2026-01-07 03:39:44.86	272.96	25.60	-38.1	-39.3	29.1	3.04e+01	92	31	101	524288	56	6028
2026-01-07 03:39:48.90	274.39	25.56	-38.2	-39.4	29.1	3.04e+01	90	31	101	524288	56	6076
2026-01-07 03:39:52.92	275.80	25.49	-38.0	-39.2	29.1	3.04e+01	91	31	101	524288	56	5982
2026-01-07 03:39:56.94	277.20	25.41	-38.0	-39.2	29.2	3.04e+01	91	31	101	524288	56	5964
2026-01-07 03:40:00.97	278.60	25.31	-38.0	-39.2	29.2	3.04e+01	92	31	101	524288	56	5983
2026-01-07 03:40:05.00	279.99	25.20	-37.9	-39.0	29.3	3.04e+01	92	31	101	524288	56	5849
2026-01-07 03:40:09.03	281.37	25.06	-37.9	-39.2	29.1	3.04e+01	92	31	101	524288	56	5928
2026-01-07 03:40:13.07	282.74	24.92	-37.9	-39.1	29.2	3.04e+01	92	31	101	524288	56	5884
2026-01-07 03:40:17.10	284.09	24.75	-37.8	-39.0	29.4	3.04e+01	92	31	101	524288	56	5821
2026-01-07 03:40:21.13	285.43	24.58	-37.9	-39.1	29.3	3.04e+01	91	31	101	524288	56	5875
2026-01-07 03:40:25.16	286.75	24.38	-37.9	-39.0	29.3	3.04e+01	92	31	101	524288	56	5857
2026-01-07 03:40:29.19	288.06	24.18	-37.9	-39.1	29.2	3.04e+01	86	31	101	524288	56	5871
2026-01-07 03:40:33.21	289.34	23.96	-37.8	-39.0	29.4	3.04e+01	92	31	101	524288	56	5822
2026-01-07 03:40:37.24	290.61	23.73	-37.7	-38.9	29.4	3.04e+01	92	31	101	524288	56	5755
2026-01-07 03:40:41.27	291.85	23.49	-37.6	-38.8	29.5	3.04e+01	93	31	101	524288	56	5672
2026-01-07 03:40:45.30	293.08	23.24	-37.5	-38.7	29.6	3.04e+01	92	31	101	524288	56	5615
2026-01-07 03:40:49.32	294.29	22.98	-37.9	-39.1	29.2	3.04e+01	92	31	101	524288	56	5879
2026-01-07 03:40:53.35	295.47	22.71	-37.6	-38.8	29.5	3.04e+01	92	31	101	524288	56	5691
2026-01-07 03:40:57.38	296.64	22.43	-37.4	-38.6	29.6	3.04e+01	92	31	101	524288	56	5563
2026-01-07 03:41:01.42	297.78	22.14	-37.4	-38.6	29.6	3.04e+01	92	31	101	524288	56	5573
2026-01-07 03:41:05.45	298.90	21.85	-37.3	-38.5	29.7	3.04e+01	90	31	101	524288	54	6168
2026-01-07 03:41:09.48	300.00	21.55	-37.5	-38.7	29.5	3.04e+01	91	31	101	524288	54	6332
2026-01-07 03:41:13.51	301.08	21.24	-37.4	-38.6	29.6	3.04e+01	91	31	101	524288	54	6216
2026-01-07 03:41:17.54	302.13	20.93	-37.3	-38.5	29.7	3.04e+01	92	31	101	524288	54	6158
2026-01-07 03:41:21.57	303.16	20.61	-37.2	-38.4	29.6	3.04e+01	57	31	101	524288	54	6126
2026-01-07 03:41:25.60	304.17	20.29	-37.2	-38.4	29.8	3.04e+01	59	31	101	524288	54	6082
2026-01-07 03:41:29.63	305.16	19.96	-37.4	-38.6	29.5	3.04e+01	62	31	101	524288	54	6211
2026-01-07 03:41:33.66	306.13	19.64	-37.7	-38.9	29.3	3.04e+01	59	32	101	524288	54	6479
2026-01-07 03:41:37.69	307.08	19.30	-37.5	-38.7	29.4	3.04e+01	60	31	101	524288	54	6296
2026-01-07 03:41:41.71	308.00	18.97	-37.2	-38.4	29.8	3.04e+01	60	31	101	524288	54	6080
2026-01-07 03:41:45.75	308.90	18.64	-37.1	-38.2	29.8	3.04e+01	56	31	101	524288	54	5985
2026-01-07 03:41:49.78	309.79	18.30	-37.0	-38.2	29.9	3.04e+01	61	31	101	524288	54	5970
2026-01-07 03:41:53.81	310.65	17.96	-37.1	-38.3	29.8	3.04e+01	61	31	101	524288	54	6025
2026-01-07 03:41:57.84	311.50	17.62	-37.0	-38.1	29.9	3.04e+01	61	31	101	524288	54	5907
2026-01-07 03:42:01.87	312.32	17.29	-37.1	-38.3	29.6	3.04e+01	62	31	101	524288	54	5999
2026-01-07 03:42:05.90	313.13	16.95	-37.1	-38.3	29.8	3.04e+01	59	31	101	524288	54	6035
2026-01-07 03:42:09.92	313.91	16.61	-36.9	-38.1	30.0	3.04e+01	59	31	101	524288	54	5896
2026-01-07 03:42:13.96	314.68	16.27	-36.9	-38.1	30.0	3.04e+01	54	31	101	524288	54	5863
2026-01-07 03:42:17.99	315.43	15.93	-36.9	-38.0	30.0	3.04e+01	57	31	101	524288	54	5856
2026-01-07 03:42:22.02	316.17	15.60	-36.7	-37.9	30.1	3.04e+01	58	31	101	524288	54	5731
2026-01-07 03:42:26.05	316.88	15.26	-36.7	-37.9	30.2	3.04e+01	60	31	101	524288	54	5741
2026-01-07 03:42:30.08	317.58	14.93	-36.9	-38.1	29.9	3.04e+01	58	31	101	524288	54	5877
2026-01-07 03:42:34.11	318.27	14.60	-36.6	-37.8	30.2	3.04e+01	60	31	101	524288	54	5670
2026-01-07 03:42:38.14	318.94	14.26	-36.7	-37.9	30.0	3.04e+01	58	31	101	524288	54	5775
2026-01-07 03:42:42.17	319.59	13.93	-36.7	-37.8	30.1	3.04e+01	59	31	101	524288	54	5707
2026-01-07 03:42:46.20	320.23	13.61	-36.7	-37.8	30.1	3.04e+01	48	31	101	524288	54	5715
2026-01-07 03:42:50.23	320.85	13.28	-36.7	-37.9	30.1	3.04e+01	59	31	101	524288	54	5761
2026-01-07 03:42:54.26	321.46	12.96	-36.8	-38.0	29.9	3.04e+01	51	31	101	524288	54	5806
2026-01-07 03:42:58.29	322.06	12.64	-36.6	-37.7	30.2	3.04e+01	57	31	101	524288	54	5656
2026-01-07 03:43:02.32	322.64	12.32	-36.7	-37.9	30.1	3.04e+01	53	31	101	524288	54	5734
2026-01-07 03:43:06.36	323.21	12.00	-36.9	-38.1	29.8	3.04e+01	58	31	101	524288	54	5872
2026-01-07 03:43:10.41	323.77	11.68	-37.0	-38.2	29.9	3.04e+01	53	31	101	524288	54	5959
2026-01-07 03:43:14.45	324.32	11.37	-36.9	-38.0	29.9	3.04e+01	59	31	101	524288	54	5847
2026-01-07 03:43:18.49	324.85	11.06	-36.7	-37.8	30.1	3.04e+01	55	31	101	524288	54	5701
2026-01-07 03:43:22.53	325.37	10.75	-36.7	-37.9	30.0	3.04e+01	60	31	101	524288	54	5755
2026-01-07 03:43:26.57	325.88	10.44	-36.8	-38.0	29.9	3.04e+01	45	31	101	524288	54	5833
2026-01-07 03:43:30.61	326.39	10.14	-37.0	-38.2	29.7	3.04e+01	59	31	101	524288	54	5982
2026-01-07 03:43:34.65	326.87	9.84	-37.0	-38.2	29.7	3.04e+01	45	31	101	524288	54	5927
2026-01-07 03:43:38.69	327.35	9.54	-36.9	-38.0	29.8	3.04e+01	60	31	101	524288	54	5852
2026-01-07 03:43:42.73	327.82	9.24	-36.9	-38.1	29.8	3.04e+01	45	31	101	524288	54	5890
2026-01-07 03:43:46.78	328.28	8.94	-37.0	-38.2	29.7	3.04e+01	59	31	101	524288	54	5954
2026-01-07 03:43:50.82	328.73	8.65	-37.1	-38.3	29.6	3.04e+01	56	31	101	524288	54	6049
2026-01-07 03:43:54.86	329.18	8.36	-37.1	-38.3	29.6	3.04e+01	59	31	101	524288	54	6034
2026-01-07 03:43:58.91	329.61	8.08	-37.3	-38.5	29.4	3.04e+01	50	31	101	524288	54	6187
2026-01-07 03:44:02.93	330.03	7.79	-37.2	-38.4	29.4	3.04e+01	59	31	101	524288	54	6112
2026-01-07 03:44:06.97	330.44	7.51	-37.4	-38.6	29.2	3.04e+01	57	31	101	524288	54	6271
2026-01-07 03:44:11.01	330.85	7.23	-37.3	-38.5	29.3	3.04e+01	60	31	101	524288	54	6202
2026-01-07 03:44:15.05	331.25	6.95	-37.5	-38.7	29.1	3.04e+01	59	31	101	524288	54	6289
2026-01-07 03:44:19.09	331.64	6.68	-37.6	-38.8	29.1	3.04e+01	60	31	101	524288	54	6370
2026-01-07 03:44:23.14	332.02	6.40	-37.8	-39.1	28.9	3.04e+01	58	31	101	524288	54	6598
2026-01-07 03:44:27.18	332.40	6.13	-37.8	-39.1	28.8	3.04e+01	58	31	101	524288	54	6598
2026-01-07 03:44:31.22	332.77	5.86	-37.9	-39.1	28.7	3.04e+01	60	31	101	524288	54	6624
2026-01-07 03:44:35.26	333.13	5.60	-37.9	-39.1	28.7	3.04e+01	60	31	101	524288	54	6619
2026-01-07 03:44:39.31	333.49	5.33	-38.0	-39.3	28.6	3.04e+01	59	31	101	524288	54	6744
2026-01-07 03:44:43.35	333.84	5.07	-38.1	-39.4	28.5	3.04e+01	58	31	101	524288	54	6807
2026-01-07 03:44:47.39	334.18	4.81	-38.1	-39.4	28.5	3.04e+01	58	31	101	524288	56	6090
2026-01-07 03:44:51.43	334.51	4.55	-38.8	-40.1	28.0	3.04e+01	61	31	101	524288	56	6626
2026-01-07 03:44:55.47	334.84	4.29	-39.0	-40.3	27.6	3.04e+01	63	31	101	524288	56	6790
2026-01-07 03:44:59.51	335.17	4.04	-39.0	-49.1	3.6	3.04e+01	0	31	104	524288	56	18730
2026-01-07 03:45:03.56	335.49	3.79	-44.7	-55.7	3.6	3.04e+01	0	31	104	524288	60	31738
2026-01-07 03:45:07.60	335.80	3.54	-40.2	-50.6	3.5	3.04e+01	0	31	104	524288	60	17657
2026-01-07 03:45:11.64	336.11	3.29	-49.9	-65.2	3.5	3.04e+01	0	31	104	524288	60	94717
2026-01-07 03:45:15.68	336.41	3.04	-39.9	-50.2	4.1	3.04e+01	0	31	104	524288	60	16869
2026-01-07 03:45:19.72	336.71	2.80	-44.8	-55.9	3.5	3.04e+01	0	31	104	524288	60	32300
2026-01-07 03:45:23.76	337.00	2.55	-42.8	-53.4	3.5	3.04e+01	0	31	104	524288	60	24208
2026-01-07 03:45:27.80	337.29	2.31	-41.9	-52.3	3.5	3.04e+01	0	32	104	524288	60	21449
2026-01-07 03:45:31.85	337.57	2.07	-42.7	-53.4	3.5	3.04e+01	0	32	104	524288	60	24363
2026-01-07 03:45:35.89	337.85	1.84	-43.2	-54.5	3.5	3.04e+01	0	31	104	524288	60	27466
2026-01-07 03:45:39.93	338.12	1.60	-45.1	-57.4	3.5	3.04e+01	0	32	104	524288	60	38272
2026-01-07 03:45:43.97	338.39	1.37	-46.2	-60.8	3.5	3.04e+01	0	32	104	524288	60	57121
2026-01-07 03:45:48.02	338.65	1.13	-46.6	-64.3	3.5	3.04e+01	0	32	104	524288	60	85440
2026-01-07 03:45:52.06	338.91	0.90	-46.7	-63.5	3.5	3.04e+01	0	32	104	524288	60	77522
2026-01-07 03:45:56.10	339.17	0.67	-46.7	-64.6	3.5	3.04e+01	0	32	104	524288	60	88107
2026-01-07 03:46:00.15	339.42	0.45	-46.9	-64.6	3.5	3.04e+01	0	32	104	524288	60	88627
2026-01-07 03:46:04.19	339.67	0.22	-46.9	-64.7	3.5	3.04e+01	0	32	104	524288	60	89076
2026-01-07 03:46:08.23	339.92	-0.01	-46.8	-64.6	3.6	3.04e+01	0	32	104	524288	60	88272

#Closed at: 2026-01-07 03:46:11
#Recorded file [0 MB]: D:/lorett/data/35034_260107_063309.dat