passes_logs/2026/01/07/R4.6S_Anadyr_2ch/R4.6S_Anadyr_2ch__20260107_070116_TY-40_rec.log

#Pass ID: 20260107_070116_TY-40
#Satellite: TY-40
#Configuration: TY-39_900M
#almurnet v.1.7.20251203
#Start time: 2026-01-07 07:01:46

#Version: 2.2.20231116
#Station: R4.6S_Anadyr_2ch
#Location: 177.4865 lon 64.73178 lat
#TLE: 1 56846U 23081A   25350.97536409  .00002626  00000-0  11966-3 0  9993
#TLE: 2 56846  97.3941  59.4076 0002022  98.6035 261.5430 15.21533877140291

#Time	Az	El	Level	Level2	SNR	BER	BlckErr	Temp	State	Recorded	gain1	gain2
2026-01-07 07:01:46.39	94.95	1.64	-51.2	-62.1	3.4	8.45e-01	0	31	0	0	60	63019
2026-01-07 07:01:49.42	94.63	1.81	-51.5	-54.0	6.1	0.00e+00	0	32	104	0	60	83839
2026-01-07 07:01:52.45	94.31	1.98	-51.5	-54.0	6.1	0.00e+00	0	32	104	0	60	83734
2026-01-07 07:01:55.48	93.98	2.16	-51.5	-54.0	6.1	0.00e+00	0	33	104	0	60	83550
2026-01-07 07:01:58.51	93.65	2.33	-51.5	-54.0	6.1	0.00e+00	0	33	104	0	60	83730
2026-01-07 07:02:01.54	93.31	2.50	-51.5	-54.0	6.1	0.00e+00	0	33	104	0	60	83776
2026-01-07 07:02:04.58	92.97	2.68	-51.5	-54.0	6.1	0.00e+00	0	33	104	0	60	83515
2026-01-07 07:02:07.61	92.62	2.86	-51.5	-54.0	6.1	0.00e+00	0	33	104	0	60	83750
2026-01-07 07:02:10.64	92.26	3.03	-51.5	-54.0	6.1	0.00e+00	0	33	104	0	60	83826
2026-01-07 07:02:13.67	91.90	3.21	-51.5	-54.0	6.1	0.00e+00	0	33	104	0	60	83616
2026-01-07 07:02:16.70	91.54	3.39	-51.5	-54.0	6.1	0.00e+00	0	33	104	0	60	83348
2026-01-07 07:02:19.74	91.17	3.57	-51.5	-54.0	6.1	0.00e+00	0	33	104	0	60	83615
2026-01-07 07:02:22.77	90.79	3.74	-51.5	-54.0	6.1	0.00e+00	0	33	104	0	60	83621
2026-01-07 07:02:25.80	90.41	3.92	-51.5	-54.0	6.1	0.00e+00	0	33	104	0	60	83590
2026-01-07 07:02:28.83	90.02	4.10	-51.5	-54.0	6.0	0.00e+00	0	33	104	0	60	83668
2026-01-07 07:02:31.86	89.62	4.28	-51.5	-54.0	6.1	0.00e+00	0	34	104	0	60	83765
2026-01-07 07:02:34.90	89.22	4.47	-51.5	-54.0	6.1	0.00e+00	0	34	104	0	60	83547
2026-01-07 07:02:37.93	88.81	4.65	-51.5	-54.0	6.0	0.00e+00	0	34	104	0	60	83606
2026-01-07 07:02:40.96	88.40	4.83	-51.5	-54.0	6.1	0.00e+00	0	34	104	0	60	83875
2026-01-07 07:02:44.00	87.97	5.01	-51.5	-54.0	6.1	0.00e+00	0	34	104	0	60	83489
2026-01-07 07:02:47.03	87.54	5.20	-51.5	-54.0	6.1	0.00e+00	0	34	104	0	60	83840
2026-01-07 07:02:50.06	87.11	5.38	-51.5	-54.0	6.1	0.00e+00	0	34	104	0	60	83972
2026-01-07 07:02:53.09	86.66	5.56	-51.5	-54.0	6.1	0.00e+00	0	34	104	0	60	83501
2026-01-07 07:02:56.13	86.21	5.75	-51.5	-54.0	6.1	0.00e+00	0	34	104	0	60	83599
2026-01-07 07:02:59.16	85.76	5.93	-51.5	-54.0	6.1	0.00e+00	0	34	104	0	60	84016
2026-01-07 07:03:02.19	85.29	6.12	-51.5	-54.0	6.1	0.00e+00	0	34	104	0	60	83521
2026-01-07 07:03:05.22	84.82	6.30	-51.5	-54.0	6.1	0.00e+00	0	34	104	0	60	83699
2026-01-07 07:03:08.26	84.34	6.49	-51.5	-54.0	6.1	0.00e+00	0	34	104	0	60	83945
2026-01-07 07:03:11.29	83.85	6.68	-51.5	-54.0	6.1	0.00e+00	0	34	104	0	60	83573
2026-01-07 07:03:14.32	83.35	6.86	-51.5	-54.0	6.1	0.00e+00	0	34	104	0	60	84005
2026-01-07 07:03:17.36	82.85	7.05	-51.5	-54.0	6.1	0.00e+00	0	34	104	0	60	83482
2026-01-07 07:03:20.39	82.33	7.23	-51.5	-54.0	6.1	0.00e+00	0	34	104	0	60	83520
2026-01-07 07:03:23.42	81.81	7.42	-51.5	-54.0	6.1	0.00e+00	0	35	104	0	60	83950
2026-01-07 07:03:26.45	81.28	7.61	-51.5	-54.0	6.1	0.00e+00	0	35	104	0	60	83497
2026-01-07 07:03:29.49	80.74	7.79	-51.5	-54.0	6.1	0.00e+00	0	35	104	0	60	83533
2026-01-07 07:03:32.52	80.20	7.98	-51.5	-54.0	6.1	0.00e+00	0	35	104	0	60	83803
2026-01-07 07:03:35.55	79.64	8.16	-51.5	-54.0	6.1	0.00e+00	0	35	104	0	60	83954
2026-01-07 07:03:38.59	79.07	8.35	-51.5	-54.0	6.1	0.00e+00	0	35	104	0	60	83920
2026-01-07 07:03:41.62	78.50	8.53	-51.5	-54.0	6.1	0.00e+00	0	35	104	0	60	83688
2026-01-07 07:03:44.65	77.92	8.72	-51.5	-54.0	6.1	0.00e+00	0	35	104	0	60	83483
2026-01-07 07:03:47.68	77.33	8.90	-51.5	-54.0	6.1	0.00e+00	0	35	104	0	60	83539
2026-01-07 07:03:50.72	76.72	9.08	-51.5	-54.0	6.1	0.00e+00	0	35	104	0	60	83579
2026-01-07 07:03:53.75	76.11	9.26	-51.5	-53.9	6.1	0.00e+00	0	35	104	0	60	83039
2026-01-07 07:03:56.78	75.49	9.44	-51.5	-54.0	6.1	0.00e+00	0	35	104	0	60	83698
2026-01-07 07:03:59.82	74.86	9.62	-51.5	-54.0	6.1	0.00e+00	0	35	104	0	60	83924
2026-01-07 07:04:02.85	74.22	9.80	-51.5	-54.0	6.1	0.00e+00	0	35	104	0	60	83304
2026-01-07 07:04:05.88	73.57	9.98	-51.5	-54.0	6.1	0.00e+00	0	35	104	0	60	83696
2026-01-07 07:04:08.92	72.91	10.16	-51.5	-54.0	6.1	0.00e+00	0	35	104	0	60	83633
2026-01-07 07:04:11.95	72.24	10.33	-51.5	-54.0	6.1	0.00e+00	0	35	104	0	60	83601
2026-01-07 07:04:14.98	71.56	10.50	-51.5	-54.0	6.1	0.00e+00	0	35	104	0	60	83376
2026-01-07 07:04:18.02	70.87	10.68	-51.5	-54.0	6.1	0.00e+00	0	35	104	0	60	83741
2026-01-07 07:04:21.05	70.17	10.84	-51.5	-54.0	6.1	0.00e+00	0	35	104	0	60	83376
2026-01-07 07:04:24.08	69.47	11.01	-51.5	-53.9	6.1	0.00e+00	0	35	104	0	60	83110
2026-01-07 07:04:27.11	68.75	11.18	-51.5	-54.0	6.1	0.00e+00	0	35	104	0	60	83631
2026-01-07 07:04:30.14	68.02	11.34	-51.5	-54.0	6.1	0.00e+00	0	35	104	0	60	83485
2026-01-07 07:04:33.18	67.28	11.50	-51.5	-54.0	6.1	0.00e+00	0	35	104	0	60	83528
2026-01-07 07:04:36.21	66.53	11.66	-51.5	-54.0	6.1	0.00e+00	0	35	104	0	60	83666
2026-01-07 07:04:39.24	65.77	11.81	-51.5	-53.9	6.1	0.00e+00	0	35	104	0	60	83264
2026-01-07 07:04:42.27	65.01	11.96	-51.5	-54.0	6.1	0.00e+00	0	35	104	0	60	83600
2026-01-07 07:04:45.31	64.23	12.11	-51.5	-54.0	6.1	0.00e+00	0	35	104	0	60	83624
2026-01-07 07:04:48.34	63.44	12.26	-51.5	-54.0	6.1	0.00e+00	0	35	104	0	60	83962
2026-01-07 07:04:51.37	62.64	12.40	-51.5	-54.0	6.1	0.00e+00	0	35	104	0	60	83592
2026-01-07 07:04:54.40	61.84	12.54	-51.5	-53.9	6.1	0.00e+00	0	35	104	0	60	83068
2026-01-07 07:04:57.44	61.02	12.67	-51.5	-54.0	6.1	0.00e+00	0	35	104	0	60	83880
2026-01-07 07:05:00.47	60.20	12.80	-51.5	-54.0	6.1	0.00e+00	0	35	104	0	60	83445
2026-01-07 07:05:03.50	59.37	12.93	-51.5	-54.0	6.1	0.00e+00	0	35	104	0	60	83515
2026-01-07 07:05:06.53	58.53	13.05	-51.5	-54.0	6.1	0.00e+00	0	35	104	0	60	83783
2026-01-07 07:05:09.57	57.68	13.17	-51.5	-54.0	6.1	0.00e+00	0	36	104	0	60	83494
2026-01-07 07:05:12.60	56.82	13.28	-51.5	-54.0	6.1	0.00e+00	0	35	104	0	60	83580
2026-01-07 07:05:15.63	55.96	13.39	-51.5	-54.0	6.1	0.00e+00	0	35	104	0	60	83578
2026-01-07 07:05:18.67	55.08	13.49	-51.5	-54.0	6.1	0.00e+00	0	35	104	0	60	83645
2026-01-07 07:05:21.70	54.20	13.59	-51.5	-54.0	6.1	0.00e+00	0	35	104	0	60	83877
2026-01-07 07:05:24.73	53.32	13.68	-51.5	-54.0	6.1	0.00e+00	0	36	104	0	60	83693
2026-01-07 07:05:27.77	52.42	13.77	-51.5	-54.0	6.0	0.00e+00	0	35	104	0	60	83368
2026-01-07 07:05:30.80	51.53	13.85	-51.5	-54.0	6.1	0.00e+00	0	36	104	0	60	83429
2026-01-07 07:05:33.83	50.62	13.93	-51.5	-54.0	6.1	0.00e+00	0	35	104	0	60	83479
2026-01-07 07:05:36.86	49.71	14.00	-51.5	-53.9	6.1	0.00e+00	0	35	104	0	60	83146
2026-01-07 07:05:39.89	48.80	14.06	-51.5	-54.0	6.1	0.00e+00	0	35	104	0	60	83799
2026-01-07 07:05:42.93	47.88	14.12	-51.5	-54.0	6.1	0.00e+00	0	35	104	0	60	83881
2026-01-07 07:05:45.96	46.96	14.17	-51.5	-53.9	6.1	0.00e+00	0	35	104	0	60	83277
2026-01-07 07:05:48.99	46.03	14.22	-51.5	-54.0	6.1	0.00e+00	0	36	104	0	60	83306
2026-01-07 07:05:52.02	45.10	14.26	-51.5	-54.0	6.1	0.00e+00	0	35	104	0	60	83880
2026-01-07 07:05:55.05	44.17	14.29	-51.5	-54.0	6.1	0.00e+00	0	36	104	0	60	83482
2026-01-07 07:05:58.08	43.24	14.32	-51.5	-54.0	6.1	0.00e+00	0	35	104	0	60	83509
2026-01-07 07:06:01.11	42.30	14.34	-51.5	-54.0	6.1	0.00e+00	0	36	104	0	60	83708
2026-01-07 07:06:04.14	41.37	14.35	-51.5	-54.0	6.1	0.00e+00	0	36	104	0	60	83941
2026-01-07 07:06:07.17	40.43	14.35	-51.5	-54.0	6.1	0.00e+00	0	36	104	0	60	83687
2026-01-07 07:06:10.20	39.49	14.35	-51.5	-54.0	6.1	0.00e+00	0	35	104	0	60	83397
2026-01-07 07:06:13.23	38.56	14.35	-51.5	-54.0	6.1	0.00e+00	0	36	104	0	60	83377
2026-01-07 07:06:16.26	37.62	14.33	-51.5	-54.0	6.1	0.00e+00	0	36	104	0	60	83542
2026-01-07 07:06:19.29	36.69	14.31	-51.5	-54.0	6.1	0.00e+00	0	36	104	0	60	83437
2026-01-07 07:06:22.32	35.76	14.29	-51.5	-54.0	6.1	0.00e+00	0	36	104	0	60	83811
2026-01-07 07:06:25.35	34.83	14.25	-51.5	-54.0	6.1	0.00e+00	0	36	104	0	60	83734
2026-01-07 07:06:28.37	33.90	14.22	-51.5	-54.0	6.1	0.00e+00	0	36	104	0	60	83881
2026-01-07 07:06:31.40	32.98	14.17	-51.5	-54.0	6.1	0.00e+00	0	36	104	0	60	83870
2026-01-07 07:06:34.43	32.06	14.12	-51.5	-54.0	6.1	0.00e+00	0	36	104	0	60	83717
2026-01-07 07:06:37.46	31.14	14.06	-51.5	-54.0	6.1	0.00e+00	0	36	104	0	60	83821
2026-01-07 07:06:40.49	30.23	14.00	-51.5	-54.0	6.1	0.00e+00	0	36	104	0	60	83526
2026-01-07 07:06:43.52	29.32	13.93	-51.5	-54.0	6.1	0.00e+00	0	36	104	0	60	83701
2026-01-07 07:06:46.56	28.42	13.85	-51.5	-54.0	6.1	0.00e+00	0	36	104	0	60	83767
2026-01-07 07:06:49.58	27.52	13.77	-51.5	-54.0	6.1	0.00e+00	0	36	104	0	60	83632
2026-01-07 07:06:52.62	26.63	13.68	-51.5	-54.0	6.1	0.00e+00	0	36	104	0	60	83745
2026-01-07 07:06:55.64	25.75	13.59	-51.5	-54.0	6.1	0.00e+00	0	36	104	0	60	83900
2026-01-07 07:06:58.67	24.88	13.49	-51.5	-54.0	6.1	0.00e+00	0	36	104	0	60	83362
2026-01-07 07:07:01.70	24.01	13.39	-51.5	-54.0	6.1	0.00e+00	0	36	104	0	60	83703
2026-01-07 07:07:04.74	23.14	13.28	-51.5	-54.0	6.1	0.00e+00	0	36	104	0	60	83701
2026-01-07 07:07:07.77	22.29	13.17	-51.5	-54.0	6.1	0.00e+00	0	36	104	0	60	83742
2026-01-07 07:07:10.80	21.44	13.05	-51.5	-54.0	6.1	0.00e+00	0	36	104	0	60	83986
2026-01-07 07:07:13.83	20.61	12.93	-51.5	-54.0	6.1	0.00e+00	0	36	104	0	60	83994
2026-01-07 07:07:16.86	19.78	12.80	-51.5	-54.0	6.1	0.00e+00	0	36	104	0	60	83350
2026-01-07 07:07:19.89	18.96	12.67	-51.5	-54.0	6.1	0.00e+00	0	36	104	0	60	83859
2026-01-07 07:07:22.92	18.15	12.54	-51.5	-54.0	6.1	0.00e+00	0	36	104	0	60	83878
2026-01-07 07:07:25.94	17.35	12.40	-51.5	-54.0	6.1	0.00e+00	0	36	104	0	60	83555
2026-01-07 07:07:28.97	16.56	12.26	-51.5	-54.0	6.1	0.00e+00	0	36	104	0	60	83676
2026-01-07 07:07:32.00	15.77	12.11	-51.5	-54.0	6.1	0.00e+00	0	36	104	0	60	83528
2026-01-07 07:07:35.03	15.00	11.97	-51.5	-54.0	6.1	0.00e+00	0	36	104	0	60	83384
2026-01-07 07:07:38.06	14.24	11.81	-51.5	-54.0	6.1	0.00e+00	0	36	104	0	60	83504
2026-01-07 07:07:41.09	13.48	11.66	-51.5	-54.0	6.1	0.00e+00	0	36	104	0	60	83644
2026-01-07 07:07:44.11	12.74	11.50	-51.5	-54.0	6.1	0.00e+00	0	36	104	0	60	83658
2026-01-07 07:07:47.14	12.01	11.34	-51.5	-54.0	6.0	0.00e+00	0	36	104	0	60	83649
2026-01-07 07:07:50.17	11.28	11.18	-51.5	-54.0	6.1	0.00e+00	0	36	104	0	60	83808
2026-01-07 07:07:53.20	10.57	11.02	-51.5	-54.0	6.1	0.00e+00	0	36	104	0	60	83388
2026-01-07 07:07:56.23	9.86	10.85	-51.5	-54.0	6.1	0.00e+00	0	36	104	0	60	83895
2026-01-07 07:07:59.25	9.17	10.68	-51.5	-54.0	6.1	0.00e+00	0	36	104	0	60	83661
2026-01-07 07:08:02.29	8.48	10.51	-51.5	-54.0	6.1	0.00e+00	0	36	104	0	60	83338
2026-01-07 07:08:05.31	7.81	10.34	-51.5	-54.0	6.1	0.00e+00	0	36	104	0	60	83571
2026-01-07 07:08:08.34	7.15	10.17	-51.5	-54.0	6.1	0.00e+00	0	36	104	0	60	83537
2026-01-07 07:08:11.37	6.49	9.99	-51.5	-54.0	6.1	0.00e+00	0	36	104	0	60	83709
2026-01-07 07:08:14.40	5.84	9.82	-51.5	-54.0	6.1	0.00e+00	0	36	104	0	60	83647
2026-01-07 07:08:17.42	5.21	9.64	-51.5	-54.0	6.1	0.00e+00	0	36	104	0	60	83689
2026-01-07 07:08:20.45	4.58	9.46	-51.5	-54.0	6.1	0.00e+00	0	36	104	0	60	83987
2026-01-07 07:08:23.48	3.97	9.28	-51.5	-54.0	6.1	0.00e+00	0	36	104	0	60	83769
2026-01-07 07:08:26.52	3.36	9.10	-51.5	-54.0	6.1	0.00e+00	0	36	104	0	60	83555
2026-01-07 07:08:29.55	2.76	8.92	-51.5	-54.0	6.1	0.00e+00	0	36	104	0	60	83467
2026-01-07 07:08:32.58	2.17	8.74	-51.5	-54.0	6.1	0.00e+00	0	36	104	0	60	83429
2026-01-07 07:08:35.60	1.60	8.55	-51.5	-54.0	6.1	0.00e+00	0	36	104	0	60	83717
2026-01-07 07:08:38.63	1.03	8.37	-51.5	-54.0	6.1	0.00e+00	0	36	104	0	60	83845
2026-01-07 07:08:41.66	0.46	8.19	-51.5	-54.0	6.1	0.00e+00	0	36	104	0	60	83920
2026-01-07 07:08:44.68	359.91	8.00	-51.5	-54.0	6.1	0.00e+00	0	36	104	0	60	83621
2026-01-07 07:08:47.71	359.37	7.82	-51.5	-54.0	6.1	0.00e+00	0	36	104	0	60	84194
2026-01-07 07:08:50.74	358.84	7.63	-51.5	-54.0	6.1	0.00e+00	0	36	104	0	60	83872
2026-01-07 07:08:53.77	358.31	7.45	-51.5	-54.0	6.1	0.00e+00	0	36	104	0	60	84223
2026-01-07 07:08:56.80	357.79	7.26	-51.5	-54.0	6.1	0.00e+00	0	36	104	0	60	83960
2026-01-07 07:08:59.83	357.28	7.08	-51.5	-54.0	6.1	0.00e+00	0	36	104	0	60	83553
2026-01-07 07:09:02.86	356.78	6.89	-51.5	-54.0	6.1	0.00e+00	0	36	104	0	60	83826
2026-01-07 07:09:05.89	356.29	6.71	-51.5	-54.0	6.1	0.00e+00	0	36	104	0	60	83690
2026-01-07 07:09:08.92	355.80	6.52	-51.5	-54.0	6.1	0.00e+00	0	36	104	0	60	84123
2026-01-07 07:09:11.95	355.33	6.34	-51.5	-54.0	6.1	0.00e+00	0	36	104	0	60	83971
2026-01-07 07:09:14.97	354.86	6.16	-51.5	-54.0	6.1	0.00e+00	0	36	104	0	60	83734
2026-01-07 07:09:18.00	354.40	5.97	-51.5	-54.0	6.1	0.00e+00	0	36	104	0	60	83753
2026-01-07 07:09:21.03	353.94	5.79	-51.5	-54.0	6.1	0.00e+00	0	36	104	0	60	83888
2026-01-07 07:09:24.06	353.50	5.60	-51.5	-54.0	6.1	0.00e+00	0	36	104	0	60	83829
2026-01-07 07:09:27.09	353.06	5.42	-51.5	-54.0	6.1	0.00e+00	0	36	104	0	60	83496
2026-01-07 07:09:30.12	352.62	5.24	-51.5	-54.0	6.1	0.00e+00	0	36	104	0	60	83364
2026-01-07 07:09:33.15	352.20	5.06	-51.5	-54.0	6.1	0.00e+00	0	36	104	0	60	83763
2026-01-07 07:09:36.18	351.78	4.87	-51.5	-54.0	6.1	0.00e+00	0	36	104	0	60	83606
2026-01-07 07:09:39.20	351.37	4.69	-51.5	-54.0	6.1	0.00e+00	0	36	104	0	60	83769
2026-01-07 07:09:42.24	350.96	4.51	-51.5	-54.0	6.1	0.00e+00	0	36	104	0	60	83917
2026-01-07 07:09:45.27	350.56	4.33	-51.5	-54.0	6.1	0.00e+00	0	36	104	0	60	83766
2026-01-07 07:09:48.30	350.17	4.15	-51.5	-54.0	6.1	0.00e+00	0	36	104	0	60	83564
2026-01-07 07:09:51.32	349.78	3.97	-51.5	-54.0	6.1	0.00e+00	0	36	104	0	60	83624
2026-01-07 07:09:54.35	349.40	3.79	-51.5	-54.0	6.0	0.00e+00	0	36	104	0	60	83677
2026-01-07 07:09:57.38	349.03	3.62	-51.5	-54.0	6.1	0.00e+00	0	36	104	0	60	83904
2026-01-07 07:10:00.41	348.66	3.44	-51.5	-54.0	6.1	0.00e+00	0	36	104	0	60	83362
2026-01-07 07:10:03.44	348.30	3.26	-51.5	-54.0	6.1	0.00e+00	0	36	104	0	60	83784
2026-01-07 07:10:06.48	347.94	3.08	-51.5	-54.0	6.1	0.00e+00	0	36	104	0	60	83582
2026-01-07 07:10:09.51	347.59	2.91	-51.5	-54.0	6.1	0.00e+00	0	36	104	0	60	83704
2026-01-07 07:10:12.54	347.24	2.73	-51.5	-54.0	6.1	0.00e+00	0	36	104	0	60	83696
2026-01-07 07:10:15.57	346.90	2.56	-51.5	-54.0	6.1	0.00e+00	0	36	104	0	60	83446
2026-01-07 07:10:18.60	346.57	2.39	-51.5	-54.0	6.1	0.00e+00	0	36	104	0	60	83302
2026-01-07 07:10:21.63	346.24	2.21	-51.5	-54.0	6.1	0.00e+00	0	36	104	0	60	83739
2026-01-07 07:10:24.67	345.91	2.04	-51.5	-54.0	6.1	0.00e+00	0	36	104	0	60	84012
2026-01-07 07:10:27.70	345.59	1.87	-51.5	-54.0	6.1	0.00e+00	0	36	104	0	60	83964
2026-01-07 07:10:30.73	345.28	1.70	-51.5	-54.0	6.1	0.00e+00	0	36	104	0	60	83803
2026-01-07 07:10:33.76	344.97	1.53	-51.5	-54.0	6.1	0.00e+00	0	36	104	0	60	84109
2026-01-07 07:10:36.80	344.66	1.36	-51.5	-54.0	6.1	0.00e+00	0	36	104	0	60	83689
2026-01-07 07:10:39.83	344.36	1.19	-51.5	-54.0	6.1	0.00e+00	0	36	104	0	60	83462
2026-01-07 07:10:42.86	344.06	1.02	-51.5	-54.0	6.1	0.00e+00	0	36	104	0	60	83746
2026-01-07 07:10:45.90	343.77	0.85	-51.5	-54.0	6.1	0.00e+00	0	36	104	0	60	83756
2026-01-07 07:10:48.93	343.48	0.68	-51.5	-54.1	6.1	0.00e+00	0	36	104	0	60	84341
2026-01-07 07:10:51.96	343.20	0.52	-51.5	-54.0	6.1	0.00e+00	0	36	104	0	60	83898
2026-01-07 07:10:55.00	342.92	0.35	-51.5	-54.0	6.1	0.00e+00	0	36	104	0	60	83671
2026-01-07 07:10:58.03	342.64	0.18	-51.5	-53.9	6.1	0.00e+00	0	36	104	0	60	83190
2026-01-07 07:11:01.06	342.37	0.02	-51.5	-54.0	6.1	0.00e+00	0	36	104	0	60	83841

#Closed at: 2026-01-07 07:11:03
#Recorded file [0 MB]: D:/lorett/data/35034_260107_100146.dat