passes_logs/2026/01/07/R4.6S_Anadyr_2ch/R4.6S_Anadyr_2ch__20260107_163446_FENGYUN_3D_rec.log

#Pass ID: 20260107_163446_FENGYUN 3D
#Satellite: FENGYUN 3D
#Configuration: FENGYUN 3D
#almurnet v.1.7.20251203
#Start time: 2026-01-07 16:34:49

#Version: 2.2.20231116
#Station: R4.6S_Anadyr_2ch
#Location: 177.4865 lon 64.73178 lat
#TLE: 1 43010U 17072A   25350.96693137  .00000321  00000+0  17364-3 0  9993
#TLE: 2 43010  98.9888 317.3403 0001146 169.6565 190.4634 14.19686173419132

#Time	Az	El	Level	Level2	SNR	BER	BlckErr	Temp	State	Recorded	gain1	gain2
2026-01-07 16:34:49.83	20.65	0.19	-51.7	-62.6	3.3	8.41e-01	0	34	0	0	60	65549
2026-01-07 16:34:53.87	20.70	0.43	-51.7	-64.0	3.6	8.45e-01	0	34	104	0	60	76978
2026-01-07 16:34:57.91	20.74	0.67	-51.8	-64.2	3.6	8.46e-01	0	34	104	0	60	78691
2026-01-07 16:35:01.96	20.79	0.92	-51.9	-64.2	3.6	8.44e-01	0	34	104	0	60	79027
2026-01-07 16:35:06.00	20.84	1.17	-51.6	-63.9	3.6	8.45e-01	0	34	104	0	60	76018
2026-01-07 16:35:10.04	20.88	1.42	-50.8	-62.9	3.6	8.44e-01	0	34	104	0	60	68471
2026-01-07 16:35:14.09	20.93	1.67	-50.4	-62.6	3.6	8.46e-01	0	34	104	0	60	65455
2026-01-07 16:35:18.13	20.98	1.93	-50.4	-62.4	3.6	8.45e-01	0	34	104	0	60	64369
2026-01-07 16:35:22.18	21.03	2.19	-50.4	-62.7	3.6	8.46e-01	0	34	104	0	60	66247
2026-01-07 16:35:26.22	21.07	2.44	-50.4	-62.7	3.6	8.45e-01	0	34	104	0	60	66291
2026-01-07 16:35:30.26	21.12	2.71	-50.3	-60.8	3.6	8.46e-01	0	34	104	0	60	53545
2026-01-07 16:35:34.31	21.17	2.97	-50.1	-59.1	3.7	8.32e-01	0	34	104	0	60	43943
2026-01-07 16:35:38.35	21.22	3.24	-49.2	-54.0	6.9	2.61e-01	0	34	0	0	60	24367
2026-01-07 16:35:42.40	21.27	3.51	-45.2	-47.0	15.0	2.20e-06	0	34	102	1048576	60	10870
2026-01-07 16:35:46.44	21.33	3.78	-43.4	-44.8	17.0	0.00e+00	0	34	102	1048576	60	8455
2026-01-07 16:35:50.48	21.38	4.06	-45.7	-47.8	13.7	0.00e+00	0	34	102	1048576	60	11969
2026-01-07 16:35:54.53	21.43	4.33	-47.8	-51.1	8.4	4.50e-06	0	34	102	1048576	60	17600
2026-01-07 16:35:58.57	21.48	4.62	-40.3	-41.2	20.7	0.00e+00	0	34	0	1048576	60	5624
2026-01-07 16:36:02.62	21.54	4.90	-39.9	-40.7	21.1	0.00e+00	0	35	0	1048576	58	5964
2026-01-07 16:36:06.66	21.59	5.19	-38.8	-39.6	22.4	0.00e+00	0	35	101	1048576	56	5855
2026-01-07 16:36:10.70	21.65	5.48	-38.8	-39.6	22.7	0.00e+00	0	35	101	1048576	56	5853
2026-01-07 16:36:14.75	21.70	5.77	-38.3	-39.1	22.9	0.00e+00	0	35	101	1048576	56	5537
2026-01-07 16:36:18.79	21.76	6.07	-38.1	-38.9	23.1	0.00e+00	0	35	101	1048576	54	6036
2026-01-07 16:36:22.83	21.82	6.37	-37.9	-38.7	23.3	0.00e+00	0	35	101	1048576	54	5911
2026-01-07 16:36:26.87	21.88	6.67	-37.9	-38.6	23.4	0.00e+00	0	35	101	1048576	54	5887
2026-01-07 16:36:30.92	21.94	6.98	-37.6	-38.3	23.7	0.00e+00	0	35	101	1048576	54	5679
2026-01-07 16:36:34.96	22.00	7.29	-37.6	-38.3	23.8	0.00e+00	0	35	101	1048576	54	5647
2026-01-07 16:36:39.00	22.06	7.60	-37.3	-38.1	24.0	0.00e+00	0	35	101	1048576	54	5519
2026-01-07 16:36:43.05	22.12	7.92	-37.3	-38.0	24.1	0.00e+00	0	35	101	1048576	54	5499
2026-01-07 16:36:47.09	22.18	8.24	-37.2	-37.9	24.3	0.00e+00	0	35	101	1048576	52	6080
2026-01-07 16:36:51.13	22.25	8.57	-37.1	-37.8	24.3	0.00e+00	0	35	101	1048576	52	6030
2026-01-07 16:36:55.17	22.31	8.90	-37.3	-38.0	24.1	0.00e+00	0	35	101	1048576	52	6134
2026-01-07 16:36:59.22	22.38	9.24	-37.1	-37.8	24.4	0.00e+00	0	35	101	1048576	52	5997
2026-01-07 16:37:03.26	22.45	9.58	-37.2	-37.9	24.3	0.00e+00	0	35	101	1048576	52	6079
2026-01-07 16:37:07.31	22.51	9.92	-37.0	-37.7	24.4	0.00e+00	0	35	101	1048576	52	5921
2026-01-07 16:37:11.35	22.58	10.27	-37.3	-38.0	24.3	0.00e+00	0	35	101	1048576	52	6141
2026-01-07 16:37:15.40	22.65	10.63	-36.8	-37.5	24.6	0.00e+00	0	35	101	1048576	52	5789
2026-01-07 16:37:19.44	22.73	10.99	-36.9	-37.6	24.7	0.00e+00	0	35	101	1048576	52	5863
2026-01-07 16:37:23.48	22.80	11.35	-36.9	-37.6	24.6	0.00e+00	0	35	101	1048576	52	5853
2026-01-07 16:37:27.53	22.88	11.72	-36.4	-37.1	25.1	0.00e+00	0	35	101	1048576	52	5508
2026-01-07 16:37:31.57	22.95	12.10	-36.4	-37.1	25.1	0.00e+00	0	35	101	1048576	52	5509
2026-01-07 16:37:35.61	23.03	12.48	-36.5	-37.2	25.1	0.00e+00	0	35	101	1048576	52	5609
2026-01-07 16:37:39.65	23.11	12.87	-36.5	-37.2	25.1	0.00e+00	0	35	101	1048576	52	5572
2026-01-07 16:37:43.70	23.19	13.27	-36.5	-37.2	25.1	0.00e+00	0	35	101	1048576	52	5587
2026-01-07 16:37:47.74	23.28	13.67	-36.4	-37.1	25.2	0.00e+00	0	35	101	1048576	52	5533
2026-01-07 16:37:51.79	23.36	14.07	-36.4	-37.1	25.2	0.00e+00	0	35	101	1048576	52	5519
2026-01-07 16:37:55.83	23.45	14.49	-36.1	-36.8	25.5	0.00e+00	0	35	101	1048576	50	5990
2026-01-07 16:37:59.87	23.54	14.91	-35.8	-36.5	25.7	0.00e+00	0	35	101	1048576	50	5807
2026-01-07 16:38:03.92	23.63	15.34	-35.6	-36.3	25.9	0.00e+00	0	35	101	1048576	50	5638
2026-01-07 16:38:07.96	23.72	15.78	-35.4	-36.0	26.1	0.00e+00	0	35	101	1048576	50	5496
2026-01-07 16:38:12.01	23.82	16.22	-35.1	-35.7	26.4	0.00e+00	0	35	101	1048576	48	5943
2026-01-07 16:38:16.05	23.91	16.68	-35.0	-35.6	26.6	0.00e+00	0	35	101	1048576	48	5858
2026-01-07 16:38:20.09	24.01	17.14	-34.8	-35.4	26.6	0.00e+00	0	35	101	1048576	48	5750
2026-01-07 16:38:24.14	24.12	17.61	-34.4	-35.1	26.9	0.00e+00	0	35	101	1048576	48	5515
2026-01-07 16:38:28.18	24.22	18.09	-34.4	-35.0	27.0	0.00e+00	0	35	101	1048576	48	5502
2026-01-07 16:38:32.22	24.33	18.58	-34.5	-35.2	26.9	0.00e+00	0	35	101	1048576	48	5575
2026-01-07 16:38:36.27	24.44	19.08	-34.2	-34.9	27.2	0.00e+00	0	35	101	1048576	48	5391
2026-01-07 16:38:40.31	24.56	19.59	-34.3	-34.9	27.1	0.00e+00	0	35	101	1048576	48	5431
2026-01-07 16:38:44.35	24.67	20.11	-34.3	-35.0	27.1	0.00e+00	0	35	101	1048576	48	5459
2026-01-07 16:38:48.39	24.80	20.64	-34.1	-34.8	27.3	0.00e+00	0	35	101	1048576	46	5976
2026-01-07 16:38:52.44	24.92	21.18	-34.0	-34.6	27.4	0.00e+00	0	35	101	1048576	46	5842
2026-01-07 16:38:56.48	25.05	21.74	-33.7	-34.3	27.6	0.00e+00	0	35	101	1048576	46	5668
2026-01-07 16:39:00.53	25.18	22.30	-33.9	-34.5	27.6	0.00e+00	0	35	101	1048576	46	5762
2026-01-07 16:39:04.57	25.32	22.88	-33.7	-34.3	27.8	0.00e+00	0	35	101	1048576	46	5647
2026-01-07 16:39:08.61	25.46	23.47	-33.6	-34.2	27.7	0.00e+00	0	35	101	1048576	46	5612
2026-01-07 16:39:12.66	25.61	24.08	-33.5	-34.2	27.9	0.00e+00	0	35	101	1048576	46	5581
2026-01-07 16:39:16.70	25.76	24.70	-33.4	-34.0	27.9	0.00e+00	0	35	101	1048576	46	5482
2026-01-07 16:39:20.75	25.92	25.34	-33.3	-33.9	28.0	0.00e+00	0	35	101	1048576	46	5437
2026-01-07 16:39:24.79	26.08	25.99	-33.2	-33.8	28.1	0.00e+00	0	35	101	1048576	46	5345
2026-01-07 16:39:28.83	26.25	26.66	-33.0	-33.7	28.3	0.00e+00	0	35	101	1048576	44	5906
2026-01-07 16:39:32.88	26.43	27.34	-33.2	-33.8	28.1	0.00e+00	0	35	101	1048576	44	6032
2026-01-07 16:39:36.92	26.61	28.04	-33.3	-33.9	28.0	0.00e+00	0	35	101	1048576	44	6101
2026-01-07 16:39:40.96	26.80	28.76	-33.0	-33.6	28.2	0.00e+00	0	35	101	1048576	44	5895
2026-01-07 16:39:45.01	27.00	29.50	-33.1	-33.7	28.2	0.00e+00	0	35	101	1048576	44	5917
2026-01-07 16:39:49.05	27.21	30.26	-32.9	-33.6	28.3	0.00e+00	0	35	101	1048576	44	5832
2026-01-07 16:39:53.10	27.43	31.04	-33.2	-33.8	28.1	0.00e+00	0	35	101	1048576	44	6031
2026-01-07 16:39:57.14	27.65	31.84	-33.2	-33.9	28.1	0.00e+00	0	35	101	1048576	44	6048
2026-01-07 16:40:01.18	27.89	32.66	-33.0	-33.6	28.3	0.00e+00	0	35	101	1048576	44	5875
2026-01-07 16:40:05.23	28.14	33.50	-32.9	-33.5	28.3	0.00e+00	0	35	101	1048576	44	5813
2026-01-07 16:40:09.27	28.40	34.37	-33.0	-33.7	28.3	0.00e+00	0	35	101	1048576	44	5898
2026-01-07 16:40:13.31	28.68	35.26	-33.0	-33.7	28.3	0.00e+00	0	35	101	1048576	44	5910
2026-01-07 16:40:17.35	28.97	36.18	-32.6	-33.2	28.6	0.00e+00	0	35	101	1048576	44	5582
2026-01-07 16:40:21.40	29.27	37.12	-32.2	-32.8	28.9	0.00e+00	0	35	101	1048576	42	6019
2026-01-07 16:40:25.44	29.60	38.09	-32.5	-33.2	28.6	0.00e+00	0	35	101	1048576	42	6259
2026-01-07 16:40:29.48	29.94	39.08	-32.2	-32.9	28.9	0.00e+00	0	35	101	1048576	42	6037
2026-01-07 16:40:33.52	30.30	40.11	-32.3	-32.9	28.8	0.00e+00	0	35	101	1048576	42	6073
2026-01-07 16:40:37.57	30.69	41.17	-32.4	-33.0	28.7	0.00e+00	0	35	101	1048576	42	6121
2026-01-07 16:40:41.61	31.10	42.25	-32.4	-32.9	28.8	0.00e+00	0	35	101	1048576	42	6095
2026-01-07 16:40:45.66	31.54	43.37	-32.7	-33.3	28.6	0.00e+00	0	35	101	1048576	42	6325
2026-01-07 16:40:49.70	32.01	44.52	-32.8	-33.4	28.4	0.00e+00	0	35	101	1048576	42	6406
2026-01-07 16:40:53.74	32.52	45.70	-33.0	-33.6	28.4	0.00e+00	0	35	101	1048576	42	6564
2026-01-07 16:40:57.79	33.06	46.92	-33.2	-33.9	28.2	0.00e+00	0	35	101	1048576	44	6036
2026-01-07 16:41:01.83	33.65	48.16	-33.0	-33.6	28.3	0.00e+00	0	35	101	1048576	44	5890
2026-01-07 16:41:05.87	34.28	49.45	-33.3	-33.9	28.1	0.00e+00	0	35	101	1048576	44	6074
2026-01-07 16:41:09.92	34.97	50.76	-33.1	-33.6	28.3	0.00e+00	0	35	101	1048576	44	5883
2026-01-07 16:41:13.96	35.73	52.11	-33.4	-34.0	28.1	0.00e+00	0	35	101	1048576	44	6144
2026-01-07 16:41:18.00	36.55	53.49	-33.5	-34.1	28.0	0.00e+00	0	35	101	1048576	44	6211
2026-01-07 16:41:22.04	37.46	54.91	-33.4	-34.0	28.1	0.00e+00	0	35	101	1048576	44	6164
2026-01-07 16:41:26.09	38.46	56.36	-34.0	-34.6	27.6	0.00e+00	0	35	101	1048576	46	5889
2026-01-07 16:41:30.13	39.57	57.83	-34.2	-34.9	27.4	0.00e+00	0	35	101	1048576	46	6046
2026-01-07 16:41:34.17	40.80	59.34	-34.3	-34.9	27.3	0.00e+00	0	35	101	1048576	46	6098
2026-01-07 16:41:38.21	42.19	60.86	-33.6	-34.2	27.9	0.00e+00	0	35	101	1048576	46	5579
2026-01-07 16:41:42.26	43.76	62.42	-33.1	-33.7	28.2	0.00e+00	0	35	101	1048576	44	5923
2026-01-07 16:41:46.30	45.54	63.98	-32.9	-33.5	28.4	0.00e+00	0	35	101	1048576	44	5817
2026-01-07 16:41:50.35	47.58	65.55	-32.3	-32.9	28.8	0.00e+00	0	35	101	1048576	44	5419
2026-01-07 16:41:54.39	49.93	67.12	-32.2	-32.8	28.9	0.00e+00	0	35	101	1048576	42	5968
2026-01-07 16:41:58.44	52.66	68.69	-32.6	-33.2	28.6	0.00e+00	0	35	101	1048576	42	6280
2026-01-07 16:42:02.48	55.84	70.23	-32.5	-33.1	28.8	0.00e+00	0	35	101	1048576	42	6182
2026-01-07 16:42:06.52	59.59	71.72	-32.0	-32.6	29.1	0.00e+00	0	35	101	1048576	42	5859
2026-01-07 16:42:10.56	64.03	73.14	-31.7	-32.3	29.2	0.00e+00	0	35	101	1048576	42	5666
2026-01-07 16:42:14.61	69.31	74.48	-31.8	-32.4	29.2	0.00e+00	0	35	101	1048576	42	5754
2026-01-07 16:42:18.65	75.55	75.67	-31.5	-32.1	29.3	0.00e+00	0	35	101	1048576	40	6227
2026-01-07 16:42:22.69	82.87	76.68	-31.0	-31.6	29.6	0.00e+00	0	35	101	1048576	40	5849
2026-01-07 16:42:26.74	91.29	77.45	-31.3	-31.9	29.6	0.00e+00	0	35	101	1048576	40	6054
2026-01-07 16:42:30.78	100.59	77.93	-30.6	-31.2	29.9	0.00e+00	0	35	101	1048576	40	5579
2026-01-07 16:42:34.82	110.40	78.09	-30.8	-31.5	29.7	0.00e+00	0	35	101	1048576	40	5763
2026-01-07 16:42:38.87	120.21	77.90	-30.9	-31.5	29.7	0.00e+00	0	35	101	1048576	40	5825
2026-01-07 16:42:42.91	129.43	77.38	-30.7	-31.3	29.8	0.00e+00	0	35	101	1048576	40	5670
2026-01-07 16:42:46.95	137.71	76.58	-30.6	-31.2	29.3	0.00e+00	0	35	101	1048576	40	5583
2026-01-07 16:42:51.00	144.93	75.54	-30.7	-31.2	29.8	0.00e+00	0	35	101	1048576	40	5623
2026-01-07 16:42:55.04	151.05	74.33	-30.6	-31.2	29.8	0.00e+00	0	35	101	1048576	40	5606
2026-01-07 16:42:59.08	156.23	72.99	-30.8	-31.4	29.9	0.00e+00	0	35	101	1048576	40	5704
2026-01-07 16:43:03.13	160.59	71.54	-31.3	-31.8	29.4	0.00e+00	0	35	101	1048576	40	6015
2026-01-07 16:43:07.17	164.28	70.04	-31.7	-32.3	29.2	0.00e+00	0	35	101	1048576	40	6341
2026-01-07 16:43:11.21	167.40	68.50	-31.5	-32.2	29.3	0.00e+00	0	35	101	1048576	40	6252
2026-01-07 16:43:15.26	170.09	66.93	-31.7	-32.3	29.1	0.00e+00	0	35	101	1048576	40	6379
2026-01-07 16:43:19.30	172.40	65.35	-31.9	-32.5	29.1	0.00e+00	0	35	101	1048576	42	5796
2026-01-07 16:43:23.34	174.40	63.78	-32.0	-32.5	29.0	0.00e+00	0	35	101	1048576	42	5779
2026-01-07 16:43:27.38	176.15	62.21	-31.9	-32.4	29.1	0.00e+00	0	35	101	1048576	42	5759
2026-01-07 16:43:31.43	177.70	60.66	-32.2	-32.9	28.8	0.00e+00	0	35	101	1048576	42	6036
2026-01-07 16:43:35.47	179.07	59.13	-32.6	-33.2	28.6	0.00e+00	0	35	101	1048576	42	6252
2026-01-07 16:43:39.51	180.30	57.63	-33.1	-33.6	28.3	0.00e+00	0	35	101	1048576	44	5888
2026-01-07 16:43:43.56	181.39	56.15	-33.4	-33.9	28.0	0.00e+00	0	35	101	1048576	44	6077
2026-01-07 16:43:47.60	182.38	54.70	-33.2	-33.8	28.1	0.00e+00	0	35	101	1048576	44	6020
2026-01-07 16:43:51.64	183.28	53.29	-33.4	-34.0	28.0	0.00e+00	0	35	101	1048576	44	6172
2026-01-07 16:43:55.68	184.09	51.90	-33.7	-34.4	27.6	0.00e+00	0	35	101	1048576	44	6445
2026-01-07 16:43:59.73	184.84	50.55	-33.7	-34.3	27.7	0.00e+00	0	35	101	1048576	44	6341
2026-01-07 16:44:03.77	185.52	49.24	-33.0	-33.7	28.3	0.00e+00	0	35	101	1048576	44	5899
2026-01-07 16:44:07.81	186.15	47.95	-33.6	-34.2	27.8	0.00e+00	0	35	101	1048576	44	6299
2026-01-07 16:44:11.86	186.73	46.70	-32.6	-33.1	28.6	0.00e+00	0	35	101	1048576	44	5520
2026-01-07 16:44:15.90	187.27	45.49	-32.6	-33.3	28.6	0.00e+00	0	35	101	1048576	44	5655
2026-01-07 16:44:19.94	187.77	44.31	-32.3	-33.0	28.7	0.00e+00	0	35	101	1048576	44	5450
2026-01-07 16:44:23.98	188.24	43.16	-32.7	-33.2	28.6	0.00e+00	0	35	101	1048576	44	5581
2026-01-07 16:44:28.03	188.67	42.04	-32.7	-33.3	28.6	0.00e+00	0	35	101	1048576	44	5633
2026-01-07 16:44:32.07	189.08	40.96	-32.5	-33.0	28.7	0.00e+00	0	35	101	1048576	44	5480
2026-01-07 16:44:36.12	189.46	39.90	-32.4	-33.1	28.7	0.00e+00	0	35	101	1048576	44	5511
2026-01-07 16:44:40.16	189.82	38.87	-32.1	-32.8	28.9	0.00e+00	0	35	101	1048576	42	5992
2026-01-07 16:44:44.20	190.16	37.88	-32.6	-33.2	28.6	0.00e+00	0	35	101	1048576	42	6315
2026-01-07 16:44:48.25	190.48	36.91	-32.0	-32.6	29.0	0.00e+00	0	35	101	1048576	42	5878
2026-01-07 16:44:52.29	190.79	35.96	-32.0	-32.5	28.9	0.00e+00	0	35	101	1048576	42	5824
2026-01-07 16:44:56.33	191.07	35.05	-32.0	-32.6	28.9	0.00e+00	0	35	101	1048576	42	5835
2026-01-07 16:45:00.37	191.35	34.16	-32.2	-32.8	28.8	0.00e+00	0	35	101	1048576	42	5971
2026-01-07 16:45:04.42	191.61	33.29	-32.6	-33.2	28.4	0.00e+00	0	35	101	1048576	42	6282
2026-01-07 16:45:08.46	191.85	32.45	-32.6	-33.1	28.5	0.00e+00	0	35	101	1048576	42	6235
2026-01-07 16:45:12.51	192.09	31.62	-32.2	-32.8	28.8	0.00e+00	0	35	101	1048576	42	6015
2026-01-07 16:45:16.55	192.31	30.83	-32.5	-33.2	28.6	0.00e+00	0	35	101	1048576	42	6249
2026-01-07 16:45:20.59	192.52	30.05	-32.8	-33.4	28.4	0.00e+00	0	35	101	1048576	42	6459
2026-01-07 16:45:24.64	192.73	29.29	-32.8	-33.3	28.4	0.00e+00	0	35	101	1048576	42	6359
2026-01-07 16:45:28.68	192.93	28.55	-32.7	-33.4	28.4	0.00e+00	0	35	101	1048576	42	6433
2026-01-07 16:45:32.72	193.11	27.83	-32.8	-33.5	28.3	0.00e+00	0	35	101	1048576	42	6514
2026-01-07 16:45:36.77	193.30	27.13	-32.9	-33.5	28.4	0.00e+00	0	35	101	1048576	42	6531
2026-01-07 16:45:40.81	193.47	26.45	-32.7	-33.4	28.4	0.00e+00	0	35	101	1048576	42	6451
2026-01-07 16:45:44.86	193.64	25.78	-32.7	-33.2	28.5	0.00e+00	0	35	101	1048576	42	6296
2026-01-07 16:45:48.90	193.80	25.13	-32.5	-33.1	28.5	0.00e+00	0	35	101	1048576	42	6178
2026-01-07 16:45:52.94	193.95	24.49	-32.8	-33.3	28.3	0.00e+00	0	35	101	1048576	42	6377
2026-01-07 16:45:56.99	194.10	23.87	-33.1	-33.7	28.2	0.00e+00	0	35	101	1048576	42	6628
2026-01-07 16:46:01.03	194.25	23.26	-33.3	-33.8	28.0	0.00e+00	0	35	101	1048576	44	6015
2026-01-07 16:46:05.08	194.39	22.67	-33.3	-33.9	27.9	0.00e+00	0	35	101	1048576	44	6068
2026-01-07 16:46:09.12	194.52	22.09	-33.5	-34.0	27.9	0.00e+00	0	35	101	1048576	44	6140
2026-01-07 16:46:13.16	194.65	21.52	-33.4	-34.0	27.8	0.00e+00	0	35	101	1048576	44	6108
2026-01-07 16:46:17.20	194.78	20.97	-33.5	-34.0	27.7	0.00e+00	0	35	101	1048576	44	6147
2026-01-07 16:46:21.25	194.90	20.43	-33.5	-34.0	27.8	0.00e+00	0	35	101	1048576	44	6172
2026-01-07 16:46:25.29	195.02	19.90	-33.7	-34.3	27.7	0.00e+00	0	35	101	1048576	44	6384
2026-01-07 16:46:29.33	195.13	19.38	-33.8	-34.4	27.6	0.00e+00	0	35	101	1048576	44	6462
2026-01-07 16:46:33.38	195.25	18.87	-34.0	-34.7	27.4	0.00e+00	0	35	101	1048576	44	6651
2026-01-07 16:46:37.42	195.36	18.37	-34.2	-34.9	27.2	0.00e+00	0	35	101	1048576	46	6092
2026-01-07 16:46:41.46	195.46	17.88	-34.5	-35.2	27.0	0.00e+00	0	35	101	1048576	46	6304
2026-01-07 16:46:45.50	195.56	17.40	-34.6	-35.3	26.9	0.00e+00	0	35	101	1048576	46	6326
2026-01-07 16:46:49.54	195.66	16.93	-34.9	-35.6	26.7	0.00e+00	0	35	101	1048576	46	6560
2026-01-07 16:46:53.59	195.76	16.46	-35.0	-35.7	26.6	0.00e+00	0	35	101	1048576	46	6640
2026-01-07 16:46:57.63	195.86	16.01	-35.1	-35.8	26.5	0.00e+00	0	35	101	1048576	48	6016
2026-01-07 16:47:01.68	195.95	15.57	-35.3	-35.9	26.3	0.00e+00	0	35	101	1048576	48	6063
2026-01-07 16:47:05.72	196.04	15.13	-35.5	-36.1	26.1	0.00e+00	0	35	101	1048576	48	6221
2026-01-07 16:47:09.76	196.13	14.70	-35.4	-36.0	26.2	0.00e+00	0	35	101	1048576	48	6159
2026-01-07 16:47:13.80	196.21	14.28	-35.7	-36.3	25.9	0.00e+00	0	35	101	1048576	48	6378
2026-01-07 16:47:17.85	196.30	13.86	-35.6	-36.3	26.1	0.00e+00	0	35	101	1048576	48	6390
2026-01-07 16:47:21.89	196.38	13.45	-35.6	-36.3	26.0	0.00e+00	0	35	101	1048576	48	6378
2026-01-07 16:47:25.94	196.46	13.05	-35.7	-36.2	25.9	0.00e+00	0	35	101	1048576	48	6310
2026-01-07 16:47:29.98	196.54	12.66	-35.8	-36.4	25.9	0.00e+00	0	35	101	1048576	48	6423
2026-01-07 16:47:34.02	196.62	12.27	-35.7	-36.3	25.8	0.00e+00	0	35	101	1048576	48	6343
2026-01-07 16:47:38.07	196.69	11.89	-35.9	-36.5	25.8	0.00e+00	0	35	101	1048576	48	6472
2026-01-07 16:47:42.11	196.76	11.51	-36.0	-36.5	25.6	0.00e+00	0	35	101	1048576	48	6538
2026-01-07 16:47:46.15	196.84	11.14	-36.0	-36.6	25.6	0.00e+00	0	35	101	1048576	48	6552
2026-01-07 16:47:50.20	196.91	10.77	-36.1	-36.7	25.5	0.00e+00	0	35	101	1048576	50	5950
2026-01-07 16:47:54.24	196.98	10.41	-36.3	-36.9	25.3	0.00e+00	0	35	101	1048576	50	6044
2026-01-07 16:47:58.29	197.04	10.06	-36.3	-36.9	25.3	0.00e+00	0	35	101	1048576	50	6093
2026-01-07 16:48:02.31	197.11	9.71	-36.7	-37.4	24.9	0.00e+00	0	35	101	1048576	50	6457
2026-01-07 16:48:06.36	197.18	9.36	-36.8	-37.6	24.8	0.00e+00	0	35	101	1048576	50	6563
2026-01-07 16:48:10.40	197.24	9.02	-36.8	-37.6	24.8	0.00e+00	0	35	101	1048576	50	6554
2026-01-07 16:48:14.44	197.30	8.69	-36.8	-37.6	24.7	0.00e+00	0	35	101	1048576	50	6571
2026-01-07 16:48:18.48	197.36	8.36	-37.0	-37.6	24.6	0.00e+00	0	35	101	1048576	50	6605
2026-01-07 16:48:22.53	197.43	8.03	-37.0	-37.7	24.6	0.00e+00	0	35	101	1048576	52	5903
2026-01-07 16:48:26.57	197.48	7.71	-37.3	-38.1	24.3	0.00e+00	0	35	101	1048576	52	6223
2026-01-07 16:48:30.61	197.54	7.39	-37.3	-38.1	24.2	0.00e+00	0	35	101	1048576	52	6227
2026-01-07 16:48:34.66	197.60	7.07	-37.5	-38.3	24.0	0.00e+00	0	35	101	1048576	52	6327
2026-01-07 16:48:38.70	197.66	6.76	-37.6	-38.3	23.9	0.00e+00	0	35	101	1048576	52	6355
2026-01-07 16:48:42.74	197.71	6.45	-37.7	-38.5	23.8	0.00e+00	0	35	101	1048576	52	6509
2026-01-07 16:48:46.79	197.77	6.15	-37.8	-38.4	23.7	0.00e+00	0	35	101	1048576	52	6449
2026-01-07 16:48:50.83	197.82	5.85	-37.8	-38.6	23.6	0.00e+00	0	35	101	1048576	52	6615
2026-01-07 16:48:54.87	197.88	5.55	-38.1	-38.7	23.4	0.00e+00	0	35	101	1048576	54	5958
2026-01-07 16:48:58.92	197.93	5.26	-38.1	-38.8	23.3	0.00e+00	0	35	101	1048576	54	5994
2026-01-07 16:49:02.96	197.98	4.97	-38.2	-38.9	23.2	0.00e+00	0	35	101	1048576	54	6077
2026-01-07 16:49:07.01	198.03	4.68	-38.2	-39.0	23.1	0.00e+00	0	35	101	1048576	54	6160
2026-01-07 16:49:11.05	198.08	4.40	-38.4	-39.1	22.8	0.00e+00	0	35	101	1048576	54	6209
2026-01-07 16:49:15.09	198.13	4.12	-38.4	-39.1	22.7	0.00e+00	0	35	101	1048576	54	6229
2026-01-07 16:49:19.14	198.18	3.84	-38.7	-39.6	22.4	0.00e+00	0	35	101	1048576	54	6557
2026-01-07 16:49:23.18	198.23	3.56	-38.8	-39.5	22.3	0.00e+00	0	35	101	1048576	54	6512
2026-01-07 16:49:27.22	198.27	3.29	-38.7	-39.6	22.3	0.00e+00	0	35	101	1048576	54	6595
2026-01-07 16:49:31.27	198.32	3.02	-39.4	-40.2	21.7	0.00e+00	0	35	101	1048576	56	6312
2026-01-07 16:49:35.31	198.37	2.75	-39.2	-40.1	21.8	0.00e+00	0	35	101	1048576	56	6213
2026-01-07 16:49:39.35	198.41	2.49	-51.1	-63.4	3.6	8.45e-01	0	35	104	1048576	60	71953
2026-01-07 16:49:43.40	198.46	2.22	-51.7	-64.1	3.6	8.44e-01	0	35	104	1048576	60	77994
2026-01-07 16:49:47.44	198.50	1.96	-51.8	-64.2	3.6	8.44e-01	0	35	104	1048576	60	79295
2026-01-07 16:49:51.48	198.55	1.71	-51.9	-64.2	3.6	8.46e-01	0	35	104	1048576	60	79404
2026-01-07 16:49:55.52	198.59	1.45	-51.9	-64.3	3.6	8.45e-01	0	35	104	1048576	60	79638
2026-01-07 16:49:59.57	198.63	1.20	-51.9	-64.2	3.6	8.45e-01	0	35	104	1048576	60	79183
2026-01-07 16:50:03.61	198.67	0.95	-51.9	-64.2	3.6	8.45e-01	0	35	104	1048576	60	79239
2026-01-07 16:50:07.66	198.72	0.70	-51.9	-64.2	3.6	8.46e-01	0	35	104	1048576	60	79015
2026-01-07 16:50:11.70	198.76	0.45	-51.9	-64.2	3.6	8.45e-01	0	35	104	1048576	60	78831
2026-01-07 16:50:15.74	198.80	0.21	-51.8	-64.2	3.6	8.45e-01	0	35	104	1048576	60	78753
2026-01-07 16:50:19.78	198.84	-0.04	-51.8	-64.1	3.6	8.46e-01	0	35	104	1048576	60	78380

#Closed at: 2026-01-07 16:50:21
#Recorded file [1 MB]: D:/lorett/data/35034_260107_193449.dat