passes_logs/2026/01/07/R4.6S_Anadyr_2ch/R4.6S_Anadyr_2ch__20260107_024902_FENGYUN_3D_rec.log

#Pass ID: 20260107_024902_FENGYUN 3D
#Satellite: FENGYUN 3D
#Configuration: FENGYUN 3D
#almurnet v.1.7.20251203
#Start time: 2026-01-07 02:49:05

#Version: 2.2.20231116
#Station: R4.6S_Anadyr_2ch
#Location: 177.4865 lon 64.73178 lat
#TLE: 1 43010U 17072A   25350.96693137  .00000321  00000+0  17364-3 0  9993
#TLE: 2 43010  98.9888 317.3403 0001146 169.6565 190.4634 14.19686173419132

#Time	Az	El	Level	Level2	SNR	BER	BlckErr	Temp	State	Recorded	gain1	gain2
2026-01-07 02:49:05.20	170.56	0.14	-51.2	-66.3	3.5	1.51e+00	0	29	0	0	60	100553
2026-01-07 02:49:09.22	170.65	0.38	-51.1	-63.5	3.6	8.45e-01	0	30	104	0	60	72615
2026-01-07 02:49:13.26	170.73	0.62	-51.2	-63.6	3.6	8.47e-01	0	31	104	0	60	73505
2026-01-07 02:49:17.28	170.82	0.87	-51.3	-63.7	3.6	8.45e-01	0	30	104	0	60	74532
2026-01-07 02:49:21.31	170.91	1.11	-51.3	-63.7	3.6	8.45e-01	0	31	104	0	60	74815
2026-01-07 02:49:25.34	171.00	1.36	-51.1	-63.4	3.6	8.45e-01	0	31	104	0	60	72256
2026-01-07 02:49:29.36	171.09	1.61	-50.0	-62.2	3.6	8.46e-01	0	31	104	0	60	63142
2026-01-07 02:49:33.39	171.18	1.86	-50.0	-62.2	3.6	8.45e-01	0	31	104	0	60	63123
2026-01-07 02:49:37.42	171.28	2.12	-49.9	-61.9	3.6	8.45e-01	0	31	104	0	60	60365
2026-01-07 02:49:41.44	171.37	2.38	-49.9	-62.0	3.6	8.46e-01	0	31	104	0	60	61237
2026-01-07 02:49:45.48	171.47	2.64	-49.9	-62.2	3.6	8.46e-01	0	31	104	0	60	63047
2026-01-07 02:49:49.51	171.57	2.90	-49.8	-61.4	3.6	8.45e-01	0	31	104	0	60	57021
2026-01-07 02:49:53.54	171.67	3.16	-49.7	-60.1	3.7	8.43e-01	0	31	104	0	60	49607
2026-01-07 02:49:57.57	171.77	3.43	-49.5	-58.2	3.8	8.43e-01	0	31	104	0	60	39732
2026-01-07 02:50:01.59	171.87	3.70	-44.0	-45.6	15.8	0.00e+00	0	31	102	1048576	60	9279
2026-01-07 02:50:05.61	171.98	3.97	-40.2	-41.2	20.1	0.00e+00	0	31	102	1048576	60	5612
2026-01-07 02:50:09.64	172.09	4.25	-42.9	-44.2	16.8	0.00e+00	0	31	102	1048576	60	7916
2026-01-07 02:50:13.67	172.19	4.53	-45.4	-47.6	10.5	0.00e+00	0	31	102	1048576	60	11641
2026-01-07 02:50:17.70	172.30	4.81	-39.1	-39.9	21.5	0.00e+00	0	31	0	1048576	56	6095
2026-01-07 02:50:21.73	172.42	5.09	-37.9	-38.7	22.5	0.00e+00	0	31	101	1048576	54	5920
2026-01-07 02:50:25.77	172.53	5.38	-37.6	-38.4	22.9	0.00e+00	0	31	101	1048576	54	5723
2026-01-07 02:50:29.79	172.65	5.67	-37.5	-38.3	23.0	0.00e+00	0	31	101	1048576	54	5650
2026-01-07 02:50:33.82	172.77	5.96	-37.5	-38.3	23.1	0.00e+00	0	31	101	1048576	54	5680
2026-01-07 02:50:37.84	172.89	6.25	-37.3	-38.0	23.4	0.00e+00	0	31	101	1048576	54	5487
2026-01-07 02:50:41.87	173.01	6.55	-37.2	-38.0	23.5	0.00e+00	0	31	101	1048576	52	6116
2026-01-07 02:50:45.90	173.13	6.86	-37.0	-37.7	23.7	0.00e+00	0	31	101	1048576	52	5954
2026-01-07 02:50:49.92	173.26	7.16	-36.7	-37.4	24.0	0.00e+00	0	31	101	1048576	52	5739
2026-01-07 02:50:53.95	173.39	7.47	-36.6	-37.3	24.2	0.00e+00	0	31	101	1048576	52	5637
2026-01-07 02:50:57.99	173.52	7.79	-36.5	-37.2	24.2	0.00e+00	0	31	101	1048576	52	5625
2026-01-07 02:51:02.03	173.66	8.11	-36.6	-37.3	24.2	0.00e+00	0	31	101	1048576	52	5661
2026-01-07 02:51:06.07	173.80	8.43	-36.4	-37.2	24.3	0.00e+00	0	31	101	1048576	52	5576
2026-01-07 02:51:10.11	173.94	8.75	-36.2	-36.9	24.6	0.00e+00	0	31	101	1048576	50	6035
2026-01-07 02:51:14.15	174.08	9.08	-36.1	-36.8	24.7	0.00e+00	0	31	101	1048576	50	5987
2026-01-07 02:51:18.19	174.23	9.42	-36.1	-36.7	24.7	0.00e+00	0	31	101	1048576	50	5964
2026-01-07 02:51:22.24	174.38	9.76	-36.0	-36.7	24.8	0.00e+00	0	31	101	1048576	50	5925
2026-01-07 02:51:26.28	174.53	10.10	-36.2	-36.9	24.8	0.00e+00	0	31	101	1048576	50	6039
2026-01-07 02:51:30.32	174.69	10.45	-36.2	-36.9	24.8	0.00e+00	0	31	101	1048576	50	6090
2026-01-07 02:51:34.37	174.85	10.81	-36.0	-36.7	24.9	0.00e+00	0	31	101	1048576	50	5963
2026-01-07 02:51:38.41	175.01	11.16	-36.2	-36.9	24.8	0.00e+00	0	31	101	1048576	50	6076
2026-01-07 02:51:42.45	175.18	11.53	-36.0	-36.7	24.9	0.00e+00	0	31	101	1048576	50	5952
2026-01-07 02:51:46.49	175.35	11.90	-36.0	-36.7	24.9	0.00e+00	0	31	101	1048576	50	5911
2026-01-07 02:51:50.54	175.53	12.27	-35.9	-36.5	25.1	0.00e+00	0	31	101	1048576	50	5825
2026-01-07 02:51:54.58	175.71	12.65	-35.7	-36.4	25.3	0.00e+00	0	31	101	1048576	50	5731
2026-01-07 02:51:58.63	175.89	13.04	-35.7	-36.3	25.2	0.00e+00	0	31	101	1048576	50	5688
2026-01-07 02:52:02.67	176.08	13.43	-35.7	-36.4	25.3	0.00e+00	0	31	101	1048576	50	5711
2026-01-07 02:52:06.71	176.27	13.83	-35.5	-36.2	25.5	0.00e+00	0	31	101	1048576	50	5600
2026-01-07 02:52:10.75	176.47	14.23	-35.4	-36.1	25.6	0.00e+00	0	31	101	1048576	50	5521
2026-01-07 02:52:14.79	176.67	14.64	-35.2	-35.9	25.7	0.00e+00	0	31	101	1048576	50	5417
2026-01-07 02:52:18.84	176.88	15.06	-35.1	-35.8	25.9	0.00e+00	0	31	101	1048576	48	6010
2026-01-07 02:52:22.88	177.09	15.49	-34.8	-35.5	26.2	0.00e+00	0	31	101	1048576	48	5772
2026-01-07 02:52:26.92	177.31	15.92	-34.6	-35.3	26.3	0.00e+00	0	31	101	1048576	48	5663
2026-01-07 02:52:30.97	177.54	16.36	-34.4	-35.0	26.6	0.00e+00	0	31	101	1048576	48	5459
2026-01-07 02:52:35.01	177.77	16.81	-34.3	-34.9	26.7	0.00e+00	0	31	101	1048576	48	5436
2026-01-07 02:52:39.06	178.01	17.26	-34.1	-34.8	26.8	0.00e+00	0	31	101	1048576	48	5341
2026-01-07 02:52:43.10	178.25	17.72	-34.1	-34.7	26.9	0.00e+00	0	31	101	1048576	46	5958
2026-01-07 02:52:47.14	178.51	18.20	-34.0	-34.6	26.9	0.00e+00	0	31	101	1048576	46	5895
2026-01-07 02:52:51.18	178.77	18.68	-33.8	-34.4	27.1	0.00e+00	0	31	101	1048576	46	5720
2026-01-07 02:52:55.22	179.03	19.16	-33.6	-34.3	27.2	0.00e+00	0	31	101	1048576	46	5643
2026-01-07 02:52:59.27	179.31	19.66	-33.5	-34.1	27.4	0.00e+00	0	31	101	1048576	46	5559
2026-01-07 02:53:03.31	179.60	20.17	-33.5	-34.1	27.4	0.00e+00	0	31	101	1048576	46	5562
2026-01-07 02:53:07.35	179.89	20.69	-33.3	-33.9	27.5	0.00e+00	0	31	101	1048576	46	5411
2026-01-07 02:53:11.39	180.19	21.22	-33.3	-33.9	27.5	0.00e+00	0	31	101	1048576	44	6085
2026-01-07 02:53:15.44	180.51	21.76	-33.2	-33.9	27.6	0.00e+00	0	31	101	1048576	44	6040
2026-01-07 02:53:19.48	180.83	22.31	-33.1	-33.7	27.8	0.00e+00	0	31	101	1048576	44	5919
2026-01-07 02:53:23.52	181.17	22.87	-32.9	-33.6	27.8	0.00e+00	0	31	101	1048576	44	5840
2026-01-07 02:53:27.57	181.52	23.44	-32.7	-33.3	28.0	0.00e+00	0	31	101	1048576	44	5672
2026-01-07 02:53:31.61	181.88	24.02	-32.7	-33.3	28.0	0.00e+00	0	31	101	1048576	44	5683
2026-01-07 02:53:35.65	182.25	24.62	-32.8	-33.4	27.9	0.00e+00	0	31	101	1048576	44	5741
2026-01-07 02:53:39.70	182.64	25.23	-32.7	-33.4	28.0	0.00e+00	0	31	101	1048576	44	5698
2026-01-07 02:53:43.74	183.04	25.85	-32.5	-33.1	28.2	0.00e+00	0	31	101	1048576	44	5533
2026-01-07 02:53:47.78	183.46	26.48	-32.6	-33.2	28.0	0.00e+00	0	31	101	1048576	44	5629
2026-01-07 02:53:51.83	183.89	27.13	-32.2	-32.9	28.4	0.00e+00	0	31	101	1048576	44	5381
2026-01-07 02:53:55.87	184.34	27.80	-32.2	-32.9	28.5	0.00e+00	0	31	101	1048576	42	6059
2026-01-07 02:53:59.91	184.81	28.47	-32.3	-32.9	28.4	0.00e+00	0	32	101	1048576	42	6102
2026-01-07 02:54:03.96	185.30	29.17	-32.3	-32.9	28.3	0.00e+00	0	32	101	1048576	42	6103
2026-01-07 02:54:08.00	185.81	29.87	-32.3	-32.9	28.4	0.00e+00	0	31	101	1048576	42	6057
2026-01-07 02:54:12.04	186.35	30.59	-32.4	-33.1	28.2	0.00e+00	0	32	101	1048576	42	6189
2026-01-07 02:54:16.07	186.90	31.33	-32.0	-32.6	28.6	0.00e+00	0	31	101	1048576	42	5879
2026-01-07 02:54:20.12	187.49	32.09	-32.4	-33.0	28.4	0.00e+00	0	31	101	1048576	42	6173
2026-01-07 02:54:24.16	188.09	32.85	-32.2	-32.8	28.5	0.00e+00	0	31	101	1048576	42	6030
2026-01-07 02:54:28.20	188.73	33.64	-32.3	-32.9	28.4	0.00e+00	0	31	101	1048576	42	6092
2026-01-07 02:54:32.23	189.40	34.44	-31.9	-32.6	28.7	0.00e+00	0	32	101	1048576	42	5845
2026-01-07 02:54:36.26	190.10	35.26	-31.8	-32.5	28.7	0.00e+00	0	32	101	1048576	42	5785
2026-01-07 02:54:40.28	190.83	36.09	-31.8	-32.5	28.8	0.00e+00	0	31	101	1048576	42	5767
2026-01-07 02:54:44.31	191.61	36.94	-31.9	-32.6	28.7	0.00e+00	0	31	101	1048576	42	5838
2026-01-07 02:54:48.34	192.42	37.81	-31.7	-32.3	28.7	0.00e+00	0	32	101	1048576	42	5679
2026-01-07 02:54:52.38	193.28	38.70	-31.7	-32.3	28.9	0.00e+00	0	31	101	1048576	42	5659
2026-01-07 02:54:56.41	194.19	39.60	-31.7	-32.3	28.8	0.00e+00	0	31	101	1048576	42	5657
2026-01-07 02:55:00.44	195.15	40.51	-31.9	-32.5	28.7	0.00e+00	0	32	101	1048576	42	5784
2026-01-07 02:55:04.47	196.16	41.44	-31.8	-32.4	28.7	0.00e+00	0	32	101	1048576	42	5728
2026-01-07 02:55:08.49	197.23	42.38	-32.0	-32.6	28.6	0.00e+00	0	31	101	1048576	42	5889
2026-01-07 02:55:12.52	198.36	43.34	-32.0	-32.6	28.6	0.00e+00	0	31	101	1048576	42	5852
2026-01-07 02:55:16.55	199.57	44.30	-32.1	-32.7	28.4	0.00e+00	0	31	101	1048576	42	5933
2026-01-07 02:55:20.58	200.85	45.28	-32.2	-32.8	28.5	0.00e+00	0	31	101	1048576	42	6018
2026-01-07 02:55:24.61	202.21	46.27	-32.2	-32.8	28.5	0.00e+00	0	31	101	1048576	42	5996
2026-01-07 02:55:28.64	203.65	47.26	-32.2	-32.8	28.6	0.00e+00	0	31	101	1048576	42	6009
2026-01-07 02:55:32.67	205.19	48.25	-32.0	-32.7	28.6	0.00e+00	0	31	101	1048576	42	5915
2026-01-07 02:55:36.70	206.83	49.24	-32.2	-32.8	28.5	0.00e+00	0	31	101	1048576	42	5999
2026-01-07 02:55:40.73	208.58	50.23	-32.8	-33.4	28.1	0.00e+00	0	32	101	1048576	42	6434
2026-01-07 02:55:44.76	210.45	51.21	-32.8	-33.5	28.0	0.00e+00	0	32	101	1048576	42	6502
2026-01-07 02:55:48.80	212.44	52.18	-32.7	-33.3	28.0	0.00e+00	0	31	101	1048576	42	6373
2026-01-07 02:55:52.83	214.56	53.12	-32.4	-33.1	28.2	0.00e+00	0	32	101	1048576	42	6182
2026-01-07 02:55:56.85	216.81	54.04	-32.8	-33.4	28.0	0.00e+00	0	32	101	1048576	42	6460
2026-01-07 02:56:00.87	219.21	54.94	-33.1	-33.7	27.8	0.00e+00	0	32	101	1048576	44	5948
2026-01-07 02:56:04.90	221.77	55.79	-33.2	-33.9	27.8	0.00e+00	0	31	101	1048576	44	6053
2026-01-07 02:56:08.93	224.48	56.60	-32.9	-33.6	27.9	0.00e+00	0	31	101	1048576	44	5852
2026-01-07 02:56:12.95	227.34	57.35	-33.5	-34.2	27.3	0.00e+00	0	32	101	1048576	44	6286
2026-01-07 02:56:16.99	230.37	58.05	-32.9	-33.5	28.0	0.00e+00	0	32	101	1048576	44	5807
2026-01-07 02:56:21.02	233.54	58.67	-32.8	-33.4	28.0	0.00e+00	0	32	101	1048576	44	5758
2026-01-07 02:56:25.05	236.86	59.22	-33.1	-33.8	27.7	0.00e+00	0	32	101	1048576	44	5967
2026-01-07 02:56:29.07	240.30	59.68	-32.5	-33.1	28.2	0.00e+00	0	32	101	1048576	44	5539
2026-01-07 02:56:33.10	243.85	60.04	-32.6	-33.3	28.1	0.00e+00	0	31	101	1048576	44	5631
2026-01-07 02:56:37.13	247.49	60.31	-32.2	-32.9	28.4	0.00e+00	0	31	101	1048576	44	5396
2026-01-07 02:56:41.16	251.20	60.48	-32.0	-32.6	28.6	0.00e+00	0	32	101	1048576	42	5885
2026-01-07 02:56:45.19	254.94	60.54	-32.5	-33.2	28.2	0.00e+00	0	32	101	1048576	42	6250
2026-01-07 02:56:49.22	258.68	60.49	-32.5	-33.1	28.1	0.00e+00	0	32	101	1048576	42	6245
2026-01-07 02:56:53.25	262.38	60.33	-32.4	-33.0	28.4	0.00e+00	0	32	101	1048576	42	6130
2026-01-07 02:56:57.27	266.03	60.08	-32.0	-32.6	28.1	0.00e+00	0	32	101	1048576	42	5860
2026-01-07 02:57:01.31	269.60	59.72	-32.6	-33.3	28.0	0.00e+00	0	32	101	1048576	42	6323
2026-01-07 02:57:05.34	273.05	59.27	-32.3	-32.9	28.4	0.00e+00	0	31	101	1048576	42	6043
2026-01-07 02:57:09.37	276.38	58.73	-32.3	-32.9	28.4	0.00e+00	0	31	101	1048576	42	6059
2026-01-07 02:57:13.40	279.56	58.12	-32.5	-33.0	28.2	0.00e+00	0	31	101	1048576	42	6170
2026-01-07 02:57:17.44	282.60	57.43	-32.6	-33.2	28.2	0.00e+00	0	32	101	1048576	42	6248
2026-01-07 02:57:21.47	285.48	56.68	-32.7	-33.3	28.0	0.00e+00	0	32	101	1048576	42	6384
2026-01-07 02:57:25.50	288.20	55.88	-32.8	-33.3	28.0	0.00e+00	0	31	101	1048576	44	5687
2026-01-07 02:57:29.53	290.77	55.03	-33.5	-34.2	27.5	0.00e+00	0	31	101	1048576	44	6295
2026-01-07 02:57:33.56	293.19	54.14	-33.0	-33.6	27.8	0.00e+00	0	32	101	1048576	44	5894
2026-01-07 02:57:37.59	295.45	53.22	-33.2	-33.9	27.6	0.00e+00	0	31	101	1048576	44	6060
2026-01-07 02:57:41.63	297.59	52.28	-33.1	-33.8	27.7	0.00e+00	0	31	101	1048576	44	5997
2026-01-07 02:57:45.66	299.59	51.32	-33.1	-33.8	27.8	0.00e+00	0	32	101	1048576	44	5997
2026-01-07 02:57:49.69	301.46	50.34	-32.9	-33.5	27.9	0.00e+00	0	32	101	1048576	44	5770
2026-01-07 02:57:53.72	303.22	49.36	-32.6	-33.2	28.1	0.00e+00	0	32	101	1048576	44	5622
2026-01-07 02:57:57.76	304.87	48.37	-32.4	-33.0	28.2	0.00e+00	0	32	101	1048576	44	5487
2026-01-07 02:58:01.79	306.41	47.38	-32.4	-33.1	28.2	0.00e+00	0	32	101	1048576	44	5542
2026-01-07 02:58:05.82	307.87	46.39	-32.4	-33.0	28.2	0.00e+00	0	31	101	1048576	44	5449
2026-01-07 02:58:09.85	309.23	45.41	-32.1	-32.6	28.5	0.00e+00	0	32	101	1048576	42	5872
2026-01-07 02:58:13.89	310.52	44.43	-32.5	-33.0	28.0	0.00e+00	0	32	101	1048576	42	6171
2026-01-07 02:58:17.93	311.73	43.47	-32.4	-33.1	28.1	0.00e+00	0	32	101	1048576	42	6241
2026-01-07 02:58:21.98	312.88	42.51	-32.2	-32.7	28.4	0.00e+00	0	32	101	1048576	42	5924
2026-01-07 02:58:26.02	313.96	41.57	-32.1	-32.7	28.5	0.00e+00	0	31	101	1048576	42	5924
2026-01-07 02:58:30.06	314.97	40.64	-32.1	-32.7	28.5	0.00e+00	0	31	101	1048576	42	5912
2026-01-07 02:58:34.10	315.94	39.72	-32.1	-32.7	28.5	0.00e+00	0	32	101	1048576	42	5908
2026-01-07 02:58:38.14	316.85	38.82	-31.8	-32.5	28.7	0.00e+00	0	32	101	1048576	42	5809
2026-01-07 02:58:42.19	317.71	37.94	-31.8	-32.5	28.7	0.00e+00	0	31	101	1048576	42	5806
2026-01-07 02:58:46.23	318.53	37.07	-31.8	-32.5	28.7	0.00e+00	0	32	101	1048576	42	5818
2026-01-07 02:58:50.27	319.31	36.22	-31.8	-32.3	28.7	0.00e+00	0	32	101	1048576	42	5676
2026-01-07 02:58:54.32	320.05	35.39	-31.7	-32.2	28.8	0.00e+00	0	32	101	1048576	42	5616
2026-01-07 02:58:58.36	320.76	34.57	-31.8	-32.4	28.7	0.00e+00	0	32	101	1048576	42	5707
2026-01-07 02:59:02.40	321.43	33.77	-32.0	-32.6	28.5	0.00e+00	0	32	101	1048576	42	5853
2026-01-07 02:59:06.45	322.07	32.98	-32.0	-32.6	28.6	0.00e+00	0	32	101	1048576	42	5891
2026-01-07 02:59:10.49	322.68	32.21	-32.0	-32.7	28.5	0.00e+00	0	32	101	1048576	42	5908
2026-01-07 02:59:14.53	323.27	31.46	-31.7	-32.3	28.7	0.00e+00	0	32	101	1048576	42	5652
2026-01-07 02:59:18.57	323.83	30.73	-31.9	-32.5	28.6	0.00e+00	0	32	101	1048576	42	5771
2026-01-07 02:59:22.61	324.36	30.01	-32.2	-32.7	28.4	0.00e+00	0	32	101	1048576	42	5949
2026-01-07 02:59:26.65	324.87	29.30	-32.3	-32.9	28.3	0.00e+00	0	32	101	1048576	42	6053
2026-01-07 02:59:30.70	325.37	28.61	-32.3	-32.8	28.3	0.00e+00	0	32	101	1048576	42	6020
2026-01-07 02:59:34.74	325.84	27.94	-32.2	-32.7	28.4	0.00e+00	0	31	101	1048576	42	5936
2026-01-07 02:59:38.78	326.29	27.28	-32.0	-32.6	28.5	0.00e+00	0	31	101	1048576	42	5837
2026-01-07 02:59:42.82	326.73	26.63	-32.2	-32.8	28.3	0.00e+00	0	32	101	1048576	42	6031
2026-01-07 02:59:46.87	327.15	26.00	-32.4	-33.1	28.2	0.00e+00	0	32	101	1048576	42	6233
2026-01-07 02:59:50.91	327.55	25.38	-32.4	-32.9	28.2	0.00e+00	0	32	101	1048576	42	6092
2026-01-07 02:59:54.95	327.94	24.77	-32.4	-33.1	28.2	0.00e+00	0	32	101	1048576	42	6180
2026-01-07 02:59:59.00	328.31	24.17	-32.4	-33.1	28.1	0.00e+00	0	32	101	1048576	42	6228
2026-01-07 03:00:03.04	328.68	23.59	-32.7	-33.4	27.9	0.00e+00	0	32	101	1048576	42	6434
2026-01-07 03:00:07.08	329.03	23.02	-32.8	-33.5	27.8	0.00e+00	0	32	101	1048576	42	6536
2026-01-07 03:00:11.12	329.36	22.46	-33.1	-33.8	27.6	0.00e+00	0	31	101	1048576	42	6752
2026-01-07 03:00:15.16	329.69	21.92	-33.1	-33.6	27.6	0.00e+00	0	32	101	1048576	44	5876
2026-01-07 03:00:19.20	330.01	21.38	-33.1	-33.8	27.6	0.00e+00	0	32	101	1048576	44	5998
2026-01-07 03:00:23.25	330.31	20.85	-33.1	-33.7	27.6	0.00e+00	0	32	101	1048576	44	5922
2026-01-07 03:00:27.29	330.61	20.33	-33.4	-34.0	27.4	0.00e+00	0	32	101	1048576	44	6137
2026-01-07 03:00:31.33	330.90	19.83	-33.5	-34.0	27.3	0.00e+00	0	32	101	1048576	44	6162
2026-01-07 03:00:35.37	331.18	19.33	-33.7	-34.4	27.0	0.00e+00	0	32	101	1048576	44	6455
2026-01-07 03:00:39.42	331.45	18.84	-33.8	-34.4	27.0	0.00e+00	0	32	101	1048576	44	6428
2026-01-07 03:00:43.46	331.71	18.36	-33.9	-34.4	26.9	0.00e+00	0	32	101	1048576	44	6447
2026-01-07 03:00:47.50	331.96	17.89	-34.1	-34.6	26.8	0.00e+00	0	32	101	1048576	44	6603
2026-01-07 03:00:51.54	332.21	17.43	-34.2	-34.8	26.7	0.00e+00	0	32	101	1048576	46	5966
2026-01-07 03:00:55.58	332.45	16.98	-34.4	-35.0	26.5	0.00e+00	0	32	101	1048576	46	6160
2026-01-07 03:00:59.63	332.69	16.53	-34.5	-35.1	26.4	0.00e+00	0	32	101	1048576	46	6219
2026-01-07 03:01:03.67	332.92	16.09	-34.7	-35.3	26.2	0.00e+00	0	32	101	1048576	46	6352
2026-01-07 03:01:07.71	333.14	15.66	-34.6	-35.3	26.3	0.00e+00	0	32	101	1048576	46	6319
2026-01-07 03:01:11.76	333.35	15.24	-34.6	-35.2	26.2	0.00e+00	0	32	101	1048576	46	6260
2026-01-07 03:01:15.80	333.57	14.82	-34.7	-35.3	26.2	0.00e+00	0	32	101	1048576	46	6326
2026-01-07 03:01:19.84	333.77	14.41	-34.7	-35.3	26.1	0.00e+00	0	32	101	1048576	46	6357
2026-01-07 03:01:23.88	333.97	14.01	-34.9	-35.6	26.0	0.00e+00	0	31	101	1048576	46	6587
2026-01-07 03:01:27.92	334.17	13.61	-35.0	-35.8	25.7	0.00e+00	0	32	101	1048576	48	5996
2026-01-07 03:01:31.96	334.36	13.22	-35.3	-35.9	25.6	0.00e+00	0	32	101	1048576	48	6088
2026-01-07 03:01:36.01	334.54	12.83	-35.5	-36.1	25.4	0.00e+00	0	32	101	1048576	48	6235
2026-01-07 03:01:40.05	334.73	12.46	-35.7	-36.3	25.2	0.00e+00	0	32	101	1048576	48	6356
2026-01-07 03:01:44.08	334.90	12.08	-35.7	-36.5	25.2	0.00e+00	0	31	101	1048576	48	6474
2026-01-07 03:01:48.11	335.08	11.72	-35.9	-36.6	24.9	0.00e+00	0	31	101	1048576	48	6551
2026-01-07 03:01:52.15	335.25	11.35	-36.1	-36.7	24.8	0.00e+00	0	32	101	1048576	48	6650
2026-01-07 03:01:56.18	335.41	11.00	-36.0	-36.7	24.9	0.00e+00	0	32	101	1048576	48	6686
2026-01-07 03:02:00.21	335.58	10.64	-36.0	-36.8	24.7	0.00e+00	0	31	101	1048576	50	6010
2026-01-07 03:02:04.24	335.74	10.30	-36.2	-37.0	24.6	0.00e+00	0	32	101	1048576	50	6113
2026-01-07 03:02:08.26	335.89	9.96	-36.4	-37.2	24.4	0.00e+00	0	32	101	1048576	50	6264
2026-01-07 03:02:12.29	336.05	9.62	-36.3	-37.1	24.5	0.00e+00	0	32	101	1048576	50	6239
2026-01-07 03:02:16.32	336.19	9.28	-36.4	-37.1	24.3	0.00e+00	0	32	101	1048576	50	6230
2026-01-07 03:02:20.35	336.34	8.95	-36.5	-37.1	24.2	0.00e+00	0	32	101	1048576	50	6230
2026-01-07 03:02:24.38	336.49	8.63	-36.6	-37.4	24.2	0.00e+00	0	32	101	1048576	50	6396
2026-01-07 03:02:28.41	336.63	8.31	-36.6	-37.2	24.2	0.00e+00	0	32	101	1048576	50	6287
2026-01-07 03:02:32.44	336.77	7.99	-36.6	-37.3	24.0	0.00e+00	0	32	101	1048576	50	6345
2026-01-07 03:02:36.47	336.90	7.68	-36.6	-37.3	24.1	0.00e+00	0	31	101	1048576	50	6335
2026-01-07 03:02:40.50	337.03	7.37	-36.7	-37.5	24.0	0.00e+00	0	32	101	1048576	50	6473
2026-01-07 03:02:44.53	337.17	7.06	-36.7	-37.4	23.8	0.00e+00	0	32	101	1048576	50	6428
2026-01-07 03:02:48.55	337.29	6.76	-36.9	-37.7	23.7	0.00e+00	0	32	101	1048576	50	6638
2026-01-07 03:02:52.58	337.42	6.46	-37.1	-37.9	23.4	0.00e+00	0	32	101	1048576	52	6053
2026-01-07 03:02:56.62	337.55	6.17	-37.0	-37.6	23.5	0.00e+00	0	32	101	1048576	52	5888
2026-01-07 03:03:00.64	337.67	5.87	-37.2	-38.1	23.2	0.00e+00	0	32	101	1048576	52	6181
2026-01-07 03:03:04.67	337.79	5.59	-37.2	-37.9	23.2	0.00e+00	0	32	101	1048576	52	6076
2026-01-07 03:03:08.70	337.91	5.30	-37.7	-38.5	22.4	0.00e+00	0	32	101	1048576	52	6466
2026-01-07 03:03:12.73	338.02	5.02	-38.5	-39.3	21.2	0.00e+00	0	32	101	1048576	54	6368
2026-01-07 03:03:16.76	338.14	4.74	-39.8	-40.9	19.3	0.00e+00	0	32	101	1048576	56	6777
2026-01-07 03:03:20.78	338.25	4.46	-41.3	-42.7	16.7	0.00e+00	0	32	101	1048576	60	6660
2026-01-07 03:03:24.81	338.36	4.18	-43.1	-45.3	13.1	4.50e-06	0	32	101	1048576	60	8995
2026-01-07 03:03:28.84	338.47	3.91	-44.8	-48.6	9.1	1.02e-02	0	32	101	1048576	60	13069
2026-01-07 03:03:32.87	338.58	3.64	-45.8	-51.7	5.1	6.84e-01	0	32	101	1048576	60	18787
2026-01-07 03:03:36.90	338.68	3.38	-46.1	-55.9	3.7	8.42e-01	0	32	104	1048576	60	30514
2026-01-07 03:03:40.93	338.79	3.11	-46.2	-57.3	3.6	8.45e-01	0	32	104	1048576	60	35553
2026-01-07 03:03:44.96	338.89	2.85	-46.3	-58.2	3.6	8.45e-01	0	32	104	1048576	60	39532
2026-01-07 03:03:48.99	338.99	2.59	-46.2	-58.4	3.6	8.45e-01	0	32	104	1048576	60	40721
2026-01-07 03:03:53.02	339.09	2.33	-50.9	-63.2	3.6	8.45e-01	0	32	104	1048576	60	70271
2026-01-07 03:03:57.06	339.19	2.08	-51.3	-63.6	3.6	8.45e-01	0	32	104	1048576	60	73717
2026-01-07 03:04:01.09	339.29	1.83	-51.2	-63.6	3.6	8.44e-01	0	32	104	1048576	60	74097
2026-01-07 03:04:05.12	339.38	1.58	-51.4	-63.7	3.6	8.45e-01	0	32	104	1048576	60	74572
2026-01-07 03:04:09.15	339.48	1.33	-51.2	-63.6	3.6	8.45e-01	0	32	104	1048576	60	73746
2026-01-07 03:04:13.18	339.57	1.08	-51.2	-63.5	3.6	8.45e-01	0	32	104	1048576	60	73255
2026-01-07 03:04:17.21	339.66	0.84	-51.2	-63.6	3.6	8.45e-01	0	32	104	1048576	60	73475
2026-01-07 03:04:21.25	339.75	0.59	-51.2	-63.5	3.6	8.45e-01	0	32	104	1048576	60	73164
2026-01-07 03:04:25.28	339.84	0.35	-51.2	-63.6	3.6	8.46e-01	0	32	104	1048576	60	73478
2026-01-07 03:04:29.31	339.93	0.12	-51.2	-63.5	3.6	8.44e-01	0	32	104	1048576	60	73193
2026-01-07 03:04:33.34	340.02	-0.12	-51.2	-63.5	3.6	8.45e-01	0	32	104	1048576	60	73237

#Closed at: 2026-01-07 03:04:34
#Recorded file [1 MB]: D:/lorett/data/35034_260107_054905.dat