passes_logs/2026/01/07/R4.6S_Anadyr_2ch/R4.6S_Anadyr_2ch__20260107_074109_TY-41_rec.log

#Pass ID: 20260107_074109_TY-41
#Satellite: TY-41
#Configuration: TY-39_900M
#almurnet v.1.7.20251203
#Start time: 2026-01-07 07:41:39

#Version: 2.2.20231116
#Station: R4.6S_Anadyr_2ch
#Location: 177.4865 lon 64.73178 lat
#TLE: 1 61231U 24173E   25350.69767361  .00008010  00000-0  38191-3 0 09994
#TLE: 2 61231 097.4116 061.2842 0001674 094.3615 204.6766 15.19171214 68043

#Time	Az	El	Level	Level2	SNR	BER	BlckErr	Temp	State	Recorded	gain1	gain2
2026-01-07 07:41:39.57	110.03	1.80	-51.5	-53.1	5.7	0.00e+00	0	31	0	0	60	75492
2026-01-07 07:41:42.60	109.78	1.99	-51.5	-54.0	6.1	0.00e+00	0	33	104	0	60	83774
2026-01-07 07:41:45.64	109.52	2.18	-51.5	-54.0	6.1	0.00e+00	0	33	104	0	60	83845
2026-01-07 07:41:48.67	109.26	2.37	-51.5	-54.0	6.1	0.00e+00	0	33	104	0	60	83868
2026-01-07 07:41:51.70	109.00	2.56	-51.5	-54.0	6.1	0.00e+00	0	33	104	0	60	83368
2026-01-07 07:41:54.73	108.73	2.76	-51.5	-54.0	6.1	0.00e+00	0	34	104	0	60	83943
2026-01-07 07:41:57.77	108.45	2.95	-51.5	-54.0	6.1	0.00e+00	0	34	104	0	60	83746
2026-01-07 07:42:00.80	108.17	3.15	-51.5	-54.0	6.1	0.00e+00	0	34	104	0	60	83788
2026-01-07 07:42:03.83	107.89	3.34	-51.5	-54.0	6.1	0.00e+00	0	34	104	0	60	84044
2026-01-07 07:42:06.86	107.60	3.54	-51.5	-54.0	6.1	0.00e+00	0	34	104	0	60	83746
2026-01-07 07:42:09.89	107.31	3.74	-51.5	-54.0	6.1	0.00e+00	0	34	104	0	60	83753
2026-01-07 07:42:12.93	107.00	3.94	-51.5	-54.0	6.1	0.00e+00	0	34	104	0	60	83593
2026-01-07 07:42:15.96	106.70	4.14	-51.5	-54.0	6.1	0.00e+00	0	34	104	0	60	84203
2026-01-07 07:42:18.99	106.39	4.35	-51.5	-54.0	6.1	0.00e+00	0	34	104	0	60	83818
2026-01-07 07:42:22.03	106.07	4.55	-51.5	-54.0	6.1	0.00e+00	0	34	104	0	60	84154
2026-01-07 07:42:25.06	105.75	4.76	-51.5	-54.0	6.1	0.00e+00	0	34	104	0	60	83682
2026-01-07 07:42:28.09	105.42	4.97	-51.5	-54.0	6.1	0.00e+00	0	34	104	0	60	83606
2026-01-07 07:42:31.12	105.09	5.17	-51.5	-54.0	6.1	0.00e+00	0	34	104	0	60	83960
2026-01-07 07:42:34.15	104.75	5.39	-51.5	-54.0	6.1	0.00e+00	0	35	104	0	60	83998
2026-01-07 07:42:37.19	104.40	5.60	-51.6	-54.1	6.1	0.00e+00	0	35	104	0	60	84270
2026-01-07 07:42:40.22	104.05	5.81	-51.5	-54.1	6.1	0.00e+00	0	35	104	0	60	84386
2026-01-07 07:42:43.25	103.69	6.03	-51.5	-54.0	6.1	0.00e+00	0	35	104	0	60	84156
2026-01-07 07:42:46.29	103.32	6.24	-51.5	-54.0	6.1	0.00e+00	0	35	104	0	60	84145
2026-01-07 07:42:49.32	102.94	6.46	-51.5	-54.0	6.1	0.00e+00	0	35	104	0	60	83972
2026-01-07 07:42:52.35	102.56	6.68	-51.5	-54.0	6.1	0.00e+00	0	35	104	0	60	83444
2026-01-07 07:42:55.38	102.17	6.90	-51.5	-54.0	6.1	0.00e+00	0	35	104	0	60	84181
2026-01-07 07:42:58.41	101.78	7.12	-51.5	-54.0	6.0	0.00e+00	0	35	104	0	60	84020
2026-01-07 07:43:01.45	101.37	7.35	-51.5	-54.0	6.1	0.00e+00	0	35	104	0	60	83915
2026-01-07 07:43:04.48	100.96	7.57	-51.5	-54.1	6.1	0.00e+00	0	35	104	0	60	84437
2026-01-07 07:43:07.51	100.54	7.80	-51.5	-54.0	6.1	0.00e+00	0	35	104	0	60	83892
2026-01-07 07:43:10.54	100.11	8.03	-51.5	-54.1	6.1	0.00e+00	0	35	104	0	60	84406
2026-01-07 07:43:13.57	99.68	8.25	-51.5	-54.0	6.1	0.00e+00	0	35	104	0	60	84069
2026-01-07 07:43:16.60	99.23	8.48	-51.6	-54.0	6.1	0.00e+00	0	35	104	0	60	83993
2026-01-07 07:43:19.64	98.77	8.72	-51.6	-54.1	6.1	0.00e+00	0	35	104	0	60	84372
2026-01-07 07:43:22.67	98.31	8.95	-51.6	-54.1	6.1	0.00e+00	0	35	104	0	60	84378
2026-01-07 07:43:25.70	97.84	9.19	-51.6	-54.0	6.1	0.00e+00	0	35	104	0	60	83658
2026-01-07 07:43:28.74	97.35	9.42	-51.6	-54.0	6.1	0.00e+00	0	35	104	0	60	84200
2026-01-07 07:43:31.76	96.86	9.66	-51.6	-54.0	6.1	0.00e+00	0	35	104	0	60	83827
2026-01-07 07:43:34.79	96.36	9.90	-51.6	-54.0	6.1	0.00e+00	0	35	104	0	60	83904
2026-01-07 07:43:37.82	95.85	10.14	-51.6	-54.0	6.1	0.00e+00	0	35	104	0	60	83722
2026-01-07 07:43:40.85	95.32	10.38	-51.6	-54.0	6.1	0.00e+00	0	35	104	0	60	84234
2026-01-07 07:43:43.88	94.79	10.62	-51.6	-54.1	6.1	0.00e+00	0	35	104	0	60	84303
2026-01-07 07:43:46.91	94.24	10.86	-51.6	-54.0	6.1	0.00e+00	0	35	104	0	60	83785
2026-01-07 07:43:49.94	93.69	11.11	-51.6	-54.0	6.1	0.00e+00	0	35	104	0	60	84033
2026-01-07 07:43:52.97	93.12	11.35	-51.6	-54.0	6.1	0.00e+00	0	35	104	0	60	84126
2026-01-07 07:43:56.00	92.54	11.60	-51.6	-54.1	6.1	0.00e+00	0	35	104	0	60	84429
2026-01-07 07:43:59.04	91.95	11.85	-51.6	-54.1	6.1	0.00e+00	0	35	104	0	60	84740
2026-01-07 07:44:02.07	91.34	12.09	-51.6	-54.0	6.1	0.00e+00	0	36	104	0	60	83894
2026-01-07 07:44:05.10	90.72	12.34	-51.6	-54.1	6.1	0.00e+00	0	36	104	0	60	84298
2026-01-07 07:44:08.13	90.10	12.59	-51.6	-54.1	6.1	0.00e+00	0	36	104	0	60	84323
2026-01-07 07:44:11.16	89.45	12.84	-51.6	-54.0	6.1	0.00e+00	0	36	104	0	60	84123
2026-01-07 07:44:14.20	88.80	13.09	-51.6	-54.1	6.1	0.00e+00	0	36	104	0	60	84323
2026-01-07 07:44:17.23	88.13	13.34	-51.6	-54.0	6.1	0.00e+00	0	36	104	0	60	84040
2026-01-07 07:44:20.26	87.44	13.58	-51.6	-54.0	6.1	0.00e+00	0	36	104	0	60	84096
2026-01-07 07:44:23.30	86.75	13.83	-51.6	-54.0	6.1	0.00e+00	0	36	104	0	60	84110
2026-01-07 07:44:26.33	86.04	14.08	-51.6	-54.1	6.1	0.00e+00	0	36	104	0	60	84329
2026-01-07 07:44:29.36	85.31	14.33	-51.6	-54.0	6.1	0.00e+00	0	36	104	0	60	84230
2026-01-07 07:44:32.39	84.57	14.57	-51.6	-54.0	6.1	0.00e+00	0	36	104	0	60	84120
2026-01-07 07:44:35.43	83.81	14.82	-51.6	-54.0	6.1	0.00e+00	0	36	104	0	60	84059
2026-01-07 07:44:38.46	83.05	15.07	-51.6	-54.1	6.1	0.00e+00	0	36	104	0	60	84341
2026-01-07 07:44:41.49	82.26	15.31	-51.6	-54.1	6.1	0.00e+00	0	36	104	0	60	84552
2026-01-07 07:44:44.52	81.46	15.55	-51.6	-54.0	6.1	0.00e+00	0	36	104	0	60	83994
2026-01-07 07:44:47.55	80.65	15.79	-51.6	-54.1	6.1	0.00e+00	0	36	104	0	60	84361
2026-01-07 07:44:50.59	79.82	16.03	-51.6	-54.1	6.1	0.00e+00	0	36	104	0	60	84329
2026-01-07 07:44:53.62	78.97	16.26	-51.6	-54.1	6.1	0.00e+00	0	36	104	0	60	84312
2026-01-07 07:44:56.65	78.11	16.49	-51.6	-54.0	6.1	0.00e+00	0	36	104	0	60	84245
2026-01-07 07:44:59.68	77.23	16.72	-51.6	-54.0	6.1	0.00e+00	0	36	104	0	60	84228
2026-01-07 07:45:02.70	76.34	16.94	-51.6	-54.0	6.1	0.00e+00	0	36	104	0	60	84098
2026-01-07 07:45:05.73	75.44	17.16	-51.6	-54.1	6.1	0.00e+00	0	36	104	0	60	84756
2026-01-07 07:45:08.76	74.51	17.38	-51.6	-54.0	6.1	0.00e+00	0	36	104	0	60	83996
2026-01-07 07:45:11.80	73.57	17.59	-51.6	-54.1	6.1	0.00e+00	0	36	104	0	60	84920
2026-01-07 07:45:14.83	72.62	17.80	-51.6	-54.0	6.0	0.00e+00	0	36	104	0	60	84054
2026-01-07 07:45:17.86	71.65	18.00	-51.6	-54.1	6.1	0.00e+00	0	36	104	0	60	84412
2026-01-07 07:45:20.90	70.66	18.20	-51.6	-54.1	6.1	0.00e+00	0	36	104	0	60	84274
2026-01-07 07:45:23.93	69.66	18.39	-51.6	-54.1	6.1	0.00e+00	0	36	104	0	60	84748
2026-01-07 07:45:26.96	68.65	18.58	-51.6	-54.1	6.1	0.00e+00	0	36	104	0	60	84319
2026-01-07 07:45:30.00	67.62	18.76	-51.6	-54.0	6.1	0.00e+00	0	36	104	0	60	84055
2026-01-07 07:45:33.03	66.58	18.93	-51.6	-54.1	6.1	0.00e+00	0	36	104	0	60	84488
2026-01-07 07:45:36.06	65.53	19.09	-51.6	-54.1	6.1	0.00e+00	0	36	104	0	60	84408
2026-01-07 07:45:39.09	64.46	19.25	-51.6	-54.1	6.1	0.00e+00	0	36	104	0	60	84272
2026-01-07 07:45:42.13	63.38	19.40	-51.6	-54.1	6.1	0.00e+00	0	36	104	0	60	84679
2026-01-07 07:45:45.16	62.29	19.53	-51.6	-54.1	6.1	0.00e+00	0	36	104	0	60	84767
2026-01-07 07:45:48.19	61.19	19.66	-51.6	-54.1	6.1	0.00e+00	0	36	104	0	60	84268
2026-01-07 07:45:51.22	60.08	19.79	-51.6	-54.1	6.1	0.00e+00	0	36	104	0	60	84261
2026-01-07 07:45:54.26	58.95	19.90	-51.6	-54.0	6.1	0.00e+00	0	36	104	0	60	84245
2026-01-07 07:45:57.29	57.82	20.00	-51.6	-54.1	6.1	0.00e+00	0	36	104	0	60	84278
2026-01-07 07:46:00.32	56.69	20.09	-51.6	-54.1	6.1	0.00e+00	0	36	104	0	60	84310
2026-01-07 07:46:03.36	55.54	20.17	-51.6	-54.1	6.1	0.00e+00	0	36	104	0	60	84356
2026-01-07 07:46:06.39	54.39	20.24	-51.6	-54.1	6.1	0.00e+00	0	36	104	0	60	84289
2026-01-07 07:46:09.42	53.23	20.30	-51.6	-54.1	6.1	0.00e+00	0	36	104	0	60	84270
2026-01-07 07:46:12.45	52.07	20.35	-51.6	-54.0	6.1	0.00e+00	0	36	104	0	60	84178
2026-01-07 07:46:15.48	50.90	20.39	-51.6	-54.1	6.1	0.00e+00	0	36	104	0	60	84284
2026-01-07 07:46:18.51	49.73	20.42	-51.6	-54.0	6.1	0.00e+00	0	36	104	0	60	83988
2026-01-07 07:46:21.55	48.56	20.44	-51.6	-54.0	6.1	0.00e+00	0	36	104	0	60	84200
2026-01-07 07:46:24.58	47.39	20.44	-51.6	-54.1	6.1	0.00e+00	0	36	104	0	60	84448
2026-01-07 07:46:27.61	46.22	20.43	-51.6	-54.1	6.0	0.00e+00	0	36	104	0	60	84342
2026-01-07 07:46:30.65	45.05	20.42	-51.6	-54.1	6.1	0.00e+00	0	36	104	0	60	84512
2026-01-07 07:46:33.68	43.88	20.39	-51.6	-54.0	6.1	0.00e+00	0	36	104	0	60	84206
2026-01-07 07:46:36.71	42.71	20.35	-51.6	-54.1	6.1	0.00e+00	0	36	104	0	60	84268
2026-01-07 07:46:39.74	41.55	20.30	-51.6	-54.1	6.1	0.00e+00	0	36	104	0	60	84546
2026-01-07 07:46:42.77	40.40	20.24	-51.6	-54.1	6.1	0.00e+00	0	36	104	0	60	84812
2026-01-07 07:46:45.81	39.25	20.16	-51.6	-54.1	6.1	0.00e+00	0	36	104	0	60	84454
2026-01-07 07:46:48.84	38.10	20.08	-51.6	-54.1	6.1	0.00e+00	0	36	104	0	60	84517
2026-01-07 07:46:51.87	36.97	19.99	-51.6	-54.1	6.1	0.00e+00	0	36	104	0	60	84776
2026-01-07 07:46:54.90	35.84	19.88	-51.6	-54.1	6.1	0.00e+00	0	36	104	0	60	84798
2026-01-07 07:46:57.94	34.72	19.77	-51.6	-54.1	6.1	0.00e+00	0	36	104	0	60	84433
2026-01-07 07:47:00.97	33.61	19.65	-51.6	-54.1	6.1	0.00e+00	0	36	104	0	60	84527
2026-01-07 07:47:04.00	32.52	19.52	-51.6	-54.1	6.1	0.00e+00	0	36	104	0	60	84467
2026-01-07 07:47:07.03	31.43	19.38	-51.6	-54.1	6.1	0.00e+00	0	36	104	0	60	84591
2026-01-07 07:47:10.06	30.36	19.23	-51.6	-54.1	6.1	0.00e+00	0	36	104	0	60	84289
2026-01-07 07:47:13.09	29.30	19.07	-51.6	-54.1	6.1	0.00e+00	0	36	104	0	60	84449
2026-01-07 07:47:16.12	28.25	18.91	-51.6	-54.0	6.0	0.00e+00	0	36	104	0	60	84160
2026-01-07 07:47:19.15	27.21	18.74	-51.6	-54.1	6.1	0.00e+00	0	36	104	0	60	84288
2026-01-07 07:47:22.18	26.19	18.56	-51.6	-54.1	6.1	0.00e+00	0	36	104	0	60	84437
2026-01-07 07:47:25.21	25.19	18.37	-51.6	-54.0	6.1	0.00e+00	0	36	104	0	60	84133
2026-01-07 07:47:28.24	24.19	18.18	-51.6	-54.1	6.1	0.00e+00	0	36	104	0	60	84557
2026-01-07 07:47:31.28	23.21	17.98	-51.6	-54.1	6.1	0.00e+00	0	36	104	0	60	84548
2026-01-07 07:47:34.31	22.25	17.78	-51.6	-54.1	6.1	0.00e+00	0	36	104	0	60	84594
2026-01-07 07:47:37.34	21.30	17.57	-51.6	-54.1	6.1	0.00e+00	0	36	104	0	60	84375
2026-01-07 07:47:40.38	20.37	17.36	-51.6	-54.1	6.1	0.00e+00	0	36	104	0	60	84556
2026-01-07 07:47:43.41	19.45	17.14	-51.6	-54.1	6.1	0.00e+00	0	36	104	0	60	84386
2026-01-07 07:47:46.44	18.55	16.92	-51.6	-54.1	6.1	0.00e+00	0	36	104	0	60	84703
2026-01-07 07:47:49.47	17.66	16.70	-51.6	-54.1	6.1	0.00e+00	0	36	104	0	60	84532
2026-01-07 07:47:52.51	16.79	16.47	-51.6	-54.1	6.1	0.00e+00	0	36	104	0	60	84425
2026-01-07 07:47:55.54	15.94	16.24	-51.6	-54.1	6.1	0.00e+00	0	36	104	0	60	84610
2026-01-07 07:47:58.57	15.10	16.01	-51.6	-54.1	6.1	0.00e+00	0	36	104	0	60	84344
2026-01-07 07:48:01.61	14.27	15.77	-51.6	-54.1	6.0	0.00e+00	0	36	104	0	60	84478
2026-01-07 07:48:04.64	13.46	15.53	-51.6	-54.1	6.1	0.00e+00	0	36	104	0	60	84730
2026-01-07 07:48:07.67	12.67	15.29	-51.6	-54.1	6.1	0.00e+00	0	36	104	0	60	84787
2026-01-07 07:48:10.71	11.89	15.05	-51.6	-54.1	6.1	0.00e+00	0	36	104	0	60	84618
2026-01-07 07:48:13.74	11.13	14.81	-51.6	-54.1	6.1	0.00e+00	0	36	104	0	60	84653
2026-01-07 07:48:16.77	10.38	14.56	-51.6	-54.1	6.1	0.00e+00	0	36	104	0	60	84320
2026-01-07 07:48:19.80	9.64	14.32	-51.6	-54.1	6.1	0.00e+00	0	36	104	0	60	84327
2026-01-07 07:48:22.84	8.92	14.07	-51.6	-54.1	6.1	0.00e+00	0	36	104	0	60	84505
2026-01-07 07:48:25.87	8.22	13.82	-51.6	-54.1	6.1	0.00e+00	0	36	104	0	60	84635
2026-01-07 07:48:28.90	7.53	13.58	-51.6	-54.1	6.1	0.00e+00	0	36	104	0	60	84344
2026-01-07 07:48:31.93	6.85	13.33	-51.6	-54.1	6.1	0.00e+00	0	36	104	0	60	84843
2026-01-07 07:48:34.97	6.19	13.08	-51.6	-54.0	6.1	0.00e+00	0	36	104	0	60	84048
2026-01-07 07:48:38.00	5.54	12.84	-51.6	-54.1	6.1	0.00e+00	0	36	104	0	60	84471
2026-01-07 07:48:41.03	4.90	12.59	-51.6	-54.0	6.1	0.00e+00	0	36	104	0	60	84149
2026-01-07 07:48:44.06	4.28	12.34	-51.6	-54.0	6.1	0.00e+00	0	36	104	0	60	84170
2026-01-07 07:48:47.10	3.66	12.09	-51.6	-54.1	6.1	0.00e+00	0	36	104	0	60	84690
2026-01-07 07:48:50.13	3.06	11.85	-51.6	-54.1	6.1	0.00e+00	0	36	104	0	60	84476
2026-01-07 07:48:53.16	2.48	11.60	-51.6	-54.1	6.1	0.00e+00	0	36	104	0	60	84723
2026-01-07 07:48:56.20	1.90	11.36	-51.6	-54.1	6.1	0.00e+00	0	36	104	0	60	84416
2026-01-07 07:48:59.23	1.34	11.11	-51.6	-54.1	6.1	0.00e+00	0	36	104	0	60	84341
2026-01-07 07:49:02.26	0.79	10.87	-51.6	-54.1	6.1	0.00e+00	0	36	104	0	60	84504
2026-01-07 07:49:05.29	0.25	10.63	-51.6	-54.1	6.1	0.00e+00	0	36	104	0	60	84744
2026-01-07 07:49:08.33	359.72	10.39	-51.6	-54.1	6.1	0.00e+00	0	36	104	0	60	84525
2026-01-07 07:49:11.36	359.20	10.15	-51.6	-54.1	6.1	0.00e+00	0	36	104	0	60	84366
2026-01-07 07:49:14.39	358.69	9.91	-51.6	-54.0	6.1	0.00e+00	0	36	104	0	60	84028
2026-01-07 07:49:17.42	358.19	9.67	-51.6	-54.1	6.1	0.00e+00	0	36	104	0	60	84355
2026-01-07 07:49:20.46	357.70	9.44	-51.6	-54.0	6.0	0.00e+00	0	36	104	0	60	84025
2026-01-07 07:49:23.49	357.22	9.20	-51.6	-54.1	6.1	0.00e+00	0	36	104	0	60	84775
2026-01-07 07:49:26.52	356.76	8.97	-51.6	-54.0	6.1	0.00e+00	0	36	104	0	60	84004
2026-01-07 07:49:29.56	356.30	8.74	-51.6	-54.1	6.1	0.00e+00	0	36	104	0	60	84413
2026-01-07 07:49:32.59	355.85	8.51	-51.6	-54.1	6.1	0.00e+00	0	36	104	0	60	84453
2026-01-07 07:49:35.62	355.40	8.28	-51.6	-54.1	6.1	0.00e+00	0	36	104	0	60	84462
2026-01-07 07:49:38.65	354.97	8.05	-51.6	-54.1	6.1	0.00e+00	0	36	104	0	60	84388
2026-01-07 07:49:41.69	354.55	7.82	-51.6	-54.1	6.1	0.00e+00	0	36	104	0	60	84665
2026-01-07 07:49:44.72	354.13	7.60	-51.6	-54.1	6.1	0.00e+00	0	36	104	0	60	84419
2026-01-07 07:49:47.75	353.72	7.37	-51.6	-54.0	6.0	0.00e+00	0	36	104	0	60	84235
2026-01-07 07:49:50.79	353.32	7.15	-51.6	-54.1	6.1	0.00e+00	0	36	104	0	60	84283
2026-01-07 07:49:53.82	352.93	6.93	-51.6	-54.1	6.1	0.00e+00	0	36	104	0	60	84697
2026-01-07 07:49:56.85	352.55	6.71	-51.6	-54.1	6.1	0.00e+00	0	37	104	0	60	84741
2026-01-07 07:49:59.88	352.17	6.49	-51.6	-54.1	6.1	0.00e+00	0	37	104	0	60	84593
2026-01-07 07:50:02.92	351.80	6.27	-51.6	-54.1	6.1	0.00e+00	0	36	104	0	60	84679
2026-01-07 07:50:05.95	351.43	6.06	-51.6	-54.1	6.1	0.00e+00	0	36	104	0	60	84806
2026-01-07 07:50:08.98	351.08	5.85	-51.6	-54.1	6.1	0.00e+00	0	36	104	0	60	84332
2026-01-07 07:50:12.01	350.73	5.63	-51.6	-54.1	6.1	0.00e+00	0	36	104	0	60	84394
2026-01-07 07:50:15.05	350.39	5.42	-51.6	-54.1	6.1	0.00e+00	0	36	104	0	60	84257
2026-01-07 07:50:18.08	350.05	5.21	-51.6	-54.1	6.1	0.00e+00	0	36	104	0	60	84317
2026-01-07 07:50:21.11	349.72	5.01	-51.6	-54.1	6.1	0.00e+00	0	36	104	0	60	84462
2026-01-07 07:50:24.15	349.39	4.80	-51.6	-54.1	6.1	0.00e+00	0	36	104	0	60	84255
2026-01-07 07:50:27.18	349.07	4.59	-51.6	-54.0	6.1	0.00e+00	0	37	104	0	60	83978
2026-01-07 07:50:30.21	348.76	4.39	-51.6	-54.1	6.1	0.00e+00	0	36	104	0	60	84356
2026-01-07 07:50:33.25	348.45	4.19	-51.6	-54.1	6.1	0.00e+00	0	36	104	0	60	84301
2026-01-07 07:50:36.28	348.15	3.99	-51.6	-54.1	6.1	0.00e+00	0	36	104	0	60	84456
2026-01-07 07:50:39.31	347.86	3.79	-51.6	-54.1	6.1	0.00e+00	0	36	104	0	60	84366
2026-01-07 07:50:42.34	347.57	3.59	-51.6	-54.1	6.1	0.00e+00	0	36	104	0	60	84340
2026-01-07 07:50:45.38	347.28	3.39	-51.6	-54.1	6.1	0.00e+00	0	36	104	0	60	84425
2026-01-07 07:50:48.41	347.00	3.19	-51.6	-54.1	6.0	0.00e+00	0	36	104	0	60	84656
2026-01-07 07:50:51.44	346.72	3.00	-51.6	-54.1	6.1	0.00e+00	0	36	104	0	60	84721
2026-01-07 07:50:54.47	346.45	2.81	-51.6	-54.0	6.1	0.00e+00	0	36	104	0	60	84208
2026-01-07 07:50:57.51	346.18	2.61	-51.6	-54.1	6.1	0.00e+00	0	36	104	0	60	84589
2026-01-07 07:51:00.54	345.92	2.42	-51.6	-54.1	6.1	0.00e+00	0	36	104	0	60	84492
2026-01-07 07:51:03.57	345.67	2.23	-51.6	-54.0	6.1	0.00e+00	0	36	104	0	60	84152
2026-01-07 07:51:06.61	345.41	2.04	-51.6	-54.0	6.1	0.00e+00	0	36	104	0	60	84243
2026-01-07 07:51:09.64	345.16	1.86	-51.6	-54.0	6.1	0.00e+00	0	36	104	0	60	84197
2026-01-07 07:51:12.67	344.92	1.67	-51.6	-54.1	6.1	0.00e+00	0	36	104	0	60	84465
2026-01-07 07:51:15.71	344.68	1.49	-51.6	-54.1	6.1	0.00e+00	0	36	104	0	60	84447
2026-01-07 07:51:18.74	344.44	1.30	-51.6	-54.1	6.1	0.00e+00	0	36	104	0	60	84710
2026-01-07 07:51:21.77	344.21	1.12	-51.6	-54.1	6.1	0.00e+00	0	36	104	0	60	84640
2026-01-07 07:51:24.80	343.98	0.94	-51.6	-54.1	6.1	0.00e+00	0	36	104	0	60	84590
2026-01-07 07:51:27.84	343.75	0.76	-51.6	-54.1	6.1	0.00e+00	0	36	104	0	60	85022
2026-01-07 07:51:30.87	343.53	0.58	-51.6	-54.1	6.1	0.00e+00	0	36	104	0	60	84511
2026-01-07 07:51:33.90	343.31	0.40	-51.6	-54.1	6.1	0.00e+00	0	36	104	0	60	84629
2026-01-07 07:51:36.94	343.10	0.22	-51.6	-54.1	6.1	0.00e+00	0	36	104	0	60	84764
2026-01-07 07:51:39.97	342.89	0.04	-51.6	-54.1	6.1	0.00e+00	0	36	104	0	60	84636

#Closed at: 2026-01-07 07:51:40
#Recorded file [0 MB]: D:/lorett/data/35034_260107_104139.dat