passes_logs/2026/01/07/R4.6S_Anadyr_2ch/R4.6S_Anadyr_2ch__20260107_185404_SUOMI_NPP_rec.log

#Pass ID: 20260107_185404_SUOMI NPP
#Satellite: SUOMI NPP
#Configuration: NPP
#almurnet v.1.7.20251203
#Start time: 2026-01-07 18:54:07

#Version: 2.2.20231116
#Station: R4.6S_Anadyr_2ch
#Location: 177.4865 lon 64.73178 lat
#TLE: 1 37849U 11061A   25350.92281687  .00000071  00000+0  54882-4 0  9996
#TLE: 2 37849  98.7777 288.2268 0002366 112.8570 247.2856 14.19515404732588

#Time	Az	El	Level	Level2	SNR	BER	BlckErr	Temp	State	Recorded	gain1	gain2
2026-01-07 18:54:07.50	45.00	0.13	-51.6	-62.6	3.5	8.47e-01	0	32	0	0	60	66317
2026-01-07 18:54:10.53	44.78	0.27	-51.8	-67.3	3.6	1.51e+00	0	34	104	0	60	113044
2026-01-07 18:54:13.56	44.55	0.42	-51.7	-67.3	3.6	1.51e+00	0	34	104	0	60	112613
2026-01-07 18:54:16.59	44.32	0.57	-51.7	-67.3	3.6	1.51e+00	0	34	104	0	60	112931
2026-01-07 18:54:19.62	44.09	0.72	-51.7	-67.3	3.6	1.51e+00	0	34	104	0	60	112741
2026-01-07 18:54:22.65	43.86	0.87	-51.7	-67.3	3.6	1.51e+00	0	34	104	0	60	112956
2026-01-07 18:54:25.68	43.62	1.02	-51.7	-67.3	3.6	1.51e+00	0	34	104	0	60	112490
2026-01-07 18:54:28.71	43.38	1.17	-51.7	-67.3	3.6	1.51e+00	0	34	104	0	60	112432
2026-01-07 18:54:31.75	43.14	1.33	-51.7	-67.4	3.6	1.51e+00	0	34	104	0	60	113680
2026-01-07 18:54:34.78	42.89	1.48	-51.8	-67.3	3.6	1.51e+00	0	34	104	0	60	112720
2026-01-07 18:54:37.81	42.65	1.63	-51.7	-67.3	3.6	1.51e+00	0	34	104	0	60	112824
2026-01-07 18:54:40.84	42.40	1.78	-51.7	-67.3	3.6	1.51e+00	0	34	104	0	60	113036
2026-01-07 18:54:43.87	42.14	1.93	-51.7	-67.3	3.6	1.51e+00	0	34	104	0	60	113327
2026-01-07 18:54:46.91	41.89	2.09	-51.7	-67.2	3.6	1.51e+00	0	34	104	0	60	112129
2026-01-07 18:54:49.94	41.63	2.24	-51.7	-67.3	3.6	1.51e+00	0	35	104	0	60	112596
2026-01-07 18:54:52.97	41.37	2.39	-51.7	-67.3	3.6	1.51e+00	0	34	104	0	60	112834
2026-01-07 18:54:56.01	41.10	2.54	-51.7	-67.3	3.6	1.51e+00	0	34	104	0	60	112883
2026-01-07 18:54:59.04	40.84	2.70	-51.7	-67.3	3.6	1.51e+00	0	35	104	0	60	112587
2026-01-07 18:55:02.07	40.57	2.85	-51.7	-67.3	3.6	1.51e+00	0	35	104	0	60	112726
2026-01-07 18:55:05.10	40.30	3.01	-51.7	-67.3	3.6	1.51e+00	0	35	104	0	60	112970
2026-01-07 18:55:08.14	40.02	3.16	-51.7	-67.3	3.6	1.51e+00	0	35	104	0	60	113130
2026-01-07 18:55:11.17	39.74	3.32	-51.7	-67.3	3.6	1.51e+00	0	35	104	0	60	113099
2026-01-07 18:55:14.20	39.46	3.47	-51.7	-67.3	3.6	1.51e+00	0	35	104	0	60	112379
2026-01-07 18:55:17.23	39.17	3.62	-51.7	-67.3	3.6	1.51e+00	0	35	104	0	60	112869
2026-01-07 18:55:20.26	38.89	3.78	-51.7	-67.3	3.6	1.51e+00	0	35	104	0	60	113486
2026-01-07 18:55:23.30	38.60	3.94	-51.7	-67.3	3.6	1.51e+00	0	35	104	0	60	113383
2026-01-07 18:55:26.33	38.30	4.09	-51.7	-67.3	3.6	1.51e+00	0	35	104	0	60	112724
2026-01-07 18:55:29.36	38.00	4.25	-51.7	-67.3	3.6	1.51e+00	0	35	104	0	60	113203
2026-01-07 18:55:32.39	37.70	4.40	-51.7	-67.3	3.6	1.51e+00	0	35	104	0	60	112839
2026-01-07 18:55:35.42	37.40	4.56	-51.7	-67.3	3.6	1.51e+00	0	35	104	0	60	113456
2026-01-07 18:55:38.46	37.09	4.72	-51.7	-67.3	3.6	1.51e+00	0	35	104	0	60	113095
2026-01-07 18:55:41.49	36.78	4.87	-51.7	-67.3	3.6	1.51e+00	0	35	104	0	60	113078
2026-01-07 18:55:44.52	36.47	5.03	-51.7	-67.3	3.6	1.51e+00	0	35	104	0	60	113179
2026-01-07 18:55:47.55	36.15	5.18	-51.7	-67.2	3.6	1.51e+00	0	35	104	0	60	112304
2026-01-07 18:55:50.58	35.83	5.34	-51.7	-67.3	3.6	1.51e+00	0	35	104	0	60	112913
2026-01-07 18:55:53.62	35.50	5.50	-51.7	-67.3	3.6	1.51e+00	0	35	104	0	60	112616
2026-01-07 18:55:56.65	35.17	5.66	-51.7	-67.3	3.5	1.51e+00	0	35	104	0	60	112819
2026-01-07 18:55:59.68	34.84	5.81	-51.7	-67.3	3.6	1.51e+00	0	35	104	0	60	113265
2026-01-07 18:56:02.71	34.51	5.97	-51.7	-67.3	3.6	1.51e+00	0	35	104	0	60	112689
2026-01-07 18:56:05.75	34.17	6.13	-51.7	-67.3	3.6	1.51e+00	0	35	104	0	60	113543
2026-01-07 18:56:08.78	33.82	6.28	-51.7	-67.3	3.6	1.51e+00	0	35	104	0	60	112719
2026-01-07 18:56:11.81	33.47	6.44	-51.7	-67.4	3.6	1.51e+00	0	35	104	0	60	113791
2026-01-07 18:56:14.85	33.12	6.60	-51.7	-67.3	3.6	1.51e+00	0	35	104	0	60	112916
2026-01-07 18:56:17.88	32.77	6.75	-51.7	-67.3	3.6	1.51e+00	0	35	104	0	60	113138
2026-01-07 18:56:20.91	32.41	6.91	-51.7	-67.3	3.6	1.51e+00	0	35	104	0	60	112779
2026-01-07 18:56:23.95	32.05	7.07	-51.7	-67.3	3.6	1.51e+00	0	35	104	0	60	112654
2026-01-07 18:56:26.98	31.68	7.22	-51.7	-67.3	3.6	1.51e+00	0	35	104	0	60	112833
2026-01-07 18:56:30.01	31.31	7.38	-51.7	-67.3	3.6	1.51e+00	0	35	104	0	60	112705
2026-01-07 18:56:33.04	30.93	7.53	-51.7	-67.3	3.6	1.51e+00	0	35	104	0	60	112948
2026-01-07 18:56:36.07	30.55	7.69	-51.7	-67.3	3.6	1.51e+00	0	35	104	0	60	112915
2026-01-07 18:56:39.10	30.17	7.85	-51.7	-67.3	3.6	1.51e+00	0	35	104	0	60	113233
2026-01-07 18:56:42.14	29.78	8.00	-51.7	-67.3	3.6	1.51e+00	0	35	104	0	60	113105
2026-01-07 18:56:45.17	29.39	8.16	-51.7	-67.3	3.6	1.51e+00	0	35	104	0	60	113407
2026-01-07 18:56:48.20	28.99	8.31	-51.7	-67.3	3.6	1.51e+00	0	35	104	0	60	113021
2026-01-07 18:56:51.24	28.59	8.46	-51.7	-67.3	3.6	1.51e+00	0	35	104	0	60	113071
2026-01-07 18:56:54.27	28.19	8.62	-51.7	-67.3	3.6	1.51e+00	0	35	104	0	60	113167
2026-01-07 18:56:57.30	27.78	8.77	-51.7	-67.3	3.6	1.51e+00	0	35	104	0	60	112715
2026-01-07 18:57:00.33	27.37	8.92	-51.7	-67.3	3.6	1.51e+00	0	35	104	0	60	113060
2026-01-07 18:57:03.37	26.95	9.08	-51.7	-67.3	3.6	1.51e+00	0	35	104	0	60	112846
2026-01-07 18:57:06.40	26.52	9.23	-51.7	-67.3	3.6	1.51e+00	0	35	104	0	60	113026
2026-01-07 18:57:09.43	26.10	9.38	-51.7	-67.3	3.6	1.51e+00	0	35	104	0	60	113316
2026-01-07 18:57:12.47	25.66	9.53	-51.7	-67.3	3.6	1.51e+00	0	35	104	0	60	113084
2026-01-07 18:57:15.50	25.23	9.68	-51.7	-67.3	3.6	1.51e+00	0	35	104	0	60	112908
2026-01-07 18:57:18.53	24.79	9.83	-51.7	-67.3	3.6	1.51e+00	0	35	104	0	60	112893
2026-01-07 18:57:21.57	24.34	9.98	-51.7	-67.3	3.6	1.51e+00	0	35	104	0	60	112559
2026-01-07 18:57:24.60	23.89	10.12	-51.7	-67.4	3.6	1.51e+00	0	35	104	0	60	113790
2026-01-07 18:57:27.63	23.44	10.27	-51.7	-67.3	3.6	1.51e+00	0	35	104	0	60	113226
2026-01-07 18:57:30.66	22.98	10.42	-51.7	-67.3	3.6	1.51e+00	0	35	104	0	60	113145
2026-01-07 18:57:33.70	22.51	10.56	-51.7	-67.3	3.6	1.51e+00	0	35	104	0	60	112756
2026-01-07 18:57:36.73	22.04	10.70	-51.7	-67.3	3.6	1.51e+00	0	35	104	0	60	113208
2026-01-07 18:57:39.76	21.57	10.85	-51.7	-67.3	3.6	1.51e+00	0	35	104	0	60	113100
2026-01-07 18:57:42.80	21.09	10.99	-51.7	-67.3	3.6	1.51e+00	0	35	104	0	60	112831
2026-01-07 18:57:45.83	20.61	11.13	-51.7	-67.3	3.6	1.51e+00	0	35	104	0	60	112613
2026-01-07 18:57:48.86	20.12	11.27	-51.7	-67.3	3.6	1.51e+00	0	36	104	0	60	113188
2026-01-07 18:57:51.90	19.63	11.41	-51.7	-67.3	3.6	1.51e+00	0	35	104	0	60	113198
2026-01-07 18:57:54.93	19.13	11.54	-51.7	-67.3	3.6	1.51e+00	0	35	104	0	60	113137
2026-01-07 18:57:57.96	18.63	11.68	-51.7	-67.3	3.6	1.51e+00	0	36	104	0	60	113556
2026-01-07 18:58:01.00	18.12	11.81	-51.7	-67.3	3.6	1.51e+00	0	35	104	0	60	113624
2026-01-07 18:58:04.03	17.61	11.94	-51.7	-67.3	3.6	1.51e+00	0	36	104	0	60	113349
2026-01-07 18:58:07.06	17.10	12.07	-51.7	-67.3	3.6	1.51e+00	0	36	104	0	60	113011
2026-01-07 18:58:10.09	16.58	12.20	-51.7	-67.3	3.6	1.51e+00	0	35	104	0	60	112561
2026-01-07 18:58:13.12	16.05	12.33	-51.7	-67.3	3.6	1.51e+00	0	35	104	0	60	112634
2026-01-07 18:58:16.16	15.52	12.46	-51.7	-67.3	3.6	1.51e+00	0	36	104	0	60	112932
2026-01-07 18:58:19.19	14.99	12.58	-51.7	-67.3	3.6	1.51e+00	0	36	104	0	60	112763
2026-01-07 18:58:22.22	14.45	12.70	-51.7	-67.3	3.6	1.51e+00	0	36	104	0	60	113334
2026-01-07 18:58:25.25	13.91	12.82	-51.7	-67.3	3.6	1.51e+00	0	36	104	0	60	113400
2026-01-07 18:58:28.29	13.36	12.94	-51.7	-67.3	3.6	1.51e+00	0	35	104	0	60	113098
2026-01-07 18:58:31.32	12.81	13.06	-51.7	-67.3	3.6	1.51e+00	0	36	104	0	60	112768
2026-01-07 18:58:34.35	12.25	13.17	-51.7	-67.2	3.6	1.51e+00	0	36	104	0	60	112347
2026-01-07 18:58:37.39	11.69	13.28	-51.7	-67.3	3.6	1.51e+00	0	35	104	0	60	113223
2026-01-07 18:58:40.42	11.12	13.39	-51.7	-67.3	3.6	1.51e+00	0	36	104	0	60	112483
2026-01-07 18:58:43.45	10.56	13.50	-51.7	-67.3	3.6	1.51e+00	0	36	104	0	60	113363
2026-01-07 18:58:46.49	9.98	13.60	-51.7	-67.3	3.6	1.51e+00	0	36	104	0	60	113455
2026-01-07 18:58:49.52	9.40	13.71	-51.7	-67.3	3.6	1.51e+00	0	36	104	0	60	113343
2026-01-07 18:58:52.55	8.82	13.81	-51.7	-67.3	3.6	1.51e+00	0	36	104	0	60	113068
2026-01-07 18:58:55.58	8.24	13.90	-51.7	-67.3	3.6	1.51e+00	0	36	104	0	60	113398
2026-01-07 18:58:58.62	7.65	14.00	-51.7	-67.3	3.6	1.51e+00	0	36	104	0	60	112928
2026-01-07 18:59:01.65	7.05	14.09	-51.7	-67.3	3.6	1.51e+00	0	36	104	0	60	113436
2026-01-07 18:59:04.68	6.46	14.18	-51.7	-67.3	3.6	1.51e+00	0	35	104	0	60	113475
2026-01-07 18:59:07.71	5.86	14.27	-51.7	-67.3	3.6	1.51e+00	0	36	104	0	60	112977
2026-01-07 18:59:10.75	5.25	14.35	-51.7	-67.3	3.6	1.51e+00	0	36	104	0	60	112893
2026-01-07 18:59:13.78	4.65	14.43	-51.7	-67.3	3.6	1.51e+00	0	36	104	0	60	112659
2026-01-07 18:59:16.81	4.04	14.51	-51.7	-67.3	3.6	1.51e+00	0	36	104	0	60	113435
2026-01-07 18:59:19.84	3.42	14.58	-51.7	-67.2	3.6	1.51e+00	0	36	104	0	60	112137
2026-01-07 18:59:22.88	2.80	14.66	-51.7	-67.3	3.6	1.51e+00	0	36	104	0	60	113053
2026-01-07 18:59:25.91	2.18	14.72	-51.7	-67.3	3.6	1.51e+00	0	36	104	0	60	112436
2026-01-07 18:59:28.94	1.56	14.79	-51.7	-67.3	3.6	1.51e+00	0	36	104	0	60	113031
2026-01-07 18:59:31.98	0.94	14.85	-51.7	-67.3	3.6	1.51e+00	0	36	104	0	60	112741
2026-01-07 18:59:35.01	0.31	14.91	-51.7	-67.4	3.6	1.51e+00	0	36	104	0	60	114107
2026-01-07 18:59:38.04	359.68	14.97	-51.7	-67.3	3.6	1.51e+00	0	36	104	0	60	112809
2026-01-07 18:59:41.07	359.05	15.02	-51.7	-67.2	3.6	1.51e+00	0	36	104	0	60	111888
2026-01-07 18:59:44.11	358.41	15.07	-51.7	-67.3	3.6	1.51e+00	0	36	104	0	60	112867
2026-01-07 18:59:47.14	357.77	15.11	-51.7	-67.3	3.6	1.51e+00	0	36	104	0	60	113256
2026-01-07 18:59:50.17	357.13	15.15	-51.7	-67.3	3.6	1.51e+00	0	36	104	0	60	112516
2026-01-07 18:59:53.21	356.49	15.19	-51.7	-67.3	3.6	1.51e+00	0	36	104	0	60	112959
2026-01-07 18:59:56.24	355.85	15.23	-51.7	-67.3	3.6	1.51e+00	0	36	104	0	60	113185
2026-01-07 18:59:59.27	355.21	15.26	-51.6	-67.3	3.6	1.51e+00	0	36	104	0	60	112908
2026-01-07 19:00:02.31	354.56	15.28	-51.7	-67.3	3.6	1.51e+00	0	36	104	0	60	113208
2026-01-07 19:00:05.34	353.92	15.31	-51.7	-67.3	3.6	1.51e+00	0	36	104	0	60	112638
2026-01-07 19:00:08.37	353.27	15.33	-51.7	-67.3	3.6	1.51e+00	0	36	104	0	60	112903
2026-01-07 19:00:11.40	352.62	15.34	-51.7	-67.3	3.6	1.51e+00	0	36	104	0	60	112816
2026-01-07 19:00:14.44	351.97	15.36	-51.7	-67.3	3.6	1.51e+00	0	36	104	0	60	112912
2026-01-07 19:00:17.47	351.32	15.37	-51.7	-67.3	3.6	1.51e+00	0	36	104	0	60	113117
2026-01-07 19:00:20.50	350.68	15.37	-51.7	-67.3	3.6	1.51e+00	0	36	104	0	60	112780
2026-01-07 19:00:23.53	350.03	15.37	-51.7	-67.3	3.6	1.51e+00	0	36	104	0	60	112957
2026-01-07 19:00:26.57	349.38	15.37	-51.7	-67.2	3.6	1.51e+00	0	36	104	0	60	111984
2026-01-07 19:00:29.60	348.73	15.36	-51.7	-67.3	3.5	1.51e+00	0	36	104	0	60	113039
2026-01-07 19:00:32.63	348.08	15.36	-51.7	-67.3	3.6	1.51e+00	0	36	104	0	60	113353
2026-01-07 19:00:35.67	347.43	15.34	-51.7	-67.3	3.6	1.51e+00	0	36	104	0	60	113003
2026-01-07 19:00:38.70	346.78	15.33	-51.7	-67.3	3.6	1.51e+00	0	36	104	0	60	113059
2026-01-07 19:00:41.73	346.14	15.30	-51.7	-67.3	3.6	1.51e+00	0	36	104	0	60	113036
2026-01-07 19:00:44.76	345.49	15.28	-51.7	-67.3	3.6	1.51e+00	0	36	104	0	60	113280
2026-01-07 19:00:47.80	344.85	15.25	-51.7	-67.3	3.6	1.51e+00	0	36	104	0	60	113214
2026-01-07 19:00:50.83	344.20	15.22	-51.7	-67.3	3.6	1.51e+00	0	36	104	0	60	113360
2026-01-07 19:00:53.86	343.56	15.19	-51.7	-67.3	3.6	1.51e+00	0	36	104	0	60	112656
2026-01-07 19:00:56.90	342.92	15.15	-51.7	-67.3	3.6	1.51e+00	0	36	104	0	60	113073
2026-01-07 19:00:59.93	342.28	15.11	-51.7	-67.3	3.6	1.51e+00	0	36	104	0	60	112890
2026-01-07 19:01:02.96	341.65	15.06	-51.7	-67.3	3.6	1.51e+00	0	36	104	0	60	112825
2026-01-07 19:01:05.99	341.01	15.01	-51.7	-67.3	3.6	1.51e+00	0	36	104	0	60	113443
2026-01-07 19:01:09.03	340.38	14.96	-51.7	-67.2	3.6	1.51e+00	0	36	104	0	60	111524
2026-01-07 19:01:12.06	339.75	14.90	-51.7	-67.3	3.6	1.51e+00	0	36	104	0	60	112659
2026-01-07 19:01:15.09	339.12	14.84	-51.7	-67.3	3.6	1.51e+00	0	36	104	0	60	113537
2026-01-07 19:01:18.12	338.50	14.78	-51.7	-67.3	3.6	1.51e+00	0	36	104	0	60	113629
2026-01-07 19:01:21.16	337.87	14.71	-51.7	-67.3	3.6	1.51e+00	0	36	104	0	60	113561
2026-01-07 19:01:24.19	337.25	14.65	-51.7	-67.4	3.6	1.51e+00	0	36	104	0	60	113763
2026-01-07 19:01:27.22	336.64	14.57	-51.7	-67.3	3.6	1.51e+00	0	36	104	0	60	113504
2026-01-07 19:01:30.26	336.02	14.50	-51.7	-67.3	3.6	1.51e+00	0	36	104	0	60	113179
2026-01-07 19:01:33.29	335.41	14.42	-51.7	-67.3	3.6	1.51e+00	0	36	104	0	60	112899
2026-01-07 19:01:36.32	334.81	14.34	-51.7	-67.3	3.6	1.51e+00	0	36	104	0	60	113111
2026-01-07 19:01:39.35	334.20	14.25	-51.7	-67.3	3.6	1.51e+00	0	36	104	0	60	112851
2026-01-07 19:01:42.39	333.60	14.17	-51.6	-67.3	3.6	1.51e+00	0	36	104	0	60	112490
2026-01-07 19:01:45.42	333.00	14.08	-51.6	-67.3	3.5	1.51e+00	0	36	104	0	60	112587
2026-01-07 19:01:48.45	332.41	13.99	-51.6	-67.3	3.6	1.51e+00	0	36	104	0	60	113616
2026-01-07 19:01:51.49	331.82	13.89	-51.6	-67.3	3.6	1.51e+00	0	36	104	0	60	113215
2026-01-07 19:01:54.52	331.24	13.79	-51.6	-67.3	3.5	1.51e+00	0	36	104	0	60	112888
2026-01-07 19:01:57.55	330.66	13.69	-51.6	-67.3	3.6	1.51e+00	0	36	104	0	60	113330
2026-01-07 19:02:00.59	330.08	13.59	-51.6	-67.3	3.6	1.51e+00	0	36	104	0	60	112950
2026-01-07 19:02:03.62	329.51	13.48	-51.6	-67.3	3.6	1.51e+00	0	36	104	0	60	113241
2026-01-07 19:02:06.65	328.94	13.38	-51.6	-67.4	3.6	1.51e+00	0	36	104	0	60	113688
2026-01-07 19:02:09.68	328.37	13.27	-51.6	-67.3	3.6	1.51e+00	0	36	104	0	60	113243
2026-01-07 19:02:12.72	327.81	13.15	-51.6	-67.3	3.6	1.51e+00	0	36	104	0	60	113282
2026-01-07 19:02:15.75	327.26	13.04	-51.6	-67.3	3.6	1.51e+00	0	36	104	0	60	112782
2026-01-07 19:02:18.79	326.70	12.92	-51.6	-67.3	3.6	1.51e+00	0	36	104	0	60	112609
2026-01-07 19:02:21.82	326.16	12.81	-51.6	-67.3	3.6	1.51e+00	0	36	104	0	60	113319
2026-01-07 19:02:24.85	325.61	12.68	-51.6	-67.3	3.6	1.51e+00	0	36	104	0	60	113124
2026-01-07 19:02:27.88	325.08	12.56	-51.6	-67.2	3.6	1.51e+00	0	36	104	0	60	112231
2026-01-07 19:02:30.92	324.54	12.44	-51.6	-67.3	3.6	1.51e+00	0	36	104	0	60	113401
2026-01-07 19:02:33.95	324.01	12.31	-51.6	-67.3	3.6	1.51e+00	0	36	104	0	60	113343
2026-01-07 19:02:36.98	323.49	12.18	-51.6	-67.3	3.6	1.51e+00	0	36	104	0	60	113138
2026-01-07 19:02:40.01	322.97	12.06	-51.6	-67.3	3.6	1.51e+00	0	36	104	0	60	113084
2026-01-07 19:02:43.05	322.45	11.92	-51.6	-67.3	3.6	1.51e+00	0	36	104	0	60	112642
2026-01-07 19:02:46.08	321.94	11.79	-51.6	-67.3	3.6	1.51e+00	0	36	104	0	60	113346
2026-01-07 19:02:49.11	321.44	11.66	-51.6	-67.3	3.6	1.51e+00	0	36	104	0	60	113567
2026-01-07 19:02:52.15	320.93	11.52	-51.6	-67.3	3.6	1.51e+00	0	36	104	0	60	113627
2026-01-07 19:02:55.18	320.44	11.39	-51.6	-67.3	3.6	1.51e+00	0	36	104	0	60	112984
2026-01-07 19:02:58.21	319.95	11.25	-51.6	-67.3	3.6	1.51e+00	0	36	104	0	60	112833
2026-01-07 19:03:01.25	319.46	11.11	-51.6	-67.3	3.6	1.51e+00	0	36	104	0	60	113120
2026-01-07 19:03:04.28	318.98	10.97	-51.6	-67.3	3.6	1.51e+00	0	36	104	0	60	113185
2026-01-07 19:03:07.31	318.50	10.83	-51.6	-67.3	3.6	1.51e+00	0	36	104	0	60	113284
2026-01-07 19:03:10.34	318.03	10.68	-51.6	-67.3	3.6	1.51e+00	0	36	104	0	60	112744
2026-01-07 19:03:13.38	317.56	10.54	-51.6	-67.3	3.6	1.51e+00	0	36	104	0	60	113185
2026-01-07 19:03:16.41	317.09	10.39	-51.6	-67.3	3.6	1.51e+00	0	36	104	0	60	113005
2026-01-07 19:03:19.44	316.64	10.25	-51.6	-67.3	3.6	1.51e+00	0	36	104	0	60	113590
2026-01-07 19:03:22.48	316.18	10.10	-51.6	-67.3	3.6	1.51e+00	0	36	104	0	60	112936
2026-01-07 19:03:25.51	315.73	9.95	-51.6	-67.2	3.6	1.51e+00	0	36	104	0	60	112211
2026-01-07 19:03:28.54	315.29	9.81	-51.6	-67.3	3.6	1.51e+00	0	36	104	0	60	113386
2026-01-07 19:03:31.57	314.85	9.66	-51.6	-67.3	3.6	1.51e+00	0	36	104	0	60	112684
2026-01-07 19:03:34.61	314.41	9.51	-51.6	-67.3	3.6	1.51e+00	0	36	104	0	60	113130
2026-01-07 19:03:37.64	313.98	9.36	-51.6	-67.3	3.6	1.51e+00	0	36	104	0	60	112935
2026-01-07 19:03:40.67	313.55	9.21	-51.6	-67.3	3.6	1.51e+00	0	36	104	0	60	113130
2026-01-07 19:03:43.71	313.13	9.05	-51.6	-67.3	3.6	1.51e+00	0	36	104	0	60	113450
2026-01-07 19:03:46.74	312.71	8.90	-51.6	-67.3	3.6	1.51e+00	0	36	104	0	60	112875
2026-01-07 19:03:49.77	312.30	8.75	-51.6	-67.3	3.6	1.51e+00	0	36	104	0	60	113196
2026-01-07 19:03:52.81	311.89	8.59	-51.6	-67.3	3.6	1.51e+00	0	36	104	0	60	112961
2026-01-07 19:03:55.84	311.48	8.44	-51.6	-67.3	3.6	1.51e+00	0	36	104	0	60	113087
2026-01-07 19:03:58.87	311.08	8.29	-51.6	-67.3	3.6	1.51e+00	0	36	104	0	60	112568
2026-01-07 19:04:01.91	310.69	8.13	-51.6	-67.3	3.6	1.51e+00	0	36	104	0	60	112619
2026-01-07 19:04:04.94	310.29	7.98	-51.6	-67.3	3.6	1.51e+00	0	36	104	0	60	113355
2026-01-07 19:04:07.97	309.91	7.82	-51.6	-67.3	3.6	1.51e+00	0	36	104	0	60	113236
2026-01-07 19:04:11.00	309.52	7.67	-51.6	-67.3	3.6	1.51e+00	0	36	104	0	60	113420
2026-01-07 19:04:14.04	309.14	7.51	-51.6	-67.3	3.6	1.51e+00	0	36	104	0	60	113524
2026-01-07 19:04:17.07	308.77	7.35	-51.6	-67.3	3.6	1.51e+00	0	36	104	0	60	113109
2026-01-07 19:04:20.10	308.40	7.20	-51.6	-67.3	3.6	1.51e+00	0	36	104	0	60	113332
2026-01-07 19:04:23.13	308.03	7.04	-51.6	-67.3	3.6	1.51e+00	0	36	104	0	60	112829
2026-01-07 19:04:26.16	307.67	6.89	-51.6	-67.3	3.6	1.51e+00	0	36	104	0	60	112795
2026-01-07 19:04:29.20	307.31	6.73	-51.6	-67.3	3.6	1.51e+00	0	36	104	0	60	113421
2026-01-07 19:04:32.23	306.96	6.57	-51.6	-67.3	3.6	1.51e+00	0	36	104	0	60	113281
2026-01-07 19:04:35.26	306.60	6.42	-51.6	-67.3	3.6	1.51e+00	0	36	104	0	60	113042
2026-01-07 19:04:38.30	306.26	6.26	-51.6	-67.3	3.6	1.51e+00	0	36	104	0	60	112868
2026-01-07 19:04:41.33	305.91	6.10	-51.6	-67.3	3.6	1.51e+00	0	36	104	0	60	113089
2026-01-07 19:04:44.36	305.57	5.95	-51.6	-67.3	3.6	1.51e+00	0	36	104	0	60	113396
2026-01-07 19:04:47.39	305.24	5.79	-51.6	-67.3	3.6	1.51e+00	0	36	104	0	60	113292
2026-01-07 19:04:50.43	304.91	5.63	-51.6	-67.3	3.6	1.51e+00	0	36	104	0	60	113156
2026-01-07 19:04:53.46	304.58	5.47	-51.6	-67.3	3.6	1.51e+00	0	36	104	0	60	113632
2026-01-07 19:04:56.49	304.25	5.32	-51.6	-67.3	3.6	1.51e+00	0	36	104	0	60	113501
2026-01-07 19:04:59.52	303.93	5.16	-51.6	-67.3	3.6	1.51e+00	0	36	104	0	60	113366
2026-01-07 19:05:02.56	303.61	5.00	-51.6	-67.3	3.6	1.51e+00	0	36	104	0	60	113005
2026-01-07 19:05:05.59	303.30	4.85	-51.6	-67.3	3.6	1.51e+00	0	36	104	0	60	112949
2026-01-07 19:05:08.62	302.99	4.69	-51.6	-67.3	3.6	1.51e+00	0	36	104	0	60	113520
2026-01-07 19:05:11.66	302.68	4.54	-51.6	-67.3	3.6	1.51e+00	0	36	104	0	60	113468
2026-01-07 19:05:14.69	302.38	4.38	-51.6	-67.3	3.6	1.51e+00	0	36	104	0	60	113006
2026-01-07 19:05:17.72	302.08	4.22	-51.6	-67.3	3.6	1.51e+00	0	36	104	0	60	113430
2026-01-07 19:05:20.76	301.78	4.07	-51.6	-67.3	3.6	1.51e+00	0	36	104	0	60	113432
2026-01-07 19:05:23.79	301.48	3.91	-51.7	-67.3	3.6	1.51e+00	0	36	104	0	60	113362
2026-01-07 19:05:26.82	301.19	3.76	-51.7	-67.3	3.6	1.51e+00	0	36	104	0	60	113283
2026-01-07 19:05:29.85	300.91	3.60	-51.6	-67.3	3.6	1.51e+00	0	36	104	0	60	113028
2026-01-07 19:05:32.89	300.62	3.45	-51.7	-67.3	3.6	1.51e+00	0	36	104	0	60	112695
2026-01-07 19:05:35.92	300.34	3.29	-51.6	-67.3	3.6	1.51e+00	0	36	104	0	60	113234
2026-01-07 19:05:38.95	300.06	3.14	-51.6	-67.3	3.6	1.51e+00	0	36	104	0	60	113221
2026-01-07 19:05:41.99	299.78	2.98	-51.6	-67.3	3.6	1.51e+00	0	36	104	0	60	113069
2026-01-07 19:05:45.02	299.51	2.83	-51.6	-67.3	3.6	1.51e+00	0	36	104	0	60	113104
2026-01-07 19:05:48.05	299.24	2.67	-51.6	-67.3	3.6	1.51e+00	0	36	104	0	60	113206
2026-01-07 19:05:51.08	298.98	2.52	-51.6	-67.3	3.6	1.51e+00	0	36	104	0	60	112872
2026-01-07 19:05:54.11	298.71	2.37	-51.6	-67.3	3.6	1.51e+00	0	36	104	0	60	113038
2026-01-07 19:05:57.15	298.45	2.21	-51.6	-67.3	3.6	1.51e+00	0	36	104	0	60	112962
2026-01-07 19:06:00.18	298.19	2.06	-51.7	-67.3	3.6	1.51e+00	0	36	104	0	60	113560
2026-01-07 19:06:03.21	297.94	1.91	-51.6	-67.3	3.6	1.51e+00	0	36	104	0	60	113170
2026-01-07 19:06:06.25	297.68	1.76	-51.6	-67.3	3.6	1.51e+00	0	36	104	0	60	113336
2026-01-07 19:06:09.28	297.43	1.61	-51.6	-67.3	3.6	1.51e+00	0	36	104	0	60	113119
2026-01-07 19:06:12.31	297.19	1.45	-51.7	-67.3	3.6	1.51e+00	0	36	104	0	60	113472
2026-01-07 19:06:15.35	296.94	1.30	-51.6	-67.3	3.6	1.51e+00	0	36	104	0	60	113090
2026-01-07 19:06:18.38	296.70	1.15	-51.6	-67.3	3.6	1.51e+00	0	36	104	0	60	113435
2026-01-07 19:06:21.41	296.46	1.00	-51.6	-67.3	3.6	1.51e+00	0	36	104	0	60	113310
2026-01-07 19:06:24.44	296.22	0.85	-51.6	-67.3	3.6	1.51e+00	0	36	104	0	60	113527
2026-01-07 19:06:27.48	295.99	0.70	-51.6	-67.3	3.6	1.51e+00	0	36	104	0	60	112802
2026-01-07 19:06:30.51	295.75	0.55	-51.6	-67.3	3.6	1.51e+00	0	36	104	0	60	113094
2026-01-07 19:06:33.54	295.53	0.40	-51.6	-67.3	3.6	1.51e+00	0	36	104	0	60	113575
2026-01-07 19:06:36.57	295.30	0.25	-51.6	-67.3	3.6	1.51e+00	0	36	104	0	60	113619
2026-01-07 19:06:39.60	295.07	0.10	-51.6	-67.3	3.5	1.51e+00	0	36	104	0	60	112966

#Closed at: 2026-01-07 19:06:41
#Recorded file [0 MB]: D:/lorett/data/35034_260107_215407.dat