passes_logs/2026/01/07/R4.6S_Anadyr_2ch/R4.6S_Anadyr_2ch__20260107_021049_NOAA_20_JPSS-1_rec.log

#Pass ID: 20260107_021049_NOAA 20 (JPSS-1)
#Satellite: NOAA 20 (JPSS-1)
#Configuration: NOAA 20
#almurnet v.1.7.20251203
#Start time: 2026-01-07 02:10:53

#Version: 2.2.20231116
#Station: R4.6S_Anadyr_2ch
#Location: 177.4865 lon 64.73178 lat
#TLE: 1 43013U 17073A   25350.93759711  .00000080  00000+0  58734-4 0  9994
#TLE: 2 43013  98.7603 287.1885 0002156  81.1496 278.9924 14.19526878418610

#Time	Az	El	Level	Level2	SNR	BER	BlckErr	Temp	State	Recorded	gain1	gain2
2026-01-07 02:10:53.30	207.37	0.18	-51.1	-65.3	3.3	1.54e+00	0	31	0	0	60	89724
2026-01-07 02:10:57.34	207.62	0.40	-51.4	-66.8	3.6	1.51e+00	0	31	104	0	60	106285
2026-01-07 02:11:01.38	207.88	0.61	-51.2	-66.6	3.6	1.51e+00	0	31	104	0	60	104470
2026-01-07 02:11:05.42	208.14	0.83	-50.8	-66.1	3.6	1.51e+00	0	32	104	0	60	98666
2026-01-07 02:11:09.46	208.40	1.05	-49.9	-65.2	3.6	1.51e+00	0	32	104	0	60	88495
2026-01-07 02:11:13.49	208.67	1.26	-49.9	-65.2	3.6	1.51e+00	0	32	104	0	60	88864
2026-01-07 02:11:17.53	208.94	1.48	-49.9	-65.3	3.6	1.51e+00	0	32	104	0	60	89272
2026-01-07 02:11:21.57	209.22	1.71	-49.9	-65.3	3.6	1.51e+00	0	32	104	0	60	89682
2026-01-07 02:11:25.60	209.50	1.93	-49.9	-65.2	3.6	1.51e+00	0	32	104	0	60	89214
2026-01-07 02:11:29.64	209.78	2.15	-49.9	-65.1	3.6	1.51e+00	0	32	104	0	60	88195
2026-01-07 02:11:33.68	210.07	2.38	-49.9	-65.1	3.6	1.51e+00	0	32	104	0	60	87242
2026-01-07 02:11:37.72	210.36	2.60	-49.9	-64.3	3.6	1.51e+00	0	32	104	0	60	80080
2026-01-07 02:11:41.76	210.65	2.83	-49.8	-62.7	3.6	1.51e+00	0	32	104	0	60	66595
2026-01-07 02:11:45.79	210.95	3.06	-47.0	-50.3	14.0	1.29e-05	0	32	102	1048576	60	16000
2026-01-07 02:11:49.83	211.26	3.29	-45.0	-47.1	17.4	0.00e+00	92	32	102	1048576	60	11049
2026-01-07 02:11:53.87	211.57	3.52	-45.0	-47.0	17.2	7.75e-01	92	32	0	1048576	60	10892
2026-01-07 02:11:57.91	211.88	3.75	-44.4	-46.3	18.2	0.00e+00	92	32	0	1048576	60	10032
2026-01-07 02:12:01.95	212.20	3.99	-43.7	-45.3	19.1	0.00e+00	0	32	0	1048576	60	9014
2026-01-07 02:12:06.00	212.53	4.22	-43.0	-44.5	20.2	0.00e+00	90	32	0	1048576	60	8146
2026-01-07 02:12:10.04	212.86	4.46	-42.8	-44.2	20.4	0.00e+00	90	32	0	1048576	60	7902
2026-01-07 02:12:14.08	213.19	4.70	-43.0	-44.4	20.3	0.00e+00	92	32	101	1048576	60	8048
2026-01-07 02:12:18.12	213.53	4.94	-43.1	-44.5	20.1	0.00e+00	43	32	101	1048576	60	8222
2026-01-07 02:12:22.15	213.87	5.18	-43.0	-44.3	20.3	0.00e+00	90	32	101	1048576	60	8037
2026-01-07 02:12:26.19	214.22	5.42	-42.8	-44.1	20.6	0.00e+00	92	32	101	1048576	60	7834
2026-01-07 02:12:30.22	214.58	5.66	-42.5	-43.8	20.9	0.00e+00	65	32	101	1048576	60	7569
2026-01-07 02:12:34.25	214.94	5.91	-42.5	-43.7	21.1	0.00e+00	37	32	101	1048576	60	7463
2026-01-07 02:12:38.29	215.31	6.15	-42.4	-43.7	21.1	0.00e+00	92	32	101	1048576	60	7432
2026-01-07 02:12:42.33	215.68	6.40	-42.1	-43.3	21.5	0.00e+00	92	32	101	1048576	60	7116
2026-01-07 02:12:46.36	216.06	6.65	-42.3	-43.5	21.4	0.00e+00	92	32	101	1048576	60	7261
2026-01-07 02:12:50.40	216.45	6.90	-42.1	-43.3	21.5	0.00e+00	92	32	101	1048576	60	7105
2026-01-07 02:12:54.44	216.84	7.15	-42.1	-43.3	21.5	0.00e+00	90	32	101	1048576	60	7134
2026-01-07 02:12:58.47	217.24	7.40	-42.1	-43.3	21.6	0.00e+00	90	32	101	1048576	60	7095
2026-01-07 02:13:02.51	217.64	7.66	-42.2	-43.3	21.6	0.00e+00	92	32	101	1048576	60	7165
2026-01-07 02:13:06.55	218.05	7.91	-42.1	-43.2	21.7	0.00e+00	90	32	101	1048576	60	7059
2026-01-07 02:13:10.59	218.47	8.17	-41.9	-43.0	21.9	0.00e+00	90	32	101	1048576	60	6852
2026-01-07 02:13:14.63	218.90	8.43	-41.6	-42.7	22.2	0.00e+00	90	32	101	1048576	60	6622
2026-01-07 02:13:18.67	219.33	8.69	-41.7	-42.8	22.1	0.00e+00	26	32	101	1048576	60	6730
2026-01-07 02:13:22.71	219.77	8.95	-41.7	-42.8	22.1	0.00e+00	92	32	101	1048576	60	6764
2026-01-07 02:13:26.75	220.22	9.21	-41.7	-42.7	22.2	0.00e+00	92	32	101	1048576	60	6687
2026-01-07 02:13:30.79	220.68	9.47	-41.6	-42.7	22.2	0.00e+00	92	32	101	1048576	60	6677
2026-01-07 02:13:34.83	221.14	9.74	-41.6	-42.7	22.3	0.00e+00	0	32	101	1048576	60	6656
2026-01-07 02:13:38.87	221.62	10.00	-41.8	-42.8	22.2	0.00e+00	92	32	101	1048576	60	6767
2026-01-07 02:13:42.90	222.10	10.27	-41.7	-42.7	22.3	0.00e+00	92	32	101	1048576	60	6689
2026-01-07 02:13:46.94	222.59	10.54	-41.7	-42.8	22.2	0.00e+00	92	32	101	1048576	60	6719
2026-01-07 02:13:50.98	223.09	10.81	-41.4	-42.4	22.6	0.00e+00	74	32	101	1048576	60	6458
2026-01-07 02:13:55.02	223.59	11.08	-41.5	-42.6	22.5	0.00e+00	92	32	101	1048576	60	6576
2026-01-07 02:13:59.07	224.11	11.35	-41.3	-42.3	22.6	0.00e+00	92	32	101	1048576	60	6378
2026-01-07 02:14:03.11	224.64	11.62	-41.2	-42.2	22.7	0.00e+00	69	32	101	1048576	60	6304
2026-01-07 02:14:07.15	225.17	11.89	-41.2	-42.2	22.7	0.00e+00	42	32	101	1048576	60	6292
2026-01-07 02:14:11.19	225.72	12.17	-41.4	-42.5	22.6	0.00e+00	90	32	101	1048576	60	6467
2026-01-07 02:14:15.23	226.27	12.44	-41.1	-42.1	22.9	0.00e+00	92	32	101	1048576	60	6187
2026-01-07 02:14:19.27	226.84	12.72	-41.1	-42.1	22.9	0.00e+00	0	32	101	1048576	60	6243
2026-01-07 02:14:23.31	227.41	12.99	-41.0	-42.0	23.1	0.00e+00	92	32	101	1048576	60	6105
2026-01-07 02:14:27.34	228.00	13.27	-40.9	-41.9	23.1	0.00e+00	92	32	101	1048576	60	6078
2026-01-07 02:14:31.38	228.59	13.54	-41.0	-42.0	23.1	0.00e+00	90	32	101	1048576	60	6107
2026-01-07 02:14:35.42	229.20	13.82	-41.0	-42.0	23.0	0.00e+00	6	32	101	1048576	60	6120
2026-01-07 02:14:39.46	229.82	14.10	-40.9	-41.9	23.1	0.00e+00	91	32	101	1048576	60	6083
2026-01-07 02:14:43.49	230.45	14.37	-41.0	-42.0	23.1	0.00e+00	92	32	101	1048576	60	6125
2026-01-07 02:14:47.53	231.09	14.65	-40.7	-41.6	23.4	0.00e+00	92	32	101	1048576	60	5878
2026-01-07 02:14:51.57	231.74	14.93	-40.6	-41.5	23.4	0.00e+00	56	32	101	1048576	60	5828
2026-01-07 02:14:55.61	232.41	15.20	-40.9	-41.9	23.2	0.00e+00	90	32	101	1048576	60	6037
2026-01-07 02:14:59.64	233.08	15.48	-40.8	-41.7	23.3	0.00e+00	92	32	101	1048576	60	5962
2026-01-07 02:15:03.69	233.77	15.76	-40.8	-41.7	23.3	0.00e+00	90	32	101	1048576	60	5952
2026-01-07 02:15:07.73	234.47	16.03	-40.9	-41.9	23.2	0.00e+00	17	32	101	1048576	60	6060
2026-01-07 02:15:11.76	235.18	16.30	-40.5	-41.4	23.7	0.00e+00	92	32	101	1048576	60	5714
2026-01-07 02:15:15.80	235.91	16.57	-40.5	-41.4	23.7	0.00e+00	90	32	101	1048576	60	5737
2026-01-07 02:15:19.84	236.65	16.85	-40.3	-41.2	23.8	0.00e+00	92	32	101	1048576	60	5627
2026-01-07 02:15:23.89	237.40	17.11	-40.0	-40.9	24.1	0.00e+00	7	32	101	1048576	58	6059
2026-01-07 02:15:27.93	238.17	17.38	-40.2	-41.1	23.9	0.00e+00	92	32	101	1048576	58	6228
2026-01-07 02:15:31.97	238.95	17.65	-39.9	-40.7	24.2	0.00e+00	92	32	101	1048576	58	5959
2026-01-07 02:15:36.01	239.74	17.91	-39.6	-40.5	24.5	0.00e+00	92	32	101	1048576	58	5785
2026-01-07 02:15:40.05	240.54	18.17	-39.7	-40.6	24.3	0.00e+00	91	32	101	1048576	58	5864
2026-01-07 02:15:44.08	241.36	18.43	-39.6	-40.4	24.5	0.00e+00	92	32	101	1048576	58	5732
2026-01-07 02:15:48.12	242.19	18.68	-39.6	-40.5	24.4	0.00e+00	92	32	101	1048576	58	5798
2026-01-07 02:15:52.16	243.04	18.93	-40.0	-40.9	24.1	0.00e+00	40	32	101	1048576	58	6050
2026-01-07 02:15:56.20	243.90	19.18	-39.8	-40.7	24.2	0.00e+00	92	32	101	1048576	58	5898
2026-01-07 02:16:00.24	244.77	19.42	-40.5	-41.4	23.6	0.00e+00	92	32	101	1048576	58	6457
2026-01-07 02:16:04.28	245.66	19.66	-40.8	-41.7	23.4	0.00e+00	92	32	101	1048576	58	6691
2026-01-07 02:16:08.32	246.55	19.90	-41.0	-41.9	23.3	0.00e+00	34	32	101	1048576	58	6840
2026-01-07 02:16:12.36	247.47	20.13	-41.7	-42.8	22.6	0.00e+00	92	32	101	1048576	60	6735
2026-01-07 02:16:16.40	248.39	20.35	-42.3	-43.5	21.9	0.00e+00	92	32	101	1048576	60	7272
2026-01-07 02:16:20.44	249.33	20.57	-41.7	-42.7	22.6	0.00e+00	92	32	101	1048576	60	6679
2026-01-07 02:16:24.48	250.28	20.78	-41.6	-42.6	22.7	0.00e+00	0	32	101	1048576	60	6581
2026-01-07 02:16:28.52	251.25	20.99	-41.4	-42.4	22.9	0.00e+00	91	32	101	1048576	60	6407
2026-01-07 02:16:32.56	252.23	21.19	-41.1	-42.1	23.2	0.00e+00	92	32	101	1048576	60	6206
2026-01-07 02:16:36.60	253.22	21.39	-40.6	-41.5	23.7	0.00e+00	92	32	101	1048576	60	5776
2026-01-07 02:16:40.64	254.22	21.57	-41.0	-42.0	23.2	0.00e+00	0	32	101	1048576	60	6140
2026-01-07 02:16:44.67	255.23	21.75	-41.5	-42.5	22.9	0.00e+00	92	32	101	1048576	60	6505
2026-01-07 02:16:48.71	256.25	21.92	-41.4	-42.4	22.9	0.00e+00	90	32	101	1048576	60	6453
2026-01-07 02:16:52.75	257.28	22.08	-41.1	-42.1	23.2	0.00e+00	92	32	101	1048576	60	6194
2026-01-07 02:16:56.80	258.33	22.24	-41.4	-42.4	23.0	0.00e+00	46	32	101	1048576	60	6406
2026-01-07 02:17:00.84	259.39	22.38	-40.9	-41.9	23.4	0.00e+00	90	32	101	1048576	60	6065
2026-01-07 02:17:04.87	260.45	22.52	-40.8	-41.7	23.6	0.00e+00	91	32	101	1048576	60	5926
2026-01-07 02:17:08.91	261.52	22.65	-40.7	-41.6	23.6	0.00e+00	0	32	101	1048576	60	5864
2026-01-07 02:17:12.95	262.60	22.76	-40.8	-41.8	23.5	0.00e+00	92	32	101	1048576	60	5971
2026-01-07 02:17:16.98	263.69	22.87	-41.4	-42.4	22.9	0.00e+00	91	32	101	1048576	60	6418
2026-01-07 02:17:21.03	264.78	22.97	-41.6	-42.6	22.7	0.00e+00	92	32	101	1048576	60	6579
2026-01-07 02:17:25.06	265.88	23.05	-41.4	-42.4	22.9	0.00e+00	0	32	101	1048576	60	6462
2026-01-07 02:17:29.10	266.99	23.13	-41.2	-42.1	23.3	0.00e+00	92	32	101	1048576	60	6239
2026-01-07 02:17:33.14	268.10	23.19	-41.0	-41.9	23.4	0.00e+00	92	32	101	1048576	60	6073
2026-01-07 02:17:37.18	269.22	23.25	-40.5	-41.4	23.8	0.00e+00	90	32	101	1048576	60	5744
2026-01-07 02:17:41.21	270.33	23.29	-40.7	-41.6	23.6	0.00e+00	46	32	101	1048576	60	5853
2026-01-07 02:17:45.25	271.46	23.33	-41.0	-41.9	23.3	0.00e+00	92	32	101	1048576	60	6086
2026-01-07 02:17:49.28	272.58	23.35	-40.5	-41.5	23.8	0.00e+00	91	32	101	1048576	60	5768
2026-01-07 02:17:53.32	273.70	23.36	-40.8	-41.7	23.5	0.00e+00	91	32	101	1048576	60	5926
2026-01-07 02:17:57.36	274.82	23.36	-40.8	-41.7	22.9	0.00e+00	48	32	101	1048576	60	5947
2026-01-07 02:18:01.40	275.95	23.34	-40.4	-41.3	23.8	0.00e+00	90	32	101	1048576	60	5692
2026-01-07 02:18:05.44	277.07	23.32	-41.2	-42.2	23.0	0.00e+00	92	32	101	1048576	60	6306
2026-01-07 02:18:09.48	278.19	23.28	-41.3	-42.3	23.0	0.00e+00	44	32	101	1048576	60	6320
2026-01-07 02:18:13.51	279.31	23.24	-41.0	-41.9	23.3	0.00e+00	8	32	101	1048576	60	6084
2026-01-07 02:18:17.55	280.42	23.18	-40.5	-41.5	23.8	0.00e+00	92	32	101	1048576	60	5764
2026-01-07 02:18:21.59	281.53	23.11	-41.0	-41.9	23.3	0.00e+00	92	32	101	1048576	60	6089
2026-01-07 02:18:25.63	282.63	23.04	-41.3	-42.3	23.0	0.00e+00	8	32	101	1048576	60	6322
2026-01-07 02:18:29.67	283.73	22.95	-41.2	-42.2	23.0	0.00e+00	6	32	101	1048576	60	6301
2026-01-07 02:18:33.70	284.82	22.85	-40.5	-41.4	23.7	0.00e+00	91	32	101	1048576	60	5721
2026-01-07 02:18:37.74	285.91	22.74	-41.1	-42.1	23.2	0.00e+00	92	32	101	1048576	60	6194
2026-01-07 02:18:41.78	286.98	22.62	-40.3	-41.2	23.9	0.00e+00	7	32	101	1048576	60	5612
2026-01-07 02:18:45.81	288.05	22.49	-40.6	-41.5	23.6	0.00e+00	78	32	101	1048576	60	5813
2026-01-07 02:18:49.85	289.11	22.35	-40.2	-41.1	23.4	0.00e+00	92	32	101	1048576	60	5512
2026-01-07 02:18:53.89	290.16	22.21	-39.6	-40.5	24.5	0.00e+00	92	32	101	1048576	58	5777
2026-01-07 02:18:57.92	291.19	22.05	-39.3	-40.1	24.7	0.00e+00	36	32	101	1048576	58	5524
2026-01-07 02:19:01.96	292.22	21.89	-40.0	-40.8	24.2	0.00e+00	91	32	101	1048576	58	6030
2026-01-07 02:19:05.99	293.24	21.72	-39.5	-40.4	24.6	0.00e+00	90	32	101	1048576	58	5705
2026-01-07 02:19:10.03	294.25	21.54	-38.9	-39.7	25.1	0.00e+00	27	32	101	1048576	56	5907
2026-01-07 02:19:14.07	295.24	21.35	-38.4	-39.2	24.9	0.00e+00	0	32	101	1048576	56	5575
2026-01-07 02:19:18.10	296.22	21.16	-38.6	-39.4	25.4	0.00e+00	92	32	101	1048576	56	5732
2026-01-07 02:19:22.14	297.19	20.96	-39.1	-39.9	25.0	0.00e+00	92	32	101	1048576	56	6076
2026-01-07 02:19:26.17	298.15	20.75	-39.7	-40.6	24.1	0.00e+00	0	32	101	1048576	56	6559
2026-01-07 02:19:30.21	299.09	20.54	-39.5	-40.4	24.6	0.00e+00	0	32	101	1048576	56	6402
2026-01-07 02:19:34.25	300.03	20.32	-38.9	-39.7	25.1	0.00e+00	92	32	101	1048576	56	5947
2026-01-07 02:19:38.29	300.95	20.10	-39.4	-40.3	24.6	0.00e+00	92	32	101	1048576	56	6340
2026-01-07 02:19:42.32	301.85	19.87	-40.6	-41.6	23.4	0.00e+00	44	32	101	1048576	58	6563
2026-01-07 02:19:46.36	302.74	19.63	-40.8	-41.8	23.3	0.00e+00	2	32	101	1048576	58	6701
2026-01-07 02:19:50.40	303.62	19.39	-40.4	-41.3	23.7	0.00e+00	91	32	101	1048576	58	6337
2026-01-07 02:19:54.44	304.49	19.15	-39.8	-40.6	24.3	0.00e+00	92	32	101	1048576	58	5883
2026-01-07 02:19:58.48	305.34	18.91	-40.2	-41.1	23.8	0.00e+00	0	32	101	1048576	58	6210
2026-01-07 02:20:02.51	306.18	18.66	-40.7	-41.6	23.2	0.00e+00	0	32	101	1048576	58	6591
2026-01-07 02:20:06.55	307.01	18.40	-40.8	-41.7	23.2	0.00e+00	92	32	101	1048576	58	6679
2026-01-07 02:20:10.59	307.82	18.15	-40.0	-40.9	23.9	0.00e+00	6	32	101	1048576	58	6044
2026-01-07 02:20:14.62	308.62	17.89	-40.1	-41.0	23.9	0.00e+00	6	32	101	1048576	58	6157
2026-01-07 02:20:18.66	309.40	17.63	-40.2	-41.1	23.8	0.00e+00	2	32	101	1048576	58	6199
2026-01-07 02:20:22.69	310.17	17.37	-40.4	-41.3	23.6	0.00e+00	92	32	101	1048576	58	6370
2026-01-07 02:20:26.72	310.93	17.10	-40.8	-41.8	23.2	0.00e+00	45	32	101	1048576	58	6741
2026-01-07 02:20:30.76	311.68	16.83	-40.9	-41.9	23.2	0.00e+00	35	32	101	1048576	58	6792
2026-01-07 02:20:34.79	312.41	16.57	-40.8	-41.8	23.2	0.00e+00	0	32	101	1048576	58	6740
2026-01-07 02:20:38.82	313.13	16.30	-40.6	-41.5	23.5	0.00e+00	92	32	101	1048576	58	6514
2026-01-07 02:20:42.86	313.84	16.03	-41.4	-42.4	22.6	0.00e+00	0	32	101	1048576	60	6428
2026-01-07 02:20:46.90	314.53	15.75	-41.1	-42.1	22.9	0.00e+00	0	32	101	1048576	60	6243
2026-01-07 02:20:50.94	315.22	15.48	-40.5	-41.4	23.5	0.00e+00	92	32	101	1048576	60	5741
2026-01-07 02:20:54.97	315.89	15.21	-41.1	-42.2	22.9	0.00e+00	92	32	101	1048576	60	6259
2026-01-07 02:20:59.01	316.55	14.93	-40.5	-41.5	23.5	0.00e+00	0	32	101	1048576	60	5762
2026-01-07 02:21:03.05	317.19	14.66	-40.6	-41.5	23.5	0.00e+00	0	32	101	1048576	60	5803
2026-01-07 02:21:07.08	317.83	14.38	-41.3	-42.3	22.7	0.00e+00	92	32	101	1048576	60	6367
2026-01-07 02:21:11.12	318.45	14.11	-40.9	-41.8	23.1	0.00e+00	45	32	101	1048576	60	6023
2026-01-07 02:21:15.15	319.07	13.84	-41.1	-42.1	22.7	0.00e+00	0	32	101	1048576	60	6200
2026-01-07 02:21:19.18	319.67	13.56	-41.3	-42.3	22.3	0.00e+00	0	32	101	1048576	60	6378
2026-01-07 02:21:23.22	320.26	13.29	-41.0	-42.0	23.0	0.00e+00	92	32	101	1048576	60	6158
2026-01-07 02:21:27.25	320.84	13.02	-41.0	-42.0	23.0	0.00e+00	0	32	101	1048576	60	6138
2026-01-07 02:21:31.29	321.41	12.74	-41.5	-42.6	22.4	0.00e+00	0	32	101	1048576	60	6583
2026-01-07 02:21:35.33	321.98	12.47	-41.1	-42.1	22.9	0.00e+00	43	32	101	1048576	60	6229
2026-01-07 02:21:39.37	322.53	12.20	-41.0	-42.0	22.9	0.00e+00	92	32	101	1048576	60	6164
2026-01-07 02:21:43.41	323.07	11.93	-41.6	-42.7	22.3	0.00e+00	5	32	101	1048576	60	6630
2026-01-07 02:21:47.45	323.60	11.66	-41.2	-42.3	22.7	0.00e+00	5	32	101	1048576	60	6336
2026-01-07 02:21:51.50	324.13	11.39	-41.4	-42.4	22.5	0.00e+00	0	32	101	1048576	60	6458
2026-01-07 02:21:55.54	324.64	11.12	-42.1	-43.2	21.7	0.00e+00	77	32	101	1048576	60	7055
2026-01-07 02:21:59.58	325.15	10.85	-42.1	-43.2	21.7	0.00e+00	44	32	101	1048576	60	7081
2026-01-07 02:22:03.61	325.64	10.59	-41.3	-42.4	22.5	0.00e+00	7	32	101	1048576	60	6432
2026-01-07 02:22:07.65	326.13	10.32	-41.3	-42.4	22.5	0.00e+00	8	32	101	1048576	60	6409
2026-01-07 02:22:11.69	326.61	10.06	-41.7	-42.8	22.1	0.00e+00	43	32	101	1048576	60	6703
2026-01-07 02:22:15.73	327.08	9.79	-41.9	-43.1	21.8	0.00e+00	42	32	101	1048576	60	6946
2026-01-07 02:22:19.77	327.54	9.53	-42.2	-43.4	21.5	0.00e+00	40	32	101	1048576	60	7225
2026-01-07 02:22:23.81	328.00	9.27	-42.4	-43.7	21.2	0.00e+00	91	32	101	1048576	60	7444
2026-01-07 02:22:27.85	328.45	9.01	-42.3	-43.6	21.2	0.00e+00	2	32	101	1048576	60	7362
2026-01-07 02:22:31.89	328.89	8.75	-42.2	-43.4	21.4	0.00e+00	0	32	101	1048576	60	7212
2026-01-07 02:22:35.93	329.32	8.49	-42.3	-43.5	21.3	0.00e+00	41	32	101	1048576	60	7328
2026-01-07 02:22:39.97	329.75	8.24	-42.4	-43.6	21.1	0.00e+00	92	32	101	1048576	60	7394
2026-01-07 02:22:44.01	330.16	7.98	-42.9	-44.2	20.5	0.00e+00	2	32	101	1048576	60	7945
2026-01-07 02:22:48.05	330.58	7.73	-43.0	-44.3	20.5	0.00e+00	0	32	101	1048576	60	8018
2026-01-07 02:22:52.08	330.98	7.48	-43.4	-44.9	19.8	0.00e+00	42	32	101	1048576	60	8592
2026-01-07 02:22:56.12	331.38	7.23	-43.4	-44.9	19.8	0.00e+00	91	32	101	1048576	60	8603
2026-01-07 02:23:00.17	331.77	6.98	-43.6	-45.1	19.7	0.00e+00	0	32	101	1048576	60	8765
2026-01-07 02:23:04.20	332.15	6.73	-43.5	-45.1	19.6	0.00e+00	40	32	101	1048576	60	8735
2026-01-07 02:23:08.24	332.53	6.49	-43.6	-45.1	19.5	0.00e+00	0	32	101	1048576	60	8820
2026-01-07 02:23:12.27	332.91	6.24	-43.7	-45.3	19.3	0.00e+00	91	32	101	1048576	60	8943
2026-01-07 02:23:16.31	333.27	6.00	-43.7	-45.4	18.8	0.00e+00	0	32	101	1048576	60	9030
2026-01-07 02:23:20.35	333.64	5.76	-44.1	-46.1	17.3	0.00e+00	41	32	101	1048576	60	9877
2026-01-07 02:23:24.39	333.99	5.52	-45.0	-48.3	14.0	7.00e-07	0	32	101	1048576	60	12625
2026-01-07 02:23:28.43	334.34	5.28	-45.8	-51.0	10.2	2.45e-03	92	32	101	1048576	60	17286
2026-01-07 02:23:32.47	334.69	5.04	-46.1	-53.8	6.3	1.73e-01	38	32	101	1048576	60	23908
2026-01-07 02:23:36.51	335.03	4.80	-46.1	-55.5	4.4	7.88e-01	0	32	101	1048576	60	29082
2026-01-07 02:23:40.55	335.36	4.56	-46.2	-58.4	3.9	1.45e+00	0	32	104	1048576	60	40682
2026-01-07 02:23:44.59	335.69	4.33	-46.2	-59.7	3.6	1.51e+00	0	32	104	1048576	60	47051
2026-01-07 02:23:48.63	336.02	4.10	-46.1	-61.3	3.6	1.51e+00	0	32	104	1048576	60	56624
2026-01-07 02:23:52.67	336.34	3.87	-46.3	-60.7	3.6	1.51e+00	0	32	104	1048576	60	53037
2026-01-07 02:23:56.71	336.65	3.64	-46.1	-61.2	3.6	1.51e+00	0	32	104	1048576	60	56305
2026-01-07 02:24:00.74	336.96	3.41	-46.1	-61.4	3.6	1.51e+00	0	32	104	1048576	60	57445
2026-01-07 02:24:04.78	337.27	3.18	-46.2	-61.5	3.6	1.51e+00	0	32	104	1048576	60	57677
2026-01-07 02:24:08.82	337.57	2.95	-50.3	-65.7	3.6	1.51e+00	0	32	104	1048576	60	94179
2026-01-07 02:24:12.86	337.87	2.73	-51.2	-66.6	3.6	1.51e+00	0	32	104	1048576	60	104284
2026-01-07 02:24:16.90	338.16	2.50	-51.3	-66.8	3.6	1.51e+00	0	33	104	1048576	60	106370
2026-01-07 02:24:20.94	338.45	2.28	-51.2	-66.6	3.6	1.51e+00	0	32	104	1048576	60	104458
2026-01-07 02:24:24.98	338.74	2.06	-51.3	-66.7	3.6	1.51e+00	0	32	104	1048576	60	105227
2026-01-07 02:24:29.02	339.02	1.84	-51.3	-66.6	3.6	1.51e+00	0	32	104	1048576	60	104760
2026-01-07 02:24:33.06	339.30	1.62	-51.3	-66.6	3.6	1.51e+00	0	32	104	1048576	60	104651
2026-01-07 02:24:37.10	339.57	1.40	-51.3	-66.6	3.6	1.51e+00	0	32	104	1048576	60	104730
2026-01-07 02:24:41.14	339.84	1.18	-51.3	-66.6	3.6	1.51e+00	0	32	104	1048576	60	104395
2026-01-07 02:24:45.18	340.11	0.97	-51.2	-66.6	3.6	1.51e+00	0	32	104	1048576	60	104108
2026-01-07 02:24:49.22	340.37	0.75	-51.2	-66.6	3.6	1.51e+00	0	32	104	1048576	60	104357
2026-01-07 02:24:53.26	340.63	0.54	-51.2	-66.6	3.6	1.51e+00	0	32	104	1048576	60	104362
2026-01-07 02:24:57.30	340.89	0.33	-51.2	-66.6	3.6	1.51e+00	0	32	104	1048576	60	104511
2026-01-07 02:25:01.34	341.14	0.11	-51.2	-66.6	3.6	1.51e+00	0	32	104	1048576	60	104505
2026-01-07 02:25:05.38	341.39	-0.10	-51.2	-66.6	3.6	1.51e+00	0	32	104	1048576	60	103788

#Closed at: 2026-01-07 02:25:05
#Recorded file [1 MB]: D:/lorett/data/35034_260107_051053.dat