passes_logs/2026/01/07/R4.6S_Anadyr_2ch/R4.6S_Anadyr_2ch__20260107_235906_TY-42_rec.log

#Pass ID: 20260107_235906_TY-42
#Satellite: TY-42
#Configuration: TY-42_900M
#almurnet v.1.7.20251203
#Start time: 2026-01-07 23:59:36

#Version: 2.2.20231116
#Station: R4.6S_Anadyr_2ch
#Location: 177.4865 lon 64.73178 lat
#TLE: 1 64048U 25103A   25351.20653935  .00008008  00000-0  38191-3 0 09993
#TLE: 2 64048 097.4116 062.1676 0001744 093.8066 035.1511 15.19160500 32445

#Time	Az	El	Level	Level2	SNR	BER	BlckErr	Temp	State	Recorded	gain1	gain2
2026-01-07 23:59:36.84	16.56	2.03	-51.9	-64.6	3.5	1.52e+00	0	33	0	0	60	80096
2026-01-07 23:59:39.87	16.49	2.24	-52.1	-54.6	6.1	0.00e+00	0	34	104	0	60	89819
2026-01-07 23:59:42.90	16.43	2.46	-52.1	-54.6	6.1	0.00e+00	0	34	104	0	60	89891
2026-01-07 23:59:45.93	16.36	2.67	-52.1	-54.6	6.1	0.00e+00	0	35	104	0	60	89959
2026-01-07 23:59:48.96	16.30	2.89	-52.1	-54.6	6.1	0.00e+00	0	35	104	0	60	89679
2026-01-07 23:59:51.99	16.23	3.10	-52.1	-54.6	6.1	0.00e+00	0	35	104	0	60	90031
2026-01-07 23:59:55.02	16.16	3.33	-52.1	-54.6	6.1	0.00e+00	0	35	104	0	60	89642
2026-01-07 23:59:58.05	16.08	3.55	-52.2	-54.6	6.1	0.00e+00	0	35	104	0	60	89907
2026-01-08 00:00:01.09	16.01	3.78	-52.1	-54.6	6.1	0.00e+00	0	35	104	0	60	89597
2026-01-08 00:00:04.12	15.93	4.00	-52.1	-54.6	6.1	0.00e+00	0	35	104	0	60	89840
2026-01-08 00:00:07.15	15.86	4.23	-52.1	-54.7	6.1	0.00e+00	0	35	104	0	60	90335
2026-01-08 00:00:10.18	15.78	4.47	-52.1	-54.6	6.1	0.00e+00	0	35	104	0	60	89531
2026-01-08 00:00:13.21	15.70	4.70	-52.1	-54.6	6.1	0.00e+00	0	35	104	0	60	89862
2026-01-08 00:00:16.25	15.61	4.94	-52.1	-54.6	6.1	0.00e+00	0	35	104	0	60	89893
2026-01-08 00:00:19.28	15.53	5.18	-52.1	-54.6	6.1	0.00e+00	0	35	104	0	60	90095
2026-01-08 00:00:22.31	15.44	5.43	-52.2	-54.6	6.1	0.00e+00	0	36	104	0	60	89786
2026-01-08 00:00:25.34	15.35	5.68	-52.2	-54.6	6.1	0.00e+00	0	36	104	0	60	89560
2026-01-08 00:00:28.37	15.26	5.93	-52.2	-54.6	6.1	0.00e+00	0	36	104	0	60	89998
2026-01-08 00:00:31.41	15.16	6.18	-52.2	-54.6	6.1	0.00e+00	0	36	104	0	60	90039
2026-01-08 00:00:34.44	15.07	6.44	-52.2	-54.7	6.1	0.00e+00	0	36	104	0	60	90416
2026-01-08 00:00:37.48	14.97	6.70	-52.2	-54.6	6.1	0.00e+00	0	36	104	0	60	90132
2026-01-08 00:00:40.51	14.87	6.96	-52.2	-54.6	6.1	0.00e+00	0	36	104	0	60	89612
2026-01-08 00:00:43.54	14.76	7.23	-52.2	-54.6	6.1	0.00e+00	0	36	104	0	60	89813
2026-01-08 00:00:46.58	14.66	7.50	-52.2	-54.6	6.1	0.00e+00	0	36	104	0	60	90119
2026-01-08 00:00:49.61	14.55	7.78	-52.2	-54.7	6.1	0.00e+00	0	36	104	0	60	90336
2026-01-08 00:00:52.64	14.44	8.05	-52.2	-54.7	6.1	0.00e+00	0	36	104	0	60	90497
2026-01-08 00:00:55.68	14.32	8.34	-52.2	-54.6	6.1	0.00e+00	0	36	104	0	60	89940
2026-01-08 00:00:58.71	14.20	8.62	-52.2	-54.7	6.1	0.00e+00	0	36	104	0	60	90308
2026-01-08 00:01:01.74	14.08	8.92	-52.2	-54.7	6.1	0.00e+00	0	36	104	0	60	90379
2026-01-08 00:01:04.77	13.95	9.21	-52.2	-54.6	6.1	0.00e+00	0	36	104	0	60	89776
2026-01-08 00:01:07.81	13.83	9.51	-52.2	-54.6	6.1	0.00e+00	0	36	104	0	60	90149
2026-01-08 00:01:10.84	13.69	9.82	-52.2	-54.6	6.1	0.00e+00	0	36	104	0	60	89784
2026-01-08 00:01:13.87	13.56	10.13	-52.2	-54.6	6.1	0.00e+00	0	36	104	0	60	90157
2026-01-08 00:01:16.91	13.42	10.44	-52.2	-54.7	6.1	0.00e+00	0	36	104	0	60	90619
2026-01-08 00:01:19.94	13.27	10.76	-52.2	-54.6	6.1	0.00e+00	0	37	104	0	60	90142
2026-01-08 00:01:22.97	13.13	11.09	-52.2	-54.6	6.1	0.00e+00	0	37	104	0	60	89621
2026-01-08 00:01:26.01	12.97	11.42	-52.2	-54.7	6.1	0.00e+00	0	37	104	0	60	90972
2026-01-08 00:01:29.04	12.82	11.76	-52.2	-54.6	6.1	0.00e+00	0	36	104	0	60	89932
2026-01-08 00:01:32.07	12.65	12.10	-52.2	-54.6	6.1	0.00e+00	0	37	104	0	60	90072
2026-01-08 00:01:35.11	12.49	12.45	-52.2	-54.6	6.1	0.00e+00	0	37	104	0	60	89657
2026-01-08 00:01:38.14	12.32	12.80	-52.2	-54.6	6.1	0.00e+00	0	37	104	0	60	89976
2026-01-08 00:01:41.17	12.14	13.17	-52.2	-54.6	6.1	0.00e+00	0	37	104	0	60	90164
2026-01-08 00:01:44.20	11.95	13.53	-52.2	-54.7	6.1	0.00e+00	0	37	104	0	60	90457
2026-01-08 00:01:47.24	11.77	13.91	-52.2	-54.6	6.1	0.00e+00	0	37	104	0	60	90061
2026-01-08 00:01:50.27	11.57	14.30	-52.2	-54.7	6.0	0.00e+00	0	37	104	0	60	90724
2026-01-08 00:01:53.30	11.37	14.69	-52.2	-54.6	6.1	0.00e+00	0	37	104	0	60	90112
2026-01-08 00:01:56.34	11.16	15.09	-52.2	-54.6	6.1	0.00e+00	0	37	104	0	60	90148
2026-01-08 00:01:59.37	10.94	15.49	-52.2	-54.6	6.1	0.00e+00	0	37	104	0	60	90231
2026-01-08 00:02:02.40	10.72	15.91	-52.2	-54.7	6.1	0.00e+00	0	37	104	0	60	90388
2026-01-08 00:02:05.43	10.49	16.34	-52.2	-54.6	6.1	0.00e+00	0	37	104	0	60	89984
2026-01-08 00:02:08.46	10.25	16.77	-52.2	-54.6	6.1	0.00e+00	0	37	104	0	60	90075
2026-01-08 00:02:11.50	10.00	17.21	-52.2	-54.7	6.1	0.00e+00	0	37	104	0	60	90403
2026-01-08 00:02:14.53	9.74	17.67	-52.2	-54.6	6.1	0.00e+00	0	37	104	0	60	90169
2026-01-08 00:02:17.56	9.48	18.13	-52.2	-54.6	6.1	0.00e+00	0	37	104	0	60	90173
2026-01-08 00:02:20.60	9.20	18.61	-52.2	-54.6	6.1	0.00e+00	0	37	104	0	60	90002
2026-01-08 00:02:23.63	8.91	19.09	-52.2	-54.6	6.1	0.00e+00	0	37	104	0	60	90139
2026-01-08 00:02:26.66	8.61	19.59	-52.2	-54.6	6.1	0.00e+00	0	37	104	0	60	89897
2026-01-08 00:02:29.69	8.30	20.10	-52.3	-54.8	6.1	0.00e+00	0	37	104	0	60	91798
2026-01-08 00:02:32.73	7.98	20.63	-52.3	-54.8	6.1	0.00e+00	0	37	104	0	60	91612
2026-01-08 00:02:35.76	7.64	21.16	-52.2	-54.7	6.1	0.00e+00	0	37	104	0	60	90364
2026-01-08 00:02:38.79	7.29	21.71	-52.1	-54.6	6.1	0.00e+00	0	37	104	0	60	90158
2026-01-08 00:02:41.82	6.92	22.27	-51.3	-53.8	6.1	0.00e+00	0	37	104	0	60	82092
2026-01-08 00:02:44.86	6.54	22.85	-51.0	-53.5	6.1	0.00e+00	0	37	104	0	60	78776
2026-01-08 00:02:47.89	6.14	23.44	-51.0	-53.5	6.1	0.00e+00	0	37	104	0	60	79117
2026-01-08 00:02:50.92	5.73	24.05	-51.0	-53.5	6.1	0.00e+00	0	37	104	0	60	78797
2026-01-08 00:02:53.95	5.29	24.67	-51.0	-53.5	6.1	0.00e+00	0	37	104	0	60	78914
2026-01-08 00:02:56.99	4.83	25.32	-51.0	-53.5	6.1	0.00e+00	0	37	104	0	60	78660
2026-01-08 00:03:00.02	4.36	25.98	-51.0	-53.5	6.1	0.00e+00	0	37	104	0	60	79065
2026-01-08 00:03:03.05	3.86	26.65	-51.0	-53.5	6.1	0.00e+00	0	37	104	0	60	79168
2026-01-08 00:03:06.08	3.33	27.35	-51.0	-53.5	6.1	0.00e+00	0	37	104	0	60	78993
2026-01-08 00:03:09.12	2.78	28.06	-51.0	-53.5	6.1	0.00e+00	0	37	104	0	60	78814
2026-01-08 00:03:12.15	2.20	28.80	-51.0	-53.5	6.1	0.00e+00	0	37	104	0	60	78878
2026-01-08 00:03:15.18	1.59	29.55	-51.0	-53.5	6.1	0.00e+00	0	37	104	0	60	79039
2026-01-08 00:03:18.22	0.94	30.33	-51.0	-53.5	6.1	0.00e+00	0	37	104	0	60	79004
2026-01-08 00:03:21.25	0.26	31.12	-51.0	-53.5	6.1	0.00e+00	0	37	104	0	60	78891
2026-01-08 00:03:24.28	359.54	31.94	-51.0	-53.5	6.1	0.00e+00	0	37	104	0	60	78679
2026-01-08 00:03:27.32	358.78	32.78	-51.1	-53.5	6.1	0.00e+00	0	37	104	0	60	79365
2026-01-08 00:03:30.35	357.98	33.65	-51.1	-53.6	6.1	0.00e+00	0	37	104	0	60	80019
2026-01-08 00:03:33.38	357.13	34.53	-51.1	-53.6	6.1	0.00e+00	0	37	104	0	60	79642
2026-01-08 00:03:36.42	356.22	35.44	-51.1	-53.7	6.1	0.00e+00	0	37	104	0	60	80585
2026-01-08 00:03:39.45	355.26	36.37	-51.1	-53.6	6.1	0.00e+00	0	37	104	0	60	79850
2026-01-08 00:03:42.48	354.24	37.32	-51.2	-53.7	6.1	0.00e+00	0	37	104	0	60	80900
2026-01-08 00:03:45.52	353.15	38.30	-51.2	-53.7	6.1	0.00e+00	0	37	104	0	60	81171
2026-01-08 00:03:48.55	351.99	39.29	-51.2	-53.7	6.1	0.00e+00	0	37	104	0	60	80696
2026-01-08 00:03:51.58	350.76	40.31	-51.3	-53.8	6.1	0.00e+00	0	37	104	0	60	81684
2026-01-08 00:03:54.61	349.43	41.34	-51.3	-53.8	6.1	0.00e+00	0	37	104	0	60	82102
2026-01-08 00:03:57.64	348.02	42.38	-51.4	-53.9	6.1	0.00e+00	0	37	104	0	60	82665
2026-01-08 00:04:00.67	346.50	43.44	-51.4	-53.9	6.1	0.00e+00	0	37	104	0	60	82777
2026-01-08 00:04:03.71	344.87	44.52	-36.5	-36.8	12.1	0.00e+00	5496	37	104	0	54	16324
2026-01-08 00:04:06.74	343.13	45.60	-34.7	-35.1	14.6	6.21e-02	0	38	102	8388608	50	16953
2026-01-08 00:04:09.77	341.26	46.67	-34.2	-34.7	14.8	8.53e-03	0	38	102	8388608	48	18073
2026-01-08 00:04:12.81	339.24	47.75	-33.2	-33.6	15.2	5.16e-03	0	38	102	8388608	46	17979
2026-01-08 00:04:15.84	337.09	48.81	-32.3	-32.8	15.5	1.64e-03	0	38	102	8388608	46	16249
2026-01-08 00:04:18.87	334.77	49.86	-31.0	-31.4	16.1	7.03e-04	0	38	102	8388608	42	17586
2026-01-08 00:04:21.91	332.28	50.88	-30.8	-31.3	16.1	2.62e-04	0	38	102	8388608	42	17296
2026-01-08 00:04:24.94	329.62	51.87	-30.7	-31.1	16.2	1.80e-04	0	38	102	8388608	42	16932
2026-01-08 00:04:27.97	326.77	52.80	-30.5	-30.9	16.2	8.71e-05	0	38	102	8388608	42	16611
2026-01-08 00:04:31.01	323.73	53.69	-30.3	-30.8	16.3	1.42e-04	0	38	102	8388608	42	16255
2026-01-08 00:04:34.04	320.51	54.50	-30.2	-30.7	16.3	8.71e-05	0	38	102	8388608	42	16167
2026-01-08 00:04:37.07	317.11	55.23	-30.1	-30.6	16.2	1.20e-04	0	38	102	8388608	40	17840
2026-01-08 00:04:40.10	313.54	55.86	-29.8	-30.3	16.4	1.31e-04	0	38	102	8388608	40	17371
2026-01-08 00:04:43.13	309.81	56.39	-29.7	-30.2	16.4	5.44e-05	0	38	102	8388608	40	17092
2026-01-08 00:04:46.17	305.94	56.80	-29.5	-30.0	16.5	2.17e-05	0	38	102	8388608	40	16760
2026-01-08 00:04:49.20	301.97	57.09	-29.0	-29.5	16.6	1.08e-05	0	38	102	8388608	40	15844
2026-01-08 00:04:52.23	297.95	57.25	-29.1	-29.6	16.6	0.00e+00	0	38	102	8388608	38	17911
2026-01-08 00:04:55.27	293.87	57.28	-28.9	-29.4	16.7	0.00e+00	0	38	102	8388608	38	17445
2026-01-08 00:04:58.30	289.83	57.16	-28.5	-29.0	16.8	1.08e-05	0	38	102	8388608	38	16758
2026-01-08 00:05:01.34	285.82	56.92	-28.5	-29.0	16.8	1.08e-05	0	38	102	8388608	38	16673
2026-01-08 00:05:04.37	281.92	56.55	-28.1	-28.6	16.9	1.08e-05	0	38	102	8388608	38	15978
2026-01-08 00:05:07.40	278.14	56.06	-28.0	-28.5	16.9	0.00e+00	0	38	102	8388608	36	17787
2026-01-08 00:05:10.44	274.50	55.45	-27.8	-28.3	17.0	0.00e+00	0	38	102	8388608	36	17353
2026-01-08 00:05:13.47	271.03	54.76	-27.5	-28.0	17.0	0.00e+00	0	38	102	8388608	36	16750
2026-01-08 00:05:16.50	267.75	53.97	-27.4	-27.9	17.0	0.00e+00	0	38	102	8388608	36	16596
2026-01-08 00:05:19.53	264.65	53.11	-27.2	-27.7	17.1	0.00e+00	0	38	102	8388608	36	16185
2026-01-08 00:05:22.56	261.73	52.19	-27.2	-27.7	17.1	0.00e+00	0	39	102	8388608	36	16142
2026-01-08 00:05:25.60	258.99	51.22	-26.7	-27.2	17.1	0.00e+00	0	38	102	8388608	34	17082
2026-01-08 00:05:28.63	256.44	50.21	-26.5	-27.0	17.1	0.00e+00	0	38	102	8388608	34	16744
2026-01-08 00:05:31.66	254.07	49.17	-26.4	-26.9	17.2	0.00e+00	0	38	102	8388608	34	16616
2026-01-08 00:05:34.70	251.84	48.10	-26.2	-26.7	17.2	0.00e+00	0	38	102	8388608	34	16223
2026-01-08 00:05:37.73	249.78	47.03	-26.1	-26.7	17.2	0.00e+00	0	38	102	8388608	34	16106
2026-01-08 00:05:40.76	247.86	45.95	-25.9	-26.4	17.3	0.00e+00	0	38	102	8388608	32	17532
2026-01-08 00:05:43.79	246.07	44.86	-25.8	-26.3	17.4	0.00e+00	0	38	102	8388608	32	17252
2026-01-08 00:05:46.82	244.40	43.79	-25.5	-26.0	17.4	0.00e+00	0	38	102	8388608	32	16759
2026-01-08 00:05:49.86	242.84	42.72	-25.3	-25.8	17.4	0.00e+00	0	38	102	8388608	32	16426
2026-01-08 00:05:52.89	241.39	41.66	-25.1	-25.6	17.4	0.00e+00	0	38	102	8388608	30	17954
2026-01-08 00:05:55.92	240.03	40.62	-24.9	-25.4	17.5	0.00e+00	0	38	102	8388608	30	17567
2026-01-08 00:05:58.95	238.77	39.60	-24.5	-25.0	17.5	0.00e+00	0	38	102	8388608	30	16736
2026-01-08 00:06:01.98	237.58	38.59	-24.1	-24.7	17.5	0.00e+00	0	38	102	8388608	30	16077
2026-01-08 00:06:05.02	236.46	37.60	-23.9	-24.4	17.5	0.00e+00	0	38	102	8388608	28	17558
2026-01-08 00:06:08.05	235.42	36.64	-23.9	-24.3	17.5	0.00e+00	0	39	102	8388608	28	17396
2026-01-08 00:06:11.08	234.44	35.70	-23.8	-24.3	17.6	0.00e+00	0	38	102	8388608	28	17270
2026-01-08 00:06:14.11	233.51	34.78	-23.8	-24.3	17.7	0.00e+00	0	39	102	8388608	28	17204
2026-01-08 00:06:17.15	232.64	33.88	-23.4	-24.0	17.7	0.00e+00	0	39	102	8388608	28	16620
2026-01-08 00:06:20.18	231.82	33.01	-23.1	-23.6	17.6	0.00e+00	0	39	102	8388608	28	15980
2026-01-08 00:06:23.21	231.04	32.16	-22.8	-23.3	17.6	0.00e+00	0	39	102	8388608	26	17316
2026-01-08 00:06:26.24	230.31	31.33	-22.4	-22.9	17.6	0.00e+00	0	39	102	8388608	26	16498
2026-01-08 00:06:29.28	229.61	30.52	-22.2	-22.7	17.7	0.00e+00	0	39	102	8388608	26	16126
2026-01-08 00:06:32.31	228.95	29.74	-21.9	-22.3	17.7	0.00e+00	0	39	102	8388608	24	17390
2026-01-08 00:06:35.34	228.33	28.98	-21.7	-22.1	17.6	0.00e+00	0	39	102	8388608	24	16947
2026-01-08 00:06:38.37	227.74	28.23	-21.2	-21.7	17.6	0.00e+00	0	39	102	8388608	24	16128
2026-01-08 00:06:41.41	227.17	27.51	-21.0	-21.4	17.6	0.00e+00	0	39	102	8388608	22	17540
2026-01-08 00:06:44.44	226.64	26.81	-20.6	-21.1	17.6	0.00e+00	0	39	102	8388608	22	16811
2026-01-08 00:06:47.47	226.13	26.12	-20.4	-20.8	17.6	0.00e+00	0	39	102	8388608	22	16388
2026-01-08 00:06:50.51	225.64	25.45	-20.1	-20.6	17.7	0.00e+00	0	39	102	8388608	22	15872
2026-01-08 00:06:53.54	225.17	24.80	-20.0	-20.5	17.7	0.00e+00	0	38	102	8388608	20	17641
2026-01-08 00:06:56.57	224.73	24.17	-19.7	-20.1	17.8	0.00e+00	0	39	102	8388608	20	16935
2026-01-08 00:06:59.60	224.31	23.56	-19.7	-20.1	17.8	0.00e+00	0	39	102	8388608	20	16988
2026-01-08 00:07:02.64	223.90	22.95	-19.3	-19.7	17.8	0.00e+00	0	39	102	8388608	20	16098
2026-01-08 00:07:05.67	223.51	22.37	-19.1	-19.5	17.8	0.00e+00	0	39	102	8388608	20	15820
2026-01-08 00:07:08.70	223.14	21.80	-18.9	-19.3	17.8	0.00e+00	0	39	102	8388608	18	17369
2026-01-08 00:07:11.73	222.78	21.25	-18.7	-19.1	17.8	0.00e+00	0	39	102	8388608	18	16854
2026-01-08 00:07:14.77	222.44	20.70	-18.4	-18.8	17.8	0.00e+00	0	39	102	8388608	18	16413
2026-01-08 00:07:17.80	222.11	20.18	-18.2	-18.6	17.8	0.00e+00	0	39	102	8388608	18	15933
2026-01-08 00:07:20.84	221.79	19.66	-18.1	-18.5	17.7	0.00e+00	0	39	102	8388608	18	15742
2026-01-08 00:07:23.87	221.49	19.16	-18.3	-18.7	17.7	0.00e+00	0	39	102	8388608	16	18052
2026-01-08 00:07:26.90	221.19	18.66	-18.0	-18.4	17.7	0.00e+00	0	39	102	8388608	16	17545
2026-01-08 00:07:29.93	220.91	18.18	-18.4	-18.8	17.7	0.00e+00	0	39	102	8388608	16	18286
2026-01-08 00:07:32.97	220.64	17.71	-18.7	-19.1	17.6	0.00e+00	0	39	102	8388608	16	18961
2026-01-08 00:07:36.00	220.38	17.26	-19.5	-19.9	17.7	0.00e+00	0	39	102	8388608	18	18457
2026-01-08 00:07:39.03	220.12	16.81	-21.1	-21.5	17.5	0.00e+00	0	39	102	8388608	22	17682
2026-01-08 00:07:42.06	219.88	16.37	-22.5	-22.8	17.5	0.00e+00	0	39	102	8388608	24	18419
2026-01-08 00:07:45.10	219.64	15.94	-22.2	-22.6	17.4	0.00e+00	0	39	102	8388608	24	17848
2026-01-08 00:07:48.13	219.42	15.52	-23.6	-24.0	17.4	0.00e+00	0	39	102	8388608	28	16647
2026-01-08 00:07:51.16	219.20	15.11	-25.3	-25.6	17.3	0.00e+00	0	39	102	8388608	30	17868
2026-01-08 00:07:54.19	218.98	14.70	-28.2	-28.5	17.0	0.00e+00	0	39	102	8388608	36	17791
2026-01-08 00:07:57.23	218.78	14.31	-29.3	-29.7	16.6	5.40e-06	0	39	102	8388608	40	16225
2026-01-08 00:08:00.26	218.58	13.92	-30.7	-31.1	16.2	4.90e-05	0	39	102	8388608	40	18991
2026-01-08 00:08:03.29	218.39	13.54	-31.8	-32.2	16.0	2.45e-04	0	39	102	8388608	42	19134
2026-01-08 00:08:06.33	218.20	13.17	-34.7	-35.0	15.4	3.60e-04	0	39	102	8388608	48	18805
2026-01-08 00:08:09.36	218.02	12.80	-34.6	-35.0	15.2	3.42e-03	0	39	102	8388608	50	16631
2026-01-08 00:08:12.39	217.84	12.45	-36.7	-37.1	14.7	7.08e-03	0	39	102	8388608	50	21328
2026-01-08 00:08:15.43	217.67	12.09	-36.2	-36.6	14.4	1.58e-02	0	39	102	8388608	52	17848
2026-01-08 00:08:18.46	217.51	11.75	-36.5	-36.9	13.6	1.82e-02	0	39	102	8388608	54	16447
2026-01-08 00:08:21.49	217.35	11.41	-36.9	-37.2	14.4	1.47e-02	0	39	102	8388608	52	19289
2026-01-08 00:08:24.52	217.19	11.07	-34.7	-35.1	15.5	7.08e-03	0	39	102	8388608	50	16822
2026-01-08 00:08:27.55	217.04	10.75	-32.9	-33.2	16.1	5.65e-03	0	39	102	8388608	48	15325
2026-01-08 00:08:30.59	216.89	10.42	-31.5	-31.8	16.5	2.03e-03	0	39	102	8388608	44	16402
2026-01-08 00:08:33.62	216.75	10.11	-31.0	-31.3	16.9	1.52e-04	0	39	102	8388608	42	17374
2026-01-08 00:08:36.65	216.61	9.79	-29.2	-29.5	16.9	2.72e-05	0	39	102	8388608	40	15842
2026-01-08 00:08:39.69	216.48	9.49	-28.1	-28.5	17.1	5.40e-06	0	39	102	8388608	36	17684
2026-01-08 00:08:42.72	216.34	9.18	-26.4	-26.8	17.3	0.00e+00	0	39	102	8388608	32	18317
2026-01-08 00:08:45.75	216.22	8.89	-25.2	-25.5	17.5	0.00e+00	0	39	102	8388608	30	17799
2026-01-08 00:08:48.78	216.09	8.59	-23.4	-23.8	17.6	0.00e+00	0	39	102	8388608	28	16255
2026-01-08 00:08:51.81	215.97	8.30	-22.2	-22.6	17.6	0.00e+00	0	39	102	8388608	26	16032
2026-01-08 00:08:54.84	215.85	8.02	-21.0	-21.4	17.7	0.00e+00	0	39	102	8388608	22	17536
2026-01-08 00:08:57.88	215.74	7.74	-20.8	-21.2	17.8	0.00e+00	0	39	102	8388608	22	17089
2026-01-08 00:09:00.91	215.63	7.46	-19.7	-20.0	17.8	0.00e+00	0	39	102	8388608	20	16721
2026-01-08 00:09:03.94	215.52	7.19	-19.2	-19.6	17.8	0.00e+00	0	39	102	8388608	18	17955
2026-01-08 00:09:06.98	215.41	6.92	-18.9	-19.3	17.9	0.00e+00	0	39	102	8388608	18	17267
2026-01-08 00:09:10.01	215.30	6.65	-18.3	-18.7	17.9	0.00e+00	0	39	102	8388608	18	16076
2026-01-08 00:09:13.04	215.20	6.39	-18.5	-18.8	17.9	0.00e+00	0	39	102	8388608	18	16422
2026-01-08 00:09:16.08	215.10	6.13	-18.3	-18.6	17.9	0.00e+00	0	39	102	8388608	18	16038
2026-01-08 00:09:19.11	215.01	5.88	-18.4	-18.8	17.9	0.00e+00	0	39	102	8388608	18	16253
2026-01-08 00:09:22.14	214.91	5.63	-18.7	-19.0	17.9	0.00e+00	0	39	102	8388608	18	16792
2026-01-08 00:09:25.17	214.82	5.38	-19.0	-19.4	17.9	0.00e+00	0	39	102	8388608	18	17437
2026-01-08 00:09:28.21	214.73	5.13	-19.2	-19.6	17.9	0.00e+00	0	39	102	8388608	18	17838
2026-01-08 00:09:31.24	214.64	4.89	-19.6	-20.0	17.9	0.00e+00	0	39	102	8388608	18	18753
2026-01-08 00:09:34.27	214.56	4.65	-19.8	-20.2	17.8	0.00e+00	0	39	102	8388608	18	19229
2026-01-08 00:09:37.31	214.47	4.41	-20.1	-20.5	17.8	0.00e+00	0	39	102	8388608	20	17777
2026-01-08 00:09:40.34	214.39	4.18	-20.4	-20.8	17.8	0.00e+00	0	39	102	8388608	20	18280
2026-01-08 00:09:43.37	214.31	3.94	-20.5	-20.9	17.7	0.00e+00	0	39	102	8388608	20	18538
2026-01-08 00:09:46.40	214.23	3.71	-20.8	-21.2	17.6	0.00e+00	0	39	102	8388608	20	19132
2026-01-08 00:09:49.43	214.15	3.49	-52.4	-54.9	6.1	0.00e+00	0	39	104	8388608	60	92535
2026-01-08 00:09:52.47	214.08	3.26	-52.3	-54.8	6.0	0.00e+00	0	38	104	8388608	60	91629
2026-01-08 00:09:55.50	214.01	3.04	-52.4	-54.8	6.1	0.00e+00	0	38	104	8388608	60	92082
2026-01-08 00:09:58.53	213.93	2.82	-52.4	-54.8	6.1	0.00e+00	0	38	104	8388608	60	92178
2026-01-08 00:10:01.56	213.86	2.60	-52.3	-54.8	6.1	0.00e+00	0	38	104	8388608	60	91939
2026-01-08 00:10:04.59	213.79	2.39	-52.4	-54.8	6.1	0.00e+00	0	38	104	8388608	60	92201
2026-01-08 00:10:07.63	213.73	2.17	-52.4	-54.8	6.1	0.00e+00	0	38	104	8388608	60	91928
2026-01-08 00:10:10.66	213.66	1.96	-52.3	-54.8	6.1	0.00e+00	0	38	104	8388608	60	92303
2026-01-08 00:10:13.69	213.59	1.75	-52.3	-54.8	6.1	0.00e+00	0	38	104	8388608	60	92100
2026-01-08 00:10:16.72	213.53	1.55	-52.3	-54.7	6.1	0.00e+00	0	38	104	8388608	60	91094
2026-01-08 00:10:19.76	213.47	1.34	-52.3	-54.7	6.1	0.00e+00	0	38	104	8388608	60	91172
2026-01-08 00:10:22.79	213.41	1.14	-52.3	-54.8	6.1	0.00e+00	0	38	104	8388608	60	91848
2026-01-08 00:10:25.82	213.35	0.93	-52.2	-54.8	6.1	0.00e+00	0	39	104	8388608	60	91574
2026-01-08 00:10:28.86	213.29	0.73	-52.2	-54.7	6.1	0.00e+00	0	38	104	8388608	60	91076
2026-01-08 00:10:31.89	213.23	0.53	-52.1	-54.6	6.1	0.00e+00	0	38	104	8388608	60	89624
2026-01-08 00:10:34.92	213.18	0.34	-52.1	-54.6	6.1	0.00e+00	0	38	104	8388608	60	90033
2026-01-08 00:10:37.95	213.12	0.14	-52.2	-54.7	6.1	0.00e+00	0	38	104	8388608	60	90878
2026-01-08 00:10:40.99	213.07	-0.05	-52.2	-54.7	6.1	0.00e+00	0	38	104	8388608	60	90599

#Closed at: 2026-01-08 00:10:41
#Recorded file [8 MB]: D:/lorett/data/35034_260108_025936.dat