passes_logs/2026/01/07/R4.6S_Anadyr_2ch/R4.6S_Anadyr_2ch__20260107_123429_NOAA_20_JPSS-1_rec.log

#Pass ID: 20260107_123429_NOAA 20 (JPSS-1)
#Satellite: NOAA 20 (JPSS-1)
#Configuration: NOAA 20
#almurnet v.1.7.20251203
#Start time: 2026-01-07 12:34:30

#Version: 2.2.20231116
#Station: R4.6S_Anadyr_2ch
#Location: 177.4865 lon 64.73178 lat
#TLE: 1 43013U 17073A   25350.93759711  .00000080  00000+0  58734-4 0  9994
#TLE: 2 43013  98.7603 287.1885 0002156  81.1496 278.9924 14.19526878418610

#Time	Az	El	Level	Level2	SNR	BER	BlckErr	Temp	State	Recorded	gain1	gain2
2026-01-07 12:34:30.47	18.88	0.04	-51.9	-66.9	3.5	1.51e+00	0	32	0	0	60	108273
2026-01-07 12:34:34.51	19.16	0.25	-51.9	-67.3	3.6	1.51e+00	0	33	104	0	60	113606
2026-01-07 12:34:38.55	19.44	0.45	-51.9	-67.3	3.6	1.51e+00	0	33	104	0	60	113322
2026-01-07 12:34:42.59	19.72	0.66	-51.5	-66.8	3.6	1.51e+00	0	33	104	0	60	106834
2026-01-07 12:34:46.64	20.01	0.87	-50.3	-65.6	3.6	1.51e+00	0	34	104	0	60	93430
2026-01-07 12:34:50.68	20.30	1.08	-50.3	-65.6	3.6	1.51e+00	0	34	104	0	60	93019
2026-01-07 12:34:54.73	20.59	1.29	-50.3	-65.6	3.6	1.51e+00	0	34	104	0	60	93085
2026-01-07 12:34:58.77	20.89	1.50	-50.3	-65.6	3.6	1.51e+00	0	34	104	0	60	93427
2026-01-07 12:35:02.82	21.19	1.71	-50.3	-65.5	3.6	1.51e+00	0	34	104	0	60	92361
2026-01-07 12:35:06.86	21.50	1.92	-50.3	-65.6	3.6	1.51e+00	0	34	104	0	60	92993
2026-01-07 12:35:10.90	21.81	2.13	-50.3	-64.6	3.6	1.51e+00	0	34	104	0	60	82922
2026-01-07 12:35:14.95	22.12	2.35	-50.1	-62.1	3.7	1.50e+00	0	34	104	0	60	62226
2026-01-07 12:35:18.99	22.44	2.56	-46.3	-48.8	15.9	0.00e+00	0	34	102	1048576	60	13450
2026-01-07 12:35:23.04	22.76	2.78	-45.1	-47.0	17.7	0.00e+00	92	34	102	1048576	60	10979
2026-01-07 12:35:27.08	23.09	3.00	-49.4	-56.1	7.8	5.44e-03	0	34	102	1048576	60	31004
2026-01-07 12:35:31.12	23.42	3.22	-50.0	-61.0	4.3	1.49e+00	5	34	104	1048576	60	54990
2026-01-07 12:35:35.17	23.76	3.43	-45.7	-47.8	17.1	0.00e+00	0	34	0	1048576	60	11997
2026-01-07 12:35:39.21	24.10	3.65	-45.9	-48.1	17.0	0.00e+00	91	34	0	1048576	60	12412
2026-01-07 12:35:43.25	24.45	3.88	-46.2	-48.5	16.6	0.00e+00	19	34	0	1048576	60	12914
2026-01-07 12:35:47.30	24.80	4.10	-45.7	-47.8	17.3	0.00e+00	0	34	0	1048576	60	11927
2026-01-07 12:35:51.34	25.16	4.32	-44.3	-45.9	19.1	0.00e+00	92	34	101	1048576	60	9671
2026-01-07 12:35:55.38	25.52	4.54	-44.3	-45.9	19.2	0.00e+00	0	34	101	1048576	60	9590
2026-01-07 12:35:59.42	25.88	4.77	-44.2	-45.7	19.4	0.00e+00	62	34	101	1048576	60	9389
2026-01-07 12:36:03.46	26.26	5.00	-44.1	-45.6	19.6	0.00e+00	0	34	101	1048576	60	9243
2026-01-07 12:36:07.51	26.63	5.22	-44.1	-45.6	19.7	0.00e+00	92	34	101	1048576	60	9244
2026-01-07 12:36:11.55	27.02	5.45	-44.0	-45.4	19.8	0.00e+00	0	34	101	1048576	60	9107
2026-01-07 12:36:15.60	27.41	5.68	-44.0	-45.5	19.8	0.00e+00	62	34	101	1048576	60	9173
2026-01-07 12:36:19.64	27.80	5.91	-43.9	-45.3	20.0	0.00e+00	0	34	101	1048576	60	8959
2026-01-07 12:36:23.68	28.20	6.14	-43.9	-45.3	20.0	0.00e+00	92	34	101	1048576	60	9007
2026-01-07 12:36:27.73	28.61	6.37	-43.7	-45.1	20.3	0.00e+00	0	34	101	1048576	60	8739
2026-01-07 12:36:31.77	29.02	6.60	-43.4	-44.8	20.6	0.00e+00	0	34	101	1048576	60	8431
2026-01-07 12:36:35.82	29.44	6.84	-43.4	-44.7	20.7	0.00e+00	0	34	101	1048576	60	8362
2026-01-07 12:36:39.86	29.87	7.07	-43.6	-44.9	20.5	0.00e+00	90	34	101	1048576	60	8605
2026-01-07 12:36:43.91	30.30	7.31	-43.4	-44.7	20.6	0.00e+00	7	34	101	1048576	60	8420
2026-01-07 12:36:47.95	30.74	7.54	-43.3	-44.5	20.9	0.00e+00	6	34	101	1048576	60	8219
2026-01-07 12:36:51.99	31.18	7.78	-43.2	-44.5	21.0	0.00e+00	0	34	101	1048576	60	8166
2026-01-07 12:36:56.03	31.64	8.02	-43.1	-44.3	21.2	0.00e+00	91	34	101	1048576	60	8006
2026-01-07 12:37:00.08	32.10	8.26	-43.0	-44.2	21.3	0.00e+00	69	34	101	1048576	60	7885
2026-01-07 12:37:04.12	32.56	8.49	-42.7	-43.9	21.6	0.00e+00	18	34	101	1048576	60	7618
2026-01-07 12:37:08.17	33.04	8.73	-42.4	-43.5	21.9	0.00e+00	0	34	101	1048576	60	7330
2026-01-07 12:37:12.21	33.52	8.97	-42.3	-43.4	22.0	0.00e+00	14	34	101	1048576	60	7221
2026-01-07 12:37:16.25	34.01	9.21	-42.3	-43.4	21.8	0.00e+00	12	34	101	1048576	60	7242
2026-01-07 12:37:20.30	34.51	9.46	-42.3	-43.3	22.2	0.00e+00	11	34	101	1048576	60	7158
2026-01-07 12:37:24.34	35.02	9.70	-42.4	-43.5	22.0	0.00e+00	92	34	101	1048576	60	7327
2026-01-07 12:37:28.39	35.53	9.94	-42.6	-43.8	21.8	0.00e+00	71	34	101	1048576	60	7526
2026-01-07 12:37:32.43	36.05	10.18	-42.5	-43.6	21.9	0.00e+00	70	34	101	1048576	60	7397
2026-01-07 12:37:36.48	36.58	10.43	-42.4	-43.5	22.1	0.00e+00	8	34	101	1048576	60	7273
2026-01-07 12:37:40.52	37.12	10.67	-42.4	-43.5	22.1	0.00e+00	90	34	101	1048576	60	7254
2026-01-07 12:37:44.57	37.67	10.91	-42.4	-43.5	22.0	0.00e+00	0	34	101	1048576	60	7294
2026-01-07 12:37:48.61	38.23	11.16	-42.3	-43.4	22.2	0.00e+00	0	34	101	1048576	60	7186
2026-01-07 12:37:52.65	38.79	11.40	-42.0	-43.0	22.6	0.00e+00	11	34	101	1048576	60	6880
2026-01-07 12:37:56.70	39.37	11.64	-42.1	-43.2	22.5	0.00e+00	92	34	101	1048576	60	7019
2026-01-07 12:38:00.74	39.95	11.89	-42.0	-43.0	22.5	0.00e+00	0	34	101	1048576	60	6917
2026-01-07 12:38:04.78	40.54	12.13	-42.0	-43.0	22.6	0.00e+00	0	34	101	1048576	60	6882
2026-01-07 12:38:08.83	41.15	12.37	-41.9	-42.9	22.7	0.00e+00	0	34	101	1048576	60	6794
2026-01-07 12:38:12.87	41.76	12.62	-41.7	-42.7	22.9	0.00e+00	91	34	101	1048576	60	6662
2026-01-07 12:38:16.92	42.38	12.86	-41.9	-42.9	22.7	0.00e+00	7	34	101	1048576	60	6807
2026-01-07 12:38:20.96	43.01	13.10	-41.7	-42.7	23.0	0.00e+00	6	34	101	1048576	60	6620
2026-01-07 12:38:25.00	43.66	13.34	-41.2	-42.2	23.4	0.00e+00	92	35	101	1048576	60	6251
2026-01-07 12:38:29.05	44.31	13.58	-41.2	-42.1	23.4	0.00e+00	9	35	101	1048576	60	6216
2026-01-07 12:38:33.09	44.97	13.82	-41.0	-41.9	23.6	0.00e+00	0	34	101	1048576	60	6088
2026-01-07 12:38:37.14	45.65	14.05	-40.8	-41.8	23.8	0.00e+00	0	34	101	1048576	60	5972
2026-01-07 12:38:41.18	46.33	14.29	-40.6	-41.5	23.9	0.00e+00	92	34	101	1048576	60	5800
2026-01-07 12:38:45.23	47.03	14.52	-40.7	-41.6	23.8	0.00e+00	0	34	101	1048576	60	5888
2026-01-07 12:38:49.27	47.73	14.76	-40.9	-41.9	23.6	0.00e+00	9	34	101	1048576	60	6035
2026-01-07 12:38:53.32	48.45	14.99	-40.7	-41.6	23.9	0.00e+00	9	35	101	1048576	60	5868
2026-01-07 12:38:57.36	49.17	15.22	-40.9	-41.8	23.7	0.00e+00	90	34	101	1048576	60	6024
2026-01-07 12:39:01.40	49.91	15.44	-41.3	-42.2	23.4	0.00e+00	73	35	101	1048576	60	6311
2026-01-07 12:39:05.44	50.66	15.67	-41.3	-42.2	23.4	0.00e+00	73	35	101	1048576	60	6282
2026-01-07 12:39:09.49	51.42	15.89	-41.4	-42.4	23.3	0.00e+00	0	35	101	1048576	60	6421
2026-01-07 12:39:13.53	52.19	16.11	-41.7	-42.7	23.0	0.00e+00	92	34	101	1048576	60	6648
2026-01-07 12:39:17.58	52.97	16.33	-41.9	-42.9	22.7	0.00e+00	2	34	101	1048576	60	6781
2026-01-07 12:39:21.62	53.76	16.54	-41.9	-42.9	22.9	0.00e+00	0	34	101	1048576	60	6791
2026-01-07 12:39:25.67	54.57	16.75	-42.2	-43.2	22.6	0.00e+00	64	35	101	1048576	60	7036
2026-01-07 12:39:29.71	55.38	16.95	-42.4	-43.4	22.4	0.00e+00	92	35	101	1048576	60	7228
2026-01-07 12:39:33.75	56.21	17.15	-42.6	-43.7	22.0	0.00e+00	0	34	101	1048576	60	7424
2026-01-07 12:39:37.80	57.04	17.35	-42.9	-44.1	21.7	0.00e+00	5	34	101	1048576	60	7794
2026-01-07 12:39:41.84	57.89	17.55	-42.5	-43.6	22.2	0.00e+00	75	35	101	1048576	60	7392
2026-01-07 12:39:45.88	58.75	17.74	-42.7	-43.8	22.1	0.00e+00	6	34	101	1048576	60	7520
2026-01-07 12:39:49.93	59.61	17.92	-42.4	-43.5	22.4	0.00e+00	6	34	101	1048576	60	7279
2026-01-07 12:39:53.97	60.49	18.10	-42.2	-43.3	22.5	0.00e+00	0	35	101	1048576	60	7124
2026-01-07 12:39:58.01	61.38	18.27	-41.7	-42.7	23.1	0.00e+00	92	34	101	1048576	60	6632
2026-01-07 12:40:02.06	62.28	18.44	-41.7	-42.7	23.0	0.00e+00	8	34	101	1048576	60	6661
2026-01-07 12:40:06.10	63.18	18.60	-41.8	-42.8	22.9	0.00e+00	8	35	101	1048576	60	6756
2026-01-07 12:40:10.14	64.10	18.76	-42.2	-43.3	22.6	0.00e+00	0	34	101	1048576	60	7095
2026-01-07 12:40:14.19	65.03	18.91	-41.8	-42.7	23.0	0.00e+00	92	35	101	1048576	60	6692
2026-01-07 12:40:18.23	65.96	19.06	-41.8	-42.8	23.0	0.00e+00	74	35	101	1048576	60	6713
2026-01-07 12:40:22.28	66.91	19.19	-41.9	-42.9	22.9	0.00e+00	8	35	101	1048576	60	6784
2026-01-07 12:40:26.32	67.86	19.32	-41.9	-42.9	22.9	0.00e+00	0	34	101	1048576	60	6783
2026-01-07 12:40:30.36	68.82	19.45	-41.6	-42.5	23.1	0.00e+00	92	34	101	1048576	60	6530
2026-01-07 12:40:34.41	69.78	19.56	-41.5	-42.5	23.3	0.00e+00	0	35	101	1048576	60	6495
2026-01-07 12:40:38.45	70.76	19.67	-41.6	-42.5	23.2	0.00e+00	68	35	101	1048576	60	6537
2026-01-07 12:40:42.49	71.74	19.77	-41.3	-42.2	23.5	0.00e+00	0	35	101	1048576	60	6308
2026-01-07 12:40:46.54	72.72	19.86	-41.8	-42.8	23.0	0.00e+00	15	34	101	1048576	60	6716
2026-01-07 12:40:50.58	73.72	19.95	-42.4	-43.5	22.3	0.00e+00	2	35	101	1048576	60	7275
2026-01-07 12:40:54.63	74.71	20.03	-41.8	-42.8	23.0	0.00e+00	71	34	101	1048576	60	6713
2026-01-07 12:40:58.67	75.72	20.09	-41.7	-42.7	23.1	0.00e+00	72	34	101	1048576	60	6641
2026-01-07 12:41:02.72	76.72	20.15	-42.2	-43.2	22.7	0.00e+00	75	34	101	1048576	60	7039
2026-01-07 12:41:06.76	77.73	20.20	-42.1	-43.1	22.7	0.00e+00	5	35	101	1048576	60	7005
2026-01-07 12:41:10.80	78.74	20.25	-42.6	-43.7	22.2	0.00e+00	0	35	101	1048576	60	7456
2026-01-07 12:41:14.85	79.76	20.28	-42.5	-43.6	22.3	0.00e+00	90	35	101	1048576	60	7409
2026-01-07 12:41:18.89	80.78	20.31	-42.6	-43.7	22.3	0.00e+00	6	35	101	1048576	60	7481
2026-01-07 12:41:22.94	81.80	20.32	-42.0	-43.0	22.8	0.00e+00	0	34	101	1048576	60	6891
2026-01-07 12:41:26.98	82.82	20.33	-41.6	-42.6	23.2	0.00e+00	0	34	101	1048576	60	6595
2026-01-07 12:41:31.03	83.84	20.33	-42.2	-43.2	22.6	0.00e+00	90	35	101	1048576	60	7070
2026-01-07 12:41:35.07	84.86	20.31	-42.2	-43.2	22.5	0.00e+00	73	35	101	1048576	60	7084
2026-01-07 12:41:39.11	85.87	20.29	-42.2	-43.2	22.6	0.00e+00	13	35	101	1048576	60	7065
2026-01-07 12:41:43.16	86.89	20.26	-42.4	-43.5	22.4	0.00e+00	0	35	101	1048576	60	7311
2026-01-07 12:41:47.20	87.91	20.23	-42.3	-43.4	22.5	0.00e+00	91	35	101	1048576	60	7174
2026-01-07 12:41:51.24	88.92	20.18	-41.5	-42.5	23.3	0.00e+00	8	35	101	1048576	60	6476
2026-01-07 12:41:55.29	89.93	20.12	-41.8	-42.8	22.9	0.00e+00	0	34	101	1048576	60	6720
2026-01-07 12:41:59.33	90.93	20.06	-41.9	-43.0	22.9	0.00e+00	26	35	101	1048576	60	6855
2026-01-07 12:42:03.38	91.94	19.99	-41.2	-42.2	23.6	0.00e+00	29	35	101	1048576	60	6248
2026-01-07 12:42:07.42	92.93	19.91	-40.9	-41.8	23.8	0.00e+00	0	34	101	1048576	60	5996
2026-01-07 12:42:11.46	93.92	19.82	-40.9	-41.8	23.9	0.00e+00	0	35	101	1048576	60	5997
2026-01-07 12:42:15.51	94.91	19.72	-41.3	-42.2	23.5	0.00e+00	90	35	101	1048576	60	6279
2026-01-07 12:42:19.55	95.89	19.62	-40.8	-41.8	23.8	0.00e+00	0	35	101	1048576	60	5968
2026-01-07 12:42:23.59	96.86	19.50	-40.0	-40.8	24.6	0.00e+00	0	34	101	1048576	58	5999
2026-01-07 12:42:27.64	97.82	19.38	-40.1	-40.9	24.4	0.00e+00	0	34	101	1048576	58	6073
2026-01-07 12:42:31.68	98.78	19.26	-40.4	-41.2	24.3	0.00e+00	92	35	101	1048576	58	6316
2026-01-07 12:42:35.73	99.73	19.12	-40.4	-41.3	24.3	0.00e+00	5	35	101	1048576	58	6345
2026-01-07 12:42:39.77	100.67	18.98	-39.9	-40.7	24.7	0.00e+00	0	35	101	1048576	58	5949
2026-01-07 12:42:43.81	101.60	18.83	-39.6	-40.5	24.9	0.00e+00	66	35	101	1048576	58	5764
2026-01-07 12:42:47.85	102.53	18.68	-39.5	-40.3	25.0	0.00e+00	92	35	101	1048576	58	5648
2026-01-07 12:42:51.90	103.44	18.52	-40.0	-40.9	24.2	0.00e+00	15	34	101	1048576	58	6048
2026-01-07 12:42:55.94	104.35	18.35	-40.4	-41.3	24.0	0.00e+00	7	35	101	1048576	58	6380
2026-01-07 12:42:59.98	105.24	18.18	-40.5	-41.4	24.1	0.00e+00	0	34	101	1048576	58	6401
2026-01-07 12:43:04.03	106.13	18.00	-40.7	-41.6	23.9	0.00e+00	92	34	101	1048576	58	6579
2026-01-07 12:43:08.07	107.00	17.82	-41.0	-41.9	23.4	0.00e+00	66	34	101	1048576	58	6815
2026-01-07 12:43:12.12	107.87	17.63	-41.4	-42.4	23.4	0.00e+00	0	34	101	1048576	60	6392
2026-01-07 12:43:16.15	108.72	17.44	-41.3	-42.3	23.4	0.00e+00	0	35	101	1048576	60	6326
2026-01-07 12:43:20.20	109.57	17.24	-41.9	-43.0	22.7	0.00e+00	92	35	101	1048576	60	6872
2026-01-07 12:43:24.24	110.40	17.04	-41.7	-42.6	23.1	0.00e+00	10	35	101	1048576	60	6611
2026-01-07 12:43:28.29	111.22	16.83	-41.6	-42.6	23.1	0.00e+00	9	35	101	1048576	60	6583
2026-01-07 12:43:32.33	112.03	16.62	-41.7	-42.7	22.9	0.00e+00	92	34	101	1048576	60	6676
2026-01-07 12:43:36.38	112.83	16.41	-41.8	-42.8	22.8	0.00e+00	0	34	101	1048576	60	6732
2026-01-07 12:43:40.42	113.62	16.20	-41.2	-42.1	23.5	0.00e+00	68	34	101	1048576	60	6222
2026-01-07 12:43:44.46	114.40	15.98	-40.8	-41.7	23.8	0.00e+00	13	34	101	1048576	60	5934
2026-01-07 12:43:48.50	115.17	15.76	-40.9	-41.8	23.8	0.00e+00	92	34	101	1048576	60	6022
2026-01-07 12:43:52.55	115.93	15.53	-41.9	-42.9	22.6	0.00e+00	0	34	101	1048576	60	6844
2026-01-07 12:43:56.59	116.67	15.30	-42.1	-43.2	22.4	0.00e+00	71	34	101	1048576	60	7041
2026-01-07 12:44:00.63	117.40	15.07	-41.3	-42.2	23.3	0.00e+00	10	35	101	1048576	60	6303
2026-01-07 12:44:04.68	118.13	14.84	-41.4	-42.4	23.2	0.00e+00	90	34	101	1048576	60	6393
2026-01-07 12:44:08.73	118.84	14.61	-40.9	-41.9	23.4	0.00e+00	5	34	101	1048576	60	6075
2026-01-07 12:44:12.77	119.54	14.37	-41.2	-42.2	23.3	0.00e+00	5	35	101	1048576	60	6278
2026-01-07 12:44:16.81	120.23	14.14	-41.2	-42.1	23.4	0.00e+00	0	35	101	1048576	60	6236
2026-01-07 12:44:20.85	120.91	13.90	-40.8	-41.7	23.7	0.00e+00	92	34	101	1048576	60	5953
2026-01-07 12:44:24.90	121.58	13.66	-41.5	-42.5	22.9	0.00e+00	17	34	101	1048576	60	6500
2026-01-07 12:44:28.94	122.24	13.42	-41.1	-42.0	23.4	0.00e+00	6	35	101	1048576	60	6172
2026-01-07 12:44:32.99	122.89	13.18	-40.9	-41.8	23.6	0.00e+00	72	35	101	1048576	60	5983
2026-01-07 12:44:37.03	123.53	12.93	-41.7	-42.7	22.9	0.00e+00	92	34	101	1048576	60	6650
2026-01-07 12:44:41.08	124.16	12.69	-41.4	-42.4	23.1	0.00e+00	15	34	101	1048576	60	6404
2026-01-07 12:44:45.12	124.78	12.45	-41.5	-42.5	23.0	0.00e+00	0	35	101	1048576	60	6536
2026-01-07 12:44:49.17	125.39	12.20	-41.9	-43.0	22.5	0.00e+00	91	35	101	1048576	60	6876
2026-01-07 12:44:53.21	125.99	11.96	-41.4	-42.4	23.1	0.00e+00	67	34	101	1048576	60	6425
2026-01-07 12:44:57.25	126.58	11.71	-41.6	-42.6	22.9	0.00e+00	13	35	101	1048576	60	6587
2026-01-07 12:45:01.30	127.16	11.47	-42.4	-43.5	22.1	0.00e+00	0	35	101	1048576	60	7299
2026-01-07 12:45:05.34	127.73	11.22	-42.1	-43.2	22.3	0.00e+00	92	35	101	1048576	60	7052
2026-01-07 12:45:09.39	128.29	10.97	-42.0	-43.1	22.4	0.00e+00	0	35	101	1048576	60	6929
2026-01-07 12:45:13.43	128.85	10.73	-42.2	-43.2	22.2	0.00e+00	18	35	101	1048576	60	7073
2026-01-07 12:45:17.47	129.39	10.48	-42.2	-43.2	22.1	0.00e+00	71	35	101	1048576	60	7083
2026-01-07 12:45:21.52	129.93	10.24	-42.4	-43.5	22.1	0.00e+00	92	35	101	1048576	60	7273
2026-01-07 12:45:25.56	130.45	9.99	-42.9	-44.1	21.5	0.00e+00	0	35	101	1048576	60	7780
2026-01-07 12:45:29.60	130.97	9.75	-43.0	-44.2	21.3	0.00e+00	67	35	101	1048576	60	7896
2026-01-07 12:45:33.65	131.48	9.51	-42.4	-43.5	22.0	0.00e+00	52	35	101	1048576	60	7283
2026-01-07 12:45:37.69	131.98	9.26	-42.2	-43.3	22.2	0.00e+00	92	35	101	1048576	60	7123
2026-01-07 12:45:41.73	132.48	9.02	-42.6	-43.7	21.8	0.00e+00	0	35	101	1048576	60	7463
2026-01-07 12:45:45.78	132.96	8.78	-42.8	-43.9	21.5	0.00e+00	0	35	101	1048576	60	7660
2026-01-07 12:45:49.82	133.44	8.53	-43.0	-44.2	21.1	0.00e+00	5	35	101	1048576	60	7924
2026-01-07 12:45:53.86	133.91	8.29	-43.4	-44.7	20.7	0.00e+00	92	35	101	1048576	60	8372
2026-01-07 12:45:57.91	134.38	8.05	-43.3	-44.7	20.8	0.00e+00	17	35	101	1048576	60	8360
2026-01-07 12:46:01.95	134.83	7.81	-43.1	-44.4	20.9	0.00e+00	0	35	101	1048576	60	8107
2026-01-07 12:46:06.00	135.28	7.57	-43.1	-44.4	20.9	0.00e+00	92	35	101	1048576	60	8102
2026-01-07 12:46:10.04	135.72	7.34	-43.7	-45.1	20.3	0.00e+00	20	35	101	1048576	60	8753
2026-01-07 12:46:14.08	136.16	7.10	-43.8	-45.2	20.2	0.00e+00	0	35	101	1048576	60	8878
2026-01-07 12:46:18.13	136.59	6.86	-44.0	-45.4	19.9	0.00e+00	14	35	101	1048576	60	9067
2026-01-07 12:46:22.17	137.01	6.63	-44.2	-45.7	19.6	0.00e+00	92	35	101	1048576	60	9368
2026-01-07 12:46:26.21	137.42	6.39	-44.1	-45.6	19.6	0.00e+00	68	35	101	1048576	60	9332
2026-01-07 12:46:30.26	137.83	6.16	-44.2	-45.8	19.4	0.00e+00	68	35	101	1048576	60	9510
2026-01-07 12:46:34.30	138.24	5.92	-44.7	-46.3	18.7	0.00e+00	15	35	101	1048576	60	10115
2026-01-07 12:46:38.35	138.63	5.69	-45.1	-47.0	17.6	0.00e+00	90	35	101	1048576	60	10858
2026-01-07 12:46:42.39	139.02	5.46	-45.6	-47.8	16.4	1.50e-06	0	35	101	1048576	60	11960
2026-01-07 12:46:46.43	139.41	5.23	-46.2	-48.8	14.2	2.39e-04	68	34	101	1048576	60	13374
2026-01-07 12:46:50.48	139.79	5.00	-46.8	-50.3	12.0	1.86e-03	0	35	101	1048576	60	15954
2026-01-07 12:46:54.52	140.16	4.77	-47.7	-52.7	9.6	1.37e-02	92	35	101	1048576	60	21074
2026-01-07 12:46:58.56	140.53	4.55	-48.0	-54.5	7.3	1.01e-01	0	35	101	1048576	60	25909
2026-01-07 12:47:02.59	140.89	4.32	-48.2	-55.7	6.2	2.59e-01	0	35	101	1048576	60	29890
2026-01-07 12:47:06.63	141.25	4.09	-48.1	-55.7	6.4	2.13e-01	0	35	101	1048576	60	29657
2026-01-07 12:47:10.68	141.60	3.87	-47.9	-54.0	8.6	5.70e-02	95	35	101	1048576	60	24445
2026-01-07 12:47:14.72	141.95	3.65	-47.7	-53.0	9.7	1.26e-02	5	35	101	1048576	60	21830
2026-01-07 12:47:18.76	142.29	3.42	-47.2	-51.7	11.6	7.24e-04	0	35	101	1048576	60	18783
2026-01-07 12:47:22.80	142.63	3.20	-47.2	-51.4	12.2	2.69e-04	92	35	101	1048576	60	18079
2026-01-07 12:47:26.85	142.96	2.98	-51.0	-66.4	3.6	1.51e+00	0	35	104	1048576	60	101783
2026-01-07 12:47:30.89	143.29	2.76	-51.8	-67.1	3.6	1.51e+00	0	35	104	1048576	60	110855
2026-01-07 12:47:34.94	143.61	2.54	-51.9	-67.3	3.6	1.51e+00	0	35	104	1048576	60	113024
2026-01-07 12:47:38.98	143.93	2.33	-51.9	-67.3	3.6	1.51e+00	0	35	104	1048576	60	113355
2026-01-07 12:47:43.03	144.24	2.11	-51.9	-67.3	3.6	1.51e+00	0	35	104	1048576	60	113244
2026-01-07 12:47:47.07	144.55	1.89	-51.9	-67.3	3.6	1.51e+00	0	35	104	1048576	60	112905
2026-01-07 12:47:51.11	144.86	1.68	-51.9	-67.3	3.6	1.51e+00	0	35	104	1048576	60	112666
2026-01-07 12:47:55.16	145.16	1.47	-51.9	-67.3	3.6	1.51e+00	0	35	104	1048576	60	112614
2026-01-07 12:47:59.20	145.46	1.25	-51.9	-67.2	3.6	1.51e+00	0	35	104	1048576	60	111734
2026-01-07 12:48:03.24	145.75	1.04	-51.9	-67.3	3.6	1.51e+00	0	35	104	1048576	60	112450
2026-01-07 12:48:07.28	146.04	0.83	-51.9	-67.2	3.6	1.51e+00	0	35	104	1048576	60	112208
2026-01-07 12:48:11.32	146.32	0.62	-51.9	-67.3	3.6	1.51e+00	0	35	104	1048576	60	112511
2026-01-07 12:48:15.37	146.61	0.41	-51.9	-67.3	3.6	1.51e+00	0	35	104	1048576	60	112457
2026-01-07 12:48:19.41	146.88	0.21	-51.9	-67.3	3.6	1.51e+00	0	35	104	1048576	60	112364
2026-01-07 12:48:23.46	147.16	-0.00	-51.9	-67.3	3.6	1.51e+00	0	35	104	1048576	60	112754

#Closed at: 2026-01-07 12:48:25
#Recorded file [1 MB]: D:/lorett/data/35034_260107_153430.dat