passes_logs/2026/01/07/R4.6S_Anadyr_2ch/R4.6S_Anadyr_2ch__20260107_232011_NOAA_21_JPSS-2_rec.log

#Pass ID: 20260107_232011_NOAA 21 (JPSS-2)
#Satellite: NOAA 21 (JPSS-2)
#Configuration: NOAA-21
#almurnet v.1.7.20251203
#Start time: 2026-01-07 23:20:15

#Version: 2.2.20231116
#Station: R4.6S_Anadyr_2ch
#Location: 177.4865 lon 64.73178 lat
#TLE: 1 54234U 22150A   25350.97269056  .00000057  00000+0  47676-4 0  9992
#TLE: 2 54234  98.7466 287.2282 0002043  29.8355 330.2937 14.19525482160692

#Time	Az	El	Level	Level2	SNR	BER	BlckErr	Temp	State	Recorded	gain1	gain2
2026-01-07 23:20:15.67	134.60	0.25	-51.9	-53.5	5.7	0.00e+00	0	33	0	0	60	79397
2026-01-07 23:20:19.71	134.52	0.49	-52.0	-65.1	3.5	1.52e+00	0	34	104	0	60	84735
2026-01-07 23:20:23.75	134.43	0.73	-51.8	-64.8	3.5	1.52e+00	0	35	104	0	60	82480
2026-01-07 23:20:27.80	134.34	0.98	-51.1	-64.1	3.5	1.52e+00	0	35	104	0	60	76178
2026-01-07 23:20:31.84	134.25	1.23	-50.2	-63.5	3.5	1.52e+00	0	35	104	0	60	70488
2026-01-07 23:20:35.88	134.16	1.48	-50.2	-63.5	3.5	1.52e+00	0	35	104	0	60	70715
2026-01-07 23:20:39.93	134.06	1.73	-50.2	-63.3	3.5	1.52e+00	0	35	104	0	60	69244
2026-01-07 23:20:43.97	133.97	1.99	-50.2	-63.1	3.5	1.52e+00	0	35	104	0	60	67962
2026-01-07 23:20:48.02	133.87	2.24	-50.2	-63.5	3.5	1.52e+00	0	35	104	0	60	70857
2026-01-07 23:20:52.06	133.77	2.50	-50.2	-63.0	3.5	1.51e+00	0	35	104	0	60	66935
2026-01-07 23:20:56.10	133.67	2.76	-50.1	-62.1	3.5	1.51e+00	0	35	104	0	60	60327
2026-01-07 23:21:00.14	133.56	3.03	-50.1	-62.0	3.5	1.51e+00	0	35	104	0	60	59649
2026-01-07 23:21:04.19	133.46	3.29	-46.6	-49.4	13.3	1.03e-04	123	35	102	1048576	60	14042
2026-01-07 23:21:08.23	133.35	3.56	-42.8	-44.3	18.5	0.00e+00	123	35	102	1048576	60	7749
2026-01-07 23:21:12.27	133.24	3.83	-46.7	-49.8	5.1	1.46e+00	0	35	104	1048576	60	14699
2026-01-07 23:21:16.32	133.13	4.11	-42.4	-44.1	18.2	8.84e-01	123	35	104	1048576	60	7593
2026-01-07 23:21:20.36	133.01	4.38	-40.9	-42.1	20.7	0.00e+00	122	35	0	1048576	60	6001
2026-01-07 23:21:24.40	132.89	4.66	-40.5	-41.7	20.9	0.00e+00	122	35	0	1048576	60	5737
2026-01-07 23:21:28.45	132.77	4.94	-40.4	-41.5	21.1	0.00e+00	122	35	101	1048576	60	5640
2026-01-07 23:21:32.49	132.65	5.23	-40.4	-41.5	21.2	0.00e+00	123	35	101	1048576	60	5647
2026-01-07 23:21:36.54	132.53	5.52	-40.3	-41.5	21.2	0.00e+00	122	35	101	1048576	60	5596
2026-01-07 23:21:40.58	132.40	5.81	-40.3	-41.4	21.3	0.00e+00	123	35	101	1048576	60	5584
2026-01-07 23:21:44.62	132.27	6.10	-40.1	-41.2	21.4	0.00e+00	123	35	101	1048576	58	6106
2026-01-07 23:21:48.63	132.14	6.40	-40.1	-41.2	21.4	0.00e+00	123	35	101	1048576	58	6127
2026-01-07 23:21:52.67	132.00	6.70	-39.9	-41.0	21.7	0.00e+00	122	35	101	1048576	58	5957
2026-01-07 23:21:56.72	131.86	7.00	-39.9	-40.9	21.8	0.00e+00	123	35	101	1048576	58	5920
2026-01-07 23:22:00.76	131.72	7.31	-39.8	-40.9	21.9	0.00e+00	122	35	101	1048576	58	5877
2026-01-07 23:22:04.80	131.57	7.62	-39.8	-40.9	22.0	0.00e+00	123	35	101	1048576	58	5893
2026-01-07 23:22:08.85	131.42	7.93	-39.4	-40.4	22.4	0.00e+00	123	35	101	1048576	58	5571
2026-01-07 23:22:12.89	131.27	8.25	-39.3	-40.3	22.5	0.00e+00	123	36	101	1048576	58	5498
2026-01-07 23:22:16.93	131.11	8.57	-39.3	-40.3	22.6	0.00e+00	123	36	101	1048576	58	5509
2026-01-07 23:22:20.98	130.95	8.90	-39.4	-40.4	22.5	0.00e+00	120	36	101	1048576	56	6246
2026-01-07 23:22:25.02	130.79	9.23	-38.9	-39.9	23.0	0.00e+00	122	36	101	1048576	56	5901
2026-01-07 23:22:29.07	130.62	9.57	-38.8	-39.8	23.0	0.00e+00	123	36	101	1048576	56	5802
2026-01-07 23:22:33.11	130.45	9.90	-38.6	-39.6	23.3	0.00e+00	122	36	101	1048576	56	5698
2026-01-07 23:22:37.16	130.27	10.25	-38.4	-39.4	23.4	0.00e+00	123	36	101	1048576	56	5569
2026-01-07 23:22:41.20	130.09	10.60	-38.3	-39.3	23.5	0.00e+00	123	36	101	1048576	56	5498
2026-01-07 23:22:45.24	129.90	10.95	-38.3	-39.3	23.5	0.00e+00	120	36	101	1048576	56	5494
2026-01-07 23:22:49.28	129.71	11.30	-37.9	-38.8	23.9	0.00e+00	123	36	101	1048576	54	5851
2026-01-07 23:22:53.33	129.51	11.67	-37.8	-38.7	23.9	0.00e+00	122	36	101	1048576	54	5766
2026-01-07 23:22:57.37	129.31	12.03	-37.7	-38.6	24.0	0.00e+00	120	36	101	1048576	54	5705
2026-01-07 23:23:01.41	129.10	12.41	-37.7	-38.6	24.0	0.00e+00	123	36	101	1048576	54	5684
2026-01-07 23:23:05.46	128.89	12.78	-37.6	-38.6	24.1	0.00e+00	122	36	101	1048576	54	5660
2026-01-07 23:23:09.50	128.67	13.17	-37.7	-38.7	24.0	0.00e+00	123	36	101	1048576	54	5741
2026-01-07 23:23:13.55	128.45	13.56	-37.8	-38.7	23.9	0.00e+00	122	36	101	1048576	54	5788
2026-01-07 23:23:17.59	128.22	13.95	-37.7	-38.6	24.1	0.00e+00	123	36	101	1048576	54	5696
2026-01-07 23:23:21.63	127.98	14.35	-37.9	-38.9	23.9	0.00e+00	123	36	101	1048576	54	5863
2026-01-07 23:23:25.67	127.74	14.76	-37.7	-38.6	24.1	0.00e+00	123	36	101	1048576	54	5696
2026-01-07 23:23:29.72	127.49	15.17	-37.7	-38.6	24.1	0.00e+00	122	36	101	1048576	54	5698
2026-01-07 23:23:33.76	127.23	15.59	-37.7	-38.7	24.1	0.00e+00	120	36	101	1048576	54	5735
2026-01-07 23:23:37.81	126.96	16.02	-37.9	-38.9	23.9	0.00e+00	122	36	101	1048576	54	5869
2026-01-07 23:23:41.85	126.69	16.45	-37.8	-38.7	24.1	0.00e+00	120	36	101	1048576	54	5756
2026-01-07 23:23:45.89	126.40	16.89	-38.0	-38.9	23.9	0.00e+00	123	36	101	1048576	54	5918
2026-01-07 23:23:49.93	126.11	17.34	-38.2	-39.1	23.8	0.00e+00	120	36	101	1048576	54	6034
2026-01-07 23:23:53.98	125.81	17.79	-38.3	-39.2	23.7	0.00e+00	123	36	101	1048576	54	6109
2026-01-07 23:23:58.02	125.50	18.26	-38.3	-39.2	23.7	0.00e+00	123	36	101	1048576	54	6095
2026-01-07 23:24:02.06	125.18	18.73	-38.1	-39.0	23.9	0.00e+00	123	36	101	1048576	54	5966
2026-01-07 23:24:06.11	124.85	19.21	-37.7	-38.7	24.1	0.00e+00	123	36	101	1048576	54	5734
2026-01-07 23:24:10.15	124.51	19.69	-37.8	-38.7	24.1	0.00e+00	123	36	101	1048576	54	5751
2026-01-07 23:24:14.20	124.15	20.19	-37.5	-38.4	24.3	0.00e+00	123	36	101	1048576	54	5570
2026-01-07 23:24:18.24	123.79	20.69	-37.3	-38.2	24.6	0.00e+00	123	36	101	1048576	54	5411
2026-01-07 23:24:22.60	123.38	21.25	-37.1	-37.9	24.7	0.00e+00	123	36	101	1048576	52	5918
2026-01-07 23:24:26.65	122.98	21.77	-36.5	-37.4	25.2	0.00e+00	120	36	101	1048576	52	5539
2026-01-07 23:24:30.69	122.58	22.30	-36.3	-37.2	25.2	0.00e+00	120	36	101	1048576	52	5449
2026-01-07 23:24:34.74	122.16	22.85	-36.5	-37.3	25.1	0.00e+00	123	36	101	1048576	52	5520
2026-01-07 23:24:38.78	121.72	23.40	-36.7	-37.6	25.1	0.00e+00	122	36	101	1048576	52	5661
2026-01-07 23:24:42.82	121.27	23.96	-36.7	-37.6	25.1	0.00e+00	123	36	101	1048576	52	5693
2026-01-07 23:24:46.87	120.80	24.53	-36.8	-37.7	24.9	0.00e+00	123	36	101	1048576	52	5727
2026-01-07 23:24:50.91	120.31	25.12	-37.1	-38.0	24.7	0.00e+00	122	36	101	1048576	52	5993
2026-01-07 23:24:54.96	119.80	25.71	-37.3	-38.2	24.4	0.00e+00	123	36	101	1048576	52	6120
2026-01-07 23:24:59.00	119.27	26.31	-37.7	-38.6	24.3	0.00e+00	123	36	101	1048576	52	6365
2026-01-07 23:25:03.04	118.73	26.93	-37.8	-38.8	24.1	0.00e+00	120	36	101	1048576	52	6507
2026-01-07 23:25:07.08	118.16	27.56	-37.9	-38.9	23.9	0.00e+00	122	36	101	1048576	52	6576
2026-01-07 23:25:11.13	117.56	28.19	-38.0	-39.0	24.0	0.00e+00	123	36	101	1048576	52	6650
2026-01-07 23:25:15.17	116.94	28.84	-37.8	-38.7	24.3	0.00e+00	123	36	101	1048576	52	6475
2026-01-07 23:25:19.22	116.30	29.50	-37.5	-38.4	24.2	0.00e+00	122	36	101	1048576	52	6274
2026-01-07 23:25:23.26	115.63	30.17	-37.7	-38.7	23.9	0.00e+00	122	36	101	1048576	52	6457
2026-01-07 23:25:27.31	114.93	30.86	-38.1	-39.1	23.6	0.00e+00	122	36	101	1048576	52	6727
2026-01-07 23:25:31.35	114.19	31.55	-37.4	-38.3	24.5	0.00e+00	123	36	101	1048576	54	5483
2026-01-07 23:25:35.39	113.43	32.26	-37.5	-38.4	24.2	0.00e+00	122	36	101	1048576	54	5558
2026-01-07 23:25:39.44	112.63	32.97	-38.0	-39.0	24.1	0.00e+00	122	36	101	1048576	54	5940
2026-01-07 23:25:43.48	111.79	33.70	-38.1	-39.0	24.1	0.00e+00	120	36	101	1048576	54	5976
2026-01-07 23:25:47.52	110.92	34.43	-38.7	-39.7	23.6	0.00e+00	122	36	101	1048576	54	6434
2026-01-07 23:25:51.56	110.00	35.18	-39.0	-40.0	23.3	0.00e+00	122	36	101	1048576	54	6684
2026-01-07 23:25:55.61	109.04	35.93	-39.2	-40.1	23.3	0.00e+00	122	36	101	1048576	56	6055
2026-01-07 23:25:59.65	108.04	36.69	-39.8	-40.8	22.8	0.00e+00	120	36	101	1048576	56	6564
2026-01-07 23:26:03.70	106.98	37.47	-39.9	-40.9	22.6	0.00e+00	120	36	101	1048576	56	6634
2026-01-07 23:26:07.74	105.88	38.24	-39.4	-40.4	23.0	0.00e+00	123	36	101	1048576	56	6234
2026-01-07 23:26:11.78	104.72	39.02	-39.4	-40.3	22.9	0.00e+00	122	36	101	1048576	56	6202
2026-01-07 23:26:15.83	103.50	39.81	-39.6	-40.6	22.8	0.00e+00	122	36	101	1048576	56	6406
2026-01-07 23:26:19.87	102.22	40.59	-40.0	-41.0	22.5	0.00e+00	122	36	101	1048576	56	6689
2026-01-07 23:26:23.91	100.88	41.38	-40.6	-41.7	21.9	0.00e+00	120	36	101	1048576	58	6425
2026-01-07 23:26:27.96	99.47	42.17	-40.6	-41.6	21.7	0.00e+00	122	36	101	1048576	58	6414
2026-01-07 23:26:32.00	97.99	42.95	-40.5	-41.6	22.0	0.00e+00	120	36	101	1048576	58	6368
2026-01-07 23:26:36.04	96.43	43.72	-40.1	-41.1	22.4	0.00e+00	122	36	101	1048576	58	6024
2026-01-07 23:26:40.09	94.80	44.48	-40.4	-41.5	22.1	0.00e+00	120	36	101	1048576	58	6307
2026-01-07 23:26:44.13	93.09	45.23	-40.5	-41.6	22.0	0.00e+00	122	36	101	1048576	58	6380
2026-01-07 23:26:48.18	91.29	45.97	-40.7	-41.8	21.9	0.00e+00	122	36	101	1048576	58	6564
2026-01-07 23:26:52.22	89.42	46.69	-39.9	-40.9	22.7	0.00e+00	122	36	101	1048576	58	5917
2026-01-07 23:26:56.26	87.45	47.38	-39.4	-40.4	23.2	0.00e+00	122	36	101	1048576	58	5533
2026-01-07 23:27:00.31	85.40	48.04	-40.4	-41.4	22.1	0.00e+00	123	36	101	1048576	58	6265
2026-01-07 23:27:04.35	83.26	48.67	-39.9	-40.9	22.5	0.00e+00	123	36	101	1048576	58	5913
2026-01-07 23:27:08.39	81.03	49.27	-40.0	-41.0	22.5	0.00e+00	123	36	101	1048576	58	5964
2026-01-07 23:27:12.44	78.71	49.82	-39.6	-40.6	22.9	0.00e+00	122	36	101	1048576	58	5695
2026-01-07 23:27:16.48	76.32	50.33	-39.9	-40.9	22.4	0.00e+00	123	36	101	1048576	58	5895
2026-01-07 23:27:20.52	73.85	50.79	-39.9	-40.9	22.5	0.00e+00	123	36	101	1048576	58	5882
2026-01-07 23:27:24.57	71.30	51.20	-39.8	-40.9	22.6	0.00e+00	122	36	101	1048576	58	5869
2026-01-07 23:27:28.61	68.69	51.54	-39.8	-40.8	22.6	0.00e+00	123	36	101	1048576	58	5805
2026-01-07 23:27:32.66	66.02	51.83	-39.9	-41.0	22.2	0.00e+00	123	36	101	1048576	58	5961
2026-01-07 23:27:36.70	63.31	52.05	-39.3	-40.3	22.9	0.00e+00	123	36	101	1048576	56	6171
2026-01-07 23:27:40.74	60.56	52.20	-38.7	-39.7	23.6	0.00e+00	122	36	101	1048576	56	5735
2026-01-07 23:27:44.78	57.80	52.29	-38.7	-39.6	23.5	0.00e+00	123	36	101	1048576	56	5715
2026-01-07 23:27:48.82	55.02	52.30	-38.3	-39.2	23.7	0.00e+00	120	36	101	1048576	54	6131
2026-01-07 23:27:52.87	52.24	52.25	-38.9	-39.9	23.2	0.00e+00	120	36	101	1048576	54	6608
2026-01-07 23:27:56.91	49.49	52.12	-38.7	-39.6	23.2	0.00e+00	120	36	101	1048576	54	6416
2026-01-07 23:28:00.96	46.76	51.93	-39.1	-40.0	23.4	0.00e+00	120	36	101	1048576	56	5981
2026-01-07 23:28:05.00	44.07	51.67	-39.2	-40.2	23.1	0.00e+00	122	36	101	1048576	56	6084
2026-01-07 23:28:09.04	41.44	51.35	-39.1	-40.1	23.4	0.00e+00	123	36	101	1048576	56	6031
2026-01-07 23:28:13.08	38.87	50.98	-40.3	-41.4	21.9	0.00e+00	120	36	101	1048576	58	6239
2026-01-07 23:28:17.13	36.37	50.54	-39.7	-40.7	22.8	0.00e+00	123	36	101	1048576	56	6459
2026-01-07 23:28:21.17	33.94	50.05	-39.5	-40.6	22.7	0.00e+00	123	36	101	1048576	58	5676
2026-01-07 23:28:25.22	31.59	49.52	-40.4	-41.4	22.3	0.00e+00	123	36	101	1048576	58	6272
2026-01-07 23:28:29.26	29.33	48.94	-38.6	-39.4	23.9	0.00e+00	123	36	101	1048576	56	5587
2026-01-07 23:28:33.30	27.16	48.33	-39.5	-40.6	22.2	0.00e+00	122	36	101	1048576	58	5660
2026-01-07 23:28:37.35	25.07	47.68	-40.1	-41.1	22.3	0.00e+00	123	36	101	1048576	56	6798
2026-01-07 23:28:41.39	23.07	47.00	-39.6	-40.6	22.3	0.00e+00	122	36	101	1048576	58	5711
2026-01-07 23:28:45.44	21.15	46.30	-40.2	-41.2	22.3	0.00e+00	123	36	101	1048576	56	6817
2026-01-07 23:28:49.48	19.33	45.57	-40.9	-42.0	21.3	0.00e+00	123	36	101	1048576	60	5945
2026-01-07 23:28:53.52	17.59	44.83	-42.4	-43.6	20.3	0.00e+00	122	36	101	1048576	60	7182
2026-01-07 23:28:57.57	15.92	44.07	-40.1	-41.1	22.6	0.00e+00	122	36	101	1048576	60	5391
2026-01-07 23:29:01.61	14.34	43.31	-40.8	-41.9	21.8	0.00e+00	123	36	101	1048576	58	6623
2026-01-07 23:29:05.65	12.83	42.53	-41.7	-42.9	20.5	0.00e+00	123	36	101	1048576	60	6620
2026-01-07 23:29:09.70	11.39	41.75	-39.3	-40.2	23.2	0.00e+00	123	36	101	1048576	58	5458
2026-01-07 23:29:13.74	10.03	40.97	-41.0	-42.1	21.9	0.00e+00	123	36	101	1048576	60	6045
2026-01-07 23:29:17.78	8.72	40.19	-39.1	-40.0	23.3	0.00e+00	122	36	101	1048576	58	5342
2026-01-07 23:29:21.82	7.49	39.40	-39.3	-40.2	23.3	0.00e+00	123	36	101	1048576	56	6127
2026-01-07 23:29:25.87	6.30	38.62	-39.8	-40.8	22.2	0.00e+00	122	36	101	1048576	58	5856
2026-01-07 23:29:29.91	5.18	37.85	-39.0	-40.0	23.4	0.00e+00	122	36	101	1048576	56	5964
2026-01-07 23:29:33.96	4.10	37.08	-39.4	-40.4	23.1	0.00e+00	123	36	101	1048576	56	6213
2026-01-07 23:29:38.00	3.08	36.32	-39.1	-40.1	23.3	0.00e+00	122	36	101	1048576	56	6015
2026-01-07 23:29:42.04	2.10	35.56	-38.7	-39.7	23.5	0.00e+00	122	36	101	1048576	56	5752
2026-01-07 23:29:46.08	1.17	34.82	-39.7	-40.7	22.9	0.00e+00	122	36	101	1048576	56	6446
2026-01-07 23:29:50.13	0.28	34.08	-37.9	-38.8	24.1	0.00e+00	122	36	101	1048576	54	5811
2026-01-07 23:29:54.17	359.43	33.35	-38.3	-39.2	23.9	0.00e+00	122	36	101	1048576	54	6125
2026-01-07 23:29:58.22	358.62	32.63	-38.1	-39.0	24.0	0.00e+00	122	36	101	1048576	54	5961
2026-01-07 23:30:02.26	357.84	31.93	-37.8	-38.8	24.0	0.00e+00	122	36	101	1048576	54	5806
2026-01-07 23:30:06.30	357.10	31.23	-38.0	-38.9	24.0	0.00e+00	123	36	101	1048576	54	5911
2026-01-07 23:30:10.34	356.39	30.55	-38.2	-39.1	24.0	0.00e+00	123	36	101	1048576	54	6031
2026-01-07 23:30:14.39	355.70	29.87	-38.1	-39.0	23.9	0.00e+00	122	36	101	1048576	54	5977
2026-01-07 23:30:18.43	355.05	29.21	-37.4	-38.3	24.3	0.00e+00	123	36	101	1048576	54	5478
2026-01-07 23:30:22.47	354.42	28.56	-37.0	-37.9	24.7	0.00e+00	122	36	101	1048576	52	5912
2026-01-07 23:30:26.51	353.82	27.92	-37.2	-38.1	24.7	0.00e+00	120	36	101	1048576	52	5998
2026-01-07 23:30:30.55	353.25	27.29	-37.2	-38.1	24.7	0.00e+00	121	36	101	1048576	52	6016
2026-01-07 23:30:34.60	352.69	26.67	-37.2	-38.2	24.4	0.00e+00	120	36	101	1048576	52	6080
2026-01-07 23:30:38.64	352.16	26.07	-37.0	-37.9	24.8	0.00e+00	120	36	101	1048576	52	5862
2026-01-07 23:30:42.68	351.64	25.47	-37.1	-38.0	24.8	0.00e+00	122	36	101	1048576	52	5971
2026-01-07 23:30:46.72	351.15	24.89	-37.0	-37.8	24.9	0.00e+00	123	36	101	1048576	52	5848
2026-01-07 23:30:50.77	350.67	24.31	-36.9	-37.8	25.0	0.00e+00	122	36	101	1048576	52	5798
2026-01-07 23:30:54.81	350.22	23.75	-37.1	-38.0	24.7	0.00e+00	123	36	101	1048576	52	5952
2026-01-07 23:30:58.85	349.77	23.19	-37.7	-38.6	24.5	0.00e+00	123	36	101	1048576	52	6373
2026-01-07 23:31:02.89	349.35	22.65	-37.7	-38.7	24.2	0.00e+00	122	36	101	1048576	52	6424
2026-01-07 23:31:06.94	348.94	22.11	-37.5	-38.4	24.2	0.00e+00	123	36	101	1048576	52	6259
2026-01-07 23:31:10.98	348.54	21.59	-37.1	-37.9	24.5	0.00e+00	123	36	101	1048576	52	5916
2026-01-07 23:31:15.02	348.16	21.07	-36.5	-37.4	25.0	0.00e+00	123	36	101	1048576	52	5548
2026-01-07 23:31:19.07	347.79	20.56	-36.4	-37.2	25.1	0.00e+00	123	36	101	1048576	52	5453
2026-01-07 23:31:23.11	347.43	20.06	-36.4	-37.2	25.1	0.00e+00	123	36	101	1048576	52	5452
2026-01-07 23:31:27.15	347.09	19.57	-36.5	-37.4	25.0	0.00e+00	123	36	101	1048576	52	5535
2026-01-07 23:31:31.19	346.75	19.09	-36.8	-37.7	24.9	0.00e+00	123	36	101	1048576	52	5779
2026-01-07 23:31:35.24	346.43	18.62	-37.3	-38.2	24.4	0.00e+00	123	36	101	1048576	52	6085
2026-01-07 23:31:39.29	346.11	18.15	-37.6	-38.5	24.1	0.00e+00	122	36	101	1048576	52	6317
2026-01-07 23:31:43.33	345.81	17.70	-37.8	-38.8	23.9	0.00e+00	122	36	101	1048576	52	6519
2026-01-07 23:31:47.37	345.52	17.25	-38.0	-38.9	23.7	0.00e+00	123	36	101	1048576	52	6624
2026-01-07 23:31:51.42	345.23	16.80	-37.8	-38.8	23.8	0.00e+00	123	36	101	1048576	52	6517
2026-01-07 23:31:55.46	344.95	16.37	-37.9	-38.8	23.8	0.00e+00	123	36	101	1048576	52	6542
2026-01-07 23:31:59.51	344.68	15.94	-38.0	-38.9	23.8	0.00e+00	122	36	101	1048576	52	6627
2026-01-07 23:32:03.55	344.42	15.52	-38.1	-39.1	23.7	0.00e+00	123	36	101	1048576	52	6729
2026-01-07 23:32:07.60	344.17	15.10	-38.1	-39.0	23.9	0.00e+00	123	36	101	1048576	54	5956
2026-01-07 23:32:11.64	343.93	14.69	-38.1	-39.0	23.8	0.00e+00	122	36	101	1048576	54	5961
2026-01-07 23:32:15.68	343.69	14.29	-38.1	-39.0	23.8	0.00e+00	122	36	101	1048576	54	5969
2026-01-07 23:32:19.72	343.46	13.89	-38.3	-39.2	23.6	0.00e+00	122	36	101	1048576	54	6107
2026-01-07 23:32:23.77	343.23	13.50	-38.1	-39.0	23.7	0.00e+00	123	36	101	1048576	54	5988
2026-01-07 23:32:27.81	343.01	13.12	-38.3	-39.2	23.6	0.00e+00	123	36	101	1048576	54	6106
2026-01-07 23:32:31.85	342.80	12.74	-38.2	-39.1	23.7	0.00e+00	123	36	101	1048576	54	6059
2026-01-07 23:32:35.89	342.59	12.36	-38.3	-39.2	23.5	0.00e+00	122	36	101	1048576	54	6109
2026-01-07 23:32:39.94	342.39	12.00	-38.3	-39.2	23.5	0.00e+00	123	36	101	1048576	54	6129
2026-01-07 23:32:43.99	342.19	11.63	-38.5	-39.4	23.4	0.00e+00	121	36	101	1048576	54	6269
2026-01-07 23:32:48.03	342.00	11.27	-38.5	-39.5	23.3	0.00e+00	120	36	101	1048576	54	6301
2026-01-07 23:32:52.07	341.82	10.92	-38.6	-39.5	23.1	0.00e+00	120	36	101	1048576	54	6338
2026-01-07 23:32:56.12	341.64	10.57	-38.8	-39.8	23.0	0.00e+00	122	36	101	1048576	54	6554
2026-01-07 23:33:00.16	341.46	10.22	-38.9	-39.9	22.9	0.00e+00	122	36	101	1048576	54	6579
2026-01-07 23:33:04.21	341.29	9.88	-39.1	-40.1	22.7	0.00e+00	123	36	101	1048576	54	6742
2026-01-07 23:33:08.25	341.12	9.55	-39.3	-40.3	22.4	0.00e+00	120	36	101	1048576	56	6175
2026-01-07 23:33:12.30	340.96	9.22	-39.4	-40.4	22.4	0.00e+00	123	36	101	1048576	56	6253
2026-01-07 23:33:16.34	340.80	8.89	-39.4	-40.4	22.5	0.00e+00	123	36	101	1048576	56	6235
2026-01-07 23:33:20.38	340.64	8.57	-39.5	-40.6	22.4	0.00e+00	123	36	101	1048576	56	6358
2026-01-07 23:33:24.43	340.49	8.25	-39.7	-40.7	22.2	0.00e+00	123	36	101	1048576	56	6488
2026-01-07 23:33:28.47	340.34	7.93	-39.9	-41.0	21.9	0.00e+00	123	36	101	1048576	56	6690
2026-01-07 23:33:32.52	340.19	7.62	-40.0	-41.1	21.8	0.00e+00	122	36	101	1048576	56	6749
2026-01-07 23:33:36.56	340.05	7.31	-40.3	-41.4	21.4	0.00e+00	120	36	101	1048576	58	6255
2026-01-07 23:33:40.61	339.91	7.00	-40.3	-41.4	21.4	0.00e+00	120	36	101	1048576	58	6231
2026-01-07 23:33:44.65	339.78	6.70	-40.3	-41.4	21.3	0.00e+00	120	36	101	1048576	58	6245
2026-01-07 23:33:48.70	339.65	6.40	-40.4	-41.5	21.3	0.00e+00	120	36	101	1048576	58	6303
2026-01-07 23:33:52.74	339.52	6.11	-40.6	-41.7	20.9	0.00e+00	120	36	101	1048576	58	6486
2026-01-07 23:33:56.78	339.39	5.82	-41.1	-42.4	20.2	0.00e+00	122	36	101	1048576	58	6981
2026-01-07 23:34:00.82	339.27	5.53	-41.8	-43.2	19.1	0.00e+00	122	36	101	1048576	60	6813
2026-01-07 23:34:04.86	339.15	5.24	-43.0	-44.8	17.0	0.00e+00	122	36	101	1048576	60	8208
2026-01-07 23:34:08.90	339.03	4.96	-44.2	-46.7	14.4	0.00e+00	123	36	101	1048576	60	10226
2026-01-07 23:34:12.95	338.92	4.68	-45.5	-49.3	10.9	1.40e-03	122	36	101	1048576	60	13738
2026-01-07 23:34:16.99	338.80	4.40	-46.4	-52.1	7.2	1.32e-01	123	36	101	1048576	60	19121
2026-01-07 23:34:21.03	338.69	4.13	-46.7	-56.4	4.3	1.27e+00	0	36	104	1048576	60	31443
2026-01-07 23:34:25.07	338.59	3.86	-46.8	-59.7	3.5	1.52e+00	0	36	104	1048576	60	45528
2026-01-07 23:34:29.12	338.48	3.59	-46.9	-59.5	3.5	1.52e+00	0	36	104	1048576	60	44496
2026-01-07 23:34:33.16	338.38	3.32	-46.8	-59.8	3.5	1.52e+00	0	36	104	1048576	60	46444
2026-01-07 23:34:37.21	338.27	3.05	-46.9	-59.9	3.5	1.52e+00	0	36	104	1048576	60	46819
2026-01-07 23:34:41.24	338.18	2.79	-51.8	-64.9	3.5	1.52e+00	0	36	104	1048576	60	82825
2026-01-07 23:34:45.29	338.08	2.53	-52.0	-65.1	3.5	1.52e+00	0	36	104	1048576	60	84885
2026-01-07 23:34:49.33	337.98	2.28	-51.9	-64.9	3.5	1.52e+00	0	36	104	1048576	60	83711
2026-01-07 23:34:53.37	337.89	2.02	-51.9	-65.0	3.5	1.51e+00	0	36	104	1048576	60	83961
2026-01-07 23:34:57.42	337.80	1.77	-51.9	-64.9	3.5	1.52e+00	0	36	104	1048576	60	83574
2026-01-07 23:35:01.46	337.71	1.52	-51.9	-65.0	3.5	1.52e+00	0	36	104	1048576	60	83857
2026-01-07 23:35:05.51	337.62	1.27	-51.9	-64.9	3.5	1.52e+00	0	36	104	1048576	60	83411
2026-01-07 23:35:09.55	337.54	1.02	-51.9	-64.9	3.5	1.52e+00	0	36	104	1048576	60	83336
2026-01-07 23:35:13.60	337.45	0.77	-51.9	-64.9	3.5	1.52e+00	0	36	104	1048576	60	83547
2026-01-07 23:35:17.64	337.37	0.53	-51.9	-64.9	3.5	1.52e+00	0	36	104	1048576	60	83415
2026-01-07 23:35:21.69	337.29	0.29	-51.9	-64.9	3.5	1.51e+00	0	36	104	1048576	60	83337
2026-01-07 23:35:25.73	337.21	0.05	-51.9	-64.9	3.5	1.52e+00	0	36	104	1048576	60	83445

#Closed at: 2026-01-07 23:35:29
#Recorded file [1 MB]: D:/lorett/data/35034_260108_022015.dat