passes_logs/2026/01/07/R4.6S_Anadyr_2ch/R4.6S_Anadyr_2ch__20260107_043519_FENGYUN_3E_rec.log

#Pass ID: 20260107_043519_FENGYUN 3E
#Satellite: FENGYUN 3E
#Configuration: FENGYUN 3E
#almurnet v.1.7.20251203
#Start time: 2026-01-07 04:35:20

#Version: 2.2.20231116
#Station: R4.6S_Anadyr_2ch
#Location: 177.4865 lon 64.73178 lat
#TLE: 1 49008U 21062A   25350.97288215  .00000176  00000+0  10353-3 0  9997
#TLE: 2 49008  98.7477 351.4440 0000638 234.3856 125.7261 14.19881381230726

#Time	Az	El	Level	Level2	SNR	BER	BlckErr	Temp	State	Recorded	gain1	gain2
2026-01-07 04:35:20.71	158.54	0.10	-46.6	-64.4	3.5	3.04e+01	0	29	0	0	60	85812
2026-01-07 04:35:24.75	158.56	0.34	-51.0	-62.5	3.6	8.46e-01	0	31	104	0	60	65568
2026-01-07 04:35:28.78	158.59	0.59	-51.2	-62.7	3.6	8.46e-01	0	31	104	0	60	67068
2026-01-07 04:35:32.82	158.61	0.83	-51.3	-62.8	3.6	8.46e-01	0	31	104	0	60	68168
2026-01-07 04:35:36.86	158.64	1.08	-50.9	-62.4	3.6	8.45e-01	0	31	104	0	60	64803
2026-01-07 04:35:40.89	158.66	1.34	-49.8	-61.2	3.6	8.45e-01	0	31	104	0	60	56618
2026-01-07 04:35:44.92	158.69	1.59	-49.8	-61.2	3.6	8.46e-01	0	31	104	0	60	56886
2026-01-07 04:35:48.96	158.72	1.85	-49.8	-61.1	3.6	8.47e-01	0	31	104	0	60	55875
2026-01-07 04:35:52.99	158.74	2.10	-49.7	-60.7	3.6	8.46e-01	0	31	104	0	60	53311
2026-01-07 04:35:57.03	158.77	2.37	-49.7	-60.8	3.6	8.45e-01	0	31	104	0	60	53995
2026-01-07 04:36:01.07	158.80	2.63	-49.8	-61.0	3.6	8.45e-01	0	31	104	0	60	55504
2026-01-07 04:36:05.10	158.83	2.90	-49.7	-60.2	3.6	8.46e-01	0	31	104	0	60	50198
2026-01-07 04:36:09.13	158.85	3.16	-49.6	-59.3	3.6	8.45e-01	0	31	104	0	60	45500
2026-01-07 04:36:13.17	158.88	3.44	-49.3	-57.2	3.9	8.42e-01	0	31	104	0	60	35602
2026-01-07 04:36:17.21	158.91	3.71	-44.5	-46.2	14.1	3.40e-06	0	31	102	1048576	60	10064
2026-01-07 04:36:21.24	158.94	3.99	-41.6	-42.6	17.7	0.00e+00	0	31	102	1048576	60	6684
2026-01-07 04:36:25.27	158.97	4.27	-47.4	-51.0	5.4	8.45e-01	0	31	104	1048576	60	17440
2026-01-07 04:36:29.31	159.00	4.55	-49.2	-55.5	4.7	8.24e-01	0	31	0	1048576	60	29472
2026-01-07 04:36:33.34	159.03	4.84	-36.9	-37.6	22.7	0.00e+00	0	31	0	1048576	52	5923
2026-01-07 04:36:37.37	159.06	5.12	-36.7	-37.4	22.8	0.00e+00	0	31	101	1048576	52	5815
2026-01-07 04:36:41.41	159.09	5.42	-36.8	-37.5	22.9	0.00e+00	0	31	101	1048576	52	5880
2026-01-07 04:36:45.44	159.12	5.71	-36.8	-37.5	23.0	0.00e+00	0	31	101	1048576	52	5850
2026-01-07 04:36:49.47	159.15	6.01	-36.4	-37.1	23.3	0.00e+00	0	32	101	1048576	52	5609
2026-01-07 04:36:53.51	159.18	6.31	-36.7	-37.4	22.9	0.00e+00	0	31	101	1048576	52	5810
2026-01-07 04:36:57.54	159.21	6.62	-36.5	-37.2	23.3	0.00e+00	0	31	101	1048576	52	5675
2026-01-07 04:37:01.58	159.24	6.93	-36.1	-36.8	23.7	0.00e+00	0	32	101	1048576	52	5412
2026-01-07 04:37:05.61	159.28	7.24	-35.8	-36.5	24.0	0.00e+00	0	32	101	1048576	50	5872
2026-01-07 04:37:09.64	159.31	7.56	-35.9	-36.5	24.0	0.00e+00	0	32	101	1048576	50	5885
2026-01-07 04:37:13.68	159.34	7.88	-35.7	-36.4	24.1	0.00e+00	0	32	101	1048576	50	5802
2026-01-07 04:37:17.72	159.38	8.20	-35.8	-36.4	24.2	0.00e+00	0	32	101	1048576	50	5825
2026-01-07 04:37:21.77	159.41	8.53	-35.5	-36.2	24.3	0.00e+00	0	32	101	1048576	50	5651
2026-01-07 04:37:25.81	159.45	8.87	-35.6	-36.3	24.3	0.00e+00	0	32	101	1048576	50	5741
2026-01-07 04:37:29.85	159.48	9.21	-35.5	-36.2	24.4	0.00e+00	0	32	101	1048576	50	5631
2026-01-07 04:37:33.90	159.52	9.55	-35.3	-36.0	24.6	0.00e+00	0	32	101	1048576	50	5538
2026-01-07 04:37:37.94	159.56	9.90	-35.3	-36.0	24.7	0.00e+00	0	32	101	1048576	50	5515
2026-01-07 04:37:41.99	159.59	10.25	-35.1	-35.7	24.9	0.00e+00	0	32	101	1048576	48	6009
2026-01-07 04:37:46.03	159.63	10.61	-35.1	-35.8	24.8	0.00e+00	0	32	101	1048576	48	6043
2026-01-07 04:37:50.07	159.67	10.98	-35.0	-35.7	25.0	0.00e+00	0	32	101	1048576	48	5983
2026-01-07 04:37:54.12	159.71	11.35	-34.9	-35.5	25.1	0.00e+00	0	32	101	1048576	48	5880
2026-01-07 04:37:58.16	159.75	11.72	-35.1	-35.7	25.0	0.00e+00	0	32	101	1048576	48	6012
2026-01-07 04:38:02.21	159.79	12.10	-34.7	-35.3	25.3	0.00e+00	0	32	101	1048576	48	5750
2026-01-07 04:38:06.25	159.83	12.49	-34.6	-35.2	25.4	0.00e+00	0	32	101	1048576	48	5692
2026-01-07 04:38:10.29	159.87	12.88	-34.5	-35.2	25.5	0.00e+00	0	32	101	1048576	48	5647
2026-01-07 04:38:14.33	159.91	13.28	-34.3	-34.9	25.8	0.00e+00	0	32	101	1048576	48	5493
2026-01-07 04:38:18.38	159.96	13.69	-34.1	-34.7	26.0	0.00e+00	0	32	101	1048576	48	5363
2026-01-07 04:38:22.42	160.00	14.10	-34.2	-34.9	25.9	0.00e+00	0	32	101	1048576	46	6123
2026-01-07 04:38:26.46	160.05	14.52	-34.1	-34.8	26.0	0.00e+00	0	32	101	1048576	46	6056
2026-01-07 04:38:30.50	160.09	14.95	-34.2	-34.8	25.9	0.00e+00	0	32	101	1048576	46	6063
2026-01-07 04:38:34.55	160.14	15.38	-33.9	-34.6	26.1	0.00e+00	0	32	101	1048576	46	5916
2026-01-07 04:38:38.59	160.19	15.83	-33.7	-34.3	26.4	0.00e+00	0	32	101	1048576	46	5716
2026-01-07 04:38:42.63	160.24	16.28	-33.6	-34.2	26.4	0.00e+00	0	32	101	1048576	46	5688
2026-01-07 04:38:46.68	160.29	16.74	-33.9	-34.5	26.2	0.00e+00	0	32	101	1048576	46	5853
2026-01-07 04:38:50.72	160.34	17.21	-33.5	-34.2	26.5	0.00e+00	0	32	101	1048576	46	5642
2026-01-07 04:38:54.76	160.39	17.69	-33.3	-33.9	26.6	0.00e+00	0	32	101	1048576	46	5465
2026-01-07 04:38:58.80	160.45	18.17	-33.5	-34.1	26.6	0.00e+00	0	32	101	1048576	46	5587
2026-01-07 04:39:02.85	160.50	18.67	-33.3	-33.9	26.8	0.00e+00	0	32	101	1048576	46	5477
2026-01-07 04:39:06.89	160.56	19.18	-33.2	-33.8	26.8	0.00e+00	0	32	101	1048576	46	5432
2026-01-07 04:39:10.94	160.62	19.70	-33.0	-33.6	27.0	0.00e+00	0	32	101	1048576	44	5916
2026-01-07 04:39:14.98	160.67	20.23	-32.8	-33.4	27.1	0.00e+00	0	32	101	1048576	44	5824
2026-01-07 04:39:19.02	160.74	20.77	-32.5	-33.1	27.3	0.00e+00	0	32	101	1048576	44	5625
2026-01-07 04:39:23.06	160.80	21.32	-32.3	-32.9	27.5	0.00e+00	0	32	101	1048576	44	5477
2026-01-07 04:39:27.10	160.86	21.88	-32.1	-32.7	27.7	0.00e+00	0	32	101	1048576	42	6022
2026-01-07 04:39:31.14	160.93	22.46	-32.1	-32.7	27.9	0.00e+00	0	32	101	1048576	42	5992
2026-01-07 04:39:35.19	161.00	23.05	-32.1	-32.7	27.8	0.00e+00	0	32	101	1048576	42	5970
2026-01-07 04:39:39.23	161.07	23.66	-32.4	-33.0	27.5	0.00e+00	0	32	101	1048576	42	6215
2026-01-07 04:39:43.27	161.14	24.28	-32.0	-32.6	27.8	0.00e+00	0	32	101	1048576	42	5943
2026-01-07 04:39:47.32	161.22	24.91	-32.0	-32.6	27.8	0.00e+00	0	32	101	1048576	42	5953
2026-01-07 04:39:51.36	161.30	25.56	-32.2	-32.8	27.8	0.00e+00	0	32	101	1048576	42	6065
2026-01-07 04:39:55.40	161.38	26.23	-32.3	-32.9	27.6	0.00e+00	0	32	101	1048576	42	6164
2026-01-07 04:39:59.44	161.46	26.91	-31.9	-32.5	27.9	0.00e+00	0	32	101	1048576	42	5871
2026-01-07 04:40:03.49	161.55	27.61	-31.8	-32.4	28.1	0.00e+00	0	32	101	1048576	42	5823
2026-01-07 04:40:07.53	161.64	28.33	-31.5	-32.1	28.3	0.00e+00	0	32	101	1048576	42	5583
2026-01-07 04:40:11.57	161.73	29.07	-31.4	-32.0	28.3	0.00e+00	0	32	101	1048576	42	5530
2026-01-07 04:40:15.61	161.83	29.82	-31.4	-32.0	28.3	0.00e+00	0	32	101	1048576	42	5553
2026-01-07 04:40:19.65	161.93	30.60	-31.6	-32.2	28.2	0.00e+00	0	32	101	1048576	42	5667
2026-01-07 04:40:23.70	162.03	31.40	-31.9	-32.5	28.0	0.00e+00	0	32	101	1048576	42	5877
2026-01-07 04:40:27.74	162.14	32.23	-31.5	-32.1	28.2	0.00e+00	0	32	101	1048576	42	5580
2026-01-07 04:40:31.78	162.26	33.07	-31.5	-32.1	28.3	0.00e+00	0	32	101	1048576	42	5596
2026-01-07 04:40:35.82	162.38	33.94	-31.3	-31.9	28.5	0.00e+00	0	32	101	1048576	42	5477
2026-01-07 04:40:39.86	162.50	34.83	-31.3	-31.9	28.5	0.00e+00	0	32	101	1048576	42	5486
2026-01-07 04:40:43.90	162.64	35.75	-31.5	-32.1	28.4	0.00e+00	0	32	101	1048576	42	5582
2026-01-07 04:40:47.93	162.78	36.70	-31.5	-32.1	28.3	0.00e+00	0	32	101	1048576	42	5606
2026-01-07 04:40:51.96	162.92	37.67	-31.4	-32.0	28.4	0.00e+00	0	32	101	1048576	42	5505
2026-01-07 04:40:56.00	163.08	38.67	-31.4	-32.0	28.5	0.00e+00	0	32	101	1048576	42	5516
2026-01-07 04:41:00.03	163.24	39.71	-31.7	-32.3	28.2	0.00e+00	0	32	101	1048576	42	5714
2026-01-07 04:41:04.06	163.41	40.77	-31.8	-32.4	28.2	0.00e+00	0	32	101	1048576	42	5793
2026-01-07 04:41:08.09	163.60	41.86	-31.9	-32.5	28.0	0.00e+00	0	32	101	1048576	42	5835
2026-01-07 04:41:12.12	163.80	42.99	-31.7	-32.3	28.0	0.00e+00	0	32	101	1048576	42	5727
2026-01-07 04:41:16.15	164.01	44.15	-32.0	-32.6	28.0	0.00e+00	0	32	101	1048576	42	5931
2026-01-07 04:41:20.18	164.23	45.35	-32.1	-32.6	28.0	0.00e+00	0	32	101	1048576	42	5959
2026-01-07 04:41:24.20	164.47	46.58	-32.0	-32.6	27.9	0.00e+00	0	32	101	1048576	42	5940
2026-01-07 04:41:28.23	164.73	47.85	-32.5	-33.1	27.5	0.00e+00	0	32	101	1048576	42	6292
2026-01-07 04:41:32.26	165.02	49.16	-32.3	-32.9	27.6	0.00e+00	0	32	101	1048576	42	6122
2026-01-07 04:41:36.29	165.32	50.51	-32.9	-33.5	27.4	0.00e+00	0	32	101	1048576	42	6583
2026-01-07 04:41:40.32	165.66	51.90	-33.5	-34.1	26.8	0.00e+00	0	32	101	1048576	44	6294
2026-01-07 04:41:44.35	166.02	53.33	-33.0	-33.6	27.1	0.00e+00	0	32	101	1048576	44	5909
2026-01-07 04:41:48.39	166.43	54.80	-33.2	-33.8	27.0	0.00e+00	0	32	101	1048576	44	6064
2026-01-07 04:41:52.41	166.87	56.30	-33.1	-33.7	27.0	0.00e+00	0	32	101	1048576	44	6000
2026-01-07 04:41:56.44	167.37	57.85	-33.3	-33.9	26.8	0.00e+00	0	32	101	1048576	44	6135
2026-01-07 04:42:00.48	167.92	59.45	-33.1	-33.7	27.0	0.00e+00	0	32	101	1048576	44	6030
2026-01-07 04:42:04.51	168.55	61.07	-32.7	-33.3	27.4	0.00e+00	0	32	101	1048576	44	5726
2026-01-07 04:42:08.54	169.26	62.74	-32.9	-33.5	27.1	0.00e+00	0	32	101	1048576	44	5870
2026-01-07 04:42:12.57	170.07	64.44	-32.5	-33.1	27.4	0.00e+00	0	32	101	1048576	42	6315
2026-01-07 04:42:16.61	171.02	66.19	-31.9	-32.5	28.0	0.00e+00	0	32	101	1048576	42	5895
2026-01-07 04:42:20.64	172.13	67.95	-31.4	-31.9	27.0	0.00e+00	0	32	101	1048576	42	5476
2026-01-07 04:42:24.66	173.45	69.75	-31.8	-32.4	28.0	0.00e+00	0	32	101	1048576	42	5812
2026-01-07 04:42:28.70	175.05	71.57	-31.6	-32.2	28.1	0.00e+00	0	32	101	1048576	40	6380
2026-01-07 04:42:32.73	177.02	73.40	-31.7	-32.2	28.1	0.00e+00	0	32	101	1048576	40	6385
2026-01-07 04:42:36.76	179.51	75.24	-31.8	-32.4	27.9	0.00e+00	0	32	101	1048576	42	5791
2026-01-07 04:42:40.79	182.72	77.07	-31.1	-31.7	28.4	0.00e+00	0	32	101	1048576	42	5372
2026-01-07 04:42:44.82	187.01	78.87	-30.6	-31.2	28.9	0.00e+00	0	32	101	1048576	40	5663
2026-01-07 04:42:48.85	192.95	80.61	-30.1	-30.7	29.2	0.00e+00	0	32	101	1048576	38	5996
2026-01-07 04:42:52.88	201.48	82.21	-30.1	-30.7	29.3	0.00e+00	0	32	101	1048576	38	6006
2026-01-07 04:42:56.90	214.01	83.56	-30.6	-31.2	29.0	0.00e+00	0	32	101	1048576	38	6372
2026-01-07 04:43:00.93	231.90	84.47	-30.2	-30.7	29.1	0.00e+00	0	32	101	1048576	38	6022
2026-01-07 04:43:04.95	253.77	84.70	-30.7	-31.3	28.6	0.00e+00	0	32	101	1048576	38	6453
2026-01-07 04:43:08.98	274.43	84.15	-30.7	-31.3	28.7	0.00e+00	0	32	101	1048576	38	6395
2026-01-07 04:43:13.01	289.95	83.02	-30.5	-31.1	28.9	0.00e+00	0	32	101	1048576	38	6269
2026-01-07 04:43:17.03	300.55	81.54	-30.7	-31.3	28.8	0.00e+00	0	32	101	1048576	38	6427
2026-01-07 04:43:21.07	307.84	79.87	-30.6	-31.2	28.8	0.00e+00	0	32	101	1048576	38	6387
2026-01-07 04:43:25.10	312.98	78.11	-30.0	-30.6	29.2	0.00e+00	0	32	101	1048576	38	5907
2026-01-07 04:43:29.12	316.74	76.30	-30.0	-30.6	29.3	0.00e+00	0	32	101	1048576	38	5904
2026-01-07 04:43:33.15	319.61	74.46	-30.5	-31.1	29.0	0.00e+00	0	32	101	1048576	38	6282
2026-01-07 04:43:37.18	321.85	72.63	-31.1	-31.7	28.5	0.00e+00	0	32	101	1048576	40	5986
2026-01-07 04:43:41.21	323.64	70.80	-32.4	-33.0	27.6	0.00e+00	0	32	101	1048576	42	6185
2026-01-07 04:43:45.24	325.11	69.00	-32.4	-33.0	27.5	0.00e+00	0	32	101	1048576	42	6235
2026-01-07 04:43:49.27	326.34	67.22	-31.9	-32.5	27.8	0.00e+00	0	32	101	1048576	42	5881
2026-01-07 04:43:53.30	327.37	65.46	-31.6	-32.2	28.1	0.00e+00	0	32	101	1048576	42	5633
2026-01-07 04:43:57.33	328.26	63.74	-31.8	-32.4	28.0	0.00e+00	0	32	101	1048576	42	5772
2026-01-07 04:44:01.34	329.03	62.07	-32.2	-32.8	27.7	0.00e+00	0	32	101	1048576	42	6068
2026-01-07 04:44:05.38	329.70	60.42	-32.3	-32.9	27.3	0.00e+00	0	32	101	1048576	42	6138
2026-01-07 04:44:09.40	330.29	58.81	-33.4	-34.0	26.8	0.00e+00	0	32	101	1048576	44	6245
2026-01-07 04:44:13.43	330.82	57.24	-33.6	-34.2	26.7	0.00e+00	0	32	101	1048576	44	6365
2026-01-07 04:44:17.46	331.30	55.72	-33.3	-33.9	26.8	0.00e+00	0	32	101	1048576	44	6114
2026-01-07 04:44:21.48	331.72	54.23	-33.1	-33.7	27.1	0.00e+00	0	33	101	1048576	44	6031
2026-01-07 04:44:25.52	332.11	52.78	-32.9	-33.5	26.7	0.00e+00	0	32	101	1048576	44	5868
2026-01-07 04:44:29.56	332.47	51.37	-33.2	-33.8	26.6	0.00e+00	0	32	101	1048576	44	6038
2026-01-07 04:44:33.60	332.79	50.00	-32.9	-33.5	27.2	0.00e+00	0	32	101	1048576	44	5860
2026-01-07 04:44:37.64	333.09	48.67	-33.1	-33.8	27.0	0.00e+00	0	32	101	1048576	44	6040
2026-01-07 04:44:41.68	333.36	47.38	-32.8	-33.4	27.0	0.00e+00	0	32	101	1048576	44	5794
2026-01-07 04:44:45.72	333.61	46.12	-32.7	-33.3	27.3	0.00e+00	0	32	101	1048576	44	5746
2026-01-07 04:44:49.77	333.85	44.90	-32.4	-33.0	27.4	0.00e+00	0	32	101	1048576	44	5546
2026-01-07 04:44:53.81	334.07	43.72	-31.8	-32.4	28.0	0.00e+00	0	32	101	1048576	42	5806
2026-01-07 04:44:57.85	334.28	42.57	-31.7	-32.3	26.2	0.00e+00	0	32	101	1048576	42	5740
2026-01-07 04:45:01.90	334.47	41.46	-32.0	-32.6	26.7	0.00e+00	0	33	101	1048576	42	5947
2026-01-07 04:45:05.94	334.65	40.38	-31.9	-32.5	27.4	0.00e+00	0	32	101	1048576	42	5875
2026-01-07 04:45:09.98	334.82	39.33	-31.9	-32.5	27.5	0.00e+00	0	33	101	1048576	42	5883
2026-01-07 04:45:14.02	334.98	38.31	-32.1	-32.7	27.6	0.00e+00	0	32	101	1048576	42	5985
2026-01-07 04:45:18.06	335.14	37.33	-31.8	-32.4	28.0	0.00e+00	0	32	101	1048576	42	5783
2026-01-07 04:45:22.10	335.28	36.37	-31.3	-31.9	28.4	0.00e+00	0	32	101	1048576	42	5489
2026-01-07 04:45:26.15	335.42	35.43	-31.4	-32.0	28.3	0.00e+00	0	32	101	1048576	42	5550
2026-01-07 04:45:30.19	335.55	34.53	-31.5	-32.1	28.3	0.00e+00	0	32	101	1048576	42	5572
2026-01-07 04:45:34.23	335.67	33.65	-31.4	-32.0	28.5	0.00e+00	0	32	101	1048576	42	5505
2026-01-07 04:45:38.27	335.79	32.79	-31.3	-31.9	28.5	0.00e+00	0	32	101	1048576	42	5455
2026-01-07 04:45:42.31	335.91	31.96	-31.3	-31.9	28.4	0.00e+00	0	33	101	1048576	42	5463
2026-01-07 04:45:46.35	336.02	31.15	-31.3	-31.9	28.5	0.00e+00	0	32	101	1048576	42	5467
2026-01-07 04:45:50.39	336.12	30.36	-31.5	-32.1	28.3	0.00e+00	0	32	101	1048576	42	5622
2026-01-07 04:45:54.43	336.22	29.60	-31.8	-32.4	28.1	0.00e+00	0	32	101	1048576	42	5800
2026-01-07 04:45:58.48	336.32	28.85	-31.8	-32.4	28.1	0.00e+00	0	33	101	1048576	42	5814
2026-01-07 04:46:02.51	336.41	28.13	-31.9	-32.5	28.0	0.00e+00	0	32	101	1048576	42	5887
2026-01-07 04:46:06.55	336.50	27.42	-32.0	-32.6	27.9	0.00e+00	0	32	101	1048576	42	5952
2026-01-07 04:46:10.59	336.59	26.73	-32.0	-32.6	27.9	0.00e+00	0	32	101	1048576	42	5930
2026-01-07 04:46:14.63	336.67	26.05	-32.0	-32.7	27.9	0.00e+00	0	32	101	1048576	42	5965
2026-01-07 04:46:18.67	336.75	25.40	-32.0	-32.6	27.9	0.00e+00	0	32	101	1048576	42	5925
2026-01-07 04:46:22.72	336.83	24.76	-32.2	-32.8	27.6	0.00e+00	0	32	101	1048576	42	6047
2026-01-07 04:46:26.75	336.91	24.13	-32.0	-32.6	27.9	0.00e+00	0	32	101	1048576	42	5936
2026-01-07 04:46:30.80	336.98	23.52	-32.2	-32.8	27.5	0.00e+00	0	32	101	1048576	42	6059
2026-01-07 04:46:34.83	337.05	22.92	-32.2	-32.8	27.8	0.00e+00	0	32	101	1048576	42	6046
2026-01-07 04:46:38.87	337.12	22.34	-32.1	-32.7	27.8	0.00e+00	0	33	101	1048576	42	6010
2026-01-07 04:46:42.92	337.19	21.77	-32.2	-32.8	27.8	0.00e+00	0	32	101	1048576	42	6036
2026-01-07 04:46:46.96	337.26	21.21	-32.3	-32.9	27.6	0.00e+00	0	32	101	1048576	42	6149
2026-01-07 04:46:50.99	337.32	20.67	-32.4	-33.0	27.5	0.00e+00	0	32	101	1048576	42	6203
2026-01-07 04:46:55.04	337.38	20.13	-32.6	-33.2	27.3	0.00e+00	0	32	101	1048576	42	6343
2026-01-07 04:46:59.08	337.44	19.61	-32.7	-33.3	27.2	0.00e+00	0	32	101	1048576	42	6457
2026-01-07 04:47:03.11	337.50	19.10	-32.8	-33.4	26.9	0.00e+00	0	32	101	1048576	42	6517
2026-01-07 04:47:07.16	337.56	18.60	-33.0	-33.6	26.9	0.00e+00	0	32	101	1048576	44	5954
2026-01-07 04:47:11.20	337.62	18.10	-33.1	-33.8	26.9	0.00e+00	0	32	101	1048576	44	6041
2026-01-07 04:47:15.24	337.67	17.62	-33.1	-33.8	26.8	0.00e+00	0	32	101	1048576	44	6039
2026-01-07 04:47:19.28	337.73	17.15	-33.2	-33.8	26.8	0.00e+00	0	32	101	1048576	44	6096
2026-01-07 04:47:23.32	337.78	16.69	-33.3	-33.9	26.7	0.00e+00	0	32	101	1048576	44	6150
2026-01-07 04:47:27.36	337.83	16.23	-33.6	-34.2	26.5	0.00e+00	0	32	101	1048576	44	6339
2026-01-07 04:47:31.41	337.89	15.78	-33.6	-34.2	26.5	0.00e+00	0	32	101	1048576	44	6353
2026-01-07 04:47:35.45	337.94	15.35	-33.7	-34.4	26.3	0.00e+00	0	32	101	1048576	44	6475
2026-01-07 04:47:39.49	337.98	14.91	-33.9	-34.5	26.2	0.00e+00	0	32	101	1048576	44	6576
2026-01-07 04:47:43.53	338.03	14.49	-34.1	-34.7	26.0	0.00e+00	0	32	101	1048576	46	6029
2026-01-07 04:47:47.58	338.08	14.07	-34.2	-34.8	25.9	0.00e+00	0	32	101	1048576	46	6058
2026-01-07 04:47:51.62	338.13	13.67	-34.3	-35.0	25.8	0.00e+00	0	32	101	1048576	46	6197
2026-01-07 04:47:55.66	338.17	13.26	-34.5	-35.1	25.6	0.00e+00	0	32	101	1048576	46	6299
2026-01-07 04:47:59.69	338.22	12.87	-34.6	-35.2	25.5	0.00e+00	0	32	101	1048576	46	6359
2026-01-07 04:48:03.72	338.26	12.48	-34.7	-35.4	25.5	0.00e+00	0	32	101	1048576	46	6478
2026-01-07 04:48:07.74	338.31	12.10	-34.8	-35.5	25.3	0.00e+00	0	32	101	1048576	46	6549
2026-01-07 04:48:11.77	338.35	11.72	-34.9	-35.6	25.1	0.00e+00	0	32	101	1048576	46	6647
2026-01-07 04:48:15.80	338.39	11.35	-35.1	-35.7	25.0	0.00e+00	0	32	101	1048576	48	6020
2026-01-07 04:48:19.83	338.43	10.99	-35.2	-35.9	24.9	0.00e+00	0	33	101	1048576	48	6156
2026-01-07 04:48:23.86	338.47	10.63	-35.4	-36.1	24.7	0.00e+00	0	32	101	1048576	48	6252
2026-01-07 04:48:27.89	338.51	10.27	-35.5	-36.1	24.6	0.00e+00	0	32	101	1048576	48	6305
2026-01-07 04:48:31.92	338.55	9.92	-35.5	-36.2	24.5	0.00e+00	0	33	101	1048576	48	6369
2026-01-07 04:48:35.95	338.59	9.58	-35.7	-36.4	24.3	0.00e+00	0	32	101	1048576	48	6496
2026-01-07 04:48:39.98	338.63	9.24	-35.9	-36.6	24.2	0.00e+00	0	33	101	1048576	48	6639
2026-01-07 04:48:44.02	338.67	8.90	-35.9	-36.6	24.1	0.00e+00	0	32	101	1048576	48	6659
2026-01-07 04:48:48.05	338.71	8.57	-36.0	-36.7	24.0	0.00e+00	0	33	101	1048576	50	5987
2026-01-07 04:48:52.08	338.75	8.24	-36.1	-36.8	23.8	0.00e+00	0	33	101	1048576	50	6068
2026-01-07 04:48:56.11	338.78	7.92	-36.1	-36.8	23.8	0.00e+00	0	33	101	1048576	50	6078
2026-01-07 04:49:00.13	338.82	7.60	-36.2	-36.9	23.7	0.00e+00	0	32	101	1048576	50	6159
2026-01-07 04:49:04.16	338.86	7.29	-36.4	-37.1	23.5	0.00e+00	0	32	101	1048576	50	6279
2026-01-07 04:49:08.19	338.89	6.98	-36.4	-37.1	23.4	0.00e+00	0	33	101	1048576	50	6314
2026-01-07 04:49:12.22	338.93	6.67	-36.8	-37.5	23.0	0.00e+00	0	33	101	1048576	50	6603
2026-01-07 04:49:16.25	338.96	6.37	-36.8	-37.5	23.0	0.00e+00	0	32	101	1048576	50	6585
2026-01-07 04:49:20.28	339.00	6.07	-36.6	-37.4	23.1	0.00e+00	0	33	101	1048576	50	6470
2026-01-07 04:49:24.30	339.03	5.77	-36.7	-37.5	23.0	0.00e+00	0	32	101	1048576	50	6553
2026-01-07 04:49:28.32	339.07	5.48	-36.8	-37.5	22.7	0.00e+00	0	33	101	1048576	50	6605
2026-01-07 04:49:32.35	339.10	5.19	-37.4	-38.2	21.8	0.00e+00	0	33	101	1048576	52	6357
2026-01-07 04:49:36.38	339.13	4.90	-38.4	-39.3	20.2	0.00e+00	0	33	101	1048576	54	6443
2026-01-07 04:49:40.41	339.17	4.62	-40.2	-41.5	17.4	0.00e+00	0	33	101	1048576	58	6547
2026-01-07 04:49:44.44	339.20	4.34	-42.3	-44.2	13.6	4.50e-06	0	33	101	1048576	60	8014
2026-01-07 04:49:48.46	339.23	4.06	-44.3	-47.8	8.9	2.58e-02	0	33	101	1048576	60	12059
2026-01-07 04:49:52.49	339.26	3.79	-45.4	-50.7	5.3	3.76e-01	0	33	101	1048576	60	16945
2026-01-07 04:49:56.52	339.30	3.52	-45.9	-54.8	3.9	8.43e-01	0	33	104	1048576	60	27165
2026-01-07 04:50:00.54	339.33	3.25	-46.0	-56.6	3.6	8.45e-01	0	33	104	1048576	60	33539
2026-01-07 04:50:04.57	339.36	2.98	-46.2	-57.6	3.6	8.45e-01	0	33	104	1048576	60	37427
2026-01-07 04:50:08.61	339.39	2.71	-46.1	-57.6	3.6	8.46e-01	0	33	104	1048576	60	37336
2026-01-07 04:50:12.64	339.42	2.45	-50.9	-62.4	3.6	8.45e-01	0	33	104	1048576	60	65103
2026-01-07 04:50:16.68	339.45	2.19	-51.2	-62.7	3.6	8.44e-01	0	33	104	1048576	60	67410
2026-01-07 04:50:20.70	339.48	1.94	-51.2	-62.8	3.6	8.45e-01	0	33	104	1048576	60	67906
2026-01-07 04:50:24.74	339.51	1.68	-51.3	-62.8	3.6	8.44e-01	0	33	104	1048576	60	67746
2026-01-07 04:50:28.77	339.55	1.43	-51.2	-62.7	3.6	8.44e-01	0	33	104	1048576	60	67267
2026-01-07 04:50:32.80	339.58	1.18	-51.2	-62.7	3.6	8.45e-01	0	33	104	1048576	60	66926
2026-01-07 04:50:36.83	339.61	0.93	-51.2	-62.6	3.6	8.45e-01	0	33	104	1048576	60	66818
2026-01-07 04:50:40.86	339.63	0.68	-51.2	-62.7	3.6	8.45e-01	0	33	104	1048576	60	67281
2026-01-07 04:50:44.89	339.66	0.44	-51.2	-62.6	3.6	8.46e-01	0	33	104	1048576	60	66866
2026-01-07 04:50:48.92	339.69	0.20	-51.2	-62.6	3.6	8.46e-01	0	33	104	1048576	60	66869
2026-01-07 04:50:52.95	339.72	-0.04	-51.2	-62.7	3.6	8.45e-01	0	33	104	1048576	60	66978

#Closed at: 2026-01-07 04:50:53
#Recorded file [1 MB]: D:/lorett/data/35034_260107_073520.dat