passes_logs/2026/01/07/R4.6S_Anadyr_2ch/R4.6S_Anadyr_2ch__20260107_173517_NOAA_20_JPSS-1_rec.log

#Pass ID: 20260107_173517_NOAA 20 (JPSS-1)
#Satellite: NOAA 20 (JPSS-1)
#Configuration: NOAA 20
#almurnet v.1.7.20251203
#Start time: 2026-01-07 17:35:19

#Version: 2.2.20231116
#Station: R4.6S_Anadyr_2ch
#Location: 177.4865 lon 64.73178 lat
#TLE: 1 43013U 17073A   25350.93759711  .00000080  00000+0  58734-4 0  9994
#TLE: 2 43013  98.7603 287.1885 0002156  81.1496 278.9924 14.19526878418610

#Time	Az	El	Level	Level2	SNR	BER	BlckErr	Temp	State	Recorded	gain1	gain2
2026-01-07 17:35:19.65	32.95	0.12	-50.4	-65.5	3.5	1.51e+00	0	33	0	0	60	91559
2026-01-07 17:35:22.68	32.76	0.28	-51.8	-67.2	3.6	1.51e+00	0	34	104	0	60	111265
2026-01-07 17:35:25.71	32.58	0.44	-51.9	-67.3	3.6	1.51e+00	0	34	104	0	60	112630
2026-01-07 17:35:28.74	32.39	0.60	-51.9	-67.3	3.6	1.51e+00	0	34	104	0	60	112832
2026-01-07 17:35:31.77	32.19	0.77	-52.0	-67.4	3.6	1.51e+00	0	34	104	0	60	114450
2026-01-07 17:35:34.80	32.00	0.93	-51.9	-67.4	3.6	1.51e+00	0	34	104	0	60	114293
2026-01-07 17:35:37.84	31.80	1.09	-52.0	-67.4	3.6	1.51e+00	0	34	104	0	60	114099
2026-01-07 17:35:40.87	31.60	1.25	-52.0	-67.4	3.6	1.51e+00	0	34	104	0	60	114112
2026-01-07 17:35:43.91	31.40	1.42	-52.0	-67.4	3.6	1.51e+00	0	34	104	0	60	113794
2026-01-07 17:35:46.94	31.20	1.58	-52.0	-67.4	3.6	1.51e+00	0	34	104	0	60	113707
2026-01-07 17:35:49.97	30.99	1.75	-52.0	-67.4	3.6	1.51e+00	0	34	104	0	60	114213
2026-01-07 17:35:53.00	30.78	1.91	-52.0	-67.4	3.6	1.51e+00	0	34	104	0	60	114774
2026-01-07 17:35:56.04	30.57	2.08	-52.0	-67.3	3.6	1.51e+00	0	34	104	0	60	113515
2026-01-07 17:35:59.07	30.36	2.25	-52.0	-67.3	3.6	1.51e+00	0	35	104	0	60	112861
2026-01-07 17:36:02.10	30.14	2.41	-52.0	-67.4	3.6	1.51e+00	0	34	104	0	60	113958
2026-01-07 17:36:05.13	29.92	2.58	-52.0	-67.4	3.6	1.51e+00	0	34	104	0	60	113711
2026-01-07 17:36:08.17	29.70	2.75	-52.0	-67.3	3.6	1.51e+00	0	35	104	0	60	113124
2026-01-07 17:36:11.20	29.47	2.92	-52.0	-67.4	3.6	1.51e+00	0	35	104	0	60	113973
2026-01-07 17:36:14.23	29.25	3.09	-52.0	-67.3	3.6	1.51e+00	0	35	104	0	60	113449
2026-01-07 17:36:17.26	29.02	3.26	-52.0	-67.4	3.6	1.51e+00	0	35	104	0	60	113893
2026-01-07 17:36:20.29	28.78	3.43	-52.0	-67.4	3.6	1.51e+00	0	35	104	0	60	113840
2026-01-07 17:36:23.32	28.55	3.60	-52.0	-67.4	3.6	1.51e+00	0	35	104	0	60	113814
2026-01-07 17:36:26.36	28.31	3.78	-52.0	-67.4	3.6	1.51e+00	0	35	104	0	60	113995
2026-01-07 17:36:29.39	28.07	3.95	-52.0	-67.4	3.6	1.51e+00	0	35	104	0	60	113687
2026-01-07 17:36:32.42	27.82	4.12	-52.0	-67.3	3.5	1.51e+00	0	35	104	0	60	113483
2026-01-07 17:36:35.46	27.58	4.30	-52.0	-67.4	3.6	1.51e+00	0	35	104	0	60	113935
2026-01-07 17:36:38.49	27.33	4.47	-52.0	-67.4	3.6	1.51e+00	0	35	104	0	60	113760
2026-01-07 17:36:41.52	27.07	4.65	-52.0	-67.3	3.6	1.51e+00	0	35	104	0	60	113622
2026-01-07 17:36:44.55	26.82	4.82	-52.0	-67.3	3.6	1.51e+00	0	35	104	0	60	113296
2026-01-07 17:36:47.59	26.55	5.00	-52.0	-67.3	3.6	1.51e+00	0	35	104	0	60	113449
2026-01-07 17:36:50.62	26.29	5.18	-52.0	-67.3	3.6	1.51e+00	0	35	104	0	60	113584
2026-01-07 17:36:53.65	26.02	5.36	-52.0	-67.3	3.6	1.51e+00	0	35	104	0	60	113322
2026-01-07 17:36:56.69	25.75	5.53	-52.0	-67.3	3.6	1.51e+00	0	35	104	0	60	113271
2026-01-07 17:36:59.72	25.48	5.71	-52.0	-67.3	3.6	1.51e+00	0	35	104	0	60	113397
2026-01-07 17:37:02.75	25.20	5.89	-52.0	-67.4	3.6	1.51e+00	0	35	104	0	60	114107
2026-01-07 17:37:05.78	24.92	6.07	-52.0	-67.4	3.6	1.51e+00	0	35	104	0	60	113853
2026-01-07 17:37:08.82	24.64	6.25	-52.0	-67.3	3.6	1.51e+00	0	35	104	0	60	113453
2026-01-07 17:37:11.85	24.35	6.44	-52.0	-67.3	3.6	1.51e+00	0	35	104	0	60	113575
2026-01-07 17:37:14.88	24.06	6.62	-52.0	-67.4	3.6	1.51e+00	0	35	104	0	60	114027
2026-01-07 17:37:17.92	23.76	6.80	-52.0	-67.4	3.6	1.51e+00	0	35	104	0	60	114123
2026-01-07 17:37:20.95	23.46	6.98	-52.0	-67.4	3.6	1.51e+00	0	35	104	0	60	113857
2026-01-07 17:37:23.98	23.16	7.17	-52.0	-67.4	3.6	1.51e+00	0	35	104	0	60	113994
2026-01-07 17:37:27.02	22.85	7.35	-52.0	-67.4	3.6	1.51e+00	0	35	104	0	60	113899
2026-01-07 17:37:30.05	22.54	7.54	-52.0	-67.3	3.6	1.51e+00	0	35	104	0	60	113474
2026-01-07 17:37:33.08	22.22	7.72	-52.0	-67.3	3.6	1.51e+00	0	35	104	0	60	113360
2026-01-07 17:37:36.11	21.90	7.91	-52.0	-67.4	3.6	1.51e+00	0	35	104	0	60	113680
2026-01-07 17:37:39.14	21.58	8.09	-52.0	-67.3	3.6	1.51e+00	0	35	104	0	60	113307
2026-01-07 17:37:42.18	21.25	8.28	-52.0	-67.3	3.6	1.51e+00	0	35	104	0	60	113221
2026-01-07 17:37:45.21	20.92	8.47	-52.0	-67.3	3.6	1.51e+00	0	35	104	0	60	113530
2026-01-07 17:37:48.25	20.58	8.65	-52.0	-67.3	3.6	1.51e+00	0	35	104	0	60	113504
2026-01-07 17:37:51.28	20.24	8.84	-52.0	-67.3	3.5	1.51e+00	0	35	104	0	60	112841
2026-01-07 17:37:54.31	19.89	9.03	-52.0	-67.4	3.6	1.51e+00	0	35	104	0	60	113696
2026-01-07 17:37:57.35	19.54	9.22	-52.0	-67.4	3.6	1.51e+00	0	35	104	0	60	114315
2026-01-07 17:38:00.38	19.19	9.41	-52.0	-67.3	3.6	1.51e+00	0	35	104	0	60	113321
2026-01-07 17:38:03.41	18.83	9.60	-52.0	-67.3	3.6	1.51e+00	0	35	104	0	60	113266
2026-01-07 17:38:06.44	18.46	9.79	-52.0	-67.4	3.6	1.51e+00	0	35	104	0	60	114520
2026-01-07 17:38:09.48	18.09	9.98	-52.0	-67.3	3.6	1.51e+00	0	35	104	0	60	112656
2026-01-07 17:38:12.51	17.71	10.17	-52.0	-67.3	3.6	1.51e+00	0	35	104	0	60	113407
2026-01-07 17:38:15.54	17.33	10.36	-52.0	-67.4	3.6	1.51e+00	0	35	104	0	60	113651
2026-01-07 17:38:18.57	16.95	10.55	-52.0	-67.3	3.6	1.51e+00	0	35	104	0	60	113608
2026-01-07 17:38:21.61	16.56	10.74	-52.0	-67.3	3.6	1.51e+00	0	35	104	0	60	113416
2026-01-07 17:38:24.64	16.16	10.93	-52.0	-67.3	3.6	1.51e+00	0	35	104	0	60	113368
2026-01-07 17:38:27.67	15.76	11.12	-52.0	-67.3	3.6	1.51e+00	0	35	104	0	60	113604
2026-01-07 17:38:30.70	15.36	11.31	-52.0	-67.4	3.6	1.51e+00	0	35	104	0	60	113672
2026-01-07 17:38:33.73	14.94	11.51	-52.0	-67.4	3.6	1.51e+00	0	35	104	0	60	113909
2026-01-07 17:38:36.77	14.52	11.70	-52.0	-67.4	3.6	1.51e+00	0	35	104	0	60	113864
2026-01-07 17:38:39.80	14.10	11.89	-52.0	-67.3	3.6	1.51e+00	0	35	104	0	60	113208
2026-01-07 17:38:42.83	13.67	12.08	-52.0	-67.4	3.6	1.51e+00	0	35	104	0	60	113760
2026-01-07 17:38:45.87	13.24	12.27	-52.0	-67.3	3.6	1.51e+00	0	35	104	0	60	113607
2026-01-07 17:38:48.90	12.80	12.46	-52.0	-67.3	3.6	1.51e+00	0	35	104	0	60	113458
2026-01-07 17:38:51.93	12.35	12.65	-52.0	-67.3	3.6	1.51e+00	0	35	104	0	60	113189
2026-01-07 17:38:54.96	11.90	12.84	-52.0	-67.3	3.6	1.51e+00	0	35	104	0	60	113445
2026-01-07 17:38:57.99	11.44	13.03	-52.0	-67.3	3.6	1.51e+00	0	35	104	0	60	113192
2026-01-07 17:39:01.03	10.98	13.22	-52.0	-67.3	3.6	1.51e+00	0	35	104	0	60	113437
2026-01-07 17:39:04.06	10.51	13.41	-52.0	-67.4	3.6	1.51e+00	0	35	104	0	60	113918
2026-01-07 17:39:07.09	10.03	13.60	-52.0	-67.3	3.6	1.51e+00	0	35	104	0	60	112993
2026-01-07 17:39:10.12	9.55	13.79	-52.0	-67.3	3.6	1.51e+00	0	35	104	0	60	112734
2026-01-07 17:39:13.15	9.06	13.98	-52.0	-67.4	3.6	1.51e+00	0	35	104	0	60	113786
2026-01-07 17:39:16.19	8.56	14.17	-52.0	-67.3	3.6	1.51e+00	0	35	104	0	60	113151
2026-01-07 17:39:19.22	8.06	14.35	-52.0	-67.3	3.6	1.51e+00	0	35	104	0	60	113094
2026-01-07 17:39:22.25	7.55	14.54	-52.0	-67.3	3.6	1.51e+00	0	35	104	0	60	113574
2026-01-07 17:39:25.29	7.04	14.72	-52.0	-67.3	3.6	1.51e+00	0	35	104	0	60	112799
2026-01-07 17:39:28.32	6.52	14.91	-52.0	-67.4	3.6	1.51e+00	0	35	104	0	60	113694
2026-01-07 17:39:31.35	5.99	15.09	-52.0	-67.3	3.6	1.51e+00	0	35	104	0	60	113157
2026-01-07 17:39:34.39	5.45	15.27	-52.0	-67.3	3.6	1.51e+00	0	35	104	0	60	113329
2026-01-07 17:39:37.42	4.91	15.45	-52.0	-67.4	3.6	1.51e+00	0	35	104	0	60	113683
2026-01-07 17:39:40.45	4.37	15.63	-52.0	-67.3	3.6	1.51e+00	0	35	104	0	60	113164
2026-01-07 17:39:43.48	3.81	15.81	-52.0	-67.3	3.6	1.51e+00	0	35	104	0	60	112708
2026-01-07 17:39:46.52	3.25	15.98	-52.0	-67.4	3.6	1.51e+00	0	35	104	0	60	114005
2026-01-07 17:39:49.55	2.68	16.16	-52.0	-67.3	3.6	1.51e+00	0	35	104	0	60	113462
2026-01-07 17:39:52.58	2.11	16.33	-51.9	-67.3	3.6	1.51e+00	0	35	104	0	60	113217
2026-01-07 17:39:55.62	1.53	16.50	-52.0	-67.3	3.6	1.51e+00	0	35	104	0	60	113007
2026-01-07 17:39:58.65	0.94	16.67	-52.0	-67.3	3.6	1.51e+00	0	35	104	0	60	113314
2026-01-07 17:40:01.68	0.35	16.84	-51.9	-67.4	3.6	1.51e+00	0	35	104	0	60	113908
2026-01-07 17:40:04.72	359.74	17.00	-51.9	-67.3	3.6	1.51e+00	0	35	104	0	60	113327
2026-01-07 17:40:07.75	359.14	17.17	-51.9	-67.3	3.6	1.51e+00	0	35	104	0	60	113155
2026-01-07 17:40:10.78	358.52	17.33	-52.0	-67.3	3.5	1.51e+00	0	35	104	0	60	112981
2026-01-07 17:40:13.81	357.90	17.49	-51.9	-67.4	3.6	1.51e+00	0	35	104	0	60	113698
2026-01-07 17:40:16.84	357.27	17.64	-51.9	-67.3	3.6	1.51e+00	0	35	104	0	60	112654
2026-01-07 17:40:19.88	356.64	17.80	-51.9	-67.3	3.6	1.51e+00	0	35	104	0	60	112942
2026-01-07 17:40:22.91	356.00	17.95	-51.9	-67.3	3.5	1.51e+00	0	35	104	0	60	113188
2026-01-07 17:40:25.94	355.35	18.09	-51.9	-67.4	3.6	1.51e+00	0	35	104	0	60	113655
2026-01-07 17:40:28.97	354.70	18.24	-51.9	-67.3	3.6	1.51e+00	0	35	104	0	60	112772
2026-01-07 17:40:32.01	354.04	18.38	-51.9	-67.3	3.6	1.51e+00	0	35	104	0	60	113231
2026-01-07 17:40:35.04	353.37	18.52	-51.9	-67.3	3.6	1.51e+00	0	35	104	0	60	113203
2026-01-07 17:40:38.07	352.70	18.65	-51.9	-67.3	3.6	1.51e+00	0	35	104	0	60	113025
2026-01-07 17:40:41.11	352.02	18.79	-51.9	-67.3	3.6	1.51e+00	0	35	104	0	60	112554
2026-01-07 17:40:44.14	351.33	18.91	-51.9	-67.3	3.6	1.51e+00	0	35	104	0	60	113348
2026-01-07 17:40:47.17	350.65	19.04	-51.9	-67.2	3.6	1.51e+00	0	35	104	0	60	112241
2026-01-07 17:40:50.21	349.95	19.16	-51.9	-67.3	3.6	1.51e+00	0	36	104	0	60	112779
2026-01-07 17:40:53.24	349.25	19.28	-51.9	-67.4	3.6	1.51e+00	0	35	104	0	60	113677
2026-01-07 17:40:56.27	348.54	19.39	-51.9	-67.3	3.6	1.51e+00	0	35	104	0	60	113209
2026-01-07 17:40:59.31	347.83	19.50	-51.9	-67.3	3.6	1.51e+00	0	36	104	0	60	113194
2026-01-07 17:41:02.34	347.11	19.60	-51.9	-67.3	3.6	1.51e+00	0	35	104	0	60	112930
2026-01-07 17:41:05.37	346.39	19.70	-51.9	-67.4	3.6	1.51e+00	0	35	104	0	60	113781
2026-01-07 17:41:08.40	345.67	19.80	-51.9	-67.3	3.6	1.51e+00	0	35	104	0	60	112407
2026-01-07 17:41:11.43	344.94	19.89	-51.9	-67.3	3.6	1.51e+00	0	35	104	0	60	112797
2026-01-07 17:41:14.46	344.20	19.98	-51.9	-67.2	3.6	1.51e+00	0	36	104	0	60	112194
2026-01-07 17:41:17.50	343.46	20.06	-51.9	-67.3	3.6	1.51e+00	0	35	104	0	60	113550
2026-01-07 17:41:20.53	342.72	20.13	-51.9	-67.3	3.6	1.51e+00	0	35	104	0	60	113032
2026-01-07 17:41:23.56	341.97	20.21	-51.9	-67.3	3.6	1.51e+00	0	35	104	0	60	113645
2026-01-07 17:41:26.59	341.22	20.27	-51.9	-67.3	3.6	1.51e+00	0	35	104	0	60	113007
2026-01-07 17:41:29.63	340.47	20.34	-51.9	-67.3	3.6	1.51e+00	0	35	104	0	60	113490
2026-01-07 17:41:32.66	339.71	20.39	-51.9	-67.4	3.5	1.51e+00	0	35	104	0	60	113788
2026-01-07 17:41:35.69	338.95	20.45	-51.9	-67.3	3.6	1.51e+00	0	35	104	0	60	113211
2026-01-07 17:41:38.73	338.19	20.49	-51.9	-67.3	3.6	1.51e+00	0	36	104	0	60	113045
2026-01-07 17:41:41.76	337.43	20.53	-51.9	-67.3	3.6	1.51e+00	0	36	104	0	60	113365
2026-01-07 17:41:44.79	336.66	20.57	-51.9	-67.3	3.6	1.51e+00	0	35	104	0	60	113107
2026-01-07 17:41:47.83	335.89	20.60	-51.9	-67.4	3.6	1.51e+00	0	36	104	0	60	113800
2026-01-07 17:41:50.86	335.12	20.63	-51.9	-67.3	3.6	1.51e+00	0	35	104	0	60	113203
2026-01-07 17:41:53.89	334.35	20.65	-51.9	-67.3	3.6	1.51e+00	0	35	104	0	60	112884
2026-01-07 17:41:56.93	333.58	20.66	-51.9	-67.3	3.6	1.51e+00	0	36	104	0	60	112962
2026-01-07 17:41:59.96	332.81	20.67	-51.9	-67.3	3.6	1.51e+00	0	35	104	0	60	112986
2026-01-07 17:42:03.00	332.04	20.67	-51.9	-67.3	3.6	1.51e+00	0	36	104	0	60	113618
2026-01-07 17:42:06.03	331.27	20.67	-51.9	-67.3	3.6	1.51e+00	0	36	104	0	60	113063
2026-01-07 17:42:09.06	330.49	20.66	-51.9	-67.3	3.6	1.51e+00	0	36	104	0	60	113433
2026-01-07 17:42:12.09	329.72	20.65	-51.9	-67.3	3.6	1.51e+00	0	36	104	0	60	113061
2026-01-07 17:42:15.12	328.95	20.63	-51.9	-67.3	3.6	1.51e+00	0	35	104	0	60	112835
2026-01-07 17:42:18.16	328.18	20.61	-51.9	-67.3	3.6	1.51e+00	0	35	104	0	60	112927
2026-01-07 17:42:21.19	327.42	20.58	-51.9	-67.3	3.6	1.51e+00	0	35	104	0	60	112760
2026-01-07 17:42:24.22	326.65	20.55	-51.9	-67.3	3.6	1.51e+00	0	35	104	0	60	113047
2026-01-07 17:42:27.26	325.88	20.51	-51.9	-67.3	3.6	1.51e+00	0	35	104	0	60	113509
2026-01-07 17:42:30.29	325.12	20.46	-51.9	-67.3	3.6	1.51e+00	0	35	104	0	60	112947
2026-01-07 17:42:33.32	324.36	20.41	-51.9	-67.3	3.6	1.51e+00	0	35	104	0	60	112769
2026-01-07 17:42:36.35	323.60	20.35	-51.9	-67.3	3.6	1.51e+00	0	35	104	0	60	112699
2026-01-07 17:42:39.38	322.85	20.29	-51.9	-67.3	3.6	1.51e+00	0	35	104	0	60	113165
2026-01-07 17:42:42.42	322.10	20.23	-51.9	-67.3	3.6	1.51e+00	0	35	104	0	60	113055
2026-01-07 17:42:45.45	321.35	20.16	-51.9	-67.3	3.6	1.51e+00	0	36	104	0	60	113441
2026-01-07 17:42:48.48	320.61	20.08	-51.9	-67.3	3.6	1.51e+00	0	35	104	0	60	113020
2026-01-07 17:42:51.52	319.86	20.00	-51.9	-67.3	3.6	1.51e+00	0	36	104	0	60	113291
2026-01-07 17:42:54.55	319.13	19.91	-51.9	-67.2	3.6	1.51e+00	0	36	104	0	60	112298
2026-01-07 17:42:57.58	318.39	19.82	-51.9	-67.4	3.6	1.51e+00	0	36	104	0	60	113741
2026-01-07 17:43:00.62	317.66	19.73	-51.9	-67.4	3.6	1.51e+00	0	35	104	0	60	113785
2026-01-07 17:43:03.65	316.94	19.63	-51.9	-67.3	3.6	1.51e+00	0	36	104	0	60	113177
2026-01-07 17:43:06.68	316.22	19.53	-51.9	-67.3	3.6	1.51e+00	0	35	104	0	60	113550
2026-01-07 17:43:09.72	315.51	19.42	-51.9	-67.3	3.6	1.51e+00	0	35	104	0	60	112715
2026-01-07 17:43:12.75	314.80	19.31	-51.9	-67.3	3.6	1.51e+00	0	35	104	0	60	113125
2026-01-07 17:43:15.78	314.10	19.19	-51.9	-67.3	3.6	1.51e+00	0	35	104	0	60	113223
2026-01-07 17:43:18.81	313.40	19.07	-51.9	-67.3	3.6	1.51e+00	0	35	104	0	60	113111
2026-01-07 17:43:21.85	312.71	18.95	-51.9	-67.3	3.6	1.51e+00	0	35	104	0	60	112959
2026-01-07 17:43:24.88	312.02	18.82	-51.9	-67.3	3.6	1.51e+00	0	35	104	0	60	113324
2026-01-07 17:43:27.91	311.34	18.69	-51.9	-67.3	3.6	1.51e+00	0	36	104	0	60	113536
2026-01-07 17:43:30.95	310.66	18.56	-51.9	-67.3	3.6	1.51e+00	0	36	104	0	60	112695
2026-01-07 17:43:33.98	310.00	18.42	-51.9	-67.3	3.6	1.51e+00	0	35	104	0	60	113368
2026-01-07 17:43:37.01	309.33	18.28	-51.9	-67.3	3.6	1.51e+00	0	36	104	0	60	113006
2026-01-07 17:43:40.05	308.68	18.13	-51.9	-67.3	3.6	1.51e+00	0	36	104	0	60	113081
2026-01-07 17:43:43.08	308.03	17.99	-51.9	-67.3	3.6	1.51e+00	0	35	104	0	60	113113
2026-01-07 17:43:46.11	307.38	17.84	-51.9	-67.3	3.6	1.51e+00	0	35	104	0	60	113148
2026-01-07 17:43:49.14	306.75	17.68	-51.9	-67.3	3.6	1.51e+00	0	35	104	0	60	113345
2026-01-07 17:43:52.18	306.11	17.53	-51.9	-67.3	3.6	1.51e+00	0	35	104	0	60	112799
2026-01-07 17:43:55.21	305.49	17.37	-51.9	-67.3	3.6	1.51e+00	0	35	104	0	60	113548
2026-01-07 17:43:58.24	304.87	17.21	-51.9	-67.3	3.6	1.51e+00	0	35	104	0	60	113042
2026-01-07 17:44:01.28	304.26	17.05	-51.9	-67.3	3.6	1.51e+00	0	35	104	0	60	112834
2026-01-07 17:44:04.31	303.66	16.88	-51.9	-67.4	3.6	1.51e+00	0	35	104	0	60	113686
2026-01-07 17:44:07.34	303.06	16.72	-51.9	-67.3	3.6	1.51e+00	0	36	104	0	60	113270
2026-01-07 17:44:10.38	302.47	16.55	-51.9	-67.3	3.5	1.51e+00	0	35	104	0	60	112631
2026-01-07 17:44:13.41	301.88	16.38	-51.9	-67.3	3.6	1.51e+00	0	35	104	0	60	113237
2026-01-07 17:44:16.44	301.31	16.20	-51.9	-67.3	3.6	1.51e+00	0	35	104	0	60	113299
2026-01-07 17:44:19.48	300.73	16.03	-51.9	-67.3	3.6	1.51e+00	0	35	104	0	60	113117
2026-01-07 17:44:22.51	300.17	15.85	-51.9	-67.3	3.6	1.51e+00	0	35	104	0	60	113555
2026-01-07 17:44:25.54	299.61	15.68	-51.9	-67.3	3.6	1.51e+00	0	35	104	0	60	113089
2026-01-07 17:44:28.58	299.06	15.50	-51.9	-67.3	3.6	1.51e+00	0	36	104	0	60	112569
2026-01-07 17:44:31.61	298.52	15.32	-51.9	-67.3	3.6	1.51e+00	0	35	104	0	60	113183
2026-01-07 17:44:34.64	297.98	15.14	-51.9	-67.3	3.6	1.51e+00	0	36	104	0	60	113111
2026-01-07 17:44:37.68	297.45	14.95	-51.9	-67.3	3.6	1.51e+00	0	36	104	0	60	113359
2026-01-07 17:44:40.71	296.93	14.77	-51.9	-67.3	3.6	1.51e+00	0	36	104	0	60	113436
2026-01-07 17:44:43.74	296.41	14.59	-51.9	-67.3	3.6	1.51e+00	0	36	104	0	60	113117
2026-01-07 17:44:46.77	295.90	14.40	-51.9	-67.4	3.6	1.51e+00	0	35	104	0	60	113910
2026-01-07 17:44:49.81	295.39	14.21	-51.9	-67.3	3.6	1.51e+00	0	35	104	0	60	113453
2026-01-07 17:44:52.84	294.89	14.03	-51.9	-67.4	3.6	1.51e+00	0	36	104	0	60	113727
2026-01-07 17:44:55.87	294.40	13.84	-51.9	-67.3	3.6	1.51e+00	0	35	104	0	60	113561
2026-01-07 17:44:58.90	293.92	13.65	-51.9	-67.3	3.6	1.51e+00	0	36	104	0	60	113092
2026-01-07 17:45:01.94	293.44	13.46	-51.9	-67.3	3.6	1.51e+00	0	36	104	0	60	113041
2026-01-07 17:45:04.97	292.96	13.27	-51.9	-67.3	3.6	1.51e+00	0	35	104	0	60	113105
2026-01-07 17:45:08.00	292.50	13.08	-51.9	-67.3	3.6	1.51e+00	0	35	104	0	60	113439
2026-01-07 17:45:11.03	292.04	12.89	-51.9	-67.3	3.6	1.51e+00	0	36	104	0	60	113025
2026-01-07 17:45:14.07	291.58	12.70	-51.9	-67.3	3.6	1.51e+00	0	36	104	0	60	113061
2026-01-07 17:45:17.10	291.13	12.51	-51.9	-67.3	3.6	1.51e+00	0	36	104	0	60	113060
2026-01-07 17:45:20.13	290.69	12.32	-51.9	-67.3	3.6	1.51e+00	0	36	104	0	60	113289
2026-01-07 17:45:23.17	290.25	12.13	-51.9	-67.3	3.6	1.51e+00	0	36	104	0	60	112862
2026-01-07 17:45:26.20	289.82	11.93	-51.9	-67.3	3.6	1.51e+00	0	36	104	0	60	112895
2026-01-07 17:45:29.23	289.39	11.74	-51.9	-67.3	3.6	1.51e+00	0	36	104	0	60	113128
2026-01-07 17:45:32.27	288.97	11.55	-51.9	-67.3	3.6	1.51e+00	0	36	104	0	60	112787
2026-01-07 17:45:35.30	288.56	11.36	-51.9	-67.3	3.6	1.51e+00	0	36	104	0	60	113242
2026-01-07 17:45:38.33	288.15	11.17	-51.9	-67.4	3.6	1.51e+00	0	36	104	0	60	113717
2026-01-07 17:45:41.37	287.74	10.98	-51.9	-67.3	3.6	1.51e+00	0	36	104	0	60	113303
2026-01-07 17:45:44.40	287.34	10.78	-51.9	-67.3	3.6	1.51e+00	0	36	104	0	60	113563
2026-01-07 17:45:47.43	286.95	10.59	-51.9	-67.4	3.6	1.51e+00	0	36	104	0	60	113954
2026-01-07 17:45:50.47	286.56	10.40	-51.9	-67.3	3.6	1.51e+00	0	36	104	0	60	112915
2026-01-07 17:45:53.50	286.18	10.21	-51.9	-67.3	3.6	1.51e+00	0	35	104	0	60	112839
2026-01-07 17:45:56.53	285.80	10.02	-51.9	-67.3	3.6	1.51e+00	0	36	104	0	60	113308
2026-01-07 17:45:59.57	285.43	9.83	-51.9	-67.3	3.6	1.51e+00	0	35	104	0	60	113062
2026-01-07 17:46:02.60	285.06	9.64	-51.9	-67.3	3.6	1.51e+00	0	35	104	0	60	113311
2026-01-07 17:46:05.63	284.70	9.45	-51.9	-67.3	3.6	1.51e+00	0	35	104	0	60	113163
2026-01-07 17:46:08.66	284.34	9.26	-51.9	-67.3	3.6	1.51e+00	0	35	104	0	60	113605
2026-01-07 17:46:11.69	283.99	9.07	-51.9	-67.3	3.6	1.51e+00	0	35	104	0	60	113247
2026-01-07 17:46:14.73	283.64	8.88	-51.9	-67.3	3.6	1.51e+00	0	36	104	0	60	112973
2026-01-07 17:46:17.76	283.29	8.69	-51.9	-67.3	3.6	1.51e+00	0	36	104	0	60	112816
2026-01-07 17:46:20.80	282.95	8.51	-51.9	-67.3	3.6	1.51e+00	0	36	104	0	60	112844
2026-01-07 17:46:23.83	282.62	8.32	-51.9	-67.3	3.6	1.51e+00	0	35	104	0	60	113597
2026-01-07 17:46:26.86	282.29	8.13	-51.9	-67.3	3.6	1.51e+00	0	36	104	0	60	112969
2026-01-07 17:46:29.90	281.96	7.94	-51.9	-67.3	3.6	1.51e+00	0	36	104	0	60	112797
2026-01-07 17:46:32.93	281.64	7.76	-51.9	-67.3	3.6	1.51e+00	0	35	104	0	60	112778
2026-01-07 17:46:35.96	281.32	7.57	-51.9	-67.3	3.6	1.51e+00	0	36	104	0	60	112900
2026-01-07 17:46:38.99	281.00	7.39	-51.9	-67.4	3.6	1.51e+00	0	36	104	0	60	114279
2026-01-07 17:46:42.03	280.69	7.20	-51.9	-67.3	3.6	1.51e+00	0	36	104	0	60	113372
2026-01-07 17:46:45.06	280.39	7.02	-51.9	-67.3	3.6	1.51e+00	0	36	104	0	60	112552
2026-01-07 17:46:48.09	280.09	6.84	-51.9	-67.3	3.6	1.51e+00	0	36	104	0	60	112762
2026-01-07 17:46:51.13	279.79	6.65	-51.9	-67.3	3.6	1.51e+00	0	35	104	0	60	113377
2026-01-07 17:46:54.16	279.49	6.47	-51.9	-67.3	3.6	1.51e+00	0	35	104	0	60	113373
2026-01-07 17:46:57.19	279.20	6.29	-51.9	-67.3	3.6	1.51e+00	0	35	104	0	60	113526
2026-01-07 17:47:00.23	278.92	6.11	-51.9	-67.3	3.6	1.51e+00	0	35	104	0	60	113106
2026-01-07 17:47:03.26	278.63	5.93	-51.9	-67.3	3.6	1.51e+00	0	35	104	0	60	112793
2026-01-07 17:47:06.29	278.35	5.75	-51.9	-67.3	3.6	1.51e+00	0	36	104	0	60	113452
2026-01-07 17:47:09.32	278.08	5.57	-51.9	-67.4	3.6	1.51e+00	0	35	104	0	60	113918
2026-01-07 17:47:12.36	277.80	5.39	-51.9	-67.4	3.6	1.51e+00	0	36	104	0	60	113799
2026-01-07 17:47:15.39	277.53	5.21	-51.9	-67.3	3.6	1.51e+00	0	36	104	0	60	112872
2026-01-07 17:47:18.42	277.27	5.03	-51.9	-67.3	3.6	1.51e+00	0	36	104	0	60	112923
2026-01-07 17:47:21.46	277.01	4.86	-51.9	-67.3	3.6	1.51e+00	0	35	104	0	60	113384
2026-01-07 17:47:24.49	276.75	4.68	-51.9	-67.3	3.6	1.51e+00	0	36	104	0	60	113570
2026-01-07 17:47:27.52	276.49	4.50	-51.9	-67.3	3.6	1.51e+00	0	35	104	0	60	113047
2026-01-07 17:47:30.56	276.24	4.33	-51.9	-67.3	3.5	1.51e+00	0	35	104	0	60	113382
2026-01-07 17:47:33.59	275.99	4.15	-51.9	-67.3	3.6	1.51e+00	0	36	104	0	60	113388
2026-01-07 17:47:36.62	275.74	3.98	-51.9	-67.3	3.6	1.51e+00	0	35	104	0	60	112600
2026-01-07 17:47:39.66	275.50	3.81	-51.9	-67.3	3.6	1.51e+00	0	35	104	0	60	113304
2026-01-07 17:47:42.69	275.26	3.63	-51.9	-67.3	3.6	1.51e+00	0	36	104	0	60	113356
2026-01-07 17:47:45.72	275.02	3.46	-51.9	-67.3	3.6	1.51e+00	0	35	104	0	60	113034
2026-01-07 17:47:48.75	274.78	3.29	-51.9	-67.3	3.6	1.51e+00	0	36	104	0	60	112938
2026-01-07 17:47:51.79	274.55	3.12	-51.9	-67.3	3.6	1.51e+00	0	36	104	0	60	112753
2026-01-07 17:47:54.82	274.32	2.95	-51.9	-67.2	3.6	1.51e+00	0	35	104	0	60	112185
2026-01-07 17:47:57.85	274.09	2.78	-51.9	-67.3	3.6	1.51e+00	0	35	104	0	60	113091
2026-01-07 17:48:00.89	273.87	2.61	-51.9	-67.3	3.6	1.51e+00	0	35	104	0	60	112722
2026-01-07 17:48:03.92	273.65	2.44	-51.9	-67.3	3.6	1.51e+00	0	35	104	0	60	113212
2026-01-07 17:48:06.95	273.43	2.27	-51.9	-67.3	3.6	1.51e+00	0	35	104	0	60	113459
2026-01-07 17:48:09.98	273.21	2.11	-51.9	-67.3	3.6	1.51e+00	0	36	104	0	60	112543
2026-01-07 17:48:13.02	273.00	1.94	-51.9	-67.3	3.6	1.51e+00	0	35	104	0	60	112554
2026-01-07 17:48:16.05	272.79	1.77	-51.9	-67.3	3.6	1.51e+00	0	35	104	0	60	112406
2026-01-07 17:48:19.08	272.58	1.61	-51.9	-67.3	3.6	1.51e+00	0	35	104	0	60	113224
2026-01-07 17:48:22.11	272.37	1.44	-51.9	-67.3	3.6	1.51e+00	0	35	104	0	60	112604
2026-01-07 17:48:25.15	272.17	1.28	-51.9	-67.3	3.6	1.51e+00	0	35	104	0	60	113410
2026-01-07 17:48:28.18	271.97	1.12	-51.9	-67.3	3.6	1.51e+00	0	35	104	0	60	113285
2026-01-07 17:48:31.21	271.77	0.95	-51.9	-67.3	3.6	1.51e+00	0	35	104	0	60	112899
2026-01-07 17:48:34.24	271.57	0.79	-51.9	-67.3	3.6	1.51e+00	0	36	104	0	60	113418
2026-01-07 17:48:37.28	271.38	0.63	-51.9	-67.3	3.6	1.51e+00	0	36	104	0	60	113015
2026-01-07 17:48:40.31	271.18	0.47	-51.9	-67.3	3.6	1.51e+00	0	36	104	0	60	112849
2026-01-07 17:48:43.34	270.99	0.31	-51.9	-67.3	3.6	1.51e+00	0	36	104	0	60	113557
2026-01-07 17:48:46.38	270.81	0.15	-51.9	-67.3	3.6	1.51e+00	0	35	104	0	60	113221
2026-01-07 17:48:49.41	270.62	-0.01	-51.9	-67.4	3.6	1.51e+00	0	35	104	0	60	113748

#Closed at: 2026-01-07 17:48:50
#Recorded file [0 MB]: D:/lorett/data/35034_260107_203519.dat