passes_logs/2026/01/07/R4.6S_Anadyr_2ch/R4.6S_Anadyr_2ch__20260107_091403_TY-41_rec.log

#Pass ID: 20260107_091403_TY-41
#Satellite: TY-41
#Configuration: TY-39_900M
#almurnet v.1.7.20251203
#Start time: 2026-01-07 09:14:34

#Version: 2.2.20231116
#Station: R4.6S_Anadyr_2ch
#Location: 177.4865 lon 64.73178 lat
#TLE: 1 61231U 24173E   25350.69767361  .00008010  00000-0  38191-3 0 09994
#TLE: 2 61231 097.4116 061.2842 0001674 094.3615 204.6766 15.19171214 68043

#Time	Az	El	Level	Level2	SNR	BER	BlckErr	Temp	State	Recorded	gain1	gain2
2026-01-07 09:14:34.85	155.32	2.12	-51.7	-53.3	5.7	0.00e+00	0	31	0	0	60	76914
2026-01-07 09:14:37.87	155.30	2.34	-51.6	-54.1	6.1	0.00e+00	0	33	104	0	60	84724
2026-01-07 09:14:40.91	155.29	2.56	-51.6	-54.1	6.1	0.00e+00	0	33	104	0	60	84597
2026-01-07 09:14:43.94	155.27	2.77	-51.6	-54.1	6.1	0.00e+00	0	33	104	0	60	84405
2026-01-07 09:14:46.97	155.25	3.00	-51.6	-54.1	6.1	0.00e+00	0	34	104	0	60	84927
2026-01-07 09:14:50.01	155.23	3.22	-51.6	-54.1	6.1	0.00e+00	0	34	104	0	60	84865
2026-01-07 09:14:53.04	155.22	3.45	-51.6	-54.1	6.1	0.00e+00	0	34	104	0	60	84691
2026-01-07 09:14:56.07	155.20	3.68	-51.6	-54.1	6.1	0.00e+00	0	34	104	0	60	84788
2026-01-07 09:14:59.11	155.18	3.91	-51.6	-54.1	6.1	0.00e+00	0	34	104	0	60	84827
2026-01-07 09:15:02.14	155.16	4.14	-51.6	-54.1	6.1	0.00e+00	0	34	104	0	60	85018
2026-01-07 09:15:05.17	155.14	4.38	-51.6	-54.1	6.1	0.00e+00	0	34	104	0	60	84732
2026-01-07 09:15:08.21	155.11	4.62	-51.6	-54.1	6.1	0.00e+00	0	34	104	0	60	84332
2026-01-07 09:15:11.24	155.09	4.86	-51.6	-54.1	6.1	0.00e+00	0	34	104	0	60	84547
2026-01-07 09:15:14.27	155.07	5.10	-51.6	-54.1	6.0	0.00e+00	0	34	104	0	60	84876
2026-01-07 09:15:17.30	155.05	5.35	-51.6	-54.1	6.1	0.00e+00	0	34	104	0	60	84491
2026-01-07 09:15:20.34	155.02	5.61	-51.6	-54.1	6.1	0.00e+00	0	34	104	0	60	85063
2026-01-07 09:15:23.37	155.00	5.86	-51.6	-54.1	6.1	0.00e+00	0	35	104	0	60	84778
2026-01-07 09:15:26.40	154.97	6.12	-51.6	-54.1	6.1	0.00e+00	0	35	104	0	60	84527
2026-01-07 09:15:29.44	154.95	6.38	-51.6	-54.1	6.1	0.00e+00	0	35	104	0	60	84729
2026-01-07 09:15:32.47	154.92	6.64	-51.6	-54.1	6.1	0.00e+00	0	35	104	0	60	84943
2026-01-07 09:15:35.50	154.89	6.91	-51.6	-54.1	6.1	0.00e+00	0	35	104	0	60	84714
2026-01-07 09:15:38.54	154.86	7.19	-51.6	-54.1	6.1	0.00e+00	0	35	104	0	60	84859
2026-01-07 09:15:41.57	154.83	7.46	-51.6	-54.1	6.1	0.00e+00	0	35	104	0	60	84992
2026-01-07 09:15:44.61	154.80	7.74	-51.6	-54.1	6.1	0.00e+00	0	35	104	0	60	84684
2026-01-07 09:15:47.64	154.77	8.03	-51.6	-54.1	6.1	0.00e+00	0	35	104	0	60	84655
2026-01-07 09:15:50.67	154.74	8.32	-51.6	-54.1	6.1	0.00e+00	0	35	104	0	60	84710
2026-01-07 09:15:53.71	154.70	8.61	-51.6	-54.1	6.0	0.00e+00	0	35	104	0	60	84934
2026-01-07 09:15:56.74	154.67	8.91	-51.6	-54.1	6.1	0.00e+00	0	35	104	0	60	84958
2026-01-07 09:15:59.77	154.63	9.21	-51.6	-54.1	6.1	0.00e+00	0	35	104	0	60	85005
2026-01-07 09:16:02.80	154.59	9.52	-51.6	-54.1	6.1	0.00e+00	0	35	104	0	60	84822
2026-01-07 09:16:05.84	154.55	9.83	-51.6	-54.1	6.1	0.00e+00	0	35	104	0	60	85190
2026-01-07 09:16:08.87	154.51	10.15	-51.6	-54.1	6.0	0.00e+00	0	35	104	0	60	84665
2026-01-07 09:16:11.90	154.47	10.47	-51.6	-54.1	6.1	0.00e+00	0	35	104	0	60	84930
2026-01-07 09:16:14.93	154.43	10.80	-51.6	-54.1	6.1	0.00e+00	0	35	104	0	60	85018
2026-01-07 09:16:17.97	154.39	11.14	-51.6	-54.1	6.1	0.00e+00	0	35	104	0	60	84623
2026-01-07 09:16:21.00	154.34	11.48	-51.6	-54.1	6.1	0.00e+00	0	35	104	0	60	84655
2026-01-07 09:16:24.03	154.29	11.83	-51.6	-54.1	6.1	0.00e+00	0	35	104	0	60	85036
2026-01-07 09:16:27.07	154.24	12.18	-51.6	-54.2	6.1	0.00e+00	0	35	104	0	60	85342
2026-01-07 09:16:30.10	154.19	12.54	-51.6	-54.1	6.1	0.00e+00	0	36	104	0	60	85124
2026-01-07 09:16:33.13	154.14	12.91	-51.6	-54.1	6.1	0.00e+00	0	36	104	0	60	84639
2026-01-07 09:16:36.17	154.09	13.29	-51.6	-54.1	6.1	0.00e+00	0	35	104	0	60	84713
2026-01-07 09:16:39.20	154.03	13.67	-51.6	-54.1	6.1	0.00e+00	0	35	104	0	60	84803
2026-01-07 09:16:42.23	153.97	14.06	-51.6	-54.2	6.1	0.00e+00	0	35	104	0	60	85312
2026-01-07 09:16:45.27	153.91	14.46	-51.6	-54.2	6.1	0.00e+00	0	36	104	0	60	85453
2026-01-07 09:16:48.30	153.85	14.87	-51.6	-54.1	6.1	0.00e+00	0	36	104	0	60	84933
2026-01-07 09:16:51.33	153.78	15.29	-51.6	-54.2	6.1	0.00e+00	0	36	104	0	60	85229
2026-01-07 09:16:54.37	153.71	15.72	-51.6	-54.1	6.1	0.00e+00	0	36	104	0	60	84988
2026-01-07 09:16:57.40	153.64	16.15	-51.6	-54.1	6.1	0.00e+00	0	36	104	0	60	85005
2026-01-07 09:17:00.43	153.57	16.60	-51.6	-54.1	6.1	0.00e+00	0	36	104	0	60	84937
2026-01-07 09:17:03.46	153.49	17.06	-51.6	-54.2	6.1	0.00e+00	0	36	104	0	60	85335
2026-01-07 09:17:06.49	153.41	17.53	-51.6	-54.1	6.1	0.00e+00	0	36	104	0	60	84998
2026-01-07 09:17:09.53	153.33	18.01	-51.6	-54.1	6.1	0.00e+00	0	36	104	0	60	84676
2026-01-07 09:17:12.56	153.24	18.50	-51.6	-54.1	6.0	0.00e+00	0	36	104	0	60	84693
2026-01-07 09:17:15.59	153.15	19.01	-51.6	-54.1	6.1	0.00e+00	0	36	104	0	60	85135
2026-01-07 09:17:18.62	153.06	19.52	-51.6	-54.1	6.1	0.00e+00	0	36	104	0	60	84887
2026-01-07 09:17:21.66	152.96	20.06	-51.6	-54.1	6.1	0.00e+00	0	36	104	0	60	84757
2026-01-07 09:17:24.69	152.86	20.60	-51.6	-54.2	6.1	0.00e+00	0	36	104	0	60	85349
2026-01-07 09:17:27.72	152.75	21.16	-51.6	-54.2	6.1	0.00e+00	0	36	104	0	60	85303
2026-01-07 09:17:30.76	152.64	21.74	-51.6	-54.1	6.1	0.00e+00	0	36	104	0	60	85122
2026-01-07 09:17:33.79	152.52	22.34	-51.6	-54.1	6.1	0.00e+00	0	36	104	0	60	84737
2026-01-07 09:17:36.82	152.39	22.95	-51.6	-54.1	6.1	0.00e+00	0	36	104	0	60	84904
2026-01-07 09:17:39.85	152.26	23.58	-51.6	-54.1	6.1	0.00e+00	0	36	104	0	60	85107
2026-01-07 09:17:42.89	152.13	24.23	-51.6	-54.1	6.1	0.00e+00	0	36	104	0	60	84872
2026-01-07 09:17:45.92	151.99	24.90	-51.6	-54.1	6.1	0.00e+00	0	36	104	0	60	84391
2026-01-07 09:17:48.95	151.83	25.59	-51.6	-54.1	6.1	0.00e+00	0	36	104	0	60	85036
2026-01-07 09:17:51.98	151.68	26.30	-51.6	-54.2	6.1	0.00e+00	0	36	104	0	60	85227
2026-01-07 09:17:55.02	151.51	27.04	-51.6	-54.1	6.1	0.00e+00	0	36	104	0	60	85069
2026-01-07 09:17:58.05	151.33	27.80	-51.6	-54.1	6.1	0.00e+00	0	36	104	0	60	84955
2026-01-07 09:18:01.08	151.14	28.58	-51.6	-54.1	6.1	0.00e+00	0	36	104	0	60	84872
2026-01-07 09:18:04.12	150.95	29.40	-51.6	-54.2	6.1	0.00e+00	0	36	104	0	60	85368
2026-01-07 09:18:07.15	150.74	30.24	-51.6	-54.1	6.1	0.00e+00	0	36	104	0	60	84955
2026-01-07 09:18:10.18	150.51	31.11	-51.6	-54.1	6.1	0.00e+00	0	36	104	0	60	85143
2026-01-07 09:18:13.21	150.28	32.01	-51.6	-54.1	6.1	0.00e+00	0	36	104	0	60	84738
2026-01-07 09:18:16.24	150.03	32.94	-51.6	-54.1	6.1	0.00e+00	0	36	104	0	60	84954
2026-01-07 09:18:19.28	149.76	33.91	-51.6	-54.1	6.1	0.00e+00	0	36	104	0	60	84775
2026-01-07 09:18:22.31	149.47	34.91	-51.6	-54.1	6.1	0.00e+00	0	36	104	0	60	84895
2026-01-07 09:18:25.35	149.16	35.96	-51.6	-54.1	6.1	0.00e+00	0	36	104	0	60	84682
2026-01-07 09:18:28.38	148.83	37.04	-51.6	-54.1	6.1	0.00e+00	0	36	104	0	60	84910
2026-01-07 09:18:31.41	148.47	38.16	-51.6	-54.1	6.1	0.00e+00	0	36	104	0	60	85123
2026-01-07 09:18:34.45	148.09	39.33	-51.6	-54.1	6.1	0.00e+00	0	36	104	0	60	84953
2026-01-07 09:18:37.48	147.67	40.53	-51.6	-54.1	6.1	0.00e+00	0	36	104	0	60	85207
2026-01-07 09:18:40.51	147.22	41.79	-51.6	-54.1	6.1	0.00e+00	0	36	104	0	60	84804
2026-01-07 09:18:43.54	146.73	43.09	-51.6	-54.1	6.1	0.00e+00	0	36	104	0	60	85137
2026-01-07 09:18:46.58	146.20	44.45	-51.6	-54.2	6.1	0.00e+00	0	36	104	0	60	85611
2026-01-07 09:18:49.61	145.61	45.85	-51.6	-54.2	6.1	0.00e+00	0	36	104	0	60	85339
2026-01-07 09:18:52.64	144.97	47.30	-51.6	-54.1	6.1	0.00e+00	0	36	104	0	60	84671
2026-01-07 09:18:55.68	144.25	48.82	-51.6	-54.1	6.0	0.00e+00	0	36	104	0	60	85054
2026-01-07 09:18:58.71	143.47	50.38	-51.6	-54.1	6.1	0.00e+00	0	36	104	0	60	84857
2026-01-07 09:19:01.74	142.59	51.99	-51.6	-54.1	6.1	0.00e+00	0	36	104	0	60	85212
2026-01-07 09:19:04.77	141.60	53.66	-51.6	-54.1	6.1	0.00e+00	0	36	104	0	60	85002
2026-01-07 09:19:07.81	140.48	55.39	-51.6	-54.1	6.1	0.00e+00	0	36	104	0	60	84620
2026-01-07 09:19:10.84	139.22	57.16	-51.6	-54.1	6.0	0.00e+00	0	36	104	0	60	84599
2026-01-07 09:19:13.87	137.77	58.98	-51.6	-54.1	6.1	0.00e+00	0	36	104	0	60	85068
2026-01-07 09:19:16.90	136.10	60.84	-51.6	-54.1	6.1	0.00e+00	0	36	104	0	60	85052
2026-01-07 09:19:19.94	134.15	62.74	-51.6	-54.2	6.1	0.00e+00	0	36	104	0	60	85309
2026-01-07 09:19:22.97	131.87	64.66	-51.6	-54.1	6.1	0.00e+00	0	36	104	0	60	85114
2026-01-07 09:19:26.00	129.16	66.59	-51.6	-54.2	6.1	0.00e+00	0	36	104	0	60	85252
2026-01-07 09:19:29.04	125.90	68.51	-51.6	-54.1	6.1	0.00e+00	0	36	104	0	60	84901
2026-01-07 09:19:32.07	121.95	70.39	-51.6	-54.1	6.1	0.00e+00	0	36	104	0	60	84833
2026-01-07 09:19:35.10	117.10	72.21	-51.6	-54.1	6.1	0.00e+00	0	36	104	0	60	84771
2026-01-07 09:19:38.13	111.13	73.90	-51.6	-54.1	6.1	0.00e+00	0	36	104	0	60	84980
2026-01-07 09:19:41.16	103.77	75.41	-51.6	-54.2	6.1	0.00e+00	0	36	104	0	60	85420
2026-01-07 09:19:44.20	94.78	76.66	-51.6	-54.1	6.1	0.00e+00	0	36	104	0	60	85100
2026-01-07 09:19:47.23	84.22	77.53	-51.6	-54.2	6.0	0.00e+00	0	36	104	0	60	85310
2026-01-07 09:19:50.27	72.46	77.94	-51.6	-54.2	6.1	0.00e+00	0	36	104	0	60	85239
2026-01-07 09:19:53.30	60.43	77.83	-51.6	-54.1	6.1	0.00e+00	0	36	104	0	60	85103
2026-01-07 09:19:56.33	49.11	77.22	-51.6	-54.1	6.1	0.00e+00	0	36	104	0	60	84899
2026-01-07 09:19:59.36	39.19	76.19	-51.6	-54.1	6.1	0.00e+00	0	36	104	0	60	84937
2026-01-07 09:20:02.39	30.90	74.83	-51.6	-54.1	6.1	0.00e+00	0	36	104	0	60	84471
2026-01-07 09:20:05.43	24.12	73.23	-51.6	-54.1	6.1	0.00e+00	0	36	104	0	60	84856
2026-01-07 09:20:08.46	18.65	71.48	-51.6	-54.1	6.1	0.00e+00	0	36	104	0	60	84774
2026-01-07 09:20:11.49	14.21	69.64	-51.6	-54.1	6.1	0.00e+00	0	36	104	0	60	84909
2026-01-07 09:20:14.52	10.56	67.74	-51.6	-54.1	6.1	0.00e+00	0	36	104	0	60	84899
2026-01-07 09:20:17.55	7.55	65.82	-51.6	-54.1	6.1	0.00e+00	0	36	104	0	60	85212
2026-01-07 09:20:20.59	5.02	63.90	-51.6	-54.1	6.1	0.00e+00	0	36	104	0	60	85176
2026-01-07 09:20:23.62	2.89	61.99	-51.6	-54.1	6.1	0.00e+00	0	37	104	0	60	85053
2026-01-07 09:20:26.65	1.07	60.12	-51.6	-54.1	6.1	0.00e+00	0	36	104	0	60	84314
2026-01-07 09:20:29.68	359.49	58.28	-51.6	-54.1	6.1	0.00e+00	0	36	104	0	60	84991
2026-01-07 09:20:32.72	358.12	56.48	-51.6	-54.1	6.1	0.00e+00	0	36	104	0	60	85193
2026-01-07 09:20:35.75	356.92	54.73	-51.6	-54.1	6.1	0.00e+00	0	36	104	0	60	85086
2026-01-07 09:20:38.78	355.87	53.04	-51.6	-54.1	6.1	0.00e+00	0	36	104	0	60	85209
2026-01-07 09:20:41.82	354.92	51.39	-51.6	-54.1	6.1	0.00e+00	0	36	104	0	60	84703
2026-01-07 09:20:44.85	354.08	49.80	-51.6	-54.1	6.1	0.00e+00	0	36	104	0	60	84791
2026-01-07 09:20:47.88	353.33	48.26	-51.6	-54.1	6.1	0.00e+00	0	36	104	0	60	84549
2026-01-07 09:20:50.91	352.65	46.78	-51.6	-54.1	6.1	0.00e+00	0	36	104	0	60	85060
2026-01-07 09:20:53.95	352.02	45.35	-51.6	-54.1	6.1	0.00e+00	0	36	104	0	60	84882
2026-01-07 09:20:56.98	351.46	43.97	-51.6	-54.1	6.1	0.00e+00	0	36	104	0	60	84503
2026-01-07 09:21:00.01	350.95	42.65	-51.6	-54.1	6.1	0.00e+00	0	36	104	0	60	84645
2026-01-07 09:21:03.04	350.47	41.37	-51.6	-54.1	6.1	0.00e+00	0	36	104	0	60	84738
2026-01-07 09:21:06.08	350.04	40.13	-51.6	-54.1	6.1	0.00e+00	0	36	104	0	60	84946
2026-01-07 09:21:09.11	349.64	38.95	-51.6	-54.1	6.1	0.00e+00	0	37	104	0	60	84964
2026-01-07 09:21:12.14	349.27	37.81	-51.6	-54.1	6.1	0.00e+00	0	36	104	0	60	84880
2026-01-07 09:21:15.17	348.92	36.71	-51.6	-54.1	6.1	0.00e+00	0	37	104	0	60	85045
2026-01-07 09:21:18.20	348.60	35.65	-51.6	-54.1	6.1	0.00e+00	0	37	104	0	60	84768
2026-01-07 09:21:21.24	348.30	34.62	-51.6	-54.2	6.1	0.00e+00	0	37	104	0	60	85247
2026-01-07 09:21:24.27	348.02	33.64	-51.6	-54.1	6.1	0.00e+00	0	36	104	0	60	84927
2026-01-07 09:21:27.30	347.76	32.69	-51.6	-54.1	6.1	0.00e+00	0	36	104	0	60	84946
2026-01-07 09:21:30.33	347.52	31.77	-51.6	-54.1	6.1	0.00e+00	0	36	104	0	60	84900
2026-01-07 09:21:33.37	347.29	30.88	-51.6	-54.2	6.1	0.00e+00	0	36	104	0	60	85226
2026-01-07 09:21:36.40	347.07	30.03	-51.6	-54.1	6.1	0.00e+00	0	37	104	0	60	84847
2026-01-07 09:21:39.43	346.87	29.20	-51.6	-54.2	6.1	0.00e+00	0	36	104	0	60	85526
2026-01-07 09:21:42.47	346.67	28.40	-51.6	-54.1	6.1	0.00e+00	0	37	104	0	60	85188
2026-01-07 09:21:45.50	346.49	27.63	-51.6	-54.1	6.1	0.00e+00	0	36	104	0	60	84710
2026-01-07 09:21:48.53	346.32	26.88	-51.6	-54.1	6.1	0.00e+00	0	36	104	0	60	84917
2026-01-07 09:21:51.57	346.16	26.15	-51.6	-54.1	6.1	0.00e+00	0	37	104	0	60	84663
2026-01-07 09:21:54.60	346.00	25.45	-51.6	-54.1	6.1	0.00e+00	0	37	104	0	60	84664
2026-01-07 09:21:57.63	345.86	24.77	-51.6	-54.1	6.1	0.00e+00	0	37	104	0	60	85131
2026-01-07 09:22:00.66	345.72	24.11	-51.6	-54.1	6.1	0.00e+00	0	37	104	0	60	84721
2026-01-07 09:22:03.70	345.58	23.47	-51.6	-54.1	6.1	0.00e+00	0	37	104	0	60	85071
2026-01-07 09:22:06.73	345.46	22.85	-51.6	-54.1	6.1	0.00e+00	0	37	104	0	60	84800
2026-01-07 09:22:09.76	345.34	22.25	-51.6	-54.1	6.1	0.00e+00	0	36	104	0	60	84855
2026-01-07 09:22:12.80	345.22	21.66	-51.6	-54.1	6.1	0.00e+00	0	36	104	0	60	84916
2026-01-07 09:22:15.83	345.11	21.09	-51.6	-54.1	6.1	0.00e+00	0	37	104	0	60	84854
2026-01-07 09:22:18.86	345.01	20.54	-51.6	-54.1	6.1	0.00e+00	0	36	104	0	60	84824
2026-01-07 09:22:21.89	344.91	20.00	-51.6	-54.1	6.1	0.00e+00	0	37	104	0	60	84999
2026-01-07 09:22:24.93	344.81	19.47	-51.6	-54.1	6.1	0.00e+00	0	37	104	0	60	84638
2026-01-07 09:22:27.96	344.72	18.96	-51.6	-54.1	6.1	0.00e+00	0	36	104	0	60	84578
2026-01-07 09:22:30.99	344.63	18.46	-51.6	-54.1	6.1	0.00e+00	0	37	104	0	60	84651
2026-01-07 09:22:34.03	344.55	17.98	-51.6	-54.1	6.1	0.00e+00	0	36	104	0	60	84423
2026-01-07 09:22:37.06	344.47	17.50	-51.6	-54.1	6.1	0.00e+00	0	37	104	0	60	84706
2026-01-07 09:22:40.09	344.39	17.04	-51.6	-54.1	6.1	0.00e+00	0	37	104	0	60	84702
2026-01-07 09:22:43.13	344.32	16.59	-51.6	-54.1	6.1	0.00e+00	0	37	104	0	60	84458
2026-01-07 09:22:46.16	344.25	16.14	-51.6	-54.1	6.1	0.00e+00	0	37	104	0	60	84450
2026-01-07 09:22:49.19	344.18	15.71	-51.6	-54.1	6.1	0.00e+00	0	37	104	0	60	84602
2026-01-07 09:22:52.23	344.11	15.29	-51.6	-54.1	6.0	0.00e+00	0	37	104	0	60	84772
2026-01-07 09:22:55.26	344.05	14.88	-51.6	-54.1	6.1	0.00e+00	0	37	104	0	60	84901
2026-01-07 09:22:58.30	343.99	14.47	-51.6	-54.1	6.1	0.00e+00	0	37	104	0	60	85057
2026-01-07 09:23:01.32	343.93	14.08	-51.6	-54.1	6.1	0.00e+00	0	37	104	0	60	84938
2026-01-07 09:23:04.36	343.87	13.69	-51.6	-54.1	6.1	0.00e+00	0	37	104	0	60	84936
2026-01-07 09:23:07.39	343.82	13.31	-51.6	-54.1	6.1	0.00e+00	0	37	104	0	60	84788
2026-01-07 09:23:10.43	343.77	12.94	-51.6	-54.1	6.1	0.00e+00	0	37	104	0	60	84527
2026-01-07 09:23:13.46	343.72	12.57	-51.6	-54.1	6.1	0.00e+00	0	37	104	0	60	84945
2026-01-07 09:23:16.49	343.67	12.22	-51.6	-54.1	6.1	0.00e+00	0	37	104	0	60	84713
2026-01-07 09:23:19.52	343.62	11.87	-51.6	-54.1	6.1	0.00e+00	0	37	104	0	60	85052
2026-01-07 09:23:22.56	343.58	11.52	-51.6	-54.1	6.1	0.00e+00	0	37	104	0	60	84661
2026-01-07 09:23:25.59	343.53	11.18	-51.6	-54.2	6.1	0.00e+00	0	37	104	0	60	85312
2026-01-07 09:23:28.62	343.49	10.85	-51.6	-54.1	6.1	0.00e+00	0	37	104	0	60	84813
2026-01-07 09:23:31.65	343.45	10.52	-51.6	-54.1	6.1	0.00e+00	0	37	104	0	60	84692
2026-01-07 09:23:34.68	343.41	10.20	-51.6	-54.1	6.1	0.00e+00	0	37	104	0	60	84667
2026-01-07 09:23:37.72	343.37	9.89	-51.6	-54.1	6.1	0.00e+00	0	37	104	0	60	85196
2026-01-07 09:23:40.75	343.34	9.58	-51.6	-54.1	6.1	0.00e+00	0	37	104	0	60	85021
2026-01-07 09:23:43.78	343.30	9.27	-51.6	-54.1	6.1	0.00e+00	0	37	104	0	60	84795
2026-01-07 09:23:46.82	343.27	8.97	-51.6	-54.1	6.1	0.00e+00	0	36	104	0	60	84545
2026-01-07 09:23:49.85	343.24	8.68	-51.6	-54.1	6.1	0.00e+00	0	37	104	0	60	84468
2026-01-07 09:23:52.88	343.20	8.38	-51.6	-54.1	6.1	0.00e+00	0	37	104	0	60	84444
2026-01-07 09:23:55.91	343.17	8.10	-51.6	-54.1	6.1	0.00e+00	0	37	104	0	60	85033
2026-01-07 09:23:58.95	343.14	7.81	-51.6	-54.1	6.1	0.00e+00	0	37	104	0	60	84480
2026-01-07 09:24:01.98	343.11	7.54	-51.6	-54.1	6.1	0.00e+00	0	37	104	0	60	85003
2026-01-07 09:24:05.01	343.09	7.26	-51.6	-54.1	6.1	0.00e+00	0	37	104	0	60	84928
2026-01-07 09:24:08.04	343.06	6.99	-51.6	-54.1	6.1	0.00e+00	0	37	104	0	60	84912
2026-01-07 09:24:11.07	343.03	6.73	-51.6	-54.1	6.0	0.00e+00	0	37	104	0	60	85094
2026-01-07 09:24:14.11	343.01	6.46	-51.6	-54.1	6.1	0.00e+00	0	37	104	0	60	84490
2026-01-07 09:24:17.17	342.99	6.20	-51.6	-54.1	6.1	0.00e+00	0	37	104	0	60	84967
2026-01-07 09:24:20.49	342.96	5.92	-51.6	-54.1	6.1	0.00e+00	0	37	104	0	60	84451
2026-01-07 09:24:23.23	342.94	5.69	-51.6	-54.1	6.1	0.00e+00	0	37	104	0	60	84506
2026-01-07 09:24:26.55	342.92	5.42	-51.6	-54.1	6.1	0.00e+00	0	36	104	0	60	84879
2026-01-07 09:24:29.30	342.90	5.19	-51.6	-54.1	6.1	0.00e+00	0	37	104	0	60	84588
2026-01-07 09:24:32.62	342.87	4.93	-51.6	-54.1	6.1	0.00e+00	0	37	104	0	60	84821
2026-01-07 09:24:35.36	342.86	4.71	-51.6	-54.1	6.1	0.00e+00	0	37	104	0	60	85014
2026-01-07 09:24:38.68	342.84	4.45	-51.6	-54.1	6.1	0.00e+00	0	37	104	0	60	84936
2026-01-07 09:24:41.43	342.82	4.24	-51.6	-54.1	6.1	0.00e+00	0	37	104	0	60	84721
2026-01-07 09:24:44.75	342.80	3.98	-51.6	-54.1	6.1	0.00e+00	0	37	104	0	60	84826
2026-01-07 09:24:47.50	342.78	3.77	-51.6	-54.1	6.1	0.00e+00	0	37	104	0	60	84733
2026-01-07 09:24:50.82	342.77	3.52	-51.6	-54.1	6.1	0.00e+00	0	37	104	0	60	84814
2026-01-07 09:24:53.56	342.75	3.32	-51.6	-54.2	6.1	0.00e+00	0	37	104	0	60	85227
2026-01-07 09:24:56.88	342.74	3.08	-51.6	-54.1	6.1	0.00e+00	0	37	104	0	60	84584
2026-01-07 09:24:59.63	342.72	2.88	-51.6	-54.1	6.1	0.00e+00	0	37	104	0	60	84891
2026-01-07 09:25:02.95	342.71	2.64	-51.6	-54.1	6.1	0.00e+00	0	37	104	0	60	84951
2026-01-07 09:25:05.69	342.69	2.44	-51.6	-54.1	6.1	0.00e+00	0	37	104	0	60	84400
2026-01-07 09:25:09.02	342.68	2.21	-51.6	-54.1	6.1	0.00e+00	0	37	104	0	60	84659
2026-01-07 09:25:11.76	342.67	2.02	-51.6	-54.1	6.1	0.00e+00	0	37	104	0	60	84588
2026-01-07 09:25:15.08	342.65	1.79	-51.6	-54.1	6.1	0.00e+00	0	37	104	0	60	84767
2026-01-07 09:25:17.83	342.64	1.60	-51.6	-54.1	6.1	0.00e+00	0	37	104	0	60	84605
2026-01-07 09:25:21.14	342.63	1.38	-51.6	-54.1	6.1	0.00e+00	0	37	104	0	60	84835
2026-01-07 09:25:23.89	342.62	1.19	-51.6	-54.1	6.1	0.00e+00	0	37	104	0	60	84888
2026-01-07 09:25:27.21	342.61	0.97	-51.6	-54.1	6.1	0.00e+00	0	37	104	0	60	84705
2026-01-07 09:25:29.96	342.60	0.79	-51.6	-54.1	6.1	0.00e+00	0	37	104	0	60	84798
2026-01-07 09:25:33.28	342.59	0.57	-51.6	-54.1	6.1	0.00e+00	0	37	104	0	60	84662
2026-01-07 09:25:36.02	342.58	0.40	-51.6	-54.1	6.1	0.00e+00	0	36	104	0	60	84911
2026-01-07 09:25:39.35	342.57	0.18	-51.6	-54.1	6.1	0.00e+00	0	37	104	0	60	84724
2026-01-07 09:25:42.09	342.56	0.01	-51.6	-54.1	6.1	0.00e+00	0	37	104	0	60	85102

#Closed at: 2026-01-07 09:25:45
#Recorded file [0 MB]: D:/lorett/data/35034_260107_121434.dat