passes_logs/2026/01/07/R4.6S_Anadyr_2ch/R4.6S_Anadyr_2ch__20260107_010903_FENGYUN_3D_rec.log

#Pass ID: 20260107_010903_FENGYUN 3D
#Satellite: FENGYUN 3D
#Configuration: FENGYUN 3D
#almurnet v.1.7.20251203
#Start time: 2026-01-07 01:09:05

#Version: 2.2.20231116
#Station: R4.6S_Anadyr_2ch
#Location: 177.4865 lon 64.73178 lat
#TLE: 1 43010U 17072A   25350.96693137  .00000321  00000+0  17364-3 0  9993
#TLE: 2 43010  98.9888 317.3403 0001146 169.6565 190.4634 14.19686173419132

#Time	Az	El	Level	Level2	SNR	BER	BlckErr	Temp	State	Recorded	gain1	gain2
2026-01-07 01:09:05.39	129.40	0.13	-51.5	-66.6	3.5	1.51e+00	0	30	0	0	60	104582
2026-01-07 01:09:09.42	129.29	0.37	-51.4	-63.8	3.6	8.46e-01	0	31	104	0	60	75366
2026-01-07 01:09:13.44	129.19	0.61	-51.5	-63.9	3.6	8.45e-01	0	31	104	0	60	76578
2026-01-07 01:09:17.48	129.08	0.85	-51.6	-64.0	3.5	8.46e-01	0	31	104	0	60	77106
2026-01-07 01:09:21.51	128.97	1.09	-51.4	-63.7	3.6	8.44e-01	0	31	104	0	60	74765
2026-01-07 01:09:25.54	128.85	1.34	-50.6	-62.9	3.6	8.45e-01	0	31	104	0	60	68457
2026-01-07 01:09:29.58	128.74	1.59	-49.9	-62.4	3.6	8.44e-01	0	31	104	0	60	64315
2026-01-07 01:09:33.61	128.62	1.84	-49.9	-62.3	3.6	8.45e-01	0	31	104	0	60	63638
2026-01-07 01:09:37.65	128.50	2.09	-49.9	-62.3	3.6	8.45e-01	0	31	104	0	60	63729
2026-01-07 01:09:41.67	128.38	2.35	-49.9	-62.2	3.6	8.46e-01	0	31	104	0	60	62872
2026-01-07 01:09:45.71	128.26	2.60	-49.9	-62.1	3.6	8.46e-01	0	31	104	0	60	62334
2026-01-07 01:09:49.74	128.13	2.86	-49.9	-62.4	3.6	8.46e-01	0	31	104	0	60	63986
2026-01-07 01:09:53.77	128.01	3.12	-49.9	-62.1	3.6	8.45e-01	0	31	104	0	60	62168
2026-01-07 01:09:57.80	127.88	3.39	-49.8	-61.5	3.6	8.45e-01	0	31	104	0	60	57875
2026-01-07 01:10:01.84	127.74	3.65	-49.5	-58.4	3.8	8.42e-01	0	31	104	0	60	40398
2026-01-07 01:10:05.87	127.61	3.92	-45.7	-47.9	13.4	4.92e-05	0	31	102	1048576	60	12139
2026-01-07 01:10:09.90	127.47	4.19	-50.2	-62.3	3.6	8.45e-01	0	32	104	1048576	60	63819
2026-01-07 01:10:13.94	127.33	4.47	-41.0	-42.0	6.1	8.14e-01	0	32	104	1048576	60	6158
2026-01-07 01:10:17.97	127.18	4.75	-41.2	-42.3	19.2	0.00e+00	0	32	0	1048576	60	6334
2026-01-07 01:10:22.00	127.03	5.02	-39.4	-40.3	21.3	0.00e+00	0	32	101	1048576	58	5646
2026-01-07 01:10:26.03	126.88	5.31	-38.4	-39.2	22.4	0.00e+00	0	31	101	1048576	56	5579
2026-01-07 01:10:30.06	126.73	5.59	-38.0	-38.8	22.8	0.00e+00	0	32	101	1048576	54	5967
2026-01-07 01:10:34.09	126.57	5.88	-37.9	-38.7	22.9	0.00e+00	0	32	101	1048576	54	5935
2026-01-07 01:10:38.12	126.41	6.17	-37.8	-38.6	22.9	0.00e+00	0	32	101	1048576	54	5860
2026-01-07 01:10:42.16	126.25	6.46	-37.6	-38.3	23.2	0.00e+00	0	32	101	1048576	54	5687
2026-01-07 01:10:46.19	126.08	6.76	-37.5	-38.2	23.3	0.00e+00	0	32	101	1048576	54	5623
2026-01-07 01:10:50.21	125.91	7.06	-37.4	-38.1	23.5	0.00e+00	0	32	101	1048576	54	5543
2026-01-07 01:10:54.25	125.74	7.36	-37.5	-38.2	23.4	0.00e+00	0	32	101	1048576	54	5627
2026-01-07 01:10:58.27	125.56	7.67	-37.2	-38.0	23.6	0.00e+00	0	32	101	1048576	54	5466
2026-01-07 01:11:02.31	125.37	7.98	-37.3	-38.1	23.6	0.00e+00	0	32	101	1048576	54	5509
2026-01-07 01:11:06.34	125.19	8.29	-37.3	-38.1	23.7	0.00e+00	0	32	101	1048576	54	5507
2026-01-07 01:11:10.37	125.00	8.61	-37.4	-38.2	23.6	0.00e+00	0	32	101	1048576	54	5577
2026-01-07 01:11:14.40	124.80	8.93	-37.3	-38.0	23.8	0.00e+00	0	32	101	1048576	54	5488
2026-01-07 01:11:18.42	124.60	9.25	-37.3	-38.0	23.8	0.00e+00	0	32	101	1048576	54	5479
2026-01-07 01:11:22.46	124.39	9.58	-37.1	-37.8	24.0	0.00e+00	0	32	101	1048576	52	6030
2026-01-07 01:11:26.49	124.18	9.92	-37.1	-37.8	24.1	0.00e+00	0	32	101	1048576	52	6017
2026-01-07 01:11:30.51	123.97	10.25	-37.0	-37.8	24.1	0.00e+00	0	32	101	1048576	52	5965
2026-01-07 01:11:34.53	123.75	10.59	-36.9	-37.6	24.3	0.00e+00	0	32	101	1048576	52	5868
2026-01-07 01:11:38.56	123.52	10.94	-36.7	-37.4	24.5	0.00e+00	0	32	101	1048576	52	5726
2026-01-07 01:11:42.59	123.29	11.29	-36.6	-37.3	24.6	0.00e+00	0	32	101	1048576	52	5642
2026-01-07 01:11:46.62	123.05	11.64	-36.4	-37.1	24.8	0.00e+00	0	32	101	1048576	52	5559
2026-01-07 01:11:50.65	122.81	12.00	-36.4	-37.1	24.8	0.00e+00	0	32	101	1048576	52	5517
2026-01-07 01:11:54.68	122.56	12.37	-36.3	-37.0	25.0	0.00e+00	0	32	101	1048576	52	5456
2026-01-07 01:11:58.71	122.30	12.73	-36.3	-37.0	25.0	0.00e+00	0	32	101	1048576	52	5451
2026-01-07 01:12:02.74	122.04	13.11	-36.2	-36.9	25.1	0.00e+00	0	32	101	1048576	52	5423
2026-01-07 01:12:06.77	121.77	13.49	-36.0	-36.6	25.3	0.00e+00	0	32	101	1048576	50	5884
2026-01-07 01:12:10.79	121.49	13.87	-35.9	-36.5	25.3	0.00e+00	0	32	101	1048576	50	5824
2026-01-07 01:12:14.82	121.20	14.26	-35.9	-36.6	25.4	0.00e+00	0	32	101	1048576	50	5866
2026-01-07 01:12:18.85	120.91	14.66	-35.7	-36.4	25.5	0.00e+00	0	32	101	1048576	50	5739
2026-01-07 01:12:22.88	120.61	15.06	-35.5	-36.2	25.7	0.00e+00	0	32	101	1048576	50	5604
2026-01-07 01:12:26.91	120.30	15.46	-35.6	-36.3	25.5	0.00e+00	0	32	101	1048576	50	5670
2026-01-07 01:12:30.94	119.98	15.88	-35.4	-36.1	25.7	0.00e+00	0	32	101	1048576	50	5534
2026-01-07 01:12:34.97	119.65	16.29	-35.3	-35.9	25.8	0.00e+00	0	32	101	1048576	50	5436
2026-01-07 01:12:39.00	119.31	16.72	-35.1	-35.7	26.1	0.00e+00	0	32	101	1048576	48	5964
2026-01-07 01:12:43.02	118.96	17.15	-34.7	-35.4	26.4	0.00e+00	0	32	101	1048576	48	5701
2026-01-07 01:12:47.04	118.60	17.59	-34.7	-35.3	26.5	0.00e+00	0	32	101	1048576	48	5684
2026-01-07 01:12:51.07	118.23	18.03	-34.9	-35.6	26.3	0.00e+00	0	32	101	1048576	48	5844
2026-01-07 01:12:55.10	117.85	18.48	-34.8	-35.4	26.4	0.00e+00	0	32	101	1048576	48	5743
2026-01-07 01:12:59.13	117.46	18.94	-34.6	-35.3	26.6	0.00e+00	0	32	101	1048576	48	5639
2026-01-07 01:13:03.16	117.05	19.41	-34.4	-35.1	26.7	0.00e+00	0	32	101	1048576	48	5512
2026-01-07 01:13:07.18	116.63	19.88	-34.3	-34.9	26.9	0.00e+00	0	32	101	1048576	48	5408
2026-01-07 01:13:11.23	116.20	20.36	-34.3	-34.9	26.9	0.00e+00	0	32	101	1048576	48	5400
2026-01-07 01:13:15.27	115.75	20.85	-34.2	-34.8	27.0	0.00e+00	0	32	101	1048576	46	6015
2026-01-07 01:13:19.31	115.28	21.35	-34.1	-34.7	27.1	0.00e+00	0	32	101	1048576	46	5950
2026-01-07 01:13:23.36	114.80	21.86	-33.7	-34.3	27.4	0.00e+00	0	32	101	1048576	46	5648
2026-01-07 01:13:27.40	114.31	22.37	-33.8	-34.4	27.3	0.00e+00	0	32	101	1048576	46	5744
2026-01-07 01:13:31.45	113.80	22.89	-33.8	-34.4	27.3	0.00e+00	0	32	101	1048576	46	5755
2026-01-07 01:13:35.49	113.27	23.42	-33.9	-34.5	27.1	0.00e+00	0	32	101	1048576	46	5770
2026-01-07 01:13:39.53	112.72	23.96	-33.5	-34.1	27.5	0.00e+00	0	32	101	1048576	46	5536
2026-01-07 01:13:43.58	112.15	24.50	-33.5	-34.1	27.6	0.00e+00	0	32	101	1048576	46	5565
2026-01-07 01:13:47.62	111.56	25.06	-33.7	-34.3	27.3	0.00e+00	0	32	101	1048576	46	5691
2026-01-07 01:13:51.66	110.95	25.62	-33.2	-33.8	27.8	0.00e+00	0	32	101	1048576	46	5360
2026-01-07 01:13:55.71	110.31	26.19	-33.1	-33.7	27.9	0.00e+00	0	32	101	1048576	44	5930
2026-01-07 01:13:59.75	109.66	26.77	-32.9	-33.6	28.0	0.00e+00	0	32	101	1048576	44	5851
2026-01-07 01:14:03.79	108.97	27.35	-33.3	-33.9	27.7	0.00e+00	0	32	101	1048576	44	6088
2026-01-07 01:14:07.84	108.27	27.95	-33.0	-33.6	27.9	0.00e+00	0	32	101	1048576	44	5859
2026-01-07 01:14:11.88	107.53	28.55	-33.0	-33.6	28.0	0.00e+00	0	32	101	1048576	44	5892
2026-01-07 01:14:15.92	106.77	29.16	-33.0	-33.6	27.9	0.00e+00	0	32	101	1048576	44	5843
2026-01-07 01:14:19.97	105.97	29.78	-32.9	-33.5	28.0	0.00e+00	0	32	101	1048576	44	5784
2026-01-07 01:14:24.01	105.15	30.40	-32.8	-33.4	28.1	0.00e+00	0	32	101	1048576	44	5740
2026-01-07 01:14:28.05	104.29	31.04	-32.9	-33.5	28.0	0.00e+00	0	32	101	1048576	44	5827
2026-01-07 01:14:32.10	103.39	31.67	-32.6	-33.1	28.3	0.00e+00	0	32	101	1048576	44	5548
2026-01-07 01:14:36.14	102.46	32.32	-32.6	-33.2	28.3	0.00e+00	0	32	101	1048576	44	5569
2026-01-07 01:14:40.18	101.49	32.96	-32.6	-33.2	28.1	0.00e+00	0	32	101	1048576	44	5623
2026-01-07 01:14:44.23	100.48	33.62	-32.5	-33.2	28.3	0.00e+00	0	32	101	1048576	44	5570
2026-01-07 01:14:48.27	99.44	34.27	-32.3	-32.9	28.5	0.00e+00	0	32	101	1048576	44	5416
2026-01-07 01:14:52.32	98.34	34.93	-32.5	-33.1	28.3	0.00e+00	0	32	101	1048576	44	5546
2026-01-07 01:14:56.36	97.20	35.59	-32.5	-33.1	28.4	0.00e+00	0	32	101	1048576	44	5529
2026-01-07 01:15:00.40	96.02	36.25	-32.3	-32.9	28.5	0.00e+00	0	32	101	1048576	44	5424
2026-01-07 01:15:04.45	94.78	36.91	-32.2	-32.8	28.6	0.00e+00	0	32	101	1048576	44	5352
2026-01-07 01:15:08.49	93.49	37.56	-32.6	-33.2	28.4	0.00e+00	0	32	101	1048576	42	6256
2026-01-07 01:15:12.54	92.15	38.21	-32.4	-33.0	28.4	0.00e+00	0	32	101	1048576	42	6147
2026-01-07 01:15:16.58	90.76	38.86	-32.5	-33.1	28.4	0.00e+00	0	32	101	1048576	42	6218
2026-01-07 01:15:20.62	89.31	39.49	-32.6	-33.2	28.4	0.00e+00	0	32	101	1048576	42	6263
2026-01-07 01:15:24.66	87.80	40.12	-32.7	-33.3	28.2	0.00e+00	0	32	101	1048576	42	6353
2026-01-07 01:15:28.71	86.23	40.73	-32.7	-33.2	28.1	0.00e+00	0	32	101	1048576	42	6312
2026-01-07 01:15:32.75	84.61	41.33	-32.5	-33.1	28.4	0.00e+00	0	32	101	1048576	42	6233
2026-01-07 01:15:36.80	82.92	41.91	-32.5	-33.1	28.4	0.00e+00	0	32	101	1048576	42	6230
2026-01-07 01:15:40.84	81.17	42.47	-32.3	-32.9	28.5	0.00e+00	0	32	101	1048576	42	6056
2026-01-07 01:15:44.88	79.36	43.01	-32.3	-32.9	28.5	0.00e+00	0	32	101	1048576	42	6088
2026-01-07 01:15:48.93	77.49	43.52	-32.4	-33.0	28.6	0.00e+00	0	32	101	1048576	42	6113
2026-01-07 01:15:52.97	75.56	44.00	-32.0	-32.6	28.7	0.00e+00	0	32	101	1048576	42	5847
2026-01-07 01:15:57.01	73.58	44.45	-32.1	-32.7	28.8	0.00e+00	0	32	101	1048576	42	5918
2026-01-07 01:16:01.06	71.53	44.87	-32.5	-33.1	28.4	0.00e+00	0	32	101	1048576	42	6201
2026-01-07 01:16:05.10	69.44	45.24	-32.2	-32.8	28.6	0.00e+00	0	32	101	1048576	42	5965
2026-01-07 01:16:09.14	67.30	45.58	-32.4	-33.0	28.4	0.00e+00	0	32	101	1048576	42	6137
2026-01-07 01:16:13.19	65.11	45.88	-32.5	-33.1	28.5	0.00e+00	0	32	101	1048576	42	6197
2026-01-07 01:16:17.23	62.89	46.13	-32.6	-33.3	28.2	0.00e+00	0	32	101	1048576	42	6324
2026-01-07 01:16:21.27	60.64	46.33	-32.4	-33.0	28.5	0.00e+00	0	32	101	1048576	42	6149
2026-01-07 01:16:25.31	58.37	46.48	-32.1	-32.7	28.6	0.00e+00	0	32	101	1048576	42	5950
2026-01-07 01:16:29.35	56.07	46.58	-32.6	-33.2	28.4	0.00e+00	0	32	101	1048576	42	6272
2026-01-07 01:16:33.40	53.76	46.64	-32.3	-33.0	28.5	0.00e+00	0	32	101	1048576	42	6106
2026-01-07 01:16:37.44	51.44	46.64	-32.3	-32.9	28.5	0.00e+00	0	32	101	1048576	42	6080
2026-01-07 01:16:41.48	49.14	46.59	-32.2	-32.8	28.6	0.00e+00	0	32	101	1048576	42	5978
2026-01-07 01:16:45.53	46.83	46.49	-32.3	-32.9	28.6	0.00e+00	0	32	101	1048576	42	6036
2026-01-07 01:16:49.57	44.56	46.34	-32.4	-33.0	28.2	0.00e+00	0	32	101	1048576	42	6139
2026-01-07 01:16:53.61	42.31	46.14	-32.3	-33.0	28.5	0.00e+00	0	32	101	1048576	42	6104
2026-01-07 01:16:57.66	40.08	45.89	-32.4	-33.0	28.4	0.00e+00	0	32	101	1048576	42	6164
2026-01-07 01:17:01.69	37.90	45.60	-32.4	-33.0	28.5	0.00e+00	0	32	101	1048576	42	6166
2026-01-07 01:17:05.72	35.77	45.27	-32.1	-32.7	28.7	0.00e+00	0	32	101	1048576	42	5906
2026-01-07 01:17:09.75	33.68	44.89	-32.2	-32.7	28.7	0.00e+00	0	32	101	1048576	42	5957
2026-01-07 01:17:13.78	31.65	44.48	-32.2	-32.8	28.7	0.00e+00	0	32	101	1048576	42	5971
2026-01-07 01:17:17.81	29.67	44.04	-32.0	-32.6	28.7	0.00e+00	0	32	101	1048576	42	5850
2026-01-07 01:17:21.85	27.74	43.56	-32.0	-32.6	28.7	0.00e+00	0	32	101	1048576	42	5888
2026-01-07 01:17:25.87	25.88	43.06	-31.8	-32.4	28.8	0.00e+00	0	32	101	1048576	42	5754
2026-01-07 01:17:29.90	24.07	42.52	-31.9	-32.5	28.8	0.00e+00	0	32	101	1048576	42	5773
2026-01-07 01:17:33.92	22.33	41.97	-32.0	-32.5	28.8	0.00e+00	0	32	101	1048576	42	5825
2026-01-07 01:17:37.94	20.65	41.40	-31.7	-32.3	28.9	0.00e+00	0	32	101	1048576	42	5690
2026-01-07 01:17:41.98	19.02	40.80	-31.9	-32.5	28.9	0.00e+00	0	32	101	1048576	42	5794
2026-01-07 01:17:46.00	17.46	40.20	-31.8	-32.3	28.9	0.00e+00	0	32	101	1048576	42	5654
2026-01-07 01:17:50.04	15.95	39.57	-31.9	-32.6	29.0	0.00e+00	0	32	101	1048576	42	5832
2026-01-07 01:17:54.06	14.51	38.94	-32.3	-33.0	28.6	0.00e+00	0	32	101	1048576	42	6136
2026-01-07 01:17:58.10	13.11	38.30	-32.0	-32.6	28.8	0.00e+00	0	32	101	1048576	42	5831
2026-01-07 01:18:02.13	11.77	37.66	-31.9	-32.4	28.8	0.00e+00	0	32	101	1048576	42	5755
2026-01-07 01:18:06.16	10.49	37.01	-31.9	-32.4	28.8	0.00e+00	0	32	101	1048576	42	5706
2026-01-07 01:18:10.19	9.25	36.35	-31.7	-32.3	28.8	0.00e+00	0	32	101	1048576	42	5686
2026-01-07 01:18:14.22	8.07	35.70	-31.7	-32.3	28.8	0.00e+00	0	32	101	1048576	42	5640
2026-01-07 01:18:18.25	6.93	35.04	-31.8	-32.3	28.4	0.00e+00	0	32	101	1048576	42	5665
2026-01-07 01:18:22.28	5.84	34.39	-31.9	-32.4	28.7	0.00e+00	0	32	101	1048576	42	5728
2026-01-07 01:18:26.31	4.79	33.74	-31.9	-32.4	28.8	0.00e+00	0	32	101	1048576	42	5736
2026-01-07 01:18:30.34	3.78	33.09	-32.0	-32.5	28.6	0.00e+00	0	32	101	1048576	42	5811
2026-01-07 01:18:34.37	2.81	32.44	-31.9	-32.4	28.8	0.00e+00	0	32	101	1048576	42	5720
2026-01-07 01:18:38.40	1.89	31.80	-32.1	-32.8	28.6	0.00e+00	0	32	101	1048576	42	5994
2026-01-07 01:18:42.44	0.99	31.17	-32.0	-32.6	28.7	0.00e+00	0	32	101	1048576	42	5840
2026-01-07 01:18:46.46	0.13	30.54	-31.9	-32.4	28.8	0.00e+00	0	32	101	1048576	42	5723
2026-01-07 01:18:50.49	359.31	29.92	-31.9	-32.6	28.8	0.00e+00	0	32	101	1048576	42	5863
2026-01-07 01:18:54.52	358.51	29.31	-32.1	-32.8	28.6	0.00e+00	0	32	101	1048576	42	6000
2026-01-07 01:18:58.55	357.75	28.70	-32.6	-33.3	28.3	0.00e+00	0	32	101	1048576	42	6327
2026-01-07 01:19:02.59	357.01	28.10	-32.4	-33.1	28.4	0.00e+00	0	32	101	1048576	42	6203
2026-01-07 01:19:06.62	356.30	27.50	-32.3	-33.0	28.3	0.00e+00	0	32	101	1048576	42	6150
2026-01-07 01:19:10.65	355.62	26.92	-32.3	-32.8	28.5	0.00e+00	0	32	101	1048576	42	6011
2026-01-07 01:19:14.68	354.97	26.34	-32.6	-33.1	28.2	0.00e+00	0	32	101	1048576	42	6240
2026-01-07 01:19:18.70	354.33	25.78	-32.5	-33.2	28.3	0.00e+00	0	32	101	1048576	42	6262
2026-01-07 01:19:22.73	353.72	25.22	-32.6	-33.2	28.2	0.00e+00	0	32	101	1048576	42	6306
2026-01-07 01:19:26.76	353.13	24.66	-32.4	-33.0	28.3	0.00e+00	0	32	101	1048576	42	6105
2026-01-07 01:19:30.79	352.57	24.12	-32.5	-33.2	28.2	0.00e+00	0	32	101	1048576	42	6253
2026-01-07 01:19:34.82	352.02	23.59	-32.5	-33.2	28.2	0.00e+00	0	32	101	1048576	42	6287
2026-01-07 01:19:38.86	351.49	23.06	-32.7	-33.3	28.1	0.00e+00	0	32	101	1048576	42	6388
2026-01-07 01:19:42.89	350.97	22.54	-32.7	-33.2	28.1	0.00e+00	0	32	101	1048576	42	6298
2026-01-07 01:19:46.92	350.48	22.03	-32.9	-33.4	28.0	0.00e+00	0	32	101	1048576	42	6449
2026-01-07 01:19:50.95	350.00	21.52	-33.1	-33.6	27.8	0.00e+00	0	32	101	1048576	42	6598
2026-01-07 01:19:54.97	349.54	21.03	-33.1	-33.8	27.8	0.00e+00	0	32	101	1048576	44	5982
2026-01-07 01:19:59.00	349.09	20.54	-33.0	-33.6	27.8	0.00e+00	0	32	101	1048576	44	5848
2026-01-07 01:20:03.03	348.66	20.06	-33.1	-33.8	27.8	0.00e+00	0	32	101	1048576	44	5975
2026-01-07 01:20:07.07	348.24	19.58	-33.2	-33.8	27.6	0.00e+00	0	32	101	1048576	44	5980
2026-01-07 01:20:11.10	347.83	19.12	-33.5	-34.0	27.5	0.00e+00	0	32	101	1048576	44	6138
2026-01-07 01:20:15.12	347.44	18.66	-33.7	-34.3	27.3	0.00e+00	0	32	101	1048576	44	6335
2026-01-07 01:20:19.16	347.06	18.21	-33.9	-34.5	27.1	0.00e+00	0	32	101	1048576	44	6506
2026-01-07 01:20:23.18	346.69	17.76	-34.1	-34.8	26.8	0.00e+00	0	32	101	1048576	46	6029
2026-01-07 01:20:27.22	346.33	17.32	-34.0	-34.7	27.1	0.00e+00	0	32	101	1048576	46	5925
2026-01-07 01:20:31.24	345.98	16.89	-34.2	-34.9	26.8	0.00e+00	0	32	101	1048576	46	6065
2026-01-07 01:20:35.27	345.64	16.47	-34.4	-34.9	26.7	0.00e+00	0	32	101	1048576	46	6098
2026-01-07 01:20:39.29	345.31	16.05	-34.4	-35.1	26.7	0.00e+00	0	32	101	1048576	46	6174
2026-01-07 01:20:43.31	344.99	15.64	-34.6	-35.3	26.4	0.00e+00	0	32	101	1048576	46	6345
2026-01-07 01:20:47.35	344.68	15.23	-34.8	-35.5	26.3	0.00e+00	0	32	101	1048576	46	6538
2026-01-07 01:20:51.37	344.38	14.83	-35.2	-35.9	25.9	0.00e+00	0	32	101	1048576	48	6082
2026-01-07 01:20:55.40	344.09	14.43	-35.2	-36.0	25.9	0.00e+00	0	32	101	1048576	48	6111
2026-01-07 01:20:59.42	343.80	14.05	-35.5	-36.1	25.7	0.00e+00	0	32	101	1048576	48	6192
2026-01-07 01:21:03.46	343.52	13.66	-35.3	-35.9	25.7	0.00e+00	0	32	101	1048576	48	6091
2026-01-07 01:21:07.51	343.25	13.28	-35.3	-35.9	25.7	0.00e+00	0	32	101	1048576	48	6078
2026-01-07 01:21:11.55	342.99	12.90	-35.5	-36.2	25.7	0.00e+00	0	32	101	1048576	48	6290
2026-01-07 01:21:15.59	342.73	12.53	-35.4	-36.0	25.7	0.00e+00	0	32	101	1048576	48	6149
2026-01-07 01:21:19.64	342.48	12.17	-35.7	-36.3	25.4	0.00e+00	0	32	101	1048576	48	6349
2026-01-07 01:21:23.68	342.24	11.81	-35.8	-36.4	25.4	0.00e+00	0	32	101	1048576	48	6408
2026-01-07 01:21:27.72	342.00	11.45	-36.1	-36.8	25.1	0.00e+00	0	32	101	1048576	48	6726
2026-01-07 01:21:31.77	341.77	11.10	-36.2	-37.0	24.9	0.00e+00	0	32	101	1048576	50	6119
2026-01-07 01:21:35.81	341.55	10.76	-36.2	-36.8	24.8	0.00e+00	0	32	101	1048576	50	6028
2026-01-07 01:21:39.85	341.33	10.41	-36.3	-36.9	24.9	0.00e+00	0	32	101	1048576	50	6048
2026-01-07 01:21:43.90	341.11	10.07	-36.2	-36.8	24.9	0.00e+00	0	32	101	1048576	50	6021
2026-01-07 01:21:47.94	340.90	9.74	-36.3	-36.9	24.8	0.00e+00	0	32	101	1048576	50	6088
2026-01-07 01:21:51.98	340.70	9.41	-36.3	-36.9	24.8	0.00e+00	0	32	101	1048576	50	6060
2026-01-07 01:21:56.03	340.50	9.09	-36.4	-37.2	24.7	0.00e+00	0	32	101	1048576	50	6247
2026-01-07 01:22:00.07	340.30	8.76	-36.6	-37.3	24.4	0.00e+00	0	32	101	1048576	50	6318
2026-01-07 01:22:04.11	340.11	8.45	-36.7	-37.3	24.3	0.00e+00	0	32	101	1048576	50	6371
2026-01-07 01:22:08.16	339.93	8.13	-36.7	-37.4	24.3	0.00e+00	0	32	101	1048576	50	6408
2026-01-07 01:22:12.20	339.75	7.82	-36.9	-37.7	24.0	0.00e+00	0	32	101	1048576	50	6683
2026-01-07 01:22:16.24	339.57	7.51	-37.2	-37.9	23.9	0.00e+00	0	32	101	1048576	52	6073
2026-01-07 01:22:20.28	339.40	7.21	-37.2	-38.0	23.7	0.00e+00	0	32	101	1048576	52	6161
2026-01-07 01:22:24.32	339.23	6.91	-37.2	-37.9	23.8	0.00e+00	0	32	101	1048576	52	6085
2026-01-07 01:22:28.37	339.06	6.61	-37.4	-38.1	23.6	0.00e+00	0	32	101	1048576	52	6182
2026-01-07 01:22:32.41	338.90	6.32	-37.6	-38.4	23.3	0.00e+00	0	32	101	1048576	52	6429
2026-01-07 01:22:36.45	338.74	6.02	-37.4	-38.1	23.4	0.00e+00	0	32	101	1048576	52	6231
2026-01-07 01:22:40.49	338.59	5.74	-37.5	-38.2	23.2	0.00e+00	0	32	101	1048576	52	6302
2026-01-07 01:22:44.54	338.44	5.45	-37.6	-38.3	23.1	0.00e+00	0	32	101	1048576	52	6362
2026-01-07 01:22:48.58	338.29	5.17	-38.0	-38.8	22.4	0.00e+00	0	32	101	1048576	54	5979
2026-01-07 01:22:52.62	338.14	4.89	-38.9	-39.8	21.0	0.00e+00	0	32	101	1048576	54	6697
2026-01-07 01:22:56.66	338.00	4.61	-40.5	-41.7	18.6	0.00e+00	0	32	101	1048576	58	6655
2026-01-07 01:23:00.71	337.86	4.34	-42.4	-44.2	15.2	0.00e+00	0	32	101	1048576	60	7878
2026-01-07 01:23:04.75	337.73	4.07	-44.5	-47.5	10.7	1.01e-03	0	32	101	1048576	60	11563
2026-01-07 01:23:08.79	337.59	3.80	-45.9	-51.0	6.0	1.90e-01	0	32	101	1048576	60	17392
2026-01-07 01:23:12.84	337.46	3.53	-46.4	-55.8	3.7	8.38e-01	0	32	104	1048576	60	30237
2026-01-07 01:23:16.88	337.34	3.26	-46.5	-57.7	3.6	8.46e-01	0	32	104	1048576	60	37430
2026-01-07 01:23:20.92	337.21	3.00	-46.5	-58.7	3.6	8.45e-01	0	32	104	1048576	60	41955
2026-01-07 01:23:24.96	337.09	2.74	-46.5	-58.7	3.6	8.46e-01	0	32	104	1048576	60	41748
2026-01-07 01:23:29.01	336.97	2.49	-50.9	-63.2	3.6	8.45e-01	0	32	104	1048576	60	70100
2026-01-07 01:23:33.05	336.85	2.23	-51.4	-63.2	3.6	8.45e-01	0	32	104	1048576	60	70100
2026-01-07 01:23:37.10	336.73	1.98	-51.4	-63.9	3.6	8.46e-01	0	32	104	1048576	60	76141
2026-01-07 01:23:41.14	336.62	1.73	-51.5	-63.9	3.6	8.46e-01	0	33	104	1048576	60	76051
2026-01-07 01:23:45.18	336.51	1.48	-51.5	-63.9	3.6	8.45e-01	0	32	104	1048576	60	76136
2026-01-07 01:23:49.23	336.40	1.23	-51.5	-63.9	3.6	8.45e-01	0	32	104	1048576	60	76152
2026-01-07 01:23:53.27	336.29	0.98	-51.5	-63.9	3.6	8.45e-01	0	33	104	1048576	60	76079
2026-01-07 01:23:57.31	336.19	0.74	-51.5	-63.9	3.6	8.45e-01	0	33	104	1048576	60	76381
2026-01-07 01:24:01.35	336.08	0.50	-51.5	-63.9	3.6	8.46e-01	0	33	104	1048576	60	76137
2026-01-07 01:24:05.40	335.98	0.26	-51.5	-63.9	3.6	8.45e-01	0	33	104	1048576	60	76029
2026-01-07 01:24:09.44	335.88	0.02	-51.5	-63.9	3.6	8.45e-01	0	32	104	1048576	60	76044

#Closed at: 2026-01-07 01:24:10
#Recorded file [1 MB]: D:/lorett/data/35034_260107_040905.dat