passes_logs/2026/01/07/R4.6S_Anadyr_2ch/R4.6S_Anadyr_2ch__20260107_221925_TY-39_rec.log

#Pass ID: 20260107_221925_TY-39
#Satellite: TY-39
#Configuration: TY-39
#almurnet v.1.7.20251203
#Start time: 2026-01-07 22:19:31

#Version: 2.2.20231116
#Station: R4.6S_Anadyr_2ch
#Location: 177.4865 lon 64.73178 lat
#TLE: 1 51832U 22019J   25350.98409328  .00002071  00000-0  10077-3 0  9999
#TLE: 2 51832  97.3692  53.3782 0009735 139.3452 220.8512 15.19459940210129

#Time	Az	El	Level	Level2	SNR	BER	BlckErr	Temp	State	Recorded	gain1	gain2
2026-01-07 22:19:31.53	18.94	0.36	-52.0	-64.7	3.4	1.52e+00	0	33	0	0	60	81232
2026-01-07 22:19:34.56	19.04	0.55	-51.0	-53.4	3.6	0.00e+00	0	35	104	0	60	78490
2026-01-07 22:19:37.60	19.15	0.75	-51.0	-53.4	3.6	0.00e+00	0	35	104	0	60	78403
2026-01-07 22:19:40.63	19.26	0.94	-51.0	-53.4	3.6	0.00e+00	0	35	104	0	60	78319
2026-01-07 22:19:43.66	19.37	1.14	-51.0	-53.4	3.6	0.00e+00	0	35	104	0	60	78178
2026-01-07 22:19:46.69	19.49	1.34	-51.0	-53.4	3.6	0.00e+00	0	35	104	0	60	78323
2026-01-07 22:19:49.73	19.60	1.54	-51.0	-53.5	3.6	0.00e+00	0	35	104	0	60	78810
2026-01-07 22:19:52.76	19.72	1.75	-51.0	-53.4	3.6	0.00e+00	0	35	104	0	60	78530
2026-01-07 22:19:55.79	19.84	1.95	-51.0	-53.4	3.6	0.00e+00	0	35	104	0	60	78433
2026-01-07 22:19:58.82	19.96	2.16	-51.0	-53.4	3.6	0.00e+00	0	35	104	0	60	78519
2026-01-07 22:20:01.86	20.08	2.37	-51.0	-53.5	3.6	0.00e+00	0	35	104	0	60	78923
2026-01-07 22:20:04.89	20.21	2.58	-51.1	-53.6	3.6	0.00e+00	0	35	104	0	60	79776
2026-01-07 22:20:07.92	20.33	2.79	-51.1	-53.5	3.6	0.00e+00	0	36	104	0	60	79136
2026-01-07 22:20:10.95	20.46	3.00	-36.2	-36.5	11.6	0.00e+00	0	36	104	8388608	54	15719
2026-01-07 22:20:13.99	20.59	3.22	-32.8	-33.3	15.4	0.00e+00	0	36	0	8388608	46	17237
2026-01-07 22:20:17.02	20.73	3.44	-32.6	-33.0	15.6	0.00e+00	0	36	101	8388608	46	16786
2026-01-07 22:20:20.05	20.86	3.66	-32.6	-33.0	15.5	0.00e+00	0	36	101	8388608	46	16753
2026-01-07 22:20:23.09	21.00	3.88	-32.4	-32.8	15.6	0.00e+00	0	36	101	8388608	46	16366
2026-01-07 22:20:26.12	21.14	4.11	-32.3	-32.7	15.7	0.00e+00	0	36	101	8388608	46	16210
2026-01-07 22:20:29.15	21.28	4.34	-32.2	-32.6	15.8	0.00e+00	0	36	101	8388608	46	16030
2026-01-07 22:20:32.18	21.43	4.57	-32.3	-32.7	15.8	0.00e+00	0	36	101	8388608	46	16213
2026-01-07 22:20:35.22	21.58	4.80	-32.0	-32.5	15.8	0.00e+00	0	36	101	8388608	44	17661
2026-01-07 22:20:38.25	21.73	5.04	-32.0	-32.4	15.9	0.00e+00	0	36	101	8388608	44	17486
2026-01-07 22:20:41.28	21.88	5.28	-31.9	-32.3	15.9	0.00e+00	0	36	101	8388608	44	17392
2026-01-07 22:20:44.32	22.04	5.52	-31.6	-32.1	16.0	0.00e+00	0	37	101	8388608	44	16877
2026-01-07 22:20:47.35	22.20	5.76	-31.6	-32.1	16.0	0.00e+00	0	36	101	8388608	44	16816
2026-01-07 22:20:50.38	22.36	6.01	-31.4	-31.8	16.1	0.00e+00	0	36	101	8388608	44	16374
2026-01-07 22:20:53.42	22.53	6.26	-31.4	-31.9	16.1	0.00e+00	0	37	101	8388608	44	16428
2026-01-07 22:20:56.45	22.70	6.51	-31.2	-31.7	16.2	0.00e+00	0	37	101	8388608	44	16081
2026-01-07 22:20:59.48	22.87	6.77	-31.4	-31.8	16.1	0.00e+00	0	37	101	8388608	44	16337
2026-01-07 22:21:02.51	23.05	7.03	-31.0	-31.5	16.2	0.00e+00	0	37	101	8388608	42	17673
2026-01-07 22:21:05.54	23.23	7.29	-31.0	-31.5	16.1	0.00e+00	0	37	101	8388608	42	17662
2026-01-07 22:21:08.58	23.41	7.56	-30.9	-31.4	16.2	0.00e+00	0	37	101	8388608	42	17490
2026-01-07 22:21:11.61	23.60	7.83	-30.7	-31.1	16.3	0.00e+00	0	37	101	8388608	42	16988
2026-01-07 22:21:14.65	23.79	8.10	-30.6	-31.1	16.4	0.00e+00	0	37	101	8388608	42	16817
2026-01-07 22:21:17.68	23.99	8.38	-30.5	-31.0	16.3	0.00e+00	0	37	101	8388608	42	16656
2026-01-07 22:21:20.71	24.19	8.66	-30.6	-31.1	16.4	0.00e+00	0	37	101	8388608	42	16898
2026-01-07 22:21:23.74	24.39	8.95	-30.3	-30.7	16.4	0.00e+00	0	37	101	8388608	42	16221
2026-01-07 22:21:26.78	24.60	9.24	-30.2	-30.7	16.4	0.00e+00	0	37	101	8388608	42	16121
2026-01-07 22:21:29.81	24.82	9.53	-30.0	-30.5	16.4	0.00e+00	0	37	101	8388608	42	15790
2026-01-07 22:21:32.84	25.04	9.83	-30.1	-30.6	16.4	0.00e+00	0	37	101	8388608	40	17816
2026-01-07 22:21:35.87	25.26	10.13	-29.8	-30.3	16.5	0.00e+00	0	37	101	8388608	40	17329
2026-01-07 22:21:38.91	25.49	10.44	-29.7	-30.1	16.5	0.00e+00	0	37	101	8388608	40	17002
2026-01-07 22:21:41.94	25.73	10.75	-29.8	-30.2	16.5	0.00e+00	0	37	101	8388608	40	17163
2026-01-07 22:21:44.97	25.97	11.07	-29.5	-29.9	16.7	0.00e+00	0	37	101	8388608	40	16568
2026-01-07 22:21:48.01	26.22	11.39	-29.4	-29.8	16.6	0.00e+00	0	37	101	8388608	40	16396
2026-01-07 22:21:51.04	26.47	11.72	-29.3	-29.8	16.6	0.00e+00	0	37	101	8388608	40	16270
2026-01-07 22:21:54.07	26.74	12.06	-29.1	-29.6	16.7	0.00e+00	0	37	101	8388608	40	15928
2026-01-07 22:21:57.10	27.00	12.39	-29.2	-29.7	16.6	0.00e+00	0	37	101	8388608	40	16104
2026-01-07 22:22:00.14	27.28	12.74	-29.2	-29.7	16.6	0.00e+00	0	37	101	8388608	38	18059
2026-01-07 22:22:03.17	27.56	13.09	-28.8	-29.3	16.6	0.00e+00	0	37	101	8388608	38	17284
2026-01-07 22:22:06.20	27.85	13.45	-28.8	-29.2	16.7	0.00e+00	0	37	101	8388608	38	17176
2026-01-07 22:22:09.23	28.15	13.81	-28.7	-29.2	16.8	0.00e+00	0	37	101	8388608	38	17065
2026-01-07 22:22:12.27	28.46	14.18	-28.6	-29.1	16.7	0.00e+00	0	38	101	8388608	38	16859
2026-01-07 22:22:15.30	28.78	14.56	-28.4	-28.8	16.8	0.00e+00	0	38	101	8388608	38	16425
2026-01-07 22:22:18.33	29.10	14.94	-28.2	-28.7	16.9	0.00e+00	0	38	101	8388608	38	16138
2026-01-07 22:22:21.37	29.44	15.34	-28.0	-28.5	16.9	0.00e+00	0	38	101	8388608	38	15773
2026-01-07 22:22:24.40	29.79	15.74	-27.9	-28.4	17.0	0.00e+00	0	38	101	8388608	36	17442
2026-01-07 22:22:27.43	30.14	16.14	-28.0	-28.5	17.0	0.00e+00	0	38	101	8388608	36	17608
2026-01-07 22:22:30.47	30.51	16.56	-27.8	-28.3	16.9	0.00e+00	0	38	101	8388608	36	17202
2026-01-07 22:22:33.50	30.89	16.98	-27.4	-27.9	17.0	0.00e+00	0	38	101	8388608	36	16526
2026-01-07 22:22:36.53	31.28	17.41	-27.4	-27.8	17.0	0.00e+00	0	38	101	8388608	36	16423
2026-01-07 22:22:39.57	31.69	17.85	-27.2	-27.6	17.1	0.00e+00	0	38	101	8388608	36	16043
2026-01-07 22:22:42.60	32.11	18.30	-27.0	-27.5	17.0	0.00e+00	0	38	101	8388608	36	15804
2026-01-07 22:22:45.63	32.54	18.76	-26.9	-27.4	17.1	0.00e+00	0	38	101	8388608	34	17535
2026-01-07 22:22:48.66	32.99	19.23	-26.8	-27.3	17.0	0.00e+00	0	38	101	8388608	34	17207
2026-01-07 22:22:51.70	33.45	19.71	-26.8	-27.3	17.1	0.00e+00	0	38	101	8388608	34	17301
2026-01-07 22:22:54.73	33.93	20.20	-26.8	-27.3	17.1	0.00e+00	0	38	101	8388608	34	17277
2026-01-07 22:22:57.76	34.43	20.70	-26.7	-27.2	17.1	0.00e+00	0	38	101	8388608	34	17103
2026-01-07 22:23:00.79	34.94	21.21	-27.0	-27.4	17.0	0.00e+00	0	38	101	8388608	34	17534
2026-01-07 22:23:03.83	35.48	21.73	-26.3	-26.7	17.2	0.00e+00	0	38	101	8388608	34	16186
2026-01-07 22:23:06.86	36.04	22.26	-26.0	-26.5	17.2	0.00e+00	0	38	101	8388608	34	15702
2026-01-07 22:23:09.89	36.61	22.80	-26.2	-26.7	17.2	0.00e+00	0	38	101	8388608	32	18032
2026-01-07 22:23:12.93	37.21	23.36	-25.8	-26.3	17.0	0.00e+00	0	38	101	8388608	32	17248
2026-01-07 22:23:15.96	37.84	23.93	-25.6	-26.0	17.2	0.00e+00	0	38	101	8388608	32	16786
2026-01-07 22:23:18.99	38.49	24.51	-25.4	-25.8	17.2	0.00e+00	0	38	101	8388608	32	16376
2026-01-07 22:23:22.02	39.16	25.10	-25.3	-25.8	17.3	0.00e+00	0	38	101	8388608	32	16302
2026-01-07 22:23:25.06	39.87	25.70	-25.2	-25.7	17.3	0.00e+00	0	38	101	8388608	32	16099
2026-01-07 22:23:28.09	40.60	26.32	-24.9	-25.4	17.3	0.00e+00	0	38	101	8388608	30	17491
2026-01-07 22:23:31.12	41.37	26.95	-25.0	-25.4	17.3	0.00e+00	0	38	101	8388608	30	17522
2026-01-07 22:23:34.16	42.17	27.59	-24.8	-25.3	17.1	0.00e+00	0	38	101	8388608	30	17314
2026-01-07 22:23:37.19	43.01	28.25	-24.7	-25.2	17.4	0.00e+00	0	38	101	8388608	30	17101
2026-01-07 22:23:40.22	43.88	28.92	-24.6	-25.1	17.3	0.00e+00	0	38	101	8388608	30	16854
2026-01-07 22:23:43.25	44.80	29.60	-24.4	-24.8	17.3	0.00e+00	0	38	101	8388608	30	16395
2026-01-07 22:23:46.29	45.76	30.29	-24.3	-24.7	17.3	0.00e+00	0	38	101	8388608	30	16200
2026-01-07 22:23:49.32	46.76	31.00	-24.1	-24.6	17.4	0.00e+00	0	38	101	8388608	30	15981
2026-01-07 22:23:52.35	47.81	31.71	-23.9	-24.3	17.3	0.00e+00	0	38	101	8388608	28	17363
2026-01-07 22:23:55.39	48.91	32.44	-23.7	-24.2	17.4	0.00e+00	0	38	101	8388608	28	17083
2026-01-07 22:23:58.42	50.07	33.18	-23.7	-24.2	17.5	0.00e+00	0	38	101	8388608	28	17081
2026-01-07 22:24:01.45	51.28	33.92	-23.6	-24.0	17.5	0.00e+00	0	38	101	8388608	28	16799
2026-01-07 22:24:04.49	52.55	34.67	-23.5	-24.0	17.5	0.00e+00	0	38	101	8388608	28	16702
2026-01-07 22:24:07.52	53.89	35.43	-23.4	-23.9	17.4	0.00e+00	0	38	101	8388608	28	16529
2026-01-07 22:24:10.55	55.29	36.19	-23.2	-23.7	17.5	0.00e+00	0	38	101	8388608	28	16126
2026-01-07 22:24:13.58	56.76	36.95	-23.3	-23.7	17.4	0.00e+00	0	38	101	8388608	28	16211
2026-01-07 22:24:16.61	58.31	37.71	-23.2	-23.7	17.5	0.00e+00	0	38	101	8388608	26	18113
2026-01-07 22:24:19.65	59.93	38.48	-23.1	-23.5	17.4	0.00e+00	0	38	101	8388608	26	17789
2026-01-07 22:24:22.68	61.64	39.23	-22.9	-23.4	17.5	0.00e+00	0	38	101	8388608	26	17488
2026-01-07 22:24:25.71	63.43	39.97	-23.0	-23.5	17.5	0.00e+00	0	38	101	8388608	26	17647
2026-01-07 22:24:28.74	65.30	40.70	-22.8	-23.3	17.5	0.00e+00	0	38	101	8388608	26	17250
2026-01-07 22:24:31.77	67.26	41.41	-22.9	-23.4	17.5	0.00e+00	0	38	101	8388608	26	17436
2026-01-07 22:24:34.81	69.32	42.10	-22.8	-23.2	17.5	0.00e+00	0	38	101	8388608	26	17193
2026-01-07 22:24:37.84	71.47	42.76	-22.7	-23.2	17.4	0.00e+00	0	38	101	8388608	26	17040
2026-01-07 22:24:40.87	73.70	43.40	-22.6	-23.1	17.5	0.00e+00	0	38	101	8388608	26	16925
2026-01-07 22:24:43.90	76.03	43.99	-22.7	-23.1	17.4	0.00e+00	0	38	101	8388608	26	16929
2026-01-07 22:24:46.94	78.45	44.54	-22.6	-23.1	17.5	0.00e+00	0	38	101	8388608	26	16815
2026-01-07 22:24:49.97	80.94	45.04	-22.6	-23.1	17.5	0.00e+00	0	38	101	8388608	26	16884
2026-01-07 22:24:53.00	83.52	45.49	-22.6	-23.1	17.4	0.00e+00	0	38	101	8388608	26	16908
2026-01-07 22:24:56.04	86.18	45.89	-22.8	-23.2	17.4	0.00e+00	0	38	101	8388608	26	17195
2026-01-07 22:24:59.07	88.89	46.22	-22.8	-23.3	17.5	0.00e+00	0	38	101	8388608	26	17216
2026-01-07 22:25:02.10	91.65	46.48	-22.8	-23.3	17.5	0.00e+00	0	38	101	8388608	26	17244
2026-01-07 22:25:05.13	94.46	46.68	-22.8	-23.2	17.5	0.00e+00	0	38	101	8388608	26	17164
2026-01-07 22:25:08.17	97.30	46.80	-22.8	-23.3	17.5	0.00e+00	0	38	101	8388608	26	17329
2026-01-07 22:25:11.20	100.15	46.84	-23.0	-23.4	17.5	0.00e+00	0	38	101	8388608	26	17594
2026-01-07 22:25:14.23	103.01	46.82	-23.0	-23.5	17.5	0.00e+00	0	38	101	8388608	26	17611
2026-01-07 22:25:17.27	105.86	46.72	-23.1	-23.6	17.4	0.00e+00	0	38	101	8388608	26	17833
2026-01-07 22:25:20.30	108.67	46.54	-23.2	-23.7	17.5	0.00e+00	0	38	101	8388608	26	18087
2026-01-07 22:25:23.33	111.45	46.30	-23.2	-23.7	17.4	0.00e+00	0	38	101	8388608	26	18144
2026-01-07 22:25:26.36	114.18	45.99	-23.4	-23.9	17.4	0.00e+00	0	38	101	8388608	26	18531
2026-01-07 22:25:29.40	116.86	45.61	-23.5	-24.0	17.4	0.00e+00	0	38	101	8388608	26	18732
2026-01-07 22:25:32.43	119.45	45.17	-23.5	-24.0	17.5	0.00e+00	0	38	101	8388608	26	18700
2026-01-07 22:25:35.46	121.98	44.68	-23.6	-24.1	17.5	0.00e+00	0	38	101	8388608	26	18951
2026-01-07 22:25:38.50	124.42	44.14	-23.9	-24.4	17.4	0.00e+00	0	38	101	8388608	26	19542
2026-01-07 22:25:41.53	126.78	43.56	-23.9	-24.4	17.4	0.00e+00	0	38	101	8388608	26	19548
2026-01-07 22:25:44.57	129.05	42.94	-24.1	-24.5	17.4	0.00e+00	0	38	101	8388608	28	17781
2026-01-07 22:25:47.60	131.22	42.28	-24.2	-24.7	17.4	0.00e+00	0	38	101	8388608	28	18042
2026-01-07 22:25:50.63	133.30	41.60	-24.2	-24.7	17.4	0.00e+00	0	38	101	8388608	28	18117
2026-01-07 22:25:53.66	135.29	40.89	-24.4	-24.9	17.4	0.00e+00	0	38	101	8388608	28	18477
2026-01-07 22:25:56.69	137.19	40.16	-24.5	-25.0	17.3	0.00e+00	0	38	101	8388608	28	18713
2026-01-07 22:25:59.73	139.01	39.42	-24.6	-25.1	17.5	0.00e+00	0	38	101	8388608	28	18986
2026-01-07 22:26:02.76	140.74	38.67	-24.8	-25.3	17.3	0.00e+00	0	39	101	8388608	28	19440
2026-01-07 22:26:05.79	142.38	37.91	-25.1	-25.6	17.3	0.00e+00	0	38	101	8388608	28	20039
2026-01-07 22:26:08.83	143.96	37.14	-25.2	-25.7	17.3	0.00e+00	0	38	101	8388608	30	18084
2026-01-07 22:26:11.86	145.45	36.38	-25.3	-25.8	17.4	0.00e+00	0	38	101	8388608	30	18317
2026-01-07 22:26:14.89	146.87	35.61	-25.4	-25.9	17.3	0.00e+00	0	38	101	8388608	30	18436
2026-01-07 22:26:17.92	148.23	34.85	-25.5	-26.0	17.3	0.00e+00	0	38	101	8388608	30	18710
2026-01-07 22:26:20.96	149.52	34.10	-25.7	-26.2	17.3	0.00e+00	0	38	101	8388608	30	19185
2026-01-07 22:26:23.99	150.75	33.35	-25.8	-26.3	17.3	0.00e+00	0	39	101	8388608	30	19308
2026-01-07 22:26:27.02	151.92	32.61	-25.9	-26.4	17.3	0.00e+00	0	38	101	8388608	30	19593
2026-01-07 22:26:30.05	153.03	31.88	-26.1	-26.6	17.2	0.00e+00	0	38	101	8388608	32	17972
2026-01-07 22:26:33.09	154.10	31.15	-26.2	-26.7	17.2	0.00e+00	0	38	101	8388608	32	18055
2026-01-07 22:26:36.12	155.12	30.45	-26.4	-26.8	17.2	0.00e+00	0	39	101	8388608	32	18428
2026-01-07 22:26:39.15	156.09	29.75	-26.5	-27.0	17.3	0.00e+00	0	39	101	8388608	32	18698
2026-01-07 22:26:42.18	157.01	29.06	-26.7	-27.2	17.2	0.00e+00	0	38	101	8388608	32	19098
2026-01-07 22:26:45.22	157.90	28.39	-26.8	-27.2	17.2	0.00e+00	0	38	101	8388608	32	19265
2026-01-07 22:26:48.25	158.75	27.73	-26.8	-27.3	17.2	0.00e+00	0	38	101	8388608	32	19429
2026-01-07 22:26:51.28	159.56	27.08	-27.1	-27.6	17.2	0.00e+00	0	38	101	8388608	34	17889
2026-01-07 22:26:54.32	160.34	26.44	-27.2	-27.6	17.1	0.00e+00	0	39	101	8388608	34	17964
2026-01-07 22:26:57.35	161.08	25.82	-27.2	-27.7	17.1	0.00e+00	0	39	101	8388608	34	18111
2026-01-07 22:27:00.38	161.79	25.21	-27.4	-27.8	17.1	0.00e+00	0	39	101	8388608	34	18407
2026-01-07 22:27:03.42	162.48	24.61	-27.6	-28.1	17.1	0.00e+00	0	39	101	8388608	34	18895
2026-01-07 22:27:06.45	163.13	24.03	-27.8	-28.2	17.0	0.00e+00	0	39	101	8388608	34	19250
2026-01-07 22:27:09.48	163.76	23.46	-27.8	-28.3	17.1	0.00e+00	0	39	101	8388608	34	19308
2026-01-07 22:27:12.51	164.37	22.90	-28.0	-28.5	17.1	0.00e+00	0	39	101	8388608	34	19827
2026-01-07 22:27:15.54	164.95	22.35	-28.1	-28.6	17.0	0.00e+00	0	39	101	8388608	36	17830
2026-01-07 22:27:18.57	165.51	21.81	-28.4	-28.9	16.9	0.00e+00	0	39	101	8388608	36	18456
2026-01-07 22:27:21.61	166.05	21.29	-28.4	-28.8	16.9	0.00e+00	0	39	101	8388608	36	18411
2026-01-07 22:27:24.64	166.57	20.77	-28.5	-29.0	16.9	0.00e+00	0	39	101	8388608	36	18788
2026-01-07 22:27:27.68	167.08	20.27	-28.6	-29.1	16.9	0.00e+00	0	38	101	8388608	36	19000
2026-01-07 22:27:30.71	167.56	19.78	-28.8	-29.2	16.9	0.00e+00	0	39	101	8388608	36	19265
2026-01-07 22:27:33.74	168.03	19.29	-28.9	-29.3	16.9	0.00e+00	0	39	101	8388608	36	19513
2026-01-07 22:27:36.78	168.48	18.82	-29.0	-29.5	16.8	0.00e+00	0	39	101	8388608	38	17658
2026-01-07 22:27:39.81	168.92	18.36	-29.1	-29.6	16.8	0.00e+00	0	39	101	8388608	38	17886
2026-01-07 22:27:42.84	169.34	17.91	-29.2	-29.6	16.4	0.00e+00	0	39	101	8388608	38	17960
2026-01-07 22:27:45.87	169.75	17.46	-29.3	-29.7	16.5	0.00e+00	0	39	101	8388608	38	18187
2026-01-07 22:27:48.90	170.14	17.03	-51.8	-54.3	3.6	0.00e+00	0	38	104	8388608	60	86579
2026-01-07 22:27:51.94	170.52	16.60	-51.6	-54.2	3.6	0.00e+00	0	38	104	8388608	60	85310
2026-01-07 22:27:54.97	170.89	16.18	-51.7	-54.2	3.6	0.00e+00	0	38	104	8388608	60	85940
2026-01-07 22:27:58.00	171.25	15.77	-51.8	-54.3	3.6	0.00e+00	0	38	104	8388608	60	86466
2026-01-07 22:28:01.03	171.60	15.37	-51.8	-54.3	3.6	0.00e+00	0	38	104	8388608	60	86475
2026-01-07 22:28:04.07	171.94	14.97	-51.8	-54.3	3.6	0.00e+00	0	38	104	8388608	60	86539
2026-01-07 22:28:07.10	172.27	14.59	-51.8	-54.3	3.6	0.00e+00	0	38	104	8388608	60	86343
2026-01-07 22:28:10.13	172.58	14.21	-51.8	-54.3	3.6	0.00e+00	0	38	104	8388608	60	86441
2026-01-07 22:28:13.16	172.89	13.84	-51.7	-54.2	3.6	0.00e+00	0	38	104	8388608	60	85397
2026-01-07 22:28:16.20	173.19	13.47	-51.8	-54.3	3.6	0.00e+00	0	38	104	8388608	60	86375
2026-01-07 22:28:19.23	173.49	13.11	-51.7	-54.2	3.6	0.00e+00	0	38	104	8388608	60	85768
2026-01-07 22:28:22.26	173.77	12.76	-51.7	-54.2	3.6	0.00e+00	0	38	104	8388608	60	85683
2026-01-07 22:28:25.29	174.05	12.41	-51.5	-54.0	3.6	0.00e+00	0	38	104	8388608	60	84073
2026-01-07 22:28:28.33	174.32	12.07	-51.4	-54.0	3.6	0.00e+00	0	38	104	8388608	60	83612
2026-01-07 22:28:31.36	174.58	11.73	-51.5	-54.1	3.6	0.00e+00	0	38	104	8388608	60	84291
2026-01-07 22:28:34.39	174.83	11.40	-51.4	-54.0	3.5	0.00e+00	0	38	104	8388608	60	83773
2026-01-07 22:28:37.43	175.08	11.07	-51.6	-54.1	3.6	0.00e+00	0	38	104	8388608	60	84444
2026-01-07 22:28:40.46	175.32	10.76	-51.6	-54.1	3.6	0.00e+00	0	38	104	8388608	60	84990
2026-01-07 22:28:43.49	175.56	10.44	-51.6	-54.1	3.6	0.00e+00	0	38	104	8388608	60	84707
2026-01-07 22:28:46.52	175.79	10.13	-51.6	-54.1	3.6	0.00e+00	0	38	104	8388608	60	84461
2026-01-07 22:28:49.55	176.02	9.83	-51.5	-54.0	3.6	0.00e+00	0	38	104	8388608	60	84171
2026-01-07 22:28:52.59	176.24	9.53	-51.4	-53.9	3.6	0.00e+00	0	38	104	8388608	60	83123
2026-01-07 22:28:55.62	176.45	9.23	-51.4	-54.0	3.6	0.00e+00	0	38	104	8388608	60	83810
2026-01-07 22:28:58.65	176.66	8.94	-51.3	-53.8	3.6	0.00e+00	0	38	104	8388608	60	82058
2026-01-07 22:29:01.68	176.86	8.65	-51.3	-53.9	3.6	0.00e+00	0	38	104	8388608	60	82382
2026-01-07 22:29:04.72	177.06	8.37	-51.3	-53.8	3.6	0.00e+00	0	38	104	8388608	60	82095
2026-01-07 22:29:07.75	177.26	8.09	-51.4	-53.9	3.6	0.00e+00	0	38	104	8388608	60	83208
2026-01-07 22:29:10.78	177.45	7.81	-51.4	-53.9	3.6	0.00e+00	0	38	104	8388608	60	82877
2026-01-07 22:29:13.82	177.64	7.54	-51.4	-53.9	3.6	0.00e+00	0	38	104	8388608	60	83029
2026-01-07 22:29:16.85	177.82	7.27	-51.2	-53.7	3.6	0.00e+00	0	38	104	8388608	60	81280
2026-01-07 22:29:19.88	178.00	7.01	-50.9	-53.5	3.6	0.00e+00	0	38	104	8388608	60	79193
2026-01-07 22:29:22.92	178.18	6.75	-51.0	-53.6	3.6	0.00e+00	0	38	104	8388608	60	79988
2026-01-07 22:29:25.95	178.35	6.49	-51.2	-53.8	3.6	0.00e+00	0	38	104	8388608	60	81508
2026-01-07 22:29:28.98	178.52	6.23	-51.1	-53.5	3.6	0.00e+00	0	38	104	8388608	60	79155
2026-01-07 22:29:32.02	178.68	5.98	-51.3	-53.8	3.6	0.00e+00	0	38	104	8388608	60	82021
2026-01-07 22:29:35.05	178.84	5.73	-51.0	-53.5	3.6	0.00e+00	0	38	104	8388608	60	79076
2026-01-07 22:29:38.08	179.00	5.49	-51.2	-53.7	3.6	0.00e+00	0	38	104	8388608	60	81335
2026-01-07 22:29:41.11	179.16	5.25	-50.7	-53.3	3.6	0.00e+00	0	38	104	8388608	60	77218
2026-01-07 22:29:44.15	179.31	5.01	-50.6	-53.3	3.6	0.00e+00	0	38	104	8388608	60	76965
2026-01-07 22:29:47.18	179.46	4.77	-51.6	-54.1	3.6	0.00e+00	0	38	104	8388608	60	84693
2026-01-07 22:29:50.21	179.61	4.53	-52.2	-54.7	3.6	0.00e+00	0	38	104	8388608	60	90496
2026-01-07 22:29:53.24	179.75	4.30	-52.0	-54.5	3.6	0.00e+00	0	38	104	8388608	60	89170
2026-01-07 22:29:56.27	179.89	4.07	-52.2	-54.7	3.6	0.00e+00	0	38	104	8388608	60	90320
2026-01-07 22:29:59.31	180.03	3.85	-52.4	-54.9	3.5	0.00e+00	0	38	104	8388608	60	92742
2026-01-07 22:30:02.34	180.17	3.62	-52.4	-54.9	3.6	0.00e+00	0	38	104	8388608	60	92809
2026-01-07 22:30:05.37	180.30	3.40	-52.4	-54.9	3.6	0.00e+00	0	38	104	8388608	60	92445
2026-01-07 22:30:08.40	180.43	3.18	-52.4	-54.9	3.6	0.00e+00	0	38	104	8388608	60	92772
2026-01-07 22:30:11.43	180.56	2.96	-52.4	-54.9	3.6	0.00e+00	0	38	104	8388608	60	92725
2026-01-07 22:30:14.46	180.69	2.75	-52.4	-54.9	3.6	0.00e+00	0	38	104	8388608	60	92603
2026-01-07 22:30:17.50	180.81	2.53	-52.3	-54.8	3.6	0.00e+00	0	38	104	8388608	60	91954
2026-01-07 22:30:20.53	180.94	2.32	-52.3	-54.9	3.6	0.00e+00	0	38	104	8388608	60	92438
2026-01-07 22:30:23.56	181.06	2.11	-52.3	-54.8	3.6	0.00e+00	0	38	104	8388608	60	92135
2026-01-07 22:30:26.59	181.18	1.91	-52.3	-54.8	3.6	0.00e+00	0	38	104	8388608	60	92249
2026-01-07 22:30:29.62	181.29	1.70	-52.3	-54.9	3.6	0.00e+00	0	38	104	8388608	60	92408
2026-01-07 22:30:32.66	181.41	1.50	-52.3	-54.8	3.6	0.00e+00	0	38	104	8388608	60	92244
2026-01-07 22:30:35.69	181.52	1.29	-52.3	-54.8	3.6	0.00e+00	0	38	104	8388608	60	92129
2026-01-07 22:30:38.72	181.63	1.09	-52.3	-54.9	3.6	0.00e+00	0	38	104	8388608	60	92451
2026-01-07 22:30:41.76	181.74	0.89	-52.3	-54.8	3.6	0.00e+00	0	38	104	8388608	60	92060
2026-01-07 22:30:44.79	181.85	0.70	-52.3	-54.8	3.6	0.00e+00	0	38	104	8388608	60	91734
2026-01-07 22:30:47.82	181.96	0.50	-52.3	-54.8	3.6	0.00e+00	0	38	104	8388608	60	92238
2026-01-07 22:30:50.86	182.06	0.31	-52.3	-54.8	3.6	0.00e+00	0	38	104	8388608	60	92043
2026-01-07 22:30:53.89	182.17	0.12	-52.3	-54.8	3.6	0.00e+00	0	38	104	8388608	60	92149

#Closed at: 2026-01-07 22:30:56
#Recorded file [8 MB]: D:/lorett/data/35034_260108_011931.dat