passes_logs/2026/01/07/R4.6S_Anadyr_2ch/R4.6S_Anadyr_2ch__20260107_121346_SUOMI_NPP_rec.log

#Pass ID: 20260107_121346_SUOMI NPP
#Satellite: SUOMI NPP
#Configuration: NPP
#almurnet v.1.7.20251203
#Start time: 2026-01-07 12:13:46

#Version: 2.2.20231116
#Station: R4.6S_Anadyr_2ch
#Location: 177.4865 lon 64.73178 lat
#TLE: 1 37849U 11061A   25350.92281687  .00000071  00000+0  54882-4 0  9996
#TLE: 2 37849  98.7777 288.2268 0002366 112.8570 247.2856 14.19515404732588

#Time	Az	El	Level	Level2	SNR	BER	BlckErr	Temp	State	Recorded	gain1	gain2
2026-01-07 12:13:46.86	19.39	0.04	-51.9	-64.6	3.4	1.52e+00	0	32	0	0	60	80128
2026-01-07 12:13:50.90	19.72	0.22	-51.9	-67.3	3.6	1.51e+00	0	33	104	0	60	112750
2026-01-07 12:13:54.94	20.05	0.41	-51.8	-67.2	3.6	1.51e+00	0	33	104	0	60	112011
2026-01-07 12:13:58.99	20.38	0.60	-51.4	-66.7	3.6	1.51e+00	0	33	104	0	60	105631
2026-01-07 12:14:03.03	20.71	0.79	-50.3	-65.6	3.6	1.51e+00	0	33	104	0	60	93260
2026-01-07 12:14:07.08	21.05	0.98	-50.3	-65.6	3.6	1.51e+00	0	33	104	0	60	93294
2026-01-07 12:14:11.12	21.40	1.17	-50.3	-65.6	3.6	1.51e+00	0	34	104	0	60	92971
2026-01-07 12:14:15.16	21.75	1.37	-50.2	-65.6	3.6	1.51e+00	0	34	104	0	60	93021
2026-01-07 12:14:19.20	22.10	1.56	-50.2	-65.6	3.6	1.51e+00	0	34	104	0	60	93349
2026-01-07 12:14:23.25	22.46	1.75	-50.2	-65.6	3.6	1.51e+00	0	34	104	0	60	92704
2026-01-07 12:14:27.29	22.82	1.94	-50.2	-65.6	3.6	1.51e+00	0	34	104	0	60	92472
2026-01-07 12:14:31.34	23.18	2.14	-50.2	-65.6	3.6	1.51e+00	0	34	104	0	60	93147
2026-01-07 12:14:35.38	23.55	2.33	-50.2	-64.4	3.6	1.51e+00	0	34	104	0	60	80730
2026-01-07 12:14:39.42	23.93	2.52	-49.2	-55.4	8.6	1.92e-01	92	34	102	1048576	60	28589
2026-01-07 12:14:43.46	24.31	2.72	-44.2	-45.9	18.6	0.00e+00	0	34	102	1048576	60	9616
2026-01-07 12:14:47.51	24.69	2.91	-46.8	-49.8	14.5	0.00e+00	0	34	102	1048576	60	15023
2026-01-07 12:14:51.55	25.08	3.11	-49.7	-58.4	4.2	4.80e-05	72	34	102	1048576	60	40503
2026-01-07 12:14:55.60	25.48	3.30	-44.9	-46.7	18.2	0.00e+00	0	34	0	1048576	60	10571
2026-01-07 12:14:59.64	25.87	3.50	-44.2	-45.9	18.9	0.00e+00	0	34	0	1048576	60	9644
2026-01-07 12:15:03.69	26.28	3.69	-44.0	-45.6	19.1	0.00e+00	0	34	0	1048576	60	9275
2026-01-07 12:15:07.73	26.69	3.89	-43.8	-45.4	19.4	0.00e+00	54	34	0	1048576	60	9037
2026-01-07 12:15:11.78	27.10	4.09	-43.6	-45.1	19.6	0.00e+00	0	34	0	1048576	60	8787
2026-01-07 12:15:15.82	27.52	4.28	-43.4	-44.9	19.9	0.00e+00	0	34	101	1048576	60	8542
2026-01-07 12:15:19.86	27.95	4.48	-43.0	-44.3	20.4	0.00e+00	0	34	101	1048576	60	7979
2026-01-07 12:15:23.90	28.38	4.68	-43.0	-44.3	20.5	0.00e+00	92	34	101	1048576	60	8001
2026-01-07 12:15:27.95	28.82	4.88	-42.6	-43.9	20.7	0.00e+00	0	34	101	1048576	60	7623
2026-01-07 12:15:31.99	29.26	5.07	-42.5	-43.7	21.0	0.00e+00	0	34	101	1048576	60	7464
2026-01-07 12:15:36.03	29.70	5.27	-42.5	-43.7	21.0	0.00e+00	76	34	101	1048576	60	7445
2026-01-07 12:15:40.08	30.16	5.47	-42.5	-43.7	21.0	0.00e+00	0	34	101	1048576	60	7488
2026-01-07 12:15:44.12	30.62	5.67	-42.8	-44.1	20.4	0.00e+00	0	34	101	1048576	60	7792
2026-01-07 12:15:48.16	31.08	5.86	-42.8	-44.1	20.8	0.00e+00	0	34	101	1048576	60	7799
2026-01-07 12:15:52.21	31.56	6.06	-43.1	-44.4	20.7	0.00e+00	82	34	101	1048576	60	8120
2026-01-07 12:15:56.25	32.03	6.26	-43.0	-44.3	20.8	0.00e+00	0	34	101	1048576	60	7964
2026-01-07 12:16:00.29	32.52	6.46	-42.9	-44.2	20.8	0.00e+00	0	34	101	1048576	60	7868
2026-01-07 12:16:04.34	33.01	6.65	-42.6	-43.9	21.1	0.00e+00	0	34	101	1048576	60	7611
2026-01-07 12:16:08.38	33.50	6.85	-42.6	-43.8	21.1	0.00e+00	92	34	101	1048576	60	7573
2026-01-07 12:16:12.43	34.01	7.05	-42.4	-43.6	21.3	0.00e+00	0	34	101	1048576	60	7342
2026-01-07 12:16:16.47	34.52	7.24	-42.1	-43.2	21.7	0.00e+00	0	34	101	1048576	60	7074
2026-01-07 12:16:20.51	35.03	7.44	-42.0	-43.1	21.7	0.00e+00	47	34	101	1048576	60	6983
2026-01-07 12:16:24.56	35.56	7.63	-41.9	-43.1	21.9	0.00e+00	0	34	101	1048576	60	6948
2026-01-07 12:16:28.60	36.09	7.83	-41.4	-42.5	22.4	0.00e+00	0	34	101	1048576	60	6484
2026-01-07 12:16:32.64	36.62	8.02	-41.2	-42.3	22.5	0.00e+00	0	34	101	1048576	60	6325
2026-01-07 12:16:36.69	37.17	8.22	-41.6	-42.7	22.2	0.00e+00	92	34	101	1048576	60	6627
2026-01-07 12:16:40.73	37.72	8.41	-41.8	-42.9	21.9	0.00e+00	0	34	101	1048576	60	6792
2026-01-07 12:16:44.78	38.28	8.60	-41.6	-42.7	22.2	0.00e+00	0	34	101	1048576	60	6639
2026-01-07 12:16:48.82	38.84	8.79	-41.5	-42.5	22.4	0.00e+00	0	34	101	1048576	60	6508
2026-01-07 12:16:52.86	39.41	8.98	-41.9	-43.0	22.0	0.00e+00	50	34	101	1048576	60	6868
2026-01-07 12:16:56.91	39.99	9.17	-42.1	-43.2	21.8	0.00e+00	0	34	101	1048576	60	7064
2026-01-07 12:17:00.95	40.58	9.36	-41.9	-43.0	22.1	0.00e+00	0	34	101	1048576	60	6896
2026-01-07 12:17:05.00	41.17	9.55	-41.8	-42.9	22.1	0.00e+00	0	34	101	1048576	60	6838
2026-01-07 12:17:09.04	41.77	9.74	-41.9	-43.0	22.1	0.00e+00	0	34	101	1048576	60	6857
2026-01-07 12:17:13.09	42.38	9.92	-41.7	-42.8	22.3	0.00e+00	0	34	101	1048576	60	6727
2026-01-07 12:17:17.13	43.00	10.10	-42.0	-43.1	22.0	0.00e+00	9	34	101	1048576	60	6960
2026-01-07 12:17:21.17	43.62	10.29	-41.9	-43.0	22.1	0.00e+00	41	34	101	1048576	60	6863
2026-01-07 12:17:25.22	44.25	10.47	-41.9	-43.0	22.1	0.00e+00	0	34	101	1048576	60	6859
2026-01-07 12:17:29.26	44.89	10.64	-42.2	-43.3	21.8	0.00e+00	0	34	101	1048576	60	7137
2026-01-07 12:17:33.30	45.54	10.82	-42.2	-43.3	21.9	0.00e+00	0	34	101	1048576	60	7143
2026-01-07 12:17:37.35	46.19	10.99	-42.2	-43.3	21.8	0.00e+00	92	34	101	1048576	60	7169
2026-01-07 12:17:41.39	46.85	11.17	-42.3	-43.4	21.8	0.00e+00	0	34	101	1048576	60	7215
2026-01-07 12:17:45.44	47.52	11.34	-42.6	-43.8	21.5	0.00e+00	0	34	101	1048576	60	7534
2026-01-07 12:17:49.48	48.20	11.50	-43.2	-44.4	20.9	0.00e+00	20	34	101	1048576	60	8089
2026-01-07 12:17:53.52	48.88	11.67	-42.8	-44.0	21.4	0.00e+00	0	34	101	1048576	60	7756
2026-01-07 12:17:57.56	49.57	11.83	-43.4	-44.6	20.7	0.00e+00	0	34	101	1048576	60	8307
2026-01-07 12:18:01.61	50.27	11.99	-43.3	-44.5	20.9	0.00e+00	0	34	101	1048576	60	8184
2026-01-07 12:18:05.65	50.98	12.15	-43.1	-44.4	21.0	0.00e+00	37	34	101	1048576	60	8046
2026-01-07 12:18:09.70	51.69	12.30	-43.5	-44.8	20.7	0.00e+00	0	34	101	1048576	60	8452
2026-01-07 12:18:13.74	52.41	12.45	-43.0	-44.3	21.1	0.00e+00	0	34	101	1048576	60	7956
2026-01-07 12:18:17.78	53.14	12.60	-43.2	-44.4	21.0	0.00e+00	0	34	101	1048576	60	8074
2026-01-07 12:18:21.83	53.88	12.75	-43.3	-44.5	20.9	0.00e+00	91	34	101	1048576	60	8192
2026-01-07 12:18:25.87	54.62	12.89	-43.5	-44.8	20.6	0.00e+00	0	34	101	1048576	60	8441
2026-01-07 12:18:29.91	55.37	13.03	-43.1	-44.4	21.1	0.00e+00	0	35	101	1048576	60	8063
2026-01-07 12:18:33.96	56.12	13.16	-42.2	-43.3	22.0	0.00e+00	26	34	101	1048576	60	7147
2026-01-07 12:18:38.00	56.88	13.29	-41.5	-42.5	22.5	0.00e+00	0	35	101	1048576	60	6470
2026-01-07 12:18:42.05	57.65	13.42	-41.5	-42.5	22.6	0.00e+00	0	34	101	1048576	60	6522
2026-01-07 12:18:46.09	58.43	13.54	-41.9	-42.9	22.0	0.00e+00	0	34	101	1048576	60	6811
2026-01-07 12:18:50.13	59.21	13.66	-41.1	-42.0	22.9	0.00e+00	92	34	101	1048576	60	6173
2026-01-07 12:18:54.17	60.00	13.77	-41.5	-42.5	22.5	0.00e+00	0	34	101	1048576	60	6528
2026-01-07 12:18:58.22	60.79	13.88	-41.5	-42.5	22.7	0.00e+00	0	34	101	1048576	60	6505
2026-01-07 12:19:02.26	61.59	13.98	-41.5	-42.5	22.6	0.00e+00	27	34	101	1048576	60	6515
2026-01-07 12:19:06.31	62.39	14.08	-42.3	-43.4	21.9	0.00e+00	60	35	101	1048576	60	7171
2026-01-07 12:19:10.35	63.20	14.18	-42.0	-43.1	22.2	0.00e+00	0	35	101	1048576	60	6931
2026-01-07 12:19:14.40	64.02	14.27	-43.8	-45.1	20.3	0.00e+00	0	34	101	1048576	60	8809
2026-01-07 12:19:18.44	64.84	14.35	-42.2	-43.3	22.1	0.00e+00	21	34	101	1048576	60	7093
2026-01-07 12:19:22.48	65.66	14.43	-42.3	-43.4	21.9	0.00e+00	0	35	101	1048576	60	7202
2026-01-07 12:19:26.53	66.49	14.51	-41.9	-43.0	22.1	0.00e+00	0	34	101	1048576	60	6885
2026-01-07 12:19:30.57	67.32	14.58	-41.3	-42.2	22.8	0.00e+00	0	34	101	1048576	60	6312
2026-01-07 12:19:34.62	68.16	14.64	-41.3	-42.3	22.9	0.00e+00	90	34	101	1048576	60	6339
2026-01-07 12:19:38.66	68.99	14.70	-41.3	-42.3	22.7	0.00e+00	0	34	101	1048576	60	6388
2026-01-07 12:19:42.70	69.84	14.75	-41.9	-43.0	22.3	0.00e+00	0	35	101	1048576	60	6866
2026-01-07 12:19:46.75	70.68	14.80	-40.9	-41.8	23.1	0.00e+00	0	34	101	1048576	60	6017
2026-01-07 12:19:50.79	71.53	14.84	-42.1	-43.1	22.2	0.00e+00	92	34	101	1048576	60	6989
2026-01-07 12:19:54.84	72.38	14.88	-42.0	-43.0	22.1	0.00e+00	0	35	101	1048576	60	6902
2026-01-07 12:19:58.88	73.23	14.91	-41.8	-42.9	22.3	0.00e+00	0	34	101	1048576	60	6774
2026-01-07 12:20:02.93	74.08	14.93	-41.6	-42.6	22.6	0.00e+00	26	35	101	1048576	60	6574
2026-01-07 12:20:06.97	74.94	14.95	-42.0	-43.1	22.1	0.00e+00	0	34	101	1048576	60	6992
2026-01-07 12:20:11.01	75.79	14.96	-41.2	-42.1	23.0	0.00e+00	0	34	101	1048576	60	6219
2026-01-07 12:20:15.06	76.65	14.97	-41.4	-42.4	22.7	0.00e+00	0	35	101	1048576	60	6420
2026-01-07 12:20:19.10	77.50	14.97	-41.1	-42.1	23.0	0.00e+00	86	35	101	1048576	60	6176
2026-01-07 12:20:23.14	78.36	14.96	-41.2	-42.2	22.9	0.00e+00	0	34	101	1048576	60	6289
2026-01-07 12:20:27.19	79.22	14.95	-40.7	-41.6	23.4	0.00e+00	0	35	101	1048576	60	5844
2026-01-07 12:20:31.23	80.07	14.93	-40.4	-41.3	23.5	0.00e+00	0	34	101	1048576	60	5694
2026-01-07 12:20:35.27	80.92	14.91	-41.3	-42.2	22.8	0.00e+00	90	34	101	1048576	60	6312
2026-01-07 12:20:39.32	81.78	14.88	-41.4	-42.4	22.8	0.00e+00	0	35	101	1048576	60	6397
2026-01-07 12:20:43.36	82.63	14.85	-41.2	-42.2	22.9	0.00e+00	0	34	101	1048576	60	6311
2026-01-07 12:20:47.40	83.47	14.81	-41.6	-42.6	22.6	0.00e+00	21	35	101	1048576	60	6576
2026-01-07 12:20:51.44	84.32	14.76	-41.6	-42.7	22.6	0.00e+00	0	35	101	1048576	60	6629
2026-01-07 12:20:55.49	85.16	14.71	-41.1	-42.1	23.0	0.00e+00	0	35	101	1048576	60	6225
2026-01-07 12:20:59.53	86.00	14.65	-40.6	-41.5	23.3	0.00e+00	0	35	101	1048576	60	5808
2026-01-07 12:21:03.58	86.84	14.59	-40.0	-40.9	23.9	0.00e+00	92	35	101	1048576	58	6040
2026-01-07 12:21:07.62	87.68	14.52	-40.1	-41.0	23.8	0.00e+00	0	35	101	1048576	58	6157
2026-01-07 12:21:11.66	88.50	14.44	-40.0	-40.9	23.8	0.00e+00	0	35	101	1048576	58	6075
2026-01-07 12:21:15.71	89.33	14.36	-40.8	-41.8	23.1	0.00e+00	0	34	101	1048576	58	6711
2026-01-07 12:21:19.75	90.15	14.28	-40.8	-41.7	23.2	0.00e+00	92	34	101	1048576	58	6691
2026-01-07 12:21:23.80	90.97	14.19	-40.7	-41.6	23.2	0.00e+00	0	35	101	1048576	58	6585
2026-01-07 12:21:27.84	91.78	14.09	-40.0	-40.9	23.8	0.00e+00	0	34	101	1048576	58	6067
2026-01-07 12:21:31.88	92.59	13.99	-39.5	-40.3	24.0	0.00e+00	63	35	101	1048576	58	5689
2026-01-07 12:21:35.92	93.39	13.89	-39.8	-40.6	24.1	0.00e+00	0	34	101	1048576	58	5877
2026-01-07 12:21:39.97	94.18	13.78	-40.0	-40.8	23.6	0.00e+00	0	35	101	1048576	58	6023
2026-01-07 12:21:44.01	94.97	13.67	-40.4	-41.3	23.5	0.00e+00	0	34	101	1048576	58	6371
2026-01-07 12:21:48.05	95.76	13.55	-40.3	-41.2	23.6	0.00e+00	12	35	101	1048576	58	6279
2026-01-07 12:21:52.10	96.54	13.43	-40.2	-41.1	23.8	0.00e+00	0	34	101	1048576	58	6202
2026-01-07 12:21:56.14	97.31	13.30	-40.2	-41.1	23.7	0.00e+00	21	34	101	1048576	58	6191
2026-01-07 12:22:00.18	98.07	13.17	-40.2	-41.1	23.6	0.00e+00	0	34	101	1048576	58	6198
2026-01-07 12:22:04.23	98.83	13.04	-40.7	-41.6	23.2	0.00e+00	81	34	101	1048576	58	6585
2026-01-07 12:22:08.27	99.58	12.90	-41.3	-42.2	22.7	0.00e+00	0	34	101	1048576	60	6315
2026-01-07 12:22:12.31	100.33	12.76	-41.5	-42.5	22.5	0.00e+00	0	34	101	1048576	60	6478
2026-01-07 12:22:16.35	101.07	12.61	-42.2	-43.3	22.0	0.00e+00	63	34	101	1048576	60	7120
2026-01-07 12:22:20.40	101.80	12.46	-42.2	-43.3	21.9	0.00e+00	85	35	101	1048576	60	7118
2026-01-07 12:22:24.44	102.52	12.31	-42.9	-44.1	21.1	0.00e+00	0	34	101	1048576	60	7846
2026-01-07 12:22:28.49	103.24	12.16	-42.2	-43.3	21.9	0.00e+00	0	35	101	1048576	60	7152
2026-01-07 12:22:32.53	103.95	12.00	-41.6	-42.6	22.3	0.00e+00	28	34	101	1048576	60	6607
2026-01-07 12:22:36.57	104.65	11.84	-42.8	-44.0	21.4	0.00e+00	0	34	101	1048576	60	7704
2026-01-07 12:22:40.62	105.35	11.67	-43.4	-44.6	20.7	0.00e+00	0	35	101	1048576	60	8317
2026-01-07 12:22:44.66	106.03	11.51	-43.1	-44.4	20.9	0.00e+00	0	35	101	1048576	60	8051
2026-01-07 12:22:48.70	106.71	11.34	-41.9	-43.0	22.1	0.00e+00	92	35	101	1048576	60	6878
2026-01-07 12:22:52.75	107.38	11.17	-42.4	-43.5	21.6	0.00e+00	0	34	101	1048576	60	7333
2026-01-07 12:22:56.79	108.05	10.99	-42.3	-43.4	21.8	0.00e+00	0	35	101	1048576	60	7197
2026-01-07 12:23:00.84	108.71	10.82	-42.4	-43.5	21.8	0.00e+00	26	35	101	1048576	60	7287
2026-01-07 12:23:04.88	109.35	10.64	-42.9	-44.1	21.2	0.00e+00	0	35	101	1048576	60	7813
2026-01-07 12:23:08.92	110.00	10.46	-42.8	-44.0	21.2	0.00e+00	0	35	101	1048576	60	7705
2026-01-07 12:23:12.96	110.63	10.28	-42.4	-43.6	21.6	0.00e+00	0	35	101	1048576	60	7367
2026-01-07 12:23:17.01	111.26	10.10	-42.1	-43.2	21.9	0.00e+00	43	35	101	1048576	60	7028
2026-01-07 12:23:21.05	111.87	9.91	-41.8	-42.9	22.1	0.00e+00	0	35	101	1048576	60	6789
2026-01-07 12:23:25.10	112.49	9.73	-41.9	-43.0	22.0	0.00e+00	0	35	101	1048576	60	6852
2026-01-07 12:23:29.14	113.09	9.54	-41.9	-43.0	22.1	0.00e+00	0	35	101	1048576	60	6877
2026-01-07 12:23:33.18	113.69	9.35	-41.5	-42.5	22.4	0.00e+00	90	35	101	1048576	60	6538
2026-01-07 12:23:37.23	114.28	9.16	-41.8	-42.9	22.0	0.00e+00	0	35	101	1048576	60	6816
2026-01-07 12:23:41.27	114.86	8.97	-41.9	-43.0	21.9	0.00e+00	0	35	101	1048576	60	6901
2026-01-07 12:23:45.31	115.43	8.78	-41.5	-42.6	22.3	0.00e+00	23	35	101	1048576	60	6575
2026-01-07 12:23:49.35	116.00	8.59	-41.3	-42.4	22.5	0.00e+00	0	35	101	1048576	60	6394
2026-01-07 12:23:53.40	116.56	8.39	-41.7	-42.8	22.1	0.00e+00	0	35	101	1048576	60	6753
2026-01-07 12:23:57.44	117.11	8.20	-42.0	-43.2	21.8	0.00e+00	0	35	101	1048576	60	7019
2026-01-07 12:24:01.48	117.66	8.00	-42.0	-43.1	21.8	0.00e+00	91	35	101	1048576	60	6998
2026-01-07 12:24:05.53	118.20	7.81	-42.1	-43.2	21.6	0.00e+00	0	35	101	1048576	60	7051
2026-01-07 12:24:09.57	118.73	7.61	-42.2	-43.4	21.5	0.00e+00	0	35	101	1048576	60	7189
2026-01-07 12:24:13.62	119.25	7.41	-41.8	-42.8	22.0	0.00e+00	0	35	101	1048576	60	6761
2026-01-07 12:24:17.67	119.77	7.22	-42.1	-43.2	21.7	0.00e+00	92	35	101	1048576	60	7020
2026-01-07 12:24:21.71	120.28	7.02	-42.5	-43.6	21.3	0.00e+00	0	35	101	1048576	60	7412
2026-01-07 12:24:25.75	120.79	6.82	-42.3	-43.4	21.4	0.00e+00	0	35	101	1048576	60	7232
2026-01-07 12:24:29.79	121.29	6.62	-42.5	-43.7	21.2	0.00e+00	0	35	101	1048576	60	7460
2026-01-07 12:24:33.84	121.78	6.42	-43.0	-44.3	20.7	0.00e+00	90	35	101	1048576	60	7976
2026-01-07 12:24:37.88	122.26	6.22	-43.2	-44.6	20.3	0.00e+00	0	35	101	1048576	60	8259
2026-01-07 12:24:41.92	122.74	6.02	-43.2	-44.6	20.3	0.00e+00	0	35	101	1048576	60	8244
2026-01-07 12:24:45.97	123.22	5.82	-43.5	-45.0	20.0	0.00e+00	20	35	101	1048576	60	8654
2026-01-07 12:24:50.01	123.68	5.62	-43.9	-45.4	19.6	0.00e+00	92	35	101	1048576	60	9057
2026-01-07 12:24:54.05	124.14	5.43	-43.5	-44.9	20.1	0.00e+00	0	35	101	1048576	60	8570
2026-01-07 12:24:58.10	124.60	5.23	-43.0	-44.3	20.5	0.00e+00	0	35	101	1048576	60	8045
2026-01-07 12:25:02.14	125.05	5.03	-43.8	-45.3	19.6	0.00e+00	51	35	101	1048576	60	8973
2026-01-07 12:25:06.18	125.49	4.83	-45.1	-47.0	18.0	0.00e+00	0	35	101	1048576	60	10889
2026-01-07 12:25:10.23	125.93	4.63	-45.1	-46.9	18.0	0.00e+00	0	34	101	1048576	60	10846
2026-01-07 12:25:14.27	126.36	4.43	-44.3	-45.9	18.7	0.00e+00	0	35	101	1048576	60	9658
2026-01-07 12:25:18.32	126.78	4.23	-44.1	-45.7	19.0	0.00e+00	51	35	101	1048576	60	9421
2026-01-07 12:25:22.36	127.20	4.03	-44.2	-45.9	18.9	0.00e+00	0	35	101	1048576	60	9574
2026-01-07 12:25:26.40	127.62	3.83	-44.0	-45.7	19.0	0.00e+00	0	35	101	1048576	60	9352
2026-01-07 12:25:30.45	128.03	3.63	-43.8	-45.4	19.3	0.00e+00	0	35	101	1048576	60	9092
2026-01-07 12:25:34.49	128.43	3.44	-44.2	-45.9	18.5	0.00e+00	91	35	101	1048576	60	9604
2026-01-07 12:25:38.54	128.83	3.24	-44.9	-46.8	17.6	0.00e+00	0	35	101	1048576	60	10709
2026-01-07 12:25:42.58	129.23	3.04	-50.9	-66.4	3.6	1.51e+00	0	35	104	1048576	60	101313
2026-01-07 12:25:46.63	129.62	2.84	-51.7	-67.2	3.6	1.51e+00	0	35	104	1048576	60	111079
2026-01-07 12:25:50.67	130.00	2.65	-51.9	-67.4	3.6	1.51e+00	0	35	104	1048576	60	114316
2026-01-07 12:25:54.72	130.38	2.45	-51.9	-67.3	3.6	1.51e+00	0	35	104	1048576	60	112653
2026-01-07 12:25:58.76	130.75	2.25	-51.9	-67.3	3.6	1.51e+00	0	35	104	1048576	60	113365
2026-01-07 12:26:02.80	131.12	2.06	-51.9	-67.3	3.6	1.51e+00	0	35	104	1048576	60	112697
2026-01-07 12:26:06.84	131.49	1.86	-51.9	-67.2	3.6	1.51e+00	0	35	104	1048576	60	111979
2026-01-07 12:26:10.89	131.85	1.67	-51.9	-67.2	3.6	1.51e+00	0	35	104	1048576	60	112066
2026-01-07 12:26:14.93	132.20	1.48	-51.9	-67.3	3.6	1.51e+00	0	35	104	1048576	60	112497
2026-01-07 12:26:18.98	132.56	1.28	-51.9	-67.3	3.6	1.51e+00	0	35	104	1048576	60	112422
2026-01-07 12:26:23.02	132.90	1.09	-51.9	-67.3	3.6	1.51e+00	0	35	104	1048576	60	112948
2026-01-07 12:26:27.06	133.25	0.90	-51.9	-67.3	3.6	1.51e+00	0	35	104	1048576	60	112509
2026-01-07 12:26:31.10	133.58	0.70	-51.9	-67.2	3.6	1.51e+00	0	35	104	1048576	60	111698
2026-01-07 12:26:35.15	133.92	0.51	-51.9	-67.3	3.6	1.51e+00	0	35	104	1048576	60	113184
2026-01-07 12:26:39.19	134.25	0.32	-51.9	-67.3	3.6	1.51e+00	0	35	104	1048576	60	112493
2026-01-07 12:26:43.23	134.58	0.13	-51.9	-67.2	3.6	1.51e+00	0	35	104	1048576	60	111970
2026-01-07 12:26:47.28	134.90	-0.06	-51.9	-67.2	3.6	1.51e+00	0	35	104	1048576	60	111629

#Closed at: 2026-01-07 12:26:48
#Recorded file [1 MB]: D:/lorett/data/35034_260107_151346.dat