passes_logs/2026/01/07/R4.6S_Anadyr_2ch/R4.6S_Anadyr_2ch__20260107_165428_AQUA_rec.log

#Pass ID: 20260107_165428_AQUA
#Satellite: AQUA
#Configuration: AQUA
#almurnet v.1.7.20251203
#Start time: 2026-01-07 16:54:29

#Version: 2.2.20231116
#Station: R4.6S_Anadyr_2ch
#Location: 177.4865 lon 64.73178 lat
#TLE: 1 27424U 02022A   25351.00450321  .00000925  00000+0  19503-3 0  9992
#TLE: 2 27424  98.4041 311.9529 0001248 113.7180 322.1616 14.61819266256652

#Time	Az	El	Level	Level2	SNR	BER	BlckErr	Temp	State	Recorded	gain1	gain2
2026-01-07 16:54:29.66	20.45	0.08	-51.8	-63.7	3.5	8.46e-01	0	33	0	0	60	74668
2026-01-07 16:54:33.69	20.39	0.32	-52.2	-69.9	3.5	3.02e+01	0	34	104	0	60	162895
2026-01-07 16:54:37.74	20.34	0.58	-52.2	-70.0	3.5	3.02e+01	0	34	104	0	60	163580
2026-01-07 16:54:41.79	20.28	0.83	-52.2	-70.0	3.5	3.02e+01	0	34	104	0	60	164194
2026-01-07 16:54:45.83	20.22	1.08	-52.2	-69.9	3.5	3.02e+01	0	34	104	0	60	163214
2026-01-07 16:54:49.87	20.16	1.34	-52.2	-70.0	3.5	3.02e+01	0	34	104	0	60	163838
2026-01-07 16:54:53.92	20.09	1.60	-52.2	-70.0	3.5	3.02e+01	0	34	104	0	60	164077
2026-01-07 16:54:57.96	20.03	1.87	-52.2	-70.0	3.5	3.02e+01	0	34	104	0	60	164167
2026-01-07 16:55:02.00	19.96	2.13	-52.2	-70.0	3.5	3.02e+01	0	34	104	0	60	163594
2026-01-07 16:55:06.05	19.90	2.40	-52.2	-70.0	3.5	3.02e+01	0	34	104	0	60	164088
2026-01-07 16:55:10.09	19.83	2.67	-52.2	-70.0	3.5	3.02e+01	0	34	104	0	60	163866
2026-01-07 16:55:14.14	19.75	2.95	-52.2	-69.9	3.5	3.02e+01	0	34	104	0	60	163055
2026-01-07 16:55:18.18	19.68	3.22	-52.2	-70.0	3.5	3.02e+01	0	34	104	0	60	163483
2026-01-07 16:55:22.22	19.61	3.50	-52.2	-70.0	3.5	3.02e+01	0	34	104	0	60	163642
2026-01-07 16:55:26.27	19.53	3.79	-52.2	-70.0	3.5	3.02e+01	0	35	104	0	60	164184
2026-01-07 16:55:30.31	19.45	4.07	-52.3	-70.1	3.5	3.02e+01	0	35	104	0	60	166062
2026-01-07 16:55:34.36	19.37	4.36	-52.3	-70.1	3.5	3.02e+01	0	35	104	0	60	166967
2026-01-07 16:55:38.40	19.29	4.66	-52.1	-70.0	3.5	3.02e+01	0	35	104	0	60	164136
2026-01-07 16:55:42.44	19.20	4.95	-51.4	-69.4	3.5	3.02e+01	0	35	104	0	60	152562
2026-01-07 16:55:46.48	19.11	5.25	-50.9	-68.8	3.5	3.02e+01	0	35	104	0	60	143270
2026-01-07 16:55:50.53	19.02	5.56	-50.9	-68.8	3.5	3.02e+01	0	35	104	0	60	142276
2026-01-07 16:55:54.57	18.93	5.86	-50.9	-68.7	3.5	3.02e+01	0	35	104	0	60	141597
2026-01-07 16:55:58.61	18.83	6.18	-50.9	-68.5	3.5	3.02e+01	0	35	104	0	60	137827
2026-01-07 16:56:02.66	18.74	6.49	-50.9	-68.7	3.5	3.02e+01	0	35	104	0	60	141057
2026-01-07 16:56:06.70	18.64	6.81	-50.9	-68.7	3.5	3.02e+01	0	35	104	0	60	140783
2026-01-07 16:56:10.74	18.53	7.14	-50.8	-68.2	3.5	3.02e+01	0	35	104	0	60	133234
2026-01-07 16:56:14.79	18.43	7.47	-50.8	-68.0	3.5	3.02e+01	0	35	104	0	60	130742
2026-01-07 16:56:18.83	18.32	7.80	-50.7	-67.5	3.5	3.02e+01	0	35	104	0	60	123483
2026-01-07 16:56:22.88	18.20	8.14	-48.7	-61.8	3.5	3.02e+01	0	35	104	0	60	63866
2026-01-07 16:56:26.92	18.09	8.49	-48.9	-62.0	3.5	3.02e+01	0	35	104	0	60	65048
2026-01-07 16:56:30.96	17.97	8.83	-48.8	-61.7	3.5	3.02e+01	0	35	104	0	60	63359
2026-01-07 16:56:35.01	17.84	9.19	-42.0	-52.5	3.5	3.02e+01	0	35	104	0	60	21965
2026-01-07 16:56:39.05	17.72	9.55	-50.8	-67.6	3.5	3.02e+01	0	35	104	0	60	125002
2026-01-07 16:56:43.10	17.58	9.92	-41.0	-51.5	3.5	3.02e+01	0	35	104	0	60	19527
2026-01-07 16:56:47.14	17.45	10.29	-40.5	-50.9	3.5	3.02e+01	0	35	104	0	60	18168
2026-01-07 16:56:51.18	17.31	10.67	-41.1	-51.5	3.6	3.02e+01	0	35	104	0	60	19444
2026-01-07 16:56:55.23	17.17	11.05	-41.4	-51.9	3.5	3.02e+01	0	35	104	0	60	20343
2026-01-07 16:56:59.27	17.02	11.44	-49.4	-63.0	3.5	3.02e+01	0	35	104	0	60	73432
2026-01-07 16:57:03.32	16.86	11.84	-42.6	-53.2	3.5	3.02e+01	0	35	104	0	60	23751
2026-01-07 16:57:07.36	16.71	12.24	-44.7	-55.7	3.6	3.02e+01	0	35	104	0	60	31773
2026-01-07 16:57:11.41	16.54	12.66	-40.1	-50.4	3.5	3.02e+01	0	35	104	0	60	17159
2026-01-07 16:57:15.45	16.37	13.08	-51.2	-67.9	3.6	3.02e+01	0	35	104	0	60	129216
2026-01-07 16:57:19.49	16.20	13.50	-39.7	-50.1	3.5	3.02e+01	0	35	104	0	60	16525
2026-01-07 16:57:23.53	16.02	13.94	-49.1	-61.9	3.5	3.02e+01	0	35	104	0	60	64758
2026-01-07 16:57:27.58	15.83	14.39	-50.6	-66.0	3.5	3.02e+01	0	35	104	0	60	103958
2026-01-07 16:57:31.62	15.64	14.84	-51.3	-68.7	3.5	3.02e+01	0	35	104	0	60	142065
2026-01-07 16:57:35.67	15.43	15.30	-51.4	-69.2	3.5	3.02e+01	0	35	104	0	60	150322
2026-01-07 16:57:39.71	15.23	15.77	-51.4	-69.1	3.5	3.02e+01	0	35	104	0	60	148073
2026-01-07 16:57:43.75	15.01	16.26	-51.4	-69.3	3.5	3.02e+01	0	35	104	0	60	150896
2026-01-07 16:57:47.80	14.79	16.75	-51.4	-69.2	3.5	3.02e+01	0	35	104	0	60	149451
2026-01-07 16:57:51.84	14.55	17.25	-51.4	-69.3	3.5	3.02e+01	0	35	104	0	60	151735
2026-01-07 16:57:55.88	14.31	17.77	-51.4	-69.3	3.5	3.02e+01	0	35	104	0	60	151985
2026-01-07 16:57:59.93	14.06	18.29	-51.4	-69.3	3.5	3.02e+01	0	35	104	0	60	151555
2026-01-07 16:58:03.97	13.80	18.83	-51.4	-69.3	3.5	3.02e+01	0	35	104	0	60	151829
2026-01-07 16:58:08.02	13.53	19.38	-51.4	-69.3	3.5	3.02e+01	0	35	104	0	60	152119
2026-01-07 16:58:12.06	13.24	19.95	-51.4	-69.3	3.5	3.02e+01	0	35	104	0	60	151453
2026-01-07 16:58:16.10	12.95	20.52	-51.4	-69.3	3.5	3.02e+01	0	35	104	0	60	152046
2026-01-07 16:58:20.15	12.64	21.11	-51.4	-69.3	3.5	3.02e+01	0	35	104	0	60	151764
2026-01-07 16:58:24.19	12.32	21.72	-51.4	-69.4	3.5	3.02e+01	0	35	104	0	60	152387
2026-01-07 16:58:28.23	11.98	22.34	-51.4	-69.3	3.5	3.02e+01	0	35	104	0	60	152094
2026-01-07 16:58:32.27	11.63	22.97	-51.4	-69.3	3.5	3.02e+01	0	35	104	0	60	151543
2026-01-07 16:58:36.32	11.26	23.63	-51.4	-69.4	3.5	3.02e+01	0	35	104	0	60	152814
2026-01-07 16:58:40.36	10.88	24.30	-51.4	-69.4	3.5	3.02e+01	0	35	104	0	60	152817
2026-01-07 16:58:44.41	10.47	24.99	-51.4	-69.4	3.5	3.02e+01	0	35	104	0	60	152558
2026-01-07 16:58:48.45	10.05	25.69	-51.4	-69.3	3.5	3.02e+01	0	35	104	0	60	152065
2026-01-07 16:58:52.49	9.61	26.42	-51.4	-69.3	3.5	3.02e+01	0	35	104	0	60	151855
2026-01-07 16:58:56.54	9.14	27.16	-51.4	-69.3	3.5	3.02e+01	0	35	104	0	60	152134
2026-01-07 16:59:00.58	8.65	27.93	-51.4	-69.4	3.5	3.02e+01	0	35	104	0	60	152408
2026-01-07 16:59:04.62	8.14	28.71	-51.4	-69.4	3.5	3.02e+01	0	35	104	0	60	152996
2026-01-07 16:59:08.67	7.59	29.52	-51.4	-69.4	3.5	3.02e+01	0	35	104	0	60	152394
2026-01-07 16:59:12.71	7.02	30.35	-51.4	-69.3	3.5	3.02e+01	0	35	104	0	60	151581
2026-01-07 16:59:16.75	6.41	31.20	-51.4	-69.3	3.5	3.02e+01	0	35	104	0	60	151942
2026-01-07 16:59:20.79	5.77	32.07	-51.4	-69.3	3.5	3.02e+01	0	35	104	0	60	152157
2026-01-07 16:59:24.84	5.09	32.98	-51.4	-69.3	3.5	3.02e+01	0	35	104	0	60	152066
2026-01-07 16:59:28.88	4.37	33.90	-51.4	-69.4	3.5	3.02e+01	0	35	104	0	60	152545
2026-01-07 16:59:32.93	3.60	34.85	-51.4	-69.4	3.5	3.02e+01	0	35	104	0	60	152931
2026-01-07 16:59:36.97	2.78	35.82	-51.4	-69.3	3.5	3.02e+01	0	35	104	0	60	152106
2026-01-07 16:59:41.02	1.91	36.83	-51.4	-69.3	3.5	3.02e+01	0	35	104	0	60	151898
2026-01-07 16:59:45.06	0.99	37.85	-51.4	-69.3	3.5	3.02e+01	0	35	104	0	60	151592
2026-01-07 16:59:49.11	360.00	38.90	-51.4	-69.3	3.5	3.02e+01	0	35	104	0	60	151622
2026-01-07 16:59:53.15	358.94	39.98	-51.4	-69.3	3.5	3.02e+01	0	35	104	0	60	151969
2026-01-07 16:59:57.19	357.81	41.07	-51.4	-69.4	3.5	3.02e+01	0	35	104	0	60	152485
2026-01-07 17:00:01.24	356.59	42.20	-51.4	-69.4	3.5	3.02e+01	0	35	104	0	60	152815
2026-01-07 17:00:05.28	355.28	43.34	-51.4	-69.3	3.5	3.02e+01	0	35	104	0	60	151875
2026-01-07 17:00:09.32	353.87	44.50	-51.4	-69.3	3.5	3.02e+01	0	35	104	0	60	151561
2026-01-07 17:00:13.37	352.35	45.68	-51.4	-69.4	3.5	3.02e+01	0	35	104	0	60	152485
2026-01-07 17:00:17.41	350.71	46.86	-51.4	-69.3	3.5	3.02e+01	0	35	104	0	60	152025
2026-01-07 17:00:21.45	348.94	48.06	-51.4	-69.3	3.5	3.02e+01	0	35	104	0	60	151677
2026-01-07 17:00:25.50	347.02	49.26	-51.4	-69.3	3.5	3.02e+01	0	35	104	0	60	152024
2026-01-07 17:00:29.54	344.94	50.45	-51.4	-69.3	3.5	3.02e+01	0	35	104	0	60	151878
2026-01-07 17:00:33.59	342.69	51.64	-51.4	-69.4	3.5	3.02e+01	0	35	104	0	60	152774
2026-01-07 17:00:37.63	340.25	52.80	-51.4	-69.4	3.5	3.02e+01	0	35	104	0	60	152558
2026-01-07 17:00:41.67	337.61	53.94	-51.4	-69.4	3.5	3.02e+01	0	35	104	0	60	152350
2026-01-07 17:00:45.72	334.75	55.04	-51.4	-69.3	3.5	3.02e+01	0	35	104	0	60	151726
2026-01-07 17:00:49.76	331.67	56.08	-51.4	-69.3	3.5	3.02e+01	0	35	104	0	60	151520
2026-01-07 17:00:53.81	328.35	57.05	-51.4	-69.4	3.5	3.02e+01	0	35	104	0	60	152363
2026-01-07 17:00:57.85	324.80	57.94	-51.4	-69.3	3.5	3.02e+01	0	35	104	0	60	151938
2026-01-07 17:01:01.89	321.01	58.73	-51.4	-69.3	3.5	3.02e+01	0	35	104	0	60	152258
2026-01-07 17:01:05.94	317.00	59.41	-51.4	-69.3	3.5	3.02e+01	0	35	104	0	60	151864
2026-01-07 17:01:09.98	312.80	59.97	-51.4	-69.4	3.5	3.02e+01	0	35	104	0	60	152381
2026-01-07 17:01:14.03	308.43	60.38	-51.4	-69.3	3.5	3.02e+01	0	35	104	0	60	151535
2026-01-07 17:01:18.07	303.95	60.64	-51.4	-69.3	3.5	3.02e+01	0	35	104	0	60	151963
2026-01-07 17:01:22.11	299.40	60.75	-51.4	-69.4	3.5	3.02e+01	0	35	104	0	60	152683
2026-01-07 17:01:26.15	294.84	60.69	-51.4	-69.4	3.5	3.02e+01	0	35	104	0	60	152820
2026-01-07 17:01:30.20	290.32	60.48	-51.4	-69.4	3.5	3.02e+01	0	35	104	0	60	152859
2026-01-07 17:01:34.24	285.92	60.11	-51.4	-69.4	3.5	3.02e+01	0	35	104	0	60	152755
2026-01-07 17:01:38.29	281.65	59.60	-51.4	-69.4	3.5	3.02e+01	0	35	104	0	60	152649
2026-01-07 17:01:42.33	277.58	58.96	-51.4	-69.3	3.5	3.02e+01	0	35	104	0	60	152307
2026-01-07 17:01:46.37	273.72	58.20	-51.4	-69.3	3.5	3.02e+01	0	35	104	0	60	152118
2026-01-07 17:01:50.42	270.08	57.33	-51.4	-69.4	3.5	3.02e+01	0	35	104	0	60	152689
2026-01-07 17:01:54.46	266.68	56.38	-51.4	-69.4	3.5	3.02e+01	0	35	104	0	60	152566
2026-01-07 17:01:58.50	263.53	55.36	-51.4	-69.3	3.5	3.02e+01	0	35	104	0	60	152177
2026-01-07 17:02:02.54	260.60	54.28	-51.4	-69.4	3.5	3.02e+01	0	35	104	0	60	152473
2026-01-07 17:02:06.59	257.88	53.15	-51.4	-69.4	3.5	3.02e+01	0	35	104	0	60	152618
2026-01-07 17:02:10.63	255.38	51.99	-51.4	-69.4	3.5	3.02e+01	0	35	104	0	60	152583
2026-01-07 17:02:14.68	253.06	50.81	-51.4	-69.4	3.5	3.02e+01	0	35	104	0	60	152581
2026-01-07 17:02:18.72	250.93	49.61	-51.4	-69.4	3.5	3.02e+01	0	35	104	0	60	152665
2026-01-07 17:02:22.77	248.96	48.41	-51.4	-69.4	3.5	3.02e+01	0	35	104	0	60	152764
2026-01-07 17:02:26.81	247.14	47.21	-51.4	-69.4	3.5	3.02e+01	0	35	104	0	60	152914
2026-01-07 17:02:30.85	245.46	46.02	-51.4	-69.3	3.5	3.02e+01	0	35	104	0	60	152124
2026-01-07 17:02:34.90	243.89	44.83	-51.4	-69.4	3.5	3.02e+01	0	35	104	0	60	153119
2026-01-07 17:02:38.94	242.45	43.66	-51.4	-69.4	3.5	3.02e+01	0	35	104	0	60	152622
2026-01-07 17:02:42.98	241.11	42.51	-51.4	-69.3	3.5	3.02e+01	0	35	104	0	60	152276
2026-01-07 17:02:47.02	239.86	41.38	-51.4	-69.4	3.5	3.02e+01	0	35	104	0	60	152584
2026-01-07 17:02:51.06	238.70	40.27	-51.4	-69.4	3.5	3.02e+01	0	35	104	0	60	153375
2026-01-07 17:02:55.11	237.62	39.18	-51.4	-69.4	3.5	3.02e+01	0	35	104	0	60	152635
2026-01-07 17:02:59.15	236.60	38.12	-51.4	-69.3	3.5	3.02e+01	0	35	104	0	60	152011
2026-01-07 17:03:03.20	235.65	37.09	-51.4	-69.3	3.5	3.02e+01	0	35	104	0	60	152275
2026-01-07 17:03:07.24	234.77	36.08	-51.4	-69.4	3.5	3.02e+01	0	35	104	0	60	152884
2026-01-07 17:03:11.28	233.93	35.09	-51.4	-69.4	3.5	3.02e+01	0	35	104	0	60	152849
2026-01-07 17:03:15.33	233.15	34.13	-51.4	-69.4	3.5	3.02e+01	0	35	104	0	60	152525
2026-01-07 17:03:19.37	232.41	33.19	-51.4	-69.3	3.5	3.02e+01	0	35	104	0	60	152181
2026-01-07 17:03:23.42	231.72	32.28	-51.4	-69.4	3.5	3.02e+01	0	35	104	0	60	152492
2026-01-07 17:03:27.46	231.06	31.40	-51.4	-69.3	3.5	3.02e+01	0	35	104	0	60	152247
2026-01-07 17:03:31.51	230.44	30.53	-51.4	-69.4	3.5	3.02e+01	0	36	104	0	60	152377
2026-01-07 17:03:35.55	229.86	29.69	-51.4	-69.4	3.5	3.02e+01	0	35	104	0	60	152359
2026-01-07 17:03:39.60	229.30	28.88	-51.4	-69.4	3.5	3.02e+01	0	35	104	0	60	152838
2026-01-07 17:03:43.64	228.77	28.08	-51.4	-69.3	3.5	3.02e+01	0	35	104	0	60	152182
2026-01-07 17:03:47.69	228.27	27.31	-51.4	-69.3	3.5	3.02e+01	0	35	104	0	60	152273
2026-01-07 17:03:51.73	227.80	26.55	-51.4	-69.4	3.5	3.02e+01	0	35	104	0	60	152342
2026-01-07 17:03:55.77	227.34	25.82	-51.4	-69.4	3.5	3.02e+01	0	35	104	0	60	152638
2026-01-07 17:03:59.82	226.91	25.11	-51.4	-69.4	3.5	3.02e+01	0	35	104	0	60	152706
2026-01-07 17:04:03.86	226.50	24.41	-51.4	-69.4	3.5	3.02e+01	0	35	104	0	60	152679
2026-01-07 17:04:07.91	226.11	23.73	-51.4	-69.4	3.5	3.02e+01	0	35	104	0	60	152785
2026-01-07 17:04:11.95	225.74	23.08	-51.4	-69.4	3.5	3.02e+01	0	35	104	0	60	152632
2026-01-07 17:04:15.99	225.38	22.43	-51.4	-69.4	3.5	3.02e+01	0	35	104	0	60	152441
2026-01-07 17:04:20.03	225.04	21.81	-51.4	-69.3	3.5	3.02e+01	0	35	104	0	60	151940
2026-01-07 17:04:24.08	224.71	21.19	-51.4	-69.4	3.5	3.02e+01	0	35	104	0	60	152886
2026-01-07 17:04:28.12	224.39	20.60	-51.4	-69.4	3.5	3.02e+01	0	35	104	0	60	152509
2026-01-07 17:04:32.16	224.09	20.01	-51.4	-69.3	3.5	3.02e+01	0	35	104	0	60	152242
2026-01-07 17:04:36.20	223.80	19.45	-51.4	-69.4	3.5	3.02e+01	0	35	104	0	60	153232
2026-01-07 17:04:40.25	223.53	18.89	-51.4	-69.4	3.5	3.02e+01	0	35	104	0	60	152542
2026-01-07 17:04:44.29	223.26	18.35	-51.4	-69.3	3.5	3.02e+01	0	35	104	0	60	152125
2026-01-07 17:04:48.33	223.00	17.82	-51.4	-69.3	3.5	3.02e+01	0	35	104	0	60	151977
2026-01-07 17:04:52.38	222.76	17.30	-51.4	-69.4	3.5	3.02e+01	0	35	104	0	60	153343
2026-01-07 17:04:56.42	222.52	16.79	-51.4	-69.4	3.5	3.02e+01	0	36	104	0	60	152752
2026-01-07 17:05:00.46	222.29	16.29	-51.4	-69.4	3.5	3.02e+01	0	36	104	0	60	152445
2026-01-07 17:05:04.51	222.07	15.80	-51.4	-69.3	3.5	3.02e+01	0	35	104	0	60	152295
2026-01-07 17:05:08.55	221.85	15.33	-51.4	-69.3	3.5	3.02e+01	0	35	104	0	60	152182
2026-01-07 17:05:12.59	221.65	14.86	-51.4	-69.3	3.5	3.02e+01	0	35	104	0	60	152117
2026-01-07 17:05:16.64	221.45	14.40	-51.4	-69.4	3.5	3.02e+01	0	35	104	0	60	153311
2026-01-07 17:05:20.68	221.26	13.96	-51.4	-69.4	3.5	3.02e+01	0	35	104	0	60	152498
2026-01-07 17:05:24.73	221.07	13.52	-51.4	-69.4	3.5	3.02e+01	0	35	104	0	60	152813
2026-01-07 17:05:28.77	220.89	13.08	-51.4	-69.3	3.5	3.02e+01	0	36	104	0	60	152257
2026-01-07 17:05:32.81	220.72	12.66	-51.4	-69.4	3.5	3.02e+01	0	35	104	0	60	152825
2026-01-07 17:05:36.85	220.55	12.25	-51.4	-69.4	3.5	3.02e+01	0	35	104	0	60	153566
2026-01-07 17:05:40.90	220.39	11.84	-51.4	-69.4	3.5	3.02e+01	0	36	104	0	60	152673
2026-01-07 17:05:44.94	220.23	11.44	-51.4	-69.3	3.5	3.02e+01	0	35	104	0	60	151998
2026-01-07 17:05:48.98	220.08	11.04	-51.4	-69.4	3.5	3.02e+01	0	36	104	0	60	152370
2026-01-07 17:05:53.03	219.93	10.66	-51.4	-69.4	3.5	3.02e+01	0	36	104	0	60	152395
2026-01-07 17:05:57.07	219.79	10.28	-51.4	-69.4	3.5	3.02e+01	0	36	104	0	60	153362
2026-01-07 17:06:01.11	219.65	9.90	-51.4	-69.4	3.5	3.02e+01	0	36	104	0	60	152709
2026-01-07 17:06:05.16	219.52	9.53	-51.4	-69.3	3.6	3.02e+01	0	35	104	0	60	152132
2026-01-07 17:06:09.20	219.39	9.17	-51.4	-69.4	3.5	3.02e+01	0	36	104	0	60	153278
2026-01-07 17:06:13.24	219.26	8.81	-51.4	-69.4	3.5	3.02e+01	0	35	104	0	60	152637
2026-01-07 17:06:17.28	219.13	8.46	-51.4	-69.3	3.5	3.02e+01	0	36	104	0	60	151719
2026-01-07 17:06:21.33	219.01	8.12	-51.4	-69.4	3.5	3.02e+01	0	35	104	0	60	153090
2026-01-07 17:06:25.37	218.90	7.77	-51.4	-69.3	3.5	3.02e+01	0	36	104	0	60	152212
2026-01-07 17:06:29.42	218.78	7.44	-51.4	-69.4	3.5	3.02e+01	0	36	104	0	60	153860
2026-01-07 17:06:33.46	218.67	7.11	-51.4	-69.4	3.5	3.02e+01	0	36	104	0	60	152780
2026-01-07 17:06:37.50	218.57	6.78	-51.4	-69.4	3.5	3.02e+01	0	36	104	0	60	152335
2026-01-07 17:06:41.55	218.46	6.46	-51.4	-69.4	3.5	3.02e+01	0	36	104	0	60	153028
2026-01-07 17:06:45.59	218.36	6.14	-51.4	-69.4	3.5	3.02e+01	0	36	104	0	60	152975
2026-01-07 17:06:49.64	218.26	5.82	-51.4	-69.4	3.5	3.02e+01	0	36	104	0	60	152990
2026-01-07 17:06:53.68	218.16	5.51	-51.4	-69.4	3.5	3.02e+01	0	36	104	0	60	152707
2026-01-07 17:06:57.72	218.07	5.21	-51.4	-69.4	3.5	3.02e+01	0	36	104	0	60	152489
2026-01-07 17:07:01.77	217.98	4.91	-51.4	-69.4	3.5	3.02e+01	0	36	104	0	60	152824
2026-01-07 17:07:05.81	217.89	4.61	-51.4	-69.4	3.5	3.02e+01	0	36	104	0	60	152749
2026-01-07 17:07:09.85	217.80	4.31	-51.4	-69.4	3.5	3.02e+01	0	36	104	0	60	152499
2026-01-07 17:07:13.89	217.72	4.02	-51.4	-69.4	3.5	3.02e+01	0	36	104	0	60	152533
2026-01-07 17:07:17.94	217.63	3.73	-51.4	-69.4	3.5	3.02e+01	0	36	104	0	60	153127
2026-01-07 17:07:21.98	217.55	3.45	-51.4	-69.3	3.5	3.02e+01	0	35	104	0	60	152280
2026-01-07 17:07:26.02	217.47	3.17	-51.4	-69.4	3.5	3.02e+01	0	35	104	0	60	152802
2026-01-07 17:07:30.07	217.40	2.89	-51.4	-69.4	3.5	3.02e+01	0	36	104	0	60	153588
2026-01-07 17:07:34.11	217.32	2.61	-51.4	-69.4	3.5	3.02e+01	0	35	104	0	60	152414
2026-01-07 17:07:38.15	217.25	2.34	-51.4	-69.3	3.5	3.02e+01	0	36	104	0	60	152316
2026-01-07 17:07:42.19	217.18	2.07	-51.4	-69.4	3.5	3.02e+01	0	35	104	0	60	152632
2026-01-07 17:07:46.24	217.10	1.81	-51.4	-69.4	3.5	3.02e+01	0	36	104	0	60	153344
2026-01-07 17:07:50.28	217.04	1.54	-51.4	-69.4	3.5	3.02e+01	0	36	104	0	60	152761
2026-01-07 17:07:54.33	216.97	1.28	-51.4	-69.4	3.5	3.02e+01	0	36	104	0	60	152432
2026-01-07 17:07:58.37	216.90	1.02	-51.4	-69.4	3.5	3.02e+01	0	36	104	0	60	152840
2026-01-07 17:08:02.41	216.84	0.76	-51.4	-69.4	3.5	3.02e+01	0	36	104	0	60	152722
2026-01-07 17:08:06.46	216.78	0.51	-51.4	-69.4	3.5	3.02e+01	0	36	104	0	60	152466
2026-01-07 17:08:10.50	216.72	0.26	-51.4	-69.4	3.5	3.02e+01	0	35	104	0	60	152778
2026-01-07 17:08:14.55	216.66	0.01	-51.4	-69.4	3.5	3.02e+01	0	36	104	0	60	152989

#Closed at: 2026-01-07 17:08:15
#Recorded file [0 MB]: D:/lorett/data/35034_260107_195429.dat