passes_logs/2026/01/07/R4.6S_Anadyr_2ch/R4.6S_Anadyr_2ch__20260107_191425_NOAA_20_JPSS-1_rec.log

#Pass ID: 20260107_191425_NOAA 20 (JPSS-1)
#Satellite: NOAA 20 (JPSS-1)
#Configuration: NOAA 20
#almurnet v.1.7.20251203
#Start time: 2026-01-07 19:14:27

#Version: 2.2.20231116
#Station: R4.6S_Anadyr_2ch
#Location: 177.4865 lon 64.73178 lat
#TLE: 1 43013U 17073A   25350.93759711  .00000080  00000+0  58734-4 0  9994
#TLE: 2 43013  98.7603 287.1885 0002156  81.1496 278.9924 14.19526878418610

#Time	Az	El	Level	Level2	SNR	BER	BlckErr	Temp	State	Recorded	gain1	gain2
2026-01-07 19:14:27.24	50.40	0.08	-51.6	-67.0	3.5	1.51e+00	0	33	0	0	60	109135
2026-01-07 19:14:30.27	50.17	0.23	-51.6	-67.3	3.6	1.51e+00	0	34	104	0	60	112427
2026-01-07 19:14:33.30	49.94	0.38	-51.6	-67.3	3.6	1.51e+00	0	34	104	0	60	113205
2026-01-07 19:14:36.34	49.70	0.52	-51.6	-67.3	3.6	1.51e+00	0	34	104	0	60	112475
2026-01-07 19:14:39.37	49.47	0.67	-51.6	-67.3	3.6	1.51e+00	0	34	104	0	60	113272
2026-01-07 19:14:42.40	49.23	0.82	-51.6	-67.3	3.6	1.51e+00	0	34	104	0	60	113133
2026-01-07 19:14:45.43	48.99	0.97	-51.6	-67.3	3.6	1.51e+00	0	34	104	0	60	112923
2026-01-07 19:14:48.47	48.74	1.12	-51.6	-67.3	3.6	1.51e+00	0	34	104	0	60	112593
2026-01-07 19:14:51.50	48.49	1.27	-51.6	-67.3	3.6	1.51e+00	0	34	104	0	60	113076
2026-01-07 19:14:54.53	48.25	1.42	-51.6	-67.3	3.6	1.51e+00	0	34	104	0	60	112690
2026-01-07 19:14:57.56	47.99	1.56	-51.6	-67.3	3.6	1.51e+00	0	34	104	0	60	112518
2026-01-07 19:15:00.60	47.74	1.72	-51.6	-67.3	3.6	1.51e+00	0	35	104	0	60	112595
2026-01-07 19:15:03.63	47.48	1.87	-51.6	-67.3	3.6	1.51e+00	0	35	104	0	60	112461
2026-01-07 19:15:06.66	47.22	2.02	-51.6	-67.2	3.6	1.51e+00	0	35	104	0	60	112132
2026-01-07 19:15:09.69	46.96	2.17	-51.6	-67.3	3.6	1.51e+00	0	34	104	0	60	112756
2026-01-07 19:15:12.73	46.69	2.32	-51.6	-67.3	3.6	1.51e+00	0	35	104	0	60	112913
2026-01-07 19:15:15.76	46.43	2.47	-51.6	-67.3	3.6	1.51e+00	0	35	104	0	60	113060
2026-01-07 19:15:18.79	46.16	2.62	-51.6	-67.3	3.6	1.51e+00	0	35	104	0	60	112775
2026-01-07 19:15:21.83	45.88	2.77	-51.6	-67.3	3.6	1.51e+00	0	35	104	0	60	113000
2026-01-07 19:15:24.86	45.60	2.92	-51.6	-67.3	3.6	1.51e+00	0	35	104	0	60	112969
2026-01-07 19:15:27.89	45.32	3.07	-51.6	-67.3	3.6	1.51e+00	0	35	104	0	60	113175
2026-01-07 19:15:30.93	45.04	3.23	-51.6	-67.3	3.6	1.51e+00	0	35	104	0	60	113124
2026-01-07 19:15:33.96	44.76	3.38	-51.5	-67.3	3.6	1.51e+00	0	35	104	0	60	113436
2026-01-07 19:15:36.99	44.47	3.53	-51.6	-67.3	3.6	1.51e+00	0	35	104	0	60	112994
2026-01-07 19:15:40.02	44.17	3.68	-51.5	-67.3	3.6	1.51e+00	0	35	104	0	60	112820
2026-01-07 19:15:43.06	43.88	3.84	-51.6	-67.3	3.6	1.51e+00	0	35	104	0	60	112718
2026-01-07 19:15:46.09	43.58	3.99	-51.5	-67.3	3.6	1.51e+00	0	35	104	0	60	112471
2026-01-07 19:15:49.12	43.28	4.14	-51.6	-67.3	3.6	1.51e+00	0	35	104	0	60	112604
2026-01-07 19:15:52.16	42.97	4.30	-51.6	-67.4	3.6	1.51e+00	0	35	104	0	60	113691
2026-01-07 19:15:55.19	42.66	4.45	-51.6	-67.3	3.6	1.51e+00	0	35	104	0	60	112960
2026-01-07 19:15:58.22	42.35	4.60	-51.6	-67.3	3.6	1.51e+00	0	35	104	0	60	112948
2026-01-07 19:16:01.26	42.04	4.76	-51.6	-67.3	3.6	1.51e+00	0	35	104	0	60	113263
2026-01-07 19:16:04.29	41.72	4.91	-51.6	-67.3	3.6	1.51e+00	0	35	104	0	60	112832
2026-01-07 19:16:07.33	41.40	5.06	-51.6	-67.4	3.6	1.51e+00	0	35	104	0	60	113664
2026-01-07 19:16:10.36	41.07	5.22	-51.6	-67.3	3.6	1.51e+00	0	35	104	0	60	112786
2026-01-07 19:16:13.39	40.74	5.37	-51.6	-67.3	3.6	1.51e+00	0	35	104	0	60	112861
2026-01-07 19:16:16.42	40.41	5.52	-51.6	-67.3	3.6	1.51e+00	0	35	104	0	60	112962
2026-01-07 19:16:19.46	40.07	5.68	-51.6	-67.3	3.6	1.51e+00	0	35	104	0	60	113170
2026-01-07 19:16:22.49	39.73	5.83	-51.6	-67.3	3.6	1.51e+00	0	35	104	0	60	113426
2026-01-07 19:16:25.52	39.39	5.98	-51.6	-67.3	3.6	1.51e+00	0	35	104	0	60	112905
2026-01-07 19:16:28.55	39.04	6.14	-51.6	-67.3	3.6	1.51e+00	0	35	104	0	60	112524
2026-01-07 19:16:31.59	38.69	6.29	-51.6	-67.3	3.6	1.51e+00	0	35	104	0	60	112982
2026-01-07 19:16:34.62	38.34	6.44	-51.6	-67.3	3.6	1.51e+00	0	35	104	0	60	112962
2026-01-07 19:16:37.65	37.98	6.60	-51.6	-67.3	3.6	1.51e+00	0	35	104	0	60	113616
2026-01-07 19:16:40.69	37.62	6.75	-51.6	-67.3	3.6	1.51e+00	0	35	104	0	60	112626
2026-01-07 19:16:43.72	37.25	6.90	-51.6	-67.3	3.6	1.51e+00	0	35	104	0	60	113151
2026-01-07 19:16:46.75	36.88	7.05	-51.6	-67.3	3.6	1.51e+00	0	35	104	0	60	113130
2026-01-07 19:16:49.79	36.50	7.21	-51.6	-67.3	3.6	1.51e+00	0	35	104	0	60	112693
2026-01-07 19:16:52.82	36.13	7.36	-51.6	-67.3	3.6	1.51e+00	0	35	104	0	60	112984
2026-01-07 19:16:55.85	35.74	7.51	-51.6	-67.3	3.6	1.51e+00	0	35	104	0	60	113033
2026-01-07 19:16:58.88	35.36	7.66	-51.6	-67.3	3.6	1.51e+00	0	35	104	0	60	113077
2026-01-07 19:17:01.92	34.97	7.81	-51.6	-67.3	3.6	1.51e+00	0	35	104	0	60	112628
2026-01-07 19:17:04.95	34.57	7.96	-51.6	-67.3	3.6	1.51e+00	0	35	104	0	60	112791
2026-01-07 19:17:07.98	34.17	8.11	-51.6	-67.3	3.6	1.51e+00	0	35	104	0	60	113050
2026-01-07 19:17:11.01	33.77	8.26	-51.6	-67.3	3.6	1.51e+00	0	35	104	0	60	113391
2026-01-07 19:17:14.05	33.36	8.41	-51.6	-67.3	3.6	1.51e+00	0	35	104	0	60	112980
2026-01-07 19:17:17.08	32.95	8.56	-51.6	-67.3	3.6	1.51e+00	0	35	104	0	60	113490
2026-01-07 19:17:20.11	32.53	8.71	-51.6	-67.3	3.6	1.51e+00	0	35	104	0	60	113264
2026-01-07 19:17:23.14	32.11	8.85	-51.6	-67.3	3.6	1.51e+00	0	35	104	0	60	112878
2026-01-07 19:17:26.18	31.69	9.00	-51.6	-67.3	3.6	1.51e+00	0	35	104	0	60	112914
2026-01-07 19:17:29.21	31.26	9.15	-51.6	-67.3	3.6	1.51e+00	0	35	104	0	60	112592
2026-01-07 19:17:32.24	30.83	9.29	-51.6	-67.3	3.6	1.51e+00	0	35	104	0	60	112773
2026-01-07 19:17:35.28	30.39	9.44	-51.6	-67.3	3.6	1.51e+00	0	35	104	0	60	113102
2026-01-07 19:17:38.31	29.94	9.58	-51.6	-67.3	3.6	1.51e+00	0	35	104	0	60	113493
2026-01-07 19:17:41.34	29.50	9.72	-51.6	-67.3	3.6	1.51e+00	0	35	104	0	60	113590
2026-01-07 19:17:44.37	29.05	9.87	-51.6	-67.3	3.6	1.51e+00	0	35	104	0	60	113034
2026-01-07 19:17:47.41	28.59	10.01	-51.6	-67.3	3.6	1.51e+00	0	35	104	0	60	112895
2026-01-07 19:17:50.44	28.13	10.15	-51.6	-67.3	3.6	1.51e+00	0	35	104	0	60	113025
2026-01-07 19:17:53.47	27.67	10.29	-51.6	-67.3	3.6	1.51e+00	0	35	104	0	60	113065
2026-01-07 19:17:56.50	27.20	10.42	-51.6	-67.3	3.6	1.51e+00	0	35	104	0	60	112613
2026-01-07 19:17:59.54	26.72	10.56	-51.6	-67.3	3.6	1.51e+00	0	35	104	0	60	113159
2026-01-07 19:18:02.57	26.24	10.70	-51.6	-67.2	3.6	1.51e+00	0	35	104	0	60	112119
2026-01-07 19:18:05.60	25.76	10.83	-51.6	-67.3	3.6	1.51e+00	0	35	104	0	60	112829
2026-01-07 19:18:08.64	25.27	10.97	-51.6	-67.3	3.6	1.51e+00	0	35	104	0	60	112547
2026-01-07 19:18:11.67	24.78	11.10	-51.6	-67.3	3.6	1.51e+00	0	36	104	0	60	113350
2026-01-07 19:18:14.70	24.29	11.23	-51.6	-67.3	3.6	1.51e+00	0	35	104	0	60	113208
2026-01-07 19:18:17.73	23.79	11.36	-51.6	-67.3	3.6	1.51e+00	0	35	104	0	60	112870
2026-01-07 19:18:20.77	23.28	11.49	-51.6	-67.3	3.6	1.51e+00	0	35	104	0	60	112486
2026-01-07 19:18:23.80	22.77	11.61	-51.6	-67.3	3.6	1.51e+00	0	36	104	0	60	112417
2026-01-07 19:18:26.83	22.26	11.74	-51.6	-67.2	3.6	1.51e+00	0	36	104	0	60	112099
2026-01-07 19:18:29.87	21.74	11.86	-51.6	-67.4	3.6	1.51e+00	0	36	104	0	60	113772
2026-01-07 19:18:32.90	21.21	11.98	-51.6	-67.3	3.6	1.51e+00	0	35	104	0	60	113010
2026-01-07 19:18:35.93	20.69	12.10	-51.6	-67.3	3.6	1.51e+00	0	35	104	0	60	112859
2026-01-07 19:18:38.96	20.16	12.22	-51.6	-67.3	3.6	1.51e+00	0	35	104	0	60	112605
2026-01-07 19:18:42.00	19.62	12.33	-51.6	-67.3	3.6	1.51e+00	0	35	104	0	60	113375
2026-01-07 19:18:45.03	19.08	12.45	-51.6	-67.3	3.5	1.51e+00	0	36	104	0	60	112516
2026-01-07 19:18:48.06	18.54	12.56	-51.6	-67.3	3.6	1.51e+00	0	35	104	0	60	113315
2026-01-07 19:18:51.10	17.99	12.67	-51.6	-67.3	3.6	1.51e+00	0	35	104	0	60	112926
2026-01-07 19:18:54.13	17.43	12.78	-51.6	-67.3	3.6	1.51e+00	0	35	104	0	60	113110
2026-01-07 19:18:57.16	16.88	12.88	-51.6	-67.3	3.6	1.51e+00	0	35	104	0	60	112353
2026-01-07 19:19:00.20	16.32	12.98	-51.6	-67.3	3.6	1.51e+00	0	35	104	0	60	113233
2026-01-07 19:19:03.23	15.75	13.08	-51.6	-67.3	3.6	1.51e+00	0	36	104	0	60	113084
2026-01-07 19:19:06.26	15.18	13.18	-51.6	-67.3	3.6	1.51e+00	0	36	104	0	60	112853
2026-01-07 19:19:09.29	14.61	13.28	-51.6	-67.3	3.6	1.51e+00	0	35	104	0	60	112710
2026-01-07 19:19:12.32	14.04	13.37	-51.6	-67.3	3.5	1.51e+00	0	35	104	0	60	112975
2026-01-07 19:19:15.36	13.45	13.46	-51.6	-67.3	3.6	1.51e+00	0	35	104	0	60	112693
2026-01-07 19:19:18.39	12.87	13.55	-51.6	-67.3	3.6	1.51e+00	0	35	104	0	60	112666
2026-01-07 19:19:21.42	12.29	13.64	-51.6	-67.3	3.6	1.51e+00	0	36	104	0	60	112702
2026-01-07 19:19:24.45	11.70	13.72	-51.6	-67.3	3.6	1.51e+00	0	36	104	0	60	113013
2026-01-07 19:19:27.49	11.10	13.80	-51.6	-67.3	3.6	1.51e+00	0	36	104	0	60	112655
2026-01-07 19:19:30.52	10.50	13.88	-51.6	-67.3	3.6	1.51e+00	0	36	104	0	60	112521
2026-01-07 19:19:33.55	9.91	13.95	-51.6	-67.3	3.6	1.51e+00	0	36	104	0	60	112539
2026-01-07 19:19:36.58	9.30	14.02	-51.6	-67.3	3.6	1.51e+00	0	35	104	0	60	113554
2026-01-07 19:19:39.62	8.70	14.09	-51.6	-67.3	3.6	1.51e+00	0	36	104	0	60	112735
2026-01-07 19:19:42.65	8.09	14.16	-51.6	-67.3	3.6	1.51e+00	0	36	104	0	60	112773
2026-01-07 19:19:45.69	7.48	14.22	-51.6	-67.3	3.6	1.51e+00	0	36	104	0	60	113066
2026-01-07 19:19:48.72	6.86	14.28	-51.6	-67.3	3.6	1.51e+00	0	36	104	0	60	112409
2026-01-07 19:19:51.75	6.25	14.34	-51.6	-67.3	3.6	1.51e+00	0	36	104	0	60	112900
2026-01-07 19:19:54.79	5.63	14.39	-51.6	-67.3	3.6	1.51e+00	0	36	104	0	60	112452
2026-01-07 19:19:57.82	5.01	14.44	-51.6	-67.3	3.6	1.51e+00	0	36	104	0	60	113456
2026-01-07 19:20:00.85	4.39	14.49	-51.6	-67.2	3.6	1.51e+00	0	36	104	0	60	111869
2026-01-07 19:20:03.89	3.76	14.53	-51.6	-67.2	3.6	1.51e+00	0	36	104	0	60	112250
2026-01-07 19:20:06.92	3.13	14.57	-51.6	-67.3	3.6	1.51e+00	0	36	104	0	60	112792
2026-01-07 19:20:09.95	2.51	14.61	-51.6	-67.4	3.6	1.51e+00	0	36	104	0	60	113678
2026-01-07 19:20:12.98	1.88	14.64	-51.6	-67.3	3.6	1.51e+00	0	36	104	0	60	112642
2026-01-07 19:20:16.01	1.25	14.67	-51.6	-67.3	3.6	1.51e+00	0	36	104	0	60	112471
2026-01-07 19:20:19.05	0.61	14.70	-51.6	-67.3	3.5	1.51e+00	0	36	104	0	60	112976
2026-01-07 19:20:22.08	359.98	14.72	-51.6	-67.2	3.6	1.51e+00	0	36	104	0	60	112205
2026-01-07 19:20:25.11	359.35	14.74	-51.6	-67.3	3.6	1.51e+00	0	36	104	0	60	112619
2026-01-07 19:20:28.14	358.71	14.75	-51.6	-67.2	3.6	1.51e+00	0	36	104	0	60	111964
2026-01-07 19:20:31.18	358.08	14.77	-51.6	-67.3	3.6	1.51e+00	0	36	104	0	60	112927
2026-01-07 19:20:34.21	357.44	14.77	-51.6	-67.3	3.6	1.51e+00	0	36	104	0	60	112550
2026-01-07 19:20:37.25	356.81	14.78	-51.6	-67.2	3.6	1.51e+00	0	36	104	0	60	112331
2026-01-07 19:20:40.28	356.17	14.78	-51.6	-67.3	3.6	1.51e+00	0	36	104	0	60	113286
2026-01-07 19:20:43.31	355.53	14.78	-51.6	-67.3	3.6	1.51e+00	0	36	104	0	60	112756
2026-01-07 19:20:46.34	354.90	14.77	-51.6	-67.3	3.6	1.51e+00	0	36	104	0	60	113040
2026-01-07 19:20:49.38	354.26	14.76	-51.6	-67.2	3.6	1.51e+00	0	36	104	0	60	112222
2026-01-07 19:20:52.41	353.63	14.75	-51.6	-67.3	3.6	1.51e+00	0	36	104	0	60	112868
2026-01-07 19:20:55.44	352.99	14.74	-51.6	-67.3	3.6	1.51e+00	0	36	104	0	60	112756
2026-01-07 19:20:58.47	352.36	14.72	-51.6	-67.3	3.6	1.51e+00	0	36	104	0	60	112827
2026-01-07 19:21:01.51	351.73	14.69	-51.6	-67.3	3.6	1.51e+00	0	36	104	0	60	112420
2026-01-07 19:21:04.54	351.09	14.67	-51.6	-67.2	3.6	1.51e+00	0	36	104	0	60	111968
2026-01-07 19:21:07.57	350.46	14.64	-51.6	-67.2	3.6	1.51e+00	0	36	104	0	60	112241
2026-01-07 19:21:10.61	349.83	14.60	-51.6	-67.3	3.6	1.51e+00	0	36	104	0	60	112890
2026-01-07 19:21:13.64	349.21	14.57	-51.6	-67.3	3.6	1.51e+00	0	36	104	0	60	112370
2026-01-07 19:21:16.67	348.58	14.53	-51.6	-67.3	3.6	1.51e+00	0	36	104	0	60	112868
2026-01-07 19:21:19.70	347.96	14.48	-51.6	-67.3	3.6	1.51e+00	0	36	104	0	60	113048
2026-01-07 19:21:22.74	347.33	14.44	-51.6	-67.3	3.6	1.51e+00	0	36	104	0	60	113164
2026-01-07 19:21:25.77	346.71	14.39	-51.6	-67.3	3.6	1.51e+00	0	36	104	0	60	112794
2026-01-07 19:21:28.80	346.10	14.33	-51.6	-67.3	3.6	1.51e+00	0	36	104	0	60	112591
2026-01-07 19:21:31.84	345.48	14.28	-51.6	-67.3	3.6	1.51e+00	0	36	104	0	60	112638
2026-01-07 19:21:34.87	344.87	14.22	-51.6	-67.3	3.6	1.51e+00	0	36	104	0	60	112547
2026-01-07 19:21:37.90	344.26	14.15	-51.6	-67.3	3.6	1.51e+00	0	36	104	0	60	112643
2026-01-07 19:21:40.93	343.65	14.09	-51.6	-67.3	3.6	1.51e+00	0	36	104	0	60	112532
2026-01-07 19:21:43.97	343.04	14.02	-51.6	-67.3	3.6	1.51e+00	0	36	104	0	60	113064
2026-01-07 19:21:47.00	342.44	13.95	-51.6	-67.3	3.6	1.51e+00	0	36	104	0	60	112984
2026-01-07 19:21:50.03	341.84	13.87	-51.6	-67.2	3.6	1.51e+00	0	36	104	0	60	111975
2026-01-07 19:21:53.07	341.24	13.79	-51.6	-67.3	3.6	1.51e+00	0	36	104	0	60	112612
2026-01-07 19:21:56.10	340.65	13.71	-51.6	-67.3	3.6	1.51e+00	0	36	104	0	60	112871
2026-01-07 19:21:59.13	340.06	13.63	-51.6	-67.3	3.6	1.51e+00	0	36	104	0	60	112366
2026-01-07 19:22:02.17	339.47	13.54	-51.6	-67.2	3.6	1.51e+00	0	36	104	0	60	112161
2026-01-07 19:22:05.20	338.89	13.46	-51.6	-67.2	3.6	1.51e+00	0	36	104	0	60	111983
2026-01-07 19:22:08.23	338.31	13.36	-51.6	-67.4	3.6	1.51e+00	0	36	104	0	60	113676
2026-01-07 19:22:11.27	337.74	13.27	-51.5	-67.3	3.6	1.51e+00	0	36	104	0	60	112396
2026-01-07 19:22:14.30	337.17	13.17	-51.5	-67.3	3.6	1.51e+00	0	36	104	0	60	112920
2026-01-07 19:22:17.33	336.60	13.08	-51.6	-67.3	3.6	1.51e+00	0	36	104	0	60	112520
2026-01-07 19:22:20.36	336.03	12.97	-51.6	-67.3	3.5	1.51e+00	0	36	104	0	60	112814
2026-01-07 19:22:23.40	335.47	12.87	-51.6	-67.3	3.6	1.51e+00	0	36	104	0	60	112659
2026-01-07 19:22:26.43	334.92	12.77	-51.6	-67.3	3.6	1.51e+00	0	36	104	0	60	112470
2026-01-07 19:22:29.46	334.36	12.66	-51.6	-67.3	3.6	1.51e+00	0	36	104	0	60	112801
2026-01-07 19:22:32.49	333.82	12.55	-51.5	-67.2	3.6	1.51e+00	0	36	104	0	60	112253
2026-01-07 19:22:35.53	333.27	12.44	-51.6	-67.3	3.6	1.51e+00	0	36	104	0	60	112839
2026-01-07 19:22:38.56	332.73	12.32	-51.5	-67.3	3.6	1.51e+00	0	36	104	0	60	112689
2026-01-07 19:22:41.59	332.20	12.21	-51.5	-67.3	3.6	1.51e+00	0	36	104	0	60	113138
2026-01-07 19:22:44.62	331.67	12.09	-51.6	-67.3	3.6	1.51e+00	0	36	104	0	60	112688
2026-01-07 19:22:47.66	331.14	11.97	-51.6	-67.3	3.6	1.51e+00	0	36	104	0	60	113091
2026-01-07 19:22:50.69	330.62	11.85	-51.5	-67.3	3.5	1.51e+00	0	36	104	0	60	113196
2026-01-07 19:22:53.72	330.10	11.72	-51.5	-67.3	3.6	1.51e+00	0	36	104	0	60	113219
2026-01-07 19:22:56.75	329.59	11.60	-51.5	-67.3	3.6	1.51e+00	0	36	104	0	60	112446
2026-01-07 19:22:59.79	329.08	11.47	-51.5	-67.3	3.6	1.51e+00	0	36	104	0	60	113221
2026-01-07 19:23:02.82	328.57	11.35	-51.5	-67.3	3.6	1.51e+00	0	36	104	0	60	112564
2026-01-07 19:23:05.85	328.07	11.22	-51.5	-67.3	3.6	1.51e+00	0	36	104	0	60	113210
2026-01-07 19:23:08.89	327.58	11.09	-51.5	-67.3	3.6	1.51e+00	0	36	104	0	60	113097
2026-01-07 19:23:11.92	327.08	10.95	-51.5	-67.3	3.6	1.51e+00	0	36	104	0	60	112439
2026-01-07 19:23:14.95	326.60	10.82	-51.5	-67.2	3.6	1.51e+00	0	36	104	0	60	112246
2026-01-07 19:23:17.99	326.11	10.69	-51.5	-67.3	3.6	1.51e+00	0	36	104	0	60	112615
2026-01-07 19:23:21.02	325.64	10.55	-51.5	-67.3	3.6	1.51e+00	0	36	104	0	60	113233
2026-01-07 19:23:24.05	325.16	10.41	-51.5	-67.3	3.6	1.51e+00	0	36	104	0	60	112926
2026-01-07 19:23:27.08	324.70	10.28	-51.5	-67.3	3.6	1.51e+00	0	36	104	0	60	113007
2026-01-07 19:23:30.12	324.23	10.14	-51.5	-67.3	3.6	1.51e+00	0	36	104	0	60	112665
2026-01-07 19:23:33.15	323.77	10.00	-51.5	-67.3	3.6	1.51e+00	0	36	104	0	60	112804
2026-01-07 19:23:36.18	323.32	9.85	-51.5	-67.3	3.6	1.51e+00	0	36	104	0	60	113084
2026-01-07 19:23:39.22	322.87	9.71	-51.5	-67.2	3.6	1.51e+00	0	36	104	0	60	112300
2026-01-07 19:23:42.25	322.42	9.57	-51.5	-67.3	3.6	1.51e+00	0	36	104	0	60	112996
2026-01-07 19:23:45.28	321.98	9.43	-51.5	-67.3	3.6	1.51e+00	0	36	104	0	60	112697
2026-01-07 19:23:48.32	321.54	9.28	-51.5	-67.3	3.6	1.51e+00	0	36	104	0	60	113043
2026-01-07 19:23:51.35	321.11	9.14	-51.5	-67.3	3.6	1.51e+00	0	36	104	0	60	113485
2026-01-07 19:23:54.38	320.68	8.99	-51.5	-67.3	3.6	1.51e+00	0	36	104	0	60	112818
2026-01-07 19:23:57.42	320.25	8.84	-51.5	-67.3	3.6	1.51e+00	0	36	104	0	60	112660
2026-01-07 19:24:00.45	319.83	8.70	-51.5	-67.3	3.6	1.51e+00	0	36	104	0	60	113393
2026-01-07 19:24:03.48	319.42	8.55	-51.5	-67.3	3.6	1.51e+00	0	36	104	0	60	112702
2026-01-07 19:24:06.51	319.01	8.40	-51.5	-67.3	3.6	1.51e+00	0	36	104	0	60	112799
2026-01-07 19:24:09.55	318.60	8.25	-51.5	-67.3	3.6	1.51e+00	0	36	104	0	60	113367
2026-01-07 19:24:12.58	318.20	8.10	-51.5	-67.3	3.6	1.51e+00	0	36	104	0	60	112734
2026-01-07 19:24:15.61	317.80	7.95	-51.5	-67.3	3.6	1.51e+00	0	36	104	0	60	112451
2026-01-07 19:24:18.65	317.40	7.80	-51.5	-67.2	3.6	1.51e+00	0	36	104	0	60	112219
2026-01-07 19:24:21.68	317.01	7.65	-51.5	-67.3	3.6	1.51e+00	0	36	104	0	60	112794
2026-01-07 19:24:24.71	316.63	7.50	-51.5	-67.3	3.6	1.51e+00	0	36	104	0	60	113074
2026-01-07 19:24:27.74	316.25	7.35	-51.5	-67.3	3.6	1.51e+00	0	36	104	0	60	112765
2026-01-07 19:24:30.78	315.87	7.19	-51.5	-67.3	3.6	1.51e+00	0	36	104	0	60	112756
2026-01-07 19:24:33.81	315.49	7.04	-51.5	-67.3	3.6	1.51e+00	0	36	104	0	60	112679
2026-01-07 19:24:36.84	315.12	6.89	-51.5	-67.3	3.6	1.51e+00	0	36	104	0	60	112527
2026-01-07 19:24:39.88	314.76	6.74	-51.5	-67.3	3.6	1.51e+00	0	36	104	0	60	112834
2026-01-07 19:24:42.91	314.40	6.59	-51.5	-67.3	3.6	1.51e+00	0	36	104	0	60	113510
2026-01-07 19:24:45.94	314.04	6.43	-51.5	-67.3	3.6	1.51e+00	0	36	104	0	60	113409
2026-01-07 19:24:48.98	313.68	6.28	-51.5	-67.3	3.6	1.51e+00	0	36	104	0	60	113099
2026-01-07 19:24:52.01	313.33	6.13	-51.5	-67.3	3.6	1.51e+00	0	36	104	0	60	112529
2026-01-07 19:24:55.04	312.99	5.97	-51.5	-67.3	3.6	1.51e+00	0	36	104	0	60	113099
2026-01-07 19:24:58.07	312.64	5.82	-51.5	-67.3	3.6	1.51e+00	0	36	104	0	60	113384
2026-01-07 19:25:01.11	312.30	5.67	-51.5	-67.3	3.6	1.51e+00	0	36	104	0	60	113045
2026-01-07 19:25:04.14	311.97	5.51	-51.5	-67.3	3.6	1.51e+00	0	36	104	0	60	112980
2026-01-07 19:25:07.17	311.63	5.36	-51.5	-67.3	3.6	1.51e+00	0	36	104	0	60	112972
2026-01-07 19:25:10.20	311.31	5.21	-78.4	-86.7	2.3	1.57e+00	0	36	104	0	60	1048574
2026-01-07 19:25:13.24	310.98	5.05	-51.5	-67.2	3.6	1.51e+00	0	36	104	0	60	112073
2026-01-07 19:25:16.27	310.66	4.90	-51.5	-67.3	3.5	1.51e+00	0	36	104	0	60	112497
2026-01-07 19:25:19.30	310.34	4.75	-51.5	-67.3	3.6	1.51e+00	0	36	104	0	60	112626
2026-01-07 19:25:22.34	310.03	4.59	-51.5	-67.3	3.6	1.51e+00	0	36	104	0	60	112959
2026-01-07 19:25:25.37	309.71	4.44	-51.5	-67.3	3.6	1.51e+00	0	36	104	0	60	112420
2026-01-07 19:25:28.40	309.41	4.29	-51.5	-67.2	3.6	1.51e+00	0	36	104	0	60	112307
2026-01-07 19:25:31.43	309.10	4.13	-51.5	-67.3	3.6	1.51e+00	0	36	104	0	60	112636
2026-01-07 19:25:34.47	308.80	3.98	-51.8	-67.4	3.6	1.51e+00	0	36	104	0	60	113881
2026-01-07 19:25:37.50	308.50	3.83	-51.9	-67.3	3.6	1.51e+00	0	36	104	0	60	113257
2026-01-07 19:25:40.53	308.21	3.68	-51.9	-67.3	3.6	1.51e+00	0	36	104	0	60	113006
2026-01-07 19:25:43.57	307.91	3.52	-52.0	-67.3	3.6	1.51e+00	0	36	104	0	60	113001
2026-01-07 19:25:46.60	307.63	3.37	-51.9	-67.3	3.6	1.51e+00	0	36	104	0	60	113021
2026-01-07 19:25:49.63	307.34	3.22	-51.9	-67.3	3.6	1.51e+00	0	36	104	0	60	113580
2026-01-07 19:25:52.66	307.06	3.07	-51.9	-67.3	3.6	1.51e+00	0	36	104	0	60	113088
2026-01-07 19:25:55.70	306.78	2.91	-51.9	-67.3	3.6	1.51e+00	0	36	104	0	60	113150
2026-01-07 19:25:58.73	306.50	2.76	-51.9	-67.3	3.6	1.51e+00	0	36	104	0	60	113237
2026-01-07 19:26:01.76	306.23	2.61	-51.9	-67.3	3.6	1.51e+00	0	36	104	0	60	112817
2026-01-07 19:26:04.79	305.96	2.46	-51.9	-67.3	3.6	1.51e+00	0	36	104	0	60	113139
2026-01-07 19:26:07.83	305.69	2.31	-51.9	-67.3	3.6	1.51e+00	0	36	104	0	60	113049
2026-01-07 19:26:10.86	305.42	2.16	-51.9	-67.3	3.6	1.51e+00	0	36	104	0	60	113135
2026-01-07 19:26:13.89	305.16	2.01	-51.9	-67.3	3.6	1.51e+00	0	36	104	0	60	112933
2026-01-07 19:26:16.92	304.90	1.86	-51.9	-67.3	3.6	1.51e+00	0	36	104	0	60	112801
2026-01-07 19:26:19.96	304.65	1.71	-51.9	-67.3	3.6	1.51e+00	0	36	104	0	60	113198
2026-01-07 19:26:22.99	304.39	1.56	-51.9	-67.3	3.6	1.51e+00	0	36	104	0	60	113321
2026-01-07 19:26:26.02	304.14	1.41	-51.9	-67.3	3.6	1.51e+00	0	36	104	0	60	113110
2026-01-07 19:26:29.06	303.89	1.26	-51.9	-67.3	3.6	1.51e+00	0	36	104	0	60	113475
2026-01-07 19:26:32.09	303.64	1.11	-51.9	-67.3	3.6	1.51e+00	0	36	104	0	60	113162
2026-01-07 19:26:35.12	303.40	0.96	-51.9	-67.3	3.6	1.51e+00	0	36	104	0	60	113189
2026-01-07 19:26:38.16	303.16	0.81	-51.9	-67.3	3.6	1.51e+00	0	36	104	0	60	113037
2026-01-07 19:26:41.19	302.92	0.66	-51.9	-67.3	3.6	1.51e+00	0	36	104	0	60	113214
2026-01-07 19:26:44.22	302.68	0.52	-51.9	-67.3	3.6	1.51e+00	0	36	104	0	60	113310
2026-01-07 19:26:47.26	302.45	0.37	-51.9	-67.3	3.6	1.51e+00	0	36	104	0	60	112627
2026-01-07 19:26:50.29	302.22	0.22	-51.9	-67.3	3.6	1.51e+00	0	36	104	0	60	113393
2026-01-07 19:26:53.32	301.99	0.07	-51.9	-67.3	3.6	1.51e+00	0	36	104	0	60	112841

#Closed at: 2026-01-07 19:26:55
#Recorded file [0 MB]: D:/lorett/data/35034_260107_221427.dat