passes_logs/2026/01/07/R4.6S_Anadyr_2ch/R4.6S_Anadyr_2ch__20260107_104848_TY-41_rec.log

#Pass ID: 20260107_104848_TY-41
#Satellite: TY-41
#Configuration: TY-39_900M
#almurnet v.1.7.20251203
#Start time: 2026-01-07 10:49:19

#Version: 2.2.20231116
#Station: R4.6S_Anadyr_2ch
#Location: 177.4865 lon 64.73178 lat
#TLE: 1 61231U 24173E   25350.69767361  .00008010  00000-0  38191-3 0 09994
#TLE: 2 61231 097.4116 061.2842 0001674 094.3615 204.6766 15.19171214 68043

#Time	Az	El	Level	Level2	SNR	BER	BlckErr	Temp	State	Recorded	gain1	gain2
2026-01-07 10:49:19.30	204.09	1.82	-51.6	-53.1	5.7	0.00e+00	0	31	0	0	60	75714
2026-01-07 10:49:22.33	204.35	2.00	-51.9	-54.4	6.1	0.00e+00	0	33	104	0	60	87819
2026-01-07 10:49:25.37	204.61	2.19	-51.9	-54.4	6.1	0.00e+00	0	34	104	0	60	87572
2026-01-07 10:49:28.40	204.88	2.38	-51.9	-54.4	6.0	0.00e+00	0	34	104	0	60	87731
2026-01-07 10:49:31.43	205.15	2.58	-51.9	-54.4	6.1	0.00e+00	0	34	104	0	60	87873
2026-01-07 10:49:34.46	205.42	2.77	-51.9	-54.4	6.1	0.00e+00	0	34	104	0	60	87636
2026-01-07 10:49:37.49	205.70	2.96	-51.9	-54.4	6.1	0.00e+00	0	34	104	0	60	87703
2026-01-07 10:49:40.53	205.98	3.16	-51.9	-54.4	6.1	0.00e+00	0	34	104	0	60	88026
2026-01-07 10:49:43.56	206.27	3.36	-51.9	-54.4	6.1	0.00e+00	0	34	104	0	60	87830
2026-01-07 10:49:46.59	206.56	3.55	-51.9	-54.4	6.1	0.00e+00	0	34	104	0	60	87749
2026-01-07 10:49:49.62	206.86	3.75	-51.9	-54.4	6.1	0.00e+00	0	34	104	0	60	88014
2026-01-07 10:49:52.66	207.16	3.96	-51.9	-54.4	6.1	0.00e+00	0	34	104	0	60	88128
2026-01-07 10:49:55.69	207.47	4.16	-51.9	-54.4	6.1	0.00e+00	0	35	104	0	60	87915
2026-01-07 10:49:58.72	207.78	4.36	-51.9	-54.4	6.1	0.00e+00	0	34	104	0	60	87825
2026-01-07 10:50:01.75	208.10	4.57	-51.9	-54.4	6.1	0.00e+00	0	35	104	0	60	87851
2026-01-07 10:50:04.79	208.42	4.78	-51.9	-54.4	6.1	0.00e+00	0	35	104	0	60	87596
2026-01-07 10:50:07.82	208.75	4.98	-51.9	-54.5	6.1	0.00e+00	0	35	104	0	60	88361
2026-01-07 10:50:10.85	209.08	5.19	-51.9	-54.4	6.1	0.00e+00	0	35	104	0	60	87891
2026-01-07 10:50:13.89	209.42	5.41	-51.9	-54.5	6.1	0.00e+00	0	35	104	0	60	88341
2026-01-07 10:50:16.92	209.77	5.62	-51.9	-54.4	6.1	0.00e+00	0	35	104	0	60	87907
2026-01-07 10:50:19.96	210.12	5.83	-51.9	-54.4	6.1	0.00e+00	0	35	104	0	60	88038
2026-01-07 10:50:22.99	210.48	6.05	-51.9	-54.4	6.1	0.00e+00	0	35	104	0	60	88050
2026-01-07 10:50:26.02	210.85	6.27	-51.9	-54.4	6.1	0.00e+00	0	35	104	0	60	87904
2026-01-07 10:50:29.05	211.22	6.49	-51.9	-54.4	6.1	0.00e+00	0	35	104	0	60	87539
2026-01-07 10:50:32.09	211.60	6.71	-51.9	-54.5	6.1	0.00e+00	0	35	104	0	60	88342
2026-01-07 10:50:35.12	211.99	6.93	-51.9	-54.4	6.1	0.00e+00	0	35	104	0	60	88085
2026-01-07 10:50:38.15	212.38	7.16	-51.9	-54.4	6.1	0.00e+00	0	35	104	0	60	88106
2026-01-07 10:50:41.19	212.78	7.38	-51.9	-54.4	6.1	0.00e+00	0	35	104	0	60	87986
2026-01-07 10:50:44.22	213.19	7.61	-51.9	-54.5	6.1	0.00e+00	0	35	104	0	60	88419
2026-01-07 10:50:47.25	213.60	7.84	-51.9	-54.4	6.1	0.00e+00	0	35	104	0	60	87859
2026-01-07 10:50:50.29	214.03	8.07	-51.9	-54.4	6.1	0.00e+00	0	35	104	0	60	87831
2026-01-07 10:50:53.32	214.46	8.30	-51.9	-54.4	6.1	0.00e+00	0	35	104	0	60	88156
2026-01-07 10:50:56.35	214.90	8.54	-51.9	-54.4	6.1	0.00e+00	0	35	104	0	60	87916
2026-01-07 10:50:59.38	215.35	8.77	-51.9	-54.4	6.1	0.00e+00	0	35	104	0	60	87710
2026-01-07 10:51:02.41	215.81	9.01	-52.0	-54.4	6.1	0.00e+00	0	35	104	0	60	87955
2026-01-07 10:51:05.45	216.28	9.25	-51.9	-54.5	6.1	0.00e+00	0	35	104	0	60	88339
2026-01-07 10:51:08.48	216.75	9.49	-52.0	-54.4	6.1	0.00e+00	0	35	104	0	60	87856
2026-01-07 10:51:11.51	217.24	9.73	-51.9	-54.4	6.1	0.00e+00	0	36	104	0	60	87429
2026-01-07 10:51:14.54	217.73	9.98	-52.0	-54.5	6.1	0.00e+00	0	36	104	0	60	88223
2026-01-07 10:51:17.57	218.24	10.22	-51.9	-54.4	6.1	0.00e+00	0	36	104	0	60	87954
2026-01-07 10:51:20.60	218.75	10.47	-51.9	-54.4	6.1	0.00e+00	0	36	104	0	60	88184
2026-01-07 10:51:23.64	219.28	10.72	-51.9	-54.4	6.1	0.00e+00	0	36	104	0	60	87713
2026-01-07 10:51:26.67	219.82	10.97	-51.9	-54.4	6.1	0.00e+00	0	36	104	0	60	87812
2026-01-07 10:51:29.70	220.36	11.22	-51.9	-54.4	6.1	0.00e+00	0	36	104	0	60	88004
2026-01-07 10:51:32.73	220.92	11.47	-51.9	-54.4	6.1	0.00e+00	0	36	104	0	60	87896
2026-01-07 10:51:35.77	221.49	11.73	-51.9	-54.5	6.1	0.00e+00	0	36	104	0	60	88274
2026-01-07 10:51:38.80	222.07	11.98	-52.0	-54.4	6.1	0.00e+00	0	36	104	0	60	88195
2026-01-07 10:51:41.83	222.67	12.24	-51.9	-54.5	6.1	0.00e+00	0	36	104	0	60	88222
2026-01-07 10:51:44.87	223.28	12.50	-51.9	-54.5	6.1	0.00e+00	0	36	104	0	60	88397
2026-01-07 10:51:47.90	223.89	12.76	-51.9	-54.5	6.1	0.00e+00	0	36	104	0	60	88566
2026-01-07 10:51:50.93	224.53	13.02	-51.9	-54.4	6.0	0.00e+00	0	36	104	0	60	87962
2026-01-07 10:51:53.96	225.17	13.28	-52.0	-54.5	6.1	0.00e+00	0	36	104	0	60	88281
2026-01-07 10:51:57.00	225.83	13.54	-52.0	-54.4	6.1	0.00e+00	0	36	104	0	60	88066
2026-01-07 10:52:00.03	226.50	13.80	-51.9	-54.4	6.1	0.00e+00	0	36	104	0	60	87592
2026-01-07 10:52:03.06	227.19	14.06	-51.9	-54.4	6.1	0.00e+00	0	36	104	0	60	88044
2026-01-07 10:52:06.09	227.89	14.32	-51.9	-54.5	6.1	0.00e+00	0	36	104	0	60	88683
2026-01-07 10:52:09.13	228.60	14.59	-51.9	-54.5	6.1	0.00e+00	0	36	104	0	60	88235
2026-01-07 10:52:12.16	229.33	14.85	-51.9	-54.4	6.1	0.00e+00	0	36	104	0	60	87875
2026-01-07 10:52:15.19	230.07	15.11	-51.9	-54.4	6.1	0.00e+00	0	36	104	0	60	88167
2026-01-07 10:52:18.23	230.84	15.37	-51.9	-54.5	6.1	0.00e+00	0	36	104	0	60	88245
2026-01-07 10:52:21.26	231.61	15.63	-51.9	-54.4	6.1	0.00e+00	0	36	104	0	60	87823
2026-01-07 10:52:24.29	232.40	15.89	-51.9	-54.4	6.1	0.00e+00	0	36	104	0	60	87517
2026-01-07 10:52:27.33	233.21	16.15	-51.9	-54.4	6.1	0.00e+00	0	36	104	0	60	87651
2026-01-07 10:52:30.36	234.03	16.41	-52.0	-54.4	6.1	0.00e+00	0	36	104	0	60	87931
2026-01-07 10:52:33.39	234.87	16.67	-52.0	-54.4	6.1	0.00e+00	0	36	104	0	60	87932
2026-01-07 10:52:36.42	235.72	16.92	-51.9	-54.4	6.1	0.00e+00	0	36	104	0	60	87790
2026-01-07 10:52:39.46	236.59	17.17	-51.9	-54.4	6.1	0.00e+00	0	36	104	0	60	88164
2026-01-07 10:52:42.49	237.48	17.42	-51.9	-54.4	6.1	0.00e+00	0	36	104	0	60	88131
2026-01-07 10:52:45.52	238.38	17.67	-51.9	-54.4	6.1	0.00e+00	0	36	104	0	60	88084
2026-01-07 10:52:48.55	239.30	17.91	-51.9	-54.4	6.1	0.00e+00	0	36	104	0	60	88103
2026-01-07 10:52:51.59	240.24	18.15	-51.9	-54.5	6.1	0.00e+00	0	36	104	0	60	88570
2026-01-07 10:52:54.62	241.20	18.39	-51.9	-54.4	6.1	0.00e+00	0	36	104	0	60	87990
2026-01-07 10:52:57.65	242.17	18.62	-51.9	-54.4	6.1	0.00e+00	0	36	104	0	60	87735
2026-01-07 10:53:00.68	243.16	18.85	-51.9	-54.4	6.1	0.00e+00	0	36	104	0	60	88085
2026-01-07 10:53:03.71	244.16	19.07	-51.9	-54.4	6.1	0.00e+00	0	36	104	0	60	87492
2026-01-07 10:53:06.75	245.18	19.28	-51.9	-54.4	6.1	0.00e+00	0	36	104	0	60	88104
2026-01-07 10:53:09.78	246.22	19.49	-51.9	-54.4	6.1	0.00e+00	0	36	104	0	60	87576
2026-01-07 10:53:12.81	247.27	19.70	-51.9	-54.5	6.1	0.00e+00	0	36	104	0	60	88319
2026-01-07 10:53:15.85	248.34	19.90	-51.9	-54.4	6.1	0.00e+00	0	36	104	0	60	87888
2026-01-07 10:53:18.88	249.42	20.09	-51.9	-54.4	6.1	0.00e+00	0	36	104	0	60	87582
2026-01-07 10:53:21.91	250.52	20.27	-51.9	-54.4	6.1	0.00e+00	0	36	104	0	60	88068
2026-01-07 10:53:24.94	251.63	20.44	-51.9	-54.4	6.1	0.00e+00	0	36	104	0	60	87898
2026-01-07 10:53:27.97	252.76	20.61	-51.9	-54.4	6.1	0.00e+00	0	36	104	0	60	87816
2026-01-07 10:53:31.01	253.90	20.77	-51.9	-54.4	6.0	0.00e+00	0	36	104	0	60	87530
2026-01-07 10:53:34.04	255.05	20.91	-51.9	-54.4	6.1	0.00e+00	0	37	104	0	60	87884
2026-01-07 10:53:37.07	256.21	21.05	-51.9	-54.4	6.1	0.00e+00	0	36	104	0	60	87937
2026-01-07 10:53:40.10	257.39	21.18	-51.9	-54.4	6.1	0.00e+00	0	36	104	0	60	87898
2026-01-07 10:53:43.14	258.57	21.30	-51.9	-54.4	6.1	0.00e+00	0	36	104	0	60	87635
2026-01-07 10:53:46.17	259.77	21.40	-51.9	-54.4	6.1	0.00e+00	0	36	104	0	60	87755
2026-01-07 10:53:49.20	260.97	21.50	-51.9	-54.4	6.1	0.00e+00	0	36	104	0	60	87974
2026-01-07 10:53:52.23	262.18	21.59	-51.9	-54.4	6.1	0.00e+00	0	37	104	0	60	88123
2026-01-07 10:53:55.26	263.40	21.66	-51.9	-54.4	6.1	0.00e+00	0	37	104	0	60	87823
2026-01-07 10:53:58.30	264.62	21.72	-51.9	-54.4	6.1	0.00e+00	0	37	104	0	60	87843
2026-01-07 10:54:01.33	265.85	21.77	-51.9	-54.4	6.1	0.00e+00	0	36	104	0	60	87968
2026-01-07 10:54:04.36	267.08	21.81	-51.9	-54.4	6.1	0.00e+00	0	37	104	0	60	88196
2026-01-07 10:54:07.39	268.31	21.83	-51.9	-54.4	6.1	0.00e+00	0	37	104	0	60	87859
2026-01-07 10:54:10.43	269.55	21.85	-51.9	-54.4	6.1	0.00e+00	0	37	104	0	60	87929
2026-01-07 10:54:13.46	270.79	21.85	-51.9	-54.4	6.1	0.00e+00	0	36	104	0	60	87739
2026-01-07 10:54:16.42	272.00	21.84	-51.9	-54.4	6.1	0.00e+00	0	36	104	0	60	88125
2026-01-07 10:54:19.45	273.23	21.81	-51.9	-54.4	6.1	0.00e+00	0	37	104	0	60	87878
2026-01-07 10:54:22.49	274.46	21.78	-51.9	-54.4	6.1	0.00e+00	0	37	104	0	60	87489
2026-01-07 10:54:25.52	275.69	21.73	-51.9	-54.4	6.1	0.00e+00	0	37	104	0	60	88026
2026-01-07 10:54:28.55	276.91	21.67	-51.9	-54.4	6.1	0.00e+00	0	37	104	0	60	87891
2026-01-07 10:54:31.58	278.13	21.60	-51.9	-54.4	6.1	0.00e+00	0	37	104	0	60	88096
2026-01-07 10:54:34.62	279.34	21.52	-51.9	-54.4	6.1	0.00e+00	0	37	104	0	60	87738
2026-01-07 10:54:37.65	280.54	21.42	-51.9	-54.5	6.1	0.00e+00	0	37	104	0	60	88344
2026-01-07 10:54:40.68	281.73	21.32	-51.9	-54.4	6.1	0.00e+00	0	37	104	0	60	87625
2026-01-07 10:54:43.71	282.92	21.20	-51.9	-54.5	6.1	0.00e+00	0	37	104	0	60	88222
2026-01-07 10:54:46.75	284.09	21.07	-51.9	-54.4	6.1	0.00e+00	0	37	104	0	60	87829
2026-01-07 10:54:49.78	285.25	20.94	-51.9	-54.4	6.1	0.00e+00	0	36	104	0	60	88057
2026-01-07 10:54:52.81	286.40	20.79	-51.9	-54.4	6.1	0.00e+00	0	37	104	0	60	88185
2026-01-07 10:54:55.85	287.54	20.64	-51.9	-54.4	6.1	0.00e+00	0	36	104	0	60	87596
2026-01-07 10:54:58.88	288.67	20.47	-51.9	-54.4	6.1	0.00e+00	0	36	104	0	60	87748
2026-01-07 10:55:01.91	289.77	20.30	-51.9	-54.4	6.1	0.00e+00	0	37	104	0	60	88074
2026-01-07 10:55:04.95	290.87	20.12	-51.9	-54.4	6.1	0.00e+00	0	36	104	0	60	87851
2026-01-07 10:55:07.98	291.95	19.93	-51.9	-54.5	6.1	0.00e+00	0	37	104	0	60	88244
2026-01-07 10:55:11.01	293.02	19.74	-51.9	-54.4	6.1	0.00e+00	0	37	104	0	60	87682
2026-01-07 10:55:14.04	294.07	19.54	-51.9	-54.4	6.0	0.00e+00	0	37	104	0	60	87824
2026-01-07 10:55:17.07	295.10	19.33	-51.9	-54.4	6.1	0.00e+00	0	36	104	0	60	88144
2026-01-07 10:55:20.11	296.12	19.11	-51.9	-54.4	6.1	0.00e+00	0	37	104	0	60	87751
2026-01-07 10:55:23.14	297.12	18.90	-51.9	-54.4	6.1	0.00e+00	0	37	104	0	60	87622
2026-01-07 10:55:26.18	298.11	18.67	-51.9	-54.5	6.1	0.00e+00	0	37	104	0	60	88289
2026-01-07 10:55:29.21	299.08	18.44	-52.0	-54.4	6.1	0.00e+00	0	37	104	0	60	87818
2026-01-07 10:55:32.24	300.03	18.21	-51.9	-54.4	6.1	0.00e+00	0	37	104	0	60	87761
2026-01-07 10:55:35.28	300.97	17.97	-51.9	-54.4	6.1	0.00e+00	0	37	104	0	60	87963
2026-01-07 10:55:38.31	301.89	17.73	-51.9	-54.4	6.1	0.00e+00	0	37	104	0	60	87485
2026-01-07 10:55:41.34	302.79	17.49	-51.9	-54.4	6.1	0.00e+00	0	37	104	0	60	88103
2026-01-07 10:55:44.37	303.67	17.24	-51.9	-54.4	6.1	0.00e+00	0	37	104	0	60	88175
2026-01-07 10:55:47.41	304.55	16.99	-51.9	-54.4	6.1	0.00e+00	0	37	104	0	60	87874
2026-01-07 10:55:50.44	305.40	16.74	-51.9	-54.5	6.1	0.00e+00	0	37	104	0	60	88272
2026-01-07 10:55:53.47	306.23	16.48	-51.9	-54.4	6.1	0.00e+00	0	36	104	0	60	87408
2026-01-07 10:55:56.50	307.05	16.23	-51.9	-54.4	6.1	0.00e+00	0	37	104	0	60	88054
2026-01-07 10:55:59.54	307.86	15.97	-51.9	-54.4	6.1	0.00e+00	0	37	104	0	60	87734
2026-01-07 10:56:02.57	308.65	15.72	-51.9	-54.4	6.1	0.00e+00	0	37	104	0	60	88199
2026-01-07 10:56:05.60	309.42	15.46	-51.9	-54.5	6.1	0.00e+00	0	37	104	0	60	88313
2026-01-07 10:56:08.63	310.18	15.20	-51.9	-54.4	6.1	0.00e+00	0	37	104	0	60	88052
2026-01-07 10:56:11.66	310.92	14.94	-51.9	-54.4	6.1	0.00e+00	0	37	104	0	60	87714
2026-01-07 10:56:14.69	311.65	14.68	-51.9	-54.4	6.1	0.00e+00	0	37	104	0	60	87855
2026-01-07 10:56:17.73	312.36	14.42	-52.0	-54.4	6.1	0.00e+00	0	37	104	0	60	88041
2026-01-07 10:56:20.76	313.06	14.16	-51.9	-54.5	6.1	0.00e+00	0	37	104	0	60	88255
2026-01-07 10:56:23.80	313.74	13.90	-51.9	-54.4	6.1	0.00e+00	0	37	104	0	60	87925
2026-01-07 10:56:26.83	314.41	13.64	-51.9	-54.4	6.1	0.00e+00	0	37	104	0	60	88017
2026-01-07 10:56:29.86	315.07	13.38	-51.9	-54.4	6.1	0.00e+00	0	37	104	0	60	88133
2026-01-07 10:56:32.89	315.71	13.12	-51.9	-54.4	6.1	0.00e+00	0	37	104	0	60	87756
2026-01-07 10:56:35.93	316.35	12.86	-52.0	-54.5	6.1	0.00e+00	0	37	104	0	60	88229
2026-01-07 10:56:38.96	316.96	12.61	-52.0	-54.4	6.1	0.00e+00	0	37	104	0	60	88147
2026-01-07 10:56:41.99	317.57	12.35	-51.9	-54.4	6.1	0.00e+00	0	37	104	0	60	87915
2026-01-07 10:56:45.02	318.16	12.10	-52.0	-54.4	6.1	0.00e+00	0	37	104	0	60	88007
2026-01-07 10:56:48.06	318.74	11.84	-52.0	-54.4	6.1	0.00e+00	0	37	104	0	60	88111
2026-01-07 10:56:51.09	319.31	11.59	-51.9	-54.4	6.1	0.00e+00	0	37	104	0	60	87999
2026-01-07 10:56:54.12	319.87	11.34	-52.0	-54.5	6.1	0.00e+00	0	37	104	0	60	88363
2026-01-07 10:56:57.16	320.42	11.09	-52.0	-54.5	6.1	0.00e+00	0	37	104	0	60	88283
2026-01-07 10:57:00.19	320.96	10.84	-51.9	-54.4	6.1	0.00e+00	0	37	104	0	60	88197
2026-01-07 10:57:03.22	321.48	10.60	-51.9	-54.4	6.1	0.00e+00	0	37	104	0	60	87894
2026-01-07 10:57:06.25	322.00	10.35	-52.0	-54.5	6.1	0.00e+00	0	37	104	0	60	88385
2026-01-07 10:57:09.29	322.50	10.11	-52.0	-54.4	6.1	0.00e+00	0	37	104	0	60	88103
2026-01-07 10:57:12.32	323.00	9.86	-51.9	-54.4	6.1	0.00e+00	0	37	104	0	60	87921
2026-01-07 10:57:15.35	323.48	9.62	-51.9	-54.4	6.0	0.00e+00	0	37	104	0	60	87804
2026-01-07 10:57:18.38	323.96	9.39	-52.0	-54.4	6.1	0.00e+00	0	37	104	0	60	87886
2026-01-07 10:57:21.42	324.43	9.15	-52.0	-54.5	6.1	0.00e+00	0	37	104	0	60	88384
2026-01-07 10:57:24.45	324.88	8.91	-51.9	-54.4	6.1	0.00e+00	0	37	104	0	60	87988
2026-01-07 10:57:27.48	325.33	8.68	-52.0	-54.4	6.1	0.00e+00	0	37	104	0	60	88195
2026-01-07 10:57:30.51	325.77	8.44	-52.0	-54.5	6.1	0.00e+00	0	37	104	0	60	88261
2026-01-07 10:57:33.55	326.21	8.21	-51.9	-54.4	6.1	0.00e+00	0	37	104	0	60	88194
2026-01-07 10:57:36.58	326.63	7.98	-51.9	-54.4	6.1	0.00e+00	0	37	104	0	60	88010
2026-01-07 10:57:39.61	327.05	7.76	-52.0	-54.4	6.1	0.00e+00	0	37	104	0	60	87906
2026-01-07 10:57:42.64	327.45	7.53	-52.0	-54.5	6.1	0.00e+00	0	37	104	0	60	88309
2026-01-07 10:57:45.68	327.86	7.31	-52.0	-54.4	6.1	0.00e+00	0	37	104	0	60	88137
2026-01-07 10:57:48.71	328.25	7.08	-52.0	-54.4	6.1	0.00e+00	0	37	104	0	60	88026
2026-01-07 10:57:51.74	328.64	6.86	-52.0	-54.4	6.1	0.00e+00	0	37	104	0	60	87955
2026-01-07 10:57:54.77	329.02	6.64	-52.0	-54.4	6.1	0.00e+00	0	37	104	0	60	88005
2026-01-07 10:57:57.81	329.39	6.42	-52.0	-54.4	6.1	0.00e+00	0	37	104	0	60	87733
2026-01-07 10:58:00.84	329.76	6.21	-52.0	-54.4	6.1	0.00e+00	0	37	104	0	60	88143
2026-01-07 10:58:03.87	330.12	5.99	-52.0	-54.4	6.1	0.00e+00	0	37	104	0	60	88186
2026-01-07 10:58:06.91	330.47	5.78	-52.0	-54.5	6.1	0.00e+00	0	37	104	0	60	88282
2026-01-07 10:58:09.94	330.82	5.57	-52.0	-54.4	6.1	0.00e+00	0	37	104	0	60	88030
2026-01-07 10:58:12.97	331.16	5.36	-52.0	-54.5	6.1	0.00e+00	0	37	104	0	60	88227
2026-01-07 10:58:16.01	331.49	5.15	-52.0	-54.5	6.0	0.00e+00	0	37	104	0	60	88407
2026-01-07 10:58:19.04	331.82	4.94	-52.0	-54.5	6.1	0.00e+00	0	37	104	0	60	88294
2026-01-07 10:58:22.07	332.15	4.73	-52.0	-54.4	6.1	0.00e+00	0	37	104	0	60	87957
2026-01-07 10:58:25.10	332.47	4.53	-52.0	-54.5	6.1	0.00e+00	0	37	104	0	60	88246
2026-01-07 10:58:28.14	332.78	4.33	-52.0	-54.4	6.1	0.00e+00	0	37	104	0	60	87773
2026-01-07 10:58:31.17	333.09	4.13	-52.0	-54.5	6.1	0.00e+00	0	37	104	0	60	88643
2026-01-07 10:58:34.20	333.39	3.93	-51.9	-54.4	6.1	0.00e+00	0	37	104	0	60	87823
2026-01-07 10:58:37.23	333.69	3.73	-52.0	-54.5	6.1	0.00e+00	0	37	104	0	60	88385
2026-01-07 10:58:40.27	333.98	3.53	-52.0	-54.5	6.1	0.00e+00	0	37	104	0	60	88343
2026-01-07 10:58:43.30	334.27	3.33	-51.9	-54.5	6.1	0.00e+00	0	37	104	0	60	88524
2026-01-07 10:58:46.33	334.56	3.14	-52.0	-54.4	6.1	0.00e+00	0	37	104	0	60	87869
2026-01-07 10:58:49.37	334.84	2.95	-52.0	-54.4	6.1	0.00e+00	0	37	104	0	60	87963
2026-01-07 10:58:52.40	335.11	2.75	-52.0	-54.4	6.1	0.00e+00	0	37	104	0	60	88128
2026-01-07 10:58:55.43	335.38	2.56	-52.0	-54.4	6.1	0.00e+00	0	37	104	0	60	88035
2026-01-07 10:58:58.46	335.65	2.38	-52.0	-54.5	6.1	0.00e+00	0	37	104	0	60	88550
2026-01-07 10:59:01.49	335.91	2.19	-52.0	-54.5	6.1	0.00e+00	0	37	104	0	60	88322
2026-01-07 10:59:04.52	336.17	2.00	-52.0	-54.5	6.1	0.00e+00	0	37	104	0	60	88236
2026-01-07 10:59:07.55	336.42	1.82	-52.0	-54.4	6.1	0.00e+00	0	37	104	0	60	88137
2026-01-07 10:59:10.59	336.68	1.63	-52.0	-54.4	6.1	0.00e+00	0	37	104	0	60	88050
2026-01-07 10:59:13.62	336.92	1.45	-52.0	-54.4	6.1	0.00e+00	0	37	104	0	60	88027
2026-01-07 10:59:16.65	337.17	1.27	-52.0	-54.5	6.1	0.00e+00	0	37	104	0	60	88658
2026-01-07 10:59:19.68	337.41	1.09	-52.0	-54.4	6.1	0.00e+00	0	37	104	0	60	87901
2026-01-07 10:59:22.71	337.64	0.91	-52.0	-54.5	6.1	0.00e+00	0	37	104	0	60	88296
2026-01-07 10:59:25.75	337.88	0.73	-52.0	-54.5	6.1	0.00e+00	0	37	104	0	60	88466
2026-01-07 10:59:28.78	338.11	0.55	-52.0	-54.4	6.1	0.00e+00	0	37	104	0	60	88001
2026-01-07 10:59:31.81	338.33	0.37	-52.0	-54.5	6.1	0.00e+00	0	37	104	0	60	88376
2026-01-07 10:59:34.84	338.56	0.20	-52.0	-54.4	6.1	0.00e+00	0	37	104	0	60	87881
2026-01-07 10:59:37.87	338.78	0.02	-52.0	-54.4	6.1	0.00e+00	0	37	104	0	60	88194

#Closed at: 2026-01-07 10:59:38
#Recorded file [0 MB]: D:/lorett/data/35034_260107_134919.dat