passes_logs/2025/01/28/LEX_test/LEX_test__20250128_100519_NOAA_18_rec.log

#Pass ID: 20250128_100519_NOAA 18
#Satellite: NOAA 18
#Configuration: NOAA 18
#Start time: 2025-01-28 10:05:24.293136

#LorettStation: 1.0.0 05.05.2024
#Station: LEX_test
#Location: 44.064575 lon 56.356522 lat
#TLE: 1 28654U 05018A   25028.04589186  .00000422  00000+0  24750-3 0  9995
#TLE: 2 28654  98.8546 108.9697 0014880 143.3316 216.8878 14.13499339 15023

#Time	Az	El	Level	SNR
2025-01-28 10:05:27.471782	355.5	15.3	-74.6	5.1
2025-01-28 10:05:28.615436	355.3	15.3	-75.3	2.5
2025-01-28 10:05:29.749179	355.2	15.4	-74.9	3.9
2025-01-28 10:05:30.890300	355.0	15.5	-76.0	5.1
2025-01-28 10:05:32.036165	354.8	15.6	-76.0	5.1
2025-01-28 10:05:33.180286	354.7	15.7	-76.0	5.1
2025-01-28 10:05:34.326507	354.5	15.8	-76.0	5.1
2025-01-28 10:05:35.470543	354.3	15.9	-76.0	5.1
2025-01-28 10:05:36.616350	354.2	16.0	-76.0	5.1
2025-01-28 10:05:37.761150	354.0	16.1	-76.0	5.1
2025-01-28 10:05:38.905387	353.9	16.2	-76.0	5.1
2025-01-28 10:05:40.049672	353.7	16.3	-76.0	5.1
2025-01-28 10:05:41.194334	353.5	16.4	-76.0	5.1
2025-01-28 10:05:42.337222	353.3	16.5	-76.0	5.1
2025-01-28 10:05:43.482490	353.2	16.6	-76.0	5.1
2025-01-28 10:05:44.627622	353.0	16.7	-76.0	5.1
2025-01-28 10:05:45.773222	352.8	16.8	-76.0	5.1
2025-01-28 10:05:46.918428	352.7	16.9	-76.0	5.1
2025-01-28 10:05:48.062198	352.5	16.9	-76.0	5.1
2025-01-28 10:05:49.206350	352.3	17.0	-76.0	5.1
2025-01-28 10:05:50.351292	352.1	17.1	-76.0	5.1
2025-01-28 10:05:51.495755	352.0	17.2	-76.0	5.1
2025-01-28 10:05:52.647924	351.8	17.3	-76.0	5.1
2025-01-28 10:05:53.793042	351.6	17.4	-76.0	5.1
2025-01-28 10:05:54.936842	351.4	17.5	-76.0	5.1
2025-01-28 10:05:56.081229	351.2	17.6	-76.0	5.1
2025-01-28 10:05:57.228101	351.0	17.7	-76.0	5.1
2025-01-28 10:05:58.396061	350.9	17.8	-76.0	5.1
2025-01-28 10:05:59.537661	350.7	17.9	-76.0	5.1
2025-01-28 10:06:00.684550	350.5	18.0	-76.0	5.1
2025-01-28 10:06:01.836586	350.3	18.1	-76.0	5.1
2025-01-28 10:06:02.981176	350.1	18.2	-76.0	5.1
2025-01-28 10:06:04.126833	349.9	18.3	-76.0	5.1
2025-01-28 10:06:05.268184	349.7	18.4	-76.0	5.1
2025-01-28 10:06:06.414809	349.5	18.5	-76.0	5.1
2025-01-28 10:06:07.562702	349.3	18.6	-76.0	5.1
2025-01-28 10:06:08.709763	349.1	18.7	-76.0	5.1
2025-01-28 10:06:09.858637	348.9	18.8	-76.0	5.1
2025-01-28 10:06:11.181663	348.7	18.9	-76.0	5.1
2025-01-28 10:06:12.485827	348.5	19.0	-76.0	5.1
2025-01-28 10:06:13.791788	348.2	19.1	-76.0	5.1
2025-01-28 10:06:14.966845	348.0	19.2	-76.0	5.1
2025-01-28 10:06:16.112415	347.8	19.3	-76.0	5.1
2025-01-28 10:06:17.407898	347.6	19.4	-76.0	5.1
2025-01-28 10:06:18.585017	347.4	19.5	-76.0	5.1
2025-01-28 10:06:19.918900	347.1	19.6	-76.0	5.1
2025-01-28 10:06:21.063360	346.9	19.7	-76.0	5.1
2025-01-28 10:06:22.203122	346.7	19.8	-76.0	5.1
2025-01-28 10:06:23.351593	346.5	19.9	-76.0	5.1
2025-01-28 10:06:24.496743	346.3	20.0	-76.0	5.1
2025-01-28 10:06:25.643111	346.1	20.1	-76.0	5.1
2025-01-28 10:06:26.788114	345.9	20.2	-76.0	5.1
2025-01-28 10:06:27.933113	345.6	20.3	-76.0	5.1
2025-01-28 10:06:29.078445	345.4	20.4	-76.0	5.1
2025-01-28 10:06:30.224409	345.2	20.5	-76.0	5.1
2025-01-28 10:06:31.368950	345.0	20.6	-76.0	5.1
2025-01-28 10:06:32.515591	344.7	20.7	-76.0	5.1
2025-01-28 10:06:33.663295	344.5	20.7	-76.0	5.1
2025-01-28 10:06:34.809244	344.3	20.8	-76.0	5.1
2025-01-28 10:06:35.954498	344.1	20.9	-76.0	5.1
2025-01-28 10:06:37.099032	343.8	21.0	-76.0	5.1
2025-01-28 10:06:38.246017	343.6	21.1	-76.0	5.1
2025-01-28 10:06:39.392789	343.4	21.2	-76.0	5.1
2025-01-28 10:06:40.538073	343.1	21.3	-76.0	5.1
2025-01-28 10:06:41.682767	342.9	21.4	-76.0	5.1
2025-01-28 10:06:42.827821	342.7	21.5	-76.0	5.1
2025-01-28 10:06:43.975072	342.4	21.6	-76.0	5.1
2025-01-28 10:06:45.119471	342.2	21.7	-76.0	5.1
2025-01-28 10:06:46.266382	341.9	21.8	-76.0	5.1
2025-01-28 10:06:47.411572	341.7	21.9	-76.0	5.1
2025-01-28 10:06:48.555940	341.5	22.0	-76.0	5.1
2025-01-28 10:06:49.700976	341.2	22.1	-76.0	5.1
2025-01-28 10:06:50.840907	341.0	22.1	-76.0	5.1
2025-01-28 10:06:51.985778	340.7	22.2	-76.0	5.1
2025-01-28 10:06:53.133347	340.5	22.3	-76.0	5.1
2025-01-28 10:06:54.276888	340.2	22.4	-76.0	5.1
2025-01-28 10:06:55.423392	340.0	22.5	-76.0	5.1
2025-01-28 10:06:56.567780	339.7	22.6	-76.0	5.1
2025-01-28 10:06:57.714970	339.4	22.7	-76.0	5.1
2025-01-28 10:06:58.863699	339.2	22.8	-76.0	5.1
2025-01-28 10:07:00.009253	338.9	22.9	-76.0	5.1
2025-01-28 10:07:01.156966	338.7	23.0	-76.0	5.1
2025-01-28 10:07:02.303614	338.4	23.1	-76.0	5.1
2025-01-28 10:07:03.450255	338.1	23.1	-76.0	5.1
2025-01-28 10:07:04.596666	337.9	23.2	-76.0	5.1
2025-01-28 10:07:05.741119	337.6	23.3	-76.0	5.1
2025-01-28 10:07:06.886199	337.3	23.4	-76.0	5.1
2025-01-28 10:07:08.031842	337.1	23.5	-76.0	5.1
2025-01-28 10:07:09.178854	336.8	23.6	-76.0	5.1
2025-01-28 10:07:10.323479	336.5	23.7	-76.0	5.1
2025-01-28 10:07:11.468571	336.2	23.8	-76.0	5.1
2025-01-28 10:07:12.614024	336.0	23.8	-76.0	5.1
2025-01-28 10:07:13.760211	335.7	23.9	-76.0	5.1
2025-01-28 10:07:14.906921	335.4	24.0	-76.0	5.1
2025-01-28 10:07:16.057530	335.1	24.1	-76.0	5.1
2025-01-28 10:07:17.202636	334.9	24.2	-76.0	5.1
2025-01-28 10:07:18.348602	334.6	24.3	-76.0	5.1
2025-01-28 10:07:19.495956	334.3	24.3	-76.0	5.1
2025-01-28 10:07:20.640744	334.0	24.4	-76.0	5.1
2025-01-28 10:07:21.785953	333.7	24.5	-76.0	5.1
2025-01-28 10:07:22.930432	333.4	24.6	-76.0	5.1
2025-01-28 10:07:24.074750	333.1	24.7	-76.0	5.1
2025-01-28 10:07:25.219239	332.8	24.8	-76.0	5.1
2025-01-28 10:07:26.363529	332.5	24.8	-76.0	5.1
2025-01-28 10:07:27.509935	332.2	24.9	-76.0	5.1
2025-01-28 10:07:28.653831	331.9	25.0	-76.0	5.1
2025-01-28 10:07:29.799413	331.6	25.1	-76.0	5.1
2025-01-28 10:07:30.944624	331.3	25.1	-76.0	5.1
2025-01-28 10:07:32.089884	331.0	25.2	-76.0	5.1
2025-01-28 10:07:33.234916	330.7	25.3	-76.0	5.1
2025-01-28 10:07:34.383394	330.4	25.4	-76.0	5.1
2025-01-28 10:07:35.532339	330.1	25.4	-76.0	5.1
2025-01-28 10:07:36.677923	329.8	25.5	-76.0	5.1
2025-01-28 10:07:37.823021	329.5	25.6	-76.0	5.1
2025-01-28 10:07:38.969127	329.2	25.7	-76.0	5.1
2025-01-28 10:07:40.115519	328.9	25.7	-76.0	5.1
2025-01-28 10:07:41.268959	328.6	25.8	-76.0	5.1
2025-01-28 10:07:42.413558	328.3	25.9	-76.0	5.1
2025-01-28 10:07:43.557938	327.9	25.9	-76.0	5.1
2025-01-28 10:07:44.704376	327.6	26.0	-76.0	5.1
2025-01-28 10:07:45.849970	327.3	26.1	-76.0	5.1
2025-01-28 10:07:46.995456	327.0	26.2	-76.0	5.1
2025-01-28 10:07:48.141139	326.7	26.2	-76.0	5.1
2025-01-28 10:07:49.286371	326.3	26.3	-76.0	5.1
2025-01-28 10:07:50.431453	326.0	26.3	-76.0	5.1
2025-01-28 10:07:51.576320	325.7	26.4	-76.0	5.1
2025-01-28 10:07:52.720694	325.4	26.5	-76.0	5.1
2025-01-28 10:07:53.869900	325.0	26.5	-76.0	5.1
2025-01-28 10:07:55.015470	324.7	26.6	-76.0	5.1
2025-01-28 10:07:56.158910	324.4	26.7	-76.0	5.1
2025-01-28 10:07:57.303219	324.0	26.7	-76.0	5.1
2025-01-28 10:07:58.450825	323.7	26.8	-76.0	5.1
2025-01-28 10:07:59.596928	323.4	26.8	-76.0	5.1
2025-01-28 10:08:00.742654	323.0	26.9	-76.0	5.1
2025-01-28 10:08:01.888773	322.7	26.9	-76.0	5.1
2025-01-28 10:08:03.034756	322.4	27.0	-76.0	5.1
2025-01-28 10:08:04.181741	322.0	27.0	-76.0	5.1
2025-01-28 10:08:05.328499	321.7	27.1	-76.0	5.1
2025-01-28 10:08:06.473137	321.3	27.2	-76.0	5.1
2025-01-28 10:08:07.619152	321.0	27.2	-76.0	5.1
2025-01-28 10:08:08.766590	320.6	27.3	-76.0	5.1
2025-01-28 10:08:09.911419	320.3	27.3	-76.0	5.1
2025-01-28 10:08:11.056943	320.0	27.3	-76.0	5.1
2025-01-28 10:08:12.201229	319.6	27.4	-76.0	5.1
2025-01-28 10:08:13.346634	319.3	27.4	-76.0	5.1
2025-01-28 10:08:14.493380	318.9	27.5	-76.0	5.1
2025-01-28 10:08:15.637634	318.6	27.5	-76.0	5.1
2025-01-28 10:08:16.782796	318.2	27.6	-76.0	5.1
2025-01-28 10:08:17.927430	317.9	27.6	-76.0	5.1
2025-01-28 10:08:19.072746	317.5	27.6	-76.0	5.1
2025-01-28 10:08:20.218000	317.1	27.7	-76.0	5.1
2025-01-28 10:08:21.362524	316.8	27.7	-76.0	5.1
2025-01-28 10:08:22.507813	316.4	27.8	-76.0	5.1
2025-01-28 10:08:23.653118	316.1	27.8	-76.0	5.1
2025-01-28 10:08:24.796393	315.7	27.8	-76.0	5.1
2025-01-28 10:08:25.941215	315.4	27.9	-76.0	5.1
2025-01-28 10:08:27.088722	315.0	27.9	-76.0	5.1
2025-01-28 10:08:28.233496	314.6	27.9	-76.0	5.1
2025-01-28 10:08:29.376178	314.3	27.9	-76.0	5.1
2025-01-28 10:08:30.523871	313.9	28.0	-76.0	5.1
2025-01-28 10:08:31.669216	313.6	28.0	-76.0	5.1
2025-01-28 10:08:32.814542	313.2	28.0	-76.0	5.1
2025-01-28 10:08:33.960483	312.8	28.0	-76.0	5.1
2025-01-28 10:08:35.105506	312.5	28.1	-76.0	5.1
2025-01-28 10:08:36.250099	312.1	28.1	-76.0	5.1
2025-01-28 10:08:37.394395	311.8	28.1	-76.0	5.1
2025-01-28 10:08:38.539611	311.4	28.1	-76.0	5.1
2025-01-28 10:08:39.685722	311.0	28.1	-76.0	5.1
2025-01-28 10:08:40.831878	310.7	28.2	-76.0	5.1
2025-01-28 10:08:41.977729	310.3	28.2	-76.0	5.1
2025-01-28 10:08:43.122184	309.9	28.2	-76.0	5.1
2025-01-28 10:08:44.267033	309.6	28.2	-76.0	5.1
2025-01-28 10:08:45.414308	309.2	28.2	-76.0	5.1
2025-01-28 10:08:46.559664	308.8	28.2	-76.0	5.1
2025-01-28 10:08:47.705563	308.5	28.2	-76.0	5.1
2025-01-28 10:08:48.850425	308.1	28.2	-76.0	5.1
2025-01-28 10:08:49.995216	307.7	28.2	-76.0	5.1
2025-01-28 10:08:51.139521	307.4	28.2	-76.0	5.1
2025-01-28 10:08:52.286044	307.0	28.2	-76.0	5.1
2025-01-28 10:08:53.430031	306.6	28.2	-76.0	5.1
2025-01-28 10:08:54.575874	306.3	28.2	-76.0	5.1
2025-01-28 10:08:55.720908	305.9	28.2	-76.0	5.1
2025-01-28 10:08:56.866497	305.5	28.2	-76.0	5.1
2025-01-28 10:08:58.010767	305.2	28.2	-76.0	5.1
2025-01-28 10:08:59.159065	304.8	28.2	-76.0	5.1
2025-01-28 10:09:00.304647	304.4	28.2	-76.0	5.1
2025-01-28 10:09:01.450495	304.1	28.2	-76.0	5.1
2025-01-28 10:09:02.595888	303.7	28.2	-76.0	5.1
2025-01-28 10:09:03.748786	303.3	28.2	-76.0	5.1
2025-01-28 10:09:04.894133	303.0	28.2	-76.0	5.1
2025-01-28 10:09:06.039434	302.6	28.2	-76.0	5.1
2025-01-28 10:09:07.185619	302.2	28.2	-76.0	5.1
2025-01-28 10:09:08.329235	301.9	28.1	-76.0	5.1
2025-01-28 10:09:09.476588	301.5	28.1	-76.0	5.1
2025-01-28 10:09:10.624263	301.1	28.1	-76.0	5.1
2025-01-28 10:09:11.768686	300.8	28.1	-76.0	5.1
2025-01-28 10:09:12.913481	300.4	28.1	-76.0	5.1
2025-01-28 10:09:14.057733	300.0	28.0	-76.0	5.1
2025-01-28 10:09:15.209450	299.7	28.0	-76.0	5.1
2025-01-28 10:09:16.357020	299.3	28.0	-76.0	5.1
2025-01-28 10:09:17.502226	298.9	28.0	-76.0	5.1
2025-01-28 10:09:18.647396	298.6	27.9	-76.0	5.1
2025-01-28 10:09:19.793001	298.2	27.9	-76.0	5.1
2025-01-28 10:09:20.937106	297.9	27.9	-76.0	5.1
2025-01-28 10:09:22.081319	297.5	27.9	-76.0	5.1
2025-01-28 10:09:23.226134	297.2	27.8	-76.0	5.1
2025-01-28 10:09:24.370193	296.8	27.8	-76.0	5.1
2025-01-28 10:09:25.513819	296.4	27.8	-76.0	5.1
2025-01-28 10:09:26.657676	296.1	27.7	-76.0	5.1
2025-01-28 10:09:27.803457	295.7	27.7	-76.0	5.1
2025-01-28 10:09:28.947910	295.4	27.6	-76.0	5.1
2025-01-28 10:09:30.092235	295.0	27.6	-76.0	5.1
2025-01-28 10:09:31.235788	294.7	27.6	-76.0	5.1
2025-01-28 10:09:32.382601	294.3	27.5	-76.0	5.1
2025-01-28 10:09:33.527395	294.0	27.5	-76.0	5.1
2025-01-28 10:09:34.674763	293.6	27.4	-76.0	5.1
2025-01-28 10:09:35.819570	293.3	27.4	-76.0	5.1
2025-01-28 10:09:36.964319	292.9	27.3	-76.0	5.1
2025-01-28 10:09:38.108619	292.6	27.3	-76.0	5.1
2025-01-28 10:09:39.255619	292.2	27.3	-76.0	5.1
2025-01-28 10:09:40.400806	291.9	27.2	-76.0	5.1
2025-01-28 10:09:41.546075	291.5	27.2	-76.0	5.1
2025-01-28 10:09:42.692849	291.2	27.1	-76.0	5.1
2025-01-28 10:09:43.835184	290.8	27.1	-76.0	5.1
2025-01-28 10:09:44.981264	290.5	27.0	-76.0	5.1
2025-01-28 10:09:46.126488	290.2	26.9	-76.0	5.1
2025-01-28 10:09:47.273104	289.8	26.9	-76.0	5.1
2025-01-28 10:09:48.418992	289.5	26.8	-76.0	5.1
2025-01-28 10:09:49.562821	289.2	26.8	-76.0	5.1
2025-01-28 10:09:50.707513	288.8	26.7	-76.0	5.1
2025-01-28 10:09:51.853235	288.5	26.7	-76.0	5.1
2025-01-28 10:09:52.998572	288.2	26.6	-76.0	5.1
2025-01-28 10:09:54.143680	287.8	26.5	-76.0	5.1
2025-01-28 10:09:55.286513	287.5	26.5	-76.0	5.1
2025-01-28 10:09:56.431030	287.2	26.4	-76.0	5.1
2025-01-28 10:09:57.576902	286.8	26.4	-76.0	5.1
2025-01-28 10:09:58.721088	286.5	26.3	-76.0	5.1
2025-01-28 10:09:59.865312	286.2	26.2	-76.0	5.1
2025-01-28 10:10:01.011575	285.9	26.2	-76.0	5.1
2025-01-28 10:10:02.156739	285.5	26.1	-76.0	5.1
2025-01-28 10:10:03.306288	285.2	26.0	-76.0	5.1
2025-01-28 10:10:04.451328	284.9	26.0	-76.0	5.1
2025-01-28 10:10:05.597227	284.6	25.9	-76.0	5.1
2025-01-28 10:10:06.742059	284.3	25.8	-76.0	5.1
2025-01-28 10:10:07.886234	283.9	25.7	-76.0	5.1
2025-01-28 10:10:09.037927	283.6	25.7	-76.0	5.1
2025-01-28 10:10:10.184432	283.3	25.6	-76.0	5.1
2025-01-28 10:10:11.330752	283.0	25.5	-76.0	5.1
2025-01-28 10:10:12.475142	282.7	25.4	-76.0	5.1
2025-01-28 10:10:13.622229	282.4	25.4	-76.0	5.1
2025-01-28 10:10:14.772268	282.1	25.3	-76.0	5.1
2025-01-28 10:10:15.917490	281.8	25.2	-76.0	5.1
2025-01-28 10:10:17.061981	281.5	25.1	-76.0	5.1
2025-01-28 10:10:18.207347	281.2	25.1	-76.0	5.1
2025-01-28 10:10:19.357633	280.9	25.0	-76.0	5.1
2025-01-28 10:10:20.502721	280.6	24.9	-76.0	5.1
2025-01-28 10:10:21.648404	280.3	24.8	-76.0	5.1
2025-01-28 10:10:22.793049	280.0	24.8	-76.0	5.1
2025-01-28 10:10:23.938478	279.7	24.7	-76.0	5.1
2025-01-28 10:10:25.083589	279.4	24.6	-76.0	5.1
2025-01-28 10:10:26.226752	279.1	24.5	-76.0	5.1
2025-01-28 10:10:27.373861	278.8	24.4	-76.0	5.1
2025-01-28 10:10:28.517393	278.5	24.3	-76.0	5.1
2025-01-28 10:10:29.661872	278.2	24.3	-76.0	5.1
2025-01-28 10:10:30.807056	277.9	24.2	-76.0	5.1
2025-01-28 10:10:31.952319	277.7	24.1	-76.0	5.1
2025-01-28 10:10:33.097407	277.4	24.0	-76.0	5.1
2025-01-28 10:10:34.241809	277.1	23.9	-76.0	5.1
2025-01-28 10:10:35.386117	276.8	23.8	-76.0	5.1
2025-01-28 10:10:36.530396	276.5	23.7	-76.0	5.1
2025-01-28 10:10:37.677737	276.3	23.7	-76.0	5.1
2025-01-28 10:10:38.822694	276.0	23.6	-76.0	5.1
2025-01-28 10:10:39.968684	275.7	23.5	-76.0	5.1
2025-01-28 10:10:41.114477	275.4	23.4	-76.0	5.1
2025-01-28 10:10:42.259069	275.2	23.3	-76.0	5.1
2025-01-28 10:10:43.403634	274.9	23.2	-76.0	5.1
2025-01-28 10:10:44.550527	274.6	23.1	-76.0	5.1
2025-01-28 10:10:45.695477	274.4	23.0	-76.0	5.1
2025-01-28 10:10:46.842283	274.1	23.0	-76.0	5.1
2025-01-28 10:10:47.986740	273.8	22.9	-76.0	5.1
2025-01-28 10:10:49.130847	273.6	22.8	-76.0	5.1
2025-01-28 10:10:50.277202	273.3	22.7	-76.0	5.1
2025-01-28 10:10:51.421154	273.1	22.6	-76.0	5.1
2025-01-28 10:10:52.564979	272.8	22.5	-76.0	5.1
2025-01-28 10:10:53.710364	272.6	22.4	-76.0	5.1
2025-01-28 10:10:54.860535	272.3	22.3	-76.0	5.1
2025-01-28 10:10:56.005937	272.0	22.2	-76.0	5.1
2025-01-28 10:10:57.150200	271.8	22.1	-76.0	5.1
2025-01-28 10:10:58.295047	271.5	22.0	-76.0	5.1
2025-01-28 10:10:59.438895	271.3	21.9	-76.0	5.1
2025-01-28 10:11:00.582986	271.1	21.9	-76.0	5.1
2025-01-28 10:11:01.727161	270.8	21.8	-76.0	5.1
2025-01-28 10:11:02.871286	270.6	21.7	-76.0	5.1
2025-01-28 10:11:04.017147	270.3	21.6	-76.0	5.1
2025-01-28 10:11:05.162155	270.1	21.5	-76.0	5.1
2025-01-28 10:11:06.318634	269.8	21.4	-76.0	5.1
2025-01-28 10:11:07.464158	269.6	21.3	-76.0	5.1
2025-01-28 10:11:08.609410	269.4	21.2	-76.0	5.1
2025-01-28 10:11:09.755875	269.1	21.1	-76.0	5.1
2025-01-28 10:11:10.901256	268.9	21.0	-76.0	5.1
2025-01-28 10:11:12.047593	268.7	20.9	-76.0	5.1
2025-01-28 10:11:13.192001	268.4	20.8	-76.0	5.1
2025-01-28 10:11:14.338460	268.2	20.7	-76.0	5.1
2025-01-28 10:11:15.483350	268.0	20.6	-76.0	5.1
2025-01-28 10:11:16.628785	267.8	20.5	-76.0	5.1
2025-01-28 10:11:17.773992	267.5	20.4	-76.0	5.1
2025-01-28 10:11:18.921262	267.3	20.3	-76.0	5.1
2025-01-28 10:11:20.061804	267.1	20.2	-76.0	5.1
2025-01-28 10:11:21.207369	266.9	20.1	-76.0	5.1
2025-01-28 10:11:22.351759	266.7	20.1	-76.0	5.1
2025-01-28 10:11:23.498549	266.4	20.0	-76.0	5.1
2025-01-28 10:11:24.642628	266.2	19.9	-76.0	5.1
2025-01-28 10:11:25.789125	266.0	19.8	-76.0	5.1
2025-01-28 10:11:26.933456	265.8	19.7	-76.0	5.1
2025-01-28 10:11:28.079448	265.6	19.6	-76.0	5.1
2025-01-28 10:11:29.226418	265.4	19.5	-76.0	5.1
2025-01-28 10:11:30.371262	265.2	19.4	-76.0	5.1
2025-01-28 10:11:31.517656	264.9	19.3	-76.0	5.1
2025-01-28 10:11:32.664265	264.7	19.2	-76.0	5.1
2025-01-28 10:11:33.807987	264.5	19.1	-76.0	5.1
2025-01-28 10:11:34.964309	264.3	19.0	-76.0	5.1
2025-01-28 10:11:36.108591	264.1	18.9	-76.0	5.1
2025-01-28 10:11:37.257131	263.9	18.8	-76.0	5.1
2025-01-28 10:11:38.409430	263.7	18.7	-76.0	5.1
2025-01-28 10:11:39.554044	263.5	18.6	-76.0	5.1
2025-01-28 10:11:40.700396	263.3	18.5	-76.0	5.1
2025-01-28 10:11:41.844531	263.1	18.4	-76.0	5.1
2025-01-28 10:11:42.989056	262.9	18.3	-76.0	5.1
2025-01-28 10:11:44.134325	262.7	18.2	-76.0	5.1
2025-01-28 10:11:45.278738	262.5	18.1	-76.0	5.1
2025-01-28 10:11:46.424027	262.4	18.0	-76.0	5.1
2025-01-28 10:11:47.574154	262.2	17.9	-76.0	5.1
2025-01-28 10:11:48.719215	262.0	17.8	-76.0	5.1
2025-01-28 10:11:49.863644	261.8	17.7	-76.0	5.1
2025-01-28 10:11:51.009851	261.6	17.6	-76.0	5.1
2025-01-28 10:11:52.154216	261.4	17.5	-76.0	5.1
2025-01-28 10:11:53.297428	261.2	17.4	-76.0	5.1
2025-01-28 10:11:54.442325	261.0	17.4	-76.0	5.1
2025-01-28 10:11:55.585755	260.9	17.3	-76.0	5.1
2025-01-28 10:11:56.730899	260.7	17.2	-76.0	5.1
2025-01-28 10:11:57.875244	260.5	17.1	-76.0	5.1
2025-01-28 10:11:59.021556	260.3	17.0	-76.0	5.1
2025-01-28 10:12:00.165828	260.1	16.9	-76.0	5.1
2025-01-28 10:12:01.314023	260.0	16.8	-76.0	5.1
2025-01-28 10:12:02.458785	259.8	16.7	-76.0	5.1
2025-01-28 10:12:03.602981	259.6	16.6	-76.0	5.1
2025-01-28 10:12:04.749897	259.4	16.5	-76.0	5.1
2025-01-28 10:12:05.894696	259.3	16.4	-76.0	5.1
2025-01-28 10:12:07.039297	259.1	16.3	-76.0	5.1
2025-01-28 10:12:08.184333	258.9	16.2	-76.0	5.1
2025-01-28 10:12:09.329896	258.8	16.1	-76.0	5.1
2025-01-28 10:12:10.474744	258.6	16.0	-76.0	5.1
2025-01-28 10:12:11.621043	258.4	15.9	-76.0	5.1
2025-01-28 10:12:12.765241	258.3	15.8	-76.0	5.1
2025-01-28 10:12:13.910626	258.1	15.7	-76.0	5.1
2025-01-28 10:12:15.055552	257.9	15.6	-76.0	5.1
2025-01-28 10:12:16.201077	257.8	15.5	-76.0	5.1
2025-01-28 10:12:17.354683	257.6	15.5	-76.0	5.1
2025-01-28 10:12:18.499473	257.5	15.4	-76.0	5.1
2025-01-28 10:12:19.643154	257.3	15.3	-76.0	5.1
2025-01-28 10:12:20.787493	257.1	15.2	-76.0	5.1
2025-01-28 10:12:21.933552	257.0	15.1	-76.0	5.1
2025-01-28 10:12:23.078598	256.8	15.0	-76.0	5.1
#Closed at: 2025-01-28 10:05:19.298348