passes_logs/2026/01/19/R2.0S_Raduga/R2.0S_Raduga__20260119_141518_FENGYUN_3E_rec.log

#Pass ID: 20260119_141518_FENGYUN 3E
#Satellite: FENGYUN 3E
#Configuration: FENGYUN 3E
#Start time: 2026-01-19 14:15:23.600226

#LorettStation: 1.0.0 05.05.2024
#Station: R2.0S_Raduga
#Location: 37.601861 lon 55.688408 lat
#TLE: 1 49008U 21062A   26018.95190407 -.00000301  00000+0 -12097-3 0  9991
#TLE: 2 49008  98.7482  24.0337 0002210 129.7386 230.3985 14.19884646235406

#Time	Az	El	Level	SNR
2026-01-19 14:15:40.385254	161.0	16.9	-92.0	0.0
2026-01-19 14:15:42.646448	161.0	17.1	-92.4	0.0
2026-01-19 14:15:44.920782	161.0	17.4	-92.5	0.0
2026-01-19 14:15:47.187044	161.0	17.7	-92.6	0.0
2026-01-19 14:15:49.445552	161.0	17.9	-92.4	0.0
2026-01-19 14:15:51.711510	161.0	18.2	-92.4	0.0
2026-01-19 14:15:53.975746	161.0	18.5	-92.6	0.0
2026-01-19 14:15:56.250859	161.1	18.8	-92.5	0.0
2026-01-19 14:15:58.517618	161.1	19.1	-92.5	0.0
2026-01-19 14:16:00.782587	161.1	19.4	-92.5	0.0
2026-01-19 14:16:03.050645	161.1	19.7	-92.4	0.0
2026-01-19 14:16:05.309853	161.1	19.9	-92.4	0.0
2026-01-19 14:16:07.573267	161.1	20.2	-92.4	0.0
2026-01-19 14:16:09.839306	161.1	20.5	-92.4	0.0
2026-01-19 14:16:12.109133	161.1	20.9	-92.5	0.0
2026-01-19 14:16:14.375813	161.1	21.2	-92.5	0.0
2026-01-19 14:16:16.639230	161.1	21.5	-92.4	0.0
2026-01-19 14:16:18.900683	161.1	21.8	-92.5	0.0
2026-01-19 14:16:21.171679	161.1	22.1	-92.6	0.0
2026-01-19 14:16:23.439303	161.1	22.5	-92.3	0.0
2026-01-19 14:16:25.697511	161.1	22.8	-92.4	0.0
2026-01-19 14:16:27.966966	161.1	23.1	-92.5	0.0
2026-01-19 14:16:30.234663	161.1	23.5	-92.4	0.0
2026-01-19 14:16:32.507535	161.1	23.8	-92.4	0.0
2026-01-19 14:16:34.776345	161.1	24.2	-92.5	0.0
2026-01-19 14:16:37.046414	161.1	24.5	-92.5	0.0
2026-01-19 14:16:39.312932	161.1	24.9	-92.4	0.0
2026-01-19 14:16:41.581748	161.1	25.2	-92.5	0.0
2026-01-19 14:16:43.856433	161.1	25.6	-92.3	0.0
2026-01-19 14:16:46.120068	161.1	26.0	-92.3	0.0
2026-01-19 14:16:48.388774	161.1	26.4	-92.6	0.0
2026-01-19 14:16:50.649505	161.1	26.7	-92.4	0.0
2026-01-19 14:16:52.923943	161.1	27.1	-92.5	0.0
2026-01-19 14:16:55.187659	161.1	27.5	-92.5	0.0
2026-01-19 14:16:57.451798	161.1	27.9	-92.5	0.0
2026-01-19 14:16:59.711850	161.1	28.3	-92.5	0.0
2026-01-19 14:17:01.988131	161.1	28.7	-92.3	0.0
2026-01-19 14:17:04.262693	161.1	29.2	-92.5	0.0
2026-01-19 14:17:06.535318	161.1	29.6	-92.4	0.0
2026-01-19 14:17:08.809260	161.2	30.0	-92.4	0.0
2026-01-19 14:17:11.080928	161.2	30.5	-92.5	0.0
2026-01-19 14:17:13.346493	161.2	30.9	-92.4	0.0
2026-01-19 14:17:15.610739	161.2	31.4	-92.4	0.0
2026-01-19 14:17:17.874722	161.2	31.8	-92.4	0.0
2026-01-19 14:17:20.138717	161.2	32.3	-92.4	0.0
2026-01-19 14:17:22.398897	161.2	32.8	-92.3	0.0
2026-01-19 14:17:24.664582	161.2	33.2	-92.6	0.0
2026-01-19 14:17:26.925892	161.2	33.7	-92.4	0.0
2026-01-19 14:17:29.191456	161.2	34.2	-92.4	0.0
2026-01-19 14:17:31.456846	161.2	34.7	-92.5	0.0
2026-01-19 14:17:33.726605	161.2	35.3	-92.4	0.0
2026-01-19 14:17:35.989992	161.2	35.8	-92.5	0.0
2026-01-19 14:17:38.256183	161.2	36.3	-92.5	0.0
2026-01-19 14:17:40.526870	161.2	36.9	-92.3	0.0
2026-01-19 14:17:42.791558	161.2	37.4	-92.5	0.0
2026-01-19 14:17:45.062366	161.1	38.0	-92.6	0.0
2026-01-19 14:17:47.331765	161.1	38.5	-92.4	0.0
2026-01-19 14:17:49.604900	161.1	39.1	-92.4	0.0
2026-01-19 14:17:51.874543	161.1	39.7	-92.4	0.0
2026-01-19 14:17:54.146774	161.1	40.3	-92.6	0.0
2026-01-19 14:17:56.410729	161.1	40.9	-92.6	0.0
2026-01-19 14:17:58.675899	161.1	41.5	-92.3	0.0
2026-01-19 14:18:00.935416	161.1	42.2	-92.3	0.0
2026-01-19 14:18:03.205592	161.1	42.8	-92.4	0.0
2026-01-19 14:18:05.474961	161.1	43.4	-92.3	0.0
2026-01-19 14:18:07.739227	161.1	44.1	-92.5	0.0
2026-01-19 14:18:10.004252	161.1	44.8	-92.6	0.0
2026-01-19 14:18:12.265027	161.1	45.5	-92.5	0.0
2026-01-19 14:18:14.531679	161.1	46.2	-92.3	0.0
2026-01-19 14:18:16.792429	161.1	46.9	-92.4	0.0
2026-01-19 14:18:19.055814	161.1	47.6	-92.7	0.0
2026-01-19 14:18:21.320555	161.1	48.3	-92.4	0.0
2026-01-19 14:18:23.589209	161.1	49.1	-92.5	0.0
2026-01-19 14:18:25.864262	161.0	49.8	-92.7	0.0
2026-01-19 14:18:28.123662	161.0	50.6	-92.6	0.0
2026-01-19 14:18:30.391899	161.0	51.4	-92.5	0.0
2026-01-19 14:18:32.661358	161.0	52.2	-92.4	0.0
2026-01-19 14:18:34.930093	161.0	53.0	-92.4	0.0
2026-01-19 14:18:37.188376	161.0	53.8	-92.5	0.0
2026-01-19 14:18:39.449314	160.9	54.7	-92.5	0.0
2026-01-19 14:18:41.718349	160.9	55.5	-92.6	0.0
2026-01-19 14:18:43.982097	160.9	56.4	-92.5	0.0
2026-01-19 14:18:46.245573	160.9	57.3	-92.5	0.0
2026-01-19 14:18:48.519048	160.9	58.2	-92.4	0.0
2026-01-19 14:18:50.787009	160.8	59.1	-92.4	0.0
2026-01-19 14:18:53.065067	160.8	60.0	-92.4	0.0
2026-01-19 14:18:55.334207	160.8	60.9	-92.4	0.0
2026-01-19 14:18:57.601347	160.7	61.9	-92.5	0.0
2026-01-19 14:18:59.865287	160.7	62.9	-92.5	0.0
2026-01-19 14:19:02.128089	160.6	63.8	-92.4	0.0
2026-01-19 14:19:04.395410	160.6	64.8	-92.7	0.0
2026-01-19 14:19:06.657261	160.5	65.8	-92.5	0.0
2026-01-19 14:19:08.926484	160.5	66.8	-92.4	0.0
2026-01-19 14:19:11.199869	160.4	67.9	-92.6	0.0
2026-01-19 14:19:13.471578	160.3	68.9	-92.6	0.0
2026-01-19 14:19:15.749120	160.2	70.0	-92.4	0.0
2026-01-19 14:19:18.013636	160.1	71.0	-92.4	0.0
2026-01-19 14:19:20.285153	160.0	72.1	-92.2	0.0
2026-01-19 14:19:22.548134	159.9	73.2	-92.4	0.0
2026-01-19 14:19:24.813307	159.8	74.3	-92.5	0.0
2026-01-19 14:19:27.077541	159.6	75.4	-92.5	0.0
2026-01-19 14:19:29.343045	159.4	76.5	-92.5	0.0
2026-01-19 14:19:31.603281	159.1	77.6	-92.2	0.0
2026-01-19 14:19:33.870185	158.9	78.7	-92.2	0.0
2026-01-19 14:19:36.138371	158.5	79.9	-92.3	0.0
2026-01-19 14:19:38.401207	158.0	81.0	-92.4	0.0
2026-01-19 14:19:40.671540	157.5	82.2	-92.3	0.0
2026-01-19 14:19:42.937309	156.7	83.3	-92.4	0.0
2026-01-19 14:19:45.209514	155.5	84.5	-92.5	0.0
2026-01-19 14:19:47.483808	153.8	85.6	-92.5	0.0
2026-01-19 14:19:49.748420	150.7	86.8	-92.5	0.0
2026-01-19 14:19:52.021951	144.3	87.9	-92.5	0.0
2026-01-19 14:19:54.288248	123.8	89.0	-92.6	0.0
2026-01-19 14:19:56.561437	41.5	89.3	-92.4	0.0
2026-01-19 14:19:58.834220	4.3	88.3	-92.4	0.0
2026-01-19 14:20:01.095303	355.2	87.2	-92.6	0.0
2026-01-19 14:20:03.365114	351.4	86.1	-92.5	0.0
2026-01-19 14:20:05.626765	349.3	84.9	-92.6	0.0
2026-01-19 14:20:07.894627	348.0	83.8	-92.3	0.0
2026-01-19 14:20:10.161277	347.1	82.6	-92.6	0.0
2026-01-19 14:20:12.428462	346.4	81.5	-92.6	0.0
2026-01-19 14:20:14.698658	345.9	80.3	-92.5	0.0
2026-01-19 14:20:16.968831	345.5	79.2	-92.4	0.0
2026-01-19 14:20:19.237085	345.2	78.0	-92.6	0.0
2026-01-19 14:20:21.502715	344.9	76.9	-92.3	0.0
2026-01-19 14:20:23.773147	344.7	75.8	-92.6	0.0
2026-01-19 14:20:26.046844	344.5	74.7	-92.4	0.0
2026-01-19 14:20:28.313069	344.4	73.6	-92.4	0.0
2026-01-19 14:20:30.584527	344.3	72.5	-92.4	0.0
2026-01-19 14:20:32.847365	344.1	71.4	-92.6	0.0
2026-01-19 14:20:35.116693	344.0	70.4	-92.5	0.0
2026-01-19 14:20:37.379723	343.9	69.3	-92.4	0.0
2026-01-19 14:20:39.658267	343.9	68.3	-92.4	0.0
2026-01-19 14:20:41.924044	343.8	67.2	-92.5	0.0
2026-01-19 14:20:44.191531	343.7	66.2	-92.5	0.0
2026-01-19 14:20:46.464432	343.7	65.2	-92.4	0.0
2026-01-19 14:20:48.729440	343.6	64.2	-92.5	0.0
2026-01-19 14:20:50.996174	343.6	63.2	-92.3	0.0
2026-01-19 14:20:53.264068	343.5	62.3	-92.4	0.0
2026-01-19 14:20:55.535506	343.5	61.3	-92.5	0.0
2026-01-19 14:20:57.802417	343.5	60.4	-92.4	0.0
2026-01-19 14:21:00.068230	343.4	59.5	-92.5	0.0
2026-01-19 14:21:02.338285	343.4	58.5	-92.4	0.0
2026-01-19 14:21:04.607165	343.4	57.6	-92.5	0.0
2026-01-19 14:21:06.871122	343.4	56.8	-92.5	0.0
2026-01-19 14:21:09.134577	343.3	55.9	-92.6	0.0
2026-01-19 14:21:11.401055	343.3	55.0	-92.6	0.0
2026-01-19 14:21:13.667116	343.3	54.2	-92.4	0.0
2026-01-19 14:21:15.951963	343.3	53.4	-92.4	0.0
2026-01-19 14:21:18.222260	343.3	52.5	-92.5	0.0
2026-01-19 14:21:20.487516	343.2	51.7	-92.4	0.0
2026-01-19 14:21:22.755021	343.2	51.0	-92.4	0.0
2026-01-19 14:21:25.023662	343.2	50.2	-92.6	0.0
2026-01-19 14:21:27.290414	343.2	49.4	-92.5	0.0
2026-01-19 14:21:29.558434	343.2	48.7	-92.5	0.0
2026-01-19 14:21:31.827496	343.2	47.9	-92.4	0.0
2026-01-19 14:21:34.088595	343.2	47.2	-92.3	0.0
2026-01-19 14:21:36.351834	343.2	46.5	-92.5	0.0
2026-01-19 14:21:38.619364	343.2	45.8	-92.6	0.0
2026-01-19 14:21:40.889378	343.2	45.1	-92.5	0.0
2026-01-19 14:21:43.154639	343.1	44.4	-92.6	0.0
2026-01-19 14:21:45.413474	343.1	43.8	-92.6	0.0
2026-01-19 14:21:47.683035	343.1	43.1	-92.3	0.0
2026-01-19 14:21:49.948471	343.1	42.5	-92.5	0.0
2026-01-19 14:21:52.218823	343.1	41.8	-92.4	0.0
2026-01-19 14:21:54.480940	343.1	41.2	-92.5	0.0
2026-01-19 14:21:56.743995	343.1	40.6	-92.5	0.0
2026-01-19 14:21:59.014043	343.1	40.0	-92.4	0.0
2026-01-19 14:22:01.276907	343.1	39.4	-92.5	0.0
2026-01-19 14:22:03.546062	343.1	38.8	-92.4	0.0
2026-01-19 14:22:05.812042	343.1	38.3	-92.4	0.0
2026-01-19 14:22:08.077846	343.1	37.7	-92.5	0.0
2026-01-19 14:22:10.344059	343.1	37.2	-92.5	0.0
2026-01-19 14:22:12.609532	343.1	36.6	-92.6	0.0
2026-01-19 14:22:14.876514	343.1	36.1	-92.3	0.0
2026-01-19 14:22:17.132783	343.1	35.6	-92.5	0.0
2026-01-19 14:22:19.416319	343.1	35.0	-92.4	0.0
2026-01-19 14:22:21.676723	343.1	34.5	-92.5	0.0
2026-01-19 14:22:23.947133	343.1	34.0	-92.5	0.0
2026-01-19 14:22:26.209564	343.1	33.5	-92.3	0.0
2026-01-19 14:22:28.474832	343.1	33.1	-92.5	0.0
2026-01-19 14:22:30.745424	343.1	32.6	-92.5	0.0
2026-01-19 14:22:33.013962	343.1	32.1	-92.5	0.0
2026-01-19 14:22:35.283536	343.1	31.7	-92.6	0.0
2026-01-19 14:22:37.554278	343.1	31.2	-92.6	0.0
2026-01-19 14:22:39.822059	343.1	30.7	-92.5	0.0
2026-01-19 14:22:42.086029	343.1	30.3	-92.3	0.0
2026-01-19 14:22:44.352134	343.1	29.9	-92.3	0.0
2026-01-19 14:22:46.630853	343.1	29.4	-92.4	0.0
2026-01-19 14:22:48.891919	343.1	29.0	-92.5	0.0
2026-01-19 14:22:51.162627	343.1	28.6	-92.6	0.0
2026-01-19 14:22:53.436875	343.1	28.2	-92.3	0.0
2026-01-19 14:22:55.698795	343.1	27.8	-92.6	0.0
2026-01-19 14:22:57.970916	343.2	27.4	-92.5	0.0
2026-01-19 14:23:00.234436	343.2	27.0	-92.5	0.0
2026-01-19 14:23:02.495833	343.2	26.6	-92.4	0.0
2026-01-19 14:23:04.758362	343.2	26.2	-92.4	0.0
2026-01-19 14:23:07.020245	343.2	25.9	-92.5	0.0
2026-01-19 14:23:09.292099	343.2	25.5	-92.4	0.0
2026-01-19 14:23:11.558338	343.2	25.1	-92.5	0.0
2026-01-19 14:23:13.825344	343.2	24.8	-92.3	0.0
2026-01-19 14:23:16.087104	343.2	24.4	-92.5	0.0
2026-01-19 14:23:18.348699	343.2	24.1	-92.3	0.0
2026-01-19 14:23:20.616042	343.2	23.7	-92.4	0.0
2026-01-19 14:23:22.881118	343.2	23.4	-92.5	0.0
2026-01-19 14:23:25.154324	343.2	23.1	-92.6	0.0
2026-01-19 14:23:27.420543	343.2	22.7	-92.5	0.0
2026-01-19 14:23:29.686517	343.2	22.4	-92.4	0.0
2026-01-19 14:23:31.952971	343.2	22.1	-92.5	0.0
2026-01-19 14:23:34.231212	343.2	21.8	-92.5	0.0
2026-01-19 14:23:36.495943	343.2	21.4	-92.4	0.0
2026-01-19 14:23:38.756119	343.2	21.1	-92.4	0.0
2026-01-19 14:23:41.014897	343.2	20.8	-92.4	0.0
2026-01-19 14:23:43.282791	343.2	20.5	-92.5	0.0
2026-01-19 14:23:45.543899	343.3	20.2	-92.5	0.0
2026-01-19 14:23:47.801844	343.3	19.9	-92.7	0.0
2026-01-19 14:23:50.067100	343.3	19.6	-92.4	0.0
2026-01-19 14:23:52.334390	343.3	19.3	-92.6	0.0
2026-01-19 14:23:54.600136	343.3	19.1	-92.5	0.0
2026-01-19 14:23:56.863335	343.3	18.8	-92.5	0.0
2026-01-19 14:23:59.125128	343.3	18.5	-92.4	0.0
2026-01-19 14:24:01.392543	343.3	18.2	-92.4	0.0
2026-01-19 14:24:03.655826	343.3	17.9	-92.4	0.0
2026-01-19 14:24:05.926455	343.3	17.7	-92.4	0.0
2026-01-19 14:24:08.189235	343.3	17.4	-92.3	0.0
2026-01-19 14:24:10.449709	343.3	17.1	-92.5	0.0
2026-01-19 14:24:12.717180	343.3	16.9	-92.6	0.0
2026-01-19 14:24:14.994799	343.3	16.6	-92.4	0.0
2026-01-19 14:24:17.257057	343.3	16.4	-92.4	0.0
2026-01-19 14:24:19.532071	343.3	16.1	-92.5	0.0
2026-01-19 14:24:21.807355	343.3	15.9	-92.4	0.0
2026-01-19 14:24:24.073669	343.4	15.6	-92.4	0.0
2026-01-19 14:24:26.342892	343.4	15.4	-92.6	0.0
2026-01-19 14:24:28.603822	343.4	15.1	-92.5	0.0
#Closed at: 2026-01-19 14:15:18.602971