passes_logs/2026/01/19/R2.0S_Raduga/R2.0S_Raduga__20260119_231344_NOAA_21_JPSS-2_rec.log

#Pass ID: 20260119_231344_NOAA 21 (JPSS-2)
#Satellite: NOAA 21 (JPSS-2)
#Configuration: NOAA 21 (JPSS-2)
#Start time: 2026-01-19 23:13:49.107756

#LorettStation: 1.0.0 05.05.2024
#Station: R2.0S_Raduga
#Location: 37.601861 lon 55.688408 lat
#TLE: 1 54234U 22150A   26018.88939962  .00000052  00000+0  45304-4 0  9995
#TLE: 2 54234  98.7504 319.7421 0000606 261.7569  98.3539 14.19535520165361

#Time	Az	El	Level	SNR
2026-01-19 23:13:53.272611	24.9	15.4	-93.3	0.0
2026-01-19 23:13:55.554149	25.0	15.7	-93.3	0.0
2026-01-19 23:13:57.830460	25.1	15.9	-93.4	0.0
2026-01-19 23:14:00.110401	25.3	16.2	-93.3	0.0
2026-01-19 23:14:02.384738	25.4	16.4	-93.3	0.0
2026-01-19 23:14:04.661581	25.6	16.6	-93.2	0.0
2026-01-19 23:14:06.950551	25.7	16.9	-93.2	0.0
2026-01-19 23:14:09.227007	25.8	17.1	-93.2	0.0
2026-01-19 23:14:11.514746	26.0	17.4	-93.4	0.0
2026-01-19 23:14:13.801931	26.1	17.7	-93.3	0.0
2026-01-19 23:14:16.082523	26.3	17.9	-93.3	0.0
2026-01-19 23:14:18.357499	26.4	18.2	-93.3	0.0
2026-01-19 23:14:20.631430	26.6	18.4	-93.2	0.0
2026-01-19 23:14:22.917950	26.8	18.7	-93.2	0.0
2026-01-19 23:14:25.189894	26.9	19.0	-93.3	0.0
2026-01-19 23:14:27.473651	27.1	19.3	-93.1	0.0
2026-01-19 23:14:29.750712	27.3	19.5	-93.3	0.0
2026-01-19 23:14:32.030409	27.4	19.8	-93.4	0.0
2026-01-19 23:14:34.302949	27.6	20.1	-93.3	0.0
2026-01-19 23:14:36.585136	27.8	20.4	-93.2	0.0
2026-01-19 23:14:38.869504	27.9	20.7	-93.3	0.0
2026-01-19 23:14:41.155225	28.1	21.0	-93.5	0.0
2026-01-19 23:14:43.435495	28.3	21.3	-93.1	0.0
2026-01-19 23:14:45.715037	28.5	21.6	-93.2	0.0
2026-01-19 23:14:47.993046	28.7	21.9	-93.1	0.0
2026-01-19 23:14:50.273769	28.9	22.2	-93.4	0.0
2026-01-19 23:14:52.555834	29.1	22.5	-93.4	0.0
2026-01-19 23:14:54.825798	29.3	22.8	-93.3	0.0
2026-01-19 23:14:57.099383	29.5	23.1	-93.2	0.0
2026-01-19 23:14:59.388539	29.7	23.4	-93.3	0.0
2026-01-19 23:15:01.675256	29.9	23.7	-93.3	0.0
2026-01-19 23:15:03.946975	30.2	24.1	-93.3	0.0
2026-01-19 23:15:06.217392	30.4	24.4	-93.3	0.0
2026-01-19 23:15:08.492922	30.6	24.7	-93.1	0.0
2026-01-19 23:15:10.763025	30.8	25.1	-93.4	0.0
2026-01-19 23:15:13.038964	31.1	25.4	-93.4	0.0
2026-01-19 23:15:15.314167	31.3	25.7	-93.3	0.0
2026-01-19 23:15:17.586975	31.6	26.1	-93.3	0.0
2026-01-19 23:15:19.865390	31.8	26.4	-93.2	0.0
2026-01-19 23:15:22.137544	32.1	26.8	-93.3	0.0
2026-01-19 23:15:24.425764	32.3	27.2	-93.2	0.0
2026-01-19 23:15:26.704646	32.6	27.5	-93.1	0.0
2026-01-19 23:15:28.991342	32.9	27.9	-93.3	0.0
2026-01-19 23:15:31.277349	33.2	28.3	-93.3	0.0
2026-01-19 23:15:33.552782	33.5	28.6	-93.2	0.0
2026-01-19 23:15:35.828708	33.8	29.0	-93.3	0.0
2026-01-19 23:15:38.103949	34.1	29.4	-93.2	0.0
2026-01-19 23:15:40.377369	34.4	29.8	-93.2	0.0
2026-01-19 23:15:42.653398	34.7	30.2	-93.3	0.0
2026-01-19 23:15:44.935051	35.0	30.6	-93.2	0.0
2026-01-19 23:15:47.210570	35.4	31.0	-93.3	0.0
2026-01-19 23:15:49.494297	35.7	31.4	-93.4	0.0
2026-01-19 23:15:51.787305	36.0	31.8	-93.2	0.0
2026-01-19 23:15:54.061578	36.4	32.3	-93.3	0.0
2026-01-19 23:15:56.354433	36.8	32.7	-93.3	0.0
2026-01-19 23:15:58.622075	37.2	33.1	-93.3	0.0
2026-01-19 23:16:00.908836	37.5	33.5	-93.3	0.0
2026-01-19 23:16:03.191103	37.9	34.0	-93.2	0.0
2026-01-19 23:16:05.467399	38.4	34.4	-93.0	0.0
2026-01-19 23:16:07.748395	38.8	34.9	-93.1	0.0
2026-01-19 23:16:10.033939	39.2	35.3	-93.4	0.0
2026-01-19 23:16:12.317746	39.7	35.8	-93.3	0.0
2026-01-19 23:16:14.602291	40.1	36.2	-93.3	0.0
2026-01-19 23:16:16.879173	40.6	36.7	-93.3	0.0
2026-01-19 23:16:19.152119	41.1	37.2	-93.2	0.0
2026-01-19 23:16:21.422734	41.6	37.7	-93.2	0.0
2026-01-19 23:16:23.705365	42.1	38.1	-93.1	0.0
2026-01-19 23:16:25.985881	42.6	38.6	-93.4	0.0
2026-01-19 23:16:28.271182	43.1	39.1	-93.5	0.0
2026-01-19 23:16:30.542448	43.7	39.6	-93.2	0.0
2026-01-19 23:16:32.831301	44.3	40.1	-93.4	0.0
2026-01-19 23:16:35.118297	44.9	40.6	-93.3	0.0
2026-01-19 23:16:37.400407	45.5	41.1	-93.1	0.0
2026-01-19 23:16:39.671123	46.1	41.6	-93.3	0.0
2026-01-19 23:16:41.962427	46.8	42.1	-93.2	0.0
2026-01-19 23:16:44.232129	47.4	42.7	-93.4	0.0
2026-01-19 23:16:46.525097	48.1	43.2	-93.1	0.0
2026-01-19 23:16:48.812213	48.9	43.7	-93.2	0.0
2026-01-19 23:16:51.077213	49.6	44.2	-93.3	0.0
2026-01-19 23:16:53.356933	50.4	44.7	-93.2	0.0
2026-01-19 23:16:55.636063	51.1	45.3	-93.3	0.0
2026-01-19 23:16:57.913868	52.0	45.8	-93.2	0.0
2026-01-19 23:17:00.183576	52.8	46.3	-93.3	0.0
2026-01-19 23:17:02.461224	53.7	46.8	-93.5	0.0
2026-01-19 23:17:04.742835	54.6	47.4	-93.2	0.0
2026-01-19 23:17:07.018173	55.5	47.9	-93.2	0.0
2026-01-19 23:17:09.285578	56.5	48.4	-93.2	0.0
2026-01-19 23:17:11.562040	57.5	48.9	-93.4	0.0
2026-01-19 23:17:13.843425	58.5	49.5	-93.2	0.0
2026-01-19 23:17:16.120210	59.6	50.0	-93.4	0.0
2026-01-19 23:17:18.394618	60.6	50.5	-93.4	0.0
2026-01-19 23:17:20.685619	61.8	51.0	-93.2	0.0
2026-01-19 23:17:22.955417	63.0	51.5	-93.1	0.0
2026-01-19 23:17:25.232413	64.2	52.0	-93.3	0.0
2026-01-19 23:17:27.507747	65.4	52.4	-93.3	0.0
2026-01-19 23:17:29.785558	66.7	52.9	-93.2	0.0
2026-01-19 23:17:32.061830	68.1	53.4	-93.4	0.0
2026-01-19 23:17:34.331458	69.4	53.8	-93.2	0.0
2026-01-19 23:17:36.607911	70.9	54.3	-93.4	0.0
2026-01-19 23:17:38.881480	72.3	54.7	-93.2	0.0
2026-01-19 23:17:41.162037	73.8	55.1	-93.2	0.0
2026-01-19 23:17:43.445149	75.4	55.5	-93.3	0.0
2026-01-19 23:17:45.731739	77.0	55.8	-93.2	0.0
2026-01-19 23:17:48.002774	78.6	56.2	-93.2	0.0
2026-01-19 23:17:50.282902	80.3	56.5	-93.4	0.0
2026-01-19 23:17:52.556696	82.0	56.8	-93.2	0.0
2026-01-19 23:17:54.836796	83.8	57.1	-93.3	0.0
2026-01-19 23:17:57.122328	85.5	57.4	-93.4	0.0
2026-01-19 23:17:59.402776	87.4	57.6	-93.3	0.0
2026-01-19 23:18:01.697079	89.2	57.8	-93.3	0.0
2026-01-19 23:18:03.969066	91.1	58.0	-93.3	0.0
2026-01-19 23:18:06.259057	93.0	58.1	-93.3	0.0
2026-01-19 23:18:08.535900	94.9	58.3	-93.4	0.0
2026-01-19 23:18:10.806249	96.9	58.4	-93.4	0.0
2026-01-19 23:18:13.078213	98.8	58.4	-93.3	0.0
2026-01-19 23:18:15.356912	100.7	58.4	-93.4	0.0
2026-01-19 23:18:17.644252	102.7	58.5	-93.3	0.0
2026-01-19 23:18:19.932265	104.7	58.4	-93.3	0.0
2026-01-19 23:18:22.203199	106.6	58.4	-93.4	0.0
2026-01-19 23:18:24.475187	108.5	58.3	-93.3	0.0
2026-01-19 23:18:26.764836	110.5	58.2	-93.2	0.0
2026-01-19 23:18:29.052072	112.4	58.0	-93.4	0.0
2026-01-19 23:18:31.339737	114.3	57.8	-93.3	0.0
2026-01-19 23:18:33.623056	116.1	57.6	-93.3	0.0
2026-01-19 23:18:35.901427	117.9	57.4	-93.3	0.0
2026-01-19 23:18:38.171675	119.7	57.1	-93.3	0.0
2026-01-19 23:18:40.449084	121.5	56.9	-93.4	0.0
2026-01-19 23:18:42.728265	123.2	56.5	-93.2	0.0
2026-01-19 23:18:45.008261	124.9	56.2	-93.2	0.0
2026-01-19 23:18:47.284452	126.5	55.9	-93.3	0.0
2026-01-19 23:18:49.563692	128.1	55.5	-93.3	0.0
2026-01-19 23:18:51.840452	129.7	55.1	-93.1	0.0
2026-01-19 23:18:54.115624	131.2	54.7	-93.3	0.0
2026-01-19 23:18:56.381598	132.7	54.3	-93.1	0.0
2026-01-19 23:18:58.665947	134.1	53.9	-93.3	0.0
2026-01-19 23:19:00.949344	135.5	53.4	-93.2	0.0
2026-01-19 23:19:03.233529	136.8	52.9	-93.2	0.0
2026-01-19 23:19:05.514885	138.1	52.5	-93.3	0.0
2026-01-19 23:19:07.792426	139.4	52.0	-93.3	0.0
2026-01-19 23:19:10.080220	140.6	51.5	-93.3	0.0
2026-01-19 23:19:12.351720	141.8	51.0	-93.1	0.0
2026-01-19 23:19:14.631968	143.0	50.5	-93.2	0.0
2026-01-19 23:19:16.915971	144.1	50.0	-93.2	0.0
2026-01-19 23:19:19.184323	145.1	49.5	-93.2	0.0
2026-01-19 23:19:21.470532	146.2	49.0	-93.2	0.0
2026-01-19 23:19:23.744361	147.2	48.4	-93.3	0.0
2026-01-19 23:19:26.019255	148.1	47.9	-93.3	0.0
2026-01-19 23:19:28.298137	149.1	47.4	-93.4	0.0
2026-01-19 23:19:30.576355	150.0	46.9	-93.4	0.0
2026-01-19 23:19:32.854960	150.9	46.3	-93.4	0.0
2026-01-19 23:19:35.133864	151.7	45.8	-93.3	0.0
2026-01-19 23:19:37.413053	152.5	45.3	-93.3	0.0
2026-01-19 23:19:39.689558	153.3	44.7	-93.3	0.0
2026-01-19 23:19:41.971620	154.1	44.2	-93.4	0.0
2026-01-19 23:19:44.247862	154.8	43.7	-93.2	0.0
2026-01-19 23:19:46.529408	155.5	43.2	-93.3	0.0
2026-01-19 23:19:48.809032	156.2	42.6	-93.2	0.0
2026-01-19 23:19:51.084975	156.9	42.1	-93.3	0.0
2026-01-19 23:19:53.372608	157.6	41.6	-93.1	0.0
2026-01-19 23:19:55.662982	158.2	41.1	-93.2	0.0
2026-01-19 23:19:57.950759	158.8	40.6	-93.2	0.0
2026-01-19 23:20:00.228167	159.4	40.1	-93.5	0.0
2026-01-19 23:20:02.505454	160.0	39.6	-93.3	0.0
2026-01-19 23:20:04.782924	160.6	39.1	-93.3	0.0
2026-01-19 23:20:07.056543	161.1	38.6	-93.4	0.0
2026-01-19 23:20:09.331500	161.6	38.1	-93.4	0.0
2026-01-19 23:20:11.616910	162.1	37.6	-93.3	0.0
2026-01-19 23:20:13.899958	162.6	37.1	-93.4	0.0
2026-01-19 23:20:16.177660	163.1	36.7	-93.3	0.0
2026-01-19 23:20:18.455888	163.6	36.2	-93.2	0.0
2026-01-19 23:20:20.728807	164.0	35.7	-93.2	0.0
2026-01-19 23:20:23.009356	164.5	35.3	-93.3	0.0
2026-01-19 23:20:25.283825	164.9	34.8	-93.4	0.0
2026-01-19 23:20:27.573311	165.4	34.4	-93.4	0.0
2026-01-19 23:20:29.860554	165.8	33.9	-93.3	0.0
2026-01-19 23:20:32.151013	166.2	33.5	-93.2	0.0
2026-01-19 23:20:34.431132	166.6	33.0	-93.1	0.0
2026-01-19 23:20:36.711937	166.9	32.6	-93.4	0.0
2026-01-19 23:20:38.999082	167.3	32.2	-93.2	0.0
2026-01-19 23:20:41.280786	167.7	31.7	-93.2	0.0
2026-01-19 23:20:43.555850	168.0	31.3	-93.3	0.0
2026-01-19 23:20:45.833804	168.4	30.9	-93.4	0.0
2026-01-19 23:20:48.108905	168.7	30.5	-93.3	0.0
2026-01-19 23:20:50.385489	169.0	30.1	-93.3	0.0
2026-01-19 23:20:52.665425	169.3	29.7	-93.1	0.0
2026-01-19 23:20:54.936460	169.6	29.3	-93.2	0.0
2026-01-19 23:20:57.215247	169.9	28.9	-93.3	0.0
2026-01-19 23:20:59.493775	170.2	28.5	-93.2	0.0
2026-01-19 23:21:01.777462	170.5	28.2	-93.2	0.0
2026-01-19 23:21:04.052890	170.8	27.8	-93.3	0.0
2026-01-19 23:21:06.338082	171.1	27.4	-93.2	0.0
2026-01-19 23:21:08.620494	171.4	27.0	-93.3	0.0
2026-01-19 23:21:10.900643	171.6	26.7	-93.4	0.0
2026-01-19 23:21:13.194540	171.9	26.3	-93.2	0.0
2026-01-19 23:21:15.468911	172.1	26.0	-93.3	0.0
2026-01-19 23:21:17.749100	172.4	25.6	-93.2	0.0
2026-01-19 23:21:20.031613	172.6	25.3	-93.3	0.0
2026-01-19 23:21:22.305808	172.9	24.9	-93.4	0.0
2026-01-19 23:21:24.576213	173.1	24.6	-93.3	0.0
2026-01-19 23:21:26.860255	173.3	24.3	-93.2	0.0
2026-01-19 23:21:29.141723	173.6	23.9	-93.4	0.0
2026-01-19 23:21:31.413337	173.8	23.6	-93.3	0.0
2026-01-19 23:21:33.688174	174.0	23.3	-93.2	0.0
2026-01-19 23:21:35.971965	174.2	23.0	-93.2	0.0
2026-01-19 23:21:38.249624	174.4	22.6	-93.5	0.0
2026-01-19 23:21:40.529193	174.6	22.3	-93.2	0.0
2026-01-19 23:21:42.799198	174.8	22.0	-93.3	0.0
2026-01-19 23:21:45.075949	175.0	21.7	-93.2	0.0
2026-01-19 23:21:47.357828	175.2	21.4	-93.3	0.0
2026-01-19 23:21:49.633849	175.4	21.1	-93.3	0.0
2026-01-19 23:21:51.912270	175.6	20.8	-93.3	0.0
2026-01-19 23:21:54.185291	175.7	20.5	-93.4	0.0
2026-01-19 23:21:56.461265	175.9	20.2	-93.3	0.0
2026-01-19 23:21:58.728892	176.1	19.9	-93.3	0.0
2026-01-19 23:22:01.008871	176.3	19.7	-93.3	0.0
2026-01-19 23:22:03.286169	176.4	19.4	-93.3	0.0
2026-01-19 23:22:05.556861	176.6	19.1	-93.3	0.0
2026-01-19 23:22:07.854759	176.8	18.8	-93.3	0.0
2026-01-19 23:22:10.127246	176.9	18.6	-93.4	0.0
2026-01-19 23:22:12.416201	177.1	18.3	-93.4	0.0
2026-01-19 23:22:14.680896	177.2	18.0	-93.3	0.0
2026-01-19 23:22:16.964671	177.4	17.8	-93.3	0.0
2026-01-19 23:22:19.241815	177.5	17.5	-93.1	0.0
2026-01-19 23:22:21.533114	177.7	17.2	-93.3	0.0
2026-01-19 23:22:23.804959	177.8	17.0	-93.2	0.0
2026-01-19 23:22:26.078822	178.0	16.7	-93.2	0.0
2026-01-19 23:22:28.350877	178.1	16.5	-93.2	0.0
2026-01-19 23:22:30.649778	178.3	16.2	-93.1	0.0
2026-01-19 23:22:32.941731	178.4	16.0	-93.2	0.0
2026-01-19 23:22:35.225260	178.5	15.7	-93.1	0.0
2026-01-19 23:22:37.512368	178.7	15.5	-93.1	0.0
2026-01-19 23:22:39.785084	178.8	15.3	-93.3	0.0
2026-01-19 23:22:42.057358	178.9	15.0	-93.4	0.0
#Closed at: 2026-01-19 23:13:44.108941