passes_logs/2026/01/19/R2.0S_Raduga/R2.0S_Raduga__20260119_222425_NOAA_20_JPSS-1_rec.log

#Pass ID: 20260119_222425_NOAA 20 (JPSS-1)
#Satellite: NOAA 20 (JPSS-1)
#Configuration: NOAA 20 (JPSS-1)
#Start time: 2026-01-19 22:24:30.034111

#LorettStation: 1.0.0 05.05.2024
#Station: R2.0S_Raduga
#Location: 37.601861 lon 55.688408 lat
#TLE: 1 43013U 17073A   26018.92475364  .00000071  00000+0  54435-4 0  9998
#TLE: 2 43013  98.7641 319.8227 0001354  33.6678 326.4584 14.19536868423299

#Time	Az	El	Level	SNR
2026-01-19 22:24:34.222616	43.4	15.3	-94.7	0.0
2026-01-19 22:24:35.361554	43.6	15.4	-94.6	0.0
2026-01-19 22:24:36.500751	43.8	15.5	-94.7	0.0
2026-01-19 22:24:37.634112	44.0	15.6	-94.8	0.0
2026-01-19 22:24:38.776470	44.1	15.7	-94.7	0.0
2026-01-19 22:24:39.915189	44.3	15.8	-94.8	0.0
2026-01-19 22:24:41.047574	44.5	15.8	-95.0	0.0
2026-01-19 22:24:42.183788	44.7	15.9	-94.7	0.0
2026-01-19 22:24:43.317869	44.8	16.0	-95.0	0.0
2026-01-19 22:24:44.451889	45.0	16.1	-94.8	0.0
2026-01-19 22:24:45.589529	45.2	16.2	-94.8	0.0
2026-01-19 22:24:46.722599	45.4	16.3	-94.8	0.0
2026-01-19 22:24:47.856173	45.6	16.4	-95.0	0.0
2026-01-19 22:24:48.991677	45.7	16.5	-94.8	0.0
2026-01-19 22:24:50.129282	45.9	16.5	-94.9	0.0
2026-01-19 22:24:51.268456	46.1	16.6	-94.8	0.0
2026-01-19 22:24:52.408245	46.3	16.7	-94.8	0.0
2026-01-19 22:24:53.538774	46.5	16.8	-95.0	0.0
2026-01-19 22:24:54.677159	46.7	16.9	-94.8	0.0
2026-01-19 22:24:55.811335	46.9	17.0	-94.9	0.0
2026-01-19 22:24:56.949455	47.0	17.1	-95.0	0.0
2026-01-19 22:24:58.083276	47.2	17.2	-94.8	0.0
2026-01-19 22:24:59.216256	47.4	17.3	-94.9	0.0
2026-01-19 22:25:00.355693	47.6	17.3	-94.9	0.0
2026-01-19 22:25:01.498644	47.8	17.4	-94.9	0.0
2026-01-19 22:25:02.632919	48.0	17.5	-95.0	0.0
2026-01-19 22:25:03.768202	48.2	17.6	-94.9	0.0
2026-01-19 22:25:04.903180	48.4	17.7	-94.9	0.0
2026-01-19 22:25:06.040324	48.6	17.8	-94.9	0.0
2026-01-19 22:25:07.174951	48.8	17.9	-94.8	0.0
2026-01-19 22:25:08.306788	49.0	18.0	-94.8	0.0
2026-01-19 22:25:09.446162	49.2	18.1	-94.8	0.0
2026-01-19 22:25:10.590405	49.4	18.1	-94.8	0.0
2026-01-19 22:25:11.731319	49.6	18.2	-95.0	0.0
2026-01-19 22:25:12.876964	49.8	18.3	-95.0	0.0
2026-01-19 22:25:14.010541	50.0	18.4	-94.9	0.0
2026-01-19 22:25:15.146143	50.2	18.5	-94.9	0.0
2026-01-19 22:25:16.279263	50.5	18.6	-95.0	0.0
2026-01-19 22:25:17.421356	50.7	18.7	-94.9	0.0
2026-01-19 22:25:18.557757	50.9	18.8	-94.9	0.0
2026-01-19 22:25:19.696576	51.1	18.8	-94.9	0.0
2026-01-19 22:25:20.830452	51.3	18.9	-94.8	0.0
2026-01-19 22:25:21.970294	51.5	19.0	-94.8	0.0
2026-01-19 22:25:23.106001	51.7	19.1	-95.0	0.0
2026-01-19 22:25:24.236712	52.0	19.2	-94.9	0.0
2026-01-19 22:25:25.373392	52.2	19.3	-95.0	0.0
2026-01-19 22:25:26.507062	52.4	19.4	-95.0	0.0
2026-01-19 22:25:27.647051	52.6	19.5	-94.7	0.0
2026-01-19 22:25:28.784324	52.8	19.5	-94.9	0.0
2026-01-19 22:25:29.921914	53.1	19.6	-95.1	0.0
2026-01-19 22:25:31.057678	53.3	19.7	-94.8	0.0
2026-01-19 22:25:32.195262	53.5	19.8	-94.8	0.0
2026-01-19 22:25:33.334760	53.7	19.9	-94.9	0.0
2026-01-19 22:25:34.466220	54.0	20.0	-94.7	0.0
2026-01-19 22:25:35.603903	54.2	20.1	-94.9	0.0
2026-01-19 22:25:36.738546	54.4	20.2	-95.0	0.0
2026-01-19 22:25:37.875435	54.7	20.2	-94.8	0.0
2026-01-19 22:25:39.019958	54.9	20.3	-94.8	0.0
2026-01-19 22:25:40.163972	55.1	20.4	-94.9	0.0
2026-01-19 22:25:41.301595	55.4	20.5	-94.7	0.0
2026-01-19 22:25:42.437163	55.6	20.6	-94.9	0.0
2026-01-19 22:25:43.572221	55.9	20.7	-94.9	0.0
2026-01-19 22:25:44.704091	56.1	20.8	-94.9	0.0
2026-01-19 22:25:45.844663	56.3	20.8	-95.0	0.0
2026-01-19 22:25:46.980372	56.6	20.9	-94.8	0.0
2026-01-19 22:25:48.114766	56.8	21.0	-94.9	0.0
2026-01-19 22:25:49.249422	57.1	21.1	-94.8	0.0
2026-01-19 22:25:50.381323	57.3	21.2	-94.8	0.0
2026-01-19 22:25:51.524610	57.6	21.3	-94.7	0.0
2026-01-19 22:25:52.661279	57.8	21.3	-94.8	0.0
2026-01-19 22:25:53.797217	58.1	21.4	-94.9	0.0
2026-01-19 22:25:54.936433	58.3	21.5	-94.8	0.0
2026-01-19 22:25:56.082729	58.6	21.6	-95.0	0.0
2026-01-19 22:25:57.220603	58.8	21.7	-95.0	0.0
2026-01-19 22:25:58.356434	59.1	21.8	-94.8	0.0
2026-01-19 22:25:59.489607	59.4	21.8	-94.9	0.0
2026-01-19 22:26:00.622655	59.6	21.9	-94.8	0.0
2026-01-19 22:26:01.761475	59.9	22.0	-94.7	0.0
2026-01-19 22:26:02.897826	60.1	22.1	-94.9	0.0
2026-01-19 22:26:04.035657	60.4	22.2	-94.7	0.0
2026-01-19 22:26:05.172855	60.7	22.2	-94.9	0.0
2026-01-19 22:26:06.304944	60.9	22.3	-94.8	0.0
2026-01-19 22:26:07.444865	61.2	22.4	-94.7	0.0
2026-01-19 22:26:08.584860	61.5	22.5	-94.8	0.0
2026-01-19 22:26:09.723472	61.7	22.6	-94.8	0.0
2026-01-19 22:26:10.863836	62.0	22.6	-95.1	0.0
2026-01-19 22:26:12.004170	62.3	22.7	-94.9	0.0
2026-01-19 22:26:13.141552	62.6	22.8	-95.0	0.0
2026-01-19 22:26:14.276888	62.8	22.9	-94.9	0.0
2026-01-19 22:26:15.409596	63.1	22.9	-94.7	0.0
2026-01-19 22:26:16.544758	63.4	23.0	-94.9	0.0
2026-01-19 22:26:17.687662	63.7	23.1	-94.8	0.0
2026-01-19 22:26:18.824684	64.0	23.2	-94.7	0.0
2026-01-19 22:26:19.961966	64.2	23.2	-94.8	0.0
2026-01-19 22:26:21.097145	64.5	23.3	-94.9	0.0
2026-01-19 22:26:22.231624	64.8	23.4	-95.0	0.0
2026-01-19 22:26:23.368179	65.1	23.5	-94.8	0.0
2026-01-19 22:26:24.505673	65.4	23.5	-95.0	0.0
2026-01-19 22:26:25.643496	65.7	23.6	-94.7	0.0
2026-01-19 22:26:26.779369	66.0	23.7	-94.6	0.0
2026-01-19 22:26:27.914735	66.2	23.7	-95.0	0.0
2026-01-19 22:26:29.048032	66.5	23.8	-95.0	0.0
2026-01-19 22:26:30.184665	66.8	23.9	-94.8	0.0
2026-01-19 22:26:31.329009	67.1	24.0	-94.8	0.0
2026-01-19 22:26:32.468972	67.4	24.0	-94.9	0.0
2026-01-19 22:26:33.607424	67.7	24.1	-94.8	0.0
2026-01-19 22:26:34.748293	68.0	24.2	-95.0	0.0
2026-01-19 22:26:35.883147	68.3	24.2	-94.9	0.0
2026-01-19 22:26:37.023528	68.6	24.3	-94.9	0.0
2026-01-19 22:26:38.160389	68.9	24.4	-94.8	0.0
2026-01-19 22:26:39.296209	69.2	24.4	-94.9	0.0
2026-01-19 22:26:40.430619	69.5	24.5	-94.9	0.0
2026-01-19 22:26:41.567211	69.8	24.6	-94.9	0.0
2026-01-19 22:26:42.701319	70.2	24.6	-94.7	0.0
2026-01-19 22:26:43.838568	70.5	24.7	-94.9	0.0
2026-01-19 22:26:44.975911	70.8	24.7	-94.8	0.0
2026-01-19 22:26:46.117558	71.1	24.8	-94.9	0.0
2026-01-19 22:26:47.257713	71.4	24.9	-94.9	0.0
2026-01-19 22:26:48.396945	71.7	24.9	-94.9	0.0
2026-01-19 22:26:49.538127	72.0	25.0	-94.9	0.0
2026-01-19 22:26:50.671500	72.3	25.0	-94.8	0.0
2026-01-19 22:26:51.815290	72.7	25.1	-94.9	0.0
2026-01-19 22:26:52.950065	73.0	25.1	-94.9	0.0
2026-01-19 22:26:54.085931	73.3	25.2	-94.9	0.0
2026-01-19 22:26:55.220295	73.6	25.3	-94.8	0.0
2026-01-19 22:26:56.356022	73.9	25.3	-94.8	0.0
2026-01-19 22:26:57.493881	74.3	25.4	-95.0	0.0
2026-01-19 22:26:58.647238	74.6	25.4	-94.8	0.0
2026-01-19 22:26:59.781158	74.9	25.5	-94.8	0.0
2026-01-19 22:27:00.920759	75.2	25.5	-94.8	0.0
2026-01-19 22:27:02.056407	75.6	25.6	-94.9	0.0
2026-01-19 22:27:03.190614	75.9	25.6	-94.8	0.0
2026-01-19 22:27:04.322258	76.2	25.7	-94.8	0.0
2026-01-19 22:27:05.459729	76.6	25.7	-94.9	0.0
2026-01-19 22:27:06.599536	76.9	25.7	-94.8	0.0
2026-01-19 22:27:07.736974	77.2	25.8	-94.7	0.0
2026-01-19 22:27:08.873140	77.6	25.8	-94.7	0.0
2026-01-19 22:27:10.011507	77.9	25.9	-94.8	0.0
2026-01-19 22:27:11.150265	78.2	25.9	-94.9	0.0
2026-01-19 22:27:12.287310	78.6	26.0	-94.8	0.0
2026-01-19 22:27:13.428352	78.9	26.0	-94.9	0.0
2026-01-19 22:27:14.561015	79.2	26.0	-94.9	0.0
2026-01-19 22:27:15.694763	79.6	26.1	-94.9	0.0
2026-01-19 22:27:16.824065	79.9	26.1	-94.7	0.0
2026-01-19 22:27:17.965315	80.2	26.1	-94.9	0.0
2026-01-19 22:27:19.103910	80.6	26.2	-94.8	0.0
2026-01-19 22:27:20.240072	80.9	26.2	-94.8	0.0
2026-01-19 22:27:21.385444	81.3	26.2	-94.8	0.0
2026-01-19 22:27:22.519146	81.6	26.3	-94.8	0.0
2026-01-19 22:27:23.656539	82.0	26.3	-94.8	0.0
2026-01-19 22:27:24.790477	82.3	26.3	-94.8	0.0
2026-01-19 22:27:25.932492	82.6	26.4	-94.9	0.0
2026-01-19 22:27:27.069216	83.0	26.4	-94.9	0.0
2026-01-19 22:27:28.211372	83.3	26.4	-94.7	0.0
2026-01-19 22:27:29.347404	83.7	26.4	-94.8	0.0
2026-01-19 22:27:30.481399	84.0	26.5	-94.7	0.0
2026-01-19 22:27:31.620128	84.4	26.5	-95.0	0.0
2026-01-19 22:27:32.751973	84.7	26.5	-94.7	0.0
2026-01-19 22:27:33.888283	85.1	26.5	-94.9	0.0
2026-01-19 22:27:35.022106	85.4	26.6	-94.8	0.0
2026-01-19 22:27:36.157932	85.8	26.6	-94.8	0.0
2026-01-19 22:27:37.293991	86.1	26.6	-94.8	0.0
2026-01-19 22:27:38.427371	86.5	26.6	-94.9	0.0
2026-01-19 22:27:39.569996	86.8	26.6	-94.8	0.0
2026-01-19 22:27:40.707679	87.2	26.6	-94.8	0.0
2026-01-19 22:27:41.842360	87.5	26.7	-94.8	0.0
2026-01-19 22:27:42.984136	87.9	26.7	-95.0	0.0
2026-01-19 22:27:44.121514	88.2	26.7	-94.8	0.0
2026-01-19 22:27:45.258088	88.6	26.7	-94.9	0.0
2026-01-19 22:27:46.395869	88.9	26.7	-94.9	0.0
2026-01-19 22:27:47.530140	89.3	26.7	-94.9	0.0
2026-01-19 22:27:48.664655	89.6	26.7	-94.9	0.0
2026-01-19 22:27:49.799028	90.0	26.7	-94.9	0.0
2026-01-19 22:27:50.932088	90.3	26.7	-94.9	0.0
2026-01-19 22:27:52.070157	90.7	26.7	-94.8	0.0
2026-01-19 22:27:53.210340	91.0	26.7	-94.7	0.0
2026-01-19 22:27:54.344206	91.4	26.7	-94.8	0.0
2026-01-19 22:27:55.487136	91.7	26.7	-94.8	0.0
2026-01-19 22:27:56.619654	92.1	26.7	-94.9	0.0
2026-01-19 22:27:57.754681	92.4	26.7	-94.9	0.0
2026-01-19 22:27:58.893720	92.8	26.7	-94.8	0.0
2026-01-19 22:28:00.033098	93.1	26.7	-94.7	0.0
2026-01-19 22:28:01.170992	93.5	26.7	-94.8	0.0
2026-01-19 22:28:02.312865	93.8	26.7	-94.9	0.0
2026-01-19 22:28:03.442664	94.2	26.7	-94.8	0.0
2026-01-19 22:28:04.588284	94.6	26.7	-94.9	0.0
2026-01-19 22:28:05.726534	94.9	26.7	-94.8	0.0
2026-01-19 22:28:06.860173	95.3	26.7	-94.9	0.0
2026-01-19 22:28:08.000994	95.6	26.7	-94.9	0.0
2026-01-19 22:28:09.134080	96.0	26.6	-94.9	0.0
2026-01-19 22:28:10.275687	96.3	26.6	-94.8	0.0
2026-01-19 22:28:11.408661	96.7	26.6	-95.0	0.0
2026-01-19 22:28:12.543879	97.0	26.6	-94.9	0.0
2026-01-19 22:28:13.687498	97.4	26.6	-94.8	0.0
2026-01-19 22:28:14.821351	97.7	26.6	-94.9	0.0
2026-01-19 22:28:15.958252	98.1	26.5	-94.7	0.0
2026-01-19 22:28:17.094054	98.4	26.5	-94.7	0.0
2026-01-19 22:28:18.228440	98.7	26.5	-94.9	0.0
2026-01-19 22:28:19.364907	99.1	26.5	-94.7	0.0
2026-01-19 22:28:20.495803	99.4	26.4	-94.8	0.0
2026-01-19 22:28:21.632570	99.8	26.4	-94.8	0.0
2026-01-19 22:28:22.768440	100.1	26.4	-94.9	0.0
2026-01-19 22:28:23.906183	100.5	26.4	-94.9	0.0
2026-01-19 22:28:25.039060	100.8	26.3	-94.8	0.0
2026-01-19 22:28:26.174422	101.2	26.3	-94.7	0.0
2026-01-19 22:28:27.318581	101.5	26.3	-94.9	0.0
2026-01-19 22:28:28.455731	101.9	26.2	-94.8	0.0
2026-01-19 22:28:29.591615	102.2	26.2	-94.6	0.0
2026-01-19 22:28:30.727315	102.5	26.2	-94.9	0.0
2026-01-19 22:28:31.862170	102.9	26.1	-94.9	0.0
2026-01-19 22:28:33.002994	103.2	26.1	-94.7	0.0
2026-01-19 22:28:34.148546	103.6	26.1	-94.8	0.0
2026-01-19 22:28:35.283774	103.9	26.0	-94.9	0.0
2026-01-19 22:28:36.416156	104.2	26.0	-94.7	0.0
2026-01-19 22:28:37.551891	104.6	25.9	-94.7	0.0
2026-01-19 22:28:38.691179	104.9	25.9	-94.9	0.0
2026-01-19 22:28:39.824339	105.2	25.9	-94.9	0.0
2026-01-19 22:28:40.967527	105.6	25.8	-94.8	0.0
2026-01-19 22:28:42.107605	105.9	25.8	-94.7	0.0
2026-01-19 22:28:43.244122	106.2	25.7	-94.9	0.0
2026-01-19 22:28:44.377630	106.6	25.7	-94.7	0.0
2026-01-19 22:28:45.516100	106.9	25.6	-94.8	0.0
2026-01-19 22:28:46.652869	107.2	25.6	-94.8	0.0
2026-01-19 22:28:47.789659	107.6	25.5	-95.0	0.0
2026-01-19 22:28:48.921761	107.9	25.5	-94.9	0.0
2026-01-19 22:28:50.057922	108.2	25.4	-95.0	0.0
2026-01-19 22:28:51.192637	108.5	25.4	-94.9	0.0
2026-01-19 22:28:52.328328	108.9	25.3	-94.8	0.0
2026-01-19 22:28:53.469199	109.2	25.3	-94.7	0.0
2026-01-19 22:28:54.607682	109.5	25.2	-94.7	0.0
2026-01-19 22:28:55.749085	109.8	25.2	-94.8	0.0
2026-01-19 22:28:56.887010	110.1	25.1	-94.9	0.0
2026-01-19 22:28:58.022370	110.5	25.1	-95.0	0.0
2026-01-19 22:28:59.158934	110.8	25.0	-95.0	0.0
2026-01-19 22:29:00.293550	111.1	24.9	-94.8	0.0
2026-01-19 22:29:01.428170	111.4	24.9	-94.9	0.0
2026-01-19 22:29:02.568059	111.7	24.8	-95.0	0.0
2026-01-19 22:29:03.709824	112.0	24.8	-94.8	0.0
2026-01-19 22:29:04.842870	112.3	24.7	-94.9	0.0
2026-01-19 22:29:05.982341	112.7	24.6	-94.8	0.0
2026-01-19 22:29:07.116231	113.0	24.6	-94.9	0.0
2026-01-19 22:29:08.256107	113.3	24.5	-94.9	0.0
2026-01-19 22:29:09.395036	113.6	24.4	-94.8	0.0
2026-01-19 22:29:10.529864	113.9	24.4	-95.0	0.0
2026-01-19 22:29:11.665875	114.2	24.3	-94.7	0.0
2026-01-19 22:29:12.802573	114.5	24.3	-94.7	0.0
2026-01-19 22:29:13.944975	114.8	24.2	-94.8	0.0
2026-01-19 22:29:15.080990	115.1	24.1	-94.8	0.0
2026-01-19 22:29:16.216770	115.4	24.1	-94.7	0.0
2026-01-19 22:29:17.354105	115.7	24.0	-94.8	0.0
2026-01-19 22:29:18.490973	116.0	23.9	-94.9	0.0
2026-01-19 22:29:19.629223	116.3	23.8	-94.9	0.0
2026-01-19 22:29:20.769556	116.6	23.8	-94.6	0.0
2026-01-19 22:29:21.912261	116.9	23.7	-94.9	0.0
2026-01-19 22:29:23.049143	117.2	23.6	-94.9	0.0
2026-01-19 22:29:24.184247	117.5	23.6	-94.7	0.0
2026-01-19 22:29:25.322112	117.8	23.5	-94.9	0.0
2026-01-19 22:29:26.457295	118.0	23.4	-95.0	0.0
2026-01-19 22:29:27.591335	118.3	23.3	-94.7	0.0
2026-01-19 22:29:28.726941	118.6	23.3	-94.7	0.0
2026-01-19 22:29:29.863932	118.9	23.2	-94.8	0.0
2026-01-19 22:29:31.000298	119.2	23.1	-94.9	0.0
2026-01-19 22:29:32.145393	119.5	23.0	-94.8	0.0
2026-01-19 22:29:33.282653	119.7	23.0	-94.9	0.0
2026-01-19 22:29:34.417963	120.0	22.9	-94.8	0.0
2026-01-19 22:29:35.555844	120.3	22.8	-94.9	0.0
2026-01-19 22:29:36.692025	120.6	22.7	-94.9	0.0
2026-01-19 22:29:37.828891	120.9	22.7	-94.9	0.0
2026-01-19 22:29:38.968263	121.1	22.6	-94.6	0.0
2026-01-19 22:29:40.109353	121.4	22.5	-95.0	0.0
2026-01-19 22:29:41.243226	121.7	22.4	-94.9	0.0
2026-01-19 22:29:42.376346	121.9	22.3	-94.9	0.0
2026-01-19 22:29:43.511118	122.2	22.3	-94.7	0.0
2026-01-19 22:29:44.647067	122.5	22.2	-94.9	0.0
2026-01-19 22:29:45.787052	122.7	22.1	-94.9	0.0
2026-01-19 22:29:46.925455	123.0	22.0	-94.8	0.0
2026-01-19 22:29:48.058489	123.3	21.9	-94.8	0.0
2026-01-19 22:29:49.191839	123.5	21.9	-95.0	0.0
2026-01-19 22:29:50.335134	123.8	21.8	-94.9	0.0
2026-01-19 22:29:51.469837	124.0	21.7	-94.8	0.0
2026-01-19 22:29:52.602658	124.3	21.6	-94.8	0.0
2026-01-19 22:29:53.737570	124.6	21.5	-94.8	0.0
2026-01-19 22:29:54.872860	124.8	21.4	-94.8	0.0
2026-01-19 22:29:56.011837	125.1	21.4	-94.7	0.0
2026-01-19 22:29:57.147899	125.3	21.3	-94.9	0.0
2026-01-19 22:29:58.288169	125.6	21.2	-94.9	0.0
2026-01-19 22:29:59.425888	125.8	21.1	-94.7	0.0
2026-01-19 22:30:00.564376	126.1	21.0	-94.9	0.0
2026-01-19 22:30:01.702569	126.3	20.9	-94.9	0.0
2026-01-19 22:30:02.834934	126.6	20.9	-94.8	0.0
2026-01-19 22:30:03.968789	126.8	20.8	-95.0	0.0
2026-01-19 22:30:05.102064	127.0	20.7	-94.8	0.0
2026-01-19 22:30:06.235936	127.3	20.6	-94.9	0.0
2026-01-19 22:30:07.372384	127.5	20.5	-94.9	0.0
2026-01-19 22:30:08.509048	127.8	20.4	-94.8	0.0
2026-01-19 22:30:09.649037	128.0	20.3	-95.0	0.0
2026-01-19 22:30:10.787268	128.2	20.3	-94.8	0.0
2026-01-19 22:30:11.930982	128.5	20.2	-95.0	0.0
2026-01-19 22:30:13.068916	128.7	20.1	-94.9	0.0
2026-01-19 22:30:14.203835	128.9	20.0	-95.0	0.0
2026-01-19 22:30:15.337272	129.2	19.9	-94.9	0.0
2026-01-19 22:30:16.479024	129.4	19.8	-94.8	0.0
2026-01-19 22:30:17.614494	129.6	19.7	-94.8	0.0
2026-01-19 22:30:18.751853	129.9	19.6	-94.9	0.0
2026-01-19 22:30:19.885168	130.1	19.6	-94.7	0.0
2026-01-19 22:30:21.022818	130.3	19.5	-94.7	0.0
2026-01-19 22:30:22.159463	130.5	19.4	-95.0	0.0
2026-01-19 22:30:23.295177	130.7	19.3	-94.8	0.0
2026-01-19 22:30:24.432700	131.0	19.2	-94.8	0.0
2026-01-19 22:30:25.570515	131.2	19.1	-94.8	0.0
2026-01-19 22:30:26.706257	131.4	19.0	-94.8	0.0
2026-01-19 22:30:27.843064	131.6	18.9	-94.8	0.0
2026-01-19 22:30:28.976926	131.8	18.8	-94.8	0.0
2026-01-19 22:30:30.116727	132.1	18.8	-94.9	0.0
2026-01-19 22:30:31.257924	132.3	18.7	-94.8	0.0
2026-01-19 22:30:32.398767	132.5	18.6	-94.8	0.0
2026-01-19 22:30:33.537648	132.7	18.5	-94.7	0.0
2026-01-19 22:30:34.673882	132.9	18.4	-94.8	0.0
2026-01-19 22:30:35.810757	133.1	18.3	-94.8	0.0
2026-01-19 22:30:36.946951	133.3	18.2	-94.9	0.0
2026-01-19 22:30:38.086297	133.5	18.1	-94.8	0.0
2026-01-19 22:30:39.223339	133.7	18.0	-94.8	0.0
2026-01-19 22:30:40.361900	133.9	18.0	-94.9	0.0
2026-01-19 22:30:41.499753	134.1	17.9	-94.8	0.0
2026-01-19 22:30:42.632953	134.3	17.8	-94.8	0.0
2026-01-19 22:30:43.771265	134.5	17.7	-94.8	0.0
2026-01-19 22:30:44.905450	134.7	17.6	-95.0	0.0
2026-01-19 22:30:46.035844	134.9	17.5	-94.8	0.0
2026-01-19 22:30:47.176724	135.1	17.4	-94.9	0.0
2026-01-19 22:30:48.310816	135.3	17.3	-94.7	0.0
2026-01-19 22:30:49.446204	135.5	17.2	-95.0	0.0
2026-01-19 22:30:50.582854	135.7	17.2	-94.8	0.0
2026-01-19 22:30:51.719321	135.9	17.1	-94.8	0.0
2026-01-19 22:30:52.856972	136.1	17.0	-94.9	0.0
2026-01-19 22:30:53.994905	136.3	16.9	-94.8	0.0
2026-01-19 22:30:55.142340	136.5	16.8	-94.9	0.0
2026-01-19 22:30:56.277764	136.7	16.7	-94.7	0.0
2026-01-19 22:30:57.414917	136.9	16.6	-94.9	0.0
2026-01-19 22:30:58.549869	137.0	16.5	-94.9	0.0
2026-01-19 22:30:59.699021	137.2	16.4	-95.1	0.0
2026-01-19 22:31:00.837157	137.4	16.3	-94.9	0.0
2026-01-19 22:31:01.973974	137.6	16.3	-94.8	0.0
2026-01-19 22:31:03.112812	137.8	16.2	-95.0	0.0
2026-01-19 22:31:04.249460	138.0	16.1	-94.8	0.0
2026-01-19 22:31:05.383394	138.1	16.0	-94.9	0.0
2026-01-19 22:31:06.517174	138.3	15.9	-94.8	0.0
2026-01-19 22:31:07.660735	138.5	15.8	-94.9	0.0
2026-01-19 22:31:08.798177	138.7	15.7	-94.8	0.0
2026-01-19 22:31:09.936873	138.9	15.6	-94.7	0.0
2026-01-19 22:31:11.068734	139.0	15.6	-94.7	0.0
2026-01-19 22:31:12.202115	139.2	15.5	-95.0	0.0
2026-01-19 22:31:13.345887	139.4	15.4	-95.1	0.0
2026-01-19 22:31:14.483385	139.5	15.3	-95.0	0.0
2026-01-19 22:31:15.622585	139.7	15.2	-95.1	0.0
2026-01-19 22:31:16.763236	139.9	15.1	-94.7	0.0
2026-01-19 22:31:17.898111	140.1	15.0	-94.8	0.0
2026-01-19 22:31:19.031957	140.2	14.9	-94.8	0.0
#Closed at: 2026-01-19 22:24:25.036750