passes_logs/2025/01/25/planumMaritime01/planumMaritime01__20250125_013355_METEOR-M2_2_rec.log

#Pass ID: 20250125_013355_METEOR-M2 2
#Satellite: METEOR-M2 2
#Configuration: METEOR-M2 2
#Start time: 2025-01-25 01:34:00.708787

#LorettStation: 1.0.0 05.05.2024
#Station: planumMaritime01
#Location: 37.49445 lon 55.92918 lat
#TLE: 1 44387U 19038A   25024.76368027  .00000427  00000+0  20528-3 0  9991
#TLE: 2 44387  98.8579   1.2349 0002158  64.0416 296.0984 14.24124981288923

#Time	Az	El	Level	SNR
2025-01-25 01:34:02.877740	23.0	10.2	-78.1	0.0
2025-01-25 01:34:05.124626	23.1	10.4	-78.1	0.0
2025-01-25 01:34:07.373173	23.2	10.6	-78.2	0.0
2025-01-25 01:34:09.620142	23.3	10.8	-78.2	0.0
2025-01-25 01:34:11.863021	23.4	11.0	-78.4	0.0
2025-01-25 01:34:14.111302	23.5	11.2	-78.4	0.0
2025-01-25 01:34:16.358573	23.6	11.4	-78.4	0.0
2025-01-25 01:34:18.604020	23.8	11.6	-78.4	0.0
2025-01-25 01:34:20.847928	23.9	11.8	-78.4	0.0
2025-01-25 01:34:23.092643	24.0	12.0	-78.5	0.0
2025-01-25 01:34:25.338772	24.1	12.2	-78.3	0.0
2025-01-25 01:34:27.585536	24.2	12.4	-78.5	0.0
2025-01-25 01:34:29.832375	24.3	12.6	-78.6	0.0
2025-01-25 01:34:32.079693	24.5	12.8	-78.6	0.0
2025-01-25 01:34:34.327651	24.6	13.0	-78.5	0.0
2025-01-25 01:34:36.572594	24.7	13.2	-78.3	0.0
2025-01-25 01:34:38.820390	24.8	13.4	-78.4	0.0
2025-01-25 01:34:41.065911	24.9	13.7	-78.7	0.0
2025-01-25 01:34:43.311410	25.1	13.9	-78.7	0.0
2025-01-25 01:34:45.558946	25.2	14.1	-78.7	0.0
2025-01-25 01:34:47.805176	25.3	14.3	-78.8	0.0
2025-01-25 01:34:50.051052	25.5	14.6	-78.8	0.0
2025-01-25 01:34:52.293102	25.6	14.8	-78.8	0.0
2025-01-25 01:34:54.539617	25.7	15.0	-78.8	0.0
2025-01-25 01:34:56.785282	25.9	15.2	-78.7	0.0
2025-01-25 01:34:59.031685	26.0	15.5	-78.9	0.0
2025-01-25 01:35:01.277586	26.2	15.7	-78.6	0.0
2025-01-25 01:35:03.522954	26.3	16.0	-78.6	0.0
2025-01-25 01:35:05.767897	26.5	16.2	-78.5	0.0
2025-01-25 01:35:08.012649	26.6	16.4	-79.0	0.0
2025-01-25 01:35:10.258631	26.8	16.7	-78.6	0.0
2025-01-25 01:35:12.504961	26.9	16.9	-78.6	0.0
2025-01-25 01:35:14.749895	27.1	17.2	-78.5	0.0
2025-01-25 01:35:16.995880	27.2	17.4	-78.8	0.0
2025-01-25 01:35:19.241134	27.4	17.7	-78.8	0.0
2025-01-25 01:35:21.485656	27.6	17.9	-78.7	0.0
2025-01-25 01:35:23.731738	27.7	18.2	-78.4	0.0
2025-01-25 01:35:25.974253	27.9	18.5	-78.8	0.0
2025-01-25 01:35:28.220206	28.1	18.7	-78.7	0.0
2025-01-25 01:35:30.463738	28.2	19.0	-78.5	0.0
2025-01-25 01:35:32.709337	28.4	19.3	-78.7	0.0
2025-01-25 01:35:34.959146	28.6	19.5	-79.0	0.0
2025-01-25 01:35:37.204029	28.8	19.8	-78.9	0.0
2025-01-25 01:35:39.449510	29.0	20.1	-78.8	0.0
2025-01-25 01:35:41.696374	29.2	20.4	-78.9	0.0
2025-01-25 01:35:43.940970	29.4	20.7	-78.8	0.0
2025-01-25 01:35:46.187866	29.6	21.0	-78.9	0.0
2025-01-25 01:35:48.432921	29.8	21.2	-78.7	0.0
2025-01-25 01:35:50.680886	30.0	21.5	-78.9	0.0
2025-01-25 01:35:52.928000	30.2	21.8	-78.9	0.0
2025-01-25 01:35:55.172780	30.4	22.1	-79.1	0.0
2025-01-25 01:35:57.417340	30.6	22.4	-78.9	0.0
2025-01-25 01:35:59.665354	30.8	22.7	-79.2	0.0
2025-01-25 01:36:01.909390	31.1	23.1	-79.1	0.0
2025-01-25 01:36:04.158207	31.3	23.4	-79.0	0.0
2025-01-25 01:36:06.401170	31.5	23.7	-79.1	0.0
2025-01-25 01:36:08.645946	31.8	24.0	-79.0	0.0
2025-01-25 01:36:10.892655	32.0	24.3	-79.0	0.0
2025-01-25 01:36:13.138798	32.3	24.7	-79.2	0.0
2025-01-25 01:36:15.387378	32.5	25.0	-78.9	0.0
2025-01-25 01:36:17.634913	32.8	25.3	-79.1	0.0
2025-01-25 01:36:19.879601	33.0	25.7	-79.1	0.0
2025-01-25 01:36:22.125346	33.3	26.0	-79.1	0.0
2025-01-25 01:36:24.370197	33.6	26.4	-79.1	0.0
2025-01-25 01:36:26.617634	33.9	26.7	-78.9	0.0
2025-01-25 01:36:28.862148	34.2	27.1	-78.7	0.0
2025-01-25 01:36:31.106468	34.5	27.4	-79.1	0.0
2025-01-25 01:36:33.352129	34.8	27.8	-79.2	0.0
2025-01-25 01:36:35.597792	35.1	28.1	-79.1	0.0
2025-01-25 01:36:37.843572	35.4	28.5	-79.3	0.0
2025-01-25 01:36:40.090766	35.7	28.9	-79.2	0.0
2025-01-25 01:36:42.337348	36.0	29.3	-79.1	0.0
2025-01-25 01:36:44.584882	36.4	29.7	-79.1	0.0
2025-01-25 01:36:46.830951	36.7	30.0	-79.2	0.0
2025-01-25 01:36:49.074942	37.1	30.4	-78.8	0.0
2025-01-25 01:36:51.322166	37.4	30.8	-79.1	0.0
2025-01-25 01:36:53.569351	37.8	31.2	-79.3	0.0
2025-01-25 01:36:55.818648	38.2	31.6	-79.0	0.0
2025-01-25 01:36:58.063715	38.6	32.0	-79.3	0.0
2025-01-25 01:37:00.309392	39.0	32.5	-78.7	0.0
2025-01-25 01:37:02.553656	39.4	32.9	-79.0	0.0
2025-01-25 01:37:04.799981	39.8	33.3	-78.7	0.0
2025-01-25 01:37:07.045890	40.2	33.7	-79.0	0.0
2025-01-25 01:37:09.294430	40.7	34.2	-78.9	0.0
2025-01-25 01:37:11.539342	41.1	34.6	-79.2	0.0
2025-01-25 01:37:13.785690	41.6	35.0	-79.4	0.0
2025-01-25 01:37:16.031675	42.1	35.5	-78.9	0.0
2025-01-25 01:37:18.274987	42.6	35.9	-79.0	0.0
2025-01-25 01:37:20.524240	43.1	36.4	-79.2	0.0
2025-01-25 01:37:22.768406	43.6	36.8	-79.3	0.0
2025-01-25 01:37:25.014255	44.1	37.3	-78.9	0.0
2025-01-25 01:37:27.259537	44.7	37.7	-79.2	0.0
2025-01-25 01:37:29.506614	45.3	38.2	-79.1	0.0
2025-01-25 01:37:31.752348	45.8	38.7	-79.3	0.0
2025-01-25 01:37:33.996057	46.4	39.1	-79.0	0.0
2025-01-25 01:37:36.238255	47.0	39.6	-79.1	0.0
2025-01-25 01:37:38.485588	47.7	40.1	-79.0	0.0
2025-01-25 01:37:40.728034	48.3	40.6	-79.1	0.0
2025-01-25 01:37:42.973291	49.0	41.1	-79.1	0.0
2025-01-25 01:37:45.220102	49.7	41.6	-79.2	0.0
2025-01-25 01:37:47.462201	50.4	42.0	-79.3	0.0
2025-01-25 01:37:49.703517	51.1	42.5	-78.9	0.0
2025-01-25 01:37:51.944081	51.9	43.0	-79.2	0.0
2025-01-25 01:37:54.183895	52.7	43.5	-79.2	0.0
2025-01-25 01:37:56.425252	53.5	44.0	-79.3	0.0
2025-01-25 01:37:58.666643	54.3	44.5	-79.2	0.0
2025-01-25 01:38:00.911123	55.2	45.0	-79.3	0.0
2025-01-25 01:38:03.155647	56.0	45.5	-79.3	0.0
2025-01-25 01:38:05.399452	56.9	46.0	-79.4	0.0
2025-01-25 01:38:07.639956	57.9	46.4	-79.3	0.0
2025-01-25 01:38:09.881008	58.8	46.9	-79.3	0.0
2025-01-25 01:38:12.122652	59.8	47.4	-79.4	0.0
2025-01-25 01:38:14.364440	60.9	47.9	-79.3	0.0
2025-01-25 01:38:16.605951	61.9	48.4	-79.4	0.0
2025-01-25 01:38:18.847781	63.0	48.8	-79.3	0.0
2025-01-25 01:38:21.088062	64.1	49.3	-79.3	0.0
2025-01-25 01:38:23.330118	65.3	49.7	-79.3	0.0
2025-01-25 01:38:25.574494	66.5	50.2	-79.3	0.0
2025-01-25 01:38:27.818966	67.7	50.6	-79.4	0.0
2025-01-25 01:38:30.063567	69.0	51.0	-79.5	0.0
2025-01-25 01:38:32.308463	70.3	51.5	-79.2	0.0
2025-01-25 01:38:34.554263	71.6	51.9	-79.3	0.0
2025-01-25 01:38:36.801804	73.0	52.2	-79.4	0.0
2025-01-25 01:38:39.047774	74.4	52.6	-79.4	0.0
2025-01-25 01:38:41.290715	75.8	53.0	-79.3	0.0
2025-01-25 01:38:43.535851	77.3	53.3	-79.4	0.0
2025-01-25 01:38:45.783235	78.8	53.7	-79.4	0.0
2025-01-25 01:38:48.026568	80.4	54.0	-79.3	0.0
2025-01-25 01:38:50.272000	81.9	54.3	-79.4	0.0
2025-01-25 01:38:52.520152	83.6	54.5	-79.0	0.0
2025-01-25 01:38:54.766260	85.2	54.8	-79.5	0.0
2025-01-25 01:38:57.010981	86.9	55.0	-79.3	0.0
2025-01-25 01:38:59.258216	88.5	55.2	-79.3	0.0
2025-01-25 01:39:01.504879	90.3	55.4	-79.4	0.0
2025-01-25 01:39:03.753257	92.0	55.5	-79.1	0.0
2025-01-25 01:39:05.999399	93.8	55.7	-79.5	0.0
2025-01-25 01:39:08.243026	95.5	55.8	-79.4	0.0
2025-01-25 01:39:10.490325	97.3	55.9	-79.3	0.0
2025-01-25 01:39:12.733374	99.1	55.9	-79.4	0.0
2025-01-25 01:39:14.974439	100.9	55.9	-79.3	0.0
2025-01-25 01:39:17.222088	102.7	55.9	-79.5	0.0
2025-01-25 01:39:19.466085	104.5	55.9	-79.2	0.0
2025-01-25 01:39:21.714594	106.3	55.8	-79.2	0.0
2025-01-25 01:39:23.963137	108.0	55.8	-79.2	0.0
2025-01-25 01:39:26.207415	109.8	55.7	-79.1	0.0
2025-01-25 01:39:28.451729	111.5	55.5	-79.2	0.0
2025-01-25 01:39:30.697952	113.3	55.4	-79.2	0.0
2025-01-25 01:39:32.940695	115.0	55.2	-79.0	0.0
2025-01-25 01:39:35.186850	116.7	55.0	-79.2	0.0
2025-01-25 01:39:37.434346	118.3	54.7	-79.2	0.0
2025-01-25 01:39:39.680437	120.0	54.5	-79.2	0.0
2025-01-25 01:39:41.925071	121.6	54.2	-79.4	0.0
2025-01-25 01:39:44.170904	123.2	53.9	-79.2	0.0
2025-01-25 01:39:46.417939	124.7	53.6	-79.4	0.0
2025-01-25 01:39:48.664221	126.2	53.3	-79.2	0.0
2025-01-25 01:39:50.912084	127.7	52.9	-78.9	0.0
2025-01-25 01:39:53.158321	129.1	52.5	-79.2	0.0
2025-01-25 01:39:55.402510	130.5	52.2	-79.2	0.0
2025-01-25 01:39:57.651559	131.9	51.8	-79.5	0.0
2025-01-25 01:39:59.895907	133.2	51.4	-79.3	0.0
2025-01-25 01:40:02.140671	134.5	50.9	-79.2	0.0
2025-01-25 01:40:04.388097	135.8	50.5	-79.2	0.0
2025-01-25 01:40:06.634495	137.0	50.1	-79.4	0.0
2025-01-25 01:40:08.879084	138.2	49.6	-79.3	0.0
2025-01-25 01:40:11.124661	139.3	49.2	-79.6	0.0
2025-01-25 01:40:13.368157	140.4	48.7	-79.5	0.0
2025-01-25 01:40:15.616080	141.5	48.2	-79.3	0.0
2025-01-25 01:40:17.861934	142.6	47.8	-79.3	0.0
2025-01-25 01:40:20.106482	143.6	47.3	-79.4	0.0
2025-01-25 01:40:22.355462	144.6	46.8	-79.6	0.0
2025-01-25 01:40:24.601067	145.6	46.3	-79.6	0.0
2025-01-25 01:40:26.846045	146.5	45.8	-79.4	0.0
2025-01-25 01:40:29.090603	147.4	45.3	-79.6	0.0
2025-01-25 01:40:31.337711	148.3	44.8	-79.5	0.0
2025-01-25 01:40:33.582097	149.1	44.3	-79.4	0.0
2025-01-25 01:40:35.829381	149.9	43.8	-79.6	0.0
2025-01-25 01:40:38.072192	150.7	43.3	-79.5	0.0
2025-01-25 01:40:40.315265	151.5	42.9	-79.4	0.0
2025-01-25 01:40:42.564420	152.3	42.4	-79.5	0.0
2025-01-25 01:40:44.809001	153.0	41.9	-79.4	0.0
2025-01-25 01:40:47.054662	153.7	41.4	-79.3	0.0
2025-01-25 01:40:49.301755	154.4	40.9	-79.5	0.0
2025-01-25 01:40:51.549363	155.1	40.4	-79.2	0.0
2025-01-25 01:40:53.795063	155.7	39.9	-79.5	0.0
2025-01-25 01:40:56.039776	156.3	39.4	-79.5	0.0
2025-01-25 01:40:58.285385	157.0	39.0	-79.6	0.0
2025-01-25 01:41:00.529711	157.6	38.5	-79.6	0.0
2025-01-25 01:41:02.776031	158.1	38.0	-79.6	0.0
2025-01-25 01:41:05.021217	158.7	37.6	-79.4	0.0
2025-01-25 01:41:07.266637	159.2	37.1	-79.4	0.0
2025-01-25 01:41:09.511206	159.8	36.6	-79.5	0.0
2025-01-25 01:41:11.755770	160.3	36.2	-79.3	0.0
2025-01-25 01:41:13.999962	160.8	35.7	-79.6	0.0
2025-01-25 01:41:16.245540	161.3	35.3	-79.5	0.0
2025-01-25 01:41:18.490852	161.8	34.8	-79.5	0.0
2025-01-25 01:41:20.734987	162.2	34.4	-79.3	0.0
2025-01-25 01:41:22.979632	162.7	34.0	-79.5	0.0
2025-01-25 01:41:25.225142	163.1	33.5	-79.4	0.0
2025-01-25 01:41:27.469962	163.5	33.1	-79.5	0.0
2025-01-25 01:41:29.720288	164.0	32.7	-79.5	0.0
2025-01-25 01:41:31.963039	164.4	32.3	-79.5	0.0
2025-01-25 01:41:34.211324	164.8	31.8	-79.5	0.0
2025-01-25 01:41:36.455571	165.1	31.4	-79.5	0.0
2025-01-25 01:41:38.697273	165.5	31.0	-79.4	0.0
2025-01-25 01:41:40.941967	165.9	30.6	-79.4	0.0
2025-01-25 01:41:43.187757	166.3	30.2	-79.5	0.0
2025-01-25 01:41:45.435179	166.6	29.8	-79.7	0.0
2025-01-25 01:41:47.681803	166.9	29.5	-79.7	0.0
2025-01-25 01:41:49.927818	167.3	29.1	-79.6	0.0
2025-01-25 01:41:52.173572	167.6	28.7	-79.6	0.0
2025-01-25 01:41:54.418832	167.9	28.3	-79.5	0.0
2025-01-25 01:41:56.666982	168.2	27.9	-79.7	0.0
2025-01-25 01:41:58.909284	168.6	27.6	-79.3	0.0
2025-01-25 01:42:01.152511	168.8	27.2	-79.5	0.0
2025-01-25 01:42:03.396610	169.1	26.9	-79.5	0.0
2025-01-25 01:42:05.641339	169.4	26.5	-79.4	0.0
2025-01-25 01:42:07.886844	169.7	26.1	-79.5	0.0
2025-01-25 01:42:10.133318	170.0	25.8	-79.3	0.0
2025-01-25 01:42:12.381164	170.3	25.5	-78.9	0.0
2025-01-25 01:42:14.626073	170.5	25.1	-79.3	0.0
2025-01-25 01:42:16.871534	170.8	24.8	-79.3	0.0
2025-01-25 01:42:19.121284	171.0	24.5	-79.2	0.0
2025-01-25 01:42:21.368235	171.3	24.1	-79.4	0.0
2025-01-25 01:42:23.611766	171.5	23.8	-79.6	0.0
2025-01-25 01:42:25.860204	171.8	23.5	-79.6	0.0
2025-01-25 01:42:28.108012	172.0	23.2	-79.3	0.0
2025-01-25 01:42:30.354679	172.2	22.8	-79.4	0.0
2025-01-25 01:42:32.601127	172.4	22.5	-79.6	0.0
2025-01-25 01:42:34.847400	172.7	22.2	-79.4	0.0
2025-01-25 01:42:37.089816	172.9	21.9	-79.4	0.0
2025-01-25 01:42:39.337198	173.1	21.6	-78.7	0.0
2025-01-25 01:42:41.581962	173.3	21.3	-79.3	0.0
2025-01-25 01:42:43.826494	173.5	21.0	-79.5	0.0
2025-01-25 01:42:46.071956	173.7	20.7	-79.5	0.0
2025-01-25 01:42:48.317135	173.9	20.4	-79.7	0.0
2025-01-25 01:42:50.561438	174.1	20.2	-79.6	0.0
2025-01-25 01:42:52.806789	174.3	19.9	-79.4	0.0
2025-01-25 01:42:55.055189	174.5	19.6	-79.6	0.0
2025-01-25 01:42:57.299144	174.6	19.3	-79.6	0.0
2025-01-25 01:42:59.543943	174.8	19.0	-79.6	0.0
2025-01-25 01:43:01.790136	175.0	18.8	-79.5	0.0
2025-01-25 01:43:04.034876	175.2	18.5	-79.7	0.0
2025-01-25 01:43:06.277590	175.3	18.2	-79.5	0.0
2025-01-25 01:43:08.522033	175.5	18.0	-79.3	0.0
2025-01-25 01:43:10.766950	175.7	17.7	-79.6	0.0
2025-01-25 01:43:13.013686	175.8	17.5	-79.5	0.0
2025-01-25 01:43:15.259631	176.0	17.2	-79.6	0.0
2025-01-25 01:43:17.508082	176.2	17.0	-79.4	0.0
2025-01-25 01:43:19.753535	176.3	16.7	-79.6	0.0
2025-01-25 01:43:21.999352	176.5	16.5	-79.5	0.0
2025-01-25 01:43:24.243965	176.6	16.2	-79.5	0.0
2025-01-25 01:43:26.490084	176.8	16.0	-79.3	0.0
2025-01-25 01:43:28.736323	176.9	15.7	-79.5	0.0
2025-01-25 01:43:30.982701	177.1	15.5	-79.6	0.0
2025-01-25 01:43:33.227872	177.2	15.2	-79.7	0.0
2025-01-25 01:43:35.472331	177.3	15.0	-79.4	0.0
2025-01-25 01:43:37.719579	177.5	14.8	-79.5	0.0
2025-01-25 01:43:39.964657	177.6	14.6	-79.0	0.0
2025-01-25 01:43:42.208364	177.7	14.3	-79.5	0.0
2025-01-25 01:43:44.457732	177.9	14.1	-79.4	0.0
2025-01-25 01:43:46.706466	178.0	13.9	-79.5	0.0
2025-01-25 01:43:48.948161	178.1	13.7	-79.4	0.0
2025-01-25 01:43:51.194953	178.3	13.4	-79.4	0.0
2025-01-25 01:43:53.438844	178.4	13.2	-79.2	0.0
2025-01-25 01:43:55.682651	178.5	13.0	-79.5	0.0
2025-01-25 01:43:57.927616	178.6	12.8	-79.5	0.0
2025-01-25 01:44:00.172846	178.7	12.6	-79.4	0.0
2025-01-25 01:44:02.420779	178.9	12.4	-79.6	0.0
2025-01-25 01:44:04.666236	179.0	12.1	-79.3	0.0
2025-01-25 01:44:06.908406	179.1	11.9	-79.4	0.0
2025-01-25 01:44:09.152310	179.2	11.7	-79.5	0.0
2025-01-25 01:44:11.398251	179.3	11.5	-79.4	0.0
2025-01-25 01:44:13.643121	179.4	11.3	-79.4	0.0
2025-01-25 01:44:15.888414	179.5	11.1	-79.5	0.0
2025-01-25 01:44:18.136007	179.6	10.9	-79.4	0.0
2025-01-25 01:44:20.384168	179.7	10.7	-79.4	0.0
2025-01-25 01:44:22.630545	179.8	10.5	-79.6	0.0
2025-01-25 01:44:24.876078	180.0	10.3	-79.5	0.0
2025-01-25 01:44:27.123557	180.1	10.1	-79.4	0.0
#Closed at: 2025-01-25 01:33:55.711573