passes_logs/2025/01/25/planumMaritime01/planumMaritime01__20250125_171409_METOP-C_rec.log

#Pass ID: 20250125_171409_METOP-C
#Satellite: METOP-C
#Configuration: METOP-C
#Start time: 2025-01-25 17:14:14.071698

#LorettStation: 1.0.0 05.05.2024
#Station: planumMaritime01
#Location: 37.49445 lon 55.92918 lat
#TLE: 1 43689U 18087A   25024.72465994  .00000378  00000+0  19278-3 0  9990
#TLE: 2 43689  98.6950  87.0713 0001843 146.4011 213.7283 14.21488564322598

#Time	Az	El	Level	SNR
2025-01-25 17:14:16.236012	131.7	10.2	-77.5	0.0
2025-01-25 17:14:18.482025	131.5	10.4	-77.7	0.0
2025-01-25 17:14:20.728900	131.4	10.6	-78.1	0.0
2025-01-25 17:14:22.976309	131.3	10.7	-78.1	0.0
2025-01-25 17:14:25.224072	131.1	10.9	-78.1	0.0
2025-01-25 17:14:27.471361	131.0	11.1	-77.8	0.0
2025-01-25 17:14:29.716812	130.8	11.3	-77.8	0.0
2025-01-25 17:14:31.961469	130.7	11.5	-78.1	0.0
2025-01-25 17:14:34.209093	130.5	11.7	-78.4	0.0
2025-01-25 17:14:36.453735	130.4	11.9	-77.8	0.0
2025-01-25 17:14:38.698009	130.2	12.1	-77.5	0.0
2025-01-25 17:14:40.942702	130.1	12.3	-76.7	0.0
2025-01-25 17:14:43.188637	129.9	12.5	-77.0	0.0
2025-01-25 17:14:45.434224	129.8	12.7	-77.8	0.0
2025-01-25 17:14:47.682589	129.6	12.9	-77.9	0.0
2025-01-25 17:14:49.930310	129.4	13.1	-77.9	0.0
2025-01-25 17:14:52.177272	129.3	13.3	-77.9	0.0
2025-01-25 17:14:54.422076	129.1	13.6	-78.5	0.0
2025-01-25 17:14:56.663909	128.9	13.8	-78.3	0.0
2025-01-25 17:14:58.906203	128.7	14.0	-77.6	0.0
2025-01-25 17:15:01.150471	128.6	14.2	-77.4	0.0
2025-01-25 17:15:03.397672	128.4	14.4	-78.8	0.0
2025-01-25 17:15:05.646710	128.2	14.6	-78.3	0.0
2025-01-25 17:15:07.896061	128.0	14.9	-78.7	0.0
2025-01-25 17:15:10.143699	127.8	15.1	-78.8	0.0
2025-01-25 17:15:12.389049	127.6	15.3	-78.8	0.0
2025-01-25 17:15:14.638268	127.4	15.5	-78.5	0.0
2025-01-25 17:15:16.884936	127.2	15.7	-78.9	0.0
2025-01-25 17:15:19.130459	127.0	16.0	-79.0	0.0
2025-01-25 17:15:21.373842	126.8	16.2	-78.7	0.0
2025-01-25 17:15:23.622758	126.6	16.4	-78.4	0.0
2025-01-25 17:15:25.867641	126.4	16.7	-78.5	0.0
2025-01-25 17:15:28.117237	126.2	16.9	-78.2	0.0
2025-01-25 17:15:30.362746	126.0	17.1	-78.6	0.0
2025-01-25 17:15:32.607325	125.7	17.4	-79.0	0.0
2025-01-25 17:15:34.853808	125.5	17.6	-78.2	0.0
2025-01-25 17:15:37.101095	125.3	17.9	-78.3	0.0
2025-01-25 17:15:39.348791	125.1	18.1	-78.5	0.0
2025-01-25 17:15:41.592038	124.8	18.4	-77.9	0.0
2025-01-25 17:15:43.837396	124.6	18.6	-78.4	0.0
2025-01-25 17:15:46.084361	124.3	18.9	-78.5	0.0
2025-01-25 17:15:48.331596	124.1	19.1	-79.1	0.0
2025-01-25 17:15:50.580069	123.8	19.4	-78.3	0.0
2025-01-25 17:15:52.824808	123.6	19.6	-78.0	0.0
2025-01-25 17:15:55.066732	123.3	19.9	-78.2	0.0
2025-01-25 17:15:57.312695	123.0	20.2	-78.4	0.0
2025-01-25 17:15:59.558191	122.8	20.4	-78.3	0.0
2025-01-25 17:16:01.807392	122.5	20.7	-78.5	0.0
2025-01-25 17:16:04.055732	122.2	21.0	-78.3	0.0
2025-01-25 17:16:06.304123	121.9	21.2	-78.4	0.0
2025-01-25 17:16:08.553035	121.6	21.5	-78.6	0.0
2025-01-25 17:16:10.802156	121.3	21.8	-78.2	0.0
2025-01-25 17:16:13.047374	121.0	22.1	-78.6	0.0
2025-01-25 17:16:15.292753	120.7	22.3	-77.9	0.0
2025-01-25 17:16:17.539720	120.4	22.6	-78.5	0.0
2025-01-25 17:16:19.787450	120.1	22.9	-78.6	0.0
2025-01-25 17:16:22.033499	119.8	23.2	-78.3	0.0
2025-01-25 17:16:24.283275	119.4	23.5	-78.3	0.0
2025-01-25 17:16:26.530637	119.1	23.8	-77.7	0.0
2025-01-25 17:16:28.775057	118.8	24.1	-78.1	0.0
2025-01-25 17:16:31.020122	118.4	24.3	-77.6	0.0
2025-01-25 17:16:33.267808	118.0	24.6	-78.0	0.0
2025-01-25 17:16:35.513104	117.7	24.9	-78.2	0.0
2025-01-25 17:16:37.760205	117.3	25.2	-78.4	0.0
2025-01-25 17:16:40.008626	116.9	25.5	-78.2	0.0
2025-01-25 17:16:42.258006	116.5	25.8	-78.5	0.0
2025-01-25 17:16:44.503694	116.2	26.2	-78.3	0.0
2025-01-25 17:16:46.749580	115.7	26.5	-78.2	0.0
2025-01-25 17:16:48.993197	115.3	26.8	-78.7	0.0
2025-01-25 17:16:51.237861	114.9	27.1	-78.5	0.0
2025-01-25 17:16:53.482722	114.5	27.4	-78.9	0.0
2025-01-25 17:16:55.727259	114.1	27.7	-78.8	0.0
2025-01-25 17:16:57.974126	113.6	28.0	-78.4	0.0
2025-01-25 17:17:00.219856	113.2	28.4	-78.5	0.0
2025-01-25 17:17:02.467782	112.7	28.7	-78.1	0.0
2025-01-25 17:17:04.712624	112.2	29.0	-78.5	0.0
2025-01-25 17:17:06.960709	111.7	29.3	-77.9	0.0
2025-01-25 17:17:09.206549	111.3	29.7	-78.1	0.0
2025-01-25 17:17:11.453018	110.8	30.0	-78.1	0.0
2025-01-25 17:17:13.700291	110.2	30.3	-78.5	0.0
2025-01-25 17:17:15.949189	109.7	30.6	-78.1	0.0
2025-01-25 17:17:18.195747	109.2	31.0	-78.0	0.0
2025-01-25 17:17:20.442041	108.6	31.3	-78.2	0.0
2025-01-25 17:17:22.685931	108.1	31.6	-78.3	0.0
2025-01-25 17:17:24.930881	107.5	32.0	-78.3	0.0
2025-01-25 17:17:27.179241	106.9	32.3	-77.8	0.0
2025-01-25 17:17:29.427188	106.3	32.6	-78.3	0.0
2025-01-25 17:17:31.673369	105.7	33.0	-78.4	0.0
2025-01-25 17:17:33.920823	105.1	33.3	-77.6	0.0
2025-01-25 17:17:36.169333	104.5	33.6	-78.3	0.0
2025-01-25 17:17:38.414929	103.9	34.0	-78.5	0.0
2025-01-25 17:17:40.660417	103.2	34.3	-78.4	0.0
2025-01-25 17:17:42.906723	102.5	34.6	-78.2	0.0
2025-01-25 17:17:45.155745	101.8	35.0	-78.2	0.0
2025-01-25 17:17:47.400522	101.1	35.3	-78.1	0.0
2025-01-25 17:17:49.648241	100.4	35.6	-78.8	0.0
2025-01-25 17:17:51.896829	99.7	36.0	-77.7	0.0
2025-01-25 17:17:54.141347	99.0	36.3	-79.0	0.0
2025-01-25 17:17:56.388140	98.2	36.6	-79.0	0.0
2025-01-25 17:17:58.635190	97.4	36.9	-79.0	0.0
2025-01-25 17:18:00.880265	96.7	37.2	-79.4	0.0
2025-01-25 17:18:03.127857	95.8	37.6	-78.9	0.0
2025-01-25 17:18:05.376351	95.0	37.9	-79.1	0.0
2025-01-25 17:18:07.619340	94.2	38.2	-78.8	0.0
2025-01-25 17:18:09.862647	93.3	38.5	-79.1	0.0
2025-01-25 17:18:12.111407	92.5	38.8	-78.6	0.0
2025-01-25 17:18:14.357566	91.6	39.1	-79.1	0.0
2025-01-25 17:18:16.602910	90.7	39.3	-79.0	0.0
2025-01-25 17:18:18.850972	89.8	39.6	-79.2	0.0
2025-01-25 17:18:21.093558	88.9	39.9	-79.2	0.0
2025-01-25 17:18:23.339946	87.9	40.2	-79.2	0.0
2025-01-25 17:18:25.585098	87.0	40.4	-79.1	0.0
2025-01-25 17:18:27.830655	86.0	40.7	-79.2	0.0
2025-01-25 17:18:30.077762	85.0	40.9	-79.4	0.0
2025-01-25 17:18:32.325205	84.0	41.2	-79.5	0.0
2025-01-25 17:18:34.568702	83.0	41.4	-79.1	0.0
2025-01-25 17:18:36.816132	81.9	41.6	-79.4	0.0
2025-01-25 17:18:39.062632	80.9	41.8	-79.7	0.0
2025-01-25 17:18:41.310482	79.8	42.0	-78.6	0.0
2025-01-25 17:18:43.558046	78.8	42.2	-78.7	0.0
2025-01-25 17:18:45.805927	77.7	42.4	-78.7	0.0
2025-01-25 17:18:48.050814	76.6	42.6	-78.5	0.0
2025-01-25 17:18:50.302441	75.5	42.7	-78.7	0.0
2025-01-25 17:18:52.550767	74.3	42.9	-79.6	0.0
2025-01-25 17:18:54.797491	73.2	43.0	-79.3	0.0
2025-01-25 17:18:57.042498	72.1	43.1	-79.0	0.0
2025-01-25 17:18:59.286287	70.9	43.2	-79.2	0.0
2025-01-25 17:19:01.530346	69.8	43.3	-79.5	0.0
2025-01-25 17:19:03.777082	68.6	43.4	-78.9	0.0
2025-01-25 17:19:06.023951	67.4	43.5	-79.0	0.0
2025-01-25 17:19:08.273030	66.3	43.5	-79.1	0.0
2025-01-25 17:19:10.520571	65.1	43.6	-78.7	0.0
2025-01-25 17:19:12.764191	63.9	43.6	-79.2	0.0
2025-01-25 17:19:15.012093	62.7	43.6	-79.3	0.0
2025-01-25 17:19:17.257299	61.6	43.6	-79.5	0.0
2025-01-25 17:19:19.499917	60.4	43.6	-79.3	0.0
2025-01-25 17:19:21.745029	59.2	43.6	-79.5	0.0
2025-01-25 17:19:23.992970	58.0	43.6	-79.1	0.0
2025-01-25 17:19:26.240485	56.9	43.5	-79.1	0.0
2025-01-25 17:19:28.485004	55.7	43.5	-79.2	0.0
2025-01-25 17:19:30.730733	54.5	43.4	-79.2	0.0
2025-01-25 17:19:32.975955	53.4	43.3	-79.4	0.0
2025-01-25 17:19:35.223588	52.2	43.2	-79.2	0.0
2025-01-25 17:19:37.469649	51.1	43.1	-78.9	0.0
2025-01-25 17:19:39.715601	49.9	42.9	-79.3	0.0
2025-01-25 17:19:41.960165	48.8	42.8	-79.4	0.0
2025-01-25 17:19:44.203715	47.7	42.7	-79.0	0.0
2025-01-25 17:19:46.450268	46.6	42.5	-78.7	0.0
2025-01-25 17:19:48.696570	45.5	42.3	-79.1	0.0
2025-01-25 17:19:50.944786	44.4	42.1	-79.2	0.0
2025-01-25 17:19:53.190137	43.4	41.9	-79.6	0.0
2025-01-25 17:19:55.434845	42.3	41.7	-79.2	0.0
2025-01-25 17:19:57.682385	41.3	41.5	-79.1	0.0
2025-01-25 17:19:59.923954	40.3	41.3	-79.1	0.0
2025-01-25 17:20:02.168288	39.2	41.1	-78.9	0.0
2025-01-25 17:20:04.414621	38.2	40.8	-79.2	0.0
2025-01-25 17:20:06.661118	37.3	40.6	-79.3	0.0
2025-01-25 17:20:08.907236	36.3	40.3	-79.4	0.0
2025-01-25 17:20:11.157474	35.4	40.1	-79.4	0.0
2025-01-25 17:20:13.402188	34.4	39.8	-78.6	0.0
2025-01-25 17:20:15.648190	33.5	39.5	-79.0	0.0
2025-01-25 17:20:17.892375	32.6	39.2	-78.5	0.0
2025-01-25 17:20:20.136710	31.7	38.9	-79.1	0.0
2025-01-25 17:20:22.381664	30.8	38.6	-78.8	0.0
2025-01-25 17:20:24.625026	30.0	38.3	-79.3	0.0
2025-01-25 17:20:26.872144	29.1	38.0	-79.0	0.0
2025-01-25 17:20:29.120167	28.3	37.7	-79.3	0.0
2025-01-25 17:20:31.365803	27.5	37.4	-79.4	0.0
2025-01-25 17:20:33.613618	26.7	37.1	-79.1	0.0
2025-01-25 17:20:35.858284	25.9	36.8	-79.3	0.0
2025-01-25 17:20:38.104765	25.2	36.5	-78.7	0.0
2025-01-25 17:20:40.353249	24.4	36.2	-79.1	0.0
2025-01-25 17:20:42.596633	23.7	35.8	-79.4	0.0
2025-01-25 17:20:44.844728	23.0	35.5	-79.4	0.0
2025-01-25 17:20:47.088637	22.3	35.2	-79.0	0.0
2025-01-25 17:20:49.333863	21.6	34.8	-79.0	0.0
2025-01-25 17:20:51.577409	20.9	34.5	-79.2	0.0
2025-01-25 17:20:53.822681	20.3	34.2	-79.2	0.0
2025-01-25 17:20:56.069829	19.6	33.9	-79.2	0.0
2025-01-25 17:20:58.314538	19.0	33.5	-78.7	0.0
2025-01-25 17:21:00.560636	18.4	33.2	-78.6	0.0
2025-01-25 17:21:02.808590	17.7	32.9	-78.4	0.0
2025-01-25 17:21:05.053718	17.1	32.5	-79.4	0.0
2025-01-25 17:21:07.300448	16.6	32.2	-78.5	0.0
2025-01-25 17:21:09.548069	16.0	31.9	-79.4	0.0
2025-01-25 17:21:11.794755	15.4	31.5	-79.3	0.0
2025-01-25 17:21:14.039167	14.9	31.2	-78.9	0.0
2025-01-25 17:21:16.287274	14.3	30.9	-79.3	0.0
2025-01-25 17:21:18.531300	13.8	30.5	-78.6	0.0
2025-01-25 17:21:20.777246	13.3	30.2	-78.9	0.0
2025-01-25 17:21:23.025157	12.8	29.9	-79.1	0.0
2025-01-25 17:21:25.271750	12.3	29.6	-78.7	0.0
2025-01-25 17:21:27.516703	11.8	29.2	-78.6	0.0
2025-01-25 17:21:29.762702	11.3	28.9	-78.9	0.0
2025-01-25 17:21:32.007287	10.9	28.6	-78.7	0.0
2025-01-25 17:21:34.253094	10.4	28.3	-78.8	0.0
2025-01-25 17:21:36.500808	10.0	27.9	-78.5	0.0
2025-01-25 17:21:38.748599	9.5	27.6	-78.9	0.0
2025-01-25 17:21:40.993959	9.1	27.3	-79.0	0.0
2025-01-25 17:21:43.239575	8.7	27.0	-78.5	0.0
2025-01-25 17:21:45.486196	8.3	26.7	-79.4	0.0
2025-01-25 17:21:47.730149	7.9	26.4	-79.0	0.0
2025-01-25 17:21:49.974080	7.5	26.1	-79.4	0.0
2025-01-25 17:21:52.219465	7.1	25.8	-79.5	0.0
2025-01-25 17:21:54.464738	6.7	25.5	-79.4	0.0
2025-01-25 17:21:56.710106	6.3	25.2	-79.3	0.0
2025-01-25 17:21:58.954896	6.0	24.9	-79.3	0.0
2025-01-25 17:22:01.202230	5.6	24.6	-78.9	0.0
2025-01-25 17:22:03.447330	5.2	24.3	-79.2	0.0
2025-01-25 17:22:05.696327	4.9	24.0	-79.1	0.0
2025-01-25 17:22:07.940723	4.6	23.7	-79.1	0.0
2025-01-25 17:22:10.184489	4.2	23.4	-79.7	0.0
2025-01-25 17:22:12.429958	3.9	23.1	-79.4	0.0
2025-01-25 17:22:14.675021	3.6	22.8	-79.6	0.0
2025-01-25 17:22:16.921814	3.3	22.6	-79.6	0.0
2025-01-25 17:22:19.165941	3.0	22.3	-79.3	0.0
2025-01-25 17:22:21.411689	2.7	22.0	-79.4	0.0
2025-01-25 17:22:23.654580	2.4	21.7	-78.9	0.0
2025-01-25 17:22:25.903284	2.1	21.5	-79.2	0.0
2025-01-25 17:22:28.147841	1.8	21.2	-78.7	0.0
2025-01-25 17:22:30.392954	1.5	20.9	-78.5	0.0
2025-01-25 17:22:32.637732	1.2	20.7	-78.8	0.0
2025-01-25 17:22:34.883379	0.9	20.4	-79.0	0.0
2025-01-25 17:22:37.130785	0.7	20.1	-78.9	0.0
2025-01-25 17:22:39.376040	0.4	19.9	-79.3	0.0
2025-01-25 17:22:41.619755	0.2	19.6	-79.2	0.0
2025-01-25 17:22:43.864079	359.9	19.4	-79.3	0.0
2025-01-25 17:22:46.111283	359.6	19.1	-78.9	0.0
2025-01-25 17:22:48.356605	359.4	18.8	-78.8	0.0
2025-01-25 17:22:50.602785	359.2	18.6	-79.1	0.0
2025-01-25 17:22:52.847185	358.9	18.4	-78.4	0.0
2025-01-25 17:22:55.093785	358.7	18.1	-78.8	0.0
2025-01-25 17:22:57.340636	358.5	17.9	-78.8	0.0
2025-01-25 17:22:59.585837	358.2	17.6	-78.8	0.0
2025-01-25 17:23:01.831047	358.0	17.4	-79.0	0.0
2025-01-25 17:23:04.078038	357.8	17.1	-79.7	0.0
2025-01-25 17:23:06.325863	357.6	16.9	-79.8	0.0
2025-01-25 17:23:08.568433	357.4	16.7	-78.8	0.0
2025-01-25 17:23:10.812625	357.2	16.4	-78.3	0.0
2025-01-25 17:23:13.057972	357.0	16.2	-79.0	0.0
2025-01-25 17:23:15.304469	356.8	16.0	-78.7	0.0
2025-01-25 17:23:17.547914	356.6	15.8	-78.8	0.0
2025-01-25 17:23:19.797284	356.4	15.5	-78.8	0.0
2025-01-25 17:23:22.043014	356.2	15.3	-78.5	0.0
2025-01-25 17:23:24.288252	356.0	15.1	-78.6	0.0
2025-01-25 17:23:26.533483	355.8	14.9	-78.8	0.0
2025-01-25 17:23:28.782888	355.6	14.6	-79.6	0.0
2025-01-25 17:23:31.027509	355.4	14.4	-79.2	0.0
2025-01-25 17:23:33.273730	355.3	14.2	-78.9	0.0
2025-01-25 17:23:35.520103	355.1	14.0	-78.6	0.0
2025-01-25 17:23:37.764862	354.9	13.8	-79.5	0.0
2025-01-25 17:23:40.012211	354.7	13.6	-79.2	0.0
2025-01-25 17:23:42.258446	354.6	13.4	-79.4	0.0
2025-01-25 17:23:44.502168	354.4	13.2	-79.2	0.0
2025-01-25 17:23:46.747762	354.2	12.9	-79.4	0.0
2025-01-25 17:23:48.992782	354.1	12.7	-79.1	0.0
2025-01-25 17:23:51.242763	353.9	12.5	-79.1	0.0
2025-01-25 17:23:53.487815	353.8	12.3	-78.7	0.0
2025-01-25 17:23:55.733051	353.6	12.1	-78.9	0.0
2025-01-25 17:23:57.985238	353.5	11.9	-79.0	0.0
2025-01-25 17:24:00.229529	353.3	11.7	-79.3	0.0
2025-01-25 17:24:02.473988	353.2	11.5	-79.0	0.0
2025-01-25 17:24:04.719540	353.0	11.4	-79.7	0.0
2025-01-25 17:24:06.962169	352.9	11.2	-79.6	0.0
2025-01-25 17:24:09.208283	352.7	11.0	-79.4	0.0
2025-01-25 17:24:11.454283	352.6	10.8	-79.7	0.0
2025-01-25 17:24:13.700474	352.5	10.6	-79.2	0.0
2025-01-25 17:24:15.946621	352.3	10.4	-79.6	0.0
2025-01-25 17:24:18.194199	352.2	10.2	-79.8	0.0
#Closed at: 2025-01-25 17:14:09.076029