passes_logs/2025/01/25/planumMaritime01/planumMaritime01__20250125_102059_NOAA_19_rec.log

#Pass ID: 20250125_102059_NOAA 19
#Satellite: NOAA 19
#Configuration: NOAA 19
#Start time: 2025-01-25 10:21:04.825097

#LorettStation: 1.0.0 05.05.2024
#Station: planumMaritime01
#Location: 37.49445 lon 55.92918 lat
#TLE: 1 33591U 09005A   25024.77415192  .00000451  00000+0  26462-3 0  9996
#TLE: 2 33591  99.0180  88.6113 0014109  31.0080 329.1922 14.13268355822923

#Time	Az	El	Level	SNR
2025-01-25 10:21:06.981648	350.6	10.1	-76.5	0.0
2025-01-25 10:21:08.103492	350.4	10.1	-75.9	0.0
2025-01-25 10:21:09.229120	350.3	10.2	-75.7	0.0
2025-01-25 10:21:10.350952	350.1	10.2	-76.6	0.0
2025-01-25 10:21:11.473406	349.9	10.3	-76.3	0.0
2025-01-25 10:21:12.596538	349.7	10.3	-76.3	0.0
2025-01-25 10:21:13.721005	349.6	10.4	-76.1	0.0
2025-01-25 10:21:14.845921	349.4	10.4	-76.8	0.0
2025-01-25 10:21:15.970518	349.2	10.5	-76.8	0.0
2025-01-25 10:21:17.093247	349.1	10.5	-76.5	0.0
2025-01-25 10:21:18.213714	348.9	10.6	-76.9	0.0
2025-01-25 10:21:19.336210	348.7	10.6	-76.4	0.0
2025-01-25 10:21:20.459309	348.5	10.7	-76.6	0.0
2025-01-25 10:21:21.585626	348.3	10.7	-76.8	0.0
2025-01-25 10:21:22.709214	348.2	10.8	-76.8	0.0
2025-01-25 10:21:23.831218	348.0	10.8	-76.5	0.0
2025-01-25 10:21:24.952493	347.8	10.9	-76.8	0.0
2025-01-25 10:21:26.076130	347.6	10.9	-77.0	0.0
2025-01-25 10:21:27.200938	347.5	11.0	-76.5	0.0
2025-01-25 10:21:28.325379	347.3	11.0	-76.4	0.0
2025-01-25 10:21:29.451306	347.1	11.1	-76.6	0.0
2025-01-25 10:21:30.574031	346.9	11.1	-76.6	0.0
2025-01-25 10:21:31.695664	346.7	11.2	-76.5	0.0
2025-01-25 10:21:32.818181	346.5	11.2	-76.5	0.0
2025-01-25 10:21:33.942334	346.4	11.3	-76.7	0.0
2025-01-25 10:21:35.067642	346.2	11.3	-76.8	0.0
2025-01-25 10:21:36.191540	346.0	11.4	-76.9	0.0
2025-01-25 10:21:37.315766	345.8	11.4	-76.7	0.0
2025-01-25 10:21:38.437858	345.6	11.4	-76.9	0.0
2025-01-25 10:21:39.560693	345.4	11.5	-76.5	0.0
2025-01-25 10:21:40.681838	345.3	11.5	-76.4	0.0
2025-01-25 10:21:41.806274	345.1	11.6	-77.0	0.0
2025-01-25 10:21:42.926366	344.9	11.6	-76.8	0.0
2025-01-25 10:21:44.047839	344.7	11.7	-77.0	0.0
2025-01-25 10:21:45.172542	344.5	11.7	-77.1	0.0
2025-01-25 10:21:46.297247	344.3	11.8	-77.1	0.0
2025-01-25 10:21:47.421017	344.1	11.8	-77.4	0.0
2025-01-25 10:21:48.543179	343.9	11.8	-77.2	0.0
2025-01-25 10:21:49.666211	343.7	11.9	-77.2	0.0
2025-01-25 10:21:50.789503	343.5	11.9	-77.3	0.0
2025-01-25 10:21:51.912110	343.4	12.0	-77.3	0.0
2025-01-25 10:21:53.033851	343.2	12.0	-77.3	0.0
2025-01-25 10:21:54.154316	343.0	12.1	-76.9	0.0
2025-01-25 10:21:55.276789	342.8	12.1	-77.5	0.0
2025-01-25 10:21:56.400198	342.6	12.1	-77.2	0.0
2025-01-25 10:21:57.524093	342.4	12.2	-77.3	0.0
2025-01-25 10:21:58.648616	342.2	12.2	-76.9	0.0
2025-01-25 10:21:59.772883	342.0	12.3	-76.8	0.0
2025-01-25 10:22:00.899214	341.8	12.3	-76.8	0.0
2025-01-25 10:22:02.021582	341.6	12.3	-77.3	0.0
2025-01-25 10:22:03.145689	341.4	12.4	-77.4	0.0
2025-01-25 10:22:04.268255	341.2	12.4	-77.0	0.0
2025-01-25 10:22:05.390947	341.0	12.5	-77.2	0.0
2025-01-25 10:22:06.512205	340.8	12.5	-76.6	0.0
2025-01-25 10:22:07.634035	340.6	12.5	-76.6	0.0
2025-01-25 10:22:08.758296	340.4	12.6	-76.7	0.0
2025-01-25 10:22:09.880745	340.2	12.6	-77.0	0.0
2025-01-25 10:22:11.003530	340.0	12.7	-77.0	0.0
2025-01-25 10:22:12.126909	339.8	12.7	-77.3	0.0
2025-01-25 10:22:13.252040	339.6	12.7	-77.2	0.0
2025-01-25 10:22:14.375706	339.4	12.8	-77.1	0.0
2025-01-25 10:22:15.498524	339.2	12.8	-77.0	0.0
2025-01-25 10:22:16.619380	339.0	12.8	-77.0	0.0
2025-01-25 10:22:17.742175	338.8	12.9	-76.9	0.0
2025-01-25 10:22:18.865811	338.6	12.9	-76.9	0.0
2025-01-25 10:22:19.987262	338.4	13.0	-77.1	0.0
2025-01-25 10:22:21.111284	338.2	13.0	-77.3	0.0
2025-01-25 10:22:22.232315	338.0	13.0	-77.1	0.0
2025-01-25 10:22:23.354065	337.7	13.1	-77.0	0.0
2025-01-25 10:22:24.478313	337.5	13.1	-77.2	0.0
2025-01-25 10:22:25.601358	337.3	13.1	-77.3	0.0
2025-01-25 10:22:26.723542	337.1	13.2	-77.5	0.0
2025-01-25 10:22:27.847061	336.9	13.2	-76.9	0.0
2025-01-25 10:22:28.970633	336.7	13.2	-76.8	0.0
2025-01-25 10:22:30.095777	336.5	13.3	-76.3	0.0
2025-01-25 10:22:31.219001	336.3	13.3	-77.5	0.0
2025-01-25 10:22:32.342648	336.1	13.3	-77.2	0.0
2025-01-25 10:22:33.464934	335.9	13.4	-77.5	0.0
2025-01-25 10:22:34.587881	335.6	13.4	-77.4	0.0
2025-01-25 10:22:35.710606	335.4	13.4	-77.2	0.0
2025-01-25 10:22:36.833150	335.2	13.5	-77.6	0.0
2025-01-25 10:22:37.958965	335.0	13.5	-77.4	0.0
2025-01-25 10:22:39.084348	334.8	13.5	-77.2	0.0
2025-01-25 10:22:40.210294	334.6	13.5	-77.4	0.0
2025-01-25 10:22:41.332770	334.4	13.6	-77.3	0.0
2025-01-25 10:22:42.455321	334.1	13.6	-77.1	0.0
2025-01-25 10:22:43.578067	333.9	13.6	-77.0	0.0
2025-01-25 10:22:44.700631	333.7	13.7	-77.5	0.0
2025-01-25 10:22:45.822009	333.5	13.7	-77.5	0.0
2025-01-25 10:22:46.945896	333.3	13.7	-76.5	0.0
2025-01-25 10:22:48.067926	333.1	13.7	-77.3	0.0
2025-01-25 10:22:49.191440	332.9	13.8	-77.6	0.0
2025-01-25 10:22:50.316569	332.6	13.8	-77.1	0.0
2025-01-25 10:22:51.442346	332.4	13.8	-77.2	0.0
2025-01-25 10:22:52.565167	332.2	13.8	-77.1	0.0
2025-01-25 10:22:53.686538	332.0	13.9	-77.1	0.0
2025-01-25 10:22:54.807011	331.8	13.9	-77.0	0.0
2025-01-25 10:22:55.930890	331.5	13.9	-77.1	0.0
2025-01-25 10:22:57.053101	331.3	13.9	-77.1	0.0
2025-01-25 10:22:58.174832	331.1	14.0	-77.2	0.0
2025-01-25 10:22:59.298636	330.9	14.0	-77.3	0.0
2025-01-25 10:23:00.422596	330.7	14.0	-77.0	0.0
2025-01-25 10:23:01.545590	330.4	14.0	-77.3	0.0
2025-01-25 10:23:02.667205	330.2	14.1	-77.3	0.0
2025-01-25 10:23:03.789262	330.0	14.1	-77.1	0.0
2025-01-25 10:23:04.912619	329.8	14.1	-77.4	0.0
2025-01-25 10:23:06.034310	329.5	14.1	-77.2	0.0
2025-01-25 10:23:07.157711	329.3	14.1	-77.1	0.0
2025-01-25 10:23:08.280464	329.1	14.2	-77.3	0.0
2025-01-25 10:23:09.403755	328.9	14.2	-77.1	0.0
2025-01-25 10:23:10.526555	328.7	14.2	-77.8	0.0
2025-01-25 10:23:11.648754	328.4	14.2	-77.4	0.0
2025-01-25 10:23:12.770291	328.2	14.2	-77.6	0.0
2025-01-25 10:23:13.894394	328.0	14.3	-77.4	0.0
2025-01-25 10:23:15.014808	327.8	14.3	-77.8	0.0
2025-01-25 10:23:16.138620	327.5	14.3	-76.8	0.0
2025-01-25 10:23:17.261174	327.3	14.3	-76.8	0.0
2025-01-25 10:23:18.383674	327.1	14.3	-77.4	0.0
2025-01-25 10:23:19.506654	326.8	14.3	-77.1	0.0
2025-01-25 10:23:20.627909	326.6	14.4	-77.6	0.0
2025-01-25 10:23:21.750421	326.4	14.4	-77.5	0.0
2025-01-25 10:23:22.871851	326.2	14.4	-77.8	0.0
2025-01-25 10:23:23.995515	325.9	14.4	-77.7	0.0
2025-01-25 10:23:25.118022	325.7	14.4	-77.2	0.0
2025-01-25 10:23:26.239792	325.5	14.4	-77.9	0.0
2025-01-25 10:23:27.362118	325.3	14.4	-77.6	0.0
2025-01-25 10:23:28.485793	325.0	14.4	-77.2	0.0
2025-01-25 10:23:29.606885	324.8	14.5	-77.9	0.0
2025-01-25 10:23:30.729280	324.6	14.5	-77.5	0.0
2025-01-25 10:23:31.852750	324.3	14.5	-77.8	0.0
2025-01-25 10:23:32.975040	324.1	14.5	-77.1	0.0
2025-01-25 10:23:34.098364	323.9	14.5	-77.7	0.0
2025-01-25 10:23:35.220948	323.7	14.5	-78.0	0.0
2025-01-25 10:23:36.345559	323.4	14.5	-78.0	0.0
2025-01-25 10:23:37.466165	323.2	14.5	-77.6	0.0
2025-01-25 10:23:38.588350	323.0	14.5	-77.5	0.0
2025-01-25 10:23:39.712414	322.7	14.5	-77.7	0.0
2025-01-25 10:23:40.837542	322.5	14.5	-77.8	0.0
2025-01-25 10:23:41.961897	322.3	14.6	-78.0	0.0
2025-01-25 10:23:43.083881	322.1	14.6	-77.7	0.0
2025-01-25 10:23:44.207657	321.8	14.6	-77.8	0.0
2025-01-25 10:23:45.331586	321.6	14.6	-77.8	0.0
2025-01-25 10:23:46.454571	321.4	14.6	-77.7	0.0
2025-01-25 10:23:47.579846	321.1	14.6	-77.5	0.0
2025-01-25 10:23:48.703573	320.9	14.6	-77.9	0.0
2025-01-25 10:23:49.829321	320.7	14.6	-77.8	0.0
2025-01-25 10:23:50.951844	320.4	14.6	-77.3	0.0
2025-01-25 10:23:52.074393	320.2	14.6	-77.3	0.0
2025-01-25 10:23:53.197829	320.0	14.6	-77.1	0.0
2025-01-25 10:23:54.321506	319.8	14.6	-77.5	0.0
2025-01-25 10:23:55.444072	319.5	14.6	-77.8	0.0
2025-01-25 10:23:56.566631	319.3	14.6	-77.5	0.0
2025-01-25 10:23:57.688818	319.1	14.6	-77.7	0.0
2025-01-25 10:23:58.812635	318.8	14.6	-77.8	0.0
2025-01-25 10:23:59.934057	318.6	14.6	-77.7	0.0
2025-01-25 10:24:01.057018	318.4	14.6	-77.7	0.0
2025-01-25 10:24:02.182157	318.1	14.6	-77.2	0.0
2025-01-25 10:24:03.304992	317.9	14.6	-77.6	0.0
2025-01-25 10:24:04.430172	317.7	14.6	-77.7	0.0
2025-01-25 10:24:05.554613	317.5	14.6	-77.4	0.0
2025-01-25 10:24:06.676711	317.2	14.6	-77.8	0.0
2025-01-25 10:24:07.800115	317.0	14.6	-77.5	0.0
2025-01-25 10:24:08.923051	316.8	14.6	-77.5	0.0
2025-01-25 10:24:10.047023	316.5	14.6	-77.7	0.0
2025-01-25 10:24:11.168961	316.3	14.6	-77.2	0.0
2025-01-25 10:24:12.290334	316.1	14.6	-77.5	0.0
2025-01-25 10:24:13.417196	315.8	14.6	-77.5	0.0
2025-01-25 10:24:14.540765	315.6	14.5	-77.7	0.0
2025-01-25 10:24:15.664620	315.4	14.5	-77.7	0.0
2025-01-25 10:24:16.785899	315.2	14.5	-77.4	0.0
2025-01-25 10:24:17.909842	314.9	14.5	-77.6	0.0
2025-01-25 10:24:19.032952	314.7	14.5	-77.5	0.0
2025-01-25 10:24:20.154298	314.5	14.5	-77.8	0.0
2025-01-25 10:24:21.278851	314.2	14.5	-77.7	0.0
2025-01-25 10:24:22.401784	314.0	14.5	-77.0	0.0
2025-01-25 10:24:23.526899	313.8	14.5	-77.8	0.0
2025-01-25 10:24:24.650099	313.6	14.5	-77.7	0.0
2025-01-25 10:24:25.772478	313.3	14.5	-77.6	0.0
2025-01-25 10:24:26.893935	313.1	14.4	-77.7	0.0
2025-01-25 10:24:28.017555	312.9	14.4	-77.6	0.0
2025-01-25 10:24:29.142534	312.6	14.4	-77.5	0.0
2025-01-25 10:24:30.267124	312.4	14.4	-77.8	0.0
2025-01-25 10:24:31.390540	312.2	14.4	-77.7	0.0
2025-01-25 10:24:32.515627	312.0	14.4	-78.0	0.0
2025-01-25 10:24:33.637196	311.7	14.4	-77.3	0.0
2025-01-25 10:24:34.759216	311.5	14.3	-77.3	0.0
2025-01-25 10:24:35.882743	311.3	14.3	-77.6	0.0
2025-01-25 10:24:37.004310	311.1	14.3	-77.5	0.0
2025-01-25 10:24:38.127191	310.8	14.3	-77.4	0.0
2025-01-25 10:24:39.247027	310.6	14.3	-77.8	0.0
2025-01-25 10:24:40.370236	310.4	14.3	-77.8	0.0
2025-01-25 10:24:41.494562	310.2	14.2	-77.3	0.0
2025-01-25 10:24:42.618259	309.9	14.2	-77.6	0.0
2025-01-25 10:24:43.741799	309.7	14.2	-77.6	0.0
2025-01-25 10:24:44.862788	309.5	14.2	-77.5	0.0
2025-01-25 10:24:45.986189	309.3	14.2	-77.7	0.0
2025-01-25 10:24:47.110928	309.0	14.2	-77.8	0.0
2025-01-25 10:24:48.232422	308.8	14.1	-77.9	0.0
2025-01-25 10:24:49.356076	308.6	14.1	-77.8	0.0
2025-01-25 10:24:50.480257	308.4	14.1	-78.0	0.0
2025-01-25 10:24:51.601591	308.1	14.1	-77.8	0.0
2025-01-25 10:24:52.724880	307.9	14.0	-77.5	0.0
2025-01-25 10:24:53.846538	307.7	14.0	-78.2	0.0
2025-01-25 10:24:54.969078	307.5	14.0	-77.4	0.0
2025-01-25 10:24:56.092342	307.3	14.0	-77.0	0.0
2025-01-25 10:24:57.214520	307.0	14.0	-77.5	0.0
2025-01-25 10:24:58.338480	306.8	13.9	-77.7	0.0
2025-01-25 10:24:59.460682	306.6	13.9	-77.5	0.0
2025-01-25 10:25:00.581848	306.4	13.9	-77.4	0.0
2025-01-25 10:25:01.704633	306.2	13.9	-77.6	0.0
2025-01-25 10:25:02.828863	305.9	13.8	-77.8	0.0
2025-01-25 10:25:03.950691	305.7	13.8	-77.6	0.0
2025-01-25 10:25:05.073462	305.5	13.8	-77.5	0.0
2025-01-25 10:25:06.196365	305.3	13.8	-77.6	0.0
2025-01-25 10:25:07.318524	305.1	13.7	-77.2	0.0
2025-01-25 10:25:08.439537	304.9	13.7	-77.4	0.0
2025-01-25 10:25:09.563230	304.6	13.7	-77.7	0.0
2025-01-25 10:25:10.687060	304.4	13.6	-77.5	0.0
2025-01-25 10:25:11.809838	304.2	13.6	-77.5	0.0
2025-01-25 10:25:12.931726	304.0	13.6	-77.9	0.0
2025-01-25 10:25:14.054937	303.8	13.6	-77.4	0.0
2025-01-25 10:25:15.176740	303.6	13.5	-77.4	0.0
2025-01-25 10:25:16.299284	303.4	13.5	-77.5	0.0
2025-01-25 10:25:17.422084	303.1	13.5	-77.3	0.0
2025-01-25 10:25:18.545038	302.9	13.4	-77.4	0.0
2025-01-25 10:25:19.667993	302.7	13.4	-77.6	0.0
2025-01-25 10:25:20.793451	302.5	13.4	-77.6	0.0
2025-01-25 10:25:21.916208	302.3	13.3	-77.5	0.0
2025-01-25 10:25:23.038984	302.1	13.3	-77.6	0.0
2025-01-25 10:25:24.163917	301.9	13.3	-77.8	0.0
2025-01-25 10:25:25.286685	301.7	13.2	-78.1	0.0
2025-01-25 10:25:26.407024	301.4	13.2	-77.9	0.0
2025-01-25 10:25:27.528634	301.2	13.2	-77.9	0.0
2025-01-25 10:25:28.652107	301.0	13.1	-77.7	0.0
2025-01-25 10:25:29.775041	300.8	13.1	-78.0	0.0
2025-01-25 10:25:30.898244	300.6	13.1	-77.7	0.0
2025-01-25 10:25:32.022744	300.4	13.0	-77.7	0.0
2025-01-25 10:25:33.144924	300.2	13.0	-78.2	0.0
2025-01-25 10:25:34.267527	300.0	13.0	-78.2	0.0
2025-01-25 10:25:35.389724	299.8	12.9	-77.9	0.0
2025-01-25 10:25:36.513086	299.6	12.9	-77.7	0.0
2025-01-25 10:25:37.637916	299.4	12.9	-77.9	0.0
2025-01-25 10:25:38.761878	299.2	12.8	-77.3	0.0
2025-01-25 10:25:39.884356	299.0	12.8	-77.6	0.0
2025-01-25 10:25:41.008121	298.8	12.8	-77.5	0.0
2025-01-25 10:25:42.129505	298.6	12.7	-78.1	0.0
2025-01-25 10:25:43.251991	298.4	12.7	-77.3	0.0
2025-01-25 10:25:44.377297	298.2	12.6	-77.8	0.0
2025-01-25 10:25:45.498409	298.0	12.6	-77.9	0.0
2025-01-25 10:25:46.620944	297.8	12.6	-77.9	0.0
2025-01-25 10:25:47.745548	297.6	12.5	-77.9	0.0
2025-01-25 10:25:48.867845	297.4	12.5	-77.1	0.0
2025-01-25 10:25:49.989337	297.2	12.4	-77.3	0.0
2025-01-25 10:25:51.111774	297.0	12.4	-77.3	0.0
2025-01-25 10:25:52.237113	296.8	12.4	-77.2	0.0
2025-01-25 10:25:53.358944	296.6	12.3	-77.2	0.0
2025-01-25 10:25:54.482257	296.4	12.3	-77.2	0.0
2025-01-25 10:25:55.605999	296.2	12.2	-77.6	0.0
2025-01-25 10:25:56.726776	296.0	12.2	-77.8	0.0
2025-01-25 10:25:57.850407	295.8	12.2	-77.1	0.0
2025-01-25 10:25:58.972791	295.6	12.1	-77.3	0.0
2025-01-25 10:26:00.097092	295.4	12.1	-77.4	0.0
2025-01-25 10:26:01.220162	295.2	12.0	-77.6	0.0
2025-01-25 10:26:02.346817	295.0	12.0	-77.5	0.0
2025-01-25 10:26:03.467862	294.8	12.0	-77.7	0.0
2025-01-25 10:26:04.591788	294.6	11.9	-77.6	0.0
2025-01-25 10:26:05.712506	294.4	11.9	-77.4	0.0
2025-01-25 10:26:06.834654	294.2	11.8	-77.8	0.0
2025-01-25 10:26:07.958133	294.0	11.8	-77.4	0.0
2025-01-25 10:26:09.080647	293.9	11.7	-77.7	0.0
2025-01-25 10:26:10.203454	293.7	11.7	-77.0	0.0
2025-01-25 10:26:11.328756	293.5	11.6	-77.4	0.0
2025-01-25 10:26:12.452249	293.3	11.6	-77.6	0.0
2025-01-25 10:26:13.574719	293.1	11.6	-77.7	0.0
2025-01-25 10:26:14.699155	292.9	11.5	-77.3	0.0
2025-01-25 10:26:15.824768	292.7	11.5	-77.8	0.0
2025-01-25 10:26:16.948077	292.5	11.4	-77.3	0.0
2025-01-25 10:26:18.071072	292.4	11.4	-77.1	0.0
2025-01-25 10:26:19.193768	292.2	11.3	-77.4	0.0
2025-01-25 10:26:20.316614	292.0	11.3	-77.3	0.0
2025-01-25 10:26:21.439832	291.8	11.2	-77.4	0.0
2025-01-25 10:26:22.562585	291.6	11.2	-77.5	0.0
2025-01-25 10:26:23.683687	291.4	11.1	-78.0	0.0
2025-01-25 10:26:24.806856	291.3	11.1	-77.7	0.0
2025-01-25 10:26:25.929824	291.1	11.1	-77.8	0.0
2025-01-25 10:26:27.052213	290.9	11.0	-77.8	0.0
2025-01-25 10:26:28.177100	290.7	11.0	-77.5	0.0
2025-01-25 10:26:29.298930	290.5	10.9	-77.7	0.0
2025-01-25 10:26:30.418834	290.4	10.9	-78.0	0.0
2025-01-25 10:26:31.542701	290.2	10.8	-77.9	0.0
2025-01-25 10:26:32.666603	290.0	10.8	-77.8	0.0
2025-01-25 10:26:33.789894	289.8	10.7	-77.8	0.0
2025-01-25 10:26:34.913473	289.6	10.7	-77.8	0.0
2025-01-25 10:26:36.037456	289.5	10.6	-77.9	0.0
2025-01-25 10:26:37.159646	289.3	10.6	-77.9	0.0
2025-01-25 10:26:38.282895	289.1	10.5	-77.5	0.0
2025-01-25 10:26:39.404036	288.9	10.5	-78.0	0.0
2025-01-25 10:26:40.528486	288.8	10.4	-78.0	0.0
2025-01-25 10:26:41.651964	288.6	10.4	-78.1	0.0
2025-01-25 10:26:42.774945	288.4	10.3	-77.6	0.0
2025-01-25 10:26:43.899681	288.3	10.3	-77.8	0.0
2025-01-25 10:26:45.022601	288.1	10.2	-77.8	0.0
2025-01-25 10:26:46.145750	287.9	10.2	-77.4	0.0
2025-01-25 10:26:47.268126	287.7	10.1	-77.7	0.0
2025-01-25 10:26:48.388500	287.6	10.1	-77.4	0.0
2025-01-25 10:26:49.512904	287.4	10.0	-78.1	0.0
#Closed at: 2025-01-25 10:20:59.829582