passes_logs/2025/01/25/planumMaritime01/planumMaritime01__20250125_104400_METEOR-M2_4_rec.log

#Pass ID: 20250125_104400_METEOR-M2 4
#Satellite: METEOR-M2 4
#Configuration: METEOR-M2 4
#Start time: 2025-01-25 10:44:05.223682

#LorettStation: 1.0.0 05.05.2024
#Station: planumMaritime01
#Location: 37.49445 lon 55.92918 lat
#TLE: 1 59051U 24039A   25024.80620376  .00000158  00000+0  90320-4 0  9994
#TLE: 2 59051  98.6306 347.6099 0006657 193.6447 166.4552 14.22328660 46991

#Time	Az	El	Level	SNR
2025-01-25 10:44:07.373749	136.4	10.2	-75.8	0.0
2025-01-25 10:44:09.616726	136.3	10.4	-76.9	0.0
2025-01-25 10:44:11.863269	136.2	10.6	-77.0	0.0
2025-01-25 10:44:14.107134	136.0	10.8	-75.8	0.0
2025-01-25 10:44:16.352504	135.9	11.0	-76.8	0.0
2025-01-25 10:44:18.597158	135.8	11.1	-77.2	0.0
2025-01-25 10:44:20.841013	135.7	11.3	-77.1	0.0
2025-01-25 10:44:23.084003	135.6	11.5	-77.3	0.0
2025-01-25 10:44:25.331656	135.4	11.7	-77.2	0.0
2025-01-25 10:44:27.575158	135.3	11.9	-77.5	0.0
2025-01-25 10:44:29.820376	135.2	12.2	-78.1	0.0
2025-01-25 10:44:32.065608	135.0	12.4	-77.3	0.0
2025-01-25 10:44:34.311875	134.9	12.6	-76.2	0.0
2025-01-25 10:44:36.559108	134.8	12.8	-77.4	0.0
2025-01-25 10:44:38.803415	134.6	13.0	-76.3	0.0
2025-01-25 10:44:41.048199	134.5	13.2	-77.4	0.0
2025-01-25 10:44:43.294700	134.4	13.4	-76.9	0.0
2025-01-25 10:44:45.539649	134.2	13.6	-77.6	0.0
2025-01-25 10:44:47.786034	134.1	13.8	-77.5	0.0
2025-01-25 10:44:50.032299	133.9	14.1	-77.6	0.0
2025-01-25 10:44:52.279167	133.8	14.3	-77.6	0.0
2025-01-25 10:44:54.525832	133.6	14.5	-77.3	0.0
2025-01-25 10:44:56.770227	133.5	14.7	-77.7	0.0
2025-01-25 10:44:59.017355	133.3	15.0	-76.8	0.0
2025-01-25 10:45:01.266734	133.1	15.2	-77.2	0.0
2025-01-25 10:45:03.513577	133.0	15.4	-77.2	0.0
2025-01-25 10:45:05.756177	132.8	15.6	-77.5	0.0
2025-01-25 10:45:08.001967	132.6	15.9	-77.5	0.0
2025-01-25 10:45:10.247178	132.5	16.1	-77.4	0.0
2025-01-25 10:45:12.491023	132.3	16.4	-77.6	0.0
2025-01-25 10:45:14.737219	132.1	16.6	-77.5	0.0
2025-01-25 10:45:16.982227	131.9	16.8	-77.8	0.0
2025-01-25 10:45:19.228268	131.7	17.1	-77.3	0.0
2025-01-25 10:45:21.473060	131.6	17.3	-77.7	0.0
2025-01-25 10:45:23.719459	131.4	17.6	-77.7	0.0
2025-01-25 10:45:25.966919	131.2	17.8	-77.6	0.0
2025-01-25 10:45:28.214361	131.0	18.1	-77.5	0.0
2025-01-25 10:45:30.461724	130.8	18.3	-77.3	0.0
2025-01-25 10:45:32.707027	130.6	18.6	-77.5	0.0
2025-01-25 10:45:34.948535	130.4	18.9	-77.3	0.0
2025-01-25 10:45:37.193346	130.2	19.1	-77.2	0.0
2025-01-25 10:45:39.439006	129.9	19.4	-77.0	0.0
2025-01-25 10:45:41.688458	129.7	19.6	-76.6	0.0
2025-01-25 10:45:43.930919	129.5	19.9	-77.6	0.0
2025-01-25 10:45:46.178059	129.3	20.2	-77.1	0.0
2025-01-25 10:45:48.423000	129.1	20.5	-76.4	0.0
2025-01-25 10:45:50.667681	128.8	20.7	-76.7	0.0
2025-01-25 10:45:52.913742	128.6	21.0	-76.3	0.0
2025-01-25 10:45:55.156097	128.3	21.3	-77.1	0.0
2025-01-25 10:45:57.400484	128.1	21.6	-76.6	0.0
2025-01-25 10:45:59.645005	127.8	21.9	-76.8	0.0
2025-01-25 10:46:01.890749	127.6	22.2	-76.6	0.0
2025-01-25 10:46:04.135440	127.3	22.5	-76.7	0.0
2025-01-25 10:46:06.380497	127.0	22.8	-76.1	0.0
2025-01-25 10:46:08.625057	126.8	23.1	-76.5	0.0
2025-01-25 10:46:10.870282	126.5	23.4	-76.2	0.0
2025-01-25 10:46:13.113705	126.2	23.7	-77.0	0.0
2025-01-25 10:46:15.360404	125.9	24.0	-76.9	0.0
2025-01-25 10:46:17.605753	125.6	24.3	-76.2	0.0
2025-01-25 10:46:19.851097	125.3	24.6	-75.9	0.0
2025-01-25 10:46:22.095748	125.0	24.9	-76.5	0.0
2025-01-25 10:46:24.339335	124.7	25.2	-76.3	0.0
2025-01-25 10:46:26.583317	124.4	25.5	-76.1	0.5
2025-01-25 10:46:28.826771	124.1	25.9	-76.5	0.0
2025-01-25 10:46:31.074373	123.7	26.2	-76.8	0.0
2025-01-25 10:46:33.317545	123.4	26.5	-76.0	0.0
2025-01-25 10:46:35.561317	123.0	26.9	-76.7	0.0
2025-01-25 10:46:37.808658	122.7	27.2	-76.9	0.0
2025-01-25 10:46:40.053298	122.3	27.5	-76.9	0.0
2025-01-25 10:46:42.297041	121.9	27.9	-76.4	0.0
2025-01-25 10:46:44.541470	121.6	28.2	-76.3	0.0
2025-01-25 10:46:46.787268	121.2	28.6	-76.1	0.0
2025-01-25 10:46:49.033238	120.8	28.9	-77.1	0.0
2025-01-25 10:46:51.277325	120.4	29.3	-77.1	0.0
2025-01-25 10:46:53.524903	120.0	29.6	-77.2	2.0
2025-01-25 10:46:55.769055	119.5	30.0	-77.5	0.0
2025-01-25 10:46:58.014029	119.1	30.3	-77.4	0.0
2025-01-25 10:47:00.257208	118.7	30.7	-77.4	0.0
2025-01-25 10:47:02.499992	118.2	31.1	-77.7	0.0
2025-01-25 10:47:04.743294	117.7	31.4	-77.7	0.0
2025-01-25 10:47:06.988839	117.3	31.8	-78.0	0.0
2025-01-25 10:47:09.234864	116.8	32.2	-77.7	0.0
2025-01-25 10:47:11.480848	116.3	32.6	-76.9	0.0
2025-01-25 10:47:13.723867	115.8	32.9	-77.3	0.0
2025-01-25 10:47:15.968579	115.2	33.3	-77.6	0.0
2025-01-25 10:47:18.216084	114.7	33.7	-77.9	0.0
2025-01-25 10:47:20.463013	114.2	34.1	-77.5	0.0
2025-01-25 10:47:22.708398	113.6	34.5	-78.0	0.0
2025-01-25 10:47:24.956448	113.0	34.9	-78.0	0.0
2025-01-25 10:47:27.205971	112.4	35.3	-77.3	0.0
2025-01-25 10:47:29.450311	111.8	35.7	-77.2	0.0
2025-01-25 10:47:31.696431	111.2	36.0	-78.6	0.0
2025-01-25 10:47:33.941993	110.6	36.4	-76.9	0.0
2025-01-25 10:47:36.185271	109.9	36.8	-77.8	0.0
2025-01-25 10:47:38.431963	109.3	37.2	-77.9	0.0
2025-01-25 10:47:40.676377	108.6	37.6	-78.0	0.0
2025-01-25 10:47:42.924289	107.9	38.0	-78.3	0.0
2025-01-25 10:47:45.171103	107.2	38.4	-78.1	0.0
2025-01-25 10:47:47.414039	106.4	38.8	-77.8	0.0
2025-01-25 10:47:49.657273	105.7	39.2	-78.1	0.0
2025-01-25 10:47:51.900881	104.9	39.6	-78.4	0.0
2025-01-25 10:47:54.145225	104.1	40.0	-78.0	0.0
2025-01-25 10:47:56.391558	103.3	40.4	-77.8	0.0
2025-01-25 10:47:58.637235	102.5	40.7	-78.4	0.0
2025-01-25 10:48:00.883258	101.7	41.1	-78.3	0.0
2025-01-25 10:48:03.129629	100.8	41.5	-78.2	0.0
2025-01-25 10:48:05.372618	99.9	41.9	-76.8	0.0
2025-01-25 10:48:07.619118	99.0	42.3	-78.3	0.0
2025-01-25 10:48:09.863857	98.1	42.6	-78.1	0.0
2025-01-25 10:48:12.110711	97.1	43.0	-78.2	0.0
2025-01-25 10:48:14.355508	96.2	43.3	-78.4	0.0
2025-01-25 10:48:16.600851	95.2	43.7	-77.8	0.0
2025-01-25 10:48:18.844784	94.1	44.0	-78.4	0.0
2025-01-25 10:48:21.088904	93.1	44.4	-78.0	0.0
2025-01-25 10:48:23.338558	92.0	44.7	-78.2	0.0
2025-01-25 10:48:25.584449	91.0	45.0	-78.6	0.0
2025-01-25 10:48:27.831945	89.9	45.3	-78.3	0.0
2025-01-25 10:48:30.079630	88.7	45.6	-78.3	0.0
2025-01-25 10:48:32.325243	87.6	45.9	-78.3	0.0
2025-01-25 10:48:34.571481	86.4	46.2	-78.3	0.0
2025-01-25 10:48:36.816975	85.2	46.5	-78.3	0.0
2025-01-25 10:48:39.065495	84.0	46.7	-78.4	0.0
2025-01-25 10:48:41.312240	82.8	47.0	-78.4	0.0
2025-01-25 10:48:43.560057	81.6	47.2	-78.6	0.0
2025-01-25 10:48:45.804398	80.3	47.4	-78.4	0.0
2025-01-25 10:48:48.046883	79.0	47.6	-78.3	0.0
2025-01-25 10:48:50.294614	77.7	47.8	-78.4	0.0
2025-01-25 10:48:52.543120	76.4	48.0	-78.3	0.0
2025-01-25 10:48:54.785958	75.1	48.1	-78.1	0.0
2025-01-25 10:48:57.031278	73.8	48.2	-78.5	0.0
2025-01-25 10:48:59.277294	72.4	48.4	-78.2	0.0
2025-01-25 10:49:01.522832	71.0	48.5	-78.3	0.0
2025-01-25 10:49:03.770775	69.7	48.6	-78.4	0.0
2025-01-25 10:49:06.016679	68.3	48.6	-78.0	0.0
2025-01-25 10:49:08.261007	66.9	48.7	-78.1	0.0
2025-01-25 10:49:10.506871	65.5	48.7	-78.7	0.0
2025-01-25 10:49:12.751850	64.2	48.7	-78.6	0.0
2025-01-25 10:49:14.998637	62.8	48.7	-78.3	0.0
2025-01-25 10:49:17.242009	61.4	48.7	-78.6	0.0
2025-01-25 10:49:19.490381	60.0	48.7	-78.1	0.0
2025-01-25 10:49:21.735949	58.6	48.6	-78.3	0.0
2025-01-25 10:49:23.982928	57.3	48.5	-78.4	0.0
2025-01-25 10:49:26.225513	55.9	48.5	-77.9	0.0
2025-01-25 10:49:28.470412	54.5	48.3	-78.1	0.0
2025-01-25 10:49:30.713678	53.2	48.2	-78.0	0.0
2025-01-25 10:49:32.958464	51.9	48.1	-78.5	0.0
2025-01-25 10:49:35.202684	50.5	47.9	-78.4	0.0
2025-01-25 10:49:37.448879	49.2	47.8	-78.6	0.0
2025-01-25 10:49:39.694297	47.9	47.6	-78.6	0.0
2025-01-25 10:49:41.943911	46.7	47.4	-78.3	0.0
2025-01-25 10:49:44.190773	45.4	47.1	-78.6	0.0
2025-01-25 10:49:46.434780	44.2	46.9	-78.5	0.0
2025-01-25 10:49:48.679927	42.9	46.7	-78.9	0.0
2025-01-25 10:49:50.924766	41.7	46.4	-78.6	0.0
2025-01-25 10:49:53.171827	40.6	46.1	-78.2	0.0
2025-01-25 10:49:55.414580	39.4	45.9	-78.4	0.0
2025-01-25 10:49:57.657783	38.3	45.6	-78.3	0.0
2025-01-25 10:49:59.902231	37.2	45.3	-78.2	0.0
2025-01-25 10:50:02.146247	36.1	45.0	-78.3	0.0
2025-01-25 10:50:04.392042	35.0	44.6	-77.8	0.0
2025-01-25 10:50:06.639709	33.9	44.3	-77.8	0.0
2025-01-25 10:50:08.886718	32.9	44.0	-78.2	0.0
2025-01-25 10:50:11.129677	31.9	43.6	-78.4	0.0
2025-01-25 10:50:13.372757	30.9	43.3	-78.4	0.0
2025-01-25 10:50:15.615519	29.9	42.9	-78.7	0.0
2025-01-25 10:50:17.861642	29.0	42.6	-78.5	0.0
2025-01-25 10:50:20.110383	28.1	42.2	-78.6	0.0
2025-01-25 10:50:22.354928	27.2	41.8	-78.8	0.0
2025-01-25 10:50:24.600663	26.3	41.5	-78.6	0.0
2025-01-25 10:50:26.845976	25.4	41.1	-78.6	0.0
2025-01-25 10:50:29.089228	24.6	40.7	-78.3	0.0
2025-01-25 10:50:31.335909	23.8	40.3	-78.4	0.0
2025-01-25 10:50:33.580948	23.0	39.9	-78.7	0.0
2025-01-25 10:50:35.826452	22.2	39.5	-79.0	0.0
2025-01-25 10:50:38.071548	21.4	39.1	-78.2	0.0
2025-01-25 10:50:40.317017	20.7	38.8	-77.6	0.0
2025-01-25 10:50:42.562280	19.9	38.4	-77.9	0.0
2025-01-25 10:50:44.807996	19.2	38.0	-77.8	0.0
2025-01-25 10:50:47.053261	18.5	37.6	-78.2	0.0
2025-01-25 10:50:49.300471	17.9	37.2	-77.9	0.0
2025-01-25 10:50:51.546952	17.2	36.8	-77.9	0.0
2025-01-25 10:50:53.794059	16.6	36.4	-77.8	0.0
2025-01-25 10:50:56.039681	15.9	36.0	-78.0	0.0
2025-01-25 10:50:58.284291	15.3	35.6	-77.5	0.0
2025-01-25 10:51:00.529176	14.7	35.2	-77.7	0.0
2025-01-25 10:51:02.776077	14.1	34.8	-77.7	0.0
2025-01-25 10:51:05.022201	13.6	34.4	-77.9	0.0
2025-01-25 10:51:07.270618	13.0	34.1	-77.7	0.0
2025-01-25 10:51:09.518407	12.5	33.7	-77.7	0.0
2025-01-25 10:51:11.764541	11.9	33.3	-77.7	0.0
2025-01-25 10:51:14.012727	11.4	32.9	-77.8	0.0
2025-01-25 10:51:16.256689	10.9	32.5	-78.0	0.0
2025-01-25 10:51:18.503138	10.4	32.2	-77.5	0.0
2025-01-25 10:51:20.748983	9.9	31.8	-77.7	0.0
2025-01-25 10:51:22.993220	9.5	31.4	-77.7	0.0
2025-01-25 10:51:25.237579	9.0	31.1	-77.9	0.0
2025-01-25 10:51:27.482717	8.5	30.7	-77.7	0.0
2025-01-25 10:51:29.728881	8.1	30.3	-78.0	0.0
2025-01-25 10:51:31.975249	7.7	30.0	-78.2	0.0
2025-01-25 10:51:34.220343	7.3	29.6	-77.7	0.0
2025-01-25 10:51:36.467454	6.8	29.3	-77.8	0.0
2025-01-25 10:51:38.712994	6.4	28.9	-77.8	0.0
2025-01-25 10:51:40.956478	6.0	28.6	-77.9	0.0
2025-01-25 10:51:43.200899	5.7	28.2	-77.5	0.0
2025-01-25 10:51:45.446354	5.3	27.9	-76.9	0.0
2025-01-25 10:51:47.692710	4.9	27.5	-77.3	0.0
2025-01-25 10:51:49.939457	4.6	27.2	-77.6	0.0
2025-01-25 10:51:52.183611	4.2	26.9	-77.4	0.0
2025-01-25 10:51:54.429737	3.9	26.5	-78.1	0.0
2025-01-25 10:51:56.675693	3.5	26.2	-77.7	0.0
2025-01-25 10:51:58.923382	3.2	25.9	-77.6	0.0
2025-01-25 10:52:01.170313	2.9	25.5	-77.8	0.0
2025-01-25 10:52:03.413286	2.5	25.2	-77.4	0.0
2025-01-25 10:52:05.657529	2.2	24.9	-78.2	0.0
2025-01-25 10:52:07.903774	1.9	24.6	-77.9	0.0
2025-01-25 10:52:10.151526	1.6	24.3	-78.0	0.0
2025-01-25 10:52:12.397670	1.3	24.0	-78.0	0.0
2025-01-25 10:52:14.640292	1.0	23.7	-78.7	0.0
2025-01-25 10:52:16.885968	0.8	23.4	-77.6	0.0
2025-01-25 10:52:19.134673	0.5	23.1	-78.5	0.0
2025-01-25 10:52:21.379865	0.2	22.8	-78.6	0.0
2025-01-25 10:52:23.624391	360.0	22.5	-78.6	0.0
2025-01-25 10:52:25.866653	359.7	22.2	-78.6	0.0
2025-01-25 10:52:28.113429	359.4	21.9	-78.4	0.0
2025-01-25 10:52:30.358664	359.2	21.6	-78.3	0.0
2025-01-25 10:52:32.603730	358.9	21.3	-77.9	0.0
2025-01-25 10:52:34.850574	358.7	21.0	-78.3	0.0
2025-01-25 10:52:37.097162	358.5	20.8	-78.1	0.0
2025-01-25 10:52:39.342317	358.2	20.5	-78.6	0.0
2025-01-25 10:52:41.588171	358.0	20.2	-78.3	0.0
2025-01-25 10:52:43.833036	357.8	19.9	-78.5	0.0
2025-01-25 10:52:46.078606	357.6	19.7	-78.3	0.0
2025-01-25 10:52:48.324839	357.4	19.4	-77.8	0.0
2025-01-25 10:52:50.568741	357.1	19.1	-77.9	0.0
2025-01-25 10:52:52.814168	356.9	18.9	-78.0	0.0
2025-01-25 10:52:55.060170	356.7	18.6	-77.7	0.0
2025-01-25 10:52:57.308621	356.5	18.4	-77.5	0.0
2025-01-25 10:52:59.554426	356.3	18.1	-78.0	0.0
2025-01-25 10:53:01.803530	356.1	17.9	-77.4	0.0
2025-01-25 10:53:04.051702	355.9	17.6	-78.1	0.0
2025-01-25 10:53:06.297016	355.8	17.4	-78.4	0.0
2025-01-25 10:53:08.543203	355.6	17.1	-78.6	0.0
2025-01-25 10:53:10.790639	355.4	16.9	-78.6	0.0
2025-01-25 10:53:13.036210	355.2	16.6	-78.8	0.0
2025-01-25 10:53:15.282872	355.0	16.4	-78.2	0.0
2025-01-25 10:53:17.528938	354.9	16.2	-78.6	0.0
2025-01-25 10:53:19.776154	354.7	15.9	-78.7	0.0
2025-01-25 10:53:22.021210	354.5	15.7	-78.2	0.0
2025-01-25 10:53:24.267075	354.4	15.5	-78.4	0.0
2025-01-25 10:53:26.510477	354.2	15.2	-78.4	0.0
2025-01-25 10:53:28.755827	354.0	15.0	-77.6	0.0
2025-01-25 10:53:31.002132	353.9	14.8	-78.3	0.0
2025-01-25 10:53:33.247394	353.7	14.5	-78.6	0.0
2025-01-25 10:53:35.493183	353.6	14.3	-78.6	0.0
2025-01-25 10:53:37.737975	353.4	14.1	-78.4	0.0
2025-01-25 10:53:39.983157	353.3	13.9	-78.3	0.0
2025-01-25 10:53:42.229161	353.1	13.7	-78.5	0.0
2025-01-25 10:53:44.473044	353.0	13.5	-78.9	0.0
2025-01-25 10:53:46.717290	352.9	13.2	-78.5	0.0
2025-01-25 10:53:48.960623	352.7	13.0	-78.7	0.0
2025-01-25 10:53:51.204848	352.6	12.8	-78.9	0.0
2025-01-25 10:53:53.448803	352.5	12.6	-78.6	0.0
2025-01-25 10:53:55.693596	352.3	12.4	-78.5	0.0
2025-01-25 10:53:57.937353	352.2	12.2	-78.6	0.0
2025-01-25 10:54:00.183941	352.1	12.0	-78.6	0.0
2025-01-25 10:54:02.426528	351.9	11.8	-78.3	0.0
2025-01-25 10:54:04.669314	351.8	11.6	-78.8	0.0
2025-01-25 10:54:06.915861	351.7	11.4	-78.7	0.0
2025-01-25 10:54:09.163417	351.6	11.2	-78.9	0.0
2025-01-25 10:54:11.409675	351.5	11.0	-78.8	0.0
2025-01-25 10:54:13.657433	351.3	10.8	-78.8	0.0
2025-01-25 10:54:15.901008	351.2	10.6	-78.7	0.0
2025-01-25 10:54:18.144946	351.1	10.4	-78.5	0.0
2025-01-25 10:54:20.389237	351.0	10.2	-78.4	0.0
2025-01-25 10:54:22.635175	350.9	10.1	-78.8	0.0
#Closed at: 2025-01-25 10:44:00.225807