passes_logs/2025/01/25/planumMaritime01/planumMaritime01__20250125_175811_METOP-B_rec.log

#Pass ID: 20250125_175811_METOP-B
#Satellite: METOP-B
#Configuration: METOP-B
#Start time: 2025-01-25 17:58:16.855524

#LorettStation: 1.0.0 05.05.2024
#Station: planumMaritime01
#Location: 37.49445 lon 55.92918 lat
#TLE: 1 38771U 12049A   25024.75604810  .00000390  00000+0  19820-3 0  9990
#TLE: 2 38771  98.5996  82.6623 0001581  70.5177 289.6171 14.21417781641026

#Time	Az	El	Level	SNR
2025-01-25 17:58:19.019104	168.4	10.2	-76.0	2.4
2025-01-25 17:58:21.265622	168.4	10.4	-76.0	1.8
2025-01-25 17:58:23.514847	168.4	10.6	-75.8	3.9
2025-01-25 17:58:25.761533	168.5	10.8	-76.2	3.0
2025-01-25 17:58:28.005806	168.5	11.0	-76.6	1.6
2025-01-25 17:58:30.250624	168.6	11.2	-76.0	3.0
2025-01-25 17:58:32.497841	168.6	11.4	-76.1	3.0
2025-01-25 17:58:34.747219	168.7	11.6	-76.4	2.9
2025-01-25 17:58:36.997570	168.7	11.8	-75.7	4.2
2025-01-25 17:58:39.244830	168.8	12.0	-75.4	4.5
2025-01-25 17:58:41.487801	168.8	12.2	-75.8	3.8
2025-01-25 17:58:43.735492	168.8	12.5	-76.5	2.3
2025-01-25 17:58:45.982232	168.9	12.7	-75.9	3.7
2025-01-25 17:58:48.228648	168.9	12.9	-75.8	3.6
2025-01-25 17:58:50.477955	169.0	13.1	-75.9	3.5
2025-01-25 17:58:52.724733	169.0	13.3	-76.0	3.3
2025-01-25 17:58:54.972362	169.1	13.6	-76.1	2.6
2025-01-25 17:58:57.217002	169.1	13.8	-75.7	4.5
2025-01-25 17:58:59.461697	169.2	14.0	-76.1	4.1
2025-01-25 17:59:01.705709	169.2	14.3	-76.2	3.8
2025-01-25 17:59:03.954208	169.3	14.5	-76.6	3.0
2025-01-25 17:59:06.199092	169.4	14.7	-76.2	3.2
2025-01-25 17:59:08.445734	169.4	15.0	-76.0	2.7
2025-01-25 17:59:10.689824	169.5	15.2	-76.1	4.0
2025-01-25 17:59:12.938976	169.5	15.5	-76.1	4.3
2025-01-25 17:59:15.182714	169.6	15.7	-76.2	3.8
2025-01-25 17:59:17.427858	169.6	16.0	-76.3	4.1
2025-01-25 17:59:19.674544	169.7	16.2	-76.5	3.8
2025-01-25 17:59:21.919636	169.7	16.5	-76.5	3.2
2025-01-25 17:59:24.167530	169.8	16.7	-76.5	3.3
2025-01-25 17:59:26.414739	169.9	17.0	-76.2	3.8
2025-01-25 17:59:28.658165	169.9	17.2	-76.3	3.7
2025-01-25 17:59:30.903647	170.0	17.5	-76.4	3.1
2025-01-25 17:59:33.150855	170.1	17.8	-76.8	3.7
2025-01-25 17:59:35.394041	170.1	18.0	-76.5	3.0
2025-01-25 17:59:37.640837	170.2	18.3	-76.7	2.8
2025-01-25 17:59:39.888223	170.3	18.6	-76.6	3.5
2025-01-25 17:59:42.136639	170.3	18.9	-76.8	2.8
2025-01-25 17:59:44.380743	170.4	19.2	-77.0	2.5
2025-01-25 17:59:46.626350	170.5	19.4	-77.4	0.0
2025-01-25 17:59:48.872837	170.5	19.7	-77.3	0.8
2025-01-25 17:59:51.119704	170.6	20.0	-77.3	0.6
2025-01-25 17:59:53.365623	170.7	20.3	-77.1	1.3
2025-01-25 17:59:55.614317	170.8	20.6	-77.1	0.0
2025-01-25 17:59:57.861878	170.8	20.9	-77.6	0.1
2025-01-25 18:00:00.111232	170.9	21.2	-77.3	0.0
2025-01-25 18:00:02.358459	171.0	21.5	-77.2	0.0
2025-01-25 18:00:04.604462	171.1	21.9	-76.8	0.1
2025-01-25 18:00:06.850429	171.2	22.2	-76.5	0.0
2025-01-25 18:00:09.096023	171.2	22.5	-77.1	0.5
2025-01-25 18:00:11.342453	171.3	22.8	-76.5	2.8
2025-01-25 18:00:13.587070	171.4	23.2	-77.4	3.1
2025-01-25 18:00:15.834348	171.5	23.5	-77.3	2.4
2025-01-25 18:00:18.081531	171.6	23.8	-77.6	2.4
2025-01-25 18:00:20.328817	171.7	24.2	-77.0	2.4
2025-01-25 18:00:22.576982	171.8	24.5	-77.0	2.1
2025-01-25 18:00:24.826201	171.9	24.9	-77.6	0.0
2025-01-25 18:00:27.074319	172.0	25.2	-77.8	0.0
2025-01-25 18:00:29.320224	172.1	25.6	-77.6	0.0
2025-01-25 18:00:31.567338	172.2	26.0	-77.7	0.0
2025-01-25 18:00:33.815479	172.3	26.4	-78.2	0.0
2025-01-25 18:00:36.061403	172.4	26.7	-78.2	0.0
2025-01-25 18:00:38.307257	172.5	27.1	-78.6	0.0
2025-01-25 18:00:40.554251	172.6	27.5	-79.0	0.0
2025-01-25 18:00:42.799331	172.7	27.9	-78.4	0.0
2025-01-25 18:00:45.044341	172.9	28.3	-78.7	0.0
2025-01-25 18:00:47.288116	173.0	28.7	-78.5	0.0
2025-01-25 18:00:49.535690	173.1	29.1	-78.9	0.0
2025-01-25 18:00:51.782649	173.2	29.5	-78.9	0.0
2025-01-25 18:00:54.028328	173.4	30.0	-78.8	0.0
2025-01-25 18:00:56.275404	173.5	30.4	-78.8	0.0
2025-01-25 18:00:58.520198	173.6	30.8	-79.0	0.0
2025-01-25 18:01:00.763169	173.8	31.3	-77.8	0.0
2025-01-25 18:01:03.006880	173.9	31.7	-79.1	0.0
2025-01-25 18:01:05.252367	174.1	32.2	-79.3	0.0
2025-01-25 18:01:07.501818	174.2	32.6	-79.1	0.0
2025-01-25 18:01:09.748552	174.4	33.1	-78.9	0.0
2025-01-25 18:01:11.995057	174.5	33.6	-78.6	0.0
2025-01-25 18:01:14.244870	174.7	34.1	-79.0	0.0
2025-01-25 18:01:16.491244	174.9	34.6	-78.5	0.0
2025-01-25 18:01:18.738641	175.0	35.1	-78.5	0.0
2025-01-25 18:01:20.986135	175.2	35.6	-78.0	0.0
2025-01-25 18:01:23.226351	175.4	36.1	-77.9	0.0
2025-01-25 18:01:25.473675	175.6	36.6	-78.4	0.0
2025-01-25 18:01:27.721786	175.8	37.2	-78.3	0.0
2025-01-25 18:01:29.967813	176.0	37.7	-78.5	0.0
2025-01-25 18:01:32.214226	176.2	38.2	-78.7	0.0
2025-01-25 18:01:34.460878	176.4	38.8	-78.9	0.0
2025-01-25 18:01:36.709987	176.7	39.4	-78.6	0.0
2025-01-25 18:01:38.956344	176.9	39.9	-78.1	0.0
2025-01-25 18:01:41.203667	177.1	40.5	-78.4	0.0
2025-01-25 18:01:43.451397	177.4	41.1	-78.5	0.0
2025-01-25 18:01:45.696486	177.6	41.7	-78.3	0.0
2025-01-25 18:01:47.942591	177.9	42.3	-78.1	0.0
2025-01-25 18:01:50.188136	178.2	43.0	-78.3	0.0
2025-01-25 18:01:52.433377	178.5	43.6	-78.2	0.0
2025-01-25 18:01:54.682402	178.8	44.2	-78.2	0.0
2025-01-25 18:01:56.928571	179.1	44.9	-77.7	0.0
2025-01-25 18:01:59.174186	179.4	45.6	-78.6	0.0
2025-01-25 18:02:01.420493	179.8	46.2	-79.0	0.0
2025-01-25 18:02:03.665783	180.1	46.9	-78.8	0.0
2025-01-25 18:02:05.911540	180.5	47.6	-78.2	0.0
2025-01-25 18:02:08.154260	180.9	48.3	-77.8	0.0
2025-01-25 18:02:10.399149	181.3	49.0	-78.4	0.0
2025-01-25 18:02:12.645916	181.7	49.7	-78.4	0.0
2025-01-25 18:02:14.889297	182.1	50.5	-78.7	0.0
2025-01-25 18:02:17.138787	182.6	51.2	-78.8	0.0
2025-01-25 18:02:19.385309	183.1	52.0	-79.1	0.0
2025-01-25 18:02:21.630707	183.6	52.7	-78.8	0.0
2025-01-25 18:02:23.875651	184.2	53.5	-79.1	0.0
2025-01-25 18:02:26.123536	184.7	54.3	-78.9	0.0
2025-01-25 18:02:28.369794	185.3	55.1	-78.0	0.0
2025-01-25 18:02:30.619229	186.0	55.9	-78.7	0.0
2025-01-25 18:02:32.865654	186.6	56.7	-79.0	0.0
2025-01-25 18:02:35.114053	187.3	57.5	-78.0	0.0
2025-01-25 18:02:37.362488	188.1	58.3	-78.9	0.0
2025-01-25 18:02:39.605032	188.9	59.1	-79.3	0.0
2025-01-25 18:02:41.852428	189.8	60.0	-78.5	0.0
2025-01-25 18:02:44.098254	190.7	60.8	-78.9	0.0
2025-01-25 18:02:46.347289	191.7	61.7	-78.7	0.0
2025-01-25 18:02:48.593173	192.7	62.5	-78.9	0.0
2025-01-25 18:02:50.839411	193.8	63.4	-79.1	0.0
2025-01-25 18:02:53.085702	195.0	64.2	-78.7	0.0
2025-01-25 18:02:55.335540	196.3	65.1	-78.9	0.0
2025-01-25 18:02:57.583535	197.7	65.9	-78.6	0.0
2025-01-25 18:02:59.829517	199.2	66.7	-78.8	0.0
2025-01-25 18:03:02.077004	200.9	67.6	-79.0	0.0
2025-01-25 18:03:04.321360	202.6	68.4	-78.9	0.0
2025-01-25 18:03:06.565382	204.6	69.2	-78.5	0.0
2025-01-25 18:03:08.812303	206.6	70.0	-79.1	0.0
2025-01-25 18:03:11.057087	208.9	70.8	-79.3	0.0
2025-01-25 18:03:13.302920	211.4	71.5	-79.0	0.0
2025-01-25 18:03:15.550047	214.0	72.2	-79.1	0.0
2025-01-25 18:03:17.795791	216.9	72.9	-78.8	0.0
2025-01-25 18:03:20.041467	220.1	73.6	-79.2	0.0
2025-01-25 18:03:22.287867	223.5	74.2	-78.8	0.0
2025-01-25 18:03:24.535388	227.2	74.7	-78.9	0.0
2025-01-25 18:03:26.783178	231.1	75.2	-79.1	0.0
2025-01-25 18:03:29.029987	235.3	75.6	-79.2	0.0
2025-01-25 18:03:31.276366	239.8	75.9	-78.9	0.0
2025-01-25 18:03:33.523825	244.4	76.2	-78.9	0.0
2025-01-25 18:03:35.769646	249.1	76.3	-79.1	0.0
2025-01-25 18:03:38.016415	253.9	76.4	-79.5	0.0
2025-01-25 18:03:40.262973	258.8	76.4	-79.4	0.0
2025-01-25 18:03:42.509567	263.6	76.2	-79.5	0.0
2025-01-25 18:03:44.754828	268.2	76.0	-79.6	0.0
2025-01-25 18:03:47.002860	272.7	75.7	-78.9	0.0
2025-01-25 18:03:49.249827	277.0	75.3	-79.5	0.0
2025-01-25 18:03:51.496752	281.0	74.9	-78.6	0.0
2025-01-25 18:03:53.744863	284.8	74.4	-79.0	0.0
2025-01-25 18:03:55.991121	288.3	73.8	-79.4	0.0
2025-01-25 18:03:58.237404	291.6	73.2	-79.1	0.0
2025-01-25 18:04:00.483674	294.6	72.5	-79.2	0.0
2025-01-25 18:04:02.727404	297.3	71.8	-79.2	0.0
2025-01-25 18:04:04.975895	299.9	71.1	-79.1	0.0
2025-01-25 18:04:07.220426	302.2	70.3	-79.3	0.0
2025-01-25 18:04:09.464773	304.3	69.5	-79.4	0.0
2025-01-25 18:04:11.712189	306.3	68.7	-79.2	0.0
2025-01-25 18:04:13.955287	308.1	67.9	-78.5	0.0
2025-01-25 18:04:16.197945	309.8	67.1	-79.3	0.0
2025-01-25 18:04:18.445573	311.3	66.2	-78.9	0.0
2025-01-25 18:04:20.693792	312.8	65.4	-79.3	0.0
2025-01-25 18:04:22.941489	314.1	64.5	-79.1	0.0
2025-01-25 18:04:25.187120	315.3	63.7	-78.9	0.0
2025-01-25 18:04:27.432663	316.5	62.8	-79.2	0.0
2025-01-25 18:04:29.679262	317.6	62.0	-79.3	0.0
2025-01-25 18:04:31.925302	318.6	61.2	-79.3	0.0
2025-01-25 18:04:34.168922	319.5	60.3	-79.3	0.0
2025-01-25 18:04:36.413524	320.4	59.5	-79.4	0.0
2025-01-25 18:04:38.658106	321.2	58.7	-79.0	0.0
2025-01-25 18:04:40.903225	322.0	57.8	-79.2	0.0
2025-01-25 18:04:43.148498	322.7	57.0	-79.4	0.0
2025-01-25 18:04:45.396063	323.4	56.2	-79.2	0.0
2025-01-25 18:04:47.642661	324.1	55.4	-79.2	0.0
2025-01-25 18:04:49.891703	324.7	54.6	-79.0	0.0
2025-01-25 18:04:52.136887	325.2	53.8	-79.2	0.0
2025-01-25 18:04:54.385650	325.8	53.1	-78.7	0.0
2025-01-25 18:04:56.632404	326.3	52.3	-79.0	0.0
2025-01-25 18:04:58.878849	326.8	51.6	-79.2	0.0
2025-01-25 18:05:01.123523	327.3	50.8	-79.2	0.0
2025-01-25 18:05:03.367893	327.7	50.1	-79.3	0.0
2025-01-25 18:05:05.614230	328.2	49.4	-79.0	0.0
2025-01-25 18:05:07.860458	328.6	48.6	-79.1	0.0
2025-01-25 18:05:10.105771	329.0	47.9	-79.3	0.0
2025-01-25 18:05:12.348271	329.4	47.2	-78.6	0.0
2025-01-25 18:05:14.593937	329.7	46.6	-79.0	0.0
2025-01-25 18:05:16.840650	330.1	45.9	-79.0	0.0
2025-01-25 18:05:19.086232	330.4	45.2	-79.2	0.0
2025-01-25 18:05:21.333643	330.7	44.6	-79.3	0.0
2025-01-25 18:05:23.579923	331.0	43.9	-79.4	0.0
2025-01-25 18:05:25.827186	331.3	43.3	-79.2	0.0
2025-01-25 18:05:28.073636	331.6	42.7	-79.3	0.0
2025-01-25 18:05:30.323100	331.9	42.1	-79.2	0.0
2025-01-25 18:05:32.569707	332.1	41.5	-79.3	0.0
2025-01-25 18:05:34.817923	332.4	40.9	-79.3	0.0
2025-01-25 18:05:37.064621	332.6	40.3	-78.9	0.0
2025-01-25 18:05:39.307823	332.9	39.7	-79.0	0.0
2025-01-25 18:05:41.555704	333.1	39.1	-79.2	0.0
2025-01-25 18:05:43.800728	333.3	38.6	-79.3	0.0
2025-01-25 18:05:46.047831	333.5	38.0	-79.1	0.0
2025-01-25 18:05:48.297475	333.7	37.5	-79.1	0.0
2025-01-25 18:05:50.542520	334.0	36.9	-77.8	0.0
2025-01-25 18:05:52.789996	334.1	36.4	-78.7	0.0
2025-01-25 18:05:55.035759	334.3	35.9	-79.5	0.0
2025-01-25 18:05:57.281186	334.5	35.4	-78.9	0.0
2025-01-25 18:05:59.527053	334.7	34.9	-79.5	0.0
2025-01-25 18:06:01.769810	334.9	34.4	-79.3	0.0
2025-01-25 18:06:04.014527	335.0	33.9	-79.8	0.0
2025-01-25 18:06:06.257982	335.2	33.4	-79.3	0.0
2025-01-25 18:06:08.502313	335.4	33.0	-79.2	0.0
2025-01-25 18:06:10.747506	335.5	32.5	-79.3	0.0
2025-01-25 18:06:12.991520	335.7	32.0	-79.4	0.0
2025-01-25 18:06:15.238594	335.8	31.6	-79.3	0.0
2025-01-25 18:06:17.481414	336.0	31.1	-79.3	0.0
2025-01-25 18:06:19.724598	336.1	30.7	-79.3	0.0
2025-01-25 18:06:21.969113	336.2	30.3	-79.1	0.0
2025-01-25 18:06:24.214681	336.4	29.8	-79.1	0.0
2025-01-25 18:06:26.459298	336.5	29.4	-79.5	0.0
2025-01-25 18:06:28.705701	336.6	29.0	-79.7	0.0
2025-01-25 18:06:30.951171	336.7	28.6	-79.4	0.0
2025-01-25 18:06:33.195981	336.9	28.2	-79.3	0.0
2025-01-25 18:06:35.439377	337.0	27.8	-79.4	0.0
2025-01-25 18:06:37.685573	337.1	27.4	-79.4	0.0
2025-01-25 18:06:39.930214	337.2	27.0	-79.3	0.0
2025-01-25 18:06:42.177151	337.3	26.7	-79.5	0.0
2025-01-25 18:06:44.424286	337.4	26.3	-79.3	0.0
2025-01-25 18:06:46.671117	337.5	25.9	-79.3	0.0
2025-01-25 18:06:48.916212	337.6	25.5	-79.5	0.0
2025-01-25 18:06:51.163066	337.7	25.2	-79.6	0.0
2025-01-25 18:06:53.407556	337.8	24.8	-79.4	0.0
2025-01-25 18:06:55.653278	337.9	24.5	-79.4	0.0
2025-01-25 18:06:57.898876	338.0	24.1	-79.3	0.0
2025-01-25 18:07:00.145682	338.1	23.8	-79.4	0.0
2025-01-25 18:07:02.392006	338.2	23.5	-79.4	0.0
2025-01-25 18:07:04.636440	338.3	23.1	-79.4	0.0
2025-01-25 18:07:06.883311	338.4	22.8	-78.7	0.0
2025-01-25 18:07:09.129640	338.5	22.5	-79.9	0.0
2025-01-25 18:07:11.376946	338.6	22.2	-79.5	0.0
2025-01-25 18:07:13.622939	338.6	21.8	-79.5	0.0
2025-01-25 18:07:15.871312	338.7	21.5	-79.7	0.0
2025-01-25 18:07:18.114831	338.8	21.2	-79.6	0.0
2025-01-25 18:07:20.360402	338.9	20.9	-79.6	0.0
2025-01-25 18:07:22.610231	339.0	20.6	-79.8	0.0
2025-01-25 18:07:24.856814	339.0	20.3	-79.3	0.0
2025-01-25 18:07:27.102395	339.1	20.0	-79.4	0.0
2025-01-25 18:07:29.349824	339.2	19.7	-79.6	0.0
2025-01-25 18:07:31.595198	339.3	19.5	-79.5	0.0
2025-01-25 18:07:33.840530	339.3	19.2	-79.7	0.0
2025-01-25 18:07:36.085708	339.4	18.9	-79.5	0.0
2025-01-25 18:07:38.330638	339.5	18.6	-79.4	0.0
2025-01-25 18:07:40.575741	339.5	18.3	-79.3	0.0
2025-01-25 18:07:42.825068	339.6	18.1	-79.3	0.0
2025-01-25 18:07:45.075819	339.7	17.8	-79.3	0.0
2025-01-25 18:07:47.321557	339.7	17.5	-79.0	0.0
2025-01-25 18:07:49.566542	339.8	17.3	-79.3	0.0
2025-01-25 18:07:51.813306	339.9	17.0	-78.9	0.0
2025-01-25 18:07:54.062034	339.9	16.8	-79.3	0.0
2025-01-25 18:07:56.309630	340.0	16.5	-78.5	0.0
2025-01-25 18:07:58.557792	340.0	16.2	-78.9	0.0
2025-01-25 18:08:00.803979	340.1	16.0	-79.0	0.0
2025-01-25 18:08:03.051834	340.2	15.7	-79.3	0.0
2025-01-25 18:08:05.299168	340.2	15.5	-79.6	0.0
2025-01-25 18:08:07.543196	340.3	15.3	-79.2	0.0
2025-01-25 18:08:09.789537	340.3	15.0	-79.4	0.0
2025-01-25 18:08:12.033093	340.4	14.8	-79.2	0.0
2025-01-25 18:08:14.277446	340.4	14.6	-79.7	0.0
2025-01-25 18:08:16.521698	340.5	14.3	-79.2	0.0
2025-01-25 18:08:18.768736	340.6	14.1	-79.7	0.0
2025-01-25 18:08:21.017799	340.6	13.9	-79.4	0.0
2025-01-25 18:08:23.267369	340.7	13.6	-79.3	0.0
2025-01-25 18:08:25.513787	340.7	13.4	-79.9	0.0
2025-01-25 18:08:27.762146	340.8	13.2	-78.7	0.0
2025-01-25 18:08:30.005982	340.8	13.0	-79.1	0.0
2025-01-25 18:08:32.252889	340.9	12.8	-79.0	0.0
2025-01-25 18:08:34.497038	340.9	12.5	-79.7	0.0
2025-01-25 18:08:36.742100	341.0	12.3	-78.8	0.0
2025-01-25 18:08:38.988785	341.0	12.1	-79.3	0.0
2025-01-25 18:08:41.235167	341.1	11.9	-80.1	0.0
2025-01-25 18:08:43.479659	341.1	11.7	-78.7	0.0
2025-01-25 18:08:45.724833	341.1	11.5	-79.1	0.0
2025-01-25 18:08:47.970766	341.2	11.3	-79.2	0.0
2025-01-25 18:08:50.218879	341.2	11.1	-79.7	0.0
2025-01-25 18:08:52.463213	341.3	10.9	-79.4	0.0
2025-01-25 18:08:54.714768	341.3	10.7	-79.7	0.0
2025-01-25 18:08:56.961451	341.4	10.5	-78.6	0.0
2025-01-25 18:08:59.209213	341.4	10.3	-78.7	0.0
2025-01-25 18:09:01.455533	341.5	10.1	-79.8	0.0
#Closed at: 2025-01-25 17:58:11.858258