passes_logs/2025/01/25/planumMaritime01/planumMaritime01__20250125_031409_METEOR-M2_2_rec.log

#Pass ID: 20250125_031409_METEOR-M2 2
#Satellite: METEOR-M2 2
#Configuration: METEOR-M2 2
#Start time: 2025-01-25 03:14:14.058093

#LorettStation: 1.0.0 05.05.2024
#Station: planumMaritime01
#Location: 37.49445 lon 55.92918 lat
#TLE: 1 44387U 19038A   25024.76368027  .00000427  00000+0  20528-3 0  9991
#TLE: 2 44387  98.8579   1.2349 0002158  64.0416 296.0984 14.24124981288923

#Time	Az	El	Level	SNR
2025-01-25 03:14:16.214682	4.8	10.2	-77.9	0.0
2025-01-25 03:14:18.457794	4.6	10.3	-78.0	0.0
2025-01-25 03:14:20.707028	4.4	10.5	-78.1	0.0
2025-01-25 03:14:22.952191	4.2	10.7	-78.0	0.0
2025-01-25 03:14:25.197487	4.0	10.9	-77.9	0.0
2025-01-25 03:14:27.443634	3.8	11.1	-77.9	0.0
2025-01-25 03:14:29.692260	3.6	11.2	-78.0	0.0
2025-01-25 03:14:31.938811	3.4	11.4	-78.0	0.0
2025-01-25 03:14:34.186757	3.2	11.6	-77.9	0.0
2025-01-25 03:14:36.429574	3.0	11.8	-77.9	0.0
2025-01-25 03:14:38.675362	2.8	12.0	-77.9	0.0
2025-01-25 03:14:40.924103	2.6	12.2	-77.9	0.0
2025-01-25 03:14:43.173932	2.4	12.4	-78.0	0.0
2025-01-25 03:14:45.420060	2.2	12.5	-77.8	0.0
2025-01-25 03:14:47.668186	1.9	12.7	-78.0	0.0
2025-01-25 03:14:49.915297	1.7	12.9	-78.2	0.0
2025-01-25 03:14:52.161985	1.5	13.1	-78.2	0.0
2025-01-25 03:14:54.409621	1.3	13.3	-78.2	0.0
2025-01-25 03:14:56.654361	1.0	13.5	-78.1	0.0
2025-01-25 03:14:58.901692	0.8	13.7	-78.1	0.0
2025-01-25 03:15:01.149657	0.6	13.9	-77.9	0.0
2025-01-25 03:15:03.393444	0.3	14.1	-78.1	0.0
2025-01-25 03:15:05.638983	0.1	14.3	-78.3	0.0
2025-01-25 03:15:07.885305	359.8	14.5	-78.3	0.0
2025-01-25 03:15:10.128718	359.6	14.7	-78.4	0.0
2025-01-25 03:15:12.375853	359.3	14.9	-78.0	0.0
2025-01-25 03:15:14.623482	359.1	15.1	-77.8	0.0
2025-01-25 03:15:16.870355	358.8	15.3	-78.5	0.0
2025-01-25 03:15:19.117259	358.5	15.5	-78.5	0.0
2025-01-25 03:15:21.364299	358.3	15.7	-78.4	0.0
2025-01-25 03:15:23.611064	358.0	15.9	-78.3	0.0
2025-01-25 03:15:25.858030	357.7	16.1	-78.5	0.0
2025-01-25 03:15:28.104742	357.4	16.4	-78.2	0.0
2025-01-25 03:15:30.349592	357.1	16.6	-78.9	0.0
2025-01-25 03:15:32.594806	356.8	16.8	-78.4	0.0
2025-01-25 03:15:34.841645	356.6	17.0	-78.7	0.0
2025-01-25 03:15:37.087698	356.3	17.2	-78.3	0.0
2025-01-25 03:15:39.331820	356.0	17.4	-78.4	0.0
2025-01-25 03:15:41.576319	355.6	17.6	-78.7	0.0
2025-01-25 03:15:43.822713	355.3	17.9	-78.7	0.0
2025-01-25 03:15:46.068336	355.0	18.1	-78.8	0.0
2025-01-25 03:15:48.316397	354.7	18.3	-78.6	0.0
2025-01-25 03:15:50.562197	354.4	18.5	-78.7	0.0
2025-01-25 03:15:52.810444	354.0	18.7	-78.5	0.0
2025-01-25 03:15:55.058060	353.7	19.0	-78.3	0.0
2025-01-25 03:15:57.305704	353.4	19.2	-78.7	0.0
2025-01-25 03:15:59.551121	353.0	19.4	-78.7	0.0
2025-01-25 03:16:01.801732	352.7	19.6	-78.6	0.0
2025-01-25 03:16:04.045513	352.3	19.9	-79.0	0.0
2025-01-25 03:16:06.291964	351.9	20.1	-79.0	0.0
2025-01-25 03:16:08.553039	351.6	20.3	-78.9	0.0
2025-01-25 03:16:10.795210	351.2	20.5	-78.8	0.0
2025-01-25 03:16:13.040426	350.8	20.8	-78.7	0.0
2025-01-25 03:16:15.288814	350.4	21.0	-78.6	0.0
2025-01-25 03:16:17.535705	350.0	21.2	-78.5	0.0
2025-01-25 03:16:19.781710	349.6	21.5	-78.6	0.0
2025-01-25 03:16:22.029321	349.2	21.7	-78.6	0.0
2025-01-25 03:16:24.272592	348.8	21.9	-78.8	0.0
2025-01-25 03:16:26.520311	348.4	22.2	-78.6	0.0
2025-01-25 03:16:28.765351	348.0	22.4	-78.5	0.0
2025-01-25 03:16:31.012330	347.5	22.6	-78.4	0.0
2025-01-25 03:16:33.258233	347.1	22.9	-78.6	0.0
2025-01-25 03:16:35.503876	346.7	23.1	-78.7	0.0
2025-01-25 03:16:37.747211	346.2	23.4	-78.6	0.0
2025-01-25 03:16:39.990816	345.7	23.6	-78.9	0.0
2025-01-25 03:16:42.235053	345.3	23.8	-78.7	0.0
2025-01-25 03:16:44.484351	344.8	24.1	-78.9	0.0
2025-01-25 03:16:46.728743	344.3	24.3	-78.9	0.0
2025-01-25 03:16:48.973407	343.8	24.5	-78.9	0.0
2025-01-25 03:16:51.218066	343.3	24.8	-78.9	0.0
2025-01-25 03:16:53.463724	342.8	25.0	-78.9	0.0
2025-01-25 03:16:55.707435	342.3	25.2	-78.4	0.0
2025-01-25 03:16:57.952011	341.8	25.5	-78.9	0.0
2025-01-25 03:17:00.196646	341.3	25.7	-79.1	0.0
2025-01-25 03:17:02.443441	340.8	26.0	-78.8	0.0
2025-01-25 03:17:04.690746	340.2	26.2	-78.9	0.0
2025-01-25 03:17:06.934947	339.7	26.4	-79.0	0.0
2025-01-25 03:17:09.181053	339.1	26.7	-78.9	0.0
2025-01-25 03:17:11.428305	338.5	26.9	-78.9	0.0
2025-01-25 03:17:13.676653	338.0	27.1	-78.9	0.0
2025-01-25 03:17:15.924732	337.4	27.3	-78.7	0.0
2025-01-25 03:17:18.170351	336.8	27.6	-78.9	0.0
2025-01-25 03:17:20.416254	336.2	27.8	-78.8	0.0
2025-01-25 03:17:22.660514	335.6	28.0	-78.9	0.0
2025-01-25 03:17:24.905241	335.0	28.2	-78.5	0.0
2025-01-25 03:17:27.152073	334.3	28.5	-78.8	0.0
2025-01-25 03:17:29.398227	333.7	28.7	-79.0	0.0
2025-01-25 03:17:31.643555	333.1	28.9	-79.2	0.0
2025-01-25 03:17:33.892994	332.4	29.1	-78.9	0.0
2025-01-25 03:17:36.134035	331.7	29.3	-78.9	0.0
2025-01-25 03:17:38.378876	331.1	29.5	-78.9	0.0
2025-01-25 03:17:40.624344	330.4	29.7	-79.0	0.0
2025-01-25 03:17:42.872191	329.7	29.9	-79.0	0.0
2025-01-25 03:17:45.119265	329.0	30.1	-79.0	0.0
2025-01-25 03:17:47.364006	328.3	30.3	-79.1	0.0
2025-01-25 03:17:49.608813	327.6	30.5	-79.1	0.0
2025-01-25 03:17:51.854402	326.9	30.7	-79.2	0.0
2025-01-25 03:17:54.103779	326.1	30.9	-79.0	0.0
2025-01-25 03:17:56.351213	325.4	31.1	-78.9	0.0
2025-01-25 03:17:58.597807	324.6	31.3	-79.0	0.0
2025-01-25 03:18:00.843651	323.9	31.4	-79.0	0.0
2025-01-25 03:18:03.086929	323.1	31.6	-79.0	0.0
2025-01-25 03:18:05.334076	322.3	31.8	-79.1	0.0
2025-01-25 03:18:07.580534	321.6	31.9	-79.0	0.0
2025-01-25 03:18:09.828422	320.8	32.1	-79.2	0.0
2025-01-25 03:18:12.073808	320.0	32.2	-78.8	0.0
2025-01-25 03:18:14.321491	319.2	32.3	-79.0	0.0
2025-01-25 03:18:16.568361	318.4	32.5	-79.2	0.0
2025-01-25 03:18:18.813886	317.6	32.6	-79.1	0.0
2025-01-25 03:18:21.057935	316.7	32.7	-79.0	0.0
2025-01-25 03:18:23.304052	315.9	32.8	-79.0	0.0
2025-01-25 03:18:25.552662	315.1	33.0	-79.1	0.0
2025-01-25 03:18:27.797253	314.2	33.1	-79.1	0.0
2025-01-25 03:18:30.050685	313.4	33.2	-79.3	0.0
2025-01-25 03:18:32.297651	312.5	33.2	-79.1	0.0
2025-01-25 03:18:34.543660	311.7	33.3	-79.4	0.0
2025-01-25 03:18:36.790408	310.8	33.4	-79.0	0.0
2025-01-25 03:18:39.035101	310.0	33.5	-79.2	0.0
2025-01-25 03:18:41.283847	309.1	33.5	-79.2	0.0
2025-01-25 03:18:43.529948	308.2	33.6	-79.1	0.0
2025-01-25 03:18:45.773694	307.3	33.6	-79.1	0.0
2025-01-25 03:18:48.019500	306.5	33.7	-79.1	0.0
2025-01-25 03:18:50.265004	305.6	33.7	-79.0	0.0
2025-01-25 03:18:52.510886	304.7	33.7	-79.1	0.0
2025-01-25 03:18:54.755317	303.8	33.8	-79.0	0.0
2025-01-25 03:18:57.002917	303.0	33.8	-79.2	0.0
2025-01-25 03:18:59.250839	302.1	33.8	-79.1	0.0
2025-01-25 03:19:01.494795	301.2	33.8	-79.2	0.0
2025-01-25 03:19:03.739505	300.3	33.7	-79.2	0.0
2025-01-25 03:19:05.985157	299.4	33.7	-79.0	0.0
2025-01-25 03:19:08.229745	298.6	33.7	-79.1	0.0
2025-01-25 03:19:10.475903	297.7	33.7	-79.2	0.0
2025-01-25 03:19:12.721547	296.8	33.6	-79.3	0.0
2025-01-25 03:19:14.964478	295.9	33.6	-79.1	0.0
2025-01-25 03:19:17.210060	295.1	33.5	-78.9	0.0
2025-01-25 03:19:19.458699	294.2	33.4	-79.1	0.0
2025-01-25 03:19:21.704267	293.3	33.4	-79.0	0.0
2025-01-25 03:19:23.950884	292.5	33.3	-78.7	0.0
2025-01-25 03:19:26.198349	291.6	33.2	-78.9	0.0
2025-01-25 03:19:28.448128	290.8	33.1	-79.1	0.0
2025-01-25 03:19:30.693453	289.9	33.0	-79.1	0.0
2025-01-25 03:19:32.940555	289.1	32.9	-79.1	0.0
2025-01-25 03:19:35.185386	288.3	32.8	-79.1	0.0
2025-01-25 03:19:37.435003	287.4	32.7	-79.1	0.0
2025-01-25 03:19:39.682040	286.6	32.5	-79.1	0.0
2025-01-25 03:19:41.928815	285.8	32.4	-79.1	0.0
2025-01-25 03:19:44.174729	285.0	32.3	-79.2	0.0
2025-01-25 03:19:46.421255	284.2	32.1	-79.2	0.0
2025-01-25 03:19:48.667021	283.4	32.0	-79.2	0.0
2025-01-25 03:19:50.913932	282.6	31.8	-79.2	0.0
2025-01-25 03:19:53.159073	281.9	31.6	-79.1	0.0
2025-01-25 03:19:55.405620	281.1	31.5	-79.2	0.0
2025-01-25 03:19:57.650115	280.3	31.3	-79.1	0.0
2025-01-25 03:19:59.892571	279.6	31.1	-79.3	0.0
2025-01-25 03:20:02.138241	278.8	31.0	-79.3	0.0
2025-01-25 03:20:04.383770	278.1	30.8	-79.0	0.0
2025-01-25 03:20:06.630945	277.4	30.6	-79.4	0.0
2025-01-25 03:20:08.879008	276.6	30.4	-79.3	0.0
2025-01-25 03:20:11.125324	275.9	30.2	-79.1	0.0
2025-01-25 03:20:13.370967	275.2	30.0	-79.1	0.0
2025-01-25 03:20:15.617224	274.5	29.8	-78.5	0.0
2025-01-25 03:20:17.863946	273.8	29.6	-79.2	0.0
2025-01-25 03:20:20.109947	273.2	29.4	-78.6	0.0
2025-01-25 03:20:22.354067	272.5	29.2	-78.7	0.0
2025-01-25 03:20:24.601108	271.8	29.0	-79.1	0.0
2025-01-25 03:20:26.845095	271.2	28.7	-79.3	0.0
2025-01-25 03:20:29.092493	270.6	28.5	-79.2	0.0
2025-01-25 03:20:31.337272	269.9	28.3	-79.0	0.0
2025-01-25 03:20:33.584851	269.3	28.1	-79.1	0.0
2025-01-25 03:20:35.830429	268.7	27.9	-79.1	0.0
2025-01-25 03:20:38.078447	268.1	27.6	-79.0	0.0
2025-01-25 03:20:40.325200	267.5	27.4	-79.1	0.0
2025-01-25 03:20:42.567432	266.9	27.2	-79.2	0.0
2025-01-25 03:20:44.814993	266.3	26.9	-79.2	0.0
2025-01-25 03:20:47.061658	265.7	26.7	-79.1	0.0
2025-01-25 03:20:49.308799	265.2	26.5	-79.1	0.0
2025-01-25 03:20:51.554189	264.6	26.2	-79.2	0.0
2025-01-25 03:20:53.798712	264.1	26.0	-79.0	0.0
2025-01-25 03:20:56.042590	263.5	25.8	-79.0	0.0
2025-01-25 03:20:58.288962	263.0	25.5	-79.0	0.0
2025-01-25 03:21:00.532526	262.5	25.3	-78.6	0.0
2025-01-25 03:21:02.781967	262.0	25.1	-78.5	0.0
2025-01-25 03:21:05.031842	261.5	24.8	-78.6	0.0
2025-01-25 03:21:07.277197	261.0	24.6	-78.5	0.0
2025-01-25 03:21:09.521759	260.5	24.3	-79.0	0.0
2025-01-25 03:21:11.767391	260.0	24.1	-79.1	0.0
2025-01-25 03:21:14.013974	259.5	23.9	-79.2	0.0
2025-01-25 03:21:16.261251	259.0	23.6	-79.1	0.0
2025-01-25 03:21:18.507983	258.6	23.4	-79.1	0.0
2025-01-25 03:21:20.752566	258.1	23.2	-79.3	0.0
2025-01-25 03:21:22.998798	257.7	22.9	-79.3	0.0
2025-01-25 03:21:25.244569	257.2	22.7	-79.5	0.0
2025-01-25 03:21:27.491472	256.8	22.4	-79.1	0.0
2025-01-25 03:21:29.736943	256.4	22.2	-79.0	0.0
2025-01-25 03:21:31.984745	255.9	22.0	-79.1	0.0
2025-01-25 03:21:34.228776	255.5	21.7	-79.3	0.0
2025-01-25 03:21:36.474532	255.1	21.5	-79.0	0.0
2025-01-25 03:21:38.718144	254.7	21.3	-79.2	0.0
2025-01-25 03:21:40.964448	254.3	21.0	-79.0	0.0
2025-01-25 03:21:43.209879	253.9	20.8	-79.2	0.0
2025-01-25 03:21:45.456885	253.5	20.6	-79.3	0.0
2025-01-25 03:21:47.704288	253.2	20.3	-79.2	0.0
2025-01-25 03:21:49.951859	252.8	20.1	-79.5	0.0
2025-01-25 03:21:52.201000	252.4	19.9	-79.0	0.0
2025-01-25 03:21:54.445988	252.1	19.7	-79.2	0.0
2025-01-25 03:21:56.695456	251.7	19.4	-79.2	0.0
2025-01-25 03:21:58.941819	251.4	19.2	-79.1	0.0
2025-01-25 03:22:01.189373	251.0	19.0	-79.0	0.0
2025-01-25 03:22:03.434917	250.7	18.8	-79.2	0.0
2025-01-25 03:22:05.677830	250.3	18.5	-79.0	0.0
2025-01-25 03:22:07.923770	250.0	18.3	-79.1	0.0
2025-01-25 03:22:10.172091	249.7	18.1	-78.7	0.0
2025-01-25 03:22:12.419631	249.4	17.9	-78.9	0.0
2025-01-25 03:22:14.665802	249.0	17.7	-79.1	0.0
2025-01-25 03:22:16.910257	248.7	17.4	-78.8	0.0
2025-01-25 03:22:19.156308	248.4	17.2	-78.7	0.0
2025-01-25 03:22:21.400728	248.1	17.0	-79.1	0.0
2025-01-25 03:22:23.644471	247.8	16.8	-79.2	0.0
2025-01-25 03:22:25.894629	247.5	16.6	-79.4	0.0
2025-01-25 03:22:28.138653	247.2	16.4	-79.1	0.0
2025-01-25 03:22:30.380194	247.0	16.1	-79.1	0.0
2025-01-25 03:22:32.624586	246.7	15.9	-79.2	0.0
2025-01-25 03:22:34.871516	246.4	15.7	-79.2	0.0
2025-01-25 03:22:37.115805	246.1	15.5	-79.4	0.0
2025-01-25 03:22:39.361571	245.8	15.3	-79.1	0.0
2025-01-25 03:22:41.608897	245.6	15.1	-79.3	0.0
2025-01-25 03:22:43.856759	245.3	14.9	-79.3	0.0
2025-01-25 03:22:46.102610	245.1	14.7	-79.4	0.0
2025-01-25 03:22:48.349330	244.8	14.5	-79.3	0.0
2025-01-25 03:22:50.593682	244.6	14.3	-79.2	0.0
2025-01-25 03:22:52.838898	244.3	14.1	-79.3	0.0
2025-01-25 03:22:55.083112	244.1	13.9	-79.3	0.0
2025-01-25 03:22:57.326221	243.8	13.7	-79.3	0.0
2025-01-25 03:22:59.570679	243.6	13.5	-79.3	0.0
2025-01-25 03:23:01.819859	243.3	13.3	-79.4	0.0
2025-01-25 03:23:04.065593	243.1	13.1	-79.1	0.0
2025-01-25 03:23:06.309868	242.9	12.9	-78.8	0.0
2025-01-25 03:23:08.556489	242.7	12.7	-79.3	0.0
2025-01-25 03:23:10.802515	242.4	12.5	-79.0	0.0
2025-01-25 03:23:13.047860	242.2	12.3	-79.2	0.0
2025-01-25 03:23:15.292542	242.0	12.2	-79.1	0.0
2025-01-25 03:23:17.536295	241.8	12.0	-79.1	0.0
2025-01-25 03:23:19.777087	241.6	11.8	-79.4	0.0
2025-01-25 03:23:22.023459	241.4	11.6	-79.1	0.0
2025-01-25 03:23:24.265101	241.2	11.4	-79.2	0.0
2025-01-25 03:23:26.508011	241.0	11.2	-79.3	0.0
2025-01-25 03:23:28.753137	240.8	11.0	-79.2	0.0
2025-01-25 03:23:30.999255	240.6	10.9	-79.1	0.0
2025-01-25 03:23:33.244891	240.4	10.7	-79.3	0.0
2025-01-25 03:23:35.491314	240.2	10.5	-79.3	0.0
2025-01-25 03:23:37.738293	240.0	10.3	-79.2	0.0
2025-01-25 03:23:39.981701	239.8	10.1	-79.2	0.0
#Closed at: 2025-01-25 03:14:09.061089