passes_logs/2025/01/25/planumMaritime01/planumMaritime01__20250125_112316_METEOR-M2_2_rec.log

#Pass ID: 20250125_112316_METEOR-M2 2
#Satellite: METEOR-M2 2
#Configuration: METEOR-M2 2
#Start time: 2025-01-25 11:23:21.497336

#LorettStation: 1.0.0 05.05.2024
#Station: planumMaritime01
#Location: 37.49445 lon 55.92918 lat
#TLE: 1 44387U 19038A   25024.76368027  .00000427  00000+0  20528-3 0  9991
#TLE: 2 44387  98.8579   1.2349 0002158  64.0416 296.0984 14.24124981288923

#Time	Az	El	Level	SNR
2025-01-25 11:23:23.654787	127.3	10.2	-78.0	0.0
2025-01-25 11:23:25.900957	127.2	10.4	-77.4	0.0
2025-01-25 11:23:28.145597	127.0	10.5	-78.0	0.0
2025-01-25 11:23:30.390592	126.8	10.7	-77.9	0.0
2025-01-25 11:23:32.636947	126.7	10.9	-77.6	0.0
2025-01-25 11:23:34.885264	126.5	11.1	-77.9	0.0
2025-01-25 11:23:37.130025	126.3	11.3	-77.6	0.0
2025-01-25 11:23:39.373709	126.2	11.5	-78.4	0.0
2025-01-25 11:23:41.616278	126.0	11.7	-77.9	0.0
2025-01-25 11:23:43.861151	125.8	11.9	-78.2	0.0
2025-01-25 11:23:46.110233	125.6	12.1	-77.9	0.0
2025-01-25 11:23:48.358581	125.5	12.3	-78.2	0.0
2025-01-25 11:23:50.606458	125.3	12.5	-78.0	0.0
2025-01-25 11:23:52.851781	125.1	12.7	-77.9	0.0
2025-01-25 11:23:55.096743	124.9	12.9	-78.1	0.0
2025-01-25 11:23:57.343401	124.7	13.1	-76.8	0.0
2025-01-25 11:23:59.588630	124.5	13.3	-77.7	0.0
2025-01-25 11:24:01.836429	124.3	13.5	-77.9	0.0
2025-01-25 11:24:04.082129	124.1	13.7	-77.8	0.0
2025-01-25 11:24:06.326981	123.9	13.9	-77.9	0.0
2025-01-25 11:24:08.572721	123.7	14.1	-78.2	0.0
2025-01-25 11:24:10.815951	123.5	14.3	-77.8	0.0
2025-01-25 11:24:13.062872	123.3	14.5	-77.3	0.0
2025-01-25 11:24:15.311026	123.1	14.8	-78.4	0.0
2025-01-25 11:24:17.555932	122.9	15.0	-78.3	0.0
2025-01-25 11:24:19.804497	122.7	15.2	-77.9	0.0
2025-01-25 11:24:22.050627	122.4	15.4	-77.8	0.0
2025-01-25 11:24:24.293975	122.2	15.6	-78.3	0.0
2025-01-25 11:24:26.539699	122.0	15.9	-78.3	0.0
2025-01-25 11:24:28.784787	121.8	16.1	-77.8	0.0
2025-01-25 11:24:31.030751	121.5	16.3	-78.0	0.0
2025-01-25 11:24:33.275344	121.3	16.5	-78.2	0.0
2025-01-25 11:24:35.519505	121.0	16.8	-78.3	0.0
2025-01-25 11:24:37.766872	120.8	17.0	-78.4	0.0
2025-01-25 11:24:40.009919	120.5	17.2	-77.3	0.0
2025-01-25 11:24:42.256041	120.3	17.5	-78.2	0.0
2025-01-25 11:24:44.502809	120.0	17.7	-78.7	0.0
2025-01-25 11:24:46.748697	119.7	17.9	-77.2	0.0
2025-01-25 11:24:48.994706	119.5	18.2	-78.1	0.0
2025-01-25 11:24:51.243305	119.2	18.4	-78.6	0.0
2025-01-25 11:24:53.489711	118.9	18.7	-78.2	0.0
2025-01-25 11:24:55.735197	118.6	18.9	-78.5	0.0
2025-01-25 11:24:57.979188	118.4	19.2	-78.1	0.0
2025-01-25 11:25:00.222874	118.1	19.4	-78.7	0.0
2025-01-25 11:25:02.472604	117.8	19.6	-78.4	0.0
2025-01-25 11:25:04.716228	117.5	19.9	-78.1	0.0
2025-01-25 11:25:06.962794	117.2	20.2	-78.0	0.0
2025-01-25 11:25:09.208454	116.8	20.4	-78.4	0.0
2025-01-25 11:25:11.456038	116.5	20.7	-78.2	0.0
2025-01-25 11:25:13.704831	116.2	20.9	-78.5	0.0
2025-01-25 11:25:15.950637	115.9	21.2	-78.3	0.0
2025-01-25 11:25:18.201089	115.5	21.4	-78.7	0.0
2025-01-25 11:25:20.446588	115.2	21.7	-77.6	0.0
2025-01-25 11:25:22.692440	114.9	22.0	-77.4	0.0
2025-01-25 11:25:24.937064	114.5	22.2	-78.6	0.0
2025-01-25 11:25:27.185180	114.1	22.5	-78.8	0.0
2025-01-25 11:25:29.427646	113.8	22.8	-78.5	0.0
2025-01-25 11:25:31.671422	113.4	23.0	-78.5	0.0
2025-01-25 11:25:33.916862	113.0	23.3	-78.2	0.0
2025-01-25 11:25:36.163555	112.6	23.6	-78.0	0.0
2025-01-25 11:25:38.409560	112.3	23.9	-78.5	0.0
2025-01-25 11:25:40.652236	111.9	24.1	-78.3	0.0
2025-01-25 11:25:42.898219	111.4	24.4	-78.4	0.0
2025-01-25 11:25:45.144638	111.0	24.7	-77.5	0.0
2025-01-25 11:25:47.391448	110.6	25.0	-78.5	0.0
2025-01-25 11:25:49.634830	110.2	25.3	-77.6	0.0
2025-01-25 11:25:51.878620	109.7	25.6	-78.8	0.0
2025-01-25 11:25:54.125141	109.3	25.8	-78.1	0.0
2025-01-25 11:25:56.374180	108.9	26.1	-78.5	0.0
2025-01-25 11:25:58.617911	108.4	26.4	-78.8	0.0
2025-01-25 11:26:00.866296	107.9	26.7	-78.3	0.0
2025-01-25 11:26:03.109603	107.4	27.0	-78.4	0.0
2025-01-25 11:26:05.356040	107.0	27.3	-78.0	0.0
2025-01-25 11:26:07.600944	106.5	27.6	-79.1	0.0
2025-01-25 11:26:09.846717	106.0	27.9	-78.2	0.0
2025-01-25 11:26:12.094730	105.4	28.2	-78.7	0.0
2025-01-25 11:26:14.340005	104.9	28.4	-78.8	0.0
2025-01-25 11:26:16.584689	104.4	28.7	-79.0	0.0
2025-01-25 11:26:18.831292	103.8	29.0	-78.4	0.0
2025-01-25 11:26:21.074710	103.3	29.3	-78.8	0.0
2025-01-25 11:26:23.319790	102.7	29.6	-79.2	0.0
2025-01-25 11:26:25.563716	102.1	29.9	-78.6	0.0
2025-01-25 11:26:27.809765	101.6	30.2	-77.9	0.0
2025-01-25 11:26:30.054633	101.0	30.5	-78.9	0.0
2025-01-25 11:26:32.298260	100.4	30.8	-78.6	0.0
2025-01-25 11:26:34.544728	99.7	31.1	-78.5	0.0
2025-01-25 11:26:36.791350	99.1	31.4	-78.5	0.0
2025-01-25 11:26:39.037659	98.5	31.7	-78.7	0.0
2025-01-25 11:26:41.282906	97.8	32.0	-77.9	0.0
2025-01-25 11:26:43.529173	97.1	32.2	-78.7	0.0
2025-01-25 11:26:45.778326	96.5	32.5	-78.0	0.0
2025-01-25 11:26:48.022614	95.8	32.8	-78.1	0.0
2025-01-25 11:26:50.267327	95.1	33.1	-78.8	0.0
2025-01-25 11:26:52.509710	94.4	33.4	-78.6	0.0
2025-01-25 11:26:54.758080	93.6	33.6	-78.1	0.0
2025-01-25 11:26:57.004114	92.9	33.9	-78.4	0.0
2025-01-25 11:26:59.250168	92.1	34.2	-78.6	0.0
2025-01-25 11:27:01.497694	91.4	34.5	-78.5	0.0
2025-01-25 11:27:03.743716	90.6	34.7	-78.4	0.0
2025-01-25 11:27:05.993539	89.8	35.0	-78.2	0.0
2025-01-25 11:27:08.240235	89.0	35.2	-78.3	0.0
2025-01-25 11:27:10.485466	88.2	35.5	-77.3	0.0
2025-01-25 11:27:12.731791	87.4	35.7	-77.9	0.0
2025-01-25 11:27:14.977527	86.5	36.0	-78.3	0.0
2025-01-25 11:27:17.224416	85.7	36.2	-78.5	0.0
2025-01-25 11:27:19.469654	84.8	36.4	-78.6	0.0
2025-01-25 11:27:21.715566	83.9	36.7	-78.5	0.0
2025-01-25 11:27:23.960271	83.1	36.9	-78.8	0.0
2025-01-25 11:27:26.205616	82.2	37.1	-78.8	0.0
2025-01-25 11:27:28.449351	81.2	37.3	-78.4	0.0
2025-01-25 11:27:30.693448	80.3	37.5	-78.3	0.0
2025-01-25 11:27:32.942018	79.4	37.7	-78.4	0.0
2025-01-25 11:27:35.188215	78.4	37.9	-78.3	0.0
2025-01-25 11:27:37.431615	77.5	38.0	-78.6	0.0
2025-01-25 11:27:39.678061	76.5	38.2	-78.9	0.0
2025-01-25 11:27:41.921426	75.6	38.4	-78.7	0.0
2025-01-25 11:27:44.164978	74.6	38.5	-79.0	0.0
2025-01-25 11:27:46.410091	73.6	38.7	-78.1	0.0
2025-01-25 11:27:48.657768	72.6	38.8	-78.0	0.0
2025-01-25 11:27:50.903446	71.6	38.9	-78.8	0.0
2025-01-25 11:27:53.151063	70.6	39.0	-77.0	0.0
2025-01-25 11:27:55.397497	69.5	39.1	-78.0	0.0
2025-01-25 11:27:57.645148	68.5	39.2	-78.2	0.0
2025-01-25 11:27:59.891165	67.5	39.3	-77.9	0.0
2025-01-25 11:28:02.133589	66.4	39.4	-78.4	0.0
2025-01-25 11:28:04.380811	65.4	39.4	-78.2	0.0
2025-01-25 11:28:06.627678	64.3	39.5	-78.3	0.0
2025-01-25 11:28:08.875886	63.3	39.5	-78.0	0.0
2025-01-25 11:28:11.120893	62.2	39.5	-78.3	0.0
2025-01-25 11:28:13.369346	61.2	39.6	-77.6	0.0
2025-01-25 11:28:15.612653	60.1	39.6	-77.9	0.0
2025-01-25 11:28:17.855427	59.1	39.6	-78.5	0.0
2025-01-25 11:28:20.105230	58.0	39.5	-78.6	0.0
2025-01-25 11:28:22.353109	57.0	39.5	-78.5	0.0
2025-01-25 11:28:24.596184	55.9	39.5	-77.6	0.0
2025-01-25 11:28:26.840711	54.9	39.4	-78.4	0.0
2025-01-25 11:28:29.086010	53.8	39.4	-78.5	0.0
2025-01-25 11:28:31.335101	52.8	39.3	-78.5	0.0
2025-01-25 11:28:33.582782	51.8	39.2	-78.8	0.0
2025-01-25 11:28:35.829631	50.7	39.1	-77.1	0.0
2025-01-25 11:28:38.076537	49.7	39.0	-78.6	0.0
2025-01-25 11:28:40.320609	48.7	38.9	-79.1	0.0
2025-01-25 11:28:42.566591	47.7	38.8	-78.6	0.0
2025-01-25 11:28:44.810714	46.7	38.7	-78.9	0.0
2025-01-25 11:28:47.058503	45.7	38.5	-79.0	0.0
2025-01-25 11:28:49.303043	44.7	38.4	-78.9	0.0
2025-01-25 11:28:51.550883	43.8	38.2	-78.9	0.0
2025-01-25 11:28:53.797144	42.8	38.0	-78.0	0.0
2025-01-25 11:28:56.043465	41.8	37.9	-78.8	0.0
2025-01-25 11:28:58.288644	40.9	37.7	-79.1	0.0
2025-01-25 11:29:00.537300	40.0	37.5	-79.1	0.0
2025-01-25 11:29:02.782431	39.1	37.3	-78.8	0.0
2025-01-25 11:29:05.030528	38.1	37.1	-78.6	0.0
2025-01-25 11:29:07.277383	37.2	36.9	-78.7	0.0
2025-01-25 11:29:09.523613	36.4	36.7	-78.9	0.0
2025-01-25 11:29:11.771269	35.5	36.4	-79.4	0.0
2025-01-25 11:29:14.015128	34.6	36.2	-79.3	0.0
2025-01-25 11:29:16.259118	33.8	36.0	-79.5	0.0
2025-01-25 11:29:18.508754	32.9	35.7	-78.0	0.0
2025-01-25 11:29:20.753307	32.1	35.5	-78.8	0.0
2025-01-25 11:29:22.999735	31.3	35.2	-79.4	0.0
2025-01-25 11:29:25.246594	30.5	35.0	-78.9	0.0
2025-01-25 11:29:27.492609	29.7	34.7	-78.5	0.0
2025-01-25 11:29:29.739778	28.9	34.5	-78.6	0.0
2025-01-25 11:29:31.987959	28.2	34.2	-78.6	0.0
2025-01-25 11:29:34.232013	27.4	33.9	-78.7	0.0
2025-01-25 11:29:36.477667	26.7	33.7	-78.8	0.0
2025-01-25 11:29:38.726714	26.0	33.4	-78.5	0.0
2025-01-25 11:29:40.972158	25.3	33.1	-77.9	0.0
2025-01-25 11:29:43.217802	24.6	32.8	-78.3	0.0
2025-01-25 11:29:45.462882	23.9	32.5	-78.9	0.0
2025-01-25 11:29:47.707977	23.2	32.3	-78.8	0.0
2025-01-25 11:29:49.952957	22.5	32.0	-78.6	0.0
2025-01-25 11:29:52.196719	21.9	31.7	-78.6	0.0
2025-01-25 11:29:54.442643	21.3	31.4	-78.5	0.0
2025-01-25 11:29:56.687957	20.6	31.1	-78.4	0.0
2025-01-25 11:29:58.935069	20.0	30.8	-78.7	0.0
2025-01-25 11:30:01.182775	19.4	30.5	-76.8	0.0
2025-01-25 11:30:03.430823	18.8	30.2	-78.3	0.0
2025-01-25 11:30:05.677889	18.2	29.9	-78.4	0.0
2025-01-25 11:30:07.923850	17.7	29.7	-76.1	0.0
2025-01-25 11:30:10.171125	17.1	29.4	-77.3	0.0
2025-01-25 11:30:12.417319	16.5	29.1	-76.7	0.0
2025-01-25 11:30:14.664007	16.0	28.8	-76.9	0.0
2025-01-25 11:30:16.909617	15.5	28.5	-76.7	0.0
2025-01-25 11:30:19.153149	14.9	28.2	-75.1	0.0
2025-01-25 11:30:21.400246	14.4	27.9	-77.3	0.0
2025-01-25 11:30:23.644274	13.9	27.6	-74.3	0.0
2025-01-25 11:30:25.889531	13.4	27.3	-77.5	0.0
2025-01-25 11:30:28.136091	13.0	27.0	-76.3	0.0
2025-01-25 11:30:30.381834	12.5	26.7	-76.8	0.0
2025-01-25 11:30:32.628763	12.0	26.5	-77.4	0.0
2025-01-25 11:30:34.875149	11.5	26.2	-78.0	0.0
2025-01-25 11:30:37.120885	11.1	25.9	-77.9	0.0
2025-01-25 11:30:39.365496	10.7	25.6	-77.2	0.0
2025-01-25 11:30:41.612469	10.2	25.3	-78.9	0.0
2025-01-25 11:30:43.860242	9.8	25.0	-77.9	0.0
2025-01-25 11:30:46.107292	9.4	24.8	-79.2	0.0
2025-01-25 11:30:48.353670	9.0	24.5	-78.5	0.0
2025-01-25 11:30:50.599140	8.6	24.2	-76.8	0.0
2025-01-25 11:30:52.842795	8.2	23.9	-77.1	0.0
2025-01-25 11:30:55.089372	7.8	23.7	-77.1	0.0
2025-01-25 11:30:57.338404	7.4	23.4	-74.9	0.0
2025-01-25 11:30:59.585575	7.0	23.1	-77.1	0.0
2025-01-25 11:31:01.832225	6.6	22.8	-77.0	0.0
2025-01-25 11:31:04.079097	6.3	22.6	-73.9	0.0
2025-01-25 11:31:06.322574	5.9	22.3	-74.2	0.0
2025-01-25 11:31:08.567644	5.6	22.0	-74.6	0.0
2025-01-25 11:31:10.814616	5.2	21.8	-74.6	0.0
2025-01-25 11:31:13.060726	4.9	21.5	-74.0	0.0
2025-01-25 11:31:15.306079	4.6	21.3	-77.1	0.0
2025-01-25 11:31:17.550047	4.2	21.0	-76.2	0.0
2025-01-25 11:31:19.796915	3.9	20.7	-77.7	0.0
2025-01-25 11:31:22.041106	3.6	20.5	-77.8	0.0
2025-01-25 11:31:24.289603	3.3	20.2	-77.3	0.0
2025-01-25 11:31:26.532169	3.0	20.0	-76.2	0.0
2025-01-25 11:31:28.778028	2.7	19.7	-77.3	0.0
2025-01-25 11:31:31.024019	2.4	19.5	-72.4	0.0
2025-01-25 11:31:33.269315	2.1	19.2	-75.0	0.0
2025-01-25 11:31:35.515771	1.8	19.0	-76.3	0.0
2025-01-25 11:31:37.760444	1.5	18.7	-72.2	1.1
2025-01-25 11:31:40.005371	1.3	18.5	-73.2	0.0
2025-01-25 11:31:42.249245	1.0	18.3	-72.9	0.9
2025-01-25 11:31:44.496931	0.7	18.0	-75.6	0.0
2025-01-25 11:31:46.742952	0.5	17.8	-75.7	0.0
2025-01-25 11:31:48.990110	0.2	17.6	-74.6	0.0
2025-01-25 11:31:51.235014	359.9	17.3	-78.1	0.0
2025-01-25 11:31:53.480623	359.7	17.1	-75.5	0.0
2025-01-25 11:31:55.726132	359.4	16.9	-75.7	0.0
2025-01-25 11:31:57.973528	359.2	16.6	-76.8	0.0
2025-01-25 11:32:00.217648	359.0	16.4	-75.0	0.0
2025-01-25 11:32:02.462264	358.7	16.2	-74.0	0.0
2025-01-25 11:32:04.706048	358.5	16.0	-76.6	0.0
2025-01-25 11:32:06.950648	358.3	15.7	-75.3	0.0
2025-01-25 11:32:09.198953	358.0	15.5	-73.9	0.0
2025-01-25 11:32:11.444179	357.8	15.3	-73.5	0.0
2025-01-25 11:32:13.690464	357.6	15.1	-74.9	0.0
2025-01-25 11:32:15.940200	357.4	14.9	-76.6	0.0
2025-01-25 11:32:18.188137	357.2	14.6	-76.4	0.0
2025-01-25 11:32:20.437911	357.0	14.4	-75.0	0.0
2025-01-25 11:32:22.683179	356.8	14.2	-76.2	0.0
2025-01-25 11:32:24.928635	356.6	14.0	-75.9	0.0
2025-01-25 11:32:27.174541	356.4	13.8	-73.7	0.0
2025-01-25 11:32:29.419093	356.2	13.6	-74.9	0.0
2025-01-25 11:32:31.664114	356.0	13.4	-74.7	0.0
2025-01-25 11:32:33.908719	355.8	13.2	-77.6	0.0
2025-01-25 11:32:36.154022	355.6	13.0	-74.5	0.0
2025-01-25 11:32:38.398235	355.4	12.8	-75.8	0.0
2025-01-25 11:32:40.643494	355.2	12.6	-77.8	0.0
2025-01-25 11:32:42.889015	355.1	12.4	-78.2	0.0
2025-01-25 11:32:45.135356	354.9	12.2	-74.6	0.0
2025-01-25 11:32:47.382000	354.7	12.0	-76.7	0.0
2025-01-25 11:32:49.627226	354.5	11.8	-75.5	0.0
2025-01-25 11:32:51.872490	354.4	11.6	-76.4	0.0
2025-01-25 11:32:54.118264	354.2	11.4	-75.5	0.0
2025-01-25 11:32:56.361804	354.0	11.2	-74.6	0.0
2025-01-25 11:32:58.607623	353.9	11.0	-78.1	0.0
2025-01-25 11:33:00.853667	353.7	10.8	-75.6	0.0
2025-01-25 11:33:03.100015	353.5	10.7	-74.8	0.0
2025-01-25 11:33:05.344823	353.4	10.5	-75.5	0.0
2025-01-25 11:33:07.589569	353.2	10.3	-76.0	0.0
2025-01-25 11:33:09.833284	353.1	10.1	-77.0	0.0
#Closed at: 2025-01-25 11:23:16.499814