passes_logs/2025/01/25/planumMaritime01/planumMaritime01__20250125_065827_NOAA_19_rec.log

#Pass ID: 20250125_065827_NOAA 19
#Satellite: NOAA 19
#Configuration: NOAA 19
#Start time: 2025-01-25 06:58:32.160822

#LorettStation: 1.0.0 05.05.2024
#Station: planumMaritime01
#Location: 37.49445 lon 55.92918 lat
#TLE: 1 33591U 09005A   25024.77415192  .00000451  00000+0  26462-3 0  9996
#TLE: 2 33591  99.0180  88.6113 0014109  31.0080 329.1922 14.13268355822923

#Time	Az	El	Level	SNR
2025-01-25 06:58:34.326789	28.5	10.2	-77.1	0.0
2025-01-25 06:58:36.569590	28.7	10.3	-77.0	0.0
2025-01-25 06:58:38.814213	28.8	10.5	-76.5	0.0
2025-01-25 06:58:41.060004	29.0	10.7	-76.9	0.0
2025-01-25 06:58:43.307750	29.2	10.9	-77.2	0.0
2025-01-25 06:58:45.551728	29.4	11.1	-77.1	0.0
2025-01-25 06:58:47.799526	29.5	11.2	-77.0	0.0
2025-01-25 06:58:50.045958	29.7	11.4	-77.2	0.0
2025-01-25 06:58:52.291549	29.9	11.6	-77.2	0.0
2025-01-25 06:58:54.534883	30.1	11.8	-77.4	0.0
2025-01-25 06:58:56.788770	30.3	12.0	-76.9	0.0
2025-01-25 06:58:59.033025	30.5	12.2	-76.5	0.0
2025-01-25 06:59:01.277643	30.7	12.4	-77.6	0.0
2025-01-25 06:59:03.527865	30.9	12.5	-77.6	0.0
2025-01-25 06:59:05.773682	31.1	12.7	-77.3	0.0
2025-01-25 06:59:08.020404	31.3	12.9	-76.5	0.0
2025-01-25 06:59:10.265926	31.5	13.1	-76.7	0.0
2025-01-25 06:59:12.509004	31.7	13.3	-77.2	0.0
2025-01-25 06:59:14.754638	31.9	13.5	-76.9	0.0
2025-01-25 06:59:17.001270	32.1	13.7	-77.2	0.0
2025-01-25 06:59:19.250421	32.3	13.9	-77.0	0.0
2025-01-25 06:59:21.499664	32.5	14.1	-76.8	0.0
2025-01-25 06:59:23.747435	32.8	14.3	-77.2	0.0
2025-01-25 06:59:25.994068	33.0	14.5	-76.8	0.0
2025-01-25 06:59:28.238925	33.2	14.7	-77.1	0.0
2025-01-25 06:59:30.485816	33.4	14.9	-77.7	0.0
2025-01-25 06:59:32.733134	33.7	15.1	-77.1	0.0
2025-01-25 06:59:34.978922	33.9	15.3	-77.3	0.0
2025-01-25 06:59:37.225121	34.1	15.5	-76.6	0.0
2025-01-25 06:59:39.470556	34.4	15.7	-76.2	0.0
2025-01-25 06:59:41.717218	34.6	15.9	-76.9	0.0
2025-01-25 06:59:43.964540	34.9	16.2	-77.5	0.0
2025-01-25 06:59:46.212040	35.1	16.4	-77.3	0.0
2025-01-25 06:59:48.458901	35.4	16.6	-77.6	0.0
2025-01-25 06:59:50.704428	35.6	16.8	-77.9	0.0
2025-01-25 06:59:52.948935	35.9	17.0	-77.7	0.0
2025-01-25 06:59:55.197132	36.2	17.2	-77.7	0.0
2025-01-25 06:59:57.442048	36.4	17.5	-77.5	0.0
2025-01-25 06:59:59.690057	36.7	17.7	-77.6	0.0
2025-01-25 07:00:01.933650	37.0	17.9	-77.6	0.0
2025-01-25 07:00:04.179413	37.3	18.1	-77.2	0.0
2025-01-25 07:00:06.422189	37.5	18.4	-77.4	0.0
2025-01-25 07:00:08.668937	37.8	18.6	-77.5	0.0
2025-01-25 07:00:10.916813	38.1	18.8	-77.0	0.0
2025-01-25 07:00:13.162493	38.4	19.0	-77.4	0.0
2025-01-25 07:00:15.410166	38.7	19.3	-77.2	0.0
2025-01-25 07:00:17.653811	39.0	19.5	-77.6	0.0
2025-01-25 07:00:19.899958	39.3	19.7	-77.3	0.0
2025-01-25 07:00:22.148847	39.6	20.0	-76.9	0.0
2025-01-25 07:00:24.392826	40.0	20.2	-77.1	0.0
2025-01-25 07:00:26.640001	40.3	20.4	-77.3	0.0
2025-01-25 07:00:28.886431	40.6	20.7	-77.3	0.0
2025-01-25 07:00:31.132553	41.0	20.9	-77.5	0.0
2025-01-25 07:00:33.375845	41.3	21.2	-77.5	0.0
2025-01-25 07:00:35.622105	41.6	21.4	-77.3	0.0
2025-01-25 07:00:37.866587	42.0	21.7	-77.3	0.0
2025-01-25 07:00:40.111175	42.3	21.9	-77.4	0.0
2025-01-25 07:00:42.358178	42.7	22.1	-77.5	0.0
2025-01-25 07:00:44.605925	43.1	22.4	-77.5	0.0
2025-01-25 07:00:46.852873	43.4	22.6	-77.7	0.0
2025-01-25 07:00:49.101521	43.8	22.9	-77.8	0.0
2025-01-25 07:00:51.347589	44.2	23.2	-77.5	0.0
2025-01-25 07:00:53.596864	44.6	23.4	-77.1	0.0
2025-01-25 07:00:55.842990	45.0	23.7	-77.1	0.0
2025-01-25 07:00:58.089580	45.4	23.9	-77.4	0.0
2025-01-25 07:01:00.333270	45.8	24.2	-77.3	0.0
2025-01-25 07:01:02.579282	46.2	24.4	-77.5	0.0
2025-01-25 07:01:04.826747	46.6	24.7	-77.4	0.0
2025-01-25 07:01:07.073760	47.1	24.9	-77.2	0.0
2025-01-25 07:01:09.321573	47.5	25.2	-77.6	0.0
2025-01-25 07:01:11.566643	47.9	25.5	-77.7	0.0
2025-01-25 07:01:13.813024	48.4	25.7	-77.8	0.0
2025-01-25 07:01:16.060842	48.8	26.0	-77.7	0.0
2025-01-25 07:01:18.306690	49.3	26.3	-77.9	0.0
2025-01-25 07:01:20.549876	49.8	26.5	-77.8	0.0
2025-01-25 07:01:22.797737	50.2	26.8	-77.6	0.0
2025-01-25 07:01:25.041829	50.7	27.0	-77.9	0.0
2025-01-25 07:01:27.287760	51.2	27.3	-77.6	0.0
2025-01-25 07:01:29.536391	51.7	27.6	-78.2	0.0
2025-01-25 07:01:31.782682	52.2	27.8	-78.0	0.0
2025-01-25 07:01:34.031273	52.8	28.1	-78.0	0.0
2025-01-25 07:01:36.278534	53.3	28.4	-77.9	0.0
2025-01-25 07:01:38.523923	53.8	28.6	-77.5	0.0
2025-01-25 07:01:40.771554	54.4	28.9	-77.9	0.0
2025-01-25 07:01:43.019988	54.9	29.2	-77.8	0.0
2025-01-25 07:01:45.265136	55.5	29.4	-77.7	0.0
2025-01-25 07:01:47.511431	56.1	29.7	-77.0	0.0
2025-01-25 07:01:49.757162	56.6	30.0	-77.6	0.0
2025-01-25 07:01:52.000962	57.2	30.2	-77.4	0.0
2025-01-25 07:01:54.247248	57.8	30.5	-76.8	0.0
2025-01-25 07:01:56.493162	58.4	30.7	-77.0	0.0
2025-01-25 07:01:58.738532	59.1	31.0	-77.9	0.0
2025-01-25 07:02:00.986300	59.7	31.3	-77.7	0.0
2025-01-25 07:02:03.235313	60.3	31.5	-77.9	0.0
2025-01-25 07:02:05.483660	61.0	31.8	-77.8	0.0
2025-01-25 07:02:07.731299	61.6	32.0	-77.6	0.0
2025-01-25 07:02:09.977812	62.3	32.3	-77.5	0.0
2025-01-25 07:02:12.226093	63.0	32.5	-77.7	0.0
2025-01-25 07:02:14.468760	63.7	32.8	-77.5	0.0
2025-01-25 07:02:16.714993	64.4	33.0	-77.7	0.0
2025-01-25 07:02:18.958824	65.1	33.3	-77.8	0.0
2025-01-25 07:02:21.207310	65.8	33.5	-77.3	0.0
2025-01-25 07:02:23.452288	66.5	33.7	-77.3	0.0
2025-01-25 07:02:25.697296	67.3	34.0	-77.6	0.0
2025-01-25 07:02:27.943356	68.0	34.2	-76.7	0.0
2025-01-25 07:02:30.189185	68.8	34.4	-77.4	0.0
2025-01-25 07:02:32.433505	69.5	34.6	-76.8	0.0
2025-01-25 07:02:34.680014	70.3	34.8	-77.3	0.0
2025-01-25 07:02:36.928697	71.1	35.1	-77.1	0.0
2025-01-25 07:02:39.173119	71.9	35.3	-77.2	0.0
2025-01-25 07:02:41.418130	72.7	35.5	-76.9	0.0
2025-01-25 07:02:43.665380	73.5	35.7	-77.0	0.0
2025-01-25 07:02:45.911720	74.4	35.9	-76.6	0.0
2025-01-25 07:02:48.157134	75.2	36.0	-77.1	0.0
2025-01-25 07:02:50.401623	76.1	36.2	-77.2	0.0
2025-01-25 07:02:52.645400	76.9	36.4	-77.3	0.0
2025-01-25 07:02:54.891507	77.8	36.6	-77.5	0.0
2025-01-25 07:02:57.138601	78.7	36.7	-76.9	0.0
2025-01-25 07:02:59.384761	79.5	36.9	-76.7	0.0
2025-01-25 07:03:01.630982	80.4	37.0	-76.8	0.0
2025-01-25 07:03:03.876283	81.3	37.2	-76.9	0.0
2025-01-25 07:03:06.122949	82.2	37.3	-77.5	0.0
2025-01-25 07:03:08.369857	83.2	37.4	-77.7	0.0
2025-01-25 07:03:10.617549	84.1	37.5	-77.2	0.0
2025-01-25 07:03:12.864543	85.0	37.6	-76.8	0.0
2025-01-25 07:03:15.112578	85.9	37.7	-77.1	0.0
2025-01-25 07:03:17.358965	86.9	37.8	-77.2	0.0
2025-01-25 07:03:19.607615	87.8	37.9	-76.9	0.0
2025-01-25 07:03:21.857126	88.8	38.0	-77.4	0.0
2025-01-25 07:03:24.103276	89.7	38.1	-77.3	0.0
2025-01-25 07:03:26.350829	90.7	38.1	-77.6	0.0
2025-01-25 07:03:28.596170	91.7	38.2	-77.5	0.0
2025-01-25 07:03:30.843152	92.6	38.2	-77.8	0.0
2025-01-25 07:03:33.088405	93.6	38.3	-77.9	0.0
2025-01-25 07:03:35.333666	94.5	38.3	-78.1	0.0
2025-01-25 07:03:37.580944	95.5	38.3	-77.7	0.0
2025-01-25 07:03:39.831105	96.5	38.3	-77.2	0.0
2025-01-25 07:03:42.076667	97.5	38.3	-77.7	0.0
2025-01-25 07:03:44.323718	98.4	38.3	-78.0	0.0
2025-01-25 07:03:46.572623	99.4	38.3	-77.9	0.0
2025-01-25 07:03:48.819796	100.4	38.2	-77.7	0.0
2025-01-25 07:03:51.064594	101.3	38.2	-77.9	0.0
2025-01-25 07:03:53.312489	102.3	38.1	-77.8	0.0
2025-01-25 07:03:55.561712	103.2	38.1	-78.2	0.0
2025-01-25 07:03:57.807179	104.2	38.0	-78.3	0.0
2025-01-25 07:04:00.052713	105.1	37.9	-78.3	0.0
2025-01-25 07:04:02.300410	106.1	37.9	-78.0	0.0
2025-01-25 07:04:04.544714	107.0	37.8	-77.9	0.0
2025-01-25 07:04:06.791517	108.0	37.7	-78.4	0.0
2025-01-25 07:04:09.036192	108.9	37.6	-77.7	0.0
2025-01-25 07:04:11.279990	109.8	37.5	-77.8	0.0
2025-01-25 07:04:13.528202	110.7	37.3	-77.7	0.0
2025-01-25 07:04:15.771006	111.6	37.2	-77.7	0.0
2025-01-25 07:04:18.018100	112.5	37.1	-77.5	0.0
2025-01-25 07:04:20.263590	113.4	36.9	-77.7	0.0
2025-01-25 07:04:22.509523	114.3	36.8	-77.2	0.0
2025-01-25 07:04:24.754390	115.2	36.6	-77.6	0.0
2025-01-25 07:04:27.002606	116.1	36.4	-77.4	0.0
2025-01-25 07:04:29.248907	116.9	36.3	-77.3	0.0
2025-01-25 07:04:31.494155	117.8	36.1	-77.7	0.0
2025-01-25 07:04:33.740045	118.6	35.9	-77.9	0.0
2025-01-25 07:04:35.984048	119.5	35.7	-77.6	0.0
2025-01-25 07:04:38.225011	120.3	35.5	-77.4	0.0
2025-01-25 07:04:40.473147	121.1	35.3	-77.4	0.0
2025-01-25 07:04:42.720151	121.9	35.1	-77.3	0.0
2025-01-25 07:04:44.965430	122.7	34.9	-77.1	0.0
2025-01-25 07:04:47.212141	123.5	34.7	-77.5	0.0
2025-01-25 07:04:49.460297	124.3	34.5	-77.5	0.0
2025-01-25 07:04:51.708066	125.0	34.2	-76.9	0.6
2025-01-25 07:04:53.951821	125.8	34.0	-76.5	0.0
2025-01-25 07:04:56.194360	126.5	33.8	-77.1	0.0
2025-01-25 07:04:58.439651	127.3	33.6	-77.1	0.9
2025-01-25 07:05:00.687752	128.0	33.3	-77.2	0.0
2025-01-25 07:05:02.931886	128.7	33.1	-77.4	0.0
2025-01-25 07:05:05.178148	129.4	32.8	-77.3	0.0
2025-01-25 07:05:07.425698	130.1	32.6	-77.0	0.0
2025-01-25 07:05:09.671636	130.8	32.3	-77.4	0.0
2025-01-25 07:05:11.919791	131.4	32.1	-77.4	0.0
2025-01-25 07:05:14.169762	132.1	31.8	-77.3	0.0
2025-01-25 07:05:16.415039	132.8	31.6	-77.6	0.0
2025-01-25 07:05:18.660208	133.4	31.3	-77.6	0.0
2025-01-25 07:05:20.905199	134.0	31.1	-77.2	0.0
2025-01-25 07:05:23.151075	134.6	30.8	-77.5	0.0
2025-01-25 07:05:25.396297	135.3	30.5	-77.1	0.0
2025-01-25 07:05:27.640818	135.9	30.3	-77.4	0.0
2025-01-25 07:05:29.885407	136.5	30.0	-77.3	0.3
2025-01-25 07:05:32.131789	137.0	29.8	-77.5	0.0
2025-01-25 07:05:34.378110	137.6	29.5	-77.2	0.0
2025-01-25 07:05:36.624104	138.2	29.2	-77.5	0.0
2025-01-25 07:05:38.869204	138.7	29.0	-77.6	0.0
2025-01-25 07:05:41.115100	139.3	28.7	-78.1	0.0
2025-01-25 07:05:43.366426	139.8	28.4	-77.9	0.0
2025-01-25 07:05:45.614974	140.3	28.2	-77.5	0.0
2025-01-25 07:05:47.860985	140.9	27.9	-77.8	0.0
2025-01-25 07:05:50.107867	141.4	27.6	-77.9	0.0
2025-01-25 07:05:52.353845	141.9	27.4	-77.9	0.0
2025-01-25 07:05:54.598907	142.4	27.1	-77.6	0.0
2025-01-25 07:05:56.844375	142.9	26.8	-77.6	0.0
2025-01-25 07:05:59.089961	143.4	26.6	-77.6	0.0
2025-01-25 07:06:01.337408	143.8	26.3	-77.8	0.0
2025-01-25 07:06:03.580266	144.3	26.0	-77.5	0.0
2025-01-25 07:06:05.825390	144.7	25.8	-77.3	0.0
2025-01-25 07:06:08.073090	145.2	25.5	-77.4	0.0
2025-01-25 07:06:10.318100	145.6	25.3	-77.3	0.0
2025-01-25 07:06:12.562501	146.1	25.0	-77.4	0.0
2025-01-25 07:06:14.809158	146.5	24.7	-77.4	0.0
2025-01-25 07:06:17.057966	146.9	24.5	-76.9	1.3
2025-01-25 07:06:19.307614	147.3	24.2	-77.0	3.8
2025-01-25 07:06:21.551637	147.8	24.0	-77.1	4.6
2025-01-25 07:06:23.797643	148.2	23.7	-76.6	5.3
2025-01-25 07:06:26.039528	148.6	23.5	-76.4	6.0
2025-01-25 07:06:28.284852	148.9	23.2	-76.2	6.6
2025-01-25 07:06:30.532360	149.3	22.9	-74.7	0.0
2025-01-25 07:06:32.778277	149.7	22.7	-75.8	6.6
2025-01-25 07:06:35.023549	150.1	22.4	-76.1	6.7
2025-01-25 07:06:37.271037	150.4	22.2	-75.9	6.9
2025-01-25 07:06:39.517095	150.8	21.9	-75.5	7.8
2025-01-25 07:06:41.761229	151.2	21.7	-75.7	8.9
2025-01-25 07:06:44.006243	151.5	21.5	-75.6	8.8
2025-01-25 07:06:46.254461	151.9	21.2	-75.5	8.7
2025-01-25 07:06:48.502010	152.2	21.0	-75.9	8.8
2025-01-25 07:06:50.747936	152.5	20.7	-75.3	8.6
2025-01-25 07:06:52.993634	152.9	20.5	-75.6	8.6
2025-01-25 07:06:55.238887	153.2	20.2	-75.3	9.3
2025-01-25 07:06:57.481819	153.5	20.0	-75.2	9.8
2025-01-25 07:06:59.728855	153.8	19.8	-75.3	8.9
2025-01-25 07:07:01.975633	154.1	19.5	-75.3	8.4
2025-01-25 07:07:04.222381	154.4	19.3	-75.5	10.0
2025-01-25 07:07:06.468636	154.7	19.1	-75.8	9.6
2025-01-25 07:07:08.714692	155.0	18.8	-75.6	9.4
2025-01-25 07:07:10.962519	155.3	18.6	-75.3	7.9
2025-01-25 07:07:13.211227	155.6	18.4	-75.6	9.5
2025-01-25 07:07:15.455566	155.9	18.2	-75.5	8.6
2025-01-25 07:07:17.701430	156.2	17.9	-75.6	8.5
2025-01-25 07:07:19.945426	156.4	17.7	-75.9	9.2
2025-01-25 07:07:22.194217	156.7	17.5	-75.7	8.3
2025-01-25 07:07:24.441656	157.0	17.3	-75.1	7.7
2025-01-25 07:07:26.690569	157.3	17.0	-75.9	8.5
2025-01-25 07:07:28.936264	157.5	16.8	-75.7	9.1
2025-01-25 07:07:31.184593	157.8	16.6	-76.0	7.8
2025-01-25 07:07:33.432535	158.0	16.4	-76.1	8.1
2025-01-25 07:07:35.680826	158.3	16.2	-75.9	7.9
2025-01-25 07:07:37.925998	158.5	16.0	-75.8	8.3
2025-01-25 07:07:40.170830	158.8	15.8	-76.3	8.0
2025-01-25 07:07:42.415120	159.0	15.5	-76.2	7.3
2025-01-25 07:07:44.660075	159.2	15.3	-76.1	7.2
2025-01-25 07:07:46.905753	159.5	15.1	-75.6	6.7
2025-01-25 07:07:49.152019	159.7	14.9	-75.9	7.4
2025-01-25 07:07:51.400845	159.9	14.7	-76.3	7.0
2025-01-25 07:07:53.646312	160.2	14.5	-76.2	7.4
2025-01-25 07:07:55.893748	160.4	14.3	-76.3	7.7
2025-01-25 07:07:58.139813	160.6	14.1	-76.3	8.7
2025-01-25 07:08:00.385878	160.8	13.9	-76.1	7.2
2025-01-25 07:08:02.629827	161.0	13.7	-76.4	6.7
2025-01-25 07:08:04.877666	161.2	13.5	-76.0	7.6
2025-01-25 07:08:07.126479	161.5	13.3	-76.0	7.3
2025-01-25 07:08:09.372501	161.7	13.1	-76.2	6.7
2025-01-25 07:08:11.614357	161.9	12.9	-75.9	7.0
2025-01-25 07:08:13.861392	162.1	12.7	-76.3	6.4
2025-01-25 07:08:16.106169	162.3	12.5	-76.2	6.7
2025-01-25 07:08:18.351545	162.5	12.4	-76.5	6.3
2025-01-25 07:08:20.599043	162.7	12.2	-76.2	7.9
2025-01-25 07:08:22.845390	162.8	12.0	-76.4	6.8
2025-01-25 07:08:25.093400	163.0	11.8	-76.4	5.9
2025-01-25 07:08:27.340578	163.2	11.6	-76.4	4.5
2025-01-25 07:08:29.590172	163.4	11.4	-76.6	6.5
2025-01-25 07:08:31.836517	163.6	11.2	-76.4	5.3
2025-01-25 07:08:34.082517	163.8	11.1	-76.1	4.8
2025-01-25 07:08:36.331373	163.9	10.9	-75.7	4.1
2025-01-25 07:08:38.578043	164.1	10.7	-76.0	2.5
2025-01-25 07:08:40.825935	164.3	10.5	-75.8	4.0
2025-01-25 07:08:43.071143	164.5	10.3	-75.8	3.1
2025-01-25 07:08:45.315641	164.6	10.2	-75.7	4.9
2025-01-25 07:08:47.562940	164.8	10.0	-76.0	2.1
#Closed at: 2025-01-25 06:58:27.164153