passes_logs/2025/01/25/planumMaritime01/planumMaritime01__20250125_161930_METOP-B_rec.log

#Pass ID: 20250125_161930_METOP-B
#Satellite: METOP-B
#Configuration: METOP-B
#Start time: 2025-01-25 16:19:35.689224

#LorettStation: 1.0.0 05.05.2024
#Station: planumMaritime01
#Location: 37.49445 lon 55.92918 lat
#TLE: 1 38771U 12049A   25024.75604810  .00000390  00000+0  19820-3 0  9990
#TLE: 2 38771  98.5996  82.6623 0001581  70.5177 289.6171 14.21417781641026

#Time	Az	El	Level	SNR
2025-01-25 16:19:37.841124	108.5	10.2	-77.4	0.0
2025-01-25 16:19:40.091020	108.3	10.3	-77.4	0.0
2025-01-25 16:19:42.337836	108.0	10.5	-77.7	0.0
2025-01-25 16:19:44.583140	107.8	10.6	-78.3	0.0
2025-01-25 16:19:46.827931	107.5	10.8	-78.1	0.0
2025-01-25 16:19:49.074525	107.3	11.0	-78.0	0.0
2025-01-25 16:19:51.318495	107.0	11.1	-77.9	0.0
2025-01-25 16:19:53.565702	106.8	11.3	-77.3	0.0
2025-01-25 16:19:55.813648	106.5	11.5	-77.3	0.0
2025-01-25 16:19:58.058569	106.3	11.6	-77.5	0.0
2025-01-25 16:20:00.302292	106.0	11.8	-77.4	0.0
2025-01-25 16:20:02.548098	105.7	12.0	-78.0	0.0
2025-01-25 16:20:04.794205	105.5	12.1	-78.0	0.0
2025-01-25 16:20:07.040054	105.2	12.3	-78.1	0.0
2025-01-25 16:20:09.287438	104.9	12.5	-77.7	0.0
2025-01-25 16:20:11.534052	104.6	12.6	-77.8	0.0
2025-01-25 16:20:13.781430	104.4	12.8	-78.0	0.0
2025-01-25 16:20:16.026866	104.1	13.0	-77.8	0.0
2025-01-25 16:20:18.273612	103.8	13.2	-78.1	0.0
2025-01-25 16:20:20.521121	103.5	13.3	-77.4	0.0
2025-01-25 16:20:22.766318	103.2	13.5	-77.5	0.0
2025-01-25 16:20:25.014447	102.9	13.7	-77.1	0.0
2025-01-25 16:20:27.260713	102.6	13.9	-77.8	0.0
2025-01-25 16:20:29.507477	102.3	14.0	-77.9	0.0
2025-01-25 16:20:31.749324	102.0	14.2	-77.6	0.0
2025-01-25 16:20:33.993818	101.7	14.4	-77.4	0.0
2025-01-25 16:20:36.240073	101.4	14.5	-77.6	0.0
2025-01-25 16:20:38.485675	101.0	14.7	-77.5	0.0
2025-01-25 16:20:40.732342	100.7	14.9	-77.8	0.0
2025-01-25 16:20:42.976655	100.4	15.1	-77.8	0.0
2025-01-25 16:20:45.221204	100.0	15.3	-78.1	0.0
2025-01-25 16:20:47.469849	99.7	15.4	-78.1	0.0
2025-01-25 16:20:49.714158	99.4	15.6	-77.8	0.0
2025-01-25 16:20:51.958614	99.0	15.8	-77.8	0.0
2025-01-25 16:20:54.205736	98.7	16.0	-77.3	0.0
2025-01-25 16:20:56.451846	98.3	16.1	-77.8	0.0
2025-01-25 16:20:58.700240	98.0	16.3	-77.8	0.0
2025-01-25 16:21:00.948435	97.6	16.5	-77.8	0.0
2025-01-25 16:21:03.191647	97.2	16.7	-78.0	0.0
2025-01-25 16:21:05.436039	96.9	16.9	-77.9	0.0
2025-01-25 16:21:07.679371	96.5	17.0	-77.7	0.0
2025-01-25 16:21:09.925446	96.1	17.2	-77.5	0.0
2025-01-25 16:21:12.171863	95.7	17.4	-77.9	0.0
2025-01-25 16:21:14.418698	95.3	17.6	-78.3	0.0
2025-01-25 16:21:16.668053	94.9	17.7	-78.3	0.0
2025-01-25 16:21:18.916864	94.5	17.9	-77.7	0.0
2025-01-25 16:21:21.160629	94.1	18.1	-77.9	0.0
2025-01-25 16:21:23.407155	93.7	18.3	-78.2	0.0
2025-01-25 16:21:25.650700	93.3	18.5	-77.9	0.0
2025-01-25 16:21:27.894198	92.9	18.6	-77.8	0.0
2025-01-25 16:21:30.139487	92.5	18.8	-78.0	0.0
2025-01-25 16:21:32.384003	92.1	19.0	-77.3	0.0
2025-01-25 16:21:34.631142	91.6	19.2	-77.4	0.0
2025-01-25 16:21:36.879380	91.2	19.3	-76.8	0.0
2025-01-25 16:21:39.125961	90.7	19.5	-77.9	0.0
2025-01-25 16:21:41.373100	90.3	19.7	-77.8	0.0
2025-01-25 16:21:43.617286	89.8	19.9	-77.8	0.0
2025-01-25 16:21:45.863332	89.4	20.0	-77.5	0.0
2025-01-25 16:21:48.110024	88.9	20.2	-76.5	0.0
2025-01-25 16:21:50.358158	88.4	20.4	-77.0	0.0
2025-01-25 16:21:52.605929	88.0	20.6	-77.4	0.0
2025-01-25 16:21:54.851201	87.5	20.7	-77.8	0.0
2025-01-25 16:21:57.097319	87.0	20.9	-77.7	0.0
2025-01-25 16:21:59.342370	86.5	21.1	-77.8	0.0
2025-01-25 16:22:01.585763	86.0	21.2	-77.9	0.0
2025-01-25 16:22:03.831323	85.5	21.4	-77.8	0.0
2025-01-25 16:22:06.076124	85.0	21.6	-77.4	0.0
2025-01-25 16:22:08.322791	84.5	21.7	-77.4	0.0
2025-01-25 16:22:10.569215	84.0	21.9	-77.6	0.0
2025-01-25 16:22:12.813816	83.5	22.0	-77.7	0.0
2025-01-25 16:22:15.058828	82.9	22.2	-77.8	0.0
2025-01-25 16:22:17.305771	82.4	22.4	-77.9	0.0
2025-01-25 16:22:19.548574	81.9	22.5	-78.0	0.0
2025-01-25 16:22:21.792183	81.3	22.7	-77.8	0.0
2025-01-25 16:22:24.036315	80.8	22.8	-78.2	0.0
2025-01-25 16:22:26.282621	80.2	23.0	-78.0	0.0
2025-01-25 16:22:28.527033	79.7	23.1	-77.7	0.0
2025-01-25 16:22:30.774504	79.1	23.3	-78.3	0.0
2025-01-25 16:22:33.019900	78.5	23.4	-77.9	0.0
2025-01-25 16:22:35.267975	77.9	23.5	-78.6	0.0
2025-01-25 16:22:37.514502	77.4	23.7	-78.3	0.0
2025-01-25 16:22:39.757914	76.8	23.8	-77.9	0.0
2025-01-25 16:22:42.005366	76.2	24.0	-78.4	0.0
2025-01-25 16:22:44.251664	75.6	24.1	-78.1	0.0
2025-01-25 16:22:46.499056	75.0	24.2	-78.3	0.0
2025-01-25 16:22:48.742108	74.4	24.3	-78.0	0.0
2025-01-25 16:22:50.989970	73.8	24.5	-78.6	0.0
2025-01-25 16:22:53.238372	73.1	24.6	-78.2	0.0
2025-01-25 16:22:55.485409	72.5	24.7	-78.3	0.0
2025-01-25 16:22:57.729708	71.9	24.8	-78.6	0.0
2025-01-25 16:22:59.978582	71.3	24.9	-78.2	0.0
2025-01-25 16:23:02.220249	70.6	25.0	-78.4	0.0
2025-01-25 16:23:04.465044	70.0	25.1	-78.7	0.0
2025-01-25 16:23:06.712653	69.4	25.2	-78.0	0.0
2025-01-25 16:23:08.959213	68.7	25.3	-78.3	0.0
2025-01-25 16:23:11.204665	68.1	25.4	-78.5	0.0
2025-01-25 16:23:13.449404	67.4	25.5	-78.3	0.0
2025-01-25 16:23:15.695113	66.7	25.6	-78.4	0.0
2025-01-25 16:23:17.938731	66.1	25.7	-77.9	0.0
2025-01-25 16:23:20.185583	65.4	25.7	-78.2	0.0
2025-01-25 16:23:22.431763	64.8	25.8	-78.6	0.0
2025-01-25 16:23:24.679532	64.1	25.9	-78.3	0.0
2025-01-25 16:23:26.926596	63.4	26.0	-77.9	0.0
2025-01-25 16:23:29.175634	62.7	26.0	-78.3	0.0
2025-01-25 16:23:31.421631	62.1	26.1	-78.3	0.0
2025-01-25 16:23:33.662515	61.4	26.1	-78.3	0.0
2025-01-25 16:23:35.906926	60.7	26.2	-78.6	0.0
2025-01-25 16:23:38.155275	60.0	26.2	-78.4	0.0
2025-01-25 16:23:40.402127	59.3	26.2	-78.0	0.0
2025-01-25 16:23:42.648664	58.6	26.3	-78.5	0.0
2025-01-25 16:23:44.893434	57.9	26.3	-78.1	0.0
2025-01-25 16:23:47.141169	57.3	26.3	-78.4	0.0
2025-01-25 16:23:49.386885	56.6	26.4	-78.1	0.0
2025-01-25 16:23:51.636454	55.9	26.4	-78.2	0.0
2025-01-25 16:23:53.878312	55.2	26.4	-77.9	0.0
2025-01-25 16:23:56.124653	54.5	26.4	-77.7	0.0
2025-01-25 16:23:58.370106	53.8	26.4	-78.2	0.0
2025-01-25 16:24:00.617452	53.1	26.4	-78.3	0.0
2025-01-25 16:24:02.858575	52.4	26.4	-78.2	0.0
2025-01-25 16:24:05.104293	51.7	26.4	-78.8	0.0
2025-01-25 16:24:07.351888	51.0	26.4	-78.9	0.0
2025-01-25 16:24:09.596313	50.3	26.3	-78.7	0.0
2025-01-25 16:24:11.842064	49.6	26.3	-78.8	0.0
2025-01-25 16:24:14.086568	49.0	26.3	-78.2	0.0
2025-01-25 16:24:16.332880	48.3	26.2	-78.0	0.0
2025-01-25 16:24:18.578883	47.6	26.2	-78.3	0.0
2025-01-25 16:24:20.826893	46.9	26.2	-78.2	0.0
2025-01-25 16:24:23.071992	46.2	26.1	-78.3	0.0
2025-01-25 16:24:25.318971	45.5	26.1	-78.2	0.0
2025-01-25 16:24:27.562629	44.9	26.0	-78.1	0.0
2025-01-25 16:24:29.809423	44.2	25.9	-78.4	0.0
2025-01-25 16:24:32.051774	43.5	25.9	-78.2	0.0
2025-01-25 16:24:34.297892	42.8	25.8	-78.3	0.0
2025-01-25 16:24:36.540858	42.2	25.7	-78.4	0.0
2025-01-25 16:24:38.786933	41.5	25.7	-78.1	0.0
2025-01-25 16:24:41.035149	40.9	25.6	-78.2	0.0
2025-01-25 16:24:43.280411	40.2	25.5	-78.5	0.0
2025-01-25 16:24:45.529388	39.5	25.4	-78.8	0.0
2025-01-25 16:24:47.776180	38.9	25.3	-78.2	0.0
2025-01-25 16:24:50.020215	38.3	25.2	-78.5	0.0
2025-01-25 16:24:52.265901	37.6	25.1	-78.6	0.0
2025-01-25 16:24:54.509815	37.0	25.0	-78.7	0.0
2025-01-25 16:24:56.757167	36.3	24.9	-78.6	0.0
2025-01-25 16:24:59.001894	35.7	24.8	-78.0	0.0
2025-01-25 16:25:01.250580	35.1	24.7	-79.1	0.0
2025-01-25 16:25:03.496413	34.5	24.6	-79.1	0.0
2025-01-25 16:25:05.744515	33.9	24.5	-78.2	0.0
2025-01-25 16:25:07.992134	33.2	24.3	-78.2	0.0
2025-01-25 16:25:10.240674	32.6	24.2	-78.5	0.0
2025-01-25 16:25:12.486750	32.0	24.1	-79.0	0.0
2025-01-25 16:25:14.730117	31.4	24.0	-78.3	0.0
2025-01-25 16:25:16.978708	30.9	23.8	-78.4	0.0
2025-01-25 16:25:19.223372	30.3	23.7	-79.0	0.0
2025-01-25 16:25:21.469022	29.7	23.5	-78.7	0.0
2025-01-25 16:25:23.712927	29.1	23.4	-78.8	0.0
2025-01-25 16:25:25.959109	28.6	23.3	-78.4	0.0
2025-01-25 16:25:28.205490	28.0	23.1	-79.3	0.0
2025-01-25 16:25:30.450540	27.4	23.0	-79.1	0.0
2025-01-25 16:25:32.692980	26.9	22.8	-79.2	0.0
2025-01-25 16:25:34.941085	26.3	22.7	-78.9	0.0
2025-01-25 16:25:37.188244	25.8	22.5	-78.9	0.0
2025-01-25 16:25:39.434993	25.3	22.4	-79.0	0.0
2025-01-25 16:25:41.679637	24.7	22.2	-78.9	0.0
2025-01-25 16:25:43.921922	24.2	22.0	-79.3	0.0
2025-01-25 16:25:46.165807	23.7	21.9	-78.6	0.0
2025-01-25 16:25:48.412020	23.2	21.7	-78.7	0.0
2025-01-25 16:25:50.659286	22.7	21.6	-78.4	0.0
2025-01-25 16:25:52.904870	22.1	21.4	-78.3	0.0
2025-01-25 16:25:55.151400	21.6	21.2	-78.5	0.0
2025-01-25 16:25:57.396722	21.2	21.1	-78.3	0.0
2025-01-25 16:25:59.644946	20.7	20.9	-78.5	0.0
2025-01-25 16:26:01.891254	20.2	20.7	-78.4	0.0
2025-01-25 16:26:04.137218	19.7	20.6	-79.1	0.0
2025-01-25 16:26:06.381129	19.2	20.4	-79.1	0.0
2025-01-25 16:26:08.628770	18.8	20.2	-79.1	0.0
2025-01-25 16:26:10.874105	18.3	20.0	-79.2	0.0
2025-01-25 16:26:13.118170	17.9	19.9	-78.4	0.0
2025-01-25 16:26:15.363864	17.4	19.7	-78.9	0.0
2025-01-25 16:26:17.611123	17.0	19.5	-78.5	0.0
2025-01-25 16:26:19.856299	16.5	19.4	-78.5	0.0
2025-01-25 16:26:22.099961	16.1	19.2	-78.1	0.0
2025-01-25 16:26:24.347966	15.7	19.0	-78.6	0.0
2025-01-25 16:26:26.594059	15.2	18.8	-78.5	0.0
2025-01-25 16:26:28.840171	14.8	18.7	-78.2	0.0
2025-01-25 16:26:31.087715	14.4	18.5	-79.3	0.0
2025-01-25 16:26:33.332868	14.0	18.3	-78.4	0.0
2025-01-25 16:26:35.581185	13.6	18.1	-79.0	0.0
2025-01-25 16:26:37.827890	13.2	17.9	-79.2	0.0
2025-01-25 16:26:40.072557	12.8	17.8	-79.1	0.0
2025-01-25 16:26:42.319821	12.4	17.6	-79.3	0.0
2025-01-25 16:26:44.567354	12.0	17.4	-79.3	0.0
2025-01-25 16:26:46.813418	11.6	17.2	-79.2	0.0
2025-01-25 16:26:49.061516	11.2	17.1	-78.9	0.0
2025-01-25 16:26:51.308946	10.9	16.9	-78.8	0.0
2025-01-25 16:26:53.556489	10.5	16.7	-79.2	0.0
2025-01-25 16:26:55.803688	10.1	16.5	-78.7	0.0
2025-01-25 16:26:58.048033	9.8	16.3	-78.6	0.0
2025-01-25 16:27:00.292960	9.4	16.2	-78.6	0.0
2025-01-25 16:27:02.539258	9.1	16.0	-78.4	0.0
2025-01-25 16:27:04.783806	8.7	15.8	-78.4	0.0
2025-01-25 16:27:07.026894	8.4	15.6	-78.5	0.0
2025-01-25 16:27:09.272637	8.0	15.5	-78.9	0.0
2025-01-25 16:27:11.518090	7.7	15.3	-79.1	0.0
2025-01-25 16:27:13.765095	7.4	15.1	-79.1	0.0
2025-01-25 16:27:16.013279	7.1	14.9	-78.3	0.0
2025-01-25 16:27:18.259530	6.7	14.8	-78.4	0.0
2025-01-25 16:27:20.504946	6.4	14.6	-78.5	0.0
2025-01-25 16:27:22.751149	6.1	14.4	-78.7	0.0
2025-01-25 16:27:24.997386	5.8	14.2	-78.7	0.0
2025-01-25 16:27:27.243621	5.5	14.1	-78.6	0.0
2025-01-25 16:27:29.487686	5.2	13.9	-78.4	0.0
2025-01-25 16:27:31.732869	4.9	13.7	-78.5	0.0
2025-01-25 16:27:33.977780	4.6	13.5	-78.6	0.0
2025-01-25 16:27:36.226631	4.3	13.4	-78.7	0.0
2025-01-25 16:27:38.470906	4.0	13.2	-78.9	0.0
2025-01-25 16:27:40.716404	3.7	13.0	-78.4	0.0
2025-01-25 16:27:42.960171	3.4	12.9	-78.9	0.0
2025-01-25 16:27:45.207359	3.2	12.7	-78.8	0.0
2025-01-25 16:27:47.453259	2.9	12.5	-79.0	0.0
2025-01-25 16:27:49.697920	2.6	12.4	-78.4	0.0
2025-01-25 16:27:51.944307	2.3	12.2	-78.2	0.0
2025-01-25 16:27:54.191594	2.1	12.0	-79.2	0.0
2025-01-25 16:27:56.438168	1.8	11.8	-79.1	0.0
2025-01-25 16:27:58.685500	1.5	11.7	-79.3	0.0
2025-01-25 16:28:00.931567	1.3	11.5	-78.8	0.0
2025-01-25 16:28:03.178097	1.0	11.4	-78.6	0.0
2025-01-25 16:28:05.424010	0.8	11.2	-79.0	0.0
2025-01-25 16:28:07.667749	0.5	11.0	-79.3	0.0
2025-01-25 16:28:09.913791	0.3	10.9	-79.0	0.0
2025-01-25 16:28:12.160642	0.0	10.7	-78.4	0.0
2025-01-25 16:28:14.405393	359.8	10.5	-78.7	0.0
2025-01-25 16:28:16.652451	359.6	10.4	-78.7	0.0
2025-01-25 16:28:18.900774	359.3	10.2	-78.7	0.0
2025-01-25 16:28:21.145715	359.1	10.0	-78.5	0.0
#Closed at: 2025-01-25 16:19:30.691400