passes_logs/2025/01/25/planumMaritime01/planumMaritime01__20250125_122424_METEOR-M2_4_rec.log

#Pass ID: 20250125_122424_METEOR-M2 4
#Satellite: METEOR-M2 4
#Configuration: METEOR-M2 4
#Start time: 2025-01-25 12:24:29.155980

#LorettStation: 1.0.0 05.05.2024
#Station: planumMaritime01
#Location: 37.49445 lon 55.92918 lat
#TLE: 1 59051U 24039A   25024.80620376  .00000158  00000+0  90320-4 0  9994
#TLE: 2 59051  98.6306 347.6099 0006657 193.6447 166.4552 14.22328660 46991

#Time	Az	El	Level	SNR
2025-01-25 12:24:31.306811	197.1	10.2	-77.7	0.0
2025-01-25 12:24:33.552573	197.3	10.3	-77.2	0.0
2025-01-25 12:24:35.800995	197.5	10.5	-77.6	0.0
2025-01-25 12:24:38.046547	197.7	10.7	-77.4	0.0
2025-01-25 12:24:40.293392	197.9	10.9	-77.6	0.0
2025-01-25 12:24:42.537756	198.0	11.1	-77.7	0.0
2025-01-25 12:24:44.781311	198.2	11.3	-78.4	0.0
2025-01-25 12:24:47.029827	198.4	11.4	-76.9	0.0
2025-01-25 12:24:49.272521	198.6	11.6	-78.2	0.0
2025-01-25 12:24:51.519614	198.8	11.8	-77.4	0.0
2025-01-25 12:24:53.763882	199.0	12.0	-78.3	0.0
2025-01-25 12:24:56.012534	199.2	12.2	-78.0	0.0
2025-01-25 12:24:58.256454	199.4	12.4	-77.6	0.0
2025-01-25 12:25:00.500060	199.6	12.6	-78.4	0.0
2025-01-25 12:25:02.746011	199.8	12.8	-77.2	0.0
2025-01-25 12:25:04.990138	200.1	13.0	-78.6	0.0
2025-01-25 12:25:07.233076	200.3	13.2	-78.4	0.0
2025-01-25 12:25:09.482006	200.5	13.4	-78.5	0.0
2025-01-25 12:25:11.727220	200.7	13.6	-78.3	0.0
2025-01-25 12:25:13.974134	200.9	13.8	-78.8	0.0
2025-01-25 12:25:16.219933	201.2	14.0	-78.0	0.0
2025-01-25 12:25:18.465178	201.4	14.2	-78.7	0.0
2025-01-25 12:25:20.709152	201.6	14.4	-78.0	0.0
2025-01-25 12:25:22.950565	201.9	14.6	-78.5	0.0
2025-01-25 12:25:25.197117	202.1	14.8	-78.4	0.0
2025-01-25 12:25:27.445073	202.4	15.0	-78.0	0.0
2025-01-25 12:25:29.692730	202.6	15.2	-78.5	0.0
2025-01-25 12:25:31.938119	202.8	15.4	-78.1	0.0
2025-01-25 12:25:34.186801	203.1	15.6	-78.9	0.0
2025-01-25 12:25:36.431598	203.4	15.8	-77.8	0.0
2025-01-25 12:25:38.679561	203.6	16.0	-77.6	0.0
2025-01-25 12:25:40.922942	203.9	16.2	-77.3	0.0
2025-01-25 12:25:43.168623	204.2	16.5	-78.2	0.0
2025-01-25 12:25:45.416155	204.4	16.7	-78.4	0.0
2025-01-25 12:25:47.666333	204.7	16.9	-77.3	0.0
2025-01-25 12:25:49.912168	205.0	17.1	-77.5	0.0
2025-01-25 12:25:52.156822	205.3	17.3	-77.5	0.0
2025-01-25 12:25:54.401836	205.6	17.6	-77.5	0.0
2025-01-25 12:25:56.645443	205.8	17.8	-77.6	0.0
2025-01-25 12:25:58.892610	206.1	18.0	-77.5	0.0
2025-01-25 12:26:01.135285	206.4	18.2	-77.2	0.0
2025-01-25 12:26:03.381519	206.7	18.5	-77.3	0.0
2025-01-25 12:26:05.628291	207.1	18.7	-77.7	0.0
2025-01-25 12:26:07.876605	207.4	18.9	-78.2	0.0
2025-01-25 12:26:10.123819	207.7	19.2	-78.3	0.0
2025-01-25 12:26:12.370408	208.0	19.4	-77.9	0.0
2025-01-25 12:26:14.615085	208.3	19.6	-78.0	0.0
2025-01-25 12:26:16.859355	208.7	19.9	-78.2	0.0
2025-01-25 12:26:19.108454	209.0	20.1	-78.0	0.0
2025-01-25 12:26:21.355272	209.3	20.4	-78.2	0.0
2025-01-25 12:26:23.601297	209.7	20.6	-77.5	0.0
2025-01-25 12:26:25.845718	210.1	20.8	-78.3	0.0
2025-01-25 12:26:28.089312	210.4	21.1	-78.7	0.0
2025-01-25 12:26:30.336056	210.8	21.3	-78.5	0.0
2025-01-25 12:26:32.583456	211.1	21.6	-78.6	0.0
2025-01-25 12:26:34.829414	211.5	21.8	-78.4	0.0
2025-01-25 12:26:37.074708	211.9	22.1	-78.1	0.0
2025-01-25 12:26:39.318808	212.3	22.3	-77.9	0.0
2025-01-25 12:26:41.566193	212.7	22.6	-78.5	0.0
2025-01-25 12:26:43.812088	213.1	22.8	-77.5	0.0
2025-01-25 12:26:46.055996	213.5	23.1	-78.7	0.0
2025-01-25 12:26:48.303638	213.9	23.3	-77.4	0.0
2025-01-25 12:26:50.549601	214.3	23.6	-79.1	0.0
2025-01-25 12:26:52.793250	214.8	23.8	-78.8	0.0
2025-01-25 12:26:55.037504	215.2	24.1	-79.2	0.0
2025-01-25 12:26:57.282449	215.6	24.3	-78.9	0.0
2025-01-25 12:26:59.528263	216.1	24.6	-78.7	0.0
2025-01-25 12:27:01.774783	216.5	24.9	-77.6	0.0
2025-01-25 12:27:04.020247	217.0	25.1	-78.1	0.0
2025-01-25 12:27:06.265257	217.5	25.4	-78.8	0.0
2025-01-25 12:27:08.509833	217.9	25.6	-77.4	0.0
2025-01-25 12:27:10.754249	218.4	25.9	-78.5	0.0
2025-01-25 12:27:13.001574	218.9	26.2	-77.9	0.0
2025-01-25 12:27:15.249128	219.4	26.4	-77.9	0.0
2025-01-25 12:27:17.492819	219.9	26.7	-78.3	0.0
2025-01-25 12:27:19.739222	220.4	26.9	-78.2	0.0
2025-01-25 12:27:21.987575	221.0	27.2	-79.2	0.0
2025-01-25 12:27:24.233911	221.5	27.5	-78.2	0.0
2025-01-25 12:27:26.482563	222.1	27.7	-77.5	0.0
2025-01-25 12:27:28.725449	222.6	28.0	-77.6	0.0
2025-01-25 12:27:30.970239	223.2	28.2	-77.7	0.0
2025-01-25 12:27:33.215246	223.7	28.5	-78.6	0.0
2025-01-25 12:27:35.460942	224.3	28.8	-78.3	0.0
2025-01-25 12:27:37.707414	224.9	29.0	-78.3	0.0
2025-01-25 12:27:39.951117	225.5	29.3	-79.1	0.0
2025-01-25 12:27:42.195888	226.1	29.5	-79.1	0.0
2025-01-25 12:27:44.445967	226.7	29.8	-78.1	0.0
2025-01-25 12:27:46.691060	227.3	30.0	-78.8	0.0
2025-01-25 12:27:48.934787	228.0	30.3	-78.7	0.0
2025-01-25 12:27:51.181424	228.6	30.6	-78.5	0.0
2025-01-25 12:27:53.426476	229.3	30.8	-78.3	0.0
2025-01-25 12:27:55.676815	230.0	31.1	-78.5	0.0
2025-01-25 12:27:57.923537	230.6	31.3	-79.1	0.0
2025-01-25 12:28:00.169906	231.3	31.5	-77.6	0.0
2025-01-25 12:28:02.414375	232.0	31.8	-77.4	0.0
2025-01-25 12:28:04.661693	232.7	32.0	-78.5	0.0
2025-01-25 12:28:06.906857	233.4	32.3	-78.9	0.0
2025-01-25 12:28:09.152243	234.2	32.5	-78.5	0.0
2025-01-25 12:28:11.393654	234.9	32.7	-78.4	0.0
2025-01-25 12:28:13.637273	235.6	32.9	-79.0	0.0
2025-01-25 12:28:15.885003	236.4	33.2	-79.1	0.0
2025-01-25 12:28:18.130472	237.2	33.4	-78.9	0.0
2025-01-25 12:28:20.378101	237.9	33.6	-79.5	0.0
2025-01-25 12:28:22.625748	238.7	33.8	-79.1	0.0
2025-01-25 12:28:24.871181	239.5	34.0	-78.8	0.0
2025-01-25 12:28:27.116607	240.3	34.2	-78.7	0.0
2025-01-25 12:28:29.364012	241.2	34.4	-78.7	0.0
2025-01-25 12:28:31.611441	242.0	34.6	-78.9	0.0
2025-01-25 12:28:33.855261	242.8	34.8	-78.7	0.0
2025-01-25 12:28:36.100867	243.7	34.9	-78.7	0.0
2025-01-25 12:28:38.347748	244.5	35.1	-79.0	0.0
2025-01-25 12:28:40.593329	245.4	35.3	-78.6	0.0
2025-01-25 12:28:42.838783	246.2	35.4	-79.2	0.0
2025-01-25 12:28:45.085928	247.1	35.6	-77.7	0.0
2025-01-25 12:28:47.331923	248.0	35.7	-78.8	0.0
2025-01-25 12:28:49.575518	248.9	35.9	-78.5	0.0
2025-01-25 12:28:51.823181	249.8	36.0	-78.5	0.0
2025-01-25 12:28:54.068640	250.7	36.1	-78.6	0.0
2025-01-25 12:28:56.311564	251.6	36.3	-79.1	0.0
2025-01-25 12:28:58.555203	252.6	36.4	-79.0	0.0
2025-01-25 12:29:00.802659	253.5	36.5	-78.4	0.0
2025-01-25 12:29:03.047306	254.4	36.6	-79.1	0.0
2025-01-25 12:29:05.292894	255.4	36.6	-79.2	0.0
2025-01-25 12:29:07.538378	256.3	36.7	-78.9	0.0
2025-01-25 12:29:09.784779	257.2	36.8	-78.3	0.0
2025-01-25 12:29:12.030119	258.2	36.9	-78.7	0.0
2025-01-25 12:29:14.277457	259.1	36.9	-78.4	0.0
2025-01-25 12:29:16.522484	260.1	36.9	-78.0	0.0
2025-01-25 12:29:18.770387	261.1	37.0	-78.0	0.0
2025-01-25 12:29:21.015303	262.0	37.0	-78.9	0.0
2025-01-25 12:29:23.259771	263.0	37.0	-78.7	0.0
2025-01-25 12:29:25.507870	263.9	37.0	-78.8	0.0
2025-01-25 12:29:27.756417	264.9	37.0	-78.1	0.0
2025-01-25 12:29:30.003945	265.9	37.0	-78.8	0.0
2025-01-25 12:29:32.251146	266.8	37.0	-78.9	0.0
2025-01-25 12:29:34.499879	267.8	37.0	-78.8	0.0
2025-01-25 12:29:36.744961	268.8	36.9	-78.9	0.0
2025-01-25 12:29:38.988657	269.7	36.9	-78.6	0.0
2025-01-25 12:29:41.236113	270.7	36.8	-79.0	0.0
2025-01-25 12:29:43.481817	271.6	36.8	-77.7	0.0
2025-01-25 12:29:45.729330	272.6	36.7	-78.2	0.0
2025-01-25 12:29:47.974401	273.5	36.6	-78.4	0.0
2025-01-25 12:29:50.219379	274.4	36.5	-79.3	0.0
2025-01-25 12:29:52.464429	275.4	36.4	-78.5	0.0
2025-01-25 12:29:54.710585	276.3	36.3	-79.3	0.0
2025-01-25 12:29:56.954886	277.2	36.2	-79.1	0.0
2025-01-25 12:29:59.203112	278.1	36.1	-78.2	0.0
2025-01-25 12:30:01.449527	279.0	36.0	-78.6	0.0
2025-01-25 12:30:03.696904	279.9	35.8	-78.8	0.0
2025-01-25 12:30:05.941880	280.8	35.7	-79.3	0.0
2025-01-25 12:30:08.187407	281.7	35.5	-78.9	0.0
2025-01-25 12:30:10.433334	282.6	35.4	-79.3	0.0
2025-01-25 12:30:12.680082	283.4	35.2	-78.5	0.0
2025-01-25 12:30:14.925987	284.3	35.1	-78.9	0.0
2025-01-25 12:30:17.173091	285.1	34.9	-78.6	0.0
2025-01-25 12:30:19.416960	286.0	34.7	-78.9	0.0
2025-01-25 12:30:21.662935	286.8	34.5	-79.0	0.0
2025-01-25 12:30:23.905989	287.6	34.3	-79.2	0.0
2025-01-25 12:30:26.154496	288.4	34.1	-79.4	0.0
2025-01-25 12:30:28.403499	289.2	33.9	-78.8	0.0
2025-01-25 12:30:30.647646	290.0	33.7	-79.0	0.0
2025-01-25 12:30:32.895411	290.8	33.5	-79.1	0.0
2025-01-25 12:30:35.141213	291.6	33.3	-78.6	0.0
2025-01-25 12:30:37.385926	292.4	33.1	-78.3	0.0
2025-01-25 12:30:39.630918	293.1	32.9	-79.4	0.0
2025-01-25 12:30:41.876547	293.8	32.7	-78.5	0.0
2025-01-25 12:30:44.121913	294.6	32.4	-78.7	0.0
2025-01-25 12:30:46.368074	295.3	32.2	-79.3	0.0
2025-01-25 12:30:48.615071	296.0	32.0	-78.7	0.0
2025-01-25 12:30:50.860507	296.7	31.7	-79.0	0.0
2025-01-25 12:30:53.105966	297.4	31.5	-79.1	0.0
2025-01-25 12:30:55.352406	298.1	31.2	-78.9	0.0
2025-01-25 12:30:57.600099	298.8	31.0	-79.4	0.0
2025-01-25 12:30:59.844155	299.4	30.7	-78.8	0.0
2025-01-25 12:31:02.091699	300.1	30.5	-79.4	0.0
2025-01-25 12:31:04.337558	300.7	30.2	-79.3	0.0
2025-01-25 12:31:06.585402	301.3	30.0	-79.3	0.0
2025-01-25 12:31:08.833310	302.0	29.7	-79.3	0.0
2025-01-25 12:31:11.078334	302.6	29.5	-79.5	0.0
2025-01-25 12:31:13.326891	303.2	29.2	-79.4	0.0
2025-01-25 12:31:15.574062	303.8	29.0	-79.2	0.0
2025-01-25 12:31:17.820684	304.4	28.7	-78.8	0.0
2025-01-25 12:31:20.070332	304.9	28.5	-79.5	0.0
2025-01-25 12:31:22.315450	305.5	28.2	-78.9	0.0
2025-01-25 12:31:24.558223	306.0	27.9	-79.1	0.0
2025-01-25 12:31:26.807538	306.6	27.7	-78.8	0.0
2025-01-25 12:31:29.052844	307.1	27.4	-79.3	0.0
2025-01-25 12:31:31.301823	307.7	27.2	-79.0	0.0
2025-01-25 12:31:33.546570	308.2	26.9	-79.0	0.0
2025-01-25 12:31:35.792873	308.7	26.6	-78.9	0.0
2025-01-25 12:31:38.037600	309.2	26.4	-79.2	0.0
2025-01-25 12:31:40.285931	309.7	26.1	-79.4	0.0
2025-01-25 12:31:42.530901	310.2	25.9	-78.8	0.0
2025-01-25 12:31:44.775993	310.7	25.6	-79.3	0.0
2025-01-25 12:31:47.021964	311.2	25.3	-79.5	0.0
2025-01-25 12:31:49.267774	311.6	25.1	-78.8	0.0
2025-01-25 12:31:51.513306	312.1	24.8	-79.0	0.0
2025-01-25 12:31:53.756430	312.5	24.6	-79.1	0.0
2025-01-25 12:31:56.002109	313.0	24.3	-79.5	0.0
2025-01-25 12:31:58.249706	313.4	24.1	-79.0	0.0
2025-01-25 12:32:00.495183	313.8	23.8	-79.3	0.0
2025-01-25 12:32:02.739136	314.3	23.5	-78.8	0.0
2025-01-25 12:32:04.984895	314.7	23.3	-78.5	0.0
2025-01-25 12:32:07.230870	315.1	23.0	-78.9	0.0
2025-01-25 12:32:09.477528	315.5	22.8	-79.0	0.0
2025-01-25 12:32:11.723011	315.9	22.5	-79.4	0.0
2025-01-25 12:32:13.967876	316.3	22.3	-79.1	0.0
2025-01-25 12:32:16.215831	316.7	22.0	-78.5	0.0
2025-01-25 12:32:18.460760	317.1	21.8	-79.2	0.0
2025-01-25 12:32:20.705439	317.4	21.6	-78.8	0.0
2025-01-25 12:32:22.949237	317.8	21.3	-79.2	0.0
2025-01-25 12:32:25.193180	318.2	21.1	-79.6	0.0
2025-01-25 12:32:27.435964	318.5	20.8	-78.9	0.0
2025-01-25 12:32:29.681627	318.9	20.6	-79.1	0.0
2025-01-25 12:32:31.928927	319.2	20.4	-79.2	0.0
2025-01-25 12:32:34.177841	319.6	20.1	-79.4	0.0
2025-01-25 12:32:36.424705	319.9	19.9	-79.1	0.0
2025-01-25 12:32:38.671203	320.2	19.6	-78.7	0.0
2025-01-25 12:32:40.920715	320.6	19.4	-79.2	0.0
2025-01-25 12:32:43.168578	320.9	19.2	-79.1	0.0
2025-01-25 12:32:45.413499	321.2	18.9	-79.3	0.0
2025-01-25 12:32:47.660265	321.5	18.7	-79.3	0.0
2025-01-25 12:32:49.905258	321.8	18.5	-79.0	0.0
2025-01-25 12:32:52.152649	322.1	18.3	-78.7	0.0
2025-01-25 12:32:54.402639	322.4	18.0	-78.7	0.0
2025-01-25 12:32:56.646514	322.7	17.8	-79.2	0.0
2025-01-25 12:32:58.894106	323.0	17.6	-78.8	0.0
2025-01-25 12:33:01.138876	323.3	17.4	-79.0	0.0
2025-01-25 12:33:03.385388	323.6	17.2	-79.0	0.0
2025-01-25 12:33:05.633874	323.9	16.9	-79.1	0.0
2025-01-25 12:33:07.883177	324.1	16.7	-79.0	0.0
2025-01-25 12:33:10.130899	324.4	16.5	-79.6	0.0
2025-01-25 12:33:12.376839	324.7	16.3	-79.4	0.0
2025-01-25 12:33:14.624954	324.9	16.1	-79.1	0.0
2025-01-25 12:33:16.873719	325.2	15.9	-78.9	0.0
2025-01-25 12:33:19.114644	325.4	15.6	-78.9	0.0
2025-01-25 12:33:21.358134	325.7	15.4	-79.5	0.0
2025-01-25 12:33:23.603638	325.9	15.2	-78.9	0.0
2025-01-25 12:33:25.853002	326.2	15.0	-79.0	0.0
2025-01-25 12:33:28.098786	326.4	14.8	-79.3	0.0
2025-01-25 12:33:30.343037	326.7	14.6	-78.9	0.0
2025-01-25 12:33:32.592605	326.9	14.4	-78.9	0.0
2025-01-25 12:33:34.840192	327.2	14.2	-79.2	0.0
2025-01-25 12:33:37.085033	327.4	14.0	-79.2	0.0
2025-01-25 12:33:39.330628	327.6	13.8	-79.5	0.0
2025-01-25 12:33:41.575311	327.8	13.6	-79.3	0.0
2025-01-25 12:33:43.820131	328.1	13.4	-79.2	0.0
2025-01-25 12:33:46.066793	328.3	13.2	-79.1	0.0
2025-01-25 12:33:48.312255	328.5	13.0	-79.0	0.0
2025-01-25 12:33:50.559669	328.7	12.8	-79.3	0.0
2025-01-25 12:33:52.806575	328.9	12.6	-78.6	0.0
2025-01-25 12:33:55.052697	329.1	12.4	-79.5	0.0
2025-01-25 12:33:57.295209	329.3	12.3	-78.5	0.0
2025-01-25 12:33:59.543336	329.5	12.1	-79.2	0.0
2025-01-25 12:34:01.791265	329.7	11.9	-79.3	0.0
2025-01-25 12:34:04.039396	329.9	11.7	-79.3	0.0
2025-01-25 12:34:06.284919	330.1	11.5	-79.4	0.0
2025-01-25 12:34:08.532062	330.3	11.3	-79.1	0.0
2025-01-25 12:34:10.777791	330.5	11.1	-79.6	0.0
2025-01-25 12:34:13.025528	330.7	11.0	-79.1	0.0
2025-01-25 12:34:15.271947	330.9	10.8	-78.2	0.0
2025-01-25 12:34:17.517475	331.1	10.6	-78.3	0.0
2025-01-25 12:34:19.760620	331.3	10.4	-78.4	0.0
2025-01-25 12:34:22.006815	331.4	10.2	-78.0	0.0
2025-01-25 12:34:24.255272	331.6	10.1	-79.1	0.0
#Closed at: 2025-01-25 12:24:24.157635