passes_logs/2025/01/25/planumMaritime01/planumMaritime01__20250125_023445_METEOR-M2_4_rec.log

#Pass ID: 20250125_023445_METEOR-M2 4
#Satellite: METEOR-M2 4
#Configuration: METEOR-M2 4
#Start time: 2025-01-25 02:34:50.628833

#LorettStation: 1.0.0 05.05.2024
#Station: planumMaritime01
#Location: 37.49445 lon 55.92918 lat
#TLE: 1 59051U 24039A   25024.80620376  .00000158  00000+0  90320-4 0  9994
#TLE: 2 59051  98.6306 347.6099 0006657 193.6447 166.4552 14.22328660 46991

#Time	Az	El	Level	SNR
2025-01-25 02:34:52.801704	1.4	10.2	-77.6	0.0
2025-01-25 02:34:55.049787	1.2	10.3	-77.6	0.0
2025-01-25 02:34:57.296287	0.9	10.5	-77.3	0.0
2025-01-25 02:34:59.540677	0.7	10.7	-77.8	0.0
2025-01-25 02:35:01.784531	0.5	10.8	-77.6	0.0
2025-01-25 02:35:04.030752	0.2	11.0	-77.6	0.0
2025-01-25 02:35:06.272852	360.0	11.2	-77.7	0.0
2025-01-25 02:35:08.519107	359.8	11.3	-77.4	0.0
2025-01-25 02:35:10.763498	359.5	11.5	-77.5	0.0
2025-01-25 02:35:13.011580	359.3	11.7	-77.4	0.0
2025-01-25 02:35:15.257109	359.0	11.8	-77.3	0.0
2025-01-25 02:35:17.502305	358.8	12.0	-77.6	0.0
2025-01-25 02:35:19.748883	358.5	12.2	-77.3	0.0
2025-01-25 02:35:21.994769	358.2	12.3	-77.4	0.0
2025-01-25 02:35:24.242369	358.0	12.5	-77.1	0.0
2025-01-25 02:35:26.489015	357.7	12.7	-77.3	0.0
2025-01-25 02:35:28.733609	357.4	12.9	-77.2	0.0
2025-01-25 02:35:30.982349	357.2	13.0	-77.1	0.0
2025-01-25 02:35:33.229513	356.9	13.2	-77.6	0.0
2025-01-25 02:35:35.474822	356.6	13.4	-77.2	0.0
2025-01-25 02:35:37.721393	356.3	13.6	-77.3	0.0
2025-01-25 02:35:39.961901	356.0	13.7	-77.4	0.0
2025-01-25 02:35:42.208127	355.7	13.9	-77.3	0.0
2025-01-25 02:35:44.453567	355.5	14.1	-77.5	0.0
2025-01-25 02:35:46.697354	355.2	14.3	-77.5	0.0
2025-01-25 02:35:48.942819	354.9	14.4	-77.2	0.0
2025-01-25 02:35:51.193555	354.5	14.6	-77.2	0.0
2025-01-25 02:35:53.438298	354.2	14.8	-77.3	0.0
2025-01-25 02:35:55.682816	353.9	15.0	-77.6	0.0
2025-01-25 02:35:57.928606	353.6	15.2	-77.2	0.0
2025-01-25 02:36:00.174625	353.3	15.3	-76.7	0.0
2025-01-25 02:36:02.417655	353.0	15.5	-77.1	0.0
2025-01-25 02:36:04.665803	352.6	15.7	-77.4	0.0
2025-01-25 02:36:06.914053	352.3	15.9	-77.5	0.0
2025-01-25 02:36:09.159327	352.0	16.1	-77.4	0.0
2025-01-25 02:36:11.406034	351.6	16.3	-77.4	0.0
2025-01-25 02:36:13.651001	351.3	16.4	-77.2	0.0
2025-01-25 02:36:15.897143	350.9	16.6	-77.4	0.0
2025-01-25 02:36:18.141844	350.6	16.8	-77.3	0.0
2025-01-25 02:36:20.387035	350.2	17.0	-77.5	0.0
2025-01-25 02:36:22.631653	349.8	17.2	-77.4	0.0
2025-01-25 02:36:24.875217	349.5	17.4	-77.5	0.0
2025-01-25 02:36:27.122856	349.1	17.5	-77.5	0.0
2025-01-25 02:36:29.369532	348.7	17.7	-77.6	0.0
2025-01-25 02:36:31.616402	348.3	17.9	-77.4	0.0
2025-01-25 02:36:33.858956	348.0	18.1	-77.6	0.0
2025-01-25 02:36:36.105075	347.6	18.3	-77.4	0.0
2025-01-25 02:36:38.352388	347.2	18.5	-77.8	0.0
2025-01-25 02:36:40.601749	346.8	18.7	-77.9	0.0
2025-01-25 02:36:42.845785	346.4	18.8	-77.5	0.0
2025-01-25 02:36:45.092811	345.9	19.0	-77.8	0.0
2025-01-25 02:36:47.338866	345.5	19.2	-77.7	0.0
2025-01-25 02:36:49.583756	345.1	19.4	-77.9	0.0
2025-01-25 02:36:51.831853	344.7	19.6	-77.7	0.0
2025-01-25 02:36:54.079512	344.2	19.8	-77.6	0.0
2025-01-25 02:36:56.328845	343.8	19.9	-77.8	0.0
2025-01-25 02:36:58.574105	343.4	20.1	-77.7	0.0
2025-01-25 02:37:00.820254	342.9	20.3	-77.8	0.0
2025-01-25 02:37:03.065382	342.5	20.5	-77.8	0.0
2025-01-25 02:37:05.310285	342.0	20.7	-77.9	0.0
2025-01-25 02:37:07.555853	341.5	20.9	-77.4	0.0
2025-01-25 02:37:09.800200	341.1	21.0	-78.0	0.0
2025-01-25 02:37:12.043223	340.6	21.2	-77.9	0.0
2025-01-25 02:37:14.290855	340.1	21.4	-77.9	0.0
2025-01-25 02:37:16.534256	339.6	21.6	-77.9	0.0
2025-01-25 02:37:18.779537	339.1	21.7	-77.9	0.0
2025-01-25 02:37:21.024825	338.6	21.9	-78.1	0.0
2025-01-25 02:37:23.268835	338.1	22.1	-78.2	0.0
2025-01-25 02:37:25.514011	337.6	22.3	-78.3	0.0
2025-01-25 02:37:27.761151	337.1	22.4	-78.3	0.0
2025-01-25 02:37:30.007333	336.6	22.6	-78.2	0.0
2025-01-25 02:37:32.251394	336.0	22.8	-78.2	0.0
2025-01-25 02:37:34.497398	335.5	22.9	-78.3	0.0
2025-01-25 02:37:36.741016	335.0	23.1	-78.5	0.0
2025-01-25 02:37:38.986182	334.4	23.3	-78.3	0.0
2025-01-25 02:37:41.229181	333.9	23.4	-78.4	0.0
2025-01-25 02:37:43.477291	333.3	23.6	-78.4	0.0
2025-01-25 02:37:45.723438	332.7	23.8	-78.5	0.0
2025-01-25 02:37:47.968354	332.2	23.9	-78.5	0.0
2025-01-25 02:37:50.213733	331.6	24.1	-78.5	0.0
2025-01-25 02:37:52.459796	331.0	24.2	-78.3	0.0
2025-01-25 02:37:54.706028	330.4	24.4	-78.5	0.0
2025-01-25 02:37:56.953234	329.8	24.5	-78.4	0.0
2025-01-25 02:37:59.197439	329.2	24.7	-78.7	0.0
2025-01-25 02:38:01.442161	328.6	24.8	-78.7	0.0
2025-01-25 02:38:03.687773	328.0	24.9	-78.6	0.0
2025-01-25 02:38:05.930537	327.4	25.1	-78.8	0.0
2025-01-25 02:38:08.174752	326.8	25.2	-78.6	0.0
2025-01-25 02:38:10.424576	326.2	25.3	-78.7	0.0
2025-01-25 02:38:12.671401	325.5	25.5	-78.6	0.0
2025-01-25 02:38:14.917674	324.9	25.6	-78.8	0.0
2025-01-25 02:38:17.162897	324.2	25.7	-78.8	0.0
2025-01-25 02:38:19.407940	323.6	25.8	-78.9	0.0
2025-01-25 02:38:21.653912	323.0	25.9	-78.7	0.0
2025-01-25 02:38:23.900256	322.3	26.1	-78.8	0.0
2025-01-25 02:38:26.145378	321.6	26.2	-78.7	0.0
2025-01-25 02:38:28.393120	321.0	26.3	-78.8	0.0
2025-01-25 02:38:30.637196	320.3	26.4	-78.9	0.0
2025-01-25 02:38:32.882863	319.6	26.5	-79.0	0.0
2025-01-25 02:38:35.130153	319.0	26.5	-79.0	0.0
2025-01-25 02:38:37.376318	318.3	26.6	-79.0	0.0
2025-01-25 02:38:39.622789	317.6	26.7	-78.9	0.0
2025-01-25 02:38:41.870512	316.9	26.8	-79.1	0.0
2025-01-25 02:38:44.116700	316.2	26.9	-79.0	0.0
2025-01-25 02:38:46.363818	315.5	26.9	-79.1	0.0
2025-01-25 02:38:48.609076	314.8	27.0	-79.3	0.0
2025-01-25 02:38:50.855671	314.1	27.1	-79.0	0.0
2025-01-25 02:38:53.101690	313.4	27.1	-79.3	0.0
2025-01-25 02:38:55.349777	312.7	27.2	-79.1	0.0
2025-01-25 02:38:57.598570	312.0	27.2	-79.0	0.0
2025-01-25 02:38:59.845244	311.3	27.3	-79.1	0.0
2025-01-25 02:39:02.090139	310.6	27.3	-79.0	0.0
2025-01-25 02:39:04.338617	309.9	27.3	-79.3	0.0
2025-01-25 02:39:06.584366	309.1	27.4	-79.2	0.0
2025-01-25 02:39:08.829169	308.4	27.4	-79.4	0.0
2025-01-25 02:39:11.074132	307.7	27.4	-79.2	0.0
2025-01-25 02:39:13.319042	307.0	27.4	-79.1	0.0
2025-01-25 02:39:15.564003	306.3	27.4	-79.1	0.0
2025-01-25 02:39:17.811801	305.6	27.4	-79.3	0.0
2025-01-25 02:39:20.060474	304.8	27.4	-79.4	0.0
2025-01-25 02:39:22.305962	304.1	27.4	-78.9	0.0
2025-01-25 02:39:24.553561	303.4	27.4	-79.2	0.0
2025-01-25 02:39:26.800364	302.7	27.4	-78.9	0.0
2025-01-25 02:39:29.047338	302.0	27.4	-79.0	0.0
2025-01-25 02:39:31.295654	301.2	27.3	-79.2	0.0
2025-01-25 02:39:33.541920	300.5	27.3	-79.2	0.0
2025-01-25 02:39:35.787738	299.8	27.3	-78.8	0.0
2025-01-25 02:39:38.034387	299.1	27.2	-79.0	0.0
2025-01-25 02:39:40.278094	298.4	27.2	-79.2	0.0
2025-01-25 02:39:42.524535	297.7	27.1	-79.2	0.0
2025-01-25 02:39:44.772419	297.0	27.1	-79.4	0.0
2025-01-25 02:39:47.016798	296.3	27.0	-79.1	0.0
2025-01-25 02:39:49.265869	295.6	26.9	-79.3	0.0
2025-01-25 02:39:51.511228	294.9	26.9	-79.4	0.0
2025-01-25 02:39:53.755161	294.2	26.8	-79.1	0.0
2025-01-25 02:39:55.997898	293.5	26.7	-79.2	0.0
2025-01-25 02:39:58.242175	292.8	26.6	-79.1	0.0
2025-01-25 02:40:00.489760	292.1	26.5	-79.2	0.0
2025-01-25 02:40:02.735069	291.5	26.4	-79.3	0.0
2025-01-25 02:40:04.980529	290.8	26.4	-79.2	0.0
2025-01-25 02:40:07.225112	290.1	26.3	-79.3	0.0
2025-01-25 02:40:09.469075	289.5	26.2	-79.2	0.0
2025-01-25 02:40:11.714786	288.8	26.0	-79.1	0.0
2025-01-25 02:40:13.958642	288.1	25.9	-79.4	0.0
2025-01-25 02:40:16.205403	287.5	25.8	-79.3	0.0
2025-01-25 02:40:18.454075	286.8	25.7	-79.4	0.0
2025-01-25 02:40:20.698780	286.2	25.6	-79.3	0.0
2025-01-25 02:40:22.943890	285.6	25.5	-79.4	0.0
2025-01-25 02:40:25.189348	284.9	25.3	-79.0	0.0
2025-01-25 02:40:27.437129	284.3	25.2	-79.2	0.0
2025-01-25 02:40:29.682762	283.7	25.1	-79.1	0.0
2025-01-25 02:40:31.927679	283.0	24.9	-79.1	0.0
2025-01-25 02:40:34.172222	282.4	24.8	-79.2	0.0
2025-01-25 02:40:36.419493	281.8	24.6	-79.3	0.0
2025-01-25 02:40:38.666640	281.2	24.5	-79.2	0.0
2025-01-25 02:40:40.909782	280.6	24.3	-79.3	0.0
2025-01-25 02:40:43.157867	280.0	24.2	-79.1	0.0
2025-01-25 02:40:45.404000	279.5	24.0	-79.4	0.0
2025-01-25 02:40:47.650909	278.9	23.9	-79.1	0.0
2025-01-25 02:40:49.897680	278.3	23.7	-79.2	0.0
2025-01-25 02:40:52.142141	277.7	23.6	-79.1	0.0
2025-01-25 02:40:54.387646	277.2	23.4	-79.0	0.0
2025-01-25 02:40:56.634085	276.6	23.2	-79.3	0.0
2025-01-25 02:40:58.879298	276.1	23.1	-79.5	0.0
2025-01-25 02:41:01.123233	275.5	22.9	-79.3	0.0
2025-01-25 02:41:03.369398	275.0	22.7	-79.4	0.0
2025-01-25 02:41:05.616525	274.5	22.6	-79.5	0.0
2025-01-25 02:41:07.860209	273.9	22.4	-79.0	0.0
2025-01-25 02:41:10.106782	273.4	22.2	-79.5	0.0
2025-01-25 02:41:12.352893	272.9	22.1	-79.7	0.0
2025-01-25 02:41:14.600824	272.4	21.9	-79.6	0.0
2025-01-25 02:41:16.845652	271.9	21.7	-79.4	0.0
2025-01-25 02:41:19.093637	271.4	21.5	-79.4	0.0
2025-01-25 02:41:21.338755	270.9	21.4	-79.4	0.0
2025-01-25 02:41:23.585640	270.4	21.2	-79.4	0.0
2025-01-25 02:41:25.830391	269.9	21.0	-79.3	0.0
2025-01-25 02:41:28.073341	269.5	20.8	-79.4	0.0
2025-01-25 02:41:30.317218	269.0	20.6	-79.3	0.0
2025-01-25 02:41:32.560361	268.5	20.4	-79.4	0.0
2025-01-25 02:41:34.808370	268.1	20.3	-79.5	0.0
2025-01-25 02:41:37.055420	267.6	20.1	-79.7	0.0
2025-01-25 02:41:39.301007	267.2	19.9	-79.6	0.0
2025-01-25 02:41:41.548945	266.7	19.7	-79.7	0.0
2025-01-25 02:41:43.793798	266.3	19.5	-79.6	0.0
2025-01-25 02:41:46.041786	265.9	19.3	-79.8	0.0
2025-01-25 02:41:48.285605	265.4	19.2	-79.5	0.0
2025-01-25 02:41:50.531248	265.0	19.0	-79.5	0.0
2025-01-25 02:41:52.776508	264.6	18.8	-79.3	0.0
2025-01-25 02:41:55.022696	264.2	18.6	-79.4	0.0
2025-01-25 02:41:57.266722	263.8	18.4	-79.1	0.0
2025-01-25 02:41:59.513167	263.4	18.2	-79.5	0.0
2025-01-25 02:42:01.758064	263.0	18.0	-79.3	0.0
2025-01-25 02:42:04.002689	262.6	17.8	-79.0	0.0
2025-01-25 02:42:06.246264	262.2	17.7	-79.2	0.0
2025-01-25 02:42:08.493358	261.8	17.5	-79.3	0.0
2025-01-25 02:42:10.740412	261.5	17.3	-79.4	0.0
2025-01-25 02:42:12.987837	261.1	17.1	-79.5	0.0
2025-01-25 02:42:15.234607	260.7	16.9	-79.3	0.0
2025-01-25 02:42:17.480687	260.4	16.7	-79.0	0.0
2025-01-25 02:42:19.728289	260.0	16.5	-78.9	0.0
2025-01-25 02:42:21.973682	259.7	16.4	-79.4	0.0
2025-01-25 02:42:24.221242	259.3	16.2	-79.6	0.0
2025-01-25 02:42:26.467406	259.0	16.0	-78.8	0.0
2025-01-25 02:42:28.712074	258.6	15.8	-79.2	0.0
2025-01-25 02:42:30.957369	258.3	15.6	-79.3	0.0
2025-01-25 02:42:33.202479	258.0	15.4	-79.6	0.0
2025-01-25 02:42:35.449286	257.6	15.3	-79.4	0.0
2025-01-25 02:42:37.696566	257.3	15.1	-79.3	0.0
2025-01-25 02:42:39.943074	257.0	14.9	-79.3	0.0
2025-01-25 02:42:42.188837	256.7	14.7	-79.2	0.0
2025-01-25 02:42:44.432339	256.4	14.5	-79.2	0.0
2025-01-25 02:42:46.682777	256.0	14.4	-79.4	0.0
2025-01-25 02:42:48.928145	255.7	14.2	-79.5	0.0
2025-01-25 02:42:51.172987	255.4	14.0	-79.5	0.0
2025-01-25 02:42:53.417603	255.1	13.8	-79.3	0.0
2025-01-25 02:42:55.667160	254.8	13.6	-79.3	0.0
2025-01-25 02:42:57.912881	254.6	13.5	-79.5	0.0
2025-01-25 02:43:00.158361	254.3	13.3	-79.0	0.0
2025-01-25 02:43:02.404948	254.0	13.1	-79.3	0.0
2025-01-25 02:43:04.649052	253.7	12.9	-79.3	0.0
2025-01-25 02:43:06.892542	253.4	12.8	-79.1	0.0
2025-01-25 02:43:09.140551	253.2	12.6	-79.2	0.0
2025-01-25 02:43:11.384828	252.9	12.4	-79.2	0.0
2025-01-25 02:43:13.632715	252.6	12.2	-79.4	0.0
2025-01-25 02:43:15.877182	252.4	12.1	-79.4	0.0
2025-01-25 02:43:18.123126	252.1	11.9	-79.3	0.0
2025-01-25 02:43:20.368826	251.8	11.7	-79.6	0.0
2025-01-25 02:43:22.617147	251.6	11.5	-79.5	0.0
2025-01-25 02:43:24.861948	251.3	11.4	-79.5	0.0
2025-01-25 02:43:27.108154	251.1	11.2	-79.4	0.0
2025-01-25 02:43:29.353712	250.9	11.0	-79.6	0.0
2025-01-25 02:43:31.597794	250.6	10.9	-79.5	0.0
2025-01-25 02:43:33.843675	250.4	10.7	-79.3	0.0
2025-01-25 02:43:36.091017	250.1	10.5	-79.4	0.0
2025-01-25 02:43:38.338162	249.9	10.4	-79.2	0.0
2025-01-25 02:43:40.584380	249.7	10.2	-79.4	0.0
2025-01-25 02:43:42.828167	249.4	10.0	-79.5	0.0
#Closed at: 2025-01-25 02:34:45.632530