passes_logs/2025/01/25/planumMaritime01/planumMaritime01__20250125_072350_METOP-C_rec.log

#Pass ID: 20250125_072350_METOP-C
#Satellite: METOP-C
#Configuration: METOP-C
#Start time: 2025-01-25 07:23:55.891748

#LorettStation: 1.0.0 05.05.2024
#Station: planumMaritime01
#Location: 37.49445 lon 55.92918 lat
#TLE: 1 43689U 18087A   25024.72465994  .00000378  00000+0  19278-3 0  9990
#TLE: 2 43689  98.6950  87.0713 0001843 146.4011 213.7283 14.21488564322598

#Time	Az	El	Level	SNR
2025-01-25 07:23:58.064019	21.1	10.2	-76.3	0.0
2025-01-25 07:24:00.308048	21.2	10.4	-76.5	0.0
2025-01-25 07:24:02.554877	21.3	10.6	-76.5	0.0
2025-01-25 07:24:04.803395	21.3	10.8	-76.7	0.0
2025-01-25 07:24:07.047905	21.4	11.0	-76.6	0.0
2025-01-25 07:24:09.294540	21.5	11.2	-76.8	0.0
2025-01-25 07:24:11.540457	21.6	11.4	-76.4	0.0
2025-01-25 07:24:13.788684	21.7	11.6	-77.1	0.0
2025-01-25 07:24:16.034255	21.8	11.8	-76.6	0.0
2025-01-25 07:24:18.280588	21.8	12.0	-76.5	0.0
2025-01-25 07:24:20.526616	21.9	12.2	-76.7	0.0
2025-01-25 07:24:22.772750	22.0	12.4	-76.8	0.0
2025-01-25 07:24:25.019816	22.1	12.6	-76.6	0.0
2025-01-25 07:24:27.267840	22.2	12.8	-76.1	0.0
2025-01-25 07:24:29.516227	22.3	13.0	-76.8	0.0
2025-01-25 07:24:31.760766	22.4	13.3	-77.3	0.0
2025-01-25 07:24:34.008027	22.5	13.5	-77.3	0.0
2025-01-25 07:24:36.253327	22.6	13.7	-77.2	0.0
2025-01-25 07:24:38.499196	22.7	13.9	-77.1	0.0
2025-01-25 07:24:40.745948	22.8	14.1	-76.9	0.0
2025-01-25 07:24:42.991739	22.9	14.4	-77.4	0.0
2025-01-25 07:24:45.240609	23.0	14.6	-77.1	0.0
2025-01-25 07:24:47.485952	23.1	14.8	-76.9	0.0
2025-01-25 07:24:49.730497	23.2	15.1	-77.3	0.0
2025-01-25 07:24:51.976013	23.3	15.3	-77.5	0.0
2025-01-25 07:24:54.224070	23.4	15.5	-77.0	0.0
2025-01-25 07:24:56.470056	23.5	15.8	-77.0	0.0
2025-01-25 07:24:58.716428	23.6	16.0	-77.1	0.0
2025-01-25 07:25:00.962912	23.7	16.3	-76.8	0.0
2025-01-25 07:25:03.211643	23.9	16.5	-77.2	0.0
2025-01-25 07:25:05.457967	24.0	16.8	-76.4	0.0
2025-01-25 07:25:07.705256	24.1	17.0	-76.4	0.0
2025-01-25 07:25:09.952372	24.2	17.3	-76.2	0.0
2025-01-25 07:25:12.199588	24.3	17.5	-76.3	0.0
2025-01-25 07:25:14.443630	24.5	17.8	-76.6	0.0
2025-01-25 07:25:16.689285	24.6	18.0	-76.6	0.0
2025-01-25 07:25:18.934887	24.7	18.3	-76.9	0.0
2025-01-25 07:25:21.180585	24.8	18.6	-77.0	0.0
2025-01-25 07:25:23.427113	25.0	18.9	-77.1	0.0
2025-01-25 07:25:25.672751	25.1	19.1	-76.8	0.0
2025-01-25 07:25:27.919097	25.3	19.4	-76.9	0.0
2025-01-25 07:25:30.163567	25.4	19.7	-76.6	0.0
2025-01-25 07:25:32.409308	25.5	20.0	-76.9	0.0
2025-01-25 07:25:34.657888	25.7	20.2	-76.5	0.0
2025-01-25 07:25:36.906400	25.8	20.5	-77.3	0.0
2025-01-25 07:25:39.151593	26.0	20.8	-76.9	0.0
2025-01-25 07:25:41.398667	26.1	21.1	-77.2	0.0
2025-01-25 07:25:43.644341	26.3	21.4	-76.6	0.0
2025-01-25 07:25:45.889507	26.4	21.7	-77.1	0.0
2025-01-25 07:25:48.140662	26.6	22.0	-77.2	0.0
2025-01-25 07:25:50.388761	26.8	22.3	-77.1	0.0
2025-01-25 07:25:52.636446	26.9	22.7	-77.3	0.0
2025-01-25 07:25:54.883785	27.1	23.0	-77.2	0.0
2025-01-25 07:25:57.130290	27.3	23.3	-77.1	0.0
2025-01-25 07:25:59.377423	27.5	23.6	-76.8	0.0
2025-01-25 07:26:01.626439	27.6	23.9	-77.4	0.0
2025-01-25 07:26:03.874771	27.8	24.3	-77.2	0.0
2025-01-25 07:26:06.119688	28.0	24.6	-77.1	0.0
2025-01-25 07:26:08.364857	28.2	25.0	-76.8	0.0
2025-01-25 07:26:10.610217	28.4	25.3	-77.0	0.0
2025-01-25 07:26:12.856925	28.6	25.6	-77.0	0.0
2025-01-25 07:26:15.106171	28.8	26.0	-77.2	0.0
2025-01-25 07:26:17.349918	29.0	26.4	-77.4	0.0
2025-01-25 07:26:19.596996	29.2	26.7	-77.0	0.0
2025-01-25 07:26:21.840422	29.4	27.1	-77.4	0.0
2025-01-25 07:26:24.085620	29.7	27.5	-77.2	0.0
2025-01-25 07:26:26.331996	29.9	27.8	-76.8	0.0
2025-01-25 07:26:28.576914	30.1	28.2	-77.3	0.0
2025-01-25 07:26:30.825533	30.4	28.6	-76.8	0.0
2025-01-25 07:26:33.072004	30.6	29.0	-77.4	0.0
2025-01-25 07:26:35.317687	30.9	29.4	-77.3	0.0
2025-01-25 07:26:37.564900	31.1	29.8	-77.3	0.0
2025-01-25 07:26:39.804859	31.4	30.2	-77.5	0.0
2025-01-25 07:26:42.051828	31.6	30.6	-77.5	0.0
2025-01-25 07:26:44.299744	31.9	31.0	-77.1	0.0
2025-01-25 07:26:46.547636	32.2	31.4	-77.4	0.0
2025-01-25 07:26:48.795154	32.5	31.9	-77.5	0.0
2025-01-25 07:26:51.043399	32.8	32.3	-77.7	0.0
2025-01-25 07:26:53.290075	33.1	32.7	-77.1	0.0
2025-01-25 07:26:55.539817	33.4	33.2	-77.2	0.0
2025-01-25 07:26:57.788410	33.7	33.6	-77.3	0.0
2025-01-25 07:27:00.037098	34.1	34.1	-77.3	0.0
2025-01-25 07:27:02.283039	34.4	34.5	-77.3	0.0
2025-01-25 07:27:04.529199	34.7	35.0	-77.6	0.0
2025-01-25 07:27:06.775260	35.1	35.5	-77.4	0.0
2025-01-25 07:27:09.019771	35.5	35.9	-77.6	0.0
2025-01-25 07:27:11.265257	35.8	36.4	-77.4	0.0
2025-01-25 07:27:13.507424	36.2	36.9	-77.3	0.0
2025-01-25 07:27:15.753341	36.6	37.4	-77.8	0.0
2025-01-25 07:27:17.997120	37.1	37.9	-77.0	0.0
2025-01-25 07:27:20.241893	37.5	38.4	-77.2	0.0
2025-01-25 07:27:22.486991	37.9	38.9	-77.1	0.0
2025-01-25 07:27:24.737702	38.4	39.5	-77.5	0.0
2025-01-25 07:27:26.979955	38.8	40.0	-77.3	0.0
2025-01-25 07:27:29.228225	39.3	40.5	-77.3	0.0
2025-01-25 07:27:31.474318	39.8	41.1	-77.5	0.0
2025-01-25 07:27:33.724000	40.4	41.6	-76.9	0.0
2025-01-25 07:27:35.967918	40.9	42.1	-77.5	0.0
2025-01-25 07:27:38.215333	41.4	42.7	-76.8	0.0
2025-01-25 07:27:40.464737	42.0	43.3	-77.5	0.0
2025-01-25 07:27:42.709107	42.6	43.8	-77.2	0.0
2025-01-25 07:27:44.956427	43.2	44.4	-77.3	0.0
2025-01-25 07:27:47.201822	43.9	45.0	-77.4	0.0
2025-01-25 07:27:49.448802	44.5	45.5	-77.4	0.0
2025-01-25 07:27:51.696645	45.2	46.1	-77.5	0.0
2025-01-25 07:27:53.941407	45.9	46.7	-77.3	0.0
2025-01-25 07:27:56.185839	46.7	47.3	-77.4	0.0
2025-01-25 07:27:58.432873	47.4	47.9	-77.4	0.0
2025-01-25 07:28:00.681506	48.2	48.5	-77.5	0.0
2025-01-25 07:28:02.929236	49.0	49.1	-77.4	0.0
2025-01-25 07:28:05.174039	49.9	49.7	-77.7	0.0
2025-01-25 07:28:07.419110	50.8	50.3	-77.8	0.0
2025-01-25 07:28:09.665359	51.7	50.9	-77.5	0.0
2025-01-25 07:28:11.910446	52.7	51.5	-77.3	0.0
2025-01-25 07:28:14.154688	53.7	52.1	-77.3	0.0
2025-01-25 07:28:16.401935	54.7	52.7	-77.5	0.0
2025-01-25 07:28:18.647886	55.8	53.3	-77.5	0.0
2025-01-25 07:28:20.893151	57.0	53.9	-77.1	0.0
2025-01-25 07:28:23.140113	58.1	54.5	-77.4	0.0
2025-01-25 07:28:25.386002	59.4	55.1	-77.5	0.0
2025-01-25 07:28:27.631442	60.6	55.6	-77.4	0.0
2025-01-25 07:28:29.877285	62.0	56.2	-77.3	0.0
2025-01-25 07:28:32.123620	63.4	56.8	-77.1	0.0
2025-01-25 07:28:34.369608	64.8	57.3	-76.9	0.0
2025-01-25 07:28:36.612962	66.3	57.8	-77.4	0.0
2025-01-25 07:28:38.858779	67.9	58.4	-77.1	0.0
2025-01-25 07:28:41.104358	69.5	58.9	-77.0	0.0
2025-01-25 07:28:43.350604	71.2	59.3	-77.2	0.0
2025-01-25 07:28:45.600710	72.9	59.8	-77.7	0.0
2025-01-25 07:28:47.845476	74.8	60.3	-77.4	0.0
2025-01-25 07:28:50.090518	76.6	60.7	-77.5	0.0
2025-01-25 07:28:52.334779	78.6	61.1	-77.5	0.0
2025-01-25 07:28:54.582243	80.6	61.4	-77.9	0.0
2025-01-25 07:28:56.828970	82.6	61.8	-77.5	0.0
2025-01-25 07:28:59.073165	84.7	62.1	-77.1	0.0
2025-01-25 07:29:01.319299	86.9	62.4	-77.4	0.0
2025-01-25 07:29:03.562535	89.1	62.6	-77.5	0.0
2025-01-25 07:29:05.813765	91.3	62.8	-77.3	0.0
2025-01-25 07:29:08.060540	93.6	63.0	-77.2	0.0
2025-01-25 07:29:10.301991	95.9	63.1	-77.4	0.0
2025-01-25 07:29:12.548597	98.3	63.2	-76.8	0.0
2025-01-25 07:29:14.794870	100.6	63.3	-77.1	0.0
2025-01-25 07:29:17.042015	103.0	63.3	-77.4	0.0
2025-01-25 07:29:19.292529	105.3	63.3	-77.4	0.0
2025-01-25 07:29:21.536223	107.7	63.2	-77.4	0.0
2025-01-25 07:29:23.779174	110.0	63.1	-77.6	0.0
2025-01-25 07:29:26.023179	112.3	63.0	-77.5	0.0
2025-01-25 07:29:28.269628	114.6	62.8	-77.7	0.0
2025-01-25 07:29:30.517639	116.9	62.6	-77.6	0.0
2025-01-25 07:29:32.763997	119.1	62.3	-77.4	0.0
2025-01-25 07:29:35.008374	121.2	62.1	-77.6	0.0
2025-01-25 07:29:37.254320	123.3	61.7	-77.4	0.0
2025-01-25 07:29:39.500387	125.4	61.4	-77.6	0.0
2025-01-25 07:29:41.745037	127.4	61.0	-77.4	0.0
2025-01-25 07:29:43.990914	129.3	60.6	-77.6	0.0
2025-01-25 07:29:46.236918	131.2	60.2	-77.4	0.0
2025-01-25 07:29:48.481167	133.0	59.7	-77.6	0.0
2025-01-25 07:29:50.728911	134.7	59.3	-77.3	0.0
2025-01-25 07:29:52.973739	136.4	58.8	-77.3	0.0
2025-01-25 07:29:55.220262	138.0	58.3	-77.5	0.0
2025-01-25 07:29:57.465797	139.6	57.8	-77.5	0.0
2025-01-25 07:29:59.713169	141.1	57.2	-77.3	0.0
2025-01-25 07:30:01.958971	142.5	56.7	-77.4	0.0
2025-01-25 07:30:04.203788	143.9	56.1	-77.4	0.0
2025-01-25 07:30:06.451490	145.2	55.5	-77.4	0.0
2025-01-25 07:30:08.698120	146.5	55.0	-77.3	0.0
2025-01-25 07:30:10.944430	147.7	54.4	-77.4	0.0
2025-01-25 07:30:13.193336	148.9	53.8	-77.6	0.0
2025-01-25 07:30:15.436243	150.0	53.2	-77.5	0.0
2025-01-25 07:30:17.680411	151.1	52.6	-77.3	0.0
2025-01-25 07:30:19.929893	152.2	52.0	-77.3	0.0
2025-01-25 07:30:22.175688	153.2	51.4	-77.5	0.0
2025-01-25 07:30:24.423574	154.1	50.8	-77.2	0.0
2025-01-25 07:30:26.671690	155.1	50.2	-77.8	0.0
2025-01-25 07:30:28.914402	155.9	49.6	-77.4	0.0
2025-01-25 07:30:31.161837	156.8	49.0	-77.7	0.0
2025-01-25 07:30:33.411149	157.6	48.4	-77.5	0.0
2025-01-25 07:30:35.658697	158.4	47.8	-77.3	0.0
2025-01-25 07:30:37.904859	159.2	47.2	-77.2	0.0
2025-01-25 07:30:40.149434	159.9	46.6	-77.9	0.0
2025-01-25 07:30:42.396701	160.6	46.0	-77.1	0.0
2025-01-25 07:30:44.641684	161.3	45.4	-77.2	0.0
2025-01-25 07:30:46.885254	162.0	44.8	-77.2	0.0
2025-01-25 07:30:49.132624	162.6	44.3	-77.2	0.0
2025-01-25 07:30:51.376859	163.2	43.7	-77.1	0.0
2025-01-25 07:30:53.624909	163.8	43.1	-77.6	0.0
2025-01-25 07:30:55.872414	164.4	42.6	-77.2	0.0
2025-01-25 07:30:58.120292	164.9	42.0	-77.0	0.0
2025-01-25 07:31:00.367584	165.5	41.4	-77.0	0.0
2025-01-25 07:31:02.616951	166.0	40.9	-76.9	0.0
2025-01-25 07:31:04.861596	166.5	40.4	-76.2	0.0
2025-01-25 07:31:07.108670	167.0	39.8	-76.6	0.0
2025-01-25 07:31:09.355009	167.4	39.3	-76.8	0.0
2025-01-25 07:31:11.603588	167.9	38.8	-76.8	0.0
2025-01-25 07:31:13.847538	168.3	38.3	-76.6	0.0
2025-01-25 07:31:16.095794	168.7	37.8	-76.9	0.0
2025-01-25 07:31:18.339005	169.2	37.3	-76.9	0.0
2025-01-25 07:31:20.585393	169.6	36.8	-76.7	0.0
2025-01-25 07:31:22.832521	169.9	36.3	-77.0	0.0
2025-01-25 07:31:25.074676	170.3	35.8	-76.4	0.0
2025-01-25 07:31:27.323020	170.7	35.3	-76.9	0.0
2025-01-25 07:31:29.569025	171.0	34.8	-76.5	0.0
2025-01-25 07:31:31.817224	171.4	34.4	-77.0	0.0
2025-01-25 07:31:34.063082	171.7	33.9	-76.9	0.0
2025-01-25 07:31:36.309960	172.1	33.4	-77.0	0.0
2025-01-25 07:31:38.553013	172.4	33.0	-77.4	0.0
2025-01-25 07:31:40.798070	172.7	32.5	-76.9	0.0
2025-01-25 07:31:43.041140	173.0	32.1	-77.0	0.0
2025-01-25 07:31:45.288258	173.3	31.7	-76.5	0.0
2025-01-25 07:31:47.534069	173.6	31.2	-77.1	0.0
2025-01-25 07:31:49.780052	173.9	30.8	-77.7	0.0
2025-01-25 07:31:52.027824	174.1	30.4	-77.1	0.0
2025-01-25 07:31:54.272277	174.4	30.0	-77.5	0.0
2025-01-25 07:31:56.518780	174.7	29.6	-77.3	0.0
2025-01-25 07:31:58.766162	174.9	29.2	-77.3	0.0
2025-01-25 07:32:01.008959	175.2	28.8	-77.6	0.0
2025-01-25 07:32:03.253542	175.4	28.4	-77.3	0.0
2025-01-25 07:32:05.498794	175.6	28.0	-77.7	0.0
2025-01-25 07:32:07.744360	175.9	27.6	-77.8	0.0
2025-01-25 07:32:09.992392	176.1	27.3	-77.4	0.0
2025-01-25 07:32:12.237326	176.3	26.9	-77.3	0.0
2025-01-25 07:32:14.482235	176.5	26.5	-77.6	0.0
2025-01-25 07:32:16.728798	176.7	26.2	-77.3	0.0
2025-01-25 07:32:18.970758	177.0	25.8	-77.5	0.0
2025-01-25 07:32:21.218409	177.2	25.4	-77.6	0.0
2025-01-25 07:32:23.465007	177.4	25.1	-77.4	0.0
2025-01-25 07:32:25.712237	177.6	24.7	-77.8	0.0
2025-01-25 07:32:27.961312	177.7	24.4	-76.5	0.0
2025-01-25 07:32:30.211105	177.9	24.1	-77.5	0.0
2025-01-25 07:32:32.456340	178.1	23.7	-77.4	0.0
2025-01-25 07:32:34.702341	178.3	23.4	-77.3	0.0
2025-01-25 07:32:36.945848	178.5	23.1	-77.7	0.0
2025-01-25 07:32:39.189927	178.6	22.8	-77.5	0.0
2025-01-25 07:32:41.438949	178.8	22.4	-77.3	0.0
2025-01-25 07:32:43.683293	179.0	22.1	-76.7	0.0
2025-01-25 07:32:45.931263	179.1	21.8	-77.0	0.0
2025-01-25 07:32:48.180928	179.3	21.5	-76.9	0.0
2025-01-25 07:32:50.427416	179.4	21.2	-77.1	0.0
2025-01-25 07:32:52.672005	179.6	20.9	-77.3	0.0
2025-01-25 07:32:54.922309	179.8	20.6	-77.7	0.0
2025-01-25 07:32:57.169269	179.9	20.3	-77.6	0.0
2025-01-25 07:32:59.414027	180.0	20.0	-77.4	0.0
2025-01-25 07:33:01.660171	180.2	19.7	-77.4	0.0
2025-01-25 07:33:03.906886	180.3	19.5	-77.3	0.0
2025-01-25 07:33:06.154411	180.5	19.2	-77.3	0.0
2025-01-25 07:33:08.402173	180.6	18.9	-77.4	0.0
2025-01-25 07:33:10.647743	180.7	18.6	-77.4	0.0
2025-01-25 07:33:12.896155	180.9	18.4	-77.5	0.0
2025-01-25 07:33:15.141468	181.0	18.1	-77.7	0.0
2025-01-25 07:33:17.387778	181.1	17.8	-77.5	0.0
2025-01-25 07:33:19.633022	181.2	17.6	-77.4	0.0
2025-01-25 07:33:21.881260	181.4	17.3	-77.3	0.0
2025-01-25 07:33:24.127232	181.5	17.0	-77.1	0.0
2025-01-25 07:33:26.372022	181.6	16.8	-77.0	0.0
2025-01-25 07:33:28.621320	181.7	16.5	-76.3	0.0
2025-01-25 07:33:30.867520	181.8	16.3	-77.7	0.0
2025-01-25 07:33:33.112765	181.9	16.0	-77.6	0.0
2025-01-25 07:33:35.357559	182.1	15.8	-77.2	0.0
2025-01-25 07:33:37.601892	182.2	15.5	-76.7	0.0
2025-01-25 07:33:39.849190	182.3	15.3	-77.3	0.0
2025-01-25 07:33:42.094097	182.4	15.1	-76.2	0.0
2025-01-25 07:33:44.338669	182.5	14.8	-76.6	0.0
2025-01-25 07:33:46.584090	182.6	14.6	-76.4	0.0
2025-01-25 07:33:48.832107	182.7	14.4	-77.7	0.0
2025-01-25 07:33:51.078218	182.8	14.1	-77.5	0.0
2025-01-25 07:33:53.325609	182.9	13.9	-77.7	0.0
2025-01-25 07:33:55.569854	183.0	13.7	-77.7	0.0
2025-01-25 07:33:57.817743	183.1	13.5	-77.2	0.0
2025-01-25 07:34:00.063546	183.2	13.2	-77.3	0.0
2025-01-25 07:34:02.308686	183.3	13.0	-77.3	0.0
2025-01-25 07:34:04.557389	183.4	12.8	-77.2	0.0
2025-01-25 07:34:06.802604	183.5	12.6	-77.1	0.0
2025-01-25 07:34:09.046912	183.5	12.4	-77.4	0.0
2025-01-25 07:34:11.294282	183.6	12.2	-77.7	0.0
2025-01-25 07:34:13.540096	183.7	12.0	-77.1	0.0
2025-01-25 07:34:15.786767	183.8	11.7	-76.4	0.0
2025-01-25 07:34:18.033291	183.9	11.5	-77.1	0.0
2025-01-25 07:34:20.280388	184.0	11.3	-76.4	0.0
2025-01-25 07:34:22.528346	184.1	11.1	-77.1	0.0
2025-01-25 07:34:24.773624	184.1	10.9	-77.2	0.0
2025-01-25 07:34:27.023776	184.2	10.7	-77.5	0.0
2025-01-25 07:34:29.269580	184.3	10.5	-77.2	0.0
2025-01-25 07:34:31.517791	184.4	10.3	-76.7	0.0
2025-01-25 07:34:33.761511	184.5	10.1	-77.7	0.0
#Closed at: 2025-01-25 07:23:50.896134