passes_logs/2025/01/25/planumMaritime01/planumMaritime01__20250125_173237_METEOR-M2_3_rec.log

#Pass ID: 20250125_173237_METEOR-M2 3
#Satellite: METEOR-M2 3
#Configuration: METEOR-M2 3
#Start time: 2025-01-25 17:32:42.568171

#LorettStation: 1.0.0 05.05.2024
#Station: planumMaritime01
#Location: 37.49445 lon 55.92918 lat
#TLE: 1 57166U 23091A   25024.73979728  .00000104  00000+0  64262-4 0  9993
#TLE: 2 57166  98.6834  83.0834 0003698 192.3596 167.7492 14.23971833 82155

#Time	Az	El	Level	SNR
2025-01-25 17:32:44.733301	152.2	10.2	-75.7	10.3
2025-01-25 17:32:46.980873	152.2	10.4	-75.3	10.0
2025-01-25 17:32:49.225221	152.1	10.6	-75.3	10.2
2025-01-25 17:32:51.472280	152.1	10.8	-75.8	10.0
2025-01-25 17:32:53.718633	152.0	11.0	-75.8	10.5
2025-01-25 17:32:55.964770	152.0	11.2	-74.9	10.3
2025-01-25 17:32:58.213364	152.0	11.4	-75.7	11.3
2025-01-25 17:33:00.457685	151.9	11.6	-75.4	10.6
2025-01-25 17:33:02.705669	151.9	11.8	-75.3	9.8
2025-01-25 17:33:04.951530	151.8	12.0	-75.2	9.9
2025-01-25 17:33:07.196525	151.8	12.3	-75.8	10.8
2025-01-25 17:33:09.443325	151.7	12.5	-76.0	10.4
2025-01-25 17:33:11.687235	151.7	12.7	-75.8	10.9
2025-01-25 17:33:13.931180	151.6	12.9	-75.9	11.2
2025-01-25 17:33:16.177118	151.6	13.1	-76.0	11.9
2025-01-25 17:33:18.422952	151.6	13.4	-76.2	11.5
2025-01-25 17:33:20.669514	151.5	13.6	-76.0	11.7
2025-01-25 17:33:22.914052	151.5	13.8	-76.0	10.9
2025-01-25 17:33:25.158901	151.4	14.0	-76.3	11.2
2025-01-25 17:33:27.405553	151.3	14.3	-76.1	10.8
2025-01-25 17:33:29.647098	151.3	14.5	-76.1	11.1
2025-01-25 17:33:31.894420	151.2	14.7	-75.9	12.1
2025-01-25 17:33:34.142902	151.2	15.0	-75.2	10.8
2025-01-25 17:33:36.390283	151.1	15.2	-75.6	11.0
2025-01-25 17:33:38.639230	151.1	15.5	-75.6	10.8
2025-01-25 17:33:40.884492	151.0	15.7	-76.1	11.5
2025-01-25 17:33:43.131220	151.0	16.0	-75.8	12.0
2025-01-25 17:33:45.377737	150.9	16.2	-75.4	11.5
2025-01-25 17:33:47.624804	150.8	16.5	-75.8	12.1
2025-01-25 17:33:49.870586	150.8	16.7	-75.9	11.8
2025-01-25 17:33:52.116748	150.7	17.0	-75.1	11.3
2025-01-25 17:33:54.363044	150.6	17.3	-75.1	11.5
2025-01-25 17:33:56.607877	150.6	17.5	-76.0	12.3
2025-01-25 17:33:58.852380	150.5	17.8	-75.7	10.4
2025-01-25 17:34:01.096763	150.4	18.1	-75.6	10.9
2025-01-25 17:34:03.346962	150.4	18.3	-75.5	10.3
2025-01-25 17:34:05.592405	150.3	18.6	-76.1	11.3
2025-01-25 17:34:07.838000	150.2	18.9	-76.0	10.8
2025-01-25 17:34:10.085885	150.2	19.2	-76.3	10.7
2025-01-25 17:34:12.331704	150.1	19.5	-75.9	9.8
2025-01-25 17:34:14.578468	150.0	19.8	-76.3	11.0
2025-01-25 17:34:16.824129	149.9	20.1	-76.2	10.7
2025-01-25 17:34:19.071529	149.8	20.4	-75.5	9.1
2025-01-25 17:34:21.318738	149.8	20.7	-76.0	9.6
2025-01-25 17:34:23.565786	149.7	21.0	-76.5	10.5
2025-01-25 17:34:25.815847	149.6	21.3	-76.5	10.2
2025-01-25 17:34:28.062256	149.5	21.6	-76.6	11.2
2025-01-25 17:34:30.308547	149.4	21.9	-76.7	9.5
2025-01-25 17:34:32.556732	149.3	22.2	-76.5	10.3
2025-01-25 17:34:34.804593	149.2	22.5	-76.9	9.6
2025-01-25 17:34:37.052635	149.1	22.9	-76.6	8.6
2025-01-25 17:34:39.298563	149.0	23.2	-76.5	7.4
2025-01-25 17:34:41.543783	148.9	23.5	-77.2	7.2
2025-01-25 17:34:43.789184	148.8	23.9	-76.7	5.7
2025-01-25 17:34:46.035149	148.7	24.2	-77.2	6.2
2025-01-25 17:34:48.282512	148.6	24.6	-76.6	5.2
2025-01-25 17:34:50.529766	148.5	24.9	-77.6	5.4
2025-01-25 17:34:52.774295	148.4	25.3	-77.8	4.3
2025-01-25 17:34:55.019567	148.3	25.7	-77.3	3.3
2025-01-25 17:34:57.263338	148.2	26.0	-78.2	3.3
2025-01-25 17:34:59.509417	148.0	26.4	-78.3	1.9
2025-01-25 17:35:01.756637	147.9	26.8	-78.0	2.2
2025-01-25 17:35:03.999703	147.8	27.2	-77.8	2.9
2025-01-25 17:35:06.245255	147.7	27.6	-78.1	2.0
2025-01-25 17:35:08.490434	147.5	27.9	-78.3	1.0
2025-01-25 17:35:10.733884	147.4	28.3	-78.6	0.0
2025-01-25 17:35:12.979963	147.2	28.8	-78.1	0.0
2025-01-25 17:35:15.226188	147.1	29.2	-77.9	0.0
2025-01-25 17:35:17.471907	146.9	29.6	-78.7	0.0
2025-01-25 17:35:19.716428	146.8	30.0	-78.8	0.0
2025-01-25 17:35:21.962463	146.6	30.4	-78.6	0.0
2025-01-25 17:35:24.209927	146.5	30.9	-78.7	0.0
2025-01-25 17:35:26.451692	146.3	31.3	-79.1	0.0
2025-01-25 17:35:28.697567	146.1	31.8	-79.3	0.0
2025-01-25 17:35:30.944363	146.0	32.2	-78.0	0.0
2025-01-25 17:35:33.191184	145.8	32.7	-78.5	0.0
2025-01-25 17:35:35.437790	145.6	33.2	-78.9	0.0
2025-01-25 17:35:37.686962	145.4	33.6	-78.5	0.0
2025-01-25 17:35:39.933278	145.2	34.1	-78.6	0.0
2025-01-25 17:35:42.176664	145.0	34.6	-78.7	0.0
2025-01-25 17:35:44.420819	144.8	35.1	-78.4	0.0
2025-01-25 17:35:46.668950	144.6	35.6	-78.8	0.0
2025-01-25 17:35:48.912333	144.3	36.1	-78.9	0.0
2025-01-25 17:35:51.157803	144.1	36.7	-79.3	0.0
2025-01-25 17:35:53.404540	143.9	37.2	-78.8	0.0
2025-01-25 17:35:55.651171	143.6	37.7	-78.3	0.0
2025-01-25 17:35:57.895739	143.3	38.3	-78.3	0.0
2025-01-25 17:36:00.138849	143.1	38.8	-78.8	0.0
2025-01-25 17:36:02.384621	142.8	39.4	-77.1	0.0
2025-01-25 17:36:04.630000	142.5	40.0	-78.3	0.0
2025-01-25 17:36:06.877302	142.2	40.5	-78.5	0.0
2025-01-25 17:36:09.124659	141.9	41.1	-79.0	0.0
2025-01-25 17:36:11.368502	141.6	41.7	-78.1	0.0
2025-01-25 17:36:13.617947	141.2	42.3	-78.7	0.0
2025-01-25 17:36:15.860678	140.9	43.0	-77.4	0.0
2025-01-25 17:36:18.107714	140.5	43.6	-78.5	0.0
2025-01-25 17:36:20.350614	140.2	44.2	-79.0	0.0
2025-01-25 17:36:22.595297	139.8	44.9	-78.4	0.0
2025-01-25 17:36:24.843006	139.4	45.5	-79.2	0.0
2025-01-25 17:36:27.090680	138.9	46.2	-78.3	0.0
2025-01-25 17:36:29.335664	138.5	46.8	-79.3	0.0
2025-01-25 17:36:31.579724	138.0	47.5	-79.5	0.0
2025-01-25 17:36:33.826402	137.6	48.2	-78.8	0.0
2025-01-25 17:36:36.073553	137.0	48.9	-79.1	0.0
2025-01-25 17:36:38.320070	136.5	49.6	-79.1	0.0
2025-01-25 17:36:40.564346	136.0	50.3	-79.4	0.0
2025-01-25 17:36:42.809523	135.4	51.0	-79.6	0.0
2025-01-25 17:36:45.056567	134.8	51.8	-79.6	0.0
2025-01-25 17:36:47.298233	134.1	52.5	-79.4	0.0
2025-01-25 17:36:49.541785	133.4	53.2	-79.2	0.0
2025-01-25 17:36:51.787620	132.7	54.0	-79.3	0.0
2025-01-25 17:36:54.034032	132.0	54.7	-79.3	0.0
2025-01-25 17:36:56.282873	131.2	55.5	-79.3	0.0
2025-01-25 17:36:58.531028	130.3	56.3	-79.1	0.0
2025-01-25 17:37:00.777347	129.5	57.1	-79.5	0.0
2025-01-25 17:37:03.022908	128.5	57.8	-79.2	0.0
2025-01-25 17:37:05.266802	127.5	58.6	-78.7	0.0
2025-01-25 17:37:07.511425	126.5	59.4	-79.5	0.0
2025-01-25 17:37:09.759040	125.4	60.2	-78.6	0.0
2025-01-25 17:37:12.004346	124.2	60.9	-79.3	0.0
2025-01-25 17:37:14.249497	122.9	61.7	-78.6	0.0
2025-01-25 17:37:16.492690	121.5	62.5	-78.9	0.0
2025-01-25 17:37:18.739059	120.1	63.3	-78.9	0.0
2025-01-25 17:37:20.984470	118.6	64.0	-79.2	0.0
2025-01-25 17:37:23.231980	116.9	64.8	-79.1	0.0
2025-01-25 17:37:25.479966	115.2	65.5	-79.8	0.0
2025-01-25 17:37:27.729204	113.3	66.2	-79.5	0.0
2025-01-25 17:37:29.975439	111.3	66.9	-79.6	0.0
2025-01-25 17:37:32.220469	109.2	67.6	-79.4	0.0
2025-01-25 17:37:34.465011	106.9	68.3	-78.9	0.0
2025-01-25 17:37:36.713031	104.5	68.9	-79.5	0.0
2025-01-25 17:37:38.960239	101.9	69.5	-78.9	0.0
2025-01-25 17:37:41.205627	99.1	70.0	-79.4	0.0
2025-01-25 17:37:43.450365	96.2	70.6	-79.5	0.0
2025-01-25 17:37:45.695955	93.2	71.0	-79.4	0.0
2025-01-25 17:37:47.941994	89.9	71.4	-79.6	0.0
2025-01-25 17:37:50.189490	86.6	71.8	-79.5	0.0
2025-01-25 17:37:52.438479	83.1	72.1	-79.7	0.0
2025-01-25 17:37:54.682758	79.5	72.3	-79.4	0.0
2025-01-25 17:37:56.930855	75.8	72.5	-79.3	0.0
2025-01-25 17:37:59.176687	72.0	72.6	-79.2	0.0
2025-01-25 17:38:01.423008	68.3	72.6	-79.5	0.0
2025-01-25 17:38:03.668161	64.5	72.5	-79.7	0.0
2025-01-25 17:38:05.911987	60.8	72.4	-79.4	0.0
2025-01-25 17:38:08.152402	57.1	72.2	-78.8	0.0
2025-01-25 17:38:10.398438	53.6	72.0	-79.3	0.0
2025-01-25 17:38:12.644647	50.1	71.6	-79.7	0.0
2025-01-25 17:38:14.890863	46.8	71.2	-79.9	0.0
2025-01-25 17:38:17.137033	43.7	70.8	-79.6	0.0
2025-01-25 17:38:19.382775	40.7	70.3	-79.3	0.0
2025-01-25 17:38:21.627069	37.9	69.8	-79.4	0.0
2025-01-25 17:38:23.871675	35.2	69.2	-79.5	0.0
2025-01-25 17:38:26.114693	32.7	68.6	-79.0	0.0
2025-01-25 17:38:28.363750	30.3	68.0	-79.4	0.0
2025-01-25 17:38:30.611647	28.1	67.3	-79.2	0.0
2025-01-25 17:38:32.854370	26.0	66.6	-79.2	0.0
2025-01-25 17:38:35.100865	24.1	65.9	-79.0	0.0
2025-01-25 17:38:37.346050	22.3	65.2	-79.5	0.0
2025-01-25 17:38:39.590326	20.6	64.4	-79.4	0.0
2025-01-25 17:38:41.837911	19.0	63.7	-79.3	0.0
2025-01-25 17:38:44.083291	17.5	62.9	-79.6	0.0
2025-01-25 17:38:46.328809	16.1	62.2	-78.7	0.0
2025-01-25 17:38:48.573168	14.8	61.4	-79.4	0.0
2025-01-25 17:38:50.820604	13.6	60.6	-79.3	0.0
2025-01-25 17:38:53.069466	12.4	59.8	-79.0	0.0
2025-01-25 17:38:55.317904	11.3	59.1	-79.2	0.0
2025-01-25 17:38:57.564534	10.3	58.3	-78.7	0.0
2025-01-25 17:38:59.811385	9.3	57.5	-79.2	0.0
2025-01-25 17:39:02.060541	8.4	56.7	-78.9	0.0
2025-01-25 17:39:04.304302	7.6	56.0	-78.5	0.0
2025-01-25 17:39:06.550743	6.7	55.2	-79.2	0.0
2025-01-25 17:39:08.797815	6.0	54.4	-79.0	0.0
2025-01-25 17:39:11.043394	5.2	53.7	-78.4	0.0
2025-01-25 17:39:13.289465	4.5	52.9	-79.4	0.0
2025-01-25 17:39:15.535214	3.9	52.2	-79.3	0.0
2025-01-25 17:39:17.780197	3.2	51.5	-79.1	0.0
2025-01-25 17:39:20.024800	2.6	50.8	-79.7	0.0
2025-01-25 17:39:22.273139	2.1	50.0	-79.7	0.0
2025-01-25 17:39:24.520474	1.5	49.3	-79.4	0.0
2025-01-25 17:39:26.765962	1.0	48.6	-79.4	0.0
2025-01-25 17:39:29.009259	0.5	47.9	-79.2	0.0
2025-01-25 17:39:31.255003	0.0	47.3	-79.3	0.0
2025-01-25 17:39:33.500146	359.6	46.6	-78.9	0.0
2025-01-25 17:39:35.746357	359.2	45.9	-79.1	0.0
2025-01-25 17:39:37.992953	358.7	45.3	-79.7	0.0
2025-01-25 17:39:40.237855	358.3	44.6	-79.3	0.0
2025-01-25 17:39:42.487386	358.0	44.0	-79.5	0.0
2025-01-25 17:39:44.730759	357.6	43.4	-79.5	0.0
2025-01-25 17:39:46.979551	357.2	42.7	-79.4	0.0
2025-01-25 17:39:49.222760	356.9	42.1	-79.7	0.0
2025-01-25 17:39:51.468910	356.6	41.5	-78.0	0.0
2025-01-25 17:39:53.717410	356.3	40.9	-79.2	0.0
2025-01-25 17:39:55.963972	356.0	40.4	-79.4	0.0
2025-01-25 17:39:58.210373	355.7	39.8	-79.4	0.0
2025-01-25 17:40:00.456001	355.4	39.2	-79.5	0.0
2025-01-25 17:40:02.703124	355.1	38.7	-79.5	0.0
2025-01-25 17:40:04.951053	354.8	38.1	-78.6	0.0
2025-01-25 17:40:07.195534	354.6	37.6	-78.6	0.0
2025-01-25 17:40:09.441797	354.3	37.0	-79.3	0.0
2025-01-25 17:40:11.687216	354.1	36.5	-79.3	0.0
2025-01-25 17:40:13.931604	353.9	36.0	-79.0	0.0
2025-01-25 17:40:16.175310	353.7	35.5	-79.0	0.0
2025-01-25 17:40:18.423158	353.4	35.0	-78.9	0.0
2025-01-25 17:40:20.669879	353.2	34.5	-79.5	0.0
2025-01-25 17:40:22.915185	353.0	34.0	-79.3	0.0
2025-01-25 17:40:25.162229	352.8	33.5	-79.5	0.0
2025-01-25 17:40:27.408189	352.6	33.0	-78.9	0.0
2025-01-25 17:40:29.652876	352.5	32.6	-79.4	0.0
2025-01-25 17:40:31.898925	352.3	32.1	-79.5	0.0
2025-01-25 17:40:34.143668	352.1	31.7	-79.6	0.0
2025-01-25 17:40:36.388566	351.9	31.2	-79.4	0.0
2025-01-25 17:40:38.634917	351.8	30.8	-79.3	0.0
2025-01-25 17:40:40.883399	351.6	30.4	-79.5	0.0
2025-01-25 17:40:43.131576	351.5	29.9	-79.7	0.0
2025-01-25 17:40:45.376864	351.3	29.5	-78.2	0.0
2025-01-25 17:40:47.623855	351.2	29.1	-79.6	0.0
2025-01-25 17:40:49.870753	351.0	28.7	-79.3	0.0
2025-01-25 17:40:52.117119	350.9	28.3	-79.6	0.0
2025-01-25 17:40:54.359862	350.7	27.9	-79.4	0.0
2025-01-25 17:40:56.607588	350.6	27.5	-79.6	0.0
2025-01-25 17:40:58.854471	350.5	27.1	-79.7	0.0
2025-01-25 17:41:01.099139	350.4	26.7	-79.7	0.0
2025-01-25 17:41:03.348006	350.2	26.3	-79.3	0.0
2025-01-25 17:41:05.594536	350.1	26.0	-78.9	0.0
2025-01-25 17:41:07.840802	350.0	25.6	-79.7	0.0
2025-01-25 17:41:10.085793	349.9	25.2	-79.1	0.0
2025-01-25 17:41:12.329049	349.8	24.9	-79.4	0.0
2025-01-25 17:41:14.577320	349.7	24.5	-79.4	0.0
2025-01-25 17:41:16.823409	349.6	24.2	-79.3	0.0
2025-01-25 17:41:19.068109	349.5	23.9	-79.1	0.0
2025-01-25 17:41:21.311337	349.4	23.5	-79.1	0.0
2025-01-25 17:41:23.556278	349.3	23.2	-79.0	0.0
2025-01-25 17:41:25.801677	349.2	22.9	-79.5	0.0
2025-01-25 17:41:28.049393	349.1	22.5	-79.3	0.0
2025-01-25 17:41:30.291528	349.0	22.2	-79.8	0.0
2025-01-25 17:41:32.539593	348.9	21.9	-79.7	0.0
2025-01-25 17:41:34.788971	348.8	21.6	-79.1	0.0
2025-01-25 17:41:37.035175	348.7	21.3	-79.0	0.0
2025-01-25 17:41:39.281086	348.6	21.0	-79.3	0.0
2025-01-25 17:41:41.528432	348.6	20.7	-79.3	0.0
2025-01-25 17:41:43.774270	348.5	20.4	-79.4	0.0
2025-01-25 17:41:46.020852	348.4	20.1	-79.2	0.0
2025-01-25 17:41:48.264637	348.3	19.8	-79.2	0.0
2025-01-25 17:41:50.508827	348.3	19.5	-79.0	0.0
2025-01-25 17:41:52.753708	348.2	19.2	-78.9	0.0
2025-01-25 17:41:54.999141	348.1	18.9	-79.6	0.0
2025-01-25 17:41:57.244639	348.0	18.6	-79.0	0.0
2025-01-25 17:41:59.490730	348.0	18.4	-79.3	0.0
2025-01-25 17:42:01.738538	347.9	18.1	-79.6	0.0
2025-01-25 17:42:03.984520	347.8	17.8	-79.5	0.0
2025-01-25 17:42:06.226807	347.8	17.5	-80.1	0.0
2025-01-25 17:42:08.472461	347.7	17.3	-78.6	0.0
2025-01-25 17:42:10.717288	347.6	17.0	-79.0	0.0
2025-01-25 17:42:12.963373	347.6	16.8	-78.9	0.0
2025-01-25 17:42:15.208738	347.5	16.5	-79.5	0.0
2025-01-25 17:42:17.453487	347.5	16.3	-79.6	0.0
2025-01-25 17:42:19.700034	347.4	16.0	-79.4	0.0
2025-01-25 17:42:21.952875	347.3	15.8	-79.3	0.0
2025-01-25 17:42:24.201193	347.3	15.5	-78.8	0.0
2025-01-25 17:42:26.445321	347.2	15.3	-79.6	0.0
2025-01-25 17:42:28.688517	347.2	15.0	-79.6	0.0
2025-01-25 17:42:30.936243	347.1	14.8	-79.7	0.0
2025-01-25 17:42:33.183236	347.1	14.6	-79.6	0.0
2025-01-25 17:42:35.426797	347.0	14.3	-79.2	0.0
2025-01-25 17:42:37.672477	347.0	14.1	-79.6	0.0
2025-01-25 17:42:39.918455	346.9	13.9	-80.1	0.0
2025-01-25 17:42:42.163352	346.9	13.6	-79.6	0.0
2025-01-25 17:42:44.407389	346.8	13.4	-79.5	0.0
2025-01-25 17:42:46.651869	346.8	13.2	-79.8	0.0
2025-01-25 17:42:48.896471	346.7	13.0	-79.6	0.0
2025-01-25 17:42:51.142937	346.7	12.7	-79.7	0.0
2025-01-25 17:42:53.390779	346.7	12.5	-79.5	0.0
2025-01-25 17:42:55.636152	346.6	12.3	-79.2	0.0
2025-01-25 17:42:57.880674	346.6	12.1	-78.9	0.0
2025-01-25 17:43:00.125730	346.5	11.9	-79.4	0.0
2025-01-25 17:43:02.372025	346.5	11.7	-79.1	0.0
2025-01-25 17:43:04.616096	346.4	11.5	-79.7	0.0
2025-01-25 17:43:06.860758	346.4	11.3	-79.3	0.0
2025-01-25 17:43:09.106154	346.4	11.1	-79.8	0.0
2025-01-25 17:43:11.351994	346.3	10.9	-79.9	0.0
2025-01-25 17:43:13.599526	346.3	10.7	-79.1	0.0
2025-01-25 17:43:15.849238	346.3	10.5	-79.7	0.0
2025-01-25 17:43:18.096418	346.2	10.3	-80.0	0.0
2025-01-25 17:43:20.344198	346.2	10.1	-79.8	0.0
#Closed at: 2025-01-25 17:32:37.572143