passes_logs/2025/01/25/planumMaritime01/planumMaritime01__20250125_005411_METEOR-M2_4_rec.log

#Pass ID: 20250125_005411_METEOR-M2 4
#Satellite: METEOR-M2 4
#Configuration: METEOR-M2 4
#Start time: 2025-01-25 00:54:16.426559

#LorettStation: 1.0.0 05.05.2024
#Station: planumMaritime01
#Location: 37.49445 lon 55.92918 lat
#TLE: 1 59051U 24039A   25024.80620376  .00000158  00000+0  90320-4 0  9994
#TLE: 2 59051  98.6306 347.6099 0006657 193.6447 166.4552 14.22328660 46991

#Time	Az	El	Level	SNR
2025-01-25 00:54:18.591608	19.3	10.2	-77.7	0.0
2025-01-25 00:54:20.835181	19.3	10.4	-77.9	0.0
2025-01-25 00:54:23.083837	19.4	10.6	-78.3	0.0
2025-01-25 00:54:25.329576	19.4	10.8	-78.2	0.0
2025-01-25 00:54:27.574115	19.5	11.0	-78.3	0.0
2025-01-25 00:54:29.820521	19.5	11.2	-78.2	0.0
2025-01-25 00:54:32.067091	19.6	11.4	-78.4	0.0
2025-01-25 00:54:34.314497	19.6	11.6	-78.0	0.0
2025-01-25 00:54:36.557996	19.7	11.8	-78.4	0.0
2025-01-25 00:54:38.803880	19.8	12.0	-78.2	0.0
2025-01-25 00:54:41.050273	19.8	12.2	-78.2	0.0
2025-01-25 00:54:43.296763	19.9	12.4	-78.5	0.0
2025-01-25 00:54:45.544575	19.9	12.6	-78.6	0.0
2025-01-25 00:54:47.790408	20.0	12.9	-78.3	0.0
2025-01-25 00:54:50.038248	20.1	13.1	-78.2	0.0
2025-01-25 00:54:52.285182	20.1	13.3	-78.6	0.0
2025-01-25 00:54:54.529269	20.2	13.5	-78.3	0.0
2025-01-25 00:54:56.772328	20.2	13.7	-78.6	0.0
2025-01-25 00:54:59.019565	20.3	14.0	-78.6	0.0
2025-01-25 00:55:01.266802	20.4	14.2	-78.5	0.0
2025-01-25 00:55:03.513280	20.4	14.4	-78.8	0.0
2025-01-25 00:55:05.762066	20.5	14.7	-78.8	0.0
2025-01-25 00:55:08.010029	20.6	14.9	-78.4	0.0
2025-01-25 00:55:10.256489	20.6	15.1	-78.8	0.0
2025-01-25 00:55:12.502664	20.7	15.4	-78.8	0.0
2025-01-25 00:55:14.746925	20.8	15.6	-78.8	0.0
2025-01-25 00:55:16.989701	20.9	15.9	-78.4	0.0
2025-01-25 00:55:19.234256	20.9	16.1	-78.4	0.0
2025-01-25 00:55:21.481555	21.0	16.4	-78.6	0.0
2025-01-25 00:55:23.725319	21.1	16.6	-78.8	0.0
2025-01-25 00:55:25.971583	21.2	16.9	-78.9	0.0
2025-01-25 00:55:28.219606	21.2	17.1	-78.1	0.0
2025-01-25 00:55:30.463286	21.3	17.4	-78.7	0.0
2025-01-25 00:55:32.710945	21.4	17.6	-78.5	0.0
2025-01-25 00:55:34.955950	21.5	17.9	-78.6	0.0
2025-01-25 00:55:37.200302	21.6	18.2	-78.5	0.0
2025-01-25 00:55:39.446177	21.6	18.4	-78.8	0.0
2025-01-25 00:55:41.693750	21.7	18.7	-78.7	0.0
2025-01-25 00:55:43.938122	21.8	19.0	-78.6	0.0
2025-01-25 00:55:46.187768	21.9	19.3	-78.4	0.0
2025-01-25 00:55:48.431740	22.0	19.6	-78.1	0.0
2025-01-25 00:55:50.675994	22.1	19.9	-78.6	0.0
2025-01-25 00:55:52.922074	22.2	20.1	-78.6	0.0
2025-01-25 00:55:55.168645	22.3	20.4	-78.8	0.0
2025-01-25 00:55:57.413407	22.4	20.7	-78.6	0.0
2025-01-25 00:55:59.658858	22.5	21.0	-78.9	0.0
2025-01-25 00:56:01.906144	22.6	21.3	-78.8	0.0
2025-01-25 00:56:04.150965	22.7	21.6	-78.7	0.0
2025-01-25 00:56:06.397785	22.8	22.0	-78.8	0.0
2025-01-25 00:56:08.643608	22.9	22.3	-78.1	0.0
2025-01-25 00:56:10.890696	23.0	22.6	-78.6	0.0
2025-01-25 00:56:13.133981	23.1	22.9	-79.0	0.0
2025-01-25 00:56:15.378816	23.2	23.2	-78.8	0.0
2025-01-25 00:56:17.627698	23.3	23.6	-79.1	0.0
2025-01-25 00:56:19.871558	23.4	23.9	-79.0	0.0
2025-01-25 00:56:22.118600	23.6	24.3	-79.2	0.0
2025-01-25 00:56:24.367859	23.7	24.6	-79.0	0.0
2025-01-25 00:56:26.614314	23.8	24.9	-78.8	0.0
2025-01-25 00:56:28.859638	23.9	25.3	-78.3	0.0
2025-01-25 00:56:31.104963	24.1	25.7	-79.0	0.0
2025-01-25 00:56:33.353485	24.2	26.0	-79.0	0.0
2025-01-25 00:56:35.599564	24.3	26.4	-78.5	0.0
2025-01-25 00:56:37.842581	24.5	26.8	-79.0	0.0
2025-01-25 00:56:40.088151	24.6	27.1	-78.7	0.0
2025-01-25 00:56:42.330808	24.7	27.5	-78.5	0.0
2025-01-25 00:56:44.577611	24.9	27.9	-79.0	0.0
2025-01-25 00:56:46.825072	25.0	28.3	-78.8	0.0
2025-01-25 00:56:49.069263	25.2	28.7	-78.0	0.0
2025-01-25 00:56:51.316320	25.3	29.1	-78.8	0.0
2025-01-25 00:56:53.561918	25.5	29.5	-78.8	0.0
2025-01-25 00:56:55.808820	25.7	29.9	-78.7	0.0
2025-01-25 00:56:58.054580	25.8	30.4	-79.0	0.0
2025-01-25 00:57:00.296702	26.0	30.8	-79.2	0.0
2025-01-25 00:57:02.544784	26.2	31.2	-79.1	0.0
2025-01-25 00:57:04.788744	26.4	31.7	-79.0	0.0
2025-01-25 00:57:07.036494	26.6	32.1	-78.9	0.0
2025-01-25 00:57:09.282647	26.8	32.6	-78.6	0.0
2025-01-25 00:57:11.527324	27.0	33.0	-78.7	0.0
2025-01-25 00:57:13.772890	27.2	33.5	-78.9	0.0
2025-01-25 00:57:16.021996	27.4	34.0	-78.8	0.0
2025-01-25 00:57:18.267304	27.6	34.5	-78.9	0.0
2025-01-25 00:57:20.513795	27.8	35.0	-79.1	0.0
2025-01-25 00:57:22.759776	28.0	35.5	-78.9	0.0
2025-01-25 00:57:25.010166	28.3	36.0	-79.1	0.0
2025-01-25 00:57:27.256073	28.5	36.5	-79.2	0.0
2025-01-25 00:57:29.501469	28.8	37.0	-78.4	0.0
2025-01-25 00:57:31.743217	29.0	37.5	-79.0	0.0
2025-01-25 00:57:33.990880	29.3	38.1	-79.1	0.0
2025-01-25 00:57:36.236916	29.6	38.6	-79.0	0.0
2025-01-25 00:57:38.484059	29.8	39.2	-79.2	0.0
2025-01-25 00:57:40.732231	30.1	39.7	-79.4	0.0
2025-01-25 00:57:42.974799	30.4	40.3	-79.4	0.0
2025-01-25 00:57:45.221887	30.8	40.9	-79.2	0.0
2025-01-25 00:57:47.469607	31.1	41.5	-79.1	0.0
2025-01-25 00:57:49.717551	31.4	42.0	-78.5	0.0
2025-01-25 00:57:51.966489	31.8	42.7	-79.3	0.0
2025-01-25 00:57:54.210749	32.1	43.3	-79.4	0.0
2025-01-25 00:57:56.456971	32.5	43.9	-79.0	0.0
2025-01-25 00:57:58.702576	32.9	44.5	-79.2	0.0
2025-01-25 00:58:00.948818	33.3	45.2	-79.2	0.0
2025-01-25 00:58:03.194430	33.7	45.8	-79.2	0.0
2025-01-25 00:58:05.440834	34.2	46.5	-79.1	0.0
2025-01-25 00:58:07.686168	34.6	47.1	-79.4	0.0
2025-01-25 00:58:09.931752	35.1	47.8	-78.3	0.0
2025-01-25 00:58:12.179898	35.6	48.5	-79.3	0.0
2025-01-25 00:58:14.426017	36.1	49.2	-79.2	0.0
2025-01-25 00:58:16.670931	36.7	49.9	-79.4	0.0
2025-01-25 00:58:18.915619	37.3	50.6	-79.3	0.0
2025-01-25 00:58:21.159172	37.9	51.3	-79.0	0.0
2025-01-25 00:58:23.404760	38.5	52.0	-79.4	0.0
2025-01-25 00:58:25.650080	39.1	52.8	-79.2	0.0
2025-01-25 00:58:27.894028	39.8	53.5	-78.9	0.0
2025-01-25 00:58:30.139767	40.6	54.2	-78.3	0.0
2025-01-25 00:58:32.386276	41.3	55.0	-79.0	0.0
2025-01-25 00:58:34.630881	42.1	55.7	-79.1	0.0
2025-01-25 00:58:36.877556	43.0	56.5	-79.3	0.0
2025-01-25 00:58:39.122935	43.9	57.3	-79.3	0.0
2025-01-25 00:58:41.370162	44.9	58.0	-79.3	0.0
2025-01-25 00:58:43.614949	45.9	58.8	-79.1	0.0
2025-01-25 00:58:45.861760	46.9	59.6	-79.3	0.0
2025-01-25 00:58:48.109724	48.1	60.4	-79.4	0.0
2025-01-25 00:58:50.353290	49.3	61.1	-78.5	0.0
2025-01-25 00:58:52.596951	50.6	61.9	-79.2	0.0
2025-01-25 00:58:54.845643	51.9	62.7	-78.9	0.0
2025-01-25 00:58:57.091288	53.4	63.4	-79.1	0.0
2025-01-25 00:58:59.334189	54.9	64.2	-79.1	0.0
2025-01-25 00:59:01.579174	56.6	64.9	-79.2	0.0
2025-01-25 00:59:03.823965	58.4	65.7	-79.3	0.0
2025-01-25 00:59:06.069244	60.2	66.4	-79.1	0.0
2025-01-25 00:59:08.316028	62.3	67.1	-79.2	0.0
2025-01-25 00:59:10.559437	64.4	67.8	-78.1	0.0
2025-01-25 00:59:12.805015	66.7	68.4	-79.1	0.0
2025-01-25 00:59:15.052291	69.2	69.0	-79.1	0.0
2025-01-25 00:59:17.297405	71.8	69.6	-79.2	0.0
2025-01-25 00:59:19.542657	74.5	70.2	-79.3	0.0
2025-01-25 00:59:21.787364	77.4	70.7	-79.4	0.0
2025-01-25 00:59:24.034893	80.5	71.1	-79.4	0.0
2025-01-25 00:59:26.280994	83.8	71.5	-79.4	0.0
2025-01-25 00:59:28.526647	87.1	71.9	-79.3	0.0
2025-01-25 00:59:30.771654	90.6	72.2	-78.5	0.0
2025-01-25 00:59:33.019529	94.3	72.4	-79.2	0.0
2025-01-25 00:59:35.265100	98.0	72.6	-79.3	0.0
2025-01-25 00:59:37.509312	101.7	72.6	-79.4	0.0
2025-01-25 00:59:39.756322	105.5	72.7	-79.2	0.0
2025-01-25 00:59:42.002110	109.3	72.6	-79.3	0.0
2025-01-25 00:59:44.248303	113.0	72.5	-79.3	0.0
2025-01-25 00:59:46.496300	116.7	72.3	-79.3	0.0
2025-01-25 00:59:48.742814	120.3	72.0	-79.1	0.0
2025-01-25 00:59:50.992003	123.7	71.7	-78.3	0.0
2025-01-25 00:59:53.236112	127.0	71.3	-79.2	0.0
2025-01-25 00:59:55.480964	130.2	70.9	-79.3	0.0
2025-01-25 00:59:57.727068	133.2	70.4	-79.1	0.0
2025-01-25 00:59:59.972839	136.0	69.9	-79.0	0.0
2025-01-25 01:00:02.218604	138.7	69.3	-79.1	0.0
2025-01-25 01:00:04.465237	141.2	68.7	-79.2	0.0
2025-01-25 01:00:06.713005	143.6	68.1	-79.3	0.0
2025-01-25 01:00:08.957890	145.8	67.4	-79.0	0.0
2025-01-25 01:00:11.203084	147.9	66.7	-78.4	0.0
2025-01-25 01:00:13.449258	149.9	66.0	-79.4	0.0
2025-01-25 01:00:15.694769	151.7	65.3	-79.3	0.0
2025-01-25 01:00:17.943504	153.4	64.5	-79.3	0.0
2025-01-25 01:00:20.188015	155.0	63.8	-79.4	0.0
2025-01-25 01:00:22.431471	156.5	63.0	-79.3	0.0
2025-01-25 01:00:24.677822	157.9	62.3	-79.5	0.0
2025-01-25 01:00:26.924116	159.3	61.5	-79.5	0.0
2025-01-25 01:00:29.169575	160.5	60.7	-79.2	0.0
2025-01-25 01:00:31.416372	161.7	59.9	-78.7	0.0
2025-01-25 01:00:33.662583	162.8	59.2	-79.4	0.0
2025-01-25 01:00:35.911280	163.8	58.4	-79.5	0.0
2025-01-25 01:00:38.155310	164.8	57.6	-79.0	0.0
2025-01-25 01:00:40.399947	165.7	56.8	-79.1	0.0
2025-01-25 01:00:42.646428	166.6	56.1	-79.3	0.0
2025-01-25 01:00:44.889519	167.4	55.3	-79.3	0.0
2025-01-25 01:00:47.136110	168.2	54.5	-79.0	0.0
2025-01-25 01:00:49.382502	169.0	53.8	-79.1	0.0
2025-01-25 01:00:51.625685	169.7	53.0	-79.2	0.0
2025-01-25 01:00:53.869786	170.4	52.3	-79.5	0.0
2025-01-25 01:00:56.118095	171.0	51.6	-79.4	0.0
2025-01-25 01:00:58.364672	171.6	50.8	-79.3	0.0
2025-01-25 01:01:00.613182	172.2	50.1	-79.4	0.0
2025-01-25 01:01:02.858009	172.8	49.4	-79.4	0.0
2025-01-25 01:01:05.101496	173.3	48.7	-79.4	0.0
2025-01-25 01:01:07.351109	173.8	48.0	-79.3	0.0
2025-01-25 01:01:09.595727	174.3	47.3	-79.4	0.0
2025-01-25 01:01:11.840283	174.8	46.7	-79.5	0.0
2025-01-25 01:01:14.084964	175.2	46.0	-79.4	0.0
2025-01-25 01:01:16.330950	175.7	45.4	-79.3	0.0
2025-01-25 01:01:18.578606	176.1	44.7	-79.0	0.0
2025-01-25 01:01:20.823148	176.5	44.1	-78.5	0.0
2025-01-25 01:01:23.068720	176.9	43.4	-79.0	0.0
2025-01-25 01:01:25.310100	177.2	42.8	-79.2	0.0
2025-01-25 01:01:27.555238	177.6	42.2	-78.9	0.0
2025-01-25 01:01:29.800395	177.9	41.6	-79.1	0.0
2025-01-25 01:01:32.046826	178.2	41.0	-78.9	0.0
2025-01-25 01:01:34.292185	178.6	40.4	-78.9	0.0
2025-01-25 01:01:36.537375	178.9	39.9	-78.8	0.0
2025-01-25 01:01:38.783202	179.2	39.3	-78.7	0.0
2025-01-25 01:01:41.026527	179.5	38.7	-79.0	0.0
2025-01-25 01:01:43.271522	179.7	38.2	-79.1	0.0
2025-01-25 01:01:45.518631	180.0	37.6	-79.0	0.0
2025-01-25 01:01:47.764109	180.3	37.1	-79.2	0.0
2025-01-25 01:01:50.010040	180.5	36.6	-78.8	0.0
2025-01-25 01:01:52.255026	180.8	36.0	-79.0	0.0
2025-01-25 01:01:54.501590	181.0	35.5	-78.9	0.0
2025-01-25 01:01:56.746793	181.2	35.0	-79.2	0.0
2025-01-25 01:01:58.991266	181.5	34.5	-78.9	0.0
2025-01-25 01:02:01.237297	181.7	34.0	-79.2	0.0
2025-01-25 01:02:03.482091	181.9	33.6	-79.3	0.0
2025-01-25 01:02:05.726776	182.1	33.1	-79.4	0.0
2025-01-25 01:02:07.973836	182.3	32.6	-79.1	0.0
2025-01-25 01:02:10.220937	182.5	32.2	-79.4	0.0
2025-01-25 01:02:12.467011	182.7	31.7	-79.3	0.0
2025-01-25 01:02:14.715131	182.9	31.3	-79.1	0.0
2025-01-25 01:02:16.962627	183.0	30.8	-78.4	0.0
2025-01-25 01:02:19.206693	183.2	30.4	-79.5	0.0
2025-01-25 01:02:21.452897	183.4	30.0	-79.4	0.0
2025-01-25 01:02:23.698679	183.6	29.5	-79.2	0.0
2025-01-25 01:02:25.942708	183.7	29.1	-79.6	0.0
2025-01-25 01:02:28.190010	183.9	28.7	-79.7	0.0
2025-01-25 01:02:30.436299	184.0	28.3	-79.4	0.0
2025-01-25 01:02:32.682156	184.2	27.9	-79.5	0.0
2025-01-25 01:02:34.930143	184.3	27.5	-79.5	0.0
2025-01-25 01:02:37.174791	184.5	27.1	-79.3	0.0
2025-01-25 01:02:39.423118	184.6	26.7	-79.5	0.0
2025-01-25 01:02:41.671032	184.7	26.4	-79.2	0.0
2025-01-25 01:02:43.918485	184.9	26.0	-79.4	0.0
2025-01-25 01:02:46.164732	185.0	25.6	-79.4	0.0
2025-01-25 01:02:48.410589	185.1	25.3	-79.5	0.0
2025-01-25 01:02:50.657269	185.3	24.9	-79.3	0.0
2025-01-25 01:02:52.904362	185.4	24.5	-78.9	0.0
2025-01-25 01:02:55.151806	185.5	24.2	-79.1	0.0
2025-01-25 01:02:57.402311	185.6	23.8	-78.9	0.0
2025-01-25 01:02:59.647561	185.7	23.5	-78.7	0.0
2025-01-25 01:03:01.894971	185.9	23.2	-78.9	0.0
2025-01-25 01:03:04.141865	186.0	22.8	-78.7	0.0
2025-01-25 01:03:06.390280	186.1	22.5	-79.4	0.0
2025-01-25 01:03:08.635252	186.2	22.2	-79.0	0.0
2025-01-25 01:03:10.880952	186.3	21.9	-79.1	0.0
2025-01-25 01:03:13.127262	186.4	21.6	-79.0	0.0
2025-01-25 01:03:15.371932	186.5	21.2	-79.2	0.0
2025-01-25 01:03:17.619429	186.6	20.9	-78.8	0.0
2025-01-25 01:03:19.865658	186.7	20.6	-79.2	0.0
2025-01-25 01:03:22.111958	186.8	20.3	-79.4	0.0
2025-01-25 01:03:24.355409	186.9	20.0	-79.1	0.0
2025-01-25 01:03:26.602493	187.0	19.7	-79.0	0.0
2025-01-25 01:03:28.846982	187.1	19.5	-79.1	0.0
2025-01-25 01:03:31.091715	187.2	19.2	-79.3	0.0
2025-01-25 01:03:33.337802	187.2	18.9	-79.3	0.0
2025-01-25 01:03:35.585580	187.3	18.6	-79.4	0.0
2025-01-25 01:03:37.830410	187.4	18.3	-79.1	0.0
2025-01-25 01:03:40.078114	187.5	18.1	-79.3	0.0
2025-01-25 01:03:42.325052	187.6	17.8	-79.0	0.0
2025-01-25 01:03:44.572358	187.7	17.5	-78.8	0.0
2025-01-25 01:03:46.819477	187.7	17.2	-79.3	0.0
2025-01-25 01:03:49.066460	187.8	17.0	-79.0	0.0
2025-01-25 01:03:51.317180	187.9	16.7	-79.3	0.0
2025-01-25 01:03:53.563848	188.0	16.5	-79.5	0.0
2025-01-25 01:03:55.809282	188.0	16.2	-79.2	0.0
2025-01-25 01:03:58.057616	188.1	16.0	-79.5	0.0
2025-01-25 01:04:00.299857	188.2	15.7	-79.2	0.0
2025-01-25 01:04:02.547345	188.3	15.5	-79.1	0.0
2025-01-25 01:04:04.795566	188.3	15.2	-79.2	0.0
2025-01-25 01:04:07.037084	188.4	15.0	-79.2	0.0
2025-01-25 01:04:09.283642	188.5	14.7	-79.6	0.0
2025-01-25 01:04:11.530847	188.5	14.5	-79.3	0.0
2025-01-25 01:04:13.780039	188.6	14.3	-79.1	0.0
2025-01-25 01:04:16.025489	188.7	14.0	-79.3	0.0
2025-01-25 01:04:18.269268	188.7	13.8	-79.2	0.0
2025-01-25 01:04:20.520353	188.8	13.6	-79.3	0.0
2025-01-25 01:04:22.765991	188.9	13.4	-79.4	0.0
2025-01-25 01:04:25.010137	188.9	13.1	-79.4	0.0
2025-01-25 01:04:27.258334	189.0	12.9	-79.4	0.0
2025-01-25 01:04:29.502880	189.0	12.7	-79.2	0.0
2025-01-25 01:04:31.746552	189.1	12.5	-79.6	0.0
2025-01-25 01:04:33.991591	189.2	12.3	-79.4	0.0
2025-01-25 01:04:36.237967	189.2	12.0	-79.3	0.0
2025-01-25 01:04:38.485896	189.3	11.8	-79.4	0.0
2025-01-25 01:04:40.731012	189.3	11.6	-79.4	0.0
2025-01-25 01:04:42.977674	189.4	11.4	-79.3	0.0
2025-01-25 01:04:45.223747	189.4	11.2	-79.5	0.0
2025-01-25 01:04:47.466375	189.5	11.0	-79.5	0.0
2025-01-25 01:04:49.713032	189.5	10.8	-79.4	0.0
2025-01-25 01:04:51.958623	189.6	10.6	-79.4	0.0
2025-01-25 01:04:54.204014	189.6	10.4	-79.3	0.0
2025-01-25 01:04:56.447404	189.7	10.2	-79.5	0.0
2025-01-25 01:04:58.692454	189.8	10.0	-79.3	0.0
#Closed at: 2025-01-25 00:54:11.429781