passes_logs/2025/01/25/planumMaritime01/planumMaritime01__20250125_130256_METEOR-M2_2_rec.log

#Pass ID: 20250125_130256_METEOR-M2 2
#Satellite: METEOR-M2 2
#Configuration: METEOR-M2 2
#Start time: 2025-01-25 13:03:01.997202

#LorettStation: 1.0.0 05.05.2024
#Station: planumMaritime01
#Location: 37.49445 lon 55.92918 lat
#TLE: 1 44387U 19038A   25024.76368027  .00000427  00000+0  20528-3 0  9991
#TLE: 2 44387  98.8579   1.2349 0002158  64.0416 296.0984 14.24124981288923

#Time	Az	El	Level	SNR
2025-01-25 13:03:04.151829	187.5	10.2	-78.1	0.0
2025-01-25 13:03:06.397367	187.6	10.4	-77.9	0.0
2025-01-25 13:03:08.641400	187.7	10.6	-78.4	0.0
2025-01-25 13:03:10.885574	187.9	10.7	-78.2	0.0
2025-01-25 13:03:13.128964	188.0	10.9	-78.1	0.0
2025-01-25 13:03:15.375590	188.2	11.1	-78.0	0.0
2025-01-25 13:03:17.619687	188.3	11.3	-78.3	0.0
2025-01-25 13:03:19.864518	188.5	11.5	-77.7	0.0
2025-01-25 13:03:22.110943	188.6	11.7	-78.0	0.0
2025-01-25 13:03:24.359878	188.8	11.9	-78.2	0.0
2025-01-25 13:03:26.608913	188.9	12.1	-77.9	0.0
2025-01-25 13:03:28.857841	189.1	12.3	-77.6	0.0
2025-01-25 13:03:31.103813	189.2	12.5	-78.6	0.0
2025-01-25 13:03:33.352265	189.4	12.7	-78.5	0.0
2025-01-25 13:03:35.598111	189.6	13.0	-78.5	0.0
2025-01-25 13:03:37.844139	189.7	13.2	-78.6	0.0
2025-01-25 13:03:40.091287	189.9	13.4	-77.6	0.0
2025-01-25 13:03:42.340867	190.1	13.6	-78.4	0.0
2025-01-25 13:03:44.586997	190.3	13.8	-78.4	0.0
2025-01-25 13:03:46.833234	190.4	14.0	-77.7	0.0
2025-01-25 13:03:49.078449	190.6	14.2	-78.2	0.0
2025-01-25 13:03:51.324219	190.8	14.5	-77.9	0.0
2025-01-25 13:03:53.568344	191.0	14.7	-78.4	0.0
2025-01-25 13:03:55.812627	191.2	14.9	-78.8	0.0
2025-01-25 13:03:58.059512	191.3	15.1	-78.5	0.0
2025-01-25 13:04:00.304113	191.5	15.3	-77.7	0.0
2025-01-25 13:04:02.550933	191.7	15.6	-78.3	0.0
2025-01-25 13:04:04.794117	191.9	15.8	-78.1	0.0
2025-01-25 13:04:07.040583	192.1	16.0	-79.0	0.0
2025-01-25 13:04:09.285732	192.3	16.3	-78.9	0.0
2025-01-25 13:04:11.533274	192.5	16.5	-78.9	0.0
2025-01-25 13:04:13.779357	192.7	16.7	-78.3	0.0
2025-01-25 13:04:16.023354	193.0	17.0	-78.6	0.0
2025-01-25 13:04:18.267364	193.2	17.2	-78.5	0.0
2025-01-25 13:04:20.512651	193.4	17.5	-77.9	0.0
2025-01-25 13:04:22.755782	193.6	17.7	-78.6	0.0
2025-01-25 13:04:24.999739	193.8	18.0	-78.4	0.0
2025-01-25 13:04:27.245800	194.1	18.2	-78.3	0.0
2025-01-25 13:04:29.489528	194.3	18.5	-78.4	0.0
2025-01-25 13:04:31.735913	194.5	18.7	-78.6	0.0
2025-01-25 13:04:33.982093	194.8	19.0	-78.0	0.0
2025-01-25 13:04:36.229239	195.0	19.2	-78.9	0.0
2025-01-25 13:04:38.474542	195.3	19.5	-79.1	0.0
2025-01-25 13:04:40.719203	195.5	19.8	-78.9	0.0
2025-01-25 13:04:42.963427	195.8	20.0	-78.9	0.0
2025-01-25 13:04:45.211185	196.1	20.3	-79.0	0.0
2025-01-25 13:04:47.455326	196.3	20.6	-78.9	0.0
2025-01-25 13:04:49.696815	196.6	20.8	-78.6	0.0
2025-01-25 13:04:51.941345	196.9	21.1	-78.9	0.0
2025-01-25 13:04:54.187118	197.1	21.4	-78.6	0.0
2025-01-25 13:04:56.431082	197.4	21.7	-78.6	0.0
2025-01-25 13:04:58.678408	197.7	22.0	-78.0	0.0
2025-01-25 13:05:00.922196	198.0	22.2	-78.1	0.0
2025-01-25 13:05:03.166431	198.3	22.5	-79.0	0.0
2025-01-25 13:05:05.410258	198.6	22.8	-78.4	0.0
2025-01-25 13:05:07.655952	198.9	23.1	-79.2	0.0
2025-01-25 13:05:09.900725	199.3	23.4	-79.0	0.0
2025-01-25 13:05:12.147288	199.6	23.7	-78.7	0.0
2025-01-25 13:05:14.394528	199.9	24.0	-78.6	0.0
2025-01-25 13:05:16.637304	200.3	24.3	-78.9	0.0
2025-01-25 13:05:18.881839	200.6	24.6	-79.1	0.0
2025-01-25 13:05:21.127923	201.0	24.9	-79.1	0.0
2025-01-25 13:05:23.375594	201.3	25.2	-78.9	0.0
2025-01-25 13:05:25.619666	201.7	25.5	-78.4	0.0
2025-01-25 13:05:27.864832	202.0	25.9	-78.9	0.0
2025-01-25 13:05:30.110068	202.4	26.2	-78.6	0.0
2025-01-25 13:05:32.356511	202.8	26.5	-78.0	0.0
2025-01-25 13:05:34.603265	203.2	26.8	-78.0	0.0
2025-01-25 13:05:36.847464	203.6	27.2	-77.9	0.0
2025-01-25 13:05:39.091630	204.0	27.5	-78.3	0.0
2025-01-25 13:05:41.336469	204.4	27.8	-78.7	0.0
2025-01-25 13:05:43.581958	204.9	28.1	-78.9	0.0
2025-01-25 13:05:45.827629	205.3	28.5	-78.7	0.0
2025-01-25 13:05:48.074547	205.7	28.8	-78.2	0.0
2025-01-25 13:05:50.319065	206.2	29.2	-78.8	0.0
2025-01-25 13:05:52.566465	206.7	29.5	-79.1	0.0
2025-01-25 13:05:54.811074	207.1	29.8	-79.0	0.0
2025-01-25 13:05:57.057857	207.6	30.2	-78.5	0.0
2025-01-25 13:05:59.299996	208.1	30.5	-78.5	0.0
2025-01-25 13:06:01.544532	208.6	30.9	-79.1	0.0
2025-01-25 13:06:03.790500	209.1	31.2	-79.1	0.0
2025-01-25 13:06:06.036358	209.7	31.6	-79.3	0.0
2025-01-25 13:06:08.282556	210.2	32.0	-78.8	0.0
2025-01-25 13:06:10.528943	210.7	32.3	-79.0	0.0
2025-01-25 13:06:12.774491	211.3	32.7	-78.9	0.0
2025-01-25 13:06:15.018706	211.9	33.0	-78.8	0.0
2025-01-25 13:06:17.262780	212.5	33.4	-78.9	0.0
2025-01-25 13:06:19.512031	213.1	33.7	-78.7	0.0
2025-01-25 13:06:21.756989	213.7	34.1	-78.8	0.0
2025-01-25 13:06:24.005367	214.3	34.5	-79.1	0.0
2025-01-25 13:06:26.251455	214.9	34.8	-78.9	0.0
2025-01-25 13:06:28.499067	215.6	35.2	-79.2	0.0
2025-01-25 13:06:30.743879	216.3	35.6	-78.7	0.0
2025-01-25 13:06:32.989796	217.0	35.9	-79.4	0.0
2025-01-25 13:06:35.234738	217.7	36.3	-79.5	0.0
2025-01-25 13:06:37.483049	218.4	36.7	-78.9	0.0
2025-01-25 13:06:39.727831	219.1	37.0	-79.0	0.0
2025-01-25 13:06:41.973489	219.9	37.4	-79.1	0.0
2025-01-25 13:06:44.219194	220.6	37.7	-78.9	0.0
2025-01-25 13:06:46.462303	221.4	38.1	-79.1	0.0
2025-01-25 13:06:48.707854	222.2	38.5	-79.1	0.0
2025-01-25 13:06:50.955547	223.0	38.8	-78.8	0.0
2025-01-25 13:06:53.198378	223.8	39.2	-79.1	0.0
2025-01-25 13:06:55.440699	224.7	39.5	-79.0	0.0
2025-01-25 13:06:57.684499	225.6	39.8	-78.9	0.0
2025-01-25 13:06:59.928965	226.4	40.2	-77.9	0.0
2025-01-25 13:07:02.176528	227.3	40.5	-78.4	0.0
2025-01-25 13:07:04.420079	228.3	40.8	-78.9	0.0
2025-01-25 13:07:06.662940	229.2	41.2	-79.4	0.0
2025-01-25 13:07:08.908519	230.2	41.5	-78.5	0.0
2025-01-25 13:07:11.152910	231.1	41.8	-79.1	0.0
2025-01-25 13:07:13.401166	232.1	42.1	-79.3	0.0
2025-01-25 13:07:15.648961	233.2	42.4	-79.2	0.0
2025-01-25 13:07:17.896523	234.2	42.7	-79.3	0.0
2025-01-25 13:07:20.140858	235.3	43.0	-78.6	0.0
2025-01-25 13:07:22.384649	236.3	43.2	-78.8	0.0
2025-01-25 13:07:24.630426	237.4	43.5	-79.1	0.0
2025-01-25 13:07:26.876532	238.5	43.8	-79.6	0.0
2025-01-25 13:07:29.120556	239.6	44.0	-78.9	0.0
2025-01-25 13:07:31.368434	240.8	44.2	-79.2	0.0
2025-01-25 13:07:33.613524	241.9	44.5	-79.1	0.0
2025-01-25 13:07:35.856233	243.1	44.7	-79.3	0.0
2025-01-25 13:07:38.101047	244.3	44.9	-79.5	0.0
2025-01-25 13:07:40.346869	245.5	45.1	-79.4	0.0
2025-01-25 13:07:42.594435	246.7	45.2	-79.3	0.0
2025-01-25 13:07:44.839452	247.9	45.4	-79.4	0.0
2025-01-25 13:07:47.086538	249.2	45.5	-79.5	0.0
2025-01-25 13:07:49.330261	250.4	45.7	-79.0	0.0
2025-01-25 13:07:51.577925	251.7	45.8	-78.9	0.0
2025-01-25 13:07:53.827589	253.0	45.9	-79.2	0.0
2025-01-25 13:07:56.074305	254.2	46.0	-79.3	0.0
2025-01-25 13:07:58.317045	255.5	46.1	-79.3	0.0
2025-01-25 13:08:00.563697	256.8	46.1	-79.1	0.0
2025-01-25 13:08:02.809059	258.1	46.2	-79.5	0.0
2025-01-25 13:08:05.053815	259.4	46.2	-79.1	0.0
2025-01-25 13:08:07.299026	260.7	46.2	-78.9	0.0
2025-01-25 13:08:09.542914	262.0	46.2	-79.2	0.0
2025-01-25 13:08:11.788706	263.3	46.2	-79.3	0.0
2025-01-25 13:08:14.036225	264.6	46.1	-78.6	0.0
2025-01-25 13:08:16.281188	265.9	46.1	-79.1	0.0
2025-01-25 13:08:18.525148	267.1	46.0	-79.1	0.0
2025-01-25 13:08:20.772470	268.4	45.9	-78.8	0.0
2025-01-25 13:08:23.018393	269.7	45.8	-79.0	0.0
2025-01-25 13:08:25.261641	271.0	45.7	-78.7	0.0
2025-01-25 13:08:27.508355	272.2	45.6	-79.2	0.0
2025-01-25 13:08:29.753788	273.4	45.4	-78.7	0.0
2025-01-25 13:08:31.996436	274.7	45.3	-78.8	0.0
2025-01-25 13:08:34.241861	275.9	45.1	-79.2	0.0
2025-01-25 13:08:36.486463	277.1	44.9	-78.6	0.0
2025-01-25 13:08:38.730034	278.3	44.7	-79.0	0.0
2025-01-25 13:08:40.974629	279.5	44.5	-79.1	0.0
2025-01-25 13:08:43.218643	280.6	44.3	-79.2	0.0
2025-01-25 13:08:45.463121	281.8	44.1	-79.2	0.0
2025-01-25 13:08:47.706125	282.9	43.8	-79.5	0.0
2025-01-25 13:08:49.950707	284.0	43.6	-78.5	0.0
2025-01-25 13:08:52.197974	285.1	43.3	-79.3	0.0
2025-01-25 13:08:54.441665	286.2	43.1	-78.9	0.0
2025-01-25 13:08:56.685323	287.2	42.8	-79.1	0.0
2025-01-25 13:08:58.930279	288.2	42.5	-79.4	0.0
2025-01-25 13:09:01.177082	289.3	42.2	-78.8	0.0
2025-01-25 13:09:03.422160	290.3	41.9	-79.4	0.0
2025-01-25 13:09:05.667655	291.2	41.6	-79.3	0.0
2025-01-25 13:09:07.914677	292.2	41.3	-79.2	0.0
2025-01-25 13:09:10.160679	293.2	41.0	-78.8	0.0
2025-01-25 13:09:12.407241	294.1	40.6	-79.3	0.0
2025-01-25 13:09:14.653367	295.0	40.3	-79.6	0.0
2025-01-25 13:09:16.896493	295.9	40.0	-79.7	0.0
2025-01-25 13:09:19.142962	296.8	39.6	-80.0	0.0
2025-01-25 13:09:21.389290	297.6	39.3	-78.9	0.0
2025-01-25 13:09:23.638295	298.4	38.9	-79.5	0.0
2025-01-25 13:09:25.884068	299.3	38.6	-79.4	0.0
2025-01-25 13:09:28.129758	300.1	38.2	-79.6	0.0
2025-01-25 13:09:30.374850	300.8	37.9	-78.9	0.0
2025-01-25 13:09:32.623294	301.6	37.5	-79.1	0.0
2025-01-25 13:09:34.869033	302.4	37.2	-79.2	0.0
2025-01-25 13:09:37.114853	303.1	36.8	-79.5	0.0
2025-01-25 13:09:39.361436	303.8	36.4	-79.0	0.0
2025-01-25 13:09:41.607870	304.5	36.1	-78.5	0.0
2025-01-25 13:09:43.854650	305.2	35.7	-79.5	0.0
2025-01-25 13:09:46.101320	305.9	35.4	-79.3	0.0
2025-01-25 13:09:48.348921	306.5	35.0	-79.6	0.0
2025-01-25 13:09:50.593114	307.2	34.6	-78.8	0.0
2025-01-25 13:09:52.838454	307.8	34.3	-78.9	0.0
2025-01-25 13:09:55.085943	308.4	33.9	-79.1	0.0
2025-01-25 13:09:57.330407	309.0	33.5	-79.8	0.0
2025-01-25 13:09:59.575634	309.6	33.2	-78.9	0.0
2025-01-25 13:10:01.824157	310.2	32.8	-79.5	0.0
2025-01-25 13:10:04.071298	310.7	32.5	-78.8	0.0
2025-01-25 13:10:06.315979	311.3	32.1	-79.1	0.0
2025-01-25 13:10:08.562682	311.8	31.8	-79.7	0.0
2025-01-25 13:10:10.809875	312.4	31.4	-78.5	0.0
2025-01-25 13:10:13.054270	312.9	31.1	-78.9	0.0
2025-01-25 13:10:15.300940	313.4	30.7	-79.7	0.0
2025-01-25 13:10:17.546978	313.9	30.4	-79.4	0.0
2025-01-25 13:10:19.793427	314.4	30.0	-79.5	0.0
2025-01-25 13:10:22.040850	314.9	29.7	-79.4	0.0
2025-01-25 13:10:24.287280	315.3	29.3	-79.9	0.0
2025-01-25 13:10:26.534485	315.8	29.0	-79.2	0.0
2025-01-25 13:10:28.779447	316.2	28.7	-79.9	0.0
2025-01-25 13:10:31.026105	316.7	28.3	-79.9	0.0
2025-01-25 13:10:33.272532	317.1	28.0	-80.1	0.0
2025-01-25 13:10:35.518876	317.5	27.7	-79.9	0.0
2025-01-25 13:10:37.766584	317.9	27.3	-79.6	0.0
2025-01-25 13:10:40.009180	318.3	27.0	-79.4	0.0
2025-01-25 13:10:42.255602	318.7	26.7	-78.9	0.0
2025-01-25 13:10:44.503042	319.1	26.4	-78.2	0.0
2025-01-25 13:10:46.747042	319.5	26.1	-78.5	0.0
2025-01-25 13:10:48.992176	319.9	25.7	-79.3	0.0
2025-01-25 13:10:51.237378	320.2	25.4	-78.7	0.0
2025-01-25 13:10:53.483252	320.6	25.1	-78.6	0.0
2025-01-25 13:10:55.728020	320.9	24.8	-78.6	0.0
2025-01-25 13:10:57.971266	321.3	24.5	-78.6	0.0
2025-01-25 13:11:00.218399	321.6	24.2	-79.7	0.0
2025-01-25 13:11:02.463001	322.0	23.9	-79.2	0.0
2025-01-25 13:11:04.706480	322.3	23.6	-78.9	0.0
2025-01-25 13:11:06.950821	322.6	23.3	-79.0	0.0
2025-01-25 13:11:09.194765	322.9	23.0	-79.4	0.0
2025-01-25 13:11:11.440976	323.2	22.7	-78.2	0.0
2025-01-25 13:11:13.685625	323.5	22.5	-77.8	0.0
2025-01-25 13:11:15.931547	323.8	22.2	-78.8	0.0
2025-01-25 13:11:18.177356	324.1	21.9	-78.4	0.0
2025-01-25 13:11:20.425594	324.4	21.6	-77.9	0.0
2025-01-25 13:11:22.670556	324.7	21.3	-78.7	0.0
2025-01-25 13:11:24.915268	325.0	21.1	-78.9	0.0
2025-01-25 13:11:27.160687	325.2	20.8	-78.8	0.0
2025-01-25 13:11:29.407360	325.5	20.5	-78.6	0.0
2025-01-25 13:11:31.654107	325.8	20.2	-78.9	0.0
2025-01-25 13:11:33.900812	326.0	20.0	-78.3	0.0
2025-01-25 13:11:36.149716	326.3	19.7	-79.1	0.0
2025-01-25 13:11:38.392993	326.6	19.5	-78.3	0.0
2025-01-25 13:11:40.638367	326.8	19.2	-78.2	0.0
2025-01-25 13:11:42.885406	327.0	18.9	-78.5	0.0
2025-01-25 13:11:45.129993	327.3	18.7	-78.8	0.0
2025-01-25 13:11:47.376132	327.5	18.4	-79.2	0.0
2025-01-25 13:11:49.623645	327.8	18.2	-78.2	0.0
2025-01-25 13:11:51.868839	328.0	17.9	-78.9	0.0
2025-01-25 13:11:54.113436	328.2	17.7	-79.3	0.0
2025-01-25 13:11:56.358257	328.4	17.5	-78.5	0.0
2025-01-25 13:11:58.603549	328.6	17.2	-79.0	0.0
2025-01-25 13:12:00.845600	328.9	17.0	-78.8	0.0
2025-01-25 13:12:03.091122	329.1	16.7	-79.6	0.0
2025-01-25 13:12:05.336414	329.3	16.5	-79.1	0.0
2025-01-25 13:12:07.582956	329.5	16.3	-78.9	0.0
2025-01-25 13:12:09.827808	329.7	16.0	-79.5	0.0
2025-01-25 13:12:12.074906	329.9	15.8	-78.6	0.0
2025-01-25 13:12:14.322597	330.1	15.6	-79.0	0.0
2025-01-25 13:12:16.563873	330.3	15.4	-78.9	0.0
2025-01-25 13:12:18.809274	330.5	15.1	-78.5	0.0
2025-01-25 13:12:21.054284	330.7	14.9	-78.9	0.0
2025-01-25 13:12:23.300922	330.8	14.7	-79.3	0.0
2025-01-25 13:12:25.548110	331.0	14.5	-79.0	0.0
2025-01-25 13:12:27.794729	331.2	14.2	-79.1	0.0
2025-01-25 13:12:30.042643	331.4	14.0	-78.7	0.0
2025-01-25 13:12:32.287591	331.6	13.8	-78.8	0.0
2025-01-25 13:12:34.529512	331.7	13.6	-78.7	0.0
2025-01-25 13:12:36.776243	331.9	13.4	-78.9	0.0
2025-01-25 13:12:39.021685	332.1	13.2	-79.5	0.0
2025-01-25 13:12:41.266565	332.2	13.0	-78.8	0.0
2025-01-25 13:12:43.512034	332.4	12.8	-79.2	0.0
2025-01-25 13:12:45.760395	332.6	12.6	-79.4	0.0
2025-01-25 13:12:48.009608	332.7	12.4	-78.9	0.0
2025-01-25 13:12:50.258105	332.9	12.2	-79.3	0.0
2025-01-25 13:12:52.500208	333.0	12.0	-79.2	0.0
2025-01-25 13:12:54.744074	333.2	11.8	-79.5	0.0
2025-01-25 13:12:56.989106	333.3	11.6	-79.5	0.0
2025-01-25 13:12:59.236613	333.5	11.4	-79.3	0.0
2025-01-25 13:13:01.480162	333.6	11.2	-79.4	0.0
2025-01-25 13:13:03.724573	333.8	11.0	-79.0	0.0
2025-01-25 13:13:05.970466	333.9	10.8	-79.1	0.0
2025-01-25 13:13:08.218164	334.1	10.6	-79.6	0.0
2025-01-25 13:13:10.464650	334.2	10.4	-79.0	0.0
2025-01-25 13:13:12.710615	334.3	10.2	-79.2	0.0
2025-01-25 13:13:14.955604	334.5	10.1	-79.1	0.0
#Closed at: 2025-01-25 13:02:57.001359