passes_logs/2025/01/25/planumMaritime01/planumMaritime01__20250125_183220_NOAA_19_rec.log

#Pass ID: 20250125_183220_NOAA 19
#Satellite: NOAA 19
#Configuration: NOAA 19
#Start time: 2025-01-25 18:32:25.413288

#LorettStation: 1.0.0 05.05.2024
#Station: planumMaritime01
#Location: 37.49445 lon 55.92918 lat
#TLE: 1 33591U 09005A   25024.77415192  .00000451  00000+0  26462-3 0  9996
#TLE: 2 33591  99.0180  88.6113 0014109  31.0080 329.1922 14.13268355822923

#Time	Az	El	Level	SNR
2025-01-25 18:32:27.570230	175.2	10.2	-77.8	0.0
2025-01-25 18:32:29.818609	175.3	10.4	-78.6	0.0
2025-01-25 18:32:32.064210	175.4	10.6	-77.7	0.0
2025-01-25 18:32:34.309914	175.5	10.8	-78.0	0.0
2025-01-25 18:32:36.552098	175.5	11.0	-78.2	0.0
2025-01-25 18:32:38.796773	175.6	11.2	-78.2	0.0
2025-01-25 18:32:41.044186	175.7	11.4	-78.2	0.0
2025-01-25 18:32:43.292248	175.8	11.6	-77.9	0.0
2025-01-25 18:32:45.537993	175.9	11.8	-78.1	0.0
2025-01-25 18:32:47.784404	176.0	12.0	-77.6	0.0
2025-01-25 18:32:50.031487	176.0	12.2	-78.0	0.0
2025-01-25 18:32:52.276624	176.1	12.4	-78.1	0.0
2025-01-25 18:32:54.522194	176.2	12.6	-78.2	0.0
2025-01-25 18:32:56.773414	176.3	12.8	-78.4	0.0
2025-01-25 18:32:59.019383	176.4	13.0	-78.6	0.0
2025-01-25 18:33:01.266993	176.5	13.3	-78.1	0.0
2025-01-25 18:33:03.512378	176.6	13.5	-78.4	0.0
2025-01-25 18:33:05.756152	176.7	13.7	-78.3	0.0
2025-01-25 18:33:08.006328	176.8	13.9	-78.4	0.0
2025-01-25 18:33:10.252700	176.9	14.2	-78.8	0.0
2025-01-25 18:33:12.499164	177.0	14.4	-78.5	0.0
2025-01-25 18:33:14.745935	177.1	14.6	-78.5	0.0
2025-01-25 18:33:16.992740	177.2	14.8	-77.9	0.0
2025-01-25 18:33:19.239217	177.3	15.1	-78.6	0.0
2025-01-25 18:33:21.486003	177.4	15.3	-78.3	0.0
2025-01-25 18:33:23.729683	177.5	15.6	-78.1	0.0
2025-01-25 18:33:25.974914	177.6	15.8	-78.2	0.0
2025-01-25 18:33:28.221406	177.7	16.0	-78.1	0.0
2025-01-25 18:33:30.468802	177.8	16.3	-78.4	0.0
2025-01-25 18:33:32.716551	177.9	16.5	-78.3	0.0
2025-01-25 18:33:34.961010	178.1	16.8	-78.1	0.0
2025-01-25 18:33:37.210326	178.2	17.0	-77.7	0.0
2025-01-25 18:33:39.458491	178.3	17.3	-78.2	0.0
2025-01-25 18:33:41.702792	178.4	17.5	-78.1	0.0
2025-01-25 18:33:43.947527	178.5	17.8	-77.5	0.0
2025-01-25 18:33:46.192131	178.7	18.1	-77.9	0.0
2025-01-25 18:33:48.436561	178.8	18.3	-78.1	0.0
2025-01-25 18:33:50.686536	178.9	18.6	-78.4	0.0
2025-01-25 18:33:52.930371	179.1	18.9	-78.2	0.0
2025-01-25 18:33:55.177954	179.2	19.1	-78.4	0.0
2025-01-25 18:33:57.426865	179.3	19.4	-78.1	0.0
2025-01-25 18:33:59.671903	179.5	19.7	-78.1	0.0
2025-01-25 18:34:01.919773	179.6	20.0	-78.5	0.0
2025-01-25 18:34:04.166306	179.7	20.3	-78.5	0.0
2025-01-25 18:34:06.413567	179.9	20.5	-78.7	0.0
2025-01-25 18:34:08.659691	180.0	20.8	-78.6	0.0
2025-01-25 18:34:10.908968	180.2	21.1	-79.2	0.0
2025-01-25 18:34:13.152689	180.3	21.4	-78.8	0.0
2025-01-25 18:34:15.396796	180.5	21.7	-78.3	0.0
2025-01-25 18:34:17.643751	180.7	22.0	-78.1	0.0
2025-01-25 18:34:19.890323	180.8	22.3	-78.5	0.0
2025-01-25 18:34:22.135174	181.0	22.7	-79.0	0.0
2025-01-25 18:34:24.380931	181.2	23.0	-78.2	0.0
2025-01-25 18:34:26.626018	181.3	23.3	-78.4	0.0
2025-01-25 18:34:28.875168	181.5	23.6	-78.9	0.0
2025-01-25 18:34:31.120532	181.7	23.9	-78.9	0.0
2025-01-25 18:34:33.369181	181.9	24.3	-78.1	0.0
2025-01-25 18:34:35.614208	182.1	24.6	-78.0	0.0
2025-01-25 18:34:37.862042	182.2	24.9	-78.2	0.0
2025-01-25 18:34:40.109235	182.4	25.3	-79.1	0.0
2025-01-25 18:34:42.356846	182.6	25.6	-78.7	0.0
2025-01-25 18:34:44.601324	182.8	26.0	-78.7	0.0
2025-01-25 18:34:46.848764	183.0	26.3	-78.7	0.0
2025-01-25 18:34:49.098216	183.3	26.7	-79.1	0.0
2025-01-25 18:34:51.343187	183.5	27.1	-79.2	0.0
2025-01-25 18:34:53.588142	183.7	27.4	-78.9	0.0
2025-01-25 18:34:55.830159	183.9	27.8	-79.2	0.0
2025-01-25 18:34:58.078167	184.2	28.2	-78.9	0.0
2025-01-25 18:35:00.327914	184.4	28.6	-79.0	0.0
2025-01-25 18:35:02.573929	184.6	28.9	-78.9	0.0
2025-01-25 18:35:04.822314	184.9	29.3	-78.8	0.0
2025-01-25 18:35:07.065798	185.1	29.7	-78.5	0.0
2025-01-25 18:35:09.310085	185.4	30.1	-78.1	0.0
2025-01-25 18:35:11.556531	185.7	30.5	-78.3	0.0
2025-01-25 18:35:13.805417	185.9	30.9	-78.7	0.0
2025-01-25 18:35:16.049308	186.2	31.4	-78.8	0.0
2025-01-25 18:35:18.295386	186.5	31.8	-78.9	0.0
2025-01-25 18:35:20.541103	186.8	32.2	-79.3	0.0
2025-01-25 18:35:22.787828	187.1	32.6	-79.0	0.0
2025-01-25 18:35:25.034912	187.4	33.1	-78.9	0.0
2025-01-25 18:35:27.280453	187.7	33.5	-78.8	0.0
2025-01-25 18:35:29.525746	188.0	34.0	-78.7	0.0
2025-01-25 18:35:31.771023	188.4	34.4	-78.4	0.0
2025-01-25 18:35:34.018478	188.7	34.9	-78.0	0.0
2025-01-25 18:35:36.261161	189.1	35.3	-78.3	0.0
2025-01-25 18:35:38.507433	189.4	35.8	-78.4	0.0
2025-01-25 18:35:40.754556	189.8	36.3	-79.0	0.0
2025-01-25 18:35:43.001156	190.2	36.8	-78.6	0.0
2025-01-25 18:35:45.247734	190.6	37.3	-78.8	0.0
2025-01-25 18:35:47.493602	191.0	37.8	-78.8	0.0
2025-01-25 18:35:49.739703	191.4	38.3	-77.7	0.0
2025-01-25 18:35:51.985824	191.9	38.8	-78.9	0.0
2025-01-25 18:35:54.233209	192.3	39.3	-78.5	0.0
2025-01-25 18:35:56.480967	192.8	39.8	-78.6	0.0
2025-01-25 18:35:58.727162	193.2	40.3	-78.7	0.0
2025-01-25 18:36:00.974036	193.7	40.8	-79.1	0.0
2025-01-25 18:36:03.218886	194.2	41.4	-79.1	0.0
2025-01-25 18:36:05.464389	194.8	41.9	-78.6	0.0
2025-01-25 18:36:07.711452	195.3	42.4	-79.5	0.0
2025-01-25 18:36:09.957513	195.9	43.0	-79.1	0.0
2025-01-25 18:36:12.206432	196.4	43.5	-79.3	0.0
2025-01-25 18:36:14.453172	197.0	44.1	-79.1	0.0
2025-01-25 18:36:16.702716	197.7	44.7	-79.2	0.0
2025-01-25 18:36:18.949581	198.3	45.2	-79.1	0.0
2025-01-25 18:36:21.194959	199.0	45.8	-79.0	0.0
2025-01-25 18:36:23.441892	199.6	46.4	-79.0	0.0
2025-01-25 18:36:25.689395	200.4	47.0	-79.1	0.0
2025-01-25 18:36:27.935655	201.1	47.5	-79.2	0.0
2025-01-25 18:36:30.182202	201.9	48.1	-78.8	0.0
2025-01-25 18:36:32.428386	202.7	48.7	-79.3	0.0
2025-01-25 18:36:34.674690	203.5	49.3	-79.1	0.0
2025-01-25 18:36:36.920853	204.3	49.9	-79.5	0.0
2025-01-25 18:36:39.166484	205.2	50.5	-78.8	0.0
2025-01-25 18:36:41.413899	206.2	51.1	-78.8	0.0
2025-01-25 18:36:43.661033	207.1	51.6	-78.9	0.0
2025-01-25 18:36:45.909186	208.1	52.2	-78.9	0.0
2025-01-25 18:36:48.154692	209.2	52.8	-79.2	0.0
2025-01-25 18:36:50.402354	210.3	53.4	-79.2	0.0
2025-01-25 18:36:52.647839	211.4	54.0	-79.1	0.0
2025-01-25 18:36:54.892905	212.6	54.6	-79.0	0.0
2025-01-25 18:36:57.139209	213.8	55.1	-79.6	0.0
2025-01-25 18:36:59.387454	215.0	55.7	-78.7	0.0
2025-01-25 18:37:01.633268	216.4	56.2	-79.2	0.0
2025-01-25 18:37:03.882425	217.7	56.8	-79.0	0.0
2025-01-25 18:37:06.131076	219.2	57.3	-79.7	0.0
2025-01-25 18:37:08.378987	220.6	57.8	-79.2	0.0
2025-01-25 18:37:10.621420	222.2	58.3	-78.6	0.0
2025-01-25 18:37:12.867054	223.8	58.8	-79.3	0.0
2025-01-25 18:37:15.113524	225.4	59.3	-79.6	0.0
2025-01-25 18:37:17.361881	227.1	59.7	-79.0	0.0
2025-01-25 18:37:19.610177	228.9	60.2	-79.2	0.0
2025-01-25 18:37:21.856995	230.8	60.6	-79.0	0.0
2025-01-25 18:37:24.103262	232.6	61.0	-79.3	0.0
2025-01-25 18:37:26.349202	234.6	61.3	-79.0	0.0
2025-01-25 18:37:28.594258	236.6	61.6	-79.1	0.0
2025-01-25 18:37:30.842435	238.6	61.9	-79.5	0.0
2025-01-25 18:37:33.087445	240.7	62.2	-79.3	0.0
2025-01-25 18:37:35.333621	242.9	62.5	-78.8	0.0
2025-01-25 18:37:37.578286	245.1	62.7	-79.1	0.0
2025-01-25 18:37:39.823346	247.3	62.8	-79.5	0.0
2025-01-25 18:37:42.072302	249.5	63.0	-79.2	0.0
2025-01-25 18:37:44.316914	251.8	63.1	-78.5	0.0
2025-01-25 18:37:46.565129	254.1	63.1	-78.8	0.0
2025-01-25 18:37:48.811399	256.3	63.2	-78.6	0.0
2025-01-25 18:37:51.054523	258.6	63.1	-78.8	0.0
2025-01-25 18:37:53.297382	260.9	63.1	-78.9	0.0
2025-01-25 18:37:55.544864	263.2	63.0	-78.9	0.0
2025-01-25 18:37:57.791809	265.4	62.9	-78.9	0.0
2025-01-25 18:38:00.036308	267.7	62.7	-78.9	0.0
2025-01-25 18:38:02.282334	269.8	62.5	-78.9	0.0
2025-01-25 18:38:04.527792	272.0	62.3	-78.6	0.0
2025-01-25 18:38:06.774231	274.1	62.0	-78.7	0.0
2025-01-25 18:38:09.021797	276.2	61.8	-79.2	0.0
2025-01-25 18:38:11.268198	278.2	61.4	-79.2	0.0
2025-01-25 18:38:13.515591	280.1	61.1	-78.7	0.0
2025-01-25 18:38:15.761227	282.1	60.7	-79.0	0.0
2025-01-25 18:38:18.008442	283.9	60.3	-79.0	0.0
2025-01-25 18:38:20.252639	285.7	59.9	-78.9	0.0
2025-01-25 18:38:22.496873	287.4	59.4	-79.2	0.0
2025-01-25 18:38:24.743710	289.1	59.0	-79.2	0.0
2025-01-25 18:38:26.989677	290.7	58.5	-79.6	0.0
2025-01-25 18:38:29.237451	292.2	58.0	-79.1	0.0
2025-01-25 18:38:31.482268	293.7	57.5	-79.3	0.0
2025-01-25 18:38:33.730547	295.2	57.0	-79.4	0.0
2025-01-25 18:38:35.977340	296.6	56.4	-79.5	0.0
2025-01-25 18:38:38.223370	297.9	55.9	-79.5	0.0
2025-01-25 18:38:40.469430	299.2	55.3	-79.3	0.0
2025-01-25 18:38:42.713623	300.4	54.8	-79.3	0.0
2025-01-25 18:38:44.959666	301.6	54.2	-79.2	0.0
2025-01-25 18:38:47.204281	302.7	53.6	-79.3	0.0
2025-01-25 18:38:49.449081	303.8	53.1	-78.8	0.0
2025-01-25 18:38:51.693826	304.9	52.5	-79.5	0.0
2025-01-25 18:38:53.940816	305.9	51.9	-79.5	0.0
2025-01-25 18:38:56.186866	306.9	51.3	-79.3	0.0
2025-01-25 18:38:58.430405	307.8	50.7	-79.5	0.0
2025-01-25 18:39:00.678640	308.7	50.1	-79.7	0.0
2025-01-25 18:39:02.923880	309.6	49.6	-79.0	0.0
2025-01-25 18:39:05.167503	310.4	49.0	-79.5	0.0
2025-01-25 18:39:07.412845	311.2	48.4	-79.2	0.0
2025-01-25 18:39:09.657953	312.0	47.8	-79.6	0.0
2025-01-25 18:39:11.903837	312.8	47.2	-79.9	0.0
2025-01-25 18:39:14.148170	313.5	46.7	-79.1	0.0
2025-01-25 18:39:16.395261	314.2	46.1	-78.8	0.0
2025-01-25 18:39:18.642139	314.8	45.5	-79.4	0.0
2025-01-25 18:39:20.884470	315.5	45.0	-79.4	0.0
2025-01-25 18:39:23.132159	316.1	44.4	-79.3	0.0
2025-01-25 18:39:25.380021	316.7	43.8	-79.2	0.0
2025-01-25 18:39:27.623309	317.3	43.3	-79.2	0.0
2025-01-25 18:39:29.870522	317.9	42.7	-78.8	0.0
2025-01-25 18:39:32.115719	318.4	42.2	-79.1	0.0
2025-01-25 18:39:34.362650	318.9	41.7	-79.2	0.0
2025-01-25 18:39:36.611132	319.5	41.1	-79.2	0.0
2025-01-25 18:39:38.857095	319.9	40.6	-79.0	0.0
2025-01-25 18:39:41.100972	320.4	40.1	-79.1	0.0
2025-01-25 18:39:43.348606	320.9	39.6	-79.5	0.0
2025-01-25 18:39:45.593405	321.3	39.1	-78.7	0.0
2025-01-25 18:39:47.839929	321.8	38.6	-79.3	0.0
2025-01-25 18:39:50.082464	322.2	38.1	-78.9	0.0
2025-01-25 18:39:52.326256	322.6	37.6	-79.7	0.0
2025-01-25 18:39:54.569240	323.0	37.1	-79.7	0.0
2025-01-25 18:39:56.816092	323.4	36.6	-79.2	0.0
2025-01-25 18:39:59.061532	323.8	36.1	-79.3	0.0
2025-01-25 18:40:01.307896	324.2	35.7	-79.6	0.0
2025-01-25 18:40:03.554793	324.5	35.2	-79.7	0.0
2025-01-25 18:40:05.799379	324.9	34.7	-79.6	0.0
2025-01-25 18:40:08.047686	325.2	34.3	-79.4	0.0
2025-01-25 18:40:10.295425	325.5	33.8	-79.3	0.0
2025-01-25 18:40:12.538771	325.8	33.4	-79.8	0.0
2025-01-25 18:40:14.785528	326.2	33.0	-79.4	0.0
2025-01-25 18:40:17.030986	326.5	32.5	-79.1	0.0
2025-01-25 18:40:19.277125	326.8	32.1	-79.7	0.0
2025-01-25 18:40:21.523239	327.0	31.7	-79.3	0.0
2025-01-25 18:40:23.767452	327.3	31.3	-79.0	0.0
2025-01-25 18:40:26.013765	327.6	30.9	-78.8	0.0
2025-01-25 18:40:28.258553	327.9	30.5	-78.6	0.0
2025-01-25 18:40:30.503258	328.1	30.1	-79.7	0.0
2025-01-25 18:40:32.751049	328.4	29.7	-79.3	0.0
2025-01-25 18:40:34.998110	328.6	29.3	-79.2	0.0
2025-01-25 18:40:37.244665	328.9	28.9	-79.4	0.0
2025-01-25 18:40:39.491070	329.1	28.5	-79.5	0.0
2025-01-25 18:40:41.734781	329.4	28.1	-79.4	0.0
2025-01-25 18:40:43.980981	329.6	27.8	-79.2	0.0
2025-01-25 18:40:46.228504	329.8	27.4	-79.6	0.0
2025-01-25 18:40:48.474452	330.0	27.0	-79.2	0.0
2025-01-25 18:40:50.721703	330.2	26.7	-79.3	0.0
2025-01-25 18:40:52.965863	330.5	26.3	-78.9	0.0
2025-01-25 18:40:55.210598	330.7	26.0	-79.3	0.0
2025-01-25 18:40:57.453581	330.9	25.6	-79.1	0.0
2025-01-25 18:40:59.697939	331.1	25.3	-79.6	0.0
2025-01-25 18:41:01.944815	331.3	24.9	-79.3	0.0
2025-01-25 18:41:04.189716	331.4	24.6	-79.3	0.0
2025-01-25 18:41:06.436644	331.6	24.3	-79.5	0.0
2025-01-25 18:41:08.679649	331.8	24.0	-79.5	0.0
2025-01-25 18:41:10.927197	332.0	23.6	-79.9	0.0
2025-01-25 18:41:13.175581	332.2	23.3	-79.2	0.0
2025-01-25 18:41:15.420911	332.3	23.0	-79.5	0.0
2025-01-25 18:41:17.664650	332.5	22.7	-79.3	0.0
2025-01-25 18:41:19.909300	332.7	22.4	-79.0	0.0
2025-01-25 18:41:22.153481	332.8	22.1	-78.9	0.0
2025-01-25 18:41:24.395682	333.0	21.8	-79.1	0.0
2025-01-25 18:41:26.643195	333.1	21.5	-79.4	0.0
2025-01-25 18:41:28.887017	333.3	21.2	-79.5	0.0
2025-01-25 18:41:31.132682	333.4	20.9	-79.6	0.0
2025-01-25 18:41:33.376066	333.6	20.6	-79.3	0.0
2025-01-25 18:41:35.620753	333.7	20.3	-79.5	0.0
2025-01-25 18:41:37.864411	333.9	20.0	-79.6	0.0
2025-01-25 18:41:40.109171	334.0	19.8	-79.5	0.0
2025-01-25 18:41:42.353410	334.2	19.5	-79.4	0.0
2025-01-25 18:41:44.600158	334.3	19.2	-79.6	0.0
2025-01-25 18:41:46.847444	334.4	18.9	-79.7	0.0
2025-01-25 18:41:49.089589	334.6	18.7	-79.5	0.0
2025-01-25 18:41:51.336081	334.7	18.4	-79.3	0.0
2025-01-25 18:41:53.583191	334.8	18.1	-79.2	0.0
2025-01-25 18:41:55.828827	334.9	17.9	-79.6	0.0
2025-01-25 18:41:58.075832	335.1	17.6	-79.3	0.0
2025-01-25 18:42:00.319356	335.2	17.4	-79.6	0.0
2025-01-25 18:42:02.564468	335.3	17.1	-79.4	0.0
2025-01-25 18:42:04.809777	335.4	16.9	-79.4	0.0
2025-01-25 18:42:07.056555	335.5	16.6	-79.3	0.0
2025-01-25 18:42:09.302065	335.7	16.4	-79.4	0.0
2025-01-25 18:42:11.548190	335.8	16.1	-79.5	0.0
2025-01-25 18:42:13.793944	335.9	15.9	-79.2	0.0
2025-01-25 18:42:16.038927	336.0	15.7	-79.7	0.0
2025-01-25 18:42:18.284794	336.1	15.4	-79.1	0.0
2025-01-25 18:42:20.528770	336.2	15.2	-79.6	0.0
2025-01-25 18:42:22.771355	336.3	15.0	-79.4	0.0
2025-01-25 18:42:25.017840	336.4	14.7	-79.2	0.0
2025-01-25 18:42:27.265737	336.5	14.5	-79.1	0.0
2025-01-25 18:42:29.510514	336.6	14.3	-78.6	0.0
2025-01-25 18:42:31.755358	336.7	14.1	-79.0	0.0
2025-01-25 18:42:34.000610	336.8	13.8	-79.1	0.0
2025-01-25 18:42:36.248442	336.9	13.6	-79.5	0.0
2025-01-25 18:42:38.491759	337.0	13.4	-78.9	0.0
2025-01-25 18:42:40.738335	337.1	13.2	-79.4	0.0
2025-01-25 18:42:42.985909	337.2	13.0	-79.4	0.0
2025-01-25 18:42:45.230730	337.3	12.8	-79.5	0.0
2025-01-25 18:42:47.478223	337.4	12.6	-79.1	0.0
2025-01-25 18:42:49.723432	337.5	12.3	-79.4	0.0
2025-01-25 18:42:51.969337	337.6	12.1	-79.1	0.0
2025-01-25 18:42:54.218665	337.6	11.9	-79.5	0.0
2025-01-25 18:42:56.462546	337.7	11.7	-79.6	0.0
2025-01-25 18:42:58.708895	337.8	11.5	-79.2	0.0
2025-01-25 18:43:00.951952	337.9	11.3	-79.2	0.0
2025-01-25 18:43:03.197236	338.0	11.1	-79.4	0.0
2025-01-25 18:43:05.440783	338.1	10.9	-79.4	0.0
2025-01-25 18:43:07.686801	338.1	10.7	-79.4	0.0
2025-01-25 18:43:09.933133	338.2	10.5	-79.5	0.0
2025-01-25 18:43:12.177044	338.3	10.4	-79.7	0.0
2025-01-25 18:43:14.421055	338.4	10.2	-79.5	0.0
#Closed at: 2025-01-25 18:32:20.417786