passes_logs/2025/01/25/planumMaritime01/planumMaritime01__20250125_074347_METEOR-M2_3_rec.log

#Pass ID: 20250125_074347_METEOR-M2 3
#Satellite: METEOR-M2 3
#Configuration: METEOR-M2 3
#Start time: 2025-01-25 07:43:52.524223

#LorettStation: 1.0.0 05.05.2024
#Station: planumMaritime01
#Location: 37.49445 lon 55.92918 lat
#TLE: 1 57166U 23091A   25024.73979728  .00000104  00000+0  64262-4 0  9993
#TLE: 2 57166  98.6834  83.0834 0003698 192.3596 167.7492 14.23971833 82155

#Time	Az	El	Level	SNR
2025-01-25 07:43:54.686277	14.3	10.2	-75.9	0.0
2025-01-25 07:43:56.935012	14.3	10.4	-75.4	0.0
2025-01-25 07:43:59.179610	14.3	10.6	-75.7	0.0
2025-01-25 07:44:01.422701	14.3	10.8	-76.3	0.0
2025-01-25 07:44:03.665820	14.2	11.0	-76.1	0.0
2025-01-25 07:44:05.912429	14.2	11.2	-76.4	0.0
2025-01-25 07:44:08.156944	14.2	11.4	-75.9	0.0
2025-01-25 07:44:10.401655	14.1	11.6	-76.4	0.0
2025-01-25 07:44:12.645651	14.1	11.8	-76.5	0.0
2025-01-25 07:44:14.892737	14.1	12.0	-76.7	0.0
2025-01-25 07:44:17.138084	14.0	12.2	-76.2	0.0
2025-01-25 07:44:19.381171	14.0	12.5	-76.4	0.0
2025-01-25 07:44:21.625219	14.0	12.7	-76.4	0.0
2025-01-25 07:44:23.871587	14.0	12.9	-76.3	0.0
2025-01-25 07:44:26.117044	13.9	13.1	-76.3	0.0
2025-01-25 07:44:28.366356	13.9	13.3	-76.2	0.0
2025-01-25 07:44:30.613409	13.8	13.6	-76.6	0.0
2025-01-25 07:44:32.857601	13.8	13.8	-76.1	0.0
2025-01-25 07:44:35.106232	13.8	14.0	-76.7	0.0
2025-01-25 07:44:37.353251	13.7	14.2	-76.1	0.0
2025-01-25 07:44:39.599526	13.7	14.5	-76.5	0.0
2025-01-25 07:44:41.846814	13.7	14.7	-76.4	0.0
2025-01-25 07:44:44.095707	13.6	15.0	-75.9	0.0
2025-01-25 07:44:46.344864	13.6	15.2	-76.5	0.0
2025-01-25 07:44:48.589061	13.5	15.4	-76.5	0.0
2025-01-25 07:44:50.833063	13.5	15.7	-76.6	0.0
2025-01-25 07:44:53.078648	13.4	15.9	-76.5	0.0
2025-01-25 07:44:55.324531	13.4	16.2	-76.3	0.0
2025-01-25 07:44:57.571414	13.4	16.4	-76.8	0.0
2025-01-25 07:44:59.818671	13.3	16.7	-76.4	0.0
2025-01-25 07:45:02.063577	13.3	16.9	-76.7	0.0
2025-01-25 07:45:04.314170	13.2	17.2	-76.7	0.0
2025-01-25 07:45:06.558130	13.2	17.5	-76.7	0.0
2025-01-25 07:45:08.806671	13.1	17.7	-76.7	0.0
2025-01-25 07:45:11.052856	13.1	18.0	-76.7	0.0
2025-01-25 07:45:13.301676	13.0	18.3	-76.7	0.0
2025-01-25 07:45:15.545203	13.0	18.6	-76.7	0.0
2025-01-25 07:45:17.794145	12.9	18.8	-76.3	0.0
2025-01-25 07:45:20.037881	12.9	19.1	-76.7	0.0
2025-01-25 07:45:22.285566	12.8	19.4	-76.5	0.0
2025-01-25 07:45:24.531486	12.7	19.7	-76.5	0.0
2025-01-25 07:45:26.776310	12.7	20.0	-76.5	0.0
2025-01-25 07:45:29.022255	12.6	20.3	-76.6	0.0
2025-01-25 07:45:31.267279	12.6	20.6	-76.8	0.0
2025-01-25 07:45:33.511687	12.5	20.9	-76.7	0.0
2025-01-25 07:45:35.758404	12.4	21.2	-76.8	0.0
2025-01-25 07:45:38.005078	12.4	21.5	-76.9	0.0
2025-01-25 07:45:40.251106	12.3	21.8	-76.8	0.0
2025-01-25 07:45:42.499161	12.2	22.1	-76.9	0.0
2025-01-25 07:45:44.747119	12.2	22.5	-76.3	0.0
2025-01-25 07:45:46.994752	12.1	22.8	-76.8	0.0
2025-01-25 07:45:49.240284	12.0	23.1	-76.4	0.0
2025-01-25 07:45:51.485262	11.9	23.4	-76.6	0.0
2025-01-25 07:45:53.734673	11.9	23.8	-76.4	0.0
2025-01-25 07:45:55.978578	11.8	24.1	-76.7	0.0
2025-01-25 07:45:58.223150	11.7	24.5	-76.7	0.0
2025-01-25 07:46:00.468421	11.6	24.8	-76.5	0.0
2025-01-25 07:46:02.714171	11.5	25.2	-76.7	0.0
2025-01-25 07:46:04.961844	11.4	25.5	-76.4	0.0
2025-01-25 07:46:07.206883	11.3	25.9	-76.7	0.0
2025-01-25 07:46:09.452968	11.2	26.3	-76.8	0.0
2025-01-25 07:46:11.700525	11.2	26.7	-77.0	0.0
2025-01-25 07:46:13.947266	11.1	27.0	-76.6	0.0
2025-01-25 07:46:16.194902	11.0	27.4	-76.6	0.0
2025-01-25 07:46:18.438705	10.8	27.8	-76.8	0.0
2025-01-25 07:46:20.684492	10.7	28.2	-76.7	0.0
2025-01-25 07:46:22.932845	10.6	28.6	-76.8	0.0
2025-01-25 07:46:25.177692	10.5	29.0	-76.7	0.0
2025-01-25 07:46:27.425105	10.4	29.5	-76.9	0.0
2025-01-25 07:46:29.671199	10.3	29.9	-76.9	0.0
2025-01-25 07:46:31.916216	10.2	30.3	-76.9	0.0
2025-01-25 07:46:34.163892	10.0	30.8	-76.5	0.0
2025-01-25 07:46:36.408055	9.9	31.2	-76.5	0.0
2025-01-25 07:46:38.653163	9.8	31.6	-77.0	0.0
2025-01-25 07:46:40.899225	9.6	32.1	-76.8	0.0
2025-01-25 07:46:43.141700	9.5	32.6	-77.0	0.0
2025-01-25 07:46:45.386607	9.4	33.0	-76.7	0.0
2025-01-25 07:46:47.633942	9.2	33.5	-76.8	0.0
2025-01-25 07:46:49.881679	9.0	34.0	-76.9	0.0
2025-01-25 07:46:52.129288	8.9	34.5	-77.0	0.0
2025-01-25 07:46:54.373376	8.7	35.0	-76.9	0.0
2025-01-25 07:46:56.620702	8.6	35.5	-76.6	0.0
2025-01-25 07:46:58.867655	8.4	36.0	-76.9	0.0
2025-01-25 07:47:01.114076	8.2	36.5	-76.9	0.0
2025-01-25 07:47:03.362202	8.0	37.1	-76.7	0.0
2025-01-25 07:47:05.605427	7.8	37.6	-76.7	0.0
2025-01-25 07:47:07.853111	7.6	38.2	-76.8	0.0
2025-01-25 07:47:10.102722	7.4	38.7	-77.1	0.0
2025-01-25 07:47:12.347936	7.2	39.3	-77.0	0.0
2025-01-25 07:47:14.591274	7.0	39.9	-77.0	0.0
2025-01-25 07:47:16.838095	6.7	40.5	-76.7	0.0
2025-01-25 07:47:19.084260	6.5	41.1	-77.0	0.0
2025-01-25 07:47:21.329044	6.2	41.7	-77.1	0.0
2025-01-25 07:47:23.571982	6.0	42.3	-76.8	0.0
2025-01-25 07:47:25.814115	5.7	42.9	-76.6	0.0
2025-01-25 07:47:28.063004	5.4	43.5	-76.9	0.0
2025-01-25 07:47:30.307498	5.1	44.2	-77.0	0.0
2025-01-25 07:47:32.555161	4.8	44.8	-77.0	0.0
2025-01-25 07:47:34.804773	4.5	45.5	-76.9	0.0
2025-01-25 07:47:37.050447	4.1	46.2	-76.8	0.0
2025-01-25 07:47:39.295531	3.8	46.8	-77.2	0.0
2025-01-25 07:47:41.538798	3.4	47.5	-77.1	0.0
2025-01-25 07:47:43.787081	3.0	48.2	-77.0	0.0
2025-01-25 07:47:46.032764	2.6	49.0	-77.3	0.0
2025-01-25 07:47:48.278940	2.2	49.7	-77.1	0.0
2025-01-25 07:47:50.527230	1.8	50.4	-76.1	0.0
2025-01-25 07:47:52.773113	1.3	51.2	-77.3	0.0
2025-01-25 07:47:55.016692	0.8	51.9	-77.0	0.0
2025-01-25 07:47:57.264139	0.3	52.7	-77.3	0.0
2025-01-25 07:47:59.513546	359.7	53.5	-76.7	0.0
2025-01-25 07:48:01.758686	359.2	54.2	-77.0	0.0
2025-01-25 07:48:04.005464	358.5	55.0	-77.1	0.0
2025-01-25 07:48:06.247736	357.9	55.8	-77.2	0.0
2025-01-25 07:48:08.494434	357.2	56.6	-77.0	0.0
2025-01-25 07:48:10.740639	356.5	57.5	-75.6	0.0
2025-01-25 07:48:12.985777	355.7	58.3	-76.6	0.0
2025-01-25 07:48:15.233504	354.9	59.1	-76.8	0.0
2025-01-25 07:48:17.477648	354.0	60.0	-76.6	0.0
2025-01-25 07:48:19.723062	353.1	60.8	-76.3	0.0
2025-01-25 07:48:21.968895	352.1	61.6	-76.8	0.0
2025-01-25 07:48:24.216901	351.0	62.5	-77.0	0.0
2025-01-25 07:48:26.463491	349.8	63.3	-77.0	0.0
2025-01-25 07:48:28.707978	348.6	64.2	-77.1	0.0
2025-01-25 07:48:30.952877	347.3	65.0	-76.6	0.0
2025-01-25 07:48:33.197151	345.8	65.9	-76.7	0.0
2025-01-25 07:48:35.443355	344.3	66.7	-76.9	0.0
2025-01-25 07:48:37.688418	342.6	67.5	-76.7	0.0
2025-01-25 07:48:39.935180	340.8	68.4	-76.9	0.0
2025-01-25 07:48:42.180904	338.8	69.2	-76.9	0.0
2025-01-25 07:48:44.427656	336.6	69.9	-76.5	0.0
2025-01-25 07:48:46.669710	334.3	70.7	-76.7	0.0
2025-01-25 07:48:48.913177	331.8	71.4	-76.6	0.0
2025-01-25 07:48:51.160379	329.0	72.1	-76.4	0.0
2025-01-25 07:48:53.406125	326.0	72.8	-76.6	0.0
2025-01-25 07:48:55.653765	322.8	73.4	-76.6	0.0
2025-01-25 07:48:57.898955	319.3	74.0	-76.7	0.0
2025-01-25 07:49:00.144697	315.6	74.5	-76.8	0.0
2025-01-25 07:49:02.390022	311.6	74.9	-76.7	0.0
2025-01-25 07:49:04.632959	307.4	75.3	-76.7	0.0
2025-01-25 07:49:06.878581	303.0	75.6	-76.6	0.0
2025-01-25 07:49:09.124855	298.4	75.8	-76.8	0.0
2025-01-25 07:49:11.369166	293.7	75.9	-76.9	0.0
2025-01-25 07:49:13.614495	289.0	75.9	-76.5	0.0
2025-01-25 07:49:15.860829	284.3	75.9	-76.4	0.0
2025-01-25 07:49:18.103064	279.6	75.7	-76.6	0.0
2025-01-25 07:49:20.350645	275.1	75.4	-76.8	0.0
2025-01-25 07:49:22.593489	270.8	75.1	-76.6	0.0
2025-01-25 07:49:24.839914	266.7	74.7	-76.5	0.0
2025-01-25 07:49:27.086354	262.9	74.2	-76.7	0.0
2025-01-25 07:49:29.331070	259.3	73.7	-77.3	0.0
2025-01-25 07:49:31.576543	255.9	73.1	-76.9	0.0
2025-01-25 07:49:33.820740	252.8	72.4	-76.8	0.0
2025-01-25 07:49:36.069486	250.0	71.8	-76.8	0.0
2025-01-25 07:49:38.312516	247.3	71.0	-77.0	0.0
2025-01-25 07:49:40.557942	244.9	70.3	-76.8	0.0
2025-01-25 07:49:42.804872	242.7	69.5	-76.9	0.0
2025-01-25 07:49:45.047587	240.6	68.7	-76.8	0.0
2025-01-25 07:49:47.295406	238.7	67.9	-76.7	0.0
2025-01-25 07:49:49.539462	237.0	67.1	-76.9	0.0
2025-01-25 07:49:51.787207	235.3	66.2	-77.0	0.0
2025-01-25 07:49:54.030199	233.8	65.4	-77.1	0.0
2025-01-25 07:49:56.276172	232.5	64.6	-77.0	0.0
2025-01-25 07:49:58.523274	231.2	63.7	-76.9	0.0
2025-01-25 07:50:00.769311	230.0	62.9	-76.9	0.0
2025-01-25 07:50:03.014771	228.9	62.0	-76.9	0.0
2025-01-25 07:50:05.263041	227.8	61.2	-77.1	0.0
2025-01-25 07:50:07.507584	226.9	60.3	-76.7	0.0
2025-01-25 07:50:09.756693	226.0	59.5	-76.8	0.0
2025-01-25 07:50:12.003791	225.1	58.6	-76.7	0.0
2025-01-25 07:50:14.247839	224.3	57.8	-76.8	0.0
2025-01-25 07:50:16.495346	223.6	57.0	-76.8	0.0
2025-01-25 07:50:18.740727	222.8	56.2	-76.7	0.0
2025-01-25 07:50:20.986056	222.2	55.3	-76.8	0.0
2025-01-25 07:50:23.233357	221.6	54.5	-76.7	0.0
2025-01-25 07:50:25.477284	221.0	53.8	-76.9	0.0
2025-01-25 07:50:27.722796	220.4	53.0	-77.1	0.0
2025-01-25 07:50:29.966168	219.9	52.2	-76.9	0.0
2025-01-25 07:50:32.209167	219.4	51.4	-77.1	0.0
2025-01-25 07:50:34.453148	218.9	50.7	-76.9	0.0
2025-01-25 07:50:36.700722	218.4	49.9	-76.7	0.0
2025-01-25 07:50:38.944461	218.0	49.2	-76.9	0.0
2025-01-25 07:50:41.190767	217.6	48.5	-76.5	0.0
2025-01-25 07:50:43.438519	217.2	47.8	-77.0	0.0
2025-01-25 07:50:45.684630	216.8	47.1	-76.9	0.0
2025-01-25 07:50:47.931974	216.4	46.4	-76.6	0.0
2025-01-25 07:50:50.176412	216.1	45.7	-76.7	0.0
2025-01-25 07:50:52.424067	215.8	45.0	-76.9	0.0
2025-01-25 07:50:54.671720	215.5	44.4	-76.8	0.0
2025-01-25 07:50:56.918696	215.2	43.7	-76.9	0.0
2025-01-25 07:50:59.162978	214.9	43.1	-77.1	0.0
2025-01-25 07:51:01.408006	214.6	42.4	-77.0	0.0
2025-01-25 07:51:03.651114	214.3	41.8	-77.1	0.0
2025-01-25 07:51:05.896237	214.1	41.2	-77.5	0.0
2025-01-25 07:51:08.141259	213.8	40.6	-76.9	0.0
2025-01-25 07:51:10.388101	213.6	40.0	-77.1	0.0
2025-01-25 07:51:12.631904	213.3	39.4	-76.2	0.0
2025-01-25 07:51:14.877522	213.1	38.9	-77.1	0.0
2025-01-25 07:51:17.124511	212.9	38.3	-76.7	0.0
2025-01-25 07:51:19.368674	212.7	37.7	-77.1	0.0
2025-01-25 07:51:21.612719	212.5	37.2	-76.8	0.0
2025-01-25 07:51:23.861451	212.3	36.7	-76.6	0.0
2025-01-25 07:51:26.105359	212.1	36.1	-77.1	0.0
2025-01-25 07:51:28.351458	211.9	35.6	-76.8	0.0
2025-01-25 07:51:30.599622	211.8	35.1	-76.9	0.0
2025-01-25 07:51:32.845777	211.6	34.6	-77.0	0.0
2025-01-25 07:51:35.093316	211.4	34.1	-76.7	0.0
2025-01-25 07:51:37.339110	211.3	33.6	-77.1	0.0
2025-01-25 07:51:39.588071	211.1	33.1	-77.0	0.0
2025-01-25 07:51:41.832887	211.0	32.6	-77.0	0.0
2025-01-25 07:51:44.074964	210.8	32.2	-77.0	0.0
2025-01-25 07:51:46.320137	210.7	31.7	-76.9	0.0
2025-01-25 07:51:48.565006	210.5	31.2	-77.0	0.0
2025-01-25 07:51:50.811977	210.4	30.8	-76.4	0.0
2025-01-25 07:51:53.059699	210.3	30.4	-76.9	0.0
2025-01-25 07:51:55.307181	210.2	29.9	-76.8	0.0
2025-01-25 07:51:57.553198	210.0	29.5	-76.9	0.0
2025-01-25 07:51:59.798431	209.9	29.1	-76.8	0.0
2025-01-25 07:52:02.044229	209.8	28.7	-76.9	0.0
2025-01-25 07:52:04.290392	209.7	28.2	-76.9	0.0
2025-01-25 07:52:06.534154	209.6	27.8	-76.6	0.0
2025-01-25 07:52:08.782737	209.5	27.4	-77.0	0.0
2025-01-25 07:52:11.028228	209.4	27.1	-76.7	0.0
2025-01-25 07:52:13.274706	209.3	26.7	-76.6	0.0
2025-01-25 07:52:15.519980	209.2	26.3	-76.5	0.0
2025-01-25 07:52:17.767366	209.1	25.9	-76.8	0.0
2025-01-25 07:52:20.009078	209.0	25.5	-76.8	0.0
2025-01-25 07:52:22.253581	208.9	25.2	-76.8	0.0
2025-01-25 07:52:24.499350	208.8	24.8	-76.7	0.0
2025-01-25 07:52:26.746809	208.7	24.5	-76.8	0.0
2025-01-25 07:52:28.993614	208.6	24.1	-77.0	0.0
2025-01-25 07:52:31.238163	208.6	23.8	-76.8	0.0
2025-01-25 07:52:33.483016	208.5	23.4	-77.0	0.0
2025-01-25 07:52:35.731700	208.4	23.1	-77.1	0.0
2025-01-25 07:52:37.977427	208.3	22.7	-76.8	0.0
2025-01-25 07:52:40.223707	208.2	22.4	-76.9	0.0
2025-01-25 07:52:42.466617	208.2	22.1	-76.8	0.0
2025-01-25 07:52:44.710308	208.1	21.8	-77.1	0.0
2025-01-25 07:52:46.956809	208.0	21.4	-76.6	0.0
2025-01-25 07:52:49.199448	208.0	21.1	-76.6	0.0
2025-01-25 07:52:51.446848	207.9	20.8	-76.5	0.0
2025-01-25 07:52:53.694876	207.8	20.5	-76.8	0.0
2025-01-25 07:52:55.939789	207.8	20.2	-77.1	0.0
2025-01-25 07:52:58.182145	207.7	19.9	-76.7	0.0
2025-01-25 07:53:00.432000	207.6	19.6	-76.2	0.0
2025-01-25 07:53:02.674939	207.6	19.3	-76.9	0.0
2025-01-25 07:53:04.919761	207.5	19.0	-76.7	0.0
2025-01-25 07:53:07.166008	207.5	18.8	-77.0	0.0
2025-01-25 07:53:09.411565	207.4	18.5	-77.0	0.0
2025-01-25 07:53:11.657661	207.4	18.2	-77.1	0.0
2025-01-25 07:53:13.905743	207.3	17.9	-76.5	0.0
2025-01-25 07:53:16.153278	207.2	17.7	-77.1	0.0
2025-01-25 07:53:18.402475	207.2	17.4	-76.8	0.0
2025-01-25 07:53:20.648129	207.1	17.1	-76.6	0.0
2025-01-25 07:53:22.896091	207.1	16.9	-77.0	0.0
2025-01-25 07:53:25.143743	207.0	16.6	-76.5	0.0
2025-01-25 07:53:27.389510	207.0	16.3	-77.0	0.0
2025-01-25 07:53:29.639469	206.9	16.1	-77.3	0.0
2025-01-25 07:53:31.883099	206.9	15.8	-76.9	0.0
2025-01-25 07:53:34.131129	206.9	15.6	-77.0	0.0
2025-01-25 07:53:36.378865	206.8	15.3	-77.0	0.0
2025-01-25 07:53:38.626827	206.8	15.1	-77.0	0.0
2025-01-25 07:53:40.873810	206.7	14.8	-77.3	0.0
2025-01-25 07:53:43.121936	206.7	14.6	-77.3	0.0
2025-01-25 07:53:45.370837	206.6	14.4	-77.0	0.0
2025-01-25 07:53:47.614427	206.6	14.1	-77.3	0.0
2025-01-25 07:53:49.860496	206.6	13.9	-77.2	0.0
2025-01-25 07:53:52.106590	206.5	13.7	-76.9	0.0
2025-01-25 07:53:54.352495	206.5	13.4	-77.1	0.0
2025-01-25 07:53:56.595993	206.4	13.2	-77.1	0.0
2025-01-25 07:53:58.843945	206.4	13.0	-77.2	0.0
2025-01-25 07:54:01.087241	206.4	12.8	-77.0	0.0
2025-01-25 07:54:03.334266	206.3	12.5	-77.0	0.0
2025-01-25 07:54:05.579120	206.3	12.3	-77.0	0.0
2025-01-25 07:54:07.826984	206.3	12.1	-76.7	0.0
2025-01-25 07:54:10.074110	206.2	11.9	-77.0	0.0
2025-01-25 07:54:12.321343	206.2	11.7	-77.1	0.0
2025-01-25 07:54:14.567120	206.2	11.5	-76.8	0.0
2025-01-25 07:54:16.811036	206.1	11.3	-77.2	0.0
2025-01-25 07:54:19.056721	206.1	11.1	-77.0	0.0
2025-01-25 07:54:21.302004	206.1	10.9	-76.9	0.0
2025-01-25 07:54:23.548324	206.0	10.6	-76.9	0.0
2025-01-25 07:54:25.793908	206.0	10.4	-76.8	0.0
2025-01-25 07:54:28.039495	206.0	10.2	-77.0	0.0
2025-01-25 07:54:30.286390	205.9	10.0	-76.9	0.0
#Closed at: 2025-01-25 07:43:47.528408