passes_logs/2025/01/25/planumMaritime01/planumMaritime01__20250125_203658_NOAA_18_rec.log

#Pass ID: 20250125_203658_NOAA 18
#Satellite: NOAA 18
#Configuration: NOAA 18
#Start time: 2025-01-25 20:37:03.877046

#LorettStation: 1.0.0 05.05.2024
#Station: planumMaritime01
#Location: 37.49445 lon 55.92918 lat
#TLE: 1 28654U 05018A   25024.71894748  .00000533  00000+0  30607-3 0  9999
#TLE: 2 28654  98.8552 105.6762 0014784 152.2729 207.9234 14.13496616 14556

#Time	Az	El	Level	SNR
2025-01-25 20:37:06.036745	210.1	10.2	-76.3	0.0
2025-01-25 20:37:08.284929	210.3	10.3	-76.2	0.0
2025-01-25 20:37:10.531818	210.5	10.5	-76.2	0.0
2025-01-25 20:37:12.775590	210.8	10.6	-75.9	0.0
2025-01-25 20:37:15.022971	211.0	10.8	-76.2	0.0
2025-01-25 20:37:17.265224	211.3	11.0	-75.6	0.0
2025-01-25 20:37:19.513862	211.5	11.1	-75.6	0.0
2025-01-25 20:37:21.759428	211.8	11.3	-75.8	0.0
2025-01-25 20:37:24.004839	212.0	11.4	-75.9	0.0
2025-01-25 20:37:26.250122	212.3	11.6	-76.3	0.0
2025-01-25 20:37:28.494307	212.5	11.8	-76.1	0.0
2025-01-25 20:37:30.743683	212.8	11.9	-76.0	0.0
2025-01-25 20:37:32.990610	213.0	12.1	-76.2	0.0
2025-01-25 20:37:35.236094	213.3	12.3	-76.5	0.0
2025-01-25 20:37:37.483761	213.6	12.4	-76.0	0.0
2025-01-25 20:37:39.729530	213.8	12.6	-76.4	0.0
2025-01-25 20:37:41.976001	214.1	12.8	-77.2	0.0
2025-01-25 20:37:44.223476	214.4	12.9	-77.1	0.0
2025-01-25 20:37:46.469681	214.6	13.1	-76.9	0.0
2025-01-25 20:37:48.717049	214.9	13.3	-76.9	0.0
2025-01-25 20:37:50.962025	215.2	13.5	-76.6	0.0
2025-01-25 20:37:53.208677	215.5	13.6	-76.5	0.0
2025-01-25 20:37:55.454368	215.8	13.8	-76.8	0.0
2025-01-25 20:37:57.699372	216.1	14.0	-76.3	0.0
2025-01-25 20:37:59.942910	216.4	14.1	-76.7	0.0
2025-01-25 20:38:02.187170	216.7	14.3	-76.9	0.0
2025-01-25 20:38:04.432637	217.0	14.5	-76.9	0.0
2025-01-25 20:38:06.681423	217.3	14.7	-76.2	0.0
2025-01-25 20:38:08.928852	217.6	14.8	-76.3	0.0
2025-01-25 20:38:11.172193	217.9	15.0	-76.2	0.0
2025-01-25 20:38:13.420709	218.2	15.2	-76.5	0.0
2025-01-25 20:38:15.665954	218.5	15.4	-76.0	0.0
2025-01-25 20:38:17.911994	218.9	15.5	-76.1	0.0
2025-01-25 20:38:20.155191	219.2	15.7	-76.5	0.0
2025-01-25 20:38:22.402612	219.5	15.9	-76.7	0.0
2025-01-25 20:38:24.648161	219.9	16.1	-76.3	0.0
2025-01-25 20:38:26.895328	220.2	16.2	-76.1	0.0
2025-01-25 20:38:29.141797	220.5	16.4	-76.3	0.0
2025-01-25 20:38:31.392329	220.9	16.6	-76.3	0.0
2025-01-25 20:38:33.636083	221.2	16.8	-76.4	0.0
2025-01-25 20:38:35.880164	221.6	17.0	-76.4	0.0
2025-01-25 20:38:38.128450	222.0	17.1	-76.3	0.0
2025-01-25 20:38:40.376464	222.3	17.3	-77.0	0.0
2025-01-25 20:38:42.624306	222.7	17.5	-77.4	0.0
2025-01-25 20:38:44.868796	223.1	17.7	-76.1	0.0
2025-01-25 20:38:47.115754	223.4	17.9	-76.9	0.0
2025-01-25 20:38:49.358727	223.8	18.0	-76.3	0.0
2025-01-25 20:38:51.605463	224.2	18.2	-77.1	0.0
2025-01-25 20:38:53.853201	224.6	18.4	-77.1	0.0
2025-01-25 20:38:56.099075	225.0	18.6	-77.0	0.0
2025-01-25 20:38:58.344375	225.4	18.8	-77.0	0.0
2025-01-25 20:39:00.591702	225.8	18.9	-77.0	0.0
2025-01-25 20:39:02.839448	226.2	19.1	-77.3	0.0
2025-01-25 20:39:05.086173	226.6	19.3	-76.6	0.0
2025-01-25 20:39:07.331814	227.0	19.5	-76.4	0.0
2025-01-25 20:39:09.579076	227.5	19.7	-76.7	0.0
2025-01-25 20:39:11.827642	227.9	19.8	-76.7	0.0
2025-01-25 20:39:14.075719	228.3	20.0	-76.7	0.0
2025-01-25 20:39:16.323615	228.7	20.2	-76.9	0.0
2025-01-25 20:39:18.567059	229.2	20.4	-76.5	0.0
2025-01-25 20:39:20.812134	229.6	20.5	-76.8	0.0
2025-01-25 20:39:23.058319	230.1	20.7	-77.4	0.0
2025-01-25 20:39:25.303998	230.5	20.9	-77.4	0.0
2025-01-25 20:39:27.553087	231.0	21.1	-76.5	0.0
2025-01-25 20:39:29.799951	231.5	21.3	-76.2	0.0
2025-01-25 20:39:32.045565	231.9	21.4	-76.7	0.0
2025-01-25 20:39:34.292354	232.4	21.6	-76.4	0.0
2025-01-25 20:39:36.539577	232.9	21.8	-76.8	0.0
2025-01-25 20:39:38.784257	233.4	21.9	-76.1	0.0
2025-01-25 20:39:41.030846	233.9	22.1	-76.7	0.0
2025-01-25 20:39:43.276565	234.4	22.3	-76.6	0.0
2025-01-25 20:39:45.525278	234.9	22.5	-76.7	0.0
2025-01-25 20:39:47.773781	235.4	22.6	-76.4	0.0
2025-01-25 20:39:50.019747	235.9	22.8	-75.9	0.0
2025-01-25 20:39:52.265859	236.4	23.0	-76.9	0.0
2025-01-25 20:39:54.510258	237.0	23.1	-76.7	0.0
2025-01-25 20:39:56.756430	237.5	23.3	-76.9	0.0
2025-01-25 20:39:59.002912	238.0	23.4	-76.8	0.0
2025-01-25 20:40:01.248147	238.6	23.6	-77.0	0.0
2025-01-25 20:40:03.493983	239.1	23.8	-77.3	0.0
2025-01-25 20:40:05.744917	239.7	23.9	-76.9	0.0
2025-01-25 20:40:07.993334	240.2	24.1	-76.7	0.0
2025-01-25 20:40:10.236608	240.8	24.2	-77.3	0.0
2025-01-25 20:40:12.482336	241.3	24.4	-76.9	0.0
2025-01-25 20:40:14.728558	241.9	24.5	-76.8	0.0
2025-01-25 20:40:16.974349	242.5	24.7	-77.3	0.0
2025-01-25 20:40:19.221327	243.1	24.8	-76.8	0.0
2025-01-25 20:40:21.466186	243.7	24.9	-76.5	0.0
2025-01-25 20:40:23.711286	244.3	25.1	-76.3	0.0
2025-01-25 20:40:25.954820	244.9	25.2	-76.4	0.0
2025-01-25 20:40:28.199550	245.5	25.3	-76.3	0.0
2025-01-25 20:40:30.443609	246.1	25.5	-76.3	0.0
2025-01-25 20:40:32.688309	246.7	25.6	-77.0	0.0
2025-01-25 20:40:34.933253	247.3	25.7	-77.0	0.0
2025-01-25 20:40:37.181623	247.9	25.9	-76.9	0.0
2025-01-25 20:40:39.428233	248.5	26.0	-76.5	0.0
2025-01-25 20:40:41.672858	249.2	26.1	-76.9	0.0
2025-01-25 20:40:43.917521	249.8	26.2	-76.9	0.0
2025-01-25 20:40:46.161778	250.5	26.3	-76.9	0.0
2025-01-25 20:40:48.407930	251.1	26.4	-77.1	0.0
2025-01-25 20:40:50.653867	251.7	26.5	-76.8	0.0
2025-01-25 20:40:52.899817	252.4	26.6	-76.4	0.0
2025-01-25 20:40:55.144751	253.1	26.7	-77.3	0.0
2025-01-25 20:40:57.392495	253.7	26.8	-76.5	0.0
2025-01-25 20:40:59.639726	254.4	26.9	-76.3	0.0
2025-01-25 20:41:01.884810	255.0	27.0	-77.6	0.0
2025-01-25 20:41:04.130338	255.7	27.1	-76.7	0.0
2025-01-25 20:41:06.374728	256.4	27.1	-77.1	0.0
2025-01-25 20:41:08.623736	257.1	27.2	-76.8	0.0
2025-01-25 20:41:10.867222	257.8	27.3	-77.7	0.0
2025-01-25 20:41:13.112860	258.4	27.3	-76.8	0.0
2025-01-25 20:41:15.358306	259.1	27.4	-77.4	0.0
2025-01-25 20:41:17.606445	259.8	27.4	-76.5	0.0
2025-01-25 20:41:19.852288	260.5	27.5	-76.1	0.0
2025-01-25 20:41:22.098424	261.2	27.5	-76.7	0.0
2025-01-25 20:41:24.345258	261.9	27.6	-76.0	0.0
2025-01-25 20:41:26.593202	262.6	27.6	-76.8	0.0
2025-01-25 20:41:28.840073	263.3	27.7	-77.1	0.0
2025-01-25 20:41:31.085978	264.0	27.7	-76.9	0.0
2025-01-25 20:41:33.333614	264.7	27.7	-77.0	0.0
2025-01-25 20:41:35.576128	265.4	27.7	-77.1	0.0
2025-01-25 20:41:37.821358	266.1	27.7	-77.0	0.0
2025-01-25 20:41:40.070345	266.8	27.8	-76.5	0.0
2025-01-25 20:41:42.318885	267.5	27.8	-77.2	0.0
2025-01-25 20:41:44.566178	268.2	27.8	-77.3	0.0
2025-01-25 20:41:46.812219	268.9	27.8	-77.1	0.0
2025-01-25 20:41:49.059726	269.6	27.8	-77.1	0.0
2025-01-25 20:41:51.307635	270.3	27.7	-77.0	0.0
2025-01-25 20:41:53.552986	271.0	27.7	-76.9	0.0
2025-01-25 20:41:55.796367	271.7	27.7	-76.7	0.0
2025-01-25 20:41:58.042439	272.4	27.7	-77.0	0.0
2025-01-25 20:42:00.288775	273.1	27.7	-76.9	0.0
2025-01-25 20:42:02.531519	273.8	27.6	-77.0	0.0
2025-01-25 20:42:04.776694	274.5	27.6	-77.1	0.0
2025-01-25 20:42:07.024396	275.2	27.5	-77.2	0.0
2025-01-25 20:42:09.269773	275.9	27.5	-77.2	0.0
2025-01-25 20:42:11.516882	276.6	27.4	-77.6	0.0
2025-01-25 20:42:13.761112	277.2	27.4	-77.3	0.0
2025-01-25 20:42:16.007295	277.9	27.3	-77.3	0.0
2025-01-25 20:42:18.252918	278.6	27.3	-77.1	0.0
2025-01-25 20:42:20.501007	279.3	27.2	-77.0	0.0
2025-01-25 20:42:22.745687	280.0	27.1	-77.0	0.0
2025-01-25 20:42:24.990874	280.6	27.0	-77.2	0.0
2025-01-25 20:42:27.237344	281.3	27.0	-77.6	0.0
2025-01-25 20:42:29.485385	282.0	26.9	-76.9	0.0
2025-01-25 20:42:31.732176	282.6	26.8	-77.2	0.0
2025-01-25 20:42:33.976885	283.3	26.7	-77.2	0.0
2025-01-25 20:42:36.225790	284.0	26.6	-76.8	0.0
2025-01-25 20:42:38.470214	284.6	26.5	-77.6	0.0
2025-01-25 20:42:40.714555	285.3	26.4	-77.1	0.0
2025-01-25 20:42:42.959712	285.9	26.3	-76.7	0.0
2025-01-25 20:42:45.206220	286.5	26.2	-77.8	0.0
2025-01-25 20:42:47.452611	287.2	26.1	-77.0	0.0
2025-01-25 20:42:49.700543	287.8	25.9	-76.3	0.0
2025-01-25 20:42:51.946557	288.4	25.8	-76.9	0.0
2025-01-25 20:42:54.195400	289.0	25.7	-77.7	0.0
2025-01-25 20:42:56.440620	289.7	25.6	-77.1	0.0
2025-01-25 20:42:58.688862	290.3	25.4	-77.4	0.0
2025-01-25 20:43:00.934737	290.9	25.3	-76.4	0.0
2025-01-25 20:43:03.180638	291.5	25.2	-76.9	0.0
2025-01-25 20:43:05.429362	292.1	25.0	-77.0	0.0
2025-01-25 20:43:07.674580	292.7	24.9	-77.3	0.0
2025-01-25 20:43:09.920855	293.3	24.8	-77.0	0.0
2025-01-25 20:43:12.166590	293.8	24.6	-77.3	0.0
2025-01-25 20:43:14.413687	294.4	24.5	-77.2	0.0
2025-01-25 20:43:16.659221	295.0	24.3	-77.3	0.0
2025-01-25 20:43:18.905062	295.6	24.2	-77.7	0.0
2025-01-25 20:43:21.151396	296.1	24.0	-69.8	0.0
2025-01-25 20:43:23.396668	296.7	23.9	-69.7	0.0
2025-01-25 20:43:25.640259	297.2	23.7	-70.8	0.0
2025-01-25 20:43:27.887310	297.8	23.6	-69.8	0.0
2025-01-25 20:43:30.130529	298.3	23.4	-70.0	0.0
2025-01-25 20:43:32.376989	298.8	23.2	-70.3	0.0
2025-01-25 20:43:34.626250	299.4	23.1	-69.3	0.0
2025-01-25 20:43:36.875561	299.9	22.9	-70.7	0.0
2025-01-25 20:43:39.124898	300.4	22.8	-71.2	0.0
2025-01-25 20:43:41.370678	300.9	22.6	-70.5	0.0
2025-01-25 20:43:43.617157	301.4	22.4	-70.1	0.0
2025-01-25 20:43:45.864763	301.9	22.3	-71.1	0.0
2025-01-25 20:43:48.110280	302.4	22.1	-70.6	0.0
2025-01-25 20:43:50.355076	302.9	21.9	-70.2	0.0
2025-01-25 20:43:52.601200	303.4	21.7	-69.6	0.0
2025-01-25 20:43:54.847034	303.9	21.6	-71.6	0.0
2025-01-25 20:43:57.091933	304.4	21.4	-67.7	0.0
2025-01-25 20:43:59.334608	304.8	21.2	-71.2	0.0
2025-01-25 20:44:01.580639	305.3	21.0	-70.9	0.0
2025-01-25 20:44:03.827934	305.8	20.9	-70.5	0.0
2025-01-25 20:44:06.073673	306.2	20.7	-69.7	0.0
2025-01-25 20:44:08.322192	306.7	20.5	-71.6	0.0
2025-01-25 20:44:10.568022	307.1	20.3	-71.3	0.0
2025-01-25 20:44:12.811911	307.5	20.2	-70.4	0.0
2025-01-25 20:44:15.058454	308.0	20.0	-71.4	0.0
2025-01-25 20:44:17.304756	308.4	19.8	-71.3	0.0
2025-01-25 20:44:19.553643	308.8	19.6	-76.5	0.0
2025-01-25 20:44:21.797821	309.3	19.5	-77.0	0.0
2025-01-25 20:44:24.041970	309.7	19.3	-77.2	0.0
2025-01-25 20:44:26.289955	310.1	19.1	-77.7	0.0
2025-01-25 20:44:28.532541	310.5	18.9	-76.7	0.0
2025-01-25 20:44:30.777509	310.9	18.7	-77.0	0.0
2025-01-25 20:44:33.023454	311.3	18.6	-77.6	0.0
2025-01-25 20:44:35.271782	311.7	18.4	-77.8	0.0
2025-01-25 20:44:37.515321	312.1	18.2	-76.1	0.0
2025-01-25 20:44:39.761634	312.5	18.0	-77.3	0.0
2025-01-25 20:44:42.008749	312.8	17.8	-77.5	0.0
2025-01-25 20:44:44.256392	313.2	17.7	-76.9	0.0
2025-01-25 20:44:46.502993	313.6	17.5	-77.1	0.0
2025-01-25 20:44:48.751620	314.0	17.3	-77.1	0.0
2025-01-25 20:44:50.997621	314.3	17.1	-77.5	0.0
2025-01-25 20:44:53.248358	314.7	16.9	-77.0	0.0
2025-01-25 20:44:55.495774	315.0	16.8	-77.1	0.0
2025-01-25 20:44:57.742859	315.4	16.6	-77.1	0.0
2025-01-25 20:44:59.988378	315.7	16.4	-77.7	0.0
2025-01-25 20:45:02.235679	316.1	16.2	-77.1	0.0
2025-01-25 20:45:04.482680	316.4	16.1	-77.3	0.0
2025-01-25 20:45:06.729767	316.8	15.9	-77.3	0.0
2025-01-25 20:45:08.975865	317.1	15.7	-76.2	0.0
2025-01-25 20:45:11.221234	317.4	15.5	-76.8	0.0
2025-01-25 20:45:13.469635	317.7	15.4	-77.4	0.0
2025-01-25 20:45:15.715507	318.1	15.2	-78.0	0.0
2025-01-25 20:45:17.960402	318.4	15.0	-78.0	0.0
2025-01-25 20:45:20.205121	318.7	14.8	-78.1	0.0
2025-01-25 20:45:22.449598	319.0	14.7	-76.9	0.0
2025-01-25 20:45:24.693901	319.3	14.5	-77.2	0.0
2025-01-25 20:45:26.939491	319.6	14.3	-77.3	0.0
2025-01-25 20:45:29.184448	319.9	14.1	-77.5	0.0
2025-01-25 20:45:31.434085	320.2	14.0	-77.3	0.0
2025-01-25 20:45:33.682183	320.5	13.8	-77.4	0.0
2025-01-25 20:45:35.928209	320.8	13.6	-77.4	0.0
2025-01-25 20:45:38.176854	321.1	13.5	-77.8	0.0
2025-01-25 20:45:40.423632	321.4	13.3	-77.0	0.0
2025-01-25 20:45:42.670324	321.6	13.1	-76.9	0.0
2025-01-25 20:45:44.919246	321.9	12.9	-77.6	0.0
2025-01-25 20:45:47.162056	322.2	12.8	-77.8	0.0
2025-01-25 20:45:49.406152	322.5	12.6	-78.2	0.0
2025-01-25 20:45:51.650973	322.7	12.4	-78.0	0.0
2025-01-25 20:45:53.895756	323.0	12.3	-77.2	0.0
2025-01-25 20:45:56.141154	323.3	12.1	-77.1	0.0
2025-01-25 20:45:58.388177	323.5	11.9	-77.6	0.0
2025-01-25 20:46:00.631228	323.8	11.8	-77.1	0.0
2025-01-25 20:46:02.877551	324.0	11.6	-77.2	0.0
2025-01-25 20:46:05.121569	324.3	11.5	-77.7	0.0
2025-01-25 20:46:07.369905	324.5	11.3	-76.7	0.0
2025-01-25 20:46:09.617864	324.8	11.1	-77.8	0.0
2025-01-25 20:46:11.863891	325.0	11.0	-77.2	0.0
2025-01-25 20:46:14.108476	325.3	10.8	-77.4	0.0
2025-01-25 20:46:16.351090	325.5	10.6	-77.5	0.0
2025-01-25 20:46:18.598353	325.7	10.5	-77.8	0.0
2025-01-25 20:46:20.840666	326.0	10.3	-77.3	0.0
2025-01-25 20:46:23.085603	326.2	10.2	-77.5	0.0
#Closed at: 2025-01-25 20:36:58.878767