passes_logs/2025/01/25/planumMaritime01/planumMaritime01__20250125_165238_NOAA_19_rec.log

#Pass ID: 20250125_165238_NOAA 19
#Satellite: NOAA 19
#Configuration: NOAA 19
#Start time: 2025-01-25 16:52:43.626535

#LorettStation: 1.0.0 05.05.2024
#Station: planumMaritime01
#Location: 37.49445 lon 55.92918 lat
#TLE: 1 33591U 09005A   25024.77415192  .00000451  00000+0  26462-3 0  9996
#TLE: 2 33591  99.0180  88.6113 0014109  31.0080 329.1922 14.13268355822923

#Time	Az	El	Level	SNR
2025-01-25 16:52:45.790628	116.0	10.2	-78.1	0.0
2025-01-25 16:52:48.039898	115.8	10.3	-77.8	0.0
2025-01-25 16:52:50.288431	115.6	10.5	-78.2	0.0
2025-01-25 16:52:52.536530	115.4	10.7	-78.2	0.0
2025-01-25 16:52:54.780375	115.2	10.9	-78.1	0.0
2025-01-25 16:52:57.026368	115.0	11.0	-78.3	0.0
2025-01-25 16:52:59.274697	114.8	11.2	-78.2	0.0
2025-01-25 16:53:01.521211	114.6	11.4	-77.9	0.0
2025-01-25 16:53:03.763380	114.4	11.6	-78.5	0.0
2025-01-25 16:53:06.011279	114.1	11.7	-78.3	0.0
2025-01-25 16:53:08.259280	113.9	11.9	-78.3	0.0
2025-01-25 16:53:10.504986	113.7	12.1	-78.4	0.0
2025-01-25 16:53:12.752192	113.5	12.3	-78.2	0.0
2025-01-25 16:53:14.995948	113.2	12.5	-78.5	0.0
2025-01-25 16:53:17.242327	113.0	12.7	-78.2	0.0
2025-01-25 16:53:19.490886	112.8	12.8	-78.5	0.0
2025-01-25 16:53:21.736190	112.5	13.0	-77.9	0.0
2025-01-25 16:53:23.982390	112.3	13.2	-78.5	0.0
2025-01-25 16:53:26.228239	112.0	13.4	-78.5	0.0
2025-01-25 16:53:28.476494	111.8	13.6	-78.4	0.0
2025-01-25 16:53:30.721708	111.5	13.8	-78.4	0.0
2025-01-25 16:53:32.967068	111.3	14.0	-78.3	0.0
2025-01-25 16:53:35.212389	111.0	14.1	-78.5	0.0
2025-01-25 16:53:37.459030	110.8	14.3	-78.7	0.0
2025-01-25 16:53:39.703099	110.5	14.5	-78.5	0.0
2025-01-25 16:53:41.951685	110.2	14.7	-78.6	0.0
2025-01-25 16:53:44.198757	110.0	14.9	-78.5	0.0
2025-01-25 16:53:46.447073	109.7	15.1	-78.7	0.0
2025-01-25 16:53:48.691210	109.4	15.3	-78.7	0.0
2025-01-25 16:53:50.937641	109.1	15.5	-78.8	0.0
2025-01-25 16:53:53.182759	108.8	15.7	-78.9	0.0
2025-01-25 16:53:55.428718	108.5	15.9	-78.3	0.0
2025-01-25 16:53:57.670883	108.3	16.1	-78.5	0.0
2025-01-25 16:53:59.918185	108.0	16.3	-78.8	0.0
2025-01-25 16:54:02.165610	107.7	16.5	-78.6	0.0
2025-01-25 16:54:04.411307	107.3	16.7	-78.6	0.0
2025-01-25 16:54:06.659960	107.0	16.9	-78.1	0.0
2025-01-25 16:54:08.906658	106.7	17.1	-78.3	0.0
2025-01-25 16:54:11.153377	106.4	17.3	-78.4	0.0
2025-01-25 16:54:13.401287	106.1	17.5	-77.8	0.0
2025-01-25 16:54:15.649837	105.7	17.7	-77.9	0.0
2025-01-25 16:54:17.895797	105.4	17.9	-78.3	0.0
2025-01-25 16:54:20.143477	105.1	18.1	-78.1	0.0
2025-01-25 16:54:22.386619	104.7	18.3	-77.8	0.0
2025-01-25 16:54:24.632740	104.4	18.6	-78.0	0.0
2025-01-25 16:54:26.881798	104.0	18.8	-78.3	0.0
2025-01-25 16:54:29.128509	103.7	19.0	-78.7	0.0
2025-01-25 16:54:31.372221	103.3	19.2	-78.2	0.0
2025-01-25 16:54:33.618866	103.0	19.4	-78.5	0.0
2025-01-25 16:54:35.865551	102.6	19.6	-78.3	0.0
2025-01-25 16:54:38.113051	102.2	19.8	-77.9	0.0
2025-01-25 16:54:40.358145	101.8	20.0	-78.7	0.0
2025-01-25 16:54:42.601376	101.4	20.2	-78.4	0.0
2025-01-25 16:54:44.848910	101.0	20.5	-78.6	0.0
2025-01-25 16:54:47.094111	100.7	20.7	-78.7	0.0
2025-01-25 16:54:49.341651	100.2	20.9	-79.1	0.0
2025-01-25 16:54:51.588430	99.8	21.1	-78.9	0.0
2025-01-25 16:54:53.834708	99.4	21.3	-79.0	0.0
2025-01-25 16:54:56.081791	99.0	21.5	-79.3	0.0
2025-01-25 16:54:58.326702	98.6	21.7	-79.0	0.0
2025-01-25 16:55:00.571154	98.1	21.9	-79.2	0.0
2025-01-25 16:55:02.819344	97.7	22.2	-79.1	0.0
2025-01-25 16:55:05.067154	97.3	22.4	-78.7	0.0
2025-01-25 16:55:07.314593	96.8	22.6	-78.7	0.0
2025-01-25 16:55:09.563466	96.3	22.8	-78.5	0.0
2025-01-25 16:55:11.811876	95.9	23.0	-78.6	0.0
2025-01-25 16:55:14.063031	95.4	23.2	-79.0	0.0
2025-01-25 16:55:16.308308	94.9	23.4	-78.5	0.0
2025-01-25 16:55:18.557614	94.5	23.7	-78.4	0.0
2025-01-25 16:55:20.802390	94.0	23.9	-78.2	0.0
2025-01-25 16:55:23.047349	93.5	24.1	-78.7	0.0
2025-01-25 16:55:25.291955	93.0	24.3	-78.8	0.0
2025-01-25 16:55:27.539530	92.5	24.5	-78.9	0.0
2025-01-25 16:55:29.787534	91.9	24.7	-79.1	0.0
2025-01-25 16:55:32.031691	91.4	24.9	-78.8	0.0
2025-01-25 16:55:34.279700	90.9	25.1	-79.1	0.0
2025-01-25 16:55:36.528117	90.3	25.3	-78.8	0.0
2025-01-25 16:55:38.774403	89.8	25.5	-78.8	0.0
2025-01-25 16:55:41.019998	89.3	25.7	-78.6	0.0
2025-01-25 16:55:43.266413	88.7	25.9	-78.6	0.0
2025-01-25 16:55:45.513640	88.1	26.1	-78.9	0.0
2025-01-25 16:55:47.759646	87.6	26.3	-79.2	0.0
2025-01-25 16:55:50.005825	87.0	26.5	-79.1	0.0
2025-01-25 16:55:52.253294	86.4	26.7	-78.9	0.0
2025-01-25 16:55:54.496870	85.8	26.9	-79.2	0.0
2025-01-25 16:55:56.743213	85.2	27.1	-79.0	0.0
2025-01-25 16:55:58.987414	84.6	27.3	-78.9	0.0
2025-01-25 16:56:01.232497	84.0	27.5	-78.6	0.0
2025-01-25 16:56:03.479552	83.3	27.7	-78.8	0.0
2025-01-25 16:56:05.726912	82.7	27.9	-79.1	0.0
2025-01-25 16:56:07.973113	82.1	28.0	-79.0	0.0
2025-01-25 16:56:10.216595	81.4	28.2	-78.9	0.0
2025-01-25 16:56:12.463851	80.8	28.4	-79.3	0.0
2025-01-25 16:56:14.709221	80.1	28.6	-79.0	0.0
2025-01-25 16:56:16.956591	79.5	28.7	-78.8	0.0
2025-01-25 16:56:19.202091	78.8	28.9	-79.4	0.0
2025-01-25 16:56:21.447941	78.1	29.1	-79.1	0.0
2025-01-25 16:56:23.694224	77.4	29.2	-79.1	0.0
2025-01-25 16:56:25.937625	76.7	29.4	-79.0	0.0
2025-01-25 16:56:28.182927	76.0	29.5	-79.0	0.0
2025-01-25 16:56:30.428828	75.3	29.7	-79.0	0.0
2025-01-25 16:56:32.675334	74.6	29.8	-78.8	0.0
2025-01-25 16:56:34.921982	73.9	29.9	-79.0	0.0
2025-01-25 16:56:37.167356	73.2	30.1	-78.7	0.0
2025-01-25 16:56:39.414091	72.4	30.2	-78.9	0.0
2025-01-25 16:56:41.661714	71.7	30.3	-78.5	0.0
2025-01-25 16:56:43.905448	71.0	30.4	-78.9	0.0
2025-01-25 16:56:46.153153	70.2	30.5	-78.6	0.0
2025-01-25 16:56:48.399036	69.5	30.6	-78.6	0.0
2025-01-25 16:56:50.645054	68.7	30.7	-79.2	0.0
2025-01-25 16:56:52.887513	68.0	30.8	-78.6	0.0
2025-01-25 16:56:55.134473	67.2	30.9	-78.6	0.0
2025-01-25 16:56:57.383206	66.4	31.0	-78.4	0.0
2025-01-25 16:56:59.628498	65.7	31.1	-78.9	0.0
2025-01-25 16:57:01.873615	64.9	31.2	-79.2	0.0
2025-01-25 16:57:04.119257	64.1	31.2	-78.6	0.0
2025-01-25 16:57:06.365151	63.3	31.3	-78.9	0.0
2025-01-25 16:57:08.614212	62.5	31.4	-78.8	0.0
2025-01-25 16:57:10.861097	61.7	31.4	-78.8	0.0
2025-01-25 16:57:13.106915	61.0	31.5	-78.8	0.0
2025-01-25 16:57:15.353131	60.2	31.5	-78.7	0.0
2025-01-25 16:57:17.599864	59.4	31.5	-78.2	0.0
2025-01-25 16:57:19.842093	58.6	31.6	-78.3	0.0
2025-01-25 16:57:22.088555	57.8	31.6	-78.6	0.0
2025-01-25 16:57:24.334760	57.0	31.6	-78.5	0.0
2025-01-25 16:57:26.579494	56.2	31.6	-78.8	0.0
2025-01-25 16:57:28.827841	55.4	31.6	-78.8	0.0
2025-01-25 16:57:31.074637	54.6	31.6	-78.7	0.0
2025-01-25 16:57:33.322096	53.8	31.6	-78.4	0.0
2025-01-25 16:57:35.566607	53.0	31.6	-78.7	0.0
2025-01-25 16:57:37.813420	52.2	31.5	-78.5	0.0
2025-01-25 16:57:40.055084	51.4	31.5	-79.1	0.0
2025-01-25 16:57:42.298555	50.6	31.5	-79.1	0.0
2025-01-25 16:57:44.546011	49.8	31.4	-79.1	0.0
2025-01-25 16:57:46.791590	49.0	31.4	-79.2	0.0
2025-01-25 16:57:49.038714	48.3	31.3	-79.0	0.0
2025-01-25 16:57:51.285437	47.5	31.3	-79.4	0.0
2025-01-25 16:57:53.531453	46.7	31.2	-79.1	0.0
2025-01-25 16:57:55.778265	45.9	31.1	-79.0	0.0
2025-01-25 16:57:58.024412	45.2	31.0	-78.9	0.0
2025-01-25 16:58:00.267207	44.4	31.0	-79.2	0.0
2025-01-25 16:58:02.513781	43.6	30.9	-79.3	0.0
2025-01-25 16:58:04.760552	42.9	30.8	-79.2	0.0
2025-01-25 16:58:07.005856	42.1	30.7	-78.4	0.0
2025-01-25 16:58:09.249155	41.4	30.6	-79.1	0.0
2025-01-25 16:58:11.495213	40.6	30.5	-79.1	0.0
2025-01-25 16:58:13.741566	39.9	30.4	-79.0	0.0
2025-01-25 16:58:15.989707	39.1	30.2	-79.2	0.0
2025-01-25 16:58:18.237697	38.4	30.1	-78.8	0.0
2025-01-25 16:58:20.481847	37.7	30.0	-79.2	0.0
2025-01-25 16:58:22.725662	37.0	29.8	-79.1	0.0
2025-01-25 16:58:24.972044	36.3	29.7	-79.3	0.0
2025-01-25 16:58:27.217983	35.6	29.6	-79.3	0.0
2025-01-25 16:58:29.463537	34.9	29.4	-79.1	0.0
2025-01-25 16:58:31.710158	34.2	29.3	-79.2	0.0
2025-01-25 16:58:33.958124	33.5	29.1	-79.2	0.0
2025-01-25 16:58:36.204898	32.8	29.0	-78.8	0.0
2025-01-25 16:58:38.451347	32.1	28.8	-78.9	0.0
2025-01-25 16:58:40.698913	31.5	28.6	-79.2	0.0
2025-01-25 16:58:42.943856	30.8	28.5	-79.1	0.0
2025-01-25 16:58:45.189105	30.2	28.3	-79.0	0.0
2025-01-25 16:58:47.436553	29.5	28.1	-79.2	0.0
2025-01-25 16:58:49.680664	28.9	27.9	-79.3	0.0
2025-01-25 16:58:51.928214	28.3	27.8	-79.1	0.0
2025-01-25 16:58:54.173397	27.6	27.6	-79.3	0.0
2025-01-25 16:58:56.419533	27.0	27.4	-79.1	0.0
2025-01-25 16:58:58.667188	26.4	27.2	-79.2	0.0
2025-01-25 16:59:00.911108	25.8	27.0	-79.3	0.0
2025-01-25 16:59:03.156348	25.2	26.8	-79.1	0.0
2025-01-25 16:59:05.404008	24.6	26.6	-79.5	0.0
2025-01-25 16:59:07.650686	24.0	26.4	-79.4	0.0
2025-01-25 16:59:09.899332	23.5	26.2	-79.3	0.0
2025-01-25 16:59:12.143196	22.9	26.0	-79.5	0.0
2025-01-25 16:59:14.388754	22.4	25.8	-79.4	0.0
2025-01-25 16:59:16.636482	21.8	25.6	-79.7	0.0
2025-01-25 16:59:18.881403	21.3	25.4	-79.6	0.0
2025-01-25 16:59:21.130544	20.7	25.2	-78.8	0.0
2025-01-25 16:59:23.376904	20.2	25.0	-79.1	0.0
2025-01-25 16:59:25.622622	19.7	24.8	-79.4	0.0
2025-01-25 16:59:27.865473	19.2	24.6	-79.3	0.0
2025-01-25 16:59:30.109534	18.6	24.4	-78.1	0.0
2025-01-25 16:59:32.357504	18.1	24.2	-78.3	0.0
2025-01-25 16:59:34.602683	17.7	24.0	-78.5	0.0
2025-01-25 16:59:36.849925	17.2	23.8	-78.4	0.0
2025-01-25 16:59:39.094059	16.7	23.6	-78.3	0.0
2025-01-25 16:59:41.336697	16.2	23.4	-78.3	0.0
2025-01-25 16:59:43.582791	15.7	23.1	-78.4	0.0
2025-01-25 16:59:45.829086	15.3	22.9	-78.6	0.0
2025-01-25 16:59:48.075309	14.8	22.7	-78.7	0.0
2025-01-25 16:59:50.322907	14.4	22.5	-78.3	0.0
2025-01-25 16:59:52.570055	13.9	22.3	-78.4	0.0
2025-01-25 16:59:54.815941	13.5	22.1	-78.7	0.0
2025-01-25 16:59:57.064049	13.1	21.9	-78.6	0.0
2025-01-25 16:59:59.310510	12.6	21.7	-79.1	0.0
2025-01-25 17:00:01.555877	12.2	21.4	-78.0	0.0
2025-01-25 17:00:03.801335	11.8	21.2	-78.9	0.0
2025-01-25 17:00:06.051009	11.4	21.0	-78.9	0.0
2025-01-25 17:00:08.296457	11.0	20.8	-79.1	0.0
2025-01-25 17:00:10.542612	10.6	20.6	-78.7	0.0
2025-01-25 17:00:12.791076	10.2	20.4	-78.8	0.0
2025-01-25 17:00:15.038119	9.8	20.2	-78.6	0.0
2025-01-25 17:00:17.285848	9.4	20.0	-78.9	0.0
2025-01-25 17:00:19.533173	9.1	19.7	-79.0	0.0
2025-01-25 17:00:21.778709	8.7	19.5	-79.2	0.0
2025-01-25 17:00:24.025366	8.3	19.3	-79.3	0.0
2025-01-25 17:00:26.274356	8.0	19.1	-78.9	0.0
2025-01-25 17:00:28.521161	7.6	18.9	-79.1	0.0
2025-01-25 17:00:30.769150	7.3	18.7	-79.1	0.0
2025-01-25 17:00:33.014848	6.9	18.5	-79.0	0.0
2025-01-25 17:00:35.262041	6.6	18.3	-79.2	0.0
2025-01-25 17:00:37.506155	6.2	18.1	-79.4	0.0
2025-01-25 17:00:39.752002	5.9	17.9	-78.8	0.0
2025-01-25 17:00:41.996431	5.6	17.7	-78.9	0.0
2025-01-25 17:00:44.240156	5.3	17.5	-78.5	0.0
2025-01-25 17:00:46.483455	4.9	17.3	-79.0	0.0
2025-01-25 17:00:48.726228	4.6	17.1	-78.8	0.0
2025-01-25 17:00:50.973920	4.3	16.9	-78.8	0.0
2025-01-25 17:00:53.220957	4.0	16.7	-78.6	0.0
2025-01-25 17:00:55.468087	3.7	16.5	-78.9	0.0
2025-01-25 17:00:57.712058	3.4	16.3	-78.4	0.0
2025-01-25 17:00:59.957943	3.1	16.1	-79.3	0.0
2025-01-25 17:01:02.201413	2.8	15.9	-79.0	0.0
2025-01-25 17:01:04.450850	2.5	15.7	-78.9	0.0
2025-01-25 17:01:06.698262	2.3	15.5	-79.2	0.0
2025-01-25 17:01:08.943840	2.0	15.3	-78.4	0.0
2025-01-25 17:01:11.187682	1.7	15.1	-79.0	0.0
2025-01-25 17:01:13.433370	1.4	14.9	-79.2	0.0
2025-01-25 17:01:15.681430	1.2	14.7	-79.5	0.0
2025-01-25 17:01:17.926775	0.9	14.5	-78.6	0.0
2025-01-25 17:01:20.174682	0.7	14.3	-79.1	0.0
2025-01-25 17:01:22.421249	0.4	14.1	-79.2	0.0
2025-01-25 17:01:24.665549	0.1	13.9	-79.3	0.0
2025-01-25 17:01:26.910373	359.9	13.8	-79.1	0.0
2025-01-25 17:01:29.155508	359.7	13.6	-79.0	0.0
2025-01-25 17:01:31.401161	359.4	13.4	-79.2	0.0
2025-01-25 17:01:33.648006	359.2	13.2	-79.2	0.0
2025-01-25 17:01:35.893047	358.9	13.0	-79.3	0.0
2025-01-25 17:01:38.140259	358.7	12.8	-79.0	0.0
2025-01-25 17:01:40.385602	358.5	12.7	-79.3	0.0
2025-01-25 17:01:42.629984	358.2	12.5	-78.5	0.0
2025-01-25 17:01:44.874805	358.0	12.3	-79.1	0.0
2025-01-25 17:01:47.121687	357.8	12.1	-79.0	0.0
2025-01-25 17:01:49.366547	357.6	11.9	-79.1	0.0
2025-01-25 17:01:51.608455	357.4	11.8	-79.5	0.0
2025-01-25 17:01:53.851594	357.1	11.6	-79.1	0.0
2025-01-25 17:01:56.094374	356.9	11.4	-79.7	0.0
2025-01-25 17:01:58.340263	356.7	11.2	-78.9	0.0
2025-01-25 17:02:00.586930	356.5	11.1	-79.2	0.0
2025-01-25 17:02:02.830514	356.3	10.9	-79.1	0.0
2025-01-25 17:02:05.073495	356.1	10.7	-79.2	0.0
2025-01-25 17:02:07.318374	355.9	10.5	-79.0	0.0
2025-01-25 17:02:09.566531	355.7	10.4	-79.2	0.0
2025-01-25 17:02:11.809372	355.5	10.2	-79.2	0.0
2025-01-25 17:02:14.054857	355.3	10.0	-79.1	0.0
#Closed at: 2025-01-25 16:52:38.628428