passes_logs/2025/01/25/planumMaritime01/planumMaritime01__20250125_080825_METOP-B_rec.log

#Pass ID: 20250125_080825_METOP-B
#Satellite: METOP-B
#Configuration: METOP-B
#Start time: 2025-01-25 08:08:30.807019

#LorettStation: 1.0.0 05.05.2024
#Station: planumMaritime01
#Location: 37.49445 lon 55.92918 lat
#TLE: 1 38771U 12049A   25024.75604810  .00000390  00000+0  19820-3 0  9990
#TLE: 2 38771  98.5996  82.6623 0001581  70.5177 289.6171 14.21417781641026

#Time	Az	El	Level	SNR
2025-01-25 08:08:32.970996	9.5	10.2	-75.3	0.0
2025-01-25 08:08:35.216338	9.4	10.4	-75.5	0.0
2025-01-25 08:08:37.465000	9.3	10.6	-75.6	0.0
2025-01-25 08:08:39.713846	9.2	10.8	-75.1	0.0
2025-01-25 08:08:41.964164	9.1	11.0	-75.3	0.0
2025-01-25 08:08:44.211084	9.0	11.2	-75.8	0.0
2025-01-25 08:08:46.454603	8.9	11.3	-75.3	0.0
2025-01-25 08:08:48.698534	8.8	11.5	-75.3	0.0
2025-01-25 08:08:50.945378	8.7	11.7	-75.9	0.0
2025-01-25 08:08:53.192584	8.6	12.0	-75.9	0.0
2025-01-25 08:08:55.442112	8.4	12.2	-75.9	0.0
2025-01-25 08:08:57.691777	8.3	12.4	-75.7	0.0
2025-01-25 08:08:59.937313	8.2	12.6	-76.0	0.0
2025-01-25 08:09:02.182234	8.1	12.8	-75.8	0.0
2025-01-25 08:09:04.429155	8.0	13.0	-76.1	0.0
2025-01-25 08:09:06.676161	7.8	13.2	-76.1	0.0
2025-01-25 08:09:08.920785	7.7	13.4	-75.8	0.0
2025-01-25 08:09:11.167026	7.6	13.6	-75.5	0.0
2025-01-25 08:09:13.411653	7.4	13.8	-76.0	0.0
2025-01-25 08:09:15.658383	7.3	14.1	-75.6	0.0
2025-01-25 08:09:17.905448	7.2	14.3	-76.1	0.0
2025-01-25 08:09:20.152649	7.0	14.5	-76.1	0.0
2025-01-25 08:09:22.400388	6.9	14.7	-76.3	0.0
2025-01-25 08:09:24.644138	6.7	15.0	-76.1	0.0
2025-01-25 08:09:26.889488	6.6	15.2	-76.3	0.0
2025-01-25 08:09:29.131802	6.4	15.4	-76.2	0.0
2025-01-25 08:09:31.376860	6.3	15.7	-76.4	0.0
2025-01-25 08:09:33.624351	6.1	15.9	-76.3	0.0
2025-01-25 08:09:35.870654	6.0	16.1	-76.2	0.0
2025-01-25 08:09:38.117658	5.8	16.4	-76.3	0.0
2025-01-25 08:09:40.366135	5.7	16.6	-76.2	0.0
2025-01-25 08:09:42.612022	5.5	16.9	-76.2	0.0
2025-01-25 08:09:44.860724	5.3	17.1	-75.3	0.0
2025-01-25 08:09:47.107356	5.2	17.3	-75.6	0.0
2025-01-25 08:09:49.357404	5.0	17.6	-76.3	0.0
2025-01-25 08:09:51.603781	4.8	17.9	-75.8	0.0
2025-01-25 08:09:53.849998	4.6	18.1	-76.5	0.0
2025-01-25 08:09:56.096830	4.5	18.4	-76.6	0.0
2025-01-25 08:09:58.340799	4.3	18.6	-75.9	0.0
2025-01-25 08:10:00.587107	4.1	18.9	-76.3	0.0
2025-01-25 08:10:02.837611	3.9	19.2	-76.5	0.0
2025-01-25 08:10:05.088708	3.7	19.4	-76.1	0.0
2025-01-25 08:10:07.335837	3.5	19.7	-76.5	0.0
2025-01-25 08:10:09.580737	3.3	20.0	-76.2	0.0
2025-01-25 08:10:11.824373	3.1	20.2	-76.0	0.0
2025-01-25 08:10:14.069403	2.9	20.5	-76.6	0.0
2025-01-25 08:10:16.317227	2.7	20.8	-76.1	0.0
2025-01-25 08:10:18.560953	2.4	21.1	-76.1	0.0
2025-01-25 08:10:20.812542	2.2	21.4	-75.9	0.0
2025-01-25 08:10:23.061216	2.0	21.7	-76.2	0.0
2025-01-25 08:10:25.307498	1.8	21.9	-76.4	0.0
2025-01-25 08:10:27.555399	1.5	22.2	-75.9	0.0
2025-01-25 08:10:29.803832	1.3	22.5	-76.0	0.0
2025-01-25 08:10:32.050820	1.0	22.8	-76.5	0.0
2025-01-25 08:10:34.299626	0.8	23.1	-76.5	0.0
2025-01-25 08:10:36.547083	0.5	23.4	-76.2	0.0
2025-01-25 08:10:38.798694	0.3	23.8	-76.1	0.0
2025-01-25 08:10:41.043649	0.0	24.1	-76.2	0.0
2025-01-25 08:10:43.289128	359.7	24.4	-76.5	0.0
2025-01-25 08:10:45.534368	359.5	24.7	-76.2	0.0
2025-01-25 08:10:47.786488	359.2	25.0	-76.1	0.0
2025-01-25 08:10:50.031567	358.9	25.3	-76.4	0.0
2025-01-25 08:10:52.282919	358.6	25.7	-76.1	0.0
2025-01-25 08:10:54.530524	358.3	26.0	-75.2	0.0
2025-01-25 08:10:56.777497	358.0	26.3	-76.1	0.0
2025-01-25 08:10:59.025781	357.7	26.7	-76.4	0.0
2025-01-25 08:11:01.271490	357.3	27.0	-76.2	0.0
2025-01-25 08:11:03.516051	357.0	27.4	-76.2	0.0
2025-01-25 08:11:05.763476	356.7	27.7	-76.2	0.0
2025-01-25 08:11:08.011727	356.3	28.1	-76.3	0.0
2025-01-25 08:11:10.259453	356.0	28.4	-76.0	0.0
2025-01-25 08:11:12.505389	355.6	28.8	-76.0	0.0
2025-01-25 08:11:14.750349	355.2	29.1	-76.4	0.0
2025-01-25 08:11:16.999348	354.9	29.5	-76.4	0.0
2025-01-25 08:11:19.245119	354.5	29.9	-75.7	0.0
2025-01-25 08:11:21.491484	354.1	30.2	-76.8	0.0
2025-01-25 08:11:23.738351	353.7	30.6	-75.7	0.0
2025-01-25 08:11:25.986881	353.3	31.0	-76.0	0.0
2025-01-25 08:11:28.235031	352.8	31.4	-76.3	0.0
2025-01-25 08:11:30.482627	352.4	31.8	-76.1	0.0
2025-01-25 08:11:32.732124	351.9	32.1	-76.2	0.0
2025-01-25 08:11:34.977860	351.5	32.5	-76.3	0.0
2025-01-25 08:11:37.223704	351.0	32.9	-76.5	0.0
2025-01-25 08:11:39.474007	350.5	33.3	-76.7	0.0
2025-01-25 08:11:41.719712	350.0	33.7	-76.1	0.0
2025-01-25 08:11:43.965900	349.5	34.1	-76.3	0.0
2025-01-25 08:11:46.209003	349.0	34.5	-76.5	0.0
2025-01-25 08:11:48.456992	348.5	34.9	-76.6	0.0
2025-01-25 08:11:50.703966	347.9	35.3	-76.1	0.0
2025-01-25 08:11:52.953013	347.4	35.8	-76.6	0.0
2025-01-25 08:11:55.199750	346.8	36.2	-76.3	0.0
2025-01-25 08:11:57.443411	346.2	36.6	-76.4	0.0
2025-01-25 08:11:59.691160	345.6	37.0	-76.2	0.0
2025-01-25 08:12:01.935892	345.0	37.4	-76.0	0.0
2025-01-25 08:12:04.180669	344.4	37.8	-76.0	0.0
2025-01-25 08:12:06.428032	343.7	38.3	-76.5	0.0
2025-01-25 08:12:08.674339	343.0	38.7	-76.5	0.0
2025-01-25 08:12:10.923190	342.4	39.1	-76.2	0.0
2025-01-25 08:12:13.170869	341.6	39.5	-76.1	0.0
2025-01-25 08:12:15.415799	340.9	40.0	-76.6	0.0
2025-01-25 08:12:17.664536	340.2	40.4	-76.3	0.0
2025-01-25 08:12:19.912661	339.4	40.8	-76.3	0.0
2025-01-25 08:12:22.159290	338.6	41.2	-76.5	0.0
2025-01-25 08:12:24.404893	337.8	41.6	-76.4	0.0
2025-01-25 08:12:26.653943	337.0	42.1	-76.5	0.0
2025-01-25 08:12:28.900676	336.1	42.5	-76.3	0.0
2025-01-25 08:12:31.146157	335.3	42.9	-76.3	0.0
2025-01-25 08:12:33.394919	334.4	43.3	-76.5	0.0
2025-01-25 08:12:35.645643	333.5	43.7	-76.5	0.0
2025-01-25 08:12:37.892266	332.5	44.1	-76.6	0.0
2025-01-25 08:12:40.137626	331.6	44.5	-76.3	0.0
2025-01-25 08:12:42.385247	330.6	44.9	-76.5	0.0
2025-01-25 08:12:44.630143	329.5	45.3	-76.5	0.0
2025-01-25 08:12:46.878077	328.5	45.7	-76.2	0.0
2025-01-25 08:12:49.125624	327.4	46.0	-76.6	0.0
2025-01-25 08:12:51.370806	326.4	46.4	-76.4	0.0
2025-01-25 08:12:53.618141	325.2	46.8	-76.7	0.0
2025-01-25 08:12:55.864995	324.1	47.1	-76.3	0.0
2025-01-25 08:12:58.111511	322.9	47.4	-76.5	0.0
2025-01-25 08:13:00.363094	321.7	47.8	-76.5	0.0
2025-01-25 08:13:02.609447	320.5	48.1	-76.2	0.0
2025-01-25 08:13:04.856556	319.3	48.4	-76.6	0.0
2025-01-25 08:13:07.103657	318.0	48.7	-76.4	0.0
2025-01-25 08:13:09.347985	316.7	49.0	-76.6	0.0
2025-01-25 08:13:11.594197	315.4	49.2	-76.2	0.0
2025-01-25 08:13:13.843150	314.1	49.5	-76.5	0.0
2025-01-25 08:13:16.091520	312.7	49.7	-76.6	0.0
2025-01-25 08:13:18.335723	311.3	49.9	-76.7	0.0
2025-01-25 08:13:20.584716	309.9	50.1	-76.7	0.0
2025-01-25 08:13:22.830681	308.5	50.3	-76.7	0.0
2025-01-25 08:13:25.078227	307.1	50.5	-76.7	0.0
2025-01-25 08:13:27.327244	305.6	50.6	-76.7	0.0
2025-01-25 08:13:29.574699	304.2	50.7	-76.6	0.0
2025-01-25 08:13:31.821024	302.7	50.8	-76.3	0.0
2025-01-25 08:13:34.064652	301.2	50.9	-76.4	0.0
2025-01-25 08:13:36.308264	299.7	51.0	-76.6	0.0
2025-01-25 08:13:38.553791	298.2	51.0	-76.4	0.0
2025-01-25 08:13:40.796457	296.8	51.1	-76.4	0.0
2025-01-25 08:13:43.039663	295.3	51.1	-76.2	0.0
2025-01-25 08:13:45.286528	293.8	51.0	-76.6	0.0
2025-01-25 08:13:47.531137	292.3	51.0	-76.6	0.0
2025-01-25 08:13:49.780471	290.8	51.0	-76.5	0.0
2025-01-25 08:13:52.027590	289.3	50.9	-76.4	0.0
2025-01-25 08:13:54.271758	287.8	50.8	-76.8	0.0
2025-01-25 08:13:56.516222	286.4	50.7	-76.7	0.0
2025-01-25 08:13:58.763634	284.9	50.5	-76.3	0.0
2025-01-25 08:14:01.009288	283.5	50.4	-76.6	0.0
2025-01-25 08:14:03.254955	282.0	50.2	-76.3	0.0
2025-01-25 08:14:05.499724	280.6	50.0	-76.5	0.0
2025-01-25 08:14:07.744564	279.2	49.8	-76.6	0.0
2025-01-25 08:14:09.990835	277.9	49.6	-76.9	0.0
2025-01-25 08:14:12.234611	276.5	49.3	-76.7	0.0
2025-01-25 08:14:14.480763	275.2	49.1	-76.6	0.0
2025-01-25 08:14:16.726788	273.9	48.8	-76.1	0.0
2025-01-25 08:14:18.972903	272.6	48.5	-76.8	0.0
2025-01-25 08:14:21.221044	271.4	48.2	-76.7	0.0
2025-01-25 08:14:23.468579	270.1	47.9	-76.7	0.0
2025-01-25 08:14:25.715798	268.9	47.6	-76.5	0.0
2025-01-25 08:14:27.963884	267.7	47.3	-76.5	0.0
2025-01-25 08:14:30.209517	266.6	46.9	-76.5	0.0
2025-01-25 08:14:32.457390	265.5	46.6	-76.7	0.0
2025-01-25 08:14:34.704993	264.4	46.2	-76.8	0.0
2025-01-25 08:14:36.950835	263.3	45.8	-76.9	0.0
2025-01-25 08:14:39.195925	262.2	45.4	-76.8	0.0
2025-01-25 08:14:41.442291	261.2	45.1	-76.7	0.0
2025-01-25 08:14:43.691523	260.2	44.7	-76.6	0.0
2025-01-25 08:14:45.937136	259.2	44.3	-76.5	0.0
2025-01-25 08:14:48.180226	258.3	43.9	-76.2	0.0
2025-01-25 08:14:50.428213	257.3	43.5	-76.4	0.0
2025-01-25 08:14:52.676688	256.4	43.1	-76.2	0.0
2025-01-25 08:14:54.920752	255.5	42.6	-76.3	0.0
2025-01-25 08:14:57.164139	254.7	42.2	-75.9	0.0
2025-01-25 08:14:59.411372	253.8	41.8	-76.5	0.0
2025-01-25 08:15:01.657827	253.0	41.4	-76.3	0.0
2025-01-25 08:15:03.903065	252.2	41.0	-76.6	0.0
2025-01-25 08:15:06.146177	251.5	40.5	-76.6	0.0
2025-01-25 08:15:08.394487	250.7	40.1	-76.6	0.0
2025-01-25 08:15:10.641729	250.0	39.7	-76.4	0.0
2025-01-25 08:15:12.888400	249.2	39.3	-76.6	0.0
2025-01-25 08:15:15.133950	248.5	38.8	-76.7	0.0
2025-01-25 08:15:17.380128	247.9	38.4	-76.3	0.0
2025-01-25 08:15:19.627044	247.2	38.0	-76.8	0.0
2025-01-25 08:15:21.874612	246.6	37.6	-77.0	0.0
2025-01-25 08:15:24.120258	245.9	37.1	-76.9	0.0
2025-01-25 08:15:26.364841	245.3	36.7	-76.5	0.0
2025-01-25 08:15:28.608364	244.7	36.3	-76.6	0.0
2025-01-25 08:15:30.852859	244.1	35.9	-76.6	0.0
2025-01-25 08:15:33.097659	243.6	35.5	-76.9	0.0
2025-01-25 08:15:35.341534	243.0	35.1	-76.9	0.0
2025-01-25 08:15:37.586614	242.5	34.7	-76.8	0.0
2025-01-25 08:15:39.831951	242.0	34.3	-76.9	0.0
2025-01-25 08:15:42.082809	241.4	33.8	-77.0	0.0
2025-01-25 08:15:44.328136	240.9	33.4	-76.8	0.0
2025-01-25 08:15:46.576696	240.5	33.0	-76.6	0.0
2025-01-25 08:15:48.821636	240.0	32.6	-76.5	0.0
2025-01-25 08:15:51.066406	239.5	32.3	-76.8	0.0
2025-01-25 08:15:53.311414	239.1	31.9	-76.7	0.0
2025-01-25 08:15:55.556086	238.6	31.5	-76.4	0.0
2025-01-25 08:15:57.800084	238.2	31.1	-76.9	0.0
2025-01-25 08:16:00.045186	237.8	30.7	-76.9	0.0
2025-01-25 08:16:02.292444	237.4	30.3	-76.9	0.0
2025-01-25 08:16:04.537034	237.0	30.0	-76.8	0.0
2025-01-25 08:16:06.782292	236.6	29.6	-75.9	0.0
2025-01-25 08:16:09.025208	236.2	29.2	-76.6	0.0
2025-01-25 08:16:11.273382	235.8	28.9	-76.6	0.0
2025-01-25 08:16:13.520089	235.4	28.5	-76.5	0.0
2025-01-25 08:16:15.768277	235.1	28.1	-77.0	0.0
2025-01-25 08:16:18.014470	234.7	27.8	-76.9	0.0
2025-01-25 08:16:20.260709	234.4	27.4	-76.6	0.0
2025-01-25 08:16:22.507790	234.0	27.1	-76.9	0.0
2025-01-25 08:16:24.756679	233.7	26.8	-76.3	0.0
2025-01-25 08:16:27.001933	233.4	26.4	-76.7	0.0
2025-01-25 08:16:29.250268	233.1	26.1	-76.6	0.0
2025-01-25 08:16:31.498603	232.8	25.7	-76.5	0.0
2025-01-25 08:16:33.743282	232.5	25.4	-76.6	0.0
2025-01-25 08:16:35.989156	232.2	25.1	-76.5	0.0
2025-01-25 08:16:38.235711	231.9	24.8	-76.4	0.0
2025-01-25 08:16:40.480344	231.6	24.4	-76.8	0.0
2025-01-25 08:16:42.726661	231.3	24.1	-76.9	0.0
2025-01-25 08:16:44.972148	231.1	23.8	-76.2	0.0
2025-01-25 08:16:47.218001	230.8	23.5	-76.6	0.0
2025-01-25 08:16:49.464109	230.5	23.2	-76.5	0.0
2025-01-25 08:16:51.712629	230.3	22.9	-76.6	0.0
2025-01-25 08:16:53.961206	230.0	22.6	-76.3	0.0
2025-01-25 08:16:56.208790	229.8	22.3	-76.1	0.0
2025-01-25 08:16:58.454557	229.5	22.0	-76.4	0.0
2025-01-25 08:17:00.702220	229.3	21.7	-76.2	0.0
2025-01-25 08:17:02.949327	229.1	21.4	-76.9	0.0
2025-01-25 08:17:05.195640	228.9	21.1	-76.2	0.0
2025-01-25 08:17:07.441568	228.6	20.8	-76.5	0.0
2025-01-25 08:17:09.685663	228.4	20.5	-76.4	0.0
2025-01-25 08:17:11.932413	228.2	20.3	-76.8	0.0
2025-01-25 08:17:14.180599	228.0	20.0	-76.3	0.0
2025-01-25 08:17:16.425616	227.8	19.7	-76.8	0.0
2025-01-25 08:17:18.671936	227.6	19.4	-75.9	0.0
2025-01-25 08:17:20.915830	227.4	19.2	-76.5	0.0
2025-01-25 08:17:23.163080	227.2	18.9	-76.4	0.0
2025-01-25 08:17:25.406935	227.0	18.6	-76.9	0.0
2025-01-25 08:17:27.653507	226.8	18.4	-76.6	0.0
2025-01-25 08:17:29.895906	226.6	18.1	-76.6	0.0
2025-01-25 08:17:32.143891	226.4	17.9	-76.7	0.0
2025-01-25 08:17:34.391107	226.3	17.6	-76.2	0.0
2025-01-25 08:17:36.634803	226.1	17.4	-76.5	0.0
2025-01-25 08:17:38.882276	225.9	17.1	-76.2	0.0
2025-01-25 08:17:41.129647	225.7	16.9	-76.8	0.0
2025-01-25 08:17:43.379485	225.6	16.6	-76.0	0.0
2025-01-25 08:17:45.628051	225.4	16.4	-76.3	0.0
2025-01-25 08:17:47.870870	225.2	16.1	-76.2	0.0
2025-01-25 08:17:50.119665	225.1	15.9	-76.5	0.0
2025-01-25 08:17:52.368102	224.9	15.6	-76.3	0.0
2025-01-25 08:17:54.615966	224.8	15.4	-76.7	0.0
2025-01-25 08:17:56.861414	224.6	15.2	-76.5	0.0
2025-01-25 08:17:59.106123	224.5	14.9	-76.8	0.0
2025-01-25 08:18:01.350173	224.3	14.7	-76.6	0.0
2025-01-25 08:18:03.597249	224.2	14.5	-77.1	0.0
2025-01-25 08:18:05.841008	224.0	14.3	-76.7	0.0
2025-01-25 08:18:08.084632	223.9	14.0	-76.8	0.0
2025-01-25 08:18:10.331370	223.8	13.8	-76.9	0.0
2025-01-25 08:18:12.575908	223.6	13.6	-76.8	0.0
2025-01-25 08:18:14.820881	223.5	13.4	-76.9	0.0
2025-01-25 08:18:17.065416	223.4	13.2	-76.7	0.0
2025-01-25 08:18:19.312534	223.2	13.0	-76.6	0.0
2025-01-25 08:18:21.560983	223.1	12.7	-76.8	0.0
2025-01-25 08:18:23.807950	223.0	12.5	-76.8	0.0
2025-01-25 08:18:26.054803	222.9	12.3	-77.0	0.0
2025-01-25 08:18:28.300774	222.7	12.1	-77.2	0.0
2025-01-25 08:18:30.546131	222.6	11.9	-76.7	0.0
2025-01-25 08:18:32.792618	222.5	11.7	-76.8	0.0
2025-01-25 08:18:35.041331	222.4	11.5	-77.1	0.0
2025-01-25 08:18:37.286708	222.3	11.3	-77.0	0.0
2025-01-25 08:18:39.531091	222.2	11.1	-77.0	0.0
2025-01-25 08:18:41.776213	222.0	10.9	-76.9	0.0
2025-01-25 08:18:44.018398	221.9	10.7	-76.7	0.0
2025-01-25 08:18:46.262963	221.8	10.5	-76.7	0.0
2025-01-25 08:18:48.508153	221.7	10.3	-76.9	0.0
2025-01-25 08:18:50.756543	221.6	10.1	-77.0	0.0
#Closed at: 2025-01-25 08:08:25.809960