passes_logs/2025/01/25/planumMaritime01/planumMaritime01__20250125_191405_METEOR-M2_3_rec.log

#Pass ID: 20250125_191405_METEOR-M2 3
#Satellite: METEOR-M2 3
#Configuration: METEOR-M2 3
#Start time: 2025-01-25 19:14:10.633760

#LorettStation: 1.0.0 05.05.2024
#Station: planumMaritime01
#Location: 37.49445 lon 55.92918 lat
#TLE: 1 57166U 23091A   25024.73979728  .00000104  00000+0  64262-4 0  9993
#TLE: 2 57166  98.6834  83.0834 0003698 192.3596 167.7492 14.23971833 82155

#Time	Az	El	Level	SNR
2025-01-25 19:14:12.790545	216.0	10.1	-77.4	0.0
2025-01-25 19:14:15.035434	216.3	10.3	-77.2	0.0
2025-01-25 19:14:17.280132	216.6	10.5	-77.6	0.0
2025-01-25 19:14:19.525158	216.8	10.6	-78.4	0.0
2025-01-25 19:14:21.769986	217.1	10.8	-78.3	0.0
2025-01-25 19:14:24.017475	217.4	10.9	-78.7	0.0
2025-01-25 19:14:26.264796	217.6	11.1	-78.0	0.0
2025-01-25 19:14:28.512754	217.9	11.2	-78.2	0.0
2025-01-25 19:14:30.757796	218.2	11.4	-78.2	0.0
2025-01-25 19:14:33.003085	218.5	11.5	-78.3	0.0
2025-01-25 19:14:35.250422	218.8	11.7	-78.4	0.0
2025-01-25 19:14:37.497575	219.1	11.9	-78.1	0.0
2025-01-25 19:14:39.744081	219.4	12.0	-79.0	0.0
2025-01-25 19:14:41.991482	219.7	12.2	-78.4	0.0
2025-01-25 19:14:44.236984	220.0	12.3	-78.6	0.0
2025-01-25 19:14:46.481280	220.3	12.5	-78.8	0.0
2025-01-25 19:14:48.728359	220.6	12.7	-78.9	0.0
2025-01-25 19:14:50.975547	220.9	12.8	-78.8	0.0
2025-01-25 19:14:53.220444	221.2	13.0	-78.5	0.0
2025-01-25 19:14:55.466447	221.5	13.1	-78.3	0.0
2025-01-25 19:14:57.716875	221.8	13.3	-79.0	0.0
2025-01-25 19:14:59.964934	222.2	13.5	-78.7	0.0
2025-01-25 19:15:02.212405	222.5	13.6	-78.8	0.0
2025-01-25 19:15:04.456762	222.8	13.8	-78.5	0.0
2025-01-25 19:15:06.705264	223.2	13.9	-78.2	0.0
2025-01-25 19:15:08.949562	223.5	14.1	-78.1	0.0
2025-01-25 19:15:11.195019	223.8	14.3	-78.9	0.0
2025-01-25 19:15:13.444113	224.2	14.4	-77.9	0.0
2025-01-25 19:15:15.690153	224.5	14.6	-78.6	0.0
2025-01-25 19:15:17.935235	224.9	14.7	-79.0	0.0
2025-01-25 19:15:20.181535	225.2	14.9	-78.2	0.0
2025-01-25 19:15:22.426862	225.6	15.1	-78.9	0.0
2025-01-25 19:15:24.670227	226.0	15.2	-79.2	0.0
2025-01-25 19:15:26.915212	226.3	15.4	-79.0	0.0
2025-01-25 19:15:29.159987	226.7	15.6	-78.0	0.0
2025-01-25 19:15:31.405559	227.1	15.7	-78.5	0.0
2025-01-25 19:15:33.649642	227.5	15.9	-79.0	0.0
2025-01-25 19:15:35.896942	227.8	16.0	-79.0	0.0
2025-01-25 19:15:38.142058	228.2	16.2	-78.1	0.0
2025-01-25 19:15:40.389577	228.6	16.4	-78.8	0.0
2025-01-25 19:15:42.635299	229.0	16.5	-78.8	0.0
2025-01-25 19:15:44.883015	229.4	16.7	-78.9	0.0
2025-01-25 19:15:47.129056	229.8	16.9	-78.9	0.0
2025-01-25 19:15:49.376480	230.2	17.0	-79.0	0.0
2025-01-25 19:15:51.622933	230.6	17.2	-78.2	0.0
2025-01-25 19:15:53.868228	231.1	17.3	-78.6	0.0
2025-01-25 19:15:56.116723	231.5	17.5	-78.5	0.0
2025-01-25 19:15:58.363484	231.9	17.7	-78.6	0.0
2025-01-25 19:16:00.611071	232.3	17.8	-78.9	0.0
2025-01-25 19:16:02.856031	232.8	18.0	-79.0	0.0
2025-01-25 19:16:05.102103	233.2	18.1	-78.4	0.0
2025-01-25 19:16:07.347788	233.7	18.3	-78.6	0.0
2025-01-25 19:16:09.591361	234.1	18.4	-78.9	0.0
2025-01-25 19:16:11.837473	234.6	18.6	-78.2	0.0
2025-01-25 19:16:14.084854	235.0	18.8	-78.4	0.0
2025-01-25 19:16:16.329765	235.5	18.9	-79.1	0.0
2025-01-25 19:16:18.573854	236.0	19.1	-78.8	0.0
2025-01-25 19:16:20.818194	236.4	19.2	-78.9	0.0
2025-01-25 19:16:23.061891	236.9	19.4	-78.8	0.0
2025-01-25 19:16:25.307097	237.4	19.5	-78.7	0.0
2025-01-25 19:16:27.554876	237.9	19.7	-78.9	0.0
2025-01-25 19:16:29.802009	238.4	19.8	-79.0	0.0
2025-01-25 19:16:32.049980	238.8	20.0	-78.7	0.0
2025-01-25 19:16:34.296444	239.3	20.1	-78.2	0.0
2025-01-25 19:16:36.540939	239.9	20.2	-79.2	0.0
2025-01-25 19:16:38.785429	240.4	20.4	-78.8	0.0
2025-01-25 19:16:41.031068	240.9	20.5	-78.8	0.0
2025-01-25 19:16:43.278787	241.4	20.7	-78.3	0.0
2025-01-25 19:16:45.526355	241.9	20.8	-79.1	0.0
2025-01-25 19:16:47.773668	242.4	20.9	-78.7	0.0
2025-01-25 19:16:50.016787	243.0	21.1	-79.0	0.0
2025-01-25 19:16:52.263782	243.5	21.2	-79.1	0.0
2025-01-25 19:16:54.512158	244.0	21.3	-78.9	0.0
2025-01-25 19:16:56.757776	244.6	21.5	-79.1	0.0
2025-01-25 19:16:59.002809	245.1	21.6	-78.5	0.0
2025-01-25 19:17:01.250596	245.7	21.7	-79.1	0.0
2025-01-25 19:17:03.495873	246.3	21.9	-78.5	0.0
2025-01-25 19:17:05.741925	246.8	22.0	-79.1	0.0
2025-01-25 19:17:07.989057	247.4	22.1	-78.1	0.0
2025-01-25 19:17:10.234653	248.0	22.2	-79.1	0.0
2025-01-25 19:17:12.481373	248.5	22.3	-78.3	0.0
2025-01-25 19:17:14.726474	249.1	22.4	-78.4	0.0
2025-01-25 19:17:16.969966	249.7	22.5	-79.0	0.0
2025-01-25 19:17:19.211752	250.3	22.7	-78.9	0.0
2025-01-25 19:17:21.457244	250.9	22.8	-79.1	0.0
2025-01-25 19:17:23.704362	251.5	22.9	-79.4	0.0
2025-01-25 19:17:25.952416	252.1	23.0	-78.9	0.0
2025-01-25 19:17:28.200100	252.7	23.1	-79.5	0.0
2025-01-25 19:17:30.444102	253.3	23.1	-78.6	0.0
2025-01-25 19:17:32.693601	253.9	23.2	-79.0	0.0
2025-01-25 19:17:34.939207	254.5	23.3	-79.1	0.0
2025-01-25 19:17:37.185432	255.1	23.4	-79.5	0.0
2025-01-25 19:17:39.429722	255.7	23.5	-78.9	0.0
2025-01-25 19:17:41.674750	256.3	23.6	-79.0	0.0
2025-01-25 19:17:43.921887	257.0	23.6	-79.2	0.0
2025-01-25 19:17:46.166719	257.6	23.7	-78.3	0.0
2025-01-25 19:17:48.411433	258.2	23.8	-79.0	0.0
2025-01-25 19:17:50.659777	258.9	23.8	-79.0	0.0
2025-01-25 19:17:52.906698	259.5	23.9	-78.8	0.0
2025-01-25 19:17:55.151573	260.1	24.0	-78.8	0.0
2025-01-25 19:17:57.397608	260.8	24.0	-78.8	0.0
2025-01-25 19:17:59.642473	261.4	24.1	-78.7	0.0
2025-01-25 19:18:01.891867	262.1	24.1	-78.8	0.0
2025-01-25 19:18:04.140501	262.7	24.2	-78.3	0.0
2025-01-25 19:18:06.386901	263.4	24.2	-78.4	0.0
2025-01-25 19:18:08.631281	264.0	24.2	-79.0	0.0
2025-01-25 19:18:10.876542	264.7	24.3	-78.4	0.0
2025-01-25 19:18:13.121204	265.3	24.3	-79.0	0.0
2025-01-25 19:18:15.367687	266.0	24.3	-79.4	0.0
2025-01-25 19:18:17.613313	266.6	24.3	-79.1	0.0
2025-01-25 19:18:19.858639	267.3	24.4	-79.2	0.0
2025-01-25 19:18:22.104291	267.9	24.4	-78.4	0.0
2025-01-25 19:18:24.347577	268.6	24.4	-79.1	0.0
2025-01-25 19:18:26.594093	269.2	24.4	-78.9	0.0
2025-01-25 19:18:28.837808	269.9	24.4	-79.1	0.0
2025-01-25 19:18:31.081933	270.6	24.4	-79.2	0.0
2025-01-25 19:18:33.330477	271.2	24.4	-79.4	0.0
2025-01-25 19:18:35.573893	271.9	24.4	-78.6	0.0
2025-01-25 19:18:37.819110	272.5	24.3	-78.9	0.0
2025-01-25 19:18:40.065086	273.2	24.3	-79.3	0.0
2025-01-25 19:18:42.309426	273.8	24.3	-79.2	0.0
2025-01-25 19:18:44.556462	274.5	24.3	-78.4	0.0
2025-01-25 19:18:46.797902	275.1	24.3	-79.4	0.0
2025-01-25 19:18:49.045168	275.8	24.2	-78.6	0.0
2025-01-25 19:18:51.292654	276.4	24.2	-79.5	0.0
2025-01-25 19:18:53.537362	277.1	24.1	-79.4	0.0
2025-01-25 19:18:55.784574	277.7	24.1	-79.0	0.0
2025-01-25 19:18:58.029985	278.4	24.1	-79.1	0.0
2025-01-25 19:19:00.278791	279.0	24.0	-79.1	0.0
2025-01-25 19:19:02.525579	279.6	23.9	-79.1	0.0
2025-01-25 19:19:04.769148	280.3	23.9	-79.0	0.0
2025-01-25 19:19:07.018719	280.9	23.8	-78.7	0.0
2025-01-25 19:19:09.263905	281.5	23.8	-78.7	0.0
2025-01-25 19:19:11.511279	282.2	23.7	-78.8	0.0
2025-01-25 19:19:13.755961	282.8	23.6	-78.5	0.0
2025-01-25 19:19:16.000396	283.4	23.5	-78.6	0.0
2025-01-25 19:19:18.245278	284.0	23.5	-78.5	0.0
2025-01-25 19:19:20.496595	284.7	23.4	-78.2	0.0
2025-01-25 19:19:22.744137	285.3	23.3	-78.6	0.0
2025-01-25 19:19:24.992033	285.9	23.2	-78.7	0.0
2025-01-25 19:19:27.236890	286.5	23.1	-78.6	0.0
2025-01-25 19:19:29.481790	287.1	23.0	-78.1	0.0
2025-01-25 19:19:31.727207	287.7	22.9	-78.5	0.0
2025-01-25 19:19:33.975584	288.3	22.8	-79.0	0.0
2025-01-25 19:19:36.218373	288.9	22.7	-78.6	0.0
2025-01-25 19:19:38.462111	289.5	22.6	-78.9	0.0
2025-01-25 19:19:40.710700	290.1	22.5	-78.6	0.0
2025-01-25 19:19:42.953464	290.6	22.4	-78.7	0.0
2025-01-25 19:19:45.197723	291.2	22.3	-78.9	0.0
2025-01-25 19:19:47.442618	291.8	22.2	-78.6	0.0
2025-01-25 19:19:49.691872	292.4	22.1	-78.9	0.0
2025-01-25 19:19:51.937643	292.9	21.9	-78.8	0.0
2025-01-25 19:19:54.183396	293.5	21.8	-78.5	0.0
2025-01-25 19:19:56.426079	294.0	21.7	-78.4	0.0
2025-01-25 19:19:58.673214	294.6	21.6	-78.8	0.0
2025-01-25 19:20:00.921365	295.1	21.4	-78.8	0.0
2025-01-25 19:20:03.166325	295.7	21.3	-78.5	0.0
2025-01-25 19:20:05.413886	296.2	21.2	-78.3	0.0
2025-01-25 19:20:07.660889	296.7	21.1	-79.0	0.0
2025-01-25 19:20:09.908450	297.3	20.9	-78.6	0.0
2025-01-25 19:20:12.154116	297.8	20.8	-79.0	0.0
2025-01-25 19:20:14.398994	298.3	20.6	-79.5	0.0
2025-01-25 19:20:16.647908	298.8	20.5	-78.2	0.0
2025-01-25 19:20:18.894788	299.3	20.4	-79.3	0.0
2025-01-25 19:20:21.140681	299.8	20.2	-79.2	0.0
2025-01-25 19:20:23.387291	300.3	20.1	-79.4	0.0
2025-01-25 19:20:25.637895	300.8	19.9	-79.1	0.0
2025-01-25 19:20:27.885158	301.3	19.8	-78.9	0.0
2025-01-25 19:20:30.129441	301.8	19.6	-79.3	0.0
2025-01-25 19:20:32.374532	302.3	19.5	-78.6	0.0
2025-01-25 19:20:34.619998	302.8	19.3	-79.5	0.0
2025-01-25 19:20:36.863181	303.2	19.2	-79.1	0.0
2025-01-25 19:20:39.108896	303.7	19.0	-78.9	0.0
2025-01-25 19:20:41.353985	304.2	18.9	-78.9	0.0
2025-01-25 19:20:43.599810	304.6	18.7	-78.8	0.0
2025-01-25 19:20:45.843302	305.1	18.6	-79.2	0.0
2025-01-25 19:20:48.088910	305.5	18.4	-79.1	0.0
2025-01-25 19:20:50.331571	306.0	18.3	-79.1	0.0
2025-01-25 19:20:52.577587	306.4	18.1	-78.5	0.0
2025-01-25 19:20:54.822798	306.9	18.0	-79.7	0.0
2025-01-25 19:20:57.069446	307.3	17.8	-79.1	0.0
2025-01-25 19:20:59.315483	307.7	17.6	-79.2	0.0
2025-01-25 19:21:01.562283	308.1	17.5	-78.9	0.0
2025-01-25 19:21:03.804636	308.6	17.3	-78.5	0.0
2025-01-25 19:21:06.047342	309.0	17.2	-79.5	0.0
2025-01-25 19:21:08.292761	309.4	17.0	-78.6	0.0
2025-01-25 19:21:10.538510	309.8	16.9	-79.4	0.0
2025-01-25 19:21:12.785039	310.2	16.7	-78.9	0.0
2025-01-25 19:21:15.030470	310.6	16.5	-79.3	0.0
2025-01-25 19:21:17.276349	311.0	16.4	-79.2	0.0
2025-01-25 19:21:19.524733	311.4	16.2	-79.2	0.0
2025-01-25 19:21:21.767872	311.8	16.1	-79.2	0.0
2025-01-25 19:21:24.012422	312.1	15.9	-78.7	0.0
2025-01-25 19:21:26.256572	312.5	15.7	-78.9	0.0
2025-01-25 19:21:28.501069	312.9	15.6	-79.0	0.0
2025-01-25 19:21:30.748597	313.3	15.4	-78.9	0.0
2025-01-25 19:21:32.996367	313.6	15.2	-79.3	0.0
2025-01-25 19:21:35.241728	314.0	15.1	-79.7	0.0
2025-01-25 19:21:37.487738	314.4	14.9	-79.2	0.0
2025-01-25 19:21:39.734616	314.7	14.8	-79.0	0.0
2025-01-25 19:21:41.980449	315.1	14.6	-79.0	0.0
2025-01-25 19:21:44.225175	315.4	14.4	-79.2	0.0
2025-01-25 19:21:46.471510	315.8	14.3	-79.0	0.0
2025-01-25 19:21:48.717859	316.1	14.1	-79.2	0.0
2025-01-25 19:21:50.964195	316.4	14.0	-79.1	0.0
2025-01-25 19:21:53.209550	316.8	13.8	-79.0	0.0
2025-01-25 19:21:55.455958	317.1	13.6	-79.3	0.0
2025-01-25 19:21:57.702628	317.4	13.5	-79.4	0.0
2025-01-25 19:21:59.949756	317.7	13.3	-79.3	0.0
2025-01-25 19:22:02.195819	318.1	13.2	-79.6	0.0
2025-01-25 19:22:04.439046	318.4	13.0	-79.0	0.0
2025-01-25 19:22:06.686292	318.7	12.8	-78.8	0.0
2025-01-25 19:22:08.931722	319.0	12.7	-78.7	0.0
2025-01-25 19:22:11.178870	319.3	12.5	-78.6	0.0
2025-01-25 19:22:13.425697	319.6	12.4	-79.0	0.0
2025-01-25 19:22:15.671819	319.9	12.2	-79.1	0.0
2025-01-25 19:22:17.917545	320.2	12.1	-78.8	0.0
2025-01-25 19:22:20.164176	320.5	11.9	-78.2	0.0
2025-01-25 19:22:22.409000	320.8	11.7	-78.7	0.0
2025-01-25 19:22:24.658203	321.1	11.6	-78.1	0.0
2025-01-25 19:22:26.899950	321.4	11.4	-79.1	0.0
2025-01-25 19:22:29.144008	321.6	11.3	-78.6	0.0
2025-01-25 19:22:31.389559	321.9	11.1	-78.9	0.0
2025-01-25 19:22:33.635828	322.2	11.0	-79.3	0.0
2025-01-25 19:22:35.879386	322.5	10.8	-79.3	0.0
2025-01-25 19:22:38.126413	322.7	10.7	-79.4	0.0
2025-01-25 19:22:40.373589	323.0	10.5	-79.4	0.0
2025-01-25 19:22:42.617670	323.3	10.4	-78.8	0.0
2025-01-25 19:22:44.861678	323.5	10.2	-79.6	0.0
2025-01-25 19:22:47.104784	323.8	10.1	-79.1	0.0
#Closed at: 2025-01-25 19:14:05.636469