passes_logs/2025/01/25/planumMaritime01/planumMaritime01__20250125_201658_NOAA_19_rec.log

#Pass ID: 20250125_201658_NOAA 19
#Satellite: NOAA 19
#Configuration: NOAA 19
#Start time: 2025-01-25 20:17:03.071235

#LorettStation: 1.0.0 05.05.2024
#Station: planumMaritime01
#Location: 37.49445 lon 55.92918 lat
#TLE: 1 33591U 09005A   25024.77415192  .00000451  00000+0  26462-3 0  9996
#TLE: 2 33591  99.0180  88.6113 0014109  31.0080 329.1922 14.13268355822923

#Time	Az	El	Level	SNR
2025-01-25 20:17:05.233935	250.2	10.1	-77.8	0.0
2025-01-25 20:17:06.356646	250.4	10.1	-78.0	0.0
2025-01-25 20:17:07.478317	250.6	10.2	-77.6	0.0
2025-01-25 20:17:08.600563	250.8	10.2	-77.6	0.0
2025-01-25 20:17:09.724021	251.0	10.2	-77.7	0.0
2025-01-25 20:17:10.849109	251.1	10.3	-77.8	0.0
2025-01-25 20:17:11.973291	251.3	10.3	-77.9	0.0
2025-01-25 20:17:13.095845	251.5	10.4	-77.6	0.0
2025-01-25 20:17:14.218438	251.7	10.4	-77.7	0.0
2025-01-25 20:17:15.341241	251.9	10.4	-77.9	0.0
2025-01-25 20:17:16.465489	252.1	10.5	-77.7	0.0
2025-01-25 20:17:17.588649	252.3	10.5	-77.4	0.0
2025-01-25 20:17:18.713461	252.4	10.6	-77.6	0.0
2025-01-25 20:17:19.835869	252.6	10.6	-77.6	0.0
2025-01-25 20:17:20.958766	252.8	10.6	-77.5	0.0
2025-01-25 20:17:22.082464	253.0	10.7	-77.8	0.0
2025-01-25 20:17:23.206074	253.2	10.7	-78.0	0.0
2025-01-25 20:17:24.329633	253.4	10.8	-77.7	0.0
2025-01-25 20:17:25.454161	253.6	10.8	-77.8	0.0
2025-01-25 20:17:26.576992	253.8	10.8	-77.8	0.0
2025-01-25 20:17:27.702737	254.0	10.9	-78.0	0.0
2025-01-25 20:17:28.823881	254.2	10.9	-77.9	0.0
2025-01-25 20:17:29.945387	254.3	11.0	-77.6	0.0
2025-01-25 20:17:31.068075	254.5	11.0	-78.0	0.0
2025-01-25 20:17:32.190485	254.7	11.0	-78.1	0.0
2025-01-25 20:17:33.314207	254.9	11.1	-78.0	0.0
2025-01-25 20:17:34.436942	255.1	11.1	-77.6	0.0
2025-01-25 20:17:35.560060	255.3	11.1	-78.1	0.0
2025-01-25 20:17:36.684182	255.5	11.2	-78.0	0.0
2025-01-25 20:17:37.805758	255.7	11.2	-78.0	0.0
2025-01-25 20:17:38.928839	255.9	11.2	-78.1	0.0
2025-01-25 20:17:40.051125	256.1	11.3	-78.3	0.0
2025-01-25 20:17:41.172359	256.3	11.3	-78.4	0.0
2025-01-25 20:17:42.293923	256.5	11.3	-78.2	0.0
2025-01-25 20:17:43.419026	256.7	11.4	-78.4	0.0
2025-01-25 20:17:44.541172	256.9	11.4	-78.0	0.0
2025-01-25 20:17:45.663121	257.1	11.5	-78.5	0.0
2025-01-25 20:17:46.786305	257.3	11.5	-77.8	0.0
2025-01-25 20:17:47.909678	257.5	11.5	-78.0	0.0
2025-01-25 20:17:49.034657	257.7	11.6	-78.6	0.0
2025-01-25 20:17:50.158821	257.9	11.6	-78.5	0.0
2025-01-25 20:17:51.282902	258.1	11.6	-78.5	0.0
2025-01-25 20:17:52.407068	258.3	11.6	-78.3	0.0
2025-01-25 20:17:53.528118	258.5	11.7	-78.2	0.0
2025-01-25 20:17:54.650197	258.7	11.7	-78.6	0.0
2025-01-25 20:17:55.773253	258.9	11.7	-78.4	0.0
2025-01-25 20:17:56.896536	259.1	11.8	-78.4	0.0
2025-01-25 20:17:58.019702	259.3	11.8	-78.6	0.0
2025-01-25 20:17:59.141138	259.5	11.8	-78.3	0.0
2025-01-25 20:18:00.265345	259.7	11.9	-78.2	0.0
2025-01-25 20:18:01.389205	259.9	11.9	-78.7	0.0
2025-01-25 20:18:02.512729	260.1	11.9	-78.4	0.0
2025-01-25 20:18:03.634642	260.3	12.0	-78.3	0.0
2025-01-25 20:18:04.759214	260.5	12.0	-78.5	0.0
2025-01-25 20:18:05.881494	260.7	12.0	-78.3	0.0
2025-01-25 20:18:07.005668	260.9	12.0	-78.4	0.0
2025-01-25 20:18:08.128817	261.1	12.1	-78.9	0.0
2025-01-25 20:18:09.251434	261.3	12.1	-78.5	0.0
2025-01-25 20:18:10.372999	261.5	12.1	-77.6	0.0
2025-01-25 20:18:11.494813	261.8	12.2	-78.2	0.0
2025-01-25 20:18:12.618011	262.0	12.2	-78.5	0.0
2025-01-25 20:18:13.740913	262.2	12.2	-78.4	0.0
2025-01-25 20:18:14.863994	262.4	12.2	-78.5	0.0
2025-01-25 20:18:15.986019	262.6	12.3	-78.6	0.0
2025-01-25 20:18:17.108510	262.8	12.3	-78.5	0.0
2025-01-25 20:18:18.231822	263.0	12.3	-78.3	0.0
2025-01-25 20:18:19.354674	263.2	12.3	-78.5	0.0
2025-01-25 20:18:20.477869	263.4	12.4	-78.3	0.0
2025-01-25 20:18:21.600827	263.6	12.4	-78.5	0.0
2025-01-25 20:18:22.724189	263.8	12.4	-78.4	0.0
2025-01-25 20:18:23.847368	264.1	12.4	-77.7	0.0
2025-01-25 20:18:24.968683	264.3	12.5	-78.1	0.0
2025-01-25 20:18:26.092042	264.5	12.5	-78.2	0.0
2025-01-25 20:18:27.216999	264.7	12.5	-78.5	0.0
2025-01-25 20:18:28.340346	264.9	12.5	-78.4	0.0
2025-01-25 20:18:29.464339	265.1	12.5	-78.4	0.0
2025-01-25 20:18:30.587444	265.3	12.6	-78.7	0.0
2025-01-25 20:18:31.708848	265.5	12.6	-78.8	0.0
2025-01-25 20:18:32.831084	265.8	12.6	-78.6	0.0
2025-01-25 20:18:33.955350	266.0	12.6	-78.7	0.0
2025-01-25 20:18:35.078505	266.2	12.7	-79.0	0.0
2025-01-25 20:18:36.201198	266.4	12.7	-78.7	0.0
2025-01-25 20:18:37.324541	266.6	12.7	-78.8	0.0
2025-01-25 20:18:38.449265	266.8	12.7	-78.9	0.0
2025-01-25 20:18:39.571343	267.1	12.7	-79.2	0.0
2025-01-25 20:18:40.698069	267.3	12.8	-78.7	0.0
2025-01-25 20:18:41.823113	267.5	12.8	-78.6	0.0
2025-01-25 20:18:42.946358	267.7	12.8	-79.0	0.0
2025-01-25 20:18:44.069509	267.9	12.8	-78.7	0.0
2025-01-25 20:18:45.192820	268.1	12.8	-79.0	0.0
2025-01-25 20:18:46.316442	268.4	12.8	-78.6	0.0
2025-01-25 20:18:47.441119	268.6	12.9	-79.3	0.0
2025-01-25 20:18:48.564657	268.8	12.9	-78.5	0.0
2025-01-25 20:18:49.687678	269.0	12.9	-78.7	0.0
2025-01-25 20:18:50.811850	269.2	12.9	-79.1	0.0
2025-01-25 20:18:51.933854	269.4	12.9	-78.0	0.0
2025-01-25 20:18:53.054927	269.7	12.9	-78.9	0.0
2025-01-25 20:18:54.177615	269.9	12.9	-78.9	0.0
2025-01-25 20:18:55.299038	270.1	13.0	-78.9	0.0
2025-01-25 20:18:56.423809	270.3	13.0	-78.6	0.0
2025-01-25 20:18:57.546409	270.5	13.0	-79.0	0.0
2025-01-25 20:18:58.669822	270.8	13.0	-79.1	0.0
2025-01-25 20:18:59.791339	271.0	13.0	-78.9	0.0
2025-01-25 20:19:00.914703	271.2	13.0	-78.5	0.0
2025-01-25 20:19:02.035859	271.4	13.0	-78.7	0.0
2025-01-25 20:19:03.160273	271.6	13.0	-78.8	0.0
2025-01-25 20:19:04.284526	271.9	13.1	-79.0	0.0
2025-01-25 20:19:05.407844	272.1	13.1	-78.8	0.0
2025-01-25 20:19:06.532247	272.3	13.1	-78.6	0.0
2025-01-25 20:19:07.655973	272.5	13.1	-78.9	0.0
2025-01-25 20:19:08.781166	272.7	13.1	-78.8	0.0
2025-01-25 20:19:09.902297	273.0	13.1	-78.7	0.0
2025-01-25 20:19:11.026548	273.2	13.1	-78.6	0.0
2025-01-25 20:19:12.151292	273.4	13.1	-78.9	0.0
2025-01-25 20:19:13.273797	273.6	13.1	-79.2	0.0
2025-01-25 20:19:14.396389	273.8	13.1	-78.6	0.0
2025-01-25 20:19:15.518685	274.1	13.1	-78.8	0.0
2025-01-25 20:19:16.641426	274.3	13.2	-78.3	0.0
2025-01-25 20:19:17.767221	274.5	13.2	-78.7	0.0
2025-01-25 20:19:18.888079	274.7	13.2	-78.9	0.0
2025-01-25 20:19:20.008295	274.9	13.2	-78.7	0.0
2025-01-25 20:19:21.132688	275.2	13.2	-79.0	0.0
2025-01-25 20:19:22.255556	275.4	13.2	-78.9	0.0
2025-01-25 20:19:23.379350	275.6	13.2	-78.7	0.0
2025-01-25 20:19:24.503644	275.8	13.2	-78.8	0.0
2025-01-25 20:19:25.624740	276.1	13.2	-79.1	0.0
2025-01-25 20:19:26.745371	276.3	13.2	-78.8	0.0
2025-01-25 20:19:27.868652	276.5	13.2	-79.0	0.0
2025-01-25 20:19:28.989309	276.7	13.2	-78.8	0.0
2025-01-25 20:19:30.109475	276.9	13.2	-78.8	0.0
2025-01-25 20:19:31.233933	277.2	13.2	-78.9	0.0
2025-01-25 20:19:32.357082	277.4	13.2	-78.9	0.0
2025-01-25 20:19:33.479372	277.6	13.2	-79.0	0.0
2025-01-25 20:19:34.602547	277.8	13.2	-78.8	0.0
2025-01-25 20:19:35.728553	278.1	13.2	-78.8	0.0
2025-01-25 20:19:36.850351	278.3	13.2	-78.8	0.0
2025-01-25 20:19:37.970396	278.5	13.2	-78.7	0.0
2025-01-25 20:19:39.092251	278.7	13.2	-79.3	0.0
2025-01-25 20:19:40.213978	278.9	13.2	-79.6	0.0
2025-01-25 20:19:41.335164	279.2	13.2	-79.0	0.0
2025-01-25 20:19:42.458603	279.4	13.2	-78.8	0.0
2025-01-25 20:19:43.580464	279.6	13.2	-79.1	0.0
2025-01-25 20:19:44.704280	279.8	13.2	-79.0	0.0
2025-01-25 20:19:45.826399	280.0	13.2	-78.9	0.0
2025-01-25 20:19:46.948948	280.3	13.2	-79.2	0.0
2025-01-25 20:19:48.072618	280.5	13.2	-79.0	0.0
2025-01-25 20:19:49.196388	280.7	13.2	-79.0	0.0
2025-01-25 20:19:50.319417	280.9	13.2	-78.7	0.0
2025-01-25 20:19:51.442774	281.2	13.2	-79.0	0.0
2025-01-25 20:19:52.566038	281.4	13.2	-78.9	0.0
2025-01-25 20:19:53.692199	281.6	13.2	-78.4	0.0
2025-01-25 20:19:54.815261	281.8	13.1	-78.7	0.0
2025-01-25 20:19:55.936969	282.0	13.1	-79.1	0.0
2025-01-25 20:19:57.059619	282.3	13.1	-79.0	0.0
2025-01-25 20:19:58.182514	282.5	13.1	-79.3	0.0
2025-01-25 20:19:59.305700	282.7	13.1	-79.2	0.0
2025-01-25 20:20:00.428769	282.9	13.1	-79.1	0.0
2025-01-25 20:20:01.551086	283.1	13.1	-79.0	0.0
2025-01-25 20:20:02.672634	283.4	13.1	-79.2	0.0
2025-01-25 20:20:03.795097	283.6	13.1	-78.8	0.0
2025-01-25 20:20:04.919672	283.8	13.1	-79.0	0.0
2025-01-25 20:20:06.042582	284.0	13.1	-78.6	0.0
2025-01-25 20:20:07.166207	284.2	13.0	-79.3	0.0
2025-01-25 20:20:08.291813	284.5	13.0	-79.0	0.0
2025-01-25 20:20:09.414539	284.7	13.0	-78.9	0.0
2025-01-25 20:20:10.536927	284.9	13.0	-79.0	0.0
2025-01-25 20:20:11.656310	285.1	13.0	-78.9	0.0
2025-01-25 20:20:12.777181	285.3	13.0	-79.2	0.0
2025-01-25 20:20:13.900953	285.6	13.0	-79.3	0.0
2025-01-25 20:20:15.024015	285.8	13.0	-79.2	0.0
2025-01-25 20:20:16.147225	286.0	12.9	-78.4	0.0
2025-01-25 20:20:17.271902	286.2	12.9	-79.1	0.0
2025-01-25 20:20:18.394278	286.4	12.9	-79.3	0.0
2025-01-25 20:20:19.517957	286.6	12.9	-79.0	0.0
2025-01-25 20:20:20.640910	286.9	12.9	-79.2	0.0
2025-01-25 20:20:21.764247	287.1	12.9	-79.3	0.0
2025-01-25 20:20:22.886450	287.3	12.9	-79.2	0.0
2025-01-25 20:20:24.008404	287.5	12.8	-79.1	0.0
2025-01-25 20:20:25.133441	287.7	12.8	-78.8	0.0
2025-01-25 20:20:26.257076	287.9	12.8	-78.5	0.0
2025-01-25 20:20:27.380946	288.2	12.8	-78.8	0.0
2025-01-25 20:20:28.504050	288.4	12.8	-79.1	0.0
2025-01-25 20:20:29.627496	288.6	12.7	-79.3	0.0
2025-01-25 20:20:30.749939	288.8	12.7	-79.1	0.0
2025-01-25 20:20:31.871741	289.0	12.7	-79.0	0.0
2025-01-25 20:20:32.994264	289.2	12.7	-79.1	0.0
2025-01-25 20:20:34.115609	289.5	12.7	-79.1	0.0
2025-01-25 20:20:35.237425	289.7	12.7	-79.2	0.0
2025-01-25 20:20:36.361442	289.9	12.6	-79.4	0.0
2025-01-25 20:20:37.485659	290.1	12.6	-79.0	0.0
2025-01-25 20:20:38.609368	290.3	12.6	-79.2	0.0
2025-01-25 20:20:39.731604	290.5	12.6	-79.2	0.0
2025-01-25 20:20:40.853936	290.7	12.5	-79.1	0.0
2025-01-25 20:20:41.978427	290.9	12.5	-79.5	0.0
2025-01-25 20:20:43.100859	291.2	12.5	-79.3	0.0
2025-01-25 20:20:44.224254	291.4	12.5	-79.2	0.0
2025-01-25 20:20:45.345794	291.6	12.5	-79.4	0.0
2025-01-25 20:20:46.468776	291.8	12.4	-79.5	0.0
2025-01-25 20:20:47.591392	292.0	12.4	-79.1	0.0
2025-01-25 20:20:48.714572	292.2	12.4	-79.2	0.0
2025-01-25 20:20:49.834718	292.4	12.4	-79.3	0.0
2025-01-25 20:20:50.958213	292.6	12.3	-79.5	0.0
2025-01-25 20:20:52.081327	292.8	12.3	-79.3	0.0
2025-01-25 20:20:53.201891	293.0	12.3	-79.2	0.0
2025-01-25 20:20:54.326278	293.3	12.3	-79.1	0.0
2025-01-25 20:20:55.446957	293.5	12.2	-78.8	0.0
2025-01-25 20:20:56.570064	293.7	12.2	-79.0	0.0
2025-01-25 20:20:57.694223	293.9	12.2	-79.5	0.0
2025-01-25 20:20:58.818840	294.1	12.2	-79.3	0.0
2025-01-25 20:20:59.942269	294.3	12.1	-79.0	0.0
2025-01-25 20:21:01.063912	294.5	12.1	-79.1	0.0
2025-01-25 20:21:02.186655	294.7	12.1	-79.6	0.0
2025-01-25 20:21:03.308805	294.9	12.0	-79.4	0.0
2025-01-25 20:21:04.432367	295.1	12.0	-79.1	0.0
2025-01-25 20:21:05.557633	295.3	12.0	-79.3	0.0
2025-01-25 20:21:06.679883	295.5	12.0	-79.1	0.0
2025-01-25 20:21:07.804779	295.7	11.9	-78.3	0.0
2025-01-25 20:21:08.929477	295.9	11.9	-79.1	0.0
2025-01-25 20:21:10.051257	296.1	11.9	-79.0	0.0
2025-01-25 20:21:11.174066	296.3	11.8	-79.1	0.0
2025-01-25 20:21:12.297504	296.5	11.8	-79.0	0.0
2025-01-25 20:21:13.420380	296.7	11.8	-79.0	0.0
2025-01-25 20:21:14.542276	296.9	11.7	-79.1	0.0
2025-01-25 20:21:15.665689	297.1	11.7	-79.2	0.0
2025-01-25 20:21:16.788421	297.3	11.7	-79.0	0.0
2025-01-25 20:21:17.910219	297.5	11.7	-79.1	0.0
2025-01-25 20:21:19.032122	297.7	11.6	-79.2	0.0
2025-01-25 20:21:20.154631	297.9	11.6	-79.1	0.0
2025-01-25 20:21:21.275579	298.1	11.6	-78.9	0.0
2025-01-25 20:21:22.398235	298.3	11.5	-79.2	0.0
2025-01-25 20:21:23.521787	298.5	11.5	-78.9	0.0
2025-01-25 20:21:24.643396	298.7	11.5	-78.7	0.0
2025-01-25 20:21:25.766052	298.9	11.4	-79.1	0.0
2025-01-25 20:21:26.888165	299.1	11.4	-79.2	0.0
2025-01-25 20:21:28.009477	299.3	11.4	-79.1	0.0
2025-01-25 20:21:29.133370	299.5	11.3	-79.2	0.0
2025-01-25 20:21:30.255551	299.7	11.3	-79.5	0.0
2025-01-25 20:21:31.378360	299.9	11.3	-79.3	0.0
2025-01-25 20:21:32.501825	300.1	11.2	-78.9	0.0
2025-01-25 20:21:33.626169	300.3	11.2	-79.3	0.0
2025-01-25 20:21:34.748339	300.5	11.1	-79.1	0.0
2025-01-25 20:21:35.871062	300.7	11.1	-79.2	0.0
2025-01-25 20:21:36.993537	300.9	11.1	-79.1	0.0
2025-01-25 20:21:38.111909	301.1	11.0	-79.2	0.0
2025-01-25 20:21:39.234370	301.3	11.0	-79.0	0.0
2025-01-25 20:21:40.357933	301.5	11.0	-79.1	0.0
2025-01-25 20:21:41.482397	301.6	10.9	-79.1	0.0
2025-01-25 20:21:42.605027	301.8	10.9	-78.9	0.0
2025-01-25 20:21:43.729299	302.0	10.9	-79.1	0.0
2025-01-25 20:21:44.852136	302.2	10.8	-78.9	0.0
2025-01-25 20:21:45.976617	302.4	10.8	-79.4	0.0
2025-01-25 20:21:47.100437	302.6	10.7	-79.1	0.0
2025-01-25 20:21:48.223745	302.8	10.7	-79.2	0.0
2025-01-25 20:21:49.345742	303.0	10.7	-79.2	0.0
2025-01-25 20:21:50.469705	303.2	10.6	-79.2	0.0
2025-01-25 20:21:51.591496	303.3	10.6	-79.1	0.0
2025-01-25 20:21:52.713162	303.5	10.5	-79.3	0.0
2025-01-25 20:21:53.834571	303.7	10.5	-79.6	0.0
2025-01-25 20:21:54.958553	303.9	10.5	-79.3	0.0
2025-01-25 20:21:56.081612	304.1	10.4	-79.3	0.0
2025-01-25 20:21:57.203906	304.3	10.4	-79.4	0.0
2025-01-25 20:21:58.327360	304.4	10.3	-79.4	0.0
2025-01-25 20:21:59.450347	304.6	10.3	-79.6	0.0
2025-01-25 20:22:00.572364	304.8	10.3	-79.0	0.0
2025-01-25 20:22:01.695670	305.0	10.2	-79.3	0.0
2025-01-25 20:22:02.819968	305.2	10.2	-79.2	0.0
2025-01-25 20:22:03.942008	305.4	10.1	-79.4	0.0
2025-01-25 20:22:05.066179	305.5	10.1	-79.4	0.0
2025-01-25 20:22:06.190266	305.7	10.1	-79.2	0.0
#Closed at: 2025-01-25 20:16:58.075525