passes_logs/2025/01/25/planumMaritime01/planumMaritime01__20250125_090155_NOAA_18_rec.log

#Pass ID: 20250125_090155_NOAA 18
#Satellite: NOAA 18
#Configuration: NOAA 18
#Start time: 2025-01-25 09:02:00.537468

#LorettStation: 1.0.0 05.05.2024
#Station: planumMaritime01
#Location: 37.49445 lon 55.92918 lat
#TLE: 1 28654U 05018A   25024.71894748  .00000533  00000+0  30607-3 0  9999
#TLE: 2 28654  98.8552 105.6762 0014784 152.2729 207.9234 14.13496616 14556

#Time	Az	El	Level	SNR
2025-01-25 09:02:02.683276	17.0	10.2	-75.2	0.0
2025-01-25 09:02:04.930412	17.0	10.4	-75.7	0.0
2025-01-25 09:02:07.176093	17.1	10.6	-75.5	0.0
2025-01-25 09:02:09.420229	17.1	10.8	-75.4	0.0
2025-01-25 09:02:11.667249	17.1	11.0	-75.6	0.0
2025-01-25 09:02:13.909755	17.1	11.2	-75.5	0.0
2025-01-25 09:02:16.156470	17.1	11.4	-75.8	0.0
2025-01-25 09:02:18.403969	17.1	11.6	-75.7	0.0
2025-01-25 09:02:20.651446	17.1	11.8	-75.6	0.0
2025-01-25 09:02:22.897805	17.1	12.0	-75.6	0.0
2025-01-25 09:02:25.143839	17.2	12.2	-76.0	0.0
2025-01-25 09:02:27.392601	17.2	12.4	-75.9	0.0
2025-01-25 09:02:29.638044	17.2	12.6	-75.9	0.0
2025-01-25 09:02:31.884734	17.2	12.8	-75.3	0.0
2025-01-25 09:02:34.134098	17.2	13.1	-75.5	0.0
2025-01-25 09:02:36.381857	17.2	13.3	-75.7	0.0
2025-01-25 09:02:38.630875	17.2	13.5	-75.7	0.0
2025-01-25 09:02:40.876361	17.2	13.7	-75.8	0.0
2025-01-25 09:02:43.122336	17.3	14.0	-75.5	0.0
2025-01-25 09:02:45.369153	17.3	14.2	-76.0	0.0
2025-01-25 09:02:47.616587	17.3	14.4	-75.5	0.0
2025-01-25 09:02:49.865393	17.3	14.6	-75.4	0.0
2025-01-25 09:02:52.110029	17.3	14.9	-75.5	0.0
2025-01-25 09:02:54.358576	17.3	15.1	-75.7	0.0
2025-01-25 09:02:56.605617	17.3	15.4	-75.4	0.0
2025-01-25 09:02:58.854428	17.3	15.6	-75.6	0.0
2025-01-25 09:03:01.103603	17.4	15.8	-75.7	0.0
2025-01-25 09:03:03.349520	17.4	16.1	-75.7	0.0
2025-01-25 09:03:05.592721	17.4	16.3	-75.2	0.0
2025-01-25 09:03:07.840300	17.4	16.6	-75.8	0.0
2025-01-25 09:03:10.087014	17.4	16.8	-75.7	0.0
2025-01-25 09:03:12.333382	17.4	17.1	-75.8	0.0
2025-01-25 09:03:14.577757	17.4	17.4	-75.6	0.0
2025-01-25 09:03:16.824870	17.4	17.6	-75.5	0.0
2025-01-25 09:03:19.068382	17.5	17.9	-75.7	0.0
2025-01-25 09:03:21.314633	17.5	18.1	-76.0	0.0
2025-01-25 09:03:23.559271	17.5	18.4	-75.6	0.0
2025-01-25 09:03:25.804328	17.5	18.7	-75.7	0.0
2025-01-25 09:03:28.050135	17.5	19.0	-75.5	0.0
2025-01-25 09:03:30.296947	17.5	19.2	-75.5	0.0
2025-01-25 09:03:32.541482	17.5	19.5	-75.9	0.0
2025-01-25 09:03:34.784743	17.6	19.8	-75.6	0.0
2025-01-25 09:03:37.029116	17.6	20.1	-75.8	0.0
2025-01-25 09:03:39.274428	17.6	20.4	-75.6	0.0
2025-01-25 09:03:41.519616	17.6	20.7	-75.6	0.0
2025-01-25 09:03:43.765256	17.6	21.0	-75.7	0.0
2025-01-25 09:03:46.012341	17.6	21.3	-76.3	0.0
2025-01-25 09:03:48.259802	17.7	21.6	-75.3	0.0
2025-01-25 09:03:50.505883	17.7	21.9	-76.0	0.0
2025-01-25 09:03:52.753504	17.7	22.2	-75.3	0.0
2025-01-25 09:03:55.001165	17.7	22.5	-76.1	0.0
2025-01-25 09:03:57.249397	17.7	22.9	-75.9	0.0
2025-01-25 09:03:59.495305	17.7	23.2	-75.5	0.0
2025-01-25 09:04:01.737853	17.7	23.5	-75.7	0.0
2025-01-25 09:04:03.987805	17.8	23.9	-75.6	0.0
2025-01-25 09:04:06.229388	17.8	24.2	-76.0	0.0
2025-01-25 09:04:08.475821	17.8	24.5	-75.7	0.0
2025-01-25 09:04:10.723188	17.8	24.9	-75.8	0.0
2025-01-25 09:04:12.968693	17.8	25.2	-75.7	0.0
2025-01-25 09:04:15.213033	17.8	25.6	-75.9	0.0
2025-01-25 09:04:17.459986	17.9	26.0	-76.3	0.0
2025-01-25 09:04:19.704856	17.9	26.3	-75.4	0.0
2025-01-25 09:04:21.950509	17.9	26.7	-76.0	0.0
2025-01-25 09:04:24.194323	17.9	27.1	-75.4	0.0
2025-01-25 09:04:26.442993	17.9	27.5	-76.0	0.0
2025-01-25 09:04:28.689693	17.9	27.9	-75.8	0.0
2025-01-25 09:04:30.937062	18.0	28.2	-76.1	0.0
2025-01-25 09:04:33.181425	18.0	28.6	-76.0	0.0
2025-01-25 09:04:35.427880	18.0	29.1	-75.9	0.0
2025-01-25 09:04:37.674003	18.0	29.5	-75.9	0.0
2025-01-25 09:04:39.920537	18.0	29.9	-75.5	0.0
2025-01-25 09:04:42.164875	18.1	30.3	-75.6	0.0
2025-01-25 09:04:44.413339	18.1	30.7	-76.3	0.0
2025-01-25 09:04:46.658716	18.1	31.2	-75.7	0.0
2025-01-25 09:04:48.906895	18.1	31.6	-75.4	0.0
2025-01-25 09:04:51.151924	18.1	32.1	-76.2	0.0
2025-01-25 09:04:53.398514	18.2	32.5	-75.7	0.0
2025-01-25 09:04:55.645303	18.2	33.0	-75.8	0.0
2025-01-25 09:04:57.892147	18.2	33.5	-76.1	0.0
2025-01-25 09:05:00.138016	18.2	33.9	-75.5	0.0
2025-01-25 09:05:02.382270	18.2	34.4	-75.8	0.0
2025-01-25 09:05:04.626339	18.3	34.9	-76.0	0.0
2025-01-25 09:05:06.870599	18.3	35.4	-75.5	0.0
2025-01-25 09:05:09.119273	18.3	35.9	-76.0	0.0
2025-01-25 09:05:11.366712	18.3	36.4	-75.9	0.0
2025-01-25 09:05:13.613755	18.4	37.0	-76.1	0.0
2025-01-25 09:05:15.858242	18.4	37.5	-75.9	0.0
2025-01-25 09:05:18.102118	18.4	38.1	-76.0	0.0
2025-01-25 09:05:20.345300	18.4	38.6	-75.8	0.0
2025-01-25 09:05:22.590175	18.5	39.2	-75.9	0.0
2025-01-25 09:05:24.837191	18.5	39.7	-75.5	0.0
2025-01-25 09:05:27.084078	18.5	40.3	-75.6	0.0
2025-01-25 09:05:29.330360	18.6	40.9	-75.7	0.0
2025-01-25 09:05:31.575861	18.6	41.5	-75.7	0.0
2025-01-25 09:05:33.825015	18.6	42.1	-76.1	0.0
2025-01-25 09:05:36.072791	18.7	42.7	-76.2	0.0
2025-01-25 09:05:38.318031	18.7	43.4	-76.2	0.0
2025-01-25 09:05:40.565526	18.7	44.0	-75.8	0.0
2025-01-25 09:05:42.815294	18.8	44.7	-76.2	0.0
2025-01-25 09:05:45.061715	18.8	45.3	-76.3	0.0
2025-01-25 09:05:47.305983	18.8	46.0	-76.2	0.0
2025-01-25 09:05:49.549757	18.9	46.7	-76.2	0.0
2025-01-25 09:05:51.794403	18.9	47.4	-75.8	0.0
2025-01-25 09:05:54.039738	18.9	48.1	-75.6	0.0
2025-01-25 09:05:56.285285	19.0	48.8	-76.1	0.0
2025-01-25 09:05:58.532503	19.0	49.6	-75.9	0.0
2025-01-25 09:06:00.778059	19.1	50.3	-75.9	0.0
2025-01-25 09:06:03.023954	19.1	51.1	-75.7	0.0
2025-01-25 09:06:05.269489	19.2	51.8	-75.3	0.0
2025-01-25 09:06:07.514348	19.2	52.6	-76.1	0.0
2025-01-25 09:06:09.759868	19.3	53.4	-76.4	0.0
2025-01-25 09:06:12.006577	19.3	54.2	-76.2	0.0
2025-01-25 09:06:14.250999	19.4	55.0	-76.4	0.0
2025-01-25 09:06:16.498100	19.5	55.9	-76.3	0.0
2025-01-25 09:06:18.746253	19.5	56.7	-76.2	0.0
2025-01-25 09:06:20.993130	19.6	57.6	-76.4	0.0
2025-01-25 09:06:23.239864	19.7	58.4	-76.5	0.0
2025-01-25 09:06:25.486959	19.8	59.3	-76.0	0.0
2025-01-25 09:06:27.735103	19.9	60.2	-76.5	0.0
2025-01-25 09:06:29.982399	19.9	61.1	-75.9	0.0
2025-01-25 09:06:32.228186	20.0	62.1	-76.0	0.0
2025-01-25 09:06:34.476421	20.1	63.0	-76.1	0.0
2025-01-25 09:06:36.722527	20.3	64.0	-76.0	0.0
2025-01-25 09:06:38.969186	20.4	64.9	-76.0	0.0
2025-01-25 09:06:41.215567	20.5	65.9	-75.8	0.0
2025-01-25 09:06:43.463050	20.6	66.9	-75.9	0.0
2025-01-25 09:06:45.712145	20.8	67.9	-76.1	0.0
2025-01-25 09:06:47.959519	21.0	68.9	-76.1	0.0
2025-01-25 09:06:50.206440	21.2	69.9	-75.7	0.0
2025-01-25 09:06:52.454014	21.4	71.0	-75.9	0.0
2025-01-25 09:06:54.698714	21.6	72.0	-75.9	0.0
2025-01-25 09:06:56.944602	21.9	73.1	-74.9	0.0
2025-01-25 09:06:59.191178	22.2	74.1	-75.1	0.0
2025-01-25 09:07:01.439313	22.5	75.2	-74.9	0.0
2025-01-25 09:07:03.681104	22.9	76.3	-75.5	0.0
2025-01-25 09:07:05.925523	23.4	77.4	-75.2	0.0
2025-01-25 09:07:08.171544	24.0	78.4	-75.4	0.0
2025-01-25 09:07:10.418981	24.6	79.5	-75.3	0.0
2025-01-25 09:07:12.664255	25.5	80.7	-75.9	0.0
2025-01-25 09:07:14.911242	26.5	81.8	-76.7	0.0
2025-01-25 09:07:17.155514	27.9	82.9	-76.1	0.0
2025-01-25 09:07:19.402420	29.9	84.0	-76.2	0.0
2025-01-25 09:07:21.646436	32.7	85.1	-75.6	0.0
2025-01-25 09:07:23.892960	37.0	86.2	-76.0	0.0
2025-01-25 09:07:26.138472	44.8	87.2	-76.2	0.0
2025-01-25 09:07:28.380979	61.3	88.2	-76.6	0.0
2025-01-25 09:07:30.628763	99.3	88.7	-76.4	0.0
2025-01-25 09:07:32.876773	144.9	88.4	-76.1	0.0
2025-01-25 09:07:35.122426	166.8	87.6	-76.1	0.0
2025-01-25 09:07:37.368926	176.6	86.5	-76.3	0.0
2025-01-25 09:07:39.616180	181.8	85.4	-75.9	0.0
2025-01-25 09:07:41.861775	185.0	84.3	-76.0	0.0
2025-01-25 09:07:44.109640	187.2	83.2	-76.0	0.0
2025-01-25 09:07:46.357066	188.7	82.1	-76.2	0.0
2025-01-25 09:07:48.600870	189.9	81.0	-76.0	0.0
2025-01-25 09:07:50.846819	190.8	79.9	-76.0	0.0
2025-01-25 09:07:53.095385	191.5	78.8	-76.1	0.0
2025-01-25 09:07:55.339524	192.1	77.7	-75.9	0.0
2025-01-25 09:07:57.584878	192.6	76.6	-76.5	0.0
2025-01-25 09:07:59.831235	193.0	75.5	-76.4	0.0
2025-01-25 09:08:02.078360	193.4	74.4	-75.8	0.0
2025-01-25 09:08:04.324313	193.7	73.4	-76.2	0.0
2025-01-25 09:08:06.571243	194.0	72.3	-76.5	0.0
2025-01-25 09:08:08.815217	194.2	71.3	-76.2	0.0
2025-01-25 09:08:11.064337	194.4	70.2	-76.1	0.0
2025-01-25 09:08:13.308951	194.6	69.2	-76.4	0.0
2025-01-25 09:08:15.556509	194.8	68.2	-76.0	0.0
2025-01-25 09:08:17.801348	195.0	67.2	-76.1	0.0
2025-01-25 09:08:20.045479	195.1	66.2	-76.3	0.0
2025-01-25 09:08:22.292057	195.2	65.2	-76.4	0.0
2025-01-25 09:08:24.539310	195.4	64.2	-76.2	0.0
2025-01-25 09:08:26.784190	195.5	63.3	-76.5	0.0
2025-01-25 09:08:29.030263	195.6	62.3	-76.5	0.0
2025-01-25 09:08:31.277361	195.7	61.4	-76.4	0.0
2025-01-25 09:08:33.523711	195.8	60.5	-75.5	0.0
2025-01-25 09:08:35.769597	195.9	59.6	-76.4	0.0
2025-01-25 09:08:38.017962	195.9	58.7	-76.4	0.0
2025-01-25 09:08:40.265991	196.0	57.8	-75.6	0.0
2025-01-25 09:08:42.510022	196.1	56.9	-75.7	0.0
2025-01-25 09:08:44.754878	196.2	56.1	-74.7	0.0
2025-01-25 09:08:47.001539	196.2	55.2	-75.1	0.0
2025-01-25 09:08:49.247473	196.3	54.4	-75.9	0.0
2025-01-25 09:08:51.496125	196.3	53.6	-76.4	0.0
2025-01-25 09:08:53.745924	196.4	52.8	-76.1	0.0
2025-01-25 09:08:55.993053	196.4	52.0	-76.4	0.0
2025-01-25 09:08:58.237204	196.5	51.2	-75.9	0.0
2025-01-25 09:09:00.481563	196.5	50.4	-76.1	0.0
2025-01-25 09:09:02.729557	196.6	49.7	-76.1	0.0
2025-01-25 09:09:04.973024	196.6	48.9	-76.3	0.0
2025-01-25 09:09:07.215982	196.7	48.2	-76.3	0.0
2025-01-25 09:09:09.465342	196.7	47.5	-76.6	0.0
2025-01-25 09:09:11.712436	196.8	46.8	-76.2	0.0
2025-01-25 09:09:13.956581	196.8	46.1	-76.2	0.0
2025-01-25 09:09:16.203053	196.8	45.4	-76.2	0.0
2025-01-25 09:09:18.445522	196.9	44.7	-76.1	0.0
2025-01-25 09:09:20.691217	196.9	44.1	-75.7	0.0
2025-01-25 09:09:22.938001	196.9	43.4	-76.4	0.0
2025-01-25 09:09:25.185602	197.0	42.8	-76.2	0.0
2025-01-25 09:09:27.433840	197.0	42.2	-76.0	0.0
2025-01-25 09:09:29.681803	197.0	41.6	-75.6	0.0
2025-01-25 09:09:31.927212	197.1	40.9	-76.5	0.0
2025-01-25 09:09:34.171087	197.1	40.4	-76.1	0.0
2025-01-25 09:09:36.417980	197.1	39.8	-76.5	0.0
2025-01-25 09:09:38.664400	197.2	39.2	-76.5	0.0
2025-01-25 09:09:40.911162	197.2	38.6	-76.8	0.0
2025-01-25 09:09:43.160121	197.2	38.1	-76.7	0.0
2025-01-25 09:09:45.402463	197.2	37.5	-76.4	0.0
2025-01-25 09:09:47.647531	197.3	37.0	-76.5	0.0
2025-01-25 09:09:49.893591	197.3	36.4	-76.0	0.0
2025-01-25 09:09:52.137507	197.3	35.9	-76.3	0.0
2025-01-25 09:09:54.383123	197.3	35.4	-76.5	0.0
2025-01-25 09:09:56.627727	197.3	34.9	-76.1	0.0
2025-01-25 09:09:58.872170	197.4	34.4	-76.4	0.0
2025-01-25 09:10:01.118642	197.4	33.9	-76.5	0.0
2025-01-25 09:10:03.365419	197.4	33.4	-76.4	0.0
2025-01-25 09:10:05.614382	197.4	32.9	-76.3	0.0
2025-01-25 09:10:07.861078	197.5	32.5	-76.3	0.0
2025-01-25 09:10:10.104894	197.5	32.0	-76.3	0.0
2025-01-25 09:10:12.347142	197.5	31.6	-75.9	0.0
2025-01-25 09:10:14.593370	197.5	31.1	-76.3	0.0
2025-01-25 09:10:16.838903	197.5	30.7	-76.0	0.0
2025-01-25 09:10:19.083866	197.6	30.2	-76.4	0.0
2025-01-25 09:10:21.330489	197.6	29.8	-76.1	0.0
2025-01-25 09:10:23.579865	197.6	29.4	-76.4	0.0
2025-01-25 09:10:25.826722	197.6	29.0	-76.3	0.0
2025-01-25 09:10:28.072316	197.6	28.6	-76.1	0.0
2025-01-25 09:10:30.315742	197.6	28.2	-76.5	0.0
2025-01-25 09:10:32.562755	197.7	27.8	-76.5	0.0
2025-01-25 09:10:34.807244	197.7	27.4	-76.5	0.0
2025-01-25 09:10:37.050501	197.7	27.0	-76.6	0.0
2025-01-25 09:10:39.297258	197.7	26.6	-76.4	0.0
2025-01-25 09:10:41.543100	197.7	26.2	-76.1	0.0
2025-01-25 09:10:43.786185	197.7	25.9	-75.7	0.0
2025-01-25 09:10:46.030862	197.8	25.5	-76.2	0.0
2025-01-25 09:10:48.278706	197.8	25.1	-76.2	0.0
2025-01-25 09:10:50.525254	197.8	24.8	-76.2	0.0
2025-01-25 09:10:52.769393	197.8	24.4	-76.2	0.0
2025-01-25 09:10:55.015959	197.8	24.1	-76.2	0.0
2025-01-25 09:10:57.265427	197.8	23.7	-75.9	0.0
2025-01-25 09:10:59.509789	197.8	23.4	-76.0	0.0
2025-01-25 09:11:01.755360	197.9	23.1	-76.5	0.0
2025-01-25 09:11:04.002036	197.9	22.7	-76.2	0.0
2025-01-25 09:11:06.244289	197.9	22.4	-76.6	0.0
2025-01-25 09:11:08.490170	197.9	22.1	-76.0	0.0
2025-01-25 09:11:10.732912	197.9	21.8	-76.4	0.0
2025-01-25 09:11:12.979155	197.9	21.5	-76.3	0.0
2025-01-25 09:11:15.223649	197.9	21.2	-76.1	0.0
2025-01-25 09:11:17.466441	198.0	20.8	-76.1	0.0
2025-01-25 09:11:19.711149	198.0	20.5	-76.2	0.0
2025-01-25 09:11:21.956715	198.0	20.2	-76.3	0.0
2025-01-25 09:11:24.207108	198.0	19.9	-76.3	0.0
2025-01-25 09:11:26.454486	198.0	19.7	-76.6	0.0
2025-01-25 09:11:28.697716	198.0	19.4	-76.5	0.0
2025-01-25 09:11:30.942332	198.0	19.1	-76.5	0.0
2025-01-25 09:11:33.185899	198.0	18.8	-76.5	0.0
2025-01-25 09:11:35.432088	198.1	18.5	-76.2	0.0
2025-01-25 09:11:37.676672	198.1	18.3	-76.7	0.0
2025-01-25 09:11:39.925458	198.1	18.0	-76.4	0.0
2025-01-25 09:11:42.170033	198.1	17.7	-76.8	0.0
2025-01-25 09:11:44.418758	198.1	17.4	-76.0	0.0
2025-01-25 09:11:46.664755	198.1	17.2	-76.4	0.0
2025-01-25 09:11:48.907933	198.1	16.9	-75.6	0.0
2025-01-25 09:11:51.156443	198.1	16.7	-76.1	0.0
2025-01-25 09:11:53.403483	198.2	16.4	-76.5	0.0
2025-01-25 09:11:55.648932	198.2	16.2	-75.8	0.0
2025-01-25 09:11:57.894672	198.2	15.9	-75.9	0.0
2025-01-25 09:12:00.138328	198.2	15.7	-76.8	0.0
2025-01-25 09:12:02.382759	198.2	15.4	-76.4	0.0
2025-01-25 09:12:04.628087	198.2	15.2	-76.2	0.0
2025-01-25 09:12:06.872095	198.2	14.9	-76.2	0.0
2025-01-25 09:12:09.115791	198.2	14.7	-76.0	0.0
2025-01-25 09:12:11.359455	198.2	14.5	-76.4	0.0
2025-01-25 09:12:13.605018	198.3	14.2	-75.9	0.0
2025-01-25 09:12:15.850623	198.3	14.0	-76.4	0.0
2025-01-25 09:12:18.095111	198.3	13.8	-76.5	0.0
2025-01-25 09:12:20.342230	198.3	13.5	-76.2	0.0
2025-01-25 09:12:22.589937	198.3	13.3	-76.0	0.0
2025-01-25 09:12:24.837224	198.3	13.1	-76.2	0.0
2025-01-25 09:12:27.080919	198.3	12.9	-76.1	0.0
2025-01-25 09:12:29.325973	198.3	12.6	-76.5	0.0
2025-01-25 09:12:31.571348	198.3	12.4	-77.2	0.0
2025-01-25 09:12:33.816600	198.3	12.2	-76.5	0.0
2025-01-25 09:12:36.062056	198.4	12.0	-76.4	0.0
2025-01-25 09:12:38.305829	198.4	11.8	-76.4	0.0
2025-01-25 09:12:40.548437	198.4	11.6	-76.0	0.0
2025-01-25 09:12:42.794357	198.4	11.4	-76.2	0.0
2025-01-25 09:12:45.040353	198.4	11.2	-76.1	0.0
2025-01-25 09:12:47.287829	198.4	11.0	-76.5	0.0
2025-01-25 09:12:49.535842	198.4	10.8	-76.3	0.0
2025-01-25 09:12:51.779938	198.4	10.6	-76.2	0.0
2025-01-25 09:12:54.025439	198.4	10.4	-76.5	0.0
2025-01-25 09:12:56.271842	198.4	10.2	-76.4	0.0
#Closed at: 2025-01-25 09:01:55.538836