passes_logs/2026/01/03/R3.2S_Murmansk/R3.2S_Murmansk__20260103_055727_FENGYUN_3D_rec.log

#Pass ID: 20260103_055727_FENGYUN 3D
#Satellite: FENGYUN 3D
#Configuration: FENGYUN 3D
#almurnet v.1.7.20251203
#Start time: 2026-01-03 05:57:28

#Version: 2.2.20231116
#Station: R3.2S_Murmansk
#Location: 33.079688 lon 68.888172 lat
#TLE: 1 43010U 17072A   26002.81102625  .00000200  00000+0  11640-3 0  9996
#TLE: 2 43010  98.9911 334.4394 0001899 131.0556 229.0784 14.19692049421526

#Time	Az	El	Level	Level2	SNR	BER	BlckErr	Temp	State	Recorded	gain1	gain2
2026-01-03 05:57:28.77	46.71	2.10	-59.6	-72.1	3.8	8.46e-01	0	29	0	0	85	15163
2026-01-03 05:57:32.75	46.48	2.33	-59.6	-72.1	3.8	8.46e-01	0	29	104	0	84	16057
2026-01-03 05:57:36.74	46.25	2.56	-59.6	-72.1	3.8	8.46e-01	0	29	104	0	84	16081
2026-01-03 05:57:40.74	46.01	2.80	-59.6	-72.2	3.8	8.45e-01	0	29	104	0	84	16137
2026-01-03 05:57:44.74	45.77	3.04	-59.6	-72.0	3.8	8.45e-01	0	29	104	0	84	15907
2026-01-03 05:57:48.73	45.52	3.28	-59.6	-72.1	3.8	8.47e-01	0	29	104	0	84	15978
2026-01-03 05:57:52.73	45.27	3.52	-59.6	-72.1	3.8	8.46e-01	0	29	104	0	84	15974
2026-01-03 05:57:56.73	45.01	3.76	-59.6	-71.8	3.8	8.45e-01	0	30	104	0	84	15441
2026-01-03 05:58:00.72	44.75	4.01	-59.6	-72.1	3.8	8.46e-01	0	30	104	0	84	16069
2026-01-03 05:58:04.71	44.49	4.25	-59.4	-69.4	4.0	8.44e-01	0	30	104	0	84	11724
2026-01-03 05:58:08.71	44.22	4.50	-58.4	-64.6	6.0	4.16e-01	0	30	0	3145728	83	7179
2026-01-03 05:58:12.69	43.94	4.75	-57.6	-61.9	8.2	4.15e-02	0	30	0	26214400	81	5883
2026-01-03 05:58:16.70	43.66	5.00	-57.6	-61.9	8.2	3.56e-02	0	30	0	48234496	81	5906
2026-01-03 05:58:20.71	43.38	5.25	-54.3	-56.0	12.9	0.00e+00	0	30	0	70254592	75	4212
2026-01-03 05:58:24.71	43.09	5.51	-52.6	-53.8	14.1	0.00e+00	0	30	0	88080384	71	4140
2026-01-03 05:58:28.71	42.79	5.76	-51.9	-53.0	14.5	0.00e+00	0	30	0	110100480	70	3986
2026-01-03 05:58:32.71	42.49	6.02	-51.6	-52.6	14.6	0.00e+00	0	30	0	133169152	69	4039
2026-01-03 05:58:36.73	42.18	6.28	-51.6	-52.6	14.7	0.00e+00	0	30	0	155189248	69	4024
2026-01-03 05:58:40.74	41.87	6.54	-51.5	-52.6	14.7	0.00e+00	0	30	0	178257920	69	4027
2026-01-03 05:58:44.77	41.55	6.81	-51.4	-52.4	14.8	0.00e+00	0	30	0	200278016	69	3949
2026-01-03 05:58:48.76	41.22	7.07	-51.5	-52.6	14.7	0.00e+00	0	30	0	223346688	69	4005
2026-01-03 05:58:52.78	40.89	7.34	-51.4	-52.4	14.8	0.00e+00	0	30	0	245366784	69	3956
2026-01-03 05:58:56.79	40.55	7.61	-51.2	-52.2	14.9	0.00e+00	0	30	0	268435456	68	4057
2026-01-03 05:59:00.80	40.21	7.88	-51.1	-52.0	14.9	0.00e+00	0	30	0	290455552	68	3977
2026-01-03 05:59:04.81	39.86	8.16	-51.0	-51.9	15.0	0.00e+00	0	30	0	313524224	68	3957
2026-01-03 05:59:08.80	39.50	8.43	-51.0	-51.9	15.0	0.00e+00	0	30	0	335544320	68	3930
2026-01-03 05:59:12.81	39.13	8.71	-51.2	-52.1	14.9	0.00e+00	0	30	0	358612992	68	4026
2026-01-03 05:59:16.81	38.76	8.99	-50.8	-51.7	15.1	0.00e+00	0	30	0	380633088	68	3861
2026-01-03 05:59:20.83	38.38	9.27	-51.0	-51.9	15.0	0.00e+00	0	30	0	403701760	68	3928
2026-01-03 05:59:24.83	37.99	9.55	-50.7	-51.5	15.2	0.00e+00	0	30	0	425721856	68	3776
2026-01-03 05:59:28.83	37.60	9.83	-50.3	-51.1	15.2	0.00e+00	0	30	0	448790528	66	4025
2026-01-03 05:59:32.85	37.19	10.12	-50.1	-51.0	15.3	0.00e+00	0	30	0	470810624	66	3966
2026-01-03 05:59:36.85	36.78	10.41	-50.3	-51.1	15.2	0.00e+00	0	30	0	493879296	66	4015
2026-01-03 05:59:40.85	36.36	10.70	-50.2	-51.1	15.2	0.00e+00	0	30	0	515899392	66	4019
2026-01-03 05:59:44.87	35.93	10.99	-50.0	-50.8	15.3	0.00e+00	0	30	0	538968064	66	3913
2026-01-03 05:59:48.88	35.49	11.29	-50.0	-50.8	15.3	0.00e+00	0	30	0	560988160	66	3891
2026-01-03 05:59:52.89	35.04	11.58	-50.1	-50.9	15.3	0.00e+00	0	30	0	584056832	66	3946
2026-01-03 05:59:56.89	34.59	11.88	-50.0	-50.8	15.3	0.00e+00	0	30	0	606076928	66	3899
2026-01-03 06:00:00.87	34.12	12.18	-50.0	-50.7	15.4	0.00e+00	0	30	0	629145600	66	3862
2026-01-03 06:00:04.87	33.65	12.48	-49.9	-50.6	15.4	0.00e+00	0	30	0	651165696	66	3817
2026-01-03 06:00:08.85	33.16	12.78	-49.9	-50.6	15.4	0.00e+00	0	30	0	673185792	66	3823
2026-01-03 06:00:12.85	32.67	13.08	-49.8	-50.5	15.5	0.00e+00	0	30	0	696254464	66	3777
2026-01-03 06:00:16.84	32.16	13.39	-49.6	-50.3	15.5	0.00e+00	0	31	0	718274560	65	3913
2026-01-03 06:00:20.83	31.64	13.69	-49.4	-50.1	15.6	0.00e+00	0	30	0	741343232	65	3807
2026-01-03 06:00:24.84	31.11	14.00	-49.2	-49.9	15.6	0.00e+00	0	31	0	763363328	64	3954
2026-01-03 06:00:28.83	30.58	14.31	-49.3	-50.0	15.5	0.00e+00	0	30	0	786432000	64	4003
2026-01-03 06:00:32.82	30.03	14.62	-49.2	-50.0	15.6	0.00e+00	0	31	0	808452096	64	3974
2026-01-03 06:00:36.81	29.46	14.94	-49.1	-49.8	15.6	0.00e+00	0	31	0	831520768	64	3913
2026-01-03 06:00:40.81	28.89	15.25	-49.1	-49.8	15.6	0.00e+00	0	30	0	853540864	64	3898
2026-01-03 06:00:44.81	28.30	15.56	-48.9	-49.6	15.7	0.00e+00	0	31	0	875560960	64	3820
2026-01-03 06:00:48.80	27.70	15.88	-49.0	-49.7	15.7	0.00e+00	0	30	0	898629632	64	3831
2026-01-03 06:00:52.79	27.09	16.19	-48.8	-49.5	15.7	0.00e+00	0	31	0	920649728	64	3741
2026-01-03 06:00:56.80	26.46	16.51	-48.7	-49.3	15.7	0.00e+00	0	31	0	943718400	63	3905
2026-01-03 06:01:00.78	25.82	16.83	-48.6	-49.2	15.7	0.00e+00	0	30	0	965738496	63	3867
2026-01-03 06:01:04.76	25.17	17.15	-48.7	-49.3	15.7	0.00e+00	0	30	0	987758592	63	3913
2026-01-03 06:01:08.75	24.50	17.46	-48.3	-48.9	15.8	0.00e+00	0	30	0	1010827264	63	3737
2026-01-03 06:01:12.75	23.81	17.78	-48.4	-49.1	15.8	0.00e+00	0	30	0	1032847360	63	3789
2026-01-03 06:01:16.73	23.12	18.10	-48.6	-49.3	15.7	0.00e+00	0	31	0	1055916032	63	3885
2026-01-03 06:01:20.72	22.41	18.41	-48.4	-49.0	15.8	0.00e+00	0	31	0	1077936128	63	3777
2026-01-03 06:01:24.71	21.68	18.73	-48.3	-49.0	15.9	0.00e+00	0	31	0	1099956224	63	3753
2026-01-03 06:01:28.70	20.94	19.04	-48.1	-48.7	15.9	0.00e+00	0	30	0	1123024896	62	3863
2026-01-03 06:01:32.70	20.18	19.36	-48.0	-48.7	15.8	0.00e+00	0	31	0	1145044992	62	3833
2026-01-03 06:01:36.69	19.40	19.67	-48.2	-48.8	15.8	0.00e+00	0	31	0	1168113664	62	3909
2026-01-03 06:01:40.69	18.61	19.98	-47.9	-48.5	15.9	0.00e+00	0	31	0	1190133760	62	3771
2026-01-03 06:01:44.69	17.80	20.29	-48.0	-48.6	15.9	0.00e+00	0	31	0	1212153856	62	3823
2026-01-03 06:01:48.67	16.98	20.60	-47.7	-48.3	16.0	0.00e+00	0	31	0	1235222528	62	3682
2026-01-03 06:01:52.67	16.14	20.90	-47.7	-48.3	16.0	0.00e+00	0	31	0	1257242624	62	3684
2026-01-03 06:01:56.67	15.28	21.20	-47.6	-48.2	15.9	0.00e+00	0	30	0	1280311296	61	3864
2026-01-03 06:02:00.67	14.40	21.50	-47.4	-48.0	16.0	0.00e+00	0	31	0	1302331392	61	3778
2026-01-03 06:02:04.67	13.51	21.79	-47.5	-48.0	16.0	0.00e+00	0	31	0	1325400064	61	3779
2026-01-03 06:02:08.66	12.60	22.08	-47.6	-48.2	15.9	0.00e+00	0	31	0	1347420160	61	3864
2026-01-03 06:02:12.64	11.67	22.37	-47.6	-48.2	15.9	0.00e+00	0	31	0	1369440256	61	3846
2026-01-03 06:02:16.66	10.72	22.65	-47.4	-48.0	16.0	0.00e+00	0	31	0	1392508928	61	3760
2026-01-03 06:02:20.65	9.76	22.92	-47.6	-48.2	15.9	0.00e+00	0	31	0	1414529024	61	3864
2026-01-03 06:02:24.66	8.78	23.19	-47.3	-47.9	16.0	0.00e+00	0	31	0	1437597696	61	3712
2026-01-03 06:02:28.66	7.79	23.45	-47.5	-48.1	16.0	0.00e+00	0	31	0	1459617792	61	3789
2026-01-03 06:02:32.66	6.77	23.71	-47.3	-47.9	16.0	0.00e+00	0	31	0	1482686464	61	3717
2026-01-03 06:02:36.66	5.74	23.95	-47.1	-47.7	16.0	0.00e+00	0	31	0	1504706560	60	3839
2026-01-03 06:02:40.67	4.70	24.19	-47.0	-47.6	16.1	0.00e+00	0	31	0	1527775232	60	3793
2026-01-03 06:02:44.67	3.63	24.42	-47.1	-47.7	16.0	0.00e+00	0	31	0	1549795328	60	3829
2026-01-03 06:02:48.67	2.56	24.65	-47.1	-47.7	16.0	0.00e+00	0	31	0	1572864000	60	3850
2026-01-03 06:02:52.67	1.46	24.86	-46.9	-47.4	16.1	0.00e+00	0	31	0	1594884096	60	3731
2026-01-03 06:02:56.65	0.36	25.06	-46.8	-47.4	16.1	0.00e+00	0	31	0	1616904192	60	3698
2026-01-03 06:03:00.66	359.24	25.25	-47.0	-47.5	16.1	0.00e+00	0	31	0	1639972864	60	3774
2026-01-03 06:03:04.65	358.11	25.43	-46.8	-47.4	16.2	0.00e+00	0	31	0	1661992960	60	3699
2026-01-03 06:03:08.62	356.97	25.60	-47.0	-47.6	16.1	0.00e+00	0	31	0	1685061632	60	3786
2026-01-03 06:03:12.61	355.81	25.76	-47.2	-47.8	16.0	0.00e+00	0	30	0	1707081728	60	3907
2026-01-03 06:03:16.59	354.64	25.91	-46.9	-47.4	16.1	0.00e+00	0	31	0	1729101824	60	3724
2026-01-03 06:03:20.59	353.46	26.04	-46.8	-47.4	16.2	0.00e+00	0	31	0	1752170496	60	3717
2026-01-03 06:03:24.58	352.27	26.16	-47.0	-47.5	16.1	0.00e+00	0	31	0	1774190592	60	3779
2026-01-03 06:03:28.57	351.08	26.27	-47.0	-47.6	16.1	0.00e+00	0	31	0	1797259264	60	3804
2026-01-03 06:03:32.58	349.87	26.36	-47.0	-47.5	16.1	0.00e+00	0	31	0	1819279360	60	3770
2026-01-03 06:03:36.58	348.65	26.44	-47.1	-47.7	16.0	0.00e+00	0	31	0	1842348032	60	3855
2026-01-03 06:03:40.56	347.44	26.51	-47.2	-47.7	16.0	0.00e+00	0	31	0	1864368128	60	3868
2026-01-03 06:03:44.56	346.21	26.56	-46.7	-47.3	16.2	0.00e+00	0	31	0	1887436800	60	3672
2026-01-03 06:03:48.56	344.99	26.60	-46.9	-47.5	16.0	0.00e+00	0	31	0	1909456896	59	3967
2026-01-03 06:03:52.56	343.76	26.62	-47.1	-47.6	16.0	0.00e+00	0	31	0	1932525568	59	4044
2026-01-03 06:03:56.57	342.52	26.63	-47.1	-47.7	16.0	0.00e+00	0	31	0	1954545664	60	3867
2026-01-03 06:04:00.57	341.29	26.62	-47.1	-47.6	16.1	0.00e+00	0	31	0	1977614336	60	3823
2026-01-03 06:04:04.57	340.06	26.60	-46.8	-47.3	16.2	0.00e+00	0	31	0	1999634432	60	3690
2026-01-03 06:04:08.57	338.83	26.57	-46.7	-47.3	16.2	0.00e+00	0	31	0	2021654528	60	3658
2026-01-03 06:04:12.55	337.61	26.52	-47.0	-47.5	16.1	0.00e+00	0	31	0	2044723200	60	3767
2026-01-03 06:04:16.55	336.39	26.45	-47.1	-47.7	16.0	0.00e+00	0	31	0	2066743296	60	3864
2026-01-03 06:04:20.53	335.18	26.38	-46.8	-47.4	16.2	0.00e+00	0	31	0	2089811968	60	3705
2026-01-03 06:04:24.52	333.97	26.29	-46.9	-47.5	16.0	0.00e+00	0	31	0	2111832064	59	3996
2026-01-03 06:04:28.52	332.77	26.18	-47.2	-47.8	16.0	0.00e+00	0	31	0	2133852160	59	4105
2026-01-03 06:04:32.53	331.58	26.06	-47.1	-47.7	16.0	0.00e+00	0	31	0	2156920832	60	3850
2026-01-03 06:04:36.52	330.40	25.93	-46.8	-47.4	16.2	0.00e+00	0	31	0	2178940928	60	3713
2026-01-03 06:04:40.54	329.22	25.78	-46.9	-47.5	16.0	0.00e+00	0	31	0	2202009600	59	3960
2026-01-03 06:04:44.55	328.05	25.63	-47.1	-47.7	16.0	0.00e+00	0	30	0	2224029696	59	4088
2026-01-03 06:04:48.54	326.90	25.46	-47.3	-47.9	15.9	0.00e+00	0	31	0	2247098368	59	4186
2026-01-03 06:04:52.56	325.76	25.28	-47.3	-47.9	15.9	0.00e+00	0	31	0	2269118464	59	4183
2026-01-03 06:04:56.56	324.64	25.09	-47.1	-47.7	16.1	0.00e+00	0	31	0	2292187136	60	3827
2026-01-03 06:05:00.57	323.52	24.88	-46.7	-47.2	16.2	0.00e+00	0	31	0	2314207232	60	3646
2026-01-03 06:05:04.56	322.43	24.67	-46.8	-47.4	16.2	0.00e+00	0	31	0	2337275904	60	3709
2026-01-03 06:05:08.57	321.35	24.45	-46.8	-47.3	16.2	0.00e+00	0	31	0	2359296000	60	3678
2026-01-03 06:05:12.57	320.28	24.22	-46.9	-47.5	16.2	0.00e+00	0	31	0	2382364672	60	3750
2026-01-03 06:05:16.57	319.23	23.98	-47.0	-47.6	16.1	0.00e+00	0	31	0	2404384768	60	3805
2026-01-03 06:05:20.56	318.20	23.74	-47.1	-47.6	16.1	0.00e+00	0	31	0	2427453440	60	3812
2026-01-03 06:05:24.54	317.19	23.49	-47.1	-47.7	16.1	0.00e+00	0	31	0	2449473536	60	3830
2026-01-03 06:05:28.55	316.19	23.22	-47.2	-47.8	16.1	0.00e+00	0	31	0	2471493632	60	3885
2026-01-03 06:05:32.55	315.20	22.96	-47.3	-47.9	16.0	0.00e+00	0	31	0	2494562304	60	3922
2026-01-03 06:05:36.56	314.24	22.68	-47.0	-47.6	16.1	0.00e+00	0	31	0	2517630976	60	3798
2026-01-03 06:05:40.56	313.29	22.40	-47.0	-47.5	16.1	0.00e+00	0	31	0	2539651072	60	3778
2026-01-03 06:05:44.54	312.36	22.12	-47.3	-47.9	16.0	0.00e+00	0	31	0	2561671168	60	3943
2026-01-03 06:05:48.53	311.45	21.83	-47.3	-47.9	16.0	0.00e+00	0	31	0	2584739840	60	3944
2026-01-03 06:05:52.54	310.55	21.54	-47.3	-47.9	16.0	0.00e+00	0	31	0	2606759936	60	3924
2026-01-03 06:05:56.56	309.66	21.24	-47.5	-48.1	15.9	0.00e+00	0	31	0	2629828608	60	4044
2026-01-03 06:06:00.56	308.80	20.94	-47.6	-48.2	15.9	0.00e+00	0	31	0	2651848704	60	4060
2026-01-03 06:06:04.56	307.96	20.63	-48.0	-48.6	15.9	0.00e+00	0	31	0	2674917376	61	4050
2026-01-03 06:06:08.55	307.13	20.32	-48.0	-48.6	15.9	0.00e+00	0	31	0	2696937472	61	4021
2026-01-03 06:06:12.52	306.32	20.02	-48.1	-48.7	15.8	0.00e+00	0	31	0	2718957568	61	4069
2026-01-03 06:06:16.50	305.53	19.71	-48.0	-48.6	15.9	0.00e+00	0	31	0	2742026240	61	4029
2026-01-03 06:06:20.50	304.75	19.39	-48.0	-48.6	15.9	0.00e+00	0	31	0	2764046336	61	4039
2026-01-03 06:06:24.50	303.99	19.08	-48.0	-48.7	15.9	0.00e+00	0	31	0	2786066432	61	4061
2026-01-03 06:06:28.49	303.24	18.76	-47.9	-48.5	15.9	0.00e+00	0	31	0	2809135104	61	3980
2026-01-03 06:06:32.49	302.51	18.45	-48.2	-48.9	15.8	0.00e+00	0	31	0	2831155200	61	4167
2026-01-03 06:06:36.50	301.79	18.13	-48.3	-49.0	15.9	0.00e+00	0	31	0	2854223872	62	3976
2026-01-03 06:06:40.50	301.09	17.81	-48.3	-48.9	15.9	0.00e+00	0	31	0	2876243968	62	3935
2026-01-03 06:06:44.52	300.39	17.49	-48.3	-48.9	15.9	0.00e+00	0	31	0	2899312640	62	3929
2026-01-03 06:06:48.53	299.72	17.17	-48.5	-49.1	15.8	0.00e+00	0	31	0	2921332736	62	4050
2026-01-03 06:06:52.53	299.06	16.85	-48.7	-49.3	15.7	0.00e+00	0	31	0	2944401408	62	4140
2026-01-03 06:06:56.54	298.42	16.53	-48.8	-49.5	15.8	0.00e+00	0	31	0	2966421504	63	3969
2026-01-03 06:07:00.55	297.78	16.21	-49.0	-49.6	15.7	0.00e+00	0	31	0	2989490176	63	4039
2026-01-03 06:07:04.54	297.17	15.90	-49.1	-49.7	15.7	0.00e+00	0	31	0	3011510272	63	4087
2026-01-03 06:07:08.55	296.56	15.58	-49.1	-49.7	15.7	0.00e+00	0	31	0	3034578944	63	4093
2026-01-03 06:07:12.55	295.97	15.26	-49.1	-49.8	15.7	0.00e+00	0	31	0	3056599040	63	4120
2026-01-03 06:07:16.54	295.39	14.95	-49.2	-49.9	15.6	0.00e+00	0	31	0	3079667712	63	4171
2026-01-03 06:07:20.53	294.83	14.64	-49.2	-49.9	15.6	0.00e+00	0	31	0	3101687808	63	4161
2026-01-03 06:07:24.53	294.28	14.33	-49.4	-50.1	15.6	0.00e+00	0	31	0	3124756480	64	4045
2026-01-03 06:07:28.54	293.73	14.02	-49.4	-50.1	15.6	0.00e+00	0	31	0	3146776576	64	4031
2026-01-03 06:07:32.55	293.20	13.71	-49.5	-50.2	15.6	0.00e+00	0	31	0	3168796672	64	4066
2026-01-03 06:07:36.54	292.68	13.40	-49.6	-50.3	15.5	0.00e+00	0	31	0	3191865344	64	4145
2026-01-03 06:07:40.56	292.17	13.09	-50.0	-50.7	15.5	0.00e+00	0	31	0	3214934016	65	4092
2026-01-03 06:07:44.56	291.67	12.79	-50.0	-50.8	15.5	0.00e+00	0	31	0	3236954112	65	4123
2026-01-03 06:07:48.56	291.18	12.48	-50.0	-50.8	15.5	0.00e+00	0	31	0	3258974208	65	4107
2026-01-03 06:07:52.56	290.70	12.18	-49.9	-50.7	15.5	0.00e+00	0	31	0	3282042880	65	4058
2026-01-03 06:07:56.57	290.24	11.88	-50.0	-50.7	15.5	0.00e+00	0	31	0	3305111552	65	4084
2026-01-03 06:08:00.57	289.78	11.58	-49.9	-50.7	15.5	0.00e+00	0	31	0	3327131648	65	4077
2026-01-03 06:08:04.58	289.33	11.29	-50.3	-51.1	15.3	0.00e+00	0	31	0	3349151744	65	4256
2026-01-03 06:08:08.59	288.89	10.99	-50.4	-51.2	15.4	0.00e+00	0	31	0	3372220416	66	4057
2026-01-03 06:08:12.59	288.46	10.70	-50.4	-51.2	15.3	0.00e+00	0	31	0	3394240512	66	4056
2026-01-03 06:08:16.58	288.04	10.41	-50.4	-51.3	15.3	0.00e+00	0	31	0	3417309184	66	4104
2026-01-03 06:08:20.59	287.62	10.12	-50.6	-51.4	15.3	0.00e+00	0	31	0	3439329280	66	4163
2026-01-03 06:08:24.59	287.22	9.83	-50.5	-51.4	15.3	0.00e+00	0	31	0	3462397952	66	4146
2026-01-03 06:08:28.60	286.82	9.55	-50.7	-51.5	15.2	0.00e+00	0	31	0	3484418048	66	4227
2026-01-03 06:08:32.63	286.43	9.26	-50.9	-51.8	15.1	0.00e+00	0	31	0	3507486720	66	4356
2026-01-03 06:08:36.65	286.04	8.98	-51.0	-51.9	15.1	0.00e+00	0	31	0	3529506816	67	4157
2026-01-03 06:08:40.66	285.67	8.70	-51.0	-51.9	15.0	0.00e+00	0	31	0	3552575488	67	4185
2026-01-03 06:08:44.67	285.30	8.42	-50.9	-51.8	15.1	0.00e+00	0	31	0	3575644160	67	4109
2026-01-03 06:08:48.69	284.94	8.15	-51.0	-51.8	15.1	0.00e+00	0	31	0	3597664256	67	4134
2026-01-03 06:08:52.70	284.58	7.87	-50.9	-51.8	15.1	0.00e+00	0	31	0	3619684352	67	4134
2026-01-03 06:08:56.71	284.24	7.60	-51.0	-51.9	15.0	0.00e+00	0	31	0	3642753024	67	4188
2026-01-03 06:09:00.73	283.90	7.33	-51.1	-52.0	15.0	0.00e+00	0	31	0	3665821696	67	4219
2026-01-03 06:09:04.74	283.56	7.06	-51.1	-52.0	15.0	0.00e+00	0	31	0	3687841792	67	4210
2026-01-03 06:09:08.74	283.24	6.80	-51.2	-52.1	14.9	0.00e+00	0	31	0	3710910464	67	4278
2026-01-03 06:09:12.75	282.92	6.53	-51.3	-52.3	14.8	0.00e+00	0	31	0	3732930560	67	4354
2026-01-03 06:09:16.74	282.60	6.27	-51.4	-52.4	14.9	0.00e+00	0	31	0	3754950656	68	4164
2026-01-03 06:09:20.75	282.29	6.01	-51.6	-52.6	14.8	0.00e+00	0	31	0	3778019328	68	4246
2026-01-03 06:09:24.74	281.99	5.75	-51.6	-52.6	14.8	0.00e+00	0	31	0	3800039424	68	4263
2026-01-03 06:09:28.74	281.69	5.50	-51.5	-52.5	14.8	0.00e+00	0	31	0	3823108096	68	4203
2026-01-03 06:09:32.74	281.40	5.24	-51.9	-53.0	14.6	0.00e+00	0	31	0	3845128192	68	4447
2026-01-03 06:09:36.74	281.12	4.99	-60.2	-70.7	3.9	5.10e-01	0	31	0	3867148288	85	12957
2026-01-03 06:09:40.74	280.83	4.74	-61.2	-73.9	3.9	8.45e-01	0	31	104	3867148288	87	16549
2026-01-03 06:09:44.76	280.56	4.49	-61.6	-74.2	3.8	8.46e-01	0	31	104	3867148288	88	16152
2026-01-03 06:09:48.75	280.29	4.24	-61.8	-74.4	3.8	8.46e-01	0	31	104	3867148288	88	16677
2026-01-03 06:09:52.77	280.02	3.99	-62.0	-74.7	3.8	8.45e-01	0	31	104	3867148288	89	16186
2026-01-03 06:09:56.77	279.75	3.75	-62.0	-74.6	3.8	8.46e-01	0	31	104	3867148288	89	16096
2026-01-03 06:10:00.78	279.50	3.50	-62.0	-74.6	3.8	8.46e-01	0	31	104	3867148288	89	16045
2026-01-03 06:10:04.79	279.24	3.26	-61.9	-74.6	3.8	8.44e-01	0	31	104	3867148288	89	15975
2026-01-03 06:10:08.79	278.99	3.02	-61.9	-74.5	3.8	8.46e-01	0	31	104	3867148288	89	15817
2026-01-03 06:10:12.80	278.75	2.78	-61.8	-74.5	3.8	8.45e-01	0	31	104	3867148288	89	15832
2026-01-03 06:10:16.82	278.51	2.54	-61.8	-74.4	3.8	8.46e-01	0	31	104	3867148288	89	15759
2026-01-03 06:10:20.83	278.27	2.31	-61.8	-74.4	3.8	8.47e-01	0	31	104	3867148288	89	15739
2026-01-03 06:10:24.82	278.04	2.07	-61.8	-74.4	3.8	8.46e-01	0	31	104	3867148288	89	15729

#Closed at: 2026-01-03 06:10:28
#Recorded file [3867 MB]: D:/lorett/data/31004_260103_085728.dat