passes_logs/2026/01/03/R3.2S_Murmansk/R3.2S_Murmansk__20260103_212653_NOAA_21_JPSS-2_rec.log

#Pass ID: 20260103_212653_NOAA 21 (JPSS-2)
#Satellite: NOAA 21 (JPSS-2)
#Configuration: NOAA-21
#almurnet v.1.7.20251203
#Start time: 2026-01-03 21:26:54

#Version: 2.2.20231116
#Station: R3.2S_Murmansk
#Location: 33.079688 lon 68.888172 lat
#TLE: 1 54234U 22150A   26003.45311712  .00000198  00000+0  11468-3 0  9993
#TLE: 2 54234  98.7487 304.4932 0001159 347.5017  12.6130 14.19531745163172

#Time	Az	El	Level	Level2	SNR	BER	BlckErr	Temp	State	Recorded	gain1	gain2
2026-01-03 21:26:54.55	18.37	2.04	-58.8	-72.5	3.8	1.49e+00	0	27	0	0	84	16873
2026-01-03 21:26:57.56	18.66	2.18	-58.6	-72.4	3.8	1.49e+00	0	27	104	0	82	18560
2026-01-03 21:27:00.57	18.94	2.32	-58.6	-72.4	3.8	1.49e+00	0	27	104	0	82	18531
2026-01-03 21:27:03.57	19.23	2.46	-58.6	-72.3	3.8	1.49e+00	0	28	104	0	82	18467
2026-01-03 21:27:06.58	19.52	2.60	-58.6	-72.3	3.9	1.49e+00	0	27	104	0	82	18496
2026-01-03 21:27:09.59	19.81	2.74	-58.6	-72.4	3.8	1.49e+00	0	28	104	0	82	18653
2026-01-03 21:27:12.58	20.11	2.88	-58.6	-72.4	3.8	1.49e+00	0	28	104	0	82	18679
2026-01-03 21:27:15.57	20.40	3.02	-58.6	-72.3	3.8	1.49e+00	0	28	104	0	82	18438
2026-01-03 21:27:18.58	20.71	3.16	-58.6	-72.3	3.8	1.49e+00	0	28	104	0	82	18392
2026-01-03 21:27:21.59	21.01	3.30	-58.6	-72.4	3.8	1.49e+00	0	28	104	0	82	18626
2026-01-03 21:27:24.58	21.32	3.44	-58.6	-72.2	3.8	1.49e+00	0	28	104	0	82	18303
2026-01-03 21:27:27.57	21.62	3.58	-58.6	-72.4	3.8	1.49e+00	0	28	104	0	82	18675
2026-01-03 21:27:30.58	21.94	3.72	-58.6	-72.1	3.8	1.49e+00	0	28	104	0	82	17998
2026-01-03 21:27:33.58	22.25	3.86	-58.6	-71.7	3.8	1.49e+00	0	28	104	0	82	17134
2026-01-03 21:27:36.59	22.57	4.00	-58.5	-71.5	3.8	1.49e+00	0	28	104	0	82	16796
2026-01-03 21:27:39.59	22.89	4.14	-58.4	-69.3	4.1	1.48e+00	0	28	104	0	82	12961
2026-01-03 21:27:42.59	23.21	4.28	-58.2	-67.2	4.8	1.45e+00	0	28	104	0	82	10221
2026-01-03 21:27:45.60	23.54	4.42	-56.9	-62.0	8.4	4.55e-02	0	28	0	6291456	80	6327
2026-01-03 21:27:48.58	23.87	4.56	-53.9	-56.4	12.6	7.00e-07	0	28	0	15728640	74	4656
2026-01-03 21:27:51.59	24.20	4.70	-52.5	-54.4	13.5	0.00e+00	0	28	0	25165824	71	4441
2026-01-03 21:27:54.58	24.53	4.84	-53.7	-56.0	12.6	0.00e+00	0	28	0	34603008	72	5034
2026-01-03 21:27:57.59	24.87	4.98	-56.5	-60.9	9.3	3.99e-03	0	28	0	44040192	78	6253
2026-01-03 21:28:00.58	25.21	5.12	-56.7	-61.4	9.0	7.23e-02	0	28	0	53477376	80	5891
2026-01-03 21:28:03.57	25.56	5.26	-56.3	-60.4	9.7	4.68e-01	0	29	0	62914560	79	5567
2026-01-03 21:28:06.57	25.90	5.40	-52.6	-54.5	13.6	0.00e+00	0	29	0	72351744	71	4479
2026-01-03 21:28:09.57	26.25	5.54	-52.4	-54.3	13.7	0.00e+00	0	29	0	81788928	71	4355
2026-01-03 21:28:12.56	26.61	5.68	-52.2	-54.0	13.9	0.00e+00	0	29	0	91226112	71	4211
2026-01-03 21:28:15.54	26.96	5.82	-52.2	-53.9	13.8	0.00e+00	0	29	0	99614720	70	4438
2026-01-03 21:28:18.54	27.32	5.96	-52.0	-53.7	14.0	0.00e+00	0	29	0	109051904	70	4298
2026-01-03 21:28:21.53	27.69	6.10	-52.1	-53.8	13.9	0.00e+00	0	29	0	118489088	70	4358
2026-01-03 21:28:24.52	28.05	6.24	-52.2	-54.0	13.8	0.00e+00	0	29	0	127926272	70	4468
2026-01-03 21:28:27.51	28.42	6.37	-52.3	-54.1	13.8	0.00e+00	0	29	0	137363456	70	4503
2026-01-03 21:28:30.51	28.79	6.51	-52.0	-53.7	14.0	0.00e+00	0	29	0	146800640	70	4330
2026-01-03 21:28:33.53	29.17	6.65	-51.8	-53.5	14.1	0.00e+00	0	29	0	156237824	70	4214
2026-01-03 21:28:36.52	29.55	6.79	-51.5	-53.1	14.2	0.00e+00	0	29	0	165675008	69	4252
2026-01-03 21:28:39.52	29.94	6.93	-51.6	-53.2	14.2	0.00e+00	0	29	0	175112192	69	4323
2026-01-03 21:28:42.52	30.33	7.07	-51.6	-53.3	14.2	0.00e+00	0	29	0	184549376	69	4350
2026-01-03 21:28:45.51	30.72	7.20	-51.7	-53.4	14.1	0.00e+00	0	29	0	193986560	69	4407
2026-01-03 21:28:48.51	31.11	7.34	-51.7	-53.3	14.2	0.00e+00	0	29	0	203423744	69	4359
2026-01-03 21:28:51.50	31.51	7.47	-51.4	-53.0	14.3	0.00e+00	0	29	0	212860928	69	4206
2026-01-03 21:28:54.50	31.91	7.61	-51.4	-53.0	14.3	0.00e+00	0	29	0	222298112	69	4200
2026-01-03 21:28:57.50	32.31	7.74	-51.3	-52.8	14.4	0.00e+00	0	29	0	230686720	69	4134
2026-01-03 21:29:00.49	32.72	7.88	-51.5	-53.1	14.3	0.00e+00	0	29	0	240123904	69	4254
2026-01-03 21:29:03.49	33.14	8.01	-51.5	-53.0	14.3	0.00e+00	0	29	0	249561088	69	4242
2026-01-03 21:29:06.48	33.55	8.15	-51.3	-52.8	14.4	0.00e+00	0	29	0	258998272	69	4125
2026-01-03 21:29:09.47	33.97	8.28	-51.2	-52.7	14.3	0.00e+00	0	29	0	268435456	68	4332
2026-01-03 21:29:12.47	34.39	8.41	-51.1	-52.6	14.4	0.00e+00	0	29	0	277872640	68	4244
2026-01-03 21:29:15.46	34.82	8.54	-51.2	-52.6	14.4	0.00e+00	0	29	0	287309824	68	4285
2026-01-03 21:29:18.44	35.25	8.67	-51.2	-52.7	14.4	0.00e+00	0	29	0	296747008	68	4321
2026-01-03 21:29:21.44	35.68	8.80	-51.2	-52.7	14.4	0.00e+00	0	29	0	306184192	68	4302
2026-01-03 21:29:24.44	36.12	8.93	-51.1	-52.6	14.4	0.00e+00	0	29	0	315621376	68	4281
2026-01-03 21:29:27.43	36.56	9.06	-51.0	-52.5	14.5	0.00e+00	0	29	0	325058560	68	4211
2026-01-03 21:29:30.42	37.01	9.19	-51.0	-52.5	14.5	0.00e+00	0	29	0	334495744	68	4200
2026-01-03 21:29:33.42	37.46	9.32	-51.2	-52.6	14.4	0.00e+00	0	29	0	343932928	68	4284
2026-01-03 21:29:36.42	37.91	9.44	-51.2	-52.6	14.4	0.00e+00	0	29	0	353370112	68	4287
2026-01-03 21:29:39.43	38.37	9.57	-50.9	-52.4	14.5	0.00e+00	0	29	0	361758720	68	4159
2026-01-03 21:29:42.43	38.83	9.69	-50.9	-52.3	14.6	0.00e+00	0	29	0	371195904	68	4130
2026-01-03 21:29:45.43	39.30	9.82	-50.9	-52.3	14.6	0.00e+00	0	29	0	380633088	68	4145
2026-01-03 21:29:48.44	39.77	9.94	-51.0	-52.5	14.5	0.00e+00	0	29	0	390070272	68	4200
2026-01-03 21:29:51.30	40.22	10.06	-50.8	-52.2	14.6	0.00e+00	0	29	0	399507456	68	4094
2026-01-03 21:29:54.44	40.72	10.18	-50.5	-51.9	14.7	0.00e+00	0	29	0	409993216	67	4165
2026-01-03 21:29:57.31	41.18	10.30	-50.6	-51.9	14.6	0.00e+00	0	29	0	418381824	67	4191
2026-01-03 21:30:00.45	41.68	10.42	-50.7	-52.1	14.5	0.00e+00	0	29	0	428867584	67	4286
2026-01-03 21:30:03.32	42.15	10.53	-50.7	-52.2	14.5	0.00e+00	0	29	0	437256192	67	4305
2026-01-03 21:30:06.47	42.67	10.65	-50.8	-52.2	14.5	0.00e+00	0	29	0	446693376	67	4334
2026-01-03 21:30:09.32	43.14	10.76	-50.8	-52.3	14.5	0.00e+00	0	29	0	456130560	67	4348
2026-01-03 21:30:12.46	43.66	10.88	-50.7	-52.1	14.6	0.00e+00	0	29	0	465567744	67	4265
2026-01-03 21:30:15.32	44.14	10.99	-50.8	-52.2	14.5	0.00e+00	0	29	0	475004928	67	4336
2026-01-03 21:30:18.45	44.67	11.10	-50.8	-52.3	14.5	0.00e+00	0	29	0	484442112	67	4343
2026-01-03 21:30:21.29	45.15	11.20	-50.7	-52.2	14.5	0.00e+00	0	29	0	493879296	67	4304
2026-01-03 21:30:24.43	45.69	11.32	-50.6	-52.0	14.6	0.00e+00	0	29	0	503316480	67	4228
2026-01-03 21:30:27.28	46.18	11.42	-50.5	-51.8	14.7	0.00e+00	0	29	0	512753664	67	4145
2026-01-03 21:30:30.41	46.72	11.52	-50.6	-52.0	14.6	0.00e+00	0	29	0	522190848	67	4216
2026-01-03 21:30:33.28	47.23	11.62	-50.8	-52.2	14.5	0.00e+00	0	29	0	530579456	67	4340
2026-01-03 21:30:36.42	47.78	11.73	-50.8	-52.2	14.5	0.00e+00	0	29	0	541065216	67	4320
2026-01-03 21:30:39.28	48.29	11.82	-50.6	-52.0	14.6	0.00e+00	0	29	0	549453824	67	4220
2026-01-03 21:30:42.43	48.85	11.92	-50.5	-51.9	14.7	0.00e+00	0	29	0	559939584	67	4160
2026-01-03 21:30:45.28	49.36	12.01	-50.7	-52.1	14.6	0.00e+00	0	29	0	568328192	67	4258
2026-01-03 21:30:48.42	49.93	12.11	-50.7	-52.1	14.6	0.00e+00	0	29	0	577765376	67	4265
2026-01-03 21:30:51.28	50.45	12.20	-50.6	-52.0	14.6	0.00e+00	0	29	0	587202560	67	4233
2026-01-03 21:30:54.41	51.02	12.29	-50.6	-52.0	14.6	0.00e+00	0	29	0	596639744	67	4206
2026-01-03 21:30:57.26	51.54	12.37	-50.5	-51.9	14.7	0.00e+00	0	29	0	606076928	67	4169
2026-01-03 21:31:00.41	52.13	12.46	-50.4	-51.7	14.8	0.00e+00	0	29	0	615514112	67	4085
2026-01-03 21:31:03.26	52.66	12.54	-50.4	-51.7	14.7	0.00e+00	0	29	0	624951296	67	4095
2026-01-03 21:31:06.39	53.24	12.62	-50.5	-51.8	14.7	0.00e+00	0	29	0	634388480	67	4144
2026-01-03 21:31:09.24	53.78	12.70	-50.7	-52.1	14.6	0.00e+00	0	29	0	643825664	67	4278
2026-01-03 21:31:12.39	54.37	12.78	-50.7	-52.1	14.6	0.00e+00	0	29	0	653262848	67	4252
2026-01-03 21:31:15.25	54.92	12.85	-50.3	-51.7	14.8	0.00e+00	0	29	0	661651456	67	4058
2026-01-03 21:31:18.40	55.52	12.92	-50.2	-51.6	14.7	0.00e+00	0	29	0	672137216	66	4257
2026-01-03 21:31:21.24	56.06	12.99	-50.3	-51.6	14.7	0.00e+00	0	29	0	680525824	66	4291
2026-01-03 21:31:24.37	56.66	13.06	-50.4	-51.8	14.6	0.00e+00	0	29	0	691011584	66	4369
2026-01-03 21:31:27.23	57.22	13.12	-50.3	-51.6	14.7	0.00e+00	0	29	0	699400192	66	4279
2026-01-03 21:31:30.37	57.83	13.18	-50.4	-51.7	14.7	0.00e+00	0	29	0	708837376	66	4333
2026-01-03 21:31:33.22	58.38	13.24	-50.5	-51.9	14.6	0.00e+00	0	29	0	718274560	66	4417
2026-01-03 21:31:36.37	59.00	13.30	-50.3	-51.7	14.7	0.00e+00	0	29	0	727711744	66	4295
2026-01-03 21:31:39.24	59.56	13.35	-50.0	-51.3	14.8	0.00e+00	0	29	0	737148928	66	4116
2026-01-03 21:31:42.38	60.18	13.40	-50.2	-51.5	14.8	0.00e+00	0	29	0	746586112	66	4218
2026-01-03 21:31:45.23	60.75	13.45	-50.2	-51.5	14.8	0.00e+00	0	29	0	756023296	66	4218
2026-01-03 21:31:48.38	61.37	13.50	-50.2	-51.6	14.7	0.00e+00	0	29	0	765460480	66	4250
2026-01-03 21:31:51.24	61.94	13.54	-50.3	-51.6	14.7	0.00e+00	0	29	0	774897664	66	4277
2026-01-03 21:31:54.39	62.57	13.58	-50.4	-51.7	14.7	0.00e+00	0	29	0	784334848	66	4323
2026-01-03 21:31:57.24	63.14	13.62	-50.3	-51.7	14.7	0.00e+00	0	29	0	793772032	66	4302
2026-01-03 21:32:00.37	63.77	13.65	-50.5	-51.9	14.6	0.00e+00	0	29	0	803209216	66	4393
2026-01-03 21:32:03.22	64.34	13.68	-50.5	-51.8	14.6	0.00e+00	0	29	0	811597824	66	4387
2026-01-03 21:32:06.38	64.98	13.71	-50.4	-51.7	14.7	0.00e+00	0	29	0	822083584	66	4319
2026-01-03 21:32:09.24	65.55	13.74	-50.1	-51.5	14.8	0.00e+00	0	29	0	830472192	66	4207
2026-01-03 21:32:12.38	66.19	13.76	-50.3	-51.6	14.7	0.00e+00	0	29	0	840957952	66	4262
2026-01-03 21:32:15.24	66.77	13.78	-50.2	-51.5	14.7	0.00e+00	0	29	0	849346560	66	4240
2026-01-03 21:32:18.38	67.40	13.80	-50.3	-51.6	14.7	0.00e+00	0	29	0	859832320	66	4268
2026-01-03 21:32:21.23	67.98	13.81	-50.2	-51.5	14.8	0.00e+00	0	29	0	868220928	66	4230
2026-01-03 21:32:24.36	68.62	13.83	-50.3	-51.6	14.7	0.00e+00	0	29	0	877658112	66	4281
2026-01-03 21:32:27.22	69.20	13.83	-50.2	-51.6	14.7	0.00e+00	0	29	0	887095296	66	4262
2026-01-03 21:32:30.35	69.83	13.84	-50.2	-51.6	14.7	0.00e+00	0	29	0	896532480	66	4255
2026-01-03 21:32:33.23	70.42	13.84	-50.3	-51.7	14.7	0.00e+00	0	29	0	905969664	66	4294
2026-01-03 21:32:36.38	71.06	13.84	-50.1	-51.5	14.8	0.00e+00	0	29	0	915406848	66	4204
2026-01-03 21:32:39.25	71.64	13.84	-50.0	-51.3	14.9	0.00e+00	0	29	0	924844032	66	4106
2026-01-03 21:32:42.40	72.29	13.83	-50.1	-51.4	14.8	0.00e+00	0	29	0	934281216	66	4150
2026-01-03 21:32:45.25	72.86	13.82	-50.1	-51.4	14.8	0.00e+00	0	29	0	943718400	66	4188
2026-01-03 21:32:48.39	73.50	13.81	-50.2	-51.5	14.8	0.00e+00	0	29	0	953155584	66	4234
2026-01-03 21:32:51.24	74.08	13.80	-50.3	-51.6	14.7	0.00e+00	0	29	0	962592768	66	4289
2026-01-03 21:32:54.37	74.72	13.78	-50.5	-51.9	14.6	0.00e+00	0	29	0	972029952	66	4395
2026-01-03 21:32:57.22	75.29	13.76	-50.3	-51.6	14.7	0.00e+00	0	29	0	980418560	66	4275
2026-01-03 21:33:00.35	75.93	13.73	-50.3	-51.7	14.7	0.00e+00	0	29	0	990904320	66	4312
2026-01-03 21:33:03.20	76.50	13.71	-50.4	-51.8	14.6	0.00e+00	0	29	0	999292928	66	4368
2026-01-03 21:33:06.34	77.13	13.67	-50.4	-51.8	14.7	0.00e+00	0	29	0	1009778688	66	4357
2026-01-03 21:33:09.20	77.71	13.64	-50.1	-51.5	14.8	0.00e+00	0	29	0	1018167296	66	4201
2026-01-03 21:33:12.35	78.34	13.61	-50.2	-51.6	14.7	0.00e+00	0	29	0	1027604480	66	4255
2026-01-03 21:33:15.19	78.91	13.57	-50.2	-51.5	14.8	0.00e+00	0	29	0	1037041664	66	4222
2026-01-03 21:33:18.33	79.54	13.53	-50.1	-51.5	14.8	0.00e+00	0	29	0	1046478848	66	4204
2026-01-03 21:33:21.18	80.10	13.48	-50.3	-51.7	14.7	0.00e+00	0	29	0	1055916032	66	4292
2026-01-03 21:33:24.32	80.73	13.43	-50.2	-51.6	14.7	0.00e+00	0	29	0	1065353216	66	4269
2026-01-03 21:33:27.17	81.29	13.39	-50.2	-51.5	14.7	0.00e+00	0	29	0	1074790400	66	4241
2026-01-03 21:33:30.31	81.91	13.33	-50.2	-51.5	14.8	0.00e+00	0	29	0	1084227584	66	4217
2026-01-03 21:33:33.16	82.47	13.28	-50.2	-51.6	14.7	0.00e+00	0	29	0	1092616192	66	4266
2026-01-03 21:33:36.29	83.08	13.22	-50.2	-51.5	14.8	0.00e+00	0	29	0	1103101952	66	4212
2026-01-03 21:33:39.15	83.64	13.16	-50.3	-51.7	14.7	0.00e+00	0	29	0	1111490560	66	4301
2026-01-03 21:33:42.30	84.25	13.10	-50.3	-51.7	14.7	0.00e+00	0	29	0	1121976320	66	4295
2026-01-03 21:33:45.15	84.80	13.04	-50.2	-51.6	14.7	0.00e+00	0	29	0	1130364928	66	4249
2026-01-03 21:33:48.29	85.41	12.97	-50.1	-51.5	14.8	0.00e+00	0	29	0	1140850688	66	4212
2026-01-03 21:33:51.14	85.96	12.90	-50.2	-51.6	14.7	0.00e+00	0	29	0	1149239296	66	4248
2026-01-03 21:33:54.28	86.56	12.82	-50.4	-51.7	14.7	0.00e+00	0	29	0	1158676480	66	4332
2026-01-03 21:33:57.14	87.10	12.75	-50.5	-51.9	14.6	0.00e+00	0	29	0	1168113664	66	4426
2026-01-03 21:34:00.28	87.69	12.67	-50.4	-51.8	14.7	0.00e+00	0	29	0	1177550848	66	4348
2026-01-03 21:34:03.13	88.23	12.60	-50.4	-51.8	14.7	0.00e+00	0	29	0	1186988032	66	4343
2026-01-03 21:34:06.28	88.82	12.51	-50.5	-51.9	14.6	0.00e+00	0	29	0	1196425216	66	4395
2026-01-03 21:34:09.13	89.35	12.43	-50.3	-51.7	14.7	0.00e+00	0	29	0	1205862400	66	4314
2026-01-03 21:34:12.27	89.93	12.34	-50.3	-51.7	14.7	0.00e+00	0	29	0	1215299584	66	4320
2026-01-03 21:34:15.13	90.46	12.26	-50.3	-51.7	14.7	0.00e+00	0	29	0	1224736768	66	4321
2026-01-03 21:34:18.29	91.04	12.16	-50.3	-51.7	14.7	0.00e+00	0	29	0	1234173952	66	4309
2026-01-03 21:34:21.15	91.56	12.07	-50.5	-51.9	14.6	0.00e+00	0	29	0	1242562560	66	4403
2026-01-03 21:34:24.28	92.12	11.98	-50.2	-51.5	14.7	0.00e+00	0	29	0	1253048320	66	4233
2026-01-03 21:34:27.13	92.63	11.88	-50.3	-51.7	14.7	0.00e+00	0	29	0	1261436928	66	4295
2026-01-03 21:34:30.25	93.19	11.78	-50.1	-51.4	14.8	0.00e+00	0	29	0	1271922688	66	4174
2026-01-03 21:34:33.09	93.69	11.69	-50.2	-51.5	14.7	0.00e+00	0	29	0	1280311296	66	4225
2026-01-03 21:34:36.24	94.25	11.58	-50.3	-51.7	14.7	0.00e+00	0	29	0	1289748480	66	4318
2026-01-03 21:34:39.09	94.75	11.48	-50.4	-51.8	14.6	0.00e+00	0	29	0	1299185664	66	4380
2026-01-03 21:34:42.23	95.30	11.37	-50.5	-51.9	14.6	0.00e+00	0	29	0	1308622848	66	4422
2026-01-03 21:34:45.09	95.79	11.27	-50.3	-51.7	14.6	0.00e+00	0	29	0	1318060032	66	4313
2026-01-03 21:34:48.22	96.33	11.16	-50.5	-51.9	14.6	0.00e+00	0	29	0	1327497216	66	4395
2026-01-03 21:34:51.07	96.81	11.06	-50.6	-52.1	14.5	0.00e+00	0	29	0	1336934400	66	4498
2026-01-03 21:34:54.21	97.34	10.94	-50.6	-52.0	14.5	0.00e+00	0	29	0	1346371584	66	4459
2026-01-03 21:34:57.07	97.82	10.83	-50.7	-52.2	14.5	0.00e+00	0	29	0	1354760192	66	4549
2026-01-03 21:35:00.20	98.34	10.71	-50.8	-52.2	14.4	0.00e+00	0	29	0	1365245952	66	4596
2026-01-03 21:35:03.06	98.82	10.60	-50.6	-52.0	14.5	0.00e+00	0	29	0	1373634560	66	4464
2026-01-03 21:35:06.21	99.33	10.48	-50.8	-52.2	14.4	0.00e+00	0	29	0	1384120320	66	4587
2026-01-03 21:35:09.06	99.80	10.37	-50.9	-52.4	14.4	0.00e+00	0	29	0	1392508928	66	4663
2026-01-03 21:35:12.20	100.30	10.24	-51.0	-52.5	14.4	0.00e+00	0	29	0	1402994688	67	4443
2026-01-03 21:35:15.05	100.76	10.13	-51.0	-52.6	14.3	0.00e+00	0	29	0	1411383296	67	4495
2026-01-03 21:35:18.20	101.26	10.00	-51.0	-52.6	14.3	0.00e+00	0	29	0	1420820480	67	4501
2026-01-03 21:35:21.05	101.71	9.89	-50.9	-52.4	14.4	0.00e+00	0	29	0	1430257664	67	4432
2026-01-03 21:35:24.20	102.20	9.76	-51.0	-52.5	14.4	0.00e+00	0	29	0	1439694848	67	4482
2026-01-03 21:35:27.04	102.64	9.64	-51.2	-52.7	14.3	0.00e+00	0	29	0	1449132032	67	4564
2026-01-03 21:35:30.18	103.13	9.51	-51.2	-52.7	14.3	0.00e+00	0	29	0	1458569216	67	4587
2026-01-03 21:35:33.02	103.56	9.39	-51.3	-52.8	14.2	0.00e+00	0	29	0	1468006400	67	4637
2026-01-03 21:35:36.16	104.04	9.25	-51.3	-52.9	14.2	0.00e+00	0	29	0	1477443584	67	4683
2026-01-03 21:35:39.01	104.46	9.13	-51.3	-52.8	14.2	0.00e+00	0	29	0	1485832192	67	4643
2026-01-03 21:35:42.15	104.93	8.99	-51.2	-52.7	14.3	0.00e+00	0	29	0	1496317952	67	4593
2026-01-03 21:35:45.01	105.35	8.87	-51.3	-52.9	14.2	0.00e+00	0	29	0	1504706560	67	4657
2026-01-03 21:35:48.15	105.81	8.73	-51.4	-52.9	14.2	0.00e+00	0	29	0	1515192320	67	4695
2026-01-03 21:35:51.02	106.23	8.61	-51.6	-53.1	14.2	0.00e+00	0	29	0	1523580928	68	4542
2026-01-03 21:35:54.15	106.68	8.47	-51.8	-53.4	14.1	0.00e+00	0	29	0	1534066688	68	4681
2026-01-03 21:35:57.00	107.08	8.34	-51.8	-53.4	14.1	0.00e+00	0	29	0	1542455296	68	4677
2026-01-03 21:36:00.16	107.53	8.20	-51.8	-53.4	14.1	0.00e+00	0	29	0	1551892480	68	4684
2026-01-03 21:36:03.01	107.93	8.07	-51.8	-53.4	14.2	0.00e+00	0	29	0	1561329664	69	4422
2026-01-03 21:36:06.15	108.37	7.93	-52.0	-53.6	14.1	0.00e+00	0	29	0	1570766848	69	4527
2026-01-03 21:36:09.00	108.76	7.80	-51.9	-53.5	14.1	0.00e+00	0	29	0	1580204032	69	4476
2026-01-03 21:36:12.14	109.19	7.66	-51.9	-53.5	14.1	0.00e+00	0	29	0	1589641216	69	4477
2026-01-03 21:36:14.99	109.57	7.53	-51.9	-53.6	14.0	0.00e+00	0	29	0	1599078400	69	4518
2026-01-03 21:36:18.13	109.99	7.39	-52.1	-53.8	14.0	0.00e+00	0	29	0	1608515584	69	4604
2026-01-03 21:36:20.98	110.37	7.26	-51.8	-53.5	14.1	0.00e+00	0	29	0	1617952768	69	4455
2026-01-03 21:36:24.11	110.78	7.11	-51.9	-53.6	14.0	0.00e+00	0	29	0	1627389952	69	4508
2026-01-03 21:36:26.96	111.15	6.98	-51.9	-53.6	14.0	0.00e+00	0	29	0	1635778560	69	4513
2026-01-03 21:36:30.08	111.56	6.84	-51.8	-53.5	14.1	0.00e+00	0	29	0	1646264320	69	4463
2026-01-03 21:36:32.94	111.92	6.71	-51.9	-53.5	14.0	0.00e+00	0	29	0	1654652928	69	4477
2026-01-03 21:36:36.08	112.32	6.56	-51.8	-53.5	14.0	0.00e+00	0	29	0	1665138688	69	4465
2026-01-03 21:36:38.94	112.68	6.43	-52.0	-53.7	13.9	0.00e+00	0	29	0	1673527296	69	4556
2026-01-03 21:36:42.07	113.07	6.28	-52.1	-53.8	13.8	0.00e+00	0	29	0	1682964480	69	4631
2026-01-03 21:36:44.92	113.42	6.15	-52.1	-53.9	13.8	0.00e+00	0	29	0	1692401664	69	4687
2026-01-03 21:36:48.06	113.80	6.00	-52.2	-54.0	13.7	0.00e+00	0	29	0	1701838848	69	4736
2026-01-03 21:36:50.92	114.15	5.87	-52.3	-54.1	13.6	0.00e+00	0	29	0	1711276032	69	4786
2026-01-03 21:36:54.05	114.53	5.72	-52.3	-54.2	13.6	0.00e+00	0	29	0	1720713216	69	4821
2026-01-03 21:36:56.91	114.87	5.59	-52.2	-54.1	13.6	0.00e+00	0	29	0	1730150400	69	4797
2026-01-03 21:37:00.06	115.24	5.44	-52.5	-54.4	13.5	0.00e+00	0	29	0	1739587584	70	4662
2026-01-03 21:37:02.92	115.57	5.31	-52.3	-54.2	13.6	0.00e+00	0	29	0	1749024768	70	4597
2026-01-03 21:37:06.06	115.94	5.16	-52.5	-54.5	13.4	0.00e+00	0	29	0	1758461952	70	4730
2026-01-03 21:37:08.92	116.26	5.02	-52.6	-54.6	13.3	0.00e+00	0	29	0	1766850560	70	4801
2026-01-03 21:37:12.06	116.62	4.88	-59.7	-73.5	3.8	1.49e+00	0	29	104	1769996288	84	18937
2026-01-03 21:37:14.92	116.94	4.74	-60.3	-74.1	3.8	1.49e+00	0	29	104	1769996288	85	19071
2026-01-03 21:37:18.05	117.29	4.59	-60.6	-74.5	3.8	1.49e+00	0	29	104	1769996288	86	18791
2026-01-03 21:37:20.91	117.61	4.46	-60.8	-74.7	3.8	1.49e+00	0	29	104	1769996288	86	19235
2026-01-03 21:37:24.05	117.95	4.31	-60.9	-74.8	3.8	1.49e+00	0	29	104	1769996288	87	18411
2026-01-03 21:37:26.90	118.26	4.18	-61.0	-74.9	3.8	1.49e+00	0	29	104	1769996288	87	18583
2026-01-03 21:37:30.05	118.60	4.03	-61.1	-75.0	3.8	1.49e+00	0	29	104	1769996288	87	18814
2026-01-03 21:37:32.90	118.90	3.89	-61.2	-75.1	3.8	1.49e+00	0	30	104	1769996288	87	19041
2026-01-03 21:37:36.04	119.23	3.74	-61.3	-75.2	3.8	1.49e+00	0	29	104	1769996288	87	19188
2026-01-03 21:37:38.88	119.53	3.61	-61.3	-75.2	3.8	1.49e+00	0	29	104	1769996288	87	19235
2026-01-03 21:37:42.03	119.85	3.46	-61.2	-75.1	3.8	1.49e+00	0	30	104	1769996288	87	19021
2026-01-03 21:37:44.88	120.15	3.33	-61.2	-75.1	3.8	1.49e+00	0	30	104	1769996288	87	19012
2026-01-03 21:37:48.03	120.47	3.18	-61.2	-75.0	3.8	1.49e+00	0	29	104	1769996288	87	18916
2026-01-03 21:37:50.89	120.76	3.04	-61.1	-75.0	3.8	1.49e+00	0	30	104	1769996288	87	18944
2026-01-03 21:37:54.03	121.07	2.90	-61.1	-75.0	3.8	1.49e+00	0	29	104	1769996288	87	18872
2026-01-03 21:37:56.89	121.35	2.76	-61.1	-75.0	3.8	1.49e+00	0	29	104	1769996288	87	18860
2026-01-03 21:38:00.03	121.66	2.62	-61.1	-75.0	3.8	1.49e+00	0	29	104	1769996288	87	18811
2026-01-03 21:38:02.88	121.94	2.48	-61.1	-75.0	3.8	1.49e+00	0	30	104	1769996288	87	18823
2026-01-03 21:38:06.01	122.24	2.33	-61.1	-74.9	3.8	1.49e+00	0	29	104	1769996288	87	18682
2026-01-03 21:38:08.87	122.51	2.20	-61.1	-74.9	3.8	1.49e+00	0	30	104	1769996288	87	18710
2026-01-03 21:38:12.01	122.81	2.05	-61.0	-74.9	3.8	1.49e+00	0	29	104	1769996288	87	18623

#Closed at: 2026-01-03 21:38:14
#Recorded file [1769 MB]: D:/lorett/data/31004_260104_002654.dat