passes_logs/2026/01/03/R3.2S_Murmansk/R3.2S_Murmansk__20260103_065458_NOAA_20_JPSS-1_rec.log

#Pass ID: 20260103_065458_NOAA 20 (JPSS-1)
#Satellite: NOAA 20 (JPSS-1)
#Configuration: NOAA 20
#almurnet v.1.7.20251203
#Start time: 2026-01-03 06:55:00

#Version: 2.2.20231116
#Station: R3.2S_Murmansk
#Location: 33.079688 lon 68.888172 lat
#TLE: 1 43013U 17073A   26002.78363558  .00000190  00000+0  11110-3 0  9990
#TLE: 2 43013  98.7623 303.8528 0001892  57.0664 303.0694 14.19532716421006

#Time	Az	El	Level	Level2	SNR	BER	BlckErr	Temp	State	Recorded	gain1	gain2
2026-01-03 06:55:00.43	93.18	2.13	-59.7	-75.2	3.8	1.49e+00	0	29	0	0	85	21598
2026-01-03 06:55:04.43	92.97	2.37	-59.7	-75.2	3.8	1.49e+00	0	29	104	0	84	22960
2026-01-03 06:55:08.43	92.75	2.61	-59.7	-75.2	3.8	1.49e+00	0	29	104	0	84	22948
2026-01-03 06:55:12.43	92.54	2.86	-59.7	-75.3	3.8	1.49e+00	0	29	104	0	84	23058
2026-01-03 06:55:16.44	92.31	3.10	-59.7	-75.2	3.8	1.49e+00	0	29	104	0	84	22973
2026-01-03 06:55:20.44	92.09	3.35	-59.7	-75.2	3.8	1.49e+00	0	29	104	0	84	23020
2026-01-03 06:55:24.42	91.86	3.59	-59.7	-75.1	3.8	1.49e+00	0	29	104	0	84	22672
2026-01-03 06:55:28.42	91.62	3.84	-59.7	-75.2	3.8	1.49e+00	0	29	104	0	84	22990
2026-01-03 06:55:32.42	91.39	4.09	-59.6	-74.5	3.8	1.49e+00	0	29	104	0	84	21204
2026-01-03 06:55:36.43	91.14	4.35	-59.5	-71.9	4.1	1.47e+00	0	29	104	0	84	15615
2026-01-03 06:55:40.42	90.90	4.60	-59.2	-68.5	5.6	4.58e-01	0	30	0	5242880	84	10581
2026-01-03 06:55:44.42	90.64	4.86	-58.9	-66.3	7.2	1.03e-01	0	29	0	13631488	84	8217
2026-01-03 06:55:48.42	90.39	5.12	-58.2	-63.4	9.8	2.08e-04	0	30	0	20971520	81	7007
2026-01-03 06:55:52.42	90.13	5.38	-59.3	-68.4	5.5	1.34e+00	1	30	104	27262976	84	10509
2026-01-03 06:55:56.42	89.86	5.64	-56.9	-60.0	12.4	3.00e-06	0	30	0	33554432	80	5039
2026-01-03 06:56:00.42	89.59	5.91	-56.5	-59.3	12.8	0.00e+00	0	30	0	40894464	79	4920
2026-01-03 06:56:04.41	89.31	6.17	-56.3	-59.0	13.1	0.00e+00	0	30	0	49283072	79	4737
2026-01-03 06:56:08.42	89.03	6.44	-56.3	-59.0	13.1	0.00e+00	0	30	0	56623104	79	4734
2026-01-03 06:56:12.41	88.74	6.71	-56.2	-58.8	13.2	0.00e+00	0	30	0	63963136	78	4876
2026-01-03 06:56:16.40	88.45	6.99	-56.1	-58.6	13.3	0.00e+00	0	30	0	71303168	78	4797
2026-01-03 06:56:20.39	88.15	7.26	-56.0	-58.5	13.5	0.00e+00	0	30	0	78643200	78	4718
2026-01-03 06:56:24.39	87.85	7.54	-55.9	-58.3	13.6	0.00e+00	0	30	0	85983232	78	4619
2026-01-03 06:56:28.38	87.54	7.82	-55.9	-58.2	13.6	0.00e+00	0	30	0	93323264	78	4577
2026-01-03 06:56:32.40	87.22	8.10	-55.9	-58.2	13.6	0.00e+00	0	30	0	101711872	78	4570
2026-01-03 06:56:36.41	86.89	8.39	-55.7	-57.9	13.8	0.00e+00	0	30	0	109051904	78	4431
2026-01-03 06:56:40.41	86.56	8.67	-55.6	-57.8	13.8	0.00e+00	0	30	0	116391936	77	4631
2026-01-03 06:56:44.42	86.22	8.96	-55.6	-57.7	13.8	0.00e+00	0	30	0	123731968	77	4596
2026-01-03 06:56:48.41	85.88	9.25	-55.5	-57.5	14.0	0.00e+00	0	30	0	131072000	77	4463
2026-01-03 06:56:52.41	85.53	9.55	-55.5	-57.6	14.0	0.00e+00	0	30	0	138412032	77	4497
2026-01-03 06:56:56.40	85.17	9.84	-55.4	-57.3	14.1	0.00e+00	0	30	0	146800640	77	4381
2026-01-03 06:57:00.41	84.80	10.14	-55.5	-57.5	14.1	0.00e+00	0	30	0	154140672	77	4453
2026-01-03 06:57:04.41	84.43	10.44	-55.5	-57.5	14.0	0.00e+00	0	31	0	161480704	77	4468
2026-01-03 06:57:08.41	84.05	10.75	-55.6	-57.6	14.0	0.00e+00	0	30	0	168820736	77	4539
2026-01-03 06:57:12.43	83.65	11.06	-55.4	-57.4	14.1	0.00e+00	0	30	0	176160768	77	4419
2026-01-03 06:57:16.42	83.25	11.36	-55.4	-57.3	14.2	0.00e+00	0	30	0	183500800	77	4380
2026-01-03 06:57:20.42	82.85	11.67	-55.4	-57.3	14.2	0.00e+00	0	30	0	190840832	77	4384
2026-01-03 06:57:24.42	82.43	11.99	-55.5	-57.5	14.1	0.00e+00	0	30	0	199229440	77	4457
2026-01-03 06:57:28.40	82.00	12.30	-55.3	-57.2	14.2	0.00e+00	0	30	0	206569472	77	4334
2026-01-03 06:57:32.39	81.57	12.62	-55.4	-57.4	14.2	0.00e+00	0	30	0	213909504	77	4406
2026-01-03 06:57:36.66	81.09	12.96	-55.4	-57.3	14.2	0.00e+00	0	31	0	221249536	77	4367
2026-01-03 06:57:40.71	80.63	13.29	-55.4	-57.3	14.3	0.00e+00	0	30	0	228589568	77	4351
2026-01-03 06:57:44.73	80.16	13.62	-55.3	-57.1	14.4	0.00e+00	0	30	0	235929600	77	4290
2026-01-03 06:57:48.77	79.68	13.95	-55.2	-57.0	14.3	0.00e+00	0	31	0	244318208	76	4473
2026-01-03 06:57:52.80	79.18	14.29	-55.2	-57.0	14.4	0.00e+00	0	30	0	251658240	76	4455
2026-01-03 06:57:56.80	78.68	14.62	-55.2	-57.0	14.3	0.00e+00	0	31	0	258998272	76	4471
2026-01-03 06:58:00.78	78.17	14.95	-55.2	-57.1	14.3	0.00e+00	0	30	0	266338304	76	4503
2026-01-03 06:58:04.80	77.65	15.29	-55.2	-57.0	14.4	0.00e+00	0	30	0	273678336	76	4454
2026-01-03 06:58:08.81	77.11	15.63	-55.0	-56.7	14.5	0.00e+00	0	31	0	281018368	76	4322
2026-01-03 06:58:12.83	76.56	15.98	-54.7	-56.3	14.7	0.00e+00	0	31	0	289406976	76	4136
2026-01-03 06:58:16.87	75.99	16.33	-54.8	-56.4	14.7	0.00e+00	0	31	0	296747008	76	4149
2026-01-03 06:58:20.89	75.41	16.67	-54.5	-56.1	14.7	0.00e+00	0	30	0	304087040	75	4282
2026-01-03 06:58:24.88	74.82	17.02	-54.4	-56.0	14.8	0.00e+00	0	31	0	311427072	75	4198
2026-01-03 06:58:28.94	74.21	17.38	-54.4	-55.9	14.8	0.00e+00	0	30	0	319815680	75	4183
2026-01-03 06:58:32.98	73.59	17.73	-54.5	-56.0	14.8	0.00e+00	0	31	0	327155712	75	4232
2026-01-03 06:58:36.99	72.95	18.09	-54.3	-55.8	14.9	0.00e+00	0	31	0	334495744	75	4135
2026-01-03 06:58:41.03	72.30	18.45	-54.4	-55.9	14.8	0.00e+00	0	30	0	341835776	75	4187
2026-01-03 06:58:45.03	71.63	18.80	-54.6	-56.1	14.7	0.00e+00	0	30	0	349175808	75	4281
2026-01-03 06:58:49.05	70.95	19.16	-54.5	-56.1	14.8	0.00e+00	0	31	0	356515840	75	4266
2026-01-03 06:58:53.07	70.25	19.52	-54.8	-56.4	14.6	0.00e+00	0	31	0	364904448	75	4437
2026-01-03 06:58:57.09	69.53	19.88	-54.8	-56.5	14.6	0.00e+00	0	31	0	372244480	75	4465
2026-01-03 06:59:01.12	68.80	20.24	-54.9	-56.5	14.6	0.00e+00	0	30	0	379584512	75	4479
2026-01-03 06:59:05.13	68.05	20.60	-54.8	-56.4	14.6	0.00e+00	0	31	0	386924544	75	4427
2026-01-03 06:59:09.18	67.27	20.96	-54.5	-56.0	14.9	0.00e+00	0	31	0	394264576	75	4216
2026-01-03 06:59:13.17	66.49	21.32	-54.6	-56.1	14.8	0.00e+00	0	31	0	402653184	75	4281
2026-01-03 06:59:17.18	65.68	21.68	-54.4	-55.9	14.9	0.00e+00	0	31	0	409993216	75	4185
2026-01-03 06:59:21.22	64.85	22.04	-54.2	-55.6	15.0	0.00e+00	0	31	0	417333248	74	4252
2026-01-03 06:59:25.26	64.00	22.39	-54.1	-55.5	15.0	0.00e+00	0	31	0	424673280	74	4241
2026-01-03 06:59:29.28	63.14	22.75	-53.9	-55.3	15.1	0.00e+00	0	31	0	432013312	74	4111
2026-01-03 06:59:33.30	62.25	23.10	-53.5	-54.7	15.3	0.00e+00	0	31	0	440401920	73	4079
2026-01-03 06:59:37.30	61.35	23.45	-53.6	-54.9	15.1	0.00e+00	0	31	0	447741952	73	4172
2026-01-03 06:59:41.32	60.43	23.79	-53.6	-54.9	15.2	0.00e+00	0	31	0	455081984	73	4166
2026-01-03 06:59:45.39	59.47	24.14	-53.5	-54.7	15.2	0.00e+00	0	31	0	462422016	73	4083
2026-01-03 06:59:49.41	58.50	24.48	-53.5	-54.7	15.3	0.00e+00	0	31	0	469762048	73	4085
2026-01-03 06:59:53.44	57.51	24.81	-53.8	-55.1	15.1	0.00e+00	0	31	0	478150656	73	4269
2026-01-03 06:59:57.43	56.51	25.13	-53.7	-55.0	15.1	0.00e+00	0	31	0	485490688	73	4239
2026-01-03 07:00:01.42	55.48	25.45	-53.9	-55.2	15.1	0.00e+00	0	31	0	492830720	73	4319
2026-01-03 07:00:05.43	54.43	25.77	-53.9	-55.2	15.1	0.00e+00	0	31	0	500170752	73	4321
2026-01-03 07:00:09.46	53.36	26.07	-54.2	-55.6	14.9	0.00e+00	0	30	0	507510784	73	4512
2026-01-03 07:00:13.47	52.27	26.37	-54.1	-55.5	15.0	0.00e+00	0	31	0	514850816	73	4483
2026-01-03 07:00:17.48	51.16	26.66	-54.0	-55.3	15.0	0.00e+00	0	30	0	523239424	73	4382
2026-01-03 07:00:21.51	50.02	26.95	-53.7	-55.0	15.1	0.00e+00	0	31	0	530579456	73	4196
2026-01-03 07:00:25.51	48.87	27.22	-54.0	-55.3	15.0	0.00e+00	0	31	0	537919488	73	4390
2026-01-03 07:00:29.54	47.69	27.48	-54.1	-55.5	15.0	0.00e+00	0	31	0	545259520	73	4447
2026-01-03 07:00:33.54	46.51	27.73	-54.2	-55.6	14.9	0.00e+00	0	31	0	552599552	73	4531
2026-01-03 07:00:37.54	45.30	27.97	-54.4	-55.8	14.9	0.00e+00	0	31	0	559939584	74	4375
2026-01-03 07:00:41.57	44.07	28.19	-54.5	-56.0	14.8	0.00e+00	0	31	0	568328192	74	4485
2026-01-03 07:00:45.57	42.83	28.40	-54.8	-56.3	14.7	0.00e+00	0	31	0	575668224	74	4643
2026-01-03 07:00:49.63	41.55	28.60	-54.7	-56.3	14.8	0.00e+00	0	31	0	583008256	75	4352
2026-01-03 07:00:53.66	40.27	28.79	-54.9	-56.5	14.7	0.00e+00	0	30	0	590348288	75	4451
2026-01-03 07:00:57.67	38.98	28.96	-55.1	-56.8	14.6	0.00e+00	0	30	0	597688320	75	4634
2026-01-03 07:01:01.69	37.68	29.11	-55.2	-56.8	14.6	0.00e+00	0	31	0	606076928	75	4635
2026-01-03 07:01:05.70	36.36	29.25	-54.9	-56.5	14.7	0.00e+00	0	31	0	613416960	75	4448
2026-01-03 07:01:09.73	35.03	29.37	-55.2	-56.9	14.5	0.00e+00	0	31	0	620756992	75	4685
2026-01-03 07:01:13.72	33.71	29.47	-55.8	-57.7	14.3	0.00e+00	0	31	0	628097024	76	4828
2026-01-03 07:01:17.75	32.36	29.56	-55.8	-57.7	14.2	0.00e+00	0	31	0	635437056	76	4866
2026-01-03 07:01:21.77	31.01	29.63	-55.8	-57.7	14.3	0.00e+00	0	31	0	643825664	77	4568
2026-01-03 07:01:25.77	29.66	29.68	-55.9	-57.8	14.2	0.00e+00	0	31	0	651165696	77	4649
2026-01-03 07:01:29.80	28.29	29.72	-55.8	-57.7	14.3	0.00e+00	0	31	0	658505728	77	4569
2026-01-03 07:01:33.81	26.94	29.73	-56.0	-58.0	14.1	0.00e+00	0	31	0	665845760	77	4729
2026-01-03 07:01:37.82	25.58	29.73	-55.8	-57.7	14.3	0.00e+00	0	31	0	673185792	77	4549
2026-01-03 07:01:41.82	24.22	29.71	-55.4	-57.1	14.6	0.00e+00	0	31	0	680525824	77	4283
2026-01-03 07:01:45.81	22.87	29.67	-55.6	-57.4	14.5	0.00e+00	0	31	0	688914432	77	4410
2026-01-03 07:01:49.83	21.52	29.61	-54.9	-56.4	14.8	0.00e+00	0	31	0	696254464	76	4186
2026-01-03 07:01:53.84	20.17	29.54	-55.1	-56.6	14.7	0.00e+00	0	31	0	703594496	76	4290
2026-01-03 07:01:57.89	18.82	29.45	-55.1	-56.7	14.6	0.00e+00	0	31	0	710934528	76	4303
2026-01-03 07:02:01.91	17.49	29.34	-54.6	-56.1	14.9	0.00e+00	0	31	0	718274560	75	4250
2026-01-03 07:02:05.92	16.16	29.21	-54.9	-56.4	14.7	0.00e+00	0	31	0	725614592	75	4439
2026-01-03 07:02:09.93	14.86	29.07	-54.4	-55.8	15.0	0.00e+00	0	31	0	734003200	75	4126
2026-01-03 07:02:13.94	13.56	28.91	-54.6	-56.1	14.9	0.00e+00	0	31	0	741343232	75	4276
2026-01-03 07:02:17.95	12.27	28.74	-54.9	-56.5	14.7	0.00e+00	0	31	0	748683264	75	4471
2026-01-03 07:02:21.93	11.01	28.55	-55.3	-57.0	14.5	0.00e+00	0	31	0	756023296	75	4750
2026-01-03 07:02:25.96	9.75	28.35	-55.4	-57.1	14.5	0.00e+00	0	31	0	763363328	76	4538
2026-01-03 07:02:29.97	8.52	28.14	-55.6	-57.4	14.4	0.00e+00	0	31	0	770703360	76	4687
2026-01-03 07:02:33.98	7.30	27.91	-55.7	-57.5	14.3	0.00e+00	0	31	0	779091968	76	4727
2026-01-03 07:02:38.03	6.08	27.67	-55.8	-57.6	14.3	0.00e+00	0	31	0	786432000	77	4540
2026-01-03 07:02:42.03	4.90	27.41	-55.8	-57.7	14.3	0.00e+00	0	31	0	793772032	77	4582
2026-01-03 07:02:46.04	3.74	27.15	-55.5	-57.2	14.5	0.00e+00	0	31	0	801112064	77	4339
2026-01-03 07:02:50.04	2.59	26.88	-55.4	-57.1	14.6	0.00e+00	0	31	0	808452096	77	4267
2026-01-03 07:02:54.03	1.47	26.60	-55.3	-57.0	14.6	0.00e+00	0	31	0	815792128	77	4221
2026-01-03 07:02:58.03	0.37	26.31	-55.0	-56.5	14.8	0.00e+00	0	31	0	824180736	76	4227
2026-01-03 07:03:02.04	359.29	26.01	-55.0	-56.6	14.7	0.00e+00	0	30	0	831520768	76	4271
2026-01-03 07:03:06.06	358.22	25.70	-54.8	-56.3	14.9	0.00e+00	0	31	0	838860800	76	4112
2026-01-03 07:03:10.06	357.18	25.38	-54.6	-56.1	14.9	0.00e+00	0	31	0	846200832	75	4261
2026-01-03 07:03:14.07	356.16	25.06	-54.5	-55.9	15.0	0.00e+00	0	31	0	853540864	75	4164
2026-01-03 07:03:18.06	355.17	24.74	-54.1	-55.4	15.1	0.00e+00	0	31	0	860880896	74	4166
2026-01-03 07:03:22.10	354.18	24.40	-53.8	-55.1	15.3	0.00e+00	0	31	0	869269504	74	4010
2026-01-03 07:03:26.10	353.22	24.06	-53.7	-54.9	15.2	0.00e+00	0	31	0	876609536	73	4186
2026-01-03 07:03:30.12	352.28	23.72	-53.3	-54.4	15.4	0.00e+00	0	31	0	883949568	73	3948
2026-01-03 07:03:34.17	351.36	23.37	-53.1	-54.2	15.4	0.00e+00	0	31	0	891289600	72	4095
2026-01-03 07:03:38.21	350.45	23.02	-52.9	-54.0	15.5	0.00e+00	0	31	0	899678208	72	4003
2026-01-03 07:03:42.26	349.57	22.67	-52.6	-53.7	15.5	0.00e+00	0	31	0	907018240	71	4074
2026-01-03 07:03:46.24	348.72	22.32	-52.3	-53.3	15.6	0.00e+00	0	31	0	914358272	71	3905
2026-01-03 07:03:50.22	347.89	21.97	-52.1	-53.1	15.6	0.00e+00	0	31	0	921698304	70	4043
2026-01-03 07:03:54.22	347.07	21.61	-52.2	-53.2	15.6	0.00e+00	0	31	0	929038336	70	4073
2026-01-03 07:03:58.21	346.28	21.26	-52.2	-53.2	15.6	0.00e+00	0	31	0	936378368	70	4075
2026-01-03 07:04:02.21	345.50	20.90	-52.4	-53.4	15.5	0.00e+00	0	31	0	943718400	70	4178
2026-01-03 07:04:06.21	344.74	20.54	-52.5	-53.5	15.5	0.00e+00	0	31	0	952107008	70	4234
2026-01-03 07:04:10.20	344.00	20.18	-52.6	-53.7	15.5	0.00e+00	0	31	0	959447040	70	4292
2026-01-03 07:04:14.18	343.28	19.83	-52.7	-53.8	15.4	0.00e+00	0	31	0	966787072	70	4391
2026-01-03 07:04:18.18	342.57	19.47	-52.9	-54.0	15.4	0.00e+00	0	31	0	974127104	71	4232
2026-01-03 07:04:22.16	341.88	19.12	-53.4	-54.6	15.2	0.00e+00	0	30	0	981467136	71	4516
2026-01-03 07:04:26.16	341.20	18.76	-53.6	-54.9	15.1	0.00e+00	0	31	0	988807168	72	4418
2026-01-03 07:04:30.13	340.55	18.41	-53.6	-54.9	15.1	0.00e+00	0	30	0	996147200	72	4416
2026-01-03 07:04:34.14	339.90	18.05	-53.6	-55.0	15.1	0.00e+00	0	31	0	1004535808	72	4442
2026-01-03 07:04:38.13	339.28	17.70	-53.8	-55.1	15.1	0.00e+00	0	31	0	1011875840	72	4510
2026-01-03 07:04:42.12	338.66	17.35	-53.8	-55.1	15.0	0.00e+00	0	31	0	1019215872	72	4543
2026-01-03 07:04:46.11	338.07	17.00	-54.0	-55.4	15.0	0.00e+00	0	31	0	1026555904	73	4422
2026-01-03 07:04:50.11	337.48	16.66	-54.0	-55.4	15.0	0.00e+00	0	31	0	1033895936	73	4424
2026-01-03 07:04:54.10	336.91	16.31	-54.0	-55.3	15.0	0.00e+00	0	31	0	1041235968	73	4380
2026-01-03 07:04:58.08	336.35	15.97	-54.3	-55.8	14.8	0.00e+00	0	31	0	1048576000	73	4622
2026-01-03 07:05:02.06	335.81	15.63	-54.4	-55.9	14.8	0.00e+00	0	31	0	1055916032	74	4404
2026-01-03 07:05:06.02	335.28	15.29	-54.3	-55.8	14.8	0.00e+00	0	31	0	1064304640	74	4379
2026-01-03 07:05:10.02	334.76	14.96	-54.4	-55.9	14.8	0.00e+00	0	31	0	1071644672	74	4427
2026-01-03 07:05:14.02	334.25	14.62	-54.7	-56.3	14.6	0.00e+00	0	31	0	1078984704	74	4615
2026-01-03 07:05:18.01	333.75	14.29	-54.8	-56.5	14.5	0.00e+00	0	31	0	1086324736	74	4737
2026-01-03 07:05:22.00	333.27	13.96	-54.7	-56.4	14.6	0.00e+00	0	31	0	1093664768	74	4662
2026-01-03 07:05:25.98	332.79	13.63	-54.8	-56.5	14.5	0.00e+00	0	31	0	1101004800	74	4732
2026-01-03 07:05:29.95	332.33	13.31	-54.9	-56.6	14.5	0.00e+00	0	31	0	1108344832	75	4526
2026-01-03 07:05:33.92	331.88	12.99	-54.9	-56.6	14.5	0.00e+00	0	31	0	1115684864	75	4512
2026-01-03 07:05:37.89	331.44	12.67	-54.9	-56.6	14.5	0.00e+00	0	31	0	1124073472	75	4542
2026-01-03 07:05:41.88	331.00	12.36	-55.1	-57.0	14.3	0.00e+00	0	31	0	1131413504	75	4716
2026-01-03 07:05:45.85	330.58	12.04	-55.3	-57.1	14.2	0.00e+00	0	31	0	1138753536	75	4802
2026-01-03 07:05:49.83	330.17	11.73	-55.2	-57.0	14.3	0.00e+00	0	31	0	1146093568	75	4754
2026-01-03 07:05:53.79	329.76	11.42	-55.2	-57.1	14.2	0.00e+00	0	31	0	1153433600	75	4782
2026-01-03 07:05:57.77	329.37	11.12	-55.5	-57.4	14.2	0.00e+00	0	31	0	1160773632	76	4664
2026-01-03 07:06:01.76	328.98	10.81	-55.8	-57.9	13.8	0.00e+00	0	31	0	1168113664	76	4941
2026-01-03 07:06:05.78	328.59	10.51	-55.9	-58.0	13.9	0.00e+00	0	31	0	1175453696	77	4734
2026-01-03 07:06:09.78	328.22	10.20	-55.5	-57.5	14.1	0.00e+00	0	31	0	1183842304	77	4461
2026-01-03 07:06:13.76	327.86	9.91	-55.4	-57.3	14.2	0.00e+00	0	31	0	1191182336	77	4358
2026-01-03 07:06:17.75	327.50	9.61	-55.5	-57.4	14.2	0.00e+00	0	31	0	1198522368	77	4425
2026-01-03 07:06:21.74	327.15	9.32	-55.7	-57.8	13.9	0.00e+00	0	31	0	1205862400	77	4620
2026-01-03 07:06:25.73	326.81	9.03	-55.7	-57.9	13.9	0.00e+00	0	31	0	1213202432	77	4663
2026-01-03 07:06:29.72	326.47	8.74	-55.8	-58.0	13.8	0.00e+00	0	31	0	1220542464	77	4734
2026-01-03 07:06:33.71	326.14	8.45	-55.9	-58.2	13.7	0.00e+00	0	31	0	1227882496	77	4844
2026-01-03 07:06:37.70	325.82	8.17	-56.1	-58.4	13.5	0.00e+00	0	31	0	1235222528	77	4963
2026-01-03 07:06:41.69	325.50	7.89	-56.2	-58.7	13.4	0.00e+00	0	31	0	1243611136	77	5103
2026-01-03 07:06:45.69	325.19	7.61	-56.2	-58.7	13.3	0.00e+00	0	31	0	1250951168	77	5130
2026-01-03 07:06:49.68	324.89	7.33	-56.3	-58.8	13.3	0.00e+00	0	31	0	1258291200	77	5176
2026-01-03 07:06:53.67	324.59	7.06	-56.3	-58.8	13.2	0.00e+00	0	31	0	1265631232	77	5187
2026-01-03 07:06:57.65	324.30	6.79	-56.4	-59.0	13.1	0.00e+00	0	31	0	1272971264	77	5312
2026-01-03 07:07:01.65	324.01	6.52	-56.4	-59.0	13.1	0.00e+00	0	31	0	1280311296	78	5039
2026-01-03 07:07:05.63	323.74	6.25	-56.4	-59.1	13.1	0.00e+00	0	31	0	1287651328	78	5068
2026-01-03 07:07:09.61	323.46	5.98	-56.4	-59.2	13.0	0.00e+00	0	31	0	1296039936	78	5122
2026-01-03 07:07:13.61	323.19	5.72	-56.6	-59.4	12.8	0.00e+00	0	31	0	1303379968	78	5249
2026-01-03 07:07:17.60	322.93	5.46	-56.7	-59.7	12.6	0.00e+00	0	31	0	1310720000	78	5437
2026-01-03 07:07:21.56	322.67	5.20	-56.7	-59.7	12.6	7.00e-07	0	31	0	1318060032	78	5420
2026-01-03 07:07:25.54	322.41	4.94	-60.3	-75.7	3.8	1.03e+00	0	31	104	1324351488	85	22919
2026-01-03 07:07:29.54	322.16	4.68	-61.3	-76.9	3.8	1.49e+00	0	31	104	1324351488	87	23484
2026-01-03 07:07:33.52	321.92	4.43	-61.8	-77.4	3.8	1.49e+00	0	31	104	1324351488	88	23399
2026-01-03 07:07:37.50	321.68	4.18	-62.0	-77.6	3.8	1.49e+00	0	31	104	1324351488	89	22745
2026-01-03 07:07:41.49	321.44	3.93	-62.1	-77.7	3.8	1.49e+00	0	31	104	1324351488	89	22998
2026-01-03 07:07:45.49	321.21	3.68	-62.1	-77.7	3.8	1.49e+00	0	31	104	1324351488	89	23002
2026-01-03 07:07:49.47	320.98	3.43	-62.0	-77.6	3.8	1.49e+00	0	31	104	1324351488	89	22710
2026-01-03 07:07:53.46	320.75	3.19	-62.0	-77.6	3.8	1.49e+00	0	31	104	1324351488	89	22641
2026-01-03 07:07:57.45	320.53	2.94	-62.0	-77.6	3.8	1.49e+00	0	31	104	1324351488	89	22596
2026-01-03 07:08:01.46	320.32	2.70	-61.9	-77.5	3.8	1.49e+00	0	31	104	1324351488	89	22516
2026-01-03 07:08:05.47	320.10	2.46	-61.9	-77.5	3.8	1.49e+00	0	31	104	1324351488	89	22479
2026-01-03 07:08:09.47	319.89	2.22	-61.9	-77.5	3.8	1.49e+00	0	31	104	1324351488	89	22403
2026-01-03 07:08:13.47	319.69	1.98	-61.9	-77.5	3.8	1.49e+00	0	31	104	1324351488	89	22394

#Closed at: 2026-01-03 07:08:14
#Recorded file [1324 MB]: D:/lorett/data/31004_260103_095500.dat