passes_logs/2026/01/03/R3.2S_Murmansk/R3.2S_Murmansk__20260103_215629_SUOMI_NPP_rec.log

#Pass ID: 20260103_215629_SUOMI NPP
#Satellite: SUOMI NPP
#Configuration: NPP
#almurnet v.1.7.20251203
#Start time: 2026-01-03 21:56:28

#Version: 2.2.20231116
#Station: R3.2S_Murmansk
#Location: 33.079688 lon 68.888172 lat
#TLE: 1 37849U 11061A   26001.07732418  .00000182  00000+0  10735-3 0  9990
#TLE: 2 37849  98.7795 303.2470 0002580  87.2016 272.9455 14.19520779734739

#Time	Az	El	Level	Level2	SNR	BER	BlckErr	Temp	State	Recorded	gain1	gain2
2026-01-03 21:56:28.96	18.45	1.97	-58.8	-74.8	3.8	1.49e+00	0	27	0	0	84	21759
2026-01-03 21:56:31.96	18.70	2.12	-58.6	-74.6	3.8	1.49e+00	0	27	104	0	82	23974
2026-01-03 21:56:34.96	18.95	2.28	-58.6	-74.7	3.8	1.49e+00	0	27	104	0	82	24147
2026-01-03 21:56:37.96	19.20	2.43	-58.6	-74.7	3.8	1.49e+00	0	27	104	0	82	24148
2026-01-03 21:56:40.96	19.46	2.58	-58.6	-74.6	3.8	1.49e+00	0	27	104	0	82	24028
2026-01-03 21:56:43.97	19.72	2.74	-58.6	-74.6	3.8	1.49e+00	0	27	104	0	82	24007
2026-01-03 21:56:46.97	19.98	2.89	-58.6	-74.6	3.8	1.49e+00	0	27	104	0	82	24123
2026-01-03 21:56:49.98	20.25	3.04	-58.6	-74.5	3.8	1.49e+00	0	28	104	0	82	23854
2026-01-03 21:56:52.98	20.51	3.20	-58.6	-74.6	3.8	1.49e+00	0	27	104	0	82	23862
2026-01-03 21:56:55.98	20.78	3.36	-58.6	-74.6	3.8	1.49e+00	0	28	104	0	82	24074
2026-01-03 21:56:58.97	21.05	3.51	-58.6	-74.0	3.8	1.49e+00	0	28	104	0	82	22266
2026-01-03 21:57:01.96	21.33	3.67	-58.6	-73.6	3.8	1.49e+00	0	28	104	0	82	21323
2026-01-03 21:57:04.95	21.61	3.82	-58.5	-73.1	3.8	1.49e+00	0	28	104	0	82	20124
2026-01-03 21:57:07.95	21.89	3.98	-58.4	-70.6	4.4	1.39e+00	2	28	0	0	82	15061
2026-01-03 21:57:10.95	22.17	4.14	-58.3	-69.6	4.7	8.96e-01	0	28	0	5242880	82	13420
2026-01-03 21:57:13.95	22.46	4.29	-57.8	-66.0	6.8	2.33e-01	0	28	0	10485760	82	8954
2026-01-03 21:57:16.95	22.74	4.45	-56.2	-60.7	11.1	4.67e-04	0	28	0	16777216	79	5758
2026-01-03 21:57:19.94	23.04	4.61	-55.0	-58.4	12.6	0.00e+00	0	28	0	22020096	76	5252
2026-01-03 21:57:22.94	23.33	4.77	-55.4	-59.3	12.0	7.00e-07	0	28	0	27262976	76	5832
2026-01-03 21:57:25.95	23.63	4.93	-56.9	-62.5	9.7	1.42e-03	0	28	0	33554432	78	7525
2026-01-03 21:57:28.95	23.93	5.09	-55.3	-58.9	12.3	6.05e-02	0	28	0	38797312	77	5278
2026-01-03 21:57:31.96	24.24	5.25	-55.7	-59.7	12.0	2.91e-01	0	28	0	44040192	78	5420
2026-01-03 21:57:34.95	24.54	5.41	-55.1	-58.5	12.5	3.80e-06	0	28	0	50331648	76	5318
2026-01-03 21:57:37.94	24.85	5.56	-54.0	-56.9	13.4	0.00e+00	0	28	0	55574528	74	4929
2026-01-03 21:57:40.96	25.17	5.73	-53.8	-56.5	13.7	0.00e+00	0	28	0	60817408	74	4710
2026-01-03 21:57:43.95	25.48	5.89	-53.5	-56.1	13.8	0.00e+00	0	28	0	67108864	73	4778
2026-01-03 21:57:46.95	25.81	6.05	-53.6	-56.2	13.7	0.00e+00	0	28	0	72351744	73	4835
2026-01-03 21:57:49.95	26.13	6.21	-53.6	-56.2	13.8	0.00e+00	0	28	0	78643200	73	4834
2026-01-03 21:57:52.95	26.46	6.37	-53.8	-56.5	13.6	0.00e+00	0	28	0	83886080	73	4994
2026-01-03 21:57:55.94	26.79	6.53	-53.9	-56.5	13.5	0.00e+00	0	28	0	89128960	73	5037
2026-01-03 21:57:58.92	27.12	6.69	-53.9	-56.6	13.6	0.00e+00	0	28	0	95420416	73	5075
2026-01-03 21:58:01.91	27.46	6.85	-53.9	-56.6	13.5	0.00e+00	0	28	0	100663296	73	5081
2026-01-03 21:58:04.91	27.80	7.02	-54.0	-56.7	13.5	0.00e+00	0	28	0	105906176	73	5125
2026-01-03 21:58:07.91	28.14	7.18	-53.9	-56.6	13.6	0.00e+00	0	28	0	112197632	73	5049
2026-01-03 21:58:10.91	28.49	7.34	-53.6	-56.1	13.8	0.00e+00	0	28	0	117440512	73	4812
2026-01-03 21:58:13.91	28.84	7.51	-53.7	-56.2	13.8	0.00e+00	0	28	0	122683392	73	4829
2026-01-03 21:58:16.91	29.20	7.67	-53.7	-56.3	13.8	0.00e+00	0	28	0	128974848	73	4892
2026-01-03 21:58:19.92	29.56	7.83	-53.5	-55.9	13.9	0.00e+00	0	29	0	134217728	73	4687
2026-01-03 21:58:22.91	29.93	8.00	-53.3	-55.7	14.1	0.00e+00	0	29	0	139460608	73	4552
2026-01-03 21:58:25.92	30.30	8.16	-53.1	-55.4	14.2	0.00e+00	0	28	0	145752064	72	4660
2026-01-03 21:58:28.92	30.67	8.32	-53.1	-55.3	14.2	0.00e+00	0	29	0	150994944	72	4623
2026-01-03 21:58:31.91	31.04	8.49	-53.2	-55.5	14.1	0.00e+00	0	29	0	157286400	72	4753
2026-01-03 21:58:34.90	31.42	8.65	-53.3	-55.6	14.1	0.00e+00	0	28	0	162529280	72	4784
2026-01-03 21:58:37.90	31.81	8.81	-53.3	-55.7	14.0	0.00e+00	0	29	0	167772160	72	4817
2026-01-03 21:58:40.90	32.19	8.98	-53.3	-55.6	14.1	0.00e+00	0	28	0	174063616	72	4781
2026-01-03 21:58:43.92	32.59	9.14	-53.4	-55.8	13.9	0.00e+00	0	28	0	179306496	72	4926
2026-01-03 21:58:46.92	32.99	9.30	-53.5	-55.9	13.9	0.00e+00	0	29	0	184549376	72	4977
2026-01-03 21:58:49.92	33.39	9.47	-53.5	-56.0	13.9	0.00e+00	0	29	0	190840832	72	5002
2026-01-03 21:58:52.91	33.79	9.63	-53.5	-55.9	13.9	0.00e+00	0	29	0	196083712	72	4955
2026-01-03 21:58:55.91	34.20	9.79	-53.6	-56.1	13.9	0.00e+00	0	28	0	201326592	72	5052
2026-01-03 21:58:58.90	34.62	9.95	-53.5	-56.0	13.9	0.00e+00	0	29	0	207618048	72	5015
2026-01-03 21:59:01.88	35.03	10.12	-53.2	-55.5	14.1	0.00e+00	0	28	0	212860928	72	4729
2026-01-03 21:59:04.87	35.45	10.28	-53.0	-55.3	14.2	0.00e+00	0	29	0	218103808	72	4617
2026-01-03 21:59:07.87	35.88	10.44	-53.0	-55.2	14.2	0.00e+00	0	28	0	224395264	72	4597
2026-01-03 21:59:10.85	36.31	10.60	-52.9	-55.1	14.3	0.00e+00	0	28	0	229638144	72	4522
2026-01-03 21:59:13.85	36.75	10.76	-52.5	-54.6	14.5	0.00e+00	0	29	0	235929600	71	4507
2026-01-03 21:59:16.85	37.19	10.92	-52.1	-54.1	14.5	0.00e+00	0	28	0	241172480	70	4537
2026-01-03 21:59:19.85	37.64	11.08	-52.2	-54.2	14.5	0.00e+00	0	29	0	246415360	70	4598
2026-01-03 21:59:22.86	38.09	11.24	-52.5	-54.7	14.3	0.00e+00	0	29	0	252706816	70	4824
2026-01-03 21:59:25.87	38.55	11.40	-52.6	-54.9	14.3	0.00e+00	0	29	0	257949696	70	4932
2026-01-03 21:59:28.87	39.01	11.56	-52.5	-54.6	14.4	0.00e+00	0	28	0	263192576	70	4787
2026-01-03 21:59:31.87	39.48	11.72	-52.3	-54.4	14.5	0.00e+00	0	29	0	269484032	70	4659
2026-01-03 21:59:34.87	39.95	11.88	-52.2	-54.3	14.5	0.00e+00	0	29	0	274726912	70	4640
2026-01-03 21:59:37.87	40.42	12.04	-52.2	-54.3	14.5	0.00e+00	0	29	0	279969792	70	4622
2026-01-03 21:59:40.88	40.90	12.19	-52.2	-54.3	14.5	0.00e+00	0	29	0	286261248	70	4607
2026-01-03 21:59:43.89	41.39	12.35	-52.3	-54.4	14.4	0.00e+00	0	29	0	291504128	70	4701
2026-01-03 21:59:46.89	41.88	12.50	-52.4	-54.6	14.4	0.00e+00	0	29	0	297795584	70	4771
2026-01-03 21:59:49.88	42.37	12.66	-52.2	-54.3	14.5	0.00e+00	0	29	0	303038464	70	4609
2026-01-03 21:59:52.89	42.88	12.81	-52.3	-54.4	14.5	0.00e+00	0	29	0	308281344	70	4658
2026-01-03 21:59:55.89	43.38	12.96	-52.5	-54.7	14.4	0.00e+00	0	29	0	314572800	70	4824
2026-01-03 21:59:58.87	43.89	13.11	-52.8	-55.0	14.2	0.00e+00	0	29	0	319815680	70	5039
2026-01-03 22:00:01.87	44.41	13.26	-52.6	-54.8	14.3	0.00e+00	0	29	0	325058560	70	4926
2026-01-03 22:00:04.87	44.93	13.41	-52.7	-55.0	14.2	0.00e+00	0	29	0	331350016	70	4986
2026-01-03 22:00:07.83	45.44	13.55	-53.0	-55.4	14.1	0.00e+00	0	29	0	336592896	71	4981
2026-01-03 22:00:10.68	45.95	13.69	-53.1	-55.4	14.1	0.00e+00	0	29	0	342884352	71	4981
2026-01-03 22:00:13.83	46.51	13.84	-52.8	-55.2	14.2	0.00e+00	0	29	0	348127232	71	4824
2026-01-03 22:00:16.68	47.02	13.98	-52.8	-55.0	14.3	0.00e+00	0	29	0	353370112	71	4751
2026-01-03 22:00:19.84	47.60	14.13	-52.8	-55.1	14.3	0.00e+00	0	29	0	359661568	71	4798
2026-01-03 22:00:22.69	48.12	14.26	-53.1	-55.5	14.1	0.00e+00	0	29	0	364904448	71	5010
2026-01-03 22:00:25.85	48.71	14.40	-53.4	-56.0	13.9	0.00e+00	0	29	0	371195904	71	5281
2026-01-03 22:00:28.71	49.24	14.53	-53.3	-55.8	14.0	0.00e+00	0	29	0	376438784	72	4910
2026-01-03 22:00:31.84	49.83	14.67	-53.2	-55.6	14.1	0.00e+00	0	29	0	381681664	72	4764
2026-01-03 22:00:34.70	50.38	14.80	-53.3	-55.9	14.0	0.00e+00	0	29	0	386924544	72	4937
2026-01-03 22:00:37.85	50.98	14.94	-53.7	-56.3	13.8	0.00e+00	0	29	0	393216000	72	5199
2026-01-03 22:00:40.70	51.53	15.06	-53.8	-56.4	13.7	0.00e+00	0	29	0	398458880	72	5262
2026-01-03 22:00:43.83	52.15	15.19	-53.9	-56.6	13.7	0.00e+00	0	29	0	404750336	73	5050
2026-01-03 22:00:46.70	52.71	15.31	-53.8	-56.4	13.8	0.00e+00	0	29	0	409993216	73	4975
2026-01-03 22:00:49.83	53.33	15.44	-53.2	-55.6	14.2	0.00e+00	0	29	0	416284672	73	4498
2026-01-03 22:00:52.69	53.90	15.55	-53.4	-55.8	14.1	0.00e+00	0	29	0	421527552	72	4905
2026-01-03 22:00:55.83	54.54	15.68	-53.5	-55.9	14.0	0.00e+00	0	29	0	426770432	72	4936
2026-01-03 22:00:58.68	55.12	15.79	-53.1	-55.4	14.3	0.00e+00	0	29	0	432013312	72	4685
2026-01-03 22:01:01.82	55.76	15.90	-52.8	-54.9	14.5	0.00e+00	0	29	0	438304768	72	4424
2026-01-03 22:01:04.67	56.35	16.01	-53.0	-55.2	14.4	0.00e+00	0	29	0	443547648	72	4548
2026-01-03 22:01:07.81	57.00	16.12	-52.6	-54.7	14.5	0.00e+00	0	29	0	449839104	71	4568
2026-01-03 22:01:10.66	57.59	16.22	-52.7	-54.7	14.5	0.00e+00	0	29	0	455081984	71	4584
2026-01-03 22:01:13.79	58.25	16.33	-52.7	-54.8	14.5	0.00e+00	0	29	0	460324864	71	4620
2026-01-03 22:01:16.64	58.86	16.42	-52.5	-54.5	14.6	0.00e+00	0	29	0	465567744	71	4470
2026-01-03 22:01:19.77	59.52	16.52	-52.9	-55.0	14.4	0.00e+00	0	29	0	471859200	71	4736
2026-01-03 22:01:22.62	60.13	16.61	-53.4	-55.7	14.2	0.00e+00	0	29	0	477102080	72	4862
2026-01-03 22:01:25.76	60.81	16.70	-53.2	-55.5	14.3	0.00e+00	0	29	0	483393536	72	4738
2026-01-03 22:01:28.62	61.43	16.79	-53.0	-55.1	14.4	0.00e+00	0	29	0	488636416	72	4543
2026-01-03 22:01:31.77	62.12	16.88	-52.3	-54.2	14.7	0.00e+00	0	29	0	493879296	71	4333
2026-01-03 22:01:34.63	62.75	16.95	-52.2	-54.1	14.6	0.00e+00	0	29	0	500170752	70	4537
2026-01-03 22:01:37.76	63.44	17.03	-53.0	-55.2	14.3	0.00e+00	0	29	0	505413632	71	4860
2026-01-03 22:01:40.61	64.07	17.10	-52.7	-54.8	14.5	0.00e+00	0	29	0	510656512	71	4629
2026-01-03 22:01:43.76	64.77	17.18	-53.0	-55.2	14.3	0.00e+00	0	29	0	516947968	71	4817
2026-01-03 22:01:46.62	65.41	17.24	-52.9	-55.0	14.4	0.00e+00	0	29	0	522190848	71	4756
2026-01-03 22:01:49.76	66.11	17.31	-52.4	-54.3	14.7	0.00e+00	0	29	0	528482304	71	4361
2026-01-03 22:01:52.62	66.76	17.36	-52.8	-54.9	14.5	0.00e+00	0	29	0	533725184	71	4676
2026-01-03 22:01:55.76	67.47	17.42	-52.7	-54.7	14.5	0.00e+00	0	29	0	538968064	71	4583
2026-01-03 22:01:58.61	68.12	17.47	-52.6	-54.6	14.6	0.00e+00	0	29	0	544210944	71	4525
2026-01-03 22:02:01.74	68.83	17.52	-53.6	-55.9	14.1	0.00e+00	0	29	0	550502400	72	4966
2026-01-03 22:02:04.59	69.48	17.56	-53.8	-56.2	13.9	0.00e+00	0	29	0	555745280	72	5133
2026-01-03 22:02:07.73	70.20	17.60	-53.8	-56.4	13.9	0.00e+00	0	29	0	562036736	73	4941
2026-01-03 22:02:10.58	70.86	17.64	-53.9	-56.4	13.9	0.00e+00	0	29	0	567279616	73	4944
2026-01-03 22:02:13.71	71.58	17.67	-53.3	-55.6	14.3	0.00e+00	0	29	0	572522496	73	4510
2026-01-03 22:02:16.57	72.24	17.70	-53.3	-55.5	14.3	0.00e+00	0	29	0	578813952	73	4492
2026-01-03 22:02:19.73	72.97	17.73	-53.0	-55.1	14.4	0.00e+00	0	29	0	584056832	72	4511
2026-01-03 22:02:22.59	73.63	17.75	-53.0	-55.2	14.4	0.00e+00	0	29	0	589299712	72	4551
2026-01-03 22:02:25.74	74.36	17.76	-53.3	-55.5	14.3	0.00e+00	0	29	0	595591168	72	4741
2026-01-03 22:02:28.60	75.03	17.78	-53.0	-55.2	14.4	0.00e+00	0	29	0	600834048	72	4553
2026-01-03 22:02:31.74	75.75	17.79	-53.4	-55.6	14.2	0.00e+00	0	29	0	607125504	72	4805
2026-01-03 22:02:34.59	76.42	17.79	-53.1	-55.4	14.3	0.00e+00	0	29	0	612368384	72	4656
2026-01-03 22:02:37.73	77.15	17.79	-52.7	-54.8	14.4	0.00e+00	0	29	0	617611264	71	4648
2026-01-03 22:02:40.59	77.81	17.79	-52.9	-55.1	14.3	0.00e+00	0	29	0	623902720	71	4795
2026-01-03 22:02:43.74	78.54	17.78	-53.3	-55.6	14.1	0.00e+00	0	29	0	629145600	71	5091
2026-01-03 22:02:46.61	79.21	17.77	-53.3	-55.7	14.1	0.00e+00	0	29	0	634388480	71	5109
2026-01-03 22:02:49.76	79.94	17.75	-53.6	-56.2	13.9	0.00e+00	0	29	0	640679936	72	5109
2026-01-03 22:02:52.61	80.60	17.73	-53.7	-56.3	13.8	0.00e+00	0	29	0	645922816	72	5196
2026-01-03 22:02:55.76	81.33	17.71	-53.5	-56.1	13.9	0.00e+00	0	29	0	652214272	72	5056
2026-01-03 22:02:58.60	81.99	17.68	-53.4	-55.9	14.1	0.00e+00	0	29	0	657457152	72	4935
2026-01-03 22:03:01.73	82.71	17.65	-52.8	-55.0	14.5	0.00e+00	0	29	0	662700032	72	4453
2026-01-03 22:03:04.59	83.37	17.61	-52.2	-54.2	14.7	0.00e+00	0	29	0	667942912	71	4319
2026-01-03 22:03:07.73	84.09	17.57	-52.5	-54.6	14.5	0.00e+00	0	29	0	674234368	71	4535
2026-01-03 22:03:10.58	84.74	17.53	-53.0	-55.2	14.3	0.00e+00	0	29	0	679477248	71	4854
2026-01-03 22:03:13.73	85.46	17.48	-53.4	-55.8	14.0	0.00e+00	0	29	0	685768704	71	5187
2026-01-03 22:03:16.57	86.11	17.43	-53.5	-55.9	14.0	0.00e+00	0	29	0	691011584	72	4954
2026-01-03 22:03:19.71	86.82	17.37	-53.0	-55.3	14.2	0.00e+00	0	29	0	696254464	72	4599
2026-01-03 22:03:22.58	87.47	17.32	-52.8	-54.8	14.5	0.00e+00	0	29	0	702545920	72	4387
2026-01-03 22:03:25.73	88.18	17.25	-52.9	-55.0	14.5	0.00e+00	0	29	0	707788800	72	4447
2026-01-03 22:03:28.57	88.81	17.19	-53.0	-55.1	14.4	0.00e+00	0	29	0	713031680	72	4531
2026-01-03 22:03:31.71	89.51	17.12	-52.9	-55.0	14.5	0.00e+00	0	29	0	719323136	72	4456
2026-01-03 22:03:34.57	90.15	17.05	-52.5	-54.5	14.6	0.00e+00	0	29	0	724566016	71	4444
2026-01-03 22:03:37.70	90.84	16.97	-52.7	-54.7	14.5	0.00e+00	0	29	0	730857472	71	4570
2026-01-03 22:03:40.57	91.47	16.89	-52.6	-54.7	14.6	0.00e+00	0	29	0	736100352	71	4546
2026-01-03 22:03:43.70	92.16	16.80	-52.3	-54.3	14.7	0.00e+00	0	29	0	741343232	71	4354
2026-01-03 22:03:46.56	92.78	16.72	-52.3	-54.2	14.8	0.00e+00	0	29	0	746586112	71	4299
2026-01-03 22:03:49.70	93.46	16.63	-52.4	-54.4	14.7	0.00e+00	0	29	0	752877568	71	4400
2026-01-03 22:03:52.57	94.08	16.54	-52.4	-54.3	14.7	0.00e+00	0	29	0	758120448	71	4381
2026-01-03 22:03:55.71	94.75	16.44	-52.4	-54.3	14.7	0.00e+00	0	29	0	764411904	71	4374
2026-01-03 22:03:58.58	95.36	16.34	-52.6	-54.6	14.6	0.00e+00	0	29	0	769654784	71	4510
2026-01-03 22:04:01.71	96.02	16.24	-52.8	-55.0	14.4	0.00e+00	0	29	0	775946240	71	4722
2026-01-03 22:04:04.56	96.62	16.14	-52.6	-54.6	14.5	0.00e+00	0	29	0	781189120	71	4542
2026-01-03 22:04:07.69	97.27	16.03	-52.2	-54.1	14.7	0.00e+00	0	29	0	786432000	71	4277
2026-01-03 22:04:10.53	97.86	15.92	-52.4	-54.4	14.5	0.00e+00	0	29	0	791674880	70	4701
2026-01-03 22:04:13.67	98.50	15.80	-52.6	-54.7	14.4	0.00e+00	0	29	0	797966336	70	4847
2026-01-03 22:04:16.52	99.09	15.69	-52.5	-54.5	14.5	0.00e+00	0	29	0	803209216	70	4729
2026-01-03 22:04:19.66	99.72	15.57	-52.8	-54.9	14.3	0.00e+00	0	29	0	809500672	70	4967
2026-01-03 22:04:22.50	100.29	15.46	-53.6	-56.1	13.9	0.00e+00	0	29	0	814743552	72	5086
2026-01-03 22:04:25.64	100.92	15.33	-53.3	-55.7	14.1	0.00e+00	0	29	0	819986432	72	4845
2026-01-03 22:04:28.50	101.48	15.21	-52.8	-55.0	14.3	0.00e+00	0	29	0	825229312	71	4739
2026-01-03 22:04:31.65	102.10	15.08	-52.4	-54.5	14.5	0.00e+00	0	29	0	831520768	71	4472
2026-01-03 22:04:34.50	102.66	14.95	-52.7	-54.9	14.4	0.00e+00	0	29	0	836763648	71	4657
2026-01-03 22:04:37.63	103.26	14.82	-53.0	-55.4	14.2	0.00e+00	0	29	0	843055104	71	4937
2026-01-03 22:04:40.48	103.80	14.69	-53.6	-56.2	13.9	0.00e+00	0	29	0	848297984	72	5106
2026-01-03 22:04:43.62	104.40	14.55	-54.0	-56.8	13.7	0.00e+00	0	29	0	853540864	73	5166
2026-01-03 22:04:46.48	104.94	14.42	-53.7	-56.4	13.9	0.00e+00	0	29	0	859832320	73	4944
2026-01-03 22:04:49.62	105.52	14.27	-53.4	-55.9	14.1	0.00e+00	0	29	0	865075200	73	4669
2026-01-03 22:04:52.48	106.05	14.14	-53.1	-55.6	14.2	0.00e+00	0	29	0	870318080	72	4765
2026-01-03 22:04:55.62	106.62	13.99	-53.0	-55.3	14.3	0.00e+00	0	29	0	876609536	72	4625
2026-01-03 22:04:58.48	107.14	13.86	-53.3	-55.7	14.1	0.00e+00	0	29	0	881852416	72	4861
2026-01-03 22:05:01.61	107.70	13.71	-53.6	-56.1	13.9	0.00e+00	0	29	0	888143872	72	5097
2026-01-03 22:05:04.46	108.21	13.57	-53.5	-56.0	14.0	0.00e+00	0	29	0	893386752	72	5011
2026-01-03 22:05:07.60	108.76	13.41	-53.5	-56.0	13.9	0.00e+00	0	29	0	898629632	72	5039
2026-01-03 22:05:10.45	109.26	13.27	-53.5	-56.0	14.0	0.00e+00	0	29	0	903872512	72	5034
2026-01-03 22:05:13.60	109.80	13.11	-53.3	-55.7	14.1	0.00e+00	0	29	0	910163968	72	4830
2026-01-03 22:05:16.45	110.29	12.97	-53.4	-55.8	14.1	0.00e+00	0	29	0	915406848	72	4923
2026-01-03 22:05:19.58	110.82	12.81	-53.7	-56.3	13.9	0.00e+00	0	29	0	921698304	72	5184
2026-01-03 22:05:22.43	111.30	12.66	-53.4	-55.8	14.0	0.00e+00	0	29	0	926941184	72	4920
2026-01-03 22:05:25.57	111.82	12.50	-52.7	-54.9	14.4	0.00e+00	0	29	0	932184064	71	4671
2026-01-03 22:05:28.44	112.29	12.35	-52.7	-55.0	14.4	0.00e+00	0	29	0	938475520	71	4723
2026-01-03 22:05:31.58	112.80	12.19	-53.1	-55.4	14.2	0.00e+00	0	29	0	943718400	71	4939
2026-01-03 22:05:34.43	113.26	12.04	-52.8	-54.9	14.4	0.00e+00	0	29	0	948961280	71	4697
2026-01-03 22:05:37.57	113.76	11.88	-52.7	-54.9	14.4	0.00e+00	0	29	0	955252736	71	4657
2026-01-03 22:05:40.42	114.21	11.73	-52.9	-55.1	14.3	0.00e+00	0	29	0	960495616	71	4796
2026-01-03 22:05:43.57	114.70	11.56	-52.9	-55.0	14.4	0.00e+00	0	29	0	966787072	71	4748
2026-01-03 22:05:46.41	115.14	11.41	-52.4	-54.4	14.6	0.00e+00	0	29	0	972029952	71	4425
2026-01-03 22:05:49.55	115.62	11.24	-52.3	-54.1	14.8	0.00e+00	0	29	0	977272832	71	4247
2026-01-03 22:05:52.42	116.05	11.08	-52.6	-54.4	14.6	0.00e+00	0	29	0	983564288	71	4409
2026-01-03 22:05:55.57	116.52	10.92	-52.9	-54.8	14.5	0.00e+00	0	29	0	988807168	71	4644
2026-01-03 22:05:58.43	116.95	10.76	-52.7	-54.6	14.5	0.00e+00	0	29	0	994050048	71	4509
2026-01-03 22:06:01.57	117.41	10.59	-53.0	-54.9	14.4	0.00e+00	0	29	0	1000341504	71	4678
2026-01-03 22:06:04.43	117.82	10.44	-53.2	-55.3	14.3	0.00e+00	0	29	0	1005584384	71	4880
2026-01-03 22:06:07.58	118.27	10.26	-53.3	-55.4	14.2	0.00e+00	0	29	0	1011875840	72	4692
2026-01-03 22:06:10.43	118.68	10.11	-53.1	-55.2	14.3	0.00e+00	0	29	0	1017118720	72	4555
2026-01-03 22:06:13.57	119.12	9.94	-52.8	-54.7	14.6	0.00e+00	0	29	0	1022361600	72	4298
2026-01-03 22:06:16.42	119.51	9.78	-53.2	-55.2	14.3	0.00e+00	0	29	0	1027604480	72	4590
2026-01-03 22:06:19.58	119.95	9.61	-53.7	-56.0	14.0	0.00e+00	0	29	0	1033895936	72	4987
2026-01-03 22:06:22.44	120.34	9.45	-53.8	-56.1	14.0	0.00e+00	0	29	0	1039138816	73	4803
2026-01-03 22:06:25.58	120.76	9.28	-53.4	-55.6	14.2	0.00e+00	0	29	0	1045430272	73	4524
2026-01-03 22:06:28.45	121.14	9.12	-53.5	-55.7	14.1	0.00e+00	0	29	0	1050673152	73	4588
2026-01-03 22:06:31.60	121.55	8.95	-53.8	-56.0	14.0	0.00e+00	0	29	0	1056964608	73	4757
2026-01-03 22:06:34.45	121.92	8.79	-53.8	-56.1	14.0	0.00e+00	0	29	0	1062207488	73	4793
2026-01-03 22:06:37.60	122.33	8.62	-53.8	-56.2	13.9	0.00e+00	0	29	0	1067450368	73	4818
2026-01-03 22:06:40.46	122.69	8.46	-54.0	-56.5	13.7	0.00e+00	0	29	0	1072693248	73	5022
2026-01-03 22:06:43.61	123.09	8.29	-54.5	-57.2	13.4	0.00e+00	0	29	0	1078984704	74	5152
2026-01-03 22:06:46.47	123.44	8.13	-54.2	-56.8	13.6	0.00e+00	0	29	0	1084227584	74	4909
2026-01-03 22:06:49.62	123.83	7.96	-53.9	-56.3	13.8	0.00e+00	0	29	0	1090519040	74	4626
2026-01-03 22:06:52.47	124.18	7.80	-53.4	-55.6	14.1	0.00e+00	0	29	0	1095761920	73	4513
2026-01-03 22:06:55.63	124.56	7.63	-53.6	-55.9	14.0	0.00e+00	0	29	0	1102053376	73	4656
2026-01-03 22:06:58.49	124.90	7.47	-54.0	-56.5	13.6	0.00e+00	0	29	0	1107296256	73	5025
2026-01-03 22:07:01.63	125.27	7.30	-54.3	-56.9	13.4	0.00e+00	0	29	0	1112539136	73	5269
2026-01-03 22:07:04.49	125.60	7.15	-54.0	-56.6	13.6	0.00e+00	0	29	0	1117782016	73	5060
2026-01-03 22:07:07.62	125.96	6.97	-53.6	-55.9	13.9	0.00e+00	0	29	0	1124073472	73	4683
2026-01-03 22:07:10.47	126.29	6.82	-53.6	-56.0	13.9	0.00e+00	0	29	0	1129316352	73	4706
2026-01-03 22:07:13.61	126.64	6.65	-54.0	-56.6	13.5	0.00e+00	0	29	0	1135607808	73	5055
2026-01-03 22:07:16.47	126.96	6.49	-54.4	-57.2	13.3	0.00e+00	0	29	0	1140850688	74	5151
2026-01-03 22:07:19.60	127.31	6.32	-54.5	-57.4	13.1	0.00e+00	0	29	0	1146093568	74	5262
2026-01-03 22:07:22.46	127.62	6.17	-54.6	-57.5	13.1	0.00e+00	0	29	0	1152385024	74	5316
2026-01-03 22:07:25.61	127.96	6.00	-54.6	-57.5	13.1	0.00e+00	0	29	0	1157627904	74	5309
2026-01-03 22:07:28.46	128.27	5.84	-55.0	-58.3	12.6	0.00e+00	0	29	0	1162870784	75	5503
2026-01-03 22:07:31.61	128.60	5.67	-55.5	-59.1	12.2	2.20e-06	0	29	0	1169162240	76	5711
2026-01-03 22:07:34.46	128.90	5.52	-55.3	-58.8	12.3	7.00e-07	0	29	0	1174405120	76	5502
2026-01-03 22:07:37.60	129.23	5.35	-55.0	-58.3	12.7	0.00e+00	0	29	0	1180696576	76	5208
2026-01-03 22:07:40.47	129.52	5.19	-54.9	-58.0	12.8	0.00e+00	0	29	0	1185939456	76	5031
2026-01-03 22:07:43.61	129.84	5.03	-54.6	-57.7	12.9	0.00e+00	0	29	0	1191182336	75	5109
2026-01-03 22:07:46.47	130.13	4.87	-59.3	-75.3	3.8	1.49e+00	0	29	104	1193279488	83	24558
2026-01-03 22:07:49.61	130.44	4.71	-60.1	-76.2	3.8	1.49e+00	0	29	104	1193279488	85	24210
2026-01-03 22:07:52.46	130.72	4.55	-60.5	-76.6	3.8	1.49e+00	0	29	104	1193279488	86	23926
2026-01-03 22:07:55.61	131.03	4.39	-60.8	-76.8	3.8	1.49e+00	0	29	104	1193279488	86	24683
2026-01-03 22:07:58.47	131.30	4.23	-61.0	-77.0	3.8	1.49e+00	0	29	104	1193279488	87	23836
2026-01-03 22:08:01.61	131.60	4.07	-61.2	-77.3	3.8	1.49e+00	0	29	104	1193279488	87	24484
2026-01-03 22:08:04.48	131.87	3.92	-61.3	-77.4	3.8	1.49e+00	0	29	104	1193279488	87	24926
2026-01-03 22:08:07.61	132.16	3.75	-61.3	-77.4	3.8	1.49e+00	0	29	104	1193279488	87	24945
2026-01-03 22:08:10.47	132.43	3.60	-61.3	-77.4	3.8	1.49e+00	0	29	104	1193279488	87	24962
2026-01-03 22:08:13.60	132.71	3.44	-61.3	-77.4	3.8	1.49e+00	0	29	104	1193279488	87	24827
2026-01-03 22:08:16.45	132.97	3.29	-61.2	-77.3	3.8	1.49e+00	0	29	104	1193279488	87	24634
2026-01-03 22:08:19.58	133.25	3.12	-61.2	-77.3	3.8	1.49e+00	0	29	104	1193279488	87	24677
2026-01-03 22:08:22.44	133.51	2.98	-61.2	-77.3	3.8	1.49e+00	0	29	104	1193279488	87	24555
2026-01-03 22:08:25.57	133.78	2.81	-61.2	-77.3	3.8	1.49e+00	0	29	104	1193279488	87	24542
2026-01-03 22:08:28.44	134.03	2.66	-61.1	-77.3	3.8	1.49e+00	0	29	104	1193279488	87	24411
2026-01-03 22:08:31.59	134.30	2.50	-61.1	-77.2	3.8	1.49e+00	0	29	104	1193279488	87	24393
2026-01-03 22:08:34.45	134.55	2.35	-61.1	-77.2	3.8	1.49e+00	0	29	104	1193279488	87	24278
2026-01-03 22:08:37.60	134.81	2.19	-61.1	-77.2	3.8	1.49e+00	0	29	104	1193279488	87	24276
2026-01-03 22:08:40.46	135.05	2.05	-61.1	-77.2	3.8	1.49e+00	0	29	104	1193279488	87	24255

#Closed at: 2026-01-03 22:08:42
#Recorded file [1193 MB]: D:/lorett/data/31004_260104_005628.dat