passes_logs/2026/01/03/R3.2S_Murmansk/R3.2S_Murmansk__20260103_074413_NOAA_21_JPSS-2_rec.log

#Pass ID: 20260103_074413_NOAA 21 (JPSS-2)
#Satellite: NOAA 21 (JPSS-2)
#Configuration: NOAA-21
#almurnet v.1.7.20251203
#Start time: 2026-01-03 07:44:13

#Version: 2.2.20231116
#Station: R3.2S_Murmansk
#Location: 33.079688 lon 68.888172 lat
#TLE: 1 54234U 22150A   26002.88923379  .00000185  00000+0  10883-3 0  9993
#TLE: 2 54234  98.7486 303.9362 0001189 349.0578  11.0572 14.19531433163092

#Time	Az	El	Level	Level2	SNR	BER	BlckErr	Temp	State	Recorded	gain1	gain2
2026-01-03 07:44:13.85	110.58	2.04	-59.9	-73.2	3.8	1.49e+00	0	28	0	0	86	16234
2026-01-03 07:44:17.84	110.43	2.29	-59.9	-73.2	3.8	1.49e+00	0	29	104	0	84	18120
2026-01-03 07:44:21.84	110.27	2.54	-59.9	-73.2	3.8	1.49e+00	0	29	104	0	84	18103
2026-01-03 07:44:25.85	110.11	2.79	-59.9	-73.0	3.8	1.49e+00	0	29	104	0	84	17816
2026-01-03 07:44:29.86	109.94	3.05	-59.9	-73.0	3.8	1.49e+00	0	29	104	0	84	17885
2026-01-03 07:44:33.85	109.77	3.30	-59.9	-73.0	3.8	1.49e+00	0	29	104	0	84	17703
2026-01-03 07:44:37.85	109.60	3.56	-59.9	-72.9	3.8	1.49e+00	0	29	104	0	84	17603
2026-01-03 07:44:41.83	109.43	3.82	-59.9	-73.1	3.8	1.49e+00	0	29	104	0	85	17060
2026-01-03 07:44:45.81	109.25	4.08	-59.6	-69.7	4.0	1.47e+00	0	29	104	0	85	11537
2026-01-03 07:44:49.80	109.07	4.34	-58.9	-65.3	6.4	2.75e-01	0	30	0	6291456	84	7304
2026-01-03 07:44:53.79	108.89	4.61	-58.0	-62.6	8.5	2.75e-02	0	30	0	18874368	82	6041
2026-01-03 07:44:57.77	108.70	4.88	-57.3	-60.9	9.9	2.50e-03	0	30	0	31457280	81	5268
2026-01-03 07:45:01.76	108.51	5.15	-55.3	-57.2	12.8	1.04e-04	0	30	0	44040192	77	4333
2026-01-03 07:45:05.76	108.31	5.42	-54.2	-55.8	13.6	0.00e+00	0	30	0	54525952	75	4100
2026-01-03 07:45:09.74	108.11	5.70	-53.9	-55.3	13.8	0.00e+00	0	30	0	67108864	74	4141
2026-01-03 07:45:13.75	107.91	5.98	-53.8	-55.2	13.8	0.00e+00	0	30	0	78643200	74	4095
2026-01-03 07:45:17.75	107.70	6.26	-53.6	-54.9	14.0	0.00e+00	0	30	0	91226112	73	4179
2026-01-03 07:45:21.75	107.49	6.54	-53.4	-54.6	14.2	0.00e+00	0	30	0	103809024	73	4042
2026-01-03 07:45:25.73	107.27	6.83	-53.3	-54.5	14.2	0.00e+00	0	30	0	116391936	72	4225
2026-01-03 07:45:29.73	107.05	7.12	-53.2	-54.4	14.2	0.00e+00	0	30	0	128974848	72	4186
2026-01-03 07:45:33.73	106.83	7.41	-53.0	-54.2	14.3	0.00e+00	0	30	0	141557760	72	4097
2026-01-03 07:45:37.71	106.60	7.71	-53.0	-54.2	14.4	0.00e+00	0	30	0	154140672	72	4085
2026-01-03 07:45:41.70	106.36	8.00	-52.9	-54.0	14.5	0.00e+00	0	30	0	166723584	72	3992
2026-01-03 07:45:45.69	106.12	8.31	-52.8	-54.0	14.5	0.00e+00	0	30	0	179306496	72	3965
2026-01-03 07:45:49.68	105.87	8.61	-52.5	-53.5	14.7	0.00e+00	0	30	0	190840832	71	4004
2026-01-03 07:45:53.67	105.62	8.92	-52.4	-53.5	14.7	0.00e+00	0	30	0	203423744	71	3962
2026-01-03 07:45:57.64	105.37	9.23	-52.0	-53.0	14.8	0.00e+00	0	30	0	216006656	70	4002
2026-01-03 07:46:01.64	105.10	9.54	-52.0	-53.0	14.8	0.00e+00	0	30	0	228589568	70	3985
2026-01-03 07:46:05.62	104.84	9.86	-52.1	-53.2	14.8	0.00e+00	0	30	0	241172480	70	4055
2026-01-03 07:46:09.61	104.56	10.18	-52.1	-53.2	14.8	0.00e+00	0	30	0	253755392	70	4064
2026-01-03 07:46:13.60	104.28	10.50	-51.9	-52.9	14.9	0.00e+00	0	30	0	266338304	70	3942
2026-01-03 07:46:17.57	103.99	10.83	-51.8	-52.8	15.0	0.00e+00	0	30	0	278921216	70	3871
2026-01-03 07:46:21.57	103.70	11.16	-51.6	-52.5	15.0	0.00e+00	0	30	0	291504128	69	4004
2026-01-03 07:46:25.55	103.40	11.50	-51.4	-52.3	15.1	0.00e+00	0	30	0	303038464	69	3906
2026-01-03 07:46:29.53	103.09	11.84	-51.4	-52.3	15.1	0.00e+00	0	30	0	315621376	69	3874
2026-01-03 07:46:33.52	102.77	12.18	-51.3	-52.2	15.1	0.00e+00	0	31	0	328204288	69	3854
2026-01-03 07:46:37.49	102.45	12.52	-51.4	-52.3	15.1	0.00e+00	0	30	0	340787200	69	3893
2026-01-03 07:46:41.48	102.12	12.87	-51.5	-52.4	15.1	0.00e+00	0	30	0	353370112	69	3918
2026-01-03 07:46:45.47	101.77	13.23	-51.1	-51.9	15.2	0.00e+00	0	30	0	365953024	68	3954
2026-01-03 07:46:49.47	101.42	13.59	-51.0	-51.8	15.3	0.00e+00	0	31	0	378535936	68	3885
2026-01-03 07:46:53.46	101.07	13.95	-51.0	-51.9	15.2	0.00e+00	0	30	0	391118848	68	3927
2026-01-03 07:46:57.42	100.70	14.32	-51.1	-52.0	15.2	0.00e+00	0	31	0	402653184	68	3970
2026-01-03 07:47:01.42	100.32	14.69	-51.1	-52.0	15.2	0.00e+00	0	31	0	415236096	68	3959
2026-01-03 07:47:05.42	99.93	15.07	-51.1	-52.0	15.2	0.00e+00	0	30	0	427819008	68	3976
2026-01-03 07:47:09.42	99.54	15.45	-51.1	-51.9	15.2	0.00e+00	0	30	0	440401920	68	3944
2026-01-03 07:47:13.42	99.13	15.84	-51.3	-52.1	15.1	0.00e+00	0	31	0	452984832	68	4047
2026-01-03 07:47:17.41	98.71	16.23	-51.3	-52.1	15.2	0.00e+00	0	30	0	465567744	68	4041
2026-01-03 07:47:21.41	98.28	16.62	-51.2	-52.1	15.2	0.00e+00	0	31	0	478150656	68	4022
2026-01-03 07:47:25.41	97.83	17.02	-51.4	-52.2	15.1	0.00e+00	0	31	0	490733568	68	4084
2026-01-03 07:47:29.40	97.38	17.43	-51.3	-52.1	15.1	0.00e+00	0	31	0	503316480	68	4041
2026-01-03 07:47:33.40	96.91	17.84	-51.2	-52.0	15.2	0.00e+00	0	30	0	515899392	68	3999
2026-01-03 07:47:37.40	96.43	18.25	-51.5	-52.4	15.0	0.00e+00	0	31	0	528482304	68	4180
2026-01-03 07:47:41.40	95.93	18.67	-51.5	-52.4	15.1	0.00e+00	0	31	0	541065216	68	4173
2026-01-03 07:47:45.39	95.43	19.10	-51.1	-51.9	15.2	0.00e+00	0	31	0	552599552	68	3956
2026-01-03 07:47:49.40	94.90	19.53	-51.1	-51.9	15.2	0.00e+00	0	31	0	565182464	68	3949
2026-01-03 07:47:53.40	94.36	19.96	-51.0	-51.8	15.3	0.00e+00	0	30	0	577765376	68	3888
2026-01-03 07:47:57.40	93.81	20.40	-50.9	-51.7	15.3	0.00e+00	0	31	0	590348288	68	3837
2026-01-03 07:48:01.41	93.23	20.85	-50.9	-51.7	15.3	0.00e+00	0	31	0	602931200	68	3844
2026-01-03 07:48:05.41	92.64	21.30	-50.5	-51.2	15.4	0.00e+00	0	31	0	615514112	67	3866
2026-01-03 07:48:09.40	92.04	21.75	-50.3	-51.1	15.4	0.00e+00	0	31	0	628097024	67	3785
2026-01-03 07:48:13.41	91.41	22.21	-50.2	-50.9	15.5	0.00e+00	0	31	0	640679936	67	3733
2026-01-03 07:48:17.41	90.77	22.67	-49.9	-50.6	15.5	0.00e+00	0	31	0	653262848	66	3820
2026-01-03 07:48:21.42	90.10	23.14	-50.1	-50.8	15.5	0.00e+00	0	31	0	665845760	66	3891
2026-01-03 07:48:25.42	89.41	23.61	-49.9	-50.6	15.6	0.00e+00	0	31	0	678428672	66	3824
2026-01-03 07:48:29.43	88.71	24.09	-49.9	-50.6	15.6	0.00e+00	0	31	0	691011584	66	3820
2026-01-03 07:48:33.45	87.98	24.57	-49.9	-50.6	15.6	0.00e+00	0	31	0	703594496	66	3819
2026-01-03 07:48:37.45	87.22	25.05	-50.1	-50.8	15.5	0.00e+00	0	31	0	716177408	66	3884
2026-01-03 07:48:41.44	86.45	25.53	-50.4	-51.2	15.4	0.00e+00	0	31	0	727711744	66	4078
2026-01-03 07:48:45.45	85.65	26.02	-50.4	-51.2	15.4	0.00e+00	0	30	0	740294656	66	4053
2026-01-03 07:48:49.44	84.83	26.51	-50.4	-51.2	15.3	0.00e+00	0	31	0	752877568	66	4076
2026-01-03 07:48:53.46	83.97	27.01	-50.7	-51.5	15.3	0.00e+00	0	30	0	765460480	66	4208
2026-01-03 07:48:57.46	83.09	27.50	-50.6	-51.4	15.3	0.00e+00	0	31	0	778043392	66	4158
2026-01-03 07:49:01.45	82.19	28.00	-51.2	-52.0	15.1	0.00e+00	0	31	0	790626304	67	4231
2026-01-03 07:49:05.47	81.25	28.50	-51.0	-51.8	15.2	0.00e+00	0	31	0	803209216	67	4139
2026-01-03 07:49:09.46	80.29	28.99	-50.7	-51.5	15.3	0.00e+00	0	31	0	815792128	67	3968
2026-01-03 07:49:13.48	79.29	29.49	-50.9	-51.6	15.3	0.00e+00	0	31	0	828375040	67	4048
2026-01-03 07:49:17.48	78.26	29.99	-51.3	-52.2	15.1	0.00e+00	0	31	0	840957952	67	4296
2026-01-03 07:49:21.49	77.20	30.48	-51.6	-52.4	15.1	0.00e+00	0	31	0	853540864	68	4191
2026-01-03 07:49:25.50	76.11	30.97	-51.1	-51.9	15.3	0.00e+00	0	31	0	866123776	68	3938
2026-01-03 07:49:29.51	74.98	31.46	-51.1	-51.8	15.3	0.00e+00	0	31	0	878706688	68	3909
2026-01-03 07:49:33.52	73.82	31.94	-51.0	-51.8	15.4	0.00e+00	0	31	0	891289600	68	3899
2026-01-03 07:49:37.51	72.62	32.41	-50.9	-51.7	15.4	0.00e+00	0	31	0	902823936	68	3842
2026-01-03 07:49:41.50	71.40	32.88	-51.2	-52.0	15.3	0.00e+00	0	31	0	915406848	68	4002
2026-01-03 07:49:45.52	70.13	33.34	-51.3	-52.1	15.2	0.00e+00	0	31	0	927989760	68	4030
2026-01-03 07:49:49.51	68.83	33.78	-51.7	-52.5	15.1	0.00e+00	0	31	0	940572672	68	4239
2026-01-03 07:49:53.51	67.49	34.22	-51.5	-52.4	15.2	0.00e+00	0	31	0	953155584	68	4155
2026-01-03 07:49:57.52	66.11	34.65	-51.8	-52.7	15.1	0.00e+00	0	31	0	965738496	68	4295
2026-01-03 07:50:01.51	64.71	35.06	-52.1	-53.1	15.0	0.00e+00	0	31	0	978321408	69	4256
2026-01-03 07:50:05.51	63.26	35.46	-51.6	-52.4	15.2	0.00e+00	0	31	0	990904320	69	3932
2026-01-03 07:50:09.51	61.78	35.84	-52.2	-53.1	15.0	0.00e+00	0	31	0	1003487232	69	4266
2026-01-03 07:50:13.51	60.27	36.20	-52.6	-53.6	14.8	0.00e+00	0	31	0	1016070144	70	4286
2026-01-03 07:50:17.51	58.72	36.54	-52.5	-53.5	14.9	0.00e+00	0	31	0	1028653056	70	4228
2026-01-03 07:50:21.50	57.15	36.86	-52.5	-53.5	14.9	0.00e+00	0	31	0	1041235968	70	4197
2026-01-03 07:50:25.51	55.53	37.16	-52.3	-53.2	15.0	0.00e+00	0	31	0	1053818880	70	4072
2026-01-03 07:50:29.52	53.89	37.44	-52.4	-53.3	15.0	0.00e+00	0	31	0	1065353216	70	4140
2026-01-03 07:50:33.52	52.22	37.68	-52.7	-53.7	14.8	0.00e+00	0	30	0	1077936128	70	4305
2026-01-03 07:50:37.53	50.53	37.91	-52.8	-53.9	14.8	0.00e+00	0	31	0	1090519040	71	4146
2026-01-03 07:50:41.51	48.83	38.10	-52.5	-53.4	15.0	0.00e+00	0	31	0	1103101952	71	3958
2026-01-03 07:50:45.53	47.09	38.27	-52.5	-53.5	15.0	0.00e+00	0	31	0	1115684864	71	3970
2026-01-03 07:50:49.52	45.35	38.41	-53.1	-54.2	14.7	0.00e+00	0	31	0	1128267776	71	4293
2026-01-03 07:50:53.52	43.59	38.52	-52.9	-53.9	14.7	0.00e+00	0	31	0	1140850688	71	4173
2026-01-03 07:50:57.53	41.81	38.59	-52.7	-53.6	14.9	0.00e+00	0	31	0	1153433600	71	4042
2026-01-03 07:51:01.55	40.03	38.64	-52.9	-53.9	14.8	0.00e+00	0	31	0	1166016512	71	4188
2026-01-03 07:51:05.56	38.24	38.65	-53.0	-54.1	14.7	0.00e+00	0	31	0	1178599424	71	4249
2026-01-03 07:51:09.56	36.47	38.64	-52.7	-53.7	14.9	0.00e+00	0	31	0	1191182336	71	4080
2026-01-03 07:51:13.57	34.69	38.59	-52.9	-54.0	14.8	0.00e+00	0	31	0	1203765248	71	4195
2026-01-03 07:51:17.59	32.91	38.51	-53.1	-54.1	14.6	0.00e+00	0	31	0	1216348160	71	4290
2026-01-03 07:51:21.61	31.14	38.40	-52.6	-53.5	14.9	0.00e+00	0	30	0	1228931072	71	4003
2026-01-03 07:51:25.61	29.40	38.25	-52.3	-53.3	15.1	0.00e+00	0	31	0	1241513984	71	3875
2026-01-03 07:51:29.62	27.67	38.08	-52.4	-53.3	15.0	0.00e+00	0	31	0	1254096896	70	4141
2026-01-03 07:51:33.62	25.96	37.89	-52.4	-53.4	14.9	0.00e+00	0	31	0	1266679808	70	4164
2026-01-03 07:51:37.64	24.27	37.66	-53.2	-54.3	14.6	0.00e+00	0	31	0	1278214144	71	4347
2026-01-03 07:51:41.64	22.61	37.41	-53.4	-54.5	14.6	0.00e+00	0	30	0	1291845632	72	4203
2026-01-03 07:51:45.67	20.96	37.13	-52.3	-53.2	15.1	0.00e+00	0	31	0	1303379968	71	3829
2026-01-03 07:51:49.68	19.35	36.82	-53.2	-54.2	14.6	0.00e+00	0	31	0	1315962880	71	4328
2026-01-03 07:51:53.69	17.78	36.50	-51.6	-52.4	15.2	0.00e+00	0	31	0	1328545792	69	3943
2026-01-03 07:51:57.72	16.22	36.15	-52.6	-53.5	14.9	0.00e+00	0	31	0	1341128704	70	4213
2026-01-03 07:52:01.74	14.71	35.79	-52.3	-53.2	15.0	0.00e+00	0	31	0	1353711616	70	4069
2026-01-03 07:52:05.76	13.23	35.40	-52.4	-53.3	15.0	0.00e+00	0	31	0	1366294528	70	4133
2026-01-03 07:52:09.78	11.78	35.00	-51.9	-52.8	15.2	0.00e+00	0	31	0	1378877440	70	3899
2026-01-03 07:52:13.78	10.38	34.59	-52.7	-53.7	14.8	0.00e+00	0	31	0	1391460352	70	4294
2026-01-03 07:52:17.79	9.01	34.16	-51.5	-52.3	15.3	0.00e+00	0	31	0	1404043264	69	3902
2026-01-03 07:52:21.80	7.68	33.72	-51.9	-52.7	15.1	0.00e+00	0	31	0	1416626176	69	4092
2026-01-03 07:52:25.82	6.38	33.27	-51.7	-52.6	15.1	0.00e+00	0	31	0	1429209088	69	4023
2026-01-03 07:52:29.84	5.12	32.81	-51.7	-52.5	15.2	0.00e+00	0	31	0	1441792000	69	3987
2026-01-03 07:52:33.87	3.89	32.34	-50.5	-51.2	15.5	0.00e+00	0	31	0	1454374912	67	3851
2026-01-03 07:52:37.88	2.70	31.87	-50.4	-51.1	15.4	0.00e+00	0	31	0	1466957824	66	4011
2026-01-03 07:52:41.88	1.55	31.39	-50.7	-51.4	15.3	0.00e+00	0	31	0	1479540736	66	4192
2026-01-03 07:52:45.89	0.43	30.90	-50.6	-51.4	15.3	0.00e+00	0	31	0	1492123648	66	4149
2026-01-03 07:52:49.89	359.35	30.41	-51.2	-52.0	15.2	0.00e+00	0	31	0	1504706560	67	4240
2026-01-03 07:52:53.90	358.29	29.92	-50.8	-51.6	15.4	0.00e+00	0	31	0	1517289472	67	4005
2026-01-03 07:52:57.91	357.27	29.43	-50.7	-51.5	15.3	0.00e+00	0	31	0	1529872384	67	3983
2026-01-03 07:53:01.93	356.28	28.93	-50.7	-51.5	15.4	0.00e+00	0	31	0	1542455296	67	3976
2026-01-03 07:53:05.94	355.32	28.43	-50.8	-51.6	15.3	0.00e+00	0	31	0	1555038208	67	4031
2026-01-03 07:53:09.96	354.39	27.93	-50.7	-51.5	15.4	0.00e+00	0	31	0	1567621120	67	3979
2026-01-03 07:53:13.98	353.49	27.44	-50.3	-51.1	15.5	0.00e+00	0	31	0	1580204032	67	3785
2026-01-03 07:53:18.00	352.61	26.94	-50.9	-51.7	15.3	0.00e+00	0	31	0	1592786944	67	4080
2026-01-03 07:53:22.03	351.76	26.45	-50.6	-51.4	15.4	0.00e+00	0	31	0	1605369856	67	3932
2026-01-03 07:53:26.04	350.94	25.96	-50.0	-50.7	15.5	0.00e+00	0	31	0	1617952768	66	3847
2026-01-03 07:53:30.04	350.15	25.47	-50.7	-51.5	15.3	0.00e+00	0	31	0	1629487104	66	4221
2026-01-03 07:53:34.06	349.38	24.98	-51.1	-51.9	15.2	0.00e+00	0	31	0	1642070016	67	4174
2026-01-03 07:53:38.06	348.63	24.50	-50.6	-51.4	15.4	0.00e+00	0	31	0	1654652928	67	3932
2026-01-03 07:53:42.08	347.91	24.02	-50.5	-51.2	15.5	0.00e+00	0	31	0	1667235840	67	3861
2026-01-03 07:53:46.09	347.21	23.55	-50.4	-51.1	15.5	0.00e+00	0	31	0	1679818752	67	3812
2026-01-03 07:53:50.11	346.52	23.08	-50.2	-50.9	15.5	0.00e+00	0	31	0	1692401664	67	3726
2026-01-03 07:53:54.13	345.86	22.61	-50.3	-51.0	15.4	0.00e+00	0	30	0	1704984576	66	3990
2026-01-03 07:53:58.14	345.22	22.15	-50.5	-51.3	15.3	0.00e+00	0	30	0	1717567488	66	4102
2026-01-03 07:54:02.16	344.60	21.69	-50.5	-51.2	15.3	0.00e+00	0	31	0	1730150400	66	4094
2026-01-03 07:54:06.19	344.00	21.24	-50.4	-51.1	15.4	0.00e+00	0	31	0	1742733312	66	4051
2026-01-03 07:54:10.18	343.41	20.79	-50.7	-51.4	15.3	0.00e+00	0	31	0	1755316224	66	4183
2026-01-03 07:54:14.19	342.85	20.35	-50.6	-51.4	15.3	0.00e+00	0	31	0	1767899136	66	4181
2026-01-03 07:54:18.21	342.29	19.91	-50.7	-51.5	15.2	0.00e+00	0	31	0	1780482048	66	4238
2026-01-03 07:54:22.23	341.76	19.48	-50.9	-51.7	15.2	0.00e+00	0	31	0	1793064960	67	4070
2026-01-03 07:54:26.24	341.24	19.05	-51.0	-51.9	15.2	0.00e+00	0	31	0	1805647872	67	4157
2026-01-03 07:54:30.25	340.73	18.62	-50.8	-51.5	15.3	0.00e+00	0	31	0	1818230784	67	4004
2026-01-03 07:54:34.26	340.24	18.21	-50.6	-51.4	15.3	0.00e+00	0	31	0	1830813696	67	3949
2026-01-03 07:54:38.27	339.76	17.79	-50.6	-51.4	15.3	0.00e+00	0	31	0	1843396608	67	3924
2026-01-03 07:54:42.30	339.30	17.38	-50.7	-51.4	15.3	0.00e+00	0	31	0	1855979520	67	3953
2026-01-03 07:54:46.30	338.85	16.98	-51.0	-51.8	15.2	0.00e+00	0	31	0	1868562432	67	4125
2026-01-03 07:54:50.32	338.40	16.58	-51.1	-52.0	15.1	0.00e+00	0	31	0	1881145344	67	4223
2026-01-03 07:54:54.34	337.98	16.18	-51.2	-52.0	15.1	0.00e+00	0	31	0	1893728256	67	4232
2026-01-03 07:54:58.35	337.56	15.79	-50.6	-51.4	15.3	0.00e+00	0	31	0	1906311168	67	3917
2026-01-03 07:55:02.37	337.15	15.41	-50.4	-51.2	15.4	0.00e+00	0	31	0	1918894080	67	3837
2026-01-03 07:55:06.40	336.76	15.02	-50.7	-51.5	15.3	0.00e+00	0	31	0	1931476992	67	3965
2026-01-03 07:55:10.41	336.37	14.65	-51.0	-51.8	15.2	0.00e+00	0	31	0	1944059904	67	4120
2026-01-03 07:55:14.43	336.00	14.27	-51.2	-52.1	15.0	0.00e+00	0	31	0	1956642816	67	4270
2026-01-03 07:55:18.45	335.63	13.91	-51.2	-52.1	15.0	0.00e+00	0	31	0	1969225728	67	4245
2026-01-03 07:55:22.47	335.28	13.54	-51.2	-52.1	15.0	0.00e+00	0	31	0	1981808640	67	4269
2026-01-03 07:55:26.49	334.93	13.18	-51.1	-52.0	15.0	0.00e+00	0	31	0	1993342976	67	4206
2026-01-03 07:55:30.51	334.59	12.83	-51.1	-51.9	15.0	0.00e+00	0	31	0	2006974464	67	4192
2026-01-03 07:55:34.52	334.26	12.48	-51.2	-52.1	15.0	0.00e+00	0	31	0	2018508800	67	4244
2026-01-03 07:55:38.53	333.94	12.13	-51.3	-52.2	14.9	0.00e+00	0	31	0	2031091712	67	4322
2026-01-03 07:55:42.54	333.62	11.79	-51.7	-52.6	14.9	0.00e+00	0	31	0	2043674624	68	4280
2026-01-03 07:55:46.57	333.32	11.45	-51.8	-52.7	14.9	0.00e+00	0	31	0	2056257536	68	4321
2026-01-03 07:55:50.59	333.02	11.11	-51.8	-52.8	14.9	0.00e+00	0	31	0	2068840448	69	4118
2026-01-03 07:55:54.62	332.72	10.78	-52.1	-53.2	14.7	0.00e+00	0	31	0	2081423360	69	4292
2026-01-03 07:55:58.64	332.44	10.45	-52.2	-53.2	14.7	0.00e+00	0	31	0	2094006272	69	4307
2026-01-03 07:56:02.66	332.16	10.12	-52.4	-53.5	14.6	0.00e+00	0	31	0	2106589184	70	4211
2026-01-03 07:56:06.68	331.89	9.80	-52.5	-53.5	14.6	0.00e+00	0	31	0	2119172096	70	4229
2026-01-03 07:56:10.69	331.62	9.49	-52.5	-53.6	14.5	0.00e+00	0	31	0	2131755008	70	4284
2026-01-03 07:56:14.71	331.36	9.17	-52.6	-53.8	14.5	0.00e+00	0	31	0	2144337920	70	4342
2026-01-03 07:56:18.72	331.11	8.86	-52.8	-53.9	14.4	0.00e+00	0	30	0	2156920832	70	4427
2026-01-03 07:56:22.74	330.86	8.55	-52.9	-54.1	14.3	0.00e+00	0	31	0	2169503744	70	4508
2026-01-03 07:56:26.77	330.61	8.25	-53.0	-54.2	14.3	0.00e+00	0	31	0	2182086656	71	4317
2026-01-03 07:56:30.78	330.38	7.95	-53.0	-54.2	14.2	0.00e+00	0	31	0	2194669568	71	4330
2026-01-03 07:56:34.79	330.14	7.65	-53.2	-54.4	14.1	0.00e+00	0	30	0	2207252480	71	4440
2026-01-03 07:56:38.81	329.92	7.36	-53.2	-54.5	14.1	0.00e+00	0	31	0	2219835392	71	4460
2026-01-03 07:56:42.82	329.69	7.06	-53.2	-54.4	14.1	0.00e+00	0	31	0	2232418304	71	4433
2026-01-03 07:56:46.82	329.48	6.78	-53.2	-54.5	14.1	0.00e+00	0	31	0	2245001216	71	4449
2026-01-03 07:56:50.83	329.26	6.49	-53.3	-54.6	14.0	0.00e+00	0	31	0	2257584128	71	4539
2026-01-03 07:56:54.85	329.05	6.20	-53.3	-54.6	14.0	0.00e+00	0	31	0	2270167040	72	4252
2026-01-03 07:56:58.86	328.85	5.92	-53.3	-54.6	14.0	0.00e+00	0	31	0	2282749952	72	4282
2026-01-03 07:57:02.89	328.65	5.64	-53.4	-54.8	13.9	0.00e+00	0	31	0	2295332864	72	4345
2026-01-03 07:57:06.90	328.45	5.37	-53.5	-54.9	13.8	0.00e+00	0	31	0	2307915776	72	4393
2026-01-03 07:57:10.92	328.26	5.10	-53.4	-54.8	13.9	0.00e+00	0	30	0	2320498688	72	4349
2026-01-03 07:57:14.92	328.07	4.83	-60.8	-74.1	3.8	1.49e+00	0	31	104	2326790144	86	18057
2026-01-03 07:57:18.94	327.89	4.56	-61.5	-74.8	3.8	1.49e+00	0	31	104	2326790144	88	17481
2026-01-03 07:57:22.95	327.70	4.29	-61.8	-75.2	3.8	1.49e+00	0	31	104	2326790144	88	18147
2026-01-03 07:57:26.97	327.53	4.03	-61.9	-75.3	3.8	1.49e+00	0	31	104	2326790144	89	17450
2026-01-03 07:57:30.98	327.35	3.77	-62.0	-75.4	3.8	1.49e+00	0	31	104	2326790144	89	17531
2026-01-03 07:57:35.03	327.18	3.50	-62.0	-75.4	3.8	1.49e+00	0	31	104	2326790144	89	17542
2026-01-03 07:57:38.97	327.02	3.25	-61.9	-75.3	3.8	1.49e+00	0	31	104	2326790144	89	17359
2026-01-03 07:57:42.98	326.85	3.00	-61.9	-75.3	3.8	1.49e+00	0	31	104	2326790144	89	17310
2026-01-03 07:57:46.99	326.69	2.74	-61.9	-75.2	3.8	1.49e+00	0	31	104	2326790144	89	17194
2026-01-03 07:57:51.00	326.53	2.49	-61.8	-75.2	3.8	1.49e+00	0	31	104	2326790144	89	17205
2026-01-03 07:57:55.01	326.38	2.24	-61.8	-75.2	3.8	1.49e+00	0	31	104	2326790144	89	17175
2026-01-03 07:57:59.02	326.22	2.00	-61.8	-75.2	3.8	1.49e+00	0	31	104	2326790144	89	17134

#Closed at: 2026-01-03 07:58:01
#Recorded file [2326 MB]: D:/lorett/data/31004_260103_104413.dat