passes_logs/2026/01/03/R3.2S_Murmansk/R3.2S_Murmansk__20260103_031619_SUOMI_NPP_rec.log

#Pass ID: 20260103_031619_SUOMI NPP
#Satellite: SUOMI NPP
#Configuration: NPP
#almurnet v.1.7.20251203
#Start time: 2026-01-03 03:16:19

#Version: 2.2.20231116
#Station: R3.2S_Murmansk
#Location: 33.079688 lon 68.888172 lat
#TLE: 1 37849U 11061A   26001.07732418  .00000182  00000+0  10735-3 0  9990
#TLE: 2 37849  98.7795 303.2470 0002580  87.2016 272.9455 14.19520779734739

#Time	Az	El	Level	Level2	SNR	BER	BlckErr	Temp	State	Recorded	gain1	gain2
2026-01-03 03:16:19.51	39.38	1.98	-59.7	-75.3	3.8	1.49e+00	0	29	0	0	86	20641
2026-01-03 03:16:23.50	39.18	2.22	-59.7	-75.3	3.8	1.49e+00	0	29	104	0	84	23162
2026-01-03 03:16:27.49	38.97	2.46	-59.8	-75.3	3.8	1.49e+00	0	29	104	0	84	23144
2026-01-03 03:16:31.50	38.77	2.70	-59.7	-75.3	3.8	1.49e+00	0	29	104	0	84	23092
2026-01-03 03:16:35.49	38.56	2.94	-59.7	-75.2	3.8	1.49e+00	0	29	104	0	84	22925
2026-01-03 03:16:39.48	38.34	3.19	-59.7	-75.3	3.8	1.49e+00	0	29	104	0	84	23094
2026-01-03 03:16:43.48	38.13	3.43	-59.8	-75.3	3.8	1.49e+00	0	29	104	0	84	23114
2026-01-03 03:16:47.49	37.90	3.68	-59.8	-75.3	3.8	1.49e+00	0	30	104	0	84	23101
2026-01-03 03:16:51.49	37.68	3.93	-59.8	-75.1	3.8	1.49e+00	0	30	104	0	84	22706
2026-01-03 03:16:55.49	37.45	4.19	-59.7	-73.7	3.8	1.49e+00	0	30	104	0	84	19278
2026-01-03 03:16:59.50	37.21	4.44	-59.5	-70.9	4.5	1.26e+00	20	30	0	0	84	13929
2026-01-03 03:17:03.50	36.97	4.70	-59.2	-68.3	5.8	3.83e-01	0	30	0	8388608	84	10383
2026-01-03 03:17:07.50	36.73	4.96	-59.2	-68.0	5.9	2.83e-01	0	30	0	15728640	84	10012
2026-01-03 03:17:11.50	36.48	5.22	-59.1	-67.7	6.2	1.15e-03	0	30	0	23068672	83	10254
2026-01-03 03:17:15.51	36.23	5.48	-57.7	-62.3	10.7	5.71e-04	0	30	0	27262976	82	5822
2026-01-03 03:17:19.50	35.97	5.75	-56.6	-59.9	12.4	1.50e-06	0	30	0	34603008	79	5264
2026-01-03 03:17:23.50	35.71	6.01	-56.4	-59.5	12.8	0.00e+00	0	30	0	42991616	79	5016
2026-01-03 03:17:27.49	35.44	6.28	-56.2	-59.0	13.1	0.00e+00	0	30	0	50331648	78	5011
2026-01-03 03:17:31.49	35.17	6.55	-55.9	-58.6	13.4	0.00e+00	0	30	0	57671680	78	4778
2026-01-03 03:17:35.49	34.89	6.83	-55.7	-58.2	13.5	0.00e+00	0	30	0	65011712	77	4858
2026-01-03 03:17:39.49	34.60	7.10	-55.5	-57.9	13.7	0.00e+00	0	30	0	72351744	77	4686
2026-01-03 03:17:43.49	34.31	7.38	-55.6	-58.1	13.7	0.00e+00	0	30	0	79691776	77	4770
2026-01-03 03:17:47.48	34.02	7.66	-55.5	-57.9	13.8	0.00e+00	0	30	0	88080384	77	4678
2026-01-03 03:17:51.47	33.71	7.94	-55.6	-58.2	13.6	0.00e+00	0	30	0	95420416	77	4835
2026-01-03 03:17:55.49	33.40	8.23	-55.5	-58.0	13.8	0.00e+00	0	30	0	102760448	77	4710
2026-01-03 03:17:59.51	33.09	8.52	-55.5	-57.9	13.8	0.00e+00	0	30	0	110100480	77	4684
2026-01-03 03:18:03.50	32.77	8.81	-55.3	-57.6	14.0	0.00e+00	0	30	0	117440512	77	4545
2026-01-03 03:18:07.51	32.44	9.10	-55.6	-58.0	13.8	0.00e+00	0	30	0	124780544	77	4739
2026-01-03 03:18:11.52	32.10	9.40	-55.4	-57.7	14.0	0.00e+00	0	30	0	133169152	77	4558
2026-01-03 03:18:15.52	31.76	9.69	-55.4	-57.7	14.0	0.00e+00	0	30	0	140509184	77	4547
2026-01-03 03:18:19.51	31.41	9.99	-55.2	-57.4	14.1	0.00e+00	0	31	0	147849216	76	4680
2026-01-03 03:18:23.52	31.05	10.30	-55.4	-57.7	14.0	0.00e+00	0	30	0	155189248	76	4831
2026-01-03 03:18:27.52	30.69	10.60	-55.2	-57.4	14.1	0.00e+00	0	30	0	162529280	76	4659
2026-01-03 03:18:31.52	30.31	10.91	-55.2	-57.4	14.1	0.00e+00	0	30	0	169869312	76	4655
2026-01-03 03:18:35.53	29.93	11.22	-55.0	-57.0	14.3	0.00e+00	0	30	0	177209344	76	4475
2026-01-03 03:18:39.54	29.54	11.53	-55.1	-57.2	14.2	0.00e+00	0	30	0	185597952	76	4559
2026-01-03 03:18:43.55	29.14	11.85	-55.1	-57.1	14.3	0.00e+00	0	30	0	192937984	76	4496
2026-01-03 03:18:47.55	28.73	12.17	-55.1	-57.0	14.3	0.00e+00	0	31	0	200278016	76	4490
2026-01-03 03:18:51.55	28.32	12.49	-55.0	-56.9	14.4	0.00e+00	0	31	0	207618048	76	4422
2026-01-03 03:18:55.56	27.89	12.81	-54.9	-56.8	14.4	0.00e+00	0	30	0	214958080	76	4358
2026-01-03 03:18:59.57	27.45	13.14	-55.0	-56.8	14.4	0.00e+00	0	31	0	222298112	76	4388
2026-01-03 03:19:03.57	27.00	13.47	-54.9	-56.7	14.5	0.00e+00	0	30	0	230686720	76	4332
2026-01-03 03:19:07.56	26.55	13.80	-55.0	-57.0	14.3	0.00e+00	0	31	0	238026752	76	4454
2026-01-03 03:19:11.57	26.08	14.14	-54.9	-56.9	14.4	0.00e+00	0	31	0	245366784	76	4396
2026-01-03 03:19:15.56	25.60	14.47	-55.1	-57.3	14.2	0.00e+00	0	31	0	252706816	76	4605
2026-01-03 03:19:19.57	25.11	14.81	-54.9	-56.8	14.4	0.00e+00	0	31	0	260046848	76	4350
2026-01-03 03:19:23.57	24.61	15.16	-54.7	-56.5	14.5	0.00e+00	0	31	0	267386880	75	4468
2026-01-03 03:19:27.57	24.10	15.50	-54.3	-56.0	14.7	0.00e+00	0	31	0	275775488	75	4200
2026-01-03 03:19:31.59	23.57	15.85	-54.4	-56.1	14.7	0.00e+00	0	31	0	283115520	74	4501
2026-01-03 03:19:35.58	23.03	16.20	-54.9	-56.8	14.4	0.00e+00	0	31	0	290455552	75	4620
2026-01-03 03:19:39.59	22.48	16.55	-55.6	-57.8	14.1	0.00e+00	0	31	0	297795584	76	4878
2026-01-03 03:19:43.59	21.91	16.91	-55.3	-57.2	14.2	0.00e+00	0	31	0	305135616	76	4596
2026-01-03 03:19:47.59	21.33	17.26	-55.4	-57.5	14.2	0.00e+00	0	31	0	312475648	76	4715
2026-01-03 03:19:51.60	20.74	17.62	-54.7	-56.5	14.6	0.00e+00	0	31	0	319815680	76	4236
2026-01-03 03:19:55.60	20.13	17.98	-54.5	-56.3	14.7	0.00e+00	0	31	0	328204288	75	4350
2026-01-03 03:19:59.59	19.51	18.35	-54.5	-56.3	14.7	0.00e+00	0	31	0	335544320	75	4344
2026-01-03 03:20:03.60	18.87	18.71	-54.3	-55.9	14.8	0.00e+00	0	31	0	342884352	74	4424
2026-01-03 03:20:07.60	18.21	19.08	-54.6	-56.3	14.6	0.00e+00	0	31	0	350224384	74	4650
2026-01-03 03:20:11.60	17.54	19.44	-54.6	-56.3	14.7	0.00e+00	0	31	0	357564416	74	4601
2026-01-03 03:20:15.60	16.86	19.81	-54.8	-56.7	14.5	0.00e+00	0	31	0	364904448	75	4584
2026-01-03 03:20:19.57	16.16	20.18	-54.6	-56.3	14.7	0.00e+00	0	31	0	373293056	75	4388
2026-01-03 03:20:23.57	15.44	20.55	-53.9	-55.4	15.0	0.00e+00	0	31	0	380633088	74	4185
2026-01-03 03:20:27.56	14.70	20.92	-54.2	-55.8	14.9	0.00e+00	0	31	0	387973120	74	4363
2026-01-03 03:20:31.55	13.94	21.29	-54.7	-56.5	14.7	0.00e+00	0	31	0	395313152	74	4715
2026-01-03 03:20:35.55	13.17	21.66	-55.3	-57.2	14.4	0.00e+00	0	31	0	402653184	75	4826
2026-01-03 03:20:39.54	12.37	22.03	-54.4	-56.0	14.9	0.00e+00	0	31	0	409993216	75	4205
2026-01-03 03:20:43.53	11.56	22.40	-54.6	-56.3	14.8	0.00e+00	0	31	0	417333248	75	4342
2026-01-03 03:20:47.52	10.73	22.77	-54.5	-56.1	14.9	0.00e+00	0	31	0	424673280	75	4261
2026-01-03 03:20:51.52	9.87	23.13	-54.6	-56.3	14.8	0.00e+00	0	31	0	433061888	75	4378
2026-01-03 03:20:55.51	9.00	23.50	-54.8	-56.6	14.6	0.00e+00	0	31	0	440401920	75	4510
2026-01-03 03:20:59.50	8.11	23.86	-55.4	-57.3	14.5	0.00e+00	0	31	0	447741952	76	4604
2026-01-03 03:21:03.48	7.19	24.22	-54.5	-56.0	14.9	0.00e+00	0	31	0	455081984	75	4236
2026-01-03 03:21:07.48	6.26	24.58	-53.8	-55.2	15.2	0.00e+00	0	31	0	462422016	74	4064
2026-01-03 03:21:11.49	5.29	24.93	-53.4	-54.8	15.3	0.00e+00	0	31	0	469762048	73	4108
2026-01-03 03:21:15.48	4.31	25.28	-53.8	-55.3	15.1	0.00e+00	0	31	0	477102080	73	4384
2026-01-03 03:21:19.46	3.31	25.62	-54.0	-55.7	14.9	0.00e+00	0	31	0	485490688	73	4546
2026-01-03 03:21:23.45	2.29	25.96	-54.1	-55.7	15.0	0.00e+00	0	31	0	492830720	74	4326
2026-01-03 03:21:27.44	1.24	26.29	-54.2	-55.7	14.9	0.00e+00	0	31	0	500170752	73	4586
2026-01-03 03:21:31.42	0.18	26.61	-54.3	-56.0	14.8	0.00e+00	0	31	0	507510784	74	4474
2026-01-03 03:21:35.41	359.09	26.93	-54.2	-55.8	14.9	0.00e+00	0	31	0	514850816	74	4352
2026-01-03 03:21:39.42	357.97	27.24	-54.0	-55.6	14.9	0.00e+00	0	31	0	522190848	73	4508
2026-01-03 03:21:43.42	356.84	27.54	-55.4	-57.5	14.3	0.00e+00	0	31	0	529530880	76	4749
2026-01-03 03:21:47.43	355.67	27.83	-55.0	-56.8	14.6	0.00e+00	0	31	0	537919488	75	4614
2026-01-03 03:21:51.43	354.50	28.11	-55.2	-57.1	14.5	0.00e+00	0	31	0	545259520	76	4528
2026-01-03 03:21:55.43	353.30	28.38	-54.7	-56.4	14.7	0.00e+00	0	31	0	552599552	75	4432
2026-01-03 03:21:59.44	352.07	28.64	-54.7	-56.5	14.7	0.00e+00	0	31	0	559939584	75	4470
2026-01-03 03:22:03.41	350.84	28.89	-55.1	-57.1	14.4	0.00e+00	0	31	0	567279616	75	4799
2026-01-03 03:22:07.42	349.58	29.12	-54.5	-56.1	14.8	0.00e+00	0	31	0	574619648	75	4288
2026-01-03 03:22:11.42	348.31	29.34	-55.0	-56.9	14.5	0.00e+00	0	31	0	583008256	75	4700
2026-01-03 03:22:15.41	347.02	29.54	-54.9	-56.8	14.6	0.00e+00	0	31	0	590348288	75	4629
2026-01-03 03:22:19.40	345.71	29.73	-53.8	-55.3	15.2	0.00e+00	0	31	0	597688320	74	4134
2026-01-03 03:22:23.39	344.39	29.90	-54.0	-55.5	15.0	0.00e+00	0	31	0	605028352	73	4454
2026-01-03 03:22:27.37	343.06	30.06	-54.6	-56.4	14.7	0.00e+00	0	31	0	612368384	74	4654
2026-01-03 03:22:31.36	341.71	30.20	-56.1	-58.6	13.8	0.00e+00	0	31	0	619708416	77	5100
2026-01-03 03:22:35.36	340.35	30.32	-55.2	-57.2	14.5	0.00e+00	0	31	0	627048448	76	4564
2026-01-03 03:22:39.35	338.98	30.43	-55.6	-57.8	14.2	0.00e+00	0	31	0	634388480	77	4606
2026-01-03 03:22:43.37	337.60	30.51	-54.6	-56.4	14.8	0.00e+00	0	31	0	642777088	75	4421
2026-01-03 03:22:47.37	336.21	30.58	-56.1	-58.7	13.7	0.00e+00	0	31	0	650117120	77	5119
2026-01-03 03:22:51.36	334.83	30.63	-55.4	-57.5	14.4	0.00e+00	0	31	0	657457152	77	4483
2026-01-03 03:22:55.37	333.43	30.66	-55.3	-57.3	14.4	0.00e+00	0	31	0	664797184	77	4365
2026-01-03 03:22:59.37	332.03	30.67	-54.6	-56.4	14.7	0.00e+00	0	31	0	672137216	74	4683
2026-01-03 03:23:03.36	330.64	30.66	-56.1	-58.5	13.9	0.00e+00	0	31	0	679477248	77	5031
2026-01-03 03:23:07.36	329.24	30.63	-55.1	-56.9	14.7	0.00e+00	0	31	0	686817280	76	4396
2026-01-03 03:23:11.35	327.86	30.59	-54.9	-56.7	14.7	0.00e+00	0	31	0	695205888	75	4562
2026-01-03 03:23:15.34	326.47	30.52	-55.0	-56.7	14.7	0.00e+00	0	31	0	702545920	76	4323
2026-01-03 03:23:19.34	325.09	30.44	-54.8	-56.5	14.8	0.00e+00	0	31	0	709885952	75	4443
2026-01-03 03:23:23.32	323.73	30.34	-55.7	-57.8	14.3	0.00e+00	0	31	0	717225984	77	4633
2026-01-03 03:23:27.29	322.37	30.22	-54.3	-56.0	15.0	0.00e+00	0	31	0	724566016	74	4450
2026-01-03 03:23:31.29	321.02	30.08	-55.2	-57.3	14.3	0.00e+00	0	31	0	731906048	75	4873
2026-01-03 03:23:35.28	319.68	29.92	-53.9	-55.5	15.2	0.00e+00	0	31	0	739246080	74	4215
2026-01-03 03:23:39.25	318.37	29.76	-54.4	-56.1	14.9	0.00e+00	0	31	0	747634688	74	4518
2026-01-03 03:23:43.25	317.05	29.57	-55.3	-57.3	14.4	0.00e+00	0	31	0	754974720	75	4913
2026-01-03 03:23:47.24	315.76	29.37	-54.4	-55.9	15.0	0.00e+00	0	31	0	762314752	75	4175
2026-01-03 03:23:51.23	314.49	29.15	-55.0	-56.8	14.6	0.00e+00	0	31	0	769654784	75	4614
2026-01-03 03:23:55.22	313.23	28.92	-55.4	-57.3	14.5	0.00e+00	0	31	0	776994816	76	4629
2026-01-03 03:23:59.22	311.98	28.68	-55.6	-57.6	14.4	0.00e+00	0	31	0	784334848	77	4500
2026-01-03 03:24:03.21	310.76	28.42	-55.6	-57.6	14.3	0.00e+00	0	31	0	791674880	76	4776
2026-01-03 03:24:07.22	309.56	28.15	-56.6	-59.3	13.5	0.00e+00	0	31	0	800063488	78	5172
2026-01-03 03:24:11.22	308.37	27.87	-57.0	-60.0	13.1	0.00e+00	0	31	0	807403520	79	5306
2026-01-03 03:24:15.21	307.21	27.58	-56.0	-58.5	13.9	0.00e+00	0	31	0	814743552	78	4709
2026-01-03 03:24:19.22	306.07	27.28	-53.9	-55.5	15.1	0.00e+00	0	31	0	822083584	74	4203
2026-01-03 03:24:23.22	304.95	26.97	-53.9	-55.5	15.0	0.00e+00	0	31	0	829423616	73	4451
2026-01-03 03:24:27.20	303.86	26.65	-54.0	-55.5	15.0	0.00e+00	0	31	0	836763648	73	4493
2026-01-03 03:24:31.19	302.79	26.33	-55.5	-57.6	14.2	0.00e+00	0	31	0	844103680	76	4807
2026-01-03 03:24:35.18	301.74	26.00	-55.6	-57.9	14.1	0.00e+00	0	31	0	852492288	76	4941
2026-01-03 03:24:39.18	300.71	25.66	-56.0	-58.3	14.0	0.00e+00	0	31	0	859832320	77	4875
2026-01-03 03:24:43.17	299.70	25.32	-54.0	-55.4	15.2	0.00e+00	0	31	0	867172352	74	4170
2026-01-03 03:24:47.17	298.71	24.97	-53.7	-55.1	15.2	0.00e+00	0	31	0	874512384	73	4276
2026-01-03 03:24:51.18	297.75	24.62	-53.2	-54.5	15.4	0.00e+00	0	31	0	881852416	72	4199
2026-01-03 03:24:55.19	296.80	24.26	-53.3	-54.6	15.3	0.00e+00	0	31	0	889192448	72	4266
2026-01-03 03:24:59.19	295.88	23.90	-52.7	-53.9	15.6	0.00e+00	0	31	0	896532480	72	3949
2026-01-03 03:25:03.19	294.98	23.53	-53.7	-55.2	15.1	0.00e+00	0	31	0	904921088	72	4585
2026-01-03 03:25:07.19	294.10	23.17	-53.9	-55.5	15.0	0.00e+00	0	31	0	912261120	73	4467
2026-01-03 03:25:11.21	293.24	22.80	-53.4	-54.8	15.3	0.00e+00	0	31	0	919601152	73	4139
2026-01-03 03:25:15.20	292.40	22.43	-52.9	-54.1	15.5	0.00e+00	0	31	0	926941184	72	4048
2026-01-03 03:25:19.20	291.58	22.06	-52.2	-53.3	15.6	0.00e+00	0	31	0	934281216	70	4108
2026-01-03 03:25:23.21	290.78	21.69	-53.1	-54.4	15.3	0.00e+00	0	31	0	941621248	71	4432
2026-01-03 03:25:27.19	290.00	21.32	-53.2	-54.5	15.4	0.00e+00	0	31	0	950009856	72	4197
2026-01-03 03:25:31.18	289.25	20.95	-53.3	-54.6	15.3	0.00e+00	0	31	0	957349888	72	4268
2026-01-03 03:25:35.18	288.50	20.58	-53.3	-54.6	15.3	0.00e+00	0	31	0	964689920	72	4272
2026-01-03 03:25:39.17	287.78	20.21	-53.2	-54.5	15.4	0.00e+00	0	31	0	972029952	72	4214
2026-01-03 03:25:43.18	287.07	19.84	-52.6	-53.8	15.5	0.00e+00	0	31	0	979369984	71	4115
2026-01-03 03:25:47.18	286.38	19.47	-53.3	-54.6	15.2	0.00e+00	0	31	0	986710016	71	4506
2026-01-03 03:25:51.20	285.70	19.10	-54.0	-55.5	15.0	0.00e+00	0	31	0	994050048	73	4468
2026-01-03 03:25:55.20	285.05	18.73	-53.4	-54.7	15.3	0.00e+00	0	31	0	1002438656	73	4062
2026-01-03 03:25:59.18	284.41	18.37	-53.1	-54.3	15.4	0.00e+00	0	31	0	1009778688	72	4132
2026-01-03 03:26:03.18	283.78	18.00	-54.0	-55.5	15.0	0.00e+00	0	31	0	1017118720	73	4462
2026-01-03 03:26:07.17	283.17	17.64	-54.9	-56.7	14.6	0.00e+00	0	31	0	1024458752	74	4819
2026-01-03 03:26:11.17	282.57	17.28	-54.3	-55.9	15.0	0.00e+00	0	31	0	1031798784	75	4154
2026-01-03 03:26:15.12	282.00	16.93	-54.1	-55.6	15.0	0.00e+00	0	31	0	1039138816	74	4277
2026-01-03 03:26:19.13	281.43	16.57	-55.0	-56.8	14.5	0.00e+00	0	31	0	1047527424	75	4650
2026-01-03 03:26:23.12	280.88	16.22	-54.6	-56.4	14.7	0.00e+00	0	31	0	1054867456	75	4414
2026-01-03 03:26:27.14	280.33	15.87	-54.0	-55.5	15.1	0.00e+00	0	31	0	1062207488	74	4213
2026-01-03 03:26:31.12	279.81	15.52	-53.9	-55.3	15.1	0.00e+00	0	31	0	1069547520	74	4145
2026-01-03 03:26:35.12	279.29	15.18	-54.1	-55.7	14.9	0.00e+00	0	31	0	1076887552	74	4296
2026-01-03 03:26:39.12	278.78	14.83	-54.5	-56.1	14.7	0.00e+00	0	31	0	1084227584	74	4533
2026-01-03 03:26:43.10	278.29	14.49	-54.2	-55.7	14.9	0.00e+00	0	31	0	1091567616	74	4338
2026-01-03 03:26:47.10	277.81	14.16	-54.2	-55.8	14.9	0.00e+00	0	31	0	1098907648	74	4357
2026-01-03 03:26:51.12	277.34	13.82	-55.2	-57.1	14.4	0.00e+00	0	31	0	1107296256	75	4794
2026-01-03 03:26:55.12	276.88	13.49	-55.9	-58.1	13.9	0.00e+00	0	31	0	1114636288	77	4813
2026-01-03 03:26:59.10	276.43	13.16	-54.6	-56.3	14.7	0.00e+00	0	31	0	1121976320	75	4348
2026-01-03 03:27:03.10	275.99	12.83	-53.8	-55.3	15.1	0.00e+00	0	31	0	1129316352	74	4112
2026-01-03 03:27:07.09	275.56	12.51	-54.3	-56.0	14.7	0.00e+00	0	31	0	1136656384	73	4706
2026-01-03 03:27:11.10	275.14	12.18	-55.5	-57.6	14.1	0.00e+00	0	31	0	1143996416	76	4800
2026-01-03 03:27:15.10	274.73	11.87	-56.3	-58.8	13.6	0.00e+00	0	31	0	1152385024	78	4898
2026-01-03 03:27:19.11	274.33	11.55	-56.5	-58.8	13.7	0.00e+00	0	31	0	1159725056	78	4905
2026-01-03 03:27:23.11	273.94	11.23	-56.2	-58.4	13.9	0.00e+00	0	31	0	1167065088	78	4663
2026-01-03 03:27:27.10	273.56	10.92	-56.1	-58.2	13.9	0.00e+00	0	31	0	1174405120	78	4572
2026-01-03 03:27:31.10	273.18	10.62	-56.2	-58.4	13.9	0.00e+00	0	31	0	1181745152	78	4655
2026-01-03 03:27:35.10	272.81	10.31	-56.4	-58.6	13.7	0.00e+00	0	31	0	1189085184	78	4805
2026-01-03 03:27:39.08	272.45	10.01	-56.2	-58.5	13.8	0.00e+00	0	31	0	1196425216	78	4714
2026-01-03 03:27:43.07	272.10	9.71	-55.8	-57.8	14.1	0.00e+00	0	31	0	1204813824	78	4353
2026-01-03 03:27:47.06	271.76	9.41	-55.1	-56.8	14.5	0.00e+00	0	31	0	1212153856	76	4371
2026-01-03 03:27:51.07	271.42	9.11	-54.5	-56.0	14.8	0.00e+00	0	31	0	1219493888	75	4226
2026-01-03 03:27:55.07	271.09	8.82	-55.0	-56.9	14.3	0.00e+00	0	31	0	1226833920	75	4673
2026-01-03 03:27:59.07	270.76	8.53	-56.4	-59.0	13.0	0.00e+00	0	31	0	1234173952	77	5331
2026-01-03 03:28:03.05	270.45	8.24	-57.2	-60.7	11.9	2.20e-06	0	31	0	1241513984	79	5757
2026-01-03 03:28:07.05	270.14	7.96	-57.5	-61.7	11.0	1.14e-04	0	31	0	1248854016	80	6118
2026-01-03 03:28:11.06	269.83	7.67	-58.0	-63.2	9.8	1.97e-03	0	31	0	1257242624	81	6823
2026-01-03 03:28:15.06	269.53	7.39	-58.3	-64.0	9.1	8.51e-03	0	31	0	1264582656	81	7499
2026-01-03 03:28:19.07	269.24	7.11	-58.2	-63.5	9.5	4.71e-03	0	31	0	1271922688	81	7106
2026-01-03 03:28:23.06	268.95	6.84	-57.9	-62.6	10.3	1.11e-03	0	31	0	1279262720	81	6406
2026-01-03 03:28:27.05	268.67	6.56	-57.8	-62.1	10.8	2.39e-04	0	31	0	1286602752	81	6016
2026-01-03 03:28:31.04	268.40	6.29	-57.7	-61.8	11.1	1.60e-04	0	31	0	1293942784	81	5849
2026-01-03 03:28:35.04	268.13	6.02	-57.6	-61.5	11.4	4.42e-05	0	31	0	1302331392	81	5632
2026-01-03 03:28:39.05	267.86	5.75	-57.4	-61.0	11.8	3.12e-05	0	31	0	1309671424	81	5304
2026-01-03 03:28:43.05	267.60	5.49	-57.3	-60.8	12.0	9.10e-06	0	31	0	1317011456	81	5200
2026-01-03 03:28:47.07	267.34	5.22	-57.0	-60.1	12.5	7.00e-07	0	31	0	1324351488	80	5086
2026-01-03 03:28:51.08	267.09	4.96	-60.5	-76.0	3.8	1.41e-02	0	31	104	1331691520	86	22310
2026-01-03 03:28:55.08	266.85	4.70	-61.3	-76.9	3.8	1.49e+00	0	31	104	1331691520	87	23483
2026-01-03 03:28:59.07	266.61	4.45	-61.7	-77.3	3.8	1.49e+00	0	31	104	1331691520	88	23076
2026-01-03 03:29:03.05	266.37	4.19	-61.9	-77.5	3.8	1.49e+00	0	31	104	1331691520	88	23713
2026-01-03 03:29:07.05	266.14	3.94	-62.1	-77.7	3.8	1.49e+00	0	31	104	1331691520	89	22829
2026-01-03 03:29:11.05	265.91	3.69	-62.1	-77.7	3.8	1.49e+00	0	31	104	1331691520	89	23003
2026-01-03 03:29:15.07	265.68	3.44	-62.0	-77.6	3.8	1.49e+00	0	31	104	1331691520	89	22775
2026-01-03 03:29:19.08	265.46	3.19	-62.0	-77.6	3.8	1.49e+00	0	31	104	1331691520	89	22672
2026-01-03 03:29:23.10	265.24	2.94	-61.9	-77.5	3.8	1.49e+00	0	31	104	1331691520	89	22411
2026-01-03 03:29:27.10	265.03	2.70	-61.9	-77.5	3.8	1.49e+00	0	31	104	1331691520	89	22408
2026-01-03 03:29:31.09	264.82	2.45	-61.9	-77.5	3.8	1.49e+00	0	31	104	1331691520	89	22291
2026-01-03 03:29:35.08	264.62	2.21	-61.9	-77.5	3.8	1.49e+00	0	31	104	1331691520	89	22293
2026-01-03 03:29:39.07	264.42	1.97	-61.8	-77.5	3.8	1.49e+00	0	31	104	1331691520	89	22375

#Closed at: 2026-01-03 03:29:39
#Recorded file [1331 MB]: D:/lorett/data/31004_260103_061619.dat