passes_logs/2026/01/03/R3.2S_Murmansk/R3.2S_Murmansk__20260103_123500_FENGYUN_3D_rec.log

#Pass ID: 20260103_123500_FENGYUN 3D
#Satellite: FENGYUN 3D
#Configuration: FENGYUN 3D
#almurnet v.1.7.20251203
#Start time: 2026-01-03 12:35:01

#Version: 2.2.20231116
#Station: R3.2S_Murmansk
#Location: 33.079688 lon 68.888172 lat
#TLE: 1 43010U 17072A   26002.95198047  .00000207  00000+0  11963-3 0  9999
#TLE: 2 43010  98.9912 334.5826 0001910 130.7105 229.4237 14.19692231421540

#Time	Az	El	Level	Level2	SNR	BER	BlckErr	Temp	State	Recorded	gain1	gain2
2026-01-03 12:35:01.78	177.13	2.08	-61.4	-74.0	3.8	8.45e-01	0	28	0	0	88	15867
2026-01-03 12:35:05.75	177.26	2.33	-61.3	-73.9	3.8	8.45e-01	0	28	104	0	87	16573
2026-01-03 12:35:09.73	177.39	2.58	-61.1	-73.7	3.8	8.45e-01	0	28	104	0	87	16253
2026-01-03 12:35:13.72	177.53	2.84	-60.8	-73.4	3.8	8.45e-01	0	29	104	0	87	15632
2026-01-03 12:35:17.70	177.67	3.09	-59.8	-72.0	3.8	8.45e-01	0	29	104	0	86	14158
2026-01-03 12:35:21.66	177.81	3.35	-59.8	-72.2	3.8	8.46e-01	0	29	104	0	86	14511
2026-01-03 12:35:25.63	177.95	3.61	-59.6	-70.2	3.8	8.44e-01	0	29	104	0	85	12121
2026-01-03 12:35:29.62	178.09	3.87	-58.7	-64.8	6.1	3.66e-01	0	29	0	4194304	84	6914
2026-01-03 12:35:33.60	178.24	4.14	-57.6	-61.9	8.3	3.66e-02	0	29	0	26214400	81	5875
2026-01-03 12:35:37.58	178.39	4.41	-56.0	-58.7	11.0	5.37e-04	0	29	0	49283072	78	4815
2026-01-03 12:35:41.56	178.54	4.68	-53.9	-55.6	12.9	0.00e+00	0	29	0	71303168	74	4268
2026-01-03 12:35:45.52	178.69	4.95	-53.3	-54.8	13.4	0.00e+00	0	29	0	93323264	73	4139
2026-01-03 12:35:49.52	178.85	5.23	-53.4	-55.0	13.3	1.10e-06	0	29	0	115343360	72	4464
2026-01-03 12:35:53.51	179.01	5.51	-51.0	-52.1	14.5	0.00e+00	0	29	0	135266304	68	4022
2026-01-03 12:35:57.50	179.17	5.79	-50.9	-52.0	14.6	0.00e+00	0	29	0	157286400	68	3980
2026-01-03 12:36:01.46	179.34	6.08	-50.9	-52.0	14.6	0.00e+00	0	29	0	180355072	68	3979
2026-01-03 12:36:05.43	179.50	6.36	-50.9	-52.0	14.6	0.00e+00	0	29	0	202375168	68	3989
2026-01-03 12:36:09.42	179.68	6.66	-50.8	-51.8	14.7	0.00e+00	0	29	0	224395264	68	3894
2026-01-03 12:36:13.39	179.85	6.95	-50.7	-51.8	14.7	0.00e+00	0	29	0	247463936	68	3878
2026-01-03 12:36:17.36	180.03	7.25	-50.5	-51.5	14.7	0.00e+00	0	30	0	269484032	67	3991
2026-01-03 12:36:21.30	180.21	7.54	-50.5	-51.5	14.8	0.00e+00	0	30	0	291504128	67	3983
2026-01-03 12:36:25.28	180.39	7.85	-50.3	-51.2	14.9	0.00e+00	0	30	0	314572800	67	3866
2026-01-03 12:36:29.23	180.58	8.15	-50.0	-51.0	14.9	0.00e+00	0	29	0	336592896	66	3965
2026-01-03 12:36:33.22	180.77	8.47	-49.9	-50.8	15.0	0.00e+00	0	30	0	358612992	66	3910
2026-01-03 12:36:37.20	180.96	8.78	-49.8	-50.7	15.1	0.00e+00	0	29	0	380633088	66	3840
2026-01-03 12:36:41.16	181.16	9.10	-49.7	-50.6	15.0	0.00e+00	0	30	0	403701760	65	4009
2026-01-03 12:36:45.13	181.37	9.42	-49.6	-50.5	15.1	0.00e+00	0	30	0	425721856	65	3971
2026-01-03 12:36:49.10	181.57	9.74	-49.7	-50.7	15.0	0.00e+00	0	30	0	447741952	65	4057
2026-01-03 12:36:53.06	181.79	10.07	-49.7	-50.7	15.0	0.00e+00	0	30	0	469762048	65	4062
2026-01-03 12:36:57.04	182.00	10.41	-49.6	-50.5	15.1	0.00e+00	0	30	0	492830720	65	3990
2026-01-03 12:37:01.02	182.22	10.75	-49.5	-50.5	15.1	0.00e+00	0	30	0	514850816	65	3959
2026-01-03 12:37:04.99	182.45	11.09	-49.5	-50.3	15.1	0.00e+00	0	30	0	537919488	65	3913
2026-01-03 12:37:08.95	182.68	11.43	-49.3	-50.2	15.2	0.00e+00	0	30	0	559939584	65	3853
2026-01-03 12:37:12.93	182.92	11.79	-49.2	-50.1	15.3	0.00e+00	0	30	0	581959680	65	3785
2026-01-03 12:37:16.91	183.16	12.14	-49.1	-50.0	15.2	0.00e+00	0	30	0	603979776	64	3975
2026-01-03 12:37:20.86	183.40	12.50	-49.1	-50.0	15.2	0.00e+00	0	30	0	627048448	64	3961
2026-01-03 12:37:24.85	183.66	12.87	-49.2	-50.0	15.2	0.00e+00	0	30	0	649068544	64	4000
2026-01-03 12:37:28.83	183.92	13.24	-49.1	-50.0	15.2	0.00e+00	0	30	0	672137216	64	3961
2026-01-03 12:37:32.80	184.18	13.62	-48.9	-49.7	15.3	0.00e+00	0	30	0	694157312	64	3865
2026-01-03 12:37:36.79	184.45	14.00	-48.8	-49.6	15.3	0.00e+00	0	30	0	716177408	64	3819
2026-01-03 12:37:40.76	184.73	14.39	-48.7	-49.6	15.3	0.00e+00	0	30	0	738197504	63	4007
2026-01-03 12:37:44.76	185.02	14.78	-48.7	-49.5	15.3	0.00e+00	0	30	0	761266176	63	4003
2026-01-03 12:37:48.74	185.31	15.18	-48.5	-49.4	15.4	0.00e+00	0	30	0	783286272	63	3921
2026-01-03 12:37:52.69	185.61	15.58	-48.3	-49.1	15.5	0.00e+00	0	30	0	805306368	63	3797
2026-01-03 12:37:56.66	185.92	15.99	-48.2	-49.0	15.4	0.00e+00	0	30	0	828375040	62	3970
2026-01-03 12:38:00.65	186.24	16.41	-48.2	-49.0	15.4	0.00e+00	0	30	0	850395136	62	3967
2026-01-03 12:38:04.64	186.56	16.84	-47.9	-48.7	15.6	0.00e+00	0	30	0	873463808	62	3829
2026-01-03 12:38:08.63	186.90	17.27	-47.6	-48.3	15.6	0.00e+00	0	30	0	895483904	61	3903
2026-01-03 12:38:12.60	187.24	17.71	-47.5	-48.2	15.6	0.00e+00	0	30	0	917504000	61	3848
2026-01-03 12:38:16.60	187.59	18.15	-47.6	-48.3	15.6	0.00e+00	0	30	0	940572672	61	3901
2026-01-03 12:38:20.58	187.96	18.61	-47.7	-48.4	15.6	0.00e+00	0	30	0	962592768	61	3946
2026-01-03 12:38:24.57	188.33	19.07	-47.5	-48.2	15.6	0.00e+00	0	30	0	984612864	61	3868
2026-01-03 12:38:28.57	188.72	19.53	-47.5	-48.2	15.6	0.00e+00	0	30	0	1007681536	61	3864
2026-01-03 12:38:32.60	189.12	20.02	-47.4	-48.1	15.7	0.00e+00	0	30	0	1030750208	61	3803
2026-01-03 12:38:36.63	189.53	20.50	-47.3	-48.0	15.7	0.00e+00	0	30	0	1052770304	61	3761
2026-01-03 12:38:40.66	189.96	21.00	-46.9	-47.6	15.7	0.00e+00	0	30	0	1075838976	60	3804
2026-01-03 12:38:44.69	190.40	21.51	-47.0	-47.7	15.7	0.00e+00	0	30	0	1097859072	60	3837
2026-01-03 12:38:48.72	190.85	22.02	-47.0	-47.7	15.7	0.00e+00	0	30	0	1120927744	60	3837
2026-01-03 12:38:52.75	191.32	22.54	-46.8	-47.5	15.8	0.00e+00	0	30	0	1143996416	60	3778
2026-01-03 12:38:56.78	191.80	23.07	-46.7	-47.4	15.8	0.00e+00	0	30	0	1166016512	60	3736
2026-01-03 12:39:00.82	192.31	23.61	-47.0	-47.7	15.6	0.00e+00	0	30	0	1189085184	59	4074
2026-01-03 12:39:04.85	192.82	24.16	-46.7	-47.4	15.7	0.00e+00	0	30	0	1212153856	59	3941
2026-01-03 12:39:08.88	193.36	24.72	-46.9	-47.6	15.6	0.00e+00	0	30	0	1234173952	59	4050
2026-01-03 12:39:12.91	193.91	25.29	-46.9	-47.5	15.7	0.00e+00	0	30	0	1257242624	59	3984
2026-01-03 12:39:16.94	194.49	25.87	-46.9	-47.5	15.7	0.00e+00	0	30	0	1279262720	59	3978
2026-01-03 12:39:20.99	195.09	26.46	-46.8	-47.4	15.8	0.00e+00	0	30	0	1302331392	59	3914
2026-01-03 12:39:25.02	195.70	27.06	-46.8	-47.4	15.8	0.00e+00	0	30	0	1325400064	59	3939
2026-01-03 12:39:29.06	196.35	27.67	-46.6	-47.2	15.8	0.00e+00	0	30	0	1347420160	59	3844
2026-01-03 12:39:33.09	197.01	28.28	-46.6	-47.2	15.8	0.00e+00	0	31	0	1370488832	59	3851
2026-01-03 12:39:37.13	197.70	28.91	-46.7	-47.3	15.8	0.00e+00	0	30	0	1393557504	59	3911
2026-01-03 12:39:41.17	198.42	29.55	-46.6	-47.2	15.8	0.00e+00	0	30	0	1415577600	59	3844
2026-01-03 12:39:45.20	199.17	30.19	-46.6	-47.2	15.9	0.00e+00	0	30	0	1438646272	59	3826
2026-01-03 12:39:49.24	199.94	30.85	-46.5	-47.0	15.9	0.00e+00	0	31	0	1461714944	59	3778
2026-01-03 12:39:53.27	200.75	31.52	-46.7	-47.3	15.8	0.00e+00	0	30	0	1483735040	59	3897
2026-01-03 12:39:57.30	201.59	32.19	-46.5	-47.1	15.9	0.00e+00	0	30	0	1506803712	59	3802
2026-01-03 12:40:01.33	202.46	32.87	-46.3	-46.9	16.0	0.00e+00	0	30	0	1529872384	59	3721
2026-01-03 12:40:05.37	203.38	33.56	-46.6	-47.2	15.8	0.00e+00	0	30	0	1551892480	59	3855
2026-01-03 12:40:09.41	204.33	34.26	-46.3	-46.9	16.0	0.00e+00	0	30	0	1574961152	59	3713
2026-01-03 12:40:13.44	205.32	34.97	-46.1	-46.7	15.9	0.00e+00	0	30	0	1598029824	58	3838
2026-01-03 12:40:17.48	206.36	35.68	-46.3	-46.9	15.8	0.00e+00	0	31	0	1620049920	58	3937
2026-01-03 12:40:21.52	207.44	36.40	-46.2	-46.7	15.9	0.00e+00	0	30	0	1643118592	58	3866
2026-01-03 12:40:25.55	208.57	37.12	-46.1	-46.6	15.9	0.00e+00	0	30	0	1665138688	58	3816
2026-01-03 12:40:29.58	209.75	37.84	-45.9	-46.5	16.0	0.00e+00	0	30	0	1688207360	58	3759
2026-01-03 12:40:33.61	210.98	38.57	-46.0	-46.5	16.0	0.00e+00	0	30	0	1711276032	58	3770
2026-01-03 12:40:37.64	212.26	39.29	-46.2	-46.8	15.9	0.00e+00	0	30	0	1733296128	58	3883
2026-01-03 12:40:41.67	213.61	40.02	-46.1	-46.7	15.9	0.00e+00	0	30	0	1756364800	58	3827
2026-01-03 12:40:45.70	215.01	40.74	-46.4	-47.0	15.8	0.00e+00	0	30	0	1779433472	58	3987
2026-01-03 12:40:49.73	216.48	41.46	-46.0	-46.6	15.9	0.00e+00	0	30	0	1801453568	58	3794
2026-01-03 12:40:53.76	218.01	42.17	-46.5	-47.1	15.8	0.00e+00	0	30	0	1824522240	58	4033
2026-01-03 12:40:57.78	219.60	42.86	-46.1	-46.7	15.9	0.00e+00	0	30	0	1846542336	58	3836
2026-01-03 12:41:01.82	221.28	43.55	-46.6	-47.2	15.7	0.00e+00	0	30	0	1869611008	58	4079
2026-01-03 12:41:05.85	223.01	44.22	-46.6	-47.1	15.7	0.00e+00	0	30	0	1892679680	58	4047
2026-01-03 12:41:09.89	224.83	44.87	-46.7	-47.2	15.7	0.00e+00	0	30	0	1914699776	58	4087
2026-01-03 12:41:13.92	226.72	45.50	-46.4	-46.9	15.8	0.00e+00	0	30	0	1937768448	58	3944
2026-01-03 12:41:17.95	228.68	46.11	-46.8	-47.4	15.7	0.00e+00	0	30	0	1960837120	58	4146
2026-01-03 12:41:21.99	230.72	46.69	-46.7	-47.2	15.7	0.00e+00	0	30	0	1982857216	58	4088
2026-01-03 12:41:26.02	232.82	47.23	-46.7	-47.2	15.7	0.00e+00	0	30	0	2005925888	58	4094
2026-01-03 12:41:30.05	235.00	47.74	-46.6	-47.2	15.7	0.00e+00	0	30	0	2027945984	58	4077
2026-01-03 12:41:34.08	237.25	48.20	-46.7	-47.2	15.8	0.00e+00	0	30	0	2051014656	59	3859
2026-01-03 12:41:38.11	239.56	48.63	-46.5	-47.1	15.9	0.00e+00	0	30	0	2074083328	59	3784
2026-01-03 12:41:42.14	241.93	49.00	-46.8	-47.3	15.8	0.00e+00	0	30	0	2096103424	59	3907
2026-01-03 12:41:46.17	244.36	49.33	-46.7	-47.2	15.8	0.00e+00	0	30	0	2119172096	59	3862
2026-01-03 12:41:50.21	246.84	49.61	-46.5	-47.1	15.9	0.00e+00	0	30	0	2142240768	59	3788
2026-01-03 12:41:54.24	249.36	49.82	-46.6	-47.2	15.9	0.00e+00	0	30	0	2164260864	59	3835
2026-01-03 12:41:58.27	251.90	49.98	-46.9	-47.5	15.8	0.00e+00	0	30	0	2187329536	59	3969
2026-01-03 12:42:02.30	254.47	50.09	-46.9	-47.5	15.8	0.00e+00	0	30	0	2209349632	59	3968
2026-01-03 12:42:06.33	257.05	50.13	-46.6	-47.2	15.9	0.00e+00	0	30	0	2232418304	59	3845
2026-01-03 12:42:10.36	259.63	50.11	-47.0	-47.6	15.7	0.00e+00	0	30	0	2255486976	59	4009
2026-01-03 12:42:14.39	262.20	50.03	-46.8	-47.4	15.8	0.00e+00	0	30	0	2277507072	59	3943
2026-01-03 12:42:18.42	264.75	49.89	-46.8	-47.4	15.8	0.00e+00	0	30	0	2300575744	59	3937
2026-01-03 12:42:22.46	267.28	49.70	-46.8	-47.4	15.8	0.00e+00	0	31	0	2323644416	59	3929
2026-01-03 12:42:26.50	269.78	49.44	-46.9	-47.4	15.8	0.00e+00	0	30	0	2345664512	59	3954
2026-01-03 12:42:30.52	272.22	49.14	-46.7	-47.2	15.9	0.00e+00	0	30	0	2368733184	59	3867
2026-01-03 12:42:34.55	274.61	48.78	-46.6	-47.2	15.8	0.00e+00	0	30	0	2390753280	59	3850
2026-01-03 12:42:38.59	276.95	48.38	-47.3	-47.9	15.7	0.00e+00	0	30	0	2413821952	59	4171
2026-01-03 12:42:42.62	279.22	47.93	-46.9	-47.5	15.7	0.00e+00	0	30	0	2436890624	59	3992
2026-01-03 12:42:46.65	281.42	47.44	-46.8	-47.4	15.8	0.00e+00	0	30	0	2458910720	59	3915
2026-01-03 12:42:50.69	283.56	46.91	-47.3	-47.9	15.6	0.00e+00	0	30	0	2481979392	59	4166
2026-01-03 12:42:54.72	285.62	46.34	-46.8	-47.4	15.8	0.00e+00	0	30	0	2505048064	59	3939
2026-01-03 12:42:58.76	287.61	45.75	-47.0	-47.5	15.7	0.00e+00	0	30	0	2527068160	59	4004
2026-01-03 12:43:02.79	289.52	45.13	-47.1	-47.7	15.7	0.00e+00	0	30	0	2550136832	59	4056
2026-01-03 12:43:06.83	291.37	44.49	-47.2	-47.8	15.7	0.00e+00	0	30	0	2573205504	59	4103
2026-01-03 12:43:10.87	293.14	43.83	-47.2	-47.8	15.7	0.00e+00	0	30	0	2595225600	59	4107
2026-01-03 12:43:14.90	294.83	43.15	-47.2	-47.8	15.7	0.00e+00	0	30	0	2618294272	59	4101
2026-01-03 12:43:18.93	296.45	42.46	-47.0	-47.6	15.8	0.00e+00	0	30	0	2641362944	59	4034
2026-01-03 12:43:22.97	298.01	41.75	-46.6	-47.2	15.9	0.00e+00	0	30	0	2663383040	59	3833
2026-01-03 12:43:27.00	299.50	41.04	-46.9	-47.5	15.7	0.00e+00	0	30	0	2686451712	59	3993
2026-01-03 12:43:31.03	300.92	40.32	-46.7	-47.3	15.8	0.00e+00	0	30	0	2709520384	59	3897
2026-01-03 12:43:35.06	302.29	39.60	-46.4	-46.9	15.9	0.00e+00	0	30	0	2731540480	59	3731
2026-01-03 12:43:39.09	303.59	38.88	-46.3	-46.8	15.8	0.00e+00	0	30	0	2754609152	58	3910
2026-01-03 12:43:43.13	304.85	38.15	-46.3	-46.9	15.8	0.00e+00	0	30	0	2776629248	58	3932
2026-01-03 12:43:47.15	306.04	37.43	-46.3	-46.9	15.8	0.00e+00	0	30	0	2799697920	58	3927
2026-01-03 12:43:51.19	307.19	36.71	-46.1	-46.7	15.9	0.00e+00	0	30	0	2822766592	58	3828
2026-01-03 12:43:55.22	308.28	36.00	-46.3	-46.9	15.8	0.00e+00	0	30	0	2844786688	58	3931
2026-01-03 12:43:59.25	309.33	35.29	-46.5	-47.0	15.8	0.00e+00	0	30	0	2867855360	58	3999
2026-01-03 12:44:03.29	310.34	34.58	-46.4	-47.0	15.8	0.00e+00	0	30	0	2890924032	58	3967
2026-01-03 12:44:07.33	311.31	33.88	-46.2	-46.8	15.9	0.00e+00	0	30	0	2912944128	58	3886
2026-01-03 12:44:11.37	312.24	33.19	-46.5	-47.1	15.8	0.00e+00	0	30	0	2936012800	58	4023
2026-01-03 12:44:15.39	313.13	32.51	-46.6	-47.2	15.7	0.00e+00	0	30	0	2958032896	58	4077
2026-01-03 12:44:19.43	313.98	31.83	-46.8	-47.4	15.7	0.00e+00	0	30	0	2981101568	58	4147
2026-01-03 12:44:23.46	314.80	31.17	-46.5	-47.1	15.7	0.00e+00	0	30	0	3004170240	58	4025
2026-01-03 12:44:27.48	315.58	30.51	-46.5	-47.0	15.7	0.00e+00	0	30	0	3026190336	58	4001
2026-01-03 12:44:31.51	316.34	29.87	-46.8	-47.4	15.7	0.00e+00	0	30	0	3049259008	58	4155
2026-01-03 12:44:35.54	317.07	29.23	-46.7	-47.3	15.7	0.00e+00	0	30	0	3072327680	58	4140
2026-01-03 12:44:39.58	317.77	28.60	-46.6	-47.2	15.7	0.00e+00	0	30	0	3094347776	58	4073
2026-01-03 12:44:43.61	318.44	27.98	-46.5	-47.1	15.7	0.00e+00	0	30	0	3117416448	58	4010
2026-01-03 12:44:47.63	319.09	27.37	-46.5	-47.1	15.7	0.00e+00	0	30	0	3139436544	58	4014
2026-01-03 12:44:51.66	319.72	26.77	-46.7	-47.3	15.7	0.00e+00	0	30	0	3162505216	58	4122
2026-01-03 12:44:55.69	320.32	26.18	-46.9	-47.5	15.7	0.00e+00	0	30	0	3185573888	59	4004
2026-01-03 12:44:59.73	320.91	25.60	-46.8	-47.4	15.8	0.00e+00	0	30	0	3207593984	59	3950
2026-01-03 12:45:03.76	321.47	25.03	-46.9	-47.5	15.7	0.00e+00	0	30	0	3230662656	59	3971
2026-01-03 12:45:07.80	322.01	24.47	-46.9	-47.4	15.7	0.00e+00	0	30	0	3253731328	59	3952
2026-01-03 12:45:11.84	322.54	23.92	-47.0	-47.6	15.7	0.00e+00	0	30	0	3275751424	59	4037
2026-01-03 12:45:15.87	323.05	23.38	-47.3	-47.9	15.6	0.00e+00	0	30	0	3298820096	59	4160
2026-01-03 12:45:19.90	323.54	22.84	-47.1	-47.6	15.8	0.00e+00	0	30	0	3320840192	60	3819
2026-01-03 12:45:23.93	324.02	22.32	-47.2	-47.8	15.7	0.00e+00	0	30	0	3343908864	60	3896
2026-01-03 12:45:27.96	324.48	21.80	-47.3	-47.9	15.7	0.00e+00	0	30	0	3366977536	60	3933
2026-01-03 12:45:32.00	324.92	21.30	-47.3	-47.9	15.6	0.00e+00	0	30	0	3388997632	60	3947
2026-01-03 12:45:36.03	325.36	20.80	-47.4	-48.0	15.7	0.00e+00	0	30	0	3412066304	60	3978
2026-01-03 12:45:40.07	325.78	20.31	-47.4	-48.0	15.6	0.00e+00	0	30	0	3435134976	60	3973
2026-01-03 12:45:44.10	326.18	19.83	-47.6	-48.2	15.6	0.00e+00	0	30	0	3457155072	60	4072
2026-01-03 12:45:48.13	326.58	19.35	-47.6	-48.2	15.5	0.00e+00	0	30	0	3480223744	60	4092
2026-01-03 12:45:52.17	326.96	18.88	-47.7	-48.3	15.5	0.00e+00	0	30	0	3502243840	60	4116
2026-01-03 12:45:56.21	327.34	18.42	-47.8	-48.4	15.5	0.00e+00	0	30	0	3525312512	60	4192
2026-01-03 12:46:00.24	327.70	17.97	-48.1	-48.7	15.5	0.00e+00	0	30	0	3548381184	61	4084
2026-01-03 12:46:04.28	328.05	17.53	-48.2	-48.8	15.4	0.00e+00	0	30	0	3571449856	61	4138
2026-01-03 12:46:08.32	328.40	17.09	-48.3	-49.0	15.4	0.00e+00	0	31	0	3593469952	61	4206
2026-01-03 12:46:12.36	328.73	16.66	-48.4	-49.0	15.5	0.00e+00	0	30	0	3616538624	62	3997
2026-01-03 12:46:16.39	329.06	16.24	-48.4	-49.1	15.5	0.00e+00	0	30	0	3639607296	62	4031
2026-01-03 12:46:20.43	329.37	15.82	-48.5	-49.2	15.4	0.00e+00	0	30	0	3661627392	62	4091
2026-01-03 12:46:24.47	329.68	15.41	-48.7	-49.4	15.3	0.00e+00	0	30	0	3684696064	62	4184
2026-01-03 12:46:28.50	329.98	15.00	-48.7	-49.4	15.3	0.00e+00	0	30	0	3706716160	62	4177
2026-01-03 12:46:32.53	330.28	14.60	-48.8	-49.5	15.3	0.00e+00	0	30	0	3729784832	62	4204
2026-01-03 12:46:36.56	330.56	14.21	-48.8	-49.5	15.3	0.00e+00	0	30	0	3752853504	62	4222
2026-01-03 12:46:40.59	330.84	13.82	-48.9	-49.6	15.3	0.00e+00	0	30	0	3774873600	63	4041
2026-01-03 12:46:44.63	331.11	13.44	-49.1	-49.8	15.3	0.00e+00	0	30	0	3797942272	63	4137
2026-01-03 12:46:48.65	331.38	13.06	-49.2	-49.9	15.2	0.00e+00	0	30	0	3821010944	63	4193
2026-01-03 12:46:52.68	331.64	12.69	-49.3	-50.1	15.2	0.00e+00	0	30	0	3843031040	63	4258
2026-01-03 12:46:56.72	331.89	12.33	-49.4	-50.1	15.2	0.00e+00	0	30	0	3866099712	64	4039
2026-01-03 12:47:00.75	332.14	11.97	-49.5	-50.2	15.2	0.00e+00	0	30	0	3888119808	64	4098
2026-01-03 12:47:04.79	332.38	11.61	-49.5	-50.3	15.2	0.00e+00	0	31	0	3911188480	64	4100
2026-01-03 12:47:08.81	332.62	11.26	-49.6	-50.3	15.1	0.00e+00	0	30	0	3934257152	64	4145
2026-01-03 12:47:12.84	332.85	10.91	-49.6	-50.4	15.1	0.00e+00	0	30	0	3956277248	64	4150
2026-01-03 12:47:16.86	333.08	10.57	-49.6	-50.4	15.1	0.00e+00	0	31	0	3979345920	64	4158
2026-01-03 12:47:20.90	333.30	10.23	-49.6	-50.3	15.1	0.00e+00	0	30	0	4002414592	64	4141
2026-01-03 12:47:24.93	333.52	9.90	-49.6	-50.3	15.1	0.00e+00	0	30	0	4024434688	64	4139
2026-01-03 12:47:28.97	333.73	9.57	-49.6	-50.4	15.1	0.00e+00	0	30	0	4047503360	64	4167
2026-01-03 12:47:33.00	333.94	9.24	-49.6	-50.4	15.1	0.00e+00	0	30	0	4069523456	64	4157
2026-01-03 12:47:37.03	334.15	8.92	-49.7	-50.5	15.1	0.00e+00	0	30	0	4092592128	64	4217
2026-01-03 12:47:41.06	334.35	8.60	-49.8	-50.6	15.1	0.00e+00	0	30	0	4115660800	65	4032
2026-01-03 12:47:45.10	334.54	8.29	-49.9	-50.7	15.0	0.00e+00	0	30	0	4137680896	65	4065
2026-01-03 12:47:49.13	334.74	7.98	-50.2	-51.0	14.9	0.00e+00	0	31	0	4160749568	65	4240
2026-01-03 12:47:53.17	334.93	7.67	-50.2	-51.1	14.9	0.00e+00	0	30	0	4183818240	65	4250
2026-01-03 12:47:57.19	335.11	7.37	-50.4	-51.3	14.8	0.00e+00	0	30	0	4205838336	66	4118
2026-01-03 12:48:01.22	335.29	7.07	-50.6	-51.5	14.7	0.00e+00	0	30	0	4228907008	66	4222
2026-01-03 12:48:05.26	335.47	6.77	-50.5	-51.5	14.7	0.00e+00	0	30	0	4250927104	66	4213
2026-01-03 12:48:09.29	335.65	6.48	-50.5	-51.5	14.7	0.00e+00	0	30	0	4273995776	66	4200
2026-01-03 12:48:13.33	335.82	6.19	-50.7	-51.6	14.6	0.00e+00	0	30	0	4297064448	66	4285
2026-01-03 12:48:17.35	335.99	5.90	-50.7	-51.6	14.7	0.00e+00	0	30	0	4319084544	67	4037
2026-01-03 12:48:21.38	336.16	5.61	-50.7	-51.7	14.7	0.00e+00	0	30	0	4342153216	67	4059
2026-01-03 12:48:25.41	336.32	5.33	-50.8	-51.8	14.6	0.00e+00	0	31	0	4365221888	67	4111
2026-01-03 12:48:29.44	336.48	5.05	-50.8	-51.8	14.5	0.00e+00	0	30	0	4387241984	67	4133
2026-01-03 12:48:33.47	336.64	4.78	-60.9	-73.5	3.8	8.45e-01	0	31	104	4395630592	86	16758
2026-01-03 12:48:37.51	336.80	4.50	-61.5	-74.1	3.8	8.46e-01	0	30	104	4395630592	88	16081
2026-01-03 12:48:41.55	336.95	4.23	-61.7	-74.3	3.8	8.45e-01	0	31	104	4395630592	88	16475
2026-01-03 12:48:45.59	337.10	3.96	-61.8	-74.4	3.8	8.45e-01	0	31	104	4395630592	88	16614
2026-01-03 12:48:49.62	337.25	3.70	-61.9	-74.5	3.8	8.45e-01	0	31	104	4395630592	88	16781
2026-01-03 12:48:53.66	337.40	3.43	-61.8	-74.5	3.8	8.46e-01	0	31	104	4395630592	89	15824
2026-01-03 12:48:57.69	337.54	3.17	-61.8	-74.4	3.8	8.46e-01	0	31	104	4395630592	89	15731
2026-01-03 12:49:01.73	337.69	2.91	-61.7	-74.4	3.8	8.45e-01	0	30	104	4395630592	89	15646
2026-01-03 12:49:05.76	337.83	2.66	-61.7	-74.3	3.8	8.45e-01	0	30	104	4395630592	89	15558
2026-01-03 12:49:09.80	337.96	2.40	-61.7	-74.3	3.8	8.46e-01	0	31	104	4395630592	89	15530
2026-01-03 12:49:13.84	338.10	2.15	-61.7	-74.3	3.8	8.46e-01	0	30	104	4395630592	89	15491

#Closed at: 2026-01-03 12:49:16
#Recorded file [4395 MB]: D:/lorett/data/31004_260103_153501.dat