passes_logs/2026/01/03/R3.2S_Murmansk/R3.2S_Murmansk__20260103_221719_NOAA_20_JPSS-1_rec.log

#Pass ID: 20260103_221719_NOAA 20 (JPSS-1)
#Satellite: NOAA 20 (JPSS-1)
#Configuration: NOAA 20
#almurnet v.1.7.20251203
#Start time: 2026-01-03 22:17:19

#Version: 2.2.20231116
#Station: R3.2S_Murmansk
#Location: 33.079688 lon 68.888172 lat
#TLE: 1 43013U 17073A   26003.41800368  .00000169  00000+0  10117-3 0  9998
#TLE: 2 43013  98.7624 304.4804 0001884  56.1176 304.0179 14.19532918421092

#Time	Az	El	Level	Level2	SNR	BER	BlckErr	Temp	State	Recorded	gain1	gain2
2026-01-03 22:17:19.21	18.75	1.99	-58.9	-74.9	3.8	1.49e+00	0	27	0	0	84	22162
2026-01-03 22:17:23.21	19.04	2.21	-58.7	-74.6	3.8	1.49e+00	0	27	104	0	82	24066
2026-01-03 22:17:27.21	19.33	2.43	-58.7	-74.7	3.8	1.49e+00	0	27	104	0	82	24337
2026-01-03 22:17:31.20	19.62	2.65	-58.7	-74.6	3.8	1.49e+00	0	27	104	0	82	24119
2026-01-03 22:17:35.19	19.92	2.87	-58.7	-74.6	3.8	1.49e+00	0	27	104	0	82	24104
2026-01-03 22:17:39.20	20.22	3.10	-58.7	-74.1	3.8	1.49e+00	0	27	104	0	82	22744
2026-01-03 22:17:43.21	20.53	3.32	-58.6	-73.0	3.8	1.49e+00	0	28	104	0	82	19922
2026-01-03 22:17:47.21	20.84	3.55	-58.6	-71.9	3.9	1.47e+00	0	28	104	0	82	17557
2026-01-03 22:17:51.22	21.16	3.77	-58.4	-68.8	5.1	6.28e-01	0	28	0	4194304	82	12370
2026-01-03 22:17:55.22	21.48	4.00	-58.3	-67.9	5.6	4.28e-01	0	28	0	11534336	82	11127
2026-01-03 22:17:59.22	21.80	4.23	-57.0	-62.2	10.2	3.00e-03	0	28	0	18874368	80	6443
2026-01-03 22:18:03.23	22.13	4.46	-55.0	-58.1	12.9	0.00e+00	0	28	0	26214400	76	5093
2026-01-03 22:18:07.23	22.47	4.69	-55.3	-58.7	12.5	0.00e+00	0	28	0	33554432	75	5744
2026-01-03 22:18:11.23	22.81	4.92	-57.2	-63.0	9.5	9.26e-04	0	28	0	40894464	79	7462
2026-01-03 22:18:15.24	23.15	5.16	-56.3	-60.6	11.4	7.00e-07	0	28	0	49283072	77	6378
2026-01-03 22:18:19.23	23.50	5.39	-56.2	-60.2	11.8	9.10e-06	0	28	0	56623104	79	5429
2026-01-03 22:18:23.23	23.86	5.63	-55.2	-58.3	12.9	0.00e+00	0	28	0	63963136	77	4910
2026-01-03 22:18:27.21	24.22	5.86	-54.9	-57.7	13.2	0.00e+00	0	28	0	71303168	76	4863
2026-01-03 22:18:31.20	24.58	6.10	-54.4	-57.1	13.6	0.00e+00	0	28	0	78643200	75	4765
2026-01-03 22:18:35.19	24.96	6.34	-54.5	-57.2	13.5	0.00e+00	0	28	0	85983232	75	4839
2026-01-03 22:18:39.18	25.33	6.58	-54.6	-57.2	13.5	0.00e+00	0	28	0	93323264	75	4867
2026-01-03 22:18:43.18	25.72	6.82	-54.6	-57.3	13.4	0.00e+00	0	28	0	101711872	75	4923
2026-01-03 22:18:47.17	26.11	7.07	-54.6	-57.2	13.5	0.00e+00	0	28	0	109051904	75	4866
2026-01-03 22:18:51.18	26.51	7.31	-54.6	-57.2	13.5	0.00e+00	0	28	0	116391936	75	4836
2026-01-03 22:18:55.17	26.91	7.56	-54.6	-57.3	13.5	0.00e+00	0	28	0	123731968	75	4886
2026-01-03 22:18:59.17	27.32	7.81	-54.4	-56.9	13.7	0.00e+00	0	28	0	131072000	75	4705
2026-01-03 22:19:03.17	27.73	8.05	-54.3	-56.8	13.8	0.00e+00	0	29	0	138412032	75	4624
2026-01-03 22:19:07.17	28.16	8.30	-54.0	-56.4	14.0	0.00e+00	0	28	0	145752064	74	4661
2026-01-03 22:19:11.16	28.59	8.55	-54.0	-56.4	13.9	0.00e+00	0	28	0	154140672	74	4663
2026-01-03 22:19:15.15	29.02	8.81	-54.0	-56.3	14.0	0.00e+00	0	29	0	161480704	74	4634
2026-01-03 22:19:19.16	29.47	9.06	-54.0	-56.2	14.0	0.00e+00	0	29	0	168820736	74	4590
2026-01-03 22:19:23.15	29.92	9.31	-53.8	-56.0	14.2	0.00e+00	0	29	0	176160768	74	4453
2026-01-03 22:19:27.14	30.38	9.57	-53.6	-55.7	14.2	0.00e+00	0	29	0	183500800	73	4579
2026-01-03 22:19:31.12	30.84	9.82	-53.6	-55.8	14.2	0.00e+00	0	29	0	190840832	73	4620
2026-01-03 22:19:35.10	31.32	10.08	-53.7	-55.9	14.1	0.00e+00	0	29	0	198180864	73	4666
2026-01-03 22:19:39.09	31.80	10.34	-53.8	-55.9	14.1	0.00e+00	0	28	0	205520896	73	4704
2026-01-03 22:19:43.07	32.29	10.60	-53.6	-55.8	14.2	0.00e+00	0	29	0	213909504	73	4615
2026-01-03 22:19:47.07	32.79	10.86	-53.6	-55.7	14.2	0.00e+00	0	29	0	221249536	73	4592
2026-01-03 22:19:51.08	33.30	11.12	-53.4	-55.5	14.3	0.00e+00	0	29	0	228589568	73	4469
2026-01-03 22:19:55.09	33.82	11.38	-53.6	-55.7	14.3	0.00e+00	0	29	0	235929600	73	4550
2026-01-03 22:19:59.09	34.34	11.64	-53.3	-55.3	14.4	0.00e+00	0	29	0	243269632	73	4359
2026-01-03 22:20:03.10	34.88	11.91	-53.2	-55.2	14.5	0.00e+00	0	29	0	250609664	73	4321
2026-01-03 22:20:07.08	35.42	12.17	-53.1	-55.0	14.5	0.00e+00	0	29	0	258998272	72	4468
2026-01-03 22:20:11.06	35.97	12.43	-53.2	-55.2	14.4	0.00e+00	0	29	0	266338304	72	4558
2026-01-03 22:20:15.06	36.54	12.70	-53.4	-55.4	14.3	0.00e+00	0	29	0	273678336	72	4681
2026-01-03 22:20:19.06	37.11	12.97	-53.1	-55.0	14.5	0.00e+00	0	29	0	281018368	72	4486
2026-01-03 22:20:23.04	37.69	13.23	-53.2	-55.2	14.5	0.00e+00	0	29	0	288358400	72	4563
2026-01-03 22:20:27.03	38.29	13.50	-53.3	-55.3	14.4	0.00e+00	0	29	0	295698432	72	4628
2026-01-03 22:20:31.02	38.89	13.76	-53.1	-55.0	14.5	0.00e+00	0	29	0	303038464	72	4492
2026-01-03 22:20:35.02	39.50	14.03	-53.2	-55.1	14.5	0.00e+00	0	29	0	311427072	72	4515
2026-01-03 22:20:39.01	40.13	14.29	-53.1	-55.0	14.6	0.00e+00	0	29	0	318767104	72	4460
2026-01-03 22:20:43.01	40.77	14.56	-53.1	-55.0	14.6	0.00e+00	0	29	0	326107136	72	4449
2026-01-03 22:20:47.01	41.41	14.82	-53.3	-55.3	14.4	0.00e+00	0	29	0	333447168	72	4619
2026-01-03 22:20:51.01	42.07	15.09	-53.2	-55.2	14.5	0.00e+00	0	29	0	340787200	72	4553
2026-01-03 22:20:55.03	42.75	15.35	-53.1	-55.0	14.5	0.00e+00	0	29	0	348127232	72	4485
2026-01-03 22:20:59.03	43.43	15.62	-53.1	-55.0	14.6	0.00e+00	0	29	0	355467264	72	4453
2026-01-03 22:21:03.04	44.12	15.88	-52.8	-54.7	14.7	0.00e+00	0	29	0	363855872	72	4294
2026-01-03 22:21:07.03	44.83	16.14	-52.7	-54.5	14.8	0.00e+00	0	29	0	371195904	72	4235
2026-01-03 22:21:11.05	45.55	16.40	-52.4	-54.1	14.9	0.00e+00	0	29	0	378535936	71	4245
2026-01-03 22:21:15.05	46.28	16.66	-52.1	-53.8	14.9	0.00e+00	0	29	0	385875968	70	4367
2026-01-03 22:21:19.05	47.02	16.92	-52.0	-53.7	14.9	0.00e+00	0	29	0	393216000	70	4299
2026-01-03 22:21:23.06	47.78	17.17	-52.1	-53.8	14.9	0.00e+00	0	29	0	400556032	70	4357
2026-01-03 22:21:27.06	48.55	17.43	-52.1	-53.8	14.9	0.00e+00	0	29	0	408944640	70	4354
2026-01-03 22:21:31.05	49.33	17.68	-52.1	-53.7	14.9	0.00e+00	0	29	0	416284672	70	4334
2026-01-03 22:21:35.02	50.11	17.92	-52.5	-54.3	14.7	0.00e+00	0	29	0	423624704	70	4616
2026-01-03 22:21:39.00	50.91	18.17	-52.7	-54.5	14.6	0.00e+00	0	29	0	430964736	70	4710
2026-01-03 22:21:42.99	51.73	18.41	-52.7	-54.5	14.6	0.00e+00	0	29	0	438304768	70	4730
2026-01-03 22:21:46.99	52.56	18.65	-53.2	-55.1	14.5	0.00e+00	0	29	0	445644800	71	4802
2026-01-03 22:21:50.98	53.40	18.88	-53.4	-55.3	14.4	0.00e+00	0	29	0	452984832	71	4893
2026-01-03 22:21:54.98	54.26	19.11	-53.7	-55.8	14.3	0.00e+00	0	29	0	460324864	72	4890
2026-01-03 22:21:58.99	55.13	19.34	-54.2	-56.5	14.0	0.00e+00	0	29	0	468713472	73	4988
2026-01-03 22:22:02.99	56.01	19.56	-54.0	-56.1	14.2	0.00e+00	0	29	0	476053504	73	4795
2026-01-03 22:22:07.00	56.90	19.78	-54.1	-56.2	14.1	0.00e+00	0	29	0	483393536	73	4836
2026-01-03 22:22:10.98	57.81	19.99	-54.4	-56.7	14.0	0.00e+00	0	29	0	490733568	74	4846
2026-01-03 22:22:14.97	58.72	20.20	-53.9	-56.0	14.4	0.00e+00	0	29	0	498073600	74	4457
2026-01-03 22:22:18.96	59.65	20.40	-53.6	-55.5	14.5	0.00e+00	0	29	0	505413632	73	4489
2026-01-03 22:22:22.97	60.59	20.60	-53.9	-56.1	14.3	0.00e+00	0	29	0	513802240	73	4764
2026-01-03 22:22:26.97	61.55	20.78	-53.6	-55.6	14.5	0.00e+00	0	29	0	521142272	73	4494
2026-01-03 22:22:30.96	62.51	20.97	-53.7	-55.7	14.4	0.00e+00	0	29	0	528482304	73	4577
2026-01-03 22:22:34.94	63.48	21.14	-53.8	-55.8	14.3	0.00e+00	0	29	0	535822336	73	4642
2026-01-03 22:22:38.93	64.47	21.31	-53.5	-55.5	14.5	0.00e+00	0	29	0	543162368	73	4456
2026-01-03 22:22:42.93	65.46	21.47	-53.6	-55.5	14.5	0.00e+00	0	29	0	550502400	73	4484
2026-01-03 22:22:46.93	66.47	21.63	-52.9	-54.6	14.8	0.00e+00	0	29	0	557842432	72	4280
2026-01-03 22:22:50.93	67.49	21.77	-52.8	-54.6	14.8	0.00e+00	0	29	0	566231040	72	4266
2026-01-03 22:22:54.93	68.52	21.91	-53.0	-54.7	14.7	0.00e+00	0	29	0	573571072	72	4340
2026-01-03 22:22:58.94	69.55	22.04	-53.0	-54.7	14.7	0.00e+00	0	29	0	580911104	72	4337
2026-01-03 22:23:02.93	70.59	22.16	-53.4	-55.3	14.5	0.00e+00	0	29	0	588251136	72	4601
2026-01-03 22:23:06.95	71.65	22.27	-53.5	-55.5	14.4	0.00e+00	0	29	0	595591168	72	4729
2026-01-03 22:23:10.94	72.70	22.37	-53.5	-55.5	14.4	0.00e+00	0	29	0	602931200	72	4708
2026-01-03 22:23:14.94	73.77	22.46	-53.5	-55.5	14.4	0.00e+00	0	29	0	610271232	72	4739
2026-01-03 22:23:18.95	74.84	22.54	-53.3	-55.2	14.6	0.00e+00	0	29	0	618659840	72	4547
2026-01-03 22:23:22.96	75.92	22.62	-53.1	-54.9	14.7	0.00e+00	0	29	0	625999872	72	4421
2026-01-03 22:23:26.96	77.00	22.68	-53.5	-55.4	14.5	0.00e+00	0	29	0	633339904	72	4692
2026-01-03 22:23:30.95	78.08	22.73	-53.1	-54.9	14.7	0.00e+00	0	29	0	640679936	72	4432
2026-01-03 22:23:34.95	79.17	22.77	-52.8	-54.5	14.8	0.00e+00	0	29	0	648019968	72	4208
2026-01-03 22:23:38.92	80.25	22.80	-53.2	-55.0	14.6	0.00e+00	0	29	0	655360000	72	4483
2026-01-03 22:23:42.93	81.35	22.82	-53.2	-55.0	14.6	0.00e+00	0	29	0	663748608	72	4474
2026-01-03 22:23:46.93	82.44	22.84	-52.9	-54.7	14.8	0.00e+00	0	29	0	671088640	72	4321
2026-01-03 22:23:50.91	83.53	22.83	-53.5	-55.5	14.4	0.00e+00	0	29	0	678428672	72	4709
2026-01-03 22:23:54.92	84.63	22.82	-53.7	-55.7	14.4	0.00e+00	0	29	0	685768704	72	4837
2026-01-03 22:23:58.92	85.72	22.80	-53.5	-55.4	14.5	0.00e+00	0	29	0	693108736	72	4690
2026-01-03 22:24:02.93	86.81	22.77	-53.0	-54.8	14.8	0.00e+00	0	29	0	700448768	72	4363
2026-01-03 22:24:06.93	87.90	22.73	-53.5	-55.4	14.5	0.00e+00	0	29	0	707788800	72	4669
2026-01-03 22:24:10.93	88.98	22.67	-53.5	-55.5	14.4	0.00e+00	0	29	0	716177408	72	4725
2026-01-03 22:24:14.94	90.07	22.61	-53.5	-55.5	14.5	0.00e+00	0	29	0	723517440	72	4707
2026-01-03 22:24:18.93	91.14	22.54	-53.1	-54.9	14.7	0.00e+00	0	29	0	730857472	72	4431
2026-01-03 22:24:22.94	92.22	22.46	-53.3	-55.2	14.6	0.00e+00	0	29	0	738197504	72	4558
2026-01-03 22:24:26.95	93.28	22.36	-52.6	-54.3	14.8	0.00e+00	0	29	0	745537536	71	4375
2026-01-03 22:24:30.94	94.34	22.26	-53.1	-55.0	14.6	0.00e+00	0	29	0	752877568	71	4724
2026-01-03 22:24:34.95	95.39	22.15	-52.9	-54.7	14.7	0.00e+00	0	29	0	760217600	71	4569
2026-01-03 22:24:38.95	96.44	22.03	-52.5	-54.2	14.9	0.00e+00	0	29	0	768606208	71	4305
2026-01-03 22:24:42.93	97.47	21.90	-51.9	-53.5	15.1	0.00e+00	0	29	0	775946240	70	4196
2026-01-03 22:24:46.92	98.49	21.76	-52.1	-53.7	15.0	0.00e+00	0	29	0	783286272	70	4318
2026-01-03 22:24:50.91	99.51	21.61	-51.9	-53.5	15.1	0.00e+00	0	29	0	790626304	70	4198
2026-01-03 22:24:54.91	100.52	21.46	-51.3	-52.8	15.2	0.00e+00	0	29	0	797966336	69	4129
2026-01-03 22:24:58.91	101.52	21.30	-51.3	-52.8	15.2	0.00e+00	0	29	0	805306368	69	4117
2026-01-03 22:25:02.92	102.51	21.13	-51.6	-53.2	15.1	0.00e+00	0	29	0	813694976	69	4300
2026-01-03 22:25:06.92	103.49	20.95	-52.2	-53.9	14.8	0.00e+00	0	29	0	821035008	69	4671
2026-01-03 22:25:10.91	104.45	20.76	-52.3	-54.0	14.9	0.00e+00	0	29	0	828375040	70	4450
2026-01-03 22:25:14.91	105.41	20.57	-52.0	-53.6	15.0	0.00e+00	0	29	0	835715072	70	4272
2026-01-03 22:25:18.91	106.35	20.38	-51.7	-53.3	15.1	0.00e+00	0	29	0	843055104	70	4110
2026-01-03 22:25:22.89	107.28	20.17	-52.5	-54.3	14.8	0.00e+00	0	29	0	850395136	70	4599
2026-01-03 22:25:26.89	108.20	19.97	-53.2	-55.1	14.5	0.00e+00	0	29	0	857735168	71	4768
2026-01-03 22:25:30.90	109.11	19.75	-53.2	-55.1	14.5	0.00e+00	0	29	0	866123776	71	4768
2026-01-03 22:25:34.89	110.00	19.53	-52.6	-54.3	14.8	0.00e+00	0	29	0	873463808	71	4380
2026-01-03 22:25:38.88	110.88	19.31	-52.7	-54.4	14.8	0.00e+00	0	29	0	880803840	71	4409
2026-01-03 22:25:42.89	111.75	19.08	-53.2	-55.1	14.5	0.00e+00	0	29	0	888143872	71	4782
2026-01-03 22:25:46.88	112.61	18.85	-53.4	-55.4	14.5	0.00e+00	0	29	0	895483904	72	4670
2026-01-03 22:25:50.88	113.45	18.61	-52.7	-54.5	14.8	0.00e+00	0	29	0	902823936	72	4205
2026-01-03 22:25:54.88	114.28	18.37	-52.8	-54.5	14.7	0.00e+00	0	29	0	910163968	71	4474
2026-01-03 22:25:58.87	115.10	18.13	-53.0	-54.8	14.6	0.00e+00	0	29	0	918552576	71	4649
2026-01-03 22:26:02.88	115.91	17.88	-52.9	-54.7	14.7	0.00e+00	0	29	0	925892608	71	4561
2026-01-03 22:26:06.86	116.70	17.63	-53.2	-55.1	14.5	0.00e+00	0	29	0	933232640	71	4810
2026-01-03 22:26:10.86	117.48	17.38	-53.3	-55.2	14.4	0.00e+00	0	29	0	940572672	71	4844
2026-01-03 22:26:14.85	118.25	17.13	-53.3	-55.2	14.5	0.00e+00	0	29	0	947912704	72	4571
2026-01-03 22:26:18.84	119.00	16.87	-52.5	-54.3	14.8	0.00e+00	0	29	0	955252736	71	4348
2026-01-03 22:26:22.84	119.74	16.61	-53.5	-55.5	14.4	0.00e+00	0	29	0	962592768	72	4745
2026-01-03 22:26:26.84	120.48	16.35	-53.3	-55.3	14.5	0.00e+00	0	29	0	970981376	72	4607
2026-01-03 22:26:30.84	121.20	16.09	-52.9	-54.7	14.7	0.00e+00	0	29	0	978321408	72	4334
2026-01-03 22:26:34.83	121.90	15.83	-53.2	-55.2	14.5	0.00e+00	0	29	0	985661440	72	4546
2026-01-03 22:26:38.82	122.59	15.56	-52.9	-54.7	14.7	0.00e+00	0	29	0	993001472	72	4310
2026-01-03 22:26:42.81	123.28	15.30	-53.2	-55.1	14.5	0.00e+00	0	29	0	1000341504	72	4515
2026-01-03 22:26:46.80	123.95	15.03	-53.3	-55.2	14.5	0.00e+00	0	29	0	1007681536	72	4592
2026-01-03 22:26:50.80	124.61	14.77	-53.0	-54.8	14.7	0.00e+00	0	29	0	1015021568	72	4380
2026-01-03 22:26:54.80	125.25	14.50	-53.5	-55.6	14.3	0.00e+00	0	29	0	1023410176	72	4779
2026-01-03 22:26:58.79	125.89	14.23	-53.2	-55.2	14.5	0.00e+00	0	29	0	1030750208	72	4565
2026-01-03 22:27:02.80	126.52	13.97	-53.1	-55.0	14.5	0.00e+00	0	29	0	1038090240	72	4492
2026-01-03 22:27:06.78	127.13	13.70	-53.6	-55.7	14.2	0.00e+00	0	29	0	1045430272	72	4824
2026-01-03 22:27:10.79	127.74	13.43	-53.4	-55.4	14.3	0.00e+00	0	29	0	1052770304	72	4686
2026-01-03 22:27:14.78	128.33	13.16	-53.4	-55.5	14.3	0.00e+00	0	29	0	1060110336	72	4720
2026-01-03 22:27:18.78	128.92	12.89	-53.6	-55.8	14.2	0.00e+00	0	29	0	1067450368	72	4898
2026-01-03 22:27:22.79	129.49	12.63	-53.5	-55.5	14.3	0.00e+00	0	29	0	1075838976	72	4750
2026-01-03 22:27:26.79	130.05	12.36	-53.6	-55.7	14.2	0.00e+00	0	29	0	1083179008	72	4853
2026-01-03 22:27:30.79	130.61	12.09	-54.0	-56.3	14.0	0.00e+00	0	29	0	1090519040	73	4910
2026-01-03 22:27:34.79	131.15	11.83	-53.7	-55.9	14.2	0.00e+00	0	29	0	1097859072	73	4664
2026-01-03 22:27:38.79	131.69	11.56	-53.4	-55.5	14.4	0.00e+00	0	29	0	1105199104	73	4447
2026-01-03 22:27:42.77	132.21	11.30	-53.5	-55.7	14.3	0.00e+00	0	29	0	1112539136	73	4546
2026-01-03 22:27:46.77	132.73	11.04	-53.8	-56.0	14.1	0.00e+00	0	29	0	1120927744	73	4714
2026-01-03 22:27:50.76	133.24	10.77	-53.8	-56.1	14.1	0.00e+00	0	29	0	1128267776	73	4790
2026-01-03 22:27:54.76	133.74	10.51	-54.1	-56.5	13.9	0.00e+00	0	29	0	1135607808	73	4986
2026-01-03 22:27:58.76	134.23	10.25	-54.2	-56.6	13.8	0.00e+00	0	29	0	1142947840	73	5099
2026-01-03 22:28:02.76	134.71	9.99	-54.0	-56.3	13.9	0.00e+00	0	29	0	1150287872	73	4905
2026-01-03 22:28:06.77	135.19	9.73	-53.9	-56.2	14.0	0.00e+00	0	29	0	1157627904	73	4835
2026-01-03 22:28:10.77	135.65	9.47	-54.1	-56.6	13.8	0.00e+00	0	29	0	1164967936	73	5049
2026-01-03 22:28:14.76	136.11	9.21	-54.4	-57.0	13.5	0.00e+00	0	29	0	1173356544	74	5026
2026-01-03 22:28:18.78	136.57	8.96	-54.9	-57.7	13.2	0.00e+00	0	29	0	1180696576	74	5441
2026-01-03 22:28:22.78	137.01	8.70	-55.0	-58.0	13.1	0.00e+00	0	29	0	1188036608	75	5301
2026-01-03 22:28:26.78	137.45	8.45	-55.0	-57.9	13.2	0.00e+00	0	29	0	1195376640	75	5224
2026-01-03 22:28:30.78	137.87	8.20	-55.1	-58.0	13.0	0.00e+00	0	29	0	1202716672	75	5337
2026-01-03 22:28:34.77	138.30	7.95	-55.0	-58.1	13.0	0.00e+00	0	29	0	1210056704	75	5343
2026-01-03 22:28:38.77	138.71	7.70	-54.8	-57.7	13.2	0.00e+00	0	29	0	1218445312	75	5105
2026-01-03 22:28:42.77	139.12	7.45	-54.5	-57.2	13.5	0.00e+00	0	29	0	1225785344	75	4826
2026-01-03 22:28:46.75	139.52	7.20	-54.5	-57.3	13.4	0.00e+00	0	29	0	1233125376	75	4890
2026-01-03 22:28:50.75	139.91	6.95	-54.6	-57.4	13.3	0.00e+00	0	29	0	1240465408	75	4977
2026-01-03 22:28:54.75	140.30	6.71	-54.9	-57.9	13.0	0.00e+00	0	29	0	1247805440	75	5253
2026-01-03 22:28:58.74	140.69	6.47	-54.9	-58.0	12.9	0.00e+00	0	29	0	1255145472	75	5286
2026-01-03 22:29:02.74	141.06	6.22	-54.4	-57.2	13.4	0.00e+00	0	29	0	1262485504	75	4831
2026-01-03 22:29:06.73	141.43	5.98	-54.1	-56.7	13.6	0.00e+00	0	29	0	1270874112	74	4819
2026-01-03 22:29:10.74	141.80	5.74	-54.1	-56.6	13.6	0.00e+00	0	29	0	1278214144	74	4808
2026-01-03 22:29:14.74	142.16	5.50	-54.4	-57.2	13.3	0.00e+00	0	29	0	1285554176	74	5109
2026-01-03 22:29:18.74	142.51	5.26	-54.6	-57.6	13.0	0.00e+00	0	29	0	1292894208	74	5392
2026-01-03 22:29:22.73	142.86	5.03	-54.6	-57.7	13.0	0.00e+00	0	29	0	1300234240	74	5413
2026-01-03 22:29:26.73	143.20	4.79	-59.9	-75.9	3.8	1.49e+00	0	29	104	1302331392	84	24953
2026-01-03 22:29:30.74	143.54	4.56	-60.5	-76.6	3.8	1.49e+00	0	29	104	1302331392	86	23913
2026-01-03 22:29:34.76	143.88	4.33	-60.9	-76.9	3.8	1.49e+00	0	29	104	1302331392	86	24953
2026-01-03 22:29:38.75	144.20	4.09	-61.2	-77.3	3.8	1.49e+00	0	29	104	1302331392	87	24459
2026-01-03 22:29:42.75	144.53	3.86	-61.3	-77.4	3.8	1.49e+00	0	29	104	1302331392	87	24968
2026-01-03 22:29:46.75	144.85	3.64	-61.3	-77.5	3.8	1.49e+00	0	29	104	1302331392	87	24980
2026-01-03 22:29:50.74	145.16	3.41	-61.3	-77.4	3.8	1.49e+00	0	29	104	1302331392	87	24829
2026-01-03 22:29:54.73	145.47	3.18	-61.3	-77.3	3.8	1.49e+00	0	29	104	1302331392	87	24640
2026-01-03 22:29:58.74	145.77	2.96	-61.2	-77.3	3.8	1.49e+00	0	29	104	1302331392	87	24622
2026-01-03 22:30:02.74	146.07	2.73	-61.2	-77.3	3.8	1.49e+00	0	29	104	1302331392	87	24545
2026-01-03 22:30:06.65	146.36	2.51	-61.2	-77.3	3.8	1.49e+00	0	29	104	1302331392	87	24512
2026-01-03 22:30:10.65	146.65	2.29	-61.2	-77.3	3.8	1.49e+00	0	29	104	1302331392	87	24434
2026-01-03 22:30:14.64	146.94	2.07	-61.1	-77.2	3.8	1.49e+00	0	29	104	1302331392	87	24377

#Closed at: 2026-01-03 22:30:18
#Recorded file [1302 MB]: D:/lorett/data/31004_260104_011719.dat