passes_logs/2026/01/03/R3.2S_Murmansk/R3.2S_Murmansk__20260103_101414_NOAA_20_JPSS-1_rec.log

#Pass ID: 20260103_101414_NOAA 20 (JPSS-1)
#Satellite: NOAA 20 (JPSS-1)
#Configuration: NOAA 20
#almurnet v.1.7.20251203
#Start time: 2026-01-03 10:14:16

#Version: 2.2.20231116
#Station: R3.2S_Murmansk
#Location: 33.079688 lon 68.888172 lat
#TLE: 1 43013U 17073A   26002.92460628  .00000184  00000+0  10833-3 0  9996
#TLE: 2 43013  98.7623 303.9923 0001887  56.9179 303.2178 14.19532741421028

#Time	Az	El	Level	Level2	SNR	BER	BlckErr	Temp	State	Recorded	gain1	gain2
2026-01-03 10:14:16.31	169.13	2.14	-59.8	-75.3	3.8	1.49e+00	0	28	0	0	86	20646
2026-01-03 10:14:20.32	169.22	2.40	-59.8	-75.2	3.8	1.49e+00	0	29	104	0	84	22820
2026-01-03 10:14:24.36	169.32	2.66	-59.8	-75.3	3.8	1.49e+00	0	29	104	0	84	23073
2026-01-03 10:14:28.40	169.41	2.92	-59.8	-75.1	3.8	1.49e+00	0	29	104	0	84	22742
2026-01-03 10:14:32.43	169.51	3.19	-59.8	-75.1	3.8	1.49e+00	0	29	104	0	84	22664
2026-01-03 10:14:36.48	169.61	3.46	-59.8	-75.0	3.8	1.49e+00	0	29	104	0	84	22325
2026-01-03 10:14:40.51	169.71	3.73	-59.6	-71.0	4.5	1.32e+00	38	29	0	0	84	14059
2026-01-03 10:14:44.54	169.81	4.00	-59.2	-67.7	6.2	2.74e-01	0	29	0	7340032	84	9611
2026-01-03 10:14:48.57	169.92	4.28	-58.4	-64.4	8.8	1.98e-02	0	29	0	14680064	83	6985
2026-01-03 10:14:52.61	170.02	4.55	-57.3	-61.2	11.4	1.03e-04	0	29	0	22020096	81	5409
2026-01-03 10:14:56.64	170.13	4.84	-56.3	-59.2	12.7	0.00e+00	0	29	0	30408704	79	4843
2026-01-03 10:15:00.67	170.24	5.12	-58.6	-65.1	8.3	1.04e-03	0	29	0	37748736	82	8077
2026-01-03 10:15:04.71	170.35	5.41	-55.3	-57.5	13.7	1.60e-05	0	29	0	45088768	77	4459
2026-01-03 10:15:08.74	170.46	5.70	-55.1	-57.2	13.8	0.00e+00	0	30	0	52428800	76	4582
2026-01-03 10:15:12.78	170.57	5.99	-55.2	-57.3	13.8	0.00e+00	0	29	0	60817408	76	4640
2026-01-03 10:15:16.81	170.69	6.29	-55.2	-57.3	13.8	0.00e+00	0	30	0	68157440	76	4606
2026-01-03 10:15:20.84	170.81	6.59	-55.0	-56.9	14.0	0.00e+00	0	30	0	75497472	76	4440
2026-01-03 10:15:24.88	170.93	6.89	-54.8	-56.7	14.2	0.00e+00	0	30	0	82837504	76	4305
2026-01-03 10:15:28.92	171.05	7.20	-54.9	-56.8	14.1	0.00e+00	0	30	0	90177536	76	4356
2026-01-03 10:15:32.95	171.18	7.51	-54.9	-56.7	14.2	0.00e+00	0	30	0	98566144	76	4336
2026-01-03 10:15:36.98	171.31	7.83	-54.7	-56.5	14.3	0.00e+00	0	30	0	105906176	76	4202
2026-01-03 10:15:41.01	171.44	8.14	-54.6	-56.4	14.3	0.00e+00	0	30	0	113246208	75	4408
2026-01-03 10:15:45.04	171.57	8.47	-54.5	-56.2	14.4	0.00e+00	0	30	0	120586240	75	4320
2026-01-03 10:15:49.08	171.71	8.79	-54.4	-56.1	14.5	0.00e+00	0	30	0	127926272	75	4256
2026-01-03 10:15:53.11	171.85	9.12	-54.4	-56.1	14.5	0.00e+00	0	30	0	136314880	75	4256
2026-01-03 10:15:57.15	171.99	9.46	-54.3	-55.9	14.6	0.00e+00	0	30	0	143654912	75	4149
2026-01-03 10:16:01.18	172.13	9.80	-54.1	-55.7	14.6	0.00e+00	0	30	0	150994944	74	4292
2026-01-03 10:16:05.22	172.28	10.14	-54.2	-55.7	14.6	0.00e+00	0	30	0	158334976	74	4314
2026-01-03 10:16:09.25	172.43	10.49	-54.0	-55.5	14.7	0.00e+00	0	30	0	165675008	74	4240
2026-01-03 10:16:13.29	172.58	10.85	-54.0	-55.5	14.7	0.00e+00	0	30	0	174063616	74	4235
2026-01-03 10:16:17.32	172.74	11.21	-54.0	-55.5	14.7	0.00e+00	0	30	0	181403648	74	4221
2026-01-03 10:16:21.35	172.90	11.57	-54.1	-55.6	14.7	0.00e+00	0	30	0	188743680	74	4247
2026-01-03 10:16:25.38	173.07	11.94	-53.9	-55.3	14.8	0.00e+00	0	30	0	196083712	74	4141
2026-01-03 10:16:29.40	173.23	12.31	-53.9	-55.4	14.8	0.00e+00	0	30	0	204472320	74	4168
2026-01-03 10:16:33.43	173.41	12.69	-53.9	-55.4	14.8	0.00e+00	0	30	0	211812352	74	4151
2026-01-03 10:16:37.46	173.58	13.08	-53.9	-55.3	14.8	0.00e+00	0	30	0	219152384	74	4114
2026-01-03 10:16:41.49	173.76	13.47	-54.0	-55.4	14.8	0.00e+00	0	30	0	226492416	74	4175
2026-01-03 10:16:45.53	173.95	13.87	-53.9	-55.4	14.8	0.00e+00	0	30	0	233832448	74	4149
2026-01-03 10:16:49.55	174.14	14.27	-53.9	-55.4	14.8	0.00e+00	0	30	0	242221056	74	4149
2026-01-03 10:16:53.59	174.33	14.68	-54.0	-55.5	14.8	0.00e+00	0	30	0	249561088	74	4201
2026-01-03 10:16:57.63	174.53	15.10	-54.0	-55.4	14.8	0.00e+00	0	30	0	256901120	74	4169
2026-01-03 10:17:01.65	174.74	15.53	-54.1	-55.5	14.8	0.00e+00	0	30	0	264241152	74	4232
2026-01-03 10:17:05.68	174.95	15.96	-54.1	-55.6	14.8	0.00e+00	0	30	0	271581184	74	4252
2026-01-03 10:17:09.72	175.17	16.40	-54.0	-55.4	14.8	0.00e+00	0	30	0	279969792	74	4191
2026-01-03 10:17:13.75	175.39	16.85	-54.0	-55.4	14.8	0.00e+00	0	30	0	287309824	74	4183
2026-01-03 10:17:17.78	175.62	17.30	-54.0	-55.4	14.8	0.00e+00	0	30	0	294649856	74	4185
2026-01-03 10:17:21.81	175.85	17.76	-54.1	-55.5	14.8	0.00e+00	0	30	0	301989888	74	4217
2026-01-03 10:17:25.84	176.09	18.24	-54.1	-55.5	14.8	0.00e+00	0	31	0	309329920	74	4223
2026-01-03 10:17:29.87	176.34	18.72	-54.1	-55.6	14.8	0.00e+00	0	30	0	317718528	74	4252
2026-01-03 10:17:33.90	176.60	19.21	-54.1	-55.5	14.9	0.00e+00	0	30	0	325058560	74	4200
2026-01-03 10:17:37.94	176.86	19.71	-54.1	-55.5	14.9	0.00e+00	0	30	0	332398592	74	4202
2026-01-03 10:17:41.98	177.14	20.22	-54.1	-55.6	14.8	0.00e+00	0	30	0	339738624	74	4245
2026-01-03 10:17:46.02	177.42	20.74	-54.3	-55.7	14.8	0.00e+00	0	30	0	348127232	74	4303
2026-01-03 10:17:50.05	177.71	21.26	-54.3	-55.7	14.8	0.00e+00	0	30	0	355467264	74	4331
2026-01-03 10:17:54.08	178.01	21.80	-54.1	-55.5	14.9	0.00e+00	0	30	0	362807296	74	4209
2026-01-03 10:17:58.12	178.32	22.35	-54.0	-55.3	15.0	0.00e+00	0	30	0	370147328	74	4133
2026-01-03 10:18:02.15	178.64	22.92	-53.7	-54.9	15.0	0.00e+00	0	30	0	377487360	73	4178
2026-01-03 10:18:06.18	178.98	23.49	-53.5	-54.7	15.1	0.00e+00	0	30	0	385875968	73	4098
2026-01-03 10:18:10.21	179.32	24.07	-53.4	-54.7	15.1	0.00e+00	0	30	0	393216000	73	4052
2026-01-03 10:18:14.25	179.68	24.67	-53.3	-54.5	15.2	0.00e+00	0	30	0	400556032	73	3987
2026-01-03 10:18:18.28	180.05	25.28	-53.1	-54.3	15.2	0.00e+00	0	30	0	407896064	72	4100
2026-01-03 10:18:22.31	180.43	25.91	-53.0	-54.1	15.3	0.00e+00	0	30	0	415236096	72	4029
2026-01-03 10:18:26.34	180.83	26.55	-52.9	-54.0	15.3	0.00e+00	0	30	0	423624704	72	3970
2026-01-03 10:18:30.38	181.25	27.20	-53.0	-54.1	15.3	0.00e+00	0	30	0	430964736	72	4035
2026-01-03 10:18:34.41	181.68	27.86	-53.5	-54.7	15.0	0.00e+00	0	30	0	438304768	72	4318
2026-01-03 10:18:38.43	182.13	28.54	-53.9	-55.2	14.9	0.00e+00	0	30	0	445644800	73	4329
2026-01-03 10:18:42.47	182.60	29.24	-54.3	-55.7	14.8	0.00e+00	0	31	0	454033408	73	4567
2026-01-03 10:18:46.50	183.09	29.95	-54.5	-55.9	14.7	0.00e+00	0	30	0	461373440	74	4440
2026-01-03 10:18:50.53	183.60	30.67	-55.1	-56.7	14.4	0.00e+00	0	30	0	468713472	75	4582
2026-01-03 10:18:54.57	184.13	31.42	-55.5	-57.3	14.3	0.00e+00	0	30	0	476053504	76	4620
2026-01-03 10:18:58.60	184.69	32.18	-55.9	-57.9	14.1	0.00e+00	0	30	0	483393536	77	4652
2026-01-03 10:19:02.63	185.28	32.95	-56.1	-58.0	14.0	0.00e+00	0	31	0	491782144	77	4754
2026-01-03 10:19:06.67	185.89	33.75	-55.9	-57.8	14.1	0.00e+00	0	30	0	499122176	77	4632
2026-01-03 10:19:10.71	186.53	34.56	-55.9	-57.8	14.1	0.00e+00	0	30	0	506462208	77	4628
2026-01-03 10:19:14.73	187.20	35.39	-56.1	-58.0	14.0	0.00e+00	0	30	0	513802240	77	4750
2026-01-03 10:19:18.76	187.91	36.23	-55.8	-57.7	14.2	0.00e+00	0	30	0	521142272	77	4563
2026-01-03 10:19:22.80	188.66	37.10	-55.7	-57.4	14.3	0.00e+00	0	30	0	529530880	77	4437
2026-01-03 10:19:26.83	189.45	37.98	-55.9	-57.8	14.2	0.00e+00	0	31	0	536870912	77	4612
2026-01-03 10:19:30.85	190.27	38.87	-55.7	-57.5	14.3	0.00e+00	0	30	0	544210944	77	4454
2026-01-03 10:19:34.88	191.15	39.78	-55.4	-57.1	14.5	0.00e+00	0	31	0	551550976	77	4244
2026-01-03 10:19:38.91	192.07	40.72	-55.1	-56.7	14.6	0.00e+00	0	30	0	558891008	76	4305
2026-01-03 10:19:42.94	193.05	41.66	-54.6	-56.1	14.8	0.00e+00	0	30	0	567279616	75	4268
2026-01-03 10:19:46.97	194.09	42.63	-54.9	-56.4	14.7	0.00e+00	0	30	0	574619648	75	4399
2026-01-03 10:19:51.01	195.19	43.60	-54.9	-56.5	14.6	0.00e+00	0	30	0	581959680	75	4453
2026-01-03 10:19:55.05	196.36	44.60	-54.8	-56.3	14.8	0.00e+00	0	31	0	589299712	75	4347
2026-01-03 10:19:59.08	197.61	45.60	-55.9	-57.7	14.2	0.00e+00	0	30	0	596639744	77	4559
2026-01-03 10:20:03.11	198.93	46.61	-55.2	-56.8	14.6	0.00e+00	0	30	0	605028352	76	4351
2026-01-03 10:20:07.15	200.34	47.63	-56.1	-57.9	14.1	0.00e+00	0	31	0	612368384	77	4692
2026-01-03 10:20:11.18	201.85	48.65	-55.7	-57.4	14.4	0.00e+00	0	30	0	619708416	77	4411
2026-01-03 10:20:15.22	203.46	49.68	-55.2	-56.8	14.6	0.00e+00	0	30	0	627048448	76	4366
2026-01-03 10:20:19.21	205.16	50.69	-54.9	-56.4	14.8	0.00e+00	0	30	0	635437056	76	4175
2026-01-03 10:20:23.20	206.98	51.70	-53.8	-55.0	15.2	0.00e+00	0	31	0	642777088	73	4208
2026-01-03 10:20:27.18	208.92	52.69	-53.1	-54.1	15.4	0.00e+00	0	30	0	650117120	72	4047
2026-01-03 10:20:31.16	210.99	53.67	-53.3	-54.4	15.3	0.00e+00	0	31	0	657457152	72	4166
2026-01-03 10:20:35.19	213.23	54.64	-53.1	-54.2	15.4	0.00e+00	0	30	0	664797184	72	4065
2026-01-03 10:20:39.20	215.61	55.58	-54.0	-55.3	15.0	0.00e+00	0	30	0	672137216	73	4353
2026-01-03 10:20:43.19	218.14	56.48	-54.7	-56.1	14.8	0.00e+00	0	30	0	679477248	74	4519
2026-01-03 10:20:47.21	220.86	57.34	-54.5	-55.9	15.0	0.00e+00	0	30	0	687865856	75	4157
2026-01-03 10:20:51.23	223.74	58.14	-54.2	-55.5	15.0	0.00e+00	0	30	0	695205888	74	4228
2026-01-03 10:20:55.26	226.80	58.89	-54.0	-55.3	15.1	0.00e+00	0	30	0	702545920	74	4106
2026-01-03 10:20:59.28	230.03	59.57	-54.3	-55.7	15.0	0.00e+00	0	30	0	709885952	74	4295
2026-01-03 10:21:03.31	233.42	60.17	-53.8	-55.0	15.2	0.00e+00	0	30	0	717225984	74	3997
2026-01-03 10:21:07.33	236.95	60.68	-53.3	-54.4	15.4	0.00e+00	0	30	0	725614592	73	3958
2026-01-03 10:21:11.35	240.62	61.10	-53.9	-55.1	15.1	0.00e+00	0	30	0	732954624	73	4262
2026-01-03 10:21:15.38	244.40	61.41	-54.2	-55.4	15.0	0.00e+00	0	30	0	740294656	73	4436
2026-01-03 10:21:19.41	248.26	61.61	-53.5	-54.6	15.3	0.00e+00	0	30	0	747634688	73	4009
2026-01-03 10:21:23.43	252.15	61.71	-54.7	-56.1	14.8	0.00e+00	0	30	0	754974720	74	4512
2026-01-03 10:21:27.45	256.06	61.69	-52.8	-53.8	15.5	0.00e+00	0	31	0	762314752	72	3873
2026-01-03 10:21:31.47	259.94	61.55	-52.5	-53.5	15.5	0.00e+00	0	31	0	770703360	71	3994
2026-01-03 10:21:35.50	263.78	61.31	-52.8	-53.8	15.3	0.00e+00	0	30	0	778043392	70	4357
2026-01-03 10:21:39.53	267.52	60.96	-54.4	-55.7	14.8	0.00e+00	0	30	0	785383424	73	4553
2026-01-03 10:21:43.55	271.13	60.51	-54.7	-56.1	14.8	0.00e+00	0	30	0	792723456	74	4514
2026-01-03 10:21:47.56	274.60	59.96	-54.8	-56.1	15.0	0.00e+00	0	31	0	801112064	76	4046
2026-01-03 10:21:51.59	277.94	59.34	-55.5	-57.1	14.5	0.00e+00	0	31	0	808452096	76	4527
2026-01-03 10:21:55.62	281.10	58.63	-55.6	-57.2	14.6	0.00e+00	0	30	0	815792128	77	4318
2026-01-03 10:21:59.65	284.10	57.86	-55.3	-56.8	14.7	0.00e+00	0	30	0	823132160	76	4357
2026-01-03 10:22:03.68	286.93	57.03	-54.3	-55.5	15.1	0.00e+00	0	30	0	830472192	75	4000
2026-01-03 10:22:07.70	289.57	56.16	-54.1	-55.3	15.1	0.00e+00	0	30	0	837812224	74	4136
2026-01-03 10:22:11.73	292.06	55.24	-53.3	-54.4	15.4	0.00e+00	0	30	0	846200832	73	3946
2026-01-03 10:22:15.75	294.39	54.29	-51.7	-52.6	15.7	0.00e+00	0	30	0	853540864	70	3806
2026-01-03 10:22:19.78	296.57	53.32	-50.4	-51.3	15.9	0.00e+00	0	30	0	860880896	67	3896
2026-01-03 10:22:23.80	298.61	52.33	-51.7	-52.6	15.6	0.00e+00	0	31	0	868220928	69	4042
2026-01-03 10:22:27.83	300.52	51.32	-51.7	-52.6	15.7	0.00e+00	0	30	0	875560960	69	4009
2026-01-03 10:22:31.86	302.30	50.30	-53.5	-54.7	15.2	0.00e+00	0	30	0	883949568	72	4293
2026-01-03 10:22:35.90	303.97	49.28	-55.1	-56.5	14.8	0.00e+00	0	30	0	891289600	76	4238
2026-01-03 10:22:39.93	305.54	48.26	-56.8	-59.0	13.8	0.00e+00	0	31	0	898629632	78	4985
2026-01-03 10:22:43.96	307.00	47.24	-56.9	-59.1	13.7	0.00e+00	0	30	0	905969664	80	4540
2026-01-03 10:22:47.98	308.37	46.23	-58.7	-62.3	11.8	1.14e-05	0	31	0	914358272	82	5828
2026-01-03 10:22:52.01	309.66	45.23	-57.5	-60.1	13.1	0.00e+00	0	30	0	921698304	80	5066
2026-01-03 10:22:56.04	310.87	44.23	-56.4	-58.3	14.1	0.00e+00	0	30	0	929038336	79	4375
2026-01-03 10:23:00.07	312.01	43.25	-54.9	-56.3	14.8	0.00e+00	0	30	0	936378368	76	4133
2026-01-03 10:23:04.10	313.08	42.28	-54.2	-55.4	15.1	0.00e+00	0	31	0	943718400	74	4171
2026-01-03 10:23:08.13	314.09	41.33	-55.5	-57.2	14.5	0.00e+00	0	30	0	952107008	76	4560
2026-01-03 10:23:12.16	315.05	40.39	-53.8	-55.0	15.2	0.00e+00	0	30	0	959447040	74	3967
2026-01-03 10:23:16.18	315.95	39.48	-55.5	-57.2	14.5	0.00e+00	0	30	0	966787072	77	4315
2026-01-03 10:23:20.19	316.80	38.58	-53.2	-54.3	15.3	0.00e+00	0	31	0	974127104	72	4108
2026-01-03 10:23:24.21	317.61	37.69	-54.9	-56.4	14.7	0.00e+00	0	30	0	981467136	74	4654
2026-01-03 10:23:28.22	318.38	36.83	-54.4	-55.8	15.0	0.00e+00	0	31	0	988807168	75	4100
2026-01-03 10:23:32.24	319.10	35.98	-54.0	-55.3	15.0	0.00e+00	0	30	0	997195776	73	4349
2026-01-03 10:23:36.24	319.79	35.15	-55.8	-57.5	14.3	0.00e+00	0	31	0	1004535808	77	4492
2026-01-03 10:23:40.24	320.45	34.33	-54.1	-55.4	15.1	0.00e+00	0	31	0	1011875840	74	4159
2026-01-03 10:23:44.23	321.08	33.54	-54.8	-56.3	14.7	0.00e+00	0	30	0	1019215872	74	4633
2026-01-03 10:23:48.21	321.67	32.77	-55.6	-57.3	14.4	0.00e+00	0	30	0	1026555904	76	4643
2026-01-03 10:23:52.16	322.23	32.02	-55.5	-57.1	14.5	0.00e+00	0	30	0	1033895936	76	4518
2026-01-03 10:23:56.14	322.78	31.28	-55.8	-57.6	14.2	0.00e+00	0	31	0	1041235968	76	4785
2026-01-03 10:24:00.12	323.30	30.55	-55.8	-57.6	14.2	0.00e+00	0	30	0	1049624576	76	4767
2026-01-03 10:24:04.08	323.79	29.84	-55.5	-57.1	14.4	0.00e+00	0	31	0	1056964608	76	4538
2026-01-03 10:24:08.05	324.27	29.15	-56.0	-57.9	14.1	0.00e+00	0	30	0	1064304640	77	4705
2026-01-03 10:24:12.03	324.73	28.47	-56.1	-58.1	14.0	0.00e+00	0	31	0	1071644672	77	4765
2026-01-03 10:24:15.99	325.17	27.81	-55.5	-57.2	14.4	0.00e+00	0	31	0	1078984704	77	4340
2026-01-03 10:24:19.95	325.59	27.16	-55.4	-57.1	14.5	0.00e+00	0	30	0	1086324736	77	4246
2026-01-03 10:24:23.90	325.99	26.53	-55.5	-57.2	14.5	0.00e+00	0	30	0	1093664768	77	4300
2026-01-03 10:24:27.87	326.38	25.90	-55.4	-57.0	14.5	0.00e+00	0	30	0	1101004800	77	4239
2026-01-03 10:24:31.83	326.76	25.30	-54.8	-56.3	14.8	0.00e+00	0	30	0	1108344832	76	4138
2026-01-03 10:24:35.79	327.12	24.70	-54.3	-55.6	15.0	0.00e+00	0	31	0	1115684864	75	4031
2026-01-03 10:24:39.75	327.47	24.12	-54.1	-55.4	15.0	0.00e+00	0	30	0	1123024896	74	4158
2026-01-03 10:24:43.71	327.81	23.54	-54.0	-55.3	15.1	0.00e+00	0	30	0	1130364928	74	4126
2026-01-03 10:24:47.65	328.14	22.99	-54.1	-55.4	15.0	0.00e+00	0	30	0	1137704960	74	4182
2026-01-03 10:24:51.61	328.45	22.44	-54.2	-55.5	15.0	0.00e+00	0	31	0	1146093568	74	4234
2026-01-03 10:24:55.57	328.76	21.90	-54.0	-55.4	15.0	0.00e+00	0	30	0	1153433600	74	4149
2026-01-03 10:24:59.53	329.06	21.37	-53.5	-54.8	15.2	0.00e+00	0	30	0	1160773632	73	4101
2026-01-03 10:25:03.49	329.34	20.85	-53.1	-54.2	15.3	0.00e+00	0	30	0	1168113664	72	4085
2026-01-03 10:25:07.46	329.62	20.35	-52.8	-53.9	15.4	0.00e+00	0	30	0	1175453696	72	3947
2026-01-03 10:25:11.41	329.89	19.85	-52.8	-53.9	15.4	0.00e+00	0	30	0	1182793728	72	3932
2026-01-03 10:25:15.37	330.15	19.36	-53.0	-54.1	15.3	0.00e+00	0	31	0	1190133760	72	4028
2026-01-03 10:25:19.31	330.41	18.88	-53.1	-54.3	15.3	0.00e+00	0	31	0	1197473792	72	4101
2026-01-03 10:25:23.28	330.65	18.41	-53.2	-54.4	15.2	0.00e+00	0	31	0	1204813824	72	4182
2026-01-03 10:25:27.24	330.89	17.95	-53.3	-54.5	15.1	0.00e+00	0	30	0	1212153856	72	4195
2026-01-03 10:25:31.21	331.13	17.49	-53.2	-54.4	15.2	0.00e+00	0	30	0	1219493888	72	4173
2026-01-03 10:25:35.19	331.36	17.04	-53.2	-54.3	15.2	0.00e+00	0	30	0	1226833920	72	4140
2026-01-03 10:25:39.15	331.58	16.60	-53.3	-54.6	15.1	0.00e+00	0	31	0	1235222528	72	4258
2026-01-03 10:25:43.10	331.79	16.17	-53.5	-54.8	15.0	0.00e+00	0	30	0	1242562560	72	4345
2026-01-03 10:25:47.06	332.00	15.75	-53.6	-55.0	15.0	0.00e+00	0	30	0	1249902592	72	4448
2026-01-03 10:25:51.03	332.21	15.33	-53.8	-55.2	14.9	0.00e+00	0	31	0	1257242624	72	4560
2026-01-03 10:25:54.99	332.41	14.92	-53.8	-55.2	14.9	0.00e+00	0	30	0	1264582656	73	4327
2026-01-03 10:25:58.96	332.60	14.51	-54.0	-55.4	14.8	0.00e+00	0	31	0	1271922688	73	4409
2026-01-03 10:26:02.91	332.79	14.12	-53.8	-55.2	14.9	0.00e+00	0	30	0	1279262720	73	4335
2026-01-03 10:26:06.88	332.98	13.72	-53.8	-55.2	14.9	0.00e+00	0	30	0	1286602752	73	4318
2026-01-03 10:26:10.84	333.16	13.34	-53.9	-55.3	14.9	0.00e+00	0	30	0	1293942784	73	4341
2026-01-03 10:26:14.82	333.33	12.96	-53.9	-55.3	14.8	0.00e+00	0	31	0	1301282816	73	4361
2026-01-03 10:26:18.78	333.51	12.58	-53.9	-55.4	14.8	0.00e+00	0	31	0	1308622848	73	4396
2026-01-03 10:26:22.74	333.68	12.21	-54.1	-55.5	14.7	0.00e+00	0	31	0	1317011456	73	4491
2026-01-03 10:26:26.71	333.84	11.85	-54.3	-55.8	14.6	0.00e+00	0	30	0	1324351488	73	4636
2026-01-03 10:26:30.67	334.00	11.49	-54.4	-56.0	14.6	0.00e+00	0	31	0	1331691520	74	4466
2026-01-03 10:26:34.64	334.16	11.14	-54.6	-56.2	14.5	0.00e+00	0	31	0	1339031552	74	4589
2026-01-03 10:26:38.60	334.32	10.79	-54.7	-56.4	14.4	0.00e+00	0	31	0	1346371584	74	4665
2026-01-03 10:26:42.58	334.47	10.44	-54.8	-56.6	14.3	0.00e+00	0	30	0	1353711616	74	4790
2026-01-03 10:26:46.54	334.62	10.10	-54.8	-56.6	14.3	0.00e+00	0	31	0	1361051648	74	4767
2026-01-03 10:26:50.50	334.76	9.77	-54.9	-56.7	14.3	0.00e+00	0	31	0	1368391680	75	4547
2026-01-03 10:26:54.48	334.91	9.44	-54.9	-56.7	14.2	0.00e+00	0	31	0	1375731712	75	4584
2026-01-03 10:26:58.45	335.05	9.11	-54.8	-56.6	14.3	0.00e+00	0	31	0	1383071744	75	4535
2026-01-03 10:27:02.43	335.18	8.79	-54.8	-56.6	14.3	0.00e+00	0	31	0	1390411776	75	4538
2026-01-03 10:27:06.39	335.32	8.47	-54.8	-56.7	14.2	0.00e+00	0	31	0	1398800384	75	4549
2026-01-03 10:27:10.34	335.45	8.16	-54.8	-56.7	14.2	0.00e+00	0	31	0	1406140416	75	4568
2026-01-03 10:27:14.30	335.58	7.85	-54.7	-56.5	14.3	0.00e+00	0	30	0	1413480448	75	4470
2026-01-03 10:27:18.27	335.71	7.54	-54.7	-56.5	14.3	0.00e+00	0	30	0	1420820480	75	4471
2026-01-03 10:27:22.22	335.83	7.24	-54.7	-56.6	14.2	0.00e+00	0	31	0	1428160512	75	4511
2026-01-03 10:27:26.17	335.96	6.94	-54.7	-56.5	14.3	0.00e+00	0	31	0	1435500544	75	4449
2026-01-03 10:27:30.14	336.08	6.64	-54.8	-56.7	14.1	0.00e+00	0	31	0	1442840576	75	4561
2026-01-03 10:27:34.10	336.20	6.35	-54.8	-56.7	14.1	0.00e+00	0	31	0	1450180608	75	4562
2026-01-03 10:27:38.06	336.31	6.06	-54.8	-56.8	14.1	0.00e+00	0	31	0	1457520640	75	4602
2026-01-03 10:27:42.03	336.43	5.77	-54.9	-56.9	14.0	0.00e+00	0	31	0	1464860672	75	4670
2026-01-03 10:27:45.98	336.54	5.49	-55.1	-57.2	13.8	0.00e+00	0	31	0	1472200704	75	4843
2026-01-03 10:27:49.95	336.65	5.21	-55.0	-57.1	13.9	0.00e+00	0	31	0	1479540736	75	4781
2026-01-03 10:27:53.92	336.76	4.93	-60.6	-76.2	3.8	1.49e+00	0	31	104	1485832192	86	22860
2026-01-03 10:27:57.91	336.87	4.65	-61.4	-77.0	3.8	1.49e+00	0	31	104	1485832192	88	22476
2026-01-03 10:28:01.91	336.98	4.38	-61.8	-77.4	3.8	1.49e+00	0	31	104	1485832192	88	23433
2026-01-03 10:28:05.90	337.08	4.11	-61.9	-77.5	3.8	1.49e+00	0	31	104	1485832192	89	22407
2026-01-03 10:28:09.91	337.19	3.84	-62.0	-77.6	3.8	1.49e+00	0	31	104	1485832192	89	22615
2026-01-03 10:28:13.97	337.29	3.57	-62.0	-77.7	3.8	1.49e+00	0	31	104	1485832192	89	22808
2026-01-03 10:28:17.93	337.39	3.31	-62.0	-77.6	3.8	1.49e+00	0	31	104	1485832192	89	22588
2026-01-03 10:28:21.89	337.49	3.05	-61.9	-77.5	3.8	1.49e+00	0	31	104	1485832192	89	22447
2026-01-03 10:28:25.85	337.59	2.79	-61.9	-77.5	3.8	1.49e+00	0	31	104	1485832192	89	22399
2026-01-03 10:28:29.84	337.68	2.53	-61.8	-77.4	3.8	1.49e+00	0	31	104	1485832192	89	22253
2026-01-03 10:28:33.81	337.78	2.28	-61.8	-77.4	3.8	1.49e+00	0	31	104	1485832192	89	22222
2026-01-03 10:28:37.77	337.87	2.03	-61.8	-77.4	3.8	1.49e+00	0	31	104	1485832192	89	22169

#Closed at: 2026-01-03 10:28:39
#Recorded file [1485 MB]: D:/lorett/data/31004_260103_131416.dat