passes_logs/2026/01/03/R3.2S_Murmansk/R3.2S_Murmansk__20260103_091518_FENGYUN_3D_rec.log

#Pass ID: 20260103_091518_FENGYUN 3D
#Satellite: FENGYUN 3D
#Configuration: FENGYUN 3D
#almurnet v.1.7.20251203
#Start time: 2026-01-03 09:15:20

#Version: 2.2.20231116
#Station: R3.2S_Murmansk
#Location: 33.079688 lon 68.888172 lat
#TLE: 1 43010U 17072A   26002.95198047  .00000207  00000+0  11963-3 0  9999
#TLE: 2 43010  98.9912 334.5826 0001910 130.7105 229.4237 14.19692231421540

#Time	Az	El	Level	Level2	SNR	BER	BlckErr	Temp	State	Recorded	gain1	gain2
2026-01-03 09:15:20.05	99.86	2.11	-59.6	-72.1	3.8	8.45e-01	0	28	0	0	85	15212
2026-01-03 09:15:24.08	99.67	2.36	-59.6	-72.1	3.8	8.46e-01	0	28	104	0	84	16074
2026-01-03 09:15:28.11	99.47	2.61	-59.6	-72.2	3.8	8.45e-01	0	29	104	0	84	16216
2026-01-03 09:15:32.14	99.28	2.85	-59.6	-72.1	3.8	8.47e-01	0	29	104	0	84	16043
2026-01-03 09:15:36.17	99.08	3.10	-59.6	-72.2	3.8	8.46e-01	0	29	104	0	84	16142
2026-01-03 09:15:40.20	98.87	3.36	-59.6	-72.0	3.8	8.46e-01	0	29	104	0	84	15913
2026-01-03 09:15:44.24	98.67	3.61	-59.6	-71.9	3.8	8.46e-01	0	29	104	0	84	15649
2026-01-03 09:15:48.28	98.46	3.87	-59.6	-72.2	3.8	8.46e-01	0	29	104	0	84	16139
2026-01-03 09:15:52.32	98.24	4.13	-59.4	-69.2	4.1	8.43e-01	0	29	104	0	84	11503
2026-01-03 09:15:56.35	98.02	4.39	-58.5	-64.8	5.9	4.58e-01	0	29	0	2097152	83	7356
2026-01-03 09:16:00.38	97.80	4.65	-56.9	-60.5	9.4	1.04e-02	0	29	0	24117248	80	5307
2026-01-03 09:16:04.42	97.57	4.92	-55.8	-58.4	11.1	1.80e-04	0	29	0	47185920	78	4689
2026-01-03 09:16:08.46	97.34	5.18	-55.2	-57.5	11.9	0.00e+00	0	29	0	70254592	75	5019
2026-01-03 09:16:12.50	97.10	5.45	-52.0	-53.3	14.1	0.00e+00	0	29	0	92274688	70	4109
2026-01-03 09:16:16.53	96.86	5.73	-51.6	-52.8	14.3	0.00e+00	0	29	0	115343360	69	4119
2026-01-03 09:16:20.57	96.61	6.00	-51.2	-52.3	14.5	0.00e+00	0	30	0	138412032	68	4134
2026-01-03 09:16:24.61	96.36	6.28	-51.1	-52.3	14.5	0.00e+00	0	30	0	160432128	68	4105
2026-01-03 09:16:28.63	96.10	6.56	-51.1	-52.2	14.5	0.00e+00	0	29	0	183500800	68	4087
2026-01-03 09:16:32.67	95.84	6.84	-51.1	-52.2	14.6	0.00e+00	0	30	0	206569472	68	4066
2026-01-03 09:16:36.71	95.58	7.12	-50.9	-52.0	14.7	0.00e+00	0	30	0	228589568	68	3968
2026-01-03 09:16:40.75	95.30	7.41	-50.8	-51.9	14.7	0.00e+00	0	30	0	251658240	68	3941
2026-01-03 09:16:44.78	95.02	7.70	-50.8	-51.8	14.8	0.00e+00	0	30	0	273678336	68	3911
2026-01-03 09:16:48.81	94.74	7.99	-50.7	-51.8	14.8	0.00e+00	0	30	0	296747008	68	3870
2026-01-03 09:16:52.85	94.45	8.28	-50.4	-51.4	14.8	0.00e+00	0	30	0	319815680	67	3941
2026-01-03 09:16:56.89	94.15	8.58	-50.3	-51.3	14.9	0.00e+00	0	30	0	341835776	67	3877
2026-01-03 09:17:00.93	93.85	8.88	-50.2	-51.1	14.9	0.00e+00	0	30	0	364904448	66	4034
2026-01-03 09:17:04.97	93.54	9.19	-50.2	-51.2	14.9	0.00e+00	0	30	0	387973120	66	4098
2026-01-03 09:17:09.01	93.22	9.49	-50.2	-51.1	14.9	0.00e+00	0	30	0	411041792	66	4044
2026-01-03 09:17:13.05	92.90	9.80	-50.1	-51.1	14.9	0.00e+00	0	30	0	433061888	66	4011
2026-01-03 09:17:17.09	92.57	10.11	-49.9	-50.8	15.0	0.00e+00	0	30	0	456130560	66	3900
2026-01-03 09:17:21.13	92.23	10.43	-49.8	-50.7	15.1	0.00e+00	0	30	0	478150656	66	3848
2026-01-03 09:17:25.18	91.88	10.75	-49.7	-50.6	15.0	0.00e+00	0	30	0	501219328	65	4038
2026-01-03 09:17:29.21	91.53	11.07	-49.7	-50.6	15.0	0.00e+00	0	30	0	524288000	65	4040
2026-01-03 09:17:33.25	91.17	11.39	-49.9	-50.8	15.0	0.00e+00	0	30	0	546308096	65	4144
2026-01-03 09:17:37.29	90.80	11.72	-49.6	-50.6	15.1	0.00e+00	0	30	0	569376768	65	4021
2026-01-03 09:17:41.33	90.42	12.05	-49.5	-50.5	15.1	0.00e+00	0	30	0	592445440	65	3965
2026-01-03 09:17:45.37	90.03	12.38	-49.4	-50.3	15.2	0.00e+00	0	30	0	615514112	65	3892
2026-01-03 09:17:49.40	89.64	12.72	-49.1	-50.1	15.3	0.00e+00	0	30	0	637534208	64	4008
2026-01-03 09:17:53.44	89.23	13.06	-49.2	-50.2	15.2	0.00e+00	0	30	0	660602880	64	4052
2026-01-03 09:17:57.48	88.81	13.40	-49.1	-49.9	15.3	0.00e+00	0	30	0	682622976	64	3955
2026-01-03 09:18:01.51	88.39	13.75	-49.0	-49.9	15.3	0.00e+00	0	30	0	705691648	64	3948
2026-01-03 09:18:05.55	87.95	14.10	-48.9	-49.8	15.3	0.00e+00	0	30	0	728760320	64	3889
2026-01-03 09:18:09.58	87.51	14.45	-48.9	-49.8	15.3	0.00e+00	0	30	0	750780416	64	3887
2026-01-03 09:18:13.62	87.05	14.81	-48.9	-49.8	15.4	0.00e+00	0	30	0	773849088	64	3870
2026-01-03 09:18:17.66	86.58	15.17	-48.8	-49.5	15.6	0.00e+00	0	30	0	796917760	64	3747
2026-01-03 09:18:21.70	86.09	15.53	-48.7	-49.4	15.5	0.00e+00	0	30	0	818937856	63	3955
2026-01-03 09:18:25.74	85.60	15.90	-48.7	-49.4	15.5	0.00e+00	0	30	0	842006528	63	3937
2026-01-03 09:18:29.77	85.09	16.27	-48.5	-49.2	15.5	0.00e+00	0	30	0	865075200	63	3858
2026-01-03 09:18:33.81	84.57	16.64	-48.1	-48.8	15.6	0.00e+00	0	30	0	887095296	62	3890
2026-01-03 09:18:37.85	84.04	17.02	-48.3	-49.0	15.5	0.00e+00	0	30	0	910163968	62	3978
2026-01-03 09:18:41.89	83.49	17.40	-48.3	-49.0	15.5	0.00e+00	0	30	0	933232640	62	3990
2026-01-03 09:18:45.93	82.93	17.78	-48.0	-48.7	15.7	0.00e+00	0	30	0	955252736	62	3830
2026-01-03 09:18:49.96	82.36	18.17	-48.0	-48.6	15.7	0.00e+00	0	30	0	978321408	62	3805
2026-01-03 09:18:54.00	81.77	18.56	-47.8	-48.4	15.7	0.00e+00	0	30	0	1001390080	62	3736
2026-01-03 09:18:58.04	81.16	18.95	-47.9	-48.6	15.7	0.00e+00	0	30	0	1023410176	62	3799
2026-01-03 09:19:02.07	80.54	19.34	-47.9	-48.5	15.7	0.00e+00	0	30	0	1046478848	62	3770
2026-01-03 09:19:06.11	79.90	19.74	-47.5	-48.2	15.8	0.00e+00	0	30	0	1069547520	61	3826
2026-01-03 09:19:10.16	79.24	20.14	-47.4	-48.0	15.8	0.00e+00	0	30	0	1091567616	61	3756
2026-01-03 09:19:14.20	78.57	20.54	-47.7	-48.4	15.7	0.00e+00	0	30	0	1114636288	61	3916
2026-01-03 09:19:18.24	77.87	20.95	-47.6	-48.2	15.7	0.00e+00	0	30	0	1137704960	61	3868
2026-01-03 09:19:22.27	77.16	21.35	-47.4	-48.0	15.8	0.00e+00	0	30	0	1159725056	61	3772
2026-01-03 09:19:26.32	76.43	21.76	-47.3	-47.9	15.9	0.00e+00	0	30	0	1182793728	61	3712
2026-01-03 09:19:30.34	75.68	22.17	-47.3	-47.9	15.8	0.00e+00	0	30	0	1205862400	61	3707
2026-01-03 09:19:34.38	74.91	22.58	-47.2	-47.8	15.8	0.00e+00	0	30	0	1227882496	60	3902
2026-01-03 09:19:38.41	74.12	22.99	-46.9	-47.5	15.9	0.00e+00	0	30	0	1250951168	60	3754
2026-01-03 09:19:42.45	73.31	23.40	-47.0	-47.6	15.8	0.00e+00	0	30	0	1272971264	60	3824
2026-01-03 09:19:46.49	72.48	23.81	-47.2	-47.8	15.8	0.00e+00	0	30	0	1296039936	60	3894
2026-01-03 09:19:50.53	71.62	24.23	-47.1	-47.7	15.8	0.00e+00	0	30	0	1319108608	60	3847
2026-01-03 09:19:54.57	70.74	24.64	-46.9	-47.4	15.9	0.00e+00	0	30	0	1342177280	60	3733
2026-01-03 09:19:58.61	69.84	25.05	-47.0	-47.7	15.7	0.00e+00	0	30	0	1364197376	59	4052
2026-01-03 09:20:02.65	68.91	25.45	-47.0	-47.6	15.7	0.00e+00	0	30	0	1387266048	59	4015
2026-01-03 09:20:06.69	67.96	25.86	-46.8	-47.5	15.8	0.00e+00	0	30	0	1410334720	59	3962
2026-01-03 09:20:10.72	66.98	26.26	-46.7	-47.3	15.8	0.00e+00	0	30	0	1432354816	59	3897
2026-01-03 09:20:14.76	65.98	26.66	-47.0	-47.6	15.8	0.00e+00	0	30	0	1455423488	59	4022
2026-01-03 09:20:18.80	64.95	27.06	-46.9	-47.5	15.8	0.00e+00	0	30	0	1477443584	59	3970
2026-01-03 09:20:22.84	63.90	27.45	-46.8	-47.4	15.8	0.00e+00	0	30	0	1500512256	59	3934
2026-01-03 09:20:26.87	62.82	27.83	-46.8	-47.4	15.8	0.00e+00	0	30	0	1523580928	59	3945
2026-01-03 09:20:30.90	61.72	28.21	-46.8	-47.4	15.8	0.00e+00	0	30	0	1545601024	59	3948
2026-01-03 09:20:34.94	60.59	28.58	-46.4	-47.0	16.0	0.00e+00	0	30	0	1568669696	59	3748
2026-01-03 09:20:38.97	59.43	28.94	-46.7	-47.3	15.9	0.00e+00	0	30	0	1591738368	59	3876
2026-01-03 09:20:43.01	58.25	29.30	-46.8	-47.4	15.8	0.00e+00	0	30	0	1614807040	59	3946
2026-01-03 09:20:47.04	57.04	29.64	-46.7	-47.3	15.8	0.00e+00	0	30	0	1636827136	59	3880
2026-01-03 09:20:51.08	55.80	29.97	-46.6	-47.2	15.9	0.00e+00	0	30	0	1659895808	59	3839
2026-01-03 09:20:55.12	54.54	30.30	-46.7	-47.3	15.9	0.00e+00	0	30	0	1681915904	59	3882
2026-01-03 09:20:59.15	53.26	30.61	-46.3	-46.9	16.0	0.00e+00	0	30	0	1704984576	59	3715
2026-01-03 09:21:03.19	51.94	30.90	-46.2	-46.8	15.9	0.00e+00	0	31	0	1728053248	58	3891
2026-01-03 09:21:07.22	50.61	31.18	-46.3	-46.8	15.9	0.00e+00	0	30	0	1750073344	58	3908
2026-01-03 09:21:11.26	49.25	31.45	-46.1	-46.6	16.0	0.00e+00	0	30	0	1773142016	58	3822
2026-01-03 09:21:15.31	47.87	31.70	-46.3	-46.8	15.9	0.00e+00	0	30	0	1796210688	58	3899
2026-01-03 09:21:19.35	46.47	31.93	-46.1	-46.6	15.9	0.00e+00	0	30	0	1818230784	58	3820
2026-01-03 09:21:23.39	45.05	32.15	-45.9	-46.4	16.0	0.00e+00	0	30	0	1841299456	58	3728
2026-01-03 09:21:27.41	43.61	32.34	-46.3	-46.9	15.9	0.00e+00	0	30	0	1864368128	58	3914
2026-01-03 09:21:31.44	42.16	32.52	-46.0	-46.5	16.0	0.00e+00	0	30	0	1886388224	58	3773
2026-01-03 09:21:35.48	40.69	32.68	-46.0	-46.6	16.0	0.00e+00	0	30	0	1909456896	58	3799
2026-01-03 09:21:39.52	39.21	32.81	-46.1	-46.7	15.9	0.00e+00	0	30	0	1932525568	58	3843
2026-01-03 09:21:43.56	37.71	32.93	-45.8	-46.4	16.0	0.00e+00	0	30	0	1954545664	58	3710
2026-01-03 09:21:47.59	36.21	33.02	-46.2	-46.8	15.9	0.00e+00	0	30	0	1977614336	58	3891
2026-01-03 09:21:51.63	34.70	33.09	-45.8	-46.4	16.1	0.00e+00	0	30	0	2000683008	58	3704
2026-01-03 09:21:55.67	33.18	33.14	-46.0	-46.5	16.0	0.00e+00	0	30	0	2022703104	58	3767
2026-01-03 09:21:59.71	31.66	33.16	-45.8	-46.3	16.1	0.00e+00	0	30	0	2045771776	58	3668
2026-01-03 09:22:03.74	30.14	33.16	-45.7	-46.3	15.9	0.00e+00	0	30	0	2067791872	57	3876
2026-01-03 09:22:07.78	28.62	33.14	-45.7	-46.3	15.9	0.00e+00	0	31	0	2090860544	57	3883
2026-01-03 09:22:11.82	27.10	33.10	-46.0	-46.6	15.8	0.00e+00	0	30	0	2113929216	57	4014
2026-01-03 09:22:15.85	25.59	33.03	-45.9	-46.5	15.8	0.00e+00	0	30	0	2136997888	57	3992
2026-01-03 09:22:19.89	24.08	32.94	-45.9	-46.4	15.8	0.00e+00	0	30	0	2159017984	57	3958
2026-01-03 09:22:23.93	22.59	32.83	-45.9	-46.4	15.9	0.00e+00	0	30	0	2182086656	57	3958
2026-01-03 09:22:27.97	21.10	32.70	-45.9	-46.4	15.8	0.00e+00	0	30	0	2205155328	57	3951
2026-01-03 09:22:31.99	19.64	32.55	-46.0	-46.6	15.8	0.00e+00	0	30	0	2227175424	57	4027
2026-01-03 09:22:36.03	18.18	32.37	-46.0	-46.5	15.8	0.00e+00	0	30	0	2250244096	57	3993
2026-01-03 09:22:40.07	16.74	32.18	-46.0	-46.6	15.8	0.00e+00	0	30	0	2272264192	57	4018
2026-01-03 09:22:44.11	15.32	31.97	-46.0	-46.6	15.8	0.00e+00	0	30	0	2295332864	57	4019
2026-01-03 09:22:48.14	13.92	31.74	-46.0	-46.5	15.8	0.00e+00	0	30	0	2318401536	57	3984
2026-01-03 09:22:52.18	12.53	31.49	-46.1	-46.7	15.8	0.00e+00	0	30	0	2340421632	57	4057
2026-01-03 09:22:56.22	11.17	31.22	-46.2	-46.8	15.7	0.00e+00	0	30	0	2363490304	57	4130
2026-01-03 09:23:00.26	9.84	30.94	-46.0	-46.6	15.8	0.00e+00	0	30	0	2386558976	57	4006
2026-01-03 09:23:04.30	8.52	30.65	-46.1	-46.6	15.8	0.00e+00	0	30	0	2408579072	57	4043
2026-01-03 09:23:08.35	7.23	30.34	-46.4	-47.0	15.7	0.00e+00	0	30	0	2431647744	57	4200
2026-01-03 09:23:12.38	5.97	30.02	-46.3	-46.9	15.8	0.00e+00	0	30	0	2454716416	58	3936
2026-01-03 09:23:16.42	4.73	29.69	-46.4	-46.9	15.8	0.00e+00	0	30	0	2476736512	58	3957
2026-01-03 09:23:20.45	3.52	29.35	-46.4	-46.9	15.8	0.00e+00	0	30	0	2499805184	58	3942
2026-01-03 09:23:24.50	2.33	28.99	-46.4	-47.0	15.8	0.00e+00	0	30	0	2522873856	58	3988
2026-01-03 09:23:28.53	1.17	28.63	-46.3	-46.9	15.8	0.00e+00	0	30	0	2544893952	58	3925
2026-01-03 09:23:32.57	0.04	28.26	-46.3	-46.8	15.8	0.00e+00	0	30	0	2567962624	58	3899
2026-01-03 09:23:36.61	358.93	27.89	-46.3	-46.9	15.9	0.00e+00	0	30	0	2591031296	58	3919
2026-01-03 09:23:40.65	357.85	27.50	-46.5	-47.0	15.8	0.00e+00	0	30	0	2613051392	58	4000
2026-01-03 09:23:44.69	356.79	27.11	-46.6	-47.1	15.7	0.00e+00	0	30	0	2636120064	58	4046
2026-01-03 09:23:48.73	355.76	26.72	-46.6	-47.2	15.7	0.00e+00	0	30	0	2659188736	58	4085
2026-01-03 09:23:52.77	354.76	26.32	-46.6	-47.1	15.7	0.00e+00	0	30	0	2681208832	58	4037
2026-01-03 09:23:56.81	353.78	25.92	-46.9	-47.5	15.6	0.00e+00	0	30	0	2704277504	58	4224
2026-01-03 09:24:00.85	352.83	25.52	-47.0	-47.7	15.7	0.00e+00	0	30	0	2727346176	59	4054
2026-01-03 09:24:04.89	351.90	25.11	-46.8	-47.4	15.8	0.00e+00	0	30	0	2749366272	59	3946
2026-01-03 09:24:08.93	350.99	24.70	-47.1	-47.7	15.7	0.00e+00	0	30	0	2772434944	59	4059
2026-01-03 09:24:12.96	350.11	24.29	-47.0	-47.6	15.7	0.00e+00	0	30	0	2795503616	59	4009
2026-01-03 09:24:17.00	349.26	23.88	-46.9	-47.5	15.8	0.00e+00	0	30	0	2817523712	59	3988
2026-01-03 09:24:21.04	348.42	23.47	-47.2	-47.8	15.7	0.00e+00	0	30	0	2840592384	59	4134
2026-01-03 09:24:25.08	347.61	23.06	-47.0	-47.6	15.7	0.00e+00	0	30	0	2863661056	59	4026
2026-01-03 09:24:29.12	346.81	22.65	-47.3	-47.9	15.7	0.00e+00	0	30	0	2885681152	59	4175
2026-01-03 09:24:33.15	346.04	22.24	-47.2	-47.8	15.7	0.00e+00	0	30	0	2908749824	59	4137
2026-01-03 09:24:37.19	345.29	21.83	-47.1	-47.7	15.7	0.00e+00	0	30	0	2931818496	59	4077
2026-01-03 09:24:41.23	344.56	21.42	-47.3	-47.9	15.6	0.00e+00	0	30	0	2953838592	59	4179
2026-01-03 09:24:45.27	343.85	21.02	-47.0	-47.6	15.7	0.00e+00	0	30	0	2976907264	59	4043
2026-01-03 09:24:49.31	343.15	20.61	-47.2	-47.8	15.7	0.00e+00	0	30	0	2999975936	59	4130
2026-01-03 09:24:53.34	342.48	20.21	-47.1	-47.7	15.8	0.00e+00	0	31	0	3021996032	60	3827
2026-01-03 09:24:57.38	341.82	19.81	-47.2	-47.8	15.8	0.00e+00	0	30	0	3045064704	60	3884
2026-01-03 09:25:01.42	341.18	19.42	-47.2	-47.8	15.8	0.00e+00	0	30	0	3068133376	60	3899
2026-01-03 09:25:05.46	340.56	19.02	-47.3	-47.8	15.8	0.00e+00	0	30	0	3090153472	60	3910
2026-01-03 09:25:09.50	339.95	18.63	-47.5	-48.2	15.7	0.00e+00	0	30	0	3113222144	60	4052
2026-01-03 09:25:13.54	339.36	18.24	-47.6	-48.2	15.7	0.00e+00	0	30	0	3136290816	60	4060
2026-01-03 09:25:17.57	338.79	17.86	-47.8	-48.5	15.6	0.00e+00	0	30	0	3158310912	60	4196
2026-01-03 09:25:21.61	338.22	17.47	-47.7	-48.3	15.6	0.00e+00	0	30	0	3181379584	60	4138
2026-01-03 09:25:25.65	337.68	17.09	-47.9	-48.5	15.5	0.00e+00	0	30	0	3203399680	60	4236
2026-01-03 09:25:29.70	337.14	16.71	-48.1	-48.7	15.6	0.00e+00	0	30	0	3226468352	61	4092
2026-01-03 09:25:33.73	336.62	16.34	-48.4	-49.0	15.5	0.00e+00	0	31	0	3249537024	61	4240
2026-01-03 09:25:37.77	336.12	15.97	-48.4	-49.1	15.6	0.00e+00	0	30	0	3272605696	62	4029
2026-01-03 09:25:41.81	335.62	15.61	-48.7	-49.4	15.4	0.00e+00	0	30	0	3294625792	62	4188
2026-01-03 09:25:45.86	335.14	15.24	-48.7	-49.4	15.5	0.00e+00	0	31	0	3317694464	62	4155
2026-01-03 09:25:49.90	334.67	14.88	-48.7	-49.4	15.6	0.00e+00	0	30	0	3340763136	63	3921
2026-01-03 09:25:53.94	334.21	14.52	-48.8	-49.5	15.5	0.00e+00	0	30	0	3362783232	63	3984
2026-01-03 09:25:57.98	333.76	14.17	-48.8	-49.5	15.5	0.00e+00	0	30	0	3385851904	63	3987
2026-01-03 09:26:02.01	333.33	13.82	-48.8	-49.6	15.5	0.00e+00	0	31	0	3408920576	63	4009
2026-01-03 09:26:06.06	332.90	13.47	-48.9	-49.6	15.5	0.00e+00	0	30	0	3430940672	63	4024
2026-01-03 09:26:10.09	332.48	13.13	-49.0	-49.7	15.4	0.00e+00	0	31	0	3454009344	63	4083
2026-01-03 09:26:14.13	332.08	12.79	-49.2	-49.9	15.4	0.00e+00	0	30	0	3477078016	63	4191
2026-01-03 09:26:18.17	331.68	12.45	-49.4	-50.1	15.3	0.00e+00	0	30	0	3499098112	63	4271
2026-01-03 09:26:22.22	331.29	12.12	-49.5	-50.3	15.3	0.00e+00	0	30	0	3522166784	64	4107
2026-01-03 09:26:26.25	330.91	11.79	-49.5	-50.2	15.3	0.00e+00	0	30	0	3545235456	64	4090
2026-01-03 09:26:30.29	330.55	11.46	-49.5	-50.2	15.3	0.00e+00	0	30	0	3567255552	64	4097
2026-01-03 09:26:34.31	330.19	11.14	-49.5	-50.2	15.3	0.00e+00	0	31	0	3590324224	64	4090
2026-01-03 09:26:38.35	329.83	10.82	-49.6	-50.4	15.3	0.00e+00	0	31	0	3612344320	64	4153
2026-01-03 09:26:42.38	329.49	10.50	-49.6	-50.4	15.3	0.00e+00	0	30	0	3635412992	64	4161
2026-01-03 09:26:46.42	329.15	10.19	-49.7	-50.5	15.2	0.00e+00	0	30	0	3658481664	64	4214
2026-01-03 09:26:50.46	328.82	9.87	-49.7	-50.5	15.2	0.00e+00	0	30	0	3681550336	64	4229
2026-01-03 09:26:54.49	328.50	9.57	-49.9	-50.8	15.2	0.00e+00	0	31	0	3703570432	65	4100
2026-01-03 09:26:58.53	328.18	9.26	-49.9	-50.7	15.2	0.00e+00	0	31	0	3726639104	65	4080
2026-01-03 09:27:02.57	327.87	8.96	-49.9	-50.7	15.2	0.00e+00	0	31	0	3749707776	65	4076
2026-01-03 09:27:06.60	327.57	8.66	-50.1	-50.9	15.1	0.00e+00	0	31	0	3771727872	65	4162
2026-01-03 09:27:10.64	327.28	8.36	-50.1	-50.9	15.1	0.00e+00	0	31	0	3794796544	65	4173
2026-01-03 09:27:14.67	326.99	8.06	-50.2	-51.0	15.0	0.00e+00	0	31	0	3816816640	65	4232
2026-01-03 09:27:18.70	326.70	7.77	-50.3	-51.2	14.9	0.00e+00	0	30	0	3839885312	65	4314
2026-01-03 09:27:22.74	326.43	7.48	-50.4	-51.3	15.0	0.00e+00	0	30	0	3862953984	66	4106
2026-01-03 09:27:26.79	326.15	7.20	-50.4	-51.2	15.0	0.00e+00	0	30	0	3884974080	66	4098
2026-01-03 09:27:30.83	325.89	6.91	-50.6	-51.5	14.9	0.00e+00	0	31	0	3908042752	66	4235
2026-01-03 09:27:34.85	325.63	6.63	-50.5	-51.5	14.9	0.00e+00	0	31	0	3931111424	66	4203
2026-01-03 09:27:38.89	325.37	6.35	-50.7	-51.6	14.8	0.00e+00	0	31	0	3953131520	66	4256
2026-01-03 09:27:42.93	325.12	6.07	-50.6	-51.6	14.8	0.00e+00	0	30	0	3976200192	66	4247
2026-01-03 09:27:46.97	324.88	5.80	-50.7	-51.6	14.8	0.00e+00	0	30	0	3999268864	66	4257
2026-01-03 09:27:51.01	324.63	5.53	-50.9	-51.8	14.7	0.00e+00	0	31	0	4021288960	67	4144
2026-01-03 09:27:55.04	324.40	5.26	-51.0	-52.0	14.7	0.00e+00	0	31	0	4044357632	67	4197
2026-01-03 09:27:59.09	324.17	4.99	-59.8	-69.5	4.1	4.59e-02	0	31	0	4066377728	84	11892
2026-01-03 09:28:03.12	323.94	4.72	-61.2	-73.8	3.8	8.45e-01	0	30	104	4066377728	87	16461
2026-01-03 09:28:07.16	323.72	4.46	-61.7	-74.3	3.8	8.45e-01	0	31	104	4066377728	88	16359
2026-01-03 09:28:11.19	323.50	4.20	-61.9	-74.7	3.8	8.44e-01	0	31	104	4066377728	89	16260
2026-01-03 09:28:15.22	323.29	3.94	-62.0	-74.6	3.8	8.45e-01	0	31	104	4066377728	89	16051
2026-01-03 09:28:19.26	323.08	3.68	-62.0	-74.7	3.8	8.45e-01	0	31	104	4066377728	89	16149
2026-01-03 09:28:23.29	322.87	3.43	-61.9	-74.5	3.8	8.45e-01	0	31	104	4066377728	89	15919
2026-01-03 09:28:27.33	322.67	3.18	-61.9	-74.5	3.8	8.47e-01	0	31	104	4066377728	89	15875
2026-01-03 09:28:31.37	322.47	2.93	-61.9	-74.5	3.8	8.45e-01	0	31	104	4066377728	89	15856
2026-01-03 09:28:35.39	322.27	2.68	-61.8	-74.5	3.8	8.46e-01	0	31	104	4066377728	89	15774
2026-01-03 09:28:39.43	322.08	2.43	-61.8	-74.4	3.8	8.45e-01	0	31	104	4066377728	89	15742
2026-01-03 09:28:43.46	321.90	2.19	-61.8	-74.4	3.8	8.46e-01	0	31	104	4066377728	89	15711

#Closed at: 2026-01-03 09:28:46
#Recorded file [4066 MB]: D:/lorett/data/31004_260103_121519.dat