passes_logs/2026/01/03/R3.2S_Murmansk/R3.2S_Murmansk__20260103_092345_NOAA_21_JPSS-2_rec.log

#Pass ID: 20260103_092345_NOAA 21 (JPSS-2)
#Satellite: NOAA 21 (JPSS-2)
#Configuration: NOAA-21
#almurnet v.1.7.20251203
#Start time: 2026-01-03 09:28:53

#Version: 2.2.20231116
#Station: R3.2S_Murmansk
#Location: 33.079688 lon 68.888172 lat
#TLE: 1 54234U 22150A   26002.88923379  .00000185  00000+0  10883-3 0  9993
#TLE: 2 54234  98.7486 303.9362 0001189 349.0578  11.0572 14.19531433163092

#Time	Az	El	Level	Level2	SNR	BER	BlckErr	Temp	State	Recorded	gain1	gain2
2026-01-03 09:28:53.66	145.75	39.58	-61.8	-74.4	3.8	8.46e-01	0	30	0	0	89	15686
2026-01-03 09:28:56.67	145.62	40.37	-61.8	-75.2	3.8	1.49e+00	0	31	104	0	88	18125
2026-01-03 09:28:59.70	145.49	41.18	-61.8	-75.2	3.9	1.49e+00	0	31	104	0	88	18128
2026-01-03 09:29:02.72	145.35	42.00	-61.8	-75.2	3.8	1.49e+00	0	31	104	0	88	18104
2026-01-03 09:29:05.75	145.20	42.85	-61.8	-75.2	3.8	1.49e+00	0	31	104	0	88	18104
2026-01-03 09:29:08.78	145.04	43.72	-61.7	-75.1	3.8	1.49e+00	0	30	104	0	88	17996
2026-01-03 09:29:11.81	144.87	44.60	-61.7	-75.1	3.8	1.49e+00	0	31	104	0	88	17979
2026-01-03 09:29:14.83	144.69	45.50	-61.7	-75.1	3.8	1.49e+00	0	31	104	0	88	18023
2026-01-03 09:29:17.86	144.50	46.43	-61.7	-75.1	3.8	1.49e+00	0	31	104	0	88	18006
2026-01-03 09:29:20.89	144.30	47.37	-61.7	-75.1	3.8	1.49e+00	0	31	104	0	88	18031
2026-01-03 09:29:23.92	144.08	48.34	-61.7	-75.1	3.8	1.49e+00	0	31	104	0	88	17894
2026-01-03 09:29:26.94	143.85	49.33	-61.7	-75.1	3.8	1.49e+00	0	31	104	0	88	17920
2026-01-03 09:29:29.97	143.60	50.34	-61.7	-75.1	3.8	1.49e+00	0	31	104	0	88	17916
2026-01-03 09:29:32.99	143.34	51.37	-61.7	-75.1	3.8	1.49e+00	0	31	104	0	88	17940
2026-01-03 09:29:36.01	143.06	52.42	-61.7	-75.1	3.8	1.49e+00	0	31	104	0	88	17921
2026-01-03 09:29:39.04	142.75	53.49	-61.7	-75.0	3.8	1.49e+00	0	31	104	0	88	17836
2026-01-03 09:29:42.07	142.42	54.59	-61.7	-75.0	3.8	1.49e+00	0	31	104	0	88	17815
2026-01-03 09:29:45.10	142.06	55.71	-61.7	-75.0	3.8	1.49e+00	0	31	104	0	88	17857
2026-01-03 09:29:48.12	141.67	56.85	-61.7	-75.0	3.8	1.49e+00	0	31	104	0	88	17833
2026-01-03 09:29:51.16	141.24	58.02	-61.7	-75.0	3.8	1.49e+00	0	31	104	0	88	17845
2026-01-03 09:29:54.18	140.78	59.20	-61.6	-75.0	3.8	1.49e+00	0	31	104	0	88	17806
2026-01-03 09:29:57.21	140.27	60.41	-61.6	-75.0	3.8	1.49e+00	0	31	104	0	88	17838
2026-01-03 09:30:00.23	139.71	61.64	-61.6	-75.0	3.8	1.49e+00	0	31	104	0	88	17723
2026-01-03 09:30:03.26	139.08	62.89	-61.6	-75.0	3.8	1.49e+00	0	31	104	0	88	17749
2026-01-03 09:30:06.28	138.39	64.15	-61.6	-75.0	3.8	1.49e+00	0	31	104	0	88	17733
2026-01-03 09:30:09.31	137.62	65.44	-61.6	-74.7	3.8	1.49e+00	0	31	104	0	88	17090
2026-01-03 09:30:12.34	136.74	66.74	-61.6	-75.0	3.8	1.49e+00	0	31	104	0	88	17734
2026-01-03 09:30:15.37	135.75	68.06	-61.6	-75.0	3.8	1.49e+00	0	31	104	0	88	17716
2026-01-03 09:30:18.40	134.62	69.40	-61.6	-75.0	3.8	1.49e+00	0	31	104	0	88	17687
2026-01-03 09:30:21.43	133.32	70.74	-61.6	-75.0	3.8	1.49e+00	0	31	104	0	88	17720
2026-01-03 09:30:24.46	131.80	72.09	-61.6	-75.0	3.8	1.49e+00	0	31	104	0	88	17705
2026-01-03 09:30:27.48	130.03	73.43	-61.6	-74.9	3.8	1.49e+00	0	31	104	0	88	17568
2026-01-03 09:30:30.50	127.93	74.78	-61.6	-74.9	3.8	1.49e+00	0	31	104	0	88	17662
2026-01-03 09:30:33.53	125.39	76.12	-61.6	-74.9	3.8	1.49e+00	0	31	104	0	88	17649
2026-01-03 09:30:36.55	122.31	77.43	-61.6	-74.9	3.8	1.49e+00	0	31	104	0	88	17609
2026-01-03 09:30:39.58	118.48	78.72	-61.5	-74.9	3.8	1.49e+00	0	31	104	0	88	17551
2026-01-03 09:30:42.61	113.66	79.95	-61.6	-74.9	3.8	1.49e+00	0	31	104	0	88	17640
2026-01-03 09:30:45.64	107.51	81.10	-61.5	-74.8	3.8	1.49e+00	0	31	104	0	88	17293
2026-01-03 09:30:48.66	99.67	82.12	-61.5	-74.9	3.8	1.49e+00	0	31	104	0	88	17544
2026-01-03 09:30:51.69	89.67	82.96	-61.5	-74.9	3.8	1.49e+00	0	31	104	0	88	17617
2026-01-03 09:30:54.71	77.48	83.53	-61.5	-74.7	3.8	1.49e+00	0	31	104	0	88	17258
2026-01-03 09:30:57.74	63.61	83.77	-61.5	-74.9	3.8	1.49e+00	0	31	104	0	88	17567
2026-01-03 09:31:00.76	49.57	83.63	-61.5	-74.9	3.8	1.49e+00	0	31	104	0	88	17552
2026-01-03 09:31:03.79	36.82	83.14	-61.5	-74.9	3.8	1.49e+00	0	31	104	0	88	17647
2026-01-03 09:31:06.82	26.24	82.36	-61.5	-74.9	3.8	1.49e+00	0	31	104	0	88	17565
2026-01-03 09:31:09.85	17.85	81.38	-61.5	-74.9	3.8	1.49e+00	0	31	104	0	88	17543
2026-01-03 09:31:12.88	11.31	80.25	-61.5	-74.9	3.8	1.49e+00	0	31	104	0	88	17556
2026-01-03 09:31:15.90	6.20	79.05	-61.5	-74.9	3.8	1.49e+00	0	31	104	0	88	17547
2026-01-03 09:31:18.92	2.15	77.78	-61.5	-74.9	3.8	1.49e+00	0	31	104	0	88	17518
2026-01-03 09:31:21.95	358.89	76.47	-61.5	-74.9	3.8	1.49e+00	0	31	104	0	88	17502
2026-01-03 09:31:24.97	356.23	75.14	-61.5	-74.9	3.8	1.49e+00	0	31	104	0	88	17511
2026-01-03 09:31:28.00	354.02	73.79	-61.5	-74.9	3.8	1.49e+00	0	31	104	0	88	17493
2026-01-03 09:31:31.02	352.17	72.45	-61.5	-74.9	3.8	1.49e+00	0	31	104	0	88	17519
2026-01-03 09:31:34.03	350.60	71.11	-61.5	-74.9	3.8	1.49e+00	0	31	104	0	88	17547
2026-01-03 09:31:37.05	349.25	69.77	-61.5	-74.8	3.8	1.49e+00	0	31	104	0	88	17476
2026-01-03 09:31:40.07	348.08	68.44	-61.5	-74.9	3.8	1.49e+00	0	31	104	0	88	17518
2026-01-03 09:31:43.10	347.06	67.12	-61.5	-74.9	3.8	1.49e+00	0	31	104	0	88	17514
2026-01-03 09:31:46.12	346.16	65.82	-61.5	-74.9	3.8	1.49e+00	0	31	104	0	88	17492
2026-01-03 09:31:49.14	345.36	64.54	-61.5	-74.9	3.8	1.49e+00	0	31	104	0	88	17493
2026-01-03 09:31:52.17	344.64	63.26	-61.5	-74.9	3.8	1.49e+00	0	31	104	0	88	17506
2026-01-03 09:31:55.19	344.00	62.02	-61.5	-74.8	3.8	1.49e+00	0	31	104	0	88	17479
2026-01-03 09:31:58.22	343.42	60.78	-61.5	-74.9	3.8	1.49e+00	0	31	104	0	88	17505
2026-01-03 09:32:01.25	342.90	59.57	-61.5	-74.9	3.8	1.49e+00	0	31	104	0	88	17490
2026-01-03 09:32:04.27	342.42	58.39	-61.5	-74.8	3.8	1.49e+00	0	31	104	0	88	17457
2026-01-03 09:32:07.30	341.99	57.22	-61.5	-74.8	3.8	1.49e+00	0	31	104	0	88	17457
2026-01-03 09:32:10.33	341.59	56.07	-61.5	-74.9	3.8	1.49e+00	0	31	104	0	88	17536
2026-01-03 09:32:13.37	341.22	54.94	-61.5	-74.8	3.8	1.49e+00	0	31	104	0	88	17431
2026-01-03 09:32:16.39	340.88	53.84	-61.5	-74.8	3.8	1.49e+00	0	31	104	0	88	17442
2026-01-03 09:32:19.42	340.57	52.76	-61.5	-74.8	3.8	1.49e+00	0	31	104	0	88	17479
2026-01-03 09:32:22.45	340.28	51.71	-61.5	-74.8	3.8	1.49e+00	0	31	104	0	88	17479
2026-01-03 09:32:25.47	340.01	50.67	-61.5	-74.8	3.8	1.49e+00	0	31	104	0	88	17434
2026-01-03 09:32:28.50	339.76	49.66	-61.5	-74.8	3.8	1.49e+00	0	31	104	0	88	17442
2026-01-03 09:32:31.53	339.53	48.67	-61.5	-74.8	3.8	1.49e+00	0	31	104	0	88	17373
2026-01-03 09:32:34.55	339.31	47.70	-61.4	-74.8	3.8	1.49e+00	0	31	104	0	88	17431
2026-01-03 09:32:37.58	339.10	46.75	-61.4	-74.8	3.8	1.49e+00	0	31	104	0	88	17380
2026-01-03 09:32:40.61	338.91	45.83	-61.4	-74.8	3.8	1.49e+00	0	31	104	0	88	17386
2026-01-03 09:32:43.64	338.73	44.92	-61.4	-74.8	3.8	1.49e+00	0	31	104	0	88	17384
2026-01-03 09:32:46.67	338.56	44.03	-61.4	-74.8	3.8	1.49e+00	0	31	104	0	88	17415
2026-01-03 09:32:49.70	338.40	43.16	-61.4	-74.8	3.8	1.49e+00	0	31	104	0	88	17397
2026-01-03 09:32:52.73	338.25	42.31	-61.4	-74.8	3.8	1.49e+00	0	31	104	0	88	17435
2026-01-03 09:32:55.76	338.10	41.48	-61.4	-74.8	3.8	1.49e+00	0	31	104	0	88	17374
2026-01-03 09:32:58.78	337.97	40.67	-61.4	-74.8	3.8	1.49e+00	0	31	104	0	88	17406
2026-01-03 09:33:01.81	337.84	39.88	-61.4	-74.8	3.8	1.49e+00	0	31	104	0	88	17374
2026-01-03 09:33:04.84	337.72	39.10	-61.4	-74.8	3.8	1.49e+00	0	31	104	0	88	17414
2026-01-03 09:33:07.87	337.60	38.34	-61.4	-74.8	3.8	1.49e+00	0	31	104	0	88	17409
2026-01-03 09:33:10.90	337.49	37.60	-61.4	-74.8	3.8	1.49e+00	0	31	104	0	88	17376
2026-01-03 09:33:13.92	337.39	36.87	-61.4	-74.8	3.8	1.49e+00	0	31	104	0	88	17465
2026-01-03 09:33:16.95	337.29	36.16	-61.4	-74.8	3.8	1.49e+00	0	31	104	0	88	17372
2026-01-03 09:33:19.97	337.19	35.47	-61.4	-74.8	3.8	1.49e+00	0	31	104	0	88	17309
2026-01-03 09:33:22.99	337.10	34.79	-61.4	-74.8	3.8	1.49e+00	0	31	104	0	88	17302
2026-01-03 09:33:26.02	337.02	34.12	-61.4	-74.8	3.8	1.49e+00	0	31	104	0	88	17297
2026-01-03 09:33:29.05	336.93	33.47	-61.4	-74.8	3.8	1.49e+00	0	31	104	0	88	17322
2026-01-03 09:33:32.08	336.86	32.83	-61.4	-74.8	3.8	1.49e+00	0	31	104	0	88	17344
2026-01-03 09:33:35.10	336.78	32.21	-61.4	-74.8	3.8	1.49e+00	0	31	104	0	88	17295
2026-01-03 09:33:38.12	336.71	31.60	-61.4	-74.8	3.8	1.49e+00	0	31	104	0	88	17356
2026-01-03 09:33:41.15	336.64	30.99	-61.4	-74.8	3.8	1.49e+00	0	31	104	0	88	17327
2026-01-03 09:33:44.18	336.57	30.41	-61.4	-74.8	3.8	1.49e+00	0	31	104	0	88	17324
2026-01-03 09:33:47.21	336.51	29.83	-61.4	-74.7	3.9	1.49e+00	0	31	104	0	88	17266
2026-01-03 09:33:50.23	336.45	29.27	-61.4	-74.7	3.8	1.49e+00	0	31	104	0	88	17217
2026-01-03 09:33:53.25	336.39	28.71	-61.4	-74.7	3.8	1.49e+00	0	31	104	0	88	17253
2026-01-03 09:33:56.28	336.34	28.17	-61.4	-74.8	3.8	1.49e+00	0	31	104	0	88	17303
2026-01-03 09:33:59.31	336.28	27.64	-61.4	-74.8	3.8	1.49e+00	0	31	104	0	88	17326
2026-01-03 09:34:02.33	336.23	27.11	-61.4	-74.8	3.8	1.49e+00	0	31	104	0	88	17342
2026-01-03 09:34:05.36	336.18	26.60	-61.4	-74.7	3.8	1.49e+00	0	31	104	0	88	17229
2026-01-03 09:34:08.38	336.13	26.10	-61.4	-74.7	3.8	1.49e+00	0	31	104	0	88	17160
2026-01-03 09:34:11.41	336.09	25.60	-61.4	-74.7	3.8	1.49e+00	0	31	104	0	88	17249
2026-01-03 09:34:14.45	336.05	25.12	-61.4	-74.8	3.8	1.49e+00	0	31	104	0	88	17291
2026-01-03 09:34:17.47	336.00	24.64	-61.4	-74.8	3.8	1.49e+00	0	31	104	0	88	17289
2026-01-03 09:34:20.49	335.96	24.18	-61.4	-74.8	3.8	1.49e+00	0	31	104	0	88	17320
2026-01-03 09:34:23.52	335.92	23.72	-61.4	-74.7	3.8	1.49e+00	0	31	104	0	88	17191
2026-01-03 09:34:26.55	335.89	23.26	-61.4	-74.8	3.8	1.49e+00	0	31	104	0	88	17295
2026-01-03 09:34:29.58	335.85	22.82	-61.4	-74.8	3.8	1.49e+00	0	31	104	0	88	17304
2026-01-03 09:34:32.60	335.82	22.38	-61.4	-74.8	3.8	1.49e+00	0	31	104	0	88	17302
2026-01-03 09:34:35.62	335.78	21.96	-61.4	-74.7	3.8	1.49e+00	0	31	104	0	88	17279
2026-01-03 09:34:38.64	335.75	21.53	-61.4	-74.7	3.8	1.49e+00	0	31	104	0	88	17242
2026-01-03 09:34:41.67	335.72	21.12	-61.4	-74.8	3.8	1.49e+00	0	31	104	0	88	17299
2026-01-03 09:34:44.70	335.69	20.71	-61.4	-74.7	3.8	1.49e+00	0	31	104	0	88	17234
2026-01-03 09:34:47.72	335.66	20.31	-61.4	-74.7	3.8	1.49e+00	0	31	104	0	88	17269
2026-01-03 09:34:50.75	335.63	19.91	-61.4	-74.7	3.8	1.49e+00	0	31	104	0	88	17228
2026-01-03 09:34:53.77	335.61	19.53	-61.4	-74.7	3.8	1.49e+00	0	31	104	0	88	17232
2026-01-03 09:34:56.80	335.58	19.14	-61.4	-74.7	3.8	1.49e+00	0	31	104	0	88	17234
2026-01-03 09:34:59.83	335.56	18.76	-61.4	-74.7	3.8	1.49e+00	0	31	104	0	88	17228
2026-01-03 09:35:02.86	335.53	18.39	-61.4	-74.7	3.8	1.49e+00	0	31	104	0	88	17249
2026-01-03 09:35:05.88	335.51	18.03	-61.4	-74.7	3.8	1.49e+00	0	31	104	0	88	17245
2026-01-03 09:35:08.91	335.49	17.67	-61.4	-74.8	3.8	1.49e+00	0	31	104	0	88	17288
2026-01-03 09:35:11.94	335.47	17.31	-61.4	-74.7	3.8	1.49e+00	0	31	104	0	88	17207
2026-01-03 09:35:14.96	335.45	16.96	-61.4	-74.7	3.9	1.49e+00	0	31	104	0	88	17232
2026-01-03 09:35:17.99	335.43	16.61	-61.3	-74.7	3.8	1.49e+00	0	31	104	0	88	17178
2026-01-03 09:35:21.01	335.41	16.27	-61.3	-74.7	3.8	1.49e+00	0	31	104	0	88	17197
2026-01-03 09:35:24.03	335.39	15.94	-61.3	-74.7	3.8	1.49e+00	0	31	104	0	88	17220
2026-01-03 09:35:27.06	335.37	15.61	-61.3	-74.7	3.8	1.49e+00	0	31	104	0	88	17166
2026-01-03 09:35:30.09	335.35	15.28	-61.3	-74.7	3.8	1.49e+00	0	31	104	0	88	17215
2026-01-03 09:35:33.11	335.34	14.96	-61.3	-74.7	3.8	1.49e+00	0	31	104	0	88	17188
2026-01-03 09:35:36.13	335.32	14.64	-61.3	-74.7	3.8	1.49e+00	0	31	104	0	88	17164
2026-01-03 09:35:39.15	335.31	14.33	-61.3	-74.7	3.8	1.49e+00	0	31	104	0	88	17144
2026-01-03 09:35:42.18	335.29	14.02	-61.3	-74.7	3.8	1.49e+00	0	31	104	0	88	17118
2026-01-03 09:35:45.20	335.28	13.71	-61.3	-74.7	3.8	1.49e+00	0	31	104	0	88	17197
2026-01-03 09:35:48.23	335.26	13.41	-61.3	-74.7	3.8	1.49e+00	0	31	104	0	88	17148
2026-01-03 09:35:51.25	335.25	13.11	-61.3	-74.7	3.8	1.49e+00	0	31	104	0	88	17223
2026-01-03 09:35:54.28	335.24	12.81	-61.3	-74.7	3.8	1.49e+00	0	31	104	0	88	17166
2026-01-03 09:35:57.31	335.23	12.52	-61.3	-74.7	3.8	1.49e+00	0	31	104	0	88	17152
2026-01-03 09:36:00.33	335.22	12.23	-61.3	-74.7	3.8	1.49e+00	0	31	104	0	88	17150
2026-01-03 09:36:03.36	335.21	11.95	-61.3	-74.7	3.8	1.49e+00	0	31	104	0	88	17113
2026-01-03 09:36:06.39	335.19	11.67	-61.3	-74.7	3.8	1.49e+00	0	31	104	0	88	17137
2026-01-03 09:36:09.41	335.18	11.39	-61.3	-74.7	3.8	1.49e+00	0	31	104	0	88	17198
2026-01-03 09:36:12.44	335.18	11.11	-61.3	-74.7	3.8	1.49e+00	0	31	104	0	88	17129
2026-01-03 09:36:15.47	335.17	10.84	-61.3	-74.7	3.8	1.49e+00	0	31	104	0	88	17198
2026-01-03 09:36:18.48	335.16	10.57	-61.3	-74.7	3.8	1.49e+00	0	31	104	0	88	17177
2026-01-03 09:36:21.50	335.15	10.31	-61.3	-74.7	3.8	1.49e+00	0	31	104	0	88	17138
2026-01-03 09:36:24.52	335.14	10.04	-61.3	-74.7	3.8	1.49e+00	0	31	104	0	88	17173
2026-01-03 09:36:27.55	335.13	9.78	-61.3	-74.7	3.8	1.49e+00	0	31	104	0	88	17196
2026-01-03 09:36:30.58	335.13	9.52	-61.3	-74.7	3.8	1.49e+00	0	31	104	0	88	17154
2026-01-03 09:36:33.61	335.12	9.27	-61.3	-74.7	3.8	1.49e+00	0	31	104	0	88	17144
2026-01-03 09:36:36.63	335.11	9.02	-61.3	-74.7	3.8	1.49e+00	0	31	104	0	88	17180
2026-01-03 09:36:39.66	335.11	8.76	-61.3	-74.7	3.8	1.49e+00	0	31	104	0	88	17108
2026-01-03 09:36:42.68	335.10	8.52	-61.3	-74.7	3.8	1.49e+00	0	31	104	0	88	17115
2026-01-03 09:36:45.71	335.09	8.27	-61.3	-74.7	3.8	1.49e+00	0	31	104	0	88	17118
2026-01-03 09:36:48.73	335.09	8.03	-61.3	-74.7	3.8	1.49e+00	0	31	104	0	88	17138
2026-01-03 09:36:51.76	335.08	7.79	-61.3	-74.7	3.8	1.49e+00	0	31	104	0	88	17100
2026-01-03 09:36:54.78	335.08	7.55	-61.3	-74.7	3.9	1.49e+00	0	31	104	0	88	17145
2026-01-03 09:36:57.80	335.08	7.31	-61.3	-74.7	3.8	1.49e+00	0	31	104	0	88	17214
2026-01-03 09:37:00.83	335.07	7.08	-61.3	-74.7	3.8	1.49e+00	0	31	104	0	88	17160
2026-01-03 09:37:03.86	335.07	6.85	-61.3	-74.7	3.8	1.49e+00	0	31	104	0	88	17130
2026-01-03 09:37:06.88	335.06	6.62	-61.3	-74.7	3.8	1.49e+00	0	31	104	0	88	17141
2026-01-03 09:37:09.91	335.06	6.39	-61.3	-74.7	3.8	1.49e+00	0	31	104	0	88	17152
2026-01-03 09:37:12.94	335.06	6.16	-61.3	-74.7	3.8	1.49e+00	0	31	104	0	88	17118
2026-01-03 09:37:15.97	335.06	5.94	-61.3	-74.7	3.8	1.49e+00	0	31	104	0	88	17157
2026-01-03 09:37:18.99	335.05	5.72	-61.3	-74.7	3.8	1.49e+00	0	31	104	0	88	17118
2026-01-03 09:37:22.02	335.05	5.50	-61.3	-74.7	3.8	1.49e+00	0	31	104	0	88	17170
2026-01-03 09:37:25.05	335.05	5.28	-61.3	-74.7	3.8	1.49e+00	0	31	104	0	88	17104
2026-01-03 09:37:28.08	335.05	5.06	-61.3	-74.6	3.8	1.49e+00	0	31	104	0	88	17081
2026-01-03 09:37:31.11	335.04	4.85	-61.3	-74.7	3.8	1.49e+00	0	31	104	0	88	17133
2026-01-03 09:37:34.13	335.04	4.63	-61.3	-74.7	3.8	1.49e+00	0	31	104	0	88	17129
2026-01-03 09:37:37.16	335.04	4.42	-61.3	-74.7	3.8	1.49e+00	0	31	104	0	88	17155
2026-01-03 09:37:40.19	335.04	4.21	-61.3	-74.7	3.8	1.49e+00	0	31	104	0	88	17111
2026-01-03 09:37:43.22	335.04	4.00	-61.3	-74.7	3.8	1.49e+00	0	31	104	0	88	17153
2026-01-03 09:37:46.25	335.04	3.80	-61.3	-74.7	3.8	1.49e+00	0	31	104	0	88	17156
2026-01-03 09:37:49.27	335.04	3.59	-61.3	-74.7	3.8	1.49e+00	0	31	104	0	88	17191
2026-01-03 09:37:52.30	335.04	3.39	-61.3	-74.7	3.8	1.49e+00	0	31	104	0	88	17103
2026-01-03 09:37:55.33	335.04	3.19	-61.3	-74.7	3.8	1.49e+00	0	31	104	0	88	17174
2026-01-03 09:37:58.35	335.04	2.99	-61.3	-74.7	3.8	1.49e+00	0	31	104	0	88	17117
2026-01-03 09:38:01.38	335.04	2.79	-61.3	-74.6	3.8	1.49e+00	0	31	104	0	88	17050
2026-01-03 09:38:04.41	335.04	2.59	-61.3	-74.7	3.8	1.49e+00	0	31	104	0	88	17103
2026-01-03 09:38:07.43	335.04	2.39	-61.3	-74.7	3.8	1.49e+00	0	31	104	0	88	17137
2026-01-03 09:38:10.46	335.04	2.20	-61.3	-74.7	3.8	1.49e+00	0	31	104	0	88	17107
2026-01-03 09:38:13.49	335.04	2.01	-61.3	-74.7	3.8	1.49e+00	0	31	104	0	88	17093

#Closed at: 2026-01-03 09:38:14
#Recorded file [0 MB]: D:/lorett/data/31004_260103_122853.dat