passes_logs/2026/01/03/R3.2S_Murmansk/R3.2S_Murmansk__20260103_235752_NOAA_20_JPSS-1_rec.log

#Pass ID: 20260103_235752_NOAA 20 (JPSS-1)
#Satellite: NOAA 20 (JPSS-1)
#Configuration: NOAA 20
#almurnet v.1.7.20251203
#Start time: 2026-01-03 23:57:54

#Version: 2.2.20231116
#Station: R3.2S_Murmansk
#Location: 33.079688 lon 68.888172 lat
#TLE: 1 43013U 17073A   26003.41800368  .00000169  00000+0  10117-3 0  9998
#TLE: 2 43013  98.7624 304.4804 0001884  56.1176 304.0179 14.19532918421092

#Time	Az	El	Level	Level2	SNR	BER	BlckErr	Temp	State	Recorded	gain1	gain2
2026-01-03 23:57:54.12	22.14	2.10	-59.8	-75.9	3.8	1.49e+00	0	27	0	0	84	24810
2026-01-03 23:57:58.09	22.24	2.36	-59.8	-75.9	3.8	1.49e+00	0	27	104	0	84	24846
2026-01-03 23:58:02.08	22.33	2.61	-59.8	-75.9	3.8	1.49e+00	0	27	104	0	84	24816
2026-01-03 23:58:06.07	22.43	2.87	-59.8	-75.9	3.8	1.49e+00	0	27	104	0	84	24818
2026-01-03 23:58:10.07	22.53	3.13	-59.8	-75.9	3.8	1.49e+00	0	27	104	0	84	24901
2026-01-03 23:58:14.05	22.63	3.39	-59.8	-75.9	3.8	1.49e+00	0	27	104	0	84	24837
2026-01-03 23:58:18.07	22.73	3.66	-59.8	-75.9	3.8	1.49e+00	0	28	104	0	84	24914
2026-01-03 23:58:22.08	22.84	3.92	-59.8	-75.9	3.8	1.49e+00	0	28	104	0	84	24911
2026-01-03 23:58:26.07	22.94	4.19	-59.8	-75.9	3.8	1.49e+00	0	28	104	0	84	24852
2026-01-03 23:58:30.07	23.05	4.47	-59.8	-75.9	3.9	1.49e+00	0	28	104	0	84	24867
2026-01-03 23:58:34.08	23.16	4.74	-59.8	-75.9	3.8	1.49e+00	0	28	104	0	84	24860
2026-01-03 23:58:38.08	23.27	5.02	-59.8	-75.9	3.8	1.49e+00	0	28	104	0	84	24879
2026-01-03 23:58:42.08	23.38	5.30	-59.8	-75.9	3.8	1.49e+00	0	28	104	0	84	24891
2026-01-03 23:58:46.10	23.49	5.59	-59.8	-75.9	3.8	1.49e+00	0	28	104	0	84	24926
2026-01-03 23:58:50.11	23.61	5.88	-59.8	-75.9	3.8	1.49e+00	0	28	104	0	84	24871
2026-01-03 23:58:54.11	23.73	6.17	-59.9	-75.9	3.8	1.49e+00	0	28	104	0	84	24869
2026-01-03 23:58:58.09	23.85	6.46	-59.8	-75.9	3.8	1.49e+00	0	28	104	0	84	24847
2026-01-03 23:59:02.08	23.97	6.76	-59.8	-75.9	3.8	1.49e+00	0	28	104	0	84	24872
2026-01-03 23:59:06.08	24.09	7.06	-59.8	-75.9	3.8	1.49e+00	0	28	104	0	84	24792
2026-01-03 23:59:10.07	24.22	7.36	-59.8	-75.9	3.8	1.49e+00	0	28	104	0	84	24756
2026-01-03 23:59:14.07	24.34	7.67	-59.8	-75.9	3.8	1.49e+00	0	28	104	0	84	24893
2026-01-03 23:59:18.07	24.48	7.98	-59.8	-75.9	3.8	1.49e+00	0	28	104	0	84	24876
2026-01-03 23:59:22.07	24.61	8.29	-59.8	-75.9	3.8	1.49e+00	0	28	104	0	84	24804
2026-01-03 23:59:26.06	24.74	8.61	-59.8	-75.9	3.8	1.49e+00	0	28	104	0	84	24831
2026-01-03 23:59:30.05	24.88	8.93	-59.8	-75.9	3.8	1.49e+00	0	28	104	0	84	24848
2026-01-03 23:59:34.04	25.02	9.26	-59.8	-75.9	3.8	1.49e+00	0	28	104	0	84	24822
2026-01-03 23:59:38.06	25.17	9.59	-59.8	-75.9	3.8	1.49e+00	0	28	104	0	84	24727
2026-01-03 23:59:42.05	25.31	9.93	-59.8	-75.9	3.8	1.49e+00	0	28	104	0	84	24754
2026-01-03 23:59:46.04	25.46	10.27	-59.8	-75.9	3.8	1.49e+00	0	28	104	0	84	24816
2026-01-03 23:59:50.04	25.61	10.61	-59.8	-75.8	3.8	1.49e+00	0	28	104	0	84	24544
2026-01-03 23:59:54.04	25.77	10.96	-59.8	-75.8	3.8	1.49e+00	0	29	104	0	84	24467
2026-01-03 23:59:58.03	25.93	11.31	-59.8	-75.8	3.8	1.49e+00	0	28	104	0	84	24498
2026-01-04 00:00:02.02	26.09	11.67	-59.8	-75.8	3.8	1.49e+00	0	29	104	0	84	24683
2026-01-04 00:00:06.01	26.26	12.04	-59.8	-75.9	3.8	1.49e+00	0	28	104	0	84	24729
2026-01-04 00:00:09.98	26.43	12.40	-59.8	-75.8	3.8	1.49e+00	0	28	104	0	84	24669
2026-01-04 00:00:13.97	26.60	12.78	-59.8	-75.9	3.8	1.49e+00	0	29	104	0	84	24722
2026-01-04 00:00:17.96	26.78	13.16	-59.8	-75.9	3.8	1.49e+00	0	29	104	0	84	24781
2026-01-04 00:00:21.95	26.96	13.54	-59.8	-75.9	3.8	1.49e+00	0	29	104	0	84	24697
2026-01-04 00:00:25.96	27.15	13.94	-59.8	-75.9	3.8	1.49e+00	0	29	104	0	84	24750
2026-01-04 00:00:29.96	27.34	14.33	-59.8	-75.9	3.8	1.49e+00	0	29	104	0	84	24776
2026-01-04 00:00:33.95	27.53	14.74	-59.8	-75.9	3.8	1.49e+00	0	29	104	0	84	24715
2026-01-04 00:00:37.92	27.73	15.15	-59.8	-75.8	3.9	1.49e+00	0	29	104	0	84	24621
2026-01-04 00:00:41.91	27.94	15.56	-59.8	-75.9	3.8	1.49e+00	0	29	104	0	84	24748
2026-01-04 00:00:45.90	28.15	15.99	-59.8	-75.8	3.8	1.49e+00	0	29	104	0	84	24634
2026-01-04 00:00:49.90	28.36	16.42	-59.8	-75.8	3.8	1.49e+00	0	29	104	0	84	24631
2026-01-04 00:00:53.89	28.58	16.86	-59.8	-75.8	3.8	1.49e+00	0	29	104	0	84	24590
2026-01-04 00:00:57.89	28.81	17.31	-59.8	-75.8	3.8	1.49e+00	0	29	104	0	84	24632
2026-01-04 00:01:01.87	29.05	17.76	-59.8	-75.8	3.8	1.49e+00	0	29	104	0	84	24609
2026-01-04 00:01:05.85	29.29	18.22	-59.8	-75.8	3.8	1.49e+00	0	29	104	0	84	24576
2026-01-04 00:01:09.84	29.54	18.70	-59.8	-75.8	3.8	1.49e+00	0	29	104	0	84	24575
2026-01-04 00:01:13.84	29.79	19.18	-59.8	-75.8	3.8	1.49e+00	0	29	104	0	84	24556
2026-01-04 00:01:17.85	30.06	19.67	-59.8	-75.8	3.8	1.49e+00	0	29	104	0	84	24543
2026-01-04 00:01:21.84	30.33	20.17	-59.8	-75.7	3.8	1.49e+00	0	29	104	0	84	24375
2026-01-04 00:01:25.84	30.61	20.68	-59.7	-75.8	3.8	1.49e+00	0	29	104	0	84	24583
2026-01-04 00:01:29.84	30.90	21.20	-59.8	-75.8	3.8	1.49e+00	0	29	104	0	84	24651
2026-01-04 00:01:33.85	31.20	21.73	-59.7	-75.7	3.8	1.49e+00	0	29	104	0	84	24326
2026-01-04 00:01:37.84	31.50	22.27	-59.8	-75.7	3.8	1.49e+00	0	29	104	0	84	24385
2026-01-04 00:01:41.84	31.82	22.82	-59.7	-75.7	3.8	1.49e+00	0	29	104	0	84	24401
2026-01-04 00:01:45.83	32.15	23.38	-59.7	-75.8	3.8	1.49e+00	0	29	104	0	84	24529
2026-01-04 00:01:49.83	32.49	23.95	-59.7	-75.8	3.8	1.49e+00	0	29	104	0	84	24545
2026-01-04 00:01:53.84	32.84	24.54	-59.7	-75.7	3.8	1.49e+00	0	29	104	0	84	24407
2026-01-04 00:01:57.83	33.21	25.13	-59.7	-75.8	3.8	1.49e+00	0	29	104	0	84	24505
2026-01-04 00:02:01.82	33.59	25.74	-59.7	-75.8	3.8	1.49e+00	0	29	104	0	84	24511
2026-01-04 00:02:05.81	33.98	26.36	-59.7	-75.7	3.8	1.49e+00	0	29	104	0	84	24364
2026-01-04 00:02:09.81	34.39	27.00	-59.7	-75.8	3.8	1.49e+00	0	29	104	0	84	24453
2026-01-04 00:02:13.79	34.81	27.65	-59.7	-75.8	3.8	1.49e+00	0	29	104	0	84	24453
2026-01-04 00:02:17.79	35.26	28.31	-59.7	-75.8	3.8	1.49e+00	0	29	104	0	84	24504
2026-01-04 00:02:21.79	35.72	28.99	-59.7	-75.7	3.8	1.49e+00	0	29	104	0	84	24380
2026-01-04 00:02:25.79	36.19	29.69	-59.7	-75.8	3.8	1.49e+00	0	29	104	0	84	24428
2026-01-04 00:02:29.80	36.70	30.40	-59.7	-75.8	3.8	1.49e+00	0	29	104	0	84	24434
2026-01-04 00:02:33.79	37.22	31.12	-59.7	-75.8	3.8	1.49e+00	0	29	104	0	84	24445
2026-01-04 00:02:37.79	37.76	31.86	-59.7	-75.8	3.8	1.49e+00	0	29	104	0	84	24427
2026-01-04 00:02:41.78	38.33	32.62	-59.7	-75.7	3.8	1.49e+00	0	29	104	0	84	24395
2026-01-04 00:02:45.79	38.93	33.39	-59.7	-75.8	3.8	1.49e+00	0	29	104	0	84	24412
2026-01-04 00:02:49.80	39.56	34.18	-59.7	-75.7	3.8	1.49e+00	0	29	104	0	84	24378
2026-01-04 00:02:53.78	40.21	34.99	-59.7	-75.7	3.8	1.49e+00	0	29	104	0	84	24408
2026-01-04 00:02:57.77	40.89	35.81	-59.7	-75.7	3.8	1.49e+00	0	29	104	0	84	24354
2026-01-04 00:03:01.75	41.61	36.65	-59.7	-75.7	3.8	1.49e+00	0	29	104	0	84	24387
2026-01-04 00:03:05.73	42.37	37.50	-59.7	-75.7	3.8	1.49e+00	0	29	104	0	84	24302
2026-01-04 00:03:09.72	43.17	38.37	-59.7	-75.7	3.8	1.49e+00	0	29	104	0	84	24293
2026-01-04 00:03:13.71	44.01	39.26	-59.6	-75.7	3.8	1.49e+00	0	29	104	0	84	24305
2026-01-04 00:03:17.69	44.90	40.16	-59.6	-75.7	3.8	1.49e+00	0	29	104	0	84	24288
2026-01-04 00:03:21.70	45.84	41.09	-59.6	-75.7	3.8	1.49e+00	0	29	104	0	84	24199
2026-01-04 00:03:25.71	46.84	42.03	-59.6	-75.7	3.8	1.49e+00	0	29	104	0	84	24250
2026-01-04 00:03:29.71	47.90	42.98	-59.6	-75.7	3.8	1.49e+00	0	29	104	0	84	24240
2026-01-04 00:03:33.72	49.02	43.95	-59.6	-75.7	3.8	1.49e+00	0	29	104	0	84	24187
2026-01-04 00:03:37.71	50.21	44.93	-59.6	-75.7	3.8	1.49e+00	0	29	104	0	84	24242
2026-01-04 00:03:41.72	51.48	45.92	-59.6	-75.7	3.8	1.49e+00	0	29	104	0	84	24131
2026-01-04 00:03:45.70	52.82	46.91	-59.6	-75.7	3.8	1.49e+00	0	29	104	0	84	24186
2026-01-04 00:03:49.69	54.25	47.91	-59.6	-75.7	3.8	1.49e+00	0	29	104	0	84	24182
2026-01-04 00:03:53.69	55.77	48.92	-59.6	-75.7	3.8	1.49e+00	0	29	104	0	84	24185
2026-01-04 00:03:57.69	57.40	49.93	-59.6	-75.6	3.8	1.49e+00	0	29	104	0	84	24107
2026-01-04 00:04:01.69	59.14	50.93	-59.6	-75.7	3.8	1.49e+00	0	29	104	0	84	24166
2026-01-04 00:04:05.67	60.99	51.92	-59.6	-75.6	3.8	1.49e+00	0	29	104	0	84	24104
2026-01-04 00:04:09.66	62.97	52.91	-59.6	-75.6	3.8	1.49e+00	0	29	104	0	84	24130
2026-01-04 00:04:13.65	65.09	53.87	-59.6	-75.6	3.8	1.49e+00	0	29	104	0	84	24102
2026-01-04 00:04:17.65	67.35	54.81	-59.6	-75.6	3.8	1.49e+00	0	29	104	0	84	24103
2026-01-04 00:04:21.63	69.76	55.72	-59.6	-75.6	3.8	1.49e+00	0	29	104	0	84	24045
2026-01-04 00:04:25.61	72.32	56.60	-59.6	-75.6	3.8	1.49e+00	0	29	104	0	84	24039
2026-01-04 00:04:29.62	75.06	57.43	-59.6	-75.6	3.8	1.49e+00	0	29	104	0	84	24044
2026-01-04 00:04:33.62	77.96	58.21	-59.5	-75.6	3.8	1.49e+00	0	29	104	0	84	24042
2026-01-04 00:04:37.63	81.04	58.92	-59.5	-75.6	3.8	1.49e+00	0	29	104	0	84	23970
2026-01-04 00:04:41.62	84.26	59.57	-59.5	-75.6	3.8	1.49e+00	0	29	104	0	84	23947
2026-01-04 00:04:45.61	87.64	60.13	-59.5	-75.6	3.8	1.49e+00	0	29	104	0	84	23892
2026-01-04 00:04:49.61	91.16	60.61	-59.5	-75.6	3.8	1.49e+00	0	29	104	0	84	23907
2026-01-04 00:04:53.61	94.81	60.99	-59.5	-75.6	3.8	1.49e+00	0	29	104	0	84	23938
2026-01-04 00:04:57.62	98.56	61.27	-59.5	-75.6	3.8	1.49e+00	0	29	104	0	84	23868
2026-01-04 00:05:01.61	102.36	61.45	-59.5	-75.5	3.8	1.49e+00	0	29	104	0	84	23831
2026-01-04 00:05:05.60	106.20	61.51	-59.5	-75.5	3.8	1.49e+00	0	29	104	0	84	23837
2026-01-04 00:05:09.58	110.03	61.47	-59.5	-75.5	3.8	1.49e+00	0	29	104	0	84	23828
2026-01-04 00:05:13.56	113.83	61.31	-59.5	-75.5	3.8	1.49e+00	0	29	104	0	84	23765
2026-01-04 00:05:17.54	117.57	61.05	-59.5	-75.5	3.8	1.49e+00	0	29	104	0	84	23806
2026-01-04 00:05:21.53	121.23	60.69	-59.4	-75.5	3.8	1.49e+00	0	29	104	0	84	23667
2026-01-04 00:05:25.53	124.78	60.23	-59.4	-75.5	3.8	1.49e+00	0	29	104	0	84	23711
2026-01-04 00:05:29.53	128.19	59.68	-59.4	-75.5	3.8	1.49e+00	0	29	104	0	84	23707
2026-01-04 00:05:33.53	131.46	59.04	-59.4	-75.5	3.8	1.49e+00	0	29	104	0	84	23606
2026-01-04 00:05:37.52	134.55	58.34	-59.4	-75.5	3.8	1.49e+00	0	29	104	0	84	23585
2026-01-04 00:05:41.51	137.48	57.58	-59.4	-75.5	3.8	1.49e+00	0	29	104	0	84	23643
2026-01-04 00:05:45.52	140.26	56.75	-59.4	-75.5	3.8	1.49e+00	0	29	104	0	84	23683
2026-01-04 00:05:49.52	142.86	55.88	-59.4	-75.4	3.8	1.49e+00	0	29	104	0	84	23566
2026-01-04 00:05:53.53	145.32	54.97	-59.4	-75.4	3.8	1.49e+00	0	29	104	0	84	23557
2026-01-04 00:05:57.54	147.62	54.02	-59.4	-75.4	3.8	1.49e+00	0	29	104	0	84	23533
2026-01-04 00:06:01.55	149.77	53.06	-59.4	-75.4	3.8	1.49e+00	0	29	104	0	84	23484
2026-01-04 00:06:05.53	151.77	52.08	-59.4	-75.4	3.8	1.49e+00	0	29	104	0	84	23439
2026-01-04 00:06:09.53	153.65	51.08	-59.3	-75.4	3.8	1.49e+00	0	29	104	0	84	23384
2026-01-04 00:06:13.50	155.40	50.08	-59.3	-75.4	3.8	1.49e+00	0	29	104	0	84	23420
2026-01-04 00:06:17.51	157.05	49.07	-59.3	-75.4	3.8	1.49e+00	0	29	104	0	84	23317
2026-01-04 00:06:21.51	158.60	48.06	-59.3	-75.4	3.8	1.49e+00	0	29	104	0	84	23325
2026-01-04 00:06:25.50	160.05	47.05	-59.3	-75.3	3.8	1.49e+00	0	29	104	0	84	23277
2026-01-04 00:06:29.50	161.41	46.05	-59.3	-75.3	3.8	1.49e+00	0	29	104	0	84	23268
2026-01-04 00:06:33.50	162.68	45.06	-59.3	-75.3	3.8	1.49e+00	0	29	104	0	84	23211
2026-01-04 00:06:37.50	163.89	44.07	-59.3	-75.3	3.8	1.49e+00	0	29	104	0	84	23252
2026-01-04 00:06:41.49	165.02	43.10	-59.3	-75.3	3.8	1.49e+00	0	29	104	0	84	23242
2026-01-04 00:06:45.50	166.09	42.14	-59.3	-75.3	3.8	1.49e+00	0	29	104	0	84	23189
2026-01-04 00:06:49.50	167.09	41.20	-59.3	-75.3	3.8	1.49e+00	0	29	104	0	84	23229
2026-01-04 00:06:53.51	168.05	40.27	-59.2	-75.3	3.8	1.49e+00	0	29	104	0	84	23112
2026-01-04 00:06:57.53	168.95	39.35	-59.2	-75.3	3.8	1.49e+00	0	29	104	0	84	23086
2026-01-04 00:07:01.51	169.80	38.46	-59.2	-75.3	3.8	1.49e+00	0	29	104	0	84	23057
2026-01-04 00:07:05.52	170.61	37.57	-59.2	-75.3	3.8	1.49e+00	0	29	104	0	84	23051
2026-01-04 00:07:09.53	171.38	36.71	-59.2	-75.2	3.8	1.49e+00	0	29	104	0	84	23008
2026-01-04 00:07:13.51	172.10	35.87	-59.2	-75.2	3.8	1.49e+00	0	29	104	0	84	22970
2026-01-04 00:07:17.50	172.79	35.04	-59.2	-75.2	3.8	1.49e+00	0	29	104	0	84	22902
2026-01-04 00:07:21.49	173.45	34.23	-59.1	-75.2	3.8	1.49e+00	0	29	104	0	84	22862
2026-01-04 00:07:25.50	174.08	33.43	-59.1	-75.2	3.8	1.49e+00	0	29	104	0	84	22785
2026-01-04 00:07:29.50	174.68	32.66	-59.1	-75.1	3.8	1.49e+00	0	29	104	0	84	22714
2026-01-04 00:07:33.49	175.26	31.90	-59.1	-75.1	3.8	1.49e+00	0	29	104	0	84	22715
2026-01-04 00:07:37.51	175.81	31.15	-59.1	-75.1	3.8	1.49e+00	0	29	104	0	84	22680
2026-01-04 00:07:41.50	176.33	30.42	-59.0	-75.1	3.8	1.49e+00	0	29	104	0	84	22597
2026-01-04 00:07:45.50	176.83	29.70	-59.0	-75.1	3.8	1.49e+00	0	29	104	0	84	22578
2026-01-04 00:07:49.50	177.31	29.01	-59.0	-75.1	3.8	1.49e+00	0	29	104	0	84	22539
2026-01-04 00:07:53.51	177.78	28.32	-59.0	-75.0	3.8	1.49e+00	0	29	104	0	84	22438
2026-01-04 00:07:57.51	178.22	27.65	-59.0	-75.0	3.8	1.49e+00	0	29	104	0	84	22407
2026-01-04 00:08:01.51	178.65	27.00	-59.0	-75.0	3.8	1.49e+00	0	29	104	0	84	22319
2026-01-04 00:08:05.49	179.05	26.36	-58.9	-75.0	3.8	1.49e+00	0	29	104	0	84	22299
2026-01-04 00:08:09.47	179.45	25.74	-58.9	-74.9	3.8	1.49e+00	0	29	104	0	84	22232
2026-01-04 00:08:13.47	179.83	25.12	-58.9	-74.9	3.8	1.49e+00	0	29	104	0	84	22167
2026-01-04 00:08:17.47	180.19	24.52	-58.9	-74.9	3.8	1.49e+00	0	29	104	0	84	22117
2026-01-04 00:08:21.47	180.55	23.93	-58.8	-74.9	3.8	1.49e+00	0	29	104	0	84	22020
2026-01-04 00:08:25.46	180.89	23.36	-58.8	-74.8	3.8	1.49e+00	0	29	104	0	84	21945
2026-01-04 00:08:29.46	181.22	22.79	-58.8	-74.8	3.8	1.49e+00	0	29	104	0	84	21881
2026-01-04 00:08:33.46	181.54	22.24	-58.8	-74.8	3.8	1.49e+00	0	29	104	0	84	21828
2026-01-04 00:08:37.46	181.85	21.69	-58.7	-74.8	3.8	1.49e+00	0	29	104	0	84	21779
2026-01-04 00:08:41.46	182.14	21.16	-58.7	-74.7	3.8	1.49e+00	0	29	104	0	84	21662
2026-01-04 00:08:45.44	182.43	20.64	-59.8	-75.8	3.8	1.49e+00	0	29	104	0	84	24589
2026-01-04 00:08:49.44	182.71	20.13	-60.5	-76.6	3.8	1.49e+00	0	29	104	0	86	23914
2026-01-04 00:08:53.43	182.98	19.63	-60.8	-76.9	3.8	1.49e+00	0	29	104	0	86	24722
2026-01-04 00:08:57.44	183.25	19.13	-61.0	-77.1	3.8	1.49e+00	0	29	104	0	87	23956
2026-01-04 00:09:01.43	183.50	18.65	-61.1	-77.2	3.8	1.49e+00	0	29	104	0	87	24371
2026-01-04 00:09:05.43	183.75	18.18	-61.2	-77.3	3.8	1.49e+00	0	29	104	0	87	24543
2026-01-04 00:09:09.42	183.99	17.71	-61.2	-77.3	3.8	1.49e+00	0	29	104	0	87	24608
2026-01-04 00:09:13.43	184.22	17.25	-61.2	-77.3	3.8	1.49e+00	0	29	104	0	87	24550
2026-01-04 00:09:17.41	184.45	16.80	-61.1	-77.2	3.8	1.49e+00	0	29	104	0	87	24211
2026-01-04 00:09:21.40	184.67	16.36	-60.9	-76.9	3.8	1.49e+00	0	29	104	0	87	23539
2026-01-04 00:09:25.40	184.89	15.93	-57.8	-61.9	11.2	1.49e+00	0	29	104	0	82	5529
2026-01-04 00:09:29.40	185.10	15.50	-57.9	-62.3	11.4	7.00e-07	0	29	0	4194304	80	6532
2026-01-04 00:09:33.40	185.30	15.08	-54.5	-56.7	14.2	0.00e+00	0	29	0	9437184	75	4573
2026-01-04 00:09:37.40	185.50	14.66	-53.7	-55.6	14.5	0.00e+00	0	29	0	16777216	73	4524
2026-01-04 00:09:41.40	185.69	14.26	-53.8	-55.8	14.4	0.00e+00	0	29	0	24117248	73	4604
2026-01-04 00:09:45.39	185.88	13.86	-53.9	-56.0	14.3	0.00e+00	0	29	0	31457280	73	4714
2026-01-04 00:09:49.37	186.07	13.47	-54.0	-56.0	14.3	0.00e+00	0	29	0	38797312	73	4753
2026-01-04 00:09:53.37	186.25	13.08	-53.9	-56.0	14.3	0.00e+00	0	29	0	47185920	73	4724
2026-01-04 00:09:57.37	186.42	12.69	-53.9	-55.9	14.3	0.00e+00	0	29	0	54525952	73	4700
2026-01-04 00:10:01.37	186.60	12.32	-53.9	-56.0	14.3	0.00e+00	0	29	0	61865984	73	4707
2026-01-04 00:10:05.36	186.76	11.95	-53.8	-55.9	14.3	0.00e+00	0	29	0	69206016	73	4681
2026-01-04 00:10:09.36	186.93	11.58	-53.8	-55.9	14.3	0.00e+00	0	29	0	76546048	73	4665
2026-01-04 00:10:13.35	187.09	11.22	-53.7	-55.8	14.3	0.00e+00	0	29	0	83886080	73	4619
2026-01-04 00:10:17.34	187.24	10.87	-53.7	-55.7	14.3	0.00e+00	0	29	0	92274688	73	4579
2026-01-04 00:10:21.33	187.40	10.52	-53.6	-55.6	14.4	0.00e+00	0	29	0	99614720	73	4508
2026-01-04 00:10:25.32	187.55	10.17	-53.5	-55.4	14.5	0.00e+00	0	29	0	106954752	73	4421
2026-01-04 00:10:29.32	187.70	9.83	-53.5	-55.4	14.5	0.00e+00	0	29	0	114294784	73	4431
2026-01-04 00:10:33.32	187.84	9.49	-53.3	-55.3	14.5	0.00e+00	0	29	0	121634816	73	4357
2026-01-04 00:10:37.30	187.98	9.16	-53.4	-55.3	14.5	0.00e+00	0	29	0	128974848	73	4375
2026-01-04 00:10:41.28	188.12	8.84	-53.5	-55.5	14.4	0.00e+00	0	29	0	136314880	73	4478
2026-01-04 00:10:45.28	188.25	8.51	-53.5	-55.5	14.4	0.00e+00	0	29	0	143654912	73	4459
2026-01-04 00:10:49.28	188.39	8.19	-53.6	-55.7	14.3	0.00e+00	0	29	0	152043520	73	4549
2026-01-04 00:10:53.28	188.52	7.88	-53.6	-55.7	14.3	0.00e+00	0	29	0	159383552	73	4595
2026-01-04 00:10:57.28	188.65	7.56	-53.7	-55.8	14.2	0.00e+00	0	29	0	166723584	73	4628
2026-01-04 00:11:01.27	188.77	7.26	-53.8	-56.0	14.1	0.00e+00	0	29	0	174063616	73	4717
2026-01-04 00:11:05.25	188.89	6.95	-53.8	-56.1	14.1	0.00e+00	0	29	0	181403648	73	4764
2026-01-04 00:11:09.25	189.02	6.65	-53.9	-56.1	14.0	0.00e+00	0	29	0	188743680	73	4808
2026-01-04 00:11:13.24	189.13	6.35	-54.1	-56.5	13.8	0.00e+00	0	29	0	197132288	73	4990
2026-01-04 00:11:17.23	189.25	6.06	-54.2	-56.7	13.7	0.00e+00	0	29	0	204472320	73	5106
2026-01-04 00:11:21.21	189.37	5.77	-54.2	-56.7	13.7	0.00e+00	0	29	0	211812352	73	5110
2026-01-04 00:11:25.20	189.48	5.48	-54.3	-56.8	13.6	0.00e+00	0	29	0	219152384	73	5192
2026-01-04 00:11:29.20	189.59	5.20	-54.4	-57.0	13.5	0.00e+00	0	29	0	226492416	73	5309
2026-01-04 00:11:33.20	189.70	4.91	-60.0	-76.1	3.8	1.49e+00	0	29	104	231735296	85	24017
2026-01-04 00:11:37.19	189.81	4.63	-60.7	-76.8	3.8	1.49e+00	0	29	104	231735296	86	24447
2026-01-04 00:11:41.18	189.91	4.36	-61.0	-77.1	3.8	1.49e+00	0	29	104	231735296	87	23909
2026-01-04 00:11:45.17	190.01	4.09	-61.1	-77.2	3.8	1.49e+00	0	29	104	231735296	87	24370
2026-01-04 00:11:49.16	190.12	3.81	-61.2	-77.3	3.8	1.49e+00	0	29	104	231735296	87	24625
2026-01-04 00:11:53.16	190.22	3.55	-61.3	-77.4	3.8	1.49e+00	0	29	104	231735296	87	24830
2026-01-04 00:11:57.17	190.32	3.28	-61.2	-77.3	3.8	1.49e+00	0	29	104	231735296	87	24557
2026-01-04 00:12:01.16	190.41	3.02	-61.2	-77.3	3.8	1.49e+00	0	29	104	231735296	87	24428
2026-01-04 00:12:05.16	190.51	2.75	-61.2	-77.2	3.8	1.49e+00	0	29	104	231735296	87	24374
2026-01-04 00:12:09.16	190.60	2.50	-61.1	-77.2	3.8	1.49e+00	0	29	104	231735296	87	24283
2026-01-04 00:12:13.15	190.70	2.24	-61.1	-77.2	3.8	1.49e+00	0	29	104	231735296	87	24288
2026-01-04 00:12:17.15	190.79	1.99	-61.1	-77.2	3.8	1.49e+00	0	29	104	231735296	87	24186

#Closed at: 2026-01-04 00:12:17
#Recorded file [231 MB]: D:/lorett/data/31004_260104_025753.dat