passes_logs/2026/01/03/R3.2S_Murmansk/R3.2S_Murmansk__20260103_081328_SUOMI_NPP_rec.log

#Pass ID: 20260103_081328_SUOMI NPP
#Satellite: SUOMI NPP
#Configuration: NPP
#almurnet v.1.7.20251203
#Start time: 2026-01-03 08:13:29

#Version: 2.2.20231116
#Station: R3.2S_Murmansk
#Location: 33.079688 lon 68.888172 lat
#TLE: 1 37849U 11061A   26001.07732418  .00000182  00000+0  10735-3 0  9990
#TLE: 2 37849  98.7795 303.2470 0002580  87.2016 272.9455 14.19520779734739

#Time	Az	El	Level	Level2	SNR	BER	BlckErr	Temp	State	Recorded	gain1	gain2
2026-01-03 08:13:29.95	119.77	2.10	-59.6	-75.1	3.8	1.49e+00	0	29	0	0	85	21448
2026-01-03 08:13:33.98	119.65	2.36	-59.5	-75.1	3.8	1.49e+00	0	29	104	0	84	22693
2026-01-03 08:13:38.01	119.52	2.61	-59.6	-75.2	3.8	1.49e+00	0	29	104	0	84	22783
2026-01-03 08:13:42.06	119.40	2.87	-59.6	-75.1	3.8	1.49e+00	0	29	104	0	84	22722
2026-01-03 08:13:46.09	119.26	3.13	-59.6	-75.1	3.8	1.49e+00	0	29	104	0	84	22576
2026-01-03 08:13:50.12	119.13	3.40	-59.6	-75.0	3.8	1.49e+00	0	29	104	0	84	22394
2026-01-03 08:13:54.12	119.00	3.66	-59.6	-74.4	3.8	1.49e+00	0	29	104	0	84	20918
2026-01-03 08:13:58.14	118.86	3.93	-59.4	-71.6	4.2	1.43e+00	0	29	0	0	84	15082
2026-01-03 08:14:02.16	118.72	4.20	-59.1	-68.0	5.9	4.47e-01	0	29	0	6291456	84	9999
2026-01-03 08:14:06.16	118.57	4.47	-58.0	-63.6	9.3	1.62e-02	0	29	0	13631488	82	6732
2026-01-03 08:14:10.17	118.42	4.74	-56.3	-59.4	12.5	7.60e-06	0	29	0	20971520	79	4933
2026-01-03 08:14:14.19	118.27	5.02	-55.3	-57.7	13.4	0.00e+00	0	29	0	28311552	76	4850
2026-01-03 08:14:18.20	118.12	5.30	-57.2	-61.0	11.4	7.17e-04	0	29	0	35651584	81	5298
2026-01-03 08:14:22.19	117.97	5.58	-55.5	-58.0	13.4	0.00e+00	0	30	0	42991616	77	4708
2026-01-03 08:14:26.19	117.81	5.86	-55.2	-57.3	13.7	0.00e+00	0	30	0	51380224	76	4638
2026-01-03 08:14:30.22	117.64	6.15	-55.3	-57.5	13.6	0.00e+00	0	30	0	58720256	76	4750
2026-01-03 08:14:34.23	117.48	6.44	-55.3	-57.4	13.8	0.00e+00	0	30	0	66060288	76	4696
2026-01-03 08:14:38.24	117.31	6.74	-55.3	-57.4	13.7	0.00e+00	0	30	0	73400320	76	4698
2026-01-03 08:14:42.27	117.13	7.04	-55.2	-57.3	13.9	0.00e+00	0	30	0	80740352	76	4600
2026-01-03 08:14:46.31	116.95	7.34	-55.1	-57.1	14.0	0.00e+00	0	30	0	89128960	76	4509
2026-01-03 08:14:50.34	116.77	7.65	-55.4	-57.5	13.8	0.00e+00	0	30	0	96468992	76	4712
2026-01-03 08:14:54.37	116.58	7.95	-55.2	-57.3	13.9	0.00e+00	0	30	0	103809024	76	4603
2026-01-03 08:14:58.40	116.39	8.27	-54.9	-56.8	14.2	0.00e+00	0	30	0	111149056	76	4364
2026-01-03 08:15:02.44	116.19	8.58	-54.9	-56.7	14.3	0.00e+00	0	30	0	118489088	76	4324
2026-01-03 08:15:06.47	115.99	8.90	-55.0	-56.8	14.2	0.00e+00	0	30	0	126877696	76	4373
2026-01-03 08:15:10.51	115.79	9.23	-54.9	-56.7	14.3	0.00e+00	0	30	0	134217728	76	4332
2026-01-03 08:15:14.54	115.58	9.55	-54.5	-56.2	14.5	0.00e+00	0	30	0	141557760	75	4328
2026-01-03 08:15:18.57	115.36	9.88	-54.7	-56.5	14.4	0.00e+00	0	30	0	148897792	75	4447
2026-01-03 08:15:22.60	115.14	10.22	-54.8	-56.5	14.3	0.00e+00	0	30	0	156237824	75	4465
2026-01-03 08:15:26.64	114.91	10.56	-54.4	-56.0	14.6	0.00e+00	0	30	0	164626432	75	4224
2026-01-03 08:15:30.67	114.68	10.90	-54.1	-55.8	14.6	0.00e+00	0	30	0	171966464	74	4391
2026-01-03 08:15:34.70	114.45	11.25	-54.3	-56.2	14.5	0.00e+00	0	30	0	179306496	74	4564
2026-01-03 08:15:38.73	114.20	11.60	-54.3	-56.2	14.5	0.00e+00	0	30	0	186646528	74	4582
2026-01-03 08:15:42.76	113.95	11.96	-54.1	-55.9	14.6	0.00e+00	0	30	0	195035136	74	4421
2026-01-03 08:15:46.80	113.70	12.32	-54.2	-56.1	14.5	0.00e+00	0	30	0	202375168	74	4534
2026-01-03 08:15:50.83	113.43	12.69	-54.2	-56.2	14.5	0.00e+00	0	30	0	209715200	74	4549
2026-01-03 08:15:54.86	113.16	13.06	-54.1	-55.9	14.6	0.00e+00	0	30	0	217055232	74	4415
2026-01-03 08:15:58.89	112.89	13.44	-54.1	-55.9	14.6	0.00e+00	0	30	0	224395264	74	4425
2026-01-03 08:16:02.93	112.60	13.82	-53.9	-55.6	14.8	0.00e+00	0	30	0	232783872	74	4271
2026-01-03 08:16:06.97	112.31	14.21	-53.9	-55.6	14.7	0.00e+00	0	30	0	240123904	74	4272
2026-01-03 08:16:11.00	112.01	14.60	-53.6	-55.3	14.8	0.00e+00	0	30	0	247463936	73	4350
2026-01-03 08:16:15.04	111.70	15.00	-54.0	-55.7	14.7	0.00e+00	0	30	0	254803968	73	4585
2026-01-03 08:16:19.07	111.38	15.40	-53.9	-55.5	14.8	0.00e+00	0	30	0	262144000	73	4466
2026-01-03 08:16:23.10	111.05	15.81	-54.0	-55.7	14.6	0.00e+00	0	30	0	270532608	73	4592
2026-01-03 08:16:27.14	110.72	16.23	-53.8	-55.5	14.7	0.00e+00	0	30	0	277872640	73	4475
2026-01-03 08:16:31.16	110.37	16.65	-53.6	-55.3	14.8	0.00e+00	0	30	0	285212672	73	4342
2026-01-03 08:16:35.20	110.01	17.08	-53.7	-55.4	14.8	0.00e+00	0	30	0	292552704	73	4438
2026-01-03 08:16:39.22	109.65	17.51	-54.0	-55.8	14.6	0.00e+00	0	30	0	299892736	73	4635
2026-01-03 08:16:43.26	109.27	17.96	-54.4	-56.3	14.4	0.00e+00	0	30	0	308281344	74	4620
2026-01-03 08:16:47.29	108.88	18.40	-54.2	-56.1	14.6	0.00e+00	0	30	0	315621376	74	4503
2026-01-03 08:16:51.33	108.47	18.86	-54.0	-55.6	14.8	0.00e+00	0	30	0	322961408	74	4283
2026-01-03 08:16:55.36	108.06	19.32	-54.4	-56.1	14.6	0.00e+00	0	30	0	330301440	74	4533
2026-01-03 08:16:59.41	107.63	19.79	-54.3	-56.1	14.7	0.00e+00	0	30	0	338690048	75	4244
2026-01-03 08:17:03.44	107.19	20.27	-54.6	-56.4	14.6	0.00e+00	0	30	0	346030080	75	4405
2026-01-03 08:17:07.48	106.73	20.75	-54.3	-55.9	14.7	0.00e+00	0	30	0	353370112	74	4436
2026-01-03 08:17:11.51	106.26	21.24	-54.1	-55.8	14.7	0.00e+00	0	30	0	360710144	74	4354
2026-01-03 08:17:15.55	105.77	21.74	-54.5	-56.3	14.5	0.00e+00	0	30	0	368050176	74	4637
2026-01-03 08:17:19.58	105.27	22.24	-54.4	-56.2	14.5	0.00e+00	0	30	0	376438784	74	4584
2026-01-03 08:17:23.61	104.75	22.76	-54.4	-56.3	14.5	0.00e+00	0	30	0	383778816	74	4634
2026-01-03 08:17:27.65	104.21	23.28	-54.3	-56.1	14.6	0.00e+00	0	30	0	391118848	74	4500
2026-01-03 08:17:31.68	103.65	23.81	-54.6	-56.5	14.4	0.00e+00	0	30	0	398458880	74	4746
2026-01-03 08:17:35.70	103.08	24.34	-55.0	-57.2	14.1	0.00e+00	0	30	0	406847488	75	4857
2026-01-03 08:17:39.74	102.48	24.89	-54.5	-56.5	14.5	0.00e+00	0	30	0	414187520	75	4452
2026-01-03 08:17:43.78	101.86	25.44	-54.4	-56.5	14.5	0.00e+00	0	31	0	421527552	74	4722
2026-01-03 08:17:47.81	101.22	26.00	-54.5	-56.7	14.3	0.00e+00	0	30	0	428867584	74	4840
2026-01-03 08:17:51.85	100.55	26.57	-54.8	-57.0	14.2	0.00e+00	0	30	0	436207616	75	4751
2026-01-03 08:17:55.87	99.86	27.14	-54.4	-56.3	14.6	0.00e+00	0	31	0	444596224	75	4387
2026-01-03 08:17:59.91	99.15	27.73	-54.5	-56.5	14.4	0.00e+00	0	31	0	451936256	74	4731
2026-01-03 08:18:03.95	98.40	28.32	-54.9	-57.1	14.2	0.00e+00	0	30	0	459276288	75	4782
2026-01-03 08:18:07.98	97.63	28.91	-54.7	-57.0	14.2	0.00e+00	0	30	0	466616320	75	4748
2026-01-03 08:18:12.02	96.83	29.52	-55.0	-57.4	14.2	0.00e+00	0	30	0	473956352	76	4670
2026-01-03 08:18:16.05	96.00	30.13	-55.4	-57.8	13.9	0.00e+00	0	30	0	482344960	76	4922
2026-01-03 08:18:20.09	95.13	30.74	-55.6	-58.0	13.9	0.00e+00	0	31	0	489684992	77	4753
2026-01-03 08:18:24.12	94.23	31.37	-55.4	-57.7	14.1	0.00e+00	0	31	0	497025024	77	4546
2026-01-03 08:18:28.16	93.30	31.99	-56.0	-58.7	13.6	0.00e+00	0	31	0	504365056	77	5116
2026-01-03 08:18:32.19	92.32	32.62	-56.0	-58.8	13.5	0.00e+00	0	30	0	512753664	78	4891
2026-01-03 08:18:36.22	91.31	33.26	-56.0	-58.8	13.6	0.00e+00	0	30	0	520093696	78	4878
2026-01-03 08:18:40.25	90.26	33.89	-57.2	-60.7	12.5	0.00e+00	0	31	0	527433728	79	5747
2026-01-03 08:18:44.29	89.17	34.53	-56.2	-58.7	13.6	0.00e+00	0	31	0	534773760	78	4864
2026-01-03 08:18:48.32	88.03	35.17	-54.8	-56.6	14.5	0.00e+00	0	31	0	542113792	75	4515
2026-01-03 08:18:52.36	86.84	35.81	-54.1	-55.8	14.8	0.00e+00	0	30	0	550502400	74	4360
2026-01-03 08:18:56.39	85.61	36.45	-55.5	-58.0	13.9	0.00e+00	0	30	0	557842432	76	5017
2026-01-03 08:19:00.43	84.33	37.08	-55.6	-58.3	13.6	0.00e+00	0	31	0	565182464	76	5198
2026-01-03 08:19:04.46	83.00	37.71	-55.3	-57.6	14.1	0.00e+00	0	30	0	572522496	77	4512
2026-01-03 08:19:08.49	81.62	38.33	-55.6	-58.0	13.8	0.00e+00	0	30	0	579862528	76	5023
2026-01-03 08:19:12.52	80.18	38.94	-56.5	-59.9	12.8	0.00e+00	0	31	0	588251136	78	5584
2026-01-03 08:19:16.55	78.69	39.54	-54.6	-56.6	14.4	0.00e+00	0	30	0	595591168	75	4520
2026-01-03 08:19:20.59	77.14	40.13	-55.1	-57.3	14.1	0.00e+00	0	31	0	602931200	76	4628
2026-01-03 08:19:24.62	75.53	40.70	-54.4	-56.3	14.5	0.00e+00	0	31	0	610271232	74	4620
2026-01-03 08:19:28.65	73.87	41.26	-54.9	-57.1	14.1	0.00e+00	0	30	0	617611264	75	4811
2026-01-03 08:19:32.69	72.15	41.80	-53.7	-55.5	14.8	0.00e+00	0	30	0	625999872	73	4462
2026-01-03 08:19:36.72	70.37	42.31	-53.0	-54.6	15.0	0.00e+00	0	30	0	633339904	72	4269
2026-01-03 08:19:40.75	68.54	42.80	-53.6	-55.5	14.7	0.00e+00	0	31	0	640679936	72	4708
2026-01-03 08:19:44.78	66.65	43.25	-54.2	-56.4	14.3	0.00e+00	0	31	0	648019968	73	4943
2026-01-03 08:19:48.82	64.71	43.68	-54.3	-56.6	14.3	0.00e+00	0	30	0	656408576	74	4774
2026-01-03 08:19:52.85	62.72	44.08	-54.6	-57.0	14.2	0.00e+00	0	31	0	663748608	75	4756
2026-01-03 08:19:56.88	60.68	44.44	-53.6	-55.3	14.8	0.00e+00	0	31	0	671088640	73	4349
2026-01-03 08:20:00.92	58.59	44.76	-54.0	-55.7	14.8	0.00e+00	0	30	0	678428672	74	4329
2026-01-03 08:20:04.96	56.46	45.04	-56.1	-59.2	13.2	0.00e+00	0	31	0	685768704	77	5431
2026-01-03 08:20:08.99	54.30	45.27	-54.5	-56.6	14.4	0.00e+00	0	31	0	694157312	75	4510
2026-01-03 08:20:13.02	52.12	45.47	-53.8	-55.7	14.7	0.00e+00	0	30	0	701497344	73	4582
2026-01-03 08:20:17.05	49.91	45.61	-55.4	-58.4	13.6	0.00e+00	0	30	0	708837376	76	5232
2026-01-03 08:20:21.08	47.68	45.71	-55.0	-57.7	13.9	0.00e+00	0	30	0	716177408	76	4865
2026-01-03 08:20:25.12	45.44	45.76	-55.1	-58.1	13.6	0.00e+00	0	30	0	723517440	76	5059
2026-01-03 08:20:29.15	43.19	45.76	-53.4	-55.2	14.9	0.00e+00	0	31	0	731906048	73	4339
2026-01-03 08:20:33.16	40.97	45.71	-55.1	-58.1	13.5	0.00e+00	0	31	0	739246080	75	5368
2026-01-03 08:20:37.20	38.73	45.62	-54.6	-57.2	14.1	0.00e+00	0	31	0	746586112	75	4834
2026-01-03 08:20:41.23	36.52	45.48	-55.1	-57.8	13.8	0.00e+00	0	31	0	753926144	75	5176
2026-01-03 08:20:45.25	34.34	45.29	-54.5	-56.9	14.2	0.00e+00	0	31	0	761266176	75	4664
2026-01-03 08:20:49.29	32.18	45.06	-54.8	-57.2	14.0	0.00e+00	0	31	0	769654784	75	4860
2026-01-03 08:20:53.32	30.05	44.78	-54.2	-56.6	14.2	0.00e+00	0	31	0	776994816	73	5080
2026-01-03 08:20:57.34	27.98	44.46	-54.6	-57.4	13.8	0.00e+00	0	31	0	784334848	74	5252
2026-01-03 08:21:01.37	25.94	44.11	-54.3	-56.6	14.2	0.00e+00	0	31	0	791674880	74	4767
2026-01-03 08:21:05.41	23.94	43.71	-53.4	-55.1	14.9	0.00e+00	0	31	0	799014912	73	4255
2026-01-03 08:21:09.44	22.00	43.29	-54.7	-57.2	14.0	0.00e+00	0	31	0	807403520	74	5127
2026-01-03 08:21:13.48	20.10	42.83	-53.7	-55.4	14.8	0.00e+00	0	31	0	814743552	73	4439
2026-01-03 08:21:17.51	18.27	42.35	-52.9	-54.5	15.1	0.00e+00	0	30	0	822083584	72	4215
2026-01-03 08:21:21.55	16.49	41.84	-51.8	-53.0	15.5	0.00e+00	0	30	0	829423616	70	3990
2026-01-03 08:21:25.57	14.77	41.30	-51.8	-53.0	15.4	0.00e+00	0	30	0	837812224	68	4446
2026-01-03 08:21:29.59	13.11	40.75	-51.4	-52.5	15.6	0.00e+00	0	31	0	845152256	69	4001
2026-01-03 08:21:33.62	11.51	40.18	-52.8	-54.2	15.1	0.00e+00	0	31	0	852492288	70	4594
2026-01-03 08:21:37.65	9.96	39.60	-53.3	-54.7	15.2	0.00e+00	0	31	0	859832320	73	4080
2026-01-03 08:21:41.68	8.46	39.00	-53.7	-55.2	14.9	0.00e+00	0	30	0	867172352	72	4593
2026-01-03 08:21:45.71	7.03	38.39	-53.5	-55.0	15.1	0.00e+00	0	31	0	875560960	73	4226
2026-01-03 08:21:49.75	5.64	37.77	-54.6	-56.4	14.7	0.00e+00	0	31	0	882900992	75	4413
2026-01-03 08:21:53.78	4.31	37.14	-53.5	-55.0	15.1	0.00e+00	0	31	0	890241024	73	4201
2026-01-03 08:21:57.81	3.03	36.51	-55.8	-58.2	13.8	0.00e+00	0	31	0	897581056	77	4826
2026-01-03 08:22:01.85	1.79	35.88	-55.5	-57.7	14.0	0.00e+00	0	31	0	904921088	76	4856
2026-01-03 08:22:05.89	0.60	35.24	-56.5	-59.3	13.3	0.00e+00	0	31	0	913309696	78	5196
2026-01-03 08:22:09.93	359.46	34.60	-56.5	-59.0	13.6	0.00e+00	0	31	0	920649728	79	4740
2026-01-03 08:22:13.96	358.37	33.96	-58.0	-61.9	11.6	6.80e-06	0	30	0	927989760	81	5915
2026-01-03 08:22:18.00	357.31	33.33	-57.3	-60.6	12.6	7.00e-07	0	31	0	935329792	81	5063
2026-01-03 08:22:22.04	356.30	32.69	-56.5	-59.2	13.4	0.00e+00	0	31	0	942669824	79	4823
2026-01-03 08:22:26.08	355.33	32.06	-55.5	-57.6	14.2	0.00e+00	0	31	0	951058432	77	4531
2026-01-03 08:22:30.11	354.39	31.44	-56.5	-59.2	13.4	0.00e+00	0	30	0	958398464	78	5129
2026-01-03 08:22:34.14	353.49	30.82	-56.1	-58.7	13.6	0.00e+00	0	31	0	965738496	78	4819
2026-01-03 08:22:38.18	352.63	30.20	-56.3	-58.7	13.6	0.00e+00	0	31	0	973078528	78	4869
2026-01-03 08:22:42.21	351.79	29.60	-54.8	-56.6	14.6	0.00e+00	0	30	0	981467136	76	4261
2026-01-03 08:22:46.25	350.99	28.99	-55.2	-57.1	14.3	0.00e+00	0	31	0	988807168	76	4516
2026-01-03 08:22:50.29	350.22	28.40	-54.1	-55.7	14.9	0.00e+00	0	30	0	996147200	74	4310
2026-01-03 08:22:54.33	349.47	27.81	-54.3	-56.0	14.7	0.00e+00	0	31	0	1003487232	74	4449
2026-01-03 08:22:58.36	348.76	27.22	-56.6	-59.4	13.2	0.00e+00	0	31	0	1010827264	78	5248
2026-01-03 08:23:02.40	348.07	26.65	-55.0	-57.0	14.4	0.00e+00	0	31	0	1019215872	76	4454
2026-01-03 08:23:06.43	347.40	26.08	-54.4	-56.1	14.6	0.00e+00	0	31	0	1026555904	74	4541
2026-01-03 08:23:10.46	346.76	25.52	-55.3	-57.5	14.0	0.00e+00	0	30	0	1033895936	75	5012
2026-01-03 08:23:14.48	346.15	24.98	-54.9	-57.0	14.2	0.00e+00	0	31	0	1041235968	75	4720
2026-01-03 08:23:18.52	345.55	24.43	-56.3	-58.9	13.4	0.00e+00	0	30	0	1048576000	77	5268
2026-01-03 08:23:22.55	344.97	23.90	-55.3	-57.2	14.3	0.00e+00	0	31	0	1056964608	77	4332
2026-01-03 08:23:26.58	344.42	23.37	-54.4	-56.1	14.7	0.00e+00	0	30	0	1064304640	75	4256
2026-01-03 08:23:30.61	343.88	22.85	-54.6	-56.3	14.6	0.00e+00	0	31	0	1071644672	74	4646
2026-01-03 08:23:34.65	343.36	22.33	-54.9	-56.9	14.4	0.00e+00	0	31	0	1078984704	75	4654
2026-01-03 08:23:38.68	342.85	21.83	-54.8	-56.6	14.5	0.00e+00	0	31	0	1086324736	75	4545
2026-01-03 08:23:42.72	342.37	21.33	-54.1	-55.7	14.8	0.00e+00	0	31	0	1094713344	74	4308
2026-01-03 08:23:46.76	341.90	20.84	-55.1	-57.1	14.2	0.00e+00	0	31	0	1102053376	75	4798
2026-01-03 08:23:50.79	341.44	20.36	-55.8	-58.3	13.8	0.00e+00	0	31	0	1109393408	77	4873
2026-01-03 08:23:54.83	341.00	19.88	-55.0	-56.9	14.4	0.00e+00	0	31	0	1116733440	76	4413
2026-01-03 08:23:58.86	340.57	19.42	-54.6	-56.4	14.5	0.00e+00	0	31	0	1125122048	75	4427
2026-01-03 08:24:02.89	340.16	18.95	-54.6	-56.5	14.5	0.00e+00	0	30	0	1132462080	75	4459
2026-01-03 08:24:06.92	339.76	18.50	-54.7	-56.6	14.4	0.00e+00	0	31	0	1139802112	75	4520
2026-01-03 08:24:10.96	339.37	18.05	-54.9	-56.8	14.4	0.00e+00	0	31	0	1147142144	75	4608
2026-01-03 08:24:14.99	338.99	17.61	-54.5	-56.3	14.5	0.00e+00	0	31	0	1154482176	75	4367
2026-01-03 08:24:19.02	338.62	17.18	-54.7	-56.6	14.4	0.00e+00	0	31	0	1162870784	75	4507
2026-01-03 08:24:23.05	338.27	16.75	-54.9	-56.9	14.2	0.00e+00	0	30	0	1170210816	75	4682
2026-01-03 08:24:27.10	337.92	16.33	-55.1	-57.2	14.2	0.00e+00	0	31	0	1177550848	75	4841
2026-01-03 08:24:31.13	337.58	15.91	-55.0	-57.0	14.2	0.00e+00	0	31	0	1184890880	75	4756
2026-01-03 08:24:35.17	337.26	15.50	-54.6	-56.5	14.5	0.00e+00	0	30	0	1193279488	75	4450
2026-01-03 08:24:39.21	336.94	15.10	-54.7	-56.5	14.4	0.00e+00	0	31	0	1200619520	75	4478
2026-01-03 08:24:43.25	336.63	14.70	-54.8	-56.7	14.3	0.00e+00	0	30	0	1207959552	75	4561
2026-01-03 08:24:47.28	336.33	14.31	-55.0	-57.0	14.2	0.00e+00	0	31	0	1215299584	75	4740
2026-01-03 08:24:51.31	336.04	13.92	-55.4	-57.6	13.9	0.00e+00	0	31	0	1222639616	76	4779
2026-01-03 08:24:55.35	335.76	13.54	-55.4	-57.6	13.9	0.00e+00	0	30	0	1231028224	76	4781
2026-01-03 08:24:59.38	335.48	13.16	-55.3	-57.4	14.0	0.00e+00	0	31	0	1238368256	76	4682
2026-01-03 08:25:03.41	335.21	12.79	-55.4	-57.5	14.0	0.00e+00	0	31	0	1245708288	76	4707
2026-01-03 08:25:07.46	334.95	12.42	-55.5	-57.8	13.9	0.00e+00	0	30	0	1253048320	76	4875
2026-01-03 08:25:11.49	334.70	12.06	-55.7	-58.0	13.7	0.00e+00	0	31	0	1261436928	76	5039
2026-01-03 08:25:15.52	334.45	11.70	-55.6	-57.9	13.8	0.00e+00	0	31	0	1268776960	77	4682
2026-01-03 08:25:19.56	334.21	11.35	-55.7	-57.9	13.8	0.00e+00	0	31	0	1276116992	77	4700
2026-01-03 08:25:23.60	333.97	11.00	-55.4	-57.6	14.0	0.00e+00	0	31	0	1283457024	77	4500
2026-01-03 08:25:27.63	333.74	10.66	-55.0	-57.0	14.2	0.00e+00	0	31	0	1290797056	76	4471
2026-01-03 08:25:31.66	333.52	10.32	-55.1	-57.1	14.1	0.00e+00	0	31	0	1299185664	76	4544
2026-01-03 08:25:35.70	333.30	9.98	-55.3	-57.4	14.0	0.00e+00	0	31	0	1306525696	76	4692
2026-01-03 08:25:39.73	333.08	9.65	-55.5	-57.7	13.8	0.00e+00	0	31	0	1313865728	76	4854
2026-01-03 08:25:43.77	332.87	9.33	-55.7	-58.1	13.6	0.00e+00	0	31	0	1321205760	76	5075
2026-01-03 08:25:47.80	332.67	9.00	-56.0	-58.6	13.4	0.00e+00	0	31	0	1328545792	77	5064
2026-01-03 08:25:51.83	332.47	8.68	-56.1	-58.8	13.2	0.00e+00	0	31	0	1336934400	77	5179
2026-01-03 08:25:55.86	332.28	8.37	-56.3	-59.1	13.0	0.00e+00	0	30	0	1344274432	77	5352
2026-01-03 08:25:59.89	332.09	8.06	-56.2	-59.0	13.1	0.00e+00	0	31	0	1351614464	78	5002
2026-01-03 08:26:03.92	331.90	7.75	-56.3	-59.1	13.0	0.00e+00	0	31	0	1358954496	78	5090
2026-01-03 08:26:07.96	331.72	7.44	-56.1	-58.8	13.2	0.00e+00	0	31	0	1366294528	78	4902
2026-01-03 08:26:12.00	331.54	7.14	-56.1	-58.7	13.2	0.00e+00	0	31	0	1374683136	78	4837
2026-01-03 08:26:16.04	331.37	6.84	-56.0	-58.6	13.3	0.00e+00	0	31	0	1382023168	78	4790
2026-01-03 08:26:20.07	331.20	6.55	-56.0	-58.6	13.2	0.00e+00	0	31	0	1389363200	78	4810
2026-01-03 08:26:24.11	331.04	6.25	-56.0	-58.7	13.2	0.00e+00	0	30	0	1396703232	78	4822
2026-01-03 08:26:28.15	330.87	5.96	-56.0	-58.7	13.1	0.00e+00	0	31	0	1405091840	78	4854
2026-01-03 08:26:32.19	330.72	5.68	-56.0	-58.7	13.2	0.00e+00	0	31	0	1412431872	78	4823
2026-01-03 08:26:36.22	330.56	5.39	-56.1	-58.8	13.0	0.00e+00	0	31	0	1419771904	78	4912
2026-01-03 08:26:40.25	330.41	5.11	-56.1	-58.9	12.9	0.00e+00	0	31	0	1427111936	78	4977
2026-01-03 08:26:44.29	330.26	4.83	-60.9	-76.6	3.8	1.49e+00	0	31	104	1430257664	87	22769
2026-01-03 08:26:48.32	330.11	4.56	-61.5	-77.1	3.8	1.49e+00	0	31	104	1430257664	88	22664
2026-01-03 08:26:52.36	329.97	4.28	-61.8	-77.4	3.8	1.49e+00	0	31	104	1430257664	88	23435
2026-01-03 08:26:56.39	329.83	4.01	-61.9	-77.5	3.8	1.49e+00	0	31	104	1430257664	89	22415
2026-01-03 08:27:00.43	329.70	3.75	-62.0	-77.6	3.8	1.49e+00	0	31	104	1430257664	89	22730
2026-01-03 08:27:04.46	329.56	3.48	-61.9	-77.6	3.8	1.49e+00	0	31	104	1430257664	89	22613
2026-01-03 08:27:08.50	329.43	3.22	-61.9	-77.5	3.8	1.49e+00	0	31	104	1430257664	89	22469
2026-01-03 08:27:12.54	329.30	2.96	-61.9	-77.5	3.8	1.49e+00	0	31	104	1430257664	89	22337
2026-01-03 08:27:16.58	329.17	2.70	-61.8	-77.5	3.8	1.49e+00	0	31	104	1430257664	89	22263
2026-01-03 08:27:20.61	329.05	2.44	-61.8	-77.4	3.8	1.49e+00	0	31	104	1430257664	89	22225
2026-01-03 08:27:24.65	328.93	2.19	-61.8	-77.4	3.8	1.49e+00	0	31	104	1430257664	89	22202
2026-01-03 08:27:28.69	328.81	1.93	-61.8	-77.4	3.8	1.49e+00	0	31	104	1430257664	89	22127

#Closed at: 2026-01-03 08:27:29
#Recorded file [1430 MB]: D:/lorett/data/31004_260103_111329.dat