passes_logs/2026/01/03/R3.2S_Murmansk/R3.2S_Murmansk__20260103_141725_FENGYUN_3D_rec.log

#Pass ID: 20260103_141725_FENGYUN 3D
#Satellite: FENGYUN 3D
#Configuration: FENGYUN 3D
#almurnet v.1.7.20251203
#Start time: 2026-01-03 14:17:26

#Version: 2.2.20231116
#Station: R3.2S_Murmansk
#Location: 33.079688 lon 68.888172 lat
#TLE: 1 43010U 17072A   26002.95198047  .00000207  00000+0  11963-3 0  9999
#TLE: 2 43010  98.9912 334.5826 0001910 130.7105 229.4237 14.19692231421540

#Time	Az	El	Level	Level2	SNR	BER	BlckErr	Temp	State	Recorded	gain1	gain2
2026-01-03 14:17:26.28	221.93	2.05	-59.1	-72.3	3.8	8.45e-01	0	28	0	0	84	16392
2026-01-03 14:17:29.30	222.18	2.21	-58.9	-72.0	3.8	8.45e-01	0	28	104	0	83	16779
2026-01-03 14:17:32.32	222.43	2.37	-59.0	-72.0	3.8	8.46e-01	0	28	104	0	83	16804
2026-01-03 14:17:35.33	222.68	2.53	-59.0	-72.0	3.8	8.44e-01	0	28	104	0	83	16774
2026-01-03 14:17:38.36	222.93	2.68	-59.0	-71.9	3.8	8.45e-01	0	28	104	0	83	16677
2026-01-03 14:17:41.39	223.19	2.84	-59.0	-72.1	3.8	8.45e-01	0	28	104	0	83	16970
2026-01-03 14:17:44.42	223.45	3.00	-59.0	-72.0	3.8	8.46e-01	0	28	104	0	83	16790
2026-01-03 14:17:47.45	223.71	3.16	-59.0	-71.9	3.8	8.45e-01	0	28	104	0	83	16581
2026-01-03 14:17:50.47	223.97	3.33	-59.0	-72.1	3.8	8.45e-01	0	29	104	0	83	16906
2026-01-03 14:17:53.50	224.24	3.49	-59.0	-72.1	3.8	8.47e-01	0	29	104	0	83	16896
2026-01-03 14:17:56.53	224.51	3.65	-58.9	-71.6	3.8	8.44e-01	0	29	104	0	83	16062
2026-01-03 14:17:59.56	224.78	3.81	-58.9	-71.5	3.8	8.46e-01	0	29	104	0	83	15909
2026-01-03 14:18:02.57	225.06	3.97	-58.9	-71.5	3.8	8.46e-01	0	29	104	0	83	15844
2026-01-03 14:18:05.60	225.34	4.14	-58.9	-71.1	3.8	8.46e-01	0	29	104	0	83	15140
2026-01-03 14:18:08.62	225.62	4.30	-58.9	-72.0	3.8	8.44e-01	0	29	104	0	83	16765
2026-01-03 14:18:11.65	225.90	4.46	-58.6	-68.4	4.3	8.39e-01	0	29	0	0	83	11053
2026-01-03 14:18:14.68	226.19	4.63	-58.2	-65.8	5.3	7.19e-01	0	29	0	0	83	8228
2026-01-03 14:18:17.71	226.48	4.79	-57.0	-61.8	8.3	5.69e-02	0	29	0	11534336	80	6164
2026-01-03 14:18:20.73	226.78	4.96	-53.9	-56.2	12.5	4.50e-06	0	29	0	28311552	74	4568
2026-01-03 14:18:23.76	227.07	5.12	-56.2	-59.8	10.1	2.72e-04	0	29	0	45088768	77	5827
2026-01-03 14:18:26.79	227.37	5.29	-50.6	-52.0	14.5	1.05e-03	0	29	0	60817408	67	4227
2026-01-03 14:18:29.81	227.68	5.46	-50.4	-51.8	14.5	0.00e+00	0	29	0	77594624	67	4140
2026-01-03 14:18:32.83	227.98	5.62	-50.5	-51.9	14.5	0.00e+00	0	29	0	94371840	67	4189
2026-01-03 14:18:35.86	228.30	5.79	-50.3	-51.7	14.6	0.00e+00	0	29	0	111149056	67	4080
2026-01-03 14:18:38.88	228.61	5.96	-50.1	-51.5	14.6	0.00e+00	0	29	0	128974848	66	4241
2026-01-03 14:18:41.91	228.93	6.13	-50.2	-51.6	14.6	0.00e+00	0	29	0	145752064	66	4259
2026-01-03 14:18:44.94	229.25	6.29	-50.1	-51.6	14.6	0.00e+00	0	29	0	162529280	66	4246
2026-01-03 14:18:47.96	229.57	6.46	-50.2	-51.6	14.6	0.00e+00	0	29	0	179306496	66	4244
2026-01-03 14:18:50.99	229.90	6.63	-50.3	-51.7	14.6	0.00e+00	0	29	0	197132288	66	4301
2026-01-03 14:18:54.02	230.23	6.80	-50.1	-51.5	14.7	0.00e+00	0	29	0	213909504	66	4222
2026-01-03 14:18:57.05	230.57	6.97	-49.9	-51.2	14.8	0.00e+00	0	29	0	230686720	66	4097
2026-01-03 14:19:00.08	230.91	7.14	-49.7	-51.0	14.8	0.00e+00	0	29	0	247463936	65	4227
2026-01-03 14:19:03.11	231.25	7.31	-49.7	-51.0	14.8	0.00e+00	0	29	0	264241152	65	4224
2026-01-03 14:19:06.13	231.60	7.48	-49.5	-50.9	14.9	0.00e+00	0	29	0	282066944	65	4152
2026-01-03 14:19:09.16	231.95	7.65	-49.4	-50.7	14.9	0.00e+00	0	29	0	298844160	65	4097
2026-01-03 14:19:12.19	232.30	7.82	-49.5	-50.8	14.9	0.00e+00	0	30	0	315621376	65	4139
2026-01-03 14:19:15.22	232.66	8.00	-49.5	-50.9	14.9	0.00e+00	0	29	0	332398592	65	4151
2026-01-03 14:19:18.24	233.03	8.17	-49.4	-50.7	15.0	0.00e+00	0	29	0	350224384	65	4071
2026-01-03 14:19:21.26	233.39	8.34	-49.2	-50.4	15.1	0.00e+00	0	30	0	367001600	65	3951
2026-01-03 14:19:24.28	233.76	8.51	-49.0	-50.2	15.0	0.00e+00	0	30	0	383778816	64	4096
2026-01-03 14:19:27.30	234.14	8.68	-48.9	-50.1	15.1	0.00e+00	0	30	0	400556032	64	4050
2026-01-03 14:19:30.32	234.52	8.85	-49.1	-50.4	15.0	0.00e+00	0	30	0	417333248	64	4159
2026-01-03 14:19:33.35	234.90	9.03	-49.3	-50.6	14.9	0.00e+00	0	29	0	435159040	64	4254
2026-01-03 14:19:36.38	235.29	9.20	-49.2	-50.5	15.0	0.00e+00	0	30	0	451936256	64	4224
2026-01-03 14:19:39.41	235.68	9.37	-49.2	-50.4	15.0	0.00e+00	0	29	0	468713472	64	4193
2026-01-03 14:19:42.43	236.08	9.54	-49.2	-50.5	15.0	0.00e+00	0	30	0	486539264	64	4194
2026-01-03 14:19:45.46	236.48	9.72	-49.0	-50.3	15.1	0.00e+00	0	29	0	503316480	64	4111
2026-01-03 14:19:48.47	236.89	9.89	-49.0	-50.2	15.1	0.00e+00	0	30	0	520093696	64	4096
2026-01-03 14:19:51.50	237.30	10.06	-48.9	-50.1	15.1	0.00e+00	0	30	0	536870912	64	4040
2026-01-03 14:19:54.52	237.71	10.23	-48.8	-50.0	15.2	0.00e+00	0	30	0	553648128	64	3986
2026-01-03 14:19:57.54	238.13	10.40	-48.7	-49.9	15.1	0.00e+00	0	30	0	571473920	63	4170
2026-01-03 14:20:00.57	238.56	10.57	-48.6	-49.8	15.2	0.00e+00	0	29	0	588251136	63	4106
2026-01-03 14:20:03.60	238.99	10.75	-48.3	-49.5	15.3	0.00e+00	0	30	0	605028352	63	3966
2026-01-03 14:20:06.62	239.42	10.92	-48.3	-49.5	15.3	0.00e+00	0	29	0	621805568	63	3964
2026-01-03 14:20:09.65	239.86	11.09	-48.5	-49.7	15.2	0.00e+00	0	29	0	638582784	63	4082
2026-01-03 14:20:12.67	240.31	11.26	-48.6	-49.8	15.2	0.00e+00	0	30	0	656408576	63	4111
2026-01-03 14:20:15.70	240.76	11.43	-48.5	-49.7	15.2	0.00e+00	0	30	0	673185792	63	4053
2026-01-03 14:20:18.73	241.21	11.60	-48.5	-49.7	15.2	0.00e+00	0	30	0	689963008	63	4082
2026-01-03 14:20:21.75	241.67	11.77	-48.7	-49.9	15.1	0.00e+00	0	30	0	706740224	63	4183
2026-01-03 14:20:24.77	242.14	11.94	-48.6	-49.8	15.2	0.00e+00	0	29	0	723517440	63	4135
2026-01-03 14:20:27.80	242.61	12.11	-48.7	-49.9	15.1	0.00e+00	0	30	0	741343232	63	4180
2026-01-03 14:20:30.83	243.08	12.28	-48.6	-49.9	15.2	0.00e+00	0	30	0	758120448	63	4150
2026-01-03 14:20:33.85	243.56	12.44	-48.4	-49.6	15.3	0.00e+00	0	30	0	774897664	63	4020
2026-01-03 14:20:36.88	244.05	12.61	-48.3	-49.5	15.3	0.00e+00	0	29	0	792723456	63	3979
2026-01-03 14:20:39.90	244.54	12.78	-48.2	-49.3	15.3	0.00e+00	0	30	0	809500672	62	4139
2026-01-03 14:20:42.92	245.04	12.94	-48.1	-49.3	15.3	0.00e+00	0	30	0	826277888	62	4109
2026-01-03 14:20:45.95	245.54	13.10	-48.1	-49.2	15.3	0.00e+00	0	29	0	843055104	62	4085
2026-01-03 14:20:48.97	246.05	13.27	-48.1	-49.3	15.3	0.00e+00	0	30	0	859832320	62	4111
2026-01-03 14:20:51.99	246.56	13.43	-47.9	-49.1	15.4	0.00e+00	0	30	0	877658112	62	4023
2026-01-03 14:20:55.02	247.08	13.59	-47.8	-49.0	15.4	0.00e+00	0	30	0	894435328	62	3974
2026-01-03 14:20:58.03	247.60	13.75	-47.9	-49.0	15.4	0.00e+00	0	30	0	911212544	62	3994
2026-01-03 14:21:01.06	248.13	13.91	-47.8	-49.0	15.4	0.00e+00	0	30	0	927989760	62	3966
2026-01-03 14:21:04.08	248.66	14.07	-47.8	-48.9	15.4	0.00e+00	0	30	0	945815552	62	3927
2026-01-03 14:21:07.10	249.20	14.22	-47.7	-48.8	15.5	0.00e+00	0	30	0	962592768	62	3891
2026-01-03 14:21:10.12	249.75	14.38	-47.7	-48.8	15.5	0.00e+00	0	30	0	979369984	62	3913
2026-01-03 14:21:13.15	250.30	14.53	-47.7	-48.8	15.5	0.00e+00	0	30	0	996147200	62	3896
2026-01-03 14:21:16.18	250.86	14.69	-47.6	-48.7	15.4	0.00e+00	0	30	0	1012924416	61	4098
2026-01-03 14:21:19.20	251.42	14.84	-47.6	-48.7	15.4	0.00e+00	0	30	0	1030750208	61	4095
2026-01-03 14:21:22.22	251.98	14.99	-47.7	-48.9	15.3	0.00e+00	0	30	0	1047527424	61	4159
2026-01-03 14:21:25.24	252.56	15.13	-47.7	-48.9	15.3	0.00e+00	0	30	0	1064304640	61	4156
2026-01-03 14:21:28.27	253.14	15.28	-47.7	-48.8	15.4	0.00e+00	0	30	0	1081081856	61	4140
2026-01-03 14:21:31.29	253.72	15.42	-47.5	-48.6	15.4	0.00e+00	0	30	0	1097859072	61	4044
2026-01-03 14:21:34.31	254.31	15.56	-47.4	-48.5	15.5	0.00e+00	0	30	0	1115684864	61	3963
2026-01-03 14:21:37.33	254.90	15.70	-47.6	-48.7	15.4	0.00e+00	0	30	0	1132462080	61	4091
2026-01-03 14:21:40.35	255.50	15.84	-47.5	-48.6	15.5	0.00e+00	0	30	0	1149239296	61	4034
2026-01-03 14:21:43.38	256.11	15.97	-47.5	-48.6	15.5	0.00e+00	0	30	0	1166016512	61	4006
2026-01-03 14:21:46.41	256.72	16.11	-47.5	-48.6	15.5	0.00e+00	0	30	0	1182793728	61	4024
2026-01-03 14:21:49.42	257.33	16.24	-47.5	-48.6	15.4	0.00e+00	0	30	0	1200619520	61	4035
2026-01-03 14:21:52.45	257.96	16.37	-47.5	-48.7	15.4	0.00e+00	0	30	0	1217396736	61	4054
2026-01-03 14:21:55.47	258.58	16.49	-47.4	-48.5	15.5	0.00e+00	0	30	0	1234173952	61	3986
2026-01-03 14:21:58.49	259.21	16.61	-47.2	-48.3	15.6	0.00e+00	0	30	0	1250951168	61	3898
2026-01-03 14:22:01.52	259.85	16.73	-47.4	-48.5	15.5	0.00e+00	0	30	0	1268776960	61	4004
2026-01-03 14:22:04.54	260.49	16.85	-47.4	-48.5	15.5	0.00e+00	0	30	0	1285554176	61	4002
2026-01-03 14:22:07.57	261.14	16.97	-47.4	-48.5	15.5	0.00e+00	0	30	0	1302331392	61	3968
2026-01-03 14:22:10.59	261.79	17.08	-47.3	-48.5	15.5	0.00e+00	0	30	0	1319108608	61	3963
2026-01-03 14:22:13.62	262.44	17.19	-47.3	-48.4	15.5	0.00e+00	0	30	0	1335885824	61	3952
2026-01-03 14:22:16.64	263.10	17.29	-47.1	-48.2	15.5	0.00e+00	0	30	0	1353711616	60	4063
2026-01-03 14:22:19.67	263.77	17.39	-47.1	-48.2	15.5	0.00e+00	0	30	0	1370488832	60	4057
2026-01-03 14:22:22.69	264.44	17.49	-47.0	-48.1	15.5	0.00e+00	0	30	0	1387266048	60	4034
2026-01-03 14:22:25.72	265.11	17.59	-47.0	-48.1	15.5	0.00e+00	0	30	0	1404043264	60	4025
2026-01-03 14:22:28.74	265.79	17.68	-47.1	-48.3	15.5	0.00e+00	0	30	0	1421869056	60	4099
2026-01-03 14:22:31.76	266.47	17.77	-47.2	-48.3	15.5	0.00e+00	0	30	0	1438646272	60	4109
2026-01-03 14:22:34.79	267.15	17.85	-47.1	-48.2	15.5	0.00e+00	0	30	0	1455423488	60	4053
2026-01-03 14:22:37.81	267.84	17.94	-47.0	-48.1	15.5	0.00e+00	0	30	0	1472200704	60	4011
2026-01-03 14:22:40.83	268.53	18.01	-47.1	-48.2	15.5	0.00e+00	0	30	0	1490026496	60	4063
2026-01-03 14:22:43.86	269.23	18.09	-47.1	-48.2	15.5	0.00e+00	0	30	0	1506803712	60	4092
2026-01-03 14:22:46.87	269.92	18.16	-47.1	-48.2	15.5	0.00e+00	0	30	0	1523580928	60	4063
2026-01-03 14:22:49.90	270.62	18.22	-47.1	-48.2	15.5	0.00e+00	0	30	0	1540358144	60	4065
2026-01-03 14:22:52.92	271.33	18.28	-47.2	-48.3	15.5	0.00e+00	0	30	0	1557135360	60	4115
2026-01-03 14:22:55.95	272.03	18.34	-47.1	-48.1	15.5	0.00e+00	0	30	0	1574961152	60	4045
2026-01-03 14:22:58.98	272.74	18.40	-47.0	-48.1	15.5	0.00e+00	0	30	0	1591738368	60	4037
2026-01-03 14:23:02.00	273.45	18.45	-47.0	-48.1	15.5	0.00e+00	0	30	0	1608515584	60	4033
2026-01-03 14:23:05.03	274.17	18.49	-46.9	-48.0	15.6	0.00e+00	0	30	0	1625292800	60	3982
2026-01-03 14:23:08.05	274.88	18.53	-47.1	-48.2	15.5	0.00e+00	0	30	0	1643118592	60	4057
2026-01-03 14:23:11.07	275.60	18.57	-47.0	-48.1	15.5	0.00e+00	0	30	0	1659895808	60	4018
2026-01-03 14:23:14.09	276.32	18.60	-47.1	-48.2	15.5	0.00e+00	0	30	0	1676673024	60	4081
2026-01-03 14:23:17.11	277.04	18.63	-46.9	-47.9	15.6	0.00e+00	0	30	0	1693450240	60	3950
2026-01-03 14:23:20.14	277.76	18.65	-47.0	-48.1	15.6	0.00e+00	0	30	0	1710227456	60	4006
2026-01-03 14:23:23.16	278.48	18.67	-47.0	-48.1	15.5	0.00e+00	0	30	0	1728053248	60	4028
2026-01-03 14:23:26.19	279.21	18.69	-47.1	-48.1	15.5	0.00e+00	0	30	0	1744830464	60	4037
2026-01-03 14:23:29.22	279.93	18.70	-47.0	-48.0	15.5	0.00e+00	0	30	0	1761607680	60	4004
2026-01-03 14:23:32.24	280.65	18.70	-47.1	-48.1	15.5	0.00e+00	0	30	0	1778384896	60	4050
2026-01-03 14:23:35.27	281.38	18.71	-47.1	-48.1	15.5	0.00e+00	0	30	0	1795162112	60	4049
2026-01-03 14:23:38.29	282.10	18.70	-47.1	-48.2	15.5	0.00e+00	0	30	0	1812987904	60	4079
2026-01-03 14:23:41.32	282.83	18.70	-47.1	-48.2	15.5	0.00e+00	0	30	0	1829765120	60	4092
2026-01-03 14:23:44.34	283.55	18.69	-47.3	-48.4	15.4	0.00e+00	0	30	0	1846542336	60	4183
2026-01-03 14:23:47.37	284.28	18.67	-47.3	-48.4	15.4	0.00e+00	0	30	0	1863319552	60	4175
2026-01-03 14:23:50.40	285.00	18.65	-47.2	-48.3	15.5	0.00e+00	0	30	0	1881145344	60	4110
2026-01-03 14:23:53.42	285.72	18.62	-47.3	-48.4	15.4	0.00e+00	0	30	0	1897922560	60	4177
2026-01-03 14:23:56.44	286.44	18.59	-47.4	-48.5	15.4	0.00e+00	0	30	0	1914699776	60	4201
2026-01-03 14:23:59.45	287.15	18.56	-47.1	-48.1	15.5	0.00e+00	0	30	0	1931476992	60	4045
2026-01-03 14:24:02.47	287.87	18.52	-47.1	-48.2	15.5	0.00e+00	0	30	0	1948254208	60	4090
2026-01-03 14:24:05.50	288.58	18.48	-47.1	-48.2	15.5	0.00e+00	0	30	0	1966080000	60	4070
2026-01-03 14:24:08.52	289.29	18.44	-47.3	-48.4	15.4	0.00e+00	0	30	0	1982857216	60	4189
2026-01-03 14:24:11.55	290.01	18.38	-47.5	-48.6	15.4	0.00e+00	0	30	0	1999634432	60	4261
2026-01-03 14:24:14.58	290.71	18.33	-47.5	-48.6	15.4	0.00e+00	0	30	0	2017460224	60	4279
2026-01-03 14:24:17.60	291.42	18.27	-47.7	-48.8	15.3	0.00e+00	0	30	0	2034237440	60	4361
2026-01-03 14:24:20.63	292.12	18.21	-47.9	-49.1	15.4	0.00e+00	0	30	0	2051014656	61	4245
2026-01-03 14:24:23.66	292.82	18.14	-47.9	-49.1	15.3	0.00e+00	0	30	0	2067791872	61	4257
2026-01-03 14:24:26.67	293.52	18.07	-47.7	-48.8	15.4	0.00e+00	0	30	0	2084569088	61	4124
2026-01-03 14:24:29.69	294.21	18.00	-47.6	-48.7	15.5	0.00e+00	0	30	0	2102394880	61	4071
2026-01-03 14:24:32.72	294.90	17.92	-47.5	-48.6	15.5	0.00e+00	0	30	0	2119172096	61	4048
2026-01-03 14:24:35.75	295.59	17.84	-47.6	-48.7	15.5	0.00e+00	0	30	0	2135949312	61	4086
2026-01-03 14:24:38.78	296.27	17.75	-47.7	-48.8	15.4	0.00e+00	0	30	0	2152726528	61	4145
2026-01-03 14:24:41.81	296.95	17.66	-47.8	-48.9	15.4	0.00e+00	0	30	0	2169503744	61	4170
2026-01-03 14:24:44.83	297.62	17.57	-47.6	-48.7	15.5	0.00e+00	0	30	0	2187329536	61	4075
2026-01-03 14:24:47.86	298.30	17.47	-47.5	-48.6	15.5	0.00e+00	0	30	0	2204106752	61	4023
2026-01-03 14:24:50.89	298.96	17.38	-47.6	-48.7	15.4	0.00e+00	0	30	0	2220883968	61	4095
2026-01-03 14:24:53.91	299.62	17.27	-47.8	-48.9	15.4	0.00e+00	0	30	0	2237661184	61	4191
2026-01-03 14:24:56.93	300.28	17.17	-47.9	-49.0	15.4	0.00e+00	0	30	0	2255486976	61	4217
2026-01-03 14:24:59.95	300.93	17.06	-47.6	-48.7	15.4	0.00e+00	0	30	0	2272264192	61	4085
2026-01-03 14:25:02.97	301.58	16.95	-47.7	-48.8	15.4	0.00e+00	0	30	0	2289041408	61	4133
2026-01-03 14:25:05.99	302.22	16.83	-47.9	-49.0	15.4	0.00e+00	0	30	0	2305818624	61	4208
2026-01-03 14:25:09.01	302.86	16.72	-47.9	-49.0	15.3	0.00e+00	0	30	0	2322595840	61	4219
2026-01-03 14:25:12.03	303.49	16.60	-47.9	-49.1	15.3	0.00e+00	0	30	0	2340421632	61	4254
2026-01-03 14:25:15.05	304.12	16.47	-48.1	-49.2	15.3	0.00e+00	0	30	0	2357198848	61	4336
2026-01-03 14:25:18.08	304.74	16.35	-48.0	-49.1	15.3	0.00e+00	0	30	0	2373976064	61	4285
2026-01-03 14:25:21.10	305.36	16.22	-48.0	-49.1	15.3	0.00e+00	0	30	0	2390753280	61	4281
2026-01-03 14:25:24.13	305.98	16.09	-48.0	-49.2	15.3	0.00e+00	0	30	0	2408579072	61	4324
2026-01-03 14:25:27.15	306.58	15.96	-48.1	-49.2	15.3	0.00e+00	0	30	0	2425356288	61	4320
2026-01-03 14:25:30.18	307.19	15.82	-47.9	-49.0	15.3	0.00e+00	0	30	0	2442133504	61	4230
2026-01-03 14:25:33.21	307.79	15.68	-47.9	-49.0	15.3	0.00e+00	0	30	0	2458910720	61	4241
2026-01-03 14:25:36.23	308.38	15.54	-47.9	-49.1	15.3	0.00e+00	0	30	0	2476736512	61	4262
2026-01-03 14:25:39.25	308.96	15.40	-48.0	-49.1	15.3	0.00e+00	0	30	0	2493513728	61	4279
2026-01-03 14:25:42.28	309.55	15.26	-48.0	-49.2	15.3	0.00e+00	0	30	0	2510290944	61	4303
2026-01-03 14:25:45.31	310.12	15.11	-48.0	-49.2	15.3	0.00e+00	0	30	0	2527068160	61	4313
2026-01-03 14:25:48.34	310.69	14.97	-48.1	-49.3	15.3	0.00e+00	0	30	0	2543845376	61	4350
2026-01-03 14:25:51.36	311.26	14.82	-48.2	-49.4	15.2	0.00e+00	0	30	0	2561671168	61	4398
2026-01-03 14:25:54.38	311.82	14.67	-48.4	-49.6	15.2	0.00e+00	0	30	0	2578448384	61	4501
2026-01-03 14:25:57.40	312.37	14.52	-48.3	-49.5	15.2	0.00e+00	0	30	0	2595225600	61	4466
2026-01-03 14:26:00.42	312.92	14.36	-48.3	-49.4	15.2	0.00e+00	0	30	0	2612002816	61	4439
2026-01-03 14:26:03.45	313.46	14.21	-48.2	-49.4	15.2	0.00e+00	0	30	0	2628780032	61	4411
2026-01-03 14:26:06.47	314.00	14.05	-48.3	-49.5	15.2	0.00e+00	0	30	0	2646605824	61	4462
2026-01-03 14:26:09.49	314.53	13.90	-48.5	-49.7	15.2	0.00e+00	0	30	0	2663383040	62	4294
2026-01-03 14:26:12.52	315.06	13.74	-48.6	-49.8	15.2	0.00e+00	0	30	0	2680160256	62	4355
2026-01-03 14:26:15.55	315.58	13.58	-48.6	-49.8	15.2	0.00e+00	0	30	0	2696937472	62	4360
2026-01-03 14:26:18.57	316.09	13.42	-48.6	-49.8	15.1	0.00e+00	0	30	0	2713714688	62	4357
2026-01-03 14:26:21.60	316.60	13.26	-48.6	-49.8	15.1	0.00e+00	0	30	0	2731540480	62	4374
2026-01-03 14:26:24.62	317.11	13.09	-48.8	-50.0	15.1	0.00e+00	0	30	0	2748317696	62	4461
2026-01-03 14:26:27.64	317.61	12.93	-48.6	-49.8	15.2	0.00e+00	0	30	0	2765094912	62	4354
2026-01-03 14:26:30.66	318.10	12.77	-48.4	-49.6	15.2	0.00e+00	0	30	0	2781872128	62	4273
2026-01-03 14:26:33.68	318.59	12.60	-48.6	-49.8	15.1	0.00e+00	0	30	0	2799697920	62	4379
2026-01-03 14:26:36.70	319.07	12.44	-48.6	-49.8	15.1	0.00e+00	0	30	0	2816475136	62	4368
2026-01-03 14:26:39.72	319.55	12.27	-48.6	-49.9	15.1	0.00e+00	0	30	0	2833252352	62	4396
2026-01-03 14:26:42.75	320.02	12.10	-48.6	-49.8	15.1	0.00e+00	0	30	0	2850029568	62	4346
2026-01-03 14:26:45.78	320.49	11.94	-48.5	-49.7	15.1	0.00e+00	0	30	0	2867855360	62	4332
2026-01-03 14:26:48.80	320.95	11.77	-48.7	-49.9	15.1	0.00e+00	0	30	0	2884632576	62	4402
2026-01-03 14:26:51.83	321.41	11.60	-49.0	-50.2	15.1	0.00e+00	0	30	0	2901409792	63	4317
2026-01-03 14:26:54.86	321.86	11.43	-49.0	-50.3	15.0	0.00e+00	0	30	0	2918187008	63	4365
2026-01-03 14:26:57.88	322.31	11.26	-49.0	-50.3	15.0	0.00e+00	0	30	0	2934964224	63	4342
2026-01-03 14:27:00.91	322.75	11.09	-49.0	-50.3	15.0	0.00e+00	0	30	0	2952790016	63	4348
2026-01-03 14:27:03.93	323.19	10.92	-49.1	-50.3	15.0	0.00e+00	0	30	0	2969567232	63	4370
2026-01-03 14:27:06.96	323.63	10.75	-49.2	-50.4	15.0	0.00e+00	0	30	0	2986344448	63	4439
2026-01-03 14:27:09.98	324.05	10.58	-49.1	-50.4	15.0	0.00e+00	0	30	0	3003121664	63	4399
2026-01-03 14:27:13.01	324.48	10.41	-49.1	-50.4	15.0	0.00e+00	0	30	0	3019898880	63	4401
2026-01-03 14:27:16.03	324.89	10.24	-49.1	-50.4	15.0	0.00e+00	0	30	0	3037724672	63	4395
2026-01-03 14:27:19.06	325.31	10.07	-48.9	-50.2	15.0	0.00e+00	0	30	0	3054501888	63	4307
2026-01-03 14:27:22.09	325.72	9.90	-48.9	-50.2	15.0	0.00e+00	0	30	0	3071279104	63	4311
2026-01-03 14:27:25.12	326.12	9.73	-49.1	-50.4	14.9	0.00e+00	0	30	0	3088056320	63	4409
2026-01-03 14:27:28.14	326.52	9.56	-49.3	-50.6	14.9	0.00e+00	0	30	0	3105882112	63	4498
2026-01-03 14:27:31.15	326.92	9.39	-49.3	-50.6	14.9	0.00e+00	0	30	0	3122659328	63	4534
2026-01-03 14:27:34.18	327.31	9.21	-49.5	-50.9	14.8	0.00e+00	0	30	0	3139436544	64	4401
2026-01-03 14:27:37.21	327.70	9.04	-49.7	-51.1	14.8	0.00e+00	0	30	0	3156213760	64	4505
2026-01-03 14:27:40.24	328.08	8.87	-49.7	-51.1	14.7	0.00e+00	0	30	0	3174039552	64	4505
2026-01-03 14:27:43.27	328.46	8.70	-49.8	-51.1	14.7	0.00e+00	0	30	0	3190816768	64	4527
2026-01-03 14:27:46.29	328.83	8.53	-49.7	-51.0	14.7	0.00e+00	0	30	0	3207593984	64	4491
2026-01-03 14:27:49.31	329.20	8.36	-49.6	-51.0	14.8	0.00e+00	0	30	0	3224371200	64	4450
2026-01-03 14:27:52.34	329.57	8.19	-49.8	-51.2	14.7	0.00e+00	0	30	0	3242196992	64	4564
2026-01-03 14:27:55.37	329.93	8.02	-49.9	-51.3	14.7	0.00e+00	0	30	0	3258974208	65	4368
2026-01-03 14:27:58.40	330.29	7.85	-49.9	-51.3	14.7	0.00e+00	0	30	0	3275751424	65	4376
2026-01-03 14:28:01.43	330.64	7.68	-50.0	-51.5	14.6	0.00e+00	0	30	0	3292528640	65	4443
2026-01-03 14:28:04.45	330.99	7.51	-50.2	-51.6	14.5	0.00e+00	0	30	0	3309305856	65	4536
2026-01-03 14:28:07.48	331.34	7.34	-50.0	-51.4	14.6	0.00e+00	0	30	0	3327131648	65	4436
2026-01-03 14:28:10.49	331.68	7.17	-49.9	-51.2	14.7	0.00e+00	0	30	0	3343908864	65	4339
2026-01-03 14:28:13.52	332.02	7.00	-50.0	-51.4	14.6	0.00e+00	0	30	0	3360686080	65	4406
2026-01-03 14:28:16.55	332.35	6.84	-50.0	-51.4	14.6	0.00e+00	0	30	0	3377463296	65	4410
2026-01-03 14:28:19.57	332.68	6.67	-50.1	-51.5	14.6	0.00e+00	0	30	0	3394240512	65	4468
2026-01-03 14:28:22.59	333.01	6.50	-50.3	-51.7	14.5	0.00e+00	0	30	0	3412066304	65	4573
2026-01-03 14:28:25.62	333.33	6.33	-50.5	-52.0	14.4	0.00e+00	0	30	0	3428843520	66	4442
2026-01-03 14:28:28.65	333.65	6.17	-50.5	-52.0	14.4	0.00e+00	0	30	0	3445620736	66	4446
2026-01-03 14:28:31.67	333.97	6.00	-50.3	-51.8	14.5	0.00e+00	0	30	0	3462397952	66	4363
2026-01-03 14:28:34.69	334.28	5.83	-50.3	-51.8	14.5	0.00e+00	0	30	0	3480223744	66	4354
2026-01-03 14:28:37.71	334.59	5.67	-50.5	-52.0	14.3	0.00e+00	0	30	0	3497000960	66	4445
2026-01-03 14:28:40.74	334.90	5.50	-50.5	-52.0	14.3	0.00e+00	0	30	0	3513778176	66	4466
2026-01-03 14:28:43.77	335.20	5.34	-50.6	-52.1	14.3	0.00e+00	0	30	0	3530555392	66	4525
2026-01-03 14:28:46.79	335.50	5.17	-50.8	-52.4	14.1	0.00e+00	0	30	0	3548381184	66	4672
2026-01-03 14:28:49.81	335.80	5.01	-57.4	-62.5	7.8	2.20e-06	0	30	0	3565158400	79	7116
2026-01-03 14:28:52.84	336.09	4.84	-60.5	-73.5	3.8	8.46e-01	0	30	104	3566206976	86	16874
2026-01-03 14:28:55.86	336.38	4.68	-60.9	-74.0	3.8	8.45e-01	0	30	104	3566206976	87	16828
2026-01-03 14:28:58.89	336.67	4.52	-61.2	-74.3	3.8	8.45e-01	0	30	104	3566206976	87	17343
2026-01-03 14:29:01.91	336.96	4.36	-61.3	-74.4	3.8	8.46e-01	0	30	104	3566206976	87	17532
2026-01-03 14:29:04.93	337.24	4.19	-61.3	-74.5	3.8	8.45e-01	0	30	104	3566206976	87	17693
2026-01-03 14:29:07.96	337.52	4.03	-61.4	-74.5	3.8	8.46e-01	0	30	104	3566206976	87	17861
2026-01-03 14:29:10.98	337.79	3.87	-61.4	-74.5	3.8	8.45e-01	0	30	104	3566206976	88	16846
2026-01-03 14:29:14.01	338.06	3.71	-61.2	-74.4	3.8	8.45e-01	0	30	104	3566206976	88	16642
2026-01-03 14:29:17.04	338.34	3.55	-61.3	-74.4	3.8	8.44e-01	0	30	104	3566206976	88	16554
2026-01-03 14:29:20.06	338.60	3.39	-61.3	-74.4	3.8	8.45e-01	0	30	104	3566206976	88	16532
2026-01-03 14:29:23.08	338.87	3.23	-61.2	-74.3	3.8	8.46e-01	0	30	104	3566206976	88	16485
2026-01-03 14:29:26.11	339.13	3.07	-61.2	-74.3	3.8	8.46e-01	0	30	104	3566206976	88	16410
2026-01-03 14:29:29.13	339.39	2.91	-61.2	-74.3	3.8	8.46e-01	0	30	104	3566206976	88	16359
2026-01-03 14:29:32.15	339.64	2.75	-61.2	-74.3	3.8	8.45e-01	0	30	104	3566206976	88	16384
2026-01-03 14:29:35.17	339.90	2.60	-61.2	-74.3	3.8	8.45e-01	0	30	104	3566206976	88	16341
2026-01-03 14:29:38.19	340.15	2.44	-61.2	-74.2	3.8	8.45e-01	0	30	104	3566206976	88	16261
2026-01-03 14:29:41.21	340.40	2.28	-61.1	-74.3	3.8	8.45e-01	0	30	104	3566206976	88	16343
2026-01-03 14:29:44.24	340.65	2.13	-61.1	-74.3	3.8	8.45e-01	0	30	104	3566206976	88	16329

#Closed at: 2026-01-03 14:29:46
#Recorded file [3566 MB]: D:/lorett/data/31004_260103_171726.dat