passes_logs/2026/01/03/R3.2S_Murmansk/R3.2S_Murmansk__20260103_051612_NOAA_20_JPSS-1_rec.log

#Pass ID: 20260103_051612_NOAA 20 (JPSS-1)
#Satellite: NOAA 20 (JPSS-1)
#Configuration: NOAA 20
#almurnet v.1.7.20251203
#Start time: 2026-01-03 05:16:12

#Version: 2.2.20231116
#Station: R3.2S_Murmansk
#Location: 33.079688 lon 68.888172 lat
#TLE: 1 43013U 17073A   26002.78363558  .00000190  00000+0  11110-3 0  9990
#TLE: 2 43013  98.7623 303.8528 0001892  57.0664 303.0694 14.19532716421006

#Time	Az	El	Level	Level2	SNR	BER	BlckErr	Temp	State	Recorded	gain1	gain2
2026-01-03 05:16:12.57	63.78	2.01	-59.7	-75.3	3.8	1.49e+00	0	29	0	0	86	20579
2026-01-03 05:16:16.55	63.52	2.24	-59.7	-75.3	3.8	1.49e+00	0	29	104	0	84	23107
2026-01-03 05:16:20.54	63.26	2.47	-59.7	-75.3	3.8	1.49e+00	0	29	104	0	84	23085
2026-01-03 05:16:24.55	62.99	2.70	-59.7	-75.3	3.8	1.49e+00	0	29	104	0	84	23074
2026-01-03 05:16:28.55	62.72	2.93	-59.7	-75.3	3.8	1.49e+00	0	29	104	0	84	23046
2026-01-03 05:16:32.56	62.45	3.16	-59.7	-75.3	3.8	1.49e+00	0	29	104	0	84	23104
2026-01-03 05:16:36.56	62.17	3.39	-59.7	-75.3	3.8	1.49e+00	0	29	104	0	84	23114
2026-01-03 05:16:40.57	61.89	3.63	-59.8	-75.3	3.8	1.49e+00	0	29	104	0	84	23161
2026-01-03 05:16:44.57	61.60	3.86	-59.7	-75.2	3.8	1.49e+00	0	30	104	0	84	22850
2026-01-03 05:16:48.58	61.30	4.10	-59.8	-75.3	3.8	1.49e+00	0	30	104	0	84	23151
2026-01-03 05:16:52.56	61.00	4.34	-59.7	-74.0	3.8	1.49e+00	0	30	104	0	84	19872
2026-01-03 05:16:56.57	60.70	4.58	-59.5	-70.7	4.5	1.19e+00	1	30	0	1048576	84	13670
2026-01-03 05:17:00.56	60.39	4.82	-59.2	-67.7	6.2	2.85e-01	0	30	0	8388608	84	9691
2026-01-03 05:17:04.55	60.08	5.06	-58.4	-64.2	8.9	1.89e-01	0	30	0	15728640	83	6808
2026-01-03 05:17:08.55	59.76	5.31	-57.5	-61.5	11.3	6.42e-02	0	30	0	20971520	81	5616
2026-01-03 05:17:12.53	59.43	5.55	-56.8	-60.0	12.4	5.30e-06	0	30	0	29360128	80	5011
2026-01-03 05:17:16.52	59.10	5.80	-56.5	-59.4	12.8	7.00e-07	0	30	0	36700160	79	4963
2026-01-03 05:17:20.52	58.76	6.05	-56.4	-59.1	13.1	0.00e+00	0	30	0	44040192	79	4800
2026-01-03 05:17:24.53	58.42	6.30	-56.3	-59.0	13.2	0.00e+00	0	30	0	51380224	79	4715
2026-01-03 05:17:28.52	58.07	6.55	-56.5	-59.2	13.1	0.00e+00	0	30	0	58720256	79	4829
2026-01-03 05:17:32.52	57.72	6.80	-56.4	-59.1	13.1	0.00e+00	0	30	0	66060288	79	4812
2026-01-03 05:17:36.52	57.35	7.06	-56.4	-59.0	13.2	0.00e+00	0	30	0	74448896	79	4756
2026-01-03 05:17:40.52	56.98	7.31	-56.3	-58.9	13.3	0.00e+00	0	30	0	81788928	79	4700
2026-01-03 05:17:44.52	56.61	7.57	-56.4	-59.0	13.2	0.00e+00	0	30	0	89128960	79	4758
2026-01-03 05:17:48.51	56.23	7.83	-56.2	-58.7	13.4	0.00e+00	0	30	0	96468992	79	4567
2026-01-03 05:17:52.53	55.83	8.09	-56.2	-58.6	13.4	0.00e+00	0	30	0	103809024	78	4813
2026-01-03 05:17:56.53	55.44	8.35	-56.0	-58.3	13.7	0.00e+00	0	31	0	111149056	78	4616
2026-01-03 05:18:00.52	55.03	8.61	-56.0	-58.3	13.7	0.00e+00	0	30	0	118489088	78	4622
2026-01-03 05:18:04.51	54.62	8.87	-56.0	-58.4	13.7	0.00e+00	0	31	0	126877696	78	4656
2026-01-03 05:18:08.50	54.20	9.14	-56.0	-58.3	13.7	0.00e+00	0	31	0	134217728	78	4623
2026-01-03 05:18:12.50	53.78	9.41	-56.0	-58.3	13.7	0.00e+00	0	31	0	141557760	78	4624
2026-01-03 05:18:16.49	53.34	9.67	-56.2	-58.6	13.6	0.00e+00	0	30	0	148897792	78	4778
2026-01-03 05:18:20.50	52.89	9.94	-56.2	-58.6	13.6	0.00e+00	0	31	0	156237824	78	4768
2026-01-03 05:18:24.50	52.44	10.21	-56.2	-58.5	13.6	0.00e+00	0	31	0	163577856	78	4752
2026-01-03 05:18:28.50	51.98	10.48	-56.0	-58.2	13.8	0.00e+00	0	31	0	170917888	78	4590
2026-01-03 05:18:32.48	51.51	10.75	-55.9	-58.1	13.9	0.00e+00	0	30	0	179306496	78	4515
2026-01-03 05:18:36.48	51.03	11.03	-55.9	-58.0	14.0	0.00e+00	0	31	0	186646528	78	4486
2026-01-03 05:18:40.48	50.54	11.30	-55.7	-57.7	14.1	0.00e+00	0	31	0	193986560	78	4329
2026-01-03 05:18:44.48	50.05	11.58	-55.6	-57.5	14.2	0.00e+00	0	31	0	201326592	77	4489
2026-01-03 05:18:48.48	49.54	11.85	-55.6	-57.6	14.2	0.00e+00	0	30	0	208666624	77	4500
2026-01-03 05:18:52.49	49.02	12.13	-55.5	-57.5	14.2	0.00e+00	0	31	0	216006656	77	4461
2026-01-03 05:18:56.48	48.49	12.41	-55.5	-57.4	14.3	0.00e+00	0	31	0	223346688	77	4412
2026-01-03 05:19:00.48	47.95	12.69	-55.3	-57.2	14.4	0.00e+00	0	31	0	231735296	77	4297
2026-01-03 05:19:04.47	47.41	12.97	-55.1	-56.9	14.5	0.00e+00	0	31	0	239075328	76	4406
2026-01-03 05:19:08.46	46.85	13.25	-55.0	-56.7	14.6	0.00e+00	0	31	0	246415360	76	4326
2026-01-03 05:19:12.46	46.28	13.53	-55.0	-56.7	14.6	0.00e+00	0	31	0	253755392	76	4318
2026-01-03 05:19:16.45	45.70	13.81	-55.1	-56.8	14.5	0.00e+00	0	31	0	261095424	76	4387
2026-01-03 05:19:20.44	45.11	14.09	-55.2	-56.9	14.5	0.00e+00	0	31	0	268435456	76	4414
2026-01-03 05:19:24.43	44.50	14.37	-55.3	-57.1	14.4	0.00e+00	0	31	0	275775488	76	4520
2026-01-03 05:19:28.44	43.89	14.65	-55.4	-57.2	14.3	0.00e+00	0	31	0	284164096	76	4583
2026-01-03 05:19:32.45	43.26	14.93	-55.5	-57.4	14.3	0.00e+00	0	31	0	291504128	76	4653
2026-01-03 05:19:36.46	42.62	15.21	-55.7	-57.7	14.1	0.00e+00	0	31	0	298844160	76	4848
2026-01-03 05:19:40.46	41.96	15.49	-55.6	-57.5	14.2	0.00e+00	0	31	0	306184192	76	4759
2026-01-03 05:19:44.47	41.30	15.77	-55.5	-57.4	14.3	0.00e+00	0	31	0	313524224	76	4670
2026-01-03 05:19:48.46	40.62	16.05	-55.8	-57.8	14.1	0.00e+00	0	31	0	320864256	76	4898
2026-01-03 05:19:52.46	39.93	16.33	-55.7	-57.6	14.2	0.00e+00	0	31	0	329252864	76	4773
2026-01-03 05:19:56.46	39.23	16.60	-55.8	-57.7	14.1	0.00e+00	0	31	0	336592896	76	4843
2026-01-03 05:20:00.47	38.51	16.88	-55.7	-57.6	14.2	0.00e+00	0	31	0	343932928	76	4776
2026-01-03 05:20:04.47	37.78	17.15	-55.6	-57.5	14.3	0.00e+00	0	31	0	351272960	76	4725
2026-01-03 05:20:08.46	37.03	17.42	-55.4	-57.2	14.4	0.00e+00	0	31	0	358612992	76	4572
2026-01-03 05:20:12.45	36.28	17.69	-55.2	-56.8	14.6	0.00e+00	0	31	0	365953024	76	4387
2026-01-03 05:20:16.43	35.51	17.95	-54.8	-56.4	14.8	0.00e+00	0	31	0	373293056	76	4152
2026-01-03 05:20:20.42	34.73	18.22	-54.2	-55.6	15.1	0.00e+00	0	31	0	381681664	75	4033
2026-01-03 05:20:24.43	33.93	18.48	-53.9	-55.3	15.2	0.00e+00	0	31	0	389021696	74	4118
2026-01-03 05:20:28.44	33.11	18.74	-53.7	-55.0	15.3	0.00e+00	0	31	0	396361728	74	3990
2026-01-03 05:20:32.45	32.29	18.99	-53.7	-55.0	15.2	0.00e+00	0	31	0	403701760	73	4211
2026-01-03 05:20:36.45	31.45	19.24	-53.6	-54.8	15.3	0.00e+00	0	31	0	411041792	73	4137
2026-01-03 05:20:40.44	30.59	19.49	-53.5	-54.7	15.4	0.00e+00	0	31	0	418381824	73	4072
2026-01-03 05:20:44.44	29.72	19.73	-53.4	-54.6	15.4	0.00e+00	0	31	0	426770432	73	4049
2026-01-03 05:20:48.43	28.84	19.97	-53.4	-54.6	15.4	0.00e+00	0	31	0	434110464	73	4013
2026-01-03 05:20:52.43	27.95	20.20	-53.4	-54.6	15.4	0.00e+00	0	31	0	441450496	73	4028
2026-01-03 05:20:56.43	27.04	20.43	-53.6	-54.9	15.3	0.00e+00	0	31	0	448790528	73	4149
2026-01-03 05:21:00.42	26.12	20.65	-53.6	-54.8	15.4	0.00e+00	0	31	0	456130560	73	4120
2026-01-03 05:21:04.42	25.18	20.87	-53.5	-54.7	15.4	0.00e+00	0	31	0	463470592	73	4084
2026-01-03 05:21:08.41	24.23	21.07	-53.2	-54.3	15.5	0.00e+00	0	31	0	470810624	72	4144
2026-01-03 05:21:12.42	23.27	21.28	-52.8	-53.9	15.6	0.00e+00	0	31	0	479199232	72	3924
2026-01-03 05:21:16.41	22.30	21.47	-52.9	-54.1	15.6	0.00e+00	0	31	0	486539264	72	4011
2026-01-03 05:21:20.40	21.31	21.66	-53.0	-54.1	15.5	0.00e+00	0	31	0	493879296	72	4028
2026-01-03 05:21:24.40	20.31	21.84	-52.7	-53.8	15.6	0.00e+00	0	31	0	501219328	72	3898
2026-01-03 05:21:28.40	19.30	22.01	-52.9	-54.0	15.6	0.00e+00	0	31	0	508559360	72	3982
2026-01-03 05:21:32.41	18.28	22.17	-53.1	-54.3	15.5	0.00e+00	0	31	0	515899392	72	4121
2026-01-03 05:21:36.41	17.25	22.33	-53.3	-54.5	15.4	0.00e+00	0	31	0	524288000	72	4230
2026-01-03 05:21:40.41	16.21	22.47	-53.3	-54.4	15.4	0.00e+00	0	31	0	531628032	72	4186
2026-01-03 05:21:44.41	15.15	22.60	-53.8	-55.0	15.2	0.00e+00	0	31	0	538968064	72	4484
2026-01-03 05:21:48.40	14.10	22.73	-54.2	-55.6	15.0	0.00e+00	0	31	0	546308096	73	4535
2026-01-03 05:21:52.41	13.02	22.85	-54.3	-55.7	15.0	0.00e+00	0	31	0	553648128	73	4568
2026-01-03 05:21:56.42	11.95	22.95	-54.2	-55.6	15.1	0.00e+00	0	31	0	560988160	74	4277
2026-01-03 05:22:00.40	10.87	23.04	-54.9	-56.5	14.8	0.00e+00	0	31	0	568328192	75	4485
2026-01-03 05:22:04.40	9.78	23.13	-55.0	-56.6	14.7	0.00e+00	0	31	0	575668224	75	4528
2026-01-03 05:22:08.38	8.69	23.20	-55.2	-56.8	14.7	0.00e+00	0	31	0	584056832	75	4641
2026-01-03 05:22:12.37	7.59	23.26	-54.7	-56.2	14.9	0.00e+00	0	31	0	591396864	75	4319
2026-01-03 05:22:16.37	6.49	23.31	-54.7	-56.2	14.9	0.00e+00	0	31	0	598736896	75	4330
2026-01-03 05:22:20.36	5.38	23.35	-54.9	-56.4	14.9	0.00e+00	0	31	0	606076928	75	4408
2026-01-03 05:22:24.36	4.27	23.38	-54.9	-56.4	14.9	0.00e+00	0	31	0	613416960	75	4410
2026-01-03 05:22:28.36	3.16	23.39	-54.7	-56.1	15.0	0.00e+00	0	31	0	620756992	75	4284
2026-01-03 05:22:32.35	2.06	23.40	-54.5	-55.9	15.1	0.00e+00	0	31	0	628097024	75	4180
2026-01-03 05:22:36.35	0.94	23.39	-54.1	-55.4	15.2	0.00e+00	0	31	0	636485632	74	4179
2026-01-03 05:22:40.36	359.83	23.37	-53.9	-55.2	15.3	0.00e+00	0	31	0	643825664	74	4073
2026-01-03 05:22:44.36	358.72	23.34	-53.6	-54.8	15.4	0.00e+00	0	31	0	651165696	73	4140
2026-01-03 05:22:48.37	357.61	23.30	-53.6	-54.9	15.4	0.00e+00	0	31	0	658505728	73	4149
2026-01-03 05:22:52.38	356.51	23.24	-52.8	-53.9	15.7	0.00e+00	0	31	0	665845760	72	3917
2026-01-03 05:22:56.39	355.41	23.18	-52.9	-53.9	15.6	0.00e+00	0	31	0	673185792	72	3950
2026-01-03 05:23:00.38	354.32	23.10	-52.7	-53.8	15.6	0.00e+00	0	31	0	681574400	71	4106
2026-01-03 05:23:04.38	353.23	23.01	-52.5	-53.5	15.7	0.00e+00	0	31	0	688914432	71	3962
2026-01-03 05:23:08.38	352.15	22.92	-52.4	-53.4	15.7	0.00e+00	0	31	0	696254464	71	3956
2026-01-03 05:23:12.38	351.08	22.81	-52.8	-53.8	15.6	0.00e+00	0	31	0	703594496	71	4145
2026-01-03 05:23:16.36	350.02	22.69	-52.8	-53.9	15.6	0.00e+00	0	31	0	710934528	71	4154
2026-01-03 05:23:20.35	348.96	22.56	-53.1	-54.3	15.5	0.00e+00	0	31	0	718274560	71	4352
2026-01-03 05:23:24.35	347.91	22.42	-53.4	-54.6	15.4	0.00e+00	0	31	0	725614592	72	4259
2026-01-03 05:23:28.35	346.87	22.28	-53.7	-54.9	15.3	0.00e+00	0	31	0	734003200	72	4437
2026-01-03 05:23:32.35	345.85	22.12	-53.9	-55.2	15.2	0.00e+00	0	31	0	741343232	73	4301
2026-01-03 05:23:36.35	344.83	21.95	-54.3	-55.7	15.0	0.00e+00	0	31	0	748683264	73	4559
2026-01-03 05:23:40.36	343.82	21.78	-54.4	-55.7	15.0	0.00e+00	0	31	0	756023296	73	4597
2026-01-03 05:23:44.35	342.83	21.60	-54.3	-55.7	15.0	0.00e+00	0	31	0	763363328	73	4593
2026-01-03 05:23:48.37	341.84	21.41	-54.5	-55.9	15.0	0.00e+00	0	31	0	770703360	74	4435
2026-01-03 05:23:52.35	340.87	21.21	-54.6	-56.1	14.9	0.00e+00	0	31	0	779091968	74	4508
2026-01-03 05:23:56.35	339.92	21.01	-54.4	-55.8	15.0	0.00e+00	0	31	0	786432000	74	4351
2026-01-03 05:24:00.37	338.97	20.79	-54.9	-56.4	14.8	0.00e+00	0	31	0	793772032	74	4687
2026-01-03 05:24:04.37	338.04	20.58	-54.5	-55.9	15.1	0.00e+00	0	31	0	801112064	75	4185
2026-01-03 05:24:08.38	337.12	20.35	-54.4	-55.8	15.1	0.00e+00	0	31	0	808452096	75	4101
2026-01-03 05:24:12.37	336.21	20.12	-54.5	-56.0	15.0	0.00e+00	0	31	0	815792128	75	4200
2026-01-03 05:24:16.37	335.32	19.89	-54.3	-55.7	15.2	0.00e+00	0	31	0	824180736	75	4065
2026-01-03 05:24:20.37	334.44	19.65	-54.3	-55.7	15.1	0.00e+00	0	31	0	831520768	74	4328
2026-01-03 05:24:24.37	333.58	19.41	-54.2	-55.5	15.1	0.00e+00	0	31	0	838860800	74	4239
2026-01-03 05:24:28.39	332.73	19.16	-54.3	-55.7	15.1	0.00e+00	0	31	0	846200832	74	4306
2026-01-03 05:24:32.39	331.89	18.91	-54.3	-55.7	15.1	0.00e+00	0	31	0	853540864	74	4306
2026-01-03 05:24:36.40	331.07	18.65	-54.3	-55.6	15.1	0.00e+00	0	31	0	860880896	74	4287
2026-01-03 05:24:40.40	330.26	18.39	-54.4	-55.8	15.0	0.00e+00	0	31	0	868220928	74	4373
2026-01-03 05:24:44.40	329.47	18.13	-54.4	-55.8	15.0	0.00e+00	0	31	0	876609536	74	4387
2026-01-03 05:24:48.40	328.69	17.86	-54.5	-56.0	14.9	0.00e+00	0	31	0	883949568	74	4470
2026-01-03 05:24:52.41	327.92	17.60	-54.4	-55.9	15.0	0.00e+00	0	31	0	891289600	74	4395
2026-01-03 05:24:56.41	327.17	17.33	-54.5	-55.9	15.0	0.00e+00	0	31	0	898629632	74	4430
2026-01-03 05:25:00.39	326.43	17.06	-54.5	-55.9	15.0	0.00e+00	0	31	0	905969664	74	4434
2026-01-03 05:25:04.39	325.71	16.78	-54.2	-55.6	15.1	0.00e+00	0	31	0	913309696	74	4257
2026-01-03 05:25:08.38	325.00	16.51	-53.9	-55.2	15.2	0.00e+00	0	31	0	920649728	74	4086
2026-01-03 05:25:12.39	324.30	16.23	-53.8	-55.1	15.3	0.00e+00	0	31	0	929038336	74	4029
2026-01-03 05:25:16.39	323.61	15.95	-53.9	-55.3	15.3	0.00e+00	0	31	0	936378368	74	4109
2026-01-03 05:25:20.38	322.94	15.67	-53.8	-55.1	15.3	0.00e+00	0	31	0	943718400	74	4027
2026-01-03 05:25:24.38	322.28	15.40	-53.4	-54.6	15.5	0.00e+00	0	31	0	951058432	73	4030
2026-01-03 05:25:28.38	321.63	15.12	-53.4	-54.7	15.4	0.00e+00	0	31	0	958398464	73	4060
2026-01-03 05:25:32.37	321.00	14.84	-53.6	-54.9	15.3	0.00e+00	0	31	0	965738496	73	4154
2026-01-03 05:25:36.37	320.38	14.56	-53.5	-54.8	15.4	0.00e+00	0	31	0	974127104	73	4109
2026-01-03 05:25:40.37	319.77	14.27	-53.6	-54.8	15.3	0.00e+00	0	31	0	981467136	73	4142
2026-01-03 05:25:44.36	319.17	13.99	-53.6	-54.8	15.3	0.00e+00	0	31	0	988807168	73	4129
2026-01-03 05:25:48.37	318.58	13.71	-53.7	-55.0	15.2	0.00e+00	0	31	0	996147200	73	4237
2026-01-03 05:25:52.35	318.00	13.43	-54.0	-55.4	15.1	0.00e+00	0	31	0	1003487232	73	4411
2026-01-03 05:25:56.35	317.44	13.15	-54.2	-55.7	15.0	0.00e+00	0	31	0	1010827264	73	4551
2026-01-03 05:26:00.35	316.88	12.87	-54.2	-55.6	15.0	0.00e+00	0	31	0	1018167296	73	4531
2026-01-03 05:26:04.35	316.34	12.60	-54.1	-55.5	15.0	0.00e+00	0	31	0	1026555904	73	4471
2026-01-03 05:26:08.34	315.80	12.32	-54.2	-55.6	15.0	0.00e+00	0	31	0	1033895936	73	4539
2026-01-03 05:26:12.32	315.28	12.04	-54.4	-55.9	14.9	0.00e+00	0	31	0	1041235968	74	4423
2026-01-03 05:26:16.32	314.77	11.77	-54.5	-56.1	14.8	0.00e+00	0	31	0	1048576000	74	4518
2026-01-03 05:26:20.31	314.27	11.49	-54.6	-56.2	14.8	0.00e+00	0	31	0	1055916032	74	4546
2026-01-03 05:26:24.30	313.77	11.22	-54.6	-56.2	14.8	0.00e+00	0	31	0	1063256064	74	4577
2026-01-03 05:26:28.29	313.29	10.94	-54.6	-56.1	14.8	0.00e+00	0	31	0	1070596096	74	4541
2026-01-03 05:26:32.28	312.81	10.67	-54.9	-56.5	14.5	0.00e+00	0	31	0	1078984704	74	4751
2026-01-03 05:26:36.28	312.35	10.40	-55.0	-56.8	14.5	0.00e+00	0	31	0	1086324736	75	4619
2026-01-03 05:26:40.28	311.89	10.13	-55.1	-56.9	14.5	0.00e+00	0	31	0	1093664768	75	4668
2026-01-03 05:26:44.28	311.44	9.86	-55.0	-56.7	14.5	0.00e+00	0	31	0	1101004800	75	4581
2026-01-03 05:26:48.29	310.99	9.59	-55.0	-56.8	14.5	0.00e+00	0	31	0	1108344832	75	4607
2026-01-03 05:26:52.29	310.56	9.32	-55.2	-57.1	14.3	0.00e+00	0	31	0	1115684864	75	4762
2026-01-03 05:26:56.28	310.14	9.06	-55.5	-57.5	14.2	0.00e+00	0	31	0	1123024896	76	4722
2026-01-03 05:27:00.29	309.72	8.79	-55.6	-57.7	14.1	0.00e+00	0	31	0	1131413504	76	4820
2026-01-03 05:27:04.30	309.31	8.53	-55.7	-57.7	14.1	0.00e+00	0	31	0	1138753536	76	4863
2026-01-03 05:27:08.31	308.91	8.26	-55.9	-58.0	13.9	0.00e+00	0	31	0	1146093568	77	4745
2026-01-03 05:27:12.52	308.49	7.99	-56.0	-58.3	13.8	0.00e+00	0	31	0	1153433600	77	4876
2026-01-03 05:27:16.51	308.11	7.73	-56.0	-58.3	13.7	0.00e+00	0	31	0	1160773632	77	4899
2026-01-03 05:27:20.49	307.73	7.48	-56.0	-58.3	13.7	0.00e+00	0	31	0	1168113664	77	4899
2026-01-03 05:27:24.48	307.36	7.22	-55.9	-58.1	13.8	0.00e+00	0	31	0	1176502272	77	4796
2026-01-03 05:27:28.48	306.99	6.97	-56.1	-58.5	13.6	0.00e+00	0	31	0	1183842304	77	5002
2026-01-03 05:27:32.47	306.63	6.71	-56.3	-58.8	13.4	0.00e+00	0	31	0	1191182336	77	5184
2026-01-03 05:27:36.47	306.28	6.46	-56.5	-59.1	13.3	0.00e+00	0	31	0	1198522368	78	5066
2026-01-03 05:27:40.48	305.93	6.21	-56.4	-58.9	13.3	0.00e+00	0	31	0	1205862400	78	4954
2026-01-03 05:27:44.48	305.59	5.96	-56.4	-59.0	13.2	0.00e+00	0	31	0	1213202432	78	5035
2026-01-03 05:27:48.47	305.25	5.71	-56.5	-59.2	13.1	0.00e+00	0	31	0	1220542464	78	5150
2026-01-03 05:27:52.46	304.93	5.47	-56.7	-59.5	12.9	0.00e+00	0	31	0	1227882496	78	5310
2026-01-03 05:27:56.48	304.60	5.22	-56.9	-59.9	12.7	0.00e+00	0	31	0	1236271104	79	5236
2026-01-03 05:28:00.48	304.28	4.98	-56.9	-60.0	12.6	0.00e+00	0	31	0	1243611136	79	5327
2026-01-03 05:28:04.49	303.97	4.73	-61.2	-76.8	3.8	1.49e+00	0	31	104	1244659712	87	23122
2026-01-03 05:28:08.48	303.66	4.49	-61.7	-77.3	3.8	1.49e+00	0	31	104	1244659712	88	23133
2026-01-03 05:28:12.47	303.36	4.25	-62.0	-77.6	3.8	1.49e+00	0	31	104	1244659712	89	22693
2026-01-03 05:28:16.48	303.07	4.02	-62.2	-77.8	3.8	1.49e+00	0	31	104	1244659712	89	23126
2026-01-03 05:28:20.48	302.78	3.78	-62.2	-77.9	3.8	1.49e+00	0	31	104	1244659712	89	23411
2026-01-03 05:28:24.48	302.49	3.54	-62.2	-77.8	3.8	1.49e+00	0	31	104	1244659712	89	23206
2026-01-03 05:28:28.49	302.21	3.31	-62.1	-77.7	3.8	1.49e+00	0	31	104	1244659712	89	22852
2026-01-03 05:28:32.50	301.93	3.07	-62.0	-77.6	3.8	1.49e+00	0	31	104	1244659712	89	22700
2026-01-03 05:28:36.52	301.65	2.84	-62.0	-77.6	3.8	1.49e+00	0	31	104	1244659712	89	22597
2026-01-03 05:28:40.53	301.39	2.61	-62.0	-77.6	3.8	1.49e+00	0	31	104	1244659712	89	22640
2026-01-03 05:28:44.54	301.12	2.38	-61.9	-77.5	3.9	1.49e+00	0	31	104	1244659712	89	22512
2026-01-03 05:28:48.53	300.86	2.15	-61.9	-77.6	3.8	1.49e+00	0	31	104	1244659712	89	22597
2026-01-03 05:28:52.53	300.61	1.93	-61.9	-77.6	3.8	1.49e+00	0	31	104	1244659712	89	22554

#Closed at: 2026-01-03 05:28:53
#Recorded file [1244 MB]: D:/lorett/data/31004_260103_081612.dat