passes_logs/2026/01/03/R3.2S_Murmansk/R3.2S_Murmansk__20260103_095319_SUOMI_NPP_rec.log

#Pass ID: 20260103_095319_SUOMI NPP
#Satellite: SUOMI NPP
#Configuration: NPP
#almurnet v.1.7.20251203
#Start time: 2026-01-03 09:53:19

#Version: 2.2.20231116
#Station: R3.2S_Murmansk
#Location: 33.079688 lon 68.888172 lat
#TLE: 1 37849U 11061A   26001.07732418  .00000182  00000+0  10735-3 0  9990
#TLE: 2 37849  98.7795 303.2470 0002580  87.2016 272.9455 14.19520779734739

#Time	Az	El	Level	Level2	SNR	BER	BlckErr	Temp	State	Recorded	gain1	gain2
2026-01-03 09:53:19.42	158.80	2.00	-59.7	-75.3	3.8	1.49e+00	0	28	0	0	85	21821
2026-01-03 09:53:23.46	158.85	2.26	-59.7	-75.2	3.8	1.49e+00	0	28	104	0	84	22988
2026-01-03 09:53:27.49	158.89	2.52	-59.7	-75.2	3.8	1.49e+00	0	29	104	0	84	22968
2026-01-03 09:53:31.52	158.94	2.78	-59.7	-75.2	3.8	1.49e+00	0	29	104	0	84	22902
2026-01-03 09:53:35.55	158.98	3.05	-59.7	-75.1	3.8	1.49e+00	0	29	104	0	84	22764
2026-01-03 09:53:39.59	159.03	3.32	-59.6	-73.6	3.8	1.49e+00	0	29	104	0	84	19093
2026-01-03 09:53:43.63	159.08	3.59	-59.4	-70.3	4.7	9.34e-01	0	29	0	1048576	84	13004
2026-01-03 09:53:47.66	159.13	3.87	-59.1	-67.5	6.2	2.54e-01	0	29	0	8388608	84	9462
2026-01-03 09:53:51.69	159.18	4.14	-58.3	-64.1	8.9	2.10e-02	0	29	0	16777216	83	6735
2026-01-03 09:53:55.72	159.23	4.42	-57.7	-62.3	10.4	7.25e-04	0	29	0	24117248	81	6147
2026-01-03 09:53:59.76	159.28	4.71	-57.3	-61.4	11.1	1.17e-04	0	29	0	31457280	81	5558
2026-01-03 09:54:03.80	159.33	4.99	-57.9	-63.0	9.8	1.88e-03	0	29	0	38797312	81	6675
2026-01-03 09:54:07.83	159.38	5.28	-59.1	-68.0	5.9	7.68e-01	0	30	0	46137344	83	10633
2026-01-03 09:54:11.86	159.43	5.58	-56.8	-60.1	12.1	2.20e-06	0	29	0	53477376	79	5361
2026-01-03 09:54:15.89	159.48	5.87	-56.7	-59.9	12.3	1.50e-06	0	29	0	60817408	79	5239
2026-01-03 09:54:19.93	159.54	6.17	-56.9	-60.1	12.2	3.80e-06	0	30	0	68157440	79	5391
2026-01-03 09:54:23.97	159.59	6.48	-56.5	-59.4	12.7	0.00e+00	0	30	0	76546048	79	4950
2026-01-03 09:54:28.00	159.65	6.78	-56.6	-59.6	12.6	0.00e+00	0	30	0	83886080	79	5064
2026-01-03 09:54:32.02	159.71	7.09	-56.3	-59.1	13.0	0.00e+00	0	30	0	91226112	79	4762
2026-01-03 09:54:36.06	159.76	7.41	-56.4	-59.1	13.0	0.00e+00	0	30	0	98566144	79	4773
2026-01-03 09:54:40.10	159.82	7.72	-56.3	-58.9	13.1	0.00e+00	0	30	0	105906176	79	4665
2026-01-03 09:54:44.13	159.88	8.05	-56.2	-58.8	13.2	0.00e+00	0	30	0	114294784	79	4640
2026-01-03 09:54:48.16	159.94	8.37	-56.0	-58.4	13.4	0.00e+00	0	30	0	121634816	78	4692
2026-01-03 09:54:52.19	160.00	8.70	-55.9	-58.2	13.5	0.00e+00	0	30	0	128974848	78	4557
2026-01-03 09:54:56.23	160.07	9.04	-55.7	-57.9	13.6	0.00e+00	0	30	0	136314880	77	4689
2026-01-03 09:55:00.26	160.13	9.38	-55.7	-57.8	13.7	0.00e+00	0	30	0	144703488	77	4647
2026-01-03 09:55:04.29	160.19	9.72	-55.3	-57.4	13.9	0.00e+00	0	30	0	152043520	77	4403
2026-01-03 09:55:08.33	160.26	10.07	-55.4	-57.4	14.0	0.00e+00	0	30	0	159383552	77	4417
2026-01-03 09:55:12.36	160.33	10.42	-55.2	-57.1	14.0	0.00e+00	0	30	0	166723584	76	4523
2026-01-03 09:55:16.39	160.40	10.78	-55.1	-56.9	14.1	0.00e+00	0	30	0	174063616	76	4427
2026-01-03 09:55:20.43	160.47	11.15	-54.9	-56.7	14.2	0.00e+00	0	30	0	182452224	76	4321
2026-01-03 09:55:24.45	160.54	11.52	-54.9	-56.7	14.3	0.00e+00	0	30	0	189792256	76	4331
2026-01-03 09:55:28.49	160.61	11.89	-54.5	-56.1	14.5	0.00e+00	0	30	0	197132288	75	4277
2026-01-03 09:55:32.51	160.69	12.27	-54.3	-55.9	14.6	0.00e+00	0	30	0	204472320	75	4179
2026-01-03 09:55:36.55	160.76	12.66	-54.3	-55.9	14.6	0.00e+00	0	30	0	211812352	75	4157
2026-01-03 09:55:40.59	160.84	13.05	-53.9	-55.4	14.7	0.00e+00	0	30	0	220200960	74	4181
2026-01-03 09:55:44.62	160.92	13.45	-53.8	-55.2	14.8	0.00e+00	0	30	0	227540992	74	4088
2026-01-03 09:55:48.66	161.00	13.86	-53.7	-55.1	14.8	0.00e+00	0	30	0	234881024	73	4251
2026-01-03 09:55:52.70	161.08	14.27	-53.6	-54.9	14.9	0.00e+00	0	30	0	242221056	73	4176
2026-01-03 09:55:56.74	161.17	14.70	-53.7	-55.1	14.8	0.00e+00	0	30	0	250609664	73	4278
2026-01-03 09:56:00.78	161.26	15.12	-53.5	-54.9	14.9	0.00e+00	0	30	0	257949696	73	4156
2026-01-03 09:56:04.82	161.35	15.56	-53.6	-55.0	14.9	0.00e+00	0	30	0	265289728	73	4199
2026-01-03 09:56:08.85	161.44	16.00	-53.4	-54.7	15.0	0.00e+00	0	30	0	272629760	73	4059
2026-01-03 09:56:12.89	161.53	16.46	-53.4	-54.7	14.9	0.00e+00	0	30	0	279969792	72	4314
2026-01-03 09:56:16.92	161.63	16.92	-53.4	-54.6	15.0	0.00e+00	0	30	0	288358400	72	4288
2026-01-03 09:56:20.95	161.73	17.38	-53.3	-54.6	15.0	0.00e+00	0	30	0	295698432	72	4257
2026-01-03 09:56:24.98	161.83	17.86	-53.6	-54.9	14.9	0.00e+00	0	30	0	303038464	72	4425
2026-01-03 09:56:29.01	161.93	18.35	-53.7	-55.1	14.8	0.00e+00	0	30	0	310378496	72	4518
2026-01-03 09:56:33.04	162.04	18.85	-53.9	-55.4	14.7	0.00e+00	0	30	0	317718528	73	4393
2026-01-03 09:56:37.07	162.15	19.35	-54.1	-55.6	14.7	0.00e+00	0	30	0	326107136	73	4513
2026-01-03 09:56:41.10	162.27	19.87	-54.3	-55.8	14.6	0.00e+00	0	30	0	333447168	74	4378
2026-01-03 09:56:45.13	162.38	20.40	-54.7	-56.4	14.4	0.00e+00	0	30	0	340787200	74	4673
2026-01-03 09:56:49.16	162.50	20.94	-54.9	-56.7	14.3	0.00e+00	0	30	0	348127232	75	4552
2026-01-03 09:56:53.19	162.63	21.49	-55.1	-56.9	14.3	0.00e+00	0	30	0	355467264	75	4680
2026-01-03 09:56:57.23	162.76	22.05	-55.2	-57.0	14.2	0.00e+00	0	30	0	363855872	75	4747
2026-01-03 09:57:01.27	162.89	22.63	-55.3	-57.2	14.1	0.00e+00	0	30	0	371195904	75	4821
2026-01-03 09:57:05.30	163.03	23.22	-55.4	-57.2	14.2	0.00e+00	0	30	0	378535936	76	4561
2026-01-03 09:57:09.34	163.17	23.83	-55.4	-57.3	14.2	0.00e+00	0	30	0	385875968	76	4610
2026-01-03 09:57:13.36	163.32	24.44	-55.1	-56.7	14.4	0.00e+00	0	30	0	394264576	76	4340
2026-01-03 09:57:17.40	163.47	25.08	-55.0	-56.7	14.5	0.00e+00	0	30	0	401604608	76	4298
2026-01-03 09:57:21.42	163.63	25.72	-54.7	-56.2	14.7	0.00e+00	0	30	0	408944640	76	4089
2026-01-03 09:57:25.46	163.79	26.39	-54.2	-55.6	14.8	0.00e+00	0	30	0	416284672	74	4250
2026-01-03 09:57:29.49	163.96	27.07	-54.6	-56.1	14.6	0.00e+00	0	30	0	423624704	74	4521
2026-01-03 09:57:33.52	164.14	27.76	-54.4	-55.9	14.7	0.00e+00	0	30	0	432013312	75	4186
2026-01-03 09:57:37.56	164.32	28.48	-54.3	-55.8	14.7	0.00e+00	0	30	0	439353344	74	4355
2026-01-03 09:57:41.60	164.51	29.21	-54.4	-55.9	14.7	0.00e+00	0	30	0	446693376	74	4403
2026-01-03 09:57:45.63	164.72	29.97	-54.6	-56.1	14.6	0.00e+00	0	30	0	454033408	74	4519
2026-01-03 09:57:49.65	164.92	30.74	-55.3	-57.1	14.3	0.00e+00	0	30	0	461373440	75	4774
2026-01-03 09:57:53.68	165.14	31.53	-56.2	-58.2	13.8	0.00e+00	0	30	0	469762048	77	4863
2026-01-03 09:57:57.72	165.37	32.35	-57.2	-59.9	13.0	0.00e+00	0	30	0	477102080	80	4962
2026-01-03 09:58:01.76	165.62	33.19	-57.4	-60.1	12.9	0.00e+00	0	31	0	484442112	80	5100
2026-01-03 09:58:05.79	165.87	34.05	-56.9	-59.3	13.4	0.00e+00	0	31	0	491782144	79	4920
2026-01-03 09:58:09.82	166.13	34.93	-55.1	-56.7	14.5	0.00e+00	0	30	0	500170752	76	4319
2026-01-03 09:58:13.91	166.42	35.86	-54.1	-55.5	14.9	0.00e+00	0	31	0	507510784	74	4220
2026-01-03 09:58:17.94	166.71	36.79	-53.8	-55.1	15.0	0.00e+00	0	31	0	514850816	73	4258
2026-01-03 09:58:21.98	167.03	37.76	-54.0	-55.3	14.9	0.00e+00	0	30	0	522190848	74	4131
2026-01-03 09:58:26.02	167.36	38.75	-54.0	-55.3	15.0	0.00e+00	0	30	0	529530880	74	4121
2026-01-03 09:58:30.05	167.71	39.77	-54.4	-55.8	14.8	0.00e+00	0	30	0	537919488	74	4377
2026-01-03 09:58:34.08	168.08	40.81	-54.8	-56.4	14.5	0.00e+00	0	30	0	545259520	75	4413
2026-01-03 09:58:38.11	168.48	41.89	-54.7	-56.1	14.7	0.00e+00	0	31	0	552599552	75	4287
2026-01-03 09:58:42.14	168.90	43.00	-53.7	-54.9	15.2	0.00e+00	0	30	0	559939584	73	4159
2026-01-03 09:58:46.18	169.35	44.14	-53.7	-54.9	15.0	0.00e+00	0	31	0	567279616	73	4188
2026-01-03 09:58:50.21	169.84	45.32	-55.2	-56.8	14.5	0.00e+00	0	31	0	575668224	75	4649
2026-01-03 09:58:54.24	170.36	46.52	-56.5	-58.6	13.7	0.00e+00	0	31	0	583008256	78	4812
2026-01-03 09:58:58.27	170.93	47.76	-55.3	-57.0	14.5	0.00e+00	0	30	0	590348288	77	4198
2026-01-03 09:59:02.30	171.54	49.04	-53.9	-55.2	15.1	0.00e+00	0	30	0	597688320	74	4067
2026-01-03 09:59:06.34	172.20	50.35	-52.5	-53.5	15.4	0.00e+00	0	30	0	605028352	71	4004
2026-01-03 09:59:10.37	172.92	51.69	-52.7	-53.8	15.3	0.00e+00	0	31	0	613416960	71	4103
2026-01-03 09:59:14.42	173.71	53.07	-52.1	-53.1	15.5	0.00e+00	0	31	0	620756992	70	4008
2026-01-03 09:59:18.45	174.58	54.47	-51.5	-52.5	15.6	0.00e+00	0	30	0	628097024	69	3959
2026-01-03 09:59:22.48	175.53	55.91	-51.6	-52.6	15.6	0.00e+00	0	31	0	635437056	69	4007
2026-01-03 09:59:26.52	176.59	57.39	-50.9	-51.8	15.6	0.00e+00	0	30	0	643825664	67	4106
2026-01-03 09:59:30.56	177.77	58.89	-51.2	-52.1	15.5	0.00e+00	0	31	0	651165696	67	4265
2026-01-03 09:59:34.59	179.09	60.41	-52.1	-53.0	15.5	0.00e+00	0	31	0	658505728	70	3983
2026-01-03 09:59:38.62	180.57	61.96	-51.7	-52.6	15.5	0.00e+00	0	30	0	665845760	69	4028
2026-01-03 09:59:42.66	182.26	63.53	-51.8	-52.7	15.5	0.00e+00	0	31	0	673185792	69	4073
2026-01-03 09:59:46.69	184.18	65.10	-52.2	-53.2	15.4	0.00e+00	0	30	0	681574400	69	4312
2026-01-03 09:59:50.71	186.39	66.67	-52.8	-53.8	15.4	0.00e+00	0	30	0	688914432	71	4136
2026-01-03 09:59:54.75	188.95	68.25	-54.4	-55.7	14.8	0.00e+00	0	31	0	696254464	73	4594
2026-01-03 09:59:58.78	191.94	69.80	-57.0	-59.3	13.5	0.00e+00	0	31	0	703594496	80	4629
2026-01-03 10:00:02.82	195.47	71.33	-55.6	-57.3	14.4	0.00e+00	0	31	0	711983104	77	4347
2026-01-03 10:00:06.85	199.64	72.79	-54.2	-55.5	15.1	0.00e+00	0	31	0	719323136	75	3964
2026-01-03 10:00:10.89	204.61	74.17	-56.2	-58.2	14.0	0.00e+00	0	31	0	726663168	78	4560
2026-01-03 10:00:14.92	210.50	75.42	-53.9	-55.1	15.1	0.00e+00	0	31	0	734003200	73	4289
2026-01-03 10:00:18.95	217.46	76.51	-57.3	-59.8	13.3	0.00e+00	0	31	0	741343232	81	4646
2026-01-03 10:00:22.99	225.57	77.39	-54.9	-56.3	14.8	0.00e+00	0	31	0	749731840	76	4129
2026-01-03 10:00:27.02	234.68	77.99	-57.5	-60.2	13.1	0.00e+00	0	30	0	757071872	80	5127
2026-01-03 10:00:31.05	244.50	78.27	-57.5	-60.1	13.1	0.00e+00	0	30	0	764411904	80	5082
2026-01-03 10:00:35.08	254.49	78.20	-56.0	-57.7	14.4	0.00e+00	0	31	0	771751936	78	4316
2026-01-03 10:00:39.11	264.09	77.79	-58.7	-62.2	11.9	0.00e+00	0	31	0	779091968	82	5784
2026-01-03 10:00:43.15	272.84	77.08	-56.9	-59.0	13.7	0.00e+00	0	31	0	787480576	79	4732
2026-01-03 10:00:47.18	280.49	76.12	-56.7	-58.9	13.9	0.00e+00	0	31	0	794820608	79	4655
2026-01-03 10:00:51.21	287.02	74.96	-56.5	-58.5	13.9	0.00e+00	0	30	0	802160640	78	4727
2026-01-03 10:00:55.24	292.53	73.65	-54.4	-55.7	15.0	0.00e+00	0	31	0	809500672	75	4058
2026-01-03 10:00:59.28	297.18	72.24	-55.7	-57.4	14.3	0.00e+00	0	31	0	816840704	76	4690
2026-01-03 10:01:03.32	301.08	70.75	-57.7	-60.5	13.0	0.00e+00	0	30	0	825229312	81	5032
2026-01-03 10:01:07.34	304.38	69.22	-55.6	-57.1	14.5	0.00e+00	0	31	0	832569344	76	4535
2026-01-03 10:01:11.37	307.19	67.66	-54.8	-56.3	14.8	0.00e+00	0	31	0	839909376	75	4358
2026-01-03 10:01:15.41	309.61	66.08	-52.7	-53.7	15.5	0.00e+00	0	31	0	847249408	72	3853
2026-01-03 10:01:19.44	311.70	64.51	-50.4	-51.2	15.8	0.00e+00	0	30	0	854589440	67	3854
2026-01-03 10:01:23.47	313.53	62.94	-51.0	-51.8	15.7	0.00e+00	0	31	0	862978048	67	4109
2026-01-03 10:01:27.50	315.13	61.39	-52.3	-53.2	15.5	0.00e+00	0	30	0	870318080	70	4085
2026-01-03 10:01:31.53	316.55	59.85	-53.5	-54.6	15.2	0.00e+00	0	31	0	877658112	72	4266
2026-01-03 10:01:35.56	317.81	58.34	-52.4	-53.4	15.4	0.00e+00	0	31	0	884998144	71	3930
2026-01-03 10:01:39.59	318.94	56.86	-51.8	-52.7	15.6	0.00e+00	0	30	0	893386752	70	3845
2026-01-03 10:01:43.62	319.95	55.40	-51.8	-52.7	15.6	0.00e+00	0	30	0	900726784	69	4093
2026-01-03 10:01:47.66	320.88	53.98	-52.3	-53.4	15.6	0.00e+00	0	31	0	908066816	71	3915
2026-01-03 10:01:51.69	321.71	52.58	-53.1	-54.1	15.3	0.00e+00	0	31	0	915406848	71	4289
2026-01-03 10:01:55.73	322.47	51.22	-54.7	-56.2	14.9	0.00e+00	0	31	0	922746880	76	4052
2026-01-03 10:01:59.76	323.17	49.90	-55.8	-57.5	14.3	0.00e+00	0	31	0	931135488	76	4753
2026-01-03 10:02:03.79	323.81	48.61	-57.5	-60.0	13.3	0.00e+00	0	31	0	938475520	81	4716
2026-01-03 10:02:07.82	324.40	47.35	-54.3	-55.7	15.0	0.00e+00	0	31	0	945815552	75	4052
2026-01-03 10:02:11.85	324.95	46.13	-56.7	-58.8	13.7	0.00e+00	0	31	0	953155584	78	4917
2026-01-03 10:02:15.89	325.46	44.93	-54.4	-55.7	15.0	0.00e+00	0	31	0	960495616	75	4093
2026-01-03 10:02:19.92	325.94	43.78	-53.7	-54.9	15.1	0.00e+00	0	31	0	968884224	72	4426
2026-01-03 10:02:23.95	326.38	42.65	-56.4	-58.5	13.9	0.00e+00	0	30	0	976224256	78	4734
2026-01-03 10:02:27.98	326.79	41.56	-53.1	-54.2	15.3	0.00e+00	0	31	0	983564288	72	4054
2026-01-03 10:02:32.01	327.18	40.49	-52.6	-53.6	15.4	0.00e+00	0	31	0	990904320	71	4043
2026-01-03 10:02:36.04	327.54	39.46	-55.7	-57.5	14.2	0.00e+00	0	30	0	998244352	76	4743
2026-01-03 10:02:40.08	327.89	38.45	-54.8	-56.2	14.8	0.00e+00	0	31	0	1006632960	76	4075
2026-01-03 10:02:44.11	328.21	37.48	-52.3	-53.2	15.5	0.00e+00	0	30	0	1013972992	71	3845
2026-01-03 10:02:48.14	328.52	36.53	-54.3	-55.7	14.8	0.00e+00	0	31	0	1021313024	73	4557
2026-01-03 10:02:52.17	328.81	35.60	-55.2	-56.8	14.6	0.00e+00	0	31	0	1028653056	76	4384
2026-01-03 10:02:56.21	329.09	34.70	-54.0	-55.3	15.1	0.00e+00	0	31	0	1035993088	74	4109
2026-01-03 10:03:00.24	329.35	33.83	-54.8	-56.2	14.7	0.00e+00	0	31	0	1044381696	75	4321
2026-01-03 10:03:04.27	329.60	32.98	-56.0	-57.8	14.1	0.00e+00	0	31	0	1051721728	77	4637
2026-01-03 10:03:08.30	329.84	32.15	-55.7	-57.6	14.3	0.00e+00	0	31	0	1059061760	77	4510
2026-01-03 10:03:12.34	330.06	31.35	-56.8	-59.1	13.5	0.00e+00	0	31	0	1066401792	78	5076
2026-01-03 10:03:16.37	330.28	30.56	-57.2	-59.8	13.1	0.00e+00	0	31	0	1074790400	79	5206
2026-01-03 10:03:20.40	330.49	29.80	-55.6	-57.3	14.4	0.00e+00	0	31	0	1082130432	77	4369
2026-01-03 10:03:24.43	330.69	29.05	-55.0	-56.5	14.7	0.00e+00	0	31	0	1089470464	76	4217
2026-01-03 10:03:28.46	330.88	28.33	-55.6	-57.4	14.3	0.00e+00	0	31	0	1096810496	76	4664
2026-01-03 10:03:32.49	331.06	27.62	-55.5	-57.2	14.3	0.00e+00	0	31	0	1104150528	76	4591
2026-01-03 10:03:36.52	331.24	26.93	-54.2	-55.6	14.9	0.00e+00	0	31	0	1112539136	74	4243
2026-01-03 10:03:40.56	331.41	26.26	-52.9	-54.0	15.3	0.00e+00	0	31	0	1119879168	72	3974
2026-01-03 10:03:44.59	331.57	25.60	-51.9	-52.9	15.6	0.00e+00	0	31	0	1127219200	70	3926
2026-01-03 10:03:48.63	331.73	24.96	-51.5	-52.4	15.6	0.00e+00	0	31	0	1134559232	69	3926
2026-01-03 10:03:52.66	331.88	24.34	-51.6	-52.6	15.6	0.00e+00	0	31	0	1142947840	69	4009
2026-01-03 10:03:56.70	332.03	23.73	-51.9	-52.9	15.5	0.00e+00	0	31	0	1150287872	69	4162
2026-01-03 10:04:00.74	332.17	23.13	-52.4	-53.4	15.4	0.00e+00	0	31	0	1157627904	70	4184
2026-01-03 10:04:04.77	332.31	22.54	-53.3	-54.5	15.1	0.00e+00	0	31	0	1164967936	71	4478
2026-01-03 10:04:08.80	332.44	21.97	-53.5	-54.7	15.1	0.00e+00	0	31	0	1172307968	72	4334
2026-01-03 10:04:12.83	332.57	21.42	-53.4	-54.6	15.1	0.00e+00	0	31	0	1180696576	72	4260
2026-01-03 10:04:16.87	332.69	20.87	-53.2	-54.4	15.2	0.00e+00	0	30	0	1188036608	72	4174
2026-01-03 10:04:20.91	332.81	20.33	-53.2	-54.4	15.1	0.00e+00	0	31	0	1195376640	72	4179
2026-01-03 10:04:24.94	332.93	19.81	-53.1	-54.3	15.2	0.00e+00	0	31	0	1202716672	72	4134
2026-01-03 10:04:28.97	333.05	19.30	-52.9	-54.0	15.3	0.00e+00	0	31	0	1210056704	72	3996
2026-01-03 10:04:32.99	333.16	18.80	-52.7	-53.9	15.3	0.00e+00	0	31	0	1218445312	71	4152
2026-01-03 10:04:37.03	333.26	18.30	-52.5	-53.6	15.3	0.00e+00	0	31	0	1225785344	71	4020
2026-01-03 10:04:41.06	333.37	17.82	-52.5	-53.6	15.3	0.00e+00	0	31	0	1233125376	71	4023
2026-01-03 10:04:45.10	333.47	17.35	-53.0	-54.2	15.1	0.00e+00	0	31	0	1240465408	71	4305
2026-01-03 10:04:49.13	333.57	16.88	-53.5	-54.8	15.0	0.00e+00	0	31	0	1247805440	72	4381
2026-01-03 10:04:53.15	333.67	16.43	-53.7	-55.1	14.8	0.00e+00	0	31	0	1256194048	72	4506
2026-01-03 10:04:57.19	333.77	15.98	-53.8	-55.2	14.9	0.00e+00	0	31	0	1263534080	73	4323
2026-01-03 10:05:01.23	333.86	15.54	-53.9	-55.3	14.8	0.00e+00	0	31	0	1270874112	73	4362
2026-01-03 10:05:05.26	333.95	15.11	-53.7	-55.1	14.9	0.00e+00	0	31	0	1278214144	73	4247
2026-01-03 10:05:09.29	334.04	14.68	-53.7	-55.1	14.9	0.00e+00	0	31	0	1285554176	73	4245
2026-01-03 10:05:13.33	334.12	14.26	-53.7	-55.1	14.9	0.00e+00	0	31	0	1293942784	73	4270
2026-01-03 10:05:17.36	334.21	13.85	-53.9	-55.3	14.8	0.00e+00	0	31	0	1301282816	73	4356
2026-01-03 10:05:21.39	334.29	13.45	-54.0	-55.4	14.7	4.50e-06	0	31	0	1308622848	73	4430
2026-01-03 10:05:25.42	334.37	13.05	-54.1	-55.6	14.7	0.00e+00	0	31	0	1315962880	73	4496
2026-01-03 10:05:29.46	334.45	12.66	-54.2	-55.7	14.6	0.00e+00	0	31	0	1324351488	73	4563
2026-01-03 10:05:33.49	334.53	12.28	-54.2	-55.7	14.6	2.20e-06	0	30	0	1331691520	73	4594
2026-01-03 10:05:37.52	334.61	11.90	-54.3	-56.0	14.5	0.00e+00	0	31	0	1339031552	74	4444
2026-01-03 10:05:41.55	334.68	11.53	-54.4	-56.0	14.5	0.00e+00	0	31	0	1346371584	74	4482
2026-01-03 10:05:45.59	334.76	11.16	-54.6	-56.4	14.3	0.00e+00	0	31	0	1353711616	74	4661
2026-01-03 10:05:49.63	334.83	10.80	-54.5	-56.2	14.4	0.00e+00	0	31	0	1362100224	74	4550
2026-01-03 10:05:53.66	334.90	10.44	-54.6	-56.3	14.4	0.00e+00	0	31	0	1369440256	74	4640
2026-01-03 10:05:57.69	334.97	10.09	-54.3	-56.0	14.5	7.60e-06	0	31	0	1376780288	74	4461
2026-01-03 10:06:01.72	335.04	9.75	-54.4	-56.0	14.5	0.00e+00	0	31	0	1384120320	74	4493
2026-01-03 10:06:05.75	335.10	9.40	-54.1	-55.7	14.6	0.00e+00	0	31	0	1391460352	74	4319
2026-01-03 10:06:09.79	335.17	9.07	-54.1	-55.7	14.6	0.00e+00	0	31	0	1399848960	74	4335
2026-01-03 10:06:13.81	335.23	8.73	-54.0	-55.6	14.7	0.00e+00	0	31	0	1407188992	74	4249
2026-01-03 10:06:17.85	335.30	8.41	-54.0	-55.6	14.6	0.00e+00	0	31	0	1414529024	74	4258
2026-01-03 10:06:21.88	335.36	8.08	-53.9	-55.5	14.7	0.00e+00	0	31	0	1421869056	74	4217
2026-01-03 10:06:25.91	335.42	7.76	-54.0	-55.5	14.6	0.00e+00	0	31	0	1429209088	74	4236
2026-01-03 10:06:29.92	335.48	7.45	-53.9	-55.4	14.7	6.10e-06	0	31	0	1437597696	74	4176
2026-01-03 10:06:33.96	335.54	7.14	-53.9	-55.5	14.6	0.00e+00	0	31	0	1444937728	74	4224
2026-01-03 10:06:37.99	335.60	6.83	-54.0	-55.6	14.6	0.00e+00	0	31	0	1452277760	74	4245
2026-01-03 10:06:42.02	335.66	6.52	-53.8	-55.4	14.6	0.00e+00	0	31	0	1459617792	74	4172
2026-01-03 10:06:46.06	335.72	6.22	-54.0	-55.6	14.5	0.00e+00	0	31	0	1466957824	74	4269
2026-01-03 10:06:50.10	335.78	5.92	-53.9	-55.5	14.6	0.00e+00	0	31	0	1475346432	74	4204
2026-01-03 10:06:54.12	335.83	5.63	-54.0	-55.7	14.5	7.00e-07	0	31	0	1482686464	74	4330
2026-01-03 10:06:58.15	335.89	5.34	-54.2	-56.0	14.3	0.00e+00	0	31	0	1490026496	74	4474
2026-01-03 10:07:02.18	335.94	5.05	-54.3	-56.1	14.2	0.00e+00	0	31	0	1497366528	74	4516
2026-01-03 10:07:06.21	335.99	4.77	-61.1	-76.7	3.8	1.49e+00	0	31	104	1499463680	87	22892
2026-01-03 10:07:10.24	336.05	4.48	-61.6	-77.2	3.8	1.49e+00	0	31	104	1499463680	88	23016
2026-01-03 10:07:14.27	336.10	4.21	-61.8	-77.4	3.8	1.49e+00	0	31	104	1499463680	88	23451
2026-01-03 10:07:18.30	336.15	3.93	-61.9	-77.5	3.8	1.49e+00	0	31	104	1499463680	89	22411
2026-01-03 10:07:22.33	336.20	3.66	-62.0	-77.6	3.8	1.49e+00	0	31	104	1499463680	89	22560
2026-01-03 10:07:26.37	336.25	3.39	-61.9	-77.6	3.8	1.49e+00	0	31	104	1499463680	89	22526
2026-01-03 10:07:30.41	336.30	3.12	-61.9	-77.5	3.8	1.49e+00	0	31	104	1499463680	89	22479
2026-01-03 10:07:34.45	336.35	2.85	-61.9	-77.5	3.8	1.49e+00	0	31	104	1499463680	89	22328
2026-01-03 10:07:38.48	336.40	2.59	-61.8	-77.5	3.8	1.49e+00	0	31	104	1499463680	89	22277
2026-01-03 10:07:42.52	336.45	2.33	-61.8	-77.4	3.8	1.49e+00	0	31	104	1499463680	89	22197
2026-01-03 10:07:46.56	336.50	2.07	-61.8	-77.4	3.8	1.49e+00	0	31	104	1499463680	89	22135

#Closed at: 2026-01-03 10:07:49
#Recorded file [1499 MB]: D:/lorett/data/31004_260103_125319.dat