passes_logs/2026/01/03/R3.2S_Murmansk/R3.2S_Murmansk__20260103_121235_ZKG05_rec.log

#Pass ID: 20260103_121235_ZKG05
#Satellite: ZKG05
#Configuration: ZKG05
#almurnet v.1.7.20251203
#Start time: 2026-01-03 12:12:37

#Version: 2.2.20231116
#Station: R3.2S_Murmansk
#Location: 33.079688 lon 68.888172 lat
#TLE: 1 65263U 25180E   25363.54303023  .00006586  00000-0  34273-3 0  9994
#TLE: 2 65263  97.4772 128.0191 0001674  87.3453 272.7971 15.16366041 20011

#Time	Az	El	Level	Level2	SNR	BER	BlckErr	Temp	State	Recorded	gain1	gain2
2026-01-03 12:12:37.04	21.17	2.11	-59.5	-62.2	6.1	0.00e+00	0	35	0	0	85	19629
2026-01-03 12:12:40.02	21.29	2.31	-59.5	-62.2	6.2	0.00e+00	0	35	104	0	85	19692
2026-01-03 12:12:43.02	21.42	2.51	-59.5	-62.2	6.2	0.00e+00	0	35	104	0	85	19645
2026-01-03 12:12:46.01	21.55	2.72	-59.5	-62.2	6.2	0.00e+00	0	35	104	0	85	19659
2026-01-03 12:12:48.99	21.68	2.93	-59.5	-62.2	6.2	0.00e+00	0	36	104	0	85	19680
2026-01-03 12:12:51.99	21.81	3.14	-59.5	-62.3	6.2	0.00e+00	0	36	104	0	85	19716
2026-01-03 12:12:54.97	21.95	3.35	-59.5	-62.2	6.2	0.00e+00	0	36	104	0	85	19660
2026-01-03 12:12:57.96	22.09	3.57	-59.6	-62.3	6.2	0.00e+00	0	36	104	0	85	19760
2026-01-03 12:13:00.94	22.23	3.79	-59.6	-62.3	6.2	0.00e+00	0	36	104	0	85	19792
2026-01-03 12:13:03.94	22.37	4.01	-59.6	-62.3	6.2	0.00e+00	0	36	104	0	85	19726
2026-01-03 12:13:06.92	22.51	4.23	-59.6	-62.3	6.2	0.00e+00	0	36	104	0	85	19757
2026-01-03 12:13:09.91	22.66	4.45	-59.6	-62.3	6.2	0.00e+00	0	37	104	0	85	19815
2026-01-03 12:13:12.91	22.81	4.68	-59.6	-62.3	6.2	0.00e+00	0	37	104	0	85	19767
2026-01-03 12:13:15.90	22.96	4.91	-59.6	-62.3	6.2	0.00e+00	0	37	104	0	85	19806
2026-01-03 12:13:18.87	23.12	5.14	-59.6	-62.3	6.2	0.00e+00	0	37	104	0	85	19888
2026-01-03 12:13:21.86	23.27	5.37	-59.7	-62.5	6.2	0.00e+00	0	37	104	0	85	20164
2026-01-03 12:13:24.86	23.43	5.61	-59.8	-62.5	6.2	0.00e+00	0	37	104	0	85	20201
2026-01-03 12:13:27.85	23.60	5.85	-59.6	-62.3	6.2	0.00e+00	0	37	104	0	85	19855
2026-01-03 12:13:30.85	23.77	6.09	-59.7	-62.4	6.2	0.00e+00	0	37	104	0	85	20043
2026-01-03 12:13:33.85	23.94	6.34	-59.9	-62.6	6.2	0.00e+00	0	37	104	0	85	20450
2026-01-03 12:13:36.86	24.11	6.58	-59.9	-62.6	6.2	0.00e+00	0	37	104	0	85	20435
2026-01-03 12:13:39.85	24.29	6.84	-59.8	-62.5	6.2	0.00e+00	0	37	104	0	85	20224
2026-01-03 12:13:42.86	24.47	7.09	-59.8	-62.5	6.2	0.00e+00	0	37	104	0	85	20348
2026-01-03 12:13:45.85	24.65	7.35	-60.0	-62.7	6.2	0.00e+00	0	37	104	0	85	20700
2026-01-03 12:13:48.86	24.84	7.61	-60.0	-62.7	6.2	0.00e+00	0	37	104	0	85	20741
2026-01-03 12:13:51.85	25.03	7.87	-59.9	-62.6	6.2	0.00e+00	0	38	104	0	85	20473
2026-01-03 12:13:54.85	25.23	8.14	-59.9	-62.6	6.2	0.00e+00	0	38	104	0	85	20615
2026-01-03 12:13:57.85	25.43	8.41	-60.1	-62.8	6.2	0.00e+00	0	38	104	0	85	20985
2026-01-03 12:14:00.85	25.64	8.69	-60.1	-62.8	6.2	0.00e+00	0	38	104	0	85	21015
2026-01-03 12:14:03.83	25.85	8.96	-60.0	-62.7	6.2	0.00e+00	0	38	104	0	85	20793
2026-01-03 12:14:06.84	26.06	9.25	-60.1	-62.8	6.2	0.00e+00	0	38	104	0	85	20877
2026-01-03 12:14:09.84	26.28	9.53	-60.2	-62.9	6.2	0.00e+00	0	38	104	0	85	21128
2026-01-03 12:14:12.84	26.50	9.82	-60.2	-62.9	6.2	0.00e+00	0	38	104	0	85	21227
2026-01-03 12:14:15.84	26.73	10.12	-60.1	-62.8	6.2	0.00e+00	0	38	104	0	85	20994
2026-01-03 12:14:18.82	26.97	10.42	-60.1	-62.9	6.2	0.00e+00	0	38	104	0	85	21127
2026-01-03 12:14:21.80	27.20	10.72	-60.2	-62.9	6.2	0.00e+00	0	38	104	0	85	21346
2026-01-03 12:14:24.79	27.45	11.02	-60.2	-63.0	6.2	0.00e+00	0	38	104	0	85	21423
2026-01-03 12:14:27.79	27.70	11.34	-60.2	-62.9	6.2	0.00e+00	0	38	104	0	85	21205
2026-01-03 12:14:30.78	27.96	11.65	-60.3	-63.0	6.2	0.00e+00	0	38	104	0	86	20234
2026-01-03 12:14:33.80	28.22	11.98	-60.4	-63.0	6.2	0.00e+00	0	38	104	0	86	20350
2026-01-03 12:14:36.79	28.50	12.31	-60.4	-63.1	6.2	0.00e+00	0	38	104	0	86	20439
2026-01-03 12:14:39.78	28.77	12.64	-60.3	-63.0	6.2	0.00e+00	0	38	104	0	86	20342
2026-01-03 12:14:42.77	29.06	12.98	-60.3	-63.1	6.2	0.00e+00	0	38	104	0	86	20442
2026-01-03 12:14:45.77	29.35	13.32	-60.4	-63.1	6.2	0.00e+00	0	38	104	0	86	20609
2026-01-03 12:14:48.74	29.65	13.67	-60.4	-63.1	6.2	0.00e+00	0	38	104	0	86	20624
2026-01-03 12:14:51.73	29.96	14.02	-60.4	-63.1	6.2	0.00e+00	0	38	104	0	86	20474
2026-01-03 12:14:54.72	30.27	14.38	-60.4	-63.1	6.2	0.00e+00	0	38	104	0	86	20597
2026-01-03 12:14:57.71	30.60	14.75	-60.5	-63.2	6.2	0.00e+00	0	38	104	0	86	20780
2026-01-03 12:15:00.69	30.93	15.12	-60.5	-63.2	6.2	0.00e+00	0	38	104	0	86	20784
2026-01-03 12:15:03.69	31.28	15.51	-60.5	-63.2	6.2	0.00e+00	0	38	104	0	86	20690
2026-01-03 12:15:06.69	31.63	15.89	-60.5	-63.3	6.2	0.00e+00	0	38	104	0	86	20883
2026-01-03 12:15:09.69	32.00	16.29	-60.6	-63.3	6.2	0.00e+00	0	39	104	0	86	20961
2026-01-03 12:15:12.68	32.38	16.69	-60.6	-63.3	6.2	0.00e+00	0	38	104	0	86	20974
2026-01-03 12:15:15.67	32.76	17.10	-60.5	-63.3	6.2	0.00e+00	0	38	104	0	86	20953
2026-01-03 12:15:18.67	33.17	17.52	-60.6	-63.3	6.2	0.00e+00	0	38	104	0	86	20967
2026-01-03 12:15:21.67	33.58	17.95	-60.7	-63.4	6.2	0.00e+00	0	38	104	0	86	21188
2026-01-03 12:15:24.66	34.01	18.38	-60.7	-63.3	6.2	0.00e+00	0	39	104	0	86	21110
2026-01-03 12:15:27.65	34.44	18.82	-60.6	-63.3	6.2	0.00e+00	0	39	104	0	86	21002
2026-01-03 12:15:30.65	34.90	19.27	-60.7	-63.4	6.2	0.00e+00	0	38	104	0	86	21194
2026-01-03 12:15:33.65	35.37	19.74	-60.7	-63.4	6.2	0.00e+00	0	38	104	0	86	21277
2026-01-03 12:15:36.66	35.86	20.21	-60.7	-63.4	6.2	0.00e+00	0	38	104	0	86	21335
2026-01-03 12:15:39.65	36.36	20.68	-60.7	-63.4	6.2	0.00e+00	0	38	104	0	86	21156
2026-01-03 12:15:42.64	36.88	21.17	-60.7	-63.5	6.2	0.00e+00	0	38	104	0	86	21392
2026-01-03 12:15:45.62	37.42	21.67	-60.8	-63.5	6.2	0.00e+00	0	39	104	0	86	21422
2026-01-03 12:15:48.62	37.98	22.18	-60.8	-63.5	6.2	0.00e+00	0	39	104	0	86	21451
2026-01-03 12:15:51.61	38.56	22.69	-60.7	-63.4	6.2	0.00e+00	0	39	104	0	87	20152
2026-01-03 12:15:54.60	39.16	23.22	-60.8	-63.5	6.2	0.00e+00	0	38	104	0	87	20286
2026-01-03 12:15:57.60	39.78	23.76	-60.8	-63.6	6.2	0.00e+00	0	39	104	0	87	20433
2026-01-03 12:16:00.59	40.43	24.31	-60.9	-63.6	6.2	0.00e+00	0	39	104	0	87	20403
2026-01-03 12:16:03.58	41.10	24.87	-60.8	-63.5	6.2	0.00e+00	0	39	104	0	87	20305
2026-01-03 12:16:06.57	41.80	25.44	-60.9	-63.6	6.2	0.00e+00	0	39	104	0	87	20456
2026-01-03 12:16:09.57	42.53	26.02	-60.9	-63.6	6.2	0.00e+00	0	39	104	0	87	20601
2026-01-03 12:16:12.56	43.28	26.61	-60.9	-63.6	6.2	0.00e+00	0	38	104	0	87	20540
2026-01-03 12:16:15.54	44.07	27.21	-60.9	-63.5	6.2	0.00e+00	0	39	104	0	87	20381
2026-01-03 12:16:18.55	44.89	27.83	-60.9	-63.6	6.2	0.00e+00	0	39	104	0	87	20572
2026-01-03 12:16:21.56	45.75	28.45	-61.0	-63.7	6.2	0.00e+00	0	39	104	0	87	20700
2026-01-03 12:16:24.55	46.64	29.09	-61.0	-63.7	6.2	0.00e+00	0	39	104	0	87	20710
2026-01-03 12:16:27.54	47.57	29.73	-60.9	-63.6	6.2	0.00e+00	0	38	104	0	87	20610
2026-01-03 12:16:30.53	48.54	30.38	-61.0	-63.7	6.2	0.00e+00	0	39	104	0	87	20773
2026-01-03 12:16:33.53	49.56	31.05	-61.0	-63.7	6.2	0.00e+00	0	39	104	0	87	20819
2026-01-03 12:16:36.53	50.62	31.72	-61.0	-63.7	6.2	0.00e+00	0	39	104	0	87	20852
2026-01-03 12:16:39.53	51.74	32.40	-61.0	-63.7	6.2	0.00e+00	0	38	104	0	87	20711
2026-01-03 12:16:42.52	52.89	33.09	-61.0	-63.8	6.2	0.00e+00	0	39	104	0	87	20923
2026-01-03 12:16:45.53	54.11	33.78	-61.1	-63.8	6.2	0.00e+00	0	39	104	0	87	21001
2026-01-03 12:16:48.52	55.38	34.47	-61.1	-63.8	6.2	0.00e+00	0	39	104	0	87	20946
2026-01-03 12:16:51.51	56.70	35.17	-61.0	-63.7	6.2	0.00e+00	0	39	104	0	87	20842
2026-01-03 12:16:54.50	58.09	35.87	-61.1	-63.8	6.2	0.00e+00	0	39	104	0	87	20994
2026-01-03 12:16:57.48	59.53	36.56	-61.1	-63.9	6.2	0.00e+00	0	39	104	0	87	21193
2026-01-03 12:17:00.49	61.05	37.26	-61.1	-63.8	6.2	0.00e+00	0	39	104	0	87	21033
2026-01-03 12:17:03.49	62.64	37.95	-61.1	-63.8	6.2	0.00e+00	0	39	104	0	87	20997
2026-01-03 12:17:06.48	64.30	38.63	-61.1	-63.8	6.2	0.00e+00	0	39	104	0	87	21026
2026-01-03 12:17:09.47	66.02	39.30	-61.2	-63.9	6.2	0.00e+00	0	39	104	0	87	21159
2026-01-03 12:17:12.47	67.83	39.96	-61.2	-63.9	6.2	0.00e+00	0	39	104	0	87	21195
2026-01-03 12:17:15.48	69.72	40.60	-61.1	-63.8	6.2	0.00e+00	0	39	104	0	87	21031
2026-01-03 12:17:18.48	71.69	41.22	-61.2	-63.9	6.2	0.00e+00	0	39	104	0	87	21221
2026-01-03 12:17:21.48	73.73	41.81	-61.2	-63.9	6.2	0.00e+00	0	39	104	0	87	21243
2026-01-03 12:17:24.49	75.85	42.37	-61.2	-63.9	6.2	0.00e+00	0	39	104	0	87	21269
2026-01-03 12:17:27.48	78.03	42.89	-61.2	-63.9	6.2	0.00e+00	0	39	104	0	87	21165
2026-01-03 12:17:30.48	80.30	43.38	-61.2	-63.9	6.2	0.00e+00	0	39	104	0	87	21218
2026-01-03 12:17:33.48	82.63	43.83	-61.2	-64.0	6.2	0.00e+00	0	39	104	0	87	21360
2026-01-03 12:17:36.47	85.02	44.23	-61.2	-63.9	6.2	0.00e+00	0	39	104	0	87	21239
2026-01-03 12:17:39.46	87.47	44.57	-61.2	-63.9	6.2	0.00e+00	0	39	104	0	87	21139
2026-01-03 12:17:42.46	89.98	44.87	-61.2	-63.9	6.2	0.00e+00	0	39	104	0	87	21330
2026-01-03 12:17:45.46	92.53	45.10	-61.2	-64.0	6.2	0.00e+00	0	39	104	0	87	21366
2026-01-03 12:17:48.45	95.11	45.28	-61.2	-64.0	6.2	0.00e+00	0	39	104	0	87	21411
2026-01-03 12:17:51.45	97.72	45.40	-61.2	-63.9	6.2	0.00e+00	0	39	104	0	87	21326
2026-01-03 12:17:54.43	100.33	45.45	-61.2	-63.9	6.2	0.00e+00	0	39	104	0	87	21284
2026-01-03 12:17:57.43	102.96	45.44	-61.2	-63.9	6.2	0.00e+00	0	39	104	0	87	21312
2026-01-03 12:18:00.42	105.58	45.37	-61.2	-63.9	6.2	0.00e+00	0	39	104	0	87	21297
2026-01-03 12:18:03.39	108.16	45.23	-61.2	-63.9	6.2	0.00e+00	0	39	104	0	87	21293
2026-01-03 12:18:06.39	110.74	45.04	-61.2	-63.9	6.2	0.00e+00	0	39	104	0	87	21233
2026-01-03 12:18:09.39	113.28	44.78	-61.2	-63.9	6.2	0.00e+00	0	38	104	0	87	21307
2026-01-03 12:18:12.38	115.76	44.47	-61.2	-63.9	6.2	0.00e+00	0	39	104	0	87	21217
2026-01-03 12:18:15.37	118.20	44.10	-61.1	-63.8	6.2	0.00e+00	0	39	104	0	87	21107
2026-01-03 12:18:18.37	120.58	43.69	-61.1	-63.9	6.2	0.00e+00	0	39	104	0	87	21200
2026-01-03 12:18:21.36	122.89	43.23	-61.2	-63.9	6.2	0.00e+00	0	39	104	0	87	21236
2026-01-03 12:18:24.34	125.12	42.73	-61.2	-63.9	6.2	0.00e+00	0	39	104	0	87	21259
2026-01-03 12:18:27.34	127.29	42.19	-61.1	-63.8	6.2	0.00e+00	0	39	104	0	87	20979
2026-01-03 12:18:30.33	129.38	41.62	-61.1	-63.8	6.2	0.00e+00	0	39	104	0	87	21063
2026-01-03 12:18:33.33	131.40	41.02	-61.1	-63.9	6.2	0.00e+00	0	39	104	0	87	21182
2026-01-03 12:18:36.33	133.34	40.39	-61.1	-63.8	6.2	0.00e+00	0	39	104	0	87	21002
2026-01-03 12:18:39.34	135.21	39.75	-61.1	-63.8	6.2	0.00e+00	0	39	104	0	87	20892
2026-01-03 12:18:42.34	137.00	39.08	-61.1	-63.7	6.2	0.00e+00	0	39	104	0	87	20871
2026-01-03 12:18:45.34	138.72	38.40	-61.1	-63.8	6.2	0.00e+00	0	39	104	0	87	21030
2026-01-03 12:18:48.35	140.36	37.71	-61.1	-63.8	6.2	0.00e+00	0	39	104	0	87	20977
2026-01-03 12:18:51.35	141.93	37.02	-61.0	-63.7	6.2	0.00e+00	0	39	104	0	87	20832
2026-01-03 12:18:54.36	143.44	36.32	-61.0	-63.7	6.2	0.00e+00	0	39	104	0	87	20857
2026-01-03 12:18:57.35	144.87	35.61	-61.0	-63.8	6.2	0.00e+00	0	39	104	0	87	20925
2026-01-03 12:19:00.33	146.23	34.92	-61.0	-63.7	6.2	0.00e+00	0	39	104	0	87	20806
2026-01-03 12:19:03.33	147.54	34.21	-61.0	-63.7	6.2	0.00e+00	0	39	104	0	87	20708
2026-01-03 12:19:06.33	148.80	33.52	-61.0	-63.7	6.2	0.00e+00	0	39	104	0	87	20751
2026-01-03 12:19:09.34	150.00	32.82	-61.0	-63.7	6.2	0.00e+00	0	39	104	0	87	20648
2026-01-03 12:19:12.34	151.15	32.13	-60.9	-63.6	6.2	0.00e+00	0	39	104	0	87	20576
2026-01-03 12:19:15.35	152.25	31.45	-60.9	-63.6	6.2	0.00e+00	0	39	104	0	87	20558
2026-01-03 12:19:18.33	153.29	30.78	-60.9	-63.6	6.2	0.00e+00	0	39	104	0	87	20603
2026-01-03 12:19:21.35	154.30	30.11	-60.9	-63.6	6.2	0.00e+00	0	39	104	0	87	20527
2026-01-03 12:19:24.35	155.26	29.46	-60.9	-63.6	6.2	0.00e+00	0	39	104	0	87	20482
2026-01-03 12:19:27.35	156.19	28.81	-60.8	-63.6	6.2	0.00e+00	0	39	104	0	87	20410
2026-01-03 12:19:30.35	157.07	28.18	-60.9	-63.6	6.2	0.00e+00	0	39	104	0	87	20445
2026-01-03 12:19:33.36	157.92	27.55	-60.8	-63.6	6.2	0.00e+00	0	39	104	0	87	20404
2026-01-03 12:19:36.34	158.73	26.94	-60.8	-63.5	6.2	0.00e+00	0	39	104	0	87	20364
2026-01-03 12:19:39.35	159.51	26.33	-60.8	-63.5	6.2	0.00e+00	0	39	104	0	87	20278
2026-01-03 12:19:42.34	160.25	25.74	-60.8	-63.5	6.2	0.00e+00	0	39	104	0	87	20296
2026-01-03 12:19:45.34	160.97	25.16	-60.8	-63.5	6.2	0.00e+00	0	39	104	0	87	20254
2026-01-03 12:19:48.34	161.67	24.59	-60.8	-63.5	6.2	0.00e+00	0	39	104	0	87	20185
2026-01-03 12:19:51.34	162.33	24.03	-60.7	-63.5	6.2	0.00e+00	0	39	104	0	87	20172
2026-01-03 12:19:54.34	162.97	23.48	-60.7	-63.4	6.2	0.00e+00	0	39	104	0	87	20131
2026-01-03 12:19:57.33	163.59	22.95	-60.7	-63.4	6.2	0.00e+00	0	39	104	0	87	20056
2026-01-03 12:20:00.33	164.18	22.42	-60.7	-63.4	6.2	0.00e+00	0	39	104	0	87	20077
2026-01-03 12:20:03.33	164.76	21.90	-60.7	-63.4	6.2	0.00e+00	0	39	104	0	87	20009
2026-01-03 12:20:06.31	165.31	21.40	-60.7	-63.4	6.2	0.00e+00	0	39	104	0	87	19965
2026-01-03 12:20:09.31	165.84	20.90	-60.7	-63.3	6.2	0.00e+00	0	39	104	0	87	19889
2026-01-03 12:20:12.31	166.35	20.42	-60.6	-63.4	6.2	0.00e+00	0	39	104	0	87	19940
2026-01-03 12:20:15.30	166.85	19.94	-60.6	-63.3	6.2	0.00e+00	0	39	104	0	87	19844
2026-01-03 12:20:18.32	167.33	19.47	-60.6	-63.3	6.2	0.00e+00	0	39	104	0	87	19823
2026-01-03 12:20:21.31	167.80	19.01	-60.6	-63.3	6.2	0.00e+00	0	39	104	0	87	19809
2026-01-03 12:20:24.31	168.25	18.56	-60.6	-63.3	6.2	0.00e+00	0	39	104	0	87	19746
2026-01-03 12:20:27.32	168.69	18.12	-60.5	-63.3	6.2	0.00e+00	0	39	104	0	87	19766
2026-01-03 12:20:30.31	169.11	17.68	-60.5	-63.2	6.2	0.00e+00	0	39	104	0	87	19677
2026-01-03 12:20:33.30	169.51	17.26	-60.5	-63.2	6.2	0.00e+00	0	39	104	0	87	19655
2026-01-03 12:20:36.31	169.91	16.84	-60.5	-63.2	6.2	0.00e+00	0	39	104	0	87	19570
2026-01-03 12:20:39.31	170.30	16.43	-60.5	-63.2	6.2	0.00e+00	0	39	104	0	87	19522
2026-01-03 12:20:42.30	170.67	16.03	-60.5	-63.2	6.2	0.00e+00	0	39	104	0	87	19523
2026-01-03 12:20:45.31	171.03	15.64	-60.5	-63.2	6.2	0.00e+00	0	39	104	0	87	19516
2026-01-03 12:20:48.32	171.38	15.25	-60.4	-63.1	6.2	0.00e+00	0	39	104	0	87	19407
2026-01-03 12:20:51.31	171.72	14.87	-60.4	-63.1	6.2	0.00e+00	0	39	104	0	87	19447
2026-01-03 12:20:54.31	172.05	14.49	-60.4	-63.1	6.2	0.00e+00	0	39	104	0	87	19363
2026-01-03 12:20:57.30	172.38	14.13	-60.4	-63.1	6.2	0.00e+00	0	39	104	0	87	19310
2026-01-03 12:21:00.30	172.69	13.77	-60.4	-63.1	6.2	0.00e+00	0	39	104	0	87	19300
2026-01-03 12:21:03.30	173.00	13.41	-60.3	-63.0	6.2	0.00e+00	0	39	104	0	87	19256
2026-01-03 12:21:06.29	173.29	13.06	-60.3	-63.0	6.2	0.00e+00	0	39	104	0	87	19182
2026-01-03 12:21:09.28	173.58	12.72	-60.3	-63.0	6.2	0.00e+00	0	39	104	0	87	19220
2026-01-03 12:21:12.28	173.86	12.38	-60.3	-63.0	6.2	0.00e+00	0	39	104	0	87	19129
2026-01-03 12:21:15.28	174.14	12.05	-60.3	-63.0	6.2	0.00e+00	0	39	104	0	87	19093
2026-01-03 12:21:18.28	174.40	11.72	-60.2	-62.9	6.2	0.00e+00	0	39	104	0	87	19011
2026-01-03 12:21:21.28	174.66	11.40	-60.2	-62.9	6.2	0.00e+00	0	39	104	0	87	18973
2026-01-03 12:21:24.30	174.92	11.08	-60.2	-62.9	6.2	0.00e+00	0	39	104	0	87	18844
2026-01-03 12:21:27.29	175.17	10.77	-60.2	-62.9	6.2	0.00e+00	0	39	104	0	87	18832
2026-01-03 12:21:30.28	175.41	10.47	-60.1	-62.8	6.2	0.00e+00	0	39	104	0	87	18774
2026-01-03 12:21:33.28	175.65	10.16	-60.1	-62.8	6.2	0.00e+00	0	39	104	0	87	18750
2026-01-03 12:21:36.27	175.88	9.87	-60.1	-62.8	6.2	0.00e+00	0	39	104	0	87	18706
2026-01-03 12:21:39.28	176.10	9.57	-60.1	-62.8	6.2	0.00e+00	0	39	104	0	87	18665
2026-01-03 12:21:42.27	176.32	9.28	-60.0	-62.7	6.2	0.00e+00	0	39	104	0	86	19677
2026-01-03 12:21:45.28	176.54	9.00	-60.0	-62.7	6.2	0.00e+00	0	39	104	0	86	19691
2026-01-03 12:21:48.29	176.75	8.71	-60.0	-62.7	6.2	0.00e+00	0	39	104	0	86	19636
2026-01-03 12:21:51.28	176.96	8.44	-60.0	-62.7	6.2	0.00e+00	0	39	104	0	86	19620
2026-01-03 12:21:54.28	177.16	8.16	-60.0	-62.6	6.2	0.00e+00	0	39	104	0	86	19458
2026-01-03 12:21:57.28	177.36	7.89	-60.0	-62.6	6.2	0.00e+00	0	39	104	0	86	19460
2026-01-03 12:22:00.28	177.55	7.63	-59.9	-62.6	6.2	0.00e+00	0	39	104	0	86	19348
2026-01-03 12:22:03.26	177.74	7.36	-59.9	-62.6	6.2	0.00e+00	0	39	104	0	86	19366
2026-01-03 12:22:06.25	177.92	7.10	-59.8	-62.5	6.2	0.00e+00	0	39	104	0	86	19123
2026-01-03 12:22:09.23	178.10	6.85	-59.8	-62.5	6.2	0.00e+00	0	39	104	0	86	19211
2026-01-03 12:22:12.25	178.28	6.59	-59.8	-62.5	6.2	0.00e+00	0	39	104	0	86	19065
2026-01-03 12:22:15.27	178.46	6.34	-59.8	-62.5	6.2	0.00e+00	0	39	104	0	86	19037
2026-01-03 12:22:18.26	178.63	6.09	-59.7	-62.4	6.2	0.00e+00	0	39	104	0	86	18832
2026-01-03 12:22:21.26	178.80	5.85	-59.7	-62.4	6.2	0.00e+00	0	39	104	0	86	18873
2026-01-03 12:22:24.27	178.96	5.61	-59.5	-62.3	6.2	0.00e+00	0	39	104	0	85	19713
2026-01-03 12:22:27.27	179.12	5.37	-59.6	-62.3	6.2	0.00e+00	0	39	104	0	85	19741
2026-01-03 12:22:30.27	179.28	5.13	-59.5	-62.2	6.2	0.00e+00	0	39	104	0	85	19504
2026-01-03 12:22:33.27	179.44	4.90	-60.4	-63.1	6.2	0.00e+00	0	39	104	0	86	20456
2026-01-03 12:22:36.27	179.59	4.66	-61.0	-63.7	6.2	0.00e+00	0	39	104	0	87	20831
2026-01-03 12:22:39.28	179.74	4.43	-61.3	-64.0	6.2	0.00e+00	0	39	104	0	88	20314
2026-01-03 12:22:42.27	179.89	4.21	-61.5	-64.2	6.2	0.00e+00	0	39	104	0	88	20814
2026-01-03 12:22:45.29	180.03	3.98	-61.6	-64.4	6.2	0.00e+00	0	39	104	0	88	21160
2026-01-03 12:22:48.30	180.18	3.76	-61.7	-64.4	6.2	0.00e+00	0	39	104	0	88	21346
2026-01-03 12:22:51.30	180.32	3.54	-61.8	-64.5	6.2	0.00e+00	0	39	104	0	88	21390
2026-01-03 12:22:54.30	180.45	3.32	-61.8	-64.5	6.2	0.00e+00	0	39	104	0	88	21420
2026-01-03 12:22:57.30	180.59	3.11	-61.7	-64.4	6.2	0.00e+00	0	39	104	0	88	21265
2026-01-03 12:23:00.30	180.72	2.89	-61.7	-64.4	6.2	0.00e+00	0	39	104	0	88	21206
2026-01-03 12:23:03.29	180.85	2.68	-61.7	-64.4	6.2	0.00e+00	0	39	104	0	88	21183
2026-01-03 12:23:06.29	180.98	2.47	-61.7	-64.4	6.2	0.00e+00	0	39	104	0	88	21171
2026-01-03 12:23:09.29	181.11	2.27	-61.6	-64.3	6.2	0.00e+00	0	39	104	0	88	21103
2026-01-03 12:23:12.28	181.23	2.06	-61.6	-64.3	6.2	0.00e+00	0	39	104	0	88	21036

#Closed at: 2026-01-03 12:23:13
#Recorded file [0 MB]: D:/lorett/data/31004_260103_151236.dat