passes_logs/2026/01/03/R3.2S_Murmansk/R3.2S_Murmansk__20260103_045544_SUOMI_NPP_rec.log

#Pass ID: 20260103_045544_SUOMI NPP
#Satellite: SUOMI NPP
#Configuration: NPP
#almurnet v.1.7.20251203
#Start time: 2026-01-03 04:55:44

#Version: 2.2.20231116
#Station: R3.2S_Murmansk
#Location: 33.079688 lon 68.888172 lat
#TLE: 1 37849U 11061A   26001.07732418  .00000182  00000+0  10735-3 0  9990
#TLE: 2 37849  98.7795 303.2470 0002580  87.2016 272.9455 14.19520779734739

#Time	Az	El	Level	Level2	SNR	BER	BlckErr	Temp	State	Recorded	gain1	gain2
2026-01-03 04:55:44.52	57.80	1.99	-59.7	-75.3	3.8	1.49e+00	0	29	0	0	85	21842
2026-01-03 04:55:48.53	57.54	2.22	-59.7	-75.3	3.8	1.49e+00	0	29	104	0	84	23123
2026-01-03 04:55:52.54	57.28	2.45	-59.7	-75.3	3.8	1.49e+00	0	29	104	0	84	23087
2026-01-03 04:55:56.54	57.02	2.68	-59.7	-75.3	3.8	1.49e+00	0	29	104	0	84	23072
2026-01-03 04:56:00.54	56.75	2.91	-59.7	-75.3	3.8	1.49e+00	0	29	104	0	84	23078
2026-01-03 04:56:04.55	56.48	3.14	-59.7	-75.3	3.8	1.49e+00	0	29	104	0	84	23144
2026-01-03 04:56:08.55	56.20	3.37	-59.7	-75.3	3.8	1.49e+00	0	29	104	0	84	23115
2026-01-03 04:56:12.56	55.92	3.61	-59.7	-75.3	3.8	1.49e+00	0	29	104	0	84	23110
2026-01-03 04:56:16.57	55.63	3.85	-59.7	-75.2	3.8	1.49e+00	0	29	104	0	84	22789
2026-01-03 04:56:20.56	55.34	4.08	-59.7	-75.3	3.8	1.49e+00	0	30	104	0	84	23139
2026-01-03 04:56:24.57	55.04	4.32	-59.7	-74.0	3.8	1.49e+00	0	30	104	0	84	19894
2026-01-03 04:56:28.56	54.74	4.56	-59.5	-70.6	4.6	1.13e+00	0	30	0	1048576	84	13475
2026-01-03 04:56:32.56	54.43	4.81	-59.1	-67.8	6.1	3.20e-01	0	30	0	8388608	84	9747
2026-01-03 04:56:36.55	54.12	5.05	-58.9	-66.2	7.4	1.87e-01	0	30	0	15728640	84	8120
2026-01-03 04:56:40.53	53.80	5.29	-59.0	-67.4	6.5	3.05e-05	0	30	0	23068672	83	9903
2026-01-03 04:56:44.53	53.48	5.54	-56.2	-59.3	12.8	0.00e+00	0	30	0	29360128	79	4900
2026-01-03 04:56:48.52	53.15	5.78	-56.2	-59.3	12.8	0.00e+00	0	30	0	36700160	78	5174
2026-01-03 04:56:52.52	52.81	6.03	-55.8	-58.5	13.4	0.00e+00	0	30	0	44040192	78	4749
2026-01-03 04:56:56.52	52.47	6.28	-56.0	-58.8	13.2	0.00e+00	0	30	0	51380224	78	4906
2026-01-03 04:57:00.53	52.12	6.54	-56.0	-58.9	13.1	0.00e+00	0	30	0	59768832	78	4978
2026-01-03 04:57:04.52	51.77	6.79	-56.2	-59.2	12.9	0.00e+00	0	30	0	67108864	78	5147
2026-01-03 04:57:08.54	51.41	7.04	-56.2	-59.3	12.9	0.00e+00	0	30	0	74448896	78	5216
2026-01-03 04:57:12.53	51.04	7.30	-56.0	-59.1	13.1	7.00e-07	0	30	0	81788928	78	5048
2026-01-03 04:57:16.52	50.67	7.56	-55.9	-58.7	13.3	0.00e+00	0	30	0	89128960	78	4863
2026-01-03 04:57:20.53	50.28	7.82	-55.7	-58.4	13.4	0.00e+00	0	30	0	96468992	77	4950
2026-01-03 04:57:24.52	49.90	8.07	-55.5	-58.1	13.6	0.00e+00	0	30	0	104857600	77	4782
2026-01-03 04:57:28.53	49.50	8.34	-55.5	-58.1	13.7	0.00e+00	0	30	0	112197632	77	4792
2026-01-03 04:57:32.52	49.10	8.60	-55.4	-57.8	13.8	0.00e+00	0	30	0	119537664	77	4645
2026-01-03 04:57:36.50	48.69	8.86	-55.5	-58.0	13.8	0.00e+00	0	30	0	126877696	77	4721
2026-01-03 04:57:40.49	48.27	9.13	-55.4	-57.7	13.9	0.00e+00	0	31	0	134217728	77	4594
2026-01-03 04:57:44.48	47.85	9.39	-55.5	-58.0	13.8	0.00e+00	0	30	0	141557760	77	4723
2026-01-03 04:57:48.47	47.42	9.66	-55.6	-58.0	13.8	0.00e+00	0	31	0	148897792	77	4733
2026-01-03 04:57:52.48	46.97	9.93	-55.6	-58.1	13.7	0.00e+00	0	30	0	157286400	77	4774
2026-01-03 04:57:56.48	46.52	10.20	-55.6	-58.1	13.8	0.00e+00	0	30	0	164626432	77	4765
2026-01-03 04:58:00.49	46.06	10.47	-55.6	-58.0	13.8	0.00e+00	0	30	0	171966464	77	4739
2026-01-03 04:58:04.50	45.59	10.75	-55.5	-57.8	13.9	0.00e+00	0	31	0	179306496	77	4624
2026-01-03 04:58:08.49	45.11	11.02	-55.5	-57.8	13.9	0.00e+00	0	31	0	186646528	77	4645
2026-01-03 04:58:12.48	44.63	11.30	-55.1	-57.3	14.2	0.00e+00	0	31	0	193986560	76	4637
2026-01-03 04:58:16.48	44.13	11.57	-54.9	-56.9	14.4	0.00e+00	0	31	0	201326592	76	4424
2026-01-03 04:58:20.48	43.63	11.85	-55.0	-57.1	14.3	0.00e+00	0	31	0	209715200	76	4514
2026-01-03 04:58:24.49	43.11	12.13	-54.7	-56.6	14.5	0.00e+00	0	31	0	217055232	76	4289
2026-01-03 04:58:28.47	42.59	12.41	-54.6	-56.6	14.5	0.00e+00	0	30	0	224395264	75	4511
2026-01-03 04:58:32.45	42.05	12.68	-54.5	-56.4	14.6	0.00e+00	0	30	0	231735296	75	4411
2026-01-03 04:58:36.44	41.51	12.96	-54.6	-56.6	14.5	0.00e+00	0	31	0	239075328	75	4530
2026-01-03 04:58:40.44	40.95	13.24	-54.3	-56.2	14.6	0.00e+00	0	31	0	246415360	75	4324
2026-01-03 04:58:44.43	40.38	13.53	-54.6	-56.7	14.5	0.00e+00	0	31	0	253755392	75	4580
2026-01-03 04:58:48.41	39.81	13.81	-54.6	-56.7	14.4	0.00e+00	0	31	0	262144000	75	4576
2026-01-03 04:58:52.40	39.22	14.09	-55.0	-57.5	14.0	0.00e+00	0	31	0	269484032	75	4986
2026-01-03 04:58:56.41	38.61	14.37	-54.8	-56.9	14.3	0.00e+00	0	31	0	276824064	75	4695
2026-01-03 04:59:00.42	38.00	14.65	-54.8	-56.9	14.3	0.00e+00	0	31	0	284164096	75	4673
2026-01-03 04:59:04.42	37.37	14.93	-54.6	-56.7	14.4	0.00e+00	0	31	0	291504128	75	4558
2026-01-03 04:59:08.41	36.74	15.22	-55.1	-57.4	14.0	0.00e+00	0	31	0	298844160	75	4930
2026-01-03 04:59:12.41	36.09	15.50	-55.1	-57.3	14.1	0.00e+00	0	31	0	306184192	76	4617
2026-01-03 04:59:16.41	35.42	15.78	-55.0	-57.2	14.2	0.00e+00	0	31	0	314572800	76	4574
2026-01-03 04:59:20.42	34.75	16.06	-55.1	-57.3	14.2	0.00e+00	0	31	0	321912832	76	4604
2026-01-03 04:59:24.41	34.06	16.34	-55.1	-57.3	14.1	0.00e+00	0	31	0	329252864	76	4630
2026-01-03 04:59:28.41	33.36	16.61	-54.7	-56.8	14.3	0.00e+00	0	31	0	336592896	75	4599
2026-01-03 04:59:32.41	32.64	16.89	-55.0	-57.3	14.1	0.00e+00	0	31	0	343932928	75	4882
2026-01-03 04:59:36.41	31.91	17.17	-55.1	-57.4	14.0	0.00e+00	0	31	0	351272960	75	4967
2026-01-03 04:59:40.40	31.17	17.44	-54.9	-57.1	14.2	0.00e+00	0	31	0	358612992	75	4772
2026-01-03 04:59:44.38	30.42	17.71	-54.5	-56.4	14.6	0.00e+00	0	31	0	367001600	75	4423
2026-01-03 04:59:48.37	29.65	17.98	-54.4	-56.4	14.6	0.00e+00	0	31	0	374341632	75	4392
2026-01-03 04:59:52.39	28.87	18.24	-53.9	-55.8	14.8	0.00e+00	0	31	0	381681664	74	4390
2026-01-03 04:59:56.38	28.07	18.51	-53.4	-55.1	15.0	0.00e+00	0	31	0	389021696	73	4272
2026-01-03 05:00:00.39	27.26	18.77	-53.4	-55.1	14.9	0.00e+00	0	31	0	396361728	72	4539
2026-01-03 05:00:04.39	26.43	19.02	-53.4	-55.0	14.9	0.00e+00	0	31	0	403701760	72	4464
2026-01-03 05:00:08.39	25.59	19.28	-53.2	-54.7	15.1	0.00e+00	0	31	0	412090368	72	4319
2026-01-03 05:00:12.40	24.74	19.53	-53.2	-54.8	15.1	0.00e+00	0	31	0	419430400	72	4364
2026-01-03 05:00:16.39	23.87	19.77	-53.5	-55.2	14.9	0.00e+00	0	31	0	426770432	72	4566
2026-01-03 05:00:20.41	22.98	20.01	-53.1	-54.7	15.1	0.00e+00	0	31	0	434110464	72	4323
2026-01-03 05:00:24.41	22.09	20.25	-53.1	-54.6	15.2	0.00e+00	0	31	0	441450496	72	4274
2026-01-03 05:00:28.41	21.18	20.48	-53.3	-54.8	15.1	0.00e+00	0	31	0	448790528	72	4348
2026-01-03 05:00:32.41	20.26	20.70	-53.0	-54.4	15.3	0.00e+00	0	31	0	457179136	72	4171
2026-01-03 05:00:36.40	19.32	20.92	-52.9	-54.4	15.3	0.00e+00	0	31	0	464519168	72	4153
2026-01-03 05:00:40.39	18.37	21.13	-52.9	-54.2	15.4	0.00e+00	0	31	0	471859200	72	4088
2026-01-03 05:00:44.38	17.41	21.33	-52.5	-53.8	15.5	0.00e+00	0	30	0	479199232	71	4117
2026-01-03 05:00:48.38	16.44	21.53	-52.6	-53.9	15.4	0.00e+00	0	31	0	486539264	71	4156
2026-01-03 05:00:52.38	15.45	21.72	-52.9	-54.2	15.3	0.00e+00	0	30	0	493879296	71	4315
2026-01-03 05:00:56.36	14.45	21.90	-52.9	-54.2	15.3	0.00e+00	0	31	0	501219328	71	4320
2026-01-03 05:01:00.35	13.45	22.07	-52.9	-54.2	15.3	0.00e+00	0	31	0	508559360	71	4338
2026-01-03 05:01:04.35	12.42	22.24	-52.6	-53.8	15.5	0.00e+00	0	31	0	516947968	71	4139
2026-01-03 05:01:08.34	11.39	22.40	-52.6	-53.9	15.4	0.00e+00	0	31	0	524288000	71	4160
2026-01-03 05:01:12.34	10.35	22.54	-53.1	-54.4	15.3	0.00e+00	0	31	0	531628032	71	4423
2026-01-03 05:01:16.35	9.29	22.68	-54.0	-55.6	14.9	0.00e+00	0	31	0	538968064	73	4512
2026-01-03 05:01:20.34	8.23	22.81	-55.0	-57.0	14.4	0.00e+00	0	31	0	546308096	75	4723
2026-01-03 05:01:24.35	7.16	22.93	-54.2	-55.9	14.8	0.00e+00	0	31	0	553648128	74	4423
2026-01-03 05:01:28.35	6.08	23.04	-54.0	-55.7	14.9	0.00e+00	0	31	0	562036736	74	4315
2026-01-03 05:01:32.33	5.00	23.13	-53.7	-55.3	15.0	0.00e+00	0	31	0	569376768	73	4360
2026-01-03 05:01:36.34	3.90	23.22	-54.2	-56.0	14.7	0.00e+00	0	31	0	576716800	73	4757
2026-01-03 05:01:40.32	2.81	23.29	-54.4	-56.2	14.7	0.00e+00	0	31	0	584056832	74	4575
2026-01-03 05:01:44.31	1.71	23.36	-54.4	-56.3	14.6	0.00e+00	0	31	0	591396864	74	4610
2026-01-03 05:01:48.31	0.60	23.41	-54.7	-56.7	14.5	0.00e+00	0	31	0	598736896	74	4826
2026-01-03 05:01:52.29	359.50	23.45	-55.0	-57.1	14.3	0.00e+00	0	31	0	606076928	75	4806
2026-01-03 05:01:56.28	358.39	23.48	-55.2	-57.6	14.1	0.00e+00	0	31	0	613416960	75	5049
2026-01-03 05:02:00.27	357.27	23.50	-53.8	-55.4	15.0	0.00e+00	0	31	0	621805568	74	4179
2026-01-03 05:02:04.30	356.15	23.50	-54.4	-56.4	14.5	0.00e+00	0	31	0	629145600	73	4929
2026-01-03 05:02:08.29	355.04	23.50	-53.9	-55.6	14.9	0.00e+00	0	31	0	636485632	74	4289
2026-01-03 05:02:12.29	353.92	23.48	-54.3	-56.2	14.7	0.00e+00	0	31	0	643825664	74	4548
2026-01-03 05:02:16.29	352.81	23.45	-53.8	-55.5	14.9	0.00e+00	0	31	0	651165696	73	4451
2026-01-03 05:02:20.28	351.70	23.41	-53.2	-54.7	15.2	0.00e+00	0	31	0	658505728	72	4293
2026-01-03 05:02:24.29	350.59	23.36	-53.9	-55.6	15.0	0.00e+00	0	31	0	666894336	73	4498
2026-01-03 05:02:28.29	349.49	23.29	-52.7	-53.9	15.5	0.00e+00	0	31	0	674234368	72	3946
2026-01-03 05:02:32.31	348.38	23.22	-53.0	-54.3	15.4	0.00e+00	0	31	0	681574400	72	4129
2026-01-03 05:02:36.29	347.29	23.13	-52.5	-53.7	15.5	0.00e+00	0	31	0	688914432	71	4087
2026-01-03 05:02:40.27	346.21	23.04	-52.8	-54.0	15.4	0.00e+00	0	31	0	696254464	71	4219
2026-01-03 05:02:44.26	345.14	22.93	-53.3	-54.6	15.2	0.00e+00	0	31	0	703594496	72	4264
2026-01-03 05:02:48.26	344.06	22.81	-53.0	-54.3	15.4	0.00e+00	0	31	0	710934528	72	4118
2026-01-03 05:02:52.25	343.00	22.68	-53.1	-54.4	15.3	0.00e+00	0	31	0	719323136	71	4401
2026-01-03 05:02:56.23	341.96	22.55	-53.7	-55.2	15.1	0.00e+00	0	31	0	726663168	73	4312
2026-01-03 05:03:00.23	340.91	22.40	-53.3	-54.7	15.2	0.00e+00	0	31	0	734003200	72	4316
2026-01-03 05:03:04.24	339.87	22.24	-53.6	-55.1	15.1	0.00e+00	0	31	0	741343232	72	4533
2026-01-03 05:03:08.23	338.85	22.08	-54.1	-55.8	14.9	0.00e+00	0	31	0	748683264	73	4624
2026-01-03 05:03:12.23	337.84	21.90	-54.6	-56.5	14.6	0.00e+00	0	31	0	756023296	74	4737
2026-01-03 05:03:16.21	336.85	21.72	-54.2	-55.9	14.8	0.00e+00	0	31	0	763363328	74	4435
2026-01-03 05:03:20.22	335.86	21.53	-54.1	-55.9	14.8	0.00e+00	0	31	0	771751936	74	4411
2026-01-03 05:03:24.22	334.88	21.34	-53.6	-55.2	15.1	0.00e+00	0	31	0	779091968	73	4313
2026-01-03 05:03:28.22	333.92	21.13	-53.6	-55.2	15.1	0.00e+00	0	31	0	786432000	73	4311
2026-01-03 05:03:32.21	332.97	20.92	-53.9	-55.6	14.8	0.00e+00	0	31	0	793772032	73	4545
2026-01-03 05:03:36.21	332.03	20.70	-54.7	-56.7	14.4	0.00e+00	0	31	0	801112064	74	4833
2026-01-03 05:03:40.20	331.11	20.48	-54.4	-56.3	14.6	0.00e+00	0	31	0	808452096	74	4609
2026-01-03 05:03:44.18	330.20	20.25	-55.7	-58.4	13.7	0.00e+00	0	31	0	815792128	76	5239
2026-01-03 05:03:48.17	329.31	20.02	-55.2	-57.5	14.2	0.00e+00	0	31	0	824180736	77	4463
2026-01-03 05:03:52.17	328.43	19.78	-54.2	-56.0	14.8	0.00e+00	0	31	0	831520768	74	4477
2026-01-03 05:03:56.17	327.56	19.53	-53.6	-55.3	15.0	0.00e+00	0	31	0	838860800	73	4374
2026-01-03 05:04:00.17	326.71	19.28	-53.3	-54.8	15.2	0.00e+00	0	31	0	846200832	73	4111
2026-01-03 05:04:04.17	325.87	19.03	-52.9	-54.3	15.3	0.00e+00	0	31	0	853540864	72	4108
2026-01-03 05:04:08.19	325.03	18.77	-53.0	-54.5	15.1	0.00e+00	0	31	0	860880896	71	4481
2026-01-03 05:04:12.18	324.23	18.51	-54.4	-56.5	14.5	0.00e+00	0	31	0	868220928	74	4713
2026-01-03 05:04:16.18	323.43	18.25	-54.6	-56.7	14.3	0.00e+00	0	31	0	876609536	74	4852
2026-01-03 05:04:20.18	322.64	17.98	-53.8	-55.5	14.9	0.00e+00	0	31	0	883949568	74	4236
2026-01-03 05:04:24.17	321.87	17.72	-53.4	-55.0	15.1	0.00e+00	0	31	0	891289600	73	4197
2026-01-03 05:04:28.18	321.12	17.44	-53.4	-55.0	15.0	0.00e+00	0	31	0	898629632	72	4478
2026-01-03 05:04:32.18	320.37	17.17	-54.4	-56.4	14.5	0.00e+00	0	31	0	905969664	74	4668
2026-01-03 05:04:36.18	319.65	16.90	-54.1	-55.9	14.8	0.00e+00	0	31	0	913309696	74	4436
2026-01-03 05:04:40.18	318.93	16.62	-54.5	-56.4	14.5	0.00e+00	0	31	0	921698304	74	4700
2026-01-03 05:04:44.17	318.23	16.34	-54.2	-56.1	14.7	0.00e+00	0	31	0	929038336	74	4508
2026-01-03 05:04:48.15	317.54	16.07	-53.8	-55.5	15.0	0.00e+00	0	31	0	936378368	74	4213
2026-01-03 05:04:52.14	316.87	15.79	-53.6	-55.2	15.0	0.00e+00	0	31	0	943718400	73	4307
2026-01-03 05:04:56.16	316.20	15.50	-53.5	-55.0	15.1	0.00e+00	0	31	0	951058432	73	4217
2026-01-03 05:05:00.15	315.55	15.22	-52.9	-54.2	15.3	0.00e+00	0	31	0	958398464	72	4083
2026-01-03 05:05:04.15	314.91	14.94	-53.0	-54.3	15.3	0.00e+00	0	31	0	965738496	71	4377
2026-01-03 05:05:08.15	314.29	14.66	-53.4	-54.8	15.1	0.00e+00	0	31	0	974127104	72	4354
2026-01-03 05:05:12.14	313.67	14.38	-53.5	-54.9	15.1	0.00e+00	0	31	0	981467136	72	4409
2026-01-03 05:05:16.15	313.07	14.10	-52.8	-54.1	15.4	0.00e+00	0	31	0	988807168	72	4008
2026-01-03 05:05:20.14	312.48	13.81	-53.2	-54.5	15.2	0.00e+00	0	31	0	996147200	72	4234
2026-01-03 05:05:24.13	311.90	13.53	-53.8	-55.4	14.9	0.00e+00	0	31	0	1003487232	73	4413
2026-01-03 05:05:28.13	311.33	13.25	-53.9	-55.5	14.9	0.00e+00	0	31	0	1010827264	73	4488
2026-01-03 05:05:32.14	310.77	12.97	-53.6	-55.0	15.0	0.00e+00	0	31	0	1018167296	73	4239
2026-01-03 05:05:36.16	310.22	12.69	-53.0	-54.2	15.3	0.00e+00	0	31	0	1026555904	72	4093
2026-01-03 05:05:40.15	309.69	12.41	-53.4	-54.8	15.1	0.00e+00	0	31	0	1033895936	72	4373
2026-01-03 05:05:44.13	309.16	12.13	-54.6	-56.4	14.5	0.00e+00	0	31	0	1041235968	74	4668
2026-01-03 05:05:48.15	308.65	11.85	-54.3	-55.9	14.8	0.00e+00	0	31	0	1048576000	74	4438
2026-01-03 05:05:52.14	308.14	11.58	-53.7	-55.2	15.1	0.00e+00	0	31	0	1055916032	74	4085
2026-01-03 05:05:56.13	307.65	11.30	-54.0	-55.5	14.8	0.00e+00	0	31	0	1063256064	73	4485
2026-01-03 05:06:00.12	307.16	11.03	-54.0	-55.7	14.8	0.00e+00	0	31	0	1071644672	73	4550
2026-01-03 05:06:04.11	306.68	10.75	-54.1	-55.8	14.7	0.00e+00	0	31	0	1078984704	73	4617
2026-01-03 05:06:08.12	306.21	10.48	-54.7	-56.5	14.4	0.00e+00	0	31	0	1086324736	74	4750
2026-01-03 05:06:12.11	305.75	10.21	-54.7	-56.6	14.4	0.00e+00	0	31	0	1093664768	75	4542
2026-01-03 05:06:16.12	305.30	9.94	-54.8	-56.8	14.4	0.00e+00	0	31	0	1101004800	75	4602
2026-01-03 05:06:20.11	304.86	9.67	-55.3	-57.6	13.9	0.00e+00	0	31	0	1108344832	75	5079
2026-01-03 05:06:24.11	304.43	9.40	-55.7	-58.1	13.7	0.00e+00	0	31	0	1115684864	76	5073
2026-01-03 05:06:28.10	304.00	9.13	-55.1	-57.1	14.3	0.00e+00	0	31	0	1123024896	76	4513
2026-01-03 05:06:32.08	303.58	8.87	-54.5	-56.3	14.5	0.00e+00	0	31	0	1131413504	75	4370
2026-01-03 05:06:36.08	303.17	8.60	-54.8	-56.7	14.3	0.00e+00	0	31	0	1138753536	75	4586
2026-01-03 05:06:40.07	302.77	8.34	-55.1	-57.1	14.1	0.00e+00	0	31	0	1146093568	75	4804
2026-01-03 05:06:44.06	302.38	8.08	-54.9	-56.9	14.3	0.00e+00	0	31	0	1153433600	75	4655
2026-01-03 05:06:48.06	301.99	7.82	-54.7	-56.6	14.4	0.00e+00	0	31	0	1160773632	75	4530
2026-01-03 05:06:52.05	301.61	7.56	-54.6	-56.5	14.4	0.00e+00	0	31	0	1168113664	75	4465
2026-01-03 05:06:56.04	301.23	7.31	-54.7	-56.6	14.4	0.00e+00	0	31	0	1175453696	75	4525
2026-01-03 05:07:00.03	300.87	7.05	-55.1	-57.2	14.0	0.00e+00	0	31	0	1183842304	75	4853
2026-01-03 05:07:04.02	300.51	6.80	-55.7	-58.2	13.5	0.00e+00	0	31	0	1191182336	76	5111
2026-01-03 05:07:08.03	300.15	6.54	-56.1	-58.8	13.2	0.00e+00	0	31	0	1198522368	77	5178
2026-01-03 05:07:12.04	299.80	6.29	-56.3	-59.2	12.8	0.00e+00	0	31	0	1205862400	77	5449
2026-01-03 05:07:16.04	299.46	6.04	-56.4	-59.4	12.8	0.00e+00	0	31	0	1213202432	78	5255
2026-01-03 05:07:20.03	299.13	5.79	-56.3	-59.2	13.0	0.00e+00	0	31	0	1220542464	78	5107
2026-01-03 05:07:24.02	298.80	5.54	-56.5	-59.6	12.6	0.00e+00	0	31	0	1228931072	78	5391
2026-01-03 05:07:28.02	298.47	5.30	-56.6	-59.7	12.6	7.00e-07	0	31	0	1236271104	78	5448
2026-01-03 05:07:32.03	298.15	5.05	-56.9	-60.5	12.0	3.00e-06	0	31	0	1243611136	79	5619
2026-01-03 05:07:36.03	297.84	4.81	-61.1	-76.7	3.8	1.49e+00	0	31	104	1244659712	87	22830
2026-01-03 05:07:40.03	297.53	4.57	-61.6	-77.2	3.8	1.49e+00	0	31	104	1244659712	88	23008
2026-01-03 05:07:44.03	297.23	4.33	-62.0	-77.6	3.8	1.49e+00	0	31	104	1244659712	89	22640
2026-01-03 05:07:48.02	296.93	4.09	-62.1	-77.7	3.8	1.49e+00	0	31	104	1244659712	89	22913
2026-01-03 05:07:52.02	296.64	3.85	-62.1	-77.8	3.8	1.49e+00	0	31	104	1244659712	89	23068
2026-01-03 05:07:56.02	296.35	3.62	-62.1	-77.7	3.8	1.49e+00	0	31	104	1244659712	89	22954
2026-01-03 05:08:00.00	296.07	3.38	-62.0	-77.6	3.8	1.49e+00	0	31	104	1244659712	89	22704
2026-01-03 05:08:03.99	295.79	3.15	-61.9	-77.5	3.8	1.49e+00	0	31	104	1244659712	89	22427
2026-01-03 05:08:08.01	295.52	2.91	-61.9	-77.5	3.8	1.49e+00	0	31	104	1244659712	89	22356
2026-01-03 05:08:12.00	295.25	2.68	-61.9	-77.5	3.8	1.49e+00	0	31	104	1244659712	89	22318
2026-01-03 05:08:16.01	294.98	2.45	-61.8	-77.4	3.8	1.49e+00	0	31	104	1244659712	89	22242
2026-01-03 05:08:20.01	294.72	2.23	-61.8	-77.4	3.8	1.49e+00	0	31	104	1244659712	89	22225
2026-01-03 05:08:24.00	294.47	2.00	-61.8	-77.4	3.8	1.49e+00	0	31	104	1244659712	89	22177

#Closed at: 2026-01-03 05:08:25
#Recorded file [1244 MB]: D:/lorett/data/31004_260103_075544.dat