passes_logs/2026/01/03/R3.2S_Murmansk/R3.2S_Murmansk__20260103_010644_NOAA_21_JPSS-2_rec.log

#Pass ID: 20260103_010644_NOAA 21 (JPSS-2)
#Satellite: NOAA 21 (JPSS-2)
#Configuration: NOAA-21
#almurnet v.1.7.20251203
#Start time: 2026-01-03 01:06:43

#Version: 2.2.20231116
#Station: R3.2S_Murmansk
#Location: 33.079688 lon 68.888172 lat
#TLE: 1 54234U 22150A   26002.74826289  .00000196  00000+0  11365-3 0  9998
#TLE: 2 54234  98.7486 303.7970 0001197 349.3858  10.7292 14.19531423163070

#Time	Az	El	Level	Level2	SNR	BER	BlckErr	Temp	State	Recorded	gain1	gain2
2026-01-03 01:06:43.82	26.23	1.98	-59.7	-73.0	3.8	1.49e+00	0	29	0	0	85	16854
2026-01-03 01:06:47.81	26.20	2.24	-59.7	-73.0	3.8	1.49e+00	0	29	104	0	84	17782
2026-01-03 01:06:51.81	26.17	2.49	-59.7	-73.0	3.8	1.49e+00	0	29	104	0	84	17886
2026-01-03 01:06:55.82	26.14	2.76	-59.7	-73.0	3.8	1.49e+00	0	29	104	0	84	17801
2026-01-03 01:06:59.81	26.10	3.02	-59.7	-72.8	3.8	1.49e+00	0	29	104	0	84	17295
2026-01-03 01:07:03.79	26.07	3.28	-59.7	-72.6	3.8	1.49e+00	0	30	104	0	84	16999
2026-01-03 01:07:07.77	26.04	3.55	-59.7	-73.0	3.8	1.49e+00	0	30	104	0	84	17779
2026-01-03 01:07:11.75	26.00	3.82	-59.6	-71.7	3.8	1.49e+00	0	30	104	0	84	15262
2026-01-03 01:07:15.75	25.96	4.09	-58.7	-64.7	6.7	2.00e-01	0	30	0	4194304	84	6870
2026-01-03 01:07:19.72	25.93	4.36	-57.4	-61.4	9.4	6.39e-03	0	30	0	16777216	81	5539
2026-01-03 01:07:23.71	25.89	4.64	-56.7	-59.8	10.8	3.98e-04	0	30	0	29360128	79	5164
2026-01-03 01:07:27.69	25.85	4.92	-57.1	-60.6	10.1	1.68e-03	0	30	0	41943040	79	5689
2026-01-03 01:07:31.68	25.81	5.21	-58.3	-63.6	7.7	4.69e-03	0	30	0	54525952	81	7180
2026-01-03 01:07:35.68	25.77	5.49	-53.9	-55.4	13.8	0.00e+00	0	30	0	67108864	74	4176
2026-01-03 01:07:39.66	25.72	5.78	-53.6	-55.0	14.0	0.00e+00	0	30	0	79691776	73	4238
2026-01-03 01:07:43.67	25.68	6.08	-53.5	-54.8	14.1	0.00e+00	0	30	0	92274688	73	4122
2026-01-03 01:07:47.66	25.63	6.38	-53.3	-54.6	14.2	0.00e+00	0	30	0	103809024	73	4041
2026-01-03 01:07:51.66	25.59	6.68	-53.4	-54.6	14.3	0.00e+00	0	30	0	116391936	73	4047
2026-01-03 01:07:55.66	25.54	6.98	-53.3	-54.5	14.3	0.00e+00	0	30	0	128974848	73	3995
2026-01-03 01:07:59.66	25.49	7.29	-53.2	-54.5	14.3	0.00e+00	0	31	0	141557760	72	4205
2026-01-03 01:08:03.65	25.44	7.60	-52.9	-54.1	14.5	0.00e+00	0	31	0	154140672	72	4034
2026-01-03 01:08:07.63	25.39	7.91	-52.9	-54.0	14.6	0.00e+00	0	31	0	166723584	72	3999
2026-01-03 01:08:11.64	25.33	8.23	-52.9	-54.0	14.6	0.00e+00	0	31	0	179306496	72	4000
2026-01-03 01:08:15.64	25.28	8.56	-52.7	-53.8	14.7	0.00e+00	0	30	0	191889408	72	3886
2026-01-03 01:08:19.63	25.22	8.88	-52.6	-53.6	14.7	0.00e+00	0	31	0	204472320	71	4051
2026-01-03 01:08:23.63	25.16	9.22	-52.5	-53.6	14.8	0.00e+00	0	31	0	217055232	71	4014
2026-01-03 01:08:27.62	25.10	9.55	-52.4	-53.4	14.9	0.00e+00	0	31	0	229638144	71	3937
2026-01-03 01:08:31.63	25.04	9.89	-52.3	-53.3	14.9	0.00e+00	0	31	0	242221056	71	3874
2026-01-03 01:08:35.63	24.97	10.24	-52.1	-53.0	15.0	0.00e+00	0	31	0	254803968	70	3997
2026-01-03 01:08:39.64	24.91	10.59	-52.0	-53.0	15.0	0.00e+00	0	31	0	266338304	70	3966
2026-01-03 01:08:43.65	24.84	10.95	-51.9	-52.8	15.1	0.00e+00	0	31	0	278921216	70	3898
2026-01-03 01:08:47.64	24.77	11.31	-51.8	-52.7	15.1	0.00e+00	0	31	0	291504128	70	3862
2026-01-03 01:08:51.65	24.69	11.67	-51.8	-52.7	15.1	0.00e+00	0	31	0	304087040	70	3866
2026-01-03 01:08:55.65	24.62	12.04	-51.6	-52.5	15.1	0.00e+00	0	31	0	316669952	69	3983
2026-01-03 01:08:59.65	24.54	12.42	-51.5	-52.4	15.2	0.00e+00	0	31	0	329252864	69	3944
2026-01-03 01:09:03.67	24.46	12.81	-51.5	-52.4	15.2	0.00e+00	0	31	0	341835776	69	3915
2026-01-03 01:09:07.67	24.38	13.19	-51.5	-52.3	15.3	0.00e+00	0	31	0	354418688	69	3910
2026-01-03 01:09:11.68	24.29	13.59	-51.3	-52.2	15.4	0.00e+00	0	31	0	367001600	69	3844
2026-01-03 01:09:15.69	24.21	13.99	-51.4	-52.3	15.3	0.00e+00	0	31	0	379584512	69	3880
2026-01-03 01:09:19.70	24.12	14.40	-51.3	-52.2	15.3	0.00e+00	0	31	0	392167424	69	3839
2026-01-03 01:09:23.71	24.02	14.82	-51.3	-52.2	15.4	0.00e+00	0	31	0	404750336	69	3837
2026-01-03 01:09:27.72	23.92	15.24	-51.5	-52.3	15.3	0.00e+00	0	31	0	417333248	69	3900
2026-01-03 01:09:31.72	23.82	15.67	-51.5	-52.4	15.3	0.00e+00	0	31	0	429916160	69	3916
2026-01-03 01:09:35.73	23.72	16.11	-51.5	-52.4	15.3	0.00e+00	0	31	0	442499072	69	3943
2026-01-03 01:09:39.72	23.61	16.56	-51.6	-52.5	15.3	0.00e+00	0	31	0	455081984	69	3959
2026-01-03 01:09:43.73	23.50	17.01	-51.7	-52.6	15.2	0.00e+00	0	31	0	466616320	69	4045
2026-01-03 01:09:47.73	23.39	17.47	-51.7	-52.6	15.2	0.00e+00	0	31	0	479199232	69	4047
2026-01-03 01:09:51.74	23.27	17.94	-51.8	-52.7	15.2	0.00e+00	0	31	0	491782144	69	4063
2026-01-03 01:09:55.75	23.15	18.42	-51.8	-52.7	15.2	0.00e+00	0	31	0	504365056	69	4056
2026-01-03 01:09:59.75	23.02	18.91	-51.7	-52.6	15.2	0.00e+00	0	31	0	516947968	69	4035
2026-01-03 01:10:03.77	22.88	19.41	-51.6	-52.5	15.2	0.00e+00	0	31	0	529530880	69	3977
2026-01-03 01:10:07.78	22.75	19.92	-51.6	-52.4	15.3	0.00e+00	0	31	0	542113792	69	3942
2026-01-03 01:10:11.79	22.60	20.45	-51.3	-52.2	15.4	0.00e+00	0	31	0	554696704	69	3840
2026-01-03 01:10:15.81	22.45	20.98	-51.0	-51.8	15.4	0.00e+00	0	31	0	567279616	68	3905
2026-01-03 01:10:19.82	22.30	21.52	-50.8	-51.6	15.6	0.00e+00	0	31	0	579862528	68	3783
2026-01-03 01:10:23.84	22.14	22.08	-50.3	-51.0	15.6	0.00e+00	0	31	0	592445440	67	3776
2026-01-03 01:10:27.84	21.97	22.64	-50.2	-50.9	15.6	0.00e+00	0	31	0	605028352	66	3948
2026-01-03 01:10:31.87	21.80	23.22	-50.1	-50.8	15.7	0.00e+00	0	31	0	617611264	66	3881
2026-01-03 01:10:35.91	21.62	23.82	-50.0	-50.6	15.7	0.00e+00	0	31	0	630194176	66	3824
2026-01-03 01:10:39.92	21.43	24.42	-50.0	-50.7	15.7	0.00e+00	0	31	0	642777088	66	3828
2026-01-03 01:10:43.94	21.23	25.04	-50.3	-51.0	15.6	0.00e+00	0	31	0	655360000	66	3998
2026-01-03 01:10:47.95	21.02	25.68	-50.6	-51.4	15.5	0.00e+00	0	31	0	667942912	66	4159
2026-01-03 01:10:51.97	20.81	26.33	-51.0	-51.8	15.4	0.00e+00	0	31	0	680525824	67	4121
2026-01-03 01:10:55.97	20.59	26.99	-51.3	-52.1	15.3	0.00e+00	0	31	0	693108736	67	4270
2026-01-03 01:10:59.99	20.35	27.67	-51.8	-52.6	15.2	0.00e+00	0	31	0	705691648	68	4281
2026-01-03 01:11:04.02	20.10	28.37	-51.9	-52.8	15.2	0.00e+00	0	31	0	718274560	69	4122
2026-01-03 01:11:08.03	19.85	29.09	-51.9	-52.7	15.2	0.00e+00	0	31	0	730857472	69	4076
2026-01-03 01:11:12.04	19.58	29.82	-51.4	-52.2	15.4	0.00e+00	0	31	0	743440384	69	3855
2026-01-03 01:11:16.07	19.29	30.57	-51.3	-52.1	15.5	0.00e+00	0	31	0	756023296	69	3811
2026-01-03 01:11:20.09	18.99	31.35	-51.1	-51.9	15.4	0.00e+00	0	31	0	768606208	68	3954
2026-01-03 01:11:24.11	18.68	32.14	-51.2	-52.0	15.4	0.00e+00	0	31	0	781189120	68	3979
2026-01-03 01:11:28.13	18.35	32.95	-51.7	-52.5	15.3	0.00e+00	0	31	0	793772032	68	4227
2026-01-03 01:11:32.14	18.00	33.78	-52.0	-52.8	15.2	0.00e+00	0	31	0	806354944	69	4143
2026-01-03 01:11:36.17	17.63	34.64	-52.1	-53.0	15.2	0.00e+00	0	31	0	817889280	69	4207
2026-01-03 01:11:40.19	17.24	35.52	-52.2	-53.1	15.1	0.00e+00	0	31	0	831520768	69	4248
2026-01-03 01:11:44.22	16.83	36.42	-52.4	-53.3	15.1	0.00e+00	0	31	0	843055104	70	4134
2026-01-03 01:11:48.23	16.39	37.34	-52.8	-53.8	15.0	0.00e+00	0	31	0	856686592	71	4122
2026-01-03 01:11:52.24	15.93	38.29	-52.6	-53.5	15.1	0.00e+00	0	31	0	868220928	71	3969
2026-01-03 01:11:56.27	15.44	39.27	-52.9	-53.9	15.0	0.00e+00	0	31	0	880803840	71	4155
2026-01-03 01:12:00.29	14.91	40.26	-53.1	-54.1	14.9	0.00e+00	0	31	0	893386752	71	4265
2026-01-03 01:12:04.31	14.35	41.29	-53.9	-55.1	14.5	0.00e+00	0	31	0	905969664	73	4255
2026-01-03 01:12:08.33	13.76	42.34	-54.3	-55.5	14.3	0.00e+00	0	31	0	918552576	73	4482
2026-01-03 01:12:12.34	13.12	43.42	-53.7	-54.8	14.7	0.00e+00	0	31	0	931135488	73	4102
2026-01-03 01:12:16.37	12.43	44.53	-53.9	-55.0	14.6	0.00e+00	0	31	0	943718400	73	4235
2026-01-03 01:12:20.40	11.69	45.66	-53.7	-54.7	14.7	0.00e+00	0	31	0	956301312	73	4095
2026-01-03 01:12:24.41	10.90	46.82	-53.0	-54.0	15.0	0.00e+00	0	31	0	968884224	72	3980
2026-01-03 01:12:28.43	10.05	48.00	-52.6	-53.5	15.2	0.00e+00	0	31	0	981467136	71	3973
2026-01-03 01:12:32.45	9.12	49.22	-52.6	-53.6	15.1	0.00e+00	0	31	0	994050048	71	4008
2026-01-03 01:12:36.46	8.12	50.45	-52.9	-53.9	15.0	0.00e+00	0	31	0	1006632960	71	4155
2026-01-03 01:12:40.48	7.03	51.71	-53.2	-54.3	14.8	0.00e+00	0	31	0	1019215872	71	4352
2026-01-03 01:12:44.49	5.85	52.99	-53.0	-54.0	14.9	0.00e+00	0	31	0	1031798784	71	4205
2026-01-03 01:12:48.51	4.55	54.29	-51.8	-52.6	15.4	0.00e+00	0	31	0	1044381696	70	3811
2026-01-03 01:12:52.52	3.12	55.60	-51.4	-52.2	15.5	0.00e+00	0	31	0	1056964608	69	3847
2026-01-03 01:12:56.54	1.56	56.93	-50.7	-51.4	15.7	0.00e+00	0	31	0	1069547520	68	3733
2026-01-03 01:13:00.56	359.83	58.27	-51.2	-51.9	15.5	0.00e+00	0	31	0	1082130432	68	3947
2026-01-03 01:13:04.57	357.92	59.61	-51.1	-51.8	15.5	0.00e+00	0	31	0	1094713344	68	3883
2026-01-03 01:13:08.60	355.79	60.95	-51.1	-51.8	15.6	0.00e+00	0	31	0	1107296256	68	3899
2026-01-03 01:13:12.63	353.42	62.28	-50.3	-51.0	15.7	0.00e+00	0	31	0	1119879168	67	3756
2026-01-03 01:13:16.65	350.78	63.59	-49.9	-50.6	15.8	0.00e+00	0	31	0	1132462080	66	3791
2026-01-03 01:13:20.67	347.83	64.86	-49.8	-50.4	15.9	0.00e+00	0	31	0	1145044992	66	3720
2026-01-03 01:13:24.68	344.55	66.08	-50.1	-50.7	15.7	0.00e+00	0	31	0	1157627904	66	3862
2026-01-03 01:13:28.70	340.87	67.25	-50.5	-51.2	15.6	0.00e+00	0	31	0	1170210816	66	4089
2026-01-03 01:13:32.73	336.76	68.33	-49.5	-50.1	15.8	0.00e+00	0	31	0	1182793728	65	3814
2026-01-03 01:13:36.76	332.20	69.31	-49.8	-50.5	15.8	0.00e+00	0	31	0	1195376640	65	3959
2026-01-03 01:13:40.78	327.20	70.17	-49.9	-50.6	15.7	0.00e+00	0	31	0	1207959552	65	4028
2026-01-03 01:13:44.80	321.75	70.87	-50.0	-50.6	15.7	0.00e+00	0	31	0	1220542464	65	4048
2026-01-03 01:13:48.82	315.92	71.41	-50.2	-50.9	15.6	0.00e+00	0	31	0	1233125376	66	3945
2026-01-03 01:13:52.84	309.79	71.75	-50.4	-51.2	15.6	0.00e+00	0	31	0	1245708288	66	4053
2026-01-03 01:13:56.87	303.46	71.89	-50.1	-50.8	15.7	0.00e+00	0	31	0	1258291200	66	3874
2026-01-03 01:14:00.87	297.16	71.82	-50.2	-50.8	15.7	0.00e+00	0	31	0	1270874112	66	3907
2026-01-03 01:14:04.89	290.95	71.54	-50.0	-50.6	15.8	0.00e+00	0	31	0	1283457024	66	3821
2026-01-03 01:14:08.91	285.01	71.06	-50.6	-51.3	15.6	0.00e+00	0	31	0	1296039936	66	4121
2026-01-03 01:14:12.94	279.42	70.41	-50.5	-51.2	15.7	0.00e+00	0	31	0	1308622848	67	3834
2026-01-03 01:14:16.95	274.28	69.60	-50.1	-50.8	15.8	0.00e+00	0	31	0	1321205760	66	3879
2026-01-03 01:14:20.97	269.58	68.66	-49.7	-50.3	15.8	0.00e+00	0	31	0	1333788672	65	3879
2026-01-03 01:14:24.98	265.35	67.61	-50.0	-50.7	15.7	0.00e+00	0	31	0	1346371584	66	3830
2026-01-03 01:14:29.00	261.53	66.47	-51.4	-52.2	15.5	0.00e+00	0	31	0	1358954496	68	4095
2026-01-03 01:14:33.01	258.13	65.26	-49.6	-50.2	15.8	0.00e+00	0	31	0	1371537408	65	3866
2026-01-03 01:14:37.04	255.06	63.99	-51.2	-51.9	15.5	0.00e+00	0	31	0	1384120320	68	3958
2026-01-03 01:14:41.06	252.33	62.70	-51.2	-52.0	15.4	0.00e+00	0	31	0	1396703232	67	4198
2026-01-03 01:14:45.07	249.88	61.38	-51.1	-51.8	15.6	0.00e+00	0	31	0	1408237568	68	3906
2026-01-03 01:14:49.10	247.67	60.03	-52.2	-53.1	15.3	0.00e+00	0	31	0	1420820480	69	4255
2026-01-03 01:14:53.11	245.70	58.69	-50.4	-51.1	15.8	0.00e+00	0	31	0	1433403392	67	3788
2026-01-03 01:14:57.11	243.92	57.36	-51.6	-52.4	15.4	0.00e+00	0	31	0	1445986304	68	4150
2026-01-03 01:15:01.13	242.29	56.02	-51.0	-51.7	15.6	0.00e+00	0	31	0	1458569216	68	3862
2026-01-03 01:15:05.15	240.82	54.70	-52.6	-53.5	15.1	0.00e+00	0	31	0	1471152128	70	4201
2026-01-03 01:15:09.17	239.48	53.39	-52.8	-53.7	15.0	0.00e+00	0	31	0	1483735040	72	3849
2026-01-03 01:15:13.19	238.25	52.10	-51.4	-52.1	15.5	0.00e+00	0	31	0	1496317952	69	3813
2026-01-03 01:15:17.20	237.13	50.83	-53.5	-54.6	14.8	0.00e+00	0	31	0	1508900864	72	4259
2026-01-03 01:15:21.22	236.10	49.58	-53.6	-54.6	14.8	0.00e+00	0	31	0	1521483776	73	4012
2026-01-03 01:15:25.23	235.15	48.36	-53.2	-54.1	14.9	0.00e+00	0	31	0	1534066688	71	4287
2026-01-03 01:15:29.25	234.27	47.17	-54.3	-55.5	14.3	0.00e+00	0	31	0	1546649600	73	4485
2026-01-03 01:15:33.27	233.46	46.00	-53.5	-54.5	14.8	0.00e+00	0	31	0	1559232512	73	3999
2026-01-03 01:15:37.28	232.71	44.85	-53.2	-54.1	14.9	0.00e+00	0	31	0	1571815424	71	4273
2026-01-03 01:15:41.31	232.00	43.73	-55.4	-56.8	13.9	0.00e+00	0	31	0	1584398336	76	4375
2026-01-03 01:15:45.32	231.35	42.65	-53.4	-54.5	14.9	0.00e+00	0	31	0	1596981248	73	3961
2026-01-03 01:15:49.34	230.74	41.58	-53.3	-54.3	15.0	0.00e+00	0	31	0	1609564160	73	3894
2026-01-03 01:15:53.37	230.17	40.54	-52.8	-53.7	15.1	0.00e+00	0	31	0	1622147072	71	4060
2026-01-03 01:15:57.38	229.63	39.54	-54.0	-55.1	14.6	0.00e+00	0	31	0	1634729984	73	4289
2026-01-03 01:16:01.41	229.13	38.55	-53.3	-54.3	14.9	0.00e+00	0	31	0	1647312896	73	3900
2026-01-03 01:16:05.43	228.65	37.59	-52.8	-53.7	15.2	0.00e+00	0	31	0	1659895808	72	3862
2026-01-03 01:16:09.44	228.21	36.66	-52.3	-53.2	15.3	0.00e+00	0	31	0	1672478720	71	3839
2026-01-03 01:16:13.47	227.78	35.74	-52.1	-52.9	15.4	0.00e+00	0	31	0	1685061632	70	3938
2026-01-03 01:16:17.50	227.39	34.85	-51.8	-52.6	15.4	0.00e+00	0	31	0	1697644544	70	3818
2026-01-03 01:16:21.51	227.01	33.99	-51.7	-52.5	15.4	0.00e+00	0	31	0	1710227456	69	3980
2026-01-03 01:16:25.52	226.66	33.15	-51.9	-52.7	15.4	0.00e+00	0	31	0	1722810368	69	4075
2026-01-03 01:16:29.53	226.32	32.33	-51.5	-52.3	15.4	0.00e+00	0	31	0	1735393280	69	3886
2026-01-03 01:16:33.55	226.00	31.53	-51.3	-52.1	15.5	0.00e+00	0	31	0	1747976192	68	4024
2026-01-03 01:16:37.57	225.69	30.75	-51.9	-52.8	15.3	0.00e+00	0	31	0	1760559104	69	4103
2026-01-03 01:16:41.59	225.40	29.99	-52.1	-53.0	15.2	0.00e+00	0	31	0	1773142016	69	4212
2026-01-03 01:16:45.61	225.13	29.25	-51.8	-52.6	15.4	0.00e+00	0	31	0	1785724928	69	4035
2026-01-03 01:16:49.62	224.86	28.53	-50.7	-51.4	15.7	0.00e+00	0	31	0	1798307840	68	3723
2026-01-03 01:16:53.65	224.61	27.82	-50.2	-50.8	15.7	0.00e+00	0	31	0	1810890752	66	3894
2026-01-03 01:16:57.68	224.37	27.13	-49.8	-50.4	15.9	0.00e+00	0	31	0	1823473664	66	3718
2026-01-03 01:17:01.70	224.14	26.46	-49.9	-50.6	15.7	0.00e+00	0	31	0	1836056576	65	4010
2026-01-03 01:17:05.71	223.92	25.80	-50.6	-51.3	15.6	0.00e+00	0	31	0	1848639488	66	4127
2026-01-03 01:17:09.74	223.71	25.16	-50.9	-51.7	15.5	0.00e+00	0	31	0	1861222400	67	4065
2026-01-03 01:17:13.75	223.51	24.53	-51.1	-51.9	15.5	0.00e+00	0	31	0	1873805312	67	4168
2026-01-03 01:17:17.79	223.31	23.92	-51.3	-52.1	15.3	0.00e+00	0	31	0	1886388224	67	4282
2026-01-03 01:17:21.81	223.13	23.32	-51.1	-51.9	15.4	0.00e+00	0	31	0	1898971136	67	4168
2026-01-03 01:17:25.83	222.95	22.73	-50.9	-51.7	15.5	0.00e+00	0	31	0	1911554048	67	4060
2026-01-03 01:17:29.85	222.78	22.16	-50.7	-51.5	15.6	0.00e+00	0	31	0	1924136960	67	3967
2026-01-03 01:17:33.87	222.61	21.60	-50.7	-51.5	15.6	0.00e+00	0	31	0	1935671296	67	3961
2026-01-03 01:17:37.90	222.46	21.05	-50.7	-51.5	15.5	0.00e+00	0	31	0	1949302784	67	3989
2026-01-03 01:17:41.91	222.30	20.51	-50.7	-51.4	15.6	0.00e+00	0	31	0	1960837120	67	3954
2026-01-03 01:17:45.92	222.16	19.99	-50.7	-51.5	15.5	0.00e+00	0	31	0	1974468608	67	3990
2026-01-03 01:17:49.92	222.02	19.48	-50.6	-51.3	15.6	0.00e+00	0	31	0	1986002944	67	3896
2026-01-03 01:17:53.93	221.88	18.97	-50.5	-51.3	15.6	0.00e+00	0	31	0	1998585856	67	3878
2026-01-03 01:17:57.95	221.75	18.48	-50.7	-51.5	15.6	0.00e+00	0	31	0	2011168768	67	3980
2026-01-03 01:18:01.94	221.62	18.00	-50.9	-51.7	15.4	0.00e+00	0	31	0	2023751680	67	4092
2026-01-03 01:18:05.95	221.50	17.52	-51.1	-51.9	15.4	0.00e+00	0	31	0	2036334592	67	4189
2026-01-03 01:18:09.95	221.38	17.05	-51.2	-52.0	15.4	0.00e+00	0	31	0	2048917504	67	4203
2026-01-03 01:18:13.95	221.27	16.60	-51.4	-52.2	15.3	0.00e+00	0	31	0	2061500416	67	4325
2026-01-03 01:18:17.95	221.16	16.15	-51.8	-52.7	15.2	0.00e+00	0	31	0	2074083328	68	4296
2026-01-03 01:18:21.95	221.05	15.71	-51.8	-52.7	15.2	0.00e+00	0	31	0	2086666240	68	4318
2026-01-03 01:18:25.94	220.95	15.28	-51.9	-52.8	15.2	0.00e+00	0	31	0	2099249152	68	4342
2026-01-03 01:18:29.93	220.85	14.85	-52.0	-52.9	15.2	0.00e+00	0	31	0	2111832064	69	4164
2026-01-03 01:18:33.91	220.75	14.44	-52.2	-53.2	15.0	0.00e+00	0	31	0	2123366400	69	4299
2026-01-03 01:18:37.89	220.66	14.03	-52.2	-53.2	15.1	0.00e+00	0	31	0	2135949312	69	4300
2026-01-03 01:18:41.89	220.57	13.62	-52.1	-53.1	15.1	0.00e+00	0	31	0	2148532224	69	4260
2026-01-03 01:18:45.89	220.48	13.22	-52.0	-53.0	15.1	0.00e+00	0	31	0	2161115136	69	4199
2026-01-03 01:18:49.88	220.40	12.83	-52.1	-53.0	15.1	0.00e+00	0	31	0	2173698048	69	4215
2026-01-03 01:18:53.87	220.31	12.45	-52.3	-53.3	15.0	0.00e+00	0	31	0	2186280960	69	4376
2026-01-03 01:18:57.86	220.23	12.07	-52.2	-53.1	15.0	0.00e+00	0	31	0	2198863872	69	4283
2026-01-03 01:19:01.86	220.16	11.69	-52.2	-53.2	15.0	0.00e+00	0	31	0	2211446784	69	4313
2026-01-03 01:19:05.86	220.08	11.33	-52.2	-53.1	15.0	0.00e+00	0	31	0	2224029696	69	4289
2026-01-03 01:19:09.86	220.01	10.96	-52.2	-53.2	15.0	0.00e+00	0	31	0	2236612608	69	4315
2026-01-03 01:19:13.86	219.94	10.60	-52.2	-53.2	15.0	0.00e+00	0	31	0	2248146944	69	4310
2026-01-03 01:19:17.85	219.87	10.25	-52.3	-53.3	14.9	0.00e+00	0	31	0	2260729856	69	4364
2026-01-03 01:19:21.84	219.80	9.91	-52.4	-53.4	15.0	0.00e+00	0	31	0	2273312768	70	4149
2026-01-03 01:19:25.84	219.73	9.56	-52.4	-53.4	14.9	0.00e+00	0	31	0	2285895680	70	4180
2026-01-03 01:19:29.83	219.67	9.23	-52.4	-53.4	14.9	0.00e+00	0	31	0	2298478592	70	4193
2026-01-03 01:19:33.83	219.61	8.89	-52.5	-53.6	14.8	0.00e+00	0	31	0	2311061504	70	4259
2026-01-03 01:19:37.83	219.55	8.56	-52.5	-53.6	14.8	0.00e+00	0	31	0	2323644416	70	4254
2026-01-03 01:19:41.83	219.49	8.24	-52.7	-53.8	14.7	0.00e+00	0	31	0	2336227328	70	4355
2026-01-03 01:19:45.84	219.43	7.91	-52.8	-53.9	14.7	0.00e+00	0	31	0	2348810240	70	4417
2026-01-03 01:19:49.83	219.38	7.60	-52.9	-54.0	14.7	0.00e+00	0	31	0	2361393152	71	4238
2026-01-03 01:19:53.84	219.32	7.28	-53.0	-54.2	14.6	0.00e+00	0	31	0	2373976064	71	4318
2026-01-03 01:19:57.84	219.27	6.97	-53.1	-54.3	14.5	0.00e+00	0	31	0	2386558976	71	4386
2026-01-03 01:20:01.84	219.22	6.67	-53.1	-54.4	14.4	0.00e+00	0	31	0	2399141888	71	4398
2026-01-03 01:20:05.84	219.17	6.36	-53.4	-54.7	14.3	0.00e+00	0	31	0	2410676224	71	4556
2026-01-03 01:20:09.82	219.12	6.07	-53.5	-54.8	14.2	0.00e+00	0	31	0	2423259136	72	4349
2026-01-03 01:20:13.82	219.07	5.77	-53.5	-54.8	14.2	0.00e+00	0	31	0	2435842048	72	4361
2026-01-03 01:20:17.82	219.03	5.48	-53.7	-55.1	14.0	0.00e+00	0	31	0	2448424960	72	4499
2026-01-03 01:20:21.82	218.98	5.19	-53.8	-55.2	13.9	0.00e+00	0	31	0	2461007872	72	4568
2026-01-03 01:20:25.82	218.94	4.90	-60.8	-74.2	3.8	1.49e+00	0	31	104	2470445056	86	18104
2026-01-03 01:20:29.82	218.89	4.62	-61.5	-74.9	3.8	1.49e+00	0	31	104	2470445056	88	17505
2026-01-03 01:20:33.81	218.85	4.34	-61.7	-75.1	3.8	1.49e+00	0	31	104	2470445056	88	17982
2026-01-03 01:20:37.81	218.81	4.06	-61.9	-75.2	3.8	1.49e+00	0	31	104	2470445056	88	18242
2026-01-03 01:20:41.82	218.77	3.79	-61.9	-75.3	3.8	1.49e+00	0	31	104	2470445056	89	17400
2026-01-03 01:20:45.83	218.73	3.52	-62.0	-75.4	3.8	1.49e+00	0	31	104	2470445056	89	17572
2026-01-03 01:20:49.82	218.70	3.25	-62.0	-75.3	3.8	1.49e+00	0	31	104	2470445056	89	17477
2026-01-03 01:20:53.80	218.66	2.98	-62.0	-75.3	3.8	1.49e+00	0	31	104	2470445056	89	17443
2026-01-03 01:20:57.79	218.62	2.72	-61.9	-75.3	3.8	1.49e+00	0	31	104	2470445056	89	17408
2026-01-03 01:21:01.78	218.59	2.46	-61.9	-75.3	3.8	1.49e+00	0	31	104	2470445056	89	17345
2026-01-03 01:21:05.76	218.55	2.20	-61.9	-75.3	3.8	1.49e+00	0	31	104	2470445056	89	17290
2026-01-03 01:21:09.73	218.52	1.95	-61.9	-75.2	3.8	1.49e+00	0	31	104	2470445056	89	17189

#Closed at: 2026-01-03 01:21:11
#Recorded file [2470 MB]: D:/lorett/data/31004_260103_040643.dat