passes_logs/2026/01/03/R3.2S_Murmansk/R3.2S_Murmansk__20260103_083401_NOAA_20_JPSS-1_rec.log

#Pass ID: 20260103_083401_NOAA 20 (JPSS-1)
#Satellite: NOAA 20 (JPSS-1)
#Configuration: NOAA 20
#almurnet v.1.7.20251203
#Start time: 2026-01-03 08:34:03

#Version: 2.2.20231116
#Station: R3.2S_Murmansk
#Location: 33.079688 lon 68.888172 lat
#TLE: 1 43013U 17073A   26002.92460628  .00000184  00000+0  10833-3 0  9996
#TLE: 2 43013  98.7623 303.9923 0001887  56.9179 303.2178 14.19532741421028

#Time	Az	El	Level	Level2	SNR	BER	BlckErr	Temp	State	Recorded	gain1	gain2
2026-01-03 08:34:03.07	129.20	2.09	-59.6	-75.1	3.8	1.49e+00	0	29	0	0	84	22722
2026-01-03 08:34:07.10	129.11	2.35	-59.6	-75.1	3.8	1.49e+00	0	29	104	0	84	22727
2026-01-03 08:34:11.13	129.02	2.61	-59.6	-75.1	3.9	1.49e+00	0	29	104	0	84	22651
2026-01-03 08:34:15.17	128.93	2.87	-59.6	-75.1	3.8	1.49e+00	0	29	104	0	84	22633
2026-01-03 08:34:19.20	128.84	3.14	-59.6	-74.9	3.8	1.49e+00	0	29	104	0	84	22180
2026-01-03 08:34:23.24	128.75	3.40	-59.6	-74.2	3.8	1.49e+00	0	29	104	0	84	20516
2026-01-03 08:34:27.28	128.65	3.67	-59.4	-71.5	4.2	1.41e+00	0	29	0	0	84	15045
2026-01-03 08:34:31.31	128.55	3.95	-59.2	-68.6	5.5	5.19e-01	0	30	0	5242880	84	10672
2026-01-03 08:34:35.35	128.45	4.22	-57.7	-63.6	9.0	2.10e-02	0	30	0	13631488	82	6737
2026-01-03 08:34:39.38	128.35	4.50	-56.3	-59.4	12.5	1.50e-06	0	29	0	20971520	79	4957
2026-01-03 08:34:43.41	128.25	4.78	-55.0	-57.2	13.7	0.00e+00	0	29	0	28311552	76	4593
2026-01-03 08:34:47.44	128.14	5.06	-55.0	-57.1	13.9	0.00e+00	0	29	0	35651584	76	4498
2026-01-03 08:34:51.48	128.03	5.35	-54.9	-57.0	14.0	0.00e+00	0	30	0	44040192	76	4455
2026-01-03 08:34:55.52	127.92	5.64	-54.9	-56.9	14.0	0.00e+00	0	30	0	51380224	76	4425
2026-01-03 08:34:59.55	127.81	5.93	-54.7	-56.6	14.1	0.00e+00	0	30	0	58720256	76	4284
2026-01-03 08:35:03.59	127.69	6.23	-54.6	-56.4	14.2	0.00e+00	0	30	0	66060288	75	4440
2026-01-03 08:35:07.62	127.57	6.53	-54.4	-56.2	14.3	0.00e+00	0	30	0	73400320	75	4317
2026-01-03 08:35:11.66	127.45	6.83	-54.5	-56.3	14.3	0.00e+00	0	30	0	81788928	75	4384
2026-01-03 08:35:15.69	127.33	7.14	-54.4	-56.2	14.4	0.00e+00	0	30	0	89128960	75	4306
2026-01-03 08:35:19.72	127.20	7.45	-54.3	-56.0	14.4	0.00e+00	0	30	0	96468992	75	4225
2026-01-03 08:35:23.76	127.07	7.76	-54.2	-55.9	14.5	0.00e+00	0	30	0	103809024	74	4398
2026-01-03 08:35:27.79	126.93	8.08	-54.3	-56.0	14.4	0.00e+00	0	30	0	111149056	74	4474
2026-01-03 08:35:31.83	126.80	8.40	-54.3	-56.0	14.4	0.00e+00	0	30	0	119537664	74	4463
2026-01-03 08:35:35.87	126.65	8.72	-54.2	-55.8	14.6	0.00e+00	0	30	0	126877696	74	4357
2026-01-03 08:35:39.90	126.51	9.05	-54.1	-55.7	14.6	0.00e+00	0	30	0	134217728	74	4332
2026-01-03 08:35:43.94	126.36	9.39	-54.2	-55.8	14.6	0.00e+00	0	30	0	141557760	74	4354
2026-01-03 08:35:47.98	126.21	9.72	-54.0	-55.6	14.7	0.00e+00	0	30	0	149946368	74	4253
2026-01-03 08:35:52.01	126.06	10.07	-53.9	-55.4	14.8	0.00e+00	0	30	0	157286400	74	4165
2026-01-03 08:35:56.05	125.90	10.41	-53.9	-55.4	14.8	0.00e+00	0	30	0	164626432	74	4167
2026-01-03 08:36:00.08	125.73	10.76	-53.9	-55.4	14.8	0.00e+00	0	30	0	171966464	74	4164
2026-01-03 08:36:04.11	125.57	11.12	-53.9	-55.4	14.8	0.00e+00	0	30	0	179306496	74	4173
2026-01-03 08:36:08.14	125.39	11.48	-53.9	-55.3	14.9	0.00e+00	0	30	0	187695104	74	4120
2026-01-03 08:36:12.18	125.22	11.85	-53.8	-55.2	14.9	0.00e+00	0	30	0	195035136	74	4094
2026-01-03 08:36:16.21	125.04	12.22	-53.7	-55.1	15.0	0.00e+00	0	30	0	202375168	74	4046
2026-01-03 08:36:20.23	124.85	12.59	-53.8	-55.2	14.9	0.00e+00	0	30	0	209715200	74	4053
2026-01-03 08:36:24.26	124.66	12.97	-53.7	-55.1	15.0	0.00e+00	0	30	0	217055232	74	4050
2026-01-03 08:36:28.29	124.46	13.36	-53.7	-55.1	14.9	0.00e+00	0	30	0	225443840	73	4243
2026-01-03 08:36:32.32	124.26	13.75	-53.6	-55.0	15.0	0.00e+00	0	30	0	232783872	73	4195
2026-01-03 08:36:36.34	124.05	14.15	-53.6	-54.9	15.0	0.00e+00	0	30	0	240123904	73	4182
2026-01-03 08:36:40.37	123.84	14.56	-53.6	-54.9	15.0	0.00e+00	0	30	0	247463936	73	4181
2026-01-03 08:36:44.41	123.62	14.97	-53.5	-54.8	15.1	0.00e+00	0	30	0	254803968	73	4130
2026-01-03 08:36:48.44	123.39	15.39	-53.5	-54.9	15.1	0.00e+00	0	30	0	263192576	73	4151
2026-01-03 08:36:52.46	123.16	15.82	-53.4	-54.7	15.1	0.00e+00	0	30	0	270532608	73	4066
2026-01-03 08:36:56.50	122.91	16.25	-53.4	-54.7	15.2	0.00e+00	0	30	0	277872640	73	4054
2026-01-03 08:37:00.53	122.66	16.69	-53.5	-54.8	15.1	0.00e+00	0	30	0	285212672	73	4111
2026-01-03 08:37:04.57	122.41	17.14	-53.5	-54.7	15.1	0.00e+00	0	30	0	293601280	73	4098
2026-01-03 08:37:08.61	122.14	17.59	-53.4	-54.7	15.2	0.00e+00	0	30	0	300941312	73	4055
2026-01-03 08:37:12.65	121.87	18.06	-53.4	-54.7	15.2	0.00e+00	0	30	0	308281344	73	4054
2026-01-03 08:37:16.68	121.58	18.53	-53.4	-54.6	15.2	0.00e+00	0	30	0	315621376	73	4040
2026-01-03 08:37:20.71	121.29	19.01	-53.3	-54.6	15.2	0.00e+00	0	31	0	322961408	73	4016
2026-01-03 08:37:24.74	120.99	19.50	-53.4	-54.6	15.2	0.00e+00	0	30	0	331350016	73	4034
2026-01-03 08:37:28.78	120.68	20.00	-53.6	-54.9	15.1	0.00e+00	0	30	0	338690048	73	4148
2026-01-03 08:37:32.81	120.36	20.50	-53.6	-54.9	15.1	0.00e+00	0	30	0	346030080	73	4187
2026-01-03 08:37:36.84	120.02	21.02	-53.7	-54.9	15.1	0.00e+00	0	30	0	353370112	73	4191
2026-01-03 08:37:40.88	119.68	21.54	-53.9	-55.3	15.0	0.00e+00	0	30	0	360710144	73	4344
2026-01-03 08:37:44.92	119.32	22.08	-54.0	-55.4	14.9	0.00e+00	0	30	0	369098752	73	4422
2026-01-03 08:37:48.96	118.94	22.63	-54.2	-55.6	14.8	0.00e+00	0	30	0	376438784	73	4501
2026-01-03 08:37:53.00	118.56	23.18	-54.3	-55.8	14.8	0.00e+00	0	30	0	383778816	73	4601
2026-01-03 08:37:57.03	118.16	23.75	-54.6	-56.2	14.7	0.00e+00	0	30	0	391118848	74	4555
2026-01-03 08:38:01.06	117.74	24.33	-55.0	-56.6	14.6	0.00e+00	0	31	0	399507456	75	4515
2026-01-03 08:38:05.10	117.31	24.92	-54.9	-56.6	14.6	0.00e+00	0	30	0	406847488	75	4494
2026-01-03 08:38:09.12	116.86	25.52	-55.0	-56.7	14.5	0.00e+00	0	30	0	414187520	75	4564
2026-01-03 08:38:13.16	116.40	26.13	-55.3	-57.0	14.4	0.00e+00	0	31	0	421527552	76	4476
2026-01-03 08:38:17.20	115.91	26.75	-55.5	-57.3	14.3	0.00e+00	0	30	0	428867584	76	4641
2026-01-03 08:38:21.22	115.40	27.39	-55.6	-57.5	14.2	0.00e+00	0	30	0	437256192	76	4707
2026-01-03 08:38:25.26	114.88	28.04	-55.9	-57.8	14.1	0.00e+00	0	31	0	444596224	77	4615
2026-01-03 08:38:29.29	114.33	28.70	-55.9	-57.8	14.1	0.00e+00	0	31	0	451936256	77	4625
2026-01-03 08:38:33.32	113.76	29.37	-55.6	-57.4	14.4	0.00e+00	0	30	0	459276288	77	4405
2026-01-03 08:38:37.35	113.16	30.06	-55.3	-57.0	14.5	0.00e+00	0	31	0	466616320	77	4225
2026-01-03 08:38:41.39	112.53	30.76	-55.3	-57.1	14.5	0.00e+00	0	31	0	475004928	77	4244
2026-01-03 08:38:45.42	111.88	31.47	-55.8	-57.6	14.3	0.00e+00	0	31	0	482344960	77	4525
2026-01-03 08:38:49.45	111.19	32.20	-55.8	-57.7	14.2	0.00e+00	0	30	0	489684992	77	4556
2026-01-03 08:38:53.49	110.48	32.94	-56.2	-58.3	13.9	0.00e+00	0	30	0	497025024	77	4878
2026-01-03 08:38:57.52	109.73	33.69	-56.3	-58.4	13.9	0.00e+00	0	31	0	504365056	77	4935
2026-01-03 08:39:01.56	108.94	34.46	-56.9	-59.4	13.4	0.00e+00	0	30	0	512753664	79	4931
2026-01-03 08:39:05.59	108.12	35.23	-56.8	-59.1	13.5	0.00e+00	0	30	0	520093696	79	4808
2026-01-03 08:39:09.62	107.25	36.02	-56.9	-59.2	13.5	0.00e+00	0	30	0	527433728	79	4863
2026-01-03 08:39:13.66	106.34	36.83	-56.5	-58.7	13.8	0.00e+00	0	30	0	534773760	79	4570
2026-01-03 08:39:17.69	105.38	37.64	-55.8	-57.7	14.3	0.00e+00	0	30	0	543162368	78	4300
2026-01-03 08:39:21.73	104.37	38.46	-56.2	-58.2	14.0	0.00e+00	0	31	0	550502400	78	4594
2026-01-03 08:39:25.77	103.31	39.29	-56.5	-58.7	13.8	0.00e+00	0	31	0	557842432	78	4834
2026-01-03 08:39:29.81	102.20	40.14	-56.9	-59.4	13.5	0.00e+00	0	31	0	565182464	79	4931
2026-01-03 08:39:33.84	101.02	40.98	-56.3	-58.3	14.0	0.00e+00	0	31	0	572522496	79	4368
2026-01-03 08:39:37.88	99.78	41.84	-56.1	-58.1	14.1	0.00e+00	0	31	0	580911104	78	4526
2026-01-03 08:39:41.92	98.47	42.70	-55.8	-57.5	14.4	0.00e+00	0	30	0	588251136	78	4232
2026-01-03 08:39:45.95	97.09	43.55	-56.7	-59.0	13.6	0.00e+00	0	30	0	595591168	78	4988
2026-01-03 08:39:49.98	95.63	44.41	-56.7	-58.9	13.7	0.00e+00	0	30	0	602931200	78	4941
2026-01-03 08:39:54.01	94.09	45.26	-56.4	-58.5	13.9	0.00e+00	0	31	0	611319808	78	4733
2026-01-03 08:39:58.06	92.46	46.12	-56.5	-58.7	13.8	0.00e+00	0	31	0	618659840	78	4820
2026-01-03 08:40:02.09	90.75	46.95	-56.6	-58.8	13.8	0.00e+00	0	30	0	625999872	79	4599
2026-01-03 08:40:06.13	88.94	47.78	-56.0	-57.8	14.3	0.00e+00	0	30	0	633339904	78	4383
2026-01-03 08:40:10.15	87.04	48.58	-55.8	-57.6	14.4	0.00e+00	0	31	0	640679936	78	4253
2026-01-03 08:40:14.19	85.03	49.37	-54.9	-56.3	14.9	0.00e+00	0	31	0	649068544	76	4135
2026-01-03 08:40:18.22	82.92	50.13	-54.2	-55.5	15.1	0.00e+00	0	31	0	656408576	74	4222
2026-01-03 08:40:22.26	80.70	50.86	-54.3	-55.6	15.1	0.00e+00	0	30	0	663748608	74	4254
2026-01-03 08:40:26.29	78.37	51.55	-54.6	-56.0	14.9	0.00e+00	0	30	0	671088640	74	4467
2026-01-03 08:40:30.33	75.93	52.20	-54.7	-56.1	14.8	0.00e+00	0	31	0	678428672	74	4526
2026-01-03 08:40:34.36	73.40	52.80	-54.4	-55.8	15.0	0.00e+00	0	30	0	686817280	75	4119
2026-01-03 08:40:38.40	70.75	53.35	-53.5	-54.7	15.3	0.00e+00	0	31	0	694157312	73	4064
2026-01-03 08:40:42.43	68.02	53.83	-53.1	-54.1	15.5	0.00e+00	0	31	0	701497344	72	4038
2026-01-03 08:40:46.47	65.19	54.26	-52.6	-53.6	15.5	0.00e+00	0	31	0	708837376	71	4022
2026-01-03 08:40:50.51	62.29	54.61	-52.2	-53.2	15.6	0.00e+00	0	31	0	716177408	70	4072
2026-01-03 08:40:54.54	59.32	54.89	-51.6	-52.5	15.7	0.00e+00	0	31	0	724566016	69	3996
2026-01-03 08:40:58.58	56.30	55.09	-51.5	-52.4	15.8	0.00e+00	0	30	0	731906048	69	3934
2026-01-03 08:41:02.62	53.24	55.21	-51.9	-52.8	15.7	0.00e+00	0	31	0	739246080	69	4140
2026-01-03 08:41:06.65	50.18	55.26	-52.2	-53.2	15.5	0.00e+00	0	30	0	746586112	69	4293
2026-01-03 08:41:10.68	47.11	55.22	-52.3	-53.2	15.6	0.00e+00	0	31	0	754974720	70	4086
2026-01-03 08:41:14.72	44.05	55.10	-52.2	-53.2	15.7	0.00e+00	0	31	0	762314752	70	4061
2026-01-03 08:41:18.75	41.04	54.90	-50.9	-51.7	15.9	0.00e+00	0	31	0	769654784	68	3860
2026-01-03 08:41:22.79	38.07	54.62	-51.0	-51.8	15.9	0.00e+00	0	31	0	776994816	68	3898
2026-01-03 08:41:26.83	35.16	54.27	-51.1	-51.9	15.8	0.00e+00	0	30	0	784334848	68	3927
2026-01-03 08:41:30.86	32.34	53.85	-52.0	-52.9	15.6	0.00e+00	0	31	0	792723456	69	4179
2026-01-03 08:41:34.89	29.60	53.36	-52.8	-53.8	15.4	0.00e+00	0	31	0	800063488	70	4383
2026-01-03 08:41:38.92	26.96	52.82	-53.1	-54.2	15.3	0.00e+00	0	31	0	807403520	71	4330
2026-01-03 08:41:42.96	24.42	52.22	-53.2	-54.3	15.3	0.00e+00	0	31	0	814743552	71	4358
2026-01-03 08:41:46.99	21.99	51.58	-53.3	-54.5	15.2	0.00e+00	0	30	0	822083584	71	4447
2026-01-03 08:41:51.03	19.66	50.89	-53.7	-54.9	15.2	0.00e+00	0	31	0	830472192	72	4434
2026-01-03 08:41:55.04	17.45	50.17	-54.7	-56.1	14.8	0.00e+00	0	31	0	837812224	74	4520
2026-01-03 08:41:59.07	15.34	49.41	-56.1	-58.0	14.2	0.00e+00	0	31	0	845152256	77	4727
2026-01-03 08:42:03.11	13.33	48.63	-57.1	-59.5	13.5	0.00e+00	0	30	0	852492288	79	5005
2026-01-03 08:42:07.14	11.42	47.82	-57.3	-59.7	13.4	0.00e+00	0	31	0	860880896	80	4837
2026-01-03 08:42:11.18	9.61	47.00	-57.1	-59.5	13.6	0.00e+00	0	31	0	868220928	80	4710
2026-01-03 08:42:15.21	7.90	46.17	-56.8	-59.0	13.8	0.00e+00	0	30	0	875560960	79	4734
2026-01-03 08:42:19.24	6.27	45.32	-56.2	-58.1	14.2	0.00e+00	0	31	0	882900992	79	4284
2026-01-03 08:42:23.28	4.73	44.47	-56.0	-57.8	14.4	0.00e+00	0	31	0	890241024	78	4363
2026-01-03 08:42:27.31	3.28	43.61	-56.0	-57.8	14.4	0.00e+00	0	31	0	898629632	78	4368
2026-01-03 08:42:31.35	1.89	42.76	-56.2	-58.1	14.2	0.00e+00	0	30	0	905969664	78	4516
2026-01-03 08:42:35.37	0.59	41.90	-56.7	-58.9	13.8	0.00e+00	0	31	0	913309696	78	4962
2026-01-03 08:42:39.40	359.35	41.05	-56.9	-59.2	13.7	0.00e+00	0	31	0	920649728	79	4823
2026-01-03 08:42:43.43	358.17	40.21	-56.5	-58.5	14.0	0.00e+00	0	31	0	927989760	79	4488
2026-01-03 08:42:47.45	357.06	39.37	-56.4	-58.4	14.1	0.00e+00	0	31	0	936378368	79	4424
2026-01-03 08:42:51.48	356.00	38.54	-56.3	-58.3	14.2	0.00e+00	0	31	0	943718400	79	4370
2026-01-03 08:42:55.52	354.99	37.72	-56.5	-58.5	14.0	0.00e+00	0	31	0	951058432	79	4489
2026-01-03 08:42:59.55	354.03	36.91	-56.4	-58.4	14.1	0.00e+00	0	31	0	958398464	79	4396
2026-01-03 08:43:03.58	353.12	36.11	-55.9	-57.7	14.4	0.00e+00	0	30	0	965738496	78	4332
2026-01-03 08:43:07.61	352.26	35.33	-55.9	-57.7	14.4	0.00e+00	0	31	0	974127104	78	4326
2026-01-03 08:43:11.64	351.43	34.55	-56.6	-58.8	13.8	0.00e+00	0	31	0	981467136	78	4882
2026-01-03 08:43:15.67	350.65	33.79	-56.4	-58.5	14.0	0.00e+00	0	30	0	988807168	78	4707
2026-01-03 08:43:19.71	349.89	33.03	-56.2	-58.1	14.2	0.00e+00	0	31	0	996147200	78	4508
2026-01-03 08:43:23.74	349.18	32.30	-56.6	-58.8	13.8	0.00e+00	0	31	0	1004535808	78	4889
2026-01-03 08:43:27.78	348.49	31.57	-56.7	-58.9	13.7	0.00e+00	0	31	0	1011875840	78	4977
2026-01-03 08:43:31.81	347.84	30.86	-57.1	-59.7	13.3	0.00e+00	0	31	0	1019215872	79	5109
2026-01-03 08:43:35.85	347.22	30.16	-56.5	-58.7	13.9	0.00e+00	0	31	0	1026555904	79	4557
2026-01-03 08:43:39.88	346.62	29.47	-56.3	-58.4	14.1	0.00e+00	0	31	0	1033895936	79	4410
2026-01-03 08:43:43.91	346.04	28.80	-56.2	-58.1	14.1	0.00e+00	0	31	0	1042284544	78	4541
2026-01-03 08:43:47.94	345.50	28.14	-55.8	-57.7	14.3	0.00e+00	0	31	0	1049624576	78	4314
2026-01-03 08:43:51.98	344.97	27.49	-55.7	-57.5	14.4	0.00e+00	0	31	0	1056964608	77	4491
2026-01-03 08:43:56.01	344.46	26.86	-55.3	-56.9	14.6	0.00e+00	0	31	0	1064304640	77	4191
2026-01-03 08:44:00.05	343.98	26.23	-55.2	-56.8	14.7	0.00e+00	0	31	0	1071644672	76	4352
2026-01-03 08:44:04.07	343.51	25.63	-55.1	-56.6	14.7	0.00e+00	0	30	0	1080033280	76	4288
2026-01-03 08:44:08.10	343.07	25.03	-54.9	-56.5	14.8	0.00e+00	0	31	0	1087373312	76	4200
2026-01-03 08:44:12.13	342.64	24.44	-54.6	-56.0	14.9	0.00e+00	0	31	0	1094713344	75	4235
2026-01-03 08:44:16.16	342.22	23.86	-54.8	-56.4	14.7	0.00e+00	0	31	0	1102053376	75	4400
2026-01-03 08:44:20.19	341.82	23.30	-55.2	-56.9	14.5	0.00e+00	0	31	0	1109393408	75	4696
2026-01-03 08:44:24.22	341.44	22.74	-55.0	-56.7	14.6	0.00e+00	0	31	0	1117782016	75	4570
2026-01-03 08:44:28.25	341.07	22.20	-54.8	-56.3	14.7	0.00e+00	0	31	0	1125122048	75	4385
2026-01-03 08:44:32.29	340.71	21.66	-54.7	-56.3	14.7	0.00e+00	0	31	0	1132462080	75	4352
2026-01-03 08:44:36.31	340.36	21.14	-54.7	-56.2	14.8	0.00e+00	0	31	0	1139802112	75	4324
2026-01-03 08:44:40.34	340.03	20.62	-54.5	-55.9	14.9	0.00e+00	0	31	0	1147142144	75	4187
2026-01-03 08:44:44.37	339.71	20.12	-54.5	-55.9	14.9	0.00e+00	0	31	0	1155530752	75	4193
2026-01-03 08:44:48.40	339.40	19.62	-54.4	-55.8	14.9	0.00e+00	0	31	0	1162870784	75	4127
2026-01-03 08:44:52.44	339.10	19.13	-54.5	-56.0	14.8	0.00e+00	0	31	0	1170210816	75	4237
2026-01-03 08:44:56.47	338.81	18.65	-54.5	-56.0	14.8	0.00e+00	0	31	0	1177550848	75	4236
2026-01-03 08:45:00.50	338.52	18.18	-54.6	-56.1	14.7	0.00e+00	0	31	0	1185939456	75	4281
2026-01-03 08:45:04.53	338.25	17.72	-54.6	-56.1	14.7	0.00e+00	0	30	0	1193279488	75	4287
2026-01-03 08:45:08.57	337.99	17.27	-54.6	-56.2	14.7	0.00e+00	0	30	0	1200619520	75	4294
2026-01-03 08:45:12.60	337.73	16.82	-54.7	-56.2	14.7	0.00e+00	0	30	0	1207959552	75	4330
2026-01-03 08:45:16.63	337.48	16.38	-54.7	-56.3	14.6	0.00e+00	0	30	0	1215299584	75	4389
2026-01-03 08:45:20.67	337.24	15.95	-54.8	-56.4	14.6	0.00e+00	0	30	0	1223688192	75	4413
2026-01-03 08:45:24.70	337.01	15.52	-54.8	-56.5	14.5	0.00e+00	0	31	0	1231028224	75	4459
2026-01-03 08:45:28.73	336.79	15.10	-54.8	-56.4	14.6	0.00e+00	0	30	0	1238368256	75	4420
2026-01-03 08:45:32.77	336.57	14.69	-54.8	-56.5	14.5	0.00e+00	0	30	0	1245708288	75	4459
2026-01-03 08:45:36.81	336.35	14.28	-54.9	-56.6	14.5	0.00e+00	0	31	0	1253048320	75	4515
2026-01-03 08:45:40.85	336.14	13.88	-55.0	-56.8	14.4	0.00e+00	0	31	0	1261436928	75	4609
2026-01-03 08:45:44.88	335.94	13.49	-55.3	-57.2	14.2	0.00e+00	0	31	0	1268776960	75	4815
2026-01-03 08:45:48.92	335.75	13.10	-55.4	-57.2	14.2	0.00e+00	0	30	0	1276116992	76	4590
2026-01-03 08:45:52.95	335.56	12.72	-55.4	-57.2	14.2	0.00e+00	0	31	0	1283457024	76	4590
2026-01-03 08:45:56.98	335.37	12.34	-55.4	-57.3	14.2	0.00e+00	0	31	0	1291845632	76	4627
2026-01-03 08:46:01.02	335.19	11.97	-55.3	-57.1	14.3	0.00e+00	0	31	0	1299185664	76	4537
2026-01-03 08:46:05.06	335.02	11.61	-55.2	-57.1	14.3	0.00e+00	0	31	0	1306525696	76	4512
2026-01-03 08:46:09.08	334.85	11.25	-55.3	-57.2	14.2	0.00e+00	0	31	0	1313865728	76	4597
2026-01-03 08:46:13.11	334.68	10.89	-55.5	-57.4	14.1	0.00e+00	0	31	0	1321205760	76	4691
2026-01-03 08:46:17.14	334.52	10.54	-55.6	-57.7	13.9	0.00e+00	0	31	0	1329594368	76	4831
2026-01-03 08:46:21.17	334.36	10.20	-55.8	-57.9	13.7	0.00e+00	0	31	0	1336934400	76	4981
2026-01-03 08:46:25.20	334.21	9.85	-55.9	-58.1	13.7	0.00e+00	0	31	0	1344274432	77	4787
2026-01-03 08:46:29.23	334.06	9.52	-56.0	-58.3	13.6	0.00e+00	0	31	0	1351614464	77	4889
2026-01-03 08:46:33.26	333.92	9.19	-56.1	-58.4	13.5	0.00e+00	0	30	0	1358954496	77	4973
2026-01-03 08:46:37.29	333.77	8.86	-56.2	-58.6	13.4	0.00e+00	0	31	0	1367343104	77	5050
2026-01-03 08:46:41.32	333.64	8.53	-56.2	-58.7	13.3	0.00e+00	0	31	0	1374683136	77	5122
2026-01-03 08:46:45.35	333.50	8.21	-56.2	-58.7	13.3	0.00e+00	0	31	0	1382023168	77	5144
2026-01-03 08:46:49.38	333.37	7.90	-56.3	-58.8	13.2	0.00e+00	0	31	0	1389363200	77	5208
2026-01-03 08:46:53.42	333.24	7.58	-56.2	-58.8	13.2	0.00e+00	0	31	0	1396703232	77	5184
2026-01-03 08:46:57.46	333.12	7.27	-56.3	-58.8	13.1	0.00e+00	0	31	0	1405091840	77	5207
2026-01-03 08:47:01.50	332.99	6.97	-56.3	-58.9	13.1	0.00e+00	0	31	0	1412431872	77	5256
2026-01-03 08:47:05.53	332.87	6.66	-56.2	-58.8	13.1	7.00e-07	0	31	0	1419771904	77	5214
2026-01-03 08:47:09.56	332.76	6.37	-56.3	-59.0	13.1	0.00e+00	0	31	0	1427111936	78	4987
2026-01-03 08:47:13.59	332.64	6.07	-56.3	-59.0	13.0	0.00e+00	0	31	0	1434451968	78	5018
2026-01-03 08:47:17.63	332.53	5.78	-56.4	-59.2	12.8	0.00e+00	0	31	0	1442840576	78	5152
2026-01-03 08:47:21.66	332.42	5.49	-56.4	-59.1	12.9	0.00e+00	0	31	0	1450180608	78	5096
2026-01-03 08:47:25.69	332.31	5.20	-56.5	-59.5	12.7	0.00e+00	0	30	0	1457520640	78	5287
2026-01-03 08:47:29.73	332.21	4.92	-60.5	-76.0	3.8	1.49e+00	0	31	104	1463812096	86	22498
2026-01-03 08:47:33.76	332.11	4.64	-61.3	-76.9	3.8	1.49e+00	0	31	104	1463812096	87	23578
2026-01-03 08:47:37.80	332.01	4.36	-61.7	-77.3	3.8	1.49e+00	0	31	104	1463812096	88	23246
2026-01-03 08:47:41.83	331.91	4.08	-61.9	-77.5	3.8	1.49e+00	0	31	104	1463812096	89	22348
2026-01-03 08:47:45.86	331.82	3.81	-62.0	-77.6	3.8	1.49e+00	0	31	104	1463812096	89	22660
2026-01-03 08:47:49.89	331.72	3.54	-62.0	-77.6	3.8	1.49e+00	0	31	104	1463812096	89	22770
2026-01-03 08:47:53.92	331.63	3.28	-61.9	-77.6	3.8	1.49e+00	0	31	104	1463812096	89	22549
2026-01-03 08:47:57.95	331.54	3.01	-61.9	-77.5	3.8	1.49e+00	0	31	104	1463812096	89	22432
2026-01-03 08:48:01.99	331.46	2.75	-61.9	-77.5	3.8	1.49e+00	0	31	104	1463812096	89	22362
2026-01-03 08:48:06.02	331.37	2.49	-61.9	-77.5	3.8	1.49e+00	0	31	104	1463812096	89	22338
2026-01-03 08:48:10.05	331.29	2.23	-61.8	-77.5	3.8	1.49e+00	0	31	104	1463812096	89	22271
2026-01-03 08:48:14.08	331.20	1.98	-61.8	-77.4	3.8	1.49e+00	0	31	104	1463812096	89	22203

#Closed at: 2026-01-03 08:48:15
#Recorded file [1463 MB]: D:/lorett/data/31004_260103_113402.dat