passes_logs/2026/01/03/R3.2S_Murmansk/R3.2S_Murmansk__20260103_233702_SUOMI_NPP_rec.log

#Pass ID: 20260103_233702_SUOMI NPP
#Satellite: SUOMI NPP
#Configuration: NPP
#almurnet v.1.7.20251203
#Start time: 2026-01-03 23:37:03

#Version: 2.2.20231116
#Station: R3.2S_Murmansk
#Location: 33.079688 lon 68.888172 lat
#TLE: 1 37849U 11061A   26001.07732418  .00000182  00000+0  10735-3 0  9990
#TLE: 2 37849  98.7795 303.2470 0002580  87.2016 272.9455 14.19520779734739

#Time	Az	El	Level	Level2	SNR	BER	BlckErr	Temp	State	Recorded	gain1	gain2
2026-01-03 23:37:03.79	21.08	2.10	-60.5	-76.6	3.8	1.49e+00	0	27	0	0	86	24095
2026-01-03 23:37:07.79	21.23	2.35	-60.5	-76.6	3.8	1.49e+00	0	27	104	0	86	24086
2026-01-03 23:37:11.80	21.37	2.60	-60.5	-76.6	3.8	1.49e+00	0	27	104	0	86	24114
2026-01-03 23:37:15.81	21.52	2.85	-60.5	-76.6	3.8	1.49e+00	0	27	104	0	86	24084
2026-01-03 23:37:19.80	21.67	3.11	-60.5	-76.6	3.8	1.49e+00	0	27	104	0	86	24042
2026-01-03 23:37:23.79	21.82	3.36	-60.5	-76.7	3.8	1.49e+00	0	27	104	0	86	24141
2026-01-03 23:37:27.77	21.98	3.62	-60.5	-76.6	3.9	1.49e+00	0	28	104	0	86	24066
2026-01-03 23:37:31.74	22.13	3.88	-60.5	-76.6	3.8	1.49e+00	0	27	104	0	86	24054
2026-01-03 23:37:35.74	22.29	4.14	-60.5	-76.6	3.8	1.49e+00	0	28	104	0	86	24095
2026-01-03 23:37:39.72	22.46	4.41	-60.5	-76.6	3.8	1.49e+00	0	28	104	0	86	24048
2026-01-03 23:37:43.73	22.62	4.68	-60.5	-76.6	3.8	1.49e+00	0	28	104	0	86	24052
2026-01-03 23:37:47.71	22.79	4.95	-60.5	-76.6	3.8	1.49e+00	0	28	104	0	86	24128
2026-01-03 23:37:51.72	22.96	5.22	-60.5	-76.6	3.8	1.49e+00	0	28	104	0	86	24060
2026-01-03 23:37:55.72	23.13	5.50	-60.5	-76.6	3.8	1.49e+00	0	28	104	0	86	24101
2026-01-03 23:37:59.73	23.31	5.78	-60.5	-76.6	3.8	1.49e+00	0	28	104	0	86	24010
2026-01-03 23:38:03.72	23.49	6.06	-60.5	-76.6	3.8	1.49e+00	0	28	104	0	86	24051
2026-01-03 23:38:07.74	23.67	6.35	-60.5	-76.6	3.8	1.49e+00	0	28	104	0	86	24022
2026-01-03 23:38:11.74	23.86	6.64	-60.5	-76.6	3.8	1.49e+00	0	28	104	0	86	24060
2026-01-03 23:38:15.76	24.05	6.93	-60.5	-76.6	3.8	1.49e+00	0	28	104	0	86	24036
2026-01-03 23:38:19.76	24.24	7.22	-60.5	-76.6	3.8	1.49e+00	0	28	104	0	86	23982
2026-01-03 23:38:23.77	24.44	7.52	-60.5	-76.6	3.8	1.49e+00	0	28	104	0	86	23979
2026-01-03 23:38:27.76	24.64	7.82	-60.5	-76.6	3.8	1.49e+00	0	28	104	0	86	23987
2026-01-03 23:38:31.75	24.84	8.12	-60.5	-76.6	3.8	1.49e+00	0	28	104	0	86	24046
2026-01-03 23:38:35.74	25.05	8.43	-60.5	-76.6	3.8	1.49e+00	0	28	104	0	86	23995
2026-01-03 23:38:39.72	25.26	8.74	-60.5	-76.6	3.8	1.49e+00	0	28	104	0	86	23999
2026-01-03 23:38:43.72	25.48	9.06	-60.5	-76.6	3.8	1.49e+00	0	28	104	0	86	23998
2026-01-03 23:38:47.71	25.70	9.37	-60.5	-76.6	3.8	1.49e+00	0	28	104	0	86	23978
2026-01-03 23:38:51.71	25.92	9.69	-60.5	-76.6	3.8	1.49e+00	0	28	104	0	86	23961
2026-01-03 23:38:55.73	26.15	10.02	-60.5	-76.6	3.8	1.49e+00	0	28	104	0	86	23983
2026-01-03 23:38:59.73	26.39	10.35	-60.5	-76.6	3.8	1.49e+00	0	28	104	0	86	23900
2026-01-03 23:39:03.72	26.62	10.69	-60.5	-76.6	3.9	1.49e+00	0	29	104	0	86	24031
2026-01-03 23:39:07.72	26.87	11.02	-60.5	-76.6	3.8	1.49e+00	0	29	104	0	86	23949
2026-01-03 23:39:11.72	27.12	11.37	-60.5	-76.6	3.8	1.49e+00	0	29	104	0	86	23990
2026-01-03 23:39:15.74	27.38	11.71	-60.5	-76.6	3.8	1.49e+00	0	29	104	0	86	23923
2026-01-03 23:39:19.73	27.64	12.07	-60.5	-76.6	3.8	1.49e+00	0	29	104	0	86	23999
2026-01-03 23:39:23.75	27.90	12.42	-60.5	-76.6	3.8	1.49e+00	0	29	104	0	86	24010
2026-01-03 23:39:27.74	28.18	12.78	-60.5	-76.6	3.8	1.49e+00	0	29	104	0	86	23908
2026-01-03 23:39:31.73	28.45	13.15	-60.5	-76.6	3.8	1.49e+00	0	29	104	0	86	23927
2026-01-03 23:39:35.70	28.74	13.52	-60.5	-76.6	3.8	1.49e+00	0	29	104	0	86	23938
2026-01-03 23:39:39.70	29.03	13.89	-60.5	-76.6	3.8	1.49e+00	0	29	104	0	86	23903
2026-01-03 23:39:43.70	29.33	14.27	-60.5	-76.6	3.8	1.49e+00	0	29	104	0	86	23991
2026-01-03 23:39:47.70	29.64	14.66	-60.5	-76.6	3.8	1.49e+00	0	29	104	0	86	23931
2026-01-03 23:39:51.70	29.95	15.05	-60.5	-76.6	3.8	1.49e+00	0	29	104	0	86	23998
2026-01-03 23:39:55.70	30.27	15.45	-60.5	-76.6	3.8	1.49e+00	0	29	104	0	86	24027
2026-01-03 23:39:59.70	30.60	15.85	-60.5	-76.5	3.8	1.49e+00	0	29	104	0	86	23849
2026-01-03 23:40:03.69	30.94	16.26	-60.5	-76.6	3.8	1.49e+00	0	29	104	0	86	23879
2026-01-03 23:40:07.70	31.29	16.68	-60.5	-76.6	3.8	1.49e+00	0	29	104	0	86	23896
2026-01-03 23:40:11.70	31.65	17.10	-60.5	-76.6	3.8	1.49e+00	0	29	104	0	86	23946
2026-01-03 23:40:15.72	32.02	17.53	-60.5	-76.6	3.8	1.49e+00	0	29	104	0	86	23982
2026-01-03 23:40:19.71	32.39	17.96	-60.5	-76.6	3.8	1.49e+00	0	29	104	0	86	23950
2026-01-03 23:40:23.71	32.78	18.40	-60.5	-76.6	3.8	1.49e+00	0	29	104	0	86	23894
2026-01-03 23:40:27.72	33.18	18.85	-60.5	-76.6	3.8	1.49e+00	0	29	104	0	86	23944
2026-01-03 23:40:31.69	33.59	19.30	-60.5	-76.6	3.8	1.49e+00	0	29	104	0	86	23855
2026-01-03 23:40:35.69	34.01	19.77	-60.5	-76.6	3.8	1.49e+00	0	29	104	0	86	23947
2026-01-03 23:40:39.69	34.44	20.24	-60.5	-76.6	3.8	1.49e+00	0	29	104	0	86	23895
2026-01-03 23:40:43.69	34.89	20.71	-60.5	-76.6	3.8	1.49e+00	0	29	104	0	86	23896
2026-01-03 23:40:47.68	35.35	21.20	-60.5	-76.5	3.8	1.49e+00	0	29	104	0	86	23851
2026-01-03 23:40:51.69	35.83	21.69	-60.4	-76.6	3.8	1.49e+00	0	29	104	0	86	23864
2026-01-03 23:40:55.70	36.32	22.19	-60.5	-76.6	3.8	1.49e+00	0	29	104	0	86	23948
2026-01-03 23:40:59.71	36.83	22.70	-60.5	-76.6	3.8	1.49e+00	0	29	104	0	86	23882
2026-01-03 23:41:03.71	37.35	23.21	-60.5	-76.6	3.8	1.49e+00	0	29	104	0	86	23884
2026-01-03 23:41:07.71	37.89	23.74	-60.5	-76.6	3.8	1.49e+00	0	29	104	0	86	23872
2026-01-03 23:41:11.71	38.44	24.27	-60.5	-76.5	3.8	1.49e+00	0	29	104	0	86	23854
2026-01-03 23:41:15.71	39.02	24.81	-60.5	-76.6	3.9	1.49e+00	0	29	104	0	86	23925
2026-01-03 23:41:19.72	39.62	25.36	-60.5	-76.6	3.8	1.49e+00	0	29	104	0	86	23924
2026-01-03 23:41:23.71	40.23	25.92	-60.5	-76.5	3.8	1.49e+00	0	29	104	0	86	23804
2026-01-03 23:41:27.71	40.87	26.48	-60.5	-76.6	3.8	1.49e+00	0	29	104	0	86	23855
2026-01-03 23:41:31.70	41.52	27.05	-60.4	-76.5	3.8	1.49e+00	0	29	104	0	86	23819
2026-01-03 23:41:35.69	42.21	27.63	-60.5	-76.5	3.8	1.49e+00	0	29	104	0	86	23841
2026-01-03 23:41:39.68	42.91	28.22	-60.5	-76.6	3.8	1.49e+00	0	29	104	0	86	23883
2026-01-03 23:41:43.68	43.65	28.82	-60.5	-76.6	3.8	1.49e+00	0	29	104	0	86	23879
2026-01-03 23:41:47.67	44.40	29.42	-60.4	-76.5	3.8	1.49e+00	0	29	104	0	86	23813
2026-01-03 23:41:51.69	45.20	30.04	-60.4	-76.5	3.8	1.49e+00	0	29	104	0	86	23813
2026-01-03 23:41:55.69	46.02	30.66	-60.5	-76.6	3.8	1.49e+00	0	29	104	0	86	23884
2026-01-03 23:41:59.69	46.87	31.29	-60.5	-76.5	3.8	1.49e+00	0	29	104	0	86	23824
2026-01-03 23:42:03.69	47.75	31.92	-60.4	-76.5	3.8	1.49e+00	0	29	104	0	86	23833
2026-01-03 23:42:07.69	48.67	32.56	-60.4	-76.5	3.9	1.49e+00	0	29	104	0	86	23776
2026-01-03 23:42:11.68	49.63	33.21	-60.4	-76.6	3.8	1.49e+00	0	29	104	0	86	23891
2026-01-03 23:42:15.69	50.62	33.86	-60.4	-76.5	3.8	1.49e+00	0	29	104	0	86	23795
2026-01-03 23:42:19.71	51.66	34.52	-60.4	-76.5	3.8	1.49e+00	0	29	104	0	86	23798
2026-01-03 23:42:23.72	52.74	35.18	-60.4	-76.5	3.8	1.49e+00	0	29	104	0	86	23793
2026-01-03 23:42:27.73	53.86	35.84	-60.4	-76.5	3.8	1.49e+00	0	29	104	0	86	23814
2026-01-03 23:42:31.72	55.02	36.51	-60.4	-76.5	3.8	1.49e+00	0	29	104	0	86	23730
2026-01-03 23:42:35.70	56.23	37.17	-60.4	-76.6	3.8	1.49e+00	0	29	104	0	86	23870
2026-01-03 23:42:39.69	57.49	37.83	-60.4	-76.5	3.8	1.49e+00	0	29	104	0	86	23772
2026-01-03 23:42:43.70	58.80	38.49	-60.4	-76.5	3.8	1.49e+00	0	29	104	0	86	23734
2026-01-03 23:42:47.69	60.17	39.14	-60.4	-76.5	3.8	1.49e+00	0	29	104	0	86	23742
2026-01-03 23:42:51.69	61.59	39.79	-60.4	-76.5	3.8	1.49e+00	0	29	104	0	86	23756
2026-01-03 23:42:55.72	63.08	40.43	-60.4	-76.5	3.8	1.49e+00	0	29	104	0	86	23785
2026-01-03 23:42:59.73	64.62	41.07	-60.4	-76.5	3.8	1.49e+00	0	29	104	0	86	23737
2026-01-03 23:43:03.74	66.22	41.68	-60.4	-76.5	3.8	1.49e+00	0	29	104	0	86	23784
2026-01-03 23:43:07.73	67.88	42.29	-60.4	-76.5	3.8	1.49e+00	0	29	104	0	86	23760
2026-01-03 23:43:11.73	69.60	42.87	-60.4	-76.5	3.8	1.49e+00	0	29	104	0	86	23757
2026-01-03 23:43:15.75	71.39	43.44	-60.4	-76.5	3.8	1.49e+00	0	29	104	0	86	23750
2026-01-03 23:43:19.75	73.23	43.98	-60.4	-76.5	3.8	1.49e+00	0	29	104	0	86	23713
2026-01-03 23:43:23.77	75.15	44.50	-60.4	-76.5	3.8	1.49e+00	0	29	104	0	86	23733
2026-01-03 23:43:27.76	77.11	44.98	-60.4	-76.5	3.8	1.49e+00	0	29	104	0	86	23677
2026-01-03 23:43:31.75	79.13	45.44	-60.4	-76.5	3.8	1.49e+00	0	29	104	0	86	23738
2026-01-03 23:43:35.73	81.20	45.85	-60.4	-76.5	3.8	1.49e+00	0	29	104	0	86	23741
2026-01-03 23:43:39.71	83.32	46.23	-60.4	-76.5	3.8	1.49e+00	0	29	104	0	86	23820
2026-01-03 23:43:43.68	85.49	46.57	-60.4	-76.5	3.8	1.49e+00	0	29	104	0	86	23696
2026-01-03 23:43:47.68	87.72	46.87	-60.4	-76.5	3.8	1.49e+00	0	29	104	0	86	23707
2026-01-03 23:43:51.68	89.98	47.13	-60.4	-76.5	3.8	1.49e+00	0	29	104	0	86	23695
2026-01-03 23:43:55.69	92.29	47.33	-60.4	-76.5	3.8	1.49e+00	0	29	104	0	86	23720
2026-01-03 23:43:59.69	94.62	47.49	-60.4	-76.5	3.8	1.49e+00	0	29	104	0	86	23661
2026-01-03 23:44:03.68	96.96	47.60	-60.4	-76.5	3.8	1.49e+00	0	29	104	0	86	23672
2026-01-03 23:44:07.68	99.32	47.65	-60.4	-76.5	3.8	1.49e+00	0	29	104	0	86	23684
2026-01-03 23:44:11.69	101.69	47.66	-60.4	-76.5	3.8	1.49e+00	0	29	104	0	86	23606
2026-01-03 23:44:15.70	104.06	47.61	-60.4	-76.5	3.8	1.49e+00	0	29	104	0	86	23643
2026-01-03 23:44:19.70	106.41	47.51	-60.4	-76.5	3.8	1.49e+00	0	29	104	0	86	23646
2026-01-03 23:44:23.70	108.74	47.36	-60.4	-76.5	3.8	1.49e+00	0	29	104	0	86	23703
2026-01-03 23:44:27.70	111.05	47.16	-60.4	-76.5	3.8	1.49e+00	0	29	104	0	86	23656
2026-01-03 23:44:31.69	113.32	46.92	-60.4	-76.5	3.8	1.49e+00	0	29	104	0	86	23662
2026-01-03 23:44:35.70	115.56	46.62	-60.4	-76.5	3.9	1.49e+00	0	29	104	0	86	23651
2026-01-03 23:44:39.71	117.76	46.29	-60.4	-76.5	3.8	1.49e+00	0	29	104	0	86	23607
2026-01-03 23:44:43.72	119.91	45.91	-60.4	-76.5	3.8	1.49e+00	0	29	104	0	86	23640
2026-01-03 23:44:47.72	122.00	45.49	-60.4	-76.5	3.8	1.49e+00	0	29	104	0	86	23654
2026-01-03 23:44:51.72	124.03	45.04	-60.4	-76.5	3.8	1.49e+00	0	29	104	0	86	23605
2026-01-03 23:44:55.73	126.02	44.56	-60.4	-76.5	3.8	1.49e+00	0	29	104	0	86	23634
2026-01-03 23:44:59.74	127.94	44.04	-60.4	-76.5	3.8	1.49e+00	0	29	104	0	86	23669
2026-01-03 23:45:03.75	129.80	43.50	-60.4	-76.5	3.8	1.49e+00	0	29	104	0	86	23626
2026-01-03 23:45:07.76	131.60	42.94	-60.4	-76.5	3.8	1.49e+00	0	29	104	0	86	23591
2026-01-03 23:45:11.76	133.33	42.35	-60.4	-76.4	3.8	1.49e+00	0	29	104	0	86	23565
2026-01-03 23:45:15.77	135.00	41.75	-60.4	-76.5	3.8	1.49e+00	0	29	104	0	86	23655
2026-01-03 23:45:19.79	136.62	41.13	-60.4	-76.5	3.9	1.49e+00	0	29	104	0	86	23639
2026-01-03 23:45:23.79	138.16	40.50	-60.4	-76.5	3.8	1.49e+00	0	29	104	0	86	23626
2026-01-03 23:45:27.79	139.65	39.86	-60.4	-76.5	3.8	1.49e+00	0	29	104	0	86	23633
2026-01-03 23:45:31.80	141.09	39.20	-60.4	-76.5	3.8	1.49e+00	0	29	104	0	86	23638
2026-01-03 23:45:35.79	142.46	38.55	-60.4	-76.5	3.8	1.49e+00	0	29	104	0	86	23607
2026-01-03 23:45:39.79	143.78	37.89	-60.4	-76.4	3.8	1.49e+00	0	29	104	0	86	23559
2026-01-03 23:45:43.79	145.05	37.22	-60.4	-76.5	3.8	1.49e+00	0	29	104	0	86	23616
2026-01-03 23:45:47.78	146.27	36.56	-60.4	-76.4	3.8	1.49e+00	0	29	104	0	86	23521
2026-01-03 23:45:51.78	147.44	35.89	-60.4	-76.5	3.8	1.49e+00	0	29	104	0	86	23583
2026-01-03 23:45:55.79	148.57	35.23	-60.4	-76.5	3.8	1.49e+00	0	29	104	0	86	23589
2026-01-03 23:45:59.79	149.66	34.57	-60.3	-76.5	3.8	1.49e+00	0	29	104	0	86	23590
2026-01-03 23:46:03.80	150.70	33.90	-60.4	-76.4	3.8	1.49e+00	0	29	104	0	86	23547
2026-01-03 23:46:07.80	151.70	33.25	-60.4	-76.4	3.8	1.49e+00	0	29	104	0	86	23519
2026-01-03 23:46:11.79	152.66	32.60	-60.4	-76.4	3.8	1.49e+00	0	29	104	0	86	23514
2026-01-03 23:46:15.78	153.58	31.96	-60.3	-76.4	3.8	1.49e+00	0	29	104	0	86	23491
2026-01-03 23:46:19.79	154.47	31.32	-60.4	-76.4	3.8	1.49e+00	0	29	104	0	86	23536
2026-01-03 23:46:23.80	155.33	30.69	-60.4	-76.4	3.8	1.49e+00	0	29	104	0	86	23528
2026-01-03 23:46:27.81	156.16	30.06	-60.3	-76.4	3.8	1.49e+00	0	29	104	0	86	23576
2026-01-03 23:46:31.82	156.95	29.44	-60.3	-76.4	3.8	1.49e+00	0	29	104	0	86	23502
2026-01-03 23:46:35.82	157.72	28.83	-60.3	-76.4	3.8	1.49e+00	0	29	104	0	86	23539
2026-01-03 23:46:39.80	158.45	28.23	-60.3	-76.4	3.8	1.49e+00	0	29	104	0	86	23536
2026-01-03 23:46:43.78	159.16	27.64	-60.3	-76.4	3.8	1.49e+00	0	29	104	0	86	23525
2026-01-03 23:46:47.77	159.84	27.06	-60.3	-76.4	3.8	1.49e+00	0	29	104	0	86	23530
2026-01-03 23:46:51.74	160.50	26.49	-60.3	-76.4	3.8	1.49e+00	0	29	104	0	86	23472
2026-01-03 23:46:55.73	161.14	25.92	-60.3	-76.4	3.8	1.49e+00	0	29	104	0	86	23500
2026-01-03 23:46:59.74	161.76	25.36	-60.3	-76.4	3.8	1.49e+00	0	29	104	0	86	23543
2026-01-03 23:47:03.76	162.36	24.80	-60.3	-76.4	3.8	1.49e+00	0	29	104	0	86	23444
2026-01-03 23:47:07.75	162.94	24.26	-60.3	-76.4	3.8	1.49e+00	0	29	104	0	86	23489
2026-01-03 23:47:11.75	163.50	23.73	-60.3	-76.4	3.8	1.49e+00	0	29	104	0	86	23525
2026-01-03 23:47:15.75	164.04	23.20	-60.3	-76.4	3.8	1.49e+00	0	29	104	0	86	23463
2026-01-03 23:47:19.74	164.56	22.68	-60.3	-76.4	3.8	1.49e+00	0	29	104	0	86	23480
2026-01-03 23:47:23.74	165.07	22.17	-60.3	-76.4	3.8	1.49e+00	0	29	104	0	86	23426
2026-01-03 23:47:27.74	165.56	21.67	-60.3	-76.4	3.8	1.49e+00	0	29	104	0	86	23427
2026-01-03 23:47:31.73	166.03	21.17	-60.3	-76.4	3.8	1.49e+00	0	29	104	0	86	23434
2026-01-03 23:47:35.72	166.49	20.69	-60.3	-76.4	3.8	1.49e+00	0	29	104	0	86	23442
2026-01-03 23:47:39.73	166.94	20.21	-60.3	-76.4	3.8	1.49e+00	0	29	104	0	86	23376
2026-01-03 23:47:43.71	167.38	19.74	-60.3	-76.4	3.8	1.49e+00	0	29	104	0	86	23455
2026-01-03 23:47:47.69	167.80	19.27	-60.3	-76.4	3.8	1.49e+00	0	29	104	0	86	23418
2026-01-03 23:47:51.68	168.21	18.82	-60.3	-76.4	3.8	1.49e+00	0	29	104	0	86	23368
2026-01-03 23:47:55.68	168.61	18.37	-60.3	-76.4	3.8	1.49e+00	0	29	104	0	86	23407
2026-01-03 23:47:59.69	169.00	17.92	-60.3	-76.4	3.8	1.49e+00	0	29	104	0	86	23385
2026-01-03 23:48:03.69	169.37	17.48	-60.3	-76.4	3.8	1.49e+00	0	29	104	0	86	23434
2026-01-03 23:48:07.67	169.74	17.06	-60.3	-76.4	3.8	1.49e+00	0	29	104	0	86	23412
2026-01-03 23:48:11.66	170.10	16.63	-60.3	-76.4	3.8	1.49e+00	0	29	104	0	86	23499
2026-01-03 23:48:15.65	170.44	16.22	-60.3	-76.4	3.8	1.49e+00	0	29	104	0	86	23452
2026-01-03 23:48:19.66	170.78	15.80	-60.3	-76.4	3.8	1.49e+00	0	29	104	0	86	23385
2026-01-03 23:48:23.66	171.11	15.40	-60.3	-76.4	3.8	1.49e+00	0	29	104	0	86	23377
2026-01-03 23:48:27.66	171.44	15.00	-60.3	-76.4	3.8	1.49e+00	0	29	104	0	86	23355
2026-01-03 23:48:31.67	171.75	14.60	-60.3	-76.4	3.8	1.49e+00	0	29	104	0	86	23369
2026-01-03 23:48:35.67	172.06	14.21	-60.3	-76.4	3.8	1.49e+00	0	29	104	0	86	23416
2026-01-03 23:48:39.68	172.36	13.83	-60.3	-76.4	3.8	1.49e+00	0	29	104	0	86	23413
2026-01-03 23:48:43.67	172.65	13.45	-60.3	-76.4	3.8	1.49e+00	0	29	104	0	86	23406
2026-01-03 23:48:47.67	172.93	13.08	-60.3	-76.4	3.8	1.49e+00	0	29	104	0	86	23423
2026-01-03 23:48:51.68	173.21	12.71	-60.3	-76.4	3.8	1.49e+00	0	29	104	0	86	23423
2026-01-03 23:48:55.67	173.48	12.35	-60.3	-76.4	3.8	1.49e+00	0	29	104	0	86	23394
2026-01-03 23:48:59.66	173.75	11.99	-60.3	-76.4	3.8	1.49e+00	0	29	104	0	86	23335
2026-01-03 23:49:03.67	174.01	11.64	-60.3	-76.4	3.8	1.49e+00	0	29	104	0	86	23380
2026-01-03 23:49:07.66	174.26	11.29	-60.3	-76.4	3.8	1.49e+00	0	29	104	0	86	23400
2026-01-03 23:49:11.66	174.51	10.94	-60.3	-76.4	3.8	1.49e+00	0	29	104	0	86	23387
2026-01-03 23:49:15.67	174.75	10.60	-60.3	-76.4	3.8	1.49e+00	0	29	104	0	86	23406
2026-01-03 23:49:19.68	174.99	10.27	-60.3	-76.4	3.8	1.49e+00	0	29	104	0	86	23395
2026-01-03 23:49:23.68	175.22	9.94	-60.3	-76.4	3.8	1.49e+00	0	29	104	0	86	23419
2026-01-03 23:49:27.69	175.45	9.61	-60.3	-76.4	3.8	1.49e+00	0	29	104	0	86	23325
2026-01-03 23:49:31.70	175.68	9.28	-60.3	-76.4	3.8	1.49e+00	0	29	104	0	86	23429
2026-01-03 23:49:35.70	175.89	8.96	-60.3	-76.4	3.8	1.49e+00	0	29	104	0	86	23352
2026-01-03 23:49:39.71	176.11	8.65	-60.3	-76.4	3.8	1.49e+00	0	29	104	0	86	23406
2026-01-03 23:49:43.69	176.32	8.34	-60.3	-76.4	3.8	1.49e+00	0	29	104	0	86	23355
2026-01-03 23:49:47.68	176.52	8.03	-60.3	-76.3	3.8	1.49e+00	0	29	104	0	86	23290
2026-01-03 23:49:51.69	176.73	7.72	-60.3	-76.4	3.8	1.49e+00	0	29	104	0	86	23377
2026-01-03 23:49:55.68	176.92	7.42	-60.3	-76.4	3.8	1.49e+00	0	29	104	0	86	23368
2026-01-03 23:49:59.68	177.12	7.12	-60.3	-76.4	3.8	1.49e+00	0	29	104	0	86	23389
2026-01-03 23:50:03.69	177.31	6.82	-60.3	-76.4	3.8	1.49e+00	0	29	104	0	86	23383
2026-01-03 23:50:07.69	177.50	6.53	-60.3	-76.4	3.8	1.49e+00	0	29	104	0	86	23375
2026-01-03 23:50:11.71	177.68	6.24	-60.3	-76.4	3.8	1.49e+00	0	29	104	0	86	23339
2026-01-03 23:50:15.71	177.86	5.95	-60.3	-76.4	3.8	1.49e+00	0	29	104	0	86	23386
2026-01-03 23:50:19.72	178.04	5.67	-60.3	-76.4	3.8	1.49e+00	0	29	104	0	86	23364
2026-01-03 23:50:23.71	178.21	5.39	-60.3	-76.4	3.8	1.49e+00	0	29	104	0	86	23412
2026-01-03 23:50:27.71	178.38	5.11	-60.3	-76.4	3.8	1.49e+00	0	29	104	0	86	23327
2026-01-03 23:50:31.70	178.55	4.84	-60.3	-76.4	3.8	1.49e+00	0	29	104	0	86	23385
2026-01-03 23:50:35.71	178.72	4.56	-60.3	-76.4	3.8	1.49e+00	0	29	104	0	86	23359
2026-01-03 23:50:39.68	178.88	4.30	-60.3	-76.4	3.8	1.49e+00	0	29	104	0	86	23384
2026-01-03 23:50:43.68	179.04	4.03	-60.3	-76.3	3.8	1.49e+00	0	29	104	0	86	23307
2026-01-03 23:50:47.68	179.19	3.76	-60.3	-76.3	3.8	1.49e+00	0	29	104	0	86	23285
2026-01-03 23:50:51.66	179.35	3.50	-60.3	-76.3	3.8	1.49e+00	0	29	104	0	86	23268
2026-01-03 23:50:55.65	179.50	3.24	-60.3	-76.4	3.8	1.49e+00	0	29	104	0	86	23361
2026-01-03 23:50:59.66	179.65	2.98	-60.3	-76.3	3.8	1.49e+00	0	29	104	0	86	23306
2026-01-03 23:51:03.66	179.80	2.73	-60.3	-76.3	3.8	1.49e+00	0	29	104	0	86	23249
2026-01-03 23:51:07.67	179.94	2.47	-60.3	-76.4	3.8	1.49e+00	0	29	104	0	86	23349
2026-01-03 23:51:11.66	180.09	2.22	-60.2	-76.3	3.8	1.49e+00	0	29	104	0	86	23238
2026-01-03 23:51:15.65	180.23	1.98	-60.3	-76.3	3.8	1.49e+00	0	29	104	0	86	23295

#Closed at: 2026-01-03 23:51:17
#Recorded file [0 MB]: D:/lorett/data/31004_260104_023703.dat