passes_logs/2026/01/03/R3.2S_Murmansk/R3.2S_Murmansk__20260103_023725_FENGYUN_3D_rec.log

#Pass ID: 20260103_023725_FENGYUN 3D
#Satellite: FENGYUN 3D
#Configuration: FENGYUN 3D
#almurnet v.1.7.20251203
#Start time: 2026-01-03 02:37:25

#Version: 2.2.20231116
#Station: R3.2S_Murmansk
#Location: 33.079688 lon 68.888172 lat
#TLE: 1 43010U 17072A   26002.81102625  .00000200  00000+0  11640-3 0  9996
#TLE: 2 43010  98.9911 334.4394 0001899 131.0556 229.0784 14.19692049421526

#Time	Az	El	Level	Level2	SNR	BER	BlckErr	Temp	State	Recorded	gain1	gain2
2026-01-03 02:37:25.65	24.66	2.03	-59.8	-72.4	3.8	8.45e-01	0	29	0	0	85	15610
2026-01-03 02:37:29.65	24.69	2.29	-59.8	-72.3	3.8	8.46e-01	0	29	104	0	84	16475
2026-01-03 02:37:33.64	24.72	2.55	-59.8	-72.0	3.8	8.45e-01	0	29	104	0	84	15812
2026-01-03 02:37:37.65	24.75	2.81	-59.8	-71.3	3.8	8.44e-01	0	29	104	0	84	14631
2026-01-03 02:37:41.66	24.78	3.07	-59.7	-70.6	3.8	8.45e-01	0	30	104	0	84	13512
2026-01-03 02:37:45.67	24.82	3.34	-59.7	-70.6	3.8	8.44e-01	0	29	104	0	84	13473
2026-01-03 02:37:49.67	24.85	3.61	-59.1	-66.1	5.3	7.45e-01	0	30	0	0	84	8077
2026-01-03 02:37:53.67	24.88	3.88	-57.0	-60.3	9.8	4.70e-03	0	30	0	20971520	80	5181
2026-01-03 02:37:57.68	24.91	4.15	-55.0	-57.0	12.4	5.70e-06	0	30	0	44040192	76	4443
2026-01-03 02:38:01.68	24.94	4.43	-54.0	-55.7	13.2	0.00e+00	0	30	0	66060288	74	4296
2026-01-03 02:38:05.69	24.98	4.71	-54.5	-56.4	12.7	0.00e+00	0	30	0	88080384	74	4658
2026-01-03 02:38:09.68	25.01	4.99	-56.0	-58.5	11.3	5.14e-05	0	30	0	111149056	77	4988
2026-01-03 02:38:13.68	25.04	5.28	-53.9	-55.3	13.4	7.58e-02	0	30	0	133169152	74	4137
2026-01-03 02:38:17.69	25.07	5.57	-51.5	-52.5	14.9	0.00e+00	0	30	0	156237824	69	3990
2026-01-03 02:38:21.70	25.11	5.86	-51.4	-52.4	14.9	0.00e+00	0	30	0	179306496	69	3928
2026-01-03 02:38:25.69	25.14	6.15	-51.4	-52.4	14.9	0.00e+00	0	30	0	201326592	69	3938
2026-01-03 02:38:29.69	25.18	6.45	-51.4	-52.3	15.0	0.00e+00	0	30	0	223346688	69	3899
2026-01-03 02:38:33.69	25.21	6.75	-51.1	-52.0	15.1	0.00e+00	0	30	0	246415360	68	3969
2026-01-03 02:38:37.69	25.25	7.06	-51.1	-52.0	15.1	0.00e+00	0	31	0	268435456	68	3989
2026-01-03 02:38:41.71	25.28	7.37	-51.0	-51.9	15.2	0.00e+00	0	31	0	291504128	68	3941
2026-01-03 02:38:45.70	25.32	7.68	-51.0	-51.9	15.2	0.00e+00	0	31	0	313524224	68	3940
2026-01-03 02:38:49.70	25.35	8.00	-51.0	-51.9	15.2	0.00e+00	0	30	0	336592896	68	3916
2026-01-03 02:38:53.71	25.39	8.32	-51.1	-52.0	15.2	0.00e+00	0	31	0	358612992	68	3962
2026-01-03 02:38:57.72	25.43	8.65	-50.9	-51.8	15.3	0.00e+00	0	31	0	381681664	68	3871
2026-01-03 02:39:01.72	25.46	8.98	-50.9	-51.7	15.3	0.00e+00	0	30	0	403701760	68	3865
2026-01-03 02:39:05.72	25.50	9.31	-50.9	-51.8	15.3	0.00e+00	0	31	0	426770432	68	3882
2026-01-03 02:39:09.72	25.54	9.65	-50.6	-51.4	15.3	0.00e+00	0	31	0	448790528	67	3940
2026-01-03 02:39:13.72	25.58	10.00	-50.6	-51.4	15.4	0.00e+00	0	31	0	470810624	67	3951
2026-01-03 02:39:17.71	25.62	10.34	-50.5	-51.3	15.4	0.00e+00	0	31	0	493879296	67	3904
2026-01-03 02:39:21.71	25.66	10.70	-50.3	-51.1	15.5	0.00e+00	0	31	0	515899392	67	3823
2026-01-03 02:39:25.70	25.70	11.05	-50.3	-51.1	15.5	0.00e+00	0	31	0	538968064	67	3786
2026-01-03 02:39:29.70	25.74	11.42	-50.3	-51.1	15.5	0.00e+00	0	31	0	560988160	66	4011
2026-01-03 02:39:33.69	25.78	11.79	-50.2	-51.0	15.5	0.00e+00	0	31	0	584056832	66	3966
2026-01-03 02:39:37.69	25.82	12.16	-50.2	-51.0	15.5	0.00e+00	0	31	0	606076928	66	3988
2026-01-03 02:39:41.70	25.86	12.54	-50.1	-50.9	15.6	0.00e+00	0	31	0	629145600	66	3916
2026-01-03 02:39:45.71	25.91	12.93	-50.1	-50.9	15.5	0.00e+00	0	31	0	651165696	66	3937
2026-01-03 02:39:49.71	25.95	13.32	-50.1	-50.8	15.6	0.00e+00	0	31	0	674234368	66	3905
2026-01-03 02:39:53.71	26.00	13.72	-49.8	-50.6	15.7	0.00e+00	0	31	0	696254464	66	3799
2026-01-03 02:39:57.70	26.04	14.13	-49.5	-50.3	15.7	0.00e+00	0	31	0	719323136	65	3870
2026-01-03 02:40:01.70	26.09	14.54	-49.4	-50.2	15.8	0.00e+00	0	31	0	741343232	65	3827
2026-01-03 02:40:05.70	26.13	14.96	-49.3	-50.0	15.8	0.00e+00	0	31	0	763363328	65	3776
2026-01-03 02:40:09.70	26.18	15.39	-49.0	-49.7	15.9	0.00e+00	0	31	0	786432000	64	3864
2026-01-03 02:40:13.69	26.23	15.82	-48.8	-49.5	15.9	0.00e+00	0	31	0	808452096	64	3746
2026-01-03 02:40:17.69	26.28	16.26	-48.9	-49.6	15.9	0.00e+00	0	31	0	831520768	64	3782
2026-01-03 02:40:21.69	26.33	16.72	-48.6	-49.2	16.0	0.00e+00	0	31	0	853540864	63	3853
2026-01-03 02:40:25.69	26.38	17.18	-48.4	-49.1	16.0	0.00e+00	0	31	0	875560960	63	3800
2026-01-03 02:40:29.68	26.44	17.64	-48.4	-49.0	16.0	0.00e+00	0	31	0	898629632	63	3774
2026-01-03 02:40:33.67	26.49	18.12	-48.3	-49.0	16.1	0.00e+00	0	31	0	920649728	63	3755
2026-01-03 02:40:37.67	26.55	18.61	-48.2	-48.8	16.0	0.00e+00	0	31	0	943718400	62	3886
2026-01-03 02:40:41.67	26.60	19.10	-48.3	-48.9	16.0	0.00e+00	0	31	0	965738496	62	3952
2026-01-03 02:40:45.68	26.66	19.61	-48.3	-48.9	16.0	0.00e+00	0	31	0	988807168	62	3931
2026-01-03 02:40:49.67	26.72	20.13	-47.9	-48.5	16.1	0.00e+00	0	31	0	1010827264	62	3767
2026-01-03 02:40:53.68	26.78	20.66	-47.8	-48.4	16.2	0.00e+00	0	31	0	1033895936	62	3697
2026-01-03 02:40:57.68	26.84	21.20	-47.5	-48.1	16.2	0.00e+00	0	31	0	1055916032	61	3811
2026-01-03 02:41:01.68	26.91	21.75	-47.7	-48.3	16.1	0.00e+00	0	31	0	1078984704	61	3904
2026-01-03 02:41:05.68	26.97	22.31	-47.7	-48.3	16.1	0.00e+00	0	31	0	1101004800	61	3886
2026-01-03 02:41:09.67	27.04	22.89	-47.4	-48.0	16.2	0.00e+00	0	31	0	1124073472	61	3743
2026-01-03 02:41:13.66	27.11	23.48	-47.2	-47.8	16.3	0.00e+00	0	31	0	1146093568	61	3657
2026-01-03 02:41:17.67	27.18	24.08	-47.1	-47.7	16.2	0.00e+00	0	31	0	1168113664	60	3850
2026-01-03 02:41:21.68	27.25	24.70	-47.0	-47.5	16.3	0.00e+00	0	31	0	1191182336	60	3769
2026-01-03 02:41:25.65	27.33	25.33	-47.1	-47.7	16.2	0.00e+00	0	31	0	1213202432	60	3848
2026-01-03 02:41:29.65	27.41	25.98	-47.1	-47.6	16.2	0.00e+00	0	31	0	1236271104	60	3816
2026-01-03 02:41:33.65	27.49	26.65	-47.0	-47.6	16.3	0.00e+00	0	31	0	1258291200	60	3790
2026-01-03 02:41:37.66	27.57	27.33	-47.0	-47.5	16.3	0.00e+00	0	31	0	1281359872	60	3769
2026-01-03 02:41:41.66	27.66	28.03	-47.0	-47.6	16.3	0.00e+00	0	31	0	1303379968	60	3788
2026-01-03 02:41:45.67	27.75	28.75	-47.2	-47.8	16.2	0.00e+00	0	31	0	1326448640	60	3912
2026-01-03 02:41:49.68	27.84	29.49	-46.9	-47.5	16.3	0.00e+00	0	31	0	1348468736	60	3747
2026-01-03 02:41:53.68	27.94	30.24	-46.9	-47.5	16.3	0.00e+00	0	31	0	1371537408	60	3749
2026-01-03 02:41:57.68	28.04	31.02	-47.1	-47.7	16.2	0.00e+00	0	31	0	1393557504	59	4062
2026-01-03 02:42:01.68	28.14	31.82	-46.9	-47.5	16.3	0.00e+00	0	31	0	1415577600	60	3769
2026-01-03 02:42:05.67	28.25	32.63	-47.1	-47.7	16.2	0.00e+00	0	31	0	1438646272	60	3862
2026-01-03 02:42:09.68	28.37	33.48	-47.0	-47.5	16.3	0.00e+00	0	31	0	1460666368	60	3778
2026-01-03 02:42:13.69	28.49	34.35	-47.2	-47.7	16.2	0.00e+00	0	31	0	1483735040	59	4097
2026-01-03 02:42:17.65	28.61	35.23	-46.7	-47.2	16.3	0.00e+00	0	31	0	1505755136	59	3860
2026-01-03 02:42:21.66	28.74	36.15	-46.6	-47.2	16.3	0.00e+00	0	31	0	1528823808	59	3834
2026-01-03 02:42:25.66	28.88	37.09	-46.5	-47.0	16.4	0.00e+00	0	31	0	1550843904	59	3758
2026-01-03 02:42:29.66	29.02	38.07	-46.7	-47.2	16.3	0.00e+00	0	31	0	1573912576	59	3850
2026-01-03 02:42:33.65	29.18	39.06	-47.0	-47.6	16.2	0.00e+00	0	31	0	1595932672	59	4037
2026-01-03 02:42:37.65	29.34	40.09	-46.9	-47.5	16.2	0.00e+00	0	31	0	1619001344	59	3987
2026-01-03 02:42:41.65	29.51	41.16	-47.3	-47.9	16.1	0.00e+00	0	31	0	1641021440	59	4161
2026-01-03 02:42:45.65	29.69	42.25	-47.2	-47.7	16.1	0.00e+00	0	31	0	1663041536	59	4088
2026-01-03 02:42:49.65	29.89	43.38	-47.3	-47.9	16.1	0.00e+00	0	31	0	1686110208	59	4146
2026-01-03 02:42:53.64	30.09	44.53	-47.3	-47.8	16.2	0.00e+00	0	31	0	1708130304	60	3909
2026-01-03 02:42:57.62	30.31	45.72	-46.9	-47.4	16.3	0.00e+00	0	31	0	1731198976	60	3736
2026-01-03 02:43:01.63	30.55	46.96	-47.2	-47.8	16.2	0.00e+00	0	31	0	1753219072	60	3897
2026-01-03 02:43:05.63	30.81	48.22	-47.1	-47.7	16.3	0.00e+00	0	31	0	1776287744	60	3846
2026-01-03 02:43:09.63	31.09	49.53	-47.2	-47.7	16.1	0.00e+00	0	31	0	1798307840	59	4087
2026-01-03 02:43:13.64	31.39	50.88	-47.5	-48.1	16.1	0.00e+00	0	31	0	1820327936	60	4024
2026-01-03 02:43:17.63	31.72	52.26	-48.0	-48.6	16.1	0.00e+00	0	31	0	1843396608	61	4033
2026-01-03 02:43:21.63	32.08	53.68	-48.3	-48.9	16.0	0.00e+00	0	31	0	1865416704	61	4185
2026-01-03 02:43:25.62	32.47	55.14	-48.5	-49.2	16.0	0.00e+00	0	31	0	1888485376	62	4067
2026-01-03 02:43:29.62	32.91	56.64	-48.2	-48.8	16.1	0.00e+00	0	31	0	1910505472	62	3910
2026-01-03 02:43:33.62	33.39	58.18	-47.5	-48.1	16.2	0.00e+00	0	31	0	1933574144	61	3805
2026-01-03 02:43:37.63	33.94	59.77	-47.3	-47.8	16.3	0.00e+00	0	31	0	1955594240	61	3694
2026-01-03 02:43:41.63	34.56	61.39	-46.5	-47.0	16.4	0.00e+00	0	31	0	1978662912	59	3763
2026-01-03 02:43:45.65	35.26	63.06	-47.0	-47.6	16.2	0.00e+00	0	31	0	2000683008	59	4011
2026-01-03 02:43:49.65	36.06	64.75	-46.6	-47.1	16.4	0.00e+00	0	31	0	2023751680	59	3807
2026-01-03 02:43:53.67	37.00	66.49	-46.9	-47.4	16.2	0.00e+00	0	31	0	2045771776	59	3943
2026-01-03 02:43:57.67	38.10	68.25	-46.7	-47.2	16.3	0.00e+00	0	31	0	2068840448	59	3863
2026-01-03 02:44:01.68	39.41	70.04	-46.5	-47.0	16.4	0.00e+00	0	31	0	2090860544	59	3778
2026-01-03 02:44:05.68	40.99	71.85	-46.6	-47.2	16.3	0.00e+00	0	31	0	2113929216	59	3832
2026-01-03 02:44:09.68	42.94	73.68	-46.0	-46.6	16.4	0.00e+00	0	31	0	2135949312	58	3788
2026-01-03 02:44:13.69	45.41	75.51	-45.9	-46.5	16.3	0.00e+00	0	31	0	2159017984	57	3960
2026-01-03 02:44:17.67	48.60	77.33	-45.4	-45.9	16.5	0.00e+00	0	31	0	2181038080	57	3703
2026-01-03 02:44:21.67	52.90	79.12	-45.0	-45.5	16.5	0.00e+00	0	31	0	2203058176	56	3745
2026-01-03 02:44:25.67	58.88	80.85	-44.8	-45.3	16.5	0.00e+00	0	31	0	2226126848	56	3675
2026-01-03 02:44:29.67	67.56	82.44	-44.5	-45.0	16.5	0.00e+00	0	31	0	2248146944	55	3747
2026-01-03 02:44:33.67	80.45	83.79	-44.5	-45.1	16.5	0.00e+00	0	31	0	2271215616	55	3782
2026-01-03 02:44:37.66	98.93	84.68	-44.7	-45.2	16.4	0.00e+00	0	31	0	2293235712	55	3849
2026-01-03 02:44:41.65	121.46	84.86	-44.8	-45.4	16.4	0.00e+00	0	31	0	2316304384	55	3918
2026-01-03 02:44:45.66	142.38	84.26	-44.8	-45.3	16.4	0.00e+00	0	31	0	2338324480	55	3870
2026-01-03 02:44:49.67	157.75	83.09	-44.5	-45.0	16.5	0.00e+00	0	31	0	2361393152	55	3751
2026-01-03 02:44:53.68	168.11	81.58	-44.7	-45.2	16.4	0.00e+00	0	31	0	2383413248	55	3846
2026-01-03 02:44:57.67	175.13	79.90	-44.6	-45.1	16.4	0.00e+00	0	31	0	2406481920	55	3806
2026-01-03 02:45:01.68	180.10	78.13	-45.1	-45.6	16.3	0.00e+00	0	31	0	2428502016	55	4021
2026-01-03 02:45:05.69	183.74	76.31	-45.0	-45.5	16.3	0.00e+00	0	31	0	2451570688	55	3983
2026-01-03 02:45:09.70	186.50	74.47	-45.9	-46.5	16.3	0.00e+00	0	31	0	2473590784	57	3973
2026-01-03 02:45:13.71	188.66	72.63	-46.4	-47.0	16.2	0.00e+00	0	31	0	2496659456	57	4195
2026-01-03 02:45:17.72	190.40	70.81	-46.4	-46.9	16.3	0.00e+00	0	31	0	2518679552	58	3931
2026-01-03 02:45:21.73	191.81	69.00	-46.4	-46.9	16.3	0.00e+00	0	31	0	2541748224	58	3949
2026-01-03 02:45:25.72	192.99	67.23	-47.0	-47.6	16.2	0.00e+00	0	31	0	2563768320	59	4019
2026-01-03 02:45:29.71	193.99	65.49	-46.9	-47.5	16.2	0.00e+00	0	31	0	2586836992	59	3993
2026-01-03 02:45:33.72	194.85	63.77	-46.7	-47.3	16.3	0.00e+00	0	31	0	2608857088	59	3872
2026-01-03 02:45:37.71	195.59	62.10	-47.2	-47.8	16.1	0.00e+00	0	31	0	2630877184	59	4106
2026-01-03 02:45:41.72	196.24	60.45	-47.0	-47.5	16.2	0.00e+00	0	31	0	2653945856	59	3989
2026-01-03 02:45:45.72	196.81	58.85	-47.3	-47.8	16.2	0.00e+00	0	31	0	2675965952	60	3908
2026-01-03 02:45:49.74	197.33	57.27	-47.5	-48.1	16.2	0.00e+00	0	31	0	2699034624	60	4011
2026-01-03 02:45:53.75	197.78	55.75	-47.9	-48.5	16.0	0.00e+00	0	31	0	2722103296	60	4210
2026-01-03 02:45:57.77	198.20	54.26	-48.1	-48.7	16.0	0.00e+00	0	31	0	2744123392	61	4084
2026-01-03 02:46:01.78	198.57	52.81	-47.8	-48.4	16.1	0.00e+00	0	31	0	2766143488	61	3915
2026-01-03 02:46:05.78	198.91	51.40	-47.8	-48.3	16.1	0.00e+00	0	31	0	2789212160	61	3908
2026-01-03 02:46:09.78	199.23	50.04	-47.3	-47.9	16.3	0.00e+00	0	31	0	2811232256	61	3727
2026-01-03 02:46:13.79	199.51	48.71	-47.2	-47.8	16.1	0.00e+00	0	31	0	2834300928	59	4116
2026-01-03 02:46:17.79	199.78	47.42	-46.9	-47.5	16.2	0.00e+00	0	31	0	2857369600	59	3979
2026-01-03 02:46:21.80	200.02	46.17	-46.9	-47.4	16.2	0.00e+00	0	31	0	2879389696	59	3955
2026-01-03 02:46:25.80	200.25	44.96	-47.3	-47.9	16.1	0.00e+00	0	31	0	2901409792	59	4177
2026-01-03 02:46:29.79	200.46	43.78	-46.9	-47.5	16.2	0.00e+00	0	31	0	2924478464	59	3982
2026-01-03 02:46:33.80	200.66	42.64	-46.7	-47.2	16.4	0.00e+00	0	31	0	2946498560	60	3640
2026-01-03 02:46:37.81	200.85	41.52	-46.9	-47.5	16.2	0.00e+00	0	31	0	2969567232	59	3989
2026-01-03 02:46:41.82	201.03	40.44	-46.7	-47.3	16.3	0.00e+00	0	31	0	2991587328	59	3890
2026-01-03 02:46:45.82	201.19	39.40	-46.8	-47.4	16.2	0.00e+00	0	31	0	3014656000	59	3923
2026-01-03 02:46:49.83	201.35	38.38	-46.8	-47.4	16.2	0.00e+00	0	31	0	3036676096	59	3935
2026-01-03 02:46:53.84	201.49	37.39	-46.5	-47.1	16.3	0.00e+00	0	31	0	3059744768	59	3787
2026-01-03 02:46:57.83	201.63	36.44	-46.7	-47.3	16.2	0.00e+00	0	31	0	3081764864	59	3888
2026-01-03 02:47:01.83	201.77	35.51	-46.7	-47.3	16.3	0.00e+00	0	31	0	3104833536	59	3899
2026-01-03 02:47:05.83	201.89	34.60	-46.7	-47.2	16.2	0.00e+00	0	31	0	3126853632	59	3864
2026-01-03 02:47:09.83	202.01	33.72	-47.0	-47.6	16.1	0.00e+00	0	31	0	3148873728	59	4019
2026-01-03 02:47:13.83	202.13	32.87	-47.3	-47.9	16.0	0.00e+00	0	31	0	3171942400	59	4171
2026-01-03 02:47:17.82	202.24	32.04	-47.3	-47.9	16.1	0.00e+00	0	31	0	3193962496	59	4167
2026-01-03 02:47:21.83	202.34	31.23	-47.3	-47.9	16.0	0.00e+00	0	31	0	3217031168	59	4178
2026-01-03 02:47:25.83	202.44	30.44	-46.9	-47.5	16.3	0.00e+00	0	31	0	3239051264	60	3738
2026-01-03 02:47:29.82	202.54	29.68	-46.7	-47.3	16.3	0.00e+00	0	31	0	3262119936	60	3655
2026-01-03 02:47:33.81	202.63	28.93	-46.9	-47.5	16.3	0.00e+00	0	31	0	3284140032	60	3742
2026-01-03 02:47:37.81	202.72	28.21	-46.9	-47.4	16.3	0.00e+00	0	31	0	3307208704	60	3727
2026-01-03 02:47:41.82	202.81	27.50	-46.8	-47.4	16.3	0.00e+00	0	31	0	3329228800	60	3699
2026-01-03 02:47:45.82	202.89	26.81	-46.8	-47.3	16.3	0.00e+00	0	31	0	3352297472	60	3677
2026-01-03 02:47:49.82	202.97	26.13	-46.8	-47.4	16.3	0.00e+00	0	31	0	3374317568	60	3723
2026-01-03 02:47:53.81	203.05	25.48	-46.9	-47.4	16.2	0.00e+00	0	31	0	3397386240	60	3735
2026-01-03 02:47:57.80	203.13	24.84	-46.9	-47.5	16.2	0.00e+00	0	31	0	3419406336	60	3769
2026-01-03 02:48:01.80	203.20	24.21	-47.2	-47.7	16.1	0.00e+00	0	31	0	3441426432	60	3868
2026-01-03 02:48:05.80	203.27	23.60	-47.0	-47.6	16.2	0.00e+00	0	31	0	3464495104	60	3812
2026-01-03 02:48:09.79	203.34	23.00	-47.2	-47.8	16.1	0.00e+00	0	31	0	3486515200	60	3902
2026-01-03 02:48:13.79	203.40	22.42	-47.3	-47.9	16.1	0.00e+00	0	31	0	3509583872	60	3956
2026-01-03 02:48:17.78	203.47	21.85	-47.5	-48.2	16.0	0.00e+00	0	31	0	3531603968	60	4057
2026-01-03 02:48:21.77	203.53	21.29	-47.7	-48.3	16.0	0.00e+00	0	31	0	3553624064	60	4107
2026-01-03 02:48:25.77	203.59	20.75	-47.8	-48.4	15.9	0.00e+00	0	31	0	3576692736	60	4185
2026-01-03 02:48:29.76	203.65	20.21	-47.8	-48.4	15.9	0.00e+00	0	31	0	3598712832	60	4190
2026-01-03 02:48:33.75	203.71	19.69	-47.9	-48.6	16.0	0.00e+00	0	31	0	3621781504	61	4008
2026-01-03 02:48:37.74	203.77	19.18	-48.0	-48.7	16.0	0.00e+00	0	31	0	3643801600	61	4060
2026-01-03 02:48:41.74	203.82	18.68	-48.1	-48.7	15.9	0.00e+00	0	31	0	3665821696	61	4088
2026-01-03 02:48:45.72	203.88	18.19	-48.1	-48.8	15.9	0.00e+00	0	31	0	3688890368	61	4111
2026-01-03 02:48:49.72	203.93	17.71	-48.3	-48.9	15.8	0.00e+00	0	31	0	3710910464	61	4189
2026-01-03 02:48:53.71	203.98	17.23	-48.5	-49.1	15.9	0.00e+00	0	31	0	3733979136	62	4049
2026-01-03 02:48:57.71	204.03	16.77	-48.6	-49.2	15.8	0.00e+00	0	31	0	3755999232	62	4096
2026-01-03 02:49:01.71	204.08	16.31	-48.7	-49.4	15.8	0.00e+00	0	31	0	3779067904	62	4150
2026-01-03 02:49:05.70	204.13	15.87	-48.8	-49.4	15.8	0.00e+00	0	31	0	3801088000	62	4180
2026-01-03 02:49:09.69	204.17	15.43	-48.9	-49.6	15.8	0.00e+00	0	31	0	3823108096	63	4019
2026-01-03 02:49:13.68	204.22	15.00	-48.9	-49.6	15.8	0.00e+00	0	31	0	3846176768	63	4037
2026-01-03 02:49:17.67	204.27	14.57	-49.1	-49.8	15.7	0.00e+00	0	31	0	3868196864	63	4102
2026-01-03 02:49:21.67	204.31	14.16	-49.1	-49.8	15.7	0.00e+00	0	31	0	3891265536	63	4130
2026-01-03 02:49:25.65	204.35	13.75	-49.3	-50.0	15.6	0.00e+00	0	31	0	3913285632	63	4223
2026-01-03 02:49:29.63	204.40	13.35	-49.3	-50.1	15.7	0.00e+00	0	31	0	3935305728	64	4006
2026-01-03 02:49:33.61	204.44	12.95	-49.4	-50.1	15.6	0.00e+00	0	31	0	3958374400	64	4044
2026-01-03 02:49:37.60	204.48	12.57	-49.5	-50.2	15.6	0.00e+00	0	31	0	3980394496	64	4092
2026-01-03 02:49:41.58	204.52	12.18	-49.6	-50.4	15.6	0.00e+00	0	31	0	4003463168	64	4152
2026-01-03 02:49:45.57	204.56	11.81	-49.7	-50.5	15.5	0.00e+00	0	31	0	4025483264	64	4196
2026-01-03 02:49:49.56	204.60	11.43	-49.9	-50.7	15.4	0.00e+00	0	31	0	4047503360	64	4295
2026-01-03 02:49:53.55	204.64	11.07	-50.0	-50.8	15.4	0.00e+00	0	31	0	4070572032	65	4104
2026-01-03 02:49:57.53	204.68	10.71	-50.0	-50.8	15.4	0.00e+00	0	31	0	4092592128	65	4138
2026-01-03 02:50:01.52	204.71	10.35	-50.2	-51.0	15.3	0.00e+00	0	31	0	4115660800	65	4211
2026-01-03 02:50:05.53	204.75	10.00	-50.1	-50.9	15.4	0.00e+00	0	31	0	4137680896	65	4179
2026-01-03 02:50:09.50	204.79	9.66	-50.2	-51.0	15.4	0.00e+00	0	31	0	4159700992	65	4207
2026-01-03 02:50:13.50	204.82	9.32	-50.3	-51.1	15.3	0.00e+00	0	31	0	4182769664	65	4265
2026-01-03 02:50:17.48	204.86	8.98	-50.5	-51.3	15.3	0.00e+00	0	31	0	4204789760	66	4128
2026-01-03 02:50:21.46	204.89	8.65	-50.5	-51.3	15.3	0.00e+00	0	31	0	4227858432	66	4121
2026-01-03 02:50:25.44	204.93	8.32	-50.6	-51.4	15.2	0.00e+00	0	31	0	4249878528	66	4181
2026-01-03 02:50:29.43	204.96	8.00	-50.8	-51.7	15.1	0.00e+00	0	31	0	4271898624	66	4292
2026-01-03 02:50:33.41	204.99	7.68	-50.7	-51.6	15.1	0.00e+00	0	31	0	4294967296	66	4282
2026-01-03 02:50:37.41	205.03	7.37	-50.9	-51.8	15.1	0.00e+00	0	31	0	4316987392	67	4116
2026-01-03 02:50:41.39	205.06	7.06	-51.0	-51.9	15.0	0.00e+00	0	31	0	4339007488	67	4152
2026-01-03 02:50:45.37	205.09	6.75	-51.1	-52.1	14.9	0.00e+00	0	31	0	4362076160	67	4250
2026-01-03 02:50:49.35	205.12	6.45	-51.2	-52.1	14.9	0.00e+00	0	31	0	4384096256	67	4273
2026-01-03 02:50:53.34	205.16	6.15	-51.3	-52.3	14.8	0.00e+00	0	31	0	4407164928	67	4377
2026-01-03 02:50:57.33	205.19	5.85	-51.6	-52.6	14.8	0.00e+00	0	31	0	4429185024	68	4248
2026-01-03 02:51:01.32	205.22	5.56	-51.5	-52.6	14.8	0.00e+00	0	31	0	4451205120	68	4243
2026-01-03 02:51:05.30	205.25	5.27	-51.6	-52.7	14.7	0.00e+00	0	31	0	4474273792	68	4296
2026-01-03 02:51:09.29	205.28	4.98	-52.3	-53.4	14.4	0.00e+00	0	31	0	4496293888	69	4441
2026-01-03 02:51:13.29	205.31	4.69	-61.2	-73.9	3.8	8.46e-01	0	31	104	4498391040	87	16555
2026-01-03 02:51:17.28	205.34	4.41	-61.6	-74.2	3.8	8.45e-01	0	31	104	4498391040	88	16211
2026-01-03 02:51:21.28	205.37	4.14	-61.8	-74.4	3.8	8.48e-01	0	31	104	4498391040	88	16584
2026-01-03 02:51:25.30	205.40	3.86	-61.9	-74.5	3.8	8.46e-01	0	31	104	4498391040	89	15865
2026-01-03 02:51:29.32	205.42	3.58	-62.0	-74.6	3.8	8.45e-01	0	31	104	4498391040	89	16013
2026-01-03 02:51:33.32	205.45	3.31	-62.0	-74.6	3.8	8.45e-01	0	31	104	4498391040	89	16047
2026-01-03 02:51:37.31	205.48	3.05	-61.9	-74.6	3.8	8.44e-01	0	31	104	4498391040	89	15993
2026-01-03 02:51:41.30	205.51	2.78	-61.9	-74.5	3.8	8.46e-01	0	31	104	4498391040	89	15916
2026-01-03 02:51:45.28	205.54	2.52	-61.9	-74.5	3.8	8.45e-01	0	31	104	4498391040	89	15854
2026-01-03 02:51:49.29	205.56	2.26	-61.9	-74.5	3.8	8.45e-01	0	31	104	4498391040	89	15869
2026-01-03 02:51:53.30	205.59	2.00	-61.9	-74.5	3.8	8.46e-01	0	31	104	4498391040	89	15864

#Closed at: 2026-01-03 02:51:55
#Recorded file [4498 MB]: D:/lorett/data/31004_260103_053725.dat