passes_logs/2026/01/03/R3.2S_Murmansk/R3.2S_Murmansk__20260103_063434_SUOMI_NPP_rec.log

#Pass ID: 20260103_063434_SUOMI NPP
#Satellite: SUOMI NPP
#Configuration: NPP
#almurnet v.1.7.20251203
#Start time: 2026-01-03 06:34:34

#Version: 2.2.20231116
#Station: R3.2S_Murmansk
#Location: 33.079688 lon 68.888172 lat
#TLE: 1 37849U 11061A   26001.07732418  .00000182  00000+0  10735-3 0  9990
#TLE: 2 37849  98.7795 303.2470 0002580  87.2016 272.9455 14.19520779734739

#Time	Az	El	Level	Level2	SNR	BER	BlckErr	Temp	State	Recorded	gain1	gain2
2026-01-03 06:34:34.08	85.22	1.98	-59.5	-75.1	3.8	1.49e+00	0	28	0	0	85	21401
2026-01-03 06:34:38.08	84.99	2.21	-59.4	-74.9	3.8	1.49e+00	0	28	104	0	83	23528
2026-01-03 06:34:42.09	84.76	2.45	-59.4	-74.9	3.8	1.49e+00	0	29	104	0	83	23547
2026-01-03 06:34:46.10	84.52	2.69	-59.4	-74.9	3.8	1.49e+00	0	29	104	0	83	23568
2026-01-03 06:34:50.10	84.28	2.93	-59.4	-74.9	3.8	1.49e+00	0	29	104	0	83	23567
2026-01-03 06:34:54.10	84.04	3.17	-59.4	-74.9	3.8	1.49e+00	0	29	104	0	83	23525
2026-01-03 06:34:58.10	83.79	3.41	-59.4	-75.0	3.8	1.49e+00	0	29	104	0	83	23593
2026-01-03 06:35:02.11	83.54	3.65	-59.6	-74.9	3.8	1.49e+00	0	29	104	0	84	22191
2026-01-03 06:35:06.12	83.28	3.90	-59.6	-75.1	3.8	1.49e+00	0	29	104	0	84	22629
2026-01-03 06:35:10.11	83.02	4.14	-59.6	-74.5	3.8	1.49e+00	0	29	104	0	84	21036
2026-01-03 06:35:14.11	82.75	4.39	-59.4	-71.7	4.2	1.42e+00	0	29	0	0	84	15292
2026-01-03 06:35:18.12	82.48	4.64	-59.2	-68.7	5.4	5.42e-01	0	29	0	5242880	84	10838
2026-01-03 06:35:22.14	82.20	4.89	-59.1	-67.8	6.0	2.74e-01	0	29	0	13631488	84	9750
2026-01-03 06:35:26.15	81.92	5.15	-59.2	-67.9	6.0	1.93e-01	0	29	0	20971520	84	9840
2026-01-03 06:35:30.14	81.64	5.40	-57.6	-61.9	10.8	9.22e-01	0	30	0	25165824	81	5904
2026-01-03 06:35:34.14	81.35	5.66	-57.2	-60.9	11.6	6.33e-05	0	30	0	32505856	81	5258
2026-01-03 06:35:38.14	81.05	5.92	-56.3	-59.5	12.5	0.00e+00	0	30	0	39845888	79	5032
2026-01-03 06:35:42.13	80.75	6.18	-56.4	-59.7	12.4	1.50e-06	0	30	0	48234496	79	5147
2026-01-03 06:35:46.13	80.44	6.44	-56.0	-58.9	12.9	0.00e+00	0	30	0	55574528	78	4956
2026-01-03 06:35:50.13	80.12	6.70	-55.4	-58.0	13.5	0.00e+00	0	30	0	62914560	77	4731
2026-01-03 06:35:54.12	79.81	6.97	-55.7	-58.4	13.3	0.00e+00	0	30	0	70254592	77	4981
2026-01-03 06:35:58.10	79.48	7.24	-55.6	-58.3	13.4	0.00e+00	0	30	0	77594624	77	4871
2026-01-03 06:36:02.08	79.15	7.51	-55.5	-58.2	13.4	0.00e+00	0	30	0	84934656	77	4838
2026-01-03 06:36:06.05	78.81	7.78	-55.6	-58.3	13.4	0.00e+00	0	30	0	92274688	77	4878
2026-01-03 06:36:10.05	78.47	8.05	-55.6	-58.1	13.5	0.00e+00	0	30	0	99614720	77	4806
2026-01-03 06:36:14.06	78.11	8.33	-55.4	-57.8	13.7	0.00e+00	0	30	0	108003328	77	4644
2026-01-03 06:36:18.05	77.76	8.60	-55.6	-58.1	13.6	0.00e+00	0	30	0	115343360	77	4762
2026-01-03 06:36:22.04	77.39	8.88	-55.4	-57.8	13.7	0.00e+00	0	30	0	122683392	77	4645
2026-01-03 06:36:26.03	77.02	9.16	-55.4	-57.8	13.7	0.00e+00	0	30	0	130023424	77	4632
2026-01-03 06:36:30.01	76.64	9.44	-55.9	-58.7	13.2	0.00e+00	0	30	0	137363456	77	5127
2026-01-03 06:36:34.00	76.25	9.73	-55.5	-58.1	13.6	0.00e+00	0	30	0	144703488	77	4769
2026-01-03 06:36:38.01	75.85	10.02	-55.3	-57.8	13.7	0.00e+00	0	30	0	152043520	77	4645
2026-01-03 06:36:41.99	75.45	10.31	-55.3	-57.8	13.8	0.00e+00	0	30	0	160432128	77	4640
2026-01-03 06:36:45.98	75.04	10.60	-55.2	-57.6	13.9	0.00e+00	0	30	0	167772160	76	4766
2026-01-03 06:36:49.97	74.62	10.89	-55.2	-57.7	13.8	0.00e+00	0	30	0	175112192	76	4822
2026-01-03 06:36:53.96	74.19	11.18	-55.3	-57.7	13.8	0.00e+00	0	30	0	182452224	76	4820
2026-01-03 06:36:57.94	73.75	11.48	-55.2	-57.4	14.0	0.00e+00	0	30	0	189792256	76	4705
2026-01-03 06:37:01.91	73.30	11.78	-55.0	-57.1	14.1	0.00e+00	0	30	0	197132288	76	4537
2026-01-03 06:37:05.88	72.85	12.07	-54.9	-57.0	14.3	0.00e+00	0	30	0	204472320	76	4443
2026-01-03 06:37:09.88	72.38	12.38	-55.2	-57.5	14.0	0.00e+00	0	30	0	211812352	76	4753
2026-01-03 06:37:13.87	71.90	12.68	-55.3	-57.6	13.9	0.00e+00	0	30	0	220200960	76	4762
2026-01-03 06:37:17.87	71.41	12.99	-55.4	-57.9	13.8	0.00e+00	0	30	0	227540992	76	4930
2026-01-03 06:37:21.85	70.92	13.29	-55.4	-57.7	13.8	0.00e+00	0	30	0	234881024	76	4860
2026-01-03 06:37:25.81	70.41	13.60	-55.0	-57.2	14.1	0.00e+00	0	30	0	242221056	76	4556
2026-01-03 06:37:29.79	69.89	13.91	-54.3	-56.2	14.6	0.00e+00	0	30	0	249561088	75	4298
2026-01-03 06:37:33.78	69.36	14.22	-54.3	-56.2	14.5	0.00e+00	0	30	0	256901120	74	4563
2026-01-03 06:37:37.79	68.82	14.54	-54.2	-56.1	14.6	0.00e+00	0	30	0	264241152	74	4506
2026-01-03 06:37:41.77	68.27	14.85	-54.4	-56.3	14.5	0.00e+00	0	31	0	271581184	74	4609
2026-01-03 06:37:45.75	67.70	15.17	-54.3	-56.2	14.5	0.00e+00	0	30	0	279969792	74	4548
2026-01-03 06:37:49.74	67.12	15.49	-54.3	-56.2	14.5	0.00e+00	0	30	0	287309824	74	4556
2026-01-03 06:37:53.73	66.53	15.81	-54.2	-56.0	14.6	0.00e+00	0	30	0	294649856	74	4474
2026-01-03 06:37:57.71	65.93	16.13	-54.1	-56.0	14.6	0.00e+00	0	30	0	301989888	74	4453
2026-01-03 06:38:01.69	65.31	16.44	-54.3	-56.3	14.5	0.00e+00	0	30	0	309329920	74	4635
2026-01-03 06:38:05.68	64.68	16.77	-54.5	-56.6	14.3	0.00e+00	0	31	0	316669952	74	4813
2026-01-03 06:38:09.66	64.04	17.09	-54.6	-56.7	14.3	0.00e+00	0	30	0	324009984	74	4863
2026-01-03 06:38:13.63	63.38	17.41	-55.0	-57.3	14.1	0.00e+00	0	31	0	331350016	75	4886
2026-01-03 06:38:17.61	62.71	17.73	-54.7	-56.8	14.3	0.00e+00	0	30	0	339738624	75	4623
2026-01-03 06:38:21.60	62.02	18.05	-54.6	-56.6	14.4	0.00e+00	0	30	0	347078656	75	4515
2026-01-03 06:38:25.58	61.32	18.37	-54.7	-56.7	14.4	0.00e+00	0	30	0	354418688	75	4598
2026-01-03 06:38:29.56	60.61	18.70	-54.2	-56.1	14.6	0.00e+00	0	30	0	361758720	74	4541
2026-01-03 06:38:33.54	59.87	19.02	-54.6	-56.7	14.3	0.00e+00	0	31	0	369098752	74	4869
2026-01-03 06:38:37.55	59.12	19.34	-54.8	-56.9	14.3	0.00e+00	0	30	0	376438784	75	4705
2026-01-03 06:38:41.54	58.36	19.66	-54.2	-56.1	14.7	0.00e+00	0	31	0	383778816	75	4264
2026-01-03 06:38:45.53	57.57	19.97	-54.4	-56.4	14.5	0.00e+00	0	31	0	392167424	74	4653
2026-01-03 06:38:49.52	56.78	20.29	-54.4	-56.3	14.5	0.00e+00	0	30	0	399507456	74	4633
2026-01-03 06:38:53.49	55.96	20.60	-54.4	-56.3	14.6	0.00e+00	0	31	0	406847488	75	4362
2026-01-03 06:38:57.47	55.13	20.91	-53.7	-55.3	14.8	0.00e+00	0	31	0	414187520	73	4371
2026-01-03 06:39:01.44	54.29	21.22	-53.6	-55.3	14.8	0.00e+00	0	31	0	421527552	73	4369
2026-01-03 06:39:05.42	53.43	21.53	-53.5	-55.2	14.9	0.00e+00	0	31	0	428867584	73	4302
2026-01-03 06:39:09.40	52.54	21.83	-53.2	-54.7	15.1	0.00e+00	0	30	0	436207616	73	4095
2026-01-03 06:39:13.38	51.65	22.13	-52.7	-54.0	15.2	0.00e+00	0	31	0	443547648	71	4237
2026-01-03 06:39:17.37	50.73	22.42	-53.1	-54.6	15.0	0.00e+00	0	31	0	450887680	71	4511
2026-01-03 06:39:21.38	49.79	22.71	-52.8	-54.1	15.2	0.00e+00	0	30	0	459276288	71	4288
2026-01-03 06:39:25.36	48.83	22.99	-52.5	-53.9	15.3	0.00e+00	0	31	0	466616320	71	4174
2026-01-03 06:39:29.34	47.87	23.27	-52.6	-53.9	15.3	0.00e+00	0	31	0	473956352	71	4176
2026-01-03 06:39:33.33	46.88	23.55	-52.5	-53.8	15.3	0.00e+00	0	31	0	481296384	71	4120
2026-01-03 06:39:37.31	45.87	23.81	-53.4	-55.0	15.0	0.00e+00	0	31	0	488636416	72	4442
2026-01-03 06:39:41.31	44.85	24.07	-53.3	-54.8	15.1	0.00e+00	0	31	0	495976448	72	4360
2026-01-03 06:39:45.31	43.81	24.32	-53.2	-54.7	15.1	0.00e+00	0	31	0	503316480	72	4302
2026-01-03 06:39:49.30	42.75	24.56	-52.9	-54.3	15.2	0.00e+00	0	31	0	511705088	72	4113
2026-01-03 06:39:53.28	41.68	24.80	-52.9	-54.2	15.3	0.00e+00	0	31	0	519045120	72	4056
2026-01-03 06:39:57.27	40.59	25.02	-52.3	-53.5	15.5	0.00e+00	0	31	0	526385152	71	3975
2026-01-03 06:40:01.25	39.49	25.24	-52.8	-54.1	15.3	0.00e+00	0	31	0	533725184	71	4262
2026-01-03 06:40:05.23	38.37	25.44	-52.7	-54.0	15.3	0.00e+00	0	31	0	541065216	71	4207
2026-01-03 06:40:09.23	37.24	25.64	-52.8	-54.1	15.3	0.00e+00	0	31	0	548405248	71	4252
2026-01-03 06:40:13.20	36.10	25.82	-53.2	-54.6	15.1	0.00e+00	0	30	0	555745280	71	4528
2026-01-03 06:40:17.19	34.94	25.99	-53.8	-55.4	14.9	0.00e+00	0	31	0	563085312	73	4421
2026-01-03 06:40:21.18	33.77	26.15	-54.6	-56.5	14.5	0.00e+00	0	31	0	571473920	74	4728
2026-01-03 06:40:25.18	32.58	26.30	-54.0	-55.6	14.9	0.00e+00	0	31	0	578813952	74	4251
2026-01-03 06:40:29.17	31.39	26.44	-54.6	-56.6	14.4	0.00e+00	0	31	0	586153984	74	4774
2026-01-03 06:40:33.16	30.18	26.56	-54.7	-56.7	14.4	0.00e+00	0	31	0	593494016	75	4568
2026-01-03 06:40:37.15	28.97	26.67	-54.3	-56.0	14.7	0.00e+00	0	31	0	600834048	75	4238
2026-01-03 06:40:41.15	27.75	26.76	-54.7	-56.8	14.4	0.00e+00	0	31	0	608174080	75	4602
2026-01-03 06:40:45.15	26.52	26.84	-53.8	-55.5	14.9	0.00e+00	0	31	0	615514112	74	4224
2026-01-03 06:40:49.13	25.29	26.91	-54.1	-55.9	14.7	0.00e+00	0	31	0	623902720	74	4411
2026-01-03 06:40:53.13	24.05	26.96	-55.2	-57.5	14.0	0.00e+00	0	31	0	631242752	75	5000
2026-01-03 06:40:57.12	22.80	26.99	-54.2	-56.0	14.7	0.00e+00	0	31	0	638582784	74	4455
2026-01-03 06:41:01.09	21.57	27.01	-53.9	-55.5	15.0	0.00e+00	0	31	0	645922816	74	4202
2026-01-03 06:41:05.08	20.32	27.02	-54.7	-56.8	14.4	0.00e+00	0	31	0	653262848	74	4873
2026-01-03 06:41:09.06	19.08	27.01	-54.1	-55.9	14.8	0.00e+00	0	31	0	660602880	74	4398
2026-01-03 06:41:13.04	17.84	26.99	-53.8	-55.4	14.9	0.00e+00	0	31	0	667942912	73	4428
2026-01-03 06:41:17.01	16.61	26.95	-53.5	-55.0	15.1	0.00e+00	0	31	0	675282944	73	4213
2026-01-03 06:41:20.96	15.39	26.90	-53.5	-55.1	15.1	0.00e+00	0	31	0	682622976	73	4243
2026-01-03 06:41:24.95	14.16	26.83	-52.0	-53.1	15.6	0.00e+00	0	31	0	691011584	70	4022
2026-01-03 06:41:28.93	12.93	26.75	-52.8	-54.0	15.3	0.00e+00	0	31	0	698351616	71	4238
2026-01-03 06:41:32.89	11.72	26.65	-53.1	-54.4	15.2	0.00e+00	0	31	0	705691648	71	4430
2026-01-03 06:41:36.88	10.51	26.54	-53.8	-55.4	14.9	0.00e+00	0	31	0	713031680	72	4664
2026-01-03 06:41:40.85	9.32	26.42	-53.4	-54.8	15.2	0.00e+00	0	31	0	720371712	73	4104
2026-01-03 06:41:44.84	8.12	26.29	-54.0	-55.6	14.9	0.00e+00	0	31	0	727711744	73	4498
2026-01-03 06:41:48.82	6.94	26.14	-54.2	-55.7	14.9	0.00e+00	0	31	0	735051776	73	4575
2026-01-03 06:41:52.81	5.77	25.98	-53.6	-55.0	15.1	0.00e+00	0	31	0	742391808	73	4216
2026-01-03 06:41:56.80	4.62	25.80	-53.9	-55.5	15.0	0.00e+00	0	31	0	749731840	73	4442
2026-01-03 06:42:00.79	3.47	25.62	-54.1	-55.7	14.9	0.00e+00	0	31	0	758120448	73	4563
2026-01-03 06:42:04.78	2.34	25.42	-55.1	-57.1	14.4	0.00e+00	0	31	0	765460480	75	4775
2026-01-03 06:42:08.78	1.22	25.21	-54.7	-56.6	14.5	0.00e+00	0	31	0	772800512	75	4505
2026-01-03 06:42:12.78	0.12	25.00	-55.1	-57.1	14.3	0.00e+00	0	31	0	780140544	75	4803
2026-01-03 06:42:16.78	359.03	24.77	-54.2	-55.9	14.8	0.00e+00	0	31	0	787480576	75	4156
2026-01-03 06:42:20.79	357.96	24.53	-54.4	-56.2	14.7	0.00e+00	0	31	0	794820608	74	4554
2026-01-03 06:42:24.79	356.90	24.29	-54.6	-56.6	14.4	0.00e+00	0	31	0	803209216	74	4803
2026-01-03 06:42:28.77	355.87	24.04	-54.0	-55.7	14.9	0.00e+00	0	31	0	810549248	74	4328
2026-01-03 06:42:32.77	354.85	23.78	-55.2	-57.5	14.0	0.00e+00	0	31	0	817889280	75	5033
2026-01-03 06:42:36.78	353.84	23.51	-55.4	-57.9	14.0	0.00e+00	0	31	0	825229312	76	4959
2026-01-03 06:42:40.79	352.85	23.24	-53.8	-55.5	15.0	0.00e+00	0	31	0	832569344	74	4199
2026-01-03 06:42:44.79	351.88	22.96	-53.8	-55.5	14.9	0.00e+00	0	31	0	839909376	73	4452
2026-01-03 06:42:48.80	350.92	22.67	-54.4	-56.3	14.6	0.00e+00	0	31	0	847249408	74	4612
2026-01-03 06:42:52.79	349.99	22.38	-53.0	-54.5	15.2	0.00e+00	0	31	0	855638016	72	4203
2026-01-03 06:42:56.80	349.07	22.08	-53.0	-54.4	15.2	0.00e+00	0	31	0	862978048	72	4191
2026-01-03 06:43:00.79	348.18	21.79	-52.8	-54.2	15.3	0.00e+00	0	31	0	870318080	72	4078
2026-01-03 06:43:04.79	347.29	21.48	-52.7	-54.0	15.3	0.00e+00	0	31	0	877658112	71	4232
2026-01-03 06:43:08.79	346.43	21.18	-52.7	-54.1	15.2	0.00e+00	0	31	0	884998144	71	4274
2026-01-03 06:43:12.78	345.59	20.87	-53.3	-55.0	15.0	0.00e+00	0	31	0	892338176	72	4452
2026-01-03 06:43:16.78	344.76	20.55	-53.9	-55.7	14.8	0.00e+00	0	31	0	900726784	73	4546
2026-01-03 06:43:20.79	343.94	20.24	-53.2	-54.8	15.1	0.00e+00	0	31	0	908066816	73	4107
2026-01-03 06:43:24.81	343.14	19.92	-53.5	-55.1	15.0	0.00e+00	0	31	0	915406848	72	4526
2026-01-03 06:43:28.81	342.36	19.60	-52.1	-53.3	15.5	0.00e+00	0	31	0	922746880	70	4103
2026-01-03 06:43:32.81	341.60	19.28	-52.2	-53.4	15.5	0.00e+00	0	31	0	930086912	70	4154
2026-01-03 06:43:36.81	340.85	18.96	-52.7	-54.0	15.2	0.00e+00	0	31	0	937426944	70	4481
2026-01-03 06:43:40.80	340.12	18.64	-52.8	-54.1	15.3	0.00e+00	0	31	0	944766976	71	4263
2026-01-03 06:43:44.80	339.41	18.32	-52.8	-54.2	15.3	0.00e+00	0	31	0	953155584	71	4297
2026-01-03 06:43:48.81	338.70	17.99	-53.4	-54.8	15.1	0.00e+00	0	31	0	960495616	71	4638
2026-01-03 06:43:52.82	338.02	17.67	-53.2	-54.6	15.2	0.00e+00	0	31	0	967835648	72	4259
2026-01-03 06:43:56.82	337.35	17.35	-52.8	-54.0	15.4	0.00e+00	0	31	0	975175680	72	3982
2026-01-03 06:44:00.82	336.69	17.03	-52.9	-54.2	15.2	0.00e+00	0	31	0	982515712	71	4307
2026-01-03 06:44:04.81	336.05	16.70	-53.7	-55.3	14.9	0.00e+00	0	31	0	989855744	72	4609
2026-01-03 06:44:08.80	335.42	16.38	-53.1	-54.4	15.3	0.00e+00	0	31	0	998244352	72	4190
2026-01-03 06:44:12.79	334.81	16.06	-52.9	-54.2	15.2	0.00e+00	0	31	0	1005584384	72	4095
2026-01-03 06:44:16.79	334.21	15.74	-53.4	-54.9	15.1	0.00e+00	0	31	0	1012924416	72	4401
2026-01-03 06:44:20.78	333.62	15.43	-54.3	-56.1	14.6	0.00e+00	0	31	0	1020264448	73	4763
2026-01-03 06:44:24.78	333.05	15.11	-53.9	-55.5	14.9	0.00e+00	0	31	0	1027604480	74	4222
2026-01-03 06:44:28.77	332.49	14.79	-53.3	-54.7	15.2	0.00e+00	0	31	0	1034944512	73	4071
2026-01-03 06:44:32.76	331.94	14.48	-53.6	-55.1	15.0	0.00e+00	0	31	0	1042284544	72	4543
2026-01-03 06:44:36.75	331.40	14.16	-53.7	-55.1	15.0	0.00e+00	0	31	0	1049624576	73	4281
2026-01-03 06:44:40.74	330.87	13.85	-53.6	-55.1	15.0	0.00e+00	0	31	0	1058013184	73	4244
2026-01-03 06:44:44.73	330.36	13.54	-53.7	-55.3	14.9	0.00e+00	0	31	0	1065353216	73	4364
2026-01-03 06:44:48.73	329.85	13.23	-53.6	-55.1	15.0	0.00e+00	0	31	0	1072693248	73	4277
2026-01-03 06:44:52.73	329.36	12.93	-54.0	-55.6	14.8	0.00e+00	0	31	0	1080033280	73	4533
2026-01-03 06:44:56.73	328.87	12.62	-54.4	-56.1	14.6	0.00e+00	0	31	0	1087373312	74	4545
2026-01-03 06:45:00.72	328.40	12.32	-54.2	-55.9	14.7	0.00e+00	0	31	0	1094713344	74	4418
2026-01-03 06:45:04.71	327.93	12.02	-54.3	-56.0	14.6	0.00e+00	0	31	0	1102053376	74	4476
2026-01-03 06:45:08.68	327.48	11.72	-54.9	-56.8	14.3	0.00e+00	0	31	0	1110441984	75	4638
2026-01-03 06:45:12.68	327.04	11.42	-55.3	-57.4	14.1	0.00e+00	0	31	0	1117782016	76	4697
2026-01-03 06:45:16.66	326.60	11.13	-54.6	-56.5	14.4	0.00e+00	0	31	0	1125122048	75	4462
2026-01-03 06:45:20.65	326.18	10.83	-54.3	-56.0	14.6	0.00e+00	0	31	0	1132462080	74	4456
2026-01-03 06:45:24.64	325.76	10.54	-54.4	-56.2	14.5	0.00e+00	0	31	0	1139802112	74	4593
2026-01-03 06:45:28.62	325.35	10.25	-55.2	-57.4	14.0	0.00e+00	0	31	0	1147142144	75	4947
2026-01-03 06:45:32.61	324.95	9.96	-55.7	-58.1	13.6	0.00e+00	0	31	0	1154482176	76	5084
2026-01-03 06:45:36.61	324.56	9.68	-55.9	-58.4	13.6	0.00e+00	0	31	0	1162870784	77	4932
2026-01-03 06:45:40.59	324.17	9.39	-55.6	-57.9	13.8	0.00e+00	0	31	0	1170210816	77	4691
2026-01-03 06:45:44.58	323.80	9.11	-55.6	-57.8	13.8	0.00e+00	0	31	0	1177550848	77	4650
2026-01-03 06:45:48.56	323.43	8.83	-55.6	-58.0	13.8	0.00e+00	0	31	0	1184890880	77	4715
2026-01-03 06:45:52.53	323.07	8.56	-56.2	-58.9	13.2	0.00e+00	0	31	0	1192230912	77	5220
2026-01-03 06:45:56.53	322.71	8.28	-56.4	-59.3	13.0	0.00e+00	0	31	0	1199570944	78	5189
2026-01-03 06:46:00.52	322.36	8.00	-56.2	-58.9	13.2	0.00e+00	0	31	0	1206910976	78	4945
2026-01-03 06:46:04.51	322.02	7.73	-55.5	-57.8	13.8	0.00e+00	0	31	0	1214251008	77	4616
2026-01-03 06:46:08.50	321.69	7.46	-54.8	-56.8	14.3	0.00e+00	0	31	0	1222639616	76	4357
2026-01-03 06:46:12.49	321.36	7.19	-54.7	-56.6	14.3	0.00e+00	0	31	0	1229979648	75	4500
2026-01-03 06:46:16.48	321.03	6.93	-54.9	-56.9	14.1	0.00e+00	0	31	0	1237319680	75	4685
2026-01-03 06:46:20.47	320.72	6.66	-55.6	-58.0	13.6	0.00e+00	0	31	0	1244659712	76	5001
2026-01-03 06:46:24.45	320.41	6.40	-55.9	-58.5	13.4	0.00e+00	0	31	0	1251999744	77	5007
2026-01-03 06:46:28.46	320.10	6.14	-56.2	-59.0	13.0	0.00e+00	0	31	0	1259339776	77	5300
2026-01-03 06:46:32.44	319.80	5.88	-56.4	-59.3	12.8	0.00e+00	0	31	0	1266679808	78	5186
2026-01-03 06:46:36.43	319.51	5.62	-56.3	-59.2	12.9	0.00e+00	0	31	0	1275068416	78	5159
2026-01-03 06:46:40.43	319.22	5.37	-56.3	-59.2	12.9	0.00e+00	0	31	0	1282408448	78	5125
2026-01-03 06:46:44.43	318.94	5.11	-56.4	-59.4	12.7	0.00e+00	0	31	0	1289748480	78	5263
2026-01-03 06:46:48.43	318.66	4.86	-60.8	-76.3	3.8	1.49e+00	0	31	104	1293942784	86	23283
2026-01-03 06:46:52.42	318.39	4.61	-61.5	-77.1	3.8	1.49e+00	0	31	104	1293942784	88	22684
2026-01-03 06:46:56.41	318.12	4.36	-61.9	-77.5	3.8	1.49e+00	0	31	104	1293942784	88	23626
2026-01-03 06:47:00.42	317.85	4.11	-62.0	-77.7	3.8	1.49e+00	0	31	104	1293942784	89	22806
2026-01-03 06:47:04.42	317.59	3.87	-62.1	-77.7	3.8	1.49e+00	0	31	104	1293942784	89	22985
2026-01-03 06:47:08.41	317.34	3.62	-62.1	-77.7	3.8	1.49e+00	0	31	104	1293942784	89	22839
2026-01-03 06:47:12.43	317.09	3.38	-62.0	-77.6	3.8	1.49e+00	0	31	104	1293942784	89	22725
2026-01-03 06:47:16.42	316.84	3.14	-62.0	-77.6	3.8	1.49e+00	0	31	104	1293942784	89	22619
2026-01-03 06:47:20.43	316.60	2.90	-61.9	-77.6	3.8	1.49e+00	0	31	104	1293942784	89	22587
2026-01-03 06:47:24.42	316.36	2.66	-61.9	-77.5	3.8	1.49e+00	0	31	104	1293942784	89	22456
2026-01-03 06:47:28.44	316.13	2.42	-61.9	-77.5	3.8	1.49e+00	0	31	104	1293942784	89	22416
2026-01-03 06:47:32.45	315.90	2.19	-61.9	-77.5	3.8	1.49e+00	0	31	104	1293942784	89	22420

#Closed at: 2026-01-03 06:47:36
#Recorded file [1293 MB]: D:/lorett/data/31004_260103_093433.dat