passes_logs/2026/01/03/R3.2S_Murmansk/R3.2S_Murmansk__20260103_115614_NOAA_20_JPSS-1_rec.log

#Pass ID: 20260103_115614_NOAA 20 (JPSS-1)
#Satellite: NOAA 20 (JPSS-1)
#Configuration: NOAA 20
#almurnet v.1.7.20251203
#Start time: 2026-01-03 11:56:16

#Version: 2.2.20231116
#Station: R3.2S_Murmansk
#Location: 33.079688 lon 68.888172 lat
#TLE: 1 43013U 17073A   26002.92460628  .00000184  00000+0  10833-3 0  9996
#TLE: 2 43013  98.7623 303.9923 0001887  56.9179 303.2178 14.19532741421028

#Time	Az	El	Level	Level2	SNR	BER	BlckErr	Temp	State	Recorded	gain1	gain2
2026-01-03 11:56:16.98	213.00	2.13	-59.9	-75.4	3.8	1.49e+00	0	28	0	0	86	20948
2026-01-03 11:56:20.95	213.28	2.35	-59.9	-75.4	3.8	1.49e+00	0	28	104	0	84	23349
2026-01-03 11:56:24.94	213.58	2.57	-59.9	-75.4	3.8	1.49e+00	0	28	104	0	84	23522
2026-01-03 11:56:28.94	213.87	2.80	-59.9	-75.3	3.8	1.49e+00	0	29	104	0	84	23295
2026-01-03 11:56:32.92	214.17	3.02	-59.9	-75.4	3.8	1.49e+00	0	29	104	0	84	23328
2026-01-03 11:56:36.89	214.48	3.24	-59.9	-75.4	3.8	1.49e+00	0	29	104	0	84	23501
2026-01-03 11:56:40.87	214.78	3.47	-59.8	-75.2	3.8	1.49e+00	0	29	104	0	84	22855
2026-01-03 11:56:44.85	215.10	3.70	-59.8	-75.2	3.8	1.49e+00	0	29	104	0	84	22844
2026-01-03 11:56:48.83	215.41	3.92	-59.8	-74.9	3.8	1.49e+00	0	29	104	0	84	22047
2026-01-03 11:56:52.81	215.74	4.15	-59.9	-75.4	3.8	1.49e+00	0	29	104	0	84	23527
2026-01-03 11:56:56.81	216.07	4.39	-59.7	-72.7	4.0	1.49e+00	0	29	104	0	84	17150
2026-01-03 11:57:00.81	216.40	4.62	-59.5	-69.8	5.0	9.22e-01	0	29	0	4194304	84	12289
2026-01-03 11:57:04.78	216.74	4.85	-58.4	-64.1	9.0	2.10e-02	0	29	0	11534336	83	6785
2026-01-03 11:57:08.75	217.08	5.09	-57.6	-61.8	11.0	7.62e-05	0	29	0	18874368	81	5825
2026-01-03 11:57:12.77	217.43	5.33	-55.7	-58.0	13.5	2.44e-05	0	29	0	25165824	77	4729
2026-01-03 11:57:16.76	217.78	5.56	-55.4	-57.6	13.7	0.00e+00	0	29	0	32505856	77	4535
2026-01-03 11:57:20.76	218.14	5.80	-55.5	-57.7	13.7	0.00e+00	0	30	0	39845888	77	4559
2026-01-03 11:57:24.75	218.51	6.04	-55.5	-57.7	13.7	0.00e+00	0	29	0	47185920	77	4585
2026-01-03 11:57:28.74	218.88	6.28	-55.3	-57.4	13.9	0.00e+00	0	30	0	54525952	77	4409
2026-01-03 11:57:32.72	219.26	6.53	-55.4	-57.5	13.8	0.00e+00	0	29	0	61865984	77	4470
2026-01-03 11:57:36.71	219.64	6.77	-55.3	-57.3	14.0	0.00e+00	0	29	0	69206016	77	4358
2026-01-03 11:57:40.69	220.03	7.02	-55.5	-57.6	13.8	0.00e+00	0	29	0	77594624	77	4526
2026-01-03 11:57:44.69	220.43	7.26	-55.3	-57.3	13.9	0.00e+00	0	30	0	84934656	77	4382
2026-01-03 11:57:48.69	220.83	7.51	-55.3	-57.3	14.0	0.00e+00	0	30	0	92274688	77	4358
2026-01-03 11:57:52.67	221.24	7.76	-55.2	-57.1	14.1	0.00e+00	0	30	0	99614720	76	4520
2026-01-03 11:57:56.66	221.65	8.01	-55.0	-56.8	14.2	0.00e+00	0	30	0	106954752	76	4361
2026-01-03 11:58:00.65	222.07	8.26	-54.9	-56.7	14.3	0.00e+00	0	30	0	114294784	76	4295
2026-01-03 11:58:04.64	222.50	8.51	-55.1	-57.0	14.1	0.00e+00	0	30	0	121634816	76	4471
2026-01-03 11:58:08.65	222.94	8.77	-55.1	-56.9	14.1	0.00e+00	0	30	0	130023424	76	4422
2026-01-03 11:58:12.66	223.39	9.03	-55.0	-56.8	14.2	0.00e+00	0	30	0	137363456	76	4376
2026-01-03 11:58:16.66	223.84	9.28	-55.1	-57.0	14.1	0.00e+00	0	30	0	144703488	76	4461
2026-01-03 11:58:20.66	224.30	9.54	-55.0	-56.8	14.2	0.00e+00	0	30	0	152043520	76	4379
2026-01-03 11:58:24.68	224.77	9.80	-54.9	-56.7	14.3	0.00e+00	0	30	0	159383552	76	4294
2026-01-03 11:58:28.70	225.25	10.06	-54.8	-56.5	14.4	0.00e+00	0	30	0	166723584	76	4215
2026-01-03 11:58:32.70	225.74	10.32	-54.6	-56.2	14.4	0.00e+00	0	30	0	175112192	75	4334
2026-01-03 11:58:36.71	226.23	10.59	-54.5	-56.2	14.5	0.00e+00	0	30	0	182452224	75	4292
2026-01-03 11:58:40.91	226.76	10.86	-54.3	-55.8	14.6	0.00e+00	0	30	0	189792256	75	4137
2026-01-03 11:58:44.93	227.27	11.13	-54.3	-55.8	14.6	0.00e+00	0	30	0	197132288	75	4137
2026-01-03 11:58:48.94	227.79	11.39	-54.5	-56.1	14.5	0.00e+00	0	30	0	204472320	75	4255
2026-01-03 11:58:52.95	228.32	11.66	-54.4	-55.9	14.6	0.00e+00	0	30	0	211812352	75	4182
2026-01-03 11:58:56.96	228.86	11.93	-54.2	-55.8	14.6	0.00e+00	0	30	0	220200960	74	4341
2026-01-03 11:59:00.98	229.41	12.19	-54.3	-55.8	14.6	0.00e+00	0	30	0	227540992	74	4369
2026-01-03 11:59:05.00	229.98	12.46	-54.0	-55.5	14.7	0.00e+00	0	30	0	234881024	74	4218
2026-01-03 11:59:09.02	230.55	12.73	-54.0	-55.4	14.7	0.00e+00	0	30	0	242221056	74	4193
2026-01-03 11:59:13.04	231.13	13.00	-54.1	-55.6	14.7	0.00e+00	0	30	0	249561088	74	4268
2026-01-03 11:59:17.06	231.72	13.27	-54.0	-55.5	14.7	0.00e+00	0	30	0	257949696	74	4210
2026-01-03 11:59:21.09	232.32	13.54	-54.2	-55.6	14.7	0.00e+00	0	30	0	265289728	74	4283
2026-01-03 11:59:25.10	232.93	13.81	-54.0	-55.4	14.8	0.00e+00	0	30	0	272629760	74	4188
2026-01-03 11:59:29.11	233.55	14.08	-53.8	-55.2	14.9	0.00e+00	0	30	0	279969792	74	4083
2026-01-03 11:59:33.14	234.19	14.35	-53.9	-55.3	14.8	0.00e+00	0	30	0	287309824	74	4116
2026-01-03 11:59:37.15	234.83	14.62	-54.0	-55.4	14.8	0.00e+00	0	30	0	294649856	74	4185
2026-01-03 11:59:41.17	235.49	14.89	-54.0	-55.4	14.8	0.00e+00	0	30	0	303038464	74	4165
2026-01-03 11:59:45.18	236.15	15.16	-54.0	-55.4	14.8	0.00e+00	0	30	0	310378496	74	4186
2026-01-03 11:59:49.21	236.84	15.43	-53.9	-55.3	14.8	0.00e+00	0	30	0	317718528	74	4143
2026-01-03 11:59:53.20	237.52	15.69	-54.1	-55.5	14.7	0.00e+00	0	30	0	325058560	74	4239
2026-01-03 11:59:57.22	238.23	15.96	-53.9	-55.3	14.8	0.00e+00	0	30	0	332398592	74	4141
2026-01-03 12:00:01.23	238.94	16.22	-54.0	-55.4	14.8	0.00e+00	0	30	0	340787200	74	4156
2026-01-03 12:00:05.25	239.67	16.49	-53.9	-55.3	14.9	0.00e+00	0	30	0	348127232	74	4113
2026-01-03 12:00:09.27	240.41	16.75	-53.8	-55.2	14.9	0.00e+00	0	30	0	355467264	74	4055
2026-01-03 12:00:13.28	241.16	17.01	-53.8	-55.2	14.9	0.00e+00	0	30	0	362807296	74	4061
2026-01-03 12:00:17.30	241.93	17.27	-53.6	-54.9	15.0	0.00e+00	0	30	0	370147328	73	4156
2026-01-03 12:00:21.31	242.70	17.52	-53.4	-54.6	15.1	0.00e+00	0	30	0	377487360	73	4046
2026-01-03 12:00:25.32	243.49	17.77	-53.2	-54.5	15.1	0.00e+00	0	30	0	385875968	73	3963
2026-01-03 12:00:29.33	244.30	18.02	-53.1	-54.3	15.1	0.00e+00	0	30	0	393216000	72	4111
2026-01-03 12:00:33.35	245.11	18.27	-53.2	-54.4	15.1	0.00e+00	0	30	0	400556032	72	4191
2026-01-03 12:00:37.36	245.94	18.52	-53.3	-54.5	15.0	0.00e+00	0	30	0	407896064	72	4225
2026-01-03 12:00:41.38	246.78	18.76	-53.3	-54.6	15.0	0.00e+00	0	30	0	415236096	72	4257
2026-01-03 12:00:45.37	247.63	18.99	-53.9	-55.2	14.8	0.00e+00	0	30	0	422576128	72	4591
2026-01-03 12:00:49.38	248.50	19.22	-54.2	-55.7	14.7	0.00e+00	0	30	0	430964736	73	4555
2026-01-03 12:00:53.39	249.38	19.45	-54.2	-55.6	14.7	0.00e+00	0	30	0	438304768	73	4542
2026-01-03 12:00:57.40	250.27	19.68	-54.7	-56.3	14.5	0.00e+00	0	30	0	445644800	74	4622
2026-01-03 12:01:01.42	251.18	19.90	-55.3	-57.2	14.1	0.00e+00	0	30	0	452984832	75	4819
2026-01-03 12:01:05.44	252.10	20.11	-55.4	-57.2	14.2	0.00e+00	0	30	0	460324864	76	4547
2026-01-03 12:01:09.44	253.03	20.32	-55.2	-56.9	14.3	0.00e+00	0	30	0	467664896	76	4437
2026-01-03 12:01:13.43	253.96	20.52	-55.1	-56.8	14.4	0.00e+00	0	30	0	476053504	76	4377
2026-01-03 12:01:17.44	254.92	20.71	-55.0	-56.7	14.5	0.00e+00	0	30	0	483393536	76	4300
2026-01-03 12:01:21.43	255.88	20.90	-54.4	-55.9	14.7	0.00e+00	0	30	0	490733568	75	4161
2026-01-03 12:01:25.41	256.84	21.08	-54.4	-55.8	14.6	0.00e+00	0	30	0	498073600	74	4381
2026-01-03 12:01:29.40	257.83	21.26	-54.8	-56.4	14.4	0.00e+00	0	30	0	505413632	74	4662
2026-01-03 12:01:33.39	258.82	21.42	-54.5	-56.0	14.6	0.00e+00	0	30	0	512753664	74	4473
2026-01-03 12:01:37.39	259.83	21.58	-54.4	-56.0	14.6	0.00e+00	0	30	0	520093696	74	4448
2026-01-03 12:01:41.37	260.84	21.74	-54.7	-56.3	14.5	0.00e+00	0	30	0	528482304	74	4638
2026-01-03 12:01:45.34	261.85	21.88	-54.5	-56.0	14.6	0.00e+00	0	30	0	535822336	74	4474
2026-01-03 12:01:49.34	262.89	22.01	-54.1	-55.5	14.8	0.00e+00	0	30	0	543162368	74	4229
2026-01-03 12:01:53.32	263.93	22.14	-53.8	-55.1	15.0	0.00e+00	0	30	0	550502400	74	4034
2026-01-03 12:01:57.30	264.97	22.26	-53.9	-55.3	14.9	0.00e+00	0	30	0	557842432	74	4102
2026-01-03 12:02:01.29	266.03	22.36	-54.2	-55.6	14.8	0.00e+00	0	30	0	565182464	74	4259
2026-01-03 12:02:05.27	267.08	22.46	-54.3	-55.8	14.7	0.00e+00	0	30	0	572522496	74	4363
2026-01-03 12:02:09.26	268.15	22.55	-54.6	-56.1	14.5	0.00e+00	0	30	0	580911104	74	4540
2026-01-03 12:02:13.24	269.22	22.63	-54.7	-56.3	14.5	0.00e+00	0	30	0	588251136	74	4631
2026-01-03 12:02:17.22	270.30	22.70	-54.5	-55.9	14.7	0.00e+00	0	30	0	595591168	74	4440
2026-01-03 12:02:21.22	271.39	22.76	-54.3	-55.7	14.8	0.00e+00	0	30	0	602931200	74	4327
2026-01-03 12:02:25.22	272.47	22.81	-54.0	-55.4	14.9	0.00e+00	0	30	0	610271232	74	4169
2026-01-03 12:02:29.20	273.56	22.85	-54.5	-55.9	14.6	0.00e+00	0	30	0	617611264	74	4439
2026-01-03 12:02:33.21	274.66	22.87	-54.4	-55.9	14.7	0.00e+00	0	30	0	624951296	74	4416
2026-01-03 12:02:37.20	275.75	22.89	-53.9	-55.2	15.0	0.00e+00	0	30	0	632291328	74	4081
2026-01-03 12:02:41.19	276.84	22.90	-54.5	-56.0	14.7	0.00e+00	0	30	0	640679936	74	4450
2026-01-03 12:02:45.19	277.94	22.89	-54.4	-55.8	14.7	0.00e+00	0	30	0	648019968	74	4369
2026-01-03 12:02:49.20	279.04	22.88	-53.9	-55.2	15.0	0.00e+00	0	30	0	655360000	74	4066
2026-01-03 12:02:53.21	280.14	22.85	-54.7	-56.2	14.6	0.00e+00	0	30	0	662700032	74	4578
2026-01-03 12:02:57.20	281.23	22.82	-54.7	-56.2	14.6	0.00e+00	0	30	0	670040064	74	4592
2026-01-03 12:03:01.22	282.32	22.77	-54.5	-56.0	14.6	0.00e+00	0	30	0	677380096	74	4489
2026-01-03 12:03:05.23	283.41	22.71	-54.1	-55.5	14.8	0.00e+00	0	30	0	685768704	74	4229
2026-01-03 12:03:09.24	284.49	22.65	-54.6	-56.2	14.6	0.00e+00	0	30	0	693108736	74	4548
2026-01-03 12:03:13.26	285.57	22.57	-54.6	-56.1	14.6	0.00e+00	0	30	0	700448768	74	4528
2026-01-03 12:03:17.26	286.64	22.48	-54.5	-55.9	14.7	0.00e+00	0	30	0	707788800	74	4433
2026-01-03 12:03:21.26	287.71	22.39	-54.0	-55.3	14.9	0.00e+00	0	30	0	715128832	74	4134
2026-01-03 12:03:25.28	288.77	22.28	-54.5	-56.0	14.6	0.00e+00	0	30	0	722468864	74	4488
2026-01-03 12:03:29.29	289.82	22.16	-54.0	-55.4	14.9	0.00e+00	0	30	0	730857472	74	4168
2026-01-03 12:03:33.29	290.87	22.04	-54.2	-55.6	14.9	0.00e+00	0	30	0	738197504	74	4245
2026-01-03 12:03:37.30	291.90	21.91	-54.1	-55.5	14.9	0.00e+00	0	30	0	745537536	74	4205
2026-01-03 12:03:41.30	292.93	21.77	-53.3	-54.5	15.2	0.00e+00	0	30	0	752877568	73	3977
2026-01-03 12:03:45.30	293.94	21.62	-53.1	-54.2	15.2	0.00e+00	0	30	0	760217600	72	4070
2026-01-03 12:03:49.32	294.95	21.46	-53.2	-54.4	15.1	0.00e+00	0	30	0	767557632	72	4160
2026-01-03 12:03:53.33	295.95	21.29	-53.1	-54.3	15.2	0.00e+00	0	30	0	775946240	72	4101
2026-01-03 12:03:57.33	296.93	21.12	-53.0	-54.1	15.3	0.00e+00	0	30	0	783286272	72	4026
2026-01-03 12:04:01.33	297.91	20.94	-52.4	-53.5	15.4	0.00e+00	0	30	0	790626304	71	3960
2026-01-03 12:04:05.33	298.87	20.75	-52.2	-53.2	15.4	0.00e+00	0	30	0	797966336	70	4068
2026-01-03 12:04:09.35	299.82	20.56	-52.5	-53.6	15.2	0.00e+00	0	30	0	805306368	70	4253
2026-01-03 12:04:13.37	300.77	20.36	-53.2	-54.4	15.1	0.00e+00	0	30	0	812646400	71	4397
2026-01-03 12:04:17.39	301.70	20.15	-53.3	-54.5	15.0	0.00e+00	0	30	0	821035008	71	4471
2026-01-03 12:04:21.39	302.61	19.94	-52.9	-54.0	15.2	0.00e+00	0	30	0	828375040	71	4236
2026-01-03 12:04:25.41	303.52	19.72	-52.8	-53.9	15.2	0.00e+00	0	30	0	835715072	71	4183
2026-01-03 12:04:29.41	304.41	19.50	-53.9	-55.2	14.8	0.00e+00	0	30	0	843055104	72	4563
2026-01-03 12:04:33.42	305.28	19.27	-54.3	-55.7	14.7	0.00e+00	0	30	0	850395136	73	4568
2026-01-03 12:04:37.42	306.15	19.04	-54.3	-55.8	14.7	0.00e+00	0	30	0	857735168	74	4348
2026-01-03 12:04:41.42	307.00	18.81	-54.0	-55.4	14.9	0.00e+00	0	30	0	866123776	74	4163
2026-01-03 12:04:45.42	307.84	18.57	-53.8	-55.1	15.0	0.00e+00	0	30	0	873463808	74	4014
2026-01-03 12:04:49.39	308.66	18.33	-54.3	-55.7	14.8	0.00e+00	0	30	0	880803840	74	4308
2026-01-03 12:04:53.40	309.47	18.09	-54.4	-55.9	14.6	0.00e+00	0	30	0	888143872	74	4440
2026-01-03 12:04:57.40	310.27	17.84	-54.1	-55.4	14.8	0.00e+00	0	30	0	895483904	74	4191
2026-01-03 12:05:01.41	311.06	17.59	-53.7	-54.9	15.0	0.00e+00	0	30	0	902823936	73	4189
2026-01-03 12:05:05.40	311.83	17.34	-53.9	-55.3	14.8	0.00e+00	0	30	0	910163968	73	4354
2026-01-03 12:05:09.40	312.59	17.08	-53.8	-55.1	14.9	0.00e+00	0	30	0	918552576	73	4280
2026-01-03 12:05:13.42	313.35	16.83	-54.3	-55.7	14.6	0.00e+00	0	30	0	925892608	73	4594
2026-01-03 12:05:17.43	314.08	16.57	-54.3	-55.8	14.6	0.00e+00	0	30	0	933232640	73	4646
2026-01-03 12:05:21.41	314.81	16.31	-54.2	-55.7	14.7	0.00e+00	0	30	0	940572672	73	4548
2026-01-03 12:05:25.42	315.52	16.05	-53.9	-55.3	14.8	0.00e+00	0	30	0	947912704	73	4371
2026-01-03 12:05:29.42	316.22	15.78	-53.7	-55.0	14.9	0.00e+00	0	30	0	955252736	73	4230
2026-01-03 12:05:33.42	316.91	15.52	-54.4	-55.9	14.6	0.00e+00	0	30	0	963641344	74	4439
2026-01-03 12:05:37.41	317.58	15.26	-54.1	-55.5	14.8	0.00e+00	0	30	0	970981376	74	4241
2026-01-03 12:05:41.40	318.25	14.99	-54.0	-55.4	14.8	0.00e+00	0	30	0	978321408	74	4166
2026-01-03 12:05:45.40	318.90	14.73	-54.3	-55.9	14.6	0.00e+00	0	30	0	985661440	74	4398
2026-01-03 12:05:49.40	319.54	14.46	-54.0	-55.4	14.8	0.00e+00	0	30	0	993001472	74	4175
2026-01-03 12:05:53.41	320.18	14.19	-54.0	-55.4	14.7	0.00e+00	0	30	0	1000341504	73	4410
2026-01-03 12:05:57.41	320.80	13.92	-54.4	-56.0	14.5	0.00e+00	0	30	0	1007681536	74	4465
2026-01-03 12:06:01.40	321.41	13.66	-53.9	-55.4	14.8	0.00e+00	0	30	0	1016070144	74	4149
2026-01-03 12:06:05.39	322.00	13.39	-54.4	-55.9	14.6	0.00e+00	0	30	0	1023410176	74	4415
2026-01-03 12:06:09.38	322.59	13.13	-54.3	-55.9	14.6	0.00e+00	0	30	0	1030750208	74	4418
2026-01-03 12:06:13.36	323.17	12.86	-54.1	-55.6	14.7	0.00e+00	0	30	0	1038090240	74	4279
2026-01-03 12:06:17.35	323.73	12.60	-54.4	-56.0	14.5	0.00e+00	0	30	0	1045430272	74	4448
2026-01-03 12:06:21.33	324.29	12.33	-54.7	-56.4	14.3	0.00e+00	0	30	0	1052770304	74	4676
2026-01-03 12:06:25.32	324.84	12.07	-54.3	-55.8	14.6	0.00e+00	0	30	0	1060110336	74	4385
2026-01-03 12:06:29.30	325.38	11.80	-54.4	-56.0	14.5	0.00e+00	0	30	0	1067450368	74	4463
2026-01-03 12:06:33.29	325.91	11.54	-54.7	-56.4	14.3	0.00e+00	0	30	0	1075838976	74	4654
2026-01-03 12:06:37.26	326.42	11.28	-54.4	-56.0	14.5	0.00e+00	0	30	0	1083179008	74	4482
2026-01-03 12:06:41.23	326.93	11.02	-54.6	-56.2	14.3	0.00e+00	0	30	0	1090519040	74	4593
2026-01-03 12:06:45.23	327.44	10.76	-55.2	-57.1	14.0	0.00e+00	0	30	0	1097859072	75	4810
2026-01-03 12:06:49.22	327.93	10.50	-55.1	-57.1	14.0	0.00e+00	0	30	0	1105199104	75	4761
2026-01-03 12:06:53.22	328.42	10.24	-54.7	-56.4	14.3	0.00e+00	0	30	0	1112539136	75	4429
2026-01-03 12:06:57.20	328.90	9.98	-54.5	-56.2	14.5	0.00e+00	0	30	0	1119879168	75	4304
2026-01-03 12:07:01.19	329.37	9.73	-54.8	-56.5	14.3	0.00e+00	0	30	0	1127219200	75	4477
2026-01-03 12:07:05.17	329.83	9.47	-54.9	-56.7	14.2	0.00e+00	0	30	0	1135607808	75	4568
2026-01-03 12:07:09.15	330.28	9.22	-55.0	-56.8	14.1	0.00e+00	0	30	0	1142947840	75	4651
2026-01-03 12:07:13.14	330.73	8.96	-55.4	-57.5	13.8	0.00e+00	0	30	0	1150287872	75	4990
2026-01-03 12:07:17.14	331.17	8.71	-55.4	-57.5	13.8	0.00e+00	0	30	0	1157627904	76	4748
2026-01-03 12:07:21.16	331.61	8.46	-55.3	-57.4	13.9	0.00e+00	0	30	0	1164967936	76	4693
2026-01-03 12:07:25.16	332.03	8.21	-55.0	-57.1	14.0	0.00e+00	0	30	0	1172307968	76	4500
2026-01-03 12:07:29.17	332.45	7.96	-55.4	-57.6	13.8	0.00e+00	0	30	0	1180696576	76	4769
2026-01-03 12:07:33.18	332.87	7.71	-55.7	-58.0	13.4	0.00e+00	0	30	0	1188036608	76	5037
2026-01-03 12:07:37.18	333.27	7.46	-55.9	-58.3	13.3	0.00e+00	0	30	0	1195376640	77	4921
2026-01-03 12:07:41.19	333.67	7.21	-56.1	-58.6	13.2	0.00e+00	0	30	0	1202716672	77	5045
2026-01-03 12:07:45.18	334.07	6.97	-56.2	-58.9	13.0	0.00e+00	0	30	0	1210056704	77	5247
2026-01-03 12:07:49.19	334.45	6.72	-56.2	-58.8	13.0	0.00e+00	0	30	0	1217396736	78	4916
2026-01-03 12:07:53.18	334.83	6.48	-56.3	-59.1	12.9	0.00e+00	0	30	0	1224736768	78	5062
2026-01-03 12:07:57.17	335.21	6.24	-56.3	-59.1	12.9	0.00e+00	0	30	0	1233125376	78	5046
2026-01-03 12:08:01.18	335.58	6.00	-56.5	-59.4	12.6	0.00e+00	0	30	0	1240465408	78	5257
2026-01-03 12:08:05.18	335.94	5.76	-56.1	-58.8	13.0	1.50e-06	0	30	0	1247805440	78	4873
2026-01-03 12:08:09.18	336.30	5.53	-56.0	-58.6	13.1	0.00e+00	0	30	0	1255145472	78	4790
2026-01-03 12:08:13.19	336.65	5.29	-55.9	-58.5	13.2	0.00e+00	0	30	0	1262485504	78	4718
2026-01-03 12:08:17.19	337.00	5.06	-56.0	-58.6	13.0	0.00e+00	0	30	0	1269825536	78	4804
2026-01-03 12:08:21.19	337.34	4.82	-60.9	-76.5	3.8	1.49e+00	0	30	104	1274019840	86	23588
2026-01-03 12:08:25.20	337.68	4.59	-61.5	-77.1	3.8	1.49e+00	0	30	104	1274019840	88	22686
2026-01-03 12:08:29.21	338.02	4.36	-61.8	-77.4	3.8	1.49e+00	0	30	104	1274019840	88	23475
2026-01-03 12:08:33.22	338.34	4.13	-61.9	-77.5	3.8	1.49e+00	0	30	104	1274019840	88	23683
2026-01-03 12:08:37.23	338.67	3.90	-61.9	-77.6	3.8	1.49e+00	0	30	104	1274019840	89	22570
2026-01-03 12:08:41.22	338.98	3.67	-61.9	-77.6	3.8	1.49e+00	0	30	104	1274019840	89	22535
2026-01-03 12:08:45.21	339.30	3.45	-61.9	-77.5	3.8	1.49e+00	0	30	104	1274019840	89	22317
2026-01-03 12:08:49.21	339.61	3.22	-61.8	-77.4	3.8	1.49e+00	0	30	104	1274019840	89	22227
2026-01-03 12:08:53.23	339.91	3.00	-61.8	-77.4	3.8	1.49e+00	0	30	104	1274019840	89	22150
2026-01-03 12:08:57.24	340.21	2.78	-61.8	-77.4	3.8	1.49e+00	0	31	104	1274019840	89	22115
2026-01-03 12:09:01.23	340.51	2.56	-61.8	-77.4	3.8	1.49e+00	0	30	104	1274019840	89	22032
2026-01-03 12:09:05.24	340.80	2.33	-61.7	-77.4	3.8	1.49e+00	0	30	104	1274019840	89	22018
2026-01-03 12:09:09.25	341.09	2.12	-61.7	-77.3	3.8	1.49e+00	0	30	104	1274019840	89	21932

#Closed at: 2026-01-03 12:09:13
#Recorded file [1274 MB]: D:/lorett/data/31004_260103_145616.dat