passes_logs/2026/01/03/R3.2S_Murmansk/R3.2S_Murmansk__20260103_134647_ZKG05_rec.log

#Pass ID: 20260103_134647_ZKG05
#Satellite: ZKG05
#Configuration: ZKG05
#almurnet v.1.7.20251203
#Start time: 2026-01-03 13:46:48

#Version: 2.2.20231116
#Station: R3.2S_Murmansk
#Location: 33.079688 lon 68.888172 lat
#TLE: 1 65263U 25180E   25363.54303023  .00006586  00000-0  34273-3 0  9994
#TLE: 2 65263  97.4772 128.0191 0001674  87.3453 272.7971 15.16366041 20011

#Time	Az	El	Level	Level2	SNR	BER	BlckErr	Temp	State	Recorded	gain1	gain2
2026-01-03 13:46:48.16	21.80	2.03	-58.9	-62.1	6.1	0.00e+00	0	35	0	0	84	20541
2026-01-03 13:46:51.19	21.71	2.24	-58.9	-62.1	6.2	0.00e+00	0	35	104	0	84	20455
2026-01-03 13:46:54.21	21.62	2.45	-58.9	-62.1	6.2	0.00e+00	0	35	104	0	84	20470
2026-01-03 13:46:57.24	21.53	2.66	-58.9	-62.1	6.2	0.00e+00	0	35	104	0	84	20482
2026-01-03 13:47:00.27	21.43	2.88	-58.9	-62.1	6.2	0.00e+00	0	35	104	0	84	20424
2026-01-03 13:47:03.29	21.34	3.09	-58.9	-62.1	6.2	0.00e+00	0	35	104	0	84	20419
2026-01-03 13:47:06.31	21.24	3.31	-58.9	-62.1	6.2	0.00e+00	0	36	104	0	84	20486
2026-01-03 13:47:09.32	21.14	3.53	-58.9	-62.1	6.2	0.00e+00	0	36	104	0	84	20534
2026-01-03 13:47:12.35	21.03	3.75	-58.9	-62.1	6.2	0.00e+00	0	36	104	0	84	20521
2026-01-03 13:47:15.38	20.93	3.98	-58.9	-62.1	6.2	0.00e+00	0	36	104	0	84	20466
2026-01-03 13:47:18.41	20.82	4.21	-58.9	-62.1	6.2	0.00e+00	0	36	104	0	84	20519
2026-01-03 13:47:21.43	20.71	4.44	-59.0	-62.1	6.2	0.00e+00	0	36	104	0	84	20564
2026-01-03 13:47:24.46	20.60	4.67	-59.0	-62.1	6.2	0.00e+00	0	36	104	0	84	20606
2026-01-03 13:47:27.49	20.48	4.90	-59.0	-62.1	6.2	0.00e+00	0	36	104	0	84	20535
2026-01-03 13:47:30.52	20.36	5.14	-59.1	-62.3	6.2	0.00e+00	0	37	104	0	84	20895
2026-01-03 13:47:33.54	20.24	5.38	-59.0	-62.2	6.2	0.00e+00	0	37	104	0	84	20722
2026-01-03 13:47:36.55	20.12	5.62	-59.0	-62.2	6.2	0.00e+00	0	36	104	0	84	20831
2026-01-03 13:47:39.58	19.99	5.87	-59.0	-62.2	6.2	0.00e+00	0	37	104	0	84	20808
2026-01-03 13:47:42.59	19.86	6.12	-59.1	-62.3	6.2	0.00e+00	0	37	104	0	84	20982
2026-01-03 13:47:45.61	19.73	6.37	-59.1	-62.3	6.2	0.00e+00	0	37	104	0	84	20889
2026-01-03 13:47:48.63	19.60	6.62	-59.2	-62.4	6.2	0.00e+00	0	37	104	0	84	21137
2026-01-03 13:47:51.65	19.46	6.88	-59.2	-62.3	6.2	0.00e+00	0	37	104	0	84	21080
2026-01-03 13:47:54.67	19.32	7.14	-59.2	-62.4	6.2	0.00e+00	0	37	104	0	84	21254
2026-01-03 13:47:57.69	19.17	7.41	-59.2	-62.4	6.2	0.00e+00	0	37	104	0	84	21295
2026-01-03 13:48:00.71	19.02	7.67	-59.3	-62.5	6.2	0.00e+00	0	37	104	0	84	21423
2026-01-03 13:48:03.73	18.87	7.95	-59.3	-62.4	6.2	0.00e+00	0	37	104	0	84	21273
2026-01-03 13:48:06.75	18.72	8.22	-59.3	-62.5	6.2	0.00e+00	0	37	104	0	84	21461
2026-01-03 13:48:09.77	18.55	8.50	-59.3	-62.5	6.2	0.00e+00	0	37	104	0	84	21459
2026-01-03 13:48:12.80	18.39	8.78	-59.4	-62.6	6.2	0.00e+00	0	37	104	0	84	21773
2026-01-03 13:48:15.82	18.22	9.07	-59.4	-62.5	6.2	0.00e+00	0	38	104	0	84	21562
2026-01-03 13:48:18.84	18.05	9.36	-59.5	-62.6	6.2	0.00e+00	0	37	104	0	84	21815
2026-01-03 13:48:21.87	17.87	9.66	-59.4	-62.6	6.2	0.00e+00	0	38	104	0	84	21739
2026-01-03 13:48:24.89	17.69	9.96	-59.5	-62.7	6.2	0.00e+00	0	38	104	0	84	22013
2026-01-03 13:48:27.92	17.50	10.26	-59.5	-62.6	6.2	0.00e+00	0	38	104	0	84	21842
2026-01-03 13:48:30.93	17.31	10.57	-59.6	-62.7	6.2	0.00e+00	0	38	104	0	84	22028
2026-01-03 13:48:33.96	17.11	10.89	-59.5	-62.7	6.2	0.00e+00	0	38	104	0	84	21886
2026-01-03 13:48:36.99	16.91	11.21	-59.6	-62.8	6.2	0.00e+00	0	38	104	0	84	22186
2026-01-03 13:48:40.00	16.70	11.53	-59.6	-62.7	6.2	0.00e+00	0	38	104	0	84	22084
2026-01-03 13:48:43.03	16.48	11.86	-59.7	-62.8	6.2	0.00e+00	0	38	104	0	84	22272
2026-01-03 13:48:46.05	16.26	12.19	-59.6	-62.8	6.2	0.00e+00	0	38	104	0	84	22189
2026-01-03 13:48:49.07	16.03	12.53	-59.7	-62.9	6.2	0.00e+00	0	38	104	0	84	22465
2026-01-03 13:48:52.09	15.80	12.88	-59.7	-62.8	6.2	0.00e+00	0	38	104	0	84	22344
2026-01-03 13:48:55.11	15.56	13.23	-59.8	-62.9	6.2	0.00e+00	0	38	104	0	84	22522
2026-01-03 13:48:58.14	15.31	13.59	-59.7	-62.9	6.2	0.00e+00	0	38	104	0	84	22421
2026-01-03 13:49:01.16	15.05	13.96	-59.8	-63.0	6.2	0.00e+00	0	38	104	0	84	22626
2026-01-03 13:49:04.19	14.78	14.33	-59.8	-62.9	6.2	0.00e+00	0	38	104	0	84	22573
2026-01-03 13:49:07.21	14.51	14.71	-59.8	-63.0	6.2	0.00e+00	0	38	104	0	85	21437
2026-01-03 13:49:10.23	14.23	15.10	-59.8	-63.0	6.2	0.00e+00	0	38	104	0	85	21374
2026-01-03 13:49:13.25	13.94	15.49	-59.8	-63.0	6.2	0.00e+00	0	38	104	0	85	21542
2026-01-03 13:49:16.27	13.64	15.89	-59.8	-63.0	6.2	0.00e+00	0	38	104	0	85	21463
2026-01-03 13:49:19.30	13.33	16.30	-59.9	-63.1	6.2	0.00e+00	0	38	104	0	85	21656
2026-01-03 13:49:22.32	13.01	16.72	-59.9	-63.0	6.2	0.00e+00	0	38	104	0	85	21555
2026-01-03 13:49:25.35	12.67	17.14	-59.9	-63.1	6.2	0.00e+00	0	38	104	0	85	21731
2026-01-03 13:49:28.37	12.33	17.58	-59.9	-63.1	6.2	0.00e+00	0	38	104	0	85	21729
2026-01-03 13:49:31.39	11.98	18.02	-60.0	-63.2	6.2	0.00e+00	0	38	104	0	85	21882
2026-01-03 13:49:34.42	11.61	18.47	-60.0	-63.1	6.2	0.00e+00	0	38	104	0	85	21830
2026-01-03 13:49:37.45	11.22	18.93	-60.0	-63.2	6.2	0.00e+00	0	38	104	0	85	21953
2026-01-03 13:49:40.48	10.83	19.41	-60.0	-63.2	6.2	0.00e+00	0	38	104	0	85	21950
2026-01-03 13:49:43.50	10.42	19.89	-60.1	-63.2	6.2	0.00e+00	0	38	104	0	85	22000
2026-01-03 13:49:46.53	9.99	20.38	-60.0	-63.2	6.2	0.00e+00	0	38	104	0	85	21968
2026-01-03 13:49:49.55	9.55	20.88	-60.1	-63.2	6.2	0.00e+00	0	38	104	0	85	22108
2026-01-03 13:49:52.57	9.09	21.39	-60.1	-63.3	6.2	0.00e+00	0	38	104	0	85	22181
2026-01-03 13:49:55.59	8.61	21.92	-60.1	-63.3	6.2	0.00e+00	0	38	104	0	85	22212
2026-01-03 13:49:58.62	8.12	22.45	-60.2	-63.3	6.2	0.00e+00	0	38	104	0	85	22315
2026-01-03 13:50:01.64	7.60	23.00	-60.2	-63.3	6.2	0.00e+00	0	38	104	0	85	22352
2026-01-03 13:50:04.66	7.06	23.56	-60.2	-63.4	6.2	0.00e+00	0	38	104	0	85	22449
2026-01-03 13:50:07.69	6.50	24.13	-60.2	-63.4	6.2	0.00e+00	0	38	104	0	85	22384
2026-01-03 13:50:10.72	5.92	24.72	-60.3	-63.4	6.2	0.00e+00	0	38	104	0	85	22553
2026-01-03 13:50:13.74	5.31	25.32	-60.3	-63.4	6.2	0.00e+00	0	38	104	0	85	22523
2026-01-03 13:50:16.77	4.67	25.93	-60.4	-63.5	6.2	0.00e+00	0	39	104	0	86	21517
2026-01-03 13:50:19.79	4.01	26.55	-60.3	-63.5	6.2	0.00e+00	0	38	104	0	86	21503
2026-01-03 13:50:22.81	3.31	27.19	-60.4	-63.6	6.2	0.00e+00	0	38	104	0	86	21637
2026-01-03 13:50:25.84	2.59	27.84	-60.4	-63.5	6.2	0.00e+00	0	38	104	0	86	21591
2026-01-03 13:50:28.86	1.83	28.51	-60.4	-63.6	6.2	0.00e+00	0	38	104	0	86	21742
2026-01-03 13:50:31.88	1.03	29.19	-60.4	-63.6	6.2	0.00e+00	0	39	104	0	86	21653
2026-01-03 13:50:34.90	0.20	29.88	-60.5	-63.7	6.2	0.00e+00	0	38	104	0	86	21885
2026-01-03 13:50:37.92	359.32	30.58	-60.5	-63.6	6.2	0.00e+00	0	38	104	0	86	21779
2026-01-03 13:50:40.94	358.41	31.30	-60.6	-63.7	6.2	0.00e+00	0	38	104	0	86	22057
2026-01-03 13:50:43.97	357.44	32.04	-60.5	-63.7	6.2	0.00e+00	0	38	104	0	86	21980
2026-01-03 13:50:46.99	356.43	32.78	-60.6	-63.8	6.2	0.00e+00	0	39	104	0	86	22193
2026-01-03 13:50:50.01	355.37	33.54	-60.6	-63.8	6.2	0.00e+00	0	39	104	0	86	22142
2026-01-03 13:50:53.03	354.25	34.30	-60.7	-63.8	6.2	0.00e+00	0	38	104	0	86	22279
2026-01-03 13:50:56.05	353.08	35.08	-60.7	-63.8	6.2	0.00e+00	0	38	104	0	86	22312
2026-01-03 13:50:59.08	351.84	35.86	-60.7	-63.9	6.2	0.00e+00	0	38	104	0	86	22424
2026-01-03 13:51:02.10	350.53	36.66	-60.7	-63.9	6.2	0.00e+00	0	39	104	0	86	22381
2026-01-03 13:51:05.12	349.16	37.45	-60.8	-64.0	6.2	0.00e+00	0	38	104	0	86	22639
2026-01-03 13:51:08.14	347.72	38.25	-60.7	-63.9	6.2	0.00e+00	0	38	104	0	86	22521
2026-01-03 13:51:11.16	346.19	39.05	-60.8	-64.0	6.2	0.00e+00	0	39	104	0	86	22680
2026-01-03 13:51:14.18	344.59	39.85	-60.8	-63.9	6.2	0.00e+00	0	38	104	0	87	21279
2026-01-03 13:51:17.20	342.90	40.64	-60.8	-64.0	6.2	0.00e+00	0	38	104	0	87	21526
2026-01-03 13:51:20.23	341.12	41.43	-60.8	-64.0	6.2	0.00e+00	0	38	104	0	87	21545
2026-01-03 13:51:23.25	339.25	42.20	-60.9	-64.0	6.2	0.00e+00	0	39	104	0	87	21604
2026-01-03 13:51:26.27	337.29	42.95	-60.9	-64.0	6.2	0.00e+00	0	39	104	0	87	21537
2026-01-03 13:51:29.30	335.22	43.68	-60.9	-64.1	6.2	0.00e+00	0	39	104	0	87	21727
2026-01-03 13:51:32.33	333.06	44.39	-61.0	-64.2	6.2	0.00e+00	0	39	104	0	87	21870
2026-01-03 13:51:35.36	330.79	45.06	-61.0	-64.2	6.2	0.00e+00	0	38	104	0	87	21867
2026-01-03 13:51:38.38	328.44	45.70	-60.9	-64.1	6.2	0.00e+00	0	39	104	0	87	21809
2026-01-03 13:51:41.40	325.98	46.28	-61.0	-64.2	6.2	0.00e+00	0	39	104	0	87	21875
2026-01-03 13:51:44.43	323.43	46.83	-61.1	-64.2	6.2	0.00e+00	0	39	104	0	87	22027
2026-01-03 13:51:47.45	320.79	47.31	-61.1	-64.2	6.2	0.00e+00	0	38	104	0	87	22094
2026-01-03 13:51:50.47	318.08	47.73	-61.1	-64.3	6.2	0.00e+00	0	38	104	0	87	22127
2026-01-03 13:51:53.50	315.28	48.09	-61.1	-64.2	6.2	0.00e+00	0	39	104	0	87	22081
2026-01-03 13:51:56.52	312.43	48.37	-61.1	-64.3	6.2	0.00e+00	0	39	104	0	87	22228
2026-01-03 13:51:59.54	309.54	48.58	-61.1	-64.3	6.2	0.00e+00	0	39	104	0	87	22224
2026-01-03 13:52:02.57	306.60	48.72	-61.2	-64.4	6.2	0.00e+00	0	39	104	0	87	22460
2026-01-03 13:52:05.60	303.64	48.77	-61.2	-64.3	6.2	0.00e+00	0	39	104	0	87	22350
2026-01-03 13:52:08.63	300.68	48.75	-61.2	-64.4	6.2	0.00e+00	0	39	104	0	87	22460
2026-01-03 13:52:11.66	297.74	48.64	-61.2	-64.4	6.2	0.00e+00	0	39	104	0	87	22568
2026-01-03 13:52:14.68	294.83	48.46	-61.2	-64.4	6.2	0.00e+00	0	39	104	0	87	22395
2026-01-03 13:52:17.71	291.95	48.20	-61.2	-64.3	6.2	0.00e+00	0	39	104	0	87	22255
2026-01-03 13:52:20.73	289.14	47.86	-61.2	-64.3	6.2	0.00e+00	0	38	104	0	87	22356
2026-01-03 13:52:23.75	286.40	47.46	-61.2	-64.4	6.2	0.00e+00	0	39	104	0	87	22375
2026-01-03 13:52:26.77	283.73	47.00	-61.1	-64.3	6.2	0.00e+00	0	39	104	0	87	22190
2026-01-03 13:52:29.79	281.15	46.48	-61.1	-64.3	6.2	0.00e+00	0	39	104	0	87	22160
2026-01-03 13:52:32.81	278.66	45.91	-61.1	-64.3	6.2	0.00e+00	0	39	104	0	87	22147
2026-01-03 13:52:35.83	276.26	45.29	-61.1	-64.2	6.2	0.00e+00	0	39	104	0	87	22052
2026-01-03 13:52:38.86	273.96	44.63	-61.0	-64.2	6.2	0.00e+00	0	39	104	0	87	21965
2026-01-03 13:52:41.88	271.76	43.93	-61.0	-64.2	6.2	0.00e+00	0	39	104	0	87	21865
2026-01-03 13:52:44.90	269.66	43.21	-61.0	-64.2	6.2	0.00e+00	0	39	104	0	87	21888
2026-01-03 13:52:47.93	267.65	42.46	-61.0	-64.1	6.2	0.00e+00	0	39	104	0	87	21832
2026-01-03 13:52:50.95	265.75	41.69	-60.9	-64.1	6.2	0.00e+00	0	39	104	0	87	21761
2026-01-03 13:52:53.97	263.93	40.91	-60.9	-64.1	6.2	0.00e+00	0	39	104	0	87	21689
2026-01-03 13:52:57.00	262.21	40.12	-60.9	-64.1	6.2	0.00e+00	0	39	104	0	87	21731
2026-01-03 13:53:00.02	260.57	39.32	-60.9	-64.1	6.2	0.00e+00	0	39	104	0	87	21629
2026-01-03 13:53:03.04	259.02	38.52	-60.9	-64.0	6.2	0.00e+00	0	39	104	0	87	21593
2026-01-03 13:53:06.07	257.54	37.71	-60.8	-64.0	6.2	0.00e+00	0	39	104	0	87	21517
2026-01-03 13:53:09.09	256.14	36.91	-60.9	-64.0	6.2	0.00e+00	0	39	104	0	87	21504
2026-01-03 13:53:12.11	254.81	36.11	-60.8	-64.0	6.2	0.00e+00	0	39	104	0	87	21484
2026-01-03 13:53:15.14	253.54	35.32	-60.8	-64.0	6.2	0.00e+00	0	39	104	0	87	21401
2026-01-03 13:53:18.17	252.34	34.54	-60.8	-63.9	6.2	0.00e+00	0	39	104	0	87	21265
2026-01-03 13:53:21.19	251.20	33.77	-60.8	-63.9	6.2	0.00e+00	0	39	104	0	87	21353
2026-01-03 13:53:24.21	250.12	33.00	-60.8	-63.9	6.2	0.00e+00	0	39	104	0	87	21299
2026-01-03 13:53:27.24	249.08	32.25	-60.7	-63.9	6.2	0.00e+00	0	38	104	0	87	21118
2026-01-03 13:53:30.26	248.10	31.51	-60.7	-63.8	6.2	0.00e+00	0	39	104	0	87	21039
2026-01-03 13:53:33.28	247.17	30.79	-60.7	-63.8	6.2	0.00e+00	0	39	104	0	87	21106
2026-01-03 13:53:36.31	246.27	30.07	-60.7	-63.8	6.2	0.00e+00	0	39	104	0	87	21100
2026-01-03 13:53:39.33	245.42	29.37	-60.6	-63.8	6.2	0.00e+00	0	39	104	0	87	20959
2026-01-03 13:53:42.36	244.61	28.69	-60.6	-63.7	6.2	0.00e+00	0	39	104	0	87	20869
2026-01-03 13:53:45.37	243.84	28.02	-60.6	-63.7	6.2	0.00e+00	0	39	104	0	87	20870
2026-01-03 13:53:48.39	243.10	27.36	-60.6	-63.7	6.2	0.00e+00	0	39	104	0	87	20864
2026-01-03 13:53:51.41	242.40	26.72	-60.5	-63.7	6.2	0.00e+00	0	39	104	0	87	20833
2026-01-03 13:53:54.43	241.72	26.08	-60.5	-63.7	6.2	0.00e+00	0	39	104	0	87	20735
2026-01-03 13:53:57.45	241.07	25.47	-60.5	-63.7	6.2	0.00e+00	0	39	104	0	87	20723
2026-01-03 13:54:00.48	240.45	24.86	-60.5	-63.7	6.2	0.00e+00	0	39	104	0	87	20639
2026-01-03 13:54:03.50	239.86	24.27	-60.5	-63.6	6.2	0.00e+00	0	39	104	0	87	20591
2026-01-03 13:54:06.52	239.29	23.69	-60.4	-63.6	6.2	0.00e+00	0	39	104	0	87	20466
2026-01-03 13:54:09.55	238.74	23.13	-60.4	-63.6	6.2	0.00e+00	0	39	104	0	87	20456
2026-01-03 13:54:12.58	238.21	22.57	-60.4	-63.6	6.2	0.00e+00	0	39	104	0	87	20448
2026-01-03 13:54:15.61	237.71	22.03	-60.4	-63.5	6.2	0.00e+00	0	39	104	0	87	20287
2026-01-03 13:54:18.62	237.22	21.50	-60.3	-63.5	6.2	0.00e+00	0	39	104	0	87	20306
2026-01-03 13:54:21.65	236.76	20.98	-60.3	-63.5	6.2	0.00e+00	0	39	104	0	87	20236
2026-01-03 13:54:24.68	236.31	20.47	-60.3	-63.5	6.2	0.00e+00	0	39	104	0	87	20230
2026-01-03 13:54:27.69	235.87	19.98	-60.3	-63.5	6.2	0.00e+00	0	39	104	0	87	20277
2026-01-03 13:54:30.72	235.46	19.49	-60.2	-63.4	6.2	0.00e+00	0	39	104	0	87	20086
2026-01-03 13:54:33.72	235.06	19.02	-60.2	-63.4	6.2	0.00e+00	0	39	104	0	87	20061
2026-01-03 13:54:36.75	234.67	18.55	-60.2	-63.4	6.2	0.00e+00	0	39	104	0	87	20009
2026-01-03 13:54:39.77	234.30	18.10	-60.2	-63.4	6.2	0.00e+00	0	39	104	0	87	19968
2026-01-03 13:54:42.80	233.93	17.65	-60.2	-63.4	6.2	0.00e+00	0	39	104	0	87	19953
2026-01-03 13:54:45.83	233.58	17.21	-60.2	-63.3	6.2	0.00e+00	0	39	104	0	87	19885
2026-01-03 13:54:48.84	233.25	16.78	-60.1	-63.3	6.2	0.00e+00	0	39	104	0	87	19857
2026-01-03 13:54:51.86	232.92	16.36	-60.1	-63.3	6.2	0.00e+00	0	39	104	0	87	19745
2026-01-03 13:54:54.89	232.61	15.95	-60.1	-63.3	6.2	0.00e+00	0	39	104	0	87	19739
2026-01-03 13:54:57.92	232.30	15.54	-60.1	-63.2	6.2	0.00e+00	0	39	104	0	87	19663
2026-01-03 13:55:00.94	232.00	15.14	-60.1	-63.2	6.2	0.00e+00	0	39	104	0	86	20801
2026-01-03 13:55:03.96	231.72	14.76	-60.0	-63.2	6.2	0.00e+00	0	39	104	0	86	20782
2026-01-03 13:55:06.98	231.44	14.37	-60.0	-63.2	6.2	0.00e+00	0	39	104	0	86	20716
2026-01-03 13:55:10.01	231.17	14.00	-60.0	-63.2	6.2	0.00e+00	0	39	104	0	86	20717
2026-01-03 13:55:13.03	230.91	13.63	-60.0	-63.1	6.2	0.00e+00	0	39	104	0	86	20565
2026-01-03 13:55:16.05	230.66	13.27	-60.0	-63.1	6.2	0.00e+00	0	39	104	0	86	20606
2026-01-03 13:55:19.08	230.41	12.91	-60.0	-63.1	6.2	0.00e+00	0	39	104	0	86	20580
2026-01-03 13:55:22.11	230.17	12.56	-59.9	-63.1	6.2	0.00e+00	0	39	104	0	86	20540
2026-01-03 13:55:25.13	229.94	12.22	-59.9	-63.0	6.2	0.00e+00	0	39	104	0	86	20346
2026-01-03 13:55:28.15	229.71	11.88	-59.9	-63.0	6.2	0.00e+00	0	39	104	0	86	20345
2026-01-03 13:55:31.17	229.50	11.55	-59.8	-63.0	6.2	0.00e+00	0	39	104	0	86	20337
2026-01-03 13:55:34.19	229.28	11.22	-59.8	-63.0	6.2	0.00e+00	0	39	104	0	86	20219
2026-01-03 13:55:37.22	229.08	10.90	-59.8	-63.0	6.2	0.00e+00	0	39	104	0	86	20251
2026-01-03 13:55:40.24	228.88	10.58	-59.8	-62.9	6.2	0.00e+00	0	39	104	0	86	20126
2026-01-03 13:55:43.27	228.68	10.27	-59.8	-62.9	6.2	0.00e+00	0	39	104	0	86	20154
2026-01-03 13:55:46.29	228.49	9.96	-59.8	-62.9	6.2	0.00e+00	0	39	104	0	86	20053
2026-01-03 13:55:49.32	228.30	9.66	-59.7	-62.9	6.2	0.00e+00	0	39	104	0	86	20015
2026-01-03 13:55:52.34	228.12	9.36	-59.7	-62.8	6.2	0.00e+00	0	39	104	0	86	19880
2026-01-03 13:55:55.36	227.95	9.07	-59.7	-62.8	6.2	0.00e+00	0	39	104	0	86	19802
2026-01-03 13:55:58.39	227.77	8.78	-59.6	-62.8	6.2	0.00e+00	0	39	104	0	86	19842
2026-01-03 13:56:01.42	227.61	8.49	-59.6	-62.7	6.2	0.00e+00	0	39	104	0	85	20845
2026-01-03 13:56:04.44	227.44	8.21	-59.5	-62.7	6.2	0.00e+00	0	39	104	0	85	20636
2026-01-03 13:56:07.46	227.28	7.94	-59.5	-62.7	6.2	0.00e+00	0	39	104	0	85	20664
2026-01-03 13:56:10.48	227.13	7.66	-59.5	-62.7	6.2	0.00e+00	0	39	104	0	85	20799
2026-01-03 13:56:13.50	226.98	7.39	-59.4	-62.6	6.2	0.00e+00	0	39	104	0	85	20521
2026-01-03 13:56:16.52	226.83	7.13	-59.3	-62.5	6.2	0.00e+00	0	39	104	0	85	20268
2026-01-03 13:56:19.55	226.68	6.86	-59.4	-62.5	6.2	0.00e+00	0	39	104	0	85	20357
2026-01-03 13:56:22.58	226.54	6.60	-59.4	-62.6	6.2	0.00e+00	0	39	104	0	85	20451
2026-01-03 13:56:25.60	226.40	6.35	-59.3	-62.5	6.2	0.00e+00	0	39	104	0	85	20201
2026-01-03 13:56:28.62	226.27	6.10	-59.2	-62.3	6.2	0.00e+00	0	39	104	0	85	19916
2026-01-03 13:56:31.64	226.14	5.85	-59.2	-62.3	6.2	0.00e+00	0	39	104	0	85	19932
2026-01-03 13:56:34.67	226.01	5.60	-59.2	-62.4	6.2	0.00e+00	0	39	104	0	85	19950
2026-01-03 13:56:37.69	225.88	5.35	-59.2	-62.3	6.2	0.00e+00	0	39	104	0	84	21071
2026-01-03 13:56:40.71	225.76	5.11	-59.0	-62.2	6.2	0.00e+00	0	39	104	0	84	20634
2026-01-03 13:56:43.74	225.64	4.87	-59.8	-63.0	6.2	0.00e+00	0	39	104	0	84	22625
2026-01-03 13:56:46.76	225.52	4.64	-60.5	-63.7	6.2	0.00e+00	0	39	104	0	86	21903
2026-01-03 13:56:49.78	225.41	4.40	-60.8	-64.0	6.2	0.00e+00	0	39	104	0	87	21463
2026-01-03 13:56:52.80	225.29	4.17	-61.0	-64.2	6.2	0.00e+00	0	39	104	0	87	22012
2026-01-03 13:56:55.82	225.18	3.95	-61.1	-64.3	6.2	0.00e+00	0	39	104	0	87	22239
2026-01-03 13:56:58.85	225.08	3.72	-61.2	-64.4	6.2	0.00e+00	0	39	104	0	87	22467
2026-01-03 13:57:01.88	224.97	3.50	-61.3	-64.5	6.2	0.00e+00	0	39	104	0	87	22683
2026-01-03 13:57:04.91	224.87	3.27	-61.4	-64.5	6.2	0.00e+00	0	39	104	0	88	21554
2026-01-03 13:57:07.94	224.76	3.05	-61.3	-64.4	6.2	0.00e+00	0	39	104	0	88	21336
2026-01-03 13:57:10.97	224.67	2.84	-61.2	-64.4	6.2	0.00e+00	0	39	104	0	88	21275
2026-01-03 13:57:14.00	224.57	2.62	-61.2	-64.4	6.2	0.00e+00	0	39	104	0	88	21262
2026-01-03 13:57:17.02	224.47	2.41	-61.2	-64.3	6.2	0.00e+00	0	39	104	0	88	21107
2026-01-03 13:57:20.04	224.38	2.20	-61.2	-64.3	6.2	0.00e+00	0	39	104	0	88	21095
2026-01-03 13:57:23.06	224.29	1.99	-61.2	-64.3	6.2	0.00e+00	0	39	104	0	88	21091

#Closed at: 2026-01-03 13:57:23
#Recorded file [0 MB]: D:/lorett/data/31004_260103_164647.dat