passes_logs/2026/01/03/R3.2S_Murmansk/R3.2S_Murmansk__20260103_001642_NOAA_20_JPSS-1_rec.log

#Pass ID: 20260103_001642_NOAA 20 (JPSS-1)
#Satellite: NOAA 20 (JPSS-1)
#Configuration: NOAA 20
#almurnet v.1.7.20251203
#Start time: 2026-01-03 00:16:42

#Version: 2.2.20231116
#Station: R3.2S_Murmansk
#Location: 33.079688 lon 68.888172 lat
#TLE: 1 43013U 17073A   26002.78363558  .00000190  00000+0  11110-3 0  9990
#TLE: 2 43013  98.7623 303.8528 0001892  57.0664 303.0694 14.19532716421006

#Time	Az	El	Level	Level2	SNR	BER	BlckErr	Temp	State	Recorded	gain1	gain2
2026-01-03 00:16:42.82	23.08	2.04	-59.9	-75.4	3.8	1.49e+00	0	29	0	0	86	20918
2026-01-03 00:16:46.83	23.14	2.29	-59.9	-75.2	3.8	1.49e+00	0	29	104	0	84	22945
2026-01-03 00:16:50.85	23.20	2.55	-59.8	-75.1	3.8	1.49e+00	0	29	104	0	84	22585
2026-01-03 00:16:54.85	23.26	2.81	-59.8	-74.6	3.8	1.49e+00	0	29	104	0	84	21335
2026-01-03 00:16:58.84	23.33	3.07	-59.8	-73.1	3.8	1.48e+00	0	29	104	0	84	18021
2026-01-03 00:17:02.84	23.39	3.34	-59.7	-72.0	4.2	1.42e+00	0	29	0	0	84	15943
2026-01-03 00:17:06.85	23.45	3.60	-59.5	-69.3	5.2	7.39e-01	0	30	0	3145728	84	11667
2026-01-03 00:17:10.86	23.52	3.88	-58.7	-64.7	8.8	3.63e-02	0	30	0	10485760	84	6840
2026-01-03 00:17:14.87	23.58	4.15	-57.4	-61.3	11.4	8.08e-05	0	30	0	18874368	81	5510
2026-01-03 00:17:18.85	23.65	4.42	-56.9	-60.2	12.2	1.50e-06	0	30	0	26214400	80	5113
2026-01-03 00:17:22.86	23.71	4.70	-57.3	-61.1	11.6	2.13e-05	0	30	0	33554432	80	5661
2026-01-03 00:17:26.86	23.78	4.98	-58.2	-63.5	9.6	2.25e-03	0	30	0	40894464	81	7106
2026-01-03 00:17:30.88	23.85	5.27	-59.1	-67.0	6.8	1.69e-02	0	30	0	48234496	83	9393
2026-01-03 00:17:34.88	23.92	5.56	-56.7	-59.6	12.8	0.00e+00	0	30	0	55574528	79	5069
2026-01-03 00:17:38.88	23.99	5.85	-56.1	-58.7	13.4	0.00e+00	0	30	0	62914560	78	4837
2026-01-03 00:17:42.90	24.06	6.14	-55.8	-58.0	13.8	0.00e+00	0	30	0	71303168	78	4489
2026-01-03 00:17:46.91	24.13	6.44	-55.5	-57.6	14.0	0.00e+00	0	30	0	78643200	77	4539
2026-01-03 00:17:50.91	24.21	6.74	-55.4	-57.5	14.1	0.00e+00	0	30	0	85983232	77	4454
2026-01-03 00:17:54.90	24.28	7.04	-55.3	-57.3	14.2	0.00e+00	0	30	0	93323264	77	4349
2026-01-03 00:17:58.91	24.36	7.35	-55.2	-57.1	14.2	0.00e+00	0	30	0	100663296	76	4534
2026-01-03 00:18:02.91	24.44	7.66	-55.1	-57.0	14.3	0.00e+00	0	30	0	108003328	76	4456
2026-01-03 00:18:06.92	24.51	7.98	-55.1	-56.9	14.4	0.00e+00	0	30	0	116391936	76	4419
2026-01-03 00:18:10.91	24.59	8.30	-55.0	-56.8	14.5	0.00e+00	0	30	0	123731968	76	4374
2026-01-03 00:18:14.91	24.68	8.62	-54.8	-56.6	14.6	0.00e+00	0	30	0	131072000	76	4258
2026-01-03 00:18:18.91	24.76	8.95	-54.8	-56.5	14.6	0.00e+00	0	30	0	138412032	76	4233
2026-01-03 00:18:22.92	24.84	9.28	-54.6	-56.2	14.7	0.00e+00	0	30	0	145752064	75	4319
2026-01-03 00:18:26.92	24.93	9.61	-54.5	-56.1	14.8	0.00e+00	0	30	0	153092096	75	4259
2026-01-03 00:18:30.91	25.02	9.95	-54.4	-56.0	14.8	0.00e+00	0	30	0	160432128	75	4240
2026-01-03 00:18:34.91	25.11	10.30	-54.3	-55.8	14.9	0.00e+00	0	31	0	168820736	75	4115
2026-01-03 00:18:38.92	25.20	10.65	-54.3	-55.8	14.9	0.00e+00	0	31	0	176160768	74	4360
2026-01-03 00:18:42.93	25.29	11.01	-54.1	-55.6	15.0	0.00e+00	0	31	0	183500800	74	4250
2026-01-03 00:18:46.92	25.38	11.37	-54.1	-55.5	15.0	0.00e+00	0	31	0	190840832	74	4234
2026-01-03 00:18:50.93	25.48	11.73	-54.0	-55.4	15.1	0.00e+00	0	31	0	198180864	74	4183
2026-01-03 00:18:54.93	25.58	12.10	-54.1	-55.5	15.0	0.00e+00	0	31	0	205520896	74	4237
2026-01-03 00:18:58.93	25.68	12.48	-53.9	-55.4	15.1	0.00e+00	0	31	0	213909504	74	4148
2026-01-03 00:19:02.92	25.78	12.86	-53.9	-55.3	15.2	0.00e+00	0	31	0	221249536	74	4103
2026-01-03 00:19:06.89	25.89	13.25	-53.9	-55.3	15.2	0.00e+00	0	31	0	228589568	74	4121
2026-01-03 00:19:10.88	25.99	13.64	-53.9	-55.3	15.2	0.00e+00	0	31	0	235929600	74	4102
2026-01-03 00:19:14.88	26.10	14.05	-53.9	-55.2	15.2	0.00e+00	0	31	0	243269632	74	4092
2026-01-03 00:19:18.86	26.21	14.45	-54.0	-55.4	15.2	0.00e+00	0	31	0	250609664	74	4147
2026-01-03 00:19:22.86	26.33	14.87	-54.0	-55.4	15.1	0.00e+00	0	31	0	257949696	74	4174
2026-01-03 00:19:26.85	26.45	15.29	-54.1	-55.5	15.1	0.00e+00	0	31	0	266338304	74	4222
2026-01-03 00:19:30.84	26.57	15.72	-54.2	-55.7	15.0	0.00e+00	0	31	0	273678336	74	4310
2026-01-03 00:19:34.83	26.69	16.15	-54.4	-55.9	14.9	0.00e+00	0	31	0	281018368	74	4426
2026-01-03 00:19:38.83	26.81	16.60	-54.4	-55.9	14.9	0.00e+00	0	31	0	288358400	74	4437
2026-01-03 00:19:42.84	26.94	17.05	-54.6	-56.2	14.9	0.00e+00	0	31	0	295698432	74	4552
2026-01-03 00:19:46.82	27.08	17.51	-54.8	-56.4	14.8	0.00e+00	0	31	0	303038464	74	4663
2026-01-03 00:19:50.83	27.21	17.98	-54.9	-56.5	14.7	0.00e+00	0	31	0	310378496	74	4716
2026-01-03 00:19:54.84	27.36	18.46	-55.0	-56.6	14.7	0.00e+00	0	31	0	318767104	75	4524
2026-01-03 00:19:58.83	27.50	18.95	-55.0	-56.6	14.7	0.00e+00	0	31	0	326107136	75	4534
2026-01-03 00:20:02.81	27.65	19.45	-55.0	-56.7	14.7	0.00e+00	0	31	0	333447168	75	4557
2026-01-03 00:20:06.81	27.80	19.96	-55.0	-56.6	14.8	0.00e+00	0	31	0	340787200	75	4533
2026-01-03 00:20:10.79	27.96	20.47	-55.0	-56.7	14.7	0.00e+00	0	31	0	348127232	75	4568
2026-01-03 00:20:14.79	28.12	21.00	-54.9	-56.5	14.8	0.00e+00	0	31	0	355467264	75	4453
2026-01-03 00:20:18.79	28.29	21.54	-54.9	-56.4	14.8	0.00e+00	0	31	0	362807296	75	4436
2026-01-03 00:20:22.79	28.46	22.10	-54.8	-56.3	14.9	0.00e+00	0	31	0	371195904	75	4374
2026-01-03 00:20:26.80	28.64	22.66	-54.6	-56.0	15.0	0.00e+00	0	31	0	378535936	75	4239
2026-01-03 00:20:30.81	28.83	23.24	-54.4	-55.9	15.1	0.00e+00	0	31	0	385875968	75	4170
2026-01-03 00:20:34.81	29.02	23.83	-54.4	-55.9	15.1	0.00e+00	0	31	0	393216000	75	4155
2026-01-03 00:20:38.80	29.22	24.43	-54.3	-55.7	15.2	0.00e+00	0	31	0	400556032	75	4057
2026-01-03 00:20:42.79	29.42	25.05	-54.3	-55.7	15.2	0.00e+00	0	31	0	407896064	75	4052
2026-01-03 00:20:46.78	29.63	25.68	-54.4	-55.8	15.1	0.00e+00	0	31	0	415236096	75	4130
2026-01-03 00:20:50.77	29.85	26.33	-54.8	-56.4	14.9	0.00e+00	0	31	0	423624704	75	4401
2026-01-03 00:20:54.78	30.08	26.99	-55.2	-56.9	14.7	0.00e+00	0	31	0	430964736	75	4689
2026-01-03 00:20:58.77	30.32	27.67	-55.4	-57.1	14.7	0.00e+00	0	31	0	438304768	76	4508
2026-01-03 00:21:02.76	30.57	28.36	-55.3	-56.9	14.8	0.00e+00	0	31	0	445644800	76	4403
2026-01-03 00:21:06.74	30.83	29.07	-55.3	-56.9	14.8	0.00e+00	0	31	0	452984832	76	4416
2026-01-03 00:21:10.72	31.09	29.80	-55.6	-57.3	14.5	0.00e+00	0	31	0	460324864	76	4626
2026-01-03 00:21:14.71	31.37	30.55	-56.0	-57.8	14.4	0.00e+00	0	31	0	467664896	77	4649
2026-01-03 00:21:18.69	31.67	31.31	-56.3	-58.3	14.1	0.00e+00	0	31	0	476053504	77	4882
2026-01-03 00:21:22.70	31.97	32.10	-56.2	-58.2	14.2	0.00e+00	0	31	0	483393536	77	4847
2026-01-03 00:21:26.69	32.30	32.91	-55.7	-57.5	14.6	0.00e+00	0	31	0	490733568	77	4449
2026-01-03 00:21:30.69	32.63	33.74	-55.7	-57.4	14.6	0.00e+00	0	31	0	498073600	77	4428
2026-01-03 00:21:34.68	32.99	34.59	-55.9	-57.8	14.4	0.00e+00	0	31	0	505413632	77	4600
2026-01-03 00:21:38.67	33.36	35.46	-55.9	-57.7	14.4	0.00e+00	0	31	0	512753664	77	4598
2026-01-03 00:21:42.66	33.75	36.36	-55.5	-57.2	14.7	0.00e+00	0	31	0	520093696	77	4319
2026-01-03 00:21:46.67	34.17	37.28	-55.5	-57.1	14.8	0.00e+00	0	31	0	528482304	77	4266
2026-01-03 00:21:50.67	34.60	38.23	-55.8	-57.6	14.5	0.00e+00	0	31	0	535822336	77	4519
2026-01-03 00:21:54.67	35.07	39.21	-56.7	-58.8	14.0	0.00e+00	0	31	0	543162368	78	4890
2026-01-03 00:21:58.67	35.56	40.20	-57.3	-59.7	13.5	0.00e+00	0	31	0	550502400	79	5136
2026-01-03 00:22:02.66	36.08	41.23	-56.7	-58.8	14.0	0.00e+00	0	31	0	557842432	79	4626
2026-01-03 00:22:06.66	36.64	42.28	-56.8	-58.9	14.0	0.00e+00	0	31	0	565182464	79	4689
2026-01-03 00:22:10.66	37.23	43.36	-57.0	-59.3	13.7	0.00e+00	0	31	0	572522496	79	4899
2026-01-03 00:22:14.66	37.86	44.47	-56.3	-58.2	14.4	0.00e+00	0	31	0	580911104	79	4334
2026-01-03 00:22:18.66	38.54	45.61	-57.0	-59.2	13.9	0.00e+00	0	31	0	588251136	79	4838
2026-01-03 00:22:22.66	39.27	46.78	-57.0	-59.2	13.9	0.00e+00	0	31	0	595591168	80	4569
2026-01-03 00:22:26.67	40.05	47.97	-56.0	-57.8	14.5	0.00e+00	0	31	0	602931200	78	4371
2026-01-03 00:22:30.67	40.90	49.20	-56.0	-57.8	14.5	0.00e+00	0	31	0	610271232	78	4355
2026-01-03 00:22:34.67	41.81	50.45	-55.3	-56.9	14.9	0.00e+00	0	31	0	617611264	77	4162
2026-01-03 00:22:38.67	42.81	51.72	-53.6	-54.7	15.6	0.00e+00	0	31	0	625999872	73	4074
2026-01-03 00:22:42.67	43.89	53.02	-53.0	-54.1	15.7	0.00e+00	0	31	0	633339904	72	4011
2026-01-03 00:22:46.67	45.07	54.35	-52.3	-53.3	15.9	0.00e+00	0	31	0	640679936	71	3869
2026-01-03 00:22:50.68	46.37	55.70	-53.1	-54.1	15.6	0.00e+00	0	31	0	648019968	71	4286
2026-01-03 00:22:54.69	47.81	57.07	-53.6	-54.7	15.5	0.00e+00	0	31	0	655360000	72	4340
2026-01-03 00:22:58.70	49.39	58.45	-53.4	-54.5	15.6	0.00e+00	0	31	0	662700032	72	4228
2026-01-03 00:23:02.69	51.13	59.84	-52.6	-53.6	15.8	0.00e+00	0	31	0	670040064	71	4010
2026-01-03 00:23:06.69	53.08	61.24	-51.2	-52.0	16.1	0.00e+00	0	31	0	678428672	68	3984
2026-01-03 00:23:10.68	55.25	62.63	-51.9	-52.8	15.9	0.00e+00	0	31	0	685768704	69	4138
2026-01-03 00:23:14.69	57.69	64.02	-52.4	-53.3	15.7	0.00e+00	0	31	0	693108736	69	4367
2026-01-03 00:23:18.69	60.43	65.38	-54.8	-56.2	15.0	0.00e+00	0	31	0	700448768	74	4591
2026-01-03 00:23:22.70	63.54	66.72	-54.9	-56.4	15.0	0.00e+00	0	31	0	707788800	75	4404
2026-01-03 00:23:26.71	67.05	68.00	-55.1	-56.6	15.0	0.00e+00	0	31	0	715128832	75	4496
2026-01-03 00:23:30.71	71.01	69.22	-54.9	-56.4	15.0	0.00e+00	0	31	0	723517440	75	4404
2026-01-03 00:23:34.71	75.48	70.34	-55.6	-57.2	14.7	0.00e+00	0	31	0	730857472	76	4598
2026-01-03 00:23:38.72	80.51	71.36	-55.8	-57.5	14.6	0.00e+00	0	31	0	738197504	77	4493
2026-01-03 00:23:42.73	86.11	72.23	-55.0	-56.4	15.1	0.00e+00	0	31	0	745537536	76	4160
2026-01-03 00:23:46.72	92.23	72.93	-55.2	-56.7	15.0	0.00e+00	0	31	0	752877568	77	4056
2026-01-03 00:23:50.73	98.85	73.44	-53.8	-55.0	15.5	0.00e+00	0	31	0	760217600	74	4001
2026-01-03 00:23:54.74	105.82	73.72	-53.9	-55.1	15.4	0.00e+00	0	31	0	768606208	74	4045
2026-01-03 00:23:58.75	112.93	73.77	-54.3	-55.5	15.3	0.00e+00	0	31	0	775946240	73	4487
2026-01-03 00:24:02.75	119.96	73.59	-55.7	-57.3	14.7	0.00e+00	0	31	0	783286272	76	4651
2026-01-03 00:24:06.76	126.75	73.17	-56.5	-58.4	14.3	0.00e+00	0	31	0	790626304	79	4410
2026-01-03 00:24:10.77	133.12	72.55	-56.6	-58.7	14.1	0.00e+00	0	31	0	797966336	78	4820
2026-01-03 00:24:14.77	138.95	71.75	-55.3	-56.8	15.0	0.00e+00	0	31	0	805306368	77	4141
2026-01-03 00:24:18.77	144.21	70.79	-56.5	-58.4	14.2	0.00e+00	0	31	0	813694976	78	4704
2026-01-03 00:24:22.77	148.92	69.71	-56.2	-58.0	14.4	0.00e+00	0	31	0	821035008	78	4485
2026-01-03 00:24:26.79	153.11	68.52	-55.9	-57.5	14.7	0.00e+00	0	31	0	828375040	78	4239
2026-01-03 00:24:30.80	156.81	67.26	-56.2	-58.0	14.4	0.00e+00	0	31	0	835715072	78	4488
2026-01-03 00:24:34.82	160.09	65.94	-54.1	-55.3	15.4	0.00e+00	0	31	0	843055104	74	4127
2026-01-03 00:24:38.85	163.00	64.58	-52.3	-53.2	15.9	0.00e+00	0	31	0	850395136	71	3865
2026-01-03 00:24:42.84	165.56	63.20	-51.2	-52.1	16.0	0.00e+00	0	31	0	858783744	68	4020
2026-01-03 00:24:46.86	167.85	61.80	-50.6	-51.3	16.1	0.00e+00	0	31	0	866123776	66	4142
2026-01-03 00:24:50.87	169.89	60.39	-51.6	-52.5	16.0	0.00e+00	0	31	0	873463808	69	3966
2026-01-03 00:24:54.87	171.72	59.00	-56.4	-58.3	14.3	0.00e+00	0	31	0	880803840	78	4649
2026-01-03 00:24:58.86	173.36	57.61	-54.5	-55.8	15.2	0.00e+00	0	31	0	888143872	74	4382
2026-01-03 00:25:02.87	174.85	56.23	-54.0	-55.2	15.4	0.00e+00	0	31	0	895483904	74	4069
2026-01-03 00:25:06.86	176.20	54.88	-53.5	-54.7	15.6	0.00e+00	0	31	0	903872512	73	4053
2026-01-03 00:25:10.86	177.42	53.54	-50.6	-51.4	16.1	0.00e+00	0	31	0	911212544	66	4146
2026-01-03 00:25:14.84	178.54	52.23	-52.5	-53.4	15.8	0.00e+00	0	31	0	918552576	70	4188
2026-01-03 00:25:18.84	179.57	50.94	-53.8	-55.0	15.4	0.00e+00	0	31	0	925892608	72	4442
2026-01-03 00:25:22.84	180.52	49.67	-57.2	-59.6	13.6	0.00e+00	0	31	0	933232640	80	4775
2026-01-03 00:25:26.83	181.39	48.44	-55.9	-57.7	14.6	0.00e+00	0	31	0	940572672	78	4299
2026-01-03 00:25:30.85	182.20	47.23	-57.0	-59.3	13.8	0.00e+00	0	31	0	947912704	79	4911
2026-01-03 00:25:34.84	182.95	46.05	-53.9	-55.1	15.4	0.00e+00	0	31	0	956301312	74	4047
2026-01-03 00:25:38.82	183.65	44.90	-55.6	-57.3	14.7	0.00e+00	0	31	0	963641344	76	4609
2026-01-03 00:25:42.84	184.30	43.77	-53.9	-55.1	15.4	0.00e+00	0	31	0	970981376	74	4032
2026-01-03 00:25:46.83	184.91	42.68	-52.7	-53.6	15.8	0.00e+00	0	31	0	978321408	71	4046
2026-01-03 00:25:50.84	185.48	41.61	-56.5	-58.6	14.1	0.00e+00	0	31	0	985661440	78	4802
2026-01-03 00:25:54.84	186.02	40.57	-53.7	-54.8	15.5	0.00e+00	0	31	0	993001472	73	4124
2026-01-03 00:25:58.84	186.52	39.55	-54.8	-56.3	15.0	0.00e+00	0	31	0	1001390080	75	4345
2026-01-03 00:26:02.84	186.99	38.57	-56.3	-58.3	14.3	0.00e+00	0	31	0	1008730112	78	4627
2026-01-03 00:26:06.84	187.44	37.60	-54.4	-55.7	15.3	0.00e+00	0	31	0	1016070144	75	4094
2026-01-03 00:26:10.84	187.86	36.67	-54.3	-55.7	15.2	0.00e+00	0	31	0	1023410176	74	4296
2026-01-03 00:26:14.84	188.27	35.76	-55.5	-57.2	14.7	0.00e+00	0	31	0	1030750208	76	4548
2026-01-03 00:26:18.84	188.65	34.87	-55.6	-57.4	14.6	0.00e+00	0	31	0	1038090240	76	4665
2026-01-03 00:26:22.84	189.01	34.01	-55.1	-56.6	14.9	0.00e+00	0	31	0	1045430272	76	4262
2026-01-03 00:26:26.83	189.35	33.17	-55.4	-57.0	14.7	0.00e+00	0	31	0	1053818880	76	4456
2026-01-03 00:26:30.81	189.68	32.35	-55.6	-57.3	14.6	0.00e+00	0	31	0	1061158912	76	4626
2026-01-03 00:26:34.81	189.99	31.55	-56.2	-58.1	14.2	0.00e+00	0	31	0	1068498944	77	4802
2026-01-03 00:26:38.82	190.29	30.77	-56.1	-58.1	14.2	0.00e+00	0	31	0	1075838976	77	4777
2026-01-03 00:26:42.81	190.57	30.01	-55.3	-56.9	14.8	0.00e+00	0	31	0	1083179008	77	4187
2026-01-03 00:26:46.79	190.84	29.28	-54.5	-55.9	15.2	0.00e+00	0	31	0	1090519040	75	4164
2026-01-03 00:26:50.78	191.10	28.56	-54.1	-55.4	15.3	0.00e+00	0	31	0	1097859072	74	4182
2026-01-03 00:26:54.78	191.35	27.85	-54.0	-55.3	15.3	0.00e+00	0	31	0	1106247680	74	4104
2026-01-03 00:26:58.77	191.60	27.17	-53.9	-55.2	15.4	0.00e+00	0	31	0	1113587712	74	4095
2026-01-03 00:27:02.76	191.83	26.50	-54.1	-55.4	15.3	0.00e+00	0	31	0	1120927744	74	4184
2026-01-03 00:27:06.77	192.05	25.84	-54.1	-55.4	15.3	0.00e+00	0	31	0	1128267776	74	4156
2026-01-03 00:27:10.77	192.26	25.20	-53.7	-55.0	15.4	0.00e+00	0	31	0	1135607808	74	3976
2026-01-03 00:27:14.78	192.47	24.57	-53.4	-54.6	15.5	0.00e+00	0	31	0	1142947840	73	4035
2026-01-03 00:27:18.77	192.67	23.97	-53.3	-54.5	15.6	0.00e+00	0	31	0	1150287872	73	3987
2026-01-03 00:27:22.76	192.86	23.37	-53.2	-54.4	15.6	0.00e+00	0	31	0	1158676480	73	3935
2026-01-03 00:27:26.75	193.05	22.79	-52.9	-54.0	15.6	0.00e+00	0	31	0	1166016512	72	3996
2026-01-03 00:27:30.73	193.23	22.22	-52.8	-53.8	15.7	0.00e+00	0	31	0	1173356544	72	3911
2026-01-03 00:27:34.73	193.40	21.66	-52.8	-53.9	15.7	0.00e+00	0	31	0	1180696576	72	3915
2026-01-03 00:27:38.73	193.57	21.11	-53.0	-54.1	15.5	0.00e+00	0	31	0	1188036608	72	4048
2026-01-03 00:27:42.72	193.73	20.58	-53.2	-54.4	15.5	0.00e+00	0	31	0	1195376640	72	4167
2026-01-03 00:27:46.73	193.89	20.05	-53.3	-54.5	15.4	0.00e+00	0	31	0	1202716672	72	4236
2026-01-03 00:27:50.74	194.04	19.54	-53.5	-54.8	15.4	0.00e+00	0	31	0	1211105280	72	4348
2026-01-03 00:27:54.74	194.19	19.03	-53.5	-54.7	15.4	0.00e+00	0	31	0	1218445312	72	4339
2026-01-03 00:27:58.76	194.34	18.54	-53.6	-54.8	15.3	0.00e+00	0	31	0	1225785344	72	4382
2026-01-03 00:28:02.75	194.48	18.05	-53.5	-54.8	15.3	0.00e+00	0	31	0	1233125376	72	4359
2026-01-03 00:28:06.75	194.61	17.58	-53.7	-55.0	15.3	0.00e+00	0	31	0	1240465408	72	4451
2026-01-03 00:28:10.75	194.75	17.11	-53.8	-55.1	15.2	0.00e+00	0	31	0	1247805440	72	4508
2026-01-03 00:28:14.76	194.88	16.65	-54.0	-55.3	15.2	0.00e+00	0	31	0	1256194048	73	4375
2026-01-03 00:28:18.76	195.00	16.20	-54.0	-55.4	15.1	0.00e+00	0	31	0	1263534080	73	4430
2026-01-03 00:28:22.76	195.13	15.76	-54.1	-55.4	15.1	0.00e+00	0	31	0	1270874112	73	4439
2026-01-03 00:28:26.77	195.24	15.33	-54.1	-55.5	15.1	0.00e+00	0	31	0	1278214144	73	4471
2026-01-03 00:28:30.78	195.36	14.90	-54.1	-55.6	15.0	0.00e+00	0	31	0	1285554176	73	4500
2026-01-03 00:28:34.80	195.48	14.48	-54.1	-55.6	15.1	0.00e+00	0	31	0	1292894208	73	4507
2026-01-03 00:28:38.81	195.59	14.07	-54.1	-55.5	15.1	0.00e+00	0	31	0	1301282816	73	4468
2026-01-03 00:28:42.83	195.70	13.66	-54.0	-55.4	15.1	0.00e+00	0	31	0	1308622848	73	4423
2026-01-03 00:28:46.82	195.80	13.26	-54.1	-55.5	15.1	0.00e+00	0	31	0	1315962880	73	4449
2026-01-03 00:28:50.82	195.90	12.87	-54.1	-55.6	15.0	0.00e+00	0	31	0	1323302912	73	4509
2026-01-03 00:28:54.83	196.01	12.49	-54.2	-55.7	15.0	0.00e+00	0	31	0	1330642944	73	4582
2026-01-03 00:28:58.82	196.10	12.11	-54.2	-55.7	14.9	0.00e+00	0	31	0	1337982976	73	4588
2026-01-03 00:29:02.84	196.20	11.73	-54.3	-55.8	14.9	0.00e+00	0	31	0	1346371584	73	4651
2026-01-03 00:29:06.82	196.30	11.36	-54.5	-56.1	14.8	0.00e+00	0	31	0	1353711616	74	4509
2026-01-03 00:29:10.83	196.39	11.00	-54.6	-56.2	14.8	0.00e+00	0	31	0	1361051648	74	4576
2026-01-03 00:29:14.83	196.48	10.64	-54.7	-56.3	14.7	0.00e+00	0	31	0	1368391680	74	4632
2026-01-03 00:29:18.83	196.57	10.29	-54.8	-56.6	14.6	0.00e+00	0	31	0	1375731712	74	4768
2026-01-03 00:29:22.83	196.66	9.94	-54.8	-56.5	14.6	0.00e+00	0	31	0	1383071744	74	4750
2026-01-03 00:29:26.83	196.74	9.60	-54.9	-56.7	14.5	0.00e+00	0	31	0	1390411776	75	4580
2026-01-03 00:29:30.83	196.82	9.26	-54.9	-56.7	14.5	0.00e+00	0	31	0	1398800384	75	4565
2026-01-03 00:29:34.83	196.91	8.93	-54.9	-56.7	14.5	0.00e+00	0	31	0	1406140416	75	4582
2026-01-03 00:29:38.83	196.99	8.60	-54.8	-56.6	14.5	0.00e+00	0	31	0	1413480448	75	4539
2026-01-03 00:29:42.83	197.07	8.27	-54.9	-56.7	14.5	0.00e+00	0	31	0	1420820480	75	4563
2026-01-03 00:29:46.84	197.15	7.95	-54.8	-56.6	14.5	0.00e+00	0	31	0	1428160512	75	4530
2026-01-03 00:29:50.84	197.22	7.63	-54.9	-56.7	14.5	0.00e+00	0	31	0	1435500544	75	4560
2026-01-03 00:29:54.85	197.30	7.32	-54.8	-56.7	14.5	0.00e+00	0	31	0	1443889152	75	4557
2026-01-03 00:29:58.86	197.37	7.01	-55.0	-56.8	14.4	0.00e+00	0	31	0	1451229184	75	4641
2026-01-03 00:30:02.86	197.44	6.70	-54.9	-56.8	14.4	0.00e+00	0	31	0	1458569216	75	4612
2026-01-03 00:30:06.86	197.51	6.40	-55.0	-56.9	14.3	0.00e+00	0	31	0	1465909248	75	4667
2026-01-03 00:30:10.86	197.58	6.10	-54.9	-56.9	14.3	0.00e+00	0	31	0	1473249280	75	4660
2026-01-03 00:30:14.87	197.65	5.81	-55.1	-57.1	14.1	0.00e+00	0	31	0	1480589312	75	4806
2026-01-03 00:30:18.87	197.72	5.51	-55.0	-57.0	14.2	0.00e+00	0	31	0	1487929344	75	4742
2026-01-03 00:30:22.86	197.79	5.23	-55.1	-57.2	14.1	0.00e+00	0	31	0	1496317952	75	4838
2026-01-03 00:30:26.87	197.85	4.94	-60.2	-75.7	3.7	3.00e-06	0	31	104	1503657984	85	22941
2026-01-03 00:30:30.86	197.92	4.66	-61.2	-76.8	3.9	1.49e+00	0	31	104	1503657984	87	23154
2026-01-03 00:30:34.86	197.98	4.38	-61.6	-77.1	3.8	1.49e+00	0	31	104	1503657984	88	22768
2026-01-03 00:30:38.85	198.05	4.10	-61.7	-77.3	3.8	1.49e+00	0	31	104	1503657984	88	23170
2026-01-03 00:30:42.84	198.11	3.83	-61.9	-77.4	3.8	1.49e+00	0	31	104	1503657984	88	23574
2026-01-03 00:30:46.85	198.17	3.56	-61.9	-77.5	3.8	1.49e+00	0	31	104	1503657984	89	22367
2026-01-03 00:30:50.84	198.23	3.29	-61.9	-77.5	3.8	1.49e+00	0	31	104	1503657984	89	22345
2026-01-03 00:30:54.85	198.29	3.02	-61.8	-77.4	3.8	1.49e+00	0	31	104	1503657984	89	22256
2026-01-03 00:30:58.83	198.35	2.76	-61.8	-77.4	3.8	1.49e+00	0	31	104	1503657984	89	22235
2026-01-03 00:31:02.84	198.40	2.50	-61.8	-77.4	3.8	1.49e+00	0	31	104	1503657984	89	22151
2026-01-03 00:31:06.83	198.46	2.24	-61.8	-77.4	3.8	1.49e+00	0	31	104	1503657984	89	22130
2026-01-03 00:31:10.84	198.52	1.98	-61.8	-77.4	3.8	1.49e+00	0	31	104	1503657984	89	22089

#Closed at: 2026-01-03 00:31:12
#Recorded file [1503 MB]: D:/lorett/data/31004_260103_031642.dat