passes_logs/2026/01/03/R3.2S_Murmansk/R3.2S_Murmansk__20260103_133241_2024-110A_rec.log

#Pass ID: 20260103_133241_2024-110A
#Satellite: 2024-110A
#Configuration: 01B_900M
#almurnet v.1.7.20251203
#Start time: 2026-01-03 13:32:43

#Version: 2.2.20231116
#Station: R3.2S_Murmansk
#Location: 33.079688 lon 68.888172 lat
#TLE: 1 60012U 24110A   26002.95318693  .00014087  00000+0  85323-3 0  9994
#TLE: 2 60012  97.5762  96.0814 0010504 103.3240 256.9162 15.10659487 86942

#Time	Az	El	Level	Level2	SNR	BER	BlckErr	Temp	State	Recorded	gain1	gain2
2026-01-03 13:32:43.87	30.75	2.12	-58.6	-61.8	6.1	0.00e+00	0	31	0	0	84	20263
2026-01-03 13:32:45.88	30.56	2.24	-58.5	-61.8	6.2	0.00e+00	0	31	104	0	84	20319
2026-01-03 13:32:47.90	30.36	2.36	-58.5	-61.8	6.2	0.00e+00	0	31	104	0	84	20245
2026-01-03 13:32:49.92	30.15	2.47	-58.5	-61.8	6.2	0.00e+00	0	31	104	0	84	20210
2026-01-03 13:32:51.94	29.95	2.59	-58.5	-61.8	6.2	0.00e+00	0	31	104	0	84	20265
2026-01-03 13:32:53.95	29.75	2.71	-58.5	-61.8	6.2	0.00e+00	0	31	104	0	84	20183
2026-01-03 13:32:55.97	29.54	2.83	-58.5	-61.8	6.2	0.00e+00	0	31	104	0	84	20260
2026-01-03 13:32:57.99	29.33	2.95	-58.5	-61.8	6.2	0.00e+00	0	31	104	0	84	20233
2026-01-03 13:33:00.01	29.12	3.07	-58.5	-61.8	6.2	0.00e+00	0	31	104	0	84	20169
2026-01-03 13:33:02.03	28.90	3.19	-58.5	-61.8	6.2	0.00e+00	0	31	104	0	84	20216
2026-01-03 13:33:04.04	28.69	3.31	-58.5	-61.8	6.2	0.00e+00	0	31	104	0	84	20228
2026-01-03 13:33:06.06	28.47	3.44	-58.5	-61.8	6.2	0.00e+00	0	31	104	0	84	20249
2026-01-03 13:33:08.07	28.25	3.56	-58.5	-61.8	6.1	0.00e+00	0	31	104	0	84	20228
2026-01-03 13:33:10.07	28.02	3.68	-58.5	-61.8	6.2	0.00e+00	0	31	104	0	84	20221
2026-01-03 13:33:12.09	27.80	3.80	-58.5	-61.8	6.2	0.00e+00	0	31	104	0	84	20165
2026-01-03 13:33:14.11	27.57	3.92	-58.5	-61.8	6.2	0.00e+00	0	31	104	0	84	20212
2026-01-03 13:33:16.13	27.34	4.05	-58.5	-61.8	6.2	0.00e+00	0	31	104	0	84	20191
2026-01-03 13:33:18.15	27.10	4.17	-58.5	-61.8	6.2	0.00e+00	0	32	104	0	84	20238
2026-01-03 13:33:20.17	26.87	4.29	-58.5	-61.8	6.2	0.00e+00	0	32	104	0	84	20227
2026-01-03 13:33:22.19	26.63	4.42	-58.5	-61.8	6.2	0.00e+00	0	32	104	0	84	20191
2026-01-03 13:33:24.20	26.39	4.54	-58.5	-61.8	6.2	0.00e+00	0	32	104	0	84	20205
2026-01-03 13:33:26.22	26.14	4.67	-58.5	-61.8	6.2	0.00e+00	0	32	104	0	84	20185
2026-01-03 13:33:28.24	25.90	4.79	-58.5	-61.8	6.2	0.00e+00	0	32	104	0	84	20248
2026-01-03 13:33:30.25	25.65	4.92	-58.5	-61.7	6.2	0.00e+00	0	32	104	0	84	20162
2026-01-03 13:33:32.27	25.40	5.04	-58.5	-61.8	6.2	0.00e+00	0	32	104	0	84	20224
2026-01-03 13:33:34.29	25.14	5.17	-58.7	-62.0	6.2	0.00e+00	0	32	104	0	84	20666
2026-01-03 13:33:36.30	24.89	5.30	-58.7	-61.9	6.2	0.00e+00	0	32	104	0	84	20563
2026-01-03 13:33:38.32	24.62	5.42	-58.8	-62.0	6.2	0.00e+00	0	32	104	0	84	20767
2026-01-03 13:33:40.34	24.36	5.55	-58.7	-62.0	6.2	0.00e+00	0	32	104	0	84	20650
2026-01-03 13:33:42.35	24.10	5.68	-58.8	-62.0	6.2	0.00e+00	0	32	104	0	84	20756
2026-01-03 13:33:44.37	23.83	5.81	-58.8	-62.0	6.2	0.00e+00	0	32	104	0	84	20704
2026-01-03 13:33:46.38	23.56	5.93	-58.8	-62.1	6.2	0.00e+00	0	32	104	0	84	20908
2026-01-03 13:33:48.40	23.28	6.06	-58.8	-62.0	6.2	0.00e+00	0	32	104	0	84	20815
2026-01-03 13:33:50.41	23.00	6.19	-58.8	-62.1	6.2	0.00e+00	0	32	104	0	84	21012
2026-01-03 13:33:52.43	22.72	6.32	-58.8	-62.1	6.2	0.00e+00	0	32	104	0	84	20902
2026-01-03 13:33:54.45	22.44	6.45	-58.8	-62.1	6.2	0.00e+00	0	32	104	0	84	21037
2026-01-03 13:33:56.46	22.15	6.58	-58.8	-62.1	6.2	0.00e+00	0	32	104	0	84	20934
2026-01-03 13:33:58.47	21.86	6.71	-58.9	-62.2	6.2	0.00e+00	0	32	104	0	84	21116
2026-01-03 13:34:00.49	21.56	6.84	-58.9	-62.1	6.2	0.00e+00	0	32	104	0	84	21002
2026-01-03 13:34:02.51	21.27	6.97	-58.9	-62.1	6.2	0.00e+00	0	32	104	0	84	21112
2026-01-03 13:34:04.53	20.97	7.10	-58.9	-62.2	6.2	0.00e+00	0	32	104	0	84	21134
2026-01-03 13:34:06.54	20.66	7.23	-58.9	-62.2	6.2	0.00e+00	0	32	104	0	84	21188
2026-01-03 13:34:08.56	20.35	7.36	-58.9	-62.2	6.2	0.00e+00	0	32	104	0	84	21230
2026-01-03 13:34:10.58	20.04	7.49	-58.9	-62.2	6.2	0.00e+00	0	32	104	0	84	21213
2026-01-03 13:34:12.59	19.73	7.62	-58.9	-62.2	6.2	0.00e+00	0	32	104	0	84	21210
2026-01-03 13:34:14.61	19.41	7.75	-58.9	-62.2	6.1	0.00e+00	0	32	104	0	84	21202
2026-01-03 13:34:16.62	19.09	7.88	-58.9	-62.2	6.2	0.00e+00	0	32	104	0	84	21226
2026-01-03 13:34:18.64	18.76	8.02	-59.0	-62.2	6.2	0.00e+00	0	32	104	0	84	21152
2026-01-03 13:34:20.66	18.43	8.15	-59.0	-62.2	6.2	0.00e+00	0	32	104	0	84	21301
2026-01-03 13:34:22.67	18.10	8.28	-59.0	-62.2	6.2	0.00e+00	0	32	104	0	84	21301
2026-01-03 13:34:24.69	17.77	8.41	-59.0	-62.3	6.2	0.00e+00	0	32	104	0	84	21420
2026-01-03 13:34:26.70	17.43	8.54	-59.0	-62.3	6.2	0.00e+00	0	32	104	0	84	21369
2026-01-03 13:34:28.72	17.08	8.68	-59.0	-62.3	6.2	0.00e+00	0	32	104	0	84	21424
2026-01-03 13:34:30.73	16.73	8.81	-59.0	-62.3	6.2	0.00e+00	0	32	104	0	84	21439
2026-01-03 13:34:32.75	16.38	8.94	-59.0	-62.3	6.2	0.00e+00	0	32	104	0	84	21505
2026-01-03 13:34:34.77	16.03	9.07	-59.0	-62.3	6.2	0.00e+00	0	32	104	0	84	21466
2026-01-03 13:34:36.78	15.67	9.20	-59.1	-62.3	6.2	0.00e+00	0	33	104	0	84	21537
2026-01-03 13:34:38.79	15.30	9.34	-59.1	-62.3	6.2	0.00e+00	0	32	104	0	84	21570
2026-01-03 13:34:40.81	14.94	9.47	-59.1	-62.3	6.2	0.00e+00	0	32	104	0	84	21510
2026-01-03 13:34:42.81	14.57	9.60	-59.1	-62.4	6.2	0.00e+00	0	33	104	0	84	21618
2026-01-03 13:34:44.83	14.19	9.73	-59.1	-62.4	6.2	0.00e+00	0	32	104	0	84	21640
2026-01-03 13:34:46.85	13.81	9.86	-59.1	-62.4	6.2	0.00e+00	0	32	104	0	84	21698
2026-01-03 13:34:48.86	13.43	9.99	-59.1	-62.4	6.2	0.00e+00	0	32	104	0	84	21711
2026-01-03 13:34:50.88	13.04	10.12	-59.2	-62.4	6.2	0.00e+00	0	32	104	0	84	21747
2026-01-03 13:34:52.90	12.64	10.26	-59.2	-62.4	6.2	0.00e+00	0	33	104	0	84	21666
2026-01-03 13:34:54.91	12.25	10.39	-59.2	-62.4	6.2	0.00e+00	0	32	104	0	84	21844
2026-01-03 13:34:56.93	11.84	10.52	-59.2	-62.4	6.2	0.00e+00	0	32	104	0	84	21845
2026-01-03 13:34:58.94	11.44	10.65	-59.2	-62.4	6.2	0.00e+00	0	33	104	0	84	21786
2026-01-03 13:35:00.96	11.03	10.78	-59.2	-62.5	6.1	0.00e+00	0	32	104	0	84	21878
2026-01-03 13:35:02.98	10.61	10.91	-59.2	-62.5	6.2	0.00e+00	0	32	104	0	84	21903
2026-01-03 13:35:04.99	10.19	11.04	-59.2	-62.5	6.2	0.00e+00	0	33	104	0	84	22070
2026-01-03 13:35:07.00	9.77	11.16	-59.3	-62.5	6.2	0.00e+00	0	33	104	0	84	22088
2026-01-03 13:35:09.02	9.34	11.29	-59.3	-62.5	6.2	0.00e+00	0	33	104	0	84	22009
2026-01-03 13:35:11.03	8.91	11.42	-59.3	-62.5	6.2	0.00e+00	0	33	104	0	84	22106
2026-01-03 13:35:13.05	8.47	11.55	-59.3	-62.5	6.2	0.00e+00	0	33	104	0	84	22007
2026-01-03 13:35:15.06	8.03	11.67	-59.3	-62.5	6.2	0.00e+00	0	32	104	0	84	22081
2026-01-03 13:35:17.08	7.58	11.80	-59.3	-62.6	6.2	0.00e+00	0	33	104	0	84	22131
2026-01-03 13:35:19.09	7.13	11.93	-59.3	-62.6	6.2	0.00e+00	0	33	104	0	84	22228
2026-01-03 13:35:21.11	6.67	12.05	-59.3	-62.6	6.2	0.00e+00	0	33	104	0	84	22118
2026-01-03 13:35:23.13	6.21	12.17	-59.3	-62.6	6.2	0.00e+00	0	33	104	0	84	22187
2026-01-03 13:35:25.14	5.75	12.30	-59.3	-62.6	6.2	0.00e+00	0	33	104	0	84	22157
2026-01-03 13:35:27.16	5.28	12.42	-59.3	-62.6	6.2	0.00e+00	0	33	104	0	84	22240
2026-01-03 13:35:29.17	4.80	12.54	-59.3	-62.6	6.2	0.00e+00	0	33	104	0	84	22245
2026-01-03 13:35:31.19	4.32	12.66	-59.4	-62.6	6.2	0.00e+00	0	32	104	0	84	22265
2026-01-03 13:35:33.21	3.84	12.78	-59.4	-62.6	6.1	0.00e+00	0	33	104	0	84	22300
2026-01-03 13:35:35.22	3.35	12.90	-59.4	-62.6	6.2	0.00e+00	0	33	104	0	84	22342
2026-01-03 13:35:37.24	2.86	13.02	-59.4	-62.6	6.2	0.00e+00	0	33	104	0	84	22357
2026-01-03 13:35:39.26	2.36	13.13	-59.4	-62.6	6.2	0.00e+00	0	33	104	0	84	22347
2026-01-03 13:35:41.27	1.86	13.25	-59.4	-62.6	6.2	0.00e+00	0	33	104	0	84	22339
2026-01-03 13:35:43.28	1.35	13.36	-59.4	-62.6	6.2	0.00e+00	0	33	104	0	84	22353
2026-01-03 13:35:45.30	0.84	13.47	-59.4	-62.7	6.2	0.00e+00	0	33	104	0	84	22377
2026-01-03 13:35:47.32	0.32	13.58	-59.4	-62.7	6.2	0.00e+00	0	33	104	0	84	22447
2026-01-03 13:35:49.33	359.80	13.69	-59.4	-62.7	6.2	0.00e+00	0	33	104	0	84	22431
2026-01-03 13:35:51.34	359.27	13.80	-59.5	-62.7	6.2	0.00e+00	0	33	104	0	84	22564
2026-01-03 13:35:53.35	358.75	13.91	-59.5	-62.7	6.2	0.00e+00	0	33	104	0	84	22485
2026-01-03 13:35:55.37	358.21	14.01	-59.5	-62.7	6.2	0.00e+00	0	33	104	0	84	22526
2026-01-03 13:35:57.38	357.67	14.12	-59.4	-62.7	6.2	0.00e+00	0	33	104	0	84	22520
2026-01-03 13:35:59.41	357.12	14.22	-59.5	-62.7	6.2	0.00e+00	0	33	104	0	84	22488
2026-01-03 13:36:01.42	356.58	14.32	-59.5	-62.8	6.2	0.00e+00	0	33	104	0	84	22626
2026-01-03 13:36:03.44	356.02	14.42	-59.5	-62.8	6.2	0.00e+00	0	33	104	0	84	22631
2026-01-03 13:36:05.45	355.47	14.51	-59.5	-62.8	6.2	0.00e+00	0	33	104	0	84	22656
2026-01-03 13:36:07.47	354.90	14.61	-59.5	-62.8	6.2	0.00e+00	0	33	104	0	84	22676
2026-01-03 13:36:09.48	354.34	14.70	-59.5	-62.8	6.2	0.00e+00	0	33	104	0	84	22736
2026-01-03 13:36:11.50	353.77	14.79	-59.5	-62.8	6.2	0.00e+00	0	33	104	0	84	22669
2026-01-03 13:36:13.50	353.20	14.88	-59.5	-62.8	6.2	0.00e+00	0	33	104	0	84	22879
2026-01-03 13:36:15.52	352.62	14.97	-59.6	-62.8	6.2	0.00e+00	0	33	104	0	84	22735
2026-01-03 13:36:17.54	352.04	15.05	-59.6	-62.9	6.2	0.00e+00	0	33	104	0	84	22894
2026-01-03 13:36:19.56	351.45	15.13	-59.7	-63.0	6.2	0.00e+00	0	33	104	0	85	21947
2026-01-03 13:36:21.58	350.86	15.21	-59.7	-63.0	6.2	0.00e+00	0	33	104	0	85	21896
2026-01-03 13:36:23.59	350.27	15.29	-59.6	-62.9	6.2	0.00e+00	0	33	104	0	85	21681
2026-01-03 13:36:25.60	349.68	15.36	-59.7	-62.9	6.2	0.00e+00	0	33	104	0	85	21762
2026-01-03 13:36:27.62	349.07	15.43	-59.6	-62.9	6.2	0.00e+00	0	33	104	0	85	21634
2026-01-03 13:36:29.63	348.47	15.50	-59.7	-62.9	6.2	0.00e+00	0	33	104	0	85	21846
2026-01-03 13:36:31.64	347.87	15.57	-59.6	-62.9	6.2	0.00e+00	0	33	104	0	85	21661
2026-01-03 13:36:33.66	347.26	15.63	-59.7	-63.0	6.2	0.00e+00	0	33	104	0	85	21861
2026-01-03 13:36:35.67	346.65	15.70	-59.7	-62.9	6.2	0.00e+00	0	33	104	0	85	21700
2026-01-03 13:36:37.68	346.03	15.75	-59.7	-62.9	6.2	0.00e+00	0	33	104	0	85	21777
2026-01-03 13:36:39.70	345.41	15.81	-59.6	-62.9	6.2	0.00e+00	0	33	104	0	85	21738
2026-01-03 13:36:41.72	344.79	15.86	-59.7	-62.9	6.2	0.00e+00	0	33	104	0	85	21853
2026-01-03 13:36:43.72	344.17	15.91	-59.7	-62.9	6.2	0.00e+00	0	33	104	0	85	21754
2026-01-03 13:36:45.74	343.55	15.96	-59.7	-63.0	6.2	0.00e+00	0	33	104	0	85	21919
2026-01-03 13:36:47.76	342.92	16.01	-59.7	-62.9	6.2	0.00e+00	0	33	104	0	85	21783
2026-01-03 13:36:49.78	342.28	16.05	-59.7	-63.0	6.2	0.00e+00	0	33	104	0	85	21940
2026-01-03 13:36:51.80	341.65	16.09	-59.7	-62.9	6.2	0.00e+00	0	33	104	0	85	21840
2026-01-03 13:36:53.81	341.02	16.12	-59.7	-63.0	6.2	0.00e+00	0	33	104	0	85	21908
2026-01-03 13:36:55.83	340.38	16.15	-59.7	-63.0	6.2	0.00e+00	0	33	104	0	85	21912
2026-01-03 13:36:57.84	339.75	16.18	-59.7	-63.0	6.2	0.00e+00	0	33	104	0	85	21961
2026-01-03 13:36:59.86	339.11	16.21	-59.7	-63.0	6.2	0.00e+00	0	33	104	0	85	21974
2026-01-03 13:37:01.87	338.47	16.23	-59.8	-63.0	6.2	0.00e+00	0	33	104	0	85	22021
2026-01-03 13:37:03.88	337.83	16.25	-59.7	-63.0	6.2	0.00e+00	0	33	104	0	85	21890
2026-01-03 13:37:05.90	337.19	16.27	-59.8	-63.0	6.2	0.00e+00	0	33	104	0	85	22021
2026-01-03 13:37:07.92	336.54	16.28	-59.7	-63.0	6.2	0.00e+00	0	33	104	0	85	21901
2026-01-03 13:37:09.93	335.90	16.29	-59.8	-63.0	6.2	0.00e+00	0	33	104	0	85	22031
2026-01-03 13:37:11.95	335.26	16.30	-59.7	-63.0	6.2	0.00e+00	0	33	104	0	85	21964
2026-01-03 13:37:13.96	334.61	16.30	-59.8	-63.0	6.2	0.00e+00	0	33	104	0	85	22076
2026-01-03 13:37:15.97	333.97	16.30	-59.7	-63.0	6.1	0.00e+00	0	33	104	0	85	21905
2026-01-03 13:37:17.99	333.33	16.30	-59.8	-63.0	6.2	0.00e+00	0	33	104	0	85	22042
2026-01-03 13:37:19.99	332.69	16.29	-59.7	-63.0	6.2	0.00e+00	0	33	104	0	85	22003
2026-01-03 13:37:22.01	332.04	16.28	-59.8	-63.1	6.2	0.00e+00	0	33	104	0	85	22111
2026-01-03 13:37:24.02	331.40	16.27	-59.7	-63.0	6.2	0.00e+00	0	33	104	0	85	22010
2026-01-03 13:37:26.04	330.76	16.25	-59.8	-63.0	6.2	0.00e+00	0	33	104	0	85	22079
2026-01-03 13:37:28.06	330.12	16.23	-59.7	-63.0	6.2	0.00e+00	0	33	104	0	85	21985
2026-01-03 13:37:30.07	329.48	16.21	-59.8	-63.0	6.2	0.00e+00	0	33	104	0	85	22106
2026-01-03 13:37:32.09	328.84	16.19	-59.7	-63.0	6.2	0.00e+00	0	33	104	0	85	21904
2026-01-03 13:37:34.10	328.20	16.16	-59.8	-63.0	6.2	0.00e+00	0	33	104	0	85	22042
2026-01-03 13:37:36.12	327.56	16.12	-59.8	-63.0	6.2	0.00e+00	0	33	104	0	85	22047
2026-01-03 13:37:38.14	326.93	16.09	-59.8	-63.0	6.2	0.00e+00	0	33	104	0	85	22088
2026-01-03 13:37:40.15	326.30	16.05	-59.7	-63.0	6.2	0.00e+00	0	33	104	0	85	21928
2026-01-03 13:37:42.17	325.66	16.01	-59.8	-63.0	6.2	0.00e+00	0	33	104	0	85	21944
2026-01-03 13:37:44.18	325.04	15.97	-59.7	-63.0	6.2	0.00e+00	0	33	104	0	85	21998
2026-01-03 13:37:46.20	324.41	15.92	-59.8	-63.0	6.2	0.00e+00	0	33	104	0	85	22037
2026-01-03 13:37:48.22	323.78	15.87	-59.7	-63.0	6.2	0.00e+00	0	33	104	0	85	21975
2026-01-03 13:37:50.23	323.16	15.82	-59.8	-63.0	6.2	0.00e+00	0	33	104	0	85	22027
2026-01-03 13:37:52.24	322.55	15.76	-59.8	-63.0	6.2	0.00e+00	0	33	104	0	85	22011
2026-01-03 13:37:54.26	321.93	15.70	-59.8	-63.0	6.2	0.00e+00	0	33	104	0	85	21985
2026-01-03 13:37:56.27	321.32	15.64	-59.7	-63.0	6.2	0.00e+00	0	33	104	0	85	21969
2026-01-03 13:37:58.29	320.71	15.58	-59.8	-63.0	6.2	0.00e+00	0	33	104	0	85	22101
2026-01-03 13:38:00.31	320.10	15.51	-59.7	-63.0	6.2	0.00e+00	0	33	104	0	85	21997
2026-01-03 13:38:02.33	319.49	15.44	-59.8	-63.0	6.2	0.00e+00	0	33	104	0	85	22073
2026-01-03 13:38:04.34	318.89	15.37	-59.7	-63.0	6.2	0.00e+00	0	33	104	0	85	21943
2026-01-03 13:38:06.35	318.30	15.29	-59.8	-63.0	6.2	0.00e+00	0	33	104	0	85	22011
2026-01-03 13:38:08.37	317.70	15.22	-59.7	-63.0	6.2	0.00e+00	0	33	104	0	85	21949
2026-01-03 13:38:10.38	317.11	15.14	-59.8	-63.0	6.2	0.00e+00	0	33	104	0	85	22008
2026-01-03 13:38:12.40	316.52	15.06	-59.7	-63.0	6.2	0.00e+00	0	33	104	0	85	22026
2026-01-03 13:38:14.41	315.94	14.97	-59.8	-63.0	6.2	0.00e+00	0	33	104	0	85	22016
2026-01-03 13:38:16.43	315.36	14.89	-59.7	-63.0	6.2	0.00e+00	0	33	104	0	85	21989
2026-01-03 13:38:18.45	314.79	14.80	-59.8	-63.0	6.2	0.00e+00	0	33	104	0	85	22048
2026-01-03 13:38:20.47	314.21	14.71	-59.7	-63.0	6.2	0.00e+00	0	33	104	0	85	21950
2026-01-03 13:38:22.48	313.65	14.62	-59.8	-63.0	6.2	0.00e+00	0	33	104	0	85	22045
2026-01-03 13:38:24.50	313.08	14.52	-59.7	-62.9	6.2	0.00e+00	0	33	104	0	85	21841
2026-01-03 13:38:26.51	312.53	14.42	-59.8	-63.0	6.2	0.00e+00	0	33	104	0	85	21974
2026-01-03 13:38:28.53	311.97	14.33	-59.7	-63.0	6.2	0.00e+00	0	33	104	0	85	21895
2026-01-03 13:38:30.54	311.42	14.23	-59.8	-63.0	6.2	0.00e+00	0	33	104	0	85	21924
2026-01-03 13:38:32.56	310.88	14.12	-59.7	-63.0	6.2	0.00e+00	0	33	104	0	85	21885
2026-01-03 13:38:34.58	310.33	14.02	-59.7	-63.0	6.2	0.00e+00	0	33	104	0	85	22052
2026-01-03 13:38:36.59	309.80	13.92	-59.7	-62.9	6.2	0.00e+00	0	33	104	0	85	21852
2026-01-03 13:38:38.60	309.27	13.81	-59.7	-63.0	6.2	0.00e+00	0	33	104	0	85	22004
2026-01-03 13:38:40.62	308.74	13.70	-59.7	-62.9	6.2	0.00e+00	0	33	104	0	85	21752
2026-01-03 13:38:42.64	308.22	13.59	-59.7	-63.0	6.2	0.00e+00	0	33	104	0	85	21935
2026-01-03 13:38:44.65	307.70	13.48	-59.7	-62.9	6.2	0.00e+00	0	33	104	0	85	21851
2026-01-03 13:38:46.66	307.19	13.37	-59.7	-63.0	6.2	0.00e+00	0	33	104	0	85	21911
2026-01-03 13:38:48.68	306.68	13.25	-59.7	-62.9	6.2	0.00e+00	0	33	104	0	85	21727
2026-01-03 13:38:50.69	306.17	13.14	-59.7	-63.0	6.2	0.00e+00	0	33	104	0	85	21948
2026-01-03 13:38:52.71	305.67	13.02	-59.7	-62.9	6.2	0.00e+00	0	33	104	0	85	21686
2026-01-03 13:38:54.72	305.18	12.91	-59.7	-63.0	6.2	0.00e+00	0	33	104	0	85	21880
2026-01-03 13:38:56.74	304.69	12.79	-59.6	-62.9	6.2	0.00e+00	0	33	104	0	85	21768
2026-01-03 13:38:58.75	304.20	12.67	-59.7	-62.9	6.2	0.00e+00	0	33	104	0	85	21784
2026-01-03 13:39:00.77	303.72	12.55	-59.6	-62.9	6.2	0.00e+00	0	33	104	0	85	21684
2026-01-03 13:39:02.78	303.24	12.43	-59.7	-62.9	6.2	0.00e+00	0	33	104	0	85	21794
2026-01-03 13:39:04.80	302.77	12.30	-59.6	-62.9	6.2	0.00e+00	0	33	104	0	85	21697
2026-01-03 13:39:06.81	302.31	12.18	-59.7	-62.9	6.2	0.00e+00	0	33	104	0	85	21719
2026-01-03 13:39:08.82	301.85	12.06	-59.6	-62.8	6.2	0.00e+00	0	33	104	0	85	21597
2026-01-03 13:39:10.84	301.39	11.93	-59.6	-62.9	6.2	0.00e+00	0	33	104	0	85	21655
2026-01-03 13:39:12.86	300.93	11.81	-59.6	-62.8	6.2	0.00e+00	0	33	104	0	85	21599
2026-01-03 13:39:14.86	300.49	11.68	-59.6	-62.9	6.2	0.00e+00	0	33	104	0	85	21670
2026-01-03 13:39:16.87	300.04	11.55	-59.6	-62.8	6.2	0.00e+00	0	33	104	0	85	21570
2026-01-03 13:39:18.88	299.61	11.43	-59.6	-62.9	6.1	0.00e+00	0	33	104	0	85	21712
2026-01-03 13:39:20.90	299.17	11.30	-59.6	-62.9	6.2	0.00e+00	0	33	104	0	85	21628
2026-01-03 13:39:22.91	298.74	11.17	-59.6	-62.9	6.2	0.00e+00	0	33	104	0	85	21661
2026-01-03 13:39:24.92	298.32	11.04	-59.6	-62.9	6.2	0.00e+00	0	33	104	0	85	21655
2026-01-03 13:39:26.94	297.90	10.91	-59.6	-62.8	6.2	0.00e+00	0	33	104	0	85	21548
2026-01-03 13:39:28.94	297.48	10.78	-59.6	-62.9	6.2	0.00e+00	0	33	104	0	85	21630
2026-01-03 13:39:30.96	297.07	10.65	-59.6	-62.8	6.2	0.00e+00	0	33	104	0	85	21525
2026-01-03 13:39:32.98	296.66	10.52	-59.6	-62.8	6.2	0.00e+00	0	33	104	0	85	21540
2026-01-03 13:39:34.99	296.26	10.39	-59.6	-62.8	6.2	0.00e+00	0	33	104	0	85	21565
2026-01-03 13:39:37.00	295.86	10.26	-59.6	-62.9	6.2	0.00e+00	0	33	104	0	85	21702
2026-01-03 13:39:39.02	295.46	10.13	-59.6	-62.8	6.2	0.00e+00	0	33	104	0	85	21571
2026-01-03 13:39:41.03	295.08	10.00	-59.6	-62.9	6.2	0.00e+00	0	33	104	0	85	21679
2026-01-03 13:39:43.05	294.69	9.87	-59.6	-62.8	6.2	0.00e+00	0	33	104	0	85	21560
2026-01-03 13:39:45.06	294.31	9.73	-59.6	-62.9	6.2	0.00e+00	0	33	104	0	85	21736
2026-01-03 13:39:47.08	293.93	9.60	-59.5	-62.8	6.2	0.00e+00	0	33	104	0	85	21423
2026-01-03 13:39:49.10	293.55	9.47	-59.6	-62.9	6.2	0.00e+00	0	33	104	0	85	21671
2026-01-03 13:39:51.11	293.19	9.34	-59.5	-62.8	6.2	0.00e+00	0	33	104	0	85	21408
2026-01-03 13:39:53.13	292.82	9.20	-59.6	-62.8	6.2	0.00e+00	0	33	104	0	85	21554
2026-01-03 13:39:55.15	292.46	9.07	-59.5	-62.8	6.2	0.00e+00	0	33	104	0	85	21369
2026-01-03 13:39:57.16	292.10	8.94	-59.6	-62.8	6.2	0.00e+00	0	33	104	0	85	21521
2026-01-03 13:39:59.18	291.75	8.81	-59.4	-62.7	6.2	0.00e+00	0	33	104	0	85	21174
2026-01-03 13:40:01.20	291.40	8.67	-59.5	-62.8	6.2	0.00e+00	0	33	104	0	85	21482
2026-01-03 13:40:03.21	291.05	8.54	-59.4	-62.6	6.2	0.00e+00	0	33	104	0	85	20977
2026-01-03 13:40:05.22	290.71	8.41	-59.5	-62.7	6.2	0.00e+00	0	33	104	0	85	21328
2026-01-03 13:40:07.24	290.37	8.28	-59.4	-62.6	6.2	0.00e+00	0	33	104	0	85	21024
2026-01-03 13:40:09.26	290.04	8.15	-59.5	-62.7	6.2	0.00e+00	0	33	104	0	85	21336
2026-01-03 13:40:11.27	289.71	8.01	-59.4	-62.6	6.2	0.00e+00	0	33	104	0	85	21041
2026-01-03 13:40:13.29	289.38	7.88	-59.4	-62.7	6.2	0.00e+00	0	33	104	0	85	21166
2026-01-03 13:40:15.31	289.06	7.75	-59.3	-62.6	6.2	0.00e+00	0	33	104	0	85	20909
2026-01-03 13:40:17.33	288.74	7.62	-59.4	-62.7	6.2	0.00e+00	0	33	104	0	85	21206
2026-01-03 13:40:19.34	288.42	7.49	-59.3	-62.5	6.2	0.00e+00	0	33	104	0	85	20824
2026-01-03 13:40:21.36	288.11	7.35	-59.4	-62.6	6.2	0.00e+00	0	33	104	0	85	21051
2026-01-03 13:40:23.37	287.80	7.22	-59.3	-62.5	6.2	0.00e+00	0	33	104	0	85	20787
2026-01-03 13:40:25.39	287.49	7.09	-59.4	-62.6	6.2	0.00e+00	0	33	104	0	85	20981
2026-01-03 13:40:27.41	287.19	6.96	-59.2	-62.5	6.2	0.00e+00	0	33	104	0	85	20688
2026-01-03 13:40:29.42	286.89	6.83	-59.3	-62.5	6.2	0.00e+00	0	33	104	0	85	20802
2026-01-03 13:40:31.43	286.60	6.70	-59.2	-62.5	6.2	0.00e+00	0	33	104	0	85	20655
2026-01-03 13:40:33.45	286.31	6.57	-59.3	-62.5	6.2	0.00e+00	0	33	104	0	85	20681
2026-01-03 13:40:35.46	286.02	6.44	-59.2	-62.4	6.2	0.00e+00	0	33	104	0	85	20570
2026-01-03 13:40:37.47	285.73	6.31	-58.4	-61.7	6.2	0.00e+00	0	33	104	0	84	20141
2026-01-03 13:40:39.48	285.45	6.18	-58.1	-60.7	6.2	0.00e+00	0	33	104	0	83	19016
2026-01-03 13:40:41.50	285.17	6.06	-58.8	-62.0	6.2	0.00e+00	0	33	104	0	83	21938
2026-01-03 13:40:43.52	284.89	5.93	-57.4	-59.6	6.4	0.00e+00	0	33	104	0	81	18641
2026-01-03 13:40:45.52	284.62	5.80	-58.7	-61.8	6.2	0.00e+00	0	33	104	0	83	21435
2026-01-03 13:40:47.54	284.35	5.67	-58.9	-62.0	6.2	0.00e+00	0	33	104	0	83	22102
2026-01-03 13:40:49.56	284.08	5.54	-59.0	-62.2	6.2	0.00e+00	0	33	104	0	83	22550
2026-01-03 13:40:51.58	283.82	5.42	-58.8	-62.1	6.2	0.00e+00	0	33	104	0	83	22250
2026-01-03 13:40:53.59	283.56	5.29	-58.9	-62.2	6.2	0.00e+00	0	33	104	0	83	22425
2026-01-03 13:40:55.61	283.30	5.16	-58.8	-62.0	6.2	0.00e+00	0	33	104	0	83	21953
2026-01-03 13:40:57.63	283.04	5.04	-58.9	-62.1	6.2	0.00e+00	0	33	104	0	83	22352
2026-01-03 13:40:59.65	282.79	4.91	-59.5	-62.7	6.2	0.00e+00	0	33	104	0	84	22515
2026-01-03 13:41:01.66	282.54	4.78	-59.9	-63.1	6.2	0.00e+00	0	33	104	0	85	22332
2026-01-03 13:41:03.69	282.29	4.66	-60.2	-63.5	6.2	0.00e+00	0	33	104	0	86	21937
2026-01-03 13:41:05.70	282.05	4.53	-60.4	-63.7	6.2	0.00e+00	0	33	104	0	86	22444
2026-01-03 13:41:07.72	281.80	4.41	-60.6	-63.9	6.2	0.00e+00	0	33	104	0	86	22921
2026-01-03 13:41:09.74	281.56	4.28	-60.7	-64.0	6.2	0.00e+00	0	33	104	0	87	22014
2026-01-03 13:41:11.75	281.33	4.16	-60.9	-64.2	6.2	0.00e+00	0	33	104	0	87	22452
2026-01-03 13:41:13.77	281.09	4.03	-61.0	-64.2	6.2	0.00e+00	0	33	104	0	87	22572
2026-01-03 13:41:15.78	280.86	3.91	-61.0	-64.3	6.2	0.00e+00	0	33	104	0	87	22669
2026-01-03 13:41:17.80	280.63	3.79	-61.0	-64.3	6.2	0.00e+00	0	33	104	0	87	22652
2026-01-03 13:41:19.81	280.40	3.67	-61.0	-64.2	6.2	0.00e+00	0	33	104	0	87	22606
2026-01-03 13:41:21.83	280.18	3.54	-61.0	-64.2	6.2	0.00e+00	0	33	104	0	87	22624
2026-01-03 13:41:23.85	279.95	3.42	-61.0	-64.2	6.2	0.00e+00	0	33	104	0	87	22567
2026-01-03 13:41:25.86	279.74	3.30	-60.9	-64.2	6.2	0.00e+00	0	33	104	0	87	22512
2026-01-03 13:41:27.88	279.52	3.18	-60.9	-64.1	6.2	0.00e+00	0	33	104	0	87	22304
2026-01-03 13:41:29.89	279.30	3.06	-60.8	-64.1	6.2	0.00e+00	0	33	104	0	87	22163
2026-01-03 13:41:31.91	279.09	2.94	-60.8	-64.1	6.2	0.00e+00	0	33	104	0	87	22199
2026-01-03 13:41:33.93	278.88	2.82	-60.8	-64.0	6.2	0.00e+00	0	33	104	0	87	22063
2026-01-03 13:41:35.95	278.67	2.70	-60.8	-64.0	6.2	0.00e+00	0	33	104	0	87	22057
2026-01-03 13:41:37.97	278.46	2.58	-60.8	-64.0	6.2	0.00e+00	0	33	104	0	87	22049
2026-01-03 13:41:39.98	278.26	2.46	-60.7	-64.0	6.2	0.00e+00	0	33	104	0	87	21900
2026-01-03 13:41:42.00	278.05	2.34	-60.7	-64.0	6.2	0.00e+00	0	33	104	0	87	21967
2026-01-03 13:41:44.01	277.86	2.22	-60.7	-64.0	6.2	0.00e+00	0	33	104	0	87	21954
2026-01-03 13:41:46.03	277.66	2.10	-60.7	-64.0	6.2	0.00e+00	0	33	104	0	87	21894
2026-01-03 13:41:48.04	277.46	1.99	-60.7	-64.0	6.2	0.00e+00	0	33	104	0	87	21859

#Closed at: 2026-01-03 13:41:48
#Recorded file [0 MB]: D:/lorett/data/31004_260103_163243.dat