passes_logs/2026/01/03/R3.2S_Murmansk/R3.2S_Murmansk__20260103_013617_SUOMI_NPP_rec.log

#Pass ID: 20260103_013617_SUOMI NPP
#Satellite: SUOMI NPP
#Configuration: NPP
#almurnet v.1.7.20251203
#Start time: 2026-01-03 01:36:18

#Version: 2.2.20231116
#Station: R3.2S_Murmansk
#Location: 33.079688 lon 68.888172 lat
#TLE: 1 37849U 11061A   26001.07732418  .00000182  00000+0  10735-3 0  9990
#TLE: 2 37849  98.7795 303.2470 0002580  87.2016 272.9455 14.19520779734739

#Time	Az	El	Level	Level2	SNR	BER	BlckErr	Temp	State	Recorded	gain1	gain2
2026-01-03 01:36:18.54	28.23	2.08	-59.5	-75.0	3.8	1.49e+00	0	29	0	0	85	21256
2026-01-03 01:36:22.51	28.16	2.34	-59.4	-74.9	3.8	1.49e+00	0	29	104	0	83	23374
2026-01-03 01:36:26.50	28.09	2.59	-59.4	-74.9	3.8	1.49e+00	0	29	104	0	83	23421
2026-01-03 01:36:30.50	28.01	2.85	-59.3	-74.9	3.8	1.49e+00	0	29	104	0	83	23398
2026-01-03 01:36:34.48	27.94	3.11	-59.3	-74.6	3.8	1.49e+00	0	29	104	0	83	22677
2026-01-03 01:36:38.47	27.86	3.38	-59.3	-73.2	3.8	1.49e+00	0	29	104	0	83	19189
2026-01-03 01:36:42.46	27.78	3.64	-59.3	-73.5	3.8	1.49e+00	0	30	104	0	83	19867
2026-01-03 01:36:46.45	27.70	3.91	-59.3	-74.4	3.8	1.49e+00	0	30	104	0	83	22071
2026-01-03 01:36:50.43	27.62	4.18	-59.1	-70.0	4.7	1.24e+00	0	30	0	0	83	13271
2026-01-03 01:36:54.41	27.53	4.46	-58.4	-65.1	7.9	6.90e-02	0	30	0	8388608	83	7603
2026-01-03 01:36:58.40	27.45	4.73	-57.7	-62.8	9.9	3.72e-03	0	30	0	15728640	82	6202
2026-01-03 01:37:02.40	27.36	5.01	-57.8	-63.0	9.7	3.04e-03	0	30	0	23068672	81	6670
2026-01-03 01:37:06.40	27.27	5.30	-58.3	-64.8	8.0	4.07e-01	0	30	0	30408704	82	7739
2026-01-03 01:37:10.38	27.17	5.58	-55.3	-57.6	13.8	0.00e+00	0	30	0	37748736	77	4506
2026-01-03 01:37:14.36	27.08	5.87	-55.0	-57.1	14.0	0.00e+00	0	30	0	45088768	76	4534
2026-01-03 01:37:18.34	26.98	6.16	-54.7	-56.8	14.2	0.00e+00	0	30	0	52428800	76	4359
2026-01-03 01:37:22.33	26.88	6.45	-54.6	-56.6	14.2	0.00e+00	0	30	0	59768832	75	4529
2026-01-03 01:37:26.32	26.78	6.75	-54.4	-56.3	14.5	0.00e+00	0	30	0	68157440	75	4341
2026-01-03 01:37:30.27	26.68	7.05	-54.4	-56.4	14.4	0.00e+00	0	30	0	75497472	75	4396
2026-01-03 01:37:34.27	26.57	7.36	-54.3	-56.2	14.5	0.00e+00	0	30	0	82837504	75	4315
2026-01-03 01:37:38.25	26.46	7.66	-54.4	-56.3	14.5	0.00e+00	0	30	0	90177536	75	4371
2026-01-03 01:37:42.24	26.35	7.98	-54.2	-56.0	14.6	0.00e+00	0	30	0	97517568	75	4231
2026-01-03 01:37:46.22	26.23	8.29	-54.1	-55.9	14.7	0.00e+00	0	30	0	104857600	74	4393
2026-01-03 01:37:50.21	26.11	8.61	-54.3	-56.1	14.5	0.00e+00	0	30	0	112197632	74	4534
2026-01-03 01:37:54.20	25.99	8.94	-53.9	-55.7	14.7	0.00e+00	0	31	0	119537664	74	4296
2026-01-03 01:37:58.18	25.87	9.26	-53.8	-55.6	14.8	0.00e+00	0	31	0	127926272	74	4246
2026-01-03 01:38:02.18	25.74	9.60	-53.6	-55.3	14.8	0.00e+00	0	30	0	135266304	73	4356
2026-01-03 01:38:06.15	25.61	9.93	-53.6	-55.2	14.9	0.00e+00	0	31	0	142606336	73	4324
2026-01-03 01:38:10.15	25.48	10.27	-53.4	-55.0	15.0	0.00e+00	0	30	0	149946368	73	4199
2026-01-03 01:38:14.14	25.34	10.62	-53.3	-54.8	15.1	0.00e+00	0	31	0	157286400	73	4136
2026-01-03 01:38:18.13	25.20	10.97	-53.1	-54.6	15.1	0.00e+00	0	30	0	164626432	72	4250
2026-01-03 01:38:22.12	25.05	11.32	-53.0	-54.3	15.2	0.00e+00	0	30	0	171966464	72	4135
2026-01-03 01:38:26.11	24.90	11.68	-52.9	-54.3	15.2	0.00e+00	0	31	0	180355072	72	4100
2026-01-03 01:38:30.10	24.75	12.05	-52.8	-54.1	15.2	0.00e+00	0	31	0	187695104	71	4286
2026-01-03 01:38:34.10	24.59	12.42	-52.8	-54.1	15.2	0.00e+00	0	31	0	195035136	71	4275
2026-01-03 01:38:38.09	24.43	12.80	-52.8	-54.1	15.3	0.00e+00	0	31	0	202375168	71	4265
2026-01-03 01:38:42.09	24.26	13.18	-52.8	-54.1	15.2	0.00e+00	0	31	0	209715200	71	4285
2026-01-03 01:38:46.07	24.09	13.56	-52.8	-54.1	15.2	0.00e+00	0	31	0	217055232	71	4275
2026-01-03 01:38:50.05	23.92	13.96	-52.9	-54.3	15.2	0.00e+00	0	31	0	224395264	71	4369
2026-01-03 01:38:54.04	23.73	14.36	-52.9	-54.3	15.2	0.00e+00	0	31	0	231735296	71	4379
2026-01-03 01:38:58.03	23.55	14.76	-53.0	-54.4	15.2	0.00e+00	0	31	0	240123904	71	4397
2026-01-03 01:39:02.01	23.35	15.17	-52.8	-54.1	15.3	0.00e+00	0	31	0	247463936	71	4266
2026-01-03 01:39:06.00	23.16	15.59	-52.7	-54.0	15.3	0.00e+00	0	31	0	254803968	71	4208
2026-01-03 01:39:10.00	22.95	16.02	-52.6	-53.9	15.4	0.00e+00	0	31	0	262144000	71	4159
2026-01-03 01:39:13.99	22.74	16.45	-52.8	-54.2	15.2	0.00e+00	0	31	0	269484032	71	4311
2026-01-03 01:39:17.98	22.52	16.89	-52.8	-54.2	15.3	0.00e+00	0	31	0	276824064	71	4300
2026-01-03 01:39:21.97	22.30	17.34	-53.0	-54.3	15.3	0.00e+00	0	31	0	284164096	71	4377
2026-01-03 01:39:25.97	22.06	17.80	-52.7	-54.0	15.3	0.00e+00	0	31	0	292552704	71	4216
2026-01-03 01:39:29.96	21.82	18.26	-52.9	-54.2	15.3	0.00e+00	0	31	0	299892736	71	4335
2026-01-03 01:39:33.95	21.58	18.74	-53.1	-54.5	15.2	0.00e+00	0	31	0	307232768	71	4442
2026-01-03 01:39:37.94	21.32	19.22	-53.2	-54.6	15.2	0.00e+00	0	31	0	314572800	72	4243
2026-01-03 01:39:41.93	21.05	19.71	-52.9	-54.2	15.4	0.00e+00	0	31	0	321912832	72	4086
2026-01-03 01:39:45.92	20.78	20.21	-52.8	-54.0	15.4	0.00e+00	0	31	0	329252864	71	4219
2026-01-03 01:39:49.89	20.50	20.71	-52.6	-53.8	15.4	0.00e+00	0	31	0	336592896	71	4134
2026-01-03 01:39:53.87	20.20	21.23	-53.0	-54.3	15.2	0.00e+00	0	31	0	343932928	71	4377
2026-01-03 01:39:57.85	19.90	21.76	-53.4	-54.9	15.1	0.00e+00	0	31	0	352321536	72	4422
2026-01-03 01:40:01.85	19.58	22.30	-53.5	-55.1	15.0	0.00e+00	0	31	0	359661568	72	4497
2026-01-03 01:40:05.84	19.26	22.84	-53.4	-54.9	15.1	0.00e+00	0	31	0	367001600	72	4434
2026-01-03 01:40:09.81	18.92	23.40	-53.7	-55.3	14.9	0.00e+00	0	31	0	374341632	72	4601
2026-01-03 01:40:13.80	18.56	23.97	-53.9	-55.5	14.9	0.00e+00	0	31	0	381681664	73	4457
2026-01-03 01:40:17.79	18.20	24.56	-54.2	-55.9	14.8	0.00e+00	0	31	0	389021696	73	4698
2026-01-03 01:40:21.78	17.82	25.15	-54.4	-56.2	14.7	0.00e+00	0	31	0	396361728	74	4578
2026-01-03 01:40:25.76	17.42	25.75	-54.5	-56.3	14.7	0.00e+00	0	31	0	403701760	74	4624
2026-01-03 01:40:29.75	17.01	26.37	-54.4	-56.1	14.8	0.00e+00	0	31	0	412090368	74	4496
2026-01-03 01:40:33.73	16.58	27.00	-54.4	-56.1	14.8	0.00e+00	0	31	0	419430400	74	4514
2026-01-03 01:40:37.72	16.13	27.65	-55.0	-57.0	14.4	0.00e+00	0	31	0	426770432	75	4714
2026-01-03 01:40:41.71	15.66	28.31	-55.0	-57.0	14.4	0.00e+00	0	31	0	434110464	75	4720
2026-01-03 01:40:45.69	15.18	28.98	-55.5	-57.6	14.3	0.00e+00	0	31	0	441450496	76	4793
2026-01-03 01:40:49.67	14.67	29.66	-55.7	-57.9	14.1	0.00e+00	0	31	0	448790528	76	4927
2026-01-03 01:40:53.65	14.14	30.36	-55.5	-57.5	14.3	0.00e+00	0	31	0	456130560	76	4759
2026-01-03 01:40:57.64	13.58	31.07	-56.0	-58.2	14.0	0.00e+00	0	31	0	464519168	77	4863
2026-01-03 01:41:01.60	13.00	31.79	-55.6	-57.7	14.3	0.00e+00	0	31	0	471859200	77	4571
2026-01-03 01:41:05.60	12.39	32.54	-54.8	-56.6	14.7	0.00e+00	0	31	0	479199232	76	4289
2026-01-03 01:41:09.58	11.75	33.30	-55.6	-57.7	14.3	0.00e+00	0	31	0	486539264	77	4562
2026-01-03 01:41:13.58	11.08	34.07	-55.6	-57.7	14.3	0.00e+00	0	31	0	493879296	77	4588
2026-01-03 01:41:17.56	10.37	34.86	-55.5	-57.7	14.3	0.00e+00	0	31	0	501219328	77	4591
2026-01-03 01:41:21.53	9.64	35.65	-56.3	-59.3	13.4	0.00e+00	0	31	0	508559360	78	5169
2026-01-03 01:41:25.53	8.86	36.47	-56.5	-59.8	13.1	0.00e+00	0	31	0	515899392	78	5509
2026-01-03 01:41:29.49	8.04	37.30	-57.7	-62.5	11.4	4.80e-05	0	31	0	523239424	80	6672
2026-01-03 01:41:33.49	7.18	38.15	-56.2	-59.0	13.6	0.00e+00	0	31	0	531628032	79	4725
2026-01-03 01:41:37.48	6.26	39.01	-55.1	-57.1	14.5	0.00e+00	0	31	0	538968064	76	4536
2026-01-03 01:41:41.46	5.30	39.88	-56.0	-58.6	13.8	0.00e+00	0	31	0	546308096	77	5052
2026-01-03 01:41:45.44	4.29	40.76	-56.0	-58.6	13.8	0.00e+00	0	31	0	553648128	77	5073
2026-01-03 01:41:49.41	3.22	41.65	-56.8	-60.1	13.0	0.00e+00	0	31	0	560988160	79	5352
2026-01-03 01:41:53.41	2.08	42.56	-56.6	-59.2	13.7	0.00e+00	0	31	0	568328192	79	4816
2026-01-03 01:41:57.40	0.88	43.47	-56.6	-59.3	13.6	0.00e+00	0	31	0	575668224	79	4919
2026-01-03 01:42:01.38	359.61	44.39	-56.4	-59.2	13.5	0.00e+00	0	31	0	583008256	78	5118
2026-01-03 01:42:05.35	358.26	45.31	-55.5	-57.6	14.5	0.00e+00	0	31	0	591396864	77	4530
2026-01-03 01:42:09.34	356.83	46.24	-54.9	-56.8	14.8	0.00e+00	0	31	0	598736896	76	4346
2026-01-03 01:42:13.33	355.30	47.17	-55.5	-57.9	14.2	0.00e+00	0	31	0	606076928	76	4945
2026-01-03 01:42:17.32	353.69	48.10	-54.7	-56.7	14.7	0.00e+00	0	31	0	613416960	75	4562
2026-01-03 01:42:21.30	351.97	49.01	-55.6	-58.1	13.9	0.00e+00	0	31	0	620756992	76	5092
2026-01-03 01:42:25.28	350.16	49.92	-54.9	-57.1	14.5	0.00e+00	0	31	0	628097024	76	4529
2026-01-03 01:42:29.27	348.22	50.81	-54.1	-55.9	15.0	0.00e+00	0	31	0	635437056	74	4432
2026-01-03 01:42:33.27	346.16	51.69	-53.1	-54.6	15.3	0.00e+00	0	31	0	642777088	72	4273
2026-01-03 01:42:37.24	344.00	52.53	-53.8	-55.8	14.9	0.00e+00	0	31	0	651165696	73	4600
2026-01-03 01:42:41.23	341.70	53.35	-53.9	-55.6	15.0	0.00e+00	0	31	0	658505728	73	4535
2026-01-03 01:42:45.23	339.26	54.13	-55.2	-57.4	14.4	0.00e+00	0	31	0	665845760	75	4948
2026-01-03 01:42:49.22	336.69	54.86	-54.2	-55.9	15.0	0.00e+00	0	31	0	673185792	75	4190
2026-01-03 01:42:53.19	334.01	55.54	-54.6	-56.6	14.7	0.00e+00	0	31	0	680525824	74	4769
2026-01-03 01:42:57.18	331.18	56.17	-54.3	-56.2	14.8	0.00e+00	0	31	0	687865856	73	4849
2026-01-03 01:43:01.13	328.26	56.73	-55.0	-57.2	14.5	0.00e+00	0	31	0	695205888	76	4592
2026-01-03 01:43:05.11	325.20	57.22	-53.6	-55.5	15.0	0.00e+00	0	31	0	702545920	72	4719
2026-01-03 01:43:09.13	322.01	57.63	-52.8	-54.3	15.5	0.00e+00	0	31	0	710934528	72	4103
2026-01-03 01:43:13.13	318.74	57.97	-53.3	-55.1	15.0	0.00e+00	0	31	0	718274560	71	4809
2026-01-03 01:43:17.13	315.40	58.21	-52.9	-54.6	15.3	0.00e+00	0	31	0	725614592	72	4252
2026-01-03 01:43:21.16	311.99	58.36	-52.3	-53.6	15.6	0.00e+00	0	31	0	732954624	70	4287
2026-01-03 01:43:25.17	308.56	58.41	-51.4	-52.6	15.8	0.00e+00	0	31	0	740294656	68	4272
2026-01-03 01:43:29.17	305.15	58.37	-51.0	-52.1	15.9	0.00e+00	0	31	0	747634688	68	4028
2026-01-03 01:43:33.18	301.74	58.24	-51.7	-53.0	15.7	0.00e+00	0	31	0	756023296	69	4205
2026-01-03 01:43:37.19	298.39	58.01	-51.2	-52.3	15.9	0.00e+00	0	31	0	763363328	68	4128
2026-01-03 01:43:41.20	295.10	57.69	-51.2	-52.4	15.9	0.00e+00	0	31	0	770703360	68	4158
2026-01-03 01:43:45.22	291.89	57.28	-52.3	-53.6	15.6	0.00e+00	0	31	0	778043392	69	4506
2026-01-03 01:43:49.23	288.79	56.80	-52.2	-53.4	15.7	0.00e+00	0	31	0	785383424	70	4182
2026-01-03 01:43:53.24	285.81	56.24	-53.5	-55.0	15.3	0.00e+00	0	31	0	793772032	72	4465
2026-01-03 01:43:57.25	282.95	55.62	-54.9	-56.8	14.8	0.00e+00	0	31	0	801112064	75	4647
2026-01-03 01:44:01.26	280.22	54.94	-53.1	-54.4	15.5	0.00e+00	0	31	0	808452096	72	4172
2026-01-03 01:44:05.26	277.63	54.21	-51.9	-53.1	15.8	0.00e+00	0	31	0	815792128	70	4011
2026-01-03 01:44:09.27	275.17	53.43	-53.4	-54.9	15.3	0.00e+00	0	31	0	823132160	72	4430
2026-01-03 01:44:13.28	272.84	52.61	-53.3	-54.7	15.4	0.00e+00	0	31	0	830472192	72	4329
2026-01-03 01:44:17.29	270.63	51.76	-53.6	-55.2	15.1	0.00e+00	0	31	0	838860800	72	4579
2026-01-03 01:44:21.31	268.55	50.88	-54.5	-56.4	14.9	0.00e+00	0	31	0	846200832	74	4672
2026-01-03 01:44:25.32	266.60	49.98	-54.4	-56.2	14.8	0.00e+00	0	31	0	853540864	74	4587
2026-01-03 01:44:29.33	264.75	49.07	-55.0	-57.1	14.5	0.00e+00	0	31	0	860880896	75	4785
2026-01-03 01:44:33.34	263.02	48.14	-55.5	-57.6	14.4	0.00e+00	0	31	0	868220928	76	4803
2026-01-03 01:44:37.35	261.38	47.21	-55.8	-57.9	14.4	0.00e+00	0	31	0	875560960	77	4665
2026-01-03 01:44:41.36	259.85	46.28	-56.9	-59.9	13.4	0.00e+00	0	31	0	883949568	79	5265
2026-01-03 01:44:45.37	258.40	45.34	-56.2	-58.5	14.1	0.00e+00	0	31	0	891289600	78	4734
2026-01-03 01:44:49.39	257.03	44.40	-55.5	-57.4	14.6	0.00e+00	0	31	0	898629632	77	4398
2026-01-03 01:44:53.40	255.74	43.48	-54.3	-55.9	15.1	0.00e+00	0	31	0	905969664	74	4397
2026-01-03 01:44:57.41	254.53	42.55	-56.3	-58.8	13.8	0.00e+00	0	31	0	913309696	77	5206
2026-01-03 01:45:01.43	253.38	41.64	-56.6	-59.4	13.6	0.00e+00	0	31	0	920649728	79	4931
2026-01-03 01:45:05.42	252.30	40.74	-55.7	-57.8	14.3	0.00e+00	0	31	0	929038336	77	4651
2026-01-03 01:45:09.45	251.28	39.85	-56.2	-58.8	13.8	0.00e+00	0	31	0	936378368	78	4881
2026-01-03 01:45:13.46	250.31	38.97	-57.2	-60.8	12.6	0.00e+00	0	31	0	943718400	79	5841
2026-01-03 01:45:17.47	249.39	38.10	-56.1	-58.5	14.0	0.00e+00	0	31	0	951058432	78	4731
2026-01-03 01:45:21.48	248.52	37.25	-56.0	-58.4	14.1	0.00e+00	0	31	0	958398464	77	4929
2026-01-03 01:45:25.50	247.69	36.41	-56.3	-58.8	13.8	0.00e+00	0	31	0	965738496	78	4875
2026-01-03 01:45:29.51	246.91	35.59	-55.3	-57.2	14.7	0.00e+00	0	31	0	974127104	76	4549
2026-01-03 01:45:33.52	246.16	34.78	-56.5	-59.2	13.7	0.00e+00	0	31	0	981467136	79	4839
2026-01-03 01:45:37.54	245.45	33.98	-56.0	-58.5	13.9	0.00e+00	0	31	0	988807168	77	5040
2026-01-03 01:45:41.55	244.78	33.20	-55.3	-57.5	14.5	0.00e+00	0	31	0	996147200	76	4730
2026-01-03 01:45:45.57	244.13	32.44	-56.0	-58.3	14.2	0.00e+00	0	31	0	1003487232	78	4634
2026-01-03 01:45:49.58	243.52	31.69	-54.8	-56.6	14.9	0.00e+00	0	31	0	1010827264	75	4496
2026-01-03 01:45:53.61	242.93	30.96	-56.1	-58.4	14.1	0.00e+00	0	31	0	1019215872	77	4931
2026-01-03 01:45:57.60	242.38	30.24	-55.0	-56.8	14.7	0.00e+00	0	31	0	1026555904	75	4648
2026-01-03 01:46:01.61	241.84	29.54	-55.0	-56.8	14.8	0.00e+00	0	31	0	1033895936	76	4362
2026-01-03 01:46:05.61	241.33	28.85	-54.3	-55.9	15.1	0.00e+00	0	31	0	1041235968	74	4437
2026-01-03 01:46:09.61	240.84	28.18	-55.6	-57.7	14.4	0.00e+00	0	31	0	1048576000	76	4842
2026-01-03 01:46:13.61	240.38	27.52	-55.5	-57.6	14.4	0.00e+00	0	31	0	1055916032	76	4769
2026-01-03 01:46:17.60	239.93	26.87	-55.5	-57.4	14.5	0.00e+00	0	31	0	1064304640	76	4700
2026-01-03 01:46:21.58	239.50	26.24	-54.7	-56.1	15.1	0.00e+00	0	31	0	1071644672	75	4264
2026-01-03 01:46:25.56	239.09	25.62	-55.5	-57.2	14.7	0.00e+00	0	31	0	1078984704	76	4562
2026-01-03 01:46:29.54	238.69	25.02	-56.0	-57.8	14.4	0.00e+00	0	31	0	1086324736	77	4639
2026-01-03 01:46:33.52	238.31	24.43	-55.9	-57.8	14.5	0.00e+00	0	31	0	1093664768	77	4608
2026-01-03 01:46:37.50	237.95	23.85	-56.1	-58.0	14.3	0.00e+00	0	31	0	1101004800	77	4707
2026-01-03 01:46:41.50	237.59	23.27	-55.5	-57.2	14.7	0.00e+00	0	31	0	1108344832	77	4315
2026-01-03 01:46:45.50	237.25	22.71	-55.2	-56.8	14.8	0.00e+00	0	31	0	1115684864	76	4384
2026-01-03 01:46:49.50	236.92	22.16	-55.1	-56.6	14.9	0.00e+00	0	31	0	1124073472	76	4288
2026-01-03 01:46:53.50	236.60	21.62	-54.4	-55.8	15.2	0.00e+00	0	31	0	1131413504	75	4104
2026-01-03 01:46:57.49	236.30	21.09	-54.1	-55.5	15.2	0.00e+00	0	31	0	1138753536	74	4215
2026-01-03 01:47:01.48	236.00	20.58	-54.7	-56.2	14.9	0.00e+00	0	31	0	1146093568	74	4587
2026-01-03 01:47:05.48	235.72	20.07	-55.9	-57.8	14.3	0.00e+00	0	31	0	1153433600	76	4902
2026-01-03 01:47:09.48	235.44	19.57	-56.3	-58.4	14.1	0.00e+00	0	31	0	1160773632	78	4693
2026-01-03 01:47:13.50	235.18	19.07	-55.8	-57.7	14.5	0.00e+00	0	31	0	1169162240	78	4309
2026-01-03 01:47:17.50	234.92	18.59	-55.1	-56.7	14.9	0.00e+00	0	31	0	1176502272	76	4298
2026-01-03 01:47:21.50	234.67	18.12	-54.3	-55.7	15.2	0.00e+00	0	31	0	1183842304	75	4077
2026-01-03 01:47:25.50	234.43	17.65	-54.3	-55.7	15.1	0.00e+00	0	31	0	1191182336	74	4314
2026-01-03 01:47:29.52	234.19	17.19	-54.6	-56.1	15.0	0.00e+00	0	31	0	1198522368	74	4542
2026-01-03 01:47:33.52	233.97	16.74	-54.9	-56.5	14.8	0.00e+00	0	31	0	1205862400	75	4468
2026-01-03 01:47:37.53	233.75	16.30	-55.3	-57.0	14.6	0.00e+00	0	31	0	1213202432	75	4720
2026-01-03 01:47:41.53	233.53	15.87	-55.4	-57.1	14.6	0.00e+00	0	31	0	1221591040	76	4526
2026-01-03 01:47:45.53	233.33	15.44	-55.0	-56.6	14.9	0.00e+00	0	31	0	1228931072	76	4249
2026-01-03 01:47:49.53	233.13	15.02	-55.3	-57.0	14.7	0.00e+00	0	31	0	1236271104	76	4448
2026-01-03 01:47:53.53	232.93	14.61	-55.5	-57.3	14.5	0.00e+00	0	31	0	1243611136	76	4637
2026-01-03 01:47:57.51	232.75	14.20	-56.1	-58.1	14.1	0.00e+00	0	31	0	1250951168	77	4786
2026-01-03 01:48:01.51	232.56	13.80	-56.6	-58.9	13.7	0.00e+00	0	31	0	1258291200	78	4950
2026-01-03 01:48:05.52	232.38	13.41	-56.2	-58.3	14.1	0.00e+00	0	31	0	1266679808	78	4610
2026-01-03 01:48:09.53	232.21	13.02	-55.8	-57.7	14.3	0.00e+00	0	31	0	1274019840	78	4334
2026-01-03 01:48:13.53	232.04	12.64	-55.2	-56.8	14.7	0.00e+00	0	31	0	1281359872	76	4380
2026-01-03 01:48:17.51	231.88	12.26	-54.8	-56.4	14.9	0.00e+00	0	31	0	1288699904	76	4164
2026-01-03 01:48:21.50	231.72	11.89	-54.7	-56.2	14.9	0.00e+00	0	31	0	1296039936	75	4319
2026-01-03 01:48:25.50	231.56	11.53	-54.7	-56.2	14.8	0.00e+00	0	31	0	1303379968	75	4339
2026-01-03 01:48:29.51	231.41	11.16	-55.1	-56.8	14.6	0.00e+00	0	31	0	1310720000	75	4646
2026-01-03 01:48:33.51	231.27	10.81	-55.2	-57.0	14.5	0.00e+00	0	31	0	1319108608	75	4709
2026-01-03 01:48:37.51	231.12	10.46	-55.6	-57.5	14.3	0.00e+00	0	31	0	1326448640	76	4718
2026-01-03 01:48:41.50	230.98	10.11	-55.7	-57.6	14.2	0.00e+00	0	31	0	1333788672	76	4812
2026-01-03 01:48:45.49	230.85	9.77	-55.6	-57.6	14.2	0.00e+00	0	31	0	1341128704	76	4788
2026-01-03 01:48:49.48	230.72	9.44	-55.8	-57.8	14.1	0.00e+00	0	31	0	1348468736	76	4892
2026-01-03 01:48:53.48	230.59	9.10	-55.7	-57.8	14.2	0.00e+00	0	31	0	1355808768	77	4606
2026-01-03 01:48:57.48	230.46	8.77	-56.1	-58.3	13.9	0.00e+00	0	31	0	1363148800	77	4887
2026-01-03 01:49:01.48	230.34	8.45	-56.3	-58.6	13.7	0.00e+00	0	31	0	1371537408	77	5063
2026-01-03 01:49:05.47	230.22	8.13	-56.3	-58.7	13.6	0.00e+00	0	31	0	1378877440	78	4815
2026-01-03 01:49:09.45	230.10	7.82	-56.5	-59.1	13.3	0.00e+00	0	31	0	1386217472	78	5080
2026-01-03 01:49:13.44	229.99	7.50	-56.8	-59.6	13.1	0.00e+00	0	31	0	1393557504	79	5044
2026-01-03 01:49:17.45	229.88	7.19	-57.2	-60.3	12.5	7.00e-07	0	31	0	1400897536	79	5515
2026-01-03 01:49:21.44	229.77	6.89	-57.0	-60.0	12.8	0.00e+00	0	31	0	1408237568	79	5289
2026-01-03 01:49:25.44	229.66	6.59	-57.2	-60.3	12.5	7.00e-07	0	31	0	1416626176	79	5513
2026-01-03 01:49:29.43	229.56	6.29	-56.9	-59.8	12.8	7.00e-07	0	31	0	1423966208	79	5207
2026-01-03 01:49:33.43	229.45	6.00	-57.1	-60.2	12.5	7.00e-07	0	31	0	1431306240	79	5448
2026-01-03 01:49:37.44	229.35	5.70	-57.2	-60.5	12.3	2.20e-06	0	31	0	1438646272	79	5603
2026-01-03 01:49:41.43	229.26	5.41	-57.3	-60.5	12.4	7.00e-07	0	31	0	1445986304	79	5648
2026-01-03 01:49:45.43	229.16	5.13	-57.2	-60.6	12.2	3.00e-06	0	31	0	1453326336	79	5704
2026-01-03 01:49:49.42	229.07	4.85	-61.1	-76.6	3.8	1.49e+00	0	31	104	1457520640	87	22776
2026-01-03 01:49:53.43	228.98	4.57	-61.6	-77.2	3.8	1.49e+00	0	31	104	1457520640	88	22843
2026-01-03 01:49:57.44	228.89	4.29	-61.8	-77.4	3.8	1.49e+00	0	31	104	1457520640	88	23467
2026-01-03 01:50:01.44	228.80	4.01	-61.9	-77.5	3.8	1.49e+00	0	31	104	1457520640	89	22367
2026-01-03 01:50:05.42	228.72	3.74	-62.0	-77.6	3.8	1.49e+00	0	31	104	1457520640	89	22688
2026-01-03 01:50:09.43	228.63	3.47	-62.1	-77.7	3.8	1.49e+00	0	31	104	1457520640	89	22853
2026-01-03 01:50:13.44	228.55	3.21	-62.0	-77.6	3.8	1.49e+00	0	31	104	1457520640	89	22676
2026-01-03 01:50:17.46	228.47	2.94	-62.0	-77.6	3.8	1.49e+00	0	31	104	1457520640	89	22595
2026-01-03 01:50:21.48	228.39	2.68	-61.9	-77.5	3.8	1.49e+00	0	31	104	1457520640	89	22492
2026-01-03 01:50:25.49	228.31	2.42	-61.9	-77.5	3.8	1.49e+00	0	31	104	1457520640	89	22414
2026-01-03 01:50:29.51	228.24	2.16	-61.9	-77.5	3.8	1.49e+00	0	31	104	1457520640	89	22442
2026-01-03 01:50:33.53	228.16	1.90	-61.9	-77.5	3.8	1.49e+00	0	31	104	1457520640	89	22415

#Closed at: 2026-01-03 01:50:34
#Recorded file [1457 MB]: D:/lorett/data/31004_260103_043618.dat