passes_logs/2026/01/03/R3.2S_Murmansk/R3.2S_Murmansk__20260103_200848_TY-39_rec.log

#Pass ID: 20260103_200848_TY-39
#Satellite: TY-39
#Configuration: TY-39
#almurnet v.1.7.20251203
#Start time: 2026-01-03 20:08:48

#Version: 2.2.20231116
#Station: R3.2S_Murmansk
#Location: 33.079688 lon 68.888172 lat
#TLE: 1 51832U 22019J   26003.30338723  .00004627  00000-0  22037-3 0  9999
#TLE: 2 51832  97.3673  70.2783 0010397  87.0815 273.1609 15.19575985212752

#Time	Az	El	Level	Level2	SNR	BER	BlckErr	Temp	State	Recorded	gain1	gain2
2026-01-03 20:08:48.33	212.36	2.00	-58.7	-61.9	3.7	0.00e+00	0	31	0	0	84	20547
2026-01-03 20:08:51.30	212.65	2.18	-58.7	-61.9	3.6	0.00e+00	0	31	104	0	84	20621
2026-01-03 20:08:54.29	212.95	2.36	-58.7	-61.9	3.7	0.00e+00	0	31	104	0	84	20597
2026-01-03 20:08:57.28	213.25	2.54	-58.7	-61.9	3.7	0.00e+00	0	31	104	0	84	20621
2026-01-03 20:09:00.29	213.55	2.72	-58.7	-62.0	3.7	0.00e+00	0	32	104	0	84	20660
2026-01-03 20:09:03.27	213.86	2.90	-58.7	-61.9	3.7	0.00e+00	0	32	104	0	84	20624
2026-01-03 20:09:06.24	214.17	3.09	-58.7	-61.9	3.6	0.00e+00	0	32	104	0	84	20608
2026-01-03 20:09:09.24	214.49	3.27	-58.7	-61.9	3.7	0.00e+00	0	32	104	0	84	20559
2026-01-03 20:09:12.22	214.81	3.46	-58.7	-62.0	3.7	0.00e+00	0	32	104	0	84	20635
2026-01-03 20:09:15.21	215.14	3.65	-58.7	-62.0	3.7	0.00e+00	0	32	104	0	84	20669
2026-01-03 20:09:18.19	215.47	3.84	-58.7	-61.9	3.6	0.00e+00	0	32	104	0	84	20612
2026-01-03 20:09:21.17	215.81	4.02	-58.7	-62.0	3.7	0.00e+00	0	32	104	0	84	20634
2026-01-03 20:09:24.16	216.15	4.22	-58.7	-62.0	3.6	0.00e+00	0	32	104	0	84	20637
2026-01-03 20:09:27.15	216.50	4.41	-58.7	-62.0	3.7	0.00e+00	0	32	104	0	84	20646
2026-01-03 20:09:30.14	216.86	4.60	-58.7	-61.9	3.6	0.00e+00	0	33	104	0	84	20524
2026-01-03 20:09:33.14	217.22	4.79	-58.7	-61.9	3.6	0.00e+00	0	33	104	0	84	20600
2026-01-03 20:09:36.14	217.59	4.99	-58.7	-62.0	3.6	0.00e+00	0	33	104	0	84	20674
2026-01-03 20:09:39.14	217.96	5.19	-58.7	-61.9	3.6	0.00e+00	0	33	104	0	84	20485
2026-01-03 20:09:42.13	218.34	5.39	-58.7	-61.9	3.7	0.00e+00	0	33	104	0	84	20559
2026-01-03 20:09:45.11	218.73	5.58	-58.8	-62.0	3.7	0.00e+00	0	33	104	0	84	20800
2026-01-03 20:09:48.11	219.12	5.78	-58.9	-62.1	3.7	0.00e+00	0	33	104	0	84	21014
2026-01-03 20:09:51.10	219.52	5.98	-58.7	-61.9	3.7	0.00e+00	0	33	104	0	84	20580
2026-01-03 20:09:54.10	219.93	6.19	-58.8	-62.0	3.7	0.00e+00	0	33	104	0	84	20771
2026-01-03 20:09:57.09	220.34	6.39	-58.9	-62.1	3.7	0.00e+00	0	33	104	0	84	21056
2026-01-03 20:10:00.08	220.76	6.59	-58.9	-62.2	3.6	0.00e+00	0	33	104	0	84	21208
2026-01-03 20:10:03.08	221.19	6.80	-49.9	-50.4	8.7	1.33e-02	0	34	0	92274688	66	15414
2026-01-03 20:10:06.06	221.62	7.00	-46.4	-46.7	11.0	8.32e-05	0	34	0	318767104	59	15063
2026-01-03 20:10:09.05	222.06	7.21	-44.9	-45.3	11.8	0.00e+00	0	34	0	545259520	57	14306
2026-01-03 20:10:12.04	222.51	7.42	-44.7	-45.0	11.8	0.00e+00	0	34	0	771751936	56	14686
2026-01-03 20:10:15.02	222.97	7.63	-44.8	-45.1	11.8	0.00e+00	0	34	0	989855744	56	14870
2026-01-03 20:10:18.01	223.43	7.84	-44.5	-44.8	11.9	0.00e+00	0	34	0	1216348160	56	14416
2026-01-03 20:10:20.99	223.90	8.05	-44.6	-44.9	12.0	0.00e+00	0	34	0	1442840576	56	14466
2026-01-03 20:10:23.98	224.39	8.26	-44.6	-44.9	12.0	0.00e+00	0	35	0	1660944384	56	14478
2026-01-03 20:10:26.96	224.88	8.47	-44.5	-44.8	12.0	0.00e+00	0	35	0	1887436800	56	14320
2026-01-03 20:10:29.94	225.37	8.68	-44.5	-44.8	12.0	0.00e+00	0	35	0	2113929216	56	14293
2026-01-03 20:10:32.93	225.88	8.90	-44.2	-44.5	12.1	0.00e+00	0	35	0	2332033024	55	14747
2026-01-03 20:10:35.92	226.40	9.11	-44.3	-44.6	12.1	0.00e+00	0	35	0	2558525440	55	14818
2026-01-03 20:10:38.91	226.92	9.33	-44.1	-44.5	12.2	0.00e+00	0	35	0	2785017856	55	14610
2026-01-03 20:10:41.91	227.46	9.55	-44.1	-44.4	12.2	0.00e+00	0	35	0	3003121664	55	14521
2026-01-03 20:10:44.90	228.01	9.77	-43.9	-44.2	12.3	0.00e+00	0	35	0	3229614080	55	14225
2026-01-03 20:10:47.88	228.56	9.98	-43.9	-44.2	12.3	0.00e+00	0	35	0	3456106496	55	14181
2026-01-03 20:10:50.88	229.13	10.20	-43.8	-44.1	12.3	0.00e+00	0	35	0	3682598912	54	14910
2026-01-03 20:10:53.88	229.70	10.42	-43.7	-44.0	12.3	0.00e+00	0	35	0	3909091328	54	14710
2026-01-03 20:10:56.88	230.29	10.64	-43.7	-44.0	12.3	0.00e+00	0	35	0	4127195136	54	14697
2026-01-03 20:10:59.87	230.89	10.86	-43.6	-43.9	12.4	0.00e+00	0	35	0	4353687552	54	14490
2026-01-03 20:11:02.86	231.49	11.08	-43.6	-43.9	12.4	0.00e+00	0	35	0	4580179968	54	14576
2026-01-03 20:11:05.86	232.11	11.30	-43.5	-43.7	12.5	0.00e+00	0	35	0	4806672384	54	14266
2026-01-03 20:11:08.86	232.74	11.52	-43.5	-43.8	12.5	0.00e+00	0	35	0	5024776192	54	14293
2026-01-03 20:11:11.86	233.39	11.74	-43.3	-43.6	12.5	0.00e+00	0	35	0	5251268608	53	14897
2026-01-03 20:11:14.85	234.04	11.96	-43.2	-43.5	12.5	0.00e+00	0	35	0	5477761024	53	14698
2026-01-03 20:11:17.83	234.70	12.18	-43.2	-43.4	12.5	0.00e+00	0	35	0	5704253440	53	14574
2026-01-03 20:11:20.82	235.37	12.40	-43.1	-43.4	12.6	0.00e+00	0	36	0	5922357248	53	14450
2026-01-03 20:11:23.81	236.06	12.61	-43.0	-43.3	12.6	0.00e+00	0	36	0	6148849664	53	14360
2026-01-03 20:11:26.79	236.76	12.83	-42.9	-43.2	12.6	0.00e+00	0	36	0	6375342080	53	14168
2026-01-03 20:11:29.77	237.46	13.04	-42.9	-43.1	12.6	0.00e+00	0	36	0	6593445888	52	14926
2026-01-03 20:11:32.76	238.19	13.26	-42.9	-43.2	12.6	0.00e+00	0	36	0	6819938304	52	14961
2026-01-03 20:11:35.75	238.92	13.47	-42.7	-43.0	12.7	0.00e+00	0	36	0	7046430720	52	14728
2026-01-03 20:11:38.74	239.67	13.69	-42.7	-43.0	12.7	0.00e+00	0	36	0	7272923136	52	14679
2026-01-03 20:11:41.75	240.44	13.90	-42.7	-43.0	12.7	0.00e+00	0	36	0	7491026944	52	14705
2026-01-03 20:11:44.74	241.21	14.11	-42.7	-43.0	12.7	0.00e+00	0	36	0	7717519360	52	14674
2026-01-03 20:11:47.73	241.99	14.31	-42.7	-43.0	12.7	0.00e+00	0	36	0	7944011776	52	14670
2026-01-03 20:11:50.74	242.80	14.52	-42.5	-42.8	12.8	0.00e+00	0	36	0	8170504192	52	14329
2026-01-03 20:11:53.73	243.61	14.72	-42.4	-42.7	12.9	0.00e+00	0	36	0	8396996608	52	14194
2026-01-03 20:11:56.72	244.43	14.92	-42.4	-42.6	12.9	0.00e+00	0	36	0	8615100416	52	14110
2026-01-03 20:11:59.70	245.27	15.12	-42.4	-42.7	12.8	0.00e+00	0	36	0	8841592832	51	15016
2026-01-03 20:12:02.71	246.12	15.31	-42.3	-42.6	12.8	0.00e+00	0	36	0	9068085248	51	14897
2026-01-03 20:12:05.70	246.99	15.50	-42.2	-42.5	12.9	0.00e+00	0	36	0	9294577664	51	14705
2026-01-03 20:12:08.71	247.87	15.69	-42.3	-42.6	12.8	0.00e+00	0	36	0	9512681472	51	14812
2026-01-03 20:12:11.70	248.76	15.88	-42.2	-42.4	12.9	0.00e+00	0	36	0	9739173888	51	14569
2026-01-03 20:12:14.69	249.66	16.05	-42.2	-42.4	12.9	0.00e+00	0	36	0	9965666304	51	14567
2026-01-03 20:12:17.67	250.57	16.23	-42.0	-42.3	13.0	0.00e+00	0	36	0	10183770112	51	14381
2026-01-03 20:12:20.64	251.48	16.40	-42.0	-42.3	13.0	0.00e+00	0	36	0	10410262528	51	14374
2026-01-03 20:12:23.62	252.42	16.56	-42.1	-42.4	13.0	0.00e+00	0	36	0	10636754944	51	14484
2026-01-03 20:12:26.59	253.36	16.72	-42.0	-42.2	13.0	0.00e+00	0	36	0	10854858752	51	14256
2026-01-03 20:12:29.57	254.32	16.87	-41.9	-42.2	13.0	0.00e+00	0	36	0	11081351168	51	14170
2026-01-03 20:12:32.55	255.28	17.02	-41.8	-42.0	13.0	0.00e+00	0	36	0	11307843584	50	14775
2026-01-03 20:12:35.53	256.26	17.16	-41.9	-42.1	13.0	0.00e+00	0	36	0	11525947392	50	14933
2026-01-03 20:12:38.52	257.25	17.30	-41.8	-42.1	13.0	0.00e+00	0	36	0	11752439808	50	14781
2026-01-03 20:12:41.52	258.26	17.43	-41.8	-42.1	13.0	0.00e+00	0	36	0	11978932224	50	14808
2026-01-03 20:12:44.52	259.27	17.56	-41.7	-42.0	13.0	0.00e+00	0	36	0	12205424640	50	14669
2026-01-03 20:12:47.52	260.29	17.67	-41.6	-41.9	13.1	0.00e+00	0	36	0	12431917056	50	14536
2026-01-03 20:12:50.51	261.32	17.78	-41.6	-41.9	13.1	0.00e+00	0	36	0	12650020864	50	14449
2026-01-03 20:12:53.50	262.36	17.88	-41.6	-41.9	13.1	0.00e+00	0	36	0	12876513280	50	14457
2026-01-03 20:12:56.50	263.41	17.98	-41.5	-41.8	13.1	0.00e+00	0	36	0	13103005696	50	14343
2026-01-03 20:12:59.50	264.46	18.06	-41.6	-41.8	13.1	0.00e+00	0	36	0	13329498112	50	14440
2026-01-03 20:13:02.49	265.52	18.14	-41.5	-41.8	13.1	0.00e+00	0	36	0	13547601920	50	14339
2026-01-03 20:13:05.48	266.59	18.21	-41.6	-41.9	13.1	0.00e+00	0	36	0	13774094336	50	14501
2026-01-03 20:13:08.48	267.66	18.27	-41.6	-41.9	13.1	0.00e+00	0	36	0	14000586752	50	14479
2026-01-03 20:13:11.49	268.74	18.32	-41.5	-41.8	13.2	0.00e+00	0	36	0	14227079168	50	14368
2026-01-03 20:13:14.49	269.82	18.37	-41.5	-41.8	13.1	0.00e+00	0	36	0	14453571584	50	14359
2026-01-03 20:13:17.49	270.90	18.40	-41.6	-41.8	13.1	0.00e+00	0	36	0	14680064000	50	14391
2026-01-03 20:13:20.46	271.98	18.43	-41.5	-41.8	13.1	0.00e+00	0	36	0	14898167808	50	14333
2026-01-03 20:13:23.45	273.06	18.44	-41.6	-41.8	13.1	0.00e+00	0	36	0	15124660224	50	14415
2026-01-03 20:13:26.44	274.15	18.45	-41.5	-41.8	13.1	0.00e+00	0	36	0	15351152640	50	14375
2026-01-03 20:13:29.42	275.23	18.45	-41.6	-41.8	13.1	0.00e+00	0	36	0	15569256448	50	14397
2026-01-03 20:13:32.41	276.32	18.44	-41.7	-42.0	13.1	0.00e+00	0	36	0	15795748864	50	14611
2026-01-03 20:13:35.42	277.41	18.42	-41.7	-41.9	13.1	0.00e+00	0	36	0	16022241280	50	14556
2026-01-03 20:13:38.40	278.49	18.40	-41.7	-41.9	13.1	0.00e+00	0	36	0	16240345088	50	14568
2026-01-03 20:13:41.37	279.56	18.36	-41.7	-42.0	13.1	0.00e+00	0	36	0	16466837504	50	14683
2026-01-03 20:13:44.37	280.64	18.31	-41.7	-41.9	13.1	0.00e+00	0	36	0	16693329920	50	14565
2026-01-03 20:13:47.36	281.71	18.26	-41.8	-42.0	13.1	0.00e+00	0	36	0	16911433728	50	14752
2026-01-03 20:13:50.36	282.78	18.20	-41.7	-42.0	13.1	0.00e+00	0	37	0	17137926144	50	14703
2026-01-03 20:13:53.34	283.84	18.13	-41.8	-42.0	13.1	0.00e+00	0	37	0	17364418560	50	14764
2026-01-03 20:13:56.34	284.90	18.05	-41.9	-42.1	13.1	0.00e+00	0	36	0	17590910976	50	14921
2026-01-03 20:13:59.33	285.94	17.96	-41.9	-42.1	13.0	0.00e+00	0	36	0	17817403392	50	14942
2026-01-03 20:14:02.31	286.98	17.86	-41.9	-42.2	13.0	0.00e+00	0	37	0	18035507200	50	14991
2026-01-03 20:14:05.31	288.02	17.76	-42.0	-42.2	13.0	0.00e+00	0	37	0	18261999616	50	15082
2026-01-03 20:14:08.31	289.05	17.65	-41.9	-42.2	13.0	0.00e+00	0	37	0	18488492032	50	15006
2026-01-03 20:14:11.29	290.06	17.53	-42.1	-42.3	13.0	0.00e+00	0	37	0	18714984448	50	15295
2026-01-03 20:14:14.29	291.07	17.41	-42.1	-42.3	13.0	0.00e+00	0	37	0	18933088256	50	15245
2026-01-03 20:14:17.27	292.06	17.28	-42.1	-42.4	13.0	0.00e+00	0	36	0	19159580672	50	15328
2026-01-03 20:14:20.26	293.05	17.14	-42.1	-42.3	13.0	0.00e+00	0	37	0	19386073088	50	15255
2026-01-03 20:14:23.25	294.03	17.00	-42.3	-42.6	12.9	0.00e+00	0	37	0	19604176896	50	15752
2026-01-03 20:14:26.22	294.99	16.85	-42.2	-42.5	13.0	0.00e+00	0	37	0	19830669312	50	15519
2026-01-03 20:14:29.22	295.95	16.70	-42.2	-42.5	12.9	0.00e+00	0	37	0	20057161728	50	15541
2026-01-03 20:14:32.21	296.89	16.54	-42.3	-42.5	12.9	0.00e+00	0	37	0	20275265536	50	15622
2026-01-03 20:14:35.21	297.82	16.37	-42.3	-42.5	12.9	0.00e+00	0	37	0	20501757952	50	15631
2026-01-03 20:14:38.20	298.74	16.20	-42.3	-42.6	12.9	0.00e+00	0	37	0	20728250368	50	15722
2026-01-03 20:14:41.19	299.65	16.03	-42.4	-42.6	12.9	0.00e+00	0	37	0	20954742784	50	15823
2026-01-03 20:14:44.18	300.54	15.85	-42.3	-42.6	12.9	0.00e+00	0	37	0	21181235200	50	15798
2026-01-03 20:14:47.18	301.43	15.66	-42.5	-42.8	12.9	0.00e+00	0	37	0	21407727616	50	16120
2026-01-03 20:14:50.17	302.30	15.48	-42.5	-42.8	12.8	0.00e+00	0	37	0	21625831424	50	16176
2026-01-03 20:14:53.17	303.16	15.29	-42.6	-42.9	12.9	0.00e+00	0	36	0	21852323840	51	15329
2026-01-03 20:14:56.17	304.01	15.09	-42.7	-43.0	12.8	0.00e+00	0	37	0	22078816256	51	15569
2026-01-03 20:14:59.16	304.84	14.89	-42.8	-43.0	12.8	0.00e+00	0	36	0	22296920064	51	15643
2026-01-03 20:15:02.12	305.65	14.70	-42.8	-43.1	12.8	0.00e+00	0	37	0	22523412480	51	15744
2026-01-03 20:15:05.11	306.45	14.50	-43.0	-43.2	12.8	0.00e+00	0	37	0	22749904896	51	16008
2026-01-03 20:15:08.09	307.25	14.29	-43.0	-43.2	12.8	0.00e+00	0	37	0	22968008704	51	15991
2026-01-03 20:15:11.08	308.03	14.09	-43.0	-43.3	12.7	0.00e+00	0	37	0	23194501120	51	16094
2026-01-03 20:15:14.08	308.80	13.88	-43.2	-43.5	12.7	0.00e+00	0	37	0	23420993536	52	15603
2026-01-03 20:15:17.07	309.55	13.67	-43.1	-43.4	12.7	0.00e+00	0	37	0	23639097344	52	15337
2026-01-03 20:15:20.06	310.29	13.46	-43.1	-43.4	12.7	0.00e+00	0	37	0	23865589760	52	15309
2026-01-03 20:15:23.05	311.02	13.24	-43.4	-43.7	12.6	0.00e+00	0	37	0	24092082176	52	15865
2026-01-03 20:15:26.02	311.74	13.03	-43.2	-43.5	12.7	0.00e+00	0	37	0	24310185984	52	15550
2026-01-03 20:15:29.01	312.44	12.82	-43.2	-43.5	12.7	0.00e+00	0	37	0	24536678400	52	15554
2026-01-03 20:15:31.98	313.13	12.60	-43.3	-43.5	12.6	0.00e+00	0	37	0	24763170816	52	15649
2026-01-03 20:15:34.97	313.81	12.39	-43.3	-43.6	12.6	0.00e+00	0	37	0	24981274624	52	15787
2026-01-03 20:15:37.95	314.48	12.17	-43.4	-43.6	12.6	0.00e+00	0	37	0	25207767040	52	15831
2026-01-03 20:15:40.93	315.14	11.95	-43.5	-43.8	12.5	0.00e+00	0	37	0	25434259456	52	16117
2026-01-03 20:15:43.93	315.79	11.73	-43.6	-43.9	12.5	0.00e+00	0	37	0	25660751872	53	15369
2026-01-03 20:15:46.93	316.43	11.51	-43.5	-43.8	12.6	0.00e+00	0	37	0	25887244288	53	15245
2026-01-03 20:15:49.92	317.05	11.30	-43.6	-43.9	12.6	0.00e+00	0	37	0	26105348096	53	15330
2026-01-03 20:15:52.92	317.67	11.08	-43.7	-44.0	12.5	0.00e+00	0	37	0	26331840512	53	15567
2026-01-03 20:15:55.92	318.27	10.86	-59.5	-62.8	3.7	0.00e+00	0	36	104	26432503808	84	22733
2026-01-03 20:15:58.92	318.87	10.64	-59.5	-62.8	3.7	0.00e+00	0	36	104	26432503808	84	22659
2026-01-03 20:16:01.91	319.45	10.42	-59.5	-62.7	3.7	0.00e+00	0	36	104	26432503808	84	22581
2026-01-03 20:16:04.92	320.02	10.20	-59.6	-62.8	3.7	0.00e+00	0	36	104	26432503808	84	22786
2026-01-03 20:16:07.90	320.58	9.99	-59.4	-62.6	3.7	0.00e+00	0	36	104	26432503808	84	22288
2026-01-03 20:16:10.89	321.14	9.77	-59.4	-62.6	3.7	0.00e+00	0	36	104	26432503808	84	22172
2026-01-03 20:16:13.88	321.68	9.56	-59.3	-62.6	3.7	0.00e+00	0	36	104	26432503808	84	22245
2026-01-03 20:16:16.86	322.21	9.34	-59.4	-62.6	3.7	0.00e+00	0	36	104	26432503808	84	22232
2026-01-03 20:16:19.84	322.73	9.13	-59.2	-62.5	3.7	0.00e+00	0	36	104	26432503808	84	21880
2026-01-03 20:16:22.84	323.25	8.91	-59.2	-62.4	3.7	0.00e+00	0	36	104	26432503808	84	21803
2026-01-03 20:16:25.83	323.75	8.70	-59.2	-62.4	3.7	0.00e+00	0	36	104	26432503808	84	21783
2026-01-03 20:16:28.82	324.25	8.49	-59.2	-62.5	3.7	0.00e+00	0	36	104	26432503808	84	21934
2026-01-03 20:16:31.81	324.73	8.28	-59.1	-62.3	3.7	0.00e+00	0	36	104	26432503808	84	21522
2026-01-03 20:16:34.80	325.21	8.07	-59.1	-62.3	3.7	0.00e+00	0	35	104	26432503808	84	21603
2026-01-03 20:16:37.78	325.68	7.86	-59.0	-62.3	3.7	0.00e+00	0	35	104	26432503808	84	21511
2026-01-03 20:16:40.78	326.15	7.65	-59.1	-62.3	3.7	0.00e+00	0	36	104	26432503808	84	21599
2026-01-03 20:16:43.78	326.60	7.44	-58.9	-62.2	3.7	0.00e+00	0	35	104	26432503808	84	21206
2026-01-03 20:16:46.77	327.05	7.23	-59.0	-62.2	3.7	0.00e+00	0	35	104	26432503808	84	21179
2026-01-03 20:16:49.76	327.49	7.03	-58.9	-62.2	3.7	0.00e+00	0	35	104	26432503808	84	21150
2026-01-03 20:16:52.75	327.92	6.82	-58.9	-62.2	3.7	0.00e+00	0	35	104	26432503808	84	21229
2026-01-03 20:16:55.76	328.35	6.62	-58.8	-62.0	3.7	0.00e+00	0	35	104	26432503808	84	20826
2026-01-03 20:16:58.76	328.77	6.41	-58.8	-62.1	3.7	0.00e+00	0	35	104	26432503808	84	20895
2026-01-03 20:17:01.75	329.18	6.21	-58.8	-62.0	3.7	0.00e+00	0	35	104	26432503808	84	20797
2026-01-03 20:17:04.74	329.58	6.01	-58.8	-62.1	3.7	0.00e+00	0	35	104	26432503808	84	20907
2026-01-03 20:17:07.74	329.98	5.81	-58.6	-61.9	3.7	0.00e+00	0	35	104	26432503808	84	20499
2026-01-03 20:17:10.73	330.37	5.62	-58.7	-61.9	3.7	0.00e+00	0	35	104	26432503808	84	20532
2026-01-03 20:17:13.72	330.76	5.42	-58.6	-61.8	3.7	0.00e+00	0	35	104	26432503808	84	20391
2026-01-03 20:17:16.73	331.14	5.22	-58.7	-61.9	3.7	0.00e+00	0	35	104	26432503808	84	20602
2026-01-03 20:17:19.73	331.51	5.03	-58.4	-61.7	3.7	0.00e+00	0	35	104	26432503808	84	19990
2026-01-03 20:17:22.73	331.88	4.83	-59.6	-62.9	3.7	0.00e+00	0	35	104	26432503808	84	22986
2026-01-03 20:17:25.72	332.24	4.64	-60.5	-63.8	3.7	0.00e+00	0	35	104	26432503808	86	22643
2026-01-03 20:17:28.71	332.59	4.45	-60.8	-64.1	3.7	0.00e+00	0	35	104	26432503808	87	22207
2026-01-03 20:17:31.70	332.94	4.26	-61.0	-64.3	3.7	0.00e+00	0	35	104	26432503808	87	22785
2026-01-03 20:17:34.68	333.28	4.07	-61.1	-64.4	3.7	0.00e+00	0	35	104	26432503808	88	21681
2026-01-03 20:17:37.67	333.62	3.88	-61.2	-64.4	3.7	0.00e+00	0	35	104	26432503808	88	21847
2026-01-03 20:17:40.67	333.95	3.69	-61.2	-64.4	3.7	0.00e+00	0	35	104	26432503808	88	21807
2026-01-03 20:17:43.68	334.28	3.50	-61.1	-64.4	3.7	0.00e+00	0	35	104	26432503808	88	21661
2026-01-03 20:17:46.68	334.61	3.32	-61.1	-64.3	3.7	0.00e+00	0	35	104	26432503808	88	21522
2026-01-03 20:17:49.68	334.93	3.13	-61.1	-64.3	3.7	0.00e+00	0	35	104	26432503808	88	21564
2026-01-03 20:17:52.67	335.24	2.95	-61.0	-64.3	3.7	0.00e+00	0	35	104	26432503808	88	21457
2026-01-03 20:17:55.67	335.55	2.77	-61.0	-64.3	3.7	0.00e+00	0	35	104	26432503808	88	21415
2026-01-03 20:17:58.67	335.85	2.58	-60.9	-64.3	3.7	0.00e+00	0	35	104	26432503808	88	21372
2026-01-03 20:18:01.67	336.15	2.40	-60.9	-64.2	3.7	0.00e+00	0	35	104	26432503808	88	21258
2026-01-03 20:18:04.67	336.45	2.22	-60.9	-64.2	3.7	0.00e+00	0	35	104	26432503808	88	21188
2026-01-03 20:18:07.68	336.74	2.04	-60.8	-64.2	3.7	0.00e+00	0	35	104	26432503808	88	21249
2026-01-03 20:18:10.67	337.03	1.87	-60.8	-64.1	3.7	0.00e+00	0	35	104	26432503808	88	21113

#Closed at: 2026-01-03 20:18:11
#Recorded file [26432 MB]: D:/lorett/data/31004_260103_230848.dat