passes_logs/2026/01/03/R3.2S_Murmansk/R3.2S_Murmansk__20260103_015703_NOAA_20_JPSS-1_rec.log

#Pass ID: 20260103_015703_NOAA 20 (JPSS-1)
#Satellite: NOAA 20 (JPSS-1)
#Configuration: NOAA 20
#almurnet v.1.7.20251203
#Start time: 2026-01-03 01:57:04

#Version: 2.2.20231116
#Station: R3.2S_Murmansk
#Location: 33.079688 lon 68.888172 lat
#TLE: 1 43013U 17073A   26002.78363558  .00000190  00000+0  11110-3 0  9990
#TLE: 2 43013  98.7623 303.8528 0001892  57.0664 303.0694 14.19532716421006

#Time	Az	El	Level	Level2	SNR	BER	BlckErr	Temp	State	Recorded	gain1	gain2
2026-01-03 01:57:04.50	30.45	2.06	-59.7	-75.2	3.8	1.49e+00	0	29	0	0	85	21728
2026-01-03 01:57:08.51	30.34	2.31	-59.7	-75.2	3.8	1.49e+00	0	29	104	0	84	22994
2026-01-03 01:57:12.51	30.22	2.56	-59.7	-75.2	3.8	1.49e+00	0	29	104	0	84	22933
2026-01-03 01:57:16.52	30.11	2.82	-59.7	-75.2	3.8	1.49e+00	0	30	104	0	84	22900
2026-01-03 01:57:20.51	29.99	3.08	-59.7	-75.2	3.8	1.49e+00	0	29	104	0	84	22857
2026-01-03 01:57:24.53	29.87	3.34	-59.7	-75.0	3.8	1.49e+00	0	30	104	0	84	22424
2026-01-03 01:57:28.53	29.75	3.60	-59.6	-73.8	3.8	1.49e+00	0	30	104	0	84	19499
2026-01-03 01:57:32.53	29.63	3.87	-59.6	-73.7	3.8	1.49e+00	0	30	104	0	84	19229
2026-01-03 01:57:36.53	29.50	4.13	-59.7	-73.9	3.8	1.49e+00	0	30	104	0	84	19796
2026-01-03 01:57:40.53	29.37	4.41	-59.1	-67.6	6.2	3.00e-01	0	30	0	3145728	84	9507
2026-01-03 01:57:44.53	29.24	4.68	-58.2	-63.9	9.2	1.22e-02	0	30	0	10485760	83	6584
2026-01-03 01:57:48.54	29.11	4.95	-57.9	-63.0	9.9	2.51e-03	0	30	0	17825792	82	6299
2026-01-03 01:57:52.53	28.97	5.23	-58.1	-63.5	9.9	0.00e+00	0	30	0	25165824	81	7065
2026-01-03 01:57:56.53	28.83	5.51	-55.5	-57.8	13.7	0.00e+00	0	30	0	33554432	77	4625
2026-01-03 01:58:00.53	28.69	5.80	-55.5	-57.7	13.8	0.00e+00	0	30	0	40894464	77	4598
2026-01-03 01:58:04.51	28.54	6.08	-55.0	-57.0	14.2	0.00e+00	0	30	0	48234496	76	4453
2026-01-03 01:58:08.51	28.39	6.37	-54.9	-56.8	14.3	0.00e+00	0	30	0	55574528	76	4352
2026-01-03 01:58:12.52	28.24	6.67	-54.8	-56.6	14.4	0.00e+00	0	30	0	62914560	76	4279
2026-01-03 01:58:16.50	28.08	6.96	-54.6	-56.4	14.4	0.00e+00	0	30	0	70254592	75	4429
2026-01-03 01:58:20.51	27.92	7.26	-54.7	-56.6	14.4	0.00e+00	0	30	0	78643200	75	4499
2026-01-03 01:58:24.49	27.76	7.56	-54.6	-56.4	14.5	0.00e+00	0	30	0	85983232	75	4398
2026-01-03 01:58:28.47	27.59	7.87	-54.7	-56.4	14.5	0.00e+00	0	30	0	93323264	75	4415
2026-01-03 01:58:32.48	27.42	8.18	-54.5	-56.2	14.6	0.00e+00	0	30	0	100663296	75	4329
2026-01-03 01:58:36.47	27.24	8.49	-54.4	-56.1	14.7	0.00e+00	0	30	0	108003328	75	4245
2026-01-03 01:58:40.47	27.06	8.80	-54.5	-56.2	14.6	0.00e+00	0	30	0	115343360	75	4297
2026-01-03 01:58:44.46	26.88	9.12	-54.4	-56.0	14.7	0.00e+00	0	30	0	122683392	75	4202
2026-01-03 01:58:48.45	26.69	9.45	-54.5	-56.1	14.7	0.00e+00	0	30	0	130023424	75	4289
2026-01-03 01:58:52.44	26.50	9.77	-54.4	-55.9	14.8	0.00e+00	0	30	0	138412032	75	4193
2026-01-03 01:58:56.44	26.30	10.11	-54.3	-55.8	14.8	0.00e+00	0	30	0	145752064	75	4140
2026-01-03 01:59:00.43	26.10	10.44	-54.3	-55.8	14.9	0.00e+00	0	31	0	153092096	75	4116
2026-01-03 01:59:04.42	25.89	10.78	-54.2	-55.8	14.9	0.00e+00	0	30	0	160432128	75	4100
2026-01-03 01:59:08.42	25.68	11.13	-54.3	-55.9	14.8	0.00e+00	0	31	0	167772160	75	4156
2026-01-03 01:59:12.42	25.46	11.48	-54.2	-55.7	14.9	0.00e+00	0	30	0	175112192	74	4324
2026-01-03 01:59:16.40	25.24	11.83	-54.2	-55.7	14.9	0.00e+00	0	30	0	182452224	74	4340
2026-01-03 01:59:20.40	25.01	12.19	-54.2	-55.7	14.9	0.00e+00	0	30	0	190840832	74	4337
2026-01-03 01:59:24.38	24.77	12.55	-54.1	-55.6	14.9	0.00e+00	0	31	0	198180864	74	4263
2026-01-03 01:59:28.36	24.53	12.91	-54.1	-55.5	15.0	0.00e+00	0	31	0	205520896	74	4225
2026-01-03 01:59:32.36	24.28	13.29	-54.1	-55.5	15.0	0.00e+00	0	31	0	212860928	74	4220
2026-01-03 01:59:36.35	24.03	13.66	-54.0	-55.4	15.1	0.00e+00	0	31	0	220200960	74	4176
2026-01-03 01:59:40.33	23.76	14.05	-53.9	-55.3	15.1	0.00e+00	0	31	0	227540992	74	4113
2026-01-03 01:59:44.32	23.49	14.43	-53.9	-55.3	15.1	0.00e+00	0	30	0	234881024	74	4117
2026-01-03 01:59:48.30	23.22	14.83	-53.8	-55.1	15.2	0.00e+00	0	31	0	243269632	74	4017
2026-01-03 01:59:52.29	22.93	15.23	-53.7	-55.1	15.2	0.00e+00	0	31	0	250609664	74	4020
2026-01-03 01:59:56.29	22.64	15.63	-53.7	-55.0	15.2	0.00e+00	0	31	0	257949696	73	4211
2026-01-03 02:00:00.27	22.34	16.04	-53.7	-55.0	15.2	0.00e+00	0	31	0	265289728	73	4233
2026-01-03 02:00:04.26	22.03	16.46	-53.7	-55.0	15.2	0.00e+00	0	31	0	272629760	73	4214
2026-01-03 02:00:08.25	21.71	16.89	-53.7	-55.0	15.2	0.00e+00	0	30	0	279969792	73	4231
2026-01-03 02:00:12.24	21.38	17.32	-53.8	-55.1	15.2	0.00e+00	0	30	0	287309824	73	4256
2026-01-03 02:00:16.22	21.04	17.75	-53.8	-55.1	15.2	0.00e+00	0	31	0	294649856	73	4261
2026-01-03 02:00:20.20	20.69	18.19	-53.8	-55.2	15.2	0.00e+00	0	31	0	303038464	73	4307
2026-01-03 02:00:24.20	20.33	18.65	-54.0	-55.4	15.1	0.00e+00	0	31	0	310378496	73	4398
2026-01-03 02:00:28.18	19.95	19.10	-54.2	-55.7	15.0	0.00e+00	0	31	0	317718528	73	4552
2026-01-03 02:00:32.17	19.57	19.57	-54.4	-55.8	14.9	0.00e+00	0	31	0	325058560	73	4636
2026-01-03 02:00:36.15	19.17	20.04	-54.5	-56.0	14.9	0.00e+00	0	31	0	332398592	74	4478
2026-01-03 02:00:40.15	18.76	20.52	-54.7	-56.2	14.8	0.00e+00	0	31	0	339738624	74	4562
2026-01-03 02:00:44.14	18.34	21.01	-54.8	-56.3	14.8	0.00e+00	0	31	0	347078656	74	4631
2026-01-03 02:00:48.14	17.90	21.51	-54.9	-56.5	14.7	0.00e+00	0	31	0	354418688	74	4729
2026-01-03 02:00:52.13	17.45	22.01	-54.9	-56.4	14.8	0.00e+00	0	31	0	362807296	75	4438
2026-01-03 02:00:56.13	16.98	22.52	-54.9	-56.5	14.8	0.00e+00	0	31	0	370147328	75	4447
2026-01-03 02:01:00.11	16.50	23.04	-54.8	-56.3	14.9	0.00e+00	0	31	0	377487360	75	4352
2026-01-03 02:01:04.10	16.00	23.57	-54.8	-56.4	14.9	0.00e+00	0	31	0	384827392	75	4413
2026-01-03 02:01:08.08	15.48	24.10	-55.0	-56.6	14.7	0.00e+00	0	31	0	392167424	75	4509
2026-01-03 02:01:12.06	14.94	24.65	-55.1	-56.8	14.7	0.00e+00	0	31	0	399507456	75	4610
2026-01-03 02:01:16.06	14.39	25.20	-55.2	-56.8	14.7	0.00e+00	0	31	0	406847488	75	4651
2026-01-03 02:01:20.05	13.81	25.76	-55.4	-57.1	14.6	0.00e+00	0	31	0	415236096	76	4536
2026-01-03 02:01:24.05	13.21	26.34	-55.4	-57.0	14.7	0.00e+00	0	31	0	422576128	76	4490
2026-01-03 02:01:28.04	12.59	26.92	-55.5	-57.2	14.6	0.00e+00	0	31	0	429916160	76	4567
2026-01-03 02:01:32.03	11.94	27.50	-55.5	-57.2	14.6	0.00e+00	0	31	0	437256192	76	4583
2026-01-03 02:01:36.05	11.27	28.11	-55.2	-56.7	14.8	0.00e+00	0	31	0	444596224	76	4330
2026-01-03 02:01:40.06	10.57	28.71	-55.0	-56.5	14.9	0.00e+00	0	31	0	451936256	76	4239
2026-01-03 02:01:44.08	9.84	29.33	-55.4	-57.1	14.7	0.00e+00	0	31	0	459276288	76	4497
2026-01-03 02:01:48.09	9.08	29.96	-55.6	-57.3	14.6	0.00e+00	0	31	0	467664896	76	4641
2026-01-03 02:01:52.10	8.29	30.59	-55.7	-57.5	14.5	0.00e+00	0	31	0	475004928	76	4728
2026-01-03 02:01:56.12	7.47	31.23	-56.0	-57.9	14.4	0.00e+00	0	31	0	482344960	77	4662
2026-01-03 02:02:00.12	6.62	31.88	-56.3	-58.3	14.2	0.00e+00	0	31	0	489684992	77	4875
2026-01-03 02:02:04.13	5.73	32.53	-56.5	-58.5	14.1	0.00e+00	0	31	0	497025024	78	4733
2026-01-03 02:02:08.15	4.80	33.19	-56.4	-58.4	14.2	0.00e+00	0	31	0	505413632	78	4686
2026-01-03 02:02:12.15	3.84	33.86	-56.1	-58.0	14.4	0.00e+00	0	31	0	512753664	78	4464
2026-01-03 02:02:16.16	2.83	34.53	-56.3	-58.2	14.3	0.00e+00	0	31	0	520093696	78	4582
2026-01-03 02:02:20.16	1.78	35.20	-56.2	-58.1	14.4	0.00e+00	0	31	0	527433728	78	4500
2026-01-03 02:02:24.18	0.69	35.88	-56.4	-58.3	14.3	0.00e+00	0	31	0	534773760	78	4629
2026-01-03 02:02:28.19	359.54	36.56	-56.1	-57.9	14.5	0.00e+00	0	31	0	542113792	78	4412
2026-01-03 02:02:32.19	358.36	37.24	-55.9	-57.6	14.7	0.00e+00	0	31	0	550502400	78	4291
2026-01-03 02:02:36.20	357.11	37.92	-55.9	-57.7	14.6	0.00e+00	0	31	0	557842432	78	4317
2026-01-03 02:02:40.21	355.82	38.59	-55.5	-57.1	14.9	0.00e+00	0	31	0	565182464	77	4244
2026-01-03 02:02:44.22	354.47	39.27	-55.4	-57.0	14.9	0.00e+00	0	31	0	572522496	77	4209
2026-01-03 02:02:48.23	353.06	39.93	-56.1	-57.9	14.5	0.00e+00	0	31	0	579862528	77	4679
2026-01-03 02:02:52.25	351.59	40.59	-55.9	-57.7	14.6	0.00e+00	0	31	0	587202560	77	4555
2026-01-03 02:02:56.26	350.06	41.24	-56.5	-58.4	14.2	0.00e+00	0	31	0	595591168	78	4702
2026-01-03 02:03:00.27	348.47	41.88	-56.4	-58.3	14.3	0.00e+00	0	31	0	602931200	78	4647
2026-01-03 02:03:04.27	346.82	42.50	-56.1	-57.9	14.5	0.00e+00	0	31	0	610271232	78	4404
2026-01-03 02:03:08.28	345.10	43.10	-55.3	-56.7	15.1	0.00e+00	0	31	0	617611264	77	4096
2026-01-03 02:03:12.29	343.32	43.68	-54.4	-55.6	15.4	0.00e+00	0	31	0	624951296	75	4049
2026-01-03 02:03:16.31	341.47	44.24	-54.6	-55.9	15.3	0.00e+00	0	31	0	632291328	75	4151
2026-01-03 02:03:20.29	339.57	44.76	-54.5	-55.8	15.3	0.00e+00	0	31	0	640679936	75	4127
2026-01-03 02:03:24.29	337.60	45.26	-54.4	-55.6	15.4	0.00e+00	0	31	0	648019968	74	4286
2026-01-03 02:03:28.30	335.56	45.73	-55.7	-57.4	14.8	0.00e+00	0	31	0	655360000	76	4668
2026-01-03 02:03:32.29	333.47	46.16	-56.1	-57.8	14.6	0.00e+00	0	31	0	662700032	77	4624
2026-01-03 02:03:36.30	331.32	46.55	-57.1	-59.3	13.9	0.00e+00	0	31	0	670040064	79	4903
2026-01-03 02:03:40.28	329.13	46.89	-57.2	-59.4	13.8	0.00e+00	0	31	0	677380096	80	4694
2026-01-03 02:03:44.28	326.88	47.20	-57.2	-59.4	13.9	0.00e+00	0	31	0	684720128	80	4662
2026-01-03 02:03:48.28	324.60	47.45	-56.9	-59.0	14.1	0.00e+00	0	31	0	693108736	80	4467
2026-01-03 02:03:52.26	322.29	47.66	-57.3	-59.5	13.8	0.00e+00	0	31	0	700448768	80	4750
2026-01-03 02:03:56.26	319.94	47.82	-56.7	-58.7	14.3	0.00e+00	0	31	0	707788800	79	4575
2026-01-03 02:04:00.25	317.58	47.92	-56.6	-58.6	14.3	0.00e+00	0	31	0	715128832	79	4508
2026-01-03 02:04:04.26	315.19	47.97	-57.1	-59.2	14.1	0.00e+00	0	31	0	722468864	80	4556
2026-01-03 02:04:08.27	312.80	47.97	-56.2	-57.9	14.7	0.00e+00	0	31	0	729808896	79	4192
2026-01-03 02:04:12.26	310.43	47.91	-56.5	-58.4	14.4	0.00e+00	0	31	0	738197504	78	4670
2026-01-03 02:04:16.25	308.07	47.80	-56.9	-59.0	14.1	0.00e+00	0	31	0	745537536	79	4716
2026-01-03 02:04:20.25	305.72	47.63	-56.4	-58.2	14.6	0.00e+00	0	31	0	752877568	79	4296
2026-01-03 02:04:24.25	303.40	47.42	-57.4	-59.7	13.8	0.00e+00	0	31	0	760217600	80	4846
2026-01-03 02:04:28.23	301.13	47.16	-56.9	-58.9	14.3	0.00e+00	0	31	0	767557632	79	4674
2026-01-03 02:04:32.22	298.90	46.85	-57.3	-59.5	13.9	0.00e+00	0	31	0	774897664	79	5001
2026-01-03 02:04:36.22	296.70	46.49	-56.6	-58.4	14.4	0.00e+00	0	31	0	782237696	79	4428
2026-01-03 02:04:40.21	294.57	46.10	-56.7	-58.7	14.3	0.00e+00	0	31	0	789577728	79	4550
2026-01-03 02:04:44.20	292.49	45.66	-56.1	-57.8	14.7	0.00e+00	0	31	0	797966336	78	4365
2026-01-03 02:04:48.19	290.47	45.19	-55.5	-57.0	15.1	0.00e+00	0	31	0	805306368	77	4232
2026-01-03 02:04:52.20	288.50	44.69	-55.1	-56.4	15.2	0.00e+00	0	31	0	812646400	76	4184
2026-01-03 02:04:56.19	286.60	44.15	-54.4	-55.6	15.5	0.00e+00	0	31	0	819986432	75	4042
2026-01-03 02:05:00.19	284.76	43.59	-54.3	-55.5	15.5	0.00e+00	0	31	0	827326464	75	3983
2026-01-03 02:05:04.19	282.99	43.01	-53.8	-54.9	15.6	0.00e+00	0	31	0	834666496	73	4174
2026-01-03 02:05:08.18	281.29	42.41	-53.4	-54.5	15.8	0.00e+00	0	31	0	842006528	73	3959
2026-01-03 02:05:12.19	279.64	41.78	-53.5	-54.6	15.7	0.00e+00	0	31	0	850395136	73	4021
2026-01-03 02:05:16.17	278.07	41.15	-53.7	-54.8	15.6	0.00e+00	0	31	0	857735168	73	4130
2026-01-03 02:05:20.17	276.55	40.50	-54.4	-55.7	15.4	0.00e+00	0	31	0	865075200	74	4339
2026-01-03 02:05:24.17	275.09	39.84	-54.2	-55.4	15.4	0.00e+00	0	31	0	872415232	74	4191
2026-01-03 02:05:28.15	273.70	39.18	-54.6	-55.9	15.3	0.00e+00	0	31	0	879755264	74	4438
2026-01-03 02:05:32.14	272.36	38.51	-54.0	-55.3	15.5	0.00e+00	0	31	0	887095296	74	4105
2026-01-03 02:05:36.13	271.07	37.83	-54.8	-56.3	15.1	0.00e+00	0	31	0	894435328	75	4346
2026-01-03 02:05:40.11	269.84	37.16	-55.0	-56.5	15.1	0.00e+00	0	31	0	902823936	75	4446
2026-01-03 02:05:44.12	268.65	36.47	-56.0	-57.7	14.6	0.00e+00	0	31	0	910163968	77	4596
2026-01-03 02:05:48.11	267.52	35.80	-56.1	-57.9	14.6	0.00e+00	0	31	0	917504000	77	4653
2026-01-03 02:05:52.11	266.43	35.12	-56.8	-58.9	14.0	0.00e+00	0	31	0	924844032	79	4688
2026-01-03 02:05:56.12	265.38	34.44	-57.2	-59.6	13.7	0.00e+00	0	31	0	932184064	80	4775
2026-01-03 02:06:00.10	264.38	33.78	-57.5	-60.0	13.5	0.00e+00	0	31	0	939524096	80	5040
2026-01-03 02:06:04.06	263.43	33.12	-57.4	-59.8	13.6	0.00e+00	0	31	0	946864128	80	4914
2026-01-03 02:06:08.04	262.51	32.46	-57.3	-59.6	13.7	0.00e+00	0	31	0	954204160	80	4813
2026-01-03 02:06:12.04	261.63	31.81	-56.9	-59.1	14.0	0.00e+00	0	31	0	962592768	80	4535
2026-01-03 02:06:16.04	260.78	31.16	-56.2	-58.0	14.5	0.00e+00	0	31	0	969932800	79	4237
2026-01-03 02:06:20.04	259.96	30.52	-56.5	-58.5	14.3	0.00e+00	0	31	0	977272832	78	4740
2026-01-03 02:06:24.03	259.17	29.89	-56.4	-58.3	14.3	0.00e+00	0	31	0	984612864	78	4648
2026-01-03 02:06:28.02	258.42	29.27	-56.2	-58.1	14.5	0.00e+00	0	31	0	991952896	78	4518
2026-01-03 02:06:32.01	257.70	28.65	-56.5	-58.5	14.3	0.00e+00	0	31	0	999292928	78	4723
2026-01-03 02:06:36.01	257.00	28.05	-56.1	-57.9	14.5	0.00e+00	0	31	0	1007681536	78	4437
2026-01-03 02:06:40.01	256.32	27.45	-56.2	-58.1	14.5	0.00e+00	0	31	0	1015021568	78	4505
2026-01-03 02:06:44.00	255.68	26.86	-56.3	-58.3	14.4	0.00e+00	0	31	0	1022361600	78	4630
2026-01-03 02:06:48.02	255.05	26.27	-55.7	-57.4	14.8	0.00e+00	0	31	0	1029701632	78	4167
2026-01-03 02:06:52.02	254.45	25.70	-55.4	-57.0	14.9	0.00e+00	0	31	0	1037041664	77	4231
2026-01-03 02:06:56.02	253.87	25.13	-55.7	-57.5	14.7	0.00e+00	0	31	0	1044381696	77	4446
2026-01-03 02:07:00.02	253.31	24.58	-55.5	-57.2	14.8	0.00e+00	0	31	0	1051721728	77	4321
2026-01-03 02:07:04.04	252.77	24.03	-55.4	-57.0	14.9	0.00e+00	0	31	0	1060110336	77	4233
2026-01-03 02:07:08.06	252.24	23.49	-55.4	-57.0	14.9	0.00e+00	0	31	0	1067450368	77	4236
2026-01-03 02:07:12.06	251.74	22.96	-55.0	-56.5	15.1	0.00e+00	0	31	0	1074790400	76	4196
2026-01-03 02:07:16.07	251.25	22.43	-55.1	-56.6	15.0	0.00e+00	0	31	0	1082130432	76	4278
2026-01-03 02:07:20.06	250.79	21.92	-55.2	-56.8	14.9	0.00e+00	0	31	0	1089470464	76	4346
2026-01-03 02:07:24.07	250.33	21.42	-55.1	-56.6	15.0	0.00e+00	0	31	0	1096810496	76	4286
2026-01-03 02:07:28.10	249.89	20.91	-55.1	-56.7	15.0	0.00e+00	0	31	0	1105199104	76	4317
2026-01-03 02:07:32.10	249.46	20.42	-55.3	-57.0	14.8	0.00e+00	0	31	0	1112539136	76	4456
2026-01-03 02:07:36.10	249.05	19.94	-55.4	-57.0	14.8	0.00e+00	0	31	0	1119879168	76	4490
2026-01-03 02:07:40.10	248.65	19.47	-55.2	-56.8	14.9	0.00e+00	0	31	0	1127219200	76	4356
2026-01-03 02:07:44.10	248.27	19.00	-55.4	-57.0	14.8	0.00e+00	0	31	0	1134559232	76	4476
2026-01-03 02:07:48.10	247.89	18.54	-55.4	-57.1	14.8	0.00e+00	0	31	0	1141899264	76	4512
2026-01-03 02:07:52.12	247.53	18.09	-55.4	-57.0	14.8	0.00e+00	0	31	0	1150287872	76	4481
2026-01-03 02:07:56.13	247.18	17.64	-55.3	-56.9	14.8	0.00e+00	0	31	0	1157627904	76	4419
2026-01-03 02:08:00.14	246.84	17.20	-55.6	-57.4	14.6	0.00e+00	0	31	0	1164967936	76	4660
2026-01-03 02:08:04.13	246.51	16.77	-55.9	-57.8	14.4	0.00e+00	0	31	0	1172307968	77	4631
2026-01-03 02:08:08.14	246.18	16.35	-56.0	-58.0	14.4	0.00e+00	0	31	0	1179648000	77	4712
2026-01-03 02:08:12.17	245.87	15.93	-55.9	-57.8	14.4	0.00e+00	0	31	0	1186988032	77	4613
2026-01-03 02:08:16.17	245.57	15.51	-55.7	-57.5	14.6	0.00e+00	0	31	0	1195376640	77	4474
2026-01-03 02:08:20.19	245.27	15.10	-55.6	-57.4	14.6	0.00e+00	0	31	0	1202716672	77	4402
2026-01-03 02:08:24.22	244.98	14.70	-55.6	-57.4	14.6	0.00e+00	0	31	0	1210056704	77	4415
2026-01-03 02:08:28.21	244.70	14.31	-55.5	-57.2	14.7	0.00e+00	0	31	0	1217396736	77	4340
2026-01-03 02:08:32.22	244.43	13.92	-55.7	-57.5	14.5	0.00e+00	0	31	0	1224736768	77	4459
2026-01-03 02:08:36.22	244.17	13.53	-55.9	-57.8	14.3	0.00e+00	0	31	0	1232076800	77	4623
2026-01-03 02:08:40.24	243.91	13.15	-56.2	-58.3	14.1	0.00e+00	0	31	0	1240465408	77	4873
2026-01-03 02:08:44.23	243.66	12.78	-56.3	-58.5	14.0	0.00e+00	0	31	0	1247805440	77	5023
2026-01-03 02:08:48.23	243.42	12.41	-56.2	-58.3	14.1	0.00e+00	0	31	0	1255145472	77	4924
2026-01-03 02:08:52.25	243.18	12.05	-55.9	-57.9	14.3	0.00e+00	0	31	0	1262485504	77	4700
2026-01-03 02:08:56.24	242.95	11.69	-55.9	-57.9	14.3	0.00e+00	0	31	0	1269825536	77	4688
2026-01-03 02:09:00.25	242.72	11.34	-56.1	-58.2	14.1	0.00e+00	0	31	0	1277165568	77	4822
2026-01-03 02:09:04.26	242.50	10.99	-56.4	-58.6	13.9	0.00e+00	0	31	0	1285554176	77	5058
2026-01-03 02:09:08.26	242.29	10.64	-56.5	-58.8	13.8	0.00e+00	0	31	0	1292894208	78	4884
2026-01-03 02:09:12.26	242.08	10.30	-56.3	-58.5	14.0	0.00e+00	0	31	0	1300234240	78	4728
2026-01-03 02:09:16.26	241.87	9.97	-56.2	-58.4	14.0	0.00e+00	0	31	0	1307574272	78	4664
2026-01-03 02:09:20.26	241.68	9.64	-56.0	-58.1	14.2	0.00e+00	0	31	0	1314914304	78	4534
2026-01-03 02:09:24.26	241.48	9.31	-56.1	-58.3	14.0	0.00e+00	0	31	0	1322254336	78	4603
2026-01-03 02:09:28.25	241.29	8.98	-56.2	-58.4	14.0	0.00e+00	0	31	0	1330642944	78	4685
2026-01-03 02:09:32.23	241.11	8.67	-56.4	-58.7	13.8	0.00e+00	0	31	0	1337982976	78	4842
2026-01-03 02:09:36.23	240.93	8.35	-56.6	-59.1	13.5	0.00e+00	0	31	0	1345323008	78	5081
2026-01-03 02:09:40.20	240.75	8.04	-56.7	-59.2	13.4	0.00e+00	0	31	0	1352663040	78	5126
2026-01-03 02:09:44.18	240.58	7.73	-56.7	-59.2	13.4	0.00e+00	0	31	0	1360003072	78	5128
2026-01-03 02:09:48.16	240.41	7.43	-56.7	-59.3	13.3	0.00e+00	0	31	0	1367343104	78	5190
2026-01-03 02:09:52.14	240.25	7.13	-56.7	-59.4	13.3	0.00e+00	0	31	0	1374683136	78	5226
2026-01-03 02:09:56.13	240.08	6.83	-56.6	-59.2	13.4	0.00e+00	0	31	0	1382023168	78	5127
2026-01-03 02:10:00.11	239.93	6.53	-56.7	-59.4	13.2	0.00e+00	0	31	0	1389363200	78	5237
2026-01-03 02:10:04.12	239.77	6.24	-56.8	-59.6	13.1	0.00e+00	0	31	0	1397751808	79	5075
2026-01-03 02:10:08.10	239.62	5.95	-56.8	-59.5	13.1	0.00e+00	0	31	0	1405091840	79	5039
2026-01-03 02:10:12.10	239.47	5.67	-56.8	-59.6	13.1	0.00e+00	0	31	0	1412431872	79	5045
2026-01-03 02:10:16.08	239.33	5.38	-56.8	-59.7	12.9	0.00e+00	0	31	0	1419771904	79	5121
2026-01-03 02:10:20.05	239.19	5.11	-56.7	-59.5	13.0	0.00e+00	0	31	0	1427111936	79	5026
2026-01-03 02:10:24.05	239.05	4.83	-61.3	-76.9	3.8	1.49e+00	0	31	104	1430257664	87	23376
2026-01-03 02:10:28.04	238.91	4.55	-61.7	-77.3	3.8	1.49e+00	0	31	104	1430257664	88	23078
2026-01-03 02:10:32.04	238.78	4.28	-61.9	-77.5	3.8	1.49e+00	0	31	104	1430257664	89	22384
2026-01-03 02:10:36.04	238.65	4.01	-62.0	-77.6	3.8	1.49e+00	0	31	104	1430257664	89	22594
2026-01-03 02:10:40.05	238.52	3.74	-62.0	-77.7	3.8	1.49e+00	0	31	104	1430257664	89	22809
2026-01-03 02:10:44.03	238.39	3.48	-62.1	-77.7	3.8	1.49e+00	0	31	104	1430257664	89	22950
2026-01-03 02:10:48.03	238.27	3.21	-62.0	-77.6	3.8	1.49e+00	0	31	104	1430257664	89	22729
2026-01-03 02:10:52.03	238.15	2.95	-62.0	-77.6	3.8	1.49e+00	0	31	104	1430257664	89	22663
2026-01-03 02:10:56.04	238.03	2.69	-62.0	-77.6	3.8	1.49e+00	0	31	104	1430257664	89	22579
2026-01-03 02:11:00.04	237.91	2.44	-61.9	-77.6	3.8	1.49e+00	0	31	104	1430257664	89	22551
2026-01-03 02:11:04.05	237.80	2.18	-61.9	-77.5	3.8	1.49e+00	0	31	104	1430257664	89	22506

#Closed at: 2026-01-03 02:11:07
#Recorded file [1430 MB]: D:/lorett/data/31004_260103_045704.dat