passes_logs/2026/01/03/R3.2S_Murmansk/R3.2S_Murmansk__20260103_152051_ZKG05_rec.log

#Pass ID: 20260103_152051_ZKG05
#Satellite: ZKG05
#Configuration: ZKG05
#almurnet v.1.7.20251203
#Start time: 2026-01-03 15:20:50

#Version: 2.2.20231116
#Station: R3.2S_Murmansk
#Location: 33.079688 lon 68.888172 lat
#TLE: 1 65263U 25180E   25363.54303023  .00006586  00000-0  34273-3 0  9994
#TLE: 2 65263  97.4772 128.0191 0001674  87.3453 272.7971 15.16366041 20011

#Time	Az	El	Level	Level2	SNR	BER	BlckErr	Temp	State	Recorded	gain1	gain2
2026-01-03 15:20:50.66	26.66	1.98	-58.9	-62.1	6.1	0.00e+00	0	34	0	0	84	20406
2026-01-03 15:20:53.65	26.41	2.16	-58.9	-62.0	6.2	0.00e+00	0	34	104	0	84	20382
2026-01-03 15:20:56.67	26.15	2.35	-58.9	-62.1	6.2	0.00e+00	0	34	104	0	84	20462
2026-01-03 15:20:59.67	25.89	2.54	-58.9	-62.1	6.2	0.00e+00	0	34	104	0	84	20525
2026-01-03 15:21:02.67	25.62	2.73	-58.9	-62.1	6.2	0.00e+00	0	35	104	0	84	20428
2026-01-03 15:21:05.68	25.35	2.91	-58.9	-62.1	6.2	0.00e+00	0	35	104	0	84	20476
2026-01-03 15:21:08.66	25.07	3.10	-58.9	-62.1	6.2	0.00e+00	0	35	104	0	84	20494
2026-01-03 15:21:11.66	24.79	3.29	-58.9	-62.0	6.2	0.00e+00	0	35	104	0	84	20396
2026-01-03 15:21:14.66	24.51	3.49	-58.9	-62.1	6.2	0.00e+00	0	35	104	0	84	20465
2026-01-03 15:21:17.67	24.22	3.68	-58.9	-62.1	6.2	0.00e+00	0	35	104	0	84	20546
2026-01-03 15:21:20.65	23.92	3.88	-58.9	-62.1	6.2	0.00e+00	0	35	104	0	84	20446
2026-01-03 15:21:23.64	23.62	4.07	-58.9	-62.1	6.2	0.00e+00	0	36	104	0	84	20416
2026-01-03 15:21:26.64	23.32	4.27	-58.9	-62.1	6.2	0.00e+00	0	36	104	0	84	20540
2026-01-03 15:21:29.63	23.01	4.47	-58.9	-62.1	6.2	0.00e+00	0	36	104	0	84	20475
2026-01-03 15:21:32.62	22.69	4.66	-58.9	-62.1	6.2	0.00e+00	0	36	104	0	84	20527
2026-01-03 15:21:35.62	22.37	4.87	-58.9	-62.1	6.2	0.00e+00	0	36	104	0	84	20450
2026-01-03 15:21:38.62	22.04	5.07	-59.0	-62.1	6.2	0.00e+00	0	36	104	0	84	20554
2026-01-03 15:21:41.62	21.70	5.27	-59.1	-62.2	6.2	0.00e+00	0	36	104	0	84	20821
2026-01-03 15:21:44.61	21.36	5.48	-59.0	-62.2	6.2	0.00e+00	0	36	104	0	84	20690
2026-01-03 15:21:47.61	21.02	5.68	-59.0	-62.2	6.2	0.00e+00	0	36	104	0	84	20745
2026-01-03 15:21:50.61	20.67	5.89	-59.1	-62.2	6.2	0.00e+00	0	36	104	0	84	20793
2026-01-03 15:21:53.60	20.31	6.10	-59.1	-62.3	6.2	0.00e+00	0	36	104	0	84	21070
2026-01-03 15:21:56.61	19.94	6.31	-59.1	-62.3	6.2	0.00e+00	0	37	104	0	84	20930
2026-01-03 15:21:59.60	19.57	6.52	-59.1	-62.3	6.2	0.00e+00	0	36	104	0	84	21002
2026-01-03 15:22:02.60	19.19	6.73	-59.2	-62.3	6.2	0.00e+00	0	37	104	0	84	21056
2026-01-03 15:22:05.60	18.80	6.94	-59.2	-62.4	6.2	0.00e+00	0	37	104	0	84	21250
2026-01-03 15:22:08.60	18.41	7.16	-59.2	-62.4	6.2	0.00e+00	0	37	104	0	84	21145
2026-01-03 15:22:11.60	18.01	7.37	-59.2	-62.4	6.2	0.00e+00	0	37	104	0	84	21205
2026-01-03 15:22:14.60	17.60	7.59	-59.2	-62.5	6.2	0.00e+00	0	37	104	0	84	21371
2026-01-03 15:22:17.60	17.18	7.81	-59.3	-62.5	6.2	0.00e+00	0	37	104	0	84	21499
2026-01-03 15:22:20.60	16.75	8.03	-59.3	-62.5	6.2	0.00e+00	0	37	104	0	84	21461
2026-01-03 15:22:23.58	16.32	8.25	-59.3	-62.5	6.2	0.00e+00	0	37	104	0	84	21442
2026-01-03 15:22:26.58	15.88	8.47	-59.4	-62.5	6.2	0.00e+00	0	37	104	0	84	21569
2026-01-03 15:22:29.57	15.43	8.70	-59.4	-62.6	6.2	0.00e+00	0	37	104	0	84	21688
2026-01-03 15:22:32.58	14.97	8.92	-59.4	-62.5	6.2	0.00e+00	0	37	104	0	84	21591
2026-01-03 15:22:35.57	14.51	9.15	-59.4	-62.6	6.2	0.00e+00	0	37	104	0	84	21667
2026-01-03 15:22:38.57	14.03	9.37	-59.4	-62.6	6.2	0.00e+00	0	37	104	0	84	21728
2026-01-03 15:22:41.57	13.54	9.60	-59.5	-62.7	6.2	0.00e+00	0	37	104	0	84	21900
2026-01-03 15:22:44.58	13.04	9.83	-59.5	-62.6	6.2	0.00e+00	0	37	104	0	84	21814
2026-01-03 15:22:47.57	12.54	10.06	-59.5	-62.7	6.2	0.00e+00	0	37	104	0	84	21859
2026-01-03 15:22:50.57	12.02	10.29	-59.5	-62.7	6.2	0.00e+00	0	37	104	0	84	21910
2026-01-03 15:22:53.58	11.50	10.52	-59.5	-62.7	6.2	0.00e+00	0	37	104	0	84	22053
2026-01-03 15:22:56.59	10.96	10.75	-59.5	-62.7	6.2	0.00e+00	0	37	104	0	84	22015
2026-01-03 15:22:59.59	10.41	10.99	-59.6	-62.7	6.2	0.00e+00	0	38	104	0	84	22101
2026-01-03 15:23:02.59	9.86	11.22	-59.6	-62.8	6.2	0.00e+00	0	38	104	0	84	22279
2026-01-03 15:23:05.59	9.29	11.46	-59.7	-62.9	6.2	0.00e+00	0	38	104	0	84	22368
2026-01-03 15:23:08.58	8.71	11.69	-59.6	-62.8	6.2	0.00e+00	0	37	104	0	84	22235
2026-01-03 15:23:11.58	8.12	11.93	-59.7	-62.8	6.2	0.00e+00	0	38	104	0	84	22300
2026-01-03 15:23:14.58	7.51	12.16	-59.7	-62.9	6.2	0.00e+00	0	38	104	0	84	22406
2026-01-03 15:23:17.58	6.90	12.40	-59.7	-62.9	6.2	0.00e+00	0	38	104	0	84	22524
2026-01-03 15:23:20.58	6.27	12.63	-59.7	-62.9	6.2	0.00e+00	0	38	104	0	84	22424
2026-01-03 15:23:23.57	5.64	12.87	-59.7	-62.9	6.2	0.00e+00	0	38	104	0	84	22519
2026-01-03 15:23:26.56	4.99	13.10	-59.8	-62.9	6.2	0.00e+00	0	38	104	0	85	21358
2026-01-03 15:23:29.55	4.33	13.34	-59.8	-62.9	6.2	0.00e+00	0	38	104	0	85	21354
2026-01-03 15:23:32.56	3.65	13.57	-59.8	-63.0	6.2	0.00e+00	0	38	104	0	85	21363
2026-01-03 15:23:35.56	2.96	13.81	-59.8	-63.0	6.2	0.00e+00	0	38	104	0	85	21407
2026-01-03 15:23:38.55	2.26	14.04	-59.8	-63.0	6.2	0.00e+00	0	38	104	0	85	21481
2026-01-03 15:23:41.55	1.54	14.27	-59.9	-63.0	6.2	0.00e+00	0	38	104	0	85	21571
2026-01-03 15:23:44.54	0.81	14.50	-59.8	-63.0	6.2	0.00e+00	0	38	104	0	85	21509
2026-01-03 15:23:47.54	0.07	14.73	-59.9	-63.1	6.2	0.00e+00	0	38	104	0	85	21638
2026-01-03 15:23:50.54	359.31	14.96	-59.9	-63.1	6.2	0.00e+00	0	38	104	0	85	21723
2026-01-03 15:23:53.54	358.54	15.19	-59.9	-63.1	6.2	0.00e+00	0	38	104	0	85	21770
2026-01-03 15:23:56.55	357.75	15.41	-59.9	-63.1	6.2	0.00e+00	0	38	104	0	85	21727
2026-01-03 15:23:59.55	356.96	15.63	-60.0	-63.2	6.2	0.00e+00	0	38	104	0	85	21913
2026-01-03 15:24:02.55	356.14	15.85	-60.0	-63.2	6.2	0.00e+00	0	38	104	0	85	21859
2026-01-03 15:24:05.55	355.32	16.07	-60.0	-63.2	6.2	0.00e+00	0	38	104	0	85	21969
2026-01-03 15:24:08.56	354.47	16.29	-60.0	-63.2	6.2	0.00e+00	0	38	104	0	85	21863
2026-01-03 15:24:11.56	353.62	16.50	-60.0	-63.2	6.2	0.00e+00	0	38	104	0	85	21921
2026-01-03 15:24:14.57	352.74	16.70	-60.0	-63.2	6.2	0.00e+00	0	38	104	0	85	22040
2026-01-03 15:24:17.56	351.86	16.91	-60.1	-63.2	6.2	0.00e+00	0	38	104	0	85	22075
2026-01-03 15:24:20.55	350.97	17.11	-60.0	-63.2	6.2	0.00e+00	0	38	104	0	85	21974
2026-01-03 15:24:23.55	350.06	17.30	-60.0	-63.2	6.2	0.00e+00	0	38	104	0	85	21976
2026-01-03 15:24:26.54	349.14	17.49	-60.1	-63.3	6.2	0.00e+00	0	38	104	0	85	22117
2026-01-03 15:24:29.54	348.20	17.68	-60.1	-63.3	6.2	0.00e+00	0	38	104	0	85	22161
2026-01-03 15:24:32.53	347.25	17.85	-60.1	-63.2	6.2	0.00e+00	0	38	104	0	85	22105
2026-01-03 15:24:35.54	346.28	18.03	-60.1	-63.3	6.2	0.00e+00	0	38	104	0	85	22120
2026-01-03 15:24:38.54	345.30	18.20	-60.1	-63.3	6.2	0.00e+00	0	38	104	0	85	22201
2026-01-03 15:24:41.53	344.32	18.36	-60.1	-63.3	6.2	0.00e+00	0	38	104	0	85	22193
2026-01-03 15:24:44.55	343.31	18.51	-60.1	-63.3	6.2	0.00e+00	0	38	104	0	85	22304
2026-01-03 15:24:47.54	342.30	18.66	-60.2	-63.3	6.2	0.00e+00	0	38	104	0	85	22309
2026-01-03 15:24:50.54	341.28	18.80	-60.2	-63.3	6.2	0.00e+00	0	38	104	0	85	22352
2026-01-03 15:24:53.53	340.24	18.93	-60.2	-63.4	6.2	0.00e+00	0	38	104	0	85	22414
2026-01-03 15:24:56.52	339.20	19.06	-60.2	-63.3	6.2	0.00e+00	0	38	104	0	85	22363
2026-01-03 15:24:59.52	338.15	19.17	-60.2	-63.4	6.2	0.00e+00	0	38	104	0	85	22431
2026-01-03 15:25:02.52	337.08	19.28	-60.2	-63.4	6.2	0.00e+00	0	38	104	0	85	22541
2026-01-03 15:25:05.52	336.01	19.38	-60.2	-63.4	6.2	0.00e+00	0	38	104	0	85	22571
2026-01-03 15:25:08.53	334.93	19.47	-60.3	-63.4	6.2	0.00e+00	0	38	104	0	85	22616
2026-01-03 15:25:11.53	333.84	19.55	-60.3	-63.4	6.2	0.00e+00	0	38	104	0	85	22590
2026-01-03 15:25:14.53	332.75	19.63	-60.3	-63.5	6.2	0.00e+00	0	38	104	0	85	22665
2026-01-03 15:25:17.53	331.65	19.69	-60.3	-63.5	6.2	0.00e+00	0	38	104	0	85	22661
2026-01-03 15:25:20.52	330.55	19.74	-60.3	-63.5	6.2	0.00e+00	0	38	104	0	86	21489
2026-01-03 15:25:23.51	329.44	19.78	-60.3	-63.5	6.2	0.00e+00	0	38	104	0	86	21466
2026-01-03 15:25:26.50	328.34	19.82	-60.3	-63.5	6.2	0.00e+00	0	38	104	0	86	21535
2026-01-03 15:25:29.49	327.23	19.84	-60.3	-63.5	6.2	0.00e+00	0	38	104	0	86	21524
2026-01-03 15:25:32.47	326.12	19.85	-60.3	-63.5	6.2	0.00e+00	0	38	104	0	86	21490
2026-01-03 15:25:35.46	325.01	19.85	-60.3	-63.5	6.2	0.00e+00	0	38	104	0	86	21488
2026-01-03 15:25:38.46	323.89	19.84	-60.4	-63.6	6.2	0.00e+00	0	38	104	0	86	21642
2026-01-03 15:25:41.46	322.78	19.83	-60.4	-63.6	6.2	0.00e+00	0	38	104	0	86	21719
2026-01-03 15:25:44.43	321.68	19.80	-60.4	-63.6	6.2	0.00e+00	0	38	104	0	86	21612
2026-01-03 15:25:47.44	320.56	19.76	-60.4	-63.6	6.2	0.00e+00	0	38	104	0	86	21647
2026-01-03 15:25:50.42	319.47	19.71	-60.4	-63.6	6.2	0.00e+00	0	38	104	0	86	21691
2026-01-03 15:25:53.41	318.37	19.66	-60.4	-63.6	6.2	0.00e+00	0	38	104	0	86	21673
2026-01-03 15:25:56.40	317.27	19.59	-60.4	-63.6	6.2	0.00e+00	0	38	104	0	86	21632
2026-01-03 15:25:59.38	316.19	19.51	-60.4	-63.5	6.2	0.00e+00	0	38	104	0	86	21546
2026-01-03 15:26:02.37	315.11	19.43	-60.4	-63.6	6.2	0.00e+00	0	38	104	0	86	21624
2026-01-03 15:26:05.38	314.03	19.33	-60.4	-63.5	6.2	0.00e+00	0	38	104	0	86	21589
2026-01-03 15:26:08.37	312.96	19.23	-60.4	-63.5	6.2	0.00e+00	0	38	104	0	86	21604
2026-01-03 15:26:11.37	311.90	19.11	-60.4	-63.5	6.2	0.00e+00	0	38	104	0	86	21598
2026-01-03 15:26:14.37	310.85	18.99	-60.4	-63.6	6.2	0.00e+00	0	38	104	0	86	21696
2026-01-03 15:26:17.37	309.81	18.86	-60.4	-63.6	6.2	0.00e+00	0	38	104	0	86	21608
2026-01-03 15:26:20.35	308.79	18.73	-60.4	-63.6	6.2	0.00e+00	0	38	104	0	86	21697
2026-01-03 15:26:23.35	307.77	18.58	-60.4	-63.5	6.2	0.00e+00	0	38	104	0	86	21521
2026-01-03 15:26:26.33	306.76	18.43	-60.4	-63.6	6.2	0.00e+00	0	38	104	0	86	21665
2026-01-03 15:26:29.31	305.77	18.27	-60.4	-63.5	6.2	0.00e+00	0	38	104	0	86	21555
2026-01-03 15:26:32.31	304.79	18.11	-60.4	-63.6	6.2	0.00e+00	0	38	104	0	86	21697
2026-01-03 15:26:35.30	303.82	17.94	-60.4	-63.5	6.2	0.00e+00	0	38	104	0	86	21597
2026-01-03 15:26:38.28	302.87	17.76	-60.4	-63.6	6.2	0.00e+00	0	38	104	0	86	21739
2026-01-03 15:26:41.28	301.92	17.58	-60.4	-63.5	6.2	0.00e+00	0	38	104	0	86	21568
2026-01-03 15:26:44.29	300.98	17.39	-60.4	-63.6	6.2	0.00e+00	0	38	104	0	86	21672
2026-01-03 15:26:47.27	300.07	17.20	-60.4	-63.6	6.2	0.00e+00	0	38	104	0	86	21679
2026-01-03 15:26:50.29	299.16	17.00	-60.4	-63.6	6.2	0.00e+00	0	38	104	0	86	21755
2026-01-03 15:26:53.28	298.27	16.80	-60.4	-63.6	6.2	0.00e+00	0	38	104	0	86	21748
2026-01-03 15:26:56.27	297.39	16.59	-60.5	-63.6	6.2	0.00e+00	0	38	104	0	86	21788
2026-01-03 15:26:59.28	296.52	16.38	-60.4	-63.6	6.2	0.00e+00	0	38	104	0	86	21714
2026-01-03 15:27:02.27	295.68	16.17	-60.5	-63.7	6.2	0.00e+00	0	38	104	0	86	21941
2026-01-03 15:27:05.27	294.84	15.96	-60.5	-63.7	6.2	0.00e+00	0	38	104	0	86	21891
2026-01-03 15:27:08.27	294.02	15.74	-60.4	-63.6	6.2	0.00e+00	0	38	104	0	86	21776
2026-01-03 15:27:11.26	293.21	15.52	-60.4	-63.6	6.2	0.00e+00	0	38	104	0	86	21671
2026-01-03 15:27:14.26	292.42	15.29	-60.4	-63.6	6.2	0.00e+00	0	38	104	0	86	21793
2026-01-03 15:27:17.26	291.64	15.06	-60.4	-63.6	6.2	0.00e+00	0	38	104	0	86	21749
2026-01-03 15:27:20.25	290.87	14.84	-60.4	-63.5	6.2	0.00e+00	0	38	104	0	86	21585
2026-01-03 15:27:23.24	290.12	14.61	-60.4	-63.5	6.2	0.00e+00	0	38	104	0	86	21574
2026-01-03 15:27:26.23	289.39	14.38	-60.4	-63.5	6.2	0.00e+00	0	38	104	0	86	21576
2026-01-03 15:27:29.21	288.67	14.15	-60.3	-63.5	6.2	0.00e+00	0	38	104	0	86	21389
2026-01-03 15:27:32.20	287.96	13.91	-60.3	-63.4	6.2	0.00e+00	0	38	104	0	86	21337
2026-01-03 15:27:35.20	287.26	13.68	-60.3	-63.4	6.2	0.00e+00	0	38	104	0	86	21265
2026-01-03 15:27:38.19	286.58	13.45	-60.3	-63.4	6.2	0.00e+00	0	38	104	0	86	21350
2026-01-03 15:27:41.19	285.90	13.21	-60.2	-63.4	6.2	0.00e+00	0	38	104	0	86	21266
2026-01-03 15:27:44.19	285.24	12.97	-60.2	-63.4	6.2	0.00e+00	0	38	104	0	86	21175
2026-01-03 15:27:47.19	284.60	12.74	-60.2	-63.3	6.2	0.00e+00	0	39	104	0	86	21058
2026-01-03 15:27:50.18	283.96	12.50	-60.2	-63.3	6.2	0.00e+00	0	38	104	0	86	21101
2026-01-03 15:27:53.17	283.34	12.27	-60.2	-63.3	6.2	0.00e+00	0	38	104	0	86	21100
2026-01-03 15:27:56.18	282.73	12.03	-60.1	-63.3	6.2	0.00e+00	0	38	104	0	86	21045
2026-01-03 15:27:59.18	282.13	11.79	-60.1	-63.3	6.2	0.00e+00	0	38	104	0	86	20926
2026-01-03 15:28:02.16	281.55	11.56	-60.1	-63.3	6.2	0.00e+00	0	38	104	0	86	20900
2026-01-03 15:28:05.16	280.97	11.32	-60.1	-63.3	6.2	0.00e+00	0	38	104	0	86	20890
2026-01-03 15:28:08.16	280.41	11.09	-60.0	-63.2	6.2	0.00e+00	0	38	104	0	86	20840
2026-01-03 15:28:11.16	279.85	10.85	-60.0	-63.2	6.2	0.00e+00	0	38	104	0	86	20734
2026-01-03 15:28:14.16	279.31	10.62	-60.0	-63.2	6.2	0.00e+00	0	38	104	0	86	20687
2026-01-03 15:28:17.17	278.77	10.39	-60.0	-63.2	6.2	0.00e+00	0	38	104	0	86	20660
2026-01-03 15:28:20.16	278.25	10.16	-59.9	-63.1	6.2	0.00e+00	0	38	104	0	86	20605
2026-01-03 15:28:23.16	277.74	9.93	-59.9	-63.1	6.2	0.00e+00	0	38	104	0	86	20519
2026-01-03 15:28:26.15	277.24	9.70	-59.9	-63.1	6.2	0.00e+00	0	38	104	0	86	20400
2026-01-03 15:28:29.14	276.75	9.47	-59.9	-63.1	6.2	0.00e+00	0	38	104	0	86	20411
2026-01-03 15:28:32.15	276.26	9.24	-59.8	-63.0	6.2	0.00e+00	0	38	104	0	86	20269
2026-01-03 15:28:35.14	275.79	9.01	-59.8	-62.9	6.2	0.00e+00	0	38	104	0	86	20141
2026-01-03 15:28:38.11	275.33	8.79	-59.8	-62.9	6.2	0.00e+00	0	38	104	0	86	20081
2026-01-03 15:28:41.10	274.87	8.57	-59.7	-62.9	6.2	0.00e+00	0	38	104	0	86	20048
2026-01-03 15:28:44.09	274.42	8.34	-59.7	-62.9	6.2	0.00e+00	0	38	104	0	86	19990
2026-01-03 15:28:47.10	273.98	8.12	-59.6	-62.8	6.2	0.00e+00	0	38	104	0	86	19791
2026-01-03 15:28:50.11	273.55	7.90	-59.6	-62.8	6.2	0.00e+00	0	39	104	0	86	19825
2026-01-03 15:28:53.10	273.13	7.68	-59.6	-62.7	6.2	0.00e+00	0	38	104	0	85	20862
2026-01-03 15:28:56.10	272.71	7.46	-59.5	-62.7	6.2	0.00e+00	0	38	104	0	85	20686
2026-01-03 15:28:59.10	272.31	7.24	-59.5	-62.6	6.2	0.00e+00	0	39	104	0	85	20599
2026-01-03 15:29:02.10	271.91	7.03	-59.5	-62.7	6.2	0.00e+00	0	38	104	0	85	20824
2026-01-03 15:29:05.10	271.51	6.81	-59.5	-62.7	6.2	0.00e+00	0	39	104	0	85	20677
2026-01-03 15:29:08.08	271.13	6.60	-59.3	-62.4	6.2	0.00e+00	0	38	104	0	85	20131
2026-01-03 15:29:11.08	270.75	6.39	-59.2	-62.4	6.2	0.00e+00	0	38	104	0	85	19993
2026-01-03 15:29:14.09	270.38	6.18	-59.2	-62.4	6.2	0.00e+00	0	38	104	0	85	20083
2026-01-03 15:29:17.09	270.01	5.97	-59.2	-62.4	6.2	0.00e+00	0	39	104	0	85	19998
2026-01-03 15:29:20.10	269.66	5.76	-59.0	-62.2	6.2	0.00e+00	0	38	104	0	84	20641
2026-01-03 15:29:23.09	269.31	5.55	-58.9	-62.1	6.2	0.00e+00	0	38	104	0	84	20591
2026-01-03 15:29:26.08	268.96	5.35	-59.0	-62.2	6.2	0.00e+00	0	38	104	0	84	20654
2026-01-03 15:29:29.07	268.62	5.14	-58.9	-62.1	6.2	0.00e+00	0	38	104	0	84	20575
2026-01-03 15:29:32.07	268.29	4.94	-59.1	-62.3	6.2	0.00e+00	0	39	104	0	84	20964
2026-01-03 15:29:35.07	267.96	4.74	-60.2	-63.4	6.2	0.00e+00	0	38	104	0	85	22499
2026-01-03 15:29:38.05	267.64	4.54	-60.6	-63.8	6.2	0.00e+00	0	38	104	0	86	22240
2026-01-03 15:29:41.05	267.33	4.34	-61.0	-64.1	6.2	0.00e+00	0	38	104	0	87	21852
2026-01-03 15:29:44.03	267.02	4.14	-61.2	-64.4	6.2	0.00e+00	0	39	104	0	87	22413
2026-01-03 15:29:47.03	266.71	3.94	-61.4	-64.5	6.2	0.00e+00	0	38	104	0	88	21510
2026-01-03 15:29:50.01	266.41	3.75	-61.5	-64.7	6.2	0.00e+00	0	38	104	0	88	21886
2026-01-03 15:29:53.00	266.12	3.55	-61.5	-64.7	6.2	0.00e+00	0	38	104	0	88	21907
2026-01-03 15:29:56.00	265.83	3.36	-61.4	-64.6	6.2	0.00e+00	0	38	104	0	88	21664
2026-01-03 15:29:58.99	265.55	3.17	-61.3	-64.5	6.2	0.00e+00	0	38	104	0	88	21509
2026-01-03 15:30:02.00	265.27	2.98	-61.3	-64.4	6.2	0.00e+00	0	38	104	0	88	21323
2026-01-03 15:30:05.00	264.99	2.79	-61.3	-64.4	6.2	0.00e+00	0	39	104	0	88	21349
2026-01-03 15:30:07.99	264.72	2.60	-61.2	-64.4	6.2	0.00e+00	0	38	104	0	88	21258
2026-01-03 15:30:10.99	264.45	2.41	-61.2	-64.4	6.2	0.00e+00	0	38	104	0	88	21175
2026-01-03 15:30:14.00	264.19	2.22	-61.2	-64.4	6.2	0.00e+00	0	39	104	0	88	21150
2026-01-03 15:30:17.00	263.93	2.04	-61.2	-64.4	6.2	0.00e+00	0	39	104	0	88	21161

#Closed at: 2026-01-03 15:30:19
#Recorded file [0 MB]: D:/lorett/data/31004_260103_182050.dat