passes_logs/2026/01/03/R3.2S_Murmansk/R3.2S_Murmansk__20260103_113449_SUOMI_NPP_rec.log

#Pass ID: 20260103_113449_SUOMI NPP
#Satellite: SUOMI NPP
#Configuration: NPP
#almurnet v.1.7.20251203
#Start time: 2026-01-03 11:34:50

#Version: 2.2.20231116
#Station: R3.2S_Murmansk
#Location: 33.079688 lon 68.888172 lat
#TLE: 1 37849U 11061A   26001.07732418  .00000182  00000+0  10735-3 0  9990
#TLE: 2 37849  98.7795 303.2470 0002580  87.2016 272.9455 14.19520779734739

#Time	Az	El	Level	Level2	SNR	BER	BlckErr	Temp	State	Recorded	gain1	gain2
2026-01-03 11:34:50.51	201.47	2.04	-59.8	-75.4	3.8	1.49e+00	0	28	0	0	86	20878
2026-01-03 11:34:54.49	201.71	2.28	-59.8	-75.3	3.8	1.49e+00	0	28	104	0	84	23188
2026-01-03 11:34:58.48	201.95	2.51	-59.8	-75.3	3.8	1.49e+00	0	28	104	0	84	23228
2026-01-03 11:35:02.45	202.19	2.74	-59.8	-75.3	3.8	1.49e+00	0	28	104	0	84	23225
2026-01-03 11:35:06.42	202.44	2.98	-59.8	-75.3	3.8	1.49e+00	0	28	104	0	84	23228
2026-01-03 11:35:10.41	202.70	3.22	-59.8	-75.2	3.8	1.49e+00	0	29	104	0	84	22927
2026-01-03 11:35:14.38	202.95	3.46	-59.8	-75.3	3.8	1.49e+00	0	29	104	0	84	23051
2026-01-03 11:35:18.37	203.21	3.70	-59.8	-75.1	3.8	1.49e+00	0	29	104	0	84	22633
2026-01-03 11:35:22.36	203.48	3.94	-59.8	-75.4	3.8	1.49e+00	0	29	104	0	84	23321
2026-01-03 11:35:26.35	203.75	4.19	-59.7	-73.4	3.8	1.49e+00	0	29	104	0	84	18721
2026-01-03 11:35:30.33	204.02	4.44	-59.5	-70.8	4.5	1.17e+00	0	29	0	2097152	84	13733
2026-01-03 11:35:34.29	204.29	4.68	-59.1	-67.1	6.5	2.33e-01	0	29	0	9437184	84	9034
2026-01-03 11:35:38.28	204.58	4.93	-57.9	-62.7	10.2	1.96e-03	0	29	0	16777216	82	6080
2026-01-03 11:35:42.25	204.86	5.19	-59.6	-71.8	3.9	1.49e+00	0	29	104	23068672	84	15470
2026-01-03 11:35:46.23	205.15	5.44	-55.8	-58.3	13.2	0.00e+00	0	29	0	29360128	78	4604
2026-01-03 11:35:50.20	205.45	5.69	-56.0	-58.6	13.1	0.00e+00	0	29	0	36700160	78	4796
2026-01-03 11:35:54.18	205.75	5.95	-55.9	-58.4	13.2	0.00e+00	0	29	0	44040192	78	4675
2026-01-03 11:35:58.14	206.05	6.21	-55.7	-58.1	13.4	0.00e+00	0	29	0	51380224	78	4531
2026-01-03 11:36:02.12	206.37	6.47	-55.8	-58.2	13.3	0.00e+00	0	29	0	58720256	77	4835
2026-01-03 11:36:06.09	206.68	6.73	-55.6	-57.8	13.5	0.00e+00	0	29	0	67108864	77	4646
2026-01-03 11:36:10.08	207.00	7.00	-55.3	-57.4	13.8	0.00e+00	0	29	0	74448896	77	4408
2026-01-03 11:36:14.06	207.33	7.27	-55.2	-57.2	13.9	0.00e+00	0	29	0	81788928	76	4550
2026-01-03 11:36:18.05	207.67	7.54	-54.8	-56.6	14.2	0.00e+00	0	29	0	89128960	76	4260
2026-01-03 11:36:22.02	208.00	7.81	-54.6	-56.4	14.2	0.00e+00	0	29	0	96468992	75	4396
2026-01-03 11:36:26.00	208.35	8.08	-54.5	-56.3	14.3	0.00e+00	0	29	0	103809024	75	4344
2026-01-03 11:36:29.99	208.70	8.36	-54.5	-56.3	14.3	0.00e+00	0	29	0	111149056	75	4343
2026-01-03 11:36:33.97	209.06	8.64	-54.2	-55.8	14.4	0.00e+00	0	29	0	118489088	74	4365
2026-01-03 11:36:37.94	209.42	8.92	-54.3	-56.0	14.4	0.00e+00	0	30	0	125829120	74	4447
2026-01-03 11:36:41.94	209.80	9.20	-54.3	-56.0	14.3	0.00e+00	0	30	0	134217728	74	4459
2026-01-03 11:36:45.91	210.17	9.48	-54.5	-56.2	14.3	0.00e+00	0	29	0	141557760	74	4564
2026-01-03 11:36:49.88	210.56	9.77	-54.3	-56.0	14.3	0.00e+00	0	30	0	148897792	74	4450
2026-01-03 11:36:53.85	210.95	10.06	-54.3	-56.0	14.4	0.00e+00	0	30	0	156237824	74	4456
2026-01-03 11:36:57.83	211.35	10.35	-53.9	-55.4	14.6	0.00e+00	0	30	0	163577856	74	4191
2026-01-03 11:37:01.78	211.76	10.64	-53.9	-55.3	14.7	0.00e+00	0	30	0	170917888	74	4130
2026-01-03 11:37:05.75	212.17	10.94	-53.8	-55.2	14.7	0.00e+00	0	29	0	178257920	73	4307
2026-01-03 11:37:09.73	212.60	11.23	-54.0	-55.6	14.5	0.00e+00	0	30	0	185597952	73	4515
2026-01-03 11:37:13.71	213.03	11.53	-54.1	-55.7	14.5	0.00e+00	0	30	0	192937984	73	4564
2026-01-03 11:37:17.70	213.47	11.84	-54.2	-55.7	14.5	0.00e+00	0	30	0	201326592	73	4594
2026-01-03 11:37:21.65	213.92	12.14	-54.0	-55.5	14.6	0.00e+00	0	30	0	208666624	73	4488
2026-01-03 11:37:25.61	214.37	12.44	-53.7	-55.1	14.8	0.00e+00	0	30	0	216006656	73	4247
2026-01-03 11:37:29.59	214.84	12.75	-53.6	-55.0	14.8	0.00e+00	0	30	0	223346688	73	4215
2026-01-03 11:37:33.57	215.32	13.06	-54.0	-55.5	14.6	0.00e+00	0	30	0	230686720	73	4469
2026-01-03 11:37:37.55	215.81	13.38	-54.2	-55.8	14.5	0.00e+00	0	30	0	238026752	73	4615
2026-01-03 11:37:41.52	216.30	13.69	-54.1	-55.6	14.5	0.00e+00	0	30	0	245366784	73	4543
2026-01-03 11:37:45.51	216.81	14.01	-54.0	-55.5	14.6	0.00e+00	0	30	0	252706816	73	4465
2026-01-03 11:37:49.50	217.33	14.33	-54.2	-55.7	14.5	0.00e+00	0	30	0	260046848	73	4596
2026-01-03 11:37:53.47	217.86	14.65	-54.3	-55.8	14.6	0.00e+00	0	30	0	268435456	74	4379
2026-01-03 11:37:57.44	218.40	14.98	-54.4	-56.0	14.5	0.00e+00	0	30	0	275775488	74	4466
2026-01-03 11:38:01.40	218.95	15.30	-54.1	-55.6	14.7	0.00e+00	0	30	0	283115520	74	4265
2026-01-03 11:38:05.39	219.52	15.63	-53.8	-55.2	14.9	0.00e+00	0	30	0	290455552	74	4059
2026-01-03 11:38:09.38	220.09	15.96	-53.8	-55.1	14.8	0.00e+00	0	30	0	297795584	73	4286
2026-01-03 11:38:13.39	220.69	16.30	-53.9	-55.4	14.7	0.00e+00	0	30	0	305135616	73	4395
2026-01-03 11:38:17.37	221.29	16.63	-53.7	-55.1	14.8	0.00e+00	0	30	0	312475648	73	4280
2026-01-03 11:38:21.35	221.90	16.96	-53.6	-54.9	14.9	0.00e+00	0	30	0	319815680	73	4180
2026-01-03 11:38:25.32	222.53	17.30	-53.6	-54.9	14.9	0.00e+00	0	30	0	328204288	73	4188
2026-01-03 11:38:29.28	223.17	17.63	-53.6	-54.9	14.9	0.00e+00	0	30	0	335544320	73	4181
2026-01-03 11:38:33.26	223.82	17.97	-53.3	-54.6	15.1	0.00e+00	0	30	0	342884352	73	4029
2026-01-03 11:38:37.22	224.49	18.31	-52.9	-54.1	15.1	0.00e+00	0	30	0	350224384	72	4027
2026-01-03 11:38:41.22	225.18	18.65	-52.7	-53.9	15.1	0.00e+00	0	30	0	357564416	71	4164
2026-01-03 11:38:45.20	225.88	18.99	-52.6	-53.8	15.2	0.00e+00	0	30	0	364904448	71	4107
2026-01-03 11:38:49.18	226.59	19.34	-53.1	-54.4	15.0	0.00e+00	0	30	0	372244480	71	4412
2026-01-03 11:38:53.14	227.32	19.68	-53.0	-54.2	15.1	0.00e+00	0	30	0	379584512	72	4072
2026-01-03 11:38:57.11	228.06	20.02	-52.9	-54.1	15.2	0.00e+00	0	30	0	386924544	72	4030
2026-01-03 11:39:01.09	228.83	20.36	-52.8	-53.9	15.2	0.00e+00	0	30	0	394264576	72	3953
2026-01-03 11:39:05.06	229.60	20.70	-52.8	-53.9	15.2	0.00e+00	0	30	0	402653184	71	4183
2026-01-03 11:39:09.03	230.40	21.04	-52.7	-53.8	15.2	0.00e+00	0	30	0	409993216	71	4144
2026-01-03 11:39:12.99	231.21	21.38	-52.1	-53.2	15.3	0.00e+00	0	30	0	417333248	70	4055
2026-01-03 11:39:16.99	232.04	21.72	-51.9	-52.9	15.4	0.00e+00	0	30	0	424673280	70	3939
2026-01-03 11:39:20.98	232.89	22.05	-51.9	-52.9	15.4	0.00e+00	0	30	0	432013312	70	3957
2026-01-03 11:39:24.96	233.76	22.39	-52.5	-53.6	15.2	0.00e+00	0	30	0	439353344	70	4245
2026-01-03 11:39:28.93	234.64	22.72	-52.7	-53.9	15.1	0.00e+00	0	30	0	446693376	70	4394
2026-01-03 11:39:32.90	235.55	23.05	-52.6	-53.7	15.2	0.00e+00	0	30	0	454033408	70	4337
2026-01-03 11:39:36.89	236.47	23.38	-52.8	-53.9	15.2	0.00e+00	0	30	0	461373440	71	4169
2026-01-03 11:39:40.87	237.41	23.70	-52.9	-54.1	15.1	0.00e+00	0	30	0	469762048	71	4247
2026-01-03 11:39:44.85	238.37	24.02	-53.2	-54.4	15.1	0.00e+00	0	30	0	477102080	72	4177
2026-01-03 11:39:48.82	239.35	24.33	-53.4	-54.7	15.0	0.00e+00	0	30	0	484442112	72	4298
2026-01-03 11:39:52.81	240.35	24.64	-53.2	-54.4	15.1	0.00e+00	0	30	0	491782144	72	4180
2026-01-03 11:39:56.79	241.37	24.95	-53.4	-54.6	15.0	0.00e+00	0	30	0	499122176	72	4271
2026-01-03 11:40:00.77	242.41	25.24	-53.3	-54.5	15.1	0.00e+00	0	30	0	506462208	72	4222
2026-01-03 11:40:04.74	243.46	25.53	-53.3	-54.6	15.0	0.00e+00	0	30	0	513802240	72	4250
2026-01-03 11:40:08.73	244.54	25.82	-53.5	-54.8	14.9	0.00e+00	0	30	0	521142272	72	4349
2026-01-03 11:40:12.71	245.63	26.09	-53.3	-54.5	15.0	0.00e+00	0	30	0	529530880	72	4231
2026-01-03 11:40:16.68	246.74	26.36	-54.1	-55.5	14.8	0.00e+00	0	30	0	536870912	73	4473
2026-01-03 11:40:20.65	247.87	26.62	-53.7	-55.0	15.0	0.00e+00	0	30	0	544210944	74	3993
2026-01-03 11:40:24.63	249.01	26.87	-53.5	-54.7	15.0	0.00e+00	0	30	0	551550976	72	4327
2026-01-03 11:40:28.61	250.18	27.11	-54.2	-55.7	14.7	0.00e+00	0	30	0	558891008	73	4568
2026-01-03 11:40:32.59	251.36	27.33	-53.5	-54.8	15.0	0.00e+00	0	30	0	566231040	73	4115
2026-01-03 11:40:36.56	252.56	27.55	-53.0	-54.2	15.2	0.00e+00	0	30	0	573571072	72	4065
2026-01-03 11:40:40.53	253.77	27.76	-53.8	-55.1	14.9	0.00e+00	0	30	0	580911104	73	4273
2026-01-03 11:40:44.50	254.99	27.95	-53.9	-55.3	14.9	0.00e+00	0	30	0	588251136	73	4362
2026-01-03 11:40:48.49	256.24	28.13	-55.6	-57.4	14.1	0.00e+00	0	30	0	595591168	76	4691
2026-01-03 11:40:52.49	257.50	28.30	-55.4	-57.1	14.3	0.00e+00	0	30	0	603979776	76	4542
2026-01-03 11:40:56.47	258.77	28.45	-56.1	-58.1	13.9	0.00e+00	0	30	0	611319808	78	4535
2026-01-03 11:41:00.45	260.05	28.59	-56.5	-58.8	13.5	0.00e+00	0	30	0	618659840	78	4887
2026-01-03 11:41:04.42	261.33	28.71	-54.9	-56.5	14.5	0.00e+00	0	30	0	625999872	76	4218
2026-01-03 11:41:08.39	262.63	28.82	-55.6	-57.4	14.2	0.00e+00	0	30	0	633339904	76	4703
2026-01-03 11:41:12.38	263.94	28.92	-54.9	-56.5	14.5	0.00e+00	0	30	0	640679936	75	4472
2026-01-03 11:41:16.37	265.25	29.00	-54.5	-55.9	14.7	0.00e+00	0	30	0	648019968	75	4184
2026-01-03 11:41:20.34	266.57	29.06	-54.5	-56.0	14.6	0.00e+00	0	30	0	655360000	74	4482
2026-01-03 11:41:24.33	267.90	29.10	-54.2	-55.7	14.8	0.00e+00	0	30	0	663748608	74	4297
2026-01-03 11:41:28.32	269.23	29.13	-54.6	-56.1	14.6	0.00e+00	0	30	0	671088640	74	4531
2026-01-03 11:41:32.31	270.56	29.15	-54.6	-56.1	14.6	0.00e+00	0	30	0	678428672	74	4529
2026-01-03 11:41:36.28	271.88	29.14	-54.2	-55.5	14.9	0.00e+00	0	30	0	685768704	74	4239
2026-01-03 11:41:40.27	273.21	29.13	-54.7	-56.3	14.5	0.00e+00	0	30	0	693108736	74	4631
2026-01-03 11:41:44.27	274.55	29.09	-55.6	-57.4	14.1	0.00e+00	0	30	0	700448768	76	4699
2026-01-03 11:41:48.25	275.87	29.04	-54.8	-56.3	14.7	0.00e+00	0	30	0	707788800	76	4142
2026-01-03 11:41:52.23	277.18	28.97	-54.5	-56.0	14.7	0.00e+00	0	30	0	715128832	74	4453
2026-01-03 11:41:56.21	278.49	28.88	-56.1	-58.2	13.9	0.00e+00	0	30	0	723517440	77	4817
2026-01-03 11:42:00.19	279.79	28.78	-55.9	-57.8	14.0	0.00e+00	0	30	0	730857472	77	4637
2026-01-03 11:42:04.17	281.09	28.67	-56.3	-58.4	13.8	0.00e+00	0	30	0	738197504	77	4976
2026-01-03 11:42:08.14	282.37	28.54	-57.8	-61.0	12.4	1.50e-06	0	30	0	745537536	81	5330
2026-01-03 11:42:12.10	283.64	28.40	-56.8	-59.2	13.4	0.00e+00	0	30	0	752877568	79	4855
2026-01-03 11:42:16.11	284.91	28.24	-55.5	-57.3	14.3	0.00e+00	0	30	0	760217600	77	4345
2026-01-03 11:42:20.09	286.16	28.07	-55.9	-57.9	14.0	0.00e+00	0	30	0	767557632	77	4654
2026-01-03 11:42:24.06	287.39	27.88	-55.5	-57.3	14.3	0.00e+00	0	30	0	774897664	76	4631
2026-01-03 11:42:28.04	288.61	27.68	-54.4	-55.8	14.8	0.00e+00	0	30	0	782237696	75	4107
2026-01-03 11:42:32.02	289.81	27.48	-55.1	-56.8	14.4	0.00e+00	0	30	0	790626304	75	4618
2026-01-03 11:42:36.01	291.01	27.25	-54.8	-56.3	14.7	0.00e+00	0	30	0	797966336	76	4112
2026-01-03 11:42:40.00	292.18	27.02	-54.4	-55.8	14.8	0.00e+00	0	30	0	805306368	75	4130
2026-01-03 11:42:43.99	293.34	26.78	-54.2	-55.6	14.9	0.00e+00	0	30	0	812646400	74	4279
2026-01-03 11:42:47.96	294.48	26.53	-54.1	-55.5	14.9	0.00e+00	0	30	0	819986432	74	4224
2026-01-03 11:42:51.94	295.60	26.27	-53.9	-55.2	14.9	0.00e+00	0	30	0	827326464	73	4313
2026-01-03 11:42:55.93	296.70	26.00	-54.4	-55.9	14.7	0.00e+00	0	30	0	834666496	74	4402
2026-01-03 11:42:59.90	297.78	25.72	-54.5	-55.9	14.7	0.00e+00	0	30	0	842006528	74	4430
2026-01-03 11:43:03.91	298.85	25.43	-53.2	-54.4	15.2	0.00e+00	0	30	0	850395136	73	3915
2026-01-03 11:43:07.86	299.89	25.14	-53.7	-55.0	14.9	0.00e+00	0	30	0	857735168	72	4490
2026-01-03 11:43:11.84	300.92	24.84	-54.3	-55.8	14.7	0.00e+00	0	30	0	865075200	74	4341
2026-01-03 11:43:15.80	301.92	24.54	-53.7	-54.9	15.0	0.00e+00	0	30	0	872415232	73	4191
2026-01-03 11:43:19.80	302.91	24.23	-52.9	-54.0	15.3	0.00e+00	0	30	0	879755264	72	4000
2026-01-03 11:43:23.78	303.88	23.92	-52.9	-54.0	15.2	0.00e+00	0	30	0	887095296	71	4215
2026-01-03 11:43:27.75	304.83	23.60	-53.4	-54.6	15.0	0.00e+00	0	30	0	894435328	72	4281
2026-01-03 11:43:31.73	305.76	23.28	-53.0	-54.1	15.2	0.00e+00	0	30	0	901775360	72	4020
2026-01-03 11:43:35.72	306.68	22.95	-53.9	-55.3	14.9	0.00e+00	0	30	0	910163968	73	4349
2026-01-03 11:43:39.70	307.57	22.62	-52.9	-54.0	15.3	0.00e+00	0	30	0	917504000	72	3973
2026-01-03 11:43:43.68	308.45	22.29	-54.1	-55.5	14.8	0.00e+00	0	30	0	924844032	73	4464
2026-01-03 11:43:47.66	309.31	21.96	-53.2	-54.4	15.1	0.00e+00	0	30	0	932184064	72	4146
2026-01-03 11:43:51.64	310.15	21.62	-53.8	-55.1	14.9	0.00e+00	0	30	0	939524096	72	4502
2026-01-03 11:43:55.66	310.98	21.28	-53.4	-54.7	15.1	0.00e+00	0	30	0	946864128	73	4052
2026-01-03 11:43:59.64	311.78	20.94	-54.2	-55.7	14.7	0.00e+00	0	30	0	954204160	73	4557
2026-01-03 11:44:03.62	312.57	20.60	-53.8	-55.1	15.0	0.00e+00	0	30	0	961544192	74	4022
2026-01-03 11:44:07.59	313.34	20.26	-53.3	-54.5	15.1	0.00e+00	0	31	0	968884224	72	4217
2026-01-03 11:44:11.57	314.09	19.92	-54.9	-56.5	14.4	0.00e+00	0	30	0	977272832	74	4744
2026-01-03 11:44:15.56	314.83	19.58	-53.8	-55.2	15.0	0.00e+00	0	30	0	984612864	74	4055
2026-01-03 11:44:19.52	315.55	19.25	-53.9	-55.3	14.8	2.20e-06	0	30	0	991952896	73	4365
2026-01-03 11:44:23.52	316.26	18.90	-53.3	-54.5	15.1	0.00e+00	0	30	0	999292928	73	4002
2026-01-03 11:44:27.47	316.95	18.57	-53.1	-54.2	15.1	0.00e+00	0	30	0	1006632960	72	4092
2026-01-03 11:44:31.47	317.63	18.23	-53.3	-54.5	15.0	0.00e+00	0	30	0	1013972992	72	4224
2026-01-03 11:44:35.44	318.29	17.89	-53.3	-54.5	15.0	0.00e+00	0	30	0	1021313024	72	4221
2026-01-03 11:44:39.42	318.94	17.56	-54.3	-55.8	14.6	0.00e+00	0	30	0	1028653056	73	4632
2026-01-03 11:44:43.41	319.58	17.22	-54.1	-55.6	14.8	0.00e+00	0	30	0	1037041664	74	4251
2026-01-03 11:44:47.39	320.20	16.89	-53.5	-54.8	15.0	0.00e+00	0	30	0	1044381696	73	4129
2026-01-03 11:44:51.36	320.80	16.56	-53.2	-54.4	15.0	0.00e+00	0	30	0	1051721728	72	4154
2026-01-03 11:44:55.34	321.40	16.23	-52.6	-53.7	15.3	0.00e+00	0	30	0	1059061760	71	4056
2026-01-03 11:44:59.31	321.98	15.90	-52.9	-54.1	15.1	0.00e+00	0	30	0	1066401792	71	4246
2026-01-03 11:45:03.28	322.55	15.57	-53.5	-54.8	14.9	0.00e+00	0	30	0	1073741824	72	4377
2026-01-03 11:45:07.26	323.11	15.25	-54.0	-55.4	14.7	0.00e+00	0	30	0	1081081856	73	4439
2026-01-03 11:45:11.25	323.66	14.92	-53.7	-55.0	14.9	3.00e-06	0	30	0	1088421888	73	4241
2026-01-03 11:45:15.20	324.19	14.60	-53.4	-54.7	15.0	0.00e+00	0	30	0	1095761920	73	4052
2026-01-03 11:45:19.20	324.72	14.28	-53.4	-54.7	15.0	0.00e+00	0	30	0	1104150528	73	4068
2026-01-03 11:45:23.20	325.23	13.96	-53.5	-54.8	14.9	0.00e+00	0	31	0	1111490560	73	4121
2026-01-03 11:45:27.19	325.74	13.65	-53.2	-54.4	15.0	0.00e+00	0	30	0	1118830592	72	4178
2026-01-03 11:45:31.17	326.23	13.34	-53.2	-54.4	15.0	0.00e+00	0	30	0	1126170624	72	4182
2026-01-03 11:45:35.14	326.71	13.03	-53.6	-55.0	14.8	0.00e+00	0	30	0	1133510656	72	4446
2026-01-03 11:45:39.12	327.19	12.72	-54.0	-55.4	14.6	0.00e+00	0	30	0	1140850688	73	4429
2026-01-03 11:45:43.10	327.65	12.41	-54.1	-55.6	14.6	0.00e+00	0	30	0	1148190720	73	4500
2026-01-03 11:45:47.10	328.11	12.11	-54.1	-55.7	14.5	0.00e+00	0	30	0	1155530752	73	4561
2026-01-03 11:45:51.08	328.56	11.80	-54.5	-56.2	14.3	1.83e-05	0	30	0	1163919360	74	4575
2026-01-03 11:45:55.05	328.99	11.50	-54.4	-56.0	14.4	0.00e+00	0	30	0	1171259392	74	4493
2026-01-03 11:45:59.04	329.42	11.21	-54.2	-55.8	14.5	0.00e+00	0	30	0	1178599424	74	4372
2026-01-03 11:46:03.02	329.85	10.91	-53.7	-55.1	14.8	0.00e+00	0	30	0	1185939456	73	4279
2026-01-03 11:46:07.01	330.26	10.62	-54.2	-55.8	14.4	0.00e+00	0	30	0	1193279488	73	4624
2026-01-03 11:46:10.98	330.66	10.33	-54.8	-56.6	14.2	0.00e+00	0	30	0	1200619520	74	4785
2026-01-03 11:46:14.96	331.06	10.04	-54.9	-56.8	14.1	0.00e+00	0	30	0	1207959552	75	4632
2026-01-03 11:46:18.93	331.45	9.75	-54.7	-56.5	14.2	0.00e+00	0	30	0	1215299584	75	4481
2026-01-03 11:46:22.91	331.84	9.47	-54.7	-56.4	14.3	7.00e-07	0	30	0	1223688192	75	4439
2026-01-03 11:46:26.89	332.21	9.19	-54.9	-56.7	14.1	0.00e+00	0	30	0	1231028224	75	4595
2026-01-03 11:46:30.88	332.58	8.91	-55.4	-57.4	13.8	0.00e+00	0	30	0	1238368256	76	4699
2026-01-03 11:46:34.85	332.95	8.63	-55.7	-57.9	13.5	0.00e+00	0	30	0	1245708288	76	4959
2026-01-03 11:46:38.84	333.30	8.36	-55.7	-58.0	13.6	0.00e+00	0	30	0	1253048320	77	4706
2026-01-03 11:46:42.83	333.65	8.08	-55.2	-57.2	13.9	0.00e+00	0	30	0	1260388352	76	4563
2026-01-03 11:46:46.80	334.00	7.81	-54.9	-56.7	14.1	0.00e+00	0	30	0	1267728384	76	4327
2026-01-03 11:46:50.79	334.34	7.54	-54.5	-56.3	14.3	0.00e+00	0	30	0	1275068416	75	4359
2026-01-03 11:46:54.78	334.67	7.27	-54.7	-56.5	14.1	7.00e-07	0	30	0	1282408448	75	4492
2026-01-03 11:46:58.76	335.00	7.01	-54.5	-56.3	14.3	0.00e+00	0	30	0	1290797056	75	4368
2026-01-03 11:47:02.74	335.32	6.74	-54.6	-56.5	14.1	0.00e+00	0	30	0	1298137088	75	4477
2026-01-03 11:47:06.73	335.63	6.48	-54.6	-56.4	14.2	0.00e+00	0	30	0	1305477120	75	4433
2026-01-03 11:47:10.71	335.95	6.22	-54.6	-56.6	14.0	0.00e+00	0	30	0	1312817152	75	4504
2026-01-03 11:47:14.68	336.25	5.97	-54.7	-56.6	14.0	1.50e-06	0	30	0	1320157184	75	4515
2026-01-03 11:47:18.67	336.55	5.71	-54.9	-56.9	13.8	0.00e+00	0	30	0	1327497216	75	4676
2026-01-03 11:47:22.65	336.85	5.46	-55.1	-57.2	13.6	0.00e+00	0	30	0	1334837248	75	4857
2026-01-03 11:47:26.61	337.14	5.21	-55.6	-58.0	13.2	0.00e+00	0	30	0	1342177280	76	5002
2026-01-03 11:47:30.60	337.42	4.96	-60.3	-75.8	3.8	1.49e+00	0	30	104	1348468736	85	23108
2026-01-03 11:47:34.63	337.71	4.71	-61.3	-76.9	3.8	1.49e+00	0	30	104	1348468736	87	23450
2026-01-03 11:47:38.65	337.99	4.46	-61.7	-77.3	3.8	1.49e+00	0	30	104	1348468736	88	23088
2026-01-03 11:47:42.66	338.26	4.21	-61.8	-77.4	3.8	1.49e+00	0	30	104	1348468736	88	23551
2026-01-03 11:47:46.67	338.53	3.97	-61.9	-77.5	3.8	1.49e+00	0	30	104	1348468736	89	22490
2026-01-03 11:47:50.69	338.80	3.72	-61.9	-77.6	3.8	1.49e+00	0	30	104	1348468736	89	22597
2026-01-03 11:47:54.71	339.07	3.48	-61.9	-77.5	3.8	1.49e+00	0	30	104	1348468736	89	22361
2026-01-03 11:47:58.73	339.33	3.24	-61.8	-77.5	3.8	1.49e+00	0	30	104	1348468736	89	22322
2026-01-03 11:48:02.72	339.58	3.01	-61.8	-77.4	3.8	1.49e+00	0	30	104	1348468736	89	22104
2026-01-03 11:48:06.74	339.83	2.77	-61.8	-77.4	3.8	1.49e+00	0	30	104	1348468736	89	22114
2026-01-03 11:48:10.75	340.08	2.53	-61.7	-77.4	3.8	1.49e+00	0	30	104	1348468736	89	22008
2026-01-03 11:48:14.76	340.32	2.30	-61.7	-77.3	3.8	1.49e+00	0	30	104	1348468736	89	21917
2026-01-03 11:48:18.76	340.56	2.07	-61.7	-77.3	3.8	1.49e+00	0	31	104	1348468736	89	21925

#Closed at: 2026-01-03 11:48:22
#Recorded file [1348 MB]: D:/lorett/data/31004_260103_143450.dat