passes_logs/2026/01/03/R3.2S_Murmansk/R3.2S_Murmansk__20260103_131836_SUOMI_NPP_rec.log

#Pass ID: 20260103_131836_SUOMI NPP
#Satellite: SUOMI NPP
#Configuration: NPP
#almurnet v.1.7.20251203
#Start time: 2026-01-03 13:18:36

#Version: 2.2.20231116
#Station: R3.2S_Murmansk
#Location: 33.079688 lon 68.888172 lat
#TLE: 1 37849U 11061A   26001.07732418  .00000182  00000+0  10735-3 0  9990
#TLE: 2 37849  98.7795 303.2470 0002580  87.2016 272.9455 14.19520779734739

#Time	Az	El	Level	Level2	SNR	BER	BlckErr	Temp	State	Recorded	gain1	gain2
2026-01-03 13:18:36.16	249.91	1.99	-60.1	-75.6	3.8	1.49e+00	0	32	0	0	86	21484
2026-01-03 13:18:39.18	250.23	2.12	-59.9	-75.5	3.8	1.49e+00	0	31	104	0	85	22375
2026-01-03 13:18:42.21	250.55	2.24	-59.9	-75.6	3.8	1.49e+00	0	31	104	0	85	22552
2026-01-03 13:18:45.23	250.87	2.37	-59.9	-75.5	3.8	1.49e+00	0	31	104	0	85	22430
2026-01-03 13:18:48.25	251.19	2.49	-59.9	-75.5	3.8	1.49e+00	0	31	104	0	85	22299
2026-01-03 13:18:51.28	251.52	2.62	-60.0	-75.6	3.8	1.49e+00	0	31	104	0	85	22529
2026-01-03 13:18:54.31	251.85	2.74	-60.0	-75.5	3.8	1.49e+00	0	31	104	0	85	22438
2026-01-03 13:18:57.33	252.19	2.87	-60.0	-75.5	3.8	1.49e+00	0	31	104	0	85	22304
2026-01-03 13:19:00.35	252.52	2.99	-60.0	-75.5	3.8	1.49e+00	0	31	104	0	85	22404
2026-01-03 13:19:03.37	252.86	3.11	-60.0	-75.5	3.8	1.49e+00	0	31	104	0	85	22449
2026-01-03 13:19:06.40	253.20	3.24	-60.0	-75.5	3.8	1.49e+00	0	31	104	0	85	22420
2026-01-03 13:19:09.42	253.54	3.36	-60.0	-75.4	3.8	1.49e+00	0	31	104	0	85	22160
2026-01-03 13:19:12.45	253.89	3.48	-60.0	-75.5	3.8	1.49e+00	0	31	104	0	85	22295
2026-01-03 13:19:15.47	254.24	3.61	-60.0	-75.5	3.8	1.49e+00	0	31	104	0	85	22343
2026-01-03 13:19:18.50	254.59	3.73	-60.0	-75.5	3.8	1.49e+00	0	31	104	0	85	22452
2026-01-03 13:19:21.51	254.95	3.85	-59.9	-75.3	3.8	1.49e+00	0	31	104	0	85	21967
2026-01-03 13:19:24.54	255.31	3.97	-59.9	-75.4	3.8	1.49e+00	0	31	104	0	85	22073
2026-01-03 13:19:27.57	255.67	4.09	-60.0	-75.5	3.8	1.49e+00	0	31	104	0	85	22349
2026-01-03 13:19:30.60	256.03	4.22	-59.9	-75.2	3.8	1.49e+00	0	31	104	0	85	21524
2026-01-03 13:19:33.62	256.40	4.34	-59.9	-75.2	3.8	1.49e+00	0	31	104	0	85	21534
2026-01-03 13:19:36.64	256.77	4.46	-59.9	-74.7	3.8	1.49e+00	0	31	104	0	85	20397
2026-01-03 13:19:39.66	257.14	4.58	-59.9	-75.3	3.8	1.49e+00	0	31	104	0	85	21873
2026-01-03 13:19:42.69	257.51	4.70	-59.8	-73.4	3.9	1.49e+00	0	31	104	0	85	17509
2026-01-03 13:19:45.71	257.89	4.82	-59.7	-70.6	4.6	1.09e+00	0	31	0	2097152	85	12806
2026-01-03 13:19:48.73	258.27	4.93	-58.9	-65.2	8.3	9.35e-02	0	31	0	7340032	84	7238
2026-01-03 13:19:51.76	258.66	5.05	-59.2	-67.6	6.3	1.30e-04	0	31	0	13631488	83	10099
2026-01-03 13:19:54.78	259.04	5.17	-59.3	-68.8	5.6	3.08e-04	0	31	0	18874368	83	11594
2026-01-03 13:19:57.80	259.43	5.29	-55.4	-57.6	13.7	0.00e+00	0	31	0	24117248	77	4513
2026-01-03 13:20:00.81	259.82	5.40	-55.4	-57.6	13.7	0.00e+00	0	31	0	30408704	77	4505
2026-01-03 13:20:03.83	260.22	5.52	-55.4	-57.7	13.7	0.00e+00	0	31	0	35651584	77	4550
2026-01-03 13:20:06.86	260.62	5.63	-55.5	-57.7	13.7	0.00e+00	0	31	0	41943040	77	4556
2026-01-03 13:20:09.89	261.02	5.75	-55.3	-57.3	13.9	0.00e+00	0	31	0	47185920	77	4391
2026-01-03 13:20:12.91	261.43	5.86	-55.2	-57.3	13.8	0.00e+00	0	31	0	52428800	76	4632
2026-01-03 13:20:15.93	261.83	5.97	-55.3	-57.4	13.7	0.00e+00	0	31	0	58720256	76	4690
2026-01-03 13:20:18.95	262.24	6.09	-55.2	-57.3	13.8	0.00e+00	0	30	0	63963136	76	4634
2026-01-03 13:20:21.97	262.66	6.20	-55.1	-57.1	13.9	0.00e+00	0	31	0	70254592	76	4543
2026-01-03 13:20:25.00	263.08	6.31	-55.3	-57.4	13.8	0.00e+00	0	30	0	75497472	76	4693
2026-01-03 13:20:28.01	263.49	6.42	-55.5	-57.7	13.6	0.00e+00	0	31	0	80740352	76	4864
2026-01-03 13:20:31.03	263.92	6.53	-55.5	-57.7	13.6	0.00e+00	0	30	0	87031808	76	4843
2026-01-03 13:20:34.04	264.34	6.63	-55.3	-57.4	13.8	0.00e+00	0	30	0	92274688	76	4696
2026-01-03 13:20:37.06	264.77	6.74	-55.2	-57.2	13.9	0.00e+00	0	31	0	98566144	76	4595
2026-01-03 13:20:40.08	265.20	6.85	-55.3	-57.4	13.8	0.00e+00	0	30	0	103809024	76	4698
2026-01-03 13:20:43.10	265.64	6.95	-55.6	-57.9	13.5	0.00e+00	0	31	0	109051904	76	4944
2026-01-03 13:20:46.13	266.07	7.06	-55.7	-58.1	13.4	0.00e+00	0	30	0	115343360	76	5085
2026-01-03 13:20:49.15	266.52	7.16	-55.5	-57.8	13.5	0.00e+00	0	30	0	120586240	76	4880
2026-01-03 13:20:52.17	266.96	7.26	-55.1	-57.2	13.8	0.00e+00	0	30	0	126877696	76	4557
2026-01-03 13:20:55.19	267.41	7.36	-55.4	-57.8	13.4	0.00e+00	0	30	0	132120576	76	4875
2026-01-03 13:20:58.21	267.86	7.47	-56.7	-60.4	11.6	3.00e-06	0	30	0	137363456	78	5896
2026-01-03 13:21:01.24	268.31	7.56	-57.5	-62.9	9.5	2.77e-03	0	31	0	143654912	80	6976
2026-01-03 13:21:04.26	268.77	7.66	-57.8	-64.6	7.8	3.12e-02	0	30	0	148897792	80	8479
2026-01-03 13:21:07.28	269.22	7.76	-57.9	-64.5	8.0	6.06e-02	0	30	0	155189248	81	7903
2026-01-03 13:21:10.29	269.68	7.86	-57.6	-63.2	9.1	1.39e-02	0	30	0	160432128	81	6869
2026-01-03 13:21:13.32	270.15	7.95	-57.1	-61.1	11.2	1.60e-04	0	30	0	165675008	80	5663
2026-01-03 13:21:16.34	270.62	8.04	-56.4	-59.4	12.6	2.20e-06	0	30	0	171966464	79	4933
2026-01-03 13:21:19.36	271.09	8.13	-55.9	-58.4	13.3	0.00e+00	0	30	0	177209344	78	4685
2026-01-03 13:21:22.38	271.56	8.23	-55.4	-57.5	13.8	0.00e+00	0	30	0	183500800	77	4486
2026-01-03 13:21:25.41	272.04	8.31	-55.5	-57.6	13.7	0.00e+00	0	30	0	188743680	77	4541
2026-01-03 13:21:28.43	272.52	8.40	-55.5	-57.7	13.8	0.00e+00	0	30	0	193986560	77	4550
2026-01-03 13:21:31.45	273.00	8.49	-55.7	-57.9	13.6	0.00e+00	0	30	0	200278016	77	4704
2026-01-03 13:21:34.48	273.48	8.57	-55.4	-57.5	13.9	0.00e+00	0	30	0	205520896	77	4451
2026-01-03 13:21:37.50	273.97	8.66	-55.0	-56.8	14.1	0.00e+00	0	30	0	211812352	76	4384
2026-01-03 13:21:40.53	274.46	8.74	-55.1	-57.0	14.0	0.00e+00	0	30	0	217055232	76	4477
2026-01-03 13:21:43.55	274.95	8.82	-55.5	-57.6	13.7	0.00e+00	0	30	0	222298112	76	4805
2026-01-03 13:21:46.57	275.45	8.90	-55.6	-57.7	13.7	0.00e+00	0	30	0	228589568	76	4846
2026-01-03 13:21:49.60	275.95	8.98	-55.7	-57.9	13.6	0.00e+00	0	30	0	233832448	76	4951
2026-01-03 13:21:52.62	276.45	9.05	-55.6	-57.8	13.6	0.00e+00	0	30	0	240123904	76	4905
2026-01-03 13:21:55.64	276.95	9.13	-55.6	-57.7	13.7	0.00e+00	0	30	0	245366784	76	4826
2026-01-03 13:21:58.67	277.46	9.20	-55.2	-57.1	14.0	0.00e+00	0	30	0	251658240	76	4531
2026-01-03 13:22:01.70	277.96	9.27	-55.2	-57.1	14.0	0.00e+00	0	30	0	256901120	76	4514
2026-01-03 13:22:04.71	278.47	9.34	-55.6	-57.7	13.7	0.00e+00	0	30	0	262144000	76	4862
2026-01-03 13:22:07.74	278.99	9.41	-56.2	-58.6	13.3	0.00e+00	0	30	0	268435456	77	5066
2026-01-03 13:22:10.76	279.50	9.47	-56.4	-58.9	13.2	0.00e+00	0	30	0	273678336	78	4942
2026-01-03 13:22:13.79	280.02	9.53	-55.6	-57.7	13.8	0.00e+00	0	30	0	279969792	77	4569
2026-01-03 13:22:16.81	280.54	9.60	-55.4	-57.4	14.0	0.00e+00	0	30	0	285212672	77	4437
2026-01-03 13:22:19.83	281.06	9.65	-55.8	-58.1	13.6	0.00e+00	0	30	0	290455552	77	4766
2026-01-03 13:22:22.85	281.58	9.71	-55.5	-57.5	13.9	0.00e+00	0	30	0	296747008	77	4492
2026-01-03 13:22:25.87	282.10	9.77	-55.2	-57.1	14.1	0.00e+00	0	30	0	301989888	76	4532
2026-01-03 13:22:28.90	282.63	9.82	-55.5	-57.6	13.8	0.00e+00	0	30	0	308281344	76	4775
2026-01-03 13:22:31.92	283.16	9.87	-55.9	-58.1	13.6	0.00e+00	0	30	0	313524224	77	4790
2026-01-03 13:22:34.94	283.69	9.92	-55.5	-57.4	14.0	0.00e+00	0	30	0	318767104	77	4425
2026-01-03 13:22:37.96	284.22	9.97	-55.6	-57.7	13.9	0.00e+00	0	30	0	325058560	77	4550
2026-01-03 13:22:40.99	284.75	10.02	-56.2	-58.5	13.4	0.00e+00	0	30	0	330301440	77	5004
2026-01-03 13:22:44.01	285.29	10.06	-55.8	-57.8	13.8	0.00e+00	0	30	0	336592896	77	4633
2026-01-03 13:22:47.04	285.83	10.10	-55.4	-57.3	14.1	0.00e+00	0	30	0	341835776	77	4385
2026-01-03 13:22:50.05	286.36	10.14	-55.8	-57.9	13.8	0.00e+00	0	30	0	347078656	77	4674
2026-01-03 13:22:53.07	286.90	10.18	-55.9	-58.1	13.6	0.00e+00	0	30	0	353370112	77	4791
2026-01-03 13:22:56.09	287.44	10.21	-56.2	-58.4	13.5	0.00e+00	0	30	0	358612992	77	4971
2026-01-03 13:22:59.12	287.98	10.24	-57.1	-60.1	12.6	0.00e+00	0	30	0	364904448	79	5361
2026-01-03 13:23:02.14	288.52	10.28	-57.4	-60.5	12.3	0.00e+00	0	30	0	370147328	80	5293
2026-01-03 13:23:05.16	289.07	10.30	-56.8	-59.4	13.1	0.00e+00	0	30	0	375390208	80	4693
2026-01-03 13:23:08.19	289.61	10.33	-56.6	-59.1	13.2	0.00e+00	0	30	0	381681664	79	4796
2026-01-03 13:23:11.22	290.16	10.35	-56.8	-59.4	13.0	0.00e+00	0	30	0	386924544	79	4980
2026-01-03 13:23:14.23	290.70	10.37	-56.5	-59.0	13.3	0.00e+00	0	30	0	393216000	79	4737
2026-01-03 13:23:17.26	291.25	10.39	-56.3	-58.7	13.5	0.00e+00	0	30	0	398458880	79	4554
2026-01-03 13:23:20.27	291.80	10.41	-56.3	-58.7	13.5	0.00e+00	0	30	0	403701760	79	4548
2026-01-03 13:23:23.30	292.35	10.43	-56.1	-58.3	13.6	0.00e+00	0	30	0	409993216	78	4640
2026-01-03 13:23:26.32	292.90	10.44	-55.8	-57.8	13.9	0.00e+00	0	30	0	415236096	78	4387
2026-01-03 13:23:29.34	293.44	10.45	-55.7	-57.7	13.8	0.00e+00	0	30	0	421527552	77	4565
2026-01-03 13:23:32.37	294.00	10.46	-55.6	-57.6	13.9	0.00e+00	0	30	0	426770432	77	4512
2026-01-03 13:23:35.39	294.54	10.46	-55.4	-57.3	14.0	0.00e+00	0	30	0	432013312	77	4372
2026-01-03 13:23:38.41	295.09	10.46	-55.5	-57.4	14.0	0.00e+00	0	30	0	438304768	77	4425
2026-01-03 13:23:41.44	295.65	10.47	-55.6	-57.6	13.9	0.00e+00	0	30	0	443547648	77	4539
2026-01-03 13:23:44.46	296.19	10.46	-55.3	-57.2	14.1	0.00e+00	0	30	0	449839104	77	4309
2026-01-03 13:23:47.49	296.75	10.46	-55.0	-56.8	14.2	0.00e+00	0	30	0	455081984	76	4355
2026-01-03 13:23:50.51	297.29	10.45	-55.0	-56.8	14.2	0.00e+00	0	30	0	460324864	76	4364
2026-01-03 13:23:53.53	297.84	10.45	-55.0	-56.8	14.2	0.00e+00	0	30	0	466616320	76	4378
2026-01-03 13:23:56.55	298.39	10.43	-54.5	-56.2	14.4	0.00e+00	0	30	0	471859200	75	4314
2026-01-03 13:23:59.58	298.94	10.42	-54.8	-56.6	14.2	0.00e+00	0	30	0	478150656	75	4518
2026-01-03 13:24:02.60	299.49	10.41	-55.1	-57.0	14.0	0.00e+00	0	30	0	483393536	75	4719
2026-01-03 13:24:05.62	300.03	10.39	-54.7	-56.5	14.2	0.00e+00	0	30	0	489684992	75	4448
2026-01-03 13:24:08.64	300.58	10.37	-54.7	-56.5	14.3	0.00e+00	0	30	0	494927872	75	4472
2026-01-03 13:24:11.67	301.13	10.35	-54.9	-56.7	14.2	0.00e+00	0	30	0	500170752	75	4559
2026-01-03 13:24:14.69	301.67	10.32	-54.7	-56.5	14.3	0.00e+00	0	30	0	506462208	75	4475
2026-01-03 13:24:17.71	302.22	10.30	-54.5	-56.1	14.4	0.00e+00	0	30	0	511705088	75	4284
2026-01-03 13:24:20.73	302.76	10.27	-54.5	-56.2	14.4	0.00e+00	0	30	0	517996544	75	4326
2026-01-03 13:24:23.75	303.30	10.24	-54.5	-56.2	14.4	0.00e+00	0	30	0	523239424	75	4317
2026-01-03 13:24:26.78	303.84	10.20	-54.0	-55.6	14.6	0.00e+00	0	30	0	528482304	74	4244
2026-01-03 13:24:29.81	304.38	10.17	-53.7	-55.1	14.8	0.00e+00	0	30	0	534773760	74	4047
2026-01-03 13:24:32.83	304.92	10.13	-54.0	-55.5	14.6	0.00e+00	0	30	0	540016640	73	4461
2026-01-03 13:24:35.84	305.45	10.09	-54.2	-55.7	14.3	0.00e+00	0	30	0	546308096	73	4596
2026-01-03 13:24:38.86	305.99	10.05	-54.0	-55.6	14.5	0.00e+00	0	30	0	551550976	73	4501
2026-01-03 13:24:41.89	306.52	10.00	-54.0	-55.5	14.5	0.00e+00	0	30	0	556793856	73	4460
2026-01-03 13:24:44.92	307.06	9.96	-54.1	-55.7	14.4	0.00e+00	0	30	0	563085312	73	4587
2026-01-03 13:24:47.95	307.59	9.91	-54.2	-55.9	14.4	0.00e+00	0	30	0	568328192	73	4657
2026-01-03 13:24:50.97	308.12	9.86	-54.1	-55.6	14.5	0.00e+00	0	30	0	574619648	73	4531
2026-01-03 13:24:53.98	308.64	9.81	-54.3	-55.9	14.3	0.00e+00	0	30	0	579862528	73	4676
2026-01-03 13:24:57.01	309.17	9.75	-54.7	-56.5	14.1	0.00e+00	0	30	0	585105408	74	4734
2026-01-03 13:25:00.04	309.69	9.70	-54.8	-56.7	14.1	0.00e+00	0	30	0	591396864	75	4570
2026-01-03 13:25:03.06	310.21	9.64	-54.5	-56.2	14.4	0.00e+00	0	30	0	596639744	75	4322
2026-01-03 13:25:06.08	310.73	9.58	-54.2	-55.9	14.4	0.00e+00	0	30	0	602931200	74	4395
2026-01-03 13:25:09.10	311.25	9.52	-53.8	-55.3	14.7	0.00e+00	0	30	0	608174080	74	4119
2026-01-03 13:25:12.12	311.76	9.45	-53.2	-54.5	14.9	0.00e+00	0	30	0	613416960	73	3990
2026-01-03 13:25:15.15	312.27	9.39	-53.0	-54.3	14.9	0.00e+00	0	30	0	619708416	72	4099
2026-01-03 13:25:18.17	312.78	9.32	-53.2	-54.6	14.8	0.00e+00	0	30	0	624951296	72	4254
2026-01-03 13:25:21.18	313.29	9.25	-53.6	-55.1	14.6	0.00e+00	0	30	0	631242752	72	4509
2026-01-03 13:25:24.20	313.79	9.18	-53.8	-55.3	14.5	0.00e+00	0	30	0	636485632	72	4618
2026-01-03 13:25:27.21	314.30	9.11	-53.7	-55.3	14.6	0.00e+00	0	30	0	641728512	73	4347
2026-01-03 13:25:30.23	314.80	9.04	-53.6	-55.0	14.7	0.00e+00	0	30	0	648019968	73	4242
2026-01-03 13:25:33.26	315.30	8.96	-53.8	-55.3	14.6	0.00e+00	0	30	0	653262848	73	4358
2026-01-03 13:25:36.28	315.79	8.88	-53.8	-55.3	14.5	0.00e+00	0	30	0	659554304	73	4383
2026-01-03 13:25:39.30	316.28	8.80	-53.5	-55.0	14.7	0.00e+00	0	30	0	664797184	73	4200
2026-01-03 13:25:42.33	316.77	8.72	-53.0	-54.3	14.9	0.00e+00	0	30	0	670040064	72	4139
2026-01-03 13:25:45.35	317.26	8.64	-53.2	-54.6	14.8	0.00e+00	0	30	0	676331520	72	4279
2026-01-03 13:25:48.38	317.75	8.56	-53.7	-55.2	14.5	0.00e+00	0	30	0	681574400	72	4554
2026-01-03 13:25:51.40	318.23	8.47	-53.9	-55.4	14.5	0.00e+00	0	30	0	687865856	73	4432
2026-01-03 13:25:54.42	318.71	8.39	-53.7	-55.3	14.6	0.00e+00	0	30	0	693108736	73	4341
2026-01-03 13:25:57.45	319.19	8.30	-54.0	-55.7	14.4	0.00e+00	0	30	0	698351616	73	4567
2026-01-03 13:26:00.48	319.66	8.21	-54.4	-56.2	14.1	0.00e+00	0	30	0	704643072	74	4583
2026-01-03 13:26:03.50	320.13	8.12	-54.9	-56.9	13.9	0.00e+00	0	30	0	709885952	75	4681
2026-01-03 13:26:06.53	320.60	8.03	-55.0	-57.0	13.9	0.00e+00	0	30	0	716177408	75	4706
2026-01-03 13:26:09.56	321.07	7.93	-55.1	-57.2	13.8	0.00e+00	0	30	0	721420288	75	4834
2026-01-03 13:26:12.57	321.53	7.84	-55.2	-57.3	13.6	0.00e+00	0	30	0	727711744	75	4911
2026-01-03 13:26:15.60	321.99	7.74	-55.3	-57.4	13.6	0.00e+00	0	30	0	732954624	75	4960
2026-01-03 13:26:18.62	322.45	7.65	-55.1	-57.2	13.7	0.00e+00	0	30	0	738197504	75	4841
2026-01-03 13:26:21.63	322.90	7.55	-55.2	-57.3	13.7	0.00e+00	0	30	0	744488960	75	4915
2026-01-03 13:26:24.66	323.35	7.45	-55.5	-57.7	13.5	0.00e+00	0	30	0	749731840	76	4844
2026-01-03 13:26:27.68	323.80	7.35	-55.5	-57.8	13.4	0.00e+00	0	30	0	756023296	76	4905
2026-01-03 13:26:30.71	324.24	7.25	-55.6	-57.9	13.4	0.00e+00	0	30	0	761266176	76	4969
2026-01-03 13:26:33.74	324.69	7.15	-56.0	-58.6	13.0	0.00e+00	0	30	0	766509056	77	5060
2026-01-03 13:26:36.76	325.13	7.05	-56.6	-59.6	12.5	0.00e+00	0	30	0	772800512	78	5351
2026-01-03 13:26:39.77	325.56	6.94	-56.6	-59.7	12.4	0.00e+00	0	30	0	778043392	78	5426
2026-01-03 13:26:42.79	325.99	6.84	-56.4	-59.4	12.6	0.00e+00	0	30	0	784334848	78	5231
2026-01-03 13:26:45.81	326.42	6.73	-56.0	-58.5	13.2	0.00e+00	0	30	0	789577728	78	4754
2026-01-03 13:26:48.83	326.85	6.62	-56.1	-58.8	13.0	0.00e+00	0	30	0	794820608	78	4883
2026-01-03 13:26:51.86	327.27	6.52	-56.5	-59.4	12.5	0.00e+00	0	30	0	801112064	78	5272
2026-01-03 13:26:54.88	327.69	6.41	-56.4	-59.3	12.6	7.00e-07	0	30	0	806354944	78	5186
2026-01-03 13:26:57.90	328.11	6.30	-56.6	-59.7	12.4	7.00e-07	0	30	0	812646400	78	5406
2026-01-03 13:27:00.92	328.53	6.19	-56.4	-59.4	12.5	7.00e-07	0	30	0	817889280	78	5240
2026-01-03 13:27:03.95	328.94	6.08	-56.2	-58.9	12.8	0.00e+00	0	30	0	823132160	78	4978
2026-01-03 13:27:06.96	329.35	5.97	-56.0	-58.6	13.0	0.00e+00	0	30	0	829423616	78	4797
2026-01-03 13:27:09.98	329.75	5.85	-56.0	-58.7	13.0	0.00e+00	0	30	0	834666496	78	4837
2026-01-03 13:27:13.00	330.15	5.74	-56.2	-59.0	12.7	0.00e+00	0	30	0	840957952	78	4999
2026-01-03 13:27:16.03	330.55	5.63	-55.9	-58.5	13.0	0.00e+00	0	30	0	846200832	78	4754
2026-01-03 13:27:19.05	330.95	5.51	-55.7	-58.3	13.1	0.00e+00	0	30	0	851443712	77	4896
2026-01-03 13:27:22.07	331.34	5.40	-55.5	-57.9	13.4	0.00e+00	0	30	0	857735168	77	4661
2026-01-03 13:27:25.10	331.74	5.28	-55.4	-57.8	13.4	0.00e+00	0	30	0	862978048	77	4649
2026-01-03 13:27:28.13	332.13	5.17	-55.4	-57.8	13.4	0.00e+00	0	30	0	869269504	77	4611
2026-01-03 13:27:31.15	332.51	5.05	-55.7	-58.2	13.1	0.00e+00	0	30	0	874512384	77	4851
2026-01-03 13:27:34.17	332.89	4.93	-60.5	-76.1	3.8	1.49e+00	0	30	104	877658112	86	22601
2026-01-03 13:27:37.19	333.27	4.82	-61.2	-76.8	3.8	1.49e+00	0	30	104	877658112	87	23252
2026-01-03 13:27:40.20	333.64	4.70	-61.6	-77.2	3.8	1.49e+00	0	30	104	877658112	88	22863
2026-01-03 13:27:43.23	334.02	4.58	-61.8	-77.4	3.8	1.49e+00	0	30	104	877658112	88	23361
2026-01-03 13:27:46.26	334.39	4.46	-61.9	-77.5	3.8	1.49e+00	0	30	104	877658112	88	23639
2026-01-03 13:27:49.29	334.76	4.34	-61.9	-77.5	3.8	1.49e+00	0	30	104	877658112	89	22447
2026-01-03 13:27:52.32	335.12	4.22	-61.9	-77.5	3.8	1.49e+00	0	30	104	877658112	89	22519
2026-01-03 13:27:55.34	335.49	4.10	-61.9	-77.5	3.8	1.49e+00	0	30	104	877658112	89	22385
2026-01-03 13:27:58.38	335.85	3.98	-61.8	-77.4	3.8	1.49e+00	0	30	104	877658112	89	22223
2026-01-03 13:28:01.40	336.20	3.86	-61.8	-77.4	3.8	1.49e+00	0	30	104	877658112	89	22177
2026-01-03 13:28:04.43	336.56	3.74	-61.8	-77.4	3.8	1.49e+00	0	30	104	877658112	89	22131
2026-01-03 13:28:07.45	336.91	3.62	-61.7	-77.4	3.8	1.49e+00	0	30	104	877658112	89	22008
2026-01-03 13:28:10.48	337.25	3.49	-61.7	-77.3	3.8	1.49e+00	0	30	104	877658112	89	21993
2026-01-03 13:28:13.51	337.60	3.37	-61.7	-77.3	3.8	1.49e+00	0	30	104	877658112	89	21908
2026-01-03 13:28:16.54	337.94	3.25	-61.7	-77.3	3.8	1.49e+00	0	30	104	877658112	89	21880
2026-01-03 13:28:19.56	338.28	3.13	-61.7	-77.3	3.8	1.49e+00	0	30	104	877658112	89	21826
2026-01-03 13:28:22.59	338.62	3.00	-61.7	-77.3	3.8	1.49e+00	0	31	104	877658112	89	21789
2026-01-03 13:28:25.62	338.96	2.88	-61.6	-77.2	3.8	1.49e+00	0	30	104	877658112	89	21704
2026-01-03 13:28:28.65	339.29	2.76	-61.6	-77.2	3.8	1.49e+00	0	30	104	877658112	89	21734
2026-01-03 13:28:31.68	339.62	2.63	-61.6	-77.2	3.8	1.49e+00	0	30	104	877658112	89	21672
2026-01-03 13:28:34.70	339.94	2.51	-61.6	-77.2	3.8	1.49e+00	0	30	104	877658112	89	21663
2026-01-03 13:28:37.73	340.27	2.38	-61.6	-77.1	3.8	1.49e+00	0	30	104	877658112	89	21486
2026-01-03 13:28:40.75	340.59	2.26	-61.6	-77.2	3.8	1.49e+00	0	30	104	877658112	89	21611
2026-01-03 13:28:43.78	340.91	2.14	-61.5	-77.2	3.8	1.49e+00	0	30	104	877658112	89	21537
2026-01-03 13:28:46.80	341.22	2.01	-61.5	-77.1	3.8	1.49e+00	0	31	104	877658112	89	21490
2026-01-03 13:28:49.83	341.54	1.89	-61.5	-77.1	3.8	1.49e+00	0	30	104	877658112	89	21449

#Closed at: 2026-01-03 13:28:49
#Recorded file [877 MB]: D:/lorett/data/31004_260103_161835.dat