passes_logs/2026/01/03/R3.2S_Murmansk/R3.2S_Murmansk__20260103_230724_NOAA_21_JPSS-2_rec.log

#Pass ID: 20260103_230724_NOAA 21 (JPSS-2)
#Satellite: NOAA 21 (JPSS-2)
#Configuration: NOAA-21
#almurnet v.1.7.20251203
#Start time: 2026-01-03 23:07:26

#Version: 2.2.20231116
#Station: R3.2S_Murmansk
#Location: 33.079688 lon 68.888172 lat
#TLE: 1 54234U 22150A   26003.45311712  .00000198  00000+0  11468-3 0  9993
#TLE: 2 54234  98.7487 304.4932 0001159 347.5017  12.6130 14.19531745163172

#Time	Az	El	Level	Level2	SNR	BER	BlckErr	Temp	State	Recorded	gain1	gain2
2026-01-03 23:07:26.51	20.07	2.10	-58.8	-72.5	3.8	1.49e+00	0	27	0	0	84	16783
2026-01-03 23:07:30.51	20.27	2.34	-58.6	-71.5	3.8	1.49e+00	0	27	104	0	82	16825
2026-01-03 23:07:34.52	20.46	2.58	-58.5	-70.9	3.8	1.49e+00	0	27	104	0	82	15671
2026-01-03 23:07:38.53	20.66	2.83	-58.5	-70.6	3.9	1.49e+00	0	27	104	0	82	15128
2026-01-03 23:07:42.52	20.86	3.08	-58.3	-68.6	4.0	1.45e+00	0	27	104	0	82	11998
2026-01-03 23:07:46.53	21.06	3.32	-58.0	-65.8	5.5	4.70e-01	0	27	0	6291456	82	8752
2026-01-03 23:07:50.53	21.27	3.58	-57.9	-65.4	5.8	3.32e-01	0	28	0	18874368	82	8351
2026-01-03 23:07:54.52	21.48	3.83	-57.2	-62.8	7.8	6.69e-02	0	28	0	31457280	81	6541
2026-01-03 23:07:58.52	21.69	4.08	-55.3	-58.4	11.3	6.02e-05	0	28	0	42991616	77	4979
2026-01-03 23:08:02.51	21.91	4.34	-53.5	-55.7	12.9	0.00e+00	0	28	0	55574528	73	4561
2026-01-03 23:08:06.51	22.13	4.60	-53.9	-56.3	12.4	0.00e+00	0	28	0	68157440	72	5177
2026-01-03 23:08:10.52	22.35	4.86	-55.9	-59.6	10.3	3.46e-04	0	28	0	80740352	76	6038
2026-01-03 23:08:14.53	22.58	5.12	-56.4	-60.7	9.5	1.07e-03	0	28	0	93323264	78	6109
2026-01-03 23:08:18.54	22.81	5.39	-56.8	-61.6	8.6	1.72e-01	0	28	0	103809024	80	6061
2026-01-03 23:08:22.55	23.04	5.66	-52.8	-54.7	13.5	0.00e+00	0	28	0	116391936	72	4340
2026-01-03 23:08:26.57	23.28	5.93	-52.2	-54.0	13.7	0.00e+00	0	28	0	128974848	70	4460
2026-01-03 23:08:30.57	23.53	6.20	-51.8	-53.5	14.0	0.00e+00	0	28	0	140509184	70	4213
2026-01-03 23:08:34.58	23.78	6.48	-51.7	-53.4	14.1	0.00e+00	0	28	0	153092096	70	4146
2026-01-03 23:08:38.60	24.03	6.76	-51.8	-53.4	14.0	0.00e+00	0	28	0	165675008	69	4435
2026-01-03 23:08:42.60	24.29	7.04	-51.8	-53.4	14.0	0.00e+00	0	28	0	178257920	69	4417
2026-01-03 23:08:46.60	24.55	7.32	-51.5	-53.1	14.1	0.00e+00	0	28	0	190840832	69	4278
2026-01-03 23:08:50.60	24.81	7.61	-51.4	-52.9	14.2	0.00e+00	0	28	0	203423744	69	4185
2026-01-03 23:08:54.59	25.08	7.89	-51.3	-52.8	14.3	0.00e+00	0	28	0	216006656	69	4111
2026-01-03 23:08:58.59	25.36	8.18	-51.3	-52.8	14.3	0.00e+00	0	29	0	228589568	69	4135
2026-01-03 23:09:02.60	25.64	8.48	-51.2	-52.7	14.4	0.00e+00	0	28	0	241172480	69	4094
2026-01-03 23:09:06.60	25.92	8.78	-51.2	-52.7	14.4	0.00e+00	0	28	0	253755392	69	4094
2026-01-03 23:09:10.59	26.21	9.08	-51.3	-52.8	14.3	0.00e+00	0	28	0	266338304	68	4366
2026-01-03 23:09:14.60	26.51	9.38	-51.2	-52.7	14.3	0.00e+00	0	28	0	278921216	68	4300
2026-01-03 23:09:18.59	26.82	9.69	-51.0	-52.5	14.4	0.00e+00	0	28	0	291504128	68	4217
2026-01-03 23:09:22.61	27.13	10.00	-51.0	-52.4	14.4	0.00e+00	0	29	0	304087040	68	4167
2026-01-03 23:09:26.62	27.44	10.31	-50.9	-52.3	14.5	0.00e+00	0	29	0	316669952	68	4119
2026-01-03 23:09:30.63	27.76	10.63	-50.7	-52.1	14.6	0.00e+00	0	28	0	328204288	68	4022
2026-01-03 23:09:34.63	28.09	10.95	-50.6	-52.0	14.5	0.00e+00	0	29	0	340787200	67	4195
2026-01-03 23:09:38.64	28.43	11.27	-50.5	-51.9	14.6	0.00e+00	0	28	0	353370112	67	4179
2026-01-03 23:09:42.65	28.77	11.60	-50.5	-51.9	14.6	0.00e+00	0	28	0	365953024	67	4159
2026-01-03 23:09:46.66	29.12	11.93	-50.3	-51.7	14.7	0.00e+00	0	28	0	378535936	67	4075
2026-01-03 23:09:50.67	29.48	12.26	-50.3	-51.6	14.7	0.00e+00	0	28	0	391118848	67	4051
2026-01-03 23:09:54.67	29.85	12.60	-50.1	-51.5	14.7	0.00e+00	0	29	0	403701760	66	4207
2026-01-03 23:09:58.66	30.22	12.94	-50.1	-51.4	14.7	0.00e+00	0	29	0	416284672	66	4185
2026-01-03 23:10:02.66	30.60	13.28	-50.2	-51.5	14.7	0.00e+00	0	29	0	428867584	66	4234
2026-01-03 23:10:06.67	30.99	13.63	-50.2	-51.5	14.7	0.00e+00	0	29	0	441450496	66	4222
2026-01-03 23:10:10.68	31.39	13.98	-50.1	-51.4	14.7	0.00e+00	0	29	0	454033408	66	4164
2026-01-03 23:10:14.69	31.80	14.34	-49.9	-51.3	14.8	0.00e+00	0	29	0	466616320	66	4102
2026-01-03 23:10:18.70	32.22	14.70	-50.1	-51.4	14.7	0.00e+00	0	29	0	479199232	66	4168
2026-01-03 23:10:22.70	32.64	15.06	-50.1	-51.5	14.7	0.00e+00	0	29	0	491782144	66	4197
2026-01-03 23:10:26.72	33.08	15.43	-50.2	-51.5	14.7	0.00e+00	0	29	0	504365056	66	4222
2026-01-03 23:10:30.72	33.53	15.81	-50.1	-51.4	14.7	0.00e+00	0	29	0	516947968	66	4191
2026-01-03 23:10:34.71	33.99	16.18	-50.3	-51.6	14.7	0.00e+00	0	29	0	528482304	66	4259
2026-01-03 23:10:38.70	34.46	16.56	-50.4	-51.7	14.6	0.00e+00	0	29	0	541065216	66	4320
2026-01-03 23:10:42.68	34.94	16.94	-50.4	-51.7	14.6	0.00e+00	0	29	0	553648128	66	4316
2026-01-03 23:10:46.67	35.43	17.33	-50.2	-51.5	14.7	0.00e+00	0	29	0	566231040	66	4220
2026-01-03 23:10:50.66	35.93	17.72	-50.2	-51.5	14.7	0.00e+00	0	29	0	578813952	66	4239
2026-01-03 23:10:54.66	36.45	18.12	-50.3	-51.6	14.7	0.00e+00	0	29	0	591396864	66	4269
2026-01-03 23:10:58.64	36.98	18.52	-50.1	-51.4	14.8	0.00e+00	0	29	0	603979776	66	4177
2026-01-03 23:11:02.65	37.53	18.93	-50.0	-51.3	14.8	0.00e+00	0	29	0	616562688	66	4106
2026-01-03 23:11:06.64	38.09	19.34	-49.9	-51.1	14.9	0.00e+00	0	29	0	629145600	66	4047
2026-01-03 23:11:10.64	38.66	19.75	-50.0	-51.3	14.8	0.00e+00	0	29	0	640679936	66	4118
2026-01-03 23:11:14.65	39.25	20.17	-49.5	-50.8	14.9	0.00e+00	0	29	0	653262848	65	4108
2026-01-03 23:11:18.64	39.86	20.59	-49.5	-50.7	14.9	0.00e+00	0	29	0	665845760	65	4070
2026-01-03 23:11:22.64	40.48	21.02	-49.6	-50.8	14.9	0.00e+00	0	29	0	678428672	65	4119
2026-01-03 23:11:26.64	41.12	21.45	-48.9	-50.0	15.0	0.00e+00	0	29	0	691011584	64	4002
2026-01-03 23:11:30.65	41.78	21.88	-48.9	-50.1	15.0	0.00e+00	0	29	0	703594496	64	4017
2026-01-03 23:11:34.65	42.45	22.32	-49.1	-50.3	15.0	0.00e+00	0	29	0	716177408	64	4130
2026-01-03 23:11:38.62	43.14	22.76	-48.7	-49.9	15.1	0.00e+00	0	29	0	728760320	64	3933
2026-01-03 23:11:42.61	43.85	23.20	-48.9	-50.0	15.0	0.00e+00	0	29	0	741343232	63	4239
2026-01-03 23:11:46.59	44.58	23.65	-48.9	-50.1	15.0	0.00e+00	0	29	0	753926144	63	4256
2026-01-03 23:11:50.57	45.33	24.10	-48.5	-49.6	15.1	0.00e+00	0	29	0	766509056	63	4035
2026-01-03 23:11:54.56	46.10	24.55	-48.8	-50.0	15.0	0.00e+00	0	29	0	778043392	63	4205
2026-01-03 23:11:58.55	46.90	25.00	-48.8	-50.0	15.0	0.00e+00	0	29	0	790626304	63	4227
2026-01-03 23:12:02.54	47.71	25.46	-48.9	-50.0	15.0	0.00e+00	0	29	0	803209216	63	4226
2026-01-03 23:12:06.54	48.56	25.92	-49.6	-50.8	14.8	0.00e+00	0	29	0	815792128	64	4368
2026-01-03 23:12:10.53	49.42	26.38	-49.8	-51.0	14.8	0.00e+00	0	29	0	828375040	64	4475
2026-01-03 23:12:14.52	50.31	26.84	-49.7	-51.0	14.8	0.00e+00	0	29	0	840957952	64	4444
2026-01-03 23:12:18.51	51.23	27.30	-49.8	-51.1	14.9	0.00e+00	0	29	0	853540864	65	4247
2026-01-03 23:12:22.50	52.17	27.76	-49.2	-50.4	15.1	0.00e+00	0	29	0	866123776	65	3939
2026-01-03 23:12:26.48	53.14	28.22	-49.7	-50.9	14.9	0.00e+00	0	29	0	878706688	65	4183
2026-01-03 23:12:30.48	54.13	28.68	-49.5	-50.7	14.9	0.00e+00	0	29	0	890241024	65	4074
2026-01-03 23:12:34.46	55.16	29.14	-49.5	-50.8	14.9	0.00e+00	0	29	0	902823936	65	4102
2026-01-03 23:12:38.47	56.22	29.60	-49.5	-50.7	15.0	0.00e+00	0	29	0	915406848	65	4095
2026-01-03 23:12:42.47	57.30	30.05	-49.5	-50.8	14.9	0.00e+00	0	29	0	927989760	65	4107
2026-01-03 23:12:46.46	58.42	30.50	-49.7	-50.9	14.9	0.00e+00	0	29	0	940572672	65	4193
2026-01-03 23:12:50.46	59.56	30.94	-49.5	-50.7	15.0	0.00e+00	0	29	0	953155584	65	4078
2026-01-03 23:12:54.44	60.74	31.38	-49.4	-50.6	15.0	0.00e+00	0	29	0	965738496	65	4037
2026-01-03 23:12:58.43	61.94	31.81	-49.9	-51.1	14.8	0.00e+00	0	29	0	978321408	65	4288
2026-01-03 23:13:02.42	63.18	32.23	-50.0	-51.3	14.8	0.00e+00	0	29	0	990904320	65	4353
2026-01-03 23:13:06.42	64.45	32.64	-50.3	-51.6	14.7	0.00e+00	0	29	0	1003487232	65	4538
2026-01-03 23:13:10.42	65.76	33.05	-50.5	-51.8	14.7	0.00e+00	0	29	0	1016070144	66	4349
2026-01-03 23:13:14.40	67.09	33.44	-50.8	-52.2	14.6	0.00e+00	0	29	0	1027604480	66	4558
2026-01-03 23:13:18.39	68.45	33.82	-50.6	-51.9	14.6	0.00e+00	0	29	0	1040187392	66	4423
2026-01-03 23:13:22.38	69.85	34.18	-50.5	-51.9	14.7	0.00e+00	0	29	0	1052770304	66	4395
2026-01-03 23:13:26.36	71.27	34.53	-50.3	-51.5	14.8	0.00e+00	0	29	0	1065353216	66	4233
2026-01-03 23:13:30.36	72.73	34.87	-50.6	-51.9	14.7	0.00e+00	0	29	0	1077936128	66	4429
2026-01-03 23:13:34.36	74.22	35.19	-50.5	-51.8	14.7	0.00e+00	0	29	0	1090519040	66	4373
2026-01-03 23:13:38.36	75.74	35.49	-50.3	-51.6	14.8	0.00e+00	0	29	0	1103101952	66	4263
2026-01-03 23:13:42.35	77.28	35.77	-50.8	-52.2	14.6	0.00e+00	0	29	0	1115684864	66	4580
2026-01-03 23:13:46.35	78.85	36.03	-50.4	-51.7	14.7	0.00e+00	0	29	0	1128267776	66	4318
2026-01-03 23:13:50.32	80.44	36.26	-50.7	-52.0	14.6	0.00e+00	0	29	0	1139802112	66	4484
2026-01-03 23:13:54.31	82.05	36.48	-51.6	-53.1	14.4	0.00e+00	0	29	0	1152385024	68	4498
2026-01-03 23:13:58.30	83.68	36.67	-51.2	-52.5	14.6	0.00e+00	0	29	0	1164967936	68	4242
2026-01-03 23:14:02.28	85.33	36.83	-51.0	-52.3	14.7	0.00e+00	0	29	0	1177550848	68	4130
2026-01-03 23:14:06.27	86.99	36.97	-51.3	-52.7	14.6	0.00e+00	0	29	0	1190133760	68	4311
2026-01-03 23:14:10.27	88.68	37.08	-51.0	-52.4	14.7	0.00e+00	0	29	0	1202716672	68	4161
2026-01-03 23:14:14.26	90.37	37.17	-50.9	-52.2	14.7	0.00e+00	0	29	0	1215299584	68	4085
2026-01-03 23:14:18.27	92.07	37.23	-51.1	-52.4	14.7	0.00e+00	0	29	0	1227882496	68	4183
2026-01-03 23:14:22.28	93.78	37.26	-51.0	-52.3	14.8	0.00e+00	0	29	0	1240465408	68	4113
2026-01-03 23:14:26.28	95.49	37.26	-51.2	-52.5	14.6	0.00e+00	0	29	0	1253048320	68	4223
2026-01-03 23:14:30.28	97.19	37.24	-51.3	-52.7	14.5	0.00e+00	0	29	0	1264582656	68	4315
2026-01-03 23:14:34.29	98.90	37.19	-51.4	-52.8	14.5	0.00e+00	0	29	0	1277165568	68	4346
2026-01-03 23:14:38.29	100.60	37.11	-51.4	-52.8	14.5	0.00e+00	0	29	0	1289748480	68	4384
2026-01-03 23:14:42.29	102.28	37.00	-51.4	-52.8	14.5	0.00e+00	0	29	0	1302331392	68	4341
2026-01-03 23:14:46.28	103.95	36.86	-51.5	-52.9	14.5	0.00e+00	0	29	0	1314914304	68	4434
2026-01-03 23:14:50.27	105.61	36.70	-51.5	-53.0	14.5	0.00e+00	0	29	0	1327497216	68	4460
2026-01-03 23:14:54.26	107.25	36.52	-51.8	-53.3	14.4	0.00e+00	0	29	0	1340080128	68	4603
2026-01-03 23:14:58.24	108.86	36.31	-51.3	-52.7	14.5	0.00e+00	0	29	0	1352663040	68	4324
2026-01-03 23:15:02.23	110.46	36.08	-51.4	-52.8	14.5	0.00e+00	0	29	0	1365245952	68	4375
2026-01-03 23:15:06.22	112.03	35.82	-51.4	-52.8	14.5	0.00e+00	0	29	0	1377828864	68	4346
2026-01-03 23:15:10.22	113.59	35.55	-51.4	-52.8	14.5	0.00e+00	0	29	0	1390411776	68	4351
2026-01-03 23:15:14.20	115.10	35.25	-50.4	-51.7	14.8	0.00e+00	0	29	0	1401946112	67	4068
2026-01-03 23:15:18.18	116.60	34.94	-50.0	-51.2	14.9	0.00e+00	0	29	0	1414529024	66	4067
2026-01-03 23:15:22.17	118.06	34.61	-50.2	-51.4	14.9	0.00e+00	0	29	0	1427111936	66	4178
2026-01-03 23:15:26.17	119.50	34.26	-50.2	-51.4	14.8	0.00e+00	0	29	0	1439694848	66	4173
2026-01-03 23:15:30.17	120.91	33.89	-50.2	-51.5	14.8	0.00e+00	0	29	0	1452277760	66	4208
2026-01-03 23:15:34.17	122.29	33.51	-50.0	-51.2	14.9	0.00e+00	0	29	0	1464860672	66	4086
2026-01-03 23:15:38.19	123.65	33.12	-49.6	-50.8	14.9	0.00e+00	0	29	0	1477443584	65	4133
2026-01-03 23:15:42.19	124.96	32.71	-49.9	-51.2	14.8	0.00e+00	0	29	0	1490026496	65	4307
2026-01-03 23:15:46.18	126.24	32.30	-49.7	-51.0	14.9	0.00e+00	0	29	0	1502609408	65	4208
2026-01-03 23:15:50.17	127.49	31.88	-49.5	-50.8	15.0	0.00e+00	0	29	0	1515192320	65	4099
2026-01-03 23:15:54.15	128.70	31.45	-49.7	-51.0	14.9	0.00e+00	0	29	0	1526726656	65	4200
2026-01-03 23:15:58.13	129.88	31.01	-49.2	-50.4	15.0	0.00e+00	0	29	0	1539309568	64	4154
2026-01-03 23:16:02.10	131.03	30.57	-49.2	-50.3	15.0	0.00e+00	0	29	0	1551892480	64	4132
2026-01-03 23:16:06.10	132.16	30.12	-49.3	-50.5	14.9	0.00e+00	0	29	0	1564475392	64	4234
2026-01-03 23:16:10.10	133.25	29.67	-49.8	-51.1	14.8	0.00e+00	0	29	0	1577058304	64	4515
2026-01-03 23:16:14.09	134.31	29.21	-50.1	-51.4	14.7	0.00e+00	0	29	0	1589641216	65	4395
2026-01-03 23:16:18.07	135.34	28.75	-49.8	-51.0	14.8	0.00e+00	0	29	0	1602224128	65	4241
2026-01-03 23:16:22.05	136.35	28.29	-49.6	-50.8	14.9	0.00e+00	0	29	0	1614807040	65	4108
2026-01-03 23:16:26.05	137.33	27.83	-49.5	-50.8	14.9	0.00e+00	0	29	0	1626341376	65	4099
2026-01-03 23:16:30.05	138.28	27.36	-49.7	-50.9	14.9	0.00e+00	0	29	0	1638924288	65	4175
2026-01-03 23:16:34.03	139.20	26.90	-49.3	-50.5	15.0	0.00e+00	0	29	0	1651507200	65	3967
2026-01-03 23:16:38.03	140.10	26.44	-49.0	-50.2	15.0	0.00e+00	0	29	0	1664090112	64	4068
2026-01-03 23:16:42.02	140.97	25.97	-49.0	-50.2	15.0	0.00e+00	0	29	0	1676673024	64	4076
2026-01-03 23:16:46.01	141.82	25.51	-49.0	-50.2	15.0	0.00e+00	0	29	0	1689255936	64	4061
2026-01-03 23:16:50.00	142.64	25.05	-48.9	-50.1	15.0	0.00e+00	0	29	0	1701838848	64	4035
2026-01-03 23:16:53.98	143.44	24.60	-48.8	-50.0	15.1	0.00e+00	0	29	0	1714421760	64	3982
2026-01-03 23:16:57.96	144.22	24.14	-48.8	-50.0	15.1	0.00e+00	0	29	0	1727004672	64	3959
2026-01-03 23:17:01.94	144.97	23.69	-49.2	-50.4	14.9	0.00e+00	0	29	0	1738539008	64	4156
2026-01-03 23:17:05.91	145.71	23.24	-49.2	-50.4	14.9	0.00e+00	0	29	0	1751121920	64	4193
2026-01-03 23:17:09.90	146.42	22.80	-49.2	-50.4	15.0	0.00e+00	0	29	0	1763704832	64	4174
2026-01-03 23:17:13.89	147.12	22.35	-49.3	-50.6	14.9	0.00e+00	0	29	0	1776287744	64	4247
2026-01-03 23:17:17.89	147.80	21.91	-49.7	-50.9	14.8	0.00e+00	0	29	0	1788870656	64	4437
2026-01-03 23:17:21.89	148.46	21.47	-49.6	-50.9	14.8	0.00e+00	0	29	0	1801453568	64	4417
2026-01-03 23:17:25.88	149.10	21.04	-49.7	-51.0	14.8	0.00e+00	0	29	0	1814036480	64	4457
2026-01-03 23:17:29.87	149.73	20.61	-49.6	-50.9	14.8	0.00e+00	0	29	0	1826619392	64	4399
2026-01-03 23:17:33.86	150.34	20.19	-49.3	-50.5	14.9	0.00e+00	0	29	0	1839202304	64	4213
2026-01-03 23:17:37.85	150.93	19.77	-49.2	-50.4	14.9	0.00e+00	0	29	0	1850736640	64	4183
2026-01-03 23:17:41.85	151.51	19.35	-49.2	-50.4	15.0	0.00e+00	0	29	0	1863319552	64	4147
2026-01-03 23:17:45.84	152.07	18.94	-49.3	-50.5	14.9	0.00e+00	0	29	0	1875902464	64	4235
2026-01-03 23:17:49.82	152.61	18.53	-49.4	-50.6	14.9	0.00e+00	0	29	0	1888485376	64	4268
2026-01-03 23:17:53.80	153.15	18.13	-49.4	-50.6	14.9	0.00e+00	0	29	0	1901068288	64	4272
2026-01-03 23:17:57.78	153.66	17.73	-49.3	-50.5	14.9	0.00e+00	0	29	0	1913651200	64	4209
2026-01-03 23:18:01.76	154.17	17.34	-49.6	-50.8	14.8	0.00e+00	0	29	0	1926234112	64	4377
2026-01-03 23:18:05.76	154.67	16.95	-49.7	-51.0	14.7	0.00e+00	0	29	0	1938817024	64	4455
2026-01-03 23:18:09.75	155.15	16.56	-49.7	-50.9	14.7	0.00e+00	0	29	0	1950351360	64	4436
2026-01-03 23:18:13.75	155.62	16.18	-49.8	-51.1	14.7	0.00e+00	0	29	0	1962934272	64	4533
2026-01-03 23:18:17.75	156.08	15.80	-50.0	-51.3	14.7	0.00e+00	0	29	0	1975517184	65	4356
2026-01-03 23:18:21.75	156.53	15.42	-50.1	-51.4	14.6	0.00e+00	0	29	0	1988100096	65	4427
2026-01-03 23:18:25.74	156.97	15.05	-50.1	-51.4	14.6	0.00e+00	0	29	0	2000683008	65	4409
2026-01-03 23:18:29.74	157.40	14.69	-50.1	-51.5	14.6	0.00e+00	0	29	0	2013265920	65	4466
2026-01-03 23:18:33.74	157.82	14.32	-50.2	-51.5	14.6	0.00e+00	0	29	0	2025848832	65	4488
2026-01-03 23:18:37.71	158.22	13.97	-50.2	-51.6	14.6	0.00e+00	0	29	0	2038431744	65	4503
2026-01-03 23:18:41.72	158.62	13.61	-50.3	-51.7	14.5	0.00e+00	0	29	0	2051014656	65	4583
2026-01-03 23:18:45.70	159.01	13.26	-50.3	-51.7	14.6	0.00e+00	0	29	0	2063597568	66	4320
2026-01-03 23:18:49.69	159.39	12.92	-50.3	-51.7	14.6	0.00e+00	0	29	0	2076180480	66	4324
2026-01-03 23:18:53.69	159.77	12.57	-50.2	-51.6	14.6	0.00e+00	0	29	0	2087714816	66	4248
2026-01-03 23:18:57.69	160.13	12.23	-50.4	-51.8	14.5	0.00e+00	0	29	0	2100297728	66	4384
2026-01-03 23:19:01.69	160.49	11.90	-50.4	-51.8	14.5	0.00e+00	0	29	0	2112880640	66	4367
2026-01-03 23:19:05.68	160.84	11.57	-50.5	-51.9	14.5	0.00e+00	0	29	0	2125463552	66	4421
2026-01-03 23:19:09.66	161.18	11.24	-50.8	-52.3	14.4	0.00e+00	0	29	0	2138046464	66	4624
2026-01-03 23:19:13.67	161.52	10.91	-51.0	-52.5	14.3	0.00e+00	0	29	0	2150629376	67	4486
2026-01-03 23:19:17.66	161.85	10.59	-51.2	-52.8	14.2	0.00e+00	0	29	0	2163212288	67	4615
2026-01-03 23:19:21.65	162.17	10.28	-51.2	-52.7	14.2	0.00e+00	0	29	0	2175795200	67	4595
2026-01-03 23:19:25.66	162.48	9.96	-51.2	-52.7	14.2	0.00e+00	0	29	0	2188378112	67	4576
2026-01-03 23:19:29.66	162.79	9.65	-51.1	-52.7	14.2	0.00e+00	0	29	0	2200961024	67	4546
2026-01-03 23:19:33.66	163.10	9.34	-51.5	-53.1	14.1	0.00e+00	0	29	0	2213543936	68	4502
2026-01-03 23:19:37.65	163.39	9.03	-51.2	-52.7	14.3	0.00e+00	0	29	0	2225078272	68	4337
2026-01-03 23:19:41.64	163.68	8.73	-51.2	-52.7	14.3	0.00e+00	0	29	0	2237661184	68	4328
2026-01-03 23:19:45.64	163.97	8.43	-51.3	-52.9	14.3	0.00e+00	0	29	0	2250244096	68	4392
2026-01-03 23:19:49.64	164.25	8.14	-51.5	-53.1	14.1	0.00e+00	0	29	0	2262827008	68	4517
2026-01-03 23:19:53.62	164.52	7.85	-51.6	-53.3	14.0	0.00e+00	0	29	0	2275409920	68	4608
2026-01-03 23:19:57.57	164.79	7.56	-51.8	-53.4	14.0	0.00e+00	0	29	0	2287992832	68	4694
2026-01-03 23:20:01.57	165.05	7.27	-51.9	-53.6	13.9	0.00e+00	0	29	0	2300575744	69	4532
2026-01-03 23:20:05.54	165.31	6.99	-52.0	-53.7	13.8	0.00e+00	0	29	0	2313158656	69	4596
2026-01-03 23:20:09.51	165.56	6.71	-51.9	-53.7	13.9	0.00e+00	0	29	0	2325741568	69	4557
2026-01-03 23:20:13.51	165.81	6.43	-52.1	-53.8	13.8	0.00e+00	0	29	0	2337275904	69	4646
2026-01-03 23:20:17.47	166.06	6.15	-52.2	-54.0	13.7	0.00e+00	0	29	0	2349858816	69	4719
2026-01-03 23:20:21.45	166.30	5.88	-52.2	-54.0	13.6	0.00e+00	0	29	0	2362441728	69	4754
2026-01-03 23:20:25.44	166.54	5.61	-52.4	-54.3	13.5	0.00e+00	0	29	0	2375024640	69	4905
2026-01-03 23:20:29.39	166.77	5.34	-52.4	-54.2	13.6	0.00e+00	0	29	0	2387607552	70	4589
2026-01-03 23:20:33.37	167.00	5.07	-52.5	-54.4	13.5	0.00e+00	0	29	0	2400190464	70	4677
2026-01-03 23:20:37.35	167.22	4.81	-59.9	-73.7	3.8	1.49e+00	0	29	104	2404384768	84	19298
2026-01-03 23:20:41.33	167.44	4.55	-60.5	-74.4	3.8	1.49e+00	0	29	104	2404384768	86	18522
2026-01-03 23:20:45.32	167.66	4.29	-60.9	-74.8	3.8	1.49e+00	0	29	104	2404384768	86	19475
2026-01-03 23:20:49.29	167.87	4.03	-61.1	-75.0	3.8	1.49e+00	0	29	104	2404384768	87	18881
2026-01-03 23:20:53.29	168.08	3.78	-61.2	-75.1	3.8	1.49e+00	0	29	104	2404384768	87	19067
2026-01-03 23:20:57.28	168.29	3.52	-61.2	-75.1	3.8	1.49e+00	0	29	104	2404384768	87	19155
2026-01-03 23:21:01.26	168.50	3.27	-61.2	-75.1	3.8	1.49e+00	0	29	104	2404384768	87	18973
2026-01-03 23:21:05.24	168.70	3.02	-61.1	-75.0	3.8	1.49e+00	0	29	104	2404384768	87	18923
2026-01-03 23:21:09.21	168.89	2.78	-61.1	-75.0	3.8	1.49e+00	0	29	104	2404384768	87	18794
2026-01-03 23:21:13.17	169.09	2.53	-61.1	-74.9	3.8	1.49e+00	0	29	104	2404384768	87	18713
2026-01-03 23:21:17.17	169.28	2.29	-61.0	-74.9	3.8	1.49e+00	0	29	104	2404384768	87	18660
2026-01-03 23:21:21.14	169.47	2.05	-61.0	-74.9	3.8	1.49e+00	0	29	104	2404384768	87	18613

#Closed at: 2026-01-03 23:21:22
#Recorded file [2404 MB]: D:/lorett/data/31004_260104_020726.dat