passes_logs/2026/01/03/R3.2S_Murmansk/R3.2S_Murmansk__20260103_033658_NOAA_20_JPSS-1_rec.log

#Pass ID: 20260103_033658_NOAA 20 (JPSS-1)
#Satellite: NOAA 20 (JPSS-1)
#Configuration: NOAA 20
#almurnet v.1.7.20251203
#Start time: 2026-01-03 03:36:57

#Version: 2.2.20231116
#Station: R3.2S_Murmansk
#Location: 33.079688 lon 68.888172 lat
#TLE: 1 43013U 17073A   26002.78363558  .00000190  00000+0  11110-3 0  9990
#TLE: 2 43013  98.7623 303.8528 0001892  57.0664 303.0694 14.19532716421006

#Time	Az	El	Level	Level2	SNR	BER	BlckErr	Temp	State	Recorded	gain1	gain2
2026-01-03 03:36:57.62	43.17	1.98	-59.8	-75.3	3.8	1.49e+00	0	29	0	0	86	20667
2026-01-03 03:37:01.62	42.94	2.21	-59.8	-75.3	3.8	1.49e+00	0	29	104	0	84	23166
2026-01-03 03:37:05.62	42.72	2.45	-59.8	-75.3	3.8	1.49e+00	0	29	104	0	84	23161
2026-01-03 03:37:09.63	42.49	2.69	-59.8	-75.3	3.8	1.49e+00	0	29	104	0	84	23164
2026-01-03 03:37:13.64	42.26	2.93	-59.8	-75.3	3.8	1.49e+00	0	29	104	0	84	23231
2026-01-03 03:37:17.64	42.02	3.17	-59.8	-75.3	3.8	1.49e+00	0	29	104	0	84	23132
2026-01-03 03:37:21.64	41.78	3.41	-59.8	-75.3	3.8	1.49e+00	0	29	104	0	84	23271
2026-01-03 03:37:25.64	41.53	3.65	-59.8	-75.3	3.9	1.49e+00	0	30	104	0	84	23179
2026-01-03 03:37:29.64	41.28	3.90	-59.8	-75.3	3.8	1.49e+00	0	30	104	0	84	23269
2026-01-03 03:37:33.64	41.03	4.15	-59.8	-74.7	3.8	1.49e+00	0	30	104	0	84	21713
2026-01-03 03:37:37.64	40.77	4.40	-59.7	-72.6	4.0	1.48e+00	0	30	0	0	84	17080
2026-01-03 03:37:41.64	40.50	4.65	-59.4	-69.4	5.1	7.05e-01	0	30	0	4194304	84	11811
2026-01-03 03:37:45.63	40.24	4.90	-59.2	-67.2	6.5	1.77e-01	0	30	0	11534336	84	9105
2026-01-03 03:37:49.59	39.97	5.15	-59.4	-67.9	6.2	1.74e-01	0	30	0	18874368	84	9842
2026-01-03 03:37:53.59	39.69	5.41	-59.1	-66.0	7.5	1.48e+00	0	30	0	24117248	84	7926
2026-01-03 03:37:57.58	39.40	5.66	-56.7	-59.6	12.8	0.00e+00	0	30	0	31457280	80	4789
2026-01-03 03:38:01.57	39.12	5.92	-56.6	-59.4	12.9	0.00e+00	0	30	0	38797312	79	4971
2026-01-03 03:38:05.56	38.82	6.18	-56.5	-59.1	13.1	0.00e+00	0	30	0	46137344	79	4802
2026-01-03 03:38:09.56	38.52	6.45	-56.5	-59.1	13.2	0.00e+00	0	31	0	53477376	79	4798
2026-01-03 03:38:13.56	38.22	6.71	-56.3	-58.8	13.4	0.00e+00	0	30	0	60817408	79	4610
2026-01-03 03:38:17.55	37.90	6.98	-56.2	-58.6	13.5	0.00e+00	0	30	0	68157440	78	4794
2026-01-03 03:38:21.54	37.59	7.25	-56.3	-58.8	13.4	0.00e+00	0	30	0	76546048	78	4887
2026-01-03 03:38:25.54	37.26	7.52	-56.1	-58.4	13.7	0.00e+00	0	31	0	83886080	78	4674
2026-01-03 03:38:29.55	36.93	7.79	-56.1	-58.3	13.7	0.00e+00	0	31	0	91226112	78	4650
2026-01-03 03:38:33.55	36.59	8.07	-56.0	-58.3	13.8	0.00e+00	0	30	0	98566144	78	4599
2026-01-03 03:38:37.55	36.25	8.35	-55.9	-58.1	13.9	0.00e+00	0	31	0	105906176	78	4528
2026-01-03 03:38:41.54	35.90	8.63	-55.8	-58.0	14.0	0.00e+00	0	31	0	113246208	78	4442
2026-01-03 03:38:45.52	35.54	8.91	-55.8	-57.9	14.0	0.00e+00	0	31	0	121634816	78	4418
2026-01-03 03:38:49.52	35.18	9.19	-55.9	-58.0	14.0	0.00e+00	0	31	0	128974848	78	4478
2026-01-03 03:38:53.50	34.81	9.47	-56.0	-58.2	13.9	0.00e+00	0	31	0	136314880	78	4577
2026-01-03 03:38:57.50	34.43	9.76	-55.9	-58.0	14.0	0.00e+00	0	31	0	143654912	78	4469
2026-01-03 03:39:01.50	34.04	10.05	-55.9	-58.0	14.0	0.00e+00	0	31	0	150994944	78	4455
2026-01-03 03:39:05.50	33.64	10.34	-55.9	-58.0	14.0	0.00e+00	0	31	0	158334976	78	4458
2026-01-03 03:39:09.51	33.24	10.64	-55.8	-57.9	14.1	0.00e+00	0	31	0	165675008	78	4401
2026-01-03 03:39:13.50	32.83	10.93	-56.0	-58.1	14.0	0.00e+00	0	31	0	174063616	78	4522
2026-01-03 03:39:17.50	32.41	11.23	-55.9	-57.9	14.1	0.00e+00	0	31	0	181403648	78	4441
2026-01-03 03:39:21.50	31.97	11.53	-55.8	-57.8	14.2	0.00e+00	0	31	0	188743680	78	4390
2026-01-03 03:39:25.50	31.53	11.83	-55.9	-58.0	14.1	0.00e+00	0	31	0	196083712	78	4459
2026-01-03 03:39:29.49	31.09	12.14	-55.8	-57.8	14.2	0.00e+00	0	31	0	203423744	78	4346
2026-01-03 03:39:33.49	30.63	12.44	-55.6	-57.4	14.3	0.00e+00	0	31	0	210763776	77	4440
2026-01-03 03:39:37.49	30.16	12.75	-55.5	-57.4	14.4	0.00e+00	0	31	0	218103808	77	4392
2026-01-03 03:39:41.48	29.68	13.06	-55.6	-57.5	14.3	0.00e+00	0	31	0	226492416	77	4468
2026-01-03 03:39:45.47	29.19	13.37	-55.5	-57.3	14.4	0.00e+00	0	31	0	233832448	77	4369
2026-01-03 03:39:49.47	28.69	13.68	-55.5	-57.4	14.4	0.00e+00	0	31	0	241172480	77	4416
2026-01-03 03:39:53.46	28.18	14.00	-55.5	-57.3	14.4	0.00e+00	0	31	0	248512512	77	4379
2026-01-03 03:39:57.44	27.66	14.31	-55.4	-57.2	14.5	0.00e+00	0	31	0	255852544	77	4319
2026-01-03 03:40:01.42	27.13	14.63	-55.2	-56.9	14.6	0.00e+00	0	31	0	263192576	77	4189
2026-01-03 03:40:05.43	26.58	14.95	-55.2	-56.9	14.6	0.00e+00	0	31	0	270532608	76	4430
2026-01-03 03:40:09.43	26.03	15.27	-55.1	-56.8	14.7	0.00e+00	0	31	0	278921216	76	4357
2026-01-03 03:40:13.43	25.45	15.60	-55.0	-56.6	14.8	0.00e+00	0	31	0	286261248	76	4257
2026-01-03 03:40:17.42	24.87	15.92	-54.8	-56.4	14.9	0.00e+00	0	31	0	293601280	76	4147
2026-01-03 03:40:21.43	24.27	16.25	-54.9	-56.4	14.8	0.00e+00	0	31	0	300941312	76	4191
2026-01-03 03:40:25.44	23.66	16.58	-54.9	-56.4	14.9	0.00e+00	0	31	0	308281344	76	4174
2026-01-03 03:40:29.42	23.04	16.90	-54.9	-56.5	14.8	0.00e+00	0	31	0	315621376	76	4232
2026-01-03 03:40:33.42	22.41	17.23	-55.0	-56.6	14.8	0.00e+00	0	31	0	324009984	76	4245
2026-01-03 03:40:37.41	21.76	17.56	-54.8	-56.4	14.9	0.00e+00	0	31	0	331350016	76	4146
2026-01-03 03:40:41.40	21.09	17.89	-54.9	-56.4	14.9	0.00e+00	0	31	0	338690048	76	4167
2026-01-03 03:40:45.40	20.41	18.22	-55.0	-56.6	14.8	0.00e+00	0	31	0	346030080	76	4278
2026-01-03 03:40:49.38	19.72	18.55	-55.2	-56.8	14.7	0.00e+00	0	31	0	353370112	76	4372
2026-01-03 03:40:53.37	19.01	18.88	-55.2	-56.8	14.7	0.00e+00	0	31	0	360710144	76	4387
2026-01-03 03:40:57.35	18.28	19.21	-55.1	-56.7	14.8	0.00e+00	0	31	0	368050176	76	4315
2026-01-03 03:41:01.34	17.54	19.54	-55.0	-56.6	14.9	0.00e+00	0	31	0	375390208	76	4275
2026-01-03 03:41:05.35	16.78	19.87	-55.1	-56.6	14.8	0.00e+00	0	31	0	383778816	76	4280
2026-01-03 03:41:09.34	16.00	20.19	-55.1	-56.7	14.8	0.00e+00	0	31	0	391118848	76	4308
2026-01-03 03:41:13.34	15.21	20.52	-55.0	-56.6	14.9	0.00e+00	0	31	0	398458880	76	4256
2026-01-03 03:41:17.34	14.40	20.84	-54.8	-56.4	15.0	0.00e+00	0	31	0	405798912	76	4147
2026-01-03 03:41:21.35	13.56	21.16	-54.4	-55.8	15.2	0.00e+00	0	31	0	413138944	75	4118
2026-01-03 03:41:25.38	12.71	21.49	-54.3	-55.7	15.2	0.00e+00	0	31	0	420478976	75	4054
2026-01-03 03:41:29.37	11.85	21.80	-54.0	-55.3	15.3	0.00e+00	0	31	0	428867584	74	4117
2026-01-03 03:41:33.37	10.97	22.12	-54.1	-55.4	15.3	0.00e+00	0	31	0	436207616	74	4166
2026-01-03 03:41:37.35	10.07	22.42	-53.5	-54.7	15.5	0.00e+00	0	31	0	443547648	73	4082
2026-01-03 03:41:41.34	9.16	22.73	-53.6	-54.8	15.4	0.00e+00	0	31	0	450887680	73	4141
2026-01-03 03:41:45.35	8.22	23.03	-53.6	-54.8	15.4	0.00e+00	0	31	0	458227712	73	4113
2026-01-03 03:41:49.34	7.26	23.33	-53.7	-55.0	15.4	0.00e+00	0	31	0	465567744	73	4201
2026-01-03 03:41:53.33	6.29	23.62	-53.7	-54.9	15.4	0.00e+00	0	31	0	472907776	73	4185
2026-01-03 03:41:57.32	5.30	23.90	-53.6	-54.8	15.4	0.00e+00	0	31	0	481296384	73	4138
2026-01-03 03:42:01.32	4.29	24.18	-53.6	-54.8	15.4	0.00e+00	0	31	0	488636416	73	4134
2026-01-03 03:42:05.32	3.27	24.45	-53.8	-55.1	15.4	0.00e+00	0	31	0	495976448	73	4246
2026-01-03 03:42:09.32	2.22	24.71	-54.0	-55.2	15.3	0.00e+00	0	31	0	503316480	73	4340
2026-01-03 03:42:13.31	1.16	24.97	-53.6	-54.7	15.5	0.00e+00	0	31	0	510656512	73	4093
2026-01-03 03:42:17.31	0.08	25.22	-53.6	-54.8	15.5	0.00e+00	0	31	0	517996544	73	4125
2026-01-03 03:42:21.32	358.98	25.46	-53.7	-54.9	15.4	0.00e+00	0	31	0	525336576	73	4171
2026-01-03 03:42:25.31	357.87	25.68	-53.6	-54.8	15.4	0.00e+00	0	31	0	533725184	73	4140
2026-01-03 03:42:29.31	356.74	25.90	-53.6	-54.8	15.5	0.00e+00	0	31	0	541065216	73	4099
2026-01-03 03:42:33.30	355.60	26.11	-53.5	-54.7	15.5	0.00e+00	0	31	0	548405248	73	4078
2026-01-03 03:42:37.30	354.44	26.30	-53.9	-55.2	15.3	0.00e+00	0	31	0	555745280	73	4322
2026-01-03 03:42:41.30	353.26	26.49	-54.3	-55.6	15.2	0.00e+00	0	31	0	563085312	73	4537
2026-01-03 03:42:45.30	352.07	26.66	-54.5	-55.8	15.2	0.00e+00	0	31	0	570425344	74	4383
2026-01-03 03:42:49.28	350.88	26.82	-54.9	-56.4	14.9	0.00e+00	0	31	0	577765376	75	4420
2026-01-03 03:42:53.27	349.67	26.97	-54.7	-56.2	15.1	0.00e+00	0	31	0	586153984	75	4299
2026-01-03 03:42:57.26	348.45	27.10	-55.0	-56.6	14.9	0.00e+00	0	31	0	593494016	75	4504
2026-01-03 03:43:01.26	347.22	27.22	-55.0	-56.5	15.0	0.00e+00	0	31	0	600834048	75	4456
2026-01-03 03:43:05.25	345.98	27.32	-55.5	-57.2	14.7	0.00e+00	0	31	0	608174080	76	4574
2026-01-03 03:43:09.26	344.73	27.41	-55.4	-57.0	14.8	0.00e+00	0	31	0	615514112	76	4457
2026-01-03 03:43:13.26	343.47	27.49	-55.6	-57.3	14.7	0.00e+00	0	31	0	622854144	76	4628
2026-01-03 03:43:17.26	342.21	27.55	-55.4	-57.0	14.8	0.00e+00	0	31	0	630194176	76	4473
2026-01-03 03:43:21.25	340.95	27.59	-55.8	-57.5	14.6	0.00e+00	0	31	0	638582784	76	4730
2026-01-03 03:43:25.25	339.68	27.62	-55.5	-57.2	14.7	0.00e+00	0	31	0	645922816	76	4550
2026-01-03 03:43:29.26	338.41	27.63	-55.4	-57.0	14.8	0.00e+00	0	31	0	653262848	76	4493
2026-01-03 03:43:33.26	337.14	27.63	-55.1	-56.6	15.0	0.00e+00	0	31	0	660602880	76	4261
2026-01-03 03:43:37.25	335.88	27.61	-54.9	-56.4	15.1	0.00e+00	0	31	0	667942912	76	4160
2026-01-03 03:43:41.24	334.61	27.58	-54.5	-55.9	15.2	0.00e+00	0	31	0	675282944	75	4172
2026-01-03 03:43:45.24	333.35	27.53	-54.7	-56.0	15.2	0.00e+00	0	31	0	682622976	75	4235
2026-01-03 03:43:49.24	332.09	27.47	-54.4	-55.7	15.3	0.00e+00	0	31	0	691011584	75	4069
2026-01-03 03:43:53.23	330.84	27.39	-53.8	-55.0	15.5	0.00e+00	0	31	0	698351616	74	3974
2026-01-03 03:43:57.23	329.59	27.29	-53.9	-55.1	15.5	0.00e+00	0	31	0	705691648	74	4032
2026-01-03 03:44:01.23	328.35	27.19	-53.7	-54.9	15.6	0.00e+00	0	31	0	713031680	74	3949
2026-01-03 03:44:05.21	327.13	27.06	-53.8	-55.1	15.5	0.00e+00	0	31	0	720371712	74	4005
2026-01-03 03:44:09.21	325.91	26.93	-54.1	-55.4	15.4	0.00e+00	0	31	0	727711744	74	4147
2026-01-03 03:44:13.20	324.70	26.78	-53.9	-55.1	15.5	0.00e+00	0	31	0	735051776	74	4042
2026-01-03 03:44:17.20	323.51	26.61	-54.1	-55.4	15.4	0.00e+00	0	31	0	743440384	74	4173
2026-01-03 03:44:21.21	322.32	26.44	-54.5	-55.9	15.2	0.00e+00	0	31	0	750780416	74	4417
2026-01-03 03:44:25.19	321.15	26.25	-54.6	-56.0	15.1	0.00e+00	0	31	0	758120448	74	4463
2026-01-03 03:44:29.19	320.00	26.05	-54.9	-56.3	15.0	0.00e+00	0	31	0	765460480	74	4636
2026-01-03 03:44:33.20	318.85	25.84	-55.1	-56.6	14.9	0.00e+00	0	31	0	772800512	75	4533
2026-01-03 03:44:37.19	317.73	25.62	-55.2	-56.8	14.8	0.00e+00	0	31	0	780140544	75	4601
2026-01-03 03:44:41.16	316.63	25.39	-55.5	-57.2	14.7	0.00e+00	0	31	0	788529152	76	4571
2026-01-03 03:44:45.16	315.53	25.15	-55.3	-56.8	14.9	0.00e+00	0	31	0	795869184	76	4384
2026-01-03 03:44:49.15	314.46	24.90	-55.3	-56.8	14.9	0.00e+00	0	31	0	803209216	76	4372
2026-01-03 03:44:53.15	313.40	24.64	-55.4	-56.9	14.8	0.00e+00	0	31	0	810549248	76	4441
2026-01-03 03:44:57.15	312.36	24.37	-55.1	-56.6	15.0	0.00e+00	0	31	0	817889280	76	4272
2026-01-03 03:45:01.13	311.34	24.10	-55.2	-56.7	14.9	0.00e+00	0	31	0	825229312	76	4320
2026-01-03 03:45:05.11	310.34	23.82	-54.9	-56.4	15.1	0.00e+00	0	31	0	832569344	76	4172
2026-01-03 03:45:09.10	309.35	23.53	-54.4	-55.8	15.3	0.00e+00	0	31	0	839909376	75	4108
2026-01-03 03:45:13.10	308.38	23.24	-54.6	-55.9	15.2	0.00e+00	0	31	0	848297984	75	4185
2026-01-03 03:45:17.10	307.43	22.94	-54.0	-55.3	15.4	0.00e+00	0	31	0	855638016	74	4118
2026-01-03 03:45:21.09	306.50	22.64	-53.9	-55.1	15.4	0.00e+00	0	31	0	862978048	74	4043
2026-01-03 03:45:25.08	305.59	22.34	-53.9	-55.1	15.5	0.00e+00	0	31	0	870318080	74	4026
2026-01-03 03:45:29.07	304.70	22.03	-53.9	-55.1	15.5	0.00e+00	0	31	0	877658112	74	4037
2026-01-03 03:45:33.06	303.82	21.71	-53.9	-55.2	15.4	0.00e+00	0	31	0	884998144	74	4072
2026-01-03 03:45:37.07	302.96	21.39	-53.6	-54.8	15.5	0.00e+00	0	31	0	892338176	73	4129
2026-01-03 03:45:41.06	302.12	21.07	-53.5	-54.6	15.6	0.00e+00	0	31	0	900726784	73	4050
2026-01-03 03:45:45.06	301.29	20.75	-53.3	-54.4	15.6	0.00e+00	0	31	0	908066816	73	3923
2026-01-03 03:45:49.06	300.48	20.43	-53.2	-54.3	15.6	0.00e+00	0	31	0	915406848	72	4123
2026-01-03 03:45:53.05	299.69	20.10	-53.2	-54.3	15.6	0.00e+00	0	31	0	922746880	72	4130
2026-01-03 03:45:57.04	298.92	19.77	-52.8	-53.9	15.7	0.00e+00	0	31	0	930086912	72	3931
2026-01-03 03:46:01.03	298.17	19.44	-52.9	-54.0	15.7	0.00e+00	0	31	0	937426944	72	3964
2026-01-03 03:46:05.01	297.43	19.12	-52.8	-53.9	15.8	0.00e+00	0	31	0	944766976	72	3934
2026-01-03 03:46:09.02	296.70	18.78	-52.9	-54.0	15.7	0.00e+00	0	31	0	953155584	72	3968
2026-01-03 03:46:13.02	295.99	18.45	-53.0	-54.1	15.7	0.00e+00	0	31	0	960495616	72	4012
2026-01-03 03:46:17.02	295.30	18.12	-52.9	-54.0	15.7	0.00e+00	0	31	0	967835648	72	3990
2026-01-03 03:46:21.04	294.62	17.79	-53.3	-54.5	15.5	0.00e+00	0	31	0	975175680	72	4204
2026-01-03 03:46:25.03	293.96	17.46	-53.2	-54.3	15.6	0.00e+00	0	31	0	982515712	72	4135
2026-01-03 03:46:29.03	293.31	17.13	-53.4	-54.6	15.5	0.00e+00	0	31	0	989855744	72	4261
2026-01-03 03:46:33.04	292.67	16.80	-53.9	-55.1	15.3	0.00e+00	0	31	0	998244352	73	4281
2026-01-03 03:46:37.04	292.05	16.47	-54.0	-55.3	15.3	0.00e+00	0	31	0	1005584384	73	4346
2026-01-03 03:46:41.04	291.44	16.15	-54.1	-55.4	15.2	0.00e+00	0	31	0	1012924416	73	4410
2026-01-03 03:46:45.04	290.85	15.82	-54.0	-55.3	15.2	0.00e+00	0	31	0	1020264448	73	4383
2026-01-03 03:46:49.05	290.27	15.49	-54.1	-55.4	15.2	0.00e+00	0	31	0	1027604480	73	4406
2026-01-03 03:46:53.03	289.70	15.17	-54.2	-55.6	15.1	0.00e+00	0	31	0	1034944512	73	4506
2026-01-03 03:46:57.01	289.15	14.85	-54.5	-56.0	15.0	0.00e+00	0	31	0	1042284544	74	4442
2026-01-03 03:47:01.00	288.61	14.53	-54.4	-55.8	15.1	0.00e+00	0	31	0	1049624576	74	4382
2026-01-03 03:47:05.00	288.07	14.21	-54.6	-56.1	14.9	0.00e+00	0	31	0	1058013184	74	4510
2026-01-03 03:47:09.00	287.55	13.90	-54.9	-56.4	14.8	0.00e+00	0	31	0	1065353216	74	4686
2026-01-03 03:47:12.99	287.05	13.58	-54.8	-56.3	14.9	0.00e+00	0	31	0	1072693248	75	4390
2026-01-03 03:47:16.99	286.55	13.27	-54.5	-56.0	15.0	0.00e+00	0	31	0	1080033280	75	4229
2026-01-03 03:47:21.00	286.06	12.96	-54.9	-56.5	14.8	0.00e+00	0	31	0	1087373312	75	4481
2026-01-03 03:47:25.00	285.58	12.65	-55.2	-56.8	14.6	0.00e+00	0	31	0	1094713344	75	4648
2026-01-03 03:47:28.99	285.12	12.34	-55.2	-56.8	14.6	0.00e+00	0	31	0	1103101952	75	4649
2026-01-03 03:47:32.98	284.66	12.03	-55.5	-57.3	14.5	0.00e+00	0	31	0	1110441984	76	4638
2026-01-03 03:47:36.98	284.21	11.73	-55.8	-57.7	14.2	0.00e+00	0	31	0	1117782016	76	4852
2026-01-03 03:47:40.98	283.77	11.43	-55.7	-57.6	14.3	0.00e+00	0	31	0	1125122048	77	4503
2026-01-03 03:47:44.99	283.34	11.13	-55.8	-57.7	14.3	0.00e+00	0	31	0	1132462080	77	4564
2026-01-03 03:47:48.98	282.92	10.83	-55.8	-57.7	14.3	0.00e+00	0	31	0	1139802112	77	4570
2026-01-03 03:47:52.96	282.51	10.54	-55.9	-58.0	14.1	0.00e+00	0	31	0	1147142144	77	4713
2026-01-03 03:47:56.96	282.11	10.24	-55.8	-57.8	14.2	0.00e+00	0	31	0	1155530752	77	4614
2026-01-03 03:48:00.94	281.72	9.95	-55.8	-57.7	14.3	0.00e+00	0	31	0	1162870784	77	4581
2026-01-03 03:48:04.94	281.33	9.66	-55.9	-57.8	14.2	0.00e+00	0	31	0	1170210816	77	4647
2026-01-03 03:48:08.93	280.95	9.38	-56.1	-58.2	14.0	0.00e+00	0	31	0	1177550848	77	4856
2026-01-03 03:48:12.95	280.58	9.09	-56.3	-58.5	13.8	0.00e+00	0	31	0	1184890880	77	5016
2026-01-03 03:48:16.94	280.22	8.81	-56.3	-58.5	13.8	0.00e+00	0	31	0	1192230912	77	5035
2026-01-03 03:48:20.94	279.86	8.53	-56.4	-58.7	13.7	0.00e+00	0	31	0	1199570944	78	4853
2026-01-03 03:48:24.94	279.51	8.25	-56.6	-59.0	13.5	0.00e+00	0	31	0	1207959552	78	5029
2026-01-03 03:48:28.92	279.17	7.97	-56.7	-59.3	13.3	0.00e+00	0	31	0	1215299584	78	5192
2026-01-03 03:48:32.93	278.83	7.70	-56.6	-59.1	13.4	0.00e+00	0	31	0	1222639616	78	5049
2026-01-03 03:48:36.93	278.50	7.42	-56.4	-58.8	13.6	0.00e+00	0	31	0	1229979648	78	4890
2026-01-03 03:48:40.91	278.18	7.15	-56.4	-58.8	13.6	0.00e+00	0	31	0	1237319680	78	4911
2026-01-03 03:48:44.91	277.86	6.88	-56.6	-59.1	13.4	0.00e+00	0	31	0	1244659712	78	5064
2026-01-03 03:48:48.90	277.55	6.62	-56.6	-59.2	13.3	0.00e+00	0	31	0	1251999744	78	5121
2026-01-03 03:48:52.91	277.24	6.35	-56.8	-59.5	13.0	0.00e+00	0	31	0	1260388352	78	5340
2026-01-03 03:48:56.90	276.94	6.09	-56.8	-59.6	13.0	0.00e+00	0	31	0	1267728384	78	5348
2026-01-03 03:49:00.88	276.65	5.83	-56.9	-59.8	12.9	0.00e+00	0	31	0	1275068416	79	5169
2026-01-03 03:49:04.86	276.36	5.57	-57.1	-60.1	12.6	7.00e-07	0	31	0	1282408448	79	5366
2026-01-03 03:49:08.84	276.08	5.32	-57.1	-60.3	12.5	0.00e+00	0	31	0	1289748480	79	5474
2026-01-03 03:49:12.83	275.80	5.06	-57.1	-60.3	12.4	7.00e-07	0	31	0	1297088512	79	5484
2026-01-03 03:49:16.84	275.53	4.81	-61.2	-76.8	3.8	1.49e+00	0	31	104	1299185664	87	23102
2026-01-03 03:49:20.85	275.26	4.55	-61.6	-77.2	3.8	1.49e+00	0	31	104	1299185664	88	22883
2026-01-03 03:49:24.85	275.00	4.30	-61.8	-77.5	3.8	1.49e+00	0	31	104	1299185664	88	23637
2026-01-03 03:49:28.84	274.74	4.05	-62.0	-77.6	3.8	1.49e+00	0	31	104	1299185664	89	22760
2026-01-03 03:49:32.83	274.48	3.81	-62.2	-77.8	3.8	1.49e+00	0	31	104	1299185664	89	23138
2026-01-03 03:49:36.82	274.23	3.56	-62.1	-77.8	3.8	1.49e+00	0	31	104	1299185664	89	23110
2026-01-03 03:49:40.83	273.99	3.32	-62.0	-77.6	3.8	1.49e+00	0	31	104	1299185664	89	22722
2026-01-03 03:49:44.82	273.75	3.08	-62.0	-77.6	3.8	1.49e+00	0	31	104	1299185664	89	22592
2026-01-03 03:49:48.82	273.51	2.84	-61.9	-77.5	3.8	1.49e+00	0	31	104	1299185664	89	22520
2026-01-03 03:49:52.82	273.28	2.60	-61.9	-77.5	3.8	1.49e+00	0	31	104	1299185664	89	22471
2026-01-03 03:49:56.82	273.05	2.36	-61.9	-77.5	3.8	1.49e+00	0	31	104	1299185664	89	22451
2026-01-03 03:50:00.80	272.82	2.13	-61.9	-77.5	3.8	1.49e+00	0	31	104	1299185664	89	22422
2026-01-03 03:50:04.79	272.60	1.89	-61.9	-77.5	3.8	1.49e+00	0	31	104	1299185664	89	22419

#Closed at: 2026-01-03 03:50:05
#Recorded file [1299 MB]: D:/lorett/data/31004_260103_063657.dat