passes_logs/2026/01/03/R3.2S_Murmansk/R3.2S_Murmansk__20260103_105639_TY-42_rec.log

#Pass ID: 20260103_105639_TY-42
#Satellite: TY-42
#Configuration: TY-42_900M
#almurnet v.1.7.20251203
#Start time: 2026-01-03 10:56:38

#Version: 2.2.20231116
#Station: R3.2S_Murmansk
#Location: 33.079688 lon 68.888172 lat
#TLE: 1 64048U 25103A   26003.26844907  .00008006  00000-0  38191-3 0 09993
#TLE: 2 64048 097.4108 078.9075 0001627 094.5447 046.7649 15.19153010 35031

#Time	Az	El	Level	Level2	SNR	BER	BlckErr	Temp	State	Recorded	gain1	gain2
2026-01-03 10:56:38.81	23.17	1.97	-59.2	-62.0	6.1	0.00e+00	0	35	0	0	85	19616
2026-01-03 10:56:41.79	22.99	2.16	-59.3	-62.1	6.2	0.00e+00	0	35	104	0	85	19741
2026-01-03 10:56:44.77	22.81	2.36	-59.3	-62.0	6.2	0.00e+00	0	35	104	0	85	19678
2026-01-03 10:56:47.75	22.62	2.56	-59.3	-62.1	6.2	0.00e+00	0	35	104	0	85	19785
2026-01-03 10:56:50.73	22.43	2.76	-59.3	-62.1	6.2	0.00e+00	0	35	104	0	85	19733
2026-01-03 10:56:53.72	22.24	2.96	-59.3	-62.1	6.2	0.00e+00	0	35	104	0	85	19746
2026-01-03 10:56:56.70	22.05	3.17	-59.3	-62.1	6.2	0.00e+00	0	35	104	0	85	19770
2026-01-03 10:56:59.69	21.85	3.37	-59.3	-62.1	6.2	0.00e+00	0	35	104	0	85	19826
2026-01-03 10:57:02.67	21.64	3.58	-59.3	-62.1	6.2	0.00e+00	0	36	104	0	85	19798
2026-01-03 10:57:05.66	21.43	3.79	-59.3	-62.1	6.2	0.00e+00	0	36	104	0	85	19856
2026-01-03 10:57:08.64	21.22	4.00	-59.3	-62.1	6.2	0.00e+00	0	36	104	0	85	19851
2026-01-03 10:57:11.63	21.01	4.22	-59.3	-62.1	6.2	0.00e+00	0	36	104	0	85	19800
2026-01-03 10:57:14.62	20.79	4.43	-59.3	-62.1	6.2	0.00e+00	0	36	104	0	85	19858
2026-01-03 10:57:17.59	20.56	4.65	-59.3	-62.1	6.2	0.00e+00	0	36	104	0	85	19835
2026-01-03 10:57:20.58	20.34	4.87	-59.3	-62.1	6.2	0.00e+00	0	36	104	0	85	19821
2026-01-03 10:57:23.58	20.10	5.09	-59.4	-62.2	6.2	0.00e+00	0	36	104	0	85	20094
2026-01-03 10:57:26.58	19.86	5.31	-59.4	-62.2	6.2	0.00e+00	0	37	104	0	85	20019
2026-01-03 10:57:29.57	19.62	5.54	-59.4	-62.2	6.2	0.00e+00	0	37	104	0	85	20080
2026-01-03 10:57:32.57	19.37	5.77	-59.5	-62.3	6.2	0.00e+00	0	37	104	0	85	20184
2026-01-03 10:57:35.56	19.12	6.00	-59.5	-62.3	6.2	0.00e+00	0	37	104	0	85	20179
2026-01-03 10:57:38.56	18.86	6.23	-59.5	-62.3	6.2	0.00e+00	0	37	104	0	85	20351
2026-01-03 10:57:41.54	18.59	6.47	-59.6	-62.4	6.2	0.00e+00	0	37	104	0	85	20403
2026-01-03 10:57:44.54	18.32	6.71	-59.6	-62.3	6.2	0.00e+00	0	37	104	0	85	20396
2026-01-03 10:57:47.53	18.05	6.95	-59.6	-62.4	6.2	0.00e+00	0	37	104	0	85	20436
2026-01-03 10:57:50.53	17.76	7.19	-59.6	-62.4	6.2	0.00e+00	0	37	104	0	85	20454
2026-01-03 10:57:53.52	17.48	7.43	-59.7	-62.4	6.2	0.00e+00	0	37	104	0	85	20598
2026-01-03 10:57:56.52	17.18	7.68	-59.7	-62.4	6.2	0.00e+00	0	37	104	0	85	20609
2026-01-03 10:57:59.52	16.88	7.93	-59.6	-62.4	6.2	0.00e+00	0	37	104	0	85	20463
2026-01-03 10:58:02.52	16.57	8.18	-59.7	-62.4	6.2	0.00e+00	0	37	104	0	85	20514
2026-01-03 10:58:05.50	16.26	8.44	-59.7	-62.4	6.2	0.00e+00	0	38	104	0	85	20583
2026-01-03 10:58:08.49	15.94	8.70	-59.7	-62.5	6.2	0.00e+00	0	38	104	0	85	20655
2026-01-03 10:58:11.51	15.60	8.96	-59.8	-62.5	6.2	0.00e+00	0	38	104	0	85	20765
2026-01-03 10:58:14.50	15.27	9.22	-59.8	-62.6	6.2	0.00e+00	0	38	104	0	85	20929
2026-01-03 10:58:17.49	14.92	9.49	-50.5	-50.6	9.9	0.00e+00	5512	39	0	25165824	68	14080
2026-01-03 10:58:20.48	14.57	9.76	-49.5	-49.6	10.4	2.64e-01	4454	40	0	360710144	66	13969
2026-01-03 10:58:23.46	14.21	10.03	-46.8	-46.7	11.7	2.15e-01	0	39	0	729808896	60	14195
2026-01-03 10:58:26.18	13.87	10.28	-46.0	-45.8	12.1	7.75e-02	0	40	0	1031798784	59	13632
2026-01-03 10:58:29.49	13.46	10.59	-43.9	-43.8	11.9	3.90e-02	0	40	0	1409286144	55	13503
2026-01-03 10:58:32.22	13.10	10.84	-42.8	-42.6	11.3	2.58e-02	0	40	0	1719664640	52	14104
2026-01-03 10:58:35.51	12.67	11.16	-42.5	-42.4	11.3	4.89e-02	0	40	0	2080374784	52	13635
2026-01-03 10:58:38.24	12.29	11.42	-42.4	-42.2	11.3	4.86e-02	0	40	0	2390753280	51	14262
2026-01-03 10:58:41.54	11.83	11.74	-42.3	-42.1	11.4	4.71e-02	0	40	0	2759852032	51	14005
2026-01-03 10:58:44.26	11.45	12.01	-42.1	-41.9	11.4	4.50e-02	0	40	0	3070230528	51	13726
2026-01-03 10:58:47.56	10.96	12.34	-41.9	-41.8	11.5	4.31e-02	0	40	0	3439329280	51	13489
2026-01-03 10:58:50.31	10.55	12.61	-41.9	-41.8	11.4	4.02e-02	0	41	0	3749707776	50	14306
2026-01-03 10:58:53.62	10.04	12.95	-41.7	-41.5	11.5	3.88e-02	0	41	0	4127195136	50	13908
2026-01-03 10:58:56.35	9.61	13.23	-41.5	-41.3	11.5	3.89e-02	0	41	0	4429185024	50	13625
2026-01-03 10:58:59.68	9.07	13.58	-41.3	-41.1	11.5	3.92e-02	0	41	0	4806672384	49	14009
2026-01-03 10:59:02.41	8.61	13.86	-41.2	-41.0	11.6	3.31e-02	0	41	0	5108662272	49	13881
2026-01-03 10:59:05.72	8.05	14.21	-41.0	-40.8	11.6	3.18e-02	0	41	0	5486149632	49	13507
2026-01-03 10:59:08.45	7.57	14.51	-41.0	-40.8	11.6	3.01e-02	0	41	0	5788139520	49	13539
2026-01-03 10:59:11.73	6.98	14.86	-40.8	-40.6	11.7	2.79e-02	0	41	0	6157238272	48	14059
2026-01-03 10:59:14.45	6.48	15.16	-40.7	-40.5	11.7	2.45e-02	0	42	0	6467616768	48	13850
2026-01-03 10:59:17.75	5.85	15.53	-40.7	-40.5	11.7	2.44e-02	0	41	0	6836715520	48	13946
2026-01-03 10:59:20.49	5.31	15.83	-40.6	-40.4	11.7	2.16e-02	0	42	0	7147094016	48	13753
2026-01-03 10:59:23.80	4.65	16.21	-40.6	-40.4	11.7	1.83e-02	0	41	0	7516192768	48	13717
2026-01-03 10:59:26.54	4.09	16.52	-40.5	-40.3	11.8	1.69e-02	0	41	0	7826571264	48	13519
2026-01-03 10:59:29.83	3.39	16.90	-39.5	-39.3	11.7	1.24e-02	0	41	0	8195670016	46	13606
2026-01-03 10:59:32.55	2.80	17.21	-39.5	-39.3	11.7	1.29e-02	0	41	0	8497659904	46	13535
2026-01-03 10:59:35.87	2.05	17.60	-39.3	-39.1	11.7	1.57e-02	0	41	0	8875147264	45	14012
2026-01-03 10:59:38.61	1.42	17.93	-39.2	-39.0	11.7	1.47e-02	0	42	0	9177137152	45	13814
2026-01-03 10:59:41.90	0.65	18.32	-39.1	-38.9	11.7	1.55e-02	0	42	0	9554624512	45	13757
2026-01-03 10:59:44.65	359.98	18.65	-38.8	-38.6	11.7	1.49e-02	0	42	0	9865003008	44	14038
2026-01-03 10:59:48.01	359.14	19.05	-38.5	-38.4	11.8	1.24e-02	0	42	0	10234101760	44	13639
2026-01-03 10:59:50.73	358.44	19.38	-38.4	-38.2	11.8	1.24e-02	0	42	0	10544480256	44	13433
2026-01-03 10:59:54.04	357.57	19.78	-38.3	-38.1	11.8	1.04e-02	0	42	0	10921967616	43	14082
2026-01-03 10:59:56.82	356.81	20.12	-38.2	-38.0	11.8	1.05e-02	0	42	0	11232346112	43	13810
2026-01-03 11:00:00.09	355.90	20.52	-38.0	-37.8	11.8	1.04e-02	0	42	0	11601444864	43	13606
2026-01-03 11:00:02.81	355.12	20.86	-38.1	-37.9	11.8	1.12e-02	0	42	0	11903434752	43	13673
2026-01-03 11:00:06.11	354.14	21.26	-37.9	-37.7	11.8	9.68e-03	0	42	0	12272533504	42	14153
2026-01-03 11:00:08.86	353.31	21.60	-37.7	-37.5	12.3	8.76e-03	0	42	0	12582912000	42	13855
2026-01-03 11:00:12.14	352.28	22.00	-37.5	-37.3	11.5	4.46e-02	0	42	0	12952010752	42	13558
2026-01-03 11:00:14.90	351.40	22.34	-37.5	-37.3	11.5	4.46e-02	0	42	0	13262389248	42	13617
2026-01-03 11:00:18.21	350.31	22.74	-60.9	-63.7	6.2	8.71e-02	0	41	104	13421772800	87	21198
2026-01-03 11:00:20.95	349.38	23.08	-60.9	-63.7	6.2	8.71e-02	0	41	104	13421772800	87	21247
2026-01-03 11:00:24.26	348.23	23.47	-60.9	-63.7	6.2	4.20e-02	0	41	104	13421772800	87	21289
2026-01-03 11:00:26.99	347.26	23.80	-60.9	-63.7	6.2	4.20e-02	0	41	104	13421772800	87	21148
2026-01-03 11:00:30.28	346.06	24.19	-60.9	-63.7	6.2	4.20e-02	0	41	104	13421772800	87	21249
2026-01-03 11:00:33.08	345.01	24.51	-60.9	-63.8	6.2	4.20e-02	0	41	104	13421772800	87	21379
2026-01-03 11:00:36.21	343.81	24.87	-61.0	-63.8	6.2	4.20e-02	0	41	104	13421772800	87	21472
2026-01-03 11:00:39.05	342.69	25.18	-61.0	-63.8	6.2	4.20e-02	0	41	104	13421772800	87	21379
2026-01-03 11:00:42.18	341.43	25.53	-61.0	-63.8	6.2	0.00e+00	0	41	104	13421772800	87	21499
2026-01-03 11:00:44.99	340.27	25.83	-61.0	-63.8	6.2	0.00e+00	0	40	104	13421772800	87	21418
2026-01-03 11:00:48.12	338.95	26.15	-61.1	-63.9	6.2	0.00e+00	0	40	104	13421772800	87	21613
2026-01-03 11:00:50.95	337.74	26.44	-61.0	-63.8	6.2	0.00e+00	0	40	104	13421772800	87	21419
2026-01-03 11:00:54.08	336.36	26.74	-61.1	-63.9	6.2	0.00e+00	0	40	104	13421772800	88	20414
2026-01-03 11:00:56.90	335.10	27.00	-61.1	-63.9	6.2	0.00e+00	0	40	104	13421772800	88	20428
2026-01-03 11:01:00.02	333.68	27.27	-61.1	-63.9	6.2	0.00e+00	0	40	104	13421772800	88	20477
2026-01-03 11:01:02.86	332.36	27.51	-61.1	-63.9	6.2	0.00e+00	0	40	104	13421772800	88	20446
2026-01-03 11:01:05.97	330.89	27.76	-61.1	-63.9	6.2	0.00e+00	0	40	104	13421772800	88	20548
2026-01-03 11:01:08.80	329.53	27.96	-61.1	-63.9	6.2	0.00e+00	0	40	104	13421772800	88	20588
2026-01-03 11:01:11.93	328.01	28.18	-61.2	-63.9	6.2	0.00e+00	0	40	104	13421772800	88	20571
2026-01-03 11:01:14.77	326.61	28.35	-61.1	-63.9	6.2	0.00e+00	0	40	104	13421772800	88	20580
2026-01-03 11:01:17.87	325.06	28.53	-61.2	-63.9	6.2	0.00e+00	0	40	104	13421772800	88	20571
2026-01-03 11:01:20.71	323.63	28.67	-61.2	-64.0	6.2	0.00e+00	0	40	104	13421772800	88	20685
2026-01-03 11:01:23.85	322.03	28.80	-61.2	-64.0	6.2	0.00e+00	0	40	104	13421772800	88	20751
2026-01-03 11:01:26.69	320.57	28.90	-61.2	-64.0	6.2	0.00e+00	0	40	104	13421772800	88	20678
2026-01-03 11:01:29.83	318.95	28.99	-61.2	-64.0	6.2	0.00e+00	0	40	104	13421772800	88	20717
2026-01-03 11:01:32.67	317.47	29.05	-61.2	-64.0	6.2	0.00e+00	0	40	104	13421772800	88	20759
2026-01-03 11:01:35.79	315.85	29.10	-61.2	-64.0	6.2	0.00e+00	0	40	104	13421772800	88	20798
2026-01-03 11:01:38.63	314.36	29.12	-61.2	-64.0	6.2	0.00e+00	0	40	104	13421772800	88	20689
2026-01-03 11:01:41.76	312.73	29.12	-61.3	-64.0	6.2	0.00e+00	0	40	104	13421772800	88	20801
2026-01-03 11:01:44.59	311.25	29.10	-61.2	-64.0	6.2	0.00e+00	0	40	104	13421772800	88	20789
2026-01-03 11:01:47.70	309.63	29.05	-61.3	-64.0	6.2	0.00e+00	0	40	104	13421772800	88	20872
2026-01-03 11:01:50.54	308.15	28.98	-61.2	-64.0	6.2	0.00e+00	0	40	104	13421772800	88	20761
2026-01-03 11:01:53.66	306.54	28.89	-61.3	-64.0	6.2	0.00e+00	0	40	104	13421772800	88	20810
2026-01-03 11:01:56.50	305.08	28.79	-61.2	-64.0	6.2	0.00e+00	0	40	104	13421772800	88	20825
2026-01-03 11:01:59.62	303.49	28.65	-61.3	-64.1	6.2	0.00e+00	0	40	104	13421772800	88	21015
2026-01-03 11:02:02.45	302.06	28.51	-61.3	-64.1	6.2	0.00e+00	0	40	104	13421772800	88	20955
2026-01-03 11:02:05.56	300.51	28.34	-61.3	-64.1	6.2	0.00e+00	0	39	104	13421772800	88	20948
2026-01-03 11:02:08.41	299.11	28.16	-61.3	-64.1	6.2	0.00e+00	0	40	104	13421772800	88	20951
2026-01-03 11:02:11.54	297.58	27.95	-61.3	-64.1	6.2	0.00e+00	0	39	104	13421772800	88	20955
2026-01-03 11:02:14.37	296.22	27.74	-61.3	-64.1	6.2	0.00e+00	0	40	104	13421772800	88	20948
2026-01-03 11:02:17.52	294.74	27.49	-61.3	-64.1	6.2	0.00e+00	0	40	104	13421772800	88	20905
2026-01-03 11:02:20.37	293.41	27.25	-61.2	-64.0	6.2	0.00e+00	0	40	104	13421772800	88	20729
2026-01-03 11:02:23.49	291.99	26.97	-61.2	-64.0	6.2	0.00e+00	0	40	104	13421772800	88	20749
2026-01-03 11:02:26.33	290.72	26.70	-61.2	-64.0	6.2	0.00e+00	0	40	104	13421772800	88	20656
2026-01-03 11:02:29.47	289.34	26.40	-61.2	-63.9	6.2	0.00e+00	0	40	104	13421772800	88	20554
2026-01-03 11:02:32.31	288.12	26.11	-61.1	-63.9	6.2	0.00e+00	0	40	104	13421772800	88	20518
2026-01-03 11:02:35.44	286.80	25.78	-61.1	-63.9	6.2	0.00e+00	0	39	104	13421772800	88	20525
2026-01-03 11:02:38.28	285.63	25.48	-61.1	-63.9	6.2	0.00e+00	0	40	104	13421772800	88	20442
2026-01-03 11:02:41.39	284.38	25.14	-61.1	-63.8	6.2	0.00e+00	0	39	104	13421772800	88	20365
2026-01-03 11:02:44.24	283.26	24.82	-61.1	-63.8	6.2	0.00e+00	0	39	104	13421772800	88	20347
2026-01-03 11:02:47.37	282.06	24.46	-61.0	-63.8	6.2	0.00e+00	0	40	104	13421772800	88	20271
2026-01-03 11:02:50.20	280.99	24.13	-61.0	-63.8	6.2	0.00e+00	0	40	104	13421772800	88	20269
2026-01-03 11:02:53.32	279.85	23.76	-61.0	-63.8	6.2	0.00e+00	0	40	104	13421772800	88	20207
2026-01-03 11:02:56.16	278.84	23.42	-61.0	-63.7	6.2	0.00e+00	0	40	104	13421772800	88	20152
2026-01-03 11:02:59.29	277.75	23.04	-61.0	-63.7	6.2	0.00e+00	0	40	104	13421772800	88	20136
2026-01-03 11:03:02.14	276.79	22.69	-60.9	-63.7	6.2	0.00e+00	0	40	104	13421772800	88	20091
2026-01-03 11:03:05.27	275.76	22.31	-61.0	-63.7	6.2	0.00e+00	0	40	104	13421772800	88	20132
2026-01-03 11:03:08.10	274.85	21.96	-61.0	-63.7	6.2	0.00e+00	0	40	104	13421772800	88	20105
2026-01-03 11:03:11.22	273.87	21.58	-60.9	-63.7	6.2	0.00e+00	0	40	104	13421772800	88	19938
2026-01-03 11:03:14.07	273.01	21.23	-60.9	-63.6	6.2	0.00e+00	0	40	104	13421772800	88	19917
2026-01-03 11:03:17.18	272.08	20.84	-60.9	-63.7	6.2	0.00e+00	0	40	104	13421772800	88	19967
2026-01-03 11:03:20.02	271.27	20.49	-60.9	-63.6	6.2	0.00e+00	0	40	104	13421772800	88	19902
2026-01-03 11:03:23.15	270.39	20.11	-60.9	-63.6	6.2	0.00e+00	0	40	104	13421772800	88	19817
2026-01-03 11:03:26.00	269.61	19.76	-60.8	-63.7	6.2	0.00e+00	0	39	104	13421772800	88	19936
2026-01-03 11:03:29.13	268.78	19.38	-60.8	-63.6	6.2	0.00e+00	0	40	104	13421772800	88	19812
2026-01-03 11:03:31.96	268.05	19.03	-60.8	-63.6	6.2	0.00e+00	0	40	104	13421772800	88	19763
2026-01-03 11:03:35.09	267.26	18.66	-60.8	-63.6	6.2	0.00e+00	0	40	104	13421772800	88	19758
2026-01-03 11:03:37.92	266.57	18.32	-60.8	-63.5	6.2	0.00e+00	0	40	104	13421772800	88	19651
2026-01-03 11:03:41.07	265.82	17.94	-60.8	-63.5	6.2	0.00e+00	0	40	104	13421772800	88	19636
2026-01-03 11:03:43.91	265.16	17.60	-60.7	-63.5	6.2	0.00e+00	0	40	104	13421772800	88	19636
2026-01-03 11:03:47.03	264.46	17.24	-60.7	-63.5	6.2	0.00e+00	0	40	104	13421772800	88	19566
2026-01-03 11:03:49.89	263.83	16.90	-60.7	-63.5	6.2	0.00e+00	0	40	104	13421772800	88	19509
2026-01-03 11:03:53.02	263.17	16.54	-60.7	-63.4	6.2	0.00e+00	0	40	104	13421772800	88	19479
2026-01-03 11:03:55.86	262.58	16.21	-60.6	-63.4	6.2	0.00e+00	0	40	104	13421772800	88	19439
2026-01-03 11:03:58.99	261.94	15.86	-60.6	-63.4	6.2	0.00e+00	0	40	104	13421772800	88	19407
2026-01-03 11:04:01.83	261.38	15.54	-60.6	-63.4	6.2	0.00e+00	0	39	104	13421772800	88	19371
2026-01-03 11:04:04.97	260.78	15.19	-60.6	-63.4	6.2	0.00e+00	0	39	104	13421772800	88	19278
2026-01-03 11:04:07.80	260.25	14.88	-60.6	-63.4	6.2	0.00e+00	0	39	104	13421772800	88	19365
2026-01-03 11:04:10.93	259.68	14.54	-60.6	-63.3	6.2	0.00e+00	0	39	104	13421772800	88	19165
2026-01-03 11:04:13.76	259.18	14.23	-60.6	-63.3	6.2	0.00e+00	0	39	104	13421772800	88	19164
2026-01-03 11:04:16.89	258.64	13.90	-60.5	-63.3	6.2	0.00e+00	0	40	104	13421772800	88	19225
2026-01-03 11:04:19.74	258.16	13.59	-60.5	-63.3	6.2	0.00e+00	0	40	104	13421772800	88	19057
2026-01-03 11:04:22.86	257.65	13.27	-60.5	-63.3	6.2	0.00e+00	0	40	104	13421772800	88	19043
2026-01-03 11:04:25.71	257.20	12.97	-60.5	-63.3	6.2	0.00e+00	0	39	104	13421772800	88	19083
2026-01-03 11:04:28.84	256.71	12.65	-60.5	-63.2	6.2	0.00e+00	0	40	104	13421772800	88	18994
2026-01-03 11:04:31.68	256.28	12.36	-60.4	-63.2	6.2	0.00e+00	0	39	104	13421772800	88	18912
2026-01-03 11:04:34.82	255.81	12.05	-60.4	-63.2	6.2	0.00e+00	0	40	104	13421772800	88	18905
2026-01-03 11:04:37.66	255.40	11.77	-60.4	-63.1	6.2	0.00e+00	0	40	104	13421772800	87	19878
2026-01-03 11:04:40.79	254.96	11.46	-60.4	-63.1	6.2	0.00e+00	0	40	104	13421772800	87	19912
2026-01-03 11:04:43.63	254.57	11.19	-60.4	-63.2	6.2	0.00e+00	0	40	104	13421772800	87	20019
2026-01-03 11:04:46.77	254.15	10.89	-60.4	-63.1	6.2	0.00e+00	0	39	104	13421772800	87	19884
2026-01-03 11:04:49.60	253.77	10.62	-60.3	-63.1	6.2	0.00e+00	0	40	104	13421772800	87	19764
2026-01-03 11:04:52.74	253.37	10.32	-60.3	-63.1	6.2	0.00e+00	0	40	104	13421772800	87	19814
2026-01-03 11:04:55.59	253.02	10.06	-60.3	-63.1	6.2	0.00e+00	0	40	104	13421772800	87	19839
2026-01-03 11:04:58.72	252.63	9.77	-60.3	-63.1	6.2	0.00e+00	0	40	104	13421772800	87	19770
2026-01-03 11:05:01.55	252.29	9.52	-60.2	-63.0	6.2	0.00e+00	0	40	104	13421772800	87	19554
2026-01-03 11:05:04.69	251.93	9.24	-60.2	-63.0	6.2	0.00e+00	0	40	104	13421772800	87	19589
2026-01-03 11:05:07.53	251.60	8.98	-60.2	-62.9	6.2	0.00e+00	0	40	104	13421772800	87	19405
2026-01-03 11:05:10.66	251.26	8.71	-60.2	-63.0	6.2	0.00e+00	0	40	104	13421772800	87	19527
2026-01-03 11:05:13.51	250.95	8.46	-60.2	-63.0	6.2	0.00e+00	0	40	104	13421772800	87	19481
2026-01-03 11:05:16.63	250.61	8.20	-60.1	-62.9	6.2	0.00e+00	0	40	104	13421772800	87	19311
2026-01-03 11:05:19.47	250.32	7.95	-60.1	-62.8	6.2	0.00e+00	0	40	104	13421772800	87	19219
2026-01-03 11:05:22.61	250.00	7.69	-60.1	-62.8	6.2	0.00e+00	0	40	104	13421772800	87	19224
2026-01-03 11:05:25.44	249.71	7.45	-60.0	-62.7	6.2	0.00e+00	0	40	104	13421772800	87	18932
2026-01-03 11:05:28.57	249.41	7.20	-59.9	-62.7	6.2	0.00e+00	0	40	104	13421772800	87	18907
2026-01-03 11:05:31.41	249.14	6.97	-60.0	-62.7	6.2	0.00e+00	0	39	104	13421772800	87	18981
2026-01-03 11:05:34.53	248.85	6.71	-60.0	-62.7	6.2	0.00e+00	0	40	104	13421772800	86	20058
2026-01-03 11:05:37.38	248.59	6.49	-59.8	-62.5	6.2	0.00e+00	0	39	104	13421772800	86	19656
2026-01-03 11:05:40.51	248.30	6.24	-59.8	-62.5	6.2	0.00e+00	0	40	104	13421772800	86	19691
2026-01-03 11:05:43.36	248.05	6.02	-59.9	-62.6	6.2	0.00e+00	0	40	104	13421772800	86	19929
2026-01-03 11:05:46.47	247.79	5.78	-59.8	-62.6	6.2	0.00e+00	0	40	104	13421772800	86	19840
2026-01-03 11:05:49.31	247.55	5.56	-59.7	-62.4	6.2	0.00e+00	0	40	104	13421772800	86	19349
2026-01-03 11:05:52.44	247.29	5.32	-59.6	-62.4	6.2	0.00e+00	0	39	104	13421772800	86	19283
2026-01-03 11:05:55.27	247.06	5.11	-59.7	-62.5	6.2	0.00e+00	0	40	104	13421772800	86	19572
2026-01-03 11:05:58.41	246.81	4.87	-60.4	-63.1	6.2	0.00e+00	0	40	104	13421772800	86	20961
2026-01-03 11:06:01.29	246.59	4.66	-61.1	-63.8	6.2	0.00e+00	0	39	104	13421772800	87	21573
2026-01-03 11:06:04.44	246.35	4.43	-61.4	-64.2	6.2	0.00e+00	0	40	104	13421772800	88	21226
2026-01-03 11:06:07.30	246.13	4.22	-61.6	-64.3	6.2	0.00e+00	0	40	104	13421772800	88	21593
2026-01-03 11:06:10.46	245.90	3.99	-61.7	-64.4	6.2	0.00e+00	0	40	104	13421772800	89	20600
2026-01-03 11:06:13.33	245.70	3.79	-61.7	-64.4	6.2	0.00e+00	0	40	104	13421772800	89	20573
2026-01-03 11:06:16.50	245.47	3.57	-61.7	-64.5	6.2	0.00e+00	0	39	104	13421772800	89	20806
2026-01-03 11:06:19.36	245.27	3.37	-61.7	-64.4	6.2	0.00e+00	0	40	104	13421772800	89	20625
2026-01-03 11:06:22.48	245.06	3.15	-61.7	-64.4	6.2	0.00e+00	0	40	104	13421772800	89	20601
2026-01-03 11:06:25.32	244.87	2.95	-61.6	-64.4	6.2	0.00e+00	0	40	104	13421772800	89	20574
2026-01-03 11:06:28.45	244.67	2.74	-61.6	-64.4	6.2	0.00e+00	0	40	104	13421772800	89	20511
2026-01-03 11:06:31.29	244.49	2.55	-61.6	-64.4	6.2	0.00e+00	0	40	104	13421772800	89	20441
2026-01-03 11:06:34.42	244.29	2.34	-61.6	-64.3	6.2	0.00e+00	0	40	104	13421772800	89	20348
2026-01-03 11:06:37.27	244.11	2.15	-61.6	-64.3	6.2	0.00e+00	0	40	104	13421772800	89	20357
2026-01-03 11:06:40.38	243.92	1.94	-61.6	-64.3	6.2	0.00e+00	0	40	104	13421772800	89	20389

#Closed at: 2026-01-03 11:06:40
#Recorded file [13421 MB]: D:/lorett/data/31004_260103_135638.dat