passes_logs/2026/01/03/R3.2S_Murmansk/R3.2S_Murmansk__20260103_041740_FENGYUN_3D_rec.log

#Pass ID: 20260103_041740_FENGYUN 3D
#Satellite: FENGYUN 3D
#Configuration: FENGYUN 3D
#almurnet v.1.7.20251203
#Start time: 2026-01-03 04:17:42

#Version: 2.2.20231116
#Station: R3.2S_Murmansk
#Location: 33.079688 lon 68.888172 lat
#TLE: 1 43010U 17072A   26002.81102625  .00000200  00000+0  11640-3 0  9996
#TLE: 2 43010  98.9911 334.4394 0001899 131.0556 229.0784 14.19692049421526

#Time	Az	El	Level	Level2	SNR	BER	BlckErr	Temp	State	Recorded	gain1	gain2
2026-01-03 04:17:42.22	32.81	2.08	-59.4	-72.0	3.8	8.45e-01	0	29	0	0	85	14924
2026-01-03 04:17:46.22	32.68	2.33	-59.2	-71.7	3.8	8.45e-01	0	29	104	0	83	16280
2026-01-03 04:17:50.21	32.54	2.58	-59.2	-71.8	3.8	8.45e-01	0	29	104	0	83	16319
2026-01-03 04:17:54.21	32.41	2.84	-59.2	-71.8	3.8	8.46e-01	0	29	104	0	83	16427
2026-01-03 04:17:58.22	32.27	3.09	-59.2	-71.6	3.8	8.45e-01	0	29	104	0	83	16050
2026-01-03 04:18:02.23	32.13	3.35	-59.2	-71.5	3.8	8.46e-01	0	29	104	0	83	15794
2026-01-03 04:18:06.22	31.98	3.61	-59.1	-69.9	3.8	8.44e-01	0	30	104	0	83	13201
2026-01-03 04:18:10.22	31.84	3.87	-59.1	-69.9	3.8	8.44e-01	0	29	104	0	83	13195
2026-01-03 04:18:14.21	31.69	4.14	-58.8	-67.6	4.4	8.32e-01	0	30	0	0	83	10062
2026-01-03 04:18:18.20	31.53	4.41	-57.7	-62.6	7.5	1.14e-01	0	30	0	11534336	82	6001
2026-01-03 04:18:22.20	31.38	4.68	-56.8	-60.3	9.5	6.64e-03	0	30	0	34603008	80	5171
2026-01-03 04:18:26.19	31.22	4.95	-57.0	-60.7	9.1	8.68e-03	0	30	0	56623104	80	5426
2026-01-03 04:18:30.20	31.05	5.22	-58.3	-65.0	5.6	5.84e-01	0	30	0	77594624	82	7949
2026-01-03 04:18:34.19	30.89	5.50	-52.4	-53.6	14.3	0.00e+00	0	30	0	99614720	71	4006
2026-01-03 04:18:38.19	30.72	5.78	-51.6	-52.7	14.6	0.00e+00	0	30	0	121634816	69	4065
2026-01-03 04:18:42.18	30.55	6.06	-51.6	-52.6	14.7	0.00e+00	0	30	0	143654912	69	4024
2026-01-03 04:18:46.16	30.37	6.35	-51.6	-52.6	14.7	0.00e+00	0	30	0	166723584	69	4015
2026-01-03 04:18:50.15	30.19	6.64	-51.3	-52.3	14.9	0.00e+00	0	30	0	188743680	69	3882
2026-01-03 04:18:54.14	30.01	6.93	-51.2	-52.2	15.0	0.00e+00	0	30	0	211812352	69	3831
2026-01-03 04:18:58.14	29.82	7.22	-51.1	-52.0	14.9	0.00e+00	0	30	0	233832448	68	3996
2026-01-03 04:19:02.13	29.62	7.52	-51.1	-52.0	15.0	0.00e+00	0	30	0	255852544	68	3964
2026-01-03 04:19:06.14	29.43	7.82	-51.1	-52.0	15.0	0.00e+00	0	30	0	278921216	68	3961
2026-01-03 04:19:10.13	29.22	8.13	-51.1	-52.0	15.0	0.00e+00	0	31	0	300941312	68	4000
2026-01-03 04:19:14.12	29.02	8.43	-51.0	-51.9	15.0	0.00e+00	0	30	0	324009984	68	3956
2026-01-03 04:19:18.12	28.81	8.74	-51.1	-52.0	15.0	0.00e+00	0	30	0	346030080	68	3966
2026-01-03 04:19:22.10	28.59	9.06	-51.0	-51.9	15.1	0.00e+00	0	30	0	368050176	68	3927
2026-01-03 04:19:26.11	28.37	9.38	-50.8	-51.7	15.2	0.00e+00	0	30	0	391118848	68	3833
2026-01-03 04:19:30.12	28.14	9.70	-50.9	-51.7	15.1	0.00e+00	0	30	0	414187520	68	3863
2026-01-03 04:19:34.12	27.91	10.02	-51.0	-51.9	15.1	0.00e+00	0	30	0	436207616	68	3914
2026-01-03 04:19:38.13	27.67	10.35	-50.4	-51.3	15.3	0.00e+00	0	31	0	459276288	67	3883
2026-01-03 04:19:42.12	27.43	10.69	-50.5	-51.4	15.2	0.00e+00	0	30	0	481296384	67	3926
2026-01-03 04:19:46.10	27.18	11.02	-50.3	-51.1	15.4	0.00e+00	0	30	0	503316480	67	3795
2026-01-03 04:19:50.11	26.92	11.37	-50.2	-51.0	15.3	0.00e+00	0	30	0	526385152	66	3964
2026-01-03 04:19:54.11	26.66	11.71	-50.1	-50.8	15.4	0.00e+00	0	30	0	548405248	66	3912
2026-01-03 04:19:58.11	26.39	12.06	-50.1	-50.9	15.4	0.00e+00	0	30	0	571473920	66	3958
2026-01-03 04:20:02.10	26.12	12.42	-50.2	-51.0	15.3	0.00e+00	0	31	0	593494016	66	3976
2026-01-03 04:20:06.09	25.84	12.77	-49.9	-50.7	15.5	0.00e+00	0	31	0	616562688	66	3839
2026-01-03 04:20:10.10	25.55	13.14	-49.8	-50.5	15.5	0.00e+00	0	30	0	638582784	66	3771
2026-01-03 04:20:14.07	25.25	13.50	-49.6	-50.4	15.5	0.00e+00	0	30	0	660602880	65	3917
2026-01-03 04:20:18.07	24.95	13.88	-49.5	-50.2	15.6	0.00e+00	0	30	0	683671552	65	3854
2026-01-03 04:20:22.06	24.63	14.25	-49.3	-50.0	15.7	0.00e+00	0	31	0	705691648	65	3770
2026-01-03 04:20:26.06	24.31	14.64	-49.4	-50.1	15.7	0.00e+00	0	31	0	728760320	65	3809
2026-01-03 04:20:30.06	23.98	15.02	-49.3	-50.0	15.7	0.00e+00	0	31	0	750780416	65	3770
2026-01-03 04:20:34.05	23.64	15.42	-49.2	-50.0	15.6	0.00e+00	0	31	0	772800512	64	3963
2026-01-03 04:20:38.05	23.29	15.82	-48.9	-49.6	15.8	0.00e+00	0	31	0	795869184	64	3790
2026-01-03 04:20:42.03	22.93	16.22	-48.7	-49.4	15.9	0.00e+00	0	31	0	817889280	64	3699
2026-01-03 04:20:46.03	22.56	16.63	-48.8	-49.5	15.8	0.00e+00	0	31	0	840957952	64	3758
2026-01-03 04:20:50.02	22.18	17.04	-48.8	-49.5	15.8	0.00e+00	0	31	0	862978048	64	3761
2026-01-03 04:20:54.01	21.79	17.46	-48.7	-49.3	15.8	0.00e+00	0	31	0	886046720	63	3902
2026-01-03 04:20:58.02	21.39	17.89	-48.5	-49.2	15.8	0.00e+00	0	31	0	908066816	63	3833
2026-01-03 04:21:02.02	20.97	18.32	-48.4	-49.0	15.9	0.00e+00	0	31	0	931135488	63	3762
2026-01-03 04:21:06.03	20.54	18.76	-48.3	-49.0	15.9	0.00e+00	0	31	0	953155584	63	3754
2026-01-03 04:21:10.02	20.10	19.21	-48.2	-48.8	16.0	0.00e+00	0	31	0	976224256	63	3685
2026-01-03 04:21:14.02	19.65	19.66	-48.1	-48.7	15.9	0.00e+00	0	31	0	998244352	62	3852
2026-01-03 04:21:18.04	19.17	20.12	-47.9	-48.5	16.0	0.00e+00	0	31	0	1021313024	62	3777
2026-01-03 04:21:22.06	18.69	20.59	-47.8	-48.5	16.0	0.00e+00	0	31	0	1043333120	62	3742
2026-01-03 04:21:26.06	18.19	21.06	-47.9	-48.6	16.0	0.00e+00	0	31	0	1065353216	62	3787
2026-01-03 04:21:30.05	17.68	21.53	-47.9	-48.5	16.0	0.00e+00	0	31	0	1088421888	62	3754
2026-01-03 04:21:34.06	17.14	22.02	-47.7	-48.3	16.1	0.00e+00	0	31	0	1110441984	62	3686
2026-01-03 04:21:38.04	16.60	22.51	-47.8	-48.4	16.1	0.00e+00	0	31	0	1133510656	62	3733
2026-01-03 04:21:42.03	16.03	23.00	-47.7	-48.4	16.0	0.00e+00	0	31	0	1155530752	62	3702
2026-01-03 04:21:46.03	15.44	23.50	-47.5	-48.1	16.1	0.00e+00	0	31	0	1178599424	61	3788
2026-01-03 04:21:50.01	14.84	24.01	-47.2	-47.8	16.2	0.00e+00	0	31	0	1200619520	61	3689
2026-01-03 04:21:54.02	14.21	24.53	-47.4	-48.0	16.1	0.00e+00	0	31	0	1223688192	61	3779
2026-01-03 04:21:58.00	13.57	25.05	-47.4	-48.0	16.1	0.00e+00	0	31	0	1245708288	61	3744
2026-01-03 04:22:02.00	12.90	25.58	-47.2	-47.8	16.2	0.00e+00	0	31	0	1267728384	61	3658
2026-01-03 04:22:06.01	12.20	26.11	-47.3	-47.9	16.0	0.00e+00	0	31	0	1290797056	60	3924
2026-01-03 04:22:10.00	11.49	26.65	-47.1	-47.7	16.1	0.00e+00	0	31	0	1312817152	60	3854
2026-01-03 04:22:14.01	10.74	27.20	-46.9	-47.5	16.2	0.00e+00	0	31	0	1335885824	60	3757
2026-01-03 04:22:18.00	9.97	27.75	-46.9	-47.5	16.1	0.00e+00	0	31	0	1357905920	60	3764
2026-01-03 04:22:22.00	9.18	28.31	-46.8	-47.4	16.2	0.00e+00	0	31	0	1380974592	60	3720
2026-01-03 04:22:25.98	8.36	28.87	-47.0	-47.6	16.2	0.00e+00	0	31	0	1402994688	60	3793
2026-01-03 04:22:29.99	7.50	29.43	-47.1	-47.7	16.1	0.00e+00	0	31	0	1425014784	60	3830
2026-01-03 04:22:34.00	6.61	30.01	-46.8	-47.4	16.2	0.00e+00	0	31	0	1448083456	60	3695
2026-01-03 04:22:38.00	5.69	30.58	-47.4	-47.9	15.9	0.00e+00	0	31	0	1470103552	59	4193
2026-01-03 04:22:41.98	4.74	31.15	-47.0	-47.6	16.2	0.00e+00	0	31	0	1493172224	60	3812
2026-01-03 04:22:45.96	3.76	31.73	-47.0	-47.6	16.1	0.00e+00	0	31	0	1515192320	59	4035
2026-01-03 04:22:49.94	2.74	32.30	-47.1	-47.7	16.1	0.00e+00	0	31	0	1537212416	59	4073
2026-01-03 04:22:53.93	1.68	32.88	-47.0	-47.6	16.1	0.00e+00	0	31	0	1560281088	59	4025
2026-01-03 04:22:57.94	0.57	33.46	-47.3	-47.9	16.0	0.00e+00	0	31	0	1582301184	59	4192
2026-01-03 04:23:01.92	359.44	34.04	-47.0	-47.6	16.1	0.00e+00	0	31	0	1605369856	59	4032
2026-01-03 04:23:05.93	358.25	34.62	-46.8	-47.4	16.2	0.00e+00	0	31	0	1627389952	59	3931
2026-01-03 04:23:09.95	357.02	35.19	-46.8	-47.3	16.2	0.00e+00	0	31	0	1650458624	59	3900
2026-01-03 04:23:13.96	355.74	35.76	-47.1	-47.7	16.1	0.00e+00	0	31	0	1672478720	59	4052
2026-01-03 04:23:17.96	354.43	36.32	-47.0	-47.6	16.1	0.00e+00	0	31	0	1695547392	59	4010
2026-01-03 04:23:21.97	353.06	36.87	-47.2	-47.8	16.0	0.00e+00	0	31	0	1717567488	59	4141
2026-01-03 04:23:25.98	351.65	37.41	-46.9	-47.5	16.1	0.00e+00	0	31	0	1740636160	59	3992
2026-01-03 04:23:29.98	350.20	37.94	-47.3	-47.9	16.0	0.00e+00	0	31	0	1762656256	59	4177
2026-01-03 04:23:33.99	348.69	38.45	-47.3	-47.9	16.0	0.00e+00	0	31	0	1785724928	59	4165
2026-01-03 04:23:38.01	347.13	38.96	-46.8	-47.4	16.3	0.00e+00	0	31	0	1807745024	60	3707
2026-01-03 04:23:42.02	345.53	39.44	-47.3	-47.9	16.0	0.00e+00	0	31	0	1830813696	59	4182
2026-01-03 04:23:46.00	343.89	39.90	-47.2	-47.8	16.0	0.00e+00	0	31	0	1852833792	59	4140
2026-01-03 04:23:49.98	342.20	40.33	-46.8	-47.3	16.2	0.00e+00	0	31	0	1875902464	59	3899
2026-01-03 04:23:53.98	340.46	40.75	-47.0	-47.6	16.1	0.00e+00	0	31	0	1897922560	59	4036
2026-01-03 04:23:57.97	338.68	41.14	-46.9	-47.5	16.2	0.00e+00	0	31	0	1920991232	59	3977
2026-01-03 04:24:01.96	336.86	41.50	-46.9	-47.5	16.2	0.00e+00	0	31	0	1943011328	59	3993
2026-01-03 04:24:05.96	334.99	41.83	-47.0	-47.5	16.2	0.00e+00	0	31	0	1965031424	59	4002
2026-01-03 04:24:09.96	333.09	42.13	-46.8	-47.4	16.2	0.00e+00	0	31	0	1988100096	59	3930
2026-01-03 04:24:13.97	331.15	42.39	-46.7	-47.3	16.2	0.00e+00	0	31	0	2010120192	59	3894
2026-01-03 04:24:17.98	329.18	42.62	-46.8	-47.3	16.2	0.00e+00	0	31	0	2033188864	59	3893
2026-01-03 04:24:21.98	327.19	42.81	-47.1	-47.7	16.1	0.00e+00	0	31	0	2055208960	59	4074
2026-01-03 04:24:25.98	325.17	42.96	-46.9	-47.4	16.2	0.00e+00	0	31	0	2078277632	59	3938
2026-01-03 04:24:29.97	323.15	43.08	-46.8	-47.4	16.2	0.00e+00	0	31	0	2100297728	59	3934
2026-01-03 04:24:33.97	321.10	43.15	-46.9	-47.4	16.2	0.00e+00	0	31	0	2123366400	59	3952
2026-01-03 04:24:37.96	319.06	43.18	-47.2	-47.8	16.1	0.00e+00	0	31	0	2145386496	59	4102
2026-01-03 04:24:41.98	317.00	43.17	-46.7	-47.3	16.3	0.00e+00	0	31	0	2168455168	59	3881
2026-01-03 04:24:45.98	314.95	43.11	-46.7	-47.3	16.2	0.00e+00	0	31	0	2190475264	59	3889
2026-01-03 04:24:49.97	312.92	43.02	-47.1	-47.7	16.1	0.00e+00	0	31	0	2212495360	59	4054
2026-01-03 04:24:53.95	310.90	42.89	-46.7	-47.3	16.3	0.00e+00	0	31	0	2235564032	59	3879
2026-01-03 04:24:57.95	308.90	42.72	-46.7	-47.3	16.2	0.00e+00	0	31	0	2257584128	59	3892
2026-01-03 04:25:01.94	306.92	42.51	-46.9	-47.5	16.2	0.00e+00	0	31	0	2280652800	59	3994
2026-01-03 04:25:05.95	304.96	42.26	-46.6	-47.1	16.3	0.00e+00	0	31	0	2302672896	59	3820
2026-01-03 04:25:09.95	303.04	41.98	-46.9	-47.5	16.2	0.00e+00	0	31	0	2325741568	59	3966
2026-01-03 04:25:13.94	301.16	41.66	-47.1	-47.7	16.1	0.00e+00	0	31	0	2347761664	59	4085
2026-01-03 04:25:17.93	299.32	41.32	-46.9	-47.5	16.2	0.00e+00	0	31	0	2369781760	59	3977
2026-01-03 04:25:21.94	297.50	40.94	-46.7	-47.3	16.3	0.00e+00	0	31	0	2392850432	59	3873
2026-01-03 04:25:25.92	295.75	40.54	-47.0	-47.6	16.2	0.00e+00	0	31	0	2414870528	59	4036
2026-01-03 04:25:29.91	294.03	40.11	-46.8	-47.4	16.2	0.00e+00	0	31	0	2437939200	59	3937
2026-01-03 04:25:33.92	292.36	39.66	-46.7	-47.2	16.3	0.00e+00	0	31	0	2459959296	59	3848
2026-01-03 04:25:37.92	290.73	39.19	-46.8	-47.4	16.2	0.00e+00	0	31	0	2483027968	59	3918
2026-01-03 04:25:41.91	289.16	38.69	-47.1	-47.7	16.1	0.00e+00	0	31	0	2505048064	59	4073
2026-01-03 04:25:45.90	287.63	38.19	-47.3	-47.8	16.1	0.00e+00	0	31	0	2527068160	59	4143
2026-01-03 04:25:49.89	286.15	37.67	-47.0	-47.6	16.2	0.00e+00	0	31	0	2550136832	59	4025
2026-01-03 04:25:53.87	284.72	37.13	-47.2	-47.8	16.1	0.00e+00	0	31	0	2572156928	59	4121
2026-01-03 04:25:57.87	283.34	36.59	-47.3	-47.8	16.1	0.00e+00	0	31	0	2595225600	59	4136
2026-01-03 04:26:01.87	281.99	36.03	-47.2	-47.8	16.1	0.00e+00	0	31	0	2617245696	59	4112
2026-01-03 04:26:05.87	280.70	35.46	-46.8	-47.4	16.2	0.00e+00	0	31	0	2640314368	59	3937
2026-01-03 04:26:09.87	279.45	34.89	-46.4	-46.9	16.4	0.00e+00	0	31	0	2662334464	59	3735
2026-01-03 04:26:13.88	278.24	34.32	-46.6	-47.2	16.3	0.00e+00	0	31	0	2685403136	59	3847
2026-01-03 04:26:17.88	277.07	33.74	-47.0	-47.6	16.2	0.00e+00	0	31	0	2707423232	59	4025
2026-01-03 04:26:21.88	275.95	33.16	-47.1	-47.7	16.1	0.00e+00	0	31	0	2729443328	59	4052
2026-01-03 04:26:25.88	274.86	32.58	-47.0	-47.5	16.2	0.00e+00	0	31	0	2752512000	59	3996
2026-01-03 04:26:29.86	273.82	32.00	-47.1	-47.6	16.2	0.00e+00	0	31	0	2774532096	59	4045
2026-01-03 04:26:33.86	272.81	31.42	-46.9	-47.5	16.2	0.00e+00	0	31	0	2797600768	59	3976
2026-01-03 04:26:37.86	271.84	30.84	-47.3	-47.9	16.1	0.00e+00	0	31	0	2819620864	59	4184
2026-01-03 04:26:41.87	270.90	30.26	-47.2	-47.8	16.1	0.00e+00	0	31	0	2841640960	59	4100
2026-01-03 04:26:45.87	269.99	29.69	-47.3	-47.9	16.1	0.00e+00	0	31	0	2864709632	59	4149
2026-01-03 04:26:49.85	269.12	29.12	-47.3	-47.9	16.2	0.00e+00	0	31	0	2886729728	60	3915
2026-01-03 04:26:53.84	268.28	28.56	-47.1	-47.7	16.2	0.00e+00	0	31	0	2909798400	60	3844
2026-01-03 04:26:57.83	267.47	28.00	-47.1	-47.6	16.3	0.00e+00	0	31	0	2931818496	60	3820
2026-01-03 04:27:01.81	266.69	27.44	-47.1	-47.7	16.2	0.00e+00	0	31	0	2954887168	60	3840
2026-01-03 04:27:05.81	265.93	26.89	-47.4	-48.0	16.1	0.00e+00	0	31	0	2976907264	60	3990
2026-01-03 04:27:09.80	265.20	26.35	-47.2	-47.7	16.3	0.00e+00	0	31	0	2998927360	60	3860
2026-01-03 04:27:13.81	264.49	25.81	-47.3	-47.9	16.2	0.00e+00	0	31	0	3021996032	60	3950
2026-01-03 04:27:17.81	263.80	25.27	-47.3	-47.9	16.2	0.00e+00	0	31	0	3044016128	60	3937
2026-01-03 04:27:21.80	263.14	24.75	-47.3	-47.8	16.2	0.00e+00	0	31	0	3067084800	60	3903
2026-01-03 04:27:25.81	262.50	24.23	-47.3	-47.9	16.2	0.00e+00	0	31	0	3089104896	60	3928
2026-01-03 04:27:29.80	261.89	23.71	-47.2	-47.7	16.2	0.00e+00	0	31	0	3112173568	60	3868
2026-01-03 04:27:33.79	261.29	23.21	-47.3	-47.9	16.2	0.00e+00	0	31	0	3134193664	60	3925
2026-01-03 04:27:37.79	260.71	22.71	-47.3	-47.9	16.2	0.00e+00	0	31	0	3157262336	60	3918
2026-01-03 04:27:41.79	260.15	22.21	-47.4	-48.0	16.2	0.00e+00	0	31	0	3179282432	60	3980
2026-01-03 04:27:45.78	259.61	21.72	-47.6	-48.2	16.1	0.00e+00	0	31	0	3202351104	60	4092
2026-01-03 04:27:49.77	259.09	21.24	-47.8	-48.4	16.1	0.00e+00	0	31	0	3224371200	60	4169
2026-01-03 04:27:53.76	258.58	20.77	-47.8	-48.5	16.1	0.00e+00	0	31	0	3246391296	61	3967
2026-01-03 04:27:57.75	258.09	20.30	-47.8	-48.4	16.1	0.00e+00	0	31	0	3269459968	61	3914
2026-01-03 04:28:01.75	257.61	19.84	-47.8	-48.4	16.1	0.00e+00	0	31	0	3291480064	61	3924
2026-01-03 04:28:05.75	257.14	19.38	-48.0	-48.7	16.0	0.00e+00	0	31	0	3314548736	61	4055
2026-01-03 04:28:09.74	256.70	18.93	-48.2	-48.9	16.0	0.00e+00	0	31	0	3336568832	61	4153
2026-01-03 04:28:13.75	256.26	18.49	-48.4	-49.1	16.0	0.00e+00	0	31	0	3358588928	62	4008
2026-01-03 04:28:17.75	255.83	18.05	-48.5	-49.1	16.0	0.00e+00	0	31	0	3381657600	62	4019
2026-01-03 04:28:21.76	255.42	17.62	-48.6	-49.2	15.9	0.00e+00	0	31	0	3403677696	62	4083
2026-01-03 04:28:25.76	255.02	17.20	-48.6	-49.3	15.9	0.00e+00	0	31	0	3426746368	62	4121
2026-01-03 04:28:29.77	254.63	16.78	-48.8	-49.5	15.9	0.00e+00	0	31	0	3448766464	63	3969
2026-01-03 04:28:33.78	254.25	16.36	-48.9	-49.5	15.9	0.00e+00	0	31	0	3471835136	63	4004
2026-01-03 04:28:37.78	253.89	15.95	-48.9	-49.6	15.9	0.00e+00	0	31	0	3493855232	63	4035
2026-01-03 04:28:41.79	253.53	15.55	-48.9	-49.6	15.9	0.00e+00	0	31	0	3516923904	63	4021
2026-01-03 04:28:45.81	253.18	15.15	-49.1	-49.8	15.8	0.00e+00	0	31	0	3538944000	63	4122
2026-01-03 04:28:49.80	252.84	14.76	-49.2	-49.9	15.8	0.00e+00	0	31	0	3562012672	63	4156
2026-01-03 04:28:53.80	252.51	14.37	-49.1	-49.8	15.8	0.00e+00	0	31	0	3584032768	63	4136
2026-01-03 04:28:57.79	252.20	13.99	-49.4	-50.1	15.7	0.00e+00	0	31	0	3607101440	63	4249
2026-01-03 04:29:01.78	251.88	13.62	-49.5	-50.3	15.7	0.00e+00	0	31	0	3629121536	64	4100
2026-01-03 04:29:05.77	251.58	13.25	-49.6	-50.3	15.7	0.00e+00	0	31	0	3651141632	64	4142
2026-01-03 04:29:09.77	251.29	12.88	-49.6	-50.4	15.7	0.00e+00	0	31	0	3674210304	64	4149
2026-01-03 04:29:13.76	251.00	12.52	-49.5	-50.3	15.7	0.00e+00	0	31	0	3696230400	64	4101
2026-01-03 04:29:17.76	250.72	12.16	-49.7	-50.4	15.7	0.00e+00	0	31	0	3719299072	64	4161
2026-01-03 04:29:21.76	250.44	11.81	-49.8	-50.6	15.7	0.00e+00	0	31	0	3741319168	65	4009
2026-01-03 04:29:25.75	250.18	11.46	-50.0	-50.8	15.6	0.00e+00	0	31	0	3764387840	65	4113
2026-01-03 04:29:29.74	249.92	11.12	-50.0	-50.8	15.6	0.00e+00	0	31	0	3786407936	65	4124
2026-01-03 04:29:33.75	249.66	10.78	-50.0	-50.8	15.6	0.00e+00	0	31	0	3809476608	65	4110
2026-01-03 04:29:37.74	249.41	10.44	-50.0	-50.7	15.6	0.00e+00	0	31	0	3831496704	65	4090
2026-01-03 04:29:41.74	249.17	10.11	-50.1	-50.9	15.5	0.00e+00	0	31	0	3854565376	65	4188
2026-01-03 04:29:45.75	248.93	9.78	-50.2	-51.0	15.5	0.00e+00	0	31	0	3876585472	65	4220
2026-01-03 04:29:49.75	248.70	9.45	-50.2	-51.0	15.5	0.00e+00	0	31	0	3898605568	65	4236
2026-01-03 04:29:53.74	248.48	9.13	-50.3	-51.2	15.4	0.00e+00	0	31	0	3921674240	65	4296
2026-01-03 04:29:57.72	248.26	8.82	-50.5	-51.3	15.4	0.00e+00	0	31	0	3943694336	66	4108
2026-01-03 04:30:01.71	248.04	8.51	-50.5	-51.3	15.4	0.00e+00	0	31	0	3966763008	66	4115
2026-01-03 04:30:05.70	247.83	8.20	-50.6	-51.5	15.3	0.00e+00	0	31	0	3988783104	66	4194
2026-01-03 04:30:09.72	247.62	7.89	-50.6	-51.5	15.3	0.00e+00	0	31	0	4010803200	66	4197
2026-01-03 04:30:13.70	247.42	7.59	-50.8	-51.7	15.2	0.00e+00	0	31	0	4033871872	66	4296
2026-01-03 04:30:17.70	247.23	7.29	-50.9	-51.7	15.2	0.00e+00	0	31	0	4055891968	67	4096
2026-01-03 04:30:21.69	247.03	6.99	-50.9	-51.7	15.2	0.00e+00	0	31	0	4078960640	67	4097
2026-01-03 04:30:25.70	246.84	6.70	-51.1	-52.0	15.1	0.00e+00	0	31	0	4100980736	67	4209
2026-01-03 04:30:29.72	246.66	6.40	-51.1	-52.0	15.1	0.00e+00	0	31	0	4124049408	67	4224
2026-01-03 04:30:33.71	246.48	6.12	-51.0	-51.9	15.1	0.00e+00	0	31	0	4146069504	67	4176
2026-01-03 04:30:37.70	246.30	5.83	-51.2	-52.1	15.1	0.00e+00	0	31	0	4169138176	67	4266
2026-01-03 04:30:41.70	246.13	5.55	-51.2	-52.2	15.0	0.00e+00	0	31	0	4191158272	67	4317
2026-01-03 04:30:45.70	245.96	5.27	-51.2	-52.2	14.9	0.00e+00	0	31	0	4214226944	67	4318
2026-01-03 04:30:49.70	245.79	4.99	-59.3	-65.8	6.2	2.20e-06	0	31	0	4236247040	83	8223
2026-01-03 04:30:53.71	245.63	4.72	-61.4	-74.1	3.8	8.45e-01	0	31	104	4236247040	88	15950
2026-01-03 04:30:57.71	245.47	4.45	-61.8	-74.4	3.8	8.46e-01	0	31	104	4236247040	88	16634
2026-01-03 04:31:01.70	245.31	4.18	-61.9	-74.5	3.8	8.46e-01	0	31	104	4236247040	89	15910
2026-01-03 04:31:05.68	245.16	3.91	-62.0	-74.6	3.8	8.46e-01	0	31	104	4236247040	89	16051
2026-01-03 04:31:09.68	245.00	3.65	-62.0	-74.6	3.8	8.45e-01	0	31	104	4236247040	89	16092
2026-01-03 04:31:13.66	244.86	3.39	-62.0	-74.6	3.8	8.46e-01	0	31	104	4236247040	89	16050
2026-01-03 04:31:17.66	244.71	3.13	-62.0	-74.6	3.8	8.45e-01	0	31	104	4236247040	89	16018
2026-01-03 04:31:21.67	244.57	2.87	-61.9	-74.6	3.8	8.45e-01	0	31	104	4236247040	89	15952
2026-01-03 04:31:25.67	244.43	2.61	-61.9	-74.6	3.8	8.46e-01	0	31	104	4236247040	89	15946
2026-01-03 04:31:29.67	244.29	2.36	-61.9	-74.5	3.8	8.45e-01	0	31	104	4236247040	89	15896
2026-01-03 04:31:33.68	244.16	2.11	-61.9	-74.5	3.8	8.45e-01	0	31	104	4236247040	89	15878

#Closed at: 2026-01-03 04:31:36
#Recorded file [4236 MB]: D:/lorett/data/31004_260103_071742.dat