passes_logs/2026/01/02/PlanumMoscow/PlanumMoscow__20260102_074608_METOP-C_rec.log

#Pass ID: 20260102_074608_METOP-C
#Satellite: METOP-C
#Configuration: METOP-C
#Start time: 2026-01-02 07:46:13.718470

#LorettStation: 1.0.0 05.05.2024
#Station: PlanumMoscow
#Location: 37.6253844 lon 55.6713361 lat
#TLE: 1 43689U 18087A   25293.88981035  .00000265  00000+0  14109-3 0  9997
#TLE: 2 43689  98.7006 352.4487 0002041 122.1097 238.0279 14.21482740360838

#Time	Az	El	Level	SNR
2026-01-02 07:49:52.122751	16.9	29.4	-53.2	0.3
2026-01-02 07:49:54.355765	16.9	29.8	-61.0	0.0
2026-01-02 07:49:56.587275	16.9	30.2	-63.6	4.6
2026-01-02 07:49:58.818778	16.9	30.6	-64.6	5.2
2026-01-02 07:50:01.052289	16.9	31.1	-64.1	4.0
2026-01-02 07:50:03.286314	16.9	31.5	-64.2	3.9
2026-01-02 07:50:05.521347	16.9	32.0	-63.7	4.2
2026-01-02 07:50:07.759355	16.9	32.4	-63.1	4.3
2026-01-02 07:50:09.995867	16.9	32.9	-60.6	0.0
2026-01-02 07:50:12.229377	16.9	33.4	-64.5	4.2
2026-01-02 07:50:14.462383	16.9	33.9	-61.0	0.0
2026-01-02 07:50:16.701400	17.0	34.4	-62.6	2.5
2026-01-02 07:50:18.938904	17.0	34.9	-62.1	0.0
2026-01-02 07:50:21.172911	17.0	35.4	-62.4	1.5
2026-01-02 07:50:23.405414	17.0	35.9	-63.0	1.2
2026-01-02 07:50:25.637917	17.0	36.4	-61.0	0.0
2026-01-02 07:50:27.877934	17.0	36.9	-60.0	0.0
2026-01-02 07:50:30.110948	17.0	37.5	-60.8	0.0
2026-01-02 07:50:32.347452	17.0	38.0	-63.6	2.3
2026-01-02 07:50:34.581956	17.0	38.6	-61.1	0.0
2026-01-02 07:50:36.819459	17.0	39.2	-64.3	2.1
2026-01-02 07:50:39.053467	17.0	39.7	-62.6	0.0
2026-01-02 07:50:41.285977	17.0	40.3	-62.9	0.0
2026-01-02 07:50:43.521481	17.0	40.9	-63.3	0.0
2026-01-02 07:50:45.755002	17.0	41.5	-61.5	0.0
2026-01-02 07:50:47.995017	17.0	42.2	-61.7	0.0
2026-01-02 07:50:50.228528	17.0	42.8	-59.7	0.0
2026-01-02 07:50:52.460038	17.0	43.4	-63.1	0.0
2026-01-02 07:50:54.696542	17.0	44.1	-62.2	0.0
2026-01-02 07:50:56.936559	17.0	44.8	-63.4	0.0
2026-01-02 07:50:59.178064	17.0	45.4	-62.6	0.0
2026-01-02 07:51:01.412567	17.0	46.1	-64.0	0.0
2026-01-02 07:51:03.644583	17.0	46.8	-63.6	0.0
2026-01-02 07:51:05.877606	17.0	47.5	-61.5	0.0
2026-01-02 07:51:08.113126	17.0	48.2	-62.8	0.0
2026-01-02 07:51:10.344628	17.0	49.0	-64.0	0.0
2026-01-02 07:51:12.576636	17.0	49.7	-64.7	1.7
2026-01-02 07:51:14.808655	17.0	50.5	-65.0	0.0
2026-01-02 07:51:17.042158	17.0	51.3	-65.0	0.0
2026-01-02 07:51:19.279166	17.0	52.0	-63.0	0.0
2026-01-02 07:51:21.510173	17.0	52.8	-65.1	0.0
2026-01-02 07:51:23.744180	17.0	53.6	-64.7	0.0
2026-01-02 07:51:25.977683	17.0	54.5	-64.3	0.0
2026-01-02 07:51:28.210186	17.0	55.3	-66.2	0.0
2026-01-02 07:51:30.432225	16.9	56.2	-65.7	0.0
2026-01-02 07:51:32.665728	16.9	57.0	-66.8	0.0
2026-01-02 07:51:34.898743	16.9	57.9	-67.7	0.0
2026-01-02 07:51:37.132246	16.9	58.8	-66.6	0.0
2026-01-02 07:51:39.365254	16.9	59.7	-65.6	0.0
2026-01-02 07:51:41.597765	16.9	60.6	-67.1	0.0
2026-01-02 07:51:43.830781	16.9	61.5	-68.2	0.0
2026-01-02 07:51:46.076790	16.8	62.5	-67.0	0.0
2026-01-02 07:51:48.322305	16.8	63.5	-66.4	0.0
2026-01-02 07:51:50.566810	16.8	64.4	-66.1	0.0
2026-01-02 07:51:52.804818	16.8	65.4	-67.4	0.0
2026-01-02 07:51:55.036832	16.8	66.4	-68.8	0.0
2026-01-02 07:51:57.270335	16.7	67.4	-68.4	0.0
2026-01-02 07:51:59.500847	16.7	68.4	-67.3	0.0
2026-01-02 07:52:01.736359	16.6	69.5	-68.0	0.0
2026-01-02 07:52:03.968862	16.6	70.5	-68.5	0.0
2026-01-02 07:52:06.201869	16.5	71.6	-68.5	0.0
2026-01-02 07:52:08.433876	16.5	72.6	-70.0	0.0
2026-01-02 07:52:10.664378	16.4	73.7	-69.5	0.0
2026-01-02 07:52:12.898897	16.3	74.8	-69.3	0.0
2026-01-02 07:52:15.132905	16.2	75.9	-69.1	0.0
2026-01-02 07:52:17.364407	16.1	77.0	-70.4	0.0
2026-01-02 07:52:19.599918	16.0	78.1	-69.7	0.0
2026-01-02 07:52:21.830924	15.8	79.2	-69.7	0.0
2026-01-02 07:52:24.062931	15.6	80.4	-69.4	0.0
2026-01-02 07:52:26.295434	15.3	81.5	-69.8	0.0
2026-01-02 07:52:28.529946	14.9	82.7	-70.1	0.0
2026-01-02 07:52:30.763961	14.4	83.8	-70.0	0.0
2026-01-02 07:52:32.997472	13.7	84.9	-70.0	0.0
2026-01-02 07:52:35.228479	12.5	86.1	-69.9	0.0
2026-01-02 07:52:37.459997	10.3	87.2	-70.2	0.6
2026-01-02 07:52:39.690499	5.0	88.4	-69.6	0.0
2026-01-02 07:52:41.929507	337.2	89.5	-69.8	0.0
2026-01-02 07:52:44.159009	223.4	89.2	-70.1	0.0
2026-01-02 07:52:46.388016	208.4	88.1	-70.1	0.0
2026-01-02 07:52:48.622527	204.4	86.9	-70.5	0.0
2026-01-02 07:52:50.854030	202.6	85.8	-71.0	0.0
2026-01-02 07:52:53.091542	201.6	84.6	-71.3	0.0
2026-01-02 07:52:55.329569	200.9	83.5	-71.3	0.0
2026-01-02 07:52:57.573587	200.4	82.3	-70.8	0.0
2026-01-02 07:52:59.817102	200.1	81.2	-70.9	0.0
2026-01-02 07:53:02.061120	199.8	80.0	-70.7	0.0
2026-01-02 07:53:04.305130	199.6	78.9	-71.2	0.0
2026-01-02 07:53:06.547139	199.5	77.8	-71.0	0.0
2026-01-02 07:53:08.787652	199.3	76.7	-70.8	0.0
2026-01-02 07:53:11.018164	199.2	75.6	-70.7	0.0
2026-01-02 07:53:13.248666	199.1	74.5	-70.9	0.0
2026-01-02 07:53:15.478673	199.1	73.4	-70.5	0.1
2026-01-02 07:53:17.710175	199.0	72.3	-70.4	1.3
2026-01-02 07:53:19.941685	198.9	71.2	-70.5	0.0
2026-01-02 07:53:22.174188	198.9	70.2	-70.5	0.0
2026-01-02 07:53:24.407195	198.8	69.1	-70.7	0.0
2026-01-02 07:53:26.640706	198.8	68.1	-70.6	0.2
2026-01-02 07:53:28.872713	198.7	67.1	-70.8	0.0
2026-01-02 07:53:31.103719	198.7	66.1	-70.5	0.0
2026-01-02 07:53:33.338735	198.7	65.1	-70.8	0.0
2026-01-02 07:53:35.571758	198.7	64.1	-70.5	0.0
2026-01-02 07:53:37.803765	198.6	63.1	-69.6	0.0
2026-01-02 07:53:40.036268	198.6	62.2	-70.0	0.0
2026-01-02 07:53:42.265770	198.6	61.2	-70.3	0.0
2026-01-02 07:53:44.498273	198.6	60.3	-69.8	0.0
2026-01-02 07:53:46.728784	198.6	59.4	-69.6	0.0
2026-01-02 07:53:48.958294	198.6	58.5	-69.4	0.0
2026-01-02 07:53:51.190805	198.5	57.6	-69.7	0.0
2026-01-02 07:53:53.422317	198.5	56.7	-69.2	0.0
2026-01-02 07:53:55.653324	198.5	55.9	-69.1	0.0
2026-01-02 07:53:57.888340	198.5	55.0	-69.5	0.0
2026-01-02 07:54:00.120354	198.5	54.2	-69.4	0.0
2026-01-02 07:54:02.348360	198.5	53.3	-69.4	0.0
2026-01-02 07:54:04.580871	198.5	52.5	-68.7	0.0
2026-01-02 07:54:06.815878	198.5	51.7	-68.9	0.0
2026-01-02 07:54:09.050389	198.5	51.0	-68.8	0.0
2026-01-02 07:54:11.280395	198.5	50.2	-68.9	0.0
2026-01-02 07:54:13.509897	198.5	49.4	-68.7	0.0
2026-01-02 07:54:15.743905	198.5	48.7	-68.0	0.0
2026-01-02 07:54:17.976425	198.5	47.9	-68.0	0.0
2026-01-02 07:54:20.214938	198.5	47.2	-68.6	0.0
2026-01-02 07:54:22.445449	198.5	46.5	-67.2	0.0
2026-01-02 07:54:24.684963	198.5	45.8	-67.2	0.0
2026-01-02 07:54:26.926484	198.5	45.1	-67.1	0.0
2026-01-02 07:54:29.169502	198.5	44.5	-67.4	0.0
2026-01-02 07:54:31.406510	198.5	43.8	-67.4	0.0
2026-01-02 07:54:33.643518	198.5	43.1	-68.1	0.0
2026-01-02 07:54:35.887527	198.5	42.5	-67.2	1.8
2026-01-02 07:54:38.135538	198.5	41.9	-66.2	0.9
2026-01-02 07:54:40.379051	198.5	41.2	-65.4	0.0
2026-01-02 07:54:42.607066	198.5	40.6	-66.5	0.0
2026-01-02 07:54:44.837568	198.5	40.0	-66.0	0.0
2026-01-02 07:54:47.069582	198.5	39.4	-66.5	0.0
2026-01-02 07:54:49.303085	198.5	38.9	-62.9	0.0
2026-01-02 07:54:51.533092	198.5	38.3	-65.3	2.6
2026-01-02 07:54:53.766108	198.5	37.7	-66.1	5.2
2026-01-02 07:54:55.997114	198.5	37.2	-65.3	2.3
2026-01-02 07:54:58.234627	198.5	36.7	-64.7	5.1
2026-01-02 07:55:00.465129	198.5	36.1	-64.4	6.0
2026-01-02 07:55:02.700641	198.5	35.6	-63.3	4.1
2026-01-02 07:55:04.934655	198.5	35.1	-64.0	1.9
2026-01-02 07:55:07.170167	198.5	34.6	-65.1	4.0
2026-01-02 07:55:09.400683	198.5	34.1	-64.6	3.6
2026-01-02 07:55:11.638187	198.5	33.6	-64.4	5.0
2026-01-02 07:55:13.872203	198.5	33.1	-64.3	4.9
2026-01-02 07:55:16.105715	198.5	32.6	-64.3	4.6
2026-01-02 07:55:18.339744	198.5	32.2	-64.5	5.2
2026-01-02 07:55:20.573255	198.5	31.7	-64.7	6.2
2026-01-02 07:55:22.805758	198.5	31.2	-63.1	6.0
2026-01-02 07:55:25.041766	198.5	30.8	-63.6	6.3
2026-01-02 07:55:27.279293	198.5	30.4	-62.8	6.9
2026-01-02 07:55:29.514300	198.5	29.9	-62.8	4.1
2026-01-02 07:55:31.747811	198.5	29.5	-64.4	7.8
2026-01-02 07:55:33.982323	198.5	29.1	-64.4	6.8
2026-01-02 07:55:36.215329	198.5	28.7	-63.9	7.3
2026-01-02 07:55:38.454337	198.5	28.3	-63.2	5.0
2026-01-02 07:55:40.687850	198.5	27.9	-63.2	6.4
2026-01-02 07:55:42.919360	198.5	27.5	-63.9	6.5
2026-01-02 07:55:45.152871	198.6	27.1	-63.4	6.7
2026-01-02 07:55:47.387887	198.6	26.7	-63.5	5.9
2026-01-02 07:55:49.625398	198.6	26.3	-61.5	2.2
2026-01-02 07:55:51.861902	198.6	25.9	-63.6	7.0
2026-01-02 07:55:54.094909	198.6	25.6	-63.6	6.6
2026-01-02 07:55:56.333918	198.6	25.2	-62.6	5.0
2026-01-02 07:55:58.582432	198.6	24.8	-63.7	7.9
2026-01-02 07:56:00.826442	198.6	24.5	-62.8	7.3
2026-01-02 07:56:03.069459	198.6	24.1	-62.8	7.8
2026-01-02 07:56:05.311982	198.6	23.8	-63.7	8.8
2026-01-02 07:56:07.551495	198.6	23.4	-63.5	7.4
2026-01-02 07:56:09.784006	198.6	23.1	-61.9	0.4
2026-01-02 07:56:12.023510	198.6	22.8	-63.9	8.5
2026-01-02 07:56:14.267033	198.6	22.4	-63.5	8.2
2026-01-02 07:56:16.501049	198.6	22.1	-63.7	8.3
2026-01-02 07:56:18.734056	198.6	21.8	-63.8	8.4
2026-01-02 07:56:20.967567	198.6	21.5	-64.2	9.8
2026-01-02 07:56:23.199582	198.6	21.2	-64.3	9.5
2026-01-02 07:56:25.431093	198.6	20.9	-64.5	9.2
2026-01-02 07:56:27.663604	198.6	20.6	-63.5	5.4
2026-01-02 07:56:29.898107	198.7	20.3	-63.0	8.5
2026-01-02 07:56:32.133618	198.7	20.0	-63.1	6.9
2026-01-02 07:56:34.368122	198.7	19.7	-63.1	6.3
2026-01-02 07:56:36.602145	198.7	19.4	-63.4	8.2
2026-01-02 07:56:38.838673	198.7	19.1	-63.5	6.7
2026-01-02 07:56:41.070680	198.7	18.8	-63.7	8.4
2026-01-02 07:56:43.303696	198.7	18.5	-63.3	6.6
2026-01-02 07:56:45.538711	198.7	18.3	-63.2	7.6
2026-01-02 07:56:47.775719	198.7	18.0	-64.2	8.7
2026-01-02 07:56:50.012223	198.7	17.7	-64.2	6.6
2026-01-02 07:56:52.245230	198.7	17.4	-63.4	7.1
2026-01-02 07:56:54.478733	198.7	17.2	-63.4	5.5
2026-01-02 07:56:56.716741	198.7	16.9	-63.4	6.3
2026-01-02 07:56:58.952245	198.7	16.7	-63.4	7.3
2026-01-02 07:57:01.184755	198.7	16.4	-63.8	6.1
2026-01-02 07:57:03.420259	198.7	16.1	-63.7	8.2
2026-01-02 07:57:05.653762	198.7	15.9	-64.0	6.5
2026-01-02 07:57:07.888273	198.7	15.6	-63.6	6.3
2026-01-02 07:57:10.122776	198.7	15.4	-63.3	6.6
2026-01-02 07:57:12.357800	198.8	15.2	-63.0	5.4
2026-01-02 07:57:14.591311	198.8	14.9	-61.8	7.1
2026-01-02 07:57:16.829824	198.8	14.7	-63.0	1.5
2026-01-02 07:57:19.072842	198.8	14.4	-63.5	5.5
2026-01-02 07:57:21.316355	198.8	14.2	-64.1	5.5
2026-01-02 07:57:23.559869	198.8	14.0	-64.0	6.9
2026-01-02 07:57:25.805375	198.8	13.7	-62.9	2.7
2026-01-02 07:57:28.048880	198.8	13.5	-64.1	6.5
2026-01-02 07:57:30.292394	198.8	13.3	-63.5	6.6
2026-01-02 07:57:32.527914	198.8	13.1	-63.4	4.0
2026-01-02 07:57:34.761461	198.8	12.8	-62.0	3.0
2026-01-02 07:57:36.997027	198.8	12.6	-62.9	5.9
2026-01-02 07:57:39.229576	198.8	12.4	-62.9	6.1
2026-01-02 07:57:41.465087	198.8	12.2	-63.2	5.6
2026-01-02 07:57:43.700599	198.8	12.0	-63.2	0.7
2026-01-02 07:57:45.931605	198.8	11.8	-61.4	0.0
2026-01-02 07:57:48.165108	198.8	11.6	-63.5	2.5
2026-01-02 07:57:50.396611	198.8	11.3	-63.8	4.0
2026-01-02 07:57:52.633114	198.9	11.1	-63.4	3.3
2026-01-02 07:57:54.872130	198.9	10.9	-63.1	1.8
2026-01-02 07:57:57.105138	198.9	10.7	-62.8	1.6
2026-01-02 07:57:59.338649	198.9	10.5	-63.3	3.2
2026-01-02 07:58:01.571664	198.9	10.3	-63.3	5.2
2026-01-02 07:58:03.804670	198.9	10.1	-62.6	1.3
2026-01-02 07:58:06.040183	198.9	9.9	-62.8	1.6
2026-01-02 07:58:08.272197	198.9	9.7	-61.8	1.7
2026-01-02 07:58:10.506700	198.9	9.6	-62.8	3.1
2026-01-02 07:58:12.743708	198.9	9.4	-63.3	0.0
2026-01-02 07:58:14.979726	198.9	9.2	-60.6	0.0
2026-01-02 07:58:17.214229	198.9	9.0	-61.9	0.0
2026-01-02 07:58:19.447740	198.9	8.8	-62.0	0.0
2026-01-02 07:58:21.681754	198.9	8.6	-62.8	2.6
2026-01-02 07:58:23.920771	198.9	8.4	-64.1	0.0
2026-01-02 07:58:26.153777	198.9	8.2	-63.6	0.4
2026-01-02 07:58:28.386288	198.9	8.1	-63.0	0.5
2026-01-02 07:58:30.620800	199.0	7.9	-62.7	2.0
2026-01-02 07:58:32.853814	199.0	7.7	-62.6	3.8
2026-01-02 07:58:35.086829	199.0	7.5	-61.4	0.0
2026-01-02 07:58:37.317836	199.0	7.3	-62.5	0.9
2026-01-02 07:58:39.551348	199.0	7.2	-61.6	3.1
2026-01-02 07:58:41.785365	199.0	7.0	-62.8	0.8
2026-01-02 07:58:44.021888	199.0	6.8	-61.9	2.3
2026-01-02 07:58:46.256904	199.0	6.7	-62.4	0.0
2026-01-02 07:58:48.489911	199.0	6.5	-60.6	0.0
2026-01-02 07:58:50.726927	199.0	6.3	-59.3	0.0
2026-01-02 07:58:52.958942	199.0	6.1	-60.1	0.0
2026-01-02 07:58:55.196454	199.0	6.0	-61.3	0.0
2026-01-02 07:58:57.428965	199.0	5.8	-67.9	0.0
2026-01-02 07:58:59.660972	199.0	5.6	-69.2	0.0
2026-01-02 07:59:01.893483	199.0	5.5	-70.8	0.0
2026-01-02 07:59:04.127986	199.0	5.3	-72.2	0.0
2026-01-02 07:59:06.362993	199.0	5.2	-71.8	0.0
2026-01-02 07:59:08.591999	199.0	5.0	-72.1	0.0
#Closed at: 2026-01-02 07:46:08.720704