passes_logs/2026/01/02/PlanumMoscow/PlanumMoscow__20260102_011724_METEOR-M2_4_rec.log

#Pass ID: 20260102_011724_METEOR-M2 4
#Satellite: METEOR-M2 4
#Configuration: METEOR-M2 4
#Start time: 2026-01-02 01:17:29.226184

#LorettStation: 1.0.0 05.05.2024
#Station: PlanumMoscow
#Location: 37.6253844 lon 55.6713361 lat
#TLE: 1 59051U 24039A   25293.94737965  .00000087  00000+0  58459-4 0  9998
#TLE: 2 59051  98.6671 251.7071 0007726 135.4772 224.7028 14.22388966 85257

#Time	Az	El	Level	SNR
2026-01-02 01:21:07.709899	8.5	29.0	-60.2	9.0
2026-01-02 01:21:09.953957	8.4	29.5	-60.6	7.7
2026-01-02 01:21:12.194981	8.2	29.9	-61.6	8.7
2026-01-02 01:21:14.438991	8.1	30.3	-62.3	8.6
2026-01-02 01:21:16.677037	7.9	30.7	-62.3	9.2
2026-01-02 01:21:18.899232	7.8	31.1	-62.2	9.5
2026-01-02 01:21:21.136239	7.6	31.6	-62.0	9.9
2026-01-02 01:21:23.368751	7.4	32.0	-61.8	10.0
2026-01-02 01:21:25.604254	7.2	32.5	-62.4	9.9
2026-01-02 01:21:27.842768	7.1	32.9	-62.2	9.9
2026-01-02 01:21:30.080793	6.9	33.4	-62.3	9.6
2026-01-02 01:21:32.314295	6.7	33.9	-62.1	10.3
2026-01-02 01:21:34.552304	6.5	34.3	-61.9	10.4
2026-01-02 01:21:36.795313	6.3	34.8	-60.2	8.2
2026-01-02 01:21:39.033322	6.0	35.3	-62.7	11.3
2026-01-02 01:21:41.269340	5.8	35.8	-61.5	9.9
2026-01-02 01:21:43.506365	5.6	36.3	-62.5	7.3
2026-01-02 01:21:45.741877	5.4	36.8	-63.6	11.1
2026-01-02 01:21:47.982894	5.1	37.4	-63.5	11.1
2026-01-02 01:21:50.221919	4.9	37.9	-63.3	11.3
2026-01-02 01:21:52.456935	4.6	38.4	-63.1	10.6
2026-01-02 01:21:54.692951	4.3	39.0	-61.9	9.4
2026-01-02 01:21:56.930960	4.0	39.5	-63.6	10.6
2026-01-02 01:21:59.166976	3.8	40.1	-63.6	12.2
2026-01-02 01:22:01.408498	3.5	40.7	-62.7	11.3
2026-01-02 01:22:03.649524	3.1	41.2	-63.3	12.1
2026-01-02 01:22:05.893533	2.8	41.8	-63.5	12.0
2026-01-02 01:22:08.136039	2.5	42.4	-63.7	11.8
2026-01-02 01:22:10.377047	2.1	43.0	-63.5	11.6
2026-01-02 01:22:12.614576	1.8	43.6	-63.5	9.4
2026-01-02 01:22:14.852594	1.4	44.3	-64.1	11.0
2026-01-02 01:22:17.093611	1.0	44.9	-64.5	8.7
2026-01-02 01:22:19.331628	0.6	45.5	-64.1	11.4
2026-01-02 01:22:21.575646	0.2	46.2	-64.3	10.5
2026-01-02 01:22:23.822170	359.7	46.8	-64.4	11.1
2026-01-02 01:22:26.066180	359.3	47.5	-63.8	10.7
2026-01-02 01:22:28.308702	358.8	48.2	-64.2	10.8
2026-01-02 01:22:30.552712	358.3	48.9	-63.6	9.1
2026-01-02 01:22:32.798227	357.7	49.5	-64.3	10.1
2026-01-02 01:22:35.039731	357.2	50.2	-64.1	9.5
2026-01-02 01:22:37.275244	356.6	50.9	-64.7	9.2
2026-01-02 01:22:39.513765	356.0	51.7	-64.5	7.7
2026-01-02 01:22:41.753269	355.3	52.4	-65.3	8.4
2026-01-02 01:22:43.989799	354.7	53.1	-64.6	8.0
2026-01-02 01:22:46.228807	354.0	53.8	-65.3	7.9
2026-01-02 01:22:48.466831	353.2	54.6	-64.7	7.3
2026-01-02 01:22:50.704839	352.4	55.3	-64.7	7.7
2026-01-02 01:22:52.942358	351.6	56.1	-65.1	7.8
2026-01-02 01:22:55.178869	350.7	56.8	-65.3	8.2
2026-01-02 01:22:57.413885	349.8	57.6	-65.1	8.3
2026-01-02 01:22:59.651396	348.8	58.3	-64.8	8.4
2026-01-02 01:23:01.893917	347.8	59.1	-65.0	8.7
2026-01-02 01:23:04.133947	346.7	59.8	-64.8	8.4
2026-01-02 01:23:06.368962	345.5	60.6	-64.9	7.7
2026-01-02 01:23:08.606970	344.3	61.4	-65.0	7.3
2026-01-02 01:23:10.840978	343.0	62.1	-65.4	7.8
2026-01-02 01:23:13.082997	341.6	62.9	-65.4	7.2
2026-01-02 01:23:15.318004	340.1	63.6	-65.8	7.1
2026-01-02 01:23:17.551507	338.5	64.3	-65.6	7.2
2026-01-02 01:23:19.786010	336.8	65.0	-65.2	7.6
2026-01-02 01:23:22.021514	335.0	65.7	-65.0	8.7
2026-01-02 01:23:24.258521	333.1	66.4	-64.9	8.4
2026-01-02 01:23:26.498034	331.0	67.1	-64.7	8.1
2026-01-02 01:23:28.733546	328.9	67.7	-64.9	9.1
2026-01-02 01:23:30.975051	326.5	68.4	-65.1	9.8
2026-01-02 01:23:33.210068	324.1	68.9	-65.2	10.0
2026-01-02 01:23:35.449590	321.5	69.5	-65.5	9.7
2026-01-02 01:23:37.691615	318.7	70.0	-65.6	9.9
2026-01-02 01:23:39.935139	315.8	70.5	-65.7	10.2
2026-01-02 01:23:42.178654	312.7	70.9	-65.5	10.6
2026-01-02 01:23:44.422168	309.5	71.3	-65.1	11.7
2026-01-02 01:23:46.664691	306.2	71.6	-65.1	12.2
2026-01-02 01:23:48.908701	302.8	71.8	-65.4	12.1
2026-01-02 01:23:51.142709	299.2	72.0	-65.4	12.3
2026-01-02 01:23:53.378212	295.7	72.1	-65.8	12.5
2026-01-02 01:23:55.615733	292.0	72.2	-66.1	11.8
2026-01-02 01:23:57.848245	288.4	72.2	-66.3	11.4
2026-01-02 01:24:00.079757	284.8	72.1	-66.3	12.4
2026-01-02 01:24:02.321776	281.2	72.0	-66.2	13.1
2026-01-02 01:24:04.559288	277.7	71.8	-66.2	12.5
2026-01-02 01:24:06.794303	274.3	71.5	-66.2	13.3
2026-01-02 01:24:09.026815	271.1	71.2	-66.4	13.2
2026-01-02 01:24:11.261327	267.9	70.8	-66.5	12.9
2026-01-02 01:24:13.502336	264.9	70.3	-66.8	12.4
2026-01-02 01:24:15.736839	262.0	69.8	-67.0	12.0
2026-01-02 01:24:17.975847	259.3	69.3	-67.2	11.2
2026-01-02 01:24:20.214856	256.8	68.8	-66.9	9.9
2026-01-02 01:24:22.455881	254.3	68.2	-66.8	10.5
2026-01-02 01:24:24.698386	252.1	67.5	-66.8	11.3
2026-01-02 01:24:26.938891	249.9	66.9	-66.6	11.7
2026-01-02 01:24:29.173908	247.9	66.2	-66.4	12.5
2026-01-02 01:24:31.412925	246.0	65.5	-66.8	12.2
2026-01-02 01:24:33.651430	244.3	64.8	-67.2	11.8
2026-01-02 01:24:35.889950	242.6	64.1	-67.5	11.1
2026-01-02 01:24:38.127463	241.1	63.3	-67.4	10.9
2026-01-02 01:24:40.362966	239.6	62.6	-67.5	9.3
2026-01-02 01:24:42.600983	238.2	61.8	-67.6	10.5
2026-01-02 01:24:44.836000	236.9	61.1	-67.3	10.7
2026-01-02 01:24:47.071007	235.7	60.3	-67.5	11.5
2026-01-02 01:24:49.307520	234.6	59.6	-67.0	11.6
2026-01-02 01:24:51.541527	233.5	58.8	-66.9	12.0
2026-01-02 01:24:53.775038	232.5	58.0	-66.7	12.0
2026-01-02 01:24:56.016543	231.5	57.3	-66.7	11.5
2026-01-02 01:24:58.252054	230.6	56.5	-66.7	11.5
2026-01-02 01:25:00.494071	229.7	55.8	-67.2	11.5
2026-01-02 01:25:02.738577	228.9	55.0	-65.8	8.4
2026-01-02 01:25:04.982587	228.2	54.3	-67.0	10.2
2026-01-02 01:25:07.220091	227.4	53.5	-67.3	11.3
2026-01-02 01:25:09.451610	226.7	52.8	-66.9	10.3
2026-01-02 01:25:11.682626	226.1	52.1	-66.7	9.2
2026-01-02 01:25:13.926141	225.4	51.4	-65.6	7.9
2026-01-02 01:25:16.172151	224.8	50.6	-66.7	10.6
2026-01-02 01:25:18.415665	224.3	49.9	-65.6	8.4
2026-01-02 01:25:20.652690	223.7	49.2	-65.0	7.7
2026-01-02 01:25:22.890211	223.2	48.6	-66.3	9.4
2026-01-02 01:25:25.127731	222.7	47.9	-65.3	9.7
2026-01-02 01:25:27.358251	222.2	47.2	-65.7	9.0
2026-01-02 01:25:29.592762	221.7	46.5	-65.5	8.7
2026-01-02 01:25:31.826769	221.3	45.9	-65.9	9.9
2026-01-02 01:25:34.060272	220.9	45.2	-65.8	9.8
2026-01-02 01:25:36.299290	220.5	44.6	-65.6	10.1
2026-01-02 01:25:38.535794	220.1	44.0	-64.7	9.6
2026-01-02 01:25:40.771306	219.7	43.4	-65.5	12.1
2026-01-02 01:25:43.007314	219.4	42.7	-65.5	11.7
2026-01-02 01:25:45.248322	219.0	42.1	-65.1	10.8
2026-01-02 01:25:47.481825	218.7	41.5	-65.6	12.5
2026-01-02 01:25:49.716833	218.4	41.0	-65.1	11.1
2026-01-02 01:25:51.951841	218.1	40.4	-65.0	12.4
2026-01-02 01:25:54.189848	217.8	39.8	-65.4	11.5
2026-01-02 01:25:56.425856	217.5	39.2	-64.7	11.1
2026-01-02 01:25:58.664377	217.2	38.7	-64.7	11.1
2026-01-02 01:26:00.901899	216.9	38.1	-65.5	12.9
2026-01-02 01:26:03.141403	216.7	37.6	-65.9	12.2
2026-01-02 01:26:05.375411	216.4	37.1	-65.8	12.8
2026-01-02 01:26:07.607930	216.2	36.6	-65.5	13.2
2026-01-02 01:26:09.845938	215.9	36.0	-64.9	11.3
2026-01-02 01:26:12.081450	215.7	35.5	-65.2	12.5
2026-01-02 01:26:14.317971	215.5	35.0	-65.8	13.3
2026-01-02 01:26:16.552986	215.3	34.6	-65.8	13.7
2026-01-02 01:26:18.793499	215.1	34.1	-65.6	13.6
2026-01-02 01:26:21.030515	214.9	33.6	-65.2	13.9
2026-01-02 01:26:23.265036	214.7	33.1	-65.4	14.1
2026-01-02 01:26:25.500060	214.5	32.7	-64.9	12.0
2026-01-02 01:26:27.739093	214.3	32.2	-65.2	13.7
2026-01-02 01:26:29.982111	214.1	31.7	-65.0	14.0
2026-01-02 01:26:32.225129	213.9	31.3	-65.2	13.7
2026-01-02 01:26:34.469139	213.8	30.9	-65.3	14.1
2026-01-02 01:26:36.713644	213.6	30.4	-65.3	12.1
2026-01-02 01:26:38.961167	213.5	30.0	-65.5	13.6
2026-01-02 01:26:41.203688	213.3	29.6	-65.3	13.0
2026-01-02 01:26:43.440192	213.1	29.2	-65.3	13.1
2026-01-02 01:26:45.676200	213.0	28.8	-65.1	12.9
2026-01-02 01:26:47.910207	212.9	28.4	-65.0	12.6
2026-01-02 01:26:50.143214	212.7	28.0	-65.3	13.2
2026-01-02 01:26:52.375229	212.6	27.6	-65.3	13.1
2026-01-02 01:26:54.608732	212.4	27.2	-64.6	11.2
2026-01-02 01:26:56.842747	212.3	26.8	-64.4	12.1
2026-01-02 01:26:59.081764	212.2	26.4	-64.7	13.2
2026-01-02 01:27:01.312266	212.1	26.1	-65.3	12.9
2026-01-02 01:27:03.542769	211.9	25.7	-65.2	13.1
2026-01-02 01:27:05.776776	211.8	25.3	-64.9	13.0
2026-01-02 01:27:08.007279	211.7	25.0	-65.5	13.4
2026-01-02 01:27:10.242790	211.6	24.6	-64.7	12.7
2026-01-02 01:27:12.473797	211.5	24.3	-65.4	12.5
2026-01-02 01:27:14.707804	211.4	23.9	-65.1	11.7
2026-01-02 01:27:16.944813	211.3	23.6	-65.7	13.3
2026-01-02 01:27:19.185838	211.2	23.3	-65.6	13.5
2026-01-02 01:27:21.422350	211.1	22.9	-65.5	12.9
2026-01-02 01:27:23.660366	211.0	22.6	-65.2	12.2
2026-01-02 01:27:25.896375	210.9	22.3	-65.6	12.8
2026-01-02 01:27:28.131888	210.8	22.0	-65.2	12.3
2026-01-02 01:27:30.368408	210.7	21.7	-65.8	13.2
2026-01-02 01:27:32.600938	210.6	21.4	-65.4	11.8
2026-01-02 01:27:34.836946	210.5	21.0	-66.0	12.6
2026-01-02 01:27:37.071954	210.4	20.7	-65.8	12.7
2026-01-02 01:27:39.309482	210.4	20.4	-66.3	13.5
2026-01-02 01:27:41.545986	210.3	20.1	-65.9	13.7
2026-01-02 01:27:43.784506	210.2	19.9	-66.5	13.5
2026-01-02 01:27:46.020515	210.1	19.6	-66.2	12.6
2026-01-02 01:27:48.256026	210.0	19.3	-66.3	12.7
2026-01-02 01:27:50.493539	210.0	19.0	-66.2	13.0
2026-01-02 01:27:52.733052	209.9	18.7	-66.4	12.8
2026-01-02 01:27:54.969068	209.8	18.4	-65.9	12.6
2026-01-02 01:27:57.206588	209.7	18.2	-66.1	13.1
2026-01-02 01:27:59.446605	209.7	17.9	-66.4	13.3
2026-01-02 01:28:01.690615	209.6	17.6	-66.7	13.1
2026-01-02 01:28:03.931634	209.5	17.4	-66.3	12.0
2026-01-02 01:28:06.175148	209.5	17.1	-66.1	11.8
2026-01-02 01:28:08.417157	209.4	16.8	-65.9	12.0
2026-01-02 01:28:10.660671	209.3	16.6	-66.5	12.6
2026-01-02 01:28:12.904184	209.3	16.3	-65.8	11.9
2026-01-02 01:28:15.146220	209.2	16.1	-66.5	11.8
2026-01-02 01:28:17.386725	209.2	15.8	-64.8	6.1
2026-01-02 01:28:19.621236	209.1	15.6	-66.0	11.2
2026-01-02 01:28:21.852747	209.0	15.3	-65.7	10.9
2026-01-02 01:28:24.087762	209.0	15.1	-66.2	11.5
2026-01-02 01:28:26.323283	208.9	14.9	-66.0	11.9
2026-01-02 01:28:28.556299	208.9	14.6	-66.1	11.6
2026-01-02 01:28:30.794307	208.8	14.4	-66.0	9.3
2026-01-02 01:28:33.030819	208.8	14.2	-66.2	11.7
2026-01-02 01:28:35.264330	208.7	13.9	-65.7	9.9
2026-01-02 01:28:37.500347	208.7	13.7	-66.3	10.3
2026-01-02 01:28:39.738381	208.6	13.5	-66.5	11.2
2026-01-02 01:28:41.981895	208.6	13.3	-66.1	11.9
2026-01-02 01:28:44.218407	208.5	13.0	-66.0	10.2
2026-01-02 01:28:46.457920	208.5	12.8	-66.4	11.4
2026-01-02 01:28:48.694432	208.4	12.6	-66.0	10.1
2026-01-02 01:28:50.933440	208.4	12.4	-65.4	10.7
2026-01-02 01:28:53.169944	208.3	12.2	-65.4	10.3
2026-01-02 01:28:55.406447	208.3	11.9	-65.1	10.4
2026-01-02 01:28:57.642464	208.2	11.7	-65.9	10.3
2026-01-02 01:28:59.878983	208.2	11.5	-65.8	10.9
2026-01-02 01:29:02.109495	208.1	11.3	-65.8	10.5
2026-01-02 01:29:04.346024	208.1	11.1	-65.6	9.8
2026-01-02 01:29:06.581528	208.1	10.9	-66.3	9.9
2026-01-02 01:29:08.818544	208.0	10.7	-65.1	8.7
2026-01-02 01:29:11.056562	208.0	10.5	-65.5	8.4
2026-01-02 01:29:13.291570	207.9	10.3	-66.0	10.3
2026-01-02 01:29:15.530579	207.9	10.1	-65.6	9.4
2026-01-02 01:29:17.770589	207.9	9.9	-64.5	9.4
2026-01-02 01:29:20.011616	207.8	9.7	-64.0	8.3
2026-01-02 01:29:22.245623	207.8	9.5	-64.7	9.0
2026-01-02 01:29:24.486632	207.7	9.3	-65.2	9.0
2026-01-02 01:29:26.728641	207.7	9.2	-64.4	8.6
2026-01-02 01:29:28.967659	207.7	9.0	-65.3	9.2
2026-01-02 01:29:31.211173	207.6	8.8	-65.4	8.8
2026-01-02 01:29:33.454190	207.6	8.6	-65.6	8.3
2026-01-02 01:29:35.696712	207.6	8.4	-65.9	8.3
2026-01-02 01:29:37.931223	207.5	8.2	-65.8	6.6
2026-01-02 01:29:40.163725	207.5	8.0	-65.3	7.8
2026-01-02 01:29:42.394235	207.5	7.9	-65.7	7.7
2026-01-02 01:29:44.628747	207.4	7.7	-64.8	6.6
2026-01-02 01:29:46.872772	207.4	7.5	-64.8	7.7
2026-01-02 01:29:49.116285	207.4	7.3	-64.3	7.1
2026-01-02 01:29:51.356812	207.3	7.2	-64.5	7.1
2026-01-02 01:29:53.597836	207.3	7.0	-64.9	7.4
2026-01-02 01:29:55.832367	207.3	6.8	-64.5	6.8
2026-01-02 01:29:58.063869	207.3	6.6	-64.9	5.4
2026-01-02 01:30:00.294372	207.2	6.5	-65.2	7.5
2026-01-02 01:30:02.524874	207.2	6.3	-65.2	6.0
2026-01-02 01:30:04.763899	207.2	6.1	-65.8	6.4
2026-01-02 01:30:06.997430	207.1	6.0	-66.3	5.6
2026-01-02 01:30:09.232455	207.1	5.8	-69.2	0.0
2026-01-02 01:30:11.467463	207.1	5.6	-70.6	0.0
2026-01-02 01:30:13.702471	207.1	5.5	-71.5	0.0
2026-01-02 01:30:15.937495	207.0	5.3	-72.2	0.0
2026-01-02 01:30:18.171999	207.0	5.1	-71.5	0.0
2026-01-02 01:30:20.409015	207.0	5.0	-71.3	0.0
#Closed at: 2026-01-02 01:17:24.227594