passes_logs/2026/01/02/PlanumMoscow/PlanumMoscow__20260102_173558_METOP-C_rec.log

#Pass ID: 20260102_173558_METOP-C
#Satellite: METOP-C
#Configuration: METOP-C
#Start time: 2026-01-02 17:36:03.299434

#LorettStation: 1.0.0 05.05.2024
#Station: PlanumMoscow
#Location: 37.6253844 lon 55.6713361 lat
#TLE: 1 43689U 18087A   25293.88981035  .00000265  00000+0  14109-3 0  9997
#TLE: 2 43689  98.7006 352.4487 0002041 122.1097 238.0279 14.21482740360838

#Time	Az	El	Level	SNR
2026-01-02 17:39:41.773220	136.0	28.8	-63.7	6.3
2026-01-02 17:39:44.003723	135.7	29.1	-64.4	5.8
2026-01-02 17:39:46.233225	135.5	29.5	-64.9	7.2
2026-01-02 17:39:48.462231	135.2	29.9	-64.4	4.9
2026-01-02 17:39:50.692734	134.9	30.3	-64.5	6.3
2026-01-02 17:39:52.923253	134.6	30.8	-64.4	4.3
2026-01-02 17:39:55.153755	134.3	31.2	-65.0	7.6
2026-01-02 17:39:57.381762	134.0	31.6	-64.2	5.6
2026-01-02 17:39:59.612768	133.7	32.0	-64.0	4.3
2026-01-02 17:40:01.844280	133.4	32.4	-64.0	7.8
2026-01-02 17:40:04.075799	133.1	32.9	-64.5	5.8
2026-01-02 17:40:06.308310	132.8	33.3	-64.8	7.5
2026-01-02 17:40:08.540318	132.4	33.8	-65.2	7.4
2026-01-02 17:40:10.774821	132.1	34.2	-62.1	3.7
2026-01-02 17:40:13.009837	131.7	34.7	-64.4	5.7
2026-01-02 17:40:15.247340	131.3	35.1	-64.2	0.8
2026-01-02 17:40:17.482861	130.9	35.6	-65.0	0.4
2026-01-02 17:40:19.716869	130.5	36.1	-65.1	5.3
2026-01-02 17:40:21.951389	130.1	36.5	-64.6	1.4
2026-01-02 17:40:24.182909	129.7	37.0	-65.3	6.7
2026-01-02 17:40:26.413916	129.3	37.5	-64.1	1.3
2026-01-02 17:40:28.657934	128.8	38.0	-64.0	4.3
2026-01-02 17:40:30.900952	128.4	38.5	-64.3	5.3
2026-01-02 17:40:33.138977	127.9	39.0	-65.4	4.1
2026-01-02 17:40:35.371984	127.4	39.5	-64.9	4.3
2026-01-02 17:40:37.604494	126.9	40.0	-65.2	5.0
2026-01-02 17:40:39.836501	126.4	40.6	-65.2	3.5
2026-01-02 17:40:42.072013	125.8	41.1	-65.9	5.8
2026-01-02 17:40:44.300533	125.3	41.6	-65.4	4.1
2026-01-02 17:40:46.538541	124.7	42.1	-64.9	5.8
2026-01-02 17:40:48.781558	124.1	42.7	-65.7	6.3
2026-01-02 17:40:51.014087	123.5	43.2	-65.5	0.0
2026-01-02 17:40:53.250599	122.8	43.8	-64.7	2.4
2026-01-02 17:40:55.494609	122.2	44.3	-66.0	1.2
2026-01-02 17:40:57.738131	121.5	44.9	-66.1	2.3
2026-01-02 17:40:59.982141	120.8	45.4	-66.1	4.4
2026-01-02 17:41:02.220653	120.0	46.0	-61.9	0.0
2026-01-02 17:41:04.452164	119.3	46.5	-65.0	3.5
2026-01-02 17:41:06.683170	118.5	47.1	-66.1	2.8
2026-01-02 17:41:08.914681	117.7	47.7	-66.2	1.5
2026-01-02 17:41:11.148211	116.8	48.2	-67.3	2.8
2026-01-02 17:41:13.380714	115.9	48.8	-65.9	1.3
2026-01-02 17:41:15.612720	115.0	49.4	-66.0	0.8
2026-01-02 17:41:17.843232	114.1	49.9	-66.8	4.2
2026-01-02 17:41:20.075247	113.1	50.5	-66.2	3.7
2026-01-02 17:41:22.308255	112.1	51.0	-66.6	3.9
2026-01-02 17:41:24.537766	111.0	51.6	-64.9	0.7
2026-01-02 17:41:26.767278	109.9	52.1	-67.3	1.9
2026-01-02 17:41:28.995292	108.8	52.7	-66.5	0.0
2026-01-02 17:41:31.227795	107.6	53.2	-63.9	0.0
2026-01-02 17:41:33.456801	106.3	53.7	-64.9	0.0
2026-01-02 17:41:35.688304	105.1	54.3	-65.9	0.0
2026-01-02 17:41:37.918815	103.8	54.8	-66.2	0.0
2026-01-02 17:41:40.151831	102.4	55.3	-64.0	0.0
2026-01-02 17:41:42.380333	101.0	55.8	-65.4	0.0
2026-01-02 17:41:44.610339	99.5	56.2	-67.8	0.0
2026-01-02 17:41:46.849356	98.0	56.7	-68.0	0.0
2026-01-02 17:41:49.079858	96.4	57.2	-66.7	0.0
2026-01-02 17:41:51.310865	94.8	57.6	-66.6	0.0
2026-01-02 17:41:53.539871	93.1	58.0	-67.4	0.0
2026-01-02 17:41:55.771382	91.4	58.4	-67.3	0.0
2026-01-02 17:41:58.009390	89.6	58.7	-66.9	0.0
2026-01-02 17:42:00.238892	87.8	59.1	-66.5	0.0
2026-01-02 17:42:02.471907	85.9	59.4	-65.6	0.0
2026-01-02 17:42:04.701913	84.0	59.7	-67.8	0.0
2026-01-02 17:42:06.931415	82.1	59.9	-67.9	0.0
2026-01-02 17:42:09.167936	80.1	60.2	-67.4	0.0
2026-01-02 17:42:11.396438	78.1	60.4	-65.9	0.0
2026-01-02 17:42:13.626445	76.0	60.5	-67.5	0.0
2026-01-02 17:42:15.857465	74.0	60.7	-66.1	0.0
2026-01-02 17:42:18.088471	71.9	60.8	-67.8	0.0
2026-01-02 17:42:20.319478	69.8	60.8	-66.9	0.0
2026-01-02 17:42:22.549989	67.7	60.9	-67.9	0.0
2026-01-02 17:42:24.779003	65.6	60.9	-66.6	0.0
2026-01-02 17:42:27.012506	63.5	60.8	-66.4	0.0
2026-01-02 17:42:29.255019	61.3	60.7	-67.5	0.0
2026-01-02 17:42:31.496038	59.2	60.6	-65.9	0.0
2026-01-02 17:42:33.738552	57.2	60.5	-66.1	0.0
2026-01-02 17:42:35.982562	55.1	60.3	-64.6	0.0
2026-01-02 17:42:38.226580	53.1	60.1	-66.3	0.0
2026-01-02 17:42:40.470590	51.1	59.9	-65.3	0.0
2026-01-02 17:42:42.710598	49.2	59.6	-65.9	0.0
2026-01-02 17:42:44.941622	47.3	59.3	-64.8	0.0
2026-01-02 17:42:47.176134	45.4	59.0	-66.5	0.0
2026-01-02 17:42:49.408141	43.6	58.7	-65.5	0.0
2026-01-02 17:42:51.638652	41.8	58.3	-65.7	0.0
2026-01-02 17:42:53.870154	40.1	57.9	-67.8	0.0
2026-01-02 17:42:56.103667	38.5	57.5	-66.9	0.0
2026-01-02 17:42:58.334674	36.9	57.1	-66.1	0.0
2026-01-02 17:43:00.568689	35.3	56.6	-63.0	0.0
2026-01-02 17:43:02.801200	33.8	56.2	-65.3	0.0
2026-01-02 17:43:05.030711	32.3	55.7	-65.4	0.0
2026-01-02 17:43:07.261213	30.9	55.2	-64.6	0.0
2026-01-02 17:43:09.489724	29.6	54.7	-64.9	0.0
2026-01-02 17:43:11.720235	28.3	54.2	-63.8	0.0
2026-01-02 17:43:13.951241	27.0	53.7	-62.8	0.0
2026-01-02 17:43:16.182258	25.8	53.2	-64.2	0.0
2026-01-02 17:43:18.414264	24.6	52.6	-65.1	0.0
2026-01-02 17:43:20.644271	23.5	52.1	-59.5	0.0
2026-01-02 17:43:22.877278	22.4	51.5	-65.7	0.0
2026-01-02 17:43:25.108284	21.3	51.0	-64.1	0.0
2026-01-02 17:43:27.337795	20.3	50.4	-64.7	0.0
2026-01-02 17:43:29.569802	19.3	49.9	-64.0	0.0
2026-01-02 17:43:31.802305	18.4	49.3	-63.9	0.0
2026-01-02 17:43:34.032807	17.5	48.7	-64.4	0.0
2026-01-02 17:43:36.262309	16.6	48.2	-64.3	0.0
2026-01-02 17:43:38.491819	15.8	47.6	-62.7	0.0
2026-01-02 17:43:40.720330	15.0	47.1	-62.3	0.0
2026-01-02 17:43:42.952336	14.2	46.5	-64.9	0.0
2026-01-02 17:43:45.183847	13.4	46.0	-63.5	0.0
2026-01-02 17:43:47.413863	12.7	45.4	-65.3	0.0
2026-01-02 17:43:49.643869	12.0	44.8	-65.5	0.0
2026-01-02 17:43:51.873371	11.3	44.3	-63.6	0.0
2026-01-02 17:43:54.104882	10.6	43.8	-64.5	0.0
2026-01-02 17:43:56.336393	10.0	43.2	-63.4	0.0
2026-01-02 17:43:58.572897	9.4	42.7	-65.6	0.0
2026-01-02 17:44:00.803904	8.8	42.1	-63.7	0.0
2026-01-02 17:44:03.044417	8.2	41.6	-63.0	0.0
2026-01-02 17:44:05.287436	7.7	41.1	-64.3	0.0
2026-01-02 17:44:07.531950	7.1	40.6	-63.4	0.0
2026-01-02 17:44:09.775960	6.6	40.0	-63.5	0.0
2026-01-02 17:44:12.008462	6.1	39.5	-60.3	0.0
2026-01-02 17:44:14.247487	5.6	39.0	-65.3	0.0
2026-01-02 17:44:16.491497	5.1	38.5	-62.6	0.0
2026-01-02 17:44:18.733020	4.7	38.0	-63.7	0.0
2026-01-02 17:44:20.976525	4.2	37.5	-63.6	0.0
2026-01-02 17:44:23.207532	3.8	37.0	-65.2	0.0
2026-01-02 17:44:25.436042	3.4	36.6	-64.6	0.6
2026-01-02 17:44:27.667545	3.0	36.1	-60.9	0.0
2026-01-02 17:44:29.897551	2.6	35.6	-62.1	0.0
2026-01-02 17:44:32.129558	2.2	35.2	-62.1	0.0
2026-01-02 17:44:34.361077	1.8	34.7	-63.1	0.0
2026-01-02 17:44:36.593580	1.5	34.2	-60.5	0.0
2026-01-02 17:44:38.825092	1.1	33.8	-62.3	0.0
2026-01-02 17:44:41.057107	0.8	33.4	-63.7	4.1
2026-01-02 17:44:43.291621	0.5	32.9	-63.2	2.9
2026-01-02 17:44:45.528133	0.1	32.5	-63.3	2.9
2026-01-02 17:44:47.758140	359.8	32.1	-62.0	0.0
2026-01-02 17:44:49.986642	359.5	31.6	-63.4	3.0
2026-01-02 17:44:52.218145	359.2	31.2	-63.7	0.1
2026-01-02 17:44:54.448655	358.9	30.8	-64.0	3.1
2026-01-02 17:44:56.679174	358.6	30.4	-63.1	0.9
2026-01-02 17:44:58.911190	358.4	30.0	-63.7	6.8
2026-01-02 17:45:01.139692	358.1	29.6	-61.4	3.6
2026-01-02 17:45:03.369698	357.8	29.2	-63.5	5.5
2026-01-02 17:45:05.599200	357.6	28.8	-62.2	5.0
2026-01-02 17:45:07.831207	357.3	28.4	-61.8	2.2
2026-01-02 17:45:10.063727	357.1	28.1	-62.1	1.8
2026-01-02 17:45:12.294229	356.9	27.7	-60.5	0.1
2026-01-02 17:45:14.525236	356.6	27.3	-61.3	1.3
2026-01-02 17:45:16.758756	356.4	27.0	-62.5	2.8
2026-01-02 17:45:18.991772	356.2	26.6	-61.0	3.1
2026-01-02 17:45:21.225275	356.0	26.2	-63.5	4.7
2026-01-02 17:45:23.455794	355.7	25.9	-63.2	3.1
2026-01-02 17:45:25.687305	355.5	25.5	-62.4	2.8
2026-01-02 17:45:27.917825	355.3	25.2	-61.8	4.3
2026-01-02 17:45:30.150841	355.1	24.9	-62.3	4.1
2026-01-02 17:45:32.391345	354.9	24.5	-61.2	0.0
2026-01-02 17:45:34.621848	354.8	24.2	-63.6	6.8
2026-01-02 17:45:36.853854	354.6	23.9	-62.7	4.1
2026-01-02 17:45:39.089358	354.4	23.5	-63.8	8.6
2026-01-02 17:45:41.323373	354.2	23.2	-62.7	4.1
2026-01-02 17:45:43.556877	354.0	22.9	-62.7	3.4
2026-01-02 17:45:45.788883	353.9	22.6	-64.0	7.4
2026-01-02 17:45:48.021386	353.7	22.3	-62.5	3.3
2026-01-02 17:45:50.256898	353.5	22.0	-63.1	4.3
2026-01-02 17:45:52.487400	353.4	21.7	-64.0	5.3
2026-01-02 17:45:54.719912	353.2	21.4	-62.5	4.2
2026-01-02 17:45:56.949422	353.1	21.1	-63.4	4.3
2026-01-02 17:45:59.182437	352.9	20.8	-63.0	2.5
2026-01-02 17:46:01.414940	352.8	20.5	-62.2	2.0
2026-01-02 17:46:03.646964	352.6	20.2	-63.6	2.4
2026-01-02 17:46:05.878476	352.5	19.9	-63.1	3.8
2026-01-02 17:46:08.111979	352.4	19.6	-62.9	5.0
2026-01-02 17:46:10.345499	352.2	19.4	-63.2	3.8
2026-01-02 17:46:12.577011	352.1	19.1	-64.1	3.1
2026-01-02 17:46:14.810018	352.0	18.8	-63.1	3.8
2026-01-02 17:46:17.042025	351.8	18.6	-62.8	4.8
2026-01-02 17:46:19.274033	351.7	18.3	-62.4	4.9
2026-01-02 17:46:21.503039	351.6	18.0	-62.5	1.1
2026-01-02 17:46:23.736047	351.5	17.8	-62.9	1.6
2026-01-02 17:46:25.970550	351.3	17.5	-63.5	4.9
2026-01-02 17:46:28.201061	351.2	17.3	-63.2	4.0
2026-01-02 17:46:30.431067	351.1	17.0	-62.9	4.6
2026-01-02 17:46:32.663579	351.0	16.8	-63.0	4.8
2026-01-02 17:46:34.894090	350.9	16.5	-62.6	1.6
2026-01-02 17:46:37.127610	350.8	16.3	-63.2	1.4
2026-01-02 17:46:39.355111	350.7	16.0	-61.6	0.0
2026-01-02 17:46:41.586118	350.6	15.8	-62.9	1.8
2026-01-02 17:46:43.818143	350.5	15.5	-62.4	0.9
2026-01-02 17:46:46.050654	350.4	15.3	-61.7	0.4
2026-01-02 17:46:48.288671	350.3	15.1	-62.8	2.0
2026-01-02 17:46:50.521678	350.2	14.8	-64.1	5.7
2026-01-02 17:46:52.754181	350.1	14.6	-62.9	3.4
2026-01-02 17:46:54.984692	350.0	14.4	-63.6	0.6
2026-01-02 17:46:57.218212	349.9	14.1	-63.6	0.0
2026-01-02 17:46:59.447723	349.8	13.9	-63.4	0.2
2026-01-02 17:47:01.680730	349.7	13.7	-63.2	3.5
2026-01-02 17:47:03.914233	349.6	13.5	-63.0	1.8
2026-01-02 17:47:06.146744	349.5	13.3	-62.3	0.0
2026-01-02 17:47:08.376246	349.4	13.0	-61.0	2.4
2026-01-02 17:47:10.609758	349.4	12.8	-60.2	0.0
2026-01-02 17:47:12.839764	349.3	12.6	-61.8	0.8
2026-01-02 17:47:15.069771	349.2	12.4	-62.1	1.8
2026-01-02 17:47:17.300778	349.1	12.2	-61.5	0.4
2026-01-02 17:47:19.534793	349.0	12.0	-60.8	0.0
2026-01-02 17:47:21.764296	349.0	11.8	-61.5	0.0
2026-01-02 17:47:23.993798	348.9	11.6	-63.3	1.6
2026-01-02 17:47:26.225300	348.8	11.4	-63.3	1.5
2026-01-02 17:47:28.455810	348.7	11.2	-62.6	0.0
2026-01-02 17:47:30.685322	348.7	11.0	-63.6	0.0
2026-01-02 17:47:32.918825	348.6	10.8	-63.7	0.0
2026-01-02 17:47:35.150327	348.5	10.6	-64.3	3.4
2026-01-02 17:47:37.378838	348.4	10.4	-63.4	0.5
2026-01-02 17:47:39.609349	348.4	10.2	-63.6	1.1
2026-01-02 17:47:41.841860	348.3	10.0	-63.8	3.2
2026-01-02 17:47:44.076868	348.2	9.8	-63.4	1.1
2026-01-02 17:47:46.308380	348.2	9.6	-64.0	3.6
2026-01-02 17:47:48.539387	348.1	9.4	-62.8	2.2
2026-01-02 17:47:50.771898	348.0	9.3	-63.5	4.3
2026-01-02 17:47:53.000921	348.0	9.1	-62.7	1.8
2026-01-02 17:47:55.238434	347.9	8.9	-63.6	3.7
2026-01-02 17:47:57.467999	347.9	8.7	-63.1	3.7
2026-01-02 17:47:59.698013	347.8	8.5	-61.8	0.0
2026-01-02 17:48:01.930029	347.7	8.4	-62.7	0.0
2026-01-02 17:48:04.162036	347.7	8.2	-63.0	0.0
2026-01-02 17:48:06.394551	347.6	8.0	-63.6	1.0
2026-01-02 17:48:08.625053	347.6	7.8	-63.4	0.0
2026-01-02 17:48:10.854556	347.5	7.6	-63.5	0.0
2026-01-02 17:48:13.084562	347.4	7.5	-62.6	0.0
2026-01-02 17:48:15.312568	347.4	7.3	-63.9	0.0
2026-01-02 17:48:17.547575	347.3	7.1	-62.4	0.0
2026-01-02 17:48:19.781078	347.3	7.0	-62.4	0.0
2026-01-02 17:48:22.010093	347.2	6.8	-63.6	0.3
2026-01-02 17:48:24.240100	347.2	6.6	-63.5	0.0
2026-01-02 17:48:26.469602	347.1	6.5	-64.5	0.0
2026-01-02 17:48:28.700609	347.1	6.3	-64.7	0.0
2026-01-02 17:48:30.931121	347.0	6.1	-63.4	0.0
2026-01-02 17:48:33.161624	347.0	6.0	-64.5	0.3
2026-01-02 17:48:35.389638	346.9	5.8	-68.9	0.0
2026-01-02 17:48:37.621150	346.9	5.6	-67.9	0.0
2026-01-02 17:48:39.849660	346.8	5.5	-70.4	0.0
2026-01-02 17:48:42.084172	346.8	5.3	-70.5	0.0
2026-01-02 17:48:44.310178	346.7	5.2	-72.1	0.0
2026-01-02 17:48:46.540184	346.7	5.0	-72.1	0.0
#Closed at: 2026-01-02 17:35:58.300915