passes_logs/2026/01/02/PlanumMoscow/PlanumMoscow__20260102_155821_METOP-C_rec.log

#Pass ID: 20260102_155821_METOP-C
#Satellite: METOP-C
#Configuration: METOP-C
#Start time: 2026-01-02 15:58:26.343617

#LorettStation: 1.0.0 05.05.2024
#Station: PlanumMoscow
#Location: 37.6253844 lon 55.6713361 lat
#TLE: 1 43689U 18087A   25293.88981035  .00000265  00000+0  14109-3 0  9997
#TLE: 2 43689  98.7006 352.4487 0002041 122.1097 238.0279 14.21482740360838

#Time	Az	El	Level	SNR
2026-01-02 16:02:04.810093	60.5	15.5	-65.2	6.2
2026-01-02 16:02:05.926352	60.3	15.6	-65.1	5.8
2026-01-02 16:02:07.044108	60.1	15.6	-64.6	4.4
2026-01-02 16:02:08.159370	59.8	15.6	-64.8	7.1
2026-01-02 16:02:09.275621	59.6	15.7	-65.8	6.7
2026-01-02 16:02:10.392873	59.4	15.7	-65.2	4.6
2026-01-02 16:02:11.509124	59.1	15.7	-65.0	4.0
2026-01-02 16:02:12.626385	58.9	15.8	-65.1	3.8
2026-01-02 16:02:13.746141	58.6	15.8	-64.9	3.6
2026-01-02 16:02:14.866402	58.4	15.8	-65.2	3.9
2026-01-02 16:02:15.983660	58.2	15.8	-65.2	5.7
2026-01-02 16:02:17.099912	57.9	15.9	-66.0	6.8
2026-01-02 16:02:18.218668	57.7	15.9	-65.8	6.3
2026-01-02 16:02:19.335928	57.4	15.9	-65.7	6.3
2026-01-02 16:02:20.452179	57.2	15.9	-64.7	5.4
2026-01-02 16:02:21.569935	57.0	16.0	-65.8	6.8
2026-01-02 16:02:22.687187	56.7	16.0	-66.1	6.0
2026-01-02 16:02:23.804438	56.5	16.0	-66.2	6.6
2026-01-02 16:02:24.922699	56.2	16.0	-65.8	6.5
2026-01-02 16:02:26.040950	56.0	16.1	-66.0	6.8
2026-01-02 16:02:27.156202	55.8	16.1	-65.5	6.7
2026-01-02 16:02:28.272957	55.5	16.1	-65.6	6.7
2026-01-02 16:02:29.389209	55.3	16.1	-65.0	4.8
2026-01-02 16:02:30.507460	55.0	16.2	-65.5	7.0
2026-01-02 16:02:31.625712	54.8	16.2	-65.6	6.3
2026-01-02 16:02:32.742476	54.5	16.2	-65.5	6.5
2026-01-02 16:02:33.859232	54.3	16.2	-65.6	6.7
2026-01-02 16:02:34.977493	54.0	16.2	-64.2	1.7
2026-01-02 16:02:36.093744	53.8	16.3	-64.6	5.6
2026-01-02 16:02:37.209995	53.6	16.3	-65.0	5.4
2026-01-02 16:02:38.326247	53.3	16.3	-64.9	4.6
2026-01-02 16:02:39.442498	53.1	16.3	-63.8	2.5
2026-01-02 16:02:40.561254	52.8	16.3	-64.9	6.5
2026-01-02 16:02:41.680010	52.6	16.3	-65.2	6.6
2026-01-02 16:02:42.796262	52.3	16.4	-65.1	5.0
2026-01-02 16:02:43.913513	52.1	16.4	-65.3	5.7
2026-01-02 16:02:45.031277	51.8	16.4	-65.3	5.6
2026-01-02 16:02:46.148529	51.6	16.4	-65.3	5.2
2026-01-02 16:02:47.263788	51.3	16.4	-65.2	5.0
2026-01-02 16:02:48.380039	51.1	16.4	-65.5	5.8
2026-01-02 16:02:49.498291	50.8	16.4	-64.4	2.2
2026-01-02 16:02:50.618047	50.6	16.5	-65.5	6.9
2026-01-02 16:02:51.738812	50.3	16.5	-65.5	5.5
2026-01-02 16:02:52.861065	50.1	16.5	-64.5	4.7
2026-01-02 16:02:53.982822	49.8	16.5	-64.5	4.3
2026-01-02 16:02:55.106075	49.6	16.5	-64.0	3.4
2026-01-02 16:02:56.227832	49.3	16.5	-64.3	4.0
2026-01-02 16:02:57.349589	49.1	16.5	-65.0	3.8
2026-01-02 16:02:58.470860	48.8	16.5	-63.9	4.6
2026-01-02 16:02:59.590112	48.6	16.5	-64.0	3.2
2026-01-02 16:03:00.712365	48.3	16.5	-63.9	4.3
2026-01-02 16:03:01.833130	48.1	16.5	-63.6	3.8
2026-01-02 16:03:02.954390	47.8	16.6	-63.4	3.5
2026-01-02 16:03:04.076644	47.6	16.6	-65.4	6.1
2026-01-02 16:03:05.193408	47.3	16.6	-64.7	6.3
2026-01-02 16:03:06.309659	47.1	16.6	-64.8	6.3
2026-01-02 16:03:07.425911	46.8	16.6	-65.0	6.2
2026-01-02 16:03:08.543666	46.6	16.6	-65.0	4.9
2026-01-02 16:03:09.658918	46.3	16.6	-64.9	5.3
2026-01-02 16:03:10.776169	46.1	16.6	-64.9	6.8
2026-01-02 16:03:11.896430	45.8	16.6	-65.0	6.5
2026-01-02 16:03:13.013184	45.6	16.6	-65.2	7.3
2026-01-02 16:03:14.131949	45.3	16.6	-65.0	7.4
2026-01-02 16:03:15.247200	45.1	16.6	-64.6	6.5
2026-01-02 16:03:16.364452	44.8	16.6	-64.7	7.0
2026-01-02 16:03:17.479703	44.6	16.6	-64.6	7.1
2026-01-02 16:03:18.601956	44.3	16.6	-64.7	6.2
2026-01-02 16:03:19.723217	44.1	16.6	-64.8	4.4
2026-01-02 16:03:20.844973	43.8	16.6	-64.9	6.9
2026-01-02 16:03:21.966226	43.6	16.6	-64.2	6.2
2026-01-02 16:03:23.085018	43.3	16.6	-64.8	5.8
2026-01-02 16:03:24.200269	43.1	16.6	-64.4	6.1
2026-01-02 16:03:25.319522	42.8	16.6	-64.0	5.3
2026-01-02 16:03:26.436781	42.6	16.5	-63.9	4.1
2026-01-02 16:03:27.552042	42.3	16.5	-64.7	7.0
2026-01-02 16:03:28.669850	42.1	16.5	-64.4	6.5
2026-01-02 16:03:29.788607	41.8	16.5	-65.1	7.7
2026-01-02 16:03:30.903858	41.6	16.5	-64.3	7.2
2026-01-02 16:03:32.020109	41.3	16.5	-63.8	6.8
2026-01-02 16:03:33.138361	41.1	16.5	-64.7	5.9
2026-01-02 16:03:34.254117	40.8	16.5	-63.8	5.6
2026-01-02 16:03:35.368872	40.6	16.5	-64.3	6.8
2026-01-02 16:03:36.484123	40.3	16.5	-64.7	6.5
2026-01-02 16:03:37.600375	40.1	16.5	-64.7	6.8
2026-01-02 16:03:38.717627	39.8	16.4	-64.8	6.7
2026-01-02 16:03:39.834419	39.6	16.4	-65.1	6.7
2026-01-02 16:03:40.954671	39.3	16.4	-65.4	7.7
2026-01-02 16:03:42.068931	39.1	16.4	-64.9	6.1
2026-01-02 16:03:43.186183	38.8	16.4	-65.1	7.3
2026-01-02 16:03:44.301938	38.6	16.4	-64.4	6.7
2026-01-02 16:03:45.418695	38.3	16.4	-65.1	5.6
2026-01-02 16:03:46.534451	38.1	16.4	-64.8	7.0
2026-01-02 16:03:47.650206	37.9	16.3	-65.2	7.5
2026-01-02 16:03:48.765962	37.6	16.3	-65.2	7.3
2026-01-02 16:03:49.883214	37.4	16.3	-63.8	2.2
2026-01-02 16:03:51.000465	37.1	16.3	-65.3	7.4
2026-01-02 16:03:52.116221	36.9	16.3	-65.6	5.8
2026-01-02 16:03:53.232977	36.6	16.2	-65.5	7.2
2026-01-02 16:03:54.349228	36.4	16.2	-65.1	7.0
2026-01-02 16:03:55.467480	36.1	16.2	-65.5	7.0
2026-01-02 16:03:56.586732	35.9	16.2	-65.3	6.7
2026-01-02 16:03:57.704488	35.6	16.2	-65.6	7.7
2026-01-02 16:03:58.820251	35.4	16.1	-65.5	7.8
2026-01-02 16:03:59.937008	35.2	16.1	-65.6	7.1
2026-01-02 16:04:01.055764	34.9	16.1	-65.6	7.0
2026-01-02 16:04:02.173016	34.7	16.1	-65.5	8.0
2026-01-02 16:04:03.288275	34.4	16.1	-65.7	7.9
2026-01-02 16:04:04.404031	34.2	16.0	-65.6	7.7
2026-01-02 16:04:05.521282	34.0	16.0	-65.7	7.8
2026-01-02 16:04:06.638534	33.7	16.0	-65.7	7.5
2026-01-02 16:04:07.754793	33.5	16.0	-65.6	7.4
2026-01-02 16:04:08.874045	33.2	15.9	-65.7	8.2
2026-01-02 16:04:09.991801	33.0	15.9	-66.1	8.2
2026-01-02 16:04:11.110557	32.8	15.9	-65.9	7.3
2026-01-02 16:04:12.228809	32.5	15.9	-65.9	8.3
2026-01-02 16:04:13.344060	32.3	15.8	-66.0	7.0
2026-01-02 16:04:14.457824	32.0	15.8	-65.0	6.3
2026-01-02 16:04:15.576579	31.8	15.8	-65.8	7.7
2026-01-02 16:04:16.695831	31.6	15.7	-65.4	4.0
2026-01-02 16:04:17.812083	31.3	15.7	-66.2	7.4
2026-01-02 16:04:18.928839	31.1	15.7	-65.8	7.5
2026-01-02 16:04:20.045595	30.9	15.7	-66.2	8.3
2026-01-02 16:04:21.162846	30.6	15.6	-65.5	6.4
2026-01-02 16:04:22.286099	30.4	15.6	-66.2	7.3
2026-01-02 16:04:23.401864	30.2	15.6	-66.1	7.2
2026-01-02 16:04:24.518620	29.9	15.5	-66.2	7.4
2026-01-02 16:04:25.636376	29.7	15.5	-66.6	7.0
2026-01-02 16:04:26.752628	29.5	15.5	-66.4	8.1
2026-01-02 16:04:27.868879	29.2	15.4	-66.7	8.4
2026-01-02 16:04:28.988635	29.0	15.4	-66.5	8.1
2026-01-02 16:04:30.109392	28.8	15.4	-66.0	6.3
2026-01-02 16:04:31.226652	28.5	15.3	-66.2	6.8
2026-01-02 16:04:32.347904	28.3	15.3	-66.2	8.2
2026-01-02 16:04:33.470157	28.1	15.3	-66.4	8.4
2026-01-02 16:04:34.592418	27.8	15.2	-66.1	8.2
2026-01-02 16:04:35.713184	27.6	15.2	-66.6	7.6
2026-01-02 16:04:36.834940	27.4	15.1	-66.5	8.4
2026-01-02 16:04:37.957202	27.2	15.1	-66.6	8.3
2026-01-02 16:04:39.078959	26.9	15.1	-66.5	8.5
2026-01-02 16:04:40.201716	26.7	15.0	-66.3	7.7
2026-01-02 16:04:41.323473	26.5	15.0	-66.3	7.8
2026-01-02 16:04:42.445229	26.2	15.0	-66.1	7.9
2026-01-02 16:04:43.566482	26.0	14.9	-66.4	8.1
2026-01-02 16:04:44.688743	25.8	14.9	-65.9	6.9
2026-01-02 16:04:45.811500	25.6	14.8	-66.0	7.9
2026-01-02 16:04:46.934763	25.4	14.8	-66.2	8.1
2026-01-02 16:04:48.052519	25.1	14.8	-65.8	7.2
2026-01-02 16:04:49.168816	24.9	14.7	-66.3	8.2
2026-01-02 16:04:50.284067	24.7	14.7	-65.9	8.0
2026-01-02 16:04:51.398822	24.5	14.6	-66.0	8.3
2026-01-02 16:04:52.515082	24.3	14.6	-66.4	8.2
2026-01-02 16:04:53.631342	24.0	14.6	-66.2	7.9
2026-01-02 16:04:54.747648	23.8	14.5	-66.3	8.1
2026-01-02 16:04:55.866908	23.6	14.5	-65.8	7.6
2026-01-02 16:04:56.983665	23.4	14.4	-66.2	7.3
2026-01-02 16:04:58.100420	23.2	14.4	-66.3	7.8
2026-01-02 16:04:59.214671	23.0	14.3	-65.8	7.3
2026-01-02 16:05:00.331923	22.7	14.3	-66.1	8.3
2026-01-02 16:05:01.447182	22.5	14.2	-66.1	7.6
2026-01-02 16:05:02.560937	22.3	14.2	-66.2	7.6
2026-01-02 16:05:03.678693	22.1	14.2	-66.2	8.1
2026-01-02 16:05:04.796449	21.9	14.1	-66.3	7.8
2026-01-02 16:05:05.913205	21.7	14.1	-66.1	8.2
2026-01-02 16:05:07.028456	21.5	14.0	-65.6	7.8
2026-01-02 16:05:08.143211	21.3	14.0	-65.7	7.9
2026-01-02 16:05:09.256966	21.0	13.9	-65.7	7.8
2026-01-02 16:05:10.376226	20.8	13.9	-65.8	6.9
2026-01-02 16:05:11.493478	20.6	13.8	-65.3	6.8
2026-01-02 16:05:12.609730	20.4	13.8	-65.6	7.5
2026-01-02 16:05:13.725981	20.2	13.7	-66.3	7.0
2026-01-02 16:05:14.843241	20.0	13.7	-66.0	7.7
2026-01-02 16:05:15.963493	19.8	13.6	-66.0	5.5
2026-01-02 16:05:17.080745	19.6	13.6	-65.6	7.8
2026-01-02 16:05:18.197996	19.4	13.5	-66.2	7.2
2026-01-02 16:05:19.314248	19.2	13.5	-65.7	7.3
2026-01-02 16:05:20.430011	19.0	13.4	-65.7	7.6
2026-01-02 16:05:21.545262	18.8	13.4	-65.6	8.1
2026-01-02 16:05:22.661513	18.6	13.3	-65.2	5.8
2026-01-02 16:05:23.776268	18.4	13.3	-66.0	8.2
2026-01-02 16:05:24.891520	18.2	13.2	-66.3	6.3
2026-01-02 16:05:26.008772	18.0	13.2	-65.8	6.8
2026-01-02 16:05:27.125023	17.8	13.1	-66.2	6.5
2026-01-02 16:05:28.241274	17.6	13.1	-66.3	8.0
2026-01-02 16:05:29.356526	17.4	13.0	-66.3	6.3
2026-01-02 16:05:30.473777	17.2	13.0	-65.5	6.1
2026-01-02 16:05:31.591029	17.0	12.9	-65.1	5.7
2026-01-02 16:05:32.711290	16.8	12.9	-65.3	5.5
2026-01-02 16:05:33.829045	16.6	12.8	-65.3	7.5
2026-01-02 16:05:34.945296	16.4	12.8	-64.1	4.9
2026-01-02 16:05:36.062548	16.2	12.7	-65.1	5.9
2026-01-02 16:05:37.177799	16.0	12.7	-65.7	7.6
2026-01-02 16:05:38.294059	15.9	12.6	-65.3	5.9
2026-01-02 16:05:39.410310	15.7	12.6	-65.3	5.1
2026-01-02 16:05:40.526577	15.5	12.5	-65.3	4.6
2026-01-02 16:05:41.643333	15.3	12.5	-66.0	5.9
2026-01-02 16:05:42.759089	15.1	12.4	-65.6	5.2
2026-01-02 16:05:43.875853	14.9	12.4	-65.8	4.5
2026-01-02 16:05:44.992608	14.7	12.3	-65.0	2.8
2026-01-02 16:05:46.110860	14.5	12.3	-65.6	3.8
2026-01-02 16:05:47.225119	14.3	12.2	-64.6	5.2
2026-01-02 16:05:48.343371	14.2	12.1	-65.1	5.2
2026-01-02 16:05:49.459623	14.0	12.1	-65.1	5.9
2026-01-02 16:05:50.576882	13.8	12.0	-64.8	6.1
2026-01-02 16:05:51.692134	13.6	12.0	-64.2	5.8
2026-01-02 16:05:52.808889	13.4	11.9	-65.0	6.1
2026-01-02 16:05:53.932151	13.2	11.9	-64.2	3.7
2026-01-02 16:05:55.052404	13.1	11.8	-64.2	4.4
2026-01-02 16:05:56.173183	12.9	11.8	-64.5	4.1
2026-01-02 16:05:57.295436	12.7	11.7	-64.7	6.5
2026-01-02 16:05:58.416696	12.5	11.6	-65.3	5.3
2026-01-02 16:05:59.538453	12.3	11.6	-64.6	6.5
2026-01-02 16:06:00.660210	12.2	11.5	-65.4	6.7
2026-01-02 16:06:01.783472	12.0	11.5	-65.3	6.7
2026-01-02 16:06:02.904732	11.8	11.4	-64.9	5.5
2026-01-02 16:06:04.026985	11.6	11.4	-64.9	5.7
2026-01-02 16:06:05.148743	11.5	11.3	-64.6	5.2
2026-01-02 16:06:06.270500	11.3	11.2	-64.7	5.6
2026-01-02 16:06:07.391760	11.1	11.2	-64.8	4.5
2026-01-02 16:06:08.512029	10.9	11.1	-64.8	4.7
2026-01-02 16:06:09.634290	10.8	11.1	-64.8	2.6
2026-01-02 16:06:10.753542	10.6	11.0	-64.2	3.7
2026-01-02 16:06:11.867793	10.4	11.0	-64.9	3.9
2026-01-02 16:06:12.985549	10.3	10.9	-65.1	4.0
2026-01-02 16:06:14.102305	10.1	10.8	-62.0	2.2
2026-01-02 16:06:15.217556	9.9	10.8	-64.6	1.3
2026-01-02 16:06:16.334312	9.8	10.7	-64.4	0.1
2026-01-02 16:06:17.451068	9.6	10.7	-64.7	0.0
2026-01-02 16:06:18.570320	9.4	10.6	-62.6	0.0
2026-01-02 16:06:19.685075	9.3	10.6	-64.5	2.9
2026-01-02 16:06:20.800335	9.1	10.5	-63.6	0.0
2026-01-02 16:06:21.917090	8.9	10.4	-64.7	0.0
2026-01-02 16:06:23.034341	8.8	10.4	-64.6	1.9
2026-01-02 16:06:24.151098	8.6	10.3	-64.6	0.5
2026-01-02 16:06:25.267358	8.4	10.3	-61.8	0.0
2026-01-02 16:06:26.383609	8.3	10.2	-63.8	0.0
2026-01-02 16:06:27.499861	8.1	10.1	-64.0	1.8
2026-01-02 16:06:28.616617	8.0	10.1	-64.3	2.3
2026-01-02 16:06:29.734372	7.8	10.0	-63.1	0.0
2026-01-02 16:06:30.849623	7.6	10.0	-61.2	0.0
2026-01-02 16:06:31.966875	7.5	9.9	-63.5	2.2
2026-01-02 16:06:33.085632	7.3	9.8	-61.7	0.0
2026-01-02 16:06:34.203388	7.2	9.8	-62.5	1.9
2026-01-02 16:06:35.321640	7.0	9.7	-62.1	0.0
2026-01-02 16:06:36.438900	6.9	9.7	-63.5	2.7
2026-01-02 16:06:37.557163	6.7	9.6	-63.1	2.3
2026-01-02 16:06:38.675415	6.5	9.5	-62.3	4.0
2026-01-02 16:06:39.790666	6.4	9.5	-63.0	3.1
2026-01-02 16:06:40.908429	6.2	9.4	-64.0	3.6
2026-01-02 16:06:42.026697	6.1	9.4	-62.1	4.4
2026-01-02 16:06:43.144452	5.9	9.3	-63.2	3.3
2026-01-02 16:06:44.261712	5.8	9.3	-62.8	2.0
2026-01-02 16:06:45.380469	5.6	9.2	-63.9	5.4
2026-01-02 16:06:46.500225	5.5	9.1	-62.5	1.8
2026-01-02 16:06:47.616477	5.3	9.1	-63.4	5.1
2026-01-02 16:06:48.736233	5.2	9.0	-62.8	1.2
2026-01-02 16:06:49.853485	5.0	9.0	-62.7	0.9
2026-01-02 16:06:50.972737	4.9	8.9	-63.0	3.6
2026-01-02 16:06:52.091493	4.7	8.8	-63.1	4.6
2026-01-02 16:06:53.207744	4.6	8.8	-63.1	3.5
2026-01-02 16:06:54.321995	4.5	8.7	-61.7	0.8
2026-01-02 16:06:55.439751	4.3	8.7	-61.5	0.0
2026-01-02 16:06:56.559508	4.2	8.6	-63.6	5.0
2026-01-02 16:06:57.677760	4.0	8.5	-63.7	4.3
2026-01-02 16:06:58.796516	3.9	8.5	-63.2	1.6
2026-01-02 16:06:59.911767	3.7	8.4	-61.5	0.0
2026-01-02 16:07:01.028019	3.6	8.4	-61.8	0.0
2026-01-02 16:07:02.144775	3.5	8.3	-63.4	4.1
2026-01-02 16:07:03.262035	3.3	8.2	-63.3	3.1
2026-01-02 16:07:04.378798	3.2	8.2	-62.2	0.0
2026-01-02 16:07:05.496555	3.0	8.1	-63.0	2.3
2026-01-02 16:07:06.615311	2.9	8.0	-63.1	2.9
2026-01-02 16:07:07.730562	2.8	8.0	-64.0	3.4
2026-01-02 16:07:08.846814	2.6	7.9	-63.6	1.6
2026-01-02 16:07:09.967570	2.5	7.9	-63.9	2.4
2026-01-02 16:07:11.083333	2.3	7.8	-63.3	3.0
2026-01-02 16:07:12.201089	2.2	7.7	-63.8	2.7
2026-01-02 16:07:13.318341	2.1	7.7	-62.2	3.1
2026-01-02 16:07:14.433096	1.9	7.6	-63.3	1.8
2026-01-02 16:07:15.550347	1.8	7.6	-63.4	2.6
2026-01-02 16:07:16.667104	1.7	7.5	-64.6	2.2
2026-01-02 16:07:17.783355	1.5	7.4	-63.8	0.5
2026-01-02 16:07:18.900111	1.4	7.4	-64.4	1.3
2026-01-02 16:07:20.017867	1.3	7.3	-63.9	0.0
2026-01-02 16:07:21.134118	1.1	7.3	-64.4	0.0
2026-01-02 16:07:22.247873	1.0	7.2	-64.4	0.0
2026-01-02 16:07:23.364124	0.9	7.1	-64.0	0.0
2026-01-02 16:07:24.478880	0.8	7.1	-64.2	0.0
2026-01-02 16:07:25.596131	0.6	7.0	-64.7	0.0
2026-01-02 16:07:26.712383	0.5	7.0	-62.5	0.0
2026-01-02 16:07:27.826634	0.4	6.9	-64.3	0.0
2026-01-02 16:07:28.945390	0.2	6.8	-63.1	0.0
2026-01-02 16:07:30.061145	0.1	6.8	-64.3	0.0
2026-01-02 16:07:31.177397	360.0	6.7	-63.5	0.0
2026-01-02 16:07:32.293656	359.9	6.7	-64.4	0.0
2026-01-02 16:07:33.412421	359.7	6.6	-64.3	0.0
2026-01-02 16:07:34.528680	359.6	6.5	-63.0	0.0
2026-01-02 16:07:35.643932	359.5	6.5	-61.5	0.0
2026-01-02 16:07:36.760687	359.4	6.4	-65.0	0.0
2026-01-02 16:07:37.876938	359.2	6.4	-65.3	0.0
2026-01-02 16:07:38.994694	359.1	6.3	-65.1	0.0
2026-01-02 16:07:40.112458	359.0	6.2	-65.2	0.0
2026-01-02 16:07:41.229214	358.9	6.2	-65.8	0.0
2026-01-02 16:07:42.344465	358.8	6.1	-65.1	0.0
2026-01-02 16:07:43.462725	358.6	6.1	-64.6	0.0
2026-01-02 16:07:44.578976	358.5	6.0	-63.9	0.0
2026-01-02 16:07:45.696732	358.4	5.9	-66.3	0.0
2026-01-02 16:07:46.812984	358.3	5.9	-67.3	0.0
2026-01-02 16:07:47.928235	358.2	5.8	-69.3	0.0
2026-01-02 16:07:49.044486	358.0	5.8	-69.3	0.0
2026-01-02 16:07:50.160746	357.9	5.7	-69.9	0.0
2026-01-02 16:07:51.276509	357.8	5.6	-70.4	0.0
2026-01-02 16:07:52.394761	357.7	5.6	-71.0	0.0
2026-01-02 16:07:53.516517	357.6	5.5	-70.7	0.0
2026-01-02 16:07:54.638274	357.5	5.5	-71.4	0.0
2026-01-02 16:07:55.760527	357.3	5.4	-71.4	0.0
2026-01-02 16:07:56.878779	357.2	5.3	-71.6	0.0
2026-01-02 16:07:58.001032	357.1	5.3	-72.2	0.0
2026-01-02 16:07:59.122797	357.0	5.2	-71.8	0.0
2026-01-02 16:08:00.245050	356.9	5.2	-72.4	0.0
2026-01-02 16:08:01.364806	356.8	5.1	-71.9	0.0
2026-01-02 16:08:02.484059	356.7	5.0	-71.8	0.0
#Closed at: 2026-01-02 15:58:21.344562