passes_logs/2026/01/02/PlanumMoscow/PlanumMoscow__20260102_110644_METEOR-M2_4_rec.log

#Pass ID: 20260102_110644_METEOR-M2 4
#Satellite: METEOR-M2 4
#Configuration: METEOR-M2 4
#Start time: 2026-01-02 11:06:49.266318

#LorettStation: 1.0.0 05.05.2024
#Station: PlanumMoscow
#Location: 37.6253844 lon 55.6713361 lat
#TLE: 1 59051U 24039A   25293.94737965  .00000087  00000+0  58459-4 0  9998
#TLE: 2 59051  98.6671 251.7071 0007726 135.4772 224.7028 14.22388966 85257

#Time	Az	El	Level	SNR
2026-01-02 11:10:27.724729	149.7	29.7	-63.7	13.2
2026-01-02 11:10:29.964250	149.6	30.1	-63.2	13.5
2026-01-02 11:10:32.206305	149.4	30.5	-64.1	13.4
2026-01-02 11:10:34.449324	149.3	31.0	-64.5	14.8
2026-01-02 11:10:36.693341	149.2	31.4	-63.6	12.6
2026-01-02 11:10:38.937846	149.0	31.9	-64.3	13.4
2026-01-02 11:10:41.183872	148.9	32.3	-64.7	13.3
2026-01-02 11:10:43.427386	148.8	32.8	-64.4	13.1
2026-01-02 11:10:45.668403	148.6	33.3	-64.5	14.7
2026-01-02 11:10:47.910925	148.4	33.7	-63.5	12.1
2026-01-02 11:10:50.150430	148.3	34.2	-64.3	14.3
2026-01-02 11:10:52.384933	148.1	34.7	-64.7	14.5
2026-01-02 11:10:54.621454	147.9	35.2	-64.2	14.2
2026-01-02 11:10:56.861974	147.8	35.7	-64.4	14.6
2026-01-02 11:10:59.097478	147.6	36.2	-64.1	14.7
2026-01-02 11:11:01.336001	147.4	36.8	-64.6	14.8
2026-01-02 11:11:03.574513	147.2	37.3	-64.8	14.3
2026-01-02 11:11:05.812529	147.0	37.8	-64.8	14.3
2026-01-02 11:11:08.049537	146.8	38.4	-64.9	15.1
2026-01-02 11:11:10.283576	146.6	39.0	-64.3	13.7
2026-01-02 11:11:12.520584	146.3	39.5	-65.3	14.9
2026-01-02 11:11:14.765595	146.1	40.1	-65.0	14.7
2026-01-02 11:11:17.005603	145.9	40.7	-65.2	15.4
2026-01-02 11:11:19.245107	145.6	41.3	-65.5	15.0
2026-01-02 11:11:21.485116	145.3	41.9	-65.2	14.2
2026-01-02 11:11:23.721132	145.1	42.5	-65.3	14.9
2026-01-02 11:11:25.955148	144.8	43.1	-65.8	15.7
2026-01-02 11:11:28.195190	144.5	43.7	-65.6	14.7
2026-01-02 11:11:30.434694	144.2	44.4	-66.2	14.9
2026-01-02 11:11:32.674703	143.9	45.0	-65.7	14.0
2026-01-02 11:11:34.916208	143.5	45.7	-65.8	14.5
2026-01-02 11:11:37.154713	143.2	46.4	-66.3	14.8
2026-01-02 11:11:39.390720	142.8	47.1	-66.5	14.7
2026-01-02 11:11:41.630746	142.4	47.7	-66.4	13.4
2026-01-02 11:11:43.868770	142.0	48.4	-66.0	13.0
2026-01-02 11:11:46.107796	141.6	49.1	-66.6	13.5
2026-01-02 11:11:48.349822	141.2	49.9	-65.7	11.0
2026-01-02 11:11:50.597841	140.7	50.6	-66.4	12.6
2026-01-02 11:11:52.842364	140.2	51.3	-67.0	11.3
2026-01-02 11:11:55.084885	139.7	52.1	-67.1	11.0
2026-01-02 11:11:57.328400	139.2	52.8	-66.9	11.3
2026-01-02 11:11:59.572410	138.6	53.6	-67.6	11.9
2026-01-02 11:12:01.814915	138.0	54.4	-67.3	10.8
2026-01-02 11:12:04.054923	137.4	55.2	-67.7	10.6
2026-01-02 11:12:06.289443	136.8	56.0	-66.6	9.4
2026-01-02 11:12:08.525956	136.1	56.8	-67.2	10.0
2026-01-02 11:12:10.762459	135.3	57.6	-66.9	9.0
2026-01-02 11:12:13.000467	134.5	58.4	-67.5	10.9
2026-01-02 11:12:15.237979	133.7	59.2	-66.9	10.8
2026-01-02 11:12:17.480501	132.8	60.0	-66.8	10.4
2026-01-02 11:12:19.718014	131.8	60.8	-67.2	11.5
2026-01-02 11:12:21.953030	130.8	61.7	-66.7	8.1
2026-01-02 11:12:24.186541	129.7	62.5	-67.3	10.3
2026-01-02 11:12:26.420557	128.6	63.3	-66.3	9.3
2026-01-02 11:12:28.656069	127.3	64.2	-67.5	10.2
2026-01-02 11:12:30.893078	126.0	65.0	-67.3	9.3
2026-01-02 11:12:33.126589	124.5	65.8	-67.5	10.0
2026-01-02 11:12:35.361100	123.0	66.6	-66.7	8.8
2026-01-02 11:12:37.599613	121.3	67.4	-68.0	11.7
2026-01-02 11:12:39.835116	119.4	68.2	-67.9	10.2
2026-01-02 11:12:42.069141	117.5	69.0	-67.0	10.5
2026-01-02 11:12:44.303645	115.3	69.8	-67.4	11.6
2026-01-02 11:12:46.540652	113.0	70.5	-67.0	11.5
2026-01-02 11:12:48.774164	110.5	71.2	-66.8	11.1
2026-01-02 11:12:51.009667	107.8	71.9	-66.5	11.2
2026-01-02 11:12:53.245684	104.9	72.5	-66.2	10.4
2026-01-02 11:12:55.478699	101.8	73.1	-67.0	11.4
2026-01-02 11:12:57.713210	98.4	73.7	-66.9	13.5
2026-01-02 11:12:59.949722	94.8	74.2	-66.7	12.5
2026-01-02 11:13:02.192732	90.9	74.6	-67.0	13.5
2026-01-02 11:13:04.435750	86.9	74.9	-66.8	13.7
2026-01-02 11:13:06.679760	82.6	75.2	-66.4	14.0
2026-01-02 11:13:08.923769	78.2	75.4	-66.5	10.7
2026-01-02 11:13:11.166787	73.7	75.6	-65.8	10.5
2026-01-02 11:13:13.408814	69.2	75.6	-67.0	13.5
2026-01-02 11:13:15.651336	64.7	75.5	-67.0	11.9
2026-01-02 11:13:17.888840	60.2	75.4	-67.0	11.8
2026-01-02 11:13:20.122361	55.9	75.2	-66.8	12.9
2026-01-02 11:13:22.360873	51.7	74.9	-66.1	11.9
2026-01-02 11:13:24.595377	47.7	74.5	-66.1	12.7
2026-01-02 11:13:26.829889	43.9	74.0	-66.1	13.5
2026-01-02 11:13:29.067401	40.4	73.5	-66.6	12.9
2026-01-02 11:13:31.301418	37.0	73.0	-66.0	9.6
2026-01-02 11:13:33.539939	34.0	72.4	-66.9	11.2
2026-01-02 11:13:35.775947	31.1	71.7	-67.4	11.9
2026-01-02 11:13:38.011450	28.4	71.0	-67.8	11.4
2026-01-02 11:13:40.247466	26.0	70.3	-66.4	11.3
2026-01-02 11:13:42.487483	23.7	69.6	-66.1	12.3
2026-01-02 11:13:44.727997	21.6	68.8	-65.9	9.7
2026-01-02 11:13:46.967005	19.7	68.0	-66.1	10.1
2026-01-02 11:13:49.201508	17.9	67.2	-65.5	10.5
2026-01-02 11:13:51.436020	16.3	66.4	-65.5	10.4
2026-01-02 11:13:53.674540	14.7	65.6	-66.2	10.4
2026-01-02 11:13:55.909060	13.3	64.8	-66.4	9.6
2026-01-02 11:13:58.149069	12.0	64.0	-65.7	9.3
2026-01-02 11:14:00.384076	10.8	63.1	-66.2	8.6
2026-01-02 11:14:02.619589	9.6	62.3	-66.5	9.0
2026-01-02 11:14:04.855597	8.6	61.5	-65.3	8.5
2026-01-02 11:14:07.093604	7.6	60.7	-65.3	10.0
2026-01-02 11:14:09.327612	6.6	59.8	-65.1	8.9
2026-01-02 11:14:11.562635	5.8	59.0	-65.7	8.6
2026-01-02 11:14:13.799652	4.9	58.2	-65.4	9.1
2026-01-02 11:14:16.036172	4.2	57.4	-65.4	8.6
2026-01-02 11:14:18.273685	3.4	56.6	-65.9	8.7
2026-01-02 11:14:20.517694	2.7	55.8	-65.1	7.7
2026-01-02 11:14:22.761208	2.1	55.0	-65.1	7.0
2026-01-02 11:14:25.005722	1.5	54.3	-65.6	6.8
2026-01-02 11:14:27.253741	0.9	53.5	-65.1	5.6
2026-01-02 11:14:29.497256	0.3	52.7	-65.2	5.9
2026-01-02 11:14:31.740273	359.8	52.0	-66.0	6.4
2026-01-02 11:14:33.984283	359.3	51.2	-65.5	7.4
2026-01-02 11:14:36.219803	358.8	50.5	-65.0	6.4
2026-01-02 11:14:38.457811	358.4	49.8	-64.2	7.0
2026-01-02 11:14:40.697829	357.9	49.1	-65.1	6.8
2026-01-02 11:14:42.937838	357.5	48.4	-64.8	6.4
2026-01-02 11:14:45.175341	357.1	47.7	-64.7	7.2
2026-01-02 11:14:47.411862	356.8	47.0	-63.6	7.4
2026-01-02 11:14:49.653367	356.4	46.3	-66.0	9.5
2026-01-02 11:14:51.892375	356.1	45.6	-64.3	6.9
2026-01-02 11:14:54.127896	355.7	45.0	-64.2	7.1
2026-01-02 11:14:56.360398	355.4	44.3	-65.3	7.9
2026-01-02 11:14:58.595413	355.1	43.7	-66.3	11.1
2026-01-02 11:15:00.829422	354.8	43.1	-66.6	10.9
2026-01-02 11:15:03.064437	354.5	42.5	-64.9	8.7
2026-01-02 11:15:05.295940	354.3	41.9	-65.9	11.5
2026-01-02 11:15:07.530948	354.0	41.3	-65.7	10.8
2026-01-02 11:15:09.768957	353.8	40.7	-65.4	10.2
2026-01-02 11:15:12.004468	353.5	40.1	-64.6	9.2
2026-01-02 11:15:14.243485	353.3	39.5	-65.4	11.3
2026-01-02 11:15:16.474995	353.1	39.0	-64.0	10.7
2026-01-02 11:15:18.713012	352.9	38.4	-65.3	9.9
2026-01-02 11:15:20.948533	352.7	37.9	-64.7	9.7
2026-01-02 11:15:23.187037	352.5	37.3	-64.9	10.4
2026-01-02 11:15:25.419549	352.3	36.8	-65.5	11.6
2026-01-02 11:15:27.651067	352.1	36.3	-65.8	11.9
2026-01-02 11:15:29.893085	351.9	35.8	-64.0	8.7
2026-01-02 11:15:32.132102	351.7	35.3	-65.2	10.7
2026-01-02 11:15:34.373119	351.5	34.8	-64.5	9.6
2026-01-02 11:15:36.616632	351.4	34.3	-64.9	10.9
2026-01-02 11:15:38.859650	351.2	33.8	-65.8	11.4
2026-01-02 11:15:41.103660	351.1	33.3	-64.9	8.6
2026-01-02 11:15:43.348671	350.9	32.8	-65.4	11.1
2026-01-02 11:15:45.592681	350.8	32.4	-65.1	11.1
2026-01-02 11:15:47.836690	350.6	31.9	-65.6	11.6
2026-01-02 11:15:50.072698	350.5	31.5	-65.4	11.0
2026-01-02 11:15:52.303705	350.4	31.0	-64.8	10.1
2026-01-02 11:15:54.538208	350.2	30.6	-64.8	10.5
2026-01-02 11:15:56.774721	350.1	30.2	-65.1	11.0
2026-01-02 11:15:59.010728	350.0	29.8	-64.8	10.3
2026-01-02 11:16:01.248241	349.9	29.3	-66.2	11.4
2026-01-02 11:16:03.486258	349.7	28.9	-65.0	10.4
2026-01-02 11:16:05.722779	349.6	28.5	-64.9	9.1
2026-01-02 11:16:07.960291	349.5	28.1	-65.1	11.4
2026-01-02 11:16:10.196299	349.4	27.7	-64.9	9.8
2026-01-02 11:16:12.430810	349.3	27.4	-65.1	9.7
2026-01-02 11:16:14.665817	349.2	27.0	-66.0	11.7
2026-01-02 11:16:16.898825	349.1	26.6	-65.7	11.0
2026-01-02 11:16:19.138337	349.0	26.2	-65.6	11.5
2026-01-02 11:16:21.370847	348.9	25.9	-65.6	11.3
2026-01-02 11:16:23.606864	348.8	25.5	-65.1	11.0
2026-01-02 11:16:25.843368	348.7	25.1	-65.6	11.6
2026-01-02 11:16:28.082377	348.7	24.8	-65.7	12.2
2026-01-02 11:16:30.321898	348.6	24.4	-64.7	9.8
2026-01-02 11:16:32.557906	348.5	24.1	-66.2	11.4
2026-01-02 11:16:34.795435	348.4	23.8	-65.5	10.9
2026-01-02 11:16:37.031947	348.3	23.4	-66.4	12.1
2026-01-02 11:16:39.266955	348.2	23.1	-66.3	11.9
2026-01-02 11:16:41.499962	348.2	22.8	-66.2	11.5
2026-01-02 11:16:43.737466	348.1	22.5	-65.4	11.4
2026-01-02 11:16:45.976474	348.0	22.1	-65.3	11.1
2026-01-02 11:16:48.211993	348.0	21.8	-64.9	10.5
2026-01-02 11:16:50.449001	347.9	21.5	-65.1	9.7
2026-01-02 11:16:52.689523	347.8	21.2	-64.7	8.7
2026-01-02 11:16:54.935036	347.8	20.9	-65.0	9.7
2026-01-02 11:16:57.179550	347.7	20.6	-64.9	9.1
2026-01-02 11:16:59.423560	347.6	20.3	-66.2	11.0
2026-01-02 11:17:01.667074	347.6	20.0	-65.2	8.9
2026-01-02 11:17:03.910595	347.5	19.7	-65.3	7.0
2026-01-02 11:17:06.154605	347.4	19.4	-65.7	11.1
2026-01-02 11:17:08.390637	347.4	19.1	-65.5	10.0
2026-01-02 11:17:10.626148	347.3	18.9	-65.0	9.8
2026-01-02 11:17:12.865662	347.3	18.6	-64.9	9.3
2026-01-02 11:17:15.101679	347.2	18.3	-65.1	10.5
2026-01-02 11:17:17.337199	347.2	18.1	-65.6	10.2
2026-01-02 11:17:19.573703	347.1	17.8	-65.0	9.1
2026-01-02 11:17:21.810232	347.1	17.5	-65.8	10.5
2026-01-02 11:17:24.045257	347.0	17.3	-65.7	9.6
2026-01-02 11:17:26.281273	347.0	17.0	-65.3	9.8
2026-01-02 11:17:28.516785	346.9	16.7	-65.1	7.5
2026-01-02 11:17:30.759290	346.9	16.5	-64.8	9.1
2026-01-02 11:17:32.995802	346.8	16.2	-64.1	9.1
2026-01-02 11:17:35.232306	346.8	16.0	-64.5	8.2
2026-01-02 11:17:37.471315	346.7	15.7	-65.5	9.5
2026-01-02 11:17:39.710819	346.7	15.5	-65.7	9.2
2026-01-02 11:17:41.950828	346.6	15.3	-65.0	9.1
2026-01-02 11:17:44.186836	346.6	15.0	-65.3	8.5
2026-01-02 11:17:46.423852	346.6	14.8	-63.6	5.8
2026-01-02 11:17:48.657868	346.5	14.6	-64.4	7.1
2026-01-02 11:17:50.891884	346.5	14.3	-65.5	8.9
2026-01-02 11:17:53.128892	346.4	14.1	-65.5	8.7
2026-01-02 11:17:55.366396	346.4	13.9	-64.8	6.7
2026-01-02 11:17:57.601412	346.4	13.6	-65.8	8.8
2026-01-02 11:17:59.837932	346.3	13.4	-65.4	8.4
2026-01-02 11:18:02.075941	346.3	13.2	-63.9	5.4
2026-01-02 11:18:04.312949	346.3	13.0	-65.1	8.4
2026-01-02 11:18:06.552974	346.2	12.8	-63.7	6.2
2026-01-02 11:18:08.795984	346.2	12.5	-65.6	7.7
2026-01-02 11:18:11.037515	346.2	12.3	-64.2	6.3
2026-01-02 11:18:13.280534	346.1	12.1	-65.1	7.6
2026-01-02 11:18:15.522561	346.1	11.9	-64.5	6.4
2026-01-02 11:18:17.766074	346.1	11.7	-64.8	7.5
2026-01-02 11:18:20.011580	346.0	11.5	-64.7	7.4
2026-01-02 11:18:22.254599	346.0	11.3	-64.5	5.9
2026-01-02 11:18:24.491606	346.0	11.1	-65.2	8.5
2026-01-02 11:18:26.728117	345.9	10.9	-65.4	7.9
2026-01-02 11:18:28.962621	345.9	10.7	-64.7	6.8
2026-01-02 11:18:31.195123	345.9	10.5	-64.1	7.2
2026-01-02 11:18:33.432140	345.9	10.3	-65.0	7.2
2026-01-02 11:18:35.669148	345.8	10.1	-65.0	6.6
2026-01-02 11:18:37.909660	345.8	9.9	-64.8	5.7
2026-01-02 11:18:40.143668	345.8	9.7	-64.6	5.6
2026-01-02 11:18:42.375170	345.8	9.5	-64.6	5.5
2026-01-02 11:18:44.611179	345.7	9.3	-64.9	4.6
2026-01-02 11:18:46.850212	345.7	9.1	-65.3	5.6
2026-01-02 11:18:49.083715	345.7	9.0	-65.1	4.7
2026-01-02 11:18:51.318732	345.7	8.8	-65.0	3.2
2026-01-02 11:18:53.551235	345.6	8.6	-65.3	5.3
2026-01-02 11:18:55.787746	345.6	8.4	-65.3	6.4
2026-01-02 11:18:58.024250	345.6	8.2	-65.5	4.2
2026-01-02 11:19:00.260274	345.6	8.0	-65.6	5.9
2026-01-02 11:19:02.496282	345.5	7.9	-64.9	2.1
2026-01-02 11:19:04.737795	345.5	7.7	-65.2	4.3
2026-01-02 11:19:06.972811	345.5	7.5	-64.8	4.3
2026-01-02 11:19:09.209315	345.5	7.3	-65.1	3.4
2026-01-02 11:19:11.450333	345.5	7.2	-64.4	1.4
2026-01-02 11:19:13.683339	345.4	7.0	-65.0	3.7
2026-01-02 11:19:15.924348	345.4	6.8	-64.0	1.6
2026-01-02 11:19:18.162356	345.4	6.7	-63.8	1.9
2026-01-02 11:19:20.397364	345.4	6.5	-64.7	2.1
2026-01-02 11:19:22.633372	345.4	6.3	-64.2	3.2
2026-01-02 11:19:24.877399	345.3	6.2	-63.0	0.0
2026-01-02 11:19:27.119425	345.3	6.0	-62.0	0.0
2026-01-02 11:19:29.362443	345.3	5.8	-66.6	0.0
2026-01-02 11:19:31.607470	345.3	5.7	-66.7	0.0
2026-01-02 11:19:33.851975	345.3	5.5	-67.8	0.0
2026-01-02 11:19:36.096481	345.3	5.3	-65.5	0.0
2026-01-02 11:19:38.339996	345.2	5.2	-64.8	0.0
2026-01-02 11:19:40.580517	345.2	5.0	-67.8	0.0
#Closed at: 2026-01-02 11:06:44.268380