passes_logs/2025/01/13/X_MFTI_02/X_MFTI_02__20250113_010606_FENGYUN_3D_rec.log

#Pass ID: 20250113_010606_FENGYUN 3D
#Satellite: FENGYUN 3D
#Configuration: FENGYUN 3D
#Start time: 2025-01-13 01:06:02

#Version: 1.5.20200625
#Station: X_MFTI_02
#Location: 37.5186 lon 55.9291 lat
#TLE: 1 43010U 17072A   23362.50642187  .00000183  00000+0  10870-3 0  9994
#TLE: 2 43010  98.8887 311.3857 0002475  98.0400 262.1057 14.19259665317063

#Time	Az	El	Level	Level2	SNR	BER	Gain	Gain2
2025-01-13 01:06:02.94	22.30	68.38	-69.8	-88.6	3.7	8453784	99	31402
2025-01-13 01:06:03.37	22.35	68.57	-69.8	-88.7	3.8	8460926	99	31652
2025-01-13 01:06:03.78	22.40	68.76	-69.8	-88.7	3.8	8451862	99	31756
2025-01-13 01:06:04.20	22.45	68.95	-69.9	-88.5	3.6	8447158	99	30570
2025-01-13 01:06:04.62	22.49	69.14	-69.9	-88.7	3.8	8448955	99	31336
2025-01-13 01:06:05.05	22.55	69.34	-69.8	-88.6	3.8	8445190	99	31391
2025-01-13 01:06:05.46	22.60	69.53	-69.7	-88.3	3.8	8463134	99	30737
2025-01-13 01:06:05.89	22.65	69.73	-69.8	-88.6	3.7	8449310	99	31318
2025-01-13 01:06:06.32	22.71	69.93	-68.2	-87.9	3.9	8471305	97	34510
2025-01-13 01:06:06.74	22.76	70.12	-69.8	-88.6	3.8	8460056	99	31334
2025-01-13 01:06:07.17	22.82	70.32	-68.2	-87.8	3.8	8466842	97	34067
2025-01-13 01:06:07.58	22.87	70.51	-69.7	-88.2	3.8	8456634	99	30406
2025-01-13 01:06:08.01	22.93	70.72	-69.9	-88.7	3.8	8453315	99	31391
2025-01-13 01:06:08.44	22.99	70.92	-69.8	-88.6	3.8	8457366	99	31399
2025-01-13 01:06:08.86	23.05	71.11	-69.9	-88.6	3.8	8450294	99	30893
2025-01-13 01:06:09.29	23.12	71.31	-69.8	-88.6	3.8	8465423	99	31378
2025-01-13 01:06:09.71	23.18	71.51	-69.9	-88.7	3.8	8456806	99	31357
2025-01-13 01:06:10.14	23.25	71.71	-69.9	-88.7	3.7	8462928	99	31284
2025-01-13 01:06:10.57	23.32	71.92	-69.9	-88.6	3.8	8464920	99	31025
2025-01-13 01:06:10.98	23.38	72.11	-69.9	-88.7	3.8	8458808	99	31455
2025-01-13 01:06:11.41	23.45	72.31	-69.9	-88.6	3.8	8461738	99	31252
2025-01-13 01:06:11.82	23.52	72.51	-69.9	-88.3	3.8	8455879	99	30072
2025-01-13 01:06:12.25	23.60	72.71	-69.8	-88.3	3.8	8455581	99	30262
2025-01-13 01:06:12.68	23.68	72.92	-69.8	-88.6	3.8	8460765	99	31480
2025-01-13 01:06:13.11	23.75	73.12	-69.9	-88.7	3.8	8457023	99	31458
2025-01-13 01:06:13.54	23.83	73.33	-69.9	-88.7	3.8	8449138	99	31485
2025-01-13 01:06:13.94	23.91	73.52	-69.9	-88.7	3.8	8466281	99	31468
2025-01-13 01:06:14.37	24.00	73.73	-69.8	-88.6	3.8	8457332	99	31416
2025-01-13 01:06:14.79	24.08	73.93	-69.8	-88.6	3.8	8443027	99	31319
2025-01-13 01:06:15.22	24.17	74.13	-69.8	-88.4	3.8	8461933	99	30419
2025-01-13 01:06:15.63	24.26	74.33	-69.9	-88.7	3.8	8461246	99	31430
2025-01-13 01:06:16.05	24.35	74.53	-69.9	-88.7	3.8	8467426	99	31389
2025-01-13 01:06:16.48	24.44	74.74	-69.8	-88.2	3.8	8455169	99	30124
2025-01-13 01:06:16.90	24.54	74.94	-69.8	-88.3	3.8	8477130	99	30154
2025-01-13 01:06:17.33	24.64	75.15	-69.9	-88.7	3.8	8449138	99	31374
2025-01-13 01:06:17.76	24.75	75.36	-69.8	-88.5	3.8	8443096	99	31286
2025-01-13 01:06:18.17	24.85	75.56	-69.8	-88.3	3.8	8457492	99	30422
2025-01-13 01:06:18.59	24.96	75.76	-69.8	-88.6	3.8	8453533	99	31427
2025-01-13 01:06:19.01	25.07	75.97	-69.9	-88.7	3.8	8454059	99	31394
2025-01-13 01:06:19.44	25.19	76.18	-69.9	-88.8	3.7	8459289	99	31461
2025-01-13 01:06:19.87	25.31	76.39	-68.3	-87.9	3.8	8453109	97	34717
2025-01-13 01:06:20.30	25.44	76.60	-69.8	-88.7	3.8	8458374	99	31414
2025-01-13 01:06:20.73	25.57	76.81	-69.8	-88.6	3.8	8452411	99	31361
2025-01-13 01:06:21.16	25.70	77.02	-69.8	-88.6	3.8	8461269	99	31518
2025-01-13 01:06:21.59	25.84	77.23	-69.7	-88.4	3.8	8475803	99	31019
2025-01-13 01:06:22.01	25.98	77.43	-69.8	-88.6	3.8	8458671	99	31401
2025-01-13 01:06:22.42	26.12	77.63	-69.8	-88.6	3.8	8450717	99	31272
2025-01-13 01:06:22.84	26.27	77.84	-69.7	-88.4	3.8	8475116	99	31093
2025-01-13 01:06:23.25	26.42	78.04	-69.7	-88.5	3.8	8461521	99	31266
2025-01-13 01:06:23.68	26.58	78.25	-69.7	-88.5	3.8	8448211	99	31274
2025-01-13 01:06:24.11	26.75	78.47	-69.7	-88.5	3.8	8465034	99	31288
2025-01-13 01:06:24.55	26.93	78.68	-69.7	-88.2	3.8	8471557	99	30314
2025-01-13 01:06:24.96	27.10	78.88	-69.7	-88.5	3.8	8457378	99	31407
2025-01-13 01:06:25.36	27.28	79.08	-69.7	-88.7	3.8	8461830	99	31834
2025-01-13 01:06:25.79	27.48	79.29	-69.8	-88.3	3.8	8447170	99	30352
2025-01-13 01:06:26.22	27.68	79.51	-69.8	-88.3	3.8	8456508	99	30297
2025-01-13 01:06:26.64	27.89	79.71	-69.8	-88.6	3.8	8457103	99	31436
2025-01-13 01:06:27.06	28.11	79.92	-69.7	-88.6	3.7	8455799	99	31733
2025-01-13 01:06:27.47	28.33	80.12	-69.6	-88.6	3.8	8458957	99	32208
2025-01-13 01:06:27.90	28.57	80.34	-69.8	-88.6	3.8	8464015	99	31668
2025-01-13 01:06:28.33	28.83	80.55	-68.2	-88.0	3.9	8446403	97	35269
2025-01-13 01:06:28.76	29.09	80.76	-69.7	-88.7	3.8	8459598	98	32325
2025-01-13 01:06:29.18	29.36	80.97	-70.1	-89.4	3.8	8462162	99	33156
2025-01-13 01:06:29.61	29.65	81.18	-69.7	-88.6	3.8	8452732	99	31678
2025-01-13 01:06:30.01	29.93	81.38	-69.8	-88.6	3.8	8455947	99	31602
2025-01-13 01:06:30.43	30.25	81.59	-69.7	-88.5	3.8	8453430	99	31182
2025-01-13 01:06:30.86	30.58	81.80	-69.7	-88.4	3.8	8451759	99	31096
2025-01-13 01:06:31.28	30.93	82.01	-69.7	-88.5	3.8	8471099	99	31377
2025-01-13 01:06:31.69	31.28	82.21	-69.7	-88.6	3.8	8462253	99	31699
2025-01-13 01:06:32.11	31.67	82.42	-69.8	-88.3	3.8	8460662	99	30401
2025-01-13 01:06:32.52	32.06	82.62	-69.9	-88.7	3.8	8473068	99	31404
2025-01-13 01:06:32.94	32.49	82.83	-69.8	-88.6	3.8	8471557	99	31341
2025-01-13 01:06:33.34	32.92	83.03	-69.7	-88.5	3.7	8449893	99	31365
2025-01-13 01:06:33.77	33.41	83.24	-69.8	-88.3	3.8	8463546	99	30477
2025-01-13 01:06:34.19	33.93	83.44	-69.8	-88.6	3.8	8466796	99	31317
2025-01-13 01:06:34.60	34.46	83.65	-69.8	-88.7	3.8	8457309	99	31415
2025-01-13 01:06:35.04	35.07	83.86	-69.9	-88.4	3.8	8453601	99	30354
2025-01-13 01:06:35.45	35.67	84.06	-69.4	-88.0	3.8	8457401	99	30326
2025-01-13 01:06:35.88	36.36	84.27	-69.7	-88.6	3.8	8461486	99	31420
2025-01-13 01:06:36.30	37.07	84.47	-69.8	-88.6	3.8	8456359	99	31462
2025-01-13 01:06:36.73	37.86	84.68	-69.5	-88.2	3.8	8458591	99	30925
2025-01-13 01:06:37.16	38.72	84.89	-69.7	-88.5	3.8	8464210	99	31352
2025-01-13 01:06:37.57	39.60	85.08	-70.2	-89.9	3.6	8457023	98	34912
2025-01-13 01:06:37.99	40.58	85.28	-69.7	-88.6	3.8	8466545	99	31695
2025-01-13 01:06:38.42	41.67	85.48	-69.6	-88.3	3.8	8473342	99	30810
2025-01-13 01:06:38.84	42.84	85.68	-69.7	-88.5	3.8	8455799	99	31373
2025-01-13 01:06:39.27	44.15	85.88	-69.7	-88.5	3.8	8453887	99	31388
2025-01-13 01:06:39.70	45.59	86.08	-69.7	-88.4	3.8	8460845	99	30926
2025-01-13 01:06:40.13	47.18	86.27	-69.6	-88.3	3.8	8457378	99	30957
2025-01-13 01:06:40.56	48.95	86.46	-68.0	-87.7	3.8	8474830	97	35069
2025-01-13 01:06:40.99	50.91	86.65	-69.7	-88.5	3.8	8464805	99	31406
2025-01-13 01:06:41.42	53.11	86.83	-69.8	-88.4	3.8	8460720	99	30552
2025-01-13 01:06:41.86	55.63	87.01	-68.2	-88.0	3.8	8457996	97	35124
2025-01-13 01:06:42.29	58.40	87.19	-68.2	-88.0	3.8	8455432	97	35081
2025-01-13 01:06:42.70	61.38	87.34	-69.7	-88.5	3.8	8454792	99	31359
2025-01-13 01:06:43.12	64.80	87.50	-69.8	-88.3	3.8	8460273	99	30311
2025-01-13 01:06:43.53	68.55	87.63	-69.8	-88.6	3.8	8462413	99	31352
2025-01-13 01:06:43.97	73.08	87.77	-69.8	-88.6	3.8	8461303	99	31279
2025-01-13 01:06:44.39	77.92	87.89	-69.9	-88.5	3.8	8454116	99	30743
2025-01-13 01:06:44.83	83.55	87.99	-69.8	-88.4	3.8	8462036	99	30678
2025-01-13 01:06:45.24	89.28	88.07	-69.7	-88.5	3.9	8446094	99	31284
2025-01-13 01:06:45.67	95.73	88.13	-69.7	-88.5	3.8	8446586	99	31412
2025-01-13 01:06:46.09	102.34	88.16	-69.7	-88.3	3.7	8455673	99	30765
2025-01-13 01:06:46.52	109.26	88.17	-69.8	-88.6	3.8	8464851	99	31335
2025-01-13 01:06:46.93	115.82	88.15	-69.7	-88.6	3.8	8466476	99	31399
2025-01-13 01:06:47.36	122.49	88.10	-69.7	-89.7	3.8	8464038	98	35878
2025-01-13 01:06:47.77	128.48	88.04	-69.8	-88.1	3.8	8459575	99	29772
2025-01-13 01:06:48.20	134.30	87.95	-69.7	-88.6	3.8	8466419	99	31521
2025-01-13 01:06:48.61	139.36	87.85	-69.9	-88.7	3.8	8458499	99	31328
2025-01-13 01:06:49.04	144.12	87.72	-69.9	-89.4	3.8	8462173	99	34060
2025-01-13 01:06:49.48	148.47	87.58	-69.7	-88.3	3.8	8461063	99	30644
2025-01-13 01:06:49.91	152.23	87.43	-68.0	-88.2	3.8	8463661	96	37197
2025-01-13 01:06:50.32	155.42	87.28	-69.7	-88.5	3.7	8462791	99	31668
2025-01-13 01:06:50.75	158.39	87.11	-70.0	-89.9	3.7	8447147	99	35516
2025-01-13 01:06:51.17	160.97	86.94	-69.6	-88.5	3.8	8456016	99	31542
2025-01-13 01:06:51.60	163.33	86.76	-69.7	-88.6	3.8	8471900	99	31635
2025-01-13 01:06:52.03	165.43	86.58	-69.6	-88.4	3.8	8459587	99	31603
2025-01-13 01:06:52.46	167.32	86.39	-69.7	-89.0	3.8	8452777	99	33262
2025-01-13 01:06:52.89	169.02	86.20	-69.5	-88.2	3.8	8461578	99	31013
2025-01-13 01:06:53.31	170.52	86.01	-69.5	-88.4	3.8	8461864	99	31766
2025-01-13 01:06:53.74	171.91	85.81	-69.7	-88.2	3.8	8457927	99	30544
2025-01-13 01:06:54.16	173.14	85.61	-69.7	-88.3	3.9	8456840	99	30576
2025-01-13 01:06:54.57	174.25	85.42	-69.7	-88.6	3.8	8462081	99	31664
2025-01-13 01:06:55.00	175.31	85.22	-70.2	-89.5	3.8	8466854	99	33139
2025-01-13 01:06:55.43	176.29	85.01	-69.7	-88.5	3.8	8454334	99	31200
2025-01-13 01:06:55.85	177.17	84.81	-69.7	-88.6	3.8	8460365	99	31630
2025-01-13 01:06:56.27	177.98	84.61	-69.7	-88.6	3.8	8451873	99	31652
2025-01-13 01:06:56.70	178.75	84.40	-69.6	-88.2	3.8	8444366	99	30839
2025-01-13 01:06:57.10	179.42	84.21	-68.2	-87.7	3.8	8467483	97	33974
2025-01-13 01:06:57.53	180.09	84.00	-68.8	-88.7	3.9	8445522	98	35619
2025-01-13 01:06:57.94	180.68	83.80	-69.7	-88.6	3.8	8455295	99	31670
2025-01-13 01:06:58.36	181.26	83.59	-69.8	-88.5	3.8	8452697	99	31332
2025-01-13 01:06:58.79	181.80	83.38	-69.7	-88.5	3.8	8461956	99	31304
2025-01-13 01:06:59.21	182.31	83.18	-69.8	-88.7	4.0	8471889	99	31742
2025-01-13 01:06:59.64	182.79	82.96	-69.7	-88.6	3.8	8458934	99	31686
2025-01-13 01:07:00.05	183.22	82.76	-69.4	-87.4	3.9	8460273	99	28566
2025-01-13 01:07:00.47	183.64	82.55	-69.7	-88.6	3.9	8467357	99	31686
2025-01-13 01:07:00.90	184.05	82.34	-69.8	-88.8	3.8	8460971	98	32369
2025-01-13 01:07:01.32	184.43	82.13	-69.9	-88.7	3.8	8447776	99	31580
2025-01-13 01:07:01.75	184.79	81.92	-69.7	-88.3	3.7	8462585	99	30368
2025-01-13 01:07:02.16	185.12	81.72	-69.8	-88.7	3.8	8456668	99	31616
2025-01-13 01:07:02.58	185.44	81.51	-69.7	-88.9	3.8	8457492	99	32683
2025-01-13 01:07:03.00	185.75	81.30	-69.8	-88.6	3.8	8464691	99	31470
2025-01-13 01:07:03.43	186.05	81.09	-69.6	-88.5	3.7	8466796	99	31496
2025-01-13 01:07:03.84	186.32	80.89	-69.8	-88.7	3.8	8457584	99	31574
2025-01-13 01:07:04.27	186.59	80.67	-69.7	-88.4	4.0	8450626	99	31113
2025-01-13 01:07:04.70	186.85	80.46	-69.5	-88.2	3.8	8464702	99	31012
2025-01-13 01:07:05.14	187.11	80.24	-69.9	-88.7	3.8	8453441	99	31648
2025-01-13 01:07:05.57	187.35	80.03	-69.8	-88.7	3.8	8466339	99	31461
2025-01-13 01:07:06.00	187.57	79.82	-69.8	-88.6	3.7	8452148	99	31621
2025-01-13 01:07:06.41	187.78	79.61	-69.8	-88.6	3.8	8453086	99	31282
2025-01-13 01:07:06.84	187.99	79.40	-69.8	-88.7	3.8	8455352	99	31537
2025-01-13 01:07:07.27	188.19	79.19	-69.8	-88.7	3.9	8461040	99	31722
2025-01-13 01:07:07.69	188.38	78.98	-69.7	-88.5	3.8	8456176	99	31359
2025-01-13 01:07:08.12	188.57	78.77	-69.8	-88.8	3.7	8457607	98	32314
2025-01-13 01:07:08.54	188.74	78.56	-69.9	-88.8	3.8	8460639	99	31616
2025-01-13 01:07:08.97	188.91	78.35	-69.6	-88.5	3.8	8460639	99	31616
2025-01-13 01:07:09.40	189.08	78.14	-69.7	-88.2	3.8	8465423	99	30310
2025-01-13 01:07:09.83	189.24	77.92	-69.8	-88.7	3.8	8458099	99	31681
2025-01-13 01:07:10.26	189.40	77.71	-69.6	-88.5	3.8	8456886	99	31521
2025-01-13 01:07:10.67	189.54	77.51	-69.7	-88.5	3.7	8467163	99	31471
2025-01-13 01:07:11.09	189.68	77.30	-69.7	-88.5	3.8	8462825	99	31570
2025-01-13 01:07:11.51	189.82	77.10	-69.6	-88.5	3.8	8452754	99	31563
2025-01-13 01:07:11.94	189.95	76.89	-69.6	-88.4	3.8	8455020	99	31514
2025-01-13 01:07:12.35	190.08	76.69	-69.7	-88.3	3.8	8452285	99	30684
2025-01-13 01:07:12.75	190.20	76.49	-69.7	-88.3	3.7	8454677	99	30659
2025-01-13 01:07:13.17	190.32	76.29	-69.6	-88.5	3.8	8457870	99	31693
2025-01-13 01:07:13.59	190.43	76.08	-69.6	-88.5	3.8	8451370	99	31566
2025-01-13 01:07:14.02	190.55	75.87	-69.7	-88.4	3.8	8458774	99	30834
2025-01-13 01:07:14.44	190.66	75.67	-69.8	-88.7	3.8	8454334	99	31615
2025-01-13 01:07:14.85	190.77	75.47	-69.6	-88.3	3.8	8451004	99	31265
2025-01-13 01:07:15.28	190.87	75.26	-69.8	-88.6	3.8	8461200	99	31252
2025-01-13 01:07:15.70	190.97	75.06	-69.6	-88.4	3.8	8468959	99	31028
2025-01-13 01:07:16.13	191.07	74.85	-69.6	-88.4	3.8	8465229	99	31299
2025-01-13 01:07:16.56	191.17	74.64	-69.8	-88.6	3.8	8448760	99	31250
2025-01-13 01:07:16.98	191.27	74.44	-69.7	-88.3	3.8	8455009	99	30672
2025-01-13 01:07:17.38	191.35	74.24	-69.7	-88.3	3.8	8458843	99	30749
2025-01-13 01:07:17.79	191.44	74.05	-69.7	-88.5	3.8	8465435	99	31310
2025-01-13 01:07:18.23	191.53	73.83	-69.6	-88.4	3.9	8461944	99	31302
2025-01-13 01:07:18.66	191.61	73.63	-69.7	-88.3	3.9	8480163	99	30370
2025-01-13 01:07:19.07	191.69	73.43	-69.7	-88.6	3.8	8469257	99	31722
2025-01-13 01:07:19.50	191.78	73.23	-69.6	-88.3	3.8	8457481	99	31193
2025-01-13 01:07:19.92	191.85	73.03	-69.7	-88.5	3.8	8472312	99	31323
2025-01-13 01:07:20.35	191.93	72.82	-69.6	-88.4	3.8	8464656	99	31241
2025-01-13 01:07:20.77	192.00	72.62	-69.6	-88.2	3.8	8462127	99	30640
2025-01-13 01:07:21.20	192.08	72.42	-69.8	-88.6	3.8	8463592	99	31318
2025-01-13 01:07:21.63	192.15	72.21	-69.6	-88.1	3.8	8451736	99	30416
2025-01-13 01:07:22.06	192.22	72.01	-69.8	-88.4	3.8	8455444	99	30557
2025-01-13 01:07:22.49	192.29	71.80	-69.5	-88.3	3.8	8455661	99	31370
2025-01-13 01:07:22.92	192.36	71.60	-69.8	-88.6	3.8	8466384	99	31307
2025-01-13 01:07:23.35	192.42	71.40	-69.7	-88.3	3.8	8460021	99	30370
2025-01-13 01:07:23.78	192.49	71.20	-69.7	-88.5	3.8	8464862	99	31351
2025-01-13 01:07:24.20	192.55	71.00	-69.7	-88.5	3.8	8455066	99	31320
2025-01-13 01:07:24.60	192.61	70.81	-69.6	-88.1	3.7	8443267	99	30396
2025-01-13 01:07:25.02	192.67	70.61	-69.6	-88.1	3.8	8455112	99	30402
2025-01-13 01:07:25.42	192.72	70.43	-69.7	-88.6	3.8	8458145	99	31703
2025-01-13 01:07:25.85	192.78	70.23	-69.7	-88.6	3.8	8462356	99	31692

#Closed at: 2025-01-13 01:07:26