passes_logs/2026/01/18/R2.0S_Moscow/R2.0S_Moscow__20260118_235931_SUOMI_NPP_rec.log

#Pass ID: 20260118_235931_SUOMI NPP
#Satellite: SUOMI NPP
#Configuration: NPP
#almurnet v.1.7.20251203
#Start time: 2026-01-18 23:59:32

#Version: 2.2.20231116
#Station: R2.0S_Moscow
#Location: 37.707566 lon 55.798166 lat
#TLE: 1 37849U 11061A   26017.92342359  .00000077  00000+0  57567-4 0  9990
#TLE: 2 37849  98.7814 319.9468 0002389  58.5705 301.5704 14.19525998737125

#Time	Az	El	Level	Level2	SNR	BER	BlckErr	Temp	State	Recorded	gain1	gain2
2026-01-18 23:59:32.48	15.15	2.06	-43.1	-57.8	3.8	1.49e+00	0	53	0	0	58	18753
2026-01-18 23:59:36.53	15.12	2.32	-43.1	-57.8	3.8	1.49e+00	0	53	104	0	58	18769
2026-01-18 23:59:40.57	15.10	2.58	-43.1	-57.7	3.8	1.49e+00	0	54	104	0	58	18695
2026-01-18 23:59:44.61	15.07	2.85	-43.1	-57.8	3.8	1.49e+00	0	53	104	0	58	18740
2026-01-18 23:59:48.66	15.04	3.11	-43.1	-57.8	3.8	1.49e+00	0	54	104	0	58	18773
2026-01-18 23:59:52.70	15.00	3.38	-43.1	-57.8	3.8	1.49e+00	0	54	104	0	58	18777
2026-01-18 23:59:56.74	14.97	3.65	-43.1	-57.7	3.8	1.49e+00	0	55	104	0	58	18671
2026-01-19 00:00:00.78	14.94	3.93	-43.1	-57.7	3.8	1.49e+00	0	55	104	0	58	18690
2026-01-19 00:00:04.83	14.91	4.21	-43.1	-57.8	3.8	1.49e+00	0	55	104	0	58	18752
2026-01-19 00:00:08.87	14.87	4.49	-43.1	-57.7	3.8	1.49e+00	0	55	104	0	58	18714
2026-01-19 00:00:12.91	14.83	4.77	-43.1	-57.7	3.8	1.49e+00	0	56	104	0	58	18682
2026-01-19 00:00:16.95	14.80	5.06	-43.1	-57.7	3.8	1.49e+00	0	56	104	0	58	18685
2026-01-19 00:00:20.99	14.76	5.34	-43.1	-57.7	3.8	1.49e+00	0	56	104	0	58	18563
2026-01-19 00:00:25.04	14.72	5.64	-43.1	-57.5	3.8	1.49e+00	0	56	104	0	58	18300
2026-01-19 00:00:29.08	14.68	5.93	-43.1	-57.5	3.8	1.49e+00	0	56	104	0	58	18284
2026-01-19 00:00:33.12	14.64	6.23	-43.1	-57.7	3.8	1.49e+00	0	56	104	0	58	18682
2026-01-19 00:00:37.16	14.60	6.53	-43.1	-57.3	3.8	1.49e+00	0	57	104	0	58	17777
2026-01-19 00:00:41.20	14.55	6.84	-43.0	-55.8	3.8	1.49e+00	0	57	104	0	58	15030
2026-01-19 00:00:45.24	14.51	7.15	-42.6	-51.9	5.1	7.44e-01	0	57	0	2097152	57	10125
2026-01-19 00:00:49.28	14.46	7.46	-42.1	-49.0	7.4	1.10e-01	0	57	0	9437184	56	7667
2026-01-19 00:00:53.33	14.41	7.78	-42.1	-49.3	7.1	1.65e-01	0	57	0	17825792	56	7935
2026-01-19 00:00:57.37	14.36	8.10	-42.5	-50.8	5.9	3.46e-01	0	57	0	25165824	56	9449
2026-01-19 00:01:01.41	14.31	8.43	-42.6	-50.3	6.2	1.23e+00	0	58	0	29360128	57	8439
2026-01-19 00:01:05.45	14.26	8.76	-42.3	-48.8	8.0	6.65e-02	0	58	0	36700160	56	7483
2026-01-19 00:01:09.48	14.20	9.09	-42.4	-48.8	8.0	6.12e-02	0	58	0	44040192	56	7492
2026-01-19 00:01:13.52	14.15	9.43	-42.3	-48.5	8.4	4.83e-02	0	58	0	52428800	56	7221
2026-01-19 00:01:17.55	14.09	9.77	-42.3	-48.4	8.5	4.30e-02	0	58	0	59768832	56	7164
2026-01-19 00:01:21.59	14.03	10.12	-42.3	-48.2	8.7	3.57e-02	0	58	0	67108864	56	7019
2026-01-19 00:01:25.63	13.97	10.47	-42.4	-48.2	8.9	2.65e-02	0	58	0	74448896	56	6967
2026-01-19 00:01:29.67	13.91	10.83	-42.4	-48.1	9.0	2.39e-02	0	59	0	81788928	56	6913
2026-01-19 00:01:33.71	13.84	11.19	-42.4	-48.0	9.1	2.08e-02	0	59	0	90177536	56	6869
2026-01-19 00:01:37.74	13.77	11.56	-42.4	-47.9	9.2	1.88e-02	0	59	0	97517568	56	6798
2026-01-19 00:01:41.78	13.71	11.93	-42.3	-47.7	9.5	1.35e-02	0	59	0	104857600	56	6583
2026-01-19 00:01:45.82	13.63	12.31	-42.2	-47.5	9.7	1.06e-02	0	59	0	112197632	56	6445
2026-01-19 00:01:49.86	13.56	12.70	-42.3	-47.6	9.8	8.70e-03	0	59	0	120586240	56	6508
2026-01-19 00:01:53.89	13.48	13.09	-42.3	-47.4	10.1	6.51e-03	0	59	0	127926272	56	6349
2026-01-19 00:01:57.93	13.41	13.49	-42.3	-47.3	10.2	5.51e-03	0	59	0	135266304	56	6305
2026-01-19 00:02:01.97	13.32	13.89	-42.4	-47.4	10.2	5.66e-03	0	59	0	142606336	56	6358
2026-01-19 00:02:06.01	13.24	14.30	-42.3	-47.1	10.5	3.79e-03	0	59	0	149946368	56	6196
2026-01-19 00:02:10.04	13.15	14.72	-42.3	-47.0	10.7	2.84e-03	0	59	0	158334976	56	6105
2026-01-19 00:02:14.08	13.06	15.15	-42.2	-46.6	11.1	1.69e-03	0	59	0	165675008	56	5855
2026-01-19 00:02:18.12	12.97	15.58	-42.1	-46.5	11.3	1.05e-03	0	59	0	173015040	56	5731
2026-01-19 00:02:22.16	12.87	16.02	-42.0	-46.2	11.7	6.14e-04	0	59	0	180355072	56	5557
2026-01-19 00:02:26.20	12.78	16.47	-41.9	-46.0	11.8	4.54e-04	0	59	0	188743680	55	5733
2026-01-19 00:02:30.24	12.67	16.93	-41.8	-45.7	12.1	3.13e-04	0	60	0	196083712	55	5568
2026-01-19 00:02:34.27	12.57	17.39	-41.9	-45.8	12.0	2.35e-04	0	60	0	203423744	55	5640
2026-01-19 00:02:38.31	12.46	17.87	-41.8	-45.6	12.3	1.94e-04	0	60	0	210763776	55	5501
2026-01-19 00:02:42.35	12.34	18.35	-41.8	-45.6	12.4	1.56e-04	0	60	0	218103808	55	5480
2026-01-19 00:02:46.39	12.22	18.85	-41.8	-45.5	12.5	1.16e-04	0	60	0	226492416	55	5459
2026-01-19 00:02:50.43	12.10	19.35	-41.8	-45.5	12.5	1.34e-04	0	60	0	233832448	55	5443
2026-01-19 00:02:54.46	11.97	19.86	-41.9	-45.8	12.2	2.23e-04	0	60	0	241172480	55	5641
2026-01-19 00:02:58.50	11.84	20.39	-42.0	-45.9	12.1	3.15e-04	0	60	0	248512512	55	5717
2026-01-19 00:03:02.54	11.70	20.92	-42.1	-46.2	11.9	3.87e-04	0	60	0	256901120	55	5873
2026-01-19 00:03:06.58	11.55	21.47	-42.0	-45.9	12.2	4.18e-04	0	60	0	264241152	55	5672
2026-01-19 00:03:10.61	11.41	22.03	-42.1	-46.0	12.1	2.01e-04	0	60	0	271581184	55	5757
2026-01-19 00:03:14.65	11.25	22.60	-41.8	-45.4	12.7	1.27e-04	0	60	0	278921216	55	5368
2026-01-19 00:03:18.69	11.09	23.19	-41.6	-44.9	13.2	3.20e-05	0	60	0	286261248	55	5088
2026-01-19 00:03:22.73	10.92	23.78	-41.2	-44.3	13.9	9.10e-06	0	60	0	294649856	54	4999
2026-01-19 00:03:26.76	10.74	24.39	-41.3	-44.4	13.8	3.00e-06	0	60	0	301989888	54	5083
2026-01-19 00:03:30.80	10.56	25.02	-41.5	-44.7	13.5	9.90e-06	0	60	0	309329920	54	5278
2026-01-19 00:03:34.84	10.37	25.66	-41.6	-45.0	13.3	3.20e-05	0	60	0	316669952	54	5405
2026-01-19 00:03:38.88	10.17	26.32	-41.5	-44.9	13.4	7.60e-06	0	61	0	325058560	54	5351
2026-01-19 00:03:42.91	9.96	26.99	-41.7	-45.2	13.1	2.44e-05	0	61	0	332398592	54	5540
2026-01-19 00:03:46.95	9.74	27.68	-42.2	-46.1	12.1	1.09e-04	0	61	0	339738624	55	5810
2026-01-19 00:03:50.99	9.51	28.38	-42.2	-46.1	12.1	1.82e-04	0	61	0	347078656	55	5807
2026-01-19 00:03:55.03	9.27	29.11	-42.3	-46.3	11.9	1.27e-04	0	61	0	354418688	55	5992
2026-01-19 00:03:59.07	9.01	29.85	-42.9	-47.5	10.9	1.53e-03	0	61	0	362807296	56	6450
2026-01-19 00:04:03.11	8.75	30.61	-42.9	-47.5	10.9	2.44e-03	0	61	0	370147328	56	6466
2026-01-19 00:04:07.15	8.47	31.39	-42.9	-47.4	11.0	1.55e-03	0	61	0	377487360	56	6360
2026-01-19 00:04:11.19	8.17	32.19	-43.4	-48.7	9.6	5.44e-03	0	61	0	384827392	57	7030
2026-01-19 00:04:15.23	7.86	33.02	-43.5	-48.9	9.4	1.21e-02	0	61	0	393216000	57	7189
2026-01-19 00:04:19.26	7.53	33.86	-43.8	-49.7	8.7	2.76e-02	0	61	0	400556032	58	7450
2026-01-19 00:04:23.30	7.19	34.73	-43.8	-49.8	8.6	4.00e-02	0	61	0	407896064	58	7516
2026-01-19 00:04:27.34	6.82	35.62	-43.2	-48.1	10.3	4.31e-03	0	61	0	415236096	58	6153
2026-01-19 00:04:31.38	6.43	36.53	-43.4	-48.7	9.6	9.04e-03	0	61	0	422576128	58	6592
2026-01-19 00:04:35.42	6.02	37.47	-43.1	-47.7	10.7	4.26e-03	0	61	0	430964736	58	5903
2026-01-19 00:04:39.46	5.59	38.44	-42.9	-47.1	11.4	8.34e-04	0	61	0	438304768	57	5825
2026-01-19 00:04:43.49	5.12	39.43	-43.5	-48.8	9.6	1.46e-02	0	61	0	445644800	57	7071
2026-01-19 00:04:47.53	4.63	40.45	-43.5	-48.7	9.9	1.31e-02	0	61	0	452984832	58	6597
2026-01-19 00:04:51.57	4.10	41.50	-43.2	-47.9	10.5	4.28e-03	0	61	0	461373440	58	6052
2026-01-19 00:04:55.61	3.53	42.57	-43.5	-48.7	9.9	9.05e-03	0	61	0	468713472	58	6593
2026-01-19 00:04:59.65	2.93	43.67	-43.9	-49.8	8.6	2.90e-02	0	61	0	476053504	58	7502
2026-01-19 00:05:03.69	2.28	44.81	-43.8	-49.5	8.9	3.51e-02	0	61	0	483393536	58	7259
2026-01-19 00:05:07.73	1.57	45.97	-42.8	-46.9	11.6	1.06e-03	0	61	0	490733568	57	5678
2026-01-19 00:05:11.76	0.82	47.15	-43.4	-48.5	9.9	1.24e-02	0	61	0	499122176	57	6838
2026-01-19 00:05:15.80	0.00	48.37	-43.0	-47.3	11.1	1.19e-03	0	61	0	506462208	57	5989
2026-01-19 00:05:19.84	359.11	49.61	-42.5	-46.3	12.3	1.44e-04	0	61	0	513802240	56	5616
2026-01-19 00:05:23.88	358.15	50.89	-42.6	-46.5	12.0	1.93e-04	0	61	0	521142272	56	5769
2026-01-19 00:05:27.92	357.10	52.18	-42.5	-46.4	12.2	3.31e-04	0	61	0	529530880	56	5660
2026-01-19 00:05:31.96	355.95	53.51	-42.6	-46.4	12.2	3.32e-04	0	61	0	536870912	56	5708
2026-01-19 00:05:35.99	354.69	54.85	-43.0	-47.5	11.1	9.06e-04	0	61	0	544210944	56	6432
2026-01-19 00:05:40.03	353.30	56.21	-41.5	-44.5	14.0	1.44e-05	0	61	0	551550976	54	5116
2026-01-19 00:05:44.06	351.76	57.59	-42.0	-45.4	13.1	2.82e-05	0	61	0	558891008	54	5697
2026-01-19 00:05:48.10	350.06	58.98	-43.1	-47.6	10.9	1.06e-03	0	61	0	567279616	56	6522
2026-01-19 00:05:52.14	348.17	60.38	-43.4	-48.5	10.0	9.04e-03	0	61	0	574619648	57	6828
2026-01-19 00:05:56.18	346.05	61.78	-42.7	-46.7	11.9	5.16e-04	0	61	0	581959680	56	5886
2026-01-19 00:06:00.22	343.68	63.16	-42.2	-45.8	12.6	4.57e-05	0	61	0	589299712	54	5974
2026-01-19 00:06:04.25	341.02	64.53	-41.5	-44.6	13.7	3.00e-06	0	61	0	597688320	54	5190
2026-01-19 00:06:08.29	338.01	65.87	-42.1	-45.7	12.6	1.65e-04	0	61	0	605028352	55	5537
2026-01-19 00:06:12.33	334.62	67.16	-42.6	-46.7	11.6	3.07e-04	0	62	0	612368384	55	6233
2026-01-19 00:06:16.36	330.80	68.38	-43.8	-49.7	8.5	3.10e-02	0	61	0	619708416	58	7426
2026-01-19 00:06:20.40	326.49	69.53	-44.4	-51.9	6.5	1.32e-01	0	61	0	627048448	59	8990
2026-01-19 00:06:24.44	321.66	70.56	-42.8	-46.9	11.4	1.37e-03	0	61	0	635437056	57	5673
2026-01-19 00:06:28.48	316.28	71.46	-43.2	-47.9	10.3	2.46e-03	0	61	0	642777088	57	6405
2026-01-19 00:06:32.51	310.39	72.19	-42.5	-46.3	12.0	3.12e-04	0	61	0	650117120	56	5634
2026-01-19 00:06:36.55	304.03	72.73	-43.4	-48.6	9.6	1.67e-02	0	61	0	657457152	57	6923
2026-01-19 00:06:40.59	297.31	73.06	-43.7	-49.4	8.9	1.02e-02	0	62	0	665845760	58	7167
2026-01-19 00:06:44.63	290.42	73.16	-43.8	-49.7	8.3	2.97e-02	0	61	0	673185792	59	6985
2026-01-19 00:06:48.66	283.55	73.02	-42.5	-46.4	11.9	6.32e-04	0	62	0	680525824	57	5385
2026-01-19 00:06:52.70	276.88	72.66	-42.0	-45.5	12.8	2.44e-05	0	61	0	687865856	55	5430
2026-01-19 00:06:56.74	270.57	72.09	-42.6	-46.6	11.8	1.21e-03	0	62	0	695205888	56	5799
2026-01-19 00:07:00.78	264.74	71.33	-43.6	-48.9	9.3	1.52e-02	0	62	0	703594496	57	7194
2026-01-19 00:07:04.81	259.45	70.41	-44.2	-51.1	7.1	1.45e-01	0	62	0	710934528	59	8211
2026-01-19 00:07:08.85	254.69	69.36	-43.8	-49.7	8.5	1.89e-02	0	61	0	718274560	59	6980
2026-01-19 00:07:12.89	250.45	68.20	-43.3	-48.1	10.1	1.49e-02	0	62	0	725614592	58	6168
2026-01-19 00:07:16.93	246.69	66.96	-43.2	-47.9	10.4	3.14e-03	0	62	0	732954624	57	6407
2026-01-19 00:07:20.97	243.36	65.66	-42.3	-46.0	12.3	3.08e-04	0	62	0	741343232	56	5440
2026-01-19 00:07:25.01	240.40	64.31	-41.2	-44.1	14.2	7.00e-07	0	62	0	748683264	54	4900
2026-01-19 00:07:29.04	237.79	62.94	-41.0	-43.7	14.5	7.00e-07	0	62	0	756023296	53	4970
2026-01-19 00:07:33.08	235.45	61.55	-42.1	-45.8	12.4	2.97e-05	0	62	0	763363328	54	5972
2026-01-19 00:07:37.12	233.37	60.15	-42.6	-46.6	11.7	2.92e-03	0	62	0	771751936	57	5497
2026-01-19 00:07:41.16	231.50	58.74	-42.8	-46.9	11.7	9.51e-04	0	62	0	779091968	57	5717
2026-01-19 00:07:45.20	229.82	57.35	-42.7	-46.8	11.7	4.24e-04	0	62	0	786432000	56	5945
2026-01-19 00:07:49.24	228.31	55.97	-41.1	-43.9	14.4	3.80e-06	0	62	0	793772032	54	4791
2026-01-19 00:07:53.28	226.94	54.60	-41.8	-45.1	13.3	8.30e-06	0	62	0	801112064	54	5490
2026-01-19 00:07:57.32	225.69	53.26	-43.0	-47.5	10.9	1.68e-03	0	62	0	809500672	56	6489
2026-01-19 00:08:01.36	224.55	51.93	-42.9	-47.1	11.3	1.98e-03	0	62	0	816840704	57	5821
2026-01-19 00:08:05.40	223.51	50.63	-42.9	-47.2	11.2	7.30e-04	0	62	0	824180736	57	5889
2026-01-19 00:08:09.44	222.56	49.36	-41.7	-44.9	13.4	2.67e-05	0	62	0	831520768	55	5085
2026-01-19 00:08:13.47	221.68	48.12	-41.5	-44.6	13.7	3.00e-06	0	62	0	839909376	54	5213
2026-01-19 00:08:17.51	220.87	46.90	-42.7	-46.8	11.6	7.07e-04	0	62	0	847249408	56	5981
2026-01-19 00:08:21.55	220.13	45.72	-43.0	-47.5	10.9	1.92e-02	0	62	0	854589440	58	5748
2026-01-19 00:08:25.59	219.43	44.56	-43.3	-48.1	10.2	6.30e-03	0	62	0	861929472	57	6557
2026-01-19 00:08:29.62	218.79	43.43	-44.0	-50.2	8.1	6.96e-02	0	62	0	869269504	58	7825
2026-01-19 00:08:33.66	218.19	42.33	-44.0	-50.5	7.8	7.90e-02	0	62	0	877658112	59	7677
2026-01-19 00:08:37.70	217.62	41.25	-43.2	-47.8	10.6	6.87e-03	0	62	0	884998144	58	5970
2026-01-19 00:08:41.74	217.10	40.21	-43.5	-48.7	9.7	5.97e-03	0	62	0	892338176	57	6961
2026-01-19 00:08:45.78	216.61	39.19	-43.8	-49.6	8.6	2.90e-02	0	62	0	899678208	58	7357
2026-01-19 00:08:49.82	216.14	38.20	-44.3	-51.5	6.8	1.97e-01	0	62	0	908066816	59	8625
2026-01-19 00:08:53.86	215.71	37.23	-42.8	-46.9	11.4	4.94e-04	0	62	0	915406848	57	5714
2026-01-19 00:08:57.89	215.30	36.30	-42.5	-46.3	12.1	1.91e-04	0	62	0	922746880	56	5613
2026-01-19 00:09:01.93	214.92	35.38	-42.9	-47.4	11.1	1.10e-03	0	62	0	930086912	56	6357
2026-01-19 00:09:05.97	214.55	34.49	-44.2	-51.2	7.2	1.73e-01	0	62	0	937426944	59	8290
2026-01-19 00:09:10.01	214.21	33.62	-43.8	-49.6	8.7	4.22e-02	0	62	0	945815552	59	6895
2026-01-19 00:09:14.04	213.88	32.78	-43.2	-48.1	10.3	9.04e-03	0	62	0	953155584	58	6163
2026-01-19 00:09:18.08	213.57	31.96	-43.1	-47.6	10.8	3.98e-03	0	62	0	960495616	58	5844
2026-01-19 00:09:22.12	213.28	31.16	-43.6	-49.2	9.1	2.03e-02	0	62	0	967835648	58	7031
2026-01-19 00:09:26.15	213.00	30.38	-43.7	-50.6	7.5	1.15e-01	0	62	0	976224256	58	8267
2026-01-19 00:09:30.19	212.73	29.62	-43.6	-50.6	7.4	1.72e-01	0	62	0	983564288	58	8198
2026-01-19 00:09:34.23	212.48	28.88	-44.0	-54.4	4.7	1.14e+00	0	62	0	987758592	60	11323
2026-01-19 00:09:38.27	212.23	28.15	-43.6	-49.8	8.1	8.45e-02	0	62	0	993001472	59	7106
2026-01-19 00:09:42.31	212.00	27.45	-43.0	-48.1	9.9	2.25e-02	0	62	0	1000341504	58	6196
2026-01-19 00:09:46.34	211.78	26.76	-41.3	-46.0	11.7	2.24e-02	0	62	0	1007681536	54	6077
2026-01-19 00:09:50.38	211.57	26.09	-42.0	-45.8	12.3	1.79e-04	0	62	0	1015021568	54	5979
2026-01-19 00:09:54.42	211.37	25.43	-42.4	-46.8	11.0	1.41e-02	0	62	0	1023410176	55	6292
2026-01-19 00:09:58.46	211.18	24.79	-43.4	-49.2	8.8	4.52e-02	0	62	0	1030750208	57	7394
2026-01-19 00:10:02.49	210.99	24.17	-43.7	-49.8	8.3	6.62e-02	0	62	0	1038090240	58	7529
2026-01-19 00:10:06.53	210.82	23.56	-43.4	-48.7	9.5	1.51e-02	0	62	0	1045430272	58	6620
2026-01-19 00:10:10.57	210.64	22.96	-42.9	-47.7	10.5	3.48e-03	0	62	0	1053818880	57	6220
2026-01-19 00:10:14.61	210.48	22.38	-42.8	-47.4	10.7	3.01e-03	0	62	0	1061158912	57	6061
2026-01-19 00:10:18.65	210.32	21.80	-42.7	-47.0	11.2	1.24e-03	0	62	0	1068498944	57	5781
2026-01-19 00:10:22.68	210.17	21.25	-42.5	-46.7	11.5	8.70e-04	0	62	0	1075838976	56	5898
2026-01-19 00:10:26.72	210.03	20.70	-42.4	-46.5	11.7	7.24e-04	0	62	0	1083179008	56	5724
2026-01-19 00:10:30.76	209.89	20.16	-42.5	-46.8	11.3	1.24e-03	0	62	0	1091567616	56	5987
2026-01-19 00:10:34.80	209.75	19.64	-42.5	-46.7	11.5	1.18e-03	0	62	0	1098907648	56	5871
2026-01-19 00:10:38.84	209.62	19.13	-42.6	-46.9	11.2	1.12e-03	0	62	0	1106247680	56	6050
2026-01-19 00:10:42.87	209.50	18.62	-42.5	-46.9	11.2	1.64e-03	0	62	0	1113587712	56	5994
2026-01-19 00:10:46.91	209.37	18.13	-42.9	-47.9	10.1	7.41e-03	0	62	0	1121976320	56	6787
2026-01-19 00:10:50.95	209.26	17.65	-43.2	-48.7	9.3	1.79e-02	0	62	0	1129316352	57	7023
2026-01-19 00:10:54.98	209.14	17.17	-43.3	-48.9	9.2	2.46e-02	0	62	0	1136656384	57	7125
2026-01-19 00:10:59.01	209.04	16.71	-43.1	-48.3	9.6	1.27e-02	0	62	0	1143996416	57	6701
2026-01-19 00:11:03.05	208.93	16.25	-42.7	-47.3	10.6	3.21e-03	0	62	0	1151336448	57	5970
2026-01-19 00:11:07.09	208.83	15.80	-42.7	-47.4	10.6	2.67e-03	0	62	0	1159725056	57	6012
2026-01-19 00:11:11.12	208.73	15.36	-42.9	-47.8	10.2	6.05e-03	0	62	0	1167065088	57	6300
2026-01-19 00:11:15.16	208.63	14.93	-43.1	-48.5	9.3	1.68e-02	0	62	0	1174405120	57	6868
2026-01-19 00:11:19.20	208.54	14.50	-43.4	-49.4	8.4	3.92e-02	0	62	0	1181745152	57	7610
2026-01-19 00:11:23.24	208.45	14.08	-43.3	-49.4	8.4	4.76e-02	0	62	0	1190133760	57	7580
2026-01-19 00:11:27.27	208.36	13.67	-43.2	-48.8	8.9	3.20e-02	0	62	0	1197473792	57	7065
2026-01-19 00:11:31.31	208.28	13.27	-42.8	-47.9	9.8	1.18e-02	0	62	0	1204813824	57	6400
2026-01-19 00:11:35.35	208.20	12.87	-42.6	-47.2	10.6	3.67e-03	0	62	0	1212153856	57	5914
2026-01-19 00:11:39.39	208.12	12.48	-42.3	-46.6	11.2	1.89e-03	0	62	0	1219493888	56	5850
2026-01-19 00:11:43.42	208.04	12.09	-42.2	-46.5	11.2	1.68e-03	0	62	0	1227882496	56	5781
2026-01-19 00:11:47.46	207.97	11.71	-42.2	-46.5	11.3	1.38e-03	0	62	0	1235222528	56	5723
2026-01-19 00:11:51.50	207.89	11.34	-42.3	-46.9	10.9	1.80e-03	0	62	0	1242562560	56	5994
2026-01-19 00:11:55.54	207.82	10.97	-42.4	-47.1	10.5	4.37e-03	0	62	0	1249902592	56	6155
2026-01-19 00:11:59.58	207.75	10.61	-42.4	-47.3	10.3	4.68e-03	0	62	0	1257242624	56	6275
2026-01-19 00:12:03.61	207.69	10.25	-42.5	-47.5	10.0	7.50e-03	0	62	0	1265631232	56	6444
2026-01-19 00:12:07.65	207.62	9.90	-42.5	-47.7	9.8	1.01e-02	0	62	0	1272971264	56	6587
2026-01-19 00:12:11.69	207.56	9.55	-42.8	-48.6	8.8	1.88e-02	0	62	0	1280311296	56	7314
2026-01-19 00:12:15.73	207.50	9.21	-42.7	-48.3	9.0	3.38e-02	0	62	0	1287651328	56	7077
2026-01-19 00:12:19.76	207.44	8.87	-42.9	-48.9	8.4	3.72e-02	0	62	0	1296039936	56	7602
2026-01-19 00:12:23.80	207.38	8.54	-42.8	-48.8	8.4	4.99e-02	0	62	0	1303379968	56	7521
2026-01-19 00:12:27.84	207.32	8.21	-42.9	-49.3	7.9	6.10e-02	0	62	0	1310720000	56	7933
2026-01-19 00:12:31.88	207.27	7.88	-44.8	-59.4	3.8	1.49e+00	0	62	104	1315962880	60	20147
2026-01-19 00:12:35.92	207.21	7.56	-45.3	-59.9	3.8	1.49e+00	0	62	104	1315962880	61	20144
2026-01-19 00:12:39.97	207.16	7.24	-45.4	-59.9	3.8	1.49e+00	0	62	104	1315962880	61	20217
2026-01-19 00:12:44.01	207.11	6.93	-45.3	-59.8	3.8	1.49e+00	0	62	104	1315962880	61	20013
2026-01-19 00:12:48.05	207.06	6.62	-45.3	-59.8	3.8	1.49e+00	0	62	104	1315962880	61	19875
2026-01-19 00:12:52.09	207.01	6.32	-45.2	-59.8	3.8	1.49e+00	0	62	104	1315962880	61	19854
2026-01-19 00:12:56.14	206.97	6.01	-45.2	-59.8	3.8	1.49e+00	0	62	104	1315962880	61	19851
2026-01-19 00:13:00.18	206.92	5.71	-45.2	-59.7	3.8	1.49e+00	0	62	104	1315962880	61	19768
2026-01-19 00:13:04.22	206.87	5.42	-45.2	-59.7	3.8	1.49e+00	0	62	104	1315962880	61	19796
2026-01-19 00:13:08.26	206.83	5.13	-45.2	-59.7	3.8	1.49e+00	0	62	104	1315962880	61	19752
2026-01-19 00:13:12.31	206.79	4.84	-45.2	-59.7	3.8	1.49e+00	0	62	104	1315962880	61	19814
2026-01-19 00:13:16.35	206.75	4.55	-45.2	-59.7	3.8	1.49e+00	0	62	104	1315962880	61	19798
2026-01-19 00:13:20.39	206.71	4.27	-44.9	-59.5	3.9	1.50e+00	0	62	104	1315962880	61	19209
2026-01-19 00:13:24.43	206.67	3.99	-44.9	-59.4	3.9	1.49e+00	0	62	104	1315962880	61	19055
2026-01-19 00:13:28.47	206.63	3.71	-45.1	-59.7	3.8	1.49e+00	0	62	104	1315962880	61	19672
2026-01-19 00:13:32.52	206.59	3.44	-45.1	-59.7	3.8	1.49e+00	0	62	104	1315962880	61	19802
2026-01-19 00:13:36.56	206.55	3.16	-45.0	-59.5	3.8	1.49e+00	0	62	104	1315962880	61	19342
2026-01-19 00:13:40.60	206.52	2.89	-45.2	-59.7	3.8	1.49e+00	0	62	104	1315962880	61	19694
2026-01-19 00:13:44.64	206.48	2.63	-45.2	-59.7	3.8	1.49e+00	0	62	104	1315962880	61	19721
2026-01-19 00:13:48.69	206.45	2.36	-45.2	-59.7	3.8	1.49e+00	0	62	104	1315962880	61	19708
2026-01-19 00:13:52.73	206.41	2.10	-44.9	-59.5	3.8	1.49e+00	0	62	104	1315962880	61	19217

#Closed at: 2026-01-19 00:13:56
#Recorded file [1315 MB]: D:/lorett/data/31039_260119_025932.dat