passes_logs/2026/01/18/R2.0S_Moscow/R2.0S_Moscow__20260118_093915_NOAA_21_JPSS-2_rec.log

#Pass ID: 20260118_093915_NOAA 21 (JPSS-2)
#Satellite: NOAA 21 (JPSS-2)
#Configuration: NOAA-21
#almurnet v.1.7.20251203
#Start time: 2026-01-18 09:39:15

#Version: 2.2.20231116
#Station: R2.0S_Moscow
#Location: 37.707566 lon 55.798166 lat
#TLE: 1 54234U 22150A   26017.26823908  .00000042  00000+0  40962-4 0  9992
#TLE: 2 54234  98.7501 318.1405 0000613 274.2947  85.8159 14.19535194165131

#Time	Az	El	Level	Level2	SNR	BER	BlckErr	Temp	State	Recorded	gain1	gain2
2026-01-18 09:39:15.74	152.87	2.03	-43.7	-56.2	3.8	1.49e+00	0	51	0	0	59	14759
2026-01-18 09:39:19.78	152.83	2.29	-43.9	-56.2	3.8	1.49e+00	0	52	104	0	59	14868
2026-01-18 09:39:23.82	152.80	2.56	-43.9	-56.2	3.8	1.49e+00	0	52	104	0	59	14859
2026-01-18 09:39:27.86	152.76	2.82	-43.9	-56.2	3.8	1.49e+00	0	52	104	0	59	14816
2026-01-18 09:39:31.91	152.71	3.09	-43.9	-56.3	3.8	1.49e+00	0	53	104	0	59	14926
2026-01-18 09:39:35.95	152.67	3.36	-43.9	-56.2	3.8	1.49e+00	0	53	104	0	59	14837
2026-01-18 09:39:40.00	152.63	3.64	-43.9	-56.2	3.8	1.49e+00	0	53	104	0	59	14854
2026-01-18 09:39:44.04	152.59	3.91	-43.9	-56.2	3.8	1.49e+00	0	53	104	0	59	14823
2026-01-18 09:39:48.08	152.54	4.19	-43.9	-56.2	3.8	1.49e+00	0	53	104	0	59	14788
2026-01-18 09:39:52.13	152.49	4.48	-43.9	-56.2	3.8	1.49e+00	0	54	104	0	59	14836
2026-01-18 09:39:56.17	152.45	4.76	-43.9	-56.2	3.8	1.49e+00	0	54	104	0	59	14817
2026-01-18 09:40:00.21	152.40	5.05	-43.9	-56.2	3.8	1.49e+00	0	54	104	0	59	14848
2026-01-18 09:40:04.26	152.35	5.34	-43.9	-56.1	3.8	1.49e+00	0	54	104	0	59	14552
2026-01-18 09:40:08.30	152.30	5.63	-43.8	-55.5	3.8	1.49e+00	0	55	104	0	59	13600
2026-01-18 09:40:12.35	152.25	5.93	-43.7	-54.3	3.8	1.49e+00	0	55	104	0	59	11902
2026-01-18 09:40:16.39	152.19	6.23	-43.6	-53.5	3.9	1.48e+00	0	55	104	0	59	10782
2026-01-18 09:40:20.43	152.14	6.54	-43.6	-53.5	3.9	1.47e+00	0	55	104	0	58	11448
2026-01-18 09:40:24.48	152.08	6.85	-43.8	-55.3	3.8	1.49e+00	0	55	104	0	58	14194
2026-01-18 09:40:28.52	152.03	7.16	-43.8	-55.6	3.8	1.49e+00	0	56	104	0	58	14682
2026-01-18 09:40:32.57	151.97	7.48	-43.2	-50.5	5.1	7.23e-01	0	56	0	1048576	58	8151
2026-01-18 09:40:36.61	151.91	7.80	-42.1	-46.9	8.0	7.58e-02	0	56	0	13631488	56	6013
2026-01-18 09:40:40.65	151.84	8.12	-41.1	-44.9	9.9	1.01e-02	0	56	0	26214400	54	5361
2026-01-18 09:40:44.69	151.78	8.45	-41.0	-44.7	10.1	4.16e-01	0	56	0	30408704	54	5246
2026-01-18 09:40:48.73	151.72	8.78	-40.6	-44.0	11.0	2.23e-03	0	56	0	42991616	53	5111
2026-01-18 09:40:52.77	151.65	9.12	-40.6	-43.9	11.1	1.65e-03	0	56	0	55574528	53	5079
2026-01-18 09:40:56.81	151.58	9.46	-40.6	-43.7	11.3	1.21e-03	0	57	0	68157440	53	4973
2026-01-18 09:41:00.85	151.51	9.81	-40.6	-43.7	11.4	8.64e-04	0	57	0	80740352	53	4974
2026-01-18 09:41:04.89	151.44	10.16	-40.6	-43.7	11.5	7.91e-04	0	57	0	93323264	53	4944
2026-01-18 09:41:08.93	151.36	10.51	-40.5	-43.6	11.7	6.70e-04	0	57	0	105906176	53	4871
2026-01-18 09:41:12.97	151.29	10.87	-40.5	-43.5	11.9	4.53e-04	0	57	0	118489088	52	5113
2026-01-18 09:41:17.02	151.21	11.24	-40.5	-43.5	11.9	4.40e-04	0	57	0	131072000	52	5132
2026-01-18 09:41:21.06	151.13	11.61	-40.4	-43.2	12.2	2.27e-04	0	57	0	144703488	52	4963
2026-01-18 09:41:25.10	151.04	11.99	-40.3	-43.1	12.4	1.76e-04	0	57	0	157286400	52	4907
2026-01-18 09:41:29.15	150.96	12.38	-40.3	-43.1	12.4	1.89e-04	0	57	0	169869312	52	4899
2026-01-18 09:41:33.19	150.87	12.77	-40.3	-43.0	12.5	1.18e-04	0	58	0	182452224	52	4867
2026-01-18 09:41:37.23	150.78	13.16	-40.2	-42.9	12.7	8.54e-05	0	58	0	195035136	52	4763
2026-01-18 09:41:41.28	150.68	13.56	-40.1	-42.7	12.9	5.72e-05	0	58	0	207618048	52	4701
2026-01-18 09:41:45.32	150.58	13.97	-40.2	-42.8	12.9	4.50e-05	0	58	0	220200960	52	4733
2026-01-18 09:41:49.36	150.48	14.39	-40.2	-42.8	13.0	2.74e-05	0	58	0	232783872	52	4721
2026-01-18 09:41:53.41	150.38	14.81	-40.2	-42.7	13.1	3.58e-05	0	58	0	245366784	52	4700
2026-01-18 09:41:57.45	150.27	15.24	-40.1	-42.7	13.1	3.12e-05	0	58	0	257949696	52	4659
2026-01-18 09:42:01.49	150.16	15.68	-40.2	-42.7	13.1	2.82e-05	0	58	0	270532608	52	4681
2026-01-18 09:42:05.54	150.05	16.13	-40.2	-42.7	13.1	3.81e-05	0	58	0	283115520	52	4696
2026-01-18 09:42:09.58	149.93	16.58	-40.2	-42.8	13.1	3.28e-05	0	58	0	295698432	52	4722
2026-01-18 09:42:13.63	149.81	17.05	-40.3	-42.8	13.1	3.81e-05	0	58	0	308281344	52	4755
2026-01-18 09:42:17.67	149.69	17.52	-40.4	-42.9	13.0	3.73e-05	0	58	0	320864256	52	4797
2026-01-18 09:42:21.71	149.56	18.00	-40.4	-42.9	13.0	2.13e-05	0	59	0	333447168	52	4793
2026-01-18 09:42:25.75	149.42	18.49	-40.4	-42.9	13.0	3.50e-05	0	59	0	346030080	52	4803
2026-01-18 09:42:29.79	149.28	18.99	-40.3	-42.8	13.2	2.21e-05	0	58	0	358612992	52	4745
2026-01-18 09:42:33.84	149.14	19.50	-40.2	-42.7	13.3	1.37e-05	0	59	0	372244480	52	4661
2026-01-18 09:42:37.88	148.99	20.02	-40.0	-42.4	13.6	1.22e-05	0	59	0	383778816	52	4511
2026-01-18 09:42:41.92	148.83	20.55	-40.0	-42.3	13.8	5.30e-06	0	59	0	397410304	51	4751
2026-01-18 09:42:45.96	148.67	21.10	-39.7	-41.9	14.2	1.50e-06	0	59	0	409993216	51	4522
2026-01-18 09:42:50.00	148.51	21.65	-39.6	-41.7	14.4	1.50e-06	0	59	0	422576128	51	4440
2026-01-18 09:42:54.04	148.33	22.22	-39.5	-41.6	14.6	7.00e-07	0	59	0	435159040	50	4607
2026-01-18 09:42:58.09	148.15	22.80	-39.5	-41.5	14.7	7.00e-07	0	59	0	447741952	50	4575
2026-01-18 09:43:02.13	147.96	23.39	-39.2	-41.2	15.0	0.00e+00	0	59	0	460324864	50	4412
2026-01-18 09:43:06.17	147.77	23.99	-39.3	-41.3	14.9	0.00e+00	0	59	0	472907776	50	4478
2026-01-18 09:43:10.21	147.56	24.61	-39.3	-41.3	15.0	0.00e+00	0	59	0	485490688	50	4454
2026-01-18 09:43:14.25	147.35	25.25	-39.5	-41.5	14.7	0.00e+00	0	59	0	498073600	50	4580
2026-01-18 09:43:18.30	147.13	25.90	-39.8	-42.0	14.3	1.50e-06	0	59	0	510656512	50	4816
2026-01-18 09:43:22.34	146.90	26.56	-39.9	-42.1	14.1	0.00e+00	0	59	0	523239424	50	4916
2026-01-18 09:43:26.38	146.66	27.24	-40.0	-42.3	14.0	5.30e-06	0	59	0	535822336	50	5002
2026-01-18 09:43:30.42	146.40	27.94	-40.3	-42.7	13.6	8.30e-06	0	59	0	548405248	51	4949
2026-01-18 09:43:34.47	146.14	28.66	-40.5	-43.0	13.3	1.22e-05	0	59	0	560988160	51	5116
2026-01-18 09:43:38.51	145.86	29.39	-40.4	-42.9	13.4	9.10e-06	0	60	0	573571072	51	5050
2026-01-18 09:43:42.55	145.57	30.14	-40.2	-42.5	13.9	4.50e-06	0	59	0	586153984	51	4835
2026-01-18 09:43:46.59	145.26	30.91	-40.3	-42.6	13.8	3.00e-06	0	59	0	598736896	51	4910
2026-01-18 09:43:50.63	144.94	31.70	-40.3	-42.7	13.7	6.80e-06	0	59	0	611319808	51	4927
2026-01-18 09:43:54.68	144.60	32.51	-40.5	-43.0	13.3	1.52e-05	0	59	0	623902720	51	5141
2026-01-18 09:43:58.72	144.24	33.34	-40.7	-43.2	13.2	2.82e-05	0	59	0	636485632	51	5239
2026-01-18 09:44:02.76	143.87	34.20	-40.7	-43.2	13.0	3.35e-05	0	60	0	649068544	52	4956
2026-01-18 09:44:06.80	143.47	35.08	-40.9	-43.5	12.7	8.31e-05	0	60	0	662700032	52	5147
2026-01-18 09:44:10.84	143.05	35.98	-41.4	-44.4	11.8	4.48e-04	0	59	0	675282944	53	5392
2026-01-18 09:44:14.88	142.60	36.90	-41.6	-44.7	11.5	7.28e-04	0	60	0	687865856	53	5573
2026-01-18 09:44:18.93	142.13	37.85	-41.7	-44.8	11.4	8.54e-04	0	60	0	700448768	54	5320
2026-01-18 09:44:22.97	141.63	38.82	-41.5	-44.5	11.7	6.17e-04	0	60	0	713031680	54	5143
2026-01-18 09:44:27.01	141.10	39.82	-41.7	-44.8	11.4	9.04e-04	0	60	0	725614592	54	5331
2026-01-18 09:44:31.06	140.53	40.85	-41.6	-44.7	11.6	7.78e-04	0	60	0	738197504	54	5232
2026-01-18 09:44:35.10	139.92	41.90	-41.4	-44.3	12.0	3.23e-04	0	60	0	750780416	54	5030
2026-01-18 09:44:39.14	139.27	42.98	-41.4	-44.2	12.1	2.67e-04	0	60	0	763363328	54	4943
2026-01-18 09:44:43.19	138.58	44.09	-42.0	-45.3	10.9	1.61e-03	0	60	0	775946240	54	5602
2026-01-18 09:44:47.23	137.83	45.22	-42.1	-45.5	10.8	2.75e-03	0	60	0	788529152	54	5732
2026-01-18 09:44:51.27	137.03	46.38	-41.7	-44.7	11.5	9.37e-04	0	60	0	801112064	54	5275
2026-01-18 09:44:55.32	136.16	47.57	-41.7	-44.7	11.6	7.39e-04	0	60	0	813694976	54	5275
2026-01-18 09:44:59.36	135.22	48.78	-41.6	-44.6	11.7	6.48e-04	0	60	0	826277888	54	5196
2026-01-18 09:45:03.40	134.21	50.02	-41.6	-44.5	11.7	5.71e-04	0	60	0	838860800	54	5158
2026-01-18 09:45:07.45	133.10	51.28	-41.2	-43.9	12.4	1.56e-04	0	60	0	851443712	54	4800
2026-01-18 09:45:11.49	131.90	52.56	-40.9	-43.5	12.8	1.03e-04	0	60	0	864026624	53	4865
2026-01-18 09:45:15.53	130.59	53.86	-40.7	-43.2	13.1	2.89e-05	0	60	0	876609536	53	4675
2026-01-18 09:45:19.57	129.15	55.18	-40.9	-43.4	12.8	8.08e-05	0	60	0	889192448	53	4810
2026-01-18 09:45:23.61	127.57	56.51	-40.6	-43.1	13.2	2.44e-05	0	60	0	901775360	52	4919
2026-01-18 09:45:27.64	125.83	57.85	-40.5	-42.9	13.4	9.10e-06	0	60	0	914358272	52	4786
2026-01-18 09:45:31.68	123.91	59.19	-40.5	-42.9	13.4	2.44e-05	0	60	0	927989760	52	4791
2026-01-18 09:45:35.72	121.78	60.53	-40.1	-42.3	14.0	2.20e-06	0	60	0	939524096	52	4484
2026-01-18 09:45:39.76	119.41	61.85	-39.6	-41.7	14.7	0.00e+00	0	60	0	953155584	51	4401
2026-01-18 09:45:43.81	116.76	63.16	-39.1	-40.9	15.5	0.00e+00	0	60	0	965738496	50	4259
2026-01-18 09:45:47.85	113.82	64.43	-39.5	-41.5	14.9	0.00e+00	0	60	0	978321408	50	4562
2026-01-18 09:45:51.89	110.54	65.66	-39.5	-41.5	14.9	0.00e+00	0	60	0	990904320	50	4548
2026-01-18 09:45:55.93	106.88	66.82	-39.3	-41.2	15.1	0.00e+00	0	60	0	1003487232	50	4427
2026-01-18 09:45:59.97	102.81	67.90	-39.4	-41.3	15.1	0.00e+00	0	60	0	1016070144	50	4492
2026-01-18 09:46:04.01	98.30	68.87	-39.1	-41.0	15.4	0.00e+00	0	60	0	1028653056	50	4320
2026-01-18 09:46:08.05	93.35	69.73	-39.3	-41.2	15.1	0.00e+00	0	60	0	1041235968	49	4683
2026-01-18 09:46:12.09	87.98	70.43	-39.7	-41.7	14.6	7.00e-07	0	60	0	1053818880	49	4958
2026-01-18 09:46:16.14	82.22	70.97	-39.5	-41.4	14.9	0.00e+00	0	60	0	1066401792	50	4533
2026-01-18 09:46:20.18	76.18	71.31	-39.3	-41.2	15.0	0.00e+00	0	60	0	1078984704	50	4398
2026-01-18 09:46:24.22	69.98	71.46	-39.5	-41.5	14.7	0.00e+00	0	60	0	1091567616	49	4864
2026-01-18 09:46:28.26	63.74	71.39	-39.0	-40.8	15.3	0.00e+00	0	60	0	1104150528	49	4490
2026-01-18 09:46:32.30	57.63	71.12	-39.4	-41.3	14.8	0.00e+00	0	60	0	1116733440	49	4755
2026-01-18 09:46:36.34	51.76	70.66	-39.9	-42.1	14.2	1.50e-06	0	60	0	1129316352	50	4891
2026-01-18 09:46:40.38	46.24	70.02	-39.4	-41.3	15.0	0.00e+00	0	60	0	1141899264	50	4457
2026-01-18 09:46:44.42	41.13	69.22	-39.2	-41.0	15.2	0.00e+00	0	60	0	1154482176	50	4335
2026-01-18 09:46:48.47	36.45	68.29	-40.0	-42.2	14.0	7.00e-07	0	60	0	1167065088	50	4960
2026-01-18 09:46:52.51	32.22	67.25	-39.8	-41.8	14.4	0.00e+00	0	61	0	1179648000	50	4756
2026-01-18 09:46:56.56	28.40	66.11	-39.4	-41.3	14.9	0.00e+00	0	60	0	1192230912	50	4461
2026-01-18 09:47:00.60	24.98	64.92	-40.5	-42.9	13.4	1.98e-05	0	60	0	1205862400	51	5089
2026-01-18 09:47:04.64	21.92	63.66	-39.4	-41.3	15.0	0.00e+00	0	61	0	1218445312	50	4467
2026-01-18 09:47:08.69	19.17	62.37	-39.7	-41.7	14.5	1.50e-06	0	60	0	1231028224	51	4422
2026-01-18 09:47:12.73	16.70	61.05	-40.4	-42.7	13.6	3.00e-06	0	60	0	1243611136	51	4958
2026-01-18 09:47:16.77	14.48	59.72	-39.7	-41.7	14.6	7.00e-07	0	60	0	1256194048	51	4400
2026-01-18 09:47:20.82	12.48	58.38	-40.8	-43.3	12.9	3.50e-05	0	60	0	1268776960	52	5032
2026-01-18 09:47:24.86	10.68	57.05	-40.1	-42.3	14.0	1.50e-06	0	60	0	1281359872	51	4713
2026-01-18 09:47:28.91	9.04	55.71	-40.4	-42.9	13.4	1.29e-05	0	61	0	1293942784	52	4791
2026-01-18 09:47:32.94	7.56	54.40	-40.8	-43.4	12.7	1.07e-04	0	60	0	1306525696	52	5056
2026-01-18 09:47:36.98	6.20	53.10	-41.3	-44.1	12.1	2.05e-04	0	60	0	1319108608	53	5186
2026-01-18 09:47:41.02	4.96	51.81	-41.1	-43.8	12.4	1.25e-04	0	60	0	1331691520	53	4991
2026-01-18 09:47:45.06	3.82	50.55	-40.8	-43.3	12.9	3.58e-05	0	60	0	1344274432	53	4750
2026-01-18 09:47:49.11	2.78	49.30	-42.5	-46.4	9.7	1.09e-02	0	60	0	1356857344	55	6027
2026-01-18 09:47:53.15	1.81	48.09	-41.8	-44.9	11.2	1.26e-03	0	61	0	1369440256	55	5053
2026-01-18 09:47:57.19	0.92	46.90	-41.0	-43.7	12.5	1.19e-04	0	60	0	1382023168	54	4653
2026-01-18 09:48:01.23	0.10	45.73	-41.7	-44.8	11.3	8.99e-04	0	60	0	1394606080	54	5332
2026-01-18 09:48:05.27	359.34	44.59	-42.1	-45.5	10.4	5.43e-03	0	60	0	1407188992	55	5413
2026-01-18 09:48:09.32	358.62	43.48	-42.2	-45.6	10.3	4.64e-03	0	60	0	1419771904	55	5522
2026-01-18 09:48:13.36	357.96	42.39	-41.9	-45.2	10.9	2.29e-03	0	61	0	1432354816	55	5244
2026-01-18 09:48:17.40	357.34	41.34	-41.7	-44.8	11.3	8.37e-04	0	60	0	1444937728	54	5297
2026-01-18 09:48:21.44	356.76	40.31	-42.1	-45.7	10.4	4.91e-03	0	60	0	1457520640	54	5880
2026-01-18 09:48:25.49	356.21	39.30	-41.6	-44.6	11.3	1.16e-03	0	61	0	1471152128	54	5214
2026-01-18 09:48:29.53	355.70	38.32	-41.6	-44.6	11.4	9.71e-04	0	61	0	1483735040	54	5209
2026-01-18 09:48:33.58	355.22	37.36	-41.2	-44.0	12.1	4.11e-04	0	61	0	1496317952	54	4823
2026-01-18 09:48:37.62	354.77	36.43	-40.7	-43.3	12.8	5.87e-05	0	60	0	1508900864	53	4709
2026-01-18 09:48:41.65	354.34	35.53	-41.2	-44.1	12.0	2.91e-04	0	61	0	1521483776	53	5169
2026-01-18 09:48:45.70	353.94	34.65	-41.2	-44.1	11.9	4.07e-04	0	60	0	1534066688	53	5181
2026-01-18 09:48:49.74	353.55	33.79	-40.9	-43.6	12.4	1.79e-04	0	61	0	1546649600	53	4912
2026-01-18 09:48:53.78	353.19	32.95	-40.8	-43.5	12.5	1.11e-04	0	60	0	1559232512	53	4835
2026-01-18 09:48:57.82	352.85	32.13	-40.9	-43.5	12.4	1.45e-04	0	61	0	1571815424	53	4869
2026-01-18 09:49:01.87	352.52	31.34	-40.8	-43.5	12.4	1.30e-04	0	61	0	1584398336	53	4851
2026-01-18 09:49:05.91	352.21	30.56	-40.5	-43.0	12.9	6.17e-05	0	61	0	1596981248	53	4593
2026-01-18 09:49:09.95	351.92	29.80	-39.9	-42.1	13.9	6.10e-06	0	61	0	1609564160	51	4619
2026-01-18 09:49:13.99	351.64	29.07	-39.6	-41.7	14.3	1.50e-06	0	61	0	1622147072	51	4408
2026-01-18 09:49:18.03	351.37	28.35	-39.9	-42.1	13.9	6.80e-06	0	61	0	1634729984	51	4615
2026-01-18 09:49:22.08	351.11	27.65	-40.1	-42.5	13.5	7.60e-06	0	61	0	1647312896	51	4817
2026-01-18 09:49:26.12	350.87	26.96	-40.1	-42.5	13.3	1.60e-05	0	61	0	1659895808	51	4853
2026-01-18 09:49:30.16	350.64	26.29	-39.9	-42.3	13.4	1.44e-05	0	60	0	1672478720	51	4727
2026-01-18 09:49:34.20	350.41	25.64	-40.0	-42.5	13.1	3.12e-05	0	61	0	1685061632	51	4843
2026-01-18 09:49:38.25	350.20	25.00	-40.1	-42.7	12.8	5.79e-05	0	60	0	1697644544	51	4950
2026-01-18 09:49:42.29	349.99	24.38	-40.3	-43.0	12.4	1.38e-04	0	61	0	1710227456	51	5117
2026-01-18 09:49:46.33	349.80	23.77	-40.1	-42.8	12.4	1.63e-04	0	61	0	1722810368	51	5034
2026-01-18 09:49:50.37	349.61	23.18	-39.8	-42.6	12.3	1.68e-04	0	61	0	1735393280	51	4879
2026-01-18 09:49:54.41	349.43	22.59	-39.4	-42.1	12.3	2.22e-04	0	61	0	1747976192	50	4909
2026-01-18 09:49:58.46	349.25	22.02	-39.1	-41.9	12.1	2.46e-04	0	61	0	1761607680	50	4796
2026-01-18 09:50:02.50	349.09	21.47	-40.0	-43.8	9.8	7.07e-03	0	61	0	1774190592	50	5988
2026-01-18 09:50:06.54	348.93	20.92	-41.3	-48.9	4.9	6.81e-01	0	60	0	1786773504	53	9047
2026-01-18 09:50:10.59	348.77	20.39	-41.1	-53.6	3.8	1.49e+00	0	61	104	1786773504	53	15557
2026-01-18 09:50:14.63	348.62	19.86	-41.1	-53.7	3.8	1.49e+00	0	61	104	1786773504	54	14745
2026-01-18 09:50:18.67	348.48	19.35	-41.3	-53.7	3.8	1.49e+00	0	61	104	1786773504	54	14724
2026-01-18 09:50:22.71	348.34	18.85	-41.1	-53.6	3.8	1.49e+00	0	61	104	1786773504	53	15406
2026-01-18 09:50:26.75	348.21	18.36	-40.9	-53.5	3.8	1.49e+00	0	61	104	1786773504	53	15228
2026-01-18 09:50:30.79	348.08	17.87	-41.2	-53.6	3.8	1.49e+00	0	61	104	1786773504	53	15470
2026-01-18 09:50:34.84	347.96	17.40	-41.4	-53.8	3.8	1.49e+00	0	61	104	1786773504	53	15797
2026-01-18 09:50:38.87	347.84	16.93	-41.5	-53.8	3.8	1.49e+00	0	61	104	1786773504	53	15852
2026-01-18 09:50:42.92	347.72	16.48	-41.4	-53.7	3.8	1.49e+00	0	61	104	1786773504	53	15726
2026-01-18 09:50:46.95	347.61	16.03	-41.3	-53.7	3.8	1.49e+00	0	61	104	1786773504	53	15741
2026-01-18 09:50:50.99	347.50	15.59	-41.4	-53.7	3.8	1.49e+00	0	61	104	1786773504	53	15675
2026-01-18 09:50:55.03	347.40	15.16	-41.4	-53.8	3.8	1.49e+00	0	61	104	1786773504	53	15801
2026-01-18 09:50:59.07	347.30	14.73	-41.3	-53.7	3.8	1.49e+00	0	61	104	1786773504	53	15711
2026-01-18 09:51:03.12	347.20	14.31	-41.2	-53.6	3.8	1.49e+00	0	61	104	1786773504	53	15495
2026-01-18 09:51:07.16	347.10	13.90	-41.1	-53.5	3.8	1.49e+00	0	61	104	1786773504	53	15352
2026-01-18 09:51:11.20	347.01	13.50	-41.1	-53.5	3.8	1.49e+00	0	61	104	1786773504	53	15385
2026-01-18 09:51:15.25	346.92	13.10	-41.1	-53.6	3.8	1.49e+00	0	61	104	1786773504	53	15413
2026-01-18 09:51:19.29	346.84	12.71	-41.0	-53.5	3.8	1.49e+00	0	61	104	1786773504	53	15304
2026-01-18 09:51:23.33	346.75	12.33	-41.0	-53.5	3.8	1.49e+00	0	61	104	1786773504	53	15238
2026-01-18 09:51:27.37	346.67	11.95	-41.0	-53.4	3.8	1.49e+00	0	61	104	1786773504	53	15224
2026-01-18 09:51:31.42	346.60	11.57	-41.1	-53.5	3.8	1.49e+00	0	61	104	1786773504	53	15264
2026-01-18 09:51:35.46	346.52	11.20	-41.0	-53.4	3.8	1.49e+00	0	61	104	1786773504	53	15124
2026-01-18 09:51:39.50	346.45	10.84	-40.9	-53.4	3.8	1.49e+00	0	61	104	1786773504	53	15057
2026-01-18 09:51:43.54	346.37	10.49	-40.9	-53.4	3.8	1.49e+00	0	61	104	1786773504	53	15068
2026-01-18 09:51:47.59	346.30	10.13	-40.9	-53.4	3.8	1.49e+00	0	61	104	1786773504	53	15077
2026-01-18 09:51:51.63	346.24	9.79	-40.8	-53.3	3.8	1.49e+00	0	61	104	1786773504	53	14990
2026-01-18 09:51:55.67	346.17	9.44	-40.7	-53.2	3.8	1.49e+00	0	61	104	1786773504	53	14837
2026-01-18 09:51:59.71	346.11	9.10	-40.7	-53.1	3.8	1.49e+00	0	61	104	1786773504	53	14691
2026-01-18 09:52:03.75	346.05	8.77	-40.7	-53.1	3.8	1.49e+00	0	61	104	1786773504	53	14605
2026-01-18 09:52:07.79	345.99	8.44	-40.7	-53.0	3.8	1.49e+00	0	61	104	1786773504	53	14540
2026-01-18 09:52:11.83	345.93	8.12	-40.6	-53.0	3.8	1.49e+00	0	61	104	1786773504	53	14444
2026-01-18 09:52:15.88	345.87	7.80	-42.4	-54.7	3.9	1.49e+00	0	61	104	1786773504	55	15628
2026-01-18 09:52:19.92	345.82	7.48	-45.2	-57.6	3.8	1.49e+00	0	61	104	1786773504	60	16424
2026-01-18 09:52:23.96	345.76	7.17	-45.1	-57.7	3.9	1.49e+00	0	61	104	1786773504	61	15582
2026-01-18 09:52:28.01	345.71	6.86	-45.2	-57.5	3.8	1.49e+00	0	61	104	1786773504	61	15392
2026-01-18 09:52:32.05	345.66	6.55	-45.1	-57.4	3.8	1.49e+00	0	61	104	1786773504	60	16124
2026-01-18 09:52:36.10	345.61	6.25	-45.0	-57.4	3.8	1.49e+00	0	61	104	1786773504	60	16118
2026-01-18 09:52:40.14	345.56	5.95	-44.9	-57.4	3.8	1.49e+00	0	61	104	1786773504	60	16040
2026-01-18 09:52:44.19	345.52	5.65	-45.1	-57.4	3.8	1.49e+00	0	61	104	1786773504	60	15995
2026-01-18 09:52:48.23	345.47	5.36	-45.1	-57.4	3.8	1.49e+00	0	61	104	1786773504	60	15954
2026-01-18 09:52:52.27	345.43	5.07	-45.1	-57.4	3.8	1.49e+00	0	61	104	1786773504	60	15998
2026-01-18 09:52:56.32	345.39	4.79	-45.1	-57.4	3.8	1.49e+00	0	61	104	1786773504	60	15997
2026-01-18 09:53:00.36	345.34	4.50	-45.1	-57.4	3.8	1.49e+00	0	61	104	1786773504	60	16010
2026-01-18 09:53:04.41	345.30	4.22	-45.1	-57.4	3.8	1.49e+00	0	61	104	1786773504	60	16090
2026-01-18 09:53:08.45	345.26	3.95	-45.1	-57.4	3.8	1.49e+00	0	61	104	1786773504	60	16001
2026-01-18 09:53:12.49	345.23	3.67	-45.1	-57.4	3.8	1.49e+00	0	61	104	1786773504	60	16029
2026-01-18 09:53:16.54	345.19	3.40	-45.1	-57.4	3.8	1.49e+00	0	61	104	1786773504	60	16033
2026-01-18 09:53:20.58	345.15	3.13	-45.1	-57.4	3.8	1.49e+00	0	61	104	1786773504	60	15962
2026-01-18 09:53:24.63	345.12	2.87	-45.1	-57.4	3.8	1.49e+00	0	61	104	1786773504	60	16028
2026-01-18 09:53:28.67	345.08	2.60	-45.1	-57.4	3.8	1.49e+00	0	61	104	1786773504	60	15977
2026-01-18 09:53:32.72	345.05	2.34	-45.1	-57.4	3.8	1.49e+00	0	61	104	1786773504	60	16011
2026-01-18 09:53:36.76	345.02	2.08	-45.1	-57.4	3.8	1.49e+00	0	61	104	1786773504	60	15969

#Closed at: 2026-01-18 09:53:38
#Recorded file [1786 MB]: D:/lorett/data/31039_260118_123915.dat