passes_logs/2026/01/18/R2.0S_Moscow/R2.0S_Moscow__20260118_044133_FENGYUN_3E_rec.log

#Pass ID: 20260118_044133_FENGYUN 3E
#Satellite: FENGYUN 3E
#Configuration: FENGYUN 3E
#almurnet v.1.7.20251203
#Start time: 2026-01-18 04:41:33

#Version: 2.2.20231116
#Station: R2.0S_Moscow
#Location: 37.707566 lon 55.798166 lat
#TLE: 1 49008U 21062A   26017.26067429  .00000278  00000+0  15192-3 0  9991
#TLE: 2 49008  98.7484  22.3628 0002125 132.6872 227.4483 14.19886454235162

#Time	Az	El	Level	Level2	SNR	BER	BlckErr	Temp	State	Recorded	gain1	gain2
2026-01-18 04:41:33.71	13.15	2.04	-40.9	-51.7	3.8	8.46e-01	0	51	0	0	52	12515
2026-01-18 04:41:37.75	13.04	2.29	-40.9	-51.7	3.8	8.46e-01	0	52	104	0	52	12447
2026-01-18 04:41:41.80	12.92	2.55	-40.9	-51.7	3.8	8.46e-01	0	52	104	0	52	12468
2026-01-18 04:41:45.84	12.80	2.81	-40.9	-51.7	3.8	8.47e-01	0	53	104	0	52	12501
2026-01-18 04:41:49.88	12.68	3.07	-40.9	-51.7	3.8	8.46e-01	0	53	104	0	52	12436
2026-01-18 04:41:53.93	12.55	3.33	-40.9	-51.7	3.8	8.46e-01	0	53	104	0	52	12443
2026-01-18 04:41:57.97	12.43	3.59	-40.9	-51.7	3.8	8.45e-01	0	54	104	0	52	12418
2026-01-18 04:42:02.02	12.30	3.86	-40.9	-51.7	3.8	8.46e-01	0	54	104	0	52	12493
2026-01-18 04:42:06.06	12.16	4.13	-40.9	-51.6	3.8	8.47e-01	0	54	104	0	52	12288
2026-01-18 04:42:10.10	12.03	4.40	-40.8	-51.2	3.8	8.47e-01	0	54	104	0	52	11746
2026-01-18 04:42:14.14	11.89	4.68	-40.8	-50.9	3.8	8.46e-01	0	55	104	0	52	11348
2026-01-18 04:42:18.19	11.75	4.96	-40.8	-51.1	3.8	8.47e-01	0	55	104	0	52	11628
2026-01-18 04:42:22.23	11.61	5.24	-40.8	-51.2	3.8	8.45e-01	0	55	104	0	52	11748
2026-01-18 04:42:26.28	11.46	5.52	-40.8	-50.7	3.8	8.46e-01	0	55	104	0	52	11094
2026-01-18 04:42:30.32	11.31	5.81	-40.7	-50.3	3.8	8.44e-01	0	56	104	0	52	10612
2026-01-18 04:42:34.37	11.15	6.10	-40.7	-50.5	3.8	8.46e-01	0	56	104	0	52	10867
2026-01-18 04:42:38.41	11.00	6.39	-40.8	-51.3	3.8	8.46e-01	0	56	104	0	52	11827
2026-01-18 04:42:42.45	10.84	6.68	-40.9	-51.6	3.8	8.46e-01	0	56	104	0	52	12344
2026-01-18 04:42:46.50	10.67	6.98	-40.9	-51.6	3.8	8.47e-01	0	56	104	0	52	12297
2026-01-18 04:42:50.55	10.50	7.28	-40.8	-51.5	3.8	8.47e-01	0	56	104	0	52	12128
2026-01-18 04:42:54.59	10.33	7.59	-40.8	-51.3	3.8	8.45e-01	0	57	104	0	52	11849
2026-01-18 04:42:58.63	10.16	7.90	-40.8	-51.4	3.8	8.46e-01	0	57	104	0	52	12003
2026-01-18 04:43:02.67	9.98	8.21	-41.0	-51.7	3.8	8.47e-01	0	57	104	0	52	12498
2026-01-18 04:43:06.71	9.79	8.53	-40.7	-51.5	3.8	8.46e-01	0	57	104	0	52	12201
2026-01-18 04:43:10.76	9.60	8.85	-40.9	-51.6	3.8	8.46e-01	0	57	104	0	52	12334
2026-01-18 04:43:14.79	9.41	9.17	-40.6	-51.4	3.8	8.45e-01	0	57	104	0	52	12085
2026-01-18 04:43:18.83	9.21	9.49	-40.5	-51.3	3.8	8.46e-01	0	57	104	0	52	11931
2026-01-18 04:43:22.87	9.01	9.83	-41.1	-51.9	3.8	8.45e-01	0	58	104	0	52	12746
2026-01-18 04:43:26.91	8.80	10.16	-40.5	-51.1	3.8	8.47e-01	0	58	104	0	52	11601
2026-01-18 04:43:30.94	8.59	10.50	-40.9	-51.7	3.8	8.47e-01	0	58	104	0	52	12434
2026-01-18 04:43:34.98	8.37	10.84	-41.3	-49.9	3.9	8.43e-01	0	58	104	0	52	10168
2026-01-18 04:43:39.02	8.15	11.19	-41.5	-47.9	4.9	7.94e-01	0	58	0	0	52	8077
2026-01-18 04:43:43.05	7.92	11.54	-40.1	-44.0	8.2	7.88e-02	0	58	0	20971520	51	5414
2026-01-18 04:43:47.09	7.68	11.90	-38.8	-41.6	10.6	4.40e-03	0	58	0	50331648	48	4918
2026-01-18 04:43:51.14	7.44	12.26	-37.2	-39.3	13.0	6.40e-05	0	59	0	79691776	45	4443
2026-01-18 04:43:55.18	7.19	12.63	-37.2	-39.1	13.6	1.60e-05	0	58	0	109051904	45	4374
2026-01-18 04:43:59.21	6.94	13.00	-37.8	-39.9	12.9	6.52e-05	0	59	0	137363456	45	4791
2026-01-18 04:44:03.25	6.67	13.38	-37.4	-39.3	13.9	2.20e-06	0	59	0	166723584	45	4452
2026-01-18 04:44:07.28	6.41	13.76	-37.7	-39.5	13.9	4.50e-06	0	59	0	196083712	45	4596
2026-01-18 04:44:11.32	6.13	14.14	-37.6	-39.4	14.2	1.10e-06	0	59	0	225443840	45	4511
2026-01-18 04:44:15.36	5.84	14.54	-37.6	-39.3	14.4	1.10e-06	0	59	0	254803968	45	4483
2026-01-18 04:44:19.40	5.55	14.94	-37.3	-38.9	15.0	0.00e+00	0	59	0	283115520	45	4282
2026-01-18 04:44:23.44	5.25	15.34	-37.2	-38.8	15.2	0.00e+00	0	59	0	312475648	45	4221
2026-01-18 04:44:27.47	4.94	15.75	-37.2	-38.8	15.2	0.00e+00	0	59	0	341835776	45	4239
2026-01-18 04:44:31.51	4.62	16.17	-37.1	-38.7	15.5	0.00e+00	0	59	0	371195904	45	4151
2026-01-18 04:44:35.55	4.29	16.59	-36.9	-38.4	15.8	0.00e+00	0	59	0	400556032	44	4284
2026-01-18 04:44:39.60	3.95	17.02	-37.1	-38.6	15.7	0.00e+00	0	59	0	428867584	44	4357
2026-01-18 04:44:43.63	3.61	17.46	-36.9	-38.4	16.0	0.00e+00	0	59	0	458227712	44	4245
2026-01-18 04:44:47.67	3.25	17.90	-36.9	-38.3	16.1	0.00e+00	0	60	0	487587840	44	4223
2026-01-18 04:44:51.71	2.88	18.35	-36.7	-38.0	16.5	0.00e+00	0	59	0	516947968	44	4090
2026-01-18 04:44:55.75	2.49	18.81	-36.3	-37.7	16.7	0.00e+00	0	59	0	546308096	43	4168
2026-01-18 04:44:59.79	2.10	19.27	-36.0	-37.3	17.1	0.00e+00	0	59	0	574619648	42	4231
2026-01-18 04:45:03.83	1.69	19.74	-36.0	-37.3	17.2	0.00e+00	0	60	0	603979776	42	4217
2026-01-18 04:45:07.87	1.27	20.22	-36.0	-37.3	17.2	0.00e+00	0	60	0	633339904	42	4214
2026-01-18 04:45:11.91	0.84	20.71	-36.0	-37.3	17.2	0.00e+00	0	60	0	662700032	42	4224
2026-01-18 04:45:15.95	0.39	21.20	-36.0	-37.3	17.3	0.00e+00	0	60	0	691011584	42	4198
2026-01-18 04:45:19.99	359.92	21.70	-36.0	-37.3	17.2	0.00e+00	0	60	0	720371712	42	4218
2026-01-18 04:45:24.04	359.44	22.21	-35.9	-37.2	17.3	0.00e+00	0	60	0	749731840	42	4179
2026-01-18 04:45:28.07	358.95	22.73	-36.0	-37.3	17.2	0.00e+00	0	60	0	779091968	42	4233
2026-01-18 04:45:32.11	358.43	23.26	-36.2	-37.5	17.0	0.00e+00	0	60	0	808452096	42	4293
2026-01-18 04:45:36.15	357.90	23.79	-36.1	-37.4	17.1	0.00e+00	0	60	0	837812224	42	4264
2026-01-18 04:45:40.20	357.35	24.34	-36.2	-37.5	17.0	0.00e+00	0	60	0	866123776	42	4311
2026-01-18 04:45:44.23	356.78	24.89	-36.2	-37.5	17.0	0.00e+00	0	60	0	895483904	42	4335
2026-01-18 04:45:48.27	356.18	25.45	-36.2	-37.5	17.0	0.00e+00	0	60	0	924844032	42	4329
2026-01-18 04:45:52.31	355.57	26.02	-36.3	-37.6	17.1	0.00e+00	0	60	0	954204160	42	4359
2026-01-18 04:45:56.35	354.93	26.59	-35.9	-37.2	17.5	0.00e+00	0	60	0	983564288	42	4150
2026-01-18 04:46:00.38	354.27	27.18	-35.5	-36.7	18.1	0.00e+00	0	60	0	1011875840	42	3927
2026-01-18 04:46:04.42	353.58	27.77	-35.1	-36.3	18.5	0.00e+00	0	60	0	1041235968	41	3960
2026-01-18 04:46:08.46	352.87	28.37	-35.1	-36.2	18.6	0.00e+00	0	60	0	1070596096	40	4178
2026-01-18 04:46:12.50	352.13	28.98	-35.3	-36.5	18.3	0.00e+00	0	60	0	1099956224	40	4323
2026-01-18 04:46:16.54	351.35	29.60	-35.1	-36.2	18.6	0.00e+00	0	60	0	1129316352	40	4185
2026-01-18 04:46:20.58	350.55	30.23	-35.3	-36.5	18.4	0.00e+00	0	60	0	1158676480	40	4292
2026-01-18 04:46:24.62	349.72	30.86	-35.6	-36.8	18.1	0.00e+00	0	60	0	1186988032	41	4195
2026-01-18 04:46:28.66	348.85	31.50	-35.5	-36.7	18.2	0.00e+00	0	61	0	1216348160	41	4159
2026-01-18 04:46:32.69	347.94	32.14	-35.4	-36.5	18.4	0.00e+00	0	61	0	1245708288	41	4080
2026-01-18 04:46:36.73	347.00	32.79	-35.3	-36.5	18.5	0.00e+00	0	60	0	1275068416	41	4063
2026-01-18 04:46:40.77	346.02	33.45	-35.1	-36.2	18.8	0.00e+00	0	60	0	1304428544	40	4164
2026-01-18 04:46:44.82	345.00	34.11	-35.0	-36.1	18.9	0.00e+00	0	61	0	1332740096	40	4125
2026-01-18 04:46:48.86	343.93	34.78	-35.5	-36.6	18.3	0.00e+00	0	61	0	1362100224	40	4390
2026-01-18 04:46:52.90	342.82	35.44	-35.4	-36.6	18.4	0.00e+00	0	61	0	1391460352	40	4351
2026-01-18 04:46:56.93	341.66	36.11	-35.6	-36.8	18.2	0.00e+00	0	61	0	1420820480	41	4208
2026-01-18 04:47:00.97	340.46	36.77	-35.5	-36.6	18.4	0.00e+00	0	61	0	1450180608	41	4145
2026-01-18 04:47:05.01	339.20	37.44	-35.3	-36.4	18.6	0.00e+00	0	61	0	1479540736	41	4047
2026-01-18 04:47:09.05	337.89	38.10	-35.6	-36.8	18.3	0.00e+00	0	61	0	1507852288	41	4218
2026-01-18 04:47:13.09	336.52	38.76	-35.5	-36.6	18.5	0.00e+00	0	61	0	1537212416	41	4132
2026-01-18 04:47:17.13	335.10	39.41	-35.3	-36.4	18.7	0.00e+00	0	61	0	1566572544	41	4023
2026-01-18 04:47:21.17	333.62	40.06	-35.4	-36.5	18.6	0.00e+00	0	61	0	1595932672	41	4094
2026-01-18 04:47:25.21	332.08	40.69	-36.5	-37.8	17.3	0.00e+00	0	61	0	1625292800	42	4492
2026-01-18 04:47:29.25	330.48	41.30	-35.7	-36.9	18.2	0.00e+00	0	61	0	1653604352	42	4011
2026-01-18 04:47:33.29	328.82	41.91	-35.6	-36.7	18.4	0.00e+00	0	61	0	1682964480	42	3948
2026-01-18 04:47:37.33	327.09	42.49	-35.3	-36.4	18.7	0.00e+00	0	61	0	1712324608	41	4026
2026-01-18 04:47:41.37	325.30	43.05	-35.4	-36.5	18.6	0.00e+00	0	61	0	1741684736	41	4063
2026-01-18 04:47:45.41	323.45	43.59	-35.3	-36.5	18.6	0.00e+00	0	61	0	1771044864	41	4057
2026-01-18 04:47:49.44	321.54	44.10	-35.3	-36.4	18.7	0.00e+00	0	61	0	1799356416	41	4024
2026-01-18 04:47:53.49	319.56	44.58	-35.6	-36.8	18.3	0.00e+00	0	61	0	1828716544	41	4219
2026-01-18 04:47:57.52	317.53	45.02	-35.8	-37.0	18.1	0.00e+00	0	61	0	1858076672	41	4309
2026-01-18 04:48:01.56	315.44	45.43	-35.5	-36.6	18.5	0.00e+00	0	61	0	1887436800	41	4121
2026-01-18 04:48:05.60	313.30	45.80	-36.0	-37.3	17.8	0.00e+00	0	61	0	1916796928	41	4443
2026-01-18 04:48:09.64	311.11	46.12	-35.9	-37.1	18.0	0.00e+00	0	61	0	1945108480	42	4134
2026-01-18 04:48:13.68	308.88	46.41	-36.1	-37.3	17.8	0.00e+00	0	61	0	1974468608	42	4226
2026-01-18 04:48:17.72	306.61	46.64	-36.0	-37.2	18.0	0.00e+00	0	61	0	2003828736	42	4182
2026-01-18 04:48:21.76	304.30	46.83	-35.9	-37.1	18.0	0.00e+00	0	61	0	2033188864	42	4145
2026-01-18 04:48:25.80	301.98	46.96	-36.0	-37.2	18.0	0.00e+00	0	61	0	2061500416	42	4170
2026-01-18 04:48:29.83	299.64	47.04	-36.0	-37.2	17.9	0.00e+00	0	61	0	2090860544	42	4170
2026-01-18 04:48:33.87	297.29	47.07	-35.7	-36.9	18.3	0.00e+00	0	61	0	2120220672	42	4008
2026-01-18 04:48:37.91	294.94	47.05	-36.0	-37.1	18.0	0.00e+00	0	61	0	2149580800	42	4142
2026-01-18 04:48:41.94	292.60	46.98	-36.0	-37.2	17.9	0.00e+00	0	61	0	2178940928	42	4164
2026-01-18 04:48:45.98	290.27	46.85	-35.9	-37.1	18.0	0.00e+00	0	61	0	2207252480	42	4121
2026-01-18 04:48:50.02	287.96	46.67	-36.0	-37.2	18.0	0.00e+00	0	61	0	2236612608	42	4151
2026-01-18 04:48:54.06	285.68	46.45	-36.0	-37.2	18.0	0.00e+00	0	61	0	2265972736	42	4164
2026-01-18 04:48:58.10	283.44	46.17	-35.7	-36.8	18.3	0.00e+00	0	61	0	2295332864	42	3994
2026-01-18 04:49:02.13	281.24	45.85	-35.7	-36.9	18.2	0.00e+00	0	61	0	2324692992	41	4252
2026-01-18 04:49:06.17	279.09	45.49	-35.8	-37.0	18.1	0.00e+00	0	61	0	2354053120	41	4309
2026-01-18 04:49:10.21	276.98	45.09	-35.9	-37.1	18.0	0.00e+00	0	61	0	2382364672	41	4354
2026-01-18 04:49:14.25	274.94	44.65	-35.7	-36.9	18.2	0.00e+00	0	61	0	2411724800	41	4279
2026-01-18 04:49:18.29	272.95	44.17	-35.5	-36.7	18.4	0.00e+00	0	61	0	2441084928	41	4159
2026-01-18 04:49:22.33	271.02	43.66	-35.6	-36.7	18.4	0.00e+00	0	61	0	2470445056	41	4181
2026-01-18 04:49:26.37	269.15	43.13	-35.4	-36.6	18.5	0.00e+00	0	61	0	2499805184	41	4107
2026-01-18 04:49:30.41	267.35	42.57	-35.6	-36.8	18.3	0.00e+00	0	61	0	2528116736	41	4194
2026-01-18 04:49:34.44	265.61	41.99	-35.4	-36.5	18.6	0.00e+00	0	61	0	2557476864	41	4078
2026-01-18 04:49:38.48	263.93	41.39	-35.3	-36.4	18.7	0.00e+00	0	61	0	2586836992	41	4034
2026-01-18 04:49:42.53	262.31	40.77	-35.3	-36.4	18.7	0.00e+00	0	61	0	2616197120	41	4014
2026-01-18 04:49:46.57	260.76	40.14	-35.1	-36.2	18.8	0.00e+00	0	61	0	2645557248	41	3940
2026-01-18 04:49:50.61	259.26	39.50	-34.8	-35.9	19.1	0.00e+00	0	61	0	2674917376	40	4024
2026-01-18 04:49:54.64	257.83	38.84	-35.4	-36.5	18.6	0.00e+00	0	61	0	2703228928	40	4333
2026-01-18 04:49:58.68	256.45	38.18	-35.1	-36.2	18.8	0.00e+00	0	61	0	2732589056	40	4187
2026-01-18 04:50:02.72	255.13	37.52	-35.3	-36.4	18.7	0.00e+00	0	61	0	2761949184	40	4263
2026-01-18 04:50:06.76	253.86	36.85	-35.3	-36.5	18.6	0.00e+00	0	61	0	2791309312	40	4306
2026-01-18 04:50:10.80	252.64	36.18	-35.2	-36.4	18.6	0.00e+00	0	61	0	2819620864	40	4258
2026-01-18 04:50:14.84	251.47	35.51	-34.7	-35.8	19.2	0.00e+00	0	61	0	2848980992	40	3985
2026-01-18 04:50:18.88	250.35	34.84	-35.1	-36.2	18.8	0.00e+00	0	61	0	2878341120	40	4168
2026-01-18 04:50:22.92	249.27	34.17	-34.9	-36.0	19.0	0.00e+00	0	61	0	2907701248	40	4066
2026-01-18 04:50:26.96	248.24	33.51	-35.1	-36.2	18.8	0.00e+00	0	61	0	2937061376	40	4193
2026-01-18 04:50:31.00	247.25	32.85	-35.2	-36.3	18.7	0.00e+00	0	61	0	2965372928	40	4242
2026-01-18 04:50:35.04	246.29	32.19	-34.9	-36.0	19.0	0.00e+00	0	61	0	2994733056	40	4067
2026-01-18 04:50:39.07	245.38	31.54	-35.0	-36.1	18.9	0.00e+00	0	61	0	3024093184	40	4107
2026-01-18 04:50:43.11	244.50	30.90	-35.2	-36.3	18.7	0.00e+00	0	61	0	3053453312	40	4231
2026-01-18 04:50:47.15	243.66	30.26	-35.6	-36.8	18.2	0.00e+00	0	61	0	3082813440	40	4457
2026-01-18 04:50:51.19	242.85	29.63	-35.3	-36.5	18.5	0.00e+00	0	61	0	3111124992	40	4302
2026-01-18 04:50:55.23	242.07	29.01	-35.7	-36.9	18.0	0.00e+00	0	61	0	3140485120	41	4272
2026-01-18 04:50:59.26	241.32	28.40	-35.4	-36.6	18.3	0.00e+00	0	61	0	3169845248	41	4117
2026-01-18 04:51:03.30	240.59	27.79	-35.3	-36.5	18.4	0.00e+00	0	61	0	3199205376	41	4076
2026-01-18 04:51:07.34	239.90	27.20	-35.4	-36.5	18.4	0.00e+00	0	61	0	3228565504	41	4090
2026-01-18 04:51:11.38	239.23	26.61	-35.5	-36.7	18.3	0.00e+00	0	61	0	3256877056	41	4154
2026-01-18 04:51:15.41	238.59	26.03	-35.4	-36.5	18.4	0.00e+00	0	61	0	3286237184	41	4080
2026-01-18 04:51:19.45	237.96	25.45	-35.4	-36.6	18.3	0.00e+00	0	61	0	3315597312	41	4115
2026-01-18 04:51:23.49	237.36	24.89	-35.9	-37.1	17.8	0.00e+00	0	61	0	3344957440	41	4376
2026-01-18 04:51:27.53	236.79	24.34	-35.8	-37.0	17.9	0.00e+00	0	61	0	3374317568	41	4307
2026-01-18 04:51:31.57	236.23	23.79	-35.6	-36.8	18.1	0.00e+00	0	61	0	3403677696	41	4215
2026-01-18 04:51:35.60	235.69	23.25	-35.5	-36.6	18.2	0.00e+00	0	61	0	3431989248	41	4128
2026-01-18 04:51:39.64	235.17	22.72	-35.4	-36.6	18.3	0.00e+00	0	61	0	3461349376	41	4107
2026-01-18 04:51:43.68	234.67	22.20	-35.5	-36.7	18.2	0.00e+00	0	61	0	3490709504	41	4152
2026-01-18 04:51:47.72	234.18	21.69	-35.7	-37.0	17.9	0.00e+00	0	61	0	3520069632	41	4294
2026-01-18 04:51:51.75	233.71	21.18	-36.0	-37.2	17.6	0.00e+00	0	61	0	3549429760	41	4436
2026-01-18 04:51:55.79	233.26	20.68	-36.3	-37.6	17.3	0.00e+00	0	61	0	3577741312	42	4370
2026-01-18 04:51:59.83	232.82	20.19	-36.4	-37.7	17.1	0.00e+00	0	61	0	3607101440	42	4423
2026-01-18 04:52:03.86	232.39	19.71	-36.3	-37.6	17.3	0.00e+00	0	61	0	3636461568	42	4348
2026-01-18 04:52:07.90	231.98	19.24	-36.0	-37.2	17.5	0.00e+00	0	61	0	3664773120	42	4192
2026-01-18 04:52:11.94	231.58	18.77	-36.0	-37.2	17.5	0.00e+00	0	61	0	3694133248	42	4185
2026-01-18 04:52:15.98	231.19	18.31	-36.2	-37.4	17.3	0.00e+00	0	61	0	3723493376	42	4289
2026-01-18 04:52:20.01	230.81	17.86	-36.5	-37.8	17.0	0.00e+00	0	61	0	3752853504	42	4483
2026-01-18 04:52:24.05	230.45	17.41	-36.6	-38.0	16.8	0.00e+00	0	61	0	3782213632	43	4306
2026-01-18 04:52:28.09	230.10	16.98	-36.6	-37.9	16.8	0.00e+00	0	61	0	3810525184	43	4291
2026-01-18 04:52:32.13	229.75	16.54	-36.7	-38.0	16.7	0.00e+00	0	61	0	3839885312	43	4339
2026-01-18 04:52:36.16	229.42	16.12	-36.8	-38.2	16.5	0.00e+00	0	62	0	3869245440	43	4398
2026-01-18 04:52:40.20	229.10	15.70	-36.8	-38.2	16.5	0.00e+00	0	61	0	3898605568	43	4417
2026-01-18 04:52:44.24	228.78	15.29	-37.1	-38.5	16.1	0.00e+00	0	61	0	3927965696	43	4588
2026-01-18 04:52:48.28	228.47	14.88	-37.6	-39.1	15.8	0.00e+00	0	61	0	3957325824	44	4607
2026-01-18 04:52:52.32	228.18	14.48	-37.6	-39.1	15.6	0.00e+00	0	62	0	3985637376	44	4636
2026-01-18 04:52:56.35	227.89	14.08	-37.7	-39.2	15.6	0.00e+00	0	62	0	4014997504	44	4680
2026-01-18 04:53:00.39	227.60	13.69	-37.8	-39.4	15.4	0.00e+00	0	61	0	4044357632	45	4495
2026-01-18 04:53:04.43	227.33	13.31	-37.9	-39.6	15.1	0.00e+00	0	61	0	4073717760	45	4600
2026-01-18 04:53:08.47	227.06	12.93	-38.0	-39.6	15.1	0.00e+00	0	61	0	4103077888	45	4645
2026-01-18 04:53:12.51	226.80	12.56	-38.2	-39.9	14.8	0.00e+00	0	61	0	4131389440	45	4791
2026-01-18 04:53:16.56	226.55	12.19	-38.2	-39.9	14.7	0.00e+00	0	62	0	4160749568	46	4508
2026-01-18 04:53:20.60	226.30	11.82	-38.3	-40.0	14.6	0.00e+00	0	61	0	4190109696	46	4578
2026-01-18 04:53:24.63	226.06	11.46	-38.2	-40.0	14.6	1.10e-06	0	62	0	4219469824	46	4554
2026-01-18 04:53:28.67	225.83	11.11	-38.3	-40.0	14.6	0.00e+00	0	62	0	4248829952	46	4556
2026-01-18 04:53:32.71	225.60	10.76	-38.3	-40.0	14.5	0.00e+00	0	62	0	4278190080	46	4584
2026-01-18 04:53:36.75	225.38	10.41	-38.4	-40.2	14.3	0.00e+00	0	61	0	4306501632	46	4693
2026-01-18 04:53:40.79	225.16	10.07	-38.5	-40.3	14.1	3.40e-06	0	62	0	4335861760	46	4755
2026-01-18 04:53:44.82	224.95	9.74	-38.5	-40.4	14.0	1.10e-06	0	61	0	4365221888	46	4790
2026-01-18 04:53:48.86	224.74	9.41	-38.4	-40.3	14.1	2.20e-06	0	62	0	4394582016	47	4453
2026-01-18 04:53:52.90	224.53	9.08	-38.8	-40.8	13.5	1.14e-05	0	61	0	4422893568	47	4739
2026-01-18 04:53:56.94	224.34	8.75	-39.1	-41.2	13.3	2.63e-05	0	61	0	4452253696	48	4652
2026-01-18 04:54:00.98	224.14	8.43	-39.2	-41.3	13.1	4.00e-05	0	61	0	4481613824	48	4724
2026-01-18 04:54:05.02	223.95	8.12	-39.0	-41.0	13.4	2.05e-05	0	61	0	4510973952	48	4590
2026-01-18 04:54:09.06	223.77	7.80	-45.3	-56.7	3.8	8.45e-01	0	61	104	4523556864	60	13901
2026-01-18 04:54:13.10	223.59	7.49	-45.6	-57.0	3.8	8.46e-01	0	61	104	4523556864	60	14374
2026-01-18 04:54:17.15	223.41	7.19	-45.6	-57.0	3.8	8.46e-01	0	61	104	4523556864	60	14423
2026-01-18 04:54:21.19	223.24	6.88	-45.5	-56.9	3.8	8.46e-01	0	62	104	4523556864	60	14308
2026-01-18 04:54:25.23	223.07	6.58	-45.5	-56.8	3.8	8.46e-01	0	61	104	4523556864	60	14195
2026-01-18 04:54:29.27	222.90	6.29	-45.5	-56.9	3.8	8.46e-01	0	62	104	4523556864	60	14233
2026-01-18 04:54:33.31	222.74	5.99	-45.5	-56.8	3.8	8.45e-01	0	62	104	4523556864	60	14159
2026-01-18 04:54:37.35	222.58	5.70	-45.5	-56.9	3.8	8.46e-01	0	62	104	4523556864	60	14227
2026-01-18 04:54:41.40	222.43	5.42	-45.5	-56.9	3.8	8.46e-01	0	62	104	4523556864	60	14218
2026-01-18 04:54:45.44	222.27	5.13	-45.5	-56.8	3.8	8.45e-01	0	61	104	4523556864	60	14116
2026-01-18 04:54:49.48	222.13	4.85	-45.5	-56.8	3.8	8.46e-01	0	62	104	4523556864	60	14110
2026-01-18 04:54:53.53	221.98	4.57	-45.5	-56.8	3.8	8.45e-01	0	62	104	4523556864	60	14127
2026-01-18 04:54:57.57	221.84	4.29	-45.4	-56.8	3.8	8.46e-01	0	61	104	4523556864	60	14120
2026-01-18 04:55:01.61	221.70	4.02	-45.1	-56.8	3.8	8.46e-01	0	62	104	4523556864	60	14072
2026-01-18 04:55:05.66	221.56	3.75	-45.4	-56.8	3.8	8.45e-01	0	62	104	4523556864	60	14053
2026-01-18 04:55:09.71	221.42	3.48	-45.4	-56.8	3.8	8.46e-01	0	62	104	4523556864	60	14059
2026-01-18 04:55:13.75	221.29	3.21	-45.2	-56.8	3.8	8.45e-01	0	62	104	4523556864	60	14051
2026-01-18 04:55:17.79	221.16	2.95	-45.4	-56.8	3.8	8.45e-01	0	61	104	4523556864	60	14056
2026-01-18 04:55:21.84	221.03	2.69	-45.4	-56.8	3.8	8.46e-01	0	62	104	4523556864	60	14070
2026-01-18 04:55:25.88	220.91	2.43	-45.4	-56.7	3.8	8.47e-01	0	62	104	4523556864	60	14016
2026-01-18 04:55:29.93	220.79	2.17	-45.4	-56.7	3.8	8.46e-01	0	61	104	4523556864	60	14014

#Closed at: 2026-01-18 04:55:33
#Recorded file [4523 MB]: D:/lorett/data/31039_260118_074133.dat