passes_logs/2026/01/18/R2.0S_Moscow/R2.0S_Moscow__20260118_100853_SUOMI_NPP_rec.log

#Pass ID: 20260118_100853_SUOMI NPP
#Satellite: SUOMI NPP
#Configuration: NPP
#almurnet v.1.7.20251203
#Start time: 2026-01-18 10:08:55

#Version: 2.2.20231116
#Station: R2.0S_Moscow
#Location: 37.707566 lon 55.798166 lat
#TLE: 1 37849U 11061A   26017.28905266  .00000074  00000+0  55894-4 0  9999
#TLE: 2 37849  98.7814 319.3179 0002408  59.7048 300.4366 14.19525847737038

#Time	Az	El	Level	Level2	SNR	BER	BlckErr	Temp	State	Recorded	gain1	gain2
2026-01-18 10:08:55.29	165.06	2.14	-44.0	-58.4	3.8	1.49e+00	0	51	0	0	59	19161
2026-01-18 10:08:59.33	165.10	2.41	-44.0	-58.4	3.8	1.49e+00	0	52	104	0	59	19151
2026-01-18 10:09:03.37	165.14	2.67	-44.0	-58.5	3.8	1.49e+00	0	52	104	0	59	19214
2026-01-18 10:09:07.42	165.18	2.94	-44.0	-58.5	3.8	1.49e+00	0	53	104	0	59	19282
2026-01-18 10:09:11.46	165.22	3.21	-44.0	-58.5	3.8	1.49e+00	0	53	104	0	59	19228
2026-01-18 10:09:15.51	165.26	3.48	-44.0	-58.5	3.8	1.49e+00	0	53	104	0	59	19220
2026-01-18 10:09:19.55	165.30	3.76	-44.0	-58.4	3.8	1.49e+00	0	53	104	0	59	19130
2026-01-18 10:09:23.60	165.34	4.03	-44.0	-58.4	3.8	1.49e+00	0	54	104	0	59	19151
2026-01-18 10:09:27.64	165.38	4.31	-44.0	-58.4	3.8	1.49e+00	0	54	104	0	59	19150
2026-01-18 10:09:31.68	165.42	4.60	-43.9	-58.4	3.8	1.49e+00	0	54	104	0	59	19102
2026-01-18 10:09:35.73	165.47	4.89	-43.9	-58.4	3.8	1.49e+00	0	54	104	0	59	19085
2026-01-18 10:09:39.77	165.51	5.18	-43.9	-58.3	3.8	1.49e+00	0	54	104	0	59	18788
2026-01-18 10:09:43.81	165.56	5.47	-43.9	-57.5	3.8	1.49e+00	0	55	104	0	59	17146
2026-01-18 10:09:47.86	165.60	5.77	-43.8	-55.8	4.0	1.48e+00	0	55	104	0	59	14116
2026-01-18 10:09:51.90	165.65	6.07	-43.8	-56.7	3.8	1.49e+00	0	55	104	0	59	15623
2026-01-18 10:09:55.95	165.69	6.37	-43.8	-56.9	3.8	1.49e+00	0	55	104	0	59	16055
2026-01-18 10:09:59.99	165.74	6.68	-43.9	-57.8	3.8	1.49e+00	0	55	104	0	59	17726
2026-01-18 10:10:04.04	165.79	6.99	-43.8	-56.9	3.8	1.49e+00	0	56	104	0	59	16106
2026-01-18 10:10:08.08	165.84	7.30	-43.6	-54.1	4.4	1.28e+00	0	56	0	0	59	11652
2026-01-18 10:10:12.12	165.89	7.62	-43.3	-51.5	5.9	3.73e-01	0	56	0	8388608	58	9102
2026-01-18 10:10:16.16	165.94	7.94	-43.0	-50.3	6.8	1.99e-01	0	56	0	15728640	58	7923
2026-01-18 10:10:20.21	165.99	8.27	-43.7	-57.8	3.8	4.82e-01	0	56	104	17825792	58	18752
2026-01-18 10:10:24.25	166.05	8.60	-43.1	-49.6	7.7	1.15e-01	0	56	0	22020096	58	7359
2026-01-18 10:10:28.29	166.10	8.94	-43.0	-49.4	8.0	8.79e-02	0	56	0	30408704	58	7127
2026-01-18 10:10:32.33	166.15	9.28	-43.0	-49.3	8.1	7.54e-02	0	56	0	37748736	58	7071
2026-01-18 10:10:36.37	166.21	9.62	-43.0	-49.1	8.3	5.05e-02	0	57	0	45088768	57	7289
2026-01-18 10:10:40.41	166.27	9.97	-43.0	-49.0	8.4	4.39e-02	0	57	0	52428800	57	7269
2026-01-18 10:10:44.46	166.32	10.33	-42.9	-48.8	8.6	4.23e-02	0	57	0	60817408	57	7118
2026-01-18 10:10:48.50	166.38	10.69	-42.9	-48.5	9.0	2.32e-02	0	57	0	68157440	57	6827
2026-01-18 10:10:52.54	166.44	11.05	-42.8	-48.1	9.4	1.96e-02	0	57	0	75497472	57	6564
2026-01-18 10:10:56.56	166.50	11.42	-42.7	-47.8	9.7	1.07e-02	0	57	0	82837504	57	6307
2026-01-18 10:11:00.60	166.57	11.80	-42.6	-47.5	10.1	7.35e-03	0	57	0	90177536	57	6106
2026-01-18 10:11:04.64	166.63	12.18	-42.5	-47.4	10.3	5.02e-03	0	58	0	98566144	57	5995
2026-01-18 10:11:08.68	166.70	12.57	-42.5	-47.3	10.4	5.28e-03	0	58	0	105906176	56	6298
2026-01-18 10:11:12.71	166.76	12.96	-42.4	-47.0	10.8	3.15e-03	0	58	0	113246208	56	6096
2026-01-18 10:11:16.75	166.83	13.36	-42.3	-46.7	11.1	1.69e-03	0	58	0	120586240	56	5891
2026-01-18 10:11:20.79	166.90	13.77	-42.2	-46.4	11.4	1.38e-03	0	58	0	128974848	56	5690
2026-01-18 10:11:24.82	166.97	14.18	-42.2	-46.4	11.5	8.14e-04	0	58	0	136314880	56	5666
2026-01-18 10:11:28.86	167.05	14.60	-42.0	-46.0	11.8	4.94e-04	0	58	0	143654912	56	5439
2026-01-18 10:11:32.90	167.12	15.03	-41.8	-45.7	12.1	3.17e-04	0	58	0	150994944	55	5545
2026-01-18 10:11:36.94	167.20	15.47	-41.7	-45.4	12.4	1.70e-04	0	58	0	158334976	55	5351
2026-01-18 10:11:40.98	167.28	15.91	-41.8	-45.5	12.2	1.98e-04	0	58	0	166723584	55	5462
2026-01-18 10:11:45.02	167.36	16.37	-41.7	-45.4	12.4	2.31e-04	0	59	0	174063616	55	5398
2026-01-18 10:11:49.05	167.44	16.83	-41.6	-45.2	12.6	9.46e-05	0	58	0	181403648	55	5244
2026-01-18 10:11:53.09	167.53	17.30	-41.5	-44.9	12.9	4.80e-05	0	58	0	188743680	54	5387
2026-01-18 10:11:57.13	167.62	17.78	-41.6	-45.2	12.7	4.73e-05	0	59	0	196083712	54	5567
2026-01-18 10:12:01.17	167.71	18.27	-41.7	-45.3	12.6	8.62e-05	0	59	0	204472320	54	5617
2026-01-18 10:12:05.20	167.80	18.76	-41.8	-45.6	12.4	1.54e-04	0	59	0	211812352	54	5790
2026-01-18 10:12:09.24	167.89	19.27	-41.9	-45.8	12.1	1.89e-04	0	59	0	219152384	54	5929
2026-01-18 10:12:13.28	167.99	19.79	-41.7	-45.4	12.5	1.25e-04	0	59	0	226492416	54	5697
2026-01-18 10:12:17.32	168.09	20.32	-41.9	-45.7	12.2	1.95e-04	0	59	0	234881024	54	5864
2026-01-18 10:12:21.35	168.20	20.86	-42.1	-46.1	11.9	4.47e-04	0	59	0	242221056	54	6154
2026-01-18 10:12:25.39	168.31	21.42	-42.3	-46.5	11.5	7.54e-04	0	59	0	249561088	55	6064
2026-01-18 10:12:29.42	168.42	21.98	-42.3	-46.6	11.3	9.89e-04	0	59	0	256901120	55	6160
2026-01-18 10:12:33.46	168.53	22.56	-42.3	-46.5	11.4	1.04e-03	0	59	0	264241152	55	6104
2026-01-18 10:12:37.50	168.65	23.16	-42.4	-46.6	11.4	9.46e-04	0	59	0	272629760	55	6157
2026-01-18 10:12:41.54	168.77	23.76	-42.5	-46.8	11.1	1.26e-03	0	59	0	279969792	55	6324
2026-01-18 10:12:45.57	168.90	24.38	-42.3	-46.5	11.4	8.66e-04	0	59	0	287309824	55	6111
2026-01-18 10:12:49.61	169.03	25.02	-42.4	-46.8	11.2	9.12e-04	0	59	0	294649856	55	6276
2026-01-18 10:12:53.65	169.17	25.67	-42.4	-46.7	11.2	1.27e-03	0	59	0	303038464	55	6247
2026-01-18 10:12:57.68	169.31	26.33	-42.3	-46.4	11.5	8.36e-04	0	59	0	310378496	55	6058
2026-01-18 10:13:01.72	169.46	27.02	-42.1	-46.0	12.0	4.93e-04	0	59	0	317718528	55	5775
2026-01-18 10:13:05.76	169.62	27.72	-42.3	-46.3	11.7	5.70e-04	0	59	0	325058560	55	5974
2026-01-18 10:13:09.80	169.78	28.44	-42.4	-46.6	11.4	1.18e-03	0	59	0	332398592	55	6143
2026-01-18 10:13:13.83	169.94	29.18	-42.3	-46.4	11.6	5.48e-04	0	59	0	340787200	55	6010
2026-01-18 10:13:17.87	170.12	29.94	-42.5	-46.9	11.1	1.06e-03	0	59	0	348127232	55	6382
2026-01-18 10:13:21.91	170.30	30.72	-43.0	-47.8	10.4	3.73e-03	0	60	0	355467264	56	6673
2026-01-18 10:13:25.95	170.49	31.52	-43.0	-47.7	10.5	2.83e-03	0	59	0	362807296	56	6595
2026-01-18 10:13:29.99	170.69	32.34	-43.3	-48.5	9.6	1.16e-02	0	60	0	371195904	57	6859
2026-01-18 10:13:34.03	170.90	33.18	-43.4	-48.9	9.2	1.57e-02	0	60	0	378535936	57	7124
2026-01-18 10:13:38.07	171.12	34.05	-43.4	-48.7	9.4	1.37e-02	0	60	0	385875968	57	7006
2026-01-18 10:13:42.10	171.35	34.94	-43.0	-47.8	10.3	5.16e-03	0	60	0	393216000	57	6316
2026-01-18 10:13:46.14	171.60	35.86	-42.5	-46.6	11.6	7.45e-04	0	60	0	400556032	56	5830
2026-01-18 10:13:50.18	171.86	36.81	-42.1	-45.7	12.6	1.33e-04	0	60	0	408944640	56	5248
2026-01-18 10:13:54.21	172.13	37.78	-41.5	-44.7	13.5	1.29e-05	0	60	0	416284672	54	5238
2026-01-18 10:13:58.25	172.42	38.78	-41.5	-44.7	13.4	1.06e-05	0	60	0	423624704	54	5276
2026-01-18 10:14:02.29	172.73	39.81	-41.6	-45.0	13.2	2.05e-05	0	60	0	430964736	54	5423
2026-01-18 10:14:06.33	173.05	40.87	-42.0	-45.6	12.5	1.09e-04	0	60	0	438304768	54	5823
2026-01-18 10:14:10.37	173.40	41.97	-42.3	-46.3	11.9	2.64e-04	0	60	0	446693376	55	5941
2026-01-18 10:14:14.40	173.77	43.09	-42.2	-46.1	12.0	3.23e-04	0	60	0	454033408	55	5806
2026-01-18 10:14:18.44	174.17	44.25	-42.0	-45.6	12.5	6.48e-05	0	60	0	461373440	55	5516
2026-01-18 10:14:22.48	174.60	45.44	-43.0	-47.5	10.7	2.65e-03	0	60	0	468713472	56	6487
2026-01-18 10:14:26.52	175.06	46.66	-43.8	-49.8	8.4	4.26e-02	0	60	0	477102080	58	7536
2026-01-18 10:14:30.56	175.55	47.92	-43.7	-49.5	8.8	3.19e-02	0	60	0	484442112	58	7206
2026-01-18 10:14:34.60	176.09	49.22	-42.7	-46.9	11.4	2.28e-03	0	60	0	491782144	57	5690
2026-01-18 10:14:38.64	176.68	50.55	-41.6	-44.9	13.3	2.51e-05	0	60	0	499122176	55	5061
2026-01-18 10:14:42.68	177.32	51.92	-41.6	-44.9	13.3	4.95e-05	0	60	0	506462208	55	5047
2026-01-18 10:14:46.72	178.02	53.33	-40.8	-43.6	14.6	0.00e+00	0	60	0	514850816	53	4905
2026-01-18 10:14:50.75	178.78	54.76	-41.0	-43.8	14.4	7.00e-07	0	60	0	522190848	53	5035
2026-01-18 10:14:54.79	179.64	56.24	-40.4	-43.0	15.3	0.00e+00	0	60	0	529530880	52	4818
2026-01-18 10:14:58.83	180.58	57.75	-40.6	-43.3	14.9	0.00e+00	0	60	0	536870912	52	5019
2026-01-18 10:15:02.86	181.64	59.28	-41.1	-44.1	14.1	1.50e-06	0	60	0	545259520	52	5489
2026-01-18 10:15:06.90	182.83	60.85	-41.3	-44.4	13.7	9.10e-06	0	60	0	552599552	53	5390
2026-01-18 10:15:10.94	184.17	62.45	-40.8	-43.6	14.7	0.00e+00	0	60	0	559939584	53	4892
2026-01-18 10:15:14.98	185.71	64.07	-41.1	-44.0	14.2	0.00e+00	0	60	0	567279616	53	5134
2026-01-18 10:15:19.02	187.47	65.70	-40.9	-43.6	14.6	0.00e+00	0	60	0	574619648	53	4919
2026-01-18 10:15:23.05	189.52	67.34	-42.0	-45.5	12.7	2.36e-05	0	60	0	583008256	54	5760
2026-01-18 10:15:27.09	191.91	68.99	-42.4	-46.4	11.8	2.55e-04	0	60	0	590348288	55	6001
2026-01-18 10:15:31.13	194.75	70.63	-43.4	-48.5	9.7	1.74e-02	0	60	0	597688320	57	6809
2026-01-18 10:15:35.17	198.14	72.24	-43.5	-49.1	9.2	9.61e-03	0	60	0	605028352	57	7322
2026-01-18 10:15:39.20	202.21	73.80	-43.7	-49.3	8.9	8.22e-02	0	60	0	613416960	58	7095
2026-01-18 10:15:43.24	207.19	75.28	-42.9	-47.4	10.9	1.07e-03	0	60	0	620756992	56	6402
2026-01-18 10:15:47.28	213.27	76.66	-41.9	-45.3	12.9	2.17e-04	0	60	0	628097024	55	5335
2026-01-18 10:15:51.31	220.67	77.86	-43.2	-48.1	10.1	8.89e-04	0	60	0	635437056	56	6905
2026-01-18 10:15:55.36	229.61	78.83	-42.6	-46.6	11.6	9.38e-04	0	60	0	642777088	57	5505
2026-01-18 10:15:59.40	239.95	79.50	-43.1	-47.8	10.4	3.87e-03	0	61	0	651165696	56	6723
2026-01-18 10:16:03.43	251.28	79.79	-44.0	-50.6	7.6	9.41e-02	0	60	0	658505728	58	8238
2026-01-18 10:16:07.47	262.83	79.68	-43.5	-48.8	9.4	2.53e-02	0	60	0	665845760	58	6662
2026-01-18 10:16:11.51	273.71	79.18	-43.7	-49.4	8.7	4.60e-02	0	60	0	673185792	58	7184
2026-01-18 10:16:15.55	283.30	78.34	-43.7	-49.3	9.2	2.74e-02	0	60	0	681574400	58	7088
2026-01-18 10:16:19.58	291.36	77.23	-44.3	-51.8	6.5	1.75e-01	0	60	0	688914432	59	8914
2026-01-18 10:16:23.62	298.03	75.93	-42.8	-47.0	11.4	3.68e-03	0	61	0	696254464	57	5723
2026-01-18 10:16:27.66	303.47	74.49	-43.9	-50.3	7.8	5.43e-02	0	61	0	703594496	58	7981
2026-01-18 10:16:31.70	307.94	72.97	-43.3	-48.2	10.1	1.14e-02	0	60	0	710934528	58	6203
2026-01-18 10:16:35.74	311.62	71.38	-44.2	-51.4	6.9	1.37e-01	0	61	0	719323136	59	8464
2026-01-18 10:16:39.78	314.69	69.75	-43.2	-47.8	10.6	4.92e-03	0	61	0	726663168	58	5947
2026-01-18 10:16:43.82	317.27	68.11	-43.5	-48.7	9.5	8.91e-03	0	61	0	734003200	58	6596
2026-01-18 10:16:47.86	319.47	66.47	-40.9	-43.6	14.6	1.50e-06	0	61	0	741343232	53	4913
2026-01-18 10:16:51.89	321.35	64.84	-40.7	-43.3	15.0	7.00e-07	0	61	0	749731840	53	4739
2026-01-18 10:16:55.93	322.99	63.21	-41.4	-44.5	13.8	7.00e-07	0	60	0	757071872	53	5461
2026-01-18 10:16:59.97	324.41	61.61	-40.8	-43.5	14.8	7.00e-07	0	61	0	764411904	53	4851
2026-01-18 10:17:04.01	325.67	60.04	-42.6	-46.5	11.9	4.62e-04	0	61	0	771751936	56	5738
2026-01-18 10:17:08.05	326.79	58.49	-42.4	-46.0	12.4	6.56e-05	0	61	0	779091968	56	5464
2026-01-18 10:17:12.09	327.78	56.97	-41.0	-43.8	14.5	2.20e-06	0	60	0	787480576	54	4727
2026-01-18 10:17:16.13	328.67	55.48	-41.8	-45.2	13.1	1.50e-06	0	60	0	794820608	54	5585
2026-01-18 10:17:20.16	329.48	54.04	-41.5	-44.6	13.6	1.14e-05	0	61	0	802160640	54	5205
2026-01-18 10:17:24.20	330.21	52.62	-41.7	-44.9	13.4	2.97e-05	0	61	0	809500672	54	5376
2026-01-18 10:17:28.24	330.87	51.24	-43.2	-47.8	10.6	7.15e-03	0	60	0	817889280	57	6335
2026-01-18 10:17:32.28	331.48	49.90	-43.0	-47.3	11.0	1.40e-03	0	60	0	825229312	57	5991
2026-01-18 10:17:36.32	332.04	48.59	-43.8	-49.5	9.0	2.74e-02	0	60	0	832569344	58	7216
2026-01-18 10:17:40.35	332.56	47.32	-42.2	-45.6	12.8	8.39e-05	0	61	0	839909376	56	5199
2026-01-18 10:17:44.39	333.04	46.08	-43.9	-49.9	8.4	8.16e-02	0	60	0	847249408	59	7192
2026-01-18 10:17:48.42	333.48	44.88	-42.4	-46.0	12.4	4.13e-04	0	61	0	855638016	56	5462
2026-01-18 10:17:52.46	333.89	43.72	-42.0	-45.5	12.8	8.08e-05	0	61	0	862978048	54	5745
2026-01-18 10:17:56.50	334.28	42.58	-43.9	-50.0	8.3	1.10e-01	0	61	0	870318080	58	7688
2026-01-18 10:18:00.52	334.63	41.48	-40.8	-43.6	14.8	1.50e-06	0	61	0	877658112	53	4871
2026-01-18 10:18:04.56	334.97	40.41	-41.6	-44.7	13.6	3.80e-06	0	61	0	884998144	53	5592
2026-01-18 10:18:08.59	335.29	39.37	-43.2	-48.1	10.2	6.05e-03	0	61	0	893386752	57	6557
2026-01-18 10:18:12.63	335.59	38.36	-42.8	-47.1	11.3	2.86e-03	0	61	0	900726784	57	5799
2026-01-18 10:18:16.67	335.87	37.38	-42.0	-45.5	12.7	3.73e-05	0	61	0	908066816	55	5445
2026-01-18 10:18:20.71	336.13	36.42	-43.8	-49.6	8.6	2.01e-02	0	61	0	915406848	58	7337
2026-01-18 10:18:24.74	336.39	35.50	-43.5	-48.9	9.2	2.09e-02	0	60	0	923795456	58	6800
2026-01-18 10:18:28.78	336.63	34.60	-42.3	-46.0	12.4	1.57e-04	0	61	0	931135488	56	5406
2026-01-18 10:18:32.82	336.85	33.72	-43.5	-48.8	9.3	7.62e-03	0	61	0	938475520	57	7120
2026-01-18 10:18:36.85	337.07	32.87	-43.7	-49.5	8.7	4.51e-02	0	61	0	945815552	58	7231
2026-01-18 10:18:40.89	337.28	32.04	-43.4	-48.8	9.4	3.88e-02	0	61	0	953155584	58	6707
2026-01-18 10:18:44.93	337.47	31.23	-43.3	-48.4	9.8	1.22e-02	0	61	0	961544192	58	6400
2026-01-18 10:18:48.97	337.66	30.45	-43.5	-49.0	9.1	1.91e-02	0	61	0	968884224	58	6849
2026-01-18 10:18:53.00	337.84	29.68	-42.6	-46.7	11.4	2.16e-03	0	61	0	976224256	57	5575
2026-01-18 10:18:57.04	338.01	28.94	-42.5	-46.6	11.5	7.89e-04	0	61	0	983564288	56	5812
2026-01-18 10:19:01.08	338.18	28.21	-43.1	-48.1	10.0	4.38e-03	0	61	0	991952896	56	6948
2026-01-18 10:19:05.12	338.34	27.50	-42.8	-47.5	10.6	3.42e-03	0	61	0	999292928	56	6481
2026-01-18 10:19:09.15	338.49	26.81	-42.4	-46.5	11.6	7.02e-04	0	61	0	1006632960	56	5751
2026-01-18 10:19:13.20	338.64	26.14	-41.4	-44.8	13.2	3.96e-05	0	61	0	1013972992	54	5295
2026-01-18 10:19:17.24	338.78	25.48	-40.6	-43.5	14.3	1.50e-06	0	61	0	1021313024	53	4870
2026-01-18 10:19:21.27	338.92	24.84	-40.6	-43.5	14.3	0.00e+00	0	61	0	1029701632	52	5103
2026-01-18 10:19:25.31	339.05	24.22	-40.7	-43.7	14.0	3.00e-06	0	61	0	1037041664	52	5254
2026-01-18 10:19:29.35	339.18	23.61	-40.9	-44.1	13.5	1.29e-05	0	61	0	1044381696	52	5516
2026-01-18 10:19:33.39	339.30	23.01	-41.2	-44.8	12.7	7.09e-05	0	61	0	1051721728	53	5612
2026-01-18 10:19:37.42	339.42	22.43	-41.3	-45.1	12.1	3.30e-04	0	61	0	1060110336	53	5838
2026-01-18 10:19:41.46	339.54	21.86	-41.1	-45.2	11.5	1.25e-03	0	61	0	1067450368	53	5920
2026-01-18 10:19:45.50	339.65	21.30	-40.9	-45.2	11.3	1.30e-03	0	61	0	1074790400	53	5860
2026-01-18 10:19:49.54	339.76	20.75	-41.0	-46.0	10.2	3.55e-03	0	61	0	1082130432	53	6423
2026-01-18 10:19:53.58	339.86	20.22	-41.4	-49.8	6.0	2.54e-01	0	61	0	1089470464	53	9949
2026-01-18 10:19:57.61	339.97	19.70	-41.5	-52.6	4.4	1.10e+00	0	61	0	1097859072	53	13727
2026-01-18 10:20:01.64	340.07	19.19	-41.7	-54.5	3.8	1.49e+00	0	61	104	1097859072	54	16196
2026-01-18 10:20:05.68	340.16	18.68	-41.5	-55.0	3.8	1.49e+00	0	61	104	1097859072	54	17178
2026-01-18 10:20:09.72	340.26	18.19	-41.9	-55.2	3.8	1.49e+00	0	61	104	1097859072	54	17580
2026-01-18 10:20:13.76	340.35	17.71	-41.8	-55.7	3.8	1.49e+00	0	61	104	1097859072	54	18641
2026-01-18 10:20:17.80	340.44	17.24	-41.8	-56.2	3.8	1.49e+00	0	61	104	1097859072	54	19667
2026-01-18 10:20:21.84	340.53	16.77	-41.3	-55.6	3.8	1.49e+00	0	61	104	1097859072	54	18315
2026-01-18 10:20:25.88	340.61	16.32	-41.1	-55.7	3.8	1.49e+00	0	61	104	1097859072	53	19691
2026-01-18 10:20:29.92	340.70	15.87	-40.8	-55.6	3.8	1.49e+00	0	61	104	1097859072	53	19475
2026-01-18 10:20:33.96	340.78	15.43	-40.7	-55.6	3.8	1.49e+00	0	61	104	1097859072	53	19478
2026-01-18 10:20:38.00	340.86	15.00	-40.7	-55.6	3.8	1.49e+00	0	61	104	1097859072	53	19502
2026-01-18 10:20:42.04	340.93	14.57	-40.7	-55.6	3.8	1.49e+00	0	61	104	1097859072	53	19556
2026-01-18 10:20:46.08	341.01	14.16	-40.7	-55.5	3.8	1.49e+00	0	61	104	1097859072	53	19252
2026-01-18 10:20:50.12	341.08	13.75	-40.7	-55.4	3.8	1.49e+00	0	61	104	1097859072	53	19054
2026-01-18 10:20:54.16	341.16	13.35	-40.8	-55.5	3.8	1.49e+00	0	61	104	1097859072	52	20406
2026-01-18 10:20:58.20	341.23	12.95	-40.8	-55.5	3.8	1.49e+00	0	61	104	1097859072	52	20456
2026-01-18 10:21:02.24	341.30	12.56	-40.7	-55.4	3.8	1.49e+00	0	61	104	1097859072	52	20249
2026-01-18 10:21:06.28	341.37	12.18	-40.6	-55.3	3.8	1.49e+00	0	61	104	1097859072	52	19987
2026-01-18 10:21:10.32	341.43	11.80	-40.6	-55.3	3.8	1.49e+00	0	61	104	1097859072	52	19956
2026-01-18 10:21:14.36	341.50	11.43	-40.7	-55.3	3.8	1.49e+00	0	61	104	1097859072	52	20009
2026-01-18 10:21:18.39	341.57	11.06	-40.6	-55.3	3.8	1.49e+00	0	61	104	1097859072	52	19863
2026-01-18 10:21:22.43	341.63	10.70	-40.4	-55.2	3.8	1.49e+00	0	61	104	1097859072	52	19637
2026-01-18 10:21:26.47	341.69	10.34	-40.3	-55.2	3.8	1.49e+00	0	61	104	1097859072	52	19680
2026-01-18 10:21:30.51	341.75	9.99	-40.4	-55.1	3.8	1.49e+00	0	61	104	1097859072	52	19549
2026-01-18 10:21:34.55	341.81	9.65	-40.5	-55.2	3.8	1.49e+00	0	61	104	1097859072	52	19620
2026-01-18 10:21:38.59	341.87	9.31	-40.5	-55.1	3.8	1.49e+00	0	61	104	1097859072	52	19485
2026-01-18 10:21:42.63	341.93	8.97	-40.4	-55.1	3.8	1.49e+00	0	61	104	1097859072	52	19403
2026-01-18 10:21:46.67	341.99	8.64	-40.5	-55.1	3.8	1.49e+00	0	61	104	1097859072	52	19478
2026-01-18 10:21:50.71	342.04	8.31	-40.6	-55.1	3.8	1.49e+00	0	61	104	1097859072	52	19518
2026-01-18 10:21:54.75	342.10	7.99	-40.4	-55.2	3.8	1.49e+00	0	61	104	1097859072	52	19768
2026-01-18 10:21:58.80	342.16	7.67	-45.0	-59.7	3.8	1.49e+00	0	61	104	1097859072	60	20805
2026-01-18 10:22:02.84	342.21	7.35	-45.3	-59.9	3.8	1.49e+00	0	61	104	1097859072	61	20161
2026-01-18 10:22:06.88	342.26	7.04	-45.2	-59.8	3.8	1.49e+00	0	61	104	1097859072	61	20011
2026-01-18 10:22:10.92	342.32	6.73	-45.2	-59.7	3.8	1.49e+00	0	61	104	1097859072	61	19699
2026-01-18 10:22:14.97	342.37	6.43	-45.2	-59.7	3.8	1.49e+00	0	61	104	1097859072	61	19697
2026-01-18 10:22:19.01	342.42	6.13	-45.2	-59.6	3.8	1.49e+00	0	61	104	1097859072	61	19587
2026-01-18 10:22:23.06	342.47	5.83	-45.2	-59.7	3.8	1.49e+00	0	61	104	1097859072	61	19641
2026-01-18 10:22:27.10	342.52	5.53	-45.1	-59.7	3.8	1.49e+00	0	61	104	1097859072	61	19678
2026-01-18 10:22:31.14	342.57	5.24	-45.1	-59.6	3.8	1.49e+00	0	61	104	1097859072	61	19530
2026-01-18 10:22:35.19	342.62	4.95	-45.1	-59.6	3.8	1.49e+00	0	61	104	1097859072	61	19561
2026-01-18 10:22:39.23	342.66	4.67	-45.1	-59.6	3.8	1.49e+00	0	61	104	1097859072	61	19584
2026-01-18 10:22:43.27	342.71	4.39	-45.1	-59.6	3.8	1.49e+00	0	61	104	1097859072	61	19531
2026-01-18 10:22:47.32	342.76	4.11	-45.1	-59.6	3.8	1.49e+00	0	61	104	1097859072	61	19562
2026-01-18 10:22:51.37	342.81	3.83	-45.1	-59.6	3.8	1.49e+00	0	61	104	1097859072	61	19590
2026-01-18 10:22:55.41	342.85	3.56	-45.1	-59.7	3.8	1.49e+00	0	61	104	1097859072	61	19629
2026-01-18 10:22:59.45	342.90	3.29	-45.1	-59.7	3.8	1.49e+00	0	61	104	1097859072	61	19650
2026-01-18 10:23:03.49	342.94	3.02	-45.1	-59.6	3.8	1.49e+00	0	61	104	1097859072	61	19536
2026-01-18 10:23:07.54	342.99	2.76	-45.1	-59.6	3.8	1.49e+00	0	61	104	1097859072	61	19484
2026-01-18 10:23:11.58	343.03	2.49	-45.1	-59.6	3.8	1.49e+00	0	61	104	1097859072	61	19493
2026-01-18 10:23:15.62	343.07	2.23	-45.1	-59.6	3.8	1.49e+00	0	61	104	1097859072	61	19580
2026-01-18 10:23:19.67	343.12	1.98	-45.1	-59.6	3.8	1.49e+00	0	61	104	1097859072	61	19451

#Closed at: 2026-01-18 10:23:22
#Recorded file [1097 MB]: D:/lorett/data/31039_260118_130855.dat