passes_logs/2026/01/18/R2.0S_Moscow/R2.0S_Moscow__20260118_084956_NOAA_20_JPSS-1_rec.log

#Pass ID: 20260118_084956_NOAA 20 (JPSS-1)
#Satellite: NOAA 20 (JPSS-1)
#Configuration: NOAA 20
#almurnet v.1.7.20251203
#Start time: 2026-01-18 08:49:56

#Version: 2.2.20231116
#Station: R2.0S_Moscow
#Location: 37.707566 lon 55.798166 lat
#TLE: 1 43013U 17073A   26017.30359522  .00000067  00000+0  52526-4 0  9990
#TLE: 2 43013  98.7639 318.2187 0001419  36.2087 323.9184 14.19536557423067

#Time	Az	El	Level	Level2	SNR	BER	BlckErr	Temp	State	Recorded	gain1	gain2
2026-01-18 08:49:56.76	128.81	2.02	-29.6	-46.5	4.1	1.51e+00	0	52	0	0	31	24390
2026-01-18 08:50:00.78	128.63	2.27	-22.3	-39.8	4.6	1.50e+00	0	52	104	0	21	19872
2026-01-18 08:50:04.82	128.45	2.52	-33.5	-45.0	4.0	1.51e+00	0	52	104	0	28	24316
2026-01-18 08:50:08.86	128.26	2.77	-25.7	-46.9	4.1	1.51e+00	0	53	104	0	28	30103
2026-01-18 08:50:12.91	128.07	3.02	-22.3	-37.7	4.4	1.51e+00	0	53	104	0	30	9379
2026-01-18 08:50:16.95	127.87	3.28	-21.5	-38.0	3.8	1.51e+00	0	53	104	0	16	21538
2026-01-18 08:50:20.99	127.67	3.53	-21.6	-36.5	3.5	1.51e+00	0	53	104	0	14	20382
2026-01-18 08:50:25.04	127.47	3.79	-33.8	-49.9	4.3	1.51e+00	0	54	104	0	35	28563
2026-01-18 08:50:29.08	127.27	4.05	-33.3	-51.8	3.8	1.51e+00	0	54	104	0	37	31479
2026-01-18 08:50:33.12	127.06	4.32	-24.1	-45.0	3.8	1.51e+00	0	54	104	0	24	30419
2026-01-18 08:50:37.17	126.84	4.58	-20.6	-36.0	3.8	1.51e+00	0	54	104	0	19	14425
2026-01-18 08:50:41.21	126.62	4.85	-34.3	-43.2	-3.9	1.51e+00	0	55	104	0	23	26254
2026-01-18 08:50:45.25	126.40	5.12	-31.2	-47.2	3.7	1.51e+00	0	55	104	0	22	44374
2026-01-18 08:50:49.29	126.18	5.39	-34.4	-49.2	4.3	1.50e+00	0	55	104	0	34	27948
2026-01-18 08:50:53.34	125.94	5.67	-22.2	-40.2	4.6	1.51e+00	0	55	104	0	21	20974
2026-01-18 08:50:57.38	125.71	5.95	-30.8	-49.1	4.1	1.50e+00	0	55	104	0	32	31084
2026-01-18 08:51:01.43	125.47	6.23	-30.6	-45.2	4.1	1.51e+00	0	56	104	0	32	19684
2026-01-18 08:51:05.47	125.22	6.51	-33.1	-49.9	4.1	1.51e+00	0	56	104	0	30	37925
2026-01-18 08:51:09.51	124.97	6.80	-36.5	-52.7	4.2	1.51e+00	0	56	104	0	39	31312
2026-01-18 08:51:13.55	124.72	7.08	-37.2	-51.5	4.5	1.51e+00	0	56	104	0	39	27201
2026-01-18 08:51:17.59	124.46	7.37	-30.2	-44.0	4.2	1.50e+00	0	56	104	0	31	18173
2026-01-18 08:51:21.63	124.19	7.67	-26.7	-49.4	3.8	1.50e+00	0	56	104	0	33	30145
2026-01-18 08:51:25.68	123.92	7.96	-37.5	-49.0	4.9	1.34e+00	64	57	0	0	43	16311
2026-01-18 08:51:29.72	123.64	8.26	-25.0	-43.9	4.3	1.49e+00	0	57	104	0	22	30230
2026-01-18 08:51:33.76	123.36	8.56	-33.8	-49.3	4.0	1.50e+00	0	57	0	0	34	28316
2026-01-18 08:51:37.80	123.07	8.87	-27.7	-43.8	4.0	1.50e+00	0	57	104	0	30	18740
2026-01-18 08:51:41.84	122.78	9.18	-31.1	-46.3	3.9	1.51e+00	0	57	104	0	28	28039
2026-01-18 08:51:45.88	122.47	9.49	-32.7	-51.8	3.9	1.50e+00	0	57	104	0	34	37762
2026-01-18 08:51:49.92	122.16	9.80	-25.7	-43.1	3.8	1.50e+00	0	57	104	0	22	27449
2026-01-18 08:51:53.96	121.85	10.12	-35.8	-49.1	4.6	1.50e+00	0	58	104	0	33	29079
2026-01-18 08:51:58.00	121.53	10.44	-33.7	-50.2	4.5	1.49e+00	0	58	104	0	41	20839
2026-01-18 08:52:02.04	121.20	10.76	-37.9	-51.8	4.4	1.49e+00	0	58	104	0	46	18927
2026-01-18 08:52:06.07	120.86	11.09	-38.3	-48.7	4.8	1.43e+00	0	58	104	0	37	22261
2026-01-18 08:52:10.12	120.51	11.42	-37.6	-48.2	5.6	8.96e-01	40	58	104	3145728	40	17678
2026-01-18 08:52:14.16	120.16	11.76	-37.5	-49.1	5.9	9.43e-01	34	58	0	3145728	43	16448
2026-01-18 08:52:18.20	119.79	12.09	-33.1	-47.6	4.1	1.44e+00	0	58	104	3145728	34	23266
2026-01-18 08:52:22.24	119.42	12.44	-28.2	-45.4	4.5	1.15e+00	0	58	104	6291456	32	20216
2026-01-18 08:52:26.28	119.04	12.78	-37.6	-49.7	5.8	5.41e-01	51	59	0	10485760	44	16693
2026-01-18 08:52:30.31	118.66	13.13	-37.8	-48.7	6.7	6.71e-01	25	58	0	16777216	44	14866
2026-01-18 08:52:34.35	118.26	13.48	-37.8	-49.1	6.7	4.96e-01	12	59	0	22020096	47	13068
2026-01-18 08:52:38.39	117.85	13.84	-35.5	-48.1	7.1	2.29e-01	8	59	0	29360128	48	11006
2026-01-18 08:52:42.42	117.43	14.19	-32.7	-48.1	7.5	2.61e-01	12	59	0	36700160	45	13001
2026-01-18 08:52:46.46	117.00	14.56	-42.3	-48.9	8.5	9.50e-02	0	59	0	44040192	53	9027
2026-01-18 08:52:50.50	116.56	14.93	-41.9	-48.5	7.6	4.74e-02	2	59	0	51380224	54	8094
2026-01-18 08:52:54.53	116.11	15.30	-42.4	-47.8	9.7	5.61e-02	0	59	0	58720256	55	7065
2026-01-18 08:52:58.57	115.65	15.67	-42.4	-47.6	10.0	1.42e-02	0	59	0	67108864	55	6901
2026-01-18 08:53:02.61	115.17	16.05	-42.1	-47.6	9.6	1.31e-02	0	59	0	74448896	54	7311
2026-01-18 08:53:06.65	114.68	16.43	-42.3	-47.1	10.6	8.74e-03	0	59	0	81788928	55	6558
2026-01-18 08:53:10.68	114.18	16.82	-42.3	-47.2	10.5	4.59e-03	0	59	0	89128960	55	6626
2026-01-18 08:53:14.72	113.67	17.21	-42.4	-47.4	10.3	3.89e-03	0	59	0	97517568	55	6736
2026-01-18 08:53:18.76	113.14	17.60	-42.5	-47.4	10.5	3.76e-03	0	59	0	104857600	55	6725
2026-01-18 08:53:22.80	112.60	18.00	-42.5	-47.4	10.5	5.09e-03	0	59	0	112197632	55	6739
2026-01-18 08:53:26.84	112.04	18.40	-42.5	-47.2	10.7	3.04e-03	0	59	0	119537664	55	6612
2026-01-18 08:53:30.88	111.47	18.81	-42.5	-47.1	10.8	2.24e-03	0	59	0	126877696	55	6561
2026-01-18 08:53:34.91	110.89	19.21	-42.4	-46.8	11.1	1.86e-03	0	59	0	135266304	55	6346
2026-01-18 08:53:38.95	110.28	19.63	-42.5	-47.1	10.9	2.02e-03	0	59	0	142606336	55	6513
2026-01-18 08:53:42.99	109.66	20.04	-42.3	-46.5	11.5	7.12e-04	0	59	0	149946368	55	6130
2026-01-18 08:53:47.02	109.03	20.46	-42.2	-46.5	11.6	7.24e-04	0	59	0	157286400	55	6088
2026-01-18 08:53:51.06	108.37	20.88	-42.1	-46.2	11.9	4.45e-04	0	60	0	165675008	55	5908
2026-01-18 08:53:55.10	107.70	21.31	-42.1	-46.1	12.0	3.26e-04	0	60	0	173015040	55	5792
2026-01-18 08:53:59.14	107.01	21.74	-42.2	-46.4	11.7	6.59e-04	0	60	0	180355072	55	6040
2026-01-18 08:54:03.18	106.29	22.17	-42.3	-46.6	11.5	6.16e-04	0	60	0	187695104	55	6139
2026-01-18 08:54:07.21	105.56	22.60	-42.4	-46.8	11.3	9.82e-04	0	60	0	195035136	55	6314
2026-01-18 08:54:11.25	104.81	23.04	-42.5	-47.0	11.2	1.43e-03	0	60	0	203423744	55	6423
2026-01-18 08:54:15.29	104.03	23.48	-42.6	-47.2	10.9	2.56e-03	0	60	0	210763776	55	6631
2026-01-18 08:54:19.32	103.24	23.91	-42.9	-47.6	10.7	3.27e-03	0	60	0	218103808	56	6512
2026-01-18 08:54:23.36	102.42	24.35	-42.8	-47.5	10.8	2.48e-03	0	60	0	225443840	56	6484
2026-01-18 08:54:27.40	101.57	24.80	-42.7	-47.1	11.2	1.44e-03	0	60	0	232783872	56	6189
2026-01-18 08:54:31.43	100.71	25.24	-42.7	-47.1	11.3	1.16e-03	0	60	0	241172480	56	6159
2026-01-18 08:54:35.47	99.81	25.68	-42.5	-46.8	11.6	7.26e-04	0	60	0	248512512	56	5941
2026-01-18 08:54:39.51	98.90	26.12	-42.5	-46.8	11.7	6.09e-04	0	60	0	255852544	56	5934
2026-01-18 08:54:43.55	97.95	26.56	-42.6	-46.8	11.5	7.48e-04	0	60	0	263192576	56	5984
2026-01-18 08:54:47.58	96.98	27.00	-42.5	-46.5	11.9	4.52e-04	0	60	0	271581184	56	5782
2026-01-18 08:54:51.62	95.99	27.43	-42.6	-46.8	11.6	5.90e-04	0	60	0	278921216	56	5977
2026-01-18 08:54:55.66	94.96	27.86	-42.6	-46.9	11.5	6.96e-04	0	60	0	286261248	56	6023
2026-01-18 08:54:59.70	93.91	28.29	-42.9	-47.6	10.8	1.83e-03	0	60	0	293601280	56	6522
2026-01-18 08:55:03.74	92.82	28.72	-43.2	-48.3	10.1	6.27e-03	0	60	0	300941312	56	7112
2026-01-18 08:55:07.77	91.72	29.14	-43.6	-49.3	9.0	2.45e-02	0	60	0	309329920	57	7493
2026-01-18 08:55:11.81	90.58	29.55	-43.8	-50.0	8.4	4.76e-02	0	60	0	316669952	58	7679
2026-01-18 08:55:15.85	89.41	29.95	-43.8	-50.1	8.3	4.96e-02	0	60	0	324009984	58	7743
2026-01-18 08:55:19.89	88.21	30.35	-44.0	-50.8	7.6	9.55e-02	0	60	0	331350016	58	8435
2026-01-18 08:55:23.93	86.98	30.74	-44.2	-51.8	6.7	1.91e-01	0	60	0	339738624	59	8869
2026-01-18 08:55:27.96	85.72	31.12	-44.0	-50.6	7.7	9.47e-02	0	60	0	347078656	59	7802
2026-01-18 08:55:32.00	84.44	31.48	-43.8	-49.8	8.6	4.84e-02	0	60	0	354418688	59	7101
2026-01-18 08:55:36.04	83.12	31.84	-43.8	-49.9	8.5	3.88e-02	0	60	0	361758720	59	7147
2026-01-18 08:55:40.08	81.77	32.18	-43.7	-49.4	8.9	2.70e-02	0	61	0	369098752	59	6785
2026-01-18 08:55:44.12	80.40	32.51	-43.5	-49.1	9.4	1.76e-02	0	60	0	377487360	59	6503
2026-01-18 08:55:48.15	79.00	32.82	-43.4	-48.4	10.1	9.05e-03	0	60	0	384827392	58	6397
2026-01-18 08:55:52.19	77.58	33.11	-43.3	-48.2	10.3	4.64e-03	0	61	0	392167424	58	6244
2026-01-18 08:55:56.23	76.12	33.39	-43.2	-47.9	10.6	3.25e-03	0	60	0	399507456	58	6057
2026-01-18 08:56:00.27	74.65	33.65	-43.0	-47.6	10.9	1.89e-03	0	60	0	407896064	57	6178
2026-01-18 08:56:04.31	73.15	33.89	-43.1	-47.8	10.8	2.22e-03	0	60	0	415236096	57	6296
2026-01-18 08:56:08.34	71.63	34.10	-42.8	-47.0	11.5	6.54e-04	0	60	0	422576128	57	5765
2026-01-18 08:56:12.38	70.09	34.30	-42.5	-46.3	12.3	2.20e-04	0	61	0	429916160	56	5643
2026-01-18 08:56:16.42	68.54	34.47	-42.5	-46.5	12.1	2.73e-04	0	61	0	437256192	56	5778
2026-01-18 08:56:20.46	66.97	34.62	-43.2	-48.2	10.4	6.70e-04	0	60	0	445644800	57	6591
2026-01-18 08:56:24.50	65.38	34.74	-45.7	-60.5	3.8	1.49e+00	0	61	104	446693376	61	21544
2026-01-18 08:56:28.54	63.79	34.84	-45.5	-60.1	3.8	1.49e+00	0	61	104	446693376	61	20650
2026-01-18 08:56:32.57	62.18	34.92	-45.3	-59.8	3.8	1.49e+00	0	61	104	446693376	61	20068
2026-01-18 08:56:36.62	60.57	34.97	-45.2	-59.8	3.8	1.49e+00	0	61	104	446693376	61	19937
2026-01-18 08:56:40.66	58.96	34.99	-45.2	-59.8	3.8	1.49e+00	0	60	104	446693376	61	19913
2026-01-18 08:56:44.70	57.34	34.99	-45.2	-59.8	3.8	1.49e+00	0	61	104	446693376	61	19860
2026-01-18 08:56:48.75	55.72	34.96	-45.1	-59.7	3.8	1.49e+00	0	61	104	446693376	61	19682
2026-01-18 08:56:52.79	54.12	34.91	-45.2	-59.7	3.8	1.49e+00	0	61	104	446693376	61	19758
2026-01-18 08:56:56.83	52.51	34.83	-45.1	-59.7	3.8	1.49e+00	0	61	104	446693376	61	19660
2026-01-18 08:57:00.88	50.92	34.73	-45.1	-59.7	3.8	1.49e+00	0	61	104	446693376	61	19697
2026-01-18 08:57:04.92	49.34	34.60	-45.2	-59.7	3.8	1.49e+00	0	60	104	446693376	61	19719
2026-01-18 08:57:08.96	47.77	34.44	-45.1	-59.7	3.8	1.49e+00	0	61	104	446693376	61	19623
2026-01-18 08:57:13.01	46.21	34.27	-45.1	-59.6	3.8	1.49e+00	0	61	104	446693376	61	19593
2026-01-18 08:57:17.05	44.68	34.07	-45.1	-59.7	3.8	1.49e+00	0	61	104	446693376	61	19615
2026-01-18 08:57:21.09	43.17	33.85	-45.1	-59.6	3.8	1.49e+00	0	61	104	446693376	61	19610
2026-01-18 08:57:25.14	41.67	33.61	-45.1	-59.6	3.8	1.49e+00	0	61	104	446693376	61	19541
2026-01-18 08:57:29.17	40.20	33.35	-45.1	-59.6	3.8	1.49e+00	0	61	104	446693376	61	19570
2026-01-18 08:57:33.19	38.77	33.07	-45.1	-59.6	3.8	1.49e+00	0	61	104	446693376	61	19518
2026-01-18 08:57:37.23	37.35	32.77	-45.1	-59.6	3.8	1.49e+00	0	61	104	446693376	61	19475
2026-01-18 08:57:41.26	35.96	32.46	-45.1	-59.6	3.8	1.49e+00	0	61	104	446693376	61	19422
2026-01-18 08:57:45.30	34.59	32.13	-45.1	-59.6	3.8	1.49e+00	0	61	104	446693376	60	20632
2026-01-18 08:57:49.33	33.26	31.79	-45.1	-59.6	3.8	1.49e+00	0	61	104	446693376	60	20630
2026-01-18 08:57:53.35	31.96	31.44	-45.1	-59.5	3.8	1.49e+00	0	61	104	446693376	60	20536
2026-01-18 08:57:57.37	30.69	31.07	-45.0	-59.6	3.8	1.49e+00	0	61	104	446693376	60	20591
2026-01-18 08:58:01.40	29.44	30.70	-45.0	-59.6	3.8	1.49e+00	0	61	104	446693376	60	20562
2026-01-18 08:58:05.42	28.23	30.31	-45.0	-59.6	3.8	1.49e+00	0	61	104	446693376	60	20541
2026-01-18 08:58:09.44	27.04	29.91	-45.0	-59.6	3.8	1.49e+00	0	61	104	446693376	60	20541
2026-01-18 08:58:13.47	25.88	29.51	-44.8	-59.6	3.8	1.49e+00	0	61	104	446693376	60	20556
2026-01-18 08:58:17.50	24.75	29.10	-45.0	-59.6	3.8	1.49e+00	0	61	104	446693376	60	20564
2026-01-18 08:58:21.53	23.65	28.68	-45.0	-59.6	3.8	1.49e+00	0	61	104	446693376	60	20579
2026-01-18 08:58:25.55	22.59	28.26	-45.0	-59.5	3.8	1.49e+00	0	61	104	446693376	60	20533
2026-01-18 08:58:29.57	21.55	27.84	-45.0	-59.6	3.8	1.49e+00	0	61	104	446693376	60	20606
2026-01-18 08:58:33.59	20.53	27.41	-45.0	-59.5	3.8	1.49e+00	0	61	104	446693376	60	20508
2026-01-18 08:58:37.62	19.55	26.97	-45.0	-59.5	3.8	1.49e+00	0	61	104	446693376	60	20525
2026-01-18 08:58:41.65	18.59	26.54	-45.0	-59.5	3.8	1.49e+00	0	61	104	446693376	60	20483
2026-01-18 08:58:45.68	17.65	26.10	-45.0	-59.6	3.8	1.49e+00	0	61	104	446693376	60	20615
2026-01-18 08:58:49.72	16.74	25.66	-45.0	-59.5	3.8	1.49e+00	0	61	104	446693376	60	20515
2026-01-18 08:58:53.74	15.86	25.23	-45.0	-59.6	3.8	1.49e+00	0	61	104	446693376	60	20588
2026-01-18 08:58:57.77	15.00	24.79	-45.0	-59.5	3.8	1.49e+00	0	61	104	446693376	60	20509
2026-01-18 08:59:01.80	14.17	24.35	-45.0	-59.5	3.8	1.49e+00	0	61	104	446693376	60	20511
2026-01-18 08:59:05.82	13.36	23.91	-45.0	-59.5	3.8	1.49e+00	0	61	104	446693376	60	20505
2026-01-18 08:59:09.85	12.57	23.48	-45.0	-59.5	3.8	1.49e+00	0	61	104	446693376	60	20506
2026-01-18 08:59:13.86	11.80	23.05	-45.0	-59.5	3.8	1.49e+00	0	61	104	446693376	60	20521
2026-01-18 08:59:17.86	11.06	22.62	-45.0	-59.6	3.8	1.49e+00	0	61	104	446693376	60	20571
2026-01-18 08:59:21.87	10.34	22.19	-45.0	-59.5	3.8	1.49e+00	0	61	104	446693376	60	20513
2026-01-18 08:59:25.89	9.64	21.76	-45.0	-59.5	3.8	1.49e+00	0	61	104	446693376	60	20434
2026-01-18 08:59:29.90	8.96	21.34	-45.0	-59.5	3.8	1.49e+00	0	61	104	446693376	60	20442
2026-01-18 08:59:33.93	8.29	20.92	-45.0	-59.5	3.8	1.49e+00	0	61	104	446693376	60	20417
2026-01-18 08:59:37.97	7.64	20.50	-45.0	-59.5	3.8	1.49e+00	0	61	104	446693376	60	20441
2026-01-18 08:59:42.01	7.01	20.08	-45.0	-59.5	3.8	1.49e+00	0	61	104	446693376	60	20359
2026-01-18 08:59:46.03	6.39	19.67	-45.0	-59.5	3.8	1.49e+00	0	61	104	446693376	60	20357
2026-01-18 08:59:50.05	5.80	19.26	-45.0	-59.5	3.8	1.49e+00	0	61	104	446693376	60	20391
2026-01-18 08:59:54.08	5.22	18.85	-44.9	-59.5	3.8	1.49e+00	0	61	104	446693376	60	20390
2026-01-18 08:59:58.12	4.65	18.45	-44.9	-59.5	3.8	1.49e+00	0	61	104	446693376	60	20376
2026-01-18 09:00:02.15	4.10	18.05	-45.0	-59.5	3.8	1.49e+00	0	61	104	446693376	60	20344
2026-01-18 09:00:06.18	3.57	17.66	-44.9	-59.5	3.8	1.49e+00	0	61	104	446693376	60	20382
2026-01-18 09:00:10.21	3.04	17.26	-44.9	-59.5	3.8	1.49e+00	0	61	104	446693376	60	20360
2026-01-18 09:00:14.24	2.54	16.88	-44.9	-59.5	3.8	1.49e+00	0	61	104	446693376	60	20394
2026-01-18 09:00:18.27	2.04	16.49	-45.0	-59.5	3.8	1.49e+00	0	61	104	446693376	60	20437
2026-01-18 09:00:22.30	1.56	16.11	-44.9	-59.5	3.8	1.49e+00	0	61	104	446693376	60	20356
2026-01-18 09:00:26.33	1.09	15.74	-44.9	-59.5	3.8	1.49e+00	0	61	104	446693376	60	20391
2026-01-18 09:00:30.35	0.63	15.37	-44.9	-59.5	3.8	1.49e+00	0	61	104	446693376	60	20375
2026-01-18 09:00:34.38	0.19	15.00	-44.9	-59.5	3.8	1.49e+00	0	62	104	446693376	60	20397
2026-01-18 09:00:38.40	359.75	14.63	-44.9	-59.5	3.8	1.49e+00	0	61	104	446693376	60	20358
2026-01-18 09:00:42.44	359.33	14.27	-44.9	-59.5	3.8	1.49e+00	0	61	104	446693376	60	20434
2026-01-18 09:00:46.46	358.92	13.92	-44.9	-59.5	3.8	1.49e+00	0	61	104	446693376	60	20382
2026-01-18 09:00:50.48	358.51	13.56	-44.9	-59.5	3.8	1.49e+00	0	61	104	446693376	60	20329
2026-01-18 09:00:54.50	358.12	13.22	-44.9	-59.5	3.8	1.49e+00	0	61	104	446693376	60	20360
2026-01-18 09:00:58.51	357.74	12.87	-44.9	-59.5	3.8	1.49e+00	0	61	104	446693376	60	20411
2026-01-18 09:01:02.53	357.36	12.53	-44.9	-59.5	3.8	1.49e+00	0	61	104	446693376	60	20316
2026-01-18 09:01:06.55	357.00	12.19	-44.9	-59.5	3.8	1.49e+00	0	61	104	446693376	60	20345
2026-01-18 09:01:10.59	356.64	11.85	-44.9	-59.5	3.8	1.49e+00	0	61	104	446693376	60	20337
2026-01-18 09:01:14.62	356.29	11.52	-44.9	-59.5	3.8	1.49e+00	0	61	104	446693376	60	20368
2026-01-18 09:01:18.64	355.95	11.19	-44.9	-59.5	3.8	1.49e+00	0	61	104	446693376	60	20328
2026-01-18 09:01:22.67	355.62	10.87	-44.9	-59.5	3.8	1.49e+00	0	61	104	446693376	60	20344
2026-01-18 09:01:26.71	355.29	10.55	-44.9	-59.4	3.8	1.49e+00	0	61	104	446693376	60	20264
2026-01-18 09:01:30.74	354.97	10.23	-44.9	-59.4	3.8	1.49e+00	0	61	104	446693376	60	20296
2026-01-18 09:01:34.75	354.66	9.91	-44.9	-59.4	3.8	1.49e+00	0	61	104	446693376	60	20300
2026-01-18 09:01:38.79	354.36	9.60	-44.9	-59.4	3.8	1.49e+00	0	61	104	446693376	60	20295
2026-01-18 09:01:42.83	354.06	9.29	-44.9	-59.5	3.8	1.49e+00	0	61	104	446693376	60	20351
2026-01-18 09:01:46.86	353.77	8.98	-44.9	-59.5	3.8	1.49e+00	0	61	104	446693376	60	20361
2026-01-18 09:01:50.89	353.48	8.68	-44.9	-59.4	3.8	1.49e+00	0	61	104	446693376	60	20281
2026-01-18 09:01:54.92	353.21	8.38	-44.9	-59.5	3.8	1.49e+00	0	61	104	446693376	60	20339
2026-01-18 09:01:58.95	352.93	8.08	-44.9	-59.5	3.8	1.49e+00	0	61	104	446693376	60	20310
2026-01-18 09:02:02.99	352.67	7.79	-44.9	-59.5	3.8	1.49e+00	0	61	104	446693376	60	20317
2026-01-18 09:02:07.02	352.41	7.50	-44.9	-59.5	3.8	1.49e+00	0	61	104	446693376	60	20328
2026-01-18 09:02:11.06	352.15	7.21	-44.9	-59.4	3.8	1.49e+00	0	61	104	446693376	60	20262
2026-01-18 09:02:15.09	351.90	6.92	-44.9	-59.5	3.8	1.49e+00	0	61	104	446693376	60	20330
2026-01-18 09:02:19.13	351.65	6.64	-44.9	-59.4	3.8	1.49e+00	0	61	104	446693376	60	20255
2026-01-18 09:02:23.16	351.41	6.36	-44.9	-59.4	3.8	1.49e+00	0	61	104	446693376	60	20192
2026-01-18 09:02:27.19	351.18	6.08	-44.9	-59.5	3.8	1.49e+00	0	61	104	446693376	60	20306
2026-01-18 09:02:31.21	350.95	5.80	-44.9	-59.5	3.8	1.49e+00	0	61	104	446693376	60	20325
2026-01-18 09:02:35.24	350.72	5.53	-44.7	-59.4	3.8	1.49e+00	0	61	104	446693376	60	20277
2026-01-18 09:02:39.27	350.50	5.26	-44.9	-59.4	3.8	1.49e+00	0	61	104	446693376	60	20269
2026-01-18 09:02:43.31	350.28	4.99	-44.9	-59.4	3.8	1.49e+00	0	61	104	446693376	60	20289
2026-01-18 09:02:47.34	350.07	4.72	-44.9	-59.4	3.8	1.49e+00	0	61	104	446693376	60	20300
2026-01-18 09:02:51.37	349.86	4.46	-44.9	-59.5	3.8	1.49e+00	0	61	104	446693376	60	20305
2026-01-18 09:02:55.39	349.66	4.19	-44.9	-59.4	3.8	1.49e+00	0	61	104	446693376	60	20299
2026-01-18 09:02:59.42	349.46	3.93	-44.9	-59.4	3.8	1.49e+00	0	61	104	446693376	60	20302
2026-01-18 09:03:03.46	349.26	3.68	-44.9	-59.4	3.8	1.49e+00	0	61	104	446693376	60	20204
2026-01-18 09:03:07.50	349.07	3.42	-44.9	-59.5	3.8	1.49e+00	0	61	104	446693376	60	20316
2026-01-18 09:03:11.53	348.88	3.17	-44.9	-59.4	3.8	1.49e+00	0	61	104	446693376	60	20292
2026-01-18 09:03:15.55	348.69	2.91	-43.5	-58.9	3.8	1.49e+00	0	61	104	446693376	59	20281
2026-01-18 09:03:19.59	348.51	2.66	-44.7	-59.5	3.8	1.49e+00	0	61	104	446693376	60	20329
2026-01-18 09:03:23.63	348.33	2.41	-44.9	-59.4	3.8	1.49e+00	0	61	104	446693376	60	20297
2026-01-18 09:03:27.66	348.15	2.17	-44.9	-59.4	3.8	1.49e+00	0	61	104	446693376	60	20253
2026-01-18 09:03:31.69	347.98	1.92	-44.9	-59.5	3.8	1.49e+00	0	61	104	446693376	60	20354

#Closed at: 2026-01-18 09:03:32
#Recorded file [446 MB]: D:/lorett/data/31039_260118_114956.dat