passes_logs/2026/01/18/R2.0S_Moscow/R2.0S_Moscow__20260118_001820_SUOMI_NPP_rec.log

#Pass ID: 20260118_001820_SUOMI NPP
#Satellite: SUOMI NPP
#Configuration: NPP
#almurnet v.1.7.20251203
#Start time: 2026-01-18 00:18:20

#Version: 2.2.20231116
#Station: R2.0S_Moscow
#Location: 37.707566 lon 55.798166 lat
#TLE: 1 37849U 11061A   26017.28905266  .00000074  00000+0  55894-4 0  9999
#TLE: 2 37849  98.7814 319.3179 0002408  59.7048 300.4366 14.19525847737038

#Time	Az	El	Level	Level2	SNR	BER	BlckErr	Temp	State	Recorded	gain1	gain2
2026-01-18 00:18:20.97	13.92	2.01	-42.2	-56.7	3.8	1.49e+00	0	51	0	0	56	18570
2026-01-18 00:18:25.01	13.83	2.27	-42.0	-56.5	3.8	1.49e+00	0	51	104	0	55	19353
2026-01-18 00:18:29.06	13.75	2.53	-42.0	-56.5	3.8	1.49e+00	0	52	104	0	55	19295
2026-01-18 00:18:33.10	13.66	2.79	-42.0	-56.5	3.8	1.49e+00	0	52	104	0	55	19272
2026-01-18 00:18:37.14	13.57	3.05	-42.0	-56.5	3.8	1.49e+00	0	53	104	0	55	19269
2026-01-18 00:18:41.19	13.48	3.32	-42.0	-56.5	3.8	1.49e+00	0	53	104	0	55	19267
2026-01-18 00:18:45.23	13.39	3.59	-42.0	-56.5	3.8	1.49e+00	0	53	104	0	55	19231
2026-01-18 00:18:49.27	13.30	3.86	-42.0	-56.5	3.8	1.49e+00	0	53	104	0	55	19200
2026-01-18 00:18:53.32	13.20	4.13	-42.0	-56.2	3.8	1.49e+00	0	54	104	0	55	18697
2026-01-18 00:18:57.36	13.10	4.41	-42.0	-56.1	3.8	1.49e+00	0	54	104	0	55	18357
2026-01-18 00:19:01.40	13.00	4.68	-42.0	-56.0	3.8	1.49e+00	0	54	104	0	55	18247
2026-01-18 00:19:05.44	12.90	4.97	-42.0	-56.1	3.8	1.49e+00	0	54	104	0	55	18417
2026-01-18 00:19:09.49	12.80	5.25	-41.9	-55.7	3.8	1.49e+00	0	55	104	0	55	17620
2026-01-18 00:19:13.53	12.69	5.54	-41.9	-54.8	3.8	1.49e+00	0	55	104	0	55	15942
2026-01-18 00:19:17.57	12.58	5.83	-41.8	-54.3	3.9	1.48e+00	0	55	104	0	55	14905
2026-01-18 00:19:21.61	12.47	6.12	-41.9	-55.2	3.8	1.49e+00	0	55	104	0	55	16613
2026-01-18 00:19:25.66	12.35	6.42	-42.0	-56.5	3.8	1.49e+00	0	55	104	0	55	19244
2026-01-18 00:19:29.70	12.23	6.72	-41.8	-54.2	3.8	1.49e+00	0	56	104	0	55	14729
2026-01-18 00:19:33.75	12.11	7.02	-41.2	-48.9	6.3	2.87e-01	0	56	0	5242880	54	8554
2026-01-18 00:19:37.79	11.99	7.33	-40.6	-46.6	8.5	4.29e-02	0	56	0	12582912	53	6957
2026-01-18 00:19:41.83	11.86	7.64	-40.4	-46.1	9.1	2.23e-02	0	56	0	19922944	52	6904
2026-01-18 00:19:45.87	11.73	7.95	-40.8	-47.3	7.8	7.12e-02	0	56	0	27262976	52	7981
2026-01-18 00:19:49.92	11.60	8.27	-41.2	-52.5	4.2	3.90e-01	0	56	0	34603008	54	12896
2026-01-18 00:19:53.96	11.46	8.60	-41.0	-47.9	7.4	1.04e-01	0	57	0	39845888	53	8002
2026-01-18 00:19:57.99	11.33	8.92	-41.0	-48.4	6.7	1.82e-01	0	57	0	47185920	53	8555
2026-01-18 00:20:02.03	11.18	9.25	-41.0	-48.7	6.4	2.52e-01	0	57	0	54525952	53	8857
2026-01-18 00:20:06.07	11.04	9.58	-41.1	-49.3	6.0	3.23e-01	0	57	0	61865984	53	9394
2026-01-18 00:20:10.11	10.89	9.92	-41.2	-50.1	5.4	5.13e-01	0	57	0	70254592	53	10377
2026-01-18 00:20:14.14	10.73	10.27	-41.4	-51.4	4.7	8.14e-01	0	57	0	77594624	53	11987
2026-01-18 00:20:18.18	10.57	10.61	-41.2	-49.9	5.6	5.52e-01	0	57	0	84934656	53	10171
2026-01-18 00:20:22.22	10.41	10.97	-41.4	-49.6	5.9	3.35e-01	0	57	0	92274688	53	9796
2026-01-18 00:20:26.26	10.24	11.32	-41.3	-48.2	7.3	1.44e-01	0	57	0	99614720	53	8364
2026-01-18 00:20:30.29	10.07	11.68	-40.6	-45.8	9.7	1.68e-02	0	58	0	108003328	53	6309
2026-01-18 00:20:34.33	9.90	12.05	-40.4	-44.8	11.1	2.29e-03	0	58	0	115343360	52	5941
2026-01-18 00:20:38.37	9.71	12.42	-40.3	-44.5	11.6	7.80e-04	0	58	0	122683392	52	5733
2026-01-18 00:20:42.41	9.53	12.80	-40.8	-45.3	11.0	1.76e-03	0	58	0	130023424	52	6292
2026-01-18 00:20:46.44	9.34	13.19	-40.6	-44.7	11.9	4.82e-04	0	58	0	138412032	52	5872
2026-01-18 00:20:50.48	9.14	13.57	-41.2	-45.6	11.1	1.50e-03	0	58	0	145752064	52	6539
2026-01-18 00:20:54.52	8.94	13.97	-40.9	-44.9	12.1	3.99e-04	0	58	0	153092096	52	5994
2026-01-18 00:20:58.56	8.73	14.37	-41.0	-45.0	12.1	2.88e-04	0	58	0	160432128	52	6063
2026-01-18 00:21:02.60	8.51	14.78	-41.0	-44.7	12.4	1.47e-04	0	58	0	167772160	52	5905
2026-01-18 00:21:06.64	8.29	15.19	-41.0	-44.8	12.4	8.85e-05	0	58	0	176160768	52	5972
2026-01-18 00:21:10.68	8.06	15.62	-41.1	-44.8	12.5	1.19e-04	0	59	0	183500800	52	5948
2026-01-18 00:21:14.71	7.83	16.04	-41.1	-44.7	12.7	5.72e-05	0	59	0	190840832	52	5880
2026-01-18 00:21:18.75	7.59	16.48	-41.1	-44.7	12.8	8.69e-05	0	59	0	198180864	52	5863
2026-01-18 00:21:22.79	7.34	16.92	-41.1	-44.7	12.8	6.48e-05	0	59	0	206569472	53	5576
2026-01-18 00:21:26.83	7.08	17.37	-41.1	-44.6	13.0	3.73e-05	0	59	0	213909504	53	5496
2026-01-18 00:21:30.86	6.81	17.83	-41.2	-44.7	12.9	4.04e-05	0	59	0	221249536	53	5590
2026-01-18 00:21:34.91	6.54	18.29	-41.3	-44.9	12.8	5.72e-05	0	59	0	228589568	53	5721
2026-01-18 00:21:38.95	6.25	18.77	-41.2	-44.7	13.1	7.40e-05	0	59	0	235929600	53	5536
2026-01-18 00:21:42.99	5.96	19.25	-41.3	-44.9	12.9	4.57e-05	0	59	0	244318208	53	5680
2026-01-18 00:21:47.02	5.66	19.74	-41.3	-44.7	13.0	4.57e-05	0	59	0	251658240	53	5589
2026-01-18 00:21:51.06	5.34	20.24	-41.4	-45.0	12.8	5.87e-05	0	59	0	258998272	53	5734
2026-01-18 00:21:55.10	5.02	20.75	-41.6	-45.3	12.6	9.68e-05	0	59	0	266338304	53	5931
2026-01-18 00:21:59.14	4.68	21.27	-41.8	-45.7	12.1	2.46e-04	0	59	0	274726912	54	5900
2026-01-18 00:22:03.17	4.33	21.80	-41.8	-45.7	12.2	2.48e-04	0	59	0	282066944	54	5858
2026-01-18 00:22:07.21	3.97	22.34	-41.7	-45.5	12.5	1.32e-04	0	59	0	289406976	54	5753
2026-01-18 00:22:11.25	3.59	22.89	-41.6	-45.2	12.8	7.62e-05	0	59	0	296747008	54	5532
2026-01-18 00:22:15.29	3.20	23.45	-41.9	-45.9	12.1	2.01e-04	0	59	0	304087040	54	6018
2026-01-18 00:22:19.32	2.80	24.02	-42.2	-46.5	11.4	7.43e-04	0	59	0	312475648	55	6111
2026-01-18 00:22:23.36	2.38	24.60	-42.4	-46.7	11.2	1.65e-03	0	59	0	319815680	55	6268
2026-01-18 00:22:27.40	1.95	25.19	-42.4	-46.9	11.1	1.78e-03	0	59	0	327155712	55	6352
2026-01-18 00:22:31.43	1.49	25.79	-42.4	-46.7	11.2	1.11e-03	0	59	0	334495744	55	6254
2026-01-18 00:22:35.48	1.02	26.41	-42.3	-46.5	11.4	1.11e-03	0	60	0	342884352	55	6123
2026-01-18 00:22:39.52	0.53	27.04	-42.5	-47.1	11.0	1.65e-03	0	59	0	350224384	55	6515
2026-01-18 00:22:43.55	0.02	27.68	-42.8	-47.4	10.8	3.07e-03	0	60	0	357564416	56	6353
2026-01-18 00:22:47.59	359.49	28.33	-42.7	-47.2	11.0	2.42e-03	0	60	0	364904448	56	6212
2026-01-18 00:22:51.63	358.93	29.00	-43.1	-48.2	10.0	7.15e-03	0	60	0	372244480	56	7028
2026-01-18 00:22:55.66	358.35	29.68	-43.1	-48.0	10.2	1.26e-02	0	60	0	380633088	57	6430
2026-01-18 00:22:59.70	357.74	30.37	-42.9	-47.6	10.6	4.14e-03	0	60	0	387973120	57	6167
2026-01-18 00:23:03.75	357.11	31.08	-42.4	-46.5	11.8	1.56e-03	0	60	0	395313152	56	5751
2026-01-18 00:23:07.79	356.44	31.80	-42.4	-46.5	11.8	5.87e-04	0	60	0	402653184	56	5728
2026-01-18 00:23:11.82	355.75	32.53	-42.7	-47.0	11.3	2.37e-03	0	60	0	411041792	56	6064
2026-01-18 00:23:15.86	355.02	33.27	-43.4	-48.7	9.5	1.49e-02	0	60	0	418381824	57	7031
2026-01-18 00:23:19.90	354.26	34.03	-43.2	-48.1	10.1	1.40e-02	0	60	0	425721856	57	6543
2026-01-18 00:23:23.94	353.46	34.80	-43.4	-48.8	9.5	1.25e-02	0	60	0	433061888	57	7055
2026-01-18 00:23:27.97	352.63	35.58	-43.3	-48.6	9.7	1.55e-02	0	60	0	440401920	57	6894
2026-01-18 00:23:32.01	351.74	36.38	-44.3	-52.0	6.3	1.45e-01	0	60	0	448790528	59	9149
2026-01-18 00:23:36.05	350.82	37.19	-43.9	-50.3	8.0	1.30e-01	0	60	0	456130560	59	7495
2026-01-18 00:23:40.09	349.84	38.00	-43.4	-48.4	9.9	8.91e-03	0	60	0	463470592	58	6382
2026-01-18 00:23:44.12	348.82	38.83	-43.3	-48.2	10.1	9.83e-03	0	60	0	470810624	58	6251
2026-01-18 00:23:48.16	347.74	39.67	-43.8	-49.6	8.7	3.39e-02	0	60	0	478150656	58	7337
2026-01-18 00:23:52.20	346.60	40.51	-44.2	-51.2	7.1	2.17e-01	0	60	0	486539264	59	8307
2026-01-18 00:23:56.23	345.40	41.37	-44.6	-53.3	5.5	4.59e-01	0	60	0	493879296	59	10619
2026-01-18 00:24:00.27	344.14	42.22	-44.2	-50.9	7.3	1.16e-01	0	60	0	501219328	59	8066
2026-01-18 00:24:04.31	342.80	43.08	-43.3	-48.3	10.1	9.82e-03	0	60	0	508559360	58	6301
2026-01-18 00:24:08.35	341.39	43.95	-43.4	-48.5	9.9	7.32e-03	0	60	0	516947968	58	6456
2026-01-18 00:24:12.39	339.90	44.81	-43.6	-49.0	9.3	1.75e-02	0	60	0	524288000	58	6860
2026-01-18 00:24:16.42	338.33	45.66	-43.4	-48.3	10.0	1.04e-02	0	60	0	531628032	58	6341
2026-01-18 00:24:20.46	336.67	46.51	-42.9	-47.2	11.3	1.46e-03	0	60	0	538968064	57	5863
2026-01-18 00:24:24.50	334.92	47.35	-43.1	-47.5	11.0	3.34e-03	0	60	0	546308096	57	6127
2026-01-18 00:24:28.53	333.07	48.17	-42.7	-46.9	11.5	3.27e-04	0	60	0	554696704	56	6010
2026-01-18 00:24:32.57	331.12	48.97	-43.3	-48.2	10.3	6.00e-03	0	60	0	562036736	57	6573
2026-01-18 00:24:36.61	329.06	49.75	-43.3	-48.2	10.2	9.02e-03	0	60	0	569376768	57	6576
2026-01-18 00:24:40.65	326.90	50.51	-42.0	-45.4	13.0	2.28e-05	0	60	0	576716800	55	5379
2026-01-18 00:24:44.68	324.64	51.22	-41.9	-45.2	13.0	4.19e-05	0	60	0	585105408	55	5276
2026-01-18 00:24:48.72	322.26	51.90	-42.6	-46.7	11.6	5.61e-04	0	60	0	592445440	55	6265
2026-01-18 00:24:52.76	319.77	52.54	-42.3	-46.2	12.1	3.02e-04	0	60	0	599785472	55	5867
2026-01-18 00:24:56.80	317.17	53.12	-42.3	-46.0	12.4	3.21e-04	0	60	0	607125504	56	5458
2026-01-18 00:25:00.83	314.48	53.65	-41.9	-45.3	13.1	3.00e-06	0	60	0	614465536	54	5635
2026-01-18 00:25:04.87	311.69	54.12	-42.5	-46.5	11.7	3.07e-04	0	60	0	622854144	55	6112
2026-01-18 00:25:08.90	308.82	54.52	-41.8	-45.1	13.0	1.52e-05	0	60	0	630194176	55	5215
2026-01-18 00:25:12.94	305.87	54.84	-41.9	-45.4	12.9	6.40e-05	0	60	0	637534208	55	5396
2026-01-18 00:25:16.98	302.86	55.10	-40.4	-42.9	15.3	0.00e+00	0	60	0	644874240	52	4795
2026-01-18 00:25:21.01	299.81	55.27	-41.2	-44.2	14.0	7.00e-07	0	61	0	652214272	53	5265
2026-01-18 00:25:25.05	296.72	55.36	-40.2	-42.5	15.8	0.00e+00	0	61	0	660602880	51	4870
2026-01-18 00:25:29.09	293.62	55.37	-41.1	-44.1	14.2	2.20e-06	0	60	0	667942912	53	5171
2026-01-18 00:25:33.12	290.54	55.30	-40.7	-43.4	14.9	0.00e+00	0	60	0	675282944	52	5071
2026-01-18 00:25:37.16	287.47	55.14	-40.8	-43.6	14.7	7.00e-07	0	61	0	682622976	52	5185
2026-01-18 00:25:41.20	284.45	54.91	-41.1	-44.0	14.3	1.50e-06	0	61	0	691011584	53	5114
2026-01-18 00:25:45.23	281.48	54.59	-40.2	-42.7	15.6	0.00e+00	0	61	0	698351616	52	4666
2026-01-18 00:25:49.27	278.59	54.21	-39.9	-42.2	16.2	0.00e+00	0	60	0	705691648	51	4701
2026-01-18 00:25:53.31	275.77	53.76	-40.0	-42.3	16.1	0.00e+00	0	61	0	713031680	51	4706
2026-01-18 00:25:57.35	273.05	53.24	-40.5	-43.1	15.2	0.00e+00	0	60	0	720371712	52	4875
2026-01-18 00:26:01.39	270.43	52.67	-41.7	-45.1	13.1	9.10e-06	0	60	0	728760320	53	5825
2026-01-18 00:26:05.42	267.92	52.04	-41.8	-45.3	12.9	5.64e-05	0	60	0	736100352	54	5594
2026-01-18 00:26:09.46	265.52	51.37	-42.5	-46.6	11.5	6.23e-04	0	60	0	743440384	55	6196
2026-01-18 00:26:13.50	263.22	50.66	-42.5	-46.4	12.0	2.75e-04	0	61	0	750780416	56	5672
2026-01-18 00:26:17.54	261.03	49.91	-42.9	-47.4	10.9	1.73e-03	0	61	0	759169024	56	6386
2026-01-18 00:26:21.58	258.94	49.13	-42.3	-46.0	12.3	2.84e-04	0	61	0	766509056	56	5437
2026-01-18 00:26:25.62	256.97	48.33	-42.9	-47.3	11.1	8.28e-04	0	61	0	773849088	56	6284
2026-01-18 00:26:29.65	255.10	47.51	-42.5	-46.4	12.0	1.89e-04	0	60	0	781189120	56	5690
2026-01-18 00:26:33.69	253.32	46.67	-44.3	-51.6	6.7	1.26e-01	0	61	0	788529152	59	8703
2026-01-18 00:26:37.73	251.63	45.82	-44.3	-51.5	6.8	2.23e-01	0	61	0	796917760	59	8638
2026-01-18 00:26:41.77	250.04	44.96	-43.4	-48.5	9.8	1.80e-02	0	61	0	804257792	58	6426
2026-01-18 00:26:45.82	248.52	44.10	-42.3	-45.9	12.5	1.84e-04	0	61	0	811597824	56	5391
2026-01-18 00:26:49.86	247.09	43.23	-43.2	-47.9	10.5	2.19e-03	0	61	0	818937856	56	6750
2026-01-18 00:26:53.90	245.74	42.37	-43.3	-48.3	9.9	6.48e-03	0	61	0	827326464	57	6696
2026-01-18 00:26:57.94	244.45	41.51	-43.6	-49.2	9.1	2.20e-02	0	61	0	834666496	58	7008
2026-01-18 00:27:01.98	243.24	40.65	-43.5	-48.9	9.3	2.39e-02	0	61	0	842006528	58	6780
2026-01-18 00:27:06.02	242.08	39.80	-43.9	-50.0	8.2	4.39e-02	0	61	0	849346560	58	7646
2026-01-18 00:27:10.06	240.99	38.96	-43.3	-48.4	9.9	1.59e-02	0	61	0	856686592	58	6354
2026-01-18 00:27:14.10	239.95	38.12	-43.4	-48.5	9.7	8.67e-03	0	61	0	865075200	58	6460
2026-01-18 00:27:18.14	238.96	37.30	-43.1	-47.9	10.3	7.00e-03	0	61	0	872415232	57	6389
2026-01-18 00:27:22.18	238.02	36.49	-43.6	-49.4	8.6	2.84e-02	0	60	0	879755264	57	7597
2026-01-18 00:27:26.22	237.13	35.69	-43.4	-48.5	9.7	2.44e-02	0	60	0	887095296	58	6460
2026-01-18 00:27:30.25	236.28	34.90	-43.1	-47.9	10.4	4.04e-03	0	61	0	895483904	57	6365
2026-01-18 00:27:34.29	235.47	34.12	-44.0	-50.5	7.7	6.98e-02	0	61	0	902823936	58	8091
2026-01-18 00:27:38.33	234.70	33.36	-43.2	-48.1	10.1	3.57e-03	0	61	0	910163968	58	6163
2026-01-18 00:27:42.37	233.96	32.61	-43.4	-48.8	9.4	1.08e-02	0	61	0	917504000	57	7082
2026-01-18 00:27:46.41	233.25	31.87	-43.4	-48.8	9.3	2.03e-02	0	61	0	924844032	57	7120
2026-01-18 00:27:50.44	232.58	31.15	-43.5	-49.1	9.1	2.52e-02	0	61	0	933232640	58	6901
2026-01-18 00:27:54.48	231.94	30.44	-43.9	-50.4	7.8	7.91e-02	0	61	0	940572672	58	7992
2026-01-18 00:27:58.52	231.33	29.74	-42.8	-47.2	11.1	3.67e-03	0	61	0	947912704	57	5858
2026-01-18 00:28:02.56	230.74	29.06	-42.3	-46.2	12.1	1.90e-04	0	61	0	955252736	56	5533
2026-01-18 00:28:06.59	230.17	28.39	-42.8	-47.3	10.8	2.42e-03	0	61	0	963641344	56	6315
2026-01-18 00:28:10.63	229.63	27.73	-43.3	-48.6	9.6	1.05e-02	0	61	0	970981376	57	6903
2026-01-18 00:28:14.67	229.12	27.08	-42.6	-46.8	11.3	1.20e-03	0	61	0	978321408	57	5642
2026-01-18 00:28:18.70	228.62	26.45	-42.6	-46.8	11.4	9.63e-04	0	61	0	985661440	56	5934
2026-01-18 00:28:22.74	228.14	25.83	-42.3	-46.2	11.9	4.73e-04	0	61	0	993001472	56	5590
2026-01-18 00:28:26.78	227.68	25.22	-42.7	-47.2	11.0	1.41e-03	0	61	0	1001390080	56	6208
2026-01-18 00:28:30.81	227.24	24.62	-42.7	-47.0	11.1	1.99e-03	0	61	0	1008730112	56	6129
2026-01-18 00:28:34.85	226.81	24.04	-42.2	-45.9	12.2	2.95e-04	0	61	0	1016070144	56	5396
2026-01-18 00:28:38.89	226.40	23.46	-42.1	-45.9	12.2	2.04e-04	0	61	0	1023410176	56	5365
2026-01-18 00:28:42.93	226.01	22.90	-41.8	-45.5	12.5	9.23e-05	0	61	0	1031798784	55	5418
2026-01-18 00:28:46.97	225.63	22.35	-42.4	-46.6	11.3	9.41e-04	0	60	0	1039138816	55	6193
2026-01-18 00:28:51.00	225.26	21.80	-43.0	-47.8	10.2	5.56e-03	0	61	0	1046478848	56	6702
2026-01-18 00:28:55.04	224.91	21.27	-42.5	-46.6	11.3	1.47e-03	0	61	0	1053818880	56	5850
2026-01-18 00:28:59.08	224.56	20.75	-42.6	-46.9	11.2	1.26e-03	0	61	0	1061158912	56	6017
2026-01-18 00:29:03.12	224.23	20.24	-42.8	-47.4	10.7	2.77e-03	0	61	0	1069547520	56	6352
2026-01-18 00:29:07.15	223.91	19.73	-42.6	-47.0	11.0	2.03e-03	0	61	0	1076887552	56	6117
2026-01-18 00:29:11.19	223.61	19.24	-42.4	-46.5	11.6	7.24e-04	0	61	0	1084227584	56	5746
2026-01-18 00:29:15.23	223.31	18.75	-42.0	-45.8	12.3	2.21e-04	0	61	0	1091567616	56	5284
2026-01-18 00:29:19.26	223.02	18.28	-41.7	-45.4	12.4	1.29e-04	0	61	0	1099956224	55	5382
2026-01-18 00:29:23.30	222.74	17.81	-41.9	-45.8	12.0	3.04e-04	0	61	0	1107296256	55	5625
2026-01-18 00:29:27.34	222.47	17.35	-42.3	-46.6	11.2	9.30e-04	0	61	0	1114636288	55	6164
2026-01-18 00:29:31.38	222.20	16.89	-42.7	-47.6	10.2	5.10e-03	0	61	0	1121976320	55	6916
2026-01-18 00:29:35.41	221.95	16.45	-43.1	-48.4	9.4	1.80e-02	0	61	0	1129316352	56	7158
2026-01-18 00:29:39.45	221.70	16.01	-43.0	-48.3	9.5	1.57e-02	0	61	0	1137704960	56	7096
2026-01-18 00:29:43.49	221.46	15.58	-42.8	-47.7	10.2	6.76e-03	0	61	0	1145044992	56	6590
2026-01-18 00:29:47.53	221.23	15.16	-42.7	-47.5	10.3	5.22e-03	0	61	0	1152385024	56	6433
2026-01-18 00:29:51.57	221.00	14.74	-42.7	-47.4	10.4	5.65e-03	0	61	0	1159725056	56	6400
2026-01-18 00:29:55.60	220.78	14.33	-42.8	-47.8	10.0	6.58e-03	0	61	0	1167065088	56	6654
2026-01-18 00:29:59.64	220.57	13.93	-42.8	-47.8	9.9	1.44e-02	0	61	0	1175453696	56	6698
2026-01-18 00:30:03.67	220.36	13.53	-43.0	-48.5	9.2	2.07e-02	0	61	0	1182793728	56	7281
2026-01-18 00:30:07.71	220.16	13.14	-42.9	-48.1	9.5	2.07e-02	0	61	0	1190133760	56	6947
2026-01-18 00:30:11.75	219.96	12.75	-42.7	-47.9	9.8	1.11e-02	0	61	0	1197473792	56	6739
2026-01-18 00:30:15.79	219.77	12.37	-42.8	-48.0	9.6	1.16e-02	0	61	0	1205862400	56	6829
2026-01-18 00:30:19.82	219.59	12.00	-42.8	-48.1	9.5	1.52e-02	0	61	0	1213202432	56	6891
2026-01-18 00:30:23.86	219.41	11.63	-42.9	-48.5	9.1	2.42e-02	0	61	0	1220542464	56	7228
2026-01-18 00:30:27.90	219.23	11.26	-43.0	-49.0	8.6	3.77e-02	0	61	0	1227882496	56	7637
2026-01-18 00:30:31.94	219.06	10.90	-43.1	-49.1	8.3	4.45e-02	0	61	0	1235222528	56	7791
2026-01-18 00:30:35.98	218.89	10.55	-43.1	-49.4	8.1	6.18e-02	0	61	0	1243611136	56	8014
2026-01-18 00:30:40.02	218.73	10.20	-42.9	-48.9	8.5	5.25e-02	0	61	0	1250951168	56	7595
2026-01-18 00:30:44.06	218.57	9.86	-42.8	-48.7	8.7	4.12e-02	0	61	0	1258291200	56	7404
2026-01-18 00:30:48.09	218.41	9.52	-42.7	-48.5	8.9	3.37e-02	0	61	0	1265631232	56	7205
2026-01-18 00:30:52.13	218.26	9.18	-42.7	-48.5	8.8	3.45e-02	0	61	0	1274019840	56	7265
2026-01-18 00:30:56.17	218.11	8.85	-42.7	-48.5	8.8	3.53e-02	0	61	0	1281359872	56	7268
2026-01-18 00:31:00.21	217.97	8.52	-42.7	-48.7	8.5	4.76e-02	0	61	0	1288699904	56	7426
2026-01-18 00:31:04.24	217.83	8.20	-42.7	-49.0	8.1	5.74e-02	0	61	0	1296039936	56	7648
2026-01-18 00:31:08.28	217.69	7.88	-44.8	-59.4	3.8	1.49e+00	0	61	104	1301282816	60	20095
2026-01-18 00:31:12.32	217.56	7.56	-45.2	-59.8	3.8	1.49e+00	0	61	104	1301282816	60	21028
2026-01-18 00:31:16.36	217.43	7.25	-45.3	-59.8	3.8	1.49e+00	0	61	104	1301282816	61	20020
2026-01-18 00:31:20.41	217.30	6.94	-45.2	-59.7	3.8	1.49e+00	0	61	104	1301282816	61	19746
2026-01-18 00:31:24.45	217.17	6.64	-45.1	-59.7	3.8	1.49e+00	0	61	104	1301282816	61	19710
2026-01-18 00:31:28.49	217.05	6.34	-45.2	-59.7	3.8	1.49e+00	0	61	104	1301282816	61	19690
2026-01-18 00:31:32.53	216.93	6.04	-45.2	-59.7	3.8	1.49e+00	0	61	104	1301282816	61	19657
2026-01-18 00:31:36.58	216.81	5.74	-45.2	-59.6	3.8	1.49e+00	0	61	104	1301282816	61	19572
2026-01-18 00:31:40.62	216.70	5.45	-45.1	-59.6	3.8	1.49e+00	0	61	104	1301282816	61	19584
2026-01-18 00:31:44.66	216.58	5.16	-45.1	-59.6	3.8	1.49e+00	0	61	104	1301282816	61	19522
2026-01-18 00:31:48.70	216.47	4.88	-45.1	-59.6	3.8	1.49e+00	0	61	104	1301282816	61	19519
2026-01-18 00:31:52.74	216.37	4.60	-45.1	-59.6	3.8	1.49e+00	0	61	104	1301282816	61	19516
2026-01-18 00:31:56.79	216.26	4.32	-45.1	-59.6	3.8	1.49e+00	0	61	104	1301282816	61	19439
2026-01-18 00:32:00.83	216.16	4.04	-45.1	-59.6	3.8	1.49e+00	0	61	104	1301282816	61	19521
2026-01-18 00:32:04.88	216.06	3.76	-45.1	-59.6	3.8	1.49e+00	0	61	104	1301282816	61	19483
2026-01-18 00:32:08.92	215.96	3.49	-45.1	-59.6	3.8	1.49e+00	0	61	104	1301282816	61	19491
2026-01-18 00:32:12.96	215.86	3.22	-45.1	-59.5	3.8	1.49e+00	0	61	104	1301282816	61	19387
2026-01-18 00:32:17.00	215.76	2.96	-45.1	-59.6	3.8	1.49e+00	0	61	104	1301282816	61	19504
2026-01-18 00:32:21.04	215.67	2.69	-45.1	-59.6	3.8	1.49e+00	0	61	104	1301282816	61	19437
2026-01-18 00:32:25.09	215.58	2.43	-45.1	-59.6	3.8	1.49e+00	0	61	104	1301282816	61	19438
2026-01-18 00:32:29.13	215.49	2.17	-45.1	-59.6	3.8	1.49e+00	0	61	104	1301282816	61	19412

#Closed at: 2026-01-18 00:32:32
#Recorded file [1301 MB]: D:/lorett/data/31039_260118_031820.dat