passes_logs/2026/01/18/R2.0S_Moscow/R2.0S_Moscow__20260118_030114_FENGYUN_3E_rec.log

#Pass ID: 20260118_030114_FENGYUN 3E
#Satellite: FENGYUN 3E
#Configuration: FENGYUN 3E
#almurnet v.1.7.20251203
#Start time: 2026-01-18 03:01:16

#Version: 2.2.20231116
#Station: R2.0S_Moscow
#Location: 37.707566 lon 55.798166 lat
#TLE: 1 49008U 21062A   26017.26067429  .00000278  00000+0  15192-3 0  9991
#TLE: 2 49008  98.7484  22.3628 0002125 132.6872 227.4483 14.19886454235162

#Time	Az	El	Level	Level2	SNR	BER	BlckErr	Temp	State	Recorded	gain1	gain2
2026-01-18 03:01:16.20	21.13	2.09	-42.2	-53.6	3.8	8.46e-01	0	52	0	0	55	12988
2026-01-18 03:01:20.25	21.32	2.33	-42.2	-53.6	3.8	8.46e-01	0	52	104	0	55	13010
2026-01-18 03:01:24.29	21.51	2.58	-42.2	-53.6	3.8	8.46e-01	0	53	104	0	55	12976
2026-01-18 03:01:28.33	21.70	2.83	-42.3	-53.5	3.8	8.46e-01	0	53	104	0	55	12951
2026-01-18 03:01:32.38	21.90	3.08	-42.2	-53.6	3.8	8.47e-01	0	54	104	0	55	13022
2026-01-18 03:01:36.42	22.10	3.33	-42.2	-53.6	3.8	8.45e-01	0	54	104	0	55	12992
2026-01-18 03:01:40.46	22.30	3.58	-42.3	-53.6	3.8	8.46e-01	0	54	104	0	55	13053
2026-01-18 03:01:44.51	22.50	3.84	-42.2	-53.6	3.8	8.46e-01	0	54	104	0	55	12973
2026-01-18 03:01:48.55	22.71	4.10	-42.2	-53.6	3.8	8.46e-01	0	54	104	0	55	13063
2026-01-18 03:01:52.59	22.92	4.36	-42.2	-53.6	3.8	8.47e-01	0	55	104	0	55	13022
2026-01-18 03:01:56.64	23.14	4.62	-42.2	-53.6	3.8	8.45e-01	0	55	104	0	55	13046
2026-01-18 03:02:00.68	23.36	4.89	-42.2	-53.5	3.8	8.47e-01	0	55	104	0	55	12950
2026-01-18 03:02:04.73	23.58	5.16	-42.2	-53.6	3.8	8.47e-01	0	55	104	0	55	13012
2026-01-18 03:02:08.77	23.80	5.43	-42.2	-53.5	3.8	8.46e-01	0	56	104	0	55	12936
2026-01-18 03:02:12.81	24.03	5.70	-42.2	-53.6	3.8	8.46e-01	0	56	104	0	55	13002
2026-01-18 03:02:16.86	24.27	5.98	-42.3	-53.6	3.8	8.46e-01	0	56	104	0	55	13022
2026-01-18 03:02:20.90	24.51	6.25	-42.2	-53.5	3.8	8.46e-01	0	56	104	0	55	12821
2026-01-18 03:02:24.94	24.75	6.54	-42.2	-53.6	3.8	8.46e-01	0	56	104	0	55	13000
2026-01-18 03:02:28.99	24.99	6.82	-42.2	-53.6	3.8	8.46e-01	0	57	104	0	55	13051
2026-01-18 03:02:33.03	25.25	7.10	-42.2	-53.3	3.8	8.46e-01	0	57	104	0	55	12657
2026-01-18 03:02:37.07	25.50	7.39	-42.0	-51.2	3.9	8.45e-01	0	57	104	0	54	10448
2026-01-18 03:02:41.12	25.76	7.69	-40.7	-45.8	6.5	2.71e-01	0	57	0	4194304	52	6320
2026-01-18 03:02:45.16	26.03	7.98	-38.0	-40.5	11.8	6.99e-04	0	57	0	33554432	47	4583
2026-01-18 03:02:49.20	26.30	8.28	-39.9	-42.8	10.6	1.75e-03	0	57	0	58720256	49	5280
2026-01-18 03:02:53.24	26.57	8.58	-38.6	-40.9	12.4	1.29e-04	0	57	0	88080384	48	4526
2026-01-18 03:02:57.28	26.85	8.88	-38.6	-40.9	12.6	9.84e-05	0	58	0	117440512	48	4499
2026-01-18 03:03:01.32	27.14	9.19	-38.3	-40.4	13.1	2.97e-05	0	58	0	146800640	47	4510
2026-01-18 03:03:05.36	27.43	9.50	-38.5	-40.6	13.0	4.11e-05	0	58	0	176160768	47	4644
2026-01-18 03:03:09.41	27.73	9.81	-38.4	-40.5	13.3	2.40e-05	0	58	0	204472320	47	4555
2026-01-18 03:03:13.45	28.04	10.13	-38.3	-40.3	13.6	8.00e-06	0	58	0	233832448	47	4450
2026-01-18 03:03:17.49	28.35	10.45	-38.3	-40.2	13.8	6.80e-06	0	58	0	263192576	47	4433
2026-01-18 03:03:21.53	28.66	10.78	-38.3	-40.2	13.9	3.40e-06	0	58	0	292552704	47	4424
2026-01-18 03:03:25.57	28.99	11.10	-38.2	-40.1	14.1	5.70e-06	0	59	0	321912832	47	4357
2026-01-18 03:03:29.61	29.32	11.43	-38.1	-39.9	14.2	2.20e-06	0	59	0	350224384	47	4289
2026-01-18 03:03:33.64	29.65	11.77	-38.1	-39.8	14.5	0.00e+00	0	59	0	379584512	46	4480
2026-01-18 03:03:37.68	30.00	12.11	-38.0	-39.8	14.5	0.00e+00	0	59	0	408944640	46	4450
2026-01-18 03:03:41.72	30.35	12.45	-38.0	-39.7	14.7	0.00e+00	0	59	0	438304768	46	4399
2026-01-18 03:03:45.76	30.71	12.80	-37.9	-39.6	14.8	0.00e+00	0	59	0	467664896	46	4361
2026-01-18 03:03:49.79	31.08	13.14	-37.8	-39.4	15.0	0.00e+00	0	59	0	495976448	46	4283
2026-01-18 03:03:53.83	31.46	13.50	-37.8	-39.5	15.0	0.00e+00	0	59	0	525336576	46	4301
2026-01-18 03:03:57.86	31.85	13.86	-37.7	-39.3	15.1	0.00e+00	0	59	0	554696704	46	4240
2026-01-18 03:04:01.91	32.24	14.22	-37.7	-39.3	15.2	0.00e+00	0	59	0	584056832	46	4217
2026-01-18 03:04:05.95	32.65	14.59	-37.6	-39.2	15.3	0.00e+00	0	59	0	613416960	46	4179
2026-01-18 03:04:09.99	33.06	14.96	-37.7	-39.3	15.3	0.00e+00	0	60	0	641728512	46	4218
2026-01-18 03:04:14.03	33.49	15.34	-37.5	-39.1	15.5	0.00e+00	0	59	0	671088640	45	4355
2026-01-18 03:04:18.07	33.92	15.72	-37.5	-39.0	15.6	0.00e+00	0	59	0	700448768	45	4336
2026-01-18 03:04:22.11	34.37	16.10	-37.5	-39.0	15.6	0.00e+00	0	60	0	729808896	45	4318
2026-01-18 03:04:26.15	34.82	16.49	-37.3	-38.7	15.9	0.00e+00	0	60	0	759169024	45	4189
2026-01-18 03:04:30.19	35.29	16.89	-37.0	-38.5	16.2	0.00e+00	0	59	0	787480576	44	4315
2026-01-18 03:04:34.23	35.77	17.28	-36.8	-38.2	16.5	0.00e+00	0	59	0	816840704	44	4170
2026-01-18 03:04:38.27	36.27	17.69	-36.8	-38.2	16.6	0.00e+00	0	60	0	846200832	44	4158
2026-01-18 03:04:42.31	36.77	18.10	-36.9	-38.3	16.5	0.00e+00	0	59	0	875560960	44	4197
2026-01-18 03:04:46.35	37.29	18.51	-37.0	-38.4	16.4	0.00e+00	0	60	0	903872512	44	4270
2026-01-18 03:04:50.39	37.83	18.93	-36.9	-38.3	16.5	0.00e+00	0	60	0	933232640	44	4208
2026-01-18 03:04:54.43	38.38	19.35	-36.7	-38.1	16.7	0.00e+00	0	60	0	962592768	44	4110
2026-01-18 03:04:58.47	38.94	19.78	-36.2	-37.5	17.2	0.00e+00	0	60	0	991952896	43	4054
2026-01-18 03:05:02.51	39.52	20.21	-36.2	-37.5	17.2	0.00e+00	0	60	0	1021313024	43	4073
2026-01-18 03:05:06.55	40.11	20.65	-36.2	-37.5	17.2	0.00e+00	0	60	0	1050673152	43	4064
2026-01-18 03:05:10.59	40.72	21.09	-36.3	-37.6	17.2	0.00e+00	0	60	0	1078984704	43	4107
2026-01-18 03:05:14.63	41.35	21.53	-36.3	-37.6	17.2	0.00e+00	0	60	0	1108344832	43	4100
2026-01-18 03:05:18.66	42.00	21.98	-36.2	-37.5	17.3	0.00e+00	0	60	0	1137704960	43	4064
2026-01-18 03:05:22.70	42.66	22.44	-36.2	-37.5	17.3	0.00e+00	0	60	0	1167065088	43	4072
2026-01-18 03:05:26.74	43.35	22.90	-36.0	-37.3	17.5	0.00e+00	0	60	0	1196425216	42	4211
2026-01-18 03:05:30.78	44.05	23.36	-35.8	-37.1	17.7	0.00e+00	0	60	0	1224736768	42	4099
2026-01-18 03:05:34.81	44.78	23.83	-35.7	-36.9	17.9	0.00e+00	0	60	0	1254096896	42	4017
2026-01-18 03:05:38.85	45.52	24.30	-35.5	-36.7	18.1	0.00e+00	0	60	0	1283457024	41	4160
2026-01-18 03:05:42.89	46.29	24.77	-35.5	-36.7	18.1	0.00e+00	0	60	0	1312817152	41	4158
2026-01-18 03:05:46.93	47.09	25.25	-35.7	-37.0	17.9	0.00e+00	0	60	0	1342177280	41	4294
2026-01-18 03:05:50.97	47.90	25.73	-35.6	-36.8	18.0	0.00e+00	0	60	0	1371537408	41	4231
2026-01-18 03:05:55.01	48.74	26.21	-35.7	-36.9	17.9	0.00e+00	0	60	0	1399848960	41	4260
2026-01-18 03:05:59.05	49.61	26.70	-35.4	-36.6	18.2	0.00e+00	0	61	0	1429209088	41	4121
2026-01-18 03:06:03.10	50.51	27.19	-35.4	-36.6	18.3	0.00e+00	0	60	0	1458569216	41	4115
2026-01-18 03:06:07.14	51.43	27.68	-35.4	-36.6	18.3	0.00e+00	0	60	0	1487929344	41	4104
2026-01-18 03:06:11.18	52.38	28.17	-35.3	-36.5	18.4	0.00e+00	0	61	0	1517289472	41	4056
2026-01-18 03:06:15.22	53.35	28.66	-35.2	-36.4	18.5	0.00e+00	0	61	0	1546649600	41	4015
2026-01-18 03:06:19.26	54.36	29.15	-35.3	-36.4	18.5	0.00e+00	0	60	0	1574961152	41	4042
2026-01-18 03:06:23.29	55.40	29.63	-35.3	-36.5	18.5	0.00e+00	0	60	0	1604321280	41	4055
2026-01-18 03:06:27.33	56.46	30.12	-35.4	-36.6	18.4	0.00e+00	0	61	0	1633681408	41	4114
2026-01-18 03:06:31.36	57.56	30.60	-35.3	-36.4	18.5	0.00e+00	0	61	0	1663041536	41	4042
2026-01-18 03:06:35.40	58.70	31.08	-35.4	-36.6	18.3	0.00e+00	0	61	0	1692401664	41	4117
2026-01-18 03:06:39.44	59.87	31.56	-35.1	-36.3	18.7	0.00e+00	0	61	0	1720713216	41	3968
2026-01-18 03:06:43.48	61.07	32.03	-35.3	-36.4	18.5	0.00e+00	0	61	0	1750073344	41	4025
2026-01-18 03:06:47.52	62.30	32.49	-35.2	-36.3	18.6	0.00e+00	0	61	0	1779433472	41	3997
2026-01-18 03:06:51.56	63.58	32.95	-35.4	-36.6	18.4	0.00e+00	0	61	0	1808793600	41	4126
2026-01-18 03:06:55.60	64.88	33.39	-35.4	-36.5	18.4	0.00e+00	0	61	0	1838153728	41	4089
2026-01-18 03:06:59.64	66.23	33.83	-35.2	-36.3	18.7	0.00e+00	0	61	0	1866465280	41	3995
2026-01-18 03:07:03.67	67.60	34.25	-35.4	-36.6	18.4	0.00e+00	0	61	0	1895825408	40	4366
2026-01-18 03:07:07.71	69.01	34.67	-35.2	-36.3	18.7	0.00e+00	0	61	0	1925185536	40	4235
2026-01-18 03:07:11.75	70.46	35.06	-35.4	-36.6	18.5	0.00e+00	0	61	0	1954545664	40	4352
2026-01-18 03:07:15.80	71.95	35.45	-35.5	-36.7	18.4	0.00e+00	0	61	0	1982857216	40	4405
2026-01-18 03:07:19.84	73.47	35.81	-35.2	-36.3	18.7	0.00e+00	0	61	0	2012217344	40	4229
2026-01-18 03:07:23.88	75.02	36.16	-35.3	-36.4	18.6	0.00e+00	0	61	0	2041577472	40	4267
2026-01-18 03:07:27.92	76.60	36.49	-35.1	-36.2	18.9	0.00e+00	0	61	0	2070937600	40	4162
2026-01-18 03:07:31.97	78.22	36.79	-35.0	-36.1	19.0	0.00e+00	0	61	0	2100297728	40	4110
2026-01-18 03:07:36.01	79.86	37.07	-35.6	-36.8	18.5	0.00e+00	0	61	0	2129657856	42	3984
2026-01-18 03:07:40.04	81.53	37.33	-35.4	-36.5	18.6	0.00e+00	0	61	0	2157969408	41	4087
2026-01-18 03:07:44.08	83.23	37.57	-35.4	-36.5	18.6	0.00e+00	0	61	0	2187329536	41	4092
2026-01-18 03:07:48.12	84.95	37.77	-35.2	-36.3	18.8	0.00e+00	0	61	0	2216689664	41	3971
2026-01-18 03:07:52.16	86.69	37.95	-35.2	-36.3	18.8	0.00e+00	0	61	0	2246049792	41	3963
2026-01-18 03:07:56.20	88.44	38.10	-35.1	-36.2	18.9	0.00e+00	0	61	0	2275409920	41	3932
2026-01-18 03:08:00.24	90.22	38.22	-35.1	-36.2	18.9	0.00e+00	0	61	0	2303721472	40	4193
2026-01-18 03:08:04.28	92.00	38.31	-35.2	-36.3	18.8	0.00e+00	0	61	0	2333081600	40	4203
2026-01-18 03:08:08.32	93.79	38.37	-35.3	-36.5	18.6	0.00e+00	0	61	0	2362441728	40	4293
2026-01-18 03:08:12.36	95.59	38.40	-35.3	-36.4	18.7	0.00e+00	0	61	0	2391801856	40	4277
2026-01-18 03:08:16.39	97.38	38.40	-35.0	-36.1	19.0	0.00e+00	0	61	0	2421161984	40	4131
2026-01-18 03:08:20.43	99.18	38.37	-35.2	-36.3	18.7	0.00e+00	0	61	0	2449473536	40	4223
2026-01-18 03:08:24.47	100.97	38.30	-35.1	-36.2	18.9	0.00e+00	0	61	0	2478833664	40	4186
2026-01-18 03:08:28.51	102.76	38.21	-35.6	-36.8	18.4	0.00e+00	0	61	0	2508193792	40	4442
2026-01-18 03:08:32.55	104.53	38.08	-35.3	-36.4	18.7	0.00e+00	0	61	0	2537553920	40	4263
2026-01-18 03:08:36.59	106.28	37.93	-35.5	-36.6	18.5	0.00e+00	0	61	0	2566914048	40	4387
2026-01-18 03:08:40.63	108.02	37.75	-35.4	-36.6	18.5	0.00e+00	0	61	0	2595225600	40	4352
2026-01-18 03:08:44.67	109.74	37.54	-35.5	-36.6	18.4	0.00e+00	0	61	0	2624585728	40	4391
2026-01-18 03:08:48.71	111.44	37.30	-35.2	-36.3	18.8	0.00e+00	0	61	0	2653945856	40	4216
2026-01-18 03:08:52.75	113.11	37.04	-35.0	-36.1	18.9	0.00e+00	0	61	0	2683305984	40	4130
2026-01-18 03:08:56.79	114.76	36.75	-35.4	-36.6	18.5	0.00e+00	0	61	0	2712666112	40	4342
2026-01-18 03:09:00.83	116.37	36.44	-35.5	-36.6	18.4	0.00e+00	0	61	0	2742026240	40	4374
2026-01-18 03:09:04.86	117.95	36.11	-35.4	-36.6	18.4	0.00e+00	0	61	0	2770337792	40	4346
2026-01-18 03:09:08.90	119.50	35.76	-35.0	-36.1	18.9	0.00e+00	0	61	0	2799697920	40	4139
2026-01-18 03:09:12.94	121.02	35.39	-35.4	-36.5	18.5	0.00e+00	0	61	0	2829058048	40	4312
2026-01-18 03:09:16.98	122.50	35.01	-35.3	-36.4	18.6	0.00e+00	0	61	0	2858418176	40	4268
2026-01-18 03:09:21.02	123.95	34.61	-35.3	-36.5	18.6	0.00e+00	0	61	0	2887778304	40	4303
2026-01-18 03:09:25.06	125.37	34.19	-35.2	-36.3	18.7	0.00e+00	0	61	0	2916089856	40	4222
2026-01-18 03:09:29.10	126.75	33.76	-35.3	-36.4	18.6	0.00e+00	0	61	0	2945449984	40	4270
2026-01-18 03:09:33.14	128.09	33.32	-35.7	-36.9	18.1	0.00e+00	0	61	0	2974810112	40	4494
2026-01-18 03:09:37.18	129.40	32.87	-35.3	-36.4	18.6	0.00e+00	0	61	0	3004170240	41	4041
2026-01-18 03:09:41.22	130.67	32.41	-35.4	-36.5	18.5	0.00e+00	0	61	0	3033530368	41	4084
2026-01-18 03:09:45.25	131.90	31.94	-35.5	-36.6	18.4	0.00e+00	0	61	0	3062890496	41	4121
2026-01-18 03:09:49.30	133.11	31.47	-35.7	-36.9	18.1	0.00e+00	0	61	0	3091202048	41	4282
2026-01-18 03:09:53.34	134.27	30.99	-35.5	-36.7	18.4	0.00e+00	0	61	0	3120562176	41	4174
2026-01-18 03:09:57.38	135.41	30.51	-35.4	-36.6	18.5	0.00e+00	0	61	0	3149922304	41	4099
2026-01-18 03:10:01.42	136.51	30.02	-35.8	-37.0	18.0	0.00e+00	0	61	0	3179282432	41	4330
2026-01-18 03:10:05.46	137.58	29.53	-35.6	-36.8	18.2	0.00e+00	0	61	0	3208642560	41	4222
2026-01-18 03:10:09.50	138.61	29.04	-35.5	-36.7	18.3	0.00e+00	0	61	0	3236954112	41	4161
2026-01-18 03:10:13.54	139.62	28.54	-35.8	-37.0	18.0	0.00e+00	0	61	0	3266314240	41	4303
2026-01-18 03:10:17.58	140.60	28.05	-35.9	-37.1	17.9	0.00e+00	0	62	0	3295674368	41	4375
2026-01-18 03:10:21.62	141.55	27.56	-35.7	-36.9	18.1	0.00e+00	0	61	0	3325034496	41	4263
2026-01-18 03:10:25.66	142.47	27.06	-35.7	-36.9	18.1	0.00e+00	0	61	0	3354394624	41	4244
2026-01-18 03:10:29.70	143.36	26.57	-35.6	-36.8	18.1	0.00e+00	0	61	0	3383754752	41	4220
2026-01-18 03:10:33.74	144.22	26.08	-35.7	-36.9	18.0	0.00e+00	0	61	0	3412066304	41	4254
2026-01-18 03:10:37.79	145.07	25.60	-35.7	-36.8	18.1	0.00e+00	0	61	0	3441426432	41	4241
2026-01-18 03:10:41.83	145.88	25.11	-35.8	-37.0	17.9	0.00e+00	0	62	0	3470786560	41	4321
2026-01-18 03:10:45.86	146.67	24.63	-35.8	-36.9	17.9	0.00e+00	0	61	0	3500146688	41	4291
2026-01-18 03:10:49.89	147.44	24.15	-35.6	-36.8	18.1	0.00e+00	0	61	0	3529506816	41	4196
2026-01-18 03:10:53.93	148.18	23.68	-35.9	-37.1	17.8	0.00e+00	0	61	0	3557818368	41	4383
2026-01-18 03:10:57.97	148.91	23.21	-36.3	-37.6	17.3	0.00e+00	0	61	0	3587178496	42	4346
2026-01-18 03:11:02.01	149.61	22.74	-36.2	-37.5	17.4	0.00e+00	0	61	0	3616538624	42	4320
2026-01-18 03:11:06.05	150.29	22.28	-35.9	-37.1	17.8	0.00e+00	0	61	0	3645898752	42	4137
2026-01-18 03:11:10.09	150.96	21.82	-36.0	-37.2	17.6	0.00e+00	0	61	0	3675258880	42	4172
2026-01-18 03:11:14.13	151.60	21.37	-36.3	-37.5	17.3	0.00e+00	0	61	0	3703570432	42	4320
2026-01-18 03:11:18.17	152.23	20.92	-36.3	-37.6	17.2	0.00e+00	0	61	0	3732930560	42	4372
2026-01-18 03:11:22.21	152.84	20.48	-36.3	-37.6	17.2	0.00e+00	0	61	0	3762290688	42	4361
2026-01-18 03:11:26.25	153.43	20.04	-36.2	-37.4	17.3	0.00e+00	0	61	0	3791650816	42	4273
2026-01-18 03:11:30.29	154.01	19.60	-36.4	-37.7	17.1	0.00e+00	0	61	0	3819962368	42	4427
2026-01-18 03:11:34.33	154.57	19.17	-36.6	-37.9	16.9	0.00e+00	0	62	0	3849322496	42	4535
2026-01-18 03:11:38.37	155.11	18.75	-36.7	-38.1	16.7	0.00e+00	0	62	0	3878682624	43	4365
2026-01-18 03:11:42.41	155.64	18.33	-36.7	-38.0	16.7	0.00e+00	0	61	0	3908042752	43	4331
2026-01-18 03:11:46.45	156.16	17.91	-36.7	-38.1	16.7	0.00e+00	0	61	0	3937402880	43	4351
2026-01-18 03:11:50.49	156.67	17.50	-36.8	-38.1	16.6	0.00e+00	0	61	0	3965714432	43	4382
2026-01-18 03:11:54.53	157.16	17.10	-36.8	-38.2	16.5	0.00e+00	0	61	0	3995074560	43	4424
2026-01-18 03:11:58.57	157.64	16.69	-37.0	-38.4	16.3	0.00e+00	0	61	0	4024434688	43	4507
2026-01-18 03:12:02.61	158.10	16.30	-37.1	-38.5	16.2	0.00e+00	0	61	0	4053794816	43	4587
2026-01-18 03:12:06.64	158.56	15.91	-37.2	-38.7	16.2	0.00e+00	0	61	0	4083154944	44	4400
2026-01-18 03:12:10.68	159.00	15.52	-37.4	-38.8	16.0	0.00e+00	0	61	0	4111466496	44	4477
2026-01-18 03:12:14.72	159.43	15.14	-37.4	-38.9	15.9	0.00e+00	0	61	0	4140826624	44	4511
2026-01-18 03:12:18.77	159.85	14.76	-37.6	-39.1	15.7	0.00e+00	0	61	0	4170186752	44	4643
2026-01-18 03:12:22.80	160.26	14.39	-37.8	-39.3	15.5	0.00e+00	0	61	0	4199546880	45	4482
2026-01-18 03:12:26.84	160.67	14.02	-37.9	-39.5	15.2	0.00e+00	0	61	0	4228907008	45	4572
2026-01-18 03:12:30.88	161.06	13.65	-38.0	-39.6	15.1	0.00e+00	0	61	0	4258267136	45	4650
2026-01-18 03:12:34.92	161.44	13.29	-38.1	-39.7	14.9	0.00e+00	0	61	0	4286578688	45	4687
2026-01-18 03:12:38.96	161.82	12.93	-38.4	-40.1	14.6	0.00e+00	0	62	0	4315938816	46	4615
2026-01-18 03:12:43.00	162.18	12.58	-38.1	-39.8	14.8	2.20e-06	0	62	0	4345298944	46	4456
2026-01-18 03:12:47.04	162.54	12.23	-38.0	-39.6	15.0	0.00e+00	0	61	0	4374659072	46	4386
2026-01-18 03:12:51.09	162.89	11.89	-38.0	-39.6	14.9	1.10e-06	0	61	0	4404019200	46	4383
2026-01-18 03:12:55.12	163.23	11.55	-38.2	-39.8	14.6	1.10e-06	0	61	0	4432330752	46	4491
2026-01-18 03:12:59.17	163.57	11.21	-38.4	-40.2	14.3	0.00e+00	0	61	0	4461690880	46	4653
2026-01-18 03:13:03.20	163.89	10.88	-38.6	-40.5	13.9	1.10e-06	0	61	0	4491051008	47	4564
2026-01-18 03:13:07.25	164.21	10.55	-38.4	-40.2	14.1	1.10e-06	0	62	0	4520411136	47	4436
2026-01-18 03:13:11.29	164.53	10.22	-38.5	-40.3	14.1	1.10e-06	0	62	0	4549771264	47	4460
2026-01-18 03:13:15.33	164.83	9.90	-38.2	-40.0	14.3	1.10e-06	0	61	0	4579131392	47	4316
2026-01-18 03:13:19.37	165.13	9.58	-38.3	-40.0	14.2	2.20e-06	0	61	0	4607442944	47	4331
2026-01-18 03:13:23.41	165.43	9.27	-38.4	-40.2	14.0	0.00e+00	0	62	0	4636803072	47	4406
2026-01-18 03:13:27.45	165.72	8.96	-38.7	-40.6	13.5	2.20e-06	0	61	0	4666163200	47	4626
2026-01-18 03:13:31.48	166.00	8.65	-38.5	-40.3	13.7	3.40e-06	0	61	0	4695523328	47	4492
2026-01-18 03:13:35.53	166.28	8.34	-38.7	-40.6	13.4	1.94e-05	0	61	0	4724883456	47	4648
2026-01-18 03:13:39.56	166.55	8.04	-38.5	-40.4	13.4	5.70e-06	0	61	0	4753195008	47	4523
2026-01-18 03:13:43.61	166.81	7.74	-45.3	-56.7	3.8	8.47e-01	0	61	104	4762632192	60	13908
2026-01-18 03:13:47.65	167.07	7.45	-45.6	-56.9	3.8	8.45e-01	0	61	104	4762632192	60	14337
2026-01-18 03:13:51.70	167.33	7.15	-45.7	-57.0	3.8	8.47e-01	0	62	104	4762632192	60	14501
2026-01-18 03:13:55.74	167.58	6.86	-45.6	-57.0	3.8	8.46e-01	0	61	104	4762632192	60	14400
2026-01-18 03:13:59.78	167.83	6.57	-45.6	-56.9	3.8	8.46e-01	0	61	104	4762632192	60	14339
2026-01-18 03:14:03.83	168.07	6.29	-45.6	-56.9	3.8	8.45e-01	0	62	104	4762632192	60	14290
2026-01-18 03:14:07.87	168.31	6.01	-45.5	-56.9	3.8	8.45e-01	0	61	104	4762632192	60	14226
2026-01-18 03:14:11.91	168.54	5.73	-45.5	-56.9	3.8	8.46e-01	0	61	104	4762632192	60	14251
2026-01-18 03:14:15.96	168.77	5.45	-45.5	-56.9	3.8	8.45e-01	0	62	104	4762632192	60	14251
2026-01-18 03:14:20.00	169.00	5.18	-45.5	-56.8	3.8	8.47e-01	0	62	104	4762632192	60	14150
2026-01-18 03:14:24.04	169.22	4.91	-45.5	-56.8	3.8	8.46e-01	0	62	104	4762632192	60	14206
2026-01-18 03:14:28.08	169.43	4.64	-45.5	-56.8	3.8	8.47e-01	0	62	104	4762632192	60	14073
2026-01-18 03:14:32.13	169.65	4.37	-45.4	-56.8	3.8	8.46e-01	0	61	104	4762632192	60	14084
2026-01-18 03:14:36.17	169.86	4.10	-45.4	-56.8	3.8	8.46e-01	0	62	104	4762632192	60	14078
2026-01-18 03:14:40.22	170.06	3.84	-45.4	-56.8	3.8	8.47e-01	0	62	104	4762632192	60	14065
2026-01-18 03:14:44.26	170.27	3.58	-45.4	-56.7	3.8	8.46e-01	0	62	104	4762632192	60	13999
2026-01-18 03:14:48.31	170.47	3.32	-45.4	-56.7	3.8	8.47e-01	0	62	104	4762632192	60	14000
2026-01-18 03:14:52.35	170.66	3.07	-45.4	-56.7	3.8	8.45e-01	0	62	104	4762632192	60	13932
2026-01-18 03:14:56.39	170.86	2.81	-45.4	-56.7	3.8	8.46e-01	0	62	104	4762632192	60	13949
2026-01-18 03:15:00.44	171.05	2.56	-45.3	-56.7	3.8	8.45e-01	0	62	104	4762632192	60	13929
2026-01-18 03:15:04.48	171.23	2.31	-45.3	-56.6	3.8	8.46e-01	0	62	104	4762632192	60	13845
2026-01-18 03:15:08.53	171.42	2.06	-45.3	-56.6	3.8	8.46e-01	0	62	104	4762632192	60	13790

#Closed at: 2026-01-18 03:15:12
#Recorded file [4762 MB]: D:/lorett/data/31039_260118_060116.dat