passes_logs/2026/01/18/R2.0S_Moscow/R2.0S_Moscow__20260118_115113_SUOMI_NPP_rec.log

#Pass ID: 20260118_115113_SUOMI NPP
#Satellite: SUOMI NPP
#Configuration: NPP
#almurnet v.1.7.20251203
#Start time: 2026-01-18 11:51:13

#Version: 2.2.20231116
#Station: R2.0S_Moscow
#Location: 37.707566 lon 55.798166 lat
#TLE: 1 37849U 11061A   26017.28905266  .00000074  00000+0  55894-4 0  9999
#TLE: 2 37849  98.7814 319.3179 0002408  59.7048 300.4366 14.19525847737038

#Time	Az	El	Level	Level2	SNR	BER	BlckErr	Temp	State	Recorded	gain1	gain2
2026-01-18 11:51:13.48	218.00	2.00	-44.1	-58.9	3.8	1.49e+00	0	51	0	0	60	19049
2026-01-18 11:51:16.52	218.26	2.16	-44.1	-58.9	3.8	1.49e+00	0	52	104	0	60	19102
2026-01-18 11:51:19.55	218.53	2.31	-44.1	-58.9	3.8	1.49e+00	0	52	104	0	60	19012
2026-01-18 11:51:22.58	218.79	2.47	-44.1	-58.9	3.8	1.49e+00	0	52	104	0	60	18993
2026-01-18 11:51:25.61	219.06	2.62	-44.1	-58.9	3.8	1.49e+00	0	52	104	0	60	18963
2026-01-18 11:51:28.65	219.33	2.78	-44.1	-58.9	3.8	1.49e+00	0	53	104	0	60	19083
2026-01-18 11:51:31.68	219.60	2.93	-44.1	-58.9	3.8	1.49e+00	0	53	104	0	60	18991
2026-01-18 11:51:34.71	219.88	3.09	-44.1	-58.9	3.8	1.49e+00	0	53	104	0	60	19002
2026-01-18 11:51:37.75	220.16	3.24	-44.1	-58.9	3.8	1.49e+00	0	53	104	0	60	18981
2026-01-18 11:51:40.78	220.44	3.40	-44.1	-58.9	3.8	1.49e+00	0	53	104	0	60	19025
2026-01-18 11:51:43.81	220.72	3.55	-44.1	-58.9	3.8	1.49e+00	0	53	104	0	60	18999
2026-01-18 11:51:46.84	221.01	3.71	-44.1	-58.9	3.8	1.49e+00	0	54	104	0	60	18969
2026-01-18 11:51:49.87	221.30	3.87	-44.1	-58.9	3.8	1.49e+00	0	54	104	0	60	18998
2026-01-18 11:51:52.91	221.60	4.03	-44.1	-58.9	3.8	1.49e+00	0	54	104	0	60	18998
2026-01-18 11:51:55.94	221.89	4.18	-44.1	-58.9	3.8	1.49e+00	0	54	104	0	60	19016
2026-01-18 11:51:58.98	222.19	4.34	-44.1	-58.9	3.8	1.49e+00	0	54	104	0	60	19036
2026-01-18 11:52:02.01	222.50	4.50	-44.1	-58.8	3.8	1.49e+00	0	55	104	0	60	18922
2026-01-18 11:52:05.04	222.80	4.66	-44.1	-58.9	3.8	1.49e+00	0	55	104	0	60	18985
2026-01-18 11:52:08.07	223.11	4.82	-44.1	-58.9	3.8	1.49e+00	0	55	104	0	60	18984
2026-01-18 11:52:11.11	223.42	4.98	-44.1	-58.9	3.8	1.49e+00	0	55	104	0	60	19044
2026-01-18 11:52:14.14	223.74	5.14	-44.1	-58.8	3.8	1.49e+00	0	55	104	0	60	18935
2026-01-18 11:52:17.17	224.06	5.30	-44.1	-58.8	3.8	1.49e+00	0	55	104	0	60	18821
2026-01-18 11:52:20.20	224.38	5.46	-44.1	-58.8	3.8	1.49e+00	0	55	104	0	60	18785
2026-01-18 11:52:23.24	224.71	5.62	-44.1	-58.8	3.8	1.49e+00	0	55	104	0	60	18740
2026-01-18 11:52:26.27	225.04	5.78	-44.1	-58.8	3.8	1.49e+00	0	56	104	0	60	18751
2026-01-18 11:52:29.31	225.37	5.94	-44.1	-58.7	3.8	1.49e+00	0	56	104	0	60	18569
2026-01-18 11:52:32.34	225.71	6.10	-44.1	-58.5	3.8	1.49e+00	0	56	104	0	60	18236
2026-01-18 11:52:35.37	226.05	6.26	-44.1	-58.2	3.8	1.49e+00	0	56	104	0	60	17610
2026-01-18 11:52:38.40	226.39	6.42	-44.1	-57.8	3.8	1.49e+00	0	56	104	0	60	16802
2026-01-18 11:52:41.44	226.74	6.58	-44.0	-57.0	3.8	1.49e+00	0	56	104	0	60	15269
2026-01-18 11:52:44.47	227.09	6.74	-44.0	-55.4	4.1	1.43e+00	0	56	0	0	59	13540
2026-01-18 11:52:47.50	227.45	6.91	-43.8	-53.6	4.8	9.27e-01	0	56	0	3145728	59	10935
2026-01-18 11:52:50.53	227.81	7.07	-43.8	-53.0	5.1	6.60e-01	0	56	0	8388608	59	10240
2026-01-18 11:52:53.56	228.17	7.23	-43.8	-53.1	5.0	6.44e-01	0	57	0	14680064	59	10411
2026-01-18 11:52:56.59	228.53	7.39	-43.9	-54.1	4.6	9.58e-01	0	57	0	19922944	59	11661
2026-01-18 11:52:59.62	228.90	7.55	-43.8	-53.2	5.0	8.22e-01	0	57	0	25165824	59	10454
2026-01-18 11:53:02.65	229.28	7.71	-43.3	-50.5	7.0	2.08e-01	0	57	0	31457280	58	8130
2026-01-18 11:53:05.68	229.66	7.88	-42.8	-48.8	8.7	3.71e-02	0	57	0	36700160	57	7078
2026-01-18 11:53:08.71	230.04	8.04	-42.9	-49.1	8.3	4.23e-02	0	58	0	42991616	57	7331
2026-01-18 11:53:11.75	230.43	8.20	-43.7	-52.5	5.7	6.08e-02	0	57	0	45088768	57	10831
2026-01-18 11:53:14.78	230.82	8.36	-43.0	-48.8	8.6	1.26e-01	0	58	0	46137344	57	7094
2026-01-18 11:53:17.80	231.21	8.52	-42.7	-48.2	9.3	1.87e-02	0	57	0	51380224	57	6584
2026-01-18 11:53:20.83	231.61	8.68	-42.8	-48.2	9.4	1.64e-02	0	58	0	57671680	57	6603
2026-01-18 11:53:23.85	232.01	8.84	-42.6	-47.7	9.9	8.30e-03	0	58	0	62914560	57	6226
2026-01-18 11:53:26.88	232.42	9.00	-42.6	-47.6	10.0	6.37e-03	0	58	0	69206016	57	6184
2026-01-18 11:53:29.92	232.84	9.16	-42.6	-47.5	10.1	5.11e-03	0	58	0	74448896	57	6107
2026-01-18 11:53:32.95	233.25	9.32	-42.5	-47.5	10.2	5.69e-03	0	58	0	79691776	57	6066
2026-01-18 11:53:35.98	233.67	9.48	-42.6	-47.7	9.9	6.01e-03	0	58	0	85983232	57	6241
2026-01-18 11:53:39.01	234.10	9.64	-42.6	-47.5	10.2	6.15e-03	0	58	0	91226112	57	6083
2026-01-18 11:53:42.03	234.53	9.80	-42.6	-47.6	10.1	6.58e-03	0	58	0	97517568	57	6152
2026-01-18 11:53:45.06	234.96	9.96	-42.7	-47.8	9.9	9.87e-03	0	58	0	102760448	57	6307
2026-01-18 11:53:48.09	235.40	10.12	-42.6	-47.6	10.1	8.70e-03	0	59	0	108003328	57	6136
2026-01-18 11:53:51.12	235.84	10.28	-42.7	-47.9	9.8	8.72e-03	0	58	0	114294784	57	6361
2026-01-18 11:53:54.15	236.29	10.43	-42.7	-47.7	10.0	7.04e-03	0	58	0	119537664	57	6229
2026-01-18 11:53:57.18	236.75	10.59	-42.5	-47.3	10.5	4.68e-03	0	58	0	125829120	57	5943
2026-01-18 11:54:00.20	237.20	10.75	-42.3	-46.7	11.0	2.34e-03	0	59	0	131072000	56	5923
2026-01-18 11:54:03.23	237.67	10.90	-42.4	-47.0	10.8	2.03e-03	0	59	0	136314880	56	6084
2026-01-18 11:54:06.26	238.13	11.06	-42.3	-46.7	11.1	1.35e-03	0	59	0	142606336	56	5895
2026-01-18 11:54:09.28	238.60	11.21	-41.9	-45.9	11.7	3.85e-04	0	59	0	147849216	55	5698
2026-01-18 11:54:12.31	239.08	11.36	-41.8	-45.6	12.1	2.49e-04	0	59	0	154140672	55	5509
2026-01-18 11:54:15.34	239.56	11.52	-41.9	-46.1	11.6	4.83e-04	0	59	0	159383552	55	5795
2026-01-18 11:54:18.37	240.05	11.67	-42.2	-46.5	11.2	1.13e-03	0	59	0	165675008	55	6104
2026-01-18 11:54:21.40	240.54	11.82	-42.0	-46.0	11.7	7.35e-04	0	59	0	170917888	55	5783
2026-01-18 11:54:24.42	241.03	11.97	-41.9	-45.9	11.8	6.16e-04	0	59	0	176160768	55	5683
2026-01-18 11:54:27.45	241.54	12.12	-41.9	-45.9	11.8	4.41e-04	0	59	0	182452224	55	5663
2026-01-18 11:54:30.48	242.04	12.26	-41.7	-45.6	12.1	4.71e-04	0	59	0	187695104	55	5488
2026-01-18 11:54:33.51	242.55	12.41	-41.9	-46.0	11.7	4.55e-04	0	59	0	193986560	55	5745
2026-01-18 11:54:36.54	243.07	12.56	-42.0	-46.2	11.5	7.29e-04	0	59	0	199229440	55	5862
2026-01-18 11:54:39.57	243.59	12.70	-42.0	-46.0	11.7	6.04e-04	0	59	0	204472320	55	5773
2026-01-18 11:54:42.60	244.12	12.84	-41.9	-45.8	11.9	3.49e-04	0	59	0	210763776	55	5656
2026-01-18 11:54:45.63	244.65	12.98	-41.9	-45.9	11.9	4.21e-04	0	59	0	216006656	55	5657
2026-01-18 11:54:48.66	245.18	13.12	-42.2	-46.5	11.2	1.34e-03	0	59	0	222298112	55	6107
2026-01-18 11:54:51.69	245.72	13.26	-42.3	-46.7	11.0	1.48e-03	0	59	0	227540992	55	6219
2026-01-18 11:54:54.71	246.27	13.40	-42.1	-46.3	11.5	1.07e-03	0	59	0	233832448	55	5940
2026-01-18 11:54:57.74	246.82	13.53	-42.3	-46.7	11.0	1.49e-03	0	59	0	239075328	55	6248
2026-01-18 11:55:00.77	247.37	13.67	-42.4	-47.0	10.7	3.59e-03	0	59	0	244318208	55	6479
2026-01-18 11:55:03.80	247.93	13.80	-42.3	-46.8	10.9	2.32e-03	0	59	0	250609664	55	6327
2026-01-18 11:55:06.83	248.50	13.93	-42.3	-46.7	11.0	1.86e-03	0	59	0	255852544	55	6246
2026-01-18 11:55:09.86	249.07	14.05	-42.4	-46.9	10.8	2.47e-03	0	60	0	262144000	55	6393
2026-01-18 11:55:12.88	249.64	14.18	-42.4	-47.0	10.7	2.58e-03	0	60	0	267386880	55	6484
2026-01-18 11:55:15.91	250.22	14.30	-42.7	-47.6	10.1	6.27e-03	0	60	0	272629760	55	6933
2026-01-18 11:55:18.94	250.80	14.43	-42.8	-47.6	10.3	8.14e-03	0	60	0	278921216	56	6543
2026-01-18 11:55:21.97	251.39	14.55	-42.6	-47.3	10.6	3.29e-03	0	60	0	284164096	56	6284
2026-01-18 11:55:25.00	251.98	14.66	-42.8	-47.6	10.3	5.89e-03	0	60	0	290455552	56	6502
2026-01-18 11:55:28.03	252.58	14.78	-42.9	-47.9	9.9	7.98e-03	0	60	0	295698432	56	6771
2026-01-18 11:55:31.06	253.18	14.89	-42.8	-47.8	10.1	7.31e-03	0	60	0	301989888	56	6665
2026-01-18 11:55:34.08	253.79	15.00	-43.1	-48.3	9.5	1.54e-02	0	60	0	307232768	56	7116
2026-01-18 11:55:37.12	254.40	15.11	-43.0	-48.1	9.7	1.11e-02	0	60	0	312475648	56	6927
2026-01-18 11:55:40.15	255.02	15.21	-42.7	-47.4	10.5	4.46e-03	0	60	0	318767104	56	6376
2026-01-18 11:55:43.17	255.63	15.31	-42.8	-47.7	10.1	4.33e-03	0	60	0	324009984	56	6646
2026-01-18 11:55:46.20	256.26	15.41	-42.8	-47.8	10.1	7.55e-03	0	60	0	330301440	56	6691
2026-01-18 11:55:49.23	256.88	15.51	-42.7	-47.3	10.6	3.66e-03	0	60	0	335544320	56	6338
2026-01-18 11:55:52.26	257.51	15.60	-42.6	-47.1	10.8	3.06e-03	0	60	0	340787200	56	6138
2026-01-18 11:55:55.29	258.15	15.70	-42.3	-46.6	11.4	1.07e-03	0	60	0	347078656	56	5797
2026-01-18 11:55:58.32	258.79	15.78	-42.1	-46.1	11.8	5.11e-04	0	60	0	352321536	56	5528
2026-01-18 11:56:01.34	259.43	15.87	-42.1	-46.1	11.9	6.77e-04	0	60	0	358612992	56	5480
2026-01-18 11:56:04.37	260.07	15.95	-42.2	-46.1	11.8	4.23e-04	0	60	0	363855872	56	5521
2026-01-18 11:56:07.40	260.72	16.03	-42.2	-46.3	11.6	7.27e-04	0	60	0	370147328	56	5651
2026-01-18 11:56:10.42	261.37	16.10	-42.4	-46.7	11.2	1.25e-03	0	60	0	375390208	56	5880
2026-01-18 11:56:13.45	262.02	16.18	-42.5	-47.1	10.9	2.01e-03	0	60	0	380633088	56	6132
2026-01-18 11:56:16.48	262.68	16.24	-42.6	-47.2	10.7	3.24e-03	0	60	0	386924544	56	6210
2026-01-18 11:56:19.51	263.34	16.31	-42.2	-46.3	11.6	8.51e-04	0	60	0	392167424	56	5618
2026-01-18 11:56:22.53	264.00	16.37	-42.1	-46.0	11.9	3.45e-04	0	60	0	398458880	56	5424
2026-01-18 11:56:25.57	264.67	16.43	-42.5	-47.0	11.0	1.52e-03	0	60	0	403701760	56	6081
2026-01-18 11:56:28.59	265.34	16.48	-42.6	-47.1	10.9	2.63e-03	0	60	0	408944640	56	6140
2026-01-18 11:56:31.62	266.01	16.54	-42.6	-47.3	10.7	2.64e-03	0	60	0	415236096	56	6288
2026-01-18 11:56:34.65	266.68	16.58	-42.7	-47.4	10.5	4.93e-03	0	60	0	420478976	56	6382
2026-01-18 11:56:37.67	267.35	16.63	-42.3	-46.5	11.4	1.43e-03	0	60	0	426770432	56	5769
2026-01-18 11:56:40.70	268.03	16.67	-42.5	-46.9	11.0	1.07e-03	0	60	0	432013312	56	6014
2026-01-18 11:56:43.73	268.71	16.70	-42.3	-46.6	11.4	1.76e-03	0	60	0	438304768	56	5805
2026-01-18 11:56:46.76	269.39	16.74	-42.0	-45.8	12.2	3.04e-04	0	60	0	443547648	56	5338
2026-01-18 11:56:49.79	270.07	16.76	-42.5	-46.9	11.0	1.36e-03	0	60	0	448790528	56	6018
2026-01-18 11:56:52.82	270.75	16.79	-42.6	-47.1	10.8	2.62e-03	0	60	0	455081984	56	6197
2026-01-18 11:56:55.84	271.43	16.81	-42.8	-47.6	10.3	4.31e-03	0	60	0	460324864	56	6529
2026-01-18 11:56:58.87	272.12	16.83	-42.9	-48.0	9.9	9.84e-03	0	60	0	466616320	56	6811
2026-01-18 11:57:01.90	272.80	16.84	-42.8	-47.6	10.2	6.34e-03	0	61	0	471859200	56	6529
2026-01-18 11:57:04.93	273.49	16.85	-42.8	-47.8	10.1	7.88e-03	0	60	0	477102080	56	6686
2026-01-18 11:57:07.96	274.17	16.86	-42.6	-47.3	10.6	4.70e-03	0	60	0	483393536	56	6301
2026-01-18 11:57:10.99	274.86	16.86	-42.6	-47.2	10.7	2.52e-03	0	61	0	488636416	56	6209
2026-01-18 11:57:14.01	275.54	16.86	-42.6	-47.3	10.5	3.98e-03	0	60	0	494927872	56	6327
2026-01-18 11:57:17.04	276.22	16.85	-42.4	-46.8	11.0	1.55e-03	0	60	0	500170752	56	5973
2026-01-18 11:57:20.07	276.91	16.84	-42.5	-47.0	10.9	2.16e-03	0	60	0	505413632	56	6075
2026-01-18 11:57:23.10	277.59	16.83	-42.3	-46.5	11.4	1.47e-03	0	60	0	511705088	56	5757
2026-01-18 11:57:26.13	278.28	16.81	-42.2	-46.3	11.6	5.90e-04	0	60	0	516947968	56	5615
2026-01-18 11:57:29.16	278.96	16.79	-42.4	-46.9	11.0	1.76e-03	0	60	0	523239424	56	5995
2026-01-18 11:57:32.18	279.64	16.76	-42.3	-46.5	11.4	1.04e-03	0	61	0	528482304	56	5752
2026-01-18 11:57:35.21	280.32	16.73	-42.4	-46.7	11.1	1.35e-03	0	60	0	534773760	56	5916
2026-01-18 11:57:38.23	280.99	16.70	-42.5	-47.0	10.8	2.91e-03	0	60	0	540016640	56	6072
2026-01-18 11:57:41.26	281.67	16.66	-42.4	-46.7	11.1	1.57e-03	0	60	0	545259520	56	5896
2026-01-18 11:57:44.29	282.35	16.62	-42.4	-46.9	10.9	1.91e-03	0	60	0	551550976	56	5997
2026-01-18 11:57:47.32	283.02	16.58	-42.6	-47.2	10.6	3.56e-03	0	61	0	556793856	56	6264
2026-01-18 11:57:50.35	283.69	16.53	-42.4	-46.9	10.9	2.47e-03	0	60	0	563085312	56	6028
2026-01-18 11:57:53.37	284.36	16.48	-42.2	-46.4	11.4	8.28e-04	0	61	0	568328192	56	5707
2026-01-18 11:57:56.40	285.02	16.42	-42.1	-46.3	11.5	7.80e-04	0	60	0	573571072	56	5637
2026-01-18 11:57:59.43	285.69	16.36	-42.2	-46.5	11.2	9.15e-04	0	60	0	579862528	56	5764
2026-01-18 11:58:02.46	286.35	16.30	-42.3	-46.6	11.2	1.27e-03	0	61	0	585105408	56	5838
2026-01-18 11:58:05.49	287.01	16.24	-42.3	-46.7	11.1	1.27e-03	0	61	0	591396864	56	5859
2026-01-18 11:58:08.52	287.66	16.17	-42.2	-46.4	11.4	1.05e-03	0	61	0	596639744	56	5666
2026-01-18 11:58:11.54	288.31	16.10	-41.7	-45.7	12.0	2.97e-04	0	61	0	602931200	55	5530
2026-01-18 11:58:14.57	288.96	16.02	-41.6	-45.4	12.2	2.17e-04	0	61	0	608174080	55	5385
2026-01-18 11:58:17.60	289.61	15.94	-41.6	-45.3	12.3	2.00e-04	0	61	0	613416960	55	5310
2026-01-18 11:58:20.63	290.25	15.86	-41.6	-45.5	12.2	2.02e-04	0	60	0	619708416	55	5407
2026-01-18 11:58:23.66	290.89	15.78	-41.9	-46.0	11.6	6.61e-04	0	61	0	624951296	55	5746
2026-01-18 11:58:26.69	291.53	15.69	-41.8	-45.9	11.7	6.77e-04	0	61	0	631242752	55	5697
2026-01-18 11:58:29.72	292.16	15.60	-41.7	-45.7	11.8	4.68e-04	0	60	0	636485632	55	5587
2026-01-18 11:58:32.75	292.79	15.50	-41.9	-46.0	11.5	6.75e-04	0	60	0	641728512	55	5764
2026-01-18 11:58:35.78	293.41	15.41	-41.6	-45.6	12.0	5.71e-04	0	61	0	648019968	55	5466
2026-01-18 11:58:38.81	294.03	15.31	-41.2	-44.7	12.8	9.38e-05	0	61	0	653262848	54	5269
2026-01-18 11:58:41.84	294.65	15.21	-41.1	-44.5	13.1	2.82e-05	0	61	0	659554304	54	5142
2026-01-18 11:58:44.87	295.26	15.10	-41.3	-44.9	12.6	8.77e-05	0	61	0	664797184	54	5376
2026-01-18 11:58:47.89	295.86	14.99	-41.5	-45.2	12.4	1.59e-04	0	61	0	671088640	54	5548
2026-01-18 11:58:50.92	296.47	14.88	-41.4	-45.1	12.4	9.61e-05	0	61	0	676331520	54	5509
2026-01-18 11:58:53.95	297.07	14.77	-41.7	-45.6	12.0	3.40e-04	0	61	0	681574400	54	5794
2026-01-18 11:58:56.98	297.66	14.66	-41.7	-45.6	12.0	3.27e-04	0	61	0	687865856	54	5818
2026-01-18 11:59:00.01	298.25	14.54	-41.6	-45.5	12.1	2.75e-04	0	61	0	693108736	54	5730
2026-01-18 11:59:03.04	298.84	14.42	-41.6	-45.4	12.2	2.39e-04	0	61	0	699400192	54	5710
2026-01-18 11:59:06.06	299.41	14.30	-41.5	-45.2	12.5	1.14e-04	0	60	0	704643072	54	5551
2026-01-18 11:59:09.09	299.99	14.18	-41.6	-45.3	12.3	1.59e-04	0	61	0	709885952	54	5655
2026-01-18 11:59:12.12	300.56	14.05	-41.7	-45.7	11.9	4.17e-04	0	61	0	716177408	54	5873
2026-01-18 11:59:15.15	301.13	13.93	-41.9	-46.0	11.6	6.63e-04	0	61	0	721420288	54	6104
2026-01-18 11:59:18.18	301.69	13.80	-42.2	-46.6	11.0	1.55e-03	0	61	0	727711744	54	6523
2026-01-18 11:59:21.21	302.25	13.67	-42.3	-46.9	10.7	2.93e-03	0	61	0	732954624	55	6373
2026-01-18 11:59:24.23	302.80	13.54	-42.3	-47.0	10.6	3.53e-03	0	61	0	739246080	55	6426
2026-01-18 11:59:27.26	303.34	13.40	-42.3	-46.8	10.7	2.83e-03	0	61	0	744488960	55	6313
2026-01-18 11:59:30.29	303.89	13.27	-42.5	-47.3	10.2	4.59e-03	0	61	0	749731840	55	6694
2026-01-18 11:59:33.32	304.42	13.13	-42.6	-47.6	9.8	9.55e-03	0	61	0	756023296	55	6956
2026-01-18 11:59:36.35	304.96	12.99	-42.4	-47.2	10.3	4.96e-03	0	61	0	761266176	55	6625
2026-01-18 11:59:39.38	305.49	12.85	-42.3	-47.0	10.5	4.26e-03	0	61	0	767557632	55	6471
2026-01-18 11:59:42.40	306.01	12.71	-42.4	-47.3	10.3	5.70e-03	0	61	0	772800512	55	6648
2026-01-18 11:59:45.43	306.52	12.57	-42.7	-47.9	9.6	1.33e-02	0	61	0	778043392	55	7162
2026-01-18 11:59:48.46	307.04	12.42	-43.0	-48.5	9.1	2.34e-02	0	61	0	784334848	56	7267
2026-01-18 11:59:51.49	307.55	12.28	-43.1	-49.1	8.5	3.87e-02	0	61	0	789577728	56	7762
2026-01-18 11:59:54.52	308.05	12.13	-42.9	-48.5	9.1	2.15e-02	0	61	0	795869184	56	7219
2026-01-18 11:59:57.54	308.55	11.98	-42.7	-47.7	10.0	9.59e-03	0	61	0	801112064	56	6586
2026-01-18 12:00:00.57	309.04	11.84	-42.6	-47.4	10.2	7.35e-03	0	61	0	806354944	56	6414
2026-01-18 12:00:03.60	309.53	11.69	-42.8	-48.0	9.7	8.98e-03	0	61	0	812646400	56	6832
2026-01-18 12:00:06.62	310.01	11.54	-42.6	-47.5	10.1	6.58e-03	0	61	0	817889280	56	6457
2026-01-18 12:00:09.65	310.49	11.39	-42.7	-47.8	9.7	1.00e-02	0	61	0	824180736	56	6717
2026-01-18 12:00:12.68	310.96	11.23	-42.9	-48.4	9.2	1.89e-02	0	61	0	829423616	56	7151
2026-01-18 12:00:15.71	311.43	11.08	-42.9	-48.5	9.0	2.62e-02	0	61	0	835715072	56	7233
2026-01-18 12:00:18.74	311.90	10.93	-42.8	-48.3	9.3	2.20e-02	0	61	0	840957952	56	7063
2026-01-18 12:00:21.77	312.36	10.77	-42.7	-48.0	9.5	1.19e-02	0	61	0	846200832	56	6855
2026-01-18 12:00:24.79	312.81	10.62	-42.6	-47.7	9.9	8.08e-03	0	61	0	852492288	56	6583
2026-01-18 12:00:27.82	313.26	10.47	-42.4	-47.2	10.4	5.01e-03	0	61	0	857735168	56	6207
2026-01-18 12:00:30.85	313.71	10.31	-42.3	-47.0	10.5	4.30e-03	0	61	0	864026624	56	6126
2026-01-18 12:00:33.88	314.15	10.15	-42.3	-47.0	10.6	3.43e-03	0	61	0	869269504	56	6074
2026-01-18 12:00:36.91	314.59	10.00	-42.4	-47.2	10.3	4.68e-03	0	61	0	874512384	56	6257
2026-01-18 12:00:39.94	315.02	9.84	-42.2	-46.8	10.7	2.53e-03	0	61	0	880803840	56	5950
2026-01-18 12:00:42.97	315.45	9.68	-42.1	-46.5	11.0	2.07e-03	0	61	0	886046720	56	5756
2026-01-18 12:00:46.00	315.87	9.53	-42.3	-47.1	10.4	5.32e-03	0	61	0	892338176	56	6173
2026-01-18 12:00:49.03	316.29	9.37	-42.4	-47.3	10.1	5.37e-03	0	61	0	897581056	56	6332
2026-01-18 12:00:52.05	316.70	9.21	-42.5	-47.8	9.6	9.30e-03	0	61	0	903872512	56	6655
2026-01-18 12:00:55.08	317.11	9.05	-42.1	-46.7	10.8	2.58e-03	0	61	0	909115392	56	5864
2026-01-18 12:00:58.11	317.52	8.89	-42.1	-46.6	10.8	2.52e-03	0	61	0	914358272	56	5818
2026-01-18 12:01:01.14	317.92	8.73	-42.2	-46.9	10.6	3.62e-03	0	61	0	920649728	56	6006
2026-01-18 12:01:04.16	318.32	8.57	-42.2	-47.0	10.4	5.24e-03	0	61	0	925892608	56	6104
2026-01-18 12:01:07.19	318.71	8.41	-42.3	-47.3	10.1	4.77e-03	0	61	0	932184064	56	6317
2026-01-18 12:01:10.22	319.10	8.26	-42.3	-47.3	10.0	8.35e-03	0	61	0	937426944	56	6331
2026-01-18 12:01:13.25	319.49	8.10	-42.4	-47.6	9.7	1.39e-02	0	61	0	942669824	56	6555
2026-01-18 12:01:16.28	319.87	7.94	-44.5	-58.7	3.8	1.45e+00	0	61	104	947912704	59	19754
2026-01-18 12:01:19.31	320.24	7.78	-45.1	-59.7	3.8	1.49e+00	0	61	104	947912704	60	20850
2026-01-18 12:01:22.34	320.62	7.62	-45.3	-59.9	3.8	1.49e+00	0	61	104	947912704	61	20164
2026-01-18 12:01:25.37	320.99	7.46	-45.3	-59.9	3.8	1.49e+00	0	61	104	947912704	61	20144
2026-01-18 12:01:28.40	321.35	7.30	-45.2	-59.8	3.8	1.49e+00	0	61	104	947912704	61	20006
2026-01-18 12:01:31.43	321.71	7.14	-45.2	-59.8	3.8	1.49e+00	0	61	104	947912704	61	19900
2026-01-18 12:01:34.47	322.07	6.98	-45.2	-59.8	3.8	1.49e+00	0	61	104	947912704	61	19899
2026-01-18 12:01:37.50	322.43	6.82	-45.2	-59.8	3.8	1.49e+00	0	61	104	947912704	61	19878
2026-01-18 12:01:40.53	322.78	6.66	-45.2	-59.8	3.8	1.49e+00	0	61	104	947912704	61	19844
2026-01-18 12:01:43.56	323.12	6.50	-45.2	-59.8	3.8	1.49e+00	0	61	104	947912704	61	19854
2026-01-18 12:01:46.59	323.47	6.34	-45.1	-59.8	3.8	1.49e+00	0	61	104	947912704	61	19842
2026-01-18 12:01:49.63	323.81	6.18	-45.2	-59.7	3.8	1.49e+00	0	61	104	947912704	61	19814
2026-01-18 12:01:52.66	324.14	6.02	-45.2	-59.7	3.8	1.49e+00	0	61	104	947912704	60	20987
2026-01-18 12:01:55.69	324.48	5.86	-45.0	-59.7	3.8	1.49e+00	0	61	104	947912704	60	20967
2026-01-18 12:01:58.73	324.81	5.71	-45.2	-59.7	3.8	1.49e+00	0	61	104	947912704	60	21000
2026-01-18 12:02:01.76	325.13	5.55	-45.2	-59.8	3.8	1.49e+00	0	61	104	947912704	60	21074
2026-01-18 12:02:04.79	325.45	5.39	-45.2	-59.7	3.8	1.49e+00	0	61	104	947912704	60	20997
2026-01-18 12:02:07.83	325.77	5.23	-45.2	-59.7	3.8	1.49e+00	0	61	104	947912704	60	20972
2026-01-18 12:02:10.86	326.09	5.07	-45.2	-59.7	3.8	1.49e+00	0	61	104	947912704	60	20993
2026-01-18 12:02:13.89	326.40	4.92	-45.2	-59.7	3.8	1.49e+00	0	61	104	947912704	60	20969
2026-01-18 12:02:16.92	326.71	4.76	-45.2	-59.7	3.8	1.49e+00	0	61	104	947912704	60	20998
2026-01-18 12:02:19.96	327.02	4.60	-45.2	-59.7	3.8	1.49e+00	0	61	104	947912704	60	20911
2026-01-18 12:02:22.99	327.32	4.45	-45.2	-59.7	3.8	1.49e+00	0	61	104	947912704	60	20931
2026-01-18 12:02:26.03	327.62	4.29	-45.2	-59.7	3.8	1.49e+00	0	61	104	947912704	60	20892
2026-01-18 12:02:29.06	327.92	4.13	-45.2	-59.7	3.8	1.49e+00	0	61	104	947912704	60	20912
2026-01-18 12:02:32.09	328.21	3.98	-45.2	-59.7	3.8	1.49e+00	0	61	104	947912704	60	20878
2026-01-18 12:02:35.13	328.50	3.82	-45.2	-59.7	3.8	1.49e+00	0	61	104	947912704	60	20869
2026-01-18 12:02:38.16	328.79	3.67	-45.2	-59.7	3.8	1.49e+00	0	61	104	947912704	60	20856
2026-01-18 12:02:41.19	329.08	3.51	-45.2	-59.7	3.8	1.49e+00	0	61	104	947912704	60	20815
2026-01-18 12:02:44.22	329.36	3.36	-45.2	-59.7	3.8	1.49e+00	0	61	104	947912704	60	20896
2026-01-18 12:02:47.26	329.64	3.20	-45.2	-59.7	3.8	1.49e+00	0	61	104	947912704	60	20875
2026-01-18 12:02:50.29	329.92	3.05	-45.2	-59.7	3.8	1.49e+00	0	61	104	947912704	60	20862
2026-01-18 12:02:53.32	330.19	2.90	-45.2	-59.7	3.8	1.49e+00	0	61	104	947912704	60	20868
2026-01-18 12:02:56.35	330.46	2.74	-45.2	-59.7	3.8	1.49e+00	0	61	104	947912704	60	20915
2026-01-18 12:02:59.39	330.73	2.59	-45.2	-59.7	3.8	1.49e+00	0	61	104	947912704	60	20888
2026-01-18 12:03:02.42	331.00	2.44	-45.1	-59.7	3.8	1.49e+00	0	61	104	947912704	60	20866
2026-01-18 12:03:05.46	331.26	2.29	-45.2	-59.7	3.8	1.49e+00	0	61	104	947912704	60	20908
2026-01-18 12:03:08.49	331.52	2.14	-45.1	-59.7	3.8	1.49e+00	0	61	104	947912704	60	20922
2026-01-18 12:03:11.52	331.78	1.98	-45.2	-59.7	3.8	1.49e+00	0	61	104	947912704	60	20856

#Closed at: 2026-01-18 12:03:12
#Recorded file [947 MB]: D:/lorett/data/31039_260118_145113.dat