passes_logs/2026/01/18/R2.0S_Moscow/R2.0S_Moscow__20260118_124759_FENGYUN_3D_rec.log

#Pass ID: 20260118_124759_FENGYUN 3D
#Satellite: FENGYUN 3D
#Configuration: FENGYUN 3D
#almurnet v.1.7.20251203
#Start time: 2026-01-18 12:48:00

#Version: 2.2.20231116
#Station: R2.0S_Moscow
#Location: 37.707566 lon 55.798166 lat
#TLE: 1 43010U 17072A   26017.61121112  .00000213  00000+0  12257-3 0  9991
#TLE: 2 43010  98.9934 349.4672 0002374 103.9362 256.2078 14.19696413423628

#Time	Az	El	Level	Level2	SNR	BER	BlckErr	Temp	State	Recorded	gain1	gain2
2026-01-18 12:48:00.99	184.95	2.07	-44.1	-55.6	3.8	8.45e-01	0	52	0	0	59	13868
2026-01-18 12:48:03.02	185.03	2.20	-44.0	-55.7	3.8	8.46e-01	0	52	104	0	60	13209
2026-01-18 12:48:05.04	185.11	2.32	-44.0	-55.8	3.8	8.46e-01	0	52	104	0	60	13281
2026-01-18 12:48:07.06	185.20	2.45	-44.1	-55.6	3.8	8.46e-01	0	52	104	0	59	13847
2026-01-18 12:48:09.08	185.28	2.58	-44.1	-55.6	3.8	8.46e-01	0	52	104	0	59	13832
2026-01-18 12:48:11.11	185.37	2.70	-44.1	-55.6	3.8	8.46e-01	0	52	104	0	59	13856
2026-01-18 12:48:13.13	185.45	2.83	-44.1	-55.6	3.8	8.45e-01	0	52	104	0	59	13816
2026-01-18 12:48:15.15	185.54	2.96	-44.1	-55.6	3.8	8.44e-01	0	53	104	0	59	13844
2026-01-18 12:48:17.17	185.62	3.09	-44.1	-55.6	3.8	8.45e-01	0	53	104	0	59	13853
2026-01-18 12:48:19.19	185.71	3.22	-44.1	-55.6	3.8	8.47e-01	0	53	104	0	59	13840
2026-01-18 12:48:21.22	185.80	3.35	-44.1	-55.6	3.8	8.46e-01	0	53	104	0	59	13820
2026-01-18 12:48:23.24	185.89	3.48	-44.1	-55.6	3.8	8.46e-01	0	53	104	0	59	13841
2026-01-18 12:48:25.26	185.98	3.61	-44.1	-55.6	3.8	8.46e-01	0	53	104	0	59	13821
2026-01-18 12:48:27.28	186.07	3.74	-44.1	-55.6	3.8	8.46e-01	0	54	104	0	59	13840
2026-01-18 12:48:29.30	186.16	3.87	-44.1	-55.6	3.8	8.46e-01	0	54	104	0	59	13782
2026-01-18 12:48:31.32	186.25	4.00	-44.1	-55.6	3.8	8.45e-01	0	54	104	0	59	13820
2026-01-18 12:48:33.35	186.34	4.14	-44.1	-55.6	3.8	8.46e-01	0	54	104	0	59	13732
2026-01-18 12:48:35.37	186.44	4.27	-44.0	-55.5	3.8	8.46e-01	0	54	104	0	59	13636
2026-01-18 12:48:37.39	186.53	4.41	-44.0	-55.4	3.8	8.46e-01	0	54	104	0	59	13534
2026-01-18 12:48:39.41	186.63	4.54	-44.0	-55.4	3.8	8.46e-01	0	54	104	0	59	13415
2026-01-18 12:48:41.44	186.72	4.68	-44.0	-55.4	3.8	8.46e-01	0	54	104	0	59	13440
2026-01-18 12:48:43.46	186.82	4.81	-44.0	-55.0	3.8	8.47e-01	0	54	104	0	59	12924
2026-01-18 12:48:45.48	186.92	4.95	-44.0	-54.8	3.8	8.46e-01	0	55	104	0	59	12592
2026-01-18 12:48:47.50	187.01	5.09	-43.9	-54.3	3.8	8.47e-01	0	55	104	0	59	11890
2026-01-18 12:48:49.52	187.11	5.23	-43.8	-53.5	3.8	8.46e-01	0	55	104	0	59	10895
2026-01-18 12:48:51.54	187.21	5.37	-43.7	-52.8	4.0	8.44e-01	0	55	104	0	59	10059
2026-01-18 12:48:53.57	187.32	5.51	-43.5	-51.6	4.3	8.31e-01	0	55	0	0	59	8691
2026-01-18 12:48:55.59	187.42	5.65	-43.4	-50.8	4.6	8.17e-01	0	55	0	0	58	8413
2026-01-18 12:48:57.61	187.52	5.79	-43.1	-49.8	5.2	7.59e-01	0	55	0	0	58	7464
2026-01-18 12:48:59.63	187.62	5.93	-42.9	-49.0	5.7	5.12e-01	0	55	0	4194304	57	7215
2026-01-18 12:49:01.65	187.73	6.07	-42.7	-48.3	6.2	3.52e-01	0	55	0	14680064	57	6677
2026-01-18 12:49:03.67	187.84	6.22	-42.7	-48.5	6.0	3.63e-01	0	56	0	26214400	57	6863
2026-01-18 12:49:05.69	187.94	6.36	-42.7	-48.4	6.1	3.31e-01	0	55	0	36700160	57	6774
2026-01-18 12:49:07.71	188.05	6.50	-42.8	-48.8	5.8	6.19e-01	0	56	0	47185920	57	7091
2026-01-18 12:49:09.74	188.16	6.65	-42.9	-49.2	5.5	6.78e-01	0	56	0	54525952	57	7436
2026-01-18 12:49:11.76	188.27	6.80	-42.7	-48.5	6.0	5.20e-01	0	56	0	62914560	57	6863
2026-01-18 12:49:13.78	188.38	6.94	-42.3	-47.4	7.0	2.25e-01	0	56	0	74448896	56	6349
2026-01-18 12:49:15.80	188.49	7.09	-41.7	-46.1	8.0	1.03e-01	0	56	0	85983232	55	5832
2026-01-18 12:49:17.82	188.61	7.24	-40.9	-44.4	9.7	1.52e-02	0	56	0	97517568	53	5401
2026-01-18 12:49:19.84	188.72	7.39	-40.1	-43.0	11.3	1.96e-03	0	56	0	109051904	51	5131
2026-01-18 12:49:21.86	188.83	7.54	-40.1	-43.0	11.2	1.28e-03	0	56	0	120586240	51	5155
2026-01-18 12:49:23.88	188.95	7.69	-39.7	-42.4	11.9	4.50e-04	0	56	0	131072000	50	5048
2026-01-18 12:49:25.91	189.07	7.84	-39.6	-42.3	12.0	4.99e-04	0	56	0	142606336	50	4990
2026-01-18 12:49:27.92	189.19	7.99	-40.0	-42.8	11.4	1.30e-03	0	57	0	154140672	50	5330
2026-01-18 12:49:29.94	189.31	8.14	-43.7	-53.4	3.8	5.74e-01	0	56	104	164626432	57	11977
2026-01-18 12:49:31.96	189.43	8.30	-40.6	-43.8	10.6	1.69e-03	0	57	0	171966464	52	5316
2026-01-18 12:49:33.98	189.55	8.45	-39.7	-42.3	12.1	5.73e-02	0	57	0	181403648	51	4739
2026-01-18 12:49:36.00	189.67	8.61	-39.7	-42.3	12.2	3.98e-04	0	57	0	192937984	51	4734
2026-01-18 12:49:38.02	189.80	8.77	-39.4	-41.9	12.6	3.00e-04	0	57	0	203423744	50	4780
2026-01-18 12:49:40.04	189.93	8.92	-39.4	-41.8	12.6	1.82e-04	0	57	0	214958080	50	4753
2026-01-18 12:49:42.06	190.05	9.08	-39.3	-41.8	12.8	1.14e-04	0	57	0	226492416	50	4720
2026-01-18 12:49:44.08	190.18	9.24	-39.3	-41.8	12.7	8.12e-05	0	57	0	238026752	50	4715
2026-01-18 12:49:46.10	190.31	9.40	-39.3	-41.7	12.8	8.81e-05	0	57	0	249561088	50	4704
2026-01-18 12:49:48.12	190.44	9.56	-39.2	-41.6	13.0	7.32e-05	0	57	0	261095424	50	4625
2026-01-18 12:49:50.14	190.58	9.72	-39.2	-41.6	13.0	5.72e-05	0	57	0	271581184	50	4623
2026-01-18 12:49:52.16	190.71	9.89	-39.1	-41.3	13.3	3.66e-05	0	57	0	283115520	50	4484
2026-01-18 12:49:54.18	190.85	10.05	-39.1	-41.4	13.2	3.08e-05	0	57	0	294649856	50	4533
2026-01-18 12:49:56.20	190.98	10.21	-39.2	-41.5	13.1	5.60e-05	0	58	0	306184192	49	4866
2026-01-18 12:49:58.22	191.12	10.38	-39.2	-41.5	13.1	4.57e-05	0	57	0	317718528	49	4834
2026-01-18 12:50:00.24	191.26	10.55	-39.0	-41.2	13.5	1.60e-05	0	57	0	329252864	49	4694
2026-01-18 12:50:02.26	191.40	10.72	-38.9	-41.1	13.6	1.83e-05	0	58	0	339738624	49	4634
2026-01-18 12:50:04.28	191.55	10.88	-38.8	-41.0	13.7	6.80e-06	0	58	0	351272960	49	4597
2026-01-18 12:50:06.31	191.69	11.05	-39.0	-41.2	13.5	1.14e-05	0	58	0	362807296	49	4701
2026-01-18 12:50:08.32	191.84	11.22	-39.0	-41.2	13.5	1.37e-05	0	58	0	374341632	49	4684
2026-01-18 12:50:10.34	191.99	11.40	-38.7	-40.8	14.0	1.02e-05	0	58	0	385875968	49	4467
2026-01-18 12:50:12.36	192.14	11.57	-38.7	-40.8	13.9	5.70e-06	0	58	0	397410304	49	4491
2026-01-18 12:50:14.38	192.29	11.74	-38.6	-40.8	14.0	1.10e-06	0	58	0	407896064	49	4453
2026-01-18 12:50:16.40	192.44	11.92	-38.8	-40.9	13.8	1.02e-05	0	58	0	419430400	49	4535
2026-01-18 12:50:18.42	192.60	12.09	-38.8	-41.0	13.8	9.10e-06	0	58	0	430964736	49	4568
2026-01-18 12:50:20.42	192.75	12.27	-38.8	-41.0	13.8	1.48e-05	0	58	0	436207616	49	4566
2026-01-18 12:50:22.90	192.95	12.49	
2026-01-18 12:50:25.17	193.13	12.69	
2026-01-18 12:50:27.43	193.31	12.89	
2026-01-18 12:50:29.69	193.50	13.10	
2026-01-18 12:50:31.96	193.68	13.30	
2026-01-18 12:50:34.20	193.87	13.51	
2026-01-18 12:50:36.46	194.06	13.72	
2026-01-18 12:50:38.71	194.26	13.92	
2026-01-18 12:50:40.97	194.46	14.14	
2026-01-18 12:50:43.23	194.66	14.35	
2026-01-18 12:50:45.50	194.86	14.56	
2026-01-18 12:50:47.76	195.07	14.78	
2026-01-18 12:50:50.02	195.28	15.00	
2026-01-18 12:50:52.28	195.49	15.22	
2026-01-18 12:50:54.54	195.70	15.44	
2026-01-18 12:50:56.81	195.92	15.66	
2026-01-18 12:50:59.06	196.14	15.89	
2026-01-18 12:51:01.34	196.37	16.11	
2026-01-18 12:51:03.50	196.59	16.33	
2026-01-18 12:51:05.67	196.81	16.55	
2026-01-18 12:51:07.84	197.03	16.77	
2026-01-18 12:51:10.00	197.26	16.99	
2026-01-18 12:51:12.17	197.49	17.22	
2026-01-18 12:51:14.34	197.73	17.45	
2026-01-18 12:51:16.50	197.97	17.67	
2026-01-18 12:51:18.67	198.21	17.90	
2026-01-18 12:51:20.83	198.45	18.13	
2026-01-18 12:51:23.00	198.70	18.37	
2026-01-18 12:51:25.17	198.95	18.60	
2026-01-18 12:51:27.33	199.21	18.84	
2026-01-18 12:51:29.50	199.47	19.08	
2026-01-18 12:51:31.67	199.73	19.32	
2026-01-18 12:51:33.83	200.00	19.56	
2026-01-18 12:51:36.00	200.27	19.80	
2026-01-18 12:51:38.17	200.55	20.05	
2026-01-18 12:51:40.33	200.83	20.29	
2026-01-18 12:51:42.50	201.12	20.54	
2026-01-18 12:51:44.67	201.41	20.79	
2026-01-18 12:51:46.83	201.70	21.04	
2026-01-18 12:51:49.00	202.00	21.30	
2026-01-18 12:51:51.17	202.31	21.55	
2026-01-18 12:51:53.33	202.61	21.81	
2026-01-18 12:51:55.50	202.93	22.07	
2026-01-18 12:51:57.67	203.25	22.33	
2026-01-18 12:51:59.83	203.57	22.59	
2026-01-18 12:52:02.00	203.90	22.86	
2026-01-18 12:52:04.17	204.24	23.13	
2026-01-18 12:52:06.33	204.58	23.39	
2026-01-18 12:52:08.50	204.92	23.66	
2026-01-18 12:52:10.67	205.28	23.94	
2026-01-18 12:52:12.83	205.64	24.21	
2026-01-18 12:52:15.00	206.00	24.48	
2026-01-18 12:52:17.17	206.37	24.76	
2026-01-18 12:52:19.34	206.75	25.04	
2026-01-18 12:52:21.50	207.13	25.32	
2026-01-18 12:52:23.67	207.53	25.60	
2026-01-18 12:52:25.84	207.92	25.89	
2026-01-18 12:52:28.00	208.33	26.17	
2026-01-18 12:52:30.17	208.74	26.46	
2026-01-18 12:52:32.34	209.16	26.75	
2026-01-18 12:52:34.50	209.59	27.04	
2026-01-18 12:52:36.67	210.02	27.33	
2026-01-18 12:52:38.84	210.46	27.62	
2026-01-18 12:52:41.00	210.91	27.91	
2026-01-18 12:52:43.17	211.37	28.21	
2026-01-18 12:52:45.34	211.84	28.50	
2026-01-18 12:52:47.51	212.31	28.80	
2026-01-18 12:52:49.67	212.80	29.10	
2026-01-18 12:52:51.84	213.29	29.40	
2026-01-18 12:52:54.00	213.79	29.70	
2026-01-18 12:52:56.17	214.30	30.00	
2026-01-18 12:52:58.33	214.82	30.30	
2026-01-18 12:53:00.50	215.35	30.60	
2026-01-18 12:53:02.67	215.89	30.91	
2026-01-18 12:53:04.83	216.44	31.21	
2026-01-18 12:53:07.00	217.00	31.51	
2026-01-18 12:53:09.17	217.58	31.82	
2026-01-18 12:53:11.33	218.16	32.12	
2026-01-18 12:53:13.50	218.75	32.42	
2026-01-18 12:53:15.67	219.35	32.72	
2026-01-18 12:53:17.83	219.96	33.03	
2026-01-18 12:53:20.00	220.59	33.33	
2026-01-18 12:53:22.17	221.23	33.63	
2026-01-18 12:53:24.33	221.88	33.93	
2026-01-18 12:53:26.50	222.54	34.23	
2026-01-18 12:53:28.67	223.21	34.53	
2026-01-18 12:53:30.83	223.89	34.82	
2026-01-18 12:53:33.00	224.59	35.12	
2026-01-18 12:53:35.17	225.30	35.41	
2026-01-18 12:53:37.34	226.02	35.70	
2026-01-18 12:53:39.50	226.76	35.98	
2026-01-18 12:53:41.67	227.50	36.27	
2026-01-18 12:53:43.84	228.27	36.55	
2026-01-18 12:53:46.00	229.04	36.83	
2026-01-18 12:53:48.17	229.82	37.10	
2026-01-18 12:53:50.33	230.62	37.37	
2026-01-18 12:53:52.50	231.43	37.64	
2026-01-18 12:53:54.66	232.26	37.90	
2026-01-18 12:53:56.83	233.10	38.16	
2026-01-18 12:53:59.00	233.95	38.42	
2026-01-18 12:54:01.16	234.81	38.66	
2026-01-18 12:54:03.33	235.69	38.91	
2026-01-18 12:54:05.50	236.58	39.14	
2026-01-18 12:54:07.66	237.48	39.37	
2026-01-18 12:54:09.83	238.40	39.60	
2026-01-18 12:54:12.00	239.33	39.81	
2026-01-18 12:54:14.17	240.27	40.02	
2026-01-18 12:54:16.33	241.22	40.23	
2026-01-18 12:54:18.50	242.18	40.42	
2026-01-18 12:54:20.67	243.16	40.61	
2026-01-18 12:54:22.83	244.14	40.79	
2026-01-18 12:54:25.00	245.14	40.96	
2026-01-18 12:54:27.16	246.14	41.12	
2026-01-18 12:54:29.33	247.16	41.27	
2026-01-18 12:54:31.50	248.19	41.41	
2026-01-18 12:54:33.66	249.22	41.55	
2026-01-18 12:54:35.83	250.26	41.67	
2026-01-18 12:54:38.00	251.31	41.78	
2026-01-18 12:54:40.16	252.36	41.89	
2026-01-18 12:54:42.33	253.43	41.98	
2026-01-18 12:54:44.50	254.50	42.06	
2026-01-18 12:54:46.66	255.56	42.13	
2026-01-18 12:54:48.83	256.64	42.19	
2026-01-18 12:54:51.00	257.73	42.24	
2026-01-18 12:54:53.16	258.81	42.28	
2026-01-18 12:54:55.33	259.89	42.30	
2026-01-18 12:54:57.50	260.98	42.32	
2026-01-18 12:54:59.66	262.07	42.32	
2026-01-18 12:55:01.83	263.15	42.32	
2026-01-18 12:55:04.00	264.24	42.30	
2026-01-18 12:55:06.16	265.32	42.27	
2026-01-18 12:55:08.33	266.41	42.23	
2026-01-18 12:55:10.50	267.49	42.17	
2026-01-18 12:55:12.67	268.56	42.11	
2026-01-18 12:55:14.83	269.63	42.04	
2026-01-18 12:55:17.00	270.70	41.95	
2026-01-18 12:55:19.18	271.76	41.85	
2026-01-18 12:55:21.34	272.81	41.75	
2026-01-18 12:55:23.51	273.86	41.63	
2026-01-18 12:55:25.68	274.90	41.51	
2026-01-18 12:55:27.84	275.93	41.37	
2026-01-18 12:55:30.01	276.95	41.23	
2026-01-18 12:55:32.18	277.96	41.07	
2026-01-18 12:55:34.34	278.96	40.91	
2026-01-18 12:55:36.51	279.95	40.74	
2026-01-18 12:55:38.68	280.93	40.55	
2026-01-18 12:55:40.84	281.90	40.37	
2026-01-18 12:55:43.01	282.86	40.17	
2026-01-18 12:55:45.18	283.81	39.96	
2026-01-18 12:55:47.34	284.74	39.75	
2026-01-18 12:55:49.51	285.66	39.54	
2026-01-18 12:55:51.68	286.57	39.31	
2026-01-18 12:55:53.84	287.46	39.08	
2026-01-18 12:55:56.01	288.35	38.84	
2026-01-18 12:55:58.18	289.22	38.60	
2026-01-18 12:56:00.34	290.08	38.35	
2026-01-18 12:56:02.51	290.93	38.10	
2026-01-18 12:56:04.68	291.76	37.84	
2026-01-18 12:56:06.84	292.58	37.58	
2026-01-18 12:56:09.01	293.38	37.31	
2026-01-18 12:56:11.18	294.18	37.04	
2026-01-18 12:56:13.34	294.95	36.76	
2026-01-18 12:56:15.51	295.72	36.48	
2026-01-18 12:56:17.68	296.48	36.20	
2026-01-18 12:56:19.84	297.22	35.92	
2026-01-18 12:56:22.01	297.95	35.63	
2026-01-18 12:56:24.18	298.66	35.34	
2026-01-18 12:56:26.34	299.37	35.05	
2026-01-18 12:56:28.51	300.06	34.76	
2026-01-18 12:56:30.67	300.73	34.47	
2026-01-18 12:56:32.84	301.40	34.17	
2026-01-18 12:56:35.01	302.06	33.87	
2026-01-18 12:56:37.18	302.70	33.57	
2026-01-18 12:56:39.34	303.33	33.27	
2026-01-18 12:56:41.51	303.95	32.97	
2026-01-18 12:56:43.67	304.56	32.67	
2026-01-18 12:56:45.84	305.16	32.37	
2026-01-18 12:56:48.01	305.75	32.07	
2026-01-18 12:56:50.17	306.32	31.77	
2026-01-18 12:56:52.34	306.89	31.47	
2026-01-18 12:56:54.51	307.45	31.17	
2026-01-18 12:56:56.67	307.99	30.87	
2026-01-18 12:56:58.84	308.53	30.57	
2026-01-18 12:57:01.01	309.06	30.27	
2026-01-18 12:57:03.17	309.57	29.97	
2026-01-18 12:57:05.34	310.08	29.67	
2026-01-18 12:57:07.51	310.58	29.37	
2026-01-18 12:57:09.67	311.07	29.07	
2026-01-18 12:57:11.85	311.55	28.78	
2026-01-18 12:57:14.02	312.02	28.48	
2026-01-18 12:57:16.18	312.48	28.19	
2026-01-18 12:57:18.35	312.94	27.89	
2026-01-18 12:57:20.52	313.39	27.60	
2026-01-18 12:57:22.69	313.83	27.31	
2026-01-18 12:57:24.85	314.26	27.02	
2026-01-18 12:57:27.02	314.68	26.74	
2026-01-18 12:57:29.19	315.10	26.45	
2026-01-18 12:57:31.35	315.51	26.17	
2026-01-18 12:57:33.52	315.91	25.88	
2026-01-18 12:57:35.69	316.31	25.60	
2026-01-18 12:57:37.85	316.69	25.32	
2026-01-18 12:57:40.02	317.08	25.04	
2026-01-18 12:57:42.18	317.45	24.77	
2026-01-18 12:57:44.35	317.82	24.49	
2026-01-18 12:57:46.52	318.18	24.22	
2026-01-18 12:57:48.69	318.54	23.95	
2026-01-18 12:57:50.85	318.89	23.68	
2026-01-18 12:57:53.02	319.24	23.41	
2026-01-18 12:57:55.18	319.57	23.15	
2026-01-18 12:57:57.35	319.91	22.88	
2026-01-18 12:57:59.52	320.24	22.62	
2026-01-18 12:58:01.69	320.56	22.36	
2026-01-18 12:58:03.85	320.88	22.10	
2026-01-18 12:58:06.02	321.19	21.84	
2026-01-18 12:58:08.18	321.50	21.59	
2026-01-18 12:58:10.35	321.80	21.33	
2026-01-18 12:58:12.52	322.10	21.08	
2026-01-18 12:58:14.68	322.39	20.83	
2026-01-18 12:58:16.85	322.68	20.58	
2026-01-18 12:58:19.02	322.97	20.34	
2026-01-18 12:58:21.18	323.25	20.09	
2026-01-18 12:58:23.35	323.52	19.85	
2026-01-18 12:58:25.51	323.79	19.61	
2026-01-18 12:58:27.68	324.06	19.37	
2026-01-18 12:58:29.84	324.32	19.13	
2026-01-18 12:58:32.01	324.58	18.89	
2026-01-18 12:58:34.19	324.84	18.66	
2026-01-18 12:58:36.36	325.09	18.43	
2026-01-18 12:58:38.52	325.34	18.20	
2026-01-18 12:58:40.69	325.59	17.97	
2026-01-18 12:58:42.86	325.83	17.74	
2026-01-18 12:58:45.02	326.06	17.51	
2026-01-18 12:58:47.19	326.30	17.29	
2026-01-18 12:58:49.36	326.53	17.06	
2026-01-18 12:58:51.52	326.76	16.84	
2026-01-18 12:58:53.69	326.98	16.62	
2026-01-18 12:58:55.86	327.21	16.41	
2026-01-18 12:58:58.02	327.42	16.19	
2026-01-18 12:59:00.19	327.64	15.97	
2026-01-18 12:59:02.35	327.85	15.76	
2026-01-18 12:59:04.52	328.06	15.55	
2026-01-18 12:59:06.69	328.27	15.34	
2026-01-18 12:59:08.85	328.47	15.13	
2026-01-18 12:59:11.02	328.67	14.92	
2026-01-18 12:59:13.19	328.87	14.72	
2026-01-18 12:59:15.35	329.07	14.51	
2026-01-18 12:59:17.52	329.26	14.31	
2026-01-18 12:59:19.68	329.45	14.11	
2026-01-18 12:59:21.85	329.64	13.91	
2026-01-18 12:59:24.02	329.83	13.71	
2026-01-18 12:59:26.18	330.01	13.51	
2026-01-18 12:59:28.35	330.19	13.32	
2026-01-18 12:59:30.51	330.37	13.12	
2026-01-18 12:59:32.68	330.55	12.93	
2026-01-18 12:59:34.85	330.73	12.73	
2026-01-18 12:59:37.01	330.90	12.54	
2026-01-18 12:59:39.18	331.07	12.35	
2026-01-18 12:59:41.34	331.24	12.17	
2026-01-18 12:59:43.51	331.41	11.98	
2026-01-18 12:59:45.68	331.57	11.79	
2026-01-18 12:59:47.85	331.73	11.61	
2026-01-18 12:59:50.01	331.89	11.43	
2026-01-18 12:59:52.18	332.05	11.24	
2026-01-18 12:59:54.34	332.21	11.06	
2026-01-18 12:59:56.51	332.37	10.88	
2026-01-18 12:59:58.69	332.52	10.70	
2026-01-18 13:00:00.85	332.67	10.52	
2026-01-18 13:00:03.02	332.82	10.35	
2026-01-18 13:00:05.19	332.97	10.17	
2026-01-18 13:00:07.36	333.12	10.00	
2026-01-18 13:00:09.52	333.26	9.82	
2026-01-18 13:00:11.69	333.41	9.65	
2026-01-18 13:00:13.85	333.55	9.48	
2026-01-18 13:00:16.02	333.69	9.31	
2026-01-18 13:00:18.19	333.83	9.14	
2026-01-18 13:00:20.36	333.97	8.97	
2026-01-18 13:00:22.52	334.10	8.81	
2026-01-18 13:00:24.69	334.24	8.64	
2026-01-18 13:00:26.86	334.37	8.48	
2026-01-18 13:00:29.02	334.50	8.31	
2026-01-18 13:00:31.19	334.63	8.15	
2026-01-18 13:00:33.35	334.76	7.99	
2026-01-18 13:00:35.52	334.89	7.82	
2026-01-18 13:00:37.69	335.02	7.66	
2026-01-18 13:00:39.85	335.14	7.50	
2026-01-18 13:00:42.02	335.26	7.35	
2026-01-18 13:00:44.19	335.39	7.19	
2026-01-18 13:00:46.35	335.51	7.03	
2026-01-18 13:00:48.52	335.63	6.88	
2026-01-18 13:00:50.69	335.75	6.72	
2026-01-18 13:00:52.85	335.87	6.57	
2026-01-18 13:00:55.02	335.98	6.41	
2026-01-18 13:00:57.19	336.10	6.26	
2026-01-18 13:00:59.35	336.21	6.11	
2026-01-18 13:01:01.52	336.33	5.96	
2026-01-18 13:01:03.69	336.44	5.81	
2026-01-18 13:01:05.85	336.55	5.66	
2026-01-18 13:01:08.02	336.66	5.51	
2026-01-18 13:01:10.19	336.77	5.36	
2026-01-18 13:01:12.35	336.88	5.21	
2026-01-18 13:01:14.52	336.99	5.07	
2026-01-18 13:01:16.68	337.09	4.92	
2026-01-18 13:01:18.85	337.20	4.78	
2026-01-18 13:01:21.02	337.30	4.63	
2026-01-18 13:01:23.18	337.41	4.49	
2026-01-18 13:01:25.35	337.51	4.35	
2026-01-18 13:01:27.52	337.61	4.20	
2026-01-18 13:01:29.69	337.71	4.06	
2026-01-18 13:01:31.85	337.81	3.92	
2026-01-18 13:01:34.02	337.91	3.78	
2026-01-18 13:01:36.19	338.01	3.64	
2026-01-18 13:01:38.37	338.11	3.50	
2026-01-18 13:01:40.53	338.21	3.36	
2026-01-18 13:01:42.70	338.30	3.23	
2026-01-18 13:01:44.87	338.40	3.09	
2026-01-18 13:01:47.03	338.49	2.95	
2026-01-18 13:01:49.20	338.58	2.82	
2026-01-18 13:01:51.36	338.68	2.68	
2026-01-18 13:01:53.53	338.77	2.55	
2026-01-18 13:01:55.70	338.86	2.41	
2026-01-18 13:01:57.86	338.95	2.28	
2026-01-18 13:02:00.03	339.04	2.15	
2026-01-18 13:02:02.19	339.13	2.02	
2026-01-18 13:02:04.36	339.22	1.88	

#Closed at: 2026-01-18 13:02:05
#Recorded file [436 MB]: 