passes_logs/2026/01/18/R2.0S_Moscow/R2.0S_Moscow__20260118_214958_NOAA_21_JPSS-2_rec.log

#Pass ID: 20260118_214958_NOAA 21 (JPSS-2)
#Satellite: NOAA 21 (JPSS-2)
#Configuration: NOAA-21
#almurnet v.1.7.20251203
#Start time: 2026-01-18 21:49:57

#Version: 2.2.20231116
#Station: R2.0S_Moscow
#Location: 37.707566 lon 55.798166 lat
#TLE: 1 54234U 22150A   26017.90260625  .00000050  00000+0  44518-4 0  9994
#TLE: 2 54234  98.7502 318.7672 0000612 269.1755  90.9351 14.19535344165221

#Time	Az	El	Level	Level2	SNR	BER	BlckErr	Temp	State	Recorded	gain1	gain2
2026-01-18 21:49:57.91	28.34	2.00	-42.9	-55.4	3.8	1.49e+00	0	52	0	0	57	15217
2026-01-18 21:50:00.93	28.60	2.15	-42.9	-55.5	3.8	1.49e+00	0	52	104	0	57	15250
2026-01-18 21:50:03.96	28.86	2.30	-42.9	-55.4	3.8	1.49e+00	0	53	104	0	57	15220
2026-01-18 21:50:06.99	29.13	2.45	-42.9	-55.4	3.8	1.49e+00	0	53	104	0	57	15208
2026-01-18 21:50:10.03	29.40	2.60	-42.9	-55.5	3.8	1.49e+00	0	53	104	0	57	15243
2026-01-18 21:50:13.06	29.67	2.75	-42.9	-55.4	3.8	1.49e+00	0	53	104	0	57	15210
2026-01-18 21:50:16.09	29.94	2.90	-42.8	-55.4	3.8	1.49e+00	0	53	104	0	57	15181
2026-01-18 21:50:19.12	30.22	3.05	-42.9	-55.4	3.8	1.49e+00	0	54	104	0	57	15220
2026-01-18 21:50:22.15	30.50	3.21	-42.9	-55.4	3.8	1.49e+00	0	54	104	0	57	15177
2026-01-18 21:50:25.18	30.78	3.36	-42.9	-55.4	3.8	1.49e+00	0	54	104	0	57	15224
2026-01-18 21:50:28.21	31.06	3.51	-42.9	-55.4	3.8	1.49e+00	0	54	104	0	57	15196
2026-01-18 21:50:31.24	31.35	3.67	-42.9	-55.4	3.8	1.49e+00	0	54	104	0	57	15216
2026-01-18 21:50:34.27	31.64	3.82	-42.9	-55.4	3.8	1.49e+00	0	55	104	0	57	15185
2026-01-18 21:50:37.31	31.93	3.97	-42.8	-55.4	3.8	1.49e+00	0	55	104	0	57	15141
2026-01-18 21:50:40.34	32.23	4.13	-42.9	-55.4	3.8	1.49e+00	0	55	104	0	57	15204
2026-01-18 21:50:43.37	32.53	4.28	-42.8	-55.4	3.8	1.49e+00	0	55	104	0	57	15157
2026-01-18 21:50:46.40	32.83	4.44	-42.9	-55.4	3.8	1.49e+00	0	55	104	0	57	15193
2026-01-18 21:50:49.44	33.14	4.59	-42.9	-55.4	3.8	1.49e+00	0	55	104	0	57	15178
2026-01-18 21:50:52.47	33.44	4.75	-42.8	-55.4	3.8	1.49e+00	0	56	104	0	57	15202
2026-01-18 21:50:55.50	33.76	4.90	-42.9	-55.4	3.8	1.49e+00	0	56	104	0	57	15211
2026-01-18 21:50:58.53	34.07	5.06	-42.9	-55.4	3.8	1.49e+00	0	56	104	0	57	15185
2026-01-18 21:51:01.56	34.39	5.22	-42.9	-55.4	3.8	1.49e+00	0	56	104	0	57	15158
2026-01-18 21:51:04.59	34.71	5.37	-42.8	-55.4	3.8	1.49e+00	0	56	104	0	57	15169
2026-01-18 21:51:07.62	35.03	5.53	-42.8	-55.4	3.8	1.49e+00	0	56	104	0	57	15163
2026-01-18 21:51:10.65	35.36	5.69	-42.8	-55.4	3.8	1.49e+00	0	56	104	0	57	15183
2026-01-18 21:51:13.69	35.69	5.84	-42.8	-55.4	3.8	1.49e+00	0	57	104	0	57	15172
2026-01-18 21:51:16.72	36.03	6.00	-42.8	-55.4	3.8	1.49e+00	0	57	104	0	57	15188
2026-01-18 21:51:19.75	36.37	6.16	-42.8	-55.4	3.8	1.49e+00	0	57	104	0	57	15171
2026-01-18 21:51:22.78	36.71	6.31	-42.8	-55.4	3.8	1.49e+00	0	57	104	0	57	15203
2026-01-18 21:51:25.81	37.05	6.47	-42.8	-55.4	3.8	1.49e+00	0	57	104	0	57	15157
2026-01-18 21:51:28.85	37.40	6.63	-42.8	-55.4	3.8	1.49e+00	0	57	104	0	57	15164
2026-01-18 21:51:31.88	37.75	6.79	-42.9	-55.4	3.8	1.49e+00	0	57	104	0	57	15142
2026-01-18 21:51:34.91	38.11	6.94	-42.8	-55.2	3.8	1.49e+00	0	57	104	0	57	14845
2026-01-18 21:51:37.94	38.47	7.10	-42.8	-55.1	3.8	1.49e+00	0	58	104	0	57	14689
2026-01-18 21:51:40.97	38.83	7.26	-42.7	-53.8	3.8	1.49e+00	0	58	104	0	57	12636
2026-01-18 21:51:44.00	39.20	7.42	-42.5	-52.3	4.1	1.47e+00	0	58	104	0	57	10539
2026-01-18 21:51:47.03	39.57	7.57	-42.8	-54.8	3.8	1.49e+00	0	57	104	0	57	14183
2026-01-18 21:51:50.06	39.95	7.73	-42.4	-51.8	3.9	1.47e+00	0	58	104	0	56	10629
2026-01-18 21:51:53.10	40.33	7.89	-41.2	-46.6	7.3	1.38e-01	0	58	0	6291456	54	6551
2026-01-18 21:51:56.13	40.71	8.05	-40.8	-45.5	8.4	5.22e-02	0	58	0	15728640	53	6089
2026-01-18 21:51:59.16	41.10	8.21	-42.5	-49.3	5.6	2.94e-01	0	58	0	19922944	55	8404
2026-01-18 21:52:02.19	41.49	8.36	-41.1	-45.6	8.8	3.60e-02	0	58	0	27262976	54	5824
2026-01-18 21:52:05.21	41.88	8.52	-40.8	-45.1	9.2	2.20e-02	0	58	0	36700160	53	5827
2026-01-18 21:52:08.24	42.28	8.68	-40.8	-44.9	9.5	1.62e-02	0	58	0	46137344	53	5686
2026-01-18 21:52:11.27	42.68	8.83	-40.7	-44.6	10.0	8.71e-03	0	58	0	55574528	53	5475
2026-01-18 21:52:14.29	43.09	8.99	-40.7	-44.4	10.1	6.47e-03	0	58	0	65011712	53	5400
2026-01-18 21:52:17.32	43.50	9.15	-40.8	-44.3	10.4	4.52e-03	0	58	0	74448896	53	5320
2026-01-18 21:52:20.35	43.92	9.30	-40.6	-43.9	10.9	2.43e-03	0	59	0	83886080	53	5098
2026-01-18 21:52:23.38	44.34	9.46	-40.5	-43.7	11.2	1.48e-03	0	59	0	93323264	52	5259
2026-01-18 21:52:26.41	44.76	9.61	-40.6	-43.9	11.1	1.63e-03	0	59	0	102760448	52	5341
2026-01-18 21:52:29.44	45.19	9.77	-40.6	-43.8	11.1	1.45e-03	0	59	0	112197632	52	5340
2026-01-18 21:52:32.46	45.62	9.92	-40.6	-43.8	11.1	1.62e-03	0	59	0	121634816	52	5325
2026-01-18 21:52:35.49	46.06	10.08	-40.6	-43.7	11.3	1.15e-03	0	59	0	131072000	52	5270
2026-01-18 21:52:38.53	46.50	10.23	-40.6	-43.7	11.4	1.06e-03	0	59	0	140509184	52	5255
2026-01-18 21:52:41.55	46.95	10.38	-40.5	-43.5	11.6	7.24e-04	0	59	0	149946368	52	5151
2026-01-18 21:52:44.59	47.40	10.53	-40.4	-43.5	11.6	7.47e-04	0	59	0	159383552	52	5110
2026-01-18 21:52:47.61	47.86	10.69	-40.5	-43.5	11.7	6.79e-04	0	59	0	168820736	52	5118
2026-01-18 21:52:50.64	48.32	10.84	-40.4	-43.3	11.8	5.09e-04	0	59	0	178257920	52	5020
2026-01-18 21:52:53.67	48.78	10.99	-40.4	-43.4	11.8	5.19e-04	0	59	0	187695104	52	5089
2026-01-18 21:52:56.70	49.25	11.14	-40.5	-43.5	11.7	5.20e-04	0	59	0	197132288	52	5101
2026-01-18 21:52:59.73	49.73	11.29	-40.5	-43.4	11.8	4.96e-04	0	59	0	206569472	52	5090
2026-01-18 21:53:02.76	50.21	11.43	-40.4	-43.4	11.8	5.00e-04	0	59	0	216006656	52	5060
2026-01-18 21:53:05.79	50.69	11.58	-40.5	-43.4	11.8	4.47e-04	0	59	0	225443840	52	5084
2026-01-18 21:53:08.82	51.18	11.73	-40.4	-43.3	12.0	3.81e-04	0	60	0	234881024	52	5015
2026-01-18 21:53:11.85	51.67	11.87	-40.6	-43.6	11.7	5.32e-04	0	59	0	244318208	52	5171
2026-01-18 21:53:14.87	52.17	12.02	-40.6	-43.7	11.6	8.13e-04	0	59	0	253755392	52	5251
2026-01-18 21:53:17.91	52.67	12.16	-40.6	-43.6	11.6	7.03e-04	0	60	0	263192576	52	5217
2026-01-18 21:53:20.94	53.18	12.30	-40.6	-43.7	11.6	8.38e-04	0	59	0	272629760	52	5248
2026-01-18 21:53:23.97	53.69	12.44	-40.5	-43.5	11.8	4.68e-04	0	59	0	282066944	52	5141
2026-01-18 21:53:27.00	54.21	12.58	-40.5	-43.4	11.9	3.71e-04	0	60	0	291504128	52	5052
2026-01-18 21:53:30.02	54.73	12.72	-40.4	-43.4	12.0	3.28e-04	0	60	0	300941312	52	5042
2026-01-18 21:53:33.05	55.26	12.86	-40.5	-43.4	11.9	4.02e-04	0	60	0	310378496	52	5073
2026-01-18 21:53:36.08	55.79	12.99	-40.6	-43.6	11.8	4.58e-04	0	60	0	319815680	52	5164
2026-01-18 21:53:39.11	56.33	13.12	-40.5	-43.4	11.9	4.09e-04	0	60	0	329252864	52	5078
2026-01-18 21:53:42.13	56.87	13.26	-40.6	-43.5	11.8	5.29e-04	0	60	0	338690048	52	5146
2026-01-18 21:53:45.16	57.41	13.39	-40.5	-43.5	11.8	4.80e-04	0	60	0	349175808	52	5121
2026-01-18 21:53:48.19	57.96	13.52	-40.5	-43.3	11.9	3.81e-04	0	60	0	357564416	52	5041
2026-01-18 21:53:51.22	58.52	13.64	-40.4	-43.2	12.1	3.39e-04	0	60	0	368050176	52	4976
2026-01-18 21:53:54.25	59.08	13.77	-40.4	-43.3	12.0	2.53e-04	0	60	0	376438784	52	4996
2026-01-18 21:53:57.28	59.64	13.89	-40.3	-43.1	12.2	1.76e-04	0	60	0	386924544	52	4878
2026-01-18 21:54:00.31	60.21	14.01	-40.3	-43.2	12.1	2.30e-04	0	60	0	396361728	52	4933
2026-01-18 21:54:03.34	60.78	14.13	-40.2	-43.0	12.2	2.11e-04	0	60	0	405798912	52	4864
2026-01-18 21:54:06.36	61.36	14.25	-40.1	-42.8	12.4	1.30e-04	0	60	0	415236096	52	4728
2026-01-18 21:54:09.39	61.94	14.36	-40.0	-42.8	12.3	1.74e-04	0	60	0	424673280	52	4716
2026-01-18 21:54:12.42	62.53	14.48	-40.2	-43.0	12.1	2.77e-04	0	60	0	434110464	51	5147
2026-01-18 21:54:15.45	63.12	14.59	-40.2	-43.0	12.0	3.13e-04	0	60	0	443547648	51	5149
2026-01-18 21:54:18.48	63.72	14.70	-40.1	-43.0	11.9	3.65e-04	0	60	0	452984832	51	5139
2026-01-18 21:54:21.51	64.32	14.80	-40.2	-43.2	11.7	5.73e-04	0	60	0	462422016	51	5226
2026-01-18 21:54:24.54	64.92	14.91	-39.9	-42.8	11.8	5.52e-04	0	60	0	471859200	51	5037
2026-01-18 21:54:27.57	65.53	15.01	-40.2	-43.4	11.2	1.18e-03	0	60	0	481296384	51	5350
2026-01-18 21:54:30.60	66.14	15.11	-39.8	-42.8	11.8	5.52e-04	0	60	0	490733568	51	5004
2026-01-18 21:54:33.63	66.76	15.20	-39.9	-43.0	11.4	1.05e-03	0	60	0	500170752	51	5128
2026-01-18 21:54:36.66	67.38	15.29	-39.9	-43.1	11.2	1.56e-03	0	60	0	509607936	51	5195
2026-01-18 21:54:39.68	68.00	15.38	-40.3	-43.9	10.2	6.33e-03	0	61	0	519045120	51	5716
2026-01-18 21:54:42.71	68.63	15.47	-40.4	-44.4	9.4	1.52e-02	0	61	0	528482304	51	6022
2026-01-18 21:54:45.74	69.26	15.56	-40.3	-44.6	9.0	2.08e-02	0	60	0	537919488	51	6168
2026-01-18 21:54:48.78	69.90	15.64	-40.4	-44.9	8.6	3.45e-02	0	60	0	547356672	51	6358
2026-01-18 21:54:51.81	70.53	15.72	-40.5	-45.6	7.7	7.97e-02	0	61	0	556793856	51	6947
2026-01-18 21:54:54.83	71.17	15.79	-40.5	-46.2	6.9	1.51e-01	0	61	0	566231040	51	7456
2026-01-18 21:54:57.86	71.82	15.86	-41.0	-48.1	5.4	4.47e-01	0	61	0	575668224	52	8723
2026-01-18 21:55:00.89	72.46	15.93	-41.7	-52.2	3.8	2.82e-01	0	61	104	578813952	53	13200
2026-01-18 21:55:03.92	73.11	16.00	-40.3	-45.6	7.3	1.32e-01	0	60	0	585105408	52	6546
2026-01-18 21:55:06.95	73.77	16.06	-40.5	-46.2	6.8	1.78e-01	0	61	0	594542592	52	6982
2026-01-18 21:55:09.98	74.42	16.12	-41.4	-52.6	3.8	1.18e+00	0	61	104	596639744	53	13836
2026-01-18 21:55:13.00	75.08	16.17	-40.3	-46.0	6.8	2.26e-01	0	61	0	600834048	52	6868
2026-01-18 21:55:16.03	75.74	16.23	-40.3	-45.4	7.5	1.05e-01	0	61	0	610271232	52	6398
2026-01-18 21:55:19.06	76.40	16.28	-40.2	-45.0	8.1	5.99e-02	0	61	0	619708416	52	6083
2026-01-18 21:55:22.08	77.06	16.32	-40.3	-45.5	7.5	1.00e-01	0	61	0	629145600	52	6475
2026-01-18 21:55:25.11	77.73	16.36	-40.3	-45.3	7.7	8.58e-02	0	61	0	638582784	52	6344
2026-01-18 21:55:28.14	78.40	16.40	-40.4	-45.2	8.0	6.57e-02	0	61	0	648019968	52	6256
2026-01-18 21:55:31.18	79.07	16.43	-40.4	-45.0	8.4	4.52e-02	0	61	0	657457152	52	6131
2026-01-18 21:55:34.21	79.74	16.46	-40.5	-45.3	8.0	6.47e-02	0	61	0	666894336	52	6327
2026-01-18 21:55:37.23	80.41	16.49	-40.2	-44.8	8.6	4.17e-02	0	61	0	676331520	52	5936
2026-01-18 21:55:40.26	81.09	16.51	-40.3	-44.3	9.4	1.80e-02	0	61	0	685768704	52	5656
2026-01-18 21:55:43.29	81.76	16.53	-40.5	-44.6	9.2	2.06e-02	0	61	0	695205888	52	5801
2026-01-18 21:55:46.32	82.44	16.55	-40.4	-44.6	9.1	2.34e-02	0	61	0	704643072	52	5804
2026-01-18 21:55:49.35	83.11	16.56	-40.3	-44.3	9.5	1.48e-02	0	61	0	714080256	52	5610
2026-01-18 21:55:52.38	83.79	16.57	-40.6	-44.8	9.1	2.28e-02	0	61	0	723517440	52	5961
2026-01-18 21:55:55.40	84.47	16.57	-40.5	-44.6	9.1	2.08e-02	0	61	0	732954624	52	5852
2026-01-18 21:55:58.43	85.14	16.57	-40.3	-44.3	9.4	1.61e-02	0	61	0	742391808	52	5624
2026-01-18 21:56:01.46	85.82	16.57	-40.4	-44.6	9.3	2.01e-02	0	61	0	751828992	52	5816
2026-01-18 21:56:04.49	86.50	16.56	-40.4	-44.6	9.2	1.94e-02	0	61	0	761266176	52	5832
2026-01-18 21:56:07.52	87.17	16.55	-40.4	-44.7	8.9	2.95e-02	0	61	0	770703360	52	5908
2026-01-18 21:56:10.55	87.85	16.54	-40.7	-44.7	9.3	1.91e-02	0	61	0	780140544	52	5913
2026-01-18 21:56:13.58	88.53	16.52	-40.5	-44.0	10.4	4.88e-03	0	61	0	789577728	52	5458
2026-01-18 21:56:16.61	89.20	16.50	-40.3	-43.5	11.1	1.83e-03	0	61	0	799014912	52	5113
2026-01-18 21:56:19.64	89.87	16.47	-40.2	-43.3	11.4	1.05e-03	0	61	0	808452096	52	5041
2026-01-18 21:56:22.67	90.55	16.44	-40.4	-43.4	11.6	7.49e-04	0	61	0	818937856	52	5061
2026-01-18 21:56:25.70	91.22	16.41	-40.3	-43.2	11.9	4.10e-04	0	61	0	827326464	52	4981
2026-01-18 21:56:28.73	91.89	16.37	-40.1	-42.8	12.5	1.64e-04	0	61	0	837812224	52	4711
2026-01-18 21:56:31.76	92.56	16.33	-40.0	-42.7	12.6	8.69e-05	0	61	0	847249408	52	4670
2026-01-18 21:56:34.79	93.22	16.28	-40.2	-42.9	12.4	1.16e-04	0	61	0	856686592	51	5078
2026-01-18 21:56:37.83	93.89	16.24	-40.2	-42.9	12.5	1.33e-04	0	61	0	866123776	51	5090
2026-01-18 21:56:40.85	94.55	16.18	-40.2	-42.8	12.6	7.55e-05	0	61	0	875560960	51	5017
2026-01-18 21:56:43.88	95.21	16.13	-40.2	-42.9	12.6	7.70e-05	0	61	0	884998144	51	5043
2026-01-18 21:56:46.91	95.87	16.07	-40.2	-42.9	12.6	7.40e-05	0	61	0	894435328	51	5050
2026-01-18 21:56:49.95	96.52	16.01	-40.2	-42.8	12.7	9.30e-05	0	61	0	903872512	51	5003
2026-01-18 21:56:52.98	97.18	15.94	-40.3	-43.0	12.6	8.77e-05	0	61	0	913309696	51	5118
2026-01-18 21:56:56.00	97.82	15.87	-40.0	-42.5	13.1	3.73e-05	0	61	0	922746880	51	4820
2026-01-18 21:56:59.03	98.47	15.80	-40.1	-42.6	13.0	4.73e-05	0	61	0	932184064	51	4920
2026-01-18 21:57:02.06	99.11	15.73	-40.1	-42.7	12.9	6.10e-05	0	61	0	941621248	51	4946
2026-01-18 21:57:05.09	99.75	15.65	-40.1	-42.7	12.9	4.11e-05	0	61	0	951058432	51	4928
2026-01-18 21:57:08.12	100.39	15.57	-40.0	-42.5	13.0	3.58e-05	0	61	0	960495616	51	4856
2026-01-18 21:57:11.15	101.02	15.48	-39.9	-42.5	13.1	3.43e-05	0	61	0	969932800	51	4819
2026-01-18 21:57:14.18	101.65	15.40	-40.1	-42.6	12.9	5.34e-05	0	61	0	979369984	51	4921
2026-01-18 21:57:17.21	102.28	15.31	-40.1	-42.7	12.8	8.46e-05	0	61	0	988807168	51	4964
2026-01-18 21:57:20.24	102.90	15.21	-40.0	-42.5	13.0	4.34e-05	0	61	0	998244352	50	5114
2026-01-18 21:57:23.26	103.52	15.12	-40.1	-42.6	12.9	5.72e-05	0	61	0	1007681536	50	5188
2026-01-18 21:57:26.29	104.14	15.02	-40.0	-42.5	13.0	6.56e-05	0	61	0	1017118720	50	5134
2026-01-18 21:57:29.32	104.75	14.92	-40.1	-42.8	12.7	5.07e-03	0	61	0	1026555904	50	5304
2026-01-18 21:57:32.35	105.36	14.81	-40.0	-42.6	12.9	5.87e-05	0	61	0	1035993088	50	5189
2026-01-18 21:57:35.38	105.96	14.71	-40.0	-42.5	13.0	5.11e-05	0	61	0	1045430272	50	5153
2026-01-18 21:57:38.41	106.56	14.60	-40.0	-42.8	12.7	1.49e-04	0	61	0	1054867456	50	5303
2026-01-18 21:57:41.43	107.15	14.49	-40.2	-43.0	12.4	9.13e-04	0	61	0	1064304640	51	5110
2026-01-18 21:57:44.46	107.74	14.37	-40.3	-43.0	12.5	2.72e-04	0	61	0	1073741824	51	5107
2026-01-18 21:57:47.49	108.33	14.26	-40.2	-42.8	12.7	1.39e-04	0	61	0	1083179008	51	5008
2026-01-18 21:57:50.52	108.91	14.14	-40.3	-43.0	12.6	9.00e-05	0	61	0	1092616192	51	5109
2026-01-18 21:57:53.55	109.49	14.02	-40.4	-43.1	12.4	1.50e-04	0	61	0	1102053376	51	5210
2026-01-18 21:57:56.58	110.06	13.90	-40.5	-43.3	12.2	2.18e-04	0	61	0	1111490560	51	5304
2026-01-18 21:57:59.61	110.63	13.77	-40.4	-43.2	12.3	2.20e-04	0	61	0	1120927744	51	5261
2026-01-18 21:58:02.64	111.19	13.65	-40.4	-43.1	12.4	1.84e-04	0	61	0	1130364928	51	5190
2026-01-18 21:58:05.66	111.75	13.52	-40.3	-43.1	12.4	1.69e-04	0	61	0	1139802112	51	5176
2026-01-18 21:58:08.70	112.30	13.39	-40.4	-43.3	12.2	2.80e-04	0	61	0	1149239296	51	5288
2026-01-18 21:58:11.73	112.85	13.26	-40.6	-43.5	12.0	4.23e-04	0	61	0	1159725056	51	5404
2026-01-18 21:58:14.76	113.40	13.12	-40.6	-43.5	11.9	3.87e-04	0	62	0	1169162240	51	5431
2026-01-18 21:58:17.79	113.94	12.99	-40.7	-43.7	11.7	4.97e-04	0	61	0	1178599424	51	5538
2026-01-18 21:58:20.81	114.47	12.85	-40.6	-43.6	11.7	5.77e-04	0	61	0	1188036608	51	5489
2026-01-18 21:58:23.84	115.00	12.72	-40.3	-43.4	11.8	5.88e-04	0	61	0	1197473792	51	5348
2026-01-18 21:58:26.87	115.52	12.58	-40.7	-43.8	11.4	3.25e-02	0	61	0	1206910976	52	5309
2026-01-18 21:58:29.90	116.04	12.44	-40.4	-43.7	11.3	3.67e-03	0	61	0	1216348160	51	5554
2026-01-18 21:58:32.93	116.56	12.29	-38.5	-42.8	10.2	2.11e-02	0	61	0	1225785344	48	5970
2026-01-18 21:58:35.96	117.07	12.15	-40.1	-44.1	10.5	1.78e-02	0	62	0	1235222528	51	5819
2026-01-18 21:58:38.99	117.58	12.01	-39.5	-43.6	10.5	1.87e-02	0	61	0	1244659712	50	5848
2026-01-18 21:58:42.02	118.08	11.86	-38.3	-43.4	9.8	2.64e-02	0	61	0	1254096896	48	6366
2026-01-18 21:58:45.05	118.58	11.72	-40.0	-43.4	11.1	1.24e-02	0	61	0	1263534080	50	5717
2026-01-18 21:58:48.07	119.07	11.57	-40.1	-43.6	11.0	4.09e-02	0	61	0	1272971264	51	5506
2026-01-18 21:58:51.11	119.55	11.42	-38.8	-43.4	9.8	1.85e-02	0	61	0	1282408448	48	6385
2026-01-18 21:58:54.13	120.03	11.27	-40.3	-43.9	10.1	4.86e-02	0	61	0	1291845632	50	6015
2026-01-18 21:58:57.16	120.51	11.12	-40.8	-44.5	10.0	1.77e-01	0	61	0	1300234240	52	5761
2026-01-18 21:59:00.19	120.99	10.97	-39.2	-43.6	10.5	2.71e-01	0	61	0	1309671424	50	5803
2026-01-18 21:59:03.22	121.45	10.82	-39.9	-43.7	10.4	1.41e-01	0	61	0	1319108608	50	5900
2026-01-18 21:59:06.25	121.92	10.66	-33.5	-41.9	4.6	1.45e+00	0	61	104	1325400064	31	14254
2026-01-18 21:59:09.28	122.38	10.51	-38.3	-44.4	8.4	9.90e-02	0	61	0	1329594368	48	7180
2026-01-18 21:59:12.31	122.83	10.36	-39.0	-46.8	4.2	8.53e-01	0	61	104	1336934400	48	9445
2026-01-18 21:59:15.34	123.28	10.20	-37.5	-45.3	6.8	3.84e-01	10	62	0	1341128704	47	8402
2026-01-18 21:59:18.37	123.72	10.05	-35.2	-45.0	4.2	1.47e+00	0	61	104	1341128704	43	10268
2026-01-18 21:59:21.40	124.16	9.89	-36.0	-44.2	7.8	4.31e-01	13	62	0	1341128704	47	7434
2026-01-18 21:59:24.43	124.60	9.73	-24.1	-39.8	3.7	1.52e+00	0	61	104	1341128704	20	21158
2026-01-18 21:59:27.45	125.03	9.58	-36.5	-43.8	4.8	1.46e+00	0	62	104	1341128704	40	10613
2026-01-18 21:59:30.48	125.46	9.42	-26.9	-38.5	4.3	1.48e+00	0	62	104	1341128704	22	16146
2026-01-18 21:59:33.51	125.88	9.26	-25.2	-38.1	3.9	1.51e+00	0	61	104	1341128704	19	18505
2026-01-18 21:59:36.54	126.30	9.11	-19.1	-31.3	3.9	1.51e+00	0	61	104	1341128704	4	19888
2026-01-18 21:59:39.57	126.71	8.95	-20.8	-33.5	3.6	1.51e+00	0	61	104	1341128704	15	13662
2026-01-18 21:59:42.60	127.12	8.79	-15.9	-27.7	4.0	1.50e+00	0	62	104	1341128704	9	9840
2026-01-18 21:59:45.62	127.52	8.63	-17.3	-26.8	3.8	1.50e+00	0	61	104	1341128704	2	13275
2026-01-18 21:59:48.65	127.93	8.47	-15.4	-28.8	3.6	1.49e+00	0	61	104	1341128704	6	13276
2026-01-18 21:59:51.68	128.32	8.31	-15.7	-29.2	3.5	1.50e+00	0	62	104	1341128704	1	18709
2026-01-18 21:59:54.71	128.71	8.16	-13.9	-28.1	3.8	1.51e+00	0	62	104	1341128704	1	16450
2026-01-18 21:59:57.74	129.10	8.00	-15.4	-31.9	3.6	1.52e+00	0	62	104	1341128704	1	25503
2026-01-18 22:00:00.77	129.49	7.84	-45.1	-57.6	3.8	1.49e+00	0	61	104	1341128704	60	16464
2026-01-18 22:00:03.80	129.87	7.68	-45.5	-58.1	3.8	1.49e+00	0	61	104	1341128704	61	16351
2026-01-18 22:00:06.83	130.24	7.52	-45.7	-58.3	3.8	1.49e+00	0	62	104	1341128704	61	16735
2026-01-18 22:00:09.86	130.62	7.36	-45.5	-58.0	3.8	1.49e+00	0	62	104	1341128704	62	15240
2026-01-18 22:00:12.89	130.99	7.20	-45.4	-57.8	3.8	1.49e+00	0	62	104	1341128704	62	14938
2026-01-18 22:00:15.93	131.35	7.04	-45.3	-57.6	3.8	1.49e+00	0	62	104	1341128704	62	14635
2026-01-18 22:00:18.96	131.71	6.88	-45.3	-57.7	3.8	1.49e+00	0	62	104	1341128704	62	14720
2026-01-18 22:00:21.99	132.07	6.72	-45.3	-57.6	3.8	1.49e+00	0	62	104	1341128704	62	14673
2026-01-18 22:00:25.02	132.42	6.56	-45.3	-57.6	3.8	1.49e+00	0	62	104	1341128704	62	14645
2026-01-18 22:00:28.06	132.77	6.40	-45.3	-57.6	3.8	1.49e+00	0	62	104	1341128704	62	14656
2026-01-18 22:00:31.09	133.12	6.24	-45.3	-57.6	3.8	1.49e+00	0	62	104	1341128704	62	14643
2026-01-18 22:00:34.12	133.46	6.08	-45.3	-57.6	3.8	1.49e+00	0	62	104	1341128704	62	14664
2026-01-18 22:00:37.15	133.80	5.92	-45.3	-57.6	3.8	1.49e+00	0	62	104	1341128704	62	14586
2026-01-18 22:00:40.18	134.13	5.76	-45.3	-57.6	3.8	1.49e+00	0	62	104	1341128704	62	14620
2026-01-18 22:00:43.21	134.47	5.60	-45.3	-57.6	3.8	1.49e+00	0	62	104	1341128704	62	14610
2026-01-18 22:00:46.25	134.80	5.45	-45.3	-57.6	3.8	1.49e+00	0	62	104	1341128704	62	14597
2026-01-18 22:00:49.28	135.12	5.29	-45.3	-57.6	3.8	1.49e+00	0	62	104	1341128704	62	14554
2026-01-18 22:00:52.31	135.44	5.13	-45.2	-57.6	3.8	1.49e+00	0	62	104	1341128704	62	14575
2026-01-18 22:00:55.34	135.76	4.97	-45.3	-57.6	3.8	1.49e+00	0	62	104	1341128704	62	14596
2026-01-18 22:00:58.37	136.07	4.81	-45.2	-57.6	3.8	1.49e+00	0	62	104	1341128704	62	14609
2026-01-18 22:01:01.41	136.39	4.66	-45.3	-57.6	3.8	1.49e+00	0	62	104	1341128704	62	14576
2026-01-18 22:01:04.44	136.69	4.50	-45.2	-57.6	3.8	1.49e+00	0	62	104	1341128704	62	14542
2026-01-18 22:01:07.47	137.00	4.34	-45.2	-57.5	3.8	1.49e+00	0	62	104	1341128704	62	14525
2026-01-18 22:01:10.50	137.30	4.18	-45.2	-57.5	3.8	1.49e+00	0	62	104	1341128704	62	14507
2026-01-18 22:01:13.53	137.60	4.03	-45.2	-57.6	3.8	1.49e+00	0	62	104	1341128704	62	14574
2026-01-18 22:01:16.56	137.90	3.87	-45.2	-57.6	3.8	1.49e+00	0	62	104	1341128704	62	14544
2026-01-18 22:01:19.59	138.19	3.72	-45.2	-57.5	3.8	1.49e+00	0	62	104	1341128704	62	14506
2026-01-18 22:01:22.62	138.48	3.56	-45.2	-57.5	3.8	1.49e+00	0	62	104	1341128704	62	14491
2026-01-18 22:01:25.66	138.77	3.40	-45.2	-57.5	3.8	1.49e+00	0	62	104	1341128704	62	14466
2026-01-18 22:01:28.69	139.05	3.25	-45.2	-57.5	3.8	1.49e+00	0	62	104	1341128704	62	14508
2026-01-18 22:01:31.72	139.33	3.09	-45.2	-57.5	3.8	1.49e+00	0	62	104	1341128704	62	14506
2026-01-18 22:01:34.75	139.61	2.94	-45.2	-57.5	3.8	1.49e+00	0	62	104	1341128704	62	14493
2026-01-18 22:01:37.78	139.89	2.79	-45.2	-57.5	3.8	1.49e+00	0	62	104	1341128704	62	14411
2026-01-18 22:01:40.82	140.16	2.63	-45.2	-57.5	3.8	1.49e+00	0	62	104	1341128704	62	14457
2026-01-18 22:01:43.85	140.43	2.48	-45.2	-57.5	3.8	1.49e+00	0	62	104	1341128704	62	14500
2026-01-18 22:01:46.88	140.70	2.33	-45.2	-57.5	3.8	1.49e+00	0	62	104	1341128704	62	14451
2026-01-18 22:01:49.91	140.96	2.17	-45.2	-57.5	3.8	1.49e+00	0	62	104	1341128704	62	14467
2026-01-18 22:01:52.94	141.22	2.02	-45.2	-57.5	3.8	1.49e+00	0	62	104	1341128704	62	14427

#Closed at: 2026-01-18 22:01:54
#Recorded file [1341 MB]: D:/lorett/data/31039_260119_004957.dat