passes_logs/2026/01/18/R2.0S_Moscow/R2.0S_Moscow__20260118_082954_SUOMI_NPP_rec.log

#Pass ID: 20260118_082954_SUOMI NPP
#Satellite: SUOMI NPP
#Configuration: NPP
#almurnet v.1.7.20251203
#Start time: 2026-01-18 08:29:55

#Version: 2.2.20231116
#Station: R2.0S_Moscow
#Location: 37.707566 lon 55.798166 lat
#TLE: 1 37849U 11061A   26017.28905266  .00000074  00000+0  55894-4 0  9999
#TLE: 2 37849  98.7814 319.3179 0002408  59.7048 300.4366 14.19525847737038

#Time	Az	El	Level	Level2	SNR	BER	BlckErr	Temp	State	Recorded	gain1	gain2
2026-01-18 08:29:55.68	116.69	2.06	-37.8	-56.1	4.0	1.50e+00	0	51	0	0	49	26041
2026-01-18 08:29:59.72	116.44	2.29	-36.9	-55.7	3.9	1.50e+00	0	52	104	0	49	24887
2026-01-18 08:30:03.76	116.19	2.53	-37.7	-56.3	4.2	1.50e+00	0	52	104	0	49	26578
2026-01-18 08:30:07.80	115.94	2.77	-37.9	-55.9	4.0	1.50e+00	0	53	104	0	48	26879
2026-01-18 08:30:11.85	115.68	3.01	-37.5	-55.5	4.3	1.50e+00	0	53	104	0	47	27347
2026-01-18 08:30:15.89	115.41	3.25	-38.4	-56.0	4.0	1.50e+00	0	53	104	0	49	25572
2026-01-18 08:30:19.93	115.14	3.49	-38.6	-55.4	3.9	1.50e+00	0	53	104	0	47	26769
2026-01-18 08:30:23.98	114.87	3.73	-36.8	-54.9	4.0	1.50e+00	0	54	104	0	45	28456
2026-01-18 08:30:28.02	114.59	3.98	-34.8	-53.6	4.2	1.50e+00	0	54	104	0	46	23143
2026-01-18 08:30:32.07	114.31	4.23	-38.8	-55.3	4.1	1.50e+00	0	54	104	0	46	28217
2026-01-18 08:30:36.11	114.02	4.47	-36.9	-53.9	4.1	1.50e+00	0	54	104	0	44	26888
2026-01-18 08:30:40.15	113.73	4.72	-35.9	-52.7	3.9	1.50e+00	0	54	104	0	42	26264
2026-01-18 08:30:44.20	113.43	4.98	-30.5	-50.3	4.2	1.50e+00	0	55	104	0	43	18786
2026-01-18 08:30:48.24	113.12	5.23	-38.3	-56.2	4.2	1.50e+00	0	55	104	0	49	26390
2026-01-18 08:30:52.29	112.81	5.49	-37.0	-55.3	4.0	1.50e+00	0	55	104	0	49	23768
2026-01-18 08:30:56.33	112.50	5.74	-38.7	-56.1	3.9	1.50e+00	0	55	104	0	49	25950
2026-01-18 08:31:00.37	112.18	6.00	-37.8	-54.5	4.2	1.50e+00	0	55	104	0	45	27357
2026-01-18 08:31:04.42	111.85	6.26	-39.1	-56.0	4.1	1.49e+00	0	55	104	0	49	25717
2026-01-18 08:31:08.46	111.52	6.52	-36.1	-53.3	4.1	1.50e+00	0	56	104	0	47	21127
2026-01-18 08:31:12.51	111.18	6.79	-34.9	-52.2	4.1	1.49e+00	0	56	104	0	45	20875
2026-01-18 08:31:16.55	110.83	7.05	-33.7	-51.8	3.9	1.50e+00	0	56	104	0	43	22357
2026-01-18 08:31:20.59	110.48	7.32	-38.2	-54.2	4.0	1.50e+00	0	56	104	0	47	23396
2026-01-18 08:31:24.64	110.12	7.59	-36.9	-52.3	4.2	1.49e+00	0	56	104	0	45	21153
2026-01-18 08:31:28.68	109.76	7.86	-37.5	-49.3	5.8	6.52e-01	0	57	0	2097152	47	13348
2026-01-18 08:31:32.72	109.38	8.13	-37.7	-54.4	4.0	1.48e+00	0	57	104	7340032	47	24011
2026-01-18 08:31:36.76	109.01	8.41	-36.4	-50.1	5.3	1.49e+00	0	57	104	9437184	47	14544
2026-01-18 08:31:40.80	108.62	8.68	-36.8	-47.8	6.7	2.53e-01	0	57	0	15728640	46	11920
2026-01-18 08:31:44.83	108.22	8.96	-39.6	-48.6	6.7	2.83e-01	0	57	0	24117248	50	10393
2026-01-18 08:31:48.87	107.82	9.24	-39.5	-48.3	7.3	1.89e-01	0	57	0	31457280	49	10556
2026-01-18 08:31:52.91	107.41	9.52	-40.2	-48.9	7.0	2.90e-01	0	57	0	38797312	52	9590
2026-01-18 08:31:56.95	106.99	9.80	-39.5	-48.1	7.3	1.23e-01	0	57	0	46137344	51	9198
2026-01-18 08:32:00.98	106.57	10.09	-38.7	-47.9	6.5	1.83e-01	0	58	0	53477376	49	10091
2026-01-18 08:32:05.02	106.13	10.37	-40.1	-47.6	7.5	9.86e-02	0	58	0	61865984	52	8216
2026-01-18 08:32:09.06	105.69	10.66	-41.2	-48.8	7.6	1.80e-01	0	58	0	69206016	54	8387
2026-01-18 08:32:13.10	105.23	10.95	-39.1	-48.6	6.6	2.92e-01	0	58	0	76546048	52	9209
2026-01-18 08:32:17.14	104.77	11.24	-41.3	-48.5	6.5	2.71e-01	0	58	0	83886080	52	9091
2026-01-18 08:32:21.17	104.30	11.53	-41.0	-48.6	7.0	2.47e-01	0	58	0	91226112	53	8727
2026-01-18 08:32:25.21	103.82	11.83	-40.3	-47.1	8.1	2.02e-01	0	58	0	98566144	52	7752
2026-01-18 08:32:29.25	103.33	12.13	-32.0	-46.1	5.1	1.11e+00	0	58	0	104857600	39	14564
2026-01-18 08:32:33.29	102.83	12.42	-34.5	-46.1	5.1	4.49e-01	0	58	0	110100480	41	13005
2026-01-18 08:32:37.33	102.31	12.72	-40.3	-51.2	5.0	8.69e-01	0	58	0	117440512	49	14793
2026-01-18 08:32:41.37	101.79	13.02	-39.2	-48.1	6.5	4.34e-01	0	58	0	123731968	50	9797
2026-01-18 08:32:45.40	101.26	13.32	-32.4	-48.5	4.9	7.90e-01	0	59	0	131072000	38	20457
2026-01-18 08:32:49.44	100.71	13.63	-39.2	-49.6	5.5	9.19e-01	0	59	0	137363456	41	19614
2026-01-18 08:32:53.48	100.16	13.93	-40.0	-46.9	8.8	1.34e-01	0	59	0	144703488	52	7579
2026-01-18 08:32:57.52	99.59	14.24	-41.5	-47.7	8.8	1.20e-01	0	59	0	152043520	54	7426
2026-01-18 08:33:01.56	99.01	14.54	-42.0	-46.9	10.2	7.16e-03	0	59	0	160432128	54	6801
2026-01-18 08:33:05.60	98.41	14.85	-42.2	-47.5	9.8	1.07e-02	0	59	0	167772160	55	6833
2026-01-18 08:33:09.64	97.81	15.16	-42.3	-47.5	9.8	9.48e-03	0	59	0	175112192	55	6843
2026-01-18 08:33:13.67	97.19	15.47	-42.4	-47.9	9.5	1.06e-02	0	59	0	182452224	55	7161
2026-01-18 08:33:17.71	96.56	15.78	-42.5	-47.8	9.6	9.27e-03	0	59	0	189792256	55	7096
2026-01-18 08:33:21.75	95.92	16.09	-42.5	-47.9	9.5	1.62e-02	0	59	0	198180864	55	7174
2026-01-18 08:33:25.79	95.26	16.39	-42.4	-47.7	9.6	1.71e-02	0	59	0	205520896	55	7040
2026-01-18 08:33:29.83	94.59	16.70	-42.4	-47.5	9.9	8.15e-03	0	59	0	212860928	55	6818
2026-01-18 08:33:33.87	93.90	17.01	-42.0	-46.6	10.9	2.50e-03	0	59	0	220200960	55	6162
2026-01-18 08:33:37.91	93.20	17.32	-42.2	-47.1	10.4	5.97e-03	0	59	0	228589568	55	6537
2026-01-18 08:33:41.95	92.49	17.63	-42.1	-46.9	10.5	4.78e-03	0	59	0	235929600	55	6409
2026-01-18 08:33:45.99	91.76	17.94	-42.1	-47.0	10.3	4.59e-03	0	59	0	243269632	55	6478
2026-01-18 08:33:50.02	91.02	18.24	-42.3	-48.0	9.2	2.28e-02	0	59	0	250609664	55	7211
2026-01-18 08:33:54.06	90.26	18.55	-42.1	-47.4	9.5	1.37e-02	0	60	0	257949696	55	6773
2026-01-18 08:33:58.10	89.48	18.85	-41.8	-47.0	9.8	9.70e-03	0	59	0	266338304	55	6430
2026-01-18 08:34:02.14	88.69	19.15	-41.7	-47.2	9.3	1.48e-02	0	59	0	273678336	55	6635
2026-01-18 08:34:06.18	87.88	19.45	-41.7	-47.9	8.5	4.24e-02	0	60	0	281018368	55	7124
2026-01-18 08:34:10.21	87.06	19.75	-41.4	-46.9	9.4	2.36e-02	0	60	0	288358400	54	6798
2026-01-18 08:34:14.25	86.22	20.05	-41.3	-46.3	10.3	5.85e-03	0	60	0	296747008	54	6330
2026-01-18 08:34:18.29	85.37	20.34	-41.5	-46.6	10.1	7.32e-03	0	60	0	304087040	54	6497
2026-01-18 08:34:22.33	84.50	20.62	-41.3	-46.0	10.8	2.78e-03	0	60	0	311427072	54	6065
2026-01-18 08:34:26.37	83.61	20.91	-41.2	-45.5	11.5	8.38e-04	0	60	0	318767104	54	5727
2026-01-18 08:34:30.41	82.70	21.19	-41.3	-45.4	11.8	5.15e-04	0	60	0	326107136	54	5700
2026-01-18 08:34:34.45	81.78	21.46	-41.3	-45.4	12.0	3.54e-04	0	60	0	334495744	54	5661
2026-01-18 08:34:38.48	80.85	21.73	-41.2	-45.0	12.4	2.02e-04	0	60	0	341835776	54	5407
2026-01-18 08:34:42.52	79.89	22.00	-40.9	-44.6	12.7	9.07e-05	0	60	0	349175808	53	5500
2026-01-18 08:34:46.56	78.92	22.25	-41.1	-44.9	12.6	7.40e-05	0	60	0	356515840	53	5670
2026-01-18 08:34:50.60	77.94	22.51	-40.9	-44.5	13.0	3.35e-05	0	60	0	364904448	53	5455
2026-01-18 08:34:54.64	76.94	22.75	-41.0	-44.6	12.9	5.56e-05	0	60	0	372244480	53	5498
2026-01-18 08:34:58.68	75.92	22.99	-41.1	-44.8	12.7	9.30e-05	0	60	0	379584512	53	5642
2026-01-18 08:35:02.72	74.89	23.22	-41.3	-45.2	12.5	1.69e-04	0	60	0	386924544	53	5887
2026-01-18 08:35:06.76	73.84	23.44	-41.3	-45.2	12.5	1.14e-04	0	60	0	394264576	53	5876
2026-01-18 08:35:10.79	72.78	23.65	-41.1	-44.7	13.0	3.66e-05	0	60	0	402653184	53	5587
2026-01-18 08:35:14.83	71.70	23.86	-41.1	-44.6	13.2	1.83e-05	0	60	0	409993216	53	5487
2026-01-18 08:35:18.87	70.61	24.05	-40.8	-44.0	13.9	3.80e-06	0	60	0	417333248	53	5121
2026-01-18 08:35:22.91	69.50	24.24	-41.3	-44.8	13.1	3.12e-05	0	60	0	424673280	53	5635
2026-01-18 08:35:26.94	68.39	24.41	-41.8	-46.0	11.9	2.75e-04	0	60	0	433061888	54	6064
2026-01-18 08:35:30.98	67.26	24.57	-42.4	-47.3	10.5	4.20e-03	0	60	0	440401920	55	6703
2026-01-18 08:35:35.02	66.12	24.73	-42.1	-46.5	11.5	7.62e-04	0	60	0	447741952	55	6078
2026-01-18 08:35:39.06	64.97	24.87	-42.2	-46.7	11.3	1.07e-03	0	60	0	455081984	55	6231
2026-01-18 08:35:43.10	63.81	25.00	-42.2	-46.7	11.2	1.15e-03	0	60	0	462422016	55	6254
2026-01-18 08:35:47.14	62.64	25.11	-42.4	-47.2	10.7	2.37e-03	0	60	0	470810624	55	6626
2026-01-18 08:35:51.18	61.46	25.22	-42.4	-47.1	10.7	2.55e-03	0	60	0	478150656	55	6555
2026-01-18 08:35:55.22	60.28	25.31	-42.1	-46.6	11.3	1.63e-03	0	60	0	485490688	55	6189
2026-01-18 08:35:59.26	59.09	25.38	-42.2	-46.8	11.1	1.14e-03	0	60	0	492830720	55	6326
2026-01-18 08:36:03.29	57.89	25.45	-42.3	-47.1	10.9	2.28e-03	0	60	0	501219328	55	6518
2026-01-18 08:36:07.33	56.69	25.50	-42.1	-46.5	11.4	1.23e-03	0	60	0	508559360	55	6110
2026-01-18 08:36:11.37	55.49	25.54	-41.8	-45.7	12.3	2.00e-04	0	60	0	515899392	55	5576
2026-01-18 08:36:15.40	54.28	25.56	-42.4	-47.3	10.6	2.62e-03	0	60	0	523239424	55	6709
2026-01-18 08:36:19.44	53.08	25.57	-42.3	-47.1	10.9	2.43e-03	0	60	0	530579456	55	6502
2026-01-18 08:36:23.48	51.87	25.56	-41.8	-45.9	12.1	2.60e-04	0	60	0	538968064	55	5697
2026-01-18 08:36:27.52	50.66	25.54	-41.5	-45.1	13.0	4.19e-05	0	60	0	546308096	54	5473
2026-01-18 08:36:31.56	49.46	25.51	-41.5	-45.1	13.0	8.62e-05	0	60	0	553648128	54	5496
2026-01-18 08:36:35.60	48.26	25.46	-40.9	-44.0	14.1	1.50e-06	0	60	0	560988160	53	5108
2026-01-18 08:36:39.64	47.06	25.40	-40.7	-43.7	14.3	0.00e+00	0	60	0	569376768	53	4936
2026-01-18 08:36:43.67	45.87	25.33	-41.0	-44.1	14.1	1.50e-06	0	61	0	576716800	53	5178
2026-01-18 08:36:47.71	44.69	25.25	-41.4	-44.9	13.1	7.60e-06	0	60	0	584056832	53	5710
2026-01-18 08:36:51.75	43.51	25.15	-41.4	-44.8	13.2	1.22e-05	0	60	0	591396864	53	5649
2026-01-18 08:36:55.79	42.34	25.03	-41.7	-45.5	12.6	1.11e-04	0	61	0	598736896	54	5725
2026-01-18 08:36:59.82	41.18	24.91	-42.2	-46.5	11.6	4.48e-04	0	60	0	607125504	55	6077
2026-01-18 08:37:03.87	40.02	24.77	-41.7	-45.4	12.7	1.27e-04	0	60	0	614465536	55	5374
2026-01-18 08:37:07.91	38.88	24.62	-42.2	-46.5	11.7	5.10e-04	0	61	0	621805568	55	6069
2026-01-18 08:37:11.95	37.75	24.46	-42.4	-46.9	11.1	1.15e-03	0	61	0	629145600	55	6405
2026-01-18 08:37:15.99	36.64	24.29	-42.5	-47.3	10.7	2.49e-03	0	61	0	637534208	55	6689
2026-01-18 08:37:20.03	35.53	24.11	-42.4	-47.1	10.9	1.65e-03	0	60	0	644874240	55	6531
2026-01-18 08:37:24.07	34.44	23.92	-42.4	-47.1	10.9	1.42e-03	0	61	0	652214272	55	6533
2026-01-18 08:37:28.11	33.36	23.72	-42.3	-46.8	11.1	1.62e-03	0	60	0	659554304	55	6341
2026-01-18 08:37:32.15	32.30	23.51	-42.1	-46.3	11.8	5.39e-04	0	60	0	666894336	55	5953
2026-01-18 08:37:36.19	31.25	23.29	-42.4	-47.2	10.9	1.60e-03	0	60	0	675282944	55	6576
2026-01-18 08:37:40.22	30.21	23.07	-42.3	-46.9	11.1	2.58e-03	0	60	0	682622976	55	6379
2026-01-18 08:37:44.26	29.20	22.83	-42.2	-46.7	11.3	9.22e-04	0	61	0	689963008	55	6213
2026-01-18 08:37:48.30	28.19	22.59	-42.5	-47.5	10.5	3.48e-03	0	60	0	697303040	55	6852
2026-01-18 08:37:52.34	27.21	22.34	-41.8	-45.8	12.2	4.87e-04	0	60	0	705691648	55	5653
2026-01-18 08:37:56.38	26.23	22.08	-41.7	-45.5	12.5	1.11e-04	0	61	0	713031680	55	5444
2026-01-18 08:38:00.42	25.28	21.82	-42.4	-47.1	10.8	2.35e-03	0	60	0	720371712	55	6559
2026-01-18 08:38:04.46	24.34	21.56	-41.6	-45.3	12.7	1.45e-04	0	60	0	727711744	55	5329
2026-01-18 08:38:08.50	23.42	21.28	-41.3	-44.8	13.2	1.37e-05	0	61	0	735051776	54	5333
2026-01-18 08:38:12.54	22.51	21.01	-41.6	-45.4	12.6	9.84e-05	0	60	0	743440384	54	5699
2026-01-18 08:38:16.58	21.62	20.72	-41.5	-45.3	12.7	7.24e-05	0	61	0	750780416	54	5655
2026-01-18 08:38:20.61	20.75	20.44	-41.4	-45.2	12.8	5.49e-05	0	60	0	758120448	54	5537
2026-01-18 08:38:24.65	19.90	20.15	-41.5	-45.4	12.6	1.36e-04	0	61	0	765460480	54	5685
2026-01-18 08:38:28.68	19.06	19.86	-41.9	-46.1	11.8	3.39e-04	0	61	0	773849088	54	6170
2026-01-18 08:38:32.72	18.24	19.56	-41.6	-45.4	12.5	1.75e-04	0	60	0	781189120	54	5689
2026-01-18 08:38:36.76	17.43	19.27	-41.6	-45.5	12.4	1.21e-04	0	61	0	788529152	54	5746
2026-01-18 08:38:40.80	16.64	18.97	-41.2	-44.7	13.2	4.04e-05	0	61	0	795869184	54	5262
2026-01-18 08:38:44.83	15.86	18.67	-41.0	-44.3	13.6	6.10e-06	0	61	0	803209216	54	4998
2026-01-18 08:38:48.87	15.10	18.36	-41.1	-44.5	13.4	1.06e-05	0	61	0	811597824	53	5458
2026-01-18 08:38:52.91	14.36	18.06	-41.3	-45.0	12.8	6.63e-05	0	61	0	818937856	53	5743
2026-01-18 08:38:56.95	13.63	17.75	-41.0	-44.4	13.5	1.37e-05	0	61	0	826277888	53	5385
2026-01-18 08:39:00.99	12.91	17.45	-41.3	-44.9	13.0	3.96e-05	0	61	0	833617920	53	5668
2026-01-18 08:39:05.02	12.22	17.14	-41.5	-45.4	12.4	1.12e-04	0	61	0	840957952	53	6010
2026-01-18 08:39:09.06	11.53	16.83	-41.3	-44.9	12.7	8.16e-05	0	61	0	849346560	53	5698
2026-01-18 08:39:13.10	10.86	16.52	-41.0	-44.4	13.3	1.98e-05	0	60	0	856686592	52	5687
2026-01-18 08:39:17.14	10.20	16.21	-41.5	-45.6	11.9	2.66e-04	0	61	0	864026624	53	6192
2026-01-18 08:39:21.17	9.56	15.91	-41.5	-45.6	11.9	4.95e-04	0	61	0	871366656	53	6133
2026-01-18 08:39:25.21	8.93	15.60	-41.3	-45.3	12.1	2.05e-04	0	61	0	879755264	53	5965
2026-01-18 08:39:29.25	8.31	15.29	-41.3	-45.4	11.8	3.68e-04	0	61	0	887095296	53	6052
2026-01-18 08:39:33.29	7.70	14.99	-41.7	-46.5	10.6	2.48e-03	0	61	0	894435328	53	6840
2026-01-18 08:39:37.33	7.11	14.68	-41.7	-46.5	10.4	6.90e-03	0	61	0	901775360	54	6480
2026-01-18 08:39:41.36	6.53	14.37	-41.1	-45.3	11.6	9.10e-04	0	61	0	909115392	54	5600
2026-01-18 08:39:45.40	5.97	14.07	-41.0	-45.5	11.1	1.39e-03	0	61	0	917504000	54	5751
2026-01-18 08:39:49.44	5.41	13.77	-41.2	-46.5	9.6	7.32e-03	0	61	0	924844032	53	6862
2026-01-18 08:39:53.48	4.87	13.46	-40.6	-45.3	10.6	3.26e-03	0	61	0	932184064	53	5978
2026-01-18 08:39:57.52	4.33	13.16	-41.1	-47.7	8.0	6.40e-02	0	61	0	939524096	53	7820
2026-01-18 08:40:01.56	3.81	12.86	-41.5	-52.2	4.4	9.23e-01	0	61	0	947912704	53	13185
2026-01-18 08:40:05.59	3.30	12.57	-41.2	-55.0	3.8	1.49e+00	0	61	104	947912704	53	18198
2026-01-18 08:40:09.63	2.80	12.27	-41.2	-55.7	3.8	1.49e+00	0	61	104	947912704	53	19643
2026-01-18 08:40:13.67	2.31	11.97	-40.5	-55.3	3.8	1.49e+00	0	61	104	947912704	52	19954
2026-01-18 08:40:17.71	1.83	11.68	-40.2	-54.9	3.8	1.49e+00	0	61	104	947912704	52	19018
2026-01-18 08:40:21.74	1.36	11.39	-40.2	-54.9	3.8	1.49e+00	0	61	104	947912704	51	20227
2026-01-18 08:40:25.78	0.90	11.10	-40.0	-54.8	3.8	1.49e+00	0	61	104	947912704	51	19910
2026-01-18 08:40:29.82	0.45	10.81	-39.9	-54.8	3.8	1.49e+00	0	61	104	947912704	51	19996
2026-01-18 08:40:33.87	0.00	10.52	-40.3	-55.1	3.8	1.49e+00	0	61	104	947912704	51	20694
2026-01-18 08:40:37.91	359.57	10.23	-39.4	-54.7	3.8	1.49e+00	0	61	104	947912704	50	20853
2026-01-18 08:40:41.94	359.14	9.95	-39.8	-54.9	3.8	1.49e+00	0	61	104	947912704	50	21452
2026-01-18 08:40:45.98	358.73	9.67	-39.6	-54.6	3.8	1.49e+00	0	61	104	947912704	50	20683
2026-01-18 08:40:50.02	358.32	9.39	-39.8	-54.8	3.8	1.49e+00	0	61	104	947912704	50	21196
2026-01-18 08:40:54.05	357.92	9.11	-39.4	-54.6	3.8	1.49e+00	0	61	104	947912704	50	20663
2026-01-18 08:40:58.09	357.53	8.83	-39.4	-54.7	3.8	1.49e+00	0	61	104	947912704	50	20876
2026-01-18 08:41:02.13	357.14	8.56	-39.3	-54.5	3.8	1.49e+00	0	61	104	947912704	50	20470
2026-01-18 08:41:06.17	356.76	8.28	-39.5	-54.7	3.8	1.49e+00	0	61	104	947912704	50	20795
2026-01-18 08:41:10.21	356.39	8.01	-39.5	-54.6	3.8	1.49e+00	0	61	104	947912704	50	20550
2026-01-18 08:41:14.25	356.03	7.74	-45.0	-59.7	3.8	1.49e+00	0	61	104	947912704	60	20813
2026-01-18 08:41:18.30	355.67	7.47	-45.4	-60.0	3.8	1.49e+00	0	61	104	947912704	61	20477
2026-01-18 08:41:22.34	355.32	7.20	-44.7	-59.8	3.8	1.49e+00	0	61	104	947912704	61	20069
2026-01-18 08:41:26.38	354.98	6.94	-44.6	-59.8	3.8	1.49e+00	0	61	104	947912704	61	19894
2026-01-18 08:41:30.43	354.64	6.68	-45.2	-59.7	3.8	1.49e+00	0	61	104	947912704	60	20925
2026-01-18 08:41:34.47	354.31	6.41	-45.2	-59.7	3.8	1.49e+00	0	61	104	947912704	60	20884
2026-01-18 08:41:38.52	353.99	6.15	-45.2	-59.7	3.8	1.49e+00	0	61	104	947912704	60	20836
2026-01-18 08:41:42.56	353.67	5.90	-45.1	-59.7	3.8	1.49e+00	0	61	104	947912704	60	20781
2026-01-18 08:41:46.61	353.36	5.64	-45.2	-59.7	3.8	1.49e+00	0	61	104	947912704	60	20840
2026-01-18 08:41:50.65	353.05	5.38	-45.1	-59.7	3.8	1.49e+00	0	61	104	947912704	60	20780
2026-01-18 08:41:54.69	352.75	5.13	-45.1	-59.7	3.8	1.49e+00	0	61	104	947912704	60	20803
2026-01-18 08:41:58.74	352.45	4.88	-45.1	-59.6	3.8	1.49e+00	0	61	104	947912704	60	20712
2026-01-18 08:42:02.78	352.16	4.63	-45.1	-59.6	3.8	1.49e+00	0	61	104	947912704	60	20710
2026-01-18 08:42:06.82	351.88	4.38	-45.1	-59.6	3.8	1.49e+00	0	61	104	947912704	60	20691
2026-01-18 08:42:10.87	351.60	4.13	-45.1	-59.6	3.8	1.49e+00	0	61	104	947912704	60	20701
2026-01-18 08:42:14.91	351.32	3.89	-45.1	-59.6	3.8	1.49e+00	0	61	104	947912704	60	20612
2026-01-18 08:42:18.95	351.05	3.65	-45.1	-59.6	3.8	1.49e+00	0	61	104	947912704	60	20550
2026-01-18 08:42:23.00	350.79	3.40	-45.0	-59.5	3.8	1.49e+00	0	61	104	947912704	60	20531
2026-01-18 08:42:27.04	350.53	3.16	-45.0	-59.6	3.8	1.49e+00	0	61	104	947912704	60	20581
2026-01-18 08:42:31.08	350.27	2.92	-45.0	-59.5	3.8	1.49e+00	0	61	104	947912704	60	20516
2026-01-18 08:42:35.13	350.02	2.69	-45.0	-59.5	3.8	1.49e+00	0	61	104	947912704	60	20480
2026-01-18 08:42:39.17	349.77	2.45	-45.0	-59.5	3.8	1.49e+00	0	61	104	947912704	60	20457
2026-01-18 08:42:43.21	349.53	2.22	-45.0	-59.6	3.8	1.49e+00	0	61	104	947912704	60	20555
2026-01-18 08:42:47.25	349.29	1.98	-45.0	-59.6	3.8	1.49e+00	0	61	104	947912704	60	20546

#Closed at: 2026-01-18 08:42:49
#Recorded file [947 MB]: D:/lorett/data/31039_260118_112955.dat