passes_logs/2026/01/18/R2.0S_Moscow/R2.0S_Moscow__20260118_080059_NOAA_21_JPSS-2_rec.log

#Pass ID: 20260118_080059_NOAA 21 (JPSS-2)
#Satellite: NOAA 21 (JPSS-2)
#Configuration: NOAA-21
#almurnet v.1.7.20251203
#Start time: 2026-01-18 08:01:00

#Version: 2.2.20231116
#Station: R2.0S_Moscow
#Location: 37.707566 lon 55.798166 lat
#TLE: 1 54234U 22150A   26017.26823908  .00000042  00000+0  40962-4 0  9992
#TLE: 2 54234  98.7501 318.1405 0000613 274.2947  85.8159 14.19535194165131

#Time	Az	El	Level	Level2	SNR	BER	BlckErr	Temp	State	Recorded	gain1	gain2
2026-01-18 08:01:00.71	104.48	2.06	-38.9	-52.0	4.0	1.49e+00	0	51	0	0	47	18187
2026-01-18 08:01:03.74	104.25	2.22	-40.0	-52.7	3.8	1.49e+00	0	52	104	0	50	16601
2026-01-18 08:01:06.77	104.02	2.39	-39.9	-52.4	3.8	1.49e+00	0	52	104	0	50	16082
2026-01-18 08:01:09.80	103.78	2.55	-38.8	-51.8	3.8	1.49e+00	0	52	104	0	49	15871
2026-01-18 08:01:12.83	103.54	2.72	-40.0	-52.6	3.8	1.49e+00	0	53	104	0	50	16364
2026-01-18 08:01:15.87	103.30	2.88	-40.1	-52.7	3.8	1.49e+00	0	53	104	0	50	16619
2026-01-18 08:01:18.90	103.06	3.05	-40.0	-52.7	3.8	1.49e+00	0	53	104	0	50	16601
2026-01-18 08:01:21.93	102.81	3.21	-40.0	-52.8	3.8	1.49e+00	0	53	104	0	50	16759
2026-01-18 08:01:24.96	102.56	3.38	-40.0	-52.7	3.8	1.49e+00	0	53	104	0	50	16555
2026-01-18 08:01:27.99	102.31	3.55	-38.1	-51.8	3.7	1.49e+00	0	53	104	0	47	17808
2026-01-18 08:01:31.03	102.05	3.72	-39.7	-52.4	3.8	1.49e+00	0	54	104	0	50	16033
2026-01-18 08:01:34.06	101.80	3.88	-40.1	-52.7	3.8	1.49e+00	0	54	104	0	50	16667
2026-01-18 08:01:37.10	101.53	4.05	-39.3	-52.4	3.8	1.49e+00	0	54	104	0	50	15953
2026-01-18 08:01:40.13	101.27	4.22	-39.8	-52.5	3.8	1.49e+00	0	54	104	0	50	16222
2026-01-18 08:01:43.16	101.00	4.39	-39.8	-52.6	3.8	1.49e+00	0	54	104	0	50	16454
2026-01-18 08:01:46.19	100.73	4.56	-39.2	-52.4	3.8	1.49e+00	0	54	104	0	50	16031
2026-01-18 08:01:49.22	100.46	4.73	-40.4	-52.9	4.0	1.49e+00	0	55	104	0	49	17981
2026-01-18 08:01:52.26	100.18	4.91	-40.1	-52.7	3.8	1.49e+00	0	55	104	0	50	16677
2026-01-18 08:01:55.29	99.90	5.08	-39.3	-52.1	3.9	1.49e+00	0	55	104	0	46	19449
2026-01-18 08:01:58.32	99.61	5.25	-39.2	-52.2	3.8	1.49e+00	0	55	104	0	49	16579
2026-01-18 08:02:01.36	99.33	5.42	-36.5	-50.3	4.0	1.50e+00	0	55	104	0	42	19867
2026-01-18 08:02:04.39	99.03	5.60	-39.9	-52.7	3.8	1.49e+00	0	55	104	0	50	16671
2026-01-18 08:02:07.42	98.74	5.77	-38.4	-51.9	3.8	1.49e+00	0	55	104	0	50	15200
2026-01-18 08:02:10.46	98.44	5.95	-38.4	-52.1	3.8	1.49e+00	0	56	104	0	50	15467
2026-01-18 08:02:13.49	98.14	6.12	-40.0	-52.6	3.8	1.49e+00	0	56	104	0	50	16480
2026-01-18 08:02:16.52	97.83	6.29	-40.0	-52.8	3.8	1.49e+00	0	56	104	0	50	16715
2026-01-18 08:02:19.55	97.52	6.47	-36.3	-50.6	3.8	1.49e+00	0	56	104	0	45	17346
2026-01-18 08:02:22.59	97.21	6.65	-39.9	-52.7	3.8	1.49e+00	0	56	104	0	50	16577
2026-01-18 08:02:25.62	96.89	6.82	-40.0	-52.7	3.8	1.49e+00	0	56	104	0	50	16604
2026-01-18 08:02:28.65	96.57	7.00	-39.9	-52.6	3.8	1.49e+00	0	56	104	0	50	16448
2026-01-18 08:02:31.69	96.25	7.18	-39.9	-52.7	3.8	1.49e+00	0	56	104	0	50	16537
2026-01-18 08:02:34.72	95.92	7.35	-40.0	-52.7	3.8	1.49e+00	0	57	104	0	50	16570
2026-01-18 08:02:37.75	95.58	7.53	-39.7	-52.4	3.8	1.49e+00	0	57	104	0	50	16043
2026-01-18 08:02:40.79	95.24	7.71	-39.9	-52.6	3.8	1.49e+00	0	57	104	0	50	16461
2026-01-18 08:02:43.82	94.90	7.89	-39.8	-52.6	3.9	1.49e+00	0	57	104	0	50	16360
2026-01-18 08:02:46.85	94.56	8.07	-39.3	-52.6	3.8	1.49e+00	0	57	104	0	51	15408
2026-01-18 08:02:49.88	94.21	8.24	-40.1	-52.6	3.8	1.49e+00	0	57	104	0	50	16426
2026-01-18 08:02:52.92	93.85	8.42	-39.9	-52.5	3.8	1.49e+00	0	57	104	0	50	16209
2026-01-18 08:02:55.95	93.49	8.60	-40.4	-53.0	3.8	1.49e+00	0	57	104	0	51	16134
2026-01-18 08:02:58.98	93.13	8.78	-40.1	-52.6	3.8	1.49e+00	0	58	104	0	52	14559
2026-01-18 08:03:02.01	92.76	8.96	-40.2	-52.6	3.8	1.49e+00	0	57	104	0	50	16429
2026-01-18 08:03:05.04	92.39	9.14	-40.8	-53.5	3.8	1.49e+00	0	58	104	0	52	16222
2026-01-18 08:03:08.07	92.01	9.32	-40.3	-52.8	3.8	1.49e+00	0	58	104	0	51	15913
2026-01-18 08:03:11.10	91.63	9.50	-40.3	-52.9	3.8	1.49e+00	0	58	104	0	51	15988
2026-01-18 08:03:14.13	91.24	9.68	-41.4	-53.5	3.8	1.49e+00	0	58	104	0	53	15237
2026-01-18 08:03:17.16	90.85	9.86	-40.3	-50.1	4.1	1.47e+00	0	58	104	0	52	10979
2026-01-18 08:03:20.18	90.45	10.04	-40.5	-51.4	3.8	1.49e+00	0	58	104	0	51	13565
2026-01-18 08:03:23.21	90.05	10.22	-40.5	-52.6	3.8	1.49e+00	0	58	104	0	52	14691
2026-01-18 08:03:26.24	89.65	10.40	-40.7	-53.0	3.8	1.49e+00	0	58	104	0	52	15326
2026-01-18 08:03:29.26	89.23	10.58	-41.0	-53.5	3.8	1.49e+00	0	58	104	0	52	16167
2026-01-18 08:03:32.29	88.82	10.76	-40.7	-53.1	3.8	1.49e+00	0	58	104	0	52	15546
2026-01-18 08:03:35.32	88.40	10.94	-40.6	-53.1	3.8	1.49e+00	0	58	104	0	52	15460
2026-01-18 08:03:38.35	87.97	11.12	-40.6	-53.2	3.8	1.49e+00	0	58	104	0	52	15683
2026-01-18 08:03:41.38	87.54	11.30	-40.7	-53.3	3.8	1.49e+00	0	58	104	0	52	15867
2026-01-18 08:03:44.41	87.10	11.48	-40.8	-53.3	3.8	1.49e+00	0	59	104	0	52	15874
2026-01-18 08:03:47.44	86.65	11.65	-40.7	-53.2	3.8	1.49e+00	0	58	104	0	52	15661
2026-01-18 08:03:50.46	86.21	11.83	-40.6	-53.3	3.8	1.49e+00	0	59	104	0	52	15782
2026-01-18 08:03:53.49	85.75	12.01	-40.3	-53.0	3.8	1.49e+00	0	59	104	0	52	15270
2026-01-18 08:03:56.53	85.29	12.19	-40.4	-53.0	3.8	1.49e+00	0	59	104	0	52	15340
2026-01-18 08:03:59.55	84.82	12.36	-40.4	-53.0	3.8	1.49e+00	0	59	104	0	52	15311
2026-01-18 08:04:02.59	84.35	12.54	-40.5	-53.0	3.8	1.49e+00	0	59	104	0	52	15368
2026-01-18 08:04:05.61	83.88	12.71	-40.8	-53.3	3.8	1.49e+00	0	59	104	0	52	15909
2026-01-18 08:04:08.65	83.39	12.89	-40.6	-53.1	3.8	1.49e+00	0	59	104	0	52	15428
2026-01-18 08:04:11.68	82.90	13.06	-40.4	-52.9	3.8	1.49e+00	0	59	104	0	52	15142
2026-01-18 08:04:14.71	82.41	13.23	-40.5	-52.9	3.8	1.49e+00	0	59	104	0	52	15193
2026-01-18 08:04:17.74	81.91	13.41	-41.3	-53.3	3.8	1.49e+00	0	59	104	0	53	14892
2026-01-18 08:04:20.77	81.40	13.58	-40.8	-53.0	3.8	1.49e+00	0	59	104	0	53	14415
2026-01-18 08:04:23.80	80.89	13.75	-40.9	-53.4	3.8	1.49e+00	0	59	104	0	53	15160
2026-01-18 08:04:26.82	80.37	13.91	-40.7	-52.5	3.8	1.48e+00	0	59	104	0	53	13574
2026-01-18 08:04:29.85	79.85	14.08	-40.6	-48.5	4.8	1.16e+00	0	59	104	0	53	8562
2026-01-18 08:04:32.88	79.32	14.25	-40.9	-51.2	3.9	1.09e+00	0	59	104	1048576	53	11699
2026-01-18 08:04:35.91	78.78	14.41	-40.1	-45.3	7.4	4.23e-01	0	60	0	2097152	52	6300
2026-01-18 08:04:38.94	78.24	14.58	-39.8	-44.6	8.1	6.10e-02	0	59	0	11534336	51	6158
2026-01-18 08:04:41.97	77.69	14.74	-39.8	-44.7	8.0	6.48e-02	0	59	0	20971520	51	6245
2026-01-18 08:04:45.00	77.14	14.90	-40.1	-45.5	7.2	1.27e-01	0	59	0	30408704	51	6844
2026-01-18 08:04:48.03	76.58	15.06	-40.3	-45.8	7.1	1.51e-01	0	59	0	39845888	51	7068
2026-01-18 08:04:51.06	76.01	15.21	-40.4	-46.2	6.7	1.90e-01	0	59	0	49283072	51	7417
2026-01-18 08:04:54.08	75.44	15.37	-40.7	-47.4	5.7	4.19e-01	0	60	0	58720256	51	8481
2026-01-18 08:04:57.12	74.86	15.52	-40.4	-46.6	6.1	3.00e-01	0	60	0	68157440	51	7807
2026-01-18 08:05:00.15	74.28	15.67	-40.5	-47.0	5.9	3.46e-01	0	60	0	77594624	51	8109
2026-01-18 08:05:03.18	73.69	15.82	-40.5	-46.4	6.6	2.21e-01	0	60	0	87031808	51	7550
2026-01-18 08:05:06.21	73.09	15.97	-40.2	-45.7	7.2	1.35e-01	0	60	0	96468992	51	6985
2026-01-18 08:05:09.23	72.49	16.11	-40.3	-46.2	6.6	1.97e-01	0	60	0	105906176	51	7418
2026-01-18 08:05:12.26	71.89	16.25	-40.4	-46.4	6.5	2.27e-01	0	60	0	115343360	51	7600
2026-01-18 08:05:15.29	71.27	16.39	-40.3	-45.6	7.4	1.13e-01	0	60	0	124780544	51	6908
2026-01-18 08:05:18.32	70.66	16.53	-40.1	-44.7	8.6	4.25e-02	0	59	0	134217728	51	6213
2026-01-18 08:05:21.35	70.03	16.67	-40.3	-44.6	8.8	2.89e-02	0	60	0	143654912	51	6193
2026-01-18 08:05:24.38	69.40	16.80	-40.1	-43.8	10.0	8.51e-03	0	60	0	153092096	51	5651
2026-01-18 08:05:27.41	68.77	16.93	-40.0	-43.3	10.9	2.66e-03	0	60	0	162529280	51	5324
2026-01-18 08:05:30.44	68.12	17.05	-39.9	-42.9	11.6	7.41e-04	0	60	0	171966464	51	5097
2026-01-18 08:05:33.46	67.48	17.17	-39.9	-42.8	12.0	3.25e-04	0	60	0	181403648	51	4996
2026-01-18 08:05:36.50	66.83	17.29	-39.9	-42.7	12.4	1.76e-04	0	60	0	190840832	51	4933
2026-01-18 08:05:39.53	66.17	17.41	-40.0	-42.8	12.5	1.25e-04	0	60	0	200278016	51	4990
2026-01-18 08:05:42.56	65.51	17.52	-39.7	-42.2	13.2	2.82e-05	0	60	0	209715200	51	4654
2026-01-18 08:05:45.59	64.84	17.63	-39.6	-42.0	13.4	1.75e-05	0	60	0	219152384	51	4572
2026-01-18 08:05:48.61	64.17	17.74	-39.7	-42.1	13.4	1.90e-05	0	60	0	229638144	51	4610
2026-01-18 08:05:51.64	63.50	17.84	-39.7	-42.1	13.4	1.44e-05	0	60	0	239075328	51	4624
2026-01-18 08:05:54.67	62.82	17.94	-39.7	-42.1	13.4	1.52e-05	0	60	0	248512512	51	4604
2026-01-18 08:05:57.71	62.13	18.03	-39.9	-42.3	13.2	2.13e-05	0	60	0	257949696	51	4752
2026-01-18 08:06:00.74	61.44	18.13	-40.0	-42.5	13.1	3.12e-05	0	60	0	267386880	51	4851
2026-01-18 08:06:03.77	60.75	18.21	-40.0	-42.5	13.1	4.34e-05	0	60	0	276824064	51	4848
2026-01-18 08:06:06.79	60.05	18.29	-39.9	-42.4	13.2	1.75e-05	0	60	0	286261248	51	4776
2026-01-18 08:06:09.82	59.35	18.37	-39.9	-42.4	13.3	2.28e-05	0	60	0	295698432	51	4769
2026-01-18 08:06:12.85	58.65	18.45	-39.9	-42.4	13.2	2.44e-05	0	60	0	305135616	51	4794
2026-01-18 08:06:15.87	57.95	18.52	-39.9	-42.4	13.3	1.44e-05	0	60	0	314572800	51	4767
2026-01-18 08:06:18.91	57.23	18.58	-40.0	-42.5	13.1	2.59e-05	0	60	0	324009984	51	4862
2026-01-18 08:06:21.93	56.52	18.65	-40.2	-42.8	12.9	5.34e-05	0	60	0	333447168	51	5003
2026-01-18 08:06:24.96	55.80	18.70	-40.0	-42.4	13.3	1.75e-05	0	60	0	342884352	51	4789
2026-01-18 08:06:28.00	55.08	18.75	-40.0	-42.4	13.3	1.67e-05	0	60	0	352321536	51	4786
2026-01-18 08:06:31.02	54.36	18.80	-40.0	-42.5	13.3	1.60e-05	0	60	0	361758720	51	4817
2026-01-18 08:06:34.05	53.64	18.85	-40.0	-42.5	13.3	1.67e-05	0	60	0	371195904	51	4817
2026-01-18 08:06:37.08	52.92	18.88	-40.0	-42.4	13.3	2.05e-05	0	60	0	380633088	51	4790
2026-01-18 08:06:40.11	52.19	18.92	-39.9	-42.3	13.4	1.29e-05	0	60	0	390070272	51	4757
2026-01-18 08:06:43.14	51.46	18.95	-40.0	-42.5	13.3	2.67e-05	0	60	0	399507456	51	4818
2026-01-18 08:06:46.17	50.73	18.97	-40.2	-42.7	13.1	3.66e-05	0	61	0	408944640	51	4941
2026-01-18 08:06:49.20	50.00	18.99	-40.0	-42.5	13.3	2.21e-05	0	60	0	418381824	51	4841
2026-01-18 08:06:52.23	49.27	19.01	-39.9	-42.2	13.5	1.37e-05	0	60	0	427819008	51	4680
2026-01-18 08:06:55.25	48.54	19.02	-39.9	-42.2	13.6	4.50e-06	0	60	0	437256192	51	4697
2026-01-18 08:06:58.29	47.81	19.02	-39.9	-42.3	13.5	8.30e-06	0	60	0	446693376	51	4725
2026-01-18 08:07:01.31	47.08	19.02	-40.0	-42.5	13.3	2.28e-05	0	60	0	456130560	51	4841
2026-01-18 08:07:04.34	46.34	19.02	-40.0	-42.4	13.3	1.29e-05	0	60	0	465567744	51	4804
2026-01-18 08:07:07.38	45.61	19.01	-40.0	-42.4	13.3	1.44e-05	0	60	0	475004928	51	4800
2026-01-18 08:07:10.40	44.88	18.99	-40.1	-42.6	13.2	2.36e-05	0	60	0	484442112	51	4894
2026-01-18 08:07:13.43	44.15	18.97	-40.0	-42.4	13.3	2.36e-05	0	60	0	493879296	51	4775
2026-01-18 08:07:16.46	43.42	18.95	-39.9	-42.3	13.4	1.60e-05	0	60	0	503316480	51	4730
2026-01-18 08:07:19.50	42.69	18.92	-40.0	-42.4	13.4	1.52e-05	0	60	0	512753664	51	4763
2026-01-18 08:07:22.52	41.97	18.89	-40.0	-42.4	13.4	1.29e-05	0	60	0	522190848	51	4798
2026-01-18 08:07:25.56	41.24	18.85	-40.2	-42.7	13.1	2.13e-05	0	60	0	531628032	51	4955
2026-01-18 08:07:28.58	40.52	18.80	-40.0	-42.5	13.3	2.28e-05	0	60	0	541065216	51	4844
2026-01-18 08:07:31.61	39.80	18.76	-39.9	-42.4	13.4	2.05e-05	0	60	0	550502400	51	4765
2026-01-18 08:07:34.64	39.08	18.70	-39.9	-42.3	13.4	1.60e-05	0	60	0	559939584	51	4731
2026-01-18 08:07:37.66	38.37	18.65	-39.9	-42.3	13.4	1.44e-05	0	61	0	570425344	51	4748
2026-01-18 08:07:40.69	37.66	18.59	-39.7	-42.0	13.7	6.10e-06	0	60	0	579862528	51	4583
2026-01-18 08:07:43.72	36.95	18.52	-39.8	-42.2	13.6	8.30e-06	0	60	0	589299712	51	4666
2026-01-18 08:07:46.75	36.24	18.45	-39.8	-42.2	13.6	1.14e-05	0	60	0	598736896	51	4675
2026-01-18 08:07:49.78	35.54	18.38	-39.9	-42.3	13.5	1.06e-05	0	60	0	608174080	51	4729
2026-01-18 08:07:52.81	34.84	18.30	-39.8	-42.2	13.6	6.10e-06	0	61	0	617611264	51	4667
2026-01-18 08:07:55.84	34.14	18.22	-39.9	-42.3	13.4	9.90e-06	0	61	0	627048448	51	4719
2026-01-18 08:07:58.87	33.45	18.13	-40.0	-42.4	13.3	1.90e-05	0	60	0	636485632	51	4814
2026-01-18 08:08:01.90	32.76	18.04	-39.9	-42.2	13.5	1.22e-05	0	60	0	645922816	51	4700
2026-01-18 08:08:04.93	32.08	17.94	-40.0	-42.5	13.3	2.28e-05	0	60	0	655360000	51	4839
2026-01-18 08:08:07.96	31.40	17.85	-40.1	-42.5	13.2	2.51e-05	0	60	0	664797184	51	4852
2026-01-18 08:08:10.99	30.73	17.74	-39.9	-42.3	13.4	1.60e-05	0	60	0	674234368	51	4750
2026-01-18 08:08:14.02	30.06	17.64	-40.0	-42.4	13.4	1.14e-05	0	60	0	683671552	51	4786
2026-01-18 08:08:17.05	29.39	17.53	-40.0	-42.4	13.3	1.67e-05	0	61	0	693108736	51	4800
2026-01-18 08:08:20.08	28.73	17.42	-40.1	-42.5	13.2	2.82e-05	0	61	0	702545920	51	4863
2026-01-18 08:08:23.11	28.08	17.30	-40.0	-42.4	13.3	2.21e-05	0	60	0	711983104	51	4811
2026-01-18 08:08:26.14	27.43	17.18	-39.9	-42.3	13.4	1.22e-05	0	60	0	721420288	51	4741
2026-01-18 08:08:29.17	26.79	17.06	-39.9	-42.4	13.4	1.67e-05	0	61	0	730857472	51	4770
2026-01-18 08:08:32.20	26.15	16.94	-39.9	-42.2	13.5	1.60e-05	0	60	0	740294656	51	4696
2026-01-18 08:08:35.23	25.51	16.81	-39.9	-42.4	13.3	9.10e-06	0	61	0	749731840	51	4771
2026-01-18 08:08:38.26	24.89	16.68	-40.0	-42.5	13.2	2.59e-05	0	61	0	759169024	51	4855
2026-01-18 08:08:41.29	24.26	16.54	-40.2	-42.8	12.8	4.57e-05	0	60	0	768606208	51	5009
2026-01-18 08:08:44.32	23.65	16.41	-40.1	-42.7	13.0	3.73e-05	0	61	0	778043392	51	4929
2026-01-18 08:08:47.35	23.04	16.27	-40.1	-42.7	13.0	2.89e-05	0	60	0	787480576	51	4938
2026-01-18 08:08:50.37	22.43	16.13	-40.4	-43.1	12.6	9.30e-05	0	61	0	796917760	51	5178
2026-01-18 08:08:53.40	21.83	15.98	-40.3	-43.0	12.6	9.38e-05	0	61	0	806354944	51	5125
2026-01-18 08:08:56.43	21.24	15.84	-40.2	-42.7	12.8	6.10e-05	0	61	0	815792128	51	4977
2026-01-18 08:08:59.46	20.65	15.69	-40.2	-42.8	12.8	5.64e-05	0	60	0	825229312	51	4984
2026-01-18 08:09:02.49	20.07	15.54	-40.2	-42.8	12.8	5.79e-05	0	60	0	834666496	51	4989
2026-01-18 08:09:05.52	19.50	15.38	-40.1	-42.7	12.9	5.03e-05	0	61	0	844103680	51	4951
2026-01-18 08:09:08.55	18.93	15.23	-40.2	-42.8	12.7	8.46e-05	0	60	0	853540864	51	5036
2026-01-18 08:09:11.59	18.36	15.07	-40.2	-42.8	12.7	9.38e-05	0	60	0	862978048	51	5037
2026-01-18 08:09:14.61	17.80	14.92	-40.2	-42.9	12.6	9.15e-05	0	61	0	873463808	51	5079
2026-01-18 08:09:17.64	17.25	14.76	-40.4	-43.1	12.3	1.54e-04	0	60	0	881852416	51	5193
2026-01-18 08:09:20.67	16.71	14.59	-40.5	-43.3	12.2	2.44e-04	0	60	0	892338176	51	5294
2026-01-18 08:09:23.70	16.17	14.43	-40.5	-43.3	12.1	2.39e-04	0	60	0	900726784	51	5308
2026-01-18 08:09:26.73	15.63	14.27	-40.4	-43.3	12.1	2.20e-04	0	61	0	911212544	51	5298
2026-01-18 08:09:29.76	15.11	14.10	-40.4	-43.2	12.2	2.92e-04	0	60	0	920649728	51	5238
2026-01-18 08:09:32.79	14.59	13.93	-40.4	-43.2	12.1	2.19e-04	0	61	0	930086912	51	5241
2026-01-18 08:09:35.82	14.07	13.77	-40.2	-43.0	12.2	2.28e-04	0	60	0	939524096	51	5158
2026-01-18 08:09:38.85	13.56	13.60	-40.2	-43.1	12.1	3.33e-04	0	61	0	948961280	51	5164
2026-01-18 08:09:41.88	13.06	13.43	-40.2	-43.0	12.1	2.94e-04	0	60	0	958398464	51	5123
2026-01-18 08:09:44.91	12.56	13.26	-40.1	-42.9	12.1	2.68e-04	0	61	0	967835648	51	5079
2026-01-18 08:09:47.95	12.07	13.08	-40.2	-43.2	11.6	4.73e-04	0	60	0	977272832	51	5270
2026-01-18 08:09:50.98	11.58	12.91	-40.1	-43.1	11.6	6.99e-04	0	61	0	986710016	51	5216
2026-01-18 08:09:54.01	11.10	12.74	-40.1	-43.3	11.2	1.37e-03	0	61	0	996147200	51	5305
2026-01-18 08:09:57.04	10.63	12.56	-39.8	-42.9	11.4	1.09e-03	0	60	0	1005584384	51	5046
2026-01-18 08:10:00.06	10.16	12.39	-39.7	-42.8	11.2	1.22e-03	0	60	0	1015021568	51	5006
2026-01-18 08:10:03.09	9.70	12.21	-39.7	-43.0	10.8	2.40e-03	0	60	0	1024458752	51	5157
2026-01-18 08:10:06.12	9.24	12.04	-39.8	-43.4	10.3	4.65e-03	0	61	0	1033895936	51	5348
2026-01-18 08:10:09.16	8.78	11.86	-40.1	-44.4	8.9	2.34e-02	0	61	0	1043333120	51	6037
2026-01-18 08:10:12.19	8.34	11.68	-40.5	-45.9	7.2	1.14e-01	0	60	0	1052770304	51	7126
2026-01-18 08:10:15.21	7.90	11.50	-40.7	-47.5	5.6	3.93e-01	0	61	0	1062207488	52	8138
2026-01-18 08:10:18.24	7.46	11.33	-40.9	-49.7	4.0	1.42e+00	0	61	104	1066401792	52	10524
2026-01-18 08:10:21.27	7.03	11.15	-40.7	-53.0	3.8	1.49e+00	0	61	104	1066401792	52	15392
2026-01-18 08:10:24.30	6.61	10.97	-40.4	-52.9	3.8	1.49e+00	0	61	104	1066401792	52	15077
2026-01-18 08:10:27.33	6.19	10.79	-40.5	-52.9	3.8	1.49e+00	0	61	104	1066401792	52	15125
2026-01-18 08:10:30.36	5.77	10.61	-40.8	-53.2	3.8	1.49e+00	0	61	104	1066401792	52	15675
2026-01-18 08:10:33.39	5.37	10.43	-40.0	-52.4	3.8	1.49e+00	0	61	104	1066401792	52	14371
2026-01-18 08:10:36.42	4.96	10.25	-40.2	-52.6	3.8	1.49e+00	0	61	104	1066401792	51	15509
2026-01-18 08:10:39.45	4.56	10.07	-40.4	-52.8	3.8	1.49e+00	0	61	104	1066401792	51	15866
2026-01-18 08:10:42.48	4.17	9.90	-39.9	-52.4	3.8	1.49e+00	0	61	104	1066401792	51	15114
2026-01-18 08:10:45.51	3.78	9.72	-40.1	-52.6	3.8	1.49e+00	0	61	104	1066401792	51	15453
2026-01-18 08:10:48.54	3.40	9.54	-40.0	-52.5	3.8	1.49e+00	0	61	104	1066401792	51	15353
2026-01-18 08:10:51.57	3.02	9.36	-39.9	-52.5	3.8	1.49e+00	0	61	104	1066401792	51	15282
2026-01-18 08:10:54.59	2.64	9.18	-39.9	-52.4	3.8	1.49e+00	0	61	104	1066401792	51	15183
2026-01-18 08:10:57.62	2.27	9.00	-39.9	-52.4	3.8	1.49e+00	0	61	104	1066401792	51	15125
2026-01-18 08:11:00.65	1.91	8.82	-40.0	-52.5	3.8	1.49e+00	0	61	104	1066401792	51	15320
2026-01-18 08:11:03.68	1.55	8.64	-40.0	-52.5	3.8	1.49e+00	0	61	104	1066401792	51	15244
2026-01-18 08:11:06.71	1.19	8.46	-39.9	-52.4	3.8	1.49e+00	0	61	104	1066401792	51	15223
2026-01-18 08:11:09.74	0.84	8.29	-39.7	-52.4	3.8	1.49e+00	0	61	104	1066401792	51	15117
2026-01-18 08:11:12.77	0.49	8.11	-39.5	-52.4	3.8	1.49e+00	0	61	104	1066401792	51	15060
2026-01-18 08:11:15.80	0.15	7.93	-43.5	-55.9	3.8	1.49e+00	0	61	104	1066401792	57	15967
2026-01-18 08:11:18.83	359.81	7.75	-45.2	-57.7	3.8	1.49e+00	0	61	104	1066401792	61	15673
2026-01-18 08:11:21.87	359.48	7.57	-45.5	-58.0	3.8	1.49e+00	0	61	104	1066401792	61	16131
2026-01-18 08:11:24.90	359.15	7.40	-45.4	-57.8	3.8	1.49e+00	0	61	104	1066401792	61	15836
2026-01-18 08:11:27.93	358.82	7.22	-45.4	-57.7	3.8	1.49e+00	0	61	104	1066401792	61	15666
2026-01-18 08:11:30.97	358.50	7.04	-45.3	-57.6	3.8	1.49e+00	0	61	104	1066401792	61	15417
2026-01-18 08:11:34.00	358.18	6.87	-45.3	-57.6	3.8	1.49e+00	0	61	104	1066401792	61	15417
2026-01-18 08:11:37.03	357.86	6.69	-45.2	-57.5	3.8	1.49e+00	0	61	104	1066401792	61	15400
2026-01-18 08:11:40.07	357.55	6.52	-45.2	-57.5	3.8	1.49e+00	0	61	104	1066401792	61	15391
2026-01-18 08:11:43.10	357.25	6.34	-45.2	-57.5	3.8	1.49e+00	0	61	104	1066401792	61	15307
2026-01-18 08:11:46.13	356.94	6.17	-45.2	-57.5	3.8	1.49e+00	0	61	104	1066401792	61	15324
2026-01-18 08:11:49.16	356.64	5.99	-45.2	-57.5	3.8	1.49e+00	0	61	104	1066401792	61	15371
2026-01-18 08:11:52.20	356.35	5.82	-45.2	-57.5	3.8	1.49e+00	0	61	104	1066401792	61	15335
2026-01-18 08:11:55.23	356.06	5.65	-45.2	-57.5	3.8	1.49e+00	0	61	104	1066401792	61	15306
2026-01-18 08:11:58.26	355.77	5.47	-45.2	-57.5	3.8	1.49e+00	0	61	104	1066401792	61	15294
2026-01-18 08:12:01.30	355.48	5.30	-45.2	-57.5	3.8	1.49e+00	0	61	104	1066401792	61	15275
2026-01-18 08:12:04.33	355.20	5.13	-44.9	-57.5	3.8	1.49e+00	0	61	104	1066401792	60	16149
2026-01-18 08:12:07.36	354.93	4.96	-45.1	-57.5	3.8	1.49e+00	0	61	104	1066401792	60	16176
2026-01-18 08:12:10.39	354.65	4.79	-45.1	-57.5	3.8	1.49e+00	0	61	104	1066401792	60	16146
2026-01-18 08:12:13.42	354.38	4.62	-45.2	-57.4	3.8	1.49e+00	0	61	104	1066401792	60	16117
2026-01-18 08:12:16.46	354.11	4.45	-45.2	-57.4	3.8	1.49e+00	0	61	104	1066401792	60	16110
2026-01-18 08:12:19.49	353.85	4.28	-45.1	-57.4	3.8	1.49e+00	0	61	104	1066401792	60	16095
2026-01-18 08:12:22.52	353.59	4.11	-45.2	-57.5	3.8	1.49e+00	0	61	104	1066401792	60	16173
2026-01-18 08:12:25.56	353.33	3.94	-45.1	-57.4	3.8	1.49e+00	0	61	104	1066401792	60	16127
2026-01-18 08:12:28.59	353.07	3.77	-45.1	-57.4	3.8	1.49e+00	0	61	104	1066401792	60	16099
2026-01-18 08:12:31.62	352.82	3.60	-45.2	-57.5	3.8	1.49e+00	0	61	104	1066401792	60	16150
2026-01-18 08:12:34.65	352.57	3.44	-45.1	-57.5	3.8	1.49e+00	0	61	104	1066401792	60	16208
2026-01-18 08:12:37.69	352.33	3.27	-45.2	-57.4	3.8	1.49e+00	0	61	104	1066401792	60	16092
2026-01-18 08:12:40.72	352.08	3.10	-45.1	-57.4	3.8	1.49e+00	0	61	104	1066401792	60	16096
2026-01-18 08:12:43.75	351.84	2.94	-45.1	-57.4	3.8	1.49e+00	0	61	104	1066401792	60	16101
2026-01-18 08:12:46.79	351.60	2.77	-45.1	-57.4	3.8	1.49e+00	0	61	104	1066401792	60	16112
2026-01-18 08:12:49.82	351.37	2.61	-45.1	-57.4	3.8	1.49e+00	0	62	104	1066401792	60	16061
2026-01-18 08:12:52.85	351.14	2.44	-45.1	-57.4	3.8	1.49e+00	0	61	104	1066401792	60	15986
2026-01-18 08:12:55.89	350.91	2.28	-45.1	-57.4	3.8	1.49e+00	0	61	104	1066401792	60	16043
2026-01-18 08:12:58.92	350.68	2.12	-45.1	-57.4	3.8	1.49e+00	0	61	104	1066401792	60	16085
2026-01-18 08:13:01.95	350.46	1.95	-45.1	-57.4	3.8	1.49e+00	0	62	104	1066401792	60	16056

#Closed at: 2026-01-18 08:13:02
#Recorded file [1066 MB]: D:/lorett/data/31039_260118_110100.dat