passes_logs/2026/01/18/R2.0S_Moscow/R2.0S_Moscow__20260118_203047_FENGYUN_3G_rec.log

#Pass ID: 20260118_203047_FENGYUN 3G
#Satellite: FENGYUN 3G
#Configuration: FENGYUN 3G
#almurnet v.1.7.20251203
#Start time: 2026-01-18 20:30:47

#Version: 2.2.20231116
#Station: R2.0S_Moscow
#Location: 37.707566 lon 55.798166 lat
#TLE: 1 56232U 23055A   26017.62185216  .00029849  00000+0  46390-3 0  9996
#TLE: 2 56232  49.9938  42.4053 0004170  40.2836 319.8440 15.53630283156608

#Time	Az	El	Level	Level2	SNR	BER	BlckErr	Temp	State	Recorded	gain1	gain2
2026-01-18 20:30:47.62	228.97	2.03	-43.7	-61.9	3.8	8.45e-01	0	52	0	0	59	28352
2026-01-18 20:30:50.65	228.73	2.23	-43.7	-61.8	3.8	8.46e-01	0	52	104	0	59	28078
2026-01-18 20:30:53.68	228.48	2.42	-43.7	-61.3	3.8	8.46e-01	0	52	104	0	59	26748
2026-01-18 20:30:56.72	228.22	2.62	-43.7	-61.2	3.8	8.45e-01	0	53	104	0	59	26362
2026-01-18 20:30:59.75	227.96	2.81	-43.7	-61.4	3.8	8.48e-01	0	53	104	0	59	26813
2026-01-18 20:31:02.78	227.69	3.01	-43.7	-61.6	3.8	8.45e-01	0	53	104	0	59	27579
2026-01-18 20:31:05.81	227.42	3.21	-43.7	-61.8	3.8	8.47e-01	0	53	104	0	59	28166
2026-01-18 20:31:08.84	227.14	3.42	-43.7	-61.8	3.8	8.46e-01	0	54	104	0	59	28232
2026-01-18 20:31:11.87	226.86	3.62	-43.7	-61.7	3.8	8.46e-01	0	54	104	0	59	27788
2026-01-18 20:31:14.91	226.57	3.83	-43.7	-61.6	3.8	8.46e-01	0	54	104	0	59	27418
2026-01-18 20:31:17.94	226.28	4.04	-43.7	-61.7	3.8	8.46e-01	0	54	104	0	59	27728
2026-01-18 20:31:20.97	225.98	4.25	-43.7	-61.8	3.8	8.47e-01	0	54	104	0	59	28235
2026-01-18 20:31:24.00	225.67	4.46	-43.7	-61.8	3.8	8.47e-01	0	54	104	0	59	28202
2026-01-18 20:31:27.03	225.35	4.67	-43.7	-61.8	3.8	8.44e-01	0	55	104	0	59	28245
2026-01-18 20:31:30.06	225.03	4.89	-43.7	-61.5	3.8	8.46e-01	0	55	104	0	59	27136
2026-01-18 20:31:33.09	224.71	5.10	-43.7	-60.9	3.8	8.46e-01	0	55	104	0	59	25388
2026-01-18 20:31:36.12	224.37	5.32	-43.7	-61.3	3.8	8.46e-01	0	55	104	0	59	26474
2026-01-18 20:31:39.15	224.03	5.55	-43.7	-61.6	3.8	8.46e-01	0	55	104	0	59	27564
2026-01-18 20:31:42.19	223.68	5.77	-43.7	-61.0	3.8	8.46e-01	0	56	104	0	59	25784
2026-01-18 20:31:45.22	223.32	6.00	-43.6	-59.2	3.8	8.45e-01	0	56	104	0	59	20858
2026-01-18 20:31:48.25	222.96	6.23	-43.6	-58.8	4.1	8.44e-01	0	56	104	0	59	20067
2026-01-18 20:31:51.28	222.58	6.46	-43.6	-58.4	4.2	8.42e-01	0	56	0	0	59	19090
2026-01-18 20:31:54.31	222.20	6.69	-43.4	-55.5	5.4	8.27e-01	0	56	0	0	58	14532
2026-01-18 20:31:57.34	221.81	6.92	-43.1	-52.4	8.3	2.69e-01	0	56	0	2621440	58	10147
2026-01-18 20:32:00.38	221.41	7.16	-43.1	-52.2	8.4	5.26e-02	0	56	0	6291456	58	9883
2026-01-18 20:32:03.41	221.00	7.40	-43.6	-58.2	4.3	1.15e-01	0	56	0	8912896	58	19674
2026-01-18 20:32:06.44	220.58	7.65	-43.2	-53.1	7.4	6.70e-01	0	57	0	9437184	58	10950
2026-01-18 20:32:09.47	220.15	7.89	-41.8	-47.4	13.1	8.37e-04	0	57	0	12582912	55	6781
2026-01-18 20:32:12.50	219.71	8.14	-42.4	-48.7	11.6	5.18e-02	0	57	0	16252928	56	7443
2026-01-18 20:32:15.53	219.26	8.39	-40.9	-45.2	15.4	3.33e-01	0	57	0	18874368	53	5859
2026-01-18 20:32:18.56	218.80	8.64	-40.7	-44.6	16.1	0.00e+00	0	57	0	22544384	53	5521
2026-01-18 20:32:21.58	218.33	8.89	-41.0	-45.2	15.6	0.00e+00	0	57	0	25690112	53	5909
2026-01-18 20:32:24.61	217.85	9.15	-41.0	-45.1	15.9	0.00e+00	0	57	0	29360128	53	5805
2026-01-18 20:32:27.64	217.36	9.41	-40.9	-44.9	16.0	0.00e+00	0	57	0	32505856	53	5693
2026-01-18 20:32:30.66	216.85	9.67	-40.9	-44.9	16.1	0.00e+00	0	57	0	36175872	53	5684
2026-01-18 20:32:33.69	216.33	9.94	-40.6	-44.3	16.6	0.00e+00	0	57	0	39321600	53	5340
2026-01-18 20:32:36.72	215.80	10.20	-40.6	-44.3	16.7	0.00e+00	0	57	0	42991616	53	5320
2026-01-18 20:32:39.75	215.25	10.47	-40.7	-44.4	16.6	0.00e+00	0	58	0	46137344	53	5399
2026-01-18 20:32:42.78	214.69	10.74	-40.6	-44.2	16.9	0.00e+00	0	58	0	49807360	52	5580
2026-01-18 20:32:45.81	214.12	11.02	-40.3	-43.6	17.6	0.00e+00	0	58	0	52953088	52	5174
2026-01-18 20:32:48.83	213.53	11.29	-40.2	-43.4	17.7	0.00e+00	0	58	0	56623104	52	5074
2026-01-18 20:32:51.86	212.93	11.57	-40.0	-43.1	18.1	0.00e+00	0	58	0	59768832	51	5179
2026-01-18 20:32:54.89	212.31	11.85	-40.3	-43.5	17.8	0.00e+00	0	58	0	63438848	51	5427
2026-01-18 20:32:57.92	211.67	12.14	-40.3	-43.5	17.8	0.00e+00	0	58	0	66584576	51	5430
2026-01-18 20:33:00.95	211.02	12.42	-40.0	-43.0	18.3	0.00e+00	0	58	0	70254592	51	5125
2026-01-18 20:33:03.97	210.36	12.71	-39.8	-42.7	18.7	0.00e+00	0	58	0	73400320	51	4931
2026-01-18 20:33:07.00	209.67	13.00	-40.0	-43.0	18.3	0.00e+00	0	58	0	77070336	51	5135
2026-01-18 20:33:10.03	208.97	13.29	-40.1	-43.1	18.2	0.00e+00	0	58	0	80216064	51	5209
2026-01-18 20:33:13.06	208.24	13.58	-39.8	-42.6	18.8	0.00e+00	0	58	0	83886080	51	4919
2026-01-18 20:33:16.08	207.51	13.88	-39.3	-42.0	19.5	0.00e+00	0	58	0	87031808	50	4818
2026-01-18 20:33:19.11	206.75	14.17	-39.6	-42.3	19.1	0.00e+00	0	58	0	90701824	50	5040
2026-01-18 20:33:22.14	205.97	14.47	-39.8	-42.7	18.8	0.00e+00	0	58	0	93847552	50	5256
2026-01-18 20:33:25.18	205.16	14.77	-39.4	-42.1	19.4	0.00e+00	0	58	0	97517568	50	4888
2026-01-18 20:33:28.21	204.34	15.07	-39.1	-41.6	19.9	0.00e+00	0	59	0	100663296	50	4649
2026-01-18 20:33:31.23	203.50	15.37	-39.3	-41.9	19.7	0.00e+00	0	59	0	104333312	50	4772
2026-01-18 20:33:34.26	202.64	15.67	-39.3	-41.9	19.6	0.00e+00	0	59	0	107479040	50	4760
2026-01-18 20:33:37.29	201.75	15.96	-39.0	-41.5	20.0	0.00e+00	0	59	0	111149056	50	4591
2026-01-18 20:33:40.32	200.84	16.26	-38.6	-40.9	20.6	0.00e+00	0	59	0	114294784	49	4527
2026-01-18 20:33:43.34	199.91	16.56	-38.7	-41.1	20.4	0.00e+00	0	59	0	117964800	49	4616
2026-01-18 20:33:46.37	198.96	16.85	-39.2	-41.7	19.8	0.00e+00	0	59	0	121110528	49	4974
2026-01-18 20:33:49.40	197.98	17.15	-39.2	-41.8	19.7	0.00e+00	0	59	0	124780544	49	4997
2026-01-18 20:33:52.43	196.98	17.44	-38.8	-41.2	20.3	0.00e+00	0	59	0	127926272	49	4671
2026-01-18 20:33:55.46	195.95	17.73	-38.4	-40.6	20.9	0.00e+00	0	59	0	131596288	48	4619
2026-01-18 20:33:58.48	194.90	18.01	-38.2	-40.3	21.2	0.00e+00	0	59	0	134742016	48	4493
2026-01-18 20:34:01.51	193.83	18.29	-38.9	-41.3	20.3	0.00e+00	0	59	0	138412032	48	4992
2026-01-18 20:34:04.54	192.73	18.57	-39.1	-41.5	20.0	0.00e+00	0	59	0	141557760	48	5154
2026-01-18 20:34:07.56	191.61	18.84	-38.5	-40.8	20.8	0.00e+00	0	59	0	145227776	48	4727
2026-01-18 20:34:10.59	190.46	19.11	-38.2	-40.3	21.2	0.00e+00	0	59	0	148373504	48	4484
2026-01-18 20:34:13.62	189.28	19.37	-38.1	-40.3	21.3	0.00e+00	0	59	0	152043520	48	4462
2026-01-18 20:34:16.65	188.08	19.62	-37.8	-39.8	21.7	0.00e+00	0	59	0	155189248	47	4492
2026-01-18 20:34:19.68	186.86	19.87	-38.3	-40.6	21.0	0.00e+00	0	59	0	158859264	47	4895
2026-01-18 20:34:22.71	185.62	20.10	-38.7	-41.1	20.5	0.00e+00	0	59	0	162004992	48	4875
2026-01-18 20:34:25.73	184.35	20.33	-38.6	-40.9	20.7	0.00e+00	0	59	0	165675008	48	4775
2026-01-18 20:34:28.77	183.06	20.55	-38.4	-40.6	21.0	0.00e+00	0	59	0	168820736	48	4623
2026-01-18 20:34:31.79	181.75	20.75	-37.9	-40.0	21.5	0.00e+00	0	59	0	172490752	47	4576
2026-01-18 20:34:34.82	180.42	20.95	-38.3	-40.5	21.0	0.00e+00	0	59	0	175636480	47	4862
2026-01-18 20:34:37.85	179.06	21.13	-38.4	-40.6	20.9	0.00e+00	0	59	0	179306496	47	4919
2026-01-18 20:34:40.88	177.69	21.30	-38.2	-40.4	21.1	0.00e+00	0	59	0	182452224	47	4789
2026-01-18 20:34:43.91	176.31	21.46	-38.2	-40.3	21.3	0.00e+00	0	59	0	186122240	47	4744
2026-01-18 20:34:46.93	174.91	21.60	-38.4	-40.6	21.2	0.00e+00	0	59	0	189267968	47	4887
2026-01-18 20:34:49.96	173.49	21.73	-38.3	-40.4	21.4	0.00e+00	0	60	0	192937984	48	4524
2026-01-18 20:34:52.99	172.06	21.84	-38.0	-40.1	21.6	0.00e+00	0	60	0	196083712	48	4357
2026-01-18 20:34:56.02	170.61	21.93	-37.7	-39.7	22.0	0.00e+00	0	59	0	199753728	47	4417
2026-01-18 20:34:59.05	169.16	22.01	-37.4	-39.4	22.3	0.00e+00	0	59	0	202899456	46	4512
2026-01-18 20:35:02.08	167.70	22.08	-37.3	-39.2	22.6	0.00e+00	0	60	0	206569472	46	4411
2026-01-18 20:35:05.11	166.23	22.12	-37.9	-39.9	21.9	0.00e+00	0	60	0	209715200	46	4795
2026-01-18 20:35:08.13	164.77	22.15	-38.0	-40.1	21.7	0.00e+00	0	60	0	213385216	46	4895
2026-01-18 20:35:11.16	163.30	22.16	-37.9	-39.9	21.9	0.00e+00	0	60	0	216530944	46	4777
2026-01-18 20:35:14.19	161.82	22.16	-37.4	-39.4	22.5	0.00e+00	0	60	0	220200960	46	4524
2026-01-18 20:35:17.22	160.35	22.14	-37.6	-39.6	22.3	0.00e+00	0	60	0	223346688	45	4882
2026-01-18 20:35:20.25	158.88	22.09	-38.3	-40.4	21.4	0.00e+00	0	60	0	227016704	47	4799
2026-01-18 20:35:23.28	157.42	22.04	-38.2	-40.4	21.4	0.00e+00	0	60	0	230162432	47	4802
2026-01-18 20:35:26.30	155.97	21.96	-37.8	-39.9	22.1	0.00e+00	0	60	0	233832448	47	4514
2026-01-18 20:35:29.33	154.53	21.87	-37.4	-39.4	22.5	0.00e+00	0	60	0	236978176	46	4532
2026-01-18 20:35:32.36	153.09	21.77	-38.2	-40.4	21.6	0.00e+00	0	60	0	240648192	46	5053
2026-01-18 20:35:35.39	151.67	21.65	-37.8	-39.8	22.0	0.00e+00	0	60	0	243793920	46	4752
2026-01-18 20:35:38.42	150.26	21.51	-38.1	-40.2	21.7	0.00e+00	0	60	0	247463936	46	4977
2026-01-18 20:35:41.45	148.87	21.36	-38.8	-41.1	20.9	0.00e+00	0	60	0	250609664	48	4921
2026-01-18 20:35:44.47	147.50	21.19	-38.4	-40.6	21.4	0.00e+00	0	60	0	254279680	48	4614
2026-01-18 20:35:47.50	146.14	21.02	-38.2	-40.3	21.7	0.00e+00	0	60	0	257425408	48	4480
2026-01-18 20:35:50.53	144.81	20.82	-38.6	-40.9	21.2	0.00e+00	0	60	0	261095424	48	4761
2026-01-18 20:35:53.56	143.49	20.62	-38.4	-40.6	21.4	0.00e+00	0	60	0	264241152	48	4646
2026-01-18 20:35:56.59	142.19	20.41	-38.5	-40.8	21.2	0.00e+00	0	60	0	267911168	48	4709
2026-01-18 20:35:59.62	140.92	20.19	-38.3	-40.4	21.6	0.00e+00	0	60	0	271056896	48	4533
2026-01-18 20:36:02.64	139.68	19.95	-38.3	-40.5	21.4	0.00e+00	0	60	0	274726912	48	4574
2026-01-18 20:36:05.67	138.45	19.71	-38.5	-40.7	21.3	0.00e+00	0	60	0	277872640	48	4696
2026-01-18 20:36:08.70	137.24	19.46	-38.9	-41.2	20.8	0.00e+00	0	60	0	281542656	48	4957
2026-01-18 20:36:11.72	136.07	19.21	-38.5	-40.7	21.3	0.00e+00	0	60	0	284688384	48	4693
2026-01-18 20:36:14.75	134.91	18.94	-38.6	-40.9	21.1	0.00e+00	0	60	0	288358400	48	4765
2026-01-18 20:36:17.78	133.78	18.67	-38.8	-41.2	20.7	1.10e-06	0	60	0	291504128	48	4946
2026-01-18 20:36:20.81	132.68	18.40	-38.5	-40.8	21.0	1.10e-06	0	60	0	295174144	47	5020
2026-01-18 20:36:23.83	131.60	18.12	-38.4	-40.6	21.1	4.57e-05	0	60	0	298319872	47	4915
2026-01-18 20:36:26.86	130.54	17.84	-38.7	-41.0	19.5	2.20e-06	0	60	0	301989888	47	5133
2026-01-18 20:36:29.89	129.51	17.55	-38.6	-41.0	20.7	2.20e-06	0	60	0	305135616	47	5117
2026-01-18 20:36:32.92	128.50	17.26	-38.6	-40.9	20.8	0.00e+00	0	60	0	308805632	47	5067
2026-01-18 20:36:35.95	127.52	16.97	-38.9	-41.3	20.5	0.00e+00	0	60	0	311951360	48	4987
2026-01-18 20:36:38.98	126.56	16.68	-38.9	-41.3	20.4	0.00e+00	0	60	0	315621376	48	5041
2026-01-18 20:36:42.01	125.62	16.38	-39.1	-41.6	20.0	0.00e+00	0	60	0	318767104	48	5187
2026-01-18 20:36:45.03	124.71	16.08	-38.9	-41.4	20.3	0.00e+00	0	60	0	322437120	48	5052
2026-01-18 20:36:48.06	123.82	15.79	-38.2	-41.7	18.9	6.80e-06	0	60	0	325582848	47	5530
2026-01-18 20:36:51.09	122.95	15.49	-39.3	-42.2	17.8	3.40e-06	0	60	0	329252864	47	5860
2026-01-18 20:36:54.12	122.10	15.19	-38.4	-42.0	18.2	1.49e-04	0	60	0	332398592	48	5427
2026-01-18 20:36:57.15	121.28	14.89	-37.9	-42.2	18.0	5.83e-05	0	60	0	336068608	46	6242
2026-01-18 20:37:00.18	120.47	14.60	-38.8	-42.2	17.8	3.15e-04	0	60	0	339214336	48	5556
2026-01-18 20:37:03.21	119.69	14.30	-35.2	-41.9	13.5	1.31e-03	0	60	0	342884352	41	8025
2026-01-18 20:37:06.24	118.92	14.00	-35.3	-42.6	12.7	5.64e-03	0	60	0	346030080	39	9805
2026-01-18 20:37:09.27	118.18	13.71	-37.3	-42.2	12.1	1.13e-01	0	60	0	349175808	36	11130
2026-01-18 20:37:12.29	117.45	13.42	-34.1	-42.7	15.6	4.66e-03	0	60	0	352845824	43	7889
2026-01-18 20:37:15.32	116.75	13.13	-35.9	-42.5	16.7	1.14e-02	0	60	0	355991552	44	7261
2026-01-18 20:37:18.35	116.06	12.84	-32.3	-43.1	15.1	4.94e-03	0	60	0	359661568	42	8751
2026-01-18 20:37:21.37	115.39	12.55	-37.1	-43.7	12.7	9.24e-02	0	60	0	362807296	41	9855
2026-01-18 20:37:24.40	114.73	12.27	-37.4	-43.5	16.2	3.30e-02	0	60	0	366477312	48	6470
2026-01-18 20:37:27.43	114.09	11.98	-38.9	-44.0	12.2	1.29e-02	0	60	0	369623040	45	8154
2026-01-18 20:37:30.45	113.47	11.70	-39.6	-45.7	13.4	2.75e-03	0	60	0	372768768	50	7396
2026-01-18 20:37:33.48	112.87	11.42	-38.3	-45.3	12.7	1.97e-02	0	60	0	376438784	47	8378
2026-01-18 20:37:36.51	112.27	11.15	-35.8	-43.3	14.0	2.61e-02	0	60	0	379584512	44	7917
2026-01-18 20:37:39.54	111.70	10.87	-36.0	-43.6	12.7	5.43e-02	0	61	0	383254528	43	8695
2026-01-18 20:37:42.57	111.13	10.60	-35.4	-43.4	10.5	3.18e-02	0	60	0	386400256	35	13555
2026-01-18 20:37:45.60	110.59	10.33	-35.6	-43.6	13.0	3.35e-02	0	61	0	390070272	42	9194
2026-01-18 20:37:48.63	110.05	10.07	-35.3	-44.3	9.8	2.83e-02	0	60	0	393216000	41	10611
2026-01-18 20:37:51.66	109.53	9.80	-36.9	-44.7	13.4	4.40e-02	0	61	0	396886016	46	8340
2026-01-18 20:37:54.69	109.02	9.54	-35.3	-44.2	14.0	1.03e-01	0	61	0	400031744	45	8354
2026-01-18 20:37:57.71	108.52	9.28	-38.8	-45.0	14.2	4.02e-02	0	61	0	403701760	48	7652
2026-01-18 20:38:00.74	108.04	9.02	-37.3	-44.9	13.7	4.71e-03	0	60	0	406847488	46	8554
2026-01-18 20:38:03.77	107.57	8.77	-37.6	-45.0	14.3	7.94e-03	0	61	0	410517504	48	7643
2026-01-18 20:38:06.80	107.10	8.52	-35.4	-45.2	12.9	2.17e-02	0	61	0	413663232	46	8817
2026-01-18 20:38:09.83	106.65	8.27	-38.5	-46.1	12.7	6.42e-03	0	60	0	417333248	49	8190
2026-01-18 20:38:12.86	106.21	8.02	-39.9	-46.7	11.8	7.85e-03	0	60	0	420478976	50	8356
2026-01-18 20:38:15.89	105.78	7.77	-44.8	-63.0	3.8	7.11e-01	0	60	104	421527552	60	30448
2026-01-18 20:38:18.92	105.36	7.53	-45.5	-63.6	3.8	8.47e-01	0	60	104	421527552	61	31067
2026-01-18 20:38:21.95	104.95	7.29	-45.8	-63.9	3.8	8.46e-01	0	61	104	421527552	62	30374
2026-01-18 20:38:24.98	104.55	7.05	-45.6	-63.8	3.8	8.47e-01	0	61	104	421527552	62	29878
2026-01-18 20:38:28.02	104.15	6.82	-45.6	-63.7	3.8	8.47e-01	0	61	104	421527552	62	29467
2026-01-18 20:38:31.05	103.77	6.58	-45.3	-63.4	3.8	8.47e-01	0	61	104	421527552	62	28610
2026-01-18 20:38:34.08	103.40	6.35	-45.3	-63.4	3.8	8.47e-01	0	60	104	421527552	62	28559
2026-01-18 20:38:37.11	103.03	6.13	-45.3	-63.4	3.8	8.46e-01	0	61	104	421527552	62	28535
2026-01-18 20:38:40.14	102.67	5.90	-45.3	-63.4	3.8	8.45e-01	0	61	104	421527552	62	28527
2026-01-18 20:38:43.17	102.32	5.67	-45.3	-63.4	3.8	8.45e-01	0	60	104	421527552	62	28502
2026-01-18 20:38:46.20	101.98	5.45	-45.3	-63.4	3.8	8.46e-01	0	61	104	421527552	61	30130
2026-01-18 20:38:49.23	101.64	5.23	-45.2	-63.4	3.8	8.46e-01	0	61	104	421527552	61	30165
2026-01-18 20:38:52.26	101.31	5.01	-45.1	-63.3	3.8	8.46e-01	0	60	104	421527552	61	29954
2026-01-18 20:38:55.29	100.99	4.80	-45.3	-63.3	3.8	8.46e-01	0	61	104	421527552	61	30031
2026-01-18 20:38:58.33	100.68	4.58	-45.3	-63.3	3.8	8.46e-01	0	61	104	421527552	61	30009
2026-01-18 20:39:01.35	100.37	4.37	-45.2	-63.4	3.8	8.46e-01	0	61	104	421527552	61	30049
2026-01-18 20:39:04.38	100.07	4.16	-45.2	-63.3	3.8	8.46e-01	0	61	104	421527552	61	29948
2026-01-18 20:39:07.41	99.77	3.96	-45.2	-63.3	3.8	8.46e-01	0	61	104	421527552	61	29969
2026-01-18 20:39:10.44	99.48	3.75	-45.2	-63.3	3.9	8.46e-01	0	61	104	421527552	61	29882
2026-01-18 20:39:13.47	99.20	3.54	-45.2	-63.3	3.8	8.47e-01	0	61	104	421527552	61	29919
2026-01-18 20:39:16.50	98.92	3.34	-45.2	-63.3	3.8	8.46e-01	0	61	104	421527552	61	29950
2026-01-18 20:39:19.54	98.65	3.14	-45.2	-63.3	3.8	8.45e-01	0	61	104	421527552	61	29872
2026-01-18 20:39:22.57	98.38	2.94	-45.2	-63.3	3.8	8.45e-01	0	61	104	421527552	61	29818
2026-01-18 20:39:25.60	98.12	2.74	-45.2	-63.3	3.8	8.46e-01	0	61	104	421527552	61	29942
2026-01-18 20:39:28.63	97.87	2.55	-45.2	-63.3	3.8	8.46e-01	0	61	104	421527552	61	29767
2026-01-18 20:39:31.66	97.61	2.35	-45.2	-63.3	3.8	8.46e-01	0	61	104	421527552	61	29793
2026-01-18 20:39:34.69	97.37	2.16	-45.2	-63.2	3.8	8.46e-01	0	61	104	421527552	61	29681

#Closed at: 2026-01-18 20:39:37
#Recorded file [421 MB]: D:/lorett/data/31039_260118_233047.dat