passes_logs/2026/01/18/R2.0S_Moscow/R2.0S_Moscow__20260118_010229_AQUA_rec.log

#Pass ID: 20260118_010229_AQUA
#Satellite: AQUA
#Configuration: AQUA
#almurnet v.1.7.20251203
#Start time: 2026-01-18 01:02:29

#Version: 2.2.20231116
#Station: R2.0S_Moscow
#Location: 37.707566 lon 55.798166 lat
#TLE: 1 27424U 02022A   26017.29152041  .00000842  00000+0  17841-3 0  9992
#TLE: 2 27424  98.4085 343.7574 0002011  75.4099  30.6811 14.61825797261228

#Time	Az	El	Level	Level2	SNR	BER	BlckErr	Temp	State	Recorded	gain1	gain2
2026-01-18 01:02:29.98	17.70	2.01	-42.4	-62.0	3.8	7.45e-01	0	52	0	0	56	34471
2026-01-18 01:02:34.02	17.79	2.28	-42.2	-62.0	3.8	7.45e-01	0	52	104	0	55	36203
2026-01-18 01:02:38.06	17.87	2.55	-42.2	-62.0	3.8	7.45e-01	0	52	104	0	55	36293
2026-01-18 01:02:42.11	17.96	2.82	-42.2	-62.0	3.8	7.45e-01	0	53	104	0	55	36159
2026-01-18 01:02:46.15	18.05	3.10	-42.2	-61.9	3.8	7.48e-01	0	53	104	0	55	35981
2026-01-18 01:02:50.20	18.14	3.37	-42.2	-61.9	3.8	7.45e-01	0	53	104	0	55	35984
2026-01-18 01:02:54.24	18.23	3.65	-42.2	-61.9	3.8	7.45e-01	0	53	104	0	55	36008
2026-01-18 01:02:58.28	18.32	3.94	-42.3	-62.0	3.8	7.44e-01	0	54	104	0	55	36226
2026-01-18 01:03:02.33	18.42	4.23	-42.2	-61.9	3.8	7.42e-01	0	54	104	0	55	36097
2026-01-18 01:03:06.37	18.51	4.52	-42.2	-61.9	3.8	7.46e-01	0	54	104	0	55	36078
2026-01-18 01:03:10.42	18.61	4.81	-42.1	-61.7	3.8	7.46e-01	0	54	104	0	55	35236
2026-01-18 01:03:14.46	18.71	5.11	-42.2	-61.9	3.8	7.47e-01	0	54	104	0	55	35694
2026-01-18 01:03:18.50	18.81	5.41	-42.2	-61.9	3.8	7.44e-01	0	55	104	0	55	35871
2026-01-18 01:03:22.55	18.92	5.72	-42.2	-62.0	3.8	7.45e-01	0	55	104	0	55	36141
2026-01-18 01:03:26.59	19.02	6.02	-42.2	-61.9	3.8	7.44e-01	0	55	104	0	55	36029
2026-01-18 01:03:30.64	19.13	6.34	-42.2	-61.9	3.8	7.44e-01	0	55	104	0	55	36078
2026-01-18 01:03:34.68	19.24	6.66	-42.2	-61.9	3.8	7.44e-01	0	56	104	0	55	35969
2026-01-18 01:03:38.72	19.36	6.98	-42.2	-61.9	3.8	7.44e-01	0	56	104	0	55	35896
2026-01-18 01:03:42.77	19.47	7.31	-42.2	-61.8	3.8	7.44e-01	0	56	104	0	55	35421
2026-01-18 01:03:46.81	19.59	7.64	-42.2	-60.8	3.8	7.43e-01	0	56	104	0	55	31695
2026-01-18 01:03:50.86	19.71	7.97	-42.1	-56.2	5.1	7.05e-01	0	56	0	0	55	18591
2026-01-18 01:03:54.90	19.83	8.31	-41.9	-61.1	3.7	7.50e-01	0	56	104	4718592	55	32602
2026-01-18 01:03:58.94	19.95	8.66	-41.4	-46.1	15.9	6.05e-01	0	57	0	8912896	54	6193
2026-01-18 01:04:02.97	20.08	9.01	-41.9	-47.0	15.1	6.05e-01	0	57	0	16777216	54	6849
2026-01-18 01:04:07.01	20.21	9.37	-41.7	-46.3	16.0	6.05e-01	0	57	0	24117248	54	6321
2026-01-18 01:04:11.04	20.35	9.73	-41.7	-46.0	16.3	6.04e-01	0	57	0	31981568	54	6128
2026-01-18 01:04:15.08	20.48	10.10	-41.8	-46.0	16.5	6.03e-01	0	57	0	39321600	54	6119
2026-01-18 01:04:19.12	20.62	10.47	-41.9	-46.0	16.7	6.02e-01	0	57	0	46661632	54	6102
2026-01-18 01:04:23.16	20.77	10.85	-42.0	-46.0	16.8	6.03e-01	0	57	0	54525952	54	6098
2026-01-18 01:04:27.19	20.91	11.24	-41.9	-45.7	17.2	6.04e-01	0	57	0	61865984	54	5914
2026-01-18 01:04:31.23	21.06	11.63	-41.8	-45.5	17.4	6.03e-01	0	58	0	69730304	54	5774
2026-01-18 01:04:35.27	21.22	12.03	-41.8	-45.4	17.6	6.01e-01	0	58	0	77070336	54	5674
2026-01-18 01:04:39.31	21.38	12.44	-41.8	-45.4	17.7	6.04e-01	0	58	0	84934656	54	5660
2026-01-18 01:04:43.35	21.54	12.86	-41.9	-45.6	17.5	6.02e-01	0	58	0	92274688	54	5813
2026-01-18 01:04:47.39	21.71	13.28	-41.8	-45.4	17.7	6.05e-01	0	58	0	100139008	54	5675
2026-01-18 01:04:51.42	21.88	13.71	-41.8	-45.3	17.9	6.04e-01	0	58	0	107479040	54	5594
2026-01-18 01:04:55.47	22.06	14.16	-41.7	-45.0	18.2	6.05e-01	0	58	0	114819072	54	5461
2026-01-18 01:04:59.51	22.25	14.61	-41.7	-45.0	18.2	6.03e-01	0	58	0	122683392	54	5462
2026-01-18 01:05:03.55	22.43	15.06	-41.8	-45.2	18.1	6.04e-01	0	58	0	130023424	54	5577
2026-01-18 01:05:07.58	22.63	15.53	-41.8	-45.2	18.2	6.04e-01	0	58	0	137887744	54	5572
2026-01-18 01:05:11.62	22.83	16.01	-41.7	-45.0	18.3	6.03e-01	0	58	0	145227776	54	5463
2026-01-18 01:05:15.66	23.04	16.50	-41.6	-44.8	18.6	6.03e-01	0	58	0	153092096	54	5336
2026-01-18 01:05:19.71	23.25	17.00	-41.7	-45.0	18.5	6.02e-01	0	58	0	160432128	54	5406
2026-01-18 01:05:23.75	23.47	17.51	-41.8	-45.0	18.5	6.03e-01	0	58	0	168296448	54	5457
2026-01-18 01:05:27.79	23.70	18.03	-41.8	-45.0	18.5	6.04e-01	0	59	0	175636480	54	5419
2026-01-18 01:05:31.82	23.94	18.57	-41.7	-44.8	18.7	6.04e-01	0	59	0	182976512	54	5333
2026-01-18 01:05:35.86	24.18	19.11	-41.6	-44.7	18.9	6.03e-01	0	59	0	190840832	54	5249
2026-01-18 01:05:39.90	24.43	19.67	-41.8	-45.0	18.7	6.01e-01	0	59	0	198180864	54	5410
2026-01-18 01:05:43.94	24.70	20.25	-41.7	-44.8	18.8	6.01e-01	0	59	0	206045184	54	5320
2026-01-18 01:05:47.98	24.97	20.84	-41.6	-44.7	19.0	6.03e-01	0	59	0	213385216	54	5237
2026-01-18 01:05:52.02	25.25	21.44	-41.8	-45.0	18.7	6.03e-01	0	59	0	221249536	54	5417
2026-01-18 01:05:56.05	25.55	22.06	-41.9	-45.0	18.7	6.01e-01	0	59	0	228589568	54	5452
2026-01-18 01:06:00.09	25.86	22.69	-41.9	-45.0	18.6	6.03e-01	0	59	0	236453888	54	5461
2026-01-18 01:06:04.13	26.18	23.34	-41.9	-45.0	18.7	6.05e-01	0	59	0	243793920	54	5436
2026-01-18 01:06:08.17	26.51	24.01	-42.0	-45.2	18.6	6.03e-01	0	59	0	251133952	54	5539
2026-01-18 01:06:12.21	26.86	24.70	-41.9	-45.0	18.8	6.03e-01	0	59	0	258998272	54	5439
2026-01-18 01:06:16.24	27.22	25.41	-42.1	-45.2	18.5	6.03e-01	0	59	0	266338304	54	5589
2026-01-18 01:06:20.28	27.60	26.13	-41.9	-45.0	18.8	6.04e-01	0	59	0	274202624	54	5455
2026-01-18 01:06:24.32	28.00	26.88	-41.9	-45.0	18.8	6.01e-01	0	59	0	281542656	54	5440
2026-01-18 01:06:28.36	28.42	27.65	-41.8	-44.7	19.1	6.05e-01	0	59	0	289406976	54	5279
2026-01-18 01:06:32.39	28.86	28.44	-41.7	-44.6	19.2	6.04e-01	0	59	0	296747008	54	5215
2026-01-18 01:06:36.43	29.32	29.25	-41.8	-44.8	19.1	6.03e-01	0	59	0	304611328	54	5288
2026-01-18 01:06:40.47	29.81	30.09	-41.5	-44.3	19.5	6.03e-01	0	59	0	311951360	54	5040
2026-01-18 01:06:44.51	30.32	30.95	-41.7	-44.6	19.3	6.05e-01	0	59	0	319291392	54	5168
2026-01-18 01:06:48.54	30.86	31.84	-42.0	-45.0	18.9	6.01e-01	0	60	0	327155712	54	5448
2026-01-18 01:06:52.58	31.43	32.76	-41.9	-44.9	19.0	6.03e-01	0	59	0	334495744	54	5397
2026-01-18 01:06:56.62	32.04	33.70	-42.2	-45.4	18.6	6.05e-01	0	60	0	342360064	54	5672
2026-01-18 01:07:00.65	32.68	34.67	-42.4	-45.6	18.4	6.02e-01	0	60	0	349700096	55	5483
2026-01-18 01:07:04.69	33.36	35.67	-42.8	-46.4	17.7	6.06e-01	0	60	0	357564416	56	5661
2026-01-18 01:07:08.73	34.09	36.70	-43.2	-47.0	17.1	6.04e-01	0	59	0	364904448	56	6104
2026-01-18 01:07:12.77	34.86	37.76	-43.3	-47.1	17.0	6.02e-01	0	60	0	372244480	57	5823
2026-01-18 01:07:16.81	35.69	38.86	-43.3	-47.2	16.9	6.04e-01	0	60	0	380108800	57	5890
2026-01-18 01:07:20.84	36.57	39.98	-43.1	-46.8	17.3	6.03e-01	0	60	0	387448832	57	5656
2026-01-18 01:07:24.88	37.52	41.13	-42.9	-46.3	17.8	6.03e-01	0	60	0	395313152	57	5331
2026-01-18 01:07:28.92	38.54	42.32	-42.4	-45.6	18.6	6.03e-01	0	60	0	402653184	56	5202
2026-01-18 01:07:32.96	39.64	43.54	-42.1	-45.1	19.1	6.04e-01	0	59	0	410517504	56	4921
2026-01-18 01:07:37.00	40.83	44.78	-42.2	-45.2	19.1	6.04e-01	0	60	0	417857536	56	4943
2026-01-18 01:07:41.04	42.12	46.06	-41.9	-44.8	19.3	6.06e-01	0	60	0	425721856	55	5021
2026-01-18 01:07:45.07	43.52	47.35	-41.9	-44.8	19.4	6.02e-01	0	60	0	433061888	55	4986
2026-01-18 01:07:49.11	45.04	48.68	-41.8	-44.6	19.5	6.05e-01	0	60	0	440401920	55	4923
2026-01-18 01:07:53.15	46.70	50.02	-41.8	-44.6	19.5	6.03e-01	0	60	0	448266240	55	4906
2026-01-18 01:07:57.19	48.51	51.38	-41.8	-44.7	19.5	6.03e-01	0	60	0	455606272	55	4942
2026-01-18 01:08:01.23	50.50	52.75	-41.8	-44.6	19.6	6.04e-01	0	60	0	463470592	55	4913
2026-01-18 01:08:05.27	52.68	54.12	-41.7	-44.4	19.8	6.03e-01	0	60	0	470810624	55	4787
2026-01-18 01:08:09.30	55.07	55.47	-41.9	-44.7	19.5	6.03e-01	0	60	0	478674944	55	4974
2026-01-18 01:08:13.34	57.71	56.82	-42.6	-45.9	18.3	6.04e-01	0	60	0	486014976	55	5704
2026-01-18 01:08:17.38	60.62	58.13	-43.2	-46.9	17.4	6.02e-01	0	60	0	493879296	57	5693
2026-01-18 01:08:21.42	63.83	59.40	-43.4	-47.2	17.1	6.07e-01	0	60	0	501219328	57	5897
2026-01-18 01:08:25.46	67.36	60.61	-43.6	-47.5	16.8	6.02e-01	0	60	0	508559360	57	6111
2026-01-18 01:08:29.49	71.22	61.73	-44.1	-48.5	15.8	6.05e-01	0	60	0	516423680	58	6491
2026-01-18 01:08:33.53	75.44	62.76	-44.1	-48.5	15.8	6.04e-01	0	60	0	523763712	59	6115
2026-01-18 01:08:37.57	80.01	63.65	-44.0	-48.5	15.8	6.03e-01	0	60	0	531628032	59	6074
2026-01-18 01:08:41.61	84.92	64.40	-44.5	-49.7	14.6	6.03e-01	0	60	0	538968064	59	6965
2026-01-18 01:08:45.65	90.12	64.98	-44.4	-49.4	14.8	6.04e-01	0	60	0	546832384	59	6744
2026-01-18 01:08:49.68	95.54	65.37	-44.2	-48.8	15.4	6.05e-01	0	60	0	554172416	59	6334
2026-01-18 01:08:53.72	101.11	65.56	-44.3	-49.1	15.1	6.03e-01	0	60	0	562036736	59	6522
2026-01-18 01:08:57.76	106.73	65.53	-44.3	-49.1	15.1	6.02e-01	0	60	0	569376768	59	6495
2026-01-18 01:09:01.80	112.28	65.30	-44.2	-48.8	15.4	6.06e-01	0	60	0	576716800	59	6343
2026-01-18 01:09:05.84	117.67	64.87	-43.8	-48.0	16.2	6.05e-01	0	60	0	584581120	59	5782
2026-01-18 01:09:09.87	122.80	64.26	-44.1	-48.8	15.4	6.03e-01	0	60	0	591921152	58	6704
2026-01-18 01:09:13.91	127.65	63.48	-43.9	-48.2	16.0	6.03e-01	0	60	0	599785472	58	6241
2026-01-18 01:09:17.95	132.16	62.55	-43.3	-47.0	17.2	6.03e-01	0	60	0	607125504	58	5464
2026-01-18 01:09:21.99	136.31	61.50	-43.3	-47.0	17.2	6.03e-01	0	60	0	614989824	58	5464
2026-01-18 01:09:26.02	140.10	60.36	-43.3	-47.0	17.1	6.03e-01	0	60	0	622329856	58	5449
2026-01-18 01:09:30.06	143.56	59.13	-43.0	-46.5	17.7	6.02e-01	0	60	0	629669888	58	5157
2026-01-18 01:09:34.10	146.71	57.85	-42.8	-46.2	18.1	6.03e-01	0	60	0	637534208	57	5219
2026-01-18 01:09:38.14	149.57	56.52	-42.3	-45.4	18.9	6.03e-01	0	60	0	644874240	56	5042
2026-01-18 01:09:42.18	152.16	55.17	-42.2	-45.2	19.0	6.03e-01	0	60	0	652738560	56	4970
2026-01-18 01:09:46.22	154.51	53.80	-42.3	-45.5	18.8	6.04e-01	0	60	0	660078592	56	5117
2026-01-18 01:09:50.26	156.66	52.42	-41.9	-44.8	19.3	6.01e-01	0	60	0	667942912	55	5015
2026-01-18 01:09:54.30	158.61	51.05	-42.0	-45.0	19.1	6.04e-01	0	60	0	675282944	55	5128
2026-01-18 01:09:58.33	160.38	49.69	-42.4	-45.6	18.5	6.06e-01	0	60	0	683147264	55	5514
2026-01-18 01:10:02.37	162.01	48.35	-42.5	-45.9	18.2	6.04e-01	0	60	0	690487296	55	5686
2026-01-18 01:10:06.41	163.51	47.02	-42.5	-45.8	18.3	6.03e-01	0	60	0	697827328	55	5614
2026-01-18 01:10:10.45	164.88	45.72	-42.4	-45.7	18.4	6.03e-01	0	60	0	705691648	55	5572
2026-01-18 01:10:14.49	166.15	44.45	-42.2	-45.4	18.6	6.04e-01	0	61	0	713031680	55	5360
2026-01-18 01:10:18.53	167.32	43.20	-42.4	-45.7	18.3	6.02e-01	0	60	0	720896000	55	5572
2026-01-18 01:10:22.57	168.40	41.99	-42.6	-46.1	18.0	6.03e-01	0	60	0	728236032	55	5789
2026-01-18 01:10:26.60	169.41	40.81	-42.8	-46.4	17.7	6.05e-01	0	60	0	736100352	56	5658
2026-01-18 01:10:30.64	170.34	39.65	-43.0	-46.6	17.4	6.04e-01	0	60	0	743440384	56	5844
2026-01-18 01:10:34.67	171.21	38.53	-42.9	-46.5	17.5	6.03e-01	0	60	0	751304704	56	5775
2026-01-18 01:10:38.71	172.03	37.44	-42.7	-46.1	17.9	6.02e-01	0	61	0	758644736	56	5514
2026-01-18 01:10:42.75	172.79	36.38	-42.6	-46.0	18.1	6.02e-01	0	60	0	765984768	56	5433
2026-01-18 01:10:46.79	173.51	35.35	-42.1	-45.2	18.8	6.02e-01	0	60	0	773849088	56	4947
2026-01-18 01:10:50.81	174.18	34.36	-41.8	-44.8	19.1	6.05e-01	0	60	0	781189120	55	4991
2026-01-18 01:10:54.85	174.81	33.39	-41.7	-44.6	19.3	6.03e-01	0	61	0	789053440	55	4889
2026-01-18 01:10:58.89	175.41	32.45	-41.4	-44.1	19.8	6.03e-01	0	61	0	796393472	54	4902
2026-01-18 01:11:02.93	175.97	31.53	-41.3	-44.0	19.9	6.04e-01	0	60	0	804257792	54	4816
2026-01-18 01:11:06.97	176.51	30.65	-41.2	-43.9	19.9	6.05e-01	0	60	0	811597824	54	4779
2026-01-18 01:11:11.00	177.01	29.79	-41.3	-44.1	19.8	6.04e-01	0	60	0	818937856	54	4877
2026-01-18 01:11:15.04	177.49	28.95	-41.6	-44.5	19.3	6.04e-01	0	60	0	826802176	54	5135
2026-01-18 01:11:19.08	177.95	28.14	-41.6	-44.5	19.3	6.04e-01	0	61	0	834142208	54	5124
2026-01-18 01:11:23.12	178.38	27.35	-41.6	-44.4	19.3	6.04e-01	0	60	0	842006528	54	5099
2026-01-18 01:11:27.15	178.79	26.58	-41.8	-44.8	18.9	6.03e-01	0	61	0	849346560	54	5315
2026-01-18 01:11:31.19	179.18	25.84	-42.1	-45.4	18.3	6.04e-01	0	61	0	857210880	54	5682
2026-01-18 01:11:35.23	179.56	25.11	-42.1	-45.3	18.4	6.03e-01	0	60	0	864550912	54	5618
2026-01-18 01:11:39.26	179.92	24.41	-42.0	-45.1	18.6	6.04e-01	0	60	0	872415232	54	5504
2026-01-18 01:11:43.30	180.26	23.72	-42.0	-45.1	18.5	6.02e-01	0	61	0	879755264	54	5522
2026-01-18 01:11:47.34	180.59	23.05	-41.9	-45.0	18.6	6.01e-01	0	61	0	887095296	54	5440
2026-01-18 01:11:51.38	180.91	22.40	-41.9	-45.0	18.6	6.03e-01	0	61	0	894959616	54	5439
2026-01-18 01:11:55.42	181.21	21.77	-41.8	-44.9	18.7	6.04e-01	0	61	0	902299648	54	5369
2026-01-18 01:11:59.46	181.50	21.15	-41.8	-44.8	18.7	6.05e-01	0	61	0	910163968	54	5334
2026-01-18 01:12:03.50	181.78	20.55	-41.8	-44.9	18.6	6.03e-01	0	60	0	917504000	54	5371
2026-01-18 01:12:07.53	182.05	19.96	-41.7	-44.8	18.7	6.02e-01	0	60	0	925368320	54	5325
2026-01-18 01:12:11.57	182.31	19.39	-41.7	-44.7	18.8	6.02e-01	0	61	0	932708352	54	5246
2026-01-18 01:12:15.61	182.56	18.83	-41.6	-44.6	18.9	6.05e-01	0	61	0	940048384	54	5167
2026-01-18 01:12:19.65	182.80	18.29	-41.8	-45.0	18.5	6.04e-01	0	60	0	947912704	54	5406
2026-01-18 01:12:23.69	183.03	17.75	-41.5	-44.5	18.9	6.03e-01	0	61	0	955252736	54	5134
2026-01-18 01:12:27.72	183.25	17.23	-41.6	-44.6	18.8	6.02e-01	0	60	0	963117056	54	5206
2026-01-18 01:12:31.76	183.47	16.72	-41.5	-44.5	18.9	6.03e-01	0	60	0	970457088	54	5155
2026-01-18 01:12:35.80	183.68	16.22	-41.5	-44.5	18.9	6.03e-01	0	60	0	978321408	54	5150
2026-01-18 01:12:39.84	183.88	15.73	-41.6	-44.7	18.7	6.03e-01	0	61	0	985661440	54	5268
2026-01-18 01:12:43.88	184.08	15.26	-41.5	-44.5	18.8	6.01e-01	0	60	0	993525760	54	5154
2026-01-18 01:12:47.92	184.27	14.79	-41.7	-44.8	18.6	6.04e-01	0	61	0	1000865792	54	5331
2026-01-18 01:12:51.96	184.45	14.33	-41.7	-44.9	18.4	6.04e-01	0	60	0	1008205824	54	5391
2026-01-18 01:12:56.00	184.63	13.88	-41.6	-44.8	18.5	6.05e-01	0	61	0	1016070144	54	5337
2026-01-18 01:13:00.04	184.81	13.44	-41.8	-45.0	18.3	6.02e-01	0	61	0	1023410176	54	5440
2026-01-18 01:13:04.07	184.97	13.01	-41.7	-45.0	18.3	6.04e-01	0	60	0	1031274496	54	5430
2026-01-18 01:13:08.11	185.14	12.59	-41.8	-45.1	18.2	6.02e-01	0	61	0	1038614528	54	5503
2026-01-18 01:13:12.15	185.30	12.17	-41.8	-45.1	18.1	6.03e-01	0	60	0	1046478848	54	5509
2026-01-18 01:13:16.19	185.45	11.76	-41.8	-45.2	18.1	6.04e-01	0	61	0	1053818880	54	5543
2026-01-18 01:13:20.22	185.60	11.36	-41.8	-45.2	18.0	6.04e-01	0	60	0	1061683200	54	5563
2026-01-18 01:13:24.26	185.75	10.97	-41.9	-45.4	17.8	6.05e-01	0	61	0	1069023232	54	5708
2026-01-18 01:13:28.30	185.89	10.58	-41.9	-45.3	17.8	6.05e-01	0	60	0	1076363264	54	5653
2026-01-18 01:13:32.34	186.03	10.20	-42.0	-45.7	17.5	6.02e-01	0	61	0	1084227584	54	5856
2026-01-18 01:13:36.38	186.17	9.83	-42.0	-45.6	17.5	6.04e-01	0	61	0	1091567616	54	5844
2026-01-18 01:13:40.42	186.30	9.46	-42.1	-45.8	17.2	6.05e-01	0	61	0	1099431936	54	5971
2026-01-18 01:13:44.45	186.43	9.10	-42.1	-45.8	17.2	6.02e-01	0	60	0	1106771968	55	5629
2026-01-18 01:13:48.49	186.56	8.74	-42.1	-45.9	17.1	6.04e-01	0	61	0	1114636288	55	5663
2026-01-18 01:13:52.53	186.68	8.39	-42.1	-45.9	17.1	6.04e-01	0	61	0	1121976320	55	5657
2026-01-18 01:13:56.57	186.80	8.04	-42.1	-46.1	16.8	6.02e-01	0	61	0	1129840640	55	5806
2026-01-18 01:14:00.61	186.92	7.70	-46.0	-64.5	3.8	7.45e-01	0	61	104	1132462080	62	32435
2026-01-18 01:14:04.65	187.03	7.37	-46.3	-64.9	3.8	7.45e-01	0	61	104	1132462080	63	31943
2026-01-18 01:14:08.70	187.14	7.04	-46.4	-64.9	3.8	7.46e-01	0	60	104	1132462080	63	32045
2026-01-18 01:14:12.74	187.25	6.71	-46.3	-64.8	3.8	7.41e-01	0	61	104	1132462080	63	31802
2026-01-18 01:14:16.78	187.36	6.39	-46.3	-64.8	3.8	7.46e-01	0	61	104	1132462080	63	31789
2026-01-18 01:14:20.82	187.47	6.07	-46.3	-64.8	3.8	7.45e-01	0	61	104	1132462080	63	31674
2026-01-18 01:14:24.87	187.57	5.76	-46.3	-64.8	3.8	7.48e-01	0	61	104	1132462080	63	31604
2026-01-18 01:14:28.91	187.67	5.45	-46.3	-64.8	3.8	7.46e-01	0	61	104	1132462080	63	31618
2026-01-18 01:14:32.95	187.77	5.14	-46.2	-64.8	3.8	7.44e-01	0	61	104	1132462080	63	31596
2026-01-18 01:14:37.00	187.87	4.84	-46.2	-64.8	3.8	7.47e-01	0	61	104	1132462080	63	31590
2026-01-18 01:14:41.04	187.96	4.54	-46.2	-64.8	3.8	7.45e-01	0	61	104	1132462080	63	31551
2026-01-18 01:14:45.09	188.06	4.25	-46.2	-64.8	3.8	7.45e-01	0	61	104	1132462080	63	31454
2026-01-18 01:14:49.13	188.15	3.96	-46.2	-64.8	3.8	7.46e-01	0	61	104	1132462080	63	31516
2026-01-18 01:14:53.17	188.24	3.67	-46.2	-64.8	3.8	7.46e-01	0	61	104	1132462080	63	31483
2026-01-18 01:14:57.22	188.33	3.39	-46.2	-64.7	3.8	7.44e-01	0	61	104	1132462080	63	31429
2026-01-18 01:15:01.26	188.41	3.10	-46.2	-64.8	3.8	7.48e-01	0	61	104	1132462080	63	31472
2026-01-18 01:15:05.31	188.50	2.83	-46.2	-64.7	3.8	7.44e-01	0	61	104	1132462080	63	31363
2026-01-18 01:15:09.35	188.58	2.55	-46.2	-64.7	3.8	7.46e-01	0	61	104	1132462080	63	31384
2026-01-18 01:15:13.39	188.66	2.28	-46.2	-64.7	3.8	7.45e-01	0	61	104	1132462080	63	31413
2026-01-18 01:15:17.43	188.74	2.01	-46.2	-64.7	3.8	7.42e-01	0	61	104	1132462080	63	31361

#Closed at: 2026-01-18 01:15:20
#Recorded file [1132 MB]: D:/lorett/data/31039_260118_040229.dat