passes_logs/2026/01/18/R2.0S_Moscow/R2.0S_Moscow__20260118_110749_FENGYUN_3D_rec.log

#Pass ID: 20260118_110749_FENGYUN 3D
#Satellite: FENGYUN 3D
#Configuration: FENGYUN 3D
#almurnet v.1.7.20251203
#Start time: 2026-01-18 11:07:49

#Version: 2.2.20231116
#Station: R2.0S_Moscow
#Location: 37.707566 lon 55.798166 lat
#TLE: 1 43010U 17072A   26017.25882587  .00000461  00000+0  23963-3 0  9992
#TLE: 2 43010  98.9934 349.1096 0002357 104.0487 256.0951 14.19697152423579

#Time	Az	El	Level	Level2	SNR	BER	BlckErr	Temp	State	Recorded	gain1	gain2
2026-01-18 11:07:49.56	135.98	2.01	-17.8	-27.1	3.8	8.31e-01	0	51	0	0	1	14641
2026-01-18 11:07:53.60	135.84	2.27	-10.4	-30.5	3.8	8.37e-01	0	52	104	0	0	22899
2026-01-18 11:07:57.64	135.70	2.52	-20.6	-33.9	3.5	8.26e-01	0	52	104	0	0	33802
2026-01-18 11:08:01.68	135.56	2.78	-20.6	-30.9	3.7	8.25e-01	0	52	104	0	3	20190
2026-01-18 11:08:05.73	135.41	3.04	-14.7	-30.7	3.8	8.18e-01	0	53	104	0	0	23368
2026-01-18 11:08:09.77	135.27	3.30	-12.1	-32.2	3.5	8.27e-01	0	53	104	0	0	27825
2026-01-18 11:08:13.81	135.12	3.57	-21.0	-33.2	3.4	7.88e-01	0	54	104	0	8	19723
2026-01-18 11:08:17.86	134.96	3.83	-14.6	-31.1	3.6	7.93e-01	0	54	104	0	4	19524
2026-01-18 11:08:21.90	134.80	4.10	-19.1	-34.6	3.3	7.81e-01	0	54	104	0	10	20600
2026-01-18 11:08:25.94	134.64	4.37	-23.5	-36.9	3.6	8.13e-01	0	54	104	0	14	21416
2026-01-18 11:08:29.99	134.48	4.65	-16.8	-31.0	3.3	8.08e-01	0	54	104	0	3	20469
2026-01-18 11:08:34.03	134.31	4.93	-13.2	-31.9	3.8	8.27e-01	0	54	104	0	0	26974
2026-01-18 11:08:38.08	134.14	5.21	-21.6	-34.3	3.4	7.93e-01	0	55	104	0	10	19945
2026-01-18 11:08:42.12	133.97	5.49	-19.2	-33.7	3.5	7.83e-01	0	55	104	0	11	17611
2026-01-18 11:08:46.16	133.79	5.77	-25.0	-36.3	3.4	7.96e-01	0	55	104	0	16	17771
2026-01-18 11:08:50.20	133.61	6.06	-20.6	-31.6	3.6	8.26e-01	0	55	104	0	10	14646
2026-01-18 11:08:54.25	133.43	6.35	-19.3	-32.8	3.5	7.96e-01	0	55	104	0	12	14883
2026-01-18 11:08:58.29	133.24	6.65	-22.0	-33.5	3.5	8.01e-01	0	56	104	0	12	16197
2026-01-18 11:09:02.33	133.05	6.94	-17.5	-28.9	3.6	8.07e-01	0	56	104	0	5	14288
2026-01-18 11:09:06.37	132.85	7.24	-22.7	-33.5	3.4	8.02e-01	0	56	104	0	8	20367
2026-01-18 11:09:10.41	132.65	7.55	-12.2	-30.1	3.5	7.95e-01	0	56	104	0	0	21973
2026-01-18 11:09:14.46	132.44	7.85	-14.1	-23.4	3.8	8.25e-01	0	56	104	0	1	9585
2026-01-18 11:09:18.50	132.23	8.16	-14.5	-25.3	4.1	8.24e-01	0	56	104	0	0	12526
2026-01-18 11:09:22.54	132.02	8.48	-19.9	-32.3	3.5	7.94e-01	0	57	104	0	11	14910
2026-01-18 11:09:26.58	131.80	8.79	-13.8	-28.9	3.4	8.04e-01	0	57	104	0	7	12769
2026-01-18 11:09:30.61	131.57	9.11	-15.2	-30.2	3.6	8.02e-01	0	57	104	0	2	19656
2026-01-18 11:09:34.65	131.34	9.44	-20.1	-33.2	3.5	7.89e-01	0	57	104	0	12	15751
2026-01-18 11:09:38.69	131.11	9.77	-18.4	-29.5	3.4	7.81e-01	0	57	104	0	10	11485
2026-01-18 11:09:42.73	130.87	10.10	-22.3	-37.1	3.6	7.94e-01	0	57	104	0	16	19416
2026-01-18 11:09:46.77	130.62	10.44	-24.7	-37.3	3.5	8.13e-01	0	58	104	0	17	18771
2026-01-18 11:09:50.80	130.37	10.77	-23.9	-37.9	3.7	8.14e-01	0	58	104	0	17	20089
2026-01-18 11:09:54.84	130.11	11.12	-22.6	-34.7	4.0	7.99e-01	0	58	104	0	14	16651
2026-01-18 11:09:58.87	129.84	11.47	-22.7	-34.4	3.5	8.02e-01	0	58	104	0	13	17020
2026-01-18 11:10:02.92	129.57	11.82	-19.5	-30.5	3.7	8.24e-01	0	58	104	0	9	13586
2026-01-18 11:10:06.95	129.29	12.18	-21.6	-34.5	4.4	8.17e-01	0	58	104	0	16	14517
2026-01-18 11:10:11.00	129.00	12.54	-23.2	-37.2	3.8	8.12e-01	0	58	104	0	18	17497
2026-01-18 11:10:15.03	128.71	12.91	-25.4	-39.9	4.5	8.18e-01	0	58	104	0	21	20296
2026-01-18 11:10:19.07	128.41	13.28	-29.7	-41.6	4.7	8.20e-01	0	59	104	0	25	19462
2026-01-18 11:10:23.11	128.10	13.66	-21.3	-34.5	4.1	8.23e-01	0	58	104	0	20	11420
2026-01-18 11:10:27.15	127.78	14.04	-25.5	-37.9	4.3	8.19e-01	0	58	104	0	31	9001
2026-01-18 11:10:31.19	127.46	14.42	-35.1	-41.1	5.2	8.10e-01	0	59	104	0	37	9200
2026-01-18 11:10:35.23	127.12	14.82	-22.6	-35.5	3.8	7.07e-01	0	58	104	3145728	19	13625
2026-01-18 11:10:39.26	126.78	15.21	-35.8	-43.4	4.9	8.36e-01	0	59	104	3145728	44	8012
2026-01-18 11:10:43.30	126.42	15.62	-37.9	-40.5	12.4	9.36e-03	0	59	0	12582912	46	5147
2026-01-18 11:10:47.34	126.06	16.03	-38.0	-40.5	13.4	2.54e-02	0	59	0	35651584	46	5155
2026-01-18 11:10:51.38	125.68	16.44	-37.6	-40.4	13.2	7.52e-04	0	59	0	57671680	46	5051
2026-01-18 11:10:55.40	125.30	16.86	-38.1	-40.2	14.5	5.56e-04	0	59	0	80740352	46	4972
2026-01-18 11:10:59.44	124.91	17.28	-37.9	-39.9	15.0	7.09e-05	0	59	0	103809024	46	4789
2026-01-18 11:11:03.48	124.50	17.72	-37.7	-39.8	15.0	4.23e-05	0	59	0	125829120	46	4749
2026-01-18 11:11:07.52	124.08	18.16	-37.7	-39.6	15.2	6.59e-04	0	59	0	148897792	46	4642
2026-01-18 11:11:11.56	123.64	18.60	-37.6	-39.6	15.3	2.66e-04	0	60	0	171966464	46	4634
2026-01-18 11:11:15.60	123.20	19.05	-37.6	-39.5	15.5	5.03e-05	0	59	0	193986560	45	4866
2026-01-18 11:11:19.64	122.74	19.51	-37.6	-39.5	15.4	3.43e-05	0	59	0	217055232	45	4832
2026-01-18 11:11:23.68	122.26	19.97	-37.6	-39.5	15.4	1.10e-06	0	59	0	240123904	45	4829
2026-01-18 11:11:27.71	121.78	20.44	-37.3	-39.2	15.9	0.00e+00	0	59	0	262144000	45	4653
2026-01-18 11:11:31.75	121.27	20.92	-37.2	-38.9	16.1	0.00e+00	0	59	0	285212672	45	4543
2026-01-18 11:11:35.79	120.75	21.40	-37.3	-39.1	16.0	0.00e+00	0	59	0	308281344	45	4637
2026-01-18 11:11:39.83	120.21	21.89	-37.2	-38.9	16.2	0.00e+00	0	60	0	330301440	45	4534
2026-01-18 11:11:43.86	119.66	22.39	-37.0	-38.7	16.4	0.00e+00	0	60	0	353370112	45	4399
2026-01-18 11:11:47.91	119.08	22.90	-36.8	-38.5	16.6	0.00e+00	0	60	0	376438784	45	4314
2026-01-18 11:11:51.95	118.49	23.41	-36.9	-38.6	16.5	0.00e+00	0	60	0	398458880	45	4362
2026-01-18 11:11:55.99	117.87	23.93	-36.9	-38.6	16.5	0.00e+00	0	60	0	421527552	45	4388
2026-01-18 11:12:00.03	117.24	24.45	-36.8	-38.6	16.6	0.00e+00	0	59	0	444596224	45	4347
2026-01-18 11:12:04.07	116.58	24.98	-36.8	-38.5	16.6	0.00e+00	0	60	0	466616320	45	4334
2026-01-18 11:12:08.11	115.90	25.52	-36.8	-38.4	16.7	0.00e+00	0	60	0	489684992	45	4283
2026-01-18 11:12:12.15	115.20	26.06	-36.6	-38.3	16.9	0.00e+00	0	60	0	512753664	45	4215
2026-01-18 11:12:16.19	114.47	26.62	-36.6	-38.3	16.8	0.00e+00	0	60	0	534773760	45	4229
2026-01-18 11:12:20.23	113.72	27.17	-36.6	-38.3	16.9	0.00e+00	0	60	0	557842432	45	4211
2026-01-18 11:12:24.27	112.94	27.73	-36.5	-38.1	17.1	0.00e+00	0	60	0	580911104	44	4357
2026-01-18 11:12:28.31	112.13	28.30	-36.6	-38.2	17.0	0.00e+00	0	60	0	603979776	44	4438
2026-01-18 11:12:32.35	111.29	28.87	-36.5	-38.1	17.2	0.00e+00	0	60	0	625999872	44	4345
2026-01-18 11:12:36.39	110.42	29.45	-36.4	-38.0	17.2	0.00e+00	0	60	0	649068544	44	4328
2026-01-18 11:12:40.43	109.51	30.03	-36.4	-38.0	17.2	0.00e+00	0	60	0	671088640	44	4335
2026-01-18 11:12:44.46	108.58	30.62	-36.4	-38.0	17.2	0.00e+00	0	60	0	694157312	44	4335
2026-01-18 11:12:48.50	107.61	31.20	-36.4	-38.0	17.3	0.00e+00	0	60	0	717225984	44	4313
2026-01-18 11:12:52.54	106.60	31.80	-36.2	-37.8	17.5	0.00e+00	0	60	0	739246080	44	4200
2026-01-18 11:12:56.58	105.56	32.39	-36.4	-38.0	17.2	0.00e+00	0	60	0	762314752	44	4337
2026-01-18 11:13:00.61	104.48	32.98	-36.4	-38.1	17.2	0.00e+00	0	60	0	785383424	44	4357
2026-01-18 11:13:04.65	103.35	33.57	-36.2	-37.8	17.5	0.00e+00	0	60	0	808452096	44	4223
2026-01-18 11:13:08.69	102.19	34.16	-35.9	-37.4	17.7	0.00e+00	0	60	0	830472192	43	4259
2026-01-18 11:13:12.73	100.98	34.75	-36.0	-37.6	17.5	0.00e+00	0	60	0	853540864	43	4370
2026-01-18 11:13:16.77	99.73	35.33	-36.0	-37.5	17.6	0.00e+00	0	60	0	875560960	43	4326
2026-01-18 11:13:20.81	98.43	35.91	-35.9	-37.4	17.8	0.00e+00	0	60	0	898629632	43	4252
2026-01-18 11:13:24.84	97.09	36.47	-36.1	-37.7	17.5	0.00e+00	0	60	0	921698304	43	4408
2026-01-18 11:13:28.89	95.69	37.04	-36.4	-38.1	17.1	0.00e+00	0	60	0	943718400	43	4621
2026-01-18 11:13:32.92	94.25	37.59	-36.3	-37.9	17.3	0.00e+00	0	60	0	966787072	43	4517
2026-01-18 11:13:36.97	92.76	38.12	-36.3	-37.8	17.3	0.00e+00	0	60	0	989855744	43	4493
2026-01-18 11:13:41.00	91.22	38.65	-36.5	-38.2	17.1	0.00e+00	0	61	0	1012924416	43	4660
2026-01-18 11:13:45.04	89.63	39.15	-36.3	-37.9	17.4	0.00e+00	0	61	0	1034944512	43	4533
2026-01-18 11:13:49.08	87.99	39.64	-36.1	-37.7	17.6	0.00e+00	0	60	0	1058013184	43	4392
2026-01-18 11:13:53.11	86.31	40.11	-36.2	-37.7	17.5	0.00e+00	0	60	0	1080033280	43	4432
2026-01-18 11:13:57.15	84.57	40.55	-36.0	-37.5	17.8	0.00e+00	0	60	0	1103101952	43	4311
2026-01-18 11:14:01.19	82.79	40.97	-35.9	-37.4	17.9	0.00e+00	0	61	0	1126170624	43	4249
2026-01-18 11:14:05.23	80.96	41.36	-36.0	-37.5	17.8	0.00e+00	0	61	0	1148190720	43	4314
2026-01-18 11:14:09.27	79.09	41.72	-35.9	-37.4	17.9	0.00e+00	0	61	0	1171259392	43	4289
2026-01-18 11:14:13.30	77.18	42.05	-35.8	-37.3	18.0	0.00e+00	0	61	0	1194328064	43	4200
2026-01-18 11:14:17.34	75.23	42.35	-35.8	-37.3	18.1	0.00e+00	0	61	0	1216348160	43	4194
2026-01-18 11:14:21.38	73.25	42.60	-36.2	-37.7	17.6	0.00e+00	0	61	0	1239416832	43	4437
2026-01-18 11:14:25.42	71.23	42.83	-36.0	-37.5	17.8	0.00e+00	0	61	0	1262485504	43	4331
2026-01-18 11:14:29.45	69.20	43.01	-36.1	-37.6	17.7	0.00e+00	0	61	0	1284505600	43	4383
2026-01-18 11:14:33.49	67.14	43.15	-36.1	-37.6	17.8	0.00e+00	0	61	0	1307574272	43	4364
2026-01-18 11:14:37.53	65.07	43.25	-36.2	-37.8	17.6	0.00e+00	0	61	0	1330642944	43	4468
2026-01-18 11:14:41.57	62.99	43.31	-35.7	-37.1	18.3	0.00e+00	0	61	0	1352663040	43	4131
2026-01-18 11:14:45.61	60.90	43.32	-35.7	-37.1	18.2	0.00e+00	0	61	0	1375731712	43	4134
2026-01-18 11:14:49.64	58.81	43.29	-35.8	-37.3	18.1	0.00e+00	0	61	0	1398800384	43	4221
2026-01-18 11:14:53.69	56.73	43.22	-35.9	-37.4	18.0	0.00e+00	0	61	0	1420820480	43	4246
2026-01-18 11:14:57.72	54.66	43.11	-35.7	-37.1	18.3	0.00e+00	0	61	0	1443889152	43	4128
2026-01-18 11:15:01.76	52.61	42.96	-36.0	-37.5	17.9	0.00e+00	0	61	0	1466957824	43	4300
2026-01-18 11:15:05.80	50.58	42.77	-36.0	-37.4	17.9	0.00e+00	0	61	0	1488977920	43	4289
2026-01-18 11:15:09.83	48.58	42.54	-36.1	-37.7	17.7	0.00e+00	0	61	0	1512046592	43	4398
2026-01-18 11:15:13.87	46.61	42.27	-36.2	-37.6	17.7	0.00e+00	0	61	0	1535115264	43	4382
2026-01-18 11:15:17.91	44.68	41.96	-36.1	-37.6	17.8	0.00e+00	0	61	0	1557135360	43	4342
2026-01-18 11:15:21.95	42.78	41.63	-35.7	-37.2	18.1	0.00e+00	0	61	0	1580204032	43	4165
2026-01-18 11:15:25.99	40.92	41.26	-35.9	-37.3	18.0	0.00e+00	0	61	0	1603272704	43	4229
2026-01-18 11:15:30.03	39.11	40.86	-35.8	-37.2	18.1	0.00e+00	0	61	0	1625292800	43	4171
2026-01-18 11:15:34.07	37.34	40.43	-36.0	-37.5	17.8	0.00e+00	0	61	0	1648361472	43	4315
2026-01-18 11:15:38.12	35.62	39.98	-36.1	-37.6	17.7	0.00e+00	0	61	0	1671430144	43	4353
2026-01-18 11:15:42.15	33.95	39.51	-36.2	-37.7	17.6	0.00e+00	0	61	0	1693450240	43	4418
2026-01-18 11:15:46.20	32.33	39.02	-35.9	-37.4	17.9	0.00e+00	0	61	0	1716518912	43	4266
2026-01-18 11:15:50.24	30.76	38.51	-36.1	-37.5	18.0	0.00e+00	0	61	0	1739587584	43	4324
2026-01-18 11:15:54.27	29.24	37.98	-36.1	-37.4	18.1	0.00e+00	0	61	0	1761607680	43	4277
2026-01-18 11:15:58.31	27.77	37.44	-36.1	-37.5	18.0	0.00e+00	0	61	0	1784676352	43	4325
2026-01-18 11:16:02.35	26.34	36.89	-36.1	-37.5	18.1	0.00e+00	0	61	0	1807745024	43	4295
2026-01-18 11:16:06.39	24.97	36.33	-35.9	-37.3	18.2	0.00e+00	0	61	0	1829765120	43	4197
2026-01-18 11:16:10.43	23.64	35.76	-36.1	-37.5	18.1	0.00e+00	0	61	0	1852833792	43	4296
2026-01-18 11:16:14.47	22.36	35.18	-36.1	-37.5	18.1	0.00e+00	0	61	0	1875902464	43	4295
2026-01-18 11:16:18.50	21.13	34.60	-35.9	-37.3	18.2	0.00e+00	0	61	0	1897922560	43	4198
2026-01-18 11:16:22.54	19.93	34.02	-36.0	-37.4	18.0	0.00e+00	0	61	0	1920991232	43	4268
2026-01-18 11:16:26.58	18.79	33.43	-36.1	-37.5	17.9	0.00e+00	0	61	0	1944059904	43	4316
2026-01-18 11:16:30.61	17.68	32.84	-36.0	-37.3	18.1	0.00e+00	0	61	0	1966080000	43	4233
2026-01-18 11:16:34.66	16.61	32.25	-35.9	-37.3	18.1	0.00e+00	0	61	0	1989148672	43	4225
2026-01-18 11:16:38.69	15.58	31.66	-36.3	-37.7	17.7	0.00e+00	0	61	0	2012217344	43	4411
2026-01-18 11:16:42.73	14.59	31.08	-36.4	-37.9	17.5	0.00e+00	0	61	0	2034237440	43	4525
2026-01-18 11:16:46.77	13.63	30.49	-36.3	-37.7	17.7	0.00e+00	0	61	0	2057306112	43	4418
2026-01-18 11:16:50.81	12.71	29.91	-36.3	-37.7	17.6	0.00e+00	0	61	0	2080374784	43	4421
2026-01-18 11:16:54.86	11.82	29.33	-36.6	-38.1	17.3	0.00e+00	0	61	0	2102394880	43	4617
2026-01-18 11:16:58.90	10.96	28.76	-36.6	-38.1	17.2	0.00e+00	0	61	0	2125463552	43	4608
2026-01-18 11:17:02.94	10.13	28.19	-37.0	-38.5	16.9	0.00e+00	0	61	0	2148532224	44	4591
2026-01-18 11:17:06.98	9.33	27.62	-36.9	-38.4	17.1	0.00e+00	0	61	0	2170552320	44	4526
2026-01-18 11:17:11.02	8.56	27.07	-36.8	-38.3	17.2	0.00e+00	0	61	0	2193620992	44	4459
2026-01-18 11:17:15.06	7.82	26.51	-37.0	-38.5	16.9	0.00e+00	0	61	0	2216689664	44	4577
2026-01-18 11:17:19.10	7.10	25.97	-36.9	-38.4	17.1	0.00e+00	0	61	0	2239758336	44	4505
2026-01-18 11:17:23.14	6.41	25.43	-36.8	-38.3	17.1	0.00e+00	0	61	0	2261778432	44	4480
2026-01-18 11:17:27.19	5.74	24.89	-36.8	-38.4	17.0	0.00e+00	0	61	0	2284847104	44	4500
2026-01-18 11:17:31.22	5.10	24.36	-37.1	-38.6	16.7	0.00e+00	0	61	0	2306867200	44	4634
2026-01-18 11:17:35.26	4.47	23.84	-37.0	-38.5	16.8	0.00e+00	0	61	0	2329935872	44	4589
2026-01-18 11:17:39.30	3.87	23.33	-36.9	-38.4	16.9	0.00e+00	0	61	0	2353004544	44	4537
2026-01-18 11:17:43.34	3.28	22.82	-36.9	-38.4	16.8	0.00e+00	0	61	0	2375024640	44	4544
2026-01-18 11:17:47.38	2.72	22.32	-37.0	-38.5	16.7	0.00e+00	0	61	0	2398093312	44	4595
2026-01-18 11:17:51.42	2.17	21.83	-37.3	-38.9	16.3	0.00e+00	0	61	0	2421161984	45	4517
2026-01-18 11:17:55.46	1.64	21.34	-37.3	-39.0	16.2	0.00e+00	0	61	0	2444230656	45	4548
2026-01-18 11:17:59.50	1.13	20.86	-37.3	-39.0	16.1	0.00e+00	0	61	0	2466250752	45	4568
2026-01-18 11:18:03.51	0.63	20.39	-37.5	-39.2	15.8	0.00e+00	0	61	0	2489319424	45	4675
2026-01-18 11:18:07.55	0.15	19.92	-37.6	-39.4	15.6	0.00e+00	0	61	0	2511339520	45	4761
2026-01-18 11:18:11.59	359.69	19.46	-37.5	-39.3	15.5	0.00e+00	0	61	0	2534408192	45	4738
2026-01-18 11:18:15.63	359.23	19.01	-37.4	-39.2	15.6	0.00e+00	0	61	0	2557476864	45	4660
2026-01-18 11:18:19.67	358.79	18.56	-37.6	-39.5	15.1	1.10e-06	0	61	0	2579496960	45	4825
2026-01-18 11:18:23.71	358.37	18.12	-37.7	-39.6	14.8	1.10e-06	0	61	0	2602565632	46	4647
2026-01-18 11:18:27.75	357.95	17.69	-38.1	-40.1	14.0	3.40e-06	0	61	0	2625634304	46	4916
2026-01-18 11:18:31.79	357.55	17.26	-37.7	-39.7	14.2	2.20e-06	0	61	0	2647654400	46	4683
2026-01-18 11:18:35.83	357.16	16.83	-37.8	-39.9	13.6	1.60e-05	0	61	0	2670723072	46	4808
2026-01-18 11:18:39.87	356.79	16.42	-37.5	-39.7	13.5	1.83e-05	0	61	0	2693791744	46	4682
2026-01-18 11:18:43.91	356.42	16.00	-38.5	-41.5	11.2	1.29e-03	0	61	0	2715811840	47	5416
2026-01-18 11:18:47.95	356.06	15.60	-40.1	-44.7	7.6	1.05e-01	0	61	0	2738880512	50	6609
2026-01-18 11:18:51.99	355.71	15.20	-40.8	-48.4	4.6	8.00e-01	0	61	0	2753560576	52	8976
2026-01-18 11:18:56.02	355.37	14.80	-41.0	-52.7	3.8	8.45e-01	0	61	104	2753560576	54	13152
2026-01-18 11:19:00.06	355.05	14.41	-41.1	-51.4	3.8	8.45e-01	0	61	104	2753560576	54	11355
2026-01-18 11:19:04.10	354.73	14.03	-40.8	-52.4	3.8	8.45e-01	0	61	104	2753560576	53	13463
2026-01-18 11:19:08.14	354.41	13.65	-40.9	-52.5	3.8	8.47e-01	0	61	104	2753560576	53	13681
2026-01-18 11:19:12.18	354.11	13.28	-40.7	-52.3	3.8	8.46e-01	0	61	104	2753560576	53	13380
2026-01-18 11:19:16.22	353.82	12.91	-40.6	-52.2	3.8	8.47e-01	0	61	104	2753560576	53	13256
2026-01-18 11:19:20.26	353.53	12.54	-40.6	-52.3	3.8	8.47e-01	0	61	104	2753560576	52	14076
2026-01-18 11:19:24.30	353.25	12.18	-40.6	-52.3	3.8	8.46e-01	0	61	104	2753560576	52	14073
2026-01-18 11:19:28.33	352.97	11.83	-40.6	-52.3	3.8	8.47e-01	0	61	104	2753560576	52	14098
2026-01-18 11:19:32.37	352.71	11.48	-40.7	-52.4	3.8	8.47e-01	0	61	104	2753560576	52	14250
2026-01-18 11:19:36.41	352.45	11.13	-40.7	-52.4	3.8	8.47e-01	0	61	104	2753560576	52	14290
2026-01-18 11:19:40.44	352.19	10.79	-40.6	-52.4	3.8	8.46e-01	0	61	104	2753560576	52	14216
2026-01-18 11:19:44.48	351.95	10.45	-40.3	-52.2	3.8	8.45e-01	0	61	104	2753560576	52	13912
2026-01-18 11:19:48.52	351.71	10.12	-40.3	-52.1	3.8	8.45e-01	0	61	104	2753560576	52	13835
2026-01-18 11:19:52.57	351.47	9.79	-40.3	-52.1	3.8	8.46e-01	0	61	104	2753560576	52	13843
2026-01-18 11:19:56.60	351.24	9.46	-40.4	-52.1	3.8	8.46e-01	0	61	104	2753560576	52	13806
2026-01-18 11:20:00.64	351.02	9.14	-40.6	-52.3	3.8	8.45e-01	0	61	104	2753560576	52	14074
2026-01-18 11:20:04.67	350.80	8.82	-40.6	-52.2	3.8	8.46e-01	0	61	104	2753560576	52	13958
2026-01-18 11:20:08.71	350.58	8.51	-40.6	-52.2	3.8	8.46e-01	0	62	104	2753560576	52	14030
2026-01-18 11:20:12.76	350.37	8.19	-40.7	-52.4	3.8	8.48e-01	0	61	104	2753560576	52	14234
2026-01-18 11:20:16.79	350.17	7.89	-40.8	-52.6	3.8	8.45e-01	0	61	104	2753560576	52	14636
2026-01-18 11:20:20.84	349.97	7.58	-45.0	-56.7	3.8	8.44e-01	0	61	104	2753560576	60	14870
2026-01-18 11:20:24.88	349.77	7.28	-45.3	-57.0	3.8	8.46e-01	0	61	104	2753560576	61	14476
2026-01-18 11:20:28.92	349.58	6.98	-44.9	-56.9	3.8	8.45e-01	0	61	104	2753560576	60	15111
2026-01-18 11:20:32.97	349.39	6.68	-45.2	-56.9	3.8	8.46e-01	0	61	104	2753560576	61	14212
2026-01-18 11:20:37.01	349.21	6.39	-45.2	-56.8	3.8	8.46e-01	0	61	104	2753560576	60	15005
2026-01-18 11:20:41.05	349.03	6.10	-45.2	-56.8	3.8	8.47e-01	0	61	104	2753560576	60	14985
2026-01-18 11:20:45.10	348.86	5.81	-44.6	-56.8	3.8	8.46e-01	0	61	104	2753560576	60	14953
2026-01-18 11:20:49.14	348.68	5.53	-45.2	-56.8	3.8	8.46e-01	0	61	104	2753560576	60	14972
2026-01-18 11:20:53.19	348.52	5.25	-45.2	-56.8	3.8	8.45e-01	0	61	104	2753560576	60	14935
2026-01-18 11:20:57.23	348.35	4.97	-45.2	-56.8	3.8	8.46e-01	0	62	104	2753560576	60	14942
2026-01-18 11:21:01.27	348.19	4.70	-45.2	-56.8	3.8	8.46e-01	0	62	104	2753560576	60	14923
2026-01-18 11:21:05.32	348.03	4.42	-45.1	-56.8	3.8	8.45e-01	0	61	104	2753560576	60	14965
2026-01-18 11:21:09.36	347.88	4.15	-45.2	-56.8	3.8	8.46e-01	0	61	104	2753560576	60	14958
2026-01-18 11:21:13.41	347.73	3.88	-45.1	-56.8	3.8	8.46e-01	0	62	104	2753560576	60	14927
2026-01-18 11:21:17.45	347.58	3.62	-45.1	-56.8	3.8	8.47e-01	0	62	104	2753560576	60	14910
2026-01-18 11:21:21.49	347.43	3.35	-45.1	-56.8	3.8	8.46e-01	0	62	104	2753560576	60	14940
2026-01-18 11:21:25.54	347.29	3.09	-45.1	-56.8	3.8	8.46e-01	0	62	104	2753560576	60	14906
2026-01-18 11:21:29.58	347.15	2.83	-45.1	-56.7	3.8	8.46e-01	0	61	104	2753560576	60	14826
2026-01-18 11:21:33.62	347.01	2.58	-45.1	-56.8	3.8	8.45e-01	0	61	104	2753560576	60	14899
2026-01-18 11:21:37.67	346.88	2.32	-45.1	-56.7	3.8	8.47e-01	0	61	104	2753560576	60	14847
2026-01-18 11:21:41.71	346.75	2.07	-45.1	-56.8	3.8	8.46e-01	0	61	104	2753560576	60	14921

#Closed at: 2026-01-18 11:21:42
#Recorded file [2753 MB]: D:/lorett/data/31039_260118_140749.dat