passes_logs/2026/01/18/R2.0S_Moscow/R2.0S_Moscow__20260118_121349_AQUA_rec.log

#Pass ID: 20260118_121349_AQUA
#Satellite: AQUA
#Configuration: AQUA
#almurnet v.1.7.20251203
#Start time: 2026-01-18 12:13:50

#Version: 2.2.20231116
#Station: R2.0S_Moscow
#Location: 37.707566 lon 55.798166 lat
#TLE: 1 27424U 02022A   26017.29152041  .00000842  00000+0  17841-3 0  9992
#TLE: 2 27424  98.4085 343.7574 0002011  75.4099  30.6811 14.61825797261228

#Time	Az	El	Level	Level2	SNR	BER	BlckErr	Temp	State	Recorded	gain1	gain2
2026-01-18 12:13:50.37	178.76	2.09	-45.1	-63.7	3.8	7.46e-01	0	52	0	0	62	29377
2026-01-18 12:13:53.40	178.86	2.29	-45.0	-63.6	3.8	7.45e-01	0	52	104	0	60	32857
2026-01-18 12:13:56.43	178.96	2.49	-45.0	-63.6	3.8	7.44e-01	0	53	104	0	60	32761
2026-01-18 12:13:59.46	179.06	2.69	-45.0	-63.6	3.8	7.45e-01	0	53	104	0	60	32910
2026-01-18 12:14:02.50	179.17	2.90	-45.0	-63.6	3.8	7.47e-01	0	53	104	0	60	32865
2026-01-18 12:14:05.53	179.27	3.10	-45.0	-63.6	3.8	7.47e-01	0	53	104	0	60	32739
2026-01-18 12:14:08.56	179.38	3.31	-45.0	-63.6	3.8	7.43e-01	0	54	104	0	60	32801
2026-01-18 12:14:11.59	179.49	3.52	-45.0	-63.6	3.8	7.45e-01	0	53	104	0	60	32770
2026-01-18 12:14:14.63	179.60	3.73	-45.0	-63.6	3.8	7.44e-01	0	54	104	0	60	32665
2026-01-18 12:14:17.66	179.72	3.94	-45.0	-63.6	3.8	7.44e-01	0	54	104	0	60	32696
2026-01-18 12:14:20.69	179.83	4.16	-45.0	-63.5	3.8	7.46e-01	0	54	104	0	60	32508
2026-01-18 12:14:23.73	179.95	4.37	-45.0	-63.4	3.8	7.44e-01	0	54	104	0	60	32164
2026-01-18 12:14:26.76	180.07	4.59	-45.0	-63.2	3.8	7.47e-01	0	55	104	0	60	31435
2026-01-18 12:14:29.79	180.19	4.81	-45.0	-62.9	3.8	7.47e-01	0	55	104	0	60	30047
2026-01-18 12:14:32.82	180.31	5.03	-44.9	-60.9	3.9	7.39e-01	0	55	104	0	60	23868
2026-01-18 12:14:35.86	180.43	5.25	-44.8	-57.3	5.4	6.97e-01	39	55	0	0	60	15818
2026-01-18 12:14:38.89	180.56	5.48	-44.5	-54.5	7.8	6.49e-01	91	55	0	5242880	60	11500
2026-01-18 12:14:41.92	180.68	5.71	-44.4	-53.4	9.0	6.35e-01	0	55	0	11010048	60	10101
2026-01-18 12:14:44.95	180.81	5.94	-44.2	-52.3	10.1	6.24e-01	0	55	0	16777216	60	8947
2026-01-18 12:14:47.98	180.95	6.17	-44.3	-52.2	10.6	6.19e-01	0	56	0	22020096	59	9293
2026-01-18 12:14:51.02	181.08	6.40	-44.4	-52.4	10.3	6.24e-01	0	56	0	27787264	59	9600
2026-01-18 12:14:54.05	181.22	6.64	-44.5	-52.8	9.9	6.28e-01	0	56	0	33554432	59	9993
2026-01-18 12:14:57.08	181.35	6.88	-44.4	-52.4	10.3	6.20e-01	0	56	0	39321600	59	9606
2026-01-18 12:15:00.11	181.50	7.12	-43.9	-50.6	12.2	6.12e-01	0	56	0	45088768	59	7766
2026-01-18 12:15:03.14	181.64	7.36	-43.3	-48.7	14.3	6.06e-01	0	56	0	50855936	58	6606
2026-01-18 12:15:06.17	181.78	7.61	-42.8	-47.3	15.7	6.07e-01	0	56	0	56623104	57	5927
2026-01-18 12:15:09.20	181.93	7.86	-42.6	-47.0	16.0	6.05e-01	0	57	0	61865984	56	6082
2026-01-18 12:15:12.23	182.08	8.11	-42.6	-46.8	16.3	6.05e-01	0	56	0	67633152	56	5978
2026-01-18 12:15:15.26	182.24	8.36	-43.1	-47.7	15.3	6.07e-01	0	57	0	71827456	58	5893
2026-01-18 12:15:18.29	182.39	8.62	-42.6	-46.8	16.4	6.07e-01	0	56	0	77594624	56	5924
2026-01-18 12:15:21.32	182.55	8.88	-42.6	-46.7	16.4	6.05e-01	0	57	0	83361792	56	5891
2026-01-18 12:15:24.34	182.71	9.14	-42.6	-46.7	16.5	6.06e-01	0	57	0	89128960	56	5892
2026-01-18 12:15:27.37	182.88	9.40	-42.6	-46.7	16.5	6.08e-01	0	57	0	94896128	56	5906
2026-01-18 12:15:30.40	183.05	9.67	-42.5	-46.4	16.9	6.07e-01	0	57	0	100139008	56	5673
2026-01-18 12:15:33.43	183.22	9.94	-42.5	-46.4	16.9	6.07e-01	0	57	0	105906176	56	5682
2026-01-18 12:15:36.46	183.39	10.22	-42.3	-46.0	17.3	6.08e-01	0	57	0	111673344	56	5443
2026-01-18 12:15:39.49	183.57	10.49	-42.4	-46.1	17.3	6.06e-01	0	57	0	117440512	56	5498
2026-01-18 12:15:42.52	183.75	10.78	-42.4	-46.1	17.3	6.06e-01	0	58	0	123207680	56	5498
2026-01-18 12:15:45.55	183.94	11.06	-42.3	-46.0	17.4	6.09e-01	0	57	0	128974848	56	5427
2026-01-18 12:15:48.58	184.13	11.35	-42.4	-46.1	17.4	6.06e-01	0	57	0	134217728	56	5469
2026-01-18 12:15:51.61	184.32	11.64	-42.3	-45.9	17.5	6.07e-01	0	58	0	139984896	56	5373
2026-01-18 12:15:54.64	184.52	11.93	-42.3	-45.8	17.6	6.05e-01	0	58	0	145752064	56	5340
2026-01-18 12:15:57.66	184.72	12.23	-42.3	-45.9	17.6	6.05e-01	0	58	0	151519232	56	5362
2026-01-18 12:16:00.70	184.92	12.54	-42.3	-45.8	17.7	6.06e-01	0	58	0	157286400	56	5305
2026-01-18 12:16:03.72	185.13	12.84	-42.2	-45.7	17.9	6.07e-01	0	58	0	163053568	56	5247
2026-01-18 12:16:06.75	185.34	13.15	-42.3	-45.7	17.8	6.05e-01	0	58	0	168296448	56	5256
2026-01-18 12:16:09.79	185.56	13.47	-42.1	-45.5	18.1	6.06e-01	0	58	0	174063616	56	5138
2026-01-18 12:16:12.81	185.79	13.78	-42.1	-45.5	18.2	6.06e-01	0	58	0	179830784	56	5108
2026-01-18 12:16:15.84	186.01	14.11	-42.1	-45.5	18.2	6.06e-01	0	58	0	185597952	56	5112
2026-01-18 12:16:18.87	186.25	14.44	-42.2	-45.6	18.1	6.06e-01	0	58	0	191365120	56	5166
2026-01-18 12:16:21.90	186.49	14.77	-42.2	-45.6	18.0	6.07e-01	0	58	0	197132288	56	5190
2026-01-18 12:16:24.93	186.73	15.10	-42.1	-45.3	18.3	6.09e-01	0	58	0	202375168	56	5038
2026-01-18 12:16:27.96	186.98	15.45	-42.0	-45.2	18.5	6.06e-01	0	59	0	208142336	56	4961
2026-01-18 12:16:30.98	187.24	15.79	-42.2	-45.5	18.2	6.07e-01	0	58	0	213909504	56	5135
2026-01-18 12:16:34.01	187.50	16.14	-42.1	-45.3	18.4	6.05e-01	0	58	0	219676672	56	5013
2026-01-18 12:16:37.04	187.77	16.50	-42.1	-45.3	18.4	6.07e-01	0	59	0	225443840	56	5036
2026-01-18 12:16:40.07	188.04	16.86	-42.0	-45.2	18.6	6.08e-01	0	59	0	231211008	56	4932
2026-01-18 12:16:43.10	188.33	17.23	-41.8	-44.9	18.8	6.06e-01	0	59	0	236453888	55	5073
2026-01-18 12:16:46.12	188.61	17.60	-41.9	-45.0	18.7	6.06e-01	0	59	0	242221056	55	5123
2026-01-18 12:16:49.15	188.91	17.98	-42.0	-45.2	18.5	6.05e-01	0	59	0	247988224	55	5219
2026-01-18 12:16:52.18	189.22	18.36	-42.0	-45.2	18.5	6.06e-01	0	59	0	253755392	55	5233
2026-01-18 12:16:55.21	189.53	18.75	-41.9	-45.1	18.7	6.07e-01	0	59	0	259522560	55	5161
2026-01-18 12:16:58.24	189.85	19.15	-42.0	-45.2	18.6	6.09e-01	0	59	0	265289728	55	5229
2026-01-18 12:17:01.27	190.18	19.55	-42.0	-45.2	18.5	6.07e-01	0	59	0	270532608	55	5246
2026-01-18 12:17:04.30	190.52	19.96	-41.9	-45.0	18.7	6.06e-01	0	59	0	276299776	55	5158
2026-01-18 12:17:07.33	190.87	20.38	-42.1	-45.3	18.4	6.06e-01	0	59	0	282066944	55	5335
2026-01-18 12:17:10.36	191.22	20.80	-42.2	-45.4	18.4	6.05e-01	0	59	0	287834112	55	5385
2026-01-18 12:17:13.38	191.59	21.23	-42.1	-45.2	18.6	6.03e-01	0	59	0	293601280	55	5255
2026-01-18 12:17:16.41	191.97	21.66	-42.1	-45.3	18.5	6.07e-01	0	59	0	299368448	55	5312
2026-01-18 12:17:19.44	192.36	22.10	-42.2	-45.4	18.5	6.06e-01	0	59	0	304611328	55	5358
2026-01-18 12:17:22.47	192.76	22.55	-42.2	-45.5	18.4	6.09e-01	0	59	0	310378496	55	5422
2026-01-18 12:17:25.49	193.17	23.01	-42.2	-45.4	18.5	6.07e-01	0	59	0	316145664	55	5379
2026-01-18 12:17:28.52	193.60	23.48	-42.2	-45.5	18.4	6.07e-01	0	59	0	321912832	55	5419
2026-01-18 12:17:31.55	194.04	23.95	-42.3	-45.6	18.3	6.06e-01	0	59	0	327680000	55	5470
2026-01-18 12:17:34.58	194.49	24.43	-42.3	-45.6	18.3	6.05e-01	0	59	0	333447168	55	5490
2026-01-18 12:17:37.61	194.96	24.92	-42.3	-45.5	18.4	6.08e-01	0	59	0	338690048	55	5450
2026-01-18 12:17:40.63	195.44	25.41	-42.3	-45.6	18.3	6.06e-01	0	59	0	344457216	55	5519
2026-01-18 12:17:43.66	195.94	25.92	-42.2	-45.4	18.5	6.07e-01	0	60	0	350224384	55	5360
2026-01-18 12:17:46.69	196.45	26.43	-42.4	-45.7	18.2	6.08e-01	0	59	0	355991552	55	5585
2026-01-18 12:17:49.72	196.98	26.95	-42.1	-45.3	18.7	6.07e-01	0	59	0	361758720	55	5283
2026-01-18 12:17:52.74	197.53	27.48	-42.2	-45.3	18.6	6.06e-01	0	60	0	367001600	55	5335
2026-01-18 12:17:55.77	198.10	28.01	-42.1	-45.2	18.7	6.07e-01	0	59	0	372768768	55	5259
2026-01-18 12:17:58.80	198.69	28.56	-42.1	-45.3	18.7	6.08e-01	0	59	0	378535936	55	5284
2026-01-18 12:18:01.81	199.29	29.11	-42.1	-45.1	18.9	6.08e-01	0	60	0	384303104	55	5178
2026-01-18 12:18:04.84	199.93	29.67	-42.1	-45.2	18.8	6.07e-01	0	59	0	390070272	55	5274
2026-01-18 12:18:07.87	200.58	30.25	-42.1	-45.1	18.9	6.07e-01	0	60	0	395837440	55	5212
2026-01-18 12:18:10.90	201.26	30.83	-42.1	-45.1	18.9	6.06e-01	0	60	0	401080320	55	5204
2026-01-18 12:18:13.93	201.96	31.41	-42.3	-45.5	18.5	6.06e-01	0	60	0	406847488	55	5428
2026-01-18 12:18:16.95	202.69	32.01	-42.3	-45.5	18.6	6.06e-01	0	60	0	412614656	55	5411
2026-01-18 12:18:19.98	203.45	32.61	-42.4	-45.7	18.4	6.06e-01	0	60	0	418381824	55	5543
2026-01-18 12:18:23.01	204.23	33.22	-42.6	-46.0	18.0	6.04e-01	0	60	0	424148992	55	5754
2026-01-18 12:18:26.04	205.05	33.84	-42.6	-46.0	18.1	6.07e-01	0	60	0	429916160	55	5747
2026-01-18 12:18:29.07	205.90	34.47	-43.0	-46.6	17.6	6.06e-01	0	59	0	435159040	56	5811
2026-01-18 12:18:32.10	206.78	35.10	-43.2	-46.9	17.3	6.07e-01	0	60	0	440926208	56	6034
2026-01-18 12:18:35.12	207.70	35.73	-43.1	-46.7	17.4	6.07e-01	0	60	0	446693376	56	5915
2026-01-18 12:18:38.15	208.65	36.38	-43.3	-47.1	17.1	6.04e-01	0	60	0	452460544	57	5803
2026-01-18 12:18:41.18	209.65	37.02	-43.3	-47.2	17.0	6.05e-01	0	60	0	458227712	57	5876
2026-01-18 12:18:44.21	210.68	37.68	-43.3	-47.2	16.9	6.07e-01	0	60	0	463470592	57	5873
2026-01-18 12:18:47.23	211.75	38.33	-43.3	-47.0	17.2	6.06e-01	0	60	0	469237760	57	5772
2026-01-18 12:18:50.26	212.88	38.99	-43.4	-47.3	16.8	6.08e-01	0	60	0	475004928	57	5989
2026-01-18 12:18:53.29	214.05	39.64	-43.3	-47.1	17.1	6.06e-01	0	60	0	480772096	57	5798
2026-01-18 12:18:56.32	215.26	40.30	-43.1	-46.7	17.5	6.05e-01	0	60	0	486539264	57	5562
2026-01-18 12:18:59.35	216.53	40.96	-42.8	-46.2	18.0	6.06e-01	0	60	0	492306432	57	5277
2026-01-18 12:19:02.37	217.85	41.61	-42.6	-45.8	18.3	6.06e-01	0	59	0	498073600	56	5329
2026-01-18 12:19:05.40	219.22	42.25	-42.6	-45.8	18.4	6.04e-01	0	60	0	503316480	56	5334
2026-01-18 12:19:08.43	220.65	42.89	-42.4	-45.5	18.7	6.08e-01	0	60	0	509083648	56	5138
2026-01-18 12:19:11.46	222.14	43.52	-42.2	-45.2	19.0	6.06e-01	0	60	0	514850816	56	4957
2026-01-18 12:19:14.49	223.69	44.14	-42.1	-45.1	19.1	6.05e-01	0	60	0	520617984	56	4894
2026-01-18 12:19:17.52	225.30	44.75	-42.1	-45.0	19.3	6.06e-01	0	60	0	526385152	56	4832
2026-01-18 12:19:20.55	226.97	45.34	-41.9	-44.8	19.4	6.07e-01	0	60	0	531628032	55	4987
2026-01-18 12:19:23.58	228.70	45.92	-42.0	-44.9	19.2	6.02e-01	0	60	0	537395200	55	5065
2026-01-18 12:19:26.61	230.50	46.47	-42.0	-44.9	19.2	6.04e-01	0	60	0	543162368	55	5069
2026-01-18 12:19:29.63	232.35	46.99	-42.0	-44.9	19.2	6.07e-01	0	60	0	548929536	55	5080
2026-01-18 12:19:32.66	234.28	47.50	-42.0	-44.9	19.1	6.07e-01	0	60	0	554696704	55	5089
2026-01-18 12:19:35.69	236.26	47.97	-42.2	-45.2	18.8	6.07e-01	0	60	0	560463872	55	5253
2026-01-18 12:19:38.72	238.30	48.41	-42.3	-45.4	18.8	6.07e-01	0	60	0	566231040	55	5352
2026-01-18 12:19:41.75	240.40	48.81	-42.3	-45.4	18.7	6.07e-01	0	60	0	571473920	55	5367
2026-01-18 12:19:44.78	242.56	49.18	-42.2	-45.3	18.8	6.07e-01	0	60	0	577241088	55	5310
2026-01-18 12:19:47.80	244.75	49.51	-42.3	-45.3	18.8	6.07e-01	0	60	0	583008256	55	5338
2026-01-18 12:19:50.83	247.00	49.79	-42.4	-45.6	18.5	6.07e-01	0	60	0	588775424	55	5500
2026-01-18 12:19:53.86	249.29	50.03	-42.5	-45.8	18.4	6.06e-01	0	60	0	594542592	55	5607
2026-01-18 12:19:56.89	251.61	50.22	-42.5	-45.8	18.3	6.07e-01	0	60	0	599785472	55	5620
2026-01-18 12:19:59.92	253.95	50.37	-42.6	-45.9	18.2	6.03e-01	0	60	0	605552640	55	5720
2026-01-18 12:20:02.94	256.31	50.46	-42.5	-45.8	18.4	6.06e-01	0	60	0	611319808	55	5615
2026-01-18 12:20:05.96	258.67	50.51	-42.8	-46.1	18.1	6.07e-01	0	60	0	617086976	56	5523
2026-01-18 12:20:08.99	261.05	50.50	-42.7	-46.0	18.3	6.07e-01	0	60	0	622854144	56	5416
2026-01-18 12:20:12.02	263.42	50.44	-42.9	-46.4	17.8	6.04e-01	0	60	0	628621312	56	5695
2026-01-18 12:20:15.05	265.78	50.34	-42.9	-46.3	17.9	6.08e-01	0	60	0	633864192	56	5621
2026-01-18 12:20:18.08	268.12	50.18	-42.8	-46.1	18.1	6.07e-01	0	60	0	639631360	56	5506
2026-01-18 12:20:21.11	270.43	49.98	-42.8	-46.2	18.0	6.08e-01	0	60	0	645398528	56	5564
2026-01-18 12:20:24.14	272.70	49.73	-43.1	-46.7	17.5	6.06e-01	0	60	0	651165696	56	5889
2026-01-18 12:20:27.17	274.93	49.43	-43.1	-46.8	17.5	6.08e-01	0	60	0	656932864	56	5926
2026-01-18 12:20:30.20	277.12	49.10	-43.0	-46.6	17.6	6.06e-01	0	60	0	662700032	56	5808
2026-01-18 12:20:33.22	279.25	48.72	-43.1	-46.7	17.5	6.04e-01	0	60	0	667942912	56	5914
2026-01-18 12:20:36.25	281.34	48.31	-43.2	-47.0	17.3	6.06e-01	0	60	0	673710080	56	6089
2026-01-18 12:20:39.28	283.36	47.86	-43.0	-46.6	17.6	6.06e-01	0	60	0	679477248	57	5514
2026-01-18 12:20:42.31	285.33	47.38	-42.8	-46.2	18.0	6.07e-01	0	60	0	685244416	57	5263
2026-01-18 12:20:45.33	287.22	46.88	-43.2	-46.9	17.3	6.07e-01	0	60	0	691011584	57	5705
2026-01-18 12:20:48.37	289.07	46.34	-43.1	-46.8	17.5	6.08e-01	0	60	0	696778752	57	5605
2026-01-18 12:20:51.39	290.84	45.79	-42.8	-46.2	18.0	6.07e-01	0	60	0	702021632	57	5278
2026-01-18 12:20:54.42	292.56	45.21	-42.9	-46.4	17.8	6.05e-01	0	60	0	707788800	57	5363
2026-01-18 12:20:57.45	294.21	44.62	-42.8	-46.3	17.9	6.05e-01	0	60	0	713555968	57	5298
2026-01-18 12:21:00.47	295.79	44.02	-42.9	-46.4	17.8	6.06e-01	0	60	0	719323136	57	5396
2026-01-18 12:21:03.50	297.32	43.40	-42.7	-46.1	18.2	6.07e-01	0	60	0	725090304	57	5164
2026-01-18 12:21:06.53	298.79	42.77	-42.8	-46.3	17.9	6.06e-01	0	60	0	730857472	57	5298
2026-01-18 12:21:09.56	300.21	42.13	-42.8	-46.2	18.1	6.06e-01	0	60	0	736100352	57	5220
2026-01-18 12:21:12.59	301.57	41.48	-42.9	-46.4	17.8	6.06e-01	0	60	0	741867520	57	5401
2026-01-18 12:21:15.62	302.87	40.83	-42.9	-46.5	17.8	6.06e-01	0	61	0	747634688	57	5435
2026-01-18 12:21:18.65	304.12	40.18	-42.9	-46.5	17.7	6.06e-01	0	60	0	753401856	57	5416
2026-01-18 12:21:21.68	305.32	39.53	-42.9	-46.4	17.8	6.07e-01	0	60	0	759169024	57	5377
2026-01-18 12:21:24.71	306.48	38.87	-42.9	-46.4	17.8	6.07e-01	0	60	0	764936192	57	5391
2026-01-18 12:21:27.74	307.59	38.22	-42.8	-46.2	17.9	6.06e-01	0	61	0	770179072	57	5279
2026-01-18 12:21:30.77	308.65	37.57	-42.7	-46.1	18.0	6.07e-01	0	60	0	775946240	57	5211
2026-01-18 12:21:33.79	309.67	36.92	-42.9	-46.4	17.8	6.06e-01	0	60	0	781713408	57	5360
2026-01-18 12:21:36.82	310.65	36.28	-42.4	-45.6	18.6	6.08e-01	0	61	0	787480576	56	5160
2026-01-18 12:21:39.85	311.60	35.64	-42.3	-45.5	18.7	6.05e-01	0	60	0	793247744	56	5120
2026-01-18 12:21:42.87	312.50	35.01	-42.3	-45.4	18.7	6.06e-01	0	60	0	799014912	56	5079
2026-01-18 12:21:45.90	313.37	34.39	-42.1	-45.0	19.1	6.05e-01	0	61	0	804257792	56	4861
2026-01-18 12:21:48.93	314.21	33.77	-42.0	-44.9	19.2	6.07e-01	0	61	0	810024960	56	4800
2026-01-18 12:21:51.96	315.02	33.15	-41.8	-44.7	19.3	6.07e-01	0	61	0	815792128	55	4978
2026-01-18 12:21:54.99	315.80	32.55	-41.8	-44.7	19.3	6.07e-01	0	60	0	821559296	55	4937
2026-01-18 12:21:58.03	316.55	31.95	-41.8	-44.6	19.4	6.08e-01	0	61	0	827326464	55	4925
2026-01-18 12:22:01.05	317.27	31.36	-41.7	-44.6	19.5	6.05e-01	0	61	0	832569344	55	4886
2026-01-18 12:22:04.08	317.97	30.78	-41.6	-44.4	19.6	6.05e-01	0	60	0	838336512	55	4802
2026-01-18 12:22:07.11	318.64	30.20	-41.7	-44.6	19.5	6.06e-01	0	60	0	844103680	55	4886
2026-01-18 12:22:10.14	319.29	29.63	-41.9	-44.9	19.1	6.05e-01	0	61	0	849870848	55	5082
2026-01-18 12:22:13.17	319.91	29.08	-42.1	-45.2	18.8	6.05e-01	0	60	0	855638016	55	5233
2026-01-18 12:22:16.19	320.52	28.53	-41.9	-44.9	19.1	6.07e-01	0	61	0	861405184	55	5080
2026-01-18 12:22:19.22	321.10	27.99	-41.9	-45.0	19.0	6.06e-01	0	61	0	867172352	55	5103
2026-01-18 12:22:22.25	321.66	27.46	-42.0	-45.1	18.9	6.05e-01	0	60	0	872415232	55	5168
2026-01-18 12:22:25.28	322.21	26.93	-42.2	-45.4	18.6	6.06e-01	0	60	0	878182400	55	5342
2026-01-18 12:22:28.30	322.73	26.42	-42.2	-45.4	18.5	6.07e-01	0	61	0	883949568	55	5396
2026-01-18 12:22:31.33	323.24	25.91	-42.2	-45.5	18.5	6.07e-01	0	61	0	889716736	55	5416
2026-01-18 12:22:34.36	323.74	25.41	-42.4	-45.7	18.2	6.07e-01	0	61	0	895483904	55	5557
2026-01-18 12:22:37.39	324.22	24.92	-42.4	-45.7	18.2	6.08e-01	0	61	0	900726784	55	5579
2026-01-18 12:22:40.42	324.68	24.44	-42.3	-45.6	18.3	6.07e-01	0	61	0	906493952	55	5515
2026-01-18 12:22:43.44	325.13	23.96	-42.4	-45.8	18.1	6.07e-01	0	61	0	912261120	55	5623
2026-01-18 12:22:46.48	325.57	23.49	-42.3	-45.7	18.2	6.06e-01	0	61	0	918028288	55	5549
2026-01-18 12:22:49.50	325.99	23.03	-42.3	-45.6	18.2	6.06e-01	0	61	0	923795456	55	5528
2026-01-18 12:22:52.54	326.40	22.58	-42.3	-45.7	18.1	6.06e-01	0	60	0	929562624	55	5543
2026-01-18 12:22:55.56	326.80	22.13	-42.2	-45.6	18.2	6.06e-01	0	61	0	935329792	55	5491
2026-01-18 12:22:58.59	327.19	21.69	-42.3	-45.7	18.1	6.06e-01	0	60	0	940572672	55	5531
2026-01-18 12:23:01.62	327.57	21.26	-42.2	-45.6	18.2	6.07e-01	0	61	0	946339840	55	5474
2026-01-18 12:23:04.65	327.93	20.84	-42.2	-45.5	18.3	6.06e-01	0	61	0	952107008	55	5458
2026-01-18 12:23:07.68	328.29	20.42	-42.2	-45.6	18.2	6.07e-01	0	61	0	957874176	55	5487
2026-01-18 12:23:10.71	328.64	20.01	-42.0	-45.3	18.4	6.07e-01	0	61	0	963641344	55	5310
2026-01-18 12:23:13.74	328.97	19.60	-42.1	-45.4	18.3	6.04e-01	0	61	0	968884224	55	5350
2026-01-18 12:23:16.77	329.30	19.20	-41.9	-45.2	18.5	6.05e-01	0	60	0	974651392	55	5242
2026-01-18 12:23:19.79	329.62	18.81	-42.0	-45.2	18.4	6.07e-01	0	61	0	980418560	55	5275
2026-01-18 12:23:22.82	329.93	18.42	-41.9	-45.2	18.5	6.08e-01	0	61	0	986185728	55	5234
2026-01-18 12:23:25.85	330.24	18.04	-41.9	-45.2	18.4	6.07e-01	0	61	0	991952896	55	5220
2026-01-18 12:23:28.87	330.53	17.67	-41.9	-45.2	18.4	6.03e-01	0	61	0	997720064	55	5229
2026-01-18 12:23:31.90	330.82	17.30	-41.9	-45.2	18.4	6.05e-01	0	61	0	1002962944	55	5235
2026-01-18 12:23:34.93	331.10	16.94	-41.8	-45.1	18.4	6.07e-01	0	61	0	1008730112	55	5194
2026-01-18 12:23:37.96	331.38	16.58	-41.8	-45.0	18.5	6.09e-01	0	61	0	1014497280	55	5159
2026-01-18 12:23:40.98	331.65	16.22	-41.9	-45.2	18.3	6.07e-01	0	61	0	1020264448	55	5235
2026-01-18 12:23:44.01	331.91	15.88	-41.9	-45.3	18.2	6.05e-01	0	61	0	1026031616	55	5304
2026-01-18 12:23:47.04	332.17	15.53	-41.8	-45.1	18.3	6.08e-01	0	61	0	1031798784	55	5201
2026-01-18 12:23:50.07	332.42	15.19	-41.9	-45.3	18.1	6.08e-01	0	61	0	1037041664	55	5293
2026-01-18 12:23:53.10	332.66	14.86	-41.9	-45.2	18.1	6.05e-01	0	61	0	1042808832	55	5271
2026-01-18 12:23:56.13	332.90	14.53	-41.9	-45.4	17.9	6.06e-01	0	60	0	1048576000	55	5357
2026-01-18 12:23:59.16	333.13	14.20	-41.9	-45.4	17.8	6.05e-01	0	60	0	1054343168	55	5366
2026-01-18 12:24:02.19	333.36	13.88	-41.9	-45.4	17.8	6.05e-01	0	61	0	1060110336	55	5369
2026-01-18 12:24:05.22	333.59	13.57	-41.9	-45.4	17.7	6.00e-01	0	61	0	1065877504	55	5368
2026-01-18 12:24:08.25	333.81	13.25	-41.8	-45.3	17.8	6.03e-01	0	61	0	1071120384	55	5312
2026-01-18 12:24:11.28	334.02	12.95	-41.9	-45.5	17.6	6.03e-01	0	61	0	1076887552	55	5420
2026-01-18 12:24:14.30	334.23	12.64	-41.9	-45.6	17.4	6.01e-01	0	61	0	1082654720	55	5497
2026-01-18 12:24:17.33	334.44	12.34	-41.9	-45.5	17.5	6.02e-01	0	61	0	1088421888	55	5448
2026-01-18 12:24:20.36	334.64	12.05	-41.9	-45.6	17.4	6.00e-01	0	61	0	1094189056	55	5487
2026-01-18 12:24:23.40	334.84	11.75	-41.9	-45.6	17.3	5.98e-01	0	61	0	1099956224	55	5493
2026-01-18 12:24:26.42	335.03	11.47	-42.0	-45.8	17.1	6.02e-01	0	61	0	1105199104	55	5613
2026-01-18 12:24:29.45	335.22	11.18	-42.0	-45.9	16.9	6.02e-01	0	61	0	1110966272	55	5689
2026-01-18 12:24:32.48	335.41	10.90	-41.9	-45.7	17.0	6.02e-01	0	61	0	1116733440	55	5559
2026-01-18 12:24:35.51	335.59	10.62	-42.0	-46.1	16.5	6.01e-01	0	61	0	1122500608	55	5848
2026-01-18 12:24:38.54	335.77	10.34	-42.0	-46.1	16.5	5.97e-01	0	61	0	1128267776	55	5828
2026-01-18 12:24:41.57	335.95	10.07	-42.1	-46.4	16.1	6.01e-01	0	61	0	1134034944	55	6013
2026-01-18 12:24:44.59	336.12	9.80	-41.9	-46.1	16.4	6.00e-01	0	61	0	1139277824	55	5838
2026-01-18 12:24:47.62	336.29	9.54	-42.0	-46.3	16.1	6.01e-01	0	61	0	1145044992	55	5990
2026-01-18 12:24:50.65	336.46	9.27	-42.0	-46.4	16.0	6.01e-01	0	61	0	1150812160	55	6020
2026-01-18 12:24:53.68	336.62	9.01	-41.9	-46.3	16.1	6.01e-01	0	61	0	1156579328	55	5928
2026-01-18 12:24:56.71	336.78	8.75	-41.9	-46.4	15.9	6.00e-01	0	61	0	1162346496	55	5998
2026-01-18 12:24:59.74	336.94	8.50	-42.0	-46.7	15.5	6.02e-01	0	61	0	1168113664	55	6238
2026-01-18 12:25:02.76	337.09	8.25	-42.0	-46.9	15.3	6.02e-01	0	61	0	1173356544	55	6355
2026-01-18 12:25:05.79	337.25	8.00	-44.0	-53.1	4.9	7.18e-01	0	61	104	1178599424	59	10395
2026-01-18 12:25:08.82	337.40	7.75	-46.0	-64.6	3.8	7.44e-01	0	61	104	1178599424	62	32874
2026-01-18 12:25:11.85	337.55	7.51	-46.3	-65.0	3.8	7.43e-01	0	61	104	1178599424	63	32227
2026-01-18 12:25:14.88	337.69	7.27	-46.4	-65.0	3.8	7.48e-01	0	61	104	1178599424	63	32486
2026-01-18 12:25:17.91	337.83	7.03	-46.4	-65.0	3.8	7.46e-01	0	61	104	1178599424	63	32213
2026-01-18 12:25:20.94	337.98	6.79	-46.3	-64.9	3.8	7.45e-01	0	61	104	1178599424	63	32024
2026-01-18 12:25:23.98	338.11	6.55	-46.3	-64.9	3.8	7.43e-01	0	61	104	1178599424	63	31918
2026-01-18 12:25:27.01	338.25	6.32	-46.3	-64.9	3.8	7.45e-01	0	61	104	1178599424	63	31857
2026-01-18 12:25:30.04	338.38	6.09	-46.3	-64.9	3.8	7.43e-01	0	61	104	1178599424	63	31829
2026-01-18 12:25:33.07	338.52	5.86	-46.3	-64.8	3.8	7.46e-01	0	61	104	1178599424	63	31742
2026-01-18 12:25:36.11	338.65	5.64	-46.3	-64.9	3.8	7.46e-01	0	61	104	1178599424	63	31830
2026-01-18 12:25:39.14	338.78	5.41	-46.3	-64.8	3.8	7.43e-01	0	61	104	1178599424	63	31731
2026-01-18 12:25:42.17	338.90	5.19	-46.2	-64.8	3.8	7.48e-01	0	61	104	1178599424	63	31735
2026-01-18 12:25:45.21	339.03	4.97	-46.2	-64.8	3.8	7.47e-01	0	61	104	1178599424	63	31748
2026-01-18 12:25:48.24	339.15	4.75	-46.2	-64.8	3.8	7.49e-01	0	61	104	1178599424	63	31723
2026-01-18 12:25:51.27	339.27	4.54	-46.2	-64.8	3.8	7.47e-01	0	61	104	1178599424	63	31750
2026-01-18 12:25:54.31	339.39	4.32	-46.2	-64.8	3.8	7.43e-01	0	61	104	1178599424	63	31633
2026-01-18 12:25:57.34	339.51	4.11	-46.2	-64.8	3.8	7.42e-01	0	61	104	1178599424	63	31640
2026-01-18 12:26:00.37	339.62	3.90	-46.2	-64.8	3.8	7.47e-01	0	61	104	1178599424	63	31703
2026-01-18 12:26:03.40	339.74	3.69	-46.2	-64.8	3.8	7.45e-01	0	61	104	1178599424	63	31666
2026-01-18 12:26:06.43	339.85	3.48	-46.2	-64.8	3.8	7.46e-01	0	61	104	1178599424	63	31656
2026-01-18 12:26:09.47	339.96	3.27	-46.2	-64.8	3.8	7.48e-01	0	61	104	1178599424	63	31675
2026-01-18 12:26:12.50	340.07	3.07	-46.2	-64.8	3.8	7.42e-01	0	61	104	1178599424	63	31653
2026-01-18 12:26:15.53	340.18	2.87	-46.2	-64.8	3.8	7.46e-01	0	61	104	1178599424	63	31653
2026-01-18 12:26:18.57	340.29	2.67	-46.2	-64.8	3.8	7.44e-01	0	61	104	1178599424	63	31623
2026-01-18 12:26:21.60	340.39	2.47	-46.2	-64.8	3.8	7.44e-01	0	61	104	1178599424	63	31607
2026-01-18 12:26:24.63	340.50	2.27	-46.2	-64.8	3.8	7.49e-01	0	61	104	1178599424	63	31576
2026-01-18 12:26:27.66	340.60	2.07	-46.0	-64.8	3.8	7.46e-01	0	61	104	1178599424	63	31516

#Closed at: 2026-01-18 12:26:28
#Recorded file [1178 MB]: D:/lorett/data/31039_260118_151350.dat