passes_logs/2026/01/18/R2.0S_Moscow/R2.0S_Moscow__20260118_011652_FENGYUN_3D_rec.log

#Pass ID: 20260118_011652_FENGYUN 3D
#Satellite: FENGYUN 3D
#Configuration: FENGYUN 3D
#almurnet v.1.7.20251203
#Start time: 2026-01-18 01:16:51

#Version: 2.2.20231116
#Station: R2.0S_Moscow
#Location: 37.707566 lon 55.798166 lat
#TLE: 1 43010U 17072A   26017.25882587  .00000461  00000+0  23963-3 0  9992
#TLE: 2 43010  98.9934 349.1096 0002357 104.0487 256.0951 14.19697152423579

#Time	Az	El	Level	Level2	SNR	BER	BlckErr	Temp	State	Recorded	gain1	gain2
2026-01-18 01:16:51.47	18.88	1.96	-42.0	-53.9	3.8	8.47e-01	0	57	0	0	56	13431
2026-01-18 01:16:55.52	18.98	2.22	-41.8	-53.7	3.8	8.46e-01	0	57	104	0	55	13913
2026-01-18 01:16:59.56	19.08	2.47	-41.8	-53.6	3.8	8.46e-01	0	57	104	0	55	13881
2026-01-18 01:17:03.58	19.19	2.73	-41.8	-53.6	3.8	8.46e-01	0	58	104	0	55	13868
2026-01-18 01:17:07.62	19.29	2.99	-41.8	-53.7	3.8	8.46e-01	0	58	104	0	55	13916
2026-01-18 01:17:11.67	19.40	3.25	-41.8	-53.7	3.8	8.47e-01	0	58	104	0	55	13892
2026-01-18 01:17:15.71	19.51	3.52	-41.8	-53.7	3.8	8.45e-01	0	58	104	0	55	13892
2026-01-18 01:17:19.75	19.63	3.79	-41.8	-53.7	3.8	8.45e-01	0	58	104	0	55	13911
2026-01-18 01:17:23.79	19.74	4.06	-41.8	-53.6	3.8	8.45e-01	0	58	104	0	55	13846
2026-01-18 01:17:27.84	19.85	4.33	-41.8	-53.6	3.8	8.46e-01	0	58	104	0	55	13882
2026-01-18 01:17:31.88	19.97	4.61	-41.8	-53.6	3.8	8.47e-01	0	58	104	0	55	13863
2026-01-18 01:17:35.92	20.09	4.89	-41.8	-53.7	3.8	8.46e-01	0	58	104	0	55	13902
2026-01-18 01:17:39.97	20.21	5.17	-41.8	-53.7	3.8	8.46e-01	0	58	104	0	55	13913
2026-01-18 01:17:44.01	20.34	5.46	-41.8	-53.6	3.8	8.46e-01	0	59	104	0	55	13865
2026-01-18 01:17:48.05	20.46	5.74	-41.8	-53.6	3.8	8.46e-01	0	59	104	0	55	13846
2026-01-18 01:17:52.09	20.59	6.04	-41.8	-53.6	3.8	8.46e-01	0	59	104	0	55	13787
2026-01-18 01:17:56.14	20.72	6.33	-41.8	-53.6	3.8	8.46e-01	0	59	104	0	55	13841
2026-01-18 01:18:00.18	20.85	6.63	-41.8	-53.6	3.8	8.46e-01	0	59	104	0	55	13826
2026-01-18 01:18:04.22	20.98	6.93	-41.8	-53.4	3.8	8.46e-01	0	59	104	0	55	13558
2026-01-18 01:18:08.27	21.12	7.23	-41.7	-52.6	3.8	8.46e-01	0	59	104	0	55	12369
2026-01-18 01:18:12.31	21.26	7.54	-41.4	-50.0	4.2	8.38e-01	0	59	0	0	54	9639
2026-01-18 01:18:16.36	21.40	7.86	-39.9	-44.5	7.9	1.07e-01	0	59	0	7340032	51	6105
2026-01-18 01:18:20.40	21.55	8.17	-39.1	-42.6	10.2	9.63e-04	0	59	0	30408704	48	5812
2026-01-18 01:18:24.44	21.69	8.49	-41.0	-47.8	5.2	8.27e-01	0	59	0	45088768	52	8405
2026-01-18 01:18:28.48	21.84	8.81	-39.1	-42.0	11.4	9.99e-04	0	59	0	67108864	50	4819
2026-01-18 01:18:32.52	22.00	9.14	-39.2	-42.1	11.5	1.25e-03	0	60	0	90177536	50	4893
2026-01-18 01:18:36.56	22.15	9.47	-38.9	-41.5	12.3	3.52e-04	0	60	0	112197632	49	4832
2026-01-18 01:18:40.60	22.31	9.81	-38.9	-41.5	12.6	1.34e-04	0	60	0	135266304	49	4822
2026-01-18 01:18:44.64	22.48	10.15	-38.9	-41.3	12.8	9.95e-05	0	60	0	158334976	49	4745
2026-01-18 01:18:48.68	22.64	10.49	-38.9	-41.3	12.9	9.38e-05	0	60	0	181403648	49	4756
2026-01-18 01:18:52.72	22.81	10.84	-39.0	-41.3	13.1	3.43e-05	0	60	0	203423744	49	4735
2026-01-18 01:18:56.76	22.99	11.20	-39.0	-41.3	13.2	4.46e-05	0	60	0	226492416	49	4724
2026-01-18 01:19:00.79	23.16	11.56	-39.2	-41.5	13.1	4.00e-05	0	60	0	249561088	49	4868
2026-01-18 01:19:04.84	23.34	11.92	-38.9	-41.1	13.4	3.08e-05	0	60	0	271581184	49	4636
2026-01-18 01:19:08.87	23.53	12.29	-39.0	-41.3	13.3	4.11e-05	0	60	0	294649856	49	4737
2026-01-18 01:19:12.91	23.72	12.67	-39.0	-41.2	13.5	2.40e-05	0	60	0	316669952	49	4670
2026-01-18 01:19:16.95	23.91	13.05	-39.0	-41.2	13.6	1.71e-05	0	60	0	339738624	49	4681
2026-01-18 01:19:20.99	24.11	13.44	-38.7	-40.8	14.0	4.50e-06	0	60	0	362807296	49	4466
2026-01-18 01:19:25.03	24.32	13.83	-38.6	-40.6	14.3	3.40e-06	0	60	0	385875968	49	4368
2026-01-18 01:19:29.07	24.52	14.23	-38.5	-40.5	14.4	2.20e-06	0	60	0	407896064	48	4565
2026-01-18 01:19:33.11	24.74	14.64	-38.6	-40.6	14.3	2.20e-06	0	60	0	430964736	48	4613
2026-01-18 01:19:37.14	24.96	15.05	-38.5	-40.5	14.4	2.20e-06	0	60	0	454033408	48	4593
2026-01-18 01:19:41.18	25.18	15.47	-38.4	-40.4	14.6	0.00e+00	0	60	0	476053504	48	4522
2026-01-18 01:19:45.22	25.41	15.90	-38.1	-40.0	15.0	2.20e-06	0	60	0	499122176	48	4303
2026-01-18 01:19:49.27	25.65	16.33	-37.8	-39.7	15.2	0.00e+00	0	60	0	521142272	47	4403
2026-01-18 01:19:53.30	25.90	16.77	-37.9	-39.7	15.3	0.00e+00	0	60	0	544210944	47	4410
2026-01-18 01:19:57.34	26.15	17.22	-37.8	-39.6	15.4	1.10e-06	0	60	0	567279616	47	4387
2026-01-18 01:20:01.38	26.40	17.68	-37.7	-39.5	15.5	0.00e+00	0	60	0	590348288	47	4303
2026-01-18 01:20:05.42	26.67	18.14	-37.6	-39.3	15.7	0.00e+00	0	60	0	612368384	47	4231
2026-01-18 01:20:09.46	26.94	18.61	-37.6	-39.3	15.8	1.10e-06	0	60	0	635437056	47	4215
2026-01-18 01:20:13.50	27.22	19.09	-37.6	-39.4	15.7	0.00e+00	0	60	0	658505728	47	4263
2026-01-18 01:20:17.54	27.51	19.59	-37.5	-39.2	15.9	0.00e+00	0	60	0	680525824	47	4182
2026-01-18 01:20:21.58	27.81	20.09	-37.3	-38.9	16.2	0.00e+00	0	60	0	703594496	46	4289
2026-01-18 01:20:25.62	28.12	20.60	-37.1	-38.8	16.4	0.00e+00	0	60	0	726663168	46	4201
2026-01-18 01:20:29.66	28.44	21.12	-37.2	-38.8	16.4	0.00e+00	0	61	0	748683264	46	4221
2026-01-18 01:20:33.70	28.77	21.64	-37.1	-38.7	16.5	0.00e+00	0	60	0	771751936	46	4148
2026-01-18 01:20:37.75	29.11	22.19	-36.9	-38.4	16.8	0.00e+00	0	60	0	794820608	45	4291
2026-01-18 01:20:41.79	29.46	22.74	-36.8	-38.3	16.9	0.00e+00	0	60	0	816840704	45	4220
2026-01-18 01:20:45.83	29.82	23.30	-36.8	-38.3	17.0	0.00e+00	0	60	0	839909376	45	4224
2026-01-18 01:20:49.86	30.20	23.87	-36.9	-38.5	16.8	0.00e+00	0	60	0	862978048	45	4323
2026-01-18 01:20:53.91	30.59	24.46	-36.7	-38.2	17.1	0.00e+00	0	60	0	884998144	45	4169
2026-01-18 01:20:57.95	30.99	25.05	-36.5	-38.0	17.3	0.00e+00	0	61	0	908066816	45	4093
2026-01-18 01:21:01.98	31.41	25.66	-36.4	-37.9	17.5	0.00e+00	0	61	0	931135488	44	4262
2026-01-18 01:21:06.02	31.85	26.29	-36.3	-37.7	17.6	0.00e+00	0	60	0	953155584	44	4182
2026-01-18 01:21:10.06	32.30	26.92	-36.4	-37.8	17.5	0.00e+00	0	61	0	976224256	44	4226
2026-01-18 01:21:14.10	32.77	27.57	-36.3	-37.7	17.6	0.00e+00	0	61	0	999292928	44	4189
2026-01-18 01:21:18.14	33.26	28.23	-36.4	-37.8	17.6	0.00e+00	0	60	0	1021313024	44	4217
2026-01-18 01:21:22.18	33.76	28.91	-36.2	-37.6	17.8	0.00e+00	0	61	0	1044381696	44	4127
2026-01-18 01:21:26.22	34.29	29.60	-35.8	-37.1	18.1	0.00e+00	0	61	0	1067450368	43	4126
2026-01-18 01:21:30.25	34.85	30.30	-36.3	-37.8	17.5	0.00e+00	0	61	0	1089470464	43	4460
2026-01-18 01:21:34.29	35.42	31.02	-36.3	-37.8	17.5	0.00e+00	0	61	0	1112539136	43	4455
2026-01-18 01:21:38.33	36.03	31.76	-35.9	-37.3	17.9	0.00e+00	0	61	0	1135607808	43	4237
2026-01-18 01:21:42.37	36.66	32.51	-35.8	-37.1	18.2	0.00e+00	0	61	0	1157627904	43	4141
2026-01-18 01:21:46.42	37.32	33.28	-36.1	-37.6	17.7	0.00e+00	0	61	0	1180696576	43	4344
2026-01-18 01:21:50.46	38.01	34.06	-35.7	-37.0	18.3	0.00e+00	0	61	0	1203765248	43	4090
2026-01-18 01:21:54.49	38.73	34.85	-35.8	-37.1	18.2	0.00e+00	0	61	0	1225785344	43	4127
2026-01-18 01:21:58.53	39.49	35.67	-35.7	-37.3	17.7	0.00e+00	0	61	0	1248854016	43	4196
2026-01-18 01:22:02.57	40.29	36.50	-35.6	-37.1	17.9	0.00e+00	0	61	0	1271922688	43	4117
2026-01-18 01:22:06.61	41.13	37.34	-35.5	-36.9	18.1	0.00e+00	0	61	0	1293942784	43	4045
2026-01-18 01:22:10.65	42.02	38.20	-35.7	-37.2	17.8	0.00e+00	0	61	0	1317011456	42	4436
2026-01-18 01:22:14.69	42.95	39.07	-35.5	-36.9	18.2	0.00e+00	0	61	0	1340080128	42	4271
2026-01-18 01:22:18.73	43.93	39.96	-35.6	-37.1	18.0	0.00e+00	0	61	0	1362100224	42	4363
2026-01-18 01:22:22.77	44.97	40.86	-35.6	-37.1	18.0	0.00e+00	0	61	0	1385168896	42	4373
2026-01-18 01:22:26.81	46.07	41.77	-35.8	-37.3	17.8	0.00e+00	0	61	0	1408237568	42	4475
2026-01-18 01:22:30.85	47.23	42.70	-35.7	-37.2	18.0	0.00e+00	0	61	0	1430257664	42	4404
2026-01-18 01:22:34.89	48.45	43.63	-35.9	-37.4	17.7	0.00e+00	0	61	0	1453326336	42	4541
2026-01-18 01:22:38.94	49.76	44.57	-36.2	-37.7	17.5	0.00e+00	0	61	0	1476395008	42	4698
2026-01-18 01:22:42.98	51.14	45.52	-36.1	-37.7	17.5	0.00e+00	0	61	0	1499463680	42	4659
2026-01-18 01:22:47.02	52.60	46.47	-36.1	-37.6	17.6	0.00e+00	0	61	0	1521483776	42	4610
2026-01-18 01:22:51.06	54.16	47.42	-36.4	-38.0	17.2	0.00e+00	0	61	0	1544552448	43	4597
2026-01-18 01:22:55.10	55.81	48.37	-36.2	-37.8	17.5	0.00e+00	0	61	0	1566572544	43	4449
2026-01-18 01:22:59.14	57.57	49.32	-36.7	-38.3	17.1	0.00e+00	0	61	0	1589641216	44	4465
2026-01-18 01:23:03.18	59.43	50.25	-36.3	-37.8	17.6	0.00e+00	0	61	0	1612709888	44	4215
2026-01-18 01:23:07.22	61.41	51.17	-36.6	-38.1	17.3	0.00e+00	0	61	0	1635778560	44	4372
2026-01-18 01:23:11.25	63.51	52.07	-36.4	-37.9	17.5	0.00e+00	0	61	0	1657798656	44	4264
2026-01-18 01:23:15.29	65.75	52.94	-37.0	-38.6	16.8	0.00e+00	0	61	0	1680867328	44	4642
2026-01-18 01:23:19.33	68.12	53.79	-36.8	-38.5	17.0	0.00e+00	0	61	0	1703936000	44	4549
2026-01-18 01:23:23.38	70.63	54.59	-36.9	-38.5	16.9	0.00e+00	0	61	0	1725956096	44	4590
2026-01-18 01:23:27.42	73.28	55.35	-36.9	-38.5	17.0	0.00e+00	0	61	0	1749024768	45	4300
2026-01-18 01:23:31.46	76.07	56.06	-36.9	-38.5	16.9	0.00e+00	0	61	0	1771044864	45	4330
2026-01-18 01:23:35.50	79.00	56.71	-36.9	-38.5	17.0	0.00e+00	0	61	0	1794113536	45	4324
2026-01-18 01:23:39.54	82.06	57.29	-36.9	-38.5	16.9	0.00e+00	0	61	0	1817182208	45	4321
2026-01-18 01:23:43.58	85.24	57.79	-36.5	-38.0	17.4	0.00e+00	0	61	0	1840250880	44	4333
2026-01-18 01:23:47.62	88.54	58.22	-36.3	-37.7	17.7	0.00e+00	0	61	0	1862270976	44	4192
2026-01-18 01:23:51.65	91.92	58.55	-36.8	-38.4	17.1	0.00e+00	0	61	0	1885339648	44	4498
2026-01-18 01:23:55.70	95.40	58.80	-36.5	-38.0	17.4	0.00e+00	0	61	0	1908408320	44	4316
2026-01-18 01:23:59.73	98.90	58.94	-36.4	-38.0	17.4	0.00e+00	0	61	0	1930428416	44	4299
2026-01-18 01:24:03.77	102.45	58.99	-36.6	-38.1	17.3	0.00e+00	0	61	0	1953497088	44	4384
2026-01-18 01:24:07.81	105.99	58.94	-36.4	-38.0	17.4	0.00e+00	0	61	0	1975517184	44	4308
2026-01-18 01:24:11.85	109.51	58.79	-36.5	-38.0	17.4	0.00e+00	0	61	0	1998585856	44	4323
2026-01-18 01:24:15.89	112.98	58.55	-36.8	-38.4	16.9	0.00e+00	0	61	0	2021654528	44	4545
2026-01-18 01:24:19.93	116.37	58.21	-36.8	-38.4	17.0	0.00e+00	0	61	0	2044723200	44	4500
2026-01-18 01:24:23.97	119.67	57.78	-36.7	-38.3	17.1	0.00e+00	0	61	0	2066743296	44	4477
2026-01-18 01:24:28.01	122.85	57.27	-36.9	-38.6	16.8	0.00e+00	0	61	0	2089811968	44	4610
2026-01-18 01:24:32.04	125.91	56.69	-37.0	-38.7	16.7	0.00e+00	0	61	0	2112880640	44	4656
2026-01-18 01:24:36.09	128.84	56.04	-37.1	-38.8	16.6	0.00e+00	0	61	0	2134900736	44	4720
2026-01-18 01:24:40.12	131.63	55.33	-36.8	-38.5	16.9	0.00e+00	0	61	0	2157969408	44	4553
2026-01-18 01:24:44.16	134.28	54.57	-36.8	-38.3	17.0	0.00e+00	0	61	0	2179989504	44	4488
2026-01-18 01:24:48.20	136.78	53.76	-36.8	-38.3	17.0	0.00e+00	0	61	0	2203058176	44	4483
2026-01-18 01:24:52.24	139.15	52.91	-37.0	-38.6	16.7	0.00e+00	0	61	0	2226126848	44	4631
2026-01-18 01:24:56.28	141.39	52.03	-36.8	-38.5	16.8	0.00e+00	0	61	0	2249195520	44	4563
2026-01-18 01:25:00.32	143.50	51.13	-36.4	-37.9	17.4	0.00e+00	0	61	0	2271215616	44	4276
2026-01-18 01:25:04.36	145.48	50.21	-36.4	-38.0	17.3	0.00e+00	0	61	0	2294284288	44	4299
2026-01-18 01:25:08.40	147.35	49.27	-36.2	-37.7	17.6	0.00e+00	0	61	0	2317352960	44	4157
2026-01-18 01:25:12.44	149.10	48.32	-36.3	-37.8	17.4	0.00e+00	0	61	0	2339373056	44	4223
2026-01-18 01:25:16.48	150.76	47.37	-35.7	-37.1	18.0	0.00e+00	0	61	0	2362441728	43	4122
2026-01-18 01:25:20.52	152.31	46.41	-36.0	-37.5	17.6	0.00e+00	0	61	0	2385510400	43	4308
2026-01-18 01:25:24.56	153.78	45.45	-35.9	-37.4	17.6	0.00e+00	0	61	0	2407530496	43	4259
2026-01-18 01:25:28.61	155.16	44.50	-35.9	-37.4	17.6	0.00e+00	0	61	0	2430599168	43	4264
2026-01-18 01:25:32.65	156.46	43.55	-36.0	-37.6	17.4	0.00e+00	0	61	0	2453667840	43	4371
2026-01-18 01:25:36.69	157.69	42.62	-35.6	-37.1	17.9	0.00e+00	0	61	0	2475687936	43	4102
2026-01-18 01:25:40.72	158.84	41.69	-35.8	-37.3	17.6	0.00e+00	0	61	0	2498756608	43	4222
2026-01-18 01:25:44.76	159.94	40.77	-35.7	-37.2	17.7	0.00e+00	0	61	0	2521825280	43	4173
2026-01-18 01:25:48.80	160.98	39.87	-35.5	-36.9	18.0	0.00e+00	0	61	0	2543845376	42	4272
2026-01-18 01:25:52.83	161.96	38.98	-35.5	-37.0	17.9	0.00e+00	0	61	0	2566914048	42	4303
2026-01-18 01:25:56.87	162.89	38.10	-35.3	-36.7	18.1	0.00e+00	0	61	0	2589982720	42	4184
2026-01-18 01:26:00.91	163.77	37.24	-35.4	-36.9	17.9	0.00e+00	0	61	0	2612002816	42	4282
2026-01-18 01:26:04.95	164.61	36.39	-35.5	-37.0	17.8	0.00e+00	0	61	0	2635071488	42	4318
2026-01-18 01:26:08.99	165.41	35.56	-35.6	-37.1	17.7	0.00e+00	0	61	0	2658140160	42	4369
2026-01-18 01:26:13.03	166.17	34.74	-35.5	-37.0	17.7	0.00e+00	0	61	0	2680160256	42	4330
2026-01-18 01:26:17.07	166.89	33.94	-35.4	-36.9	17.9	0.00e+00	0	61	0	2703228928	42	4248
2026-01-18 01:26:21.11	167.58	33.16	-35.5	-37.0	17.8	0.00e+00	0	61	0	2726297600	42	4313
2026-01-18 01:26:25.15	168.24	32.39	-35.8	-37.3	17.4	0.00e+00	0	61	0	2748317696	42	4491
2026-01-18 01:26:29.19	168.87	31.63	-35.7	-37.2	17.5	0.00e+00	0	61	0	2771386368	42	4422
2026-01-18 01:26:33.23	169.47	30.89	-35.7	-37.2	17.5	0.00e+00	0	61	0	2794455040	42	4436
2026-01-18 01:26:37.27	170.05	30.17	-35.7	-37.3	17.5	0.00e+00	0	61	0	2816475136	42	4454
2026-01-18 01:26:41.31	170.60	29.46	-35.8	-37.4	17.4	0.00e+00	0	61	0	2839543808	42	4506
2026-01-18 01:26:45.35	171.13	28.77	-36.0	-37.6	17.2	0.00e+00	0	61	0	2862612480	42	4614
2026-01-18 01:26:49.38	171.63	28.09	-35.9	-37.4	17.3	0.00e+00	0	61	0	2884632576	42	4541
2026-01-18 01:26:53.42	172.12	27.42	-35.5	-37.0	17.7	0.00e+00	0	61	0	2907701248	42	4310
2026-01-18 01:26:57.46	172.59	26.77	-35.6	-37.1	17.6	0.00e+00	0	61	0	2930769920	42	4365
2026-01-18 01:27:01.50	173.04	26.13	-35.9	-37.4	17.3	0.00e+00	0	61	0	2952790016	42	4522
2026-01-18 01:27:05.54	173.47	25.51	-36.0	-37.5	17.2	0.00e+00	0	61	0	2975858688	42	4579
2026-01-18 01:27:09.58	173.89	24.90	-36.0	-37.5	17.2	0.00e+00	0	61	0	2998927360	42	4575
2026-01-18 01:27:13.62	174.29	24.30	-35.9	-37.4	17.3	0.00e+00	0	61	0	3020947456	42	4539
2026-01-18 01:27:17.66	174.68	23.71	-36.0	-37.6	17.1	0.00e+00	0	61	0	3044016128	42	4609
2026-01-18 01:27:21.70	175.05	23.14	-36.1	-37.7	17.0	0.00e+00	0	61	0	3067084800	42	4665
2026-01-18 01:27:25.74	175.41	22.57	-36.3	-38.0	16.7	0.00e+00	0	61	0	3089104896	43	4546
2026-01-18 01:27:29.78	175.76	22.02	-36.4	-38.0	16.6	0.00e+00	0	61	0	3112173568	43	4586
2026-01-18 01:27:33.82	176.10	21.48	-36.5	-38.2	16.4	0.00e+00	0	61	0	3135242240	43	4678
2026-01-18 01:27:37.86	176.42	20.94	-36.7	-38.4	16.2	0.00e+00	0	61	0	3157262336	43	4773
2026-01-18 01:27:41.91	176.74	20.42	-37.1	-38.9	15.9	0.00e+00	0	61	0	3180331008	44	4789
2026-01-18 01:27:45.95	177.05	19.91	-37.3	-39.1	15.7	0.00e+00	0	61	0	3203399680	45	4612
2026-01-18 01:27:49.99	177.34	19.41	-37.3	-39.1	15.6	0.00e+00	0	61	0	3225419776	45	4637
2026-01-18 01:27:54.03	177.63	18.91	-37.2	-39.0	15.7	0.00e+00	0	61	0	3248488448	45	4595
2026-01-18 01:27:58.07	177.91	18.43	-37.1	-38.9	15.8	0.00e+00	0	61	0	3271557120	45	4515
2026-01-18 01:28:02.11	178.18	17.96	-37.3	-39.0	15.7	0.00e+00	0	61	0	3293577216	45	4597
2026-01-18 01:28:06.15	178.44	17.49	-37.5	-39.3	15.4	0.00e+00	0	61	0	3316645888	45	4753
2026-01-18 01:28:10.19	178.69	17.03	-37.7	-39.6	15.1	0.00e+00	0	61	0	3339714560	46	4651
2026-01-18 01:28:14.23	178.94	16.58	-38.0	-39.9	14.8	0.00e+00	0	61	0	3362783232	46	4801
2026-01-18 01:28:18.27	179.18	16.14	-38.0	-40.0	14.7	0.00e+00	0	61	0	3384803328	46	4825
2026-01-18 01:28:22.30	179.42	15.70	-37.9	-39.9	14.8	2.20e-06	0	61	0	3407872000	46	4798
2026-01-18 01:28:26.34	179.64	15.28	-37.8	-39.7	15.0	0.00e+00	0	61	0	3429892096	46	4673
2026-01-18 01:28:30.38	179.87	14.86	-37.9	-39.9	14.8	0.00e+00	0	61	0	3452960768	46	4796
2026-01-18 01:28:34.42	180.08	14.44	-38.1	-40.1	14.5	1.10e-06	0	61	0	3476029440	46	4925
2026-01-18 01:28:38.46	180.29	14.03	-38.1	-40.1	14.5	0.00e+00	0	61	0	3498049536	47	4646
2026-01-18 01:28:42.50	180.50	13.63	-38.2	-40.3	14.3	3.40e-06	0	61	0	3521118208	47	4744
2026-01-18 01:28:46.54	180.70	13.24	-38.4	-40.6	14.1	1.10e-06	0	61	0	3544186880	47	4879
2026-01-18 01:28:50.58	180.89	12.85	-38.5	-40.7	13.9	4.50e-06	0	61	0	3567255552	47	4958
2026-01-18 01:28:54.62	181.08	12.47	-38.5	-40.7	13.9	8.00e-06	0	61	0	3589275648	47	4930
2026-01-18 01:28:58.66	181.27	12.09	-38.5	-40.7	13.9	5.70e-06	0	61	0	3612344320	47	4930
2026-01-18 01:29:02.70	181.45	11.72	-38.7	-40.9	13.6	1.25e-05	0	61	0	3634364416	47	5094
2026-01-18 01:29:06.74	181.63	11.35	-38.5	-40.7	13.8	5.70e-06	0	61	0	3657433088	47	4952
2026-01-18 01:29:10.78	181.80	10.99	-38.8	-41.1	13.6	1.25e-05	0	61	0	3680501760	48	4876
2026-01-18 01:29:14.82	181.97	10.64	-39.0	-41.3	13.3	2.17e-05	0	61	0	3703570432	48	4997
2026-01-18 01:29:18.86	182.14	10.28	-39.1	-41.4	13.1	3.31e-05	0	61	0	3725590528	48	5099
2026-01-18 01:29:22.90	182.30	9.94	-39.0	-41.3	13.2	4.34e-05	0	61	0	3748659200	48	5019
2026-01-18 01:29:26.94	182.46	9.60	-39.3	-41.7	12.8	9.04e-05	0	61	0	3771727872	49	4967
2026-01-18 01:29:30.98	182.61	9.26	-39.3	-41.8	12.7	1.20e-04	0	61	0	3793747968	49	4987
2026-01-18 01:29:35.01	182.77	8.93	-39.7	-42.3	12.1	3.33e-04	0	61	0	3816816640	49	5317
2026-01-18 01:29:39.05	182.91	8.60	-39.6	-42.2	12.1	4.68e-04	0	61	0	3838836736	50	4979
2026-01-18 01:29:43.09	183.06	8.27	-39.6	-42.3	12.0	4.39e-04	0	61	0	3861905408	50	5021
2026-01-18 01:29:47.13	183.20	7.95	-44.1	-53.0	4.1	3.39e-01	0	61	0	3883925504	58	10895
2026-01-18 01:29:51.18	183.34	7.64	-45.1	-56.8	3.8	8.46e-01	0	61	104	3883925504	60	15007
2026-01-18 01:29:55.22	183.48	7.32	-45.3	-57.0	3.8	8.44e-01	0	61	104	3883925504	61	14528
2026-01-18 01:29:59.26	183.62	7.01	-45.3	-56.9	3.8	8.45e-01	0	61	104	3883925504	61	14368
2026-01-18 01:30:03.30	183.75	6.71	-45.2	-56.9	3.8	8.46e-01	0	61	104	3883925504	61	14280
2026-01-18 01:30:07.34	183.88	6.41	-45.2	-56.9	3.8	8.45e-01	0	61	104	3883925504	61	14282
2026-01-18 01:30:11.38	184.00	6.11	-45.2	-56.9	3.8	8.45e-01	0	61	104	3883925504	61	14219
2026-01-18 01:30:15.43	184.13	5.81	-45.2	-56.9	3.8	8.46e-01	0	61	104	3883925504	61	14262
2026-01-18 01:30:19.47	184.25	5.52	-45.2	-56.9	3.8	8.46e-01	0	61	104	3883925504	61	14235
2026-01-18 01:30:23.51	184.37	5.23	-45.2	-56.8	3.8	8.46e-01	0	61	104	3883925504	61	14168
2026-01-18 01:30:27.56	184.49	4.94	-45.2	-56.9	3.8	8.46e-01	0	61	104	3883925504	61	14242
2026-01-18 01:30:31.60	184.61	4.66	-45.2	-56.8	3.8	8.45e-01	0	61	104	3883925504	61	14202
2026-01-18 01:30:35.64	184.72	4.38	-45.2	-56.8	3.8	8.46e-01	0	61	104	3883925504	61	14132
2026-01-18 01:30:39.69	184.83	4.10	-45.2	-56.8	3.8	8.45e-01	0	61	104	3883925504	61	14172
2026-01-18 01:30:43.73	184.94	3.83	-45.2	-56.8	3.8	8.46e-01	0	61	104	3883925504	61	14081
2026-01-18 01:30:47.78	185.05	3.56	-45.1	-56.8	3.8	8.46e-01	0	61	104	3883925504	61	14119
2026-01-18 01:30:51.82	185.16	3.29	-45.1	-56.8	3.8	8.46e-01	0	61	104	3883925504	61	14143
2026-01-18 01:30:55.87	185.26	3.02	-45.1	-56.8	3.8	8.47e-01	0	61	104	3883925504	61	14069
2026-01-18 01:30:59.91	185.37	2.76	-45.1	-56.8	3.8	8.45e-01	0	61	104	3883925504	61	14052
2026-01-18 01:31:03.96	185.47	2.49	-45.1	-56.8	3.8	8.46e-01	0	61	104	3883925504	61	14056
2026-01-18 01:31:08.00	185.57	2.23	-45.1	-56.8	3.8	8.46e-01	0	61	104	3883925504	61	14102

#Closed at: 2026-01-18 01:31:11
#Recorded file [3883 MB]: D:/lorett/data/31039_260118_041651.dat