passes_logs/2026/01/18/R2.0S_Moscow/R2.0S_Moscow__20260118_003903_NOAA_20_JPSS-1_rec.log

#Pass ID: 20260118_003903_NOAA 20 (JPSS-1)
#Satellite: NOAA 20 (JPSS-1)
#Configuration: NOAA 20
#almurnet v.1.7.20251203
#Start time: 2026-01-18 00:39:04

#Version: 2.2.20231116
#Station: R2.0S_Moscow
#Location: 37.707566 lon 55.798166 lat
#TLE: 1 43013U 17073A   26017.30359522  .00000067  00000+0  52526-4 0  9990
#TLE: 2 43013  98.7639 318.2187 0001419  36.2087 323.9184 14.19536557423067

#Time	Az	El	Level	Level2	SNR	BER	BlckErr	Temp	State	Recorded	gain1	gain2
2026-01-18 00:39:04.46	12.34	2.09	-40.0	-54.7	3.8	1.49e+00	0	52	0	0	52	18643
2026-01-18 00:39:08.49	12.18	2.34	-40.0	-54.7	3.8	1.49e+00	0	53	104	0	52	18607
2026-01-18 00:39:12.53	12.03	2.59	-40.0	-54.7	3.8	1.49e+00	0	53	104	0	52	18632
2026-01-18 00:39:16.57	11.87	2.84	-40.0	-54.7	3.8	1.49e+00	0	53	104	0	52	18591
2026-01-18 00:39:20.62	11.70	3.10	-40.0	-54.7	3.8	1.49e+00	0	53	104	0	52	18611
2026-01-18 00:39:24.66	11.54	3.36	-40.0	-54.7	3.8	1.49e+00	0	54	104	0	52	18570
2026-01-18 00:39:28.71	11.36	3.62	-40.0	-54.7	3.8	1.49e+00	0	54	104	0	52	18562
2026-01-18 00:39:32.75	11.19	3.88	-40.0	-54.7	3.8	1.49e+00	0	54	104	0	52	18580
2026-01-18 00:39:36.80	11.01	4.15	-40.0	-54.7	3.8	1.49e+00	0	54	104	0	52	18530
2026-01-18 00:39:40.84	10.83	4.41	-40.0	-54.7	3.8	1.49e+00	0	54	104	0	52	18531
2026-01-18 00:39:44.88	10.65	4.68	-40.0	-54.6	3.8	1.49e+00	0	55	104	0	52	18503
2026-01-18 00:39:48.93	10.46	4.95	-40.0	-54.7	3.8	1.49e+00	0	55	104	0	52	18524
2026-01-18 00:39:52.97	10.27	5.23	-40.0	-54.6	3.8	1.49e+00	0	55	104	0	52	18512
2026-01-18 00:39:57.02	10.08	5.50	-40.0	-54.6	3.8	1.49e+00	0	55	104	0	52	18500
2026-01-18 00:40:01.06	9.88	5.78	-40.0	-54.7	3.8	1.49e+00	0	56	104	0	52	18557
2026-01-18 00:40:05.10	9.67	6.06	-40.0	-54.7	3.8	1.49e+00	0	56	104	0	52	18610
2026-01-18 00:40:09.15	9.46	6.35	-40.0	-54.7	3.8	1.49e+00	0	56	104	0	52	18550
2026-01-18 00:40:13.19	9.25	6.64	-40.0	-54.7	3.8	1.49e+00	0	56	104	0	52	18543
2026-01-18 00:40:17.24	9.04	6.93	-40.0	-54.6	3.8	1.49e+00	0	56	104	0	52	18506
2026-01-18 00:40:21.28	8.81	7.22	-40.0	-54.6	3.8	1.49e+00	0	56	104	0	52	18509
2026-01-18 00:40:25.32	8.59	7.51	-40.0	-54.6	3.8	1.49e+00	0	56	104	0	52	18496
2026-01-18 00:40:29.37	8.36	7.81	-40.0	-54.7	3.8	1.49e+00	0	57	104	0	52	18528
2026-01-18 00:40:33.41	8.12	8.12	-40.1	-54.7	3.8	1.49e+00	0	57	104	0	52	18719
2026-01-18 00:40:37.45	7.88	8.42	-40.2	-54.8	3.8	1.49e+00	0	57	104	0	51	20067
2026-01-18 00:40:41.49	7.63	8.73	-40.1	-54.7	3.8	1.49e+00	0	57	104	0	51	19802
2026-01-18 00:40:45.53	7.38	9.04	-40.1	-54.8	3.8	1.49e+00	0	57	104	0	51	19896
2026-01-18 00:40:49.56	7.12	9.35	-40.2	-54.8	3.8	1.49e+00	0	57	104	0	51	19919
2026-01-18 00:40:53.60	6.85	9.67	-40.3	-55.0	3.8	1.49e+00	0	57	104	0	51	20318
2026-01-18 00:40:57.63	6.58	9.99	-39.9	-54.6	3.8	1.49e+00	0	58	104	0	51	19513
2026-01-18 00:41:01.67	6.31	10.32	-40.1	-54.7	3.8	1.49e+00	0	58	104	0	51	19800
2026-01-18 00:41:05.71	6.02	10.65	-40.0	-54.6	3.8	1.49e+00	0	58	104	0	51	19584
2026-01-18 00:41:09.76	5.73	10.98	-40.2	-54.9	3.8	1.49e+00	0	58	104	0	51	20121
2026-01-18 00:41:13.80	5.43	11.31	-40.3	-55.0	3.8	1.49e+00	0	58	104	0	52	19322
2026-01-18 00:41:17.84	5.13	11.65	-40.6	-55.3	3.8	1.49e+00	0	58	104	0	52	19911
2026-01-18 00:41:21.88	4.81	12.00	-41.1	-51.8	4.4	1.48e+00	62	58	104	0	53	12551
2026-01-18 00:41:25.92	4.49	12.35	-41.4	-54.4	3.8	1.49e+00	0	58	104	1048576	53	16958
2026-01-18 00:41:29.96	4.17	12.70	-41.3	-52.0	4.4	1.36e+00	62	58	0	1048576	53	12926
2026-01-18 00:41:34.00	3.83	13.05	-41.6	-51.6	4.7	9.34e-01	0	59	0	8388608	53	12284
2026-01-18 00:41:38.03	3.48	13.41	-41.5	-48.4	7.4	1.35e-01	0	59	0	15728640	53	8534
2026-01-18 00:41:42.07	3.13	13.78	-40.5	-45.4	10.5	4.71e-03	0	58	0	24117248	53	6051
2026-01-18 00:41:46.11	2.77	14.15	-41.0	-46.4	9.5	1.12e-02	0	59	0	31457280	52	7198
2026-01-18 00:41:50.15	2.39	14.52	-41.4	-46.8	9.4	2.27e-02	0	59	0	38797312	53	7096
2026-01-18 00:41:54.19	2.01	14.90	-41.4	-46.6	9.7	9.58e-03	0	59	0	46137344	53	6925
2026-01-18 00:41:58.23	1.62	15.28	-41.6	-47.0	9.5	1.08e-02	0	59	0	53477376	53	7275
2026-01-18 00:42:02.26	1.21	15.67	-41.8	-46.9	9.9	8.58e-03	0	59	0	61865984	54	6774
2026-01-18 00:42:06.30	0.80	16.06	-41.8	-46.8	10.2	5.05e-03	0	59	0	69206016	54	6663
2026-01-18 00:42:10.34	0.37	16.46	-41.9	-46.9	10.0	7.88e-03	0	59	0	76546048	54	6772
2026-01-18 00:42:14.38	359.93	16.86	-41.8	-46.5	10.5	4.32e-03	0	59	0	83886080	54	6466
2026-01-18 00:42:18.42	359.48	17.27	-41.8	-46.6	10.5	3.91e-03	0	59	0	92274688	54	6524
2026-01-18 00:42:22.45	359.02	17.68	-41.9	-46.8	10.3	4.54e-03	0	59	0	99614720	54	6667
2026-01-18 00:42:26.49	358.54	18.09	-41.9	-46.9	10.1	6.56e-03	0	59	0	106954752	54	6781
2026-01-18 00:42:30.53	358.05	18.51	-41.8	-46.7	10.2	6.00e-03	0	59	0	114294784	54	6623
2026-01-18 00:42:34.57	357.55	18.94	-41.5	-46.2	10.5	3.85e-03	0	59	0	121634816	54	6264
2026-01-18 00:42:38.61	357.03	19.37	-41.3	-46.2	10.4	4.57e-03	0	59	0	130023424	54	6212
2026-01-18 00:42:42.65	356.49	19.81	-41.7	-47.8	8.4	3.99e-02	0	60	0	137363456	54	7541
2026-01-18 00:42:46.69	355.94	20.25	-41.9	-48.8	7.3	1.31e-01	0	60	0	144703488	54	8412
2026-01-18 00:42:50.72	355.37	20.69	-41.8	-48.0	8.4	5.52e-02	0	60	0	152043520	54	7631
2026-01-18 00:42:54.76	354.79	21.15	-41.3	-46.6	9.7	1.36e-02	0	60	0	160432128	54	6510
2026-01-18 00:42:58.80	354.19	21.60	-41.4	-46.6	9.6	1.19e-02	0	60	0	167772160	54	6552
2026-01-18 00:43:02.83	353.57	22.06	-41.5	-46.9	9.4	1.68e-02	0	60	0	175112192	54	6781
2026-01-18 00:43:06.87	352.93	22.53	-41.9	-47.3	9.3	1.45e-02	0	60	0	182452224	54	7121
2026-01-18 00:43:10.91	352.27	23.00	-41.9	-46.8	10.1	1.09e-02	0	60	0	189792256	54	6679
2026-01-18 00:43:14.96	351.58	23.47	-42.2	-47.3	9.9	8.81e-03	0	60	0	198180864	55	6655
2026-01-18 00:43:19.00	350.88	23.95	-42.2	-47.1	10.2	6.09e-03	0	60	0	205520896	55	6539
2026-01-18 00:43:23.03	350.16	24.43	-42.2	-46.9	10.5	4.72e-03	0	60	0	212860928	55	6390
2026-01-18 00:43:27.07	349.41	24.92	-42.2	-46.9	10.6	3.70e-03	0	60	0	220200960	55	6374
2026-01-18 00:43:31.11	348.64	25.41	-42.2	-46.8	10.7	3.77e-03	0	60	0	228589568	55	6312
2026-01-18 00:43:35.15	347.84	25.90	-42.4	-47.3	10.3	5.86e-03	0	60	0	235929600	55	6675
2026-01-18 00:43:39.19	347.02	26.40	-42.5	-47.3	10.4	5.32e-03	0	60	0	243269632	55	6717
2026-01-18 00:43:43.23	346.17	26.90	-42.9	-48.1	9.9	8.63e-03	0	60	0	250609664	56	6885
2026-01-18 00:43:47.27	345.30	27.40	-43.1	-48.4	9.6	1.40e-02	0	60	0	257949696	56	7165
2026-01-18 00:43:51.31	344.39	27.90	-43.4	-49.2	8.7	3.37e-02	0	60	0	266338304	57	7449
2026-01-18 00:43:55.35	343.46	28.40	-43.5	-49.3	8.6	3.24e-02	0	60	0	273678336	57	7525
2026-01-18 00:43:59.39	342.49	28.91	-43.5	-49.3	8.7	3.20e-02	0	60	0	281018368	57	7494
2026-01-18 00:44:03.43	341.50	29.41	-43.5	-49.2	8.9	2.98e-02	0	60	0	288358400	57	7409
2026-01-18 00:44:07.46	340.48	29.91	-43.5	-49.0	9.1	2.33e-02	0	60	0	296747008	57	7280
2026-01-18 00:44:11.51	339.41	30.41	-43.6	-49.5	8.6	3.81e-02	0	60	0	304087040	57	7694
2026-01-18 00:44:15.54	338.32	30.91	-43.9	-50.4	7.7	8.37e-02	0	61	0	311427072	58	8078
2026-01-18 00:44:19.58	337.19	31.40	-43.6	-49.4	8.7	3.56e-02	0	61	0	318767104	58	7183
2026-01-18 00:44:23.62	336.03	31.89	-43.5	-48.9	9.3	1.66e-02	0	60	0	326107136	58	6739
2026-01-18 00:44:27.66	334.83	32.37	-43.5	-49.1	9.1	2.10e-02	0	60	0	334495744	58	6908
2026-01-18 00:44:31.70	333.60	32.85	-43.6	-49.2	9.1	2.26e-02	0	60	0	341835776	58	6986
2026-01-18 00:44:35.74	332.33	33.31	-43.6	-49.2	9.0	2.22e-02	0	60	0	349175808	58	6983
2026-01-18 00:44:39.77	331.02	33.77	-43.9	-50.1	8.1	5.71e-02	0	60	0	356515840	58	7767
2026-01-18 00:44:43.82	329.67	34.22	-43.9	-50.0	8.2	6.22e-02	0	60	0	364904448	58	7637
2026-01-18 00:44:47.86	328.29	34.66	-44.2	-51.3	7.0	1.44e-01	0	60	0	372244480	58	8904
2026-01-18 00:44:51.90	326.87	35.08	-44.2	-51.2	7.1	1.47e-01	0	60	0	379584512	59	8302
2026-01-18 00:44:55.94	325.41	35.48	-43.9	-50.1	8.0	6.97e-02	0	61	0	386924544	59	7330
2026-01-18 00:44:59.97	323.92	35.87	-43.9	-50.1	8.2	5.61e-02	0	60	0	394264576	59	7291
2026-01-18 00:45:04.01	322.39	36.24	-43.8	-49.6	8.6	3.73e-02	0	61	0	402653184	59	6910
2026-01-18 00:45:08.05	320.83	36.60	-43.4	-48.6	9.7	1.57e-02	0	61	0	409993216	58	6524
2026-01-18 00:45:12.08	319.23	36.93	-43.0	-47.6	10.7	3.12e-03	0	61	0	417333248	58	5836
2026-01-18 00:45:16.12	317.60	37.23	-43.0	-47.5	10.9	2.22e-03	0	61	0	424673280	57	6078
2026-01-18 00:45:20.16	315.94	37.52	-42.6	-46.7	11.6	7.19e-04	0	60	0	433061888	57	5571
2026-01-18 00:45:24.19	314.26	37.77	-42.6	-46.6	11.8	5.00e-04	0	61	0	440401920	57	5482
2026-01-18 00:45:28.23	312.55	38.01	-42.4	-46.3	12.1	2.95e-04	0	60	0	447741952	56	5610
2026-01-18 00:45:32.27	310.81	38.21	-42.1	-45.7	12.8	6.25e-05	0	61	0	455081984	56	5226
2026-01-18 00:45:36.31	309.05	38.38	-41.9	-45.4	12.8	6.40e-05	0	60	0	462422016	55	5402
2026-01-18 00:45:40.35	307.28	38.53	-42.0	-45.6	12.7	4.34e-05	0	61	0	470810624	55	5473
2026-01-18 00:45:44.39	305.49	38.64	-41.6	-44.8	13.5	9.90e-06	0	60	0	478150656	55	5003
2026-01-18 00:45:48.43	303.69	38.72	-41.5	-44.7	13.5	9.10e-06	0	61	0	485490688	55	4971
2026-01-18 00:45:52.47	301.88	38.77	-41.9	-45.3	12.9	3.81e-05	0	61	0	492830720	55	5340
2026-01-18 00:45:56.51	300.07	38.78	-42.2	-46.0	12.2	2.43e-04	0	61	0	501219328	55	5766
2026-01-18 00:46:00.55	298.26	38.77	-42.4	-46.5	11.7	4.65e-04	0	61	0	508559360	55	6071
2026-01-18 00:46:04.58	296.46	38.72	-42.8	-47.2	11.1	2.12e-03	0	61	0	515899392	56	6250
2026-01-18 00:46:08.62	294.66	38.64	-42.8	-47.0	11.3	8.91e-04	0	61	0	523239424	56	6062
2026-01-18 00:46:12.65	292.87	38.52	-43.0	-47.5	10.9	2.07e-03	0	61	0	530579456	56	6434
2026-01-18 00:46:16.69	291.10	38.38	-43.3	-48.2	10.0	7.82e-03	0	60	0	538968064	57	6637
2026-01-18 00:46:20.73	289.34	38.21	-43.3	-48.3	9.9	8.87e-03	0	61	0	546308096	57	6702
2026-01-18 00:46:24.77	287.60	38.00	-43.6	-49.3	8.9	2.46e-02	0	61	0	553648128	57	7472
2026-01-18 00:46:28.81	285.88	37.77	-43.8	-49.7	8.5	5.21e-02	0	61	0	560988160	58	7384
2026-01-18 00:46:32.85	284.19	37.51	-43.5	-48.8	9.4	1.45e-02	0	61	0	568328192	58	6705
2026-01-18 00:46:36.88	282.53	37.23	-43.4	-48.5	9.7	1.07e-02	0	61	0	576716800	58	6455
2026-01-18 00:46:40.93	280.90	36.92	-43.0	-47.6	10.7	3.69e-03	0	61	0	584056832	58	5841
2026-01-18 00:46:44.97	279.30	36.59	-42.4	-46.3	12.0	4.32e-04	0	61	0	591396864	56	5640
2026-01-18 00:46:49.01	277.73	36.23	-42.6	-46.6	11.7	5.34e-04	0	61	0	598736896	56	5827
2026-01-18 00:46:53.05	276.20	35.86	-42.0	-45.5	12.8	6.33e-05	0	61	0	607125504	56	5144
2026-01-18 00:46:57.09	274.70	35.47	-42.4	-46.5	11.6	4.74e-04	0	61	0	614465536	55	6076
2026-01-18 00:47:01.13	273.24	35.06	-42.6	-46.8	11.3	1.34e-03	0	61	0	621805568	55	6314
2026-01-18 00:47:05.17	271.82	34.64	-42.9	-47.4	10.9	1.94e-03	0	61	0	629145600	56	6350
2026-01-18 00:47:09.21	270.43	34.20	-43.1	-47.8	10.5	3.87e-03	0	61	0	637534208	56	6674
2026-01-18 00:47:13.24	269.08	33.75	-42.9	-47.5	10.8	2.33e-03	0	61	0	644874240	56	6449
2026-01-18 00:47:17.28	267.77	33.29	-43.2	-48.3	9.9	6.90e-03	0	61	0	652214272	57	6657
2026-01-18 00:47:21.32	266.50	32.82	-43.3	-48.3	9.9	1.01e-02	0	61	0	659554304	57	6697
2026-01-18 00:47:25.36	265.26	32.35	-43.1	-47.9	10.2	5.27e-03	0	61	0	666894336	57	6405
2026-01-18 00:47:29.41	264.05	31.86	-43.5	-49.1	9.0	2.26e-02	0	61	0	675282944	57	7355
2026-01-18 00:47:33.44	262.89	31.37	-43.3	-48.5	9.6	1.23e-02	0	61	0	682622976	57	6857
2026-01-18 00:47:37.48	261.76	30.87	-43.6	-49.2	8.9	2.35e-02	0	61	0	689963008	57	7433
2026-01-18 00:47:41.52	260.66	30.38	-43.4	-48.8	9.4	1.71e-02	0	61	0	697303040	57	7060
2026-01-18 00:47:45.56	259.60	29.87	-43.1	-48.0	10.2	6.97e-03	0	61	0	705691648	57	6440
2026-01-18 00:47:49.60	258.57	29.37	-43.1	-47.9	10.3	5.65e-03	0	61	0	713031680	57	6366
2026-01-18 00:47:53.63	257.57	28.87	-42.7	-46.9	11.3	1.81e-03	0	61	0	720371712	57	5717
2026-01-18 00:47:57.67	256.61	28.36	-42.6	-46.9	11.3	9.86e-04	0	61	0	727711744	57	5681
2026-01-18 00:48:01.71	255.67	27.86	-42.5	-46.6	11.7	6.58e-04	0	61	0	735051776	56	5821
2026-01-18 00:48:05.75	254.76	27.35	-42.2	-45.9	12.3	1.53e-04	0	61	0	743440384	56	5386
2026-01-18 00:48:09.80	253.88	26.85	-42.3	-46.2	12.1	2.85e-04	0	61	0	750780416	56	5534
2026-01-18 00:48:13.83	253.03	26.35	-42.0	-45.6	12.6	1.07e-04	0	61	0	758120448	56	5201
2026-01-18 00:48:17.87	252.20	25.85	-41.8	-45.3	12.8	5.79e-05	0	61	0	765460480	55	5298
2026-01-18 00:48:21.92	251.40	25.35	-41.9	-45.6	12.5	1.40e-04	0	61	0	773849088	55	5471
2026-01-18 00:48:25.95	250.63	24.86	-41.8	-45.4	12.6	8.31e-05	0	61	0	781189120	55	5361
2026-01-18 00:48:29.99	249.88	24.37	-42.0	-45.8	12.2	2.28e-04	0	61	0	788529152	55	5639
2026-01-18 00:48:34.02	249.15	23.89	-42.0	-45.8	12.2	2.11e-04	0	61	0	795869184	55	5652
2026-01-18 00:48:38.06	248.45	23.41	-42.0	-45.8	12.2	1.74e-04	0	61	0	803209216	55	5605
2026-01-18 00:48:42.10	247.76	22.93	-41.9	-45.5	12.5	1.09e-04	0	61	0	811597824	55	5451
2026-01-18 00:48:46.14	247.10	22.46	-42.0	-45.9	12.1	2.80e-04	0	61	0	818937856	55	5672
2026-01-18 00:48:50.18	246.45	21.99	-42.0	-45.9	12.1	2.76e-04	0	61	0	826277888	55	5674
2026-01-18 00:48:54.22	245.83	21.53	-42.1	-46.2	11.7	4.66e-04	0	61	0	833617920	55	5875
2026-01-18 00:48:58.25	245.23	21.07	-42.3	-46.6	11.3	9.37e-04	0	61	0	842006528	55	6133
2026-01-18 00:49:02.29	244.64	20.62	-42.4	-46.7	11.2	1.24e-03	0	61	0	849346560	55	6217
2026-01-18 00:49:06.33	244.07	20.17	-42.4	-46.7	11.2	1.30e-03	0	61	0	856686592	55	6225
2026-01-18 00:49:10.37	243.51	19.73	-42.4	-46.8	11.0	1.66e-03	0	61	0	864026624	55	6343
2026-01-18 00:49:14.41	242.97	19.29	-42.4	-46.7	11.1	1.78e-03	0	61	0	871366656	55	6267
2026-01-18 00:49:18.45	242.45	18.86	-42.5	-46.9	11.0	1.94e-03	0	61	0	879755264	55	6391
2026-01-18 00:49:22.49	241.94	18.43	-42.6	-47.2	10.6	3.35e-03	0	61	0	887095296	55	6622
2026-01-18 00:49:26.53	241.45	18.01	-42.4	-46.8	11.0	2.46e-03	0	61	0	894435328	55	6329
2026-01-18 00:49:30.57	240.97	17.59	-42.3	-46.7	11.2	1.61e-03	0	61	0	901775360	55	6204
2026-01-18 00:49:34.61	240.50	17.18	-42.4	-46.9	11.0	2.05e-03	0	61	0	910163968	55	6357
2026-01-18 00:49:38.65	240.05	16.77	-42.4	-46.9	10.8	2.85e-03	0	61	0	917504000	55	6417
2026-01-18 00:49:42.68	239.61	16.37	-42.4	-46.8	11.0	2.36e-03	0	61	0	924844032	55	6343
2026-01-18 00:49:46.72	239.18	15.97	-42.4	-46.8	11.0	2.60e-03	0	61	0	932184064	55	6319
2026-01-18 00:49:50.76	238.76	15.58	-42.4	-47.0	10.7	3.08e-03	0	61	0	939524096	55	6466
2026-01-18 00:49:54.80	238.35	15.19	-42.5	-47.2	10.5	3.66e-03	0	61	0	947912704	55	6588
2026-01-18 00:49:58.84	237.95	14.80	-42.5	-47.1	10.6	3.25e-03	0	61	0	955252736	55	6521
2026-01-18 00:50:02.88	237.57	14.43	-42.3	-46.7	11.0	2.53e-03	0	61	0	962592768	55	6255
2026-01-18 00:50:06.91	237.19	14.05	-42.3	-46.9	10.8	2.44e-03	0	61	0	969932800	55	6364
2026-01-18 00:50:10.95	236.82	13.68	-42.5	-47.3	10.2	5.61e-03	0	61	0	978321408	55	6709
2026-01-18 00:50:14.99	236.46	13.32	-42.7	-47.8	9.7	1.08e-02	0	61	0	985661440	55	7106
2026-01-18 00:50:19.03	236.11	12.95	-42.6	-47.7	9.8	9.50e-03	0	61	0	993001472	55	7011
2026-01-18 00:50:23.07	235.77	12.60	-42.7	-47.9	9.6	1.19e-02	0	61	0	1000341504	55	7196
2026-01-18 00:50:27.11	235.44	12.24	-42.9	-48.3	9.4	1.61e-02	0	61	0	1007681536	56	7079
2026-01-18 00:50:31.14	235.12	11.90	-42.8	-48.2	9.4	1.83e-02	0	61	0	1016070144	56	7034
2026-01-18 00:50:35.18	234.80	11.55	-42.8	-48.3	9.3	1.66e-02	0	61	0	1023410176	56	7075
2026-01-18 00:50:39.22	234.49	11.21	-42.8	-48.0	9.6	1.24e-02	0	61	0	1030750208	56	6868
2026-01-18 00:50:43.26	234.19	10.87	-42.8	-48.3	9.3	1.74e-02	0	61	0	1038090240	56	7046
2026-01-18 00:50:47.29	233.90	10.54	-43.0	-48.8	8.7	3.20e-02	0	61	0	1045430272	56	7491
2026-01-18 00:50:51.33	233.61	10.21	-43.0	-49.0	8.5	3.77e-02	0	61	0	1053818880	56	7654
2026-01-18 00:50:55.37	233.33	9.88	-43.0	-49.0	8.5	4.77e-02	0	61	0	1061158912	56	7698
2026-01-18 00:50:59.41	233.05	9.56	-43.0	-49.1	8.4	4.98e-02	0	61	0	1068498944	56	7731
2026-01-18 00:51:03.45	232.78	9.24	-42.9	-48.9	8.6	3.92e-02	0	61	0	1075838976	56	7547
2026-01-18 00:51:07.48	232.52	8.93	-43.0	-49.0	8.4	4.95e-02	0	61	0	1084227584	56	7664
2026-01-18 00:51:11.52	232.27	8.62	-43.0	-49.3	8.0	5.83e-02	0	61	0	1091567616	56	7952
2026-01-18 00:51:15.56	232.01	8.31	-43.1	-49.7	7.7	8.91e-02	0	61	0	1098907648	56	8301
2026-01-18 00:51:19.60	231.77	8.00	-44.2	-56.1	4.0	1.20e-01	11	61	0	1106247680	58	15496
2026-01-18 00:51:23.64	231.53	7.70	-45.1	-59.7	3.8	1.49e+00	0	61	104	1106247680	60	20856
2026-01-18 00:51:27.69	231.29	7.40	-45.3	-59.9	3.8	1.49e+00	0	61	104	1106247680	61	20133
2026-01-18 00:51:31.73	231.06	7.10	-45.2	-59.8	3.8	1.49e+00	0	61	104	1106247680	61	19920
2026-01-18 00:51:35.77	230.84	6.81	-45.3	-59.7	3.8	1.49e+00	0	61	104	1106247680	61	19835
2026-01-18 00:51:39.81	230.61	6.52	-45.2	-59.7	3.8	1.49e+00	0	61	104	1106247680	61	19783
2026-01-18 00:51:43.86	230.40	6.23	-45.2	-59.7	3.8	1.49e+00	0	61	104	1106247680	61	19690
2026-01-18 00:51:47.90	230.19	5.95	-45.2	-59.7	3.8	1.49e+00	0	61	104	1106247680	61	19732
2026-01-18 00:51:51.94	229.98	5.67	-45.2	-59.7	3.8	1.49e+00	0	61	104	1106247680	61	19693
2026-01-18 00:51:55.99	229.77	5.39	-45.2	-59.7	3.8	1.49e+00	0	61	104	1106247680	61	19644
2026-01-18 00:52:00.03	229.57	5.11	-45.2	-59.7	3.8	1.49e+00	0	61	104	1106247680	61	19629
2026-01-18 00:52:04.08	229.38	4.83	-45.1	-59.7	3.8	1.49e+00	0	61	104	1106247680	61	19636
2026-01-18 00:52:08.12	229.18	4.56	-45.1	-59.6	3.8	1.49e+00	0	61	104	1106247680	61	19504
2026-01-18 00:52:12.16	229.00	4.29	-45.2	-59.6	3.8	1.49e+00	0	61	104	1106247680	61	19586
2026-01-18 00:52:16.20	228.81	4.03	-45.2	-59.7	3.8	1.49e+00	0	61	104	1106247680	61	19616
2026-01-18 00:52:20.25	228.63	3.76	-45.1	-59.6	3.8	1.49e+00	0	61	104	1106247680	61	19521
2026-01-18 00:52:24.29	228.45	3.50	-45.1	-59.6	3.8	1.49e+00	0	61	104	1106247680	61	19598
2026-01-18 00:52:28.34	228.28	3.24	-45.1	-59.6	3.8	1.49e+00	0	61	104	1106247680	61	19612
2026-01-18 00:52:32.38	228.11	2.98	-45.1	-59.6	3.8	1.49e+00	0	61	104	1106247680	61	19588
2026-01-18 00:52:36.42	227.94	2.72	-45.1	-59.7	3.8	1.49e+00	0	61	104	1106247680	61	19634
2026-01-18 00:52:40.46	227.77	2.47	-45.1	-59.6	3.8	1.49e+00	0	61	104	1106247680	61	19588
2026-01-18 00:52:44.51	227.61	2.22	-45.1	-59.7	3.8	1.49e+00	0	61	104	1106247680	61	19647
2026-01-18 00:52:48.55	227.45	1.97	-45.1	-59.6	3.8	1.49e+00	0	61	104	1106247680	61	19515

#Closed at: 2026-01-18 00:52:49
#Recorded file [1106 MB]: D:/lorett/data/31039_260118_033904.dat