passes_logs/2026/01/18/R2.0S_Moscow/R2.0S_Moscow__20260118_234305_FENGYUN_3G_rec.log

#Pass ID: 20260118_234305_FENGYUN 3G
#Satellite: FENGYUN 3G
#Configuration: FENGYUN 3G
#almurnet v.1.7.20251203
#Start time: 2026-01-18 23:44:25

#Version: 2.2.20231116
#Station: R2.0S_Moscow
#Location: 37.707566 lon 55.798166 lat
#TLE: 1 56232U 23055A   26017.94343179  .00026793  00000+0  41706-3 0  9996
#TLE: 2 56232  49.9938  40.7454 0004132  42.1181 318.0104 15.53646528156658

#Time	Az	El	Level	Level2	SNR	BER	BlckErr	Temp	State	Recorded	gain1	gain2
2026-01-18 23:44:25.62	254.13	7.41	-45.1	-57.4	3.8	1.49e+00	0	61	0	0	61	15081
2026-01-18 23:44:27.63	253.82	7.56	-45.4	-63.4	3.8	8.46e-01	0	62	104	0	62	28527
2026-01-18 23:44:29.65	253.49	7.71	-45.4	-63.4	3.8	8.46e-01	0	62	104	0	62	28567
2026-01-18 23:44:31.67	253.16	7.86	-45.4	-63.4	3.8	8.45e-01	0	62	104	0	62	28498
2026-01-18 23:44:33.70	252.83	8.01	-45.3	-63.3	3.8	8.46e-01	0	62	104	0	62	28209
2026-01-18 23:44:35.72	252.49	8.16	-45.1	-63.1	3.8	8.46e-01	0	62	104	0	62	27487
2026-01-18 23:44:37.74	252.14	8.32	-44.7	-62.0	3.8	8.46e-01	0	62	104	0	61	25602
2026-01-18 23:44:39.76	251.80	8.47	-44.6	-62.4	3.8	8.44e-01	0	61	104	0	61	26913
2026-01-18 23:44:41.78	251.44	8.63	-44.6	-62.1	3.8	8.46e-01	0	62	104	0	61	25937
2026-01-18 23:44:43.80	251.08	8.78	-44.6	-61.4	3.8	8.48e-01	0	62	104	0	61	24082
2026-01-18 23:44:45.82	250.72	8.94	-44.5	-61.1	3.8	8.44e-01	0	62	104	0	61	23092
2026-01-18 23:44:47.84	250.35	9.09	-44.6	-61.3	3.8	8.46e-01	0	61	104	0	61	23590
2026-01-18 23:44:49.86	249.97	9.25	-44.5	-61.2	3.8	8.45e-01	0	62	104	0	61	23513
2026-01-18 23:44:51.88	249.59	9.41	-44.5	-61.0	3.8	8.45e-01	0	62	104	0	61	23022
2026-01-18 23:44:53.91	249.20	9.57	-44.5	-59.3	4.1	8.47e-01	0	62	0	0	61	18943
2026-01-18 23:44:55.93	248.81	9.72	-44.4	-57.7	4.6	8.36e-01	0	61	0	0	60	16679
2026-01-18 23:44:57.94	248.41	9.88	-44.5	-59.0	4.2	8.18e-01	0	62	0	0	60	19246
2026-01-18 23:44:59.96	248.01	10.04	-44.5	-61.7	3.8	8.40e-01	0	62	104	0	60	26347
2026-01-18 23:45:01.98	247.60	10.20	-44.6	-62.2	3.8	8.45e-01	0	62	104	0	60	28004
2026-01-18 23:45:04.01	247.18	10.36	-44.5	-60.7	3.8	8.46e-01	0	61	104	0	60	23511
2026-01-18 23:45:06.03	246.76	10.52	-44.4	-57.4	4.7	8.44e-01	0	61	0	0	60	16122
2026-01-18 23:45:08.05	246.33	10.69	-44.1	-54.1	7.2	4.43e-01	0	62	0	1048576	60	10946
2026-01-18 23:45:10.07	245.89	10.85	-43.6	-50.9	10.5	7.59e-02	0	62	0	3145728	59	8058
2026-01-18 23:45:12.09	245.45	11.01	-43.4	-50.3	11.2	6.80e-03	0	62	0	5767168	58	7943
2026-01-18 23:45:14.11	245.00	11.17	-44.3	-55.2	6.5	2.17e-02	0	62	0	7864320	59	13160
2026-01-18 23:45:16.13	244.55	11.33	-44.2	-54.6	6.5	6.08e-01	0	62	0	7864320	59	12298
2026-01-18 23:45:18.15	244.09	11.50	-42.2	-46.7	14.8	7.60e-04	0	62	0	9961472	56	5909
2026-01-18 23:45:20.17	243.62	11.66	-41.3	-45.2	16.3	0.00e+00	0	61	0	12058624	54	5557
2026-01-18 23:45:22.19	243.14	11.82	-40.9	-44.3	16.8	0.00e+00	0	62	0	14680064	53	5304
2026-01-18 23:45:24.21	242.66	11.98	-42.5	-47.4	13.6	2.98e-01	0	62	0	16252928	57	5994
2026-01-18 23:45:26.23	242.17	12.15	-40.8	-44.3	17.2	4.34e-05	0	62	0	18874368	53	5298
2026-01-18 23:45:28.25	241.67	12.31	-40.2	-43.3	18.2	0.00e+00	0	62	0	20971520	52	5009
2026-01-18 23:45:30.27	241.17	12.47	-40.0	-42.8	18.7	0.00e+00	0	62	0	23068672	51	5016
2026-01-18 23:45:32.29	240.65	12.64	-39.9	-42.7	18.9	0.00e+00	0	61	0	25690112	51	4934
2026-01-18 23:45:34.31	240.13	12.80	-40.1	-43.0	18.6	0.00e+00	0	61	0	27787264	51	5111
2026-01-18 23:45:36.33	239.61	12.96	-40.4	-43.5	18.1	0.00e+00	0	61	0	29884416	51	5440
2026-01-18 23:45:38.34	239.07	13.12	-40.4	-43.5	18.1	0.00e+00	0	62	0	32505856	51	5430
2026-01-18 23:45:40.36	238.53	13.28	-40.2	-43.1	18.5	0.00e+00	0	62	0	34603008	51	5199
2026-01-18 23:45:42.38	237.98	13.44	-40.0	-42.9	18.7	0.00e+00	0	61	0	36700160	51	5065
2026-01-18 23:45:44.40	237.42	13.60	-40.0	-42.9	18.7	0.00e+00	0	61	0	39321600	51	5060
2026-01-18 23:45:46.42	236.86	13.76	-40.1	-43.0	18.6	0.00e+00	0	62	0	41418752	51	5122
2026-01-18 23:45:48.44	236.28	13.92	-39.9	-42.7	18.9	0.00e+00	0	61	0	43515904	51	4950
2026-01-18 23:45:50.46	235.70	14.08	-39.9	-42.7	18.9	0.00e+00	0	61	0	46137344	51	4981
2026-01-18 23:45:52.48	235.11	14.24	-40.0	-42.9	18.8	0.00e+00	0	62	0	48234496	51	5055
2026-01-18 23:45:54.50	234.51	14.39	-39.9	-42.7	18.9	0.00e+00	0	62	0	50331648	51	4979
2026-01-18 23:45:56.51	233.91	14.55	-39.9	-42.6	19.0	0.00e+00	0	62	0	52953088	51	4920
2026-01-18 23:45:58.53	233.30	14.70	-39.8	-42.5	19.2	0.00e+00	0	62	0	55050240	51	4845
2026-01-18 23:46:00.55	232.67	14.86	-39.7	-42.4	19.4	0.00e+00	0	61	0	57147392	51	4763
2026-01-18 23:46:02.57	232.04	15.01	-39.8	-42.5	19.2	0.00e+00	0	62	0	59768832	51	4841
2026-01-18 23:46:04.59	231.41	15.16	-39.9	-42.6	19.1	0.00e+00	0	61	0	61865984	51	4925
2026-01-18 23:46:06.61	230.76	15.30	-39.9	-42.7	19.0	0.00e+00	0	62	0	63963136	51	4966
2026-01-18 23:46:08.62	230.11	15.45	-39.9	-42.6	19.1	0.00e+00	0	61	0	66584576	51	4909
2026-01-18 23:46:10.64	229.44	15.59	-39.8	-42.6	19.2	0.00e+00	0	61	0	68681728	51	4873
2026-01-18 23:46:12.66	228.77	15.74	-39.3	-41.8	20.0	0.00e+00	0	62	0	70778880	50	4708
2026-01-18 23:46:14.68	228.09	15.88	-39.0	-41.4	20.3	0.00e+00	0	62	0	73400320	50	4510
2026-01-18 23:46:16.70	227.40	16.02	-39.2	-41.6	20.1	0.00e+00	0	62	0	75497472	50	4642
2026-01-18 23:46:18.72	226.71	16.15	-39.3	-41.7	20.1	0.00e+00	0	61	0	77594624	50	4678
2026-01-18 23:46:20.74	226.00	16.29	-39.2	-41.6	20.2	0.00e+00	0	62	0	80216064	50	4614
2026-01-18 23:46:22.75	225.30	16.42	-39.1	-41.5	20.3	0.00e+00	0	62	0	82313216	50	4582
2026-01-18 23:46:24.78	224.57	16.54	-38.9	-41.3	20.5	0.00e+00	0	62	0	84410368	49	4724
2026-01-18 23:46:26.79	223.85	16.67	-39.1	-41.5	20.2	0.00e+00	0	61	0	87031808	49	4855
2026-01-18 23:46:28.81	223.12	16.79	-39.3	-41.7	20.1	0.00e+00	0	62	0	89128960	49	4971
2026-01-18 23:46:30.83	222.37	16.91	-39.1	-41.6	20.2	0.00e+00	0	61	0	91226112	49	4871
2026-01-18 23:46:32.85	221.63	17.03	-39.0	-41.4	20.4	0.00e+00	0	61	0	93847552	49	4787
2026-01-18 23:46:34.87	220.87	17.14	-39.0	-41.4	20.4	0.00e+00	0	61	0	95944704	49	4772
2026-01-18 23:46:36.88	220.11	17.25	-38.9	-41.3	20.5	0.00e+00	0	61	0	98041856	49	4739
2026-01-18 23:46:38.90	219.34	17.35	-38.9	-41.2	20.6	0.00e+00	0	61	0	100663296	49	4702
2026-01-18 23:46:40.92	218.56	17.45	-38.8	-41.1	20.7	0.00e+00	0	61	0	102760448	49	4643
2026-01-18 23:46:42.94	217.78	17.55	-38.9	-41.2	20.6	0.00e+00	0	61	0	104857600	49	4686
2026-01-18 23:46:44.96	216.99	17.64	-39.0	-41.3	20.5	0.00e+00	0	61	0	107479040	49	4754
2026-01-18 23:46:46.97	216.20	17.73	-38.5	-40.7	21.2	0.00e+00	0	61	0	109576192	49	4393
2026-01-18 23:46:48.99	215.40	17.82	-38.6	-40.8	20.7	0.00e+00	0	61	0	111673344	48	4720
2026-01-18 23:46:51.01	214.59	17.90	-38.9	-41.1	20.7	0.00e+00	0	61	0	114294784	48	4919
2026-01-18 23:46:53.03	213.78	17.97	-38.7	-40.9	21.0	0.00e+00	0	61	0	116391936	48	4789
2026-01-18 23:46:55.05	212.97	18.04	-38.5	-40.7	21.1	0.00e+00	0	61	0	118489088	48	4694
2026-01-18 23:46:57.07	212.15	18.11	-38.2	-40.3	21.5	0.00e+00	0	61	0	121110528	48	4489
2026-01-18 23:46:59.08	211.33	18.17	-38.2	-40.2	21.6	0.00e+00	0	61	0	123207680	48	4440
2026-01-18 23:47:01.10	210.50	18.23	-38.2	-40.3	21.5	0.00e+00	0	61	0	125304832	48	4472
2026-01-18 23:47:03.12	209.66	18.28	-38.3	-40.4	21.5	0.00e+00	0	61	0	127926272	48	4529
2026-01-18 23:47:05.14	208.83	18.33	-38.4	-40.5	21.4	0.00e+00	0	61	0	130023424	48	4570
2026-01-18 23:47:07.16	207.99	18.37	-38.5	-40.6	21.2	0.00e+00	0	61	0	132120576	48	4648
2026-01-18 23:47:09.18	207.15	18.40	-38.6	-40.7	21.1	0.00e+00	0	61	0	134742016	48	4702
2026-01-18 23:47:11.20	206.30	18.43	-38.7	-41.0	20.9	0.00e+00	0	61	0	136839168	48	4819
2026-01-18 23:47:13.22	205.46	18.46	-38.7	-40.9	21.0	0.00e+00	0	62	0	138936320	48	4786
2026-01-18 23:47:15.23	204.61	18.48	-38.6	-40.8	21.1	0.00e+00	0	61	0	141557760	48	4718
2026-01-18 23:47:17.25	203.77	18.50	-38.7	-40.9	20.9	0.00e+00	0	61	0	143654912	48	4806
2026-01-18 23:47:19.27	202.92	18.50	-38.6	-40.8	21.0	0.00e+00	0	61	0	145752064	48	4736
2026-01-18 23:47:21.29	202.07	18.51	-38.7	-40.9	20.9	0.00e+00	0	61	0	148373504	48	4799
2026-01-18 23:47:23.31	201.22	18.51	-38.6	-40.8	21.0	0.00e+00	0	61	0	150470656	48	4707
2026-01-18 23:47:25.33	200.37	18.50	-38.3	-40.4	21.4	0.00e+00	0	61	0	152567808	48	4524
2026-01-18 23:47:27.35	199.52	18.49	-38.2	-40.3	21.5	0.00e+00	0	61	0	155189248	48	4451
2026-01-18 23:47:29.37	198.67	18.47	-38.5	-40.6	21.2	0.00e+00	0	61	0	157286400	48	4649
2026-01-18 23:47:31.38	197.83	18.45	-39.0	-41.3	20.5	0.00e+00	0	61	0	159383552	48	5038
2026-01-18 23:47:33.40	196.98	18.42	-38.9	-41.2	20.6	0.00e+00	0	61	0	162004992	48	4941
2026-01-18 23:47:35.42	196.14	18.39	-38.6	-40.8	21.0	0.00e+00	0	61	0	164102144	48	4756
2026-01-18 23:47:37.44	195.30	18.35	-38.2	-40.3	21.5	0.00e+00	0	62	0	166199296	48	4492
2026-01-18 23:47:39.46	194.46	18.30	-38.2	-40.4	21.5	0.00e+00	0	61	0	168820736	48	4499
2026-01-18 23:47:41.48	193.62	18.25	-38.4	-40.6	21.2	0.00e+00	0	61	0	170917888	48	4628
2026-01-18 23:47:43.50	192.79	18.20	-38.7	-41.0	20.8	0.00e+00	0	61	0	173015040	48	4833
2026-01-18 23:47:45.51	191.97	18.14	-38.5	-40.6	21.1	0.00e+00	0	61	0	175636480	48	4651
2026-01-18 23:47:47.53	191.15	18.07	-38.3	-40.5	21.3	0.00e+00	0	61	0	177733632	48	4563
2026-01-18 23:47:49.55	190.33	18.01	-37.8	-39.9	21.8	0.00e+00	0	61	0	179830784	47	4525
2026-01-18 23:47:51.57	189.51	17.93	-38.2	-40.3	21.4	0.00e+00	0	61	0	182452224	47	4732
2026-01-18 23:47:53.59	188.71	17.85	-38.6	-40.8	20.9	0.00e+00	0	61	0	184549376	47	5028
2026-01-18 23:47:55.61	187.90	17.77	-38.9	-41.2	20.6	0.00e+00	0	61	0	186646528	48	4953
2026-01-18 23:47:57.63	187.10	17.68	-38.7	-41.0	20.8	0.00e+00	0	61	0	189267968	48	4851
2026-01-18 23:47:59.64	186.31	17.59	-38.7	-40.9	20.9	0.00e+00	0	61	0	191365120	48	4782
2026-01-18 23:48:01.66	185.53	17.50	-38.6	-40.8	20.9	0.00e+00	0	61	0	193462272	48	4758
2026-01-18 23:48:03.68	184.75	17.40	-38.6	-40.9	20.8	0.00e+00	0	61	0	196083712	48	4778
2026-01-18 23:48:05.70	183.97	17.29	-39.1	-41.6	20.1	0.00e+00	0	61	0	198180864	48	5177
2026-01-18 23:48:07.72	183.21	17.19	-39.0	-41.3	20.3	0.00e+00	0	61	0	200278016	48	5039
2026-01-18 23:48:09.74	182.45	17.08	-39.0	-41.3	20.4	0.00e+00	0	61	0	202899456	48	5027
2026-01-18 23:48:11.76	181.69	16.96	-39.2	-41.6	20.1	0.00e+00	0	61	0	204996608	48	5212
2026-01-18 23:48:13.78	180.95	16.84	-39.4	-41.9	19.8	0.00e+00	0	61	0	207093760	49	5070
2026-01-18 23:48:15.79	180.21	16.72	-39.1	-41.5	20.0	0.00e+00	0	61	0	209715200	49	4868
2026-01-18 23:48:17.81	179.48	16.60	-39.1	-41.5	20.1	0.00e+00	0	61	0	211812352	49	4826
2026-01-18 23:48:19.83	178.76	16.47	-39.1	-41.5	20.2	0.00e+00	0	61	0	213909504	49	4846
2026-01-18 23:48:21.85	178.04	16.34	-39.4	-41.9	19.8	0.00e+00	0	61	0	216530944	49	5076
2026-01-18 23:48:23.87	177.34	16.21	-39.5	-42.1	19.6	0.00e+00	0	61	0	218628096	49	5166
2026-01-18 23:48:25.89	176.64	16.08	-39.5	-42.1	19.6	0.00e+00	0	61	0	220725248	49	5173
2026-01-18 23:48:27.91	175.94	15.94	-39.6	-42.3	19.4	0.00e+00	0	61	0	223346688	49	5297
2026-01-18 23:48:29.93	175.26	15.80	-39.9	-42.6	19.1	0.00e+00	0	61	0	225443840	50	5208
2026-01-18 23:48:31.95	174.58	15.66	-39.8	-42.4	19.2	0.00e+00	0	61	0	227540992	50	5095
2026-01-18 23:48:33.97	173.91	15.51	-39.8	-42.4	19.5	0.00e+00	0	62	0	230162432	50	5050
2026-01-18 23:48:35.99	173.26	15.37	-39.8	-42.4	19.3	0.00e+00	0	61	0	232259584	50	5083
2026-01-18 23:48:38.01	172.60	15.22	-39.7	-42.3	19.4	0.00e+00	0	61	0	234356736	50	5041
2026-01-18 23:48:40.03	171.96	15.07	-39.7	-42.4	19.3	0.00e+00	0	61	0	236978176	50	5066
2026-01-18 23:48:42.04	171.33	14.92	-39.8	-42.4	19.3	0.00e+00	0	61	0	239075328	50	5087
2026-01-18 23:48:44.06	170.70	14.77	-39.6	-42.1	19.6	0.00e+00	0	61	0	241172480	50	4926
2026-01-18 23:48:46.08	170.08	14.62	-39.7	-42.4	19.3	0.00e+00	0	61	0	243793920	50	5059
2026-01-18 23:48:48.10	169.47	14.46	-40.0	-42.8	19.0	0.00e+00	0	61	0	245891072	50	5325
2026-01-18 23:48:50.12	168.87	14.31	-40.2	-43.0	18.9	0.00e+00	0	61	0	247988224	50	5407
2026-01-18 23:48:52.14	168.27	14.15	-40.2	-43.1	18.8	0.00e+00	0	61	0	250609664	51	5164
2026-01-18 23:48:54.16	167.69	13.99	-40.1	-42.9	18.9	0.00e+00	0	61	0	252706816	51	5050
2026-01-18 23:48:56.18	167.11	13.83	-39.8	-42.5	19.3	0.00e+00	0	61	0	254803968	51	4842
2026-01-18 23:48:58.20	166.54	13.67	-39.8	-42.5	19.3	0.00e+00	0	61	0	257425408	51	4854
2026-01-18 23:49:00.21	165.98	13.51	-40.1	-42.9	18.9	0.00e+00	0	61	0	259522560	51	5060
2026-01-18 23:49:02.23	165.42	13.35	-40.4	-43.4	18.4	0.00e+00	0	61	0	261619712	51	5392
2026-01-18 23:49:04.25	164.88	13.19	-40.3	-43.3	18.5	0.00e+00	0	61	0	264241152	51	5298
2026-01-18 23:49:06.27	164.34	13.03	-40.2	-43.1	18.6	0.00e+00	0	61	0	266338304	51	5211
2026-01-18 23:49:08.29	163.81	12.87	-40.3	-43.3	18.4	0.00e+00	0	61	0	268435456	51	5327
2026-01-18 23:49:10.31	163.28	12.70	-40.5	-43.6	18.2	0.00e+00	0	61	0	271056896	51	5519
2026-01-18 23:49:12.33	162.77	12.54	-40.5	-43.7	18.1	0.00e+00	0	61	0	273154048	51	5545
2026-01-18 23:49:14.35	162.26	12.38	-40.6	-43.7	18.1	0.00e+00	0	61	0	275251200	51	5553
2026-01-18 23:49:16.37	161.76	12.21	-40.5	-43.6	18.2	0.00e+00	0	61	0	277872640	51	5480
2026-01-18 23:49:18.38	161.26	12.05	-40.4	-43.5	18.3	0.00e+00	0	61	0	279969792	51	5430
2026-01-18 23:49:20.40	160.78	11.89	-40.5	-43.7	18.1	0.00e+00	0	61	0	282066944	51	5541
2026-01-18 23:49:22.42	160.30	11.73	-40.7	-43.9	17.8	0.00e+00	0	61	0	284688384	51	5689
2026-01-18 23:49:24.44	159.82	11.56	-40.7	-44.0	17.7	0.00e+00	0	61	0	286785536	51	5744
2026-01-18 23:49:26.45	159.36	11.40	-40.6	-44.0	17.6	0.00e+00	0	61	0	288882688	52	5424
2026-01-18 23:49:28.47	158.90	11.24	-40.5	-43.8	17.8	0.00e+00	0	61	0	291504128	52	5330
2026-01-18 23:49:30.49	158.45	11.08	-40.5	-43.7	17.8	0.00e+00	0	61	0	293601280	52	5262
2026-01-18 23:49:32.51	158.00	10.91	-40.5	-43.8	17.8	0.00e+00	0	61	0	295698432	52	5298
2026-01-18 23:49:34.53	157.56	10.75	-40.5	-43.8	17.8	0.00e+00	0	61	0	298319872	52	5285
2026-01-18 23:49:36.55	157.13	10.59	-40.5	-43.9	17.6	0.00e+00	0	61	0	300417024	52	5375
2026-01-18 23:49:38.57	156.70	10.43	-40.6	-44.0	17.4	0.00e+00	0	61	0	302514176	52	5453
2026-01-18 23:49:40.59	156.28	10.27	-40.6	-44.1	17.3	0.00e+00	0	61	0	305135616	52	5480
2026-01-18 23:49:42.61	155.87	10.11	-40.8	-44.4	17.0	0.00e+00	0	61	0	307232768	52	5697
2026-01-18 23:49:44.62	155.46	9.95	-40.9	-44.6	16.8	0.00e+00	0	61	0	309329920	52	5825
2026-01-18 23:49:46.64	155.06	9.79	-40.9	-44.6	16.7	0.00e+00	0	61	0	311951360	52	5847
2026-01-18 23:49:48.66	154.66	9.63	-41.0	-44.8	16.5	0.00e+00	0	61	0	314048512	52	5954
2026-01-18 23:49:50.68	154.27	9.47	-40.9	-44.8	16.5	0.00e+00	0	61	0	316145664	52	5938
2026-01-18 23:49:52.70	153.89	9.31	-40.8	-44.5	16.7	0.00e+00	0	61	0	318767104	52	5783
2026-01-18 23:49:54.72	153.51	9.16	-40.7	-44.4	16.8	0.00e+00	0	61	0	320864256	52	5687
2026-01-18 23:49:56.74	153.14	9.00	-40.6	-44.2	17.0	0.00e+00	0	61	0	322961408	52	5537
2026-01-18 23:49:58.76	152.77	8.84	-40.5	-44.1	17.0	0.00e+00	0	61	0	325058560	52	5525
2026-01-18 23:50:00.78	152.41	8.69	-40.6	-44.3	16.8	0.00e+00	0	61	0	327680000	52	5640
2026-01-18 23:50:02.79	152.05	8.53	-40.7	-44.6	16.5	0.00e+00	0	61	0	329777152	52	5789
2026-01-18 23:50:04.81	151.70	8.38	-40.9	-44.9	16.1	0.00e+00	0	61	0	332398592	52	6020
2026-01-18 23:50:06.83	151.35	8.23	-41.2	-45.6	15.3	0.00e+00	0	62	0	334495744	52	6524
2026-01-18 23:50:08.85	151.01	8.07	-41.2	-45.6	15.2	0.00e+00	0	61	0	336592896	53	6201
2026-01-18 23:50:10.87	150.67	7.92	-44.8	-62.3	3.8	4.79e-01	0	61	104	338165760	60	28247
2026-01-18 23:50:12.89	150.34	7.77	-45.3	-63.6	3.8	8.47e-01	0	61	104	338165760	61	30803
2026-01-18 23:50:14.91	150.01	7.62	-45.6	-63.8	3.8	8.45e-01	0	61	104	338165760	61	31720
2026-01-18 23:50:16.93	149.69	7.47	-45.7	-63.9	3.8	8.46e-01	0	61	104	338165760	61	32170
2026-01-18 23:50:18.95	149.37	7.32	-45.6	-63.9	3.8	8.45e-01	0	61	104	338165760	61	31886
2026-01-18 23:50:20.97	149.06	7.17	-45.5	-63.7	3.8	8.46e-01	0	61	104	338165760	61	31127
2026-01-18 23:50:22.99	148.75	7.02	-45.5	-63.6	3.8	8.45e-01	0	61	104	338165760	61	30788
2026-01-18 23:50:25.01	148.44	6.87	-45.4	-63.4	3.8	8.47e-01	0	61	104	338165760	61	30375
2026-01-18 23:50:27.03	148.14	6.73	-45.4	-63.5	3.8	8.46e-01	0	61	104	338165760	61	30480
2026-01-18 23:50:29.05	147.85	6.58	-45.4	-63.4	3.8	8.47e-01	0	62	104	338165760	61	30350
2026-01-18 23:50:31.07	147.55	6.43	-45.4	-63.4	3.8	8.45e-01	0	61	104	338165760	61	30371
2026-01-18 23:50:33.10	147.26	6.29	-45.4	-63.4	3.8	8.47e-01	0	61	104	338165760	61	30295
2026-01-18 23:50:35.12	146.98	6.15	-45.4	-63.4	3.8	8.47e-01	0	61	104	338165760	61	30324
2026-01-18 23:50:37.13	146.70	6.00	-45.4	-63.4	3.8	8.46e-01	0	62	104	338165760	61	30294
2026-01-18 23:50:39.15	146.43	5.86	-45.3	-63.4	3.8	8.45e-01	0	61	104	338165760	61	30375
2026-01-18 23:50:41.17	146.15	5.72	-45.3	-63.4	3.8	8.45e-01	0	61	104	338165760	61	30233
2026-01-18 23:50:43.19	145.88	5.58	-45.3	-63.4	3.8	8.47e-01	0	62	104	338165760	61	30232
2026-01-18 23:50:45.22	145.62	5.44	-45.3	-63.4	3.8	8.46e-01	0	61	104	338165760	61	30230
2026-01-18 23:50:47.24	145.36	5.30	-45.3	-63.4	3.8	8.47e-01	0	61	104	338165760	61	30132
2026-01-18 23:50:49.26	145.10	5.16	-45.3	-63.4	3.8	8.47e-01	0	61	104	338165760	61	30150
2026-01-18 23:50:51.28	144.84	5.02	-45.3	-63.4	3.8	8.46e-01	0	61	104	338165760	61	30172
2026-01-18 23:50:53.30	144.59	4.88	-45.3	-63.4	3.8	8.47e-01	0	61	104	338165760	61	30141
2026-01-18 23:50:55.32	144.34	4.74	-45.3	-63.4	3.8	8.47e-01	0	61	104	338165760	61	30174
2026-01-18 23:50:57.34	144.10	4.61	-45.3	-63.4	3.8	8.46e-01	0	61	104	338165760	61	30120
2026-01-18 23:50:59.36	143.86	4.47	-45.3	-63.4	3.8	8.47e-01	0	62	104	338165760	61	30188
2026-01-18 23:51:01.38	143.62	4.34	-45.3	-63.4	3.8	8.47e-01	0	61	104	338165760	61	30093
2026-01-18 23:51:03.41	143.39	4.20	-45.3	-63.4	3.8	8.46e-01	0	61	104	338165760	61	30094
2026-01-18 23:51:05.43	143.15	4.07	-45.3	-63.4	3.8	8.47e-01	0	62	104	338165760	61	30043
2026-01-18 23:51:07.45	142.92	3.94	-45.3	-63.4	3.8	8.46e-01	0	62	104	338165760	61	30073
2026-01-18 23:51:09.47	142.70	3.81	-45.3	-63.4	3.8	8.47e-01	0	62	104	338165760	61	30105
2026-01-18 23:51:11.49	142.48	3.67	-45.3	-63.4	3.8	8.47e-01	0	61	104	338165760	61	30114
2026-01-18 23:51:13.51	142.26	3.54	-45.3	-63.4	3.8	8.46e-01	0	61	104	338165760	61	30136
2026-01-18 23:51:15.53	142.04	3.41	-45.3	-63.3	3.8	8.47e-01	0	61	104	338165760	61	29962
2026-01-18 23:51:17.55	141.82	3.28	-45.3	-63.4	3.8	8.45e-01	0	61	104	338165760	61	30038
2026-01-18 23:51:19.58	141.61	3.15	-45.3	-63.4	3.8	8.46e-01	0	61	104	338165760	61	30082
2026-01-18 23:51:21.60	141.40	3.03	-45.3	-63.4	3.8	8.45e-01	0	61	104	338165760	61	30033
2026-01-18 23:51:23.62	141.20	2.90	-45.3	-63.4	3.8	8.46e-01	0	61	104	338165760	61	30090
2026-01-18 23:51:25.64	140.99	2.77	-45.3	-63.4	3.8	8.47e-01	0	61	104	338165760	61	30037
2026-01-18 23:51:27.66	140.79	2.64	-45.3	-63.3	3.8	8.45e-01	0	62	104	338165760	61	30026
2026-01-18 23:51:29.68	140.59	2.52	-45.3	-63.4	3.8	8.46e-01	0	61	104	338165760	61	30052
2026-01-18 23:51:31.70	140.40	2.39	-45.3	-63.3	3.8	8.47e-01	0	62	104	338165760	61	30008
2026-01-18 23:51:33.72	140.20	2.27	-45.3	-63.4	3.8	8.46e-01	0	61	104	338165760	61	30077
2026-01-18 23:51:35.74	140.01	2.14	-45.3	-63.3	3.8	8.47e-01	0	61	104	338165760	61	30030
2026-01-18 23:51:37.77	139.82	2.02	-45.3	-63.3	3.8	8.47e-01	0	61	104	338165760	61	30012

#Closed at: 2026-01-18 23:51:39
#Recorded file [338 MB]: D:/lorett/data/31039_260119_024425.dat