passes_logs/2026/01/18/R2.0S_Moscow/R2.0S_Moscow__20260118_220642_FENGYUN_3G_rec.log

#Pass ID: 20260118_220642_FENGYUN 3G
#Satellite: FENGYUN 3G
#Configuration: FENGYUN 3G
#almurnet v.1.7.20251203
#Start time: 2026-01-18 22:06:43

#Version: 2.2.20231116
#Station: R2.0S_Moscow
#Location: 37.707566 lon 55.798166 lat
#TLE: 1 56232U 23055A   26017.94343179  .00026793  00000+0  41706-3 0  9996
#TLE: 2 56232  49.9938  40.7454 0004132  42.1181 318.0104 15.53646528156658

#Time	Az	El	Level	Level2	SNR	BER	BlckErr	Temp	State	Recorded	gain1	gain2
2026-01-18 22:06:43.86	253.85	2.07	-44.1	-62.1	3.8	8.47e-01	0	54	0	0	60	27623
2026-01-18 22:06:46.88	253.66	2.27	-44.1	-62.2	3.8	8.46e-01	0	54	104	0	60	27745
2026-01-18 22:06:49.91	253.47	2.47	-44.1	-62.2	3.8	8.46e-01	0	54	104	0	60	27882
2026-01-18 22:06:52.94	253.27	2.67	-44.1	-62.2	3.8	8.46e-01	0	54	104	0	60	27803
2026-01-18 22:06:55.98	253.07	2.88	-44.1	-62.2	3.8	8.46e-01	0	54	104	0	60	27889
2026-01-18 22:06:59.01	252.87	3.09	-44.1	-62.2	3.8	8.45e-01	0	55	104	0	60	27748
2026-01-18 22:07:02.04	252.66	3.30	-44.1	-62.1	3.8	8.47e-01	0	55	104	0	60	27646
2026-01-18 22:07:05.07	252.45	3.51	-44.1	-62.1	3.8	8.46e-01	0	55	104	0	60	27614
2026-01-18 22:07:08.11	252.23	3.72	-44.1	-62.1	3.8	8.46e-01	0	55	104	0	60	27654
2026-01-18 22:07:11.14	252.01	3.94	-44.1	-62.1	3.8	8.45e-01	0	55	104	0	60	27590
2026-01-18 22:07:14.17	251.78	4.16	-44.1	-61.6	3.8	8.46e-01	0	56	104	0	60	26026
2026-01-18 22:07:17.20	251.55	4.38	-44.1	-61.4	3.8	8.46e-01	0	56	104	0	60	25386
2026-01-18 22:07:20.23	251.31	4.60	-44.0	-61.3	3.8	8.45e-01	0	55	104	0	60	25176
2026-01-18 22:07:23.26	251.07	4.83	-44.1	-61.8	3.8	8.47e-01	0	56	104	0	60	26746
2026-01-18 22:07:26.29	250.82	5.06	-44.1	-61.6	3.8	8.47e-01	0	56	104	0	60	26040
2026-01-18 22:07:29.32	250.57	5.29	-44.0	-60.5	3.8	8.46e-01	0	56	104	0	60	22976
2026-01-18 22:07:32.36	250.31	5.53	-44.1	-58.9	4.1	8.44e-01	0	56	104	0	59	20123
2026-01-18 22:07:35.39	250.04	5.76	-44.0	-58.5	4.2	8.37e-01	0	56	0	0	59	19179
2026-01-18 22:07:38.42	249.77	6.00	-44.0	-57.6	4.5	8.31e-01	0	57	0	0	59	17310
2026-01-18 22:07:41.45	249.49	6.24	-43.9	-55.6	5.6	7.95e-01	0	57	0	0	59	13861
2026-01-18 22:07:44.48	249.20	6.49	-43.0	-51.9	8.4	2.41e-01	0	57	0	3145728	58	9519
2026-01-18 22:07:47.52	248.91	6.74	-43.2	-50.9	9.9	3.29e-02	0	57	0	6291456	58	8545
2026-01-18 22:07:50.55	248.61	6.99	-43.4	-52.2	8.8	1.12e-02	0	57	0	9961472	58	9847
2026-01-18 22:07:53.58	248.30	7.25	-44.1	-59.5	4.0	2.01e-01	0	57	104	12058624	58	22888
2026-01-18 22:07:56.61	247.98	7.50	-43.7	-53.5	7.2	8.46e-01	0	57	0	12582912	58	11539
2026-01-18 22:07:59.64	247.66	7.77	-42.4	-48.0	13.1	2.63e-02	0	57	0	15728640	56	6811
2026-01-18 22:08:02.67	247.33	8.03	-41.8	-46.6	14.3	0.00e+00	0	57	0	19398656	55	6201
2026-01-18 22:08:05.70	246.99	8.30	-43.2	-51.5	10.7	5.16e-02	0	58	0	22544384	57	9615
2026-01-18 22:08:08.73	246.64	8.57	-41.8	-46.4	13.9	2.73e-01	0	58	0	25165824	55	6008
2026-01-18 22:08:11.76	246.28	8.85	-40.9	-44.7	16.4	0.00e+00	0	58	0	28835840	53	5571
2026-01-18 22:08:14.79	245.91	9.13	-40.7	-44.2	16.9	0.00e+00	0	58	0	31981568	53	5276
2026-01-18 22:08:17.82	245.53	9.41	-40.5	-43.8	17.4	0.00e+00	0	58	0	35651584	52	5339
2026-01-18 22:08:20.85	245.14	9.70	-40.5	-43.8	17.4	0.00e+00	0	58	0	38797312	52	5318
2026-01-18 22:08:23.88	244.75	9.99	-40.5	-43.8	17.5	0.00e+00	0	58	0	42467328	52	5311
2026-01-18 22:08:26.90	244.34	10.29	-40.6	-44.0	17.3	0.00e+00	0	58	0	45613056	52	5404
2026-01-18 22:08:29.93	243.91	10.59	-40.2	-43.3	17.9	0.00e+00	0	58	0	49283072	52	5038
2026-01-18 22:08:32.96	243.48	10.89	-40.4	-43.7	17.7	0.00e+00	0	58	0	52428800	52	5223
2026-01-18 22:08:35.98	243.03	11.20	-40.2	-43.3	18.0	0.00e+00	0	58	0	56098816	52	5034
2026-01-18 22:08:39.01	242.58	11.51	-40.2	-43.3	18.0	0.00e+00	0	58	0	59244544	52	5037
2026-01-18 22:08:42.04	242.10	11.83	-40.0	-42.9	18.5	0.00e+00	0	58	0	62914560	51	5087
2026-01-18 22:08:45.07	241.62	12.16	-40.1	-43.0	18.4	0.00e+00	0	59	0	66060288	51	5145
2026-01-18 22:08:48.10	241.11	12.48	-40.0	-42.9	18.6	0.00e+00	0	58	0	69730304	51	5070
2026-01-18 22:08:51.13	240.60	12.82	-40.2	-43.1	18.4	0.00e+00	0	58	0	72876032	51	5190
2026-01-18 22:08:54.15	240.07	13.15	-40.0	-42.9	18.7	0.00e+00	0	59	0	76546048	51	5075
2026-01-18 22:08:57.18	239.52	13.49	-39.8	-42.6	19.0	0.00e+00	0	59	0	79691776	51	4885
2026-01-18 22:09:00.21	238.95	13.84	-39.8	-42.5	19.1	0.00e+00	0	59	0	83361792	51	4835
2026-01-18 22:09:03.24	238.37	14.19	-39.5	-42.1	19.5	0.00e+00	0	59	0	86507520	51	4645
2026-01-18 22:09:06.27	237.77	14.55	-39.6	-42.3	19.3	0.00e+00	0	59	0	90177536	51	4729
2026-01-18 22:09:09.29	237.15	14.91	-39.7	-42.4	19.3	0.00e+00	0	59	0	93323264	51	4773
2026-01-18 22:09:12.32	236.51	15.28	-39.2	-41.7	20.0	0.00e+00	0	59	0	96993280	50	4681
2026-01-18 22:09:15.35	235.85	15.65	-39.1	-41.5	20.2	0.00e+00	0	59	0	100139008	50	4592
2026-01-18 22:09:18.38	235.17	16.03	-39.2	-41.6	20.0	0.00e+00	0	59	0	103809024	50	4646
2026-01-18 22:09:21.41	234.46	16.41	-39.0	-41.4	20.3	0.00e+00	0	59	0	106954752	50	4515
2026-01-18 22:09:24.43	233.74	16.80	-38.7	-40.9	20.8	0.00e+00	0	59	0	110624768	49	4537
2026-01-18 22:09:27.46	232.98	17.19	-38.8	-41.2	20.6	0.00e+00	0	59	0	113770496	49	4654
2026-01-18 22:09:30.49	232.21	17.59	-38.9	-41.3	20.5	0.00e+00	0	59	0	117440512	49	4718
2026-01-18 22:09:33.53	231.40	17.99	-38.8	-41.1	20.6	0.00e+00	0	59	0	120586240	49	4640
2026-01-18 22:09:36.55	230.58	18.40	-38.7	-41.0	20.8	0.00e+00	0	59	0	124256256	49	4563
2026-01-18 22:09:39.58	229.72	18.81	-38.5	-40.7	21.1	0.00e+00	0	60	0	127401984	49	4423
2026-01-18 22:09:42.61	228.83	19.22	-38.4	-40.6	21.2	0.00e+00	0	59	0	131072000	48	4610
2026-01-18 22:09:45.64	227.91	19.64	-38.4	-40.5	21.3	0.00e+00	0	60	0	134217728	48	4587
2026-01-18 22:09:48.67	226.97	20.06	-38.3	-40.4	21.5	0.00e+00	0	59	0	137887744	48	4512
2026-01-18 22:09:51.69	225.99	20.48	-37.8	-39.9	21.9	0.00e+00	0	59	0	141033472	47	4505
2026-01-18 22:09:54.73	224.97	20.91	-38.2	-40.3	21.5	0.00e+00	0	60	0	144703488	47	4756
2026-01-18 22:09:57.75	223.93	21.33	-38.1	-40.2	21.7	0.00e+00	0	59	0	147849216	47	4652
2026-01-18 22:10:00.78	222.85	21.76	-37.8	-39.8	22.1	0.00e+00	0	59	0	151519232	47	4482
2026-01-18 22:10:03.81	221.73	22.19	-37.7	-39.6	22.2	0.00e+00	0	60	0	154664960	47	4382
2026-01-18 22:10:06.84	220.57	22.61	-38.1	-40.1	21.8	0.00e+00	0	60	0	158334976	47	4628
2026-01-18 22:10:09.87	219.38	23.04	-37.8	-39.9	22.1	0.00e+00	0	60	0	161480704	47	4494
2026-01-18 22:10:12.90	218.15	23.46	-37.5	-39.5	22.5	0.00e+00	0	60	0	165150720	46	4549
2026-01-18 22:10:15.93	216.87	23.88	-37.6	-39.6	22.3	0.00e+00	0	60	0	168296448	46	4601
2026-01-18 22:10:18.96	215.56	24.29	-37.7	-39.7	22.2	0.00e+00	0	60	0	171966464	46	4693
2026-01-18 22:10:21.99	214.21	24.70	-37.8	-39.8	22.1	0.00e+00	0	60	0	175112192	46	4725
2026-01-18 22:10:25.01	212.82	25.10	-37.4	-39.3	22.7	0.00e+00	0	60	0	178782208	46	4459
2026-01-18 22:10:28.04	211.38	25.49	-37.4	-39.4	22.6	0.00e+00	0	60	0	181927936	46	4499
2026-01-18 22:10:31.07	209.91	25.87	-37.5	-39.4	22.5	0.00e+00	0	60	0	185597952	46	4541
2026-01-18 22:10:34.09	208.40	26.24	-37.2	-39.0	22.9	0.00e+00	0	60	0	188743680	46	4332
2026-01-18 22:10:37.12	206.84	26.59	-37.4	-39.3	22.7	0.00e+00	0	60	0	192413696	46	4452
2026-01-18 22:10:40.15	205.25	26.93	-37.2	-39.1	22.9	0.00e+00	0	60	0	195559424	46	4350
2026-01-18 22:10:43.18	203.61	27.25	-37.0	-38.9	23.0	0.00e+00	0	60	0	199229440	45	4503
2026-01-18 22:10:46.21	201.94	27.56	-36.7	-38.5	23.4	0.00e+00	0	60	0	202375168	45	4300
2026-01-18 22:10:49.24	200.23	27.84	-37.0	-38.8	23.2	0.00e+00	0	60	0	206045184	45	4453
2026-01-18 22:10:52.26	198.50	28.10	-36.8	-38.5	23.3	0.00e+00	0	60	0	209190912	45	4330
2026-01-18 22:10:55.28	196.74	28.34	-37.0	-38.9	23.0	0.00e+00	0	60	0	212860928	45	4496
2026-01-18 22:10:58.31	194.94	28.55	-36.9	-38.7	23.2	0.00e+00	0	60	0	216006656	45	4433
2026-01-18 22:11:01.34	193.11	28.73	-37.3	-39.2	22.7	0.00e+00	0	60	0	219676672	45	4654
2026-01-18 22:11:04.37	191.27	28.89	-37.6	-39.5	22.4	0.00e+00	0	60	0	222822400	45	4843
2026-01-18 22:11:07.39	189.41	29.02	-37.7	-39.6	22.3	0.00e+00	0	60	0	226492416	45	4898
2026-01-18 22:11:10.42	187.53	29.12	-37.0	-38.8	23.1	0.00e+00	0	60	0	229638144	45	4480
2026-01-18 22:11:13.45	185.64	29.19	-37.2	-39.1	22.7	0.00e+00	0	60	0	233308160	45	4630
2026-01-18 22:11:16.48	183.74	29.22	-37.4	-39.3	22.6	0.00e+00	0	60	0	236453888	45	4706
2026-01-18 22:11:19.51	181.84	29.23	-37.3	-39.2	22.7	0.00e+00	0	60	0	240123904	45	4686
2026-01-18 22:11:22.54	179.95	29.20	-37.6	-39.5	22.4	0.00e+00	0	60	0	243269632	45	4864
2026-01-18 22:11:25.56	178.06	29.14	-37.5	-39.4	22.6	0.00e+00	0	60	0	246939648	45	4782
2026-01-18 22:11:28.59	176.18	29.05	-37.6	-39.5	22.7	0.00e+00	0	60	0	250085376	46	4557
2026-01-18 22:11:31.62	174.31	28.93	-37.4	-39.3	22.7	0.00e+00	0	60	0	253755392	46	4487
2026-01-18 22:11:34.65	172.46	28.78	-37.0	-38.9	23.0	0.00e+00	0	60	0	256901120	45	4517
2026-01-18 22:11:37.67	170.64	28.61	-37.5	-39.4	22.5	0.00e+00	0	60	0	260571136	45	4805
2026-01-18 22:11:40.70	168.83	28.40	-37.1	-38.9	23.0	0.00e+00	0	60	0	263716864	45	4544
2026-01-18 22:11:43.73	167.05	28.17	-37.2	-39.0	23.0	0.00e+00	0	60	0	267386880	45	4595
2026-01-18 22:11:46.76	165.30	27.92	-37.0	-38.8	23.3	0.00e+00	0	60	0	270532608	45	4463
2026-01-18 22:11:49.78	163.59	27.64	-36.8	-38.6	23.4	0.00e+00	0	60	0	274202624	45	4375
2026-01-18 22:11:52.81	161.91	27.34	-36.8	-38.6	23.5	0.00e+00	0	60	0	277348352	45	4369
2026-01-18 22:11:55.84	160.27	27.03	-37.6	-39.6	22.5	0.00e+00	0	60	0	281018368	45	4896
2026-01-18 22:11:58.87	158.66	26.69	-37.1	-39.0	23.0	0.00e+00	0	60	0	284164096	45	4570
2026-01-18 22:12:01.90	157.10	26.34	-37.4	-39.3	22.7	0.00e+00	0	60	0	287834112	45	4747
2026-01-18 22:12:04.92	155.58	25.98	-37.9	-40.0	22.1	0.00e+00	0	60	0	290979840	46	4825
2026-01-18 22:12:07.95	154.09	25.60	-37.9	-39.9	22.3	0.00e+00	0	60	0	294649856	46	4786
2026-01-18 22:12:10.98	152.64	25.21	-37.6	-39.6	22.6	0.00e+00	0	60	0	297795584	46	4618
2026-01-18 22:12:14.01	151.24	24.82	-37.8	-39.8	22.4	0.00e+00	0	60	0	301465600	46	4752
2026-01-18 22:12:17.04	149.88	24.41	-37.4	-39.4	22.8	0.00e+00	0	61	0	304611328	46	4497
2026-01-18 22:12:20.06	148.56	24.00	-37.9	-39.9	22.4	0.00e+00	0	60	0	308281344	46	4793
2026-01-18 22:12:23.10	147.27	23.58	-38.0	-40.0	22.2	0.00e+00	0	60	0	311427072	46	4854
2026-01-18 22:12:26.13	146.03	23.16	-37.6	-39.5	22.7	0.00e+00	0	60	0	315097088	46	4574
2026-01-18 22:12:29.16	144.82	22.74	-37.9	-40.0	22.2	0.00e+00	0	60	0	318242816	46	4826
2026-01-18 22:12:32.19	143.66	22.31	-38.1	-40.1	22.0	0.00e+00	0	61	0	321912832	46	4924
2026-01-18 22:12:35.22	142.53	21.88	-38.1	-40.2	22.0	0.00e+00	0	60	0	325058560	46	4933
2026-01-18 22:12:38.24	141.44	21.46	-38.3	-40.5	21.7	0.00e+00	0	60	0	328728576	47	4842
2026-01-18 22:12:41.27	140.39	21.03	-38.5	-40.8	21.4	0.00e+00	0	61	0	331874304	47	4994
2026-01-18 22:12:44.30	139.36	20.61	-38.2	-40.4	21.8	0.00e+00	0	60	0	335544320	47	4769
2026-01-18 22:12:47.33	138.37	20.18	-38.3	-40.4	21.6	0.00e+00	0	61	0	338690048	47	4809
2026-01-18 22:12:50.36	137.42	19.76	-38.4	-40.6	21.4	0.00e+00	0	61	0	342360064	47	4899
2026-01-18 22:12:53.39	136.49	19.35	-38.6	-40.9	21.2	0.00e+00	0	61	0	345505792	47	5048
2026-01-18 22:12:56.42	135.60	18.93	-38.4	-40.5	21.5	0.00e+00	0	61	0	349175808	47	4856
2026-01-18 22:12:59.45	134.73	18.52	-38.6	-40.9	21.1	0.00e+00	0	61	0	352321536	47	5054
2026-01-18 22:13:02.48	133.90	18.11	-38.6	-40.9	21.1	3.40e-06	0	61	0	355991552	48	4792
2026-01-18 22:13:05.50	133.09	17.71	-38.9	-41.3	20.6	1.21e-04	0	61	0	359137280	48	5020
2026-01-18 22:13:08.53	132.31	17.31	-38.9	-41.3	20.6	2.47e-04	0	61	0	362807296	48	4998
2026-01-18 22:13:11.56	131.55	16.92	-39.1	-41.7	20.2	2.78e-04	0	61	0	365953024	49	4941
2026-01-18 22:13:14.59	130.81	16.53	-39.2	-41.8	20.0	1.37e-05	0	60	0	369623040	49	5006
2026-01-18 22:13:17.62	130.10	16.15	-39.1	-41.6	20.1	0.00e+00	0	61	0	372768768	48	5196
2026-01-18 22:13:20.65	129.41	15.77	-39.3	-41.8	19.9	1.10e-06	0	60	0	376438784	49	5021
2026-01-18 22:13:23.68	128.75	15.40	-39.4	-42.3	18.8	1.56e-04	0	61	0	379584512	49	5292
2026-01-18 22:13:26.71	128.10	15.03	-39.7	-42.7	18.7	3.72e-04	0	61	0	383254528	50	5226
2026-01-18 22:13:29.74	127.48	14.66	-32.0	-42.5	17.3	4.39e-03	0	61	0	386400256	48	5765
2026-01-18 22:13:32.77	126.87	14.31	-37.9	-42.5	17.5	1.18e-03	0	61	0	390070272	48	5746
2026-01-18 22:13:35.80	126.28	13.95	-38.9	-43.0	17.1	1.26e-02	0	61	0	393216000	48	6064
2026-01-18 22:13:38.83	125.71	13.60	-38.7	-42.4	16.6	2.95e-02	0	61	0	396361728	47	5994
2026-01-18 22:13:41.85	125.16	13.26	-36.9	-42.4	16.0	1.05e-01	0	61	0	400031744	46	6379
2026-01-18 22:13:44.88	124.63	12.92	-37.5	-43.2	15.4	1.87e-02	0	61	0	403177472	49	5884
2026-01-18 22:13:47.91	124.11	12.59	-38.3	-43.2	15.8	7.53e-02	0	61	0	406323200	48	6261
2026-01-18 22:13:50.94	123.60	12.26	-39.1	-43.3	15.4	3.56e-02	0	61	0	409468928	48	6275
2026-01-18 22:13:53.97	123.11	11.94	-38.2	-43.8	14.7	1.35e-01	0	61	0	412614656	50	5961
2026-01-18 22:13:57.00	122.63	11.62	-39.3	-43.5	16.0	1.13e-02	0	61	0	416284672	48	6441
2026-01-18 22:14:00.02	122.17	11.30	-38.9	-44.2	15.6	9.08e-03	0	61	0	419430400	50	6207
2026-01-18 22:14:03.05	121.72	10.99	-38.2	-44.7	14.5	4.29e-03	0	61	0	423100416	49	6967
2026-01-18 22:14:06.08	121.28	10.69	-36.1	-43.9	14.8	1.55e-03	0	61	0	426246144	47	7186
2026-01-18 22:14:09.11	120.86	10.39	-36.6	-44.6	14.0	1.60e-03	0	61	0	429916160	47	7767
2026-01-18 22:14:12.13	120.45	10.09	-37.9	-48.9	8.7	4.72e-02	0	61	0	433061888	47	12755
2026-01-18 22:14:15.17	120.04	9.80	-39.4	-49.8	8.0	8.00e-02	0	61	0	436207616	48	13326
2026-01-18 22:14:18.19	119.65	9.51	-34.5	-46.0	10.2	2.09e-01	0	61	0	439353344	44	10805
2026-01-18 22:14:21.22	119.27	9.22	-35.3	-45.8	8.9	1.64e-01	0	61	0	442499072	40	13397
2026-01-18 22:14:24.25	118.90	8.94	-31.8	-44.6	8.2	1.94e-01	0	61	0	446169088	36	14586
2026-01-18 22:14:27.28	118.54	8.67	-30.1	-43.4	7.2	3.98e-01	0	61	0	448790528	32	16084
2026-01-18 22:14:30.31	118.19	8.39	-30.0	-43.0	6.5	4.98e-01	0	61	0	450887680	30	17185
2026-01-18 22:14:33.34	117.84	8.12	-32.2	-50.6	4.3	6.68e-01	0	61	104	452460544	36	29075
2026-01-18 22:14:36.37	117.51	7.86	-44.9	-63.1	3.8	8.43e-01	0	61	104	452460544	60	30909
2026-01-18 22:14:39.40	117.19	7.60	-45.5	-63.6	3.8	8.46e-01	0	61	104	452460544	61	30890
2026-01-18 22:14:42.43	116.87	7.34	-45.8	-64.0	3.8	8.47e-01	0	61	104	452460544	62	30529
2026-01-18 22:14:45.46	116.56	7.08	-45.7	-63.9	3.8	8.47e-01	0	61	104	452460544	62	30262
2026-01-18 22:14:48.49	116.26	6.83	-45.6	-63.7	3.8	8.46e-01	0	61	104	452460544	62	29570
2026-01-18 22:14:51.52	115.96	6.58	-45.4	-63.5	3.8	8.46e-01	0	61	104	452460544	62	28962
2026-01-18 22:14:54.55	115.67	6.33	-45.4	-63.5	3.8	8.45e-01	0	61	104	452460544	62	28837
2026-01-18 22:14:57.59	115.39	6.09	-45.4	-63.5	3.8	8.46e-01	0	61	104	452460544	62	28855
2026-01-18 22:15:00.62	115.12	5.85	-45.4	-63.5	3.8	8.47e-01	0	61	104	452460544	62	28847
2026-01-18 22:15:03.65	114.85	5.61	-45.4	-63.5	3.8	8.45e-01	0	61	104	452460544	62	28849
2026-01-18 22:15:06.68	114.59	5.38	-45.4	-63.5	3.8	8.45e-01	0	61	104	452460544	62	28727
2026-01-18 22:15:09.71	114.33	5.14	-45.4	-63.5	3.8	8.47e-01	0	61	104	452460544	62	28691
2026-01-18 22:15:12.74	114.08	4.91	-45.4	-63.5	3.8	8.45e-01	0	61	104	452460544	62	28742
2026-01-18 22:15:15.77	113.84	4.69	-45.4	-63.4	3.8	8.47e-01	0	61	104	452460544	62	28678
2026-01-18 22:15:18.81	113.60	4.46	-45.3	-63.5	3.8	8.47e-01	0	61	104	452460544	62	28683
2026-01-18 22:15:21.84	113.36	4.24	-45.3	-63.5	3.8	8.46e-01	0	61	104	452460544	62	28706
2026-01-18 22:15:24.87	113.14	4.02	-45.3	-63.4	3.8	8.45e-01	0	61	104	452460544	62	28606
2026-01-18 22:15:27.90	112.91	3.80	-45.4	-63.4	3.8	8.45e-01	0	61	104	452460544	62	28568
2026-01-18 22:15:30.93	112.69	3.59	-45.3	-63.4	3.8	8.46e-01	0	61	104	452460544	62	28619
2026-01-18 22:15:33.97	112.48	3.38	-45.3	-63.4	3.8	8.46e-01	0	61	104	452460544	62	28591
2026-01-18 22:15:37.00	112.27	3.17	-45.3	-63.4	3.8	8.44e-01	0	61	104	452460544	62	28516
2026-01-18 22:15:40.03	112.06	2.96	-45.3	-63.4	3.8	8.47e-01	0	61	104	452460544	62	28588
2026-01-18 22:15:43.06	111.86	2.75	-45.3	-63.4	3.8	8.45e-01	0	61	104	452460544	62	28447
2026-01-18 22:15:46.09	111.67	2.55	-45.3	-63.4	3.8	8.46e-01	0	61	104	452460544	62	28554
2026-01-18 22:15:49.12	111.47	2.35	-45.3	-63.4	3.8	8.45e-01	0	61	104	452460544	62	28539
2026-01-18 22:15:52.15	111.29	2.14	-45.3	-63.4	3.8	8.46e-01	0	61	104	452460544	62	28581

#Closed at: 2026-01-18 22:15:54
#Recorded file [452 MB]: D:/lorett/data/31039_260119_010643.dat