passes_logs/2026/01/18/R2.0S_Moscow/R2.0S_Moscow__20260118_015859_SUOMI_NPP_rec.log

#Pass ID: 20260118_015859_SUOMI NPP
#Satellite: SUOMI NPP
#Configuration: NPP
#almurnet v.1.7.20251203
#Start time: 2026-01-18 01:59:00

#Version: 2.2.20231116
#Station: R2.0S_Moscow
#Location: 37.707566 lon 55.798166 lat
#TLE: 1 37849U 11061A   26017.28905266  .00000074  00000+0  55894-4 0  9999
#TLE: 2 37849  98.7814 319.3179 0002408  59.7048 300.4366 14.19525847737038

#Time	Az	El	Level	Level2	SNR	BER	BlckErr	Temp	State	Recorded	gain1	gain2
2026-01-18 01:59:00.25	8.75	2.02	-39.3	-54.5	3.8	1.49e+00	0	51	0	0	50	20465
2026-01-18 01:59:03.27	8.50	2.17	-39.2	-54.5	3.8	1.49e+00	0	52	104	0	49	21561
2026-01-18 01:59:06.30	8.24	2.32	-39.2	-54.4	3.8	1.49e+00	0	52	104	0	49	21474
2026-01-18 01:59:09.34	7.98	2.48	-39.2	-54.5	3.8	1.49e+00	0	52	104	0	49	21516
2026-01-18 01:59:12.37	7.72	2.63	-39.2	-54.5	3.8	1.49e+00	0	52	104	0	49	21525
2026-01-18 01:59:15.40	7.45	2.79	-39.2	-54.5	3.8	1.49e+00	0	53	104	0	49	21507
2026-01-18 01:59:18.44	7.18	2.94	-39.1	-54.4	3.8	1.49e+00	0	53	104	0	49	21440
2026-01-18 01:59:21.47	6.91	3.10	-39.1	-54.4	3.8	1.49e+00	0	53	104	0	49	21448
2026-01-18 01:59:24.50	6.63	3.25	-39.1	-54.4	3.8	1.49e+00	0	53	104	0	49	21457
2026-01-18 01:59:27.53	6.36	3.41	-39.1	-54.4	3.8	1.49e+00	0	53	104	0	49	21483
2026-01-18 01:59:30.56	6.08	3.56	-39.1	-54.4	3.8	1.49e+00	0	54	104	0	49	21387
2026-01-18 01:59:33.60	5.79	3.72	-39.1	-54.4	3.8	1.49e+00	0	54	104	0	49	21341
2026-01-18 01:59:36.63	5.50	3.87	-39.1	-54.4	3.8	1.49e+00	0	54	104	0	49	21313
2026-01-18 01:59:39.67	5.21	4.03	-39.1	-54.4	3.8	1.49e+00	0	54	104	0	49	21326
2026-01-18 01:59:42.70	4.92	4.19	-39.1	-54.4	3.8	1.49e+00	0	54	104	0	49	21320
2026-01-18 01:59:45.73	4.62	4.34	-39.1	-54.4	3.8	1.49e+00	0	54	104	0	49	21280
2026-01-18 01:59:48.77	4.32	4.50	-39.1	-54.4	3.8	1.49e+00	0	55	104	0	49	21302
2026-01-18 01:59:51.80	4.02	4.66	-39.1	-54.4	3.8	1.49e+00	0	55	104	0	49	21270
2026-01-18 01:59:54.83	3.71	4.81	-39.0	-54.4	3.8	1.49e+00	0	55	104	0	49	21288
2026-01-18 01:59:57.86	3.40	4.97	-39.1	-54.3	3.8	1.49e+00	0	55	104	0	49	21253
2026-01-18 02:00:00.90	3.09	5.13	-39.1	-54.4	3.8	1.49e+00	0	55	104	0	49	21305
2026-01-18 02:00:03.93	2.77	5.29	-39.1	-54.4	3.8	1.49e+00	0	55	104	0	49	21281
2026-01-18 02:00:06.97	2.45	5.44	-39.1	-54.4	3.8	1.49e+00	0	55	104	0	49	21278
2026-01-18 02:00:10.00	2.13	5.60	-39.1	-54.4	3.8	1.49e+00	0	56	104	0	49	21304
2026-01-18 02:00:13.03	1.80	5.76	-39.1	-54.3	3.8	1.49e+00	0	56	104	0	49	21238
2026-01-18 02:00:16.06	1.47	5.92	-39.1	-54.4	3.8	1.49e+00	0	56	104	0	49	21299
2026-01-18 02:00:19.09	1.13	6.08	-39.1	-54.4	3.8	1.49e+00	0	56	104	0	49	21298
2026-01-18 02:00:22.13	0.79	6.23	-39.1	-54.4	3.8	1.49e+00	0	56	104	0	49	21285
2026-01-18 02:00:25.16	0.45	6.39	-39.2	-54.4	3.8	1.49e+00	0	56	104	0	49	21267
2026-01-18 02:00:28.19	0.10	6.55	-39.2	-54.4	3.8	1.49e+00	0	56	104	0	49	21268
2026-01-18 02:00:31.23	359.75	6.71	-39.2	-54.4	3.8	1.49e+00	0	56	104	0	49	21296
2026-01-18 02:00:34.26	359.39	6.87	-39.2	-54.4	3.8	1.49e+00	0	56	104	0	49	21297
2026-01-18 02:00:37.29	359.03	7.02	-39.2	-54.4	3.8	1.49e+00	0	57	104	0	49	21264
2026-01-18 02:00:40.33	358.67	7.18	-39.2	-54.4	3.8	1.49e+00	0	57	104	0	49	21277
2026-01-18 02:00:43.36	358.30	7.34	-39.2	-54.4	3.8	1.49e+00	0	57	104	0	49	21304
2026-01-18 02:00:46.39	357.93	7.50	-39.2	-54.4	3.8	1.49e+00	0	57	104	0	49	21330
2026-01-18 02:00:49.42	357.56	7.65	-39.2	-54.4	3.8	1.49e+00	0	57	104	0	49	21350
2026-01-18 02:00:52.46	357.18	7.81	-39.2	-54.4	3.8	1.49e+00	0	57	104	0	49	21304
2026-01-18 02:00:55.49	356.79	7.97	-39.2	-54.3	3.8	1.49e+00	0	57	104	0	49	21254
2026-01-18 02:00:58.52	356.41	8.12	-39.3	-54.5	3.8	1.49e+00	0	57	104	0	49	21753
2026-01-18 02:01:01.55	356.02	8.28	-39.4	-54.6	3.8	1.49e+00	0	57	104	0	49	21973
2026-01-18 02:01:04.58	355.62	8.43	-39.5	-54.6	3.8	1.49e+00	0	58	104	0	50	20763
2026-01-18 02:01:07.61	355.22	8.59	-39.8	-54.7	3.8	1.49e+00	0	57	104	0	50	20946
2026-01-18 02:01:10.64	354.81	8.74	-40.0	-54.8	3.8	1.49e+00	0	57	104	0	50	21171
2026-01-18 02:01:13.67	354.40	8.90	-40.0	-54.8	3.8	1.49e+00	0	58	104	0	50	21260
2026-01-18 02:01:16.70	353.99	9.05	-40.3	-54.9	3.8	1.49e+00	0	58	104	0	51	20185
2026-01-18 02:01:19.73	353.57	9.21	-40.2	-54.9	3.8	1.49e+00	0	58	104	0	51	20074
2026-01-18 02:01:22.76	353.15	9.36	-40.3	-55.0	3.8	1.49e+00	0	58	104	0	51	20348
2026-01-18 02:01:25.79	352.72	9.51	-40.3	-55.0	3.8	1.49e+00	0	58	104	0	51	20403
2026-01-18 02:01:28.82	352.29	9.66	-40.3	-55.1	3.8	1.49e+00	0	58	104	0	51	20617
2026-01-18 02:01:31.84	351.85	9.81	-40.4	-55.1	3.8	1.49e+00	0	58	104	0	51	20656
2026-01-18 02:01:34.87	351.41	9.96	-40.6	-55.3	3.8	1.49e+00	0	58	104	0	51	21089
2026-01-18 02:01:37.90	350.97	10.11	-40.6	-55.3	3.8	1.49e+00	0	58	104	0	52	20020
2026-01-18 02:01:40.93	350.52	10.26	-40.5	-55.2	3.8	1.49e+00	0	58	104	0	52	19663
2026-01-18 02:01:43.96	350.06	10.41	-40.5	-55.2	3.8	1.49e+00	0	58	104	0	52	19709
2026-01-18 02:01:46.99	349.60	10.56	-40.7	-55.3	3.8	1.49e+00	0	58	104	0	52	19992
2026-01-18 02:01:50.01	349.14	10.70	-40.4	-55.2	3.8	1.49e+00	0	58	104	0	52	19673
2026-01-18 02:01:53.04	348.67	10.85	-40.8	-55.5	3.8	1.49e+00	0	58	104	0	52	20489
2026-01-18 02:01:56.07	348.19	10.99	-40.9	-55.5	3.8	1.49e+00	0	58	104	0	52	20457
2026-01-18 02:01:59.10	347.71	11.14	-41.0	-55.7	3.8	1.49e+00	0	59	104	0	52	20783
2026-01-18 02:02:02.12	347.23	11.28	-40.9	-55.5	3.8	1.49e+00	0	59	104	0	52	20477
2026-01-18 02:02:05.15	346.74	11.42	-40.8	-55.5	3.8	1.49e+00	0	58	104	0	52	20305
2026-01-18 02:02:08.18	346.25	11.56	-41.0	-55.6	3.8	1.49e+00	0	59	104	0	52	20772
2026-01-18 02:02:11.21	345.75	11.69	-40.7	-55.4	3.8	1.49e+00	0	59	104	0	52	20082
2026-01-18 02:02:14.24	345.25	11.83	-40.7	-55.3	3.8	1.49e+00	0	59	104	0	52	19956
2026-01-18 02:02:17.27	344.74	11.97	-40.5	-55.3	3.8	1.49e+00	0	59	104	0	52	19984
2026-01-18 02:02:20.30	344.23	12.10	-40.6	-55.2	3.8	1.49e+00	0	59	104	0	52	19812
2026-01-18 02:02:23.33	343.71	12.23	-40.5	-55.1	3.8	1.49e+00	0	59	104	0	52	19517
2026-01-18 02:02:26.36	343.19	12.36	-40.5	-55.1	3.8	1.49e+00	0	59	104	0	52	19545
2026-01-18 02:02:29.39	342.66	12.49	-40.3	-55.1	3.8	1.49e+00	0	59	104	0	52	19397
2026-01-18 02:02:32.42	342.13	12.62	-40.5	-55.1	3.8	1.49e+00	0	59	104	0	52	19590
2026-01-18 02:02:35.45	341.59	12.75	-40.2	-55.0	3.8	1.49e+00	0	59	104	0	52	19316
2026-01-18 02:02:38.48	341.05	12.87	-40.4	-55.1	3.8	1.49e+00	0	59	104	0	52	19514
2026-01-18 02:02:41.51	340.51	12.99	-40.7	-55.4	3.8	1.49e+00	0	59	104	0	52	20083
2026-01-18 02:02:44.54	339.96	13.11	-41.2	-55.1	3.8	1.49e+00	0	59	104	0	52	19515
2026-01-18 02:02:47.58	339.40	13.23	-41.6	-51.6	4.7	1.43e+00	0	59	0	0	53	12329
2026-01-18 02:02:50.61	338.84	13.34	-41.7	-48.9	6.9	1.97e-01	0	59	0	5242880	54	8543
2026-01-18 02:02:53.63	338.28	13.46	-41.1	-46.5	9.5	2.14e-02	0	59	0	11534336	54	6454
2026-01-18 02:02:56.66	337.71	13.57	-41.6	-47.1	9.2	1.32e-02	0	60	0	16777216	54	6912
2026-01-18 02:02:59.69	337.14	13.68	-41.6	-46.7	10.0	1.11e-02	0	59	0	23068672	54	6598
2026-01-18 02:03:02.72	336.57	13.78	-41.7	-46.6	10.2	6.62e-03	0	59	0	28311552	54	6535
2026-01-18 02:03:05.75	335.98	13.89	-41.7	-46.5	10.3	5.98e-03	0	59	0	34603008	54	6494
2026-01-18 02:03:08.78	335.40	13.99	-41.7	-46.4	10.7	2.30e-03	0	59	0	39845888	54	6361
2026-01-18 02:03:11.80	334.81	14.09	-41.5	-45.9	11.2	1.25e-03	0	60	0	45088768	54	6038
2026-01-18 02:03:14.83	334.22	14.18	-41.6	-46.0	11.1	1.30e-03	0	60	0	51380224	54	6128
2026-01-18 02:03:17.86	333.62	14.28	-41.7	-46.2	11.0	1.81e-03	0	60	0	56623104	54	6250
2026-01-18 02:03:20.89	333.02	14.37	-41.7	-46.2	11.0	1.77e-03	0	60	0	62914560	54	6272
2026-01-18 02:03:23.91	332.42	14.46	-41.6	-45.9	11.3	1.53e-03	0	59	0	68157440	54	6052
2026-01-18 02:03:26.94	331.81	14.54	-41.4	-45.3	12.1	4.24e-04	0	60	0	73400320	54	5615
2026-01-18 02:03:29.97	331.20	14.62	-41.3	-45.0	12.4	1.49e-04	0	60	0	79691776	54	5454
2026-01-18 02:03:33.00	330.59	14.70	-41.5	-45.5	11.9	2.82e-04	0	60	0	84934656	54	5735
2026-01-18 02:03:36.03	329.97	14.78	-41.6	-45.7	11.7	6.82e-04	0	60	0	91226112	54	5909
2026-01-18 02:03:39.05	329.35	14.85	-41.3	-45.1	12.4	2.01e-04	0	60	0	96468992	54	5472
2026-01-18 02:03:42.08	328.73	14.92	-41.6	-45.6	11.9	3.39e-04	0	60	0	101711872	54	5818
2026-01-18 02:03:45.11	328.10	14.99	-42.0	-46.5	11.0	1.93e-03	0	60	0	108003328	54	6447
2026-01-18 02:03:48.14	327.47	15.05	-41.9	-46.4	11.1	1.64e-03	0	60	0	113246208	54	6351
2026-01-18 02:03:51.17	326.84	15.11	-41.8	-46.2	11.3	1.28e-03	0	60	0	119537664	54	6224
2026-01-18 02:03:54.20	326.21	15.17	-42.0	-46.4	11.0	1.67e-03	0	60	0	124780544	54	6412
2026-01-18 02:03:57.23	325.57	15.22	-41.9	-46.3	11.1	1.51e-03	0	60	0	131072000	54	6332
2026-01-18 02:04:00.26	324.93	15.27	-41.6	-45.7	11.8	6.47e-04	0	60	0	136314880	54	5862
2026-01-18 02:04:03.28	324.29	15.32	-41.6	-45.6	12.0	3.36e-04	0	60	0	141557760	54	5789
2026-01-18 02:04:06.31	323.65	15.36	-41.6	-45.6	11.9	3.53e-04	0	60	0	147849216	54	5815
2026-01-18 02:04:09.34	323.00	15.40	-41.7	-45.8	11.7	4.55e-04	0	60	0	153092096	54	5947
2026-01-18 02:04:12.37	322.35	15.43	-41.6	-45.7	11.8	4.11e-04	0	60	0	159383552	54	5883
2026-01-18 02:04:15.40	321.70	15.47	-41.7	-45.8	11.7	5.47e-04	0	60	0	164626432	54	5976
2026-01-18 02:04:18.43	321.05	15.49	-41.9	-46.3	11.2	8.89e-04	0	60	0	169869312	54	6301
2026-01-18 02:04:21.45	320.41	15.52	-42.1	-46.8	10.7	2.51e-03	0	60	0	176160768	54	6656
2026-01-18 02:04:24.48	319.75	15.54	-41.9	-46.4	11.0	1.89e-03	0	60	0	181403648	54	6419
2026-01-18 02:04:27.51	319.10	15.56	-41.8	-46.2	11.3	1.05e-03	0	60	0	187695104	54	6204
2026-01-18 02:04:30.54	318.45	15.57	-41.9	-46.4	11.1	1.52e-03	0	60	0	192937984	54	6351
2026-01-18 02:04:33.57	317.79	15.58	-41.9	-46.4	11.1	1.56e-03	0	60	0	199229440	54	6411
2026-01-18 02:04:36.60	317.14	15.59	-41.7	-45.8	11.7	6.65e-04	0	60	0	204472320	54	5941
2026-01-18 02:04:39.62	316.49	15.59	-41.5	-45.5	12.0	3.36e-04	0	60	0	209715200	54	5765
2026-01-18 02:04:42.65	315.83	15.59	-41.8	-46.1	11.5	6.82e-04	0	60	0	216006656	54	6140
2026-01-18 02:04:45.68	315.18	15.58	-41.8	-46.2	11.3	1.28e-03	0	60	0	221249536	54	6261
2026-01-18 02:04:48.71	314.52	15.57	-41.8	-46.1	11.3	9.48e-04	0	60	0	227540992	54	6188
2026-01-18 02:04:51.74	313.87	15.56	-41.6	-45.6	12.0	3.94e-04	0	60	0	232783872	54	5789
2026-01-18 02:04:54.77	313.21	15.54	-41.5	-45.5	12.0	3.07e-04	0	60	0	238026752	54	5762
2026-01-18 02:04:57.79	312.56	15.52	-41.7	-46.0	11.5	7.72e-04	0	60	0	244318208	54	6088
2026-01-18 02:05:00.82	311.91	15.50	-41.9	-46.5	10.9	1.69e-03	0	60	0	249561088	54	6449
2026-01-18 02:05:03.85	311.26	15.47	-42.2	-47.0	10.4	5.04e-03	0	60	0	255852544	54	6876
2026-01-18 02:05:06.88	310.61	15.44	-42.2	-47.3	10.1	7.19e-03	0	60	0	261095424	55	6704
2026-01-18 02:05:09.91	309.96	15.40	-42.0	-46.7	10.7	3.53e-03	0	60	0	267386880	55	6267
2026-01-18 02:05:12.94	309.32	15.36	-41.8	-46.2	11.3	1.42e-03	0	60	0	272629760	55	5866
2026-01-18 02:05:15.97	308.67	15.32	-41.8	-46.1	11.4	7.57e-04	0	60	0	277872640	55	5815
2026-01-18 02:05:18.99	308.03	15.28	-41.8	-46.2	11.2	1.12e-03	0	60	0	284164096	55	5910
2026-01-18 02:05:22.02	307.39	15.23	-41.8	-46.3	11.2	1.36e-03	0	60	0	289406976	55	5956
2026-01-18 02:05:25.05	306.75	15.17	-41.6	-45.7	11.7	5.07e-04	0	60	0	295698432	55	5536
2026-01-18 02:05:28.08	306.12	15.12	-41.6	-45.7	11.8	3.40e-04	0	60	0	300941312	54	5894
2026-01-18 02:05:31.11	305.49	15.06	-41.8	-46.1	11.3	1.21e-03	0	60	0	306184192	54	6185
2026-01-18 02:05:34.13	304.86	15.00	-41.7	-46.0	11.5	6.64e-04	0	60	0	312475648	54	6071
2026-01-18 02:05:37.16	304.23	14.93	-41.8	-46.0	11.4	9.11e-04	0	60	0	317718528	54	6105
2026-01-18 02:05:40.19	303.60	14.86	-41.7	-46.0	11.4	1.02e-03	0	60	0	324009984	54	6103
2026-01-18 02:05:43.22	302.98	14.79	-41.8	-46.2	11.2	1.25e-03	0	61	0	329252864	54	6257
2026-01-18 02:05:46.25	302.36	14.71	-41.9	-46.3	11.1	1.75e-03	0	61	0	335544320	54	6300
2026-01-18 02:05:49.28	301.74	14.63	-41.4	-45.2	12.2	2.99e-04	0	60	0	340787200	54	5575
2026-01-18 02:05:52.31	301.13	14.55	-41.4	-45.3	12.0	2.10e-04	0	60	0	346030080	54	5654
2026-01-18 02:05:55.35	300.52	14.46	-41.3	-45.1	12.3	1.56e-04	0	60	0	352321536	54	5482
2026-01-18 02:05:58.38	299.92	14.38	-41.3	-45.1	12.3	1.53e-04	0	60	0	357564416	54	5487
2026-01-18 02:06:01.41	299.31	14.29	-41.7	-45.9	11.4	6.72e-04	0	60	0	363855872	54	6047
2026-01-18 02:06:04.44	298.71	14.19	-41.7	-46.0	11.3	1.22e-03	0	60	0	369098752	54	6128
2026-01-18 02:06:07.46	298.12	14.10	-41.8	-46.4	11.0	1.64e-03	0	60	0	374341632	54	6349
2026-01-18 02:06:10.49	297.53	14.00	-42.0	-46.9	10.3	3.64e-03	0	60	0	380633088	54	6736
2026-01-18 02:06:13.52	296.94	13.90	-41.8	-46.6	10.5	4.04e-03	0	61	0	385875968	54	6496
2026-01-18 02:06:16.55	296.36	13.79	-41.5	-45.8	11.2	1.36e-03	0	60	0	392167424	54	5975
2026-01-18 02:06:19.57	295.79	13.69	-41.3	-45.5	11.4	8.41e-04	0	60	0	397410304	54	5784
2026-01-18 02:06:22.60	295.21	13.58	-41.4	-45.9	10.9	2.01e-03	0	60	0	403701760	54	6004
2026-01-18 02:06:25.63	294.64	13.47	-41.4	-45.9	10.8	2.93e-03	0	60	0	408944640	54	6037
2026-01-18 02:06:28.66	294.08	13.35	-41.2	-45.6	11.0	1.86e-03	0	61	0	414187520	54	5803
2026-01-18 02:06:31.68	293.52	13.24	-40.9	-45.1	11.4	1.12e-03	0	61	0	420478976	53	5855
2026-01-18 02:06:34.71	292.96	13.12	-41.2	-45.9	10.5	2.71e-03	0	60	0	425721856	53	6375
2026-01-18 02:06:37.74	292.41	13.00	-41.3	-46.5	9.7	9.72e-03	0	60	0	432013312	53	6819
2026-01-18 02:06:40.77	291.86	12.88	-41.5	-47.2	8.9	2.40e-02	0	61	0	437256192	53	7384
2026-01-18 02:06:43.80	291.32	12.76	-41.5	-47.8	8.1	5.49e-02	0	60	0	442499072	53	7929
2026-01-18 02:06:46.83	290.78	12.63	-41.5	-47.7	8.1	5.71e-02	0	61	0	448790528	53	7879
2026-01-18 02:06:49.85	290.25	12.50	-41.3	-47.4	8.4	4.65e-02	0	61	0	454033408	53	7579
2026-01-18 02:06:52.88	289.72	12.37	-41.4	-48.0	7.7	7.11e-02	0	60	0	460324864	53	8147
2026-01-18 02:06:55.91	289.19	12.24	-41.4	-48.4	7.2	1.18e-01	0	61	0	465567744	53	8518
2026-01-18 02:06:58.94	288.67	12.11	-41.4	-48.7	6.8	1.81e-01	0	60	0	470810624	53	8844
2026-01-18 02:07:01.97	288.16	11.98	-41.4	-49.7	5.8	3.28e-01	0	60	0	477102080	53	9906
2026-01-18 02:07:05.00	287.65	11.84	-41.4	-51.0	4.9	7.02e-01	0	61	0	482344960	53	11522
2026-01-18 02:07:08.03	287.14	11.70	-41.3	-51.2	4.7	8.60e-01	0	61	0	488636416	53	11772
2026-01-18 02:07:11.05	286.64	11.57	-41.3	-51.4	4.6	9.25e-01	0	61	0	493879296	53	12030
2026-01-18 02:07:14.09	286.14	11.43	-41.4	-52.4	4.3	1.30e+00	0	61	0	499122176	53	13465
2026-01-18 02:07:17.11	285.65	11.29	-41.5	-53.1	4.1	1.42e+00	0	61	0	499122176	53	14605
2026-01-18 02:07:20.15	285.17	11.14	-41.6	-53.8	4.0	1.48e+00	0	61	104	499122176	53	15865
2026-01-18 02:07:23.18	284.68	11.00	-41.8	-52.3	4.4	1.38e+00	0	61	0	499122176	54	12649
2026-01-18 02:07:26.21	284.21	10.86	-41.9	-50.9	5.2	6.97e-01	0	61	0	504365056	54	10686
2026-01-18 02:07:29.23	283.74	10.71	-42.0	-50.7	5.4	4.99e-01	0	61	0	509607936	54	10434
2026-01-18 02:07:32.26	283.27	10.57	-42.2	-52.2	4.6	8.53e-01	0	61	0	515899392	54	12403
2026-01-18 02:07:35.29	282.81	10.42	-42.3	-52.8	4.4	1.29e+00	0	61	0	521142272	55	12584
2026-01-18 02:07:38.32	282.35	10.27	-42.1	-51.2	5.1	6.80e-01	0	61	0	526385152	55	10499
2026-01-18 02:07:41.35	281.89	10.12	-42.0	-50.7	5.4	5.78e-01	0	61	0	532676608	55	9872
2026-01-18 02:07:44.38	281.44	9.97	-41.9	-50.4	5.5	4.84e-01	0	61	0	537919488	55	9585
2026-01-18 02:07:47.41	281.00	9.82	-41.7	-50.2	5.7	4.32e-01	0	61	0	544210944	55	9295
2026-01-18 02:07:50.44	280.56	9.67	-41.5	-50.2	5.5	4.72e-01	0	61	0	549453824	55	9290
2026-01-18 02:07:53.47	280.13	9.52	-41.4	-50.7	5.1	6.15e-01	0	61	0	555745280	54	10461
2026-01-18 02:07:56.49	279.70	9.37	-41.3	-51.0	4.9	7.56e-01	0	61	0	560988160	54	10784
2026-01-18 02:07:59.52	279.27	9.21	-41.2	-51.5	4.5	9.28e-01	0	61	0	566231040	54	11421
2026-01-18 02:08:02.55	278.85	9.06	-41.0	-52.1	4.3	1.35e+00	0	61	0	570425344	54	12247
2026-01-18 02:08:05.58	278.43	8.90	-40.9	-52.8	4.0	1.44e+00	0	61	0	570425344	53	14195
2026-01-18 02:08:08.61	278.02	8.75	-40.8	-53.7	3.8	1.49e+00	0	61	104	570425344	53	15689
2026-01-18 02:08:11.64	277.61	8.59	-40.6	-54.0	3.8	1.49e+00	0	61	104	570425344	53	16219
2026-01-18 02:08:14.66	277.21	8.44	-40.5	-54.3	3.8	1.49e+00	0	61	104	570425344	53	16873
2026-01-18 02:08:17.69	276.81	8.28	-40.5	-54.6	3.8	1.49e+00	0	61	104	570425344	53	17313
2026-01-18 02:08:20.72	276.42	8.13	-40.5	-54.6	3.8	1.49e+00	0	61	104	570425344	53	17424
2026-01-18 02:08:23.75	276.03	7.97	-43.1	-57.3	3.8	1.49e+00	0	61	104	570425344	56	19999
2026-01-18 02:08:26.79	275.64	7.81	-45.0	-59.5	3.8	1.49e+00	0	61	104	570425344	60	20487
2026-01-18 02:08:29.82	275.26	7.66	-45.2	-59.8	3.8	1.49e+00	0	61	104	570425344	60	21036
2026-01-18 02:08:32.85	274.88	7.50	-45.2	-59.8	3.8	1.49e+00	0	61	104	570425344	61	19878
2026-01-18 02:08:35.88	274.50	7.34	-45.2	-59.7	3.8	1.49e+00	0	61	104	570425344	61	19683
2026-01-18 02:08:38.92	274.13	7.18	-45.2	-59.7	3.8	1.49e+00	0	61	104	570425344	61	19765
2026-01-18 02:08:41.95	273.77	7.03	-45.1	-59.6	3.8	1.49e+00	0	61	104	570425344	61	19604
2026-01-18 02:08:44.98	273.41	6.87	-45.1	-59.6	3.8	1.49e+00	0	61	104	570425344	61	19535
2026-01-18 02:08:48.02	273.05	6.71	-45.1	-59.6	3.8	1.49e+00	0	61	104	570425344	61	19480
2026-01-18 02:08:51.05	272.69	6.55	-45.1	-59.6	3.8	1.49e+00	0	61	104	570425344	61	19497
2026-01-18 02:08:54.08	272.34	6.39	-45.1	-59.6	3.8	1.49e+00	0	61	104	570425344	61	19483
2026-01-18 02:08:57.12	272.00	6.23	-45.1	-59.6	3.8	1.49e+00	0	61	104	570425344	61	19526
2026-01-18 02:09:00.15	271.65	6.08	-45.1	-59.6	3.8	1.49e+00	0	61	104	570425344	61	19429
2026-01-18 02:09:03.18	271.31	5.92	-45.1	-59.6	3.8	1.49e+00	0	61	104	570425344	61	19505
2026-01-18 02:09:06.22	270.98	5.76	-45.1	-59.6	3.8	1.49e+00	0	61	104	570425344	61	19513
2026-01-18 02:09:09.25	270.65	5.60	-45.1	-59.6	3.8	1.49e+00	0	61	104	570425344	61	19515
2026-01-18 02:09:12.28	270.32	5.44	-45.1	-59.6	3.8	1.49e+00	0	61	104	570425344	61	19463
2026-01-18 02:09:15.31	270.00	5.29	-45.1	-59.6	3.8	1.49e+00	0	61	104	570425344	61	19458
2026-01-18 02:09:18.35	269.68	5.13	-45.1	-59.6	3.8	1.49e+00	0	61	104	570425344	61	19450
2026-01-18 02:09:21.38	269.36	4.97	-45.1	-59.6	3.8	1.49e+00	0	61	104	570425344	61	19556
2026-01-18 02:09:24.41	269.05	4.81	-45.1	-59.6	3.8	1.49e+00	0	61	104	570425344	61	19429
2026-01-18 02:09:27.44	268.74	4.66	-45.1	-59.6	3.8	1.49e+00	0	61	104	570425344	61	19418
2026-01-18 02:09:30.48	268.43	4.50	-45.1	-59.6	3.8	1.49e+00	0	61	104	570425344	61	19427
2026-01-18 02:09:33.51	268.12	4.34	-45.1	-59.6	3.8	1.49e+00	0	61	104	570425344	61	19422
2026-01-18 02:09:36.54	267.83	4.18	-45.0	-59.5	3.8	1.49e+00	0	61	104	570425344	61	19361
2026-01-18 02:09:39.57	267.53	4.03	-45.0	-59.6	3.8	1.49e+00	0	61	104	570425344	61	19428
2026-01-18 02:09:42.60	267.24	3.87	-45.0	-59.5	3.8	1.49e+00	0	61	104	570425344	61	19328
2026-01-18 02:09:45.63	266.95	3.71	-45.0	-59.6	3.8	1.49e+00	0	61	104	570425344	61	19392
2026-01-18 02:09:48.67	266.66	3.56	-45.0	-59.5	3.8	1.49e+00	0	61	104	570425344	61	19337
2026-01-18 02:09:51.70	266.37	3.40	-45.0	-59.5	3.8	1.49e+00	0	61	104	570425344	61	19362
2026-01-18 02:09:54.73	266.09	3.25	-45.0	-59.5	3.8	1.49e+00	0	61	104	570425344	61	19368
2026-01-18 02:09:57.76	265.81	3.09	-45.0	-59.5	3.8	1.49e+00	0	61	104	570425344	61	19297
2026-01-18 02:10:00.79	265.54	2.94	-45.0	-59.5	3.8	1.49e+00	0	61	104	570425344	61	19375
2026-01-18 02:10:03.83	265.27	2.78	-45.0	-59.5	3.8	1.49e+00	0	61	104	570425344	61	19349
2026-01-18 02:10:06.86	265.00	2.63	-45.0	-59.5	3.8	1.49e+00	0	61	104	570425344	61	19331
2026-01-18 02:10:09.89	264.73	2.47	-45.0	-59.6	3.8	1.49e+00	0	61	104	570425344	61	19422
2026-01-18 02:10:12.93	264.47	2.32	-45.0	-59.5	3.8	1.49e+00	0	61	104	570425344	61	19338
2026-01-18 02:10:15.96	264.21	2.16	-45.0	-59.5	3.8	1.49e+00	0	61	104	570425344	61	19362
2026-01-18 02:10:18.99	263.95	2.01	-45.0	-59.5	3.8	1.49e+00	0	61	104	570425344	61	19318

#Closed at: 2026-01-18 02:10:21
#Recorded file [570 MB]: D:/lorett/data/31039_260118_045900.dat