passes_logs/2026/01/18/R2.0S_Moscow/R2.0S_Moscow__20260118_223954_NOAA_20_JPSS-1_rec.log

#Pass ID: 20260118_223954_NOAA 20 (JPSS-1)
#Satellite: NOAA 20 (JPSS-1)
#Configuration: NOAA 20
#almurnet v.1.7.20251203
#Start time: 2026-01-18 22:39:54

#Version: 2.2.20231116
#Station: R2.0S_Moscow
#Location: 37.707566 lon 55.798166 lat
#TLE: 1 43013U 17073A   26017.93796159  .00000077  00000+0  57252-4 0  9992
#TLE: 2 43013  98.7639 318.8464 0001390  34.9771 325.1496 14.19536703423157

#Time	Az	El	Level	Level2	SNR	BER	BlckErr	Temp	State	Recorded	gain1	gain2
2026-01-18 22:39:54.49	21.59	2.02	-42.4	-57.4	3.8	1.49e+00	0	53	0	0	56	20230
2026-01-18 22:39:58.52	21.79	2.26	-42.2	-57.2	3.8	1.49e+00	0	53	104	0	55	20975
2026-01-18 22:40:02.56	21.99	2.51	-42.3	-57.2	3.8	1.49e+00	0	53	104	0	55	20984
2026-01-18 22:40:06.61	22.20	2.75	-42.2	-57.2	3.8	1.49e+00	0	54	104	0	55	20975
2026-01-18 22:40:10.65	22.41	3.00	-42.3	-57.2	3.8	1.49e+00	0	54	104	0	55	20950
2026-01-18 22:40:14.69	22.62	3.25	-42.3	-57.2	3.8	1.49e+00	0	54	104	0	55	20911
2026-01-18 22:40:18.73	22.84	3.50	-42.2	-57.2	3.8	1.49e+00	0	54	104	0	55	20961
2026-01-18 22:40:22.78	23.06	3.75	-42.2	-57.2	3.8	1.49e+00	0	55	104	0	55	20889
2026-01-18 22:40:26.82	23.28	4.01	-42.2	-57.2	3.8	1.49e+00	0	55	104	0	55	20973
2026-01-18 22:40:30.86	23.50	4.26	-42.2	-57.2	3.8	1.49e+00	0	55	104	0	55	20881
2026-01-18 22:40:34.90	23.73	4.52	-42.2	-57.2	3.8	1.49e+00	0	56	104	0	55	20862
2026-01-18 22:40:38.94	23.97	4.78	-42.3	-57.2	3.8	1.49e+00	0	56	104	0	55	20950
2026-01-18 22:40:42.99	24.20	5.05	-42.2	-57.2	3.8	1.49e+00	0	56	104	0	55	20854
2026-01-18 22:40:47.03	24.44	5.31	-42.3	-57.2	3.8	1.49e+00	0	56	104	0	55	20881
2026-01-18 22:40:51.07	24.69	5.58	-42.2	-57.2	3.8	1.49e+00	0	56	104	0	55	20820
2026-01-18 22:40:55.11	24.94	5.85	-42.2	-57.2	3.8	1.49e+00	0	56	104	0	55	20864
2026-01-18 22:40:59.15	25.19	6.13	-42.2	-57.2	3.8	1.49e+00	0	56	104	0	55	20950
2026-01-18 22:41:03.19	25.45	6.40	-42.2	-57.2	3.8	1.49e+00	0	57	104	0	55	20903
2026-01-18 22:41:07.23	25.71	6.68	-42.2	-57.2	3.8	1.49e+00	0	57	104	0	55	20891
2026-01-18 22:41:11.27	25.98	6.96	-42.2	-57.2	3.8	1.49e+00	0	57	104	0	55	20895
2026-01-18 22:41:15.32	26.25	7.24	-42.2	-57.1	3.8	1.49e+00	0	57	104	0	55	20665
2026-01-18 22:41:19.36	26.53	7.53	-42.1	-55.4	3.8	1.49e+00	0	58	104	0	55	16985
2026-01-18 22:41:23.40	26.81	7.82	-41.6	-49.8	6.2	3.42e-01	0	57	0	4194304	55	8941
2026-01-18 22:41:27.44	27.10	8.11	-42.0	-52.4	4.8	3.03e-01	0	57	0	11534336	54	12700
2026-01-18 22:41:31.48	27.40	8.40	-42.2	-49.9	6.5	3.82e-01	0	58	0	14680064	56	8503
2026-01-18 22:41:35.52	27.69	8.70	-41.8	-48.2	8.2	7.37e-02	0	58	0	23068672	55	7375
2026-01-18 22:41:39.56	28.00	9.00	-41.9	-47.9	8.8	2.78e-02	0	58	0	30408704	55	7129
2026-01-18 22:41:43.60	28.31	9.30	-41.8	-47.5	9.3	2.07e-02	0	58	0	37748736	55	6806
2026-01-18 22:41:47.64	28.63	9.61	-41.8	-47.1	9.9	1.08e-02	0	58	0	45088768	55	6531
2026-01-18 22:41:51.67	28.95	9.92	-41.8	-47.0	10.1	8.64e-03	0	58	0	52428800	55	6438
2026-01-18 22:41:55.71	29.28	10.23	-41.8	-46.8	10.3	5.07e-03	0	58	0	60817408	55	6323
2026-01-18 22:41:59.75	29.62	10.54	-41.8	-46.4	10.8	2.78e-03	0	59	0	68157440	55	6047
2026-01-18 22:42:03.79	29.96	10.86	-41.8	-46.5	10.8	2.29e-03	0	58	0	75497472	55	6077
2026-01-18 22:42:07.83	30.31	11.18	-41.8	-46.3	11.1	1.72e-03	0	59	0	82837504	55	5937
2026-01-18 22:42:11.86	30.67	11.51	-41.8	-46.2	11.2	1.32e-03	0	59	0	91226112	55	5873
2026-01-18 22:42:15.90	31.03	11.84	-41.8	-46.1	11.4	1.08e-03	0	59	0	98566144	55	5833
2026-01-18 22:42:19.94	31.41	12.17	-41.9	-46.4	11.1	1.53e-03	0	59	0	105906176	55	6005
2026-01-18 22:42:23.97	31.79	12.50	-41.8	-46.2	11.4	1.04e-03	0	59	0	113246208	55	5866
2026-01-18 22:42:28.01	32.18	12.84	-41.8	-46.1	11.5	8.20e-04	0	59	0	120586240	55	5803
2026-01-18 22:42:32.05	32.58	13.18	-41.9	-46.2	11.6	7.11e-04	0	59	0	128974848	55	5869
2026-01-18 22:42:36.09	32.98	13.53	-41.8	-46.0	11.7	5.29e-04	0	59	0	136314880	55	5778
2026-01-18 22:42:40.13	33.40	13.88	-41.7	-45.8	11.9	4.06e-04	0	59	0	143654912	55	5626
2026-01-18 22:42:44.17	33.83	14.23	-41.7	-45.6	12.1	2.49e-04	0	60	0	150994944	55	5526
2026-01-18 22:42:48.21	34.26	14.59	-41.9	-46.0	11.7	4.99e-04	0	60	0	159383552	55	5776
2026-01-18 22:42:52.25	34.71	14.95	-42.0	-46.4	11.4	8.15e-04	0	60	0	166723584	55	6005
2026-01-18 22:42:56.29	35.17	15.32	-42.0	-46.3	11.5	8.28e-04	0	60	0	174063616	55	5973
2026-01-18 22:43:00.33	35.64	15.69	-42.2	-46.7	11.1	1.35e-03	0	60	0	181403648	55	6229
2026-01-18 22:43:04.37	36.12	16.06	-42.4	-47.0	10.8	2.44e-03	0	60	0	188743680	55	6489
2026-01-18 22:43:08.41	36.61	16.44	-42.3	-46.9	10.9	2.59e-03	0	60	0	197132288	55	6416
2026-01-18 22:43:12.44	37.11	16.82	-42.4	-47.0	10.9	2.51e-03	0	60	0	204472320	55	6433
2026-01-18 22:43:16.48	37.63	17.20	-42.3	-46.8	11.1	1.62e-03	0	60	0	211812352	55	6288
2026-01-18 22:43:20.52	38.15	17.59	-42.4	-47.1	10.9	2.17e-03	0	60	0	219152384	55	6505
2026-01-18 22:43:24.55	38.69	17.98	-42.5	-47.1	10.8	2.70e-03	0	60	0	227540992	55	6552
2026-01-18 22:43:28.59	39.25	18.38	-42.5	-47.2	10.7	3.15e-03	0	60	0	234881024	55	6617
2026-01-18 22:43:32.63	39.82	18.78	-42.5	-47.2	10.8	2.47e-03	0	60	0	242221056	55	6589
2026-01-18 22:43:36.66	40.40	19.18	-42.4	-46.9	11.1	1.72e-03	0	60	0	249561088	55	6403
2026-01-18 22:43:40.70	41.00	19.59	-42.3	-46.6	11.4	1.17e-03	0	60	0	256901120	55	6188
2026-01-18 22:43:44.74	41.62	20.00	-42.3	-46.6	11.5	9.49e-04	0	60	0	265289728	55	6138
2026-01-18 22:43:48.78	42.25	20.42	-42.3	-46.5	11.6	7.12e-04	0	60	0	272629760	55	6104
2026-01-18 22:43:52.81	42.90	20.84	-42.1	-46.2	11.9	3.91e-04	0	60	0	279969792	55	5863
2026-01-18 22:43:56.85	43.57	21.26	-42.1	-46.2	11.9	3.28e-04	0	60	0	287309824	55	5870
2026-01-18 22:44:00.88	44.25	21.68	-42.0	-45.9	12.2	2.20e-04	0	60	0	295698432	55	5670
2026-01-18 22:44:04.92	44.95	22.11	-41.7	-45.3	12.8	6.94e-05	0	61	0	303038464	55	5327
2026-01-18 22:44:08.96	45.68	22.54	-41.8	-45.4	12.8	6.79e-05	0	60	0	310378496	55	5354
2026-01-18 22:44:13.00	46.42	22.98	-41.8	-45.4	12.8	6.86e-05	0	61	0	317718528	55	5364
2026-01-18 22:44:17.04	47.18	23.41	-41.6	-45.1	13.1	2.13e-05	0	61	0	325058560	55	5191
2026-01-18 22:44:21.07	47.96	23.85	-41.4	-44.8	13.4	1.67e-05	0	61	0	333447168	54	5300
2026-01-18 22:44:25.12	48.77	24.29	-41.4	-44.7	13.5	9.90e-06	0	60	0	340787200	54	5277
2026-01-18 22:44:29.15	49.60	24.73	-41.5	-44.8	13.4	1.60e-05	0	61	0	348127232	54	5332
2026-01-18 22:44:33.19	50.45	25.17	-41.7	-45.2	13.1	3.28e-05	0	61	0	355467264	54	5560
2026-01-18 22:44:37.22	51.32	25.62	-41.6	-45.0	13.3	1.60e-05	0	61	0	362807296	54	5412
2026-01-18 22:44:41.26	52.22	26.06	-41.9	-45.4	12.8	5.18e-05	0	61	0	371195904	54	5717
2026-01-18 22:44:45.30	53.15	26.51	-42.1	-45.9	12.4	1.63e-04	0	61	0	378535936	54	6009
2026-01-18 22:44:49.34	54.10	26.95	-42.4	-46.6	11.7	5.71e-04	0	61	0	385875968	55	6165
2026-01-18 22:44:53.38	55.07	27.39	-42.6	-47.1	11.2	1.29e-03	0	61	0	393216000	55	6498
2026-01-18 22:44:57.41	56.08	27.83	-43.0	-47.6	10.7	2.67e-03	0	61	0	401604608	56	6562
2026-01-18 22:45:01.45	57.11	28.27	-43.1	-48.0	10.4	4.85e-03	0	61	0	408944640	56	6869
2026-01-18 22:45:05.49	58.17	28.71	-43.1	-47.9	10.5	3.57e-03	0	61	0	416284672	56	6754
2026-01-18 22:45:09.53	59.25	29.14	-43.7	-49.7	8.6	2.94e-02	0	61	0	423624704	58	7440
2026-01-18 22:45:13.57	60.37	29.56	-44.0	-50.6	7.7	8.05e-02	0	61	0	430964736	58	8225
2026-01-18 22:45:17.61	61.52	29.98	-44.0	-50.7	7.7	1.03e-01	0	61	0	439353344	58	8314
2026-01-18 22:45:21.64	62.69	30.40	-44.4	-52.0	6.7	4.87e-01	0	61	0	446693376	59	9129
2026-01-18 22:45:25.68	63.89	30.81	-44.3	-52.4	6.1	3.56e-01	0	61	0	447741952	60	9062
2026-01-18 22:45:29.72	65.13	31.20	-44.0	-50.5	7.9	8.82e-02	0	61	0	455081984	59	7638
2026-01-18 22:45:33.75	66.39	31.59	-43.8	-49.9	8.6	4.52e-02	0	61	0	462422016	59	7126
2026-01-18 22:45:37.79	67.69	31.97	-43.4	-48.4	10.0	1.04e-02	0	61	0	470810624	58	6404
2026-01-18 22:45:41.83	69.01	32.34	-43.1	-47.7	10.8	2.75e-03	0	61	0	478150656	58	5907
2026-01-18 22:45:45.87	70.37	32.70	-43.2	-48.0	10.4	4.79e-03	0	61	0	485490688	58	6093
2026-01-18 22:45:49.91	71.75	33.04	-42.9	-47.4	11.1	1.73e-03	0	61	0	492830720	57	6017
2026-01-18 22:45:53.95	73.16	33.36	-43.0	-47.5	11.0	1.72e-03	0	61	0	500170752	57	6076
2026-01-18 22:45:57.98	74.60	33.67	-43.3	-48.2	10.4	3.67e-03	0	61	0	508559360	57	6594
2026-01-18 22:46:02.02	76.07	33.97	-43.7	-49.3	9.1	1.69e-02	0	61	0	515899392	57	7538
2026-01-18 22:46:06.06	77.56	34.24	-44.0	-50.3	8.2	5.68e-02	0	61	0	523239424	58	7939
2026-01-18 22:46:10.09	79.07	34.50	-43.9	-50.0	8.5	4.45e-02	0	61	0	530579456	58	7650
2026-01-18 22:46:14.13	80.61	34.73	-43.6	-49.1	9.4	1.58e-02	0	61	0	538968064	58	6914
2026-01-18 22:46:18.17	82.17	34.95	-43.4	-48.4	10.1	7.23e-03	0	61	0	546308096	58	6390
2026-01-18 22:46:22.21	83.75	35.14	-43.0	-47.4	11.2	1.30e-03	0	62	0	553648128	58	5694
2026-01-18 22:46:26.25	85.35	35.31	-43.5	-48.8	9.8	9.85e-03	0	61	0	560988160	57	7054
2026-01-18 22:46:30.28	86.96	35.45	-43.6	-48.9	9.6	1.10e-02	0	61	0	568328192	57	7190
2026-01-18 22:46:34.32	88.59	35.57	-43.7	-49.3	9.2	2.12e-02	0	61	0	576716800	58	7076
2026-01-18 22:46:38.37	90.23	35.67	-43.8	-49.5	9.0	2.45e-02	0	61	0	584056832	58	7259
2026-01-18 22:46:42.40	91.87	35.74	-43.7	-49.1	9.4	2.03e-02	0	61	0	591396864	58	6920
2026-01-18 22:46:46.44	93.52	35.78	-43.4	-48.4	10.2	6.45e-03	0	61	0	598736896	58	6372
2026-01-18 22:46:50.47	95.17	35.80	-43.5	-48.7	9.9	9.07e-03	0	61	0	606076928	58	6615
2026-01-18 22:46:54.51	96.83	35.79	-43.1	-47.6	11.0	2.05e-03	0	61	0	614465536	58	5854
2026-01-18 22:46:58.55	98.48	35.75	-43.6	-48.9	9.7	1.16e-02	0	61	0	621805568	58	6783
2026-01-18 22:47:02.59	100.13	35.69	-43.1	-47.6	11.1	1.42e-03	0	62	0	629145600	58	5823
2026-01-18 22:47:06.62	101.77	35.61	-43.9	-49.7	8.9	1.95e-02	0	61	0	636485632	58	7413
2026-01-18 22:47:10.66	103.40	35.49	-44.3	-51.2	7.4	1.10e-01	0	62	0	644874240	59	8330
2026-01-18 22:47:14.70	105.02	35.36	-43.7	-49.3	9.3	2.45e-02	0	61	0	652214272	59	6713
2026-01-18 22:47:18.74	106.62	35.20	-43.5	-48.8	9.9	1.13e-02	0	61	0	659554304	59	6280
2026-01-18 22:47:22.78	108.21	35.01	-43.7	-49.2	9.4	1.16e-02	0	61	0	666894336	58	7017
2026-01-18 22:47:26.82	109.78	34.80	-43.2	-47.9	10.8	3.58e-03	0	61	0	674234368	58	6033
2026-01-18 22:47:30.86	111.33	34.57	-43.4	-48.5	10.2	7.00e-03	0	62	0	682622976	58	6437
2026-01-18 22:47:34.90	112.86	34.32	-42.9	-47.2	11.5	1.00e-03	0	62	0	689963008	57	5875
2026-01-18 22:47:38.94	114.36	34.05	-42.8	-46.9	11.8	4.03e-04	0	62	0	697303040	57	5705
2026-01-18 22:47:42.98	115.84	33.76	-43.2	-48.0	10.7	3.19e-03	0	62	0	704643072	57	6427
2026-01-18 22:47:47.01	117.29	33.46	-43.2	-48.0	10.6	2.82e-03	0	62	0	713031680	57	6446
2026-01-18 22:47:51.05	118.72	33.13	-43.0	-47.4	11.3	1.23e-03	0	62	0	720371712	57	6050
2026-01-18 22:47:55.09	120.11	32.80	-43.5	-48.7	9.9	1.03e-02	0	61	0	727711744	57	7028
2026-01-18 22:47:59.13	121.48	32.44	-43.8	-49.6	9.0	1.55e-02	0	61	0	735051776	58	7320
2026-01-18 22:48:03.17	122.82	32.08	-43.6	-49.1	9.5	1.73e-02	0	62	0	742391808	58	6901
2026-01-18 22:48:07.20	124.13	31.70	-43.9	-50.0	8.5	4.04e-02	0	62	0	750780416	58	7709
2026-01-18 22:48:11.24	125.41	31.31	-43.5	-48.6	10.0	5.85e-03	0	62	0	758120448	58	6550
2026-01-18 22:48:15.27	126.65	30.92	-44.0	-50.1	8.4	6.61e-02	0	62	0	765460480	58	7770
2026-01-18 22:48:19.31	127.87	30.51	-44.1	-50.6	7.9	5.46e-02	0	61	0	772800512	58	8247
2026-01-18 22:48:23.35	129.06	30.09	-42.9	-47.3	11.4	1.50e-03	0	62	0	781189120	57	5954
2026-01-18 22:48:27.38	130.21	29.67	-43.6	-49.1	9.4	1.87e-02	0	62	0	788529152	57	7326
2026-01-18 22:48:31.42	131.34	29.25	-43.5	-48.7	9.9	5.13e-03	0	62	0	795869184	57	6978
2026-01-18 22:48:35.46	132.44	28.81	-43.7	-49.4	9.2	3.34e-02	0	62	0	803209216	59	6742
2026-01-18 22:48:39.50	133.52	28.38	-43.4	-48.6	10.0	6.10e-03	0	62	0	810549248	58	6514
2026-01-18 22:48:43.54	134.56	27.94	-42.7	-46.7	11.9	8.12e-04	0	62	0	818937856	57	5586
2026-01-18 22:48:47.57	135.57	27.49	-43.5	-48.8	9.7	5.21e-03	0	62	0	826277888	57	7101
2026-01-18 22:48:51.61	136.56	27.05	-42.9	-47.3	11.2	1.33e-03	0	62	0	833617920	57	5980
2026-01-18 22:48:55.65	137.52	26.60	-43.1	-47.8	10.8	2.79e-03	0	62	0	840957952	57	6281
2026-01-18 22:48:59.68	138.46	26.16	-42.1	-45.6	13.1	3.28e-05	0	62	0	849346560	56	5171
2026-01-18 22:49:03.72	139.37	25.71	-42.5	-46.4	12.1	2.01e-04	0	62	0	856686592	56	5714
2026-01-18 22:49:07.76	140.25	25.26	-41.7	-45.1	13.4	1.37e-05	0	62	0	864026624	55	5189
2026-01-18 22:49:11.80	141.11	24.81	-42.0	-45.6	12.9	3.66e-05	0	61	0	871366656	55	5471
2026-01-18 22:49:15.84	141.95	24.37	-41.6	-45.0	13.5	1.98e-05	0	62	0	878706688	55	5115
2026-01-18 22:49:19.87	142.76	23.92	-41.4	-44.6	13.9	4.50e-06	0	62	0	887095296	54	5193
2026-01-18 22:49:23.91	143.55	23.48	-41.5	-44.7	13.7	1.14e-05	0	62	0	894435328	54	5276
2026-01-18 22:49:27.95	144.33	23.04	-41.2	-44.2	14.3	2.20e-06	0	62	0	901775360	54	4935
2026-01-18 22:49:31.99	145.08	22.60	-41.8	-45.2	13.2	2.21e-05	0	62	0	909115392	54	5573
2026-01-18 22:49:36.03	145.81	22.17	-41.4	-44.6	13.9	6.80e-06	0	62	0	917504000	54	5176
2026-01-18 22:49:40.07	146.52	21.74	-41.5	-44.7	13.7	4.50e-06	0	62	0	924844032	54	5250
2026-01-18 22:49:44.11	147.21	21.31	-41.6	-45.0	13.4	8.30e-06	0	62	0	932184064	54	5422
2026-01-18 22:49:48.14	147.88	20.88	-41.7	-45.1	13.3	1.44e-05	0	62	0	939524096	54	5511
2026-01-18 22:49:52.18	148.54	20.46	-42.0	-45.7	12.7	5.64e-05	0	62	0	946864128	54	5872
2026-01-18 22:49:56.22	149.17	20.04	-41.8	-45.4	12.9	5.72e-05	0	62	0	955252736	54	5687
2026-01-18 22:50:00.26	149.79	19.62	-41.9	-45.5	12.9	3.96e-05	0	62	0	962592768	54	5730
2026-01-18 22:50:04.30	150.40	19.21	-42.4	-46.5	11.7	4.77e-04	0	62	0	969932800	55	6113
2026-01-18 22:50:08.34	150.99	18.80	-42.1	-45.9	12.4	2.22e-04	0	62	0	977272832	55	5712
2026-01-18 22:50:12.38	151.56	18.40	-42.4	-46.6	11.7	5.67e-04	0	62	0	985661440	55	6159
2026-01-18 22:50:16.42	152.12	18.00	-42.9	-47.5	10.9	2.53e-03	0	62	0	993001472	56	6484
2026-01-18 22:50:20.46	152.67	17.60	-42.5	-46.7	11.7	6.34e-04	0	62	0	1000341504	56	5909
2026-01-18 22:50:24.49	153.20	17.21	-42.3	-46.3	12.2	2.76e-04	0	62	0	1007681536	56	5594
2026-01-18 22:50:28.53	153.72	16.82	-42.6	-47.0	11.4	9.19e-04	0	62	0	1015021568	56	6080
2026-01-18 22:50:32.57	154.23	16.44	-42.6	-47.0	11.3	1.38e-03	0	62	0	1023410176	56	6108
2026-01-18 22:50:36.61	154.72	16.05	-42.5	-46.8	11.6	7.60e-04	0	61	0	1030750208	56	5942
2026-01-18 22:50:40.65	155.20	15.68	-42.4	-46.5	11.8	7.92e-04	0	62	0	1038090240	56	5751
2026-01-18 22:50:44.68	155.67	15.31	-42.5	-46.9	11.4	7.51e-04	0	62	0	1045430272	56	6023
2026-01-18 22:50:48.72	156.13	14.94	-42.5	-46.9	11.3	1.34e-03	0	62	0	1052770304	56	6035
2026-01-18 22:50:52.76	156.58	14.57	-42.4	-46.7	11.5	9.64e-04	0	61	0	1061158912	56	5893
2026-01-18 22:50:56.80	157.02	14.21	-42.4	-46.6	11.6	6.91e-04	0	62	0	1068498944	56	5838
2026-01-18 22:51:00.83	157.45	13.85	-42.5	-46.8	11.3	9.49e-04	0	62	0	1075838976	56	5983
2026-01-18 22:51:04.87	157.86	13.50	-42.7	-47.3	10.8	2.36e-03	0	62	0	1083179008	56	6347
2026-01-18 22:51:08.91	158.27	13.15	-42.8	-47.7	10.4	4.38e-03	0	62	0	1091567616	56	6581
2026-01-18 22:51:12.95	158.67	12.80	-42.6	-47.3	10.7	2.79e-03	0	61	0	1098907648	56	6324
2026-01-18 22:51:16.99	159.06	12.46	-42.5	-47.1	11.0	2.06e-03	0	62	0	1106247680	56	6155
2026-01-18 22:51:21.02	159.44	12.12	-42.6	-47.2	10.8	2.28e-03	0	62	0	1113587712	56	6236
2026-01-18 22:51:25.06	159.82	11.79	-42.5	-47.2	10.8	2.68e-03	0	62	0	1120927744	56	6225
2026-01-18 22:51:29.10	160.18	11.46	-42.6	-47.4	10.5	3.66e-03	0	62	0	1129316352	56	6369
2026-01-18 22:51:33.14	160.54	11.13	-42.6	-47.6	10.2	5.31e-03	0	62	0	1136656384	56	6540
2026-01-18 22:51:37.18	160.89	10.80	-42.7	-47.7	10.1	7.25e-03	0	62	0	1143996416	56	6632
2026-01-18 22:51:41.21	161.24	10.48	-42.7	-47.9	9.8	1.03e-02	0	62	0	1151336448	56	6765
2026-01-18 22:51:45.25	161.57	10.16	-42.7	-47.9	9.8	9.52e-03	0	62	0	1159725056	56	6771
2026-01-18 22:51:49.29	161.90	9.85	-42.7	-48.0	9.6	1.25e-02	0	62	0	1167065088	56	6832
2026-01-18 22:51:53.33	162.22	9.54	-42.8	-48.3	9.2	1.64e-02	0	62	0	1174405120	56	7102
2026-01-18 22:51:57.36	162.54	9.23	-42.8	-48.6	8.9	2.52e-02	0	62	0	1181745152	56	7323
2026-01-18 22:52:01.40	162.85	8.92	-42.8	-48.8	8.6	3.29e-02	0	62	0	1189085184	56	7472
2026-01-18 22:52:05.44	163.15	8.62	-42.8	-49.0	8.4	4.48e-02	0	62	0	1197473792	56	7659
2026-01-18 22:52:09.48	163.45	8.32	-42.7	-48.7	8.5	4.33e-02	0	62	0	1204813824	56	7451
2026-01-18 22:52:13.52	163.74	8.02	-43.3	-50.9	6.8	5.73e-02	0	62	0	1212153856	57	9027
2026-01-18 22:52:17.56	164.03	7.73	-45.2	-59.9	3.8	1.49e+00	0	62	104	1212153856	61	20235
2026-01-18 22:52:21.60	164.31	7.44	-45.4	-60.0	3.8	1.49e+00	0	62	104	1212153856	61	20350
2026-01-18 22:52:25.65	164.58	7.15	-45.3	-59.9	3.8	1.49e+00	0	62	104	1212153856	61	20093
2026-01-18 22:52:29.69	164.85	6.86	-45.4	-59.9	3.8	1.49e+00	0	62	104	1212153856	61	20086
2026-01-18 22:52:33.73	165.12	6.58	-45.3	-59.8	3.8	1.49e+00	0	62	104	1212153856	61	20014
2026-01-18 22:52:37.77	165.38	6.30	-45.3	-59.8	3.8	1.49e+00	0	62	104	1212153856	61	19972
2026-01-18 22:52:41.81	165.64	6.02	-45.3	-59.8	3.8	1.49e+00	0	62	104	1212153856	61	19968
2026-01-18 22:52:45.85	165.89	5.75	-45.2	-59.8	3.8	1.49e+00	0	62	104	1212153856	61	19914
2026-01-18 22:52:49.90	166.13	5.47	-45.2	-59.8	3.8	1.49e+00	0	62	104	1212153856	61	19948
2026-01-18 22:52:53.94	166.38	5.20	-45.2	-59.8	3.8	1.49e+00	0	62	104	1212153856	61	19920
2026-01-18 22:52:57.98	166.61	4.93	-45.2	-59.8	3.8	1.49e+00	0	62	104	1212153856	61	19842
2026-01-18 22:53:02.02	166.85	4.67	-45.2	-59.8	3.8	1.49e+00	0	62	104	1212153856	61	19907
2026-01-18 22:53:06.06	167.08	4.40	-45.2	-59.7	3.8	1.49e+00	0	62	104	1212153856	61	19806
2026-01-18 22:53:10.11	167.31	4.14	-45.2	-59.7	3.8	1.49e+00	0	62	104	1212153856	61	19744
2026-01-18 22:53:14.14	167.53	3.88	-45.2	-59.7	3.8	1.49e+00	0	62	104	1212153856	61	19729
2026-01-18 22:53:18.19	167.75	3.63	-45.2	-59.7	3.8	1.49e+00	0	62	104	1212153856	61	19803
2026-01-18 22:53:22.23	167.96	3.37	-45.2	-59.7	3.8	1.49e+00	0	62	104	1212153856	61	19793
2026-01-18 22:53:26.27	168.17	3.12	-45.2	-59.7	3.8	1.49e+00	0	62	104	1212153856	61	19787
2026-01-18 22:53:30.31	168.38	2.87	-45.2	-59.7	3.8	1.49e+00	0	62	104	1212153856	61	19788
2026-01-18 22:53:34.35	168.59	2.62	-45.2	-59.7	3.8	1.49e+00	0	62	104	1212153856	61	19748
2026-01-18 22:53:38.40	168.79	2.37	-45.2	-59.7	3.8	1.49e+00	0	62	104	1212153856	61	19750
2026-01-18 22:53:42.44	168.99	2.12	-45.2	-59.7	3.8	1.49e+00	0	62	104	1212153856	61	19741

#Closed at: 2026-01-18 22:53:45
#Recorded file [1212 MB]: D:/lorett/data/31039_260119_013954.dat