passes_logs/2026/01/18/R2.0S_Moscow/R2.0S_Moscow__20260118_143156_FENGYUN_3E_rec.log

#Pass ID: 20260118_143156_FENGYUN 3E
#Satellite: FENGYUN 3E
#Configuration: FENGYUN 3E
#almurnet v.1.7.20251203
#Start time: 2026-01-18 14:31:57

#Version: 2.2.20231116
#Station: R2.0S_Moscow
#Location: 37.707566 lon 55.798166 lat
#TLE: 1 49008U 21062A   26017.61301378  .00000104  00000+0  69808-4 0  9996
#TLE: 2 49008  98.7484  22.7108 0002130 132.1860 227.9498 14.19886007235218

#Time	Az	El	Level	Level2	SNR	BER	BlckErr	Temp	State	Recorded	gain1	gain2
2026-01-18 14:31:57.54	170.29	2.07	-45.5	-56.8	3.8	8.45e-01	0	52	0	0	60	14175
2026-01-18 14:32:01.58	170.36	2.33	-45.5	-56.9	3.8	8.47e-01	0	53	104	0	62	12715
2026-01-18 14:32:05.62	170.43	2.60	-45.4	-56.8	3.8	8.46e-01	0	53	104	0	61	13373
2026-01-18 14:32:09.65	170.50	2.86	-45.3	-56.6	3.8	8.45e-01	0	53	104	0	61	13071
2026-01-18 14:32:13.70	170.58	3.13	-45.3	-56.7	3.8	8.47e-01	0	54	104	0	60	13971
2026-01-18 14:32:17.74	170.65	3.40	-45.3	-56.6	3.8	8.46e-01	0	54	104	0	60	13846
2026-01-18 14:32:21.78	170.73	3.67	-45.3	-56.6	3.8	8.47e-01	0	54	104	0	60	13862
2026-01-18 14:32:25.82	170.81	3.95	-45.3	-56.6	3.8	8.47e-01	0	55	104	0	60	13827
2026-01-18 14:32:29.84	170.88	4.22	-45.3	-56.6	3.8	8.46e-01	0	55	104	0	60	13872
2026-01-18 14:32:33.87	170.96	4.50	-45.2	-56.6	3.8	8.46e-01	0	55	104	0	60	13874
2026-01-18 14:32:37.90	171.05	4.79	-45.2	-56.6	3.8	8.46e-01	0	55	104	0	60	13819
2026-01-18 14:32:41.94	171.13	5.07	-45.2	-56.6	3.8	8.47e-01	0	55	104	0	60	13745
2026-01-18 14:32:45.97	171.21	5.36	-45.2	-56.6	3.8	8.46e-01	0	56	104	0	60	13731
2026-01-18 14:32:49.99	171.30	5.65	-45.1	-56.6	3.8	8.46e-01	0	56	104	0	60	13742
2026-01-18 14:32:54.02	171.38	5.95	-44.9	-56.6	3.8	8.47e-01	0	56	104	0	60	13729
2026-01-18 14:32:58.05	171.47	6.25	-44.8	-56.6	3.8	8.46e-01	0	56	104	0	60	13750
2026-01-18 14:33:02.08	171.56	6.55	-45.2	-56.6	3.8	8.46e-01	0	56	104	0	60	13755
2026-01-18 14:33:06.11	171.66	6.86	-45.2	-56.6	3.8	8.45e-01	0	57	104	0	60	13804
2026-01-18 14:33:10.13	171.75	7.16	-45.2	-56.6	3.8	8.46e-01	0	57	104	0	60	13739
2026-01-18 14:33:14.17	171.84	7.48	-45.4	-56.9	3.8	8.46e-01	0	57	104	0	60	14237
2026-01-18 14:33:18.20	171.94	7.80	-45.6	-57.0	3.8	8.48e-01	0	57	104	0	60	14383
2026-01-18 14:33:22.24	172.04	8.12	-45.5	-56.8	3.8	8.46e-01	0	57	104	0	60	14164
2026-01-18 14:33:26.27	172.14	8.44	-44.8	-55.7	3.8	8.46e-01	0	57	104	0	60	12436
2026-01-18 14:33:30.30	172.25	8.77	-38.8	-41.3	12.7	1.66e-04	0	57	0	22020096	48	4714
2026-01-18 14:33:34.33	172.35	9.11	-39.4	-42.0	12.2	2.87e-04	0	58	0	44040192	48	5117
2026-01-18 14:33:38.36	172.46	9.44	-38.1	-40.4	13.5	1.02e-05	0	58	0	73400320	47	4533
2026-01-18 14:33:42.39	172.57	9.79	-38.1	-40.4	13.6	2.20e-06	0	58	0	102760448	46	4790
2026-01-18 14:33:46.41	172.68	10.13	-38.0	-40.2	13.9	4.50e-06	0	58	0	132120576	46	4672
2026-01-18 14:33:50.44	172.79	10.49	-37.9	-40.1	14.0	0.00e+00	0	58	0	161480704	46	4600
2026-01-18 14:33:54.47	172.91	10.84	-37.9	-40.1	14.1	1.10e-06	0	58	0	189792256	46	4612
2026-01-18 14:33:58.49	173.03	11.21	-37.8	-39.9	14.3	1.10e-06	0	58	0	219152384	46	4518
2026-01-18 14:34:02.52	173.15	11.57	-37.6	-39.7	14.5	0.00e+00	0	59	0	248512512	45	4672
2026-01-18 14:34:06.55	173.28	11.95	-37.5	-39.5	14.7	0.00e+00	0	59	0	276824064	45	4595
2026-01-18 14:34:10.57	173.41	12.33	-37.4	-39.4	14.9	0.00e+00	0	59	0	306184192	45	4519
2026-01-18 14:34:14.59	173.54	12.71	-37.4	-39.3	14.9	0.00e+00	0	59	0	335544320	45	4478
2026-01-18 14:34:18.61	173.67	13.10	-37.1	-39.0	15.3	0.00e+00	0	59	0	363855872	45	4318
2026-01-18 14:34:22.64	173.81	13.50	-37.0	-38.8	15.5	0.00e+00	0	59	0	393216000	44	4484
2026-01-18 14:34:26.66	173.95	13.90	-37.2	-39.1	15.3	0.00e+00	0	59	0	422576128	44	4607
2026-01-18 14:34:30.68	174.10	14.31	-37.1	-39.0	15.4	0.00e+00	0	59	0	451936256	44	4571
2026-01-18 14:34:34.72	174.24	14.73	-37.0	-38.9	15.6	0.00e+00	0	59	0	480247808	44	4501
2026-01-18 14:34:38.73	174.40	15.15	-37.0	-38.9	15.5	0.00e+00	0	59	0	509607936	44	4512
2026-01-18 14:34:42.76	174.55	15.58	-36.9	-38.7	15.7	0.00e+00	0	59	0	538968064	44	4426
2026-01-18 14:34:46.78	174.71	16.02	-36.7	-38.6	15.8	0.00e+00	0	59	0	567279616	44	4381
2026-01-18 14:34:50.80	174.88	16.47	-36.8	-38.7	15.7	0.00e+00	0	60	0	596639744	44	4429
2026-01-18 14:34:54.83	175.05	16.92	-36.5	-38.4	16.0	0.00e+00	0	60	0	625999872	44	4277
2026-01-18 14:34:58.85	175.22	17.39	-36.3	-38.2	16.1	0.00e+00	0	59	0	654311424	43	4431
2026-01-18 14:35:02.89	175.40	17.86	-36.2	-38.1	16.2	0.00e+00	0	60	0	683671552	43	4373
2026-01-18 14:35:06.93	175.59	18.35	-36.2	-38.2	16.1	0.00e+00	0	60	0	713031680	43	4394
2026-01-18 14:35:10.97	175.78	18.84	-36.1	-38.0	16.3	0.00e+00	0	60	0	742391808	43	4313
2026-01-18 14:35:15.02	175.98	19.34	-35.9	-37.9	16.4	0.00e+00	0	60	0	771751936	42	4498
2026-01-18 14:35:19.06	176.18	19.85	-35.6	-37.5	16.8	0.00e+00	0	60	0	801112064	42	4303
2026-01-18 14:35:23.10	176.39	20.38	-35.6	-37.5	16.8	0.00e+00	0	60	0	829423616	42	4301
2026-01-18 14:35:27.14	176.61	20.91	-35.5	-37.3	17.0	0.00e+00	0	60	0	858783744	41	4463
2026-01-18 14:35:31.18	176.83	21.46	-35.5	-37.3	17.0	0.00e+00	0	60	0	888143872	41	4471
2026-01-18 14:35:35.22	177.06	22.01	-35.6	-37.5	16.8	0.00e+00	0	60	0	917504000	41	4547
2026-01-18 14:35:39.27	177.30	22.58	-35.7	-37.6	16.7	0.00e+00	0	60	0	946864128	41	4614
2026-01-18 14:35:43.30	177.55	23.16	-35.7	-37.7	16.6	0.00e+00	0	60	0	975175680	41	4656
2026-01-18 14:35:47.35	177.81	23.76	-35.6	-37.5	16.8	0.00e+00	0	60	0	1004535808	41	4591
2026-01-18 14:35:51.39	178.08	24.36	-35.7	-37.5	16.8	0.00e+00	0	60	0	1033895936	41	4595
2026-01-18 14:35:55.44	178.36	24.99	-35.3	-37.0	17.4	0.00e+00	0	61	0	1063256064	41	4310
2026-01-18 14:35:59.48	178.64	25.62	-35.0	-36.7	17.7	0.00e+00	0	60	0	1092616192	41	4154
2026-01-18 14:36:03.52	178.94	26.27	-34.9	-36.5	17.9	0.00e+00	0	60	0	1121976320	40	4323
2026-01-18 14:36:07.56	179.25	26.94	-34.8	-36.4	18.0	0.00e+00	0	61	0	1150287872	40	4244
2026-01-18 14:36:11.60	179.58	27.62	-34.7	-36.3	18.0	0.00e+00	0	60	0	1179648000	40	4221
2026-01-18 14:36:15.65	179.92	28.32	-34.8	-36.5	17.8	0.00e+00	0	61	0	1209008128	40	4321
2026-01-18 14:36:19.69	180.27	29.03	-34.9	-36.6	17.7	0.00e+00	0	61	0	1238368256	40	4387
2026-01-18 14:36:23.73	180.64	29.77	-34.7	-36.4	17.9	0.00e+00	0	61	0	1267728384	40	4283
2026-01-18 14:36:27.77	181.02	30.52	-34.9	-36.6	17.8	0.00e+00	0	61	0	1296039936	40	4353
2026-01-18 14:36:31.81	181.42	31.28	-34.8	-36.5	17.8	0.00e+00	0	61	0	1325400064	40	4316
2026-01-18 14:36:35.85	181.85	32.07	-35.0	-36.7	17.7	0.00e+00	0	61	0	1354760192	40	4409
2026-01-18 14:36:39.89	182.29	32.88	-34.8	-36.4	17.9	0.00e+00	0	61	0	1384120320	40	4291
2026-01-18 14:36:43.94	182.75	33.71	-34.9	-36.5	17.9	0.00e+00	0	61	0	1413480448	40	4334
2026-01-18 14:36:47.98	183.24	34.56	-35.1	-36.8	17.7	0.00e+00	0	61	0	1442840576	40	4444
2026-01-18 14:36:52.02	183.75	35.43	-34.8	-36.5	17.9	0.00e+00	0	61	0	1471152128	40	4310
2026-01-18 14:36:56.06	184.29	36.32	-34.7	-36.4	18.1	0.00e+00	0	61	0	1500512256	40	4244
2026-01-18 14:37:00.09	184.86	37.23	-35.0	-36.6	17.9	0.00e+00	0	61	0	1529872384	40	4378
2026-01-18 14:37:04.14	185.47	38.17	-35.0	-36.7	17.9	0.00e+00	0	61	0	1559232512	40	4409
2026-01-18 14:37:08.18	186.11	39.13	-35.3	-37.0	17.6	0.00e+00	0	61	0	1588592640	40	4555
2026-01-18 14:37:12.22	186.78	40.12	-35.2	-37.0	17.5	0.00e+00	0	61	0	1617952768	40	4576
2026-01-18 14:37:16.26	187.50	41.12	-34.9	-36.6	18.0	0.00e+00	0	61	0	1646264320	40	4346
2026-01-18 14:37:20.30	188.27	42.15	-35.1	-36.8	17.8	0.00e+00	0	61	0	1675624448	40	4458
2026-01-18 14:37:24.34	189.08	43.21	-35.5	-37.2	17.4	0.00e+00	0	61	0	1704984576	40	4694
2026-01-18 14:37:28.38	189.95	44.28	-35.4	-37.0	17.6	0.00e+00	0	61	0	1734344704	41	4318
2026-01-18 14:37:32.43	190.88	45.39	-35.7	-37.4	17.3	0.00e+00	0	61	0	1763704832	41	4505
2026-01-18 14:37:36.47	191.88	46.51	-36.2	-37.5	17.6	0.00e+00	0	61	0	1792016384	42	4293
2026-01-18 14:37:40.51	192.95	47.65	-37.0	-38.4	16.6	0.00e+00	0	61	0	1821376512	43	4523
2026-01-18 14:37:44.55	194.10	48.81	-36.8	-38.1	17.0	0.00e+00	0	61	0	1850736640	43	4378
2026-01-18 14:37:48.59	195.34	49.99	-37.0	-38.3	16.9	0.00e+00	0	61	0	1880096768	44	4230
2026-01-18 14:37:52.64	196.68	51.19	-36.9	-38.3	16.8	0.00e+00	0	61	0	1909456896	43	4444
2026-01-18 14:37:56.68	198.13	52.40	-35.9	-37.0	18.0	0.00e+00	0	61	0	1938817024	42	4094
2026-01-18 14:38:00.72	199.71	53.62	-37.4	-38.8	16.4	0.00e+00	0	61	0	1967128576	44	4487
2026-01-18 14:38:04.77	201.42	54.85	-37.0	-38.4	16.9	0.00e+00	0	61	0	1996488704	44	4256
2026-01-18 14:38:08.81	203.29	56.08	-37.2	-38.6	16.7	0.00e+00	0	61	0	2025848832	44	4370
2026-01-18 14:38:12.85	205.32	57.30	-36.8	-38.2	17.0	0.00e+00	0	61	0	2055208960	43	4400
2026-01-18 14:38:16.89	207.54	58.51	-36.9	-38.2	16.9	0.00e+00	0	61	0	2084569088	43	4426
2026-01-18 14:38:20.93	209.98	59.71	-36.6	-37.9	17.4	0.00e+00	0	61	0	2113929216	44	4021
2026-01-18 14:38:24.98	212.64	60.88	-36.8	-38.1	17.0	0.00e+00	0	61	0	2142240768	43	4355
2026-01-18 14:38:29.02	215.56	62.00	-36.5	-37.7	17.3	0.00e+00	0	62	0	2171600896	43	4186
2026-01-18 14:38:33.06	218.75	63.08	-36.2	-37.5	17.6	0.00e+00	0	61	0	2200961024	43	4058
2026-01-18 14:38:37.10	222.22	64.09	-36.0	-37.2	17.9	0.00e+00	0	61	0	2230321152	42	4164
2026-01-18 14:38:41.14	226.00	65.02	-35.9	-37.2	17.9	0.00e+00	0	62	0	2259681280	42	4156
2026-01-18 14:38:45.19	230.10	65.86	-35.8	-37.1	18.0	0.00e+00	0	62	0	2289041408	42	4113
2026-01-18 14:38:49.23	234.50	66.59	-35.5	-36.6	18.4	0.00e+00	0	62	0	2317352960	41	4141
2026-01-18 14:38:53.27	239.17	67.19	-35.0	-36.1	18.9	0.00e+00	0	61	0	2346713088	40	4125
2026-01-18 14:38:57.31	244.08	67.64	-35.3	-36.5	18.5	0.00e+00	0	61	0	2376073216	40	4304
2026-01-18 14:39:01.35	249.18	67.95	-35.4	-36.5	18.4	0.00e+00	0	61	0	2405433344	40	4340
2026-01-18 14:39:05.39	254.38	68.09	-35.4	-36.6	18.4	0.00e+00	0	61	0	2434793472	40	4354
2026-01-18 14:39:09.43	259.62	68.06	-35.5	-36.7	18.4	0.00e+00	0	61	0	2463105024	40	4397
2026-01-18 14:39:13.47	264.80	67.87	-35.7	-36.9	18.2	0.00e+00	0	62	0	2492465152	40	4507
2026-01-18 14:39:17.51	269.84	67.51	-35.3	-36.5	18.5	0.00e+00	0	61	0	2521825280	41	4063
2026-01-18 14:39:21.56	274.69	67.01	-35.5	-36.7	18.3	0.00e+00	0	62	0	2551185408	41	4156
2026-01-18 14:39:25.60	279.27	66.36	-35.5	-36.7	18.3	0.00e+00	0	61	0	2580545536	41	4180
2026-01-18 14:39:29.64	283.56	65.60	-35.4	-36.5	18.5	0.00e+00	0	62	0	2609905664	41	4095
2026-01-18 14:39:33.68	287.54	64.73	-35.9	-37.1	17.9	0.00e+00	0	62	0	2638217216	41	4381
2026-01-18 14:39:37.72	291.22	63.77	-36.3	-37.6	17.5	0.00e+00	0	62	0	2667577344	42	4353
2026-01-18 14:39:41.76	294.60	62.74	-36.3	-37.6	17.4	0.00e+00	0	61	0	2696937472	42	4367
2026-01-18 14:39:45.80	297.69	61.65	-36.5	-37.7	17.4	0.00e+00	0	62	0	2726297600	42	4436
2026-01-18 14:39:49.84	300.52	60.52	-36.9	-38.3	16.8	0.00e+00	0	62	0	2755657728	43	4468
2026-01-18 14:39:53.88	303.10	59.34	-36.7	-38.0	17.1	0.00e+00	0	62	0	2783969280	43	4332
2026-01-18 14:39:57.92	305.46	58.15	-37.0	-38.3	16.8	0.00e+00	0	62	0	2813329408	43	4466
2026-01-18 14:40:01.97	307.62	56.93	-36.6	-37.8	17.2	0.00e+00	0	62	0	2842689536	43	4235
2026-01-18 14:40:06.00	309.59	55.71	-36.5	-37.8	17.3	0.00e+00	0	62	0	2872049664	43	4220
2026-01-18 14:40:10.04	311.40	54.49	-36.9	-38.3	16.7	0.00e+00	0	62	0	2901409792	43	4461
2026-01-18 14:40:14.09	313.07	53.27	-36.9	-38.2	16.8	0.00e+00	0	62	0	2930769920	43	4419
2026-01-18 14:40:18.13	314.60	52.05	-37.0	-38.4	16.8	0.00e+00	0	62	0	2959081472	43	4498
2026-01-18 14:40:22.17	316.02	50.85	-36.9	-38.2	16.8	0.00e+00	0	62	0	2988441600	43	4438
2026-01-18 14:40:26.22	317.33	49.66	-37.4	-38.8	16.5	0.00e+00	0	62	0	3017801728	44	4483
2026-01-18 14:40:30.26	318.54	48.49	-37.0	-38.3	17.0	0.00e+00	0	62	0	3047161856	44	4234
2026-01-18 14:40:34.30	319.66	47.34	-36.3	-37.6	17.5	0.00e+00	0	62	0	3076521984	43	4121
2026-01-18 14:40:38.35	320.71	46.21	-35.8	-36.9	18.1	0.00e+00	0	62	0	3105882112	42	4045
2026-01-18 14:40:42.39	321.68	45.10	-35.5	-36.6	18.4	0.00e+00	0	61	0	3135242240	41	4138
2026-01-18 14:40:46.42	322.59	44.01	-35.5	-36.7	18.4	0.00e+00	0	62	0	3163553792	41	4159
2026-01-18 14:40:50.47	323.44	42.94	-35.8	-37.0	18.1	0.00e+00	0	62	0	3192913920	41	4301
2026-01-18 14:40:54.50	324.24	41.90	-35.8	-36.9	18.1	0.00e+00	0	62	0	3222274048	41	4287
2026-01-18 14:40:58.54	324.99	40.88	-35.8	-37.0	18.1	0.00e+00	0	62	0	3251634176	41	4300
2026-01-18 14:41:02.58	325.70	39.89	-35.5	-36.7	18.3	0.00e+00	0	62	0	3280994304	41	4160
2026-01-18 14:41:06.62	326.36	38.92	-35.2	-36.3	18.7	0.00e+00	0	62	0	3310354432	41	3994
2026-01-18 14:41:10.67	326.99	37.97	-35.3	-36.4	18.5	0.00e+00	0	62	0	3338665984	41	4044
2026-01-18 14:41:14.71	327.58	37.04	-35.7	-36.8	18.2	0.00e+00	0	62	0	3368026112	41	4240
2026-01-18 14:41:18.75	328.15	36.14	-35.7	-36.8	18.1	0.00e+00	0	62	0	3397386240	41	4236
2026-01-18 14:41:22.79	328.68	35.26	-35.1	-36.2	18.8	0.00e+00	0	62	0	3426746368	41	3941
2026-01-18 14:41:26.83	329.19	34.40	-35.0	-36.1	18.9	0.00e+00	0	62	0	3456106496	40	4112
2026-01-18 14:41:30.88	329.67	33.55	-35.1	-36.3	18.6	0.00e+00	0	62	0	3484418048	40	4198
2026-01-18 14:41:34.92	330.13	32.74	-35.1	-36.2	18.8	0.00e+00	0	62	0	3513778176	40	4167
2026-01-18 14:41:38.97	330.56	31.94	-35.0	-36.1	18.8	0.00e+00	0	62	0	3543138304	40	4122
2026-01-18 14:41:43.01	330.98	31.16	-35.2	-36.3	18.6	0.00e+00	0	62	0	3572498432	40	4240
2026-01-18 14:41:47.05	331.38	30.40	-35.2	-36.4	18.5	0.00e+00	0	62	0	3601858560	40	4256
2026-01-18 14:41:51.09	331.76	29.66	-35.5	-36.7	18.3	0.00e+00	0	62	0	3631218688	40	4394
2026-01-18 14:41:55.14	332.13	28.93	-35.6	-36.8	18.1	0.00e+00	0	62	0	3659530240	40	4445
2026-01-18 14:41:59.18	332.48	28.22	-35.8	-37.0	17.9	0.00e+00	0	62	0	3688890368	41	4308
2026-01-18 14:42:03.22	332.81	27.53	-35.8	-37.1	17.8	0.00e+00	0	62	0	3718250496	41	4352
2026-01-18 14:42:07.26	333.13	26.86	-35.7	-36.9	17.9	0.00e+00	0	62	0	3747610624	41	4278
2026-01-18 14:42:11.31	333.44	26.20	-35.6	-36.7	18.1	0.00e+00	0	62	0	3776970752	41	4192
2026-01-18 14:42:15.35	333.74	25.56	-35.4	-36.6	18.2	0.00e+00	0	62	0	3805282304	41	4106
2026-01-18 14:42:19.39	334.03	24.93	-35.4	-36.5	18.3	0.00e+00	0	62	0	3834642432	41	4085
2026-01-18 14:42:23.44	334.30	24.31	-35.6	-36.8	17.9	0.00e+00	0	62	0	3864002560	41	4221
2026-01-18 14:42:27.48	334.57	23.71	-35.8	-37.0	17.7	0.00e+00	0	62	0	3893362688	41	4314
2026-01-18 14:42:31.52	334.83	23.13	-35.9	-37.2	17.5	0.00e+00	0	62	0	3922722816	41	4403
2026-01-18 14:42:35.56	335.07	22.55	-36.0	-37.3	17.4	0.00e+00	0	62	0	3952082944	41	4444
2026-01-18 14:42:39.60	335.31	21.99	-35.9	-37.2	17.4	0.00e+00	0	62	0	3980394496	41	4413
2026-01-18 14:42:43.65	335.55	21.43	-36.0	-37.2	17.3	0.00e+00	0	62	0	4009754624	41	4440
2026-01-18 14:42:47.68	335.77	20.90	-35.9	-37.2	17.3	0.00e+00	0	62	0	4039114752	41	4401
2026-01-18 14:42:51.73	335.99	20.37	-35.8	-37.1	17.2	0.00e+00	0	62	0	4068474880	41	4379
2026-01-18 14:42:55.77	336.20	19.85	-36.1	-37.4	16.9	0.00e+00	0	62	0	4097835008	41	4541
2026-01-18 14:42:59.81	336.40	19.34	-36.2	-37.5	16.7	0.00e+00	0	62	0	4126146560	42	4332
2026-01-18 14:43:03.85	336.60	18.84	-36.3	-37.7	16.4	0.00e+00	0	62	0	4155506688	42	4433
2026-01-18 14:43:07.90	336.80	18.35	-36.8	-38.3	15.8	0.00e+00	0	62	0	4184866816	43	4444
2026-01-18 14:43:11.94	336.98	17.88	-36.6	-38.1	15.9	0.00e+00	0	62	0	4214226944	43	4378
2026-01-18 14:43:15.98	337.16	17.41	-36.5	-38.0	15.8	0.00e+00	0	62	0	4243587072	43	4318
2026-01-18 14:43:20.02	337.34	16.94	-36.6	-38.2	15.5	0.00e+00	0	62	0	4272947200	43	4404
2026-01-18 14:43:24.07	337.51	16.49	-37.2	-38.8	14.7	0.00e+00	0	62	0	4301258752	43	4748
2026-01-18 14:43:28.11	337.68	16.05	-36.8	-38.4	15.0	0.00e+00	0	62	0	4330618880	43	4527
2026-01-18 14:43:32.15	337.84	15.61	-36.5	-38.1	15.0	0.00e+00	0	62	0	4359979008	43	4380
2026-01-18 14:43:36.19	338.00	15.18	-36.2	-37.7	15.4	0.00e+00	0	62	0	4389339136	43	4169
2026-01-18 14:43:40.23	338.16	14.76	-36.2	-37.8	15.1	0.00e+00	0	62	0	4418699264	43	4213
2026-01-18 14:43:44.28	338.31	14.34	-36.4	-38.1	14.9	1.10e-06	0	62	0	4448059392	43	4341
2026-01-18 14:43:48.32	338.46	13.93	-36.9	-38.7	14.1	0.00e+00	0	62	0	4476370944	43	4680
2026-01-18 14:43:52.36	338.60	13.53	-37.2	-39.2	13.5	6.80e-06	0	62	0	4505731072	43	4928
2026-01-18 14:43:56.40	338.74	13.14	-37.9	-40.1	12.5	7.89e-05	0	62	0	4535091200	45	4892
2026-01-18 14:44:00.45	338.88	12.75	-38.4	-41.0	11.3	9.49e-04	0	62	0	4564451328	46	5113
2026-01-18 14:44:04.48	339.01	12.37	-38.9	-41.8	10.4	3.86e-03	0	62	0	4593811456	47	5282
2026-01-18 14:44:08.53	339.14	11.99	-39.8	-43.3	8.7	3.14e-02	0	62	0	4623171584	49	5640
2026-01-18 14:44:12.57	339.27	11.62	-40.3	-44.4	7.7	8.29e-02	0	62	0	4651483136	50	6024
2026-01-18 14:44:16.61	339.40	11.25	-40.6	-45.5	6.4	2.38e-01	0	62	0	4680843264	50	6845
2026-01-18 14:44:20.65	339.52	10.89	-40.9	-48.8	4.2	7.94e-01	0	62	0	4687134720	52	8872
2026-01-18 14:44:24.69	339.64	10.54	-41.0	-48.5	4.3	8.30e-01	0	62	0	4687134720	52	8603
2026-01-18 14:44:28.73	339.76	10.18	-41.9	-50.4	3.9	8.42e-01	0	62	104	4687134720	53	10137
2026-01-18 14:44:32.77	339.88	9.84	-41.4	-50.5	3.8	8.45e-01	0	62	104	4687134720	53	10284
2026-01-18 14:44:36.81	339.99	9.50	-41.5	-52.0	3.8	8.46e-01	0	62	104	4687134720	53	12099
2026-01-18 14:44:40.85	340.10	9.16	-41.1	-50.8	3.8	8.45e-01	0	62	104	4687134720	52	11158
2026-01-18 14:44:44.89	340.21	8.83	-41.6	-51.4	3.8	8.46e-01	0	62	104	4687134720	52	12082
2026-01-18 14:44:48.93	340.32	8.50	-41.2	-51.3	3.8	8.46e-01	0	62	104	4687134720	52	11862
2026-01-18 14:44:52.96	340.42	8.18	-41.1	-51.9	3.8	8.46e-01	0	62	104	4687134720	52	12721
2026-01-18 14:44:57.01	340.52	7.86	-44.5	-55.6	3.8	8.47e-01	0	62	104	4687134720	58	13764
2026-01-18 14:45:01.05	340.63	7.54	-45.5	-56.8	3.8	8.46e-01	0	62	104	4687134720	60	14145
2026-01-18 14:45:05.09	340.72	7.23	-45.6	-57.0	3.8	8.45e-01	0	62	104	4687134720	60	14432
2026-01-18 14:45:09.13	340.82	6.93	-45.5	-56.9	3.8	8.45e-01	0	62	104	4687134720	60	14243
2026-01-18 14:45:13.17	340.92	6.62	-45.5	-56.8	3.8	8.44e-01	0	62	104	4687134720	60	14123
2026-01-18 14:45:17.22	341.01	6.32	-45.4	-56.8	3.8	8.47e-01	0	62	104	4687134720	60	14149
2026-01-18 14:45:21.26	341.11	6.02	-45.4	-56.8	3.8	8.47e-01	0	62	104	4687134720	60	14076
2026-01-18 14:45:25.30	341.20	5.73	-45.4	-56.8	3.8	8.46e-01	0	62	104	4687134720	60	14092
2026-01-18 14:45:29.34	341.29	5.44	-45.4	-56.8	3.8	8.46e-01	0	62	104	4687134720	60	14056
2026-01-18 14:45:33.38	341.38	5.15	-45.4	-56.7	3.8	8.47e-01	0	62	104	4687134720	60	13979
2026-01-18 14:45:37.43	341.46	4.86	-45.4	-56.8	3.8	8.47e-01	0	62	104	4687134720	60	14064
2026-01-18 14:45:41.47	341.55	4.58	-45.4	-56.7	3.8	8.47e-01	0	62	104	4687134720	60	14022
2026-01-18 14:45:45.51	341.63	4.30	-45.4	-56.7	3.8	8.46e-01	0	62	104	4687134720	60	14021
2026-01-18 14:45:49.55	341.72	4.03	-45.4	-56.8	3.8	8.46e-01	0	62	104	4687134720	60	14063
2026-01-18 14:45:53.59	341.80	3.76	-45.4	-56.7	3.8	8.46e-01	0	62	104	4687134720	60	14001
2026-01-18 14:45:57.63	341.88	3.49	-45.4	-56.7	3.8	8.46e-01	0	62	104	4687134720	60	13978
2026-01-18 14:46:01.67	341.96	3.22	-45.4	-56.7	3.8	8.46e-01	0	62	104	4687134720	60	13943
2026-01-18 14:46:05.71	342.04	2.95	-45.3	-56.7	3.8	8.46e-01	0	62	104	4687134720	60	13984
2026-01-18 14:46:09.75	342.12	2.69	-45.3	-56.7	3.8	8.45e-01	0	62	104	4687134720	60	13922
2026-01-18 14:46:13.79	342.19	2.43	-45.3	-56.7	3.8	8.46e-01	0	62	104	4687134720	60	13927
2026-01-18 14:46:17.83	342.27	2.17	-45.3	-56.7	3.8	8.47e-01	0	62	104	4687134720	60	13900

#Closed at: 2026-01-18 14:46:21
#Recorded file [4687 MB]: D:/lorett/data/31039_260118_173157.dat