passes_logs/2026/01/18/R2.0S_Moscow/R2.0S_Moscow__20260118_024012_AQUA_rec.log

#Pass ID: 20260118_024012_AQUA
#Satellite: AQUA
#Configuration: AQUA
#almurnet v.1.7.20251203
#Start time: 2026-01-18 02:40:12

#Version: 2.2.20231116
#Station: R2.0S_Moscow
#Location: 37.707566 lon 55.798166 lat
#TLE: 1 27424U 02022A   26017.29152041  .00000842  00000+0  17841-3 0  9992
#TLE: 2 27424  98.4085 343.7574 0002011  75.4099  30.6811 14.61825797261228

#Time	Az	El	Level	Level2	SNR	BER	BlckErr	Temp	State	Recorded	gain1	gain2
2026-01-18 02:40:12.36	8.29	1.98	-40.3	-59.9	3.8	7.45e-01	0	51	0	0	52	33862
2026-01-18 02:40:15.39	8.10	2.16	-40.2	-59.9	3.8	7.49e-01	0	51	104	0	51	35815
2026-01-18 02:40:18.43	7.90	2.34	-40.2	-59.9	3.8	7.44e-01	0	52	104	0	51	35755
2026-01-18 02:40:21.46	7.70	2.53	-40.2	-59.8	3.8	7.45e-01	0	52	104	0	51	35684
2026-01-18 02:40:24.49	7.50	2.71	-40.2	-59.9	3.8	7.45e-01	0	52	104	0	51	35722
2026-01-18 02:40:27.52	7.30	2.90	-40.2	-59.9	3.8	7.47e-01	0	52	104	0	51	35733
2026-01-18 02:40:30.55	7.09	3.09	-40.2	-59.9	3.8	7.45e-01	0	52	104	0	51	35722
2026-01-18 02:40:33.59	6.88	3.28	-40.2	-59.9	3.8	7.43e-01	0	53	104	0	51	35706
2026-01-18 02:40:36.62	6.67	3.47	-40.2	-59.9	3.8	7.46e-01	0	53	104	0	51	35711
2026-01-18 02:40:39.65	6.45	3.66	-40.2	-59.8	3.8	7.47e-01	0	53	104	0	51	35634
2026-01-18 02:40:42.69	6.23	3.85	-40.2	-59.8	3.8	7.46e-01	0	53	104	0	51	35644
2026-01-18 02:40:45.72	6.01	4.05	-40.2	-59.9	3.8	7.45e-01	0	53	104	0	51	35718
2026-01-18 02:40:48.74	5.78	4.24	-40.2	-59.9	3.8	7.49e-01	0	54	104	0	51	35760
2026-01-18 02:40:51.77	5.55	4.43	-40.2	-59.8	3.8	7.45e-01	0	54	104	0	51	35689
2026-01-18 02:40:54.81	5.32	4.63	-40.2	-59.9	3.8	7.44e-01	0	54	104	0	51	35700
2026-01-18 02:40:57.84	5.08	4.83	-40.2	-59.9	3.8	7.45e-01	0	54	104	0	51	35703
2026-01-18 02:41:00.87	4.84	5.03	-40.2	-59.8	3.8	7.45e-01	0	54	104	0	51	35687
2026-01-18 02:41:03.91	4.59	5.23	-40.2	-59.8	3.8	7.46e-01	0	54	104	0	51	35612
2026-01-18 02:41:06.94	4.34	5.43	-40.2	-59.8	3.8	7.42e-01	0	55	104	0	51	35653
2026-01-18 02:41:09.97	4.09	5.63	-40.2	-59.8	3.8	7.45e-01	0	55	104	0	51	35628
2026-01-18 02:41:13.01	3.83	5.84	-40.2	-59.8	3.8	7.44e-01	0	55	104	0	51	35637
2026-01-18 02:41:16.04	3.57	6.04	-40.2	-59.8	3.8	7.44e-01	0	55	104	0	51	35650
2026-01-18 02:41:19.07	3.31	6.25	-40.2	-59.8	3.8	7.47e-01	0	55	104	0	51	35582
2026-01-18 02:41:22.10	3.04	6.46	-40.2	-59.8	3.8	7.45e-01	0	55	104	0	51	35612
2026-01-18 02:41:25.14	2.76	6.67	-40.2	-59.8	3.8	7.45e-01	0	55	104	0	51	35552
2026-01-18 02:41:28.17	2.48	6.88	-40.2	-59.8	3.8	7.51e-01	0	55	104	0	51	35566
2026-01-18 02:41:31.20	2.20	7.09	-40.2	-59.8	3.8	7.42e-01	0	56	104	0	51	35429
2026-01-18 02:41:34.23	1.91	7.30	-40.2	-59.8	3.8	7.43e-01	0	56	104	0	51	35484
2026-01-18 02:41:37.27	1.62	7.52	-40.1	-59.8	3.8	7.46e-01	0	56	104	0	51	35372
2026-01-18 02:41:40.30	1.32	7.73	-40.1	-59.8	3.8	7.49e-01	0	56	104	0	51	35548
2026-01-18 02:41:43.33	1.02	7.95	-40.1	-59.8	3.8	7.42e-01	0	56	104	0	51	35368
2026-01-18 02:41:46.36	0.71	8.17	-40.2	-59.9	3.8	7.44e-01	0	56	104	0	51	35824
2026-01-18 02:41:49.39	0.40	8.39	-40.3	-60.0	3.8	7.42e-01	0	56	104	0	51	36364
2026-01-18 02:41:52.42	0.08	8.61	-39.7	-60.0	3.8	7.43e-01	0	56	104	0	51	36244
2026-01-18 02:41:55.44	359.76	8.83	-39.6	-60.1	3.8	7.46e-01	0	57	104	0	51	36573
2026-01-18 02:41:58.47	359.43	9.06	-39.4	-60.0	3.8	7.47e-01	0	57	104	0	50	38440
2026-01-18 02:42:01.50	359.09	9.28	-39.6	-60.0	3.8	7.47e-01	0	57	104	0	50	38680
2026-01-18 02:42:04.53	358.75	9.51	-39.6	-60.0	3.8	7.43e-01	0	57	104	0	51	36474
2026-01-18 02:42:07.56	358.40	9.73	-40.1	-60.0	3.8	7.46e-01	0	57	104	0	51	36319
2026-01-18 02:42:10.59	358.05	9.96	-40.2	-60.1	3.8	7.47e-01	0	57	104	0	51	36575
2026-01-18 02:42:13.62	357.69	10.19	-40.0	-60.0	3.8	7.46e-01	0	57	104	0	51	36409
2026-01-18 02:42:16.65	357.33	10.43	-40.1	-60.1	3.8	7.46e-01	0	57	104	0	51	36865
2026-01-18 02:42:19.68	356.95	10.66	-40.5	-60.2	3.8	7.45e-01	0	57	104	0	51	37006
2026-01-18 02:42:22.71	356.58	10.89	-39.7	-60.0	3.8	7.46e-01	0	57	104	0	51	36491
2026-01-18 02:42:25.74	356.19	11.13	-40.3	-60.0	3.8	7.45e-01	0	57	104	0	51	36394
2026-01-18 02:42:28.77	355.80	11.37	-40.8	-60.5	3.8	7.45e-01	0	58	104	0	52	36181
2026-01-18 02:42:31.80	355.40	11.61	-40.6	-60.2	3.8	7.41e-01	0	57	104	0	53	33229
2026-01-18 02:42:34.82	354.99	11.85	-41.3	-60.5	3.9	7.47e-01	0	58	104	0	53	34359
2026-01-18 02:42:37.85	354.58	12.09	-41.1	-60.3	3.8	7.41e-01	0	57	104	0	53	33313
2026-01-18 02:42:40.88	354.15	12.33	-41.3	-60.4	3.8	7.45e-01	0	58	104	0	53	34078
2026-01-18 02:42:43.92	353.72	12.57	-41.3	-60.5	3.8	7.48e-01	0	58	104	0	53	34438
2026-01-18 02:42:46.94	353.29	12.82	-41.2	-60.5	3.8	7.47e-01	0	58	104	0	53	34103
2026-01-18 02:42:49.97	352.84	13.06	-41.3	-60.5	3.8	7.44e-01	0	58	104	0	53	34174
2026-01-18 02:42:53.00	352.39	13.31	-41.4	-60.6	3.8	7.47e-01	0	58	104	0	53	34848
2026-01-18 02:42:56.03	351.93	13.56	-41.2	-60.6	3.8	7.45e-01	0	58	104	0	53	34668
2026-01-18 02:42:59.06	351.45	13.81	-41.2	-60.8	3.8	7.43e-01	0	58	104	0	53	35608
2026-01-18 02:43:02.09	350.97	14.06	-41.8	-60.9	3.8	7.44e-01	0	58	104	0	54	33934
2026-01-18 02:43:05.12	350.49	14.31	-41.3	-60.9	3.8	7.43e-01	0	58	104	0	54	33898
2026-01-18 02:43:08.15	349.99	14.56	-41.2	-60.8	3.8	7.45e-01	0	58	104	0	54	33645
2026-01-18 02:43:11.18	349.48	14.81	-41.3	-60.9	3.8	7.48e-01	0	59	104	0	54	34010
2026-01-18 02:43:14.21	348.96	15.07	-41.1	-61.0	3.8	7.45e-01	0	58	104	0	54	34300
2026-01-18 02:43:17.24	348.44	15.32	-41.7	-61.3	3.8	7.43e-01	0	59	104	0	54	35314
2026-01-18 02:43:20.27	347.90	15.57	-42.2	-61.3	3.8	7.46e-01	0	59	104	0	55	33691
2026-01-18 02:43:23.30	347.36	15.83	-42.2	-61.3	3.8	7.45e-01	0	59	104	0	55	33494
2026-01-18 02:43:26.33	346.80	16.08	-42.0	-61.3	3.8	7.43e-01	0	59	104	0	55	33651
2026-01-18 02:43:29.36	346.23	16.34	-41.9	-61.0	3.8	7.46e-01	0	59	104	0	55	32545
2026-01-18 02:43:32.39	345.66	16.60	-42.1	-61.2	3.8	7.45e-01	0	59	104	0	55	33061
2026-01-18 02:43:35.42	345.07	16.85	-41.7	-61.0	3.8	7.45e-01	0	59	104	0	55	32317
2026-01-18 02:43:38.45	344.47	17.11	-41.6	-61.0	3.8	7.49e-01	0	59	104	0	54	34334
2026-01-18 02:43:41.47	343.86	17.36	-41.3	-60.9	3.8	7.45e-01	0	59	104	0	54	33730
2026-01-18 02:43:44.50	343.24	17.62	-41.1	-60.9	3.8	7.48e-01	0	59	104	0	53	35948
2026-01-18 02:43:47.53	342.61	17.87	-41.4	-60.9	3.8	7.48e-01	0	59	104	0	53	35889
2026-01-18 02:43:50.56	341.96	18.13	-41.5	-60.9	3.8	7.44e-01	0	59	104	0	53	35776
2026-01-18 02:43:53.59	341.31	18.38	-41.4	-60.7	3.8	7.45e-01	0	59	104	0	54	32988
2026-01-18 02:43:56.62	340.64	18.63	-41.5	-60.8	3.8	7.47e-01	0	59	104	0	54	33319
2026-01-18 02:43:59.64	339.96	18.88	-42.2	-59.9	3.9	7.42e-01	0	59	104	0	55	28387
2026-01-18 02:44:02.67	339.27	19.13	-42.5	-51.9	8.4	6.34e-01	7	59	104	1048576	56	10716
2026-01-18 02:44:05.70	338.57	19.38	-42.3	-47.2	15.0	6.04e-01	0	59	0	6291456	56	6259
2026-01-18 02:44:08.73	337.85	19.63	-41.0	-44.4	18.1	6.01e-01	0	59	0	12058624	53	5392
2026-01-18 02:44:11.76	337.12	19.88	-41.5	-45.0	18.0	6.04e-01	0	59	0	17825792	54	5416
2026-01-18 02:44:14.78	336.38	20.12	-41.5	-44.9	18.1	5.99e-01	0	59	0	23592960	54	5398
2026-01-18 02:44:17.81	335.63	20.36	-41.7	-45.1	18.1	6.04e-01	0	59	0	28835840	54	5507
2026-01-18 02:44:20.84	334.86	20.60	-41.8	-45.2	18.2	6.03e-01	0	59	0	34603008	54	5543
2026-01-18 02:44:23.87	334.08	20.83	-41.9	-45.3	18.1	6.03e-01	0	59	0	40370176	54	5602
2026-01-18 02:44:26.90	333.29	21.06	-41.9	-45.3	18.2	6.01e-01	0	59	0	46137344	54	5600
2026-01-18 02:44:29.93	332.49	21.29	-42.0	-45.4	18.2	6.03e-01	0	59	0	51904512	54	5668
2026-01-18 02:44:32.96	331.67	21.52	-41.9	-45.3	18.4	6.03e-01	0	59	0	57671680	54	5596
2026-01-18 02:44:35.99	330.84	21.74	-42.1	-45.4	18.2	6.02e-01	0	59	0	62914560	54	5710
2026-01-18 02:44:39.02	330.00	21.96	-42.1	-45.5	18.1	6.02e-01	0	59	0	68681728	54	5755
2026-01-18 02:44:42.05	329.14	22.17	-42.2	-45.6	18.1	6.03e-01	0	59	0	74448896	54	5804
2026-01-18 02:44:45.07	328.28	22.38	-42.0	-45.3	18.3	6.00e-01	0	59	0	80216064	54	5635
2026-01-18 02:44:48.10	327.40	22.58	-42.1	-45.5	18.1	6.05e-01	0	59	0	85983232	54	5765
2026-01-18 02:44:51.13	326.51	22.78	-42.3	-45.8	17.8	6.04e-01	0	59	0	91750400	55	5620
2026-01-18 02:44:54.16	325.60	22.97	-42.1	-45.4	18.3	6.03e-01	0	59	0	96993280	55	5375
2026-01-18 02:44:57.19	324.69	23.16	-42.1	-45.5	18.2	6.03e-01	0	59	0	102760448	55	5420
2026-01-18 02:45:00.21	323.77	23.34	-42.1	-45.4	18.3	6.03e-01	0	59	0	108527616	55	5375
2026-01-18 02:45:03.24	322.83	23.51	-42.2	-45.5	18.1	6.03e-01	0	59	0	114294784	55	5462
2026-01-18 02:45:06.27	321.88	23.68	-42.2	-45.5	18.2	6.01e-01	0	60	0	120061952	55	5460
2026-01-18 02:45:09.29	320.92	23.83	-42.1	-45.4	18.3	6.00e-01	0	59	0	125304832	55	5360
2026-01-18 02:45:12.32	319.95	23.99	-42.2	-45.7	18.1	6.02e-01	0	60	0	131072000	55	5533
2026-01-18 02:45:15.35	318.97	24.13	-42.1	-45.3	18.4	6.03e-01	0	59	0	136839168	55	5332
2026-01-18 02:45:18.38	317.99	24.27	-42.2	-45.6	18.0	6.04e-01	0	60	0	142606336	55	5519
2026-01-18 02:45:21.41	316.99	24.40	-42.1	-45.5	18.3	6.01e-01	0	60	0	148373504	55	5416
2026-01-18 02:45:24.44	315.98	24.51	-42.1	-45.4	18.3	6.03e-01	0	60	0	154140672	55	5378
2026-01-18 02:45:27.46	314.97	24.63	-42.1	-45.4	18.3	6.00e-01	0	60	0	159907840	55	5400
2026-01-18 02:45:30.49	313.95	24.73	-42.1	-45.4	18.3	6.03e-01	0	60	0	165150720	55	5376
2026-01-18 02:45:33.52	312.92	24.82	-42.3	-45.8	17.9	5.98e-01	0	60	0	170917888	55	5613
2026-01-18 02:45:36.55	311.89	24.90	-42.2	-45.6	18.1	6.05e-01	0	60	0	176685056	55	5526
2026-01-18 02:45:39.58	310.85	24.98	-42.3	-45.7	18.0	6.00e-01	0	60	0	182452224	55	5570
2026-01-18 02:45:42.61	309.81	25.04	-42.2	-45.6	18.1	6.01e-01	0	60	0	188219392	55	5491
2026-01-18 02:45:45.64	308.76	25.09	-42.1	-45.5	18.3	6.04e-01	0	60	0	193462272	55	5423
2026-01-18 02:45:48.66	307.71	25.14	-42.2	-45.6	18.1	6.00e-01	0	60	0	199229440	55	5521
2026-01-18 02:45:51.69	306.66	25.17	-42.1	-45.5	18.2	6.02e-01	0	60	0	204996608	55	5413
2026-01-18 02:45:54.72	305.60	25.20	-42.2	-45.6	18.1	6.04e-01	0	60	0	210763776	55	5477
2026-01-18 02:45:57.76	304.54	25.21	-42.3	-45.7	17.9	6.01e-01	0	60	0	216530944	55	5554
2026-01-18 02:46:00.78	303.48	25.21	-42.4	-46.0	17.7	6.02e-01	0	60	0	222298112	55	5781
2026-01-18 02:46:03.81	302.43	25.21	-41.9	-45.0	18.8	6.04e-01	0	60	0	228065280	55	5131
2026-01-18 02:46:06.84	301.37	25.19	-42.3	-45.7	18.1	6.04e-01	0	60	0	233308160	56	5249
2026-01-18 02:46:09.87	300.31	25.16	-43.3	-47.7	16.1	6.01e-01	0	60	0	239075328	57	6264
2026-01-18 02:46:12.89	299.26	25.12	-43.1	-47.1	16.8	6.00e-01	0	60	0	244842496	57	5839
2026-01-18 02:46:15.92	298.21	25.07	-43.3	-47.6	16.1	6.03e-01	0	60	0	250609664	57	6142
2026-01-18 02:46:18.95	297.16	25.02	-43.9	-49.1	14.6	6.04e-01	0	60	0	256376832	58	6947
2026-01-18 02:46:21.98	296.12	24.95	-43.1	-47.2	16.6	6.04e-01	0	60	0	261619712	57	5890
2026-01-18 02:46:25.01	295.08	24.87	-43.1	-47.1	16.7	6.02e-01	0	60	0	267386880	57	5851
2026-01-18 02:46:28.03	294.05	24.78	-42.8	-46.6	17.1	6.02e-01	0	60	0	273154048	56	5840
2026-01-18 02:46:31.06	293.02	24.69	-43.1	-47.1	16.6	6.05e-01	0	60	0	278921216	56	6196
2026-01-18 02:46:34.09	292.01	24.58	-42.8	-46.5	17.3	6.04e-01	0	60	0	284688384	57	5445
2026-01-18 02:46:37.12	290.99	24.47	-42.6	-46.2	17.6	6.03e-01	0	60	0	290455552	57	5241
2026-01-18 02:46:40.15	289.99	24.34	-42.8	-46.5	17.3	6.04e-01	0	60	0	296222720	56	5785
2026-01-18 02:46:43.18	288.99	24.21	-42.5	-46.0	17.7	6.03e-01	0	60	0	301465600	56	5438
2026-01-18 02:46:46.21	288.01	24.07	-42.4	-45.9	17.9	6.01e-01	0	60	0	307232768	56	5342
2026-01-18 02:46:49.24	287.03	23.93	-42.8	-46.7	17.0	6.00e-01	0	60	0	312999936	56	5879
2026-01-18 02:46:52.27	286.06	23.77	-42.4	-45.8	18.0	6.01e-01	0	60	0	318767104	56	5298
2026-01-18 02:46:55.29	285.10	23.61	-42.5	-46.2	17.6	6.01e-01	0	60	0	324534272	56	5556
2026-01-18 02:46:58.32	284.16	23.44	-43.0	-47.1	16.7	6.01e-01	0	60	0	329777152	56	6142
2026-01-18 02:47:01.35	283.22	23.26	-42.5	-46.0	17.6	6.01e-01	0	60	0	335544320	56	5460
2026-01-18 02:47:04.38	282.30	23.08	-42.9	-46.8	16.9	6.01e-01	0	60	0	341311488	56	5937
2026-01-18 02:47:07.41	281.38	22.89	-42.8	-46.6	17.1	5.99e-01	0	60	0	347078656	56	5825
2026-01-18 02:47:10.43	280.48	22.70	-43.2	-47.4	16.3	6.02e-01	0	60	0	352845824	56	6373
2026-01-18 02:47:13.46	279.59	22.49	-43.1	-47.2	16.5	6.01e-01	0	60	0	358612992	57	5889
2026-01-18 02:47:16.49	278.72	22.29	-42.6	-46.3	17.4	6.00e-01	0	60	0	363855872	56	5642
2026-01-18 02:47:19.52	277.85	22.08	-42.5	-46.1	17.6	6.03e-01	0	60	0	369623040	56	5506
2026-01-18 02:47:22.55	277.00	21.86	-42.5	-46.1	17.6	6.03e-01	0	60	0	375390208	56	5508
2026-01-18 02:47:25.58	276.16	21.64	-42.5	-46.1	17.6	6.01e-01	0	60	0	381157376	56	5489
2026-01-18 02:47:28.61	275.33	21.42	-42.1	-45.4	18.2	6.03e-01	0	60	0	386924544	56	5086
2026-01-18 02:47:31.64	274.51	21.19	-42.3	-45.8	17.9	6.00e-01	0	60	0	392691712	56	5304
2026-01-18 02:47:34.66	273.71	20.96	-42.4	-45.9	17.8	6.04e-01	0	60	0	397934592	56	5367
2026-01-18 02:47:37.69	272.92	20.73	-42.3	-45.7	17.9	6.01e-01	0	60	0	403701760	56	5262
2026-01-18 02:47:40.73	272.14	20.49	-42.3	-45.8	17.8	6.03e-01	0	60	0	409468928	56	5340
2026-01-18 02:47:43.75	271.38	20.25	-42.4	-46.0	17.7	6.02e-01	0	60	0	415236096	56	5432
2026-01-18 02:47:46.78	270.63	20.01	-42.2	-45.6	18.1	6.04e-01	0	60	0	421003264	56	5160
2026-01-18 02:47:49.81	269.89	19.76	-42.3	-45.7	17.9	6.01e-01	0	60	0	426770432	56	5259
2026-01-18 02:47:52.83	269.16	19.51	-42.4	-45.9	17.7	6.01e-01	0	60	0	432013312	56	5385
2026-01-18 02:47:55.86	268.45	19.27	-42.2	-45.6	18.0	6.02e-01	0	60	0	437780480	56	5180
2026-01-18 02:47:58.89	267.75	19.01	-42.2	-45.6	18.0	6.02e-01	0	60	0	443547648	56	5175
2026-01-18 02:48:01.92	267.06	18.76	-42.1	-45.5	18.1	6.00e-01	0	60	0	449314816	56	5143
2026-01-18 02:48:04.95	266.38	18.51	-42.1	-45.4	18.2	6.00e-01	0	60	0	455081984	56	5084
2026-01-18 02:48:07.98	265.71	18.26	-42.2	-45.7	17.9	6.04e-01	0	60	0	460849152	56	5231
2026-01-18 02:48:11.00	265.06	18.00	-42.0	-45.3	18.3	6.03e-01	0	60	0	466092032	56	4992
2026-01-18 02:48:14.03	264.42	17.75	-42.3	-45.8	17.7	6.04e-01	0	60	0	471859200	56	5340
2026-01-18 02:48:17.06	263.78	17.49	-42.0	-45.3	18.3	6.01e-01	0	60	0	477626368	56	5010
2026-01-18 02:48:20.09	263.16	17.23	-42.1	-45.6	18.0	5.99e-01	0	60	0	483393536	56	5182
2026-01-18 02:48:23.12	262.55	16.98	-42.0	-45.4	18.1	6.05e-01	0	60	0	489160704	56	5079
2026-01-18 02:48:26.15	261.96	16.72	-41.9	-45.2	18.2	6.02e-01	0	60	0	494927872	55	5258
2026-01-18 02:48:29.18	261.37	16.46	-42.0	-45.4	18.0	6.01e-01	0	60	0	500170752	55	5391
2026-01-18 02:48:32.21	260.79	16.20	-41.9	-45.3	18.1	6.03e-01	0	60	0	505937920	55	5309
2026-01-18 02:48:35.23	260.23	15.95	-41.9	-45.3	18.1	6.01e-01	0	60	0	511705088	55	5311
2026-01-18 02:48:38.26	259.67	15.69	-42.0	-45.4	18.0	6.03e-01	0	60	0	517472256	55	5381
2026-01-18 02:48:41.29	259.13	15.44	-41.9	-45.2	18.1	6.01e-01	0	60	0	523239424	55	5273
2026-01-18 02:48:44.32	258.59	15.18	-42.0	-45.5	17.9	6.03e-01	0	60	0	529006592	55	5414
2026-01-18 02:48:47.35	258.07	14.93	-42.0	-45.5	17.8	6.02e-01	0	60	0	534249472	55	5445
2026-01-18 02:48:50.38	257.55	14.67	-42.0	-45.4	17.9	6.02e-01	0	60	0	540016640	55	5401
2026-01-18 02:48:53.40	257.05	14.42	-42.1	-45.7	17.7	6.04e-01	0	60	0	545783808	55	5539
2026-01-18 02:48:56.43	256.55	14.17	-42.0	-45.6	17.8	6.04e-01	0	60	0	551550976	55	5472
2026-01-18 02:48:59.46	256.06	13.92	-42.0	-45.5	17.8	6.01e-01	0	60	0	557318144	55	5410
2026-01-18 02:49:02.49	255.58	13.66	-42.1	-45.8	17.5	6.03e-01	0	60	0	562561024	55	5598
2026-01-18 02:49:05.52	255.11	13.41	-42.1	-45.7	17.5	6.04e-01	0	60	0	568328192	55	5586
2026-01-18 02:49:08.54	254.65	13.17	-42.1	-45.7	17.6	6.04e-01	0	60	0	574095360	55	5558
2026-01-18 02:49:11.57	254.19	12.92	-42.0	-45.6	17.6	6.03e-01	0	60	0	579862528	55	5515
2026-01-18 02:49:14.60	253.75	12.67	-42.1	-45.8	17.4	6.05e-01	0	60	0	585629696	55	5632
2026-01-18 02:49:17.63	253.31	12.43	-42.1	-45.8	17.5	6.03e-01	0	60	0	591396864	55	5607
2026-01-18 02:49:20.66	252.88	12.18	-42.1	-45.7	17.5	6.01e-01	0	60	0	597164032	55	5544
2026-01-18 02:49:23.68	252.46	11.94	-42.1	-45.8	17.4	6.01e-01	0	60	0	602406912	55	5629
2026-01-18 02:49:26.71	252.04	11.70	-42.1	-45.8	17.4	6.00e-01	0	60	0	608174080	55	5625
2026-01-18 02:49:29.74	251.64	11.46	-42.2	-45.9	17.2	6.01e-01	0	60	0	613941248	55	5706
2026-01-18 02:49:32.77	251.24	11.22	-42.0	-45.7	17.5	6.03e-01	0	60	0	619708416	55	5544
2026-01-18 02:49:35.80	250.84	10.98	-42.2	-46.0	17.2	6.04e-01	0	60	0	625475584	55	5735
2026-01-18 02:49:38.83	250.46	10.75	-42.2	-46.0	17.1	6.02e-01	0	60	0	630718464	55	5751
2026-01-18 02:49:41.86	250.08	10.51	-42.3	-46.2	16.9	6.00e-01	0	60	0	636485632	55	5899
2026-01-18 02:49:44.89	249.70	10.28	-42.3	-46.1	16.9	6.02e-01	0	60	0	642252800	55	5853
2026-01-18 02:49:47.92	249.34	10.04	-42.2	-46.1	17.0	6.03e-01	0	60	0	648019968	55	5793
2026-01-18 02:49:50.95	248.98	9.81	-42.2	-46.1	17.1	6.06e-01	0	60	0	653787136	55	5794
2026-01-18 02:49:53.98	248.62	9.58	-42.2	-46.1	17.0	6.00e-01	0	60	0	659554304	55	5807
2026-01-18 02:49:57.01	248.28	9.36	-42.2	-46.0	17.0	6.01e-01	0	60	0	665321472	55	5767
2026-01-18 02:50:00.04	247.93	9.13	-42.2	-46.2	16.7	6.03e-01	0	60	0	670564352	55	5915
2026-01-18 02:50:03.06	247.60	8.90	-42.2	-46.2	16.7	6.02e-01	0	60	0	676331520	55	5882
2026-01-18 02:50:06.09	247.27	8.68	-42.4	-46.6	16.4	6.03e-01	0	60	0	682098688	55	6161
2026-01-18 02:50:09.12	246.94	8.46	-42.5	-46.7	16.2	6.03e-01	0	60	0	687865856	55	6269
2026-01-18 02:50:12.15	246.62	8.24	-42.4	-46.6	16.3	6.02e-01	0	60	0	693633024	55	6165
2026-01-18 02:50:15.18	246.31	8.02	-42.3	-46.5	16.4	6.01e-01	0	60	0	698875904	55	6086
2026-01-18 02:50:18.21	246.00	7.80	-45.9	-64.5	3.8	7.46e-01	0	60	104	700448768	62	32390
2026-01-18 02:50:21.24	245.70	7.58	-46.2	-64.8	3.8	7.46e-01	0	60	104	700448768	62	33473
2026-01-18 02:50:24.27	245.40	7.36	-46.3	-64.9	3.8	7.47e-01	0	60	104	700448768	63	31958
2026-01-18 02:50:27.31	245.10	7.15	-46.2	-64.8	3.8	7.46e-01	0	60	104	700448768	63	31520
2026-01-18 02:50:30.34	244.81	6.94	-46.2	-64.8	3.8	7.43e-01	0	60	104	700448768	63	31478
2026-01-18 02:50:33.37	244.53	6.72	-46.1	-64.7	3.8	7.43e-01	0	60	104	700448768	63	31196
2026-01-18 02:50:36.41	244.25	6.51	-46.1	-64.7	3.8	7.44e-01	0	61	104	700448768	63	31212
2026-01-18 02:50:39.44	243.97	6.30	-46.1	-64.7	3.8	7.41e-01	0	60	104	700448768	63	31149
2026-01-18 02:50:42.47	243.70	6.10	-46.1	-64.7	3.8	7.47e-01	0	60	104	700448768	63	31152
2026-01-18 02:50:45.50	243.44	5.89	-46.1	-64.6	3.8	7.47e-01	0	60	104	700448768	63	31059
2026-01-18 02:50:48.54	243.17	5.68	-46.1	-64.6	3.8	7.45e-01	0	60	104	700448768	63	31050
2026-01-18 02:50:51.57	242.91	5.48	-46.1	-64.6	3.8	7.44e-01	0	60	104	700448768	63	30991
2026-01-18 02:50:54.60	242.66	5.28	-46.1	-64.6	3.8	7.49e-01	0	61	104	700448768	63	31031
2026-01-18 02:50:57.64	242.41	5.07	-46.1	-64.6	3.8	7.41e-01	0	60	104	700448768	63	31011
2026-01-18 02:51:00.67	242.16	4.87	-46.1	-64.6	3.8	7.46e-01	0	61	104	700448768	63	31040
2026-01-18 02:51:03.70	241.92	4.67	-46.1	-64.6	3.8	7.46e-01	0	60	104	700448768	63	31018
2026-01-18 02:51:06.74	241.68	4.47	-46.1	-64.6	3.8	7.42e-01	0	61	104	700448768	63	30984
2026-01-18 02:51:09.77	241.44	4.28	-46.1	-64.7	3.8	7.47e-01	0	60	104	700448768	63	31111
2026-01-18 02:51:12.80	241.21	4.08	-46.1	-64.6	3.8	7.46e-01	0	61	104	700448768	63	31038
2026-01-18 02:51:15.84	240.98	3.89	-46.0	-64.6	3.8	7.45e-01	0	60	104	700448768	63	31015
2026-01-18 02:51:18.87	240.76	3.69	-46.0	-64.6	3.8	7.43e-01	0	61	104	700448768	63	30984
2026-01-18 02:51:21.90	240.53	3.50	-46.0	-64.6	3.8	7.48e-01	0	61	104	700448768	63	30954
2026-01-18 02:51:24.93	240.31	3.31	-46.0	-64.6	3.8	7.48e-01	0	61	104	700448768	63	30966
2026-01-18 02:51:27.97	240.10	3.12	-46.0	-64.6	3.8	7.45e-01	0	61	104	700448768	63	30917
2026-01-18 02:51:31.00	239.89	2.93	-46.0	-64.6	3.8	7.47e-01	0	61	104	700448768	63	30930
2026-01-18 02:51:34.03	239.68	2.74	-46.0	-64.6	3.8	7.46e-01	0	61	104	700448768	63	30946
2026-01-18 02:51:37.07	239.47	2.56	-46.0	-64.6	3.8	7.46e-01	0	61	104	700448768	63	30898
2026-01-18 02:51:40.10	239.27	2.37	-46.0	-64.6	3.8	7.47e-01	0	60	104	700448768	63	30885
2026-01-18 02:51:43.13	239.07	2.19	-46.0	-64.6	3.8	7.46e-01	0	61	104	700448768	63	30850
2026-01-18 02:51:46.17	238.87	2.00	-46.0	-64.6	3.8	7.44e-01	0	61	104	700448768	63	30809

#Closed at: 2026-01-18 02:51:47
#Recorded file [700 MB]: D:/lorett/data/31039_260118_054012.dat