passes_logs/2026/01/18/R2.0S_Moscow/R2.0S_Moscow__20260118_221924_SUOMI_NPP_rec.log

#Pass ID: 20260118_221924_SUOMI NPP
#Satellite: SUOMI NPP
#Configuration: NPP
#almurnet v.1.7.20251203
#Start time: 2026-01-18 22:19:26

#Version: 2.2.20231116
#Station: R2.0S_Moscow
#Location: 37.707566 lon 55.798166 lat
#TLE: 1 37849U 11061A   26017.92342359  .00000077  00000+0  57567-4 0  9990
#TLE: 2 37849  98.7814 319.9468 0002389  58.5705 301.5704 14.19525998737125

#Time	Az	El	Level	Level2	SNR	BER	BlckErr	Temp	State	Recorded	gain1	gain2
2026-01-18 22:19:26.05	24.75	2.07	-42.0	-57.4	3.8	1.49e+00	0	54	0	0	56	20289
2026-01-18 22:19:30.08	25.02	2.30	-41.8	-57.3	3.8	1.49e+00	0	55	104	0	54	22297
2026-01-18 22:19:34.12	25.30	2.52	-41.9	-57.3	3.8	1.49e+00	0	55	104	0	54	22270
2026-01-18 22:19:38.16	25.59	2.75	-41.8	-57.3	3.8	1.49e+00	0	55	104	0	54	22332
2026-01-18 22:19:42.20	25.88	2.98	-41.9	-57.3	3.8	1.49e+00	0	56	104	0	54	22296
2026-01-18 22:19:46.24	26.17	3.21	-41.8	-57.3	3.8	1.49e+00	0	56	104	0	54	22301
2026-01-18 22:19:50.28	26.47	3.44	-41.9	-57.2	3.8	1.49e+00	0	56	104	0	54	22258
2026-01-18 22:19:54.33	26.77	3.67	-41.8	-57.2	3.8	1.49e+00	0	56	104	0	54	22225
2026-01-18 22:19:58.37	27.08	3.91	-41.8	-57.2	3.8	1.49e+00	0	56	104	0	54	22255
2026-01-18 22:20:02.40	27.39	4.14	-41.9	-57.2	3.8	1.49e+00	0	56	104	0	54	22226
2026-01-18 22:20:06.44	27.70	4.38	-41.9	-57.2	3.8	1.49e+00	0	57	104	0	54	22205
2026-01-18 22:20:10.48	28.02	4.61	-41.8	-57.2	3.8	1.49e+00	0	57	104	0	54	22167
2026-01-18 22:20:14.52	28.35	4.85	-41.9	-57.3	3.8	1.49e+00	0	57	104	0	54	22319
2026-01-18 22:20:18.57	28.68	5.10	-41.8	-57.2	3.8	1.49e+00	0	57	104	0	54	22166
2026-01-18 22:20:22.61	29.02	5.34	-41.8	-57.2	3.8	1.49e+00	0	58	104	0	54	22121
2026-01-18 22:20:26.65	29.36	5.58	-41.8	-57.2	3.8	1.49e+00	0	57	104	0	54	22205
2026-01-18 22:20:30.69	29.71	5.83	-41.9	-57.2	3.8	1.49e+00	0	58	104	0	54	22236
2026-01-18 22:20:34.73	30.06	6.07	-41.8	-57.2	3.8	1.49e+00	0	58	104	0	54	22199
2026-01-18 22:20:38.78	30.42	6.32	-41.8	-57.2	3.8	1.49e+00	0	58	104	0	54	22113
2026-01-18 22:20:42.82	30.78	6.57	-41.8	-57.0	3.8	1.49e+00	0	58	104	0	54	21736
2026-01-18 22:20:46.86	31.15	6.82	-41.8	-56.5	3.8	1.49e+00	0	58	104	0	54	20320
2026-01-18 22:20:50.91	31.53	7.08	-41.8	-56.4	3.8	1.49e+00	0	58	104	0	54	20274
2026-01-18 22:20:54.95	31.91	7.33	-41.8	-57.1	3.8	1.49e+00	0	58	104	0	54	21979
2026-01-18 22:20:58.99	32.30	7.59	-41.8	-55.7	3.8	1.49e+00	0	58	104	0	54	18688
2026-01-18 22:21:03.03	32.69	7.85	-41.1	-49.3	6.6	2.81e-01	0	59	0	4194304	54	8905
2026-01-18 22:21:07.07	33.09	8.10	-42.4	-54.9	3.9	2.90e-01	0	59	104	11534336	55	16112
2026-01-18 22:21:11.12	33.50	8.37	-41.8	-50.7	5.7	2.14e-01	0	59	0	15728640	55	9877
2026-01-18 22:21:15.15	33.92	8.63	-41.7	-48.2	8.2	6.01e-02	0	59	0	23068672	55	7380
2026-01-18 22:21:19.19	34.34	8.89	-41.7	-47.8	8.8	4.13e-02	0	59	0	30408704	55	7077
2026-01-18 22:21:23.23	34.77	9.15	-41.9	-48.2	8.5	4.31e-02	0	59	0	38797312	55	7395
2026-01-18 22:21:27.27	35.21	9.42	-42.1	-48.1	8.7	3.70e-02	0	59	0	46137344	55	7309
2026-01-18 22:21:31.31	35.66	9.69	-42.1	-47.8	9.1	2.09e-02	0	59	0	53477376	55	7121
2026-01-18 22:21:35.35	36.11	9.96	-42.0	-47.3	9.7	1.54e-02	0	59	0	60817408	55	6723
2026-01-18 22:21:39.39	36.57	10.23	-41.9	-46.9	10.3	6.33e-03	0	59	0	68157440	55	6381
2026-01-18 22:21:43.42	37.04	10.50	-41.9	-46.6	10.7	2.81e-03	0	60	0	76546048	55	6134
2026-01-18 22:21:47.46	37.52	10.77	-41.8	-46.3	11.0	2.69e-03	0	60	0	83886080	55	5959
2026-01-18 22:21:51.49	38.01	11.05	-41.9	-46.4	10.9	2.09e-03	0	60	0	91226112	55	6025
2026-01-18 22:21:55.54	38.50	11.32	-41.9	-46.4	10.9	1.58e-03	0	60	0	98566144	55	6061
2026-01-18 22:21:59.57	39.01	11.60	-42.0	-46.6	10.8	2.11e-03	0	60	0	106954752	55	6198
2026-01-18 22:22:03.61	39.52	11.88	-42.1	-46.7	10.9	1.94e-03	0	60	0	114294784	55	6214
2026-01-18 22:22:07.65	40.05	12.16	-42.1	-46.6	10.9	2.77e-03	0	60	0	121634816	55	6162
2026-01-18 22:22:11.68	40.58	12.44	-42.1	-46.6	10.9	2.23e-03	0	60	0	128974848	55	6181
2026-01-18 22:22:15.72	41.12	12.72	-42.0	-46.4	11.2	1.35e-03	0	60	0	136314880	55	6024
2026-01-18 22:22:19.76	41.68	13.00	-41.8	-46.0	11.6	6.72e-04	0	60	0	144703488	55	5784
2026-01-18 22:22:23.80	42.24	13.28	-41.8	-45.9	11.7	5.92e-04	0	60	0	152043520	55	5717
2026-01-18 22:22:27.84	42.81	13.57	-41.7	-45.8	11.9	4.85e-04	0	60	0	159383552	55	5607
2026-01-18 22:22:31.88	43.40	13.85	-41.8	-45.9	11.8	4.97e-04	0	60	0	166723584	55	5694
2026-01-18 22:22:35.91	43.99	14.14	-41.8	-45.9	11.9	4.29e-04	0	60	0	175112192	55	5689
2026-01-18 22:22:39.95	44.60	14.42	-42.0	-46.2	11.5	6.87e-04	0	60	0	182452224	55	5893
2026-01-18 22:22:43.99	45.22	14.71	-42.0	-46.3	11.5	8.65e-04	0	60	0	189792256	55	5978
2026-01-18 22:22:48.03	45.85	15.00	-41.9	-45.9	11.9	3.76e-04	0	61	0	197132288	55	5692
2026-01-18 22:22:52.06	46.49	15.28	-41.8	-45.7	12.1	2.13e-04	0	60	0	204472320	55	5588
2026-01-18 22:22:56.10	47.15	15.57	-41.8	-45.7	12.2	2.01e-04	0	61	0	212860928	55	5542
2026-01-18 22:23:00.14	47.82	15.86	-41.7	-45.4	12.4	1.65e-04	0	60	0	220200960	55	5379
2026-01-18 22:23:04.18	48.50	16.14	-41.6	-45.2	12.7	7.47e-05	0	61	0	227540992	55	5264
2026-01-18 22:23:08.21	49.19	16.43	-41.6	-45.4	12.5	8.46e-05	0	60	0	234881024	54	5661
2026-01-18 22:23:12.25	49.89	16.71	-41.8	-45.6	12.4	2.06e-04	0	60	0	242221056	54	5817
2026-01-18 22:23:16.29	50.61	17.00	-41.8	-45.6	12.4	1.63e-04	0	61	0	250609664	54	5809
2026-01-18 22:23:20.33	51.34	17.28	-41.9	-45.9	12.1	2.27e-04	0	61	0	257949696	54	6000
2026-01-18 22:23:24.37	52.09	17.56	-42.1	-46.2	11.8	4.45e-04	0	61	0	265289728	54	6213
2026-01-18 22:23:28.40	52.85	17.84	-41.9	-45.9	12.1	2.43e-04	0	61	0	272629760	54	6012
2026-01-18 22:23:32.44	53.62	18.12	-41.9	-45.9	12.1	2.44e-04	0	61	0	281018368	54	5999
2026-01-18 22:23:36.48	54.41	18.40	-41.8	-45.6	12.4	1.79e-04	0	61	0	288358400	54	5809
2026-01-18 22:23:40.52	55.21	18.68	-41.9	-45.8	12.2	2.72e-04	0	61	0	295698432	54	5988
2026-01-18 22:23:44.55	56.02	18.95	-42.2	-46.4	11.5	7.99e-04	0	61	0	303038464	55	6048
2026-01-18 22:23:48.59	56.85	19.22	-42.2	-46.3	11.7	4.92e-04	0	61	0	310378496	55	5936
2026-01-18 22:23:52.63	57.69	19.48	-42.5	-47.0	10.9	1.50e-03	0	61	0	318767104	55	6455
2026-01-18 22:23:56.67	58.55	19.75	-42.2	-46.4	11.5	9.03e-04	0	61	0	326107136	55	6052
2026-01-18 22:24:00.71	59.43	20.01	-42.7	-47.5	10.4	3.60e-03	0	61	0	333447168	55	6861
2026-01-18 22:24:04.75	60.31	20.26	-42.6	-47.1	11.0	2.62e-03	0	61	0	340787200	56	6183
2026-01-18 22:24:08.78	61.21	20.51	-42.5	-46.9	11.3	1.19e-03	0	61	0	349175808	56	6029
2026-01-18 22:24:12.82	62.13	20.76	-42.4	-46.7	11.5	7.80e-04	0	61	0	356515840	56	5863
2026-01-18 22:24:16.85	63.06	21.00	-42.6	-47.1	11.1	1.86e-03	0	61	0	363855872	56	6143
2026-01-18 22:24:20.90	64.01	21.24	-42.1	-46.0	12.2	3.09e-04	0	61	0	371195904	56	5419
2026-01-18 22:24:24.93	64.96	21.47	-41.7	-45.4	12.7	8.08e-05	0	61	0	378535936	55	5357
2026-01-18 22:24:28.97	65.94	21.70	-42.1	-46.3	11.7	2.60e-04	0	61	0	386924544	55	5930
2026-01-18 22:24:33.01	66.93	21.91	-42.6	-47.2	10.7	3.22e-03	0	61	0	394264576	55	6618
2026-01-18 22:24:37.05	67.93	22.13	-41.8	-45.7	12.3	2.27e-04	0	61	0	401604608	55	5536
2026-01-18 22:24:41.08	68.94	22.33	-42.2	-46.6	11.3	1.56e-03	0	61	0	408944640	55	6148
2026-01-18 22:24:45.12	69.97	22.53	-42.2	-46.5	11.3	8.72e-04	0	61	0	417333248	55	6116
2026-01-18 22:24:49.16	71.01	22.72	-42.1	-46.3	11.5	1.02e-03	0	61	0	424673280	55	5982
2026-01-18 22:24:53.20	72.06	22.90	-42.3	-46.9	10.8	1.93e-03	0	61	0	432013312	55	6414
2026-01-18 22:24:57.24	73.12	23.07	-42.8	-47.8	10.2	7.71e-03	0	61	0	439353344	56	6648
2026-01-18 22:25:01.28	74.20	23.23	-42.6	-47.2	10.9	2.40e-03	0	61	0	446693376	56	6211
2026-01-18 22:25:05.32	75.28	23.38	-42.8	-47.8	10.2	5.80e-03	0	61	0	455081984	56	6686
2026-01-18 22:25:09.36	76.38	23.53	-42.9	-48.1	9.9	8.38e-03	0	61	0	462422016	56	6903
2026-01-18 22:25:13.40	77.49	23.66	-43.2	-48.8	9.2	1.96e-02	0	61	0	469762048	57	7081
2026-01-18 22:25:17.43	78.60	23.79	-42.7	-47.4	10.6	4.85e-03	0	61	0	477102080	57	6027
2026-01-18 22:25:21.47	79.72	23.90	-42.3	-46.4	11.8	5.06e-04	0	61	0	485490688	56	5661
2026-01-18 22:25:25.51	80.86	24.00	-42.4	-46.6	11.6	4.58e-04	0	61	0	492830720	56	5805
2026-01-18 22:25:29.55	81.99	24.09	-42.7	-47.2	10.9	3.03e-03	0	61	0	500170752	56	6269
2026-01-18 22:25:33.59	83.14	24.17	-42.6	-47.0	11.2	9.50e-04	0	61	0	507510784	56	6085
2026-01-18 22:25:37.63	84.29	24.24	-42.4	-46.6	11.6	6.93e-04	0	61	0	514850816	56	5801
2026-01-18 22:25:41.67	85.44	24.29	-42.6	-47.0	11.2	1.71e-03	0	61	0	523239424	56	6076
2026-01-18 22:25:45.70	86.60	24.34	-41.7	-45.2	12.8	5.64e-05	0	61	0	530579456	55	5273
2026-01-18 22:25:49.74	87.76	24.37	-42.2	-46.2	11.8	4.45e-04	0	61	0	537919488	55	5922
2026-01-18 22:25:53.78	88.92	24.39	-41.9	-45.6	12.5	1.29e-04	0	62	0	545259520	55	5490
2026-01-18 22:25:57.82	90.09	24.40	-41.8	-45.5	12.6	9.23e-05	0	61	0	553648128	55	5456
2026-01-18 22:26:01.86	91.25	24.39	-42.1	-46.1	12.0	3.24e-04	0	61	0	560988160	55	5833
2026-01-18 22:26:05.90	92.41	24.37	-41.9	-45.6	12.6	1.27e-04	0	61	0	568328192	55	5490
2026-01-18 22:26:09.94	93.58	24.35	-42.0	-45.7	12.4	1.81e-04	0	61	0	575668224	55	5590
2026-01-18 22:26:13.97	94.73	24.30	-42.1	-46.1	12.0	2.94e-04	0	62	0	583008256	55	5844
2026-01-18 22:26:18.01	95.89	24.25	-42.0	-45.8	12.4	1.86e-04	0	62	0	591396864	55	5594
2026-01-18 22:26:22.05	97.04	24.19	-41.6	-45.0	13.2	3.05e-05	0	62	0	598736896	55	5159
2026-01-18 22:26:26.09	98.19	24.11	-41.9	-45.7	12.5	1.05e-04	0	62	0	606076928	55	5564
2026-01-18 22:26:30.13	99.33	24.02	-41.6	-45.0	13.2	3.58e-05	0	61	0	613416960	55	5151
2026-01-18 22:26:34.17	100.47	23.92	-41.7	-45.2	13.1	5.34e-05	0	61	0	621805568	55	5241
2026-01-18 22:26:38.21	101.59	23.81	-41.4	-44.6	13.7	7.60e-06	0	62	0	629145600	54	5170
2026-01-18 22:26:42.24	102.71	23.69	-41.8	-45.5	12.8	4.65e-05	0	62	0	636485632	54	5731
2026-01-18 22:26:46.28	103.82	23.56	-41.5	-44.8	13.5	1.22e-05	0	61	0	643825664	54	5331
2026-01-18 22:26:50.32	104.92	23.42	-41.2	-44.3	14.0	3.00e-06	0	62	0	651165696	54	4995
2026-01-18 22:26:54.36	106.01	23.27	-40.8	-43.7	14.6	1.50e-06	0	61	0	659554304	53	4939
2026-01-18 22:26:58.39	107.09	23.10	-40.7	-43.5	14.8	7.00e-07	0	62	0	666894336	52	5118
2026-01-18 22:27:02.43	108.16	22.93	-41.1	-44.1	14.2	1.50e-06	0	61	0	674234368	53	5167
2026-01-18 22:27:06.47	109.22	22.75	-40.6	-43.3	15.0	0.00e+00	0	62	0	681574400	53	4723
2026-01-18 22:27:10.50	110.26	22.57	-41.2	-44.3	14.0	7.00e-07	0	62	0	689963008	53	5335
2026-01-18 22:27:14.54	111.30	22.37	-40.9	-43.8	14.6	0.00e+00	0	62	0	697303040	53	4997
2026-01-18 22:27:18.57	112.32	22.17	-41.2	-44.3	14.0	1.50e-06	0	62	0	704643072	53	5291
2026-01-18 22:27:22.61	113.32	21.96	-41.0	-43.9	14.4	7.00e-07	0	61	0	711983104	53	5100
2026-01-18 22:27:26.65	114.32	21.74	-41.3	-44.4	13.8	4.50e-06	0	61	0	719323136	53	5397
2026-01-18 22:27:30.68	115.30	21.51	-42.0	-45.8	12.5	8.54e-05	0	61	0	727711744	54	5951
2026-01-18 22:27:34.72	116.26	21.28	-41.5	-44.9	13.3	2.13e-05	0	61	0	735051776	54	5402
2026-01-18 22:27:38.76	117.21	21.05	-41.3	-44.5	13.8	1.50e-06	0	61	0	742391808	54	5116
2026-01-18 22:27:42.80	118.15	20.80	-42.1	-46.1	12.1	1.75e-04	0	61	0	749731840	54	6158
2026-01-18 22:27:46.83	119.07	20.56	-41.9	-45.6	12.6	1.02e-04	0	62	0	757071872	55	5485
2026-01-18 22:27:50.87	119.98	20.30	-41.3	-44.5	13.8	6.10e-06	0	62	0	765460480	54	5141
2026-01-18 22:27:54.91	120.88	20.05	-42.1	-46.0	12.1	1.75e-04	0	61	0	772800512	54	6105
2026-01-18 22:27:58.95	121.76	19.79	-42.1	-46.1	12.0	2.83e-04	0	62	0	780140544	55	5849
2026-01-18 22:28:02.99	122.62	19.52	-42.1	-46.1	12.1	3.47e-04	0	62	0	787480576	55	5801
2026-01-18 22:28:07.03	123.47	19.25	-42.0	-46.1	12.1	9.15e-04	0	61	0	795869184	55	5795
2026-01-18 22:28:11.07	124.31	18.98	-42.3	-46.6	11.4	4.90e-03	0	61	0	803209216	55	6197
2026-01-18 22:28:15.11	125.13	18.71	-41.1	-44.8	13.3	4.80e-05	0	62	0	810549248	54	5331
2026-01-18 22:28:19.15	125.94	18.43	-41.8	-46.1	12.0	1.83e-04	0	61	0	817889280	54	6139
2026-01-18 22:28:23.19	126.73	18.15	-41.9	-45.9	12.2	2.10e-04	0	61	0	825229312	54	6005
2026-01-18 22:28:27.23	127.51	17.87	-42.2	-46.3	11.7	3.75e-04	0	62	0	833617920	54	6327
2026-01-18 22:28:31.27	128.28	17.59	-42.3	-46.7	11.4	1.71e-03	0	61	0	840957952	55	6213
2026-01-18 22:28:35.30	129.03	17.30	-41.7	-45.4	12.6	9.07e-05	0	62	0	848297984	54	5693
2026-01-18 22:28:39.34	129.76	17.02	-41.9	-46.0	11.9	3.11e-04	0	61	0	855638016	54	6129
2026-01-18 22:28:43.38	130.49	16.73	-41.5	-45.0	12.9	1.59e-02	0	62	0	864026624	53	5767
2026-01-18 22:28:47.42	131.20	16.44	-42.0	-46.2	11.5	3.65e-03	0	62	0	871366656	54	6205
2026-01-18 22:28:51.46	131.90	16.16	-41.6	-46.0	11.3	4.52e-01	0	62	0	878706688	54	6118
2026-01-18 22:28:55.49	132.58	15.87	-41.2	-45.4	11.6	1.50e-02	0	62	0	886046720	53	6059
2026-01-18 22:28:59.53	133.25	15.58	-41.0	-45.6	11.1	2.62e-01	0	62	0	893386752	53	6161
2026-01-18 22:29:03.57	133.91	15.29	-40.7	-45.0	11.7	1.86e-02	0	61	0	900726784	52	6097
2026-01-18 22:29:07.61	134.56	15.00	-41.7	-46.7	10.1	8.71e-01	0	62	0	908066816	54	6576
2026-01-18 22:29:11.64	135.19	14.71	-42.0	-47.6	9.3	8.33e-02	0	62	0	913309696	53	7736
2026-01-18 22:29:15.68	135.81	14.42	-41.6	-46.4	10.3	5.96e-02	0	61	0	918552576	53	6745
2026-01-18 22:29:19.72	136.43	14.13	-36.9	-44.4	7.7	7.87e-02	0	62	0	924844032	51	6003
2026-01-18 22:29:23.75	137.02	13.85	-41.2	-45.1	12.0	1.62e-02	0	62	0	932184064	53	5855
2026-01-18 22:29:27.79	137.61	13.56	-41.3	-45.2	12.1	3.24e-02	0	62	0	939524096	53	5915
2026-01-18 22:29:31.83	138.19	13.27	-41.9	-46.4	11.0	6.59e-03	0	62	0	946864128	54	6396
2026-01-18 22:29:35.86	138.76	12.99	-42.1	-46.8	10.7	5.53e-03	0	62	0	955252736	54	6710
2026-01-18 22:29:39.90	139.31	12.70	-39.7	-45.9	9.0	2.69e-03	0	62	0	962592768	47	9066
2026-01-18 22:29:43.94	139.86	12.42	-42.0	-46.5	11.0	1.67e-03	0	62	0	969932800	54	6462
2026-01-18 22:29:47.98	140.40	12.13	-42.0	-46.7	10.8	2.55e-03	0	62	0	977272832	54	6622
2026-01-18 22:29:52.02	140.92	11.85	-41.8	-46.2	11.3	3.00e-03	0	62	0	984612864	54	6249
2026-01-18 22:29:56.05	141.44	11.57	-41.9	-46.3	11.1	1.08e-03	0	62	0	993001472	54	6343
2026-01-18 22:30:00.09	141.95	11.29	-42.1	-46.9	10.5	3.62e-03	0	62	0	1000341504	54	6750
2026-01-18 22:30:04.13	142.44	11.01	-42.5	-48.0	9.3	1.87e-02	0	62	0	1007681536	55	7233
2026-01-18 22:30:08.17	142.93	10.73	-42.5	-48.2	9.1	2.95e-02	0	62	0	1015021568	55	7409
2026-01-18 22:30:12.20	143.41	10.46	-42.4	-47.9	9.3	1.92e-02	0	62	0	1022361600	55	7142
2026-01-18 22:30:16.24	143.88	10.18	-42.0	-46.8	10.5	6.06e-03	0	62	0	1030750208	55	6312
2026-01-18 22:30:20.28	144.35	9.91	-42.1	-47.1	10.1	6.36e-03	0	62	0	1038090240	55	6542
2026-01-18 22:30:24.32	144.80	9.64	-41.9	-46.6	10.6	2.86e-03	0	62	0	1045430272	55	6138
2026-01-18 22:30:28.36	145.25	9.37	-41.8	-46.6	10.5	3.05e-03	0	62	0	1052770304	55	6193
2026-01-18 22:30:32.39	145.68	9.10	-42.0	-47.1	10.0	5.62e-03	0	62	0	1061158912	55	6531
2026-01-18 22:30:36.43	146.12	8.83	-42.2	-47.9	9.0	2.25e-02	0	62	0	1068498944	55	7192
2026-01-18 22:30:40.47	146.54	8.57	-42.1	-47.7	9.2	1.96e-02	0	62	0	1075838976	55	6993
2026-01-18 22:30:44.51	146.96	8.30	-42.0	-47.3	9.6	1.66e-02	0	62	0	1083179008	55	6686
2026-01-18 22:30:48.55	147.36	8.04	-41.9	-47.4	9.4	1.46e-02	0	62	0	1090519040	55	6754
2026-01-18 22:30:52.59	147.77	7.78	-45.1	-59.9	3.8	1.49e+00	0	62	104	1092616192	60	21461
2026-01-18 22:30:56.63	148.16	7.52	-45.6	-60.4	3.8	1.49e+00	0	62	104	1092616192	61	21348
2026-01-18 22:31:00.67	148.55	7.26	-45.5	-60.2	3.8	1.49e+00	0	62	104	1092616192	61	20779
2026-01-18 22:31:04.72	148.93	7.00	-45.3	-59.9	3.8	1.49e+00	0	62	104	1092616192	61	20179
2026-01-18 22:31:08.76	149.31	6.75	-45.3	-59.9	3.8	1.49e+00	0	62	104	1092616192	61	20204
2026-01-18 22:31:12.80	149.68	6.49	-45.3	-59.9	3.8	1.49e+00	0	62	104	1092616192	61	20082
2026-01-18 22:31:16.85	150.04	6.24	-45.3	-59.9	3.8	1.49e+00	0	62	104	1092616192	61	20088
2026-01-18 22:31:20.89	150.40	5.99	-45.3	-59.8	3.8	1.49e+00	0	62	104	1092616192	61	19996
2026-01-18 22:31:24.93	150.75	5.74	-45.3	-59.8	3.8	1.49e+00	0	62	104	1092616192	61	19951
2026-01-18 22:31:28.97	151.09	5.49	-45.3	-59.8	3.8	1.49e+00	0	62	104	1092616192	61	20007
2026-01-18 22:31:33.02	151.43	5.24	-45.3	-59.8	3.8	1.49e+00	0	62	104	1092616192	61	19932
2026-01-18 22:31:37.06	151.77	5.00	-45.3	-59.8	3.8	1.49e+00	0	62	104	1092616192	61	19911
2026-01-18 22:31:41.10	152.10	4.76	-45.2	-59.8	3.8	1.49e+00	0	62	104	1092616192	61	19961
2026-01-18 22:31:45.14	152.42	4.51	-45.2	-59.8	3.8	1.49e+00	0	62	104	1092616192	61	19879
2026-01-18 22:31:49.18	152.74	4.27	-45.2	-59.8	3.8	1.49e+00	0	62	104	1092616192	61	19931
2026-01-18 22:31:53.22	153.05	4.03	-45.2	-59.7	3.8	1.49e+00	0	62	104	1092616192	61	19762
2026-01-18 22:31:57.26	153.36	3.80	-45.2	-59.7	3.8	1.49e+00	0	62	104	1092616192	61	19819
2026-01-18 22:32:01.30	153.67	3.56	-45.2	-59.8	3.8	1.49e+00	0	62	104	1092616192	61	19898
2026-01-18 22:32:05.35	153.97	3.32	-45.2	-59.7	3.8	1.49e+00	0	62	104	1092616192	61	19838
2026-01-18 22:32:09.39	154.26	3.09	-45.2	-59.8	3.8	1.49e+00	0	62	104	1092616192	61	19851
2026-01-18 22:32:13.43	154.55	2.86	-45.2	-59.7	3.8	1.49e+00	0	62	104	1092616192	61	19824
2026-01-18 22:32:17.47	154.84	2.63	-45.2	-59.8	3.8	1.49e+00	0	62	104	1092616192	61	19856
2026-01-18 22:32:21.51	155.12	2.40	-45.2	-59.7	3.8	1.49e+00	0	62	104	1092616192	61	19798
2026-01-18 22:32:25.56	155.40	2.17	-45.2	-59.7	3.8	1.49e+00	0	62	104	1092616192	61	19782

#Closed at: 2026-01-18 22:32:28
#Recorded file [1092 MB]: D:/lorett/data/31039_260119_011925.dat