passes_logs/2026/01/18/R2.0S_Moscow/R2.0S_Moscow__20260118_232949_NOAA_21_JPSS-2_rec.log

#Pass ID: 20260118_232949_NOAA 21 (JPSS-2)
#Satellite: NOAA 21 (JPSS-2)
#Configuration: NOAA-21
#almurnet v.1.7.20251203
#Start time: 2026-01-18 23:29:48

#Version: 2.2.20231116
#Station: R2.0S_Moscow
#Location: 37.707566 lon 55.798166 lat
#TLE: 1 54234U 22150A   26017.90260625  .00000050  00000+0  44518-4 0  9994
#TLE: 2 54234  98.7502 318.7672 0000612 269.1755  90.9351 14.19535344165221

#Time	Az	El	Level	Level2	SNR	BER	BlckErr	Temp	State	Recorded	gain1	gain2
2026-01-18 23:29:48.74	16.92	1.97	-41.7	-54.7	3.8	1.49e+00	0	52	0	0	54	16563
2026-01-18 23:29:52.78	16.96	2.23	-41.7	-54.7	3.8	1.49e+00	0	52	104	0	54	16597
2026-01-18 23:29:56.83	17.01	2.49	-41.7	-54.7	3.8	1.49e+00	0	53	104	0	54	16570
2026-01-18 23:30:00.87	17.06	2.75	-41.7	-54.7	3.8	1.49e+00	0	53	104	0	54	16580
2026-01-18 23:30:04.91	17.11	3.01	-41.8	-54.7	3.8	1.49e+00	0	53	104	0	54	16623
2026-01-18 23:30:08.95	17.15	3.28	-41.7	-54.7	3.8	1.49e+00	0	54	104	0	54	16545
2026-01-18 23:30:12.99	17.20	3.55	-41.7	-54.7	3.8	1.49e+00	0	54	104	0	54	16594
2026-01-18 23:30:17.03	17.25	3.82	-41.8	-54.7	3.8	1.49e+00	0	54	104	0	54	16554
2026-01-18 23:30:21.07	17.30	4.10	-41.8	-54.7	3.8	1.49e+00	0	54	104	0	54	16544
2026-01-18 23:30:25.12	17.35	4.38	-41.8	-54.7	3.8	1.49e+00	0	54	104	0	54	16556
2026-01-18 23:30:29.16	17.41	4.66	-41.8	-54.7	3.8	1.49e+00	0	55	104	0	54	16521
2026-01-18 23:30:33.20	17.46	4.94	-41.7	-54.7	3.8	1.49e+00	0	55	104	0	54	16524
2026-01-18 23:30:37.25	17.51	5.23	-41.8	-54.7	3.8	1.49e+00	0	55	104	0	54	16534
2026-01-18 23:30:41.29	17.57	5.52	-41.8	-54.7	3.8	1.49e+00	0	55	104	0	54	16514
2026-01-18 23:30:45.33	17.62	5.81	-41.7	-54.7	3.8	1.49e+00	0	56	104	0	54	16522
2026-01-18 23:30:49.37	17.67	6.11	-41.8	-54.6	3.8	1.49e+00	0	56	104	0	54	16486
2026-01-18 23:30:53.41	17.73	6.41	-41.7	-54.6	3.8	1.49e+00	0	56	104	0	54	16473
2026-01-18 23:30:57.45	17.79	6.71	-41.8	-54.6	3.8	1.49e+00	0	56	104	0	54	16446
2026-01-18 23:31:01.49	17.84	7.02	-41.7	-54.4	3.8	1.49e+00	0	56	104	0	54	16027
2026-01-18 23:31:05.54	17.90	7.33	-41.7	-53.8	3.8	1.49e+00	0	56	104	0	54	14900
2026-01-18 23:31:09.58	17.96	7.64	-41.4	-51.0	4.2	1.46e+00	0	57	104	0	54	10792
2026-01-18 23:31:13.62	18.02	7.96	-40.6	-46.6	6.7	2.30e-01	0	57	0	7340032	53	6938
2026-01-18 23:31:17.66	18.08	8.29	-40.5	-46.6	7.0	2.05e-02	0	57	0	19922944	51	7750
2026-01-18 23:31:21.70	18.15	8.61	-40.7	-45.2	8.9	3.02e-02	0	57	0	26214400	52	6203
2026-01-18 23:31:25.74	18.21	8.94	-40.3	-44.0	10.2	5.57e-03	0	57	0	38797312	52	5445
2026-01-18 23:31:29.78	18.27	9.28	-40.4	-44.1	10.3	5.39e-03	0	57	0	51380224	52	5469
2026-01-18 23:31:33.82	18.34	9.62	-40.6	-44.2	10.3	4.71e-03	0	58	0	63963136	52	5583
2026-01-18 23:31:37.86	18.40	9.96	-40.4	-43.7	11.0	2.15e-03	0	58	0	76546048	52	5254
2026-01-18 23:31:41.89	18.47	10.31	-40.6	-43.9	10.9	2.08e-03	0	58	0	89128960	52	5388
2026-01-18 23:31:45.94	18.54	10.67	-40.5	-43.8	11.1	1.39e-03	0	58	0	101711872	52	5303
2026-01-18 23:31:49.98	18.61	11.03	-40.6	-43.9	11.1	1.54e-03	0	58	0	114294784	52	5349
2026-01-18 23:31:54.02	18.68	11.39	-40.5	-43.6	11.5	7.62e-04	0	58	0	126877696	52	5169
2026-01-18 23:31:58.05	18.75	11.76	-40.4	-43.4	11.7	5.67e-04	0	58	0	139460608	52	5062
2026-01-18 23:32:02.09	18.83	12.14	-40.3	-43.1	12.1	2.43e-04	0	58	0	152043520	52	4913
2026-01-18 23:32:06.13	18.90	12.52	-40.3	-43.1	12.1	2.47e-04	0	58	0	164626432	52	4902
2026-01-18 23:32:10.17	18.98	12.91	-40.2	-43.0	12.2	1.79e-04	0	58	0	177209344	52	4864
2026-01-18 23:32:14.21	19.06	13.31	-40.3	-43.1	12.2	2.34e-04	0	59	0	189792256	52	4896
2026-01-18 23:32:18.25	19.14	13.71	-40.2	-42.9	12.5	1.20e-04	0	59	0	202375168	52	4778
2026-01-18 23:32:22.29	19.22	14.11	-40.2	-42.9	12.5	1.30e-04	0	59	0	214958080	52	4803
2026-01-18 23:32:26.33	19.31	14.53	-40.2	-42.9	12.6	1.06e-04	0	59	0	227540992	52	4780
2026-01-18 23:32:30.37	19.39	14.95	-40.2	-42.8	12.7	7.24e-05	0	59	0	240123904	52	4719
2026-01-18 23:32:34.41	19.48	15.38	-40.1	-42.7	12.8	4.95e-05	0	59	0	252706816	52	4690
2026-01-18 23:32:38.45	19.57	15.82	-40.1	-42.7	12.9	6.10e-05	0	59	0	265289728	52	4671
2026-01-18 23:32:42.49	19.66	16.26	-40.2	-42.7	12.8	4.95e-05	0	59	0	277872640	52	4697
2026-01-18 23:32:46.52	19.76	16.72	-40.0	-42.5	13.1	3.20e-05	0	59	0	290455552	52	4574
2026-01-18 23:32:50.56	19.85	17.18	-40.1	-42.6	13.0	3.35e-05	0	59	0	304087040	52	4623
2026-01-18 23:32:54.60	19.95	17.65	-40.1	-42.5	13.1	2.44e-05	0	59	0	316669952	52	4594
2026-01-18 23:32:58.64	20.06	18.13	-40.1	-42.6	13.1	2.21e-05	0	60	0	329252864	52	4613
2026-01-18 23:33:02.67	20.16	18.62	-40.2	-42.8	13.0	4.42e-05	0	59	0	341835776	52	4711
2026-01-18 23:33:06.71	20.27	19.12	-40.2	-42.7	13.1	1.83e-05	0	59	0	354418688	52	4667
2026-01-18 23:33:10.75	20.38	19.63	-40.2	-42.7	13.1	3.35e-05	0	60	0	367001600	52	4668
2026-01-18 23:33:14.80	20.49	20.15	-40.1	-42.4	13.4	1.06e-05	0	59	0	379584512	52	4539
2026-01-18 23:33:18.83	20.61	20.68	-40.0	-42.3	13.6	7.60e-06	0	60	0	392167424	51	4733
2026-01-18 23:33:22.87	20.73	21.22	-39.8	-42.0	14.0	2.20e-06	0	60	0	404750336	51	4554
2026-01-18 23:33:26.91	20.86	21.77	-39.6	-41.8	14.2	7.00e-07	0	60	0	417333248	51	4449
2026-01-18 23:33:30.95	20.99	22.34	-39.5	-41.6	14.5	7.00e-07	0	60	0	429916160	50	4616
2026-01-18 23:33:34.99	21.12	22.92	-39.4	-41.5	14.5	1.50e-06	0	60	0	442499072	50	4581
2026-01-18 23:33:39.03	21.26	23.51	-39.4	-41.5	14.5	0.00e+00	0	60	0	455081984	50	4581
2026-01-18 23:33:43.06	21.40	24.12	-39.5	-41.6	14.5	0.00e+00	0	60	0	467664896	50	4604
2026-01-18 23:33:47.10	21.55	24.74	-39.4	-41.4	14.7	0.00e+00	0	60	0	480247808	50	4516
2026-01-18 23:33:51.14	21.70	25.38	-39.5	-41.5	14.6	0.00e+00	0	60	0	492830720	50	4598
2026-01-18 23:33:55.18	21.86	26.03	-39.7	-41.9	14.2	0.00e+00	0	60	0	505413632	50	4775
2026-01-18 23:33:59.22	22.02	26.70	-40.2	-42.5	13.6	9.90e-06	0	60	0	517996544	50	5155
2026-01-18 23:34:03.26	22.19	27.38	-40.5	-43.0	13.2	2.13e-05	0	60	0	530579456	51	5105
2026-01-18 23:34:07.30	22.37	28.08	-40.5	-43.1	12.9	4.19e-05	0	60	0	543162368	52	4888
2026-01-18 23:34:11.34	22.55	28.80	-40.3	-42.7	13.3	1.90e-05	0	60	0	555745280	52	4672
2026-01-18 23:34:15.38	22.75	29.54	-40.1	-42.5	13.6	4.50e-06	0	60	0	568328192	52	4554
2026-01-18 23:34:19.42	22.95	30.30	-40.0	-42.3	13.9	5.30e-06	0	60	0	580911104	51	4729
2026-01-18 23:34:23.46	23.16	31.08	-40.1	-42.4	13.8	7.00e-07	0	60	0	593494016	51	4801
2026-01-18 23:34:27.49	23.38	31.87	-40.1	-42.4	13.8	7.60e-06	0	60	0	606076928	51	4770
2026-01-18 23:34:31.53	23.61	32.70	-40.1	-42.4	13.8	3.80e-06	0	60	0	618659840	51	4775
2026-01-18 23:34:35.57	23.85	33.54	-40.4	-42.7	13.5	1.14e-05	0	60	0	631242752	51	4979
2026-01-18 23:34:39.61	24.10	34.41	-40.7	-43.2	12.9	4.27e-05	0	60	0	644874240	52	4956
2026-01-18 23:34:43.65	24.37	35.30	-41.1	-44.0	12.1	1.84e-04	0	61	0	657457152	52	5413
2026-01-18 23:34:47.69	24.65	36.22	-41.5	-44.6	11.5	8.12e-04	0	60	0	670040064	53	5470
2026-01-18 23:34:51.73	24.95	37.16	-42.2	-45.7	10.3	4.14e-03	0	60	0	682622976	54	5912
2026-01-18 23:34:55.77	25.26	38.13	-42.1	-45.5	10.5	4.44e-03	0	60	0	695205888	54	5777
2026-01-18 23:34:59.81	25.59	39.13	-41.8	-45.1	11.0	1.98e-03	0	60	0	707788800	54	5506
2026-01-18 23:35:03.85	25.95	40.15	-41.7	-44.9	11.3	1.26e-03	0	61	0	720371712	54	5342
2026-01-18 23:35:07.89	26.32	41.21	-41.8	-44.9	11.2	1.22e-03	0	61	0	732954624	54	5370
2026-01-18 23:35:11.93	26.72	42.30	-42.2	-45.7	10.4	4.08e-03	0	61	0	745537536	55	5573
2026-01-18 23:35:15.97	27.15	43.42	-42.1	-45.6	10.5	4.01e-03	0	61	0	758120448	55	5485
2026-01-18 23:35:20.01	27.61	44.57	-41.9	-45.1	11.1	1.54e-03	0	61	0	770703360	55	5170
2026-01-18 23:35:24.05	28.10	45.75	-41.8	-44.9	11.3	1.28e-03	0	61	0	783286272	55	5075
2026-01-18 23:35:28.08	28.62	46.96	-41.7	-44.7	11.5	9.47e-04	0	61	0	795869184	55	4954
2026-01-18 23:35:32.13	29.20	48.22	-41.1	-43.8	12.5	1.89e-04	0	61	0	808452096	54	4714
2026-01-18 23:35:36.17	29.81	49.50	-40.8	-43.3	12.9	3.89e-05	0	61	0	821035008	53	4730
2026-01-18 23:35:40.21	30.49	50.82	-41.2	-44.0	12.2	2.27e-04	0	61	0	833617920	53	5123
2026-01-18 23:35:44.24	31.22	52.17	-41.5	-44.4	11.8	4.54e-04	0	61	0	846200832	53	5402
2026-01-18 23:35:48.28	32.02	53.56	-41.0	-43.7	12.5	1.35e-04	0	61	0	858783744	53	4969
2026-01-18 23:35:52.32	32.90	54.98	-40.7	-43.3	13.0	4.27e-05	0	61	0	871366656	53	4711
2026-01-18 23:35:56.36	33.88	56.43	-40.7	-43.2	13.0	4.42e-05	0	61	0	883949568	53	4678
2026-01-18 23:36:00.39	34.96	57.91	-40.1	-42.3	13.9	3.00e-06	0	61	0	896532480	52	4486
2026-01-18 23:36:04.43	36.16	59.42	-39.8	-42.0	14.3	7.00e-07	0	61	0	909115392	51	4550
2026-01-18 23:36:08.47	37.52	60.95	-39.9	-42.0	14.3	0.00e+00	0	61	0	921698304	51	4564
2026-01-18 23:36:12.51	39.05	62.51	-39.6	-41.6	14.7	7.00e-07	0	61	0	934281216	51	4379
2026-01-18 23:36:16.55	40.79	64.08	-39.4	-41.5	14.8	0.00e+00	0	61	0	946864128	50	4551
2026-01-18 23:36:20.59	42.79	65.66	-39.1	-41.0	15.3	7.00e-07	0	61	0	960495616	50	4319
2026-01-18 23:36:24.63	45.09	67.25	-38.9	-40.8	15.5	0.00e+00	0	61	0	972029952	49	4448
2026-01-18 23:36:28.67	47.76	68.82	-39.1	-41.0	15.2	0.00e+00	0	61	0	985661440	49	4555
2026-01-18 23:36:32.71	50.90	70.38	-39.1	-40.9	15.3	0.00e+00	0	61	0	998244352	49	4528
2026-01-18 23:36:36.76	54.62	71.89	-38.9	-40.7	15.5	0.00e+00	0	61	0	1010827264	49	4432
2026-01-18 23:36:40.79	59.02	73.34	-39.0	-40.9	15.3	0.00e+00	0	61	0	1023410176	49	4505
2026-01-18 23:36:44.83	64.27	74.69	-39.2	-41.1	15.1	0.00e+00	0	61	0	1035993088	49	4636
2026-01-18 23:36:48.87	70.54	75.92	-39.1	-41.0	15.2	0.00e+00	0	61	0	1048576000	49	4547
2026-01-18 23:36:52.91	77.93	76.95	-39.5	-41.5	14.6	0.00e+00	0	61	0	1061158912	49	4866
2026-01-18 23:36:56.95	86.47	77.75	-39.4	-41.4	14.7	7.00e-07	0	61	0	1073741824	50	4502
2026-01-18 23:37:00.99	95.99	78.26	-39.0	-40.9	15.2	0.00e+00	0	61	0	1086324736	50	4263
2026-01-18 23:37:05.03	106.09	78.42	-39.3	-41.2	14.8	0.00e+00	0	61	0	1098907648	50	4435
2026-01-18 23:37:09.07	116.16	78.23	-38.6	-40.3	15.6	0.00e+00	0	61	0	1111490560	49	4229
2026-01-18 23:37:13.11	125.63	77.71	-39.0	-40.8	15.2	0.00e+00	0	61	0	1124073472	48	4759
2026-01-18 23:37:17.15	134.11	76.89	-39.0	-40.8	15.2	0.00e+00	0	61	0	1136656384	48	4749
2026-01-18 23:37:21.19	141.43	75.84	-38.6	-40.3	15.7	0.00e+00	0	61	0	1149239296	48	4479
2026-01-18 23:37:25.22	147.62	74.61	-38.9	-40.7	15.4	0.00e+00	0	61	0	1161822208	48	4662
2026-01-18 23:37:29.26	152.82	73.25	-38.7	-40.4	15.7	0.00e+00	0	61	0	1174405120	49	4273
2026-01-18 23:37:33.30	157.19	71.79	-39.3	-41.3	14.7	0.00e+00	0	61	0	1186988032	49	4751
2026-01-18 23:37:37.34	160.86	70.27	-38.4	-40.1	16.0	0.00e+00	0	61	0	1199570944	48	4365
2026-01-18 23:37:41.38	163.97	68.71	-39.5	-41.6	14.6	7.00e-07	0	61	0	1212153856	49	4879
2026-01-18 23:37:45.42	166.62	67.13	-38.7	-40.5	15.6	0.00e+00	0	61	0	1224736768	49	4304
2026-01-18 23:37:49.46	168.90	65.54	-39.2	-41.0	15.0	0.00e+00	0	61	0	1237319680	50	4340
2026-01-18 23:37:53.50	170.88	63.95	-39.5	-41.5	14.6	7.00e-07	0	61	0	1249902592	49	4852
2026-01-18 23:37:57.54	172.61	62.38	-39.6	-41.7	14.2	7.00e-07	0	61	0	1262485504	51	4429
2026-01-18 23:38:01.58	174.13	60.82	-39.9	-42.0	14.1	7.00e-07	0	61	0	1275068416	50	4829
2026-01-18 23:38:05.62	175.48	59.28	-39.0	-40.9	14.9	0.00e+00	0	61	0	1287651328	50	4247
2026-01-18 23:38:09.65	176.67	57.77	-40.2	-42.5	13.6	3.80e-06	0	61	0	1301282816	50	5122
2026-01-18 23:38:13.70	177.75	56.28	-41.8	-45.1	10.6	4.70e-03	0	61	0	1313865728	54	5503
2026-01-18 23:38:17.73	178.72	54.83	-39.8	-41.8	14.2	7.00e-07	0	61	0	1326448640	51	4493
2026-01-18 23:38:21.77	179.59	53.41	-41.0	-43.8	12.3	1.04e-04	0	61	0	1339031552	52	5281
2026-01-18 23:38:25.81	180.39	52.02	-41.3	-44.1	11.8	5.77e-04	0	61	0	1351614464	53	5209
2026-01-18 23:38:29.84	181.12	50.66	-41.2	-44.0	12.0	2.60e-04	0	61	0	1364197376	53	5107
2026-01-18 23:38:33.88	181.78	49.34	-41.7	-44.8	11.0	1.77e-03	0	61	0	1376780288	54	5335
2026-01-18 23:38:37.92	182.40	48.05	-41.6	-44.7	11.2	1.42e-03	0	61	0	1389363200	54	5260
2026-01-18 23:38:41.96	182.96	46.80	-40.9	-43.6	12.3	2.20e-04	0	62	0	1401946112	53	4889
2026-01-18 23:38:46.00	183.49	45.58	-42.4	-46.3	9.5	1.20e-02	0	61	0	1414529024	55	5943
2026-01-18 23:38:50.04	183.98	44.40	-42.1	-45.6	10.3	6.81e-03	0	62	0	1427111936	55	5487
2026-01-18 23:38:54.08	184.43	43.24	-42.1	-45.6	10.3	3.94e-03	0	62	0	1439694848	55	5518
2026-01-18 23:38:58.12	184.86	42.12	-41.4	-44.3	11.5	1.03e-03	0	61	0	1452277760	54	5009
2026-01-18 23:39:02.16	185.25	41.03	-41.5	-44.5	11.4	7.18e-04	0	61	0	1464860672	54	5122
2026-01-18 23:39:06.20	185.62	39.97	-41.8	-45.1	10.8	2.63e-03	0	61	0	1477443584	54	5465
2026-01-18 23:39:10.23	185.97	38.95	-41.3	-44.2	11.6	7.48e-04	0	61	0	1490026496	54	4972
2026-01-18 23:39:14.27	186.30	37.95	-41.3	-44.2	11.7	6.13e-04	0	61	0	1502609408	54	4980
2026-01-18 23:39:18.31	186.61	36.97	-41.0	-43.8	12.0	3.41e-04	0	62	0	1515192320	54	4722
2026-01-18 23:39:22.35	186.91	36.03	-40.8	-43.5	12.2	2.12e-04	0	61	0	1527775232	53	4849
2026-01-18 23:39:26.39	187.19	35.11	-40.8	-43.5	12.3	1.72e-04	0	61	0	1540358144	53	4816
2026-01-18 23:39:30.43	187.45	34.22	-40.9	-43.7	12.1	2.62e-04	0	61	0	1552941056	53	4948
2026-01-18 23:39:34.47	187.70	33.35	-40.3	-42.7	13.1	2.44e-05	0	61	0	1565523968	52	4701
2026-01-18 23:39:38.50	187.94	32.50	-40.0	-42.3	13.7	3.00e-06	0	61	0	1578106880	51	4714
2026-01-18 23:39:42.54	188.17	31.68	-40.1	-42.4	13.6	7.60e-06	0	61	0	1590689792	51	4766
2026-01-18 23:39:46.58	188.39	30.88	-40.1	-42.4	13.5	7.60e-06	0	61	0	1603272704	51	4811
2026-01-18 23:39:50.62	188.59	30.10	-40.2	-42.5	13.4	1.83e-05	0	62	0	1615855616	51	4859
2026-01-18 23:39:54.65	188.79	29.34	-40.4	-42.9	13.1	2.36e-05	0	61	0	1628438528	51	5078
2026-01-18 23:39:58.69	188.98	28.60	-40.7	-43.3	12.5	1.17e-04	0	61	0	1642070016	52	5029
2026-01-18 23:40:02.73	189.16	27.88	-40.7	-43.3	12.4	1.64e-04	0	61	0	1653604352	52	5038
2026-01-18 23:40:06.77	189.34	27.18	-40.6	-43.2	12.6	1.12e-04	0	62	0	1667235840	52	4951
2026-01-18 23:40:10.80	189.51	26.49	-40.0	-42.4	13.4	1.52e-05	0	61	0	1679818752	52	4512
2026-01-18 23:40:14.84	189.67	25.82	-39.7	-41.8	14.0	3.00e-06	0	61	0	1692401664	51	4490
2026-01-18 23:40:18.88	189.82	25.17	-39.5	-41.6	14.2	0.00e+00	0	61	0	1704984576	51	4372
2026-01-18 23:40:22.92	189.97	24.53	-39.5	-41.6	14.1	1.50e-06	0	62	0	1717567488	51	4390
2026-01-18 23:40:26.96	190.12	23.91	-39.9	-42.1	13.8	4.50e-06	0	61	0	1730150400	51	4619
2026-01-18 23:40:31.00	190.26	23.30	-39.9	-42.1	13.8	6.10e-06	0	61	0	1742733312	51	4645
2026-01-18 23:40:35.04	190.39	22.71	-39.6	-41.7	14.2	0.00e+00	0	62	0	1755316224	51	4434
2026-01-18 23:40:39.08	190.52	22.13	-39.5	-41.6	14.3	1.50e-06	0	62	0	1767899136	51	4384
2026-01-18 23:40:43.12	190.65	21.56	-39.6	-41.8	14.1	1.50e-06	0	61	0	1780482048	51	4453
2026-01-18 23:40:47.16	190.77	21.00	-39.9	-42.1	13.8	4.50e-06	0	61	0	1793064960	51	4628
2026-01-18 23:40:51.19	190.89	20.46	-40.0	-42.3	13.5	6.80e-06	0	61	0	1805647872	51	4745
2026-01-18 23:40:55.22	191.00	19.93	-40.1	-42.5	13.3	1.52e-05	0	61	0	1818230784	51	4859
2026-01-18 23:40:59.26	191.11	19.41	-40.2	-42.5	13.3	1.44e-05	0	62	0	1830813696	51	4865
2026-01-18 23:41:03.30	191.22	18.90	-40.0	-42.4	13.5	5.30e-06	0	61	0	1843396608	51	4761
2026-01-18 23:41:07.34	191.33	18.40	-40.1	-42.4	13.4	1.06e-05	0	62	0	1855979520	51	4791
2026-01-18 23:41:11.38	191.43	17.91	-40.0	-42.4	13.4	1.29e-05	0	61	0	1868562432	51	4778
2026-01-18 23:41:15.42	191.53	17.43	-40.1	-42.5	13.3	1.98e-05	0	62	0	1881145344	51	4841
2026-01-18 23:41:19.46	191.62	16.95	-40.2	-42.7	13.1	3.35e-05	0	61	0	1893728256	51	4952
2026-01-18 23:41:23.49	191.72	16.49	-40.3	-42.8	13.0	5.11e-05	0	62	0	1906311168	51	5010
2026-01-18 23:41:27.53	191.81	16.04	-40.3	-42.9	12.8	5.34e-05	0	61	0	1918894080	51	5049
2026-01-18 23:41:31.57	191.90	15.59	-40.4	-43.0	12.7	7.70e-05	0	62	0	1931476992	51	5145
2026-01-18 23:41:35.62	191.98	15.15	-40.5	-43.1	12.6	1.01e-04	0	61	0	1944059904	51	5180
2026-01-18 23:41:39.66	192.07	14.72	-40.5	-43.1	12.5	1.02e-04	0	62	0	1956642816	51	5182
2026-01-18 23:41:43.69	192.15	14.30	-40.5	-43.1	12.5	1.11e-04	0	61	0	1969225728	51	5193
2026-01-18 23:41:47.73	192.23	13.89	-40.5	-43.2	12.4	1.49e-04	0	62	0	1982857216	51	5268
2026-01-18 23:41:51.77	192.31	13.48	-40.7	-43.4	12.1	2.12e-04	0	62	0	1994391552	51	5398
2026-01-18 23:41:55.81	192.38	13.07	-40.5	-43.2	12.3	1.59e-04	0	61	0	2008023040	51	5260
2026-01-18 23:41:59.85	192.46	12.68	-40.7	-43.5	12.0	2.95e-04	0	62	0	2020605952	51	5448
2026-01-18 23:42:03.89	192.53	12.29	-40.4	-43.0	12.4	1.72e-04	0	62	0	2033188864	52	4850
2026-01-18 23:42:07.93	192.60	11.91	-40.3	-43.0	12.4	1.40e-04	0	61	0	2045771776	52	4835
2026-01-18 23:42:11.97	192.67	11.53	-40.4	-43.1	12.3	1.85e-04	0	61	0	2058354688	52	4905
2026-01-18 23:42:16.01	192.74	11.16	-40.2	-42.8	12.5	1.21e-04	0	62	0	2070937600	52	4758
2026-01-18 23:42:20.05	192.81	10.79	-40.4	-43.2	12.1	2.43e-04	0	62	0	2083520512	52	4969
2026-01-18 23:42:24.09	192.88	10.43	-40.4	-43.2	12.1	2.37e-04	0	62	0	2096103424	52	4961
2026-01-18 23:42:28.13	192.94	10.08	-40.4	-43.2	12.0	3.05e-04	0	62	0	2108686336	52	4940
2026-01-18 23:42:32.17	193.00	9.73	-40.6	-43.4	11.8	4.91e-04	0	62	0	2121269248	52	5098
2026-01-18 23:42:36.20	193.07	9.38	-40.6	-43.6	11.6	6.82e-04	0	62	0	2133852160	52	5190
2026-01-18 23:42:40.24	193.13	9.04	-40.7	-43.8	11.3	1.13e-03	0	62	0	2146435072	52	5314
2026-01-18 23:42:44.28	193.19	8.70	-41.0	-44.3	10.6	2.44e-03	0	62	0	2159017984	52	5655
2026-01-18 23:42:48.32	193.25	8.37	-40.8	-44.1	10.9	2.88e-03	0	62	0	2171600896	52	5468
2026-01-18 23:42:52.36	193.30	8.04	-41.2	-44.9	10.0	5.17e-03	0	62	0	2184183808	52	6033
2026-01-18 23:42:56.41	193.36	7.72	-45.3	-57.7	3.8	1.49e+00	0	62	104	2186280960	61	15644
2026-01-18 23:43:00.45	193.41	7.40	-45.4	-57.7	3.8	1.49e+00	0	62	104	2186280960	61	15737
2026-01-18 23:43:04.49	193.47	7.09	-45.3	-57.7	3.8	1.49e+00	0	62	104	2186280960	61	15585
2026-01-18 23:43:08.53	193.52	6.77	-45.3	-57.5	3.8	1.49e+00	0	62	104	2186280960	61	15384
2026-01-18 23:43:12.57	193.58	6.47	-45.2	-57.5	3.8	1.49e+00	0	62	104	2186280960	61	15349
2026-01-18 23:43:16.62	193.63	6.16	-45.2	-57.5	3.8	1.49e+00	0	62	104	2186280960	61	15370
2026-01-18 23:43:20.66	193.68	5.86	-45.2	-57.5	3.8	1.49e+00	0	62	104	2186280960	61	15353
2026-01-18 23:43:24.70	193.73	5.56	-45.2	-57.5	3.8	1.49e+00	0	62	104	2186280960	61	15391
2026-01-18 23:43:28.74	193.78	5.27	-45.2	-57.5	3.8	1.49e+00	0	62	104	2186280960	61	15261
2026-01-18 23:43:32.78	193.83	4.98	-45.2	-57.4	3.8	1.49e+00	0	62	104	2186280960	61	15219
2026-01-18 23:43:36.82	193.87	4.69	-45.2	-57.5	3.8	1.49e+00	0	62	104	2186280960	61	15343
2026-01-18 23:43:40.87	193.92	4.41	-45.2	-57.5	3.8	1.49e+00	0	62	104	2186280960	61	15274
2026-01-18 23:43:44.91	193.97	4.13	-45.1	-57.5	3.8	1.49e+00	0	62	104	2186280960	61	15230
2026-01-18 23:43:48.95	194.01	3.85	-45.1	-57.4	3.8	1.49e+00	0	62	104	2186280960	61	15215
2026-01-18 23:43:52.99	194.06	3.57	-45.1	-57.4	3.8	1.49e+00	0	62	104	2186280960	61	15117
2026-01-18 23:43:57.04	194.10	3.30	-45.1	-57.4	3.8	1.49e+00	0	62	104	2186280960	61	15128
2026-01-18 23:44:01.08	194.15	3.03	-45.1	-57.4	3.8	1.49e+00	0	62	104	2186280960	61	15118
2026-01-18 23:44:05.12	194.19	2.76	-45.1	-57.4	3.8	1.49e+00	0	62	104	2186280960	61	15129
2026-01-18 23:44:09.16	194.23	2.50	-45.1	-57.4	3.8	1.49e+00	0	62	104	2186280960	61	15145
2026-01-18 23:44:13.21	194.28	2.23	-45.1	-57.4	3.8	1.49e+00	0	62	104	2186280960	61	15098
2026-01-18 23:44:17.25	194.32	1.97	-45.1	-57.4	3.8	1.49e+00	0	62	104	2186280960	61	15079

#Closed at: 2026-01-18 23:44:18
#Recorded file [2186 MB]: D:/lorett/data/31039_260119_022948.dat