passes_logs/2026/01/25/R4.6S_Anadyr/R4.6S_Anadyr__20260125_113637_SUOMI_NPP_rec.log

#Pass ID: 20260125_113637_SUOMI NPP
#Satellite: SUOMI NPP
#Configuration: NPP
#almurnet v.1.7.20251203
#Start time: 2026-01-25 11:36:38

#Version: 2.2.20231116
#Station: R4.6S_Anadyr
#Location: 177.4865 lon 64.73178 lat
#TLE: 1 37849U 11061A   26024.97198022  .00000188  00000+0  11029-3 0  9994
#TLE: 2 37849  98.7821 326.9352 0002187  46.6646 313.4712 14.19529581738125

#Time	Az	El	Level	Level2	SNR	BER	BlckErr	Temp	State	Recorded	gain1	gain2
2026-01-25 11:36:38.87	21.00	0.07	-50.7	-62.4	3.5	8.45e-01	0	39	0	0	60	47496
2026-01-25 11:36:41.90	21.29	0.19	-51.8	-67.0	3.6	1.51e+00	0	40	104	0	60	81307
2026-01-25 11:36:44.93	21.59	0.31	-51.6	-66.8	3.6	1.51e+00	0	40	104	0	60	78955
2026-01-25 11:36:47.96	21.88	0.42	-51.5	-66.7	3.6	1.51e+00	0	40	104	0	60	78007
2026-01-25 11:36:50.70	22.16	0.53	-51.4	-66.6	3.6	1.51e+00	0	40	104	0	60	77045
2026-01-25 11:36:54.02	22.49	0.66	-51.1	-66.4	3.6	1.51e+00	0	40	104	0	60	75512
2026-01-25 11:36:56.76	22.76	0.76	-51.0	-66.1	3.6	1.51e+00	0	40	104	0	60	73327
2026-01-25 11:37:00.08	23.10	0.89	-50.7	-65.9	3.6	1.51e+00	0	40	104	0	60	71133
2026-01-25 11:37:02.82	23.38	1.00	-50.0	-65.2	3.6	1.51e+00	0	40	104	0	60	65785
2026-01-25 11:37:06.13	23.72	1.13	-49.3	-64.5	3.5	1.51e+00	0	40	104	0	60	60725
2026-01-25 11:37:08.87	24.01	1.23	-49.3	-64.5	3.6	1.51e+00	0	40	104	0	60	60670
2026-01-25 11:37:12.19	24.35	1.36	-49.3	-64.5	3.6	1.51e+00	0	41	104	0	60	60999
2026-01-25 11:37:14.93	24.64	1.47	-49.3	-64.5	3.6	1.51e+00	0	40	104	0	60	60496
2026-01-25 11:37:18.25	24.99	1.59	-49.3	-64.5	3.6	1.51e+00	0	41	104	0	60	60497
2026-01-25 11:37:20.99	25.29	1.70	-49.3	-64.5	3.6	1.51e+00	0	41	104	0	60	60421
2026-01-25 11:37:24.31	25.65	1.82	-49.3	-64.5	3.6	1.51e+00	0	41	104	0	60	60843
2026-01-25 11:37:27.05	25.94	1.93	-49.3	-64.5	3.6	1.51e+00	0	41	104	0	60	60346
2026-01-25 11:37:30.37	26.31	2.05	-49.3	-64.5	3.6	1.51e+00	0	41	104	0	60	60548
2026-01-25 11:37:33.11	26.61	2.16	-49.3	-64.5	3.6	1.51e+00	0	41	104	0	60	60514
2026-01-25 11:37:36.43	26.98	2.28	-49.3	-64.4	3.6	1.51e+00	0	41	104	0	60	59698
2026-01-25 11:37:39.17	27.28	2.39	-49.3	-64.3	3.6	1.51e+00	0	41	104	0	60	59199
2026-01-25 11:37:42.49	27.66	2.51	-49.3	-64.5	3.6	1.51e+00	0	41	104	0	60	60475
2026-01-25 11:37:45.23	27.97	2.61	-49.2	-63.4	3.6	1.51e+00	0	41	104	0	60	53604
2026-01-25 11:37:48.55	28.35	2.74	-48.9	-58.4	5.7	1.11e+00	0	41	104	0	60	30147
2026-01-25 11:37:51.29	28.66	2.84	-45.3	-48.0	15.3	0.00e+00	0	41	0	4194304	60	9037
2026-01-25 11:37:54.61	29.05	2.96	-43.6	-45.4	17.5	0.00e+00	0	41	0	9437184	58	7582
2026-01-25 11:37:57.35	29.37	3.06	-46.2	-49.5	12.9	0.00e+00	0	41	0	14680064	60	10776
2026-01-25 11:38:00.67	29.76	3.19	-47.8	-53.0	8.2	0.00e+00	0	41	0	16777216	60	16165
2026-01-25 11:38:03.41	30.08	3.29	-45.7	-48.3	16.0	0.00e+00	0	41	0	19922944	60	9380
2026-01-25 11:38:06.72	30.48	3.41	-45.6	-48.1	15.8	0.00e+00	0	41	0	26214400	60	9186
2026-01-25 11:38:09.46	30.80	3.51	-47.2	-50.9	12.9	0.00e+00	0	41	0	31457280	60	12727
2026-01-25 11:38:12.78	31.21	3.63	-46.4	-49.5	14.4	0.00e+00	0	41	0	37748736	60	10740
2026-01-25 11:38:15.52	31.54	3.73	-46.8	-50.0	14.0	4.45e-04	0	41	0	42991616	60	11389
2026-01-25 11:38:18.84	31.95	3.85	-46.1	-48.8	15.4	1.50e-06	0	41	0	49283072	60	9920
2026-01-25 11:38:21.58	32.29	3.94	-43.7	-45.4	18.4	0.00e+00	0	41	0	54525952	60	6696
2026-01-25 11:38:24.89	32.70	4.06	-45.9	-48.4	16.3	0.00e+00	0	41	0	60817408	60	9513
2026-01-25 11:38:27.63	33.04	4.16	-46.5	-49.3	14.9	1.50e-06	0	41	0	65011712	60	10567
2026-01-25 11:38:30.95	33.46	4.28	-46.3	-48.9	15.2	0.00e+00	0	41	0	71303168	60	10123
2026-01-25 11:38:33.68	33.81	4.37	-47.1	-50.4	13.6	1.50e-06	0	41	0	76546048	60	11943
2026-01-25 11:38:37.00	34.23	4.49	-46.1	-48.7	15.4	0.00e+00	0	41	0	82837504	60	9823
2026-01-25 11:38:39.73	34.59	4.58	-46.7	-49.6	15.1	0.00e+00	0	41	0	88080384	60	10926
2026-01-25 11:38:43.05	35.02	4.69	-46.2	-48.8	15.5	7.00e-07	0	41	0	94371840	60	9950
2026-01-25 11:38:45.79	35.38	4.79	-44.1	-45.8	17.7	0.00e+00	0	41	0	99614720	60	7035
2026-01-25 11:38:49.11	35.81	4.90	-44.6	-46.4	17.9	0.00e+00	0	41	0	105906176	60	7572
2026-01-25 11:38:51.84	36.17	4.99	-45.7	-48.0	16.2	0.00e+00	0	41	0	111149056	60	9101
2026-01-25 11:38:55.16	36.62	5.10	-43.7	-45.3	19.2	0.00e+00	0	41	0	117440512	60	6656
2026-01-25 11:38:57.90	36.99	5.19	-44.2	-45.9	18.3	0.00e+00	0	41	0	122683392	60	7142
2026-01-25 11:39:01.21	37.43	5.30	-44.6	-46.5	17.9	0.00e+00	0	41	0	128974848	60	7624
2026-01-25 11:39:03.95	37.81	5.39	-44.4	-46.2	18.1	0.00e+00	0	41	0	133169152	60	7416
2026-01-25 11:39:07.27	38.26	5.50	-44.0	-45.8	18.5	0.00e+00	0	41	0	139460608	60	7018
2026-01-25 11:39:10.01	38.64	5.59	-44.3	-46.1	18.2	0.00e+00	0	41	0	144703488	60	7291
2026-01-25 11:39:13.32	39.10	5.69	-43.0	-44.5	19.7	0.00e+00	0	41	0	150994944	58	6791
2026-01-25 11:39:16.06	39.48	5.78	-43.6	-45.2	19.1	0.00e+00	0	41	0	156237824	60	6561
2026-01-25 11:39:19.38	39.95	5.88	-43.5	-45.1	19.3	0.00e+00	0	41	0	162529280	60	6465
2026-01-25 11:39:22.12	40.33	5.96	-43.3	-44.8	19.5	0.00e+00	0	41	0	167772160	60	6276
2026-01-25 11:39:25.43	40.80	6.06	-43.4	-45.0	19.2	0.00e+00	0	41	0	174063616	60	6398
2026-01-25 11:39:28.17	41.20	6.15	-43.7	-45.3	19.2	0.00e+00	0	41	0	179306496	60	6620
2026-01-25 11:39:31.48	41.67	6.24	-43.7	-45.3	19.0	0.00e+00	0	41	0	185597952	60	6667
2026-01-25 11:39:34.22	42.07	6.32	-43.5	-45.0	19.4	0.00e+00	0	41	0	190840832	60	6425
2026-01-25 11:39:37.54	42.55	6.42	-43.6	-45.2	19.3	0.00e+00	0	41	0	196083712	60	6554
2026-01-25 11:39:40.28	42.95	6.50	-43.4	-44.9	19.5	0.00e+00	0	41	0	201326592	60	6383
2026-01-25 11:39:43.59	43.44	6.59	-43.4	-44.9	19.4	0.00e+00	0	41	0	207618048	60	6325
2026-01-25 11:39:46.33	43.85	6.67	-44.4	-46.2	18.2	0.00e+00	0	41	0	212860928	60	7360
2026-01-25 11:39:49.65	44.34	6.76	-44.3	-46.0	18.5	0.00e+00	0	41	0	219152384	60	7229
2026-01-25 11:39:52.39	44.75	6.83	-44.4	-46.1	18.3	0.00e+00	0	41	0	224395264	60	7330
2026-01-25 11:39:55.70	45.25	6.92	-44.0	-45.6	18.8	0.00e+00	0	41	0	230686720	60	6920
2026-01-25 11:39:58.44	45.66	7.00	-44.1	-45.8	18.6	0.00e+00	0	41	0	235929600	60	7061
2026-01-25 11:40:01.76	46.17	7.08	-43.8	-45.3	19.0	0.00e+00	0	41	0	242221056	60	6692
2026-01-25 11:40:04.50	46.59	7.15	-43.5	-45.0	19.4	0.00e+00	0	41	0	247463936	60	6448
2026-01-25 11:40:07.82	47.10	7.23	-43.6	-45.1	19.3	0.00e+00	0	41	0	253755392	60	6526
2026-01-25 11:40:10.56	47.52	7.30	-43.5	-45.1	19.4	0.00e+00	0	41	0	258998272	60	6468
2026-01-25 11:40:13.87	48.04	7.38	-44.3	-46.0	18.6	0.00e+00	0	42	0	264241152	60	7188
2026-01-25 11:40:16.61	48.46	7.44	-44.6	-46.5	18.0	0.00e+00	0	42	0	269484032	60	7607
2026-01-25 11:40:19.93	48.99	7.52	-43.9	-45.5	19.1	0.00e+00	0	41	0	275775488	60	6794
2026-01-25 11:40:22.67	49.42	7.58	-43.3	-44.7	19.6	0.00e+00	0	41	0	281018368	60	6200
2026-01-25 11:40:25.99	49.94	7.66	-43.9	-45.5	19.0	0.00e+00	0	41	0	287309824	60	6812
2026-01-25 11:40:28.73	50.38	7.71	-43.9	-45.5	19.1	0.00e+00	0	41	0	292552704	60	6789
2026-01-25 11:40:32.05	50.91	7.78	-43.2	-44.6	19.8	0.00e+00	0	41	0	298844160	60	6155
2026-01-25 11:40:34.79	51.35	7.84	-43.1	-44.4	20.0	0.00e+00	0	41	0	304087040	60	6033
2026-01-25 11:40:38.11	51.88	7.91	-44.0	-45.6	18.9	0.00e+00	0	41	0	310378496	60	6870
2026-01-25 11:40:40.84	52.32	7.96	-44.2	-45.9	18.7	0.00e+00	0	41	0	315621376	60	7089
2026-01-25 11:40:44.16	52.86	8.02	-43.5	-45.0	19.5	0.00e+00	0	42	0	321912832	60	6394
2026-01-25 11:40:46.90	53.31	8.07	-43.1	-44.4	20.0	0.00e+00	0	41	0	327155712	60	6025
2026-01-25 11:40:50.22	53.85	8.13	-43.4	-44.9	19.4	0.00e+00	0	41	0	332398592	60	6326
2026-01-25 11:40:52.95	54.30	8.18	-42.9	-44.3	20.2	0.00e+00	0	41	0	337641472	60	5935
2026-01-25 11:40:56.27	54.84	8.23	-42.5	-43.8	20.4	0.00e+00	0	41	0	343932928	58	6287
2026-01-25 11:40:59.02	55.30	8.28	-42.7	-44.0	20.3	0.00e+00	0	41	0	349175808	58	6451
2026-01-25 11:41:02.33	55.85	8.33	-42.8	-44.2	20.1	0.00e+00	0	41	0	355467264	58	6555
2026-01-25 11:41:05.06	56.30	8.37	-42.9	-44.2	20.3	0.00e+00	0	41	0	360710144	58	6575
2026-01-25 11:41:08.38	56.85	8.42	-43.2	-44.7	19.8	0.00e+00	0	41	0	367001600	58	6966
2026-01-25 11:41:11.11	57.31	8.46	-44.0	-45.7	18.8	0.00e+00	0	41	0	372244480	60	6947
2026-01-25 11:41:14.43	57.87	8.50	-44.1	-45.8	18.8	0.00e+00	0	42	0	378535936	60	7027
2026-01-25 11:41:17.17	58.33	8.53	-43.9	-45.4	19.0	0.00e+00	0	42	0	383778816	60	6746
2026-01-25 11:41:20.49	58.88	8.57	-44.2	-45.8	18.8	0.00e+00	0	41	0	389021696	60	7040
2026-01-25 11:41:23.23	59.35	8.60	-43.7	-45.2	19.1	0.00e+00	0	41	0	394264576	60	6613
2026-01-25 11:41:26.54	59.91	8.64	-44.1	-45.7	18.8	0.00e+00	0	41	0	400556032	60	6993
2026-01-25 11:41:29.28	60.37	8.67	-43.7	-45.2	19.3	0.00e+00	0	42	0	405798912	60	6611
2026-01-25 11:41:32.60	60.94	8.70	-44.6	-46.5	18.2	0.00e+00	0	42	0	412090368	60	7601
2026-01-25 11:41:35.34	61.40	8.72	-44.3	-46.0	18.5	0.00e+00	0	42	0	417333248	60	7222
2026-01-25 11:41:38.66	61.97	8.75	-44.5	-46.3	18.3	0.00e+00	0	41	0	423624704	60	7451
2026-01-25 11:41:41.40	62.44	8.77	-44.1	-45.7	18.9	0.00e+00	0	42	0	428867584	60	6966
2026-01-25 11:41:44.72	63.00	8.79	-44.0	-45.6	18.8	0.00e+00	0	42	0	435159040	60	6898
2026-01-25 11:41:47.46	63.47	8.81	-44.1	-45.7	18.9	0.00e+00	0	41	0	440401920	60	7000
2026-01-25 11:41:50.77	64.04	8.82	-44.1	-45.8	18.7	0.00e+00	0	41	0	446693376	60	7020
2026-01-25 11:41:53.52	64.51	8.84	-44.1	-45.7	18.8	0.00e+00	0	42	0	451936256	60	6972
2026-01-25 11:41:56.83	65.08	8.85	-44.1	-45.8	18.9	0.00e+00	0	42	0	457179136	60	7027
2026-01-25 11:41:59.57	65.55	8.86	-43.3	-44.8	19.9	0.00e+00	0	41	0	462422016	60	6250
2026-01-25 11:42:02.89	66.13	8.87	-42.9	-44.3	20.1	0.00e+00	0	42	0	468713472	60	5914
2026-01-25 11:42:05.63	66.60	8.87	-43.0	-44.3	20.1	0.00e+00	0	41	0	473956352	60	5953
2026-01-25 11:42:08.94	67.17	8.88	-42.3	-43.5	20.8	0.00e+00	0	42	0	480247808	58	6085
2026-01-25 11:42:11.68	67.64	8.88	-42.1	-43.3	21.0	0.00e+00	0	42	0	485490688	58	5937
2026-01-25 11:42:15.00	68.21	8.88	-42.5	-43.8	20.5	0.00e+00	0	42	0	491782144	58	6282
2026-01-25 11:42:17.74	68.68	8.88	-42.8	-44.2	20.1	0.00e+00	0	41	0	497025024	58	6550
2026-01-25 11:42:21.05	69.25	8.87	-42.3	-43.6	20.6	0.00e+00	0	41	0	503316480	58	6106
2026-01-25 11:42:23.79	69.72	8.87	-42.1	-43.3	20.8	0.00e+00	0	42	0	508559360	58	5911
2026-01-25 11:42:27.11	70.30	8.86	-42.7	-44.0	20.4	0.00e+00	0	41	0	514850816	58	6448
2026-01-25 11:42:29.85	70.77	8.85	-42.4	-43.7	20.7	0.00e+00	0	42	0	520093696	58	6184
2026-01-25 11:42:33.17	71.34	8.84	-42.0	-43.2	20.8	0.00e+00	0	41	0	525336576	58	5864
2026-01-25 11:42:35.91	71.81	8.82	-41.9	-43.2	21.1	0.00e+00	0	42	0	530579456	58	5832
2026-01-25 11:42:39.22	72.38	8.81	-42.0	-43.3	20.7	0.00e+00	0	41	0	536870912	58	5901
2026-01-25 11:42:41.96	72.85	8.79	-42.0	-43.2	20.9	0.00e+00	0	42	0	542113792	58	5862
2026-01-25 11:42:45.28	73.42	8.77	-41.7	-42.9	21.2	0.00e+00	0	42	0	548405248	56	6331
2026-01-25 11:42:48.02	73.88	8.75	-41.2	-42.2	21.8	0.00e+00	0	41	0	553648128	56	5879
2026-01-25 11:42:51.33	74.45	8.72	-41.2	-42.3	21.7	0.00e+00	0	42	0	559939584	56	5924
2026-01-25 11:42:54.07	74.92	8.70	-41.5	-42.7	21.4	0.00e+00	0	41	0	565182464	56	6181
2026-01-25 11:42:57.39	75.48	8.67	-41.6	-42.8	21.4	0.00e+00	0	42	0	571473920	56	6261
2026-01-25 11:43:00.13	75.95	8.64	-41.9	-43.1	21.0	0.00e+00	0	42	0	576716800	56	6485
2026-01-25 11:43:03.44	76.51	8.60	-41.9	-43.1	21.1	0.00e+00	0	41	0	583008256	56	6499
2026-01-25 11:43:06.18	76.97	8.57	-42.3	-43.6	20.6	0.00e+00	0	41	0	588251136	56	6881
2026-01-25 11:43:09.50	77.53	8.53	-42.0	-43.3	21.2	0.00e+00	0	41	0	593494016	56	6643
2026-01-25 11:43:12.24	77.99	8.50	-42.0	-43.2	21.0	0.00e+00	0	42	0	598736896	56	6574
2026-01-25 11:43:15.56	78.55	8.45	-42.3	-43.7	20.6	0.00e+00	0	42	0	605028352	56	6956
2026-01-25 11:43:18.30	79.01	8.42	-42.4	-43.7	20.6	0.00e+00	0	42	0	610271232	56	6984
2026-01-25 11:43:21.61	79.56	8.37	-42.6	-44.0	20.3	0.00e+00	0	42	0	616562688	58	6395
2026-01-25 11:43:24.35	80.02	8.33	-42.5	-43.8	20.4	0.00e+00	0	42	0	621805568	58	6296
2026-01-25 11:43:27.66	80.57	8.28	-41.7	-42.9	21.4	0.00e+00	0	42	0	628097024	56	6326
2026-01-25 11:43:30.40	81.02	8.23	-41.3	-42.3	21.8	0.00e+00	0	41	0	633339904	56	5956
2026-01-25 11:43:33.71	81.56	8.18	-40.2	-41.2	22.5	0.00e+00	0	42	0	639631360	54	5855
2026-01-25 11:43:36.45	82.01	8.13	-40.5	-41.6	22.3	0.00e+00	0	42	0	644874240	54	6130
2026-01-25 11:43:39.77	82.56	8.07	-41.2	-42.4	21.5	0.00e+00	0	41	0	651165696	54	6701
2026-01-25 11:43:42.51	83.01	8.02	-41.2	-42.3	21.7	0.00e+00	0	41	0	656408576	54	6657
2026-01-25 11:43:45.83	83.55	7.96	-40.9	-42.0	21.9	0.00e+00	0	41	0	661651456	54	6426
2026-01-25 11:43:48.57	83.99	7.90	-41.4	-42.5	21.6	0.00e+00	0	41	0	666894336	54	6818
2026-01-25 11:43:51.88	84.52	7.84	-40.8	-41.8	21.9	0.00e+00	0	41	0	673185792	54	6314
2026-01-25 11:43:54.62	84.96	7.78	-41.7	-42.8	21.0	0.00e+00	0	41	0	678428672	54	7086
2026-01-25 11:43:57.93	85.49	7.71	-41.3	-42.4	21.5	0.00e+00	0	41	0	684720128	56	6022
2026-01-25 11:44:00.67	85.93	7.65	-40.4	-41.4	22.2	0.00e+00	0	41	0	689963008	54	6009
2026-01-25 11:44:03.99	86.46	7.58	-41.0	-42.0	21.9	0.00e+00	0	41	0	696254464	54	6440
2026-01-25 11:44:06.73	86.89	7.51	-40.9	-42.0	21.8	0.00e+00	0	41	0	701497344	54	6447
2026-01-25 11:44:10.04	87.41	7.44	-41.3	-42.5	21.5	0.00e+00	0	41	0	707788800	54	6786
2026-01-25 11:44:12.78	87.84	7.37	-41.0	-42.1	21.8	0.00e+00	0	41	0	713031680	54	6469
2026-01-25 11:44:16.10	88.36	7.29	-41.5	-42.6	21.3	0.00e+00	0	41	0	719323136	54	6912
2026-01-25 11:44:18.84	88.78	7.23	-41.7	-42.9	21.0	0.00e+00	0	41	0	723517440	54	7132
2026-01-25 11:44:22.15	89.29	7.14	-42.2	-43.5	20.6	0.00e+00	0	41	0	729808896	56	6808
2026-01-25 11:44:24.89	89.71	7.07	-43.3	-44.7	19.7	0.00e+00	0	41	0	735051776	58	6995
2026-01-25 11:44:28.21	90.22	6.99	-43.2	-44.7	19.4	0.00e+00	0	41	0	741343232	58	6966
2026-01-25 11:44:30.95	90.63	6.91	-42.9	-44.3	19.8	0.00e+00	0	41	0	746586112	58	6669
2026-01-25 11:44:34.26	91.13	6.82	-43.2	-44.7	19.3	0.00e+00	0	41	0	752877568	60	6233
2026-01-25 11:44:37.00	91.55	6.75	-43.9	-45.5	18.9	0.00e+00	0	41	0	758120448	60	6836
2026-01-25 11:44:40.32	92.04	6.66	-43.0	-44.5	19.7	0.00e+00	0	41	0	764411904	60	6091
2026-01-25 11:44:43.06	92.45	6.58	-42.7	-44.1	20.0	0.00e+00	0	41	0	769654784	58	6475
2026-01-25 11:44:46.38	92.94	6.49	-43.2	-44.7	19.4	0.00e+00	0	41	0	775946240	58	6981
2026-01-25 11:44:49.12	93.34	6.41	-43.7	-45.4	18.9	0.00e+00	0	41	0	781189120	60	6716
2026-01-25 11:44:52.43	93.83	6.31	-43.6	-45.2	18.8	0.00e+00	0	41	0	786432000	60	6582
2026-01-25 11:44:55.17	94.22	6.23	-44.3	-46.2	18.0	0.00e+00	0	41	0	791674880	60	7360
2026-01-25 11:44:58.49	94.70	6.13	-44.5	-46.7	17.4	0.00e+00	0	41	0	797966336	60	7807
2026-01-25 11:45:01.22	95.09	6.05	-44.9	-47.2	17.0	0.00e+00	0	41	0	803209216	60	8268
2026-01-25 11:45:04.54	95.57	5.95	-44.5	-46.6	17.6	0.00e+00	0	41	0	809500672	60	7694
2026-01-25 11:45:07.28	95.96	5.86	-44.0	-46.0	18.2	0.00e+00	0	41	0	814743552	60	7213
2026-01-25 11:45:10.60	96.42	5.76	-44.0	-45.9	18.3	0.00e+00	0	41	0	821035008	60	7120
2026-01-25 11:45:13.34	96.81	5.67	-44.0	-45.8	18.2	0.00e+00	0	41	0	826277888	60	7041
2026-01-25 11:45:16.65	97.27	5.57	-44.5	-46.5	17.3	0.00e+00	0	41	0	832569344	60	7620
2026-01-25 11:45:19.39	97.65	5.48	-44.3	-46.2	18.0	0.00e+00	0	41	0	837812224	60	7374
2026-01-25 11:45:22.70	98.10	5.37	-44.5	-46.6	17.5	0.00e+00	0	41	0	844103680	60	7700
2026-01-25 11:45:25.44	98.48	5.28	-43.7	-45.4	18.7	0.00e+00	0	41	0	848297984	60	6743
2026-01-25 11:45:28.75	98.92	5.17	-42.4	-43.8	20.2	0.00e+00	0	41	0	854589440	58	6287
2026-01-25 11:45:31.50	99.29	5.08	-44.8	-47.0	17.4	0.00e+00	0	41	0	859832320	60	8096
2026-01-25 11:45:34.81	99.74	4.97	-44.5	-46.7	17.3	0.00e+00	0	41	0	866123776	60	7787
2026-01-25 11:45:37.55	100.10	4.87	-44.8	-47.1	16.2	0.00e+00	0	41	0	871366656	60	8151
2026-01-25 11:45:40.86	100.54	4.76	-43.9	-45.7	18.2	0.00e+00	0	41	0	877658112	60	6979
2026-01-25 11:45:43.60	100.90	4.67	-42.8	-44.5	19.1	0.00e+00	0	41	0	882900992	58	6770
2026-01-25 11:45:46.92	101.33	4.55	-42.7	-44.4	19.4	0.00e+00	0	41	0	889192448	58	6697
2026-01-25 11:45:49.66	101.68	4.46	-42.3	-44.2	19.4	0.00e+00	0	41	0	894435328	58	6600
2026-01-25 11:45:52.98	102.11	4.34	-43.1	-45.0	18.9	0.00e+00	0	41	0	900726784	58	7199
2026-01-25 11:45:55.71	102.46	4.24	-43.4	-45.3	18.4	0.00e+00	0	41	0	905969664	60	6620
2026-01-25 11:45:59.03	102.88	4.13	-44.4	-47.1	16.8	0.00e+00	0	41	0	912261120	60	8171
2026-01-25 11:46:01.77	103.22	4.03	-44.9	-47.2	16.4	0.00e+00	0	41	0	916455424	60	8307
2026-01-25 11:46:05.07	103.64	3.91	-43.1	-44.8	18.4	0.00e+00	0	41	0	922746880	60	6270
2026-01-25 11:46:07.81	103.98	3.81	-43.8	-46.1	17.6	0.00e+00	0	41	0	927989760	60	7296
2026-01-25 11:46:11.13	104.38	3.69	-42.9	-44.8	18.5	0.00e+00	0	41	0	934281216	60	6249
2026-01-25 11:46:13.87	104.72	3.59	-42.5	-44.0	19.4	0.00e+00	0	41	0	939524096	58	6453
2026-01-25 11:46:17.18	105.12	3.47	-41.5	-43.4	19.8	0.00e+00	0	41	0	945815552	56	6709
2026-01-25 11:46:19.92	105.45	3.37	-42.8	-44.5	18.8	0.00e+00	0	41	0	951058432	58	6795
2026-01-25 11:46:23.24	105.85	3.25	-43.2	-45.0	17.9	0.00e+00	0	41	0	957349888	58	7221
2026-01-25 11:46:25.98	106.17	3.15	-43.4	-45.6	17.6	0.00e+00	0	41	0	962592768	60	6883
2026-01-25 11:46:29.29	106.56	3.02	-45.3	-48.2	14.4	7.00e-07	0	41	0	968884224	60	9322
2026-01-25 11:46:32.03	106.88	2.92	-50.6	-65.9	3.6	1.51e+00	0	41	104	968884224	60	71253
2026-01-25 11:46:35.35	107.27	2.80	-51.1	-66.3	3.6	1.51e+00	0	41	104	968884224	60	74494
2026-01-25 11:46:38.09	107.58	2.69	-51.0	-66.4	3.6	1.51e+00	0	41	104	968884224	60	75212
2026-01-25 11:46:41.40	107.96	2.57	-51.2	-66.4	3.6	1.51e+00	0	41	104	968884224	60	75293
2026-01-25 11:46:44.15	108.28	2.46	-51.3	-66.5	3.6	1.51e+00	0	41	104	968884224	60	76652
2026-01-25 11:46:47.46	108.65	2.34	-51.3	-66.5	3.6	1.51e+00	0	41	104	968884224	60	76374
2026-01-25 11:46:50.20	108.96	2.23	-51.4	-66.6	3.6	1.51e+00	0	41	104	968884224	60	76945
2026-01-25 11:46:53.52	109.32	2.11	-51.4	-66.6	3.6	1.51e+00	0	41	104	968884224	60	77062
2026-01-25 11:46:56.26	109.63	2.00	-51.4	-66.6	3.6	1.51e+00	0	41	104	968884224	60	77413
2026-01-25 11:46:59.58	109.99	1.87	-51.4	-66.6	3.6	1.51e+00	0	41	104	968884224	60	77675
2026-01-25 11:47:02.32	110.29	1.77	-51.5	-66.8	3.5	1.51e+00	0	41	104	968884224	60	78961
2026-01-25 11:47:05.64	110.65	1.64	-51.5	-66.8	3.6	1.51e+00	0	41	104	968884224	60	78917
2026-01-25 11:47:08.38	110.94	1.54	-51.5	-66.8	3.6	1.51e+00	0	41	104	968884224	60	78632
2026-01-25 11:47:11.70	111.29	1.41	-51.7	-66.9	3.6	1.51e+00	0	41	104	968884224	60	80337
2026-01-25 11:47:14.44	111.58	1.30	-51.7	-66.9	3.6	1.51e+00	0	41	104	968884224	60	80246
2026-01-25 11:47:17.76	111.93	1.17	-51.5	-66.8	3.6	1.51e+00	0	41	104	968884224	60	78671
2026-01-25 11:47:20.50	112.21	1.06	-51.6	-66.8	3.6	1.51e+00	0	41	104	968884224	60	79412
2026-01-25 11:47:23.82	112.55	0.94	-51.7	-67.0	3.6	1.51e+00	0	41	104	968884224	60	80561
2026-01-25 11:47:26.56	112.83	0.83	-51.7	-66.9	3.6	1.51e+00	0	41	104	968884224	60	80237
2026-01-25 11:47:29.88	113.17	0.70	-51.5	-66.8	3.6	1.51e+00	0	41	104	968884224	60	78728
2026-01-25 11:47:32.62	113.45	0.59	-52.0	-67.3	3.6	1.51e+00	0	41	104	968884224	60	83499
2026-01-25 11:47:35.94	113.78	0.46	-51.8	-67.0	3.6	1.51e+00	0	41	104	968884224	60	81154
2026-01-25 11:47:38.68	114.05	0.35	-51.8	-67.1	3.6	1.51e+00	0	41	104	968884224	60	81475
2026-01-25 11:47:42.00	114.38	0.22	-51.8	-67.1	3.6	1.51e+00	0	41	104	968884224	60	81673
2026-01-25 11:47:44.74	114.64	0.11	-52.3	-67.5	3.6	1.51e+00	0	41	104	968884224	60	86115
2026-01-25 11:47:48.05	114.97	-0.02	-51.7	-66.9	3.6	1.51e+00	0	41	104	968884224	60	79920

#Closed at: 2026-01-25 11:47:49
#Recorded file [968 MB]: D:/lorett/data/35029_260125_233638.dat