passes_logs/2026/01/25/R4.6S_Anadyr/R4.6S_Anadyr__20260125_034953_FENGYUN_3D_rec.log

#Pass ID: 20260125_034953_FENGYUN 3D
#Satellite: FENGYUN 3D
#Configuration: FENGYUN 3D
#almurnet v.1.7.20251203
#Start time: 2026-01-25 03:49:53

#Version: 2.2.20231116
#Station: R4.6S_Anadyr
#Location: 177.4865 lon 64.73178 lat
#TLE: 1 43010U 17072A   26024.51794477  .00000040  00000+0  40682-4 0  9990
#TLE: 2 43010  98.9961 356.4820 0002494  91.2631 268.8830 14.19699550424601

#Time	Az	El	Level	Level2	SNR	BER	BlckErr	Temp	State	Recorded	gain1	gain2
2026-01-25 03:49:53.81	195.91	0.04	-51.5	-66.5	3.5	1.51e+00	0	39	0	0	60	76005
2026-01-25 03:49:57.84	196.12	0.26	-51.2	-63.4	3.6	8.44e-01	0	40	104	0	60	53361
2026-01-25 03:50:01.88	196.32	0.49	-51.1	-63.3	3.6	8.45e-01	0	40	104	0	60	52908
2026-01-25 03:50:05.92	196.53	0.72	-51.1	-63.3	3.6	8.44e-01	0	40	104	0	60	52580
2026-01-25 03:50:09.96	196.75	0.95	-50.7	-62.9	3.6	8.45e-01	0	40	104	0	60	50360
2026-01-25 03:50:14.00	196.96	1.18	-50.5	-62.6	3.6	8.46e-01	0	40	104	0	60	48784
2026-01-25 03:50:18.03	197.18	1.41	-49.7	-61.7	3.6	8.45e-01	0	40	104	0	60	44156
2026-01-25 03:50:22.07	197.40	1.64	-49.6	-61.8	3.6	8.44e-01	0	41	104	0	60	44304
2026-01-25 03:50:26.11	197.63	1.88	-49.6	-61.5	3.6	8.46e-01	0	40	104	0	60	42999
2026-01-25 03:50:30.15	197.86	2.11	-49.6	-61.6	3.6	8.45e-01	0	41	104	0	60	43415
2026-01-25 03:50:34.19	198.09	2.35	-49.6	-61.8	3.6	8.44e-01	0	41	104	0	60	44264
2026-01-25 03:50:38.23	198.33	2.59	-49.4	-59.3	3.6	8.44e-01	0	41	104	0	60	33354
2026-01-25 03:50:42.27	198.57	2.83	-49.4	-59.4	3.8	8.44e-01	0	41	104	0	60	33584
2026-01-25 03:50:46.31	198.81	3.08	-42.9	-44.3	16.8	1.48e-05	0	41	0	16777216	60	5906
2026-01-25 03:50:50.35	199.06	3.32	-41.4	-42.5	18.3	0.00e+00	0	41	0	39845888	56	6076
2026-01-25 03:50:54.39	199.31	3.57	-47.4	-51.3	12.5	8.43e-01	0	41	104	56623104	60	13263
2026-01-25 03:50:58.43	199.57	3.82	-40.9	-41.9	19.2	0.00e+00	0	41	0	77594624	56	5692
2026-01-25 03:51:02.47	199.83	4.07	-40.0	-41.0	19.8	0.00e+00	0	41	0	100663296	52	6451
2026-01-25 03:51:06.50	200.09	4.32	-38.6	-39.4	21.5	0.00e+00	0	41	0	122683392	50	6021
2026-01-25 03:51:10.53	200.36	4.57	-39.2	-40.1	21.0	0.00e+00	0	41	0	145752064	50	6509
2026-01-25 03:51:14.58	200.63	4.83	-38.4	-39.3	21.9	0.00e+00	0	41	0	168820736	50	5899
2026-01-25 03:51:18.62	200.91	5.09	-38.2	-39.1	22.1	0.00e+00	0	41	0	190840832	50	5767
2026-01-25 03:51:22.65	201.19	5.35	-38.2	-39.0	22.4	0.00e+00	0	41	0	213909504	50	5709
2026-01-25 03:51:26.68	201.47	5.61	-38.2	-39.0	22.3	0.00e+00	0	41	0	236978176	48	6405
2026-01-25 03:51:30.72	201.77	5.87	-37.3	-38.0	23.1	0.00e+00	0	41	0	260046848	48	5723
2026-01-25 03:51:34.76	202.06	6.14	-37.5	-38.2	23.1	0.00e+00	0	41	0	282066944	48	5890
2026-01-25 03:51:38.80	202.37	6.41	-38.0	-38.7	22.6	0.00e+00	0	41	0	305135616	48	6227
2026-01-25 03:51:42.84	202.67	6.68	-37.4	-38.1	23.1	0.00e+00	0	41	0	327155712	48	5826
2026-01-25 03:51:46.87	202.98	6.95	-37.5	-38.2	23.2	0.00e+00	0	41	0	350224384	48	5871
2026-01-25 03:51:50.91	203.30	7.23	-37.6	-38.3	23.1	0.00e+00	0	41	0	373293056	48	5935
2026-01-25 03:51:54.95	203.63	7.50	-37.4	-38.1	23.2	0.00e+00	0	41	0	395313152	48	5819
2026-01-25 03:51:58.99	203.96	7.78	-37.4	-38.2	23.2	0.00e+00	0	41	0	418381824	48	5868
2026-01-25 03:52:03.03	204.29	8.06	-37.2	-38.0	23.3	0.00e+00	0	41	0	441450496	48	5724
2026-01-25 03:52:07.07	204.64	8.35	-37.3	-38.1	23.3	0.00e+00	0	41	0	463470592	48	5766
2026-01-25 03:52:11.10	204.99	8.64	-36.6	-37.3	23.9	0.00e+00	0	41	0	486539264	46	5915
2026-01-25 03:52:15.14	205.34	8.92	-36.6	-37.4	23.8	0.00e+00	0	41	0	509607936	46	5978
2026-01-25 03:52:19.18	205.70	9.22	-36.9	-37.6	23.7	0.00e+00	0	41	0	531628032	46	6159
2026-01-25 03:52:23.21	206.07	9.51	-36.8	-37.5	23.8	0.00e+00	0	41	0	554696704	46	6068
2026-01-25 03:52:27.25	206.45	9.81	-36.4	-37.1	24.2	0.00e+00	0	41	0	577765376	46	5804
2026-01-25 03:52:31.29	206.84	10.10	-36.2	-36.9	24.4	0.00e+00	0	41	0	599785472	46	5646
2026-01-25 03:52:35.33	207.23	10.41	-36.2	-36.9	24.4	0.00e+00	0	41	0	622854144	46	5655
2026-01-25 03:52:39.37	207.63	10.71	-36.2	-36.9	24.3	0.00e+00	0	41	0	645922816	46	5661
2026-01-25 03:52:43.41	208.03	11.02	-36.1	-36.8	24.4	0.00e+00	0	41	0	667942912	46	5612
2026-01-25 03:52:47.44	208.45	11.33	-36.1	-36.9	24.5	0.00e+00	0	41	0	691011584	46	5637
2026-01-25 03:52:51.48	208.88	11.64	-36.1	-36.8	24.5	0.00e+00	0	41	0	714080256	46	5602
2026-01-25 03:52:55.52	209.31	11.95	-35.9	-36.6	24.7	0.00e+00	0	41	0	736100352	46	5462
2026-01-25 03:52:59.55	209.75	12.27	-35.8	-36.5	24.7	0.00e+00	0	41	0	759169024	44	6083
2026-01-25 03:53:03.58	210.20	12.59	-35.8	-36.5	24.8	0.00e+00	0	41	0	782237696	44	6043
2026-01-25 03:53:07.62	210.66	12.91	-35.6	-36.3	25.0	0.00e+00	0	41	0	804257792	44	5928
2026-01-25 03:53:11.66	211.13	13.23	-35.7	-36.3	24.9	0.00e+00	0	41	0	827326464	44	5957
2026-01-25 03:53:15.70	211.62	13.56	-35.6	-36.2	25.0	0.00e+00	0	41	0	850395136	44	5881
2026-01-25 03:53:19.74	212.11	13.89	-35.4	-36.1	25.1	0.00e+00	0	41	0	872415232	44	5796
2026-01-25 03:53:23.76	212.61	14.22	-35.5	-36.2	25.1	0.00e+00	0	41	0	895483904	44	5861
2026-01-25 03:53:27.80	213.12	14.56	-35.3	-36.0	25.2	0.00e+00	0	41	0	917504000	44	5699
2026-01-25 03:53:31.84	213.65	14.90	-34.9	-35.6	25.6	0.00e+00	0	41	0	940572672	44	5447
2026-01-25 03:53:35.88	214.18	15.24	-34.9	-35.5	25.7	0.00e+00	0	41	0	963641344	44	5434
2026-01-25 03:53:39.92	214.73	15.58	-34.9	-35.6	25.7	0.00e+00	0	41	0	986710016	42	6134
2026-01-25 03:53:43.96	215.29	15.92	-34.9	-35.6	25.7	0.00e+00	0	42	0	1008730112	42	6124
2026-01-25 03:53:48.00	215.87	16.27	-35.0	-35.7	25.6	0.00e+00	0	41	0	1031798784	42	6177
2026-01-25 03:53:52.04	216.45	16.62	-35.0	-35.7	25.6	0.00e+00	0	41	0	1054867456	42	6227
2026-01-25 03:53:56.08	217.05	16.97	-34.4	-35.0	26.2	0.00e+00	0	41	0	1076887552	42	5747
2026-01-25 03:54:00.12	217.67	17.33	-34.2	-34.8	26.4	0.00e+00	0	42	0	1099956224	42	5623
2026-01-25 03:54:04.15	218.29	17.68	-34.3	-35.0	26.3	0.00e+00	0	41	0	1123024896	42	5733
2026-01-25 03:54:08.19	218.93	18.04	-34.2	-34.8	26.4	0.00e+00	0	41	0	1145044992	42	5597
2026-01-25 03:54:12.23	219.59	18.40	-34.3	-34.9	26.4	0.00e+00	0	41	0	1168113664	42	5681
2026-01-25 03:54:16.26	220.26	18.76	-34.3	-35.0	26.4	0.00e+00	0	41	0	1190133760	42	5721
2026-01-25 03:54:20.30	220.95	19.12	-34.2	-34.8	26.5	0.00e+00	0	42	0	1213202432	42	5615
2026-01-25 03:54:24.34	221.65	19.49	-34.0	-34.7	26.6	0.00e+00	0	42	0	1236271104	42	5527
2026-01-25 03:54:28.38	222.38	19.85	-33.9	-34.5	26.7	0.00e+00	0	42	0	1259339776	42	5437
2026-01-25 03:54:32.42	223.11	20.22	-33.9	-34.5	26.8	0.00e+00	0	42	0	1281359872	42	5428
2026-01-25 03:54:36.45	223.87	20.58	-33.7	-34.3	26.9	0.00e+00	0	42	0	1304428544	40	5932
2026-01-25 03:54:40.49	224.64	20.95	-33.6	-34.3	27.0	0.00e+00	0	42	0	1326448640	40	5925
2026-01-25 03:54:44.53	225.43	21.31	-33.6	-34.2	27.1	0.00e+00	0	42	0	1349517312	40	5857
2026-01-25 03:54:48.57	226.24	21.68	-33.6	-34.3	27.0	0.00e+00	0	42	0	1372585984	40	5899
2026-01-25 03:54:52.60	227.06	22.04	-33.7	-34.4	26.9	0.00e+00	0	42	0	1394606080	40	5970
2026-01-25 03:54:56.63	227.91	22.41	-33.5	-34.1	27.2	0.00e+00	0	42	0	1417674752	40	5822
2026-01-25 03:55:00.66	228.77	22.77	-33.2	-33.8	27.5	0.00e+00	0	42	0	1440743424	40	5582
2026-01-25 03:55:04.70	229.66	23.13	-33.2	-33.9	27.5	0.00e+00	0	42	0	1462763520	40	5637
2026-01-25 03:55:08.73	230.56	23.49	-33.2	-33.8	27.5	0.00e+00	0	42	0	1485832192	40	5612
2026-01-25 03:55:12.77	231.49	23.85	-33.6	-34.2	27.2	0.00e+00	0	42	0	1508900864	40	5894
2026-01-25 03:55:16.81	232.44	24.20	-32.9	-33.5	27.8	0.00e+00	0	42	0	1530920960	40	5420
2026-01-25 03:55:20.85	233.41	24.55	-33.2	-33.8	27.6	0.00e+00	0	42	0	1553989632	40	5582
2026-01-25 03:55:24.89	234.40	24.90	-33.1	-33.7	27.6	0.00e+00	0	42	0	1577058304	40	5555
2026-01-25 03:55:28.93	235.41	25.24	-32.8	-33.5	27.8	0.00e+00	0	42	0	1599078400	38	6059
2026-01-25 03:55:32.96	236.44	25.58	-32.9	-33.5	27.8	0.00e+00	0	41	0	1622147072	38	6088
2026-01-25 03:55:37.00	237.49	25.91	-32.6	-33.2	27.9	0.00e+00	0	41	0	1645215744	38	5890
2026-01-25 03:55:41.04	238.57	26.24	-32.9	-33.5	27.8	0.00e+00	0	41	0	1667235840	38	6084
2026-01-25 03:55:45.08	239.67	26.56	-32.5	-33.1	28.1	0.00e+00	0	41	0	1690304512	38	5767
2026-01-25 03:55:49.11	240.78	26.87	-32.9	-33.5	27.9	0.00e+00	0	42	0	1713373184	38	6076
2026-01-25 03:55:53.15	241.92	27.17	-32.4	-33.0	28.2	0.00e+00	0	41	0	1735393280	38	5757
2026-01-25 03:55:57.19	243.08	27.46	-32.4	-33.1	28.2	0.00e+00	0	41	0	1758461952	38	5762
2026-01-25 03:56:01.23	244.27	27.75	-32.6	-33.2	28.1	0.00e+00	0	41	0	1781530624	38	5866
2026-01-25 03:56:05.27	245.47	28.02	-32.6	-33.3	28.1	0.00e+00	0	41	0	1803550720	38	5923
2026-01-25 03:56:09.30	246.69	28.28	-32.5	-33.1	28.2	0.00e+00	0	41	0	1826619392	38	5786
2026-01-25 03:56:13.34	247.93	28.54	-32.5	-33.1	28.2	0.00e+00	0	41	0	1849688064	38	5816
2026-01-25 03:56:17.38	249.19	28.77	-32.6	-33.2	28.1	0.00e+00	0	41	0	1871708160	38	5865
2026-01-25 03:56:21.42	250.47	29.00	-32.5	-33.1	28.2	0.00e+00	0	41	0	1894776832	38	5780
2026-01-25 03:56:25.46	251.76	29.21	-32.5	-33.1	28.2	0.00e+00	0	41	0	1917845504	38	5802
2026-01-25 03:56:29.50	253.07	29.41	-32.7	-33.3	28.0	0.00e+00	0	41	0	1939865600	38	5930
2026-01-25 03:56:33.54	254.40	29.59	-32.6	-33.2	28.1	0.00e+00	0	41	0	1962934272	38	5873
2026-01-25 03:56:37.57	255.74	29.76	-32.4	-33.1	28.2	0.00e+00	0	41	0	1986002944	38	5770
2026-01-25 03:56:41.61	257.09	29.91	-32.5	-33.1	28.2	0.00e+00	0	41	0	2008023040	38	5809
2026-01-25 03:56:45.65	258.46	30.05	-32.9	-33.5	27.9	0.00e+00	0	41	0	2031091712	38	6043
2026-01-25 03:56:49.69	259.83	30.17	-32.8	-33.5	28.0	0.00e+00	0	41	0	2054160384	38	6045
2026-01-25 03:56:53.73	261.22	30.27	-33.1	-33.7	27.8	0.00e+00	0	41	0	2076180480	38	6238
2026-01-25 03:56:57.76	262.61	30.35	-32.6	-33.3	28.2	0.00e+00	0	41	0	2099249152	38	5911
2026-01-25 03:57:01.80	264.01	30.41	-32.8	-33.4	28.0	0.00e+00	0	41	0	2122317824	38	6002
2026-01-25 03:57:05.84	265.41	30.46	-32.6	-33.2	28.2	0.00e+00	0	41	0	2144337920	38	5883
2026-01-25 03:57:09.88	266.82	30.49	-32.8	-33.5	27.9	0.00e+00	0	41	0	2167406592	38	6071
2026-01-25 03:57:13.92	268.22	30.50	-32.6	-33.2	28.2	0.00e+00	0	41	0	2190475264	38	5849
2026-01-25 03:57:17.96	269.63	30.49	-32.6	-33.2	28.1	0.00e+00	0	41	0	2212495360	38	5862
2026-01-25 03:57:22.00	271.04	30.46	-32.7	-33.3	27.9	0.00e+00	0	41	0	2235564032	38	5956
2026-01-25 03:57:26.03	272.44	30.41	-32.9	-33.5	28.0	0.00e+00	0	41	0	2258632704	38	6049
2026-01-25 03:57:30.07	273.84	30.35	-32.8	-33.5	28.0	0.00e+00	0	41	0	2280652800	38	6057
2026-01-25 03:57:34.11	275.23	30.26	-33.0	-33.6	27.8	0.00e+00	0	41	0	2303721472	38	6167
2026-01-25 03:57:38.15	276.61	30.16	-32.8	-33.4	28.0	0.00e+00	0	41	0	2325741568	38	6028
2026-01-25 03:57:42.18	277.98	30.04	-32.8	-33.4	28.0	0.00e+00	0	41	0	2348810240	38	5995
2026-01-25 03:57:46.22	279.34	29.91	-32.7	-33.4	28.1	0.00e+00	0	41	0	2371878912	38	5992
2026-01-25 03:57:50.26	280.70	29.76	-32.6	-33.3	28.1	0.00e+00	0	41	0	2393899008	38	5903
2026-01-25 03:57:54.29	282.03	29.59	-32.8	-33.4	28.1	0.00e+00	0	41	0	2416967680	38	6012
2026-01-25 03:57:58.33	283.35	29.41	-32.5	-33.1	28.2	0.00e+00	0	41	0	2440036352	38	5800
2026-01-25 03:58:02.37	284.66	29.21	-32.7	-33.4	28.0	0.00e+00	0	41	0	2463105024	38	5999
2026-01-25 03:58:06.41	285.95	29.00	-33.1	-33.8	27.7	0.00e+00	0	41	0	2485125120	38	6281
2026-01-25 03:58:10.45	287.23	28.77	-32.9	-33.5	28.0	0.00e+00	0	41	0	2508193792	38	6039
2026-01-25 03:58:14.49	288.49	28.54	-32.9	-33.5	27.9	0.00e+00	0	41	0	2530213888	38	6084
2026-01-25 03:58:18.53	289.72	28.28	-33.3	-33.9	27.6	0.00e+00	0	41	0	2553282560	38	6368
2026-01-25 03:58:22.57	290.94	28.02	-33.1	-33.8	27.7	0.00e+00	0	41	0	2576351232	38	6263
2026-01-25 03:58:26.61	292.14	27.75	-32.7	-33.3	28.0	0.00e+00	0	41	0	2598371328	38	5921
2026-01-25 03:58:30.64	293.32	27.47	-33.0	-33.7	27.8	0.00e+00	0	41	0	2621440000	38	6202
2026-01-25 03:58:34.68	294.47	27.17	-32.8	-33.5	27.9	0.00e+00	0	41	0	2644508672	38	6062
2026-01-25 03:58:38.72	295.61	26.87	-33.0	-33.6	27.9	0.00e+00	0	41	0	2667577344	38	6166
2026-01-25 03:58:42.76	296.73	26.56	-33.3	-34.0	27.6	0.00e+00	0	41	0	2689597440	38	6432
2026-01-25 03:58:46.80	297.82	26.25	-33.1	-33.8	27.8	0.00e+00	0	41	0	2712666112	38	6266
2026-01-25 03:58:50.84	298.89	25.92	-33.2	-33.9	27.5	0.00e+00	0	41	0	2734686208	38	6370
2026-01-25 03:58:54.88	299.94	25.59	-33.2	-33.9	27.6	0.00e+00	0	41	0	2757754880	38	6344
2026-01-25 03:58:58.91	300.97	25.26	-33.3	-34.0	27.6	0.00e+00	0	41	0	2780823552	38	6443
2026-01-25 03:59:02.94	301.97	24.92	-33.8	-34.5	27.1	0.00e+00	0	41	0	2802843648	38	6775
2026-01-25 03:59:06.99	302.96	24.57	-33.4	-34.0	27.4	0.00e+00	0	41	0	2825912320	40	5759
2026-01-25 03:59:11.02	303.93	24.22	-33.3	-33.9	27.5	0.00e+00	0	41	0	2848980992	40	5639
2026-01-25 03:59:15.06	304.87	23.87	-33.3	-33.8	27.5	0.00e+00	0	41	0	2871001088	40	5628
2026-01-25 03:59:19.10	305.79	23.52	-33.2	-33.7	27.6	0.00e+00	0	41	0	2894069760	40	5560
2026-01-25 03:59:23.13	306.70	23.16	-33.4	-34.0	27.1	0.00e+00	0	41	0	2917138432	40	5729
2026-01-25 03:59:27.18	307.58	22.80	-34.1	-34.7	26.7	0.00e+00	0	41	0	2939158528	40	6199
2026-01-25 03:59:31.21	308.44	22.44	-33.8	-34.3	27.0	0.00e+00	0	41	0	2962227200	40	5952
2026-01-25 03:59:35.25	309.29	22.08	-34.1	-34.7	26.9	0.00e+00	0	41	0	2985295872	40	6179
2026-01-25 03:59:39.29	310.11	21.71	-33.8	-34.4	27.0	0.00e+00	0	41	0	3007315968	40	6003
2026-01-25 03:59:43.33	310.92	21.35	-34.1	-34.6	26.9	0.00e+00	0	41	0	3030384640	40	6167
2026-01-25 03:59:47.36	311.70	20.99	-34.1	-34.6	26.8	0.00e+00	0	41	0	3053453312	40	6153
2026-01-25 03:59:51.40	312.47	20.62	-34.5	-35.1	26.4	0.00e+00	0	41	0	3075473408	40	6488
2026-01-25 03:59:55.44	313.23	20.26	-35.0	-35.6	26.0	0.00e+00	0	41	0	3098542080	42	6151
2026-01-25 03:59:59.48	313.96	19.90	-34.6	-35.2	26.3	0.00e+00	0	41	0	3121610752	42	5893
2026-01-25 04:00:03.51	314.68	19.53	-34.8	-35.4	26.2	0.00e+00	0	41	0	3143630848	42	5975
2026-01-25 04:00:07.55	315.38	19.17	-34.7	-35.4	26.3	0.00e+00	0	41	0	3166699520	42	6003
2026-01-25 04:00:11.59	316.07	18.81	-35.2	-35.8	25.7	0.00e+00	0	41	0	3189768192	42	6268
2026-01-25 04:00:15.63	316.74	18.46	-34.7	-35.3	26.2	0.00e+00	0	41	0	3211788288	42	5921
2026-01-25 04:00:19.67	317.40	18.10	-34.7	-35.4	26.2	0.00e+00	0	41	0	3234856960	42	6002
2026-01-25 04:00:23.71	318.04	17.74	-35.0	-35.5	26.0	0.00e+00	0	41	0	3257925632	42	6094
2026-01-25 04:00:27.74	318.66	17.39	-34.9	-35.7	26.0	0.00e+00	0	41	0	3279945728	42	6198
2026-01-25 04:00:31.78	319.27	17.04	-35.0	-35.6	26.0	0.00e+00	0	41	0	3303014400	42	6168
2026-01-25 04:00:35.82	319.87	16.69	-35.1	-35.8	25.8	0.00e+00	0	41	0	3325034496	42	6297
2026-01-25 04:00:39.86	320.46	16.34	-35.5	-36.2	25.5	0.00e+00	0	41	0	3348103168	44	5878
2026-01-25 04:00:43.90	321.03	16.00	-35.3	-36.1	25.6	0.00e+00	0	41	0	3371171840	44	5781
2026-01-25 04:00:47.93	321.59	15.66	-35.6	-36.4	25.3	0.00e+00	0	41	0	3394240512	44	5966
2026-01-25 04:00:51.97	322.14	15.32	-35.8	-36.6	25.1	0.00e+00	0	41	0	3416260608	44	6125
2026-01-25 04:00:56.01	322.67	14.98	-35.8	-36.4	25.2	0.00e+00	0	41	0	3439329280	44	5992
2026-01-25 04:01:00.05	323.20	14.64	-35.5	-36.3	25.4	0.00e+00	0	41	0	3462397952	44	5897
2026-01-25 04:01:04.09	323.71	14.31	-35.8	-36.6	25.1	0.00e+00	0	41	0	3484418048	44	6111
2026-01-25 04:01:08.13	324.21	13.98	-36.1	-36.7	24.9	0.00e+00	0	41	0	3507486720	44	6218
2026-01-25 04:01:12.17	324.71	13.65	-35.7	-36.3	25.3	0.00e+00	0	41	0	3529506816	44	5911
2026-01-25 04:01:16.21	325.19	13.33	-35.7	-36.4	25.2	0.00e+00	0	41	0	3552575488	44	6021
2026-01-25 04:01:20.24	325.66	13.00	-36.1	-36.9	24.8	0.00e+00	0	41	0	3575644160	44	6362
2026-01-25 04:01:24.27	326.12	12.69	-36.4	-37.1	24.5	0.00e+00	0	41	0	3598712832	44	6487
2026-01-25 04:01:28.32	326.57	12.37	-36.3	-36.9	24.6	0.00e+00	0	41	0	3620732928	44	6352
2026-01-25 04:01:32.35	327.01	12.05	-36.5	-37.2	24.5	0.00e+00	0	41	0	3643801600	44	6601
2026-01-25 04:01:36.39	327.45	11.74	-37.0	-37.8	24.1	0.00e+00	0	41	0	3666870272	46	6279
2026-01-25 04:01:40.43	327.87	11.43	-36.7	-37.5	24.2	0.00e+00	0	41	0	3688890368	46	6049
2026-01-25 04:01:44.47	328.29	11.12	-36.7	-37.4	24.2	0.00e+00	0	41	0	3711959040	46	5987
2026-01-25 04:01:48.51	328.70	10.82	-36.9	-37.8	23.9	0.00e+00	0	41	0	3733979136	46	6250
2026-01-25 04:01:52.55	329.10	10.52	-37.1	-37.7	23.8	0.00e+00	0	41	0	3757047808	46	6242
2026-01-25 04:01:56.59	329.49	10.22	-36.8	-37.5	23.9	0.00e+00	0	41	0	3780116480	46	6035
2026-01-25 04:02:00.62	329.88	9.92	-36.9	-37.6	23.9	0.00e+00	0	41	0	3803185152	46	6104
2026-01-25 04:02:04.66	330.26	9.63	-36.9	-37.5	23.9	0.00e+00	0	41	0	3825205248	46	6098
2026-01-25 04:02:08.70	330.63	9.33	-37.0	-37.9	23.7	0.00e+00	0	41	0	3848273920	46	6332
2026-01-25 04:02:12.74	330.99	9.05	-37.8	-38.6	23.1	0.00e+00	0	41	0	3871342592	48	6138
2026-01-25 04:02:16.78	331.35	8.76	-37.2	-37.9	23.5	0.00e+00	0	41	0	3893362688	48	5679
2026-01-25 04:02:20.81	331.70	8.47	-37.3	-38.1	23.3	0.00e+00	0	41	0	3916431360	48	5803
2026-01-25 04:02:24.85	332.04	8.19	-37.2	-37.8	23.5	0.00e+00	0	41	0	3938451456	48	5614
2026-01-25 04:02:28.89	332.38	7.91	-37.7	-38.5	22.8	0.00e+00	0	41	0	3961520128	48	6074
2026-01-25 04:02:32.92	332.71	7.63	-37.3	-38.0	23.1	0.00e+00	0	41	0	3984588800	48	5729
2026-01-25 04:02:36.95	333.04	7.36	-37.8	-38.6	22.9	0.00e+00	0	41	0	4006608896	48	6146
2026-01-25 04:02:40.99	333.36	7.09	-38.3	-39.1	22.3	0.00e+00	0	42	0	4029677568	48	6518
2026-01-25 04:02:45.03	333.68	6.81	-37.4	-38.3	23.0	0.00e+00	0	41	0	4052746240	48	5909
2026-01-25 04:02:49.07	333.99	6.55	-38.3	-39.1	22.3	0.00e+00	0	41	0	4075814912	50	5770
2026-01-25 04:02:53.11	334.29	6.28	-38.9	-39.8	21.3	0.00e+00	0	41	0	4097835008	50	6292
2026-01-25 04:02:57.15	334.59	6.01	-40.1	-41.1	19.7	0.00e+00	0	41	0	4120903680	54	5772
2026-01-25 04:03:01.19	334.88	5.75	-40.6	-41.8	18.6	0.00e+00	0	41	0	4142923776	52	7011
2026-01-25 04:03:05.23	335.17	5.49	-42.3	-43.9	15.6	0.00e+00	0	42	0	4165992448	56	7147
2026-01-25 04:03:09.27	335.46	5.23	-42.3	-44.0	14.7	0.00e+00	0	42	0	4189061120	56	7232
2026-01-25 04:03:13.31	335.74	4.98	-44.0	-46.6	11.9	8.94e-04	0	42	0	4211081216	60	7737
2026-01-25 04:03:17.34	336.01	4.72	-45.5	-49.6	8.2	2.77e-02	0	41	0	4234149888	60	10884
2026-01-25 04:03:21.38	336.28	4.47	-45.7	-50.6	6.3	2.17e-01	0	42	0	4257218560	60	12193
2026-01-25 04:03:25.42	336.55	4.22	-46.1	-52.8	4.4	7.96e-01	0	41	0	4266655744	60	15753
2026-01-25 04:03:29.45	336.81	3.97	-46.2	-55.7	3.8	8.42e-01	0	42	104	4266655744	60	22151
2026-01-25 04:03:33.49	337.07	3.72	-46.2	-57.0	3.6	8.44e-01	0	42	104	4266655744	60	25716
2026-01-25 04:03:37.53	337.32	3.48	-46.3	-57.9	3.6	8.46e-01	0	42	104	4266655744	60	28497
2026-01-25 04:03:41.56	337.57	3.23	-46.3	-58.2	3.6	8.45e-01	0	42	104	4266655744	60	29352
2026-01-25 04:03:45.60	337.82	2.99	-46.3	-58.4	3.6	8.44e-01	0	42	104	4266655744	60	30047
2026-01-25 04:03:49.64	338.06	2.75	-50.9	-63.0	3.6	8.45e-01	0	42	104	4266655744	60	51309
2026-01-25 04:03:53.68	338.30	2.51	-51.3	-63.4	3.6	8.45e-01	0	42	104	4266655744	60	53573
2026-01-25 04:03:57.73	338.54	2.28	-51.5	-63.5	3.6	8.45e-01	0	42	104	4266655744	60	54356
2026-01-25 04:04:01.76	338.77	2.04	-51.4	-63.5	3.6	8.46e-01	0	42	104	4266655744	60	54252
2026-01-25 04:04:05.80	339.00	1.81	-51.3	-63.5	3.6	8.45e-01	0	42	104	4266655744	60	53928
2026-01-25 04:04:09.84	339.23	1.58	-51.3	-63.5	3.6	8.45e-01	0	42	104	4266655744	60	53846
2026-01-25 04:04:13.88	339.45	1.35	-51.3	-63.5	3.6	8.45e-01	0	42	104	4266655744	60	53845
2026-01-25 04:04:17.91	339.67	1.12	-51.3	-63.5	3.6	8.46e-01	0	42	104	4266655744	60	53989
2026-01-25 04:04:21.95	339.89	0.89	-51.3	-63.5	3.6	8.45e-01	0	42	104	4266655744	60	54094
2026-01-25 04:04:25.99	340.10	0.66	-51.4	-63.5	3.6	8.46e-01	0	42	104	4266655744	60	54348
2026-01-25 04:04:30.03	340.31	0.44	-51.4	-63.5	3.6	8.45e-01	0	42	104	4266655744	60	54391
2026-01-25 04:04:34.07	340.52	0.22	-51.4	-63.5	3.6	8.46e-01	0	42	104	4266655744	60	54127
2026-01-25 04:04:38.11	340.72	-0.01	-51.3	-63.5	3.6	8.46e-01	0	42	104	4266655744	60	54056

#Closed at: 2026-01-25 04:04:38
#Recorded file [4266 MB]: D:/lorett/data/35029_260125_154953.dat