passes_logs/2026/01/25/R4.6S_Anadyr/R4.6S_Anadyr__20260125_214809_AQUA_rec.log

#Pass ID: 20260125_214809_AQUA
#Satellite: AQUA
#Configuration: AQUA
#almurnet v.1.7.20251203
#Start time: 2026-01-25 21:48:12

#Version: 2.2.20231116
#Station: R4.6S_Anadyr
#Location: 177.4865 lon 64.73178 lat
#TLE: 1 27424U 02022A   26025.50647354  .00001868  00000+0  38363-3 0  9992
#TLE: 2 27424  98.4099 352.1114 0001896  65.7986  47.0097 14.61858879262422

#Time	Az	El	Level	Level2	SNR	BER	BlckErr	Temp	State	Recorded	gain1	gain2
2026-01-25 21:48:12.92	58.40	0.16	-51.0	-67.3	3.3	3.02e+01	0	40	0	0	60	89463
2026-01-25 21:48:15.94	58.12	0.30	-50.6	-68.4	3.5	3.02e+01	0	40	104	0	60	101502
2026-01-25 21:48:18.97	57.84	0.45	-50.7	-68.5	3.5	3.02e+01	0	40	104	0	60	102009
2026-01-25 21:48:22.00	57.55	0.59	-50.3	-68.4	3.5	3.02e+01	0	40	104	0	60	101080
2026-01-25 21:48:25.03	57.26	0.73	-50.5	-68.5	3.5	3.02e+01	0	40	104	0	60	101968
2026-01-25 21:48:28.06	56.96	0.88	-50.0	-68.3	3.5	3.02e+01	0	40	104	0	60	100315
2026-01-25 21:48:31.09	56.66	1.02	-49.9	-68.2	3.5	3.02e+01	0	40	104	0	60	98653
2026-01-25 21:48:34.12	56.36	1.16	-48.7	-67.7	3.5	3.02e+01	0	40	104	0	60	93903
2026-01-25 21:48:37.16	56.06	1.31	-49.1	-66.9	3.5	3.02e+01	0	40	104	0	60	85030
2026-01-25 21:48:40.18	55.75	1.45	-49.0	-66.8	3.5	3.02e+01	0	40	104	0	60	84598
2026-01-25 21:48:43.21	55.44	1.59	-49.0	-66.7	3.5	3.02e+01	0	40	104	0	60	83068
2026-01-25 21:48:46.24	55.12	1.74	-49.0	-66.8	3.5	3.02e+01	0	40	104	0	60	83895
2026-01-25 21:48:49.27	54.81	1.88	-49.0	-66.7	3.5	3.02e+01	0	40	104	0	60	83364
2026-01-25 21:48:52.30	54.48	2.03	-49.0	-66.3	3.5	3.02e+01	0	40	104	0	60	79151
2026-01-25 21:48:55.33	54.16	2.17	-49.0	-66.7	3.5	3.02e+01	0	40	104	0	60	83401
2026-01-25 21:48:58.36	53.83	2.31	-49.0	-66.4	3.5	3.02e+01	0	40	104	0	60	79978
2026-01-25 21:49:01.39	53.50	2.46	-49.0	-66.7	3.5	3.02e+01	0	40	104	0	60	83016
2026-01-25 21:49:04.42	53.16	2.60	-49.0	-66.7	3.5	3.02e+01	0	40	104	0	60	82974
2026-01-25 21:49:07.45	52.82	2.75	-49.0	-66.2	3.5	3.02e+01	0	40	104	0	60	78516
2026-01-25 21:49:10.48	52.48	2.89	-48.3	-63.5	3.5	3.02e+01	0	40	104	0	60	57593
2026-01-25 21:49:13.50	52.13	3.03	-44.1	-55.5	3.5	3.02e+01	0	40	104	0	60	22902
2026-01-25 21:49:16.53	51.78	3.18	-48.3	-64.6	3.5	3.02e+01	0	40	104	0	60	65540
2026-01-25 21:49:19.56	51.43	3.32	-40.1	-50.5	3.5	3.02e+01	0	40	104	0	56	16311
2026-01-25 21:49:22.59	51.07	3.46	-40.5	-51.0	3.5	3.02e+01	0	40	104	0	54	19316
2026-01-25 21:49:25.62	50.71	3.61	-39.2	-49.6	3.5	3.02e+01	0	40	104	0	54	16362
2026-01-25 21:49:28.64	50.34	3.75	-40.4	-50.9	3.5	3.02e+01	0	40	104	0	54	19119
2026-01-25 21:49:31.68	49.97	3.89	-39.5	-49.9	3.5	3.02e+01	0	40	104	0	54	17016
2026-01-25 21:49:34.71	49.59	4.04	-39.2	-49.6	3.6	3.02e+01	0	40	104	0	52	18363
2026-01-25 21:49:37.74	49.21	4.18	-40.0	-50.5	3.6	3.02e+01	0	40	104	0	54	18149
2026-01-25 21:49:40.77	48.83	4.32	-39.4	-49.9	3.5	3.02e+01	0	40	104	0	54	17059
2026-01-25 21:49:43.80	48.44	4.46	-39.3	-49.7	3.5	3.02e+01	0	40	104	0	54	16587
2026-01-25 21:49:46.82	48.05	4.60	-39.3	-49.7	3.5	3.02e+01	0	40	104	0	54	16534
2026-01-25 21:49:49.85	47.66	4.75	-39.0	-49.3	3.5	3.02e+01	0	40	104	0	52	17846
2026-01-25 21:49:52.88	47.26	4.89	-39.2	-49.6	3.5	3.02e+01	0	40	104	0	54	16360
2026-01-25 21:49:55.91	46.85	5.03	-39.8	-50.2	3.5	3.02e+01	0	40	104	0	52	19671
2026-01-25 21:49:58.94	46.44	5.17	-39.3	-49.7	3.5	3.02e+01	0	40	104	0	54	16532
2026-01-25 21:50:01.97	46.03	5.31	-39.4	-49.9	3.5	3.02e+01	0	40	104	0	54	16910
2026-01-25 21:50:05.00	45.61	5.45	-38.9	-49.3	3.5	3.02e+01	0	40	104	0	52	17818
2026-01-25 21:50:08.03	45.19	5.58	-39.1	-49.5	3.5	3.02e+01	0	40	104	0	52	18225
2026-01-25 21:50:11.06	44.76	5.72	-39.3	-49.7	3.5	3.02e+01	0	40	104	0	52	18664
2026-01-25 21:50:14.09	44.33	5.86	-39.1	-49.4	3.5	3.02e+01	0	40	104	0	52	18101
2026-01-25 21:50:17.11	43.90	6.00	-38.7	-49.1	3.5	3.02e+01	0	40	104	0	52	17336
2026-01-25 21:50:20.14	43.46	6.13	-39.1	-49.5	3.5	3.02e+01	0	40	104	0	52	18153
2026-01-25 21:50:23.16	43.02	6.27	-39.1	-49.5	3.5	3.02e+01	0	40	104	0	52	18184
2026-01-25 21:50:26.19	42.57	6.40	-46.5	-59.4	3.6	3.02e+01	0	40	104	0	60	35874
2026-01-25 21:50:29.22	42.11	6.53	-41.6	-52.2	3.5	3.02e+01	0	40	104	0	58	17599
2026-01-25 21:50:32.25	41.65	6.67	-48.8	-63.9	3.5	3.02e+01	0	40	104	0	60	60420
2026-01-25 21:50:35.28	41.19	6.80	-40.5	-51.0	3.5	3.02e+01	0	40	104	0	54	19338
2026-01-25 21:50:38.31	40.72	6.93	-40.2	-50.8	3.5	3.02e+01	0	40	104	0	54	18745
2026-01-25 21:50:41.34	40.25	7.06	-48.6	-63.2	3.5	3.02e+01	0	40	104	0	60	55721
2026-01-25 21:50:44.37	39.77	7.19	-38.7	-49.0	3.5	3.02e+01	0	40	104	0	52	17176
2026-01-25 21:50:47.40	39.29	7.32	-43.4	-54.4	3.6	3.02e+01	0	40	104	0	60	20233
2026-01-25 21:50:50.42	38.81	7.45	-41.7	-52.3	3.5	3.02e+01	0	40	104	0	60	15942
2026-01-25 21:50:53.45	38.31	7.57	-42.4	-53.2	3.5	3.02e+01	0	40	104	0	60	17545
2026-01-25 21:50:56.48	37.82	7.70	-40.9	-51.4	3.5	3.02e+01	0	40	104	0	60	14361
2026-01-25 21:50:59.51	37.32	7.82	-38.8	-49.1	3.5	3.02e+01	0	40	104	0	52	17422
2026-01-25 21:51:02.54	36.81	7.94	-38.4	-48.7	3.5	3.02e+01	0	40	104	0	52	16654
2026-01-25 21:51:05.57	36.30	8.06	-45.9	-57.8	3.5	3.02e+01	0	40	104	0	60	29926
2026-01-25 21:51:08.59	35.79	8.18	-38.5	-48.8	3.5	3.02e+01	0	40	104	0	52	16727
2026-01-25 21:51:11.62	35.27	8.30	-40.3	-50.8	3.4	3.02e+01	0	40	104	0	58	14894
2026-01-25 21:51:14.65	34.75	8.42	-42.6	-53.3	3.5	3.02e+01	0	40	104	0	50	31503
2026-01-25 21:51:17.68	34.22	8.53	-41.3	-51.9	3.5	3.02e+01	0	40	104	0	56	19010
2026-01-25 21:51:20.71	33.68	8.64	-46.5	-58.7	3.5	3.02e+01	0	40	104	0	60	33100
2026-01-25 21:51:23.74	33.15	8.76	-41.7	-52.3	3.5	3.02e+01	0	40	104	0	60	15823
2026-01-25 21:51:26.77	32.60	8.87	-40.0	-50.4	3.5	3.02e+01	0	40	104	0	54	17956
2026-01-25 21:51:29.79	32.06	8.97	-45.7	-57.4	3.5	3.02e+01	0	40	104	0	60	28392
2026-01-25 21:51:32.83	31.51	9.08	-39.6	-50.0	3.5	3.02e+01	0	40	104	0	54	17235
2026-01-25 21:51:35.86	30.95	9.18	-38.3	-48.7	3.5	3.02e+01	0	40	104	0	50	18562
2026-01-25 21:51:38.88	30.39	9.29	-49.6	-66.1	3.5	3.02e+01	0	40	104	0	60	77870
2026-01-25 21:51:41.91	29.83	9.39	-38.0	-48.2	3.5	3.02e+01	0	40	104	0	50	17642
2026-01-25 21:51:44.94	29.26	9.49	-49.8	-67.4	3.5	3.02e+01	0	40	104	0	60	89849
2026-01-25 21:51:47.97	28.69	9.58	-43.1	-54.0	3.5	3.02e+01	0	40	104	0	60	19327
2026-01-25 21:51:51.00	28.11	9.68	-41.6	-52.3	3.5	3.02e+01	0	40	104	0	56	19864
2026-01-25 21:51:54.03	27.53	9.77	-49.9	-67.1	3.5	3.02e+01	0	40	104	0	60	87320
2026-01-25 21:51:57.06	26.95	9.86	-39.4	-49.7	3.5	3.02e+01	0	40	104	0	54	16528
2026-01-25 21:52:00.09	26.36	9.94	-38.7	-49.1	3.5	3.02e+01	0	40	104	0	50	19411
2026-01-25 21:52:03.12	25.77	10.03	-49.7	-66.8	3.5	3.02e+01	0	40	104	0	60	84246
2026-01-25 21:52:06.15	25.17	10.11	-38.4	-48.7	3.5	3.02e+01	0	40	104	0	52	16597
2026-01-25 21:52:09.18	24.57	10.19	-49.7	-66.6	3.5	3.02e+01	0	40	104	0	60	82261
2026-01-25 21:52:12.21	23.97	10.27	-41.2	-51.8	3.5	3.02e+01	0	40	104	0	58	16729
2026-01-25 21:52:15.24	23.36	10.34	-49.4	-64.7	3.5	3.02e+01	0	40	104	0	60	65958
2026-01-25 21:52:18.27	22.75	10.41	-40.9	-51.4	3.3	3.02e+01	0	40	104	0	60	14299
2026-01-25 21:52:21.30	22.14	10.48	-42.1	-52.8	3.5	3.02e+01	0	40	104	0	58	18766
2026-01-25 21:52:24.33	21.52	10.55	-38.1	-48.3	3.5	3.02e+01	0	40	104	0	50	17867
2026-01-25 21:52:27.36	20.91	10.61	-48.9	-63.9	3.4	3.02e+01	0	40	104	0	60	60109
2026-01-25 21:52:30.39	20.28	10.67	-37.3	-38.6	28.1	3.02e+01	0	40	0	2097152	50	5850
2026-01-25 21:52:33.41	19.66	10.73	-37.0	-38.3	28.4	3.02e+01	0	40	0	7864320	50	5631
2026-01-25 21:52:36.44	19.03	10.79	-37.2	-38.4	28.3	3.02e+01	0	40	0	13631488	48	6407
2026-01-25 21:52:39.47	18.40	10.84	-37.0	-38.3	28.5	3.02e+01	0	40	0	19398656	48	6309
2026-01-25 21:52:42.50	17.77	10.89	-37.3	-38.6	28.2	3.02e+01	0	40	0	25165824	48	6529
2026-01-25 21:52:45.53	17.14	10.93	-37.2	-38.5	28.3	3.02e+01	0	40	0	30408704	48	6461
2026-01-25 21:52:48.56	16.50	10.97	-37.0	-38.3	28.5	3.02e+01	0	40	0	36175872	48	6294
2026-01-25 21:52:51.59	15.86	11.01	-37.2	-38.5	28.3	3.02e+01	0	40	0	41943040	48	6446
2026-01-25 21:52:54.62	15.22	11.05	-37.3	-38.6	28.3	3.02e+01	0	40	0	47710208	48	6510
2026-01-25 21:52:57.65	14.58	11.08	-37.4	-38.6	28.2	3.02e+01	0	40	0	53477376	48	6563
2026-01-25 21:53:00.68	13.94	11.11	-37.2	-38.5	28.4	3.02e+01	0	40	0	59244544	48	6429
2026-01-25 21:53:03.71	13.30	11.14	-37.2	-38.4	28.4	3.02e+01	0	40	0	64487424	48	6423
2026-01-25 21:53:06.74	12.65	11.16	-37.2	-38.5	28.3	3.02e+01	0	40	0	70254592	48	6425
2026-01-25 21:53:09.77	12.00	11.18	-37.3	-38.5	28.4	3.02e+01	0	40	0	76021760	48	6466
2026-01-25 21:53:12.80	11.36	11.20	-37.1	-38.3	28.5	3.02e+01	0	40	0	81788928	48	6325
2026-01-25 21:53:15.82	10.71	11.21	-37.3	-38.6	28.3	3.02e+01	0	40	0	87556096	48	6528
2026-01-25 21:53:18.85	10.06	11.22	-37.4	-38.6	28.2	3.02e+01	0	40	0	93323264	48	6550
2026-01-25 21:53:21.88	9.41	11.22	-37.1	-38.3	28.4	3.02e+01	0	40	0	98566144	48	6346
2026-01-25 21:53:24.91	8.76	11.23	-37.2	-38.5	28.3	3.02e+01	0	40	0	104333312	48	6452
2026-01-25 21:53:27.93	8.12	11.23	-37.2	-38.4	28.3	3.02e+01	0	40	0	110100480	48	6399
2026-01-25 21:53:30.96	7.47	11.22	-37.3	-38.5	28.2	3.02e+01	0	40	0	115867648	48	6470
2026-01-25 21:53:33.99	6.82	11.22	-37.2	-38.5	28.4	3.02e+01	0	40	0	121634816	48	6435
2026-01-25 21:53:37.02	6.17	11.21	-37.3	-38.5	28.4	3.02e+01	0	40	0	126877696	48	6469
2026-01-25 21:53:40.05	5.52	11.19	-37.3	-38.5	28.3	3.02e+01	0	40	0	132644864	48	6489
2026-01-25 21:53:43.07	4.88	11.18	-37.3	-38.6	28.3	3.02e+01	0	40	0	138412032	48	6538
2026-01-25 21:53:46.10	4.23	11.15	-37.1	-38.4	28.3	3.02e+01	0	40	0	144179200	48	6354
2026-01-25 21:53:49.13	3.58	11.13	-37.0	-38.2	28.3	3.02e+01	0	40	0	149946368	48	6251
2026-01-25 21:53:52.15	2.94	11.10	-37.0	-38.3	28.5	3.02e+01	0	40	0	155713536	48	6301
2026-01-25 21:53:55.19	2.30	11.07	-37.4	-38.7	28.1	3.02e+01	0	40	0	161480704	48	6605
2026-01-25 21:53:58.22	1.66	11.04	-38.0	-39.3	27.4	3.02e+01	0	40	0	166723584	50	6312
2026-01-25 21:54:01.25	1.02	11.00	-38.2	-39.5	27.5	3.02e+01	0	40	0	172490752	50	6445
2026-01-25 21:54:04.27	0.38	10.96	-37.9	-39.2	27.7	3.02e+01	0	40	0	178257920	50	6248
2026-01-25 21:54:07.30	359.75	10.92	-38.8	-40.1	27.0	3.02e+01	0	40	0	184025088	52	6169
2026-01-25 21:54:10.33	359.11	10.87	-38.5	-39.9	27.0	3.02e+01	0	40	0	189792256	50	6747
2026-01-25 21:54:13.36	358.48	10.82	-38.2	-39.5	27.2	3.02e+01	0	40	0	195035136	50	6440
2026-01-25 21:54:16.39	357.85	10.77	-37.7	-39.0	27.9	3.02e+01	0	40	0	200802304	50	6100
2026-01-25 21:54:19.42	357.23	10.72	-38.1	-39.4	27.5	3.02e+01	0	40	0	206569472	50	6394
2026-01-25 21:54:22.44	356.61	10.66	-37.6	-38.9	27.9	3.02e+01	0	40	0	212336640	50	6044
2026-01-25 21:54:25.47	355.99	10.60	-37.9	-39.2	27.5	3.02e+01	0	40	0	218103808	50	6234
2026-01-25 21:54:28.50	355.37	10.53	-37.4	-38.7	27.9	3.02e+01	0	40	0	223870976	50	5895
2026-01-25 21:54:31.53	354.75	10.47	-37.4	-38.7	28.0	3.02e+01	0	40	0	229638144	50	5904
2026-01-25 21:54:34.56	354.14	10.40	-37.1	-38.3	28.4	3.02e+01	0	40	0	234881024	50	5650
2026-01-25 21:54:37.59	353.53	10.32	-37.9	-39.2	27.7	3.02e+01	0	40	0	240648192	50	6211
2026-01-25 21:54:40.62	352.93	10.25	-37.5	-38.8	28.0	3.02e+01	0	40	0	246415360	50	5960
2026-01-25 21:54:43.65	352.33	10.17	-37.9	-39.2	27.7	3.02e+01	0	40	0	252182528	50	6229
2026-01-25 21:54:46.69	351.73	10.09	-37.5	-38.8	27.9	3.02e+01	0	40	0	257949696	50	5962
2026-01-25 21:54:49.71	351.13	10.01	-37.7	-39.0	27.9	3.02e+01	0	40	0	263192576	50	6098
2026-01-25 21:54:52.74	350.54	9.92	-37.8	-39.1	27.8	3.02e+01	0	40	0	268959744	50	6186
2026-01-25 21:54:55.78	349.95	9.84	-38.2	-39.5	27.4	3.02e+01	0	40	0	274726912	50	6473
2026-01-25 21:54:58.80	349.37	9.75	-38.2	-39.5	27.3	3.02e+01	0	40	0	280494080	50	6447
2026-01-25 21:55:01.83	348.79	9.65	-38.7	-40.1	26.8	3.02e+01	0	40	0	286261248	50	6888
2026-01-25 21:55:04.86	348.22	9.56	-38.8	-40.2	26.5	3.02e+01	0	40	0	292028416	52	6217
2026-01-25 21:55:07.89	347.65	9.46	-39.0	-40.3	26.1	3.02e+01	0	40	0	297795584	52	6349
2026-01-25 21:55:10.92	347.08	9.36	-38.3	-39.6	27.0	3.02e+01	0	40	0	303038464	52	5834
2026-01-25 21:55:13.95	346.52	9.26	-38.6	-40.0	26.8	3.02e+01	0	40	0	308805632	52	6111
2026-01-25 21:55:16.97	345.96	9.16	-37.5	-38.8	27.9	3.02e+01	0	40	0	314572800	50	5947
2026-01-25 21:55:20.00	345.41	9.06	-38.4	-39.8	27.1	3.02e+01	0	40	0	320339968	50	6662
2026-01-25 21:55:23.03	344.86	8.95	-38.0	-39.3	27.5	3.02e+01	0	40	0	326107136	50	6316
2026-01-25 21:55:26.06	344.31	8.84	-38.5	-39.8	27.0	3.02e+01	0	40	0	331350016	50	6690
2026-01-25 21:55:29.09	343.77	8.73	-38.0	-39.2	27.5	3.02e+01	0	40	0	337117184	50	6277
2026-01-25 21:55:32.11	343.24	8.62	-38.6	-40.0	26.7	3.02e+01	0	40	0	342884352	52	6111
2026-01-25 21:55:35.14	342.71	8.51	-38.7	-40.0	26.5	3.02e+01	0	40	0	348651520	52	6106
2026-01-25 21:55:38.17	342.18	8.39	-39.4	-40.9	26.0	3.02e+01	0	40	0	354418688	52	6745
2026-01-25 21:55:41.20	341.66	8.27	-39.3	-40.8	26.0	3.02e+01	0	40	0	360185856	52	6670
2026-01-25 21:55:44.23	341.14	8.16	-38.9	-40.3	26.5	3.02e+01	0	40	0	365953024	52	6301
2026-01-25 21:55:47.26	340.63	8.04	-39.1	-40.5	26.4	3.02e+01	0	40	0	371195904	52	6474
2026-01-25 21:55:50.29	340.12	7.91	-39.4	-40.8	25.7	3.02e+01	0	40	0	376963072	54	5938
2026-01-25 21:55:53.32	339.62	7.79	-40.1	-41.6	25.0	3.02e+01	0	40	0	382730240	54	6553
2026-01-25 21:55:56.36	339.12	7.67	-38.6	-39.9	26.9	3.02e+01	0	40	0	388497408	52	6029
2026-01-25 21:55:59.38	338.62	7.54	-38.7	-40.1	26.8	3.02e+01	0	40	0	394264576	52	6160
2026-01-25 21:56:02.42	338.13	7.42	-38.6	-40.0	26.8	3.02e+01	0	40	0	399507456	52	6102
2026-01-25 21:56:05.45	337.65	7.29	-38.6	-39.9	27.0	3.02e+01	0	40	0	405274624	52	6028
2026-01-25 21:56:08.48	337.17	7.16	-38.9	-40.3	26.5	3.02e+01	0	40	0	411041792	52	6288
2026-01-25 21:56:11.51	336.69	7.03	-38.7	-40.1	26.6	3.02e+01	0	40	0	416808960	52	6173
2026-01-25 21:56:14.54	336.22	6.90	-39.2	-40.6	26.2	3.02e+01	0	40	0	422576128	52	6527
2026-01-25 21:56:17.56	335.76	6.77	-39.3	-40.8	25.9	3.02e+01	0	40	0	428343296	52	6689
2026-01-25 21:56:20.59	335.30	6.64	-38.6	-39.9	26.6	3.02e+01	0	40	0	434110464	52	6059
2026-01-25 21:56:23.62	334.84	6.51	-39.4	-40.8	25.9	3.02e+01	0	40	0	439353344	52	6720
2026-01-25 21:56:26.65	334.39	6.37	-39.9	-41.4	25.4	3.02e+01	0	40	0	445120512	54	6359
2026-01-25 21:56:29.68	333.94	6.24	-39.1	-40.5	25.9	3.02e+01	0	40	0	450887680	52	6469
2026-01-25 21:56:32.71	333.50	6.10	-39.4	-40.9	25.7	3.02e+01	0	40	0	456654848	52	6761
2026-01-25 21:56:35.74	333.06	5.97	-39.3	-40.7	25.8	3.02e+01	0	40	0	462422016	52	6624
2026-01-25 21:56:38.76	332.63	5.83	-39.3	-40.7	25.8	3.02e+01	0	40	0	467664896	52	6613
2026-01-25 21:56:41.79	332.20	5.69	-40.0	-41.5	24.5	3.02e+01	0	40	0	473432064	54	6491
2026-01-25 21:56:44.82	331.77	5.55	-40.7	-42.3	24.5	3.02e+01	0	40	0	479199232	54	7067
2026-01-25 21:56:47.85	331.35	5.41	-40.8	-42.4	24.1	3.02e+01	0	40	0	484966400	56	6399
2026-01-25 21:56:50.87	330.94	5.28	-40.1	-41.6	25.2	3.02e+01	0	40	0	490733568	56	5820
2026-01-25 21:56:53.90	330.53	5.14	-39.8	-41.3	25.6	3.02e+01	0	40	0	496500736	54	6312
2026-01-25 21:56:56.93	330.12	5.00	-39.4	-40.9	25.8	3.02e+01	0	40	0	502267904	54	6017
2026-01-25 21:56:59.96	329.72	4.86	-40.2	-41.7	25.1	3.02e+01	0	40	0	507510784	54	6647
2026-01-25 21:57:02.99	329.32	4.72	-40.3	-41.9	24.8	3.02e+01	0	40	0	513277952	54	6768
2026-01-25 21:57:06.02	328.92	4.57	-40.1	-41.7	24.9	3.02e+01	0	40	0	519045120	54	6619
2026-01-25 21:57:09.05	328.53	4.43	-40.5	-42.1	24.4	3.02e+01	0	40	0	524812288	54	6949
2026-01-25 21:57:12.07	328.15	4.29	-40.1	-41.6	24.8	3.02e+01	0	40	0	530579456	54	6566
2026-01-25 21:57:15.10	327.77	4.15	-40.3	-41.8	24.6	3.02e+01	0	40	0	535822336	54	6716
2026-01-25 21:57:18.13	327.39	4.01	-40.3	-41.9	24.6	3.02e+01	0	40	0	541589504	54	6778
2026-01-25 21:57:21.16	327.02	3.86	-40.3	-41.8	24.9	3.02e+01	0	40	0	547356672	54	6700
2026-01-25 21:57:24.19	326.65	3.72	-40.0	-41.5	25.0	3.02e+01	0	40	0	553123840	54	6490
2026-01-25 21:57:27.23	326.28	3.58	-39.8	-41.3	25.1	3.02e+01	0	40	0	558891008	54	6323
2026-01-25 21:57:30.25	325.92	3.43	-40.4	-42.1	24.4	3.02e+01	0	40	0	564658176	54	6895
2026-01-25 21:57:33.28	325.56	3.29	-40.8	-42.5	24.0	3.02e+01	0	40	0	569901056	56	6458
2026-01-25 21:57:36.31	325.21	3.15	-40.8	-42.5	22.4	3.02e+01	0	40	0	575668224	54	7221
2026-01-25 21:57:39.34	324.86	3.00	-40.9	-42.6	21.9	3.02e+01	0	40	0	581435392	54	7319
2026-01-25 21:57:42.38	324.51	2.86	-50.2	-68.0	3.5	3.02e+01	0	40	104	581435392	60	96654
2026-01-25 21:57:45.40	324.17	2.72	-50.3	-68.4	3.5	3.02e+01	0	40	104	581435392	60	101295
2026-01-25 21:57:48.43	323.83	2.57	-50.4	-68.5	3.5	3.02e+01	0	40	104	581435392	60	102896
2026-01-25 21:57:51.46	323.50	2.43	-50.1	-68.5	3.5	3.02e+01	0	40	104	581435392	60	102567
2026-01-25 21:57:54.49	323.17	2.28	-50.4	-68.4	3.5	3.02e+01	0	40	104	581435392	60	101622
2026-01-25 21:57:57.52	322.84	2.14	-50.6	-68.6	3.5	3.02e+01	0	40	104	581435392	60	103503
2026-01-25 21:58:00.55	322.52	2.00	-50.5	-68.4	3.5	3.02e+01	0	40	104	581435392	60	100895
2026-01-25 21:58:03.58	322.20	1.85	-50.6	-68.6	3.5	3.02e+01	0	40	104	581435392	60	103538
2026-01-25 21:58:06.61	321.88	1.71	-50.8	-68.6	3.5	3.02e+01	0	40	104	581435392	60	103605
2026-01-25 21:58:09.64	321.57	1.57	-50.6	-68.4	3.5	3.02e+01	0	40	104	581435392	60	101200
2026-01-25 21:58:12.67	321.26	1.42	-51.0	-68.8	3.5	3.02e+01	0	40	104	581435392	60	105945
2026-01-25 21:58:15.70	320.95	1.28	-50.7	-68.5	3.5	3.02e+01	0	40	104	581435392	60	102450
2026-01-25 21:58:18.73	320.65	1.13	-50.7	-68.5	3.5	3.02e+01	0	40	104	581435392	60	102040
2026-01-25 21:58:21.75	320.35	0.99	-51.0	-68.8	3.5	3.02e+01	0	40	104	581435392	60	105423
2026-01-25 21:58:24.78	320.06	0.85	-51.0	-68.8	3.5	3.02e+01	0	40	104	581435392	60	106212
2026-01-25 21:58:27.81	319.76	0.71	-51.2	-69.0	3.5	3.02e+01	0	40	104	581435392	60	108707
2026-01-25 21:58:30.84	319.47	0.56	-51.1	-68.9	3.5	3.02e+01	0	40	104	581435392	60	107690
2026-01-25 21:58:33.87	319.19	0.42	-51.0	-68.8	3.5	3.02e+01	0	40	104	581435392	60	105923
2026-01-25 21:58:36.89	318.90	0.28	-51.2	-69.0	3.5	3.02e+01	0	40	104	581435392	60	108127
2026-01-25 21:58:39.92	318.62	0.13	-50.9	-68.7	3.5	3.02e+01	0	40	104	581435392	60	105383
2026-01-25 21:58:42.95	318.34	-0.01	-50.8	-68.6	3.5	3.02e+01	0	40	104	581435392	60	103304

#Closed at: 2026-01-25 21:58:43
#Recorded file [581 MB]: D:/lorett/data/35029_260126_094812.dat