passes_logs/2026/01/25/R4.6S_Anadyr/R4.6S_Anadyr__20260125_025424_SUOMI_NPP_rec.log

#Pass ID: 20260125_025424_SUOMI NPP
#Satellite: SUOMI NPP
#Configuration: NPP
#almurnet v.1.7.20251203
#Start time: 2026-01-25 02:54:26

#Version: 2.2.20231116
#Station: R4.6S_Anadyr
#Location: 177.4865 lon 64.73178 lat
#TLE: 1 37849U 11061A   26024.54906732  .00000185  00000+0  10878-3 0  9990
#TLE: 2 37849  98.7821 326.5159 0002200  47.3746 312.7615 14.19529340738061

#Time	Az	El	Level	Level2	SNR	BER	BlckErr	Temp	State	Recorded	gain1	gain2
2026-01-25 02:54:26.94	225.62	0.13	-51.1	-63.6	3.5	1.52e+00	0	39	0	0	60	53270
2026-01-25 02:54:30.98	225.95	0.32	-51.2	-66.5	3.6	1.51e+00	0	40	104	0	60	75976
2026-01-25 02:54:35.01	226.28	0.51	-50.8	-66.1	3.6	1.51e+00	0	40	104	0	60	73227
2026-01-25 02:54:39.05	226.61	0.70	-50.9	-66.1	3.6	1.51e+00	0	40	104	0	60	73181
2026-01-25 02:54:43.09	226.95	0.89	-50.8	-66.1	3.6	1.51e+00	0	40	104	0	60	72784
2026-01-25 02:54:47.13	227.30	1.09	-50.6	-65.8	3.6	1.51e+00	0	41	104	0	60	70762
2026-01-25 02:54:51.17	227.65	1.28	-49.2	-64.4	3.6	1.51e+00	0	41	104	0	60	59946
2026-01-25 02:54:55.21	228.00	1.47	-48.1	-63.3	3.6	1.51e+00	0	41	104	0	60	52694
2026-01-25 02:54:59.24	228.36	1.67	-48.1	-63.2	3.6	1.51e+00	0	41	104	0	60	52512
2026-01-25 02:55:03.28	228.72	1.86	-48.1	-63.2	3.6	1.51e+00	0	41	104	0	60	52194
2026-01-25 02:55:07.32	229.08	2.06	-48.1	-63.2	3.6	1.51e+00	0	41	104	0	60	52191
2026-01-25 02:55:11.36	229.45	2.25	-48.1	-63.1	3.6	1.51e+00	0	41	104	0	60	51864
2026-01-25 02:55:15.40	229.83	2.45	-48.0	-63.1	3.6	1.51e+00	0	41	104	0	60	51482
2026-01-25 02:55:19.43	230.21	2.64	-48.0	-62.4	3.6	1.51e+00	0	41	104	0	60	47493
2026-01-25 02:55:23.47	230.59	2.84	-47.9	-61.0	3.6	1.50e+00	0	41	104	0	60	40513
2026-01-25 02:55:27.51	230.98	3.03	-48.4	-62.8	3.6	1.51e+00	0	41	104	0	60	49908
2026-01-25 02:55:31.55	231.38	3.23	-48.1	-61.0	3.6	1.51e+00	0	41	104	0	60	40609
2026-01-25 02:55:35.59	231.78	3.43	-48.3	-61.7	3.6	1.51e+00	0	41	104	0	60	43920
2026-01-25 02:55:39.62	232.18	3.63	-48.2	-63.0	3.6	1.51e+00	0	41	104	0	60	51266
2026-01-25 02:55:43.66	232.59	3.82	-48.6	-61.5	3.8	1.50e+00	0	41	104	0	60	42935
2026-01-25 02:55:47.69	233.01	4.02	-48.7	-61.2	3.8	1.50e+00	0	41	104	0	60	41632
2026-01-25 02:55:51.73	233.43	4.22	-48.7	-60.2	3.7	1.49e+00	0	41	0	0	60	36983
2026-01-25 02:55:55.77	233.86	4.42	-48.9	-60.9	4.0	1.42e+00	0	41	104	0	60	39890
2026-01-25 02:55:59.81	234.29	4.62	-48.9	-60.2	4.2	1.31e+00	79	42	104	0	60	37178
2026-01-25 02:56:03.85	234.73	4.81	-49.1	-61.0	4.0	1.44e+00	0	41	104	0	60	40575
2026-01-25 02:56:07.88	235.17	5.01	-49.1	-59.4	3.9	1.31e+00	0	42	0	1048576	60	33825
2026-01-25 02:56:11.92	235.62	5.21	-49.1	-59.0	4.1	1.05e+00	93	42	0	3145728	60	32102
2026-01-25 02:56:15.95	236.07	5.41	-49.1	-58.7	4.2	9.59e-01	90	42	0	10485760	60	31031
2026-01-25 02:56:19.99	236.53	5.61	-49.2	-59.5	3.9	1.34e+00	0	42	0	17825792	60	34157
2026-01-25 02:56:24.02	237.00	5.81	-49.1	-57.7	5.0	6.45e-01	91	42	0	24117248	60	27763
2026-01-25 02:56:28.06	237.47	6.01	-48.9	-56.2	6.6	3.08e-01	91	42	0	31457280	60	23267
2026-01-25 02:56:32.09	237.95	6.20	-48.7	-55.4	7.5	1.01e-01	92	42	0	38797312	60	21300
2026-01-25 02:56:36.13	238.44	6.40	-48.3	-53.9	9.2	2.47e-02	0	42	0	46137344	60	17972
2026-01-25 02:56:40.17	238.93	6.60	-47.9	-52.7	10.5	4.64e-03	92	42	0	53477376	60	15628
2026-01-25 02:56:44.19	239.43	6.80	-47.3	-51.2	12.3	2.86e-04	92	42	0	61865984	60	13180
2026-01-25 02:56:48.23	239.93	7.00	-47.2	-51.1	12.5	1.59e-04	0	42	0	69206016	60	13013
2026-01-25 02:56:52.27	240.45	7.19	-46.7	-50.1	13.6	9.10e-06	0	42	0	76546048	60	11510
2026-01-25 02:56:56.30	240.96	7.39	-46.1	-49.0	14.8	0.00e+00	90	42	0	83886080	60	10154
2026-01-25 02:57:00.34	241.49	7.59	-45.9	-48.6	15.2	0.00e+00	92	42	0	91226112	60	9679
2026-01-25 02:57:04.37	242.02	7.78	-45.2	-47.6	16.2	0.00e+00	0	42	0	99614720	60	8631
2026-01-25 02:57:08.40	242.56	7.98	-44.6	-46.7	17.1	0.00e+00	0	42	0	106954752	60	7784
2026-01-25 02:57:12.44	243.11	8.17	-44.0	-45.8	18.0	0.00e+00	92	42	0	114294784	60	7041
2026-01-25 02:57:16.48	243.66	8.36	-43.5	-45.2	18.8	0.00e+00	92	42	0	121634816	60	6545
2026-01-25 02:57:20.51	244.22	8.56	-42.7	-44.1	19.6	0.00e+00	0	42	0	130023424	58	6493
2026-01-25 02:57:24.55	244.79	8.75	-42.0	-43.3	20.4	0.00e+00	92	42	0	137363456	58	5962
2026-01-25 02:57:28.59	245.36	8.94	-41.5	-42.7	21.1	0.00e+00	92	41	0	144703488	56	6180
2026-01-25 02:57:32.63	245.94	9.13	-40.6	-41.6	21.9	0.00e+00	0	41	0	152043520	54	6163
2026-01-25 02:57:36.67	246.53	9.32	-40.5	-41.6	21.7	0.00e+00	0	41	0	159383552	54	6116
2026-01-25 02:57:40.70	247.13	9.51	-41.0	-42.1	21.6	0.00e+00	93	41	0	167772160	54	6483
2026-01-25 02:57:44.74	247.73	9.69	-40.8	-41.8	21.8	0.00e+00	92	41	0	175112192	54	6291
2026-01-25 02:57:48.78	248.35	9.88	-40.8	-41.9	21.8	0.00e+00	0	41	0	182452224	54	6362
2026-01-25 02:57:52.82	248.97	10.06	-40.6	-41.7	22.0	0.00e+00	0	41	0	189792256	54	6195
2026-01-25 02:57:56.86	249.59	10.24	-40.5	-41.6	22.1	0.00e+00	70	41	0	198180864	54	6124
2026-01-25 02:58:00.89	250.22	10.42	-40.7	-41.7	22.0	0.00e+00	92	41	0	205520896	54	6235
2026-01-25 02:58:04.92	250.86	10.60	-40.9	-41.9	21.8	0.00e+00	0	41	0	212860928	54	6381
2026-01-25 02:58:08.96	251.51	10.78	-40.2	-41.2	22.5	0.00e+00	92	41	0	220200960	54	5858
2026-01-25 02:58:13.00	252.17	10.95	-40.5	-41.6	22.1	0.00e+00	83	41	0	227540992	54	6115
2026-01-25 02:58:17.04	252.84	11.12	-41.1	-42.2	21.6	0.00e+00	92	41	0	235929600	54	6596
2026-01-25 02:58:21.08	253.51	11.29	-40.6	-41.6	22.2	0.00e+00	0	41	0	243269632	54	6147
2026-01-25 02:58:25.12	254.19	11.46	-41.0	-42.1	21.7	0.00e+00	92	41	0	250609664	54	6511
2026-01-25 02:58:29.15	254.87	11.63	-41.2	-42.3	21.7	0.00e+00	92	41	0	257949696	54	6631
2026-01-25 02:58:33.19	255.57	11.79	-41.0	-42.1	21.8	0.00e+00	33	41	0	265289728	54	6480
2026-01-25 02:58:37.23	256.27	11.95	-41.3	-42.4	21.6	0.00e+00	0	41	0	273678336	54	6733
2026-01-25 02:58:41.26	256.98	12.11	-41.7	-42.9	21.2	0.00e+00	92	41	0	281018368	56	6331
2026-01-25 02:58:45.30	257.69	12.26	-42.1	-43.4	20.8	0.00e+00	92	41	0	288358400	56	6697
2026-01-25 02:58:49.34	258.42	12.41	-41.8	-43.0	21.0	0.00e+00	0	41	0	295698432	56	6438
2026-01-25 02:58:53.38	259.15	12.56	-42.4	-43.7	20.5	0.00e+00	30	41	0	304087040	56	6963
2026-01-25 02:58:57.42	259.88	12.70	-42.4	-43.7	20.5	0.00e+00	76	41	0	311427072	56	6980
2026-01-25 02:59:01.46	260.63	12.84	-42.4	-43.7	20.5	0.00e+00	92	41	0	318767104	56	6967
2026-01-25 02:59:05.49	261.38	12.98	-42.7	-44.1	20.1	0.00e+00	0	41	0	326107136	58	6478
2026-01-25 02:59:09.53	262.14	13.11	-42.4	-43.7	20.5	0.00e+00	92	41	0	333447168	58	6196
2026-01-25 02:59:13.56	262.90	13.24	-42.2	-43.5	20.7	0.00e+00	73	41	0	341835776	58	6040
2026-01-25 02:59:17.60	263.67	13.37	-42.4	-43.7	20.6	0.00e+00	32	41	0	349175808	58	6216
2026-01-25 02:59:21.64	264.45	13.49	-42.2	-43.4	20.8	0.00e+00	0	41	0	356515840	58	5978
2026-01-25 02:59:25.68	265.23	13.60	-41.5	-42.6	21.5	0.00e+00	92	41	0	363855872	56	6164
2026-01-25 02:59:29.72	266.02	13.72	-40.8	-41.8	22.2	0.00e+00	90	41	0	372244480	56	5624
2026-01-25 02:59:33.76	266.81	13.83	-40.4	-41.4	22.3	0.00e+00	0	41	0	379584512	54	5987
2026-01-25 02:59:37.80	267.61	13.93	-40.8	-41.9	22.1	0.00e+00	0	41	0	386924544	54	6328
2026-01-25 02:59:41.84	268.42	14.03	-40.2	-41.2	22.6	0.00e+00	90	41	0	394264576	54	5858
2026-01-25 02:59:45.88	269.23	14.12	-40.6	-41.6	22.3	0.00e+00	90	41	0	401604608	54	6149
2026-01-25 02:59:49.91	270.04	14.21	-40.8	-41.8	22.1	0.00e+00	0	41	0	409993216	54	6285
2026-01-25 02:59:53.94	270.86	14.29	-40.3	-41.3	22.4	0.00e+00	53	41	0	417333248	54	5948
2026-01-25 02:59:57.97	271.68	14.37	-41.4	-42.5	21.5	0.00e+00	83	41	0	424673280	54	6839
2026-01-25 03:00:02.01	272.51	14.45	-41.5	-42.6	21.4	0.00e+00	35	41	0	432013312	54	6890
2026-01-25 03:00:06.04	273.34	14.51	-43.2	-44.6	19.7	0.00e+00	0	41	0	440401920	58	6924
2026-01-25 03:00:10.08	274.18	14.58	-41.8	-42.9	21.3	0.00e+00	90	41	0	447741952	56	6360
2026-01-25 03:00:14.11	275.01	14.63	-41.4	-42.6	21.6	0.00e+00	90	41	0	455081984	56	6113
2026-01-25 03:00:18.15	275.85	14.68	-41.4	-42.5	21.8	0.00e+00	0	41	0	462422016	56	6057
2026-01-25 03:00:22.19	276.70	14.73	-40.5	-41.5	22.4	0.00e+00	33	41	0	469762048	54	6083
2026-01-25 03:00:26.22	277.54	14.77	-40.6	-41.6	22.4	0.00e+00	92	41	0	478150656	54	6125
2026-01-25 03:00:30.26	278.39	14.80	-40.5	-41.5	22.4	0.00e+00	92	41	0	485490688	54	6074
2026-01-25 03:00:34.29	279.24	14.83	-41.0	-42.1	22.0	0.00e+00	0	41	0	492830720	54	6467
2026-01-25 03:00:38.33	280.09	14.86	-40.1	-41.1	22.7	0.00e+00	0	41	0	500170752	54	5793
2026-01-25 03:00:42.37	280.94	14.87	-41.1	-42.1	21.9	0.00e+00	84	41	0	508559360	54	6536
2026-01-25 03:00:46.41	281.80	14.88	-41.0	-42.1	21.9	0.00e+00	29	41	0	515899392	54	6486
2026-01-25 03:00:50.44	282.65	14.89	-41.2	-42.2	21.8	0.00e+00	0	41	0	523239424	54	6600
2026-01-25 03:00:54.48	283.50	14.89	-40.9	-41.9	22.1	0.00e+00	92	41	0	530579456	54	6350
2026-01-25 03:00:58.51	284.35	14.88	-41.3	-42.4	21.6	0.00e+00	92	41	0	537919488	54	6749
2026-01-25 03:01:02.55	285.21	14.87	-40.5	-41.5	22.4	0.00e+00	0	41	0	546308096	54	6068
2026-01-25 03:01:06.59	286.06	14.85	-40.9	-42.0	21.5	0.00e+00	0	41	0	553648128	54	6412
2026-01-25 03:01:10.63	286.91	14.83	-40.3	-41.3	22.6	0.00e+00	92	41	0	560988160	54	5898
2026-01-25 03:01:14.66	287.75	14.80	-40.4	-41.4	22.5	0.00e+00	92	41	0	568328192	54	6030
2026-01-25 03:01:18.70	288.60	14.76	-40.0	-41.0	22.9	0.00e+00	0	41	0	575668224	54	5712
2026-01-25 03:01:22.74	289.45	14.72	-39.6	-40.5	23.1	0.00e+00	0	41	0	584056832	52	6075
2026-01-25 03:01:26.77	290.29	14.67	-40.2	-41.1	22.7	0.00e+00	55	41	0	591396864	52	6513
2026-01-25 03:01:30.81	291.13	14.62	-40.2	-41.2	22.6	0.00e+00	90	41	0	598736896	52	6588
2026-01-25 03:01:34.85	291.96	14.56	-40.2	-41.2	22.7	0.00e+00	0	41	0	606076928	52	6542
2026-01-25 03:01:38.89	292.80	14.50	-40.6	-41.6	22.4	0.00e+00	83	41	0	614465536	52	6888
2026-01-25 03:01:42.92	293.62	14.43	-40.6	-41.6	22.3	0.00e+00	90	41	0	621805568	54	6163
2026-01-25 03:01:46.96	294.45	14.35	-40.4	-41.4	22.5	0.00e+00	0	41	0	629145600	54	6024
2026-01-25 03:01:51.00	295.27	14.27	-40.1	-41.0	22.9	0.00e+00	0	41	0	636485632	54	5739
2026-01-25 03:01:55.04	296.09	14.19	-39.4	-40.3	23.3	0.00e+00	90	41	0	643825664	52	5956
2026-01-25 03:01:59.08	296.90	14.10	-39.3	-40.2	23.6	0.00e+00	57	41	0	652214272	52	5882
2026-01-25 03:02:03.12	297.71	14.00	-39.2	-40.1	23.5	0.00e+00	0	41	0	659554304	52	5768
2026-01-25 03:02:07.15	298.50	13.91	-39.5	-40.4	23.4	0.00e+00	0	41	0	666894336	52	5996
2026-01-25 03:02:11.19	299.30	13.80	-40.0	-41.0	22.9	0.00e+00	17	41	0	674234368	52	6397
2026-01-25 03:02:15.22	300.09	13.69	-40.0	-41.0	22.9	0.00e+00	92	41	0	682622976	52	6412
2026-01-25 03:02:19.26	300.88	13.58	-39.7	-40.6	23.3	0.00e+00	0	41	0	689963008	52	6123
2026-01-25 03:02:23.30	301.65	13.46	-39.1	-40.0	23.7	0.00e+00	49	41	0	697303040	52	5736
2026-01-25 03:02:27.33	302.43	13.34	-38.7	-39.5	23.9	0.00e+00	81	41	0	704643072	50	6097
2026-01-25 03:02:31.37	303.19	13.22	-38.9	-39.8	23.9	0.00e+00	0	41	0	711983104	50	6289
2026-01-25 03:02:35.41	303.95	13.09	-39.3	-40.2	23.5	0.00e+00	0	41	0	720371712	50	6554
2026-01-25 03:02:39.44	304.70	12.95	-40.0	-40.9	22.9	0.00e+00	90	41	0	727711744	52	6375
2026-01-25 03:02:43.48	305.45	12.82	-39.6	-40.5	23.2	0.00e+00	92	41	0	735051776	52	6072
2026-01-25 03:02:47.51	306.19	12.68	-39.7	-40.7	22.9	0.00e+00	33	41	0	742391808	52	6175
2026-01-25 03:02:51.55	306.92	12.53	-39.6	-40.5	23.2	0.00e+00	0	41	0	749731840	52	6052
2026-01-25 03:02:55.59	307.65	12.38	-39.8	-40.8	23.0	0.00e+00	87	41	0	758120448	52	6262
2026-01-25 03:02:59.62	308.36	12.23	-40.4	-41.4	22.5	0.00e+00	92	41	0	765460480	52	6751
2026-01-25 03:03:03.66	309.08	12.08	-40.7	-41.7	21.9	0.00e+00	0	41	0	772800512	54	6236
2026-01-25 03:03:07.70	309.78	11.92	-40.8	-41.8	22.2	0.00e+00	0	41	0	780140544	54	6259
2026-01-25 03:03:11.74	310.48	11.77	-41.6	-42.8	21.2	0.00e+00	32	41	0	788529152	54	7026
2026-01-25 03:03:15.77	311.17	11.60	-41.7	-42.9	21.3	0.00e+00	0	41	0	795869184	56	6343
2026-01-25 03:03:19.80	311.85	11.44	-42.5	-43.8	20.5	0.00e+00	0	41	0	803209216	56	7087
2026-01-25 03:03:23.84	312.52	11.27	-42.0	-43.3	20.9	0.00e+00	82	41	0	810549248	56	6636
2026-01-25 03:03:27.88	313.19	11.10	-41.1	-42.1	21.8	0.00e+00	90	41	0	817889280	56	5810
2026-01-25 03:03:31.91	313.85	10.93	-41.6	-42.8	21.2	0.00e+00	0	41	0	826277888	56	6287
2026-01-25 03:03:35.95	314.50	10.76	-42.9	-44.3	19.9	0.00e+00	0	41	0	833617920	58	6667
2026-01-25 03:03:39.99	315.14	10.58	-42.5	-43.9	20.1	0.00e+00	49	41	0	840957952	58	6341
2026-01-25 03:03:44.03	315.78	10.41	-42.5	-43.8	20.4	0.00e+00	64	41	0	848297984	58	6275
2026-01-25 03:03:48.06	316.41	10.23	-42.4	-43.7	20.5	0.00e+00	0	41	0	856686592	58	6191
2026-01-25 03:03:52.10	317.03	10.05	-42.0	-43.2	20.8	0.00e+00	0	41	0	864026624	58	5881
2026-01-25 03:03:56.13	317.65	9.87	-41.1	-42.2	21.7	0.00e+00	80	41	0	871366656	56	5885
2026-01-25 03:04:00.17	318.25	9.68	-41.1	-42.2	21.5	0.00e+00	90	41	0	878706688	56	5877
2026-01-25 03:04:04.21	318.85	9.50	-42.2	-43.5	20.6	0.00e+00	0	41	0	886046720	56	6809
2026-01-25 03:04:08.24	319.44	9.31	-42.5	-43.9	20.2	0.00e+00	0	41	0	894435328	58	6356
2026-01-25 03:04:12.28	320.03	9.13	-42.0	-43.3	20.9	0.00e+00	92	41	0	901775360	58	5922
2026-01-25 03:04:16.32	320.61	8.94	-41.5	-42.7	21.2	0.00e+00	0	41	0	909115392	56	6187
2026-01-25 03:04:20.36	321.18	8.75	-41.2	-42.4	21.6	0.00e+00	0	41	0	916455424	56	5979
2026-01-25 03:04:24.40	321.74	8.56	-41.1	-42.2	21.7	0.00e+00	79	41	0	923795456	56	5844
2026-01-25 03:04:28.44	322.30	8.37	-41.7	-42.8	21.1	0.00e+00	92	41	0	932184064	56	6301
2026-01-25 03:04:32.48	322.85	8.17	-41.4	-42.5	21.3	0.00e+00	0	41	0	939524096	56	6100
2026-01-25 03:04:36.51	323.39	7.98	-41.3	-42.4	21.4	0.00e+00	0	41	0	946864128	56	5991
2026-01-25 03:04:40.55	323.93	7.79	-41.1	-42.3	21.4	0.00e+00	34	41	0	954204160	54	6632
2026-01-25 03:04:44.59	324.46	7.59	-41.8	-43.0	20.8	0.00e+00	69	41	0	962592768	56	6432
2026-01-25 03:04:48.63	324.98	7.40	-41.3	-42.4	21.4	0.00e+00	0	41	0	969932800	56	6004
2026-01-25 03:04:52.66	325.49	7.20	-41.4	-42.5	21.3	0.00e+00	0	41	0	977272832	56	6092
2026-01-25 03:04:56.70	326.00	7.01	-41.5	-42.6	21.1	0.00e+00	72	41	0	984612864	56	6168
2026-01-25 03:05:00.74	326.51	6.81	-41.8	-43.1	20.8	0.00e+00	0	41	0	991952896	56	6496
2026-01-25 03:05:04.77	327.00	6.62	-42.2	-43.5	20.3	0.00e+00	0	41	0	1000341504	56	6799
2026-01-25 03:05:08.81	327.49	6.42	-42.1	-43.4	20.4	0.00e+00	78	41	0	1007681536	56	6755
2026-01-25 03:05:12.84	327.97	6.23	-41.9	-43.1	20.6	0.00e+00	0	41	0	1015021568	56	6518
2026-01-25 03:05:16.88	328.45	6.03	-42.3	-43.6	20.1	0.00e+00	0	41	0	1022361600	56	6902
2026-01-25 03:05:20.92	328.92	5.83	-42.2	-43.5	20.3	0.00e+00	0	41	0	1030750208	56	6795
2026-01-25 03:05:24.95	329.39	5.64	-41.6	-42.9	20.5	0.00e+00	76	41	0	1038090240	56	6347
2026-01-25 03:05:28.99	329.84	5.44	-41.4	-42.6	20.7	0.00e+00	0	42	0	1045430272	56	6110
2026-01-25 03:05:33.03	330.30	5.24	-41.5	-42.7	20.8	0.00e+00	0	41	0	1052770304	56	6202
2026-01-25 03:05:37.06	330.74	5.05	-42.7	-44.2	19.3	0.00e+00	0	41	0	1060110336	58	6551
2026-01-25 03:05:41.10	331.19	4.85	-43.1	-44.7	18.9	0.00e+00	57	42	0	1068498944	58	6936
2026-01-25 03:05:45.14	331.62	4.65	-43.5	-45.3	17.6	0.00e+00	0	41	0	1075838976	60	6663
2026-01-25 03:05:49.18	332.05	4.46	-44.7	-47.3	15.1	0.00e+00	0	41	0	1083179008	60	8406
2026-01-25 03:05:53.22	332.48	4.26	-45.5	-51.1	9.3	2.25e-03	73	42	0	1090519040	60	12903
2026-01-25 03:05:57.25	332.90	4.06	-45.8	-56.1	3.9	1.09e+00	41	42	0	1097859072	60	22947
2026-01-25 03:06:01.29	333.31	3.87	-45.7	-59.9	3.6	1.51e+00	0	42	104	1097859072	60	35812
2026-01-25 03:06:05.33	333.72	3.67	-45.8	-60.8	3.6	1.51e+00	0	42	104	1097859072	60	39568
2026-01-25 03:06:09.36	334.12	3.48	-45.8	-60.9	3.6	1.51e+00	0	42	104	1097859072	60	40236
2026-01-25 03:06:13.40	334.52	3.28	-45.8	-61.0	3.6	1.51e+00	0	42	104	1097859072	60	40569
2026-01-25 03:06:17.44	334.92	3.09	-45.8	-60.9	3.6	1.51e+00	0	42	104	1097859072	60	40234
2026-01-25 03:06:21.48	335.31	2.89	-50.1	-65.3	3.6	1.51e+00	0	42	104	1097859072	60	66761
2026-01-25 03:06:25.52	335.69	2.70	-50.7	-66.0	3.6	1.51e+00	0	42	104	1097859072	60	71812
2026-01-25 03:06:29.56	336.07	2.51	-51.0	-66.1	3.6	1.51e+00	0	42	104	1097859072	60	73180
2026-01-25 03:06:33.60	336.45	2.31	-50.9	-66.1	3.6	1.51e+00	0	42	104	1097859072	60	73367
2026-01-25 03:06:37.64	336.82	2.12	-50.8	-66.0	3.6	1.51e+00	0	42	104	1097859072	60	71956
2026-01-25 03:06:41.67	337.18	1.93	-50.9	-66.1	3.6	1.51e+00	0	42	104	1097859072	60	72986
2026-01-25 03:06:45.71	337.54	1.73	-50.9	-66.1	3.6	1.51e+00	0	42	104	1097859072	60	72784
2026-01-25 03:06:49.75	337.90	1.54	-51.0	-66.2	3.6	1.51e+00	0	42	104	1097859072	60	73522
2026-01-25 03:06:53.79	338.25	1.35	-50.9	-66.1	3.6	1.51e+00	0	42	104	1097859072	60	73376
2026-01-25 03:06:57.83	338.60	1.16	-51.0	-66.2	3.6	1.51e+00	0	42	104	1097859072	60	73609
2026-01-25 03:07:01.86	338.94	0.97	-51.0	-66.2	3.6	1.51e+00	0	42	104	1097859072	60	74166
2026-01-25 03:07:05.90	339.28	0.78	-51.1	-66.3	3.6	1.51e+00	0	42	104	1097859072	60	74617
2026-01-25 03:07:09.93	339.62	0.59	-51.0	-66.2	3.6	1.51e+00	0	42	104	1097859072	60	73955
2026-01-25 03:07:13.98	339.95	0.40	-51.0	-66.2	3.6	1.51e+00	0	42	104	1097859072	60	73544
2026-01-25 03:07:18.01	340.28	0.22	-51.1	-66.3	3.6	1.51e+00	0	42	104	1097859072	60	74425
2026-01-25 03:07:22.05	340.60	0.03	-51.2	-66.3	3.6	1.51e+00	0	42	104	1097859072	60	74907

#Closed at: 2026-01-25 03:07:25
#Recorded file [1097 MB]: D:/lorett/data/35029_260125_145426.dat