passes_logs/2026/01/25/R4.6S_Anadyr/R4.6S_Anadyr__20260125_155428_FENGYUN_3D_rec.log

#Pass ID: 20260125_155428_FENGYUN 3D
#Satellite: FENGYUN 3D
#Configuration: FENGYUN 3D
#almurnet v.1.7.20251203
#Start time: 2026-01-25 15:54:30

#Version: 2.2.20231116
#Station: R4.6S_Anadyr
#Location: 177.4865 lon 64.73178 lat
#TLE: 1 43010U 17072A   26025.29318909  .00000213  00000+0  12258-3 0  9997
#TLE: 2 43010  98.9962 357.2697 0002521  90.3942 269.7522 14.19700342424711

#Time	Az	El	Level	Level2	SNR	BER	BlckErr	Temp	State	Recorded	gain1	gain2
2026-01-25 15:54:30.43	19.71	0.12	-50.2	-65.1	3.5	1.51e+00	0	38	0	0	60	65143
2026-01-25 15:54:34.46	19.84	0.35	-50.2	-62.4	3.6	8.46e-01	0	39	104	0	60	47523
2026-01-25 15:54:38.50	19.98	0.59	-50.2	-62.3	3.6	8.46e-01	0	39	104	0	60	47042
2026-01-25 15:54:42.54	20.11	0.83	-50.2	-62.3	3.6	8.44e-01	0	40	104	0	60	46944
2026-01-25 15:54:46.57	20.25	1.07	-50.0	-62.1	3.5	8.45e-01	0	40	104	0	60	46019
2026-01-25 15:54:50.61	20.38	1.31	-49.6	-61.7	3.6	8.46e-01	0	40	104	0	60	44099
2026-01-25 15:54:54.65	20.52	1.56	-48.8	-60.9	3.6	8.46e-01	0	40	104	0	60	40149
2026-01-25 15:54:58.69	20.66	1.80	-48.7	-60.6	3.6	8.45e-01	0	40	104	0	60	38858
2026-01-25 15:55:02.73	20.81	2.05	-48.7	-60.8	3.6	8.44e-01	0	40	104	0	60	39409
2026-01-25 15:55:06.76	20.95	2.30	-48.7	-60.7	3.6	8.45e-01	0	40	104	0	60	38960
2026-01-25 15:55:10.80	21.10	2.55	-48.4	-58.0	3.7	8.44e-01	0	40	104	0	60	28742
2026-01-25 15:55:14.84	21.25	2.81	-48.4	-57.6	4.0	8.44e-01	0	40	104	0	60	27295
2026-01-25 15:55:18.87	21.40	3.06	-42.2	-43.6	16.4	0.00e+00	0	40	0	18874368	58	6137
2026-01-25 15:55:22.91	21.56	3.32	-38.3	-39.3	20.6	0.00e+00	0	40	0	41943040	50	5912
2026-01-25 15:55:26.95	21.71	3.58	-40.3	-41.4	18.7	0.00e+00	0	40	0	65011712	52	6737
2026-01-25 15:55:31.00	21.87	3.85	-48.1	-54.6	5.1	4.86e-02	0	40	0	87031808	60	19342
2026-01-25 15:55:35.04	22.04	4.11	-40.5	-41.7	18.4	0.00e+00	0	40	0	98566144	54	6180
2026-01-25 15:55:39.07	22.20	4.38	-39.4	-40.3	19.5	0.00e+00	0	40	0	120586240	50	6684
2026-01-25 15:55:43.11	22.37	4.65	-38.3	-39.2	21.0	0.00e+00	0	40	0	143654912	48	6590
2026-01-25 15:55:47.14	22.54	4.93	-37.1	-37.8	22.1	0.00e+00	0	40	0	166723584	48	5626
2026-01-25 15:55:51.18	22.71	5.20	-36.0	-36.8	23.3	0.00e+00	0	40	0	188743680	46	5578
2026-01-25 15:55:55.22	22.89	5.48	-36.3	-37.1	22.9	0.00e+00	0	40	0	211812352	46	5770
2026-01-25 15:55:59.26	23.07	5.76	-36.9	-37.7	22.4	0.00e+00	0	40	0	234881024	46	6214
2026-01-25 15:56:03.30	23.25	6.05	-36.7	-37.5	22.8	0.00e+00	0	40	0	256901120	46	6052
2026-01-25 15:56:07.34	23.43	6.34	-36.4	-37.1	23.0	0.00e+00	0	40	0	279969792	46	5827
2026-01-25 15:56:11.38	23.62	6.63	-35.9	-36.6	23.5	0.00e+00	0	40	0	303038464	44	6172
2026-01-25 15:56:15.42	23.82	6.92	-36.4	-37.1	22.9	0.00e+00	0	40	0	325058560	44	6535
2026-01-25 15:56:19.46	24.01	7.22	-35.6	-36.4	23.8	0.00e+00	0	40	0	348127232	44	5980
2026-01-25 15:56:23.50	24.21	7.52	-36.7	-37.5	23.0	0.00e+00	0	40	0	371195904	46	6040
2026-01-25 15:56:27.54	24.41	7.82	-35.8	-36.5	23.7	0.00e+00	0	40	0	393216000	44	6082
2026-01-25 15:56:31.58	24.62	8.13	-35.5	-36.2	24.1	0.00e+00	0	40	0	416284672	44	5871
2026-01-25 15:56:35.62	24.83	8.44	-35.2	-35.9	24.2	0.00e+00	0	40	0	439353344	44	5661
2026-01-25 15:56:39.66	25.05	8.75	-35.1	-35.8	24.5	0.00e+00	0	40	0	461373440	44	5598
2026-01-25 15:56:43.70	25.27	9.07	-35.6	-36.2	24.1	0.00e+00	0	40	0	484442112	44	5883
2026-01-25 15:56:47.74	25.49	9.39	-35.1	-35.8	24.5	0.00e+00	0	40	0	507510784	44	5582
2026-01-25 15:56:51.77	25.72	9.72	-35.3	-36.0	24.5	0.00e+00	0	40	0	529530880	44	5724
2026-01-25 15:56:55.81	25.95	10.05	-35.1	-35.8	24.6	0.00e+00	0	40	0	552599552	42	6313
2026-01-25 15:56:59.85	26.19	10.38	-34.6	-35.3	25.0	0.00e+00	0	40	0	575668224	42	5953
2026-01-25 15:57:03.88	26.43	10.72	-35.1	-35.8	24.7	0.00e+00	0	41	0	597688320	42	6285
2026-01-25 15:57:07.93	26.68	11.06	-34.9	-35.6	24.8	0.00e+00	0	41	0	620756992	42	6124
2026-01-25 15:57:11.97	26.94	11.41	-34.6	-35.2	25.2	0.00e+00	0	41	0	643825664	42	5883
2026-01-25 15:57:16.01	27.20	11.76	-34.7	-35.3	25.1	0.00e+00	0	41	0	665845760	42	5953
2026-01-25 15:57:20.05	27.46	12.11	-34.8	-35.5	25.0	0.00e+00	0	41	0	688914432	42	6043
2026-01-25 15:57:24.09	27.74	12.47	-35.0	-35.7	24.8	0.00e+00	0	41	0	711983104	42	6207
2026-01-25 15:57:28.13	28.01	12.84	-34.6	-35.3	25.2	0.00e+00	0	41	0	734003200	42	5934
2026-01-25 15:57:32.17	28.30	13.21	-34.6	-35.3	25.2	0.00e+00	0	41	0	757071872	42	5922
2026-01-25 15:57:36.21	28.59	13.58	-34.4	-35.0	25.3	0.00e+00	0	41	0	780140544	42	5756
2026-01-25 15:57:40.25	28.89	13.96	-34.1	-34.7	25.7	0.00e+00	0	41	0	802160640	42	5544
2026-01-25 15:57:44.29	29.20	14.35	-34.3	-35.0	25.6	0.00e+00	0	41	0	825229312	42	5703
2026-01-25 15:57:48.33	29.51	14.74	-33.9	-34.6	25.9	0.00e+00	0	41	0	848297984	42	5455
2026-01-25 15:57:52.37	29.83	15.14	-33.6	-34.3	26.1	0.00e+00	0	41	0	870318080	40	5904
2026-01-25 15:57:56.41	30.16	15.54	-33.8	-34.5	26.0	0.00e+00	0	41	0	893386752	40	6039
2026-01-25 15:58:00.45	30.50	15.95	-33.5	-34.1	26.2	0.00e+00	0	41	0	916455424	40	5827
2026-01-25 15:58:04.49	30.85	16.36	-33.2	-33.9	26.5	0.00e+00	0	41	0	938475520	40	5664
2026-01-25 15:58:08.52	31.20	16.78	-33.4	-34.1	26.4	0.00e+00	0	41	0	961544192	40	5772
2026-01-25 15:58:12.56	31.57	17.21	-33.3	-33.9	26.5	0.00e+00	0	41	0	984612864	40	5686
2026-01-25 15:58:16.60	31.94	17.64	-32.9	-33.5	26.8	0.00e+00	0	41	0	1006632960	40	5436
2026-01-25 15:58:20.64	32.33	18.08	-32.7	-33.4	26.9	0.00e+00	0	41	0	1029701632	38	5966
2026-01-25 15:58:24.68	32.73	18.53	-32.9	-33.6	26.8	0.00e+00	0	41	0	1052770304	38	6115
2026-01-25 15:58:28.72	33.14	18.99	-32.8	-33.5	26.9	0.00e+00	0	41	0	1074790400	38	6045
2026-01-25 15:58:32.76	33.56	19.45	-32.7	-33.4	27.0	0.00e+00	0	41	0	1097859072	38	5972
2026-01-25 15:58:36.80	33.99	19.92	-32.5	-33.1	27.1	0.00e+00	0	41	0	1120927744	38	5800
2026-01-25 15:58:40.84	34.44	20.39	-32.7	-33.3	27.0	0.00e+00	0	41	0	1143996416	38	5934
2026-01-25 15:58:44.88	34.90	20.88	-32.8	-33.4	27.1	0.00e+00	0	41	0	1166016512	38	5980
2026-01-25 15:58:48.92	35.37	21.37	-32.6	-33.3	27.0	0.00e+00	0	41	0	1189085184	38	5905
2026-01-25 15:58:52.96	35.86	21.87	-32.4	-33.0	27.3	0.00e+00	0	41	0	1211105280	38	5743
2026-01-25 15:58:56.99	36.36	22.37	-32.3	-32.9	27.3	0.00e+00	0	41	0	1234173952	38	5658
2026-01-25 15:59:01.03	36.88	22.89	-31.9	-32.5	27.7	0.00e+00	0	41	0	1257242624	38	5416
2026-01-25 15:59:05.07	37.42	23.41	-32.0	-32.6	27.6	0.00e+00	0	41	0	1279262720	38	5499
2026-01-25 15:59:09.10	37.97	23.94	-31.8	-32.4	27.8	0.00e+00	0	41	0	1302331392	38	5365
2026-01-25 15:59:13.14	38.55	24.48	-31.5	-32.1	28.0	0.00e+00	0	41	0	1325400064	36	5790
2026-01-25 15:59:17.18	39.14	25.03	-31.6	-32.2	27.9	0.00e+00	0	41	0	1347420160	36	5870
2026-01-25 15:59:21.22	39.76	25.59	-31.6	-32.3	27.9	0.00e+00	0	41	0	1370488832	36	5913
2026-01-25 15:59:25.26	40.39	26.15	-31.8	-32.4	27.8	0.00e+00	0	41	0	1393557504	36	6015
2026-01-25 15:59:29.29	41.05	26.72	-31.6	-32.2	28.0	0.00e+00	0	41	0	1415577600	36	5877
2026-01-25 15:59:33.33	41.73	27.30	-31.1	-31.8	28.2	0.00e+00	0	41	0	1438646272	36	5569
2026-01-25 15:59:37.37	42.44	27.89	-31.3	-31.9	28.2	0.00e+00	0	41	0	1461714944	36	5664
2026-01-25 15:59:41.40	43.17	28.49	-31.3	-32.0	28.1	0.00e+00	0	41	0	1483735040	36	5698
2026-01-25 15:59:45.44	43.93	29.10	-31.4	-32.0	28.1	0.00e+00	0	41	0	1506803712	36	5759
2026-01-25 15:59:49.48	44.71	29.71	-31.4	-32.0	28.1	0.00e+00	0	41	0	1529872384	36	5726
2026-01-25 15:59:53.52	45.53	30.33	-31.3	-31.9	28.1	0.00e+00	0	41	0	1551892480	36	5637
2026-01-25 15:59:57.56	46.38	30.96	-31.2	-31.9	28.3	0.00e+00	0	41	0	1574961152	36	5635
2026-01-25 16:00:01.60	47.27	31.60	-31.1	-31.7	28.3	0.00e+00	0	41	0	1598029824	36	5552
2026-01-25 16:00:05.64	48.18	32.24	-31.3	-31.9	28.2	0.00e+00	0	41	0	1620049920	36	5664
2026-01-25 16:00:09.68	49.14	32.89	-31.4	-32.0	28.2	0.00e+00	0	41	0	1643118592	36	5699
2026-01-25 16:00:13.72	50.13	33.54	-31.0	-31.7	28.4	0.00e+00	0	41	0	1666187264	36	5521
2026-01-25 16:00:17.76	51.16	34.20	-31.4	-32.1	28.1	0.00e+00	0	41	0	1688207360	36	5767
2026-01-25 16:00:21.80	52.24	34.86	-31.2	-31.8	28.4	0.00e+00	0	41	0	1711276032	36	5604
2026-01-25 16:00:25.83	53.35	35.52	-31.3	-31.9	28.2	0.00e+00	0	41	0	1734344704	36	5658
2026-01-25 16:00:29.87	54.52	36.19	-31.0	-31.6	28.5	0.00e+00	0	41	0	1756364800	36	5451
2026-01-25 16:00:33.91	55.73	36.85	-30.8	-31.4	28.7	0.00e+00	0	41	0	1779433472	34	6025
2026-01-25 16:00:37.95	56.99	37.52	-31.0	-31.6	28.5	0.00e+00	0	41	0	1802502144	34	6134
2026-01-25 16:00:41.98	58.30	38.18	-30.9	-31.5	28.5	0.00e+00	0	41	0	1824522240	34	6081
2026-01-25 16:00:46.02	59.67	38.84	-31.0	-31.7	28.4	0.00e+00	0	41	0	1847590912	34	6184
2026-01-25 16:00:50.06	61.09	39.49	-31.0	-31.6	28.5	0.00e+00	0	41	0	1870659584	34	6148
2026-01-25 16:00:54.10	62.57	40.13	-31.0	-31.6	28.3	0.00e+00	0	41	0	1892679680	34	6164
2026-01-25 16:00:58.14	64.11	40.77	-31.1	-31.7	28.4	0.00e+00	0	41	0	1915748352	34	6214
2026-01-25 16:01:02.17	65.70	41.39	-30.9	-31.5	28.5	0.00e+00	0	41	0	1938817024	34	6051
2026-01-25 16:01:06.21	67.36	42.00	-30.9	-31.5	28.6	0.00e+00	0	41	0	1960837120	34	6066
2026-01-25 16:01:10.25	69.09	42.59	-31.0	-31.6	28.4	0.00e+00	0	41	0	1983905792	34	6165
2026-01-25 16:01:14.29	70.87	43.16	-31.3	-31.9	28.2	0.00e+00	0	41	0	2006974464	34	6374
2026-01-25 16:01:18.34	72.72	43.70	-30.9	-31.6	28.4	0.00e+00	0	41	0	2028994560	34	6122
2026-01-25 16:01:22.37	74.63	44.22	-31.4	-32.1	28.1	0.00e+00	0	41	0	2052063232	34	6520
2026-01-25 16:01:26.42	76.60	44.71	-31.3	-31.9	28.2	0.00e+00	0	41	0	2075131904	34	6323
2026-01-25 16:01:30.45	78.63	45.17	-31.1	-31.7	28.3	0.00e+00	0	41	0	2097152000	34	6210
2026-01-25 16:01:34.48	80.71	45.60	-31.6	-32.3	27.9	0.00e+00	0	41	0	2120220672	36	5902
2026-01-25 16:01:38.52	82.85	45.98	-31.3	-32.0	28.1	0.00e+00	0	41	0	2143289344	36	5706
2026-01-25 16:01:42.56	85.04	46.33	-31.4	-32.0	28.1	0.00e+00	0	41	0	2165309440	36	5753
2026-01-25 16:01:46.59	87.27	46.63	-31.1	-31.7	28.4	0.00e+00	0	41	0	2188378112	36	5503
2026-01-25 16:01:50.63	89.55	46.89	-31.8	-32.4	27.8	0.00e+00	0	41	0	2210398208	36	6000
2026-01-25 16:01:54.67	91.86	47.10	-31.9	-32.5	27.8	0.00e+00	0	41	0	2233466880	36	6064
2026-01-25 16:01:58.71	94.20	47.26	-31.1	-31.7	28.3	0.00e+00	0	41	0	2256535552	36	5515
2026-01-25 16:02:02.74	96.55	47.36	-31.6	-32.2	28.0	0.00e+00	0	41	0	2279604224	36	5849
2026-01-25 16:02:06.77	98.92	47.42	-31.3	-31.9	28.2	0.00e+00	0	41	0	2301624320	36	5677
2026-01-25 16:02:10.81	101.29	47.43	-31.5	-32.1	28.1	0.00e+00	0	41	0	2324692992	36	5789
2026-01-25 16:02:14.85	103.67	47.38	-31.6	-32.2	27.6	0.00e+00	0	41	0	2347761664	36	5864
2026-01-25 16:02:18.89	106.03	47.28	-31.7	-32.3	27.7	0.00e+00	0	41	0	2369781760	36	5936
2026-01-25 16:02:22.92	108.37	47.13	-31.5	-32.2	28.0	0.00e+00	0	41	0	2392850432	36	5866
2026-01-25 16:02:26.96	110.68	46.93	-31.6	-32.3	27.9	0.00e+00	0	41	0	2414870528	36	5954
2026-01-25 16:02:31.00	112.97	46.68	-31.8	-32.4	27.7	0.00e+00	0	41	0	2437939200	36	5972
2026-01-25 16:02:35.03	115.21	46.39	-31.8	-32.4	27.9	0.00e+00	0	41	0	2461007872	36	6016
2026-01-25 16:02:39.07	117.41	46.05	-32.0	-32.6	27.7	0.00e+00	0	41	0	2483027968	36	6171
2026-01-25 16:02:43.11	119.57	45.67	-31.5	-32.1	28.1	0.00e+00	0	41	0	2506096640	36	5762
2026-01-25 16:02:47.15	121.67	45.25	-31.2	-31.8	28.2	0.00e+00	0	41	0	2529165312	36	5617
2026-01-25 16:02:51.18	123.70	44.79	-31.4	-32.0	28.1	0.00e+00	0	41	0	2551185408	36	5707
2026-01-25 16:02:55.22	125.69	44.31	-31.6	-32.3	27.9	0.00e+00	0	41	0	2574254080	36	5939
2026-01-25 16:02:59.26	127.61	43.79	-31.5	-32.2	28.0	0.00e+00	0	41	0	2597322752	36	5842
2026-01-25 16:03:03.30	129.48	43.25	-31.3	-31.9	28.2	0.00e+00	0	41	0	2619342848	36	5666
2026-01-25 16:03:07.34	131.28	42.68	-31.2	-31.8	28.3	0.00e+00	0	41	0	2642411520	36	5596
2026-01-25 16:03:11.37	133.01	42.09	-31.3	-31.9	28.2	0.00e+00	0	41	0	2665480192	36	5637
2026-01-25 16:03:15.41	134.68	41.49	-30.9	-31.5	28.4	0.00e+00	0	41	0	2687500288	36	5420
2026-01-25 16:03:19.45	136.30	40.86	-30.9	-31.5	28.4	0.00e+00	0	41	0	2710568960	36	5404
2026-01-25 16:03:23.48	137.85	40.23	-31.0	-31.5	28.4	0.00e+00	0	41	0	2733637632	36	5428
2026-01-25 16:03:27.52	139.34	39.59	-30.9	-31.4	28.5	0.00e+00	0	41	0	2755657728	34	6003
2026-01-25 16:03:31.56	140.77	38.93	-30.7	-31.4	28.6	0.00e+00	0	41	0	2778726400	34	6000
2026-01-25 16:03:35.60	142.15	38.27	-30.8	-31.3	28.4	0.00e+00	0	41	0	2801795072	34	5963
2026-01-25 16:03:39.64	143.48	37.61	-30.6	-31.1	28.6	0.00e+00	0	41	0	2823815168	34	5803
2026-01-25 16:03:43.68	144.75	36.94	-31.0	-31.7	27.6	0.00e+00	0	41	0	2846883840	34	6223
2026-01-25 16:03:47.71	145.97	36.27	-30.6	-31.2	28.2	0.00e+00	0	41	0	2869952512	34	5853
2026-01-25 16:03:51.75	147.15	35.60	-30.8	-31.5	28.4	0.00e+00	0	41	0	2891972608	34	6067
2026-01-25 16:03:55.79	148.28	34.93	-31.0	-31.5	28.3	0.00e+00	0	41	0	2915041280	34	6070
2026-01-25 16:03:59.82	149.36	34.27	-31.0	-31.7	28.2	0.00e+00	0	41	0	2938109952	34	6184
2026-01-25 16:04:03.86	150.40	33.61	-30.7	-31.4	28.5	0.00e+00	0	41	0	2960130048	34	6008
2026-01-25 16:04:07.90	151.40	32.95	-31.2	-31.7	28.1	0.00e+00	0	41	0	2983198720	34	6226
2026-01-25 16:04:11.94	152.37	32.30	-31.0	-31.5	28.3	0.00e+00	0	41	0	3005218816	34	6070
2026-01-25 16:04:15.98	153.29	31.65	-31.2	-31.7	28.2	0.00e+00	0	41	0	3028287488	34	6216
2026-01-25 16:04:20.02	154.18	31.01	-31.1	-31.7	28.1	0.00e+00	0	41	0	3051356160	34	6198
2026-01-25 16:04:24.06	155.04	30.38	-30.9	-31.5	28.3	0.00e+00	0	41	0	3074424832	34	6052
2026-01-25 16:04:28.10	155.86	29.75	-31.3	-32.0	28.1	0.00e+00	0	41	0	3096444928	34	6448
2026-01-25 16:04:32.13	156.66	29.14	-32.0	-32.6	27.6	0.00e+00	0	41	0	3119513600	36	6161
2026-01-25 16:04:36.17	157.42	28.53	-31.1	-31.6	28.2	0.00e+00	0	41	0	3142582272	36	5495
2026-01-25 16:04:40.21	158.16	27.92	-31.2	-31.7	28.2	0.00e+00	0	41	0	3164602368	36	5532
2026-01-25 16:04:44.25	158.87	27.33	-31.1	-31.6	28.2	0.00e+00	0	41	0	3187671040	36	5477
2026-01-25 16:04:48.28	159.55	26.74	-31.4	-31.9	28.0	0.00e+00	0	41	0	3209691136	36	5684
2026-01-25 16:04:52.32	160.22	26.17	-31.5	-32.1	27.9	0.00e+00	0	41	0	3232759808	36	5811
2026-01-25 16:04:56.36	160.86	25.60	-31.5	-32.0	28.0	0.00e+00	0	41	0	3255828480	36	5741
2026-01-25 16:05:00.40	161.47	25.04	-31.5	-32.0	27.9	0.00e+00	0	41	0	3278897152	36	5731
2026-01-25 16:05:04.43	162.07	24.48	-31.5	-32.0	27.9	0.00e+00	0	41	0	3300917248	36	5743
2026-01-25 16:05:08.47	162.65	23.94	-31.7	-32.3	27.8	0.00e+00	0	41	0	3323985920	36	5911
2026-01-25 16:05:12.51	163.20	23.40	-32.1	-32.8	27.5	0.00e+00	0	41	0	3347054592	36	6254
2026-01-25 16:05:16.54	163.74	22.88	-32.2	-32.9	27.4	0.00e+00	0	41	0	3369074688	36	6367
2026-01-25 16:05:20.58	164.27	22.36	-32.4	-33.0	27.2	0.00e+00	0	41	0	3392143360	36	6395
2026-01-25 16:05:24.61	164.77	21.85	-32.3	-32.9	27.2	0.00e+00	0	41	0	3414163456	36	6329
2026-01-25 16:05:28.65	165.26	21.35	-32.2	-32.8	27.3	0.00e+00	0	41	0	3437232128	36	6281
2026-01-25 16:05:32.69	165.74	20.85	-32.4	-33.1	27.2	0.00e+00	0	41	0	3460300800	36	6481
2026-01-25 16:05:36.72	166.20	20.37	-32.4	-33.0	27.1	0.00e+00	0	41	0	3482320896	36	6441
2026-01-25 16:05:40.76	166.65	19.89	-32.7	-33.4	27.0	0.00e+00	0	41	0	3505389568	38	5992
2026-01-25 16:05:44.79	167.08	19.42	-32.7	-33.2	26.9	0.00e+00	0	41	0	3528458240	38	5888
2026-01-25 16:05:48.83	167.50	18.95	-32.7	-33.5	26.9	0.00e+00	0	41	0	3550478336	38	6035
2026-01-25 16:05:52.86	167.91	18.49	-32.9	-33.6	26.7	0.00e+00	0	41	0	3573547008	38	6155
2026-01-25 16:05:56.90	168.31	18.04	-33.1	-33.8	26.6	0.00e+00	0	41	0	3596615680	38	6293
2026-01-25 16:06:00.94	168.69	17.60	-33.3	-33.9	26.3	0.00e+00	0	41	0	3618635776	38	6351
2026-01-25 16:06:04.98	169.07	17.16	-33.3	-33.9	26.3	0.00e+00	0	41	0	3641704448	38	6368
2026-01-25 16:06:09.03	169.44	16.73	-33.5	-34.0	26.2	0.00e+00	0	42	0	3664773120	38	6459
2026-01-25 16:06:13.06	169.79	16.31	-33.6	-34.2	26.1	0.00e+00	0	41	0	3686793216	38	6575
2026-01-25 16:06:17.10	170.14	15.89	-33.8	-34.5	25.9	0.00e+00	0	41	0	3709861888	40	6080
2026-01-25 16:06:21.14	170.48	15.48	-33.9	-34.5	25.7	0.00e+00	0	41	0	3732930560	40	6068
2026-01-25 16:06:25.17	170.81	15.07	-34.0	-34.6	25.7	0.00e+00	0	42	0	3754950656	40	6151
2026-01-25 16:06:29.21	171.13	14.67	-33.9	-34.5	25.7	0.00e+00	0	42	0	3778019328	40	6071
2026-01-25 16:06:33.25	171.44	14.28	-34.2	-34.8	25.6	0.00e+00	0	41	0	3801088000	40	6287
2026-01-25 16:06:37.29	171.75	13.89	-34.1	-34.9	25.5	0.00e+00	0	42	0	3823108096	40	6348
2026-01-25 16:06:41.32	172.04	13.51	-34.4	-35.2	25.1	0.00e+00	0	42	0	3846176768	40	6576
2026-01-25 16:06:45.36	172.33	13.13	-35.0	-35.6	24.7	0.00e+00	0	41	0	3869245440	42	6148
2026-01-25 16:06:49.40	172.62	12.76	-34.6	-35.3	25.0	0.00e+00	0	41	0	3891265536	42	5903
2026-01-25 16:06:53.44	172.90	12.39	-34.7	-35.3	24.9	0.00e+00	0	42	0	3914334208	42	5959
2026-01-25 16:06:57.48	173.17	12.03	-34.5	-35.3	25.1	0.00e+00	0	42	0	3936354304	42	5915
2026-01-25 16:07:01.51	173.43	11.67	-34.5	-35.1	25.1	0.00e+00	0	42	0	3959422976	42	5791
2026-01-25 16:07:05.54	173.69	11.32	-34.6	-35.2	25.0	0.00e+00	0	42	0	3982491648	42	5871
2026-01-25 16:07:09.58	173.94	10.97	-34.7	-35.3	24.9	0.00e+00	0	42	0	4004511744	42	5918
2026-01-25 16:07:13.63	174.19	10.63	-34.8	-35.5	24.8	0.00e+00	0	42	0	4027580416	42	6082
2026-01-25 16:07:17.67	174.43	10.29	-34.9	-35.5	24.6	0.00e+00	0	41	0	4050649088	42	6101
2026-01-25 16:07:21.71	174.67	9.95	-35.0	-35.7	24.6	0.00e+00	0	42	0	4073717760	42	6225
2026-01-25 16:07:25.75	174.90	9.62	-35.0	-35.7	24.5	0.00e+00	0	42	0	4095737856	42	6175
2026-01-25 16:07:29.79	175.13	9.29	-35.1	-35.7	24.4	0.00e+00	0	42	0	4118806528	42	6241
2026-01-25 16:07:33.83	175.35	8.97	-35.1	-35.9	24.5	0.00e+00	0	41	0	4140826624	42	6353
2026-01-25 16:07:37.87	175.57	8.65	-35.7	-36.3	23.9	0.00e+00	0	41	0	4163895296	44	5956
2026-01-25 16:07:41.90	175.78	8.33	-35.4	-36.1	24.2	0.00e+00	0	41	0	4186963968	44	5822
2026-01-25 16:07:45.94	175.99	8.02	-35.5	-36.1	24.0	0.00e+00	0	41	0	4208984064	44	5794
2026-01-25 16:07:49.98	176.19	7.71	-35.7	-36.3	23.8	0.00e+00	0	41	0	4232052736	44	5958
2026-01-25 16:07:54.01	176.39	7.41	-35.8	-36.6	23.6	0.00e+00	0	41	0	4255121408	44	6153
2026-01-25 16:07:58.06	176.59	7.11	-35.9	-36.6	23.6	0.00e+00	0	41	0	4278190080	44	6111
2026-01-25 16:08:02.09	176.78	6.81	-36.1	-36.9	23.3	0.00e+00	0	41	0	4300210176	44	6327
2026-01-25 16:08:06.13	176.97	6.51	-36.4	-37.0	23.0	0.00e+00	0	41	0	4323278848	44	6458
2026-01-25 16:08:10.16	177.16	6.22	-35.9	-36.6	23.5	0.00e+00	0	41	0	4345298944	44	6124
2026-01-25 16:08:14.20	177.34	5.93	-36.3	-37.1	22.9	0.00e+00	0	41	0	4368367616	44	6537
2026-01-25 16:08:18.24	177.52	5.64	-36.4	-37.1	22.9	0.00e+00	0	41	0	4391436288	46	5819
2026-01-25 16:08:22.28	177.70	5.36	-36.5	-37.3	22.7	0.00e+00	0	41	0	4413456384	46	5945
2026-01-25 16:08:26.32	177.87	5.08	-36.4	-37.1	23.0	0.00e+00	0	41	0	4436525056	46	5781
2026-01-25 16:08:30.36	178.04	4.80	-36.7	-37.6	22.5	0.00e+00	0	41	0	4459593728	46	6109
2026-01-25 16:08:34.39	178.21	4.53	-37.6	-38.3	21.6	0.00e+00	0	41	0	4482662400	46	6679
2026-01-25 16:08:38.43	178.37	4.25	-36.7	-37.4	22.6	0.00e+00	0	41	0	4504682496	46	6006
2026-01-25 16:08:42.47	178.53	3.98	-37.3	-38.2	21.9	0.00e+00	0	41	0	4527751168	46	6557
2026-01-25 16:08:46.51	178.69	3.72	-36.9	-37.8	22.3	0.00e+00	0	41	0	4549771264	48	5577
2026-01-25 16:08:50.54	178.85	3.45	-37.9	-38.7	21.2	0.00e+00	0	41	0	4572839936	48	6175
2026-01-25 16:08:54.58	179.00	3.19	-38.1	-38.9	21.1	0.00e+00	0	41	0	4595908608	48	6367
2026-01-25 16:08:58.61	179.15	2.93	-49.4	-61.4	3.6	8.45e-01	0	41	104	4611637248	60	42692
2026-01-25 16:09:02.65	179.30	2.67	-49.9	-62.0	3.6	8.46e-01	0	41	104	4611637248	60	45419
2026-01-25 16:09:06.69	179.45	2.42	-50.0	-62.1	3.6	8.45e-01	0	41	104	4611637248	60	46088
2026-01-25 16:09:10.73	179.59	2.16	-50.1	-62.3	3.6	8.45e-01	0	41	104	4611637248	60	46998
2026-01-25 16:09:14.77	179.73	1.91	-50.1	-62.2	3.6	8.45e-01	0	41	104	4611637248	60	46573
2026-01-25 16:09:18.81	179.87	1.66	-50.0	-62.2	3.6	8.45e-01	0	41	104	4611637248	60	46505
2026-01-25 16:09:22.85	180.01	1.41	-50.1	-62.2	3.6	8.46e-01	0	41	104	4611637248	60	46531
2026-01-25 16:09:26.89	180.15	1.17	-50.0	-62.2	3.6	8.47e-01	0	41	104	4611637248	60	46688
2026-01-25 16:09:30.93	180.28	0.92	-50.1	-62.2	3.6	8.44e-01	0	41	104	4611637248	60	46559
2026-01-25 16:09:34.97	180.41	0.68	-50.0	-62.2	3.6	8.45e-01	0	41	104	4611637248	60	46767
2026-01-25 16:09:39.01	180.54	0.44	-50.0	-62.2	3.6	8.44e-01	0	41	104	4611637248	60	46351
2026-01-25 16:09:43.05	180.67	0.21	-50.0	-62.2	3.6	8.44e-01	0	41	104	4611637248	60	46416
2026-01-25 16:09:47.09	180.80	-0.03	-50.0	-62.2	3.6	8.45e-01	0	41	104	4611637248	60	46490

#Closed at: 2026-01-25 16:09:48
#Recorded file [4611 MB]: D:/lorett/data/35029_260126_035430.dat