passes_logs/2026/01/25/R4.6S_Anadyr/R4.6S_Anadyr__20260125_004141_NOAA_21_JPSS-2_rec.log

#Pass ID: 20260125_004141_NOAA 21 (JPSS-2)
#Satellite: NOAA 21 (JPSS-2)
#Configuration: NOAA-21
#almurnet v.1.7.20251203
#Start time: 2026-01-25 00:41:43

#Version: 2.2.20231116
#Station: R4.6S_Anadyr
#Location: 177.4865 lon 64.73178 lat
#TLE: 1 54234U 22150A   26024.45772595  .00000201  00000+0  11607-3 0  9996
#TLE: 2 54234  98.7508 325.2435 0000728 220.7365 139.3757 14.19538765166156

#Time	Az	El	Level	Level2	SNR	BER	BlckErr	Temp	State	Recorded	gain1	gain2
2026-01-25 00:41:43.14	168.22	0.08	-51.4	-66.3	3.5	1.51e+00	0	39	0	0	60	74653
2026-01-25 00:41:47.17	168.29	0.32	-51.4	-64.2	3.5	1.52e+00	0	40	104	0	60	57242
2026-01-25 00:41:51.22	168.36	0.57	-51.2	-64.1	3.5	1.52e+00	0	40	104	0	60	56286
2026-01-25 00:41:55.26	168.43	0.81	-51.1	-63.9	3.5	1.52e+00	0	40	104	0	60	55023
2026-01-25 00:41:59.30	168.51	1.06	-50.8	-63.7	3.5	1.52e+00	0	41	104	0	60	53621
2026-01-25 00:42:03.34	168.58	1.31	-50.5	-63.3	3.5	1.52e+00	0	41	104	0	60	51483
2026-01-25 00:42:07.38	168.66	1.57	-49.8	-62.5	3.5	1.52e+00	0	41	104	0	60	47025
2026-01-25 00:42:11.42	168.74	1.82	-49.7	-62.2	3.5	1.51e+00	0	41	104	0	60	45227
2026-01-25 00:42:15.45	168.82	2.08	-49.8	-62.6	3.5	1.52e+00	0	41	104	0	60	47377
2026-01-25 00:42:19.49	168.90	2.33	-49.7	-62.2	3.5	1.52e+00	0	41	104	0	60	45326
2026-01-25 00:42:23.53	168.98	2.60	-49.7	-61.5	3.5	1.51e+00	0	41	104	0	60	41835
2026-01-25 00:42:27.57	169.06	2.86	-49.7	-61.8	3.5	1.51e+00	0	41	104	0	60	43292
2026-01-25 00:42:31.61	169.14	3.13	-47.0	-50.3	11.4	8.32e-03	123	41	0	3145728	60	11528
2026-01-25 00:42:35.65	169.23	3.39	-43.2	-45.0	17.0	0.00e+00	123	41	0	14680064	60	6210
2026-01-25 00:42:39.69	169.31	3.67	-41.9	-43.4	18.5	0.00e+00	122	41	0	28311552	56	6519
2026-01-25 00:42:43.73	169.40	3.94	-47.3	-51.4	7.3	0.00e+00	120	41	0	40894464	60	13003
2026-01-25 00:42:47.77	169.49	4.22	-43.6	-45.3	16.5	0.00e+00	122	41	0	42991616	60	6437
2026-01-25 00:42:51.81	169.58	4.50	-43.1	-44.7	17.3	0.00e+00	120	41	0	55574528	60	6064
2026-01-25 00:42:55.85	169.67	4.78	-44.0	-45.8	16.7	0.00e+00	121	41	0	68157440	60	6830
2026-01-25 00:42:59.88	169.77	5.06	-44.2	-46.1	16.5	0.00e+00	122	41	0	80740352	60	7058
2026-01-25 00:43:03.92	169.86	5.35	-42.9	-44.5	17.8	0.00e+00	123	41	0	94371840	58	6578
2026-01-25 00:43:07.96	169.96	5.64	-41.7	-43.1	18.9	0.00e+00	121	41	0	106954752	56	6281
2026-01-25 00:43:11.99	170.06	5.94	-40.8	-42.1	19.7	0.00e+00	122	41	0	118489088	54	6279
2026-01-25 00:43:16.04	170.16	6.24	-40.6	-41.8	20.1	0.00e+00	122	41	0	132120576	54	6072
2026-01-25 00:43:20.07	170.26	6.54	-40.5	-41.7	20.2	0.00e+00	122	41	0	144703488	54	6030
2026-01-25 00:43:24.11	170.36	6.84	-40.0	-41.1	20.9	0.00e+00	122	41	0	157286400	54	5645
2026-01-25 00:43:28.15	170.47	7.15	-39.9	-41.0	21.0	0.00e+00	123	41	0	169869312	52	6274
2026-01-25 00:43:32.19	170.57	7.46	-39.8	-40.9	21.1	0.00e+00	123	41	0	182452224	52	6156
2026-01-25 00:43:36.22	170.68	7.78	-39.5	-40.6	21.4	0.00e+00	123	42	0	195035136	52	5960
2026-01-25 00:43:40.25	170.80	8.10	-39.7	-40.8	21.2	0.00e+00	122	42	0	207618048	52	6119
2026-01-25 00:43:44.28	170.91	8.42	-39.6	-40.7	21.4	0.00e+00	125	42	0	220200960	52	6022
2026-01-25 00:43:48.32	171.03	8.75	-39.6	-40.7	21.3	0.00e+00	120	42	0	232783872	52	6009
2026-01-25 00:43:52.36	171.14	9.08	-39.7	-40.8	21.2	0.00e+00	123	42	0	245366784	52	6116
2026-01-25 00:43:56.39	171.26	9.42	-39.3	-40.4	21.6	0.00e+00	120	42	0	257949696	52	5819
2026-01-25 00:44:00.43	171.39	9.76	-38.9	-40.0	22.0	0.00e+00	123	42	0	270532608	50	6224
2026-01-25 00:44:04.46	171.51	10.10	-38.3	-39.4	22.4	0.00e+00	122	42	0	283115520	50	5792
2026-01-25 00:44:08.50	171.64	10.46	-38.5	-39.5	22.3	0.00e+00	123	42	0	295698432	50	5916
2026-01-25 00:44:12.54	171.77	10.81	-38.6	-39.6	22.3	0.00e+00	121	42	0	308281344	50	5951
2026-01-25 00:44:16.58	171.91	11.17	-38.4	-39.4	22.4	0.00e+00	122	42	0	320864256	50	5858
2026-01-25 00:44:20.62	172.05	11.54	-38.4	-39.4	22.5	0.00e+00	123	42	0	333447168	50	5800
2026-01-25 00:44:24.66	172.19	11.91	-38.5	-39.5	22.5	0.00e+00	122	42	0	346030080	50	5884
2026-01-25 00:44:28.70	172.33	12.29	-38.1	-39.1	22.7	0.00e+00	122	42	0	358612992	50	5603
2026-01-25 00:44:32.74	172.48	12.67	-38.1	-39.1	22.8	0.00e+00	123	42	0	371195904	50	5599
2026-01-25 00:44:36.78	172.63	13.06	-38.4	-39.4	22.6	0.00e+00	122	42	0	383778816	50	5804
2026-01-25 00:44:40.81	172.78	13.45	-37.9	-38.8	23.1	0.00e+00	122	42	0	396361728	50	5465
2026-01-25 00:44:44.85	172.94	13.86	-38.0	-39.0	22.9	0.00e+00	122	42	0	408944640	50	5564
2026-01-25 00:44:48.89	173.11	14.26	-37.9	-38.9	23.0	0.00e+00	122	42	0	421527552	48	6141
2026-01-25 00:44:52.92	173.27	14.68	-38.0	-39.0	22.9	0.00e+00	123	42	0	434110464	48	6241
2026-01-25 00:44:56.96	173.44	15.10	-37.9	-38.9	23.0	0.00e+00	120	42	0	446693376	48	6171
2026-01-25 00:45:00.99	173.62	15.53	-38.0	-39.0	23.0	0.00e+00	123	42	0	459276288	48	6213
2026-01-25 00:45:05.03	173.80	15.96	-38.1	-39.1	22.8	0.00e+00	122	42	0	471859200	48	6291
2026-01-25 00:45:09.07	173.98	16.41	-38.0	-39.0	23.0	0.00e+00	123	42	0	484442112	48	6248
2026-01-25 00:45:13.11	174.17	16.86	-38.0	-39.0	23.0	0.00e+00	122	42	0	498073600	48	6212
2026-01-25 00:45:17.15	174.37	17.32	-38.1	-39.0	22.8	0.00e+00	122	42	0	510656512	48	6269
2026-01-25 00:45:21.19	174.57	17.79	-38.0	-38.9	23.0	0.00e+00	122	42	0	523239424	48	6197
2026-01-25 00:45:25.23	174.78	18.27	-37.8	-38.8	23.1	0.00e+00	123	42	0	535822336	48	6075
2026-01-25 00:45:29.27	174.99	18.75	-37.7	-38.6	23.2	0.00e+00	122	42	0	548405248	48	5993
2026-01-25 00:45:33.31	175.21	19.25	-37.6	-38.6	23.1	0.00e+00	122	42	0	560988160	48	5959
2026-01-25 00:45:37.35	175.44	19.76	-37.4	-38.3	23.3	0.00e+00	123	42	0	573571072	48	5788
2026-01-25 00:45:41.38	175.67	20.27	-37.3	-38.2	23.4	0.00e+00	120	42	0	586153984	48	5705
2026-01-25 00:45:45.42	175.91	20.80	-37.3	-38.2	23.6	0.00e+00	122	42	0	598736896	48	5686
2026-01-25 00:45:49.46	176.16	21.34	-37.0	-38.0	23.7	0.00e+00	122	42	0	611319808	48	5542
2026-01-25 00:45:53.50	176.42	21.88	-36.7	-37.7	23.9	0.00e+00	122	42	0	623902720	46	6007
2026-01-25 00:45:57.54	176.69	22.44	-36.5	-37.4	24.2	0.00e+00	127	42	0	636485632	46	5845
2026-01-25 00:46:01.58	176.96	23.02	-36.3	-37.3	24.3	0.00e+00	122	42	0	649068544	46	5726
2026-01-25 00:46:05.62	177.25	23.60	-36.0	-36.9	24.5	0.00e+00	123	42	0	661651456	46	5488
2026-01-25 00:46:09.65	177.54	24.20	-36.0	-36.9	24.6	0.00e+00	120	42	0	674234368	46	5483
2026-01-25 00:46:13.69	177.85	24.81	-36.1	-37.0	24.6	0.00e+00	123	42	0	686817280	46	5557
2026-01-25 00:46:17.72	178.17	25.43	-36.6	-37.6	24.2	0.00e+00	123	42	0	699400192	46	5931
2026-01-25 00:46:21.76	178.50	26.07	-37.1	-38.0	24.0	0.00e+00	123	42	0	711983104	46	6219
2026-01-25 00:46:25.80	178.84	26.72	-37.3	-38.2	23.7	0.00e+00	122	42	0	724566016	46	6361
2026-01-25 00:46:29.83	179.20	27.38	-37.2	-38.1	23.8	0.00e+00	123	42	0	737148928	46	6340
2026-01-25 00:46:33.87	179.57	28.07	-37.7	-38.7	23.4	0.00e+00	123	42	0	749731840	46	6738
2026-01-25 00:46:37.91	179.96	28.76	-38.1	-39.0	23.1	0.00e+00	120	42	0	762314752	48	6272
2026-01-25 00:46:41.95	180.36	29.48	-38.2	-39.2	22.8	0.00e+00	120	42	0	774897664	48	6390
2026-01-25 00:46:45.99	180.79	30.21	-37.7	-38.7	23.5	0.00e+00	123	42	0	787480576	48	6013
2026-01-25 00:46:50.03	181.23	30.96	-37.3	-38.2	23.8	0.00e+00	123	42	0	800063488	48	5713
2026-01-25 00:46:54.06	181.69	31.73	-37.2	-38.2	23.9	0.00e+00	120	42	0	812646400	48	5674
2026-01-25 00:46:58.10	182.17	32.51	-37.4	-38.3	23.8	0.00e+00	120	42	0	825229312	48	5750
2026-01-25 00:47:02.13	182.68	33.31	-37.5	-38.4	23.7	0.00e+00	123	42	0	837812224	48	5845
2026-01-25 00:47:06.17	183.21	34.14	-37.8	-38.7	23.5	0.00e+00	120	42	0	850395136	48	6047
2026-01-25 00:47:10.20	183.77	34.98	-38.4	-39.4	22.9	0.00e+00	123	42	0	864026624	48	6518
2026-01-25 00:47:14.24	184.36	35.84	-39.0	-40.0	22.4	0.00e+00	123	42	0	875560960	50	6232
2026-01-25 00:47:18.28	184.98	36.73	-39.2	-40.2	22.2	0.00e+00	123	42	0	889192448	50	6414
2026-01-25 00:47:22.32	185.63	37.63	-39.2	-40.3	22.3	0.00e+00	122	42	0	901775360	50	6445
2026-01-25 00:47:26.36	186.32	38.56	-39.1	-40.1	22.3	0.00e+00	121	42	0	914358272	50	6338
2026-01-25 00:47:30.39	187.05	39.50	-39.2	-40.2	22.1	0.00e+00	123	42	0	926941184	50	6422
2026-01-25 00:47:34.43	187.82	40.47	-39.4	-40.5	21.7	0.00e+00	122	42	0	939524096	50	6602
2026-01-25 00:47:38.47	188.64	41.45	-40.1	-41.2	21.3	0.00e+00	120	42	0	952107008	52	6395
2026-01-25 00:47:42.51	189.51	42.46	-39.7	-40.8	21.5	0.00e+00	122	42	0	964689920	52	6113
2026-01-25 00:47:46.55	190.44	43.49	-40.5	-41.6	21.1	0.00e+00	123	42	0	977272832	52	6716
2026-01-25 00:47:50.59	191.43	44.54	-40.6	-41.7	21.0	0.00e+00	123	42	0	989855744	54	6057
2026-01-25 00:47:54.62	192.48	45.60	-40.2	-41.3	21.3	0.00e+00	123	42	0	1002438656	54	5749
2026-01-25 00:47:58.66	193.61	46.68	-40.0	-41.1	21.4	0.00e+00	123	42	0	1015021568	54	5651
2026-01-25 00:48:02.70	194.82	47.78	-39.3	-40.3	22.1	0.00e+00	120	42	0	1027604480	52	5750
2026-01-25 00:48:06.73	196.11	48.90	-38.6	-39.6	22.8	0.00e+00	123	42	0	1040187392	50	5951
2026-01-25 00:48:10.77	197.50	50.02	-38.9	-39.9	22.6	0.00e+00	122	42	0	1052770304	50	6149
2026-01-25 00:48:14.81	199.00	51.16	-38.7	-39.7	22.8	0.00e+00	120	42	0	1065353216	50	6020
2026-01-25 00:48:18.84	200.61	52.30	-38.6	-39.6	22.9	0.00e+00	123	42	0	1077936128	50	5927
2026-01-25 00:48:22.88	202.35	53.44	-37.8	-38.7	23.6	0.00e+00	120	42	0	1090519040	50	5375
2026-01-25 00:48:26.92	204.23	54.58	-37.9	-38.9	23.4	0.00e+00	123	42	0	1103101952	50	5480
2026-01-25 00:48:30.96	206.27	55.71	-37.6	-38.6	23.6	0.00e+00	123	42	0	1115684864	48	5936
2026-01-25 00:48:35.00	208.47	56.83	-37.5	-38.4	23.5	0.00e+00	127	42	0	1128267776	48	5852
2026-01-25 00:48:39.03	210.86	57.92	-37.4	-38.3	23.7	0.00e+00	122	42	0	1140850688	48	5780
2026-01-25 00:48:43.07	213.44	58.99	-36.7	-37.6	24.4	0.00e+00	123	42	0	1153433600	46	5964
2026-01-25 00:48:47.11	216.24	60.01	-36.0	-36.9	24.8	0.00e+00	120	42	0	1166016512	46	5508
2026-01-25 00:48:51.15	219.27	60.99	-35.9	-36.8	24.9	0.00e+00	120	42	0	1178599424	46	5449
2026-01-25 00:48:55.18	222.52	61.91	-35.9	-36.8	24.9	0.00e+00	122	42	0	1191182336	46	5426
2026-01-25 00:48:59.22	226.02	62.75	-36.4	-37.3	24.6	0.00e+00	123	42	0	1203765248	44	6455
2026-01-25 00:49:03.26	229.76	63.51	-36.2	-37.0	24.9	0.00e+00	123	42	0	1216348160	46	5592
2026-01-25 00:49:07.30	233.73	64.17	-36.6	-37.5	24.6	0.00e+00	122	42	0	1228931072	46	5867
2026-01-25 00:49:11.34	237.91	64.72	-36.1	-37.0	24.8	0.00e+00	123	42	0	1241513984	46	5579
2026-01-25 00:49:15.37	242.27	65.14	-35.7	-36.6	25.1	0.00e+00	122	42	0	1255145472	44	5957
2026-01-25 00:49:19.41	246.77	65.44	-36.4	-37.3	24.5	0.00e+00	120	42	0	1267728384	44	6493
2026-01-25 00:49:23.45	251.37	65.59	-35.9	-36.8	24.9	0.00e+00	123	42	0	1280311296	44	6107
2026-01-25 00:49:27.49	256.01	65.61	-36.2	-37.1	24.6	0.00e+00	122	42	0	1292894208	44	6299
2026-01-25 00:49:31.53	260.62	65.48	-37.3	-38.2	24.0	0.00e+00	122	42	0	1305477120	46	6408
2026-01-25 00:49:35.57	265.15	65.21	-36.2	-37.1	24.9	0.00e+00	122	42	0	1318060032	46	5641
2026-01-25 00:49:39.61	269.54	64.81	-36.7	-37.6	24.3	0.00e+00	120	42	0	1330642944	46	5970
2026-01-25 00:49:43.64	273.75	64.29	-36.9	-37.9	24.2	0.00e+00	122	42	0	1343225856	46	6140
2026-01-25 00:49:47.69	277.77	63.65	-36.5	-37.4	24.5	0.00e+00	123	42	0	1355808768	46	5820
2026-01-25 00:49:51.72	281.55	62.92	-37.0	-37.9	24.4	0.00e+00	120	42	0	1368391680	46	6186
2026-01-25 00:49:55.76	285.09	62.09	-37.3	-38.2	24.0	0.00e+00	123	42	0	1380974592	46	6414
2026-01-25 00:49:59.80	288.40	61.19	-37.7	-38.6	23.8	0.00e+00	122	42	0	1393557504	48	5954
2026-01-25 00:50:03.84	291.47	60.23	-37.6	-38.6	23.7	0.00e+00	122	42	0	1406140416	46	6665
2026-01-25 00:50:07.87	294.30	59.21	-36.4	-37.3	24.5	0.00e+00	123	42	0	1418723328	46	5737
2026-01-25 00:50:11.92	296.93	58.16	-38.7	-39.7	22.8	0.00e+00	123	42	0	1431306240	48	6733
2026-01-25 00:50:15.95	299.35	57.07	-36.9	-37.8	24.0	0.00e+00	122	42	0	1443889152	48	5466
2026-01-25 00:50:19.99	301.59	55.96	-39.8	-40.9	21.9	0.00e+00	123	42	0	1456472064	50	6897
2026-01-25 00:50:24.02	303.65	54.84	-37.1	-38.0	24.3	0.00e+00	123	42	0	1469054976	48	5555
2026-01-25 00:50:28.06	305.56	53.70	-39.1	-40.1	22.2	0.00e+00	123	42	0	1481637888	50	6278
2026-01-25 00:50:32.10	307.33	52.56	-38.0	-38.9	22.8	0.00e+00	123	42	0	1494220800	50	5511
2026-01-25 00:50:36.14	308.97	51.43	-39.5	-40.6	21.9	0.00e+00	123	42	0	1506803712	50	6681
2026-01-25 00:50:40.17	310.49	50.30	-40.6	-41.8	21.1	0.00e+00	122	42	0	1519386624	54	6094
2026-01-25 00:50:44.21	311.90	49.17	-39.0	-40.0	22.6	0.00e+00	120	42	0	1531969536	52	5539
2026-01-25 00:50:48.25	313.21	48.06	-40.5	-41.6	21.3	0.00e+00	122	42	0	1544552448	52	6666
2026-01-25 00:50:52.29	314.43	46.96	-39.5	-40.5	22.2	0.00e+00	122	42	0	1557135360	52	5913
2026-01-25 00:50:56.33	315.58	45.88	-40.8	-41.9	21.0	0.00e+00	123	42	0	1569718272	52	6962
2026-01-25 00:51:00.36	316.64	44.81	-41.0	-42.2	20.8	0.00e+00	121	42	0	1582301184	54	6360
2026-01-25 00:51:04.40	317.64	43.77	-40.5	-41.7	21.2	0.00e+00	123	42	0	1594884096	54	5998
2026-01-25 00:51:08.44	318.58	42.74	-40.4	-41.5	21.3	0.00e+00	123	42	0	1607467008	52	6631
2026-01-25 00:51:12.47	319.46	41.73	-39.9	-40.9	21.8	0.00e+00	120	42	0	1621098496	52	6173
2026-01-25 00:51:16.51	320.29	40.74	-39.9	-40.9	21.8	0.00e+00	122	42	0	1633681408	52	6194
2026-01-25 00:51:20.55	321.08	39.78	-40.8	-42.0	20.6	0.00e+00	123	42	0	1646264320	54	6226
2026-01-25 00:51:24.58	321.81	38.83	-41.1	-42.3	20.7	0.00e+00	122	42	0	1658847232	54	6425
2026-01-25 00:51:28.62	322.51	37.91	-39.5	-40.5	22.2	0.00e+00	123	42	0	1671430144	52	5882
2026-01-25 00:51:32.66	323.17	37.00	-38.9	-39.8	22.7	0.00e+00	123	42	0	1684013056	52	5467
2026-01-25 00:51:36.70	323.80	36.12	-39.2	-40.2	22.4	0.00e+00	120	42	0	1696595968	50	6397
2026-01-25 00:51:40.74	324.40	35.25	-39.6	-40.6	22.0	0.00e+00	121	42	0	1709178880	50	6725
2026-01-25 00:51:44.78	324.96	34.41	-39.3	-40.3	22.3	0.00e+00	123	42	0	1721761792	52	5748
2026-01-25 00:51:48.82	325.50	33.58	-38.7	-39.6	22.9	0.00e+00	123	42	0	1734344704	50	5981
2026-01-25 00:51:52.85	326.01	32.78	-37.9	-38.9	23.4	0.00e+00	123	42	0	1746927616	50	5475
2026-01-25 00:51:56.89	326.50	31.99	-37.4	-38.3	23.7	0.00e+00	123	42	0	1759510528	48	5786
2026-01-25 00:52:00.93	326.97	31.23	-37.9	-38.8	23.5	0.00e+00	123	42	0	1772093440	48	6110
2026-01-25 00:52:04.97	327.42	30.48	-37.8	-38.8	23.5	0.00e+00	123	42	0	1784676352	48	6081
2026-01-25 00:52:09.01	327.84	29.74	-37.4	-38.3	23.8	0.00e+00	123	42	0	1797259264	48	5732
2026-01-25 00:52:13.05	328.25	29.03	-37.3	-38.2	23.7	0.00e+00	123	42	0	1809842176	48	5725
2026-01-25 00:52:17.08	328.65	28.33	-37.4	-38.3	23.8	0.00e+00	123	42	0	1822425088	48	5790
2026-01-25 00:52:21.12	329.02	27.65	-37.3	-38.2	23.9	0.00e+00	122	42	0	1835008000	48	5704
2026-01-25 00:52:25.16	329.38	26.98	-37.1	-38.0	24.0	0.00e+00	123	42	0	1847590912	48	5566
2026-01-25 00:52:29.20	329.73	26.32	-37.4	-38.3	23.8	0.00e+00	122	42	0	1860173824	48	5780
2026-01-25 00:52:33.24	330.07	25.69	-37.5	-38.5	23.6	0.00e+00	123	42	0	1872756736	48	5882
2026-01-25 00:52:37.28	330.39	25.06	-37.4	-38.4	23.6	0.00e+00	123	42	0	1885339648	48	5818
2026-01-25 00:52:41.31	330.70	24.45	-37.8	-38.8	23.2	0.00e+00	122	42	0	1897922560	48	6086
2026-01-25 00:52:45.35	331.00	23.85	-37.4	-38.3	23.5	0.00e+00	123	42	0	1910505472	48	5769
2026-01-25 00:52:49.39	331.29	23.27	-37.7	-38.7	23.3	0.00e+00	123	42	0	1923088384	48	6016
2026-01-25 00:52:53.43	331.57	22.70	-37.4	-38.3	23.7	0.00e+00	123	42	0	1935671296	48	5756
2026-01-25 00:52:57.46	331.84	22.14	-37.3	-38.2	23.8	0.00e+00	122	42	0	1948254208	48	5677
2026-01-25 00:53:01.50	332.10	21.59	-37.3	-38.3	23.7	0.00e+00	123	42	0	1961885696	48	5734
2026-01-25 00:53:05.54	332.35	21.05	-37.6	-38.6	23.4	0.00e+00	123	42	0	1973420032	48	5932
2026-01-25 00:53:09.58	332.60	20.52	-37.9	-38.8	23.3	0.00e+00	123	42	0	1986002944	48	6127
2026-01-25 00:53:13.62	332.83	20.01	-37.8	-38.7	23.3	0.00e+00	122	42	0	1999634432	48	6059
2026-01-25 00:53:17.66	333.07	19.50	-37.8	-38.7	23.3	0.00e+00	123	42	0	2012217344	48	6064
2026-01-25 00:53:21.70	333.29	19.00	-37.7	-38.6	23.3	0.00e+00	120	42	0	2024800256	48	5980
2026-01-25 00:53:25.73	333.50	18.52	-37.8	-38.8	23.2	0.00e+00	123	42	0	2037383168	48	6088
2026-01-25 00:53:29.77	333.72	18.04	-38.0	-39.0	23.1	0.00e+00	123	42	0	2049966080	48	6218
2026-01-25 00:53:33.81	333.92	17.57	-38.2	-39.2	22.9	0.00e+00	123	42	0	2062548992	48	6403
2026-01-25 00:53:37.85	334.12	17.11	-38.2	-39.2	23.0	0.00e+00	122	42	0	2075131904	48	6398
2026-01-25 00:53:41.88	334.31	16.66	-38.3	-39.3	22.9	0.00e+00	120	42	0	2087714816	48	6442
2026-01-25 00:53:45.92	334.50	16.21	-38.5	-39.5	22.7	0.00e+00	121	42	0	2100297728	48	6589
2026-01-25 00:53:49.96	334.68	15.78	-38.4	-39.4	22.7	0.00e+00	122	42	0	2112880640	48	6508
2026-01-25 00:53:54.00	334.86	15.35	-38.4	-39.4	22.7	0.00e+00	123	42	0	2125463552	48	6558
2026-01-25 00:53:58.04	335.04	14.93	-38.7	-39.7	22.5	0.00e+00	123	42	0	2138046464	48	6752
2026-01-25 00:54:02.07	335.21	14.51	-38.6	-39.6	22.6	0.00e+00	120	42	0	2150629376	48	6682
2026-01-25 00:54:06.11	335.37	14.10	-38.7	-39.7	22.4	0.00e+00	123	42	0	2163212288	50	6010
2026-01-25 00:54:10.16	335.54	13.70	-38.6	-39.6	22.4	0.00e+00	123	42	0	2175795200	50	5979
2026-01-25 00:54:14.20	335.69	13.31	-38.7	-39.7	22.4	0.00e+00	123	42	0	2188378112	50	6021
2026-01-25 00:54:18.23	335.85	12.92	-38.8	-39.8	22.2	0.00e+00	120	42	0	2200961024	50	6094
2026-01-25 00:54:22.28	336.00	12.53	-38.9	-39.9	22.0	0.00e+00	122	42	0	2213543936	50	6201
2026-01-25 00:54:26.31	336.15	12.16	-38.5	-39.5	22.5	0.00e+00	123	42	0	2226126848	50	5886
2026-01-25 00:54:30.35	336.29	11.78	-38.6	-39.6	22.4	0.00e+00	123	42	0	2238709760	50	5952
2026-01-25 00:54:34.39	336.43	11.42	-38.8	-39.8	22.2	0.00e+00	122	42	0	2251292672	50	6088
2026-01-25 00:54:38.43	336.57	11.06	-38.9	-39.9	22.2	0.00e+00	120	42	0	2263875584	50	6168
2026-01-25 00:54:42.47	336.71	10.70	-38.8	-39.9	22.2	0.00e+00	122	42	0	2276458496	50	6161
2026-01-25 00:54:46.50	336.84	10.35	-39.0	-40.1	22.0	0.00e+00	120	42	0	2289041408	50	6278
2026-01-25 00:54:50.54	336.97	10.01	-39.0	-40.1	21.9	0.00e+00	123	42	0	2301624320	50	6284
2026-01-25 00:54:54.58	337.09	9.66	-38.9	-39.9	22.0	0.00e+00	122	42	0	2314207232	50	6183
2026-01-25 00:54:58.62	337.22	9.33	-39.4	-40.5	21.7	0.00e+00	123	42	0	2326790144	50	6599
2026-01-25 00:55:02.66	337.34	8.99	-39.4	-40.5	21.7	0.00e+00	120	42	0	2340421632	50	6579
2026-01-25 00:55:06.69	337.46	8.67	-39.5	-40.5	21.6	0.00e+00	123	42	0	2351955968	50	6641
2026-01-25 00:55:10.73	337.58	8.34	-40.1	-41.2	21.0	0.00e+00	123	42	0	2365587456	52	6388
2026-01-25 00:55:14.77	337.69	8.02	-39.9	-41.0	21.3	0.00e+00	123	42	0	2378170368	52	6233
2026-01-25 00:55:18.81	337.81	7.71	-40.3	-41.4	20.8	0.00e+00	120	42	0	2390753280	52	6543
2026-01-25 00:55:22.85	337.92	7.39	-40.1	-41.2	20.9	0.00e+00	123	42	0	2403336192	52	6409
2026-01-25 00:55:26.89	338.03	7.09	-40.1	-41.2	20.9	0.00e+00	123	42	0	2415919104	54	5709
2026-01-25 00:55:30.93	338.14	6.78	-40.8	-42.0	19.9	0.00e+00	123	42	0	2428502016	54	6253
2026-01-25 00:55:34.97	338.24	6.48	-40.5	-41.7	20.2	0.00e+00	123	42	0	2441084928	54	6040
2026-01-25 00:55:39.00	338.35	6.18	-40.4	-41.6	20.2	0.00e+00	122	42	0	2453667840	54	5968
2026-01-25 00:55:43.04	338.45	5.89	-41.1	-42.3	19.5	0.00e+00	123	42	0	2466250752	54	6495
2026-01-25 00:55:47.08	338.55	5.60	-40.7	-41.9	19.7	0.00e+00	123	42	0	2478833664	54	6171
2026-01-25 00:55:51.12	338.65	5.31	-42.3	-43.8	18.0	0.00e+00	123	42	0	2491416576	58	6090
2026-01-25 00:55:55.16	338.75	5.02	-44.4	-46.6	14.6	0.00e+00	122	42	0	2503999488	60	7493
2026-01-25 00:55:59.19	338.84	4.74	-45.3	-48.4	12.3	1.42e-03	123	42	0	2516582400	60	9217
2026-01-25 00:56:03.23	338.94	4.46	-45.9	-50.0	9.5	2.47e-02	123	42	0	2529165312	60	11094
2026-01-25 00:56:07.27	339.03	4.18	-46.5	-54.1	5.4	6.22e-01	123	42	104	2538602496	60	17834
2026-01-25 00:56:11.31	339.12	3.91	-46.8	-57.4	3.5	1.33e+00	0	42	104	2538602496	60	26089
2026-01-25 00:56:15.34	339.21	3.64	-47.1	-59.2	3.5	1.52e+00	0	42	104	2538602496	60	32043
2026-01-25 00:56:19.38	339.30	3.37	-46.9	-59.6	3.5	1.52e+00	0	42	104	2538602496	60	33690
2026-01-25 00:56:23.42	339.39	3.11	-46.9	-59.7	3.5	1.52e+00	0	42	104	2538602496	60	33943
2026-01-25 00:56:27.46	339.47	2.84	-49.9	-62.7	3.5	1.51e+00	0	42	104	2538602496	60	47906
2026-01-25 00:56:31.50	339.56	2.58	-50.9	-63.8	3.5	1.52e+00	0	42	104	2538602496	60	54340
2026-01-25 00:56:35.53	339.64	2.32	-51.1	-64.0	3.5	1.52e+00	0	42	104	2538602496	60	55388
2026-01-25 00:56:39.57	339.73	2.07	-51.1	-64.0	3.5	1.52e+00	0	42	104	2538602496	60	55908
2026-01-25 00:56:43.61	339.81	1.81	-51.0	-63.9	3.5	1.52e+00	0	42	104	2538602496	60	55038
2026-01-25 00:56:47.65	339.89	1.56	-51.0	-63.9	3.5	1.52e+00	0	42	104	2538602496	60	54770
2026-01-25 00:56:51.69	339.97	1.31	-51.1	-63.9	3.5	1.52e+00	0	42	104	2538602496	60	55042
2026-01-25 00:56:55.74	340.05	1.06	-51.1	-63.9	3.5	1.52e+00	0	42	104	2538602496	60	55154
2026-01-25 00:56:59.77	340.13	0.82	-51.2	-64.0	3.5	1.52e+00	0	42	104	2538602496	60	55618
2026-01-25 00:57:03.81	340.20	0.57	-51.2	-64.0	3.5	1.52e+00	0	42	104	2538602496	60	55675
2026-01-25 00:57:07.85	340.28	0.33	-51.1	-63.9	3.5	1.52e+00	0	42	104	2538602496	60	55096
2026-01-25 00:57:11.88	340.35	0.09	-51.2	-64.0	3.5	1.52e+00	0	42	104	2538602496	60	55854

#Closed at: 2026-01-25 00:57:13
#Recorded file [2538 MB]: D:/lorett/data/35029_260125_124143.dat