passes_logs/2026/01/25/R4.6S_Anadyr/R4.6S_Anadyr__20260125_220234_TY-42_rec.log

#Pass ID: 20260125_220234_TY-42
#Satellite: TY-42
#Configuration: TY-42_900M
#almurnet v.1.7.20251203
#Start time: 2026-01-25 22:03:06

#Version: 2.2.20231116
#Station: R4.6S_Anadyr
#Location: 177.4865 lon 64.73178 lat
#TLE: 1 64048U 25103A   26025.57890046  .00008012  00000-0  38191-3 0 09993
#TLE: 2 64048 097.4111 100.7975 0001666 092.3311 307.1431 15.19178210 38425

#Time	Az	El	Level	Level2	SNR	BER	BlckErr	Temp	State	Recorded	gain1	gain2
2026-01-25 22:03:06.24	24.02	1.86	-51.0	-68.6	3.5	3.02e+01	0	37	0	0	60	104040
2026-01-25 22:03:09.27	24.29	2.04	-48.9	-51.3	6.1	0.00e+00	0	39	104	0	60	45138
2026-01-25 22:03:12.30	24.56	2.23	-48.9	-51.4	6.1	0.00e+00	0	39	104	0	60	45481
2026-01-25 22:03:15.32	24.83	2.41	-48.9	-51.4	6.1	0.00e+00	0	39	104	0	60	45521
2026-01-25 22:03:18.36	25.11	2.60	-49.0	-51.4	6.1	0.00e+00	0	39	104	0	60	45759
2026-01-25 22:03:21.39	25.40	2.79	-49.0	-51.4	6.1	0.00e+00	0	39	104	0	60	45745
2026-01-25 22:03:24.42	25.68	2.98	-49.0	-51.4	6.1	0.00e+00	0	39	104	0	60	45533
2026-01-25 22:03:27.45	25.98	3.17	-49.0	-51.4	6.1	0.00e+00	0	39	104	0	60	45668
2026-01-25 22:03:30.48	26.27	3.36	-48.9	-51.4	6.1	0.00e+00	0	39	104	0	60	45530
2026-01-25 22:03:33.51	26.57	3.55	-49.0	-51.5	6.1	0.00e+00	0	39	104	0	60	45932
2026-01-25 22:03:36.54	26.88	3.74	-48.9	-51.3	6.1	0.00e+00	0	39	104	0	60	44937
2026-01-25 22:03:39.57	27.19	3.94	-48.8	-51.3	6.1	0.00e+00	0	39	104	0	60	44968
2026-01-25 22:03:42.59	27.51	4.14	-49.1	-51.5	6.1	0.00e+00	0	39	104	0	60	46117
2026-01-25 22:03:45.62	27.83	4.33	-49.2	-51.6	6.1	0.00e+00	0	39	104	0	60	46785
2026-01-25 22:03:48.65	28.16	4.53	-49.0	-51.4	6.1	0.00e+00	0	39	104	0	60	45675
2026-01-25 22:03:51.67	28.49	4.73	-49.1	-51.6	6.0	0.00e+00	0	39	104	0	60	46591
2026-01-25 22:03:54.70	28.83	4.94	-49.3	-51.7	6.1	0.00e+00	0	39	104	0	60	47340
2026-01-25 22:03:57.72	29.17	5.14	-49.2	-51.7	6.1	0.00e+00	0	40	104	0	60	47338
2026-01-25 22:04:00.75	29.52	5.34	-49.3	-51.7	6.1	0.00e+00	0	40	104	0	60	47017
2026-01-25 22:04:03.78	29.88	5.55	-49.4	-51.9	6.1	0.00e+00	0	40	104	0	60	48031
2026-01-25 22:04:06.81	30.24	5.76	-30.9	-31.2	11.7	0.00e+00	658	40	104	0	38	15820
2026-01-25 22:04:09.83	30.60	5.97	-42.6	-43.2	7.7	4.72e-02	3330	40	0	33554432	48	35257
2026-01-25 22:04:12.86	30.98	6.18	-33.7	-34.1	13.9	0.00e+00	0	40	0	176160768	44	15577
2026-01-25 22:04:15.89	31.36	6.39	-33.6	-34.0	14.2	7.10e-02	0	40	0	520093696	42	17328
2026-01-25 22:04:18.91	31.75	6.60	-32.9	-33.3	15.0	9.47e-03	0	40	0	855638016	40	17832
2026-01-25 22:04:21.94	32.14	6.82	-30.6	-31.1	15.5	9.93e-03	0	40	0	1199570944	36	17462
2026-01-25 22:04:24.97	32.54	7.03	-31.0	-31.4	15.5	2.36e-03	0	40	0	1543503872	36	18167
2026-01-25 22:04:28.00	32.95	7.25	-30.0	-30.4	16.0	1.86e-03	0	40	0	1879048192	36	16132
2026-01-25 22:04:31.03	33.37	7.47	-29.7	-30.1	16.1	5.45e-04	0	40	0	2222981120	34	17501
2026-01-25 22:04:34.06	33.79	7.69	-29.0	-29.4	16.2	1.80e-04	0	41	0	2566914048	34	16150
2026-01-25 22:04:37.08	34.22	7.91	-28.7	-29.2	16.2	1.36e-04	0	41	0	2902458368	32	17719
2026-01-25 22:04:40.11	34.66	8.13	-28.9	-29.3	16.2	1.91e-04	0	41	0	3246391296	32	17931
2026-01-25 22:04:43.13	35.11	8.36	-28.6	-29.1	16.3	2.07e-04	0	41	0	3581935616	32	17525
2026-01-25 22:04:46.16	35.57	8.58	-28.6	-29.1	16.1	2.94e-04	0	41	0	3925868544	32	17462
2026-01-25 22:04:49.19	36.03	8.81	-28.8	-29.3	15.9	3.54e-04	0	41	0	4261412864	32	17816
2026-01-25 22:04:52.22	36.51	9.04	-27.2	-27.6	16.6	3.26e-05	0	41	0	4605345792	30	16546
2026-01-25 22:04:55.24	36.99	9.27	-27.2	-27.6	16.7	2.17e-05	0	41	0	4940890112	30	16563
2026-01-25 22:04:58.27	37.48	9.50	-27.1	-27.6	16.8	5.40e-06	0	41	0	5284823040	30	16516
2026-01-25 22:05:01.30	37.98	9.73	-27.0	-27.5	16.8	5.40e-06	0	41	0	5620367360	30	16365
2026-01-25 22:05:04.33	38.49	9.96	-26.8	-27.3	16.8	5.40e-06	0	41	0	5964300288	28	17892
2026-01-25 22:05:07.36	39.01	10.20	-26.9	-27.4	16.8	5.40e-06	0	41	0	6308233216	28	18209
2026-01-25 22:05:10.39	39.54	10.43	-26.5	-26.9	16.9	1.08e-05	0	41	0	6643777536	28	17181
2026-01-25 22:05:13.41	40.08	10.67	-26.4	-26.8	17.0	1.08e-05	0	41	0	6987710464	28	16943
2026-01-25 22:05:16.44	40.63	10.91	-26.3	-26.8	17.0	0.00e+00	0	41	0	7331643392	28	16911
2026-01-25 22:05:19.47	41.19	11.15	-26.1	-26.6	17.0	0.00e+00	0	41	0	7667187712	28	16477
2026-01-25 22:05:22.50	41.77	11.39	-25.9	-26.4	17.0	0.00e+00	0	41	0	8011120640	28	16133
2026-01-25 22:05:25.53	42.35	11.63	-25.7	-26.2	17.1	0.00e+00	0	41	0	8355053568	26	17737
2026-01-25 22:05:28.56	42.95	11.87	-26.2	-26.7	16.9	0.00e+00	0	41	0	8698986496	26	18750
2026-01-25 22:05:31.58	43.55	12.11	-26.6	-27.0	16.8	5.40e-06	0	41	0	9034530816	28	17356
2026-01-25 22:05:34.61	44.17	12.35	-25.8	-26.3	17.2	0.00e+00	0	41	0	9378463744	26	17908
2026-01-25 22:05:37.64	44.80	12.60	-25.6	-26.1	17.1	0.00e+00	0	41	0	9714008064	26	17442
2026-01-25 22:05:40.67	45.45	12.84	-25.4	-25.9	17.2	0.00e+00	0	41	0	10057940992	26	17166
2026-01-25 22:05:43.70	46.11	13.09	-25.3	-25.8	17.1	0.00e+00	0	41	0	10393485312	26	16864
2026-01-25 22:05:46.73	46.78	13.33	-25.1	-25.6	17.0	0.00e+00	0	41	0	10737418240	26	16458
2026-01-25 22:05:49.76	47.46	13.57	-25.1	-25.6	17.1	0.00e+00	0	42	0	11081351168	26	16538
2026-01-25 22:05:52.79	48.15	13.82	-25.0	-25.5	17.3	0.00e+00	0	42	0	11416895488	26	16291
2026-01-25 22:05:55.81	48.86	14.06	-25.0	-25.5	17.2	0.00e+00	0	42	0	11760828416	26	16347
2026-01-25 22:05:58.84	49.58	14.31	-24.8	-25.3	17.3	0.00e+00	0	41	0	12096372736	24	18000
2026-01-25 22:06:01.87	50.32	14.55	-24.8	-25.3	17.3	0.00e+00	0	42	0	12440305664	24	17927
2026-01-25 22:06:04.90	51.07	14.79	-24.7	-25.3	17.2	0.00e+00	0	42	0	12775849984	24	17845
2026-01-25 22:06:07.93	51.84	15.03	-24.6	-25.2	17.2	0.00e+00	0	42	0	13119782912	24	17617
2026-01-25 22:06:10.96	52.62	15.27	-24.6	-25.1	17.3	0.00e+00	0	42	0	13463715840	24	17537
2026-01-25 22:06:13.98	53.41	15.51	-24.6	-25.1	17.3	0.00e+00	0	42	0	13799260160	24	17459
2026-01-25 22:06:17.01	54.22	15.75	-24.4	-24.9	17.0	0.00e+00	0	42	0	14143193088	24	17181
2026-01-25 22:06:20.04	55.04	15.98	-24.3	-24.8	17.2	0.00e+00	0	42	0	14487126016	24	16984
2026-01-25 22:06:23.07	55.88	16.21	-24.3	-24.8	17.2	0.00e+00	0	42	0	14822670336	24	16934
2026-01-25 22:06:26.10	56.73	16.44	-24.1	-24.6	17.2	0.00e+00	0	42	0	15166603264	24	16587
2026-01-25 22:06:29.13	57.60	16.67	-24.2	-24.7	17.0	0.00e+00	0	42	0	15510536192	24	16638
2026-01-25 22:06:32.16	58.49	16.90	-24.0	-24.4	16.7	0.00e+00	0	42	0	15846080512	24	16235
2026-01-25 22:06:35.19	59.39	17.12	-24.0	-24.5	17.2	0.00e+00	0	42	0	16190013440	24	16410
2026-01-25 22:06:38.21	60.30	17.33	-23.9	-24.4	17.2	0.00e+00	0	42	0	16533946368	24	16211
2026-01-25 22:06:41.24	61.23	17.55	-24.0	-24.5	17.1	0.00e+00	0	42	0	16869490688	24	16295
2026-01-25 22:06:44.27	62.17	17.76	-23.7	-24.2	17.3	0.00e+00	0	42	0	17213423616	22	17669
2026-01-25 22:06:47.30	63.13	17.96	-23.6	-24.1	17.3	0.00e+00	0	42	0	17548967936	22	17467
2026-01-25 22:06:50.33	64.11	18.16	-23.8	-24.4	17.3	0.00e+00	0	42	0	17892900864	22	18018
2026-01-25 22:06:53.36	65.10	18.36	-23.5	-24.0	17.2	0.00e+00	0	42	0	18236833792	22	17325
2026-01-25 22:06:56.39	66.10	18.54	-23.6	-24.0	17.2	0.00e+00	0	42	0	18572378112	22	17397
2026-01-25 22:06:59.41	67.11	18.73	-23.0	-23.5	17.3	0.00e+00	0	42	0	18916311040	22	16420
2026-01-25 22:07:02.44	68.15	18.90	-23.0	-23.5	17.2	0.00e+00	0	42	0	19251855360	22	16304
2026-01-25 22:07:05.47	69.19	19.07	-23.0	-23.4	17.3	0.00e+00	0	42	0	19595788288	22	16225
2026-01-25 22:07:08.50	70.25	19.24	-23.2	-23.7	17.3	0.00e+00	0	42	0	19931332608	22	16662
2026-01-25 22:07:11.53	71.32	19.39	-23.2	-23.6	17.3	0.00e+00	0	42	0	20275265536	22	16585
2026-01-25 22:07:14.56	72.40	19.54	-23.2	-23.7	17.0	0.00e+00	0	42	0	20619198464	22	16723
2026-01-25 22:07:17.59	73.49	19.68	-22.9	-23.4	17.3	0.00e+00	0	42	0	20954742784	22	16124
2026-01-25 22:07:20.62	74.60	19.81	-23.2	-23.6	17.3	0.00e+00	0	42	0	21298675712	22	16599
2026-01-25 22:07:23.64	75.71	19.93	-23.0	-23.5	17.3	0.00e+00	0	42	0	21634220032	22	16291
2026-01-25 22:07:26.67	76.84	20.04	-22.9	-23.4	17.2	0.00e+00	0	42	0	21978152960	22	16145
2026-01-25 22:07:29.70	77.97	20.15	-23.3	-23.7	17.2	0.00e+00	0	42	0	22322085888	22	16797
2026-01-25 22:07:32.73	79.11	20.24	-23.0	-23.5	17.0	0.00e+00	0	42	0	22666018816	22	16253
2026-01-25 22:07:35.75	80.26	20.32	-22.9	-23.4	17.2	0.00e+00	0	42	0	23001563136	22	16160
2026-01-25 22:07:38.78	81.42	20.40	-22.7	-23.2	17.2	0.00e+00	0	42	0	23345496064	20	17734
2026-01-25 22:07:41.81	82.58	20.46	-22.7	-23.2	17.2	0.00e+00	0	42	0	23689428992	20	17676
2026-01-25 22:07:44.84	83.75	20.51	-50.2	-52.6	6.1	0.00e+00	0	42	104	23739760640	60	52409
2026-01-25 22:07:47.86	84.92	20.55	-49.1	-51.7	6.1	0.00e+00	0	42	104	23739760640	60	47150
2026-01-25 22:07:50.89	86.09	20.58	-48.6	-51.3	6.1	0.00e+00	0	42	104	23739760640	60	44976
2026-01-25 22:07:53.93	87.27	20.61	-50.0	-52.5	6.1	0.00e+00	0	42	104	23739760640	60	51674
2026-01-25 22:07:56.95	88.45	20.61	-49.4	-52.0	6.1	0.00e+00	0	42	104	23739760640	60	48980
2026-01-25 22:07:59.98	89.63	20.61	-50.0	-52.5	6.0	0.00e+00	0	42	104	23739760640	60	51483
2026-01-25 22:08:03.01	90.81	20.60	-49.9	-52.4	6.1	0.00e+00	0	42	104	23739760640	60	51145
2026-01-25 22:08:06.04	91.98	20.58	-50.3	-52.7	6.1	0.00e+00	0	42	104	23739760640	60	53121
2026-01-25 22:08:09.07	93.16	20.54	-50.3	-52.7	6.1	0.00e+00	0	42	104	23739760640	60	53061
2026-01-25 22:08:12.10	94.33	20.50	-50.1	-52.6	6.1	0.00e+00	0	42	104	23739760640	60	52179
2026-01-25 22:08:15.13	95.50	20.44	-50.2	-52.6	6.1	0.00e+00	0	42	104	23739760640	60	52282
2026-01-25 22:08:18.15	96.66	20.37	-49.6	-52.2	6.1	0.00e+00	0	42	104	23739760640	60	50022
2026-01-25 22:08:21.18	97.81	20.30	-50.1	-52.6	6.1	0.00e+00	0	42	104	23739760640	60	52359
2026-01-25 22:08:24.21	98.96	20.21	-50.1	-52.5	6.1	0.00e+00	0	42	104	23739760640	60	51881
2026-01-25 22:08:27.24	100.11	20.11	-49.9	-52.4	6.1	0.00e+00	0	42	104	23739760640	60	50934
2026-01-25 22:08:30.27	101.24	20.01	-50.2	-52.7	6.1	0.00e+00	0	42	104	23739760640	60	52750
2026-01-25 22:08:33.30	102.36	19.89	-50.2	-52.6	6.1	0.00e+00	0	41	104	23739760640	60	52249
2026-01-25 22:08:36.33	103.48	19.76	-50.2	-52.7	6.1	0.00e+00	0	41	104	23739760640	60	52937
2026-01-25 22:08:39.35	104.58	19.63	-50.2	-52.6	6.1	0.00e+00	0	42	104	23739760640	60	52369
2026-01-25 22:08:42.38	105.67	19.49	-50.3	-52.8	6.1	0.00e+00	0	41	104	23739760640	60	53179
2026-01-25 22:08:45.41	106.76	19.34	-50.1	-52.6	6.1	0.00e+00	0	41	104	23739760640	60	52535
2026-01-25 22:08:48.44	107.83	19.18	-50.2	-52.6	6.1	0.00e+00	0	41	104	23739760640	60	52506
2026-01-25 22:08:51.47	108.88	19.01	-50.1	-52.6	6.1	0.00e+00	0	41	104	23739760640	60	52365
2026-01-25 22:08:54.50	109.93	18.84	-50.1	-52.6	6.1	0.00e+00	0	41	104	23739760640	60	52136
2026-01-25 22:08:57.53	110.96	18.66	-50.0	-52.4	6.1	0.00e+00	0	41	104	23739760640	60	51329
2026-01-25 22:09:00.56	111.97	18.48	-50.1	-52.6	6.1	0.00e+00	0	41	104	23739760640	60	52238
2026-01-25 22:09:03.59	112.98	18.28	-50.2	-52.6	6.1	0.00e+00	0	41	104	23739760640	60	52448
2026-01-25 22:09:06.62	113.97	18.09	-50.0	-52.5	6.1	0.00e+00	0	41	104	23739760640	60	51873
2026-01-25 22:09:09.65	114.94	17.88	-49.9	-52.4	6.1	0.00e+00	0	41	104	23739760640	60	51242
2026-01-25 22:09:12.68	115.90	17.68	-50.1	-52.6	6.1	0.00e+00	0	41	104	23739760640	60	52246
2026-01-25 22:09:15.70	116.84	17.46	-50.0	-52.5	6.1	0.00e+00	0	41	104	23739760640	60	51801
2026-01-25 22:09:18.73	117.77	17.25	-50.2	-52.6	6.1	0.00e+00	0	41	104	23739760640	60	52471
2026-01-25 22:09:21.76	118.68	17.03	-49.9	-52.5	6.1	0.00e+00	0	41	104	23739760640	60	51451
2026-01-25 22:09:24.79	119.58	16.80	-49.9	-52.4	6.1	0.00e+00	0	41	104	23739760640	60	50903
2026-01-25 22:09:27.82	120.46	16.58	-50.0	-52.5	6.1	0.00e+00	0	41	104	23739760640	60	51705
2026-01-25 22:09:30.85	121.33	16.35	-49.9	-52.4	6.1	0.00e+00	0	41	104	23739760640	60	51092
2026-01-25 22:09:33.88	122.19	16.11	-50.0	-52.5	6.1	0.00e+00	0	41	104	23739760640	60	51785
2026-01-25 22:09:36.90	123.02	15.88	-50.0	-52.5	6.1	0.00e+00	0	41	104	23739760640	60	51568
2026-01-25 22:09:39.93	123.85	15.64	-50.1	-52.5	6.1	0.00e+00	0	41	104	23739760640	60	51858
2026-01-25 22:09:42.95	124.65	15.40	-50.0	-52.4	6.1	0.00e+00	0	41	104	23739760640	60	51211
2026-01-25 22:09:45.98	125.44	15.16	-49.9	-52.4	6.1	0.00e+00	0	41	104	23739760640	60	51123
2026-01-25 22:09:49.01	126.22	14.92	-50.0	-52.5	6.1	0.00e+00	0	41	104	23739760640	60	51403
2026-01-25 22:09:52.04	126.99	14.68	-50.1	-52.5	6.1	0.00e+00	0	41	104	23739760640	60	51721
2026-01-25 22:09:55.07	127.74	14.43	-50.0	-52.4	6.1	0.00e+00	0	41	104	23739760640	60	51225
2026-01-25 22:09:58.09	128.47	14.19	-50.0	-52.5	6.1	0.00e+00	0	41	104	23739760640	60	51403
2026-01-25 22:10:01.12	129.19	13.94	-50.0	-52.5	6.1	0.00e+00	0	41	104	23739760640	60	51613
2026-01-25 22:10:04.15	129.90	13.70	-49.9	-52.5	6.1	0.00e+00	0	41	104	23739760640	60	51673
2026-01-25 22:10:07.17	130.59	13.45	-49.9	-52.4	6.1	0.00e+00	0	41	104	23739760640	60	51124
2026-01-25 22:10:10.20	131.28	13.20	-49.9	-52.4	6.1	0.00e+00	0	41	104	23739760640	60	51054
2026-01-25 22:10:13.23	131.94	12.96	-50.0	-52.4	6.1	0.00e+00	0	41	104	23739760640	60	51287
2026-01-25 22:10:16.25	132.60	12.71	-49.9	-52.3	6.1	0.00e+00	0	41	104	23739760640	60	50662
2026-01-25 22:10:19.28	133.24	12.47	-49.9	-52.4	6.1	0.00e+00	0	41	104	23739760640	60	51083
2026-01-25 22:10:22.31	133.87	12.22	-50.0	-52.4	6.1	0.00e+00	0	41	104	23739760640	60	51305
2026-01-25 22:10:25.34	134.49	11.98	-49.9	-52.4	6.1	0.00e+00	0	41	104	23739760640	60	50828
2026-01-25 22:10:28.36	135.09	11.73	-49.9	-52.4	6.1	0.00e+00	0	41	104	23739760640	60	50954
2026-01-25 22:10:31.39	135.69	11.49	-49.9	-52.4	6.1	0.00e+00	0	41	104	23739760640	60	51217
2026-01-25 22:10:34.42	136.27	11.25	-49.7	-52.2	6.1	0.00e+00	0	41	104	23739760640	60	50161
2026-01-25 22:10:37.45	136.84	11.01	-49.8	-52.3	6.1	0.00e+00	0	41	104	23739760640	60	50578
2026-01-25 22:10:40.48	137.40	10.77	-49.9	-52.4	6.1	0.00e+00	0	41	104	23739760640	60	50832
2026-01-25 22:10:43.50	137.95	10.53	-49.9	-52.3	6.1	0.00e+00	0	41	104	23739760640	60	50742
2026-01-25 22:10:46.53	138.49	10.29	-49.8	-52.3	6.1	0.00e+00	0	41	104	23739760640	60	50643
2026-01-25 22:10:49.56	139.02	10.05	-49.8	-52.3	6.1	0.00e+00	0	41	104	23739760640	60	50307
2026-01-25 22:10:52.59	139.54	9.81	-49.7	-52.1	6.1	0.00e+00	0	41	104	23739760640	60	49457
2026-01-25 22:10:55.62	140.05	9.58	-49.4	-51.9	6.1	0.00e+00	0	41	104	23739760640	60	48224
2026-01-25 22:10:58.65	140.55	9.34	-49.3	-51.8	6.1	0.00e+00	0	41	104	23739760640	60	47722
2026-01-25 22:11:01.67	141.04	9.11	-49.1	-51.6	6.1	0.00e+00	0	41	104	23739760640	60	46302
2026-01-25 22:11:04.70	141.52	8.88	-48.8	-51.4	6.1	0.00e+00	0	41	104	23739760640	60	45316
2026-01-25 22:11:07.73	141.99	8.65	-49.3	-51.8	6.1	0.00e+00	0	41	104	23739760640	60	47558
2026-01-25 22:11:10.76	142.46	8.42	-49.3	-51.8	6.1	0.00e+00	0	41	104	23739760640	60	47460
2026-01-25 22:11:13.79	142.91	8.20	-49.0	-51.5	6.1	0.00e+00	0	41	104	23739760640	60	46162
2026-01-25 22:11:16.82	143.36	7.97	-49.2	-51.7	6.1	0.00e+00	0	41	104	23739760640	60	47081
2026-01-25 22:11:19.85	143.80	7.75	-49.4	-51.9	6.1	0.00e+00	0	41	104	23739760640	60	48135
2026-01-25 22:11:22.88	144.23	7.52	-49.4	-51.9	6.1	0.00e+00	0	41	104	23739760640	60	48236
2026-01-25 22:11:25.90	144.65	7.30	-49.1	-51.6	6.1	0.00e+00	0	41	104	23739760640	60	46645
2026-01-25 22:11:28.93	145.06	7.08	-49.3	-51.8	6.1	0.00e+00	0	41	104	23739760640	60	47901
2026-01-25 22:11:31.95	145.47	6.86	-49.4	-51.9	6.1	0.00e+00	0	41	104	23739760640	60	47981
2026-01-25 22:11:34.99	145.87	6.65	-49.6	-52.0	6.0	0.00e+00	0	41	104	23739760640	60	48991
2026-01-25 22:11:38.01	146.26	6.43	-49.3	-51.9	6.1	0.00e+00	0	41	104	23739760640	60	48106
2026-01-25 22:11:41.04	146.65	6.22	-49.3	-51.8	6.1	0.00e+00	0	41	104	23739760640	60	47893
2026-01-25 22:11:44.07	147.03	6.00	-49.3	-51.8	6.1	0.00e+00	0	41	104	23739760640	60	47463
2026-01-25 22:11:47.10	147.40	5.79	-49.4	-51.9	6.1	0.00e+00	0	41	104	23739760640	60	48336
2026-01-25 22:11:50.12	147.76	5.58	-49.2	-51.7	6.1	0.00e+00	0	41	104	23739760640	60	47217
2026-01-25 22:11:53.15	148.12	5.37	-49.3	-51.8	6.1	0.00e+00	0	41	104	23739760640	60	47603
2026-01-25 22:11:56.18	148.48	5.17	-49.0	-51.5	6.1	0.00e+00	0	41	104	23739760640	60	45923
2026-01-25 22:11:59.21	148.83	4.96	-49.3	-51.8	6.1	0.00e+00	0	41	104	23739760640	60	47596
2026-01-25 22:12:02.23	149.17	4.76	-49.0	-51.5	6.1	0.00e+00	0	41	104	23739760640	60	46116
2026-01-25 22:12:05.26	149.50	4.55	-48.9	-51.4	6.1	0.00e+00	0	41	104	23739760640	60	45264
2026-01-25 22:12:08.29	149.83	4.35	-47.2	-49.7	6.1	0.00e+00	0	41	104	23739760640	60	37552
2026-01-25 22:12:11.32	150.16	4.15	-45.8	-48.3	6.1	0.00e+00	0	41	104	23739760640	60	31697
2026-01-25 22:12:14.35	150.48	3.95	-48.4	-51.0	6.1	0.00e+00	0	41	104	23739760640	60	43265
2026-01-25 22:12:17.38	150.79	3.76	-48.6	-51.1	6.1	0.00e+00	0	41	104	23739760640	60	44135
2026-01-25 22:12:20.41	151.10	3.56	-48.4	-50.9	6.1	0.00e+00	0	41	104	23739760640	60	42892
2026-01-25 22:12:23.43	151.41	3.36	-49.0	-51.5	6.1	0.00e+00	0	41	104	23739760640	60	45783
2026-01-25 22:12:26.46	151.71	3.17	-48.5	-51.0	6.1	0.00e+00	0	41	104	23739760640	60	43476
2026-01-25 22:12:29.49	152.00	2.98	-48.4	-50.9	6.1	0.00e+00	0	41	104	23739760640	60	42998
2026-01-25 22:12:32.52	152.29	2.79	-49.3	-51.8	6.0	0.00e+00	0	41	104	23739760640	60	47787
2026-01-25 22:12:35.55	152.58	2.60	-50.1	-52.6	6.1	0.00e+00	0	41	104	23739760640	60	52032
2026-01-25 22:12:38.58	152.86	2.41	-50.2	-52.7	6.1	0.00e+00	0	41	104	23739760640	60	52620
2026-01-25 22:12:41.61	153.13	2.22	-50.4	-52.9	6.1	0.00e+00	0	41	104	23739760640	60	53978
2026-01-25 22:12:44.64	153.41	2.03	-50.4	-52.9	6.1	0.00e+00	0	41	104	23739760640	60	53930
2026-01-25 22:12:47.67	153.68	1.85	-50.3	-52.8	6.1	0.00e+00	0	41	104	23739760640	60	53263
2026-01-25 22:12:50.70	153.94	1.66	-50.4	-52.8	6.1	0.00e+00	0	41	104	23739760640	60	53643
2026-01-25 22:12:53.73	154.20	1.48	-50.5	-53.0	6.1	0.00e+00	0	41	104	23739760640	60	54408
2026-01-25 22:12:56.76	154.46	1.30	-50.5	-52.9	6.1	0.00e+00	0	41	104	23739760640	60	54329
2026-01-25 22:12:59.79	154.71	1.12	-50.7	-53.1	6.1	0.00e+00	0	41	104	23739760640	60	55594
2026-01-25 22:13:02.82	154.96	0.94	-50.7	-53.2	6.0	0.00e+00	0	41	104	23739760640	60	55929
2026-01-25 22:13:05.85	155.20	0.76	-50.7	-53.2	6.1	0.00e+00	0	41	104	23739760640	60	55923
2026-01-25 22:13:08.88	155.45	0.58	-50.8	-53.3	6.1	0.00e+00	0	41	104	23739760640	60	56595
2026-01-25 22:13:11.91	155.68	0.40	-50.7	-53.2	6.1	0.00e+00	0	41	104	23739760640	60	55989
2026-01-25 22:13:14.93	155.92	0.23	-50.7	-53.2	6.1	0.00e+00	0	41	104	23739760640	60	56192
2026-01-25 22:13:17.96	156.15	0.05	-50.7	-53.1	6.0	0.00e+00	0	41	104	23739760640	60	55507

#Closed at: 2026-01-25 22:13:19
#Recorded file [23739 MB]: D:/lorett/data/35029_260126_100306.dat