passes_logs/2026/01/25/R4.6S_Anadyr/R4.6S_Anadyr__20260125_183526_AQUA_rec.log

#Pass ID: 20260125_183526_AQUA
#Satellite: AQUA
#Configuration: AQUA
#almurnet v.1.7.20251203
#Start time: 2026-01-25 18:35:29

#Version: 2.2.20231116
#Station: R4.6S_Anadyr
#Location: 177.4865 lon 64.73178 lat
#TLE: 1 27424U 02022A   26025.30011081  .00001897  00000+0  38942-3 0  9997
#TLE: 2 27424  98.4099 351.9015 0001901  65.9773  41.4489 14.61858120262390

#Time	Az	El	Level	Level2	SNR	BER	BlckErr	Temp	State	Recorded	gain1	gain2
2026-01-25 18:35:29.48	25.11	0.16	-51.1	-67.4	3.2	3.02e+01	0	40	0	0	60	90627
2026-01-25 18:35:32.51	24.93	0.33	-51.2	-69.0	3.5	3.02e+01	0	40	104	0	60	108987
2026-01-25 18:35:35.54	24.74	0.50	-51.1	-69.0	3.5	3.02e+01	0	40	104	0	60	108935
2026-01-25 18:35:38.57	24.55	0.67	-51.1	-69.0	3.5	3.02e+01	0	40	104	0	60	108367
2026-01-25 18:35:41.60	24.35	0.84	-51.0	-68.8	3.5	3.02e+01	0	40	104	0	60	106172
2026-01-25 18:35:44.62	24.16	1.01	-50.7	-68.5	3.5	3.02e+01	0	40	104	0	60	102276
2026-01-25 18:35:47.66	23.96	1.19	-50.4	-67.7	3.5	3.02e+01	0	40	104	0	60	93400
2026-01-25 18:35:50.69	23.76	1.36	-49.7	-65.5	3.6	3.02e+01	0	40	104	0	60	72412
2026-01-25 18:35:53.72	23.55	1.54	-49.6	-66.3	3.5	3.02e+01	0	40	104	0	60	79564
2026-01-25 18:35:56.75	23.34	1.71	-49.5	-66.2	3.5	3.02e+01	0	40	104	0	60	78501
2026-01-25 18:35:59.78	23.13	1.89	-49.5	-66.3	3.5	3.02e+01	0	41	104	0	60	79406
2026-01-25 18:36:02.81	22.92	2.07	-49.5	-66.1	3.5	3.02e+01	0	40	104	0	60	77873
2026-01-25 18:36:05.84	22.70	2.25	-49.5	-66.7	3.5	3.02e+01	0	40	104	0	60	82865
2026-01-25 18:36:08.87	22.49	2.43	-49.5	-67.1	3.5	3.02e+01	0	41	104	0	60	86985
2026-01-25 18:36:11.90	22.26	2.61	-49.5	-66.5	3.5	3.02e+01	0	41	104	0	60	81702
2026-01-25 18:36:14.93	22.04	2.79	-49.5	-67.3	3.5	3.02e+01	0	40	104	0	60	89469
2026-01-25 18:36:17.96	21.81	2.97	-49.4	-65.8	3.5	3.02e+01	0	41	104	0	60	75054
2026-01-25 18:36:20.99	21.58	3.15	-48.7	-63.6	3.5	3.02e+01	0	41	104	0	60	58230
2026-01-25 18:36:24.02	21.34	3.34	-44.5	-55.8	3.5	3.02e+01	0	41	104	0	60	23741
2026-01-25 18:36:27.05	21.10	3.52	-49.6	-66.6	3.5	3.02e+01	0	41	104	0	60	82089
2026-01-25 18:36:30.08	20.86	3.71	-44.4	-55.7	3.5	3.02e+01	0	41	104	0	60	23386
2026-01-25 18:36:33.10	20.62	3.89	-48.2	-62.2	3.5	3.02e+01	0	41	104	0	60	49502
2026-01-25 18:36:36.13	20.37	4.08	-43.8	-54.8	3.5	3.02e+01	0	41	104	0	60	21204
2026-01-25 18:36:39.16	20.11	4.27	-41.5	-52.1	3.5	3.02e+01	0	41	104	0	58	17313
2026-01-25 18:36:42.19	19.86	4.46	-42.5	-53.3	3.5	3.02e+01	0	41	104	0	56	22301
2026-01-25 18:36:45.22	19.60	4.65	-44.6	-55.8	3.5	3.02e+01	0	41	104	0	60	23766
2026-01-25 18:36:48.24	19.33	4.84	-45.2	-56.6	3.5	3.02e+01	0	41	104	0	60	26061
2026-01-25 18:36:51.32	19.06	5.03	-49.6	-65.6	3.5	3.02e+01	0	41	104	0	60	73417
2026-01-25 18:36:54.06	18.81	5.21	-45.5	-57.0	3.5	3.02e+01	0	41	104	0	60	27123
2026-01-25 18:36:57.38	18.51	5.42	-50.0	-67.7	3.5	3.02e+01	0	41	104	0	60	93118
2026-01-25 18:37:00.12	18.26	5.60	-40.8	-51.3	3.6	3.02e+01	0	41	104	0	56	17735
2026-01-25 18:37:03.43	17.95	5.81	-39.3	-49.6	3.6	3.02e+01	0	41	104	0	54	16509
2026-01-25 18:37:06.17	17.68	5.99	-44.6	-55.9	3.5	3.02e+01	0	41	104	0	60	23966
2026-01-25 18:37:09.49	17.36	6.21	-49.9	-67.2	3.5	3.02e+01	0	41	104	0	60	88609
2026-01-25 18:37:12.22	17.09	6.39	-47.9	-61.1	3.5	3.02e+01	0	41	104	0	60	43504
2026-01-25 18:37:15.54	16.76	6.61	-47.0	-59.5	3.5	3.02e+01	0	41	104	0	60	36351
2026-01-25 18:37:18.28	16.48	6.79	-39.8	-50.2	3.5	3.02e+01	0	41	104	0	54	17535
2026-01-25 18:37:21.60	16.14	7.01	-40.0	-50.4	3.5	3.02e+01	0	41	104	0	52	20220
2026-01-25 18:37:24.34	15.85	7.20	-40.0	-50.3	3.5	3.02e+01	0	41	104	0	56	15892
2026-01-25 18:37:27.65	15.50	7.42	-41.4	-51.9	3.6	3.02e+01	0	41	104	0	58	17074
2026-01-25 18:37:30.39	15.20	7.61	-40.9	-51.4	3.5	3.02e+01	0	41	104	0	58	16038
2026-01-25 18:37:33.71	14.84	7.83	-42.0	-52.6	3.5	3.02e+01	0	41	104	0	60	16417
2026-01-25 18:37:36.45	14.53	8.02	-39.1	-49.5	3.5	3.02e+01	0	41	104	0	54	16158
2026-01-25 18:37:39.76	14.16	8.25	-46.6	-58.7	3.5	3.02e+01	0	41	104	0	60	33262
2026-01-25 18:37:42.50	13.84	8.44	-44.0	-55.0	3.5	3.02e+01	0	41	104	0	60	21531
2026-01-25 18:37:45.82	13.45	8.67	-50.2	-67.1	3.5	3.02e+01	0	41	104	0	60	86714
2026-01-25 18:37:48.56	13.12	8.86	-40.8	-51.3	3.3	3.02e+01	0	41	104	0	52	22299
2026-01-25 18:37:51.88	12.72	9.09	-38.7	-49.0	3.5	3.02e+01	0	41	104	0	52	17098
2026-01-25 18:37:54.61	12.39	9.28	-45.3	-56.5	3.5	3.02e+01	0	41	104	0	58	28887
2026-01-25 18:37:57.93	11.97	9.52	-42.5	-53.1	3.6	3.02e+01	0	41	104	0	60	17336
2026-01-25 18:38:00.67	11.62	9.71	-47.1	-59.6	3.5	3.02e+01	0	41	104	0	60	36553
2026-01-25 18:38:03.99	11.19	9.95	-50.0	-68.0	3.5	3.02e+01	0	41	104	0	60	96628
2026-01-25 18:38:06.73	10.83	10.14	-42.6	-53.3	3.5	3.02e+01	0	41	104	0	60	17801
2026-01-25 18:38:10.04	10.39	10.38	-43.6	-54.5	3.5	3.02e+01	0	41	104	0	60	20375
2026-01-25 18:38:12.78	10.02	10.58	-50.3	-67.0	3.5	3.02e+01	0	41	104	0	60	86647
2026-01-25 18:38:16.10	9.56	10.82	-44.6	-55.6	3.5	3.02e+01	0	41	104	0	60	23178
2026-01-25 18:38:18.84	9.18	11.02	-42.2	-52.7	3.5	3.02e+01	0	41	104	0	58	18572
2026-01-25 18:38:22.15	8.71	11.26	-38.6	-48.9	3.5	3.02e+01	0	41	104	0	52	16898
2026-01-25 18:38:24.89	8.31	11.46	-44.2	-55.0	3.5	3.02e+01	0	41	104	0	60	21562
2026-01-25 18:38:28.21	7.82	11.70	-40.2	-50.5	3.5	3.02e+01	0	41	104	0	58	14449
2026-01-25 18:38:30.95	7.41	11.90	-39.1	-49.3	3.5	3.02e+01	0	41	104	0	54	15937
2026-01-25 18:38:34.26	6.90	12.14	-40.0	-50.4	3.5	3.02e+01	0	41	104	0	56	16038
2026-01-25 18:38:37.00	6.48	12.35	-43.1	-53.7	3.5	3.02e+01	0	41	104	0	58	20985
2026-01-25 18:38:40.32	5.95	12.59	-41.7	-52.1	3.5	3.02e+01	0	41	104	0	58	17394
2026-01-25 18:38:43.06	5.52	12.79	-50.6	-67.6	3.6	3.02e+01	0	41	104	0	60	92015
2026-01-25 18:38:46.37	4.98	13.04	-43.7	-54.4	3.5	3.02e+01	0	41	104	0	60	20133
2026-01-25 18:38:49.11	4.52	13.24	-50.6	-67.3	3.5	3.02e+01	0	41	104	0	60	89401
2026-01-25 18:38:52.42	3.96	13.49	-41.7	-52.2	3.5	3.02e+01	0	41	104	0	60	15665
2026-01-25 18:38:55.16	3.50	13.69	-38.6	-48.9	3.5	3.02e+01	0	41	104	0	52	16914
2026-01-25 18:38:58.48	2.92	13.94	-41.6	-52.0	3.6	3.02e+01	0	41	104	0	60	15357
2026-01-25 18:39:01.21	2.43	14.14	-50.6	-67.1	3.5	3.02e+01	0	41	104	0	60	86751
2026-01-25 18:39:04.52	1.84	14.39	-47.9	-60.1	3.5	3.02e+01	0	41	104	0	60	38777
2026-01-25 18:39:07.26	1.34	14.59	-44.0	-54.8	3.6	3.02e+01	0	41	104	0	60	21137
2026-01-25 18:39:10.57	0.72	14.83	-38.7	-48.9	3.5	3.02e+01	0	41	104	0	52	16920
2026-01-25 18:39:13.31	0.20	15.04	-46.9	-58.5	3.5	3.02e+01	0	41	104	0	60	32434
2026-01-25 18:39:16.63	359.57	15.28	-38.1	-48.4	3.5	3.02e+01	0	41	104	0	54	14250
2026-01-25 18:39:19.37	359.03	15.48	-38.4	-48.6	3.5	3.02e+01	0	41	104	0	52	16386
2026-01-25 18:39:22.69	358.37	15.72	-47.4	-59.3	3.5	3.02e+01	0	41	104	0	58	39712
2026-01-25 18:39:25.43	357.82	15.92	-42.3	-52.9	3.5	3.02e+01	0	41	104	0	58	19024
2026-01-25 18:39:28.74	357.14	16.17	-37.9	-48.2	3.5	3.02e+01	0	41	104	0	52	15628
2026-01-25 18:39:31.48	356.57	16.36	-44.8	-56.0	3.5	3.02e+01	0	41	104	0	60	24307
2026-01-25 18:39:34.80	355.87	16.60	-41.3	-51.7	3.5	3.02e+01	0	41	104	0	58	16565
2026-01-25 18:39:37.54	355.28	16.80	-41.2	-51.6	3.5	3.02e+01	0	41	104	0	58	16500
2026-01-25 18:39:40.85	354.56	17.03	-43.2	-53.9	3.5	3.02e+01	0	41	104	0	56	24135
2026-01-25 18:39:43.59	353.95	17.22	-40.4	-50.7	3.5	3.02e+01	0	41	104	0	56	16526
2026-01-25 18:39:46.91	353.21	17.46	-47.8	-60.2	3.5	3.02e+01	0	41	104	0	60	39434
2026-01-25 18:39:49.64	352.58	17.64	-44.5	-55.5	3.5	3.02e+01	0	41	104	0	60	22898
2026-01-25 18:39:52.96	351.81	17.87	-47.3	-59.4	3.5	3.02e+01	0	41	104	0	60	35721
2026-01-25 18:39:55.70	351.17	18.06	-49.3	-63.1	3.5	3.02e+01	0	41	104	0	60	55066
2026-01-25 18:39:59.02	350.38	18.28	-43.2	-53.9	3.6	3.02e+01	0	41	104	0	60	18997
2026-01-25 18:40:01.76	349.72	18.46	-43.8	-54.6	3.5	3.02e+01	0	41	104	0	60	20615
2026-01-25 18:40:05.07	348.90	18.67	-50.6	-67.4	3.5	3.02e+01	0	41	104	0	60	90397
2026-01-25 18:40:07.81	348.22	18.84	-39.9	-50.2	3.6	3.02e+01	0	41	104	0	56	15692
2026-01-25 18:40:11.13	347.39	19.05	-50.6	-67.6	3.5	3.02e+01	0	41	104	0	60	92388
2026-01-25 18:40:13.86	346.69	19.22	-41.1	-51.4	3.5	3.02e+01	0	41	104	0	56	18086
2026-01-25 18:40:17.17	345.83	19.42	-42.0	-52.5	3.5	3.02e+01	0	41	104	0	58	18250
2026-01-25 18:40:19.91	345.12	19.58	-46.6	-58.4	3.5	3.02e+01	0	41	104	0	60	31946
2026-01-25 18:40:23.23	344.24	19.77	-39.2	-49.5	3.5	3.02e+01	0	41	104	0	54	16198
2026-01-25 18:40:25.97	343.50	19.92	-40.7	-51.0	3.5	3.02e+01	0	41	104	0	54	19314
2026-01-25 18:40:29.28	342.60	20.10	-47.1	-59.0	3.5	3.02e+01	0	41	104	0	60	34195
2026-01-25 18:40:32.02	341.85	20.25	-40.2	-50.5	3.5	3.02e+01	0	41	104	0	56	16138
2026-01-25 18:40:35.34	340.93	20.42	-45.6	-57.1	3.6	3.02e+01	0	42	104	0	60	27463
2026-01-25 18:40:38.08	340.16	20.55	-41.3	-51.7	3.5	3.02e+01	0	41	104	0	60	14843
2026-01-25 18:40:41.40	339.22	20.71	-48.1	-60.8	3.5	3.02e+01	0	41	104	0	60	42201
2026-01-25 18:40:44.14	338.44	20.84	-40.7	-51.1	3.5	3.02e+01	0	41	104	0	56	17369
2026-01-25 18:40:47.45	337.48	20.98	-38.7	-48.9	3.5	3.02e+01	0	42	104	0	52	17068
2026-01-25 18:40:50.19	336.68	21.10	-40.1	-50.4	3.6	3.02e+01	0	42	104	0	58	14277
2026-01-25 18:40:53.50	335.71	21.23	-45.7	-57.1	3.5	3.02e+01	0	41	104	0	60	27498
2026-01-25 18:40:56.24	334.90	21.33	-41.0	-51.5	3.5	3.02e+01	0	41	104	0	58	16152
2026-01-25 18:40:59.56	333.91	21.45	-41.6	-52.0	3.6	3.02e+01	0	41	104	0	60	15376
2026-01-25 18:41:02.30	333.08	21.54	-41.3	-51.7	3.4	3.02e+01	0	42	104	0	56	18699
2026-01-25 18:41:05.61	332.08	21.64	-39.3	-40.7	26.9	3.02e+01	58	41	0	3145728	54	5888
2026-01-25 18:41:08.35	331.25	21.72	-38.9	-40.2	27.5	3.02e+01	59	41	0	8388608	52	6240
2026-01-25 18:41:11.67	330.23	21.80	-38.2	-39.5	28.2	3.02e+01	58	42	0	14155776	52	5755
2026-01-25 18:41:14.41	329.39	21.87	-38.2	-39.5	28.3	3.02e+01	60	41	0	19398656	52	5726
2026-01-25 18:41:17.73	328.36	21.94	-37.8	-39.0	28.6	3.02e+01	55	41	0	25690112	50	6100
2026-01-25 18:41:20.47	327.51	21.99	-37.5	-38.7	28.8	3.02e+01	59	41	0	30932992	50	5926
2026-01-25 18:41:23.78	326.48	22.04	-37.6	-38.8	28.7	3.02e+01	56	41	0	37224448	50	5982
2026-01-25 18:41:26.52	325.62	22.08	-37.6	-38.9	28.6	3.02e+01	52	41	0	42467328	50	6003
2026-01-25 18:41:29.84	324.58	22.11	-37.7	-39.0	28.6	3.02e+01	59	41	0	48234496	50	6079
2026-01-25 18:41:32.59	323.72	22.13	-37.7	-38.9	28.6	3.02e+01	57	41	0	53477376	50	6024
2026-01-25 18:41:35.91	322.67	22.15	-37.6	-38.9	28.6	3.02e+01	59	41	0	59768832	50	6025
2026-01-25 18:41:38.65	321.81	22.16	-37.7	-39.0	28.6	3.02e+01	59	41	0	65011712	50	6077
2026-01-25 18:41:41.96	320.77	22.16	-37.5	-38.8	28.7	3.02e+01	63	41	0	71303168	50	5932
2026-01-25 18:41:44.70	319.91	22.15	-37.6	-38.9	28.6	3.02e+01	59	41	0	76546048	50	6018
2026-01-25 18:41:48.02	318.86	22.13	-37.7	-39.0	28.4	3.02e+01	51	41	0	82313216	50	6073
2026-01-25 18:41:50.76	318.00	22.11	-37.7	-39.0	28.5	3.02e+01	45	41	0	87556096	50	6080
2026-01-25 18:41:54.07	316.97	22.07	-37.7	-38.9	28.5	3.02e+01	60	41	0	93847552	50	6037
2026-01-25 18:41:56.81	316.11	22.03	-37.6	-38.9	28.4	3.02e+01	59	41	0	99090432	50	6018
2026-01-25 18:42:00.13	315.08	21.98	-37.7	-39.0	28.4	3.02e+01	60	41	0	105381888	50	6068
2026-01-25 18:42:02.87	314.22	21.93	-38.0	-39.3	28.0	3.02e+01	62	41	0	110624768	50	6328
2026-01-25 18:42:06.18	313.20	21.86	-38.1	-39.3	28.2	3.02e+01	38	41	0	116391936	50	6349
2026-01-25 18:42:08.92	312.36	21.79	-37.9	-39.2	28.3	3.02e+01	53	41	0	121634816	50	6214
2026-01-25 18:42:12.24	311.34	21.71	-37.9	-39.1	28.4	3.02e+01	59	41	0	127926272	50	6191
2026-01-25 18:42:14.98	310.51	21.63	-37.5	-38.8	28.7	3.02e+01	60	41	0	133169152	50	5930
2026-01-25 18:42:18.29	309.50	21.53	-38.0	-39.4	28.3	3.02e+01	59	41	0	139460608	50	6351
2026-01-25 18:42:21.03	308.68	21.44	-37.5	-38.7	28.8	3.02e+01	57	41	0	144703488	50	5894
2026-01-25 18:42:24.35	307.69	21.32	-37.8	-39.1	28.1	3.02e+01	56	41	0	150470656	50	6156
2026-01-25 18:42:27.09	306.88	21.21	-37.2	-38.4	28.7	3.02e+01	58	41	0	155713536	50	5690
2026-01-25 18:42:30.40	305.90	21.08	-37.1	-38.3	29.1	3.02e+01	45	41	0	162004992	50	5595
2026-01-25 18:42:33.14	305.10	20.97	-37.5	-38.7	28.5	3.02e+01	51	41	0	167247872	50	5925
2026-01-25 18:42:36.46	304.14	20.82	-38.0	-39.4	28.1	3.02e+01	60	41	0	173539328	50	6352
2026-01-25 18:42:39.20	303.36	20.69	-38.5	-39.9	27.5	3.02e+01	59	41	0	178257920	50	6768
2026-01-25 18:42:42.52	302.42	20.54	-38.1	-39.4	28.1	3.02e+01	62	41	0	184549376	50	6404
2026-01-25 18:42:45.25	301.65	20.40	-37.1	-38.3	29.2	3.02e+01	60	41	0	189792256	50	5606
2026-01-25 18:42:48.57	300.73	20.23	-38.0	-39.3	28.2	3.02e+01	62	41	0	196083712	50	6326
2026-01-25 18:42:51.31	299.98	20.08	-37.5	-38.8	28.7	3.02e+01	58	41	0	201326592	50	5931
2026-01-25 18:42:54.62	299.08	19.90	-37.2	-38.4	29.1	3.02e+01	48	41	0	207618048	50	5666
2026-01-25 18:42:57.36	298.34	19.75	-37.9	-39.2	28.4	3.02e+01	44	41	0	212860928	50	6241
2026-01-25 18:43:00.67	297.47	19.56	-38.0	-39.2	28.3	3.02e+01	58	41	0	218628096	50	6238
2026-01-25 18:43:03.41	296.75	19.40	-38.7	-40.1	27.4	3.02e+01	59	41	0	223870976	50	6906
2026-01-25 18:43:06.72	295.89	19.20	-37.3	-38.6	28.6	3.02e+01	58	41	0	230162432	48	6518
2026-01-25 18:43:09.46	295.19	19.03	-37.4	-38.6	28.7	3.02e+01	61	41	0	235405312	50	5841
2026-01-25 18:43:12.78	294.35	18.82	-37.8	-39.1	28.0	3.02e+01	60	41	0	241696768	50	6154
2026-01-25 18:43:15.52	293.67	18.64	-36.9	-38.0	28.8	3.02e+01	55	41	0	246415360	48	6100
2026-01-25 18:43:18.83	292.86	18.43	-38.0	-39.3	27.7	3.02e+01	46	41	0	252706816	50	6328
2026-01-25 18:43:21.58	292.19	18.25	-37.8	-39.0	28.0	3.02e+01	57	41	0	257949696	50	6134
2026-01-25 18:43:24.89	291.40	18.03	-38.3	-39.6	27.9	3.02e+01	61	41	0	264241152	52	5793
2026-01-25 18:43:27.63	290.76	17.84	-37.9	-39.1	27.8	3.02e+01	57	41	0	269484032	50	6184
2026-01-25 18:43:30.94	289.99	17.61	-38.3	-39.7	27.6	3.02e+01	57	41	0	275251200	50	6596
2026-01-25 18:43:33.68	289.36	17.42	-37.5	-38.7	28.5	3.02e+01	60	41	0	280494080	48	6621
2026-01-25 18:43:37.00	288.62	17.19	-37.4	-38.6	28.6	3.02e+01	57	41	0	286785536	48	6573
2026-01-25 18:43:39.74	288.01	17.00	-37.3	-38.5	28.8	3.02e+01	44	41	0	292028416	48	6448
2026-01-25 18:43:43.05	287.29	16.76	-37.1	-38.3	28.8	3.02e+01	59	41	0	298319872	48	6293
2026-01-25 18:43:45.80	286.70	16.57	-37.5	-38.7	28.4	3.02e+01	59	41	0	303562752	48	6595
2026-01-25 18:43:49.11	285.99	16.33	-37.3	-38.5	28.5	3.02e+01	58	41	0	309854208	48	6438
2026-01-25 18:43:51.84	285.43	16.13	-37.4	-38.6	28.6	3.02e+01	60	41	0	314572800	48	6548
2026-01-25 18:43:55.16	284.74	15.89	-37.7	-39.0	28.4	3.02e+01	59	41	0	320864256	48	6814
2026-01-25 18:43:57.90	284.19	15.69	-37.5	-38.7	28.6	3.02e+01	58	41	0	326107136	48	6608
2026-01-25 18:44:01.24	283.53	15.44	-37.5	-38.7	28.6	3.02e+01	46	41	0	332398592	48	6631
2026-01-25 18:44:03.97	282.99	15.24	-37.6	-38.9	28.4	3.02e+01	49	41	0	337641472	48	6769
2026-01-25 18:44:07.28	282.36	14.99	-37.3	-38.5	28.7	3.02e+01	52	41	0	343408640	50	5765
2026-01-25 18:44:10.02	281.84	14.79	-37.7	-38.9	28.4	3.02e+01	56	41	0	348651520	50	6028
2026-01-25 18:44:13.34	281.22	14.55	-37.6	-38.8	28.4	3.02e+01	61	41	0	354942976	50	5972
2026-01-25 18:44:16.08	280.72	14.34	-38.1	-39.4	27.8	3.02e+01	61	41	0	360185856	50	6363
2026-01-25 18:44:19.39	280.12	14.10	-37.0	-38.2	28.9	3.02e+01	58	41	0	366477312	50	5576
2026-01-25 18:44:22.13	279.63	13.89	-37.7	-39.0	28.2	3.02e+01	55	41	0	371720192	50	6095
2026-01-25 18:44:25.45	279.05	13.64	-37.7	-38.9	28.3	3.02e+01	47	41	0	377487360	50	6051
2026-01-25 18:44:28.19	278.58	13.44	-37.3	-38.5	28.5	3.02e+01	50	41	0	382730240	50	5784
2026-01-25 18:44:31.50	278.02	13.19	-38.2	-39.5	27.5	3.02e+01	57	41	0	389021696	50	6468
2026-01-25 18:44:34.24	277.57	12.99	-37.6	-38.8	28.2	3.02e+01	58	41	0	394264576	50	5943
2026-01-25 18:44:37.56	277.03	12.74	-38.0	-39.3	28.0	3.02e+01	59	41	0	400556032	50	6339
2026-01-25 18:44:40.30	276.59	12.54	-37.6	-38.8	28.3	3.02e+01	59	41	0	405798912	50	5968
2026-01-25 18:44:43.61	276.06	12.30	-38.1	-39.4	28.0	3.02e+01	60	41	0	411566080	50	6363
2026-01-25 18:44:46.35	275.64	12.09	-37.9	-39.2	27.9	3.02e+01	60	41	0	416808960	50	6219
2026-01-25 18:44:49.67	275.13	11.85	-37.5	-38.8	28.3	3.02e+01	60	41	0	423100416	50	5942
2026-01-25 18:44:52.41	274.72	11.65	-38.0	-39.3	27.7	3.02e+01	60	41	0	428343296	50	6343
2026-01-25 18:44:55.72	274.23	11.40	-37.7	-39.0	28.0	3.02e+01	60	41	0	434634752	50	6101
2026-01-25 18:44:58.47	273.83	11.20	-37.7	-38.9	28.2	3.02e+01	55	41	0	439877632	50	6063
2026-01-25 18:45:01.78	273.36	10.96	-37.9	-39.2	28.0	3.02e+01	58	41	0	445644800	50	6221
2026-01-25 18:45:04.52	272.97	10.76	-38.1	-39.4	27.8	3.02e+01	58	41	0	450887680	50	6394
2026-01-25 18:45:07.84	272.51	10.52	-37.9	-39.2	28.0	3.02e+01	56	41	0	457179136	50	6236
2026-01-25 18:45:10.58	272.14	10.32	-38.1	-39.3	27.8	3.02e+01	50	41	0	462422016	50	6346
2026-01-25 18:45:13.89	271.70	10.09	-38.3	-39.6	27.5	3.02e+01	58	41	0	468713472	50	6539
2026-01-25 18:45:16.63	271.33	9.89	-38.1	-39.5	27.7	3.02e+01	60	41	0	473432064	50	6426
2026-01-25 18:45:19.95	270.90	9.65	-38.2	-39.5	27.7	3.02e+01	59	41	0	479723520	50	6489
2026-01-25 18:45:22.69	270.55	9.46	-38.3	-39.6	27.5	3.02e+01	54	41	0	484966400	50	6523
2026-01-25 18:45:26.00	270.14	9.22	-38.5	-39.9	27.2	3.02e+01	60	41	0	491257856	50	6746
2026-01-25 18:45:28.75	269.80	9.03	-38.4	-39.7	27.4	3.02e+01	57	41	0	496500736	50	6587
2026-01-25 18:45:32.06	269.40	8.80	-38.2	-39.5	27.6	3.02e+01	44	41	0	502792192	50	6457
2026-01-25 18:45:34.80	269.07	8.61	-38.7	-40.0	27.1	3.02e+01	45	41	0	507510784	50	6857
2026-01-25 18:45:38.12	268.68	8.38	-38.6	-40.0	27.0	3.02e+01	60	41	0	513802240	50	6841
2026-01-25 18:45:40.86	268.36	8.19	-38.4	-39.7	27.3	3.02e+01	58	41	0	519045120	50	6637
2026-01-25 18:45:44.17	267.98	7.96	-38.8	-40.1	27.0	3.02e+01	59	41	0	525336576	50	6938
2026-01-25 18:45:46.91	267.68	7.77	-38.5	-39.8	27.2	3.02e+01	59	41	0	530579456	50	6715
2026-01-25 18:45:50.23	267.31	7.54	-38.8	-40.2	26.9	3.02e+01	44	41	0	536870912	52	6229
2026-01-25 18:45:52.96	267.01	7.36	-38.9	-40.2	26.9	3.02e+01	57	40	0	541589504	52	6277
2026-01-25 18:45:56.28	266.66	7.13	-39.2	-40.5	26.4	3.02e+01	61	41	0	547880960	52	6485
2026-01-25 18:45:59.03	266.37	6.95	-39.0	-40.3	26.7	3.02e+01	57	41	0	553123840	52	6336
2026-01-25 18:46:02.35	266.03	6.73	-39.1	-40.4	26.6	3.02e+01	63	41	0	559415296	52	6404
2026-01-25 18:46:05.09	265.75	6.55	-39.0	-40.4	26.6	3.02e+01	55	41	0	564658176	52	6375
2026-01-25 18:46:08.40	265.41	6.33	-39.4	-40.8	26.2	3.02e+01	60	40	0	570949632	52	6671
2026-01-25 18:46:11.14	265.14	6.15	-39.3	-40.7	26.3	3.02e+01	57	41	0	575668224	52	6596
2026-01-25 18:46:14.46	264.82	5.93	-39.1	-40.5	26.4	3.02e+01	52	41	0	581959680	52	6487
2026-01-25 18:46:17.19	264.56	5.75	-39.2	-40.6	26.3	3.02e+01	52	41	0	587202560	52	6537
2026-01-25 18:46:20.51	264.24	5.53	-39.7	-41.2	25.9	3.02e+01	59	41	0	593494016	54	6223
2026-01-25 18:46:23.25	263.99	5.36	-39.6	-41.1	25.7	3.02e+01	59	41	0	598736896	54	6155
2026-01-25 18:46:26.56	263.68	5.14	-39.4	-40.9	25.9	3.02e+01	60	41	0	605028352	52	6732
2026-01-25 18:46:29.31	263.43	4.97	-39.7	-41.2	25.6	3.02e+01	60	41	0	609746944	54	6254
2026-01-25 18:46:32.62	263.14	4.76	-39.7	-41.2	25.5	3.02e+01	60	41	0	616038400	52	7011
2026-01-25 18:46:35.36	262.90	4.59	-39.5	-40.9	25.9	3.02e+01	58	41	0	621281280	54	6061
2026-01-25 18:46:38.68	262.61	4.38	-39.5	-40.9	25.7	3.02e+01	50	41	0	627572736	54	6046
2026-01-25 18:46:41.41	262.38	4.21	-39.8	-41.3	25.4	3.02e+01	45	40	0	632815616	54	6290
2026-01-25 18:46:44.73	262.10	4.00	-39.9	-41.5	25.0	3.02e+01	56	41	0	639107072	54	6428
2026-01-25 18:46:47.47	261.87	3.83	-40.3	-41.9	24.7	3.02e+01	62	40	0	643825664	54	6759
2026-01-25 18:46:50.79	261.60	3.62	-40.4	-42.1	24.5	3.02e+01	58	41	0	650117120	54	6884
2026-01-25 18:46:53.53	261.38	3.46	-40.7	-42.4	24.0	3.02e+01	60	41	0	655360000	54	7163
2026-01-25 18:46:56.85	261.12	3.25	-39.4	-40.9	25.5	3.02e+01	53	41	0	661651456	52	6770
2026-01-25 18:46:59.59	260.90	3.09	-40.2	-41.7	24.4	3.02e+01	44	41	0	666894336	54	6637
2026-01-25 18:47:02.91	260.65	2.89	-50.1	-67.8	3.5	3.02e+01	0	41	104	670040064	60	94770
2026-01-25 18:47:05.65	260.44	2.72	-50.5	-68.3	3.5	3.02e+01	0	41	104	670040064	60	100195
2026-01-25 18:47:08.97	260.19	2.52	-50.6	-68.4	3.5	3.02e+01	0	41	104	670040064	60	101582
2026-01-25 18:47:11.71	259.99	2.36	-50.7	-68.5	3.5	3.02e+01	0	41	104	670040064	60	102423
2026-01-25 18:47:15.03	259.75	2.16	-50.7	-68.5	3.5	3.02e+01	0	41	104	670040064	60	102313
2026-01-25 18:47:17.77	259.55	2.00	-50.3	-68.5	3.5	3.02e+01	0	41	104	670040064	60	102030
2026-01-25 18:47:21.09	259.32	1.81	-50.5	-68.3	3.5	3.02e+01	0	41	104	670040064	60	100422
2026-01-25 18:47:23.83	259.12	1.65	-50.5	-68.3	3.5	3.02e+01	0	41	104	670040064	60	100340
2026-01-25 18:47:27.15	258.90	1.45	-50.5	-68.3	3.5	3.02e+01	0	41	104	670040064	60	100255
2026-01-25 18:47:29.89	258.71	1.30	-50.5	-68.3	3.5	3.02e+01	0	41	104	670040064	60	100395
2026-01-25 18:47:33.21	258.49	1.10	-50.5	-68.3	3.5	3.02e+01	0	41	104	670040064	60	100537
2026-01-25 18:47:35.95	258.30	0.95	-50.5	-68.3	3.5	3.02e+01	0	41	104	670040064	60	100627
2026-01-25 18:47:39.27	258.09	0.76	-50.5	-68.3	3.5	3.02e+01	0	41	104	670040064	60	100545
2026-01-25 18:47:42.01	257.91	0.60	-50.5	-68.3	3.5	3.02e+01	0	41	104	670040064	60	100159
2026-01-25 18:47:45.33	257.70	0.42	-50.5	-68.3	3.5	3.02e+01	0	41	104	670040064	60	100591
2026-01-25 18:47:48.07	257.53	0.26	-50.5	-68.3	3.5	3.02e+01	0	41	104	670040064	60	100395
2026-01-25 18:47:51.37	257.32	0.08	-50.5	-68.4	3.5	3.02e+01	0	41	104	670040064	60	100648
2026-01-25 18:47:54.11	257.16	-0.08	-50.5	-68.4	3.5	3.02e+01	0	41	104	670040064	60	100659

#Closed at: 2026-01-25 18:47:55
#Recorded file [670 MB]: D:/lorett/data/35029_260126_063529.dat