passes_logs/2026/01/25/R4.6S_Anadyr/R4.6S_Anadyr__20260125_151754_NOAA_20_JPSS-1_rec.log

#Pass ID: 20260125_151754_NOAA 20 (JPSS-1)
#Satellite: NOAA 20 (JPSS-1)
#Configuration: NOAA 20
#almurnet v.1.7.20251203
#Start time: 2026-01-25 15:17:54

#Version: 2.2.20231116
#Station: R4.6S_Anadyr
#Location: 177.4865 lon 64.73178 lat
#TLE: 1 43013U 17073A   26025.26840802  .00000166  00000+0  99658-4 0  9997
#TLE: 2 43013  98.7646 326.0999 0001063  24.6905 335.4321 14.19540119424193

#Time	Az	El	Level	Level2	SNR	BER	BlckErr	Temp	State	Recorded	gain1	gain2
2026-01-25 15:17:54.65	21.90	0.04	-50.3	-65.2	3.5	1.51e+00	0	38	0	0	60	65475
2026-01-25 15:17:58.69	21.85	0.28	-50.2	-65.4	3.6	1.51e+00	0	39	104	0	60	67626
2026-01-25 15:18:02.73	21.80	0.52	-50.3	-65.5	3.6	1.51e+00	0	40	104	0	60	67976
2026-01-25 15:18:06.77	21.75	0.77	-50.2	-65.4	3.6	1.51e+00	0	40	104	0	60	67641
2026-01-25 15:18:10.80	21.71	1.01	-50.0	-65.3	3.6	1.51e+00	0	40	104	0	60	66338
2026-01-25 15:18:14.85	21.66	1.26	-49.6	-64.9	3.6	1.51e+00	0	40	104	0	60	63281
2026-01-25 15:18:18.89	21.60	1.51	-48.8	-63.8	3.6	1.51e+00	0	40	104	0	60	55823
2026-01-25 15:18:22.93	21.55	1.77	-48.8	-63.7	3.6	1.51e+00	0	40	104	0	60	55027
2026-01-25 15:18:26.97	21.50	2.02	-48.8	-64.0	3.6	1.51e+00	0	40	104	0	60	57226
2026-01-25 15:18:31.01	21.44	2.28	-48.8	-63.8	3.6	1.51e+00	0	40	104	0	60	56012
2026-01-25 15:18:35.05	21.39	2.54	-48.7	-62.7	3.6	1.51e+00	0	40	104	0	60	49449
2026-01-25 15:18:39.09	21.33	2.80	-48.7	-63.2	3.6	1.51e+00	0	40	104	0	60	52070
2026-01-25 15:18:43.13	21.27	3.07	-48.2	-56.3	5.9	5.78e-01	0	40	0	1048576	60	23492
2026-01-25 15:18:47.17	21.21	3.34	-46.2	-49.9	13.0	9.91e-05	0	40	0	8388608	60	11246
2026-01-25 15:18:51.21	21.15	3.61	-46.0	-49.4	13.5	8.08e-05	0	40	0	15728640	60	10670
2026-01-25 15:18:55.25	21.08	3.88	-48.6	-62.4	3.6	1.31e+00	0	40	104	19922944	60	47473
2026-01-25 15:18:59.29	21.02	4.15	-44.1	-46.2	16.6	0.00e+00	0	40	0	22020096	60	7402
2026-01-25 15:19:03.32	20.95	4.43	-42.5	-44.0	19.1	0.00e+00	0	40	0	29360128	58	6449
2026-01-25 15:19:07.36	20.88	4.71	-43.9	-45.8	17.4	0.00e+00	0	40	0	37748736	60	7079
2026-01-25 15:19:11.40	20.81	5.00	-44.1	-46.1	16.9	0.00e+00	0	40	0	45088768	60	7310
2026-01-25 15:19:15.44	20.74	5.28	-42.7	-44.3	18.9	0.00e+00	0	40	0	52428800	58	6630
2026-01-25 15:19:19.47	20.67	5.57	-41.9	-43.3	19.9	0.00e+00	0	40	0	59768832	56	6672
2026-01-25 15:19:23.51	20.59	5.86	-41.6	-42.9	20.6	0.00e+00	0	40	0	68157440	56	6364
2026-01-25 15:19:27.55	20.52	6.16	-41.6	-42.9	20.5	0.00e+00	0	40	0	75497472	56	6341
2026-01-25 15:19:31.59	20.44	6.46	-41.7	-43.0	20.3	0.00e+00	0	40	0	82837504	56	6463
2026-01-25 15:19:35.62	20.36	6.76	-42.2	-43.6	20.1	0.00e+00	0	40	0	90177536	56	6901
2026-01-25 15:19:39.66	20.27	7.07	-41.6	-42.8	20.7	0.00e+00	0	40	0	97517568	56	6299
2026-01-25 15:19:43.69	20.19	7.38	-41.2	-42.4	21.1	0.00e+00	0	40	0	105906176	56	6030
2026-01-25 15:19:47.73	20.10	7.69	-40.9	-42.0	21.4	0.00e+00	0	40	0	113246208	54	6439
2026-01-25 15:19:51.77	20.01	8.01	-41.7	-43.0	20.7	0.00e+00	0	40	0	120586240	54	7207
2026-01-25 15:19:55.80	19.92	8.33	-41.3	-42.5	21.2	0.00e+00	0	40	0	127926272	56	6094
2026-01-25 15:19:59.84	19.82	8.66	-41.1	-42.3	21.2	0.00e+00	0	40	0	136314880	56	5932
2026-01-25 15:20:03.88	19.73	8.99	-40.6	-41.7	21.9	0.00e+00	0	40	0	143654912	54	6213
2026-01-25 15:20:07.91	19.63	9.32	-40.5	-41.6	22.0	0.00e+00	0	41	0	150994944	54	6135
2026-01-25 15:20:11.95	19.52	9.66	-40.5	-41.6	22.0	0.00e+00	0	40	0	158334976	54	6105
2026-01-25 15:20:15.99	19.42	10.00	-40.2	-41.2	22.5	0.00e+00	0	40	0	165675008	54	5878
2026-01-25 15:20:20.03	19.31	10.35	-40.1	-41.1	22.5	0.00e+00	0	40	0	174063616	54	5807
2026-01-25 15:20:24.07	19.20	10.71	-40.0	-41.0	22.7	0.00e+00	0	41	0	181403648	52	6403
2026-01-25 15:20:28.10	19.09	11.06	-39.8	-40.8	22.9	0.00e+00	0	41	0	188743680	52	6247
2026-01-25 15:20:32.14	18.97	11.43	-39.6	-40.5	23.2	0.00e+00	0	41	0	196083712	52	6087
2026-01-25 15:20:36.18	18.85	11.79	-39.5	-40.4	23.2	0.00e+00	0	41	0	204472320	52	6004
2026-01-25 15:20:40.22	18.72	12.17	-39.4	-40.3	23.4	0.00e+00	0	41	0	211812352	52	5948
2026-01-25 15:20:44.26	18.59	12.55	-39.5	-40.4	23.2	0.00e+00	0	41	0	219152384	52	6013
2026-01-25 15:20:48.29	18.46	12.93	-39.5	-40.4	23.3	0.00e+00	0	41	0	226492416	52	6008
2026-01-25 15:20:52.33	18.33	13.32	-39.1	-39.9	23.6	0.00e+00	0	41	0	233832448	52	5690
2026-01-25 15:20:56.37	18.19	13.72	-39.1	-40.0	23.7	0.00e+00	0	41	0	242221056	52	5756
2026-01-25 15:21:00.41	18.04	14.12	-39.3	-40.2	23.5	0.00e+00	0	41	0	249561088	52	5836
2026-01-25 15:21:04.44	17.89	14.53	-39.0	-39.9	23.7	0.00e+00	0	41	0	256901120	52	5661
2026-01-25 15:21:08.48	17.74	14.95	-38.9	-39.7	23.8	0.00e+00	0	40	0	264241152	50	6237
2026-01-25 15:21:12.52	17.58	15.38	-39.0	-39.9	23.8	0.00e+00	0	41	0	272629760	50	6356
2026-01-25 15:21:16.56	17.42	15.81	-38.6	-39.5	24.2	0.00e+00	0	40	0	279969792	50	6058
2026-01-25 15:21:20.60	17.25	16.25	-38.6	-39.5	24.1	0.00e+00	0	41	0	287309824	50	6074
2026-01-25 15:21:24.63	17.08	16.69	-38.5	-39.4	24.4	0.00e+00	0	41	0	294649856	50	5975
2026-01-25 15:21:28.67	16.90	17.15	-38.4	-39.2	24.5	0.00e+00	0	41	0	301989888	50	5854
2026-01-25 15:21:32.70	16.71	17.61	-38.3	-39.2	24.4	0.00e+00	0	41	0	310378496	50	5836
2026-01-25 15:21:36.73	16.52	18.08	-38.3	-39.1	24.5	0.00e+00	0	41	0	317718528	50	5819
2026-01-25 15:21:40.77	16.32	18.56	-38.6	-39.4	24.3	0.00e+00	0	41	0	325058560	50	6019
2026-01-25 15:21:44.80	16.11	19.05	-38.5	-39.4	24.4	0.00e+00	0	41	0	332398592	50	5973
2026-01-25 15:21:48.84	15.90	19.55	-38.1	-38.9	24.6	0.00e+00	0	41	0	339738624	50	5686
2026-01-25 15:21:52.88	15.68	20.06	-38.2	-39.0	24.5	0.00e+00	0	41	0	348127232	50	5757
2026-01-25 15:21:56.92	15.45	20.58	-38.1	-38.9	24.8	0.00e+00	0	41	0	355467264	50	5647
2026-01-25 15:22:00.96	15.21	21.11	-37.9	-38.7	24.9	0.00e+00	0	41	0	362807296	50	5558
2026-01-25 15:22:04.99	14.97	21.65	-38.0	-38.8	24.9	0.00e+00	0	41	0	370147328	50	5575
2026-01-25 15:22:09.02	14.71	22.20	-38.1	-39.0	24.6	0.00e+00	0	41	0	378535936	50	5697
2026-01-25 15:22:13.06	14.45	22.76	-38.1	-38.9	24.8	0.00e+00	0	41	0	385875968	50	5693
2026-01-25 15:22:17.10	14.17	23.33	-38.2	-39.0	24.6	0.00e+00	0	41	0	393216000	50	5726
2026-01-25 15:22:21.13	13.88	23.92	-38.2	-39.1	24.7	0.00e+00	0	41	0	400556032	50	5764
2026-01-25 15:22:25.17	13.59	24.52	-38.5	-39.3	24.4	0.00e+00	0	41	0	407896064	50	5951
2026-01-25 15:22:29.20	13.28	25.13	-39.0	-39.8	24.1	0.00e+00	0	41	0	416284672	50	6295
2026-01-25 15:22:33.24	12.95	25.76	-39.2	-40.0	23.9	0.00e+00	0	41	0	423624704	50	6449
2026-01-25 15:22:37.28	12.61	26.40	-39.6	-40.5	23.4	0.00e+00	0	41	0	430964736	50	6792
2026-01-25 15:22:41.31	12.26	27.05	-40.3	-41.2	22.8	0.00e+00	0	41	0	438304768	52	6610
2026-01-25 15:22:45.36	11.89	27.72	-41.1	-42.2	21.9	0.00e+00	0	41	0	445644800	54	6580
2026-01-25 15:22:49.39	11.51	28.40	-41.5	-42.6	21.6	0.00e+00	0	41	0	454033408	54	6907
2026-01-25 15:22:53.43	11.11	29.11	-41.5	-42.6	21.6	0.00e+00	0	41	0	461373440	54	6917
2026-01-25 15:22:57.47	10.69	29.82	-41.5	-42.6	21.7	0.00e+00	0	41	0	468713472	54	6909
2026-01-25 15:23:01.50	10.25	30.55	-42.3	-43.5	21.0	0.00e+00	0	41	0	476053504	56	6814
2026-01-25 15:23:05.54	9.78	31.30	-42.3	-43.6	20.8	0.00e+00	0	41	0	484442112	56	6857
2026-01-25 15:23:09.58	9.30	32.07	-42.6	-43.9	20.4	0.00e+00	0	41	0	491782144	56	7139
2026-01-25 15:23:13.62	8.79	32.86	-42.7	-44.0	20.4	0.00e+00	0	41	0	499122176	58	6458
2026-01-25 15:23:17.65	8.25	33.66	-42.7	-44.1	20.3	0.00e+00	0	41	0	506462208	58	6477
2026-01-25 15:23:21.69	7.69	34.48	-43.0	-44.3	20.1	0.00e+00	0	41	0	513802240	58	6684
2026-01-25 15:23:25.72	7.10	35.32	-43.5	-45.0	19.5	0.00e+00	0	41	0	522190848	58	7182
2026-01-25 15:23:29.76	6.47	36.18	-43.1	-44.5	19.9	0.00e+00	0	41	0	529530880	58	6836
2026-01-25 15:23:33.80	5.81	37.05	-43.0	-44.3	20.2	0.00e+00	0	41	0	536870912	58	6674
2026-01-25 15:23:37.83	5.11	37.95	-42.2	-43.4	20.9	0.00e+00	0	41	0	544210944	58	6031
2026-01-25 15:23:41.87	4.37	38.87	-41.9	-43.1	21.2	0.00e+00	0	41	0	552599552	56	6508
2026-01-25 15:23:45.91	3.58	39.80	-41.7	-42.9	21.5	0.00e+00	0	41	0	559939584	56	6336
2026-01-25 15:23:49.95	2.75	40.76	-41.3	-42.4	21.9	0.00e+00	0	41	0	567279616	56	5980
2026-01-25 15:23:53.98	1.87	41.73	-40.9	-42.0	22.3	0.00e+00	0	41	0	574619648	56	5715
2026-01-25 15:23:58.02	0.93	42.72	-41.1	-42.1	22.1	0.00e+00	0	41	0	581959680	56	5814
2026-01-25 15:24:02.06	359.92	43.73	-40.7	-41.7	22.5	0.00e+00	0	41	0	590348288	54	6197
2026-01-25 15:24:06.10	358.86	44.76	-40.3	-41.3	22.9	0.00e+00	0	41	0	597688320	54	5906
2026-01-25 15:24:10.13	357.72	45.80	-39.9	-40.8	23.2	0.00e+00	0	41	0	605028352	54	5629
2026-01-25 15:24:14.17	356.49	46.85	-40.0	-40.9	23.2	0.00e+00	0	41	0	612368384	52	6343
2026-01-25 15:24:18.20	355.19	47.91	-40.8	-41.8	22.4	0.00e+00	0	41	0	619708416	54	6279
2026-01-25 15:24:22.24	353.79	48.99	-40.0	-41.0	23.1	0.00e+00	0	41	0	628097024	54	5722
2026-01-25 15:24:26.28	352.28	50.07	-39.3	-40.2	23.9	0.00e+00	0	41	0	635437056	52	5846
2026-01-25 15:24:30.31	350.67	51.15	-39.6	-40.5	23.5	0.00e+00	0	41	0	642777088	52	6069
2026-01-25 15:24:34.35	348.93	52.23	-39.1	-40.0	24.0	0.00e+00	0	41	0	650117120	52	5713
2026-01-25 15:24:38.39	347.06	53.31	-38.6	-39.5	24.4	0.00e+00	0	41	0	658505728	50	6075
2026-01-25 15:24:42.42	345.04	54.37	-39.4	-40.3	23.7	0.00e+00	0	41	0	665845760	50	6668
2026-01-25 15:24:46.46	342.87	55.42	-39.3	-40.2	23.8	0.00e+00	0	41	0	673185792	50	6585
2026-01-25 15:24:50.49	340.54	56.44	-39.5	-40.4	23.5	0.00e+00	0	41	0	680525824	50	6756
2026-01-25 15:24:54.52	338.03	57.43	-41.4	-42.6	21.6	0.00e+00	0	41	0	687865856	54	6907
2026-01-25 15:24:58.56	335.32	58.39	-41.1	-42.3	22.0	0.00e+00	0	41	0	696254464	56	5897
2026-01-25 15:25:02.60	332.42	59.29	-41.0	-42.1	22.1	0.00e+00	0	41	0	703594496	56	5817
2026-01-25 15:25:06.64	329.32	60.14	-40.6	-41.7	22.2	0.00e+00	0	41	0	710934528	54	6221
2026-01-25 15:25:10.67	326.02	60.91	-38.1	-38.9	24.8	0.00e+00	0	41	0	718274560	50	5690
2026-01-25 15:25:14.70	322.52	61.60	-38.1	-38.9	24.9	0.00e+00	0	41	0	726663168	50	5668
2026-01-25 15:25:18.74	318.82	62.20	-37.4	-38.2	25.3	0.00e+00	0	41	0	734003200	48	5852
2026-01-25 15:25:22.78	314.96	62.70	-37.1	-37.8	25.7	0.00e+00	0	41	0	741343232	48	5613
2026-01-25 15:25:26.82	310.95	63.09	-36.7	-37.4	26.0	0.00e+00	0	41	0	748683264	46	6012
2026-01-25 15:25:30.85	306.83	63.35	-36.6	-37.4	26.0	0.00e+00	0	41	0	756023296	46	5982
2026-01-25 15:25:34.88	302.64	63.50	-36.6	-37.4	26.0	0.00e+00	0	41	0	764411904	46	5979
2026-01-25 15:25:38.91	298.43	63.51	-35.6	-36.3	25.1	0.00e+00	0	41	0	771751936	44	5906
2026-01-25 15:25:42.95	294.22	63.40	-36.1	-36.8	26.4	0.00e+00	0	41	0	779091968	44	6310
2026-01-25 15:25:46.99	290.07	63.16	-36.6	-37.3	26.1	0.00e+00	0	41	0	786432000	44	6644
2026-01-25 15:25:51.03	286.02	62.81	-37.1	-37.8	25.7	0.00e+00	0	41	0	794820608	46	6316
2026-01-25 15:25:55.06	282.12	62.33	-36.9	-37.6	25.9	0.00e+00	0	41	0	802160640	46	6160
2026-01-25 15:25:59.10	278.38	61.76	-36.8	-37.5	25.9	0.00e+00	0	41	0	809500672	46	6097
2026-01-25 15:26:03.14	274.82	61.08	-37.5	-38.2	25.4	0.00e+00	0	41	0	816840704	46	6605
2026-01-25 15:26:07.17	271.47	60.33	-38.1	-38.9	24.8	0.00e+00	0	41	0	824180736	48	6386
2026-01-25 15:26:11.21	268.31	59.50	-40.7	-41.9	22.3	0.00e+00	0	41	0	832569344	54	6318
2026-01-25 15:26:15.25	265.36	58.61	-41.3	-42.5	21.8	0.00e+00	0	41	0	839909376	54	6787
2026-01-25 15:26:19.28	262.61	57.67	-41.6	-42.9	21.4	0.00e+00	0	41	0	847249408	54	7091
2026-01-25 15:26:23.31	260.05	56.68	-40.5	-41.6	22.6	0.00e+00	0	41	0	854589440	54	6149
2026-01-25 15:26:27.35	257.66	55.66	-39.7	-40.7	23.4	0.00e+00	0	41	0	861929472	52	6218
2026-01-25 15:26:31.39	255.45	54.62	-38.7	-39.6	24.3	0.00e+00	0	41	0	870318080	50	6123
2026-01-25 15:26:35.42	253.40	53.55	-39.0	-39.9	24.0	0.00e+00	0	41	0	877658112	50	6365
2026-01-25 15:26:39.45	251.49	52.48	-39.8	-40.7	23.3	0.00e+00	0	41	0	884998144	52	6219
2026-01-25 15:26:43.49	249.72	51.39	-40.7	-41.7	22.4	0.00e+00	0	41	0	892338176	54	6211
2026-01-25 15:26:47.53	248.07	50.31	-41.7	-42.9	21.4	0.00e+00	0	41	0	900726784	54	7119
2026-01-25 15:26:51.57	246.53	49.22	-42.3	-43.6	20.8	0.00e+00	0	41	0	908066816	56	6884
2026-01-25 15:26:55.60	245.11	48.15	-41.8	-43.0	21.4	0.00e+00	0	41	0	915406848	56	6428
2026-01-25 15:26:59.64	243.77	47.07	-40.7	-41.7	22.5	0.00e+00	0	41	0	922746880	56	5556
2026-01-25 15:27:03.67	242.53	46.02	-40.5	-41.5	22.7	0.00e+00	0	41	0	930086912	54	6088
2026-01-25 15:27:07.71	241.37	44.97	-40.5	-41.5	22.6	0.00e+00	0	41	0	938475520	54	6085
2026-01-25 15:27:11.75	240.28	43.94	-41.4	-42.5	21.8	0.00e+00	0	41	0	945815552	54	6811
2026-01-25 15:27:15.79	239.26	42.92	-41.4	-42.5	21.7	0.00e+00	0	41	0	953155584	54	6838
2026-01-25 15:27:19.82	238.30	41.92	-42.7	-44.0	20.5	0.00e+00	0	41	0	960495616	56	7200
2026-01-25 15:27:23.86	237.40	40.94	-43.8	-45.3	19.3	0.00e+00	0	41	0	968884224	60	6672
2026-01-25 15:27:27.90	236.56	39.98	-43.9	-45.4	19.1	0.00e+00	0	41	0	976224256	60	6755
2026-01-25 15:27:31.93	235.76	39.04	-44.3	-46.0	18.7	0.00e+00	0	41	0	983564288	60	7180
2026-01-25 15:27:35.97	235.01	38.11	-44.1	-45.8	18.7	0.00e+00	0	41	0	990904320	60	7071
2026-01-25 15:27:40.00	234.30	37.21	-43.9	-45.5	19.0	0.00e+00	0	41	0	998244352	60	6821
2026-01-25 15:27:44.04	233.63	36.33	-42.1	-43.3	21.2	0.00e+00	0	41	0	1006632960	58	5918
2026-01-25 15:27:48.08	232.99	35.46	-42.6	-43.9	20.5	0.00e+00	0	41	0	1013972992	58	6377
2026-01-25 15:27:52.12	232.38	34.61	-42.0	-43.3	21.0	0.00e+00	0	41	0	1021313024	58	5919
2026-01-25 15:27:56.15	231.81	33.78	-41.5	-42.6	21.7	0.00e+00	0	41	0	1028653056	56	6167
2026-01-25 15:28:00.19	231.27	32.97	-41.8	-43.0	21.5	0.00e+00	0	41	0	1035993088	56	6406
2026-01-25 15:28:04.23	230.75	32.18	-41.9	-43.1	21.3	0.00e+00	0	41	0	1044381696	56	6485
2026-01-25 15:28:08.26	230.26	31.41	-42.4	-43.7	20.8	0.00e+00	0	41	0	1051721728	56	6937
2026-01-25 15:28:12.30	229.79	30.65	-42.2	-43.4	21.0	0.00e+00	0	42	0	1059061760	56	6763
2026-01-25 15:28:16.33	229.34	29.92	-41.9	-43.1	21.3	0.00e+00	0	41	0	1066401792	56	6528
2026-01-25 15:28:20.37	228.92	29.19	-41.9	-43.1	21.3	0.00e+00	0	41	0	1074790400	56	6517
2026-01-25 15:28:24.40	228.51	28.49	-41.8	-43.0	21.3	0.00e+00	0	41	0	1082130432	56	6454
2026-01-25 15:28:28.44	228.12	27.80	-42.0	-43.2	21.2	0.00e+00	0	41	0	1089470464	56	6574
2026-01-25 15:28:32.48	227.74	27.12	-42.0	-43.2	21.1	0.00e+00	0	41	0	1096810496	56	6565
2026-01-25 15:28:36.52	227.39	26.46	-41.8	-43.0	21.4	0.00e+00	0	41	0	1104150528	56	6428
2026-01-25 15:28:40.56	227.04	25.82	-41.6	-42.7	21.6	0.00e+00	0	41	0	1112539136	56	6227
2026-01-25 15:28:44.60	226.71	25.19	-41.8	-43.0	21.3	0.00e+00	0	41	0	1119879168	56	6439
2026-01-25 15:28:48.63	226.40	24.57	-41.8	-43.0	21.3	0.00e+00	0	41	0	1127219200	56	6434
2026-01-25 15:28:52.67	226.09	23.97	-41.7	-42.9	21.3	0.00e+00	0	41	0	1134559232	56	6348
2026-01-25 15:28:56.70	225.80	23.38	-41.4	-42.6	21.7	0.00e+00	0	41	0	1141899264	56	6120
2026-01-25 15:29:00.74	225.52	22.80	-41.1	-42.3	22.0	0.00e+00	0	41	0	1150287872	56	5903
2026-01-25 15:29:04.77	225.25	22.23	-41.3	-42.5	21.8	0.00e+00	0	41	0	1157627904	56	6054
2026-01-25 15:29:08.81	224.99	21.68	-41.3	-42.4	21.8	0.00e+00	0	41	0	1164967936	56	6031
2026-01-25 15:29:12.85	224.74	21.13	-41.0	-42.2	22.0	0.00e+00	0	42	0	1172307968	56	5844
2026-01-25 15:29:16.88	224.50	20.60	-40.7	-41.8	22.3	0.00e+00	0	41	0	1180696576	54	6264
2026-01-25 15:29:20.92	224.27	20.08	-40.6	-41.7	22.4	0.00e+00	0	41	0	1188036608	54	6216
2026-01-25 15:29:24.96	224.04	19.56	-40.3	-41.4	22.6	0.00e+00	0	42	0	1195376640	54	5973
2026-01-25 15:29:29.00	223.83	19.06	-40.3	-41.3	22.7	0.00e+00	0	42	0	1202716672	54	5950
2026-01-25 15:29:33.03	223.62	18.57	-40.3	-41.3	22.8	0.00e+00	0	42	0	1210056704	54	5950
2026-01-25 15:29:37.07	223.41	18.08	-40.2	-41.3	22.8	0.00e+00	0	42	0	1218445312	54	5897
2026-01-25 15:29:41.10	223.22	17.61	-40.3	-41.4	22.6	0.00e+00	0	42	0	1225785344	54	5970
2026-01-25 15:29:45.14	223.03	17.14	-40.5	-41.5	22.6	0.00e+00	0	42	0	1233125376	54	6063
2026-01-25 15:29:49.18	222.84	16.69	-40.6	-41.7	22.4	0.00e+00	0	42	0	1240465408	54	6179
2026-01-25 15:29:53.21	222.67	16.24	-41.3	-42.5	21.4	0.00e+00	0	42	0	1248854016	54	6806
2026-01-25 15:29:57.25	222.49	15.80	-41.0	-42.1	21.9	0.00e+00	0	42	0	1256194048	54	6481
2026-01-25 15:30:01.29	222.33	15.36	-40.9	-42.0	22.0	0.00e+00	0	42	0	1263534080	54	6422
2026-01-25 15:30:05.33	222.17	14.93	-40.7	-41.8	22.1	0.00e+00	0	42	0	1270874112	54	6297
2026-01-25 15:30:09.36	222.01	14.51	-40.4	-41.5	22.4	0.00e+00	0	41	0	1278214144	54	6053
2026-01-25 15:30:13.39	221.86	14.10	-40.6	-41.6	22.3	0.00e+00	0	42	0	1286602752	54	6158
2026-01-25 15:30:17.43	221.71	13.70	-40.6	-41.6	22.3	0.00e+00	0	42	0	1293942784	54	6170
2026-01-25 15:30:21.46	221.57	13.30	-40.8	-41.9	22.1	0.00e+00	0	41	0	1301282816	54	6327
2026-01-25 15:30:25.50	221.43	12.90	-41.0	-42.1	21.9	0.00e+00	0	42	0	1308622848	54	6515
2026-01-25 15:30:29.53	221.29	12.52	-41.2	-42.3	21.5	0.00e+00	0	42	0	1317011456	54	6676
2026-01-25 15:30:33.57	221.16	12.14	-41.4	-42.6	21.3	0.00e+00	0	42	0	1324351488	54	6908
2026-01-25 15:30:37.60	221.03	11.76	-41.9	-43.2	20.8	0.00e+00	0	42	0	1331691520	56	6574
2026-01-25 15:30:41.64	220.91	11.39	-41.7	-42.9	21.1	0.00e+00	0	42	0	1339031552	56	6353
2026-01-25 15:30:45.68	220.79	11.02	-42.3	-43.6	20.5	0.00e+00	0	41	0	1346371584	56	6869
2026-01-25 15:30:49.71	220.67	10.67	-42.1	-43.4	20.6	0.00e+00	0	42	0	1354760192	56	6750
2026-01-25 15:30:53.75	220.55	10.31	-42.1	-43.4	20.6	0.00e+00	0	42	0	1362100224	56	6699
2026-01-25 15:30:57.79	220.44	9.96	-42.4	-43.7	20.2	0.00e+00	0	41	0	1369440256	56	7001
2026-01-25 15:31:01.83	220.33	9.62	-42.1	-43.4	20.5	0.00e+00	0	41	0	1376780288	56	6707
2026-01-25 15:31:05.87	220.23	9.27	-42.4	-43.7	20.2	0.00e+00	0	41	0	1385168896	56	6983
2026-01-25 15:31:09.90	220.12	8.94	-42.4	-43.7	20.1	0.00e+00	0	41	0	1392508928	56	7000
2026-01-25 15:31:13.94	220.02	8.61	-42.3	-43.7	20.2	0.00e+00	0	41	0	1399848960	56	6950
2026-01-25 15:31:17.98	219.92	8.28	-42.6	-44.0	19.8	0.00e+00	0	41	0	1407188992	56	7251
2026-01-25 15:31:22.01	219.83	7.96	-42.6	-44.0	19.7	0.00e+00	0	41	0	1414529024	58	6464
2026-01-25 15:31:26.05	219.73	7.64	-42.4	-43.7	20.1	0.00e+00	0	41	0	1422917632	58	6235
2026-01-25 15:31:30.09	219.64	7.32	-42.6	-44.0	19.7	0.00e+00	0	41	0	1430257664	58	6451
2026-01-25 15:31:34.13	219.55	7.01	-42.6	-44.1	19.6	0.00e+00	0	41	0	1437597696	58	6475
2026-01-25 15:31:38.17	219.47	6.70	-42.6	-44.1	19.4	0.00e+00	0	41	0	1444937728	58	6469
2026-01-25 15:31:42.20	219.38	6.40	-42.7	-44.2	19.5	0.00e+00	0	41	0	1452277760	58	6588
2026-01-25 15:31:46.24	219.30	6.10	-43.0	-44.6	18.9	0.00e+00	0	41	0	1460666368	58	6855
2026-01-25 15:31:50.27	219.22	5.80	-42.9	-44.5	19.1	0.00e+00	0	41	0	1468006400	58	6787
2026-01-25 15:31:54.31	219.14	5.51	-42.9	-44.4	19.0	0.00e+00	0	41	0	1475346432	58	6760
2026-01-25 15:31:58.35	219.06	5.22	-43.1	-44.7	19.0	0.00e+00	0	41	0	1482686464	60	6185
2026-01-25 15:32:02.39	218.99	4.93	-43.5	-45.2	18.4	0.00e+00	0	41	0	1491075072	60	6605
2026-01-25 15:32:06.42	218.91	4.64	-43.1	-44.8	18.7	0.00e+00	0	41	0	1498415104	60	6290
2026-01-25 15:32:10.46	218.84	4.36	-43.2	-44.9	18.5	0.00e+00	0	41	0	1505755136	60	6373
2026-01-25 15:32:14.50	218.77	4.08	-44.1	-46.2	17.1	0.00e+00	0	41	0	1513095168	60	7395
2026-01-25 15:32:18.54	218.70	3.81	-44.0	-46.1	17.1	0.00e+00	0	41	0	1520435200	60	7298
2026-01-25 15:32:22.58	218.64	3.53	-43.6	-45.5	17.8	0.00e+00	0	41	0	1528823808	60	6829
2026-01-25 15:32:26.62	218.57	3.26	-44.0	-46.1	17.1	0.00e+00	0	41	0	1536163840	60	7266
2026-01-25 15:32:30.65	218.51	2.99	-49.0	-64.1	3.6	0.00e+00	0	41	104	1543503872	60	57723
2026-01-25 15:32:34.69	218.44	2.73	-50.1	-65.2	3.6	1.51e+00	0	41	104	1543503872	60	65904
2026-01-25 15:32:38.73	218.38	2.46	-50.3	-65.5	3.6	1.51e+00	0	41	104	1543503872	60	67828
2026-01-25 15:32:42.76	218.32	2.20	-50.3	-65.5	3.6	1.51e+00	0	41	104	1543503872	60	68084
2026-01-25 15:32:46.80	218.26	1.94	-49.8	-65.4	3.6	1.51e+00	0	41	104	1543503872	60	67157
2026-01-25 15:32:50.84	218.20	1.69	-50.2	-65.4	3.6	1.51e+00	0	41	104	1543503872	60	67322
2026-01-25 15:32:54.88	218.15	1.43	-50.2	-65.4	3.6	1.51e+00	0	41	104	1543503872	60	67328
2026-01-25 15:32:58.92	218.09	1.18	-50.2	-65.4	3.6	1.51e+00	0	41	104	1543503872	60	67251
2026-01-25 15:33:02.96	218.03	0.93	-50.2	-65.5	3.6	1.51e+00	0	41	104	1543503872	60	67895
2026-01-25 15:33:07.00	217.98	0.68	-50.2	-65.4	3.6	1.51e+00	0	41	104	1543503872	60	67663
2026-01-25 15:33:11.05	217.93	0.44	-50.2	-65.4	3.6	1.51e+00	0	41	104	1543503872	60	67159
2026-01-25 15:33:15.09	217.88	0.19	-50.2	-65.4	3.6	1.51e+00	0	41	104	1543503872	60	67376
2026-01-25 15:33:19.13	217.83	-0.05	-50.2	-65.4	3.6	1.51e+00	0	41	104	1543503872	60	67076

#Closed at: 2026-01-25 15:33:20
#Recorded file [1543 MB]: D:/lorett/data/35029_260126_031754.dat