passes_logs/2026/01/25/R4.6S_Anadyr/R4.6S_Anadyr__20260125_115705_NOAA_20_JPSS-1_rec.log

#Pass ID: 20260125_115705_NOAA 20 (JPSS-1)
#Satellite: NOAA 20 (JPSS-1)
#Configuration: NOAA 20
#almurnet v.1.7.20251203
#Start time: 2026-01-25 11:57:07

#Version: 2.2.20231116
#Station: R4.6S_Anadyr
#Location: 177.4865 lon 64.73178 lat
#TLE: 1 43013U 17073A   26024.91598314  .00000178  00000+0  10511-3 0  9999
#TLE: 2 43013  98.7646 325.7511 0001081  25.0859 335.0369 14.19539982424141

#Time	Az	El	Level	Level2	SNR	BER	BlckErr	Temp	State	Recorded	gain1	gain2
2026-01-25 11:57:07.55	19.78	0.07	-52.5	-67.4	3.5	1.51e+00	0	39	0	0	60	85131
2026-01-25 11:57:10.58	20.04	0.21	-51.8	-67.0	3.6	1.51e+00	0	40	104	0	60	81225
2026-01-25 11:57:13.61	20.30	0.34	-51.5	-66.8	3.6	1.51e+00	0	40	104	0	60	78966
2026-01-25 11:57:16.64	20.57	0.48	-51.5	-66.8	3.6	1.51e+00	0	40	104	0	60	78765
2026-01-25 11:57:19.67	20.84	0.61	-51.3	-66.6	3.6	1.51e+00	0	40	104	0	60	77075
2026-01-25 11:57:22.70	21.11	0.75	-51.2	-66.4	3.6	1.51e+00	0	41	104	0	60	75201
2026-01-25 11:57:25.72	21.38	0.88	-50.9	-66.1	3.6	1.51e+00	0	41	104	0	60	72592
2026-01-25 11:57:28.76	21.65	1.02	-50.7	-65.8	3.6	1.51e+00	0	41	104	0	60	70556
2026-01-25 11:57:31.78	21.93	1.15	-49.9	-65.1	3.6	1.51e+00	0	41	104	0	60	65043
2026-01-25 11:57:34.81	22.20	1.29	-49.5	-64.6	3.6	1.51e+00	0	41	104	0	60	61445
2026-01-25 11:57:37.84	22.49	1.42	-49.4	-64.7	3.6	1.51e+00	0	41	104	0	60	61750
2026-01-25 11:57:40.87	22.77	1.56	-49.5	-64.6	3.6	1.51e+00	0	41	104	0	60	61533
2026-01-25 11:57:43.90	23.05	1.70	-49.5	-64.6	3.6	1.51e+00	0	41	104	0	60	61620
2026-01-25 11:57:46.92	23.34	1.83	-49.5	-64.7	3.6	1.51e+00	0	41	104	0	60	61900
2026-01-25 11:57:49.96	23.63	1.97	-49.5	-64.7	3.6	1.51e+00	0	41	104	0	60	61887
2026-01-25 11:57:52.98	23.93	2.10	-49.5	-64.4	3.6	1.51e+00	0	41	104	0	60	60123
2026-01-25 11:57:56.01	24.22	2.24	-49.5	-64.6	3.6	1.51e+00	0	41	104	0	60	61421
2026-01-25 11:57:59.04	24.52	2.37	-49.5	-64.5	3.6	1.51e+00	0	41	104	0	60	60751
2026-01-25 11:58:02.07	24.82	2.51	-49.5	-64.0	3.6	1.51e+00	0	41	104	0	60	57525
2026-01-25 11:58:05.10	25.13	2.65	-48.8	-56.8	6.4	4.07e-01	0	41	0	0	60	24946
2026-01-25 11:58:08.13	25.43	2.78	-43.4	-45.0	18.8	0.00e+00	0	41	0	5242880	60	6442
2026-01-25 11:58:11.16	25.74	2.92	-42.9	-44.5	19.4	0.00e+00	0	41	0	11534336	60	6038
2026-01-25 11:58:14.19	26.05	3.06	-43.9	-45.7	18.1	0.00e+00	0	41	0	16777216	60	6933
2026-01-25 11:58:17.21	26.37	3.19	-48.5	-55.4	10.6	1.40e+00	0	41	104	19922944	60	21399
2026-01-25 11:58:20.24	26.68	3.33	-44.9	-47.1	17.0	0.00e+00	0	41	0	24117248	60	8185
2026-01-25 11:58:23.26	27.00	3.46	-40.7	-41.8	21.2	0.00e+00	0	41	0	29360128	54	6268
2026-01-25 11:58:26.29	27.33	3.60	-42.9	-44.3	19.9	0.00e+00	0	41	0	35651584	60	5957
2026-01-25 11:58:29.32	27.65	3.74	-43.8	-45.5	18.6	0.00e+00	0	41	0	40894464	60	6798
2026-01-25 11:58:32.35	27.98	3.87	-43.6	-45.2	19.1	0.00e+00	0	41	0	47185920	60	6556
2026-01-25 11:58:35.38	28.31	4.01	-43.9	-45.5	18.4	0.00e+00	0	41	0	52428800	60	6813
2026-01-25 11:58:38.40	28.65	4.14	-43.1	-44.6	19.2	0.00e+00	0	41	0	57671680	58	6915
2026-01-25 11:58:41.43	28.98	4.28	-43.3	-44.8	19.3	0.00e+00	0	41	0	63963136	58	7048
2026-01-25 11:58:44.46	29.33	4.41	-44.2	-46.0	18.2	0.00e+00	0	41	0	69206016	60	7180
2026-01-25 11:58:47.49	29.67	4.55	-42.9	-44.3	19.7	0.00e+00	0	41	0	75497472	58	6681
2026-01-25 11:58:50.52	30.02	4.69	-43.4	-44.9	19.0	0.00e+00	0	41	0	80740352	58	7151
2026-01-25 11:58:53.55	30.37	4.82	-43.3	-44.8	19.7	0.00e+00	0	41	0	87031808	58	7077
2026-01-25 11:58:56.57	30.72	4.96	-44.2	-45.9	18.5	0.00e+00	0	41	0	92274688	60	7117
2026-01-25 11:58:59.60	31.07	5.09	-43.0	-44.5	19.8	0.00e+00	0	41	0	97517568	58	6776
2026-01-25 11:59:02.63	31.43	5.23	-42.6	-43.9	20.5	0.00e+00	0	41	0	103809024	58	6332
2026-01-25 11:59:05.65	31.79	5.36	-42.2	-43.5	20.8	0.00e+00	0	41	0	109051904	58	6036
2026-01-25 11:59:08.68	32.16	5.49	-40.8	-41.9	22.3	0.00e+00	0	41	0	115343360	56	5633
2026-01-25 11:59:11.71	32.53	5.63	-42.7	-44.1	20.3	0.00e+00	0	41	0	120586240	58	6495
2026-01-25 11:59:14.74	32.90	5.76	-42.8	-44.2	20.2	0.00e+00	0	41	0	125829120	58	6575
2026-01-25 11:59:17.77	33.28	5.89	-43.3	-44.8	19.7	0.00e+00	0	41	0	132120576	58	7059
2026-01-25 11:59:20.80	33.65	6.03	-43.8	-45.4	19.2	0.00e+00	0	41	0	137363456	60	6710
2026-01-25 11:59:23.82	34.04	6.16	-43.3	-44.8	19.9	0.00e+00	0	41	0	143654912	58	7045
2026-01-25 11:59:26.85	34.42	6.29	-43.8	-45.3	19.2	0.00e+00	0	41	0	148897792	60	6677
2026-01-25 11:59:29.88	34.81	6.42	-42.1	-43.4	21.0	0.00e+00	0	41	0	155189248	58	5970
2026-01-25 11:59:32.91	35.20	6.56	-44.3	-46.0	18.4	0.00e+00	0	41	0	160432128	60	7187
2026-01-25 11:59:35.94	35.60	6.69	-41.9	-43.1	21.4	0.00e+00	0	41	0	165675008	58	5801
2026-01-25 11:59:38.97	36.00	6.82	-42.4	-43.6	20.8	0.00e+00	0	41	0	171966464	58	6137
2026-01-25 11:59:42.00	36.40	6.95	-42.1	-43.3	21.1	0.00e+00	0	41	0	177209344	56	6667
2026-01-25 11:59:45.02	36.80	7.08	-42.2	-43.4	21.1	0.00e+00	0	41	0	183500800	58	5989
2026-01-25 11:59:48.04	37.21	7.20	-42.0	-43.2	21.2	0.00e+00	0	41	0	188743680	58	5878
2026-01-25 11:59:51.07	37.62	7.33	-42.0	-43.2	21.2	0.00e+00	0	41	0	193986560	58	5886
2026-01-25 11:59:54.10	38.04	7.46	-42.1	-43.2	21.1	0.00e+00	0	41	0	200278016	58	5891
2026-01-25 11:59:57.13	38.46	7.59	-42.1	-43.3	21.2	0.00e+00	0	41	0	205520896	58	5911
2026-01-25 12:00:00.15	38.88	7.71	-42.5	-43.7	20.8	0.00e+00	0	41	0	211812352	56	6960
2026-01-25 12:00:03.18	39.31	7.84	-42.2	-43.4	21.1	0.00e+00	0	41	0	217055232	58	5996
2026-01-25 12:00:06.21	39.74	7.96	-42.5	-43.7	20.8	0.00e+00	0	41	0	222298112	58	6210
2026-01-25 12:00:09.23	40.17	8.09	-42.5	-43.7	20.9	0.00e+00	0	41	0	228589568	58	6243
2026-01-25 12:00:12.26	40.61	8.21	-42.4	-43.6	21.1	0.00e+00	0	41	0	233832448	58	6126
2026-01-25 12:00:15.29	41.05	8.33	-42.6	-43.9	20.7	0.00e+00	0	41	0	240123904	58	6338
2026-01-25 12:00:18.31	41.49	8.46	-42.7	-44.0	20.7	0.00e+00	0	41	0	245366784	58	6395
2026-01-25 12:00:21.34	41.94	8.58	-41.7	-42.8	21.8	0.00e+00	0	41	0	251658240	56	6288
2026-01-25 12:00:24.37	42.39	8.70	-42.4	-43.6	21.1	0.00e+00	0	41	0	256901120	58	6119
2026-01-25 12:00:27.40	42.85	8.82	-42.6	-43.9	20.9	0.00e+00	0	41	0	262144000	58	6319
2026-01-25 12:00:30.42	43.31	8.93	-42.5	-43.8	20.8	0.00e+00	0	41	0	268435456	58	6252
2026-01-25 12:00:33.45	43.77	9.05	-42.4	-43.6	21.1	0.00e+00	0	41	0	273678336	58	6116
2026-01-25 12:00:36.48	44.24	9.17	-42.7	-43.9	20.5	0.00e+00	0	41	0	279969792	58	6373
2026-01-25 12:00:39.50	44.71	9.28	-42.5	-43.7	21.0	0.00e+00	0	41	0	285212672	58	6200
2026-01-25 12:00:42.53	45.18	9.40	-42.7	-44.0	20.6	0.00e+00	0	41	0	290455552	58	6435
2026-01-25 12:00:45.56	45.66	9.51	-43.0	-44.3	20.5	0.00e+00	0	41	0	296747008	58	6653
2026-01-25 12:00:48.59	46.14	9.62	-42.2	-43.4	21.3	0.00e+00	0	41	0	301989888	58	5993
2026-01-25 12:00:51.62	46.62	9.73	-42.6	-43.9	20.9	0.00e+00	0	41	0	308281344	58	6320
2026-01-25 12:00:54.65	47.11	9.84	-42.2	-43.4	21.1	0.00e+00	0	41	0	313524224	58	6008
2026-01-25 12:00:57.68	47.60	9.95	-42.1	-43.2	21.5	0.00e+00	0	41	0	319815680	58	5880
2026-01-25 12:01:00.71	48.10	10.05	-42.3	-43.5	21.2	0.00e+00	0	41	0	325058560	58	6086
2026-01-25 12:01:03.74	48.59	10.16	-42.4	-43.6	21.0	0.00e+00	0	41	0	330301440	58	6158
2026-01-25 12:01:06.77	49.10	10.26	-42.5	-43.7	21.1	0.00e+00	0	41	0	336592896	58	6192
2026-01-25 12:01:09.80	49.60	10.36	-42.7	-43.9	20.8	0.00e+00	0	41	0	341835776	58	6388
2026-01-25 12:01:12.83	50.11	10.46	-42.7	-43.9	20.7	0.00e+00	0	41	0	348127232	58	6344
2026-01-25 12:01:15.85	50.62	10.56	-42.6	-43.9	20.9	0.00e+00	0	41	0	353370112	58	6324
2026-01-25 12:01:18.88	51.13	10.66	-42.4	-43.6	21.2	0.00e+00	0	41	0	358612992	58	6107
2026-01-25 12:01:21.91	51.65	10.75	-42.4	-43.6	21.2	0.00e+00	0	41	0	364904448	58	6114
2026-01-25 12:01:24.94	52.17	10.85	-42.7	-44.0	20.8	0.00e+00	0	41	0	370147328	58	6422
2026-01-25 12:01:27.97	52.70	10.94	-42.6	-43.9	20.9	0.00e+00	0	41	0	376438784	58	6322
2026-01-25 12:01:31.00	53.23	11.03	-42.8	-44.0	20.8	0.00e+00	0	41	0	381681664	58	6449
2026-01-25 12:01:34.02	53.76	11.11	-42.5	-43.7	21.0	0.00e+00	0	41	0	387973120	58	6193
2026-01-25 12:01:37.05	54.29	11.20	-42.2	-43.3	21.4	0.00e+00	0	41	0	393216000	58	5955
2026-01-25 12:01:40.08	54.83	11.29	-42.1	-43.2	21.5	0.00e+00	0	41	0	398458880	58	5892
2026-01-25 12:01:43.10	55.37	11.37	-42.1	-43.2	21.5	0.00e+00	0	41	0	404750336	58	5878
2026-01-25 12:01:46.13	55.91	11.45	-42.1	-43.2	21.5	0.00e+00	0	41	0	409993216	58	5883
2026-01-25 12:01:49.15	56.46	11.53	-42.2	-43.4	21.3	0.00e+00	0	41	0	416284672	58	6012
2026-01-25 12:01:52.18	57.01	11.60	-41.8	-42.9	21.8	0.00e+00	0	41	0	421527552	58	5633
2026-01-25 12:01:55.21	57.56	11.68	-41.8	-42.9	21.9	0.00e+00	0	41	0	426770432	56	6339
2026-01-25 12:01:58.23	58.11	11.75	-41.6	-42.7	22.0	0.00e+00	0	41	0	433061888	56	6196
2026-01-25 12:02:01.26	58.67	11.82	-42.1	-43.2	21.3	0.00e+00	0	41	0	438304768	56	6595
2026-01-25 12:02:04.29	59.23	11.89	-42.3	-43.5	21.3	0.00e+00	0	41	0	444596224	58	6051
2026-01-25 12:02:07.32	59.79	11.95	-42.4	-43.6	21.1	0.00e+00	0	41	0	449839104	58	6148
2026-01-25 12:02:10.35	60.35	12.01	-42.1	-43.3	21.4	0.00e+00	0	41	0	455081984	58	5935
2026-01-25 12:02:13.37	60.92	12.07	-42.5	-43.8	21.1	0.00e+00	0	41	0	461373440	58	6256
2026-01-25 12:02:16.40	61.49	12.13	-42.8	-44.1	20.6	0.00e+00	0	41	0	466616320	58	6514
2026-01-25 12:02:19.43	62.06	12.19	-43.1	-44.5	20.3	0.00e+00	0	41	0	472907776	58	6800
2026-01-25 12:02:22.46	62.63	12.24	-42.9	-44.2	20.6	0.00e+00	0	41	0	478150656	58	6549
2026-01-25 12:02:25.49	63.21	12.29	-43.0	-44.3	20.4	0.00e+00	0	41	0	484442112	58	6656
2026-01-25 12:02:28.51	63.78	12.34	-42.9	-44.1	20.7	0.00e+00	0	41	0	489684992	58	6535
2026-01-25 12:02:31.54	64.36	12.39	-42.8	-44.0	20.7	0.00e+00	0	41	0	494927872	58	6449
2026-01-25 12:02:34.57	64.95	12.43	-42.5	-43.7	21.0	0.00e+00	0	41	0	501219328	58	6211
2026-01-25 12:02:37.59	65.53	12.47	-42.5	-43.7	21.0	0.00e+00	0	41	0	506462208	58	6199
2026-01-25 12:02:40.63	66.11	12.51	-42.4	-43.7	20.9	0.00e+00	0	41	0	512753664	58	6179
2026-01-25 12:02:43.66	66.70	12.55	-42.4	-43.6	21.2	0.00e+00	0	41	0	517996544	58	6107
2026-01-25 12:02:46.68	67.28	12.58	-42.3	-43.5	21.2	0.00e+00	0	41	0	523239424	58	6062
2026-01-25 12:02:49.71	67.87	12.61	-42.1	-43.3	21.4	0.00e+00	0	41	0	529530880	58	5903
2026-01-25 12:02:52.73	68.46	12.64	-41.8	-42.9	21.3	0.00e+00	0	41	0	534773760	58	5677
2026-01-25 12:02:55.76	69.05	12.66	-42.5	-43.7	21.1	0.00e+00	0	41	0	541065216	58	6224
2026-01-25 12:02:58.79	69.64	12.68	-42.1	-43.3	21.3	0.00e+00	0	41	0	546308096	58	5944
2026-01-25 12:03:01.82	70.23	12.70	-41.8	-43.0	21.9	0.00e+00	0	41	0	552599552	56	6391
2026-01-25 12:03:04.85	70.83	12.72	-41.7	-42.8	21.9	0.00e+00	0	41	0	557842432	56	6298
2026-01-25 12:03:07.87	71.42	12.73	-41.6	-42.7	22.0	0.00e+00	0	41	0	563085312	56	6213
2026-01-25 12:03:10.90	72.01	12.74	-41.5	-42.6	22.1	0.00e+00	0	41	0	569376768	56	6136
2026-01-25 12:03:13.93	72.61	12.75	-41.2	-42.2	22.4	0.00e+00	0	41	0	574619648	56	5890
2026-01-25 12:03:16.96	73.20	12.76	-41.0	-42.0	22.6	0.00e+00	0	41	0	580911104	56	5729
2026-01-25 12:03:19.99	73.80	12.76	-41.2	-42.2	22.4	0.00e+00	0	41	0	586153984	56	5878
2026-01-25 12:03:23.02	74.39	12.76	-41.5	-42.6	22.1	0.00e+00	0	41	0	591396864	56	6118
2026-01-25 12:03:26.05	74.99	12.76	-41.0	-42.0	22.3	0.00e+00	0	41	0	597688320	56	5719
2026-01-25 12:03:29.07	75.58	12.75	-40.6	-41.7	22.8	0.00e+00	0	41	0	602931200	54	6178
2026-01-25 12:03:32.10	76.17	12.74	-41.0	-42.0	22.5	0.00e+00	0	41	0	609222656	54	6411
2026-01-25 12:03:35.12	76.77	12.73	-40.8	-41.7	22.6	0.00e+00	0	41	0	614465536	54	6238
2026-01-25 12:03:38.15	77.36	12.72	-40.4	-41.4	22.9	0.00e+00	0	41	0	619708416	54	5992
2026-01-25 12:03:41.18	77.95	12.70	-40.4	-41.4	23.1	0.00e+00	0	41	0	625999872	54	5980
2026-01-25 12:03:44.21	78.55	12.68	-40.5	-41.4	23.0	0.00e+00	0	41	0	631242752	54	6029
2026-01-25 12:03:47.23	79.14	12.66	-40.8	-41.8	22.8	0.00e+00	0	41	0	637534208	54	6292
2026-01-25 12:03:50.26	79.73	12.64	-41.2	-42.2	22.3	0.00e+00	0	41	0	642777088	54	6576
2026-01-25 12:03:53.28	80.32	12.61	-41.2	-42.2	22.3	0.00e+00	0	41	0	649068544	54	6615
2026-01-25 12:03:56.31	80.91	12.58	-41.0	-42.1	22.5	0.00e+00	0	41	0	654311424	54	6491
2026-01-25 12:03:59.34	81.49	12.54	-41.0	-42.1	22.4	0.00e+00	0	41	0	659554304	54	6472
2026-01-25 12:04:02.37	82.08	12.51	-41.1	-42.1	22.4	0.00e+00	0	41	0	665845760	54	6511
2026-01-25 12:04:05.39	82.66	12.47	-41.8	-43.0	21.6	0.00e+00	0	41	0	671088640	56	6394
2026-01-25 12:04:08.43	83.25	12.43	-41.5	-42.6	22.1	0.00e+00	0	41	0	677380096	56	6125
2026-01-25 12:04:11.45	83.83	12.38	-41.1	-42.1	22.5	0.00e+00	0	41	0	682622976	56	5789
2026-01-25 12:04:14.48	84.41	12.34	-40.6	-41.6	22.9	0.00e+00	0	41	0	687865856	54	6117
2026-01-25 12:04:17.51	84.99	12.29	-40.7	-41.7	22.8	0.00e+00	0	41	0	694157312	54	6225
2026-01-25 12:04:20.54	85.56	12.24	-40.5	-41.4	23.0	0.00e+00	0	41	0	699400192	54	6004
2026-01-25 12:04:23.56	86.14	12.18	-40.3	-41.2	23.2	0.00e+00	0	41	0	705691648	54	5860
2026-01-25 12:04:26.59	86.71	12.13	-40.3	-41.3	23.1	0.00e+00	0	41	0	710934528	54	5905
2026-01-25 12:04:29.62	87.28	12.07	-40.5	-41.4	23.1	0.00e+00	0	41	0	717225984	54	6008
2026-01-25 12:04:32.65	87.85	12.01	-40.5	-41.4	23.1	0.00e+00	0	41	0	722468864	54	6012
2026-01-25 12:04:35.67	88.41	11.95	-40.1	-41.1	23.4	0.00e+00	0	41	0	727711744	54	5781
2026-01-25 12:04:38.70	88.98	11.88	-40.2	-41.2	23.2	0.00e+00	0	41	0	734003200	54	5889
2026-01-25 12:04:41.73	89.54	11.81	-40.4	-41.4	23.1	0.00e+00	0	41	0	739246080	54	6024
2026-01-25 12:04:44.76	90.09	11.74	-40.3	-41.2	23.1	0.00e+00	0	41	0	745537536	54	5867
2026-01-25 12:04:47.78	90.65	11.67	-40.5	-41.5	22.9	0.00e+00	0	41	0	750780416	54	6073
2026-01-25 12:04:50.81	91.20	11.59	-40.5	-41.4	23.1	0.00e+00	0	41	0	756023296	54	6033
2026-01-25 12:04:53.84	91.75	11.52	-40.3	-41.2	23.3	0.00e+00	0	41	0	762314752	54	5875
2026-01-25 12:04:56.86	92.30	11.44	-40.2	-41.2	23.3	0.00e+00	0	41	0	767557632	54	5843
2026-01-25 12:04:59.89	92.84	11.36	-40.2	-41.1	23.3	0.00e+00	0	41	0	773849088	54	5828
2026-01-25 12:05:02.92	93.39	11.27	-40.2	-41.2	23.2	0.00e+00	0	41	0	779091968	54	5854
2026-01-25 12:05:05.95	93.92	11.19	-40.5	-41.4	22.9	0.00e+00	0	41	0	784334848	54	6023
2026-01-25 12:05:08.98	94.46	11.10	-41.1	-42.2	22.3	0.00e+00	0	41	0	790626304	54	6559
2026-01-25 12:05:12.01	94.99	11.01	-41.3	-42.4	21.9	0.00e+00	0	41	0	795869184	54	6744
2026-01-25 12:05:15.03	95.52	10.92	-41.5	-42.6	22.0	0.00e+00	0	41	0	802160640	54	6864
2026-01-25 12:05:18.06	96.05	10.83	-42.0	-43.1	21.6	0.00e+00	0	41	0	807403520	56	6536
2026-01-25 12:05:21.09	96.57	10.74	-42.6	-43.8	20.7	0.00e+00	0	41	0	813694976	56	7052
2026-01-25 12:05:24.12	97.09	10.64	-42.4	-43.6	21.1	0.00e+00	0	41	0	818937856	56	6854
2026-01-25 12:05:27.15	97.61	10.54	-42.0	-43.2	21.3	0.00e+00	0	41	0	824180736	56	6579
2026-01-25 12:05:30.18	98.12	10.44	-42.6	-43.9	20.5	0.00e+00	0	41	0	830472192	58	6372
2026-01-25 12:05:33.21	98.63	10.34	-43.1	-44.5	20.2	0.00e+00	0	41	0	835715072	58	6812
2026-01-25 12:05:36.23	99.14	10.24	-43.0	-44.4	20.1	0.00e+00	0	41	0	842006528	58	6767
2026-01-25 12:05:39.26	99.64	10.14	-44.0	-45.6	18.9	0.00e+00	0	41	0	847249408	60	6924
2026-01-25 12:05:42.29	100.14	10.03	-44.6	-46.3	18.5	0.00e+00	0	41	0	852492288	60	7466
2026-01-25 12:05:45.32	100.64	9.92	-43.7	-45.2	19.6	0.00e+00	0	41	0	858783744	60	6563
2026-01-25 12:05:48.35	101.13	9.82	-43.4	-45.0	19.7	0.00e+00	0	41	0	864026624	60	6394
2026-01-25 12:05:51.37	101.62	9.71	-43.5	-44.9	19.8	0.00e+00	0	41	0	870318080	60	6387
2026-01-25 12:05:54.41	102.10	9.60	-43.3	-44.8	19.9	0.00e+00	0	41	0	875560960	60	6296
2026-01-25 12:05:57.43	102.59	9.48	-43.5	-45.3	19.4	0.00e+00	0	41	0	881852416	60	6640
2026-01-25 12:06:00.46	103.06	9.37	-43.7	-45.5	19.2	0.00e+00	0	41	0	887095296	60	6812
2026-01-25 12:06:03.49	103.54	9.26	-43.7	-45.7	19.0	0.00e+00	0	41	0	892338176	60	6936
2026-01-25 12:06:06.51	104.01	9.14	-42.9	-44.6	19.9	0.00e+00	0	41	0	898629632	60	6168
2026-01-25 12:06:09.54	104.48	9.02	-43.0	-44.5	20.0	0.00e+00	0	41	0	903872512	60	6046
2026-01-25 12:06:12.57	104.94	8.90	-43.3	-44.8	19.6	0.00e+00	0	41	0	910163968	60	6287
2026-01-25 12:06:15.60	105.40	8.79	-43.4	-44.8	19.8	0.00e+00	0	41	0	915406848	60	6300
2026-01-25 12:06:18.63	105.86	8.67	-42.4	-43.6	20.8	0.00e+00	0	41	0	920649728	58	6170
2026-01-25 12:06:21.66	106.31	8.54	-42.4	-43.7	20.8	0.00e+00	0	41	0	926941184	58	6181
2026-01-25 12:06:24.69	106.76	8.42	-42.5	-43.8	20.6	0.00e+00	0	41	0	932184064	58	6256
2026-01-25 12:06:27.72	107.21	8.30	-42.7	-44.1	20.3	0.00e+00	0	41	0	938475520	58	6507
2026-01-25 12:06:30.74	107.65	8.18	-43.1	-44.5	20.0	0.00e+00	0	41	0	943718400	58	6795
2026-01-25 12:06:33.77	108.09	8.05	-42.5	-44.2	20.3	0.00e+00	0	41	0	950009856	58	6542
2026-01-25 12:06:36.80	108.52	7.93	-42.7	-44.0	20.4	0.00e+00	0	41	0	955252736	58	6437
2026-01-25 12:06:39.83	108.95	7.80	-42.4	-43.8	20.7	0.00e+00	0	41	0	960495616	58	6292
2026-01-25 12:06:42.85	109.38	7.67	-41.7	-42.9	21.4	0.00e+00	0	41	0	966787072	58	5657
2026-01-25 12:06:45.88	109.81	7.55	-41.7	-42.9	21.5	0.00e+00	0	41	0	972029952	56	6319
2026-01-25 12:06:48.91	110.23	7.42	-41.9	-43.1	21.3	0.00e+00	0	41	0	978321408	56	6482
2026-01-25 12:06:51.93	110.64	7.29	-41.8	-43.0	21.4	0.00e+00	0	41	0	983564288	56	6438
2026-01-25 12:06:54.96	111.06	7.16	-42.0	-43.2	21.2	0.00e+00	0	41	0	988807168	56	6577
2026-01-25 12:06:57.99	111.47	7.03	-41.9	-43.1	21.2	0.00e+00	0	41	0	995098624	56	6478
2026-01-25 12:07:01.02	111.87	6.90	-42.1	-43.3	21.1	0.00e+00	0	41	0	1000341504	56	6671
2026-01-25 12:07:04.05	112.28	6.77	-42.1	-43.3	20.9	0.00e+00	0	41	0	1006632960	56	6672
2026-01-25 12:07:07.07	112.68	6.64	-42.0	-43.2	21.1	0.00e+00	0	41	0	1011875840	56	6559
2026-01-25 12:07:10.10	113.07	6.50	-41.6	-42.7	21.5	0.00e+00	0	41	0	1017118720	56	6204
2026-01-25 12:07:13.13	113.47	6.37	-42.3	-43.6	20.8	0.00e+00	0	41	0	1023410176	56	6868
2026-01-25 12:07:16.16	113.85	6.24	-42.5	-43.8	20.5	0.00e+00	0	41	0	1028653056	58	6296
2026-01-25 12:07:19.19	114.24	6.10	-42.3	-43.6	20.7	0.00e+00	0	41	0	1034944512	56	6901
2026-01-25 12:07:22.22	114.62	5.97	-42.0	-43.3	20.9	0.00e+00	0	42	0	1040187392	56	6673
2026-01-25 12:07:25.25	115.00	5.84	-41.3	-42.5	21.6	0.00e+00	0	41	0	1046478848	56	6081
2026-01-25 12:07:28.27	115.38	5.70	-42.0	-43.2	21.1	0.00e+00	0	41	0	1051721728	56	6572
2026-01-25 12:07:31.30	115.75	5.57	-42.4	-43.7	20.5	0.00e+00	0	41	0	1056964608	56	6941
2026-01-25 12:07:34.33	116.12	5.43	-42.5	-43.8	20.3	0.00e+00	0	42	0	1063256064	58	6301
2026-01-25 12:07:37.36	116.49	5.30	-42.3	-43.6	20.4	0.00e+00	0	41	0	1068498944	58	6167
2026-01-25 12:07:40.39	116.85	5.16	-42.9	-44.4	19.5	0.00e+00	0	41	0	1074790400	58	6697
2026-01-25 12:07:43.41	117.21	5.02	-42.1	-43.4	20.4	0.00e+00	0	42	0	1080033280	58	6031
2026-01-25 12:07:46.44	117.56	4.89	-42.7	-44.3	19.7	0.00e+00	0	41	0	1085276160	58	6683
2026-01-25 12:07:49.47	117.92	4.75	-43.2	-44.8	19.3	0.00e+00	0	41	0	1091567616	58	7060
2026-01-25 12:07:52.50	118.27	4.61	-42.9	-44.4	19.7	0.00e+00	0	41	0	1096810496	58	6697
2026-01-25 12:07:55.52	118.61	4.48	-42.6	-44.0	19.8	0.00e+00	0	41	0	1103101952	58	6436
2026-01-25 12:07:58.55	118.96	4.34	-42.5	-44.0	20.0	0.00e+00	0	41	0	1108344832	58	6395
2026-01-25 12:08:01.58	119.30	4.20	-43.0	-44.4	19.5	0.00e+00	0	41	0	1114636288	58	6739
2026-01-25 12:08:04.61	119.64	4.07	-43.4	-45.0	19.2	0.00e+00	0	41	0	1119879168	58	7222
2026-01-25 12:08:07.64	119.97	3.93	-43.4	-45.2	18.8	0.00e+00	0	41	0	1125122048	58	7417
2026-01-25 12:08:10.67	120.30	3.79	-43.5	-45.2	18.7	0.00e+00	0	42	0	1131413504	60	6576
2026-01-25 12:08:13.69	120.63	3.66	-43.9	-45.6	18.8	0.00e+00	0	42	0	1136656384	60	6907
2026-01-25 12:08:16.72	120.96	3.52	-45.0	-47.2	16.6	0.00e+00	0	41	0	1142947840	60	8276
2026-01-25 12:08:19.75	121.28	3.38	-44.2	-46.1	17.6	0.00e+00	0	42	0	1148190720	60	7299
2026-01-25 12:08:22.78	121.60	3.24	-44.0	-45.9	17.9	0.00e+00	0	42	0	1153433600	60	7148
2026-01-25 12:08:25.80	121.92	3.11	-43.8	-45.7	18.1	0.00e+00	0	42	0	1159725056	60	6930
2026-01-25 12:08:28.83	122.23	2.97	-49.7	-65.1	3.6	1.24e-01	0	42	104	1164967936	60	65309
2026-01-25 12:08:31.86	122.54	2.83	-50.8	-66.0	3.6	1.51e+00	0	42	104	1164967936	60	71938
2026-01-25 12:08:34.89	122.85	2.69	-51.1	-66.3	3.6	1.51e+00	0	42	104	1164967936	60	74562
2026-01-25 12:08:37.92	123.16	2.55	-51.2	-66.4	3.6	1.51e+00	0	42	104	1164967936	60	75300
2026-01-25 12:08:40.95	123.46	2.42	-51.3	-66.4	3.6	1.51e+00	0	42	104	1164967936	60	75728
2026-01-25 12:08:43.98	123.76	2.28	-51.3	-66.5	3.6	1.51e+00	0	42	104	1164967936	60	76143
2026-01-25 12:08:47.01	124.06	2.14	-51.2	-66.4	3.6	1.51e+00	0	42	104	1164967936	60	75624
2026-01-25 12:08:50.04	124.36	2.00	-51.3	-66.5	3.6	1.51e+00	0	42	104	1164967936	60	76565
2026-01-25 12:08:53.07	124.65	1.87	-51.3	-66.5	3.6	1.51e+00	0	42	104	1164967936	60	76140
2026-01-25 12:08:56.09	124.94	1.73	-51.3	-66.5	3.6	1.51e+00	0	42	104	1164967936	60	76131
2026-01-25 12:08:59.12	125.23	1.59	-51.5	-66.7	3.6	1.51e+00	0	42	104	1164967936	60	78081
2026-01-25 12:09:02.15	125.51	1.46	-51.6	-66.7	3.6	1.51e+00	0	42	104	1164967936	60	78306
2026-01-25 12:09:05.18	125.79	1.32	-51.5	-66.7	3.6	1.51e+00	0	42	104	1164967936	60	78134
2026-01-25 12:09:08.21	126.07	1.18	-51.6	-66.8	3.6	1.51e+00	0	42	104	1164967936	60	78901
2026-01-25 12:09:11.24	126.35	1.04	-51.6	-66.8	3.6	1.51e+00	0	42	104	1164967936	60	79053
2026-01-25 12:09:14.27	126.63	0.91	-51.6	-66.8	3.6	1.51e+00	0	42	104	1164967936	60	79254
2026-01-25 12:09:17.30	126.90	0.77	-51.4	-66.6	3.6	1.51e+00	0	42	104	1164967936	60	77219
2026-01-25 12:09:20.33	127.17	0.64	-51.6	-66.8	3.6	1.51e+00	0	42	104	1164967936	60	78827
2026-01-25 12:09:23.36	127.44	0.50	-51.6	-66.8	3.6	1.51e+00	0	42	104	1164967936	60	78944
2026-01-25 12:09:26.39	127.70	0.36	-51.5	-66.7	3.6	1.51e+00	0	42	104	1164967936	60	77741
2026-01-25 12:09:29.42	127.97	0.23	-51.6	-66.8	3.6	1.51e+00	0	42	104	1164967936	60	78995
2026-01-25 12:09:32.45	128.23	0.09	-51.7	-66.9	3.6	1.51e+00	0	42	104	1164967936	60	80142
2026-01-25 12:09:35.47	128.49	-0.04	-51.7	-66.8	3.6	1.51e+00	0	42	104	1164967936	60	79200

#Closed at: 2026-01-25 12:09:36
#Recorded file [1164 MB]: D:/lorett/data/35029_260125_235707.dat