passes_logs/2026/01/25/R4.6S_Anadyr/R4.6S_Anadyr__20260125_131651_SUOMI_NPP_rec.log

#Pass ID: 20260125_131651_SUOMI NPP
#Satellite: SUOMI NPP
#Configuration: NPP
#almurnet v.1.7.20251203
#Start time: 2026-01-25 13:16:52

#Version: 2.2.20231116
#Station: R4.6S_Anadyr
#Location: 177.4865 lon 64.73178 lat
#TLE: 1 37849U 11061A   26024.97198022  .00000188  00000+0  11029-3 0  9994
#TLE: 2 37849  98.7821 326.9352 0002187  46.6646 313.4712 14.19529581738125

#Time	Az	El	Level	Level2	SNR	BER	BlckErr	Temp	State	Recorded	gain1	gain2
2026-01-25 13:16:52.73	18.83	0.06	-51.3	-63.8	3.4	1.52e+00	0	38	0	0	60	54322
2026-01-25 13:16:56.76	19.03	0.29	-51.3	-66.4	3.6	1.51e+00	0	40	104	0	60	75801
2026-01-25 13:17:00.80	19.23	0.51	-51.2	-66.4	3.6	1.51e+00	0	40	104	0	60	75838
2026-01-25 13:17:04.84	19.44	0.74	-51.1	-66.4	3.6	1.51e+00	0	40	104	0	60	75190
2026-01-25 13:17:08.88	19.65	0.96	-50.9	-66.1	3.6	1.51e+00	0	40	104	0	60	73116
2026-01-25 13:17:12.92	19.86	1.19	-50.5	-65.7	3.6	1.51e+00	0	40	104	0	60	69616
2026-01-25 13:17:16.96	20.08	1.42	-49.6	-64.8	3.6	1.51e+00	0	40	104	0	60	62513
2026-01-25 13:17:21.00	20.30	1.66	-49.5	-64.7	3.6	1.51e+00	0	40	104	0	60	61871
2026-01-25 13:17:25.04	20.52	1.89	-49.5	-64.7	3.6	1.51e+00	0	40	104	0	60	62114
2026-01-25 13:17:29.08	20.75	2.12	-49.5	-64.7	3.6	1.51e+00	0	40	104	0	60	62010
2026-01-25 13:17:33.11	20.97	2.36	-49.4	-64.1	3.6	1.51e+00	0	40	104	0	60	57621
2026-01-25 13:17:37.15	21.21	2.60	-49.5	-64.5	3.6	1.51e+00	0	40	104	0	60	60966
2026-01-25 13:17:41.19	21.44	2.84	-46.3	-49.3	14.3	3.95e-02	0	41	0	4194304	60	10542
2026-01-25 13:17:45.23	21.68	3.08	-45.6	-48.3	15.6	0.00e+00	92	41	0	11534336	60	9366
2026-01-25 13:17:49.27	21.92	3.32	-45.8	-48.7	13.9	0.00e+00	0	41	0	18874368	60	9789
2026-01-25 13:17:53.30	22.17	3.57	-49.4	-64.6	3.6	1.33e+00	0	40	104	25165824	60	61178
2026-01-25 13:17:57.34	22.42	3.82	-46.7	-49.9	13.9	5.18e-05	0	41	0	29360128	60	11348
2026-01-25 13:18:01.37	22.68	4.06	-46.2	-49.1	14.9	0.00e+00	90	41	0	36700160	60	10248
2026-01-25 13:18:05.41	22.93	4.31	-46.9	-50.2	14.2	3.80e-06	0	41	0	45088768	60	11686
2026-01-25 13:18:09.45	23.20	4.57	-43.6	-45.3	18.5	0.00e+00	0	41	0	52428800	60	6625
2026-01-25 13:18:13.49	23.46	4.82	-43.8	-45.5	18.4	0.00e+00	0	41	0	59768832	60	6827
2026-01-25 13:18:17.53	23.73	5.08	-43.6	-45.2	18.8	0.00e+00	0	41	0	67108864	60	6610
2026-01-25 13:18:21.57	24.01	5.34	-43.3	-44.8	19.3	0.00e+00	0	41	0	75497472	60	6300
2026-01-25 13:18:25.60	24.29	5.60	-43.0	-44.5	19.2	0.00e+00	0	41	0	82837504	58	6798
2026-01-25 13:18:29.64	24.57	5.86	-43.1	-44.6	19.6	0.00e+00	80	41	0	90177536	60	6171
2026-01-25 13:18:33.68	24.86	6.12	-42.5	-43.9	20.0	0.00e+00	0	41	0	97517568	58	6369
2026-01-25 13:18:37.72	25.16	6.39	-42.2	-43.5	20.2	0.00e+00	0	41	0	104857600	58	6060
2026-01-25 13:18:41.75	25.46	6.66	-41.7	-42.9	20.9	0.00e+00	0	41	0	113246208	58	5658
2026-01-25 13:18:45.79	25.76	6.93	-42.0	-43.2	20.7	0.00e+00	73	41	0	120586240	56	6608
2026-01-25 13:18:49.83	26.07	7.21	-41.4	-42.6	21.4	0.00e+00	0	41	0	127926272	56	6126
2026-01-25 13:18:53.87	26.39	7.48	-40.5	-41.5	22.0	0.00e+00	0	41	0	135266304	54	6054
2026-01-25 13:18:57.90	26.71	7.76	-41.5	-42.6	21.4	0.00e+00	81	41	0	143654912	56	6144
2026-01-25 13:19:01.94	27.04	8.04	-41.8	-43.0	21.1	0.00e+00	17	41	0	150994944	56	6400
2026-01-25 13:19:05.98	27.37	8.32	-42.0	-43.2	20.8	0.00e+00	0	41	0	158334976	56	6586
2026-01-25 13:19:10.02	27.71	8.61	-41.5	-42.6	21.3	0.00e+00	0	41	0	165675008	56	6151
2026-01-25 13:19:14.06	28.06	8.90	-41.6	-42.8	21.1	0.00e+00	37	41	0	173015040	56	6308
2026-01-25 13:19:18.10	28.41	9.19	-41.3	-42.5	21.6	0.00e+00	0	41	0	181403648	56	6046
2026-01-25 13:19:22.13	28.77	9.48	-41.2	-42.3	21.7	0.00e+00	0	41	0	188743680	54	6637
2026-01-25 13:19:26.17	29.13	9.77	-40.6	-41.7	22.2	0.00e+00	0	41	0	196083712	54	6178
2026-01-25 13:19:30.21	29.51	10.07	-40.5	-41.6	22.2	0.00e+00	92	41	0	203423744	54	6109
2026-01-25 13:19:34.25	29.89	10.37	-40.7	-41.7	22.0	0.00e+00	0	41	0	211812352	54	6239
2026-01-25 13:19:38.29	30.28	10.67	-41.0	-42.1	22.0	0.00e+00	0	41	0	219152384	54	6489
2026-01-25 13:19:42.33	30.67	10.98	-40.7	-41.8	22.1	0.00e+00	0	41	0	226492416	54	6261
2026-01-25 13:19:46.36	31.08	11.29	-40.6	-41.7	22.3	0.00e+00	46	41	0	233832448	54	6206
2026-01-25 13:19:50.40	31.49	11.60	-40.4	-41.4	22.5	0.00e+00	0	41	0	241172480	54	6019
2026-01-25 13:19:54.44	31.91	11.91	-40.3	-41.3	22.6	0.00e+00	0	41	0	249561088	54	5923
2026-01-25 13:19:58.47	32.34	12.23	-40.2	-41.2	22.7	0.00e+00	87	41	0	256901120	54	5849
2026-01-25 13:20:02.51	32.77	12.55	-40.3	-41.3	22.6	0.00e+00	0	41	0	264241152	54	5963
2026-01-25 13:20:06.55	33.22	12.87	-40.9	-42.0	22.0	0.00e+00	0	41	0	271581184	54	6424
2026-01-25 13:20:10.58	33.68	13.19	-41.1	-42.2	21.8	0.00e+00	0	41	0	278921216	54	6555
2026-01-25 13:20:14.61	34.14	13.52	-41.0	-42.1	22.0	0.00e+00	84	41	0	287309824	54	6515
2026-01-25 13:20:18.65	34.62	13.85	-41.0	-42.1	22.2	0.00e+00	0	41	0	294649856	54	6478
2026-01-25 13:20:22.69	35.11	14.18	-40.7	-41.7	22.4	0.00e+00	0	41	0	301989888	54	6234
2026-01-25 13:20:26.73	35.60	14.52	-40.8	-41.8	22.3	0.00e+00	0	41	0	309329920	54	6271
2026-01-25 13:20:30.77	36.11	14.86	-40.5	-41.5	22.5	0.00e+00	91	41	0	317718528	54	6078
2026-01-25 13:20:34.81	36.63	15.20	-40.2	-41.2	22.9	0.00e+00	0	41	0	325058560	54	5838
2026-01-25 13:20:38.85	37.16	15.54	-39.8	-40.7	23.2	0.00e+00	0	41	0	332398592	52	6200
2026-01-25 13:20:42.88	37.71	15.89	-40.1	-41.1	22.9	0.00e+00	2	41	0	339738624	52	6512
2026-01-25 13:20:46.92	38.26	16.24	-40.4	-41.4	22.7	0.00e+00	44	41	0	347078656	52	6694
2026-01-25 13:20:50.96	38.83	16.59	-40.6	-41.6	22.5	0.00e+00	0	41	0	355467264	54	6171
2026-01-25 13:20:54.99	39.41	16.94	-40.9	-42.0	22.3	0.00e+00	0	41	0	362807296	54	6393
2026-01-25 13:20:59.03	40.00	17.30	-40.4	-41.4	22.6	0.00e+00	92	41	0	370147328	54	5996
2026-01-25 13:21:03.07	40.61	17.66	-40.4	-41.4	22.7	0.00e+00	0	41	0	377487360	54	6007
2026-01-25 13:21:07.10	41.23	18.02	-40.1	-41.0	22.9	0.00e+00	0	41	0	385875968	54	5738
2026-01-25 13:21:11.14	41.87	18.38	-39.9	-40.9	23.1	0.00e+00	0	41	0	393216000	54	5668
2026-01-25 13:21:15.18	42.52	18.74	-39.3	-40.2	23.6	0.00e+00	66	41	0	400556032	52	5862
2026-01-25 13:21:19.21	43.19	19.11	-39.0	-39.9	23.9	0.00e+00	28	41	0	407896064	52	5659
2026-01-25 13:21:23.25	43.87	19.48	-39.0	-39.9	23.9	0.00e+00	0	41	0	415236096	52	5677
2026-01-25 13:21:27.28	44.57	19.85	-39.3	-40.2	23.6	0.00e+00	2	41	0	423624704	52	5883
2026-01-25 13:21:31.32	45.29	20.22	-39.1	-40.0	23.9	0.00e+00	58	41	0	430964736	52	5737
2026-01-25 13:21:35.36	46.02	20.59	-38.9	-39.7	24.0	0.00e+00	0	41	0	438304768	52	5546
2026-01-25 13:21:39.40	46.77	20.96	-38.9	-39.8	24.0	0.00e+00	0	41	0	445644800	52	5580
2026-01-25 13:21:43.43	47.54	21.34	-39.2	-40.1	23.9	0.00e+00	73	41	0	454033408	50	6468
2026-01-25 13:21:47.47	48.32	21.71	-39.1	-39.9	23.9	0.00e+00	0	41	0	461373440	50	6375
2026-01-25 13:21:51.50	49.13	22.08	-38.5	-39.4	24.3	0.00e+00	0	41	0	468713472	50	5984
2026-01-25 13:21:55.54	49.95	22.46	-38.1	-38.9	24.5	0.00e+00	0	41	0	476053504	50	5690
2026-01-25 13:21:59.58	50.80	22.83	-38.4	-39.3	24.3	0.00e+00	72	41	0	483393536	50	5901
2026-01-25 13:22:03.62	51.66	23.20	-38.8	-39.7	24.1	0.00e+00	0	41	0	491782144	50	6188
2026-01-25 13:22:07.66	52.54	23.57	-38.5	-39.3	24.3	0.00e+00	0	41	0	499122176	50	5946
2026-01-25 13:22:11.69	53.45	23.94	-38.5	-39.4	24.2	0.00e+00	33	41	0	506462208	50	5971
2026-01-25 13:22:15.73	54.37	24.31	-39.1	-40.0	23.9	0.00e+00	70	41	0	513802240	50	6454
2026-01-25 13:22:19.76	55.32	24.67	-39.2	-40.1	23.8	0.00e+00	0	41	0	522190848	50	6486
2026-01-25 13:22:23.79	56.29	25.03	-39.8	-40.8	23.4	0.00e+00	0	41	0	529530880	50	7008
2026-01-25 13:22:27.83	57.28	25.39	-39.7	-40.7	23.2	0.00e+00	56	41	0	536870912	52	6188
2026-01-25 13:22:31.87	58.29	25.74	-39.3	-40.2	23.7	0.00e+00	29	41	0	544210944	52	5846
2026-01-25 13:22:35.91	59.32	26.09	-39.0	-39.8	24.0	0.00e+00	0	41	0	551550976	52	5607
2026-01-25 13:22:39.94	60.38	26.43	-39.6	-40.5	23.4	0.00e+00	0	41	0	559939584	52	6096
2026-01-25 13:22:43.98	61.46	26.77	-40.2	-41.1	23.0	0.00e+00	77	41	0	567279616	52	6535
2026-01-25 13:22:48.02	62.56	27.10	-39.1	-40.0	23.8	0.00e+00	27	41	0	574619648	52	5739
2026-01-25 13:22:52.05	63.68	27.42	-39.3	-40.2	23.7	0.00e+00	0	41	0	581959680	52	5863
2026-01-25 13:22:56.09	64.83	27.73	-40.7	-41.8	22.6	0.00e+00	0	41	0	590348288	52	7044
2026-01-25 13:23:00.12	66.00	28.04	-40.0	-40.9	23.1	0.00e+00	49	41	0	597688320	54	5678
2026-01-25 13:23:04.16	67.19	28.33	-39.7	-40.6	23.3	0.00e+00	0	41	0	605028352	52	6156
2026-01-25 13:23:08.20	68.40	28.62	-40.1	-41.1	23.0	0.00e+00	0	41	0	612368384	52	6487
2026-01-25 13:23:12.24	69.64	28.89	-40.1	-41.1	23.0	0.00e+00	3	41	0	619708416	52	6483
2026-01-25 13:23:16.28	70.89	29.16	-40.9	-41.9	22.3	0.00e+00	88	42	0	628097024	54	6388
2026-01-25 13:23:20.31	72.16	29.41	-41.4	-42.5	21.7	0.00e+00	0	41	0	635437056	56	6073
2026-01-25 13:23:24.35	73.45	29.64	-41.9	-43.0	21.4	0.00e+00	0	41	0	642777088	56	6408
2026-01-25 13:23:28.38	74.76	29.87	-42.3	-43.5	21.0	0.00e+00	54	41	0	650117120	58	6094
2026-01-25 13:23:32.42	76.09	30.08	-40.9	-42.0	22.2	0.00e+00	45	41	0	657457152	54	6399
2026-01-25 13:23:36.45	77.43	30.27	-41.7	-42.8	21.6	0.00e+00	0	41	0	665845760	56	6299
2026-01-25 13:23:40.48	78.79	30.45	-41.6	-42.7	21.7	0.00e+00	0	42	0	673185792	56	6190
2026-01-25 13:23:44.53	80.17	30.61	-40.6	-41.7	22.6	0.00e+00	87	41	0	680525824	54	6178
2026-01-25 13:23:48.56	81.56	30.75	-40.4	-41.3	22.8	0.00e+00	0	42	0	687865856	54	5962
2026-01-25 13:23:52.60	82.96	30.88	-39.7	-40.7	23.3	0.00e+00	0	42	0	696254464	52	6175
2026-01-25 13:23:56.63	84.36	30.98	-39.1	-40.0	23.8	0.00e+00	0	41	0	703594496	50	6404
2026-01-25 13:24:00.67	85.78	31.07	-41.0	-42.0	22.2	0.00e+00	89	41	0	710934528	54	6462
2026-01-25 13:24:04.71	87.21	31.15	-41.0	-42.0	22.2	0.00e+00	0	42	0	718274560	54	6456
2026-01-25 13:24:08.75	88.64	31.20	-40.1	-41.1	23.0	0.00e+00	0	41	0	725614592	54	5780
2026-01-25 13:24:12.79	90.07	31.23	-40.3	-41.3	22.8	0.00e+00	0	41	0	734003200	52	6625
2026-01-25 13:24:16.82	91.51	31.24	-39.4	-40.3	23.5	0.00e+00	92	41	0	741343232	52	5926
2026-01-25 13:24:20.86	92.94	31.24	-40.8	-41.9	22.3	0.00e+00	0	41	0	748683264	54	6340
2026-01-25 13:24:24.90	94.38	31.21	-41.1	-42.2	21.9	0.00e+00	5	42	0	756023296	54	6587
2026-01-25 13:24:28.94	95.81	31.16	-39.8	-40.8	23.1	0.00e+00	4	42	0	764411904	52	6271
2026-01-25 13:24:32.98	97.24	31.10	-39.8	-40.8	23.2	0.00e+00	0	41	0	771751936	52	6265
2026-01-25 13:24:37.01	98.66	31.02	-39.8	-40.8	23.1	0.00e+00	0	41	0	779091968	52	6259
2026-01-25 13:24:41.05	100.07	30.91	-41.4	-42.5	21.7	0.00e+00	0	41	0	786432000	54	6808
2026-01-25 13:24:45.08	101.48	30.79	-41.5	-42.7	21.8	0.00e+00	91	41	0	793772032	56	6211
2026-01-25 13:24:49.12	102.87	30.66	-43.0	-44.4	20.1	0.00e+00	0	41	0	802160640	58	6766
2026-01-25 13:24:53.16	104.25	30.50	-41.7	-42.9	21.4	0.00e+00	4	41	0	809500672	58	5654
2026-01-25 13:24:57.19	105.62	30.33	-41.6	-42.8	21.5	0.00e+00	0	41	0	816840704	56	6258
2026-01-25 13:25:01.23	106.97	30.14	-42.0	-43.2	21.1	0.00e+00	90	41	0	824180736	56	6598
2026-01-25 13:25:05.27	108.31	29.94	-42.1	-43.3	21.3	0.00e+00	0	41	0	831520768	56	6673
2026-01-25 13:25:09.30	109.62	29.72	-41.6	-42.8	21.7	0.00e+00	0	41	0	839909376	56	6247
2026-01-25 13:25:13.34	110.93	29.48	-40.5	-41.5	22.5	0.00e+00	0	41	0	847249408	54	6038
2026-01-25 13:25:17.38	112.21	29.24	-42.1	-43.3	21.1	0.00e+00	5	41	0	854589440	56	6672
2026-01-25 13:25:21.41	113.47	28.98	-42.5	-43.8	20.9	0.00e+00	0	41	0	861929472	56	7065
2026-01-25 13:25:25.45	114.71	28.71	-40.1	-41.1	22.9	0.00e+00	0	41	0	870318080	54	5792
2026-01-25 13:25:29.48	115.93	28.42	-43.3	-44.8	19.7	0.00e+00	19	41	0	877658112	58	7066
2026-01-25 13:25:33.52	117.13	28.13	-43.2	-44.6	20.0	0.00e+00	0	41	0	884998144	60	6141
2026-01-25 13:25:37.56	118.31	27.83	-42.4	-43.6	20.6	0.00e+00	33	41	0	892338176	58	6157
2026-01-25 13:25:41.59	119.47	27.51	-43.3	-44.8	19.7	0.00e+00	0	41	0	899678208	58	7061
2026-01-25 13:25:45.62	120.60	27.19	-42.8	-44.1	20.4	0.00e+00	84	41	0	908066816	60	5785
2026-01-25 13:25:49.66	121.72	26.86	-43.3	-44.8	19.5	0.00e+00	0	41	0	915406848	58	7046
2026-01-25 13:25:53.69	122.80	26.53	-42.2	-43.4	20.8	0.00e+00	0	41	0	922746880	58	6030
2026-01-25 13:25:57.73	123.87	26.19	-44.0	-45.7	18.9	0.00e+00	0	41	0	930086912	60	6946
2026-01-25 13:26:01.77	124.92	25.84	-41.4	-42.6	21.6	0.00e+00	92	41	0	937426944	56	6126
2026-01-25 13:26:05.80	125.94	25.48	-42.8	-44.3	20.1	0.00e+00	0	41	0	945815552	58	6647
2026-01-25 13:26:09.84	126.94	25.13	-42.6	-43.9	20.5	0.00e+00	0	41	0	953155584	56	7095
2026-01-25 13:26:13.88	127.92	24.77	-43.9	-45.6	19.2	0.00e+00	64	41	0	960495616	60	6879
2026-01-25 13:26:17.91	128.87	24.40	-40.5	-41.5	22.3	0.00e+00	0	41	0	967835648	54	6074
2026-01-25 13:26:21.95	129.81	24.03	-42.3	-43.6	20.7	0.00e+00	3	41	0	976224256	56	6916
2026-01-25 13:26:25.98	130.72	23.66	-40.7	-41.7	22.3	0.00e+00	0	41	0	983564288	54	6221
2026-01-25 13:26:30.02	131.61	23.29	-41.3	-42.4	21.7	0.00e+00	27	41	0	990904320	56	6027
2026-01-25 13:26:34.06	132.49	22.92	-41.3	-42.4	21.6	0.00e+00	0	41	0	998244352	54	6724
2026-01-25 13:26:38.09	133.34	22.54	-42.1	-43.3	21.0	0.00e+00	0	41	0	1005584384	56	6671
2026-01-25 13:26:42.13	134.17	22.17	-41.0	-42.1	21.7	0.00e+00	0	41	0	1013972992	56	5795
2026-01-25 13:26:46.17	134.99	21.79	-41.3	-42.4	21.7	0.00e+00	70	41	0	1021313024	56	5978
2026-01-25 13:26:50.20	135.78	21.41	-40.1	-41.1	22.7	0.00e+00	2	41	0	1028653056	54	5818
2026-01-25 13:26:54.24	136.56	21.04	-40.8	-42.0	22.0	0.00e+00	0	41	0	1035993088	54	6405
2026-01-25 13:26:58.28	137.31	20.66	-39.3	-40.2	23.4	0.00e+00	0	41	0	1043333120	52	5855
2026-01-25 13:27:02.31	138.05	20.29	-39.7	-40.7	23.0	0.00e+00	53	41	0	1051721728	52	6209
2026-01-25 13:27:06.35	138.78	19.92	-40.4	-41.4	22.5	0.00e+00	0	41	0	1059061760	52	6722
2026-01-25 13:27:10.39	139.48	19.54	-40.1	-41.1	22.9	0.00e+00	0	41	0	1066401792	52	6504
2026-01-25 13:27:14.42	140.17	19.17	-39.8	-40.8	23.0	0.00e+00	0	41	0	1073741824	52	6247
2026-01-25 13:27:18.45	140.84	18.80	-39.5	-40.5	23.1	0.00e+00	0	41	0	1082130432	52	6037
2026-01-25 13:27:22.49	141.50	18.44	-39.0	-39.9	23.5	0.00e+00	0	41	0	1089470464	52	5686
2026-01-25 13:27:26.53	142.14	18.07	-39.4	-40.3	23.1	0.00e+00	0	41	0	1096810496	52	5936
2026-01-25 13:27:30.56	142.77	17.71	-39.5	-40.5	23.2	0.00e+00	82	41	0	1104150528	52	6052
2026-01-25 13:27:34.60	143.38	17.35	-38.4	-39.2	24.1	0.00e+00	0	41	0	1111490560	50	5856
2026-01-25 13:27:38.63	143.98	16.99	-38.8	-39.7	23.7	0.00e+00	0	41	0	1119879168	50	6220
2026-01-25 13:27:42.67	144.57	16.63	-40.0	-41.0	22.7	0.00e+00	32	41	0	1127219200	52	6418
2026-01-25 13:27:46.71	145.14	16.28	-40.0	-41.0	22.7	0.00e+00	92	41	0	1134559232	52	6407
2026-01-25 13:27:50.74	145.70	15.92	-39.7	-40.6	23.1	0.00e+00	0	41	0	1141899264	52	6165
2026-01-25 13:27:54.78	146.25	15.58	-40.4	-41.4	22.4	0.00e+00	0	41	0	1150287872	52	6746
2026-01-25 13:27:58.81	146.78	15.23	-40.5	-41.5	22.2	0.00e+00	0	41	0	1157627904	54	6079
2026-01-25 13:28:02.85	147.30	14.89	-40.7	-41.8	22.0	0.00e+00	84	41	0	1164967936	54	6291
2026-01-25 13:28:06.89	147.82	14.54	-40.5	-41.5	22.3	0.00e+00	0	41	0	1172307968	54	6064
2026-01-25 13:28:10.92	148.31	14.21	-40.7	-41.8	21.9	0.00e+00	0	41	0	1179648000	54	6289
2026-01-25 13:28:14.96	148.80	13.87	-40.3	-41.3	22.4	0.00e+00	46	41	0	1188036608	54	5912
2026-01-25 13:28:19.00	149.28	13.54	-39.7	-40.6	22.9	0.00e+00	0	41	0	1195376640	52	6167
2026-01-25 13:28:23.04	149.75	13.21	-39.4	-40.3	23.2	0.00e+00	0	41	0	1202716672	52	5898
2026-01-25 13:28:27.07	150.21	12.88	-40.1	-41.1	22.6	0.00e+00	33	41	0	1210056704	52	6472
2026-01-25 13:28:31.10	150.66	12.55	-40.8	-41.9	21.8	0.00e+00	73	41	0	1218445312	54	6332
2026-01-25 13:28:35.14	151.10	12.23	-41.0	-42.2	21.6	0.00e+00	0	41	0	1225785344	54	6556
2026-01-25 13:28:39.18	151.53	11.91	-40.2	-41.2	22.4	0.00e+00	0	41	0	1233125376	54	5887
2026-01-25 13:28:43.22	151.95	11.60	-40.8	-41.9	21.8	0.00e+00	39	41	0	1240465408	54	6351
2026-01-25 13:28:47.25	152.37	11.28	-41.4	-42.5	21.3	0.00e+00	85	41	0	1247805440	54	6845
2026-01-25 13:28:51.29	152.77	10.97	-42.2	-43.5	20.4	0.00e+00	0	41	0	1256194048	56	6833
2026-01-25 13:28:55.33	153.17	10.66	-42.2	-43.5	20.2	0.00e+00	0	41	0	1263534080	56	6829
2026-01-25 13:28:59.36	153.56	10.36	-43.0	-44.6	19.1	0.00e+00	0	41	0	1270874112	58	6870
2026-01-25 13:29:03.40	153.94	10.05	-43.0	-44.7	18.6	0.00e+00	0	41	0	1278214144	58	6939
2026-01-25 13:29:07.44	154.31	9.75	-43.6	-45.6	17.2	0.00e+00	0	41	0	1285554176	58	7768
2026-01-25 13:29:11.47	154.68	9.46	-44.6	-47.1	15.7	0.00e+00	0	41	0	1293942784	60	8214
2026-01-25 13:29:15.51	155.04	9.16	-44.8	-47.4	15.3	0.00e+00	72	41	0	1301282816	60	8518
2026-01-25 13:29:19.55	155.39	8.87	-43.8	-45.8	17.2	0.00e+00	33	41	0	1308622848	60	7041
2026-01-25 13:29:23.58	155.74	8.58	-43.1	-44.7	18.5	0.00e+00	0	41	0	1315962880	60	6236
2026-01-25 13:29:27.62	156.08	8.29	-42.7	-44.2	19.1	0.00e+00	0	41	0	1324351488	58	6583
2026-01-25 13:29:31.66	156.41	8.01	-41.8	-43.1	20.3	0.00e+00	88	41	0	1331691520	58	5823
2026-01-25 13:29:35.70	156.74	7.72	-42.0	-43.3	20.2	0.00e+00	0	41	0	1339031552	56	6665
2026-01-25 13:29:39.73	157.06	7.44	-41.7	-42.9	20.8	0.00e+00	0	41	0	1346371584	56	6354
2026-01-25 13:29:43.77	157.38	7.16	-41.5	-42.7	20.9	0.00e+00	0	41	0	1353711616	56	6230
2026-01-25 13:29:47.81	157.69	6.89	-41.6	-42.8	20.8	0.00e+00	90	41	0	1362100224	56	6309
2026-01-25 13:29:51.84	157.99	6.61	-41.4	-42.6	20.9	0.00e+00	0	41	0	1369440256	56	6137
2026-01-25 13:29:55.88	158.29	6.34	-41.6	-42.8	20.8	0.00e+00	0	41	0	1376780288	56	6256
2026-01-25 13:29:59.92	158.58	6.07	-42.4	-43.8	19.9	0.00e+00	0	41	0	1384120320	56	7016
2026-01-25 13:30:03.96	158.87	5.81	-42.8	-44.3	19.3	0.00e+00	0	41	0	1392508928	58	6679
2026-01-25 13:30:07.99	159.15	5.54	-43.7	-45.5	18.4	0.00e+00	0	41	0	1399848960	60	6810
2026-01-25 13:30:12.03	159.43	5.28	-43.7	-45.5	18.1	0.00e+00	0	41	0	1407188992	58	7624
2026-01-25 13:30:16.07	159.71	5.02	-43.3	-44.9	18.8	0.00e+00	91	41	0	1414529024	60	6366
2026-01-25 13:30:20.11	159.98	4.76	-43.4	-45.1	18.4	0.00e+00	0	41	0	1421869056	60	6489
2026-01-25 13:30:24.14	160.24	4.50	-43.8	-45.6	18.1	0.00e+00	0	41	0	1430257664	60	6885
2026-01-25 13:30:28.18	160.50	4.25	-43.7	-45.5	18.0	0.00e+00	0	41	0	1437597696	60	6798
2026-01-25 13:30:32.21	160.76	4.00	-43.4	-45.2	18.5	0.00e+00	92	41	0	1444937728	60	6540
2026-01-25 13:30:36.25	161.01	3.75	-43.7	-45.5	17.9	0.00e+00	0	41	0	1452277760	60	6779
2026-01-25 13:30:40.29	161.26	3.50	-44.7	-46.9	16.4	0.00e+00	0	41	0	1460666368	60	8032
2026-01-25 13:30:44.32	161.51	3.25	-44.3	-46.4	17.0	0.00e+00	83	41	0	1468006400	60	7521
2026-01-25 13:30:48.36	161.75	3.00	-44.9	-47.4	15.5	0.00e+00	61	41	0	1475346432	60	8429
2026-01-25 13:30:52.40	161.98	2.76	-50.2	-65.4	3.6	1.51e+00	0	41	104	1475346432	60	67204
2026-01-25 13:30:56.44	162.22	2.52	-50.4	-65.7	3.6	1.51e+00	0	41	104	1475346432	60	69701
2026-01-25 13:31:00.48	162.45	2.28	-50.7	-66.0	3.6	1.51e+00	0	41	104	1475346432	60	71938
2026-01-25 13:31:04.52	162.67	2.04	-50.7	-66.0	3.5	1.51e+00	0	41	104	1475346432	60	72098
2026-01-25 13:31:08.56	162.90	1.80	-50.7	-65.9	3.6	1.51e+00	0	41	104	1475346432	60	71250
2026-01-25 13:31:12.60	163.12	1.57	-50.6	-65.8	3.6	1.51e+00	0	41	104	1475346432	60	70828
2026-01-25 13:31:16.64	163.33	1.33	-50.6	-65.9	3.6	1.51e+00	0	41	104	1475346432	60	70907
2026-01-25 13:31:20.68	163.55	1.10	-50.6	-65.9	3.6	1.51e+00	0	41	104	1475346432	60	70978
2026-01-25 13:31:24.72	163.76	0.87	-50.6	-65.8	3.6	1.51e+00	0	41	104	1475346432	60	70738
2026-01-25 13:31:28.76	163.96	0.64	-50.6	-65.9	3.6	1.51e+00	0	41	104	1475346432	60	70968
2026-01-25 13:31:32.80	164.17	0.41	-50.6	-65.8	3.6	1.51e+00	0	41	104	1475346432	60	70682
2026-01-25 13:31:36.83	164.37	0.19	-50.6	-65.8	3.6	1.51e+00	0	41	104	1475346432	60	70505
2026-01-25 13:31:40.87	164.57	-0.04	-50.6	-65.8	3.6	1.51e+00	0	41	104	1475346432	60	70769

#Closed at: 2026-01-25 13:31:42
#Recorded file [1475 MB]: D:/lorett/data/35029_260126_011652.dat