passes_logs/2026/01/25/R4.6S_Anadyr/R4.6S_Anadyr__20260125_145719_SUOMI_NPP_rec.log

#Pass ID: 20260125_145719_SUOMI NPP
#Satellite: SUOMI NPP
#Configuration: NPP
#almurnet v.1.7.20251203
#Start time: 2026-01-25 14:57:21

#Version: 2.2.20231116
#Station: R4.6S_Anadyr
#Location: 177.4865 lon 64.73178 lat
#TLE: 1 37849U 11061A   26025.32440757  .00000181  00000+0  10697-3 0  9992
#TLE: 2 37849  98.7822 327.2846 0002175  45.9958 314.1397 14.19529737738178

#Time	Az	El	Level	Level2	SNR	BER	BlckErr	Temp	State	Recorded	gain1	gain2
2026-01-25 14:57:21.18	20.88	0.12	-50.2	-62.8	3.5	1.52e+00	0	39	0	0	60	48196
2026-01-25 14:57:25.22	20.88	0.37	-50.1	-65.3	3.6	1.51e+00	0	40	104	0	60	66771
2026-01-25 14:57:29.26	20.88	0.61	-50.1	-65.4	3.6	1.51e+00	0	40	104	0	60	66924
2026-01-25 14:57:33.30	20.88	0.86	-50.1	-65.4	3.6	1.51e+00	0	40	104	0	60	67034
2026-01-25 14:57:37.33	20.88	1.11	-49.9	-65.1	3.6	1.51e+00	0	40	104	0	60	65373
2026-01-25 14:57:41.38	20.88	1.36	-49.6	-64.8	3.6	1.51e+00	0	40	104	0	60	62759
2026-01-25 14:57:45.42	20.88	1.61	-48.8	-64.0	3.6	1.51e+00	0	40	104	0	60	57362
2026-01-25 14:57:49.46	20.88	1.87	-48.7	-63.7	3.6	1.51e+00	0	40	104	0	60	55479
2026-01-25 14:57:53.50	20.88	2.12	-48.7	-63.9	3.6	1.51e+00	0	40	104	0	60	56642
2026-01-25 14:57:57.54	20.88	2.38	-48.7	-63.7	3.6	1.51e+00	0	40	104	0	60	55534
2026-01-25 14:58:01.58	20.88	2.65	-48.7	-62.8	3.6	1.51e+00	0	41	104	0	60	49694
2026-01-25 14:58:05.62	20.87	2.91	-48.7	-62.8	3.6	1.51e+00	0	41	104	0	60	49738
2026-01-25 14:58:09.66	20.87	3.18	-48.1	-55.6	6.3	3.09e-01	0	41	0	2097152	60	21805
2026-01-25 14:58:13.70	20.87	3.45	-46.3	-50.1	12.7	2.73e-04	0	40	0	9437184	60	11539
2026-01-25 14:58:17.74	20.87	3.72	-46.6	-50.9	11.7	1.98e-05	0	41	0	16777216	60	12691
2026-01-25 14:58:21.77	20.86	4.00	-48.6	-61.9	3.6	4.73e-02	0	41	104	25165824	60	44910
2026-01-25 14:58:25.81	20.86	4.28	-46.7	-50.9	12.1	5.72e-04	0	41	0	25165824	60	12704
2026-01-25 14:58:29.85	20.85	4.56	-45.3	-48.2	14.8	0.00e+00	0	41	0	32505856	60	9260
2026-01-25 14:58:33.88	20.85	4.84	-44.6	-47.0	15.8	0.00e+00	0	41	0	39845888	60	8129
2026-01-25 14:58:37.92	20.84	5.13	-43.8	-45.8	17.0	0.00e+00	0	41	0	48234496	60	7075
2026-01-25 14:58:41.96	20.84	5.42	-44.1	-46.3	16.7	0.00e+00	0	40	0	55574528	60	7467
2026-01-25 14:58:45.99	20.83	5.71	-43.9	-46.0	17.1	0.00e+00	0	40	0	62914560	60	7173
2026-01-25 14:58:50.03	20.82	6.01	-44.1	-46.2	17.3	0.00e+00	0	41	0	70254592	60	7365
2026-01-25 14:58:54.07	20.82	6.31	-43.5	-45.3	18.0	0.00e+00	0	41	0	77594624	60	6642
2026-01-25 14:58:58.11	20.81	6.61	-43.4	-45.2	18.1	0.00e+00	0	41	0	85983232	60	6577
2026-01-25 14:59:02.14	20.80	6.92	-43.7	-45.6	17.6	0.00e+00	0	40	0	93323264	60	6867
2026-01-25 14:59:06.18	20.79	7.23	-43.3	-45.0	18.3	0.00e+00	0	40	0	100663296	60	6443
2026-01-25 14:59:10.22	20.78	7.54	-43.1	-44.7	18.7	0.00e+00	0	40	0	108003328	60	6225
2026-01-25 14:59:14.26	20.77	7.86	-42.8	-44.4	18.9	0.00e+00	0	41	0	116391936	58	6759
2026-01-25 14:59:18.29	20.76	8.19	-42.8	-44.4	18.9	0.00e+00	0	40	0	123731968	58	6718
2026-01-25 14:59:22.32	20.75	8.51	-42.5	-44.0	19.2	0.00e+00	0	40	0	131072000	58	6437
2026-01-25 14:59:26.36	20.74	8.84	-42.6	-44.2	19.2	0.00e+00	0	41	0	138412032	58	6551
2026-01-25 14:59:30.39	20.72	9.18	-42.4	-43.8	19.4	0.00e+00	0	41	0	145752064	58	6307
2026-01-25 14:59:34.43	20.71	9.52	-42.1	-43.5	19.8	0.00e+00	0	41	0	154140672	58	6070
2026-01-25 14:59:38.47	20.70	9.86	-42.0	-43.4	20.1	0.00e+00	0	41	0	161480704	58	5967
2026-01-25 14:59:42.50	20.68	10.21	-42.0	-43.4	19.9	0.00e+00	0	41	0	168820736	58	5994
2026-01-25 14:59:46.54	20.67	10.57	-41.9	-43.2	20.3	0.00e+00	0	41	0	176160768	56	6576
2026-01-25 14:59:50.58	20.65	10.93	-42.4	-43.8	19.8	0.00e+00	0	40	0	183500800	56	7039
2026-01-25 14:59:54.61	20.63	11.29	-41.5	-42.7	20.6	0.00e+00	0	40	0	191889408	56	6211
2026-01-25 14:59:58.65	20.61	11.67	-41.4	-42.6	20.8	0.00e+00	0	40	0	199229440	56	6134
2026-01-25 15:00:02.69	20.59	12.04	-41.1	-42.3	21.1	0.00e+00	0	41	0	206569472	56	5929
2026-01-25 15:00:06.72	20.57	12.42	-41.0	-42.2	21.2	0.00e+00	0	40	0	213909504	56	5873
2026-01-25 15:00:10.75	20.55	12.81	-40.8	-42.0	21.3	0.00e+00	0	40	0	222298112	54	6400
2026-01-25 15:00:14.80	20.53	13.21	-40.9	-42.0	21.2	0.00e+00	0	40	0	229638144	54	6460
2026-01-25 15:00:18.84	20.51	13.61	-40.6	-41.7	21.6	0.00e+00	0	40	0	236978176	54	6209
2026-01-25 15:00:22.87	20.48	14.02	-40.6	-41.7	21.6	0.00e+00	0	40	0	244318208	54	6188
2026-01-25 15:00:26.91	20.46	14.43	-40.3	-41.3	21.9	0.00e+00	0	41	0	251658240	54	5944
2026-01-25 15:00:30.94	20.43	14.86	-40.2	-41.2	21.9	0.00e+00	0	40	0	260046848	54	5881
2026-01-25 15:00:34.98	20.40	15.29	-39.9	-40.9	21.9	0.00e+00	0	40	0	267386880	52	6339
2026-01-25 15:00:39.02	20.37	15.72	-39.9	-41.0	22.3	0.00e+00	0	40	0	274726912	52	6403
2026-01-25 15:00:43.06	20.34	16.17	-39.9	-40.9	22.4	0.00e+00	0	40	0	282066944	52	6345
2026-01-25 15:00:47.09	20.31	16.62	-39.9	-40.9	22.4	0.00e+00	0	40	0	289406976	52	6366
2026-01-25 15:00:51.13	20.28	17.09	-39.8	-40.8	22.4	0.00e+00	0	41	0	297795584	52	6301
2026-01-25 15:00:55.17	20.24	17.56	-39.6	-40.6	22.7	0.00e+00	0	40	0	305135616	52	6152
2026-01-25 15:00:59.20	20.20	18.04	-39.3	-40.3	23.0	0.00e+00	0	40	0	312475648	52	5908
2026-01-25 15:01:03.23	20.17	18.53	-39.0	-40.0	23.2	0.00e+00	0	40	0	319815680	52	5719
2026-01-25 15:01:07.26	20.13	19.03	-39.1	-40.0	23.1	0.00e+00	0	40	0	328204288	52	5752
2026-01-25 15:01:11.30	20.08	19.54	-39.2	-40.1	23.2	0.00e+00	0	40	0	335544320	52	5787
2026-01-25 15:01:15.34	20.04	20.06	-38.9	-39.8	23.4	0.00e+00	0	40	0	342884352	52	5616
2026-01-25 15:01:19.38	19.99	20.59	-38.8	-39.7	23.3	0.00e+00	0	40	0	350224384	50	6200
2026-01-25 15:01:23.41	19.94	21.13	-38.5	-39.4	23.7	0.00e+00	0	41	0	357564416	50	5966
2026-01-25 15:01:27.45	19.89	21.69	-38.7	-39.5	23.6	0.00e+00	0	40	0	365953024	50	6099
2026-01-25 15:01:31.48	19.84	22.26	-38.8	-39.7	23.5	0.00e+00	0	41	0	373293056	50	6195
2026-01-25 15:01:35.52	19.78	22.84	-38.9	-39.8	23.5	0.00e+00	0	40	0	380633088	50	6282
2026-01-25 15:01:39.56	19.72	23.44	-38.8	-39.6	23.5	0.00e+00	0	40	0	387973120	50	6171
2026-01-25 15:01:43.60	19.66	24.04	-38.7	-39.5	23.7	0.00e+00	0	40	0	396361728	50	6091
2026-01-25 15:01:47.64	19.60	24.67	-38.9	-39.8	23.5	0.00e+00	0	40	0	403701760	50	6279
2026-01-25 15:01:51.68	19.53	25.31	-38.9	-39.8	23.4	0.00e+00	0	41	0	411041792	50	6274
2026-01-25 15:01:55.71	19.45	25.96	-38.7	-39.6	23.6	0.00e+00	0	40	0	418381824	50	6115
2026-01-25 15:01:59.75	19.38	26.63	-39.6	-40.5	22.8	0.00e+00	0	40	0	425721856	50	6838
2026-01-25 15:02:03.79	19.30	27.32	-40.6	-41.7	22.0	0.00e+00	0	41	0	434110464	52	6939
2026-01-25 15:02:07.83	19.21	28.02	-40.9	-42.0	21.6	0.00e+00	0	41	0	441450496	54	6462
2026-01-25 15:02:11.87	19.13	28.75	-41.0	-42.1	21.7	0.00e+00	0	41	0	448790528	54	6539
2026-01-25 15:02:15.90	19.03	29.49	-42.5	-43.9	20.2	0.00e+00	0	41	0	456130560	56	7103
2026-01-25 15:02:19.94	18.93	30.25	-41.5	-42.7	21.2	0.00e+00	0	40	0	464519168	56	6215
2026-01-25 15:02:23.97	18.83	31.04	-41.7	-42.9	21.1	0.00e+00	0	41	0	471859200	56	6350
2026-01-25 15:02:28.00	18.72	31.84	-42.9	-44.4	19.7	0.00e+00	0	41	0	479199232	58	6715
2026-01-25 15:02:32.04	18.60	32.67	-43.1	-44.6	19.4	0.00e+00	0	40	0	486539264	58	6853
2026-01-25 15:02:36.08	18.48	33.52	-43.3	-44.9	19.3	0.00e+00	0	41	0	493879296	58	7124
2026-01-25 15:02:40.12	18.35	34.39	-41.8	-43.0	20.9	0.00e+00	0	41	0	502267904	58	5756
2026-01-25 15:02:44.16	18.21	35.29	-40.0	-41.0	22.8	0.00e+00	0	41	0	509607936	54	5752
2026-01-25 15:02:48.19	18.06	36.22	-39.0	-39.9	23.4	0.00e+00	0	40	0	516947968	52	5650
2026-01-25 15:02:52.23	17.90	37.17	-37.7	-38.5	24.3	0.00e+00	0	40	0	524288000	48	6058
2026-01-25 15:02:56.27	17.73	38.15	-37.8	-38.6	24.5	0.00e+00	0	41	0	532676608	48	6130
2026-01-25 15:03:00.31	17.55	39.17	-38.9	-39.8	23.6	0.00e+00	0	40	0	540016640	50	6283
2026-01-25 15:03:04.34	17.35	40.21	-38.9	-39.7	23.6	0.00e+00	0	41	0	547356672	50	6236
2026-01-25 15:03:08.38	17.15	41.28	-39.0	-39.9	23.7	0.00e+00	0	41	0	554696704	50	6323
2026-01-25 15:03:12.42	16.92	42.38	-39.5	-40.5	23.1	0.00e+00	0	41	0	562036736	52	6035
2026-01-25 15:03:16.46	16.68	43.52	-39.1	-40.0	23.6	0.00e+00	0	41	0	570425344	52	5733
2026-01-25 15:03:20.49	16.42	44.69	-39.4	-40.4	23.2	0.00e+00	0	41	0	577765376	52	5996
2026-01-25 15:03:24.53	16.14	45.90	-40.1	-41.1	22.5	0.00e+00	0	41	0	585105408	52	6506
2026-01-25 15:03:28.57	15.83	47.14	-43.3	-44.9	19.4	0.00e+00	0	41	0	592445440	58	7111
2026-01-25 15:03:32.61	15.50	48.42	-42.1	-43.5	20.6	0.00e+00	0	40	0	600834048	58	6036
2026-01-25 15:03:36.65	15.14	49.74	-39.9	-40.9	22.7	0.00e+00	0	40	0	608174080	54	5688
2026-01-25 15:03:40.68	14.74	51.09	-38.0	-38.9	24.5	0.00e+00	0	40	0	615514112	50	5639
2026-01-25 15:03:44.72	14.30	52.49	-39.1	-40.0	23.5	0.00e+00	0	40	0	622854144	50	6419
2026-01-25 15:03:48.76	13.82	53.92	-39.0	-39.9	23.4	0.00e+00	0	40	0	630194176	52	5656
2026-01-25 15:03:52.79	13.28	55.39	-38.7	-39.5	23.8	0.00e+00	0	41	0	638582784	48	6844
2026-01-25 15:03:56.83	12.69	56.90	-38.7	-39.5	23.6	0.00e+00	0	41	0	645922816	50	6065
2026-01-25 15:04:00.86	12.02	58.45	-41.9	-43.1	21.2	0.00e+00	0	40	0	653262848	56	6496
2026-01-25 15:04:04.90	11.26	60.03	-41.5	-42.7	21.2	0.00e+00	0	41	0	660602880	54	6983
2026-01-25 15:04:08.94	10.40	61.66	-41.1	-42.3	21.7	0.00e+00	0	41	0	667942912	54	6675
2026-01-25 15:04:12.97	9.42	63.31	-38.6	-39.5	23.7	0.00e+00	0	40	0	676331520	50	6040
2026-01-25 15:04:17.01	8.29	65.00	-38.0	-38.9	24.2	0.00e+00	0	41	0	683671552	48	6350
2026-01-25 15:04:21.05	6.97	66.71	-41.6	-42.9	21.1	0.00e+00	0	41	0	691011584	54	7116
2026-01-25 15:04:25.08	5.41	68.44	-42.5	-44.0	19.9	0.00e+00	0	41	0	698351616	56	7219
2026-01-25 15:04:29.12	3.55	70.20	-40.2	-41.2	22.4	0.00e+00	0	41	0	706740224	52	6543
2026-01-25 15:04:33.15	1.30	71.96	-38.5	-39.3	23.8	0.00e+00	0	40	0	714080256	50	5912
2026-01-25 15:04:37.19	358.53	73.71	-39.3	-40.2	23.2	0.00e+00	0	40	0	721420288	52	5879
2026-01-25 15:04:41.22	355.06	75.45	-40.7	-41.7	22.4	0.00e+00	0	41	0	728760320	56	5537
2026-01-25 15:04:45.26	350.61	77.14	-42.2	-43.5	20.7	0.00e+00	0	41	0	736100352	58	6076
2026-01-25 15:04:49.30	344.80	78.75	-42.8	-44.3	20.1	0.00e+00	0	41	0	744488960	58	6659
2026-01-25 15:04:53.34	337.10	80.23	-40.8	-41.9	21.9	0.00e+00	0	41	0	751828992	54	6338
2026-01-25 15:04:57.38	326.86	81.47	-39.2	-40.1	23.6	0.00e+00	0	41	0	759169024	50	6504
2026-01-25 15:05:01.42	313.63	82.37	-41.6	-42.8	21.2	0.00e+00	0	41	0	766509056	56	6288
2026-01-25 15:05:05.46	297.92	82.78	-39.4	-40.3	23.2	0.00e+00	0	41	0	774897664	52	5919
2026-01-25 15:05:09.49	281.71	82.62	-40.5	-41.6	22.1	0.00e+00	0	41	0	782237696	52	6912
2026-01-25 15:05:13.53	267.25	81.92	-40.7	-41.7	22.2	0.00e+00	0	41	0	789577728	54	6239
2026-01-25 15:05:17.57	255.73	80.80	-42.1	-43.3	20.7	0.00e+00	0	41	0	796917760	56	6692
2026-01-25 15:05:21.61	247.00	79.41	-41.5	-42.7	21.1	0.00e+00	0	41	0	804257792	56	6210
2026-01-25 15:05:25.65	240.44	77.85	-42.2	-43.5	20.6	0.00e+00	0	41	0	812646400	58	6071
2026-01-25 15:05:29.68	235.46	76.19	-39.2	-40.1	23.4	0.00e+00	0	41	0	819986432	52	5827
2026-01-25 15:05:33.71	231.60	74.47	-39.9	-40.9	22.5	0.00e+00	0	41	0	827326464	54	5647
2026-01-25 15:05:37.75	228.55	72.72	-39.1	-40.0	23.4	0.00e+00	0	41	0	834666496	50	6436
2026-01-25 15:05:41.79	226.08	70.95	-42.5	-44.1	20.0	0.00e+00	0	41	0	842006528	58	6495
2026-01-25 15:05:45.83	224.06	69.19	-40.7	-41.7	22.0	0.00e+00	0	41	0	850395136	54	6225
2026-01-25 15:05:49.87	222.38	67.44	-39.4	-40.3	23.4	0.00e+00	0	41	0	857735168	52	5947
2026-01-25 15:05:53.90	220.96	65.72	-38.7	-39.6	23.7	0.00e+00	0	41	0	865075200	50	6106
2026-01-25 15:05:57.94	219.75	64.02	-37.5	-38.3	24.6	0.00e+00	0	41	0	872415232	48	5939
2026-01-25 15:06:01.97	218.71	62.35	-39.0	-39.9	23.5	0.00e+00	0	41	0	880803840	50	6329
2026-01-25 15:06:06.01	217.80	60.71	-38.6	-39.5	23.8	0.00e+00	0	41	0	888143872	48	6780
2026-01-25 15:06:10.05	217.00	59.10	-40.0	-41.0	22.8	0.00e+00	0	41	0	895483904	54	5726
2026-01-25 15:06:14.08	216.30	57.53	-39.1	-40.0	23.1	0.00e+00	0	41	0	902823936	50	6407
2026-01-25 15:06:18.12	215.67	56.00	-38.4	-39.3	23.9	0.00e+00	0	41	0	910163968	50	5961
2026-01-25 15:06:22.16	215.11	54.51	-37.0	-37.7	25.0	0.00e+00	0	41	0	918552576	48	5551
2026-01-25 15:06:26.20	214.60	53.06	-39.1	-40.0	23.4	0.00e+00	0	41	0	925892608	50	6427
2026-01-25 15:06:30.23	214.14	51.64	-41.9	-43.1	21.3	0.00e+00	0	41	0	933232640	56	6505
2026-01-25 15:06:34.27	213.73	50.27	-40.2	-41.2	22.5	0.00e+00	0	41	0	940572672	54	5848
2026-01-25 15:06:38.31	213.35	48.93	-42.0	-43.2	21.0	0.00e+00	0	41	0	948961280	56	6604
2026-01-25 15:06:42.34	213.00	47.63	-40.4	-41.5	22.4	0.00e+00	0	41	0	956301312	54	6061
2026-01-25 15:06:46.38	212.69	46.37	-40.6	-41.7	22.1	0.00e+00	0	41	0	963641344	54	6201
2026-01-25 15:06:50.42	212.39	45.14	-42.4	-43.7	20.3	0.00e+00	0	41	0	970981376	56	6970
2026-01-25 15:06:54.45	212.12	43.96	-45.6	-48.3	16.0	0.00e+00	0	41	0	978321408	60	9427
2026-01-25 15:06:58.49	211.87	42.80	-43.0	-44.4	19.8	0.00e+00	0	41	0	986710016	60	6019
2026-01-25 15:07:02.53	211.64	41.68	-42.5	-43.9	20.2	0.00e+00	0	41	0	994050048	56	7093
2026-01-25 15:07:06.56	211.43	40.59	-44.1	-45.9	18.4	0.00e+00	0	41	0	1001390080	60	7146
2026-01-25 15:07:10.60	211.22	39.54	-39.4	-40.3	23.3	0.00e+00	0	41	0	1008730112	52	5912
2026-01-25 15:07:14.64	211.04	38.51	-39.7	-40.6	23.0	0.00e+00	0	41	0	1016070144	50	6896
2026-01-25 15:07:18.68	210.86	37.51	-42.4	-43.7	20.5	0.00e+00	0	41	0	1024458752	58	6231
2026-01-25 15:07:22.72	210.70	36.54	-41.5	-42.7	21.1	0.00e+00	0	41	0	1031798784	56	6217
2026-01-25 15:07:26.75	210.54	35.60	-42.0	-43.3	20.7	0.00e+00	0	41	0	1039138816	56	6679
2026-01-25 15:07:30.79	210.40	34.69	-40.4	-41.4	22.4	0.00e+00	0	41	0	1046478848	54	6004
2026-01-25 15:07:34.83	210.26	33.80	-41.4	-42.6	21.3	0.00e+00	0	41	0	1054867456	54	6884
2026-01-25 15:07:38.86	210.13	32.94	-43.9	-45.7	18.7	0.00e+00	0	41	0	1062207488	60	7003
2026-01-25 15:07:42.90	210.01	32.10	-44.1	-46.1	18.3	0.00e+00	0	41	0	1069547520	60	7335
2026-01-25 15:07:46.94	209.89	31.28	-42.9	-44.5	19.8	0.00e+00	0	41	0	1076887552	60	6054
2026-01-25 15:07:50.99	209.79	30.49	-41.7	-42.9	21.1	0.00e+00	0	41	0	1084227584	56	6356
2026-01-25 15:07:55.02	209.68	29.71	-41.0	-42.1	21.8	0.00e+00	0	41	0	1092616192	56	5792
2026-01-25 15:07:59.06	209.59	28.96	-40.2	-41.2	22.5	0.00e+00	0	41	0	1099956224	54	5888
2026-01-25 15:08:03.10	209.49	28.23	-41.2	-42.4	21.6	0.00e+00	0	41	0	1107296256	54	6698
2026-01-25 15:08:07.13	209.41	27.51	-42.3	-43.7	20.4	0.00e+00	0	41	0	1114636288	56	6955
2026-01-25 15:08:11.17	209.32	26.82	-40.2	-41.2	22.5	0.00e+00	0	41	0	1123024896	54	5871
2026-01-25 15:08:15.21	209.24	26.14	-39.0	-39.9	23.4	0.00e+00	0	41	0	1130364928	50	6347
2026-01-25 15:08:19.25	209.17	25.47	-39.3	-40.2	23.2	0.00e+00	0	41	0	1137704960	50	6598
2026-01-25 15:08:23.28	209.10	24.83	-41.1	-42.3	21.6	0.00e+00	0	41	0	1145044992	54	6653
2026-01-25 15:08:27.32	209.03	24.20	-41.8	-43.1	20.6	0.00e+00	0	41	0	1152385024	56	6538
2026-01-25 15:08:31.36	208.96	23.58	-41.6	-42.9	21.2	0.00e+00	0	41	0	1160773632	56	6339
2026-01-25 15:08:35.40	208.90	22.98	-40.1	-41.1	22.5	0.00e+00	0	41	0	1168113664	54	5801
2026-01-25 15:08:39.43	208.84	22.39	-38.8	-39.7	23.7	0.00e+00	0	41	0	1175453696	52	5547
2026-01-25 15:08:43.47	208.78	21.81	-38.4	-39.2	24.0	0.00e+00	0	41	0	1182793728	50	5892
2026-01-25 15:08:47.51	208.73	21.25	-38.6	-39.4	23.8	0.00e+00	0	41	0	1191182336	50	6013
2026-01-25 15:08:51.54	208.68	20.70	-39.2	-40.1	23.3	0.00e+00	0	41	0	1198522368	50	6474
2026-01-25 15:08:55.58	208.63	20.16	-39.2	-40.1	23.2	0.00e+00	0	41	0	1205862400	50	6510
2026-01-25 15:08:59.62	208.58	19.64	-39.2	-40.1	23.2	0.00e+00	0	41	0	1213202432	50	6518
2026-01-25 15:09:03.66	208.53	19.12	-39.1	-40.0	23.2	0.00e+00	0	41	0	1220542464	50	6430
2026-01-25 15:09:07.70	208.49	18.61	-40.6	-41.7	22.0	0.00e+00	0	41	0	1228931072	52	6956
2026-01-25 15:09:11.73	208.45	18.12	-42.0	-43.2	20.7	0.00e+00	0	41	0	1236271104	56	6613
2026-01-25 15:09:15.77	208.41	17.63	-43.1	-44.6	19.4	0.00e+00	0	41	0	1243611136	58	6907
2026-01-25 15:09:19.81	208.37	17.16	-43.5	-45.1	19.1	0.00e+00	0	41	0	1250951168	58	7318
2026-01-25 15:09:23.84	208.33	16.69	-43.3	-44.8	19.4	0.00e+00	0	41	0	1259339776	58	7029
2026-01-25 15:09:27.88	208.30	16.23	-43.1	-44.6	19.4	0.00e+00	0	41	0	1266679808	58	6893
2026-01-25 15:09:31.91	208.27	15.78	-42.5	-43.9	20.1	0.00e+00	0	41	0	1274019840	58	6369
2026-01-25 15:09:35.95	208.23	15.34	-43.0	-44.5	19.7	0.00e+00	0	41	0	1281359872	58	6791
2026-01-25 15:09:39.98	208.20	14.91	-42.4	-43.7	20.0	0.00e+00	0	41	0	1288699904	58	6241
2026-01-25 15:09:44.02	208.17	14.48	-42.4	-43.7	20.3	0.00e+00	0	41	0	1297088512	58	6220
2026-01-25 15:09:48.06	208.14	14.06	-41.8	-43.0	20.9	0.00e+00	0	41	0	1304428544	56	6454
2026-01-25 15:09:52.09	208.12	13.65	-41.3	-42.5	21.3	0.00e+00	0	41	0	1311768576	56	6040
2026-01-25 15:09:56.13	208.09	13.24	-41.2	-42.3	21.4	0.00e+00	0	41	0	1319108608	56	5940
2026-01-25 15:10:00.17	208.06	12.84	-41.1	-42.2	21.7	0.00e+00	0	41	0	1327497216	56	5879
2026-01-25 15:10:04.21	208.04	12.45	-41.2	-42.3	21.5	0.00e+00	0	41	0	1334837248	56	5918
2026-01-25 15:10:08.25	208.02	12.07	-41.1	-42.3	21.4	0.00e+00	0	41	0	1342177280	56	5907
2026-01-25 15:10:12.28	207.99	11.69	-41.5	-42.7	21.0	0.00e+00	0	41	0	1349517312	56	6222
2026-01-25 15:10:16.33	207.97	11.31	-41.2	-42.4	21.2	0.00e+00	0	41	0	1356857344	56	5970
2026-01-25 15:10:20.37	207.95	10.94	-41.6	-42.8	20.9	0.00e+00	0	41	0	1365245952	56	6281
2026-01-25 15:10:24.40	207.93	10.58	-41.4	-42.6	21.0	0.00e+00	0	41	0	1372585984	56	6149
2026-01-25 15:10:28.44	207.91	10.22	-41.3	-42.5	21.1	0.00e+00	0	41	0	1379926016	56	6074
2026-01-25 15:10:32.48	207.89	9.87	-41.4	-42.6	21.0	0.00e+00	0	41	0	1387266048	56	6127
2026-01-25 15:10:36.52	207.88	9.52	-41.3	-42.4	21.2	0.00e+00	0	41	0	1394606080	56	6009
2026-01-25 15:10:40.55	207.86	9.18	-41.5	-42.7	21.0	0.00e+00	0	41	0	1402994688	56	6187
2026-01-25 15:10:44.59	207.84	8.84	-41.5	-42.7	20.9	0.00e+00	0	41	0	1410334720	56	6199
2026-01-25 15:10:48.62	207.83	8.51	-41.4	-42.6	20.9	0.00e+00	0	41	0	1417674752	56	6130
2026-01-25 15:10:52.66	207.81	8.18	-41.6	-42.8	20.7	0.00e+00	0	41	0	1425014784	56	6277
2026-01-25 15:10:56.70	207.80	7.85	-41.7	-43.0	20.6	0.00e+00	0	41	0	1433403392	56	6436
2026-01-25 15:11:00.73	207.79	7.53	-42.3	-43.7	19.8	0.00e+00	0	41	0	1440743424	56	6950
2026-01-25 15:11:04.76	207.77	7.22	-42.0	-43.3	20.2	0.00e+00	0	41	0	1448083456	56	6674
2026-01-25 15:11:08.80	207.76	6.90	-41.9	-43.3	20.0	0.00e+00	0	41	0	1455423488	56	6621
2026-01-25 15:11:12.84	207.75	6.59	-42.1	-43.4	20.0	0.00e+00	0	41	0	1462763520	56	6760
2026-01-25 15:11:16.87	207.74	6.29	-42.5	-44.0	19.5	0.00e+00	0	41	0	1471152128	56	7189
2026-01-25 15:11:20.91	207.73	5.99	-42.3	-43.7	19.7	0.00e+00	0	41	0	1478492160	58	6178
2026-01-25 15:11:24.95	207.72	5.69	-42.2	-43.6	19.8	0.00e+00	0	41	0	1485832192	58	6142
2026-01-25 15:11:28.98	207.70	5.39	-42.8	-44.4	19.0	0.00e+00	0	41	0	1493172224	58	6727
2026-01-25 15:11:33.02	207.70	5.10	-42.9	-44.5	18.8	0.00e+00	0	41	0	1501560832	58	6800
2026-01-25 15:11:37.06	207.69	4.81	-43.8	-45.6	17.9	0.00e+00	0	41	0	1508900864	60	6882
2026-01-25 15:11:41.10	207.68	4.53	-43.6	-45.4	18.0	0.00e+00	0	41	0	1516240896	58	7559
2026-01-25 15:11:45.13	207.67	4.24	-43.5	-45.3	18.2	0.00e+00	0	41	0	1523580928	60	6642
2026-01-25 15:11:49.17	207.66	3.96	-43.5	-45.3	18.0	0.00e+00	0	41	0	1530920960	60	6660
2026-01-25 15:11:53.19	207.65	3.69	-43.5	-45.3	17.9	0.00e+00	0	41	0	1539309568	60	6642
2026-01-25 15:11:57.23	207.65	3.41	-44.5	-46.7	16.8	0.00e+00	0	41	0	1546649600	60	7844
2026-01-25 15:12:01.27	207.64	3.14	-43.9	-45.9	17.2	0.00e+00	0	41	0	1553989632	60	7116
2026-01-25 15:12:05.31	207.63	2.87	-49.7	-65.0	3.6	1.51e+00	0	41	104	1558183936	60	63966
2026-01-25 15:12:09.35	207.63	2.61	-49.8	-65.4	3.6	1.51e+00	0	41	104	1558183936	60	67688
2026-01-25 15:12:13.39	207.62	2.34	-50.3	-65.6	3.6	1.51e+00	0	42	104	1558183936	60	68626
2026-01-25 15:12:17.43	207.62	2.08	-50.0	-65.6	3.6	1.51e+00	0	42	104	1558183936	60	68556
2026-01-25 15:12:21.47	207.61	1.82	-50.3	-65.5	3.6	1.51e+00	0	42	104	1558183936	60	67832
2026-01-25 15:12:25.51	207.60	1.56	-50.3	-65.5	3.6	1.51e+00	0	42	104	1558183936	60	67705
2026-01-25 15:12:29.55	207.60	1.31	-50.3	-65.5	3.6	1.51e+00	0	42	104	1558183936	60	67815
2026-01-25 15:12:33.59	207.60	1.06	-50.3	-65.5	3.6	1.51e+00	0	42	104	1558183936	60	68041
2026-01-25 15:12:37.62	207.59	0.81	-50.3	-65.5	3.6	1.51e+00	0	42	104	1558183936	60	68066
2026-01-25 15:12:41.66	207.59	0.56	-50.3	-65.5	3.6	1.51e+00	0	42	104	1558183936	60	67888
2026-01-25 15:12:45.71	207.58	0.31	-50.3	-65.5	3.6	1.51e+00	0	42	104	1558183936	60	68298
2026-01-25 15:12:49.74	207.58	0.07	-50.3	-65.5	3.6	1.51e+00	0	41	104	1558183936	60	67892

#Closed at: 2026-01-25 15:12:51
#Recorded file [1558 MB]: D:/lorett/data/35029_260126_025721.dat