passes_logs/2026/01/25/R4.6S_Anadyr/R4.6S_Anadyr__20260125_022346_NOAA_21_JPSS-2_rec.log

#Pass ID: 20260125_022346_NOAA 21 (JPSS-2)
#Satellite: NOAA 21 (JPSS-2)
#Configuration: NOAA-21
#almurnet v.1.7.20251203
#Start time: 2026-01-25 02:23:48

#Version: 2.2.20231116
#Station: R4.6S_Anadyr
#Location: 177.4865 lon 64.73178 lat
#TLE: 1 54234U 22150A   26024.45772595  .00000201  00000+0  11607-3 0  9996
#TLE: 2 54234  98.7508 325.2435 0000728 220.7365 139.3757 14.19538765166156

#Time	Az	El	Level	Level2	SNR	BER	BlckErr	Temp	State	Recorded	gain1	gain2
2026-01-25 02:23:48.85	213.18	0.11	-51.6	-69.2	3.5	3.01e+01	0	39	0	0	60	111272
2026-01-25 02:23:52.87	213.45	0.32	-51.8	-64.7	3.5	1.51e+00	0	41	104	0	60	60431
2026-01-25 02:23:56.91	213.74	0.52	-51.0	-63.9	3.5	1.52e+00	0	41	104	0	60	54683
2026-01-25 02:24:00.95	214.02	0.73	-50.9	-63.8	3.5	1.52e+00	0	41	104	0	60	54134
2026-01-25 02:24:04.99	214.31	0.94	-50.6	-63.6	3.5	1.52e+00	0	41	104	0	60	53146
2026-01-25 02:24:09.02	214.60	1.15	-50.5	-63.4	3.5	1.52e+00	0	41	104	0	60	51791
2026-01-25 02:24:13.06	214.90	1.37	-49.6	-62.4	3.5	1.52e+00	0	41	104	0	60	46366
2026-01-25 02:24:17.10	215.20	1.58	-49.2	-62.0	3.5	1.52e+00	0	41	104	0	60	44153
2026-01-25 02:24:21.14	215.50	1.79	-49.2	-61.9	3.5	1.52e+00	0	41	104	0	60	43812
2026-01-25 02:24:25.18	215.81	2.01	-49.2	-61.9	3.5	1.51e+00	0	41	104	0	60	43835
2026-01-25 02:24:29.22	216.12	2.22	-49.1	-61.8	3.5	1.52e+00	0	41	104	0	60	43070
2026-01-25 02:24:33.26	216.44	2.44	-49.1	-61.8	3.5	1.52e+00	0	41	104	0	60	43225
2026-01-25 02:24:37.30	216.76	2.66	-49.0	-60.8	3.6	1.51e+00	0	41	104	0	60	38292
2026-01-25 02:24:41.34	217.09	2.88	-47.4	-52.4	8.6	8.54e-02	123	41	0	0	60	14621
2026-01-25 02:24:45.38	217.42	3.10	-45.0	-47.6	13.7	5.30e-06	123	41	0	12582912	60	8377
2026-01-25 02:24:49.42	217.75	3.32	-48.6	-57.6	4.2	1.51e+00	0	41	104	22020096	60	26482
2026-01-25 02:24:53.46	218.09	3.54	-41.1	-42.5	18.9	0.00e+00	123	41	0	31457280	54	6624
2026-01-25 02:24:57.51	218.44	3.76	-40.5	-41.7	19.5	0.00e+00	123	41	0	44040192	54	6054
2026-01-25 02:25:01.54	218.79	3.98	-40.5	-41.8	19.5	0.00e+00	123	41	0	56623104	54	6072
2026-01-25 02:25:05.58	219.14	4.21	-40.7	-42.0	19.3	0.00e+00	123	41	0	69206016	54	6268
2026-01-25 02:25:09.62	219.50	4.43	-40.7	-42.0	19.2	0.00e+00	123	41	0	81788928	54	6270
2026-01-25 02:25:13.66	219.87	4.66	-40.8	-42.1	19.3	0.00e+00	123	41	0	94371840	54	6297
2026-01-25 02:25:17.71	220.24	4.89	-40.7	-42.0	19.3	0.00e+00	122	41	0	106954752	54	6269
2026-01-25 02:25:21.75	220.62	5.12	-40.5	-41.7	19.7	0.00e+00	122	41	0	119537664	54	6058
2026-01-25 02:25:25.79	221.00	5.35	-40.7	-42.0	19.5	0.00e+00	122	41	0	132120576	54	6276
2026-01-25 02:25:29.83	221.39	5.58	-40.8	-42.1	19.6	0.00e+00	123	41	0	144703488	54	6304
2026-01-25 02:25:33.87	221.78	5.81	-41.2	-42.6	18.9	0.00e+00	122	41	0	157286400	54	6670
2026-01-25 02:25:37.91	222.18	6.04	-40.7	-42.0	19.5	0.00e+00	122	41	0	169869312	54	6255
2026-01-25 02:25:41.96	222.59	6.27	-40.6	-41.8	19.8	0.00e+00	122	41	0	182452224	54	6127
2026-01-25 02:25:46.00	223.00	6.51	-40.8	-42.1	19.5	0.00e+00	122	41	0	195035136	54	6333
2026-01-25 02:25:50.04	223.42	6.74	-40.9	-42.2	19.5	0.00e+00	123	41	0	207618048	54	6399
2026-01-25 02:25:54.08	223.85	6.98	-41.4	-42.7	19.1	0.00e+00	123	41	0	220200960	54	6765
2026-01-25 02:25:58.12	224.28	7.21	-41.4	-42.8	19.1	0.00e+00	123	42	0	233832448	54	6818
2026-01-25 02:26:02.17	224.72	7.45	-40.9	-42.2	19.6	0.00e+00	123	41	0	246415360	54	6394
2026-01-25 02:26:06.20	225.17	7.69	-41.0	-42.3	19.5	0.00e+00	122	42	0	258998272	54	6448
2026-01-25 02:26:10.24	225.62	7.93	-41.1	-42.4	19.4	0.00e+00	122	41	0	271581184	54	6514
2026-01-25 02:26:14.28	226.08	8.17	-41.3	-42.6	19.3	0.00e+00	123	42	0	284164096	54	6701
2026-01-25 02:26:18.32	226.55	8.41	-41.1	-42.4	19.4	0.00e+00	123	41	0	296747008	54	6524
2026-01-25 02:26:22.35	227.02	8.65	-41.1	-42.4	19.4	0.00e+00	123	41	0	309329920	54	6563
2026-01-25 02:26:26.39	227.51	8.89	-41.0	-42.2	19.7	0.00e+00	122	42	0	321912832	54	6419
2026-01-25 02:26:30.43	228.00	9.13	-41.4	-42.7	19.3	0.00e+00	122	41	0	334495744	54	6762
2026-01-25 02:26:34.48	228.50	9.37	-41.2	-42.4	19.5	0.00e+00	122	42	0	347078656	54	6564
2026-01-25 02:26:38.52	229.00	9.62	-41.1	-42.4	19.6	0.00e+00	122	41	0	359661568	54	6523
2026-01-25 02:26:42.56	229.52	9.86	-41.0	-42.3	19.7	0.00e+00	122	41	0	372244480	54	6437
2026-01-25 02:26:46.60	230.04	10.11	-40.8	-42.0	20.0	0.00e+00	123	42	0	384827392	54	6237
2026-01-25 02:26:50.64	230.57	10.35	-40.6	-41.9	20.1	0.00e+00	120	41	0	397410304	54	6136
2026-01-25 02:26:54.67	231.11	10.59	-40.6	-41.8	20.2	0.00e+00	122	41	0	409993216	54	6090
2026-01-25 02:26:58.71	231.66	10.84	-40.3	-41.5	20.3	0.00e+00	122	41	0	422576128	54	5911
2026-01-25 02:27:02.75	232.22	11.08	-40.3	-41.5	20.3	0.00e+00	123	41	0	435159040	54	5912
2026-01-25 02:27:06.79	232.79	11.33	-40.2	-41.3	20.6	0.00e+00	120	41	0	447741952	54	5769
2026-01-25 02:27:10.83	233.36	11.57	-40.3	-41.5	20.5	0.00e+00	122	41	0	460324864	54	5890
2026-01-25 02:27:14.87	233.95	11.82	-40.1	-41.2	20.7	0.00e+00	121	42	0	472907776	54	5716
2026-01-25 02:27:18.91	234.54	12.06	-40.0	-41.2	20.7	0.00e+00	123	42	0	485490688	54	5689
2026-01-25 02:27:22.95	235.15	12.30	-39.8	-40.9	21.0	0.00e+00	122	41	0	498073600	52	6167
2026-01-25 02:27:26.99	235.76	12.55	-39.5	-40.6	21.3	0.00e+00	121	41	0	510656512	52	5992
2026-01-25 02:27:31.03	236.38	12.79	-39.2	-40.3	21.5	0.00e+00	123	41	0	523239424	52	5733
2026-01-25 02:27:35.08	237.02	13.03	-39.1	-40.2	21.7	0.00e+00	120	41	0	535822336	52	5662
2026-01-25 02:27:39.12	237.66	13.27	-38.7	-39.7	22.0	0.00e+00	121	41	0	549453824	50	6052
2026-01-25 02:27:43.16	238.32	13.51	-38.4	-39.4	22.4	0.00e+00	120	41	0	562036736	50	5837
2026-01-25 02:27:47.21	238.98	13.75	-38.3	-39.3	22.5	0.00e+00	123	41	0	574619648	50	5745
2026-01-25 02:27:51.25	239.66	13.99	-38.0	-39.0	22.7	0.00e+00	123	41	0	587202560	50	5543
2026-01-25 02:27:55.29	240.35	14.23	-38.0	-39.0	22.7	0.00e+00	122	41	0	599785472	50	5557
2026-01-25 02:27:59.34	241.04	14.46	-37.9	-38.9	22.9	0.00e+00	123	42	0	612368384	50	5479
2026-01-25 02:28:03.38	241.75	14.70	-37.8	-38.8	23.1	0.00e+00	120	41	0	624951296	50	5429
2026-01-25 02:28:07.42	242.47	14.93	-37.5	-38.4	23.4	0.00e+00	122	41	0	637534208	48	5845
2026-01-25 02:28:11.47	243.20	15.16	-37.4	-38.4	23.4	0.00e+00	123	41	0	650117120	48	5795
2026-01-25 02:28:15.51	243.94	15.39	-37.5	-38.4	23.3	0.00e+00	123	42	0	662700032	48	5851
2026-01-25 02:28:19.55	244.69	15.61	-37.8	-38.8	23.2	0.00e+00	120	42	0	675282944	48	6080
2026-01-25 02:28:23.60	245.45	15.83	-37.6	-38.5	23.3	0.00e+00	123	41	0	687865856	48	5903
2026-01-25 02:28:27.64	246.22	16.05	-37.5	-38.5	23.4	0.00e+00	120	41	0	700448768	48	5869
2026-01-25 02:28:31.68	247.01	16.27	-37.2	-38.2	23.6	0.00e+00	120	41	0	713031680	48	5683
2026-01-25 02:28:35.72	247.80	16.48	-37.4	-38.4	23.6	0.00e+00	123	41	0	725614592	48	5800
2026-01-25 02:28:39.75	248.60	16.69	-37.6	-38.6	23.4	0.00e+00	121	41	0	738197504	48	5938
2026-01-25 02:28:43.79	249.42	16.90	-37.3	-38.2	23.5	0.00e+00	123	41	0	750780416	48	5695
2026-01-25 02:28:47.84	250.25	17.10	-37.4	-38.3	23.4	0.00e+00	123	41	0	763363328	48	5785
2026-01-25 02:28:51.88	251.09	17.30	-37.3	-38.3	23.7	0.00e+00	120	41	0	775946240	48	5730
2026-01-25 02:28:55.92	251.93	17.49	-37.1	-38.0	23.8	0.00e+00	122	41	0	788529152	48	5560
2026-01-25 02:28:59.97	252.79	17.68	-36.8	-37.7	23.9	0.00e+00	120	41	0	801112064	48	5398
2026-01-25 02:29:04.01	253.66	17.86	-37.1	-38.1	23.8	0.00e+00	123	41	0	814743552	48	5605
2026-01-25 02:29:08.05	254.54	18.04	-37.1	-38.0	23.7	0.00e+00	122	42	0	826277888	48	5569
2026-01-25 02:29:12.09	255.43	18.21	-36.7	-37.6	24.0	0.00e+00	120	42	0	839909376	46	5969
2026-01-25 02:29:16.12	256.33	18.38	-36.8	-37.7	24.1	0.00e+00	123	41	0	852492288	46	6016
2026-01-25 02:29:20.16	257.23	18.54	-36.8	-37.8	24.0	0.00e+00	123	41	0	865075200	46	6065
2026-01-25 02:29:24.20	258.15	18.70	-36.6	-37.5	24.1	0.00e+00	123	41	0	877658112	46	5896
2026-01-25 02:29:28.24	259.08	18.85	-36.7	-37.6	24.2	0.00e+00	122	42	0	890241024	46	5940
2026-01-25 02:29:32.27	260.01	18.99	-36.6	-37.5	24.1	0.00e+00	122	41	0	902823936	46	5892
2026-01-25 02:29:36.31	260.95	19.13	-36.4	-37.3	24.3	0.00e+00	120	41	0	915406848	46	5776
2026-01-25 02:29:40.35	261.90	19.26	-36.2	-37.1	24.4	0.00e+00	123	41	0	927989760	46	5637
2026-01-25 02:29:44.39	262.86	19.38	-36.6	-37.5	24.3	0.00e+00	120	42	0	940572672	46	5893
2026-01-25 02:29:48.43	263.83	19.50	-36.4	-37.3	24.5	0.00e+00	120	41	0	953155584	46	5754
2026-01-25 02:29:52.47	264.80	19.61	-36.5	-37.4	24.2	0.00e+00	121	41	0	965738496	46	5806
2026-01-25 02:29:56.50	265.78	19.71	-36.3	-37.2	24.5	0.00e+00	122	42	0	978321408	46	5702
2026-01-25 02:30:00.54	266.76	19.80	-36.5	-37.4	24.3	0.00e+00	122	42	0	990904320	46	5811
2026-01-25 02:30:04.58	267.75	19.88	-36.4	-37.3	24.5	0.00e+00	122	42	0	1003487232	46	5774
2026-01-25 02:30:08.62	268.75	19.96	-36.4	-37.4	24.4	0.00e+00	122	42	0	1016070144	46	5792
2026-01-25 02:30:12.66	269.75	20.03	-36.7	-37.6	24.2	0.00e+00	121	41	0	1028653056	46	5946
2026-01-25 02:30:16.70	270.75	20.08	-36.7	-37.6	24.1	0.00e+00	120	42	0	1041235968	46	5955
2026-01-25 02:30:20.75	271.76	20.13	-36.6	-37.6	24.2	0.00e+00	122	42	0	1053818880	46	5931
2026-01-25 02:30:24.78	272.77	20.18	-36.6	-37.5	24.3	0.00e+00	122	42	0	1066401792	46	5893
2026-01-25 02:30:28.82	273.78	20.21	-36.6	-37.5	24.2	0.00e+00	122	42	0	1078984704	46	5912
2026-01-25 02:30:32.85	274.80	20.23	-36.7	-37.6	24.1	0.00e+00	123	42	0	1091567616	46	5989
2026-01-25 02:30:36.89	275.81	20.25	-36.6	-37.5	24.2	0.00e+00	122	42	0	1104150528	46	5907
2026-01-25 02:30:40.93	276.83	20.26	-36.9	-37.8	24.0	0.00e+00	122	42	0	1116733440	46	6097
2026-01-25 02:30:44.97	277.84	20.25	-36.5	-37.3	24.3	0.00e+00	122	42	0	1129316352	46	5791
2026-01-25 02:30:49.01	278.86	20.24	-36.6	-37.5	24.3	0.00e+00	123	42	0	1141899264	46	5893
2026-01-25 02:30:53.05	279.87	20.22	-36.8	-37.7	24.0	0.00e+00	121	42	0	1154482176	46	6058
2026-01-25 02:30:57.09	280.89	20.19	-36.8	-37.7	24.1	0.00e+00	123	42	0	1167065088	46	6036
2026-01-25 02:31:01.13	281.90	20.15	-36.6	-37.5	24.1	0.00e+00	123	42	0	1180696576	46	5913
2026-01-25 02:31:05.17	282.90	20.11	-36.6	-37.5	24.2	0.00e+00	122	42	0	1193279488	46	5909
2026-01-25 02:31:09.20	283.91	20.05	-36.5	-37.4	24.3	0.00e+00	123	42	0	1205862400	46	5852
2026-01-25 02:31:13.24	284.91	19.99	-36.7	-37.6	24.2	0.00e+00	123	42	0	1218445312	46	5972
2026-01-25 02:31:17.27	285.90	19.92	-36.7	-37.6	24.1	0.00e+00	123	42	0	1231028224	46	5938
2026-01-25 02:31:21.31	286.89	19.84	-36.4	-37.3	24.4	0.00e+00	123	42	0	1243611136	46	5767
2026-01-25 02:31:25.34	287.88	19.75	-36.5	-37.4	24.3	0.00e+00	122	42	0	1256194048	46	5849
2026-01-25 02:31:29.38	288.86	19.65	-36.5	-37.4	24.4	0.00e+00	123	42	0	1268776960	46	5828
2026-01-25 02:31:33.41	289.83	19.55	-36.4	-37.3	24.3	0.00e+00	121	42	0	1281359872	46	5778
2026-01-25 02:31:37.45	290.79	19.44	-36.4	-37.3	24.3	0.00e+00	123	42	0	1293942784	46	5742
2026-01-25 02:31:41.49	291.75	19.32	-36.3	-37.3	24.4	0.00e+00	123	42	0	1306525696	46	5730
2026-01-25 02:31:45.52	292.70	19.19	-36.5	-37.4	24.2	0.00e+00	122	42	0	1319108608	46	5797
2026-01-25 02:31:49.56	293.65	19.06	-36.7	-37.6	24.1	0.00e+00	122	42	0	1331691520	46	5946
2026-01-25 02:31:53.60	294.58	18.92	-36.5	-37.3	24.4	0.00e+00	122	42	0	1344274432	46	5784
2026-01-25 02:31:57.64	295.51	18.77	-36.5	-37.4	24.3	0.00e+00	123	42	0	1356857344	46	5804
2026-01-25 02:32:01.68	296.43	18.62	-36.4	-37.3	24.4	0.00e+00	123	42	0	1369440256	46	5747
2026-01-25 02:32:05.72	297.34	18.46	-36.5	-37.4	24.4	0.00e+00	123	42	0	1382023168	46	5831
2026-01-25 02:32:09.76	298.24	18.30	-36.3	-37.2	24.5	0.00e+00	123	42	0	1394606080	46	5681
2026-01-25 02:32:13.80	299.13	18.13	-36.8	-37.7	24.0	0.00e+00	123	42	0	1407188992	46	5996
2026-01-25 02:32:17.84	300.01	17.95	-36.6	-37.5	24.2	0.00e+00	123	42	0	1419771904	46	5893
2026-01-25 02:32:21.88	300.88	17.77	-36.6	-37.5	24.1	0.00e+00	121	42	0	1432354816	46	5912
2026-01-25 02:32:25.92	301.74	17.58	-36.7	-37.6	24.1	0.00e+00	123	42	0	1444937728	46	5934
2026-01-25 02:32:29.95	302.59	17.39	-37.1	-38.0	23.7	0.00e+00	122	42	0	1457520640	46	6274
2026-01-25 02:32:33.98	303.42	17.20	-37.1	-38.0	23.7	0.00e+00	120	42	0	1470103552	46	6272
2026-01-25 02:32:38.02	304.25	17.00	-37.0	-38.0	23.8	0.00e+00	123	42	0	1482686464	46	6225
2026-01-25 02:32:42.06	305.07	16.80	-37.3	-38.2	23.5	0.00e+00	123	42	0	1495269376	46	6394
2026-01-25 02:32:46.10	305.88	16.59	-37.4	-38.4	23.3	0.00e+00	122	42	0	1507852288	46	6539
2026-01-25 02:32:50.14	306.67	16.38	-36.9	-37.9	23.8	0.00e+00	123	42	0	1520435200	46	6157
2026-01-25 02:32:54.17	307.45	16.17	-37.1	-38.0	23.7	0.00e+00	123	42	0	1533018112	46	6251
2026-01-25 02:32:58.21	308.23	15.95	-37.4	-38.4	23.5	0.00e+00	123	42	0	1546649600	46	6526
2026-01-25 02:33:02.24	308.99	15.74	-37.5	-38.4	23.4	0.00e+00	120	42	0	1558183936	46	6547
2026-01-25 02:33:06.28	309.74	15.51	-37.2	-38.1	23.7	0.00e+00	123	42	0	1570766848	46	6312
2026-01-25 02:33:10.32	310.48	15.29	-37.1	-38.0	23.8	0.00e+00	123	42	0	1584398336	46	6243
2026-01-25 02:33:14.36	311.22	15.06	-37.5	-38.4	23.4	0.00e+00	123	42	0	1596981248	46	6534
2026-01-25 02:33:18.40	311.94	14.83	-37.5	-38.4	23.5	0.00e+00	122	42	0	1609564160	46	6532
2026-01-25 02:33:22.44	312.64	14.60	-37.3	-38.2	23.6	0.00e+00	123	42	0	1622147072	46	6376
2026-01-25 02:33:26.47	313.34	14.37	-37.5	-38.4	23.4	0.00e+00	122	42	0	1634729984	46	6521
2026-01-25 02:33:30.52	314.03	14.14	-37.7	-38.7	23.2	0.00e+00	123	42	0	1647312896	46	6748
2026-01-25 02:33:34.56	314.71	13.90	-37.8	-38.8	23.1	0.00e+00	123	42	0	1659895808	48	6079
2026-01-25 02:33:38.60	315.38	13.67	-37.4	-38.3	23.4	0.00e+00	123	42	0	1672478720	48	5789
2026-01-25 02:33:42.64	316.03	13.43	-37.4	-38.3	23.4	0.00e+00	122	42	0	1685061632	48	5791
2026-01-25 02:33:46.68	316.68	13.19	-37.2	-38.2	23.5	0.00e+00	123	42	0	1697644544	48	5686
2026-01-25 02:33:50.72	317.32	12.95	-37.5	-38.5	23.3	0.00e+00	120	42	0	1710227456	48	5867
2026-01-25 02:33:54.76	317.94	12.71	-37.6	-38.5	23.3	0.00e+00	120	42	0	1722810368	48	5920
2026-01-25 02:33:58.80	318.56	12.47	-37.5	-38.4	23.5	0.00e+00	122	42	0	1735393280	48	5842
2026-01-25 02:34:02.84	319.17	12.23	-37.3	-38.2	23.5	0.00e+00	123	42	0	1747976192	48	5699
2026-01-25 02:34:06.88	319.76	11.99	-37.4	-38.3	23.4	0.00e+00	123	42	0	1760559104	48	5759
2026-01-25 02:34:10.92	320.35	11.74	-37.3	-38.3	23.5	0.00e+00	122	42	0	1773142016	48	5730
2026-01-25 02:34:14.95	320.93	11.50	-37.6	-38.5	23.3	0.00e+00	122	42	0	1785724928	48	5914
2026-01-25 02:34:18.99	321.50	11.26	-37.8	-38.7	23.1	0.00e+00	122	42	0	1798307840	48	6045
2026-01-25 02:34:23.03	322.06	11.02	-38.0	-39.0	22.8	0.00e+00	122	42	0	1810890752	48	6246
2026-01-25 02:34:27.07	322.61	10.77	-38.2	-39.1	22.6	0.00e+00	123	42	0	1823473664	48	6348
2026-01-25 02:34:31.11	323.16	10.53	-38.4	-39.4	22.3	0.00e+00	123	42	0	1836056576	48	6543
2026-01-25 02:34:35.15	323.69	10.29	-38.7	-39.7	22.1	0.00e+00	122	42	0	1848639488	50	6046
2026-01-25 02:34:39.18	324.22	10.05	-38.9	-39.9	22.1	0.00e+00	123	42	0	1861222400	50	6193
2026-01-25 02:34:43.22	324.73	9.81	-38.5	-39.5	22.4	0.00e+00	122	42	0	1873805312	50	5885
2026-01-25 02:34:47.26	325.24	9.57	-38.4	-39.4	22.4	0.00e+00	122	42	0	1886388224	50	5841
2026-01-25 02:34:51.30	325.74	9.33	-38.8	-39.8	22.0	0.00e+00	120	42	0	1898971136	50	6130
2026-01-25 02:34:55.33	326.24	9.09	-38.8	-39.9	22.0	0.00e+00	120	42	0	1911554048	50	6156
2026-01-25 02:34:59.36	326.72	8.85	-39.1	-40.2	21.6	0.00e+00	122	42	0	1925185536	50	6370
2026-01-25 02:35:03.39	327.20	8.61	-38.5	-39.5	22.2	0.00e+00	122	42	0	1936719872	50	5914
2026-01-25 02:35:07.42	327.67	8.37	-38.8	-39.8	21.9	0.00e+00	122	42	0	1950351360	50	6117
2026-01-25 02:35:11.46	328.13	8.13	-38.9	-40.0	21.6	0.00e+00	123	42	0	1962934272	50	6220
2026-01-25 02:35:15.50	328.59	7.90	-39.1	-40.1	21.7	0.00e+00	122	42	0	1975517184	50	6350
2026-01-25 02:35:19.54	329.04	7.66	-39.2	-40.3	21.5	0.00e+00	120	42	0	1988100096	50	6434
2026-01-25 02:35:23.58	329.48	7.42	-39.1	-40.2	21.6	0.00e+00	123	42	0	2000683008	50	6363
2026-01-25 02:35:27.62	329.92	7.19	-39.3	-40.4	21.3	0.00e+00	121	42	0	2013265920	50	6553
2026-01-25 02:35:31.66	330.35	6.95	-39.4	-40.4	21.3	0.00e+00	122	42	0	2025848832	50	6573
2026-01-25 02:35:35.70	330.77	6.72	-39.6	-40.7	21.0	0.00e+00	123	42	0	2038431744	52	6031
2026-01-25 02:35:39.75	331.19	6.49	-39.8	-41.0	20.8	0.00e+00	123	42	0	2051014656	52	6232
2026-01-25 02:35:43.79	331.60	6.26	-40.8	-42.0	19.9	0.00e+00	122	42	0	2063597568	52	6993
2026-01-25 02:35:47.83	332.00	6.03	-39.3	-40.4	21.1	0.00e+00	122	42	0	2076180480	52	5828
2026-01-25 02:35:51.87	332.40	5.80	-39.7	-40.9	20.6	0.00e+00	122	42	0	2088763392	52	6162
2026-01-25 02:35:55.91	332.79	5.57	-40.2	-41.4	19.7	0.00e+00	123	42	0	2101346304	52	6538
2026-01-25 02:35:59.95	333.18	5.34	-41.8	-43.4	17.1	0.00e+00	120	42	0	2113929216	54	7373
2026-01-25 02:36:03.99	333.56	5.11	-43.6	-46.1	13.4	3.80e-06	123	42	0	2126512128	58	7965
2026-01-25 02:36:08.02	333.93	4.89	-45.1	-50.1	7.9	2.99e-02	122	42	0	2139095040	60	11182
2026-01-25 02:36:12.06	334.30	4.66	-45.6	-54.1	4.8	1.22e+00	123	42	104	2147483648	60	17815
2026-01-25 02:36:16.10	334.67	4.44	-45.8	-56.4	3.6	1.51e+00	0	42	104	2147483648	60	23236
2026-01-25 02:36:20.14	335.03	4.22	-45.9	-57.4	3.5	1.52e+00	0	42	104	2147483648	60	26083
2026-01-25 02:36:24.17	335.38	4.00	-46.0	-58.3	3.5	1.52e+00	0	42	104	2147483648	60	28818
2026-01-25 02:36:28.21	335.73	3.77	-45.9	-58.7	3.5	1.52e+00	0	42	104	2147483648	60	30083
2026-01-25 02:36:32.25	336.07	3.55	-45.9	-58.7	3.5	1.52e+00	0	42	104	2147483648	60	30056
2026-01-25 02:36:36.28	336.41	3.34	-45.9	-58.7	3.5	1.52e+00	0	42	104	2147483648	60	30086
2026-01-25 02:36:40.32	336.75	3.12	-45.9	-58.7	3.5	1.52e+00	0	42	104	2147483648	60	30266
2026-01-25 02:36:44.36	337.08	2.90	-50.0	-62.8	3.5	1.52e+00	0	42	104	2147483648	60	48607
2026-01-25 02:36:48.38	337.40	2.69	-50.7	-63.5	3.5	1.52e+00	0	42	104	2147483648	60	52691
2026-01-25 02:36:52.42	337.72	2.47	-50.9	-63.8	3.5	1.51e+00	0	42	104	2147483648	60	54647
2026-01-25 02:36:56.45	338.04	2.26	-51.0	-63.9	3.5	1.52e+00	0	42	104	2147483648	60	54823
2026-01-25 02:37:00.46	338.35	2.04	-50.9	-63.8	3.5	1.52e+00	0	42	104	2147483648	60	54314
2026-01-25 02:37:04.49	338.66	1.83	-50.9	-63.8	3.5	1.52e+00	0	42	104	2147483648	60	54314
2026-01-25 02:37:08.53	338.96	1.62	-51.0	-63.9	3.5	1.51e+00	0	42	104	2147483648	60	54718
2026-01-25 02:37:12.57	339.26	1.41	-50.9	-63.7	3.5	1.52e+00	0	42	104	2147483648	60	54048
2026-01-25 02:37:16.60	339.56	1.20	-51.0	-63.9	3.5	1.52e+00	0	42	104	2147483648	60	54739
2026-01-25 02:37:20.64	339.85	0.99	-51.1	-64.0	3.5	1.52e+00	0	42	104	2147483648	60	55678
2026-01-25 02:37:24.68	340.14	0.79	-51.1	-64.0	3.5	1.51e+00	0	42	104	2147483648	60	55715
2026-01-25 02:37:28.71	340.42	0.58	-51.0	-63.9	3.5	1.52e+00	0	42	104	2147483648	60	55062
2026-01-25 02:37:32.75	340.71	0.37	-51.0	-63.8	3.5	1.52e+00	0	42	104	2147483648	60	54604
2026-01-25 02:37:36.79	340.98	0.17	-51.1	-63.9	3.5	1.51e+00	0	42	104	2147483648	60	55258

#Closed at: 2026-01-25 02:37:40
#Recorded file [2147 MB]: D:/lorett/data/35029_260125_142348.dat