passes_logs/2026/01/25/R4.6S_Anadyr/R4.6S_Anadyr__20260125_133727_NOAA_20_JPSS-1_rec.log

#Pass ID: 20260125_133727_NOAA 20 (JPSS-1)
#Satellite: NOAA 20 (JPSS-1)
#Configuration: NOAA 20
#almurnet v.1.7.20251203
#Start time: 2026-01-25 13:37:30

#Version: 2.2.20231116
#Station: R4.6S_Anadyr
#Location: 177.4865 lon 64.73178 lat
#TLE: 1 43013U 17073A   26024.91598314  .00000178  00000+0  10511-3 0  9999
#TLE: 2 43013  98.7646 325.7511 0001081  25.0859 335.0369 14.19539982424141

#Time	Az	El	Level	Level2	SNR	BER	BlckErr	Temp	State	Recorded	gain1	gain2
2026-01-25 13:37:30.21	19.04	0.16	-50.6	-65.6	3.6	1.51e+00	0	39	0	0	60	68494
2026-01-25 13:37:34.24	19.19	0.39	-51.0	-66.1	3.6	1.51e+00	0	40	104	0	60	73293
2026-01-25 13:37:38.28	19.35	0.63	-51.0	-66.1	3.6	1.51e+00	0	40	104	0	60	73272
2026-01-25 13:37:42.32	19.50	0.86	-50.9	-66.1	3.6	1.51e+00	0	40	104	0	60	72771
2026-01-25 13:37:46.36	19.66	1.10	-50.7	-65.9	3.6	1.51e+00	0	40	104	0	60	71223
2026-01-25 13:37:50.40	19.82	1.34	-50.3	-65.5	3.6	1.51e+00	0	40	104	0	60	67938
2026-01-25 13:37:54.44	19.98	1.58	-49.6	-64.8	3.5	1.51e+00	0	40	104	0	60	62675
2026-01-25 13:37:58.48	20.15	1.83	-49.4	-64.5	3.6	1.51e+00	0	40	104	0	60	60458
2026-01-25 13:38:02.52	20.31	2.07	-49.4	-64.6	3.6	1.51e+00	0	41	104	0	60	61103
2026-01-25 13:38:06.56	20.48	2.32	-49.4	-64.6	3.6	1.51e+00	0	41	104	0	60	61497
2026-01-25 13:38:10.60	20.66	2.57	-49.4	-63.6	3.6	1.51e+00	0	41	104	0	60	54521
2026-01-25 13:38:14.64	20.83	2.82	-49.3	-62.8	3.6	1.51e+00	0	41	104	0	60	49897
2026-01-25 13:38:18.69	21.01	3.07	-47.1	-51.0	12.7	4.67e-04	6	41	0	4194304	60	12870
2026-01-25 13:38:22.72	21.19	3.32	-45.0	-47.3	16.3	0.00e+00	60	41	0	11534336	60	8416
2026-01-25 13:38:26.76	21.37	3.58	-44.9	-47.2	16.6	0.00e+00	81	41	0	18874368	60	8282
2026-01-25 13:38:30.80	21.56	3.84	-49.1	-58.6	4.4	3.07e-01	0	41	104	25165824	60	30934
2026-01-25 13:38:34.84	21.75	4.10	-46.6	-50.0	14.2	1.98e-05	2	41	0	27262976	60	11400
2026-01-25 13:38:38.87	21.94	4.37	-45.9	-48.6	15.2	1.90e-05	92	41	0	34603008	60	9740
2026-01-25 13:38:42.91	22.13	4.63	-47.0	-50.6	13.1	4.33e-04	0	41	0	41943040	60	12188
2026-01-25 13:38:46.95	22.33	4.90	-45.8	-48.4	15.6	0.00e+00	77	41	0	50331648	60	9532
2026-01-25 13:38:50.98	22.53	5.17	-46.3	-49.3	14.6	0.00e+00	0	41	0	57671680	60	10515
2026-01-25 13:38:55.02	22.74	5.45	-45.3	-47.5	16.6	0.00e+00	92	41	0	65011712	60	8608
2026-01-25 13:38:59.06	22.94	5.72	-44.9	-47.1	17.0	0.00e+00	0	41	0	72351744	60	8139
2026-01-25 13:39:03.10	23.16	6.00	-44.7	-46.7	17.4	0.00e+00	7	41	0	79691776	60	7839
2026-01-25 13:39:07.14	23.37	6.28	-44.1	-45.9	18.1	0.00e+00	0	41	0	88080384	60	7141
2026-01-25 13:39:11.17	23.59	6.57	-43.5	-45.1	19.3	0.00e+00	92	41	0	95420416	60	6490
2026-01-25 13:39:15.21	23.82	6.86	-42.6	-44.0	19.8	0.00e+00	0	41	0	102760448	58	6414
2026-01-25 13:39:19.25	24.04	7.15	-42.8	-44.2	19.8	0.00e+00	0	41	0	110100480	58	6560
2026-01-25 13:39:23.29	24.28	7.44	-43.2	-44.7	19.3	0.00e+00	0	41	0	118489088	58	6978
2026-01-25 13:39:27.32	24.51	7.74	-42.6	-44.0	20.1	0.00e+00	92	41	0	125829120	58	6404
2026-01-25 13:39:31.36	24.75	8.04	-42.5	-43.9	20.1	0.00e+00	0	41	0	133169152	58	6338
2026-01-25 13:39:35.40	25.00	8.34	-42.9	-44.3	19.7	0.00e+00	76	41	0	140509184	58	6683
2026-01-25 13:39:39.43	25.25	8.64	-42.2	-43.5	20.5	0.00e+00	0	41	0	147849216	58	6072
2026-01-25 13:39:43.47	25.50	8.95	-41.9	-43.2	20.9	0.00e+00	92	41	0	156237824	58	5830
2026-01-25 13:39:47.51	25.76	9.27	-42.1	-43.4	20.7	0.00e+00	5	41	0	163577856	58	5979
2026-01-25 13:39:51.54	26.03	9.58	-42.3	-43.5	20.6	0.00e+00	6	41	0	170917888	58	6099
2026-01-25 13:39:55.58	26.30	9.90	-41.9	-43.2	20.9	0.00e+00	71	41	0	178257920	56	6540
2026-01-25 13:39:59.61	26.57	10.23	-41.9	-43.1	21.0	0.00e+00	91	41	0	185597952	56	6508
2026-01-25 13:40:03.65	26.86	10.55	-41.2	-42.3	21.8	0.00e+00	0	41	0	193986560	56	5961
2026-01-25 13:40:07.69	27.14	10.88	-41.2	-42.2	21.8	0.00e+00	9	41	0	201326592	56	5894
2026-01-25 13:40:11.72	27.44	11.22	-40.5	-41.5	22.4	0.00e+00	92	41	0	208666624	54	6068
2026-01-25 13:40:15.76	27.74	11.56	-40.8	-41.9	22.1	0.00e+00	8	41	0	216006656	54	6359
2026-01-25 13:40:19.80	28.05	11.90	-41.2	-42.3	21.6	0.00e+00	79	41	0	224395264	54	6689
2026-01-25 13:40:23.83	28.36	12.25	-40.7	-41.7	22.4	0.00e+00	0	41	0	231735296	54	6243
2026-01-25 13:40:27.87	28.68	12.60	-40.8	-41.8	22.2	0.00e+00	92	41	0	239075328	54	6286
2026-01-25 13:40:31.91	29.01	12.95	-40.8	-41.8	22.4	0.00e+00	2	41	0	246415360	54	6284
2026-01-25 13:40:35.95	29.35	13.32	-40.3	-41.3	22.8	0.00e+00	78	41	0	253755392	54	5906
2026-01-25 13:40:39.99	29.69	13.68	-40.5	-41.5	22.5	0.00e+00	0	41	0	262144000	54	6097
2026-01-25 13:40:44.02	30.04	14.05	-40.3	-41.3	22.8	0.00e+00	92	41	0	269484032	54	5926
2026-01-25 13:40:48.06	30.40	14.42	-40.4	-41.4	22.7	0.00e+00	0	41	0	276824064	54	5987
2026-01-25 13:40:52.10	30.77	14.80	-40.1	-41.1	22.9	0.00e+00	0	41	0	284164096	54	5773
2026-01-25 13:40:56.14	31.15	15.19	-40.0	-40.9	23.1	0.00e+00	71	41	0	292552704	52	6350
2026-01-25 13:41:00.17	31.54	15.58	-39.9	-40.8	23.1	0.00e+00	91	41	0	299892736	52	6280
2026-01-25 13:41:04.20	31.94	15.97	-39.9	-40.9	23.1	0.00e+00	0	41	0	307232768	52	6334
2026-01-25 13:41:08.23	32.34	16.37	-40.2	-41.2	22.9	0.00e+00	0	41	0	314572800	52	6540
2026-01-25 13:41:12.27	32.76	16.77	-40.2	-41.2	22.9	0.00e+00	0	41	0	321912832	52	6549
2026-01-25 13:41:16.31	33.19	17.18	-40.4	-41.4	22.7	0.00e+00	91	41	0	330301440	52	6701
2026-01-25 13:41:20.34	33.63	17.60	-40.5	-41.5	22.5	0.00e+00	12	41	0	337641472	52	6772
2026-01-25 13:41:24.38	34.08	18.02	-40.6	-41.6	22.5	0.00e+00	0	41	0	344981504	52	6920
2026-01-25 13:41:28.41	34.55	18.44	-40.4	-41.4	22.7	0.00e+00	0	41	0	352321536	52	6728
2026-01-25 13:41:32.45	35.03	18.88	-40.6	-41.6	22.5	0.00e+00	52	41	0	359661568	52	6916
2026-01-25 13:41:36.49	35.52	19.32	-40.8	-41.8	22.3	0.00e+00	11	41	0	368050176	54	6274
2026-01-25 13:41:40.52	36.02	19.76	-40.8	-41.9	22.3	0.00e+00	76	41	0	375390208	54	6339
2026-01-25 13:41:44.56	36.54	20.21	-40.7	-41.7	22.4	0.00e+00	0	41	0	382730240	54	6243
2026-01-25 13:41:48.60	37.07	20.67	-40.8	-41.8	22.3	0.00e+00	92	41	0	390070272	54	6295
2026-01-25 13:41:52.63	37.62	21.13	-41.0	-42.0	22.1	0.00e+00	0	41	0	398458880	54	6431
2026-01-25 13:41:56.67	38.19	21.59	-41.1	-42.2	22.0	0.00e+00	0	41	0	405798912	54	6569
2026-01-25 13:42:00.70	38.77	22.07	-41.0	-42.0	22.2	0.00e+00	92	41	0	413138944	54	6446
2026-01-25 13:42:04.74	39.37	22.55	-40.7	-41.7	22.6	0.00e+00	11	41	0	420478976	54	6198
2026-01-25 13:42:08.77	39.99	23.03	-40.3	-41.3	22.9	0.00e+00	69	41	0	427819008	54	5914
2026-01-25 13:42:12.81	40.63	23.52	-40.3	-41.3	22.8	0.00e+00	0	41	0	436207616	54	5923
2026-01-25 13:42:16.84	41.28	24.02	-40.2	-41.1	23.0	0.00e+00	92	41	0	443547648	54	5825
2026-01-25 13:42:20.88	41.96	24.52	-39.9	-40.8	23.2	0.00e+00	13	41	0	450887680	54	5612
2026-01-25 13:42:24.92	42.66	25.03	-39.9	-40.8	23.3	0.00e+00	0	41	0	458227712	54	5587
2026-01-25 13:42:28.95	43.38	25.54	-40.1	-41.0	23.1	0.00e+00	69	41	0	466616320	54	5743
2026-01-25 13:42:32.99	44.13	26.06	-40.2	-41.2	22.9	0.00e+00	92	41	0	473956352	54	5845
2026-01-25 13:42:37.02	44.90	26.59	-40.1	-41.0	23.1	0.00e+00	0	41	0	481296384	54	5739
2026-01-25 13:42:41.06	45.69	27.12	-40.5	-41.6	22.6	0.00e+00	0	41	0	488636416	54	6121
2026-01-25 13:42:45.10	46.51	27.65	-40.6	-41.6	22.6	0.00e+00	15	41	0	495976448	54	6117
2026-01-25 13:42:49.14	47.36	28.19	-40.9	-41.9	22.2	0.00e+00	92	41	0	504365056	54	6357
2026-01-25 13:42:53.17	48.24	28.73	-41.0	-42.1	22.2	0.00e+00	8	41	0	511705088	54	6465
2026-01-25 13:42:57.21	49.14	29.27	-40.9	-42.0	22.3	0.00e+00	0	41	0	519045120	54	6398
2026-01-25 13:43:01.24	50.08	29.82	-41.1	-42.2	22.0	0.00e+00	0	41	0	526385152	54	6580
2026-01-25 13:43:05.27	51.05	30.37	-40.8	-41.8	22.4	0.00e+00	92	41	0	534773760	54	6284
2026-01-25 13:43:09.31	52.05	30.92	-41.0	-42.1	22.1	0.00e+00	0	41	0	542113792	54	6469
2026-01-25 13:43:13.35	53.08	31.47	-40.9	-41.9	22.2	0.00e+00	11	41	0	549453824	54	6384
2026-01-25 13:43:17.38	54.15	32.03	-41.9	-43.0	21.2	0.00e+00	0	41	0	556793856	56	6457
2026-01-25 13:43:21.42	55.26	32.58	-42.0	-43.2	21.2	0.00e+00	89	41	0	564133888	56	6596
2026-01-25 13:43:25.46	56.41	33.13	-42.7	-44.0	19.8	0.00e+00	0	41	0	572522496	56	7183
2026-01-25 13:43:29.49	57.59	33.67	-42.9	-44.3	20.2	0.00e+00	0	41	0	579862528	58	6645
2026-01-25 13:43:33.53	58.81	34.22	-43.6	-45.2	19.2	0.00e+00	91	41	0	587202560	58	7342
2026-01-25 13:43:37.57	60.08	34.76	-43.4	-44.9	19.7	0.00e+00	92	41	0	594542592	60	6353
2026-01-25 13:43:41.61	61.38	35.29	-43.3	-44.7	19.8	0.00e+00	72	41	0	601882624	60	6225
2026-01-25 13:43:45.64	62.73	35.81	-43.3	-44.8	19.3	0.00e+00	7	41	0	610271232	60	6256
2026-01-25 13:43:49.68	64.12	36.32	-42.6	-43.9	20.5	0.00e+00	90	41	0	617611264	58	6343
2026-01-25 13:43:53.71	65.55	36.82	-42.6	-43.9	20.5	0.00e+00	49	41	0	624951296	58	6329
2026-01-25 13:43:57.75	67.03	37.32	-43.0	-44.4	20.1	0.00e+00	10	41	0	632291328	58	6713
2026-01-25 13:44:01.79	68.56	37.79	-41.2	-42.3	21.9	0.00e+00	67	41	0	640679936	56	5939
2026-01-25 13:44:05.83	70.12	38.25	-42.3	-43.5	20.8	0.00e+00	92	41	0	648019968	56	6820
2026-01-25 13:44:09.87	71.73	38.69	-42.0	-43.2	21.1	0.00e+00	0	41	0	655360000	56	6585
2026-01-25 13:44:13.90	73.38	39.11	-43.0	-44.4	20.1	0.00e+00	15	41	0	662700032	58	6717
2026-01-25 13:44:17.94	75.08	39.51	-42.8	-44.1	20.3	0.00e+00	69	41	0	670040064	58	6499
2026-01-25 13:44:21.97	76.81	39.89	-42.4	-43.7	20.7	0.00e+00	92	41	0	678428672	58	6196
2026-01-25 13:44:26.00	78.58	40.24	-41.5	-42.6	21.5	0.00e+00	73	41	0	685768704	56	6168
2026-01-25 13:44:30.04	80.39	40.56	-41.5	-42.6	21.8	0.00e+00	0	41	0	693108736	56	6150
2026-01-25 13:44:34.08	82.23	40.85	-42.2	-43.4	20.9	0.00e+00	0	41	0	700448768	56	6742
2026-01-25 13:44:38.11	84.11	41.11	-42.3	-43.6	20.6	0.00e+00	92	41	0	707788800	58	6131
2026-01-25 13:44:42.15	86.01	41.34	-42.6	-44.0	20.4	0.00e+00	0	41	0	716177408	58	6396
2026-01-25 13:44:46.18	87.94	41.54	-44.1	-45.8	18.6	0.00e+00	65	41	0	723517440	60	7085
2026-01-25 13:44:50.22	89.89	41.70	-42.1	-43.3	21.0	0.00e+00	2	41	0	730857472	58	5931
2026-01-25 13:44:54.26	91.86	41.82	-42.3	-43.5	21.0	0.00e+00	92	41	0	738197504	58	6079
2026-01-25 13:44:58.30	93.85	41.91	-41.3	-42.4	21.8	0.00e+00	0	41	0	746586112	56	5974
2026-01-25 13:45:02.33	95.83	41.96	-42.1	-43.3	21.0	0.00e+00	13	41	0	753926144	56	6639
2026-01-25 13:45:06.36	97.82	41.97	-40.6	-41.6	22.4	0.00e+00	0	41	0	761266176	54	6133
2026-01-25 13:45:10.40	99.82	41.94	-39.9	-40.9	23.2	0.00e+00	92	41	0	768606208	52	6335
2026-01-25 13:45:14.44	101.81	41.88	-40.0	-40.9	23.1	0.00e+00	0	41	0	775946240	52	6380
2026-01-25 13:45:18.47	103.78	41.78	-42.0	-43.2	21.2	0.00e+00	14	41	0	784334848	56	6549
2026-01-25 13:45:22.51	105.74	41.64	-42.2	-43.4	20.7	0.00e+00	0	41	0	791674880	56	6738
2026-01-25 13:45:26.54	107.69	41.47	-42.3	-43.6	20.7	0.00e+00	92	41	0	799014912	56	6869
2026-01-25 13:45:30.58	109.61	41.26	-42.7	-44.1	20.4	0.00e+00	71	41	0	806354944	60	5798
2026-01-25 13:45:34.62	111.51	41.01	-42.9	-44.3	20.2	0.00e+00	0	41	0	814743552	58	6635
2026-01-25 13:45:38.65	113.37	40.74	-42.2	-43.4	20.9	0.00e+00	78	41	0	822083584	56	6735
2026-01-25 13:45:42.69	115.21	40.43	-41.4	-42.5	21.7	0.00e+00	92	41	0	829423616	56	6089
2026-01-25 13:45:46.73	117.01	40.10	-41.0	-42.1	22.2	0.00e+00	67	41	0	836763648	56	5789
2026-01-25 13:45:50.77	118.77	39.74	-39.8	-40.8	23.3	0.00e+00	13	41	0	844103680	54	5570
2026-01-25 13:45:54.80	120.49	39.35	-39.1	-40.0	23.8	0.00e+00	90	41	0	852492288	52	5710
2026-01-25 13:45:58.84	122.17	38.94	-39.3	-40.2	23.7	0.00e+00	0	41	0	859832320	52	5867
2026-01-25 13:46:02.88	123.81	38.51	-39.2	-40.1	23.9	0.00e+00	0	41	0	867172352	52	5806
2026-01-25 13:46:06.92	125.41	38.06	-38.8	-39.6	24.3	0.00e+00	14	41	0	874512384	50	6167
2026-01-25 13:46:10.95	126.96	37.60	-38.0	-38.8	24.9	0.00e+00	92	41	0	881852416	50	5573
2026-01-25 13:46:14.99	128.47	37.11	-38.2	-39.0	24.8	0.00e+00	69	41	0	890241024	50	5759
2026-01-25 13:46:19.03	129.93	36.61	-38.4	-39.2	24.7	0.00e+00	0	41	0	897581056	50	5835
2026-01-25 13:46:23.06	131.35	36.11	-39.1	-40.0	23.9	0.00e+00	0	41	0	904921088	50	6435
2026-01-25 13:46:27.10	132.73	35.58	-39.1	-40.0	24.0	0.00e+00	92	41	0	912261120	50	6428
2026-01-25 13:46:31.14	134.06	35.06	-39.0	-39.9	24.0	0.00e+00	67	41	0	920649728	50	6324
2026-01-25 13:46:35.18	135.36	34.52	-39.5	-40.4	23.5	0.00e+00	0	41	0	927989760	50	6753
2026-01-25 13:46:39.21	136.61	33.98	-39.9	-40.8	23.3	0.00e+00	0	41	0	935329792	52	6266
2026-01-25 13:46:43.25	137.82	33.43	-42.5	-43.8	20.6	0.00e+00	92	41	0	942669824	56	7058
2026-01-25 13:46:47.29	138.99	32.88	-40.8	-41.8	22.3	0.00e+00	2	41	0	950009856	56	5595
2026-01-25 13:46:51.33	140.12	32.32	-42.5	-43.8	20.5	0.00e+00	0	41	0	958398464	56	7027
2026-01-25 13:46:55.36	141.22	31.77	-40.5	-41.5	22.5	0.00e+00	5	41	0	965738496	54	6059
2026-01-25 13:46:59.40	142.28	31.21	-43.5	-45.0	19.4	0.00e+00	91	41	0	973078528	60	6453
2026-01-25 13:47:03.44	143.30	30.66	-40.3	-41.3	22.8	0.00e+00	0	41	0	980418560	54	5935
2026-01-25 13:47:07.47	144.29	30.11	-42.5	-43.8	20.6	0.00e+00	5	41	0	988807168	56	7054
2026-01-25 13:47:11.51	145.25	29.55	-39.0	-39.9	24.0	0.00e+00	19	41	0	996147200	52	5649
2026-01-25 13:47:15.55	146.17	29.00	-41.7	-42.9	21.2	0.00e+00	74	41	0	1003487232	54	7103
2026-01-25 13:47:19.59	147.07	28.46	-38.4	-39.2	24.4	0.00e+00	0	41	0	1010827264	50	5844
2026-01-25 13:47:23.62	147.94	27.91	-39.9	-40.8	23.2	0.00e+00	0	41	0	1018167296	52	6295
2026-01-25 13:47:27.66	148.78	27.37	-38.9	-39.8	24.0	0.00e+00	92	41	0	1026555904	52	5580
2026-01-25 13:47:31.70	149.59	26.84	-38.6	-39.5	24.3	0.00e+00	8	41	0	1033895936	50	6036
2026-01-25 13:47:35.73	150.37	26.31	-39.5	-40.5	23.4	0.00e+00	71	41	0	1041235968	52	6036
2026-01-25 13:47:39.77	151.13	25.78	-38.0	-38.8	24.8	0.00e+00	0	41	0	1048576000	50	5608
2026-01-25 13:47:43.81	151.87	25.26	-38.7	-39.6	24.1	0.00e+00	92	41	0	1056964608	50	6117
2026-01-25 13:47:47.85	152.58	24.75	-39.7	-40.6	23.3	0.00e+00	0	41	0	1064304640	50	6925
2026-01-25 13:47:51.89	153.28	24.24	-38.9	-39.8	24.0	0.00e+00	5	41	0	1071644672	50	6294
2026-01-25 13:47:55.92	153.94	23.74	-38.5	-39.3	24.4	0.00e+00	6	41	0	1078984704	50	5956
2026-01-25 13:47:59.96	154.59	23.24	-39.0	-39.9	23.8	0.00e+00	91	41	0	1086324736	50	6342
2026-01-25 13:48:04.00	155.22	22.75	-39.1	-40.0	23.8	0.00e+00	0	41	0	1094713344	50	6423
2026-01-25 13:48:08.04	155.84	22.26	-39.4	-40.3	23.5	0.00e+00	2	41	0	1102053376	50	6678
2026-01-25 13:48:12.07	156.43	21.78	-39.3	-40.2	23.7	0.00e+00	0	41	0	1109393408	50	6547
2026-01-25 13:48:16.11	157.00	21.31	-40.0	-40.9	22.9	0.00e+00	92	41	0	1116733440	52	6386
2026-01-25 13:48:20.14	157.56	20.84	-40.0	-41.0	22.8	0.00e+00	71	41	0	1125122048	52	6420
2026-01-25 13:48:24.17	158.10	20.38	-39.7	-40.7	23.2	0.00e+00	0	41	0	1132462080	52	6187
2026-01-25 13:48:28.21	158.63	19.92	-39.5	-40.4	23.3	0.00e+00	77	41	0	1139802112	52	6033
2026-01-25 13:48:32.25	159.14	19.47	-40.0	-40.9	23.0	0.00e+00	92	41	0	1147142144	52	6378
2026-01-25 13:48:36.28	159.64	19.03	-39.6	-40.6	23.2	0.00e+00	0	41	0	1154482176	52	6114
2026-01-25 13:48:40.32	160.13	18.59	-39.2	-40.1	23.7	0.00e+00	71	41	0	1162870784	52	5779
2026-01-25 13:48:44.36	160.60	18.16	-39.2	-40.1	23.6	0.00e+00	2	41	0	1170210816	52	5801
2026-01-25 13:48:48.39	161.06	17.73	-39.8	-40.7	23.0	0.00e+00	92	41	0	1177550848	52	6234
2026-01-25 13:48:52.44	161.50	17.31	-40.4	-41.4	22.4	0.00e+00	6	41	0	1184890880	52	6714
2026-01-25 13:48:56.47	161.94	16.90	-40.5	-41.5	22.3	0.00e+00	5	41	0	1193279488	52	6834
2026-01-25 13:49:00.51	162.36	16.49	-40.2	-41.2	22.5	0.00e+00	0	41	0	1200619520	52	6560
2026-01-25 13:49:04.54	162.77	16.08	-39.8	-40.8	22.9	0.00e+00	92	41	0	1207959552	52	6276
2026-01-25 13:49:08.58	163.18	15.68	-40.4	-41.4	22.3	0.00e+00	79	41	0	1215299584	52	6738
2026-01-25 13:49:12.61	163.57	15.29	-39.8	-40.8	22.9	0.00e+00	0	41	0	1222639616	52	6287
2026-01-25 13:49:16.65	163.95	14.90	-40.1	-41.0	22.7	0.00e+00	66	41	0	1231028224	52	6453
2026-01-25 13:49:20.69	164.32	14.52	-40.0	-41.0	22.7	0.00e+00	38	41	0	1238368256	52	6428
2026-01-25 13:49:24.72	164.69	14.14	-40.2	-41.2	22.6	0.00e+00	81	41	0	1245708288	52	6551
2026-01-25 13:49:28.76	165.04	13.76	-40.2	-41.2	22.5	0.00e+00	3	41	0	1253048320	52	6578
2026-01-25 13:49:32.80	165.39	13.39	-40.6	-41.6	22.1	0.00e+00	92	41	0	1260388352	52	6890
2026-01-25 13:49:36.83	165.73	13.03	-40.9	-42.0	21.8	0.00e+00	0	41	0	1268776960	54	6392
2026-01-25 13:49:40.87	166.06	12.67	-41.1	-42.2	21.5	0.00e+00	0	41	0	1276116992	54	6572
2026-01-25 13:49:44.90	166.38	12.32	-40.9	-42.0	21.7	0.00e+00	0	41	0	1283457024	54	6443
2026-01-25 13:49:48.94	166.70	11.96	-40.4	-41.5	22.1	0.00e+00	92	41	0	1290797056	54	6068
2026-01-25 13:49:52.98	167.01	11.62	-40.0	-41.0	22.5	0.00e+00	81	41	0	1299185664	54	5737
2026-01-25 13:49:57.02	167.31	11.27	-40.3	-41.3	22.2	0.00e+00	81	41	0	1306525696	54	5953
2026-01-25 13:50:01.05	167.61	10.93	-40.6	-41.6	21.9	0.00e+00	0	41	0	1313865728	54	6160
2026-01-25 13:50:05.09	167.90	10.60	-40.7	-41.8	21.8	0.00e+00	92	41	0	1321205760	54	6253
2026-01-25 13:50:09.13	168.18	10.27	-41.3	-42.4	21.0	0.00e+00	76	41	0	1328545792	54	6769
2026-01-25 13:50:13.17	168.46	9.94	-41.8	-43.0	20.6	0.00e+00	0	41	0	1336934400	56	6458
2026-01-25 13:50:17.21	168.73	9.62	-42.1	-43.4	20.3	0.00e+00	0	41	0	1344274432	56	6721
2026-01-25 13:50:21.24	168.99	9.30	-41.8	-43.0	20.6	0.00e+00	90	41	0	1351614464	56	6459
2026-01-25 13:50:25.28	169.25	8.98	-41.6	-42.8	20.8	0.00e+00	2	41	0	1358954496	56	6283
2026-01-25 13:50:29.32	169.51	8.67	-41.5	-42.7	20.9	0.00e+00	0	41	0	1366294528	56	6185
2026-01-25 13:50:33.35	169.76	8.36	-41.2	-42.4	21.2	0.00e+00	0	41	0	1374683136	56	6000
2026-01-25 13:50:37.39	170.01	8.05	-41.6	-42.9	20.9	0.00e+00	92	41	0	1382023168	56	6337
2026-01-25 13:50:41.43	170.25	7.75	-41.8	-43.1	20.5	0.00e+00	3	41	0	1389363200	56	6475
2026-01-25 13:50:45.47	170.48	7.45	-41.5	-42.7	20.8	0.00e+00	5	41	0	1396703232	56	6222
2026-01-25 13:50:49.51	170.71	7.15	-41.9	-43.2	20.3	0.00e+00	0	41	0	1405091840	56	6583
2026-01-25 13:50:53.55	170.94	6.86	-42.1	-43.5	20.0	0.00e+00	92	41	0	1412431872	58	6072
2026-01-25 13:50:57.58	171.16	6.57	-42.2	-43.6	19.9	0.00e+00	0	41	0	1419771904	58	6156
2026-01-25 13:51:01.62	171.38	6.28	-42.4	-43.8	19.6	0.00e+00	7	41	0	1427111936	58	6306
2026-01-25 13:51:05.66	171.60	6.00	-42.5	-44.0	19.4	0.00e+00	91	41	0	1434451968	58	6423
2026-01-25 13:51:09.70	171.81	5.72	-42.7	-44.3	19.2	0.00e+00	58	41	0	1442840576	58	6616
2026-01-25 13:51:13.74	172.02	5.44	-42.7	-44.2	19.1	0.00e+00	2	41	0	1450180608	58	6589
2026-01-25 13:51:17.78	172.22	5.16	-42.2	-43.7	19.5	0.00e+00	79	41	0	1457520640	58	6179
2026-01-25 13:51:21.81	172.42	4.89	-42.6	-44.1	19.2	0.00e+00	90	41	0	1464860672	58	6513
2026-01-25 13:51:25.85	172.62	4.62	-42.4	-44.0	19.3	0.00e+00	0	41	0	1473249280	58	6407
2026-01-25 13:51:29.89	172.81	4.35	-42.4	-43.9	19.3	0.00e+00	2	42	0	1480589312	58	6368
2026-01-25 13:51:33.93	173.00	4.08	-42.0	-43.4	19.5	0.00e+00	79	41	0	1487929344	58	6004
2026-01-25 13:51:37.97	173.19	3.82	-42.0	-43.4	19.4	0.00e+00	92	42	0	1495269376	56	6744
2026-01-25 13:51:42.01	173.37	3.55	-42.5	-44.1	18.9	0.00e+00	0	41	0	1502609408	58	6500
2026-01-25 13:51:46.05	173.55	3.29	-42.2	-43.7	19.3	0.00e+00	1	41	0	1510998016	58	6193
2026-01-25 13:51:50.08	173.73	3.04	-42.8	-44.5	18.0	0.00e+00	0	41	0	1518338048	58	6795
2026-01-25 13:51:54.12	173.90	2.78	-49.9	-65.0	3.6	1.51e+00	0	41	104	1519386624	60	64641
2026-01-25 13:51:58.17	174.08	2.53	-50.1	-65.3	3.6	1.51e+00	0	41	104	1519386624	60	66849
2026-01-25 13:52:02.21	174.25	2.28	-50.2	-65.4	3.6	1.51e+00	0	42	104	1519386624	60	67374
2026-01-25 13:52:06.25	174.41	2.03	-50.2	-65.4	3.6	1.51e+00	0	42	104	1519386624	60	67157
2026-01-25 13:52:10.29	174.58	1.78	-50.1	-65.3	3.6	1.51e+00	0	42	104	1519386624	60	66879
2026-01-25 13:52:14.33	174.74	1.54	-50.1	-65.4	3.6	1.51e+00	0	42	104	1519386624	60	66973
2026-01-25 13:52:18.36	174.90	1.29	-50.1	-65.3	3.6	1.51e+00	0	42	104	1519386624	60	66887
2026-01-25 13:52:22.40	175.06	1.05	-50.1	-65.3	3.6	1.51e+00	0	42	104	1519386624	60	66571
2026-01-25 13:52:26.44	175.21	0.81	-50.1	-65.3	3.6	1.51e+00	0	42	104	1519386624	60	66884
2026-01-25 13:52:30.48	175.36	0.57	-50.1	-65.3	3.6	1.51e+00	0	42	104	1519386624	60	66835
2026-01-25 13:52:34.51	175.51	0.34	-50.1	-65.4	3.6	1.51e+00	0	42	104	1519386624	60	66993
2026-01-25 13:52:38.56	175.66	0.10	-50.1	-65.3	3.6	1.51e+00	0	42	104	1519386624	60	66846

#Closed at: 2026-01-25 13:52:41
#Recorded file [1519 MB]: D:/lorett/data/35029_260126_013730.dat