passes_logs/2026/01/25/R4.6S_Anadyr/R4.6S_Anadyr__20260125_195603_SUOMI_NPP_rec.log

#Pass ID: 20260125_195603_SUOMI NPP
#Satellite: SUOMI NPP
#Configuration: NPP
#almurnet v.1.7.20251203
#Start time: 2026-01-25 19:56:04

#Version: 2.2.20231116
#Station: R4.6S_Anadyr
#Location: 177.4865 lon 64.73178 lat
#TLE: 1 37849U 11061A   26025.53586395  .00000179  00000+0  10601-3 0  9996
#TLE: 2 37849  98.7821 327.4943 0002169  45.6246 314.5108 14.19529815738202

#Time	Az	El	Level	Level2	SNR	BER	BlckErr	Temp	State	Recorded	gain1	gain2
2026-01-25 19:56:04.89	59.78	0.08	-50.5	-62.2	3.5	8.45e-01	0	39	0	0	60	46689
2026-01-25 19:56:07.91	59.55	0.23	-50.7	-66.0	3.6	1.51e+00	0	40	104	0	60	72003
2026-01-25 19:56:10.94	59.32	0.37	-50.8	-66.0	3.5	1.51e+00	0	40	104	0	60	72255
2026-01-25 19:56:13.97	59.08	0.52	-50.7	-66.0	3.6	1.51e+00	0	40	104	0	60	71952
2026-01-25 19:56:17.00	58.85	0.67	-50.5	-65.9	3.6	1.51e+00	0	40	104	0	60	71135
2026-01-25 19:56:20.03	58.61	0.82	-50.7	-66.0	3.6	1.51e+00	0	40	104	0	60	71715
2026-01-25 19:56:23.06	58.37	0.97	-50.5	-65.8	3.6	1.51e+00	0	40	104	0	60	70317
2026-01-25 19:56:26.10	58.13	1.12	-50.4	-65.6	3.6	1.51e+00	0	40	104	0	60	68667
2026-01-25 19:56:29.13	57.88	1.27	-49.7	-64.9	3.6	1.51e+00	0	40	104	0	60	63827
2026-01-25 19:56:32.15	57.63	1.42	-49.2	-64.4	3.6	1.51e+00	0	40	104	0	60	59790
2026-01-25 19:56:35.18	57.38	1.57	-49.2	-64.4	3.6	1.51e+00	0	40	104	0	60	59668
2026-01-25 19:56:38.21	57.13	1.72	-49.2	-64.3	3.6	1.51e+00	0	40	104	0	60	59266
2026-01-25 19:56:41.24	56.87	1.87	-49.2	-64.4	3.6	1.51e+00	0	40	104	0	60	59804
2026-01-25 19:56:44.27	56.61	2.02	-49.2	-64.3	3.6	1.51e+00	0	41	104	0	60	59444
2026-01-25 19:56:47.30	56.35	2.17	-49.2	-64.1	3.5	1.51e+00	0	41	104	0	60	58211
2026-01-25 19:56:50.32	56.09	2.32	-49.2	-64.4	3.6	1.51e+00	0	41	104	0	60	59702
2026-01-25 19:56:53.35	55.82	2.47	-49.2	-64.3	3.6	1.51e+00	0	41	104	0	60	59453
2026-01-25 19:56:56.38	55.55	2.62	-49.1	-63.9	3.6	1.51e+00	0	41	104	0	60	56702
2026-01-25 19:56:59.41	55.28	2.77	-49.2	-64.2	3.6	1.51e+00	0	41	104	0	60	58298
2026-01-25 19:57:02.43	55.00	2.93	-47.9	-53.4	9.6	8.92e-02	0	41	0	2097152	60	16918
2026-01-25 19:57:05.46	54.72	3.08	-48.9	-58.0	4.5	8.46e-02	0	41	0	7340032	60	28803
2026-01-25 19:57:08.49	54.44	3.23	-44.3	-46.4	16.8	2.78e-04	0	41	0	8388608	60	7555
2026-01-25 19:57:11.52	54.16	3.38	-45.2	-47.7	15.8	7.00e-07	0	41	0	10485760	60	8815
2026-01-25 19:57:14.54	53.87	3.54	-44.9	-47.3	16.2	0.00e+00	0	41	0	15728640	60	8334
2026-01-25 19:57:17.57	53.58	3.69	-45.0	-47.5	15.8	0.00e+00	0	40	0	22020096	60	8582
2026-01-25 19:57:20.60	53.28	3.84	-44.3	-46.4	17.0	0.00e+00	0	41	0	27262976	60	7559
2026-01-25 19:57:23.62	52.99	3.99	-43.6	-45.4	18.1	0.00e+00	0	40	0	32505856	60	6703
2026-01-25 19:57:26.65	52.69	4.15	-44.5	-46.7	16.9	0.00e+00	0	40	0	38797312	60	7828
2026-01-25 19:57:29.68	52.38	4.30	-44.3	-46.4	17.2	0.00e+00	0	40	0	44040192	60	7549
2026-01-25 19:57:32.70	52.08	4.46	-43.9	-45.8	17.9	0.00e+00	0	40	0	50331648	60	7076
2026-01-25 19:57:35.73	51.77	4.61	-43.9	-45.8	17.9	0.00e+00	0	41	0	55574528	60	7080
2026-01-25 19:57:38.76	51.45	4.76	-44.1	-46.1	17.5	0.00e+00	0	40	0	61865984	60	7325
2026-01-25 19:57:41.79	51.14	4.92	-43.6	-45.4	18.0	0.00e+00	0	40	0	67108864	60	6714
2026-01-25 19:57:44.81	50.82	5.07	-43.8	-45.6	17.9	0.00e+00	0	40	0	72351744	60	6909
2026-01-25 19:57:47.84	50.49	5.22	-44.2	-46.2	17.5	0.00e+00	0	40	0	78643200	60	7414
2026-01-25 19:57:50.87	50.16	5.38	-44.3	-46.3	17.4	0.00e+00	0	40	0	83886080	60	7451
2026-01-25 19:57:53.90	49.83	5.53	-43.7	-45.4	18.3	0.00e+00	0	40	0	90177536	60	6769
2026-01-25 19:57:56.93	49.50	5.69	-43.5	-45.2	18.5	0.00e+00	0	40	0	95420416	60	6568
2026-01-25 19:57:59.96	49.16	5.84	-43.2	-44.8	18.9	0.00e+00	0	40	0	100663296	60	6256
2026-01-25 19:58:02.99	48.81	6.00	-42.6	-44.1	19.5	0.00e+00	0	40	0	106954752	58	6484
2026-01-25 19:58:06.01	48.47	6.15	-42.9	-44.4	19.3	0.00e+00	0	40	0	112197632	58	6719
2026-01-25 19:58:09.04	48.12	6.30	-42.9	-44.4	19.1	0.00e+00	0	40	0	118489088	58	6746
2026-01-25 19:58:12.07	47.77	6.46	-42.8	-44.3	19.2	0.00e+00	0	40	0	123731968	58	6628
2026-01-25 19:58:15.10	47.41	6.61	-42.5	-43.9	19.7	0.00e+00	0	40	0	130023424	58	6340
2026-01-25 19:58:18.12	47.05	6.76	-42.6	-44.0	19.7	0.00e+00	0	40	0	135266304	58	6449
2026-01-25 19:58:21.15	46.68	6.92	-42.8	-44.3	19.5	0.00e+00	0	40	0	140509184	58	6656
2026-01-25 19:58:24.18	46.31	7.07	-43.0	-44.5	19.3	0.00e+00	0	40	0	146800640	58	6844
2026-01-25 19:58:27.21	45.94	7.22	-42.8	-44.3	19.3	0.00e+00	0	40	0	152043520	58	6666
2026-01-25 19:58:30.23	45.56	7.37	-42.8	-44.3	19.3	0.00e+00	0	40	0	158334976	58	6679
2026-01-25 19:58:33.26	45.18	7.53	-43.0	-44.6	19.2	0.00e+00	0	40	0	163577856	58	6884
2026-01-25 19:58:36.29	44.80	7.68	-42.4	-43.8	19.9	0.00e+00	0	40	0	168820736	58	6301
2026-01-25 19:58:39.32	44.41	7.83	-42.7	-44.1	19.7	0.00e+00	0	40	0	175112192	58	6534
2026-01-25 19:58:42.35	44.01	7.98	-42.7	-44.1	19.6	0.00e+00	0	40	0	180355072	58	6537
2026-01-25 19:58:45.38	43.62	8.13	-42.3	-43.6	20.1	0.00e+00	0	40	0	186646528	58	6133
2026-01-25 19:58:48.40	43.21	8.28	-43.0	-44.5	19.4	0.00e+00	0	40	0	191889408	58	6788
2026-01-25 19:58:51.43	42.81	8.43	-43.1	-44.7	19.2	0.00e+00	0	40	0	197132288	58	6948
2026-01-25 19:58:54.46	42.40	8.58	-43.4	-45.0	18.9	0.00e+00	0	40	0	203423744	58	7225
2026-01-25 19:58:57.49	41.98	8.73	-42.9	-44.5	19.4	0.00e+00	0	40	0	208666624	58	6798
2026-01-25 19:59:00.52	41.56	8.88	-42.9	-44.4	19.7	0.00e+00	0	40	0	214958080	58	6700
2026-01-25 19:59:03.55	41.14	9.03	-42.6	-44.1	19.9	0.00e+00	0	40	0	220200960	58	6489
2026-01-25 19:59:06.58	40.71	9.18	-41.9	-43.2	20.6	0.00e+00	0	41	0	226492416	58	5856
2026-01-25 19:59:09.61	40.28	9.32	-42.1	-43.5	20.3	0.00e+00	0	40	0	231735296	58	6039
2026-01-25 19:59:12.63	39.84	9.47	-42.1	-43.4	20.5	0.00e+00	0	40	0	236978176	56	6696
2026-01-25 19:59:15.66	39.40	9.61	-41.6	-42.9	20.9	0.00e+00	0	40	0	243269632	56	6322
2026-01-25 19:59:18.70	38.95	9.76	-41.5	-42.7	21.1	0.00e+00	0	41	0	248512512	56	6175
2026-01-25 19:59:21.73	38.50	9.90	-41.5	-42.7	21.2	0.00e+00	0	40	0	254803968	56	6176
2026-01-25 19:59:24.75	38.05	10.04	-40.8	-41.9	21.8	0.00e+00	0	40	0	260046848	56	5677
2026-01-25 19:59:27.77	37.59	10.18	-40.6	-41.7	21.9	0.00e+00	0	40	0	265289728	54	6198
2026-01-25 19:59:30.80	37.13	10.32	-41.0	-42.1	21.5	0.00e+00	0	40	0	271581184	54	6538
2026-01-25 19:59:33.83	36.66	10.46	-41.0	-42.1	21.5	0.00e+00	0	40	0	276824064	54	6537
2026-01-25 19:59:36.86	36.19	10.60	-41.3	-42.4	21.2	0.00e+00	0	41	0	283115520	54	6767
2026-01-25 19:59:39.89	35.71	10.74	-40.8	-41.8	21.9	0.00e+00	0	41	0	288358400	54	6316
2026-01-25 19:59:42.92	35.23	10.87	-40.3	-41.3	22.2	0.00e+00	0	41	0	294649856	54	5958
2026-01-25 19:59:45.94	34.74	11.01	-39.9	-40.9	22.6	0.00e+00	0	41	0	299892736	54	5632
2026-01-25 19:59:48.97	34.25	11.14	-39.9	-40.9	22.7	0.00e+00	0	41	0	305135616	52	6333
2026-01-25 19:59:52.00	33.75	11.27	-40.1	-41.2	22.4	0.00e+00	0	40	0	311427072	52	6540
2026-01-25 19:59:55.02	33.25	11.40	-40.1	-41.1	22.5	0.00e+00	0	40	0	316669952	52	6478
2026-01-25 19:59:58.05	32.75	11.53	-39.8	-40.7	22.8	0.00e+00	0	40	0	322961408	52	6226
2026-01-25 20:00:01.08	32.24	11.66	-39.7	-40.7	23.0	0.00e+00	0	40	0	328204288	52	6193
2026-01-25 20:00:04.11	31.73	11.79	-39.8	-40.8	22.8	0.00e+00	0	40	0	333447168	52	6268
2026-01-25 20:00:07.13	31.21	11.91	-40.1	-41.2	22.5	0.00e+00	0	40	0	339738624	52	6562
2026-01-25 20:00:10.16	30.69	12.03	-40.5	-41.5	22.2	0.00e+00	0	40	0	344981504	52	6840
2026-01-25 20:00:13.19	30.16	12.15	-40.4	-41.4	22.2	0.00e+00	0	40	0	351272960	52	6733
2026-01-25 20:00:16.22	29.63	12.27	-40.4	-41.4	22.4	0.00e+00	0	40	0	356515840	52	6712
2026-01-25 20:00:19.25	29.09	12.39	-40.4	-41.4	22.3	0.00e+00	0	40	0	361758720	52	6743
2026-01-25 20:00:22.27	28.55	12.51	-40.8	-42.0	21.8	0.00e+00	0	40	0	368050176	54	6408
2026-01-25 20:00:25.31	28.01	12.62	-40.5	-41.6	22.2	0.00e+00	0	40	0	373293056	54	6127
2026-01-25 20:00:28.34	27.46	12.73	-40.0	-41.0	22.6	0.00e+00	0	40	0	379584512	54	5754
2026-01-25 20:00:31.37	26.91	12.84	-40.0	-41.0	22.6	0.00e+00	0	41	0	384827392	54	5747
2026-01-25 20:00:34.39	26.35	12.95	-40.1	-41.1	22.6	0.00e+00	0	40	0	391118848	54	5762
2026-01-25 20:00:37.41	25.79	13.05	-40.2	-41.2	22.5	0.00e+00	0	40	0	396361728	54	5889
2026-01-25 20:00:40.44	25.23	13.15	-39.9	-40.9	22.6	0.00e+00	0	40	0	401604608	54	5666
2026-01-25 20:00:43.47	24.66	13.25	-40.4	-41.4	22.4	0.00e+00	0	41	0	407896064	52	6735
2026-01-25 20:00:46.50	24.09	13.35	-40.9	-42.0	21.9	0.00e+00	0	40	0	413138944	54	6450
2026-01-25 20:00:49.52	23.51	13.45	-40.5	-41.6	22.2	0.00e+00	0	41	0	419430400	54	6135
2026-01-25 20:00:52.56	22.93	13.54	-40.2	-41.2	22.6	0.00e+00	0	40	0	424673280	54	5866
2026-01-25 20:00:55.58	22.35	13.63	-39.4	-40.4	23.0	0.00e+00	0	40	0	429916160	52	5968
2026-01-25 20:00:58.61	21.76	13.72	-39.7	-40.6	23.0	0.00e+00	0	41	0	436207616	52	6143
2026-01-25 20:01:01.64	21.17	13.80	-39.6	-40.5	23.1	0.00e+00	0	41	0	441450496	52	6056
2026-01-25 20:01:04.66	20.58	13.88	-39.8	-40.7	23.0	0.00e+00	0	41	0	447741952	52	6240
2026-01-25 20:01:07.69	19.98	13.96	-39.2	-40.1	23.3	0.00e+00	0	41	0	452984832	52	5781
2026-01-25 20:01:10.72	19.38	14.04	-40.0	-40.9	22.8	0.00e+00	0	41	0	459276288	52	6365
2026-01-25 20:01:13.75	18.77	14.11	-40.6	-41.6	22.1	0.00e+00	0	41	0	464519168	52	6910
2026-01-25 20:01:16.77	18.17	14.18	-40.5	-41.5	22.3	0.00e+00	0	40	0	469762048	52	6840
2026-01-25 20:01:19.80	17.56	14.25	-40.8	-41.8	21.8	0.00e+00	0	41	0	476053504	54	6289
2026-01-25 20:01:22.83	16.95	14.31	-41.1	-42.2	21.7	0.00e+00	0	41	0	481296384	54	6562
2026-01-25 20:01:25.86	16.33	14.38	-40.9	-42.0	21.8	0.00e+00	0	41	0	487587840	54	6436
2026-01-25 20:01:28.89	15.71	14.43	-40.6	-41.6	22.3	0.00e+00	0	41	0	492830720	54	6155
2026-01-25 20:01:31.92	15.10	14.49	-40.1	-41.0	22.7	0.00e+00	0	41	0	498073600	54	5752
2026-01-25 20:01:34.95	14.47	14.54	-40.0	-40.9	22.8	0.00e+00	0	41	0	504365056	54	5680
2026-01-25 20:01:37.98	13.85	14.59	-40.5	-41.5	22.3	0.00e+00	0	41	0	509607936	52	6790
2026-01-25 20:01:41.01	13.22	14.63	-40.5	-41.6	22.3	0.00e+00	0	41	0	515899392	52	6854
2026-01-25 20:01:44.04	12.59	14.68	-40.3	-41.4	22.4	0.00e+00	0	41	0	521142272	54	5966
2026-01-25 20:01:47.06	11.97	14.71	-39.7	-40.7	22.9	0.00e+00	0	41	0	527433728	54	5531
2026-01-25 20:01:50.09	11.34	14.75	-40.2	-41.2	22.5	0.00e+00	0	41	0	532676608	52	6594
2026-01-25 20:01:53.12	10.70	14.78	-40.5	-41.5	22.3	0.00e+00	0	40	0	537919488	52	6846
2026-01-25 20:01:56.15	10.07	14.81	-40.5	-41.5	22.4	0.00e+00	0	41	0	544210944	52	6820
2026-01-25 20:01:59.18	9.43	14.83	-40.3	-41.3	22.5	0.00e+00	0	41	0	549453824	52	6691
2026-01-25 20:02:02.21	8.80	14.85	-40.2	-41.2	22.6	0.00e+00	0	41	0	555745280	52	6568
2026-01-25 20:02:05.23	8.16	14.87	-40.3	-41.3	22.7	0.00e+00	0	40	0	560988160	52	6628
2026-01-25 20:02:08.26	7.53	14.88	-40.0	-41.0	22.6	0.00e+00	0	41	0	566231040	52	6455
2026-01-25 20:02:11.29	6.89	14.89	-40.2	-41.2	22.5	0.00e+00	0	41	0	572522496	52	6581
2026-01-25 20:02:14.32	6.25	14.90	-40.5	-41.6	22.1	0.00e+00	0	41	0	577765376	52	6867
2026-01-25 20:02:17.35	5.61	14.90	-40.1	-41.0	22.7	0.00e+00	0	41	0	584056832	52	6464
2026-01-25 20:02:20.38	4.97	14.90	-39.5	-40.5	23.1	0.00e+00	0	41	0	589299712	52	6044
2026-01-25 20:02:23.40	4.34	14.90	-39.5	-40.4	23.2	0.00e+00	0	41	0	595591168	52	6011
2026-01-25 20:02:26.43	3.70	14.89	-40.2	-41.2	22.5	0.00e+00	0	41	0	600834048	52	6582
2026-01-25 20:02:29.46	3.06	14.88	-40.5	-41.5	22.3	0.00e+00	0	41	0	606076928	52	6845
2026-01-25 20:02:32.49	2.42	14.87	-40.8	-41.9	21.5	0.00e+00	0	41	0	612368384	54	6348
2026-01-25 20:02:35.51	1.79	14.85	-41.3	-42.4	21.3	0.00e+00	0	41	0	617611264	54	6745
2026-01-25 20:02:38.54	1.15	14.83	-40.9	-42.0	21.8	0.00e+00	0	41	0	623902720	54	6418
2026-01-25 20:02:41.57	0.52	14.80	-40.4	-41.4	22.4	0.00e+00	0	41	0	629145600	54	6029
2026-01-25 20:02:44.60	359.88	14.77	-40.4	-41.4	22.4	0.00e+00	0	41	0	634388480	54	6020
2026-01-25 20:02:47.63	359.25	14.74	-40.2	-41.2	22.5	0.00e+00	0	41	0	640679936	54	5854
2026-01-25 20:02:50.66	358.62	14.70	-40.4	-41.4	22.4	0.00e+00	0	41	0	645922816	54	6033
2026-01-25 20:02:53.69	357.99	14.66	-39.9	-40.8	22.9	0.00e+00	0	41	0	652214272	54	5612
2026-01-25 20:02:56.71	357.37	14.62	-39.5	-40.4	23.0	0.00e+00	0	41	0	657457152	52	6020
2026-01-25 20:02:59.74	356.74	14.58	-40.0	-41.0	22.5	0.00e+00	0	41	0	662700032	52	6447
2026-01-25 20:03:02.77	356.12	14.53	-40.1	-41.1	22.6	0.00e+00	0	41	0	668991488	52	6507
2026-01-25 20:03:05.80	355.50	14.47	-40.6	-41.6	22.3	0.00e+00	0	41	0	674234368	52	6912
2026-01-25 20:03:08.83	354.88	14.42	-40.5	-41.6	22.2	0.00e+00	0	41	0	680525824	52	6853
2026-01-25 20:03:11.86	354.26	14.36	-40.6	-41.7	22.2	0.00e+00	0	41	0	685768704	54	6174
2026-01-25 20:03:14.89	353.65	14.30	-40.5	-41.6	22.3	0.00e+00	0	41	0	692060160	54	6117
2026-01-25 20:03:17.92	353.04	14.23	-39.8	-40.8	22.9	0.00e+00	0	41	0	697303040	54	5608
2026-01-25 20:03:20.95	352.43	14.16	-39.6	-40.5	23.2	0.00e+00	0	41	0	702545920	52	6077
2026-01-25 20:03:23.98	351.82	14.09	-39.7	-40.6	23.0	0.00e+00	0	41	0	708837376	52	6142
2026-01-25 20:03:27.00	351.22	14.02	-39.6	-40.5	23.2	0.00e+00	0	41	0	714080256	52	6054
2026-01-25 20:03:30.03	350.62	13.94	-39.8	-40.7	22.9	0.00e+00	0	41	0	720371712	52	6224
2026-01-25 20:03:33.06	350.03	13.86	-40.1	-41.1	22.7	0.00e+00	0	41	0	725614592	52	6532
2026-01-25 20:03:36.09	349.43	13.78	-40.3	-41.3	22.4	0.00e+00	0	41	0	730857472	52	6653
2026-01-25 20:03:39.12	348.84	13.69	-40.6	-41.7	22.2	0.00e+00	0	41	0	737148928	54	6224
2026-01-25 20:03:42.14	348.26	13.61	-40.7	-41.8	22.1	0.00e+00	0	41	0	742391808	54	6260
2026-01-25 20:03:45.17	347.68	13.52	-40.8	-41.9	22.0	0.00e+00	0	41	0	748683264	54	6354
2026-01-25 20:03:48.19	347.10	13.42	-40.1	-41.1	22.7	0.00e+00	0	41	0	753926144	54	5797
2026-01-25 20:03:51.22	346.52	13.33	-39.9	-40.9	22.8	0.00e+00	0	41	0	760217600	52	6356
2026-01-25 20:03:54.25	345.95	13.23	-39.7	-40.7	23.0	0.00e+00	0	41	0	765460480	52	6179
2026-01-25 20:03:57.28	345.38	13.13	-39.7	-40.7	23.1	0.00e+00	0	41	0	770703360	52	6196
2026-01-25 20:04:00.31	344.82	13.02	-39.3	-40.2	23.2	0.00e+00	0	41	0	776994816	52	5870
2026-01-25 20:04:03.34	344.26	12.92	-39.5	-40.4	23.1	0.00e+00	0	41	0	782237696	52	5995
2026-01-25 20:04:06.37	343.71	12.81	-40.1	-41.1	22.8	0.00e+00	0	41	0	788529152	52	6473
2026-01-25 20:04:09.39	343.16	12.70	-40.2	-41.2	22.5	0.00e+00	0	41	0	793772032	52	6563
2026-01-25 20:04:12.42	342.61	12.59	-40.8	-41.9	22.0	0.00e+00	0	41	0	799014912	54	6379
2026-01-25 20:04:15.45	342.07	12.48	-41.1	-42.3	21.6	0.00e+00	0	41	0	805306368	54	6634
2026-01-25 20:04:18.48	341.53	12.36	-40.5	-41.6	22.1	0.00e+00	0	41	0	810549248	54	6109
2026-01-25 20:04:21.51	340.99	12.24	-40.9	-42.0	21.9	0.00e+00	0	41	0	816840704	54	6412
2026-01-25 20:04:24.54	340.46	12.12	-41.0	-42.1	21.8	0.00e+00	0	41	0	822083584	54	6531
2026-01-25 20:04:27.57	339.94	12.00	-40.7	-41.9	21.9	0.00e+00	0	41	0	828375040	54	6340
2026-01-25 20:04:30.60	339.42	11.88	-41.1	-42.3	21.6	0.00e+00	0	41	0	833617920	54	6648
2026-01-25 20:04:33.63	338.90	11.75	-41.1	-42.2	21.6	0.00e+00	0	41	0	838860800	54	6610
2026-01-25 20:04:36.66	338.39	11.63	-41.6	-42.8	21.0	0.00e+00	0	41	0	845152256	54	7039
2026-01-25 20:04:39.68	337.88	11.50	-41.1	-42.3	21.7	0.00e+00	0	41	0	850395136	54	6620
2026-01-25 20:04:42.71	337.38	11.37	-40.6	-41.6	22.1	0.00e+00	0	41	0	856686592	54	6173
2026-01-25 20:04:45.74	336.88	11.24	-41.3	-42.5	21.4	0.00e+00	0	41	0	861929472	54	6801
2026-01-25 20:04:48.77	336.39	11.11	-42.4	-43.8	20.3	0.00e+00	0	41	0	867172352	56	7008
2026-01-25 20:04:51.80	335.90	10.97	-42.6	-44.0	20.1	0.00e+00	0	41	0	873463808	58	6392
2026-01-25 20:04:54.82	335.41	10.84	-41.9	-43.2	20.9	0.00e+00	0	41	0	878706688	58	5832
2026-01-25 20:04:57.85	334.93	10.70	-42.2	-43.5	20.8	0.00e+00	0	41	0	884998144	58	6039
2026-01-25 20:05:00.88	334.46	10.57	-43.2	-44.7	19.4	0.00e+00	0	41	0	890241024	58	7003
2026-01-25 20:05:03.91	333.99	10.43	-44.0	-45.7	18.5	0.00e+00	0	41	0	896532480	60	6989
2026-01-25 20:05:06.93	333.52	10.29	-44.1	-45.8	18.6	0.00e+00	0	41	0	901775360	60	7064
2026-01-25 20:05:09.97	333.06	10.15	-43.6	-45.2	19.1	0.00e+00	0	41	0	907018240	60	6576
2026-01-25 20:05:12.99	332.60	10.01	-43.5	-45.1	19.2	0.00e+00	0	41	0	913309696	60	6504
2026-01-25 20:05:16.02	332.15	9.86	-43.0	-44.4	19.7	0.00e+00	0	41	0	918552576	60	6014
2026-01-25 20:05:19.05	331.70	9.72	-42.8	-44.1	20.0	0.00e+00	0	41	0	924844032	58	6533
2026-01-25 20:05:22.07	331.26	9.58	-42.5	-43.8	20.3	0.00e+00	0	41	0	930086912	58	6280
2026-01-25 20:05:25.10	330.82	9.43	-42.5	-43.7	20.2	0.00e+00	0	41	0	935329792	58	6241
2026-01-25 20:05:28.13	330.38	9.29	-42.1	-43.3	20.8	0.00e+00	0	41	0	941621248	58	5926
2026-01-25 20:05:31.16	329.95	9.14	-41.8	-43.0	21.0	0.00e+00	0	41	0	946864128	56	6418
2026-01-25 20:05:34.19	329.52	8.99	-41.7	-42.9	21.1	0.00e+00	0	41	0	953155584	56	6331
2026-01-25 20:05:37.21	329.10	8.84	-41.8	-43.0	21.0	0.00e+00	0	41	0	958398464	56	6439
2026-01-25 20:05:40.25	328.68	8.70	-42.2	-43.5	20.6	0.00e+00	0	41	0	963641344	56	6788
2026-01-25 20:05:43.28	328.27	8.55	-42.5	-43.8	20.2	0.00e+00	0	41	0	969932800	56	7063
2026-01-25 20:05:46.31	327.86	8.40	-42.4	-43.7	20.3	0.00e+00	0	41	0	975175680	58	6201
2026-01-25 20:05:49.33	327.46	8.25	-42.2	-43.5	20.5	0.00e+00	0	41	0	981467136	58	6083
2026-01-25 20:05:52.36	327.06	8.10	-42.0	-43.3	20.6	0.00e+00	0	41	0	986710016	58	5911
2026-01-25 20:05:55.38	326.66	7.95	-41.9	-43.2	20.7	0.00e+00	0	41	0	993001472	58	5861
2026-01-25 20:05:58.41	326.27	7.80	-42.0	-43.3	20.6	0.00e+00	0	41	0	998244352	58	5902
2026-01-25 20:06:01.44	325.88	7.64	-41.3	-42.4	21.4	0.00e+00	0	41	0	1003487232	56	6024
2026-01-25 20:06:04.46	325.50	7.49	-40.7	-41.8	21.8	0.00e+00	0	41	0	1009778688	54	6295
2026-01-25 20:06:07.49	325.12	7.34	-40.8	-41.9	21.8	0.00e+00	0	41	0	1015021568	54	6363
2026-01-25 20:06:10.52	324.74	7.19	-41.3	-42.5	21.2	0.00e+00	0	41	0	1021313024	54	6817
2026-01-25 20:06:13.55	324.37	7.03	-40.9	-42.0	21.8	0.00e+00	0	41	0	1026555904	54	6411
2026-01-25 20:06:16.57	324.01	6.88	-40.8	-41.8	21.8	0.00e+00	0	41	0	1031798784	54	6317
2026-01-25 20:06:19.60	323.64	6.73	-41.0	-42.1	21.6	0.00e+00	0	41	0	1038090240	54	6486
2026-01-25 20:06:22.63	323.28	6.58	-40.9	-42.0	21.6	0.00e+00	0	41	0	1043333120	54	6424
2026-01-25 20:06:25.66	322.93	6.42	-41.3	-42.4	21.1	0.00e+00	0	41	0	1049624576	54	6761
2026-01-25 20:06:28.69	322.57	6.27	-41.4	-42.6	21.1	0.00e+00	0	41	0	1054867456	54	6898
2026-01-25 20:06:31.71	322.23	6.11	-41.6	-42.9	20.9	0.00e+00	0	41	0	1061158912	56	6331
2026-01-25 20:06:34.74	321.88	5.96	-41.4	-42.6	21.0	0.00e+00	0	41	0	1066401792	56	6105
2026-01-25 20:06:37.77	321.54	5.81	-41.5	-42.7	21.0	0.00e+00	0	41	0	1071644672	56	6198
2026-01-25 20:06:40.79	321.20	5.65	-41.5	-42.7	20.9	0.00e+00	0	41	0	1077936128	56	6196
2026-01-25 20:06:43.82	320.87	5.50	-41.0	-42.1	21.1	0.00e+00	0	41	0	1083179008	56	5795
2026-01-25 20:06:46.85	320.54	5.35	-41.3	-42.4	21.2	0.00e+00	0	41	0	1089470464	56	6021
2026-01-25 20:06:49.88	320.21	5.19	-40.7	-41.8	21.5	0.00e+00	0	41	0	1094713344	54	6258
2026-01-25 20:06:52.91	319.89	5.04	-40.9	-42.0	21.4	0.00e+00	0	41	0	1099956224	54	6402
2026-01-25 20:06:55.95	319.57	4.88	-41.2	-42.3	21.2	0.00e+00	0	41	0	1106247680	54	6668
2026-01-25 20:06:58.97	319.26	4.73	-42.1	-43.5	20.2	0.00e+00	0	41	0	1111490560	56	6796
2026-01-25 20:07:02.00	318.94	4.58	-42.1	-43.4	20.2	0.00e+00	0	41	0	1117782016	56	6739
2026-01-25 20:07:05.03	318.63	4.42	-42.0	-43.3	20.3	0.00e+00	0	41	0	1123024896	56	6661
2026-01-25 20:07:08.06	318.33	4.27	-41.8	-43.1	20.4	0.00e+00	0	41	0	1129316352	56	6495
2026-01-25 20:07:11.08	318.03	4.12	-41.2	-42.4	21.0	0.00e+00	0	41	0	1134559232	56	5992
2026-01-25 20:07:14.11	317.73	3.96	-41.1	-42.2	21.2	0.00e+00	0	41	0	1139802112	56	5867
2026-01-25 20:07:17.13	317.43	3.81	-41.2	-42.4	20.8	0.00e+00	0	41	0	1146093568	56	6025
2026-01-25 20:07:20.17	317.14	3.66	-41.5	-42.8	20.4	0.00e+00	0	41	0	1151336448	56	6259
2026-01-25 20:07:23.20	316.85	3.50	-42.3	-43.7	19.7	0.00e+00	0	41	0	1157627904	58	6213
2026-01-25 20:07:26.22	316.56	3.35	-42.9	-44.5	18.9	0.00e+00	0	41	0	1162870784	58	6793
2026-01-25 20:07:29.25	316.28	3.20	-44.1	-46.1	17.2	0.00e+00	0	41	0	1168113664	60	7286
2026-01-25 20:07:32.28	316.00	3.05	-44.0	-46.0	17.4	0.00e+00	0	41	0	1174405120	60	7232
2026-01-25 20:07:35.31	315.72	2.89	-50.1	-65.4	3.6	1.51e+00	0	41	104	1176502272	60	67159
2026-01-25 20:07:38.34	315.45	2.74	-50.6	-65.8	3.6	1.51e+00	0	41	104	1176502272	60	70091
2026-01-25 20:07:41.37	315.17	2.59	-50.7	-65.9	3.6	1.51e+00	0	41	104	1176502272	60	71334
2026-01-25 20:07:44.40	314.91	2.44	-50.8	-66.0	3.6	1.51e+00	0	41	104	1176502272	60	72113
2026-01-25 20:07:47.42	314.64	2.29	-50.8	-66.0	3.6	1.51e+00	0	41	104	1176502272	60	72258
2026-01-25 20:07:50.45	314.38	2.14	-50.6	-65.9	3.6	1.51e+00	0	41	104	1176502272	60	70942
2026-01-25 20:07:53.48	314.12	1.99	-50.6	-65.8	3.6	1.51e+00	0	41	104	1176502272	60	70721
2026-01-25 20:07:56.51	313.86	1.84	-50.6	-65.8	3.6	1.51e+00	0	41	104	1176502272	60	70569
2026-01-25 20:07:59.54	313.60	1.68	-50.5	-65.8	3.6	1.51e+00	0	41	104	1176502272	60	70417
2026-01-25 20:08:02.57	313.35	1.53	-50.5	-65.8	3.6	1.51e+00	0	41	104	1176502272	60	70741
2026-01-25 20:08:05.60	313.10	1.39	-50.5	-65.8	3.6	1.51e+00	0	41	104	1176502272	60	70712
2026-01-25 20:08:08.62	312.86	1.24	-50.5	-65.8	3.6	1.51e+00	0	41	104	1176502272	60	70226
2026-01-25 20:08:11.65	312.61	1.09	-50.5	-65.8	3.6	1.51e+00	0	41	104	1176502272	60	70256
2026-01-25 20:08:14.68	312.37	0.94	-50.4	-65.7	3.6	1.51e+00	0	41	104	1176502272	60	69700
2026-01-25 20:08:17.71	312.13	0.79	-50.4	-65.7	3.6	1.51e+00	0	41	104	1176502272	60	69652
2026-01-25 20:08:20.74	311.89	0.64	-50.4	-65.7	3.6	1.51e+00	0	41	104	1176502272	60	69769
2026-01-25 20:08:23.77	311.66	0.49	-50.4	-65.7	3.6	1.51e+00	0	41	104	1176502272	60	69893
2026-01-25 20:08:26.80	311.43	0.34	-50.4	-65.7	3.6	1.51e+00	0	41	104	1176502272	60	69487
2026-01-25 20:08:29.83	311.20	0.20	-50.4	-65.7	3.5	1.51e+00	0	41	104	1176502272	60	69322
2026-01-25 20:08:32.86	310.97	0.05	-50.4	-65.7	3.6	1.51e+00	0	41	104	1176502272	60	69625
2026-01-25 20:08:35.88	310.75	-0.10	-50.3	-65.6	3.6	1.51e+00	0	41	104	1176502272	60	68793

#Closed at: 2026-01-25 20:08:36
#Recorded file [1176 MB]: D:/lorett/data/35029_260126_075604.dat