passes_logs/2026/01/25/R4.6S_Anadyr/R4.6S_Anadyr__20260125_015813_AQUA_rec.log

#Pass ID: 20260125_015813_AQUA
#Satellite: AQUA
#Configuration: AQUA
#almurnet v.1.7.20251203
#Start time: 2026-01-25 01:58:16

#Version: 2.2.20231116
#Station: R4.6S_Anadyr
#Location: 177.4865 lon 64.73178 lat
#TLE: 1 27424U 02022A   26024.53919639  .00001970  00000+0  40397-3 0  9996
#TLE: 2 27424  98.4098 351.1277 0001915  66.8561 358.4840 14.61855303262281

#Time	Az	El	Level	Level2	SNR	BER	BlckErr	Temp	State	Recorded	gain1	gain2
2026-01-25 01:58:16.55	156.41	0.22	-51.7	-68.1	3.2	3.01e+01	0	40	0	0	60	97586
2026-01-25 01:58:20.58	156.42	0.47	-51.4	-69.2	3.5	3.01e+01	0	40	104	0	60	111503
2026-01-25 01:58:24.62	156.43	0.72	-51.2	-69.1	3.5	3.01e+01	0	40	104	0	60	109278
2026-01-25 01:58:28.66	156.44	0.98	-51.0	-68.8	3.5	3.01e+01	0	40	104	0	60	105997
2026-01-25 01:58:32.70	156.45	1.24	-50.6	-68.4	3.5	3.01e+01	0	40	104	0	60	101548
2026-01-25 01:58:36.74	156.46	1.50	-49.4	-67.3	3.5	3.01e+01	0	40	104	0	60	89586
2026-01-25 01:58:40.79	156.47	1.77	-49.4	-66.7	3.5	3.01e+01	0	40	104	0	60	83664
2026-01-25 01:58:44.83	156.48	2.04	-49.4	-67.3	3.5	3.01e+01	0	40	104	0	60	88685
2026-01-25 01:58:48.87	156.49	2.31	-49.4	-67.3	3.5	3.01e+01	0	40	104	0	60	89494
2026-01-25 01:58:52.91	156.50	2.58	-49.4	-67.4	3.5	3.01e+01	0	40	104	0	60	89733
2026-01-25 01:58:56.95	156.51	2.86	-49.4	-65.9	3.5	3.01e+01	0	40	104	0	60	75489
2026-01-25 01:59:00.98	156.52	3.14	-49.0	-60.4	6.8	3.01e+01	91	41	104	0	60	40145
2026-01-25 01:59:05.02	156.52	3.42	-45.9	-49.4	17.8	3.01e+01	91	41	0	7340032	60	11378
2026-01-25 01:59:09.06	156.53	3.71	-44.3	-46.9	20.2	3.01e+01	92	40	0	14680064	60	8532
2026-01-25 01:59:13.10	156.54	4.00	-42.5	-44.5	22.5	3.01e+01	91	41	0	19922944	58	7244
2026-01-25 01:59:17.14	156.55	4.29	-45.7	-49.2	17.4	3.01e+01	92	41	0	23068672	60	11111
2026-01-25 01:59:21.18	156.56	4.59	-44.6	-47.4	20.5	3.01e+01	91	41	0	30408704	60	8971
2026-01-25 01:59:25.22	156.57	4.89	-42.8	-44.7	22.5	3.01e+01	91	41	0	38273024	60	6634
2026-01-25 01:59:29.27	156.58	5.20	-41.9	-43.6	23.7	3.01e+01	92	41	0	45613056	58	6567
2026-01-25 01:59:33.30	156.59	5.50	-41.7	-43.3	24.1	3.01e+01	90	41	0	53477376	58	6331
2026-01-25 01:59:37.34	156.60	5.82	-41.9	-43.6	24.0	3.01e+01	91	41	0	60817408	56	7354
2026-01-25 01:59:41.38	156.60	6.13	-40.8	-42.4	25.1	3.01e+01	91	41	0	68681728	56	6356
2026-01-25 01:59:45.42	156.61	6.45	-41.0	-42.5	25.0	3.01e+01	91	41	0	76021760	56	6487
2026-01-25 01:59:49.47	156.62	6.78	-40.4	-41.8	25.8	3.01e+01	91	41	0	83361792	56	5976
2026-01-25 01:59:53.51	156.63	7.11	-40.3	-41.8	25.8	3.01e+01	92	41	0	91226112	56	5938
2026-01-25 01:59:57.55	156.64	7.45	-39.9	-41.4	26.2	3.01e+01	92	41	0	98566144	54	6356
2026-01-25 02:00:01.59	156.64	7.79	-40.1	-41.5	26.1	3.01e+01	91	41	0	106430464	54	6453
2026-01-25 02:00:05.63	156.65	8.13	-39.9	-41.3	26.4	3.01e+01	92	41	0	113770496	54	6294
2026-01-25 02:00:09.67	156.66	8.48	-39.7	-41.1	26.5	3.01e+01	92	41	0	121634816	54	6187
2026-01-25 02:00:13.71	156.67	8.84	-39.7	-41.1	26.5	3.01e+01	92	41	0	128974848	54	6135
2026-01-25 02:00:17.75	156.67	9.20	-39.8	-41.2	26.4	3.01e+01	92	41	0	136839168	54	6244
2026-01-25 02:00:21.79	156.68	9.57	-39.7	-41.1	26.5	3.01e+01	92	41	0	144179200	54	6173
2026-01-25 02:00:25.83	156.69	9.94	-39.3	-40.6	26.9	3.01e+01	92	41	0	151519232	54	5829
2026-01-25 02:00:29.87	156.70	10.32	-39.0	-40.3	27.3	3.01e+01	88	41	0	159383552	52	6309
2026-01-25 02:00:33.90	156.70	10.71	-38.8	-40.1	27.5	3.01e+01	91	41	0	166723584	52	6192
2026-01-25 02:00:37.94	156.71	11.11	-38.7	-40.0	27.6	3.01e+01	91	41	0	174587904	52	6097
2026-01-25 02:00:41.99	156.71	11.51	-38.9	-40.2	27.4	3.01e+01	91	41	0	181927936	52	6268
2026-01-25 02:00:46.03	156.72	11.92	-38.7	-40.0	27.7	3.01e+01	89	41	0	189792256	52	6084
2026-01-25 02:00:50.07	156.73	12.33	-38.3	-39.6	28.0	3.01e+01	92	41	0	197132288	52	5844
2026-01-25 02:00:54.10	156.73	12.76	-38.0	-39.3	28.3	3.01e+01	92	41	0	204996608	52	5614
2026-01-25 02:00:58.14	156.74	13.19	-38.0	-39.3	28.2	3.01e+01	92	41	0	212336640	52	5633
2026-01-25 02:01:02.18	156.74	13.63	-37.8	-39.1	28.5	3.01e+01	90	41	0	219676672	50	6157
2026-01-25 02:01:06.22	156.75	14.08	-37.7	-38.9	28.6	3.01e+01	92	41	0	227540992	50	6050
2026-01-25 02:01:10.26	156.75	14.54	-37.9	-39.1	28.4	3.01e+01	90	41	0	234881024	50	6175
2026-01-25 02:01:14.30	156.76	15.01	-37.9	-39.1	28.4	3.01e+01	90	41	0	242745344	50	6197
2026-01-25 02:01:18.34	156.76	15.50	-37.9	-39.1	28.4	3.01e+01	92	41	0	250085376	50	6184
2026-01-25 02:01:22.38	156.76	15.99	-37.8	-39.1	28.4	3.01e+01	90	41	0	257949696	50	6169
2026-01-25 02:01:26.42	156.77	16.49	-37.6	-38.8	28.6	3.01e+01	92	41	0	265289728	50	5963
2026-01-25 02:01:30.46	156.77	17.00	-37.5	-38.7	28.7	3.01e+01	90	41	0	273154048	50	5899
2026-01-25 02:01:34.50	156.77	17.53	-37.6	-38.8	28.7	3.01e+01	90	41	0	280494080	50	5980
2026-01-25 02:01:38.54	156.77	18.07	-37.6	-38.9	28.7	3.01e+01	92	41	0	287834112	50	5999
2026-01-25 02:01:42.58	156.77	18.62	-37.4	-38.7	28.9	3.01e+01	90	41	0	295698432	50	5876
2026-01-25 02:01:46.62	156.77	19.19	-37.5	-38.8	28.9	3.01e+01	87	41	0	303038464	50	5933
2026-01-25 02:01:50.66	156.78	19.77	-37.6	-38.9	28.7	3.01e+01	92	41	0	310902784	50	5997
2026-01-25 02:01:54.70	156.78	20.37	-37.6	-38.8	28.8	3.01e+01	90	41	0	318242816	50	5960
2026-01-25 02:01:58.74	156.77	20.98	-37.7	-38.9	28.7	3.01e+01	92	41	0	326107136	50	6040
2026-01-25 02:02:02.78	156.77	21.61	-37.8	-39.1	28.6	3.01e+01	92	41	0	333447168	50	6135
2026-01-25 02:02:06.82	156.77	22.25	-37.8	-39.0	28.7	3.01e+01	92	41	0	341311488	50	6092
2026-01-25 02:02:10.86	156.77	22.92	-37.8	-39.1	28.6	3.01e+01	92	41	0	348651520	50	6136
2026-01-25 02:02:14.90	156.77	23.60	-37.5	-38.8	28.9	3.01e+01	89	41	0	355991552	50	5931
2026-01-25 02:02:18.94	156.76	24.31	-37.6	-38.9	28.9	3.01e+01	92	41	0	363855872	50	6011
2026-01-25 02:02:22.98	156.76	25.03	-37.5	-38.7	28.9	3.01e+01	91	41	0	371195904	50	5907
2026-01-25 02:02:27.02	156.75	25.78	-37.3	-38.5	29.2	3.01e+01	91	41	0	379060224	50	5776
2026-01-25 02:02:31.06	156.74	26.55	-37.4	-38.6	29.1	3.01e+01	91	41	0	386400256	50	5834
2026-01-25 02:02:35.10	156.73	27.35	-37.2	-38.4	29.3	3.01e+01	92	41	0	394264576	50	5690
2026-01-25 02:02:39.14	156.72	28.17	-36.7	-37.9	29.7	3.01e+01	92	41	0	401604608	48	6039
2026-01-25 02:02:43.18	156.71	29.02	-37.0	-38.2	29.5	3.01e+01	92	41	0	409468928	48	6242
2026-01-25 02:02:47.22	156.70	29.89	-36.8	-38.0	29.6	3.01e+01	92	41	0	416808960	48	6121
2026-01-25 02:02:51.27	156.69	30.80	-36.9	-38.1	29.6	3.01e+01	91	41	0	424673280	48	6178
2026-01-25 02:02:55.31	156.67	31.74	-37.0	-38.2	29.5	3.01e+01	92	41	0	432013312	48	6246
2026-01-25 02:02:59.35	156.66	32.71	-36.9	-38.1	29.6	3.01e+01	92	41	0	439353344	48	6190
2026-01-25 02:03:03.38	156.64	33.71	-37.5	-38.7	29.1	3.01e+01	88	41	0	447217664	48	6617
2026-01-25 02:03:07.42	156.61	34.75	-38.0	-39.2	28.7	3.01e+01	92	41	0	454557696	48	7026
2026-01-25 02:03:11.46	156.59	35.83	-38.5	-39.8	28.2	3.01e+01	92	41	0	462422016	50	6662
2026-01-25 02:03:15.50	156.56	36.95	-39.0	-40.3	27.8	3.01e+01	90	41	0	469762048	52	6336
2026-01-25 02:03:19.53	156.53	38.11	-39.2	-40.6	27.6	3.01e+01	92	41	0	477626368	52	6499
2026-01-25 02:03:23.57	156.50	39.32	-39.5	-40.8	27.3	3.01e+01	91	41	0	484966400	52	6695
2026-01-25 02:03:27.61	156.46	40.57	-38.7	-39.9	28.1	3.01e+01	91	41	0	492306432	52	6035
2026-01-25 02:03:31.65	156.42	41.87	-38.7	-40.0	28.1	3.01e+01	92	41	0	500170752	52	6102
2026-01-25 02:03:35.68	156.38	43.21	-38.8	-40.1	28.0	3.01e+01	92	41	0	507510784	52	6152
2026-01-25 02:03:39.72	156.33	44.61	-38.3	-39.5	28.5	3.01e+01	90	41	0	515375104	50	6464
2026-01-25 02:03:43.75	156.27	46.06	-37.4	-38.6	29.2	3.01e+01	90	41	0	522715136	50	5833
2026-01-25 02:03:47.79	156.20	47.57	-37.6	-38.8	29.1	3.01e+01	92	41	0	530579456	50	5933
2026-01-25 02:03:51.83	156.13	49.14	-37.7	-38.9	28.9	3.01e+01	90	41	0	537919488	50	6053
2026-01-25 02:03:55.87	156.05	50.77	-37.0	-38.2	29.6	3.01e+01	89	41	0	545783808	50	5567
2026-01-25 02:03:59.91	155.95	52.46	-36.7	-37.8	29.9	3.01e+01	92	41	0	553123840	48	5977
2026-01-25 02:04:03.95	155.84	54.21	-37.0	-38.2	29.6	3.01e+01	86	41	0	560463872	48	6225
2026-01-25 02:04:07.99	155.72	56.03	-37.2	-38.4	29.3	3.01e+01	91	41	0	568328192	48	6395
2026-01-25 02:04:12.03	155.57	57.91	-38.1	-39.4	28.6	3.01e+01	92	41	0	575668224	50	6354
2026-01-25 02:04:16.06	155.41	59.85	-38.6	-39.9	28.2	3.01e+01	91	41	0	583532544	50	6779
2026-01-25 02:04:20.10	155.21	61.86	-39.3	-40.6	27.6	3.01e+01	92	41	0	590872576	52	6513
2026-01-25 02:04:24.13	154.97	63.93	-40.2	-41.5	26.7	3.01e+01	92	41	0	598736896	54	6485
2026-01-25 02:04:28.17	154.68	66.06	-41.2	-42.6	25.6	3.01e+01	92	41	0	606076928	56	6559
2026-01-25 02:04:32.20	154.32	68.25	-42.1	-43.7	24.8	3.01e+01	92	41	0	613941248	58	6575
2026-01-25 02:04:36.22	153.88	70.49	-42.4	-44.0	24.4	3.01e+01	92	41	0	621281280	58	6839
2026-01-25 02:04:40.26	153.30	72.79	-41.5	-43.1	25.3	3.01e+01	92	41	0	628621312	58	6137
2026-01-25 02:04:44.30	152.52	75.14	-40.5	-41.9	26.4	3.01e+01	92	41	0	636485632	56	6032
2026-01-25 02:04:48.33	151.43	77.53	-40.2	-41.5	26.8	3.01e+01	88	41	0	643825664	56	5789
2026-01-25 02:04:52.37	149.79	79.95	-38.6	-39.8	28.3	3.01e+01	92	41	0	651689984	52	5977
2026-01-25 02:04:56.41	147.07	82.38	-38.8	-40.0	28.1	3.01e+01	92	41	0	659030016	52	6128
2026-01-25 02:05:00.44	141.77	84.80	-39.2	-40.4	27.8	3.01e+01	92	41	0	666894336	52	6415
2026-01-25 02:05:04.48	127.49	87.12	-38.5	-39.8	28.5	3.01e+01	92	41	0	674234368	52	5952
2026-01-25 02:05:08.51	66.59	88.53	-36.7	-37.9	30.0	3.01e+01	92	41	0	682098688	48	6027
2026-01-25 02:05:12.55	7.99	87.05	-37.9	-39.1	28.9	3.01e+01	90	41	0	689438720	50	6199
2026-01-25 02:05:16.59	354.30	84.72	-38.7	-40.0	28.2	3.01e+01	92	41	0	696778752	50	6844
2026-01-25 02:05:20.62	349.14	82.30	-38.2	-39.4	28.7	3.01e+01	92	41	0	704643072	52	5697
2026-01-25 02:05:24.66	346.48	79.87	-39.2	-40.5	27.6	3.01e+01	90	41	0	711983104	52	6475
2026-01-25 02:05:28.70	344.87	77.45	-41.3	-42.8	25.8	3.01e+01	92	41	0	719847424	56	6715
2026-01-25 02:05:32.74	343.79	75.07	-40.8	-42.2	26.1	3.01e+01	91	42	0	727187456	56	6263
2026-01-25 02:05:36.78	343.02	72.72	-41.3	-42.7	25.7	3.01e+01	90	41	0	735051776	56	6642
2026-01-25 02:05:40.82	342.44	70.42	-41.9	-43.4	25.0	3.01e+01	91	41	0	742391808	58	6414
2026-01-25 02:05:44.86	342.00	68.18	-42.3	-43.9	24.6	3.01e+01	91	41	0	749731840	58	6764
2026-01-25 02:05:48.90	341.65	65.99	-41.0	-42.4	25.9	3.01e+01	92	41	0	757596160	58	5723
2026-01-25 02:05:52.94	341.36	63.87	-40.0	-41.4	27.0	3.01e+01	92	41	0	764936192	56	5668
2026-01-25 02:05:56.98	341.12	61.80	-39.3	-40.6	27.7	3.01e+01	91	41	0	772800512	52	6531
2026-01-25 02:06:01.02	340.93	59.80	-39.1	-40.4	27.8	3.01e+01	92	41	0	780140544	52	6399
2026-01-25 02:06:05.05	340.76	57.87	-38.2	-39.4	28.6	3.01e+01	90	41	0	788004864	50	6420
2026-01-25 02:06:09.09	340.62	55.99	-37.2	-38.4	29.6	3.01e+01	90	41	0	795344896	50	5662
2026-01-25 02:06:13.13	340.49	54.19	-36.7	-37.9	30.0	3.01e+01	92	41	0	803209216	48	6037
2026-01-25 02:06:17.17	340.39	52.44	-36.7	-37.9	30.0	3.01e+01	92	41	0	810549248	48	5997
2026-01-25 02:06:21.20	340.29	50.76	-37.5	-38.7	29.4	3.01e+01	91	41	0	817889280	48	6625
2026-01-25 02:06:25.24	340.21	49.14	-37.8	-39.0	29.1	3.01e+01	92	41	0	825753600	50	6108
2026-01-25 02:06:29.28	340.14	47.58	-37.9	-39.2	29.0	3.01e+01	92	41	0	833093632	50	6212
2026-01-25 02:06:33.32	340.08	46.08	-37.6	-38.8	29.3	3.01e+01	91	41	0	840957952	50	5948
2026-01-25 02:06:37.37	340.02	44.63	-37.7	-38.9	29.2	3.01e+01	91	41	0	848297984	50	6053
2026-01-25 02:06:41.41	339.97	43.23	-37.7	-38.9	29.3	3.01e+01	91	41	0	856162304	50	6022
2026-01-25 02:06:45.45	339.92	41.89	-38.6	-39.9	28.3	3.01e+01	56	41	0	863502336	50	6754
2026-01-25 02:06:49.48	339.88	40.60	-39.1	-40.4	27.9	3.01e+01	57	41	0	871366656	52	6351
2026-01-25 02:06:53.52	339.85	39.36	-38.7	-40.0	28.3	3.01e+01	59	41	0	878706688	52	6097
2026-01-25 02:06:57.55	339.82	38.16	-39.1	-40.4	27.9	3.01e+01	58	41	0	886046720	52	6386
2026-01-25 02:07:01.58	339.79	37.01	-38.6	-39.9	28.4	3.01e+01	58	42	0	893911040	52	6008
2026-01-25 02:07:05.62	339.76	35.89	-37.8	-39.0	29.1	3.01e+01	62	41	0	901251072	50	6097
2026-01-25 02:07:09.66	339.74	34.82	-37.9	-39.1	29.0	3.01e+01	58	41	0	909115392	50	6193
2026-01-25 02:07:13.70	339.72	33.78	-37.8	-39.0	29.2	3.01e+01	58	41	0	916455424	50	6072
2026-01-25 02:07:17.74	339.70	32.78	-36.5	-37.7	30.1	3.01e+01	59	41	0	924319744	48	5860
2026-01-25 02:07:21.78	339.69	31.81	-36.9	-38.1	29.8	3.01e+01	59	41	0	931659776	48	6139
2026-01-25 02:07:25.81	339.67	30.88	-36.6	-37.8	29.9	3.01e+01	57	42	0	939524096	48	5951
2026-01-25 02:07:29.85	339.66	29.98	-36.5	-37.7	30.0	3.01e+01	58	41	0	946864128	48	5898
2026-01-25 02:07:33.88	339.65	29.11	-36.8	-38.0	29.8	3.01e+01	57	41	0	954204160	48	6086
2026-01-25 02:07:37.92	339.64	28.26	-36.7	-37.9	29.8	3.01e+01	57	42	0	962068480	48	6010
2026-01-25 02:07:41.96	339.63	27.45	-37.1	-38.3	29.6	3.01e+01	62	41	0	969408512	48	6290
2026-01-25 02:07:45.99	339.62	26.66	-37.2	-38.4	29.3	3.01e+01	61	42	0	977272832	48	6410
2026-01-25 02:07:50.03	339.62	25.89	-37.5	-38.7	29.3	3.01e+01	59	42	0	984612864	48	6613
2026-01-25 02:07:54.07	339.61	25.14	-37.7	-38.9	28.9	3.01e+01	60	42	0	992477184	48	6764
2026-01-25 02:07:58.11	339.61	24.42	-37.9	-39.1	28.7	3.01e+01	45	42	0	999817216	48	6956
2026-01-25 02:08:02.15	339.61	23.72	-37.7	-38.9	28.8	3.01e+01	56	41	0	1007157248	48	6767
2026-01-25 02:08:06.19	339.61	23.04	-37.8	-39.0	28.8	3.01e+01	38	42	0	1015021568	48	6836
2026-01-25 02:08:10.22	339.61	22.38	-37.5	-38.7	29.1	3.01e+01	57	42	0	1022361600	48	6646
2026-01-25 02:08:14.26	339.61	21.73	-37.6	-38.8	28.9	3.01e+01	59	41	0	1030225920	48	6711
2026-01-25 02:08:18.30	339.61	21.10	-37.6	-38.8	29.0	3.01e+01	60	42	0	1037565952	48	6675
2026-01-25 02:08:22.33	339.61	20.50	-37.4	-38.7	29.1	3.01e+01	59	41	0	1045430272	48	6577
2026-01-25 02:08:26.37	339.61	19.90	-37.4	-38.6	29.2	3.01e+01	60	41	0	1052770304	48	6553
2026-01-25 02:08:30.41	339.61	19.32	-37.5	-38.7	29.1	3.01e+01	48	42	0	1060110336	48	6637
2026-01-25 02:08:34.45	339.61	18.76	-37.5	-38.8	29.1	3.01e+01	59	42	0	1067974656	48	6653
2026-01-25 02:08:38.48	339.62	18.21	-37.4	-38.6	29.2	3.01e+01	47	42	0	1075314688	48	6530
2026-01-25 02:08:42.52	339.62	17.67	-37.7	-39.0	28.7	3.01e+01	61	42	0	1083179008	48	6811
2026-01-25 02:08:46.56	339.63	17.14	-37.4	-38.6	28.9	3.01e+01	49	42	0	1090519040	48	6560
2026-01-25 02:08:50.60	339.63	16.63	-37.5	-38.7	28.9	3.01e+01	54	42	0	1098383360	48	6632
2026-01-25 02:08:54.64	339.64	16.13	-37.4	-38.6	29.1	3.01e+01	51	42	0	1105723392	48	6573
2026-01-25 02:08:58.68	339.64	15.64	-37.5	-38.7	29.0	3.01e+01	60	42	0	1113587712	48	6598
2026-01-25 02:09:02.72	339.65	15.16	-37.4	-38.6	29.1	3.01e+01	48	42	0	1120927744	48	6518
2026-01-25 02:09:06.76	339.65	14.69	-37.3	-38.6	29.0	3.01e+01	59	42	0	1128267776	48	6503
2026-01-25 02:09:10.79	339.66	14.23	-37.3	-38.6	28.8	3.01e+01	48	42	0	1136132096	48	6505
2026-01-25 02:09:14.83	339.67	13.78	-37.2	-38.5	29.1	3.01e+01	58	42	0	1143472128	48	6433
2026-01-25 02:09:18.88	339.68	13.34	-37.5	-38.7	28.9	3.01e+01	59	42	0	1151336448	48	6593
2026-01-25 02:09:22.92	339.68	12.91	-37.3	-38.5	29.1	3.01e+01	59	42	0	1158676480	48	6471
2026-01-25 02:09:26.96	339.69	12.49	-38.0	-47.9	3.6	3.01e+01	0	42	104	1162870784	50	17013
2026-01-25 02:09:30.99	339.70	12.07	-47.6	-59.4	3.6	3.01e+01	0	42	104	1162870784	60	35775
2026-01-25 02:09:35.03	339.71	11.66	-38.7	-48.7	3.6	3.01e+01	0	42	104	1162870784	52	16544
2026-01-25 02:09:39.06	339.72	11.26	-49.6	-64.4	3.5	3.01e+01	0	42	104	1162870784	60	63823
2026-01-25 02:09:43.10	339.73	10.87	-45.5	-56.6	4.0	3.01e+01	0	42	104	1162870784	60	25921
2026-01-25 02:09:47.14	339.74	10.48	-50.3	-66.6	3.5	3.01e+01	0	42	104	1162870784	60	82272
2026-01-25 02:09:51.18	339.74	10.10	-39.5	-49.7	3.6	3.01e+01	0	42	104	1162870784	54	16585
2026-01-25 02:09:55.22	339.75	9.73	-45.2	-56.3	3.5	3.01e+01	0	42	104	1162870784	60	25170
2026-01-25 02:09:59.26	339.76	9.36	-38.9	-49.0	3.5	3.01e+01	0	42	104	1162870784	54	15400
2026-01-25 02:10:03.30	339.77	9.00	-48.2	-60.9	3.5	3.01e+01	0	42	104	1162870784	60	42695
2026-01-25 02:10:07.34	339.78	8.65	-42.5	-53.0	3.5	3.01e+01	0	42	104	1162870784	60	17209
2026-01-25 02:10:11.38	339.80	8.30	-49.6	-64.3	3.6	3.01e+01	0	42	104	1162870784	60	63474
2026-01-25 02:10:15.42	339.81	7.95	-41.7	-52.1	3.5	3.01e+01	0	42	104	1162870784	58	17456
2026-01-25 02:10:19.46	339.82	7.61	-41.2	-51.6	3.6	3.01e+01	0	42	104	1162870784	60	14645
2026-01-25 02:10:23.50	339.83	7.28	-40.1	-50.5	3.5	3.01e+01	0	42	104	1162870784	56	16220
2026-01-25 02:10:27.54	339.84	6.95	-42.7	-53.4	3.6	3.01e+01	0	42	104	1162870784	60	18048
2026-01-25 02:10:31.58	339.85	6.62	-41.2	-51.7	3.5	3.01e+01	0	42	104	1162870784	56	18684
2026-01-25 02:10:35.62	339.86	6.30	-41.9	-52.6	3.5	3.01e+01	0	42	104	1162870784	56	20577
2026-01-25 02:10:39.66	339.87	5.99	-40.5	-51.0	3.5	3.01e+01	0	42	104	1162870784	54	19281
2026-01-25 02:10:43.71	339.89	5.67	-42.4	-53.2	3.5	3.01e+01	0	42	104	1162870784	60	17673
2026-01-25 02:10:47.75	339.90	5.36	-45.0	-56.4	3.5	3.01e+01	0	42	104	1162870784	60	25388
2026-01-25 02:10:51.78	339.91	5.06	-45.7	-58.6	3.5	3.01e+01	0	42	104	1162870784	60	32685
2026-01-25 02:10:55.82	339.92	4.76	-46.4	-60.5	3.5	3.01e+01	0	42	104	1162870784	60	40534
2026-01-25 02:10:59.86	339.93	4.47	-46.8	-61.2	3.5	3.01e+01	0	42	104	1162870784	60	43959
2026-01-25 02:11:03.90	339.95	4.17	-46.8	-63.1	3.5	3.01e+01	0	42	104	1162870784	60	55169
2026-01-25 02:11:07.94	339.96	3.88	-47.1	-65.0	3.5	3.01e+01	0	42	104	1162870784	60	68074
2026-01-25 02:11:11.98	339.97	3.60	-47.1	-64.6	3.5	3.01e+01	0	42	104	1162870784	60	65233
2026-01-25 02:11:16.02	339.98	3.31	-46.9	-64.8	3.5	3.01e+01	0	42	104	1162870784	60	66892
2026-01-25 02:11:20.06	340.00	3.03	-46.9	-64.8	3.5	3.01e+01	0	42	104	1162870784	60	66629
2026-01-25 02:11:24.10	340.01	2.76	-50.9	-68.8	3.5	3.01e+01	0	42	104	1162870784	60	105519
2026-01-25 02:11:28.14	340.02	2.49	-51.4	-69.2	3.5	3.01e+01	0	41	104	1162870784	60	110647
2026-01-25 02:11:32.18	340.04	2.21	-51.3	-69.3	3.5	3.01e+01	0	41	104	1162870784	60	112458
2026-01-25 02:11:36.22	340.05	1.95	-51.2	-69.3	3.5	3.01e+01	0	41	104	1162870784	60	112804
2026-01-25 02:11:40.26	340.06	1.68	-51.5	-69.4	3.5	3.01e+01	0	41	104	1162870784	60	112928
2026-01-25 02:11:44.31	340.08	1.42	-51.5	-69.3	3.5	3.01e+01	0	41	104	1162870784	60	112520
2026-01-25 02:11:48.34	340.09	1.16	-51.5	-69.3	3.5	3.01e+01	0	41	104	1162870784	60	112699
2026-01-25 02:11:52.38	340.10	0.90	-51.6	-69.4	3.5	3.01e+01	0	41	104	1162870784	60	113520
2026-01-25 02:11:56.42	340.12	0.65	-51.5	-69.3	3.5	3.01e+01	0	41	104	1162870784	60	112602
2026-01-25 02:12:00.46	340.13	0.40	-51.6	-69.5	3.5	3.01e+01	0	41	104	1162870784	60	114248
2026-01-25 02:12:04.50	340.14	0.15	-51.6	-69.5	3.5	3.01e+01	0	41	104	1162870784	60	114519

#Closed at: 2026-01-25 02:12:07
#Recorded file [1162 MB]: D:/lorett/data/35029_260125_135816.dat