passes_logs/2026/01/25/R4.6S_Anadyr/R4.6S_Anadyr__20260125_124705_NOAA_21_JPSS-2_rec.log

#Pass ID: 20260125_124705_NOAA 21 (JPSS-2)
#Satellite: NOAA 21 (JPSS-2)
#Configuration: NOAA-21
#almurnet v.1.7.20251203
#Start time: 2026-01-25 12:47:06

#Version: 2.2.20231116
#Station: R4.6S_Anadyr
#Location: 177.4865 lon 64.73178 lat
#TLE: 1 54234U 22150A   26024.88063640  .00000198  00000+0  11499-3 0  9991
#TLE: 2 54234  98.7509 325.6613 0000743 218.4833 141.6291 14.19538975166219

#Time	Az	El	Level	Level2	SNR	BER	BlckErr	Temp	State	Recorded	gain1	gain2
2026-01-25 12:47:06.70	18.77	0.07	-51.6	-66.5	3.6	1.51e+00	0	38	0	0	60	76701
2026-01-25 12:47:10.73	19.02	0.28	-51.4	-64.3	3.5	1.52e+00	0	40	104	0	60	57586
2026-01-25 12:47:14.76	19.27	0.49	-51.4	-64.2	3.5	1.52e+00	0	40	104	0	60	57151
2026-01-25 12:47:18.80	19.53	0.71	-51.3	-64.1	3.5	1.52e+00	0	40	104	0	60	56162
2026-01-25 12:47:22.84	19.79	0.92	-51.0	-63.9	3.5	1.52e+00	0	40	104	0	60	54843
2026-01-25 12:47:26.89	20.05	1.14	-50.6	-63.4	3.5	1.52e+00	0	40	104	0	60	52179
2026-01-25 12:47:30.93	20.32	1.35	-49.8	-62.6	3.5	1.52e+00	0	40	104	0	60	47391
2026-01-25 12:47:34.97	20.59	1.57	-49.6	-62.4	3.5	1.52e+00	0	40	104	0	60	46351
2026-01-25 12:47:39.01	20.87	1.79	-49.5	-62.2	3.5	1.52e+00	0	40	104	0	60	45393
2026-01-25 12:47:43.05	21.15	2.01	-49.5	-62.3	3.5	1.52e+00	0	40	104	0	60	45808
2026-01-25 12:47:47.09	21.43	2.23	-49.5	-62.2	3.5	1.52e+00	0	40	104	0	60	45014
2026-01-25 12:47:51.12	21.72	2.46	-49.5	-62.0	3.5	1.52e+00	0	41	104	0	60	43971
2026-01-25 12:47:55.17	22.01	2.68	-47.8	-52.3	8.4	2.31e-02	122	41	0	4194304	60	14446
2026-01-25 12:47:59.21	22.31	2.91	-43.6	-45.5	16.6	0.00e+00	122	41	0	16777216	60	6583
2026-01-25 12:48:03.25	22.60	3.13	-43.7	-45.7	16.0	0.00e+00	122	41	0	29360128	60	6737
2026-01-25 12:48:07.29	22.91	3.36	-48.6	-55.0	7.5	1.08e+00	121	41	104	36700160	60	19684
2026-01-25 12:48:11.33	23.22	3.59	-44.3	-46.2	16.1	0.00e+00	123	41	0	40894464	60	7187
2026-01-25 12:48:15.37	23.53	3.82	-42.9	-44.5	17.4	0.00e+00	123	41	0	53477376	58	6621
2026-01-25 12:48:19.40	23.85	4.05	-43.6	-45.4	16.5	0.00e+00	123	41	0	66060288	58	7324
2026-01-25 12:48:23.44	24.17	4.29	-42.3	-43.7	18.3	0.00e+00	122	41	0	78643200	56	6800
2026-01-25 12:48:27.48	24.50	4.52	-40.8	-42.1	19.8	0.00e+00	122	41	0	92274688	54	6285
2026-01-25 12:48:31.52	24.83	4.76	-41.5	-42.9	19.1	0.00e+00	123	41	0	104857600	54	6916
2026-01-25 12:48:35.55	25.17	4.99	-40.2	-41.4	20.6	0.00e+00	122	41	0	117440512	54	5831
2026-01-25 12:48:39.59	25.51	5.23	-40.8	-42.0	19.9	0.00e+00	123	41	0	130023424	54	6235
2026-01-25 12:48:43.63	25.86	5.47	-40.0	-41.2	20.7	0.00e+00	122	41	0	142606336	52	6357
2026-01-25 12:48:47.67	26.21	5.71	-39.4	-40.6	21.2	0.00e+00	123	41	0	155189248	52	5932
2026-01-25 12:48:51.71	26.57	5.96	-39.1	-40.2	21.6	0.00e+00	123	41	0	167772160	52	5674
2026-01-25 12:48:55.74	26.93	6.20	-39.6	-40.7	21.1	0.00e+00	122	41	0	180355072	50	6758
2026-01-25 12:48:59.78	27.30	6.44	-40.7	-41.9	20.2	0.00e+00	123	41	0	192937984	52	6909
2026-01-25 12:49:03.81	27.68	6.69	-39.8	-40.9	21.1	0.00e+00	120	41	0	205520896	52	6181
2026-01-25 12:49:07.85	28.06	6.94	-39.9	-41.0	20.9	0.00e+00	122	41	0	218103808	52	6243
2026-01-25 12:49:11.89	28.45	7.19	-39.9	-41.0	20.9	0.00e+00	122	41	0	230686720	52	6255
2026-01-25 12:49:15.93	28.84	7.44	-39.7	-40.8	21.2	0.00e+00	120	41	0	243269632	52	6104
2026-01-25 12:49:19.96	29.24	7.69	-40.0	-41.1	21.0	0.00e+00	122	41	0	255852544	52	6306
2026-01-25 12:49:24.00	29.65	7.94	-39.8	-40.9	21.3	0.00e+00	120	41	0	268435456	52	6175
2026-01-25 12:49:28.04	30.07	8.20	-39.5	-40.6	21.6	0.00e+00	122	41	0	281018368	52	5979
2026-01-25 12:49:32.08	30.49	8.46	-39.5	-40.6	21.5	0.00e+00	123	41	0	293601280	52	5958
2026-01-25 12:49:36.11	30.92	8.71	-39.0	-40.0	22.1	0.00e+00	123	41	0	306184192	50	6238
2026-01-25 12:49:40.15	31.35	8.97	-38.7	-39.7	22.3	0.00e+00	123	41	0	318767104	50	6051
2026-01-25 12:49:44.19	31.80	9.23	-39.0	-40.1	22.1	0.00e+00	122	41	0	331350016	50	6303
2026-01-25 12:49:48.22	32.25	9.49	-39.0	-40.0	22.1	0.00e+00	120	41	0	343932928	50	6248
2026-01-25 12:49:52.26	32.71	9.75	-38.6	-39.6	22.4	0.00e+00	122	41	0	356515840	50	5947
2026-01-25 12:49:56.29	33.17	10.02	-38.9	-39.9	22.2	0.00e+00	123	41	0	369098752	50	6175
2026-01-25 12:50:00.33	33.65	10.28	-38.3	-39.4	22.7	0.00e+00	122	41	0	381681664	50	5794
2026-01-25 12:50:04.37	34.13	10.55	-38.0	-39.0	23.0	0.00e+00	123	41	0	394264576	50	5551
2026-01-25 12:50:08.41	34.63	10.82	-38.2	-39.1	22.9	0.00e+00	122	41	0	406847488	50	5652
2026-01-25 12:50:12.44	35.13	11.08	-37.7	-38.7	23.2	0.00e+00	120	41	0	419430400	48	6024
2026-01-25 12:50:16.48	35.64	11.35	-37.8	-38.8	23.2	0.00e+00	120	41	0	432013312	48	6071
2026-01-25 12:50:20.52	36.15	11.62	-38.1	-39.0	22.9	0.00e+00	122	41	0	444596224	48	6267
2026-01-25 12:50:24.55	36.68	11.89	-37.5	-38.4	23.5	0.00e+00	120	41	0	457179136	48	5853
2026-01-25 12:50:28.59	37.22	12.17	-37.5	-38.4	23.5	0.00e+00	122	41	0	469762048	48	5832
2026-01-25 12:50:32.62	37.77	12.44	-37.4	-38.3	23.6	0.00e+00	122	41	0	482344960	48	5784
2026-01-25 12:50:36.66	38.32	12.71	-37.6	-38.5	23.4	0.00e+00	122	42	0	495976448	48	5921
2026-01-25 12:50:40.70	38.89	12.99	-37.6	-38.5	23.4	0.00e+00	123	42	0	507510784	48	5896
2026-01-25 12:50:44.73	39.47	13.26	-37.9	-38.9	23.2	0.00e+00	122	42	0	521142272	48	6145
2026-01-25 12:50:48.77	40.06	13.54	-37.4	-38.4	23.6	0.00e+00	122	41	0	533725184	48	5797
2026-01-25 12:50:52.81	40.65	13.81	-37.4	-38.3	23.6	0.00e+00	120	42	0	546308096	48	5785
2026-01-25 12:50:56.84	41.26	14.09	-37.4	-38.3	23.7	0.00e+00	122	42	0	558891008	48	5761
2026-01-25 12:51:00.88	41.88	14.36	-37.4	-38.3	23.7	0.00e+00	122	42	0	571473920	48	5765
2026-01-25 12:51:04.92	42.52	14.64	-37.2	-38.1	23.8	0.00e+00	120	42	0	584056832	48	5633
2026-01-25 12:51:08.96	43.16	14.92	-37.0	-37.9	23.9	0.00e+00	121	42	0	596639744	48	5492
2026-01-25 12:51:12.99	43.81	15.19	-37.1	-38.1	23.9	0.00e+00	121	42	0	609222656	48	5603
2026-01-25 12:51:17.03	44.48	15.47	-37.2	-38.1	23.8	0.00e+00	121	42	0	621805568	48	5626
2026-01-25 12:51:21.07	45.16	15.74	-36.9	-37.9	24.0	0.00e+00	123	42	0	634388480	48	5471
2026-01-25 12:51:25.11	45.85	16.02	-36.8	-37.7	24.1	0.00e+00	123	42	0	646971392	46	6050
2026-01-25 12:51:29.15	46.55	16.29	-36.8	-37.7	24.2	0.00e+00	122	42	0	659554304	46	6029
2026-01-25 12:51:33.18	47.27	16.56	-36.9	-37.8	24.0	0.00e+00	123	42	0	672137216	46	6124
2026-01-25 12:51:37.22	48.00	16.83	-37.1	-38.0	24.0	0.00e+00	122	42	0	684720128	46	6217
2026-01-25 12:51:41.26	48.74	17.10	-37.1	-38.0	23.9	0.00e+00	122	42	0	697303040	46	6240
2026-01-25 12:51:45.29	49.49	17.37	-37.1	-38.1	23.9	0.00e+00	122	42	0	709885952	46	6287
2026-01-25 12:51:49.33	50.26	17.63	-37.1	-38.0	24.0	0.00e+00	123	42	0	722468864	46	6240
2026-01-25 12:51:53.37	51.04	17.90	-36.8	-37.7	24.2	0.00e+00	123	42	0	735051776	46	6001
2026-01-25 12:51:57.40	51.83	18.16	-36.9	-37.9	24.1	0.00e+00	122	42	0	747634688	46	6139
2026-01-25 12:52:01.44	52.64	18.42	-37.3	-38.2	23.8	0.00e+00	123	42	0	760217600	46	6379
2026-01-25 12:52:05.48	53.46	18.68	-37.3	-38.3	23.7	0.00e+00	123	42	0	772800512	46	6434
2026-01-25 12:52:09.52	54.30	18.93	-37.0	-37.9	24.1	0.00e+00	122	42	0	785383424	46	6199
2026-01-25 12:52:13.56	55.15	19.18	-37.4	-38.3	23.7	0.00e+00	123	42	0	797966336	46	6457
2026-01-25 12:52:17.60	56.01	19.42	-37.2	-38.2	23.7	0.00e+00	122	42	0	810549248	46	6362
2026-01-25 12:52:21.64	56.89	19.67	-36.8	-37.7	24.3	0.00e+00	123	42	0	823132160	46	6049
2026-01-25 12:52:25.68	57.78	19.90	-37.1	-38.0	23.8	0.00e+00	122	42	0	835715072	46	6253
2026-01-25 12:52:29.72	58.68	20.14	-36.9	-37.9	24.0	0.00e+00	123	42	0	848297984	46	6135
2026-01-25 12:52:33.75	59.59	20.36	-36.9	-37.8	24.2	0.00e+00	121	42	0	860880896	46	6096
2026-01-25 12:52:37.79	60.52	20.59	-36.8	-37.7	24.1	0.00e+00	122	42	0	873463808	46	6061
2026-01-25 12:52:41.83	61.47	20.81	-36.7	-37.6	24.2	0.00e+00	120	42	0	887095296	46	5981
2026-01-25 12:52:45.86	62.42	21.02	-36.5	-37.4	24.4	0.00e+00	120	42	0	899678208	46	5854
2026-01-25 12:52:49.90	63.39	21.22	-36.4	-37.3	24.5	0.00e+00	123	42	0	912261120	46	5784
2026-01-25 12:52:53.94	64.37	21.42	-36.4	-37.2	24.6	0.00e+00	122	42	0	924844032	46	5713
2026-01-25 12:52:57.98	65.36	21.61	-36.9	-37.8	24.1	0.00e+00	123	42	0	937426944	46	6074
2026-01-25 12:53:02.02	66.37	21.79	-36.5	-37.3	24.6	0.00e+00	122	42	0	950009856	46	5784
2026-01-25 12:53:06.07	67.39	21.97	-36.4	-37.3	24.5	0.00e+00	123	42	0	962592768	46	5745
2026-01-25 12:53:10.10	68.41	22.14	-36.7	-37.6	24.3	0.00e+00	123	42	0	975175680	46	5940
2026-01-25 12:53:14.14	69.45	22.30	-36.5	-37.4	24.4	0.00e+00	122	42	0	987758592	46	5800
2026-01-25 12:53:18.18	70.50	22.45	-36.4	-37.3	24.4	0.00e+00	123	42	0	1000341504	46	5758
2026-01-25 12:53:22.22	71.56	22.59	-36.2	-37.1	24.4	0.00e+00	122	42	0	1012924416	46	5651
2026-01-25 12:53:26.26	72.63	22.73	-36.3	-37.2	24.4	0.00e+00	122	42	0	1025507328	46	5718
2026-01-25 12:53:30.30	73.70	22.85	-36.4	-37.3	24.5	0.00e+00	122	42	0	1038090240	46	5761
2026-01-25 12:53:34.34	74.79	22.97	-36.6	-37.6	24.3	0.00e+00	123	42	0	1050673152	46	5929
2026-01-25 12:53:38.38	75.88	23.07	-36.0	-36.9	24.7	0.00e+00	122	42	0	1063256064	46	5510
2026-01-25 12:53:42.42	76.98	23.16	-36.1	-36.9	24.7	0.00e+00	123	42	0	1075838976	46	5521
2026-01-25 12:53:46.46	78.09	23.25	-36.4	-37.3	24.4	0.00e+00	122	42	0	1088421888	46	5783
2026-01-25 12:53:50.50	79.20	23.32	-36.4	-37.3	24.5	0.00e+00	123	42	0	1101004800	46	5739
2026-01-25 12:53:54.55	80.32	23.38	-36.5	-37.4	24.4	0.00e+00	120	42	0	1113587712	46	5824
2026-01-25 12:53:58.58	81.44	23.43	-36.3	-37.2	24.5	0.00e+00	123	42	0	1126170624	46	5718
2026-01-25 12:54:02.62	82.56	23.47	-36.4	-37.3	24.6	0.00e+00	123	42	0	1138753536	46	5782
2026-01-25 12:54:06.66	83.69	23.50	-36.2	-37.0	24.7	0.00e+00	123	42	0	1151336448	46	5592
2026-01-25 12:54:10.70	84.81	23.52	-36.3	-37.2	24.7	0.00e+00	123	42	0	1163919360	46	5678
2026-01-25 12:54:14.75	85.95	23.52	-36.5	-37.4	24.4	0.00e+00	122	42	0	1176502272	46	5820
2026-01-25 12:54:18.79	87.07	23.52	-36.5	-37.5	24.4	0.00e+00	123	42	0	1189085184	46	5861
2026-01-25 12:54:22.83	88.20	23.50	-36.2	-37.1	24.5	0.00e+00	123	42	0	1202716672	46	5633
2026-01-25 12:54:26.87	89.33	23.47	-36.0	-36.9	24.6	0.00e+00	123	42	0	1215299584	46	5522
2026-01-25 12:54:30.91	90.45	23.43	-36.1	-36.9	24.7	0.00e+00	121	42	0	1227882496	46	5525
2026-01-25 12:54:34.94	91.57	23.38	-36.0	-36.9	24.7	0.00e+00	121	42	0	1240465408	46	5472
2026-01-25 12:54:38.98	92.69	23.32	-35.7	-36.6	24.9	0.00e+00	120	42	0	1253048320	44	5946
2026-01-25 12:54:43.02	93.80	23.25	-36.0	-36.8	24.8	0.00e+00	122	42	0	1265631232	44	6123
2026-01-25 12:54:47.07	94.91	23.17	-35.9	-36.8	24.8	0.00e+00	123	42	0	1278214144	44	6122
2026-01-25 12:54:51.10	96.01	23.07	-36.3	-37.2	24.6	0.00e+00	123	42	0	1290797056	44	6351
2026-01-25 12:54:55.14	97.11	22.97	-36.1	-37.0	24.7	0.00e+00	122	42	0	1303379968	44	6256
2026-01-25 12:54:59.18	98.20	22.85	-36.3	-37.2	24.6	0.00e+00	120	42	0	1315962880	44	6369
2026-01-25 12:55:03.22	99.28	22.73	-36.3	-37.2	24.4	0.00e+00	123	42	0	1328545792	44	6417
2026-01-25 12:55:07.26	100.35	22.60	-36.1	-37.0	24.6	0.00e+00	122	42	0	1341128704	44	6256
2026-01-25 12:55:11.30	101.41	22.45	-36.2	-37.2	24.6	0.00e+00	123	42	0	1353711616	44	6352
2026-01-25 12:55:15.34	102.46	22.30	-36.1	-37.0	24.6	0.00e+00	120	42	0	1366294528	44	6260
2026-01-25 12:55:19.38	103.50	22.14	-36.2	-37.1	24.6	0.00e+00	122	42	0	1378877440	44	6302
2026-01-25 12:55:23.42	104.53	21.97	-36.3	-37.2	24.5	0.00e+00	122	42	0	1391460352	44	6420
2026-01-25 12:55:27.46	105.55	21.79	-36.5	-37.4	24.4	0.00e+00	123	42	0	1404043264	44	6566
2026-01-25 12:55:31.51	106.56	21.61	-36.6	-37.5	24.3	0.00e+00	123	42	0	1416626176	44	6628
2026-01-25 12:55:35.54	107.56	21.42	-36.5	-37.4	24.3	0.00e+00	122	42	0	1429209088	44	6504
2026-01-25 12:55:39.58	108.54	21.22	-36.5	-37.4	24.4	0.00e+00	123	42	0	1441792000	44	6564
2026-01-25 12:55:43.62	109.52	21.01	-36.4	-37.4	24.4	0.00e+00	123	42	0	1454374912	44	6509
2026-01-25 12:55:47.66	110.48	20.80	-36.7	-37.6	24.3	0.00e+00	122	42	0	1466957824	46	5979
2026-01-25 12:55:51.70	111.42	20.58	-36.2	-37.1	24.6	0.00e+00	123	42	0	1479540736	46	5639
2026-01-25 12:55:55.75	112.36	20.36	-36.6	-37.5	24.4	0.00e+00	122	42	0	1492123648	46	5877
2026-01-25 12:55:59.79	113.28	20.13	-36.6	-37.5	24.4	0.00e+00	122	42	0	1504706560	46	5873
2026-01-25 12:56:03.83	114.18	19.89	-36.9	-37.8	24.1	0.00e+00	123	42	0	1518338048	46	6130
2026-01-25 12:56:07.87	115.08	19.65	-36.7	-37.6	24.3	0.00e+00	123	42	0	1530920960	46	5935
2026-01-25 12:56:11.90	115.95	19.41	-36.8	-37.7	24.1	0.00e+00	122	42	0	1543503872	46	6004
2026-01-25 12:56:15.94	116.82	19.16	-36.7	-37.6	24.1	0.00e+00	120	42	0	1556086784	46	5983
2026-01-25 12:56:19.98	117.67	18.91	-36.4	-37.3	24.4	0.00e+00	123	42	0	1568669696	46	5755
2026-01-25 12:56:24.02	118.51	18.66	-36.4	-37.4	24.3	0.00e+00	123	42	0	1581252608	46	5800
2026-01-25 12:56:28.05	119.33	18.40	-36.5	-37.4	24.1	0.00e+00	123	42	0	1593835520	46	5846
2026-01-25 12:56:32.09	120.15	18.14	-36.5	-37.4	24.3	0.00e+00	122	42	0	1606418432	46	5837
2026-01-25 12:56:36.13	120.94	17.87	-36.5	-37.4	24.4	0.00e+00	122	42	0	1619001344	46	5849
2026-01-25 12:56:40.17	121.73	17.61	-36.6	-37.5	24.2	0.00e+00	123	42	0	1631584256	46	5922
2026-01-25 12:56:44.21	122.50	17.34	-36.6	-37.5	24.3	0.00e+00	122	42	0	1644167168	46	5890
2026-01-25 12:56:48.25	123.26	17.07	-36.7	-37.6	24.0	0.00e+00	123	42	0	1656750080	46	5991
2026-01-25 12:56:52.29	124.00	16.80	-36.9	-37.8	24.0	0.00e+00	120	42	0	1669332992	46	6102
2026-01-25 12:56:56.33	124.73	16.52	-36.9	-37.8	24.0	0.00e+00	123	42	0	1681915904	46	6114
2026-01-25 12:57:00.37	125.45	16.25	-36.7	-37.6	24.2	0.00e+00	122	42	0	1694498816	46	5971
2026-01-25 12:57:04.41	126.16	15.97	-36.8	-37.7	24.1	0.00e+00	123	42	0	1707081728	46	6001
2026-01-25 12:57:08.45	126.85	15.70	-37.1	-38.0	23.7	0.00e+00	123	42	0	1719664640	46	6262
2026-01-25 12:57:12.48	127.53	15.42	-37.3	-38.3	23.5	0.00e+00	123	42	0	1732247552	46	6435
2026-01-25 12:57:16.52	128.20	15.14	-37.5	-38.5	23.4	0.00e+00	123	42	0	1744830464	46	6580
2026-01-25 12:57:20.56	128.86	14.86	-37.7	-38.7	23.3	0.00e+00	123	42	0	1757413376	46	6766
2026-01-25 12:57:24.60	129.51	14.58	-37.8	-38.8	23.0	0.00e+00	122	42	0	1769996288	48	6077
2026-01-25 12:57:28.64	130.14	14.31	-37.6	-38.6	23.3	0.00e+00	120	42	0	1782579200	48	5949
2026-01-25 12:57:32.68	130.76	14.03	-37.3	-38.2	23.6	0.00e+00	123	42	0	1795162112	48	5711
2026-01-25 12:57:36.72	131.38	13.75	-37.7	-38.7	23.2	0.00e+00	123	42	0	1807745024	48	6019
2026-01-25 12:57:40.76	131.98	13.47	-38.1	-39.0	22.9	0.00e+00	123	41	0	1820327936	48	6276
2026-01-25 12:57:44.80	132.57	13.19	-38.1	-39.1	22.9	0.00e+00	122	42	0	1832910848	48	6293
2026-01-25 12:57:48.83	133.14	12.92	-38.1	-39.1	22.8	0.00e+00	120	42	0	1845493760	48	6317
2026-01-25 12:57:52.88	133.71	12.64	-37.5	-38.4	23.2	0.00e+00	120	42	0	1859125248	48	5858
2026-01-25 12:57:56.92	134.27	12.36	-38.2	-39.2	22.8	0.00e+00	122	41	0	1871708160	48	6380
2026-01-25 12:58:00.96	134.82	12.09	-38.2	-39.2	22.8	0.00e+00	120	41	0	1884291072	48	6374
2026-01-25 12:58:05.00	135.36	11.81	-38.1	-39.1	22.8	0.00e+00	122	42	0	1896873984	48	6341
2026-01-25 12:58:09.05	135.89	11.54	-37.9	-38.9	22.9	0.00e+00	120	42	0	1909456896	48	6175
2026-01-25 12:58:13.08	136.41	11.27	-37.9	-38.9	22.8	0.00e+00	123	41	0	1922039808	48	6176
2026-01-25 12:58:17.12	136.92	11.00	-38.1	-39.1	22.6	0.00e+00	122	41	0	1934622720	48	6345
2026-01-25 12:58:21.16	137.42	10.72	-38.1	-39.1	22.8	0.00e+00	123	41	0	1947205632	48	6278
2026-01-25 12:58:25.20	137.92	10.46	-38.1	-39.1	22.7	0.00e+00	121	41	0	1959788544	48	6303
2026-01-25 12:58:29.24	138.40	10.19	-38.2	-39.2	22.6	0.00e+00	123	41	0	1972371456	48	6387
2026-01-25 12:58:33.28	138.88	9.92	-38.2	-39.2	22.6	0.00e+00	123	41	0	1984954368	48	6422
2026-01-25 12:58:37.32	139.34	9.65	-38.6	-39.7	22.2	0.00e+00	123	41	0	1997537280	50	6002
2026-01-25 12:58:41.36	139.80	9.39	-39.2	-40.2	21.5	0.00e+00	122	41	0	2010120192	50	6419
2026-01-25 12:58:45.40	140.25	9.12	-40.1	-41.3	20.4	0.00e+00	123	41	0	2022703104	52	6431
2026-01-25 12:58:49.44	140.70	8.86	-40.8	-42.1	19.5	0.00e+00	120	41	0	2035286016	54	6297
2026-01-25 12:58:53.48	141.13	8.60	-41.5	-42.9	18.6	0.00e+00	123	41	0	2047868928	54	6917
2026-01-25 12:58:57.51	141.56	8.34	-41.5	-43.0	18.7	0.00e+00	123	41	0	2060451840	54	6968
2026-01-25 12:59:01.55	141.98	8.08	-41.3	-42.6	18.9	0.00e+00	121	41	0	2073034752	54	6707
2026-01-25 12:59:05.59	142.40	7.83	-41.5	-42.8	19.0	0.00e+00	122	42	0	2085617664	56	6103
2026-01-25 12:59:09.63	142.80	7.57	-40.8	-42.0	19.5	0.00e+00	123	41	0	2098200576	54	6264
2026-01-25 12:59:13.67	143.21	7.32	-40.7	-42.0	19.7	0.00e+00	123	41	0	2110783488	54	6225
2026-01-25 12:59:17.71	143.60	7.06	-40.6	-41.9	19.6	0.00e+00	123	41	0	2123366400	54	6203
2026-01-25 12:59:21.74	143.99	6.81	-40.3	-41.6	19.9	0.00e+00	123	41	0	2135949312	54	5953
2026-01-25 12:59:25.78	144.37	6.56	-40.7	-41.9	19.7	0.00e+00	122	42	0	2148532224	54	6196
2026-01-25 12:59:29.81	144.74	6.31	-40.8	-42.1	19.5	0.00e+00	123	41	0	2161115136	54	6302
2026-01-25 12:59:33.85	145.11	6.07	-40.9	-42.2	19.4	0.00e+00	121	41	0	2173698048	54	6404
2026-01-25 12:59:37.89	145.47	5.82	-40.8	-42.1	19.6	0.00e+00	120	42	0	2186280960	54	6300
2026-01-25 12:59:41.93	145.83	5.58	-40.8	-42.1	19.5	0.00e+00	122	41	0	2199912448	54	6319
2026-01-25 12:59:45.97	146.18	5.33	-41.0	-42.2	19.5	0.00e+00	123	41	0	2212495360	54	6417
2026-01-25 12:59:50.00	146.53	5.09	-40.7	-42.0	19.5	0.00e+00	123	41	0	2225078272	54	6231
2026-01-25 12:59:54.04	146.87	4.85	-40.5	-41.7	19.9	0.00e+00	123	42	0	2237661184	54	6023
2026-01-25 12:59:58.08	147.21	4.61	-41.4	-42.8	18.9	0.00e+00	122	42	0	2250244096	54	6817
2026-01-25 13:00:02.12	147.54	4.37	-41.4	-42.7	18.6	0.00e+00	122	42	0	2262827008	54	6788
2026-01-25 13:00:06.16	147.86	4.14	-41.0	-42.3	19.1	0.00e+00	121	42	0	2275409920	54	6474
2026-01-25 13:00:10.20	148.18	3.90	-41.1	-42.5	18.9	0.00e+00	122	41	0	2287992832	54	6586
2026-01-25 13:00:14.24	148.50	3.67	-40.9	-42.3	18.9	0.00e+00	123	41	0	2300575744	54	6452
2026-01-25 13:00:18.28	148.81	3.44	-41.3	-42.7	18.3	0.00e+00	124	41	0	2313158656	54	6793
2026-01-25 13:00:22.31	149.11	3.21	-41.4	-42.8	18.4	0.00e+00	119	42	0	2325741568	56	6100
2026-01-25 13:00:26.35	149.42	2.98	-49.6	-62.4	3.5	1.52e+00	0	42	104	2335178752	60	46123
2026-01-25 13:00:30.39	149.71	2.75	-50.7	-63.5	3.5	1.52e+00	0	41	104	2335178752	60	52556
2026-01-25 13:00:34.43	150.01	2.52	-51.0	-63.8	3.5	1.52e+00	0	42	104	2335178752	60	54333
2026-01-25 13:00:38.47	150.29	2.29	-51.0	-63.9	3.5	1.52e+00	0	42	104	2335178752	60	55011
2026-01-25 13:00:42.51	150.58	2.07	-51.0	-64.0	3.5	1.52e+00	0	41	104	2335178752	60	55452
2026-01-25 13:00:46.55	150.86	1.84	-51.1	-63.9	3.5	1.52e+00	0	42	104	2335178752	60	55281
2026-01-25 13:00:50.59	151.14	1.62	-51.2	-64.0	3.5	1.51e+00	0	42	104	2335178752	60	55943
2026-01-25 13:00:54.63	151.41	1.40	-51.2	-64.0	3.5	1.52e+00	0	42	104	2335178752	60	55830
2026-01-25 13:00:58.67	151.68	1.18	-51.2	-64.0	3.5	1.52e+00	0	42	104	2335178752	60	55897
2026-01-25 13:01:02.71	151.94	0.96	-51.1	-64.1	3.5	1.52e+00	0	42	104	2335178752	60	55959
2026-01-25 13:01:06.75	152.20	0.74	-51.3	-64.1	3.5	1.52e+00	0	42	104	2335178752	60	56418
2026-01-25 13:01:10.79	152.46	0.53	-51.2	-64.2	3.5	1.52e+00	0	42	104	2335178752	60	56680
2026-01-25 13:01:14.83	152.72	0.31	-51.2	-64.1	3.5	1.52e+00	0	42	104	2335178752	60	56326
2026-01-25 13:01:18.87	152.97	0.10	-51.2	-64.1	3.5	1.52e+00	0	42	104	2335178752	60	56281

#Closed at: 2026-01-25 13:01:22
#Recorded file [2335 MB]: D:/lorett/data/35029_260126_004706.dat