passes_logs/2026/01/25/R4.6S_Anadyr/R4.6S_Anadyr__20260125_165801_AQUA_rec.log

#Pass ID: 20260125_165801_AQUA
#Satellite: AQUA
#Configuration: AQUA
#almurnet v.1.7.20251203
#Start time: 2026-01-25 16:58:02

#Version: 2.2.20231116
#Station: R4.6S_Anadyr
#Location: 177.4865 lon 64.73178 lat
#TLE: 1 27424U 02022A   26025.30011081  .00001897  00000+0  38942-3 0  9997
#TLE: 2 27424  98.4099 351.9015 0001901  65.9773  41.4489 14.61858120262390

#Time	Az	El	Level	Level2	SNR	BER	BlckErr	Temp	State	Recorded	gain1	gain2
2026-01-25 16:58:02.24	20.50	0.04	-51.2	-66.0	3.5	1.51e+00	0	39	0	0	60	72312
2026-01-25 16:58:06.28	20.44	0.29	-51.7	-69.5	3.5	3.02e+01	0	40	104	0	60	114311
2026-01-25 16:58:10.32	20.38	0.54	-51.7	-69.5	3.5	3.02e+01	0	40	104	0	60	115064
2026-01-25 16:58:14.36	20.32	0.79	-51.7	-69.4	3.5	3.02e+01	0	40	104	0	60	114020
2026-01-25 16:58:18.40	20.26	1.05	-51.4	-69.1	3.5	3.02e+01	0	40	104	0	60	110204
2026-01-25 16:58:22.44	20.20	1.31	-50.9	-68.2	3.5	3.02e+01	0	40	104	0	60	99090
2026-01-25 16:58:26.48	20.13	1.57	-50.2	-67.4	3.5	3.02e+01	0	41	104	0	60	89903
2026-01-25 16:58:30.52	20.06	1.83	-50.1	-65.8	3.7	3.02e+01	0	41	104	0	60	74778
2026-01-25 16:58:34.56	19.99	2.09	-50.1	-65.9	3.7	3.02e+01	0	41	104	0	60	75963
2026-01-25 16:58:38.60	19.92	2.36	-50.2	-67.9	3.5	3.02e+01	0	41	104	0	60	95115
2026-01-25 16:58:42.64	19.85	2.63	-50.2	-67.3	3.5	3.02e+01	0	41	104	0	60	88711
2026-01-25 16:58:46.68	19.78	2.90	-50.0	-66.6	3.5	3.02e+01	0	41	104	0	60	81880
2026-01-25 16:58:50.72	19.70	3.18	-48.1	-63.5	3.5	3.02e+01	0	41	104	0	60	57343
2026-01-25 16:58:54.76	19.62	3.46	-43.5	-56.5	3.5	3.02e+01	0	41	104	0	60	25786
2026-01-25 16:58:58.80	19.54	3.74	-44.3	-55.5	3.5	3.02e+01	0	41	104	0	60	23049
2026-01-25 16:59:02.84	19.46	4.03	-50.0	-67.3	3.5	3.02e+01	0	41	104	0	60	89663
2026-01-25 16:59:06.87	19.38	4.32	-44.4	-55.5	3.5	3.02e+01	0	41	104	0	60	22936
2026-01-25 16:59:10.91	19.29	4.61	-50.0	-67.0	3.5	3.02e+01	0	41	104	0	60	85843
2026-01-25 16:59:14.95	19.20	4.90	-41.5	-52.0	3.5	3.02e+01	0	41	104	0	58	17289
2026-01-25 16:59:18.99	19.11	5.20	-50.3	-67.1	3.5	3.02e+01	0	41	104	0	60	86993
2026-01-25 16:59:23.02	19.01	5.51	-41.5	-51.9	3.5	3.02e+01	0	41	104	0	58	17051
2026-01-25 16:59:27.07	18.92	5.81	-50.4	-66.8	3.5	3.02e+01	0	41	104	0	60	84220
2026-01-25 16:59:31.11	18.82	6.12	-44.8	-55.9	3.6	3.02e+01	0	41	104	0	60	23971
2026-01-25 16:59:35.14	18.72	6.44	-49.9	-64.8	3.5	3.02e+01	0	41	104	0	60	67033
2026-01-25 16:59:39.18	18.61	6.76	-43.8	-54.7	3.5	3.02e+01	0	41	104	0	60	20885
2026-01-25 16:59:43.22	18.50	7.08	-50.2	-66.2	3.5	3.02e+01	0	41	104	0	60	78331
2026-01-25 16:59:47.25	18.39	7.41	-39.4	-49.7	3.6	3.02e+01	0	41	104	0	54	16615
2026-01-25 16:59:51.29	18.28	7.74	-50.6	-67.1	3.5	3.02e+01	0	41	104	0	60	87505
2026-01-25 16:59:55.33	18.16	8.08	-39.3	-49.6	3.5	3.02e+01	0	41	104	0	54	16349
2026-01-25 16:59:59.36	18.04	8.42	-50.7	-67.5	3.5	3.02e+01	0	41	104	0	60	91141
2026-01-25 17:00:03.40	17.92	8.77	-42.0	-52.4	3.5	3.02e+01	0	41	104	0	58	18101
2026-01-25 17:00:07.43	17.79	9.12	-48.5	-61.5	3.5	3.02e+01	0	41	104	0	60	45504
2026-01-25 17:00:11.47	17.66	9.48	-44.4	-55.4	3.5	3.02e+01	0	41	104	0	60	22535
2026-01-25 17:00:15.51	17.52	9.84	-42.7	-53.3	3.5	3.02e+01	0	41	104	0	60	17821
2026-01-25 17:00:19.54	17.38	10.21	-39.0	-49.2	3.5	3.02e+01	0	41	104	0	52	17609
2026-01-25 17:00:23.58	17.24	10.59	-48.2	-61.1	3.5	3.02e+01	0	41	104	0	60	43507
2026-01-25 17:00:27.62	17.09	10.97	-40.1	-50.4	3.5	3.02e+01	0	41	104	0	56	16017
2026-01-25 17:00:31.66	16.94	11.36	-48.5	-61.0	3.5	3.02e+01	0	41	104	0	60	43198
2026-01-25 17:00:35.69	16.78	11.75	-42.0	-52.5	3.5	3.02e+01	0	41	104	0	58	18203
2026-01-25 17:00:39.73	16.61	12.16	-43.0	-53.6	3.5	3.02e+01	0	41	104	0	60	18521
2026-01-25 17:00:43.77	16.45	12.57	-39.5	-49.8	3.5	3.02e+01	0	41	104	0	54	16854
2026-01-25 17:00:47.81	16.27	12.99	-49.5	-63.0	3.5	3.02e+01	0	41	104	0	60	54163
2026-01-25 17:00:51.85	16.09	13.41	-40.1	-50.3	3.5	3.02e+01	0	41	104	0	54	17853
2026-01-25 17:00:55.89	15.90	13.84	-50.0	-64.1	3.5	3.02e+01	0	41	104	0	60	61391
2026-01-25 17:00:59.93	15.71	14.29	-40.5	-50.8	3.5	3.02e+01	0	41	104	0	56	16724
2026-01-25 17:01:03.97	15.51	14.74	-41.4	-51.8	3.5	3.02e+01	0	41	104	0	58	16869
2026-01-25 17:01:08.00	15.30	15.20	-40.4	-50.7	3.5	3.02e+01	0	41	104	0	56	16669
2026-01-25 17:01:12.03	15.09	15.66	-49.9	-64.3	3.5	3.02e+01	0	41	104	0	60	63021
2026-01-25 17:01:16.07	14.86	16.14	-38.6	-48.8	3.5	3.02e+01	0	41	104	0	52	16820
2026-01-25 17:01:20.11	14.63	16.63	-50.1	-64.5	3.6	3.02e+01	0	41	104	0	60	64392
2026-01-25 17:01:24.14	14.39	17.13	-39.6	-49.9	3.5	3.02e+01	0	41	104	0	54	17016
2026-01-25 17:01:28.18	14.14	17.64	-48.5	-61.1	3.5	3.02e+01	0	41	104	0	60	43748
2026-01-25 17:01:32.22	13.88	18.16	-42.2	-52.8	3.5	3.02e+01	0	41	104	0	58	18826
2026-01-25 17:01:36.25	13.61	18.69	-40.1	-50.3	3.5	3.02e+01	0	41	104	0	56	15930
2026-01-25 17:01:40.29	13.33	19.24	-38.6	-48.8	3.5	3.02e+01	0	41	104	0	52	16861
2026-01-25 17:01:44.33	13.04	19.80	-45.5	-56.4	3.5	3.02e+01	0	41	104	0	60	25475
2026-01-25 17:01:48.37	12.74	20.37	-44.0	-54.7	3.5	3.02e+01	0	41	104	0	60	20980
2026-01-25 17:01:52.40	12.42	20.95	-43.5	-54.1	3.5	3.02e+01	0	41	104	0	60	19590
2026-01-25 17:01:56.44	12.09	21.55	-46.7	-58.1	3.5	3.02e+01	0	41	104	0	60	30826
2026-01-25 17:02:00.48	11.75	22.17	-43.3	-53.8	3.5	3.02e+01	0	41	104	0	54	26516
2026-01-25 17:02:04.51	11.39	22.80	-40.7	-51.0	3.5	3.02e+01	0	41	104	0	52	21560
2026-01-25 17:02:08.55	11.01	23.44	-39.6	-49.9	3.5	3.02e+01	0	41	104	0	56	15161
2026-01-25 17:02:12.59	10.61	24.10	-41.9	-52.3	3.5	3.02e+01	0	41	104	0	54	22338
2026-01-25 17:02:16.62	10.20	24.78	-40.4	-50.6	3.5	3.02e+01	0	41	104	0	54	18520
2026-01-25 17:02:20.66	9.77	25.48	-40.6	-50.9	3.5	3.02e+01	0	41	104	0	54	19115
2026-01-25 17:02:24.70	9.32	26.19	-41.2	-51.5	3.5	3.02e+01	0	41	104	0	54	20453
2026-01-25 17:02:28.74	8.84	26.93	-41.4	-51.8	3.5	3.02e+01	0	41	104	0	54	21156
2026-01-25 17:02:32.77	8.34	27.68	-44.7	-55.5	3.6	3.02e+01	0	41	104	0	58	25661
2026-01-25 17:02:36.81	7.81	28.46	-44.0	-54.8	3.5	3.02e+01	0	41	104	0	60	21110
2026-01-25 17:02:40.85	7.25	29.25	-45.0	-55.9	3.5	3.02e+01	0	41	104	0	58	27058
2026-01-25 17:02:44.89	6.67	30.07	-40.3	-50.7	3.5	3.02e+01	0	41	104	0	54	18535
2026-01-25 17:02:48.92	6.05	30.91	-51.3	-67.2	3.5	3.02e+01	0	41	104	0	60	88543
2026-01-25 17:02:52.96	5.39	31.77	-51.4	-68.1	3.5	3.02e+01	0	41	104	0	60	97890
2026-01-25 17:02:57.00	4.70	32.66	-51.5	-68.5	3.5	3.02e+01	0	41	104	0	60	101888
2026-01-25 17:03:01.04	3.97	33.57	-48.5	-60.7	3.5	3.02e+01	0	41	104	0	60	41915
2026-01-25 17:03:05.07	3.19	34.50	-49.3	-62.1	3.5	3.02e+01	0	41	104	0	60	49171
2026-01-25 17:03:09.11	2.36	35.45	-39.4	-49.6	3.5	3.02e+01	0	41	104	0	54	16490
2026-01-25 17:03:13.15	1.48	36.43	-51.4	-67.8	3.5	3.02e+01	0	41	104	0	60	93986
2026-01-25 17:03:17.19	0.54	37.44	-51.7	-69.3	3.5	3.02e+01	0	41	104	0	60	112313
2026-01-25 17:03:21.23	359.54	38.47	-51.7	-68.9	3.5	3.02e+01	0	41	104	0	60	107764
2026-01-25 17:03:25.26	358.48	39.52	-47.9	-59.8	3.5	3.02e+01	0	41	104	0	60	37460
2026-01-25 17:03:29.30	357.33	40.59	-49.2	-62.1	3.5	3.02e+01	0	41	104	0	60	48914
2026-01-25 17:03:33.34	356.11	41.69	-43.0	-53.7	3.6	3.02e+01	0	41	104	0	60	18645
2026-01-25 17:03:37.37	354.80	42.80	-51.2	-67.3	3.6	3.02e+01	0	41	104	0	60	89211
2026-01-25 17:03:41.42	353.38	43.94	-43.9	-54.5	3.5	3.02e+01	0	41	104	0	60	20508
2026-01-25 17:03:45.45	351.86	45.08	-51.2	-67.3	3.5	3.02e+01	0	41	104	0	60	89484
2026-01-25 17:03:49.49	350.23	46.24	-51.7	-69.4	3.5	3.02e+01	0	41	104	0	60	113590
2026-01-25 17:03:53.53	348.46	47.40	-50.7	-65.3	3.5	3.02e+01	0	41	104	0	60	70743
2026-01-25 17:03:57.57	346.55	48.57	-43.4	-53.9	3.5	3.02e+01	0	41	104	0	60	19018
2026-01-25 17:04:01.60	344.50	49.73	-45.7	-56.8	3.6	3.02e+01	0	41	104	0	60	26607
2026-01-25 17:04:05.64	342.28	50.88	-44.5	-55.3	3.5	3.02e+01	0	41	104	0	58	25037
2026-01-25 17:04:09.68	339.88	52.01	-50.3	-64.8	3.5	3.02e+01	0	41	104	0	60	67216
2026-01-25 17:04:13.71	337.29	53.11	-51.3	-68.2	3.5	3.02e+01	0	41	104	0	60	98819
2026-01-25 17:04:17.75	334.50	54.17	-40.2	-50.5	3.5	3.02e+01	0	41	104	0	60	12884
2026-01-25 17:04:21.79	331.49	55.18	-40.7	-51.0	3.5	3.02e+01	0	41	104	0	56	17265
2026-01-25 17:04:25.83	328.26	56.13	-39.8	-50.0	3.6	3.02e+01	0	41	104	0	56	15269
2026-01-25 17:04:29.86	324.83	56.99	-41.0	-51.3	5.2	3.02e+01	0	41	104	0	58	15940
2026-01-25 17:04:33.90	321.17	57.77	-45.5	-47.6	21.2	3.02e+01	57	41	0	2621440	60	9262
2026-01-25 17:04:37.94	317.31	58.43	-44.5	-46.4	22.6	3.02e+01	60	41	0	9961472	60	8015
2026-01-25 17:04:41.98	313.26	58.98	-43.5	-45.2	23.9	3.02e+01	62	41	0	17825792	60	7038
2026-01-25 17:04:46.01	309.07	59.39	-43.7	-45.5	23.4	3.02e+01	59	41	0	25165824	60	7273
2026-01-25 17:04:50.04	304.77	59.67	-41.1	-42.6	26.2	3.02e+01	60	41	0	32505856	56	6523
2026-01-25 17:04:54.08	300.39	59.79	-39.5	-40.9	27.6	3.02e+01	59	41	0	40370176	54	6006
2026-01-25 17:04:58.12	296.00	59.76	-39.3	-40.5	28.1	3.02e+01	57	41	0	47710208	54	5778
2026-01-25 17:05:02.16	291.64	59.59	-40.6	-42.0	26.6	3.02e+01	46	41	0	55574528	54	6840
2026-01-25 17:05:06.20	287.36	59.26	-40.2	-41.6	27.2	3.02e+01	61	41	0	62914560	54	6512
2026-01-25 17:05:10.23	283.22	58.80	-40.1	-41.4	27.5	3.02e+01	44	41	0	70778880	56	5676
2026-01-25 17:05:14.27	279.23	58.21	-39.5	-40.8	27.8	3.02e+01	60	41	0	78118912	54	5970
2026-01-25 17:05:18.31	275.44	57.50	-39.0	-40.3	28.2	3.02e+01	55	41	0	85983232	52	6297
2026-01-25 17:05:22.34	271.86	56.69	-38.5	-39.7	28.8	3.02e+01	56	41	0	93323264	52	5899
2026-01-25 17:05:26.38	268.49	55.80	-38.0	-39.1	28.9	3.02e+01	49	41	0	100663296	50	6197
2026-01-25 17:05:30.42	265.33	54.82	-38.0	-39.2	29.1	3.02e+01	58	41	0	108527616	50	6254
2026-01-25 17:05:34.46	262.40	53.79	-37.1	-38.3	29.9	3.02e+01	56	41	0	115867648	48	6289
2026-01-25 17:05:38.49	259.68	52.71	-37.7	-39.0	29.6	3.02e+01	59	41	0	123731968	50	6065
2026-01-25 17:05:42.53	257.15	51.60	-37.1	-38.3	29.8	3.02e+01	47	41	0	131072000	50	5626
2026-01-25 17:05:46.57	254.81	50.46	-37.2	-38.4	29.9	3.02e+01	59	41	0	138936320	48	6395
2026-01-25 17:05:50.60	252.65	49.30	-37.5	-38.7	29.4	3.02e+01	45	41	0	146276352	48	6636
2026-01-25 17:05:54.64	250.64	48.13	-37.4	-38.5	29.6	3.02e+01	57	41	0	153616384	50	5774
2026-01-25 17:05:58.68	248.79	46.96	-37.6	-38.8	29.5	3.02e+01	45	41	0	161480704	50	5977
2026-01-25 17:06:02.72	247.06	45.80	-37.4	-38.6	29.7	3.02e+01	59	41	0	168820736	50	5798
2026-01-25 17:06:06.75	245.47	44.64	-37.7	-38.9	29.4	3.02e+01	49	41	0	176685056	50	6019
2026-01-25 17:06:10.79	243.99	43.50	-38.5	-39.7	28.8	3.02e+01	59	41	0	184025088	50	6628
2026-01-25 17:06:14.83	242.61	42.37	-38.4	-39.6	28.9	3.02e+01	62	41	0	191889408	50	6559
2026-01-25 17:06:18.86	241.33	41.26	-39.1	-40.4	28.2	3.02e+01	60	41	0	199229440	52	6384
2026-01-25 17:06:22.90	240.13	40.16	-39.7	-41.0	27.5	3.02e+01	57	41	0	206569472	52	6851
2026-01-25 17:06:26.93	239.01	39.10	-40.3	-41.7	26.9	3.02e+01	59	41	0	214433792	54	6614
2026-01-25 17:06:30.97	237.97	38.05	-39.6	-40.9	27.7	3.02e+01	62	40	0	221773824	54	6020
2026-01-25 17:06:35.00	236.99	37.03	-40.2	-41.6	27.0	3.02e+01	51	41	0	229638144	54	6524
2026-01-25 17:06:39.04	236.07	36.03	-39.2	-40.5	28.0	3.02e+01	59	41	0	236978176	52	6443
2026-01-25 17:06:43.08	235.21	35.05	-38.8	-40.1	28.4	3.02e+01	58	41	0	244842496	52	6167
2026-01-25 17:06:47.12	234.39	34.10	-38.8	-40.0	28.4	3.02e+01	57	41	0	252182528	52	6125
2026-01-25 17:06:51.15	233.63	33.17	-38.0	-39.2	29.1	3.02e+01	58	41	0	259522560	52	5561
2026-01-25 17:06:55.19	232.91	32.27	-37.6	-38.8	29.4	3.02e+01	59	41	0	267386880	50	5963
2026-01-25 17:06:59.22	232.23	31.39	-37.6	-38.8	29.4	3.02e+01	56	41	0	274726912	50	5956
2026-01-25 17:07:03.26	231.59	30.54	-37.0	-38.1	30.0	3.02e+01	60	41	0	282591232	50	5523
2026-01-25 17:07:07.30	230.98	29.70	-37.4	-38.6	29.7	3.02e+01	59	41	0	289931264	50	5798
2026-01-25 17:07:11.34	230.40	28.89	-37.3	-38.4	29.7	3.02e+01	59	41	0	297795584	50	5725
2026-01-25 17:07:15.37	229.85	28.10	-37.5	-38.7	29.5	3.02e+01	61	41	0	305135616	50	5910
2026-01-25 17:07:19.41	229.33	27.33	-37.6	-38.8	29.4	3.02e+01	59	41	0	312999936	50	5931
2026-01-25 17:07:23.45	228.84	26.58	-37.6	-38.8	29.4	3.02e+01	59	41	0	320339968	50	5936
2026-01-25 17:07:27.49	228.37	25.85	-37.9	-39.1	29.1	3.02e+01	56	41	0	327680000	50	6153
2026-01-25 17:07:31.53	227.92	25.14	-38.4	-39.6	28.7	3.02e+01	51	41	0	335544320	50	6537
2026-01-25 17:07:35.57	227.49	24.45	-37.9	-39.2	29.0	3.02e+01	60	41	0	342884352	50	6211
2026-01-25 17:07:39.61	227.08	23.77	-37.9	-39.2	29.0	3.02e+01	59	41	0	350748672	50	6213
2026-01-25 17:07:43.64	226.69	23.11	-38.1	-39.3	28.9	3.02e+01	62	41	0	358088704	50	6317
2026-01-25 17:07:47.68	226.32	22.47	-38.1	-39.3	28.8	3.02e+01	46	41	0	365953024	50	6305
2026-01-25 17:07:51.72	225.96	21.85	-38.1	-39.4	28.7	3.02e+01	59	41	0	373293056	50	6362
2026-01-25 17:07:55.75	225.62	21.24	-37.9	-39.1	29.0	3.02e+01	48	41	0	380633088	50	6158
2026-01-25 17:07:59.79	225.29	20.64	-37.9	-39.1	29.0	3.02e+01	60	41	0	388497408	50	6179
2026-01-25 17:08:03.83	224.98	20.06	-38.0	-39.2	29.0	3.02e+01	51	41	0	395837440	50	6246
2026-01-25 17:08:07.87	224.68	19.49	-38.1	-39.3	28.8	3.02e+01	59	41	0	403701760	50	6326
2026-01-25 17:08:11.91	224.39	18.94	-37.9	-39.2	28.9	3.02e+01	46	41	0	411041792	50	6208
2026-01-25 17:08:15.95	224.11	18.39	-37.7	-39.0	29.1	3.02e+01	60	41	0	418906112	50	6065
2026-01-25 17:08:19.98	223.84	17.86	-38.1	-39.3	28.8	3.02e+01	54	41	0	426246144	50	6324
2026-01-25 17:08:24.02	223.59	17.34	-38.1	-39.3	28.7	3.02e+01	58	41	0	434110464	50	6315
2026-01-25 17:08:28.06	223.34	16.84	-38.1	-39.3	28.7	3.02e+01	52	41	0	441450496	50	6318
2026-01-25 17:08:32.10	223.10	16.34	-37.7	-38.9	29.1	3.02e+01	61	41	0	448790528	50	6064
2026-01-25 17:08:36.13	222.87	15.86	-37.7	-38.9	29.1	3.02e+01	60	41	0	456654848	50	6023
2026-01-25 17:08:40.17	222.65	15.38	-37.8	-39.0	29.1	3.02e+01	59	41	0	463994880	50	6079
2026-01-25 17:08:44.21	222.43	14.91	-38.0	-39.2	28.8	3.02e+01	59	41	0	471859200	50	6235
2026-01-25 17:08:48.25	222.22	14.45	-38.4	-39.6	28.5	3.02e+01	57	41	0	479199232	50	6564
2026-01-25 17:08:52.28	222.02	14.01	-37.7	-39.0	29.0	3.02e+01	60	41	0	487063552	50	6070
2026-01-25 17:08:56.32	221.83	13.57	-37.8	-39.0	29.0	3.02e+01	61	41	0	494403584	50	6085
2026-01-25 17:09:00.36	221.64	13.14	-38.0	-39.2	28.7	3.02e+01	59	41	0	502267904	50	6273
2026-01-25 17:09:04.40	221.46	12.71	-38.0	-39.2	28.7	3.02e+01	64	41	0	509607936	50	6242
2026-01-25 17:09:08.44	221.29	12.30	-38.1	-39.4	28.5	3.02e+01	59	41	0	516947968	50	6391
2026-01-25 17:09:12.47	221.12	11.89	-38.1	-39.4	28.4	3.02e+01	58	41	0	524812288	50	6374
2026-01-25 17:09:16.50	220.95	11.49	-38.2	-39.4	28.4	3.02e+01	61	41	0	532152320	50	6390
2026-01-25 17:09:20.54	220.79	11.10	-38.2	-39.5	28.4	3.02e+01	59	41	0	540016640	50	6447
2026-01-25 17:09:24.58	220.64	10.71	-38.3	-39.5	28.3	3.02e+01	59	41	0	547356672	50	6491
2026-01-25 17:09:28.62	220.49	10.33	-38.4	-39.6	28.2	3.02e+01	58	41	0	555220992	50	6569
2026-01-25 17:09:32.65	220.34	9.95	-38.5	-39.7	28.1	3.02e+01	59	41	0	562561024	50	6646
2026-01-25 17:09:36.69	220.20	9.59	-39.1	-40.4	27.5	3.02e+01	57	41	0	570425344	52	6416
2026-01-25 17:09:40.73	220.07	9.22	-38.6	-39.9	27.8	3.02e+01	59	41	0	577765376	52	6042
2026-01-25 17:09:44.76	219.93	8.87	-38.7	-39.9	27.8	3.02e+01	47	41	0	585105408	52	6062
2026-01-25 17:09:48.80	219.80	8.51	-38.8	-40.1	27.7	3.02e+01	59	41	0	592969728	52	6156
2026-01-25 17:09:52.84	219.68	8.17	-39.3	-40.6	27.1	3.02e+01	50	41	0	600309760	52	6530
2026-01-25 17:09:56.87	219.56	7.83	-38.9	-40.2	27.5	3.02e+01	58	41	0	608174080	52	6267
2026-01-25 17:10:00.91	219.44	7.49	-39.2	-40.5	27.4	3.02e+01	50	41	0	615514112	52	6476
2026-01-25 17:10:04.94	219.32	7.16	-38.8	-40.1	27.6	3.02e+01	57	41	0	623378432	52	6141
2026-01-25 17:10:08.98	219.21	6.83	-39.1	-40.4	27.3	3.02e+01	60	41	0	630718464	52	6398
2026-01-25 17:10:13.01	219.10	6.51	-39.3	-40.7	27.0	3.02e+01	57	41	0	638058496	52	6591
2026-01-25 17:10:17.05	218.99	6.19	-39.7	-41.1	26.5	3.02e+01	52	41	0	645922816	52	6947
2026-01-25 17:10:21.09	218.89	5.88	-39.5	-40.8	26.7	3.02e+01	60	41	0	653262848	52	6725
2026-01-25 17:10:25.12	218.79	5.57	-39.9	-41.3	26.2	3.02e+01	52	41	0	661127168	54	6315
2026-01-25 17:10:29.16	218.69	5.26	-40.7	-42.2	25.1	3.02e+01	58	41	0	668467200	56	6268
2026-01-25 17:10:33.19	218.59	4.96	-40.6	-42.1	25.6	3.02e+01	45	41	0	676331520	54	6937
2026-01-25 17:10:37.23	218.50	4.66	-39.4	-40.8	26.5	3.02e+01	52	41	0	683671552	54	5961
2026-01-25 17:10:41.27	218.41	4.37	-39.9	-41.3	26.1	3.02e+01	44	41	0	691535872	54	6330
2026-01-25 17:10:45.30	218.32	4.08	-39.7	-41.2	26.1	3.02e+01	59	41	0	698875904	54	6228
2026-01-25 17:10:49.34	218.23	3.79	-39.6	-41.0	26.1	3.02e+01	52	41	0	706215936	54	6128
2026-01-25 17:10:53.37	218.15	3.51	-40.4	-41.9	25.4	3.02e+01	58	41	0	714080256	54	6802
2026-01-25 17:10:57.41	218.07	3.22	-40.0	-41.5	25.6	3.02e+01	56	41	0	721420288	56	5789
2026-01-25 17:11:01.44	217.99	2.95	-49.3	-68.0	3.5	3.02e+01	0	41	104	727187456	60	96709
2026-01-25 17:11:05.49	217.91	2.67	-51.2	-69.0	3.5	3.02e+01	0	41	104	727187456	60	108314
2026-01-25 17:11:09.52	217.83	2.40	-51.4	-69.2	3.5	3.02e+01	0	41	104	727187456	60	110736
2026-01-25 17:11:13.56	217.75	2.13	-51.4	-69.2	3.5	3.02e+01	0	41	104	727187456	60	111212
2026-01-25 17:11:17.59	217.68	1.86	-51.2	-69.2	3.5	3.02e+01	0	41	104	727187456	60	110395
2026-01-25 17:11:21.63	217.61	1.60	-51.3	-69.2	3.5	3.02e+01	0	41	104	727187456	60	110369
2026-01-25 17:11:25.67	217.54	1.34	-51.3	-69.2	3.5	3.02e+01	0	41	104	727187456	60	110783
2026-01-25 17:11:29.71	217.47	1.08	-51.3	-69.1	3.5	3.02e+01	0	41	104	727187456	60	110144
2026-01-25 17:11:33.75	217.40	0.82	-51.3	-69.2	3.5	3.02e+01	0	41	104	727187456	60	110439
2026-01-25 17:11:37.79	217.34	0.56	-51.3	-69.1	3.5	3.02e+01	0	41	104	727187456	60	110015
2026-01-25 17:11:41.83	217.27	0.31	-51.3	-69.1	3.5	3.02e+01	0	41	104	727187456	60	109955
2026-01-25 17:11:45.87	217.21	0.06	-51.3	-69.1	3.5	3.02e+01	0	41	104	727187456	60	110173

#Closed at: 2026-01-25 17:11:48
#Recorded file [727 MB]: D:/lorett/data/35029_260126_045802.dat