passes_logs/2026/01/25/R4.6S_Anadyr/R4.6S_Anadyr__20260125_142732_NOAA_21_JPSS-2_rec.log

#Pass ID: 20260125_142732_NOAA 21 (JPSS-2)
#Satellite: NOAA 21 (JPSS-2)
#Configuration: NOAA-21
#almurnet v.1.7.20251203
#Start time: 2026-01-25 14:27:35

#Version: 2.2.20231116
#Station: R4.6S_Anadyr
#Location: 177.4865 lon 64.73178 lat
#TLE: 1 54234U 22150A   26024.88063640  .00000198  00000+0  11499-3 0  9991
#TLE: 2 54234  98.7509 325.6613 0000743 218.4833 141.6291 14.19538975166219

#Time	Az	El	Level	Level2	SNR	BER	BlckErr	Temp	State	Recorded	gain1	gain2
2026-01-25 14:27:35.37	20.00	0.15	-50.5	-62.2	3.4	8.45e-01	0	39	0	0	60	46725
2026-01-25 14:27:39.41	20.05	0.40	-50.6	-63.5	3.5	1.52e+00	0	41	104	0	60	52687
2026-01-25 14:27:43.45	20.10	0.64	-50.7	-63.6	3.5	1.52e+00	0	41	104	0	60	52846
2026-01-25 14:27:47.49	20.15	0.89	-50.6	-63.5	3.5	1.52e+00	0	41	104	0	60	52363
2026-01-25 14:27:51.53	20.20	1.13	-50.4	-63.3	3.5	1.52e+00	0	41	104	0	60	51079
2026-01-25 14:27:55.57	20.26	1.38	-50.0	-62.9	3.5	1.52e+00	0	41	104	0	60	48935
2026-01-25 14:27:59.61	20.31	1.64	-49.2	-61.9	3.5	1.52e+00	0	41	104	0	60	43715
2026-01-25 14:28:03.65	20.36	1.89	-49.2	-62.0	3.5	1.52e+00	0	41	104	0	60	44237
2026-01-25 14:28:07.69	20.41	2.15	-49.2	-62.1	3.5	1.52e+00	0	41	104	0	60	44576
2026-01-25 14:28:11.72	20.47	2.40	-49.2	-61.6	3.5	1.52e+00	0	41	104	0	60	42430
2026-01-25 14:28:15.76	20.52	2.66	-49.0	-59.7	3.5	1.50e+00	0	41	104	0	60	33773
2026-01-25 14:28:19.80	20.58	2.93	-48.7	-57.6	4.7	1.25e+00	123	41	104	0	60	26612
2026-01-25 14:28:23.84	20.63	3.19	-45.2	-47.9	13.5	7.60e-06	122	41	0	9437184	60	8682
2026-01-25 14:28:27.87	20.69	3.46	-42.8	-44.5	16.9	0.00e+00	123	41	0	22020096	58	6590
2026-01-25 14:28:31.91	20.75	3.73	-43.2	-45.1	16.2	0.00e+00	122	41	0	34603008	58	7084
2026-01-25 14:28:35.95	20.80	4.01	-49.1	-60.3	3.5	2.17e-02	0	41	104	46137344	60	36519
2026-01-25 14:28:39.99	20.86	4.28	-42.9	-44.6	16.9	0.00e+00	123	41	0	49283072	58	6675
2026-01-25 14:28:44.03	20.92	4.56	-42.8	-44.5	16.7	0.00e+00	123	41	0	61865984	58	6647
2026-01-25 14:28:48.06	20.98	4.85	-41.3	-42.7	18.4	0.00e+00	123	41	0	74448896	56	5998
2026-01-25 14:28:52.10	21.04	5.13	-41.7	-43.1	18.4	0.00e+00	123	41	0	87031808	56	6319
2026-01-25 14:28:56.14	21.10	5.42	-41.9	-43.3	18.4	0.00e+00	123	41	0	99614720	56	6471
2026-01-25 14:29:00.18	21.17	5.71	-39.4	-40.5	20.9	0.00e+00	123	41	0	112197632	52	5925
2026-01-25 14:29:04.22	21.23	6.01	-39.1	-40.2	21.0	0.00e+00	122	41	0	124780544	52	5686
2026-01-25 14:29:08.25	21.30	6.30	-39.9	-41.1	20.3	0.00e+00	121	41	0	137363456	50	7087
2026-01-25 14:29:12.29	21.36	6.61	-38.5	-39.5	21.8	0.00e+00	120	42	0	149946368	50	5912
2026-01-25 14:29:16.33	21.43	6.91	-38.7	-39.7	21.6	0.00e+00	122	41	0	162529280	50	6058
2026-01-25 14:29:20.37	21.49	7.22	-39.0	-40.1	21.3	0.00e+00	123	42	0	175112192	50	6291
2026-01-25 14:29:24.41	21.56	7.53	-38.7	-39.8	21.6	0.00e+00	123	41	0	187695104	50	6087
2026-01-25 14:29:28.44	21.63	7.85	-38.5	-39.6	21.8	0.00e+00	123	42	0	200278016	48	6661
2026-01-25 14:29:32.48	21.70	8.17	-38.3	-39.3	22.1	0.00e+00	122	41	0	212860928	50	5753
2026-01-25 14:29:36.51	21.78	8.49	-38.3	-39.3	22.1	0.00e+00	123	42	0	225443840	50	5765
2026-01-25 14:29:40.55	21.85	8.82	-38.0	-39.0	22.3	0.00e+00	122	42	0	238026752	48	6236
2026-01-25 14:29:44.59	21.92	9.16	-37.9	-38.9	22.5	0.00e+00	123	42	0	250609664	48	6171
2026-01-25 14:29:48.63	22.00	9.50	-37.7	-38.6	22.7	0.00e+00	120	42	0	263192576	48	5987
2026-01-25 14:29:52.67	22.08	9.84	-37.4	-38.4	23.0	0.00e+00	121	42	0	275775488	48	5820
2026-01-25 14:29:56.71	22.15	10.19	-37.8	-38.8	22.5	0.00e+00	123	41	0	288358400	48	6101
2026-01-25 14:30:00.75	22.23	10.54	-37.6	-38.6	22.7	0.00e+00	123	42	0	300941312	48	5965
2026-01-25 14:30:04.79	22.32	10.90	-37.6	-38.6	22.9	0.00e+00	120	42	0	313524224	48	5928
2026-01-25 14:30:08.83	22.40	11.26	-37.3	-38.3	23.0	0.00e+00	123	42	0	326107136	48	5754
2026-01-25 14:30:12.87	22.48	11.63	-37.3	-38.3	23.0	0.00e+00	123	42	0	339738624	48	5764
2026-01-25 14:30:16.91	22.57	12.00	-37.1	-38.1	23.2	0.00e+00	122	42	0	352321536	48	5601
2026-01-25 14:30:20.94	22.66	12.38	-37.0	-38.0	23.3	0.00e+00	123	42	0	364904448	48	5535
2026-01-25 14:30:24.98	22.75	12.76	-37.4	-38.3	23.0	0.00e+00	123	42	0	377487360	48	5786
2026-01-25 14:30:29.02	22.84	13.15	-36.8	-37.7	23.6	0.00e+00	122	42	0	390070272	48	5358
2026-01-25 14:30:33.06	22.94	13.55	-36.9	-37.8	23.5	0.00e+00	122	42	0	402653184	46	6103
2026-01-25 14:30:37.09	23.03	13.96	-36.9	-37.8	23.5	0.00e+00	122	42	0	415236096	46	6113
2026-01-25 14:30:41.12	23.13	14.37	-36.7	-37.7	23.6	0.00e+00	122	42	0	427819008	46	6007
2026-01-25 14:30:45.16	23.23	14.78	-36.6	-37.5	23.8	0.00e+00	123	42	0	440401920	46	5903
2026-01-25 14:30:49.20	23.33	15.21	-36.5	-37.4	23.9	0.00e+00	122	42	0	452984832	46	5809
2026-01-25 14:30:53.24	23.44	15.64	-36.7	-37.6	23.7	0.00e+00	122	42	0	465567744	46	5960
2026-01-25 14:30:57.28	23.55	16.08	-36.4	-37.3	24.0	0.00e+00	122	42	0	478150656	46	5740
2026-01-25 14:31:01.32	23.66	16.53	-36.4	-37.3	24.1	0.00e+00	122	42	0	490733568	46	5747
2026-01-25 14:31:05.36	23.77	16.99	-36.3	-37.2	24.1	0.00e+00	123	42	0	503316480	46	5679
2026-01-25 14:31:09.40	23.89	17.46	-36.3	-37.2	24.1	0.00e+00	123	42	0	515899392	46	5666
2026-01-25 14:31:13.44	24.01	17.93	-36.2	-37.1	24.1	0.00e+00	123	42	0	528482304	46	5654
2026-01-25 14:31:17.47	24.13	18.41	-36.4	-37.3	24.0	0.00e+00	122	42	0	541065216	46	5759
2026-01-25 14:31:21.51	24.26	18.91	-36.4	-37.3	24.1	0.00e+00	122	42	0	553648128	46	5748
2026-01-25 14:31:25.55	24.39	19.41	-36.4	-37.4	24.0	0.00e+00	122	42	0	566231040	46	5796
2026-01-25 14:31:29.59	24.52	19.92	-36.3	-37.2	24.1	0.00e+00	123	42	0	578813952	46	5718
2026-01-25 14:31:33.63	24.66	20.45	-36.3	-37.2	24.1	0.00e+00	123	42	0	591396864	46	5660
2026-01-25 14:31:37.66	24.80	20.98	-35.9	-36.8	24.4	0.00e+00	122	42	0	603979776	46	5437
2026-01-25 14:31:41.70	24.95	21.53	-35.6	-36.5	24.5	0.00e+00	123	42	0	616562688	44	5896
2026-01-25 14:31:45.74	25.10	22.09	-35.3	-36.2	24.8	0.00e+00	122	42	0	629145600	44	5674
2026-01-25 14:31:49.78	25.26	22.66	-35.1	-36.0	24.9	0.00e+00	123	42	0	641728512	44	5545
2026-01-25 14:31:53.82	25.42	23.25	-34.9	-35.8	25.2	0.00e+00	122	42	0	654311424	44	5421
2026-01-25 14:31:57.87	25.58	23.85	-35.0	-35.9	25.1	0.00e+00	123	42	0	666894336	44	5505
2026-01-25 14:32:01.91	25.76	24.46	-35.0	-35.8	25.1	0.00e+00	123	42	0	680525824	44	5451
2026-01-25 14:32:05.95	25.94	25.08	-35.1	-36.0	25.1	0.00e+00	122	42	0	693108736	44	5555
2026-01-25 14:32:09.99	26.12	25.73	-35.4	-36.2	24.9	0.00e+00	120	42	0	704643072	44	5719
2026-01-25 14:32:14.02	26.32	26.38	-36.0	-36.9	24.4	0.00e+00	123	42	0	718274560	44	6185
2026-01-25 14:32:18.06	26.52	27.05	-36.3	-37.2	24.1	0.00e+00	123	42	0	730857472	44	6394
2026-01-25 14:32:22.10	26.72	27.74	-36.8	-37.7	23.8	0.00e+00	120	42	0	743440384	44	6753
2026-01-25 14:32:26.13	26.94	28.45	-36.4	-37.3	24.2	0.00e+00	123	42	0	756023296	46	5768
2026-01-25 14:32:30.17	27.17	29.18	-36.5	-37.4	23.8	0.00e+00	123	42	0	768606208	46	5845
2026-01-25 14:32:34.21	27.40	29.92	-36.2	-37.1	24.0	0.00e+00	122	42	0	781189120	46	5598
2026-01-25 14:32:38.25	27.65	30.68	-36.2	-37.1	24.0	0.00e+00	123	42	0	793772032	46	5624
2026-01-25 14:32:42.28	27.91	31.46	-36.1	-37.0	23.9	0.00e+00	123	42	0	806354944	46	5569
2026-01-25 14:32:46.32	28.18	32.27	-36.2	-37.1	23.9	0.00e+00	122	42	0	818937856	46	5644
2026-01-25 14:32:50.36	28.46	33.10	-36.5	-37.4	23.9	0.00e+00	123	42	0	831520768	46	5846
2026-01-25 14:32:54.39	28.75	33.94	-36.9	-37.9	23.7	0.00e+00	122	42	0	844103680	46	6135
2026-01-25 14:32:58.43	29.07	34.81	-37.5	-38.4	23.3	0.00e+00	122	42	0	856686592	46	6562
2026-01-25 14:33:02.47	29.40	35.71	-38.2	-39.2	22.6	0.00e+00	122	42	0	869269504	48	6376
2026-01-25 14:33:06.51	29.74	36.63	-39.1	-40.2	21.8	0.00e+00	122	42	0	881852416	50	6383
2026-01-25 14:33:10.55	30.11	37.58	-39.4	-40.5	21.6	0.00e+00	123	42	0	894435328	50	6625
2026-01-25 14:33:14.58	30.49	38.55	-39.2	-40.3	21.8	0.00e+00	123	42	0	907018240	50	6430
2026-01-25 14:33:18.62	30.90	39.55	-38.5	-39.5	22.5	0.00e+00	123	42	0	919601152	50	5923
2026-01-25 14:33:22.66	31.34	40.58	-38.6	-39.6	22.3	0.00e+00	122	42	0	932184064	50	5991
2026-01-25 14:33:26.70	31.80	41.64	-38.5	-39.5	22.4	0.00e+00	122	42	0	944766976	50	5908
2026-01-25 14:33:30.73	32.29	42.72	-38.1	-39.0	22.8	0.00e+00	123	42	0	957349888	50	5575
2026-01-25 14:33:34.77	32.82	43.84	-38.2	-39.2	22.5	0.00e+00	122	42	0	969932800	50	5713
2026-01-25 14:33:38.81	33.38	44.98	-38.2	-39.2	22.7	0.00e+00	123	42	0	982515712	50	5693
2026-01-25 14:33:42.84	33.99	46.16	-38.2	-39.2	22.7	0.00e+00	120	42	0	995098624	50	5692
2026-01-25 14:33:46.89	34.64	47.37	-37.9	-38.9	22.9	0.00e+00	122	42	0	1007681536	50	5498
2026-01-25 14:33:50.92	35.35	48.61	-38.3	-39.3	22.5	0.00e+00	123	42	0	1020264448	48	6466
2026-01-25 14:33:54.96	36.11	49.88	-38.5	-39.6	22.2	0.00e+00	122	42	0	1032847360	48	6699
2026-01-25 14:33:59.00	36.94	51.18	-38.6	-39.6	22.3	0.00e+00	122	42	0	1045430272	50	5975
2026-01-25 14:34:03.03	37.84	52.52	-37.8	-38.8	23.0	0.00e+00	123	42	0	1058013184	48	6106
2026-01-25 14:34:07.07	38.83	53.88	-36.8	-37.8	23.9	0.00e+00	122	42	0	1070596096	48	5410
2026-01-25 14:34:11.10	39.91	55.27	-35.5	-36.3	25.0	0.00e+00	123	42	0	1084227584	44	5787
2026-01-25 14:34:15.14	41.11	56.68	-35.4	-36.3	24.6	0.00e+00	121	42	0	1096810496	44	5770
2026-01-25 14:34:19.18	42.44	58.13	-35.4	-36.3	24.9	0.00e+00	122	42	0	1109393408	44	5743
2026-01-25 14:34:23.22	43.92	59.59	-34.8	-35.7	25.3	0.00e+00	123	42	0	1121976320	44	5353
2026-01-25 14:34:27.26	45.57	61.06	-34.4	-35.2	25.6	0.00e+00	122	42	0	1134559232	42	5706
2026-01-25 14:34:31.29	47.43	62.55	-34.0	-34.8	25.8	0.00e+00	120	42	0	1147142144	42	5423
2026-01-25 14:34:35.33	49.53	64.04	-34.4	-35.3	25.5	0.00e+00	122	42	0	1159725056	40	6441
2026-01-25 14:34:39.36	51.91	65.53	-34.6	-35.5	25.3	0.00e+00	123	42	0	1172307968	40	6607
2026-01-25 14:34:43.40	54.64	67.00	-34.5	-35.4	25.4	0.00e+00	122	42	0	1184890880	42	5802
2026-01-25 14:34:47.44	57.77	68.45	-34.8	-35.7	24.6	0.00e+00	122	42	0	1197473792	42	6023
2026-01-25 14:34:51.47	61.38	69.84	-34.8	-35.7	25.0	0.00e+00	123	42	0	1210056704	42	6034
2026-01-25 14:34:55.51	65.55	71.18	-34.3	-35.2	25.4	0.00e+00	120	42	0	1222639616	42	5671
2026-01-25 14:34:59.54	70.37	72.41	-34.6	-35.5	24.9	0.00e+00	122	42	0	1235222528	42	5876
2026-01-25 14:35:03.58	75.92	73.53	-34.5	-35.3	25.3	0.00e+00	120	42	0	1247805440	42	5777
2026-01-25 14:35:07.62	82.27	74.49	-35.0	-35.9	25.1	0.00e+00	123	42	0	1260388352	42	6147
2026-01-25 14:35:11.66	89.38	75.25	-35.2	-36.0	25.0	0.00e+00	122	42	0	1272971264	42	6276
2026-01-25 14:35:15.69	97.15	75.78	-34.6	-35.4	25.4	0.00e+00	120	42	0	1285554176	42	5826
2026-01-25 14:35:19.73	105.40	76.03	-34.4	-35.2	25.6	0.00e+00	123	42	0	1298137088	42	5716
2026-01-25 14:35:23.77	113.78	76.00	-34.3	-35.1	25.3	0.00e+00	123	42	0	1310720000	42	5631
2026-01-25 14:35:27.80	121.93	75.69	-35.1	-36.0	25.2	0.00e+00	122	42	0	1323302912	42	6219
2026-01-25 14:35:31.84	129.60	75.12	-34.7	-35.6	25.3	0.00e+00	123	42	0	1335885824	42	5959
2026-01-25 14:35:35.88	136.57	74.31	-35.1	-36.0	25.1	0.00e+00	123	42	0	1348468736	42	6269
2026-01-25 14:35:39.91	142.74	73.32	-34.2	-35.0	25.6	0.00e+00	121	42	0	1361051648	42	5594
2026-01-25 14:35:43.95	148.15	72.17	-34.7	-35.6	25.3	0.00e+00	122	42	0	1373634560	42	5943
2026-01-25 14:35:47.98	152.83	70.91	-34.6	-35.4	25.4	0.00e+00	123	42	0	1386217472	42	5850
2026-01-25 14:35:52.02	156.89	69.56	-35.2	-36.1	25.1	0.00e+00	120	42	0	1398800384	42	6290
2026-01-25 14:35:56.06	160.40	68.14	-34.4	-35.3	25.5	0.00e+00	123	42	0	1411383296	42	5726
2026-01-25 14:36:00.10	163.45	66.69	-35.1	-36.0	25.1	0.00e+00	123	42	0	1423966208	42	6246
2026-01-25 14:36:04.14	166.11	65.21	-34.2	-35.0	25.7	0.00e+00	121	42	0	1436549120	42	5584
2026-01-25 14:36:08.17	168.43	63.72	-34.7	-35.6	24.9	0.00e+00	120	42	0	1449132032	42	5940
2026-01-25 14:36:12.21	170.48	62.22	-35.3	-36.2	25.0	0.00e+00	120	42	0	1461714944	42	6353
2026-01-25 14:36:16.25	172.29	60.73	-35.6	-36.5	24.4	0.00e+00	122	42	0	1475346432	44	5889
2026-01-25 14:36:20.29	173.91	59.25	-35.1	-35.9	25.0	0.00e+00	120	42	0	1486880768	42	6189
2026-01-25 14:36:24.32	175.35	57.79	-36.1	-37.1	24.0	0.00e+00	122	42	0	1500512256	44	6312
2026-01-25 14:36:28.36	176.65	56.35	-36.2	-37.2	24.0	0.00e+00	123	42	0	1513095168	44	6356
2026-01-25 14:36:32.40	177.82	54.93	-37.0	-37.9	23.6	0.00e+00	123	42	0	1525678080	46	6165
2026-01-25 14:36:36.43	178.89	53.55	-36.3	-37.2	23.9	0.00e+00	123	42	0	1538260992	46	5704
2026-01-25 14:36:40.47	179.86	52.18	-37.2	-38.1	23.5	0.00e+00	122	42	0	1550843904	48	5643
2026-01-25 14:36:44.51	180.74	50.85	-38.1	-39.2	22.7	0.00e+00	123	42	0	1563426816	48	6360
2026-01-25 14:36:48.54	181.56	49.55	-37.6	-38.6	23.2	0.00e+00	123	42	0	1576009728	48	5934
2026-01-25 14:36:52.55	182.30	48.29	-38.0	-38.9	22.8	0.00e+00	122	42	0	1588592640	50	5529
2026-01-25 14:36:56.58	182.99	47.06	-37.7	-38.6	23.1	0.00e+00	122	42	0	1601175552	48	5988
2026-01-25 14:37:00.62	183.64	45.85	-38.2	-39.2	22.5	0.00e+00	122	42	0	1613758464	50	5703
2026-01-25 14:37:04.66	184.23	44.67	-39.2	-40.3	21.7	0.00e+00	123	42	0	1626341376	50	6466
2026-01-25 14:37:08.70	184.79	43.53	-38.9	-40.1	20.9	0.00e+00	123	43	0	1638924288	50	6316
2026-01-25 14:37:12.74	185.31	42.41	-37.8	-38.7	23.1	0.00e+00	120	42	0	1651507200	50	5370
2026-01-25 14:37:16.77	185.79	41.33	-38.1	-39.1	22.8	0.00e+00	123	42	0	1664090112	50	5608
2026-01-25 14:37:20.80	186.25	40.28	-39.0	-40.1	21.9	0.00e+00	123	42	0	1676673024	50	6295
2026-01-25 14:37:24.83	186.68	39.25	-39.8	-40.9	21.1	0.00e+00	122	42	0	1689255936	52	6200
2026-01-25 14:37:28.87	187.08	38.26	-38.4	-39.4	22.4	0.00e+00	123	42	0	1701838848	50	5817
2026-01-25 14:37:32.90	187.46	37.29	-36.7	-37.6	23.8	0.00e+00	122	42	0	1714421760	46	5960
2026-01-25 14:37:36.94	187.82	36.34	-37.1	-38.1	23.6	0.00e+00	123	42	0	1727004672	46	6285
2026-01-25 14:37:40.98	188.16	35.42	-36.7	-37.6	23.7	0.00e+00	123	42	0	1739587584	46	5955
2026-01-25 14:37:45.02	188.49	34.53	-37.1	-38.0	23.5	0.00e+00	120	42	0	1752170496	46	6269
2026-01-25 14:37:49.06	188.80	33.66	-37.3	-38.3	23.2	0.00e+00	120	42	0	1764753408	46	6435
2026-01-25 14:37:53.10	189.09	32.81	-36.5	-37.4	23.7	0.00e+00	123	42	0	1777336320	46	5820
2026-01-25 14:37:57.14	189.37	31.99	-36.0	-36.9	24.0	0.00e+00	120	42	0	1789919232	46	5511
2026-01-25 14:38:01.17	189.63	31.18	-35.5	-36.4	24.5	0.00e+00	123	43	0	1802502144	44	5811
2026-01-25 14:38:05.21	189.89	30.40	-35.5	-36.4	24.6	0.00e+00	123	42	0	1815085056	44	5813
2026-01-25 14:38:09.25	190.13	29.64	-36.2	-37.1	24.2	0.00e+00	122	43	0	1827667968	44	6283
2026-01-25 14:38:13.29	190.36	28.90	-36.7	-37.6	23.8	0.00e+00	120	43	0	1840250880	44	6702
2026-01-25 14:38:17.32	190.58	28.17	-36.5	-37.4	24.0	0.00e+00	123	43	0	1852833792	46	5834
2026-01-25 14:38:21.36	190.80	27.47	-36.3	-37.3	24.1	0.00e+00	123	42	0	1866465280	46	5744
2026-01-25 14:38:25.40	191.00	26.78	-36.2	-37.2	23.9	0.00e+00	122	42	0	1877999616	46	5682
2026-01-25 14:38:29.43	191.20	26.11	-36.1	-37.0	24.1	0.00e+00	123	42	0	1890582528	46	5580
2026-01-25 14:38:33.47	191.39	25.45	-36.1	-37.0	24.1	0.00e+00	122	42	0	1904214016	46	5564
2026-01-25 14:38:37.50	191.57	24.82	-35.9	-36.8	24.4	0.00e+00	122	42	0	1915748352	46	5440
2026-01-25 14:38:41.54	191.75	24.19	-35.4	-36.3	24.7	0.00e+00	123	42	0	1929379840	44	5747
2026-01-25 14:38:45.57	191.92	23.58	-35.3	-36.1	24.6	0.00e+00	123	42	0	1941962752	44	5650
2026-01-25 14:38:49.61	192.08	22.98	-35.4	-36.3	24.5	0.00e+00	120	42	0	1954545664	44	5761
2026-01-25 14:38:53.65	192.24	22.40	-35.4	-36.2	24.7	0.00e+00	122	42	0	1967128576	44	5720
2026-01-25 14:38:57.69	192.39	21.83	-35.5	-36.4	24.7	0.00e+00	121	42	0	1979711488	44	5811
2026-01-25 14:39:01.73	192.54	21.27	-35.8	-36.7	24.5	0.00e+00	122	42	0	1992294400	44	6022
2026-01-25 14:39:05.76	192.69	20.72	-35.9	-36.8	24.4	0.00e+00	122	42	0	2004877312	44	6103
2026-01-25 14:39:09.80	192.83	20.19	-36.2	-37.1	24.1	0.00e+00	122	43	0	2017460224	44	6325
2026-01-25 14:39:13.84	192.96	19.66	-36.2	-37.1	24.1	0.00e+00	123	42	0	2030043136	44	6328
2026-01-25 14:39:17.88	193.09	19.15	-36.3	-37.2	24.0	0.00e+00	122	42	0	2042626048	44	6395
2026-01-25 14:39:21.92	193.22	18.65	-36.3	-37.2	24.0	0.00e+00	122	42	0	2055208960	44	6423
2026-01-25 14:39:25.95	193.34	18.16	-36.4	-37.3	23.9	0.00e+00	122	42	0	2067791872	44	6465
2026-01-25 14:39:29.99	193.46	17.67	-36.6	-37.5	23.8	0.00e+00	123	42	0	2080374784	44	6600
2026-01-25 14:39:34.03	193.58	17.20	-36.4	-37.3	23.9	0.00e+00	123	43	0	2092957696	44	6478
2026-01-25 14:39:38.07	193.69	16.73	-36.5	-37.4	23.8	0.00e+00	123	43	0	2105540608	44	6520
2026-01-25 14:39:42.11	193.80	16.28	-36.5	-37.4	23.8	0.00e+00	120	42	0	2118123520	44	6535
2026-01-25 14:39:46.14	193.91	15.83	-36.7	-37.6	23.7	0.00e+00	123	43	0	2130706432	46	5972
2026-01-25 14:39:50.18	194.02	15.39	-36.5	-37.4	23.8	0.00e+00	120	42	0	2143289344	46	5812
2026-01-25 14:39:54.22	194.12	14.96	-36.8	-37.7	23.5	0.00e+00	120	43	0	2155872256	46	6014
2026-01-25 14:39:58.25	194.22	14.53	-36.9	-37.8	23.5	0.00e+00	123	42	0	2168455168	46	6106
2026-01-25 14:40:02.29	194.32	14.11	-36.7	-37.6	23.6	0.00e+00	122	42	0	2181038080	46	5994
2026-01-25 14:40:06.33	194.41	13.70	-36.8	-37.8	23.4	0.00e+00	122	42	0	2193620992	46	6071
2026-01-25 14:40:10.36	194.50	13.30	-37.0	-37.9	23.4	0.00e+00	123	42	0	2206203904	46	6165
2026-01-25 14:40:14.40	194.59	12.90	-37.3	-38.2	23.1	0.00e+00	123	42	0	2218786816	46	6409
2026-01-25 14:40:18.43	194.68	12.51	-37.1	-38.1	23.1	0.00e+00	122	42	0	2231369728	46	6296
2026-01-25 14:40:22.47	194.77	12.13	-37.2	-38.1	23.2	0.00e+00	123	42	0	2243952640	46	6329
2026-01-25 14:40:26.51	194.86	11.75	-37.1	-38.0	23.3	0.00e+00	120	42	0	2256535552	46	6244
2026-01-25 14:40:30.55	194.94	11.37	-37.0	-37.9	23.3	0.00e+00	122	42	0	2269118464	46	6173
2026-01-25 14:40:34.58	195.02	11.01	-37.0	-37.9	23.2	0.00e+00	122	42	0	2281701376	46	6195
2026-01-25 14:40:38.62	195.10	10.64	-37.2	-38.1	23.1	0.00e+00	122	42	0	2295332864	46	6335
2026-01-25 14:40:42.66	195.18	10.29	-37.4	-38.4	22.8	0.00e+00	121	42	0	2307915776	46	6550
2026-01-25 14:40:46.70	195.25	9.93	-37.3	-38.3	22.9	0.00e+00	122	43	0	2320498688	46	6459
2026-01-25 14:40:50.73	195.33	9.59	-37.6	-38.6	22.6	0.00e+00	120	42	0	2333081600	46	6716
2026-01-25 14:40:54.77	195.40	9.25	-37.6	-38.6	22.6	0.00e+00	123	42	0	2345664512	48	5936
2026-01-25 14:40:58.81	195.48	8.91	-37.7	-38.7	22.6	0.00e+00	123	42	0	2358247424	48	6006
2026-01-25 14:41:02.84	195.55	8.58	-37.7	-38.8	22.5	0.00e+00	123	42	0	2370830336	48	6067
2026-01-25 14:41:06.88	195.62	8.25	-38.7	-39.8	21.6	0.00e+00	122	42	0	2383413248	48	6810
2026-01-25 14:41:10.92	195.69	7.92	-37.9	-38.9	22.2	0.00e+00	123	42	0	2395996160	50	5494
2026-01-25 14:41:14.96	195.75	7.60	-38.2	-39.2	22.0	0.00e+00	123	42	0	2408579072	50	5696
2026-01-25 14:41:19.00	195.82	7.28	-38.2	-39.3	22.0	0.00e+00	123	42	0	2421161984	50	5728
2026-01-25 14:41:23.04	195.88	6.97	-38.6	-39.7	21.5	0.00e+00	123	42	0	2433744896	50	6022
2026-01-25 14:41:27.08	195.95	6.66	-38.6	-39.6	21.6	0.00e+00	122	42	0	2446327808	50	5986
2026-01-25 14:41:31.12	196.01	6.36	-39.0	-40.1	21.2	0.00e+00	123	42	0	2458910720	50	6308
2026-01-25 14:41:35.16	196.07	6.05	-39.0	-40.1	21.0	0.00e+00	120	42	0	2471493632	50	6344
2026-01-25 14:41:39.19	196.13	5.76	-39.3	-40.4	20.8	0.00e+00	121	42	0	2484076544	50	6547
2026-01-25 14:41:43.23	196.19	5.46	-39.2	-40.3	20.8	0.00e+00	122	42	0	2496659456	50	6496
2026-01-25 14:41:47.27	196.25	5.17	-40.0	-41.2	20.1	0.00e+00	123	42	0	2509242368	52	6368
2026-01-25 14:41:51.30	196.31	4.88	-40.3	-41.5	19.7	0.00e+00	122	42	0	2521825280	52	6620
2026-01-25 14:41:55.34	196.37	4.60	-40.8	-42.1	19.2	0.00e+00	122	42	0	2534408192	54	6316
2026-01-25 14:41:59.38	196.42	4.31	-40.9	-42.2	19.0	0.00e+00	122	42	0	2546991104	54	6407
2026-01-25 14:42:03.42	196.48	4.03	-39.7	-40.9	20.3	0.00e+00	123	42	0	2559574016	52	6151
2026-01-25 14:42:07.45	196.53	3.76	-40.3	-41.6	19.2	0.00e+00	123	42	0	2572156928	54	5932
2026-01-25 14:42:11.49	196.59	3.48	-41.0	-42.4	18.7	0.00e+00	120	42	0	2584739840	54	6564
2026-01-25 14:42:15.53	196.64	3.21	-40.3	-41.6	19.3	0.00e+00	125	42	0	2597322752	54	5938
2026-01-25 14:42:19.57	196.69	2.94	-49.4	-62.3	3.5	1.52e+00	0	42	104	2606759936	60	45561
2026-01-25 14:42:23.61	196.74	2.68	-50.1	-62.9	3.5	1.52e+00	0	42	104	2606759936	60	49180
2026-01-25 14:42:27.65	196.79	2.41	-50.2	-63.0	3.5	1.52e+00	0	42	104	2606759936	60	49742
2026-01-25 14:42:31.69	196.84	2.15	-49.8	-63.0	3.5	1.52e+00	0	42	104	2606759936	60	49776
2026-01-25 14:42:35.73	196.89	1.89	-50.2	-63.1	3.5	1.52e+00	0	42	104	2606759936	60	49969
2026-01-25 14:42:39.77	196.94	1.64	-50.1	-63.1	3.5	1.52e+00	0	42	104	2606759936	60	50016
2026-01-25 14:42:43.81	196.99	1.38	-50.2	-63.1	3.5	1.52e+00	0	42	104	2606759936	60	49874
2026-01-25 14:42:47.85	197.04	1.13	-50.2	-63.1	3.5	1.52e+00	0	42	104	2606759936	60	49882
2026-01-25 14:42:51.89	197.09	0.88	-50.2	-63.0	3.5	1.51e+00	0	42	104	2606759936	60	49847
2026-01-25 14:42:55.93	197.13	0.63	-50.2	-63.1	3.5	1.52e+00	0	42	104	2606759936	60	50112
2026-01-25 14:42:59.97	197.18	0.39	-50.2	-63.1	3.5	1.52e+00	0	42	104	2606759936	60	49911
2026-01-25 14:43:04.00	197.22	0.14	-50.2	-63.0	3.5	1.52e+00	0	42	104	2606759936	60	49826

#Closed at: 2026-01-25 14:43:06
#Recorded file [2606 MB]: D:/lorett/data/35029_260126_022735.dat