passes_logs/2026/01/25/R4.6S_Anadyr/R4.6S_Anadyr__20260125_141407_FENGYUN_3D_rec.log

#Pass ID: 20260125_141407_FENGYUN 3D
#Satellite: FENGYUN 3D
#Configuration: FENGYUN 3D
#almurnet v.1.7.20251203
#Start time: 2026-01-25 14:14:10

#Version: 2.2.20231116
#Station: R4.6S_Anadyr
#Location: 177.4865 lon 64.73178 lat
#TLE: 1 43010U 17072A   26024.94080550 -.00000109  00000+0 -29577-4 0  9995
#TLE: 2 43010  98.9962 356.9116 0002509  91.7481 268.3982 14.19699259424665

#Time	Az	El	Level	Level2	SNR	BER	BlckErr	Temp	State	Recorded	gain1	gain2
2026-01-25 14:14:10.35	20.18	0.12	-50.1	-65.1	3.5	1.51e+00	0	38	0	0	60	64698
2026-01-25 14:14:14.38	20.51	0.31	-50.4	-62.6	3.6	8.46e-01	0	39	104	0	60	48486
2026-01-25 14:14:18.43	20.85	0.50	-50.5	-62.6	3.6	8.45e-01	0	39	104	0	60	48745
2026-01-25 14:14:22.46	21.19	0.69	-50.5	-62.6	3.6	8.44e-01	0	40	104	0	60	48741
2026-01-25 14:14:26.50	21.53	0.87	-50.3	-62.4	3.6	8.45e-01	0	40	104	0	60	47716
2026-01-25 14:14:30.54	21.87	1.06	-50.0	-62.1	3.6	8.45e-01	0	40	104	0	60	46093
2026-01-25 14:14:34.58	22.22	1.25	-49.2	-61.2	3.6	8.44e-01	0	40	104	0	60	41697
2026-01-25 14:14:38.62	22.58	1.44	-48.9	-60.9	3.6	8.47e-01	0	40	104	0	60	40019
2026-01-25 14:14:42.66	22.94	1.63	-48.9	-60.9	3.6	8.45e-01	0	40	104	0	60	39998
2026-01-25 14:14:46.70	23.30	1.82	-48.8	-60.9	3.6	8.45e-01	0	40	104	0	60	40179
2026-01-25 14:14:50.74	23.67	2.01	-48.8	-60.6	3.6	8.45e-01	0	40	104	0	60	38879
2026-01-25 14:14:54.78	24.04	2.20	-48.9	-60.8	3.6	8.46e-01	0	40	104	0	60	39751
2026-01-25 14:14:58.81	24.42	2.40	-48.7	-59.6	3.6	8.45e-01	0	40	104	0	60	34416
2026-01-25 14:15:02.85	24.80	2.59	-48.0	-54.4	5.5	7.67e-01	0	40	0	0	60	19017
2026-01-25 14:15:06.89	25.18	2.78	-39.3	-40.3	19.4	0.00e+00	0	40	0	22020096	52	5951
2026-01-25 14:15:10.93	25.57	2.97	-39.5	-40.5	19.5	0.00e+00	0	40	0	45088768	50	6812
2026-01-25 14:15:14.97	25.97	3.17	-48.8	-60.1	3.6	7.98e-02	0	40	104	66060288	60	36664
2026-01-25 14:15:19.01	26.37	3.36	-38.7	-39.6	20.5	0.00e+00	0	40	0	78643200	50	6171
2026-01-25 14:15:23.05	26.78	3.55	-38.7	-39.6	20.4	0.00e+00	0	40	0	100663296	50	6149
2026-01-25 14:15:27.09	27.19	3.75	-38.8	-39.7	20.4	0.00e+00	0	40	0	123731968	50	6204
2026-01-25 14:15:31.12	27.60	3.94	-37.7	-38.6	21.5	0.00e+00	0	40	0	146800640	48	6108
2026-01-25 14:15:35.16	28.03	4.13	-37.7	-38.5	21.8	0.00e+00	0	40	0	168820736	48	6073
2026-01-25 14:15:39.20	28.45	4.33	-39.9	-40.9	19.9	0.00e+00	0	40	0	191889408	50	7113
2026-01-25 14:15:43.24	28.88	4.52	-38.1	-38.9	21.3	0.00e+00	0	40	0	214958080	48	6368
2026-01-25 14:15:47.28	29.32	4.72	-38.4	-39.3	21.0	0.00e+00	0	40	0	238026752	48	6638
2026-01-25 14:15:51.31	29.76	4.91	-39.2	-40.1	20.4	0.00e+00	0	40	0	260046848	50	6489
2026-01-25 14:15:55.35	30.21	5.10	-37.0	-37.8	22.6	0.00e+00	0	40	0	283115520	46	6252
2026-01-25 14:15:59.39	30.67	5.30	-36.6	-37.4	23.0	0.00e+00	0	41	0	305135616	46	5980
2026-01-25 14:16:03.43	31.13	5.49	-36.7	-37.4	22.9	0.00e+00	0	40	0	328204288	46	6008
2026-01-25 14:16:07.46	31.59	5.69	-36.8	-37.6	22.8	0.00e+00	0	40	0	351272960	46	6153
2026-01-25 14:16:11.50	32.07	5.88	-36.5	-37.3	23.3	0.00e+00	0	41	0	373293056	46	5903
2026-01-25 14:16:15.54	32.54	6.07	-37.3	-38.1	22.4	0.00e+00	0	41	0	396361728	46	6469
2026-01-25 14:16:19.57	33.03	6.27	-37.1	-37.9	22.6	0.00e+00	0	41	0	419430400	46	6351
2026-01-25 14:16:23.61	33.52	6.46	-37.0	-37.7	22.9	0.00e+00	0	41	0	442499072	46	6229
2026-01-25 14:16:27.65	34.02	6.66	-37.4	-38.2	22.4	0.00e+00	0	41	0	464519168	48	5875
2026-01-25 14:16:31.69	34.52	6.85	-35.2	-35.9	24.7	0.00e+00	0	41	0	487587840	44	5646
2026-01-25 14:16:35.73	35.03	7.04	-35.2	-35.9	24.5	0.00e+00	0	41	0	509607936	44	5667
2026-01-25 14:16:39.76	35.54	7.23	-36.4	-37.1	23.5	0.00e+00	0	41	0	532676608	46	5812
2026-01-25 14:16:43.80	36.07	7.42	-36.4	-37.2	23.4	0.00e+00	0	41	0	555745280	46	5839
2026-01-25 14:16:47.84	36.60	7.62	-36.6	-37.3	23.5	0.00e+00	0	41	0	577765376	46	5951
2026-01-25 14:16:51.88	37.13	7.81	-36.0	-36.8	23.8	0.00e+00	0	41	0	600834048	46	5572
2026-01-25 14:16:55.92	37.68	8.00	-36.3	-37.0	23.6	0.00e+00	0	41	0	623902720	46	5751
2026-01-25 14:16:59.95	38.23	8.18	-35.6	-36.3	24.1	0.00e+00	0	41	0	645922816	44	5945
2026-01-25 14:17:03.99	38.78	8.37	-36.1	-36.8	23.8	0.00e+00	0	41	0	668991488	44	6281
2026-01-25 14:17:08.03	39.35	8.56	-36.2	-36.9	23.8	0.00e+00	0	41	0	692060160	44	6351
2026-01-25 14:17:12.07	39.92	8.75	-36.2	-36.9	23.7	0.00e+00	0	41	0	714080256	44	6339
2026-01-25 14:17:16.11	40.50	8.93	-35.2	-35.9	24.6	0.00e+00	0	41	0	737148928	44	5664
2026-01-25 14:17:20.14	41.08	9.12	-35.9	-36.6	24.1	0.00e+00	0	41	0	760217600	44	6146
2026-01-25 14:17:24.18	41.67	9.30	-35.7	-36.4	24.2	0.00e+00	0	41	0	782237696	44	6006
2026-01-25 14:17:28.21	42.27	9.48	-35.6	-36.3	24.4	0.00e+00	0	41	0	805306368	44	5902
2026-01-25 14:17:32.25	42.88	9.66	-35.5	-36.2	24.4	0.00e+00	0	41	0	828375040	44	5873
2026-01-25 14:17:36.29	43.49	9.84	-35.4	-36.1	24.5	0.00e+00	0	41	0	850395136	44	5769
2026-01-25 14:17:40.32	44.11	10.01	-35.3	-36.0	24.6	0.00e+00	0	41	0	873463808	44	5700
2026-01-25 14:17:44.36	44.74	10.19	-35.1	-35.7	24.9	0.00e+00	0	41	0	896532480	44	5564
2026-01-25 14:17:48.40	45.38	10.36	-35.2	-35.8	24.8	0.00e+00	0	41	0	918552576	44	5614
2026-01-25 14:17:52.44	46.02	10.54	-35.0	-35.7	24.8	0.00e+00	0	41	0	941621248	44	5527
2026-01-25 14:17:56.48	46.67	10.71	-35.6	-36.3	24.3	0.00e+00	0	41	0	964689920	44	5945
2026-01-25 14:18:00.52	47.33	10.87	-35.2	-35.9	24.7	0.00e+00	0	41	0	986710016	42	6341
2026-01-25 14:18:04.56	47.99	11.04	-35.3	-36.0	24.5	0.00e+00	0	41	0	1009778688	42	6398
2026-01-25 14:18:08.59	48.66	11.20	-35.5	-36.2	24.6	0.00e+00	0	41	0	1032847360	42	6585
2026-01-25 14:18:12.63	49.34	11.36	-35.0	-35.7	24.9	0.00e+00	0	41	0	1054867456	44	5532
2026-01-25 14:18:16.67	50.03	11.52	-34.8	-35.6	25.0	0.00e+00	0	41	0	1077936128	44	5440
2026-01-25 14:18:20.71	50.72	11.68	-34.8	-35.5	25.2	0.00e+00	0	41	0	1099956224	42	6039
2026-01-25 14:18:24.75	51.43	11.83	-35.0	-35.7	25.0	0.00e+00	0	41	0	1123024896	42	6188
2026-01-25 14:18:28.79	52.13	11.98	-34.8	-35.4	25.3	0.00e+00	0	41	0	1146093568	42	6004
2026-01-25 14:18:32.83	52.85	12.12	-35.1	-35.7	24.9	0.00e+00	0	41	0	1169162240	42	6228
2026-01-25 14:18:36.86	53.57	12.27	-35.1	-35.7	25.0	0.00e+00	0	41	0	1191182336	42	6233
2026-01-25 14:18:40.90	54.30	12.41	-34.8	-35.5	25.2	0.00e+00	0	41	0	1214251008	42	6084
2026-01-25 14:18:44.94	55.04	12.55	-34.6	-35.2	25.4	0.00e+00	0	41	0	1237319680	42	5862
2026-01-25 14:18:48.98	55.78	12.68	-34.4	-35.0	25.7	0.00e+00	0	41	0	1259339776	42	5745
2026-01-25 14:18:53.01	56.53	12.81	-34.6	-35.3	25.4	0.00e+00	0	41	0	1282408448	42	5948
2026-01-25 14:18:57.05	57.28	12.93	-34.8	-35.5	25.1	0.00e+00	0	41	0	1304428544	42	6091
2026-01-25 14:19:01.08	58.04	13.06	-34.9	-35.6	25.1	0.00e+00	0	41	0	1327497216	42	6134
2026-01-25 14:19:05.12	58.81	13.17	-34.4	-35.0	25.6	0.00e+00	0	41	0	1350565888	42	5732
2026-01-25 14:19:09.16	59.58	13.29	-34.3	-34.9	25.7	0.00e+00	0	41	0	1373634560	42	5683
2026-01-25 14:19:13.20	60.36	13.40	-34.0	-34.7	25.8	0.00e+00	0	41	0	1395654656	42	5531
2026-01-25 14:19:17.23	61.14	13.50	-34.1	-34.8	25.7	0.00e+00	0	41	0	1418723328	42	5573
2026-01-25 14:19:21.27	61.93	13.60	-34.1	-34.8	25.8	0.00e+00	0	41	0	1441792000	42	5574
2026-01-25 14:19:25.31	62.73	13.70	-33.9	-34.6	26.0	0.00e+00	0	41	0	1463812096	42	5444
2026-01-25 14:19:29.35	63.53	13.79	-34.0	-34.7	25.9	0.00e+00	0	41	0	1486880768	42	5511
2026-01-25 14:19:33.39	64.34	13.88	-34.4	-35.1	25.6	0.00e+00	0	41	0	1508900864	42	5775
2026-01-25 14:19:37.42	65.14	13.96	-35.0	-35.7	25.1	0.00e+00	0	41	0	1531969536	42	6212
2026-01-25 14:19:41.46	65.96	14.04	-34.1	-34.8	25.8	0.00e+00	0	41	0	1555038208	42	5576
2026-01-25 14:19:45.50	66.78	14.11	-34.1	-34.7	25.7	0.00e+00	0	41	0	1577058304	42	5536
2026-01-25 14:19:49.53	67.60	14.17	-34.1	-34.8	25.7	0.00e+00	0	41	0	1600126976	42	5597
2026-01-25 14:19:53.57	68.42	14.23	-34.1	-34.8	25.8	0.00e+00	0	41	0	1623195648	42	5567
2026-01-25 14:19:57.61	69.25	14.29	-34.2	-34.9	25.7	0.00e+00	0	41	0	1646264320	42	5654
2026-01-25 14:20:01.65	70.08	14.34	-33.9	-34.6	25.8	0.00e+00	0	41	0	1668284416	40	6107
2026-01-25 14:20:05.69	70.92	14.39	-34.0	-34.7	25.9	0.00e+00	0	41	0	1691353088	40	6216
2026-01-25 14:20:09.73	71.75	14.43	-34.1	-34.8	25.8	0.00e+00	0	41	0	1713373184	40	6264
2026-01-25 14:20:13.77	72.59	14.46	-34.1	-34.8	25.8	0.00e+00	0	41	0	1736441856	40	6263
2026-01-25 14:20:17.81	73.43	14.49	-34.5	-35.1	25.4	0.00e+00	0	41	0	1759510528	40	6532
2026-01-25 14:20:21.85	74.27	14.51	-34.3	-34.9	25.6	0.00e+00	0	41	0	1781530624	42	5686
2026-01-25 14:20:25.88	75.12	14.53	-33.8	-34.5	26.0	0.00e+00	0	41	0	1804599296	40	6075
2026-01-25 14:20:29.92	75.96	14.54	-34.7	-35.3	25.2	0.00e+00	0	41	0	1827667968	42	5951
2026-01-25 14:20:33.96	76.80	14.54	-34.0	-34.7	25.9	0.00e+00	0	41	0	1849688064	42	5503
2026-01-25 14:20:37.99	77.65	14.54	-34.3	-35.0	25.6	0.00e+00	0	41	0	1872756736	42	5709
2026-01-25 14:20:42.03	78.49	14.54	-34.3	-35.0	25.5	0.00e+00	0	41	0	1895825408	42	5752
2026-01-25 14:20:46.07	79.33	14.52	-34.5	-35.1	25.3	0.00e+00	0	41	0	1917845504	42	5789
2026-01-25 14:20:50.11	80.18	14.51	-34.3	-35.0	25.5	0.00e+00	0	41	0	1940914176	42	5698
2026-01-25 14:20:54.15	81.02	14.48	-34.2	-34.8	25.7	0.00e+00	0	41	0	1963982848	42	5602
2026-01-25 14:20:58.19	81.86	14.45	-34.3	-35.0	25.6	0.00e+00	0	41	0	1986002944	42	5706
2026-01-25 14:21:02.23	82.70	14.42	-34.2	-34.9	25.8	0.00e+00	0	41	0	2009071616	42	5654
2026-01-25 14:21:06.27	83.54	14.38	-34.7	-35.4	25.3	0.00e+00	0	41	0	2032140288	42	5986
2026-01-25 14:21:10.31	84.37	14.33	-34.1	-34.8	25.9	0.00e+00	0	41	0	2054160384	42	5584
2026-01-25 14:21:14.35	85.21	14.28	-34.1	-34.8	25.8	0.00e+00	0	41	0	2077229056	42	5580
2026-01-25 14:21:18.39	86.03	14.23	-34.4	-35.0	25.5	0.00e+00	0	41	0	2100297728	42	5744
2026-01-25 14:21:22.42	86.86	14.16	-34.4	-35.1	25.6	0.00e+00	0	41	0	2122317824	42	5804
2026-01-25 14:21:26.46	87.68	14.10	-34.4	-35.0	25.6	0.00e+00	0	41	0	2145386496	42	5746
2026-01-25 14:21:30.49	88.50	14.02	-34.4	-35.0	25.6	0.00e+00	0	41	0	2168455168	42	5710
2026-01-25 14:21:34.53	89.31	13.95	-34.5	-35.2	25.4	0.00e+00	0	41	0	2190475264	42	5876
2026-01-25 14:21:38.57	90.12	13.86	-34.6	-35.3	25.3	0.00e+00	0	41	0	2213543936	42	5933
2026-01-25 14:21:42.61	90.93	13.77	-34.7	-35.4	25.3	0.00e+00	0	41	0	2236612608	42	5979
2026-01-25 14:21:46.64	91.73	13.68	-34.7	-35.4	25.2	0.00e+00	0	41	0	2258632704	42	5969
2026-01-25 14:21:50.69	92.53	13.58	-34.4	-35.1	25.5	0.00e+00	0	41	0	2281701376	42	5798
2026-01-25 14:21:54.72	93.32	13.48	-34.4	-35.0	25.6	0.00e+00	0	41	0	2304770048	42	5702
2026-01-25 14:21:58.76	94.11	13.38	-34.8	-35.5	25.1	0.00e+00	0	41	0	2326790144	42	6090
2026-01-25 14:22:02.80	94.89	13.27	-34.5	-35.1	25.4	0.00e+00	0	41	0	2349858816	42	5800
2026-01-25 14:22:06.84	95.66	13.15	-34.5	-35.2	25.5	0.00e+00	0	41	0	2372927488	42	5833
2026-01-25 14:22:10.88	96.43	13.03	-34.4	-35.2	25.5	0.00e+00	0	41	0	2394947584	42	5832
2026-01-25 14:22:14.92	97.19	12.91	-34.6	-35.4	25.3	0.00e+00	0	41	0	2418016256	42	5971
2026-01-25 14:22:18.96	97.95	12.78	-34.7	-35.4	25.2	0.00e+00	0	41	0	2441084928	42	5991
2026-01-25 14:22:23.00	98.70	12.65	-34.7	-35.3	25.3	0.00e+00	0	41	0	2463105024	42	5953
2026-01-25 14:22:27.04	99.45	12.51	-35.0	-35.7	25.0	0.00e+00	0	41	0	2486173696	42	6233
2026-01-25 14:22:31.07	100.18	12.38	-34.8	-35.5	25.2	0.00e+00	0	41	0	2509242368	42	6066
2026-01-25 14:22:35.11	100.91	12.24	-35.1	-35.8	24.7	0.00e+00	0	41	0	2531262464	42	6266
2026-01-25 14:22:39.15	101.63	12.09	-35.1	-35.8	24.8	0.00e+00	0	41	0	2554331136	42	6263
2026-01-25 14:22:43.19	102.35	11.94	-34.8	-35.5	25.1	0.00e+00	0	41	0	2577399808	42	6062
2026-01-25 14:22:47.23	103.06	11.79	-35.3	-36.1	24.6	0.00e+00	0	41	0	2599419904	42	6473
2026-01-25 14:22:51.27	103.76	11.64	-35.1	-35.7	24.8	0.00e+00	0	41	0	2622488576	42	6241
2026-01-25 14:22:55.31	104.46	11.48	-35.0	-35.7	25.0	0.00e+00	0	41	0	2645557248	42	6179
2026-01-25 14:22:59.35	105.15	11.32	-35.2	-36.0	24.7	0.00e+00	0	41	0	2667577344	42	6407
2026-01-25 14:23:03.39	105.83	11.16	-35.6	-36.3	24.4	0.00e+00	0	41	0	2690646016	42	6643
2026-01-25 14:23:07.43	106.50	10.99	-35.5	-36.2	24.5	0.00e+00	0	41	0	2713714688	42	6560
2026-01-25 14:23:11.46	107.17	10.83	-35.3	-36.0	24.6	0.00e+00	0	41	0	2735734784	42	6461
2026-01-25 14:23:15.50	107.83	10.66	-35.5	-36.3	24.3	0.00e+00	0	41	0	2758803456	42	6666
2026-01-25 14:23:19.53	108.48	10.49	-35.4	-36.2	24.5	0.00e+00	0	41	0	2781872128	42	6549
2026-01-25 14:23:23.57	109.12	10.31	-35.6	-36.3	24.3	0.00e+00	0	41	0	2803892224	42	6638
2026-01-25 14:23:27.61	109.76	10.14	-35.4	-36.1	24.5	0.00e+00	0	41	0	2826960896	42	6479
2026-01-25 14:23:31.65	110.39	9.96	-35.3	-36.0	24.6	0.00e+00	0	41	0	2850029568	42	6412
2026-01-25 14:23:35.69	111.01	9.78	-35.5	-36.3	24.4	0.00e+00	0	41	0	2872049664	42	6622
2026-01-25 14:23:39.73	111.63	9.60	-35.7	-36.5	24.2	0.00e+00	0	41	0	2895118336	42	6814
2026-01-25 14:23:43.76	112.23	9.42	-35.6	-36.3	24.3	0.00e+00	0	41	0	2918187008	44	5910
2026-01-25 14:23:47.80	112.83	9.24	-35.9	-36.7	23.9	0.00e+00	0	41	0	2940207104	44	6213
2026-01-25 14:23:51.83	113.42	9.05	-36.0	-36.8	23.8	0.00e+00	0	41	0	2963275776	44	6293
2026-01-25 14:23:55.87	114.01	8.86	-35.9	-36.5	24.0	0.00e+00	0	41	0	2986344448	44	6097
2026-01-25 14:23:59.91	114.59	8.68	-36.1	-36.8	23.6	0.00e+00	0	41	0	3008364544	44	6288
2026-01-25 14:24:03.95	115.16	8.49	-36.3	-37.1	23.4	0.00e+00	0	41	0	3031433216	44	6495
2026-01-25 14:24:07.98	115.72	8.30	-36.1	-36.7	23.6	0.00e+00	0	41	0	3054501888	44	6244
2026-01-25 14:24:12.02	116.28	8.11	-36.2	-36.9	23.6	0.00e+00	0	41	0	3076521984	44	6340
2026-01-25 14:24:16.06	116.83	7.92	-36.0	-36.7	23.7	0.00e+00	0	41	0	3099590656	46	5546
2026-01-25 14:24:20.10	117.38	7.73	-36.4	-37.2	23.4	0.00e+00	0	42	0	3121610752	46	5864
2026-01-25 14:24:24.13	117.91	7.54	-36.1	-36.8	23.7	0.00e+00	0	42	0	3144679424	46	5568
2026-01-25 14:24:28.17	118.44	7.34	-36.4	-37.3	23.3	0.00e+00	0	42	0	3167748096	46	5898
2026-01-25 14:24:32.21	118.96	7.15	-36.7	-37.5	23.2	0.00e+00	0	41	0	3190816768	46	6052
2026-01-25 14:24:36.25	119.48	6.96	-36.7	-37.4	23.0	0.00e+00	0	42	0	3212836864	46	6032
2026-01-25 14:24:40.28	119.99	6.76	-36.8	-37.5	23.0	0.00e+00	0	41	0	3235905536	46	6042
2026-01-25 14:24:44.33	120.49	6.57	-37.0	-37.8	22.7	0.00e+00	0	41	0	3258974208	46	6254
2026-01-25 14:24:48.36	120.99	6.37	-36.8	-37.5	22.8	0.00e+00	0	41	0	3280994304	46	6103
2026-01-25 14:24:52.40	121.48	6.18	-37.1	-37.9	22.5	0.00e+00	0	42	0	3304062976	46	6347
2026-01-25 14:24:56.44	121.97	5.98	-37.4	-38.2	22.4	0.00e+00	0	42	0	3326083072	46	6565
2026-01-25 14:25:00.48	122.44	5.78	-37.7	-38.5	21.9	0.00e+00	0	42	0	3349151744	46	6811
2026-01-25 14:25:04.51	122.91	5.59	-38.2	-39.1	21.4	0.00e+00	0	42	0	3372220416	48	6480
2026-01-25 14:25:08.55	123.38	5.39	-37.5	-38.3	22.2	0.00e+00	0	41	0	3394240512	46	6674
2026-01-25 14:25:12.59	123.84	5.20	-37.1	-37.9	22.4	0.00e+00	0	42	0	3417309184	48	5691
2026-01-25 14:25:16.63	124.29	5.00	-37.5	-38.3	22.1	0.00e+00	0	42	0	3440377856	48	5900
2026-01-25 14:25:20.66	124.74	4.80	-36.8	-37.6	22.6	0.00e+00	0	42	0	3463446528	48	5500
2026-01-25 14:25:24.70	125.18	4.61	-38.5	-39.3	21.0	0.00e+00	0	41	0	3485466624	48	6652
2026-01-25 14:25:28.74	125.62	4.41	-38.8	-39.7	20.6	0.00e+00	0	42	0	3508535296	50	6214
2026-01-25 14:25:32.78	126.05	4.21	-38.7	-39.6	20.6	0.00e+00	0	42	0	3530555392	50	6124
2026-01-25 14:25:36.81	126.48	4.02	-38.4	-39.2	20.9	0.00e+00	0	42	0	3553624064	48	6605
2026-01-25 14:25:40.85	126.90	3.82	-37.4	-38.2	21.6	0.00e+00	0	42	0	3576692736	48	5875
2026-01-25 14:25:44.89	127.31	3.63	-37.9	-38.8	21.5	0.00e+00	0	42	0	3598712832	50	5628
2026-01-25 14:25:48.93	127.72	3.43	-36.2	-37.1	22.8	0.00e+00	0	42	0	3621781504	46	5774
2026-01-25 14:25:52.96	128.13	3.24	-38.6	-39.5	20.5	0.00e+00	0	41	0	3644850176	50	6041
2026-01-25 14:25:57.00	128.53	3.04	-38.2	-39.0	20.8	0.00e+00	0	41	0	3666870272	50	5750
2026-01-25 14:26:01.04	128.92	2.85	-49.4	-62.3	3.6	8.45e-01	0	41	104	3670016000	60	47044
2026-01-25 14:26:05.08	129.31	2.65	-50.4	-62.5	3.6	8.45e-01	0	41	104	3670016000	60	48442
2026-01-25 14:26:09.12	129.70	2.46	-50.5	-62.7	3.6	8.46e-01	0	42	104	3670016000	60	49373
2026-01-25 14:26:13.16	130.08	2.26	-50.6	-62.7	3.6	8.45e-01	0	42	104	3670016000	60	49048
2026-01-25 14:26:17.20	130.45	2.07	-50.5	-62.7	3.6	8.45e-01	0	42	104	3670016000	60	49114
2026-01-25 14:26:21.24	130.82	1.88	-50.6	-62.7	3.6	8.44e-01	0	41	104	3670016000	60	49460
2026-01-25 14:26:25.28	131.19	1.69	-50.6	-62.7	3.6	8.45e-01	0	42	104	3670016000	60	49258
2026-01-25 14:26:29.32	131.55	1.49	-50.6	-62.7	3.6	8.45e-01	0	42	104	3670016000	60	49314
2026-01-25 14:26:33.36	131.91	1.30	-50.5	-62.7	3.6	8.45e-01	0	41	104	3670016000	60	49215
2026-01-25 14:26:37.40	132.26	1.11	-50.5	-62.7	3.6	8.46e-01	0	42	104	3670016000	60	49252
2026-01-25 14:26:41.44	132.61	0.92	-50.5	-62.6	3.6	8.45e-01	0	41	104	3670016000	60	48873
2026-01-25 14:26:45.48	132.95	0.73	-50.5	-62.7	3.6	8.46e-01	0	42	104	3670016000	60	49268
2026-01-25 14:26:49.52	133.29	0.54	-50.5	-62.7	3.6	8.46e-01	0	41	104	3670016000	60	49318
2026-01-25 14:26:53.56	133.63	0.35	-50.5	-62.7	3.6	8.44e-01	0	42	104	3670016000	60	49067
2026-01-25 14:26:57.59	133.96	0.16	-50.5	-62.6	3.6	8.45e-01	0	42	104	3670016000	60	48975
2026-01-25 14:27:01.63	134.28	-0.03	-50.5	-62.6	3.6	8.45e-01	0	41	104	3670016000	60	49017

#Closed at: 2026-01-25 14:27:01
#Recorded file [3670 MB]: D:/lorett/data/35029_260126_021410.dat