passes_logs/2026/01/25/R4.6S_Anadyr/R4.6S_Anadyr__20260125_231240_SUOMI_NPP_rec.log

#Pass ID: 20260125_231240_SUOMI NPP
#Satellite: SUOMI NPP
#Configuration: NPP
#almurnet v.1.7.20251203
#Start time: 2026-01-25 23:12:43

#Version: 2.2.20231116
#Station: R4.6S_Anadyr
#Location: 177.4865 lon 64.73178 lat
#TLE: 1 37849U 11061A   26025.53586395  .00000179  00000+0  10601-3 0  9996
#TLE: 2 37849  98.7821 327.4943 0002169  45.6246 314.5108 14.19529815738202

#Time	Az	El	Level	Level2	SNR	BER	BlckErr	Temp	State	Recorded	gain1	gain2
2026-01-25 23:12:43.11	129.64	0.18	-51.0	-64.7	3.3	1.54e+00	0	35	0	0	60	62416
2026-01-25 23:12:47.13	129.53	0.41	-50.3	-65.4	3.6	1.51e+00	0	35	104	0	60	67313
2026-01-25 23:12:51.17	129.42	0.66	-50.2	-65.4	3.6	1.51e+00	0	35	104	0	60	67216
2026-01-25 23:12:55.21	129.31	0.90	-49.3	-65.3	3.6	1.51e+00	0	35	104	0	60	66374
2026-01-25 23:12:59.26	129.20	1.14	-49.8	-65.1	3.6	1.51e+00	0	36	104	0	60	64935
2026-01-25 23:13:03.30	129.09	1.39	-49.0	-64.4	3.6	1.51e+00	0	36	104	0	60	60153
2026-01-25 23:13:07.34	128.97	1.64	-48.6	-63.9	3.6	1.51e+00	0	36	104	0	60	56549
2026-01-25 23:13:11.38	128.85	1.89	-48.6	-63.9	3.6	1.51e+00	0	36	104	0	60	56826
2026-01-25 23:13:15.42	128.73	2.15	-48.6	-63.9	3.6	1.51e+00	0	36	104	0	60	56562
2026-01-25 23:13:19.45	128.61	2.40	-48.3	-63.8	3.6	1.51e+00	0	36	104	0	60	55747
2026-01-25 23:13:23.50	128.48	2.66	-48.4	-63.8	3.6	1.51e+00	0	36	104	0	60	56168
2026-01-25 23:13:27.54	128.35	2.92	-48.3	-62.6	3.6	1.51e+00	0	36	104	0	60	48777
2026-01-25 23:13:31.58	128.22	3.18	-48.2	-59.2	4.8	1.50e+00	0	36	104	0	60	32778
2026-01-25 23:13:35.62	128.09	3.45	-44.7	-47.5	15.0	5.38e-04	0	36	0	6291456	60	8523
2026-01-25 23:13:39.66	127.95	3.71	-48.4	-63.4	3.6	1.51e+00	0	36	104	11534336	60	53763
2026-01-25 23:13:43.70	127.82	3.98	-42.6	-44.5	6.1	1.49e+00	0	36	104	13631488	60	6093
2026-01-25 23:13:47.74	127.67	4.26	-41.4	-42.8	19.4	0.00e+00	0	36	0	18874368	54	7047
2026-01-25 23:13:51.78	127.53	4.53	-40.6	-41.9	20.6	0.00e+00	0	36	0	26214400	54	6327
2026-01-25 23:13:55.82	127.38	4.81	-42.0	-43.6	19.1	0.00e+00	0	36	0	33554432	56	6874
2026-01-25 23:13:59.85	127.23	5.09	-41.6	-43.0	19.8	0.00e+00	0	36	0	40894464	56	6432
2026-01-25 23:14:03.89	127.08	5.37	-40.9	-42.1	20.7	0.00e+00	0	36	0	49283072	56	5797
2026-01-25 23:14:07.93	126.92	5.66	-40.6	-41.8	20.7	0.00e+00	0	36	0	56623104	54	6272
2026-01-25 23:14:11.96	126.76	5.95	-41.2	-42.7	20.0	0.00e+00	0	36	0	63963136	54	6954
2026-01-25 23:14:16.00	126.60	6.24	-41.0	-42.6	20.3	0.00e+00	0	36	0	71303168	56	6122
2026-01-25 23:14:20.04	126.43	6.53	-40.2	-41.6	21.3	0.00e+00	0	36	0	79691776	54	6123
2026-01-25 23:14:24.08	126.26	6.83	-41.0	-42.4	20.3	0.00e+00	0	36	0	87031808	54	6769
2026-01-25 23:14:28.12	126.09	7.13	-42.2	-43.7	19.2	0.00e+00	0	36	0	94371840	58	6241
2026-01-25 23:14:32.16	125.91	7.44	-41.1	-42.3	20.5	0.00e+00	0	36	0	101711872	56	5952
2026-01-25 23:14:36.20	125.73	7.74	-40.3	-41.4	21.3	0.00e+00	0	36	0	109051904	54	6011
2026-01-25 23:14:40.25	125.54	8.06	-40.8	-42.1	20.9	0.00e+00	0	36	0	117440512	54	6493
2026-01-25 23:14:44.29	125.35	8.37	-41.0	-42.3	20.6	0.00e+00	0	36	0	124780544	54	6670
2026-01-25 23:14:48.33	125.15	8.69	-40.2	-41.3	21.2	0.00e+00	0	36	0	132120576	54	5929
2026-01-25 23:14:52.36	124.95	9.01	-40.5	-41.6	21.1	0.00e+00	0	36	0	139460608	54	6156
2026-01-25 23:14:56.39	124.75	9.34	-40.6	-41.8	21.2	0.00e+00	0	36	0	147849216	54	6285
2026-01-25 23:15:00.43	124.54	9.67	-40.2	-41.3	21.6	0.00e+00	0	36	0	155189248	54	5915
2026-01-25 23:15:04.46	124.32	10.00	-40.2	-41.2	22.0	0.00e+00	0	36	0	162529280	54	5876
2026-01-25 23:15:08.50	124.10	10.34	-40.3	-41.4	21.7	0.00e+00	0	36	0	169869312	54	5975
2026-01-25 23:15:12.55	123.88	10.68	-40.3	-41.4	21.7	0.00e+00	0	36	0	177209344	54	5988
2026-01-25 23:15:16.59	123.65	11.03	-40.8	-42.0	21.4	0.00e+00	0	36	0	185597952	54	6423
2026-01-25 23:15:20.63	123.41	11.38	-40.3	-41.4	21.6	0.00e+00	0	36	0	192937984	52	6728
2026-01-25 23:15:24.67	123.17	11.74	-40.8	-42.0	21.2	0.00e+00	0	36	0	200278016	56	5721
2026-01-25 23:15:28.71	122.92	12.10	-39.8	-40.9	22.0	0.00e+00	0	36	0	207618048	54	5644
2026-01-25 23:15:32.74	122.66	12.46	-39.6	-40.6	22.1	0.00e+00	0	36	0	216006656	52	6143
2026-01-25 23:15:36.78	122.40	12.83	-39.7	-40.7	22.1	0.00e+00	0	36	0	223346688	52	6228
2026-01-25 23:15:40.82	122.13	13.21	-40.3	-41.4	22.0	0.00e+00	0	36	0	230686720	52	6704
2026-01-25 23:15:44.86	121.85	13.59	-39.6	-40.6	22.6	0.00e+00	0	36	0	238026752	52	6117
2026-01-25 23:15:48.90	121.57	13.98	-39.5	-40.5	22.5	0.00e+00	0	36	0	245366784	52	6063
2026-01-25 23:15:52.95	121.27	14.37	-39.3	-40.3	22.5	0.00e+00	0	36	0	253755392	52	5927
2026-01-25 23:15:56.98	120.97	14.76	-41.2	-42.5	22.1	0.00e+00	0	36	0	261095424	52	7598
2026-01-25 23:16:01.02	120.66	15.17	-39.6	-40.7	22.3	0.00e+00	0	36	0	268435456	52	6223
2026-01-25 23:16:05.06	120.35	15.58	-39.7	-40.8	22.5	0.00e+00	0	36	0	275775488	52	6257
2026-01-25 23:16:09.10	120.02	15.99	-39.6	-40.7	22.5	0.00e+00	0	36	0	284164096	52	6214
2026-01-25 23:16:13.14	119.68	16.41	-39.6	-40.6	22.7	0.00e+00	0	36	0	291504128	52	6151
2026-01-25 23:16:17.18	119.34	16.84	-40.0	-41.1	22.3	0.00e+00	0	36	0	298844160	52	6471
2026-01-25 23:16:21.22	118.98	17.27	-40.5	-41.6	21.8	0.00e+00	0	36	0	306184192	52	6874
2026-01-25 23:16:25.26	118.61	17.71	-39.8	-40.9	22.2	0.00e+00	0	36	0	313524224	52	6346
2026-01-25 23:16:29.30	118.23	18.16	-40.2	-41.5	21.9	0.00e+00	0	36	0	321912832	54	6047
2026-01-25 23:16:33.34	117.84	18.61	-39.6	-40.7	22.5	0.00e+00	0	36	0	329252864	52	6199
2026-01-25 23:16:37.38	117.44	19.07	-40.0	-41.0	22.2	0.00e+00	0	36	0	336592896	54	5730
2026-01-25 23:16:41.42	117.02	19.54	-40.0	-41.0	22.4	0.00e+00	0	36	0	343932928	54	5748
2026-01-25 23:16:45.46	116.59	20.02	-39.8	-40.8	22.5	0.00e+00	0	36	0	352321536	52	6295
2026-01-25 23:16:49.50	116.15	20.50	-40.1	-41.1	22.1	0.00e+00	0	36	0	359661568	54	5816
2026-01-25 23:16:53.54	115.69	20.99	-39.2	-40.2	23.0	0.00e+00	0	36	0	367001600	52	5844
2026-01-25 23:16:57.58	115.22	21.49	-40.0	-41.1	22.3	0.00e+00	0	36	0	374341632	52	6493
2026-01-25 23:17:01.62	114.73	21.99	-40.1	-41.3	22.3	0.00e+00	0	36	0	382730240	54	5919
2026-01-25 23:17:05.66	114.22	22.51	-39.9	-41.0	22.3	0.00e+00	0	36	0	390070272	52	6429
2026-01-25 23:17:09.70	113.70	23.03	-40.1	-41.1	22.2	0.00e+00	0	36	0	397410304	52	6509
2026-01-25 23:17:13.74	113.16	23.56	-39.7	-40.7	22.6	0.00e+00	0	36	0	404750336	52	6189
2026-01-25 23:17:17.78	112.60	24.10	-40.4	-41.5	21.6	0.00e+00	0	36	0	412090368	52	6818
2026-01-25 23:17:21.82	112.02	24.64	-40.6	-41.6	21.7	0.00e+00	0	37	0	420478976	54	6171
2026-01-25 23:17:25.86	111.42	25.19	-40.0	-41.1	22.4	0.00e+00	0	36	0	427819008	54	5771
2026-01-25 23:17:29.91	110.79	25.76	-39.7	-40.7	22.6	0.00e+00	0	36	0	435159040	52	6228
2026-01-25 23:17:33.94	110.15	26.33	-41.1	-42.3	21.3	0.00e+00	0	36	0	442499072	54	6632
2026-01-25 23:17:37.99	109.47	26.91	-39.9	-40.9	22.3	0.00e+00	0	36	0	450887680	54	5692
2026-01-25 23:17:42.02	108.78	27.49	-40.3	-41.3	22.0	0.00e+00	0	36	0	458227712	54	5957
2026-01-25 23:17:46.07	108.05	28.08	-40.6	-41.7	21.5	0.00e+00	0	36	0	465567744	54	6189
2026-01-25 23:17:50.11	107.30	28.69	-40.6	-41.8	21.6	0.00e+00	0	36	0	472907776	54	6291
2026-01-25 23:17:54.15	106.52	29.29	-42.3	-43.6	20.4	0.00e+00	0	37	0	480247808	56	6909
2026-01-25 23:17:58.19	105.71	29.91	-41.9	-43.2	20.6	0.00e+00	0	37	0	488636416	58	5836
2026-01-25 23:18:02.24	104.87	30.53	-42.5	-43.9	19.9	0.00e+00	0	36	0	495976448	56	7152
2026-01-25 23:18:06.27	104.00	31.16	-41.9	-43.2	20.6	0.00e+00	0	36	0	503316480	56	6581
2026-01-25 23:18:10.32	103.08	31.79	-41.7	-43.0	20.5	0.00e+00	0	36	0	510656512	56	6435
2026-01-25 23:18:14.36	102.14	32.43	-41.9	-43.2	20.4	0.00e+00	0	36	0	519045120	56	6607
2026-01-25 23:18:18.40	101.15	33.07	-41.9	-43.2	20.4	0.00e+00	0	36	0	526385152	56	6558
2026-01-25 23:18:22.44	100.12	33.72	-42.3	-43.6	20.0	0.00e+00	0	36	0	533725184	56	6922
2026-01-25 23:18:26.48	99.06	34.37	-42.5	-44.0	19.8	0.00e+00	0	36	0	541065216	58	6424
2026-01-25 23:18:30.52	97.94	35.02	-41.2	-42.4	21.1	0.00e+00	0	36	0	549453824	56	6006
2026-01-25 23:18:34.56	96.79	35.67	-40.3	-41.3	22.2	0.00e+00	0	36	0	556793856	54	5927
2026-01-25 23:18:38.60	95.58	36.32	-40.2	-41.3	22.1	0.00e+00	0	37	0	564133888	52	6632
2026-01-25 23:18:42.64	94.33	36.97	-41.7	-43.0	20.6	0.00e+00	0	36	0	571473920	56	6409
2026-01-25 23:18:46.69	93.02	37.62	-42.8	-44.4	19.7	0.00e+00	0	36	0	578813952	58	6730
2026-01-25 23:18:50.73	91.66	38.26	-40.8	-41.9	21.3	0.00e+00	0	36	0	587202560	56	5672
2026-01-25 23:18:54.77	90.25	38.89	-42.8	-44.3	19.7	0.00e+00	0	36	0	594542592	58	6662
2026-01-25 23:18:58.81	88.78	39.51	-41.4	-42.6	21.3	0.00e+00	0	36	0	601882624	56	6165
2026-01-25 23:19:02.85	87.25	40.12	-40.7	-41.8	21.8	0.00e+00	0	36	0	609222656	54	6292
2026-01-25 23:19:06.88	85.67	40.72	-39.7	-40.6	22.7	0.00e+00	0	36	0	617611264	54	5499
2026-01-25 23:19:10.92	84.03	41.30	-39.9	-41.0	22.3	0.00e+00	0	36	0	624951296	52	6445
2026-01-25 23:19:14.96	82.33	41.87	-40.2	-41.2	22.8	0.00e+00	0	36	0	632291328	52	6610
2026-01-25 23:19:19.00	80.56	42.41	-40.1	-41.1	22.4	0.00e+00	0	36	0	639631360	52	6534
2026-01-25 23:19:23.04	78.74	42.92	-39.5	-40.5	23.2	0.00e+00	0	36	0	646971392	50	6779
2026-01-25 23:19:27.08	76.86	43.42	-38.7	-39.6	23.3	0.00e+00	0	36	0	655360000	50	6124
2026-01-25 23:19:31.12	74.93	43.88	-40.3	-41.3	22.4	0.00e+00	0	36	0	662700032	52	6675
2026-01-25 23:19:35.16	72.94	44.30	-42.0	-43.3	20.8	0.00e+00	0	36	0	670040064	56	6660
2026-01-25 23:19:39.20	70.90	44.70	-40.0	-41.0	22.5	0.00e+00	0	36	0	677380096	54	5732
2026-01-25 23:19:43.24	68.80	45.05	-40.4	-41.5	22.1	0.00e+00	0	36	0	685768704	52	6819
2026-01-25 23:19:47.28	66.67	45.37	-41.7	-43.0	21.0	0.00e+00	0	36	0	693108736	56	6424
2026-01-25 23:19:51.32	64.49	45.64	-42.1	-43.4	20.3	0.00e+00	0	37	0	700448768	56	6739
2026-01-25 23:19:55.36	62.28	45.86	-40.2	-41.3	22.2	0.00e+00	0	36	0	707788800	54	5948
2026-01-25 23:19:59.41	60.04	46.04	-42.1	-43.4	20.3	0.00e+00	0	36	0	715128832	56	6768
2026-01-25 23:20:03.45	57.78	46.17	-40.8	-41.9	22.0	0.00e+00	0	36	0	723517440	56	5646
2026-01-25 23:20:07.48	55.51	46.25	-41.2	-42.4	21.8	0.00e+00	0	36	0	730857472	56	5989
2026-01-25 23:20:11.52	53.22	46.29	-39.7	-40.7	22.6	0.00e+00	0	36	0	738197504	54	5556
2026-01-25 23:20:15.56	50.94	46.27	-39.3	-40.3	22.8	0.00e+00	0	36	0	745537536	50	6624
2026-01-25 23:20:19.60	48.66	46.20	-39.7	-40.7	22.7	0.00e+00	0	36	0	753926144	52	6219
2026-01-25 23:20:23.65	46.39	46.08	-40.1	-41.1	22.1	0.00e+00	0	36	0	761266176	52	6525
2026-01-25 23:20:27.69	44.15	45.91	-41.4	-42.7	21.3	0.00e+00	0	36	0	768606208	56	6184
2026-01-25 23:20:31.73	41.93	45.70	-41.4	-42.5	22.0	0.00e+00	0	36	0	775946240	54	6821
2026-01-25 23:20:35.77	39.75	45.44	-39.4	-40.4	22.9	0.00e+00	0	36	0	783286272	52	5983
2026-01-25 23:20:39.81	37.60	45.14	-40.0	-41.0	22.6	0.00e+00	0	36	0	791674880	54	5703
2026-01-25 23:20:43.85	35.50	44.79	-41.7	-42.9	21.2	0.00e+00	0	36	0	799014912	56	6377
2026-01-25 23:20:47.89	33.45	44.41	-40.3	-41.3	22.4	0.00e+00	0	36	0	806354944	54	5954
2026-01-25 23:20:51.93	31.45	43.99	-39.2	-40.2	23.0	0.00e+00	0	36	0	813694976	50	6575
2026-01-25 23:20:55.97	29.50	43.54	-39.2	-40.2	23.3	0.00e+00	0	36	0	822083584	52	5831
2026-01-25 23:21:00.01	27.61	43.06	-39.1	-40.1	23.5	0.00e+00	0	36	0	829423616	52	5765
2026-01-25 23:21:04.06	25.78	42.55	-37.2	-38.0	25.0	0.00e+00	0	36	0	836763648	48	5750
2026-01-25 23:21:08.10	24.00	42.01	-36.7	-37.5	25.2	0.00e+00	0	36	0	844103680	46	6034
2026-01-25 23:21:12.13	22.29	41.46	-37.3	-38.1	24.7	0.00e+00	0	36	0	851443712	46	6497
2026-01-25 23:21:16.17	20.64	40.88	-37.9	-38.7	24.3	0.00e+00	0	36	0	859832320	48	6217
2026-01-25 23:21:20.21	19.04	40.29	-39.2	-40.1	23.4	0.00e+00	0	36	0	867172352	52	5826
2026-01-25 23:21:24.25	17.51	39.68	-38.6	-39.5	23.6	0.00e+00	0	36	0	874512384	50	6044
2026-01-25 23:21:28.29	16.03	39.07	-38.6	-39.5	23.7	0.00e+00	0	36	0	881852416	50	6087
2026-01-25 23:21:32.32	14.61	38.44	-40.7	-41.9	21.9	0.00e+00	0	36	0	890241024	52	7098
2026-01-25 23:21:36.36	13.24	37.80	-39.7	-40.7	23.0	0.00e+00	0	36	0	897581056	52	6199
2026-01-25 23:21:40.40	11.92	37.16	-41.7	-42.9	21.6	0.00e+00	0	36	0	904921088	56	6386
2026-01-25 23:21:44.44	10.66	36.52	-41.7	-42.9	21.1	0.00e+00	0	36	0	912261120	56	6327
2026-01-25 23:21:48.48	9.45	35.87	-43.6	-45.3	19.2	0.00e+00	0	36	0	919601152	60	6692
2026-01-25 23:21:52.52	8.28	35.22	-42.5	-43.9	20.3	0.00e+00	0	36	0	927989760	60	5651
2026-01-25 23:21:56.56	7.16	34.57	-44.2	-46.0	17.9	0.00e+00	0	36	0	935329792	60	7211
2026-01-25 23:22:00.60	6.08	33.92	-42.2	-43.5	20.3	0.00e+00	0	36	0	942669824	58	6070
2026-01-25 23:22:04.64	5.05	33.28	-43.2	-44.7	19.3	0.00e+00	0	36	0	950009856	58	7007
2026-01-25 23:22:08.68	4.06	32.64	-40.6	-41.7	22.0	0.00e+00	0	36	0	958398464	56	5532
2026-01-25 23:22:12.72	3.10	32.00	-42.5	-43.9	20.3	0.00e+00	0	36	0	965738496	56	7102
2026-01-25 23:22:16.77	2.18	31.37	-42.4	-43.9	20.0	0.00e+00	0	36	0	973078528	58	6371
2026-01-25 23:22:20.81	1.30	30.74	-41.9	-43.3	20.8	0.00e+00	0	36	0	980418560	58	5926
2026-01-25 23:22:24.85	0.45	30.12	-40.4	-41.4	21.8	0.00e+00	0	36	0	987758592	54	6032
2026-01-25 23:22:28.90	359.63	29.50	-42.4	-43.8	19.9	0.00e+00	0	36	0	996147200	56	7055
2026-01-25 23:22:32.94	358.85	28.90	-39.7	-40.7	22.5	0.00e+00	0	36	0	1003487232	52	6230
2026-01-25 23:22:36.97	358.10	28.30	-41.0	-42.1	21.4	0.00e+00	0	36	0	1010827264	54	6515
2026-01-25 23:22:41.02	357.37	27.70	-43.7	-45.5	19.0	0.00e+00	0	36	0	1018167296	60	6804
2026-01-25 23:22:45.05	356.67	27.12	-40.2	-41.2	22.5	0.00e+00	0	36	0	1026555904	54	5850
2026-01-25 23:22:49.09	356.00	26.54	-41.0	-42.2	21.8	0.00e+00	0	36	0	1033895936	56	5840
2026-01-25 23:22:53.14	355.34	25.97	-42.5	-43.9	20.7	0.00e+00	0	36	0	1041235968	56	7155
2026-01-25 23:22:57.18	354.72	25.41	-40.8	-42.0	21.6	0.00e+00	0	36	0	1048576000	56	5720
2026-01-25 23:23:01.22	354.11	24.85	-41.7	-43.1	20.5	0.00e+00	0	36	0	1056964608	54	7278
2026-01-25 23:23:05.25	353.53	24.31	-41.0	-42.2	21.3	0.00e+00	0	36	0	1064304640	56	5878
2026-01-25 23:23:09.30	352.97	23.77	-40.4	-41.5	22.0	0.00e+00	0	36	0	1071644672	54	6087
2026-01-25 23:23:13.33	352.42	23.24	-40.1	-41.1	22.1	0.00e+00	0	36	0	1078984704	54	5817
2026-01-25 23:23:17.37	351.90	22.72	-40.2	-41.4	22.0	0.00e+00	0	36	0	1086324736	54	5966
2026-01-25 23:23:21.41	351.39	22.21	-39.9	-41.0	22.4	0.00e+00	0	36	0	1094713344	52	6392
2026-01-25 23:23:25.45	350.90	21.70	-39.6	-40.6	22.7	0.00e+00	0	36	0	1102053376	52	6117
2026-01-25 23:23:29.49	350.42	21.20	-41.2	-42.3	21.0	0.00e+00	0	36	0	1109393408	54	6687
2026-01-25 23:23:33.54	349.96	20.71	-41.4	-42.7	20.9	0.00e+00	0	36	0	1116733440	56	6183
2026-01-25 23:23:37.58	349.52	20.23	-41.0	-42.2	21.3	0.00e+00	0	36	0	1125122048	56	5844
2026-01-25 23:23:41.62	349.09	19.75	-40.4	-41.5	21.7	0.00e+00	0	36	0	1132462080	54	6082
2026-01-25 23:23:45.66	348.67	19.29	-40.1	-41.1	22.1	0.00e+00	0	36	0	1139802112	54	5808
2026-01-25 23:23:49.70	348.27	18.82	-40.1	-41.2	22.2	0.00e+00	0	36	0	1147142144	54	5829
2026-01-25 23:23:53.74	347.88	18.37	-39.9	-41.0	22.3	0.00e+00	0	36	0	1154482176	54	5709
2026-01-25 23:23:57.78	347.50	17.92	-40.0	-41.0	22.4	0.00e+00	0	36	0	1162870784	52	6464
2026-01-25 23:24:01.82	347.13	17.48	-40.4	-41.5	21.8	0.00e+00	0	36	0	1170210816	52	6825
2026-01-25 23:24:05.86	346.77	17.05	-40.6	-41.8	21.4	0.00e+00	0	36	0	1177550848	52	7012
2026-01-25 23:24:09.90	346.42	16.62	-40.3	-41.4	21.8	0.00e+00	0	36	0	1184890880	54	6015
2026-01-25 23:24:13.94	346.09	16.20	-39.9	-40.9	22.2	0.00e+00	0	36	0	1193279488	52	6344
2026-01-25 23:24:26.48	345.10	14.93	-41.0	-42.3	21.1	0.00e+00	0	36	0	1216348160	54	6616
2026-01-25 23:24:30.52	344.80	14.53	-41.8	-43.1	20.4	0.00e+00	0	36	0	1223688192	56	6510
2026-01-25 23:24:34.56	344.51	14.14	-41.3	-42.6	20.8	0.00e+00	0	36	0	1231028224	56	6143
2026-01-25 23:24:38.60	344.23	13.76	-41.5	-42.8	20.7	0.00e+00	0	36	0	1239416832	56	6264
2026-01-25 23:24:42.62	343.95	13.38	-41.2	-42.5	20.6	0.00e+00	0	36	0	1246756864	56	6041
2026-01-25 23:24:46.66	343.69	13.00	-41.4	-42.7	20.7	0.00e+00	0	36	0	1254096896	56	6175
2026-01-25 23:24:50.70	343.42	12.63	-41.8	-43.2	20.2	0.00e+00	0	36	0	1261436928	56	6577
2026-01-25 23:24:54.73	343.17	12.27	-42.0	-43.4	20.0	0.00e+00	0	36	0	1269825536	56	6740
2026-01-25 23:24:59.88	342.86	11.81	-42.0	-43.4	19.8	0.00e+00	0	36	0	1279262720	56	6728
2026-01-25 23:25:05.10	342.55	11.35	-41.3	-42.6	20.8	0.00e+00	0	36	0	1288699904	56	6132
2026-01-25 23:25:09.43	342.30	10.98	-40.8	-42.0	21.3	0.00e+00	0	36	0	1297088512	54	6395
2026-01-25 23:25:13.76	342.06	10.61	-41.1	-42.4	20.9	0.00e+00	0	36	0	1304428544	54	6709
2026-01-25 23:25:18.09	341.82	10.24	-41.3	-42.6	20.4	0.00e+00	0	36	0	1312817152	54	6900
2026-01-25 23:25:22.41	341.59	9.89	-43.2	-44.9	18.9	0.00e+00	0	36	0	1321205760	58	7120
2026-01-25 23:25:26.75	341.37	9.53	-43.0	-44.7	18.8	0.00e+00	0	36	0	1329594368	60	6225
2026-01-25 23:25:31.08	341.15	9.18	-43.2	-45.0	18.5	0.00e+00	0	36	0	1337982976	60	6431
2026-01-25 23:25:35.41	340.94	8.84	-43.4	-45.2	18.4	0.00e+00	0	36	0	1345323008	60	6568
2026-01-25 23:25:39.74	340.73	8.50	-43.2	-44.9	18.5	0.00e+00	0	36	0	1353711616	60	6358
2026-01-25 23:25:44.06	340.53	8.16	-42.5	-44.1	19.1	0.00e+00	0	36	0	1362100224	58	6470
2026-01-25 23:25:48.39	340.33	7.83	-42.1	-43.7	19.4	0.00e+00	0	36	0	1369440256	58	6178
2026-01-25 23:25:52.72	340.14	7.50	-42.3	-43.9	19.2	0.00e+00	0	36	0	1377828864	58	6318
2026-01-25 23:25:57.05	339.96	7.17	-42.6	-44.1	19.2	0.00e+00	0	36	0	1386217472	58	6511
2026-01-25 23:26:01.39	339.77	6.85	-42.0	-43.5	19.6	0.00e+00	0	36	0	1394606080	58	6035
2026-01-25 23:26:05.72	339.59	6.53	-42.6	-44.2	19.0	0.00e+00	0	36	0	1401946112	56	7375
2026-01-25 23:26:10.05	339.42	6.22	-42.2	-43.7	19.1	0.00e+00	0	36	0	1410334720	56	6965
2026-01-25 23:26:14.39	339.25	5.91	-42.3	-43.9	18.9	0.00e+00	0	36	0	1418723328	58	6359
2026-01-25 23:26:18.72	339.08	5.60	-42.7	-44.5	17.9	0.00e+00	0	36	0	1427111936	58	6805
2026-01-25 23:26:23.05	338.92	5.30	-43.6	-45.8	16.5	0.00e+00	0	36	0	1434451968	60	7085
2026-01-25 23:26:27.38	338.76	5.00	-44.0	-47.2	14.1	1.50e-06	0	36	0	1442840576	60	8260
2026-01-25 23:26:31.71	338.61	4.70	-45.0	-50.3	9.7	2.74e-03	0	36	0	1451229184	60	11796
2026-01-25 23:26:36.04	338.46	4.41	-45.2	-52.7	5.9	1.91e-01	0	36	0	1459617792	60	15550
2026-01-25 23:26:40.37	338.31	4.12	-45.3	-55.6	3.8	1.30e+00	0	36	0	1466957824	60	21805
2026-01-25 23:26:44.70	338.16	3.83	-45.1	-59.5	3.6	1.51e+00	0	36	104	1466957824	60	34059
2026-01-25 23:26:49.03	338.02	3.54	-45.1	-60.0	3.6	1.51e+00	0	36	104	1466957824	60	36179
2026-01-25 23:26:53.35	337.88	3.26	-45.0	-60.1	3.6	1.51e+00	0	36	104	1466957824	60	36414
2026-01-25 23:26:57.68	337.75	2.98	-45.0	-60.1	3.6	1.51e+00	0	36	104	1466957824	60	36648
2026-01-25 23:27:02.01	337.61	2.70	-49.8	-65.0	3.6	1.51e+00	0	36	104	1466957824	60	64007
2026-01-25 23:27:06.34	337.48	2.43	-50.2	-65.4	3.6	1.51e+00	0	36	104	1466957824	60	67350
2026-01-25 23:27:10.67	337.36	2.15	-50.2	-65.6	3.6	1.51e+00	0	36	104	1466957824	60	68580
2026-01-25 23:27:14.99	337.23	1.88	-50.2	-65.6	3.6	1.51e+00	0	36	104	1466957824	60	68589
2026-01-25 23:27:19.32	337.11	1.62	-50.4	-65.7	3.6	1.51e+00	0	36	104	1466957824	60	69522
2026-01-25 23:27:23.65	336.99	1.35	-50.6	-65.8	3.6	1.51e+00	0	36	104	1466957824	60	70621
2026-01-25 23:27:27.97	336.87	1.09	-50.3	-65.5	3.6	1.51e+00	0	36	104	1466957824	60	68346
2026-01-25 23:27:32.30	336.76	0.83	-50.9	-66.1	3.6	1.51e+00	0	36	104	1466957824	60	72732
2026-01-25 23:27:36.63	336.65	0.57	-50.8	-66.0	3.6	1.51e+00	0	36	104	1466957824	60	72106
2026-01-25 23:27:40.96	336.54	0.31	-51.4	-66.6	3.6	1.51e+00	0	36	104	1466957824	60	77456
2026-01-25 23:27:45.29	336.43	0.06	-51.0	-66.2	3.6	1.51e+00	0	36	104	1466957824	60	73408

#Closed at: 2026-01-25 23:27:49
#Recorded file [1466 MB]: D:/lorett/data/35029_260126_111243.dat