passes_logs/2026/01/25/R4.6S_Anadyr/R4.6S_Anadyr__20260125_191456_FENGYUN_3D_rec.log

#Pass ID: 20260125_191456_FENGYUN 3D
#Satellite: FENGYUN 3D
#Configuration: FENGYUN 3D
#almurnet v.1.7.20251203
#Start time: 2026-01-25 19:14:58

#Version: 2.2.20231116
#Station: R4.6S_Anadyr
#Location: 177.4865 lon 64.73178 lat
#TLE: 1 43010U 17072A   26025.50461972  .00000046  00000+0  43592-4 0  9990
#TLE: 2 43010  98.9962 357.4844 0002523  89.7890 270.3575 14.19699798424744

#Time	Az	El	Level	Level2	SNR	BER	BlckErr	Temp	State	Recorded	gain1	gain2
2026-01-25 19:14:58.18	30.59	0.08	-50.5	-68.2	3.5	3.02e+01	0	39	0	0	60	98854
2026-01-25 19:15:02.22	30.38	0.31	-50.2	-62.4	3.6	8.45e-01	0	40	104	0	60	47464
2026-01-25 19:15:06.26	30.16	0.53	-50.2	-62.4	3.6	8.45e-01	0	40	104	0	60	47533
2026-01-25 19:15:10.29	29.94	0.75	-50.1	-62.3	3.6	8.44e-01	0	40	104	0	60	47003
2026-01-25 19:15:14.33	29.71	0.97	-50.0	-62.1	3.6	8.45e-01	0	40	104	0	60	46080
2026-01-25 19:15:18.37	29.48	1.20	-49.7	-61.8	3.6	8.45e-01	0	41	104	0	60	44692
2026-01-25 19:15:22.40	29.25	1.43	-48.8	-60.9	3.6	8.45e-01	0	41	104	0	60	39975
2026-01-25 19:15:26.44	29.01	1.65	-48.7	-60.8	3.6	8.44e-01	0	41	104	0	60	39637
2026-01-25 19:15:30.49	28.76	1.88	-48.7	-60.8	3.6	8.45e-01	0	41	104	0	60	39742
2026-01-25 19:15:34.53	28.52	2.12	-48.7	-60.7	3.6	8.45e-01	0	41	104	0	60	39132
2026-01-25 19:15:38.57	28.27	2.35	-48.7	-60.5	3.6	8.45e-01	0	41	104	0	60	38403
2026-01-25 19:15:42.61	28.01	2.58	-48.7	-60.8	3.6	8.45e-01	0	41	104	0	60	39770
2026-01-25 19:15:46.64	27.76	2.82	-48.6	-59.5	3.6	8.44e-01	0	41	104	0	60	34225
2026-01-25 19:15:50.68	27.49	3.05	-48.5	-58.8	3.6	8.45e-01	0	41	104	0	60	31408
2026-01-25 19:15:54.73	27.22	3.29	-43.3	-45.0	14.9	0.00e+00	0	41	0	14680064	60	6435
2026-01-25 19:15:58.77	26.95	3.53	-47.9	-54.6	3.5	0.00e+00	0	41	0	25165824	60	19417
2026-01-25 19:16:02.81	26.68	3.77	-40.6	-41.7	18.6	0.00e+00	0	41	0	36700160	54	6199
2026-01-25 19:16:06.85	26.39	4.01	-38.9	-39.8	20.2	0.00e+00	0	41	0	59768832	50	6311
2026-01-25 19:16:10.89	26.11	4.26	-37.2	-38.0	21.9	0.00e+00	0	41	0	81788928	48	5710
2026-01-25 19:16:14.92	25.82	4.50	-37.3	-38.1	21.8	0.00e+00	0	41	0	104857600	48	5773
2026-01-25 19:16:18.96	25.52	4.75	-37.3	-38.1	22.1	0.00e+00	0	41	0	127926272	46	6503
2026-01-25 19:16:23.00	25.22	5.00	-37.2	-37.9	22.3	0.00e+00	0	41	0	149946368	46	6384
2026-01-25 19:16:27.04	24.91	5.25	-36.4	-37.2	22.9	0.00e+00	0	41	0	173015040	46	5837
2026-01-25 19:16:31.08	24.59	5.50	-36.9	-37.7	22.4	0.00e+00	0	41	0	195035136	46	6205
2026-01-25 19:16:35.11	24.28	5.75	-36.9	-37.7	22.5	0.00e+00	0	41	0	218103808	46	6196
2026-01-25 19:16:39.15	23.95	6.00	-37.1	-37.9	22.4	0.00e+00	0	41	0	241172480	46	6367
2026-01-25 19:16:43.19	23.62	6.26	-36.7	-37.5	22.7	0.00e+00	0	41	0	263192576	46	6070
2026-01-25 19:16:47.22	23.28	6.52	-36.9	-37.7	22.5	0.00e+00	0	41	0	286261248	46	6187
2026-01-25 19:16:51.26	22.94	6.78	-36.6	-37.4	22.8	0.00e+00	0	41	0	309329920	46	5993
2026-01-25 19:16:55.31	22.59	7.04	-36.5	-37.3	22.9	0.00e+00	0	41	0	332398592	46	5953
2026-01-25 19:16:59.35	22.23	7.30	-36.3	-37.0	23.3	0.00e+00	0	41	0	354418688	46	5757
2026-01-25 19:17:03.39	21.87	7.57	-36.2	-36.9	23.3	0.00e+00	0	41	0	377487360	46	5693
2026-01-25 19:17:07.43	21.50	7.83	-36.0	-36.7	23.6	0.00e+00	0	41	0	399507456	46	5558
2026-01-25 19:17:11.47	21.12	8.10	-36.2	-36.9	23.5	0.00e+00	0	41	0	422576128	46	5678
2026-01-25 19:17:15.50	20.74	8.37	-36.6	-37.3	23.1	0.00e+00	0	41	0	445644800	46	5950
2026-01-25 19:17:19.54	20.34	8.64	-36.0	-36.7	23.7	0.00e+00	0	42	0	468713472	46	5533
2026-01-25 19:17:23.58	19.94	8.91	-35.5	-36.2	24.2	0.00e+00	0	41	0	490733568	44	5834
2026-01-25 19:17:27.62	19.54	9.18	-35.7	-36.4	24.0	0.00e+00	0	41	0	513802240	44	6013
2026-01-25 19:17:31.65	19.12	9.46	-35.3	-36.0	24.5	0.00e+00	0	41	0	536870912	44	5711
2026-01-25 19:17:35.69	18.70	9.74	-35.3	-36.0	24.5	0.00e+00	0	41	0	558891008	44	5702
2026-01-25 19:17:39.73	18.27	10.01	-35.6	-36.3	24.1	0.00e+00	0	41	0	581959680	44	5917
2026-01-25 19:17:43.77	17.82	10.29	-35.4	-36.1	24.4	0.00e+00	0	41	0	603979776	44	5783
2026-01-25 19:17:47.81	17.37	10.58	-35.4	-36.1	24.4	0.00e+00	0	41	0	627048448	44	5809
2026-01-25 19:17:51.84	16.92	10.86	-35.3	-36.0	24.4	0.00e+00	0	41	0	650117120	44	5745
2026-01-25 19:17:55.88	16.45	11.14	-35.5	-36.2	24.3	0.00e+00	0	41	0	672137216	44	5857
2026-01-25 19:17:59.92	15.97	11.43	-35.3	-36.0	24.4	0.00e+00	0	42	0	695205888	44	5742
2026-01-25 19:18:03.96	15.48	11.71	-35.0	-35.7	24.8	0.00e+00	0	41	0	718274560	44	5515
2026-01-25 19:18:07.99	14.99	12.00	-34.8	-35.5	25.0	0.00e+00	0	41	0	741343232	42	6066
2026-01-25 19:18:12.03	14.48	12.29	-34.8	-35.5	25.0	0.00e+00	0	41	0	763363328	42	6034
2026-01-25 19:18:16.07	13.96	12.58	-34.7	-35.4	25.1	0.00e+00	0	41	0	786432000	42	5966
2026-01-25 19:18:20.11	13.43	12.87	-34.7	-35.4	25.1	0.00e+00	0	42	0	808452096	42	5981
2026-01-25 19:18:24.16	12.89	13.17	-34.6	-35.3	25.2	0.00e+00	0	42	0	831520768	42	5934
2026-01-25 19:18:28.19	12.34	13.46	-34.4	-35.1	25.4	0.00e+00	0	42	0	854589440	42	5783
2026-01-25 19:18:32.23	11.78	13.76	-34.4	-35.1	25.4	0.00e+00	0	41	0	876609536	42	5788
2026-01-25 19:18:36.26	11.21	14.05	-34.4	-35.1	25.5	0.00e+00	0	41	0	899678208	42	5763
2026-01-25 19:18:40.30	10.63	14.35	-34.3	-34.9	25.5	0.00e+00	0	41	0	922746880	42	5667
2026-01-25 19:18:44.34	10.03	14.64	-34.0	-34.7	25.7	0.00e+00	0	41	0	945815552	42	5511
2026-01-25 19:18:48.38	9.42	14.94	-34.1	-34.7	25.8	0.00e+00	0	41	0	967835648	42	5542
2026-01-25 19:18:52.41	8.80	15.24	-33.9	-34.6	25.9	0.00e+00	0	41	0	990904320	42	5458
2026-01-25 19:18:56.45	8.16	15.53	-33.9	-34.5	25.9	0.00e+00	0	41	0	1012924416	40	6087
2026-01-25 19:19:00.49	7.52	15.83	-33.7	-34.4	25.9	0.00e+00	0	41	0	1035993088	40	6015
2026-01-25 19:19:04.53	6.86	16.13	-33.6	-34.3	26.2	0.00e+00	0	41	0	1059061760	40	5907
2026-01-25 19:19:08.56	6.18	16.42	-33.7	-34.4	26.1	0.00e+00	0	41	0	1081081856	40	5983
2026-01-25 19:19:12.60	5.49	16.72	-33.7	-34.3	26.1	0.00e+00	0	41	0	1104150528	40	5954
2026-01-25 19:19:16.64	4.79	17.01	-33.5	-34.2	26.3	0.00e+00	0	41	0	1127219200	40	5850
2026-01-25 19:19:20.68	4.08	17.31	-33.6	-34.3	26.2	0.00e+00	0	41	0	1149239296	40	5903
2026-01-25 19:19:24.72	3.35	17.60	-33.3	-33.9	26.5	0.00e+00	0	41	0	1172307968	40	5689
2026-01-25 19:19:28.76	2.60	17.89	-33.4	-34.0	26.4	0.00e+00	0	41	0	1195376640	40	5759
2026-01-25 19:19:32.79	1.84	18.18	-33.3	-34.0	26.4	0.00e+00	0	41	0	1217396736	40	5698
2026-01-25 19:19:36.83	1.07	18.47	-33.0	-33.6	26.7	0.00e+00	0	41	0	1240465408	40	5492
2026-01-25 19:19:40.87	0.28	18.76	-33.1	-33.8	26.7	0.00e+00	0	41	0	1263534080	40	5571
2026-01-25 19:19:44.91	359.47	19.04	-32.8	-33.4	26.9	0.00e+00	0	41	0	1285554176	40	5377
2026-01-25 19:19:48.95	358.65	19.32	-32.6	-33.2	27.1	0.00e+00	0	41	0	1308622848	38	5871
2026-01-25 19:19:52.99	357.82	19.60	-32.5	-33.1	27.3	0.00e+00	0	41	0	1331691520	38	5796
2026-01-25 19:19:57.02	356.97	19.87	-32.7	-33.4	27.0	0.00e+00	0	41	0	1353711616	38	5975
2026-01-25 19:20:01.06	356.10	20.14	-32.4	-33.0	27.2	0.00e+00	0	41	0	1376780288	38	5751
2026-01-25 19:20:05.10	355.22	20.41	-32.7	-33.3	26.8	0.00e+00	0	41	0	1399848960	38	5924
2026-01-25 19:20:09.14	354.33	20.67	-32.6	-33.3	26.9	0.00e+00	0	41	0	1421869056	38	5908
2026-01-25 19:20:13.18	353.41	20.93	-32.4	-33.0	27.2	0.00e+00	0	41	0	1444937728	38	5736
2026-01-25 19:20:17.22	352.48	21.18	-32.5	-33.1	27.2	0.00e+00	0	41	0	1468006400	38	5817
2026-01-25 19:20:21.25	351.54	21.42	-32.7	-33.4	27.0	0.00e+00	0	41	0	1490026496	38	5972
2026-01-25 19:20:25.29	350.59	21.66	-32.5	-33.1	27.2	0.00e+00	0	41	0	1513095168	38	5801
2026-01-25 19:20:29.33	349.61	21.89	-32.5	-33.1	27.2	0.00e+00	0	41	0	1536163840	38	5786
2026-01-25 19:20:33.37	348.62	22.12	-32.3	-32.9	27.4	0.00e+00	0	41	0	1558183936	38	5654
2026-01-25 19:20:37.41	347.62	22.34	-32.5	-33.1	27.2	0.00e+00	0	41	0	1581252608	38	5782
2026-01-25 19:20:41.45	346.61	22.55	-32.4	-33.1	27.3	0.00e+00	0	41	0	1604321280	38	5771
2026-01-25 19:20:45.49	345.58	22.75	-32.4	-33.0	27.3	0.00e+00	0	41	0	1626341376	38	5740
2026-01-25 19:20:49.52	344.53	22.95	-32.3	-32.9	27.4	0.00e+00	0	41	0	1649410048	38	5640
2026-01-25 19:20:53.56	343.48	23.13	-32.1	-32.7	27.6	0.00e+00	0	41	0	1672478720	38	5531
2026-01-25 19:20:57.60	342.41	23.31	-32.0	-32.7	27.6	0.00e+00	0	41	0	1694498816	38	5519
2026-01-25 19:21:01.64	341.33	23.48	-32.0	-32.6	27.6	0.00e+00	0	41	0	1717567488	38	5489
2026-01-25 19:21:05.67	340.24	23.63	-31.8	-32.4	27.9	0.00e+00	0	41	0	1740636160	36	5984
2026-01-25 19:21:09.71	339.13	23.78	-32.2	-32.8	27.5	0.00e+00	0	41	0	1762656256	36	6270
2026-01-25 19:21:13.76	338.02	23.91	-32.2	-32.9	27.5	0.00e+00	0	41	0	1785724928	36	6320
2026-01-25 19:21:17.80	336.90	24.04	-32.3	-32.9	27.5	0.00e+00	0	41	0	1808793600	36	6374
2026-01-25 19:21:21.83	335.77	24.15	-32.3	-32.9	27.4	0.00e+00	0	41	0	1830813696	36	6387
2026-01-25 19:21:25.87	334.63	24.25	-31.8	-32.5	27.8	0.00e+00	0	41	0	1853882368	36	6073
2026-01-25 19:21:29.91	333.48	24.34	-31.5	-32.1	28.1	0.00e+00	0	41	0	1876951040	36	5804
2026-01-25 19:21:33.95	332.33	24.41	-31.9	-32.5	27.8	0.00e+00	0	41	0	1898971136	36	6090
2026-01-25 19:21:37.99	331.17	24.48	-32.2	-32.8	27.5	0.00e+00	0	41	0	1922039808	36	6307
2026-01-25 19:21:42.03	330.01	24.53	-32.0	-32.6	27.6	0.00e+00	0	41	0	1945108480	36	6142
2026-01-25 19:21:46.07	328.85	24.57	-31.9	-32.5	27.8	0.00e+00	0	41	0	1967128576	36	6049
2026-01-25 19:21:50.11	327.68	24.59	-31.7	-32.3	28.0	0.00e+00	0	41	0	1990197248	36	5908
2026-01-25 19:21:54.15	326.51	24.60	-31.9	-32.5	27.7	0.00e+00	0	41	0	2013265920	36	6082
2026-01-25 19:21:58.19	325.34	24.60	-32.0	-32.5	27.6	0.00e+00	0	41	0	2035286016	36	6082
2026-01-25 19:22:02.23	324.17	24.59	-31.6	-32.2	27.9	0.00e+00	0	41	0	2058354688	36	5859
2026-01-25 19:22:06.27	323.00	24.56	-31.7	-32.3	27.7	0.00e+00	0	41	0	2081423360	36	5947
2026-01-25 19:22:10.31	321.84	24.52	-31.8	-32.4	27.8	0.00e+00	0	41	0	2103443456	36	5998
2026-01-25 19:22:14.35	320.68	24.47	-31.8	-32.4	27.8	0.00e+00	0	41	0	2126512128	36	5991
2026-01-25 19:22:18.39	319.52	24.41	-32.1	-32.6	27.7	0.00e+00	0	41	0	2149580800	36	6143
2026-01-25 19:22:22.43	318.37	24.33	-31.8	-32.4	27.9	0.00e+00	0	41	0	2171600896	36	6012
2026-01-25 19:22:26.47	317.22	24.24	-31.8	-32.5	27.8	0.00e+00	0	41	0	2194669568	36	6044
2026-01-25 19:22:30.51	316.08	24.14	-31.4	-32.1	28.2	0.00e+00	0	41	0	2217738240	36	5796
2026-01-25 19:22:34.55	314.95	24.02	-31.9	-32.5	27.9	0.00e+00	0	41	0	2239758336	36	6091
2026-01-25 19:22:38.59	313.83	23.90	-31.8	-32.4	28.0	0.00e+00	0	41	0	2262827008	36	5983
2026-01-25 19:22:42.62	312.72	23.76	-32.0	-32.6	27.8	0.00e+00	0	41	0	2285895680	36	6107
2026-01-25 19:22:46.66	311.61	23.62	-31.8	-32.3	27.8	0.00e+00	0	41	0	2307915776	36	5958
2026-01-25 19:22:50.69	310.52	23.46	-31.7	-32.2	28.0	0.00e+00	0	41	0	2330984448	36	5861
2026-01-25 19:22:54.73	309.44	23.29	-31.9	-32.6	27.8	0.00e+00	0	41	0	2354053120	36	6134
2026-01-25 19:22:58.77	308.37	23.12	-32.0	-32.6	27.7	0.00e+00	0	41	0	2376073216	36	6118
2026-01-25 19:23:02.80	307.32	22.93	-31.9	-32.5	27.8	0.00e+00	0	41	0	2399141888	36	6061
2026-01-25 19:23:06.84	306.27	22.73	-31.8	-32.4	28.0	0.00e+00	0	41	0	2422210560	36	6024
2026-01-25 19:23:10.87	305.24	22.53	-32.1	-32.8	27.6	0.00e+00	0	41	0	2444230656	36	6296
2026-01-25 19:23:14.91	304.23	22.32	-32.1	-32.8	27.6	0.00e+00	0	41	0	2467299328	36	6247
2026-01-25 19:23:18.94	303.23	22.10	-32.1	-32.7	27.7	0.00e+00	0	41	0	2490368000	36	6238
2026-01-25 19:23:22.98	302.24	21.87	-32.3	-32.9	27.5	0.00e+00	0	41	0	2512388096	36	6375
2026-01-25 19:23:27.01	301.27	21.64	-32.0	-32.6	27.7	0.00e+00	0	41	0	2535456768	36	6157
2026-01-25 19:23:31.05	300.31	21.40	-31.8	-32.4	27.8	0.00e+00	0	41	0	2558525440	36	6016
2026-01-25 19:23:35.09	299.36	21.15	-32.2	-32.9	27.6	0.00e+00	0	41	0	2580545536	36	6352
2026-01-25 19:23:39.13	298.43	20.90	-32.2	-32.8	27.4	0.00e+00	0	41	0	2603614208	36	6270
2026-01-25 19:23:43.17	297.52	20.64	-32.8	-33.4	27.1	0.00e+00	0	41	0	2625634304	38	5987
2026-01-25 19:23:47.20	296.63	20.38	-32.5	-33.1	27.3	0.00e+00	0	41	0	2648702976	38	5780
2026-01-25 19:23:51.23	295.74	20.11	-32.4	-32.9	27.4	0.00e+00	0	41	0	2671771648	38	5694
2026-01-25 19:23:55.27	294.88	19.84	-33.1	-33.8	26.9	0.00e+00	0	41	0	2693791744	38	6256
2026-01-25 19:23:59.31	294.03	19.57	-33.1	-33.8	26.7	0.00e+00	0	41	0	2716860416	38	6290
2026-01-25 19:24:03.35	293.19	19.29	-33.0	-33.5	26.7	0.00e+00	0	41	0	2739929088	38	6102
2026-01-25 19:24:07.38	292.37	19.01	-33.4	-33.9	26.5	0.00e+00	0	41	0	2761949184	38	6371
2026-01-25 19:24:11.41	291.57	18.73	-33.0	-33.5	26.7	0.00e+00	0	41	0	2785017856	38	6090
2026-01-25 19:24:15.45	290.78	18.44	-33.2	-33.8	26.3	0.00e+00	0	41	0	2808086528	38	6251
2026-01-25 19:24:19.49	290.00	18.15	-33.2	-33.7	26.5	0.00e+00	0	41	0	2830106624	38	6236
2026-01-25 19:24:23.52	289.24	17.86	-33.4	-34.0	26.4	0.00e+00	0	41	0	2853175296	38	6441
2026-01-25 19:24:27.56	288.50	17.57	-33.1	-33.7	26.6	0.00e+00	0	41	0	2876243968	38	6185
2026-01-25 19:24:31.59	287.77	17.27	-33.2	-33.8	26.6	0.00e+00	0	41	0	2898264064	38	6256
2026-01-25 19:24:35.63	287.05	16.98	-33.5	-34.2	26.3	0.00e+00	0	41	0	2921332736	38	6544
2026-01-25 19:24:39.67	286.34	16.68	-33.3	-34.0	26.4	0.00e+00	0	41	0	2944401408	38	6441
2026-01-25 19:24:43.70	285.66	16.39	-33.8	-34.4	26.1	0.00e+00	0	41	0	2966421504	40	5994
2026-01-25 19:24:47.74	284.98	16.09	-34.1	-34.6	25.8	0.00e+00	0	41	0	2989490176	40	6166
2026-01-25 19:24:51.78	284.32	15.79	-33.8	-34.4	25.9	0.00e+00	0	41	0	3011510272	40	5992
2026-01-25 19:24:55.82	283.67	15.49	-33.7	-34.4	26.1	0.00e+00	0	41	0	3034578944	40	5991
2026-01-25 19:24:59.85	283.04	15.20	-33.9	-34.6	26.0	0.00e+00	0	41	0	3057647616	40	6140
2026-01-25 19:25:03.88	282.41	14.90	-34.0	-34.7	25.8	0.00e+00	0	41	0	3079667712	40	6220
2026-01-25 19:25:07.92	281.80	14.60	-34.2	-34.8	25.7	0.00e+00	0	41	0	3102736384	40	6281
2026-01-25 19:25:11.95	281.21	14.31	-34.1	-34.9	25.6	0.00e+00	0	41	0	3125805056	40	6322
2026-01-25 19:25:15.99	280.62	14.01	-34.4	-35.0	25.5	0.00e+00	0	41	0	3148873728	40	6418
2026-01-25 19:25:20.03	280.04	13.71	-34.4	-35.0	25.4	0.00e+00	0	41	0	3170893824	40	6433
2026-01-25 19:25:24.07	279.48	13.42	-34.7	-35.5	25.3	0.00e+00	0	41	0	3193962496	42	6034
2026-01-25 19:25:28.11	278.93	13.12	-34.7	-35.3	25.2	0.00e+00	0	41	0	3215982592	42	5956
2026-01-25 19:25:32.14	278.39	12.83	-35.0	-35.7	24.9	0.00e+00	0	41	0	3239051264	42	6203
2026-01-25 19:25:36.18	277.86	12.54	-34.9	-35.5	25.0	0.00e+00	0	41	0	3262119936	42	6070
2026-01-25 19:25:40.22	277.34	12.25	-35.0	-35.7	24.9	0.00e+00	0	41	0	3284140032	42	6224
2026-01-25 19:25:44.26	276.83	11.96	-34.8	-35.4	25.1	0.00e+00	0	41	0	3307208704	42	5990
2026-01-25 19:25:48.29	276.33	11.67	-34.9	-35.6	25.0	0.00e+00	0	41	0	3330277376	42	6141
2026-01-25 19:25:52.33	275.85	11.38	-35.0	-35.7	24.9	0.00e+00	0	41	0	3352297472	42	6244
2026-01-25 19:25:56.37	275.37	11.09	-35.2	-35.9	24.7	0.00e+00	0	41	0	3375366144	42	6382
2026-01-25 19:26:00.41	274.90	10.81	-35.6	-36.3	24.4	0.00e+00	0	41	0	3398434816	42	6640
2026-01-25 19:26:04.45	274.44	10.53	-35.7	-36.4	24.3	0.00e+00	0	41	0	3420454912	42	6741
2026-01-25 19:26:08.49	273.98	10.24	-35.7	-36.3	24.2	0.00e+00	0	41	0	3443523584	44	5959
2026-01-25 19:26:12.53	273.54	9.96	-35.5	-36.3	24.3	0.00e+00	0	41	0	3466592256	44	5911
2026-01-25 19:26:16.57	273.11	9.69	-35.5	-36.2	24.2	0.00e+00	0	41	0	3488612352	44	5842
2026-01-25 19:26:20.60	272.68	9.41	-35.6	-36.2	24.3	0.00e+00	0	41	0	3511681024	44	5896
2026-01-25 19:26:24.64	272.26	9.13	-35.9	-36.7	23.9	0.00e+00	0	41	0	3534749696	44	6216
2026-01-25 19:26:28.68	271.85	8.86	-36.0	-36.7	23.8	0.00e+00	0	41	0	3556769792	44	6210
2026-01-25 19:26:32.72	271.45	8.59	-35.8	-36.5	24.0	0.00e+00	0	41	0	3579838464	44	6038
2026-01-25 19:26:36.76	271.06	8.31	-35.9	-36.6	23.8	0.00e+00	0	41	0	3602907136	44	6134
2026-01-25 19:26:40.80	270.67	8.05	-36.1	-36.9	23.7	0.00e+00	0	41	0	3624927232	44	6358
2026-01-25 19:26:44.85	270.29	7.78	-36.3	-37.2	23.4	0.00e+00	0	41	0	3647995904	44	6554
2026-01-25 19:26:48.89	269.92	7.51	-36.2	-37.0	23.5	0.00e+00	0	41	0	3671064576	44	6419
2026-01-25 19:26:52.93	269.55	7.25	-36.4	-37.2	23.3	0.00e+00	0	41	0	3693084672	44	6562
2026-01-25 19:26:56.97	269.20	6.98	-36.5	-37.2	23.2	0.00e+00	0	41	0	3716153344	44	6572
2026-01-25 19:27:01.01	268.84	6.72	-36.9	-37.6	22.9	0.00e+00	0	41	0	3739222016	46	6110
2026-01-25 19:27:05.04	268.50	6.46	-37.0	-37.8	22.8	0.00e+00	0	41	0	3761242112	46	6273
2026-01-25 19:27:09.07	268.16	6.21	-37.3	-38.1	22.4	0.00e+00	0	41	0	3784310784	46	6514
2026-01-25 19:27:13.11	267.83	5.95	-37.1	-37.8	22.6	0.00e+00	0	41	0	3807379456	46	6262
2026-01-25 19:27:17.15	267.50	5.69	-37.2	-38.0	22.5	0.00e+00	0	41	0	3829399552	46	6451
2026-01-25 19:27:21.19	267.18	5.44	-37.3	-38.2	22.3	0.00e+00	0	41	0	3852468224	46	6556
2026-01-25 19:27:25.23	266.86	5.19	-37.0	-37.7	22.6	0.00e+00	0	41	0	3875536896	46	6185
2026-01-25 19:27:29.27	266.55	4.94	-37.3	-38.1	22.2	0.00e+00	0	41	0	3897556992	48	5765
2026-01-25 19:27:33.31	266.25	4.69	-37.4	-38.2	22.1	0.00e+00	0	41	0	3920625664	48	5829
2026-01-25 19:27:37.35	265.95	4.44	-37.7	-38.6	21.7	0.00e+00	0	41	0	3943694336	46	6863
2026-01-25 19:27:41.38	265.66	4.20	-37.5	-38.4	22.0	0.00e+00	0	41	0	3965714432	48	5970
2026-01-25 19:27:45.42	265.37	3.95	-38.1	-39.0	21.4	0.00e+00	0	41	0	3988783104	48	6457
2026-01-25 19:27:49.46	265.08	3.71	-37.3	-38.2	21.9	0.00e+00	0	41	0	4011851776	48	5885
2026-01-25 19:27:53.50	264.80	3.47	-37.4	-38.2	21.6	0.00e+00	0	41	0	4033871872	48	5834
2026-01-25 19:27:57.54	264.53	3.23	-37.9	-38.7	21.2	0.00e+00	0	41	0	4056940544	48	6192
2026-01-25 19:28:01.57	264.26	2.99	-48.9	-57.0	3.8	0.00e+00	0	41	0	4078960640	56	32176
2026-01-25 19:28:05.61	264.00	2.76	-50.3	-62.4	3.6	8.45e-01	0	41	104	4078960640	60	47688
2026-01-25 19:28:09.65	263.73	2.52	-50.6	-62.7	3.6	8.45e-01	0	41	104	4078960640	60	49224
2026-01-25 19:28:13.69	263.48	2.29	-50.6	-62.7	3.6	8.46e-01	0	41	104	4078960640	60	49589
2026-01-25 19:28:17.73	263.23	2.05	-50.4	-62.6	3.6	8.45e-01	0	41	104	4078960640	60	48971
2026-01-25 19:28:21.77	262.98	1.82	-50.4	-62.7	3.6	8.44e-01	0	41	104	4078960640	60	49066
2026-01-25 19:28:25.82	262.73	1.59	-50.4	-62.6	3.6	8.45e-01	0	41	104	4078960640	60	48531
2026-01-25 19:28:29.86	262.49	1.37	-50.4	-62.7	3.6	8.45e-01	0	41	104	4078960640	60	49292
2026-01-25 19:28:33.90	262.26	1.14	-50.4	-62.7	3.6	8.45e-01	0	41	104	4078960640	60	49158
2026-01-25 19:28:37.93	262.02	0.91	-50.4	-62.6	3.6	8.46e-01	0	41	104	4078960640	60	48931
2026-01-25 19:28:41.97	261.79	0.69	-50.4	-62.6	3.6	8.45e-01	0	41	104	4078960640	60	49040
2026-01-25 19:28:46.01	261.57	0.47	-50.5	-62.7	3.6	8.45e-01	0	41	104	4078960640	60	49249
2026-01-25 19:28:50.05	261.35	0.24	-50.4	-62.6	3.6	8.45e-01	0	41	104	4078960640	60	49015
2026-01-25 19:28:54.09	261.13	0.02	-50.5	-62.6	3.6	8.46e-01	0	41	104	4078960640	60	48991

#Closed at: 2026-01-25 19:28:56
#Recorded file [4078 MB]: D:/lorett/data/35029_260126_071458.dat