passes_logs/2026/01/25/R4.6S_Anadyr/R4.6S_Anadyr__20260125_031603_NOAA_20_JPSS-1_rec.log

#Pass ID: 20260125_031603_NOAA 20 (JPSS-1)
#Satellite: NOAA 20 (JPSS-1)
#Configuration: NOAA 20
#almurnet v.1.7.20251203
#Start time: 2026-01-25 03:16:06

#Version: 2.2.20231116
#Station: R4.6S_Anadyr
#Location: 177.4865 lon 64.73178 lat
#TLE: 1 43013U 17073A   26024.42258823  .00000183  00000+0  10747-3 0  9990
#TLE: 2 43013  98.7646 325.2629 0001105  25.8644 334.2587 14.19539754424075

#Time	Az	El	Level	Level2	SNR	BER	BlckErr	Temp	State	Recorded	gain1	gain2
2026-01-25 03:16:06.16	238.62	0.13	-51.6	-65.4	3.3	1.54e+00	0	40	0	0	60	67180
2026-01-25 03:16:09.19	238.90	0.25	-51.0	-66.2	3.6	1.51e+00	0	40	104	0	60	74042
2026-01-25 03:16:12.22	239.19	0.38	-50.9	-66.2	3.6	1.51e+00	0	40	104	0	60	73634
2026-01-25 03:16:15.25	239.47	0.51	-50.5	-66.2	3.6	1.51e+00	0	40	104	0	60	73877
2026-01-25 03:16:18.28	239.76	0.64	-51.0	-66.2	3.6	1.51e+00	0	40	104	0	60	73879
2026-01-25 03:16:21.31	240.05	0.76	-51.0	-66.2	3.6	1.51e+00	0	40	104	0	60	73747
2026-01-25 03:16:24.34	240.34	0.89	-50.8	-66.0	3.5	1.51e+00	0	40	104	0	60	71820
2026-01-25 03:16:27.37	240.63	1.02	-50.1	-65.3	3.6	1.51e+00	0	40	104	0	60	66514
2026-01-25 03:16:30.39	240.93	1.15	-48.9	-64.0	3.6	1.51e+00	0	40	104	0	60	57467
2026-01-25 03:16:33.43	241.23	1.28	-48.8	-64.0	3.6	1.51e+00	0	40	104	0	60	57385
2026-01-25 03:16:36.45	241.53	1.40	-48.8	-64.0	3.6	1.51e+00	0	40	104	0	60	57318
2026-01-25 03:16:39.48	241.83	1.53	-48.8	-63.9	3.6	1.51e+00	0	40	104	0	60	56920
2026-01-25 03:16:42.51	242.14	1.66	-48.8	-63.9	3.6	1.51e+00	0	40	104	0	60	56805
2026-01-25 03:16:45.54	242.45	1.79	-48.8	-64.0	3.6	1.51e+00	0	40	104	0	60	57036
2026-01-25 03:16:48.57	242.76	1.91	-48.8	-63.9	3.6	1.51e+00	0	40	104	0	60	56475
2026-01-25 03:16:51.60	243.07	2.04	-48.8	-63.8	3.6	1.51e+00	0	40	104	0	60	56104
2026-01-25 03:16:54.64	243.39	2.17	-48.8	-63.6	3.6	1.51e+00	0	41	104	0	60	54632
2026-01-25 03:16:57.66	243.71	2.30	-48.8	-63.4	3.6	1.51e+00	0	41	104	0	60	53624
2026-01-25 03:17:00.69	244.03	2.42	-48.7	-62.4	3.6	1.51e+00	0	41	104	0	60	47770
2026-01-25 03:17:03.72	244.35	2.55	-48.8	-63.6	3.6	1.51e+00	0	40	104	0	60	54873
2026-01-25 03:17:06.75	244.68	2.68	-48.8	-62.8	3.6	1.51e+00	0	41	104	0	60	49710
2026-01-25 03:17:09.77	245.01	2.80	-48.5	-58.2	4.3	8.24e-01	90	41	0	0	60	29383
2026-01-25 03:17:12.81	245.34	2.93	-48.5	-57.6	4.4	7.78e-01	91	41	0	6291456	60	27557
2026-01-25 03:17:15.83	245.68	3.05	-49.5	-64.6	3.6	1.14e+00	0	41	104	10485760	60	61329
2026-01-25 03:17:18.86	246.01	3.18	-46.2	-49.5	13.8	8.30e-06	91	41	0	11534336	60	10845
2026-01-25 03:17:21.88	246.35	3.30	-45.0	-47.5	15.7	0.00e+00	91	41	0	16777216	60	8614
2026-01-25 03:17:24.91	246.70	3.43	-45.4	-48.1	15.4	0.00e+00	89	41	0	22020096	60	9184
2026-01-25 03:17:27.94	247.04	3.56	-44.7	-46.9	16.7	0.00e+00	92	41	0	28311552	60	7969
2026-01-25 03:17:30.96	247.39	3.68	-44.8	-47.0	16.4	0.00e+00	90	41	0	33554432	60	8124
2026-01-25 03:17:33.99	247.74	3.80	-44.4	-46.4	17.2	0.00e+00	62	41	0	39845888	60	7564
2026-01-25 03:17:37.02	248.10	3.93	-43.9	-45.8	17.4	0.00e+00	90	41	0	45088768	60	7052
2026-01-25 03:17:40.04	248.46	4.05	-42.5	-44.0	19.6	0.00e+00	92	41	0	50331648	58	6409
2026-01-25 03:17:43.07	248.82	4.18	-43.6	-45.3	18.4	0.00e+00	0	41	0	56623104	60	6639
2026-01-25 03:17:46.10	249.18	4.30	-43.8	-45.6	18.1	0.00e+00	92	41	0	61865984	60	6909
2026-01-25 03:17:49.13	249.55	4.42	-43.1	-44.7	19.1	0.00e+00	90	41	0	68157440	58	6970
2026-01-25 03:17:52.15	249.91	4.54	-42.7	-44.2	19.3	0.00e+00	90	41	0	73400320	58	6584
2026-01-25 03:17:55.18	250.29	4.66	-42.6	-44.1	19.7	0.00e+00	2	41	0	79691776	58	6473
2026-01-25 03:17:58.21	250.66	4.79	-42.7	-44.2	19.6	0.00e+00	92	41	0	84934656	58	6553
2026-01-25 03:18:01.24	251.04	4.91	-42.5	-43.9	19.9	0.00e+00	92	41	0	90177536	58	6381
2026-01-25 03:18:04.27	251.42	5.03	-42.4	-43.8	20.0	0.00e+00	2	41	0	96468992	58	6277
2026-01-25 03:18:07.29	251.80	5.15	-42.0	-43.3	20.5	0.00e+00	92	41	0	101711872	58	5898
2026-01-25 03:18:10.31	252.19	5.27	-42.2	-43.6	20.2	0.00e+00	90	41	0	108003328	58	6104
2026-01-25 03:18:13.34	252.58	5.39	-42.8	-44.3	19.7	0.00e+00	0	41	0	113246208	58	6616
2026-01-25 03:18:16.37	252.98	5.50	-42.4	-43.7	20.1	0.00e+00	92	41	0	118489088	58	6228
2026-01-25 03:18:19.39	253.37	5.62	-42.4	-43.7	20.1	0.00e+00	92	41	0	124780544	58	6222
2026-01-25 03:18:22.42	253.77	5.74	-42.1	-43.4	20.5	0.00e+00	92	41	0	130023424	58	6016
2026-01-25 03:18:25.44	254.17	5.85	-42.3	-43.6	20.3	0.00e+00	92	41	0	136314880	58	6120
2026-01-25 03:18:28.47	254.58	5.97	-42.5	-43.9	20.2	0.00e+00	92	41	0	141557760	58	6343
2026-01-25 03:18:31.50	254.99	6.09	-42.2	-43.5	20.5	0.00e+00	92	41	0	146800640	58	6038
2026-01-25 03:18:34.52	255.40	6.20	-42.5	-43.9	20.3	0.00e+00	39	41	0	153092096	58	6327
2026-01-25 03:18:37.55	255.81	6.31	-42.6	-43.9	20.1	0.00e+00	91	41	0	158334976	58	6388
2026-01-25 03:18:40.58	256.23	6.43	-42.7	-44.1	20.0	0.00e+00	92	41	0	164626432	58	6491
2026-01-25 03:18:43.60	256.65	6.54	-42.4	-43.8	20.3	0.00e+00	12	41	0	169869312	58	6263
2026-01-25 03:18:46.63	257.07	6.65	-42.6	-44.0	20.2	0.00e+00	92	41	0	176160768	58	6406
2026-01-25 03:18:49.66	257.50	6.76	-43.0	-44.4	19.7	0.00e+00	92	41	0	181403648	58	6755
2026-01-25 03:18:52.69	257.93	6.87	-42.5	-43.8	20.3	0.00e+00	35	41	0	186646528	58	6292
2026-01-25 03:18:55.71	258.37	6.98	-42.9	-44.3	19.8	0.00e+00	92	41	0	192937984	58	6677
2026-01-25 03:18:58.74	258.80	7.09	-42.3	-43.6	20.5	0.00e+00	92	41	0	198180864	58	6134
2026-01-25 03:19:01.77	259.24	7.19	-42.5	-43.8	20.3	0.00e+00	90	41	0	204472320	58	6285
2026-01-25 03:19:04.80	259.69	7.30	-42.4	-43.7	20.4	0.00e+00	92	41	0	209715200	58	6199
2026-01-25 03:19:07.83	260.13	7.40	-42.6	-44.0	20.2	0.00e+00	92	41	0	214958080	58	6405
2026-01-25 03:19:10.86	260.58	7.51	-42.4	-43.7	20.2	0.00e+00	92	41	0	221249536	58	6201
2026-01-25 03:19:13.89	261.03	7.61	-42.4	-43.7	20.5	0.00e+00	41	41	0	226492416	58	6180
2026-01-25 03:19:16.92	261.49	7.71	-42.6	-43.9	20.3	0.00e+00	92	41	0	232783872	58	6372
2026-01-25 03:19:19.94	261.95	7.81	-42.6	-44.0	20.3	0.00e+00	92	41	0	238026752	58	6410
2026-01-25 03:19:22.98	262.41	7.91	-42.3	-43.5	20.7	0.00e+00	0	41	0	244318208	58	6087
2026-01-25 03:19:26.01	262.87	8.01	-42.2	-43.4	20.7	0.00e+00	92	41	0	249561088	58	5999
2026-01-25 03:19:29.03	263.34	8.11	-42.5	-43.8	20.5	0.00e+00	92	41	0	254803968	58	6288
2026-01-25 03:19:32.05	263.81	8.20	-42.5	-43.9	20.4	0.00e+00	0	41	0	261095424	58	6318
2026-01-25 03:19:35.09	264.28	8.29	-42.5	-43.8	20.5	0.00e+00	92	41	0	266338304	58	6282
2026-01-25 03:19:38.11	264.76	8.39	-42.5	-43.7	20.6	0.00e+00	92	41	0	272629760	58	6228
2026-01-25 03:19:41.14	265.24	8.48	-42.3	-43.6	20.7	0.00e+00	91	41	0	277872640	58	6105
2026-01-25 03:19:44.17	265.72	8.57	-42.4	-43.6	20.6	0.00e+00	90	41	0	283115520	58	6164
2026-01-25 03:19:47.20	266.20	8.66	-42.4	-43.6	20.7	0.00e+00	91	41	0	289406976	58	6165
2026-01-25 03:19:50.22	266.69	8.74	-42.6	-44.0	20.4	0.00e+00	92	41	0	294649856	58	6391
2026-01-25 03:19:53.25	267.18	8.83	-43.1	-44.5	19.8	0.00e+00	0	41	0	300941312	58	6799
2026-01-25 03:19:56.27	267.67	8.91	-42.6	-43.9	20.4	0.00e+00	92	41	0	306184192	58	6343
2026-01-25 03:19:59.30	268.17	9.00	-42.7	-44.0	20.4	0.00e+00	92	41	0	311427072	58	6419
2026-01-25 03:20:02.33	268.66	9.08	-42.7	-44.0	20.3	0.00e+00	2	41	0	317718528	58	6449
2026-01-25 03:20:05.36	269.17	9.16	-43.1	-44.5	19.9	0.00e+00	92	41	0	322961408	58	6825
2026-01-25 03:20:08.38	269.67	9.23	-42.3	-43.6	20.8	0.00e+00	92	41	0	329252864	58	6120
2026-01-25 03:20:11.41	270.17	9.31	-42.5	-43.8	20.6	0.00e+00	92	41	0	334495744	58	6292
2026-01-25 03:20:14.44	270.68	9.38	-43.1	-44.4	20.0	0.00e+00	92	41	0	340787200	58	6760
2026-01-25 03:20:17.47	271.19	9.46	-43.0	-44.4	19.9	0.00e+00	92	41	0	346030080	58	6714
2026-01-25 03:20:20.50	271.71	9.53	-42.8	-44.1	20.3	0.00e+00	92	41	0	351272960	58	6487
2026-01-25 03:20:23.53	272.22	9.60	-42.6	-43.8	20.6	0.00e+00	34	41	0	357564416	58	6304
2026-01-25 03:20:26.56	272.74	9.66	-42.6	-43.8	20.6	0.00e+00	92	41	0	362807296	58	6314
2026-01-25 03:20:29.59	273.26	9.73	-42.6	-43.9	20.5	0.00e+00	92	41	0	369098752	58	6364
2026-01-25 03:20:32.61	273.78	9.79	-42.4	-43.6	20.8	0.00e+00	12	41	0	374341632	58	6170
2026-01-25 03:20:35.64	274.31	9.85	-42.3	-43.6	20.8	0.00e+00	92	41	0	379584512	58	6107
2026-01-25 03:20:38.67	274.84	9.91	-42.2	-43.4	21.0	0.00e+00	90	41	0	385875968	58	6003
2026-01-25 03:20:41.70	275.37	9.97	-42.1	-43.3	21.1	0.00e+00	7	41	0	391118848	58	5942
2026-01-25 03:20:44.73	275.90	10.03	-42.0	-43.2	21.2	0.00e+00	92	41	0	397410304	58	5857
2026-01-25 03:20:47.75	276.43	10.08	-42.0	-43.2	21.2	0.00e+00	92	41	0	402653184	58	5860
2026-01-25 03:20:50.78	276.96	10.13	-42.1	-43.3	21.2	0.00e+00	92	41	0	408944640	58	5914
2026-01-25 03:20:53.80	277.50	10.18	-42.1	-43.3	21.1	0.00e+00	91	41	0	414187520	58	5961
2026-01-25 03:20:56.83	278.03	10.23	-42.3	-43.6	20.8	0.00e+00	92	41	0	419430400	58	6123
2026-01-25 03:20:59.85	278.57	10.27	-42.6	-43.8	20.7	0.00e+00	91	41	0	425721856	58	6295
2026-01-25 03:21:02.88	279.11	10.31	-42.6	-43.9	20.6	0.00e+00	34	41	0	430964736	58	6335
2026-01-25 03:21:05.91	279.66	10.35	-42.9	-44.2	20.3	0.00e+00	91	41	0	437256192	58	6574
2026-01-25 03:21:08.94	280.20	10.39	-42.9	-44.3	20.2	0.00e+00	91	41	0	442499072	58	6625
2026-01-25 03:21:11.96	280.74	10.43	-42.8	-44.1	20.5	0.00e+00	39	41	0	447741952	58	6471
2026-01-25 03:21:14.99	281.29	10.46	-42.8	-44.1	20.5	0.00e+00	92	41	0	454033408	58	6490
2026-01-25 03:21:18.02	281.84	10.49	-43.1	-44.5	20.1	0.00e+00	91	41	0	459276288	58	6770
2026-01-25 03:21:21.04	282.39	10.52	-43.5	-44.9	19.6	0.00e+00	92	41	0	465567744	58	7131
2026-01-25 03:21:24.07	282.94	10.55	-43.6	-45.1	19.6	0.00e+00	0	41	0	470810624	58	7261
2026-01-25 03:21:27.10	283.49	10.58	-43.2	-44.6	20.0	0.00e+00	92	41	0	476053504	58	6888
2026-01-25 03:21:30.12	284.04	10.60	-43.1	-44.4	20.2	0.00e+00	92	41	0	482344960	58	6734
2026-01-25 03:21:33.15	284.59	10.62	-43.1	-44.4	20.1	0.00e+00	50	41	0	487587840	58	6763
2026-01-25 03:21:36.18	285.14	10.64	-43.3	-44.6	20.1	0.00e+00	92	41	0	493879296	58	6901
2026-01-25 03:21:39.20	285.69	10.65	-43.4	-44.8	19.8	0.00e+00	92	41	0	499122176	58	7084
2026-01-25 03:21:42.23	286.25	10.67	-43.1	-44.5	20.2	0.00e+00	0	41	0	505413632	58	6785
2026-01-25 03:21:45.26	286.80	10.68	-42.6	-43.9	20.7	0.00e+00	92	41	0	510656512	58	6360
2026-01-25 03:21:48.29	287.36	10.68	-43.1	-44.5	20.1	0.00e+00	92	41	0	515899392	58	6802
2026-01-25 03:21:51.32	287.91	10.69	-43.2	-44.5	20.2	0.00e+00	0	41	0	522190848	58	6809
2026-01-25 03:21:54.35	288.47	10.69	-42.7	-43.9	20.7	0.00e+00	41	42	0	527433728	58	6359
2026-01-25 03:21:57.37	289.02	10.70	-42.8	-44.0	20.6	0.00e+00	92	41	0	533725184	58	6464
2026-01-25 03:22:00.40	289.58	10.70	-42.7	-44.0	20.7	0.00e+00	91	41	0	538968064	58	6429
2026-01-25 03:22:03.43	290.13	10.69	-42.5	-43.8	20.8	0.00e+00	13	41	0	544210944	58	6256
2026-01-25 03:22:06.46	290.69	10.69	-42.1	-43.2	21.5	0.00e+00	91	42	0	550502400	58	5878
2026-01-25 03:22:09.49	291.24	10.68	-42.1	-43.2	21.5	0.00e+00	92	41	0	555745280	58	5880
2026-01-25 03:22:12.51	291.79	10.67	-42.0	-43.1	21.7	0.00e+00	31	41	0	562036736	58	5796
2026-01-25 03:22:15.54	292.35	10.65	-41.9	-43.1	21.6	0.00e+00	92	41	0	567279616	58	5772
2026-01-25 03:22:18.57	292.90	10.64	-41.8	-42.8	21.9	0.00e+00	92	42	0	572522496	56	6304
2026-01-25 03:22:21.60	293.45	10.62	-41.5	-42.5	22.1	0.00e+00	45	41	0	578813952	56	6086
2026-01-25 03:22:24.62	294.00	10.60	-41.6	-42.6	22.1	0.00e+00	92	41	0	584056832	56	6162
2026-01-25 03:22:27.65	294.56	10.58	-41.7	-42.8	21.9	0.00e+00	92	41	0	590348288	56	6286
2026-01-25 03:22:30.67	295.10	10.56	-41.7	-42.8	21.9	0.00e+00	5	41	0	595591168	56	6261
2026-01-25 03:22:33.70	295.65	10.53	-41.5	-42.5	22.2	0.00e+00	41	41	0	601882624	56	6088
2026-01-25 03:22:36.72	296.20	10.50	-41.6	-42.7	22.1	0.00e+00	92	41	0	607125504	56	6200
2026-01-25 03:22:39.75	296.75	10.47	-42.0	-43.2	21.6	0.00e+00	91	42	0	612368384	56	6550
2026-01-25 03:22:42.78	297.29	10.44	-41.8	-42.9	22.0	0.00e+00	7	41	0	618659840	56	6364
2026-01-25 03:22:45.81	297.84	10.40	-41.8	-42.9	21.8	0.00e+00	92	42	0	623902720	56	6367
2026-01-25 03:22:48.84	298.38	10.36	-42.2	-43.3	21.5	0.00e+00	92	42	0	630194176	56	6631
2026-01-25 03:22:51.87	298.92	10.32	-42.1	-43.2	21.6	0.00e+00	0	42	0	635437056	56	6584
2026-01-25 03:22:54.90	299.46	10.28	-41.9	-43.0	21.8	0.00e+00	92	42	0	640679936	56	6444
2026-01-25 03:22:57.92	300.00	10.23	-42.0	-43.1	21.7	0.00e+00	92	42	0	646971392	56	6532
2026-01-25 03:23:00.95	300.54	10.19	-42.2	-43.3	21.3	0.00e+00	68	41	0	652214272	56	6656
2026-01-25 03:23:03.98	301.07	10.14	-42.3	-43.5	21.3	0.00e+00	92	41	0	658505728	56	6797
2026-01-25 03:23:07.01	301.61	10.09	-42.4	-43.6	21.2	0.00e+00	90	42	0	663748608	56	6898
2026-01-25 03:23:10.04	302.14	10.04	-42.3	-43.5	21.4	0.00e+00	92	41	0	670040064	56	6789
2026-01-25 03:23:13.07	302.67	9.98	-41.8	-42.9	21.9	0.00e+00	8	41	0	675282944	56	6329
2026-01-25 03:23:16.09	303.19	9.92	-41.9	-43.0	21.8	0.00e+00	92	42	0	680525824	56	6419
2026-01-25 03:23:19.12	303.72	9.87	-42.0	-43.1	21.7	0.00e+00	92	41	0	686817280	56	6472
2026-01-25 03:23:22.15	304.24	9.80	-42.2	-43.3	21.6	0.00e+00	0	42	0	692060160	56	6651
2026-01-25 03:23:25.18	304.77	9.74	-42.2	-43.4	21.5	0.00e+00	92	41	0	698351616	56	6715
2026-01-25 03:23:28.21	305.28	9.68	-41.8	-42.9	21.8	0.00e+00	92	42	0	703594496	56	6376
2026-01-25 03:23:31.24	305.80	9.61	-41.7	-42.7	22.0	0.00e+00	0	42	0	708837376	56	6225
2026-01-25 03:23:34.26	306.31	9.54	-41.5	-42.6	22.2	0.00e+00	68	42	0	715128832	56	6118
2026-01-25 03:23:37.29	306.83	9.47	-41.5	-42.5	22.2	0.00e+00	90	42	0	720371712	56	6095
2026-01-25 03:23:40.32	307.34	9.40	-42.0	-43.1	21.7	0.00e+00	0	41	0	726663168	56	6496
2026-01-25 03:23:43.35	307.84	9.33	-41.9	-43.0	21.9	0.00e+00	40	41	0	731906048	56	6459
2026-01-25 03:23:46.38	308.35	9.25	-41.5	-42.5	22.3	0.00e+00	90	42	0	738197504	56	6084
2026-01-25 03:23:49.40	308.85	9.18	-41.8	-42.9	21.9	0.00e+00	92	42	0	743440384	56	6327
2026-01-25 03:23:52.43	309.35	9.10	-42.2	-43.3	21.5	0.00e+00	5	42	0	748683264	56	6689
2026-01-25 03:23:55.46	309.85	9.02	-41.5	-42.5	22.0	0.00e+00	92	41	0	754974720	56	6093
2026-01-25 03:23:58.48	310.34	8.94	-41.5	-42.6	22.2	0.00e+00	92	42	0	760217600	56	6121
2026-01-25 03:24:01.51	310.83	8.85	-41.7	-42.7	22.0	0.00e+00	0	42	0	766509056	56	6234
2026-01-25 03:24:04.53	311.32	8.77	-41.8	-42.9	21.9	0.00e+00	92	42	0	771751936	56	6330
2026-01-25 03:24:07.56	311.81	8.68	-41.9	-43.0	21.6	0.00e+00	92	42	0	776994816	56	6449
2026-01-25 03:24:10.59	312.29	8.59	-42.2	-43.4	21.4	0.00e+00	0	42	0	783286272	56	6700
2026-01-25 03:24:13.62	312.77	8.50	-42.1	-43.3	21.4	0.00e+00	6	42	0	788529152	56	6630
2026-01-25 03:24:16.65	313.25	8.41	-42.3	-43.5	21.2	0.00e+00	92	42	0	794820608	56	6791
2026-01-25 03:24:19.67	313.72	8.32	-42.8	-44.0	20.7	0.00e+00	0	42	0	800063488	58	6459
2026-01-25 03:24:22.69	314.19	8.23	-42.8	-44.1	20.6	0.00e+00	0	42	0	805306368	58	6484
2026-01-25 03:24:25.72	314.66	8.13	-42.8	-44.1	20.6	0.00e+00	92	42	0	811597824	58	6509
2026-01-25 03:24:28.75	315.13	8.04	-44.1	-45.6	19.3	0.00e+00	92	42	0	816840704	60	6872
2026-01-25 03:24:31.78	315.59	7.94	-44.3	-45.8	19.2	0.00e+00	43	42	0	823132160	60	7079
2026-01-25 03:24:34.81	316.05	7.84	-44.3	-46.0	19.0	0.00e+00	11	42	0	828375040	60	7184
2026-01-25 03:24:37.83	316.50	7.74	-43.6	-45.0	19.8	0.00e+00	92	41	0	834666496	60	6427
2026-01-25 03:24:40.86	316.96	7.64	-43.7	-45.2	19.5	0.00e+00	0	42	0	839909376	60	6577
2026-01-25 03:24:43.89	317.41	7.54	-43.6	-45.0	19.8	0.00e+00	0	42	0	845152256	60	6459
2026-01-25 03:24:46.91	317.85	7.44	-43.9	-45.4	19.4	0.00e+00	92	42	0	851443712	60	6720
2026-01-25 03:24:49.94	318.30	7.34	-44.5	-46.1	18.7	0.00e+00	0	42	0	856686592	60	7323
2026-01-25 03:24:52.96	318.74	7.23	-45.0	-46.8	18.1	0.00e+00	43	42	0	862978048	60	7891
2026-01-25 03:24:55.99	319.18	7.13	-45.3	-47.3	17.4	0.00e+00	92	42	0	868220928	60	8351
2026-01-25 03:24:59.02	319.61	7.02	-45.6	-47.7	17.2	0.00e+00	80	42	0	873463808	60	8741
2026-01-25 03:25:02.05	320.05	6.91	-45.1	-46.9	18.0	0.00e+00	0	42	0	879755264	60	8016
2026-01-25 03:25:05.08	320.48	6.80	-44.9	-46.8	18.0	0.00e+00	91	42	0	884998144	60	7879
2026-01-25 03:25:08.11	320.90	6.69	-44.5	-46.1	18.7	0.00e+00	91	42	0	891289600	60	7328
2026-01-25 03:25:11.14	321.33	6.58	-44.6	-46.4	18.3	0.00e+00	39	42	0	896532480	60	7511
2026-01-25 03:25:14.16	321.74	6.47	-44.8	-46.6	17.9	0.00e+00	0	42	0	901775360	60	7758
2026-01-25 03:25:17.19	322.16	6.36	-45.2	-47.2	17.5	0.00e+00	91	42	0	908066816	60	8236
2026-01-25 03:25:20.22	322.58	6.25	-44.5	-46.3	18.5	0.00e+00	42	42	0	913309696	60	7436
2026-01-25 03:25:23.25	322.99	6.14	-44.4	-46.0	18.6	0.00e+00	2	42	0	919601152	60	7240
2026-01-25 03:25:26.28	323.39	6.02	-44.4	-46.0	18.6	0.00e+00	92	42	0	924844032	60	7235
2026-01-25 03:25:29.30	323.80	5.91	-44.5	-46.2	18.3	0.00e+00	0	42	0	931135488	60	7418
2026-01-25 03:25:32.33	324.20	5.79	-44.8	-46.6	17.8	0.00e+00	45	42	0	936378368	60	7718
2026-01-25 03:25:35.35	324.60	5.68	-44.6	-46.3	18.0	0.00e+00	91	42	0	941621248	60	7475
2026-01-25 03:25:38.38	324.99	5.56	-43.6	-45.1	19.4	0.00e+00	91	42	0	947912704	60	6496
2026-01-25 03:25:41.40	325.38	5.44	-43.3	-44.8	19.2	0.00e+00	5	42	0	953155584	60	6247
2026-01-25 03:25:44.43	325.77	5.33	-44.3	-46.0	18.5	0.00e+00	0	42	0	959447040	60	7192
2026-01-25 03:25:47.46	326.16	5.21	-44.6	-46.3	18.2	0.00e+00	92	42	0	964689920	60	7508
2026-01-25 03:25:50.48	326.54	5.09	-44.3	-46.0	18.4	0.00e+00	35	42	0	969932800	60	7224
2026-01-25 03:25:53.51	326.92	4.97	-44.2	-45.9	18.7	0.00e+00	5	42	0	976224256	60	7094
2026-01-25 03:25:56.54	327.30	4.85	-44.1	-45.8	18.6	0.00e+00	92	42	0	981467136	60	7025
2026-01-25 03:25:59.56	327.67	4.73	-44.5	-46.3	18.1	0.00e+00	35	42	0	987758592	60	7476
2026-01-25 03:26:02.59	328.05	4.61	-43.9	-45.6	18.8	0.00e+00	7	42	0	993001472	60	6865
2026-01-25 03:26:05.62	328.41	4.49	-43.8	-45.4	19.1	0.00e+00	6	42	0	998244352	60	6694
2026-01-25 03:26:08.65	328.78	4.37	-43.9	-45.6	18.9	0.00e+00	82	42	0	1004535808	60	6893
2026-01-25 03:26:11.68	329.14	4.25	-43.8	-45.4	19.2	0.00e+00	0	42	0	1009778688	60	6728
2026-01-25 03:26:14.70	329.50	4.13	-43.4	-44.9	19.4	0.00e+00	0	42	0	1016070144	58	7143
2026-01-25 03:26:17.73	329.86	4.00	-42.7	-44.1	20.1	0.00e+00	92	42	0	1021313024	60	5767
2026-01-25 03:26:20.76	330.21	3.88	-42.8	-44.2	19.8	0.00e+00	51	42	0	1027604480	58	6600
2026-01-25 03:26:23.79	330.56	3.76	-42.9	-44.4	19.5	0.00e+00	46	42	0	1032847360	60	6002
2026-01-25 03:26:26.82	330.91	3.63	-43.8	-45.6	18.3	0.00e+00	92	42	0	1038090240	60	6868
2026-01-25 03:26:29.85	331.26	3.51	-45.7	-48.7	14.6	7.00e-07	0	42	0	1044381696	60	9884
2026-01-25 03:26:32.87	331.60	3.39	-45.5	-49.4	12.7	2.49e-04	0	42	0	1049624576	60	10623
2026-01-25 03:26:35.90	331.94	3.26	-46.3	-54.0	5.8	1.65e-01	35	42	0	1055916032	60	18213
2026-01-25 03:26:38.93	332.28	3.14	-46.4	-59.2	3.6	1.46e+00	0	42	104	1059061760	60	32901
2026-01-25 03:26:41.96	332.61	3.01	-46.4	-60.6	3.6	1.51e+00	0	42	104	1059061760	60	38799
2026-01-25 03:26:44.99	332.95	2.89	-50.8	-66.0	3.6	1.51e+00	0	42	104	1059061760	60	72014
2026-01-25 03:26:48.02	333.28	2.76	-51.2	-66.4	3.6	1.51e+00	0	42	104	1059061760	60	75280
2026-01-25 03:26:51.05	333.60	2.64	-51.4	-66.6	3.6	1.51e+00	0	42	104	1059061760	60	77680
2026-01-25 03:26:54.07	333.93	2.51	-51.6	-66.7	3.6	1.51e+00	0	42	104	1059061760	60	78522
2026-01-25 03:26:57.10	334.25	2.39	-51.5	-66.7	3.6	1.51e+00	0	42	104	1059061760	60	78581
2026-01-25 03:27:00.14	334.57	2.26	-51.4	-66.6	3.6	1.51e+00	0	42	104	1059061760	60	77522
2026-01-25 03:27:03.16	334.88	2.14	-51.4	-66.7	3.6	1.51e+00	0	42	104	1059061760	60	77887
2026-01-25 03:27:06.19	335.20	2.01	-51.5	-66.7	3.5	1.51e+00	0	42	104	1059061760	60	78543
2026-01-25 03:27:09.22	335.51	1.88	-51.5	-66.8	3.6	1.51e+00	0	42	104	1059061760	60	78838
2026-01-25 03:27:12.25	335.82	1.76	-51.5	-66.7	3.6	1.51e+00	0	42	104	1059061760	60	78532
2026-01-25 03:27:15.28	336.12	1.63	-51.5	-66.7	3.6	1.51e+00	0	42	104	1059061760	60	78304
2026-01-25 03:27:18.30	336.43	1.51	-51.5	-66.7	3.6	1.51e+00	0	42	104	1059061760	60	78157
2026-01-25 03:27:21.33	336.73	1.38	-51.5	-66.7	3.6	1.51e+00	0	42	104	1059061760	60	78227
2026-01-25 03:27:24.36	337.03	1.25	-51.6	-66.8	3.6	1.51e+00	0	42	104	1059061760	60	79129
2026-01-25 03:27:27.39	337.32	1.13	-51.6	-66.8	3.6	1.51e+00	0	42	104	1059061760	60	79271
2026-01-25 03:27:30.41	337.62	1.00	-51.6	-66.8	3.6	1.51e+00	0	42	104	1059061760	60	79043
2026-01-25 03:27:33.44	337.91	0.88	-51.6	-66.8	3.6	1.51e+00	0	42	104	1059061760	60	79164
2026-01-25 03:27:36.47	338.20	0.75	-51.6	-66.8	3.6	1.51e+00	0	42	104	1059061760	60	79154
2026-01-25 03:27:39.50	338.49	0.62	-51.5	-66.7	3.6	1.51e+00	0	42	104	1059061760	60	78073
2026-01-25 03:27:42.53	338.77	0.50	-51.5	-66.7	3.6	1.51e+00	0	42	104	1059061760	60	78024
2026-01-25 03:27:45.56	339.06	0.37	-51.4	-66.7	3.6	1.51e+00	0	42	104	1059061760	60	78068
2026-01-25 03:27:48.58	339.33	0.24	-51.5	-66.7	3.6	1.51e+00	0	42	104	1059061760	60	78188
2026-01-25 03:27:51.61	339.61	0.12	-51.5	-66.7	3.6	1.51e+00	0	42	104	1059061760	60	78263
2026-01-25 03:27:54.65	339.89	-0.01	-51.5	-66.7	3.6	1.51e+00	0	42	104	1059061760	60	78484

#Closed at: 2026-01-25 03:27:54
#Recorded file [1059 MB]: D:/lorett/data/35029_260125_151606.dat