passes_logs/2026/01/25/R4.6S_Anadyr/R4.6S_Anadyr__20260125_163735_SUOMI_NPP_rec.log

#Pass ID: 20260125_163735_SUOMI NPP
#Satellite: SUOMI NPP
#Configuration: NPP
#almurnet v.1.7.20251203
#Start time: 2026-01-25 16:37:35

#Version: 2.2.20231116
#Station: R4.6S_Anadyr
#Location: 177.4865 lon 64.73178 lat
#TLE: 1 37849U 11061A   26025.32440757  .00000181  00000+0  10697-3 0  9992
#TLE: 2 37849  98.7822 327.2846 0002175  45.9958 314.1397 14.19529737738178

#Time	Az	El	Level	Level2	SNR	BER	BlckErr	Temp	State	Recorded	gain1	gain2
2026-01-25 16:37:35.91	26.68	0.03	-50.1	-61.8	3.5	8.45e-01	0	38	0	0	60	44299
2026-01-25 16:37:39.95	26.51	0.26	-50.9	-66.1	3.6	1.51e+00	0	39	104	0	60	72884
2026-01-25 16:37:43.99	26.33	0.49	-50.9	-66.1	3.6	1.51e+00	0	40	104	0	60	72878
2026-01-25 16:37:48.02	26.16	0.72	-50.9	-66.1	3.6	1.51e+00	0	40	104	0	60	72839
2026-01-25 16:37:52.07	25.98	0.96	-50.6	-65.8	3.6	1.51e+00	0	40	104	0	60	70515
2026-01-25 16:37:56.11	25.80	1.19	-50.2	-65.4	3.6	1.51e+00	0	40	104	0	60	67595
2026-01-25 16:38:00.15	25.61	1.43	-49.4	-64.6	3.6	1.51e+00	0	40	104	0	60	61275
2026-01-25 16:38:04.19	25.43	1.66	-49.4	-64.6	3.6	1.51e+00	0	40	104	0	60	61100
2026-01-25 16:38:08.22	25.23	1.90	-49.4	-64.5	3.6	1.51e+00	0	40	104	0	60	61024
2026-01-25 16:38:12.26	25.04	2.15	-49.3	-64.4	3.6	1.51e+00	0	40	104	0	60	59940
2026-01-25 16:38:16.30	24.84	2.39	-49.4	-64.6	3.6	1.51e+00	0	40	104	0	60	61290
2026-01-25 16:38:20.34	24.64	2.63	-49.3	-64.4	3.6	1.51e+00	0	40	104	0	60	59705
2026-01-25 16:38:24.37	24.44	2.88	-49.3	-64.0	3.6	1.51e+00	0	40	104	0	60	57045
2026-01-25 16:38:28.41	24.23	3.13	-49.2	-61.0	4.1	1.46e+00	0	40	104	0	60	40444
2026-01-25 16:38:32.45	24.01	3.38	-47.5	-52.0	11.3	6.37e-03	22	40	0	6291456	60	14397
2026-01-25 16:38:36.49	23.80	3.63	-46.7	-50.4	10.8	2.25e-02	0	40	104	10485760	60	12026
2026-01-25 16:38:40.53	23.57	3.88	-45.4	-48.1	15.7	0.00e+00	0	40	0	13631488	60	9144
2026-01-25 16:38:44.56	23.35	4.14	-44.5	-46.6	17.1	0.00e+00	0	40	0	20971520	60	7748
2026-01-25 16:38:48.60	23.12	4.40	-44.4	-46.4	17.5	0.00e+00	74	40	0	28311552	60	7552
2026-01-25 16:38:52.64	22.89	4.66	-43.9	-45.7	18.1	0.00e+00	0	40	0	36700160	60	6934
2026-01-25 16:38:56.67	22.65	4.92	-43.6	-45.4	18.4	0.00e+00	0	41	0	44040192	60	6702
2026-01-25 16:39:00.71	22.41	5.18	-44.2	-46.1	17.6	0.00e+00	27	41	0	51380224	60	7298
2026-01-25 16:39:04.75	22.16	5.45	-43.5	-45.1	18.6	0.00e+00	92	41	0	58720256	60	6492
2026-01-25 16:39:08.78	21.91	5.72	-43.0	-44.4	19.4	0.00e+00	0	41	0	66060288	60	6032
2026-01-25 16:39:12.81	21.65	5.99	-43.0	-44.5	19.5	0.00e+00	0	41	0	74448896	60	6047
2026-01-25 16:39:16.85	21.39	6.26	-43.3	-44.9	19.1	0.00e+00	50	41	0	81788928	60	6376
2026-01-25 16:39:20.89	21.12	6.54	-43.1	-44.6	19.3	0.00e+00	0	41	0	89128960	60	6120
2026-01-25 16:39:24.93	20.84	6.81	-43.0	-44.4	19.5	0.00e+00	0	41	0	96468992	60	6030
2026-01-25 16:39:28.96	20.57	7.09	-43.0	-44.4	19.6	0.00e+00	0	41	0	103809024	58	6765
2026-01-25 16:39:33.00	20.28	7.38	-42.7	-44.1	19.9	0.00e+00	50	41	0	112197632	58	6489
2026-01-25 16:39:37.03	19.99	7.66	-42.7	-44.0	20.0	0.00e+00	0	41	0	119537664	58	6455
2026-01-25 16:39:41.07	19.69	7.95	-42.2	-43.5	20.5	0.00e+00	9	41	0	126877696	58	6072
2026-01-25 16:39:45.11	19.39	8.24	-42.0	-43.2	20.7	0.00e+00	26	41	0	134217728	56	6573
2026-01-25 16:39:49.14	19.08	8.53	-42.3	-43.6	20.4	0.00e+00	92	41	0	142606336	56	6915
2026-01-25 16:39:53.18	18.77	8.82	-42.2	-43.5	20.6	0.00e+00	0	41	0	149946368	56	6776
2026-01-25 16:39:57.22	18.44	9.12	-41.9	-43.1	21.0	0.00e+00	0	41	0	157286400	56	6499
2026-01-25 16:40:01.26	18.11	9.42	-42.1	-43.3	20.8	0.00e+00	32	41	0	164626432	56	6691
2026-01-25 16:40:05.29	17.78	9.72	-41.9	-43.1	21.1	0.00e+00	62	41	0	171966464	56	6470
2026-01-25 16:40:09.33	17.43	10.03	-42.1	-43.3	20.9	0.00e+00	0	41	0	180355072	56	6642
2026-01-25 16:40:13.37	17.08	10.34	-41.7	-42.9	21.4	0.00e+00	0	41	0	187695104	56	6340
2026-01-25 16:40:17.41	16.72	10.65	-41.9	-43.0	21.2	0.00e+00	22	41	0	195035136	56	6439
2026-01-25 16:40:21.45	16.35	10.96	-41.7	-42.8	21.4	0.00e+00	0	41	0	202375168	56	6292
2026-01-25 16:40:25.48	15.98	11.28	-42.0	-43.2	21.1	0.00e+00	0	41	0	210763776	56	6586
2026-01-25 16:40:29.51	15.59	11.60	-41.5	-42.6	21.6	0.00e+00	0	41	0	218103808	56	6173
2026-01-25 16:40:33.54	15.20	11.92	-41.6	-42.8	21.6	0.00e+00	92	41	0	225443840	56	6250
2026-01-25 16:40:37.58	14.80	12.24	-41.5	-42.6	21.7	0.00e+00	6	41	0	232783872	56	6125
2026-01-25 16:40:41.62	14.39	12.57	-41.3	-42.4	21.9	0.00e+00	0	41	0	240123904	56	6016
2026-01-25 16:40:45.66	13.97	12.90	-41.6	-42.8	21.7	0.00e+00	0	41	0	248512512	56	6246
2026-01-25 16:40:49.70	13.53	13.24	-41.3	-42.4	21.9	0.00e+00	92	41	0	255852544	56	6010
2026-01-25 16:40:53.73	13.09	13.57	-41.2	-42.3	22.1	0.00e+00	0	41	0	263192576	56	5910
2026-01-25 16:40:57.77	12.64	13.91	-41.1	-42.1	22.2	0.00e+00	0	41	0	270532608	56	5826
2026-01-25 16:41:01.80	12.18	14.26	-41.3	-42.3	22.0	0.00e+00	35	41	0	278921216	56	5958
2026-01-25 16:41:05.83	11.71	14.60	-41.0	-42.0	22.1	0.00e+00	0	41	0	286261248	56	5757
2026-01-25 16:41:09.87	11.22	14.95	-41.2	-42.2	22.2	0.00e+00	0	41	0	293601280	56	5872
2026-01-25 16:41:13.90	10.72	15.30	-41.5	-42.6	21.9	0.00e+00	0	41	0	300941312	56	6136
2026-01-25 16:41:17.93	10.21	15.65	-41.4	-42.5	22.1	0.00e+00	31	41	0	308281344	56	6056
2026-01-25 16:41:21.97	9.69	16.01	-41.2	-42.3	22.2	0.00e+00	0	41	0	316669952	56	5902
2026-01-25 16:41:26.00	9.16	16.37	-40.9	-41.9	22.4	0.00e+00	0	41	0	324009984	56	5686
2026-01-25 16:41:30.04	8.61	16.73	-40.6	-41.6	22.6	0.00e+00	0	41	0	331350016	54	6151
2026-01-25 16:41:34.07	8.05	17.09	-42.0	-43.2	21.4	0.00e+00	50	41	0	338690048	56	6550
2026-01-25 16:41:38.11	7.47	17.46	-42.6	-43.8	20.9	0.00e+00	33	41	0	346030080	56	7075
2026-01-25 16:41:42.14	6.88	17.83	-42.2	-43.4	21.3	0.00e+00	30	41	0	354418688	58	5975
2026-01-25 16:41:46.17	6.28	18.20	-41.8	-42.9	21.9	0.00e+00	0	41	0	361758720	58	5635
2026-01-25 16:41:50.21	5.65	18.58	-41.3	-42.3	22.2	0.00e+00	81	41	0	369098752	56	5961
2026-01-25 16:41:54.24	5.02	18.95	-41.1	-42.2	22.4	0.00e+00	0	41	0	376438784	56	5829
2026-01-25 16:41:58.27	4.37	19.33	-41.4	-42.4	22.1	0.00e+00	0	41	0	383778816	56	6033
2026-01-25 16:42:02.31	3.70	19.71	-40.9	-41.9	22.5	0.00e+00	19	41	0	392167424	56	5686
2026-01-25 16:42:06.34	3.01	20.09	-41.2	-42.3	22.3	0.00e+00	0	41	0	399507456	56	5900
2026-01-25 16:42:10.38	2.30	20.47	-41.3	-42.4	22.0	0.00e+00	0	41	0	406847488	56	5967
2026-01-25 16:42:14.41	1.58	20.86	-41.3	-42.4	22.2	0.00e+00	0	41	0	414187520	56	5966
2026-01-25 16:42:18.45	0.84	21.24	-41.1	-42.1	22.5	0.00e+00	92	41	0	422576128	56	5785
2026-01-25 16:42:22.48	0.08	21.63	-40.9	-41.9	22.5	0.00e+00	0	41	0	429916160	54	6347
2026-01-25 16:42:26.51	359.30	22.01	-41.2	-42.3	22.4	0.00e+00	0	41	0	437256192	54	6616
2026-01-25 16:42:30.55	358.50	22.40	-40.6	-41.6	22.7	0.00e+00	0	41	0	444596224	54	6135
2026-01-25 16:42:34.58	357.68	22.78	-40.8	-41.8	22.5	0.00e+00	27	41	0	451936256	54	6310
2026-01-25 16:42:38.62	356.84	23.17	-40.5	-41.5	22.8	0.00e+00	0	41	0	460324864	54	6040
2026-01-25 16:42:42.65	355.98	23.55	-40.9	-41.9	22.3	0.00e+00	0	41	0	467664896	54	6341
2026-01-25 16:42:46.68	355.10	23.93	-40.7	-41.7	22.6	0.00e+00	0	41	0	475004928	54	6217
2026-01-25 16:42:50.72	354.19	24.31	-41.0	-42.1	22.2	0.00e+00	92	41	0	482344960	54	6506
2026-01-25 16:42:54.75	353.26	24.69	-41.4	-42.5	21.7	0.00e+00	0	41	0	489684992	54	6792
2026-01-25 16:42:58.79	352.31	25.06	-40.9	-41.9	22.5	0.00e+00	0	41	0	498073600	54	6342
2026-01-25 16:43:02.80	351.34	25.43	-39.8	-40.7	23.4	0.00e+00	30	41	0	505413632	54	5549
2026-01-25 16:43:06.83	350.35	25.80	-39.4	-40.3	23.5	0.00e+00	0	41	0	512753664	52	5938
2026-01-25 16:43:10.87	349.33	26.16	-39.4	-40.2	23.8	0.00e+00	0	41	0	520093696	52	5890
2026-01-25 16:43:14.90	348.28	26.52	-40.7	-41.7	22.7	0.00e+00	0	41	0	528482304	52	6940
2026-01-25 16:43:18.94	347.21	26.87	-40.9	-41.9	22.5	0.00e+00	92	41	0	535822336	54	6358
2026-01-25 16:43:22.97	346.12	27.21	-41.4	-42.5	22.2	0.00e+00	0	41	0	543162368	54	6777
2026-01-25 16:43:27.01	345.01	27.54	-40.5	-41.4	22.9	0.00e+00	0	41	0	550502400	54	6023
2026-01-25 16:43:31.04	343.87	27.87	-40.6	-41.6	22.6	0.00e+00	0	41	0	557842432	54	6109
2026-01-25 16:43:35.08	342.71	28.19	-41.2	-42.2	22.2	0.00e+00	71	41	0	566231040	54	6588
2026-01-25 16:43:39.11	341.52	28.50	-43.4	-44.9	20.0	0.00e+00	0	41	0	573571072	58	7126
2026-01-25 16:43:43.15	340.31	28.79	-43.2	-44.6	20.3	0.00e+00	0	41	0	580911104	58	6894
2026-01-25 16:43:47.19	339.08	29.08	-41.1	-42.1	22.4	0.00e+00	0	41	0	588251136	56	5819
2026-01-25 16:43:51.22	337.83	29.35	-41.3	-42.3	22.2	0.00e+00	91	41	0	595591168	54	6648
2026-01-25 16:43:55.26	336.56	29.61	-41.3	-42.3	22.1	0.00e+00	0	41	0	603979776	54	6671
2026-01-25 16:43:59.30	335.26	29.86	-42.2	-43.4	21.4	0.00e+00	0	41	0	611319808	56	6756
2026-01-25 16:44:03.33	333.95	30.09	-41.2	-42.3	22.4	0.00e+00	31	41	0	618659840	56	5932
2026-01-25 16:44:07.37	332.61	30.31	-41.1	-42.2	22.5	0.00e+00	0	41	0	625999872	56	5836
2026-01-25 16:44:11.41	331.26	30.51	-41.1	-42.2	22.3	0.00e+00	0	41	0	634388480	54	6566
2026-01-25 16:44:15.45	329.90	30.69	-39.9	-40.7	23.5	0.00e+00	0	41	0	641728512	54	5560
2026-01-25 16:44:19.49	328.51	30.86	-40.6	-41.6	22.9	0.00e+00	82	41	0	649068544	52	6859
2026-01-25 16:44:23.53	327.12	31.01	-41.6	-42.8	22.0	0.00e+00	0	41	0	656408576	56	6258
2026-01-25 16:44:27.56	325.71	31.14	-42.8	-44.1	21.0	0.00e+00	0	41	0	663748608	58	6488
2026-01-25 16:44:31.60	324.29	31.25	-42.1	-43.3	21.5	0.00e+00	17	41	0	672137216	58	5924
2026-01-25 16:44:35.64	322.86	31.34	-41.1	-42.1	22.6	0.00e+00	41	41	0	679477248	56	5767
2026-01-25 16:44:39.68	321.43	31.41	-41.6	-42.7	22.3	0.00e+00	0	41	0	686817280	54	6931
2026-01-25 16:44:43.72	319.99	31.46	-42.3	-43.4	21.6	0.00e+00	0	41	0	694157312	56	6762
2026-01-25 16:44:47.76	318.54	31.49	-42.0	-43.1	21.8	0.00e+00	36	41	0	702545920	56	6494
2026-01-25 16:44:51.79	317.10	31.50	-42.1	-43.2	21.7	0.00e+00	4	41	0	709885952	56	6601
2026-01-25 16:44:55.83	315.66	31.48	-42.5	-43.7	21.4	0.00e+00	0	41	0	717225984	58	6228
2026-01-25 16:44:59.86	314.21	31.45	-41.9	-43.0	21.9	0.00e+00	0	41	0	724566016	56	6399
2026-01-25 16:45:03.89	312.78	31.40	-40.8	-41.7	22.7	0.00e+00	35	41	0	731906048	54	6236
2026-01-25 16:45:07.93	311.34	31.33	-42.3	-43.5	21.5	0.00e+00	0	41	0	740294656	56	6811
2026-01-25 16:45:11.97	309.91	31.23	-42.3	-43.5	21.4	0.00e+00	0	41	0	747634688	56	6818
2026-01-25 16:45:16.01	308.50	31.12	-42.2	-43.3	21.6	0.00e+00	0	41	0	754974720	56	6680
2026-01-25 16:45:20.04	307.09	30.99	-41.3	-42.3	22.3	0.00e+00	48	41	0	762314752	56	5955
2026-01-25 16:45:24.08	305.69	30.84	-42.1	-43.3	21.6	0.00e+00	0	41	0	770703360	58	5947
2026-01-25 16:45:28.12	304.31	30.67	-40.3	-41.3	23.2	0.00e+00	0	41	0	778043392	54	5916
2026-01-25 16:45:32.15	302.95	30.49	-41.2	-42.2	22.4	0.00e+00	0	41	0	785383424	54	6612
2026-01-25 16:45:36.19	301.60	30.28	-41.3	-42.4	22.1	0.00e+00	91	41	0	792723456	54	6742
2026-01-25 16:45:40.23	300.26	30.07	-40.7	-41.6	22.8	0.00e+00	0	41	0	800063488	54	6169
2026-01-25 16:45:44.27	298.95	29.83	-41.5	-42.5	22.2	0.00e+00	0	41	0	808452096	56	6096
2026-01-25 16:45:48.30	297.66	29.58	-41.4	-42.5	22.3	0.00e+00	32	41	0	815792128	56	6045
2026-01-25 16:45:52.34	296.38	29.32	-41.8	-42.9	21.9	0.00e+00	0	41	0	823132160	56	6327
2026-01-25 16:45:56.38	295.13	29.05	-42.8	-44.1	20.8	0.00e+00	0	40	0	830472192	58	6490
2026-01-25 16:46:00.41	293.90	28.76	-43.3	-44.6	20.2	0.00e+00	0	41	0	837812224	58	6926
2026-01-25 16:46:04.44	292.69	28.46	-42.9	-44.2	20.7	0.00e+00	91	41	0	846200832	58	6581
2026-01-25 16:46:08.47	291.51	28.15	-42.1	-43.2	21.4	0.00e+00	0	41	0	853540864	58	5896
2026-01-25 16:46:12.51	290.35	27.83	-40.0	-41.0	23.1	0.00e+00	0	41	0	860880896	54	5696
2026-01-25 16:46:16.54	289.21	27.50	-40.6	-41.6	22.8	0.00e+00	0	41	0	868220928	52	6855
2026-01-25 16:46:20.58	288.09	27.16	-41.1	-42.1	22.3	0.00e+00	92	41	0	876609536	54	6483
2026-01-25 16:46:24.62	287.00	26.82	-41.0	-42.0	22.6	0.00e+00	0	41	0	883949568	56	5745
2026-01-25 16:46:28.65	285.93	26.47	-42.2	-43.4	21.3	0.00e+00	0	41	0	891289600	56	6731
2026-01-25 16:46:32.69	284.89	26.11	-42.3	-43.5	21.3	0.00e+00	0	41	0	898629632	58	6064
2026-01-25 16:46:36.73	283.87	25.75	-40.1	-41.0	23.4	0.00e+00	0	41	0	905969664	54	5729
2026-01-25 16:46:40.76	282.87	25.38	-39.6	-40.5	23.8	0.00e+00	0	41	0	914358272	52	6061
2026-01-25 16:46:44.80	281.90	25.01	-39.6	-40.5	23.5	0.00e+00	0	41	0	921698304	52	6073
2026-01-25 16:46:48.83	280.95	24.63	-39.1	-40.0	24.1	0.00e+00	36	41	0	929038336	52	5698
2026-01-25 16:46:52.87	280.02	24.26	-39.4	-40.2	23.9	0.00e+00	0	41	0	936378368	52	5864
2026-01-25 16:46:56.91	279.11	23.87	-40.0	-40.9	23.3	0.00e+00	0	41	0	943718400	52	6339
2026-01-25 16:47:00.94	278.23	23.49	-40.0	-40.9	23.2	0.00e+00	0	41	0	952107008	52	6381
2026-01-25 16:47:04.98	277.37	23.11	-39.2	-40.0	24.1	0.00e+00	54	41	0	959447040	52	5756
2026-01-25 16:47:09.01	276.53	22.72	-38.0	-38.8	24.8	0.00e+00	0	41	0	966787072	50	5591
2026-01-25 16:47:13.05	275.71	22.33	-38.2	-39.0	24.7	0.00e+00	0	41	0	974127104	50	5708
2026-01-25 16:47:17.09	274.90	21.95	-39.3	-40.2	23.8	0.00e+00	33	41	0	982515712	50	6564
2026-01-25 16:47:21.13	274.12	21.56	-39.3	-40.2	23.9	0.00e+00	92	41	0	989855744	50	6552
2026-01-25 16:47:25.17	273.36	21.17	-39.5	-40.3	23.6	0.00e+00	0	41	0	997195776	50	6674
2026-01-25 16:47:29.21	272.62	20.79	-39.7	-40.6	23.5	0.00e+00	0	41	0	1004535808	52	6107
2026-01-25 16:47:33.25	271.90	20.40	-38.6	-39.4	24.4	0.00e+00	47	41	0	1011875840	50	5983
2026-01-25 16:47:37.28	271.19	20.02	-38.7	-39.5	24.3	0.00e+00	0	41	0	1020264448	50	6041
2026-01-25 16:47:41.31	270.51	19.64	-40.2	-41.1	23.0	0.00e+00	0	41	0	1027604480	52	6498
2026-01-25 16:47:45.35	269.83	19.26	-39.6	-40.5	23.4	0.00e+00	0	41	0	1034944512	52	6087
2026-01-25 16:47:49.39	269.18	18.88	-38.6	-39.4	24.3	0.00e+00	92	41	0	1042284544	50	6000
2026-01-25 16:47:53.42	268.54	18.50	-39.4	-40.3	23.6	0.00e+00	0	41	0	1050673152	50	6644
2026-01-25 16:47:57.46	267.92	18.13	-40.8	-41.8	22.5	0.00e+00	0	41	0	1058013184	54	6288
2026-01-25 16:48:01.50	267.32	17.75	-40.9	-41.9	22.4	0.00e+00	0	41	0	1065353216	54	6365
2026-01-25 16:48:05.54	266.72	17.38	-40.1	-41.1	23.0	0.00e+00	92	41	0	1072693248	54	5776
2026-01-25 16:48:09.57	266.15	17.02	-40.7	-41.7	22.5	0.00e+00	0	41	0	1080033280	54	6219
2026-01-25 16:48:13.61	265.58	16.65	-41.1	-42.1	22.2	0.00e+00	0	41	0	1088421888	54	6517
2026-01-25 16:48:17.65	265.03	16.29	-40.3	-41.3	22.9	0.00e+00	28	41	0	1095761920	54	5932
2026-01-25 16:48:21.69	264.50	15.93	-39.8	-40.7	23.3	0.00e+00	92	41	0	1103101952	52	6239
2026-01-25 16:48:25.72	263.98	15.57	-39.8	-40.7	23.3	0.00e+00	0	41	0	1110441984	52	6216
2026-01-25 16:48:29.76	263.47	15.22	-40.3	-41.2	22.9	0.00e+00	0	41	0	1118830592	52	6587
2026-01-25 16:48:33.80	262.97	14.86	-40.3	-41.3	22.9	0.00e+00	36	41	0	1126170624	52	6620
2026-01-25 16:48:37.84	262.48	14.51	-39.9	-40.8	23.2	0.00e+00	0	41	0	1133510656	52	6289
2026-01-25 16:48:41.88	262.01	14.17	-40.8	-41.9	22.3	0.00e+00	0	41	0	1140850688	54	6330
2026-01-25 16:48:45.91	261.54	13.83	-42.2	-43.4	21.2	0.00e+00	0	41	0	1148190720	56	6755
2026-01-25 16:48:49.95	261.09	13.49	-40.9	-41.9	22.3	0.00e+00	61	41	0	1156579328	56	5664
2026-01-25 16:48:53.99	260.65	13.15	-40.0	-40.9	23.0	0.00e+00	0	41	0	1163919360	54	5670
2026-01-25 16:48:58.02	260.21	12.82	-40.0	-41.0	22.7	0.00e+00	0	41	0	1171259392	52	6407
2026-01-25 16:49:02.06	259.79	12.48	-41.5	-42.6	21.5	0.00e+00	0	41	0	1178599424	54	6913
2026-01-25 16:49:06.10	259.38	12.16	-42.9	-44.3	20.2	0.00e+00	91	41	0	1186988032	58	6626
2026-01-25 16:49:10.13	258.98	11.83	-42.6	-43.9	20.5	0.00e+00	0	41	0	1194328064	58	6375
2026-01-25 16:49:14.17	258.58	11.51	-42.6	-43.8	20.7	0.00e+00	0	41	0	1201668096	58	6307
2026-01-25 16:49:18.21	258.20	11.19	-42.3	-43.5	20.9	0.00e+00	30	41	0	1209008128	58	6073
2026-01-25 16:49:22.24	257.82	10.87	-42.0	-43.1	20.9	0.00e+00	44	41	0	1216348160	58	5811
2026-01-25 16:49:26.28	257.45	10.56	-42.6	-43.8	20.4	0.00e+00	0	41	0	1224736768	58	6304
2026-01-25 16:49:30.32	257.09	10.25	-42.3	-43.5	20.8	0.00e+00	0	41	0	1232076800	58	6087
2026-01-25 16:49:34.35	256.74	9.94	-41.9	-43.1	21.2	0.00e+00	92	41	0	1239416832	58	5800
2026-01-25 16:49:38.39	256.39	9.63	-41.1	-42.2	21.9	0.00e+00	0	41	0	1246756864	56	5843
2026-01-25 16:49:42.42	256.05	9.33	-40.8	-41.9	22.1	0.00e+00	0	41	0	1255145472	54	6328
2026-01-25 16:49:46.46	255.72	9.03	-41.1	-42.2	21.8	0.00e+00	0	41	0	1262485504	54	6568
2026-01-25 16:49:50.51	255.40	8.73	-42.2	-43.4	20.8	0.00e+00	92	41	0	1269825536	56	6738
2026-01-25 16:49:54.55	255.08	8.44	-43.1	-44.5	19.8	0.00e+00	0	41	0	1277165568	58	6825
2026-01-25 16:49:58.58	254.77	8.15	-43.3	-44.8	19.5	0.00e+00	0	41	0	1284505600	58	7059
2026-01-25 16:50:02.62	254.46	7.86	-43.3	-44.8	19.4	0.00e+00	19	41	0	1292894208	58	7070
2026-01-25 16:50:06.66	254.16	7.57	-43.4	-44.9	19.3	0.00e+00	91	41	0	1300234240	58	7167
2026-01-25 16:50:10.70	253.87	7.28	-43.5	-45.0	19.2	0.00e+00	0	41	0	1307574272	58	7242
2026-01-25 16:50:14.74	253.59	7.00	-43.3	-44.8	19.4	0.00e+00	0	41	0	1314914304	58	7035
2026-01-25 16:50:18.78	253.30	6.72	-42.9	-44.3	19.7	0.00e+00	63	41	0	1323302912	58	6664
2026-01-25 16:50:22.81	253.03	6.44	-43.2	-44.7	19.4	0.00e+00	0	41	0	1330642944	58	6972
2026-01-25 16:50:26.85	252.76	6.17	-43.9	-45.5	18.7	0.00e+00	0	41	0	1337982976	60	6806
2026-01-25 16:50:30.89	252.49	5.89	-43.8	-45.5	18.8	0.00e+00	0	41	0	1345323008	60	6787
2026-01-25 16:50:34.92	252.24	5.62	-44.4	-46.3	18.0	0.00e+00	90	41	0	1352663040	60	7433
2026-01-25 16:50:38.96	251.98	5.36	-44.4	-46.3	17.9	0.00e+00	0	41	0	1361051648	60	7462
2026-01-25 16:50:43.00	251.73	5.09	-44.3	-46.1	18.0	0.00e+00	0	41	0	1368391680	60	7267
2026-01-25 16:50:47.04	251.49	4.82	-44.6	-46.6	17.4	0.00e+00	0	41	0	1375731712	60	7690
2026-01-25 16:50:51.08	251.25	4.56	-44.6	-46.6	17.6	0.00e+00	91	41	0	1383071744	60	7697
2026-01-25 16:50:55.12	251.01	4.30	-44.3	-46.2	17.8	0.00e+00	0	41	0	1390411776	60	7361
2026-01-25 16:50:59.16	250.78	4.04	-44.4	-46.3	17.5	0.00e+00	0	41	0	1398800384	60	7440
2026-01-25 16:51:03.19	250.55	3.79	-44.3	-46.2	17.7	0.00e+00	71	41	0	1406140416	60	7397
2026-01-25 16:51:07.23	250.33	3.53	-44.4	-46.4	17.4	0.00e+00	0	41	0	1413480448	60	7542
2026-01-25 16:51:11.27	250.11	3.28	-45.0	-47.2	16.7	0.00e+00	0	41	0	1420820480	60	8301
2026-01-25 16:51:15.31	249.89	3.03	-44.8	-46.9	16.4	0.00e+00	0	41	0	1429209088	60	7975
2026-01-25 16:51:19.35	249.68	2.78	-50.9	-66.1	3.6	1.51e+00	0	41	104	1429209088	60	72998
2026-01-25 16:51:23.39	249.47	2.54	-51.1	-66.3	3.6	1.51e+00	0	41	104	1429209088	60	74862
2026-01-25 16:51:27.43	249.27	2.29	-51.1	-66.4	3.6	1.51e+00	0	41	104	1429209088	60	75498
2026-01-25 16:51:31.47	249.07	2.05	-50.7	-66.3	3.6	1.51e+00	0	41	104	1429209088	60	74375
2026-01-25 16:51:35.51	248.87	1.81	-50.9	-66.2	3.6	1.51e+00	0	41	104	1429209088	60	74168
2026-01-25 16:51:39.55	248.68	1.57	-51.0	-66.3	3.6	1.51e+00	0	41	104	1429209088	60	74245
2026-01-25 16:51:43.59	248.49	1.33	-51.1	-66.2	3.6	1.51e+00	0	41	104	1429209088	60	74151
2026-01-25 16:51:47.62	248.30	1.09	-51.1	-66.3	3.6	1.51e+00	0	41	104	1429209088	60	74367
2026-01-25 16:51:51.66	248.12	0.86	-51.1	-66.3	3.6	1.51e+00	0	41	104	1429209088	60	74614
2026-01-25 16:51:55.70	247.93	0.62	-51.1	-66.4	3.6	1.51e+00	0	41	104	1429209088	60	75154
2026-01-25 16:51:59.74	247.76	0.39	-51.1	-66.3	3.6	1.51e+00	0	41	104	1429209088	60	74350
2026-01-25 16:52:03.77	247.58	0.16	-51.1	-66.3	3.6	1.51e+00	0	41	104	1429209088	60	74695

#Closed at: 2026-01-25 16:52:07
#Recorded file [1429 MB]: D:/lorett/data/35029_260126_043735.dat