passes_logs/2026/01/25/R4.6S_Anadyr/R4.6S_Anadyr__20260125_225107_2024-110A_rec.log

#Pass ID: 20260125_225107_2024-110A
#Satellite: 2024-110A
#Configuration: 01B_900M
#almurnet v.1.7.20251203
#Start time: 2026-01-25 22:51:12

#Version: 2.2.20231116
#Station: R4.6S_Anadyr
#Location: 177.4865 lon 64.73178 lat
#TLE: 1 60012U 24110A   26025.53726470  .00013446  00000+0  80489-3 0  9995
#TLE: 2 60012  97.5725 118.4384 0009502  33.6364 326.5468 15.11106268 90358

#Time	Az	El	Level	Level2	SNR	BER	BlckErr	Temp	State	Recorded	gain1	gain2
2026-01-25 22:51:12.73	23.34	0.28	-50.6	-52.2	5.6	0.00e+00	0	34	0	0	60	50044
2026-01-25 22:51:15.75	23.62	0.44	-50.8	-53.3	6.1	7.54e-01	0	35	104	0	60	56312
2026-01-25 22:51:18.78	23.91	0.60	-50.9	-53.3	6.1	7.54e-01	0	35	104	0	60	56952
2026-01-25 22:51:21.81	24.20	0.77	-50.7	-53.2	6.1	7.54e-01	0	35	104	0	60	55924
2026-01-25 22:51:24.84	24.49	0.93	-50.9	-53.3	6.1	7.55e-01	0	36	104	0	60	56702
2026-01-25 22:51:27.87	24.78	1.09	-50.0	-52.5	6.1	7.55e-01	0	36	104	0	60	51543
2026-01-25 22:51:30.90	25.08	1.26	-49.8	-52.2	6.1	7.54e-01	0	36	104	0	60	49880
2026-01-25 22:51:33.93	25.39	1.42	-49.0	-51.6	6.1	7.54e-01	0	36	104	0	60	46304
2026-01-25 22:51:36.96	25.69	1.59	-48.8	-51.3	6.1	7.55e-01	0	36	104	0	60	44944
2026-01-25 22:51:39.99	26.00	1.76	-48.8	-51.3	6.1	7.55e-01	0	36	104	0	60	45128
2026-01-25 22:51:43.02	26.32	1.93	-48.9	-51.4	6.1	7.55e-01	0	36	104	0	60	45253
2026-01-25 22:51:46.05	26.64	2.09	-48.8	-51.2	6.1	7.55e-01	0	36	104	0	60	44693
2026-01-25 22:51:49.08	26.97	2.26	-48.7	-51.2	6.1	7.55e-01	0	36	104	0	60	44471
2026-01-25 22:51:52.11	27.29	2.43	-48.8	-51.3	6.1	7.53e-01	0	36	104	0	60	45080
2026-01-25 22:51:55.14	27.63	2.60	-48.8	-51.2	6.1	7.54e-01	0	36	104	0	60	44579
2026-01-25 22:51:58.17	27.97	2.77	-48.8	-51.3	6.1	7.55e-01	0	36	104	0	60	44780
2026-01-25 22:52:01.20	28.31	2.94	-48.7	-51.2	6.1	7.54e-01	0	36	104	0	60	44620
2026-01-25 22:52:04.23	28.66	3.12	-48.6	-51.2	6.1	7.55e-01	0	36	104	0	60	44521
2026-01-25 22:52:07.26	29.01	3.29	-48.7	-51.2	6.1	7.54e-01	0	36	104	0	60	44655
2026-01-25 22:52:10.28	29.36	3.46	-48.9	-51.4	6.1	7.53e-01	0	36	104	0	60	45315
2026-01-25 22:52:13.31	29.73	3.64	-48.8	-51.3	6.1	7.54e-01	0	36	104	0	60	44755
2026-01-25 22:52:16.34	30.09	3.81	-49.0	-51.4	6.1	7.55e-01	0	36	104	0	60	45692
2026-01-25 22:52:19.37	30.47	3.99	-48.8	-51.3	6.1	7.55e-01	0	36	104	0	60	45156
2026-01-25 22:52:22.40	30.84	4.16	-48.8	-51.4	6.1	7.55e-01	0	36	104	0	60	45318
2026-01-25 22:52:25.42	31.23	4.34	-48.7	-51.3	6.1	7.54e-01	0	36	104	0	60	44984
2026-01-25 22:52:28.45	31.62	4.52	-48.9	-51.4	6.1	7.54e-01	0	36	104	0	60	45697
2026-01-25 22:52:31.47	32.01	4.69	-48.9	-51.4	6.1	7.55e-01	0	36	104	0	60	45544
2026-01-25 22:52:34.50	32.41	4.87	-49.1	-51.5	6.0	7.54e-01	0	36	104	0	60	46297
2026-01-25 22:52:37.53	32.82	5.05	-49.1	-51.7	6.1	7.54e-01	0	36	104	0	60	47044
2026-01-25 22:52:40.56	33.23	5.23	-49.1	-51.6	6.1	7.54e-01	0	36	104	0	60	46501
2026-01-25 22:52:43.58	33.65	5.41	-49.2	-51.7	6.1	7.55e-01	0	36	104	0	60	47353
2026-01-25 22:52:46.60	34.07	5.59	-49.2	-51.7	6.1	7.55e-01	0	36	104	0	60	47211
2026-01-25 22:52:49.63	34.50	5.77	-49.2	-51.8	6.1	7.54e-01	0	36	104	0	60	47783
2026-01-25 22:52:52.66	34.94	5.95	-49.4	-51.9	6.1	7.55e-01	0	36	104	0	60	48316
2026-01-25 22:52:55.69	35.38	6.13	-49.4	-51.8	6.1	7.54e-01	0	36	104	0	60	47819
2026-01-25 22:52:58.72	35.83	6.31	-49.4	-51.9	6.1	7.55e-01	0	36	104	0	60	48313
2026-01-25 22:53:01.74	36.29	6.50	-49.4	-51.9	6.1	7.54e-01	0	36	104	0	60	48278
2026-01-25 22:53:04.77	36.75	6.68	-49.5	-52.0	6.1	7.55e-01	0	36	104	0	60	48534
2026-01-25 22:53:07.79	37.22	6.86	-49.2	-51.8	6.1	7.55e-01	0	36	104	0	60	47515
2026-01-25 22:53:10.82	37.70	7.05	-49.5	-52.0	6.1	7.54e-01	0	36	104	0	60	49011
2026-01-25 22:53:13.85	38.18	7.23	-49.7	-52.1	6.1	7.54e-01	0	36	104	0	60	49486
2026-01-25 22:53:16.87	38.67	7.41	-49.4	-51.9	6.1	7.54e-01	0	36	104	0	60	48401
2026-01-25 22:53:19.90	39.17	7.60	-48.7	-51.4	6.1	7.54e-01	0	36	104	0	60	45317
2026-01-25 22:53:22.92	39.68	7.78	-49.3	-51.9	6.1	7.55e-01	0	36	104	0	60	47961
2026-01-25 22:53:25.95	40.19	7.96	-48.5	-51.2	6.1	7.55e-01	0	36	104	0	60	44479
2026-01-25 22:53:28.98	40.71	8.15	-48.1	-50.7	6.1	7.54e-01	0	36	104	0	60	42021
2026-01-25 22:53:32.01	41.24	8.33	-48.1	-50.4	6.1	7.54e-01	0	36	104	0	60	40473
2026-01-25 22:53:35.04	41.78	8.52	-37.9	-38.1	13.5	7.06e-01	0	37	0	100663296	48	19665
2026-01-25 22:53:38.07	42.33	8.70	-37.5	-37.7	14.5	7.01e-01	0	37	0	234881024	50	16664
2026-01-25 22:53:41.10	42.88	8.88	-32.1	-32.4	16.3	6.76e-01	0	37	0	570425344	40	16103
2026-01-25 22:53:44.13	43.45	9.07	-36.2	-36.5	12.8	7.01e-01	0	37	0	914358272	44	20500
2026-01-25 22:53:47.16	44.02	9.25	-35.3	-35.5	14.4	6.90e-01	0	37	0	1140850688	46	16330
2026-01-25 22:53:50.19	44.60	9.43	-30.8	-31.1	17.3	6.74e-01	0	37	0	1476395008	36	17527
2026-01-25 22:53:53.22	45.18	9.61	-31.3	-31.6	17.5	6.75e-01	0	37	0	1820327936	36	18562
2026-01-25 22:53:56.24	45.78	9.79	-27.7	-28.0	18.4	6.71e-01	0	37	0	2155872256	32	15377
2026-01-25 22:53:59.27	46.38	9.97	-29.1	-29.4	18.5	6.71e-01	0	37	0	2499805184	36	14350
2026-01-25 22:54:02.29	47.00	10.15	-27.2	-27.5	19.1	6.71e-01	0	37	0	2835349504	32	14577
2026-01-25 22:54:05.31	47.62	10.33	-26.1	-26.4	19.3	6.69e-01	0	37	0	3179282432	26	18120
2026-01-25 22:54:08.34	48.25	10.51	-25.5	-25.8	19.2	6.69e-01	0	37	0	3523215360	26	16887
2026-01-25 22:54:11.37	48.89	10.68	-25.5	-25.8	19.5	6.68e-01	0	37	0	3867148288	26	16936
2026-01-25 22:54:14.40	49.54	10.86	-25.3	-25.6	19.5	6.68e-01	0	37	0	4202692608	26	16542
2026-01-25 22:54:17.43	50.20	11.03	-25.4	-25.7	19.5	6.69e-01	0	37	0	4546625536	26	16729
2026-01-25 22:54:20.46	50.86	11.21	-25.4	-25.7	19.2	6.69e-01	0	37	0	4890558464	26	16746
2026-01-25 22:54:23.48	51.54	11.38	-25.6	-25.9	19.2	6.68e-01	0	37	0	5226102784	26	17007
2026-01-25 22:54:26.51	52.23	11.55	-25.2	-25.5	19.7	6.68e-01	0	37	0	5570035712	26	16377
2026-01-25 22:54:29.54	52.92	11.71	-25.3	-25.6	19.5	6.68e-01	0	37	0	5905580032	26	16440
2026-01-25 22:54:32.56	53.62	11.88	-25.0	-25.3	19.5	6.69e-01	0	37	0	6249512960	26	15914
2026-01-25 22:54:35.59	54.34	12.04	-24.9	-25.2	19.7	6.69e-01	0	37	0	6585057280	26	15725
2026-01-25 22:54:38.62	55.06	12.20	-25.0	-25.2	19.2	6.70e-01	0	37	0	6928990208	26	15853
2026-01-25 22:54:41.64	55.79	12.36	-24.9	-25.2	19.8	6.69e-01	0	37	0	7272923136	24	17704
2026-01-25 22:54:44.67	56.53	12.52	-24.8	-25.1	19.4	6.70e-01	0	37	0	7608467456	24	17491
2026-01-25 22:54:47.70	57.28	12.67	-25.1	-25.4	19.9	6.67e-01	0	37	0	7952400384	24	18029
2026-01-25 22:54:50.72	58.04	12.82	-24.9	-25.2	19.4	6.69e-01	0	37	0	8287944704	24	17686
2026-01-25 22:54:53.75	58.81	12.97	-24.8	-25.1	19.8	6.67e-01	0	37	0	8631877632	24	17578
2026-01-25 22:54:56.78	59.59	13.12	-24.7	-25.0	19.5	6.68e-01	0	37	0	8967421952	24	17202
2026-01-25 22:54:59.80	60.37	13.26	-24.7	-25.0	19.8	6.67e-01	0	37	0	9311354880	24	17303
2026-01-25 22:55:02.83	61.16	13.40	-24.5	-24.8	19.2	6.69e-01	0	37	0	9655287808	24	16914
2026-01-25 22:55:05.86	61.97	13.53	-24.5	-24.8	19.7	6.68e-01	0	37	0	9990832128	24	16947
2026-01-25 22:55:08.88	62.78	13.66	-24.5	-24.7	19.7	6.68e-01	0	37	0	10334765056	24	16790
2026-01-25 22:55:11.91	63.60	13.79	-24.5	-24.8	20.0	6.67e-01	0	37	0	10678697984	24	16839
2026-01-25 22:55:14.94	64.43	13.91	-24.4	-24.6	20.0	6.67e-01	0	37	0	11014242304	24	16593
2026-01-25 22:55:17.96	65.26	14.03	-24.9	-25.1	20.0	6.67e-01	0	37	0	11358175232	24	17544
2026-01-25 22:55:20.99	66.10	14.15	-24.4	-24.7	19.9	6.66e-01	0	37	0	11693719552	24	16721
2026-01-25 22:55:24.02	66.95	14.26	-24.3	-24.6	19.4	6.68e-01	0	37	0	12037652480	24	16478
2026-01-25 22:55:27.04	67.81	14.36	-24.2	-24.5	20.0	6.68e-01	0	37	0	12381585408	24	16368
2026-01-25 22:55:30.07	68.67	14.46	-24.2	-24.5	20.0	6.67e-01	0	37	0	12717129728	24	16335
2026-01-25 22:55:33.09	69.54	14.56	-24.4	-24.7	19.9	6.67e-01	0	37	0	13052674048	24	16627
2026-01-25 22:55:36.12	70.42	14.65	-24.1	-24.4	19.7	6.68e-01	0	37	0	13396606976	24	16091
2026-01-25 22:55:39.14	71.30	14.74	-24.2	-24.5	20.1	6.67e-01	0	37	0	13732151296	24	16352
2026-01-25 22:55:42.17	72.19	14.82	-24.2	-24.5	20.0	6.67e-01	0	37	0	14076084224	24	16305
2026-01-25 22:55:45.20	73.08	14.89	-24.0	-24.3	20.2	6.67e-01	0	37	0	14420017152	24	15944
2026-01-25 22:55:48.23	73.98	14.96	-24.0	-24.3	20.2	6.67e-01	0	37	0	14755561472	24	15927
2026-01-25 22:55:51.25	74.88	15.02	-23.9	-24.2	20.2	6.67e-01	0	37	0	15099494400	24	15743
2026-01-25 22:55:54.28	75.79	15.08	-24.0	-24.3	19.9	6.68e-01	0	37	0	15443427328	24	15982
2026-01-25 22:55:57.31	76.71	15.13	-24.2	-24.4	19.7	6.68e-01	0	37	0	15778971648	24	16205
2026-01-25 22:56:00.34	77.62	15.18	-24.2	-24.5	20.1	6.68e-01	0	37	0	16122904576	24	16348
2026-01-25 22:56:03.36	78.54	15.22	-24.0	-24.3	20.2	6.66e-01	0	37	0	16466837504	24	16027
2026-01-25 22:56:06.38	79.45	15.25	-24.1	-24.4	19.3	6.69e-01	0	37	0	16802381824	24	16100
2026-01-25 22:56:09.41	80.38	15.28	-24.1	-24.4	19.6	6.69e-01	0	37	0	17146314752	24	16185
2026-01-25 22:56:12.43	81.30	15.30	-24.5	-24.8	20.3	6.66e-01	0	37	0	17481859072	24	16883
2026-01-25 22:56:15.46	82.23	15.31	-23.9	-24.2	20.3	6.67e-01	0	37	0	17825792000	24	15717
2026-01-25 22:56:18.49	83.15	15.32	-23.9	-24.2	20.3	6.67e-01	0	37	0	18161336320	24	15814
2026-01-25 22:56:21.52	84.08	15.32	-24.3	-24.6	20.3	6.67e-01	0	37	0	18505269248	24	16466
2026-01-25 22:56:24.54	85.01	15.32	-24.1	-24.4	20.3	6.67e-01	0	37	0	18849202176	24	16176
2026-01-25 22:56:27.57	85.93	15.31	-24.3	-24.6	20.3	6.68e-01	0	37	0	19184746496	24	16524
2026-01-25 22:56:30.60	86.86	15.29	-24.0	-24.3	20.3	6.68e-01	0	37	0	19528679424	24	15990
2026-01-25 22:56:33.63	87.79	15.27	-24.0	-24.3	20.3	6.67e-01	0	37	0	19864223744	24	15921
2026-01-25 22:56:36.65	88.71	15.24	-24.0	-24.2	20.4	6.67e-01	0	37	0	20208156672	24	15849
2026-01-25 22:56:39.69	89.63	15.20	-24.1	-24.4	20.3	6.67e-01	0	37	0	20543700992	24	16129
2026-01-25 22:56:42.71	90.55	15.16	-24.3	-24.6	20.3	6.67e-01	0	37	0	20887633920	24	16593
2026-01-25 22:56:45.74	91.46	15.12	-24.3	-24.6	20.3	6.67e-01	0	37	0	21231566848	24	16458
2026-01-25 22:56:48.77	92.37	15.06	-24.5	-24.8	20.3	6.65e-01	0	37	0	21567111168	24	16833
2026-01-25 22:56:51.79	93.28	15.00	-24.2	-24.5	20.3	6.68e-01	0	37	0	21911044096	24	16293
2026-01-25 22:56:54.81	94.18	14.94	-24.6	-24.9	20.3	6.68e-01	0	37	0	22254977024	24	17162
2026-01-25 22:56:57.84	95.08	14.87	-24.4	-24.7	20.2	6.67e-01	0	37	0	22590521344	24	16762
2026-01-25 22:57:00.87	95.97	14.79	-24.2	-24.5	20.4	6.66e-01	0	37	0	22934454272	24	16363
2026-01-25 22:57:03.90	96.86	14.71	-24.3	-24.6	20.4	6.67e-01	0	37	0	23278387200	24	16475
2026-01-25 22:57:06.93	97.74	14.62	-24.9	-25.1	20.3	6.66e-01	0	37	0	23613931520	24	17553
2026-01-25 22:57:09.96	98.62	14.53	-25.3	-25.6	20.2	6.67e-01	0	37	0	23957864448	24	18584
2026-01-25 22:57:12.98	99.48	14.43	-24.6	-24.9	20.3	6.67e-01	0	37	0	24293408768	24	17054
2026-01-25 22:57:16.01	100.35	14.33	-24.6	-24.9	20.3	6.67e-01	0	37	0	24637341696	24	17006
2026-01-25 22:57:19.04	101.20	14.22	-24.4	-24.7	20.3	6.68e-01	0	37	0	24972886016	24	16647
2026-01-25 22:57:22.07	102.05	14.11	-24.6	-24.9	20.3	6.68e-01	0	37	0	25316818944	24	17009
2026-01-25 22:57:25.09	102.89	13.99	-24.9	-25.2	20.4	6.66e-01	0	37	0	25660751872	24	17762
2026-01-25 22:57:28.12	103.73	13.87	-24.6	-24.9	20.4	6.65e-01	0	37	0	25996296192	24	17136
2026-01-25 22:57:31.15	104.55	13.74	-24.9	-25.2	20.4	6.67e-01	0	37	0	26340229120	24	17707
2026-01-25 22:57:34.17	105.37	13.61	-25.3	-25.6	20.3	6.67e-01	0	37	0	26675773440	24	18534
2026-01-25 22:57:37.20	106.18	13.48	-24.8	-25.1	20.3	6.66e-01	0	37	0	27019706368	24	17513
2026-01-25 22:57:40.23	106.98	13.34	-24.9	-25.2	20.3	6.66e-01	0	37	0	27355250688	24	17603
2026-01-25 22:57:43.26	107.77	13.20	-24.8	-25.1	20.4	6.67e-01	0	37	0	27699183616	24	17453
2026-01-25 22:57:46.29	108.56	13.06	-24.9	-25.2	20.3	6.66e-01	0	37	0	28043116544	26	15743
2026-01-25 22:57:49.32	109.34	12.91	-25.0	-25.2	20.4	6.67e-01	0	37	0	28378660864	26	15858
2026-01-25 22:57:52.35	110.10	12.76	-25.2	-25.6	20.2	6.67e-01	0	37	0	28722593792	26	16444
2026-01-25 22:57:55.38	110.86	12.61	-26.2	-26.5	20.1	6.67e-01	0	37	0	29066526720	26	18232
2026-01-25 22:57:58.40	111.61	12.46	-25.1	-25.4	20.4	6.67e-01	0	37	0	29402071040	26	16067
2026-01-25 22:58:01.43	112.35	12.30	-25.3	-25.6	20.4	6.67e-01	0	37	0	29746003968	26	16456
2026-01-25 22:58:04.46	113.08	12.14	-26.5	-26.8	20.0	6.67e-01	0	37	0	30089936896	26	19035
2026-01-25 22:58:07.49	113.80	11.97	-26.4	-26.6	20.1	6.66e-01	0	37	0	30425481216	26	18603
2026-01-25 22:58:10.52	114.51	11.81	-25.3	-25.5	20.3	6.66e-01	0	37	0	30769414144	26	16381
2026-01-25 22:58:13.54	115.21	11.64	-26.1	-26.3	20.1	6.67e-01	0	37	0	31104958464	26	17918
2026-01-25 22:58:16.57	115.90	11.47	-25.6	-25.9	20.2	6.66e-01	0	37	0	31448891392	26	17166
2026-01-25 22:58:19.60	116.59	11.30	-27.3	-27.6	19.9	6.68e-01	0	37	0	31792824320	26	20837
2026-01-25 22:58:22.63	117.26	11.13	-25.8	-26.1	20.2	6.66e-01	0	37	0	32128368640	26	17420
2026-01-25 22:58:25.65	117.93	10.96	-25.7	-26.0	20.3	6.66e-01	0	37	0	32472301568	26	17278
2026-01-25 22:58:28.68	118.58	10.78	-27.1	-27.3	20.1	6.68e-01	0	37	0	32807845888	28	17937
2026-01-25 22:58:31.71	119.23	10.60	-25.8	-26.1	20.2	6.66e-01	0	37	0	33151778816	26	17479
2026-01-25 22:58:34.74	119.87	10.43	-25.7	-26.0	20.2	6.67e-01	0	37	0	33487323136	26	17389
2026-01-25 22:58:37.77	120.50	10.25	-25.7	-26.0	20.2	6.67e-01	0	37	0	33831256064	26	17286
2026-01-25 22:58:40.80	121.12	10.07	-26.0	-26.3	20.1	6.69e-01	0	37	0	34175188992	26	17958
2026-01-25 22:58:43.83	121.73	9.89	-49.7	-52.4	6.1	7.55e-01	0	37	104	34309406720	60	50980
2026-01-25 22:58:46.86	122.33	9.71	-50.0	-52.4	6.1	7.55e-01	0	36	104	34309406720	60	51314
2026-01-25 22:58:49.88	122.92	9.52	-49.6	-52.2	6.1	7.54e-01	0	36	104	34309406720	60	50058
2026-01-25 22:58:52.91	123.51	9.34	-49.7	-52.2	6.1	7.54e-01	0	36	104	34309406720	60	49764
2026-01-25 22:58:55.94	124.09	9.16	-49.8	-52.3	6.1	7.54e-01	0	36	104	34309406720	60	50330
2026-01-25 22:58:58.97	124.65	8.97	-49.8	-52.3	6.1	7.56e-01	0	36	104	34309406720	60	50657
2026-01-25 22:59:02.00	125.22	8.79	-49.1	-51.7	6.1	7.54e-01	0	36	104	34309406720	60	47296
2026-01-25 22:59:05.03	125.77	8.61	-49.6	-52.1	6.1	7.54e-01	0	36	104	34309406720	60	49322
2026-01-25 22:59:08.05	126.31	8.42	-49.6	-52.1	6.1	7.55e-01	0	36	104	34309406720	60	49469
2026-01-25 22:59:11.08	126.84	8.24	-49.5	-52.0	6.1	7.54e-01	0	36	104	34309406720	60	48873
2026-01-25 22:59:14.11	127.37	8.05	-49.6	-52.1	6.1	7.54e-01	0	36	104	34309406720	60	49386
2026-01-25 22:59:17.14	127.89	7.87	-49.6	-52.2	6.1	7.56e-01	0	36	104	34309406720	60	49640
2026-01-25 22:59:20.16	128.40	7.68	-49.6	-52.0	6.1	7.54e-01	0	36	104	34309406720	60	48978
2026-01-25 22:59:23.19	128.91	7.50	-49.6	-52.2	6.1	7.54e-01	0	36	104	34309406720	60	49722
2026-01-25 22:59:26.22	129.40	7.31	-49.6	-52.1	6.1	7.54e-01	0	36	104	34309406720	60	49436
2026-01-25 22:59:29.25	129.89	7.13	-49.5	-52.0	6.1	7.54e-01	0	36	104	34309406720	60	48745
2026-01-25 22:59:32.27	130.38	6.94	-49.6	-52.1	6.1	7.53e-01	0	36	104	34309406720	60	49349
2026-01-25 22:59:35.30	130.85	6.76	-49.6	-52.1	6.1	7.54e-01	0	36	104	34309406720	60	49406
2026-01-25 22:59:38.33	131.32	6.58	-49.5	-52.0	6.1	7.53e-01	0	36	104	34309406720	60	48862
2026-01-25 22:59:41.36	131.78	6.39	-49.7	-52.2	6.1	7.55e-01	0	36	104	34309406720	60	49925
2026-01-25 22:59:44.38	132.23	6.21	-49.4	-52.0	6.1	7.54e-01	0	36	104	34309406720	60	48530
2026-01-25 22:59:47.41	132.68	6.03	-49.5	-52.0	6.0	7.55e-01	0	36	104	34309406720	60	48830
2026-01-25 22:59:50.44	133.12	5.84	-49.4	-51.9	6.1	7.56e-01	0	36	104	34309406720	60	48219
2026-01-25 22:59:53.47	133.56	5.66	-49.4	-51.8	6.1	7.55e-01	0	36	104	34309406720	60	47913
2026-01-25 22:59:56.49	133.98	5.48	-49.5	-52.0	6.1	7.54e-01	0	36	104	34309406720	60	49009
2026-01-25 22:59:59.51	134.40	5.30	-49.6	-52.1	6.1	7.54e-01	0	36	104	34309406720	60	49060
2026-01-25 23:00:02.54	134.82	5.12	-49.4	-51.9	6.1	7.54e-01	0	36	104	34309406720	60	48396
2026-01-25 23:00:05.57	135.23	4.94	-49.4	-51.9	6.1	7.55e-01	0	36	104	34309406720	60	48148
2026-01-25 23:00:08.59	135.63	4.76	-49.3	-51.8	6.1	7.54e-01	0	36	104	34309406720	60	47869
2026-01-25 23:00:11.62	136.03	4.58	-49.4	-51.9	6.1	7.54e-01	0	36	104	34309406720	60	48445
2026-01-25 23:00:14.65	136.42	4.40	-49.5	-52.0	6.1	7.53e-01	0	36	104	34309406720	60	48509
2026-01-25 23:00:17.68	136.81	4.23	-49.4	-51.8	6.1	7.55e-01	0	36	104	34309406720	60	47819
2026-01-25 23:00:20.71	137.19	4.05	-49.2	-51.7	6.1	7.55e-01	0	36	104	34309406720	60	46939
2026-01-25 23:00:23.74	137.56	3.87	-49.5	-52.0	6.1	7.57e-01	0	36	104	34309406720	60	48677
2026-01-25 23:00:26.77	137.93	3.70	-49.3	-51.7	6.1	7.54e-01	0	36	104	34309406720	60	47346
2026-01-25 23:00:29.80	138.30	3.52	-48.9	-51.4	6.1	7.55e-01	0	36	104	34309406720	60	45414
2026-01-25 23:00:32.83	138.66	3.35	-49.1	-51.6	6.0	7.55e-01	0	36	104	34309406720	60	46617
2026-01-25 23:00:35.86	139.01	3.17	-48.6	-51.0	6.1	7.53e-01	0	36	104	34309406720	60	43595
2026-01-25 23:00:38.89	139.36	3.00	-49.6	-52.0	6.1	7.55e-01	0	36	104	34309406720	60	48595
2026-01-25 23:00:41.92	139.71	2.83	-50.1	-52.5	6.1	7.54e-01	0	36	104	34309406720	60	51945
2026-01-25 23:00:44.95	140.05	2.65	-50.1	-52.6	6.1	7.54e-01	0	36	104	34309406720	60	52150
2026-01-25 23:00:47.98	140.38	2.48	-50.5	-53.0	6.1	7.55e-01	0	36	104	34309406720	60	54658
2026-01-25 23:00:51.01	140.71	2.31	-50.4	-52.9	6.1	7.54e-01	0	36	104	34309406720	60	53849
2026-01-25 23:00:54.04	141.04	2.14	-50.3	-52.8	6.1	7.54e-01	0	36	104	34309406720	60	53594
2026-01-25 23:00:57.07	141.36	1.97	-50.2	-52.7	6.1	7.54e-01	0	36	104	34309406720	60	53019
2026-01-25 23:01:00.09	141.68	1.80	-50.3	-52.8	6.1	7.54e-01	0	36	104	34309406720	60	53338
2026-01-25 23:01:03.12	141.99	1.64	-50.4	-52.9	6.1	7.53e-01	0	36	104	34309406720	60	53922
2026-01-25 23:01:06.15	142.30	1.47	-50.5	-53.0	6.1	7.54e-01	0	36	104	34309406720	60	54501
2026-01-25 23:01:09.18	142.60	1.30	-50.7	-53.1	6.1	7.54e-01	0	36	104	34309406720	60	55212
2026-01-25 23:01:12.21	142.90	1.14	-50.8	-53.3	6.1	7.54e-01	0	36	104	34309406720	60	56747
2026-01-25 23:01:15.24	143.20	0.97	-50.6	-53.1	6.1	7.55e-01	0	36	104	34309406720	60	55352
2026-01-25 23:01:18.27	143.49	0.81	-51.1	-53.6	6.1	7.55e-01	0	36	104	34309406720	60	58481
2026-01-25 23:01:21.29	143.78	0.64	-51.1	-53.5	6.1	7.54e-01	0	36	104	34309406720	60	58223
2026-01-25 23:01:24.32	144.07	0.48	-50.9	-53.4	6.1	7.55e-01	0	36	104	34309406720	60	57094
2026-01-25 23:01:27.35	144.35	0.32	-51.2	-53.7	6.1	7.55e-01	0	36	104	34309406720	60	59165
2026-01-25 23:01:30.38	144.62	0.15	-51.4	-53.9	6.1	7.53e-01	0	36	104	34309406720	60	60420
2026-01-25 23:01:33.40	144.90	-0.01	-51.1	-53.6	6.1	7.54e-01	0	36	104	34309406720	60	58510

#Closed at: 2026-01-25 23:01:34
#Recorded file [34309 MB]: D:/lorett/data/35029_260126_105112.dat