passes_logs/2026/01/25/R4.6S_Anadyr/R4.6S_Anadyr__20260125_053347_FENGYUN_3D_rec.log

#Pass ID: 20260125_053347_FENGYUN 3D
#Satellite: FENGYUN 3D
#Configuration: FENGYUN 3D
#almurnet v.1.7.20251203
#Start time: 2026-01-25 05:33:48

#Version: 2.2.20231116
#Station: R4.6S_Anadyr
#Location: 177.4865 lon 64.73178 lat
#TLE: 1 43010U 17072A   26024.51794477  .00000040  00000+0  40682-4 0  9990
#TLE: 2 43010  98.9961 356.4820 0002494  91.2631 268.8830 14.19699550424601

#Time	Az	El	Level	Level2	SNR	BER	BlckErr	Temp	State	Recorded	gain1	gain2
2026-01-25 05:33:48.47	245.84	0.04	-51.3	-63.0	3.5	8.46e-01	0	39	0	0	60	51328
2026-01-25 05:33:51.49	246.14	0.16	-50.9	-63.1	3.6	8.44e-01	0	40	104	0	60	51891
2026-01-25 05:33:54.52	246.44	0.28	-50.9	-63.0	3.6	8.44e-01	0	40	104	0	60	51181
2026-01-25 05:33:57.55	246.74	0.39	-50.7	-63.0	3.6	8.45e-01	0	40	104	0	60	50922
2026-01-25 05:34:00.57	247.04	0.51	-50.8	-63.1	3.6	8.46e-01	0	40	104	0	60	51482
2026-01-25 05:34:03.60	247.35	0.63	-50.9	-63.0	3.6	8.47e-01	0	40	104	0	60	51097
2026-01-25 05:34:06.63	247.66	0.74	-50.8	-63.0	3.6	8.45e-01	0	40	104	0	60	50909
2026-01-25 05:34:09.66	247.97	0.86	-50.6	-62.8	3.6	8.45e-01	0	41	104	0	60	49638
2026-01-25 05:34:12.69	248.29	0.98	-50.2	-62.3	3.6	8.45e-01	0	40	104	0	60	47277
2026-01-25 05:34:15.72	248.60	1.09	-48.5	-60.6	3.6	8.45e-01	0	41	104	0	60	38845
2026-01-25 05:34:18.74	248.92	1.21	-48.5	-60.6	3.6	8.46e-01	0	41	104	0	60	38714
2026-01-25 05:34:21.77	249.24	1.32	-48.5	-60.5	3.6	8.46e-01	0	41	104	0	60	38304
2026-01-25 05:34:24.81	249.57	1.44	-48.5	-60.6	3.6	8.47e-01	0	41	104	0	60	38664
2026-01-25 05:34:27.84	249.89	1.56	-48.5	-60.6	3.6	8.45e-01	0	41	104	0	60	38537
2026-01-25 05:34:30.87	250.22	1.67	-48.5	-60.5	3.6	8.46e-01	0	41	104	0	60	38497
2026-01-25 05:34:33.90	250.55	1.79	-48.4	-60.5	3.6	8.44e-01	0	41	104	0	60	38184
2026-01-25 05:34:36.93	250.89	1.90	-48.5	-60.6	3.6	8.45e-01	0	41	104	0	60	38519
2026-01-25 05:34:39.95	251.22	2.01	-48.4	-60.5	3.6	8.45e-01	0	41	104	0	60	38248
2026-01-25 05:34:42.98	251.56	2.13	-48.4	-60.5	3.6	8.45e-01	0	41	104	0	60	38368
2026-01-25 05:34:46.01	251.90	2.24	-48.4	-60.5	3.6	8.45e-01	0	41	104	0	60	38452
2026-01-25 05:34:49.04	252.25	2.35	-48.4	-60.4	3.6	8.45e-01	0	41	104	0	60	37653
2026-01-25 05:34:52.06	252.59	2.47	-48.5	-60.5	3.6	8.46e-01	0	41	104	0	60	38200
2026-01-25 05:34:55.09	252.94	2.58	-48.4	-60.3	3.6	8.45e-01	0	41	104	0	60	37274
2026-01-25 05:34:58.12	253.29	2.69	-48.4	-60.1	3.6	8.45e-01	0	41	104	0	60	36753
2026-01-25 05:35:01.15	253.64	2.80	-48.4	-60.5	3.6	8.46e-01	0	41	104	0	60	38077
2026-01-25 05:35:04.18	254.00	2.91	-46.8	-50.9	8.0	2.74e-01	0	41	0	3145728	60	12730
2026-01-25 05:35:07.21	254.36	3.02	-45.8	-48.8	10.9	5.12e-02	0	41	0	19922944	60	10000
2026-01-25 05:35:10.23	254.72	3.13	-48.3	-59.6	3.6	8.45e-01	0	41	104	23068672	60	34646
2026-01-25 05:35:13.26	255.08	3.24	-38.4	-39.3	20.5	0.00e+00	0	41	0	26214400	50	5963
2026-01-25 05:35:16.29	255.45	3.35	-38.5	-39.4	20.5	0.00e+00	0	41	0	44040192	50	6007
2026-01-25 05:35:19.32	255.82	3.46	-39.7	-40.7	19.4	0.00e+00	0	41	0	60817408	54	5531
2026-01-25 05:35:22.35	256.19	3.57	-37.5	-38.4	21.7	0.00e+00	0	41	0	77594624	48	5969
2026-01-25 05:35:25.38	256.56	3.68	-36.5	-37.2	22.9	0.00e+00	0	41	0	94371840	46	5896
2026-01-25 05:35:28.41	256.94	3.78	-36.2	-37.0	22.9	0.00e+00	0	41	0	111149056	46	5704
2026-01-25 05:35:31.43	257.32	3.89	-37.0	-37.9	22.4	0.00e+00	0	41	0	128974848	48	5637
2026-01-25 05:35:34.46	257.70	4.00	-40.9	-42.0	18.3	0.00e+00	0	41	0	145752064	54	6432
2026-01-25 05:35:37.49	258.09	4.10	-38.6	-39.4	20.8	0.00e+00	0	41	0	162529280	50	6011
2026-01-25 05:35:40.51	258.47	4.21	-39.5	-40.5	19.9	0.00e+00	0	41	0	179306496	52	6086
2026-01-25 05:35:43.54	258.86	4.31	-39.4	-40.4	20.0	0.00e+00	0	41	0	197132288	50	6714
2026-01-25 05:35:46.57	259.26	4.41	-38.1	-38.9	21.5	0.00e+00	0	41	0	213909504	50	5688
2026-01-25 05:35:49.60	259.65	4.52	-38.3	-39.1	21.2	0.00e+00	0	41	0	230686720	50	5810
2026-01-25 05:35:52.63	260.05	4.62	-37.7	-38.5	22.0	0.00e+00	0	41	0	248512512	48	6083
2026-01-25 05:35:55.66	260.45	4.72	-38.5	-39.4	21.3	0.00e+00	0	41	0	265289728	50	5970
2026-01-25 05:35:58.69	260.85	4.82	-37.9	-38.8	21.7	0.00e+00	0	41	0	282066944	50	5568
2026-01-25 05:36:01.72	261.26	4.92	-37.5	-38.3	22.1	0.00e+00	0	41	0	298844160	48	5946
2026-01-25 05:36:04.75	261.67	5.02	-37.3	-38.1	22.3	0.00e+00	0	41	0	315621376	48	5803
2026-01-25 05:36:07.78	262.08	5.11	-38.0	-38.9	21.7	0.00e+00	0	41	0	333447168	48	6325
2026-01-25 05:36:10.80	262.49	5.21	-37.7	-38.6	22.0	0.00e+00	0	41	0	350224384	48	6108
2026-01-25 05:36:13.83	262.91	5.31	-37.4	-38.2	22.4	0.00e+00	0	41	0	367001600	48	5836
2026-01-25 05:36:16.86	263.33	5.40	-37.1	-37.9	22.5	0.00e+00	0	41	0	383778816	48	5666
2026-01-25 05:36:19.89	263.75	5.50	-37.3	-38.1	22.4	0.00e+00	0	41	0	401604608	48	5778
2026-01-25 05:36:22.91	264.17	5.59	-37.8	-38.7	21.9	0.00e+00	0	41	0	418381824	48	6204
2026-01-25 05:36:25.94	264.60	5.68	-40.6	-41.6	22.3	0.00e+00	0	41	104	428867584	50	7743
2026-01-25 05:36:28.97	265.03	5.77	-37.3	-38.1	22.4	0.00e+00	0	41	0	444596224	48	5787
2026-01-25 05:36:32.00	265.46	5.86	-38.0	-38.8	21.9	0.00e+00	0	41	0	462422016	48	6303
2026-01-25 05:36:35.02	265.90	5.95	-37.4	-38.3	22.4	0.00e+00	0	41	0	479199232	48	5897
2026-01-25 05:36:38.05	266.33	6.04	-37.4	-38.1	22.5	0.00e+00	0	41	0	495976448	48	5796
2026-01-25 05:36:41.08	266.77	6.13	-37.6	-38.4	22.3	0.00e+00	0	41	0	513802240	48	5978
2026-01-25 05:36:44.11	267.22	6.21	-37.4	-38.2	22.6	0.00e+00	0	42	0	530579456	48	5866
2026-01-25 05:36:47.14	267.66	6.30	-36.8	-37.6	23.0	0.00e+00	0	41	0	547356672	48	5459
2026-01-25 05:36:50.16	268.11	6.38	-37.1	-37.9	22.9	0.00e+00	0	41	0	564133888	48	5658
2026-01-25 05:36:53.19	268.56	6.46	-36.5	-37.3	23.4	0.00e+00	0	41	0	581959680	46	5911
2026-01-25 05:36:56.22	269.01	6.54	-36.8	-37.5	23.3	0.00e+00	0	41	0	598736896	46	6089
2026-01-25 05:36:59.25	269.46	6.62	-36.8	-37.6	23.4	0.00e+00	0	41	0	615514112	46	6120
2026-01-25 05:37:02.28	269.92	6.70	-37.1	-37.9	22.9	0.00e+00	0	41	0	632291328	46	6330
2026-01-25 05:37:05.30	270.38	6.78	-37.4	-38.1	22.8	0.00e+00	0	41	0	649068544	46	6503
2026-01-25 05:37:08.33	270.84	6.85	-36.7	-37.4	23.4	0.00e+00	0	41	0	666894336	46	5992
2026-01-25 05:37:11.36	271.30	6.93	-37.4	-38.2	22.7	0.00e+00	0	41	0	683671552	46	6578
2026-01-25 05:37:14.39	271.77	7.00	-37.2	-38.0	22.9	0.00e+00	0	41	0	700448768	46	6428
2026-01-25 05:37:17.41	272.24	7.07	-36.8	-37.5	23.3	0.00e+00	0	41	0	718274560	46	6098
2026-01-25 05:37:20.44	272.71	7.14	-36.6	-37.4	23.4	0.00e+00	0	41	0	735051776	46	5986
2026-01-25 05:37:23.47	273.18	7.21	-37.1	-37.9	22.9	0.00e+00	0	41	0	751828992	46	6377
2026-01-25 05:37:26.49	273.65	7.28	-37.6	-38.3	22.6	0.00e+00	0	41	0	768606208	46	6687
2026-01-25 05:37:29.52	274.13	7.35	-36.4	-37.1	23.7	0.00e+00	0	41	0	786432000	46	5797
2026-01-25 05:37:32.54	274.61	7.41	-37.2	-38.0	22.9	0.00e+00	0	41	0	803209216	46	6432
2026-01-25 05:37:35.57	275.09	7.47	-36.6	-37.3	23.5	0.00e+00	0	41	0	819986432	46	5952
2026-01-25 05:37:38.61	275.57	7.54	-36.7	-37.4	23.4	0.00e+00	0	41	0	836763648	46	6014
2026-01-25 05:37:41.63	276.06	7.59	-36.7	-37.5	23.3	0.00e+00	0	41	0	853540864	46	6053
2026-01-25 05:37:44.66	276.55	7.65	-36.9	-37.6	23.4	0.00e+00	0	41	0	871366656	46	6151
2026-01-25 05:37:47.69	277.03	7.71	-36.0	-36.7	24.1	0.00e+00	0	41	0	888143872	46	5546
2026-01-25 05:37:50.72	277.52	7.76	-35.3	-36.0	24.7	0.00e+00	0	41	0	904921088	44	5704
2026-01-25 05:37:53.75	278.02	7.82	-35.9	-36.6	24.1	0.00e+00	0	41	0	921698304	44	6149
2026-01-25 05:37:56.78	278.51	7.87	-35.7	-36.5	24.3	0.00e+00	0	41	0	939524096	44	6040
2026-01-25 05:37:59.81	279.01	7.92	-35.3	-36.0	24.7	0.00e+00	0	41	0	956301312	44	5727
2026-01-25 05:38:02.80	279.50	7.97	-35.8	-36.5	24.3	0.00e+00	0	41	0	973078528	44	6092
2026-01-25 05:38:05.83	280.00	8.01	-36.9	-37.6	23.4	0.00e+00	0	41	0	989855744	46	6155
2026-01-25 05:38:08.86	280.50	8.06	-37.2	-37.9	23.2	0.00e+00	0	41	0	1006632960	46	6380
2026-01-25 05:38:11.89	281.00	8.10	-36.2	-36.9	24.0	0.00e+00	0	41	0	1024458752	46	5662
2026-01-25 05:38:14.91	281.50	8.14	-36.6	-37.3	23.6	0.00e+00	0	41	0	1041235968	46	5917
2026-01-25 05:38:17.94	282.00	8.18	-36.5	-37.3	23.7	0.00e+00	0	41	0	1058013184	46	5937
2026-01-25 05:38:20.97	282.51	8.22	-36.5	-37.3	23.7	0.00e+00	0	41	0	1075838976	46	5921
2026-01-25 05:38:24.00	283.01	8.25	-36.4	-37.1	23.9	0.00e+00	0	41	0	1092616192	46	5798
2026-01-25 05:38:27.03	283.52	8.29	-36.2	-36.8	24.0	0.00e+00	0	41	0	1109393408	46	5622
2026-01-25 05:38:30.05	284.03	8.32	-36.2	-37.0	24.0	0.00e+00	0	41	0	1126170624	46	5700
2026-01-25 05:38:33.09	284.54	8.35	-36.2	-37.0	24.0	0.00e+00	0	41	0	1142947840	46	5709
2026-01-25 05:38:36.11	285.05	8.37	-36.7	-37.5	23.6	0.00e+00	0	41	0	1160773632	46	6097
2026-01-25 05:38:39.14	285.56	8.40	-36.4	-37.1	23.9	0.00e+00	0	41	0	1177550848	46	5780
2026-01-25 05:38:42.17	286.07	8.42	-36.4	-37.1	23.8	0.00e+00	0	41	0	1194328064	46	5780
2026-01-25 05:38:45.20	286.59	8.45	-36.2	-36.9	24.0	0.00e+00	0	41	0	1211105280	46	5676
2026-01-25 05:38:48.23	287.10	8.47	-36.2	-36.9	24.0	0.00e+00	0	41	0	1228931072	46	5680
2026-01-25 05:38:51.26	287.62	8.48	-36.1	-36.8	24.1	0.00e+00	0	41	0	1245708288	46	5596
2026-01-25 05:38:54.28	288.13	8.50	-35.9	-36.6	24.2	0.00e+00	0	41	0	1262485504	46	5480
2026-01-25 05:38:57.31	288.65	8.51	-35.9	-36.7	24.2	0.00e+00	0	41	0	1279262720	46	5515
2026-01-25 05:39:00.34	289.16	8.53	-36.6	-37.4	23.7	0.00e+00	0	41	0	1297088512	46	5978
2026-01-25 05:39:03.36	289.68	8.54	-36.9	-37.6	23.4	0.00e+00	0	41	0	1313865728	46	6169
2026-01-25 05:39:06.39	290.19	8.54	-36.5	-37.2	23.8	0.00e+00	0	41	0	1330642944	46	5891
2026-01-25 05:39:09.42	290.71	8.55	-36.6	-37.3	23.6	0.00e+00	0	41	0	1347420160	46	5963
2026-01-25 05:39:12.44	291.23	8.55	-36.1	-36.9	24.0	0.00e+00	0	41	0	1365245952	46	5634
2026-01-25 05:39:15.47	291.74	8.56	-36.3	-37.0	23.9	0.00e+00	0	41	0	1382023168	46	5732
2026-01-25 05:39:18.50	292.26	8.56	-36.5	-37.2	23.9	0.00e+00	0	41	0	1398800384	46	5890
2026-01-25 05:39:21.53	292.78	8.55	-36.5	-37.2	23.7	0.00e+00	0	41	0	1415577600	46	5849
2026-01-25 05:39:24.55	293.29	8.55	-36.9	-37.7	23.4	0.00e+00	0	41	0	1432354816	46	6214
2026-01-25 05:39:27.58	293.81	8.55	-36.0	-36.7	24.1	0.00e+00	0	41	0	1450180608	46	5558
2026-01-25 05:39:30.61	294.33	8.54	-36.0	-36.8	24.1	0.00e+00	0	41	0	1466957824	46	5579
2026-01-25 05:39:33.63	294.84	8.53	-36.6	-37.3	23.8	0.00e+00	0	41	0	1483735040	46	5958
2026-01-25 05:39:36.66	295.36	8.52	-36.3	-37.0	23.8	0.00e+00	0	41	0	1501560832	46	5735
2026-01-25 05:39:39.69	295.87	8.50	-36.3	-37.0	23.9	0.00e+00	0	41	0	1518338048	46	5745
2026-01-25 05:39:42.72	296.39	8.49	-36.4	-37.0	23.9	0.00e+00	0	41	0	1535115264	46	5759
2026-01-25 05:39:45.75	296.90	8.47	-36.2	-37.0	23.9	0.00e+00	0	41	0	1551892480	46	5696
2026-01-25 05:39:48.78	297.41	8.45	-36.5	-37.3	23.6	0.00e+00	0	41	0	1569718272	46	5915
2026-01-25 05:39:51.81	297.93	8.43	-36.9	-37.6	23.4	0.00e+00	0	41	0	1586495488	46	6146
2026-01-25 05:39:54.83	298.44	8.40	-36.7	-37.4	23.5	0.00e+00	0	41	0	1603272704	46	6028
2026-01-25 05:39:57.86	298.95	8.38	-37.1	-37.9	23.1	0.00e+00	0	41	0	1620049920	46	6335
2026-01-25 05:40:00.89	299.46	8.35	-37.0	-37.7	23.2	0.00e+00	0	41	0	1636827136	46	6232
2026-01-25 05:40:03.92	299.97	8.32	-36.7	-37.4	23.4	0.00e+00	0	41	0	1654652928	46	6027
2026-01-25 05:40:06.95	300.48	8.29	-37.1	-37.9	23.0	0.00e+00	0	41	0	1671430144	46	6329
2026-01-25 05:40:09.98	300.98	8.26	-36.3	-36.9	23.8	0.00e+00	0	41	0	1688207360	46	5691
2026-01-25 05:40:13.01	301.49	8.22	-36.6	-37.3	23.5	0.00e+00	0	41	0	1704984576	46	5906
2026-01-25 05:40:16.03	301.99	8.18	-36.0	-36.9	19.2	1.09e-02	0	41	0	1722810368	46	5663
2026-01-25 05:40:19.06	302.50	8.15	-36.3	-37.1	23.8	0.00e+00	0	41	0	1739587584	46	5764
2026-01-25 05:40:22.09	303.00	8.11	-36.8	-37.6	23.2	0.00e+00	0	41	0	1756364800	46	6162
2026-01-25 05:40:25.12	303.50	8.06	-36.8	-37.5	23.4	0.00e+00	0	41	0	1774190592	46	6081
2026-01-25 05:40:28.15	304.00	8.02	-36.4	-37.1	23.8	0.00e+00	0	41	0	1790967808	46	5804
2026-01-25 05:40:31.17	304.50	7.97	-36.6	-37.3	23.6	0.00e+00	0	41	0	1807745024	46	5936
2026-01-25 05:40:34.20	304.99	7.93	-36.8	-37.6	23.4	0.00e+00	0	41	0	1824522240	46	6132
2026-01-25 05:40:37.23	305.49	7.88	-36.8	-37.4	23.5	0.00e+00	0	41	0	1841299456	46	6026
2026-01-25 05:40:40.26	305.98	7.83	-36.5	-37.2	23.6	0.00e+00	0	41	0	1859125248	46	5829
2026-01-25 05:40:43.29	306.47	7.77	-37.1	-37.8	23.2	0.00e+00	0	41	0	1875902464	46	6276
2026-01-25 05:40:46.32	306.96	7.72	-37.1	-37.9	22.9	0.00e+00	0	41	0	1892679680	46	6382
2026-01-25 05:40:49.35	307.45	7.66	-37.0	-37.7	23.1	0.00e+00	0	41	0	1909456896	46	6178
2026-01-25 05:40:52.38	307.93	7.61	-37.1	-37.8	22.9	0.00e+00	0	41	0	1927282688	46	6317
2026-01-25 05:40:55.40	308.42	7.55	-36.9	-37.6	23.1	0.00e+00	0	41	0	1944059904	46	6145
2026-01-25 05:40:58.43	308.90	7.49	-36.2	-36.9	23.8	0.00e+00	0	41	0	1960837120	46	5659
2026-01-25 05:41:01.46	309.38	7.42	-36.5	-37.2	23.7	0.00e+00	0	41	0	1977614336	46	5859
2026-01-25 05:41:04.48	309.85	7.36	-36.7	-37.4	23.4	0.00e+00	0	41	0	1995440128	46	6011
2026-01-25 05:41:07.51	310.33	7.29	-37.7	-38.5	22.5	0.00e+00	0	41	0	2012217344	48	6068
2026-01-25 05:41:10.54	310.80	7.23	-36.2	-36.9	23.8	0.00e+00	0	41	0	2028994560	46	5668
2026-01-25 05:41:13.57	311.27	7.16	-36.7	-37.5	23.2	0.00e+00	0	41	0	2045771776	46	6054
2026-01-25 05:41:16.60	311.74	7.09	-37.9	-38.7	22.0	0.00e+00	0	41	0	2063597568	48	6209
2026-01-25 05:41:19.63	312.21	7.02	-37.1	-37.9	23.0	0.00e+00	0	41	0	2080374784	48	5690
2026-01-25 05:41:22.65	312.67	6.95	-37.5	-38.3	22.5	0.00e+00	0	41	0	2097152000	48	5935
2026-01-25 05:41:25.68	313.14	6.87	-37.3	-38.0	22.7	0.00e+00	0	41	0	2113929216	46	6408
2026-01-25 05:41:28.71	313.60	6.80	-36.9	-37.6	23.0	0.00e+00	0	41	0	2131755008	46	6142
2026-01-25 05:41:31.74	314.06	6.72	-37.6	-38.4	22.3	0.00e+00	0	41	0	2148532224	48	6000
2026-01-25 05:41:34.77	314.51	6.64	-36.9	-37.7	23.2	0.00e+00	0	41	0	2165309440	48	5511
2026-01-25 05:41:37.80	314.97	6.56	-36.9	-37.6	22.9	0.00e+00	0	41	0	2182086656	46	6150
2026-01-25 05:41:40.83	315.42	6.48	-36.6	-37.4	23.3	0.00e+00	0	41	0	2199912448	46	6000
2026-01-25 05:41:43.86	315.87	6.40	-37.2	-37.9	22.7	0.00e+00	0	41	0	2216689664	46	6387
2026-01-25 05:41:46.88	316.31	6.32	-37.1	-37.8	22.8	0.00e+00	0	41	0	2233466880	48	5612
2026-01-25 05:41:49.91	316.75	6.23	-38.2	-38.9	21.8	0.00e+00	0	41	0	2250244096	48	6381
2026-01-25 05:41:52.94	317.19	6.15	-37.0	-37.7	22.8	0.00e+00	0	41	0	2268069888	48	5551
2026-01-25 05:41:55.97	317.63	6.06	-36.5	-37.2	23.4	0.00e+00	0	41	0	2284847104	48	5204
2026-01-25 05:41:59.00	318.07	5.98	-37.3	-38.0	22.7	0.00e+00	0	41	0	2301624320	48	5736
2026-01-25 05:42:02.03	318.50	5.89	-38.7	-39.6	21.3	0.00e+00	0	41	0	2318401536	50	6157
2026-01-25 05:42:05.05	318.93	5.80	-38.6	-39.4	21.1	0.00e+00	0	41	0	2335178752	48	6765
2026-01-25 05:42:08.08	319.36	5.71	-37.6	-38.5	22.1	0.00e+00	0	41	0	2353004544	46	6800
2026-01-25 05:42:11.11	319.79	5.62	-38.6	-39.4	21.4	0.00e+00	0	41	0	2369781760	52	5334
2026-01-25 05:42:14.14	320.21	5.52	-37.6	-38.4	22.0	0.00e+00	0	41	0	2386558976	48	5988
2026-01-25 05:42:17.17	320.63	5.43	-38.9	-39.8	20.8	0.00e+00	0	41	0	2404384768	50	6253
2026-01-25 05:42:20.20	321.05	5.34	-38.8	-39.6	21.1	0.00e+00	0	41	0	2421161984	50	6157
2026-01-25 05:42:23.23	321.47	5.24	-37.9	-38.7	21.9	0.00e+00	0	41	0	2437939200	50	5519
2026-01-25 05:42:26.26	321.88	5.15	-36.7	-37.4	22.9	0.00e+00	0	41	0	2454716416	46	6031
2026-01-25 05:42:29.28	322.29	5.05	-37.2	-38.0	22.5	0.00e+00	0	41	0	2472542208	48	5738
2026-01-25 05:42:32.31	322.69	4.95	-37.2	-38.0	22.6	0.00e+00	0	41	0	2489319424	48	5730
2026-01-25 05:42:35.34	323.10	4.85	-38.9	-39.7	21.1	0.00e+00	0	41	0	2506096640	50	6219
2026-01-25 05:42:38.37	323.50	4.75	-37.8	-38.7	21.6	0.00e+00	0	41	0	2522873856	48	6208
2026-01-25 05:42:41.40	323.90	4.65	-37.7	-38.5	21.9	0.00e+00	0	41	0	2539651072	46	6839
2026-01-25 05:42:44.43	324.30	4.55	-38.1	-38.9	21.7	0.00e+00	0	41	0	2557476864	48	6390
2026-01-25 05:42:47.46	324.69	4.45	-37.2	-38.0	22.7	0.00e+00	0	41	0	2574254080	48	5754
2026-01-25 05:42:50.49	325.09	4.35	-38.7	-39.7	21.0	0.00e+00	0	41	0	2591031296	50	6184
2026-01-25 05:42:53.52	325.47	4.25	-39.7	-40.7	20.1	0.00e+00	0	41	0	2608857088	50	7003
2026-01-25 05:42:56.55	325.86	4.14	-36.9	-37.7	22.7	0.00e+00	0	41	0	2625634304	48	5506
2026-01-25 05:42:59.58	326.25	4.04	-36.7	-37.4	22.6	0.00e+00	0	41	0	2642411520	46	6013
2026-01-25 05:43:02.61	326.63	3.94	-38.2	-39.0	21.3	0.00e+00	0	41	0	2659188736	48	6429
2026-01-25 05:43:05.64	327.01	3.83	-36.6	-37.4	23.1	0.00e+00	0	41	0	2677014528	48	5363
2026-01-25 05:43:08.67	327.38	3.72	-38.4	-39.2	21.2	0.00e+00	0	41	0	2693791744	50	5881
2026-01-25 05:43:11.70	327.76	3.62	-39.1	-40.0	20.4	0.00e+00	0	41	0	2710568960	50	6463
2026-01-25 05:43:14.72	328.13	3.51	-38.0	-38.8	21.2	0.00e+00	0	41	0	2727346176	48	6306
2026-01-25 05:43:17.75	328.49	3.40	-38.1	-39.0	21.3	0.00e+00	0	41	0	2744123392	50	5724
2026-01-25 05:43:20.78	328.86	3.30	-38.9	-39.8	20.4	0.00e+00	0	41	0	2761949184	50	6288
2026-01-25 05:43:23.81	329.22	3.19	-39.1	-40.0	19.8	0.00e+00	0	41	0	2778726400	52	5727
2026-01-25 05:43:26.84	329.58	3.08	-40.6	-41.7	17.7	0.00e+00	0	41	0	2795503616	52	6997
2026-01-25 05:43:29.87	329.94	2.97	-49.7	-61.8	3.6	8.45e-01	0	41	104	2804940800	60	44562
2026-01-25 05:43:32.90	330.30	2.86	-50.5	-62.6	3.6	8.46e-01	0	41	104	2804940800	60	48709
2026-01-25 05:43:35.93	330.65	2.75	-50.7	-62.8	3.6	8.46e-01	0	41	104	2804940800	60	49823
2026-01-25 05:43:38.96	331.00	2.64	-50.8	-62.9	3.6	8.46e-01	0	41	104	2804940800	60	50633
2026-01-25 05:43:41.99	331.35	2.53	-50.8	-62.9	3.6	8.45e-01	0	41	104	2804940800	60	50255
2026-01-25 05:43:45.02	331.69	2.41	-50.4	-62.8	3.6	8.45e-01	0	41	104	2804940800	60	49956
2026-01-25 05:43:48.05	332.04	2.30	-50.6	-62.7	3.6	8.46e-01	0	41	104	2804940800	60	49609
2026-01-25 05:43:51.08	332.38	2.19	-50.6	-62.8	3.6	8.45e-01	0	41	104	2804940800	60	49687
2026-01-25 05:43:54.11	332.72	2.08	-50.7	-62.8	3.6	8.45e-01	0	41	104	2804940800	60	49834
2026-01-25 05:43:57.14	333.05	1.97	-50.7	-62.8	3.6	8.46e-01	0	41	104	2804940800	60	50165
2026-01-25 05:44:00.17	333.38	1.85	-50.7	-62.8	3.6	8.45e-01	0	41	104	2804940800	60	49788
2026-01-25 05:44:03.19	333.71	1.74	-50.7	-62.8	3.6	8.46e-01	0	41	104	2804940800	60	49829
2026-01-25 05:44:06.22	334.04	1.62	-50.7	-62.8	3.6	8.46e-01	0	42	104	2804940800	60	49980
2026-01-25 05:44:09.25	334.37	1.51	-50.7	-62.8	3.6	8.45e-01	0	41	104	2804940800	60	49703
2026-01-25 05:44:12.28	334.69	1.40	-50.7	-62.8	3.6	8.45e-01	0	41	104	2804940800	60	49698
2026-01-25 05:44:15.31	335.01	1.28	-50.7	-62.8	3.6	8.45e-01	0	42	104	2804940800	60	49814
2026-01-25 05:44:18.33	335.33	1.17	-50.7	-62.8	3.6	8.44e-01	0	42	104	2804940800	60	50007
2026-01-25 05:44:21.36	335.65	1.05	-50.7	-62.8	3.6	8.45e-01	0	41	104	2804940800	60	49843
2026-01-25 05:44:24.39	335.96	0.94	-50.7	-62.8	3.6	8.45e-01	0	41	104	2804940800	60	50172
2026-01-25 05:44:27.42	336.27	0.82	-50.7	-62.8	3.6	8.45e-01	0	41	104	2804940800	60	49662
2026-01-25 05:44:30.45	336.58	0.71	-50.7	-62.8	3.6	8.44e-01	0	41	104	2804940800	60	49701
2026-01-25 05:44:33.48	336.89	0.59	-50.7	-62.8	3.6	8.45e-01	0	41	104	2804940800	60	49841
2026-01-25 05:44:36.51	337.20	0.47	-50.7	-62.8	3.6	8.45e-01	0	41	104	2804940800	60	49787
2026-01-25 05:44:39.54	337.50	0.36	-50.7	-62.8	3.6	8.45e-01	0	42	104	2804940800	60	49899
2026-01-25 05:44:42.57	337.80	0.24	-50.7	-62.8	3.6	8.45e-01	0	41	104	2804940800	60	49956
2026-01-25 05:44:45.60	338.10	0.13	-50.7	-62.8	3.6	8.45e-01	0	41	104	2804940800	60	50061
2026-01-25 05:44:48.63	338.39	0.01	-50.7	-62.8	3.6	8.46e-01	0	41	104	2804940800	60	50053

#Closed at: 2026-01-25 05:44:49
#Recorded file [2804 MB]: D:/lorett/data/35029_260125_173348.dat