passes_logs/2026/01/25/R4.6S_Anadyr/R4.6S_Anadyr__20260125_181717_SUOMI_NPP_rec.log

#Pass ID: 20260125_181717_SUOMI NPP
#Satellite: SUOMI NPP
#Configuration: NPP
#almurnet v.1.7.20251203
#Start time: 2026-01-25 18:17:20

#Version: 2.2.20231116
#Station: R4.6S_Anadyr
#Location: 177.4865 lon 64.73178 lat
#TLE: 1 37849U 11061A   26025.32440757  .00000181  00000+0  10697-3 0  9992
#TLE: 2 37849  98.7822 327.2846 0002175  45.9958 314.1397 14.19529737738178

#Time	Az	El	Level	Level2	SNR	BER	BlckErr	Temp	State	Recorded	gain1	gain2
2026-01-25 18:17:20.50	38.27	0.14	-50.2	-61.9	3.5	8.45e-01	0	38	0	0	60	44879
2026-01-25 18:17:24.53	37.99	0.35	-50.9	-66.1	3.6	1.51e+00	0	40	104	0	60	72936
2026-01-25 18:17:28.57	37.70	0.55	-50.8	-66.0	3.6	1.51e+00	0	40	104	0	60	71966
2026-01-25 18:17:32.62	37.41	0.76	-50.8	-65.9	3.6	1.51e+00	0	40	104	0	60	71338
2026-01-25 18:17:36.66	37.12	0.97	-50.6	-65.8	3.6	1.51e+00	0	40	104	0	60	70453
2026-01-25 18:17:40.70	36.82	1.17	-50.4	-65.5	3.6	1.51e+00	0	40	104	0	60	68033
2026-01-25 18:17:44.73	36.52	1.38	-49.7	-64.9	3.6	1.51e+00	0	40	104	0	60	63880
2026-01-25 18:17:48.78	36.22	1.59	-49.1	-64.3	3.6	1.51e+00	0	40	104	0	60	59587
2026-01-25 18:17:52.82	35.91	1.80	-49.1	-64.3	3.6	1.51e+00	0	40	104	0	60	59287
2026-01-25 18:17:56.86	35.59	2.01	-49.1	-64.3	3.6	1.51e+00	0	40	104	0	60	59155
2026-01-25 18:18:00.90	35.27	2.22	-49.1	-64.0	3.6	1.51e+00	0	40	104	0	60	57568
2026-01-25 18:18:04.94	34.95	2.44	-49.1	-64.4	3.6	1.51e+00	0	40	104	0	60	59682
2026-01-25 18:18:08.98	34.62	2.65	-49.1	-64.2	3.6	1.51e+00	0	40	104	0	60	58469
2026-01-25 18:18:13.02	34.28	2.86	-49.1	-64.1	3.6	1.51e+00	0	40	104	0	60	58073
2026-01-25 18:18:17.06	33.94	3.08	-47.3	-51.8	11.0	3.81e-02	70	40	0	2097152	60	14102
2026-01-25 18:18:21.10	33.60	3.29	-45.8	-48.9	13.8	1.49e+00	0	40	104	6291456	60	10024
2026-01-25 18:18:25.14	33.25	3.51	-43.8	-45.7	17.9	0.00e+00	33	40	0	8388608	60	6940
2026-01-25 18:18:29.18	32.89	3.72	-43.4	-45.2	18.2	0.00e+00	92	41	0	15728640	60	6556
2026-01-25 18:18:33.21	32.53	3.94	-43.3	-45.0	18.4	0.00e+00	0	41	0	23068672	60	6464
2026-01-25 18:18:37.25	32.16	4.16	-43.3	-45.0	18.4	0.00e+00	0	41	0	31457280	60	6412
2026-01-25 18:18:41.29	31.79	4.38	-43.3	-45.0	18.4	0.00e+00	81	40	0	38797312	60	6431
2026-01-25 18:18:45.32	31.41	4.59	-43.8	-45.6	18.1	0.00e+00	0	41	0	46137344	60	6880
2026-01-25 18:18:49.36	31.03	4.81	-43.5	-45.2	18.3	0.00e+00	0	41	0	53477376	60	6577
2026-01-25 18:18:53.40	30.64	5.03	-43.2	-44.8	18.8	0.00e+00	0	41	0	60817408	60	6267
2026-01-25 18:18:57.44	30.24	5.25	-43.5	-45.2	18.4	0.00e+00	70	41	0	69206016	60	6581
2026-01-25 18:19:01.47	29.84	5.47	-43.7	-45.5	18.3	0.00e+00	0	41	0	76546048	60	6779
2026-01-25 18:19:05.51	29.43	5.70	-43.2	-44.8	18.9	0.00e+00	0	41	0	83886080	60	6283
2026-01-25 18:19:09.55	29.02	5.92	-43.7	-45.4	18.3	0.00e+00	0	41	0	91226112	60	6732
2026-01-25 18:19:13.59	28.59	6.14	-43.8	-45.6	18.1	0.00e+00	92	41	0	99614720	60	6895
2026-01-25 18:19:17.62	28.17	6.36	-43.7	-45.4	18.4	0.00e+00	0	41	0	106954752	60	6747
2026-01-25 18:19:21.66	27.73	6.59	-43.3	-45.0	18.9	0.00e+00	0	41	0	114294784	60	6392
2026-01-25 18:19:25.69	27.29	6.81	-43.2	-44.8	18.8	0.00e+00	0	41	0	121634816	60	6276
2026-01-25 18:19:29.73	26.84	7.03	-43.0	-44.6	19.3	0.00e+00	0	41	0	128974848	60	6105
2026-01-25 18:19:33.77	26.38	7.26	-43.1	-44.7	19.1	0.00e+00	0	41	0	137363456	58	6980
2026-01-25 18:19:37.81	25.92	7.48	-42.6	-44.1	19.6	0.00e+00	0	41	0	144703488	58	6497
2026-01-25 18:19:41.84	25.45	7.70	-42.8	-44.3	19.5	0.00e+00	92	41	0	152043520	58	6659
2026-01-25 18:19:45.88	24.97	7.93	-42.6	-44.1	19.8	0.00e+00	0	41	0	159383552	58	6466
2026-01-25 18:19:49.92	24.48	8.15	-42.8	-44.4	19.5	0.00e+00	0	41	0	167772160	58	6702
2026-01-25 18:19:53.96	23.99	8.38	-42.7	-44.2	19.6	0.00e+00	0	41	0	175112192	58	6559
2026-01-25 18:19:57.99	23.49	8.60	-42.2	-43.6	20.3	0.00e+00	92	41	0	182452224	58	6104
2026-01-25 18:20:02.03	22.98	8.83	-41.8	-43.1	20.6	0.00e+00	0	41	0	189792256	56	6512
2026-01-25 18:20:06.07	22.46	9.05	-42.0	-43.3	20.5	0.00e+00	0	41	0	197132288	56	6643
2026-01-25 18:20:10.10	21.93	9.27	-41.9	-43.2	20.5	0.00e+00	11	41	0	205520896	56	6595
2026-01-25 18:20:14.14	21.40	9.50	-42.4	-43.8	20.0	0.00e+00	77	41	0	212860928	58	6287
2026-01-25 18:20:18.18	20.86	9.72	-42.4	-43.8	20.0	0.00e+00	0	41	0	220200960	58	6284
2026-01-25 18:20:22.22	20.30	9.94	-42.3	-43.7	20.0	0.00e+00	0	41	0	227540992	58	6221
2026-01-25 18:20:26.26	19.74	10.16	-41.9	-43.2	20.6	0.00e+00	68	41	0	234881024	56	6543
2026-01-25 18:20:30.30	19.17	10.38	-42.0	-43.3	20.6	0.00e+00	0	41	0	243269632	56	6637
2026-01-25 18:20:34.34	18.60	10.60	-41.7	-42.9	20.9	0.00e+00	0	41	0	250609664	56	6386
2026-01-25 18:20:38.37	18.01	10.82	-41.9	-43.2	20.6	0.00e+00	0	41	0	257949696	56	6591
2026-01-25 18:20:42.41	17.41	11.04	-42.4	-43.8	20.2	0.00e+00	89	41	0	265289728	56	7023
2026-01-25 18:20:46.44	16.81	11.26	-42.7	-44.2	19.7	0.00e+00	0	41	0	273678336	58	6598
2026-01-25 18:20:50.48	16.20	11.47	-42.2	-43.6	20.2	0.00e+00	24	41	0	281018368	58	6109
2026-01-25 18:20:54.52	15.57	11.69	-42.3	-43.7	20.3	0.00e+00	0	41	0	288358400	58	6175
2026-01-25 18:20:58.55	14.94	11.90	-41.7	-42.9	21.0	0.00e+00	92	41	0	295698432	56	6333
2026-01-25 18:21:02.59	14.30	12.11	-41.8	-43.1	20.7	0.00e+00	0	41	0	303038464	56	6497
2026-01-25 18:21:06.63	13.65	12.32	-41.0	-42.1	21.6	0.00e+00	0	41	0	311427072	56	5807
2026-01-25 18:21:10.66	12.99	12.53	-40.7	-41.8	21.9	0.00e+00	11	41	0	318767104	54	6283
2026-01-25 18:21:14.70	12.32	12.73	-40.1	-41.1	22.4	0.00e+00	0	41	0	326107136	54	5805
2026-01-25 18:21:18.73	11.64	12.94	-40.5	-41.6	21.9	0.00e+00	0	41	0	333447168	54	6120
2026-01-25 18:21:22.77	10.95	13.14	-40.0	-41.1	22.5	0.00e+00	0	41	0	341835776	54	5768
2026-01-25 18:21:26.81	10.25	13.33	-40.2	-41.3	22.4	0.00e+00	4	41	0	349175808	54	5914
2026-01-25 18:21:30.85	9.54	13.53	-40.3	-41.4	22.2	0.00e+00	0	41	0	356515840	54	5995
2026-01-25 18:21:34.88	8.83	13.72	-40.7	-41.8	22.0	0.00e+00	0	41	0	363855872	54	6302
2026-01-25 18:21:38.92	8.10	13.91	-41.0	-42.1	21.8	0.00e+00	0	41	0	371195904	54	6517
2026-01-25 18:21:42.95	7.36	14.10	-39.6	-40.5	23.1	0.00e+00	90	41	0	379584512	52	6095
2026-01-25 18:21:46.99	6.62	14.28	-39.2	-40.1	23.4	0.00e+00	0	41	0	386924544	52	5826
2026-01-25 18:21:51.03	5.86	14.46	-39.1	-40.0	23.4	0.00e+00	0	41	0	394264576	52	5756
2026-01-25 18:21:55.06	5.10	14.63	-40.4	-41.5	22.4	0.00e+00	0	41	0	401604608	52	6777
2026-01-25 18:21:59.10	4.32	14.81	-39.9	-40.8	22.9	0.00e+00	92	41	0	408944640	52	6307
2026-01-25 18:22:03.14	3.54	14.97	-40.4	-41.5	22.3	0.00e+00	0	41	0	417333248	52	6793
2026-01-25 18:22:07.17	2.75	15.14	-40.3	-41.4	22.5	0.00e+00	0	41	0	424673280	52	6706
2026-01-25 18:22:11.21	1.95	15.30	-40.3	-41.3	22.5	0.00e+00	12	41	0	432013312	54	5956
2026-01-25 18:22:15.24	1.14	15.45	-40.0	-41.0	22.8	0.00e+00	0	41	0	439353344	52	6420
2026-01-25 18:22:19.28	0.33	15.60	-39.9	-40.8	22.9	0.00e+00	0	41	0	447741952	52	6306
2026-01-25 18:22:23.32	359.50	15.74	-40.1	-41.1	22.8	0.00e+00	0	41	0	455081984	52	6493
2026-01-25 18:22:27.36	358.67	15.88	-39.6	-40.6	23.1	0.00e+00	0	41	0	462422016	52	6118
2026-01-25 18:22:31.40	357.82	16.01	-39.3	-40.2	23.3	0.00e+00	0	41	0	469762048	52	5831
2026-01-25 18:22:35.44	356.98	16.14	-39.0	-39.8	23.8	0.00e+00	0	41	0	477102080	50	6293
2026-01-25 18:22:39.46	356.12	16.26	-39.6	-40.5	23.1	0.00e+00	0	41	0	485490688	50	6827
2026-01-25 18:22:43.50	355.26	16.38	-39.8	-40.7	23.0	0.00e+00	92	41	0	492830720	50	6989
2026-01-25 18:22:47.54	354.39	16.49	-39.9	-40.9	22.9	0.00e+00	0	41	0	500170752	52	6330
2026-01-25 18:22:51.57	353.52	16.59	-39.7	-40.7	23.0	0.00e+00	0	41	0	507510784	52	6212
2026-01-25 18:22:55.61	352.64	16.69	-40.0	-40.9	22.8	0.00e+00	14	41	0	515899392	52	6379
2026-01-25 18:22:59.65	351.75	16.78	-40.0	-41.0	22.8	0.00e+00	51	41	0	523239424	52	6408
2026-01-25 18:23:03.69	350.86	16.86	-39.8	-40.8	23.0	0.00e+00	0	41	0	530579456	52	6248
2026-01-25 18:23:07.73	349.96	16.94	-39.6	-40.5	23.2	0.00e+00	0	41	0	537919488	52	6052
2026-01-25 18:23:11.76	349.06	17.01	-39.8	-40.7	23.0	0.00e+00	92	41	0	545259520	52	6204
2026-01-25 18:23:15.81	348.15	17.07	-39.7	-40.6	23.1	0.00e+00	0	41	0	553648128	52	6139
2026-01-25 18:23:19.84	347.25	17.13	-40.7	-41.8	22.0	0.00e+00	0	41	0	560988160	52	7065
2026-01-25 18:23:23.87	346.34	17.17	-41.0	-42.1	22.0	0.00e+00	0	41	0	568328192	54	6473
2026-01-25 18:23:27.92	345.42	17.21	-40.9	-42.0	22.1	0.00e+00	73	41	0	575668224	54	6391
2026-01-25 18:23:31.95	344.50	17.25	-40.3	-41.3	22.7	0.00e+00	0	41	0	584056832	54	5908
2026-01-25 18:23:35.99	343.58	17.27	-40.6	-41.6	22.3	0.00e+00	0	41	0	591396864	54	6153
2026-01-25 18:23:40.02	342.67	17.29	-39.9	-40.8	23.0	0.00e+00	7	41	0	598736896	54	5612
2026-01-25 18:23:44.06	341.74	17.30	-40.4	-41.4	22.6	0.00e+00	92	41	0	606076928	52	6733
2026-01-25 18:23:48.10	340.82	17.31	-41.0	-42.0	22.1	0.00e+00	0	41	0	613416960	54	6445
2026-01-25 18:23:52.14	339.90	17.30	-40.0	-41.0	22.9	0.00e+00	0	41	0	621805568	54	5707
2026-01-25 18:23:56.18	338.98	17.29	-39.8	-40.8	23.1	0.00e+00	12	41	0	629145600	54	5572
2026-01-25 18:24:00.22	338.06	17.27	-40.1	-41.0	22.8	0.00e+00	0	41	0	636485632	52	6433
2026-01-25 18:24:04.25	337.14	17.24	-40.7	-41.8	22.1	0.00e+00	0	41	0	643825664	52	7017
2026-01-25 18:24:08.29	336.22	17.21	-40.8	-41.8	22.2	0.00e+00	0	41	0	652214272	54	6296
2026-01-25 18:24:12.33	335.31	17.16	-39.9	-40.9	23.0	0.00e+00	75	41	0	659554304	54	5662
2026-01-25 18:24:16.36	334.40	17.11	-40.0	-40.9	22.8	0.00e+00	0	41	0	666894336	54	5692
2026-01-25 18:24:20.40	333.49	17.06	-40.4	-41.4	22.5	0.00e+00	0	41	0	674234368	54	6027
2026-01-25 18:24:24.43	332.59	16.99	-40.1	-41.1	22.6	0.00e+00	10	41	0	681574400	54	5823
2026-01-25 18:24:28.47	331.69	16.92	-39.1	-40.0	23.7	0.00e+00	92	41	0	689963008	52	5733
2026-01-25 18:24:32.51	330.79	16.84	-39.7	-40.6	23.2	0.00e+00	0	41	0	697303040	52	6143
2026-01-25 18:24:36.55	329.90	16.76	-39.9	-40.9	23.0	0.00e+00	0	41	0	704643072	52	6323
2026-01-25 18:24:40.59	329.01	16.67	-40.2	-41.2	22.8	0.00e+00	0	41	0	711983104	52	6597
2026-01-25 18:24:44.63	328.13	16.57	-40.2	-41.2	22.9	0.00e+00	24	41	0	720371712	52	6576
2026-01-25 18:24:48.66	327.26	16.46	-40.0	-40.9	23.0	0.00e+00	0	41	0	727711744	52	6365
2026-01-25 18:24:52.70	326.39	16.35	-40.4	-41.4	22.8	0.00e+00	0	41	0	735051776	52	6729
2026-01-25 18:24:56.74	325.53	16.23	-40.1	-41.0	22.9	0.00e+00	6	41	0	742391808	52	6461
2026-01-25 18:25:00.78	324.67	16.11	-40.0	-41.0	23.0	0.00e+00	0	41	0	749731840	52	6391
2026-01-25 18:25:04.82	323.83	15.98	-40.0	-41.0	23.0	0.00e+00	0	41	0	758120448	52	6404
2026-01-25 18:25:08.85	322.99	15.85	-40.9	-42.0	22.2	0.00e+00	0	41	0	765460480	54	6398
2026-01-25 18:25:12.89	322.16	15.71	-40.9	-41.9	22.2	0.00e+00	74	41	0	772800512	54	6359
2026-01-25 18:25:16.93	321.33	15.56	-40.6	-41.6	22.5	0.00e+00	0	41	0	780140544	54	6166
2026-01-25 18:25:20.96	320.52	15.41	-40.4	-41.4	22.6	0.00e+00	0	41	0	788529152	54	6012
2026-01-25 18:25:25.00	319.71	15.26	-40.3	-41.2	22.4	0.00e+00	0	41	0	795869184	54	5858
2026-01-25 18:25:29.04	318.91	15.10	-39.7	-40.6	23.3	0.00e+00	92	41	0	803209216	52	6141
2026-01-25 18:25:33.08	318.12	14.93	-39.7	-40.6	23.3	0.00e+00	0	41	0	810549248	52	6113
2026-01-25 18:25:37.11	317.34	14.77	-40.3	-41.3	22.7	0.00e+00	0	41	0	817889280	52	6677
2026-01-25 18:25:41.15	316.57	14.59	-41.4	-42.5	21.6	0.00e+00	69	41	0	826277888	54	6838
2026-01-25 18:25:45.19	315.80	14.42	-41.2	-42.2	21.9	0.00e+00	0	41	0	833617920	54	6605
2026-01-25 18:25:49.22	315.05	14.24	-41.9	-43.1	21.3	0.00e+00	0	41	0	840957952	56	6489
2026-01-25 18:25:53.26	314.31	14.05	-41.8	-42.9	21.3	0.00e+00	0	41	0	848297984	56	6376
2026-01-25 18:25:57.30	313.57	13.87	-41.2	-42.2	22.0	0.00e+00	92	41	0	855638016	56	5868
2026-01-25 18:26:01.34	312.84	13.67	-41.1	-42.1	22.2	0.00e+00	0	41	0	864026624	56	5819
2026-01-25 18:26:05.37	312.13	13.48	-40.4	-41.3	22.7	0.00e+00	0	41	0	871366656	54	5964
2026-01-25 18:26:09.41	311.42	13.29	-41.1	-42.1	22.1	0.00e+00	0	41	0	878706688	54	6529
2026-01-25 18:26:13.45	310.72	13.09	-40.8	-41.8	22.2	0.00e+00	90	41	0	886046720	54	6286
2026-01-25 18:26:17.49	310.04	12.89	-40.8	-41.8	22.2	0.00e+00	0	41	0	894435328	54	6281
2026-01-25 18:26:21.52	309.36	12.68	-41.4	-42.4	21.8	0.00e+00	0	41	0	901775360	54	6739
2026-01-25 18:26:25.56	308.69	12.48	-43.7	-45.2	19.3	0.00e+00	24	41	0	909115392	58	7390
2026-01-25 18:26:29.59	308.03	12.27	-43.7	-45.3	19.4	0.00e+00	75	41	0	916455424	60	6620
2026-01-25 18:26:33.62	307.38	12.06	-42.8	-44.2	20.3	0.00e+00	0	41	0	923795456	60	5840
2026-01-25 18:26:37.65	306.74	11.85	-42.2	-43.4	21.0	0.00e+00	0	41	0	932184064	58	6002
2026-01-25 18:26:41.69	306.11	11.63	-41.5	-42.6	21.5	0.00e+00	79	41	0	939524096	56	6158
2026-01-25 18:26:45.73	305.49	11.42	-41.9	-43.1	21.3	0.00e+00	0	41	0	946864128	56	6472
2026-01-25 18:26:49.77	304.88	11.20	-41.5	-42.6	21.7	0.00e+00	0	41	0	954204160	56	6154
2026-01-25 18:26:53.80	304.27	10.99	-41.4	-42.5	21.7	0.00e+00	0	41	0	961544192	56	6064
2026-01-25 18:26:57.84	303.68	10.77	-41.2	-42.3	21.8	0.00e+00	92	41	0	969932800	56	5899
2026-01-25 18:27:01.88	303.09	10.55	-41.6	-42.7	21.4	0.00e+00	0	41	0	977272832	56	6176
2026-01-25 18:27:05.91	302.52	10.33	-41.9	-43.1	21.1	0.00e+00	0	41	0	984612864	56	6512
2026-01-25 18:27:09.95	301.95	10.11	-41.8	-43.0	21.3	0.00e+00	0	41	0	991952896	56	6398
2026-01-25 18:27:13.99	301.39	9.89	-41.6	-42.8	21.4	0.00e+00	92	41	0	1000341504	56	6256
2026-01-25 18:27:18.02	300.84	9.66	-40.8	-41.9	22.1	0.00e+00	0	41	0	1007681536	56	5639
2026-01-25 18:27:22.05	300.30	9.44	-40.1	-41.1	22.6	0.00e+00	0	41	0	1015021568	54	5764
2026-01-25 18:27:26.09	299.76	9.22	-40.2	-41.2	22.7	0.00e+00	8	41	0	1022361600	54	5836
2026-01-25 18:27:30.13	299.24	8.99	-40.6	-41.7	22.2	0.00e+00	0	41	0	1029701632	54	6178
2026-01-25 18:27:34.17	298.72	8.77	-40.4	-41.4	22.4	0.00e+00	22	41	0	1038090240	54	5966
2026-01-25 18:27:38.20	298.21	8.55	-40.4	-41.4	22.4	0.00e+00	0	41	0	1045430272	54	5982
2026-01-25 18:27:42.24	297.71	8.32	-40.7	-41.7	22.1	0.00e+00	91	41	0	1052770304	54	6232
2026-01-25 18:27:46.28	297.22	8.10	-41.0	-42.0	21.8	0.00e+00	0	41	0	1060110336	54	6464
2026-01-25 18:27:50.31	296.73	7.87	-41.2	-42.4	21.5	0.00e+00	0	41	0	1068498944	54	6699
2026-01-25 18:27:54.35	296.25	7.65	-41.5	-42.7	20.8	0.00e+00	0	41	0	1075838976	54	6947
2026-01-25 18:27:58.39	295.78	7.42	-41.8	-43.0	21.0	0.00e+00	91	41	0	1083179008	56	6459
2026-01-25 18:28:02.42	295.32	7.20	-41.2	-42.3	21.5	0.00e+00	0	41	0	1090519040	56	5924
2026-01-25 18:28:06.46	294.86	6.97	-40.7	-41.7	22.0	0.00e+00	0	41	0	1097859072	54	6242
2026-01-25 18:28:10.50	294.41	6.75	-41.0	-42.1	21.6	0.00e+00	9	41	0	1106247680	54	6537
2026-01-25 18:28:14.54	293.97	6.53	-42.2	-43.5	20.5	0.00e+00	92	41	0	1113587712	56	6809
2026-01-25 18:28:18.58	293.54	6.30	-42.1	-43.3	20.7	0.00e+00	0	41	0	1120927744	56	6655
2026-01-25 18:28:22.62	293.11	6.08	-41.7	-42.9	21.1	0.00e+00	0	41	0	1128267776	56	6318
2026-01-25 18:28:26.65	292.69	5.86	-41.2	-42.3	21.5	0.00e+00	2	41	0	1135607808	56	5925
2026-01-25 18:28:30.69	292.27	5.64	-41.0	-42.1	21.5	0.00e+00	0	41	0	1143996416	56	5827
2026-01-25 18:28:34.73	291.86	5.42	-41.3	-42.4	21.3	0.00e+00	0	41	0	1151336448	56	6028
2026-01-25 18:28:38.76	291.46	5.20	-42.6	-43.9	20.0	0.00e+00	0	41	0	1158676480	56	7167
2026-01-25 18:28:42.80	291.07	4.97	-42.9	-44.3	19.5	0.00e+00	90	41	0	1166016512	58	6688
2026-01-25 18:28:46.84	290.68	4.75	-42.8	-44.3	19.6	0.00e+00	0	41	0	1174405120	58	6652
2026-01-25 18:28:50.88	290.29	4.54	-42.9	-44.3	19.5	0.00e+00	0	41	0	1181745152	58	6652
2026-01-25 18:28:54.92	289.91	4.32	-43.2	-44.7	19.2	0.00e+00	0	41	0	1189085184	58	6957
2026-01-25 18:28:58.95	289.54	4.10	-43.4	-45.0	18.9	0.00e+00	87	41	0	1196425216	60	6440
2026-01-25 18:29:02.99	289.17	3.88	-44.6	-46.6	17.4	0.00e+00	0	41	0	1203765248	60	7708
2026-01-25 18:29:07.03	288.81	3.66	-44.5	-46.5	17.4	0.00e+00	0	41	0	1212153856	60	7626
2026-01-25 18:29:11.07	288.46	3.45	-44.1	-45.9	18.0	0.00e+00	4	41	0	1219493888	60	7131
2026-01-25 18:29:15.11	288.11	3.23	-43.3	-44.9	18.8	0.00e+00	4	41	0	1226833920	60	6359
2026-01-25 18:29:19.15	287.76	3.02	-43.0	-44.6	19.0	0.00e+00	0	41	0	1234173952	60	6132
2026-01-25 18:29:23.19	287.42	2.80	-50.7	-66.0	3.6	1.51e+00	0	41	104	1235222528	60	71812
2026-01-25 18:29:27.22	287.09	2.59	-51.0	-66.1	3.6	1.51e+00	0	41	104	1235222528	60	73269
2026-01-25 18:29:31.26	286.76	2.38	-51.0	-66.3	3.6	1.51e+00	0	41	104	1235222528	60	74465
2026-01-25 18:29:35.30	286.43	2.17	-50.5	-66.2	3.6	1.51e+00	0	41	104	1235222528	60	73900
2026-01-25 18:29:39.34	286.11	1.95	-50.9	-66.1	3.6	1.51e+00	0	41	104	1235222528	60	73257
2026-01-25 18:29:43.38	285.80	1.74	-50.8	-66.1	3.6	1.51e+00	0	41	104	1235222528	60	72819
2026-01-25 18:29:47.43	285.49	1.53	-50.9	-66.1	3.6	1.51e+00	0	41	104	1235222528	60	72950
2026-01-25 18:29:51.47	285.18	1.33	-50.9	-66.1	3.6	1.51e+00	0	41	104	1235222528	60	73188
2026-01-25 18:29:55.51	284.88	1.12	-50.9	-66.1	3.6	1.51e+00	0	41	104	1235222528	60	73195
2026-01-25 18:29:59.55	284.58	0.91	-50.9	-66.1	3.6	1.51e+00	0	41	104	1235222528	60	73009
2026-01-25 18:30:03.59	284.29	0.70	-50.9	-66.1	3.6	1.51e+00	0	41	104	1235222528	60	73252
2026-01-25 18:30:07.63	284.00	0.50	-50.9	-66.1	3.6	1.51e+00	0	41	104	1235222528	60	72958
2026-01-25 18:30:11.67	283.71	0.29	-50.9	-66.1	3.6	1.51e+00	0	41	104	1235222528	60	72787
2026-01-25 18:30:15.70	283.43	0.09	-50.9	-66.1	3.6	1.51e+00	0	41	104	1235222528	60	72897

#Closed at: 2026-01-25 18:30:19
#Recorded file [1235 MB]: D:/lorett/data/35029_260126_061720.dat