passes_logs/2026/01/25/R4.6S_Anadyr/R4.6S_Anadyr__20260125_213408_SUOMI_NPP_rec.log

#Pass ID: 20260125_213408_SUOMI NPP
#Satellite: SUOMI NPP
#Configuration: NPP
#almurnet v.1.7.20251203
#Start time: 2026-01-25 21:34:11

#Version: 2.2.20231116
#Station: R4.6S_Anadyr
#Location: 177.4865 lon 64.73178 lat
#TLE: 1 37849U 11061A   26025.53586395  .00000179  00000+0  10601-3 0  9996
#TLE: 2 37849  98.7821 327.4943 0002169  45.6246 314.5108 14.19529815738202

#Time	Az	El	Level	Level2	SNR	BER	BlckErr	Temp	State	Recorded	gain1	gain2
2026-01-25 21:34:11.21	91.54	0.15	-50.3	-62.8	3.4	1.52e+00	0	38	0	0	60	48617
2026-01-25 21:34:15.24	91.29	0.37	-50.8	-66.0	3.6	1.51e+00	0	39	104	0	60	71786
2026-01-25 21:34:19.28	91.04	0.58	-49.9	-65.3	3.6	1.51e+00	0	39	104	0	60	66597
2026-01-25 21:34:23.32	90.79	0.80	-50.1	-65.2	3.6	1.51e+00	0	39	104	0	60	65973
2026-01-25 21:34:27.36	90.53	1.02	-50.0	-65.2	3.6	1.51e+00	0	39	104	0	60	66133
2026-01-25 21:34:31.39	90.28	1.24	-49.9	-65.1	3.6	1.51e+00	0	39	104	0	60	64832
2026-01-25 21:34:35.43	90.01	1.46	-48.8	-64.3	3.6	1.51e+00	0	39	104	0	60	59067
2026-01-25 21:34:39.47	89.74	1.68	-47.6	-63.7	3.6	1.51e+00	0	39	104	0	60	55043
2026-01-25 21:34:43.51	89.47	1.91	-47.7	-63.8	3.6	1.51e+00	0	39	104	0	60	55981
2026-01-25 21:34:47.55	89.19	2.13	-47.6	-63.8	3.6	1.51e+00	0	40	104	0	60	55810
2026-01-25 21:34:51.59	88.91	2.36	-47.5	-63.6	3.6	1.51e+00	0	39	104	0	60	54703
2026-01-25 21:34:55.63	88.62	2.58	-47.5	-63.8	3.6	1.51e+00	0	40	104	0	60	55761
2026-01-25 21:34:59.66	88.33	2.81	-47.5	-63.6	3.6	1.51e+00	0	40	104	0	60	54895
2026-01-25 21:35:03.70	88.04	3.04	-47.5	-63.5	3.6	1.51e+00	0	40	104	0	60	54264
2026-01-25 21:35:07.74	87.74	3.27	-46.0	-51.3	11.1	1.09e-02	0	40	0	3145728	60	13323
2026-01-25 21:35:11.78	87.43	3.50	-48.0	-57.0	4.3	3.31e-02	0	40	0	10485760	60	25466
2026-01-25 21:35:15.81	87.12	3.73	-45.0	-48.5	14.3	0.00e+00	0	40	0	12582912	60	9600
2026-01-25 21:35:19.85	86.81	3.97	-44.1	-47.1	15.7	0.00e+00	0	40	0	19922944	60	8190
2026-01-25 21:35:23.89	86.48	4.20	-43.3	-45.8	17.2	0.00e+00	0	40	0	27262976	60	7015
2026-01-25 21:35:27.92	86.16	4.44	-42.7	-44.7	18.2	0.00e+00	0	40	0	34603008	58	6952
2026-01-25 21:35:31.96	85.83	4.67	-42.5	-44.3	18.6	0.00e+00	0	40	0	41943040	58	6653
2026-01-25 21:35:35.99	85.49	4.91	-42.6	-44.3	18.7	0.00e+00	0	40	0	50331648	58	6628
2026-01-25 21:35:40.03	85.15	5.15	-42.4	-43.9	19.1	0.00e+00	0	40	0	57671680	58	6386
2026-01-25 21:35:44.07	84.80	5.39	-42.5	-44.1	19.1	0.00e+00	0	40	0	65011712	58	6491
2026-01-25 21:35:48.11	84.44	5.63	-41.9	-43.3	19.7	0.00e+00	0	40	0	72351744	58	5909
2026-01-25 21:35:52.14	84.08	5.88	-42.3	-43.8	19.4	0.00e+00	0	40	0	80740352	56	7041
2026-01-25 21:35:56.18	83.72	6.12	-42.0	-43.4	19.7	0.00e+00	0	40	0	88080384	56	6764
2026-01-25 21:36:00.22	83.34	6.37	-41.6	-42.9	20.2	0.00e+00	0	40	0	95420416	56	6359
2026-01-25 21:36:04.26	82.96	6.61	-42.0	-43.4	19.6	0.00e+00	0	40	0	102760448	56	6712
2026-01-25 21:36:08.29	82.57	6.86	-41.9	-43.3	19.8	0.00e+00	0	40	0	110100480	56	6673
2026-01-25 21:36:12.33	82.18	7.11	-42.0	-43.4	19.7	0.00e+00	0	40	0	118489088	56	6753
2026-01-25 21:36:16.37	81.78	7.36	-42.8	-44.4	18.8	0.00e+00	0	40	0	125829120	58	6754
2026-01-25 21:36:20.41	81.37	7.61	-42.3	-43.9	19.2	0.00e+00	0	40	0	133169152	58	6331
2026-01-25 21:36:24.44	80.96	7.86	-42.3	-43.9	19.3	0.00e+00	0	40	0	140509184	58	6326
2026-01-25 21:36:28.48	80.53	8.11	-41.8	-43.2	19.9	0.00e+00	0	40	0	148897792	58	5892
2026-01-25 21:36:32.52	80.10	8.37	-41.9	-43.3	20.0	0.00e+00	0	40	0	156237824	56	6626
2026-01-25 21:36:36.56	79.66	8.62	-41.7	-43.0	20.3	0.00e+00	0	40	0	163577856	56	6426
2026-01-25 21:36:40.59	79.22	8.88	-41.7	-43.1	20.2	0.00e+00	0	40	0	170917888	56	6473
2026-01-25 21:36:44.63	78.76	9.14	-41.8	-43.3	20.0	0.00e+00	0	40	0	178257920	56	6628
2026-01-25 21:36:48.67	78.30	9.40	-42.1	-43.6	19.8	0.00e+00	0	40	0	186646528	56	6909
2026-01-25 21:36:52.67	77.84	9.65	-41.4	-42.7	20.5	0.00e+00	0	40	0	193986560	56	6233
2026-01-25 21:36:56.71	77.36	9.91	-41.2	-42.4	20.8	0.00e+00	0	40	0	201326592	56	6031
2026-01-25 21:37:00.75	76.87	10.17	-41.0	-42.2	21.1	0.00e+00	0	40	0	208666624	56	5893
2026-01-25 21:37:04.79	76.37	10.43	-40.6	-41.7	21.5	0.00e+00	0	40	0	217055232	54	6227
2026-01-25 21:37:08.83	75.86	10.69	-41.2	-42.4	20.7	0.00e+00	0	40	0	224395264	54	6767
2026-01-25 21:37:12.87	75.35	10.96	-40.9	-42.1	21.0	0.00e+00	0	40	0	231735296	54	6517
2026-01-25 21:37:16.91	74.82	11.22	-41.7	-43.1	20.2	0.00e+00	0	40	0	239075328	54	7258
2026-01-25 21:37:20.95	74.29	11.48	-41.4	-42.7	20.6	0.00e+00	0	40	0	246415360	54	6956
2026-01-25 21:37:24.99	73.74	11.75	-41.1	-42.4	20.9	0.00e+00	0	40	0	254803968	54	6714
2026-01-25 21:37:29.02	73.19	12.01	-40.9	-42.1	21.2	0.00e+00	0	40	0	262144000	54	6467
2026-01-25 21:37:33.06	72.62	12.27	-40.9	-42.1	21.3	0.00e+00	0	40	0	269484032	54	6472
2026-01-25 21:37:37.10	72.05	12.54	-40.7	-41.9	21.3	0.00e+00	0	40	0	276824064	54	6380
2026-01-25 21:37:41.13	71.46	12.80	-40.8	-42.1	21.3	0.00e+00	0	40	0	285212672	54	6508
2026-01-25 21:37:45.17	70.86	13.06	-40.8	-42.0	21.3	0.00e+00	0	40	0	292552704	54	6423
2026-01-25 21:37:49.21	70.26	13.33	-40.7	-41.9	21.4	0.00e+00	0	40	0	299892736	54	6360
2026-01-25 21:37:53.24	69.64	13.59	-40.9	-42.1	21.2	0.00e+00	0	40	0	307232768	54	6520
2026-01-25 21:37:57.28	69.01	13.85	-40.9	-42.2	21.2	0.00e+00	0	40	0	314572800	54	6578
2026-01-25 21:38:01.31	68.37	14.11	-41.2	-42.5	20.9	0.00e+00	0	40	0	322961408	54	6815
2026-01-25 21:38:05.35	67.72	14.37	-40.7	-42.0	21.3	0.00e+00	0	40	0	330301440	54	6399
2026-01-25 21:38:09.39	67.05	14.63	-40.7	-42.0	21.4	0.00e+00	0	40	0	337641472	54	6404
2026-01-25 21:38:13.42	66.38	14.89	-40.8	-42.0	21.3	0.00e+00	0	40	0	344981504	54	6427
2026-01-25 21:38:17.47	65.69	15.15	-41.1	-42.5	20.9	0.00e+00	0	40	0	352321536	54	6783
2026-01-25 21:38:21.50	64.99	15.40	-40.9	-42.1	21.2	0.00e+00	0	40	0	360710144	54	6487
2026-01-25 21:38:25.54	64.27	15.66	-40.3	-41.4	21.9	0.00e+00	0	40	0	368050176	54	5993
2026-01-25 21:38:29.58	63.55	15.91	-39.8	-40.9	22.3	0.00e+00	0	40	0	375390208	52	6339
2026-01-25 21:38:33.62	62.81	16.16	-39.7	-40.8	22.4	0.00e+00	0	40	0	382730240	52	6253
2026-01-25 21:38:37.66	62.06	16.40	-39.8	-40.8	22.3	0.00e+00	0	40	0	391118848	52	6267
2026-01-25 21:38:41.70	61.30	16.65	-39.3	-40.3	23.0	0.00e+00	0	40	0	398458880	52	5922
2026-01-25 21:38:45.74	60.52	16.89	-39.0	-40.0	23.2	0.00e+00	0	40	0	405798912	52	5715
2026-01-25 21:38:49.78	59.74	17.13	-39.0	-39.9	23.2	0.00e+00	0	40	0	413138944	52	5691
2026-01-25 21:38:53.81	58.94	17.36	-38.5	-39.5	23.5	0.00e+00	0	40	0	420478976	50	6038
2026-01-25 21:38:57.85	58.13	17.60	-38.8	-39.7	23.1	0.00e+00	0	40	0	428867584	50	6243
2026-01-25 21:39:01.89	57.30	17.82	-39.2	-40.1	23.0	0.00e+00	0	40	0	436207616	50	6524
2026-01-25 21:39:05.93	56.46	18.05	-39.3	-40.3	22.9	0.00e+00	0	40	0	443547648	50	6664
2026-01-25 21:39:09.97	55.61	18.27	-38.7	-39.6	23.3	0.00e+00	0	40	0	450887680	50	6138
2026-01-25 21:39:14.01	54.75	18.48	-38.7	-39.6	23.4	0.00e+00	0	40	0	459276288	50	6116
2026-01-25 21:39:18.04	53.88	18.69	-37.7	-38.5	24.3	0.00e+00	0	40	0	466616320	48	6071
2026-01-25 21:39:22.08	52.99	18.89	-37.6	-38.4	24.4	0.00e+00	0	40	0	473956352	48	5993
2026-01-25 21:39:26.11	52.09	19.09	-38.1	-39.0	23.9	0.00e+00	0	40	0	481296384	48	6430
2026-01-25 21:39:30.16	51.18	19.28	-38.4	-39.2	23.7	0.00e+00	0	40	0	488636416	48	6604
2026-01-25 21:39:34.19	50.26	19.47	-38.4	-39.3	23.6	0.00e+00	0	40	0	497025024	48	6686
2026-01-25 21:39:38.23	49.33	19.65	-38.4	-39.3	23.5	0.00e+00	0	40	0	504365056	48	6678
2026-01-25 21:39:42.27	48.38	19.82	-37.8	-38.7	24.1	0.00e+00	0	40	0	511705088	48	6176
2026-01-25 21:39:46.31	47.43	19.99	-37.5	-38.3	24.5	0.00e+00	0	40	0	519045120	48	5950
2026-01-25 21:39:50.34	46.47	20.15	-38.2	-39.1	23.9	0.00e+00	0	40	0	527433728	48	6492
2026-01-25 21:39:54.38	45.49	20.30	-38.1	-39.0	23.9	0.00e+00	0	40	0	534773760	48	6407
2026-01-25 21:39:58.42	44.51	20.44	-38.5	-39.4	23.6	0.00e+00	0	40	0	542113792	48	6716
2026-01-25 21:40:02.45	43.52	20.57	-39.2	-40.1	23.2	0.00e+00	0	40	0	549453824	50	6494
2026-01-25 21:40:06.49	42.52	20.70	-39.8	-40.8	22.6	0.00e+00	0	40	0	556793856	52	6281
2026-01-25 21:40:10.53	41.51	20.82	-39.7	-40.7	22.6	0.00e+00	0	40	0	565182464	52	6199
2026-01-25 21:40:14.57	40.49	20.93	-39.4	-40.3	23.0	0.00e+00	0	40	0	572522496	52	5932
2026-01-25 21:40:18.61	39.47	21.03	-40.4	-41.5	22.1	0.00e+00	0	40	0	579862528	52	6815
2026-01-25 21:40:22.65	38.44	21.11	-39.9	-40.9	22.6	0.00e+00	0	40	0	587202560	52	6347
2026-01-25 21:40:26.69	37.41	21.20	-39.8	-40.8	22.6	0.00e+00	0	40	0	595591168	52	6309
2026-01-25 21:40:30.72	36.37	21.27	-39.5	-40.5	22.9	0.00e+00	0	40	0	602931200	52	6082
2026-01-25 21:40:34.76	35.32	21.33	-39.7	-40.7	22.6	0.00e+00	0	40	0	610271232	52	6215
2026-01-25 21:40:38.80	34.27	21.38	-40.3	-41.3	22.2	0.00e+00	0	40	0	617611264	52	6668
2026-01-25 21:40:42.83	33.23	21.42	-40.8	-41.9	21.7	0.00e+00	0	40	0	624951296	54	6390
2026-01-25 21:40:46.87	32.17	21.45	-40.1	-41.1	22.3	0.00e+00	0	40	0	633339904	54	5809
2026-01-25 21:40:50.90	31.12	21.47	-39.4	-40.3	23.0	0.00e+00	0	40	0	640679936	52	5954
2026-01-25 21:40:54.94	30.06	21.48	-38.8	-39.7	23.4	0.00e+00	0	40	0	648019968	52	5543
2026-01-25 21:40:58.98	29.00	21.48	-39.6	-40.5	22.8	0.00e+00	0	40	0	655360000	52	6095
2026-01-25 21:41:03.01	27.95	21.47	-40.0	-41.1	22.5	0.00e+00	0	40	0	662700032	52	6485
2026-01-25 21:41:07.04	26.90	21.44	-38.7	-39.6	23.5	0.00e+00	0	40	0	671088640	52	5490
2026-01-25 21:41:11.08	25.85	21.41	-38.5	-39.4	23.5	0.00e+00	0	40	0	678428672	50	5976
2026-01-25 21:41:15.13	24.79	21.37	-38.0	-38.8	24.0	0.00e+00	0	40	0	685768704	50	5600
2026-01-25 21:41:19.17	23.74	21.32	-38.2	-39.1	23.9	0.00e+00	0	40	0	693108736	50	5764
2026-01-25 21:41:23.20	22.70	21.26	-38.0	-38.9	24.0	0.00e+00	0	40	0	701497344	50	5657
2026-01-25 21:41:27.24	21.66	21.18	-38.2	-39.1	23.9	0.00e+00	0	40	0	708837376	48	6473
2026-01-25 21:41:31.28	20.63	21.10	-37.9	-38.8	24.1	0.00e+00	0	40	0	716177408	48	6275
2026-01-25 21:41:35.31	19.61	21.01	-38.6	-39.5	23.6	0.00e+00	0	40	0	723517440	50	6043
2026-01-25 21:41:39.35	18.58	20.91	-38.0	-38.8	24.1	0.00e+00	0	40	0	730857472	50	5627
2026-01-25 21:41:43.39	17.57	20.80	-37.9	-38.8	24.1	0.00e+00	0	40	0	739246080	48	6280
2026-01-25 21:41:47.43	16.56	20.68	-39.1	-40.0	23.2	0.00e+00	0	40	0	746586112	50	6429
2026-01-25 21:41:51.47	15.56	20.56	-38.8	-39.7	23.5	0.00e+00	0	40	0	753926144	50	6181
2026-01-25 21:41:55.50	14.58	20.42	-39.4	-40.4	22.8	0.00e+00	0	40	0	761266176	50	6710
2026-01-25 21:41:59.54	13.60	20.28	-40.3	-41.3	22.1	0.00e+00	0	40	0	769654784	52	6676
2026-01-25 21:42:03.58	12.63	20.13	-40.2	-41.3	22.3	0.00e+00	0	40	0	776994816	52	6652
2026-01-25 21:42:07.62	11.66	19.97	-39.6	-40.5	22.9	0.00e+00	0	40	0	784334848	52	6081
2026-01-25 21:42:11.66	10.71	19.80	-39.9	-41.0	22.5	0.00e+00	0	40	0	791674880	52	6398
2026-01-25 21:42:15.70	9.77	19.63	-39.0	-39.9	23.2	0.00e+00	0	40	0	799014912	52	5664
2026-01-25 21:42:19.74	8.84	19.45	-38.6	-39.5	23.6	0.00e+00	0	40	0	807403520	50	6042
2026-01-25 21:42:23.77	7.93	19.26	-38.8	-39.7	23.4	7.00e-07	0	40	0	814743552	50	6190
2026-01-25 21:42:27.81	7.02	19.07	-40.0	-41.1	22.2	0.00e+00	0	40	0	822083584	52	6501
2026-01-25 21:42:31.85	6.13	18.87	-40.3	-41.4	22.0	0.00e+00	0	40	0	829423616	54	6008
2026-01-25 21:42:35.90	5.24	18.66	-40.9	-42.1	21.4	0.00e+00	0	40	0	837812224	54	6475
2026-01-25 21:42:39.94	4.37	18.45	-41.9	-43.3	20.6	0.00e+00	0	40	0	845152256	56	6662
2026-01-25 21:42:43.98	3.51	18.24	-40.4	-41.5	22.0	0.00e+00	0	40	0	852492288	54	6097
2026-01-25 21:42:48.02	2.66	18.02	-38.6	-39.5	23.4	0.00e+00	0	40	0	859832320	50	6082
2026-01-25 21:42:52.06	1.83	17.79	-38.5	-39.5	23.6	0.00e+00	0	40	0	867172352	50	6038
2026-01-25 21:42:56.09	1.01	17.57	-39.6	-40.6	22.7	0.00e+00	0	40	0	875560960	50	6927
2026-01-25 21:43:00.13	0.20	17.34	-38.9	-39.8	23.1	0.00e+00	0	40	0	882900992	50	6311
2026-01-25 21:43:04.17	359.41	17.10	-39.6	-40.6	22.4	0.00e+00	0	40	0	890241024	50	6867
2026-01-25 21:43:08.20	358.63	16.86	-41.1	-42.4	21.1	0.00e+00	0	40	0	897581056	54	6728
2026-01-25 21:43:12.24	357.86	16.62	-39.8	-40.8	22.5	0.00e+00	0	40	0	905969664	54	5585
2026-01-25 21:43:16.28	357.10	16.38	-39.5	-40.4	22.8	0.00e+00	0	40	0	913309696	52	6014
2026-01-25 21:43:20.32	356.35	16.13	-39.2	-40.2	23.0	0.00e+00	0	40	0	920649728	52	5843
2026-01-25 21:43:24.35	355.62	15.88	-40.5	-41.6	21.8	0.00e+00	0	40	0	927989760	52	6902
2026-01-25 21:43:28.39	354.90	15.63	-40.5	-41.7	21.7	0.00e+00	0	40	0	935329792	54	6192
2026-01-25 21:43:32.43	354.19	15.38	-39.8	-40.9	22.3	0.00e+00	0	40	0	943718400	54	5648
2026-01-25 21:43:36.46	353.50	15.12	-39.9	-40.9	22.3	0.00e+00	0	40	0	951058432	52	6378
2026-01-25 21:43:40.50	352.81	14.87	-40.0	-41.1	22.2	0.00e+00	0	40	0	958398464	52	6496
2026-01-25 21:43:44.54	352.14	14.61	-39.4	-40.4	22.8	0.00e+00	0	40	0	965738496	52	5967
2026-01-25 21:43:48.57	351.48	14.35	-38.8	-39.7	23.1	0.00e+00	0	40	0	973078528	50	6234
2026-01-25 21:43:52.61	350.83	14.09	-38.4	-39.3	23.6	0.00e+00	0	40	0	981467136	50	5897
2026-01-25 21:43:56.65	350.19	13.83	-37.7	-38.5	24.1	0.00e+00	0	40	0	988807168	48	6048
2026-01-25 21:44:00.68	349.57	13.57	-38.4	-39.3	23.6	0.00e+00	0	40	0	996147200	48	6624
2026-01-25 21:44:04.72	348.95	13.31	-38.9	-39.9	23.0	0.00e+00	0	40	0	1003487232	50	6342
2026-01-25 21:44:08.76	348.35	13.04	-39.2	-40.1	22.9	0.00e+00	0	40	0	1011875840	50	6509
2026-01-25 21:44:12.80	347.76	12.78	-38.2	-39.1	23.6	0.00e+00	0	40	0	1019215872	50	5767
2026-01-25 21:44:16.84	347.17	12.52	-38.5	-39.4	23.4	0.00e+00	0	40	0	1026555904	50	6027
2026-01-25 21:44:20.88	346.60	12.25	-39.4	-40.3	22.7	0.00e+00	0	40	0	1033895936	50	6682
2026-01-25 21:44:24.91	346.04	11.99	-40.0	-41.1	22.1	0.00e+00	0	40	0	1041235968	52	6525
2026-01-25 21:44:28.95	345.49	11.73	-39.6	-40.6	22.2	0.00e+00	0	40	0	1049624576	52	6144
2026-01-25 21:44:32.98	344.95	11.47	-38.6	-39.5	23.2	0.00e+00	0	40	0	1056964608	50	6063
2026-01-25 21:44:37.02	344.42	11.20	-38.6	-39.6	23.2	0.00e+00	0	40	0	1064304640	50	6111
2026-01-25 21:44:41.06	343.90	10.94	-40.1	-41.2	21.9	0.00e+00	0	40	0	1071644672	52	6597
2026-01-25 21:44:45.10	343.39	10.68	-40.6	-41.8	21.4	0.00e+00	0	40	0	1080033280	52	7046
2026-01-25 21:44:49.13	342.88	10.42	-39.6	-40.7	22.4	0.00e+00	0	40	0	1087373312	52	6205
2026-01-25 21:44:53.17	342.39	10.16	-39.6	-40.7	22.3	0.00e+00	0	40	0	1094713344	52	6227
2026-01-25 21:44:57.21	341.90	9.90	-40.2	-41.3	21.9	0.00e+00	0	40	0	1102053376	52	6661
2026-01-25 21:45:01.23	341.43	9.64	-40.4	-41.6	21.5	0.00e+00	0	40	0	1109393408	52	6868
2026-01-25 21:45:05.27	340.96	9.39	-40.6	-41.8	21.4	0.00e+00	0	40	0	1117782016	52	7058
2026-01-25 21:45:09.31	340.50	9.13	-41.1	-42.3	21.0	0.00e+00	0	40	0	1125122048	54	6684
2026-01-25 21:45:13.36	340.05	8.87	-40.6	-41.8	21.4	0.00e+00	0	40	0	1132462080	54	6260
2026-01-25 21:45:17.38	339.61	8.62	-40.8	-42.0	20.9	0.00e+00	0	40	0	1139802112	54	6455
2026-01-25 21:45:21.42	339.18	8.36	-41.6	-43.0	20.3	0.00e+00	0	40	0	1147142144	54	7226
2026-01-25 21:45:25.46	338.75	8.11	-41.3	-42.5	20.7	0.00e+00	0	40	0	1155530752	54	6848
2026-01-25 21:45:29.49	338.33	7.86	-41.0	-42.3	20.8	0.00e+00	0	40	0	1162870784	54	6649
2026-01-25 21:45:33.53	337.92	7.61	-40.6	-41.8	21.2	0.00e+00	0	40	0	1170210816	54	6284
2026-01-25 21:45:37.57	337.51	7.36	-41.3	-42.6	20.4	0.00e+00	0	40	0	1177550848	54	6911
2026-01-25 21:45:41.60	337.12	7.11	-41.5	-42.8	20.2	0.00e+00	0	40	0	1185939456	54	7060
2026-01-25 21:45:45.64	336.73	6.86	-41.2	-42.5	20.5	0.00e+00	0	40	0	1193279488	54	6810
2026-01-25 21:45:49.68	336.34	6.61	-40.9	-42.2	20.6	0.00e+00	0	40	0	1200619520	54	6543
2026-01-25 21:45:53.72	335.97	6.37	-41.4	-42.7	20.2	0.00e+00	0	40	0	1207959552	54	6984
2026-01-25 21:45:57.75	335.60	6.12	-42.3	-43.9	18.9	0.00e+00	0	40	0	1215299584	56	7092
2026-01-25 21:46:01.79	335.23	5.88	-43.0	-45.0	17.5	0.00e+00	0	40	0	1223688192	58	7185
2026-01-25 21:46:05.83	334.87	5.64	-43.9	-46.8	14.6	0.00e+00	0	40	0	1231028224	60	7874
2026-01-25 21:46:09.86	334.52	5.39	-45.0	-49.5	11.3	9.63e-04	0	40	0	1238368256	60	10774
2026-01-25 21:46:13.90	334.18	5.15	-45.0	-51.5	8.0	4.34e-02	0	40	0	1245708288	60	13604
2026-01-25 21:46:17.94	333.84	4.92	-45.1	-51.7	7.4	8.75e-02	0	40	0	1254096896	60	13907
2026-01-25 21:46:21.98	333.50	4.68	-45.2	-52.0	7.1	1.47e-01	0	40	0	1261436928	60	14407
2026-01-25 21:46:26.02	333.17	4.44	-45.0	-52.5	6.3	2.31e-01	0	40	0	1268776960	60	15220
2026-01-25 21:46:30.05	332.85	4.21	-45.1	-52.8	5.8	3.14e-01	0	40	0	1276116992	60	15858
2026-01-25 21:46:34.09	332.53	3.97	-45.2	-52.4	7.0	1.90e-01	0	40	0	1283457024	60	15001
2026-01-25 21:46:38.13	332.22	3.74	-45.2	-51.3	8.5	4.66e-02	0	40	0	1291845632	60	13245
2026-01-25 21:46:42.17	331.91	3.51	-45.3	-51.5	8.0	4.50e-02	0	40	0	1299185664	60	13563
2026-01-25 21:46:46.21	331.61	3.28	-44.9	-50.4	9.4	1.13e-02	0	40	0	1306525696	60	11903
2026-01-25 21:46:50.25	331.31	3.05	-45.0	-51.0	8.4	5.80e-02	0	40	0	1313865728	60	12866
2026-01-25 21:46:54.29	331.02	2.82	-49.7	-64.9	3.6	1.51e+00	0	40	104	1317011456	60	63584
2026-01-25 21:46:58.33	330.73	2.59	-50.2	-65.5	3.6	1.51e+00	0	40	104	1317011456	60	67769
2026-01-25 21:47:02.37	330.45	2.37	-50.4	-65.5	3.6	1.51e+00	0	40	104	1317011456	60	68310
2026-01-25 21:47:06.41	330.17	2.14	-50.4	-65.5	3.6	1.51e+00	0	40	104	1317011456	60	68296
2026-01-25 21:47:10.45	329.90	1.92	-50.2	-65.5	3.6	1.51e+00	0	40	104	1317011456	60	67858
2026-01-25 21:47:14.49	329.63	1.69	-50.2	-65.5	3.6	1.51e+00	0	40	104	1317011456	60	67755
2026-01-25 21:47:18.53	329.36	1.47	-50.3	-65.6	3.6	1.51e+00	0	40	104	1317011456	60	68497
2026-01-25 21:47:22.57	329.10	1.25	-50.4	-65.6	3.6	1.51e+00	0	40	104	1317011456	60	68850
2026-01-25 21:47:26.60	328.84	1.03	-50.4	-65.7	3.6	1.51e+00	0	40	104	1317011456	60	69761
2026-01-25 21:47:30.64	328.59	0.81	-50.4	-65.7	3.6	1.51e+00	0	40	104	1317011456	60	69311
2026-01-25 21:47:34.68	328.34	0.60	-50.3	-65.6	3.5	1.51e+00	0	40	104	1317011456	60	68709
2026-01-25 21:47:38.72	328.10	0.38	-50.3	-65.5	3.6	1.51e+00	0	40	104	1317011456	60	68089
2026-01-25 21:47:42.76	327.85	0.17	-50.7	-65.9	3.6	1.51e+00	0	40	104	1317011456	60	71165
2026-01-25 21:47:46.80	327.62	-0.05	-50.6	-65.9	3.6	1.51e+00	0	40	104	1317011456	60	70889

#Closed at: 2026-01-25 21:47:48
#Recorded file [1317 MB]: D:/lorett/data/35029_260126_093411.dat