passes_logs/2026/01/25/R4.6S_Anadyr/R4.6S_Anadyr__20260125_233258_NOAA_20_JPSS-1_rec.log

#Pass ID: 20260125_233258_NOAA 20 (JPSS-1)
#Satellite: NOAA 20 (JPSS-1)
#Configuration: NOAA 20
#almurnet v.1.7.20251203
#Start time: 2026-01-25 23:33:00

#Version: 2.2.20231116
#Station: R4.6S_Anadyr
#Location: 177.4865 lon 64.73178 lat
#TLE: 1 43013U 17073A   26025.47986292  .00000161  00000+0  97249-4 0  9993
#TLE: 2 43013  98.7646 326.3091 0001052  24.2709 335.8516 14.19540188424225

#Time	Az	El	Level	Level2	SNR	BER	BlckErr	Temp	State	Recorded	gain1	gain2
2026-01-25 23:33:00.03	139.70	0.07	-51.2	-66.1	3.4	1.51e+00	0	33	0	0	60	73164
2026-01-25 23:33:04.06	139.64	0.31	-52.2	-67.4	3.6	1.51e+00	0	35	104	0	60	84638
2026-01-25 23:33:08.11	139.58	0.56	-50.3	-65.5	3.6	1.51e+00	0	35	104	0	60	68154
2026-01-25 23:33:12.14	139.51	0.81	-50.4	-65.5	3.6	1.51e+00	0	35	104	0	60	68205
2026-01-25 23:33:16.18	139.45	1.05	-50.2	-65.5	3.6	1.51e+00	0	35	104	0	60	67971
2026-01-25 23:33:20.22	139.38	1.30	-49.5	-64.8	3.6	1.51e+00	0	35	104	0	60	62864
2026-01-25 23:33:24.26	139.31	1.56	-49.0	-64.3	3.6	1.51e+00	0	35	104	0	60	59062
2026-01-25 23:33:28.30	139.24	1.81	-48.6	-64.0	3.6	1.51e+00	0	35	104	0	60	57331
2026-01-25 23:33:32.34	139.17	2.07	-48.6	-63.8	3.6	1.51e+00	0	35	104	0	60	56212
2026-01-25 23:33:36.38	139.10	2.33	-48.4	-63.7	3.6	1.51e+00	0	35	104	0	60	55449
2026-01-25 23:33:40.42	139.02	2.59	-48.5	-63.6	3.6	1.51e+00	0	35	104	0	60	54459
2026-01-25 23:33:44.46	138.95	2.85	-48.2	-62.9	3.6	1.51e+00	0	35	104	0	60	50197
2026-01-25 23:33:48.50	138.87	3.12	-48.7	-63.9	3.6	1.51e+00	0	35	104	0	60	56935
2026-01-25 23:33:52.54	138.79	3.39	-46.7	-51.3	11.5	1.34e-02	0	35	0	3145728	60	13241
2026-01-25 23:33:56.58	138.71	3.66	-43.6	-45.8	16.9	0.00e+00	0	35	0	10485760	60	7029
2026-01-25 23:34:00.63	138.63	3.94	-42.1	-43.7	18.6	5.85e-01	0	35	0	14680064	58	6199
2026-01-25 23:34:04.66	138.55	4.21	-42.8	-44.5	18.1	0.00e+00	0	35	0	19922944	60	6089
2026-01-25 23:34:08.70	138.46	4.49	-43.0	-44.7	18.8	0.00e+00	0	35	0	27262976	58	6953
2026-01-25 23:34:12.74	138.37	4.77	-42.6	-44.1	19.4	0.00e+00	0	35	0	34603008	56	7269
2026-01-25 23:34:16.78	138.28	5.06	-41.6	-42.9	20.3	0.00e+00	0	35	0	41943040	56	6382
2026-01-25 23:34:20.82	138.19	5.35	-41.3	-42.6	20.7	0.00e+00	0	35	0	49283072	56	6143
2026-01-25 23:34:24.85	138.10	5.64	-40.8	-41.9	21.3	0.00e+00	0	35	0	57671680	56	5688
2026-01-25 23:34:28.89	138.00	5.93	-40.6	-41.7	21.6	0.00e+00	0	35	0	65011712	54	6176
2026-01-25 23:34:32.93	137.90	6.23	-40.0	-41.0	22.1	0.00e+00	0	35	0	72351744	54	5749
2026-01-25 23:34:36.97	137.80	6.53	-40.0	-41.0	22.3	0.00e+00	0	35	0	79691776	52	6428
2026-01-25 23:34:41.01	137.70	6.84	-40.4	-41.4	22.2	0.00e+00	0	35	0	88080384	52	6758
2026-01-25 23:34:45.06	137.59	7.15	-39.9	-41.0	22.3	0.00e+00	0	35	0	95420416	52	6433
2026-01-25 23:34:49.10	137.49	7.46	-39.7	-40.7	22.6	0.00e+00	0	35	0	102760448	52	6228
2026-01-25 23:34:53.13	137.37	7.78	-39.6	-40.6	22.8	0.00e+00	0	35	0	110100480	52	6138
2026-01-25 23:34:57.17	137.26	8.10	-39.5	-40.5	22.9	0.00e+00	0	35	0	117440512	52	6082
2026-01-25 23:35:01.21	137.15	8.42	-39.9	-40.8	22.7	0.00e+00	0	35	0	125829120	52	6303
2026-01-25 23:35:05.25	137.03	8.75	-39.9	-40.9	23.0	0.00e+00	0	35	0	133169152	52	6343
2026-01-25 23:35:09.28	136.91	9.08	-39.3	-40.3	23.1	0.00e+00	0	35	0	140509184	52	5907
2026-01-25 23:35:13.33	136.78	9.42	-39.6	-40.6	22.9	0.00e+00	0	35	0	147849216	52	6143
2026-01-25 23:35:17.37	136.65	9.76	-39.5	-40.5	23.3	0.00e+00	0	35	0	156237824	52	6064
2026-01-25 23:35:21.41	136.52	10.10	-38.9	-39.8	23.5	0.00e+00	0	35	0	163577856	52	5621
2026-01-25 23:35:25.45	136.38	10.45	-39.0	-39.9	23.4	0.00e+00	0	35	0	170917888	52	5675
2026-01-25 23:35:29.48	136.25	10.81	-39.3	-40.2	23.3	0.00e+00	0	35	0	178257920	52	5867
2026-01-25 23:35:33.52	136.10	11.17	-39.4	-40.3	23.5	0.00e+00	0	36	0	185597952	52	5960
2026-01-25 23:35:37.56	135.96	11.53	-39.1	-40.0	23.8	0.00e+00	0	35	0	193986560	50	6443
2026-01-25 23:35:41.60	135.81	11.90	-39.3	-40.2	23.6	0.00e+00	0	35	0	201326592	50	6600
2026-01-25 23:35:45.64	135.65	12.28	-38.7	-39.6	23.7	0.00e+00	0	36	0	208666624	50	6133
2026-01-25 23:35:49.69	135.49	12.66	-38.6	-39.5	23.9	0.00e+00	0	35	0	216006656	50	6038
2026-01-25 23:35:53.73	135.33	13.05	-38.8	-39.7	23.9	0.00e+00	0	35	0	224395264	50	6227
2026-01-25 23:35:57.77	135.16	13.44	-38.9	-39.8	23.9	0.00e+00	0	35	0	231735296	50	6304
2026-01-25 23:36:01.81	134.99	13.84	-39.6	-40.6	23.3	0.00e+00	0	35	0	239075328	52	6134
2026-01-25 23:36:05.85	134.81	14.25	-39.1	-40.0	23.6	0.00e+00	0	35	0	246415360	50	6429
2026-01-25 23:36:09.89	134.63	14.66	-39.7	-40.6	23.6	0.00e+00	0	35	0	254803968	52	6153
2026-01-25 23:36:13.93	134.44	15.08	-40.1	-41.1	22.8	0.00e+00	0	35	0	262144000	52	6529
2026-01-25 23:36:17.98	134.24	15.51	-39.1	-40.1	23.6	0.00e+00	0	35	0	269484032	50	6481
2026-01-25 23:36:22.02	134.04	15.94	-40.1	-41.0	23.1	0.00e+00	0	35	0	276824064	52	6424
2026-01-25 23:36:26.06	133.84	16.39	-39.5	-40.4	23.6	0.00e+00	0	35	0	284164096	52	6019
2026-01-25 23:36:30.10	133.62	16.84	-39.6	-40.5	23.3	0.00e+00	0	35	0	292552704	52	6089
2026-01-25 23:36:34.14	133.40	17.29	-39.5	-40.5	23.2	0.00e+00	0	35	0	299892736	52	6055
2026-01-25 23:36:38.18	133.18	17.76	-39.3	-40.3	23.5	0.00e+00	0	36	0	307232768	52	5943
2026-01-25 23:36:42.22	132.94	18.23	-38.8	-39.8	24.1	0.00e+00	0	35	0	314572800	52	5576
2026-01-25 23:36:46.26	132.70	18.71	-39.1	-40.0	24.0	0.00e+00	0	36	0	322961408	50	6409
2026-01-25 23:36:50.28	132.45	19.20	-39.3	-40.2	23.3	0.00e+00	0	36	0	330301440	52	5878
2026-01-25 23:36:54.32	132.19	19.70	-39.1	-40.0	23.9	0.00e+00	0	36	0	337641472	50	6446
2026-01-25 23:36:58.35	131.92	20.21	-38.9	-39.7	24.2	0.00e+00	0	36	0	344981504	50	6226
2026-01-25 23:37:02.38	131.64	20.73	-38.6	-39.4	24.4	0.00e+00	0	35	0	352321536	50	6003
2026-01-25 23:37:06.42	131.35	21.26	-38.6	-39.4	24.4	0.00e+00	0	36	0	360710144	50	5997
2026-01-25 23:37:10.46	131.05	21.80	-38.4	-39.2	24.4	0.00e+00	0	36	0	368050176	50	5879
2026-01-25 23:37:14.51	130.74	22.35	-38.2	-39.1	24.3	0.00e+00	0	36	0	375390208	50	5772
2026-01-25 23:37:18.55	130.42	22.92	-38.8	-39.7	24.2	0.00e+00	0	35	0	382730240	50	6199
2026-01-25 23:37:22.58	130.09	23.49	-38.9	-39.7	23.9	0.00e+00	0	35	0	391118848	50	6245
2026-01-25 23:37:26.63	129.74	24.08	-38.9	-39.8	23.8	0.00e+00	0	35	0	398458880	50	6267
2026-01-25 23:37:30.67	129.38	24.68	-39.3	-40.2	23.6	0.00e+00	0	36	0	405798912	50	6563
2026-01-25 23:37:34.71	129.00	25.29	-40.0	-40.9	23.1	0.00e+00	0	36	0	413138944	52	6390
2026-01-25 23:37:38.75	128.61	25.91	-40.0	-41.0	23.0	0.00e+00	0	36	0	420478976	52	6461
2026-01-25 23:37:42.78	128.20	26.55	-40.3	-41.3	22.6	0.00e+00	0	36	0	428867584	52	6687
2026-01-25 23:37:46.82	127.78	27.20	-40.6	-41.6	22.2	0.00e+00	0	36	0	436207616	54	6147
2026-01-25 23:37:50.86	127.33	27.86	-40.7	-41.8	21.8	0.00e+00	0	36	0	443547648	54	6297
2026-01-25 23:37:54.90	126.87	28.54	-41.4	-42.6	21.5	0.00e+00	0	36	0	450887680	56	6131
2026-01-25 23:37:58.95	126.39	29.24	-41.8	-43.0	21.2	0.00e+00	0	35	0	459276288	56	6415
2026-01-25 23:38:02.98	125.88	29.94	-42.4	-43.7	20.4	0.00e+00	0	36	0	466616320	58	6215
2026-01-25 23:38:07.03	125.35	30.67	-41.5	-42.6	21.3	0.00e+00	0	36	0	473956352	56	6159
2026-01-25 23:38:11.07	124.80	31.41	-40.9	-42.0	22.0	0.00e+00	0	36	0	481296384	56	5699
2026-01-25 23:38:15.11	124.22	32.16	-40.8	-41.9	22.0	0.00e+00	0	36	0	488636416	54	6353
2026-01-25 23:38:19.15	123.61	32.93	-41.3	-42.5	21.5	0.00e+00	0	36	0	497025024	54	6802
2026-01-25 23:38:23.19	122.97	33.72	-41.4	-42.6	21.4	0.00e+00	0	35	0	504365056	56	6110
2026-01-25 23:38:27.23	122.30	34.52	-41.5	-42.6	21.6	0.00e+00	0	35	0	511705088	56	6173
2026-01-25 23:38:31.27	121.59	35.34	-41.7	-42.9	21.2	0.00e+00	0	36	0	519045120	56	6377
2026-01-25 23:38:35.31	120.85	36.18	-42.4	-43.7	20.5	0.00e+00	0	35	0	527433728	56	7007
2026-01-25 23:38:39.35	120.06	37.03	-43.0	-44.5	20.0	0.00e+00	0	36	0	534773760	58	6781
2026-01-25 23:38:43.39	119.23	37.90	-42.5	-43.9	20.4	0.00e+00	0	35	0	542113792	58	6342
2026-01-25 23:38:47.43	118.36	38.78	-42.1	-43.3	20.9	0.00e+00	0	36	0	549453824	58	5954
2026-01-25 23:38:51.46	117.44	39.67	-42.7	-44.1	20.0	0.00e+00	0	36	0	556793856	58	6536
2026-01-25 23:38:55.50	116.46	40.59	-43.3	-44.8	19.6	0.00e+00	0	36	0	565182464	58	7041
2026-01-25 23:38:59.54	115.43	41.51	-42.9	-44.3	20.1	0.00e+00	0	35	0	572522496	58	6622
2026-01-25 23:39:03.57	114.34	42.45	-41.8	-43.0	20.9	0.00e+00	0	35	0	579862528	58	5732
2026-01-25 23:39:07.61	113.17	43.40	-41.4	-42.5	21.7	0.00e+00	0	36	0	587202560	54	6805
2026-01-25 23:39:11.65	111.94	44.35	-40.5	-41.6	22.2	0.00e+00	0	35	0	595591168	54	6104
2026-01-25 23:39:15.70	110.62	45.32	-41.2	-42.4	21.6	0.00e+00	0	36	0	602931200	54	6712
2026-01-25 23:39:19.74	109.23	46.30	-42.0	-43.2	21.0	0.00e+00	0	35	0	610271232	56	6585
2026-01-25 23:39:23.78	107.74	47.27	-41.0	-42.1	22.0	0.00e+00	0	35	0	617611264	56	5799
2026-01-25 23:39:27.82	106.16	48.24	-41.2	-42.3	22.0	0.00e+00	0	36	0	624951296	56	5898
2026-01-25 23:39:31.86	104.48	49.22	-42.3	-43.6	20.8	0.00e+00	0	36	0	633339904	56	6862
2026-01-25 23:39:35.90	102.68	50.18	-41.6	-42.8	21.5	0.00e+00	0	36	0	640679936	56	6254
2026-01-25 23:39:39.94	100.77	51.13	-39.5	-40.4	23.6	0.00e+00	0	35	0	648019968	52	5979
2026-01-25 23:39:43.98	98.73	52.06	-38.5	-39.3	24.4	0.00e+00	0	36	0	655360000	50	5949
2026-01-25 23:39:48.03	96.55	52.98	-38.3	-39.2	24.2	0.00e+00	0	36	0	663748608	50	5863
2026-01-25 23:39:52.07	94.25	53.86	-37.4	-38.2	25.3	0.00e+00	0	36	0	671088640	48	5859
2026-01-25 23:39:56.10	91.80	54.70	-38.2	-39.1	24.6	0.00e+00	0	36	0	678428672	48	6466
2026-01-25 23:40:00.14	89.21	55.51	-39.2	-40.0	24.0	0.00e+00	0	35	0	685768704	52	5758
2026-01-25 23:40:04.19	86.45	56.26	-40.0	-41.0	22.9	0.00e+00	0	36	0	693108736	52	6430
2026-01-25 23:40:08.23	83.56	56.96	-39.8	-40.8	23.2	0.00e+00	0	36	0	701497344	52	6256
2026-01-25 23:40:12.26	80.53	57.59	-40.6	-41.7	22.4	0.00e+00	0	35	0	708837376	54	6176
2026-01-25 23:40:16.30	77.36	58.14	-41.3	-42.4	21.9	0.00e+00	0	36	0	716177408	54	6728
2026-01-25 23:40:20.34	74.07	58.62	-40.2	-41.2	22.7	0.00e+00	0	36	0	723517440	54	5887
2026-01-25 23:40:24.38	70.66	59.00	-40.0	-41.0	22.9	0.00e+00	0	35	0	731906048	54	5699
2026-01-25 23:40:28.42	67.17	59.29	-40.0	-41.0	23.2	0.00e+00	0	35	0	739246080	52	6441
2026-01-25 23:40:32.46	63.61	59.49	-38.8	-39.6	24.1	0.00e+00	0	36	0	746586112	50	6162
2026-01-25 23:40:36.51	60.00	59.58	-37.3	-38.1	25.5	0.00e+00	0	36	0	753926144	48	5773
2026-01-25 23:40:40.54	56.40	59.57	-37.4	-38.2	25.3	0.00e+00	0	36	0	761266176	48	5872
2026-01-25 23:40:44.58	52.81	59.45	-37.1	-37.9	25.5	0.00e+00	0	36	0	769654784	48	5652
2026-01-25 23:40:48.63	49.26	59.23	-37.2	-37.9	25.7	0.00e+00	0	35	0	776994816	48	5676
2026-01-25 23:40:52.66	45.79	58.92	-37.5	-38.3	25.2	0.00e+00	0	35	0	784334848	48	5936
2026-01-25 23:40:56.71	42.41	58.51	-38.3	-39.1	24.7	0.00e+00	0	36	0	791674880	48	6537
2026-01-25 23:41:00.75	39.14	58.02	-38.6	-39.4	24.4	0.00e+00	0	35	0	800063488	50	6030
2026-01-25 23:41:04.78	36.01	57.45	-39.6	-40.5	23.5	0.00e+00	0	35	0	807403520	52	6079
2026-01-25 23:41:08.82	33.01	56.80	-39.5	-40.4	23.7	0.00e+00	0	35	0	814743552	52	6003
2026-01-25 23:41:12.86	30.16	56.10	-38.5	-39.4	24.4	0.00e+00	0	36	0	822083584	50	5987
2026-01-25 23:41:16.90	27.45	55.33	-37.8	-38.6	25.1	0.00e+00	0	35	0	829423616	48	6137
2026-01-25 23:41:20.95	24.89	54.52	-38.5	-39.3	24.4	0.00e+00	0	36	0	837812224	50	5930
2026-01-25 23:41:24.99	22.48	53.66	-38.3	-39.1	24.7	0.00e+00	0	36	0	845152256	48	6487
2026-01-25 23:41:29.03	20.21	52.78	-39.8	-40.8	23.3	0.00e+00	0	36	0	852492288	52	6278
2026-01-25 23:41:33.06	18.08	51.86	-40.4	-41.4	22.9	0.00e+00	0	36	0	859832320	52	6712
2026-01-25 23:41:37.10	16.07	50.93	-40.3	-41.3	22.8	0.00e+00	0	36	0	868220928	54	5940
2026-01-25 23:41:41.14	14.19	49.98	-42.8	-44.2	20.3	0.00e+00	0	36	0	875560960	58	6553
2026-01-25 23:41:45.18	12.43	49.01	-41.6	-42.7	21.7	0.00e+00	0	35	0	882900992	56	6227
2026-01-25 23:41:49.22	10.77	48.04	-42.6	-43.9	20.3	0.00e+00	0	35	0	890241024	58	6349
2026-01-25 23:41:53.26	9.21	47.07	-41.9	-43.0	21.6	0.00e+00	0	35	0	897581056	58	5739
2026-01-25 23:41:57.29	7.75	46.10	-41.0	-42.1	22.1	0.00e+00	0	35	0	905969664	56	5789
2026-01-25 23:42:01.33	6.38	45.14	-41.1	-42.2	21.8	0.00e+00	0	35	0	913309696	54	6577
2026-01-25 23:42:05.36	5.09	44.18	-41.3	-42.4	22.0	0.00e+00	0	35	0	920649728	54	6743
2026-01-25 23:42:09.40	3.88	43.22	-41.1	-42.2	21.8	0.00e+00	0	35	0	927989760	54	6606
2026-01-25 23:42:13.44	2.73	42.28	-41.4	-42.5	21.8	0.00e+00	0	35	0	936378368	56	6093
2026-01-25 23:42:17.48	1.65	41.35	-42.3	-43.5	20.8	0.00e+00	0	35	0	943718400	56	6847
2026-01-25 23:42:21.52	0.64	40.43	-43.1	-44.6	19.6	0.00e+00	0	36	0	951058432	58	6909
2026-01-25 23:42:25.56	359.67	39.52	-41.9	-43.1	21.0	0.00e+00	0	36	0	958398464	58	5826
2026-01-25 23:42:29.60	358.77	38.63	-42.9	-44.3	19.8	0.00e+00	0	36	0	965738496	58	6656
2026-01-25 23:42:33.64	357.91	37.76	-43.1	-44.6	19.3	0.00e+00	0	35	0	974127104	58	6917
2026-01-25 23:42:37.68	357.09	36.90	-42.9	-44.4	19.8	0.00e+00	0	35	0	981467136	58	6713
2026-01-25 23:42:41.72	356.32	36.05	-42.3	-43.6	20.4	0.00e+00	0	35	0	988807168	58	6163
2026-01-25 23:42:45.77	355.58	35.22	-41.7	-43.0	21.0	0.00e+00	0	35	0	996147200	56	6402
2026-01-25 23:42:49.81	354.89	34.41	-41.6	-42.8	21.1	0.00e+00	0	35	0	1004535808	56	6249
2026-01-25 23:42:53.85	354.22	33.61	-41.4	-42.6	21.3	0.00e+00	0	35	0	1011875840	56	6118
2026-01-25 23:42:57.89	353.59	32.83	-41.3	-42.5	21.4	0.00e+00	0	35	0	1019215872	56	6036
2026-01-25 23:43:01.93	352.99	32.07	-41.1	-42.3	21.6	0.00e+00	0	35	0	1026555904	56	5905
2026-01-25 23:43:05.96	352.42	31.32	-42.4	-43.8	20.4	0.00e+00	0	35	0	1033895936	56	7054
2026-01-25 23:43:10.01	351.87	30.59	-42.3	-43.6	20.5	0.00e+00	0	35	0	1042284544	58	6147
2026-01-25 23:43:14.04	351.35	29.87	-41.7	-43.0	21.2	0.00e+00	0	35	0	1049624576	56	6432
2026-01-25 23:43:18.09	350.85	29.17	-41.5	-42.8	21.1	0.00e+00	0	35	0	1056964608	56	6293
2026-01-25 23:43:22.13	350.38	28.48	-41.8	-43.1	20.8	0.00e+00	0	35	0	1064304640	56	6466
2026-01-25 23:43:26.17	349.92	27.80	-42.2	-43.5	20.6	0.00e+00	0	35	0	1072693248	56	6846
2026-01-25 23:43:30.21	349.48	27.14	-41.8	-43.0	21.0	0.00e+00	0	35	0	1080033280	56	6419
2026-01-25 23:43:34.25	349.07	26.50	-41.5	-42.7	21.3	0.00e+00	0	35	0	1087373312	56	6245
2026-01-25 23:43:38.29	348.66	25.87	-41.3	-42.5	21.6	0.00e+00	0	35	0	1094713344	56	6045
2026-01-25 23:43:42.32	348.28	25.25	-41.1	-42.3	21.8	0.00e+00	0	35	0	1102053376	56	5909
2026-01-25 23:43:46.36	347.91	24.64	-41.2	-42.3	21.5	0.00e+00	0	36	0	1110441984	56	5946
2026-01-25 23:43:50.40	347.55	24.05	-41.1	-42.3	21.5	0.00e+00	0	36	0	1117782016	56	5898
2026-01-25 23:43:54.44	347.21	23.47	-41.0	-42.1	21.8	0.00e+00	0	35	0	1125122048	56	5787
2026-01-25 23:43:58.48	346.88	22.90	-40.6	-41.7	22.0	0.00e+00	0	35	0	1132462080	54	6203
2026-01-25 23:44:02.52	346.56	22.34	-40.4	-41.5	22.2	0.00e+00	0	35	0	1140850688	54	6039
2026-01-25 23:44:06.56	346.26	21.79	-40.4	-41.5	22.2	0.00e+00	0	35	0	1148190720	54	6034
2026-01-25 23:44:10.60	345.96	21.26	-40.0	-41.1	22.5	0.00e+00	0	35	0	1155530752	54	5777
2026-01-25 23:44:14.64	345.68	20.73	-39.7	-40.7	22.9	0.00e+00	0	35	0	1162870784	52	6191
2026-01-25 23:44:18.69	345.40	20.21	-39.6	-40.6	22.9	0.00e+00	0	35	0	1171259392	52	6160
2026-01-25 23:44:22.73	345.14	19.71	-39.8	-40.8	22.7	0.00e+00	0	36	0	1178599424	52	6275
2026-01-25 23:44:26.77	344.88	19.21	-39.9	-40.9	22.6	0.00e+00	0	35	0	1185939456	52	6348
2026-01-25 23:44:30.80	344.64	18.72	-39.9	-40.9	22.6	0.00e+00	0	35	0	1193279488	52	6390
2026-01-25 23:44:34.84	344.40	18.24	-40.2	-41.3	22.5	0.00e+00	0	35	0	1200619520	52	6617
2026-01-25 23:44:38.88	344.17	17.77	-40.0	-41.1	22.5	0.00e+00	0	35	0	1209008128	52	6465
2026-01-25 23:44:42.92	343.94	17.31	-40.4	-41.4	22.3	0.00e+00	0	35	0	1216348160	52	6762
2026-01-25 23:44:46.96	343.73	16.86	-40.5	-41.5	22.0	0.00e+00	0	35	0	1223688192	52	6837
2026-01-25 23:44:51.01	343.52	16.41	-40.4	-41.4	22.3	0.00e+00	0	35	0	1231028224	52	6734
2026-01-25 23:44:55.05	343.31	15.97	-40.4	-41.5	22.1	0.00e+00	0	35	0	1239416832	52	6771
2026-01-25 23:44:59.09	343.12	15.54	-40.5	-41.6	21.9	0.00e+00	0	35	0	1246756864	54	6155
2026-01-25 23:45:03.13	342.93	15.12	-40.6	-41.8	21.7	0.00e+00	0	36	0	1254096896	54	6246
2026-01-25 23:45:07.17	342.74	14.70	-40.7	-41.9	21.4	0.00e+00	0	35	0	1261436928	54	6333
2026-01-25 23:45:11.21	342.56	14.29	-40.7	-41.8	21.6	0.00e+00	0	35	0	1268776960	54	6288
2026-01-25 23:45:15.25	342.39	13.88	-40.8	-41.9	21.5	0.00e+00	0	35	0	1277165568	54	6389
2026-01-25 23:45:19.29	342.22	13.49	-40.8	-42.0	21.4	0.00e+00	0	35	0	1284505600	54	6423
2026-01-25 23:45:23.33	342.05	13.10	-40.8	-42.0	21.3	0.00e+00	0	35	0	1291845632	54	6407
2026-01-25 23:45:27.37	341.89	12.71	-40.9	-42.1	21.2	0.00e+00	0	35	0	1299185664	54	6510
2026-01-25 23:45:31.40	341.74	12.33	-41.0	-42.3	21.0	0.00e+00	0	35	0	1307574272	54	6638
2026-01-25 23:45:35.44	341.59	11.96	-41.4	-42.7	20.9	0.00e+00	0	35	0	1314914304	54	6954
2026-01-25 23:45:39.48	341.44	11.59	-42.0	-43.4	20.3	0.00e+00	0	35	0	1322254336	56	6742
2026-01-25 23:45:43.52	341.30	11.23	-41.8	-43.2	20.4	0.00e+00	0	35	0	1329594368	56	6546
2026-01-25 23:45:47.56	341.16	10.87	-42.0	-43.4	20.1	0.00e+00	0	35	0	1336934400	56	6749
2026-01-25 23:45:51.60	341.03	10.51	-42.1	-43.6	20.0	0.00e+00	0	35	0	1345323008	56	6861
2026-01-25 23:45:55.64	340.89	10.17	-41.9	-43.3	20.1	0.00e+00	0	35	0	1352663040	56	6680
2026-01-25 23:45:59.68	340.77	9.82	-41.8	-43.2	20.1	0.00e+00	0	35	0	1360003072	56	6592
2026-01-25 23:46:03.69	340.64	9.48	-41.8	-43.2	20.1	0.00e+00	0	36	0	1367343104	56	6589
2026-01-25 23:46:07.73	340.52	9.15	-41.8	-43.3	20.1	0.00e+00	0	35	0	1374683136	56	6625
2026-01-25 23:46:11.77	340.40	8.82	-41.8	-43.3	20.0	0.00e+00	0	35	0	1383071744	56	6620
2026-01-25 23:46:15.80	340.29	8.49	-42.0	-43.4	19.9	0.00e+00	0	35	0	1390411776	56	6728
2026-01-25 23:46:19.84	340.17	8.17	-42.0	-43.5	19.9	0.00e+00	0	35	0	1397751808	56	6786
2026-01-25 23:46:23.88	340.07	7.85	-42.3	-43.8	19.4	0.00e+00	0	35	0	1405091840	56	7086
2026-01-25 23:46:27.92	339.96	7.54	-42.2	-43.6	19.6	0.00e+00	0	35	0	1413480448	56	6919
2026-01-25 23:46:31.97	339.85	7.23	-42.3	-43.8	19.3	0.00e+00	0	35	0	1420820480	56	7051
2026-01-25 23:46:36.01	339.75	6.92	-42.5	-44.0	19.0	0.00e+00	0	35	0	1428160512	56	7226
2026-01-25 23:46:40.05	339.65	6.62	-42.4	-44.0	19.1	0.00e+00	0	35	0	1435500544	58	6444
2026-01-25 23:46:44.09	339.56	6.32	-42.4	-44.0	19.1	0.00e+00	0	35	0	1443889152	58	6399
2026-01-25 23:46:48.13	339.46	6.02	-42.8	-44.6	18.5	0.00e+00	0	35	0	1451229184	58	6854
2026-01-25 23:46:52.17	339.37	5.72	-42.9	-44.8	17.8	0.00e+00	0	35	0	1458569216	58	7025
2026-01-25 23:46:56.21	339.28	5.43	-44.0	-46.4	16.1	0.00e+00	0	35	0	1465909248	60	7539
2026-01-25 23:47:00.25	339.19	5.15	-44.3	-47.3	14.4	7.00e-07	0	35	0	1473249280	60	8337
2026-01-25 23:47:04.29	339.11	4.86	-45.1	-49.3	11.7	3.49e-04	0	35	0	1481637888	60	10586
2026-01-25 23:47:08.33	339.02	4.58	-45.2	-51.2	8.4	4.68e-02	0	35	0	1488977920	60	13199
2026-01-25 23:47:12.37	338.94	4.30	-45.2	-53.9	4.7	4.61e-01	0	36	0	1496317952	60	17958
2026-01-25 23:47:16.41	338.86	4.03	-45.1	-58.0	3.7	1.51e+00	0	35	104	1500512256	60	28719
2026-01-25 23:47:20.45	338.78	3.75	-44.9	-59.5	3.6	1.51e+00	0	35	104	1500512256	60	34156
2026-01-25 23:47:24.49	338.70	3.48	-44.9	-60.0	3.6	1.51e+00	0	35	104	1500512256	60	35951
2026-01-25 23:47:28.53	338.63	3.22	-44.9	-60.0	3.6	1.51e+00	0	35	104	1500512256	60	36274
2026-01-25 23:47:32.57	338.56	2.95	-45.0	-60.1	3.6	1.51e+00	0	36	104	1500512256	60	36624
2026-01-25 23:47:36.60	338.48	2.69	-49.8	-65.0	3.6	1.51e+00	0	36	104	1500512256	60	63956
2026-01-25 23:47:40.64	338.41	2.43	-50.1	-65.3	3.6	1.51e+00	0	36	104	1500512256	60	66284
2026-01-25 23:47:44.68	338.35	2.17	-50.0	-65.3	3.6	1.51e+00	0	35	104	1500512256	60	66264
2026-01-25 23:47:48.72	338.28	1.91	-49.4	-65.1	3.6	1.51e+00	0	36	104	1500512256	60	64964
2026-01-25 23:47:52.76	338.21	1.66	-49.8	-65.2	3.6	1.51e+00	0	36	104	1500512256	60	66056
2026-01-25 23:47:56.80	338.15	1.41	-50.1	-65.3	3.6	1.51e+00	0	36	104	1500512256	60	66593
2026-01-25 23:48:00.84	338.09	1.16	-50.0	-65.3	3.6	1.51e+00	0	35	104	1500512256	60	66198
2026-01-25 23:48:04.88	338.02	0.91	-50.2	-65.4	3.6	1.51e+00	0	36	104	1500512256	60	67146
2026-01-25 23:48:08.92	337.96	0.66	-50.5	-65.7	3.6	1.51e+00	0	36	104	1500512256	60	69333
2026-01-25 23:48:12.96	337.91	0.42	-50.0	-65.2	3.6	1.51e+00	0	36	104	1500512256	60	66011
2026-01-25 23:48:17.00	337.85	0.18	-50.5	-65.7	3.6	1.51e+00	0	36	104	1500512256	60	69298
2026-01-25 23:48:21.04	337.79	-0.06	-50.5	-65.6	3.6	1.51e+00	0	36	104	1500512256	60	69055

#Closed at: 2026-01-25 23:48:22
#Recorded file [1500 MB]: D:/lorett/data/35029_260126_113300.dat