passes_logs/2026/01/25/R4.6S_Anadyr/R4.6S_Anadyr__20260125_201605_NOAA_20_JPSS-1_rec.log

#Pass ID: 20260125_201605_NOAA 20 (JPSS-1)
#Satellite: NOAA 20 (JPSS-1)
#Configuration: NOAA 20
#almurnet v.1.7.20251203
#Start time: 2026-01-25 20:16:07

#Version: 2.2.20231116
#Station: R4.6S_Anadyr
#Location: 177.4865 lon 64.73178 lat
#TLE: 1 43013U 17073A   26025.47986292  .00000161  00000+0  97249-4 0  9993
#TLE: 2 43013  98.7646 326.3091 0001052  24.2709 335.8516 14.19540188424225

#Time	Az	El	Level	Level2	SNR	BER	BlckErr	Temp	State	Recorded	gain1	gain2
2026-01-25 20:16:07.32	66.81	0.11	-50.4	-65.3	3.5	1.51e+00	0	39	0	0	60	66652
2026-01-25 20:16:10.34	66.59	0.26	-50.6	-65.9	3.6	1.51e+00	0	40	104	0	60	71526
2026-01-25 20:16:13.37	66.36	0.41	-50.7	-65.9	3.6	1.51e+00	0	40	104	0	60	71574
2026-01-25 20:16:16.39	66.14	0.56	-50.6	-65.8	3.6	1.51e+00	0	40	104	0	60	70870
2026-01-25 20:16:19.42	65.90	0.71	-50.6	-65.9	3.6	1.51e+00	0	40	104	0	60	70895
2026-01-25 20:16:22.45	65.67	0.86	-50.6	-65.9	3.6	1.51e+00	0	40	104	0	60	71024
2026-01-25 20:16:25.48	65.44	1.01	-50.6	-65.8	3.6	1.51e+00	0	40	104	0	60	70211
2026-01-25 20:16:28.51	65.20	1.16	-50.4	-65.6	3.6	1.51e+00	0	40	104	0	60	68940
2026-01-25 20:16:31.54	64.96	1.31	-49.8	-65.1	3.6	1.51e+00	0	40	104	0	60	64860
2026-01-25 20:16:34.56	64.72	1.46	-49.2	-64.4	3.6	1.51e+00	0	40	104	0	60	59721
2026-01-25 20:16:37.59	64.47	1.62	-49.2	-64.3	3.6	1.51e+00	0	40	104	0	60	59506
2026-01-25 20:16:40.62	64.22	1.77	-49.1	-64.3	3.6	1.51e+00	0	40	104	0	60	59357
2026-01-25 20:16:43.65	63.97	1.92	-49.2	-64.4	3.6	1.51e+00	0	40	104	0	60	59754
2026-01-25 20:16:46.68	63.72	2.07	-49.1	-64.3	3.6	1.51e+00	0	40	104	0	60	59064
2026-01-25 20:16:49.71	63.46	2.23	-49.1	-64.2	3.6	1.51e+00	0	40	104	0	60	58720
2026-01-25 20:16:52.74	63.20	2.38	-49.2	-64.3	3.6	1.51e+00	0	40	104	0	60	59433
2026-01-25 20:16:55.76	62.94	2.54	-49.2	-64.3	3.5	1.51e+00	0	40	104	0	60	59486
2026-01-25 20:16:58.79	62.68	2.69	-49.1	-63.8	3.6	1.51e+00	0	40	104	0	60	55791
2026-01-25 20:17:01.82	62.41	2.84	-49.0	-60.9	4.1	1.50e+00	0	40	104	0	60	40238
2026-01-25 20:17:04.85	62.14	3.00	-46.7	-50.3	13.1	5.28e-04	0	40	0	4194304	60	11888
2026-01-25 20:17:07.88	61.86	3.15	-44.9	-47.4	15.2	1.37e+00	68	40	104	7340032	60	8484
2026-01-25 20:17:10.90	61.59	3.31	-47.4	-52.4	5.5	1.46e+00	0	40	104	9437184	60	15076
2026-01-25 20:17:13.93	61.31	3.47	-47.0	-51.1	11.7	1.22e-04	0	40	0	12582912	60	12989
2026-01-25 20:17:16.96	61.03	3.62	-46.2	-49.4	14.0	4.50e-06	0	40	0	18874368	60	10703
2026-01-25 20:17:19.99	60.74	3.78	-46.0	-49.0	14.8	1.50e-06	0	40	0	24117248	60	10147
2026-01-25 20:17:23.01	60.45	3.93	-46.0	-49.0	14.5	1.14e-05	0	40	0	30408704	60	10228
2026-01-25 20:17:26.04	60.16	4.09	-45.2	-47.6	15.9	0.00e+00	0	40	0	35651584	60	8700
2026-01-25 20:17:29.07	59.86	4.25	-44.9	-47.2	16.3	0.00e+00	0	40	0	40894464	60	8242
2026-01-25 20:17:32.10	59.57	4.40	-44.2	-46.1	17.4	0.00e+00	0	40	0	47185920	60	7313
2026-01-25 20:17:35.13	59.26	4.56	-44.9	-47.2	16.2	0.00e+00	0	40	0	52428800	60	8307
2026-01-25 20:17:38.15	58.96	4.72	-44.5	-46.7	17.2	0.00e+00	0	40	0	58720256	60	7814
2026-01-25 20:17:41.18	58.65	4.87	-44.3	-46.3	17.4	0.00e+00	0	40	0	63963136	60	7504
2026-01-25 20:17:44.21	58.34	5.03	-44.0	-45.8	18.0	0.00e+00	0	40	0	69206016	60	7061
2026-01-25 20:17:47.23	58.02	5.19	-43.7	-45.4	18.4	0.00e+00	0	40	0	75497472	60	6735
2026-01-25 20:17:50.26	57.70	5.35	-43.5	-45.3	18.5	0.00e+00	0	40	0	80740352	60	6628
2026-01-25 20:17:53.29	57.38	5.51	-43.4	-45.0	18.8	0.00e+00	0	40	0	87031808	60	6438
2026-01-25 20:17:56.32	57.06	5.66	-43.7	-45.5	18.1	0.00e+00	0	40	0	92274688	60	6796
2026-01-25 20:17:59.35	56.73	5.82	-43.1	-44.7	19.0	0.00e+00	0	40	0	98566144	60	6205
2026-01-25 20:18:02.38	56.39	5.98	-43.4	-45.0	18.8	0.00e+00	0	40	0	103809024	60	6461
2026-01-25 20:18:05.41	56.05	6.14	-43.0	-44.6	19.4	0.00e+00	0	40	0	109051904	60	6127
2026-01-25 20:18:08.43	55.71	6.30	-42.9	-44.3	19.6	0.00e+00	0	40	0	115343360	60	5955
2026-01-25 20:18:11.46	55.37	6.45	-42.9	-44.4	19.6	0.00e+00	0	40	0	120586240	60	5981
2026-01-25 20:18:14.49	55.02	6.61	-43.3	-44.9	19.0	0.00e+00	0	40	0	126877696	60	6380
2026-01-25 20:18:17.53	54.67	6.77	-42.9	-44.4	19.5	0.00e+00	0	40	0	132120576	60	6016
2026-01-25 20:18:20.55	54.31	6.93	-43.1	-44.7	19.4	0.00e+00	0	40	0	137363456	60	6184
2026-01-25 20:18:23.58	53.95	7.09	-43.4	-45.0	19.0	0.00e+00	0	40	0	143654912	60	6458
2026-01-25 20:18:26.61	53.58	7.24	-43.0	-44.6	19.4	0.00e+00	0	40	0	148897792	60	6118
2026-01-25 20:18:29.64	53.22	7.40	-43.0	-44.5	19.5	0.00e+00	0	40	0	155189248	60	6084
2026-01-25 20:18:32.66	52.84	7.56	-42.9	-44.4	19.5	0.00e+00	0	40	0	160432128	60	6008
2026-01-25 20:18:35.69	52.47	7.71	-43.9	-45.7	18.5	0.00e+00	0	40	0	166723584	60	6929
2026-01-25 20:18:38.72	52.09	7.87	-43.5	-45.1	19.0	0.00e+00	0	40	0	171966464	60	6499
2026-01-25 20:18:41.74	51.70	8.03	-42.8	-44.2	19.9	0.00e+00	0	40	0	177209344	60	5874
2026-01-25 20:18:44.77	51.31	8.18	-42.5	-43.9	20.1	0.00e+00	0	40	0	183500800	58	6337
2026-01-25 20:18:47.80	50.92	8.34	-42.2	-43.5	20.4	0.00e+00	0	40	0	188743680	58	6096
2026-01-25 20:18:50.83	50.52	8.50	-42.6	-44.0	20.1	1.50e-06	0	40	0	195035136	58	6411
2026-01-25 20:18:53.86	50.12	8.65	-42.5	-43.9	20.1	0.00e+00	0	41	0	200278016	58	6318
2026-01-25 20:18:56.88	49.71	8.81	-42.7	-44.1	20.0	0.00e+00	0	40	0	205520896	58	6538
2026-01-25 20:18:59.91	49.30	8.96	-42.5	-43.8	20.3	2.20e-06	0	41	0	211812352	58	6263
2026-01-25 20:19:02.94	48.88	9.12	-42.1	-43.3	20.7	0.00e+00	0	40	0	217055232	58	5955
2026-01-25 20:19:05.97	48.46	9.27	-42.6	-44.0	20.2	0.00e+00	0	40	0	223346688	56	7176
2026-01-25 20:19:09.00	48.04	9.42	-42.4	-43.7	20.3	0.00e+00	0	40	0	228589568	56	6997
2026-01-25 20:19:12.03	47.61	9.57	-42.2	-43.4	20.6	0.00e+00	0	41	0	233832448	56	6759
2026-01-25 20:19:15.06	47.17	9.73	-42.3	-43.7	20.5	0.00e+00	0	41	0	240123904	56	6928
2026-01-25 20:19:18.08	46.74	9.88	-42.0	-43.2	20.9	0.00e+00	0	41	0	245366784	56	6554
2026-01-25 20:19:21.11	46.29	10.03	-42.0	-43.2	21.0	0.00e+00	0	40	0	251658240	56	6571
2026-01-25 20:19:24.14	45.85	10.18	-41.7	-42.9	21.2	0.00e+00	0	41	0	256901120	56	6371
2026-01-25 20:19:27.17	45.39	10.33	-41.9	-43.2	21.0	0.00e+00	0	41	0	263192576	56	6555
2026-01-25 20:19:30.19	44.94	10.47	-41.5	-42.6	21.5	0.00e+00	0	41	0	268435456	56	6165
2026-01-25 20:19:33.22	44.48	10.62	-41.2	-42.3	21.8	0.00e+00	0	41	0	273678336	56	5949
2026-01-25 20:19:36.25	44.01	10.77	-41.0	-42.1	22.0	0.00e+00	0	41	0	279969792	56	5775
2026-01-25 20:19:39.27	43.54	10.91	-41.0	-42.1	22.0	0.00e+00	0	41	0	285212672	56	5801
2026-01-25 20:19:42.30	43.06	11.05	-40.6	-41.6	22.3	0.00e+00	0	41	0	291504128	54	6152
2026-01-25 20:19:45.32	42.58	11.20	-40.6	-41.7	22.3	0.00e+00	0	41	0	296747008	54	6174
2026-01-25 20:19:48.35	42.10	11.34	-40.5	-41.5	22.4	0.00e+00	0	41	0	301989888	54	6068
2026-01-25 20:19:51.38	41.61	11.48	-40.5	-41.5	22.4	0.00e+00	0	41	0	308281344	54	6102
2026-01-25 20:19:54.40	41.11	11.62	-40.3	-41.3	22.7	0.00e+00	0	41	0	313524224	54	5929
2026-01-25 20:19:57.43	40.61	11.76	-40.3	-41.3	22.6	0.00e+00	0	41	0	319815680	54	5959
2026-01-25 20:20:00.46	40.11	11.89	-40.1	-41.1	22.9	0.00e+00	0	40	0	325058560	54	5788
2026-01-25 20:20:03.48	39.60	12.03	-39.9	-40.9	23.1	0.00e+00	0	41	0	331350016	54	5660
2026-01-25 20:20:06.51	39.09	12.16	-39.9	-40.9	22.9	0.00e+00	0	40	0	336592896	54	5633
2026-01-25 20:20:09.54	38.57	12.29	-39.8	-40.7	23.2	0.00e+00	0	40	0	341835776	52	6238
2026-01-25 20:20:12.57	38.04	12.42	-39.7	-40.6	23.4	0.00e+00	0	40	0	348127232	52	6151
2026-01-25 20:20:15.60	37.52	12.55	-39.9	-40.9	23.0	0.00e+00	0	41	0	353370112	52	6352
2026-01-25 20:20:18.63	36.98	12.68	-40.1	-41.1	22.9	0.00e+00	0	41	0	359661568	52	6508
2026-01-25 20:20:21.66	36.44	12.80	-40.4	-41.4	22.7	0.00e+00	0	41	0	364904448	52	6727
2026-01-25 20:20:24.69	35.90	12.93	-40.3	-41.3	22.7	0.00e+00	0	41	0	370147328	54	5934
2026-01-25 20:20:27.72	35.36	13.05	-40.5	-41.5	22.5	0.00e+00	0	41	0	376438784	54	6058
2026-01-25 20:20:30.74	34.81	13.17	-40.1	-41.1	22.9	0.00e+00	0	41	0	381681664	54	5783
2026-01-25 20:20:33.76	34.25	13.28	-40.0	-41.0	22.9	0.00e+00	0	41	0	387973120	54	5731
2026-01-25 20:20:36.79	33.69	13.40	-40.0	-41.0	23.0	0.00e+00	0	41	0	393216000	54	5713
2026-01-25 20:20:39.82	33.13	13.51	-40.0	-41.0	22.9	0.00e+00	0	41	0	398458880	54	5704
2026-01-25 20:20:42.85	32.56	13.62	-40.0	-40.9	23.0	0.00e+00	0	41	0	404750336	54	5695
2026-01-25 20:20:45.87	31.99	13.73	-40.0	-40.9	23.1	0.00e+00	0	41	0	409993216	54	5684
2026-01-25 20:20:48.90	31.41	13.84	-39.8	-40.8	23.0	0.00e+00	0	41	0	416284672	52	6269
2026-01-25 20:20:51.93	30.83	13.94	-39.8	-40.8	23.3	0.00e+00	0	41	0	421527552	52	6248
2026-01-25 20:20:54.95	30.24	14.04	-39.9	-40.8	23.2	0.00e+00	0	41	0	427819008	52	6289
2026-01-25 20:20:57.98	29.65	14.14	-39.8	-40.8	23.3	0.00e+00	0	41	0	433061888	52	6263
2026-01-25 20:21:01.01	29.06	14.23	-39.6	-40.5	23.4	0.00e+00	0	40	0	438304768	52	6076
2026-01-25 20:21:04.03	28.47	14.33	-39.5	-40.4	23.5	0.00e+00	0	41	0	444596224	52	5993
2026-01-25 20:21:07.06	27.87	14.42	-39.6	-40.5	23.5	0.00e+00	0	41	0	449839104	52	6065
2026-01-25 20:21:10.10	27.26	14.50	-39.7	-40.7	23.3	0.00e+00	0	41	0	456130560	52	6176
2026-01-25 20:21:13.13	26.65	14.59	-39.6	-40.5	23.5	0.00e+00	0	41	0	461373440	52	6090
2026-01-25 20:21:16.15	26.04	14.67	-40.0	-41.0	22.9	0.00e+00	0	41	0	466616320	52	6401
2026-01-25 20:21:19.18	25.43	14.75	-39.9	-40.8	23.2	0.00e+00	0	41	0	472907776	52	6315
2026-01-25 20:21:22.21	24.81	14.82	-40.0	-41.0	23.1	0.00e+00	0	41	0	478150656	52	6418
2026-01-25 20:21:25.24	24.19	14.89	-40.0	-41.0	23.0	0.00e+00	0	40	0	484442112	52	6420
2026-01-25 20:21:28.27	23.56	14.96	-40.3	-41.2	22.8	0.00e+00	0	41	0	489684992	52	6611
2026-01-25 20:21:31.29	22.94	15.03	-40.6	-41.6	22.6	0.00e+00	0	41	0	495976448	52	6877
2026-01-25 20:21:34.32	22.31	15.09	-40.4	-41.3	22.6	0.00e+00	0	41	0	501219328	52	6687
2026-01-25 20:21:37.35	21.68	15.15	-40.3	-41.3	22.8	0.00e+00	0	41	0	506462208	52	6642
2026-01-25 20:21:40.38	21.04	15.21	-40.0	-40.9	23.1	0.00e+00	0	41	0	512753664	52	6385
2026-01-25 20:21:43.40	20.41	15.26	-40.1	-41.0	23.0	0.00e+00	0	41	0	517996544	52	6437
2026-01-25 20:21:46.43	19.77	15.31	-39.9	-40.8	23.2	0.00e+00	0	41	0	524288000	52	6292
2026-01-25 20:21:49.46	19.13	15.35	-40.1	-41.1	23.0	0.00e+00	0	40	0	529530880	52	6501
2026-01-25 20:21:52.49	18.48	15.39	-40.1	-41.1	22.8	0.00e+00	0	41	0	534773760	52	6482
2026-01-25 20:21:55.52	17.84	15.43	-40.0	-41.0	23.0	0.00e+00	0	41	0	541065216	52	6411
2026-01-25 20:21:58.55	17.19	15.46	-40.2	-41.2	22.8	0.00e+00	0	41	0	546308096	52	6588
2026-01-25 20:22:01.58	16.54	15.50	-40.0	-40.9	23.1	0.00e+00	0	41	0	552599552	52	6380
2026-01-25 20:22:04.60	15.90	15.52	-40.3	-41.2	22.7	0.00e+00	0	41	0	557842432	52	6612
2026-01-25 20:22:07.63	15.25	15.55	-40.4	-41.3	22.7	0.00e+00	0	41	0	564133888	52	6687
2026-01-25 20:22:10.66	14.60	15.57	-40.1	-41.1	22.9	0.00e+00	0	41	0	569376768	52	6504
2026-01-25 20:22:13.68	13.95	15.58	-40.2	-41.2	22.9	0.00e+00	0	41	0	574619648	52	6583
2026-01-25 20:22:16.71	13.29	15.59	-40.0	-40.9	23.1	0.00e+00	0	41	0	580911104	52	6360
2026-01-25 20:22:19.74	12.64	15.60	-40.2	-41.1	22.9	0.00e+00	0	41	0	586153984	52	6525
2026-01-25 20:22:22.77	11.99	15.61	-40.4	-41.4	22.7	0.00e+00	0	41	0	592445440	52	6741
2026-01-25 20:22:25.79	11.34	15.61	-40.2	-41.1	23.0	0.00e+00	0	41	0	597688320	52	6516
2026-01-25 20:22:28.82	10.68	15.60	-40.0	-41.0	23.1	0.00e+00	0	41	0	602931200	52	6392
2026-01-25 20:22:31.85	10.03	15.60	-40.2	-41.2	22.8	0.00e+00	0	41	0	609222656	52	6552
2026-01-25 20:22:34.88	9.38	15.59	-40.1	-41.1	23.0	0.00e+00	0	41	0	614465536	52	6486
2026-01-25 20:22:37.90	8.73	15.57	-40.3	-41.2	22.9	0.00e+00	0	41	0	620756992	52	6599
2026-01-25 20:22:40.93	8.08	15.56	-40.5	-41.5	22.7	0.00e+00	0	41	0	625999872	52	6830
2026-01-25 20:22:43.96	7.43	15.53	-40.3	-41.3	22.8	0.00e+00	0	41	0	631242752	52	6624
2026-01-25 20:22:46.99	6.78	15.51	-40.1	-41.1	23.0	0.00e+00	0	41	0	637534208	52	6484
2026-01-25 20:22:50.02	6.13	15.48	-40.3	-41.3	22.8	0.00e+00	0	41	0	642777088	52	6623
2026-01-25 20:22:53.05	5.48	15.45	-40.6	-41.6	22.6	0.00e+00	0	41	0	649068544	52	6872
2026-01-25 20:22:56.07	4.84	15.41	-40.3	-41.3	22.9	0.00e+00	0	41	0	654311424	52	6660
2026-01-25 20:22:59.10	4.19	15.37	-39.9	-40.9	23.2	0.00e+00	0	41	0	660602880	52	6347
2026-01-25 20:23:02.13	3.55	15.33	-39.9	-40.8	23.3	0.00e+00	0	41	0	665845760	52	6307
2026-01-25 20:23:05.16	2.91	15.28	-40.1	-41.0	23.1	0.00e+00	0	41	0	671088640	52	6456
2026-01-25 20:23:08.19	2.28	15.23	-39.8	-40.7	23.3	0.00e+00	0	41	0	677380096	52	6230
2026-01-25 20:23:11.22	1.64	15.18	-39.6	-40.5	23.6	0.00e+00	0	41	0	682622976	52	6059
2026-01-25 20:23:14.24	1.01	15.12	-39.8	-40.7	23.4	0.00e+00	0	41	0	688914432	52	6223
2026-01-25 20:23:17.27	0.38	15.06	-39.9	-40.9	23.3	0.00e+00	0	41	0	694157312	52	6318
2026-01-25 20:23:20.30	359.75	15.00	-39.9	-40.9	23.3	0.00e+00	0	41	0	699400192	52	6351
2026-01-25 20:23:23.33	359.13	14.93	-40.1	-41.0	23.1	0.00e+00	0	41	0	705691648	52	6446
2026-01-25 20:23:26.36	358.50	14.86	-40.4	-41.4	22.7	0.00e+00	0	41	0	710934528	52	6765
2026-01-25 20:23:29.38	357.89	14.78	-40.7	-41.7	22.4	0.00e+00	0	41	0	717225984	54	6202
2026-01-25 20:23:32.41	357.27	14.71	-40.2	-41.1	22.9	0.00e+00	0	41	0	722468864	54	5817
2026-01-25 20:23:35.44	356.66	14.63	-40.2	-41.2	23.0	0.00e+00	0	41	0	728760320	54	5829
2026-01-25 20:23:38.47	356.05	14.55	-40.3	-41.3	22.8	0.00e+00	0	41	0	734003200	54	5921
2026-01-25 20:23:41.49	355.44	14.46	-40.3	-41.3	22.9	0.00e+00	0	41	0	739246080	54	5904
2026-01-25 20:23:44.52	354.84	14.37	-40.2	-41.2	22.8	0.00e+00	0	41	0	745537536	54	5883
2026-01-25 20:23:47.55	354.24	14.28	-40.2	-41.2	22.9	0.00e+00	0	41	0	750780416	54	5838
2026-01-25 20:23:50.58	353.65	14.19	-40.0	-40.9	23.2	0.00e+00	0	41	0	757071872	54	5662
2026-01-25 20:23:53.61	353.06	14.09	-39.8	-40.8	23.0	0.00e+00	0	41	0	762314752	52	6247
2026-01-25 20:23:56.63	352.47	13.99	-39.9	-40.8	23.2	0.00e+00	0	41	0	767557632	52	6293
2026-01-25 20:23:59.66	351.89	13.89	-39.9	-40.8	23.2	0.00e+00	0	41	0	773849088	52	6275
2026-01-25 20:24:02.68	351.31	13.78	-39.9	-40.9	23.2	0.00e+00	0	41	0	779091968	52	6320
2026-01-25 20:24:05.71	350.74	13.68	-40.4	-41.4	22.8	0.00e+00	0	41	0	785383424	52	6693
2026-01-25 20:24:08.74	350.17	13.57	-40.1	-41.1	22.9	0.00e+00	0	41	0	790626304	52	6503
2026-01-25 20:24:11.77	349.60	13.46	-40.0	-40.9	23.2	0.00e+00	0	41	0	795869184	52	6376
2026-01-25 20:24:14.80	349.04	13.34	-40.2	-41.1	23.0	0.00e+00	0	41	0	802160640	52	6519
2026-01-25 20:24:17.82	348.48	13.23	-39.9	-40.9	23.1	0.00e+00	0	41	0	807403520	52	6335
2026-01-25 20:24:20.85	347.93	13.11	-40.2	-41.2	22.9	0.00e+00	0	41	0	813694976	52	6554
2026-01-25 20:24:23.88	347.38	12.99	-40.1	-41.0	23.1	0.00e+00	0	41	0	818937856	52	6425
2026-01-25 20:24:26.91	346.84	12.87	-40.3	-41.2	22.9	0.00e+00	0	41	0	825229312	52	6595
2026-01-25 20:24:29.94	346.30	12.74	-40.4	-41.4	22.7	0.00e+00	0	41	0	830472192	52	6735
2026-01-25 20:24:32.96	345.77	12.62	-40.8	-41.9	22.2	0.00e+00	0	41	0	835715072	54	6346
2026-01-25 20:24:35.98	345.24	12.49	-41.2	-42.3	21.8	0.00e+00	0	41	0	842006528	54	6686
2026-01-25 20:24:39.02	344.71	12.36	-41.3	-42.4	21.7	0.00e+00	0	41	0	847249408	54	6732
2026-01-25 20:24:42.05	344.19	12.23	-41.4	-42.6	21.6	0.00e+00	0	41	0	853540864	54	6859
2026-01-25 20:24:45.08	343.68	12.10	-41.5	-42.7	21.5	0.00e+00	0	41	0	858783744	54	6930
2026-01-25 20:24:48.11	343.16	11.96	-41.9	-43.2	21.2	0.00e+00	0	41	0	864026624	56	6546
2026-01-25 20:24:51.13	342.66	11.83	-42.5	-43.8	20.6	0.00e+00	0	41	0	870318080	56	7069
2026-01-25 20:24:54.16	342.16	11.69	-42.2	-43.5	20.8	0.00e+00	0	41	0	875560960	56	6800
2026-01-25 20:24:57.19	341.66	11.55	-42.2	-43.5	20.9	0.00e+00	0	41	0	881852416	56	6790
2026-01-25 20:25:00.21	341.17	11.41	-42.2	-43.6	20.8	0.00e+00	0	41	0	887095296	56	6861
2026-01-25 20:25:03.23	340.68	11.27	-42.7	-44.1	20.2	0.00e+00	0	41	0	893386752	56	7303
2026-01-25 20:25:06.27	340.20	11.13	-42.7	-44.2	20.1	0.00e+00	0	41	0	898629632	58	6557
2026-01-25 20:25:09.29	339.72	10.99	-42.6	-44.1	20.1	0.00e+00	0	41	0	903872512	58	6505
2026-01-25 20:25:12.32	339.25	10.84	-43.0	-44.6	19.7	0.00e+00	0	41	0	910163968	58	6851
2026-01-25 20:25:15.35	338.78	10.70	-43.0	-44.5	19.6	0.00e+00	0	41	0	915406848	58	6838
2026-01-25 20:25:18.38	338.32	10.55	-43.0	-44.6	19.7	0.00e+00	0	41	0	921698304	58	6923
2026-01-25 20:25:21.41	337.86	10.40	-43.1	-44.7	19.6	0.00e+00	0	41	0	926941184	58	6963
2026-01-25 20:25:24.44	337.41	10.25	-43.0	-44.5	19.6	0.00e+00	0	41	0	932184064	58	6833
2026-01-25 20:25:27.47	336.96	10.10	-43.0	-44.6	19.7	0.00e+00	0	41	0	938475520	58	6859
2026-01-25 20:25:30.50	336.51	9.95	-42.9	-44.4	19.9	0.00e+00	0	41	0	943718400	58	6729
2026-01-25 20:25:33.53	336.07	9.80	-42.8	-44.3	19.9	0.00e+00	0	41	0	950009856	58	6647
2026-01-25 20:25:36.55	335.64	9.65	-42.7	-44.1	20.1	0.00e+00	0	41	0	955252736	58	6476
2026-01-25 20:25:39.58	335.21	9.50	-42.3	-43.7	20.5	0.00e+00	0	41	0	961544192	58	6188
2026-01-25 20:25:42.61	334.78	9.35	-42.5	-43.8	20.3	0.00e+00	0	41	0	966787072	58	6313
2026-01-25 20:25:45.64	334.36	9.20	-42.2	-43.5	20.6	0.00e+00	0	41	0	972029952	58	6085
2026-01-25 20:25:48.66	333.94	9.04	-42.0	-43.3	20.8	0.00e+00	0	41	0	978321408	58	5937
2026-01-25 20:25:51.69	333.53	8.89	-41.9	-43.1	20.9	0.00e+00	0	41	0	983564288	58	5828
2026-01-25 20:25:54.71	333.12	8.73	-41.8	-43.1	21.0	0.00e+00	0	41	0	989855744	56	6478
2026-01-25 20:25:57.74	332.72	8.58	-41.6	-42.8	21.4	0.00e+00	0	41	0	995098624	56	6268
2026-01-25 20:26:00.77	332.32	8.42	-41.5	-42.7	21.4	0.00e+00	0	41	0	1000341504	56	6196
2026-01-25 20:26:03.80	331.92	8.27	-41.4	-42.5	21.5	0.00e+00	0	41	0	1006632960	56	6092
2026-01-25 20:26:06.82	331.53	8.11	-40.8	-41.9	22.1	0.00e+00	0	41	0	1011875840	56	5669
2026-01-25 20:26:09.85	331.15	7.96	-40.9	-42.0	21.8	0.00e+00	0	41	0	1018167296	54	6416
2026-01-25 20:26:12.88	330.76	7.80	-41.0	-42.1	21.5	0.00e+00	0	41	0	1023410176	54	6524
2026-01-25 20:26:15.90	330.39	7.64	-41.0	-42.1	21.7	0.00e+00	0	41	0	1028653056	54	6532
2026-01-25 20:26:18.93	330.01	7.49	-40.7	-41.8	22.1	0.00e+00	0	41	0	1034944512	54	6265
2026-01-25 20:26:21.96	329.64	7.33	-40.9	-42.0	21.9	0.00e+00	0	41	0	1040187392	54	6442
2026-01-25 20:26:24.98	329.28	7.17	-40.8	-41.8	22.0	0.00e+00	0	41	0	1046478848	54	6304
2026-01-25 20:26:28.01	328.92	7.01	-40.8	-41.9	22.0	0.00e+00	0	41	0	1051721728	54	6338
2026-01-25 20:26:31.04	328.56	6.86	-40.7	-41.8	22.1	0.00e+00	0	41	0	1058013184	54	6248
2026-01-25 20:26:34.06	328.21	6.70	-41.2	-42.3	21.6	0.00e+00	0	41	0	1063256064	54	6663
2026-01-25 20:26:37.09	327.86	6.54	-41.3	-42.5	21.5	0.00e+00	0	41	0	1068498944	54	6806
2026-01-25 20:26:40.12	327.51	6.38	-41.7	-42.9	21.0	0.00e+00	0	41	0	1074790400	54	7103
2026-01-25 20:26:43.15	327.17	6.22	-41.6	-42.8	21.2	0.00e+00	0	41	0	1080033280	56	6291
2026-01-25 20:26:46.18	326.83	6.07	-41.5	-42.7	21.2	0.00e+00	0	41	0	1086324736	56	6240
2026-01-25 20:26:49.21	326.49	5.91	-41.7	-42.9	21.1	0.00e+00	0	41	0	1091567616	56	6360
2026-01-25 20:26:52.23	326.16	5.75	-41.5	-42.7	21.2	0.00e+00	0	41	0	1096810496	56	6212
2026-01-25 20:26:55.27	325.84	5.59	-41.5	-42.7	21.3	0.00e+00	0	41	0	1103101952	56	6181
2026-01-25 20:26:58.29	325.51	5.44	-41.5	-42.7	21.3	0.00e+00	0	41	0	1108344832	56	6192
2026-01-25 20:27:01.32	325.19	5.28	-41.8	-43.1	20.8	0.00e+00	0	41	0	1114636288	56	6496
2026-01-25 20:27:04.35	324.88	5.12	-42.6	-44.0	20.1	0.00e+00	0	41	0	1119879168	56	7203
2026-01-25 20:27:07.38	324.56	4.96	-42.1	-43.4	20.4	0.00e+00	0	41	0	1126170624	58	6031
2026-01-25 20:27:10.41	324.25	4.81	-42.3	-43.7	20.2	0.00e+00	0	41	0	1131413504	56	6944
2026-01-25 20:27:13.44	323.95	4.65	-42.2	-43.5	20.4	0.00e+00	0	41	0	1136656384	56	6809
2026-01-25 20:27:16.47	323.64	4.49	-42.8	-44.2	19.5	0.00e+00	0	41	0	1142947840	56	7406
2026-01-25 20:27:19.50	323.34	4.33	-42.9	-44.4	19.3	0.00e+00	0	41	0	1148190720	58	6751
2026-01-25 20:27:22.52	323.05	4.18	-42.7	-44.2	19.3	0.00e+00	0	41	0	1154482176	58	6579
2026-01-25 20:27:25.55	322.76	4.02	-43.4	-45.0	18.8	0.00e+00	0	41	0	1159725056	58	7215
2026-01-25 20:27:28.58	322.47	3.87	-43.3	-45.0	18.9	0.00e+00	0	41	0	1164967936	58	7179
2026-01-25 20:27:31.61	322.18	3.71	-43.5	-45.2	18.6	0.00e+00	0	41	0	1171259392	60	6582
2026-01-25 20:27:34.63	321.90	3.55	-43.5	-45.2	18.5	0.00e+00	0	41	0	1176502272	60	6548
2026-01-25 20:27:37.66	321.62	3.40	-44.5	-46.6	16.9	0.00e+00	0	41	0	1182793728	60	7718
2026-01-25 20:27:40.69	321.34	3.24	-43.2	-44.8	18.7	0.00e+00	0	41	0	1188036608	60	6307
2026-01-25 20:27:43.71	321.07	3.09	-43.5	-45.3	18.2	0.00e+00	0	41	0	1193279488	60	6654
2026-01-25 20:27:46.74	320.80	2.93	-50.0	-65.1	3.6	1.51e+00	0	41	104	1197473792	60	65298
2026-01-25 20:27:49.77	320.53	2.78	-50.6	-65.8	3.6	1.51e+00	0	41	104	1197473792	60	70239
2026-01-25 20:27:52.80	320.26	2.62	-50.8	-66.0	3.6	1.51e+00	0	41	104	1197473792	60	71721
2026-01-25 20:27:55.83	320.00	2.47	-50.8	-66.1	3.6	1.51e+00	0	41	104	1197473792	60	72665
2026-01-25 20:27:58.85	319.74	2.32	-50.8	-66.1	3.6	1.51e+00	0	41	104	1197473792	60	72709
2026-01-25 20:28:01.89	319.48	2.16	-50.7	-66.0	3.6	1.51e+00	0	41	104	1197473792	60	71830
2026-01-25 20:28:04.91	319.23	2.01	-50.6	-65.9	3.6	1.51e+00	0	41	104	1197473792	60	71357
2026-01-25 20:28:07.94	318.98	1.86	-50.5	-65.9	3.6	1.51e+00	0	41	104	1197473792	60	71270
2026-01-25 20:28:10.97	318.73	1.70	-50.7	-66.0	3.6	1.51e+00	0	41	104	1197473792	60	71808
2026-01-25 20:28:14.00	318.48	1.55	-50.7	-65.9	3.6	1.51e+00	0	41	104	1197473792	60	71706
2026-01-25 20:28:17.03	318.24	1.40	-50.7	-66.0	3.6	1.51e+00	0	41	104	1197473792	60	71984
2026-01-25 20:28:20.05	318.00	1.25	-50.7	-66.0	3.6	1.51e+00	0	41	104	1197473792	60	72117
2026-01-25 20:28:23.08	317.76	1.10	-50.6	-65.9	3.6	1.51e+00	0	41	104	1197473792	60	71635
2026-01-25 20:28:26.11	317.53	0.95	-50.7	-66.0	3.6	1.51e+00	0	41	104	1197473792	60	72271
2026-01-25 20:28:29.13	317.29	0.80	-50.7	-66.0	3.6	1.51e+00	0	41	104	1197473792	60	72338
2026-01-25 20:28:32.16	317.06	0.65	-50.7	-66.0	3.6	1.51e+00	0	41	104	1197473792	60	72147
2026-01-25 20:28:35.19	316.83	0.50	-50.8	-66.1	3.6	1.51e+00	0	41	104	1197473792	60	72644
2026-01-25 20:28:38.22	316.61	0.35	-50.7	-66.0	3.6	1.51e+00	0	41	104	1197473792	60	72220
2026-01-25 20:28:41.24	316.38	0.20	-50.8	-66.1	3.6	1.51e+00	0	41	104	1197473792	60	72539
2026-01-25 20:28:44.27	316.16	0.05	-50.8	-66.0	3.6	1.51e+00	0	41	104	1197473792	60	72523
2026-01-25 20:28:47.30	315.94	-0.10	-50.8	-66.0	3.6	1.51e+00	0	41	104	1197473792	60	72419

#Closed at: 2026-01-25 20:28:47
#Recorded file [1197 MB]: D:/lorett/data/35029_260126_081607.dat