passes_logs/2026/01/25/R4.6S_Anadyr/R4.6S_Anadyr__20260125_173451_FENGYUN_3D_rec.log

#Pass ID: 20260125_173451_FENGYUN 3D
#Satellite: FENGYUN 3D
#Configuration: FENGYUN 3D
#almurnet v.1.7.20251203
#Start time: 2026-01-25 17:34:54

#Version: 2.2.20231116
#Station: R4.6S_Anadyr
#Location: 177.4865 lon 64.73178 lat
#TLE: 1 43010U 17072A   26025.29318909  .00000213  00000+0  12258-3 0  9997
#TLE: 2 43010  98.9962 357.2697 0002521  90.3942 269.7522 14.19700342424711

#Time	Az	El	Level	Level2	SNR	BER	BlckErr	Temp	State	Recorded	gain1	gain2
2026-01-25 17:34:54.36	22.96	0.15	-51.3	-69.0	3.5	3.02e+01	0	38	0	0	60	108381
2026-01-25 17:34:58.40	22.89	0.39	-50.5	-62.7	3.6	8.45e-01	0	39	104	0	60	49121
2026-01-25 17:35:02.45	22.83	0.63	-50.5	-62.7	3.6	8.45e-01	0	39	104	0	60	49176
2026-01-25 17:35:06.48	22.76	0.88	-50.6	-62.7	3.6	8.45e-01	0	40	104	0	60	49133
2026-01-25 17:35:10.52	22.69	1.12	-50.4	-62.4	3.6	8.47e-01	0	39	104	0	60	47612
2026-01-25 17:35:14.56	22.62	1.37	-49.9	-62.1	3.6	8.46e-01	0	40	104	0	60	45966
2026-01-25 17:35:18.60	22.55	1.62	-49.2	-61.3	3.6	8.45e-01	0	40	104	0	60	42122
2026-01-25 17:35:22.64	22.48	1.88	-49.1	-60.6	3.6	8.46e-01	0	40	104	0	60	38937
2026-01-25 17:35:26.68	22.40	2.13	-49.1	-60.9	3.6	8.45e-01	0	40	104	0	60	40290
2026-01-25 17:35:30.72	22.32	2.39	-49.2	-61.3	3.6	8.46e-01	0	40	104	0	60	41829
2026-01-25 17:35:34.76	22.25	2.65	-49.1	-59.9	3.6	8.45e-01	0	40	104	0	60	35614
2026-01-25 17:35:38.80	22.17	2.91	-48.9	-58.8	3.7	8.43e-01	0	40	104	0	60	31477
2026-01-25 17:35:42.84	22.08	3.18	-48.3	-55.0	5.6	8.30e-01	0	40	104	0	60	20268
2026-01-25 17:35:46.87	22.00	3.44	-44.6	-46.6	14.0	1.71e-05	0	40	0	18874368	60	7730
2026-01-25 17:35:50.91	21.91	3.71	-42.3	-43.7	16.6	0.00e+00	0	40	0	41943040	58	6208
2026-01-25 17:35:54.95	21.83	3.99	-48.9	-58.1	3.6	3.72e-04	0	40	104	55574528	60	29037
2026-01-25 17:35:58.99	21.74	4.26	-37.3	-38.1	22.3	0.00e+00	0	40	0	65011712	48	5793
2026-01-25 17:36:03.03	21.65	4.54	-37.5	-38.3	22.0	0.00e+00	0	40	0	88080384	48	5897
2026-01-25 17:36:07.07	21.55	4.82	-37.4	-38.2	22.2	0.00e+00	0	40	0	110100480	48	5846
2026-01-25 17:36:11.10	21.46	5.10	-37.4	-38.2	22.3	0.00e+00	0	40	0	133169152	48	5841
2026-01-25 17:36:15.14	21.36	5.39	-37.2	-37.9	22.3	0.00e+00	0	40	0	156237824	48	5686
2026-01-25 17:36:19.18	21.26	5.68	-37.9	-38.7	21.8	0.00e+00	0	40	0	178257920	48	6190
2026-01-25 17:36:23.22	21.16	5.97	-38.1	-38.9	21.8	0.00e+00	0	40	0	201326592	48	6368
2026-01-25 17:36:27.26	21.05	6.27	-38.7	-39.5	21.1	0.00e+00	0	40	0	224395264	50	6082
2026-01-25 17:36:31.30	20.94	6.57	-38.7	-39.5	21.4	0.00e+00	0	40	0	246415360	50	6100
2026-01-25 17:36:35.34	20.83	6.87	-38.1	-38.9	21.8	0.00e+00	0	40	0	269484032	50	5653
2026-01-25 17:36:39.38	20.72	7.18	-38.0	-38.8	22.0	0.00e+00	0	40	0	292552704	48	6269
2026-01-25 17:36:43.41	20.60	7.49	-36.9	-37.6	23.0	0.00e+00	0	40	0	314572800	46	6158
2026-01-25 17:36:47.45	20.49	7.80	-37.0	-37.8	23.0	0.00e+00	0	40	0	337641472	46	6255
2026-01-25 17:36:51.77	20.36	8.14	-37.1	-37.9	23.0	0.00e+00	0	40	0	360710144	46	6321
2026-01-25 17:36:55.81	20.23	8.46	-36.5	-37.2	23.5	0.00e+00	0	40	0	382730240	46	5879
2026-01-25 17:36:59.84	20.10	8.78	-36.5	-37.3	23.5	0.00e+00	0	40	0	405798912	46	5898
2026-01-25 17:37:03.88	19.97	9.11	-36.3	-37.0	23.5	0.00e+00	0	40	0	428867584	46	5755
2026-01-25 17:37:07.92	19.84	9.45	-35.9	-36.6	24.0	0.00e+00	0	40	0	450887680	44	6171
2026-01-25 17:37:11.95	19.70	9.78	-35.9	-36.6	24.2	0.00e+00	0	40	0	473956352	44	6112
2026-01-25 17:37:15.99	19.56	10.13	-35.7	-36.4	24.4	0.00e+00	0	40	0	497025024	44	5994
2026-01-25 17:37:20.02	19.41	10.47	-35.8	-36.5	24.2	0.00e+00	0	40	0	519045120	44	6067
2026-01-25 17:37:24.06	19.26	10.83	-35.8	-36.5	24.3	0.00e+00	0	40	0	542113792	44	6046
2026-01-25 17:37:28.10	19.11	11.18	-35.6	-36.4	24.5	0.00e+00	0	40	0	564133888	44	5966
2026-01-25 17:37:32.14	18.95	11.54	-35.7	-36.4	24.4	0.00e+00	0	40	0	587202560	44	5995
2026-01-25 17:37:36.18	18.79	11.91	-35.3	-36.0	24.7	0.00e+00	0	40	0	610271232	44	5739
2026-01-25 17:37:40.22	18.62	12.28	-35.2	-35.9	24.9	0.00e+00	0	40	0	633339904	44	5653
2026-01-25 17:37:44.25	18.45	12.66	-35.0	-35.7	25.1	0.00e+00	0	40	0	655360000	44	5520
2026-01-25 17:37:48.29	18.27	13.04	-35.2	-35.9	24.8	0.00e+00	0	40	0	678428672	44	5638
2026-01-25 17:37:52.33	18.09	13.43	-35.2	-35.9	25.0	0.00e+00	0	40	0	701497344	44	5643
2026-01-25 17:37:56.37	17.91	13.83	-35.1	-35.7	25.1	0.00e+00	0	40	0	723517440	42	6232
2026-01-25 17:38:00.41	17.71	14.23	-34.6	-35.3	25.6	0.00e+00	0	40	0	746586112	42	5915
2026-01-25 17:38:04.45	17.52	14.64	-34.5	-35.2	25.7	0.00e+00	0	40	0	768606208	42	5839
2026-01-25 17:38:08.49	17.31	15.05	-34.3	-35.0	25.8	0.00e+00	0	40	0	791674880	42	5703
2026-01-25 17:38:12.53	17.10	15.47	-34.1	-34.8	26.0	0.00e+00	0	41	0	814743552	42	5599
2026-01-25 17:38:16.56	16.89	15.90	-33.9	-34.5	26.2	0.00e+00	0	40	0	837812224	42	5431
2026-01-25 17:38:20.60	16.66	16.34	-33.9	-34.6	26.2	0.00e+00	0	40	0	859832320	40	6108
2026-01-25 17:38:24.64	16.43	16.78	-33.6	-34.3	26.4	0.00e+00	0	40	0	882900992	40	5908
2026-01-25 17:38:28.67	16.19	17.23	-33.7	-34.3	26.4	0.00e+00	0	41	0	905969664	40	5934
2026-01-25 17:38:32.71	15.95	17.69	-33.6	-34.2	26.6	0.00e+00	0	40	0	927989760	40	5865
2026-01-25 17:38:36.75	15.69	18.15	-33.5	-34.1	26.6	0.00e+00	0	40	0	951058432	40	5815
2026-01-25 17:38:40.79	15.43	18.63	-33.3	-33.9	26.8	0.00e+00	0	40	0	973078528	40	5690
2026-01-25 17:38:44.83	15.16	19.11	-33.2	-33.8	26.9	0.00e+00	0	40	0	996147200	40	5620
2026-01-25 17:38:48.87	14.88	19.60	-33.3	-34.0	26.8	0.00e+00	0	41	0	1019215872	40	5719
2026-01-25 17:38:52.91	14.59	20.11	-33.5	-34.1	26.6	0.00e+00	0	41	0	1042284544	40	5802
2026-01-25 17:38:56.95	14.29	20.62	-33.1	-33.7	26.9	0.00e+00	0	41	0	1064304640	40	5530
2026-01-25 17:39:00.99	13.98	21.14	-33.0	-33.6	27.1	0.00e+00	0	40	0	1087373312	40	5464
2026-01-25 17:39:05.03	13.65	21.67	-32.7	-33.3	27.4	0.00e+00	0	41	0	1110441984	38	5928
2026-01-25 17:39:09.07	13.32	22.21	-32.6	-33.2	27.5	0.00e+00	0	41	0	1132462080	38	5863
2026-01-25 17:39:13.11	12.97	22.76	-32.7	-33.4	27.3	0.00e+00	0	41	0	1155530752	38	5969
2026-01-25 17:39:17.15	12.61	23.32	-32.6	-33.3	27.4	0.00e+00	0	41	0	1177550848	38	5927
2026-01-25 17:39:21.19	12.24	23.90	-32.5	-33.1	27.6	0.00e+00	0	41	0	1200619520	38	5768
2026-01-25 17:39:25.22	11.85	24.48	-32.4	-33.0	27.7	0.00e+00	0	41	0	1223688192	38	5746
2026-01-25 17:39:29.26	11.44	25.08	-32.0	-32.6	27.9	0.00e+00	0	41	0	1246756864	38	5468
2026-01-25 17:39:33.30	11.02	25.69	-32.0	-32.6	27.9	0.00e+00	0	41	0	1268776960	38	5460
2026-01-25 17:39:37.34	10.58	26.31	-32.0	-32.5	27.9	0.00e+00	0	41	0	1291845632	38	5438
2026-01-25 17:39:41.38	10.13	26.94	-31.8	-32.5	28.0	0.00e+00	0	41	0	1314914304	36	6043
2026-01-25 17:39:45.41	9.65	27.59	-32.2	-32.8	27.9	0.00e+00	0	41	0	1336934400	36	6252
2026-01-25 17:39:49.45	9.16	28.25	-31.8	-32.4	28.1	0.00e+00	0	41	0	1360003072	36	6026
2026-01-25 17:39:53.49	8.64	28.92	-31.7	-32.2	28.3	0.00e+00	0	41	0	1382023168	36	5896
2026-01-25 17:39:57.52	8.10	29.61	-31.5	-32.2	28.3	0.00e+00	0	41	0	1405091840	36	5829
2026-01-25 17:40:01.55	7.54	30.31	-31.8	-32.4	28.0	0.00e+00	0	41	0	1428160512	36	6019
2026-01-25 17:40:05.59	6.95	31.02	-31.4	-32.0	28.3	0.00e+00	0	41	0	1450180608	36	5744
2026-01-25 17:40:09.63	6.33	31.75	-31.3	-31.9	28.4	0.00e+00	0	41	0	1473249280	36	5677
2026-01-25 17:40:13.67	5.68	32.50	-31.5	-32.1	28.3	0.00e+00	0	41	0	1496317952	36	5778
2026-01-25 17:40:17.71	5.00	33.25	-31.5	-32.1	28.3	0.00e+00	0	41	0	1518338048	36	5792
2026-01-25 17:40:21.74	4.29	34.03	-31.3	-32.0	28.5	0.00e+00	0	41	0	1541406720	36	5704
2026-01-25 17:40:25.78	3.54	34.81	-31.4	-32.0	28.5	0.00e+00	0	41	0	1564475392	36	5720
2026-01-25 17:40:29.82	2.75	35.61	-31.3	-31.9	28.4	0.00e+00	0	41	0	1586495488	36	5679
2026-01-25 17:40:33.86	1.92	36.43	-31.2	-31.9	28.5	0.00e+00	0	41	0	1609564160	36	5641
2026-01-25 17:40:37.90	1.05	37.26	-31.4	-32.1	28.4	0.00e+00	0	41	0	1632632832	36	5764
2026-01-25 17:40:41.93	0.14	38.10	-31.5	-32.1	28.4	0.00e+00	0	41	0	1654652928	36	5780
2026-01-25 17:40:45.97	359.17	38.95	-31.2	-31.8	28.6	0.00e+00	0	41	0	1677721600	36	5605
2026-01-25 17:40:50.01	358.15	39.82	-31.4	-32.0	28.3	0.00e+00	0	41	0	1700790272	36	5761
2026-01-25 17:40:54.05	357.07	40.70	-31.7	-32.2	28.3	0.00e+00	0	41	0	1722810368	36	5892
2026-01-25 17:40:58.09	355.93	41.58	-31.9	-32.5	28.1	0.00e+00	0	41	0	1745879040	36	6071
2026-01-25 17:41:02.12	354.73	42.48	-31.7	-32.3	28.2	0.00e+00	0	41	0	1768947712	36	5962
2026-01-25 17:41:06.15	353.46	43.38	-31.8	-32.4	28.1	0.00e+00	0	41	0	1790967808	36	6007
2026-01-25 17:41:10.19	352.11	44.28	-31.7	-32.3	28.2	0.00e+00	0	41	0	1814036480	36	5933
2026-01-25 17:41:14.23	350.68	45.19	-32.0	-32.6	27.9	0.00e+00	0	41	0	1837105152	36	6151
2026-01-25 17:41:18.27	349.17	46.10	-32.3	-32.9	27.8	0.00e+00	0	41	0	1859125248	36	6351
2026-01-25 17:41:22.31	347.57	47.00	-32.2	-32.8	27.8	0.00e+00	0	41	0	1882193920	36	6275
2026-01-25 17:41:26.35	345.87	47.90	-32.5	-33.1	27.5	0.00e+00	0	41	0	1905262592	36	6493
2026-01-25 17:41:30.39	344.07	48.78	-32.5	-33.2	27.5	0.00e+00	0	41	0	1927282688	36	6541
2026-01-25 17:41:34.43	342.16	49.66	-33.0	-33.6	27.1	0.00e+00	0	41	0	1950351360	38	6132
2026-01-25 17:41:38.47	340.14	50.51	-32.8	-33.4	27.4	0.00e+00	0	41	0	1973420032	38	6009
2026-01-25 17:41:42.51	338.00	51.34	-33.0	-33.6	27.1	0.00e+00	0	41	0	1995440128	38	6170
2026-01-25 17:41:46.55	335.74	52.13	-32.7	-33.4	27.4	0.00e+00	0	41	0	2018508800	38	5965
2026-01-25 17:41:50.58	333.37	52.89	-32.8	-33.4	27.4	0.00e+00	0	41	0	2041577472	38	6024
2026-01-25 17:41:54.62	330.87	53.61	-32.4	-33.0	27.6	0.00e+00	0	41	0	2063597568	38	5706
2026-01-25 17:41:58.65	328.25	54.28	-32.7	-33.4	27.4	0.00e+00	0	41	0	2086666240	38	5991
2026-01-25 17:42:02.69	325.50	54.89	-32.4	-33.0	27.6	0.00e+00	0	41	0	2109734912	38	5733
2026-01-25 17:42:06.73	322.64	55.44	-32.0	-32.6	27.9	0.00e+00	0	41	0	2131755008	38	5478
2026-01-25 17:42:10.77	319.66	55.93	-32.4	-33.1	27.6	0.00e+00	0	41	0	2154823680	36	6465
2026-01-25 17:42:14.80	316.60	56.33	-32.3	-33.0	27.7	0.00e+00	0	41	0	2176843776	38	5703
2026-01-25 17:42:18.84	313.45	56.66	-32.4	-33.1	27.6	0.00e+00	0	41	0	2199912448	38	5764
2026-01-25 17:42:22.88	310.23	56.91	-32.7	-33.4	27.4	0.00e+00	0	41	0	2222981120	38	5986
2026-01-25 17:42:26.92	306.97	57.07	-32.6	-33.3	27.3	0.00e+00	0	41	0	2246049792	38	5906
2026-01-25 17:42:30.95	303.68	57.13	-32.4	-33.0	27.5	0.00e+00	0	41	0	2268069888	38	5733
2026-01-25 17:42:34.99	300.38	57.11	-32.7	-33.3	27.2	0.00e+00	0	41	0	2291138560	38	5955
2026-01-25 17:42:39.03	297.10	57.00	-32.5	-33.1	27.4	0.00e+00	0	41	0	2314207232	38	5800
2026-01-25 17:42:43.06	293.86	56.79	-32.4	-33.0	27.6	0.00e+00	0	41	0	2336227328	38	5760
2026-01-25 17:42:47.10	290.67	56.51	-32.7	-33.4	27.2	0.00e+00	0	41	0	2359296000	38	6002
2026-01-25 17:42:51.14	287.56	56.13	-32.3	-33.0	27.6	0.00e+00	0	41	0	2381316096	38	5725
2026-01-25 17:42:55.18	284.54	55.69	-32.3	-32.9	27.7	0.00e+00	0	41	0	2404384768	38	5650
2026-01-25 17:42:59.21	281.62	55.17	-32.2	-32.7	27.7	0.00e+00	0	41	0	2427453440	38	5562
2026-01-25 17:43:03.25	278.81	54.58	-31.9	-32.5	27.9	0.00e+00	0	41	0	2449473536	38	5420
2026-01-25 17:43:07.29	276.12	53.94	-32.0	-32.7	27.7	0.00e+00	0	41	0	2472542208	36	6234
2026-01-25 17:43:11.33	273.56	53.24	-32.3	-32.9	27.6	0.00e+00	0	41	0	2495610880	36	6386
2026-01-25 17:43:15.36	271.12	52.50	-32.0	-32.6	27.8	0.00e+00	0	41	0	2518679552	36	6130
2026-01-25 17:43:19.41	268.80	51.72	-32.2	-32.8	27.7	0.00e+00	0	41	0	2540699648	36	6279
2026-01-25 17:43:23.45	266.60	50.90	-32.3	-32.8	27.6	0.00e+00	0	41	0	2563768320	36	6298
2026-01-25 17:43:27.48	264.52	50.06	-31.8	-32.5	28.0	0.00e+00	0	41	0	2585788416	36	6055
2026-01-25 17:43:31.52	262.56	49.20	-31.8	-32.4	28.1	0.00e+00	0	41	0	2608857088	36	5979
2026-01-25 17:43:35.55	260.71	48.32	-31.8	-32.4	28.0	0.00e+00	0	41	0	2631925760	36	6003
2026-01-25 17:43:39.59	258.95	47.42	-31.3	-31.8	28.4	0.00e+00	0	41	0	2653945856	36	5599
2026-01-25 17:43:43.63	257.30	46.52	-31.6	-32.1	28.2	0.00e+00	0	41	0	2677014528	36	5789
2026-01-25 17:43:47.66	255.74	45.61	-31.4	-31.9	28.3	0.00e+00	0	41	0	2700083200	36	5694
2026-01-25 17:43:51.70	254.27	44.70	-31.1	-31.6	28.2	0.00e+00	0	41	0	2722103296	36	5492
2026-01-25 17:43:55.74	252.88	43.79	-31.4	-31.9	28.3	0.00e+00	0	41	0	2745171968	36	5674
2026-01-25 17:43:59.78	251.57	42.89	-31.1	-31.7	28.3	0.00e+00	0	41	0	2768240640	36	5513
2026-01-25 17:44:03.82	250.33	41.98	-31.1	-31.7	28.5	0.00e+00	0	41	0	2790260736	36	5507
2026-01-25 17:44:07.86	249.16	41.09	-31.0	-31.5	28.5	0.00e+00	0	41	0	2813329408	36	5414
2026-01-25 17:44:11.90	248.05	40.21	-31.1	-31.6	28.5	0.00e+00	0	41	0	2836398080	36	5498
2026-01-25 17:44:15.94	247.00	39.33	-31.0	-31.6	28.6	0.00e+00	0	41	0	2858418176	36	5463
2026-01-25 17:44:19.98	246.00	38.47	-31.0	-31.7	28.6	0.00e+00	0	41	0	2881486848	36	5508
2026-01-25 17:44:24.01	245.06	37.62	-31.0	-31.6	28.5	0.00e+00	0	41	0	2904555520	36	5443
2026-01-25 17:44:28.05	244.16	36.78	-31.2	-31.7	28.4	0.00e+00	0	41	0	2926575616	36	5538
2026-01-25 17:44:32.09	243.31	35.96	-31.0	-31.7	28.5	0.00e+00	0	41	0	2949644288	36	5510
2026-01-25 17:44:36.13	242.51	35.15	-31.2	-31.7	28.5	0.00e+00	0	41	0	2972712960	36	5547
2026-01-25 17:44:40.16	241.74	34.35	-31.6	-32.1	28.1	0.00e+00	0	41	0	2994733056	36	5800
2026-01-25 17:44:44.20	241.01	33.57	-31.0	-31.7	28.5	0.00e+00	0	41	0	3017801728	36	5520
2026-01-25 17:44:48.24	240.31	32.80	-31.2	-31.8	28.4	0.00e+00	0	41	0	3040870400	36	5571
2026-01-25 17:44:52.28	239.64	32.05	-31.3	-32.0	28.2	0.00e+00	0	41	0	3062890496	36	5749
2026-01-25 17:44:56.31	239.01	31.31	-31.5	-32.2	28.1	0.00e+00	0	41	0	3085959168	36	5876
2026-01-25 17:45:00.35	238.40	30.58	-31.4	-31.9	28.3	0.00e+00	0	41	0	3109027840	36	5644
2026-01-25 17:45:04.39	237.82	29.87	-31.8	-32.5	28.0	0.00e+00	0	41	0	3131047936	36	6071
2026-01-25 17:45:08.43	237.27	29.18	-31.8	-32.3	28.0	0.00e+00	0	41	0	3154116608	36	5930
2026-01-25 17:45:12.46	236.74	28.50	-31.7	-32.3	27.8	0.00e+00	0	41	0	3177185280	36	5956
2026-01-25 17:45:16.50	236.23	27.83	-31.7	-32.2	27.8	0.00e+00	0	41	0	3199205376	36	5880
2026-01-25 17:45:20.54	235.74	27.17	-31.8	-32.5	27.8	0.00e+00	0	41	0	3222274048	36	6037
2026-01-25 17:45:24.58	235.28	26.53	-31.8	-32.5	27.7	0.00e+00	0	41	0	3245342720	36	6043
2026-01-25 17:45:28.62	234.83	25.90	-31.5	-32.1	27.9	0.00e+00	0	41	0	3267362816	36	5774
2026-01-25 17:45:32.66	234.40	25.29	-31.5	-32.0	28.0	0.00e+00	0	41	0	3290431488	36	5759
2026-01-25 17:45:36.70	233.98	24.68	-31.6	-32.1	27.8	0.00e+00	0	41	0	3313500160	36	5822
2026-01-25 17:45:40.74	233.58	24.09	-31.8	-32.5	27.6	0.00e+00	0	41	0	3335520256	36	6090
2026-01-25 17:45:44.78	233.20	23.51	-32.1	-32.6	27.4	0.00e+00	0	41	0	3358588928	36	6151
2026-01-25 17:45:48.81	232.83	22.94	-32.1	-32.6	27.5	0.00e+00	0	41	0	3381657600	36	6152
2026-01-25 17:45:52.85	232.48	22.38	-32.0	-32.6	27.4	0.00e+00	0	41	0	3403677696	36	6134
2026-01-25 17:45:56.89	232.13	21.83	-32.1	-32.7	27.4	0.00e+00	0	41	0	3426746368	36	6198
2026-01-25 17:46:00.94	231.80	21.30	-32.2	-32.9	27.3	0.00e+00	0	41	0	3449815040	36	6344
2026-01-25 17:46:04.98	231.48	20.77	-32.5	-33.0	27.2	0.00e+00	0	41	0	3471835136	36	6444
2026-01-25 17:46:09.01	231.18	20.25	-32.4	-32.9	27.3	0.00e+00	0	41	0	3494903808	36	6356
2026-01-25 17:46:13.05	230.88	19.75	-32.6	-33.2	27.1	0.00e+00	0	41	0	3517972480	36	6572
2026-01-25 17:46:17.08	230.59	19.25	-32.7	-33.3	26.9	0.00e+00	0	41	0	3539992576	38	5905
2026-01-25 17:46:21.12	230.31	18.76	-33.0	-33.5	26.7	0.00e+00	0	41	0	3563061248	38	6086
2026-01-25 17:46:25.17	230.04	18.28	-33.3	-33.8	26.5	0.00e+00	0	41	0	3586129920	38	6311
2026-01-25 17:46:29.21	229.78	17.81	-33.3	-34.0	26.4	0.00e+00	0	41	0	3608150016	38	6461
2026-01-25 17:46:33.25	229.53	17.34	-33.4	-34.1	26.4	0.00e+00	0	41	0	3631218688	38	6521
2026-01-25 17:46:37.29	229.29	16.89	-33.5	-34.0	26.3	0.00e+00	0	41	0	3654287360	38	6447
2026-01-25 17:46:41.33	229.05	16.44	-33.5	-34.0	26.4	0.00e+00	0	41	0	3676307456	38	6435
2026-01-25 17:46:45.37	228.82	16.00	-33.9	-34.5	25.9	0.00e+00	0	41	0	3699376128	40	6065
2026-01-25 17:46:49.40	228.60	15.57	-33.8	-34.5	26.0	0.00e+00	0	41	0	3722444800	40	6068
2026-01-25 17:46:53.44	228.38	15.14	-33.9	-34.7	25.8	0.00e+00	0	41	0	3744464896	40	6198
2026-01-25 17:46:57.48	228.18	14.73	-34.8	-35.4	25.2	0.00e+00	0	41	0	3767533568	42	5993
2026-01-25 17:47:01.52	227.97	14.31	-34.6	-35.2	25.3	0.00e+00	0	41	0	3790602240	42	5840
2026-01-25 17:47:05.55	227.78	13.91	-34.4	-34.9	25.5	0.00e+00	0	41	0	3812622336	42	5692
2026-01-25 17:47:09.59	227.58	13.51	-34.7	-35.4	25.2	0.00e+00	0	41	0	3835691008	42	6025
2026-01-25 17:47:13.63	227.40	13.12	-34.9	-35.5	25.0	0.00e+00	0	41	0	3858759680	42	6062
2026-01-25 17:47:17.66	227.22	12.73	-35.1	-35.7	24.9	0.00e+00	0	41	0	3880779776	42	6203
2026-01-25 17:47:21.70	227.04	12.35	-35.1	-35.9	24.7	0.00e+00	0	41	0	3903848448	42	6336
2026-01-25 17:47:25.74	226.87	11.97	-35.7	-36.5	24.2	0.00e+00	0	41	0	3926917120	44	6042
2026-01-25 17:47:29.77	226.70	11.60	-35.4	-36.0	24.4	0.00e+00	0	41	0	3948937216	44	5743
2026-01-25 17:47:33.81	226.54	11.24	-35.8	-36.4	24.1	0.00e+00	0	41	0	3972005888	44	6024
2026-01-25 17:47:37.85	226.38	10.88	-37.2	-38.0	22.9	0.00e+00	0	41	0	3994025984	46	6437
2026-01-25 17:47:41.89	226.23	10.52	-36.2	-36.9	23.6	0.00e+00	0	42	0	4017094656	46	5636
2026-01-25 17:47:45.93	226.08	10.17	-36.5	-37.4	23.3	0.00e+00	0	41	0	4040163328	46	5969
2026-01-25 17:47:49.97	225.93	9.83	-36.5	-37.2	23.3	0.00e+00	0	41	0	4063232000	46	5832
2026-01-25 17:47:54.01	225.79	9.49	-36.7	-37.5	23.1	0.00e+00	0	41	0	4085252096	46	6034
2026-01-25 17:47:58.04	225.65	9.15	-37.1	-37.8	22.7	0.00e+00	0	42	0	4108320768	46	6315
2026-01-25 17:48:02.08	225.51	8.82	-37.1	-37.9	22.6	0.00e+00	0	41	0	4131389440	46	6353
2026-01-25 17:48:06.12	225.38	8.49	-37.2	-37.9	22.5	0.00e+00	0	42	0	4153409536	46	6363
2026-01-25 17:48:10.16	225.25	8.17	-37.7	-38.5	21.9	0.00e+00	0	41	0	4176478208	46	6784
2026-01-25 17:48:14.20	225.12	7.85	-37.7	-38.5	21.5	0.00e+00	0	41	0	4198498304	46	6795
2026-01-25 17:48:18.24	225.00	7.53	-38.3	-39.2	21.0	0.00e+00	0	42	0	4221566976	48	6541
2026-01-25 17:48:22.28	224.88	7.22	-38.1	-38.9	21.2	0.00e+00	0	41	0	4244635648	48	6366
2026-01-25 17:48:26.32	224.76	6.91	-37.6	-38.5	21.6	0.00e+00	0	42	0	4267704320	50	5412
2026-01-25 17:48:30.36	224.65	6.61	-38.1	-38.9	20.9	0.00e+00	0	42	0	4289724416	48	6329
2026-01-25 17:48:34.40	224.54	6.31	-38.7	-39.5	20.3	0.00e+00	0	41	0	4312793088	50	6096
2026-01-25 17:48:38.44	224.43	6.01	-39.4	-40.5	19.3	0.00e+00	0	42	0	4335861760	50	6771
2026-01-25 17:48:42.48	224.32	5.71	-39.1	-40.2	19.3	0.00e+00	0	41	0	4357881856	50	6545
2026-01-25 17:48:46.52	224.21	5.42	-39.1	-40.1	19.5	0.00e+00	0	42	0	4380950528	50	6478
2026-01-25 17:48:50.56	224.11	5.13	-39.5	-40.6	19.2	0.00e+00	0	41	0	4404019200	52	6154
2026-01-25 17:48:54.60	224.01	4.85	-39.1	-40.2	19.5	0.00e+00	0	41	0	4426039296	52	5833
2026-01-25 17:48:58.64	223.91	4.56	-39.0	-40.0	19.4	0.00e+00	0	42	0	4449107968	52	5709
2026-01-25 17:49:02.68	223.82	4.28	-39.2	-40.4	19.0	0.00e+00	0	42	0	4472176640	52	5968
2026-01-25 17:49:06.72	223.72	4.01	-39.4	-40.5	18.3	0.00e+00	0	41	0	4494196736	52	6068
2026-01-25 17:49:10.76	223.63	3.73	-39.1	-40.2	18.3	0.00e+00	0	42	0	4517265408	52	5844
2026-01-25 17:49:14.80	223.54	3.46	-40.0	-41.2	16.7	0.00e+00	0	41	0	4539285504	52	6564
2026-01-25 17:49:18.84	223.45	3.19	-39.9	-41.2	16.8	0.00e+00	0	41	0	4562354176	52	6542
2026-01-25 17:49:22.88	223.37	2.92	-49.1	-61.1	3.6	8.46e-01	0	42	104	4579131392	60	41209
2026-01-25 17:49:26.92	223.28	2.66	-50.2	-62.4	3.6	8.45e-01	0	42	104	4579131392	60	47404
2026-01-25 17:49:30.96	223.20	2.40	-50.4	-62.4	3.6	8.46e-01	0	41	104	4579131392	60	47921
2026-01-25 17:49:35.00	223.12	2.14	-50.3	-62.5	3.6	8.45e-01	0	42	104	4579131392	60	48233
2026-01-25 17:49:39.03	223.04	1.88	-50.0	-62.4	3.6	8.46e-01	0	42	104	4579131392	60	47443
2026-01-25 17:49:43.07	222.96	1.63	-50.1	-62.4	3.6	8.45e-01	0	41	104	4579131392	60	47513
2026-01-25 17:49:47.11	222.88	1.38	-50.3	-62.3	3.6	8.45e-01	0	42	104	4579131392	60	47346
2026-01-25 17:49:51.15	222.81	1.12	-50.3	-62.4	3.6	8.45e-01	0	41	104	4579131392	60	47575
2026-01-25 17:49:55.19	222.73	0.88	-50.3	-62.4	3.6	8.46e-01	0	42	104	4579131392	60	47674
2026-01-25 17:49:59.23	222.66	0.63	-50.2	-62.4	3.6	8.45e-01	0	41	104	4579131392	60	47482
2026-01-25 17:50:03.27	222.59	0.39	-50.2	-62.3	3.6	8.46e-01	0	41	104	4579131392	60	47315
2026-01-25 17:50:07.31	222.52	0.14	-50.2	-62.4	3.6	8.45e-01	0	41	104	4579131392	60	47673
2026-01-25 17:50:11.35	222.45	-0.10	-50.2	-62.3	3.6	8.47e-01	0	41	104	4579131392	60	47272

#Closed at: 2026-01-25 17:50:11
#Recorded file [4579 MB]: D:/lorett/data/35029_260126_053454.dat