passes_logs/2026/01/25/R4.6S_Anadyr/R4.6S_Anadyr__20260125_011139_SUOMI_NPP_rec.log

#Pass ID: 20260125_011139_SUOMI NPP
#Satellite: SUOMI NPP
#Configuration: NPP
#almurnet v.1.7.20251203
#Start time: 2026-01-25 01:11:40

#Version: 2.2.20231116
#Station: R4.6S_Anadyr
#Location: 177.4865 lon 64.73178 lat
#TLE: 1 37849U 11061A   26024.54906732  .00000185  00000+0  10878-3 0  9990
#TLE: 2 37849  98.7821 326.5159 0002200  47.3746 312.7615 14.19529340738061

#Time	Az	El	Level	Level2	SNR	BER	BlckErr	Temp	State	Recorded	gain1	gain2
2026-01-25 01:11:40.26	178.98	0.07	-51.2	-63.6	3.4	1.52e+00	0	39	0	0	60	53302
2026-01-25 01:11:44.30	179.11	0.30	-50.5	-65.7	3.6	1.51e+00	0	40	104	0	60	69691
2026-01-25 01:11:48.33	179.23	0.54	-50.4	-65.5	3.6	1.51e+00	0	40	104	0	60	68291
2026-01-25 01:11:52.37	179.36	0.78	-50.1	-65.3	3.6	1.51e+00	0	41	104	0	60	66881
2026-01-25 01:11:56.41	179.49	1.03	-50.0	-65.2	3.6	1.51e+00	0	41	104	0	60	65797
2026-01-25 01:12:00.44	179.62	1.27	-49.7	-64.9	3.6	1.51e+00	0	41	104	0	60	63279
2026-01-25 01:12:04.47	179.75	1.52	-49.3	-64.4	3.6	1.51e+00	0	41	104	0	60	60046
2026-01-25 01:12:08.51	179.88	1.77	-49.2	-64.2	3.6	1.51e+00	0	41	104	0	60	58810
2026-01-25 01:12:12.54	180.02	2.02	-49.2	-64.4	3.6	1.51e+00	0	41	104	0	60	59785
2026-01-25 01:12:16.58	180.16	2.27	-49.1	-64.3	3.6	1.51e+00	0	41	104	0	60	59124
2026-01-25 01:12:20.61	180.30	2.52	-49.1	-63.5	3.6	1.51e+00	0	41	104	0	60	54135
2026-01-25 01:12:24.65	180.44	2.78	-49.1	-63.3	3.6	1.51e+00	0	41	104	0	60	52887
2026-01-25 01:12:28.68	180.59	3.04	-48.5	-56.0	6.6	7.70e-01	63	41	0	0	60	22792
2026-01-25 01:12:32.72	180.74	3.30	-45.8	-48.8	14.3	1.50e-06	0	41	0	7340032	60	9998
2026-01-25 01:12:36.76	180.89	3.57	-43.9	-45.9	17.5	0.00e+00	90	41	0	14680064	60	7128
2026-01-25 01:12:40.79	181.04	3.83	-47.3	-52.0	6.2	0.00e+00	92	41	0	23068672	60	14415
2026-01-25 01:12:44.82	181.19	4.10	-46.1	-49.1	14.4	0.00e+00	76	41	0	26214400	60	10330
2026-01-25 01:12:48.85	181.35	4.37	-46.3	-49.5	14.1	0.00e+00	0	41	0	33554432	60	10781
2026-01-25 01:12:52.89	181.51	4.65	-45.9	-48.7	14.8	0.00e+00	92	41	0	40894464	60	9852
2026-01-25 01:12:56.93	181.68	4.92	-45.4	-48.0	15.0	0.00e+00	92	41	0	49283072	60	9032
2026-01-25 01:13:00.96	181.84	5.20	-45.8	-48.6	14.9	0.00e+00	5	42	0	56623104	60	9693
2026-01-25 01:13:04.99	182.01	5.49	-44.9	-47.1	16.4	0.00e+00	0	42	0	63963136	60	8191
2026-01-25 01:13:09.02	182.18	5.77	-44.2	-46.1	17.1	0.00e+00	90	42	0	71303168	60	7318
2026-01-25 01:13:13.05	182.36	6.06	-44.2	-46.2	17.6	0.00e+00	92	42	0	78643200	60	7348
2026-01-25 01:13:17.08	182.53	6.35	-44.0	-45.8	17.8	0.00e+00	0	42	0	87031808	60	7085
2026-01-25 01:13:21.11	182.72	6.64	-44.2	-46.1	17.5	0.00e+00	82	42	0	94371840	60	7304
2026-01-25 01:13:25.14	182.90	6.94	-43.8	-45.6	18.2	0.00e+00	48	42	0	101711872	60	6881
2026-01-25 01:13:29.17	183.09	7.24	-44.0	-45.9	18.0	0.00e+00	90	42	0	109051904	60	7125
2026-01-25 01:13:33.20	183.28	7.54	-43.5	-45.2	18.5	0.00e+00	0	42	0	116391936	60	6553
2026-01-25 01:13:37.23	183.48	7.85	-42.9	-44.4	19.1	0.00e+00	92	42	0	124780544	60	6033
2026-01-25 01:13:41.27	183.68	8.16	-43.4	-45.0	18.8	0.00e+00	92	42	0	132120576	60	6438
2026-01-25 01:13:45.30	183.88	8.48	-43.4	-45.1	18.6	0.00e+00	0	42	0	139460608	60	6510
2026-01-25 01:13:49.34	184.09	8.80	-43.1	-44.7	19.2	0.00e+00	0	42	0	146800640	60	6210
2026-01-25 01:13:53.38	184.30	9.12	-42.6	-44.0	19.7	0.00e+00	92	42	0	155189248	58	6439
2026-01-25 01:13:57.42	184.52	9.44	-42.2	-43.5	20.2	0.00e+00	91	42	0	162529280	58	6042
2026-01-25 01:14:01.46	184.74	9.77	-42.0	-43.3	20.4	0.00e+00	0	42	0	169869312	56	6626
2026-01-25 01:14:05.50	184.97	10.11	-41.9	-43.2	20.4	0.00e+00	0	42	0	177209344	56	6552
2026-01-25 01:14:09.53	185.20	10.45	-42.0	-43.2	20.6	0.00e+00	83	42	0	184549376	56	6577
2026-01-25 01:14:13.56	185.44	10.79	-41.7	-42.9	20.8	0.00e+00	92	42	0	192937984	56	6375
2026-01-25 01:14:17.60	185.68	11.14	-41.6	-42.8	21.0	0.00e+00	0	42	0	200278016	56	6266
2026-01-25 01:14:21.65	185.93	11.49	-41.9	-43.2	20.7	0.00e+00	92	42	0	207618048	56	6564
2026-01-25 01:14:25.69	186.18	11.85	-41.7	-43.0	20.9	0.00e+00	92	42	0	214958080	56	6397
2026-01-25 01:14:29.73	186.44	12.21	-41.6	-42.8	21.0	0.00e+00	0	42	0	223346688	56	6259
2026-01-25 01:14:33.77	186.71	12.57	-42.2	-43.5	20.5	0.00e+00	0	42	0	230686720	56	6785
2026-01-25 01:14:37.81	186.98	12.95	-42.1	-43.4	20.6	0.00e+00	92	42	0	238026752	56	6716
2026-01-25 01:14:41.85	187.26	13.32	-42.0	-43.3	20.6	0.00e+00	92	42	0	245366784	56	6651
2026-01-25 01:14:45.89	187.54	13.70	-41.6	-42.7	21.1	0.00e+00	0	42	0	252706816	56	6237
2026-01-25 01:14:49.93	187.83	14.09	-41.4	-42.5	21.4	0.00e+00	0	42	0	261095424	56	6071
2026-01-25 01:14:53.96	188.13	14.48	-41.7	-42.9	21.1	0.00e+00	75	42	0	268435456	56	6363
2026-01-25 01:14:58.01	188.44	14.88	-41.2	-42.3	21.7	0.00e+00	92	42	0	275775488	54	6622
2026-01-25 01:15:02.04	188.75	15.29	-40.5	-41.5	22.2	0.00e+00	0	42	0	283115520	54	6052
2026-01-25 01:15:06.08	189.08	15.70	-40.3	-41.3	22.4	0.00e+00	92	42	0	291504128	54	5901
2026-01-25 01:15:10.11	189.41	16.11	-40.2	-41.2	22.5	0.00e+00	65	41	0	298844160	54	5836
2026-01-25 01:15:14.15	189.75	16.54	-40.3	-41.3	22.5	0.00e+00	91	42	0	306184192	54	5914
2026-01-25 01:15:18.19	190.10	16.97	-40.5	-41.5	22.3	0.00e+00	0	42	0	313524224	54	6103
2026-01-25 01:15:22.23	190.46	17.40	-39.9	-40.9	22.8	0.00e+00	92	42	0	320864256	54	5633
2026-01-25 01:15:26.26	190.83	17.85	-39.9	-40.8	22.9	0.00e+00	88	42	0	329252864	52	6292
2026-01-25 01:15:30.30	191.21	18.30	-40.0	-41.0	22.8	0.00e+00	0	42	0	336592896	52	6412
2026-01-25 01:15:34.34	191.60	18.75	-40.2	-41.2	22.5	0.00e+00	0	41	0	343932928	52	6598
2026-01-25 01:15:38.37	192.00	19.22	-40.3	-41.3	22.5	0.00e+00	82	41	0	351272960	52	6623
2026-01-25 01:15:42.42	192.42	19.69	-40.0	-40.9	22.8	0.00e+00	91	41	0	359661568	52	6368
2026-01-25 01:15:46.46	192.85	20.17	-40.2	-41.2	22.6	0.00e+00	0	41	0	367001600	52	6575
2026-01-25 01:15:50.50	193.29	20.66	-40.1	-41.1	22.7	0.00e+00	0	41	0	374341632	52	6510
2026-01-25 01:15:54.53	193.74	21.15	-40.0	-41.0	22.8	0.00e+00	91	41	0	381681664	52	6407
2026-01-25 01:15:58.57	194.21	21.66	-40.0	-40.9	22.9	0.00e+00	90	41	0	389021696	52	6356
2026-01-25 01:16:02.60	194.70	22.17	-40.0	-41.0	22.9	0.00e+00	0	41	0	397410304	52	6394
2026-01-25 01:16:06.63	195.20	22.69	-39.9	-40.9	22.8	0.00e+00	92	41	0	404750336	52	6335
2026-01-25 01:16:10.67	195.71	23.22	-39.7	-40.6	23.2	0.00e+00	91	41	0	412090368	52	6136
2026-01-25 01:16:14.71	196.25	23.75	-40.1	-41.0	22.8	0.00e+00	29	41	0	419430400	52	6451
2026-01-25 01:16:18.75	196.80	24.30	-40.7	-41.7	22.2	0.00e+00	0	41	0	427819008	54	6240
2026-01-25 01:16:22.79	197.37	24.86	-40.5	-41.5	22.4	0.00e+00	92	41	0	435159040	54	6083
2026-01-25 01:16:26.83	197.96	25.42	-40.6	-41.6	22.3	0.00e+00	91	41	0	442499072	54	6159
2026-01-25 01:16:30.86	198.57	25.99	-40.9	-42.0	22.0	0.00e+00	0	41	0	449839104	54	6409
2026-01-25 01:16:34.90	199.20	26.57	-40.7	-41.7	22.2	0.00e+00	78	41	0	457179136	54	6234
2026-01-25 01:16:38.94	199.86	27.16	-40.8	-41.8	22.1	0.00e+00	78	41	0	465567744	54	6288
2026-01-25 01:16:42.98	200.54	27.76	-41.5	-42.6	21.5	0.00e+00	92	41	0	472907776	54	6919
2026-01-25 01:16:47.02	201.25	28.37	-42.5	-43.8	20.5	0.00e+00	0	41	0	480247808	58	6289
2026-01-25 01:16:51.06	201.98	28.99	-42.4	-43.6	20.6	0.00e+00	78	41	0	487587840	58	6156
2026-01-25 01:16:55.09	202.74	29.62	-42.1	-43.2	21.0	0.00e+00	78	41	0	495976448	58	5892
2026-01-25 01:16:59.13	203.54	30.25	-42.3	-43.5	20.8	0.00e+00	0	41	0	503316480	58	6094
2026-01-25 01:17:03.17	204.36	30.89	-42.6	-43.9	20.1	0.00e+00	0	41	0	510656512	58	6349
2026-01-25 01:17:07.21	205.21	31.54	-43.2	-44.6	19.9	0.00e+00	91	41	0	517996544	58	6892
2026-01-25 01:17:11.25	206.10	32.20	-42.3	-43.5	20.7	0.00e+00	92	41	0	525336576	58	6089
2026-01-25 01:17:15.29	207.03	32.87	-42.2	-43.4	21.0	0.00e+00	0	41	0	533725184	56	6746
2026-01-25 01:17:19.33	207.99	33.54	-42.7	-44.1	20.4	0.00e+00	0	41	0	541065216	58	6489
2026-01-25 01:17:23.37	209.00	34.22	-41.2	-42.3	21.9	0.00e+00	92	41	0	548405248	56	5929
2026-01-25 01:17:27.41	210.04	34.90	-41.0	-42.1	22.0	0.00e+00	92	41	0	555745280	54	6495
2026-01-25 01:17:31.44	211.13	35.58	-41.7	-42.8	21.6	0.00e+00	0	41	0	564133888	56	6265
2026-01-25 01:17:35.48	212.26	36.27	-41.5	-42.7	21.8	0.00e+00	0	41	0	571473920	56	6190
2026-01-25 01:17:39.52	213.45	36.96	-41.2	-42.3	22.0	0.00e+00	83	41	0	578813952	56	5910
2026-01-25 01:17:43.56	214.68	37.65	-40.5	-41.5	22.7	0.00e+00	90	41	0	586153984	54	6053
2026-01-25 01:17:47.59	215.97	38.34	-40.2	-41.1	22.9	0.00e+00	0	41	0	593494016	52	6527
2026-01-25 01:17:51.63	217.31	39.03	-40.3	-41.3	22.9	0.00e+00	92	41	0	601882624	54	5937
2026-01-25 01:17:55.67	218.70	39.71	-40.5	-41.5	22.6	0.00e+00	87	41	0	609222656	54	6057
2026-01-25 01:17:59.71	220.16	40.39	-41.9	-43.1	21.3	0.00e+00	0	41	0	616562688	56	6529
2026-01-25 01:18:03.76	221.68	41.06	-40.7	-41.6	22.6	0.00e+00	0	41	0	623902720	54	6166
2026-01-25 01:18:07.80	223.26	41.72	-42.1	-43.2	21.3	0.00e+00	92	41	0	632291328	56	6615
2026-01-25 01:18:11.84	224.91	42.37	-40.4	-41.4	22.7	0.00e+00	92	41	0	639631360	52	6719
2026-01-25 01:18:15.88	226.62	43.00	-41.5	-42.6	21.8	0.00e+00	0	41	0	646971392	54	6884
2026-01-25 01:18:19.92	228.39	43.61	-41.4	-42.5	22.0	0.00e+00	81	41	0	654311424	56	6076
2026-01-25 01:18:23.96	230.24	44.20	-41.6	-42.8	21.8	0.00e+00	89	41	0	661651456	56	6247
2026-01-25 01:18:28.00	232.15	44.76	-41.1	-42.1	22.4	0.00e+00	92	41	0	670040064	56	5820
2026-01-25 01:18:32.04	234.12	45.29	-41.8	-42.9	21.8	0.00e+00	0	41	0	677380096	56	6334
2026-01-25 01:18:36.08	236.17	45.80	-43.8	-45.4	19.6	0.00e+00	92	41	0	684720128	58	7520
2026-01-25 01:18:40.11	238.27	46.27	-45.1	-46.9	18.2	0.00e+00	70	41	0	692060160	60	8018
2026-01-25 01:18:44.13	240.42	46.70	-43.7	-45.1	19.7	0.00e+00	0	41	0	700448768	60	6500
2026-01-25 01:18:48.17	242.64	47.09	-44.9	-46.6	18.4	0.00e+00	0	41	0	707788800	60	7760
2026-01-25 01:18:52.21	244.92	47.44	-45.0	-46.8	18.2	0.00e+00	92	41	0	715128832	60	7889
2026-01-25 01:18:56.24	247.23	47.74	-45.4	-47.3	17.8	0.00e+00	92	41	0	722468864	60	8421
2026-01-25 01:19:00.28	249.59	47.99	-44.4	-46.0	19.0	0.00e+00	0	41	0	729808896	60	7195
2026-01-25 01:19:04.32	251.99	48.19	-43.8	-45.3	19.6	0.00e+00	0	41	0	738197504	60	6640
2026-01-25 01:19:08.35	254.41	48.34	-43.9	-45.4	19.8	0.00e+00	92	41	0	745537536	60	6741
2026-01-25 01:19:12.39	256.85	48.43	-43.4	-44.8	20.2	0.00e+00	92	41	0	752877568	60	6255
2026-01-25 01:19:16.43	259.30	48.47	-43.1	-44.4	20.3	0.00e+00	0	41	0	760217600	60	5984
2026-01-25 01:19:20.47	261.76	48.45	-43.5	-44.9	20.0	0.00e+00	81	42	0	767557632	60	6388
2026-01-25 01:19:24.51	264.20	48.38	-43.3	-44.7	20.3	0.00e+00	78	41	0	775946240	58	6936
2026-01-25 01:19:28.55	266.63	48.26	-44.1	-45.6	19.6	0.00e+00	8	41	0	783286272	60	6891
2026-01-25 01:19:32.59	269.04	48.07	-43.3	-44.6	20.3	0.00e+00	0	41	0	790626304	58	6925
2026-01-25 01:19:36.64	271.42	47.84	-43.5	-44.9	20.2	0.00e+00	90	41	0	797966336	60	6339
2026-01-25 01:19:40.67	273.75	47.56	-43.4	-44.8	20.1	0.00e+00	80	41	0	806354944	60	6303
2026-01-25 01:19:44.71	276.04	47.23	-42.7	-43.8	20.7	0.00e+00	0	41	0	813694976	58	6316
2026-01-25 01:19:48.74	278.27	46.86	-41.6	-42.7	21.9	0.00e+00	0	41	0	821035008	54	6940
2026-01-25 01:19:52.78	280.46	46.44	-42.1	-43.2	21.7	0.00e+00	92	41	0	828375040	58	5867
2026-01-25 01:19:56.81	282.58	45.99	-42.6	-43.8	21.1	0.00e+00	92	41	0	835715072	58	6275
2026-01-25 01:20:00.85	284.64	45.50	-45.6	-47.7	17.9	0.00e+00	0	41	0	844103680	60	8737
2026-01-25 01:20:04.89	286.64	44.98	-41.4	-42.5	21.6	0.00e+00	82	42	0	851443712	56	6040
2026-01-25 01:20:08.93	288.57	44.43	-39.8	-40.7	23.4	0.00e+00	80	41	0	858783744	52	6238
2026-01-25 01:20:12.97	290.43	43.85	-39.7	-40.6	23.6	0.00e+00	92	41	0	866123776	52	6121
2026-01-25 01:20:17.01	292.23	43.25	-39.7	-40.6	23.6	0.00e+00	0	41	0	874512384	52	6143
2026-01-25 01:20:21.05	293.96	42.63	-40.2	-41.1	23.1	0.00e+00	84	41	0	881852416	52	6519
2026-01-25 01:20:25.09	295.63	41.99	-38.4	-39.1	24.6	0.00e+00	57	41	0	889192448	50	5816
2026-01-25 01:20:29.13	297.23	41.34	-40.4	-41.3	23.1	0.00e+00	0	41	0	896532480	54	5944
2026-01-25 01:20:33.17	298.77	40.68	-42.1	-43.2	21.5	0.00e+00	0	42	0	903872512	56	6607
2026-01-25 01:20:37.21	300.25	40.01	-42.1	-43.2	21.4	0.00e+00	76	41	0	912261120	56	6574
2026-01-25 01:20:41.25	301.66	39.33	-43.8	-45.2	19.8	0.00e+00	89	41	0	919601152	60	6601
2026-01-25 01:20:45.28	303.02	38.65	-43.2	-44.5	20.3	0.00e+00	0	41	0	926941184	58	6797
2026-01-25 01:20:49.32	304.32	37.96	-42.6	-43.8	20.9	0.00e+00	0	42	0	934281216	58	6308
2026-01-25 01:20:53.36	305.57	37.27	-46.5	-49.0	16.2	0.00e+00	72	42	0	942669824	60	10178
2026-01-25 01:20:57.39	306.77	36.59	-42.8	-44.0	20.8	0.00e+00	0	42	0	950009856	58	6429
2026-01-25 01:21:01.43	307.92	35.90	-46.3	-48.7	16.4	0.00e+00	0	42	0	957349888	60	9859
2026-01-25 01:21:05.47	309.03	35.22	-41.9	-43.0	21.7	0.00e+00	92	42	0	964689920	58	5712
2026-01-25 01:21:09.51	310.09	34.54	-43.5	-44.9	20.1	0.00e+00	64	41	0	972029952	58	7135
2026-01-25 01:21:13.55	311.11	33.86	-40.7	-41.6	23.0	0.00e+00	0	42	0	980418560	54	6164
2026-01-25 01:21:17.58	312.08	33.19	-43.4	-44.8	20.3	0.00e+00	33	42	0	987758592	58	7013
2026-01-25 01:21:21.62	313.02	32.53	-42.0	-43.1	21.6	0.00e+00	92	42	0	995098624	56	6533
2026-01-25 01:21:25.66	313.92	31.87	-42.7	-43.9	20.8	0.00e+00	92	42	0	1002438656	58	6382
2026-01-25 01:21:29.69	314.79	31.22	-42.0	-43.1	21.5	0.00e+00	0	41	0	1010827264	58	5822
2026-01-25 01:21:33.73	315.62	30.58	-42.3	-43.4	21.4	0.00e+00	0	42	0	1018167296	56	6755
2026-01-25 01:21:37.77	316.43	29.95	-41.6	-42.7	21.9	0.00e+00	49	42	0	1025507328	56	6233
2026-01-25 01:21:41.81	317.20	29.32	-41.1	-42.2	22.2	0.00e+00	29	42	0	1032847360	56	5834
2026-01-25 01:21:45.85	317.94	28.70	-43.9	-45.4	19.5	0.00e+00	0	42	0	1040187392	60	6720
2026-01-25 01:21:49.89	318.66	28.09	-42.8	-44.0	20.7	0.00e+00	78	42	0	1048576000	60	5741
2026-01-25 01:21:53.93	319.35	27.49	-41.8	-42.9	21.8	0.00e+00	90	42	0	1055916032	56	6360
2026-01-25 01:21:57.97	320.02	26.90	-41.9	-43.0	21.7	0.00e+00	0	42	0	1063256064	56	6402
2026-01-25 01:22:02.01	320.66	26.32	-40.3	-41.2	23.0	0.00e+00	0	42	0	1070596096	54	5843
2026-01-25 01:22:06.05	321.28	25.75	-40.8	-41.8	22.6	0.00e+00	63	42	0	1078984704	54	6317
2026-01-25 01:22:10.08	321.88	25.18	-42.5	-43.7	20.9	0.00e+00	69	42	0	1086324736	56	6959
2026-01-25 01:22:14.12	322.46	24.63	-42.9	-44.2	20.5	0.00e+00	0	42	0	1093664768	58	6546
2026-01-25 01:22:18.16	323.02	24.08	-43.4	-44.9	19.9	0.00e+00	0	42	0	1101004800	58	7111
2026-01-25 01:22:22.20	323.56	23.54	-43.4	-44.9	19.9	0.00e+00	71	42	0	1108344832	58	7123
2026-01-25 01:22:26.23	324.08	23.01	-42.7	-44.1	20.5	0.00e+00	0	42	0	1116733440	58	6481
2026-01-25 01:22:30.27	324.59	22.49	-44.4	-46.1	18.7	0.00e+00	33	42	0	1124073472	60	7274
2026-01-25 01:22:34.30	325.08	21.98	-44.1	-45.7	18.8	0.00e+00	0	42	0	1131413504	60	7001
2026-01-25 01:22:38.34	325.56	21.48	-41.7	-42.9	21.7	0.00e+00	78	42	0	1138753536	58	5636
2026-01-25 01:22:42.38	326.02	20.98	-39.8	-40.7	23.3	0.00e+00	0	42	0	1147142144	52	6204
2026-01-25 01:22:46.42	326.46	20.49	-40.4	-41.4	22.7	0.00e+00	0	42	0	1154482176	52	6739
2026-01-25 01:22:50.44	326.90	20.01	-42.1	-43.3	21.1	0.00e+00	92	42	0	1161822208	56	6669
2026-01-25 01:22:54.48	327.32	19.54	-43.2	-44.6	20.1	0.00e+00	91	42	0	1169162240	58	6916
2026-01-25 01:22:58.52	327.73	19.08	-42.9	-44.2	20.3	0.00e+00	0	42	0	1176502272	58	6584
2026-01-25 01:23:02.55	328.12	18.62	-42.5	-43.7	20.7	0.00e+00	0	42	0	1184890880	58	6240
2026-01-25 01:23:06.59	328.51	18.17	-42.0	-43.1	21.3	0.00e+00	69	42	0	1192230912	58	5816
2026-01-25 01:23:10.63	328.89	17.72	-42.4	-43.6	20.9	0.00e+00	73	42	0	1199570944	58	6152
2026-01-25 01:23:14.66	329.25	17.29	-43.1	-44.5	20.2	0.00e+00	0	42	0	1206910976	58	6777
2026-01-25 01:23:18.70	329.61	16.86	-43.4	-44.9	19.7	0.00e+00	0	42	0	1214251008	58	7153
2026-01-25 01:23:22.74	329.95	16.43	-43.6	-45.1	19.6	0.00e+00	80	42	0	1222639616	60	6465
2026-01-25 01:23:26.78	330.29	16.02	-42.8	-44.1	20.5	0.00e+00	0	42	0	1229979648	60	5790
2026-01-25 01:23:30.82	330.62	15.60	-42.2	-43.3	20.9	0.00e+00	0	42	0	1237319680	58	5964
2026-01-25 01:23:34.86	330.94	15.20	-42.0	-43.2	21.5	0.00e+00	71	42	0	1244659712	56	6576
2026-01-25 01:23:38.89	331.25	14.80	-41.7	-42.9	21.4	0.00e+00	0	42	0	1253048320	56	6344
2026-01-25 01:23:42.93	331.56	14.41	-41.9	-43.1	21.2	0.00e+00	0	42	0	1260388352	56	6490
2026-01-25 01:23:46.95	331.85	14.02	-42.4	-43.6	20.7	0.00e+00	0	42	0	1267728384	56	6907
2026-01-25 01:23:50.99	332.14	13.64	-42.4	-43.7	20.7	0.00e+00	56	42	0	1275068416	56	6983
2026-01-25 01:23:55.02	332.42	13.26	-42.0	-43.3	21.0	0.00e+00	0	42	0	1282408448	56	6630
2026-01-25 01:23:59.05	332.70	12.89	-42.1	-43.4	21.0	0.00e+00	0	42	0	1290797056	56	6694
2026-01-25 01:24:03.09	332.97	12.52	-41.8	-42.9	21.2	0.00e+00	0	42	0	1298137088	56	6364
2026-01-25 01:24:07.13	333.23	12.16	-42.3	-43.6	20.6	0.00e+00	45	42	0	1305477120	56	6868
2026-01-25 01:24:11.17	333.49	11.81	-42.7	-44.0	20.3	0.00e+00	0	42	0	1312817152	58	6447
2026-01-25 01:24:15.21	333.75	11.45	-43.2	-44.6	19.7	0.00e+00	0	42	0	1320157184	58	6905
2026-01-25 01:24:19.25	333.99	11.11	-43.6	-45.2	19.2	0.00e+00	28	42	0	1328545792	60	6566
2026-01-25 01:24:23.29	334.23	10.76	-43.7	-45.3	19.1	0.00e+00	0	42	0	1335885824	60	6675
2026-01-25 01:24:27.33	334.47	10.42	-43.7	-45.3	19.1	0.00e+00	0	42	0	1343225856	60	6674
2026-01-25 01:24:31.37	334.70	10.09	-43.6	-45.1	19.3	0.00e+00	0	42	0	1350565888	60	6526
2026-01-25 01:24:35.41	334.93	9.76	-43.5	-45.0	19.3	0.00e+00	69	42	0	1358954496	60	6415
2026-01-25 01:24:39.45	335.15	9.43	-43.4	-45.0	19.2	0.00e+00	0	42	0	1366294528	60	6399
2026-01-25 01:24:43.49	335.37	9.11	-43.8	-45.4	18.7	0.00e+00	0	42	0	1373634560	60	6736
2026-01-25 01:24:47.53	335.58	8.79	-43.3	-44.8	19.4	0.00e+00	0	42	0	1380974592	60	6262
2026-01-25 01:24:51.57	335.79	8.47	-43.2	-44.7	19.5	0.00e+00	60	42	0	1388314624	60	6174
2026-01-25 01:24:55.60	336.00	8.16	-42.8	-44.2	19.8	0.00e+00	0	42	0	1396703232	60	5890
2026-01-25 01:24:59.64	336.20	7.86	-43.3	-44.8	19.4	0.00e+00	0	42	0	1404043264	60	6301
2026-01-25 01:25:03.68	336.39	7.55	-43.3	-44.8	19.3	0.00e+00	0	42	0	1411383296	60	6268
2026-01-25 01:25:07.72	336.59	7.25	-43.3	-44.8	19.2	0.00e+00	82	42	0	1418723328	60	6291
2026-01-25 01:25:11.76	336.78	6.95	-43.6	-45.3	18.5	0.00e+00	0	42	0	1427111936	60	6637
2026-01-25 01:25:15.80	336.96	6.66	-43.7	-45.4	18.6	0.00e+00	0	42	0	1434451968	60	6751
2026-01-25 01:25:19.84	337.15	6.37	-43.8	-45.5	18.5	0.00e+00	66	42	0	1441792000	60	6837
2026-01-25 01:25:23.88	337.33	6.08	-44.1	-45.9	18.1	0.00e+00	0	42	0	1449132032	60	7147
2026-01-25 01:25:27.91	337.50	5.79	-44.6	-46.7	17.0	0.00e+00	0	42	0	1456472064	60	7808
2026-01-25 01:25:31.95	337.68	5.51	-45.3	-47.7	16.3	0.00e+00	0	42	0	1464860672	60	8765
2026-01-25 01:25:35.99	337.85	5.23	-45.7	-48.6	14.8	1.50e-06	80	42	0	1472200704	60	9748
2026-01-25 01:25:40.03	338.02	4.95	-46.9	-51.6	10.9	1.28e-03	0	42	0	1479540736	60	13705
2026-01-25 01:25:44.07	338.18	4.68	-47.7	-55.6	5.8	6.77e-02	0	42	0	1486880768	60	21728
2026-01-25 01:25:48.11	338.35	4.41	-47.1	-54.3	6.5	1.41e-01	0	42	0	1495269376	60	18652
2026-01-25 01:25:52.15	338.51	4.14	-46.9	-56.8	4.0	9.86e-01	64	42	0	1502609408	60	25091
2026-01-25 01:25:56.19	338.66	3.87	-46.8	-60.9	3.6	1.51e+00	0	42	104	1502609408	60	40079
2026-01-25 01:26:00.23	338.82	3.61	-46.9	-61.8	3.6	1.51e+00	0	42	104	1502609408	60	44338
2026-01-25 01:26:04.27	338.97	3.34	-46.8	-61.8	3.6	1.51e+00	0	42	104	1502609408	60	44429
2026-01-25 01:26:08.30	339.12	3.09	-46.9	-62.0	3.6	1.51e+00	0	42	104	1502609408	60	45678
2026-01-25 01:26:12.34	339.27	2.83	-50.4	-65.6	3.6	1.51e+00	0	42	104	1502609408	60	68609
2026-01-25 01:26:16.38	339.41	2.57	-50.9	-66.1	3.6	1.51e+00	0	42	104	1502609408	60	72970
2026-01-25 01:26:20.42	339.56	2.32	-51.1	-66.3	3.6	1.51e+00	0	42	104	1502609408	60	74516
2026-01-25 01:26:24.46	339.70	2.07	-51.1	-66.3	3.6	1.51e+00	0	42	104	1502609408	60	74566
2026-01-25 01:26:28.49	339.84	1.82	-51.0	-66.3	3.6	1.51e+00	0	42	104	1502609408	60	74287
2026-01-25 01:26:32.53	339.98	1.58	-51.0	-66.2	3.6	1.51e+00	0	42	104	1502609408	60	74173
2026-01-25 01:26:36.57	340.11	1.33	-51.2	-66.4	3.6	1.51e+00	0	42	104	1502609408	60	75149
2026-01-25 01:26:40.61	340.24	1.09	-51.2	-66.4	3.6	1.51e+00	0	42	104	1502609408	60	75313
2026-01-25 01:26:44.65	340.38	0.85	-51.2	-66.4	3.6	1.51e+00	0	42	104	1502609408	60	75254
2026-01-25 01:26:48.68	340.51	0.61	-51.3	-66.5	3.5	1.51e+00	0	42	104	1502609408	60	76421
2026-01-25 01:26:52.73	340.63	0.37	-51.2	-66.3	3.6	1.51e+00	0	42	104	1502609408	60	75036
2026-01-25 01:26:56.76	340.76	0.14	-51.3	-66.4	3.6	1.51e+00	0	42	104	1502609408	60	75889

#Closed at: 2026-01-25 01:26:59
#Recorded file [1502 MB]: D:/lorett/data/35029_260125_131140.dat