passes_logs/2026/01/25/R4.6S_Anadyr/R4.6S_Anadyr__20260125_013234_NOAA_20_JPSS-1_rec.log

#Pass ID: 20260125_013234_NOAA 20 (JPSS-1)
#Satellite: NOAA 20 (JPSS-1)
#Configuration: NOAA 20
#almurnet v.1.7.20251203
#Start time: 2026-01-25 01:32:37

#Version: 2.2.20231116
#Station: R4.6S_Anadyr
#Location: 177.4865 lon 64.73178 lat
#TLE: 1 43013U 17073A   26024.42258823  .00000183  00000+0  10747-3 0  9990
#TLE: 2 43013  98.7646 325.2629 0001105  25.8644 334.2587 14.19539754424075

#Time	Az	El	Level	Level2	SNR	BER	BlckErr	Temp	State	Recorded	gain1	gain2
2026-01-25 01:32:37.48	190.07	0.18	-51.0	-64.7	3.3	1.54e+00	0	39	0	0	60	62280
2026-01-25 01:32:41.52	190.24	0.41	-50.5	-65.7	3.6	1.51e+00	0	40	104	0	60	70065
2026-01-25 01:32:45.56	190.42	0.64	-50.3	-65.6	3.6	1.51e+00	0	40	104	0	60	68972
2026-01-25 01:32:49.59	190.60	0.88	-50.3	-65.5	3.6	1.51e+00	0	40	104	0	60	67992
2026-01-25 01:32:53.63	190.78	1.11	-49.9	-65.1	3.6	1.51e+00	0	40	104	0	60	64992
2026-01-25 01:32:57.68	190.97	1.35	-49.4	-64.5	3.6	1.51e+00	0	40	104	0	60	60772
2026-01-25 01:33:01.71	191.16	1.59	-49.3	-64.5	3.6	1.51e+00	0	40	104	0	60	60349
2026-01-25 01:33:05.75	191.35	1.83	-49.3	-64.4	3.6	1.51e+00	0	40	104	0	60	60251
2026-01-25 01:33:09.79	191.55	2.07	-49.3	-64.4	3.6	1.51e+00	0	40	104	0	60	60201
2026-01-25 01:33:13.83	191.74	2.32	-49.3	-64.3	3.6	1.51e+00	0	40	104	0	60	59611
2026-01-25 01:33:17.87	191.95	2.56	-49.2	-63.6	3.6	1.51e+00	0	40	104	0	60	54485
2026-01-25 01:33:21.91	192.15	2.81	-49.3	-63.2	3.6	1.51e+00	0	40	104	0	60	52255
2026-01-25 01:33:25.94	192.36	3.06	-47.6	-52.3	10.6	1.25e-02	90	41	0	5242880	60	14920
2026-01-25 01:33:29.97	192.57	3.31	-46.2	-49.4	13.9	3.80e-06	2	41	0	12582912	60	10704
2026-01-25 01:33:34.01	192.78	3.57	-47.8	-52.7	10.5	1.17e-03	92	40	0	19922944	60	15594
2026-01-25 01:33:38.05	193.00	3.83	-45.5	-48.0	15.8	0.00e+00	92	41	0	22020096	60	9078
2026-01-25 01:33:42.08	193.22	4.08	-46.3	-49.2	14.8	0.00e+00	91	41	0	29360128	60	10386
2026-01-25 01:33:46.11	193.44	4.34	-45.9	-48.6	15.3	0.00e+00	0	41	0	37748736	60	9751
2026-01-25 01:33:50.14	193.67	4.61	-46.6	-49.8	14.2	1.75e-05	91	41	0	45088768	60	11155
2026-01-25 01:33:54.18	193.91	4.87	-45.3	-47.6	16.4	0.00e+00	92	41	0	52428800	60	8668
2026-01-25 01:33:58.21	194.14	5.14	-45.4	-47.8	16.0	0.00e+00	45	41	0	59768832	60	8868
2026-01-25 01:34:02.25	194.38	5.41	-44.3	-46.2	17.6	0.00e+00	0	41	0	68157440	60	7413
2026-01-25 01:34:06.29	194.63	5.68	-44.9	-47.0	16.9	0.00e+00	90	41	0	75497472	60	8109
2026-01-25 01:34:10.33	194.88	5.96	-44.3	-46.2	17.8	0.00e+00	92	41	0	82837504	60	7345
2026-01-25 01:34:14.37	195.13	6.23	-44.2	-46.1	17.9	0.00e+00	16	41	0	90177536	60	7286
2026-01-25 01:34:18.41	195.39	6.51	-44.1	-45.9	18.0	0.00e+00	92	41	0	97517568	60	7168
2026-01-25 01:34:22.45	195.65	6.79	-44.3	-46.2	17.7	0.00e+00	92	41	0	105906176	60	7357
2026-01-25 01:34:26.48	195.92	7.08	-44.2	-46.1	17.8	0.00e+00	92	41	0	113246208	60	7290
2026-01-25 01:34:30.52	196.19	7.37	-44.1	-45.9	18.2	0.00e+00	0	41	0	120586240	60	7137
2026-01-25 01:34:34.56	196.47	7.66	-44.1	-45.9	18.3	0.00e+00	93	41	0	127926272	60	7091
2026-01-25 01:34:38.60	196.75	7.95	-43.9	-45.6	18.5	0.00e+00	91	41	0	136314880	60	6913
2026-01-25 01:34:42.64	197.04	8.25	-43.7	-45.3	18.8	0.00e+00	90	41	0	143654912	60	6688
2026-01-25 01:34:46.68	197.34	8.54	-43.7	-45.3	19.0	0.00e+00	0	41	0	150994944	60	6624
2026-01-25 01:34:50.72	197.64	8.85	-43.3	-44.8	19.4	0.00e+00	92	41	0	158334976	60	6295
2026-01-25 01:34:54.76	197.95	9.15	-43.5	-45.1	19.2	0.00e+00	92	41	0	165675008	60	6470
2026-01-25 01:34:58.80	198.26	9.46	-43.3	-44.8	19.3	0.00e+00	92	41	0	174063616	60	6297
2026-01-25 01:35:02.83	198.58	9.77	-43.2	-44.7	19.6	0.00e+00	72	41	0	181403648	60	6205
2026-01-25 01:35:06.87	198.90	10.08	-42.5	-43.9	20.4	0.00e+00	92	41	0	188743680	58	6318
2026-01-25 01:35:10.90	199.23	10.40	-42.6	-43.9	20.4	0.00e+00	92	41	0	196083712	58	6340
2026-01-25 01:35:14.94	199.57	10.72	-42.6	-43.9	20.4	0.00e+00	31	41	0	204472320	58	6378
2026-01-25 01:35:18.97	199.92	11.05	-42.3	-43.6	20.6	0.00e+00	0	41	0	211812352	58	6138
2026-01-25 01:35:23.00	200.27	11.37	-41.9	-43.1	21.1	0.00e+00	92	41	0	219152384	58	5806
2026-01-25 01:35:27.04	200.63	11.70	-42.2	-43.5	20.8	0.00e+00	91	41	0	226492416	58	6052
2026-01-25 01:35:31.08	201.00	12.04	-41.8	-43.0	21.3	0.00e+00	3	41	0	233832448	56	6409
2026-01-25 01:35:35.12	201.38	12.38	-41.9	-43.0	21.3	0.00e+00	0	41	0	242221056	56	6442
2026-01-25 01:35:39.15	201.77	12.72	-41.8	-42.9	21.4	0.00e+00	92	41	0	249561088	56	6369
2026-01-25 01:35:43.19	202.16	13.06	-41.6	-42.7	21.6	0.00e+00	92	41	0	256901120	56	6234
2026-01-25 01:35:47.23	202.57	13.41	-41.8	-42.9	21.5	0.00e+00	0	41	0	264241152	56	6373
2026-01-25 01:35:51.26	202.98	13.76	-41.3	-42.4	21.9	0.00e+00	89	41	0	271581184	56	6013
2026-01-25 01:35:55.30	203.40	14.12	-41.1	-42.2	22.1	0.00e+00	92	41	0	279969792	56	5840
2026-01-25 01:35:59.33	203.83	14.48	-41.2	-42.3	22.0	0.00e+00	92	41	0	287309824	56	5921
2026-01-25 01:36:03.37	204.27	14.85	-41.1	-42.2	22.1	0.00e+00	0	41	0	294649856	56	5847
2026-01-25 01:36:07.40	204.73	15.21	-41.0	-42.0	22.3	0.00e+00	92	41	0	301989888	56	5741
2026-01-25 01:36:11.43	205.19	15.58	-41.0	-42.1	22.2	0.00e+00	92	41	0	309329920	56	5800
2026-01-25 01:36:15.46	205.66	15.96	-41.3	-42.3	22.1	0.00e+00	92	41	0	317718528	56	5962
2026-01-25 01:36:19.49	206.15	16.34	-41.4	-42.5	21.9	0.00e+00	0	41	0	325058560	56	6057
2026-01-25 01:36:23.53	206.65	16.72	-41.5	-42.6	21.9	0.00e+00	90	41	0	332398592	56	6108
2026-01-25 01:36:27.57	207.16	17.11	-41.4	-42.5	22.0	0.00e+00	92	41	0	339738624	56	6078
2026-01-25 01:36:31.60	207.69	17.50	-41.6	-42.7	21.8	0.00e+00	90	41	0	348127232	56	6189
2026-01-25 01:36:35.64	208.22	17.90	-41.8	-42.9	21.6	0.00e+00	0	41	0	355467264	56	6345
2026-01-25 01:36:39.67	208.77	18.30	-42.0	-43.1	21.4	0.00e+00	90	41	0	362807296	56	6506
2026-01-25 01:36:43.70	209.34	18.70	-42.2	-43.4	21.1	0.00e+00	92	41	0	370147328	56	6763
2026-01-25 01:36:47.66	209.91	19.10	-42.4	-43.6	20.9	0.00e+00	90	42	0	377487360	56	6920
2026-01-25 01:36:51.69	210.50	19.52	-42.3	-43.5	21.1	0.00e+00	6	41	0	385875968	56	6805
2026-01-25 01:36:55.73	211.12	19.93	-42.4	-43.6	21.0	0.00e+00	92	41	0	393216000	56	6916
2026-01-25 01:36:59.76	211.74	20.35	-42.2	-43.4	21.2	0.00e+00	92	41	0	400556032	56	6744
2026-01-25 01:37:03.76	212.38	20.77	-42.1	-43.4	21.2	0.00e+00	92	42	0	407896064	56	6693
2026-01-25 01:37:07.80	213.04	21.20	-42.2	-43.4	21.2	0.00e+00	0	42	0	415236096	56	6718
2026-01-25 01:37:11.83	213.72	21.63	-42.6	-43.9	20.7	0.00e+00	92	42	0	423624704	56	7095
2026-01-25 01:37:15.86	214.42	22.06	-42.0	-43.2	21.4	0.00e+00	90	41	0	430964736	56	6546
2026-01-25 01:37:19.89	215.14	22.49	-41.7	-42.8	21.8	0.00e+00	92	41	0	438304768	56	6296
2026-01-25 01:37:23.93	215.88	22.93	-41.9	-43.0	21.6	0.00e+00	67	41	0	445644800	56	6421
2026-01-25 01:37:27.97	216.63	23.38	-41.3	-42.4	22.1	0.00e+00	92	41	0	454033408	56	5996
2026-01-25 01:37:31.99	217.41	23.82	-41.4	-42.5	22.1	0.00e+00	89	42	0	461373440	56	6043
2026-01-25 01:37:36.03	218.21	24.26	-41.0	-42.0	22.6	0.00e+00	91	42	0	468713472	56	5731
2026-01-25 01:37:40.06	219.04	24.71	-40.6	-41.6	22.8	0.00e+00	0	42	0	476053504	54	6117
2026-01-25 01:37:44.09	219.88	25.16	-40.3	-41.3	23.1	0.00e+00	92	42	0	483393536	54	5932
2026-01-25 01:37:48.13	220.75	25.61	-40.3	-41.3	23.2	0.00e+00	91	42	0	491782144	54	5906
2026-01-25 01:37:52.16	221.65	26.06	-40.1	-41.0	23.4	0.00e+00	92	42	0	499122176	54	5730
2026-01-25 01:37:56.20	222.57	26.51	-40.5	-41.5	22.9	0.00e+00	0	42	0	506462208	54	6092
2026-01-25 01:38:00.24	223.51	26.96	-40.7	-41.7	22.8	0.00e+00	90	42	0	513802240	54	6209
2026-01-25 01:38:04.27	224.49	27.41	-40.8	-41.8	22.7	0.00e+00	92	42	0	521142272	54	6296
2026-01-25 01:38:08.31	225.49	27.86	-41.0	-42.0	22.5	0.00e+00	60	42	0	529530880	54	6443
2026-01-25 01:38:12.35	226.51	28.31	-41.6	-42.7	22.0	0.00e+00	92	42	0	536870912	54	6962
2026-01-25 01:38:16.38	227.57	28.75	-42.4	-43.6	21.2	0.00e+00	91	42	0	544210944	56	6849
2026-01-25 01:38:20.42	228.65	29.19	-42.3	-43.4	21.5	0.00e+00	92	42	0	551550976	56	6745
2026-01-25 01:38:24.46	229.77	29.62	-43.3	-44.6	20.3	0.00e+00	12	42	0	558891008	58	6923
2026-01-25 01:38:28.49	230.91	30.05	-44.3	-45.9	19.0	0.00e+00	92	42	0	567279616	60	7132
2026-01-25 01:38:32.53	232.08	30.48	-45.9	-48.0	17.0	0.00e+00	92	42	0	574619648	60	9068
2026-01-25 01:38:36.56	233.29	30.89	-46.5	-48.8	16.2	0.00e+00	92	42	0	581959680	60	9966
2026-01-25 01:38:40.60	234.52	31.30	-46.2	-48.4	16.7	0.00e+00	0	42	0	589299712	60	9486
2026-01-25 01:38:44.63	235.78	31.70	-45.8	-47.9	17.2	0.00e+00	91	42	0	597688320	60	8939
2026-01-25 01:38:48.67	237.08	32.09	-45.3	-47.1	17.9	0.00e+00	92	42	0	605028352	60	8203
2026-01-25 01:38:52.70	238.40	32.47	-44.8	-46.5	18.5	0.00e+00	90	42	0	612368384	60	7665
2026-01-25 01:38:56.73	239.76	32.83	-43.6	-45.0	20.0	0.00e+00	64	42	0	619708416	60	6450
2026-01-25 01:39:00.76	241.14	33.18	-43.8	-45.3	19.8	0.00e+00	92	42	0	627048448	60	6629
2026-01-25 01:39:04.80	242.55	33.52	-42.8	-44.0	20.9	0.00e+00	92	42	0	635437056	60	5752
2026-01-25 01:39:08.84	244.00	33.84	-42.6	-43.8	21.1	0.00e+00	92	42	0	642777088	58	6296
2026-01-25 01:39:12.87	245.46	34.14	-41.8	-42.9	21.9	0.00e+00	0	42	0	650117120	58	5672
2026-01-25 01:39:16.90	246.96	34.43	-42.4	-43.6	21.4	0.00e+00	92	42	0	657457152	56	6853
2026-01-25 01:39:20.93	248.47	34.69	-43.0	-44.3	20.6	0.00e+00	92	42	0	665845760	58	6646
2026-01-25 01:39:24.97	250.02	34.94	-43.3	-44.6	20.3	0.00e+00	92	42	0	673185792	58	6920
2026-01-25 01:39:29.01	251.59	35.16	-43.6	-44.9	20.1	0.00e+00	0	42	0	680525824	58	7144
2026-01-25 01:39:33.04	253.17	35.37	-42.8	-44.0	20.9	0.00e+00	92	42	0	687865856	58	6423
2026-01-25 01:39:37.07	254.77	35.54	-42.2	-43.4	21.6	0.00e+00	92	42	0	695205888	58	5974
2026-01-25 01:39:41.11	256.40	35.70	-41.7	-42.8	22.2	0.00e+00	92	42	0	703594496	56	6250
2026-01-25 01:39:45.15	258.03	35.83	-42.9	-44.2	20.6	0.00e+00	2	42	0	710934528	58	6572
2026-01-25 01:39:49.18	259.68	35.94	-43.5	-44.9	20.3	0.00e+00	92	42	0	718274560	60	6325
2026-01-25 01:39:53.22	261.33	36.01	-44.4	-45.9	19.2	0.00e+00	92	42	0	725614592	60	7165
2026-01-25 01:39:57.26	262.99	36.07	-44.1	-45.6	19.5	0.00e+00	0	42	0	734003200	60	6903
2026-01-25 01:40:01.30	264.66	36.09	-44.0	-45.5	19.6	0.00e+00	0	42	0	741343232	60	6779
2026-01-25 01:40:05.33	266.33	36.09	-43.8	-45.2	20.0	0.00e+00	92	42	0	748683264	60	6549
2026-01-25 01:40:09.38	268.00	36.07	-43.0	-44.2	20.8	0.00e+00	92	42	0	756023296	60	5874
2026-01-25 01:40:13.41	269.65	36.01	-43.3	-44.6	20.4	0.00e+00	0	42	0	763363328	60	6132
2026-01-25 01:40:17.45	271.31	35.93	-42.6	-43.8	21.2	0.00e+00	89	42	0	771751936	58	6247
2026-01-25 01:40:21.48	272.95	35.83	-43.3	-44.7	20.4	0.00e+00	92	42	0	779091968	58	6928
2026-01-25 01:40:25.52	274.58	35.70	-43.1	-44.3	20.7	0.00e+00	92	42	0	786432000	58	6662
2026-01-25 01:40:29.56	276.20	35.54	-44.2	-45.7	19.4	0.00e+00	70	42	0	793772032	60	6981
2026-01-25 01:40:33.60	277.81	35.36	-45.3	-47.1	18.2	0.00e+00	92	42	0	801112064	60	8180
2026-01-25 01:40:37.64	279.39	35.16	-43.7	-45.0	20.1	0.00e+00	92	42	0	809500672	60	6447
2026-01-25 01:40:41.67	280.95	34.93	-43.9	-45.3	19.8	0.00e+00	90	42	0	816840704	60	6640
2026-01-25 01:40:45.71	282.49	34.69	-44.1	-45.6	19.6	0.00e+00	13	42	0	824180736	60	6870
2026-01-25 01:40:49.74	284.01	34.42	-42.9	-44.1	21.1	0.00e+00	90	42	0	831520768	60	5775
2026-01-25 01:40:53.77	285.50	34.14	-43.6	-45.0	20.2	0.00e+00	92	42	0	839909376	58	7208
2026-01-25 01:40:57.81	286.96	33.83	-42.5	-43.6	21.4	0.00e+00	16	42	0	847249408	58	6153
2026-01-25 01:41:01.83	288.39	33.52	-42.7	-43.8	21.0	0.00e+00	0	42	0	854589440	58	6309
2026-01-25 01:41:05.87	289.81	33.18	-43.4	-44.8	20.3	0.00e+00	90	42	0	861929472	58	7013
2026-01-25 01:41:09.91	291.19	32.83	-43.0	-44.3	20.9	0.00e+00	92	42	0	869269504	58	6626
2026-01-25 01:41:13.95	292.54	32.47	-42.3	-43.4	21.7	0.00e+00	16	42	0	877658112	58	6013
2026-01-25 01:41:17.98	293.86	32.09	-43.2	-44.5	20.6	0.00e+00	0	42	0	884998144	58	6788
2026-01-25 01:41:22.01	295.14	31.70	-43.1	-44.4	20.6	0.00e+00	92	42	0	892338176	58	6698
2026-01-25 01:41:26.03	296.40	31.31	-44.3	-45.8	19.4	0.00e+00	92	42	0	899678208	60	7065
2026-01-25 01:41:30.07	297.63	30.90	-43.1	-44.3	20.6	0.00e+00	8	42	0	907018240	58	6674
2026-01-25 01:41:34.11	298.83	30.49	-42.6	-43.7	21.3	0.00e+00	2	42	0	915406848	58	6225
2026-01-25 01:41:38.15	300.00	30.07	-43.5	-44.9	20.2	0.00e+00	92	42	0	922746880	58	7113
2026-01-25 01:41:42.19	301.14	29.64	-42.5	-43.6	21.4	0.00e+00	95	42	0	930086912	58	6155
2026-01-25 01:41:46.23	302.25	29.21	-44.8	-46.5	18.8	0.00e+00	0	42	0	937426944	60	7632
2026-01-25 01:41:50.26	303.33	28.77	-42.5	-43.7	21.4	0.00e+00	92	42	0	945815552	58	6174
2026-01-25 01:41:54.30	304.38	28.33	-43.6	-45.0	20.3	0.00e+00	92	42	0	953155584	60	6442
2026-01-25 01:41:58.34	305.41	27.89	-42.7	-43.9	21.1	0.00e+00	92	42	0	960495616	58	6320
2026-01-25 01:42:02.38	306.40	27.44	-43.5	-44.9	20.3	0.00e+00	0	42	0	967835648	60	6350
2026-01-25 01:42:06.41	307.37	26.99	-42.9	-44.1	20.8	0.00e+00	91	42	0	975175680	58	6505
2026-01-25 01:42:10.45	308.31	26.55	-43.1	-44.4	20.8	0.00e+00	92	42	0	983564288	60	6021
2026-01-25 01:42:14.49	309.23	26.10	-41.6	-42.6	22.3	0.00e+00	16	42	0	990904320	56	6164
2026-01-25 01:42:18.52	310.12	25.65	-42.2	-43.4	21.7	0.00e+00	15	42	0	998244352	58	5980
2026-01-25 01:42:22.56	310.99	25.20	-41.4	-42.4	22.4	0.00e+00	92	42	0	1005584384	56	5981
2026-01-25 01:42:26.60	311.84	24.76	-41.8	-42.9	22.1	0.00e+00	90	42	0	1012924416	56	6358
2026-01-25 01:42:30.64	312.66	24.31	-40.5	-41.4	23.3	0.00e+00	6	42	0	1021313024	54	6021
2026-01-25 01:42:34.68	313.46	23.87	-40.9	-41.8	22.9	0.00e+00	4	42	0	1028653056	54	6315
2026-01-25 01:42:38.72	314.23	23.43	-39.8	-40.7	23.9	0.00e+00	91	42	0	1035993088	54	5524
2026-01-25 01:42:42.76	314.99	22.99	-40.1	-41.0	23.7	0.00e+00	21	42	0	1043333120	52	6415
2026-01-25 01:42:46.80	315.73	22.55	-39.9	-40.8	23.8	0.00e+00	0	42	0	1051721728	52	6249
2026-01-25 01:42:50.84	316.44	22.12	-39.5	-40.3	24.2	0.00e+00	0	42	0	1059061760	52	5924
2026-01-25 01:42:54.88	317.14	21.69	-39.8	-40.7	23.8	0.00e+00	92	42	0	1066401792	52	6220
2026-01-25 01:42:58.92	317.82	21.26	-39.6	-40.5	24.2	0.00e+00	3	42	0	1073741824	52	6046
2026-01-25 01:43:02.96	318.48	20.84	-39.5	-40.3	24.2	0.00e+00	13	42	0	1081081856	52	5949
2026-01-25 01:43:06.99	319.12	20.42	-40.2	-41.1	23.5	0.00e+00	0	42	0	1089470464	52	6512
2026-01-25 01:43:11.03	319.75	20.00	-40.2	-41.2	23.4	0.00e+00	91	42	0	1096810496	52	6547
2026-01-25 01:43:15.06	320.36	19.59	-40.2	-41.1	23.5	0.00e+00	0	42	0	1104150528	52	6509
2026-01-25 01:43:19.10	320.95	19.18	-40.3	-41.3	23.3	0.00e+00	0	42	0	1111490560	52	6628
2026-01-25 01:43:23.14	321.53	18.77	-40.4	-41.4	23.1	0.00e+00	92	42	0	1119879168	52	6715
2026-01-25 01:43:27.18	322.10	18.37	-40.6	-41.5	23.0	0.00e+00	92	42	0	1127219200	54	6097
2026-01-25 01:43:31.21	322.65	17.97	-40.6	-41.6	23.0	0.00e+00	0	41	0	1134559232	54	6132
2026-01-25 01:43:35.25	323.18	17.58	-40.8	-41.8	22.6	0.00e+00	2	41	0	1141899264	54	6290
2026-01-25 01:43:39.29	323.71	17.19	-41.5	-42.6	22.0	0.00e+00	92	41	0	1149239296	54	6867
2026-01-25 01:43:43.32	324.22	16.81	-42.3	-43.5	21.2	0.00e+00	92	41	0	1157627904	56	6808
2026-01-25 01:43:47.36	324.72	16.43	-41.5	-42.5	22.1	0.00e+00	0	42	0	1164967936	56	6090
2026-01-25 01:43:51.40	325.20	16.05	-41.4	-42.4	22.1	0.00e+00	0	41	0	1172307968	56	6031
2026-01-25 01:43:55.44	325.68	15.67	-42.0	-43.1	21.6	0.00e+00	92	41	0	1179648000	56	6499
2026-01-25 01:43:59.48	326.14	15.30	-42.1	-43.3	21.3	0.00e+00	92	41	0	1188036608	56	6672
2026-01-25 01:44:03.52	326.60	14.94	-41.7	-42.8	21.7	0.00e+00	76	41	0	1195376640	56	6308
2026-01-25 01:44:07.56	327.04	14.58	-41.2	-42.3	22.2	0.00e+00	80	41	0	1202716672	56	5910
2026-01-25 01:44:11.59	327.47	14.22	-41.9	-43.1	21.5	0.00e+00	91	41	0	1210056704	56	6471
2026-01-25 01:44:15.62	327.89	13.87	-42.4	-43.7	20.9	0.00e+00	7	41	0	1217396736	56	6941
2026-01-25 01:44:19.66	328.31	13.52	-41.9	-43.1	21.5	0.00e+00	6	41	0	1225785344	56	6471
2026-01-25 01:44:23.70	328.71	13.17	-41.2	-42.3	22.0	0.00e+00	5	41	0	1233125376	56	5920
2026-01-25 01:44:27.74	329.11	12.83	-41.2	-42.2	22.2	0.00e+00	92	41	0	1240465408	56	5879
2026-01-25 01:44:31.78	329.49	12.49	-41.3	-42.4	21.9	0.00e+00	69	41	0	1247805440	54	6708
2026-01-25 01:44:35.81	329.87	12.15	-41.6	-42.7	21.6	0.00e+00	2	41	0	1256194048	54	7005
2026-01-25 01:44:39.85	330.24	11.82	-41.5	-42.6	21.7	0.00e+00	0	41	0	1263534080	54	6901
2026-01-25 01:44:43.89	330.60	11.49	-41.6	-42.7	21.6	0.00e+00	90	41	0	1270874112	56	6188
2026-01-25 01:44:47.92	330.96	11.17	-41.7	-42.8	21.5	0.00e+00	73	41	0	1278214144	56	6317
2026-01-25 01:44:51.96	331.30	10.84	-41.5	-42.6	21.7	0.00e+00	0	41	0	1285554176	56	6148
2026-01-25 01:44:56.00	331.64	10.53	-41.7	-42.9	21.4	0.00e+00	0	41	0	1293942784	56	6353
2026-01-25 01:45:00.03	331.98	10.21	-42.0	-43.3	21.0	0.00e+00	92	41	0	1301282816	56	6621
2026-01-25 01:45:04.06	332.30	9.90	-42.3	-43.6	20.8	0.00e+00	0	41	0	1308622848	56	6887
2026-01-25 01:45:08.10	332.62	9.59	-42.1	-43.4	20.9	0.00e+00	10	41	0	1315962880	56	6707
2026-01-25 01:45:12.14	332.94	9.28	-41.8	-42.9	21.2	0.00e+00	12	41	0	1324351488	56	6381
2026-01-25 01:45:16.18	333.25	8.98	-42.1	-43.3	20.9	0.00e+00	8	41	0	1331691520	56	6691
2026-01-25 01:45:20.22	333.55	8.68	-42.2	-43.5	20.7	0.00e+00	0	41	0	1339031552	56	6774
2026-01-25 01:45:24.26	333.85	8.38	-42.1	-43.3	20.8	0.00e+00	0	41	0	1346371584	56	6659
2026-01-25 01:45:28.29	334.14	8.09	-42.7	-44.0	20.2	0.00e+00	90	41	0	1353711616	56	7218
2026-01-25 01:45:32.33	334.42	7.80	-42.9	-44.3	19.8	0.00e+00	7	41	0	1362100224	58	6636
2026-01-25 01:45:36.37	334.70	7.51	-43.1	-44.5	19.5	0.00e+00	0	41	0	1369440256	58	6808
2026-01-25 01:45:40.40	334.98	7.23	-43.0	-44.5	19.6	0.00e+00	0	41	0	1376780288	58	6795
2026-01-25 01:45:44.44	335.25	6.94	-43.5	-45.0	18.8	0.00e+00	90	41	0	1384120320	58	7240
2026-01-25 01:45:48.47	335.51	6.66	-43.0	-44.5	19.6	0.00e+00	8	41	0	1392508928	60	6042
2026-01-25 01:45:52.51	335.77	6.39	-44.3	-46.1	17.9	0.00e+00	5	41	0	1399848960	60	7311
2026-01-25 01:45:56.55	336.03	6.11	-43.3	-45.0	18.8	0.00e+00	7	41	0	1407188992	60	6397
2026-01-25 01:46:00.58	336.28	5.84	-44.1	-46.1	17.3	0.00e+00	90	42	0	1414529024	60	7284
2026-01-25 01:46:04.62	336.53	5.57	-45.0	-47.6	15.3	0.00e+00	0	42	0	1421869056	60	8713
2026-01-25 01:46:08.66	336.77	5.30	-45.3	-48.7	13.7	1.29e-05	0	42	0	1430257664	60	9787
2026-01-25 01:46:12.69	337.01	5.03	-46.0	-51.1	10.0	4.07e-03	6	42	0	1437597696	60	12987
2026-01-25 01:46:16.73	337.25	4.77	-46.4	-53.2	7.2	1.04e-01	90	42	0	1444937728	60	16523
2026-01-25 01:46:20.77	337.48	4.51	-46.5	-55.0	5.2	1.40e-01	82	42	0	1452277760	60	20304
2026-01-25 01:46:24.80	337.71	4.25	-46.5	-56.8	3.8	1.06e+00	0	42	0	1459617792	60	24957
2026-01-25 01:46:28.83	337.93	3.99	-46.5	-59.6	3.7	1.51e+00	0	41	104	1459617792	60	34556
2026-01-25 01:46:32.87	338.15	3.74	-46.4	-61.2	3.6	1.51e+00	0	41	104	1459617792	60	41627
2026-01-25 01:46:36.90	338.37	3.49	-46.3	-61.3	3.6	1.51e+00	0	42	104	1459617792	60	42139
2026-01-25 01:46:40.93	338.58	3.24	-46.3	-61.4	3.6	1.51e+00	0	42	104	1459617792	60	42441
2026-01-25 01:46:44.97	338.79	2.99	-46.8	-61.9	3.6	1.51e+00	0	42	104	1459617792	60	45018
2026-01-25 01:46:49.00	339.00	2.74	-50.6	-65.7	3.6	1.51e+00	0	42	104	1459617792	60	69945
2026-01-25 01:46:53.03	339.20	2.50	-50.9	-66.1	3.6	1.51e+00	0	42	104	1459617792	60	73164
2026-01-25 01:46:57.07	339.40	2.25	-51.0	-66.2	3.6	1.51e+00	0	42	104	1459617792	60	73863
2026-01-25 01:47:01.10	339.60	2.01	-51.0	-66.2	3.6	1.51e+00	0	42	104	1459617792	60	73712
2026-01-25 01:47:05.14	339.80	1.77	-50.9	-66.2	3.6	1.51e+00	0	42	104	1459617792	60	73718
2026-01-25 01:47:09.17	339.99	1.54	-51.0	-66.2	3.6	1.51e+00	0	42	104	1459617792	60	73607
2026-01-25 01:47:13.21	340.18	1.30	-51.0	-66.2	3.6	1.51e+00	0	42	104	1459617792	60	73752
2026-01-25 01:47:17.24	340.37	1.07	-51.1	-66.2	3.6	1.51e+00	0	42	104	1459617792	60	74065
2026-01-25 01:47:21.28	340.55	0.83	-51.1	-66.3	3.6	1.51e+00	0	42	104	1459617792	60	74379
2026-01-25 01:47:25.32	340.73	0.60	-51.1	-66.3	3.6	1.51e+00	0	42	104	1459617792	60	74447
2026-01-25 01:47:29.35	340.91	0.37	-51.1	-66.3	3.6	1.51e+00	0	42	104	1459617792	60	74796
2026-01-25 01:47:33.39	341.09	0.15	-51.1	-66.2	3.6	1.51e+00	0	42	104	1459617792	60	74103

#Closed at: 2026-01-25 01:47:36
#Recorded file [1459 MB]: D:/lorett/data/35029_260125_133237.dat