passes_logs/2026/01/20/R4.6S_Anadyr/R4.6S_Anadyr__20260120_194948_SUOMI_NPP_rec.log

#Pass ID: 20260120_194948_SUOMI NPP
#Satellite: SUOMI NPP
#Configuration: NPP
#almurnet v.1.7.20251203
#Start time: 2026-01-20 19:49:52

#Version: 2.2.20231116
#Station: R4.6S_Anadyr
#Location: 177.4865 lon 64.73178 lat
#TLE: 1 37849U 11061A   26019.89702167  .00000121  00000+0  78274-4 0  9993
#TLE: 2 37849  98.7817 321.9035 0002338  55.0397 305.0998 14.19526700737401

#Time	Az	El	Level	Level2	SNR	BER	BlckErr	Temp	State	Recorded	gain1	gain2
2026-01-20 19:49:52.29	57.98	0.16	-52.1	-65.9	3.3	1.54e+00	0	41	0	0	60	71290
2026-01-20 19:49:55.31	57.75	0.31	-51.9	-67.2	3.6	1.51e+00	0	41	104	0	60	82691
2026-01-20 19:49:58.34	57.51	0.46	-51.6	-66.9	3.6	1.51e+00	0	41	104	0	60	79567
2026-01-20 19:50:01.37	57.28	0.60	-51.4	-66.7	3.6	1.51e+00	0	41	104	0	60	78253
2026-01-20 19:50:04.40	57.04	0.75	-51.4	-66.7	3.6	1.51e+00	0	41	104	0	60	77821
2026-01-20 19:50:07.43	56.80	0.90	-51.2	-66.4	3.6	1.51e+00	0	41	104	0	60	75735
2026-01-20 19:50:10.46	56.56	1.05	-50.9	-66.1	3.6	1.51e+00	0	41	104	0	60	73158
2026-01-20 19:50:13.49	56.31	1.20	-50.1	-65.3	3.6	1.51e+00	0	41	104	0	60	66486
2026-01-20 19:50:16.52	56.06	1.35	-49.4	-64.6	3.6	1.51e+00	0	42	104	0	60	61309
2026-01-20 19:50:19.55	55.81	1.50	-49.4	-64.6	3.6	1.51e+00	0	42	104	0	60	61419
2026-01-20 19:50:22.58	55.56	1.65	-49.4	-64.5	3.6	1.51e+00	0	41	104	0	60	60701
2026-01-20 19:50:25.61	55.30	1.80	-49.4	-64.6	3.6	1.51e+00	0	42	104	0	60	61374
2026-01-20 19:50:28.64	55.05	1.95	-49.4	-64.6	3.6	1.51e+00	0	42	104	0	60	61194
2026-01-20 19:50:31.67	54.78	2.10	-49.4	-64.3	3.6	1.51e+00	0	42	104	0	60	59613
2026-01-20 19:50:34.70	54.52	2.25	-49.4	-64.5	3.6	1.51e+00	0	42	104	0	60	60566
2026-01-20 19:50:37.72	54.25	2.40	-49.4	-64.5	3.6	1.51e+00	0	42	104	0	60	60582
2026-01-20 19:50:40.75	53.98	2.55	-49.4	-64.6	3.6	1.51e+00	0	42	104	0	60	61526
2026-01-20 19:50:43.78	53.71	2.70	-49.3	-63.4	3.6	1.51e+00	0	42	104	0	60	53308
2026-01-20 19:50:46.81	53.44	2.85	-49.3	-62.9	3.6	1.51e+00	0	42	104	0	60	50278
2026-01-20 19:50:49.85	53.16	3.01	-48.4	-54.6	8.2	1.59e-01	66	42	0	3145728	60	19382
2026-01-20 19:50:52.87	52.88	3.16	-49.4	-64.2	3.6	8.19e-03	0	42	104	8388608	60	58670
2026-01-20 19:50:55.90	52.59	3.31	-46.8	-50.3	13.3	1.05e-04	0	42	0	10485760	60	11826
2026-01-20 19:50:58.93	52.30	3.46	-46.2	-49.1	14.9	7.00e-07	70	42	0	15728640	60	10280
2026-01-20 19:51:01.96	52.01	3.62	-46.0	-48.8	15.1	0.00e+00	67	42	0	22020096	60	9981
2026-01-20 19:51:04.99	51.72	3.77	-45.4	-47.7	16.0	0.00e+00	0	42	0	27262976	60	8795
2026-01-20 19:51:08.02	51.42	3.92	-45.4	-47.8	16.4	0.00e+00	92	42	0	33554432	60	8831
2026-01-20 19:51:11.05	51.12	4.07	-44.4	-46.3	17.9	0.00e+00	60	42	0	38797312	60	7467
2026-01-20 19:51:14.08	50.82	4.23	-46.0	-48.7	15.2	0.00e+00	0	42	0	45088768	60	9844
2026-01-20 19:51:17.11	50.51	4.38	-45.6	-48.0	16.2	0.00e+00	31	42	0	50331648	60	9125
2026-01-20 19:51:20.13	50.20	4.53	-44.9	-47.0	17.1	0.00e+00	92	42	0	55574528	60	8052
2026-01-20 19:51:23.16	49.89	4.69	-44.7	-46.7	17.5	0.00e+00	0	42	0	61865984	60	7843
2026-01-20 19:51:26.20	49.57	4.84	-45.1	-47.3	16.9	0.00e+00	0	42	0	67108864	60	8376
2026-01-20 19:51:29.23	49.25	4.99	-44.7	-46.7	17.6	0.00e+00	92	42	0	73400320	60	7804
2026-01-20 19:51:32.26	48.93	5.15	-44.8	-46.8	17.3	0.00e+00	91	42	0	78643200	60	7917
2026-01-20 19:51:35.29	48.60	5.30	-44.6	-46.5	17.6	0.00e+00	0	42	0	83886080	60	7677
2026-01-20 19:51:38.32	48.27	5.45	-45.1	-47.1	17.3	0.00e+00	92	42	0	90177536	60	8186
2026-01-20 19:51:41.35	47.94	5.61	-44.6	-46.5	18.0	0.00e+00	25	42	0	95420416	60	7617
2026-01-20 19:51:44.38	47.60	5.76	-43.6	-45.2	19.2	0.00e+00	0	42	0	101711872	60	6546
2026-01-20 19:51:47.41	47.26	5.92	-43.7	-45.3	19.1	0.00e+00	0	42	0	106954752	60	6649
2026-01-20 19:51:50.44	46.91	6.07	-43.6	-45.1	19.2	0.00e+00	92	42	0	113246208	60	6504
2026-01-20 19:51:53.47	46.56	6.22	-43.5	-45.0	19.3	0.00e+00	0	42	0	118489088	60	6426
2026-01-20 19:51:56.50	46.21	6.38	-43.7	-45.3	18.9	0.00e+00	0	42	0	123731968	60	6617
2026-01-20 19:51:59.54	45.85	6.53	-43.8	-45.4	18.9	0.00e+00	89	42	0	130023424	60	6760
2026-01-20 19:52:02.57	45.49	6.68	-43.5	-45.0	19.2	0.00e+00	90	42	0	135266304	60	6459
2026-01-20 19:52:05.60	45.12	6.83	-44.1	-45.8	18.6	0.00e+00	0	42	0	141557760	60	7018
2026-01-20 19:52:08.63	44.76	6.99	-44.6	-46.4	18.2	0.00e+00	32	42	0	146800640	60	7520
2026-01-20 19:52:11.66	44.38	7.14	-44.5	-46.2	18.3	0.00e+00	62	42	0	153092096	60	7421
2026-01-20 19:52:14.69	44.01	7.29	-44.5	-46.3	18.3	0.00e+00	0	42	0	158334976	60	7467
2026-01-20 19:52:17.72	43.63	7.44	-44.1	-45.8	18.8	0.00e+00	0	42	0	163577856	60	7068
2026-01-20 19:52:20.75	43.24	7.59	-43.9	-45.5	19.0	0.00e+00	68	42	0	169869312	60	6819
2026-01-20 19:52:23.78	42.85	7.75	-43.2	-44.7	19.8	0.00e+00	23	42	0	175112192	60	6200
2026-01-20 19:52:26.81	42.46	7.90	-43.5	-45.0	19.4	0.00e+00	0	42	0	181403648	60	6427
2026-01-20 19:52:29.84	42.06	8.05	-43.3	-44.8	19.6	0.00e+00	71	42	0	186646528	60	6247
2026-01-20 19:52:32.86	41.66	8.20	-44.2	-45.8	18.7	0.00e+00	46	42	0	191889408	60	7053
2026-01-20 19:52:35.89	41.26	8.35	-44.7	-46.5	17.9	0.00e+00	0	42	0	198180864	60	7666
2026-01-20 19:52:38.92	40.85	8.49	-44.0	-45.6	18.9	0.00e+00	0	42	0	203423744	60	6925
2026-01-20 19:52:41.95	40.43	8.64	-43.9	-45.5	19.1	0.00e+00	44	42	0	209715200	60	6803
2026-01-20 19:52:44.98	40.01	8.79	-43.8	-45.5	19.1	0.00e+00	0	42	0	214958080	60	6779
2026-01-20 19:52:48.00	39.59	8.94	-43.5	-45.0	19.4	0.00e+00	0	42	0	221249536	60	6449
2026-01-20 19:52:51.03	39.17	9.08	-43.5	-45.0	19.6	0.00e+00	83	42	0	226492416	60	6432
2026-01-20 19:52:54.06	38.74	9.23	-43.0	-44.4	20.2	0.00e+00	41	42	0	231735296	60	5979
2026-01-20 19:52:57.09	38.30	9.38	-42.8	-44.2	20.1	0.00e+00	0	42	0	238026752	58	6595
2026-01-20 19:53:00.12	37.86	9.52	-42.5	-43.8	20.6	0.00e+00	78	42	0	243269632	58	6302
2026-01-20 19:53:03.16	37.41	9.66	-42.8	-44.1	20.2	0.00e+00	91	42	0	249561088	58	6507
2026-01-20 19:53:06.18	36.97	9.81	-42.1	-43.3	21.1	0.00e+00	0	42	0	254803968	58	5951
2026-01-20 19:53:09.21	36.51	9.95	-41.7	-42.9	21.5	0.00e+00	0	42	0	260046848	56	6346
2026-01-20 19:53:12.25	36.05	10.09	-41.8	-43.0	21.5	0.00e+00	92	42	0	266338304	56	6409
2026-01-20 19:53:15.28	35.59	10.23	-42.1	-43.4	21.0	0.00e+00	0	42	0	271581184	56	6697
2026-01-20 19:53:18.31	35.12	10.37	-42.1	-43.4	21.0	0.00e+00	0	42	0	277872640	56	6708
2026-01-20 19:53:21.33	34.65	10.50	-42.0	-43.2	21.1	0.00e+00	0	42	0	283115520	56	6592
2026-01-20 19:53:24.36	34.18	10.64	-41.4	-42.5	21.9	0.00e+00	71	42	0	289406976	56	6043
2026-01-20 19:53:27.39	33.69	10.78	-41.6	-42.7	21.6	0.00e+00	0	42	0	294649856	56	6213
2026-01-20 19:53:30.43	33.21	10.91	-41.1	-42.2	22.2	0.00e+00	0	42	0	299892736	56	5846
2026-01-20 19:53:33.45	32.72	11.04	-40.7	-41.7	22.4	0.00e+00	92	42	0	306184192	54	6210
2026-01-20 19:53:36.48	32.23	11.18	-41.4	-42.5	21.9	0.00e+00	0	42	0	311427072	54	6791
2026-01-20 19:53:39.51	31.73	11.31	-40.9	-41.9	22.1	0.00e+00	0	42	0	317718528	54	6387
2026-01-20 19:53:42.54	31.22	11.43	-41.0	-42.0	22.3	0.00e+00	19	42	0	322961408	54	6424
2026-01-20 19:53:45.57	30.72	11.56	-40.4	-41.3	22.8	0.00e+00	63	42	0	328204288	54	5948
2026-01-20 19:53:48.60	30.20	11.69	-40.3	-41.3	22.9	0.00e+00	0	42	0	334495744	54	5904
2026-01-20 19:53:51.62	29.69	11.81	-40.9	-42.0	22.3	0.00e+00	0	42	0	339738624	54	6429
2026-01-20 19:53:54.65	29.17	11.93	-41.7	-42.8	21.5	0.00e+00	91	42	0	346030080	56	6282
2026-01-20 19:53:57.68	28.64	12.05	-41.6	-42.7	21.9	0.00e+00	0	42	0	351272960	56	6200
2026-01-20 19:54:00.71	28.11	12.17	-41.4	-42.5	22.0	0.00e+00	0	42	0	357564416	56	6048
2026-01-20 19:54:03.74	27.58	12.29	-41.4	-42.5	21.9	0.00e+00	79	42	0	362807296	56	6090
2026-01-20 19:54:06.77	27.04	12.40	-41.8	-42.9	21.6	0.00e+00	0	42	0	368050176	56	6379
2026-01-20 19:54:09.79	26.50	12.52	-41.6	-42.7	21.7	0.00e+00	0	42	0	374341632	56	6217
2026-01-20 19:54:12.82	25.95	12.63	-41.4	-42.5	22.0	0.00e+00	0	42	0	379584512	56	6068
2026-01-20 19:54:15.85	25.40	12.74	-41.0	-42.0	22.4	0.00e+00	0	42	0	385875968	56	5704
2026-01-20 19:54:18.87	24.85	12.84	-41.1	-42.1	22.2	0.00e+00	0	42	0	391118848	56	5820
2026-01-20 19:54:21.90	24.29	12.95	-41.7	-42.8	21.7	0.00e+00	0	42	0	396361728	56	6280
2026-01-20 19:54:24.94	23.73	13.05	-41.1	-42.1	22.3	0.00e+00	66	42	0	402653184	56	5796
2026-01-20 19:54:27.97	23.16	13.15	-41.0	-42.0	22.3	0.00e+00	0	42	0	407896064	54	6448
2026-01-20 19:54:31.00	22.59	13.25	-41.7	-42.8	21.6	0.00e+00	0	42	0	414187520	54	7084
2026-01-20 19:54:34.02	22.02	13.34	-41.9	-43.0	21.4	0.00e+00	48	42	0	419430400	56	6456
2026-01-20 19:54:37.05	21.44	13.43	-41.1	-42.2	22.1	0.00e+00	0	42	0	425721856	56	5834
2026-01-20 19:54:40.08	20.86	13.52	-40.3	-41.3	22.8	0.00e+00	0	42	0	430964736	54	5921
2026-01-20 19:54:43.11	20.27	13.61	-40.3	-41.2	22.8	0.00e+00	0	42	0	436207616	54	5890
2026-01-20 19:54:46.14	19.68	13.70	-40.6	-41.6	22.6	0.00e+00	68	42	0	442499072	54	6107
2026-01-20 19:54:49.16	19.09	13.78	-40.2	-41.2	22.9	0.00e+00	0	42	0	447741952	54	5846
2026-01-20 19:54:52.19	18.50	13.86	-40.2	-41.2	22.9	0.00e+00	0	42	0	454033408	54	5829
2026-01-20 19:54:55.22	17.90	13.93	-40.5	-41.4	22.8	0.00e+00	84	42	0	459276288	54	6029
2026-01-20 19:54:58.25	17.30	14.01	-41.2	-42.2	22.0	0.00e+00	0	42	0	464519168	54	6596
2026-01-20 19:55:01.28	16.69	14.08	-41.1	-42.2	22.2	0.00e+00	0	42	0	470810624	54	6546
2026-01-20 19:55:04.31	16.08	14.14	-41.4	-42.5	21.6	0.00e+00	1	42	0	476053504	54	6805
2026-01-20 19:55:07.33	15.47	14.21	-41.6	-42.7	21.8	0.00e+00	0	42	0	482344960	54	6965
2026-01-20 19:55:10.36	14.86	14.27	-41.4	-42.5	21.8	0.00e+00	0	42	0	487587840	54	6803
2026-01-20 19:55:13.39	14.25	14.33	-41.5	-42.6	21.9	0.00e+00	0	42	0	492830720	54	6863
2026-01-20 19:55:16.42	13.63	14.38	-40.7	-41.7	22.6	0.00e+00	11	42	0	499122176	54	6236
2026-01-20 19:55:19.45	13.01	14.43	-40.7	-41.7	22.6	0.00e+00	0	42	0	504365056	54	6195
2026-01-20 19:55:22.48	12.39	14.48	-40.9	-42.0	22.5	0.00e+00	0	42	0	510656512	54	6399
2026-01-20 19:55:25.51	11.76	14.53	-41.0	-42.0	22.2	0.00e+00	91	42	0	515899392	54	6427
2026-01-20 19:55:28.54	11.14	14.57	-40.9	-42.0	22.2	0.00e+00	0	42	0	522190848	54	6407
2026-01-20 19:55:31.57	10.51	14.61	-40.6	-41.6	22.6	0.00e+00	0	42	0	527433728	54	6158
2026-01-20 19:55:34.60	9.88	14.64	-41.2	-42.3	22.2	0.00e+00	0	42	0	532676608	54	6616
2026-01-20 19:55:37.63	9.25	14.67	-41.5	-42.7	21.8	0.00e+00	64	42	0	538968064	54	6936
2026-01-20 19:55:40.66	8.62	14.70	-42.0	-43.1	21.8	0.00e+00	0	42	0	544210944	56	6525
2026-01-20 19:55:43.69	7.99	14.73	-41.6	-42.8	21.7	0.00e+00	0	42	0	550502400	56	6254
2026-01-20 19:55:46.72	7.35	14.75	-41.4	-42.5	22.1	0.00e+00	36	42	0	555745280	56	6040
2026-01-20 19:55:49.75	6.72	14.77	-40.9	-42.0	22.5	0.00e+00	0	42	0	560988160	56	5710
2026-01-20 19:55:52.79	6.08	14.78	-40.8	-41.8	22.5	0.00e+00	0	42	0	567279616	54	6271
2026-01-20 19:55:55.82	5.44	14.79	-41.3	-42.4	22.0	0.00e+00	92	42	0	572522496	54	6725
2026-01-20 19:55:58.85	4.81	14.80	-41.3	-42.3	22.1	0.00e+00	0	42	0	578813952	54	6688
2026-01-20 19:56:01.87	4.17	14.80	-41.1	-42.1	22.2	0.00e+00	0	42	0	584056832	54	6536
2026-01-20 19:56:04.90	3.54	14.80	-41.0	-42.0	22.5	0.00e+00	0	42	0	590348288	54	6457
2026-01-20 19:56:07.93	2.90	14.80	-40.7	-41.7	22.6	0.00e+00	73	42	0	595591168	54	6210
2026-01-20 19:56:10.96	2.26	14.79	-40.9	-42.0	22.5	0.00e+00	0	42	0	600834048	54	6404
2026-01-20 19:56:13.99	1.63	14.78	-41.1	-42.1	22.3	0.00e+00	0	42	0	607125504	54	6529
2026-01-20 19:56:17.02	0.99	14.77	-41.6	-42.7	21.8	0.00e+00	74	42	0	612368384	54	6973
2026-01-20 19:56:20.05	0.36	14.75	-41.6	-42.8	21.7	0.00e+00	0	42	0	618659840	54	7013
2026-01-20 19:56:23.08	359.72	14.73	-41.7	-42.8	21.8	0.00e+00	0	42	0	623902720	56	6265
2026-01-20 19:56:26.11	359.09	14.70	-41.3	-42.4	22.0	0.00e+00	89	42	0	629145600	56	5965
2026-01-20 19:56:29.13	358.46	14.67	-40.9	-42.0	22.5	0.00e+00	31	42	0	635437056	56	5701
2026-01-20 19:56:32.16	357.83	14.64	-40.5	-41.5	22.7	0.00e+00	31	42	0	640679936	54	6085
2026-01-20 19:56:35.19	357.20	14.61	-40.9	-41.9	22.5	0.00e+00	32	42	0	646971392	54	6355
2026-01-20 19:56:38.21	356.58	14.57	-40.9	-41.9	22.4	0.00e+00	0	42	0	652214272	54	6354
2026-01-20 19:56:41.24	355.95	14.53	-40.3	-41.3	22.8	0.00e+00	0	42	0	657457152	54	5944
2026-01-20 19:56:44.28	355.33	14.48	-40.6	-41.6	22.6	0.00e+00	0	42	0	663748608	54	6152
2026-01-20 19:56:47.30	354.71	14.43	-41.0	-42.1	22.4	0.00e+00	81	42	0	668991488	54	6482
2026-01-20 19:56:50.33	354.09	14.38	-41.0	-42.1	22.1	0.00e+00	0	42	0	675282944	54	6503
2026-01-20 19:56:53.36	353.47	14.33	-41.6	-42.8	21.7	0.00e+00	0	42	0	680525824	54	7022
2026-01-20 19:56:56.39	352.85	14.27	-41.6	-42.7	21.9	0.00e+00	91	42	0	686817280	56	6211
2026-01-20 19:56:59.42	352.24	14.21	-41.5	-42.6	22.0	0.00e+00	0	42	0	692060160	56	6154
2026-01-20 19:57:02.45	351.63	14.14	-41.2	-42.3	22.4	0.00e+00	0	42	0	697303040	56	5917
2026-01-20 19:57:05.47	351.03	14.08	-40.6	-41.6	22.7	0.00e+00	0	42	0	703594496	54	6127
2026-01-20 19:57:08.50	350.42	14.01	-40.8	-41.9	22.6	0.00e+00	67	42	0	708837376	54	6319
2026-01-20 19:57:11.53	349.82	13.93	-40.8	-41.8	22.6	0.00e+00	0	42	0	715128832	54	6269
2026-01-20 19:57:14.56	349.22	13.86	-40.7	-41.6	22.6	0.00e+00	0	42	0	720371712	54	6173
2026-01-20 19:57:17.59	348.63	13.78	-41.4	-42.5	22.0	0.00e+00	67	42	0	725614592	54	6804
2026-01-20 19:57:20.62	348.03	13.70	-41.1	-42.2	22.2	0.00e+00	0	42	0	731906048	54	6568
2026-01-20 19:57:23.64	347.45	13.61	-41.0	-42.1	22.3	0.00e+00	0	42	0	737148928	54	6486
2026-01-20 19:57:26.67	346.86	13.53	-41.1	-42.2	22.2	0.00e+00	68	42	0	743440384	54	6610
2026-01-20 19:57:29.70	346.28	13.44	-41.4	-42.6	21.9	0.00e+00	61	42	0	748683264	54	6866
2026-01-20 19:57:32.73	345.70	13.34	-41.2	-42.3	22.2	0.00e+00	0	42	0	754974720	54	6684
2026-01-20 19:57:35.76	345.13	13.25	-40.8	-41.8	22.4	0.00e+00	0	42	0	760217600	54	6317
2026-01-20 19:57:38.79	344.56	13.15	-40.7	-41.8	22.5	0.00e+00	64	42	0	765460480	54	6271
2026-01-20 19:57:41.82	343.99	13.05	-40.4	-41.4	22.8	0.00e+00	0	42	0	771751936	54	6023
2026-01-20 19:57:44.85	343.43	12.95	-40.1	-41.1	23.0	0.00e+00	0	42	0	776994816	54	5819
2026-01-20 19:57:47.88	342.87	12.84	-40.1	-41.1	23.0	0.00e+00	73	42	0	783286272	54	5775
2026-01-20 19:57:50.92	342.31	12.74	-40.3	-41.4	22.7	0.00e+00	0	42	0	788529152	54	5986
2026-01-20 19:57:53.94	341.77	12.63	-40.9	-42.0	22.3	0.00e+00	0	42	0	793772032	54	6419
2026-01-20 19:57:56.97	341.22	12.52	-41.5	-42.7	21.7	0.00e+00	0	42	0	800063488	54	6991
2026-01-20 19:58:00.00	340.68	12.41	-41.7	-42.9	21.7	0.00e+00	0	42	0	805306368	56	6381
2026-01-20 19:58:03.01	340.14	12.29	-41.6	-42.8	21.7	0.00e+00	0	42	0	811597824	56	6307
2026-01-20 19:58:06.03	339.61	12.18	-41.7	-42.9	21.5	0.00e+00	0	42	0	816840704	56	6347
2026-01-20 19:58:09.06	339.08	12.06	-41.7	-42.9	21.5	0.00e+00	37	42	0	823132160	56	6367
2026-01-20 19:58:12.10	338.55	11.94	-41.8	-43.1	21.4	0.00e+00	0	42	0	828375040	56	6508
2026-01-20 19:58:15.13	338.03	11.81	-41.8	-43.0	21.5	0.00e+00	0	42	0	833617920	56	6439
2026-01-20 19:58:18.15	337.52	11.69	-41.8	-43.0	21.6	0.00e+00	92	42	0	839909376	56	6443
2026-01-20 19:58:21.18	337.01	11.57	-42.1	-43.4	21.1	0.00e+00	0	42	0	845152256	56	6719
2026-01-20 19:58:24.21	336.50	11.44	-41.9	-43.0	21.4	0.00e+00	0	42	0	851443712	56	6453
2026-01-20 19:58:27.24	336.00	11.31	-41.1	-42.2	22.1	0.00e+00	21	42	0	856686592	56	5857
2026-01-20 19:58:30.27	335.50	11.18	-41.8	-42.9	21.5	0.00e+00	0	42	0	861929472	56	6389
2026-01-20 19:58:33.30	335.00	11.05	-42.9	-44.2	20.4	0.00e+00	0	42	0	868220928	58	6585
2026-01-20 19:58:36.33	334.52	10.92	-43.2	-44.6	20.0	0.00e+00	0	42	0	873463808	58	6878
2026-01-20 19:58:39.36	334.03	10.78	-42.7	-44.0	20.7	0.00e+00	67	42	0	879755264	58	6420
2026-01-20 19:58:42.39	333.55	10.65	-42.7	-44.0	20.6	0.00e+00	0	42	0	884998144	58	6442
2026-01-20 19:58:45.42	333.07	10.51	-43.4	-44.8	19.8	0.00e+00	0	42	0	891289600	58	7042
2026-01-20 19:58:48.45	332.60	10.37	-45.0	-46.9	18.0	0.00e+00	81	42	0	896532480	60	7973
2026-01-20 19:58:51.48	332.14	10.23	-45.2	-47.2	17.6	0.00e+00	0	42	0	901775360	60	8294
2026-01-20 19:58:54.51	331.67	10.09	-44.7	-46.5	18.4	0.00e+00	0	42	0	908066816	60	7602
2026-01-20 19:58:57.54	331.22	9.95	-44.3	-45.9	18.9	0.00e+00	0	42	0	913309696	60	7108
2026-01-20 19:59:00.57	330.76	9.81	-44.3	-45.9	19.0	0.00e+00	62	42	0	919601152	60	7103
2026-01-20 19:59:03.60	330.31	9.67	-43.7	-45.2	19.5	0.00e+00	0	42	0	924844032	60	6576
2026-01-20 19:59:06.63	329.87	9.53	-43.7	-45.2	19.4	0.00e+00	0	42	0	930086912	60	6570
2026-01-20 19:59:09.67	329.43	9.38	-43.7	-45.1	19.6	0.00e+00	90	42	0	936378368	60	6516
2026-01-20 19:59:12.70	328.99	9.24	-43.2	-44.5	20.1	0.00e+00	0	42	0	941621248	60	6081
2026-01-20 19:59:15.73	328.56	9.09	-43.1	-44.4	20.2	0.00e+00	0	42	0	947912704	60	6002
2026-01-20 19:59:18.76	328.13	8.94	-43.0	-44.3	20.3	0.00e+00	22	42	0	953155584	60	5954
2026-01-20 19:59:21.78	327.71	8.80	-43.0	-44.4	20.1	0.00e+00	0	42	0	959447040	60	5971
2026-01-20 19:59:24.81	327.30	8.65	-43.2	-44.6	19.8	0.00e+00	0	42	0	964689920	60	6131
2026-01-20 19:59:27.84	326.88	8.50	-43.5	-45.0	19.6	0.00e+00	0	42	0	969932800	60	6434
2026-01-20 19:59:30.87	326.47	8.35	-43.4	-44.8	19.5	0.00e+00	70	42	0	976224256	60	6297
2026-01-20 19:59:33.90	326.07	8.20	-43.2	-44.6	19.9	0.00e+00	0	42	0	981467136	60	6156
2026-01-20 19:59:36.93	325.67	8.05	-43.3	-44.8	19.7	0.00e+00	0	42	0	987758592	60	6257
2026-01-20 19:59:39.96	325.27	7.90	-43.2	-44.6	20.0	0.00e+00	89	42	0	993001472	60	6119
2026-01-20 19:59:42.99	324.88	7.75	-43.2	-44.6	20.0	0.00e+00	0	42	0	998244352	60	6137
2026-01-20 19:59:46.02	324.49	7.60	-42.4	-43.6	20.8	0.00e+00	0	42	0	1004535808	58	6170
2026-01-20 19:59:49.05	324.10	7.45	-42.1	-43.2	21.2	0.00e+00	0	42	0	1009778688	56	6608
2026-01-20 19:59:52.08	323.72	7.30	-42.2	-43.4	21.2	0.00e+00	0	42	0	1016070144	56	6723
2026-01-20 19:59:55.11	323.35	7.15	-42.1	-43.3	20.9	0.00e+00	0	42	0	1021313024	56	6681
2026-01-20 19:59:58.14	322.98	6.99	-42.8	-44.1	20.6	0.00e+00	0	42	0	1027604480	56	7327
2026-01-20 20:00:01.17	322.61	6.84	-42.0	-43.1	21.1	0.00e+00	82	42	0	1032847360	56	6535
2026-01-20 20:00:04.20	322.24	6.69	-42.4	-43.7	20.7	0.00e+00	0	42	0	1038090240	56	6976
2026-01-20 20:00:07.22	321.88	6.54	-42.6	-43.9	20.5	0.00e+00	0	42	0	1044381696	56	7105
2026-01-20 20:00:10.25	321.53	6.38	-42.4	-43.6	20.6	0.00e+00	91	42	0	1049624576	56	6924
2026-01-20 20:00:13.28	321.18	6.23	-43.3	-44.8	19.7	0.00e+00	0	42	0	1055916032	58	7018
2026-01-20 20:00:16.31	320.83	6.08	-42.8	-44.1	20.3	0.00e+00	0	42	0	1061158912	58	6515
2026-01-20 20:00:19.34	320.48	5.92	-42.6	-43.9	20.3	0.00e+00	27	42	0	1066401792	58	6342
2026-01-20 20:00:22.37	320.14	5.77	-43.1	-44.5	19.7	0.00e+00	0	43	0	1072693248	58	6836
2026-01-20 20:00:25.39	319.80	5.62	-42.9	-44.3	19.7	0.00e+00	0	42	0	1077936128	58	6670
2026-01-20 20:00:28.42	319.47	5.46	-42.3	-43.5	20.0	0.00e+00	0	43	0	1084227584	58	6097
2026-01-20 20:00:31.45	319.14	5.31	-42.5	-43.8	20.2	0.00e+00	92	43	0	1089470464	58	6294
2026-01-20 20:00:34.48	318.81	5.16	-42.6	-43.9	20.4	0.00e+00	0	43	0	1095761920	58	6360
2026-01-20 20:00:37.51	318.49	5.00	-41.9	-43.1	21.0	0.00e+00	0	43	0	1101004800	58	5772
2026-01-20 20:00:40.53	318.17	4.85	-42.1	-43.4	20.6	0.00e+00	92	43	0	1106247680	58	6013
2026-01-20 20:00:43.56	317.85	4.70	-43.0	-44.4	19.8	0.00e+00	0	43	0	1112539136	58	6723
2026-01-20 20:00:46.59	317.54	4.54	-43.4	-44.9	19.2	0.00e+00	0	43	0	1117782016	58	7120
2026-01-20 20:00:49.62	317.23	4.39	-43.6	-45.2	18.9	0.00e+00	0	42	0	1124073472	60	6579
2026-01-20 20:00:52.65	316.92	4.24	-43.8	-45.4	18.8	0.00e+00	65	43	0	1129316352	60	6702
2026-01-20 20:00:55.68	316.62	4.09	-43.4	-44.9	19.5	0.00e+00	0	42	0	1134559232	60	6349
2026-01-20 20:00:58.71	316.32	3.93	-42.1	-43.4	20.4	0.00e+00	0	42	0	1140850688	58	5989
2026-01-20 20:01:01.74	316.02	3.78	-42.2	-43.5	20.7	0.00e+00	90	43	0	1146093568	58	6079
2026-01-20 20:01:04.76	315.73	3.63	-42.1	-43.4	20.6	0.00e+00	0	43	0	1152385024	58	5969
2026-01-20 20:01:07.80	315.44	3.47	-41.9	-43.1	20.4	0.00e+00	0	42	0	1157627904	56	6491
2026-01-20 20:01:10.83	315.15	3.32	-42.5	-43.8	20.3	0.00e+00	92	43	0	1163919360	60	5588
2026-01-20 20:01:13.86	314.87	3.17	-43.5	-45.1	18.4	0.00e+00	0	42	0	1169162240	60	6521
2026-01-20 20:01:16.89	314.59	3.02	-44.9	-47.0	17.2	0.00e+00	0	43	0	1174405120	60	8138
2026-01-20 20:01:19.92	314.31	2.87	-50.9	-66.1	3.6	1.51e+00	0	43	104	1175453696	60	72956
2026-01-20 20:01:22.95	314.03	2.71	-51.3	-66.5	3.6	1.51e+00	0	43	104	1175453696	60	76562
2026-01-20 20:01:25.97	313.76	2.56	-51.5	-66.7	3.6	1.51e+00	0	43	104	1175453696	60	78236
2026-01-20 20:01:29.00	313.49	2.41	-51.5	-66.7	3.6	1.51e+00	0	43	104	1175453696	60	78587
2026-01-20 20:01:32.03	313.23	2.26	-51.4	-66.8	3.6	1.51e+00	0	43	104	1175453696	60	78749
2026-01-20 20:01:35.06	312.96	2.11	-51.4	-66.7	3.6	1.51e+00	0	43	104	1175453696	60	78509
2026-01-20 20:01:38.09	312.70	1.96	-51.6	-66.8	3.6	1.51e+00	0	43	104	1175453696	60	79361
2026-01-20 20:01:41.13	312.44	1.81	-51.6	-66.8	3.6	1.51e+00	0	43	104	1175453696	60	79290
2026-01-20 20:01:44.16	312.19	1.66	-51.5	-66.7	3.6	1.51e+00	0	43	104	1175453696	60	77831
2026-01-20 20:01:47.19	311.93	1.51	-51.5	-66.7	3.6	1.51e+00	0	43	104	1175453696	60	78563
2026-01-20 20:01:50.21	311.69	1.36	-51.5	-66.7	3.6	1.51e+00	0	43	104	1175453696	60	78247
2026-01-20 20:01:53.25	311.44	1.21	-51.6	-66.8	3.6	1.51e+00	0	43	104	1175453696	60	79190
2026-01-20 20:01:56.27	311.19	1.06	-51.9	-67.0	3.6	1.51e+00	0	43	104	1175453696	60	80991
2026-01-20 20:01:59.31	310.95	0.91	-51.8	-67.0	3.6	1.51e+00	0	43	104	1175453696	60	80587
2026-01-20 20:02:02.34	310.71	0.77	-51.9	-67.1	3.6	1.51e+00	0	43	104	1175453696	60	81497
2026-01-20 20:02:05.37	310.47	0.62	-52.0	-67.1	3.6	1.51e+00	0	43	104	1175453696	60	82246
2026-01-20 20:02:08.40	310.24	0.47	-51.8	-67.0	3.6	1.51e+00	0	43	104	1175453696	60	81086
2026-01-20 20:02:11.43	310.00	0.32	-51.8	-67.0	3.6	1.51e+00	0	43	104	1175453696	60	80696
2026-01-20 20:02:14.46	309.77	0.18	-52.0	-67.1	3.6	1.51e+00	0	43	104	1175453696	60	82043
2026-01-20 20:02:17.49	309.55	0.03	-51.7	-66.9	3.6	1.51e+00	0	43	104	1175453696	60	79981
2026-01-20 20:02:20.52	309.32	-0.12	-51.9	-67.2	3.6	1.51e+00	0	43	104	1175453696	60	82603

#Closed at: 2026-01-20 20:02:20
#Recorded file [1175 MB]: D:/lorett/data/35029_260121_074952.dat