passes_logs/2026/01/20/R4.6S_Anadyr/R4.6S_Anadyr__20260120_000135_2025-108B_rec.log

#Pass ID: 20260120_000135_2025-108B
#Satellite: 2025-108B
#Configuration: 3PB_600M
#almurnet v.1.7.20251203
#Start time: 2026-01-20 00:01:39

#Version: 2.2.20231116
#Station: R4.6S_Anadyr
#Location: 177.4865 lon 64.73178 lat
#TLE: 1 64088U 25108B   26019.25903941  .00010038  00000+0  50324-3 0  9991
#TLE: 2 64088  97.4888  96.7170 0013028 163.0725 197.0946 15.17470711 36762

#Time	Az	El	Level	Level2	SNR	BER	BlckErr	Temp	State	Recorded	gain1	gain2
2026-01-20 00:01:39.55	17.38	0.25	-51.5	-66.5	3.5	1.51e+00	0	40	0	0	60	76141
2026-01-20 00:01:42.58	17.34	0.44	-47.8	-50.1	3.6	0.00e+00	0	41	104	0	60	39178
2026-01-20 00:01:45.61	17.31	0.64	-47.1	-49.4	3.6	0.00e+00	0	41	104	0	60	36256
2026-01-20 00:01:48.64	17.27	0.84	-46.9	-49.2	3.6	0.00e+00	0	42	104	0	60	35471
2026-01-20 00:01:51.67	17.23	1.04	-46.9	-49.2	3.6	0.00e+00	0	42	104	0	60	35286
2026-01-20 00:01:54.70	17.19	1.24	-46.3	-48.6	3.6	0.00e+00	0	42	104	0	60	32992
2026-01-20 00:01:57.73	17.15	1.44	-45.9	-48.2	3.6	0.00e+00	0	42	104	0	60	31543
2026-01-20 00:02:00.76	17.10	1.65	-45.3	-47.6	3.6	0.00e+00	0	42	104	0	60	29263
2026-01-20 00:02:03.79	17.06	1.85	-45.3	-47.6	3.6	0.00e+00	0	42	104	0	60	29347
2026-01-20 00:02:06.82	17.02	2.06	-45.2	-47.5	3.6	0.00e+00	0	42	104	0	60	29178
2026-01-20 00:02:09.84	16.97	2.27	-45.2	-47.5	3.6	0.00e+00	0	42	104	0	60	29173
2026-01-20 00:02:12.87	16.92	2.48	-45.2	-47.5	3.6	0.00e+00	0	42	104	0	60	29078
2026-01-20 00:02:15.89	16.88	2.70	-45.1	-47.5	3.5	0.00e+00	0	42	104	0	60	28918
2026-01-20 00:02:18.92	16.83	2.91	-45.1	-47.5	3.6	0.00e+00	0	42	104	0	60	29092
2026-01-20 00:02:21.95	16.78	3.13	-45.1	-47.4	3.6	0.00e+00	0	42	104	0	60	28769
2026-01-20 00:02:24.98	16.73	3.35	-45.1	-47.4	3.6	0.00e+00	0	42	104	0	60	28838
2026-01-20 00:02:28.01	16.68	3.58	-45.1	-47.4	3.6	0.00e+00	0	42	104	0	60	28825
2026-01-20 00:02:31.04	16.62	3.80	-45.0	-47.4	3.6	0.00e+00	0	42	104	0	60	28793
2026-01-20 00:02:34.07	16.57	4.03	-45.0	-47.4	3.6	0.00e+00	0	42	104	0	60	28757
2026-01-20 00:02:37.10	16.51	4.26	-45.1	-47.4	3.6	0.00e+00	0	42	104	0	60	28844
2026-01-20 00:02:40.13	16.45	4.50	-45.2	-47.7	3.6	0.00e+00	0	43	104	0	60	29874
2026-01-20 00:02:43.16	16.39	4.73	-45.2	-47.5	3.6	0.00e+00	0	42	104	0	60	29171
2026-01-20 00:02:46.19	16.33	4.97	-45.6	-47.9	3.6	0.00e+00	0	43	104	0	60	30546
2026-01-20 00:02:49.21	16.27	5.21	-45.5	-47.9	3.6	0.00e+00	0	42	104	0	60	30447
2026-01-20 00:02:52.24	16.21	5.46	-45.4	-48.0	3.6	0.00e+00	0	43	104	0	60	30783
2026-01-20 00:02:55.27	16.14	5.71	-45.6	-47.9	3.6	0.00e+00	0	43	104	0	60	30491
2026-01-20 00:02:58.30	16.07	5.96	-45.8	-48.1	3.6	0.00e+00	0	43	104	0	60	31288
2026-01-20 00:03:01.32	16.01	6.21	-45.7	-48.0	3.6	0.00e+00	0	43	104	0	60	30909
2026-01-20 00:03:04.35	15.94	6.47	-45.5	-48.1	3.6	0.00e+00	0	43	104	0	60	31277
2026-01-20 00:03:07.38	15.86	6.73	-45.6	-48.0	3.6	0.00e+00	0	43	104	0	60	30709
2026-01-20 00:03:10.41	15.79	6.99	-45.7	-48.1	3.6	0.00e+00	0	43	104	0	60	31294
2026-01-20 00:03:13.44	15.71	7.26	-45.8	-48.1	3.6	0.00e+00	0	43	104	0	60	31037
2026-01-20 00:03:16.47	15.63	7.53	-45.5	-48.2	3.6	0.00e+00	0	43	104	0	60	31368
2026-01-20 00:03:19.50	15.55	7.81	-45.8	-48.1	3.6	0.00e+00	0	43	104	0	60	31115
2026-01-20 00:03:22.53	15.47	8.09	-45.8	-48.2	3.6	0.00e+00	0	43	104	0	60	31548
2026-01-20 00:03:25.55	15.39	8.37	-45.8	-48.1	3.6	0.00e+00	0	43	104	0	60	31247
2026-01-20 00:03:28.58	15.30	8.66	-45.5	-48.2	3.6	0.00e+00	0	43	104	0	60	31327
2026-01-20 00:03:31.61	15.21	8.95	-45.8	-48.2	3.6	0.00e+00	0	43	104	0	60	31346
2026-01-20 00:03:34.64	15.11	9.25	-45.8	-48.3	3.6	0.00e+00	0	43	104	0	60	31862
2026-01-20 00:03:37.67	15.02	9.55	-46.0	-48.3	3.6	0.00e+00	0	43	104	0	60	31696
2026-01-20 00:03:40.70	14.92	9.85	-45.6	-48.3	3.6	0.00e+00	0	43	104	0	60	31965
2026-01-20 00:03:43.73	14.82	10.16	-45.9	-48.3	3.6	0.00e+00	0	43	104	0	60	31781
2026-01-20 00:03:46.76	14.72	10.48	-45.7	-48.3	3.6	0.00e+00	0	43	104	0	60	31971
2026-01-20 00:03:49.79	14.61	10.80	-46.0	-48.4	3.6	0.00e+00	0	43	104	0	60	32056
2026-01-20 00:03:52.82	14.50	11.13	-45.9	-48.4	3.6	0.00e+00	0	43	104	0	60	32345
2026-01-20 00:03:55.84	14.39	11.46	-45.9	-48.4	3.6	0.00e+00	0	43	104	0	60	32176
2026-01-20 00:03:58.87	14.27	11.80	-45.9	-48.4	3.6	0.00e+00	0	43	104	0	60	32164
2026-01-20 00:04:01.90	14.15	12.15	-46.1	-48.4	3.6	0.00e+00	0	43	104	0	60	32365
2026-01-20 00:04:04.93	14.02	12.50	-46.1	-48.4	3.6	0.00e+00	0	43	104	0	60	32380
2026-01-20 00:04:07.96	13.89	12.86	-45.7	-48.5	3.6	0.00e+00	0	43	104	0	60	32477
2026-01-20 00:04:10.99	13.76	13.22	-46.0	-48.4	3.6	0.00e+00	0	43	104	0	60	32254
2026-01-20 00:04:14.01	13.62	13.59	-46.1	-48.5	3.6	0.00e+00	0	43	104	0	60	32420
2026-01-20 00:04:17.04	13.48	13.97	-46.1	-48.5	3.6	0.00e+00	0	43	104	0	60	32493
2026-01-20 00:04:20.07	13.33	14.36	-45.6	-48.6	3.6	0.00e+00	0	43	104	0	60	32806
2026-01-20 00:04:23.10	13.18	14.75	-46.1	-48.5	3.6	0.00e+00	0	43	104	0	60	32445
2026-01-20 00:04:26.13	13.02	15.16	-46.1	-48.6	3.6	0.00e+00	0	43	104	0	60	32857
2026-01-20 00:04:29.16	12.86	15.57	-46.2	-48.5	3.6	0.00e+00	0	43	104	0	60	32693
2026-01-20 00:04:32.19	12.69	15.99	-45.7	-48.6	3.6	0.00e+00	0	43	104	0	60	32798
2026-01-20 00:04:35.22	12.52	16.42	-46.2	-48.5	3.6	0.00e+00	0	43	104	0	60	32674
2026-01-20 00:04:38.25	12.34	16.86	-46.2	-48.6	3.6	0.00e+00	0	43	104	0	60	33095
2026-01-20 00:04:41.28	12.15	17.31	-46.3	-48.6	3.6	0.00e+00	0	43	104	0	60	33035
2026-01-20 00:04:44.31	11.95	17.77	-45.7	-48.6	3.6	0.00e+00	0	43	104	0	60	32918
2026-01-20 00:04:47.34	11.75	18.24	-46.3	-48.7	3.6	0.00e+00	0	43	104	0	60	33365
2026-01-20 00:04:50.36	11.54	18.72	-46.2	-48.6	3.6	0.00e+00	0	43	104	0	60	33012
2026-01-20 00:04:53.39	11.32	19.22	-46.3	-48.6	3.6	0.00e+00	0	43	104	0	60	33040
2026-01-20 00:04:56.42	11.10	19.73	-45.5	-48.6	3.6	0.00e+00	0	43	104	0	60	32878
2026-01-20 00:04:59.45	10.86	20.25	-46.3	-48.6	3.6	0.00e+00	0	43	104	0	60	32944
2026-01-20 00:05:02.48	10.61	20.78	-46.0	-48.6	3.6	0.00e+00	0	43	104	0	60	32894
2026-01-20 00:05:05.51	10.35	21.33	-46.3	-48.7	3.6	0.00e+00	0	43	104	0	60	33214
2026-01-20 00:05:08.53	10.09	21.89	-45.4	-48.7	3.6	0.00e+00	0	43	104	0	60	33229
2026-01-20 00:05:11.56	9.81	22.46	-46.4	-48.7	3.6	0.00e+00	0	43	104	0	60	33441
2026-01-20 00:05:14.59	9.51	23.06	-45.9	-48.7	3.6	0.00e+00	0	43	104	0	60	33315
2026-01-20 00:05:17.62	9.21	23.67	-46.4	-48.8	3.6	0.00e+00	0	43	104	0	60	33656
2026-01-20 00:05:20.65	8.89	24.29	-45.5	-48.9	3.6	0.00e+00	0	43	104	0	60	34014
2026-01-20 00:05:23.68	8.55	24.94	-46.4	-48.8	3.6	0.00e+00	0	43	104	0	60	33867
2026-01-20 00:05:26.70	8.20	25.60	-45.9	-48.9	3.6	0.00e+00	0	43	104	0	60	34023
2026-01-20 00:05:29.73	7.83	26.28	-46.5	-48.9	3.6	0.00e+00	0	43	104	0	60	34073
2026-01-20 00:05:32.76	7.44	26.98	-45.5	-48.8	3.6	0.00e+00	0	43	104	0	60	33862
2026-01-20 00:05:35.79	7.03	27.71	-46.1	-48.9	3.6	0.00e+00	0	43	104	0	60	33980
2026-01-20 00:05:38.82	6.60	28.45	-45.9	-48.9	3.6	0.00e+00	0	43	104	0	60	34101
2026-01-20 00:05:41.85	6.15	29.22	-46.4	-48.9	3.6	0.00e+00	0	43	104	0	60	34236
2026-01-20 00:05:44.88	5.67	30.01	-46.4	-48.9	3.6	0.00e+00	0	43	104	0	60	34230
2026-01-20 00:05:47.91	5.16	30.83	-45.7	-48.9	3.6	0.00e+00	0	43	104	0	60	33985
2026-01-20 00:05:50.94	4.62	31.67	-46.3	-48.9	3.6	0.00e+00	0	43	104	0	60	34170
2026-01-20 00:05:53.97	4.06	32.54	-46.2	-48.9	3.6	0.00e+00	0	43	104	0	60	33959
2026-01-20 00:05:57.00	3.45	33.44	-46.8	-49.1	3.6	0.00e+00	0	43	104	0	60	35004
2026-01-20 00:06:00.02	2.82	34.36	-45.1	-49.2	3.6	0.00e+00	0	43	104	0	60	35223
2026-01-20 00:06:03.05	2.13	35.31	-46.9	-49.4	3.6	0.00e+00	0	43	104	0	60	36202
2026-01-20 00:06:06.08	1.41	36.29	-45.7	-49.3	3.6	0.00e+00	0	43	104	0	60	35763
2026-01-20 00:06:09.11	0.63	37.31	-46.9	-49.4	3.6	0.00e+00	0	43	104	0	60	35950
2026-01-20 00:06:12.14	359.80	38.35	-47.0	-49.3	3.6	0.00e+00	0	43	104	0	60	35756
2026-01-20 00:06:15.17	358.91	39.42	-45.5	-49.6	3.6	0.00e+00	0	43	104	0	60	36776
2026-01-20 00:06:18.20	357.96	40.53	-46.9	-49.2	3.6	0.00e+00	0	43	104	0	60	35522
2026-01-20 00:06:21.22	356.93	41.66	-47.4	-49.9	3.6	0.00e+00	0	43	104	0	60	38311
2026-01-20 00:06:24.25	355.83	42.82	-47.7	-50.0	3.6	0.00e+00	0	43	104	0	60	38604
2026-01-20 00:06:27.27	354.63	44.01	-47.3	-49.6	3.6	0.00e+00	0	43	104	0	60	37012
2026-01-20 00:06:30.30	353.34	45.24	-47.7	-50.1	3.6	0.00e+00	0	43	104	0	60	39178
2026-01-20 00:06:33.33	351.94	46.48	-46.8	-50.4	3.6	0.00e+00	0	44	104	0	60	40457
2026-01-20 00:06:36.35	350.41	47.75	-47.7	-50.1	3.6	0.00e+00	0	43	104	0	60	39009
2026-01-20 00:06:39.38	348.75	49.04	-48.3	-50.7	3.6	0.00e+00	0	43	104	0	60	41759
2026-01-20 00:06:42.41	346.94	50.34	-45.8	-50.1	3.6	0.00e+00	0	43	104	0	60	39200
2026-01-20 00:06:45.44	344.95	51.65	-47.3	-50.9	3.6	0.00e+00	0	43	104	0	60	42933
2026-01-20 00:06:48.46	342.79	52.96	-46.3	-50.6	3.6	0.00e+00	0	43	104	0	60	41732
2026-01-20 00:06:51.49	340.41	54.27	-48.5	-51.2	3.6	0.00e+00	0	43	104	0	60	44665
2026-01-20 00:06:54.52	337.79	55.56	-46.4	-51.0	3.6	0.00e+00	0	44	104	0	60	43597
2026-01-20 00:06:57.55	334.93	56.82	-49.1	-51.5	3.6	0.00e+00	0	43	104	0	60	46062
2026-01-20 00:07:00.58	331.78	58.03	-48.9	-51.3	3.6	0.00e+00	0	43	104	0	60	44927
2026-01-20 00:07:03.61	328.34	59.18	-47.6	-51.2	3.6	0.00e+00	0	44	104	0	60	44517
2026-01-20 00:07:06.64	324.60	60.25	-48.5	-50.9	3.5	0.00e+00	0	44	104	0	60	43201
2026-01-20 00:07:09.66	320.54	61.22	-49.3	-52.1	3.6	0.00e+00	0	44	104	0	60	49313
2026-01-20 00:07:12.70	316.15	62.08	-49.1	-51.5	3.6	0.00e+00	0	44	104	0	60	45900
2026-01-20 00:07:15.72	311.49	62.78	-49.1	-51.4	3.6	0.00e+00	0	44	104	0	60	45528
2026-01-20 00:07:18.75	306.56	63.33	-47.4	-50.2	3.6	0.00e+00	0	43	104	0	60	39582
2026-01-20 00:07:21.78	301.43	63.70	-47.3	-52.0	3.6	0.00e+00	0	44	104	0	60	48720
2026-01-20 00:07:24.81	296.18	63.88	-46.8	-50.5	3.6	0.00e+00	0	44	104	0	60	41184
2026-01-20 00:07:27.83	290.90	63.87	-49.3	-51.7	3.6	0.00e+00	0	43	104	0	60	47078
2026-01-20 00:07:30.86	285.66	63.66	-47.5	-50.9	3.6	0.00e+00	0	44	104	0	60	43051
2026-01-20 00:07:33.89	280.56	63.26	-48.3	-52.0	3.6	0.00e+00	0	44	104	0	60	48794
2026-01-20 00:07:36.92	275.66	62.68	-48.7	-51.3	3.6	0.00e+00	0	44	104	0	60	44943
2026-01-20 00:07:39.94	271.04	61.95	-48.3	-51.4	3.6	0.00e+00	0	44	104	0	60	45277
2026-01-20 00:07:42.97	266.70	61.07	-48.8	-51.5	3.6	0.00e+00	0	44	104	0	60	46264
2026-01-20 00:07:45.99	262.69	60.09	-47.8	-50.5	3.5	0.00e+00	0	44	104	0	60	40973
2026-01-20 00:07:49.02	258.98	59.00	-49.0	-51.5	3.6	0.00e+00	0	44	104	0	60	45911
2026-01-20 00:07:52.06	255.57	57.82	-48.2	-50.9	3.6	0.00e+00	0	44	104	0	60	43039
2026-01-20 00:07:55.08	252.47	56.60	-48.3	-50.8	3.6	0.00e+00	0	44	104	0	60	42383
2026-01-20 00:07:58.11	249.64	55.33	-49.4	-51.8	3.6	0.00e+00	0	44	104	0	60	47882
2026-01-20 00:08:01.14	247.06	54.03	-47.7	-50.2	3.6	0.00e+00	0	44	104	0	60	39719
2026-01-20 00:08:04.17	244.70	52.72	-48.5	-51.2	3.6	0.00e+00	0	44	104	0	60	44383
2026-01-20 00:08:07.20	242.56	51.40	-48.1	-50.7	3.6	0.00e+00	0	44	104	0	60	41828
2026-01-20 00:08:10.23	240.59	50.08	-47.1	-49.6	3.6	0.00e+00	0	44	104	0	60	37133
2026-01-20 00:08:13.26	238.80	48.77	-47.4	-49.7	3.6	0.00e+00	0	44	104	0	60	37535
2026-01-20 00:08:16.28	237.16	47.48	-47.3	-49.7	3.6	0.00e+00	0	44	104	0	60	37417
2026-01-20 00:08:19.31	235.65	46.21	-46.7	-49.3	3.6	0.00e+00	0	44	104	0	60	35921
2026-01-20 00:08:22.34	234.26	44.96	-47.0	-49.4	3.6	0.00e+00	0	44	104	0	60	36002
2026-01-20 00:08:25.37	232.98	43.73	-46.6	-49.3	3.6	0.00e+00	0	44	104	0	60	35777
2026-01-20 00:08:28.40	231.80	42.53	-47.2	-49.5	3.5	0.00e+00	0	44	104	0	60	36730
2026-01-20 00:08:31.43	230.70	41.37	-46.9	-49.8	3.6	0.00e+00	0	44	104	0	60	37707
2026-01-20 00:08:34.46	229.68	40.23	-47.1	-49.5	3.6	0.00e+00	0	44	104	0	60	36635
2026-01-20 00:08:37.49	228.74	39.12	-46.8	-49.6	3.6	0.00e+00	0	44	104	0	60	37201
2026-01-20 00:08:40.52	227.86	38.05	-47.4	-50.0	3.6	0.00e+00	0	44	104	0	60	38583
2026-01-20 00:08:43.54	227.04	37.01	-47.0	-50.0	3.6	0.00e+00	0	44	104	0	60	38739
2026-01-20 00:08:46.57	226.27	35.99	-46.9	-49.4	3.6	0.00e+00	0	44	104	0	60	36300
2026-01-20 00:08:49.60	225.54	35.01	-46.5	-49.9	3.6	0.00e+00	0	44	104	0	60	38383
2026-01-20 00:08:52.63	224.87	34.06	-46.9	-49.5	3.6	0.00e+00	0	44	104	0	60	36662
2026-01-20 00:08:55.66	224.23	33.13	-45.9	-49.4	3.6	0.00e+00	0	44	104	0	60	36155
2026-01-20 00:08:58.69	223.64	32.24	-47.3	-49.8	3.6	0.00e+00	0	44	104	0	60	37763
2026-01-20 00:09:01.72	223.07	31.37	-46.2	-50.0	3.5	0.00e+00	0	44	104	0	60	38702
2026-01-20 00:09:04.75	222.54	30.52	-47.2	-49.8	3.6	0.00e+00	0	44	104	0	60	37825
2026-01-20 00:09:07.78	222.04	29.71	-46.3	-49.9	3.6	0.00e+00	0	44	104	0	60	38076
2026-01-20 00:09:10.81	221.56	28.91	-46.9	-49.5	3.6	0.00e+00	0	44	104	0	60	36648
2026-01-20 00:09:13.84	221.11	28.14	-45.9	-49.3	3.6	0.00e+00	0	43	104	0	60	35662
2026-01-20 00:09:16.87	220.68	27.40	-46.9	-49.4	3.6	0.00e+00	0	44	104	0	60	36268
2026-01-20 00:09:19.90	220.27	26.67	-46.2	-49.2	3.6	0.00e+00	0	44	104	0	60	35201
2026-01-20 00:09:22.92	219.89	25.97	-46.5	-49.1	3.6	0.00e+00	0	44	104	0	60	35061
2026-01-20 00:09:25.96	219.52	25.29	-46.3	-49.2	3.6	0.00e+00	0	44	104	0	60	35296
2026-01-20 00:09:28.99	219.17	24.63	-46.8	-49.3	3.6	0.00e+00	0	44	104	0	60	35713
2026-01-20 00:09:32.01	218.83	23.98	-46.5	-49.2	3.6	0.00e+00	0	44	104	0	60	35497
2026-01-20 00:09:35.04	218.51	23.36	-46.7	-49.3	3.6	0.00e+00	0	44	104	0	60	35628
2026-01-20 00:09:38.07	218.21	22.75	-46.9	-49.6	3.6	0.00e+00	0	44	104	0	60	37124
2026-01-20 00:09:41.10	217.92	22.15	-47.0	-49.3	3.6	0.00e+00	0	44	104	0	60	35926
2026-01-20 00:09:44.13	217.64	21.58	-46.8	-49.4	3.6	0.00e+00	0	44	104	0	60	35942
2026-01-20 00:09:47.15	217.37	21.02	-46.7	-49.3	3.6	0.00e+00	0	44	104	0	60	35749
2026-01-20 00:09:50.18	217.11	20.47	-46.8	-49.3	3.6	0.00e+00	0	44	104	0	60	35541
2026-01-20 00:09:53.20	216.87	19.94	-46.8	-49.2	3.6	0.00e+00	0	44	104	0	60	35390
2026-01-20 00:09:56.23	216.63	19.42	-47.3	-49.7	3.6	0.00e+00	0	44	104	0	60	37339
2026-01-20 00:09:59.26	216.40	18.91	-47.0	-49.6	3.6	0.00e+00	0	44	104	0	60	36902
2026-01-20 00:10:02.29	216.18	18.41	-47.0	-49.4	3.6	0.00e+00	0	44	104	0	60	36267
2026-01-20 00:10:05.32	215.97	17.93	-46.9	-49.2	3.6	0.00e+00	0	44	104	0	60	35406
2026-01-20 00:10:08.35	215.77	17.46	-47.9	-50.2	3.6	0.00e+00	0	44	104	0	60	39789
2026-01-20 00:10:11.38	215.57	17.00	-47.1	-49.6	3.6	0.00e+00	0	44	104	0	60	37196
2026-01-20 00:10:14.41	215.39	16.55	-47.7	-50.1	3.6	0.00e+00	0	44	104	0	60	39040
2026-01-20 00:10:17.43	215.21	16.11	-48.0	-50.7	3.6	0.00e+00	0	44	104	0	60	42110
2026-01-20 00:10:20.46	215.03	15.68	-46.8	-49.6	3.6	0.00e+00	0	44	104	0	60	37063
2026-01-20 00:10:23.50	214.86	15.26	-47.2	-49.8	3.6	0.00e+00	0	44	104	0	60	37648
2026-01-20 00:10:26.52	214.70	14.85	-46.7	-49.4	3.6	0.00e+00	0	44	104	0	60	36025
2026-01-20 00:10:29.55	214.54	14.44	-47.9	-50.3	3.6	0.00e+00	0	44	104	0	60	39999
2026-01-20 00:10:32.58	214.39	14.05	-47.9	-50.2	3.6	0.00e+00	0	44	104	0	60	39740
2026-01-20 00:10:35.61	214.24	13.66	-47.5	-49.8	3.6	0.00e+00	0	44	104	0	60	37975
2026-01-20 00:10:38.64	214.10	13.28	-47.2	-50.0	3.6	0.00e+00	0	44	104	0	60	38842
2026-01-20 00:10:41.67	213.96	12.91	-47.2	-50.0	3.6	0.00e+00	0	44	104	0	60	38528
2026-01-20 00:10:44.70	213.82	12.54	-47.1	-49.5	3.6	0.00e+00	0	44	104	0	60	36543
2026-01-20 00:10:47.73	213.69	12.19	-47.5	-50.2	3.6	0.00e+00	0	44	104	0	60	39726
2026-01-20 00:10:50.76	213.57	11.83	-47.3	-49.7	3.6	0.00e+00	0	44	104	0	60	37522
2026-01-20 00:10:53.79	213.45	11.49	-48.0	-50.4	3.6	0.00e+00	0	44	104	0	60	40574
2026-01-20 00:10:56.82	213.33	11.15	-47.1	-49.9	3.6	0.00e+00	0	44	104	0	60	38074
2026-01-20 00:10:59.84	213.21	10.82	-49.1	-51.7	3.6	0.00e+00	0	44	104	0	60	47021
2026-01-20 00:11:02.87	213.10	10.49	-47.3	-49.7	3.6	0.00e+00	0	44	104	0	60	37334
2026-01-20 00:11:05.89	212.99	10.17	-47.0	-49.6	3.6	0.00e+00	0	44	104	0	60	37041
2026-01-20 00:11:08.92	212.89	9.85	-46.8	-49.1	3.6	0.00e+00	0	44	104	0	60	35000
2026-01-20 00:11:11.95	212.79	9.54	-47.1	-49.4	3.6	0.00e+00	0	44	104	0	60	36343
2026-01-20 00:11:14.98	212.69	9.24	-47.2	-49.9	3.6	0.00e+00	0	44	104	0	60	38073
2026-01-20 00:11:18.01	212.59	8.93	-47.7	-50.0	3.6	0.00e+00	0	44	104	0	60	38819
2026-01-20 00:11:21.04	212.50	8.64	-47.1	-49.6	3.6	0.00e+00	0	44	104	0	60	36809
2026-01-20 00:11:24.06	212.41	8.35	-46.3	-48.7	3.5	0.00e+00	0	44	104	0	60	33442
2026-01-20 00:11:27.09	212.32	8.06	-46.4	-48.8	3.6	0.00e+00	0	44	104	0	60	33748
2026-01-20 00:11:30.12	212.23	7.77	-46.3	-48.7	3.6	0.00e+00	0	44	104	0	60	33451
2026-01-20 00:11:33.15	212.15	7.49	-47.3	-49.7	3.6	0.00e+00	0	44	104	0	60	37219
2026-01-20 00:11:36.18	212.06	7.22	-46.2	-48.6	3.6	0.00e+00	0	44	104	0	60	32917
2026-01-20 00:11:39.20	211.98	6.95	-46.1	-48.5	3.6	0.00e+00	0	44	104	0	60	32608
2026-01-20 00:11:42.23	211.91	6.68	-46.0	-48.5	3.6	0.00e+00	0	44	104	0	60	32414
2026-01-20 00:11:45.26	211.83	6.42	-46.2	-48.5	3.6	0.00e+00	0	44	104	0	60	32767
2026-01-20 00:11:48.29	211.76	6.15	-45.8	-48.1	3.6	0.00e+00	0	44	104	0	60	31183
2026-01-20 00:11:51.31	211.68	5.90	-46.1	-48.4	3.6	0.00e+00	0	44	104	0	60	32246
2026-01-20 00:11:54.34	211.61	5.64	-46.8	-49.1	3.6	0.00e+00	0	44	104	0	60	35029
2026-01-20 00:11:57.37	211.54	5.39	-46.4	-48.7	3.6	0.00e+00	0	44	104	0	60	33190
2026-01-20 00:12:00.40	211.48	5.14	-45.9	-48.2	3.6	0.00e+00	0	44	104	0	60	31383
2026-01-20 00:12:03.43	211.41	4.90	-45.8	-48.3	3.6	0.00e+00	0	44	104	0	60	31837
2026-01-20 00:12:06.45	211.35	4.66	-46.0	-48.3	3.6	0.00e+00	0	44	104	0	60	31976
2026-01-20 00:12:09.48	211.28	4.42	-45.7	-48.0	3.6	0.00e+00	0	44	104	0	60	30785
2026-01-20 00:12:12.50	211.22	4.18	-45.6	-48.0	3.6	0.00e+00	0	44	104	0	60	30730
2026-01-20 00:12:15.53	211.16	3.95	-45.5	-48.0	3.6	0.00e+00	0	44	104	0	60	30636
2026-01-20 00:12:18.56	211.11	3.72	-45.7	-48.1	3.6	0.00e+00	0	44	104	0	60	31182
2026-01-20 00:12:21.59	211.05	3.49	-45.4	-47.7	3.6	0.00e+00	0	44	104	0	60	29662
2026-01-20 00:12:24.62	210.99	3.26	-45.3	-47.6	3.6	0.00e+00	0	44	104	0	60	29487
2026-01-20 00:12:27.65	210.94	3.04	-45.4	-47.8	3.6	0.00e+00	0	44	104	0	60	30174
2026-01-20 00:12:30.68	210.89	2.82	-46.5	-48.8	3.6	0.00e+00	0	44	104	0	60	33666
2026-01-20 00:12:33.71	210.83	2.60	-46.9	-49.2	3.6	0.00e+00	0	44	104	0	60	35450
2026-01-20 00:12:36.74	210.78	2.38	-47.0	-49.3	3.6	0.00e+00	0	44	104	0	60	35895
2026-01-20 00:12:39.77	210.73	2.17	-47.7	-50.0	3.6	0.00e+00	0	44	104	0	60	38907
2026-01-20 00:12:42.80	210.68	1.96	-49.6	-51.9	3.6	0.00e+00	0	44	104	0	60	48478
2026-01-20 00:12:45.83	210.64	1.74	-48.5	-50.9	3.6	0.00e+00	0	44	104	0	60	42971
2026-01-20 00:12:48.86	210.59	1.54	-48.9	-51.2	3.6	0.00e+00	0	44	104	0	60	44598
2026-01-20 00:12:51.89	210.54	1.33	-49.2	-51.6	3.6	0.00e+00	0	44	104	0	60	46469
2026-01-20 00:12:54.91	210.50	1.13	-49.0	-51.3	3.6	0.00e+00	0	44	104	0	60	45215
2026-01-20 00:12:57.94	210.46	0.92	-49.7	-52.1	3.6	0.00e+00	0	44	104	0	60	49309
2026-01-20 00:13:00.98	210.41	0.72	-48.7	-51.0	3.6	0.00e+00	0	44	104	0	60	43424
2026-01-20 00:13:04.01	210.37	0.52	-49.8	-52.1	3.6	0.00e+00	0	44	104	0	60	49406
2026-01-20 00:13:07.04	210.33	0.32	-49.4	-51.8	3.6	0.00e+00	0	44	104	0	60	47528
2026-01-20 00:13:10.07	210.29	0.13	-49.2	-51.5	3.6	0.00e+00	0	44	104	0	60	46274
2026-01-20 00:13:13.09	210.25	-0.07	-49.1	-51.5	3.6	0.00e+00	0	44	104	0	60	45877

#Closed at: 2026-01-20 00:13:13
#Recorded file [0 MB]: D:/lorett/data/35029_260120_120139.dat