passes_logs/2026/01/20/R4.6S_Anadyr/R4.6S_Anadyr__20260120_020300_AQUA_rec.log

#Pass ID: 20260120_020300_AQUA
#Satellite: AQUA
#Configuration: AQUA
#almurnet v.1.7.20251203
#Start time: 2026-01-20 02:03:02

#Version: 2.2.20231116
#Station: R4.6S_Anadyr
#Location: 177.4865 lon 64.73178 lat
#TLE: 1 27424U 02022A   26019.27629806  .00001032  00000+0  21655-3 0  9990
#TLE: 2 27424  98.4090 345.7756 0001997  73.0764  31.8912 14.61830109261513

#Time	Az	El	Level	Level2	SNR	BER	BlckErr	Temp	State	Recorded	gain1	gain2
2026-01-20 02:03:02.90	158.77	0.15	-53.1	-68.0	3.6	1.51e+00	0	39	0	0	60	91088
2026-01-20 02:03:06.94	158.79	0.40	-53.0	-70.8	3.5	3.02e+01	0	40	104	0	60	133665
2026-01-20 02:03:10.98	158.82	0.66	-52.2	-70.0	3.5	3.02e+01	0	41	104	0	60	121689
2026-01-20 02:03:15.01	158.84	0.91	-51.9	-69.7	3.5	3.02e+01	0	41	104	0	60	117806
2026-01-20 02:03:19.05	158.86	1.17	-52.2	-70.0	3.5	3.02e+01	0	41	104	0	60	122143
2026-01-20 02:03:23.09	158.89	1.43	-51.0	-68.8	3.5	3.02e+01	0	41	104	0	60	106183
2026-01-20 02:03:27.13	158.91	1.70	-49.9	-67.5	3.5	3.02e+01	0	41	104	0	60	91372
2026-01-20 02:03:31.17	158.93	1.97	-49.9	-66.9	3.5	3.02e+01	0	41	104	0	60	85143
2026-01-20 02:03:35.21	158.96	2.24	-49.8	-67.2	3.5	3.02e+01	0	41	104	0	60	88026
2026-01-20 02:03:39.25	158.98	2.51	-49.9	-67.5	3.5	3.02e+01	0	41	104	0	60	91017
2026-01-20 02:03:43.29	159.01	2.79	-49.7	-65.2	3.5	3.02e+01	0	41	104	0	60	70066
2026-01-20 02:03:47.34	159.03	3.07	-49.7	-64.0	4.2	3.02e+01	0	41	104	0	60	60735
2026-01-20 02:03:51.38	159.06	3.35	-48.4	-53.7	12.9	3.02e+01	0	41	0	1572864	60	18665
2026-01-20 02:03:55.42	159.08	3.63	-44.6	-47.0	20.5	3.02e+01	0	41	0	8912896	60	8589
2026-01-20 02:03:59.45	159.11	3.92	-42.3	-44.0	23.8	3.02e+01	0	41	0	16252928	60	6065
2026-01-20 02:04:03.49	159.14	4.21	-42.9	-44.6	23.4	3.02e+01	0	41	0	21495808	60	6518
2026-01-20 02:04:07.53	159.16	4.51	-41.7	-43.2	24.8	3.02e+01	0	41	0	24641536	58	6258
2026-01-20 02:04:11.57	159.19	4.81	-41.2	-42.7	25.5	3.02e+01	0	41	0	31981568	58	5918
2026-01-20 02:04:15.61	159.22	5.11	-41.7	-43.2	25.6	3.02e+01	0	41	0	39845888	58	6221
2026-01-20 02:04:19.65	159.24	5.42	-41.9	-43.5	25.2	3.02e+01	0	41	0	47185920	58	6437
2026-01-20 02:04:23.69	159.27	5.73	-42.4	-44.0	24.8	3.02e+01	0	41	0	55050240	58	6845
2026-01-20 02:04:27.73	159.30	6.05	-42.2	-43.7	22.9	3.02e+01	0	41	0	62390272	58	6633
2026-01-20 02:04:31.77	159.33	6.37	-42.9	-44.4	24.9	3.02e+01	0	41	0	70254592	58	7174
2026-01-20 02:04:35.81	159.36	6.69	-40.4	-41.8	26.1	3.02e+01	0	41	0	77594624	56	5969
2026-01-20 02:04:39.85	159.38	7.02	-42.4	-43.9	25.5	3.02e+01	0	41	0	84934656	58	6800
2026-01-20 02:04:43.89	159.41	7.35	-41.8	-43.3	26.2	3.02e+01	0	41	0	92798976	58	6303
2026-01-20 02:04:47.93	159.44	7.69	-42.2	-43.7	25.4	3.02e+01	0	41	0	100139008	58	6578
2026-01-20 02:04:51.97	159.47	8.04	-42.4	-43.9	24.5	3.02e+01	0	41	0	108003328	60	5999
2026-01-20 02:04:56.01	159.51	8.38	-40.5	-41.9	25.9	3.02e+01	0	41	0	115343360	56	6017
2026-01-20 02:05:00.05	159.54	8.74	-39.9	-41.3	27.2	3.02e+01	0	41	0	123207680	54	6288
2026-01-20 02:05:04.09	159.57	9.10	-41.1	-42.5	26.9	3.02e+01	0	41	0	130547712	54	7229
2026-01-20 02:05:08.12	159.60	9.46	-40.1	-41.4	27.3	3.02e+01	0	41	0	138412032	56	5669
2026-01-20 02:05:12.16	159.63	9.84	-39.0	-40.3	28.3	3.02e+01	0	41	0	145752064	52	6288
2026-01-20 02:05:16.20	159.67	10.22	-39.5	-40.8	28.4	3.02e+01	0	41	0	153092096	54	5928
2026-01-20 02:05:20.24	159.70	10.60	-38.0	-39.3	28.5	3.02e+01	0	41	0	160956416	52	5617
2026-01-20 02:05:24.28	159.74	10.99	-38.6	-39.8	28.8	3.02e+01	0	41	0	168296448	52	5961
2026-01-20 02:05:28.31	159.77	11.39	-39.1	-40.3	28.7	3.02e+01	0	41	0	176160768	52	6314
2026-01-20 02:05:32.35	159.81	11.80	-37.6	-38.8	28.8	3.02e+01	0	41	0	183500800	50	5991
2026-01-20 02:05:36.39	159.84	12.21	-37.4	-38.6	28.8	3.02e+01	0	41	0	191365120	50	5825
2026-01-20 02:05:40.43	159.88	12.63	-38.6	-39.9	28.5	3.02e+01	0	41	0	198705152	50	6730
2026-01-20 02:05:44.47	159.92	13.06	-38.3	-39.6	28.8	3.02e+01	0	41	0	206569472	50	6509
2026-01-20 02:05:48.51	159.96	13.50	-38.6	-39.8	28.7	3.02e+01	0	41	0	213909504	52	5993
2026-01-20 02:05:52.55	160.00	13.95	-38.0	-39.2	29.2	3.02e+01	0	41	0	221249536	50	6268
2026-01-20 02:05:56.60	160.04	14.41	-37.9	-39.2	29.3	3.02e+01	0	41	0	229113856	50	6214
2026-01-20 02:06:00.63	160.08	14.88	-37.7	-38.9	29.4	3.02e+01	0	41	0	236453888	50	6041
2026-01-20 02:06:04.67	160.12	15.35	-37.6	-38.8	29.3	3.02e+01	0	41	0	244318208	50	5941
2026-01-20 02:06:08.71	160.17	15.84	-37.6	-38.8	29.1	3.02e+01	0	41	0	251658240	50	5974
2026-01-20 02:06:12.74	160.21	16.34	-37.7	-38.9	29.2	3.02e+01	0	41	0	259522560	50	6025
2026-01-20 02:06:16.78	160.26	16.85	-38.1	-39.3	29.4	3.02e+01	0	41	0	266862592	50	6312
2026-01-20 02:06:20.82	160.30	17.37	-37.7	-38.9	29.3	3.02e+01	0	41	0	274726912	50	5999
2026-01-20 02:06:24.86	160.35	17.91	-37.4	-38.6	29.3	3.02e+01	0	41	0	282066944	50	5808
2026-01-20 02:06:28.91	160.40	18.45	-37.9	-39.1	29.2	3.02e+01	0	41	0	289406976	50	6162
2026-01-20 02:06:32.94	160.45	19.01	-39.2	-40.5	27.8	3.02e+01	0	41	0	297271296	50	7273
2026-01-20 02:06:36.98	160.50	19.59	-37.3	-38.5	29.4	3.02e+01	0	41	0	304611328	50	5755
2026-01-20 02:06:41.02	160.56	20.18	-37.9	-39.1	29.3	3.02e+01	0	41	0	312475648	50	6163
2026-01-20 02:06:45.06	160.61	20.79	-38.5	-39.7	29.2	3.02e+01	0	41	0	319815680	52	5909
2026-01-20 02:06:49.10	160.67	21.41	-38.6	-39.9	29.0	3.02e+01	0	41	0	327680000	52	6000
2026-01-20 02:06:53.14	160.73	22.05	-38.4	-39.6	28.8	3.02e+01	0	41	0	335020032	52	5858
2026-01-20 02:06:57.18	160.79	22.71	-38.3	-39.5	29.0	3.02e+01	0	41	0	342884352	52	5742
2026-01-20 02:07:01.22	160.85	23.39	-37.9	-39.2	29.1	3.02e+01	0	41	0	350224384	52	5536
2026-01-20 02:07:05.26	160.92	24.08	-38.0	-39.3	29.0	3.02e+01	0	41	0	357564416	50	6280
2026-01-20 02:07:09.30	160.98	24.80	-38.9	-40.1	29.2	3.02e+01	0	42	0	365428736	52	6186
2026-01-20 02:07:13.34	161.06	25.54	-39.2	-40.4	28.8	3.02e+01	0	41	0	372768768	52	6415
2026-01-20 02:07:17.38	161.13	26.30	-39.1	-40.4	29.3	3.02e+01	0	41	0	380633088	52	6360
2026-01-20 02:07:21.41	161.21	27.09	-38.2	-39.4	29.5	3.02e+01	0	41	0	387973120	52	5720
2026-01-20 02:07:25.45	161.28	27.90	-39.1	-40.3	29.0	3.02e+01	0	41	0	395837440	52	6335
2026-01-20 02:07:29.49	161.37	28.74	-40.0	-41.3	29.0	3.02e+01	0	41	0	403177472	54	6325
2026-01-20 02:07:33.53	161.46	29.61	-40.6	-41.9	28.4	3.02e+01	0	41	0	411041792	56	6025
2026-01-20 02:07:37.56	161.55	30.50	-38.3	-39.5	29.6	3.02e+01	0	41	0	418381824	52	5783
2026-01-20 02:07:41.60	161.64	31.42	-37.5	-38.7	29.8	3.02e+01	0	41	0	425721856	50	5899
2026-01-20 02:07:45.64	161.74	32.38	-37.4	-38.6	29.4	3.02e+01	0	41	0	433586176	50	5795
2026-01-20 02:07:49.67	161.85	33.37	-37.7	-38.9	29.4	3.02e+01	0	41	0	440926208	50	6061
2026-01-20 02:07:53.71	161.96	34.40	-38.8	-40.0	29.1	3.02e+01	0	41	0	448790528	52	6080
2026-01-20 02:07:57.75	162.08	35.46	-38.4	-39.7	28.6	3.02e+01	0	41	0	456130560	52	5877
2026-01-20 02:08:01.79	162.21	36.57	-40.4	-41.6	28.1	3.02e+01	0	41	0	463994880	54	6551
2026-01-20 02:08:05.83	162.34	37.71	-40.0	-41.3	27.8	3.02e+01	0	41	0	471334912	54	6301
2026-01-20 02:08:09.87	162.49	38.90	-40.0	-41.3	27.7	3.02e+01	0	41	0	479199232	54	6298
2026-01-20 02:08:13.91	162.64	40.13	-40.5	-41.8	27.9	3.02e+01	0	41	0	486539264	56	5937
2026-01-20 02:08:17.95	162.81	41.41	-40.1	-41.4	28.4	3.02e+01	0	41	0	493879296	56	5671
2026-01-20 02:08:21.98	162.98	42.73	-41.4	-42.8	27.6	3.02e+01	0	41	0	501743616	54	7508
2026-01-20 02:08:26.02	163.18	44.11	-38.2	-39.5	29.3	3.02e+01	0	41	0	509083648	52	5728
2026-01-20 02:08:30.06	163.39	45.54	-37.6	-38.8	29.4	3.02e+01	0	41	0	516947968	50	5988
2026-01-20 02:08:34.10	163.62	47.03	-37.6	-38.8	29.6	3.02e+01	0	41	0	524288000	50	5961
2026-01-20 02:08:38.14	163.87	48.57	-38.1	-39.3	29.3	3.02e+01	0	41	0	532152320	50	6297
2026-01-20 02:08:42.17	164.14	50.17	-37.4	-38.5	29.9	3.02e+01	0	41	0	539492352	50	5779
2026-01-20 02:08:46.21	164.45	51.83	-37.3	-38.4	30.0	3.02e+01	0	41	0	547356672	50	5709
2026-01-20 02:08:50.24	164.79	53.54	-38.3	-39.5	29.7	3.02e+01	0	41	0	554696704	52	5756
2026-01-20 02:08:54.28	165.17	55.33	-39.2	-40.4	29.5	3.02e+01	0	41	0	562036736	52	6377
2026-01-20 02:08:58.32	165.61	57.17	-38.5	-39.8	29.2	3.02e+01	0	41	0	569901056	52	5929
2026-01-20 02:09:02.36	166.10	59.08	-39.4	-40.7	28.6	3.02e+01	0	41	0	577241088	52	6603
2026-01-20 02:09:06.40	166.68	61.05	-39.4	-40.7	28.0	3.02e+01	0	41	0	585105408	52	6584
2026-01-20 02:09:10.44	167.35	63.08	-41.8	-43.1	26.8	3.02e+01	0	41	0	592445440	58	6202
2026-01-20 02:09:14.48	168.14	65.17	-43.0	-44.5	25.5	3.02e+01	0	41	0	600309760	60	6464
2026-01-20 02:09:18.52	169.10	67.31	-43.8	-45.3	25.1	3.02e+01	0	41	0	607649792	60	7111
2026-01-20 02:09:22.55	170.28	69.50	-45.3	-47.0	24.0	3.02e+01	0	41	0	614989824	60	8640
2026-01-20 02:09:26.59	171.76	71.73	-43.5	-45.0	25.3	3.02e+01	0	41	0	622854144	60	6853
2026-01-20 02:09:30.63	173.69	74.01	-43.3	-44.7	25.9	3.02e+01	0	41	0	630194176	60	6635
2026-01-20 02:09:34.67	176.28	76.30	-41.9	-43.3	26.7	3.02e+01	0	42	0	638058496	58	6279
2026-01-20 02:09:38.71	179.96	78.59	-42.3	-43.7	26.7	3.02e+01	0	41	0	645398528	60	5867
2026-01-20 02:09:42.75	185.50	80.84	-39.4	-40.6	28.5	3.02e+01	0	41	0	653262848	54	5825
2026-01-20 02:09:46.79	194.59	82.98	-39.8	-41.1	28.9	3.02e+01	0	41	0	660602880	54	6143
2026-01-20 02:09:50.82	210.81	84.81	-40.9	-42.2	28.3	3.02e+01	0	41	0	668467200	56	6238
2026-01-20 02:09:54.86	239.31	85.87	-39.9	-41.1	29.1	3.02e+01	0	41	0	675807232	54	6158
2026-01-20 02:09:58.90	273.24	85.56	-39.5	-40.7	29.0	3.02e+01	0	41	0	683147264	52	6643
2026-01-20 02:10:02.94	296.12	84.09	-39.5	-40.7	28.4	3.02e+01	0	41	0	691011584	54	5925
2026-01-20 02:10:06.98	308.68	82.09	-40.1	-41.3	28.6	3.02e+01	0	41	0	698351616	54	6293
2026-01-20 02:10:11.02	315.95	79.89	-41.2	-42.5	28.1	3.02e+01	0	41	0	706215936	56	6461
2026-01-20 02:10:15.05	320.54	77.62	-42.1	-43.5	27.0	3.02e+01	0	41	0	713555968	58	6472
2026-01-20 02:10:19.09	323.69	75.33	-42.2	-43.6	26.3	3.02e+01	0	41	0	721420288	60	5819
2026-01-20 02:10:23.13	325.96	73.05	-42.5	-44.0	26.1	3.02e+01	0	41	0	728760320	58	6809
2026-01-20 02:10:27.18	327.68	70.79	-43.6	-45.2	25.4	3.02e+01	0	41	0	736624640	60	6991
2026-01-20 02:10:31.22	329.02	68.57	-44.9	-46.5	24.6	3.02e+01	0	42	0	743964672	60	8156
2026-01-20 02:10:35.26	330.10	66.40	-44.2	-45.7	24.8	3.02e+01	0	41	0	751828992	60	7451
2026-01-20 02:10:39.30	330.98	64.29	-43.0	-44.4	26.8	3.02e+01	0	41	0	759169024	60	6394
2026-01-20 02:10:43.34	331.72	62.23	-42.4	-43.7	27.8	3.02e+01	0	41	0	766509056	58	6619
2026-01-20 02:10:47.38	332.35	60.23	-41.9	-43.2	27.8	3.02e+01	0	41	0	774373376	58	6272
2026-01-20 02:10:51.42	332.89	58.29	-41.1	-42.3	29.0	3.02e+01	0	41	0	781713408	54	7114
2026-01-20 02:10:55.45	333.35	56.42	-39.5	-40.7	29.4	3.02e+01	0	41	0	789577728	54	5860
2026-01-20 02:10:59.49	333.76	54.61	-38.3	-39.5	28.9	3.02e+01	0	42	0	796917760	52	5773
2026-01-20 02:11:03.52	334.13	52.86	-37.4	-38.5	30.0	3.02e+01	0	41	0	804782080	48	6481
2026-01-20 02:11:07.56	334.45	51.17	-39.9	-41.2	28.5	3.02e+01	0	41	0	812122112	54	6220
2026-01-20 02:11:11.61	334.75	49.54	-40.2	-41.4	28.8	3.02e+01	0	42	0	819462144	54	6393
2026-01-20 02:11:15.64	335.01	47.97	-39.3	-40.6	29.0	3.02e+01	0	42	0	827326464	52	6502
2026-01-20 02:11:19.68	335.25	46.46	-38.8	-40.0	29.1	3.02e+01	0	42	0	834666496	52	6081
2026-01-20 02:11:23.72	335.48	45.00	-38.1	-39.3	28.7	3.02e+01	0	42	0	842530816	50	6326
2026-01-20 02:11:27.76	335.68	43.60	-41.1	-42.3	28.1	3.02e+01	0	41	0	849870848	56	6332
2026-01-20 02:11:31.80	335.87	42.25	-43.8	-45.3	27.5	3.02e+01	0	41	0	857735168	58	7945
2026-01-20 02:11:35.84	336.04	40.94	-41.0	-42.2	28.2	3.02e+01	0	42	0	865075200	56	6266
2026-01-20 02:11:39.88	336.20	39.69	-41.3	-42.6	27.7	3.02e+01	0	42	0	872939520	56	6518
2026-01-20 02:11:43.92	336.35	38.48	-41.7	-43.0	28.0	3.02e+01	0	41	0	880279552	58	6086
2026-01-20 02:11:47.96	336.49	37.31	-39.5	-40.8	28.7	3.02e+01	0	41	0	887619584	56	5286
2026-01-20 02:11:51.99	336.62	36.19	-39.9	-41.1	28.0	3.02e+01	0	42	0	895483904	56	5487
2026-01-20 02:11:56.03	336.75	35.11	-39.2	-40.4	29.2	3.02e+01	0	41	0	902823936	54	5693
2026-01-20 02:12:00.07	336.87	34.07	-39.9	-41.1	28.6	3.02e+01	0	42	0	910688256	54	6202
2026-01-20 02:12:04.11	336.98	33.06	-37.6	-38.7	29.7	3.02e+01	0	41	0	918028288	50	5919
2026-01-20 02:12:08.15	337.08	32.08	-38.9	-40.1	29.7	3.02e+01	0	41	0	925892608	50	6919
2026-01-20 02:12:12.20	337.18	31.14	-39.8	-41.0	29.2	3.02e+01	0	42	0	933232640	52	6852
2026-01-20 02:12:16.24	337.28	30.23	-39.9	-41.1	29.7	3.02e+01	0	41	0	941096960	52	6923
2026-01-20 02:12:20.28	337.37	29.35	-39.4	-40.6	29.5	3.02e+01	0	41	0	948436992	54	5850
2026-01-20 02:12:24.32	337.46	28.50	-39.3	-40.5	29.1	3.02e+01	0	41	0	956301312	54	5771
2026-01-20 02:12:28.36	337.54	27.67	-39.9	-41.1	29.4	3.02e+01	0	41	0	963641344	52	6913
2026-01-20 02:12:32.40	337.62	26.88	-37.9	-39.1	29.3	3.02e+01	0	41	0	970981376	50	6151
2026-01-20 02:12:36.44	337.69	26.10	-38.2	-39.4	29.3	3.02e+01	0	42	0	978845696	50	6365
2026-01-20 02:12:40.48	337.77	25.35	-38.8	-40.0	29.0	3.02e+01	0	42	0	986185728	52	6130
2026-01-20 02:12:44.52	337.84	24.62	-40.0	-41.3	28.8	3.02e+01	0	41	0	994050048	54	6283
2026-01-20 02:12:48.56	337.91	23.92	-39.8	-41.1	28.8	3.02e+01	0	41	0	1001390080	54	6149
2026-01-20 02:12:52.61	337.97	23.23	-39.5	-40.7	29.0	3.02e+01	0	41	0	1009254400	54	5875
2026-01-20 02:12:56.64	338.04	22.56	-39.3	-40.5	29.0	3.02e+01	0	41	0	1016594432	52	6475
2026-01-20 02:13:00.68	338.10	21.91	-39.4	-40.6	29.3	3.02e+01	0	41	0	1024458752	52	6527
2026-01-20 02:13:04.72	338.16	21.28	-38.2	-39.4	29.1	3.02e+01	0	41	0	1031798784	52	5722
2026-01-20 02:13:08.76	338.22	20.67	-39.2	-40.4	29.1	3.02e+01	0	41	0	1039663104	52	6421
2026-01-20 02:13:12.80	338.27	20.07	-38.9	-40.1	29.2	3.02e+01	0	41	0	1047003136	52	6156
2026-01-20 02:13:16.84	338.33	19.49	-39.7	-40.9	29.0	3.02e+01	0	42	0	1054343168	52	6796
2026-01-20 02:13:20.88	338.38	18.92	-39.9	-41.1	28.9	3.02e+01	0	42	0	1062207488	54	6199
2026-01-20 02:13:24.92	338.44	18.36	-39.6	-40.8	29.0	3.02e+01	0	42	0	1069547520	52	6701
2026-01-20 02:13:28.96	338.49	17.82	-39.8	-41.0	29.0	3.02e+01	0	41	0	1077411840	54	6129
2026-01-20 02:13:33.00	338.54	17.30	-39.5	-40.7	28.8	3.02e+01	0	42	0	1084751872	54	5900
2026-01-20 02:13:37.05	338.58	16.78	-39.8	-41.0	28.8	3.02e+01	0	42	0	1092616192	52	6845
2026-01-20 02:13:41.08	338.63	16.28	-39.8	-41.0	28.8	3.02e+01	0	42	0	1099956224	52	6873
2026-01-20 02:13:45.12	338.68	15.78	-38.4	-39.6	29.2	3.02e+01	0	42	0	1107820544	50	6539
2026-01-20 02:13:49.16	338.72	15.30	-38.9	-40.2	29.1	3.02e+01	0	42	0	1115160576	52	6208
2026-01-20 02:13:53.20	338.77	14.83	-37.9	-39.1	29.0	3.02e+01	0	42	0	1122500608	50	6174
2026-01-20 02:13:57.24	338.81	14.37	-38.9	-40.2	29.0	3.02e+01	0	42	0	1130364928	52	6215
2026-01-20 02:14:01.28	338.85	13.92	-38.5	-39.7	28.9	3.02e+01	0	42	0	1137704960	52	5885
2026-01-20 02:14:05.32	338.89	13.47	-39.4	-40.6	28.5	3.02e+01	0	42	0	1145569280	52	6544
2026-01-20 02:14:09.36	338.93	13.04	-39.1	-40.4	29.0	3.02e+01	0	42	0	1152909312	52	6352
2026-01-20 02:14:13.40	338.97	12.61	-39.4	-40.7	28.4	3.02e+01	0	42	0	1160773632	52	6601
2026-01-20 02:14:17.44	339.01	12.19	-38.7	-39.9	28.8	3.02e+01	0	42	0	1168113664	52	6040
2026-01-20 02:14:21.48	339.05	11.78	-39.7	-41.0	28.2	3.02e+01	0	42	0	1175977984	54	6080
2026-01-20 02:14:25.52	339.09	11.38	-39.3	-40.5	28.7	3.02e+01	0	42	0	1183318016	52	6482
2026-01-20 02:14:29.56	339.13	10.99	-39.0	-40.3	28.5	3.02e+01	0	42	0	1190658048	52	6313
2026-01-20 02:14:33.59	339.17	10.60	-39.5	-40.7	28.5	3.02e+01	0	42	0	1198522368	52	6610
2026-01-20 02:14:37.63	339.20	10.22	-39.9	-41.2	28.3	3.02e+01	0	42	0	1205862400	54	6246
2026-01-20 02:14:41.67	339.24	9.84	-39.5	-40.7	28.2	3.02e+01	0	42	0	1213726720	54	5919
2026-01-20 02:14:45.71	339.27	9.47	-40.8	-42.1	28.1	3.02e+01	0	42	0	1221066752	56	6179
2026-01-20 02:14:49.75	339.31	9.11	-40.5	-41.8	27.9	3.02e+01	0	42	0	1228931072	56	5975
2026-01-20 02:14:53.79	339.34	8.75	-41.3	-42.6	27.4	3.02e+01	0	42	0	1236271104	56	6563
2026-01-20 02:14:57.83	339.38	8.40	-41.4	-42.7	27.5	3.02e+01	0	42	0	1244135424	56	6644
2026-01-20 02:15:01.87	339.41	8.06	-40.8	-42.1	27.4	3.02e+01	0	42	0	1251475456	56	6156
2026-01-20 02:15:05.91	339.44	7.72	-41.3	-42.7	27.0	3.02e+01	0	42	0	1258815488	58	5870
2026-01-20 02:15:09.95	339.48	7.38	-41.2	-42.5	27.3	3.02e+01	0	42	0	1266679808	56	6440
2026-01-20 02:15:13.99	339.51	7.05	-41.9	-43.3	26.6	3.02e+01	0	42	0	1274019840	58	6310
2026-01-20 02:15:18.03	339.54	6.72	-41.7	-43.1	26.9	3.02e+01	0	42	0	1281884160	58	6155
2026-01-20 02:15:22.07	339.57	6.40	-41.3	-42.7	26.9	3.02e+01	0	42	0	1289224192	56	6583
2026-01-20 02:15:26.11	339.60	6.08	-41.6	-43.0	26.1	3.02e+01	0	42	0	1297088512	58	6118
2026-01-20 02:15:30.15	339.64	5.77	-40.9	-42.3	26.4	3.02e+01	0	42	0	1304428544	56	6288
2026-01-20 02:15:34.18	339.67	5.46	-42.9	-44.5	24.9	3.02e+01	0	42	0	1312292864	60	6429
2026-01-20 02:15:38.22	339.70	5.16	-44.2	-46.2	22.2	3.02e+01	0	42	0	1319632896	60	7845
2026-01-20 02:15:42.26	339.73	4.86	-45.0	-47.8	19.3	3.02e+01	0	42	0	1327497216	60	9427
2026-01-20 02:15:46.30	339.76	4.56	-47.3	-51.8	15.0	3.02e+01	0	42	0	1334837248	60	14988
2026-01-20 02:15:50.34	339.79	4.27	-48.1	-55.7	9.9	3.02e+01	0	42	0	1342177280	60	23577
2026-01-20 02:15:54.38	339.82	3.98	-49.7	-62.2	5.5	3.02e+01	0	42	104	1348468736	60	49396
2026-01-20 02:15:58.41	339.85	3.69	-49.5	-65.4	3.6	3.02e+01	0	42	104	1348468736	60	71515
2026-01-20 02:16:02.45	339.87	3.41	-49.8	-66.7	3.5	3.02e+01	0	42	104	1348468736	60	83288
2026-01-20 02:16:06.49	339.90	3.13	-49.0	-66.6	3.5	3.02e+01	0	42	104	1348468736	60	82229
2026-01-20 02:16:10.53	339.93	2.85	-52.1	-70.0	3.5	3.02e+01	0	42	104	1348468736	60	122141
2026-01-20 02:16:14.57	339.96	2.57	-52.8	-70.7	3.5	3.02e+01	0	42	104	1348468736	60	132194
2026-01-20 02:16:18.60	339.99	2.30	-53.6	-71.4	3.5	3.02e+01	0	42	104	1348468736	60	142990
2026-01-20 02:16:22.64	340.02	2.04	-53.6	-71.6	3.5	3.02e+01	0	42	104	1348468736	60	146062
2026-01-20 02:16:26.68	340.04	1.77	-53.0	-70.9	3.5	3.02e+01	0	42	104	1348468736	60	135137
2026-01-20 02:16:30.72	340.07	1.51	-53.8	-71.7	3.5	3.02e+01	0	42	104	1348468736	60	147386
2026-01-20 02:16:34.76	340.10	1.25	-53.7	-71.5	3.5	3.02e+01	0	42	104	1348468736	60	145465
2026-01-20 02:16:38.80	340.13	0.99	-52.1	-70.0	3.5	3.02e+01	0	42	104	1348468736	60	122259
2026-01-20 02:16:42.84	340.15	0.73	-52.9	-70.7	3.5	3.02e+01	0	42	104	1348468736	60	132423
2026-01-20 02:16:46.88	340.18	0.48	-53.5	-71.3	3.5	3.02e+01	0	42	104	1348468736	60	141273
2026-01-20 02:16:50.93	340.21	0.23	-54.0	-71.9	3.5	3.02e+01	0	42	104	1348468736	60	150955
2026-01-20 02:16:54.97	340.23	-0.02	-52.2	-70.1	3.5	3.02e+01	0	42	104	1348468736	60	123491

#Closed at: 2026-01-20 02:16:55
#Recorded file [1348 MB]: D:/lorett/data/35029_260120_140302.dat