passes_logs/2026/01/20/R4.6S_Anadyr/R4.6S_Anadyr__20260120_133107_NOAA_20_JPSS-1_rec.log

#Pass ID: 20260120_133107_NOAA 20 (JPSS-1)
#Satellite: NOAA 20 (JPSS-1)
#Configuration: NOAA 20
#almurnet v.1.7.20251203
#Start time: 2026-01-20 13:31:10

#Version: 2.2.20231116
#Station: R4.6S_Anadyr
#Location: 177.4865 lon 64.73178 lat
#TLE: 1 43013U 17073A   26019.91154542  .00000116  00000+0  76014-4 0  9997
#TLE: 2 43013  98.7642 320.7991 0001304  32.0041 328.1214 14.19537346423438

#Time	Az	El	Level	Level2	SNR	BER	BlckErr	Temp	State	Recorded	gain1	gain2
2026-01-20 13:31:10.58	18.97	0.15	-51.7	-66.7	3.5	1.51e+00	0	40	0	0	60	78484
2026-01-20 13:31:14.61	19.14	0.38	-52.8	-68.1	3.5	1.51e+00	0	41	104	0	60	91414
2026-01-20 13:31:18.65	19.30	0.62	-51.6	-66.9	3.6	1.51e+00	0	41	104	0	60	79650
2026-01-20 13:31:22.69	19.47	0.85	-51.4	-66.7	3.6	1.51e+00	0	41	104	0	60	77925
2026-01-20 13:31:26.73	19.64	1.09	-51.1	-66.4	3.6	1.51e+00	0	41	104	0	60	75310
2026-01-20 13:31:30.77	19.82	1.32	-50.6	-65.9	3.6	1.51e+00	0	41	104	0	60	70949
2026-01-20 13:31:34.81	19.99	1.56	-49.7	-64.8	3.6	1.51e+00	0	41	104	0	60	62850
2026-01-20 13:31:38.84	20.17	1.80	-49.6	-64.8	3.6	1.51e+00	0	41	104	0	60	63116
2026-01-20 13:31:42.88	20.35	2.04	-49.6	-64.9	3.6	1.51e+00	0	41	104	0	60	63217
2026-01-20 13:31:46.93	20.53	2.29	-49.7	-64.8	3.6	1.51e+00	0	41	104	0	60	63046
2026-01-20 13:31:50.97	20.72	2.53	-49.7	-64.2	3.6	1.51e+00	0	41	104	0	60	58562
2026-01-20 13:31:55.00	20.91	2.78	-49.3	-59.4	5.0	1.18e+00	0	41	104	0	60	33748
2026-01-20 13:31:59.04	21.10	3.03	-45.2	-47.6	16.0	0.00e+00	0	42	0	7340032	60	8624
2026-01-20 13:32:03.08	21.30	3.29	-43.7	-45.4	18.5	0.00e+00	2	41	0	14680064	60	6753
2026-01-20 13:32:07.12	21.50	3.54	-47.4	-51.3	12.0	1.14e-04	92	41	0	22020096	60	13306
2026-01-20 13:32:11.15	21.70	3.80	-49.3	-58.0	5.7	1.12e+00	0	42	104	27262976	60	28662
2026-01-20 13:32:15.19	21.90	4.05	-47.5	-51.4	13.0	6.63e-05	28	42	0	29360128	60	13366
2026-01-20 13:32:19.23	22.11	4.31	-48.1	-52.7	11.2	3.29e-04	0	42	0	36700160	60	15525
2026-01-20 13:32:23.26	22.32	4.58	-46.4	-49.1	14.9	1.44e-05	92	42	0	44040192	60	10317
2026-01-20 13:32:27.30	22.53	4.84	-46.3	-48.9	15.5	0.00e+00	0	41	0	51380224	60	10110
2026-01-20 13:32:31.34	22.75	5.11	-46.3	-49.1	15.2	0.00e+00	0	42	0	59768832	60	10268
2026-01-20 13:32:35.37	22.97	5.38	-46.0	-48.4	15.9	0.00e+00	0	42	0	67108864	60	9500
2026-01-20 13:32:39.41	23.20	5.65	-46.4	-49.1	15.5	0.00e+00	92	42	0	74448896	60	10253
2026-01-20 13:32:43.45	23.43	5.93	-46.1	-48.5	15.9	0.00e+00	0	42	0	81788928	60	9643
2026-01-20 13:32:47.49	23.66	6.21	-46.6	-49.5	15.2	0.00e+00	6	42	0	89128960	60	10745
2026-01-20 13:32:51.52	23.90	6.49	-45.8	-48.1	16.4	0.00e+00	0	42	0	97517568	60	9224
2026-01-20 13:32:55.56	24.14	6.77	-45.0	-46.9	17.6	0.00e+00	90	42	0	104857600	60	8022
2026-01-20 13:32:59.60	24.39	7.05	-43.8	-45.4	19.0	0.00e+00	26	42	0	112197632	60	6696
2026-01-20 13:33:03.63	24.64	7.34	-43.6	-45.1	19.5	0.00e+00	36	42	0	119537664	60	6522
2026-01-20 13:33:07.67	24.89	7.63	-43.2	-44.6	20.0	0.00e+00	0	42	0	127926272	60	6150
2026-01-20 13:33:11.70	25.15	7.93	-43.5	-44.9	19.7	0.00e+00	92	42	0	135266304	60	6381
2026-01-20 13:33:15.73	25.42	8.23	-42.8	-44.2	20.5	0.00e+00	62	42	0	142606336	60	5829
2026-01-20 13:33:19.77	25.69	8.53	-42.9	-44.2	20.5	0.00e+00	25	42	0	149946368	58	6567
2026-01-20 13:33:23.81	25.97	8.83	-42.6	-43.8	20.8	0.00e+00	92	42	0	157286400	58	6287
2026-01-20 13:33:27.84	26.25	9.14	-42.4	-43.7	21.1	0.00e+00	0	42	0	165675008	58	6193
2026-01-20 13:33:31.88	26.53	9.45	-42.5	-43.7	20.9	0.00e+00	0	42	0	173015040	58	6235
2026-01-20 13:33:35.92	26.83	9.76	-42.5	-43.8	20.8	0.00e+00	0	42	0	180355072	58	6249
2026-01-20 13:33:39.96	27.12	10.08	-42.7	-43.9	20.7	0.00e+00	92	42	0	187695104	58	6360
2026-01-20 13:33:43.99	27.43	10.40	-41.8	-42.9	21.8	0.00e+00	23	42	0	196083712	56	6343
2026-01-20 13:33:48.03	27.74	10.72	-41.8	-42.9	21.8	0.00e+00	0	41	0	203423744	56	6346
2026-01-20 13:33:52.07	28.06	11.05	-42.1	-43.3	21.5	0.00e+00	0	42	0	210763776	56	6641
2026-01-20 13:33:56.10	28.38	11.38	-41.7	-42.8	21.8	0.00e+00	90	42	0	218103808	56	6284
2026-01-20 13:34:00.14	28.71	11.71	-42.0	-43.1	21.7	0.00e+00	63	42	0	225443840	56	6539
2026-01-20 13:34:04.17	29.05	12.05	-41.6	-42.7	21.9	0.00e+00	63	42	0	233832448	56	6189
2026-01-20 13:34:08.21	29.39	12.39	-41.5	-42.6	22.2	0.00e+00	17	42	0	241172480	56	6117
2026-01-20 13:34:12.25	29.75	12.74	-41.6	-42.6	22.1	0.00e+00	90	42	0	248512512	56	6160
2026-01-20 13:34:16.29	30.11	13.09	-41.2	-42.3	22.5	0.00e+00	0	42	0	255852544	56	5903
2026-01-20 13:34:20.33	30.48	13.44	-41.2	-42.2	22.6	0.00e+00	62	42	0	263192576	56	5885
2026-01-20 13:34:24.36	30.86	13.80	-41.1	-42.1	22.7	0.00e+00	17	42	0	271581184	54	6490
2026-01-20 13:34:28.40	31.25	14.17	-40.5	-41.4	23.3	0.00e+00	92	42	0	278921216	54	6005
2026-01-20 13:34:32.43	31.64	14.53	-40.5	-41.5	23.2	0.00e+00	17	42	0	286261248	54	6042
2026-01-20 13:34:36.47	32.05	14.90	-40.6	-41.5	23.2	0.00e+00	0	42	0	293601280	54	6103
2026-01-20 13:34:40.51	32.46	15.28	-40.7	-41.7	23.0	0.00e+00	0	42	0	301989888	54	6213
2026-01-20 13:34:44.55	32.89	15.66	-41.1	-42.1	22.8	0.00e+00	92	42	0	309329920	54	6472
2026-01-20 13:34:48.58	33.32	16.05	-41.1	-42.1	22.6	0.00e+00	23	42	0	316669952	54	6531
2026-01-20 13:34:52.62	33.77	16.44	-41.2	-42.2	22.8	0.00e+00	22	42	0	324009984	54	6543
2026-01-20 13:34:56.66	34.23	16.83	-41.2	-42.2	22.7	0.00e+00	33	42	0	331350016	54	6572
2026-01-20 13:35:00.70	34.70	17.23	-41.4	-42.4	22.5	0.00e+00	70	42	0	339738624	54	6766
2026-01-20 13:35:04.73	35.18	17.63	-41.7	-42.8	22.3	0.00e+00	0	42	0	347078656	54	7015
2026-01-20 13:35:08.77	35.68	18.04	-42.0	-43.0	22.1	0.00e+00	18	42	0	354418688	56	6463
2026-01-20 13:35:12.81	36.19	18.46	-41.8	-42.9	22.1	0.00e+00	91	42	0	361758720	56	6354
2026-01-20 13:35:16.85	36.71	18.88	-41.9	-42.9	21.9	0.00e+00	0	42	0	370147328	56	6374
2026-01-20 13:35:20.88	37.24	19.30	-42.2	-43.3	21.8	0.00e+00	2	42	0	377487360	56	6641
2026-01-20 13:35:24.92	37.79	19.73	-42.2	-43.4	21.8	0.00e+00	65	42	0	384827392	56	6694
2026-01-20 13:35:28.96	38.36	20.16	-42.1	-43.2	21.9	0.00e+00	92	42	0	392167424	56	6597
2026-01-20 13:35:32.99	38.94	20.60	-41.9	-42.9	22.2	0.00e+00	0	42	0	399507456	56	6386
2026-01-20 13:35:37.03	39.54	21.04	-42.0	-43.0	22.1	0.00e+00	16	42	0	407896064	56	6448
2026-01-20 13:35:41.07	40.15	21.49	-42.0	-43.0	21.9	0.00e+00	0	42	0	415236096	56	6464
2026-01-20 13:35:45.11	40.79	21.94	-41.9	-42.9	22.1	0.00e+00	90	42	0	422576128	56	6355
2026-01-20 13:35:49.15	41.44	22.40	-41.9	-42.9	22.2	0.00e+00	16	42	0	429916160	56	6374
2026-01-20 13:35:53.18	42.11	22.86	-41.6	-42.6	22.5	0.00e+00	14	42	0	437256192	56	6124
2026-01-20 13:35:57.22	42.79	23.33	-41.4	-42.4	22.7	0.00e+00	0	42	0	445644800	56	5994
2026-01-20 13:36:01.25	43.50	23.80	-41.5	-42.5	22.6	0.00e+00	92	42	0	452984832	56	6069
2026-01-20 13:36:05.29	44.23	24.27	-41.2	-42.2	22.9	0.00e+00	0	42	0	460324864	56	5878
2026-01-20 13:36:09.32	44.98	24.75	-40.3	-41.2	23.6	0.00e+00	60	42	0	467664896	54	5884
2026-01-20 13:36:13.35	45.76	25.23	-40.5	-41.4	23.6	0.00e+00	23	42	0	476053504	54	5988
2026-01-20 13:36:17.39	46.56	25.72	-40.3	-41.2	23.7	0.00e+00	92	42	0	483393536	54	5880
2026-01-20 13:36:21.68	47.43	26.24	-40.3	-41.2	23.7	0.00e+00	5	42	0	490733568	54	5894
2026-01-20 13:36:25.72	48.28	26.73	-40.8	-41.7	23.2	0.00e+00	6	42	0	498073600	54	6207
2026-01-20 13:36:29.76	49.16	27.22	-40.6	-41.6	23.4	0.00e+00	0	42	0	505413632	54	6112
2026-01-20 13:36:33.79	50.06	27.71	-41.1	-42.1	23.0	0.00e+00	92	42	0	513802240	54	6488
2026-01-20 13:36:37.83	50.99	28.21	-40.8	-41.7	23.2	0.00e+00	61	42	0	521142272	54	6231
2026-01-20 13:36:41.86	51.95	28.71	-41.4	-42.4	22.7	0.00e+00	0	42	0	528482304	54	6728
2026-01-20 13:36:45.90	52.94	29.21	-42.3	-43.5	21.8	0.00e+00	0	42	0	535822336	56	6771
2026-01-20 13:36:49.94	53.96	29.70	-42.7	-43.9	21.3	0.00e+00	0	42	0	543162368	58	6372
2026-01-20 13:36:53.98	55.01	30.20	-43.0	-44.3	21.0	0.00e+00	0	42	0	551550976	58	6627
2026-01-20 13:36:58.02	56.09	30.69	-43.0	-44.2	21.1	0.00e+00	14	42	0	558891008	58	6552
2026-01-20 13:37:02.05	57.21	31.18	-44.9	-46.6	18.9	0.00e+00	92	42	0	566231040	60	7693
2026-01-20 13:37:06.09	58.36	31.67	-45.6	-47.4	18.0	0.00e+00	0	42	0	573571072	60	8519
2026-01-20 13:37:10.12	59.54	32.15	-44.6	-46.1	19.4	0.00e+00	0	42	0	581959680	60	7281
2026-01-20 13:37:14.16	60.76	32.63	-45.2	-46.9	18.6	0.00e+00	61	42	0	589299712	60	7977
2026-01-20 13:37:18.19	62.01	33.10	-45.4	-47.2	18.4	0.00e+00	92	42	0	596639744	60	8266
2026-01-20 13:37:22.23	63.30	33.56	-44.2	-45.6	19.8	0.00e+00	67	42	0	603979776	60	6910
2026-01-20 13:37:26.27	64.63	34.01	-44.4	-45.9	19.5	0.00e+00	14	42	0	611319808	60	7118
2026-01-20 13:37:30.31	65.99	34.45	-44.3	-45.7	19.7	0.00e+00	0	42	0	619708416	60	7005
2026-01-20 13:37:34.34	67.38	34.88	-43.6	-45.0	20.4	0.00e+00	92	42	0	627048448	60	6396
2026-01-20 13:37:38.38	68.82	35.30	-43.5	-44.8	20.6	0.00e+00	0	42	0	634388480	60	6308
2026-01-20 13:37:42.41	70.29	35.70	-42.6	-43.8	21.5	0.00e+00	19	42	0	641728512	58	6280
2026-01-20 13:37:46.45	71.80	36.09	-41.4	-42.3	22.1	0.00e+00	0	42	0	650117120	56	5964
2026-01-20 13:37:50.49	73.34	36.45	-41.8	-42.9	22.3	0.00e+00	92	42	0	657457152	56	6336
2026-01-20 13:37:54.53	74.92	36.80	-41.9	-42.9	22.2	0.00e+00	0	42	0	664797184	56	6361
2026-01-20 13:37:58.57	76.53	37.13	-42.5	-43.7	21.5	0.00e+00	0	42	0	672137216	56	6947
2026-01-20 13:38:02.60	78.16	37.43	-42.4	-43.5	21.7	0.00e+00	2	42	0	679477248	56	6841
2026-01-20 13:38:06.64	79.83	37.71	-42.9	-44.1	21.2	0.00e+00	92	42	0	687865856	58	6473
2026-01-20 13:38:10.68	81.53	37.97	-42.9	-44.1	21.1	0.00e+00	0	42	0	695205888	58	6526
2026-01-20 13:38:14.71	83.25	38.20	-43.0	-44.2	21.2	0.00e+00	0	42	0	702545920	58	6588
2026-01-20 13:38:18.74	84.99	38.40	-43.1	-44.4	21.0	0.00e+00	0	42	0	709885952	58	6707
2026-01-20 13:38:22.78	86.75	38.58	-43.6	-45.0	20.4	0.00e+00	92	42	0	718274560	60	6401
2026-01-20 13:38:26.82	88.54	38.72	-44.0	-45.4	20.0	0.00e+00	19	42	0	725614592	60	6724
2026-01-20 13:38:30.86	90.33	38.83	-44.6	-46.2	19.1	0.00e+00	20	42	0	732954624	60	7407
2026-01-20 13:38:34.90	92.14	38.92	-44.9	-46.5	18.9	0.00e+00	79	42	0	740294656	60	7675
2026-01-20 13:38:38.93	93.95	38.97	-44.2	-45.6	19.8	0.00e+00	92	42	0	747634688	60	6891
2026-01-20 13:38:42.97	95.77	38.99	-43.7	-45.0	20.3	0.00e+00	0	42	0	756023296	60	6442
2026-01-20 13:38:47.01	97.59	38.98	-43.4	-44.7	20.7	0.00e+00	13	42	0	763363328	60	6186
2026-01-20 13:38:51.04	99.41	38.94	-42.8	-44.0	21.5	0.00e+00	68	42	0	770703360	58	6431
2026-01-20 13:38:55.08	101.22	38.86	-43.4	-44.7	20.5	0.00e+00	90	42	0	778043392	58	6974
2026-01-20 13:38:59.12	103.02	38.75	-44.5	-46.1	19.5	0.00e+00	0	42	0	786432000	60	7263
2026-01-20 13:39:03.16	104.81	38.62	-45.0	-46.7	18.8	0.00e+00	0	42	0	793772032	60	7800
2026-01-20 13:39:07.19	106.58	38.45	-43.7	-45.1	20.4	0.00e+00	90	42	0	801112064	60	6483
2026-01-20 13:39:11.23	108.33	38.26	-44.2	-45.8	19.8	0.00e+00	64	42	0	808452096	60	7009
2026-01-20 13:39:15.27	110.06	38.03	-42.6	-43.7	21.5	0.00e+00	0	42	0	815792128	58	6211
2026-01-20 13:39:19.31	111.77	37.78	-41.6	-42.6	22.7	0.00e+00	0	42	0	824180736	56	6143
2026-01-20 13:39:23.34	113.45	37.51	-42.1	-43.2	22.1	0.00e+00	92	42	0	831520768	56	6567
2026-01-20 13:39:27.38	115.10	37.21	-40.9	-41.8	23.2	0.00e+00	0	42	0	838860800	54	6303
2026-01-20 13:39:31.42	116.72	36.89	-39.6	-40.4	24.4	0.00e+00	0	42	0	846200832	52	6033
2026-01-20 13:39:35.46	118.31	36.54	-40.7	-41.7	23.4	0.00e+00	2	42	0	854589440	54	6199
2026-01-20 13:39:39.50	119.86	36.18	-40.1	-41.0	24.0	0.00e+00	92	42	0	861929472	52	6430
2026-01-20 13:39:43.54	121.38	35.80	-39.4	-40.2	24.6	0.00e+00	0	42	0	869269504	52	5875
2026-01-20 13:39:47.57	122.87	35.40	-40.1	-41.0	24.0	0.00e+00	0	42	0	876609536	52	6408
2026-01-20 13:39:51.60	124.31	34.99	-40.8	-41.7	23.3	0.00e+00	52	42	0	883949568	52	6995
2026-01-20 13:39:55.64	125.72	34.56	-40.9	-41.8	23.2	0.00e+00	5	42	0	892338176	54	6283
2026-01-20 13:39:59.68	127.10	34.12	-41.4	-42.4	22.8	0.00e+00	6	42	0	899678208	54	6727
2026-01-20 13:40:03.72	128.44	33.67	-41.9	-43.0	22.0	0.00e+00	5	42	0	907018240	56	6417
2026-01-20 13:40:07.76	129.74	33.21	-41.1	-42.1	23.0	0.00e+00	0	42	0	914358272	56	5781
2026-01-20 13:40:11.79	131.01	32.74	-43.1	-44.4	20.8	0.00e+00	60	42	0	921698304	58	6713
2026-01-20 13:40:15.83	132.24	32.26	-42.0	-43.1	22.0	0.00e+00	26	42	0	930086912	56	6505
2026-01-20 13:40:19.87	133.44	31.78	-42.3	-43.4	21.9	0.00e+00	8	42	0	937426944	58	6032
2026-01-20 13:40:23.91	134.60	31.29	-43.7	-45.1	20.0	0.00e+00	92	42	0	944766976	58	7336
2026-01-20 13:40:27.95	135.73	30.79	-41.7	-42.7	22.3	0.00e+00	0	42	0	952107008	58	5522
2026-01-20 13:40:31.98	136.82	30.30	-43.2	-44.5	20.7	0.00e+00	66	42	0	960495616	58	6774
2026-01-20 13:40:36.02	137.88	29.80	-40.0	-40.8	23.8	0.00e+00	15	42	0	967835648	54	5628
2026-01-20 13:40:40.06	138.91	29.30	-42.1	-43.2	22.0	0.00e+00	90	42	0	975175680	56	6586
2026-01-20 13:40:44.10	139.91	28.80	-40.3	-41.2	23.6	0.00e+00	0	42	0	982515712	54	5889
2026-01-20 13:40:48.14	140.88	28.30	-41.6	-42.7	22.4	0.00e+00	64	42	0	990904320	56	6190
2026-01-20 13:40:52.18	141.82	27.80	-39.8	-40.6	24.1	0.00e+00	0	42	0	998244352	52	6155
2026-01-20 13:40:56.22	142.74	27.30	-40.6	-41.5	23.4	0.00e+00	92	42	0	1005584384	52	6840
2026-01-20 13:41:00.26	143.62	26.80	-38.0	-38.7	25.6	0.00e+00	0	42	0	1012924416	50	5553
2026-01-20 13:41:04.29	144.48	26.31	-40.7	-41.6	23.2	0.00e+00	18	42	0	1020264448	52	6912
2026-01-20 13:41:08.33	145.31	25.82	-38.6	-39.3	25.2	0.00e+00	0	42	0	1028653056	50	5959
2026-01-20 13:41:12.36	146.12	25.33	-38.7	-39.5	25.0	0.00e+00	91	42	0	1035993088	50	6068
2026-01-20 13:41:16.40	146.90	24.84	-39.5	-40.3	24.4	0.00e+00	16	42	0	1043333120	50	6680
2026-01-20 13:41:20.44	147.66	24.36	-38.0	-38.8	25.6	0.00e+00	16	42	0	1050673152	50	5597
2026-01-20 13:41:24.47	148.40	23.88	-39.2	-40.0	24.6	0.00e+00	17	42	0	1058013184	50	6444
2026-01-20 13:41:28.51	149.12	23.41	-39.1	-39.9	24.6	0.00e+00	92	42	0	1066401792	50	6337
2026-01-20 13:41:32.55	149.81	22.94	-39.5	-40.4	24.2	0.00e+00	63	42	0	1073741824	50	6718
2026-01-20 13:41:36.58	150.49	22.47	-39.5	-40.4	24.3	0.00e+00	0	42	0	1081081856	52	5974
2026-01-20 13:41:40.62	151.15	22.01	-39.3	-40.2	24.4	0.00e+00	55	42	0	1088421888	52	5841
2026-01-20 13:41:44.66	151.78	21.55	-39.9	-40.8	23.8	0.00e+00	92	42	0	1096810496	52	6271
2026-01-20 13:41:48.70	152.41	21.10	-39.9	-40.8	23.9	0.00e+00	5	42	0	1104150528	52	6274
2026-01-20 13:41:52.73	153.01	20.65	-41.0	-42.0	22.8	0.00e+00	0	42	0	1111490560	54	6425
2026-01-20 13:41:56.77	153.59	20.21	-42.1	-43.2	21.7	0.00e+00	5	42	0	1118830592	56	6583
2026-01-20 13:42:00.81	154.17	19.77	-42.1	-43.2	21.8	0.00e+00	92	42	0	1126170624	56	6569
2026-01-20 13:42:04.84	154.72	19.34	-41.5	-42.6	22.1	0.00e+00	61	42	0	1134559232	56	6143
2026-01-20 13:42:08.88	155.26	18.91	-42.6	-43.9	20.7	0.00e+00	31	42	0	1141899264	56	7091
2026-01-20 13:42:12.92	155.79	18.49	-42.2	-43.5	21.1	0.00e+00	91	42	0	1149239296	58	6037
2026-01-20 13:42:16.96	156.30	18.07	-41.1	-42.2	22.5	0.00e+00	89	42	0	1156579328	56	5831
2026-01-20 13:42:20.99	156.80	17.66	-40.2	-41.1	23.4	0.00e+00	0	42	0	1163919360	54	5808
2026-01-20 13:42:25.03	157.28	17.25	-40.3	-41.3	23.3	0.00e+00	63	42	0	1172307968	54	5905
2026-01-20 13:42:29.07	157.76	16.85	-40.5	-41.5	23.1	0.00e+00	91	42	0	1179648000	54	6042
2026-01-20 13:42:33.10	158.22	16.45	-40.7	-41.7	22.9	0.00e+00	0	42	0	1186988032	54	6177
2026-01-20 13:42:37.14	158.67	16.06	-40.4	-41.3	23.2	0.00e+00	0	42	0	1194328064	54	5949
2026-01-20 13:42:41.18	159.11	15.67	-40.9	-41.9	22.7	0.00e+00	56	42	0	1202716672	54	6377
2026-01-20 13:42:45.22	159.53	15.29	-41.6	-42.6	21.9	0.00e+00	92	42	0	1210056704	54	6917
2026-01-20 13:42:49.25	159.95	14.91	-41.5	-42.6	22.0	0.00e+00	0	42	0	1217396736	54	6917
2026-01-20 13:42:53.29	160.36	14.53	-40.7	-41.7	22.9	0.00e+00	0	42	0	1224736768	54	6189
2026-01-20 13:42:57.33	160.76	14.16	-40.6	-41.5	23.0	0.00e+00	2	42	0	1232076800	54	6072
2026-01-20 13:43:01.37	161.15	13.79	-41.0	-42.0	22.6	0.00e+00	92	42	0	1240465408	54	6454
2026-01-20 13:43:05.41	161.53	13.43	-41.1	-42.1	22.6	0.00e+00	20	42	0	1247805440	54	6524
2026-01-20 13:43:09.44	161.90	13.07	-41.9	-43.0	21.5	0.00e+00	27	42	0	1255145472	56	6431
2026-01-20 13:43:13.48	162.26	12.72	-41.3	-42.3	22.3	0.00e+00	26	42	0	1262485504	56	5924
2026-01-20 13:43:17.52	162.61	12.37	-41.7	-42.8	21.8	0.00e+00	91	42	0	1270874112	56	6313
2026-01-20 13:43:21.56	162.96	12.03	-41.9	-43.0	21.7	0.00e+00	57	42	0	1278214144	56	6415
2026-01-20 13:43:25.60	163.30	11.68	-41.8	-42.9	21.8	0.00e+00	60	42	0	1285554176	56	6377
2026-01-20 13:43:29.64	163.63	11.35	-42.1	-43.3	21.4	0.00e+00	55	42	0	1292894208	56	6618
2026-01-20 13:43:33.67	163.95	11.01	-42.2	-43.4	21.3	0.00e+00	92	42	0	1300234240	56	6752
2026-01-20 13:43:37.71	164.27	10.68	-42.3	-43.5	21.1	0.00e+00	0	42	0	1308622848	56	6795
2026-01-20 13:43:41.75	164.58	10.36	-42.5	-43.8	20.8	0.00e+00	53	42	0	1315962880	58	6275
2026-01-20 13:43:45.78	164.89	10.03	-42.3	-43.5	21.0	0.00e+00	53	42	0	1323302912	58	6089
2026-01-20 13:43:49.83	165.18	9.71	-43.1	-44.4	20.3	0.00e+00	92	42	0	1330642944	58	6752
2026-01-20 13:43:53.86	165.48	9.40	-42.2	-43.4	21.1	0.00e+00	8	42	0	1339031552	58	5967
2026-01-20 13:43:57.90	165.76	9.09	-42.3	-43.5	21.0	0.00e+00	0	42	0	1346371584	58	6071
2026-01-20 13:44:01.94	166.04	8.78	-42.5	-43.8	20.7	0.00e+00	46	42	0	1353711616	58	6276
2026-01-20 13:44:05.97	166.32	8.47	-43.1	-44.5	20.1	0.00e+00	91	42	0	1361051648	58	6799
2026-01-20 13:44:10.01	166.59	8.17	-43.4	-44.8	19.7	0.00e+00	50	42	0	1368391680	58	7052
2026-01-20 13:44:14.05	166.85	7.87	-43.5	-44.9	19.4	0.00e+00	0	42	0	1376780288	60	6390
2026-01-20 13:44:18.08	167.11	7.57	-44.3	-46.0	18.6	0.00e+00	92	42	0	1384120320	60	7229
2026-01-20 13:44:22.12	167.36	7.28	-44.2	-45.8	18.7	0.00e+00	0	42	0	1391460352	60	7080
2026-01-20 13:44:26.15	167.61	6.99	-44.4	-46.2	18.4	0.00e+00	0	42	0	1398800384	60	7381
2026-01-20 13:44:30.19	167.86	6.70	-43.7	-45.3	19.0	0.00e+00	0	42	0	1406140416	60	6654
2026-01-20 13:44:34.22	168.10	6.41	-43.2	-44.6	19.7	0.00e+00	92	43	0	1414529024	60	6144
2026-01-20 13:44:38.26	168.33	6.13	-43.3	-44.7	19.7	0.00e+00	0	42	0	1421869056	60	6228
2026-01-20 13:44:42.30	168.57	5.85	-43.2	-44.6	19.8	0.00e+00	0	42	0	1429209088	60	6126
2026-01-20 13:44:46.34	168.79	5.57	-44.0	-45.6	18.9	0.00e+00	0	42	0	1436549120	60	6896
2026-01-20 13:44:50.37	169.02	5.30	-44.5	-46.3	17.9	0.00e+00	92	42	0	1444937728	60	7467
2026-01-20 13:44:54.41	169.24	5.03	-44.7	-46.5	17.9	0.00e+00	57	42	0	1452277760	60	7675
2026-01-20 13:44:58.45	169.45	4.76	-44.3	-46.2	18.2	0.00e+00	2	42	0	1459617792	60	7343
2026-01-20 13:45:02.49	169.66	4.49	-44.8	-46.9	17.1	0.00e+00	24	42	0	1466957824	60	7966
2026-01-20 13:45:06.53	169.87	4.22	-46.6	-49.7	14.6	0.00e+00	92	42	0	1474297856	60	11027
2026-01-20 13:45:10.56	170.08	3.96	-44.2	-46.0	18.4	0.00e+00	48	42	0	1482686464	60	7200
2026-01-20 13:45:14.60	170.28	3.70	-46.3	-49.3	14.3	0.00e+00	2	42	0	1490026496	60	10586
2026-01-20 13:45:18.63	170.48	3.44	-44.9	-47.0	17.3	0.00e+00	0	42	0	1497366528	60	8117
2026-01-20 13:45:22.67	170.67	3.19	-43.3	-44.9	18.8	0.00e+00	53	42	0	1504706560	60	6349
2026-01-20 13:45:26.71	170.87	2.93	-50.2	-65.3	3.6	1.51e+00	0	43	104	1510998016	60	66843
2026-01-20 13:45:30.75	171.06	2.68	-51.0	-66.2	3.6	1.51e+00	0	42	104	1510998016	60	73493
2026-01-20 13:45:34.78	171.24	2.43	-51.2	-66.4	3.6	1.51e+00	0	42	104	1510998016	60	75186
2026-01-20 13:45:38.82	171.43	2.18	-51.2	-66.5	3.6	1.51e+00	0	42	104	1510998016	60	76253
2026-01-20 13:45:42.86	171.61	1.94	-51.2	-66.4	3.6	1.51e+00	0	42	104	1510998016	60	75926
2026-01-20 13:45:46.90	171.78	1.69	-51.3	-66.5	3.6	1.51e+00	0	42	104	1510998016	60	76720
2026-01-20 13:45:50.94	171.96	1.45	-51.4	-66.7	3.6	1.51e+00	0	42	104	1510998016	60	78135
2026-01-20 13:45:54.98	172.13	1.21	-51.4	-66.7	3.6	1.51e+00	0	42	104	1510998016	60	77849
2026-01-20 13:45:59.01	172.30	0.97	-51.5	-66.7	3.6	1.51e+00	0	42	104	1510998016	60	78430
2026-01-20 13:46:03.05	172.47	0.74	-51.7	-67.0	3.6	1.51e+00	0	42	104	1510998016	60	80488
2026-01-20 13:46:07.09	172.63	0.50	-51.6	-66.8	3.6	1.51e+00	0	42	104	1510998016	60	79391
2026-01-20 13:46:11.12	172.80	0.27	-51.5	-66.7	3.6	1.51e+00	0	42	104	1510998016	60	78232
2026-01-20 13:46:15.16	172.96	0.04	-51.5	-66.7	3.6	1.51e+00	0	42	104	1510998016	60	78422

#Closed at: 2026-01-20 13:46:18
#Recorded file [1510 MB]: D:/lorett/data/35029_260121_013110.dat