passes_logs/2026/01/20/R4.6S_Anadyr/R4.6S_Anadyr__20260120_124045_NOAA_21_JPSS-2_rec.log

#Pass ID: 20260120_124045_NOAA 21 (JPSS-2)
#Satellite: NOAA 21 (JPSS-2)
#Configuration: NOAA-21
#almurnet v.1.7.20251203
#Start time: 2026-01-20 12:40:48

#Version: 2.2.20231116
#Station: R4.6S_Anadyr
#Location: 177.4865 lon 64.73178 lat
#TLE: 1 54234U 22150A   26019.94667805  .00000106  00000+0  71222-4 0  9995
#TLE: 2 54234  98.7505 320.7866 0000607 253.4528 106.6582 14.19535964165511

#Time	Az	El	Level	Level2	SNR	BER	BlckErr	Temp	State	Recorded	gain1	gain2
2026-01-20 12:40:48.84	18.93	0.16	-52.5	-63.9	3.3	1.54e+00	0	41	0	0	60	55004
2026-01-20 12:40:52.88	19.19	0.37	-51.8	-64.6	3.5	1.52e+00	0	41	104	0	60	59826
2026-01-20 12:40:56.92	19.46	0.58	-51.6	-64.5	3.5	1.52e+00	0	41	104	0	60	58975
2026-01-20 12:41:00.96	19.73	0.79	-51.3	-64.2	3.5	1.51e+00	0	41	104	0	60	56654
2026-01-20 12:41:05.00	20.01	1.00	-50.8	-63.6	3.5	1.52e+00	0	41	104	0	60	53270
2026-01-20 12:41:09.04	20.29	1.22	-50.3	-63.1	3.5	1.51e+00	0	41	104	0	60	50229
2026-01-20 12:41:13.07	20.57	1.43	-49.6	-62.5	3.5	1.52e+00	0	41	104	0	60	46732
2026-01-20 12:41:17.11	20.86	1.64	-49.6	-62.2	3.5	1.52e+00	0	41	104	0	60	44991
2026-01-20 12:41:21.15	21.15	1.86	-49.6	-62.2	3.5	1.52e+00	0	41	104	0	60	45396
2026-01-20 12:41:25.19	21.44	2.08	-49.6	-62.4	3.5	1.52e+00	0	41	104	0	60	46216
2026-01-20 12:41:29.23	21.74	2.29	-49.5	-61.2	3.5	1.52e+00	0	41	104	0	60	40423
2026-01-20 12:41:33.27	22.04	2.51	-47.6	-51.9	9.6	7.57e-02	123	42	0	2097152	60	13760
2026-01-20 12:41:37.31	22.35	2.73	-42.7	-44.3	17.3	0.00e+00	123	41	0	14680064	58	6439
2026-01-20 12:41:41.35	22.66	2.96	-43.1	-44.8	16.7	0.00e+00	123	42	0	27262976	58	6824
2026-01-20 12:41:45.39	22.97	3.18	-43.1	-44.8	17.4	0.00e+00	123	42	0	39845888	60	6107
2026-01-20 12:41:49.42	23.29	3.40	-44.1	-46.0	16.2	2.20e-06	122	42	0	45088768	60	7030
2026-01-20 12:41:53.46	23.62	3.63	-41.2	-42.5	19.3	0.00e+00	121	42	0	57671680	56	5881
2026-01-20 12:41:57.50	23.95	3.85	-41.5	-42.9	19.0	0.00e+00	123	42	0	70254592	56	6164
2026-01-20 12:42:01.54	24.28	4.08	-42.3	-43.8	18.8	0.00e+00	123	42	0	82837504	58	6082
2026-01-20 12:42:05.58	24.62	4.31	-41.1	-42.4	19.5	0.00e+00	123	42	0	95420416	56	5796
2026-01-20 12:42:09.62	24.96	4.54	-40.5	-41.8	20.1	0.00e+00	122	42	0	108003328	54	6067
2026-01-20 12:42:13.66	25.31	4.77	-40.8	-42.0	19.7	0.00e+00	122	42	0	121634816	54	6268
2026-01-20 12:42:17.70	25.67	5.00	-40.6	-41.8	19.8	0.00e+00	122	42	0	133169152	54	6087
2026-01-20 12:42:21.74	26.03	5.23	-40.3	-41.4	20.7	0.00e+00	120	42	0	146800640	54	5850
2026-01-20 12:42:25.77	26.39	5.46	-41.0	-42.2	19.6	0.00e+00	122	42	0	159383552	54	6400
2026-01-20 12:42:29.81	26.76	5.70	-41.1	-42.4	19.7	0.00e+00	120	42	0	171966464	56	5835
2026-01-20 12:42:33.84	27.14	5.94	-41.1	-42.3	20.1	0.00e+00	122	42	0	184549376	54	6467
2026-01-20 12:42:37.88	27.52	6.17	-39.9	-41.1	20.9	0.00e+00	123	42	0	197132288	54	5603
2026-01-20 12:42:41.93	27.91	6.41	-39.6	-40.7	21.1	0.00e+00	120	42	0	209715200	54	5369
2026-01-20 12:42:45.96	28.30	6.65	-40.3	-41.4	20.4	0.00e+00	122	42	0	222298112	54	5851
2026-01-20 12:42:50.00	28.70	6.89	-40.7	-41.9	20.0	0.00e+00	122	42	0	234881024	54	6205
2026-01-20 12:42:54.04	29.11	7.13	-40.3	-41.4	20.6	0.00e+00	123	42	0	247463936	54	5857
2026-01-20 12:42:58.08	29.52	7.38	-40.1	-41.2	21.0	0.00e+00	123	42	0	260046848	52	6404
2026-01-20 12:43:02.11	29.94	7.62	-40.3	-41.5	20.7	0.00e+00	120	42	0	272629760	54	5868
2026-01-20 12:43:06.15	30.37	7.87	-39.8	-40.9	21.2	0.00e+00	122	42	0	285212672	52	6192
2026-01-20 12:43:10.19	30.80	8.11	-40.1	-41.2	20.9	0.00e+00	123	42	0	297795584	52	6387
2026-01-20 12:43:14.23	31.24	8.36	-39.7	-40.8	21.2	0.00e+00	123	42	0	310378496	52	6124
2026-01-20 12:43:18.27	31.69	8.61	-39.5	-40.5	21.6	0.00e+00	122	42	0	322961408	52	5922
2026-01-20 12:43:22.31	32.15	8.86	-39.3	-40.3	21.7	0.00e+00	123	42	0	335544320	52	5790
2026-01-20 12:43:26.34	32.61	9.11	-39.4	-40.5	21.8	0.00e+00	123	42	0	348127232	52	5868
2026-01-20 12:43:30.37	33.08	9.36	-38.8	-39.9	22.2	0.00e+00	123	42	0	360710144	50	6163
2026-01-20 12:43:34.41	33.56	9.61	-39.5	-40.6	21.6	0.00e+00	120	42	0	373293056	52	5935
2026-01-20 12:43:38.44	34.04	9.86	-39.7	-40.8	21.5	0.00e+00	123	42	0	385875968	50	6832
2026-01-20 12:43:42.49	34.54	10.12	-39.2	-40.3	22.0	0.00e+00	122	42	0	398458880	50	6448
2026-01-20 12:43:46.52	35.04	10.37	-38.2	-39.1	22.8	0.00e+00	123	42	0	411041792	50	5656
2026-01-20 12:43:50.56	35.55	10.63	-38.5	-39.5	22.6	0.00e+00	122	42	0	423624704	50	5870
2026-01-20 12:43:54.59	36.07	10.88	-38.5	-39.5	22.5	0.00e+00	123	42	0	436207616	50	5924
2026-01-20 12:43:58.63	36.60	11.14	-38.2	-39.2	22.8	0.00e+00	122	42	0	448790528	50	5688
2026-01-20 12:44:02.66	37.14	11.39	-38.2	-39.2	22.9	0.00e+00	123	43	0	461373440	50	5683
2026-01-20 12:44:06.70	37.68	11.65	-38.5	-39.5	22.5	0.00e+00	122	42	0	473956352	50	5890
2026-01-20 12:44:10.74	38.24	11.91	-38.7	-39.7	22.4	0.00e+00	121	42	0	486539264	50	6042
2026-01-20 12:44:14.77	38.80	12.17	-38.5	-39.5	22.5	0.00e+00	122	43	0	499122176	50	5910
2026-01-20 12:44:18.81	39.38	12.43	-38.3	-39.2	23.0	0.00e+00	122	43	0	512753664	50	5719
2026-01-20 12:44:22.85	39.96	12.68	-38.1	-39.0	23.0	0.00e+00	123	43	0	524288000	48	6262
2026-01-20 12:44:26.89	40.56	12.94	-38.2	-39.2	22.9	0.00e+00	123	43	0	537919488	48	6356
2026-01-20 12:44:30.93	41.16	13.20	-38.2	-39.2	22.9	0.00e+00	123	43	0	550502400	48	6395
2026-01-20 12:44:34.97	41.78	13.46	-37.9	-38.8	23.2	0.00e+00	120	43	0	563085312	48	6129
2026-01-20 12:44:39.00	42.40	13.72	-37.9	-38.9	23.2	0.00e+00	122	43	0	575668224	48	6169
2026-01-20 12:44:43.05	43.04	13.98	-38.7	-39.7	22.1	0.00e+00	123	43	0	588251136	48	6762
2026-01-20 12:44:47.08	43.69	14.23	-37.5	-38.5	23.4	0.00e+00	120	43	0	600834048	48	5867
2026-01-20 12:44:51.12	44.35	14.49	-37.7	-38.7	23.1	0.00e+00	122	43	0	613416960	48	5995
2026-01-20 12:44:55.16	45.02	14.75	-37.6	-38.5	23.3	0.00e+00	123	43	0	625999872	48	5921
2026-01-20 12:44:59.19	45.70	15.00	-37.6	-38.6	23.4	0.00e+00	123	43	0	638582784	48	5954
2026-01-20 12:45:03.22	46.39	15.25	-37.7	-38.6	23.5	0.00e+00	122	42	0	651165696	48	5958
2026-01-20 12:45:07.25	47.09	15.51	-37.8	-38.8	23.3	0.00e+00	123	42	0	663748608	48	6074
2026-01-20 12:45:11.28	47.80	15.76	-37.9	-38.9	23.2	0.00e+00	122	43	0	676331520	48	6154
2026-01-20 12:45:15.32	48.53	16.01	-37.8	-38.8	23.3	0.00e+00	123	43	0	688914432	48	6084
2026-01-20 12:45:19.36	49.27	16.25	-37.7	-38.7	23.4	0.00e+00	123	43	0	701497344	48	5999
2026-01-20 12:45:23.39	50.02	16.50	-37.6	-38.5	23.6	0.00e+00	123	43	0	714080256	48	5899
2026-01-20 12:45:27.43	50.78	16.74	-37.4	-38.3	23.7	0.00e+00	123	42	0	726663168	48	5753
2026-01-20 12:45:31.47	51.56	16.98	-37.8	-38.8	23.3	0.00e+00	120	43	0	739246080	48	6112
2026-01-20 12:45:35.50	52.34	17.22	-38.0	-38.9	23.3	0.00e+00	122	42	0	751828992	48	6176
2026-01-20 12:45:39.54	53.14	17.45	-37.4	-38.3	23.6	0.00e+00	122	42	0	764411904	48	5778
2026-01-20 12:45:43.58	53.95	17.69	-37.4	-38.3	23.6	0.00e+00	123	42	0	776994816	48	5750
2026-01-20 12:45:47.62	54.78	17.92	-37.4	-38.3	23.7	0.00e+00	120	43	0	789577728	48	5774
2026-01-20 12:45:51.66	55.61	18.14	-37.6	-38.5	23.6	0.00e+00	122	43	0	802160640	48	5895
2026-01-20 12:45:55.69	56.46	18.36	-37.2	-38.1	23.8	0.00e+00	122	43	0	814743552	48	5611
2026-01-20 12:45:59.72	57.32	18.58	-37.2	-38.2	23.8	0.00e+00	120	43	0	827326464	48	5662
2026-01-20 12:46:03.76	58.19	18.79	-37.6	-38.6	23.5	0.00e+00	123	43	0	839909376	48	5935
2026-01-20 12:46:07.80	59.07	19.00	-37.1	-38.0	24.0	0.00e+00	120	42	0	852492288	48	5546
2026-01-20 12:46:11.83	59.97	19.20	-37.1	-38.0	23.9	0.00e+00	122	43	0	865075200	48	5584
2026-01-20 12:46:15.87	60.87	19.40	-36.8	-37.7	24.2	0.00e+00	120	43	0	877658112	48	5399
2026-01-20 12:46:19.91	61.79	19.59	-36.9	-37.8	24.1	0.00e+00	123	43	0	890241024	48	5426
2026-01-20 12:46:23.95	62.72	19.78	-36.7	-37.6	24.4	0.00e+00	123	43	0	902823936	46	5961
2026-01-20 12:46:27.98	63.66	19.96	-36.7	-37.6	24.2	0.00e+00	123	43	0	915406848	46	5983
2026-01-20 12:46:32.02	64.61	20.13	-37.0	-37.9	24.1	0.00e+00	123	42	0	927989760	46	6165
2026-01-20 12:46:36.06	65.57	20.30	-36.7	-37.6	24.3	0.00e+00	122	43	0	941621248	46	5939
2026-01-20 12:46:40.09	66.54	20.46	-37.0	-38.0	24.1	0.00e+00	121	43	0	953155584	46	6214
2026-01-20 12:46:44.14	67.53	20.61	-36.6	-37.5	24.4	0.00e+00	122	42	0	966787072	46	5904
2026-01-20 12:46:48.17	68.52	20.76	-36.8	-37.8	24.1	0.00e+00	123	42	0	979369984	46	6072
2026-01-20 12:46:52.21	69.52	20.89	-36.8	-37.7	24.3	0.00e+00	123	43	0	991952896	46	6033
2026-01-20 12:46:56.25	70.53	21.02	-37.1	-38.0	23.9	0.00e+00	123	43	0	1004535808	46	6257
2026-01-20 12:47:00.29	71.54	21.15	-36.8	-37.7	24.2	0.00e+00	123	43	0	1017118720	46	6034
2026-01-20 12:47:04.33	72.57	21.26	-36.7	-37.6	24.2	0.00e+00	121	43	0	1029701632	46	5988
2026-01-20 12:47:08.36	73.60	21.36	-36.8	-37.7	24.3	0.00e+00	123	43	0	1042284544	46	6033
2026-01-20 12:47:12.40	74.64	21.46	-36.6	-37.5	24.4	0.00e+00	123	43	0	1054867456	46	5889
2026-01-20 12:47:16.44	75.68	21.54	-36.4	-37.3	24.6	0.00e+00	123	42	0	1067450368	46	5758
2026-01-20 12:47:20.48	76.73	21.62	-36.7	-37.6	24.4	0.00e+00	120	42	0	1080033280	46	5941
2026-01-20 12:47:24.51	77.78	21.69	-36.8	-37.8	24.2	0.00e+00	123	43	0	1092616192	46	6085
2026-01-20 12:47:28.55	78.84	21.74	-36.3	-37.2	24.6	0.00e+00	122	43	0	1105199104	46	5674
2026-01-20 12:47:32.59	79.91	21.79	-36.4	-37.3	24.6	0.00e+00	120	42	0	1117782016	46	5786
2026-01-20 12:47:36.63	80.97	21.83	-36.5	-37.4	24.6	0.00e+00	122	42	0	1130364928	46	5806
2026-01-20 12:47:40.67	82.04	21.86	-36.4	-37.3	24.7	0.00e+00	123	42	0	1142947840	46	5765
2026-01-20 12:47:44.71	83.11	21.88	-37.3	-38.2	24.0	0.00e+00	123	43	0	1155530752	46	6387
2026-01-20 12:47:48.75	84.18	21.88	-36.7	-37.7	24.4	0.00e+00	123	42	0	1168113664	46	5999
2026-01-20 12:47:52.78	85.25	21.88	-36.5	-37.4	24.5	0.00e+00	122	42	0	1180696576	46	5838
2026-01-20 12:47:56.82	86.32	21.87	-36.5	-37.4	24.4	0.00e+00	123	42	0	1193279488	46	5825
2026-01-20 12:48:00.86	87.39	21.85	-36.3	-37.1	24.8	0.00e+00	122	43	0	1205862400	46	5637
2026-01-20 12:48:04.90	88.46	21.82	-36.8	-37.7	24.3	0.00e+00	121	42	0	1218445312	46	6054
2026-01-20 12:48:08.94	89.52	21.77	-36.3	-37.2	24.6	0.00e+00	123	42	0	1231028224	46	5675
2026-01-20 12:48:12.97	90.58	21.72	-36.6	-37.5	24.5	0.00e+00	122	43	0	1243611136	46	5921
2026-01-20 12:48:17.00	91.64	21.66	-36.5	-37.4	24.5	0.00e+00	123	42	0	1256194048	46	5825
2026-01-20 12:48:21.04	92.69	21.59	-36.6	-37.5	24.5	0.00e+00	123	43	0	1268776960	46	5890
2026-01-20 12:48:25.08	93.74	21.51	-36.7	-37.6	24.3	0.00e+00	123	42	0	1281359872	46	5990
2026-01-20 12:48:29.11	94.79	21.42	-36.5	-37.4	24.5	0.00e+00	123	43	0	1293942784	46	5846
2026-01-20 12:48:33.15	95.82	21.32	-36.5	-37.5	24.4	0.00e+00	122	42	0	1306525696	46	5867
2026-01-20 12:48:37.18	96.85	21.21	-37.3	-38.2	23.9	0.00e+00	123	42	0	1319108608	46	6366
2026-01-20 12:48:41.22	97.88	21.10	-36.5	-37.5	24.4	0.00e+00	122	42	0	1332740096	46	5867
2026-01-20 12:48:45.26	98.89	20.97	-36.3	-37.2	24.6	0.00e+00	123	42	0	1345323008	46	5717
2026-01-20 12:48:49.29	99.90	20.84	-36.6	-37.5	24.4	0.00e+00	120	42	0	1357905920	46	5874
2026-01-20 12:48:53.33	100.90	20.70	-36.6	-37.6	24.3	0.00e+00	123	42	0	1370488832	46	5938
2026-01-20 12:48:57.37	101.89	20.55	-36.6	-37.4	24.3	0.00e+00	122	42	0	1383071744	46	5857
2026-01-20 12:49:01.41	102.87	20.39	-37.0	-38.0	24.0	0.00e+00	120	42	0	1395654656	46	6220
2026-01-20 12:49:05.45	103.84	20.23	-37.5	-38.4	23.7	0.00e+00	123	42	0	1408237568	48	5841
2026-01-20 12:49:09.48	104.80	20.06	-37.7	-38.7	23.2	0.00e+00	122	42	0	1420820480	48	6006
2026-01-20 12:49:13.52	105.75	19.88	-37.1	-38.0	24.0	0.00e+00	121	42	0	1433403392	48	5577
2026-01-20 12:49:17.56	106.69	19.70	-36.7	-37.6	24.1	0.00e+00	122	42	0	1445986304	46	5985
2026-01-20 12:49:21.60	107.62	19.51	-36.8	-37.8	24.2	0.00e+00	123	42	0	1458569216	46	6073
2026-01-20 12:49:25.64	108.54	19.31	-37.3	-38.2	23.8	0.00e+00	123	43	0	1471152128	46	6383
2026-01-20 12:49:29.68	109.44	19.11	-36.5	-37.4	24.4	0.00e+00	123	42	0	1483735040	46	5811
2026-01-20 12:49:33.72	110.34	18.90	-36.4	-37.3	24.5	0.00e+00	122	42	0	1496317952	46	5769
2026-01-20 12:49:37.75	111.22	18.69	-36.6	-37.5	24.4	0.00e+00	122	42	0	1508900864	46	5888
2026-01-20 12:49:41.79	112.09	18.48	-36.9	-37.9	24.0	0.00e+00	122	42	0	1521483776	46	6141
2026-01-20 12:49:45.83	112.94	18.26	-37.1	-38.0	23.9	0.00e+00	120	43	0	1534066688	46	6255
2026-01-20 12:49:49.87	113.79	18.03	-36.8	-37.7	24.1	0.00e+00	123	43	0	1546649600	46	6051
2026-01-20 12:49:53.90	114.62	17.80	-37.0	-37.9	24.0	0.00e+00	123	43	0	1559232512	46	6157
2026-01-20 12:49:57.93	115.44	17.57	-37.7	-38.7	23.3	0.00e+00	123	43	0	1571815424	46	6758
2026-01-20 12:50:01.97	116.25	17.34	-36.8	-37.7	24.1	0.00e+00	123	43	0	1584398336	46	6021
2026-01-20 12:50:06.00	117.05	17.10	-37.1	-38.0	23.8	0.00e+00	122	42	0	1596981248	46	6270
2026-01-20 12:50:10.05	117.84	16.86	-37.2	-38.1	23.7	0.00e+00	120	42	0	1609564160	46	6332
2026-01-20 12:50:14.08	118.61	16.61	-37.3	-38.3	23.6	0.00e+00	123	43	0	1622147072	46	6429
2026-01-20 12:50:18.12	119.37	16.37	-37.8	-38.7	23.2	0.00e+00	122	43	0	1634729984	48	6064
2026-01-20 12:50:22.16	120.12	16.12	-38.9	-40.0	22.3	0.00e+00	123	42	0	1647312896	50	6209
2026-01-20 12:50:26.20	120.85	15.87	-37.7	-38.7	23.3	0.00e+00	120	42	0	1659895808	48	6000
2026-01-20 12:50:30.24	121.58	15.62	-37.2	-38.1	23.7	0.00e+00	122	42	0	1672478720	48	5650
2026-01-20 12:50:34.27	122.29	15.36	-37.6	-38.5	23.4	0.00e+00	120	42	0	1685061632	48	5922
2026-01-20 12:50:38.31	122.99	15.11	-37.2	-38.2	23.6	0.00e+00	121	42	0	1698693120	48	5684
2026-01-20 12:50:42.35	123.68	14.85	-36.9	-37.8	23.9	0.00e+00	122	43	0	1710227456	48	5428
2026-01-20 12:50:46.39	124.36	14.60	-36.6	-37.6	24.1	0.00e+00	123	42	0	1723858944	46	5929
2026-01-20 12:50:50.43	125.03	14.34	-37.3	-38.2	23.7	0.00e+00	123	42	0	1736441856	46	6378
2026-01-20 12:50:54.46	125.68	14.08	-37.5	-38.4	23.5	0.00e+00	122	43	0	1749024768	46	6540
2026-01-20 12:50:58.50	126.33	13.82	-37.7	-38.6	23.2	0.00e+00	122	43	0	1761607680	48	5975
2026-01-20 12:51:02.54	126.96	13.56	-37.6	-38.6	23.2	0.00e+00	120	43	0	1774190592	48	5935
2026-01-20 12:51:06.58	127.59	13.30	-38.1	-39.1	22.8	0.00e+00	122	42	0	1786773504	48	6301
2026-01-20 12:51:10.62	128.20	13.04	-38.1	-39.1	22.9	0.00e+00	123	43	0	1799356416	48	6289
2026-01-20 12:51:14.65	128.80	12.78	-37.9	-38.9	23.0	0.00e+00	120	43	0	1811939328	48	6140
2026-01-20 12:51:18.68	129.39	12.52	-37.9	-38.9	23.1	0.00e+00	123	43	0	1824522240	48	6148
2026-01-20 12:51:22.72	129.98	12.26	-38.0	-38.9	23.0	0.00e+00	122	42	0	1837105152	48	6196
2026-01-20 12:51:26.76	130.55	11.99	-38.4	-39.4	22.6	0.00e+00	123	42	0	1849688064	50	5820
2026-01-20 12:51:30.80	131.11	11.73	-38.7	-39.7	22.3	0.00e+00	122	43	0	1862270976	50	6036
2026-01-20 12:51:34.83	131.67	11.47	-37.9	-38.9	22.8	0.00e+00	123	42	0	1874853888	50	5509
2026-01-20 12:51:38.87	132.21	11.21	-38.4	-39.4	22.5	0.00e+00	123	42	0	1887436800	50	5848
2026-01-20 12:51:42.91	132.74	10.96	-39.0	-40.0	22.0	0.00e+00	122	42	0	1900019712	50	6265
2026-01-20 12:51:46.94	133.27	10.70	-38.9	-39.9	22.1	0.00e+00	120	42	0	1912602624	50	6189
2026-01-20 12:51:50.98	133.79	10.44	-38.7	-39.7	22.2	0.00e+00	123	43	0	1925185536	50	6046
2026-01-20 12:51:55.01	134.29	10.18	-38.7	-39.8	22.1	0.00e+00	123	43	0	1937768448	50	6106
2026-01-20 12:51:59.05	134.79	9.93	-39.1	-40.1	21.5	0.00e+00	123	42	0	1950351360	50	6344
2026-01-20 12:52:03.09	135.29	9.67	-38.6	-39.7	22.2	0.00e+00	123	43	0	1962934272	50	6008
2026-01-20 12:52:07.13	135.77	9.42	-38.5	-39.5	22.3	0.00e+00	122	43	0	1975517184	50	5867
2026-01-20 12:52:11.17	136.24	9.16	-38.8	-39.8	22.1	0.00e+00	122	43	0	1988100096	50	6098
2026-01-20 12:52:15.20	136.71	8.91	-39.1	-40.2	21.8	0.00e+00	120	42	0	2000683008	50	6379
2026-01-20 12:52:19.24	137.17	8.66	-38.9	-39.9	21.9	0.00e+00	122	42	0	2013265920	50	6177
2026-01-20 12:52:23.28	137.62	8.41	-38.6	-39.6	22.1	0.00e+00	122	43	0	2025848832	50	5938
2026-01-20 12:52:27.32	138.07	8.16	-39.2	-40.3	21.8	0.00e+00	122	43	0	2038431744	50	6438
2026-01-20 12:52:31.36	138.51	7.91	-39.1	-40.2	21.6	0.00e+00	123	43	0	2051014656	50	6371
2026-01-20 12:52:35.40	138.94	7.66	-39.7	-40.9	20.5	0.00e+00	122	43	0	2063597568	50	6894
2026-01-20 12:52:39.44	139.36	7.41	-40.7	-42.0	19.7	0.00e+00	123	42	0	2076180480	54	6218
2026-01-20 12:52:43.47	139.78	7.17	-42.2	-43.8	16.2	2.74e-05	122	43	0	2088763392	56	6879
2026-01-20 12:52:47.51	140.19	6.92	-43.3	-45.2	15.5	1.71e-03	121	42	0	2102394880	58	7156
2026-01-20 12:52:51.55	140.59	6.68	-44.8	-47.4	11.1	3.49e-02	123	42	0	2113929216	60	8274
2026-01-20 12:52:55.59	140.99	6.44	-45.2	-48.3	12.1	3.13e-03	122	42	0	2127560704	60	9166
2026-01-20 12:52:59.61	141.38	6.20	-45.8	-49.2	10.2	7.83e-02	123	42	0	2140143616	60	10158
2026-01-20 12:53:03.65	141.76	5.96	-45.3	-48.2	12.2	7.66e-03	123	42	0	2152726528	60	9060
2026-01-20 12:53:07.69	142.14	5.72	-44.8	-47.6	12.2	1.59e-03	123	43	0	2165309440	60	8428
2026-01-20 12:53:11.73	142.51	5.48	-44.7	-47.3	13.6	2.15e-04	121	43	0	2177892352	60	8149
2026-01-20 12:53:15.77	142.88	5.24	-43.4	-45.4	15.8	0.00e+00	123	43	0	2190475264	60	6552
2026-01-20 12:53:19.81	143.24	5.01	-42.7	-44.4	16.9	0.00e+00	121	43	0	2203058176	58	6552
2026-01-20 12:53:23.85	143.60	4.77	-42.8	-44.6	16.5	0.00e+00	120	43	0	2215641088	58	6655
2026-01-20 12:53:27.90	143.95	4.54	-42.9	-44.8	16.3	0.00e+00	122	43	0	2228224000	58	6814
2026-01-20 12:53:31.94	144.30	4.31	-44.3	-46.7	14.7	0.00e+00	123	43	0	2240806912	60	7556
2026-01-20 12:53:35.98	144.64	4.07	-44.9	-47.5	13.9	3.00e-06	123	43	0	2253389824	60	8293
2026-01-20 12:53:40.02	144.97	3.85	-45.9	-49.0	12.5	1.07e-04	121	43	0	2265972736	60	9888
2026-01-20 12:53:44.06	145.30	3.62	-44.9	-47.4	13.8	1.29e-05	122	43	0	2278555648	60	8242
2026-01-20 12:53:48.10	145.63	3.39	-43.2	-45.1	16.2	0.00e+00	123	43	0	2291138560	60	6327
2026-01-20 12:53:52.14	145.95	3.16	-44.7	-47.2	13.5	7.00e-07	123	43	0	2303721472	60	8045
2026-01-20 12:53:56.17	146.26	2.94	-49.2	-62.0	3.5	1.52e+00	0	43	104	2314207232	60	44421
2026-01-20 12:54:00.21	146.57	2.71	-50.5	-63.5	3.5	1.52e+00	0	43	104	2314207232	60	52421
2026-01-20 12:54:04.25	146.88	2.49	-50.9	-63.8	3.5	1.52e+00	0	43	104	2314207232	60	54563
2026-01-20 12:54:08.28	147.18	2.27	-51.0	-63.9	3.5	1.52e+00	0	43	104	2314207232	60	54996
2026-01-20 12:54:12.32	147.48	2.05	-50.9	-64.0	3.5	1.52e+00	0	43	104	2314207232	60	55564
2026-01-20 12:54:16.35	147.78	1.83	-51.1	-64.0	3.5	1.52e+00	0	43	104	2314207232	60	55355
2026-01-20 12:54:20.40	148.07	1.61	-51.1	-64.0	3.5	1.52e+00	0	43	104	2314207232	60	55759
2026-01-20 12:54:24.43	148.35	1.40	-51.1	-64.0	3.5	1.52e+00	0	43	104	2314207232	60	55772
2026-01-20 12:54:28.47	148.63	1.18	-51.2	-64.1	3.5	1.52e+00	0	43	104	2314207232	60	56537
2026-01-20 12:54:32.51	148.91	0.96	-51.3	-64.2	3.5	1.51e+00	0	43	104	2314207232	60	56842
2026-01-20 12:54:36.55	149.19	0.75	-51.3	-64.1	3.5	1.52e+00	0	43	104	2314207232	60	56299
2026-01-20 12:54:40.58	149.46	0.54	-51.3	-64.2	3.5	1.52e+00	0	43	104	2314207232	60	57094
2026-01-20 12:54:44.62	149.73	0.33	-51.4	-64.3	3.5	1.51e+00	0	43	104	2314207232	60	57375
2026-01-20 12:54:48.66	149.99	0.11	-51.4	-64.3	3.5	1.52e+00	0	43	104	2314207232	60	57395
2026-01-20 12:54:52.70	150.25	-0.10	-51.6	-64.5	3.5	1.51e+00	0	43	104	2314207232	60	58837

#Closed at: 2026-01-20 12:54:53
#Recorded file [2314 MB]: D:/lorett/data/35029_260121_004048.dat