passes_logs/2026/01/20/R4.6S_Anadyr/R4.6S_Anadyr__20260120_215407_TY-42_rec.log

#Pass ID: 20260120_215407_TY-42
#Satellite: TY-42
#Configuration: TY-42_900M
#almurnet v.1.7.20251203
#Start time: 2026-01-20 21:54:40

#Version: 2.2.20231116
#Station: R4.6S_Anadyr
#Location: 177.4865 lon 64.73178 lat
#TLE: 1 64048U 25103A   26020.70454861  .00008012  00000-0  38191-3 0 09994
#TLE: 2 64048 097.4120 096.0146 0001696 091.1097 307.5247 15.19178485 37683

#Time	Az	El	Level	Level2	SNR	BER	BlckErr	Temp	State	Recorded	gain1	gain2
2026-01-20 21:54:40.88	24.96	1.87	-51.4	-66.3	3.5	1.51e+00	0	39	0	0	60	74392
2026-01-20 21:54:43.90	25.25	2.05	-49.8	-52.3	6.1	0.00e+00	0	41	104	0	60	50585
2026-01-20 21:54:46.93	25.55	2.23	-49.8	-52.3	6.1	0.00e+00	0	41	104	0	60	50370
2026-01-20 21:54:49.96	25.85	2.41	-49.8	-52.4	6.1	0.00e+00	0	41	104	0	60	50785
2026-01-20 21:54:52.99	26.15	2.59	-49.8	-52.3	6.1	0.00e+00	0	41	104	0	60	50559
2026-01-20 21:54:56.02	26.46	2.77	-49.8	-52.3	6.1	0.00e+00	0	41	104	0	60	50258
2026-01-20 21:54:59.05	26.77	2.95	-49.8	-52.3	6.1	0.00e+00	0	42	104	0	60	50662
2026-01-20 21:55:02.08	27.09	3.14	-49.8	-52.3	6.1	0.00e+00	0	42	104	0	60	50445
2026-01-20 21:55:05.11	27.42	3.32	-49.8	-52.3	6.1	0.00e+00	0	42	104	0	60	50467
2026-01-20 21:55:08.14	27.74	3.51	-49.8	-52.3	6.1	0.00e+00	0	42	104	0	60	50242
2026-01-20 21:55:11.17	28.08	3.69	-50.0	-52.5	6.1	0.00e+00	0	42	104	0	60	51832
2026-01-20 21:55:14.19	28.42	3.88	-49.7	-52.2	6.1	0.00e+00	0	42	104	0	60	49663
2026-01-20 21:55:17.22	28.76	4.07	-50.0	-52.5	6.1	0.00e+00	0	42	104	0	60	51640
2026-01-20 21:55:20.25	29.11	4.26	-50.1	-52.5	6.1	0.00e+00	0	42	104	0	60	51795
2026-01-20 21:55:23.28	29.46	4.45	-50.0	-52.5	6.1	0.00e+00	0	42	104	0	60	51420
2026-01-20 21:55:26.31	29.82	4.64	-50.0	-52.4	6.1	0.00e+00	0	42	104	0	60	51264
2026-01-20 21:55:29.34	30.19	4.84	-50.2	-52.6	6.1	0.00e+00	0	42	104	0	60	52295
2026-01-20 21:55:32.37	30.56	5.03	-50.2	-52.6	6.1	0.00e+00	0	42	104	0	60	52192
2026-01-20 21:55:35.40	30.94	5.23	-50.2	-52.7	6.1	0.00e+00	0	42	104	0	60	52969
2026-01-20 21:55:38.43	31.33	5.42	-50.0	-52.5	6.1	0.00e+00	0	42	104	0	60	51578
2026-01-20 21:55:41.46	31.72	5.62	-50.2	-52.6	6.1	0.00e+00	0	42	104	0	60	52322
2026-01-20 21:55:44.49	32.11	5.82	-40.9	-41.2	10.0	0.00e+00	5513	42	0	41943040	56	17785
2026-01-20 21:55:47.52	32.52	6.02	-37.0	-37.4	13.0	8.57e-02	0	43	0	83886080	50	16111
2026-01-20 21:55:50.55	32.93	6.22	-31.9	-32.3	15.5	4.71e-02	0	43	0	427819008	40	15961
2026-01-20 21:55:53.58	33.35	6.42	-30.8	-31.3	15.9	1.69e-03	0	43	0	763363328	38	15942
2026-01-20 21:55:56.61	33.77	6.62	-30.1	-30.6	16.1	4.74e-04	0	43	0	1107296256	36	16491
2026-01-20 21:55:59.64	34.20	6.83	-29.9	-30.4	16.2	5.18e-04	0	43	0	1451229184	36	16121
2026-01-20 21:56:02.67	34.64	7.03	-30.0	-30.4	16.2	3.05e-04	0	43	0	1786773504	34	18209
2026-01-20 21:56:05.70	35.09	7.24	-29.4	-29.9	16.3	2.89e-04	0	43	0	2130706432	34	17089
2026-01-20 21:56:08.73	35.55	7.44	-29.6	-30.0	16.3	2.23e-04	0	43	0	2474639360	34	17397
2026-01-20 21:56:11.76	36.01	7.65	-29.6	-30.1	16.3	1.74e-04	0	43	0	2810183680	34	17574
2026-01-20 21:56:14.79	36.48	7.86	-29.5	-30.0	16.4	1.47e-04	0	43	0	3154116608	34	17248
2026-01-20 21:56:17.82	36.96	8.07	-29.2	-29.7	16.4	1.20e-04	0	43	0	3498049536	34	16734
2026-01-20 21:56:20.85	37.44	8.28	-28.9	-29.4	16.6	1.52e-04	0	43	0	3833593856	34	16111
2026-01-20 21:56:23.88	37.94	8.49	-29.3	-29.8	16.3	1.20e-04	0	43	0	4177526784	34	16854
2026-01-20 21:56:26.92	38.45	8.70	-28.8	-29.3	16.5	2.12e-04	0	44	0	4521459712	32	17850
2026-01-20 21:56:29.95	38.96	8.91	-28.6	-29.1	16.7	9.80e-05	0	44	0	4865392640	32	17500
2026-01-20 21:56:32.98	39.48	9.12	-28.5	-29.0	16.7	2.72e-05	0	44	0	5200936960	32	17358
2026-01-20 21:56:36.01	40.01	9.34	-28.5	-29.0	16.7	2.17e-05	0	44	0	5544869888	32	17323
2026-01-20 21:56:39.04	40.55	9.55	-28.3	-28.9	16.8	2.72e-05	0	44	0	5888802816	32	17013
2026-01-20 21:56:42.07	41.10	9.77	-28.4	-28.9	16.7	2.17e-05	0	44	0	6224347136	32	17007
2026-01-20 21:56:45.10	41.66	9.98	-28.1	-28.6	16.9	3.81e-05	0	44	0	6568280064	32	16571
2026-01-20 21:56:48.13	42.23	10.20	-28.0	-28.5	16.9	2.17e-05	0	44	0	6903824384	32	16276
2026-01-20 21:56:51.16	42.81	10.41	-28.0	-28.5	17.0	5.40e-06	0	44	0	7247757312	30	18241
2026-01-20 21:56:54.19	43.40	10.63	-27.9	-28.4	17.0	1.08e-05	0	44	0	7591690240	30	18180
2026-01-20 21:56:57.22	44.00	10.84	-27.7	-28.2	16.9	5.40e-06	0	44	0	7927234560	30	17700
2026-01-20 21:57:00.25	44.62	11.06	-27.6	-28.1	16.7	1.08e-05	0	44	0	8271167488	30	17530
2026-01-20 21:57:03.28	45.24	11.28	-27.4	-27.9	16.9	1.63e-05	0	44	0	8606711808	30	17063
2026-01-20 21:57:06.31	45.87	11.49	-27.5	-28.0	17.1	1.08e-05	0	44	0	8950644736	30	17284
2026-01-20 21:57:09.34	46.51	11.71	-27.3	-27.8	17.0	0.00e+00	0	44	0	9294577664	30	16885
2026-01-20 21:57:12.37	47.17	11.92	-27.3	-27.8	17.0	1.08e-05	0	44	0	9630121984	30	16976
2026-01-20 21:57:15.40	47.84	12.14	-27.3	-27.8	17.1	0.00e+00	0	44	0	9974054912	30	16971
2026-01-20 21:57:18.43	48.52	12.35	-27.1	-27.6	16.9	1.08e-05	0	44	0	10309599232	30	16496
2026-01-20 21:57:21.45	49.20	12.56	-27.1	-27.6	16.8	2.17e-05	0	44	0	10653532160	30	16558
2026-01-20 21:57:24.48	49.91	12.78	-26.9	-27.5	17.0	0.00e+00	0	44	0	10989076480	30	16258
2026-01-20 21:57:27.51	50.62	12.99	-27.1	-27.6	17.0	0.00e+00	0	44	0	11333009408	30	16609
2026-01-20 21:57:30.54	51.35	13.20	-27.2	-27.8	17.0	5.40e-06	0	44	0	11676942336	30	16861
2026-01-20 21:57:33.57	52.08	13.41	-26.8	-27.3	16.9	0.00e+00	0	44	0	12012486656	30	15979
2026-01-20 21:57:36.59	52.83	13.61	-26.7	-27.3	17.0	5.40e-06	0	44	0	12356419584	28	17824
2026-01-20 21:57:39.63	53.60	13.82	-26.7	-27.2	16.9	0.00e+00	0	44	0	12700352512	28	17735
2026-01-20 21:57:42.65	54.37	14.02	-26.7	-27.2	17.0	0.00e+00	0	44	0	13044285440	28	17693
2026-01-20 21:57:45.68	55.16	14.22	-26.6	-27.1	16.9	1.63e-05	0	44	0	13379829760	28	17456
2026-01-20 21:57:48.71	55.96	14.42	-26.6	-27.2	17.0	0.00e+00	0	44	0	13723762688	28	17633
2026-01-20 21:57:51.74	56.77	14.62	-26.5	-27.0	17.0	5.40e-06	0	44	0	14067695616	28	17375
2026-01-20 21:57:54.78	57.60	14.81	-26.4	-27.0	16.9	0.00e+00	0	45	0	14403239936	28	17207
2026-01-20 21:57:57.80	58.43	15.00	-26.3	-26.8	16.8	5.40e-06	0	45	0	14747172864	28	16918
2026-01-20 21:58:00.84	59.29	15.19	-26.5	-26.9	16.6	5.40e-06	0	45	0	15082717184	28	17190
2026-01-20 21:58:03.86	60.15	15.38	-26.1	-26.6	16.9	1.08e-05	0	44	0	15426650112	28	16566
2026-01-20 21:58:06.89	61.02	15.56	-26.3	-26.8	16.9	5.40e-06	0	45	0	15770583040	28	16929
2026-01-20 21:58:09.92	61.91	15.73	-25.8	-26.3	16.8	1.63e-05	0	44	0	16106127360	28	16014
2026-01-20 21:58:12.95	62.81	15.90	-25.6	-26.2	17.0	0.00e+00	0	45	0	16450060288	26	17629
2026-01-20 21:58:15.98	63.72	16.07	-25.7	-26.2	17.1	5.40e-06	0	45	0	16785604608	26	17790
2026-01-20 21:58:19.00	64.64	16.23	-25.5	-26.0	17.2	0.00e+00	0	45	0	17129537536	26	17346
2026-01-20 21:58:22.03	65.57	16.39	-25.6	-26.1	17.2	0.00e+00	0	45	0	17465081856	26	17588
2026-01-20 21:58:25.06	66.52	16.55	-25.5	-26.0	17.0	0.00e+00	0	45	0	17809014784	26	17379
2026-01-20 21:58:28.09	67.48	16.69	-25.7	-26.2	17.1	1.08e-05	0	45	0	18144559104	26	17756
2026-01-20 21:58:31.12	68.44	16.83	-25.6	-26.1	17.1	0.00e+00	0	45	0	18488492032	26	17519
2026-01-20 21:58:34.15	69.42	16.97	-25.4	-25.9	17.1	0.00e+00	0	45	0	18832424960	26	17086
2026-01-20 21:58:37.17	70.41	17.10	-25.5	-26.0	17.2	0.00e+00	0	45	0	19167969280	26	17338
2026-01-20 21:58:40.20	71.40	17.22	-25.5	-25.9	16.6	0.00e+00	0	45	0	19511902208	26	17196
2026-01-20 21:58:43.23	72.41	17.34	-25.4	-25.9	17.1	5.40e-06	0	45	0	19855835136	26	17054
2026-01-20 21:58:46.26	73.43	17.45	-25.4	-25.9	17.1	0.00e+00	0	45	0	20191379456	26	17144
2026-01-20 21:58:49.28	74.45	17.55	-25.4	-25.9	17.2	0.00e+00	0	45	0	20535312384	26	17123
2026-01-20 21:58:52.31	75.48	17.64	-25.3	-25.8	17.3	0.00e+00	0	45	0	20879245312	26	16924
2026-01-20 21:58:55.34	76.51	17.73	-25.5	-26.0	17.1	0.00e+00	0	45	0	21223178240	26	17220
2026-01-20 21:58:58.37	77.56	17.81	-25.4	-25.9	17.0	0.00e+00	0	45	0	21558722560	26	17149
2026-01-20 21:59:01.36	78.60	17.88	-25.3	-25.8	16.9	0.00e+00	0	45	0	21894266880	26	16811
2026-01-20 21:59:04.40	79.66	17.94	-25.2	-25.7	17.1	5.40e-06	0	45	0	22238199808	26	16681
2026-01-20 21:59:07.43	80.72	17.99	-25.2	-25.7	17.1	0.00e+00	0	45	0	22573744128	26	16708
2026-01-20 21:59:10.46	81.78	18.04	-25.1	-25.6	17.0	5.40e-06	0	45	0	22917677056	26	16505
2026-01-20 21:59:13.48	82.85	18.08	-25.2	-25.6	16.9	0.00e+00	0	45	0	23253221376	26	16616
2026-01-20 21:59:16.51	83.92	18.10	-25.4	-25.9	16.9	0.00e+00	0	45	0	23597154304	26	17114
2026-01-20 21:59:19.54	84.99	18.12	-25.2	-25.7	17.0	5.40e-06	0	45	0	23941087232	26	16631
2026-01-20 21:59:22.58	86.07	18.13	-25.4	-25.8	17.0	0.00e+00	0	45	0	24276631552	26	16916
2026-01-20 21:59:25.61	87.14	18.14	-25.3	-25.8	16.9	0.00e+00	0	45	0	24620564480	26	16870
2026-01-20 21:59:28.64	88.22	18.13	-25.2	-25.7	16.8	0.00e+00	0	45	0	24956108800	26	16714
2026-01-20 21:59:31.66	89.29	18.12	-25.2	-25.7	16.9	5.40e-06	0	45	0	25300041728	26	16634
2026-01-20 21:59:34.70	90.37	18.09	-25.3	-25.7	16.9	0.00e+00	0	45	0	25643974656	26	16764
2026-01-20 21:59:37.73	91.44	18.06	-25.4	-25.9	16.9	0.00e+00	0	45	0	25979518976	26	17146
2026-01-20 21:59:40.76	92.50	18.02	-25.4	-25.9	16.9	0.00e+00	0	45	0	26323451904	26	17089
2026-01-20 21:59:43.79	93.57	17.97	-25.4	-25.8	16.8	0.00e+00	0	45	0	26667384832	26	16935
2026-01-20 21:59:46.82	94.63	17.91	-25.4	-25.8	16.9	0.00e+00	0	45	0	27011317760	26	16906
2026-01-20 21:59:49.85	95.68	17.84	-25.4	-25.8	16.9	0.00e+00	0	45	0	27346862080	26	16996
2026-01-20 21:59:52.88	96.73	17.77	-25.4	-25.9	16.9	0.00e+00	0	45	0	27690795008	26	17043
2026-01-20 21:59:55.90	97.77	17.68	-25.5	-25.9	16.9	0.00e+00	0	45	0	28034727936	26	17165
2026-01-20 21:59:58.93	98.81	17.59	-25.4	-25.9	16.8	0.00e+00	0	45	0	28370272256	26	17013
2026-01-20 22:00:01.97	99.84	17.49	-25.9	-26.3	16.9	0.00e+00	0	45	0	28714205184	26	17964
2026-01-20 22:00:05.00	100.87	17.39	-25.4	-25.8	17.0	0.00e+00	0	45	0	29058138112	26	16979
2026-01-20 22:00:08.03	101.88	17.28	-25.5	-25.9	17.1	0.00e+00	0	45	0	29393682432	26	17037
2026-01-20 22:00:11.05	102.88	17.16	-51.0	-53.5	6.1	0.00e+00	0	45	104	29678895104	60	58089
2026-01-20 22:00:14.08	103.88	17.03	-51.0	-53.5	6.1	0.00e+00	0	45	104	29678895104	60	58225
2026-01-20 22:00:17.10	104.86	16.90	-50.9	-53.4	6.1	0.00e+00	0	45	104	29678895104	60	57303
2026-01-20 22:00:20.13	105.84	16.76	-51.0	-53.4	6.1	0.00e+00	0	45	104	29678895104	60	57525
2026-01-20 22:00:23.16	106.80	16.61	-51.0	-53.5	6.1	0.00e+00	0	45	104	29678895104	60	57695
2026-01-20 22:00:26.18	107.75	16.46	-51.0	-53.5	6.1	0.00e+00	0	45	104	29678895104	60	57736
2026-01-20 22:00:29.21	108.70	16.31	-51.0	-53.5	6.1	0.00e+00	0	45	104	29678895104	60	57683
2026-01-20 22:00:32.24	109.63	16.15	-50.8	-53.3	6.1	0.00e+00	0	45	104	29678895104	60	56805
2026-01-20 22:00:35.27	110.55	15.98	-50.7	-53.2	6.1	0.00e+00	0	45	104	29678895104	60	55888
2026-01-20 22:00:38.30	111.46	15.81	-50.9	-53.4	6.1	0.00e+00	0	45	104	29678895104	60	57038
2026-01-20 22:00:41.33	112.36	15.63	-50.9	-53.3	6.1	0.00e+00	0	45	104	29678895104	60	56899
2026-01-20 22:00:44.36	113.24	15.45	-50.9	-53.4	6.1	0.00e+00	0	45	104	29678895104	60	57016
2026-01-20 22:00:47.39	114.12	15.27	-50.9	-53.3	6.1	0.00e+00	0	45	104	29678895104	60	56910
2026-01-20 22:00:50.42	114.98	15.08	-50.9	-53.4	6.1	0.00e+00	0	45	104	29678895104	60	57435
2026-01-20 22:00:53.45	115.82	14.89	-50.8	-53.3	6.1	0.00e+00	0	45	104	29678895104	60	56815
2026-01-20 22:00:56.47	116.66	14.70	-50.7	-53.2	6.1	0.00e+00	0	45	104	29678895104	60	56173
2026-01-20 22:00:59.50	117.48	14.50	-50.7	-53.3	6.1	0.00e+00	0	45	104	29678895104	60	56610
2026-01-20 22:01:02.53	118.29	14.30	-50.7	-53.2	6.1	0.00e+00	0	45	104	29678895104	60	56150
2026-01-20 22:01:05.55	119.09	14.10	-50.8	-53.3	6.1	0.00e+00	0	45	104	29678895104	60	56826
2026-01-20 22:01:08.58	119.87	13.90	-50.7	-53.2	6.1	0.00e+00	0	45	104	29678895104	60	55987
2026-01-20 22:01:11.62	120.65	13.69	-50.7	-53.1	6.1	0.00e+00	0	45	104	29678895104	60	55587
2026-01-20 22:01:14.64	121.41	13.48	-50.8	-53.2	6.1	0.00e+00	0	45	104	29678895104	60	56140
2026-01-20 22:01:17.67	122.15	13.27	-50.7	-53.3	6.1	0.00e+00	0	45	104	29678895104	60	56318
2026-01-20 22:01:20.70	122.89	13.06	-50.7	-53.2	6.1	0.00e+00	0	45	104	29678895104	60	55991
2026-01-20 22:01:23.73	123.61	12.85	-50.7	-53.2	6.1	0.00e+00	0	45	104	29678895104	60	56096
2026-01-20 22:01:26.76	124.32	12.64	-50.7	-53.2	6.1	0.00e+00	0	45	104	29678895104	60	55852
2026-01-20 22:01:29.79	125.02	12.42	-50.6	-53.2	6.1	0.00e+00	0	45	104	29678895104	60	55851
2026-01-20 22:01:32.82	125.71	12.20	-50.7	-53.1	6.1	0.00e+00	0	45	104	29678895104	60	55590
2026-01-20 22:01:35.85	126.39	11.99	-50.5	-53.0	6.1	0.00e+00	0	45	104	29678895104	60	54526
2026-01-20 22:01:38.87	127.05	11.77	-50.6	-53.2	6.1	0.00e+00	0	45	104	29678895104	60	55712
2026-01-20 22:01:41.90	127.70	11.56	-50.7	-53.2	6.1	0.00e+00	0	45	104	29678895104	60	55693
2026-01-20 22:01:44.93	128.34	11.34	-50.4	-53.0	6.1	0.00e+00	0	45	104	29678895104	60	54489
2026-01-20 22:01:47.96	128.98	11.12	-50.6	-53.0	6.1	0.00e+00	0	45	104	29678895104	60	54847
2026-01-20 22:01:50.99	129.60	10.90	-50.4	-53.0	6.1	0.00e+00	0	45	104	29678895104	60	54467
2026-01-20 22:01:54.02	130.20	10.68	-50.5	-53.0	6.1	0.00e+00	0	45	104	29678895104	60	54677
2026-01-20 22:01:57.04	130.80	10.47	-50.4	-52.9	6.1	0.00e+00	0	45	104	29678895104	60	53943
2026-01-20 22:02:00.08	131.39	10.25	-50.3	-52.8	6.1	0.00e+00	0	45	104	29678895104	60	53688
2026-01-20 22:02:03.11	131.97	10.03	-50.5	-53.0	6.1	0.00e+00	0	45	104	29678895104	60	54817
2026-01-20 22:02:06.13	132.53	9.82	-50.4	-52.9	6.1	0.00e+00	0	45	104	29678895104	60	54143
2026-01-20 22:02:09.16	133.09	9.60	-50.5	-52.9	6.1	0.00e+00	0	45	104	29678895104	60	54374
2026-01-20 22:02:12.19	133.64	9.38	-50.4	-52.9	6.1	0.00e+00	0	45	104	29678895104	60	54239
2026-01-20 22:02:15.22	134.18	9.17	-50.4	-52.9	6.1	0.00e+00	0	45	104	29678895104	60	54316
2026-01-20 22:02:18.25	134.71	8.95	-50.5	-53.0	6.1	0.00e+00	0	45	104	29678895104	60	54622
2026-01-20 22:02:21.28	135.22	8.74	-50.4	-52.9	6.1	0.00e+00	0	45	104	29678895104	60	53970
2026-01-20 22:02:24.30	135.73	8.53	-50.5	-53.0	6.1	0.00e+00	0	45	104	29678895104	60	54589
2026-01-20 22:02:27.34	136.24	8.31	-50.3	-52.8	6.1	0.00e+00	0	45	104	29678895104	60	53548
2026-01-20 22:02:30.37	136.73	8.10	-50.5	-52.9	6.1	0.00e+00	0	45	104	29678895104	60	54276
2026-01-20 22:02:33.40	137.21	7.89	-50.4	-52.9	6.1	0.00e+00	0	45	104	29678895104	60	53875
2026-01-20 22:02:36.42	137.69	7.68	-50.4	-53.0	6.0	0.00e+00	0	45	104	29678895104	60	54432
2026-01-20 22:02:39.45	138.16	7.47	-50.3	-52.8	6.1	0.00e+00	0	45	104	29678895104	60	53679
2026-01-20 22:02:42.49	138.62	7.26	-50.3	-52.8	6.1	0.00e+00	0	45	104	29678895104	60	53511
2026-01-20 22:02:45.52	139.07	7.05	-50.2	-52.7	6.1	0.00e+00	0	45	104	29678895104	60	52945
2026-01-20 22:02:48.55	139.52	6.85	-50.2	-52.7	6.1	0.00e+00	0	45	104	29678895104	60	52962
2026-01-20 22:02:51.57	139.95	6.64	-49.5	-52.0	6.1	0.00e+00	0	45	104	29678895104	60	48949
2026-01-20 22:02:54.60	140.38	6.44	-49.2	-51.7	6.1	0.00e+00	0	45	104	29678895104	60	46892
2026-01-20 22:02:57.63	140.80	6.23	-48.9	-51.4	6.1	0.00e+00	0	45	104	29678895104	60	45336
2026-01-20 22:03:00.66	141.22	6.03	-48.8	-51.3	6.1	0.00e+00	0	45	104	29678895104	60	44798
2026-01-20 22:03:03.69	141.63	5.83	-48.8	-51.3	6.1	0.00e+00	0	45	104	29678895104	60	44970
2026-01-20 22:03:06.72	142.03	5.63	-48.8	-51.4	6.1	0.00e+00	0	45	104	29678895104	60	45451
2026-01-20 22:03:09.74	142.42	5.43	-48.7	-51.2	6.1	0.00e+00	0	45	104	29678895104	60	44366
2026-01-20 22:03:12.76	142.81	5.23	-49.1	-51.5	6.1	0.00e+00	0	45	104	29678895104	60	46147
2026-01-20 22:03:15.79	143.19	5.03	-49.0	-51.5	6.1	0.00e+00	0	45	104	29678895104	60	46190
2026-01-20 22:03:18.82	143.57	4.84	-49.4	-51.9	6.1	0.00e+00	0	45	104	29678895104	60	48312
2026-01-20 22:03:21.85	143.94	4.64	-49.5	-52.0	6.1	0.00e+00	0	45	104	29678895104	60	48844
2026-01-20 22:03:24.88	144.30	4.45	-49.5	-52.0	6.1	0.00e+00	0	45	104	29678895104	60	48856
2026-01-20 22:03:27.91	144.66	4.25	-49.4	-51.9	6.1	0.00e+00	0	45	104	29678895104	60	48137
2026-01-20 22:03:30.94	145.01	4.06	-49.4	-51.9	6.0	0.00e+00	0	45	104	29678895104	60	48154
2026-01-20 22:03:33.96	145.36	3.87	-49.3	-51.8	6.1	0.00e+00	0	45	104	29678895104	60	47714
2026-01-20 22:03:36.99	145.70	3.68	-49.4	-51.9	6.1	0.00e+00	0	45	104	29678895104	60	48412
2026-01-20 22:03:40.02	146.03	3.49	-48.9	-51.4	6.1	0.00e+00	0	45	104	29678895104	60	45556
2026-01-20 22:03:43.05	146.37	3.30	-48.8	-51.3	6.1	0.00e+00	0	45	104	29678895104	60	44923
2026-01-20 22:03:46.08	146.69	3.12	-48.4	-50.9	6.1	0.00e+00	0	45	104	29678895104	60	43129
2026-01-20 22:03:49.10	147.01	2.93	-48.8	-51.3	6.1	0.00e+00	0	45	104	29678895104	60	44901
2026-01-20 22:03:52.13	147.33	2.75	-50.7	-53.1	6.1	0.00e+00	0	45	104	29678895104	60	55309
2026-01-20 22:03:55.16	147.64	2.56	-51.2	-53.7	6.1	0.00e+00	0	45	104	29678895104	60	59254
2026-01-20 22:03:58.19	147.94	2.38	-51.3	-53.8	6.1	0.00e+00	0	45	104	29678895104	60	59807
2026-01-20 22:04:01.22	148.25	2.20	-51.4	-53.9	6.1	0.00e+00	0	45	104	29678895104	60	60679
2026-01-20 22:04:04.25	148.54	2.02	-51.6	-54.0	6.1	0.00e+00	0	45	104	29678895104	60	61566
2026-01-20 22:04:07.28	148.84	1.84	-51.6	-54.0	6.1	0.00e+00	0	45	104	29678895104	60	61457
2026-01-20 22:04:10.31	149.12	1.66	-51.6	-54.0	6.1	0.00e+00	0	45	104	29678895104	60	61125
2026-01-20 22:04:13.34	149.41	1.48	-51.6	-54.1	6.1	0.00e+00	0	45	104	29678895104	60	62082
2026-01-20 22:04:16.37	149.69	1.30	-51.6	-54.0	6.1	0.00e+00	0	45	104	29678895104	60	61598
2026-01-20 22:04:19.40	149.97	1.13	-51.6	-54.0	6.1	0.00e+00	0	45	104	29678895104	60	61607
2026-01-20 22:04:22.43	150.24	0.95	-51.6	-54.0	6.1	0.00e+00	0	45	104	29678895104	60	61475
2026-01-20 22:04:25.47	150.51	0.78	-51.6	-54.1	6.1	0.00e+00	0	45	104	29678895104	60	61973
2026-01-20 22:04:28.49	150.77	0.61	-51.6	-54.1	6.1	0.00e+00	0	45	104	29678895104	60	61845
2026-01-20 22:04:31.52	151.03	0.43	-51.6	-54.1	6.1	0.00e+00	0	45	104	29678895104	60	61771
2026-01-20 22:04:34.55	151.29	0.26	-51.6	-54.0	6.1	0.00e+00	0	45	104	29678895104	60	61610
2026-01-20 22:04:37.58	151.54	0.09	-51.6	-54.0	6.1	0.00e+00	0	45	104	29678895104	60	61493
2026-01-20 22:04:40.61	151.79	-0.08	-51.6	-54.0	6.1	0.00e+00	0	45	104	29678895104	60	61516

#Closed at: 2026-01-20 22:04:41
#Recorded file [29678 MB]: D:/lorett/data/35029_260121_095440.dat