passes_logs/2026/01/20/R4.6S_Anadyr/R4.6S_Anadyr__20260120_052802_FENGYUN_3D_rec.log

#Pass ID: 20260120_052802_FENGYUN 3D
#Satellite: FENGYUN 3D
#Configuration: FENGYUN 3D
#almurnet v.1.7.20251203
#Start time: 2026-01-20 05:28:03

#Version: 2.2.20231116
#Station: R4.6S_Anadyr
#Location: 177.4865 lon 64.73178 lat
#TLE: 1 43010U 17072A   26019.30265705  .00000224  00000+0  12791-3 0  9991
#TLE: 2 43010  98.9940 351.1850 0002428 100.8496 259.2953 14.19697535423864

#Time	Az	El	Level	Level2	SNR	BER	BlckErr	Temp	State	Recorded	gain1	gain2
2026-01-20 05:28:03.39	243.12	0.05	-54.1	-71.8	3.5	3.02e+01	0	39	0	0	60	149336
2026-01-20 05:28:06.41	243.42	0.17	-53.4	-65.6	3.6	8.45e-01	0	40	104	0	60	68810
2026-01-20 05:28:09.44	243.71	0.29	-53.3	-65.5	3.6	8.45e-01	0	41	104	0	60	68106
2026-01-20 05:28:12.47	244.01	0.41	-53.6	-66.0	3.6	8.44e-01	0	41	104	0	60	72119
2026-01-20 05:28:15.50	244.30	0.53	-53.1	-65.5	3.6	8.45e-01	0	41	104	0	60	68076
2026-01-20 05:28:18.54	244.61	0.66	-52.2	-64.3	3.6	8.44e-01	0	41	104	0	60	59055
2026-01-20 05:28:21.57	244.91	0.78	-52.7	-64.8	3.6	8.45e-01	0	41	104	0	60	62626
2026-01-20 05:28:24.60	245.22	0.90	-51.2	-63.3	3.6	8.45e-01	0	41	104	0	60	52841
2026-01-20 05:28:27.63	245.52	1.02	-50.1	-62.2	3.6	8.46e-01	0	41	104	0	60	46471
2026-01-20 05:28:30.66	245.83	1.14	-49.7	-61.9	3.6	8.46e-01	0	41	104	0	60	44792
2026-01-20 05:28:33.69	246.15	1.26	-49.7	-61.7	3.6	8.46e-01	0	41	104	0	60	43909
2026-01-20 05:28:36.72	246.46	1.38	-49.4	-61.5	3.6	8.45e-01	0	41	104	0	60	42784
2026-01-20 05:28:39.75	246.78	1.50	-49.2	-61.3	3.5	8.45e-01	0	41	104	0	60	41786
2026-01-20 05:28:42.78	247.10	1.62	-49.2	-61.2	3.6	8.45e-01	0	41	104	0	60	41718
2026-01-20 05:28:45.81	247.42	1.74	-49.2	-61.2	3.6	8.46e-01	0	41	104	0	60	41731
2026-01-20 05:28:48.84	247.75	1.86	-49.2	-61.3	3.6	8.46e-01	0	41	104	0	60	41823
2026-01-20 05:28:51.87	248.08	1.97	-49.2	-61.1	3.6	8.45e-01	0	41	104	0	60	41262
2026-01-20 05:28:54.90	248.41	2.09	-49.4	-61.4	3.6	8.46e-01	0	41	104	0	60	42551
2026-01-20 05:28:57.93	248.74	2.21	-49.4	-61.5	3.6	8.45e-01	0	41	104	0	60	42828
2026-01-20 05:29:00.96	249.07	2.33	-49.4	-61.4	3.6	8.46e-01	0	41	104	0	60	42512
2026-01-20 05:29:03.99	249.41	2.45	-49.6	-61.7	3.6	8.46e-01	0	41	104	0	60	43984
2026-01-20 05:29:07.02	249.75	2.56	-49.6	-61.6	3.6	8.45e-01	0	41	104	0	60	43639
2026-01-20 05:29:10.05	250.09	2.68	-49.4	-60.3	3.6	8.46e-01	0	42	104	0	60	37559
2026-01-20 05:29:13.08	250.44	2.80	-49.6	-58.4	3.8	8.45e-01	0	42	104	0	60	29983
2026-01-20 05:29:16.11	250.79	2.91	-45.2	-47.2	14.1	2.86e-05	0	42	0	10485760	60	8313
2026-01-20 05:29:19.14	251.14	3.03	-41.1	-42.2	18.9	0.00e+00	0	42	0	27262976	56	5872
2026-01-20 05:29:22.17	251.49	3.15	-41.4	-42.6	18.5	0.00e+00	0	42	0	31457280	54	6872
2026-01-20 05:29:25.20	251.85	3.26	-38.3	-39.2	21.2	0.00e+00	0	42	0	49283072	50	5845
2026-01-20 05:29:28.23	252.21	3.38	-40.0	-41.0	18.8	0.00e+00	0	42	0	66060288	50	7187
2026-01-20 05:29:31.26	252.57	3.49	-39.3	-40.3	19.9	0.00e+00	0	42	0	82837504	52	5915
2026-01-20 05:29:34.29	252.93	3.61	-41.4	-42.6	17.9	0.00e+00	0	42	0	99614720	56	6170
2026-01-20 05:29:37.32	253.30	3.72	-39.6	-40.6	20.1	0.00e+00	0	42	0	117440512	52	6128
2026-01-20 05:29:40.35	253.67	3.83	-39.0	-39.9	20.7	0.00e+00	0	42	0	134217728	52	5692
2026-01-20 05:29:43.38	254.04	3.94	-39.3	-40.2	20.3	0.00e+00	0	42	0	150994944	50	6610
2026-01-20 05:29:46.41	254.42	4.06	-37.8	-38.6	21.7	0.00e+00	0	42	0	168820736	48	6160
2026-01-20 05:29:49.45	254.80	4.17	-39.0	-39.9	20.7	0.00e+00	0	42	0	185597952	52	5690
2026-01-20 05:29:52.48	255.18	4.28	-38.5	-39.4	21.2	0.00e+00	0	42	0	202375168	50	5971
2026-01-20 05:29:55.51	255.56	4.39	-38.5	-39.3	21.2	0.00e+00	0	42	0	219152384	50	5939
2026-01-20 05:29:58.54	255.95	4.50	-37.9	-38.7	21.5	0.00e+00	0	42	0	235929600	48	6214
2026-01-20 05:30:01.57	256.34	4.61	-38.6	-39.5	21.2	0.00e+00	0	42	0	253755392	50	6067
2026-01-20 05:30:04.59	256.73	4.72	-37.9	-38.7	21.9	0.00e+00	0	42	0	270532608	48	6198
2026-01-20 05:30:07.63	257.12	4.83	-37.3	-38.0	22.4	0.00e+00	0	42	0	287309824	48	5751
2026-01-20 05:30:10.66	257.52	4.93	-38.8	-39.7	21.2	0.00e+00	0	42	0	305135616	50	6199
2026-01-20 05:30:13.69	257.92	5.04	-37.8	-38.6	22.1	0.00e+00	0	42	0	321912832	50	5455
2026-01-20 05:30:16.72	258.32	5.14	-38.2	-39.1	21.7	0.00e+00	0	42	0	338690048	48	6474
2026-01-20 05:30:19.75	258.73	5.25	-37.9	-38.7	22.0	0.00e+00	0	42	0	355467264	50	5539
2026-01-20 05:30:22.78	259.14	5.35	-38.2	-39.0	21.7	0.00e+00	0	42	0	372244480	48	6457
2026-01-20 05:30:25.81	259.55	5.46	-37.9	-38.7	22.0	0.00e+00	0	42	0	390070272	48	6210
2026-01-20 05:30:28.84	259.97	5.56	-37.9	-38.7	22.2	0.00e+00	0	42	0	406847488	48	6181
2026-01-20 05:30:31.87	260.38	5.66	-37.5	-38.2	22.5	0.00e+00	0	42	0	423624704	48	5891
2026-01-20 05:30:34.91	260.80	5.76	-37.8	-38.6	22.3	0.00e+00	0	42	0	441450496	48	6133
2026-01-20 05:30:37.93	261.22	5.86	-38.1	-38.9	21.9	0.00e+00	0	42	0	458227712	48	6361
2026-01-20 05:30:40.97	261.65	5.96	-37.8	-38.6	22.5	0.00e+00	0	42	0	475004928	48	6135
2026-01-20 05:30:44.00	262.08	6.06	-37.8	-38.6	22.4	0.00e+00	0	42	0	491782144	48	6169
2026-01-20 05:30:47.03	262.51	6.16	-37.8	-38.6	22.5	0.00e+00	0	42	0	509607936	48	6133
2026-01-20 05:30:50.06	262.94	6.25	-38.7	-39.5	21.3	0.00e+00	0	42	0	526385152	48	6815
2026-01-20 05:30:53.09	263.38	6.35	-37.6	-38.4	22.4	0.00e+00	0	42	0	543162368	48	5991
2026-01-20 05:30:56.12	263.82	6.44	-37.5	-38.3	22.6	0.00e+00	0	42	0	559939584	48	5908
2026-01-20 05:30:59.15	264.26	6.53	-37.1	-37.9	22.7	0.00e+00	0	42	0	576716800	48	5663
2026-01-20 05:31:02.18	264.71	6.63	-38.4	-39.2	21.8	0.00e+00	0	42	0	594542592	48	6574
2026-01-20 05:31:05.21	265.15	6.72	-38.2	-39.0	22.4	0.00e+00	0	42	0	611319808	48	6460
2026-01-20 05:31:08.24	265.60	6.81	-37.5	-38.3	22.9	0.00e+00	0	42	0	628097024	48	5913
2026-01-20 05:31:11.27	266.06	6.89	-38.1	-38.9	22.6	0.00e+00	0	42	0	645922816	48	6347
2026-01-20 05:31:14.30	266.51	6.98	-37.8	-38.6	22.9	0.00e+00	0	42	0	662700032	48	6108
2026-01-20 05:31:17.33	266.97	7.07	-37.9	-38.7	22.7	0.00e+00	0	42	0	679477248	48	6174
2026-01-20 05:31:20.36	267.43	7.15	-37.7	-38.5	22.5	0.00e+00	0	42	0	696254464	48	6078
2026-01-20 05:31:23.40	267.89	7.24	-37.6	-38.4	23.1	0.00e+00	0	42	0	714080256	48	5971
2026-01-20 05:31:26.43	268.36	7.32	-37.7	-38.5	22.8	0.00e+00	0	42	0	730857472	48	6055
2026-01-20 05:31:29.46	268.83	7.40	-37.4	-38.1	23.1	0.00e+00	0	42	0	747634688	48	5784
2026-01-20 05:31:32.49	269.30	7.48	-37.7	-38.4	22.9	0.00e+00	0	42	0	764411904	48	6023
2026-01-20 05:31:35.52	269.77	7.56	-37.2	-38.0	23.2	0.00e+00	0	42	0	782237696	48	5731
2026-01-20 05:31:38.55	270.25	7.63	-37.7	-38.5	22.8	0.00e+00	0	42	0	799014912	48	6035
2026-01-20 05:31:41.58	270.72	7.71	-38.1	-38.9	22.2	0.00e+00	0	42	0	815792128	48	6380
2026-01-20 05:31:44.62	271.21	7.78	-36.8	-37.6	23.4	0.00e+00	0	42	0	833617920	48	5470
2026-01-20 05:31:47.65	271.69	7.85	-36.9	-37.6	23.3	0.00e+00	0	42	0	850395136	46	6173
2026-01-20 05:31:50.68	272.17	7.92	-36.7	-37.4	23.5	0.00e+00	0	42	0	867172352	46	6032
2026-01-20 05:31:53.71	272.66	7.99	-37.6	-38.4	22.9	0.00e+00	0	42	0	883949568	46	6709
2026-01-20 05:31:56.73	273.15	8.06	-37.2	-38.0	23.2	0.00e+00	0	42	0	900726784	48	5707
2026-01-20 05:31:59.76	273.64	8.12	-36.6	-37.4	23.8	0.00e+00	0	42	0	918552576	46	5966
2026-01-20 05:32:02.79	274.13	8.19	-38.2	-38.9	22.7	0.00e+00	0	42	0	935329792	48	6376
2026-01-20 05:32:05.82	274.63	8.25	-37.8	-38.6	22.9	0.00e+00	0	42	0	952107008	48	6106
2026-01-20 05:32:08.85	275.12	8.31	-37.9	-38.7	22.7	0.00e+00	0	42	0	969932800	48	6211
2026-01-20 05:32:11.88	275.62	8.37	-38.5	-39.3	22.2	0.00e+00	0	42	0	986710016	48	6650
2026-01-20 05:32:14.91	276.12	8.43	-37.5	-38.2	23.2	0.00e+00	0	42	0	1003487232	48	5888
2026-01-20 05:32:17.94	276.63	8.48	-37.3	-38.0	23.7	0.00e+00	0	42	0	1020264448	48	5759
2026-01-20 05:32:20.96	277.13	8.54	-36.8	-37.5	23.9	0.00e+00	0	42	0	1038090240	48	5413
2026-01-20 05:32:24.00	277.64	8.59	-37.4	-38.1	23.3	0.00e+00	0	42	0	1054867456	46	6528
2026-01-20 05:32:27.03	278.15	8.64	-37.2	-38.0	23.3	0.00e+00	0	42	0	1071644672	46	6422
2026-01-20 05:32:30.06	278.66	8.69	-36.8	-37.5	23.5	0.00e+00	0	42	0	1088421888	46	6095
2026-01-20 05:32:33.09	279.17	8.73	-36.5	-37.2	23.9	0.00e+00	0	42	0	1105199104	46	5880
2026-01-20 05:32:36.12	279.68	8.78	-37.0	-37.7	23.3	0.00e+00	0	42	0	1123024896	46	6211
2026-01-20 05:32:39.15	280.20	8.82	-36.8	-37.6	23.5	0.00e+00	0	42	0	1139802112	46	6124
2026-01-20 05:32:42.18	280.71	8.86	-36.4	-37.1	23.8	0.00e+00	0	42	0	1156579328	46	5798
2026-01-20 05:32:45.21	281.23	8.90	-36.3	-37.0	24.0	0.00e+00	0	42	0	1174405120	46	5730
2026-01-20 05:32:48.24	281.75	8.94	-37.0	-37.7	23.4	0.00e+00	0	42	0	1191182336	46	6230
2026-01-20 05:32:51.28	282.27	8.97	-37.1	-37.8	23.2	0.00e+00	0	42	0	1207959552	46	6316
2026-01-20 05:32:54.31	282.79	9.00	-36.7	-37.4	23.6	0.00e+00	0	42	0	1224736768	44	6724
2026-01-20 05:32:57.34	283.31	9.03	-37.1	-37.8	23.2	0.00e+00	0	42	0	1242562560	46	6289
2026-01-20 05:33:00.37	283.83	9.06	-36.9	-37.7	23.3	0.00e+00	0	42	0	1259339776	46	6214
2026-01-20 05:33:03.40	284.36	9.09	-37.6	-38.4	23.0	0.00e+00	0	42	0	1276116992	48	5983
2026-01-20 05:33:06.43	284.88	9.11	-37.2	-37.9	23.4	0.00e+00	0	42	0	1292894208	48	5672
2026-01-20 05:33:09.46	285.41	9.14	-36.5	-37.2	23.8	0.00e+00	0	42	0	1310720000	46	5874
2026-01-20 05:33:12.49	285.93	9.16	-37.2	-37.9	23.1	0.00e+00	0	42	0	1327497216	46	6364
2026-01-20 05:33:15.53	286.46	9.18	-36.3	-37.1	23.7	0.00e+00	0	42	0	1344274432	46	5794
2026-01-20 05:33:18.56	286.99	9.19	-36.4	-37.2	23.9	0.00e+00	0	42	0	1362100224	46	5831
2026-01-20 05:33:21.59	287.52	9.21	-36.7	-37.4	23.7	0.00e+00	0	42	0	1378877440	46	6021
2026-01-20 05:33:24.62	288.05	9.22	-37.3	-38.1	23.1	0.00e+00	0	42	0	1395654656	46	6498
2026-01-20 05:33:27.65	288.57	9.23	-36.6	-37.4	23.6	0.00e+00	0	42	0	1412431872	46	5981
2026-01-20 05:33:30.68	289.10	9.24	-37.3	-38.0	23.1	0.00e+00	0	42	0	1429209088	46	6455
2026-01-20 05:33:33.71	289.63	9.24	-37.0	-37.8	23.4	0.00e+00	0	42	0	1447034880	46	6249
2026-01-20 05:33:36.74	290.16	9.25	-37.8	-38.6	22.9	0.00e+00	0	42	0	1463812096	48	6137
2026-01-20 05:33:39.76	290.69	9.25	-36.9	-37.6	23.5	0.00e+00	0	42	0	1480589312	46	6154
2026-01-20 05:33:42.80	291.22	9.25	-36.7	-37.5	23.6	0.00e+00	0	42	0	1498415104	46	6058
2026-01-20 05:33:45.83	291.75	9.24	-36.8	-37.6	23.7	0.00e+00	0	42	0	1515192320	46	6152
2026-01-20 05:33:48.85	292.28	9.24	-37.0	-37.8	23.6	0.00e+00	0	42	0	1531969536	46	6250
2026-01-20 05:33:51.88	292.81	9.23	-36.9	-37.7	23.4	0.00e+00	0	42	0	1548746752	46	6194
2026-01-20 05:33:54.91	293.34	9.22	-36.6	-37.4	23.8	0.00e+00	0	42	0	1566572544	46	5991
2026-01-20 05:33:57.94	293.86	9.21	-36.5	-37.2	23.8	0.00e+00	0	42	0	1583349760	46	5877
2026-01-20 05:34:00.96	294.39	9.20	-36.5	-37.3	23.8	0.00e+00	0	42	0	1600126976	46	5907
2026-01-20 05:34:04.00	294.92	9.18	-36.5	-37.2	23.7	0.00e+00	0	42	0	1616904192	46	5874
2026-01-20 05:34:07.03	295.45	9.17	-37.0	-37.7	23.4	0.00e+00	0	42	0	1633681408	46	6189
2026-01-20 05:34:10.06	295.97	9.15	-36.9	-37.6	23.4	0.00e+00	0	42	0	1651507200	46	6158
2026-01-20 05:34:13.09	296.50	9.13	-36.6	-37.3	23.6	0.00e+00	0	42	0	1668284416	46	5920
2026-01-20 05:34:16.12	297.02	9.10	-36.7	-37.4	23.5	0.00e+00	0	42	0	1685061632	46	6014
2026-01-20 05:34:19.15	297.55	9.08	-37.7	-38.5	22.8	0.00e+00	0	42	0	1702887424	46	6844
2026-01-20 05:34:22.18	298.07	9.05	-37.4	-38.2	23.1	0.00e+00	0	42	0	1719664640	48	5834
2026-01-20 05:34:25.21	298.59	9.02	-37.3	-38.1	23.0	0.00e+00	0	42	0	1736441856	48	5773
2026-01-20 05:34:28.24	299.11	8.99	-36.8	-37.5	23.5	0.00e+00	0	42	0	1753219072	48	5432
2026-01-20 05:34:31.27	299.63	8.95	-36.9	-37.7	23.3	0.00e+00	0	42	0	1771044864	48	5540
2026-01-20 05:34:34.30	300.15	8.92	-36.6	-37.3	23.8	0.00e+00	0	42	0	1787822080	46	5932
2026-01-20 05:34:37.33	300.67	8.88	-36.5	-37.2	23.7	0.00e+00	0	42	0	1804599296	46	5852
2026-01-20 05:34:40.36	301.18	8.84	-36.4	-37.0	24.0	0.00e+00	0	42	0	1821376512	46	5744
2026-01-20 05:34:43.39	301.69	8.80	-36.7	-37.4	23.7	0.00e+00	0	42	0	1838153728	46	6028
2026-01-20 05:34:46.42	302.21	8.76	-36.9	-37.6	23.6	0.00e+00	0	42	0	1855979520	46	6159
2026-01-20 05:34:49.45	302.72	8.71	-37.2	-38.0	23.6	0.00e+00	0	42	0	1872756736	46	6417
2026-01-20 05:34:52.48	303.23	8.66	-37.4	-38.2	23.6	0.00e+00	0	42	0	1889533952	46	6545
2026-01-20 05:34:55.51	303.74	8.61	-37.7	-38.5	22.9	0.00e+00	0	42	0	1907359744	46	6840
2026-01-20 05:34:58.54	304.24	8.56	-37.6	-38.3	23.4	0.00e+00	0	42	0	1924136960	46	6648
2026-01-20 05:35:01.57	304.75	8.51	-37.8	-38.5	22.8	0.00e+00	0	42	0	1940914176	48	6102
2026-01-20 05:35:04.60	305.25	8.46	-37.8	-38.6	23.1	0.00e+00	0	42	0	1957691392	48	6154
2026-01-20 05:35:07.63	305.75	8.40	-37.9	-38.7	22.9	0.00e+00	0	42	0	1975517184	48	6201
2026-01-20 05:35:10.66	306.25	8.34	-37.4	-38.1	23.4	0.00e+00	0	42	0	1992294400	48	5803
2026-01-20 05:35:13.68	306.74	8.28	-38.1	-38.9	23.0	0.00e+00	0	42	0	2009071616	48	6361
2026-01-20 05:35:16.71	307.24	8.22	-37.8	-38.6	22.9	0.00e+00	0	42	0	2025848832	48	6129
2026-01-20 05:35:19.74	307.73	8.16	-37.4	-38.2	23.3	0.00e+00	0	42	0	2042626048	48	5851
2026-01-20 05:35:22.77	308.22	8.09	-37.6	-38.4	23.2	0.00e+00	0	42	0	2060451840	48	5991
2026-01-20 05:35:25.80	308.71	8.03	-38.2	-39.0	23.0	0.00e+00	0	42	0	2077229056	48	6456
2026-01-20 05:35:28.83	309.20	7.96	-37.8	-38.6	23.0	0.00e+00	0	42	0	2094006272	48	6153
2026-01-20 05:35:31.86	309.68	7.89	-37.7	-38.5	22.9	0.00e+00	0	42	0	2111832064	48	6046
2026-01-20 05:35:34.88	310.16	7.82	-37.8	-38.6	22.9	0.00e+00	0	42	0	2128609280	48	6164
2026-01-20 05:35:37.91	310.64	7.75	-37.4	-38.2	23.2	0.00e+00	0	42	0	2145386496	48	5891
2026-01-20 05:35:40.95	311.12	7.67	-37.0	-37.7	23.3	0.00e+00	0	42	0	2162163712	48	5547
2026-01-20 05:35:43.97	311.59	7.60	-37.9	-38.7	22.8	0.00e+00	0	42	0	2179989504	48	6207
2026-01-20 05:35:47.00	312.07	7.52	-37.7	-38.5	22.6	0.00e+00	0	42	0	2196766720	48	6075
2026-01-20 05:35:50.03	312.54	7.44	-38.2	-39.0	22.1	0.00e+00	0	42	0	2213543936	48	6415
2026-01-20 05:35:53.06	313.00	7.37	-38.2	-39.0	22.7	0.00e+00	0	42	0	2230321152	48	6458
2026-01-20 05:35:56.09	313.47	7.28	-37.7	-38.5	23.0	0.00e+00	0	42	0	2247098368	48	6053
2026-01-20 05:35:59.12	313.93	7.20	-37.5	-38.2	22.9	0.00e+00	0	42	0	2264924160	48	5863
2026-01-20 05:36:02.15	314.39	7.12	-38.2	-39.0	22.5	0.00e+00	0	42	0	2281701376	48	6420
2026-01-20 05:36:05.18	314.85	7.03	-38.4	-39.2	22.5	0.00e+00	0	42	0	2298478592	50	5848
2026-01-20 05:36:08.21	315.30	6.95	-37.5	-38.3	23.0	0.00e+00	0	42	0	2316304384	48	5951
2026-01-20 05:36:11.24	315.76	6.86	-37.9	-38.7	22.4	0.00e+00	0	42	0	2333081600	48	6212
2026-01-20 05:36:14.27	316.21	6.77	-38.1	-38.9	22.3	0.00e+00	0	42	0	2349858816	48	6386
2026-01-20 05:36:17.29	316.65	6.68	-38.5	-39.3	21.9	0.00e+00	0	42	0	2366636032	48	6690
2026-01-20 05:36:20.31	317.10	6.59	-38.1	-38.9	22.2	0.00e+00	0	42	0	2384461824	48	6361
2026-01-20 05:36:23.34	317.54	6.50	-38.4	-39.1	22.2	0.00e+00	0	42	0	2401239040	50	5822
2026-01-20 05:36:26.37	317.98	6.41	-38.5	-39.3	22.2	0.00e+00	0	42	0	2418016256	50	5927
2026-01-20 05:36:29.40	318.41	6.32	-39.6	-40.4	21.1	0.00e+00	0	42	0	2434793472	50	6728
2026-01-20 05:36:32.43	318.85	6.22	-38.8	-39.6	21.4	0.00e+00	0	42	0	2451570688	50	6151
2026-01-20 05:36:35.47	319.28	6.12	-38.4	-39.2	21.8	0.00e+00	0	42	0	2469396480	50	5883
2026-01-20 05:36:38.50	319.71	6.03	-38.4	-39.3	21.9	0.00e+00	0	42	0	2486173696	50	5947
2026-01-20 05:36:41.52	320.13	5.93	-38.2	-38.9	22.0	0.00e+00	0	42	0	2502950912	50	5674
2026-01-20 05:36:44.56	320.55	5.83	-38.9	-39.8	21.6	0.00e+00	0	42	0	2520776704	50	6296
2026-01-20 05:36:47.58	320.97	5.73	-39.3	-40.1	21.8	0.00e+00	0	42	0	2537553920	50	6535
2026-01-20 05:36:50.61	321.39	5.63	-38.6	-39.5	22.1	0.00e+00	0	42	0	2554331136	50	6078
2026-01-20 05:36:53.64	321.80	5.53	-38.0	-38.8	22.6	0.00e+00	0	42	0	2571108352	50	5577
2026-01-20 05:36:56.66	322.21	5.43	-38.0	-38.8	22.6	0.00e+00	0	42	0	2588934144	50	5579
2026-01-20 05:36:59.69	322.62	5.33	-38.5	-39.3	22.1	0.00e+00	0	42	0	2605711360	50	5943
2026-01-20 05:37:02.72	323.03	5.22	-38.7	-39.4	22.3	0.00e+00	0	42	0	2622488576	50	6032
2026-01-20 05:37:05.75	323.43	5.12	-38.0	-38.8	22.3	0.00e+00	0	42	0	2639265792	50	5570
2026-01-20 05:37:08.77	323.83	5.01	-39.5	-40.4	21.1	0.00e+00	0	42	0	2656043008	52	5974
2026-01-20 05:37:11.80	324.23	4.91	-39.5	-40.4	21.7	0.00e+00	0	42	0	2673868800	50	6725
2026-01-20 05:37:14.83	324.62	4.80	-39.0	-39.8	21.5	0.00e+00	0	42	0	2690646016	50	6308
2026-01-20 05:37:17.87	325.02	4.69	-39.2	-40.0	21.5	0.00e+00	0	42	0	2707423232	52	5749
2026-01-20 05:37:20.90	325.41	4.59	-39.4	-40.3	21.0	0.00e+00	0	42	0	2725249024	50	6627
2026-01-20 05:37:23.93	325.79	4.48	-40.3	-41.3	20.5	0.00e+00	0	42	0	2742026240	54	5927
2026-01-20 05:37:26.96	326.18	4.37	-39.7	-40.6	20.3	0.00e+00	0	42	0	2758803456	52	6150
2026-01-20 05:37:29.99	326.56	4.26	-39.0	-39.9	21.1	0.00e+00	0	42	0	2775580672	50	6336
2026-01-20 05:37:33.02	326.94	4.15	-38.3	-39.2	22.0	0.00e+00	0	42	0	2793406464	50	5876
2026-01-20 05:37:36.05	327.31	4.04	-38.7	-39.5	21.5	0.00e+00	0	42	0	2810183680	50	6090
2026-01-20 05:37:39.08	327.68	3.93	-39.8	-40.8	19.8	0.00e+00	0	42	0	2826960896	52	6296
2026-01-20 05:37:42.10	328.05	3.82	-38.0	-38.8	22.1	0.00e+00	0	42	0	2843738112	50	5619
2026-01-20 05:37:45.13	328.42	3.70	-40.5	-41.4	19.8	0.00e+00	0	42	0	2860515328	52	6695
2026-01-20 05:37:48.17	328.79	3.59	-39.6	-40.5	20.8	0.00e+00	0	42	0	2878341120	50	6810
2026-01-20 05:37:51.20	329.15	3.48	-40.0	-41.0	20.2	0.00e+00	0	42	0	2895118336	52	6422
2026-01-20 05:37:54.22	329.51	3.36	-41.7	-42.7	19.3	0.00e+00	0	42	0	2911895552	58	5539
2026-01-20 05:37:57.26	329.86	3.25	-40.4	-41.3	19.7	0.00e+00	0	42	0	2929721344	52	6675
2026-01-20 05:38:00.29	330.22	3.14	-43.1	-44.6	15.9	0.00e+00	0	42	0	2946498560	56	7717
2026-01-20 05:38:03.32	330.57	3.02	-44.9	-47.0	13.6	0.00e+00	0	42	0	2963275776	58	9061
2026-01-20 05:38:06.35	330.92	2.91	-51.8	-64.0	3.6	8.45e-01	0	42	104	2964324352	60	57081
2026-01-20 05:38:09.38	331.27	2.79	-51.6	-63.7	3.6	8.45e-01	0	42	104	2964324352	60	55290
2026-01-20 05:38:12.41	331.61	2.67	-51.7	-63.9	3.6	8.45e-01	0	42	104	2964324352	60	56509
2026-01-20 05:38:15.44	331.95	2.56	-51.6	-63.7	3.6	8.46e-01	0	42	104	2964324352	60	55414
2026-01-20 05:38:18.47	332.29	2.44	-52.4	-64.7	3.6	8.46e-01	0	42	104	2964324352	60	62344
2026-01-20 05:38:21.50	332.62	2.33	-52.0	-64.2	3.6	8.46e-01	0	42	104	2964324352	60	58493
2026-01-20 05:38:24.53	332.96	2.21	-52.0	-64.2	3.6	8.45e-01	0	42	104	2964324352	60	58364
2026-01-20 05:38:27.56	333.29	2.09	-51.8	-63.9	3.6	8.46e-01	0	42	104	2964324352	60	56757
2026-01-20 05:38:30.58	333.62	1.97	-52.2	-64.4	3.6	8.45e-01	0	42	104	2964324352	60	59964
2026-01-20 05:38:33.61	333.94	1.86	-52.6	-64.8	3.6	8.46e-01	0	42	104	2964324352	60	62464
2026-01-20 05:38:36.64	334.27	1.74	-52.9	-65.0	3.6	8.46e-01	0	42	104	2964324352	60	64595
2026-01-20 05:38:39.67	334.59	1.62	-52.7	-64.8	3.6	8.46e-01	0	42	104	2964324352	60	62911
2026-01-20 05:38:42.70	334.91	1.50	-52.2	-64.4	3.6	8.45e-01	0	42	104	2964324352	60	59890
2026-01-20 05:38:45.73	335.22	1.38	-52.1	-64.2	3.6	8.45e-01	0	42	104	2964324352	60	58691
2026-01-20 05:38:48.76	335.54	1.26	-53.0	-65.1	3.6	8.45e-01	0	42	104	2964324352	60	65146
2026-01-20 05:38:51.79	335.85	1.15	-52.5	-64.6	3.6	8.46e-01	0	42	104	2964324352	60	61344
2026-01-20 05:38:54.83	336.16	1.03	-52.6	-64.8	3.6	8.44e-01	0	42	104	2964324352	60	62683
2026-01-20 05:38:57.86	336.46	0.91	-52.8	-65.0	3.6	8.45e-01	0	42	104	2964324352	60	64076
2026-01-20 05:39:00.88	336.77	0.79	-53.1	-65.2	3.6	8.45e-01	0	42	104	2964324352	60	65955
2026-01-20 05:39:03.91	337.07	0.67	-52.7	-64.9	3.6	8.45e-01	0	42	104	2964324352	60	63265
2026-01-20 05:39:06.94	337.37	0.55	-52.6	-64.8	3.6	8.45e-01	0	42	104	2964324352	60	62479
2026-01-20 05:39:09.97	337.67	0.43	-52.3	-64.5	3.6	8.46e-01	0	42	104	2964324352	60	60459
2026-01-20 05:39:13.00	337.96	0.31	-53.0	-65.2	3.6	8.44e-01	0	42	104	2964324352	60	65798
2026-01-20 05:39:16.03	338.26	0.19	-52.8	-65.0	3.6	8.45e-01	0	42	104	2964324352	60	64199
2026-01-20 05:39:19.05	338.55	0.07	-52.8	-65.0	3.6	8.44e-01	0	42	104	2964324352	60	64076
2026-01-20 05:39:22.08	338.84	-0.05	-52.6	-64.8	3.6	8.45e-01	0	42	104	2964324352	60	62878

#Closed at: 2026-01-20 05:39:22
#Recorded file [2964 MB]: D:/lorett/data/35029_260120_172803.dat