passes_logs/2026/01/20/R4.6S_Anadyr/R4.6S_Anadyr__20260120_030926_NOAA_20_JPSS-1_rec.log

#Pass ID: 20260120_030926_NOAA 20 (JPSS-1)
#Satellite: NOAA 20 (JPSS-1)
#Configuration: NOAA 20
#almurnet v.1.7.20251203
#Start time: 2026-01-20 03:09:28

#Version: 2.2.20231116
#Station: R4.6S_Anadyr
#Location: 177.4865 lon 64.73178 lat
#TLE: 1 43013U 17073A   26019.27717929  .00000087  00000+0  62288-4 0  9995
#TLE: 2 43013  98.7641 320.1715 0001339  33.1986 326.9274 14.19537047423343

#Time	Az	El	Level	Level2	SNR	BER	BlckErr	Temp	State	Recorded	gain1	gain2
2026-01-20 03:09:28.14	235.17	0.06	-53.3	-68.2	3.5	1.51e+00	0	39	0	0	60	93115
2026-01-20 03:09:31.16	235.44	0.19	-53.4	-68.7	3.6	1.51e+00	0	40	104	0	60	98898
2026-01-20 03:09:34.19	235.71	0.33	-53.0	-68.2	3.6	1.51e+00	0	40	104	0	60	93248
2026-01-20 03:09:37.23	235.99	0.46	-53.5	-68.7	3.6	1.51e+00	0	40	104	0	60	98388
2026-01-20 03:09:40.26	236.27	0.59	-53.0	-68.3	3.6	1.51e+00	0	40	104	0	60	94316
2026-01-20 03:09:43.28	236.55	0.72	-51.4	-66.8	3.5	1.51e+00	0	40	104	0	60	79430
2026-01-20 03:09:46.32	236.83	0.86	-51.6	-66.8	3.6	1.51e+00	0	40	104	0	60	79046
2026-01-20 03:09:49.35	237.11	0.99	-51.0	-66.3	3.6	1.51e+00	0	40	104	0	60	74395
2026-01-20 03:09:52.37	237.40	1.12	-50.7	-66.0	3.6	1.51e+00	0	41	104	0	60	71740
2026-01-20 03:09:55.41	237.69	1.25	-49.0	-64.2	3.6	1.51e+00	0	40	104	0	60	58318
2026-01-20 03:09:58.43	237.98	1.38	-49.0	-64.2	3.6	1.51e+00	0	41	104	0	60	58485
2026-01-20 03:10:01.46	238.28	1.52	-49.4	-64.5	3.6	1.51e+00	0	41	104	0	60	60777
2026-01-20 03:10:04.49	238.57	1.65	-50.7	-65.9	3.6	1.51e+00	0	41	104	0	60	70995
2026-01-20 03:10:07.52	238.87	1.78	-50.4	-65.6	3.6	1.51e+00	0	41	104	0	60	68741
2026-01-20 03:10:10.55	239.17	1.91	-50.2	-65.3	3.6	1.51e+00	0	41	104	0	60	66801
2026-01-20 03:10:13.58	239.48	2.05	-49.2	-64.1	3.6	1.51e+00	0	41	104	0	60	57985
2026-01-20 03:10:16.61	239.78	2.18	-48.9	-63.8	3.6	1.51e+00	0	41	104	0	60	56073
2026-01-20 03:10:19.64	240.09	2.31	-49.3	-63.8	3.6	1.51e+00	0	41	104	0	60	56057
2026-01-20 03:10:22.67	240.41	2.44	-48.9	-63.3	3.6	1.51e+00	0	41	104	0	60	52636
2026-01-20 03:10:25.70	240.72	2.58	-48.7	-61.8	3.6	1.51e+00	0	41	104	0	60	44311
2026-01-20 03:10:28.73	241.04	2.71	-48.7	-62.0	3.6	1.54e+00	0	41	104	0	60	45658
2026-01-20 03:10:31.76	241.36	2.84	-48.6	-60.7	3.7	1.41e+00	0	41	104	0	60	39393
2026-01-20 03:10:34.79	241.68	2.97	-48.7	-57.9	4.4	1.29e+00	0	41	0	1048576	60	28323
2026-01-20 03:10:37.82	242.01	3.10	-48.9	-63.9	3.6	1.51e+00	0	41	104	2097152	60	56434
2026-01-20 03:10:40.85	242.34	3.23	-48.8	-58.8	4.1	3.72e-01	42	41	0	4194304	60	31316
2026-01-20 03:10:43.88	242.67	3.37	-48.4	-54.2	8.7	1.12e-01	0	41	0	9437184	60	18614
2026-01-20 03:10:46.90	243.00	3.50	-48.2	-54.2	9.2	6.14e-02	0	41	0	15728640	60	18644
2026-01-20 03:10:49.93	243.34	3.63	-48.1	-54.3	7.7	1.94e-01	0	41	0	20971520	60	18728
2026-01-20 03:10:52.95	243.68	3.76	-49.0	-53.9	9.5	9.35e-03	0	41	0	27262976	60	17811
2026-01-20 03:10:55.98	244.02	3.89	-48.3	-53.3	10.1	2.11e-03	0	41	0	32505856	60	16664
2026-01-20 03:10:59.01	244.37	4.02	-48.2	-53.0	10.8	1.84e-03	0	41	0	38797312	60	16112
2026-01-20 03:11:02.04	244.72	4.15	-47.8	-51.7	12.3	1.63e-03	0	41	0	44040192	60	13914
2026-01-20 03:11:05.07	245.07	4.28	-47.8	-52.0	12.0	3.94e-04	0	41	0	49283072	60	14378
2026-01-20 03:11:08.10	245.42	4.41	-48.2	-52.7	11.2	6.17e-05	0	41	0	55574528	60	15644
2026-01-20 03:11:11.13	245.78	4.54	-48.6	-53.1	10.9	6.61e-04	0	41	0	60817408	60	16272
2026-01-20 03:11:14.16	246.14	4.67	-47.8	-51.5	13.0	1.90e-05	0	41	0	67108864	60	13536
2026-01-20 03:11:17.19	246.51	4.80	-48.8	-52.2	13.5	2.43e-04	0	41	0	72351744	60	14788
2026-01-20 03:11:20.22	246.87	4.93	-47.3	-50.2	14.7	1.98e-05	0	41	0	77594624	60	11679
2026-01-20 03:11:23.25	247.25	5.06	-47.5	-50.5	14.6	2.20e-06	0	41	0	83886080	60	12150
2026-01-20 03:11:26.28	247.62	5.19	-48.4	-51.6	13.4	2.39e-04	0	41	0	89128960	60	13712
2026-01-20 03:11:29.31	248.00	5.31	-46.8	-49.0	16.6	0.00e+00	0	41	0	95420416	60	10191
2026-01-20 03:11:32.34	248.38	5.44	-47.2	-49.8	15.6	1.50e-06	0	41	0	100663296	60	11124
2026-01-20 03:11:35.36	248.76	5.57	-45.4	-47.2	17.9	0.00e+00	0	41	0	106954752	60	8301
2026-01-20 03:11:38.39	249.14	5.69	-47.3	-50.1	15.2	0.00e+00	0	41	0	112197632	60	11615
2026-01-20 03:11:41.42	249.53	5.82	-45.1	-47.1	18.5	0.00e+00	0	41	0	117440512	60	8167
2026-01-20 03:11:44.45	249.93	5.94	-44.8	-46.4	19.1	0.00e+00	0	41	0	123731968	60	7576
2026-01-20 03:11:47.48	250.32	6.07	-44.5	-46.1	18.9	0.00e+00	0	41	0	128974848	60	7319
2026-01-20 03:11:50.50	250.72	6.19	-44.9	-46.5	18.2	0.00e+00	0	41	0	135266304	60	7671
2026-01-20 03:11:53.53	251.12	6.32	-45.1	-46.7	19.2	0.00e+00	0	41	0	140509184	60	7814
2026-01-20 03:11:56.56	251.53	6.44	-44.2	-45.7	19.8	0.00e+00	0	41	0	145752064	60	6939
2026-01-20 03:11:59.59	251.94	6.56	-44.7	-46.1	19.8	0.00e+00	0	41	0	152043520	60	7300
2026-01-20 03:12:02.62	252.35	6.68	-44.8	-46.1	20.2	0.00e+00	0	41	0	157286400	60	7315
2026-01-20 03:12:05.65	252.76	6.81	-46.3	-48.0	19.3	0.00e+00	0	41	0	163577856	60	9119
2026-01-20 03:12:08.67	253.18	6.93	-43.8	-45.1	20.3	0.00e+00	0	41	0	168820736	60	6523
2026-01-20 03:12:11.70	253.60	7.05	-44.2	-45.5	20.4	0.00e+00	0	41	0	175112192	60	6808
2026-01-20 03:12:14.74	254.03	7.16	-44.0	-45.3	20.4	0.00e+00	0	41	0	180355072	60	6683
2026-01-20 03:12:17.76	254.46	7.28	-44.5	-45.8	20.5	0.00e+00	0	41	0	185597952	60	7013
2026-01-20 03:12:20.78	254.89	7.40	-44.1	-45.5	20.6	0.00e+00	0	41	0	191889408	60	6773
2026-01-20 03:12:23.82	255.33	7.52	-44.9	-46.2	20.1	0.00e+00	0	41	0	197132288	60	7413
2026-01-20 03:12:26.85	255.77	7.63	-43.8	-45.1	20.2	0.00e+00	0	41	0	203423744	60	6518
2026-01-20 03:12:29.87	256.21	7.75	-43.6	-45.0	20.0	0.00e+00	0	41	0	208666624	60	6453
2026-01-20 03:12:32.90	256.65	7.86	-43.7	-45.2	19.7	0.00e+00	0	41	0	213909504	60	6568
2026-01-20 03:12:35.93	257.10	7.97	-43.7	-45.1	20.5	0.00e+00	0	41	0	220200960	60	6470
2026-01-20 03:12:38.96	257.55	8.08	-43.4	-44.7	20.4	0.00e+00	0	41	0	225443840	60	6243
2026-01-20 03:12:41.99	258.01	8.20	-44.0	-45.4	20.0	0.00e+00	0	41	0	231735296	60	6742
2026-01-20 03:12:45.02	258.47	8.31	-44.3	-45.7	20.2	0.00e+00	0	41	0	236978176	60	6940
2026-01-20 03:12:48.05	258.93	8.41	-44.3	-45.6	20.3	0.00e+00	0	41	0	242221056	60	6884
2026-01-20 03:12:51.08	259.40	8.52	-43.6	-45.0	20.3	0.00e+00	0	41	0	248512512	60	6418
2026-01-20 03:12:54.11	259.87	8.63	-44.6	-46.0	19.9	0.00e+00	0	41	0	253755392	60	7215
2026-01-20 03:12:57.14	260.34	8.73	-43.1	-44.4	20.7	0.00e+00	0	41	0	260046848	60	5996
2026-01-20 03:13:00.17	260.81	8.84	-44.5	-45.9	20.2	0.00e+00	0	41	0	265289728	60	7124
2026-01-20 03:13:03.20	261.29	8.94	-44.4	-45.7	20.6	0.00e+00	0	41	0	271581184	60	6931
2026-01-20 03:13:06.22	261.77	9.04	-43.3	-44.7	20.2	0.00e+00	0	41	0	276824064	60	6174
2026-01-20 03:13:09.25	262.26	9.14	-43.8	-45.3	19.5	0.00e+00	0	41	0	282066944	60	6652
2026-01-20 03:13:12.29	262.75	9.24	-44.3	-45.7	19.9	0.00e+00	0	41	0	288358400	60	7001
2026-01-20 03:13:15.31	263.24	9.33	-44.2	-45.6	20.0	0.00e+00	0	41	0	293601280	60	6852
2026-01-20 03:13:18.34	263.73	9.43	-44.9	-46.5	19.1	0.00e+00	0	41	0	299892736	60	7636
2026-01-20 03:13:21.37	264.23	9.52	-43.3	-44.5	20.7	0.00e+00	0	41	0	305135616	60	6100
2026-01-20 03:13:24.40	264.73	9.62	-44.0	-45.3	20.3	0.00e+00	0	41	0	311427072	60	6632
2026-01-20 03:13:27.43	265.24	9.71	-44.7	-46.1	20.2	0.00e+00	0	41	0	316669952	60	7329
2026-01-20 03:13:30.46	265.74	9.80	-44.9	-46.5	18.9	0.00e+00	0	42	0	321912832	60	7635
2026-01-20 03:13:33.49	266.25	9.88	-45.0	-46.7	19.0	0.00e+00	0	42	0	328204288	60	7790
2026-01-20 03:13:36.52	266.76	9.97	-45.5	-47.0	19.8	0.00e+00	0	42	0	333447168	60	8060
2026-01-20 03:13:39.55	267.28	10.05	-44.8	-46.2	19.5	0.00e+00	0	41	0	339738624	60	7391
2026-01-20 03:13:42.58	267.80	10.14	-43.6	-44.8	21.1	0.00e+00	0	42	0	344981504	60	6280
2026-01-20 03:13:45.60	268.32	10.22	-44.9	-46.3	20.0	0.00e+00	0	42	0	350224384	60	7440
2026-01-20 03:13:48.64	268.84	10.30	-44.3	-45.7	20.1	0.00e+00	0	42	0	356515840	60	6994
2026-01-20 03:13:51.67	269.37	10.37	-44.8	-46.1	20.4	0.00e+00	0	42	0	361758720	60	7321
2026-01-20 03:13:54.70	269.90	10.45	-44.0	-45.4	20.5	0.00e+00	0	42	0	368050176	60	6707
2026-01-20 03:13:57.72	270.43	10.52	-43.1	-44.4	20.6	0.00e+00	0	42	0	373293056	60	6005
2026-01-20 03:14:00.75	270.96	10.59	-43.1	-44.4	20.5	0.00e+00	0	42	0	379584512	58	6723
2026-01-20 03:14:03.78	271.50	10.66	-43.2	-44.5	20.4	0.00e+00	0	42	0	384827392	58	6815
2026-01-20 03:14:06.81	272.04	10.73	-43.1	-44.4	20.9	0.00e+00	0	42	0	390070272	58	6696
2026-01-20 03:14:09.84	272.58	10.79	-43.0	-44.2	21.0	0.00e+00	0	42	0	396361728	58	6558
2026-01-20 03:14:12.87	273.12	10.86	-42.4	-43.6	21.1	0.00e+00	0	42	0	401604608	58	6135
2026-01-20 03:14:15.90	273.67	10.92	-43.8	-45.0	21.0	0.00e+00	0	42	0	407896064	60	6426
2026-01-20 03:14:18.93	274.22	10.97	-42.7	-43.9	21.1	0.00e+00	0	42	0	413138944	58	6320
2026-01-20 03:14:21.96	274.77	11.03	-43.0	-44.2	21.0	0.00e+00	0	42	0	418381824	58	6565
2026-01-20 03:14:24.99	275.32	11.09	-43.2	-44.5	21.0	0.00e+00	0	42	0	424673280	58	6783
2026-01-20 03:14:28.02	275.87	11.14	-43.6	-44.8	20.8	0.00e+00	0	42	0	429916160	60	6302
2026-01-20 03:14:31.04	276.43	11.19	-43.5	-44.7	20.7	0.00e+00	0	42	0	436207616	60	6232
2026-01-20 03:14:34.07	276.99	11.23	-43.5	-44.8	20.6	0.00e+00	0	42	0	441450496	60	6306
2026-01-20 03:14:37.10	277.54	11.28	-43.7	-45.0	20.8	0.00e+00	0	42	0	447741952	60	6402
2026-01-20 03:14:40.13	278.11	11.32	-44.6	-45.9	20.1	0.00e+00	0	42	0	452984832	60	7153
2026-01-20 03:14:43.16	278.67	11.36	-44.9	-46.2	20.4	0.00e+00	0	42	0	458227712	60	7406
2026-01-20 03:14:46.18	279.23	11.40	-44.9	-46.3	20.4	0.00e+00	0	42	0	464519168	60	7426
2026-01-20 03:14:49.21	279.79	11.44	-45.0	-46.6	19.3	0.00e+00	0	42	0	469762048	60	7721
2026-01-20 03:14:52.24	280.36	11.47	-44.8	-46.5	18.7	0.00e+00	0	42	0	476053504	60	7617
2026-01-20 03:14:55.27	280.93	11.50	-45.5	-47.0	19.3	0.00e+00	0	42	0	481296384	60	8127
2026-01-20 03:14:58.30	281.50	11.53	-45.1	-46.6	19.7	0.00e+00	0	42	0	486539264	60	7700
2026-01-20 03:15:01.33	282.07	11.55	-45.3	-46.8	19.4	0.00e+00	0	42	0	492830720	60	7941
2026-01-20 03:15:04.36	282.64	11.58	-44.9	-46.4	19.7	0.00e+00	0	42	0	498073600	60	7525
2026-01-20 03:15:07.38	283.21	11.60	-45.6	-47.2	19.3	0.00e+00	0	42	0	504365056	60	8261
2026-01-20 03:15:10.42	283.78	11.61	-46.5	-48.1	19.2	0.00e+00	0	42	0	509607936	60	9219
2026-01-20 03:15:13.44	284.35	11.63	-45.2	-46.6	20.0	0.00e+00	0	42	0	514850816	60	7750
2026-01-20 03:15:16.48	284.93	11.64	-44.7	-46.0	20.8	0.00e+00	0	42	0	521142272	60	7193
2026-01-20 03:15:19.51	285.50	11.65	-44.6	-45.9	20.8	0.00e+00	0	42	0	526385152	60	7140
2026-01-20 03:15:22.53	286.07	11.66	-45.2	-46.6	20.1	0.00e+00	0	42	0	532676608	60	7688
2026-01-20 03:15:25.56	286.65	11.67	-44.6	-46.0	20.7	0.00e+00	0	42	0	537919488	60	7198
2026-01-20 03:15:28.60	287.22	11.67	-43.1	-44.3	21.2	0.00e+00	0	42	0	544210944	60	5952
2026-01-20 03:15:31.63	287.80	11.67	-44.6	-45.9	20.8	0.00e+00	0	42	0	549453824	60	7112
2026-01-20 03:15:34.65	288.37	11.67	-43.6	-44.8	21.2	0.00e+00	0	42	0	554696704	60	6256
2026-01-20 03:15:37.68	288.94	11.66	-44.0	-45.2	21.5	0.00e+00	0	41	0	560988160	60	6567
2026-01-20 03:15:40.71	289.51	11.65	-43.3	-44.4	21.7	0.00e+00	0	42	0	566231040	60	6007
2026-01-20 03:15:43.74	290.09	11.64	-42.8	-43.9	22.0	0.00e+00	0	42	0	572522496	60	5682
2026-01-20 03:15:46.77	290.66	11.63	-43.6	-44.7	21.8	0.00e+00	0	42	0	577765376	58	7005
2026-01-20 03:15:49.80	291.23	11.62	-42.9	-44.0	21.8	0.00e+00	0	42	0	583008256	60	5722
2026-01-20 03:15:52.82	291.80	11.60	-41.7	-42.7	22.4	0.00e+00	0	42	0	589299712	56	6243
2026-01-20 03:15:55.85	292.37	11.58	-42.7	-43.7	22.5	0.00e+00	0	42	0	594542592	58	6233
2026-01-20 03:15:58.88	292.94	11.55	-43.8	-44.9	21.9	0.00e+00	0	42	0	600834048	60	6350
2026-01-20 03:16:01.91	293.51	11.53	-42.8	-43.8	22.3	0.00e+00	0	42	0	606076928	58	6314
2026-01-20 03:16:04.94	294.08	11.50	-43.7	-44.8	22.0	0.00e+00	0	42	0	612368384	58	7023
2026-01-20 03:16:07.97	294.65	11.47	-43.2	-44.3	21.9	0.00e+00	0	42	0	617611264	60	5920
2026-01-20 03:16:11.00	295.21	11.44	-44.2	-45.5	21.9	0.00e+00	0	42	0	622854144	60	6790
2026-01-20 03:16:14.03	295.78	11.40	-43.9	-45.1	21.5	0.00e+00	0	42	0	629145600	60	6471
2026-01-20 03:16:17.06	296.34	11.37	-43.8	-44.9	21.8	0.00e+00	0	42	0	634388480	60	6378
2026-01-20 03:16:20.09	296.90	11.33	-42.5	-43.7	21.7	0.00e+00	0	42	0	640679936	58	6175
2026-01-20 03:16:23.12	297.46	11.28	-43.6	-44.7	22.1	0.00e+00	0	42	0	645922816	60	6175
2026-01-20 03:16:26.14	298.02	11.24	-44.1	-45.3	20.3	0.00e+00	0	42	0	651165696	60	6674
2026-01-20 03:16:29.17	298.57	11.19	-44.5	-45.6	21.8	0.00e+00	0	42	0	657457152	60	6874
2026-01-20 03:16:32.19	299.13	11.14	-43.8	-45.0	20.8	0.00e+00	0	42	0	662700032	60	6454
2026-01-20 03:16:35.22	299.68	11.09	-44.6	-45.8	19.9	0.00e+00	0	42	0	668991488	60	7067
2026-01-20 03:16:38.25	300.23	11.04	-44.8	-46.0	21.0	0.00e+00	0	41	0	674234368	60	7243
2026-01-20 03:16:41.28	300.78	10.98	-43.9	-45.1	21.6	0.00e+00	0	42	0	680525824	60	6494
2026-01-20 03:16:44.31	301.33	10.92	-43.7	-44.8	22.0	0.00e+00	0	42	0	685768704	60	6298
2026-01-20 03:16:47.34	301.87	10.86	-42.9	-44.0	21.8	0.00e+00	0	42	0	691011584	60	5715
2026-01-20 03:16:50.36	302.41	10.80	-43.1	-44.2	21.9	0.00e+00	0	41	0	697303040	58	6546
2026-01-20 03:16:53.39	302.95	10.74	-42.9	-44.0	22.0	0.00e+00	0	41	0	702545920	58	6452
2026-01-20 03:16:56.42	303.49	10.67	-43.2	-44.4	21.5	0.00e+00	0	41	0	708837376	58	6718
2026-01-20 03:16:59.44	304.02	10.60	-43.5	-44.6	22.0	0.00e+00	0	42	0	714080256	60	6142
2026-01-20 03:17:02.48	304.56	10.53	-43.0	-44.1	22.0	0.00e+00	0	42	0	719323136	58	6492
2026-01-20 03:17:05.50	305.09	10.46	-41.9	-42.9	22.3	0.00e+00	0	42	0	725614592	56	6346
2026-01-20 03:17:08.53	305.61	10.39	-42.9	-44.0	22.4	0.00e+00	0	42	0	730857472	58	6404
2026-01-20 03:17:11.56	306.14	10.31	-41.7	-42.7	22.2	0.00e+00	0	42	0	737148928	58	5555
2026-01-20 03:17:14.59	306.66	10.23	-42.3	-43.4	22.4	0.00e+00	0	42	0	742391808	56	6706
2026-01-20 03:17:17.62	307.18	10.15	-43.3	-44.4	22.0	0.00e+00	0	42	0	748683264	58	6706
2026-01-20 03:17:20.64	307.70	10.07	-43.9	-45.0	22.0	0.00e+00	0	41	0	753926144	60	6397
2026-01-20 03:17:23.67	308.21	9.99	-42.6	-43.7	22.4	0.00e+00	0	41	0	759169024	58	6176
2026-01-20 03:17:26.70	308.72	9.90	-42.5	-43.5	22.4	0.00e+00	0	42	0	765460480	58	6101
2026-01-20 03:17:29.72	309.23	9.82	-43.0	-44.0	22.2	0.00e+00	0	42	0	770703360	58	6458
2026-01-20 03:17:32.75	309.73	9.73	-42.8	-44.0	21.7	0.00e+00	0	41	0	776994816	58	6394
2026-01-20 03:17:35.78	310.23	9.64	-42.7	-43.9	21.6	0.00e+00	0	42	0	782237696	58	6339
2026-01-20 03:17:38.81	310.73	9.55	-43.3	-44.5	21.7	0.00e+00	0	42	0	787480576	60	6035
2026-01-20 03:17:41.84	311.23	9.45	-43.4	-44.6	21.7	0.00e+00	0	41	0	793772032	60	6108
2026-01-20 03:17:44.87	311.72	9.36	-43.5	-44.8	20.9	0.00e+00	0	42	0	799014912	60	6253
2026-01-20 03:17:47.90	312.21	9.26	-43.6	-44.8	20.9	0.00e+00	0	41	0	805306368	60	6277
2026-01-20 03:17:50.93	312.70	9.16	-44.1	-45.4	20.5	0.00e+00	0	41	0	810549248	60	6701
2026-01-20 03:17:53.96	313.18	9.07	-45.0	-46.5	19.3	0.00e+00	0	42	0	816840704	60	7659
2026-01-20 03:17:56.99	313.66	8.97	-45.4	-46.9	19.2	0.00e+00	0	42	0	822083584	60	8032
2026-01-20 03:18:00.02	314.14	8.86	-46.0	-47.7	19.1	0.00e+00	0	42	0	827326464	60	8784
2026-01-20 03:18:03.05	314.61	8.76	-45.5	-47.0	19.5	0.00e+00	0	41	0	833617920	60	8122
2026-01-20 03:18:06.08	315.08	8.66	-46.5	-48.3	18.3	0.00e+00	0	42	0	838860800	60	9349
2026-01-20 03:18:09.11	315.55	8.55	-46.1	-47.9	18.0	0.00e+00	0	41	0	845152256	60	8957
2026-01-20 03:18:12.14	316.02	8.45	-46.1	-48.0	17.8	0.00e+00	0	42	0	850395136	60	9047
2026-01-20 03:18:15.17	316.48	8.34	-46.1	-48.1	17.7	0.00e+00	0	42	0	855638016	60	9148
2026-01-20 03:18:18.20	316.93	8.23	-46.6	-48.4	17.8	0.00e+00	0	42	0	861929472	60	9524
2026-01-20 03:18:21.22	317.39	8.12	-46.3	-48.4	17.1	0.00e+00	0	42	0	867172352	60	9495
2026-01-20 03:18:24.26	317.84	8.01	-47.0	-49.2	17.0	0.00e+00	0	42	0	873463808	60	10429
2026-01-20 03:18:27.28	318.29	7.90	-46.6	-48.5	17.7	0.00e+00	0	42	0	878706688	60	9590
2026-01-20 03:18:30.31	318.73	7.79	-46.1	-47.9	18.0	0.00e+00	0	42	0	884998144	60	9023
2026-01-20 03:18:33.34	319.17	7.67	-47.2	-49.0	18.1	0.00e+00	0	42	0	890241024	60	10182
2026-01-20 03:18:36.37	319.61	7.56	-47.5	-49.3	17.9	0.00e+00	0	41	0	895483904	60	10544
2026-01-20 03:18:39.40	320.04	7.44	-47.0	-49.0	17.4	0.00e+00	0	41	0	901775360	60	10167
2026-01-20 03:18:42.43	320.47	7.33	-47.4	-49.3	17.7	0.00e+00	0	42	0	907018240	60	10570
2026-01-20 03:18:45.46	320.90	7.21	-46.8	-48.6	17.8	0.00e+00	0	42	0	913309696	60	9728
2026-01-20 03:18:48.48	321.32	7.09	-46.6	-48.3	18.6	0.00e+00	0	41	0	918552576	60	9365
2026-01-20 03:18:51.51	321.75	6.97	-46.4	-48.3	17.5	0.00e+00	0	42	0	923795456	60	9387
2026-01-20 03:18:54.55	322.16	6.85	-47.4	-49.9	15.9	0.00e+00	0	42	0	930086912	60	11257
2026-01-20 03:18:57.57	322.58	6.73	-48.5	-50.8	16.6	0.00e+00	0	42	0	935329792	60	12553
2026-01-20 03:19:00.60	322.99	6.61	-47.1	-49.0	18.2	0.00e+00	0	42	0	941621248	60	10164
2026-01-20 03:19:03.63	323.40	6.49	-46.3	-47.9	18.5	0.00e+00	0	41	0	946864128	60	8959
2026-01-20 03:19:06.66	323.80	6.37	-47.2	-49.0	18.3	0.00e+00	0	41	0	953155584	60	10196
2026-01-20 03:19:09.69	324.20	6.25	-48.1	-50.2	18.2	0.00e+00	0	41	0	958398464	60	11643
2026-01-20 03:19:12.72	324.60	6.12	-47.2	-49.0	18.3	0.00e+00	0	42	0	963641344	60	10188
2026-01-20 03:19:15.75	325.00	6.00	-46.8	-48.5	18.6	0.00e+00	0	41	0	969932800	60	9632
2026-01-20 03:19:18.78	325.39	5.88	-46.1	-47.7	18.8	0.00e+00	0	41	0	975175680	60	8782
2026-01-20 03:19:21.80	325.77	5.75	-46.8	-48.6	18.3	0.00e+00	0	41	0	981467136	60	9683
2026-01-20 03:19:24.83	326.16	5.63	-46.0	-47.5	19.2	0.00e+00	0	41	0	986710016	60	8609
2026-01-20 03:19:27.85	326.54	5.50	-45.8	-47.4	19.0	0.00e+00	0	41	0	991952896	60	8447
2026-01-20 03:19:30.88	326.92	5.38	-45.5	-47.0	19.2	0.00e+00	0	41	0	998244352	60	8061
2026-01-20 03:19:33.91	327.30	5.25	-45.6	-47.0	19.8	0.00e+00	0	41	0	1003487232	60	8138
2026-01-20 03:19:36.94	327.67	5.12	-45.2	-46.6	19.8	0.00e+00	0	42	0	1009778688	60	7716
2026-01-20 03:19:39.97	328.04	5.00	-45.8	-47.2	19.9	0.00e+00	0	41	0	1015021568	60	8277
2026-01-20 03:19:42.99	328.40	4.87	-45.8	-47.2	19.9	0.00e+00	0	42	0	1020264448	60	8265
2026-01-20 03:19:46.02	328.77	4.74	-44.8	-46.1	20.4	0.00e+00	0	41	0	1026555904	60	7301
2026-01-20 03:19:49.05	329.13	4.61	-46.4	-48.1	18.5	0.00e+00	0	41	0	1031798784	60	9182
2026-01-20 03:19:52.08	329.48	4.49	-45.4	-47.0	19.0	0.00e+00	0	41	0	1038090240	60	8072
2026-01-20 03:19:55.11	329.84	4.36	-44.6	-46.0	19.9	0.00e+00	0	41	0	1043333120	60	7241
2026-01-20 03:19:58.14	330.19	4.23	-45.1	-46.5	19.4	0.00e+00	0	41	0	1049624576	60	7682
2026-01-20 03:20:01.17	330.54	4.10	-45.0	-46.5	19.3	0.00e+00	0	41	0	1054867456	60	7605
2026-01-20 03:20:04.20	330.88	3.97	-45.7	-47.3	19.3	0.00e+00	0	41	0	1060110336	60	8336
2026-01-20 03:20:07.23	331.23	3.84	-45.6	-47.4	17.9	0.00e+00	0	41	0	1066401792	60	8515
2026-01-20 03:20:10.26	331.57	3.71	-46.5	-49.1	15.8	0.00e+00	0	42	0	1071644672	60	10264
2026-01-20 03:20:13.29	331.90	3.58	-48.7	-53.0	11.7	2.68e-04	0	41	0	1077936128	60	16184
2026-01-20 03:20:16.32	332.24	3.45	-49.1	-56.2	7.1	1.06e-01	0	42	0	1083179008	60	23398
2026-01-20 03:20:19.35	332.57	3.32	-48.9	-61.4	3.6	1.44e+00	0	42	104	1087373312	60	42513
2026-01-20 03:20:22.37	332.90	3.19	-48.6	-63.0	3.6	1.51e+00	0	42	104	1087373312	60	50920
2026-01-20 03:20:25.40	333.22	3.06	-48.4	-63.5	3.6	1.51e+00	0	42	104	1087373312	60	53853
2026-01-20 03:20:28.43	333.55	2.93	-52.1	-67.3	3.6	1.51e+00	0	42	104	1087373312	60	83435
2026-01-20 03:20:31.46	333.87	2.80	-53.6	-68.9	3.6	1.51e+00	0	42	104	1087373312	60	100741
2026-01-20 03:20:34.48	334.18	2.67	-52.8	-68.0	3.6	1.51e+00	0	42	104	1087373312	60	90665
2026-01-20 03:20:37.51	334.50	2.54	-51.5	-66.7	3.6	1.51e+00	0	42	104	1087373312	60	78324
2026-01-20 03:20:40.54	334.81	2.41	-52.9	-68.1	3.6	1.51e+00	0	42	104	1087373312	60	91872
2026-01-20 03:20:43.57	335.12	2.28	-53.5	-68.8	3.6	1.51e+00	0	42	104	1087373312	60	99811
2026-01-20 03:20:46.60	335.43	2.15	-53.7	-68.9	3.6	1.51e+00	0	42	104	1087373312	60	100939
2026-01-20 03:20:49.63	335.73	2.02	-53.9	-69.2	3.6	1.51e+00	0	42	104	1087373312	60	103800
2026-01-20 03:20:52.66	336.03	1.89	-52.8	-68.0	3.6	1.51e+00	0	42	104	1087373312	60	90792
2026-01-20 03:20:55.69	336.33	1.75	-52.4	-67.6	3.6	1.51e+00	0	42	104	1087373312	60	86732
2026-01-20 03:20:58.72	336.63	1.62	-52.6	-67.7	3.6	1.51e+00	0	42	104	1087373312	60	87823
2026-01-20 03:21:01.75	336.93	1.49	-53.4	-68.6	3.6	1.51e+00	0	42	104	1087373312	60	97335
2026-01-20 03:21:04.78	337.22	1.36	-53.4	-68.7	3.6	1.51e+00	0	42	104	1087373312	60	98106
2026-01-20 03:21:07.81	337.51	1.23	-52.4	-67.6	3.6	1.51e+00	0	42	104	1087373312	60	86918
2026-01-20 03:21:10.84	337.79	1.10	-52.9	-68.0	3.6	1.51e+00	0	42	104	1087373312	60	91313
2026-01-20 03:21:13.87	338.08	0.97	-51.7	-66.9	3.6	1.51e+00	0	41	104	1087373312	60	79763
2026-01-20 03:21:16.91	338.36	0.84	-53.0	-68.3	3.6	1.51e+00	0	42	104	1087373312	60	93511
2026-01-20 03:21:19.94	338.64	0.71	-53.7	-69.0	3.6	1.51e+00	0	42	104	1087373312	60	101785
2026-01-20 03:21:22.97	338.92	0.58	-53.1	-68.3	3.6	1.51e+00	0	42	104	1087373312	60	93725
2026-01-20 03:21:26.00	339.20	0.45	-52.4	-67.6	3.6	1.51e+00	0	42	104	1087373312	60	86822
2026-01-20 03:21:29.03	339.47	0.32	-52.4	-67.6	3.6	1.51e+00	0	42	104	1087373312	60	86427
2026-01-20 03:21:32.06	339.74	0.19	-53.5	-68.7	3.6	1.51e+00	0	42	104	1087373312	60	98251
2026-01-20 03:21:35.09	340.01	0.05	-53.1	-68.4	3.6	1.51e+00	0	42	104	1087373312	60	94725

#Closed at: 2026-01-20 03:21:37
#Recorded file [1087 MB]: D:/lorett/data/35029_260120_150928.dat