passes_logs/2026/01/20/R4.6S_Anadyr/R4.6S_Anadyr__20260120_113017_SUOMI_NPP_rec.log

#Pass ID: 20260120_113017_SUOMI NPP
#Satellite: SUOMI NPP
#Configuration: NPP
#almurnet v.1.7.20251203
#Start time: 2026-01-20 11:30:20

#Version: 2.2.20231116
#Station: R4.6S_Anadyr
#Location: 177.4865 lon 64.73178 lat
#TLE: 1 37849U 11061A   26019.89702167  .00000121  00000+0  78274-4 0  9993
#TLE: 2 37849  98.7817 321.9035 0002338  55.0397 305.0998 14.19526700737401

#Time	Az	El	Level	Level2	SNR	BER	BlckErr	Temp	State	Recorded	gain1	gain2
2026-01-20 11:30:20.98	21.60	0.15	-52.3	-53.8	5.5	0.00e+00	0	39	0	0	60	60285
2026-01-20 11:30:24.02	21.90	0.26	-52.1	-67.3	3.6	1.51e+00	0	41	104	0	60	83829
2026-01-20 11:30:27.05	22.21	0.37	-51.6	-66.8	3.6	1.51e+00	0	41	104	0	60	78966
2026-01-20 11:30:30.08	22.52	0.49	-51.5	-66.8	3.6	1.51e+00	0	41	104	0	60	78912
2026-01-20 11:30:33.11	22.83	0.60	-51.2	-66.5	3.6	1.51e+00	0	41	104	0	60	75987
2026-01-20 11:30:36.14	23.14	0.71	-51.0	-66.2	3.6	1.51e+00	0	41	104	0	60	73706
2026-01-20 11:30:39.17	23.45	0.82	-50.6	-65.8	3.6	1.51e+00	0	41	104	0	60	70233
2026-01-20 11:30:42.20	23.77	0.94	-49.8	-65.0	3.6	1.51e+00	0	41	104	0	60	64200
2026-01-20 11:30:45.23	24.09	1.05	-49.5	-64.7	3.6	1.51e+00	0	41	104	0	60	62217
2026-01-20 11:30:48.26	24.41	1.16	-49.5	-64.7	3.6	1.51e+00	0	41	104	0	60	62014
2026-01-20 11:30:51.29	24.74	1.27	-49.5	-64.7	3.6	1.51e+00	0	41	104	0	60	61995
2026-01-20 11:30:54.33	25.06	1.38	-49.5	-64.7	3.6	1.51e+00	0	41	104	0	60	62125
2026-01-20 11:30:57.36	25.39	1.49	-49.5	-64.7	3.6	1.51e+00	0	41	104	0	60	61953
2026-01-20 11:31:00.39	25.72	1.60	-49.5	-64.7	3.6	1.51e+00	0	41	104	0	60	62115
2026-01-20 11:31:03.42	26.06	1.71	-49.5	-64.7	3.6	1.51e+00	0	41	104	0	60	61889
2026-01-20 11:31:06.45	26.39	1.82	-49.5	-64.7	3.6	1.51e+00	0	41	104	0	60	62030
2026-01-20 11:31:09.48	26.73	1.93	-49.4	-64.6	3.6	1.51e+00	0	41	104	0	60	61086
2026-01-20 11:31:12.51	27.07	2.04	-49.4	-64.6	3.6	1.51e+00	0	41	104	0	60	61241
2026-01-20 11:31:15.55	27.41	2.15	-49.4	-64.6	3.6	1.51e+00	0	41	104	0	60	61348
2026-01-20 11:31:18.58	27.76	2.26	-49.4	-64.6	3.5	1.51e+00	0	41	104	0	60	61167
2026-01-20 11:31:21.61	28.11	2.37	-49.4	-64.5	3.6	1.51e+00	0	41	104	0	60	60931
2026-01-20 11:31:24.63	28.45	2.47	-49.4	-64.6	3.6	1.51e+00	0	41	104	0	60	61303
2026-01-20 11:31:27.67	28.81	2.58	-49.4	-64.4	3.6	1.51e+00	0	41	104	0	60	59750
2026-01-20 11:31:30.70	29.16	2.69	-49.4	-64.0	3.6	1.51e+00	0	41	104	0	60	57005
2026-01-20 11:31:33.73	29.52	2.79	-47.9	-52.8	10.7	2.68e-02	0	41	0	1048576	60	15825
2026-01-20 11:31:36.76	29.88	2.90	-45.0	-47.4	16.5	0.00e+00	0	42	0	6291456	60	8474
2026-01-20 11:31:39.79	30.24	3.01	-46.4	-49.7	13.8	0.00e+00	0	41	0	11534336	60	11101
2026-01-20 11:31:42.82	30.61	3.11	-46.9	-50.3	13.2	4.19e-01	0	42	0	12582912	60	11818
2026-01-20 11:31:45.85	30.97	3.21	-44.2	-46.1	6.0	9.92e-01	67	41	104	16777216	60	7301
2026-01-20 11:31:48.88	31.34	3.32	-44.5	-46.5	17.2	0.00e+00	0	41	0	19922944	60	7627
2026-01-20 11:31:51.90	31.71	3.42	-43.7	-45.4	18.4	0.00e+00	0	41	0	26214400	60	6712
2026-01-20 11:31:54.93	32.09	3.52	-42.9	-44.4	18.9	0.00e+00	0	41	0	31457280	58	6763
2026-01-20 11:31:57.96	32.47	3.62	-43.5	-45.1	18.9	0.00e+00	0	41	0	37748736	60	6511
2026-01-20 11:32:00.98	32.84	3.73	-44.0	-45.8	17.6	0.00e+00	0	41	0	42991616	60	7026
2026-01-20 11:32:04.01	33.23	3.83	-43.3	-44.9	18.7	0.00e+00	0	41	0	48234496	60	6352
2026-01-20 11:32:07.04	33.61	3.93	-42.7	-44.2	19.5	0.00e+00	0	41	0	54525952	58	6545
2026-01-20 11:32:10.07	34.00	4.03	-43.6	-45.3	18.3	0.00e+00	0	41	0	59768832	58	7473
2026-01-20 11:32:13.10	34.39	4.12	-43.0	-44.5	18.9	0.00e+00	0	42	0	66060288	60	6043
2026-01-20 11:32:16.13	34.78	4.22	-43.2	-44.8	19.2	0.00e+00	0	41	0	71303168	60	6253
2026-01-20 11:32:19.16	35.18	4.32	-44.0	-45.8	18.2	0.00e+00	0	42	0	77594624	60	7016
2026-01-20 11:32:22.18	35.57	4.42	-43.6	-45.3	18.5	0.00e+00	0	42	0	82837504	60	6677
2026-01-20 11:32:25.21	35.97	4.51	-43.9	-45.6	18.1	0.00e+00	0	42	0	88080384	60	6915
2026-01-20 11:32:28.24	36.37	4.61	-44.1	-45.9	18.0	0.00e+00	0	42	0	94371840	60	7098
2026-01-20 11:32:31.27	36.78	4.70	-42.5	-43.8	19.8	0.00e+00	0	42	0	99614720	58	6315
2026-01-20 11:32:34.30	37.19	4.79	-43.6	-45.2	18.9	0.00e+00	0	41	0	105906176	60	6584
2026-01-20 11:32:37.33	37.60	4.88	-44.1	-45.9	18.1	0.00e+00	0	42	0	111149056	60	7093
2026-01-20 11:32:40.35	38.01	4.98	-44.2	-46.0	17.9	0.00e+00	0	42	0	116391936	60	7184
2026-01-20 11:32:43.38	38.42	5.07	-43.6	-45.3	18.7	0.00e+00	0	41	0	122683392	60	6634
2026-01-20 11:32:46.41	38.84	5.16	-43.7	-45.3	18.9	0.00e+00	0	41	0	127926272	60	6662
2026-01-20 11:32:49.44	39.26	5.24	-43.7	-45.3	18.9	0.00e+00	0	42	0	134217728	60	6687
2026-01-20 11:32:52.47	39.68	5.33	-44.4	-46.2	17.7	0.00e+00	0	42	0	139460608	60	7415
2026-01-20 11:32:55.49	40.10	5.42	-43.1	-44.6	19.8	0.00e+00	0	42	0	144703488	60	6134
2026-01-20 11:32:58.53	40.53	5.50	-44.1	-45.8	18.3	0.00e+00	0	42	0	150994944	60	7065
2026-01-20 11:33:01.55	40.96	5.59	-44.3	-46.2	18.0	0.00e+00	0	42	0	156237824	60	7360
2026-01-20 11:33:04.58	41.39	5.67	-44.1	-45.8	18.3	0.00e+00	0	41	0	162529280	60	7066
2026-01-20 11:33:07.61	41.83	5.76	-44.1	-45.9	18.4	0.00e+00	0	42	0	167772160	60	7152
2026-01-20 11:33:10.64	42.26	5.84	-44.5	-46.5	17.9	0.00e+00	0	42	0	174063616	60	7632
2026-01-20 11:33:13.66	42.70	5.92	-43.9	-45.6	18.6	0.00e+00	0	42	0	179306496	60	6910
2026-01-20 11:33:16.69	43.14	6.00	-43.7	-45.4	18.8	0.00e+00	0	42	0	184549376	60	6716
2026-01-20 11:33:19.72	43.59	6.07	-43.7	-45.3	19.0	0.00e+00	0	42	0	190840832	60	6624
2026-01-20 11:33:22.75	44.03	6.15	-44.5	-46.3	17.7	0.00e+00	0	42	0	196083712	60	7493
2026-01-20 11:33:25.78	44.48	6.23	-44.1	-45.9	18.4	0.00e+00	0	42	0	202375168	60	7118
2026-01-20 11:33:28.81	44.93	6.30	-44.0	-45.7	18.6	0.00e+00	0	41	0	207618048	60	6937
2026-01-20 11:33:31.84	45.38	6.37	-43.8	-45.5	18.7	0.00e+00	0	42	0	212860928	60	6819
2026-01-20 11:33:34.86	45.84	6.44	-44.3	-46.1	18.2	0.00e+00	0	41	0	219152384	60	7276
2026-01-20 11:33:37.89	46.29	6.51	-44.8	-46.8	17.5	0.00e+00	0	42	0	224395264	60	7928
2026-01-20 11:33:40.92	46.75	6.58	-44.9	-46.8	17.3	0.00e+00	0	42	0	230686720	60	7950
2026-01-20 11:33:43.95	47.21	6.65	-44.8	-46.8	17.6	0.00e+00	0	42	0	235929600	60	7879
2026-01-20 11:33:46.97	47.68	6.72	-44.1	-45.9	18.6	0.00e+00	0	42	0	242221056	60	7108
2026-01-20 11:33:50.00	48.14	6.78	-43.9	-45.6	18.6	0.00e+00	0	42	0	247463936	60	6862
2026-01-20 11:33:53.03	48.61	6.85	-44.4	-46.2	18.0	0.00e+00	0	42	0	252706816	60	7394
2026-01-20 11:33:56.06	49.08	6.91	-42.9	-44.3	19.9	0.00e+00	0	42	0	258998272	60	5950
2026-01-20 11:33:59.09	49.55	6.97	-43.7	-45.2	19.1	0.00e+00	0	42	0	264241152	60	6605
2026-01-20 11:34:02.12	50.02	7.03	-45.4	-47.6	16.7	0.00e+00	0	42	0	270532608	60	8636
2026-01-20 11:34:05.14	50.50	7.09	-44.6	-46.5	17.7	0.00e+00	0	42	0	275775488	60	7668
2026-01-20 11:34:08.17	50.97	7.14	-43.9	-45.5	18.8	0.00e+00	0	42	0	281018368	60	6838
2026-01-20 11:34:11.20	51.45	7.20	-43.6	-45.1	19.2	0.00e+00	0	42	0	287309824	60	6538
2026-01-20 11:34:14.22	51.93	7.25	-43.3	-44.8	19.4	0.00e+00	0	42	0	292552704	60	6265
2026-01-20 11:34:17.25	52.41	7.30	-43.2	-44.6	19.5	0.00e+00	0	42	0	298844160	60	6161
2026-01-20 11:34:20.28	52.89	7.35	-43.1	-44.6	19.8	0.00e+00	0	42	0	304087040	60	6125
2026-01-20 11:34:23.31	53.38	7.40	-42.8	-44.2	19.9	0.00e+00	0	42	0	310378496	58	6564
2026-01-20 11:34:26.34	53.87	7.44	-43.1	-44.5	19.7	0.00e+00	0	42	0	315621376	58	6832
2026-01-20 11:34:29.36	54.35	7.49	-42.9	-44.3	19.8	0.00e+00	0	42	0	320864256	58	6667
2026-01-20 11:34:32.39	54.84	7.53	-42.7	-44.1	20.0	0.00e+00	0	42	0	327155712	58	6507
2026-01-20 11:34:35.42	55.33	7.57	-43.0	-44.4	19.9	0.00e+00	0	42	0	332398592	58	6722
2026-01-20 11:34:38.45	55.83	7.61	-43.5	-45.1	19.2	0.00e+00	0	42	0	338690048	60	6480
2026-01-20 11:34:41.48	56.32	7.65	-43.9	-45.6	18.8	0.00e+00	0	42	0	343932928	60	6861
2026-01-20 11:34:44.51	56.81	7.69	-43.6	-45.2	19.1	0.00e+00	0	42	0	349175808	60	6556
2026-01-20 11:34:47.54	57.31	7.72	-43.7	-45.3	19.0	0.00e+00	0	42	0	355467264	60	6691
2026-01-20 11:34:50.56	57.81	7.75	-43.5	-45.0	19.3	0.00e+00	0	42	0	360710144	60	6434
2026-01-20 11:34:53.59	58.30	7.79	-43.8	-45.5	19.0	0.00e+00	0	42	0	367001600	60	6794
2026-01-20 11:34:56.62	58.80	7.81	-44.9	-46.9	17.6	0.00e+00	0	42	0	372244480	60	7966
2026-01-20 11:34:59.64	59.30	7.84	-44.5	-46.4	18.2	0.00e+00	0	42	0	377487360	60	7542
2026-01-20 11:35:02.67	59.80	7.87	-44.5	-46.3	18.2	0.00e+00	0	42	0	383778816	60	7475
2026-01-20 11:35:05.70	60.31	7.89	-43.9	-45.6	18.4	0.00e+00	0	42	0	389021696	60	6864
2026-01-20 11:35:08.73	60.81	7.91	-44.0	-45.7	18.6	0.00e+00	0	42	0	395313152	60	6982
2026-01-20 11:35:11.76	61.31	7.93	-44.1	-45.8	18.3	0.00e+00	0	42	0	400556032	60	7059
2026-01-20 11:35:14.78	61.81	7.95	-44.5	-46.3	18.0	0.00e+00	0	42	0	406847488	60	7458
2026-01-20 11:35:17.81	62.32	7.97	-44.2	-46.0	18.4	0.00e+00	0	42	0	412090368	60	7176
2026-01-20 11:35:20.84	62.82	7.98	-44.3	-46.0	18.3	0.00e+00	0	42	0	417333248	60	7250
2026-01-20 11:35:23.86	63.33	7.99	-44.3	-46.1	18.3	0.00e+00	0	42	0	423624704	60	7311
2026-01-20 11:35:26.89	63.83	8.00	-43.4	-45.0	19.4	0.00e+00	0	42	0	428867584	60	6406
2026-01-20 11:35:29.92	64.34	8.01	-43.4	-45.0	19.2	0.00e+00	0	42	0	435159040	60	6421
2026-01-20 11:35:32.95	64.85	8.02	-43.7	-45.3	19.0	0.00e+00	0	42	0	440401920	60	6650
2026-01-20 11:35:35.98	65.35	8.02	-43.3	-44.8	19.5	0.00e+00	0	42	0	445644800	60	6258
2026-01-20 11:35:39.01	65.86	8.03	-42.8	-44.3	19.9	0.00e+00	0	42	0	451936256	58	6619
2026-01-20 11:35:42.04	66.37	8.03	-43.4	-44.9	19.2	0.00e+00	0	42	0	457179136	58	7138
2026-01-20 11:35:45.06	66.87	8.03	-43.4	-44.9	19.0	0.00e+00	0	42	0	463470592	58	7151
2026-01-20 11:35:48.09	67.38	8.02	-43.0	-44.4	19.7	0.00e+00	0	42	0	468713472	58	6709
2026-01-20 11:35:51.12	67.89	8.02	-42.2	-43.5	20.4	0.00e+00	0	42	0	475004928	58	6075
2026-01-20 11:35:54.15	68.39	8.01	-42.6	-43.9	19.9	0.00e+00	0	42	0	480247808	58	6371
2026-01-20 11:35:57.17	68.90	8.00	-43.1	-44.6	19.4	0.00e+00	0	42	0	485490688	58	6898
2026-01-20 11:36:00.20	69.41	7.99	-42.2	-43.5	20.6	0.00e+00	0	42	0	491782144	58	6061
2026-01-20 11:36:03.23	69.91	7.98	-42.4	-43.8	20.0	0.00e+00	0	42	0	497025024	58	6272
2026-01-20 11:36:06.26	70.42	7.97	-42.7	-44.1	19.8	0.00e+00	0	42	0	503316480	58	6509
2026-01-20 11:36:09.29	70.92	7.95	-42.8	-44.3	19.8	0.00e+00	0	42	0	508559360	58	6616
2026-01-20 11:36:12.31	71.42	7.93	-41.8	-43.0	21.0	0.00e+00	0	42	0	513802240	56	6439
2026-01-20 11:36:15.34	71.93	7.91	-41.5	-42.7	21.2	0.00e+00	0	42	0	520093696	56	6202
2026-01-20 11:36:18.37	72.43	7.89	-41.7	-43.0	21.1	0.00e+00	0	42	0	525336576	56	6393
2026-01-20 11:36:21.39	72.93	7.87	-42.2	-43.5	20.9	0.00e+00	0	42	0	531628032	56	6772
2026-01-20 11:36:24.42	73.43	7.84	-42.2	-43.5	20.8	0.00e+00	0	42	0	536870912	56	6798
2026-01-20 11:36:27.45	73.93	7.81	-42.3	-43.6	20.4	0.00e+00	0	42	0	543162368	56	6921
2026-01-20 11:36:30.47	74.43	7.78	-42.3	-43.6	20.4	0.00e+00	0	42	0	548405248	56	6866
2026-01-20 11:36:33.50	74.93	7.75	-42.4	-43.7	20.4	0.00e+00	0	42	0	553648128	58	6238
2026-01-20 11:36:36.53	75.43	7.72	-42.1	-43.3	20.6	0.00e+00	0	41	0	559939584	58	5945
2026-01-20 11:36:39.56	75.93	7.69	-42.2	-43.5	20.4	0.00e+00	0	42	0	565182464	56	6825
2026-01-20 11:36:42.59	76.42	7.65	-42.6	-43.9	20.0	0.00e+00	0	42	0	571473920	56	7168
2026-01-20 11:36:45.61	76.91	7.61	-42.5	-43.9	20.0	0.00e+00	0	42	0	576716800	56	7122
2026-01-20 11:36:48.64	77.41	7.57	-42.4	-43.7	20.2	0.00e+00	0	42	0	581959680	56	6973
2026-01-20 11:36:51.67	77.90	7.53	-42.5	-43.9	20.0	0.00e+00	0	42	0	588251136	58	6364
2026-01-20 11:36:54.70	78.39	7.49	-42.6	-44.0	19.9	0.00e+00	0	42	0	593494016	58	6447
2026-01-20 11:36:57.72	78.88	7.44	-42.1	-43.4	20.5	0.00e+00	0	42	0	599785472	58	6026
2026-01-20 11:37:00.75	79.37	7.39	-41.6	-42.8	20.9	0.00e+00	0	42	0	605028352	58	5591
2026-01-20 11:37:03.78	79.85	7.35	-40.9	-42.0	21.7	0.00e+00	0	42	0	610271232	56	5737
2026-01-20 11:37:06.81	80.34	7.30	-41.0	-42.1	21.8	0.00e+00	0	42	0	616562688	56	5794
2026-01-20 11:37:09.83	80.82	7.24	-41.4	-42.6	21.2	0.00e+00	0	42	0	621805568	56	6104
2026-01-20 11:37:12.86	81.30	7.19	-41.2	-42.3	21.5	0.00e+00	0	42	0	628097024	56	5956
2026-01-20 11:37:15.89	81.78	7.14	-41.1	-42.2	21.4	0.00e+00	0	42	0	633339904	54	6605
2026-01-20 11:37:18.92	82.26	7.08	-41.0	-42.2	21.6	0.00e+00	0	42	0	639631360	54	6558
2026-01-20 11:37:21.94	82.73	7.02	-41.8	-43.1	20.8	0.00e+00	0	42	0	644874240	56	6473
2026-01-20 11:37:24.97	83.20	6.96	-42.4	-43.8	20.3	0.00e+00	0	42	0	650117120	56	7016
2026-01-20 11:37:28.00	83.68	6.90	-41.8	-43.1	20.9	0.00e+00	0	42	0	656408576	56	6533
2026-01-20 11:37:31.03	84.15	6.84	-41.7	-43.0	21.0	0.00e+00	0	42	0	661651456	56	6391
2026-01-20 11:37:34.05	84.61	6.78	-41.1	-42.3	21.4	0.00e+00	0	42	0	667942912	56	5932
2026-01-20 11:37:37.08	85.08	6.71	-41.1	-42.3	21.6	0.00e+00	0	42	0	673185792	56	5940
2026-01-20 11:37:40.11	85.54	6.64	-41.5	-42.7	21.1	0.00e+00	0	42	0	678428672	56	6195
2026-01-20 11:37:43.14	86.01	6.57	-42.0	-43.3	20.6	0.00e+00	0	42	0	684720128	56	6617
2026-01-20 11:37:46.16	86.47	6.51	-41.8	-43.0	20.9	0.00e+00	0	42	0	689963008	56	6439
2026-01-20 11:37:49.20	86.93	6.43	-41.7	-42.9	20.9	0.00e+00	0	42	0	696254464	56	6352
2026-01-20 11:37:52.23	87.38	6.36	-41.9	-43.1	20.8	0.00e+00	0	42	0	701497344	56	6506
2026-01-20 11:37:55.26	87.84	6.29	-42.4	-43.7	20.4	0.00e+00	0	42	0	707788800	56	6974
2026-01-20 11:37:58.29	88.29	6.21	-43.0	-44.5	19.2	0.00e+00	0	42	0	713031680	58	6811
2026-01-20 11:38:01.32	88.74	6.14	-43.1	-44.7	19.2	0.00e+00	0	42	0	718274560	58	6940
2026-01-20 11:38:04.34	89.18	6.06	-43.3	-44.9	19.1	0.00e+00	0	42	0	724566016	58	7152
2026-01-20 11:38:07.37	89.63	5.98	-43.6	-45.2	18.6	0.00e+00	0	42	0	729808896	60	6570
2026-01-20 11:38:10.40	90.07	5.90	-43.5	-45.1	18.9	0.00e+00	0	42	0	736100352	60	6484
2026-01-20 11:38:13.43	90.51	5.82	-43.4	-45.0	19.0	0.00e+00	0	42	0	741343232	60	6432
2026-01-20 11:38:16.46	90.95	5.74	-43.0	-44.5	19.5	0.00e+00	0	42	0	746586112	60	6079
2026-01-20 11:38:19.49	91.38	5.66	-43.9	-45.6	18.4	0.00e+00	0	42	0	752877568	60	6912
2026-01-20 11:38:22.52	91.82	5.57	-43.6	-45.3	18.6	0.00e+00	0	42	0	758120448	60	6684
2026-01-20 11:38:25.55	92.25	5.49	-44.1	-45.9	18.1	0.00e+00	0	42	0	764411904	60	7117
2026-01-20 11:38:28.58	92.68	5.40	-43.8	-45.5	18.1	0.00e+00	0	42	0	769654784	60	6844
2026-01-20 11:38:31.61	93.10	5.31	-45.4	-47.9	16.1	0.00e+00	0	42	0	775946240	60	8962
2026-01-20 11:38:34.63	93.52	5.22	-45.1	-47.4	16.7	0.00e+00	0	42	0	781189120	60	8490
2026-01-20 11:38:37.66	93.94	5.14	-44.2	-46.2	17.8	0.00e+00	0	42	0	786432000	60	7371
2026-01-20 11:38:40.69	94.36	5.04	-44.6	-46.8	17.0	0.00e+00	0	42	0	792723456	60	7915
2026-01-20 11:38:43.72	94.78	4.95	-43.5	-45.3	18.5	0.00e+00	0	42	0	797966336	60	6621
2026-01-20 11:38:46.75	95.19	4.86	-44.7	-46.8	17.2	0.00e+00	0	42	0	804257792	60	7876
2026-01-20 11:38:49.77	95.60	4.77	-44.5	-46.7	17.2	0.00e+00	0	42	0	809500672	60	7845
2026-01-20 11:38:52.80	96.01	4.67	-44.1	-46.3	17.8	0.00e+00	0	42	0	814743552	60	7442
2026-01-20 11:38:55.83	96.42	4.58	-44.0	-46.4	17.5	0.00e+00	0	42	0	821035008	60	7536
2026-01-20 11:38:58.86	96.82	4.48	-44.6	-47.0	16.5	0.00e+00	0	42	0	826277888	60	8119
2026-01-20 11:39:01.89	97.22	4.39	-44.4	-46.5	17.3	0.00e+00	0	42	0	832569344	60	7656
2026-01-20 11:39:04.92	97.62	4.29	-43.7	-45.5	18.4	0.00e+00	0	42	0	837812224	60	6817
2026-01-20 11:39:07.94	98.01	4.19	-44.1	-46.0	17.9	0.00e+00	0	42	0	844103680	60	7188
2026-01-20 11:39:10.97	98.41	4.09	-44.6	-47.0	16.8	0.00e+00	0	42	0	849346560	60	8117
2026-01-20 11:39:14.00	98.80	3.99	-45.5	-48.9	15.0	0.00e+00	0	42	0	854589440	60	10041
2026-01-20 11:39:17.03	99.19	3.89	-44.8	-47.1	16.5	0.00e+00	0	42	0	860880896	60	8220
2026-01-20 11:39:20.05	99.57	3.79	-43.7	-45.6	17.8	0.00e+00	0	42	0	866123776	60	6907
2026-01-20 11:39:23.08	99.95	3.69	-43.1	-44.7	18.6	0.00e+00	0	42	0	872415232	60	6232
2026-01-20 11:39:26.12	100.34	3.59	-43.4	-45.3	17.9	0.00e+00	0	42	0	877658112	58	7444
2026-01-20 11:39:29.14	100.71	3.49	-43.2	-45.0	18.4	0.00e+00	0	42	0	882900992	60	6407
2026-01-20 11:39:32.17	101.09	3.38	-42.7	-46.5	17.0	0.00e+00	0	42	0	889192448	58	8524
2026-01-20 11:39:35.20	101.46	3.28	-42.8	-46.5	17.0	0.00e+00	0	42	0	894435328	58	8543
2026-01-20 11:39:38.22	101.83	3.18	-45.2	-47.9	15.3	0.00e+00	0	42	0	900726784	60	8975
2026-01-20 11:39:41.25	102.20	3.07	-43.0	-45.1	17.9	0.00e+00	0	42	0	905969664	60	6483
2026-01-20 11:39:44.28	102.56	2.96	-49.9	-65.3	3.6	1.51e+00	0	42	104	910163968	60	66252
2026-01-20 11:39:47.31	102.93	2.86	-50.7	-65.9	3.6	1.51e+00	0	42	104	910163968	60	71464
2026-01-20 11:39:50.34	103.29	2.75	-50.9	-66.2	3.6	1.51e+00	0	42	104	910163968	60	73446
2026-01-20 11:39:53.36	103.64	2.64	-51.1	-66.3	3.6	1.51e+00	0	42	104	910163968	60	74899
2026-01-20 11:39:56.39	104.00	2.54	-51.0	-66.4	3.6	1.51e+00	0	42	104	910163968	60	75269
2026-01-20 11:39:59.42	104.35	2.43	-51.1	-66.3	3.6	1.51e+00	0	42	104	910163968	60	74886
2026-01-20 11:40:02.45	104.70	2.32	-51.2	-66.4	3.6	1.51e+00	0	42	104	910163968	60	75796
2026-01-20 11:40:05.47	105.05	2.21	-51.2	-66.5	3.6	1.51e+00	0	42	104	910163968	60	76087
2026-01-20 11:40:08.50	105.40	2.10	-51.3	-66.6	3.6	1.51e+00	0	42	104	910163968	60	77175
2026-01-20 11:40:11.53	105.74	1.99	-51.5	-66.7	3.6	1.51e+00	0	42	104	910163968	60	78459
2026-01-20 11:40:14.57	106.08	1.88	-51.7	-66.9	3.6	1.51e+00	0	42	104	910163968	60	79981
2026-01-20 11:40:17.60	106.42	1.77	-52.1	-67.4	3.6	1.51e+00	0	42	104	910163968	60	84927
2026-01-20 11:40:20.63	106.75	1.66	-51.5	-66.7	3.6	1.51e+00	0	42	104	910163968	60	78389
2026-01-20 11:40:23.65	107.09	1.55	-52.0	-67.3	3.6	1.51e+00	0	42	104	910163968	60	83560
2026-01-20 11:40:26.68	107.42	1.44	-51.9	-67.2	3.6	1.51e+00	0	42	104	910163968	60	82620
2026-01-20 11:40:29.71	107.75	1.33	-51.9	-67.1	3.6	1.51e+00	0	42	104	910163968	60	81586
2026-01-20 11:40:32.74	108.07	1.21	-52.3	-67.5	3.6	1.51e+00	0	42	104	910163968	60	85829
2026-01-20 11:40:35.77	108.40	1.10	-52.5	-67.8	3.6	1.51e+00	0	42	104	910163968	60	88576
2026-01-20 11:40:38.79	108.72	0.99	-51.8	-67.0	3.6	1.51e+00	0	42	104	910163968	60	81129
2026-01-20 11:40:41.82	109.04	0.88	-51.7	-66.9	3.6	1.51e+00	0	42	104	910163968	60	79570
2026-01-20 11:40:44.85	109.35	0.76	-52.6	-67.8	3.6	1.51e+00	0	42	104	910163968	60	89226
2026-01-20 11:40:47.88	109.67	0.65	-51.6	-66.8	3.6	1.51e+00	0	42	104	910163968	60	79516
2026-01-20 11:40:50.91	109.98	0.53	-51.7	-66.9	3.6	1.51e+00	0	42	104	910163968	60	79636
2026-01-20 11:40:53.94	110.29	0.42	-52.2	-67.5	3.6	1.51e+00	0	42	104	910163968	60	85454
2026-01-20 11:40:56.96	110.60	0.31	-52.0	-67.2	3.6	1.51e+00	0	42	104	910163968	60	82587
2026-01-20 11:40:59.99	110.90	0.19	-52.5	-67.7	3.6	1.51e+00	0	42	104	910163968	60	88173
2026-01-20 11:41:03.03	111.21	0.08	-52.8	-68.0	3.6	1.51e+00	0	42	104	910163968	60	90973
2026-01-20 11:41:06.06	111.51	-0.04	-52.3	-67.5	3.6	1.51e+00	0	42	104	910163968	60	85837

#Closed at: 2026-01-20 11:41:06
#Recorded file [910 MB]: D:/lorett/data/35029_260120_233020.dat