passes_logs/2026/01/20/R4.6S_Anadyr/R4.6S_Anadyr__20260120_172922_FENGYUN_3D_rec.log

#Pass ID: 20260120_172922_FENGYUN 3D
#Satellite: FENGYUN 3D
#Configuration: FENGYUN 3D
#almurnet v.1.7.20251203
#Start time: 2026-01-20 17:29:24

#Version: 2.2.20231116
#Station: R4.6S_Anadyr
#Location: 177.4865 lon 64.73178 lat
#TLE: 1 43010U 17072A   26019.93695019 -.00000250  00000+0 -96545-4 0  9996
#TLE: 2 43010  98.9942 351.8290 0002452 100.7901 259.3550 14.19695974423957

#Time	Az	El	Level	Level2	SNR	BER	BlckErr	Temp	State	Recorded	gain1	gain2
2026-01-20 17:29:24.65	22.72	0.12	-52.0	-69.7	3.5	3.02e+01	0	39	0	0	60	117748
2026-01-20 17:29:28.68	22.66	0.37	-51.5	-63.7	3.6	8.45e-01	0	41	104	0	60	55262
2026-01-20 17:29:32.72	22.61	0.61	-51.5	-63.6	3.6	8.46e-01	0	41	104	0	60	54933
2026-01-20 17:29:36.76	22.55	0.85	-51.4	-63.5	3.6	8.45e-01	0	41	104	0	60	54308
2026-01-20 17:29:40.80	22.49	1.10	-51.0	-63.1	3.6	8.45e-01	0	41	104	0	60	51816
2026-01-20 17:29:44.85	22.43	1.35	-50.5	-62.6	3.6	8.45e-01	0	41	104	0	60	48909
2026-01-20 17:29:48.88	22.36	1.60	-49.8	-61.6	3.6	8.46e-01	0	41	104	0	60	43327
2026-01-20 17:29:52.92	22.30	1.86	-49.8	-61.5	3.6	8.45e-01	0	41	104	0	60	43155
2026-01-20 17:29:56.96	22.23	2.11	-49.9	-62.0	3.6	8.44e-01	0	41	104	0	60	45417
2026-01-20 17:30:01.00	22.17	2.37	-49.8	-61.1	3.6	8.45e-01	0	41	104	0	60	41245
2026-01-20 17:30:05.04	22.10	2.63	-49.7	-60.5	3.6	8.44e-01	0	41	104	0	60	38311
2026-01-20 17:30:09.08	22.03	2.89	-49.7	-61.2	3.6	8.46e-01	0	41	104	0	60	41559
2026-01-20 17:30:13.12	21.96	3.16	-46.3	-48.9	12.1	1.97e-02	0	41	0	6291456	60	10024
2026-01-20 17:30:17.16	21.89	3.43	-44.7	-46.5	14.3	0.00e+00	0	41	0	29360128	60	7626
2026-01-20 17:30:21.20	21.81	3.70	-45.1	-47.1	13.9	1.94e-05	0	42	0	51380224	60	8186
2026-01-20 17:30:25.24	21.74	3.97	-49.7	-60.3	3.6	8.46e-01	0	41	104	58720256	60	37339
2026-01-20 17:30:29.28	21.66	4.25	-38.5	-39.3	22.1	0.00e+00	0	41	0	68157440	52	5288
2026-01-20 17:30:33.32	21.58	4.52	-37.8	-38.6	22.5	0.00e+00	0	41	0	91226112	50	5445
2026-01-20 17:30:37.36	21.50	4.81	-38.3	-39.1	22.1	0.00e+00	0	41	0	114294784	50	5804
2026-01-20 17:30:41.40	21.41	5.09	-39.0	-39.9	21.4	0.00e+00	0	41	0	136314880	50	6328
2026-01-20 17:30:45.44	21.33	5.38	-38.8	-39.7	21.4	0.00e+00	0	42	0	159383552	48	6969
2026-01-20 17:30:49.48	21.24	5.67	-38.6	-39.4	21.8	0.00e+00	0	42	0	182452224	48	6739
2026-01-20 17:30:53.52	21.15	5.96	-37.7	-38.5	22.6	0.00e+00	0	42	0	205520896	48	6037
2026-01-20 17:30:57.56	21.06	6.26	-37.5	-38.3	22.8	0.00e+00	0	41	0	227540992	48	5949
2026-01-20 17:31:01.60	20.96	6.56	-38.2	-39.0	22.3	0.00e+00	0	41	0	250609664	48	6450
2026-01-20 17:31:05.63	20.87	6.86	-37.6	-38.3	23.0	0.00e+00	0	42	0	272629760	48	5964
2026-01-20 17:31:09.68	20.77	7.17	-37.7	-38.4	22.9	0.00e+00	0	42	0	295698432	48	6023
2026-01-20 17:31:13.72	20.67	7.48	-37.4	-38.2	23.3	0.00e+00	0	42	0	318767104	48	5829
2026-01-20 17:31:17.76	20.56	7.79	-37.6	-38.4	23.1	0.00e+00	0	42	0	340787200	48	5966
2026-01-20 17:31:21.80	20.45	8.11	-37.2	-37.9	23.3	0.00e+00	0	42	0	363855872	48	5685
2026-01-20 17:31:25.84	20.35	8.43	-37.1	-37.9	23.5	0.00e+00	0	42	0	386924544	48	5663
2026-01-20 17:31:29.88	20.23	8.76	-37.0	-37.7	23.6	0.00e+00	0	42	0	409993216	48	5560
2026-01-20 17:31:33.92	20.12	9.09	-36.9	-37.6	23.9	0.00e+00	0	42	0	432013312	46	6139
2026-01-20 17:31:37.96	20.00	9.43	-37.2	-37.9	23.7	0.00e+00	0	42	0	455081984	46	6337
2026-01-20 17:31:42.00	19.88	9.77	-36.5	-37.3	24.3	0.00e+00	0	42	0	477102080	46	5904
2026-01-20 17:31:46.04	19.75	10.11	-36.6	-37.3	24.1	0.00e+00	0	42	0	500170752	46	5935
2026-01-20 17:31:50.08	19.62	10.46	-36.6	-37.3	24.2	0.00e+00	0	42	0	523239424	46	5927
2026-01-20 17:31:54.12	19.49	10.81	-36.2	-36.9	24.4	0.00e+00	0	42	0	546308096	46	5685
2026-01-20 17:31:58.16	19.36	11.17	-36.4	-37.1	24.3	0.00e+00	0	42	0	568328192	46	5823
2026-01-20 17:32:02.20	19.22	11.53	-36.3	-37.0	24.5	0.00e+00	0	42	0	591396864	46	5707
2026-01-20 17:32:06.24	19.08	11.90	-36.0	-36.6	24.8	0.00e+00	0	42	0	614465536	44	6171
2026-01-20 17:32:10.28	18.93	12.28	-35.7	-36.4	25.0	0.00e+00	0	42	0	636485632	44	6007
2026-01-20 17:32:14.32	18.78	12.65	-35.8	-36.5	24.9	0.00e+00	0	42	0	659554304	44	6097
2026-01-20 17:32:18.36	18.62	13.04	-35.9	-36.6	24.8	0.00e+00	0	42	0	682622976	44	6159
2026-01-20 17:32:22.40	18.46	13.43	-35.6	-36.3	25.2	0.00e+00	0	42	0	704643072	44	5923
2026-01-20 17:32:26.45	18.30	13.83	-35.6	-36.3	25.2	0.00e+00	0	42	0	727711744	44	5925
2026-01-20 17:32:30.48	18.13	14.23	-35.5	-36.1	25.2	0.00e+00	0	42	0	750780416	44	5818
2026-01-20 17:32:34.52	17.95	14.64	-35.5	-36.1	25.4	0.00e+00	0	42	0	772800512	44	5814
2026-01-20 17:32:38.56	17.77	15.06	-35.3	-36.0	25.6	0.00e+00	0	42	0	795869184	44	5744
2026-01-20 17:32:42.60	17.58	15.49	-35.3	-36.0	25.6	0.00e+00	0	42	0	818937856	44	5703
2026-01-20 17:32:46.64	17.39	15.92	-35.1	-35.8	25.7	0.00e+00	0	42	0	840957952	44	5588
2026-01-20 17:32:50.68	17.19	16.36	-35.0	-35.7	26.0	0.00e+00	0	42	0	864026624	42	6211
2026-01-20 17:32:54.72	16.99	16.80	-34.6	-35.2	26.2	0.00e+00	0	42	0	887095296	42	5886
2026-01-20 17:32:58.76	16.78	17.26	-34.3	-35.0	26.5	0.00e+00	0	42	0	909115392	42	5701
2026-01-20 17:33:02.81	16.56	17.72	-34.3	-34.9	26.5	0.00e+00	0	42	0	932184064	42	5672
2026-01-20 17:33:06.85	16.33	18.19	-34.1	-34.7	26.7	0.00e+00	0	42	0	955252736	42	5546
2026-01-20 17:33:10.89	16.10	18.67	-34.0	-34.7	26.7	0.00e+00	0	42	0	977272832	42	5536
2026-01-20 17:33:14.93	15.86	19.16	-33.9	-34.5	26.9	0.00e+00	0	42	0	1000341504	42	5410
2026-01-20 17:33:18.97	15.61	19.66	-34.0	-34.7	26.8	0.00e+00	0	42	0	1023410176	42	5510
2026-01-20 17:33:23.01	15.35	20.17	-34.0	-34.7	26.8	0.00e+00	0	42	0	1046478848	42	5516
2026-01-20 17:33:27.05	15.08	20.68	-34.1	-34.8	26.6	0.00e+00	0	42	0	1068498944	42	5574
2026-01-20 17:33:31.09	14.80	21.21	-34.2	-34.9	26.7	0.00e+00	0	42	0	1091567616	42	5640
2026-01-20 17:33:35.13	14.51	21.75	-33.7	-34.4	27.1	0.00e+00	0	42	0	1113587712	42	5337
2026-01-20 17:33:39.17	14.21	22.30	-33.7	-34.3	27.2	0.00e+00	0	42	0	1136656384	40	5925
2026-01-20 17:33:43.21	13.90	22.86	-33.3	-33.9	27.3	0.00e+00	0	42	0	1159725056	40	5692
2026-01-20 17:33:47.25	13.58	23.43	-33.6	-34.2	27.3	0.00e+00	0	42	0	1181745152	40	5881
2026-01-20 17:33:51.30	13.25	24.01	-33.1	-33.8	27.5	0.00e+00	0	42	0	1204813824	40	5580
2026-01-20 17:33:55.34	12.90	24.61	-33.2	-33.8	27.5	0.00e+00	0	42	0	1227882496	40	5612
2026-01-20 17:33:59.38	12.53	25.22	-32.9	-33.5	27.8	0.00e+00	0	42	0	1250951168	40	5432
2026-01-20 17:34:03.41	12.16	25.84	-32.8	-33.4	27.9	0.00e+00	0	42	0	1272971264	40	5331
2026-01-20 17:34:07.45	11.76	26.47	-32.9	-33.5	27.7	0.00e+00	0	42	0	1296039936	38	6073
2026-01-20 17:34:11.49	11.35	27.12	-33.1	-33.7	27.7	0.00e+00	0	42	0	1318060032	38	6219
2026-01-20 17:34:15.53	10.92	27.78	-33.0	-33.6	27.8	0.00e+00	0	42	0	1341128704	38	6136
2026-01-20 17:34:19.57	10.48	28.46	-33.0	-33.6	27.8	0.00e+00	0	42	0	1364197376	38	6132
2026-01-20 17:34:23.61	10.01	29.15	-33.0	-33.6	27.8	0.00e+00	0	42	0	1387266048	38	6155
2026-01-20 17:34:27.66	9.52	29.85	-33.0	-33.7	27.8	0.00e+00	0	42	0	1409286144	38	6175
2026-01-20 17:34:31.70	9.01	30.58	-33.0	-33.6	27.9	0.00e+00	0	42	0	1432354816	38	6155
2026-01-20 17:34:35.74	8.47	31.31	-32.6	-33.2	28.1	0.00e+00	0	42	0	1455423488	38	5886
2026-01-20 17:34:39.78	7.91	32.07	-32.8	-33.4	28.0	0.00e+00	0	42	0	1477443584	38	5987
2026-01-20 17:34:43.82	7.32	32.83	-32.4	-33.1	28.2	0.00e+00	0	42	0	1500512256	38	5769
2026-01-20 17:34:47.86	6.70	33.62	-32.5	-33.1	28.2	0.00e+00	0	42	0	1523580928	38	5822
2026-01-20 17:34:51.90	6.05	34.42	-32.6	-33.2	28.1	0.00e+00	0	42	0	1545601024	38	5893
2026-01-20 17:34:55.94	5.37	35.24	-32.6	-33.2	28.1	0.00e+00	0	42	0	1568669696	38	5886
2026-01-20 17:34:59.98	4.64	36.08	-32.2	-32.8	28.5	0.00e+00	0	42	0	1591738368	38	5603
2026-01-20 17:35:04.02	3.88	36.93	-32.3	-32.9	28.4	0.00e+00	0	42	0	1613758464	38	5661
2026-01-20 17:35:08.07	3.08	37.80	-32.5	-33.1	28.2	0.00e+00	0	42	0	1636827136	38	5806
2026-01-20 17:35:12.11	2.23	38.68	-32.4	-33.0	28.3	0.00e+00	0	42	0	1659895808	38	5757
2026-01-20 17:35:16.15	1.34	39.58	-32.6	-33.2	28.1	0.00e+00	0	42	0	1681915904	38	5874
2026-01-20 17:35:20.19	0.39	40.50	-32.6	-33.3	28.1	0.00e+00	0	42	0	1704984576	38	5915
2026-01-20 17:35:24.23	359.38	41.43	-32.9	-33.5	27.9	0.00e+00	0	42	0	1728053248	38	6101
2026-01-20 17:35:28.27	358.32	42.37	-32.7	-33.3	28.1	0.00e+00	0	42	0	1750073344	38	5937
2026-01-20 17:35:32.31	357.19	43.33	-33.0	-33.7	27.8	0.00e+00	0	42	0	1773142016	38	6192
2026-01-20 17:35:36.35	355.98	44.29	-32.9	-33.5	27.9	0.00e+00	0	42	0	1796210688	38	6055
2026-01-20 17:35:40.39	354.71	45.27	-32.8	-33.4	28.1	0.00e+00	0	42	0	1818230784	38	6021
2026-01-20 17:35:44.43	353.34	46.25	-32.9	-33.5	28.0	0.00e+00	0	42	0	1841299456	38	6089
2026-01-20 17:35:48.47	351.90	47.24	-33.4	-34.1	27.6	0.00e+00	0	42	0	1864368128	38	6479
2026-01-20 17:35:52.51	350.35	48.23	-33.2	-33.8	27.7	0.00e+00	0	42	0	1886388224	38	6284
2026-01-20 17:35:56.55	348.70	49.21	-33.7	-34.4	27.3	0.00e+00	0	42	0	1909456896	38	6707
2026-01-20 17:36:00.59	346.94	50.20	-34.0	-34.6	27.0	0.00e+00	0	42	0	1932525568	40	6136
2026-01-20 17:36:04.63	345.06	51.17	-33.9	-34.5	27.2	0.00e+00	0	42	0	1954545664	40	6084
2026-01-20 17:36:08.67	343.06	52.12	-33.8	-34.4	27.3	0.00e+00	0	42	0	1977614336	40	6020
2026-01-20 17:36:12.71	340.93	53.06	-34.2	-34.8	26.9	0.00e+00	0	42	0	2000683008	40	6305
2026-01-20 17:36:16.75	338.65	53.97	-34.0	-34.7	27.0	0.00e+00	0	42	0	2022703104	40	6192
2026-01-20 17:36:20.79	336.23	54.85	-33.8	-34.5	27.2	0.00e+00	0	42	0	2045771776	40	6046
2026-01-20 17:36:24.76	333.70	55.67	-33.7	-34.3	27.3	0.00e+00	0	42	0	2068840448	40	5919
2026-01-20 17:36:28.81	330.97	56.46	-34.0	-34.6	27.1	0.00e+00	0	42	0	2091909120	40	6152
2026-01-20 17:36:32.85	328.08	57.19	-33.3	-33.9	27.7	0.00e+00	0	42	0	2113929216	40	5646
2026-01-20 17:36:36.89	325.05	57.86	-33.5	-34.1	27.5	0.00e+00	0	42	0	2136997888	40	5794
2026-01-20 17:36:40.93	321.87	58.45	-33.9	-34.6	27.2	0.00e+00	0	42	0	2159017984	40	6109
2026-01-20 17:36:44.97	318.55	58.97	-33.9	-34.6	27.2	0.00e+00	0	42	0	2182086656	40	6109
2026-01-20 17:36:49.01	315.11	59.39	-33.6	-34.2	27.4	0.00e+00	0	42	0	2205155328	40	5870
2026-01-20 17:36:53.05	311.57	59.72	-33.7	-34.3	27.3	0.00e+00	0	42	0	2228224000	40	5924
2026-01-20 17:36:57.09	307.95	59.95	-33.6	-34.3	27.4	0.00e+00	0	42	0	2250244096	40	5933
2026-01-20 17:37:01.14	304.28	60.08	-33.1	-33.8	27.7	0.00e+00	0	42	0	2273312768	40	5583
2026-01-20 17:37:05.18	300.59	60.10	-33.2	-33.8	27.7	0.00e+00	0	42	0	2296381440	40	5619
2026-01-20 17:37:09.21	296.91	60.01	-33.0	-33.7	27.6	0.00e+00	0	42	0	2318401536	40	5508
2026-01-20 17:37:13.26	293.26	59.82	-33.6	-34.2	27.3	0.00e+00	0	42	0	2341470208	40	5888
2026-01-20 17:37:17.30	289.69	59.52	-33.5	-34.2	27.5	0.00e+00	0	42	0	2364538880	38	6566
2026-01-20 17:37:21.33	286.22	59.13	-33.6	-34.3	27.3	0.00e+00	0	42	0	2386558976	38	6625
2026-01-20 17:37:25.38	282.84	58.65	-33.2	-33.8	27.7	0.00e+00	0	42	0	2409627648	38	6301
2026-01-20 17:37:29.42	279.61	58.08	-33.3	-33.8	27.5	0.00e+00	0	42	0	2432696320	38	6302
2026-01-20 17:37:33.46	276.52	57.44	-32.9	-33.5	27.9	0.00e+00	0	42	0	2454716416	38	6095
2026-01-20 17:37:37.50	273.58	56.73	-32.9	-33.6	27.9	0.00e+00	0	42	0	2477785088	38	6151
2026-01-20 17:37:41.55	270.78	55.95	-33.7	-34.4	27.3	0.00e+00	0	42	0	2500853760	40	5973
2026-01-20 17:37:45.59	268.15	55.13	-33.3	-34.0	27.8	0.00e+00	0	42	0	2523922432	40	5700
2026-01-20 17:37:49.63	265.68	54.27	-33.2	-33.8	27.7	0.00e+00	0	42	0	2545942528	40	5591
2026-01-20 17:37:53.67	263.35	53.37	-33.2	-33.9	27.7	0.00e+00	0	42	0	2569011200	40	5653
2026-01-20 17:37:57.71	261.16	52.43	-33.4	-34.0	27.5	0.00e+00	0	42	0	2591031296	40	5736
2026-01-20 17:38:01.75	259.11	51.48	-33.6	-34.2	27.5	0.00e+00	0	42	0	2614099968	40	5885
2026-01-20 17:38:05.78	257.19	50.51	-33.2	-33.8	27.7	0.00e+00	0	42	0	2637168640	40	5583
2026-01-20 17:38:09.82	255.39	49.53	-33.1	-33.7	27.8	0.00e+00	0	42	0	2659188736	40	5524
2026-01-20 17:38:13.86	253.70	48.55	-33.0	-33.7	27.9	0.00e+00	0	42	0	2682257408	40	5538
2026-01-20 17:38:17.90	252.12	47.55	-33.3	-33.9	27.7	0.00e+00	0	43	0	2705326080	40	5675
2026-01-20 17:38:21.94	250.63	46.56	-32.7	-33.4	27.9	0.00e+00	0	42	0	2727346176	38	5980
2026-01-20 17:38:25.98	249.24	45.58	-32.5	-33.2	28.1	0.00e+00	0	42	0	2750414848	38	5852
2026-01-20 17:38:30.02	247.93	44.59	-32.3	-32.9	28.3	0.00e+00	0	43	0	2773483520	38	5642
2026-01-20 17:38:34.07	246.69	43.62	-32.3	-33.0	28.4	0.00e+00	0	42	0	2795503616	38	5735
2026-01-20 17:38:38.11	245.54	42.66	-32.4	-32.9	28.2	0.00e+00	0	42	0	2818572288	38	5690
2026-01-20 17:38:42.14	244.45	41.71	-32.7	-33.4	28.0	0.00e+00	0	42	0	2841640960	38	6015
2026-01-20 17:38:46.19	243.42	40.77	-32.7	-33.4	28.1	0.00e+00	0	42	0	2864709632	38	5969
2026-01-20 17:38:50.22	242.45	39.85	-32.7	-33.3	28.0	0.00e+00	0	42	0	2886729728	38	5914
2026-01-20 17:38:54.27	241.54	38.94	-32.2	-32.9	28.4	0.00e+00	0	42	0	2909798400	38	5659
2026-01-20 17:38:58.31	240.67	38.04	-32.1	-32.6	28.5	0.00e+00	0	42	0	2931818496	38	5493
2026-01-20 17:39:02.35	239.85	37.17	-32.2	-32.7	28.3	0.00e+00	0	42	0	2954887168	38	5545
2026-01-20 17:39:06.39	239.07	36.31	-32.3	-32.8	28.3	0.00e+00	0	43	0	2977955840	38	5610
2026-01-20 17:39:10.43	238.34	35.46	-32.6	-33.1	28.1	0.00e+00	0	42	0	2999975936	38	5815
2026-01-20 17:39:14.46	237.64	34.64	-32.4	-33.1	28.2	0.00e+00	0	43	0	3023044608	38	5790
2026-01-20 17:39:18.50	236.98	33.83	-32.6	-33.1	28.0	0.00e+00	0	43	0	3046113280	38	5819
2026-01-20 17:39:22.55	236.34	33.03	-32.4	-32.9	28.2	0.00e+00	0	43	0	3069181952	38	5672
2026-01-20 17:39:26.59	235.74	32.26	-32.3	-33.0	28.2	0.00e+00	0	42	0	3091202048	38	5752
2026-01-20 17:39:30.63	235.17	31.49	-32.6	-33.1	28.0	0.00e+00	0	43	0	3114270720	38	5822
2026-01-20 17:39:34.68	234.62	30.75	-32.8	-33.5	27.9	0.00e+00	0	43	0	3136290816	38	6086
2026-01-20 17:39:38.72	234.10	30.02	-32.9	-33.6	27.8	0.00e+00	0	43	0	3159359488	38	6160
2026-01-20 17:39:42.76	233.60	29.31	-32.8	-33.3	27.9	0.00e+00	0	43	0	3182428160	38	5948
2026-01-20 17:39:46.79	233.13	28.61	-32.7	-33.3	27.9	0.00e+00	0	43	0	3205496832	38	5908
2026-01-20 17:39:50.83	232.67	27.93	-32.9	-33.4	27.8	0.00e+00	0	42	0	3227516928	38	6023
2026-01-20 17:39:54.88	232.23	27.26	-33.1	-33.6	27.6	0.00e+00	0	43	0	3250585600	38	6167
2026-01-20 17:39:58.92	231.81	26.60	-33.0	-33.6	27.4	0.00e+00	0	43	0	3273654272	38	6135
2026-01-20 17:40:02.96	231.41	25.96	-32.9	-33.6	27.5	0.00e+00	0	42	0	3295674368	38	6172
2026-01-20 17:40:07.00	231.03	25.33	-32.9	-33.5	27.5	0.00e+00	0	42	0	3318743040	38	6064
2026-01-20 17:40:11.05	230.66	24.72	-33.0	-33.6	27.5	0.00e+00	0	42	0	3341811712	38	6122
2026-01-20 17:40:15.09	230.30	24.12	-32.9	-33.4	27.5	0.00e+00	0	42	0	3363831808	38	6031
2026-01-20 17:40:19.12	229.96	23.53	-32.8	-33.4	27.5	0.00e+00	0	42	0	3386900480	38	5989
2026-01-20 17:40:23.16	229.63	22.95	-33.0	-33.6	27.4	0.00e+00	0	42	0	3409969152	38	6114
2026-01-20 17:40:27.20	229.31	22.39	-33.3	-33.9	27.3	0.00e+00	0	42	0	3431989248	38	6347
2026-01-20 17:40:31.24	229.01	21.83	-33.2	-33.9	27.3	0.00e+00	0	43	0	3455057920	38	6329
2026-01-20 17:40:35.29	228.71	21.29	-33.4	-34.1	27.1	0.00e+00	0	42	0	3478126592	38	6480
2026-01-20 17:40:39.33	228.43	20.76	-33.6	-34.2	26.9	0.00e+00	0	42	0	3500146688	38	6555
2026-01-20 17:40:43.37	228.16	20.23	-33.9	-34.5	26.7	0.00e+00	0	42	0	3523215360	40	6041
2026-01-20 17:40:47.41	227.89	19.72	-33.7	-34.3	26.8	0.00e+00	0	42	0	3546284032	40	5901
2026-01-20 17:40:51.45	227.64	19.22	-33.8	-34.4	26.7	0.00e+00	0	42	0	3568304128	40	5992
2026-01-20 17:40:55.49	227.39	18.73	-34.0	-34.6	26.6	0.00e+00	0	43	0	3591372800	40	6142
2026-01-20 17:40:59.52	227.15	18.24	-34.3	-34.9	26.4	0.00e+00	0	42	0	3614441472	40	6364
2026-01-20 17:41:03.56	226.92	17.77	-34.6	-35.2	26.1	0.00e+00	0	42	0	3636461568	40	6545
2026-01-20 17:41:07.61	226.70	17.30	-34.7	-35.3	25.9	0.00e+00	0	42	0	3659530240	42	5963
2026-01-20 17:41:11.65	226.48	16.84	-34.8	-35.4	25.9	0.00e+00	0	42	0	3682598912	42	5974
2026-01-20 17:41:15.69	226.27	16.39	-34.7	-35.3	25.9	0.00e+00	0	42	0	3705667584	42	5958
2026-01-20 17:41:19.73	226.07	15.95	-34.8	-35.4	25.8	0.00e+00	0	42	0	3727687680	42	6017
2026-01-20 17:41:23.77	225.87	15.52	-34.8	-35.3	25.9	0.00e+00	0	42	0	3750756352	42	5955
2026-01-20 17:41:27.81	225.68	15.09	-34.9	-35.7	25.7	0.00e+00	0	42	0	3772776448	42	6187
2026-01-20 17:41:31.85	225.50	14.67	-35.1	-35.8	25.6	0.00e+00	0	42	0	3795845120	42	6292
2026-01-20 17:41:35.90	225.32	14.25	-35.3	-35.9	25.4	0.00e+00	0	42	0	3818913792	42	6336
2026-01-20 17:41:39.94	225.14	13.85	-35.3	-35.9	25.4	0.00e+00	0	42	0	3841982464	42	6364
2026-01-20 17:41:43.97	224.98	13.45	-35.5	-36.1	25.1	0.00e+00	0	42	0	3864002560	44	5799
2026-01-20 17:41:48.01	224.81	13.05	-35.8	-36.4	24.9	0.00e+00	0	42	0	3887071232	44	6015
2026-01-20 17:41:52.05	224.65	12.66	-36.2	-36.8	24.5	0.00e+00	0	42	0	3910139904	44	6299
2026-01-20 17:41:56.09	224.50	12.28	-35.9	-36.5	24.8	0.00e+00	0	42	0	3932160000	46	5414
2026-01-20 17:42:00.14	224.34	11.90	-36.1	-36.8	24.6	0.00e+00	0	42	0	3955228672	46	5589
2026-01-20 17:42:04.18	224.20	11.53	-36.4	-37.0	24.4	0.00e+00	0	42	0	3977248768	46	5732
2026-01-20 17:42:08.22	224.05	11.17	-36.6	-37.3	24.1	0.00e+00	0	42	0	4000317440	46	5957
2026-01-20 17:42:12.27	223.91	10.80	-36.8	-37.5	24.0	0.00e+00	0	42	0	4023386112	46	6039
2026-01-20 17:42:16.30	223.78	10.45	-36.8	-37.4	23.9	0.00e+00	0	42	0	4046454784	46	6019
2026-01-20 17:42:20.34	223.65	10.10	-37.2	-38.0	23.5	0.00e+00	0	42	0	4068474880	46	6414
2026-01-20 17:42:24.39	223.52	9.75	-37.2	-38.1	23.4	0.00e+00	0	42	0	4091543552	46	6467
2026-01-20 17:42:28.43	223.39	9.41	-37.6	-38.3	23.1	0.00e+00	0	42	0	4114612224	46	6621
2026-01-20 17:42:32.47	223.27	9.07	-37.3	-38.0	23.3	0.00e+00	0	42	0	4136632320	46	6429
2026-01-20 17:42:36.51	223.15	8.74	-37.3	-38.1	23.3	0.00e+00	0	42	0	4159700992	46	6531
2026-01-20 17:42:40.55	223.03	8.41	-37.9	-38.7	22.7	0.00e+00	0	42	0	4182769664	48	6217
2026-01-20 17:42:44.59	222.92	8.09	-38.0	-38.7	22.5	0.00e+00	0	42	0	4204789760	48	6226
2026-01-20 17:42:48.64	222.81	7.77	-38.1	-39.0	22.3	0.00e+00	0	42	0	4227858432	48	6425
2026-01-20 17:42:52.67	222.70	7.45	-38.1	-38.9	22.2	0.00e+00	0	42	0	4250927104	48	6345
2026-01-20 17:42:56.72	222.60	7.14	-38.1	-38.9	22.1	0.00e+00	0	42	0	4272947200	48	6318
2026-01-20 17:43:00.76	222.49	6.83	-37.9	-38.6	22.2	0.00e+00	0	42	0	4296015872	48	6163
2026-01-20 17:43:04.79	222.39	6.52	-38.5	-39.3	21.6	0.00e+00	0	42	0	4319084544	50	5959
2026-01-20 17:43:08.84	222.30	6.22	-38.2	-39.0	21.6	0.00e+00	0	42	0	4342153216	50	5724
2026-01-20 17:43:12.88	222.20	5.92	-38.5	-39.4	21.5	0.00e+00	0	42	0	4364173312	50	6009
2026-01-20 17:43:16.92	222.11	5.63	-39.0	-39.8	20.9	0.00e+00	0	42	0	4387241984	52	5619
2026-01-20 17:43:20.96	222.01	5.34	-40.3	-41.3	19.4	0.00e+00	0	42	0	4409262080	52	6680
2026-01-20 17:43:25.00	221.92	5.05	-40.8	-42.0	18.7	0.00e+00	0	42	0	4432330752	54	6412
2026-01-20 17:43:29.04	221.84	4.76	-39.7	-40.5	19.9	0.00e+00	0	42	0	4455399424	52	6101
2026-01-20 17:43:33.09	221.75	4.48	-39.6	-40.5	20.1	0.00e+00	0	42	0	4478468096	50	6806
2026-01-20 17:43:37.13	221.67	4.20	-39.2	-40.1	20.3	0.00e+00	0	42	0	4500488192	50	6487
2026-01-20 17:43:41.16	221.58	3.92	-39.7	-40.6	19.6	0.00e+00	0	42	0	4523556864	52	6129
2026-01-20 17:43:45.21	221.50	3.65	-38.6	-39.4	20.9	0.00e+00	0	42	0	4546625536	50	6029
2026-01-20 17:43:49.25	221.43	3.38	-39.4	-40.4	20.1	0.00e+00	0	42	0	4568645632	52	5996
2026-01-20 17:43:53.29	221.35	3.11	-39.3	-40.2	20.0	0.00e+00	0	42	0	4591714304	52	5881
2026-01-20 17:43:57.34	221.27	2.84	-50.7	-62.8	3.6	8.45e-01	0	42	104	4598005760	60	49889
2026-01-20 17:44:01.38	221.20	2.58	-51.2	-63.3	3.6	8.46e-01	0	42	104	4598005760	60	52896
2026-01-20 17:44:05.42	221.13	2.31	-51.3	-63.5	3.6	8.45e-01	0	42	104	4598005760	60	54187
2026-01-20 17:44:09.46	221.06	2.05	-51.2	-63.5	3.6	8.44e-01	0	42	104	4598005760	60	53991
2026-01-20 17:44:13.49	220.99	1.80	-51.3	-63.4	3.6	8.46e-01	0	42	104	4598005760	60	53613
2026-01-20 17:44:17.53	220.92	1.54	-51.4	-63.5	3.6	8.45e-01	0	42	104	4598005760	60	54215
2026-01-20 17:44:21.57	220.85	1.29	-51.3	-63.5	3.6	8.46e-01	0	42	104	4598005760	60	53791
2026-01-20 17:44:25.61	220.79	1.04	-51.3	-63.4	3.6	8.46e-01	0	42	104	4598005760	60	53582
2026-01-20 17:44:29.65	220.72	0.79	-51.4	-63.5	3.6	8.44e-01	0	42	104	4598005760	60	54306
2026-01-20 17:44:33.69	220.66	0.55	-51.4	-63.5	3.6	8.45e-01	0	42	104	4598005760	60	54377
2026-01-20 17:44:37.73	220.60	0.30	-51.4	-63.6	3.6	8.44e-01	0	42	104	4598005760	60	54745
2026-01-20 17:44:41.76	220.54	0.06	-51.5	-63.6	3.6	8.45e-01	0	42	104	4598005760	60	54849

#Closed at: 2026-01-20 17:44:43
#Recorded file [4598 MB]: D:/lorett/data/35029_260121_052924.dat