passes_logs/2026/01/20/R4.6S_Anadyr/R4.6S_Anadyr__20260120_184014_AQUA_rec.log

#Pass ID: 20260120_184014_AQUA
#Satellite: AQUA
#Configuration: AQUA
#almurnet v.1.7.20251203
#Start time: 2026-01-20 18:40:15

#Version: 2.2.20231116
#Station: R4.6S_Anadyr
#Location: 177.4865 lon 64.73178 lat
#TLE: 1 27424U 02022A   26019.95447505  .00001296  00000+0  26931-3 0  9993
#TLE: 2 27424  98.4091 346.4652 0001983  72.1988 359.6274 14.61832814261618

#Time	Az	El	Level	Level2	SNR	BER	BlckErr	Temp	State	Recorded	gain1	gain2
2026-01-20 18:40:15.41	25.62	0.07	-51.4	-66.3	3.5	1.51e+00	0	39	0	0	60	74561
2026-01-20 18:40:18.43	25.43	0.24	-52.3	-70.2	3.5	3.02e+01	0	41	104	0	60	124412
2026-01-20 18:40:21.47	25.23	0.41	-52.1	-70.0	3.5	3.02e+01	0	41	104	0	60	121917
2026-01-20 18:40:24.50	25.04	0.58	-52.0	-69.9	3.5	3.02e+01	0	41	104	0	60	119733
2026-01-20 18:40:27.52	24.84	0.75	-51.8	-69.7	3.5	3.02e+01	0	41	104	0	60	118028
2026-01-20 18:40:30.55	24.64	0.92	-51.7	-69.5	3.5	3.02e+01	0	41	104	0	60	114781
2026-01-20 18:40:33.58	24.43	1.09	-51.2	-69.1	3.5	3.02e+01	0	41	104	0	60	109528
2026-01-20 18:40:36.61	24.23	1.26	-51.0	-68.8	3.5	3.02e+01	0	41	104	0	60	105598
2026-01-20 18:40:39.64	24.02	1.44	-50.2	-68.1	3.5	3.02e+01	0	41	104	0	60	97394
2026-01-20 18:40:42.67	23.80	1.61	-50.1	-67.8	3.5	3.02e+01	0	41	104	0	60	94948
2026-01-20 18:40:45.70	23.59	1.78	-50.1	-67.9	3.5	3.02e+01	0	41	104	0	60	95064
2026-01-20 18:40:48.73	23.37	1.96	-50.1	-67.9	3.5	3.02e+01	0	41	104	0	60	96086
2026-01-20 18:40:51.76	23.15	2.14	-50.1	-68.0	3.5	3.02e+01	0	41	104	0	60	96319
2026-01-20 18:40:54.79	22.92	2.31	-50.0	-67.7	3.5	3.02e+01	0	41	104	0	60	92996
2026-01-20 18:40:57.82	22.70	2.49	-50.1	-67.9	3.5	3.02e+01	0	41	104	0	60	95427
2026-01-20 18:41:00.85	22.47	2.67	-50.0	-67.9	3.5	3.02e+01	0	41	104	0	60	95167
2026-01-20 18:41:03.88	22.23	2.85	-50.1	-67.9	3.5	3.02e+01	0	42	104	0	60	95558
2026-01-20 18:41:06.91	21.99	3.03	-49.9	-66.9	3.5	3.02e+01	0	42	104	0	60	85138
2026-01-20 18:41:09.94	21.75	3.21	-49.5	-65.0	3.5	3.02e+01	0	41	104	0	60	68578
2026-01-20 18:41:12.97	21.51	3.39	-46.9	-59.1	3.5	3.02e+01	0	41	104	0	60	34857
2026-01-20 18:41:16.00	21.26	3.58	-50.0	-67.7	3.5	3.02e+01	0	42	104	0	60	93175
2026-01-20 18:41:19.03	21.01	3.76	-40.4	-50.8	3.5	3.02e+01	0	42	104	0	56	16738
2026-01-20 18:41:22.06	20.75	3.95	-41.6	-52.1	3.5	3.02e+01	0	42	104	0	58	17468
2026-01-20 18:41:25.09	20.50	4.13	-50.0	-67.7	3.5	3.02e+01	0	42	104	0	60	92895
2026-01-20 18:41:28.12	20.23	4.32	-42.5	-53.1	3.5	3.02e+01	0	42	104	0	58	19563
2026-01-20 18:41:31.15	19.97	4.50	-41.9	-52.5	3.6	3.02e+01	0	42	104	0	58	18181
2026-01-20 18:41:34.18	19.70	4.69	-49.9	-65.9	3.5	3.02e+01	0	41	104	0	60	76109
2026-01-20 18:41:37.21	19.42	4.88	-44.3	-55.3	3.5	3.02e+01	0	42	104	0	60	22428
2026-01-20 18:41:40.24	19.14	5.07	-44.0	-54.8	3.5	3.02e+01	0	42	104	0	60	21261
2026-01-20 18:41:43.26	18.86	5.26	-50.2	-67.6	3.5	3.02e+01	0	42	104	0	60	92297
2026-01-20 18:41:46.29	18.57	5.45	-41.0	-51.4	3.5	3.02e+01	0	42	104	0	58	16011
2026-01-20 18:41:49.32	18.28	5.65	-41.9	-52.4	3.5	3.02e+01	0	42	104	0	58	17972
2026-01-20 18:41:52.35	17.99	5.84	-49.2	-63.2	3.5	3.02e+01	0	42	104	0	60	55816
2026-01-20 18:41:55.38	17.69	6.04	-42.8	-53.4	3.6	3.02e+01	0	42	104	0	60	18030
2026-01-20 18:41:58.41	17.38	6.23	-41.9	-52.4	3.5	3.02e+01	0	42	104	0	58	18078
2026-01-20 18:42:01.44	17.07	6.43	-50.3	-66.5	3.5	3.02e+01	0	42	104	0	60	80913
2026-01-20 18:42:04.47	16.76	6.63	-41.3	-51.7	3.5	3.02e+01	0	42	104	0	58	16567
2026-01-20 18:42:07.50	16.44	6.82	-41.7	-52.3	3.5	3.02e+01	0	42	104	0	56	19890
2026-01-20 18:42:10.53	16.12	7.02	-45.2	-56.4	3.6	3.02e+01	0	42	104	0	60	25394
2026-01-20 18:42:13.55	15.79	7.22	-41.4	-51.8	3.5	3.02e+01	0	42	104	0	58	16886
2026-01-20 18:42:16.58	15.45	7.42	-48.0	-60.5	3.5	3.02e+01	0	42	104	0	60	40955
2026-01-20 18:42:19.61	15.12	7.63	-50.1	-65.7	3.5	3.02e+01	0	42	104	0	60	73956
2026-01-20 18:42:22.64	14.77	7.83	-41.6	-52.1	3.5	3.02e+01	0	42	104	0	58	17412
2026-01-20 18:42:25.67	14.42	8.03	-40.6	-51.0	3.6	3.02e+01	0	42	104	0	56	17283
2026-01-20 18:42:28.70	14.07	8.24	-46.0	-57.5	3.5	3.02e+01	0	42	104	0	60	28736
2026-01-20 18:42:31.72	13.71	8.44	-44.9	-56.0	3.5	3.02e+01	0	42	104	0	60	24326
2026-01-20 18:42:34.75	13.34	8.65	-50.8	-67.9	3.5	3.02e+01	0	42	104	0	60	95050
2026-01-20 18:42:37.78	12.97	8.85	-40.1	-50.4	3.5	3.02e+01	0	42	104	0	54	18050
2026-01-20 18:42:40.81	12.59	9.06	-40.3	-50.7	3.6	3.02e+01	0	42	104	0	56	16531
2026-01-20 18:42:43.84	12.20	9.27	-51.0	-68.6	3.5	3.02e+01	0	42	104	0	60	103989
2026-01-20 18:42:46.86	11.81	9.48	-42.0	-52.5	3.5	3.02e+01	0	42	104	0	60	16209
2026-01-20 18:42:49.89	11.42	9.69	-43.2	-53.9	3.6	3.02e+01	0	42	104	0	60	19051
2026-01-20 18:42:52.92	11.01	9.90	-49.7	-64.2	3.5	3.02e+01	0	42	104	0	60	62188
2026-01-20 18:42:55.95	10.60	10.11	-50.5	-66.5	3.5	3.02e+01	0	42	104	0	60	81639
2026-01-20 18:42:58.98	10.19	10.32	-40.6	-51.0	3.5	3.02e+01	0	42	104	0	56	17140
2026-01-20 18:43:02.01	9.76	10.53	-40.8	-51.1	3.5	3.02e+01	0	42	104	0	54	19606
2026-01-20 18:43:05.04	9.33	10.75	-41.0	-51.4	3.5	3.02e+01	0	42	104	0	58	16099
2026-01-20 18:43:08.07	8.89	10.96	-39.7	-50.0	3.6	3.02e+01	0	42	104	0	54	17285
2026-01-20 18:43:11.10	8.45	11.18	-50.3	-65.5	3.5	3.02e+01	0	42	104	0	60	72894
2026-01-20 18:43:14.13	8.00	11.39	-49.1	-62.3	3.6	3.02e+01	0	42	104	0	60	50199
2026-01-20 18:43:17.16	7.54	11.60	-41.0	-51.4	3.5	3.02e+01	0	42	104	0	56	17951
2026-01-20 18:43:20.19	7.07	11.82	-38.9	-49.1	3.5	3.02e+01	0	42	104	0	52	17374
2026-01-20 18:43:23.22	6.60	12.04	-41.8	-52.3	3.5	3.02e+01	0	42	104	0	60	15838
2026-01-20 18:43:26.25	6.12	12.25	-41.9	-52.4	3.5	3.02e+01	0	42	104	0	58	17944
2026-01-20 18:43:29.28	5.63	12.47	-51.1	-68.5	3.5	3.02e+01	0	42	104	0	60	102612
2026-01-20 18:43:32.31	5.13	12.68	-44.5	-55.4	3.5	3.02e+01	0	42	104	0	60	22641
2026-01-20 18:43:35.34	4.63	12.90	-39.7	-49.9	3.5	3.02e+01	0	42	104	0	54	16999
2026-01-20 18:43:38.37	4.11	13.12	-42.0	-52.4	3.5	3.02e+01	0	42	104	0	58	17922
2026-01-20 18:43:41.40	3.59	13.33	-39.0	-49.2	3.4	3.02e+01	0	42	104	0	52	17625
2026-01-20 18:43:44.43	3.06	13.55	-40.1	-50.4	3.5	3.02e+01	0	42	104	0	54	18002
2026-01-20 18:43:47.46	2.52	13.76	-44.8	-55.8	3.5	3.02e+01	0	42	104	0	60	23685
2026-01-20 18:43:50.49	1.97	13.98	-39.8	-50.1	3.5	3.02e+01	0	42	104	0	58	13762
2026-01-20 18:43:53.51	1.42	14.19	-40.2	-50.5	3.5	3.02e+01	0	42	104	0	54	18120
2026-01-20 18:43:56.54	0.85	14.41	-43.0	-53.5	3.5	3.02e+01	0	42	104	0	58	20408
2026-01-20 18:43:59.57	0.28	14.62	-44.3	-55.1	3.4	3.02e+01	0	42	104	0	54	30934
2026-01-20 18:44:02.60	359.70	14.84	-40.1	-50.4	3.5	3.02e+01	0	42	104	0	56	16117
2026-01-20 18:44:05.63	359.10	15.05	-43.6	-54.2	3.5	3.02e+01	0	42	104	0	60	19827
2026-01-20 18:44:08.66	358.50	15.26	-39.5	-49.8	3.5	3.02e+01	0	42	104	0	52	18827
2026-01-20 18:44:11.69	357.89	15.47	-40.9	-51.3	3.5	3.02e+01	0	42	104	0	56	17820
2026-01-20 18:44:14.72	357.27	15.68	-44.5	-55.3	3.5	3.02e+01	0	42	104	0	58	25053
2026-01-20 18:44:17.75	356.64	15.89	-51.1	-68.5	3.5	3.02e+01	0	42	104	0	60	102006
2026-01-20 18:44:20.77	356.01	16.09	-39.8	-50.0	3.5	3.02e+01	0	42	104	0	54	17278
2026-01-20 18:44:23.80	355.36	16.30	-41.2	-51.5	3.5	3.02e+01	0	42	104	0	58	16254
2026-01-20 18:44:26.83	354.70	16.50	-42.9	-53.5	3.5	3.02e+01	0	42	104	0	56	22814
2026-01-20 18:44:29.85	354.04	16.70	-39.0	-49.2	3.5	3.02e+01	0	42	104	0	54	15677
2026-01-20 18:44:32.88	353.36	16.90	-40.6	-50.9	3.6	3.02e+01	0	42	104	0	56	17025
2026-01-20 18:44:35.92	352.67	17.10	-44.1	-54.9	3.5	3.02e+01	0	42	104	0	58	24054
2026-01-20 18:44:38.94	351.98	17.29	-40.9	-51.3	3.5	3.02e+01	0	42	104	0	56	17752
2026-01-20 18:44:41.97	351.27	17.49	-49.1	-62.2	3.5	3.02e+01	0	42	104	0	60	49426
2026-01-20 18:44:44.99	350.56	17.68	-51.2	-68.3	3.5	3.02e+01	0	42	104	0	60	99552
2026-01-20 18:44:48.03	349.83	17.86	-42.3	-52.8	3.5	3.02e+01	0	42	104	0	60	16864
2026-01-20 18:44:51.06	349.09	18.05	-48.5	-61.0	3.5	3.02e+01	0	42	104	0	60	43092
2026-01-20 18:44:54.08	348.35	18.23	-51.3	-68.4	3.5	3.02e+01	0	42	104	0	60	101683
2026-01-20 18:44:57.12	347.59	18.40	-39.6	-49.8	3.5	3.02e+01	0	42	104	0	54	16852
2026-01-20 18:45:00.15	346.83	18.58	-41.0	-51.3	3.5	3.02e+01	0	42	104	0	58	15885
2026-01-20 18:45:03.18	346.06	18.75	-47.9	-60.0	3.5	3.02e+01	0	42	104	0	60	38420
2026-01-20 18:45:06.21	345.28	18.91	-39.1	-49.3	3.6	3.02e+01	0	42	104	0	54	15921
2026-01-20 18:45:09.24	344.48	19.07	-39.6	-49.9	3.5	3.02e+01	0	42	104	0	56	15184
2026-01-20 18:45:12.27	343.69	19.23	-49.6	-63.1	3.5	3.02e+01	0	42	104	0	60	54827
2026-01-20 18:45:15.30	342.88	19.38	-40.7	-51.0	3.6	3.02e+01	0	42	104	0	56	17193
2026-01-20 18:45:18.33	342.06	19.53	-39.5	-49.7	3.5	3.02e+01	0	42	104	0	56	14802
2026-01-20 18:45:21.36	341.23	19.67	-48.4	-60.7	3.5	3.02e+01	0	42	104	0	60	41565
2026-01-20 18:45:24.39	340.40	19.81	-39.6	-49.8	3.5	3.02e+01	0	42	104	0	54	16782
2026-01-20 18:45:27.42	339.56	19.94	-39.4	-49.6	3.5	3.02e+01	0	42	104	0	54	16497
2026-01-20 18:45:30.45	338.71	20.07	-46.7	-58.2	3.5	3.02e+01	0	42	104	0	60	31197
2026-01-20 18:45:33.47	337.86	20.19	-40.5	-50.8	3.5	3.02e+01	0	42	104	0	56	16819
2026-01-20 18:45:36.51	336.99	20.31	-39.7	-49.9	3.5	3.02e+01	0	42	104	0	52	19089
2026-01-20 18:45:39.54	336.12	20.41	-44.5	-55.5	3.5	3.02e+01	0	42	104	0	60	22857
2026-01-20 18:45:42.57	335.24	20.52	-39.6	-49.8	3.5	3.02e+01	0	42	104	0	54	16748
2026-01-20 18:45:45.60	334.36	20.61	-44.1	-46.0	19.8	3.02e+01	59	42	0	3145728	54	10803
2026-01-20 18:45:48.63	333.47	20.70	-40.9	-42.2	27.0	3.02e+01	61	42	0	6291456	60	4967
2026-01-20 18:45:51.66	332.58	20.79	-39.1	-40.4	28.2	3.02e+01	59	42	0	12058624	52	6398
2026-01-20 18:45:54.69	331.68	20.86	-38.8	-40.1	28.5	3.02e+01	59	42	0	17301504	52	6159
2026-01-20 18:45:57.71	330.78	20.93	-39.1	-40.4	28.3	3.02e+01	59	42	0	23068672	52	6371
2026-01-20 18:46:00.74	329.87	20.99	-39.0	-40.3	28.3	3.02e+01	58	42	0	28835840	52	6293
2026-01-20 18:46:03.77	328.96	21.05	-39.0	-40.3	28.4	3.02e+01	55	42	0	34603008	52	6316
2026-01-20 18:46:06.80	328.05	21.10	-39.1	-40.4	28.3	3.02e+01	55	42	0	40370176	52	6366
2026-01-20 18:46:09.82	327.13	21.14	-39.1	-40.4	28.1	3.02e+01	60	42	0	46137344	52	6401
2026-01-20 18:46:12.85	326.21	21.17	-38.8	-40.1	28.5	3.02e+01	60	42	0	51380224	52	6155
2026-01-20 18:46:15.88	325.29	21.20	-39.1	-40.3	28.2	3.02e+01	57	42	0	57147392	52	6339
2026-01-20 18:46:18.91	324.37	21.21	-39.0	-40.3	28.3	3.02e+01	58	42	0	62914560	52	6317
2026-01-20 18:46:21.94	323.45	21.23	-39.1	-40.3	28.2	3.02e+01	58	42	0	68681728	52	6349
2026-01-20 18:46:24.96	322.53	21.23	-39.0	-40.3	28.4	3.02e+01	57	42	0	74448896	52	6293
2026-01-20 18:46:27.99	321.60	21.22	-39.1	-40.4	28.2	3.02e+01	54	42	0	80216064	52	6366
2026-01-20 18:46:31.02	320.68	21.21	-39.3	-40.6	28.1	3.02e+01	62	42	0	85458944	52	6558
2026-01-20 18:46:34.05	319.75	21.19	-39.0	-40.2	28.3	3.02e+01	54	42	0	91226112	52	6274
2026-01-20 18:46:37.08	318.83	21.16	-39.1	-40.3	28.3	3.02e+01	62	42	0	96993280	52	6339
2026-01-20 18:46:40.11	317.91	21.13	-39.2	-40.5	28.2	3.02e+01	60	42	0	102760448	52	6463
2026-01-20 18:46:43.13	317.00	21.09	-39.5	-40.8	27.8	3.02e+01	61	42	0	108527616	52	6667
2026-01-20 18:46:46.16	316.09	21.04	-39.3	-40.6	28.2	3.02e+01	46	42	0	113770496	52	6506
2026-01-20 18:46:49.19	315.17	20.98	-39.0	-40.3	28.2	3.02e+01	47	42	0	119537664	52	6303
2026-01-20 18:46:52.22	314.27	20.92	-39.7	-41.0	27.8	3.02e+01	60	42	0	125304832	52	6856
2026-01-20 18:46:55.25	313.36	20.85	-39.4	-40.7	28.0	3.02e+01	61	42	0	131072000	54	5896
2026-01-20 18:46:58.28	312.47	20.77	-39.6	-40.9	27.6	3.02e+01	60	42	0	136839168	54	6010
2026-01-20 18:47:01.31	311.57	20.68	-39.2	-40.4	28.1	3.02e+01	60	42	0	142606336	54	5724
2026-01-20 18:47:04.34	310.68	20.59	-39.1	-40.3	28.2	3.02e+01	59	42	0	148373504	52	6340
2026-01-20 18:47:07.36	309.80	20.50	-39.7	-41.0	27.6	3.02e+01	60	42	0	153616384	52	6864
2026-01-20 18:47:10.39	308.93	20.39	-40.6	-42.1	26.4	3.02e+01	49	42	0	159383552	54	6916
2026-01-20 18:47:13.43	308.06	20.28	-39.9	-41.2	27.5	3.02e+01	49	42	0	165150720	54	6275
2026-01-20 18:47:16.45	307.19	20.16	-38.3	-39.5	28.8	3.02e+01	60	42	0	170917888	52	5733
2026-01-20 18:47:19.49	306.34	20.04	-38.5	-39.7	28.8	3.02e+01	61	42	0	176685056	52	5870
2026-01-20 18:47:22.51	305.49	19.91	-39.7	-41.1	27.5	3.02e+01	61	42	0	181927936	52	6949
2026-01-20 18:47:25.55	304.65	19.78	-40.0	-41.4	27.2	3.02e+01	61	42	0	187695104	54	6394
2026-01-20 18:47:28.58	303.81	19.64	-39.2	-40.5	28.2	3.02e+01	58	42	0	193462272	54	5737
2026-01-20 18:47:31.61	302.99	19.50	-39.6	-40.9	27.6	3.02e+01	54	42	0	199229440	52	6773
2026-01-20 18:47:34.64	302.17	19.35	-38.9	-40.1	28.5	3.02e+01	49	42	0	204996608	52	6200
2026-01-20 18:47:37.67	301.36	19.19	-39.3	-40.6	28.0	3.02e+01	60	42	0	210763776	52	6501
2026-01-20 18:47:40.69	300.57	19.04	-39.1	-40.3	28.2	3.02e+01	60	42	0	216530944	52	6332
2026-01-20 18:47:43.73	299.77	18.87	-39.2	-40.5	28.2	3.02e+01	60	42	0	221773824	52	6485
2026-01-20 18:47:46.76	298.99	18.71	-38.5	-39.7	28.6	3.02e+01	61	42	0	227540992	52	5884
2026-01-20 18:47:49.79	298.22	18.54	-39.2	-40.5	28.1	3.02e+01	59	42	0	233308160	52	6461
2026-01-20 18:47:52.82	297.45	18.36	-38.7	-39.9	28.6	3.02e+01	60	42	0	239075328	52	6059
2026-01-20 18:47:55.85	296.70	18.18	-39.4	-40.7	28.0	3.02e+01	50	42	0	244842496	52	6579
2026-01-20 18:47:58.88	295.96	18.00	-38.6	-39.8	28.4	3.02e+01	58	42	0	250609664	52	5989
2026-01-20 18:48:01.91	295.22	17.82	-39.6	-40.9	27.3	3.02e+01	58	42	0	255852544	52	6774
2026-01-20 18:48:04.94	294.50	17.63	-38.8	-40.0	28.2	3.02e+01	59	42	0	261619712	52	6112
2026-01-20 18:48:07.97	293.78	17.44	-40.1	-41.5	27.2	3.02e+01	60	42	0	267386880	54	6479
2026-01-20 18:48:11.00	293.07	17.25	-39.5	-40.8	27.6	3.02e+01	63	42	0	273154048	54	5962
2026-01-20 18:48:14.02	292.38	17.05	-38.7	-40.0	28.5	3.02e+01	60	42	0	278921216	52	6073
2026-01-20 18:48:17.05	291.69	16.85	-39.7	-41.1	27.4	3.02e+01	56	42	0	284688384	52	6935
2026-01-20 18:48:20.08	291.02	16.65	-38.9	-40.1	28.3	3.02e+01	57	42	0	289931264	52	6191
2026-01-20 18:48:23.11	290.35	16.45	-38.6	-39.8	28.7	3.02e+01	58	42	0	295698432	52	5961
2026-01-20 18:48:26.14	289.69	16.25	-39.0	-40.2	28.3	3.02e+01	58	42	0	301465600	52	6245
2026-01-20 18:48:29.17	289.04	16.04	-38.9	-40.1	28.3	3.02e+01	50	42	0	307232768	52	6165
2026-01-20 18:48:32.20	288.40	15.83	-39.1	-40.4	28.1	3.02e+01	54	42	0	312999936	52	6380
2026-01-20 18:48:35.23	287.77	15.62	-39.2	-40.5	28.0	3.02e+01	53	42	0	318767104	52	6487
2026-01-20 18:48:38.26	287.16	15.41	-38.9	-40.2	28.3	3.02e+01	50	42	0	324009984	52	6258
2026-01-20 18:48:41.29	286.54	15.20	-38.7	-39.9	28.6	3.02e+01	47	42	0	329777152	52	6063
2026-01-20 18:48:44.32	285.94	14.99	-38.9	-40.2	28.2	3.02e+01	59	42	0	335544320	52	6228
2026-01-20 18:48:47.35	285.35	14.78	-38.7	-39.9	28.4	3.02e+01	61	42	0	341311488	52	6058
2026-01-20 18:48:50.38	284.77	14.56	-38.7	-40.0	28.4	3.02e+01	59	42	0	347078656	52	6085
2026-01-20 18:48:53.42	284.19	14.35	-39.1	-40.4	28.2	3.02e+01	56	42	0	352845824	52	6352
2026-01-20 18:48:56.44	283.63	14.13	-39.1	-40.3	28.0	3.02e+01	59	42	0	358088704	52	6327
2026-01-20 18:48:59.47	283.07	13.92	-38.9	-40.1	28.3	3.02e+01	47	42	0	363855872	52	6186
2026-01-20 18:49:02.51	282.52	13.70	-38.9	-40.1	28.1	3.02e+01	50	42	0	369623040	52	6189
2026-01-20 18:49:05.54	281.98	13.48	-39.4	-40.7	27.7	3.02e+01	60	42	0	375390208	52	6625
2026-01-20 18:49:08.57	281.45	13.27	-39.1	-40.4	28.0	3.02e+01	59	42	0	381157376	52	6359
2026-01-20 18:49:11.60	280.93	13.05	-39.1	-40.4	28.0	3.02e+01	57	42	0	386924544	52	6358
2026-01-20 18:49:14.63	280.42	12.83	-39.1	-40.4	27.9	3.02e+01	56	42	0	392691712	52	6369
2026-01-20 18:49:17.66	279.91	12.62	-38.7	-39.9	28.4	3.02e+01	60	42	0	397934592	52	6046
2026-01-20 18:49:20.69	279.41	12.40	-39.3	-40.6	27.7	3.02e+01	58	42	0	403701760	52	6515
2026-01-20 18:49:23.71	278.93	12.18	-39.0	-40.3	28.0	3.02e+01	46	42	0	409468928	52	6287
2026-01-20 18:49:26.74	278.44	11.97	-39.1	-40.4	27.8	3.02e+01	53	42	0	415236096	52	6418
2026-01-20 18:49:29.76	277.97	11.75	-39.3	-40.6	27.7	3.02e+01	60	42	0	421003264	52	6550
2026-01-20 18:49:32.79	277.51	11.53	-39.4	-40.7	27.6	3.02e+01	54	42	0	426246144	52	6641
2026-01-20 18:49:35.82	277.05	11.32	-39.7	-41.0	27.3	3.02e+01	60	42	0	432013312	52	6852
2026-01-20 18:49:38.85	276.59	11.10	-39.1	-40.4	27.8	3.02e+01	57	42	0	437780480	52	6401
2026-01-20 18:49:41.88	276.15	10.89	-39.3	-40.6	27.6	3.02e+01	57	42	0	443547648	52	6556
2026-01-20 18:49:44.91	275.71	10.68	-39.6	-41.0	27.3	3.02e+01	56	42	0	449314816	52	6814
2026-01-20 18:49:47.94	275.28	10.46	-39.5	-40.8	27.4	3.02e+01	45	42	0	455081984	52	6699
2026-01-20 18:49:50.97	274.86	10.25	-39.5	-40.9	27.4	3.02e+01	58	42	0	460324864	54	6004
2026-01-20 18:49:53.99	274.44	10.04	-39.6	-40.9	27.3	3.02e+01	61	42	0	466092032	54	6039
2026-01-20 18:49:57.02	274.03	9.83	-39.5	-40.8	27.2	3.02e+01	59	42	0	471859200	54	5974
2026-01-20 18:50:00.05	273.63	9.61	-39.6	-40.9	27.1	3.02e+01	57	42	0	477626368	54	6052
2026-01-20 18:50:03.08	273.23	9.40	-39.5	-40.8	27.3	3.02e+01	59	42	0	483393536	54	5965
2026-01-20 18:50:06.11	272.84	9.19	-40.0	-41.4	26.8	3.02e+01	57	42	0	489160704	54	6359
2026-01-20 18:50:09.13	272.45	8.99	-39.6	-40.9	27.1	3.02e+01	47	42	0	494403584	54	6051
2026-01-20 18:50:12.16	272.07	8.78	-39.9	-41.3	26.7	3.02e+01	57	42	0	500170752	54	6317
2026-01-20 18:50:15.20	271.70	8.57	-40.7	-42.2	25.9	3.02e+01	58	43	0	505937920	54	6981
2026-01-20 18:50:18.23	271.33	8.36	-39.5	-40.9	27.1	3.02e+01	61	42	0	511705088	54	5999
2026-01-20 18:50:21.25	270.97	8.16	-39.6	-40.9	26.7	3.02e+01	56	42	0	517472256	54	6050
2026-01-20 18:50:24.28	270.61	7.95	-40.1	-41.5	26.4	3.02e+01	60	42	0	523239424	54	6477
2026-01-20 18:50:27.31	270.26	7.75	-39.8	-41.2	26.7	3.02e+01	57	42	0	528482304	54	6227
2026-01-20 18:50:30.34	269.92	7.55	-40.5	-41.9	26.2	3.02e+01	50	42	0	534249472	54	6776
2026-01-20 18:50:33.37	269.58	7.35	-40.7	-42.1	25.9	3.02e+01	46	42	0	540016640	54	6930
2026-01-20 18:50:36.40	269.24	7.14	-40.5	-42.0	25.8	3.02e+01	61	43	0	545783808	54	6808
2026-01-20 18:50:39.42	268.91	6.94	-40.9	-42.4	25.6	3.02e+01	59	43	0	551550976	56	6402
2026-01-20 18:50:42.45	268.59	6.75	-40.8	-42.3	25.7	3.02e+01	59	42	0	557318144	56	6314
2026-01-20 18:50:45.48	268.27	6.55	-40.9	-42.4	25.5	3.02e+01	60	42	0	562561024	56	6417
2026-01-20 18:50:48.51	267.96	6.35	-40.8	-42.3	25.6	3.02e+01	60	42	0	568328192	56	6298
2026-01-20 18:50:51.54	267.65	6.15	-40.5	-41.9	25.7	3.02e+01	46	42	0	574095360	56	6046
2026-01-20 18:50:54.57	267.34	5.96	-40.7	-42.2	25.5	3.02e+01	46	42	0	579862528	56	6236
2026-01-20 18:50:57.60	267.04	5.76	-40.5	-42.0	25.6	3.02e+01	58	43	0	585629696	54	6847
2026-01-20 18:51:00.63	266.74	5.57	-42.1	-43.8	23.8	3.02e+01	56	42	0	591396864	58	6703
2026-01-20 18:51:03.66	266.45	5.37	-41.0	-42.5	25.1	3.02e+01	57	43	0	596639744	56	6471
2026-01-20 18:51:06.69	266.16	5.18	-41.1	-42.6	24.6	3.02e+01	59	42	0	602406912	56	6567
2026-01-20 18:51:09.72	265.88	4.99	-41.3	-42.8	24.7	3.02e+01	58	43	0	608174080	56	6721
2026-01-20 18:51:12.75	265.60	4.80	-42.1	-43.8	23.6	3.02e+01	57	43	0	613941248	58	6678
2026-01-20 18:51:15.78	265.32	4.61	-42.3	-44.1	23.8	3.02e+01	50	43	0	619708416	58	6886
2026-01-20 18:51:18.81	265.05	4.42	-38.9	-40.3	26.9	3.02e+01	59	43	0	625475584	52	6293
2026-01-20 18:51:21.84	264.78	4.24	-41.9	-43.5	23.8	3.02e+01	58	42	0	630718464	56	7282
2026-01-20 18:51:24.87	264.52	4.05	-42.5	-44.4	23.0	3.02e+01	58	43	0	636485632	58	7128
2026-01-20 18:51:27.90	264.26	3.86	-41.8	-43.4	24.8	3.02e+01	62	43	0	642252800	60	5691
2026-01-20 18:51:30.93	264.00	3.68	-41.2	-42.8	24.6	3.02e+01	59	43	0	648019968	56	6666
2026-01-20 18:51:33.96	263.75	3.49	-42.2	-43.9	23.4	3.02e+01	57	43	0	653787136	56	7580
2026-01-20 18:51:36.99	263.50	3.31	-42.0	-43.7	23.8	3.02e+01	46	43	0	659554304	58	6579
2026-01-20 18:51:40.02	263.26	3.13	-42.2	-43.9	23.7	3.02e+01	50	42	0	664797184	60	6047
2026-01-20 18:51:43.05	263.01	2.95	-50.5	-68.1	3.5	3.02e+01	0	43	104	669515776	60	98217
2026-01-20 18:51:46.08	262.78	2.77	-51.5	-69.2	3.5	3.02e+01	0	43	104	669515776	60	111395
2026-01-20 18:51:49.11	262.54	2.59	-51.7	-69.6	3.5	3.02e+01	0	43	104	669515776	60	115577
2026-01-20 18:51:52.14	262.31	2.41	-51.9	-69.7	3.5	3.02e+01	0	43	104	669515776	60	117277
2026-01-20 18:51:55.17	262.08	2.23	-51.9	-69.7	3.5	3.02e+01	0	43	104	669515776	60	118088
2026-01-20 18:51:58.20	261.85	2.05	-51.7	-69.7	3.5	3.02e+01	0	43	104	669515776	60	117756
2026-01-20 18:52:01.22	261.63	1.88	-51.7	-69.7	3.5	3.02e+01	0	43	104	669515776	60	117151
2026-01-20 18:52:04.25	261.41	1.70	-51.9	-69.7	3.5	3.02e+01	0	43	104	669515776	60	117767
2026-01-20 18:52:07.28	261.19	1.53	-51.8	-69.7	3.5	3.02e+01	0	43	104	669515776	60	117285
2026-01-20 18:52:10.31	260.98	1.35	-51.9	-69.8	3.5	3.02e+01	0	43	104	669515776	60	119305
2026-01-20 18:52:13.34	260.77	1.18	-51.9	-69.8	3.5	3.02e+01	0	43	104	669515776	60	118385
2026-01-20 18:52:16.37	260.56	1.01	-51.9	-69.7	3.5	3.02e+01	0	43	104	669515776	60	117960
2026-01-20 18:52:19.40	260.35	0.84	-51.9	-69.8	3.5	3.02e+01	0	43	104	669515776	60	119373
2026-01-20 18:52:22.43	260.15	0.67	-52.0	-69.9	3.5	3.02e+01	0	43	104	669515776	60	119792
2026-01-20 18:52:25.46	259.95	0.50	-52.1	-69.9	3.5	3.02e+01	0	43	104	669515776	60	120968
2026-01-20 18:52:28.48	259.75	0.33	-52.0	-69.9	3.5	3.02e+01	0	43	104	669515776	60	120075
2026-01-20 18:52:31.51	259.56	0.16	-52.1	-70.0	3.5	3.02e+01	0	43	104	669515776	60	121190
2026-01-20 18:52:34.54	259.36	-0.01	-52.1	-69.9	3.5	3.02e+01	0	43	104	669515776	60	120183

#Closed at: 2026-01-20 18:52:37
#Recorded file [669 MB]: D:/lorett/data/35029_260121_064015.dat