passes_logs/2026/01/20/R4.6S_Anadyr/R4.6S_Anadyr__20260120_170250_AQUA_rec.log

#Pass ID: 20260120_170250_AQUA
#Satellite: AQUA
#Configuration: AQUA
#almurnet v.1.7.20251203
#Start time: 2026-01-20 17:02:51

#Version: 2.2.20231116
#Station: R4.6S_Anadyr
#Location: 177.4865 lon 64.73178 lat
#TLE: 1 27424U 02022A   26019.95447505  .00001296  00000+0  26931-3 0  9993
#TLE: 2 27424  98.4091 346.4652 0001983  72.1988 359.6274 14.61832814261618

#Time	Az	El	Level	Level2	SNR	BER	BlckErr	Temp	State	Recorded	gain1	gain2
2026-01-20 17:02:51.87	20.63	0.11	-51.5	-66.4	3.5	1.51e+00	0	39	0	0	60	75446
2026-01-20 17:02:55.91	20.56	0.36	-52.5	-70.4	3.5	3.02e+01	0	40	104	0	60	126897
2026-01-20 17:02:59.94	20.49	0.61	-52.2	-70.0	3.5	3.02e+01	0	40	104	0	60	121923
2026-01-20 17:03:03.99	20.41	0.86	-51.9	-69.8	3.5	3.02e+01	0	41	104	0	60	119191
2026-01-20 17:03:08.03	20.34	1.12	-51.6	-69.4	3.5	3.02e+01	0	41	104	0	60	114043
2026-01-20 17:03:12.06	20.26	1.37	-51.1	-69.0	3.5	3.02e+01	0	41	104	0	60	109032
2026-01-20 17:03:16.09	20.18	1.63	-50.5	-68.3	3.5	3.02e+01	0	41	104	0	60	99939
2026-01-20 17:03:20.13	20.10	1.89	-50.5	-68.1	3.5	3.02e+01	0	41	104	0	60	97575
2026-01-20 17:03:24.17	20.02	2.16	-50.4	-68.2	3.5	3.02e+01	0	41	104	0	60	99250
2026-01-20 17:03:28.21	19.93	2.43	-50.5	-68.3	3.5	3.02e+01	0	41	104	0	60	99612
2026-01-20 17:03:32.26	19.85	2.70	-50.4	-67.9	3.5	3.02e+01	0	41	104	0	60	95220
2026-01-20 17:03:36.30	19.76	2.97	-50.3	-67.5	3.5	3.02e+01	0	41	104	0	60	91767
2026-01-20 17:03:40.34	19.66	3.25	-50.3	-67.4	3.5	3.02e+01	0	41	104	0	60	89722
2026-01-20 17:03:44.38	19.57	3.52	-47.6	-60.1	3.5	3.02e+01	0	41	104	0	60	38906
2026-01-20 17:03:48.41	19.47	3.81	-47.2	-59.3	3.5	3.02e+01	0	41	104	0	60	35509
2026-01-20 17:03:52.45	19.38	4.09	-43.5	-54.2	3.5	3.02e+01	0	41	104	0	56	24961
2026-01-20 17:03:56.49	19.27	4.38	-42.6	-53.2	3.6	3.02e+01	0	41	104	0	60	17584
2026-01-20 17:04:00.53	19.17	4.67	-40.9	-51.3	3.4	3.02e+01	0	41	104	0	58	15933
2026-01-20 17:04:04.57	19.06	4.97	-48.5	-61.8	3.5	3.02e+01	0	41	104	0	60	47259
2026-01-20 17:04:08.61	18.96	5.27	-48.7	-62.1	3.5	3.02e+01	0	41	104	0	60	49083
2026-01-20 17:04:12.65	18.84	5.57	-43.3	-54.0	3.5	3.02e+01	0	41	104	0	58	21634
2026-01-20 17:04:16.69	18.73	5.88	-43.5	-54.2	3.5	3.02e+01	0	41	104	0	60	19804
2026-01-20 17:04:20.73	18.61	6.19	-46.3	-57.9	3.5	3.02e+01	0	41	104	0	60	30095
2026-01-20 17:04:24.76	18.49	6.50	-41.4	-51.9	3.5	3.02e+01	0	41	104	0	58	16902
2026-01-20 17:04:28.80	18.36	6.82	-50.7	-68.0	3.5	3.02e+01	0	42	104	0	60	97203
2026-01-20 17:04:32.84	18.24	7.14	-42.9	-53.6	3.5	3.02e+01	0	41	104	0	60	18358
2026-01-20 17:04:36.88	18.10	7.47	-39.8	-50.1	3.5	3.02e+01	0	41	104	0	56	15527
2026-01-20 17:04:40.92	17.97	7.80	-43.5	-54.1	3.5	3.02e+01	0	41	104	0	60	19498
2026-01-20 17:04:44.96	17.83	8.14	-42.1	-52.7	3.5	3.02e+01	0	41	104	0	58	18577
2026-01-20 17:04:49.00	17.69	8.48	-50.0	-64.9	3.5	3.02e+01	0	41	104	0	60	67529
2026-01-20 17:04:53.03	17.54	8.83	-41.5	-52.0	3.6	3.02e+01	0	42	104	0	58	17159
2026-01-20 17:04:57.07	17.39	9.18	-41.3	-51.7	3.5	3.02e+01	0	41	104	0	58	16702
2026-01-20 17:05:01.11	17.23	9.54	-41.4	-51.9	3.5	3.02e+01	0	42	104	0	58	17004
2026-01-20 17:05:05.15	17.07	9.90	-41.2	-51.6	3.5	3.02e+01	0	42	104	0	58	16484
2026-01-20 17:05:09.18	16.91	10.27	-41.0	-51.4	3.5	3.02e+01	0	42	104	0	56	18013
2026-01-20 17:05:13.21	16.74	10.64	-41.1	-51.5	3.5	3.02e+01	0	42	104	0	56	18184
2026-01-20 17:05:17.25	16.56	11.02	-40.9	-51.2	3.5	3.02e+01	0	42	104	0	56	17674
2026-01-20 17:05:21.29	16.38	11.41	-41.0	-51.4	3.5	3.02e+01	0	42	104	0	56	17929
2026-01-20 17:05:25.33	16.19	11.80	-40.5	-50.9	3.5	3.02e+01	0	42	104	0	56	16962
2026-01-20 17:05:29.36	16.00	12.20	-40.8	-51.2	3.6	3.02e+01	0	42	104	0	56	17559
2026-01-20 17:05:33.39	15.80	12.61	-40.5	-50.8	3.5	3.02e+01	0	42	104	0	56	16775
2026-01-20 17:05:37.43	15.59	13.03	-40.7	-51.0	3.5	3.02e+01	0	42	104	0	56	17264
2026-01-20 17:05:41.47	15.38	13.45	-40.5	-50.9	3.5	3.02e+01	0	42	104	0	56	16906
2026-01-20 17:05:45.50	15.16	13.88	-40.6	-50.9	3.5	3.02e+01	0	42	104	0	56	17082
2026-01-20 17:05:49.53	14.93	14.32	-40.8	-51.1	3.5	3.02e+01	0	42	104	0	56	17406
2026-01-20 17:05:53.57	14.70	14.76	-40.5	-50.8	3.5	3.02e+01	0	42	104	0	56	16875
2026-01-20 17:05:57.60	14.46	15.22	-40.1	-50.4	3.5	3.02e+01	0	42	104	0	56	16067
2026-01-20 17:06:01.64	14.20	15.68	-40.3	-50.5	3.6	3.02e+01	0	42	104	0	56	16315
2026-01-20 17:06:05.68	13.94	16.16	-39.8	-50.0	3.5	3.02e+01	0	42	104	0	54	17215
2026-01-20 17:06:09.72	13.67	16.64	-39.9	-50.1	3.5	3.02e+01	0	42	104	0	54	17351
2026-01-20 17:06:13.76	13.39	17.14	-39.6	-49.9	3.5	3.02e+01	0	42	104	0	54	17019
2026-01-20 17:06:17.79	13.10	17.64	-40.0	-50.3	3.5	3.02e+01	0	42	104	0	54	17873
2026-01-20 17:06:21.83	12.80	18.16	-40.0	-50.3	3.5	3.02e+01	0	42	104	0	54	17728
2026-01-20 17:06:25.86	12.48	18.68	-49.8	-63.1	3.4	3.02e+01	0	42	104	0	60	55089
2026-01-20 17:06:29.89	12.16	19.22	-39.1	-49.3	3.5	3.02e+01	0	42	104	0	54	15838
2026-01-20 17:06:33.93	11.82	19.77	-38.1	-48.3	3.5	3.02e+01	0	42	104	0	50	17785
2026-01-20 17:06:37.96	11.46	20.34	-39.6	-49.9	3.5	3.02e+01	0	42	104	0	56	15080
2026-01-20 17:06:42.00	11.09	20.91	-44.4	-55.2	3.5	3.02e+01	0	42	104	0	60	22052
2026-01-20 17:06:46.04	10.71	21.50	-49.2	-62.0	3.5	3.02e+01	0	42	104	0	60	48704
2026-01-20 17:06:50.08	10.31	22.11	-43.6	-54.2	3.5	3.02e+01	0	42	104	0	60	19705
2026-01-20 17:06:54.12	9.89	22.72	-42.8	-53.2	3.5	3.02e+01	0	42	104	0	60	17666
2026-01-20 17:06:58.15	9.45	23.36	-42.4	-52.8	3.5	3.02e+01	0	42	104	0	60	16771
2026-01-20 17:07:02.18	9.00	24.00	-51.8	-69.3	3.5	3.02e+01	0	42	104	0	60	112551
2026-01-20 17:07:06.22	8.52	24.67	-39.0	-49.2	3.6	3.02e+01	0	42	104	0	54	15674
2026-01-20 17:07:10.26	8.02	25.35	-38.9	-49.2	3.4	3.02e+01	0	42	104	0	54	15602
2026-01-20 17:07:14.30	7.50	26.05	-41.6	-51.9	3.5	3.02e+01	0	42	104	0	58	17005
2026-01-20 17:07:18.34	6.95	26.76	-39.0	-49.2	3.5	3.02e+01	0	42	104	0	52	17583
2026-01-20 17:07:22.38	6.37	27.50	-51.1	-66.3	3.5	3.02e+01	0	42	104	0	60	79633
2026-01-20 17:07:26.42	5.76	28.25	-39.8	-50.0	3.5	3.02e+01	0	42	104	0	56	15393
2026-01-20 17:07:30.46	5.12	29.02	-39.1	-49.2	3.5	3.02e+01	0	42	104	0	56	13975
2026-01-20 17:07:34.49	4.45	29.81	-38.9	-49.1	3.5	3.02e+01	0	42	104	0	52	17352
2026-01-20 17:07:38.54	3.75	30.62	-45.6	-56.5	3.5	3.02e+01	0	42	104	0	60	25652
2026-01-20 17:07:42.58	3.00	31.45	-41.6	-52.0	3.6	3.02e+01	0	42	104	0	58	17187
2026-01-20 17:07:46.61	2.21	32.29	-44.5	-55.3	3.5	3.02e+01	0	42	104	0	54	31480
2026-01-20 17:07:50.65	1.38	33.16	-41.7	-52.1	3.5	3.02e+01	0	42	104	0	58	17399
2026-01-20 17:07:54.69	0.50	34.05	-39.3	-49.6	3.5	3.02e+01	0	42	104	0	54	16406
2026-01-20 17:07:58.73	359.57	34.96	-44.6	-55.4	3.5	3.02e+01	0	42	104	0	60	22649
2026-01-20 17:08:02.77	358.58	35.89	-42.8	-53.2	3.6	3.02e+01	0	42	104	0	56	22124
2026-01-20 17:08:06.80	357.53	36.83	-46.7	-58.0	3.5	3.02e+01	0	42	104	0	60	30468
2026-01-20 17:08:10.84	356.42	37.80	-42.0	-52.3	3.5	3.02e+01	0	42	104	0	60	15823
2026-01-20 17:08:14.88	355.23	38.78	-48.0	-60.0	3.5	3.02e+01	0	42	104	0	60	38588
2026-01-20 17:08:18.92	353.97	39.77	-45.2	-56.0	3.5	3.02e+01	0	42	104	0	60	24386
2026-01-20 17:08:22.96	352.62	40.78	-47.6	-59.4	3.5	3.02e+01	0	42	104	0	60	35836
2026-01-20 17:08:27.00	351.18	41.81	-42.3	-52.9	3.5	3.02e+01	0	42	104	0	60	16932
2026-01-20 17:08:31.04	349.65	42.84	-47.8	-59.7	3.5	3.02e+01	0	42	104	0	60	37221
2026-01-20 17:08:35.08	348.01	43.87	-41.7	-52.1	3.5	3.02e+01	0	42	104	0	60	15490
2026-01-20 17:08:39.12	346.26	44.91	-46.6	-57.8	3.5	3.02e+01	0	42	104	0	60	29803
2026-01-20 17:08:43.16	344.39	45.95	-51.6	-67.9	3.5	3.02e+01	0	42	104	0	60	95699
2026-01-20 17:08:47.21	342.38	46.98	-47.8	-59.4	3.5	3.02e+01	0	42	104	0	60	36109
2026-01-20 17:08:51.24	340.25	47.99	-44.2	-55.0	3.5	3.02e+01	0	42	104	0	60	21717
2026-01-20 17:08:55.28	337.96	48.98	-43.5	-54.2	3.5	3.02e+01	0	42	104	0	60	19766
2026-01-20 17:08:59.32	335.53	49.94	-52.0	-69.9	3.5	3.02e+01	0	42	104	0	60	120143
2026-01-20 17:09:03.36	332.93	50.86	-39.7	-49.9	3.5	3.02e+01	0	42	104	0	54	17015
2026-01-20 17:09:07.40	330.17	51.73	-40.6	-51.0	3.5	3.02e+01	0	42	104	0	58	15243
2026-01-20 17:09:11.44	327.25	52.55	-44.0	-45.7	23.5	3.02e+01	60	42	0	0	60	7449
2026-01-20 17:09:15.48	324.17	53.30	-43.6	-45.2	23.9	3.02e+01	57	42	0	7340032	60	7029
2026-01-20 17:09:19.52	320.93	53.98	-40.0	-41.3	27.6	3.02e+01	53	42	0	15204352	56	5608
2026-01-20 17:09:23.56	317.54	54.56	-38.4	-39.6	29.3	3.02e+01	48	42	0	22544384	52	5842
2026-01-20 17:09:27.60	314.02	55.05	-38.8	-40.0	29.0	3.02e+01	58	42	0	30408704	52	6088
2026-01-20 17:09:31.64	310.39	55.43	-39.3	-40.6	28.4	3.02e+01	56	42	0	37748736	52	6504
2026-01-20 17:09:35.68	306.67	55.69	-39.0	-40.2	28.8	3.02e+01	58	42	0	45613056	52	6230
2026-01-20 17:09:39.72	302.90	55.84	-39.5	-40.8	28.1	3.02e+01	59	42	0	52953088	52	6721
2026-01-20 17:09:43.77	299.09	55.87	-39.6	-40.9	28.0	3.02e+01	58	42	0	60817408	52	6747
2026-01-20 17:09:47.80	295.31	55.77	-39.3	-40.6	28.5	3.02e+01	54	42	0	68157440	52	6524
2026-01-20 17:09:51.84	291.57	55.56	-39.1	-40.4	28.4	3.02e+01	58	42	0	76021760	52	6363
2026-01-20 17:09:55.88	287.90	55.22	-38.9	-40.1	28.8	3.02e+01	53	42	0	83361792	52	6172
2026-01-20 17:09:59.92	284.33	54.78	-39.2	-40.5	27.8	3.02e+01	58	42	0	90701824	52	6463
2026-01-20 17:10:03.96	280.88	54.23	-39.2	-40.5	28.3	3.02e+01	46	42	0	98566144	50	7284
2026-01-20 17:10:08.00	277.57	53.60	-38.1	-39.3	29.4	3.02e+01	59	42	0	105906176	50	6293
2026-01-20 17:10:12.04	274.41	52.88	-38.1	-39.3	29.5	3.02e+01	49	42	0	113770496	50	6297
2026-01-20 17:10:16.08	271.42	52.08	-38.2	-39.4	29.4	3.02e+01	63	42	0	121110528	50	6362
2026-01-20 17:10:20.12	268.58	51.23	-38.3	-39.5	29.4	3.02e+01	39	42	0	128974848	52	5783
2026-01-20 17:10:24.15	265.92	50.33	-38.0	-39.2	29.4	3.02e+01	58	42	0	136314880	50	6258
2026-01-20 17:10:28.19	263.41	49.38	-37.8	-39.0	29.6	3.02e+01	55	43	0	144179200	50	6116
2026-01-20 17:10:32.23	261.06	48.40	-37.7	-38.9	29.7	3.02e+01	59	43	0	151519232	50	6031
2026-01-20 17:10:36.27	258.86	47.39	-38.1	-39.3	29.4	3.02e+01	56	43	0	158859264	50	6287
2026-01-20 17:10:40.30	256.80	46.37	-37.9	-39.1	29.6	3.02e+01	58	42	0	166723584	50	6162
2026-01-20 17:10:44.35	254.87	45.33	-38.3	-39.5	29.0	3.02e+01	58	42	0	174063616	50	6498
2026-01-20 17:10:48.38	253.07	44.29	-38.4	-39.7	29.1	3.02e+01	61	42	0	181927936	50	6589
2026-01-20 17:10:52.42	251.38	43.25	-38.5	-39.7	29.0	3.02e+01	61	42	0	189267968	50	6632
2026-01-20 17:10:56.46	249.80	42.21	-39.4	-40.7	28.0	3.02e+01	58	42	0	197132288	52	6615
2026-01-20 17:11:00.50	248.32	41.19	-39.3	-40.6	28.3	3.02e+01	59	42	0	204472320	52	6556
2026-01-20 17:11:04.53	246.93	40.17	-39.2	-40.4	28.4	3.02e+01	58	43	0	212336640	52	6406
2026-01-20 17:11:08.57	245.63	39.16	-39.6	-40.8	28.0	3.02e+01	60	42	0	219676672	54	5960
2026-01-20 17:11:12.61	244.41	38.17	-39.6	-40.9	28.1	3.02e+01	59	42	0	227016704	54	6019
2026-01-20 17:11:16.65	243.26	37.19	-39.8	-41.1	27.7	3.02e+01	59	42	0	234881024	54	6187
2026-01-20 17:11:20.68	242.19	36.24	-39.6	-40.9	28.2	3.02e+01	59	42	0	242221056	54	6010
2026-01-20 17:11:24.73	241.17	35.30	-38.9	-40.1	28.6	3.02e+01	59	42	0	250085376	52	6174
2026-01-20 17:11:28.76	240.21	34.38	-39.1	-40.3	28.4	3.02e+01	59	42	0	257425408	52	6327
2026-01-20 17:11:32.80	239.31	33.48	-38.9	-40.2	28.5	3.02e+01	60	42	0	265289728	52	6219
2026-01-20 17:11:36.84	238.45	32.60	-38.6	-39.8	28.9	3.02e+01	60	42	0	272629760	52	5994
2026-01-20 17:11:40.88	237.64	31.74	-37.8	-39.0	29.6	3.02e+01	62	42	0	279969792	50	6085
2026-01-20 17:11:44.92	236.88	30.90	-38.0	-39.2	29.2	3.02e+01	46	42	0	287834112	50	6269
2026-01-20 17:11:48.96	236.15	30.08	-38.0	-39.2	29.4	3.02e+01	61	42	0	295174144	50	6256
2026-01-20 17:11:52.99	235.46	29.28	-38.1	-39.3	29.3	3.02e+01	58	42	0	303038464	50	6313
2026-01-20 17:11:57.03	234.81	28.50	-38.1	-39.3	29.2	3.02e+01	62	42	0	310378496	50	6338
2026-01-20 17:12:01.06	234.19	27.74	-38.2	-39.4	29.1	3.02e+01	58	42	0	318242816	50	6408
2026-01-20 17:12:05.10	233.60	27.00	-38.2	-39.4	29.1	3.02e+01	60	42	0	325582848	50	6387
2026-01-20 17:12:09.14	233.04	26.27	-38.1	-39.3	29.2	3.02e+01	53	42	0	333447168	50	6329
2026-01-20 17:12:13.18	232.50	25.56	-38.3	-39.5	29.0	3.02e+01	55	42	0	340787200	50	6490
2026-01-20 17:12:17.22	231.99	24.87	-38.8	-40.1	28.4	3.02e+01	52	42	0	348127232	52	6167
2026-01-20 17:12:21.26	231.50	24.20	-38.1	-39.3	29.2	3.02e+01	62	42	0	355991552	52	5643
2026-01-20 17:12:25.30	231.03	23.54	-38.5	-39.7	28.8	3.02e+01	48	42	0	363331584	52	5918
2026-01-20 17:12:29.33	230.58	22.90	-38.5	-39.7	28.8	3.02e+01	58	42	0	371195904	52	5915
2026-01-20 17:12:33.37	230.15	22.28	-38.5	-39.7	28.7	3.02e+01	45	42	0	378535936	52	5923
2026-01-20 17:12:37.41	229.74	21.66	-38.6	-39.8	28.7	3.02e+01	60	42	0	386400256	52	5979
2026-01-20 17:12:41.45	229.35	21.07	-38.6	-39.8	28.7	3.02e+01	46	42	0	393740288	52	5979
2026-01-20 17:12:45.49	228.97	20.48	-38.4	-39.7	28.7	3.02e+01	60	42	0	401604608	52	5873
2026-01-20 17:12:49.53	228.61	19.91	-38.2	-39.4	29.0	3.02e+01	46	42	0	408944640	52	5703
2026-01-20 17:12:53.57	228.26	19.35	-38.2	-39.5	29.0	3.02e+01	59	42	0	416284672	52	5726
2026-01-20 17:12:57.61	227.93	18.81	-38.4	-39.6	28.9	3.02e+01	59	42	0	424148992	52	5815
2026-01-20 17:13:01.65	227.61	18.27	-38.4	-39.6	28.7	3.02e+01	58	42	0	431489024	52	5858
2026-01-20 17:13:05.68	227.30	17.75	-38.5	-39.8	28.7	3.02e+01	57	42	0	439353344	52	5942
2026-01-20 17:13:09.72	227.00	17.24	-38.4	-39.7	28.7	3.02e+01	57	42	0	446693376	52	5876
2026-01-20 17:13:13.77	226.71	16.74	-38.3	-39.5	28.8	3.02e+01	59	42	0	454557696	52	5749
2026-01-20 17:13:17.81	226.43	16.25	-38.5	-39.7	28.6	3.02e+01	57	42	0	461897728	52	5924
2026-01-20 17:13:21.85	226.17	15.77	-38.2	-39.4	28.8	3.02e+01	60	42	0	469762048	52	5699
2026-01-20 17:13:25.89	225.91	15.30	-38.3	-39.5	28.7	3.02e+01	57	42	0	477102080	52	5750
2026-01-20 17:13:29.93	225.66	14.84	-38.3	-39.6	28.6	3.02e+01	59	42	0	484442112	52	5804
2026-01-20 17:13:33.96	225.42	14.39	-38.5	-39.8	28.5	3.02e+01	59	42	0	492306432	52	5955
2026-01-20 17:13:38.01	225.18	13.94	-38.4	-39.6	28.6	3.02e+01	50	42	0	499646464	52	5853
2026-01-20 17:13:42.05	224.96	13.51	-38.4	-39.6	28.6	3.02e+01	57	42	0	507510784	52	5836
2026-01-20 17:13:46.09	224.74	13.08	-38.5	-39.7	28.4	3.02e+01	60	42	0	514850816	52	5926
2026-01-20 17:13:50.13	224.53	12.66	-38.7	-39.9	28.4	3.02e+01	57	42	0	522715136	52	6044
2026-01-20 17:13:54.17	224.32	12.25	-38.9	-40.1	28.1	3.02e+01	56	42	0	530055168	52	6196
2026-01-20 17:13:58.21	224.13	11.85	-38.6	-39.9	28.2	3.02e+01	45	42	0	537919488	52	6021
2026-01-20 17:14:02.25	223.93	11.45	-38.6	-39.9	28.3	3.02e+01	59	42	0	545259520	52	6041
2026-01-20 17:14:06.28	223.75	11.06	-38.9	-40.1	28.0	3.02e+01	46	42	0	552599552	52	6201
2026-01-20 17:14:10.32	223.57	10.67	-39.2	-40.5	27.7	3.02e+01	59	42	0	560463872	52	6485
2026-01-20 17:14:14.36	223.39	10.30	-39.1	-40.4	27.7	3.02e+01	62	42	0	567803904	52	6401
2026-01-20 17:14:18.40	223.22	9.92	-39.2	-40.5	27.5	3.02e+01	58	42	0	575668224	52	6486
2026-01-20 17:14:22.44	223.06	9.56	-39.5	-40.8	27.4	3.02e+01	48	42	0	583008256	52	6702
2026-01-20 17:14:26.47	222.90	9.20	-39.7	-41.0	27.1	3.02e+01	59	42	0	590872576	52	6865
2026-01-20 17:14:30.51	222.74	8.84	-39.7	-41.1	27.0	3.02e+01	50	42	0	598212608	52	6890
2026-01-20 17:14:34.55	222.59	8.49	-39.7	-41.0	27.1	3.02e+01	60	42	0	606076928	52	6861
2026-01-20 17:14:38.59	222.44	8.15	-39.8	-41.1	27.0	3.02e+01	46	42	0	613416960	54	6205
2026-01-20 17:14:42.63	222.30	7.81	-40.1	-41.5	26.6	3.02e+01	61	42	0	620756992	54	6498
2026-01-20 17:14:46.66	222.16	7.48	-39.9	-41.3	26.7	3.02e+01	50	42	0	628621312	54	6338
2026-01-20 17:14:50.70	222.02	7.15	-40.6	-42.2	26.0	3.02e+01	61	42	0	635961344	54	6983
2026-01-20 17:14:54.74	221.89	6.82	-40.3	-41.8	26.2	3.02e+01	47	42	0	643825664	54	6683
2026-01-20 17:14:58.78	221.76	6.50	-40.5	-42.0	26.1	3.02e+01	57	42	0	651165696	54	6883
2026-01-20 17:15:02.82	221.64	6.18	-40.9	-42.5	25.4	3.02e+01	50	42	0	659030016	56	6462
2026-01-20 17:15:06.85	221.51	5.87	-41.3	-43.0	24.9	3.02e+01	61	42	0	666370048	56	6810
2026-01-20 17:15:10.89	221.39	5.56	-41.5	-43.3	24.7	3.02e+01	60	42	0	674234368	58	6289
2026-01-20 17:15:14.93	221.28	5.26	-42.0	-43.9	24.2	3.02e+01	59	42	0	681574400	58	6766
2026-01-20 17:15:18.97	221.16	4.96	-40.3	-41.8	25.8	3.02e+01	57	42	0	688914432	56	5964
2026-01-20 17:15:23.01	221.05	4.66	-40.6	-42.2	25.4	3.02e+01	59	42	0	696778752	56	6229
2026-01-20 17:15:27.05	220.95	4.37	-40.7	-42.3	25.3	3.02e+01	60	42	0	704118784	56	6330
2026-01-20 17:15:31.09	220.84	4.08	-40.6	-42.2	25.2	3.02e+01	59	42	0	711983104	56	6240
2026-01-20 17:15:35.12	220.74	3.79	-41.0	-42.6	24.9	3.02e+01	59	42	0	719323136	56	6525
2026-01-20 17:15:39.16	220.64	3.51	-42.5	-44.4	23.3	3.02e+01	53	42	0	727187456	60	6358
2026-01-20 17:15:43.20	220.54	3.22	-42.0	-43.8	23.4	3.02e+01	56	42	0	734527488	58	6651
2026-01-20 17:15:47.24	220.44	2.95	-46.3	-68.0	3.5	3.02e+01	0	42	104	740818944	60	96917
2026-01-20 17:15:51.28	220.35	2.67	-51.6	-69.4	3.5	3.02e+01	0	42	104	740818944	60	114158
2026-01-20 17:15:55.31	220.26	2.40	-51.9	-69.7	3.5	3.02e+01	0	42	104	740818944	60	117341
2026-01-20 17:15:59.36	220.17	2.13	-52.0	-69.9	3.5	3.02e+01	0	42	104	740818944	60	119645
2026-01-20 17:16:03.40	220.08	1.87	-51.8	-69.8	3.5	3.02e+01	0	42	104	740818944	60	118287
2026-01-20 17:16:07.44	220.00	1.60	-51.9	-69.8	3.5	3.02e+01	0	42	104	740818944	60	119394
2026-01-20 17:16:11.48	219.91	1.34	-51.9	-69.7	3.5	3.02e+01	0	42	104	740818944	60	117857
2026-01-20 17:16:15.52	219.83	1.08	-52.0	-69.8	3.5	3.02e+01	0	42	104	740818944	60	119182
2026-01-20 17:16:19.56	219.75	0.83	-52.0	-69.8	3.5	3.02e+01	0	42	104	740818944	60	118309
2026-01-20 17:16:23.59	219.67	0.57	-52.1	-69.9	3.5	3.02e+01	0	42	104	740818944	60	120378
2026-01-20 17:16:27.63	219.59	0.32	-52.1	-70.0	3.5	3.02e+01	0	42	104	740818944	60	121141
2026-01-20 17:16:31.67	219.52	0.07	-52.0	-69.9	3.5	3.02e+01	0	42	104	740818944	60	120108

#Closed at: 2026-01-20 17:16:35
#Recorded file [740 MB]: D:/lorett/data/35029_260121_050251.dat