passes_logs/2026/01/20/R4.6S_Anadyr/R4.6S_Anadyr__20260120_131029_SUOMI_NPP_rec.log

#Pass ID: 20260120_131029_SUOMI NPP
#Satellite: SUOMI NPP
#Configuration: NPP
#almurnet v.1.7.20251203
#Start time: 2026-01-20 13:10:32

#Version: 2.2.20231116
#Station: R4.6S_Anadyr
#Location: 177.4865 lon 64.73178 lat
#TLE: 1 37849U 11061A   26019.89702167  .00000121  00000+0  78274-4 0  9993
#TLE: 2 37849  98.7817 321.9035 0002338  55.0397 305.0998 14.19526700737401

#Time	Az	El	Level	Level2	SNR	BER	BlckErr	Temp	State	Recorded	gain1	gain2
2026-01-20 13:10:32.11	18.91	0.16	-52.6	-66.3	3.3	1.54e+00	0	40	0	0	60	75058
2026-01-20 13:10:36.14	19.12	0.38	-51.6	-66.9	3.6	1.51e+00	0	41	104	0	60	79588
2026-01-20 13:10:40.18	19.34	0.60	-51.6	-66.7	3.6	1.51e+00	0	41	104	0	60	78597
2026-01-20 13:10:44.23	19.56	0.83	-51.2	-66.5	3.6	1.51e+00	0	41	104	0	60	75961
2026-01-20 13:10:48.27	19.79	1.05	-50.6	-65.9	3.6	1.51e+00	0	41	104	0	60	71076
2026-01-20 13:10:52.31	20.01	1.28	-50.2	-65.4	3.6	1.51e+00	0	41	104	0	60	67223
2026-01-20 13:10:56.35	20.24	1.50	-49.6	-64.8	3.6	1.51e+00	0	41	104	0	60	62709
2026-01-20 13:11:00.39	20.48	1.73	-49.5	-64.7	3.6	1.51e+00	0	41	104	0	60	62122
2026-01-20 13:11:04.43	20.72	1.97	-49.6	-64.7	3.6	1.51e+00	0	41	104	0	60	61913
2026-01-20 13:11:08.47	20.96	2.20	-49.6	-64.4	3.6	1.51e+00	0	41	104	0	60	59930
2026-01-20 13:11:12.50	21.20	2.43	-49.5	-64.5	3.6	1.51e+00	0	41	104	0	60	60781
2026-01-20 13:11:16.54	21.45	2.67	-47.4	-51.6	11.9	1.18e-02	0	41	0	2097152	60	13701
2026-01-20 13:11:20.58	21.70	2.90	-43.5	-45.3	18.3	0.00e+00	0	41	0	10485760	60	6632
2026-01-20 13:11:24.62	21.96	3.14	-46.3	-49.4	13.9	0.00e+00	30	41	0	17825792	60	10658
2026-01-20 13:11:28.66	22.22	3.38	-44.2	-46.1	18.2	0.00e+00	0	41	0	25165824	60	7289
2026-01-20 13:11:32.69	22.48	3.62	-45.3	-47.5	16.5	1.92e-03	0	41	0	29360128	60	8611
2026-01-20 13:11:36.73	22.75	3.87	-43.6	-45.3	18.7	0.00e+00	0	41	0	36700160	58	7461
2026-01-20 13:11:40.77	23.02	4.11	-43.7	-45.4	18.2	0.00e+00	89	41	0	44040192	60	6746
2026-01-20 13:11:44.80	23.29	4.36	-43.2	-44.8	19.2	0.00e+00	0	42	0	51380224	60	6262
2026-01-20 13:11:48.84	23.57	4.61	-43.2	-44.7	19.1	0.00e+00	0	42	0	58720256	58	6978
2026-01-20 13:11:52.88	23.86	4.86	-42.9	-44.4	19.3	0.00e+00	15	42	0	67108864	58	6759
2026-01-20 13:11:56.91	24.15	5.11	-42.5	-43.8	19.5	0.00e+00	55	42	0	74448896	54	7934
2026-01-20 13:12:00.95	24.44	5.37	-43.8	-45.5	18.8	0.00e+00	0	42	0	81788928	60	6791
2026-01-20 13:12:04.99	24.74	5.62	-42.8	-44.2	19.9	0.00e+00	0	42	0	89128960	60	5864
2026-01-20 13:12:09.03	25.04	5.88	-42.2	-43.5	20.6	0.00e+00	69	42	0	97517568	56	6786
2026-01-20 13:12:13.06	25.35	6.14	-41.9	-43.1	20.9	0.00e+00	0	42	0	104857600	58	5792
2026-01-20 13:12:17.10	25.67	6.40	-42.7	-44.0	20.4	0.00e+00	0	42	0	112197632	58	6429
2026-01-20 13:12:21.13	25.98	6.67	-42.4	-43.7	20.1	0.00e+00	0	42	0	119537664	58	6189
2026-01-20 13:12:25.17	26.31	6.93	-42.4	-43.8	20.2	0.00e+00	92	42	0	126877696	58	6251
2026-01-20 13:12:29.20	26.64	7.20	-42.3	-43.6	20.5	0.00e+00	0	42	0	135266304	58	6131
2026-01-20 13:12:33.23	26.98	7.47	-42.7	-44.0	20.1	0.00e+00	0	42	0	142606336	58	6454
2026-01-20 13:12:37.26	27.32	7.74	-42.2	-43.4	20.7	0.00e+00	0	42	0	149946368	58	6006
2026-01-20 13:12:41.29	27.66	8.02	-42.1	-43.3	20.9	0.00e+00	92	42	0	157286400	56	6663
2026-01-20 13:12:45.33	28.02	8.29	-41.4	-42.6	21.5	0.00e+00	0	42	0	164626432	56	6124
2026-01-20 13:12:49.37	28.38	8.57	-42.0	-43.2	20.7	0.00e+00	0	42	0	173015040	56	6572
2026-01-20 13:12:53.41	28.75	8.85	-41.8	-43.0	21.1	0.00e+00	10	42	0	180355072	56	6402
2026-01-20 13:12:57.45	29.12	9.14	-41.9	-43.1	21.1	0.00e+00	0	42	0	187695104	56	6515
2026-01-20 13:13:01.48	29.50	9.42	-41.5	-42.6	21.8	0.00e+00	0	42	0	195035136	56	6132
2026-01-20 13:13:05.52	29.89	9.71	-41.2	-42.3	21.8	0.00e+00	0	42	0	202375168	56	5913
2026-01-20 13:13:09.55	30.29	10.00	-40.7	-41.8	22.2	0.00e+00	12	42	0	210763776	56	5584
2026-01-20 13:13:13.59	30.69	10.29	-41.4	-42.5	21.6	0.00e+00	0	42	0	218103808	54	6843
2026-01-20 13:13:17.63	31.10	10.58	-41.9	-43.1	21.1	0.00e+00	0	42	0	225443840	56	6516
2026-01-20 13:13:21.67	31.52	10.88	-42.3	-43.5	20.7	0.00e+00	0	42	0	232783872	56	6836
2026-01-20 13:13:25.71	31.95	11.18	-42.1	-43.3	21.0	0.00e+00	58	42	0	241172480	58	5935
2026-01-20 13:13:29.74	32.38	11.48	-42.0	-43.2	21.1	0.00e+00	0	42	0	248512512	58	5888
2026-01-20 13:13:33.78	32.83	11.78	-42.6	-43.8	20.9	0.00e+00	0	42	0	255852544	56	7057
2026-01-20 13:13:37.82	33.28	12.09	-41.3	-42.4	21.9	0.00e+00	18	42	0	263192576	56	5991
2026-01-20 13:13:41.85	33.74	12.40	-41.4	-42.5	21.9	0.00e+00	88	42	0	270532608	56	6077
2026-01-20 13:13:45.89	34.22	12.71	-41.3	-42.3	21.8	0.00e+00	0	42	0	278921216	56	5950
2026-01-20 13:13:49.92	34.70	13.02	-42.0	-43.2	21.5	0.00e+00	0	42	0	286261248	56	6542
2026-01-20 13:13:53.96	35.19	13.33	-41.3	-42.4	22.0	0.00e+00	55	42	0	293601280	56	5986
2026-01-20 13:13:58.00	35.69	13.65	-40.9	-41.9	22.3	0.00e+00	0	42	0	300941312	54	6388
2026-01-20 13:14:02.03	36.20	13.97	-41.1	-42.2	22.0	0.00e+00	0	42	0	309329920	54	6544
2026-01-20 13:14:06.07	36.72	14.29	-42.2	-43.4	21.0	0.00e+00	0	42	0	316669952	56	6745
2026-01-20 13:14:10.11	37.26	14.61	-41.9	-43.1	21.4	0.00e+00	80	42	0	324009984	56	6468
2026-01-20 13:14:14.15	37.80	14.94	-41.5	-42.6	21.9	0.00e+00	0	42	0	331350016	56	6160
2026-01-20 13:14:18.18	38.36	15.27	-41.4	-42.5	22.1	0.00e+00	0	42	0	338690048	56	6043
2026-01-20 13:14:22.22	38.93	15.60	-41.1	-42.2	22.4	0.00e+00	0	42	0	347078656	56	5843
2026-01-20 13:14:26.26	39.51	15.93	-41.2	-42.3	21.9	0.00e+00	64	42	0	354418688	54	6666
2026-01-20 13:14:30.30	40.10	16.26	-40.6	-41.6	22.7	0.00e+00	0	42	0	361758720	54	6157
2026-01-20 13:14:34.33	40.71	16.59	-40.2	-41.2	23.1	0.00e+00	0	42	0	369098752	54	5844
2026-01-20 13:14:38.37	41.33	16.93	-39.8	-40.8	23.4	0.00e+00	13	42	0	377487360	52	6252
2026-01-20 13:14:42.41	41.96	17.27	-40.3	-41.3	23.0	0.00e+00	92	42	0	384827392	52	6626
2026-01-20 13:14:46.45	42.61	17.61	-40.3	-41.3	22.9	0.00e+00	0	42	0	392167424	52	6649
2026-01-20 13:14:50.49	43.27	17.95	-39.9	-40.8	22.9	0.00e+00	0	42	0	399507456	52	6250
2026-01-20 13:14:54.52	43.95	18.29	-40.0	-40.9	23.3	0.00e+00	90	42	0	406847488	52	6364
2026-01-20 13:14:58.56	44.64	18.63	-40.3	-41.3	23.1	0.00e+00	0	42	0	415236096	52	6626
2026-01-20 13:15:02.59	45.34	18.97	-39.7	-40.6	23.6	0.00e+00	0	42	0	422576128	52	6120
2026-01-20 13:15:06.62	46.06	19.32	-39.7	-40.6	23.6	0.00e+00	0	42	0	429916160	52	6132
2026-01-20 13:15:10.66	46.80	19.66	-39.8	-40.7	23.4	0.00e+00	92	42	0	437256192	52	6239
2026-01-20 13:15:14.69	47.56	20.00	-40.2	-41.1	23.2	0.00e+00	0	42	0	444596224	52	6531
2026-01-20 13:15:18.73	48.33	20.35	-40.0	-40.9	23.4	0.00e+00	0	42	0	452984832	52	6390
2026-01-20 13:15:22.77	49.12	20.69	-40.2	-41.1	23.1	0.00e+00	0	42	0	460324864	54	5803
2026-01-20 13:15:26.80	49.92	21.03	-41.8	-42.8	22.0	0.00e+00	92	42	0	467664896	56	6317
2026-01-20 13:15:30.84	50.74	21.37	-40.1	-41.0	23.5	0.00e+00	0	42	0	475004928	52	6409
2026-01-20 13:15:34.88	51.58	21.71	-40.3	-41.2	23.3	0.00e+00	0	42	0	483393536	52	6586
2026-01-20 13:15:38.91	52.44	22.05	-39.8	-40.7	23.5	0.00e+00	35	42	0	490733568	52	6190
2026-01-20 13:15:42.95	53.32	22.39	-39.5	-40.4	23.6	0.00e+00	0	42	0	498073600	52	6027
2026-01-20 13:15:46.99	54.21	22.72	-39.7	-40.6	23.6	0.00e+00	1	42	0	505413632	52	6116
2026-01-20 13:15:51.03	55.13	23.05	-39.7	-40.6	23.7	0.00e+00	0	42	0	512753664	52	6121
2026-01-20 13:15:55.07	56.07	23.38	-39.3	-40.1	23.9	0.00e+00	0	42	0	521142272	52	5815
2026-01-20 13:15:59.10	57.02	23.70	-40.1	-41.0	23.4	0.00e+00	0	42	0	528482304	52	6436
2026-01-20 13:16:03.14	57.99	24.02	-40.4	-41.4	23.1	0.00e+00	0	42	0	535822336	52	6716
2026-01-20 13:16:07.18	58.98	24.34	-39.6	-40.5	23.4	0.00e+00	0	42	0	543162368	52	6059
2026-01-20 13:16:11.21	59.99	24.65	-39.5	-40.4	23.6	0.00e+00	62	42	0	551550976	52	6002
2026-01-20 13:16:15.25	61.02	24.95	-40.5	-41.5	23.0	0.00e+00	0	42	0	558891008	52	6821
2026-01-20 13:16:19.29	62.08	25.25	-39.4	-40.2	23.6	0.00e+00	0	42	0	566231040	52	5879
2026-01-20 13:16:23.33	63.15	25.54	-40.9	-41.9	22.6	0.00e+00	22	42	0	573571072	54	6373
2026-01-20 13:16:27.36	64.23	25.82	-40.6	-41.6	22.8	0.00e+00	92	42	0	580911104	54	6125
2026-01-20 13:16:31.39	65.34	26.10	-40.7	-41.7	22.7	0.00e+00	0	42	0	589299712	54	6228
2026-01-20 13:16:35.43	66.47	26.37	-41.4	-42.5	22.1	0.00e+00	0	42	0	596639744	54	6796
2026-01-20 13:16:39.47	67.61	26.62	-41.3	-42.3	22.1	0.00e+00	16	42	0	603979776	54	6691
2026-01-20 13:16:43.51	68.78	26.87	-41.0	-42.0	22.5	0.00e+00	0	42	0	611319808	54	6443
2026-01-20 13:16:47.54	69.96	27.11	-41.7	-42.8	21.9	0.00e+00	0	42	0	619708416	56	6274
2026-01-20 13:16:51.58	71.16	27.34	-40.6	-41.6	22.9	0.00e+00	0	42	0	627048448	54	6110
2026-01-20 13:16:55.61	72.37	27.55	-42.7	-44.0	20.9	0.00e+00	91	42	0	634388480	56	7178
2026-01-20 13:16:59.65	73.60	27.75	-43.0	-44.3	20.4	0.00e+00	0	42	0	641728512	58	6645
2026-01-20 13:17:03.68	74.85	27.94	-44.2	-45.8	19.4	0.00e+00	0	42	0	649068544	60	7022
2026-01-20 13:17:07.72	76.11	28.12	-44.1	-45.7	19.4	0.00e+00	0	42	0	657457152	60	6984
2026-01-20 13:17:11.76	77.38	28.28	-42.3	-43.5	21.3	0.00e+00	92	42	0	664797184	58	6090
2026-01-20 13:17:15.80	78.67	28.43	-43.5	-45.0	19.9	0.00e+00	0	42	0	672137216	58	7175
2026-01-20 13:17:19.83	79.96	28.57	-42.5	-43.7	21.0	0.00e+00	0	42	0	679477248	58	6213
2026-01-20 13:17:23.87	81.27	28.68	-42.0	-43.1	21.5	0.00e+00	42	42	0	686817280	58	5802
2026-01-20 13:17:27.91	82.59	28.79	-41.6	-42.7	21.9	0.00e+00	0	42	0	695205888	56	6232
2026-01-20 13:17:31.95	83.91	28.87	-41.7	-42.8	21.9	0.00e+00	0	42	0	702545920	56	6260
2026-01-20 13:17:35.98	85.24	28.95	-41.7	-42.8	21.9	0.00e+00	0	42	0	709885952	56	6251
2026-01-20 13:17:40.02	86.58	29.00	-41.4	-42.4	22.2	0.00e+00	69	42	0	717225984	56	6024
2026-01-20 13:17:44.05	87.91	29.04	-41.9	-43.0	21.7	0.00e+00	0	42	0	725614592	56	6443
2026-01-20 13:17:48.09	89.26	29.06	-41.8	-42.9	21.8	0.00e+00	0	42	0	732954624	56	6379
2026-01-20 13:17:52.13	90.60	29.07	-42.7	-43.9	21.0	0.00e+00	0	42	0	740294656	58	6351
2026-01-20 13:17:56.17	91.95	29.05	-42.0	-43.1	21.8	0.00e+00	92	42	0	747634688	58	5828
2026-01-20 13:18:00.20	93.28	29.03	-41.2	-42.2	22.2	0.00e+00	0	42	0	754974720	54	6597
2026-01-20 13:18:04.23	94.62	28.98	-43.2	-44.5	20.3	0.00e+00	0	42	0	763363328	58	6817
2026-01-20 13:18:08.26	95.95	28.92	-43.0	-44.3	20.7	0.00e+00	0	42	0	770703360	58	6656
2026-01-20 13:18:12.30	97.28	28.84	-43.0	-44.3	20.3	0.00e+00	92	42	0	778043392	58	6659
2026-01-20 13:18:16.33	98.60	28.75	-44.8	-46.5	18.7	0.00e+00	0	42	0	785383424	60	7643
2026-01-20 13:18:20.37	99.92	28.64	-43.9	-45.5	19.5	0.00e+00	0	42	0	792723456	60	6776
2026-01-20 13:18:24.40	101.22	28.51	-42.2	-43.4	21.4	0.00e+00	53	42	0	801112064	58	6013
2026-01-20 13:18:28.44	102.52	28.37	-43.5	-44.9	19.9	0.00e+00	18	42	0	808452096	58	7120
2026-01-20 13:18:32.48	103.80	28.21	-42.7	-43.9	21.1	0.00e+00	0	42	0	815792128	58	6362
2026-01-20 13:18:36.51	105.07	28.05	-41.0	-42.0	22.5	0.00e+00	0	42	0	823132160	56	5746
2026-01-20 13:18:40.55	106.32	27.86	-41.9	-43.1	21.6	0.00e+00	13	42	0	831520768	56	6505
2026-01-20 13:18:44.59	107.57	27.67	-41.7	-42.8	21.9	0.00e+00	0	42	0	838860800	56	6299
2026-01-20 13:18:48.62	108.79	27.46	-42.1	-43.2	21.6	0.00e+00	0	42	0	846200832	56	6580
2026-01-20 13:18:52.65	110.00	27.24	-41.7	-42.8	21.9	0.00e+00	0	42	0	853540864	56	6253
2026-01-20 13:18:56.69	111.20	27.01	-41.1	-42.1	22.4	0.00e+00	86	42	0	860880896	56	5813
2026-01-20 13:19:00.73	112.37	26.76	-41.9	-43.0	21.8	0.00e+00	0	42	0	869269504	56	6437
2026-01-20 13:19:04.77	113.53	26.51	-42.4	-43.6	21.3	0.00e+00	0	42	0	876609536	58	6134
2026-01-20 13:19:08.81	114.67	26.25	-41.9	-43.0	21.7	0.00e+00	20	42	0	883949568	56	6413
2026-01-20 13:19:12.84	115.79	25.98	-41.4	-42.4	22.2	0.00e+00	92	42	0	891289600	56	6003
2026-01-20 13:19:16.88	116.90	25.69	-42.1	-43.2	21.3	0.00e+00	0	42	0	899678208	56	6608
2026-01-20 13:19:20.91	117.98	25.41	-41.2	-42.2	22.2	0.00e+00	0	42	0	907018240	56	5875
2026-01-20 13:19:24.95	119.05	25.11	-40.8	-41.8	22.6	0.00e+00	92	42	0	914358272	54	6287
2026-01-20 13:19:28.99	120.09	24.81	-40.6	-41.6	22.7	0.00e+00	0	42	0	921698304	54	6144
2026-01-20 13:19:33.02	121.12	24.50	-40.5	-41.5	22.9	0.00e+00	0	42	0	929038336	54	6043
2026-01-20 13:19:37.06	122.12	24.19	-38.9	-39.7	24.2	0.00e+00	0	42	0	937426944	50	6238
2026-01-20 13:19:41.09	123.11	23.87	-40.2	-41.2	23.1	0.00e+00	92	42	0	944766976	52	6546
2026-01-20 13:19:45.13	124.08	23.55	-40.1	-41.0	23.3	0.00e+00	0	42	0	952107008	52	6407
2026-01-20 13:19:49.17	125.03	23.22	-40.2	-41.2	23.1	0.00e+00	16	42	0	959447040	54	5838
2026-01-20 13:19:53.19	125.95	22.89	-40.0	-40.9	23.2	0.00e+00	17	42	0	966787072	52	6367
2026-01-20 13:19:57.23	126.86	22.56	-41.6	-42.8	21.8	0.00e+00	52	42	0	975175680	56	6287
2026-01-20 13:20:01.27	127.75	22.22	-39.4	-40.3	23.7	0.00e+00	0	42	0	982515712	52	5932
2026-01-20 13:20:05.31	128.62	21.88	-39.0	-39.8	24.1	0.00e+00	0	42	0	989855744	52	5626
2026-01-20 13:20:09.34	129.48	21.54	-40.9	-41.9	22.4	0.00e+00	64	42	0	997195776	54	6368
2026-01-20 13:20:13.37	130.31	21.20	-42.9	-44.2	20.6	0.00e+00	64	42	0	1005584384	58	6601
2026-01-20 13:20:17.40	131.13	20.85	-40.3	-41.3	22.9	0.00e+00	0	42	0	1012924416	54	5915
2026-01-20 13:20:21.44	131.93	20.51	-40.2	-41.1	23.0	0.00e+00	0	42	0	1020264448	54	5817
2026-01-20 13:20:25.48	132.71	20.16	-39.6	-40.5	23.5	0.00e+00	91	42	0	1027604480	52	6059
2026-01-20 13:20:29.51	133.47	19.82	-40.8	-41.9	22.6	0.00e+00	0	42	0	1034944512	54	6324
2026-01-20 13:20:33.55	134.22	19.47	-39.9	-40.8	23.3	0.00e+00	0	42	0	1043333120	54	5598
2026-01-20 13:20:37.58	134.95	19.12	-40.8	-41.8	22.3	0.00e+00	0	42	0	1050673152	54	6285
2026-01-20 13:20:41.61	135.67	18.78	-40.1	-41.1	23.0	0.00e+00	92	42	0	1058013184	54	5782
2026-01-20 13:20:45.65	136.37	18.43	-39.6	-40.5	23.5	0.00e+00	0	42	0	1065353216	52	6065
2026-01-20 13:20:49.69	137.06	18.09	-39.1	-40.0	23.8	0.00e+00	0	42	0	1073741824	52	5736
2026-01-20 13:20:53.72	137.73	17.75	-39.1	-40.0	23.9	0.00e+00	9	42	0	1081081856	52	5715
2026-01-20 13:20:57.76	138.39	17.41	-39.7	-40.6	23.4	0.00e+00	92	42	0	1088421888	52	6123
2026-01-20 13:21:01.80	139.03	17.06	-39.7	-40.6	23.2	0.00e+00	0	42	0	1095761920	52	6157
2026-01-20 13:21:05.84	139.66	16.73	-39.2	-40.1	23.6	0.00e+00	0	42	0	1103101952	52	5823
2026-01-20 13:21:09.87	140.27	16.39	-39.5	-40.4	23.5	0.00e+00	15	42	0	1111490560	52	6005
2026-01-20 13:21:13.90	140.87	16.05	-39.6	-40.5	23.4	0.00e+00	49	42	0	1118830592	52	6057
2026-01-20 13:21:17.94	141.46	15.72	-39.3	-40.2	23.6	0.00e+00	0	42	0	1126170624	52	5896
2026-01-20 13:21:21.97	142.04	15.39	-39.5	-40.3	23.5	0.00e+00	0	42	0	1133510656	52	5960
2026-01-20 13:21:26.01	142.60	15.05	-40.7	-41.7	22.3	0.00e+00	91	42	0	1140850688	54	6204
2026-01-20 13:21:30.04	143.15	14.73	-41.5	-42.6	21.5	0.00e+00	0	42	0	1149239296	54	6925
2026-01-20 13:21:34.07	143.69	14.40	-40.9	-42.0	22.3	0.00e+00	0	42	0	1156579328	56	5697
2026-01-20 13:21:38.11	144.22	14.08	-40.4	-41.4	22.5	0.00e+00	0	42	0	1163919360	54	5990
2026-01-20 13:21:42.15	144.74	13.75	-41.6	-42.8	21.4	0.00e+00	91	42	0	1171259392	54	7019
2026-01-20 13:21:46.18	145.25	13.43	-43.1	-44.5	20.1	0.00e+00	0	42	0	1179648000	58	6819
2026-01-20 13:21:50.22	145.74	13.11	-42.4	-43.7	20.7	0.00e+00	0	42	0	1186988032	58	6227
2026-01-20 13:21:54.26	146.23	12.80	-41.9	-43.1	21.2	0.00e+00	15	42	0	1194328064	58	5797
2026-01-20 13:21:58.29	146.71	12.49	-42.4	-43.7	20.8	0.00e+00	92	42	0	1201668096	56	6939
2026-01-20 13:22:02.33	147.17	12.17	-41.2	-42.3	22.0	0.00e+00	0	42	0	1209008128	56	5898
2026-01-20 13:22:06.36	147.63	11.87	-41.1	-42.2	21.8	0.00e+00	0	42	0	1217396736	54	6603
2026-01-20 13:22:10.40	148.08	11.56	-40.8	-41.8	22.3	0.00e+00	68	42	0	1224736768	54	6279
2026-01-20 13:22:14.43	148.52	11.25	-41.0	-42.0	21.9	0.00e+00	0	42	0	1232076800	54	6434
2026-01-20 13:22:18.47	148.95	10.95	-41.5	-42.6	21.4	0.00e+00	0	42	0	1239416832	54	6906
2026-01-20 13:22:22.51	149.37	10.65	-42.2	-43.4	20.8	0.00e+00	0	42	0	1246756864	58	6030
2026-01-20 13:22:26.54	149.79	10.36	-42.1	-43.3	20.9	0.00e+00	92	42	0	1255145472	58	5963
2026-01-20 13:22:30.58	150.20	10.06	-41.3	-42.4	21.6	0.00e+00	0	42	0	1262485504	56	6021
2026-01-20 13:22:34.62	150.60	9.77	-41.6	-42.8	21.3	0.00e+00	0	42	0	1269825536	56	6285
2026-01-20 13:22:38.65	150.99	9.48	-41.5	-42.7	21.3	0.00e+00	0	42	0	1277165568	56	6213
2026-01-20 13:22:42.69	151.37	9.19	-42.0	-43.3	20.8	0.00e+00	92	42	0	1285554176	56	6623
2026-01-20 13:22:46.73	151.75	8.90	-41.5	-42.7	21.4	0.00e+00	0	42	0	1292894208	56	6186
2026-01-20 13:22:50.77	152.12	8.62	-41.8	-43.0	21.1	0.00e+00	0	42	0	1300234240	56	6397
2026-01-20 13:22:54.81	152.48	8.34	-41.4	-42.6	21.4	0.00e+00	15	42	0	1307574272	56	6124
2026-01-20 13:22:58.85	152.84	8.06	-43.3	-44.8	19.4	0.00e+00	0	42	0	1314914304	58	7047
2026-01-20 13:23:02.88	153.19	7.78	-43.0	-44.5	19.4	0.00e+00	0	42	0	1323302912	58	6831
2026-01-20 13:23:06.92	153.53	7.50	-43.5	-45.2	18.4	0.00e+00	0	42	0	1330642944	60	6612
2026-01-20 13:23:10.96	153.87	7.23	-44.1	-46.0	17.6	0.00e+00	11	42	0	1337982976	60	7241
2026-01-20 13:23:14.99	154.20	6.96	-44.6	-46.8	16.5	0.00e+00	0	42	0	1345323008	60	7931
2026-01-20 13:23:19.03	154.53	6.69	-45.3	-48.1	15.0	7.00e-07	0	42	0	1353711616	60	9185
2026-01-20 13:23:23.07	154.85	6.42	-46.2	-49.6	13.8	0.00e+00	0	42	0	1361051648	60	10917
2026-01-20 13:23:27.11	155.16	6.16	-46.4	-49.8	13.7	6.10e-06	91	42	0	1368391680	60	11160
2026-01-20 13:23:31.14	155.47	5.90	-45.7	-48.5	15.3	0.00e+00	0	42	0	1375731712	60	9606
2026-01-20 13:23:35.18	155.77	5.64	-45.3	-47.7	15.8	0.00e+00	0	42	0	1383071744	60	8805
2026-01-20 13:23:39.22	156.07	5.38	-44.9	-47.0	16.7	0.00e+00	9	42	0	1391460352	60	8096
2026-01-20 13:23:43.26	156.37	5.12	-44.0	-45.9	17.8	0.00e+00	92	42	0	1398800384	60	7113
2026-01-20 13:23:47.30	156.66	4.86	-43.8	-45.5	18.0	0.00e+00	0	42	0	1406140416	60	6835
2026-01-20 13:23:51.33	156.94	4.61	-44.5	-46.4	17.7	0.00e+00	0	42	0	1413480448	60	7535
2026-01-20 13:23:55.37	157.22	4.36	-44.6	-46.5	18.1	0.00e+00	80	42	0	1421869056	60	7666
2026-01-20 13:23:59.40	157.50	4.11	-44.6	-46.7	17.0	0.00e+00	0	42	0	1429209088	58	8725
2026-01-20 13:24:03.44	157.77	3.86	-45.9	-48.5	15.3	0.00e+00	0	42	0	1436549120	60	9631
2026-01-20 13:24:07.48	158.03	3.62	-47.0	-50.4	13.7	8.46e-05	0	42	0	1443889152	60	11953
2026-01-20 13:24:11.51	158.30	3.37	-46.1	-48.9	15.2	3.00e-06	92	42	0	1451229184	60	10061
2026-01-20 13:24:15.55	158.56	3.13	-45.5	-48.0	15.4	0.00e+00	0	42	0	1459617792	60	9129
2026-01-20 13:24:19.59	158.81	2.89	-50.2	-65.5	3.6	1.51e+00	0	42	104	1462763520	60	67922
2026-01-20 13:24:23.63	159.06	2.65	-50.8	-66.0	3.6	1.51e+00	0	42	104	1462763520	60	72246
2026-01-20 13:24:27.67	159.31	2.41	-51.3	-66.5	3.5	1.51e+00	0	42	104	1462763520	60	76533
2026-01-20 13:24:31.70	159.55	2.17	-51.3	-66.5	3.6	1.51e+00	0	42	104	1462763520	60	76436
2026-01-20 13:24:35.74	159.79	1.94	-51.3	-66.5	3.6	1.51e+00	0	42	104	1462763520	60	76537
2026-01-20 13:24:39.78	160.03	1.71	-51.5	-66.8	3.6	1.51e+00	0	42	104	1462763520	60	78691
2026-01-20 13:24:43.81	160.26	1.48	-51.5	-66.8	3.6	1.51e+00	0	42	104	1462763520	60	78661
2026-01-20 13:24:47.85	160.49	1.25	-51.4	-66.7	3.6	1.51e+00	0	42	104	1462763520	60	77798
2026-01-20 13:24:51.89	160.71	1.02	-51.5	-66.7	3.6	1.51e+00	0	42	104	1462763520	60	78140
2026-01-20 13:24:55.93	160.94	0.79	-51.6	-66.8	3.6	1.51e+00	0	42	104	1462763520	60	79511
2026-01-20 13:24:59.97	161.16	0.56	-51.7	-66.9	3.6	1.51e+00	0	42	104	1462763520	60	80013
2026-01-20 13:25:04.01	161.37	0.34	-51.7	-67.0	3.6	1.51e+00	0	42	104	1462763520	60	80917
2026-01-20 13:25:08.05	161.59	0.12	-51.9	-67.2	3.6	1.51e+00	0	42	104	1462763520	60	82745
2026-01-20 13:25:12.09	161.80	-0.11	-51.5	-66.7	3.6	1.51e+00	0	42	104	1462763520	60	78484

#Closed at: 2026-01-20 13:25:12
#Recorded file [1462 MB]: D:/lorett/data/35029_260121_011032.dat