passes_logs/2026/01/20/R4.6S_Anadyr/R4.6S_Anadyr__20260120_151134_NOAA_20_JPSS-1_rec.log

#Pass ID: 20260120_151134_NOAA 20 (JPSS-1)
#Satellite: NOAA 20 (JPSS-1)
#Configuration: NOAA 20
#almurnet v.1.7.20251203
#Start time: 2026-01-20 15:11:37

#Version: 2.2.20231116
#Station: R4.6S_Anadyr
#Location: 177.4865 lon 64.73178 lat
#TLE: 1 43013U 17073A   26019.91154542  .00000116  00000+0  76014-4 0  9997
#TLE: 2 43013  98.7642 320.7991 0001304  32.0041 328.1214 14.19537346423438

#Time	Az	El	Level	Level2	SNR	BER	BlckErr	Temp	State	Recorded	gain1	gain2
2026-01-20 15:11:37.79	21.59	0.17	-52.9	-66.7	3.3	1.54e+00	0	41	0	0	60	78593
2026-01-20 15:11:41.83	21.56	0.42	-51.6	-66.8	3.6	1.51e+00	0	41	104	0	60	79291
2026-01-20 15:11:45.86	21.52	0.66	-51.6	-66.9	3.6	1.51e+00	0	41	104	0	60	79744
2026-01-20 15:11:49.90	21.48	0.91	-51.2	-66.4	3.6	1.51e+00	0	41	104	0	60	75490
2026-01-20 15:11:53.94	21.45	1.16	-50.7	-65.9	3.6	1.51e+00	0	41	104	0	60	71315
2026-01-20 15:11:57.98	21.41	1.41	-50.2	-65.4	3.6	1.51e+00	0	42	104	0	60	66934
2026-01-20 15:12:02.02	21.37	1.66	-49.8	-64.8	3.6	1.51e+00	0	42	104	0	60	62980
2026-01-20 15:12:06.05	21.33	1.91	-49.8	-65.0	3.6	1.51e+00	0	42	104	0	60	64071
2026-01-20 15:12:10.09	21.29	2.17	-49.9	-64.9	3.6	1.51e+00	0	42	104	0	60	63612
2026-01-20 15:12:14.13	21.24	2.43	-49.8	-64.2	3.6	1.51e+00	0	42	104	0	60	58564
2026-01-20 15:12:18.17	21.20	2.69	-49.8	-63.7	3.6	1.51e+00	0	42	104	0	60	55043
2026-01-20 15:12:22.20	21.15	2.96	-49.6	-59.6	4.9	7.28e-01	58	42	0	0	60	34540
2026-01-20 15:12:26.24	21.11	3.22	-48.8	-55.1	8.4	2.13e-02	92	42	0	8388608	60	20534
2026-01-20 15:12:30.28	21.06	3.49	-47.4	-51.4	12.2	6.71e-05	24	42	0	15728640	60	13402
2026-01-20 15:12:34.32	21.01	3.76	-49.7	-63.9	3.6	1.51e+00	0	42	104	22020096	60	56370
2026-01-20 15:12:38.35	20.96	4.04	-49.8	-64.7	3.6	1.46e+00	0	42	104	22020096	60	62138
2026-01-20 15:12:42.39	20.91	4.32	-44.5	-46.3	18.0	0.00e+00	90	42	0	26214400	60	7485
2026-01-20 15:12:46.43	20.86	4.60	-43.4	-45.0	19.4	0.00e+00	24	42	0	34603008	60	6397
2026-01-20 15:12:50.46	20.81	4.88	-45.3	-47.4	17.3	0.00e+00	5	42	0	41943040	60	8487
2026-01-20 15:12:54.50	20.75	5.17	-44.3	-46.0	18.3	0.00e+00	6	42	0	49283072	60	7202
2026-01-20 15:12:58.54	20.69	5.46	-45.6	-47.9	16.7	0.00e+00	92	42	0	56623104	60	8959
2026-01-20 15:13:02.58	20.64	5.75	-43.6	-45.1	19.2	0.00e+00	0	42	0	65011712	60	6530
2026-01-20 15:13:06.62	20.58	6.04	-43.7	-45.3	19.0	0.00e+00	30	42	0	72351744	60	6620
2026-01-20 15:13:10.66	20.52	6.34	-44.0	-45.6	18.9	0.00e+00	85	42	0	79691776	60	6885
2026-01-20 15:13:14.70	20.45	6.65	-44.0	-45.6	18.9	0.00e+00	27	42	0	87031808	60	6897
2026-01-20 15:13:18.74	20.39	6.95	-43.9	-45.5	19.3	0.00e+00	7	42	0	94371840	60	6803
2026-01-20 15:13:22.78	20.32	7.26	-44.3	-46.0	18.7	0.00e+00	60	42	0	102760448	60	7221
2026-01-20 15:13:26.81	20.25	7.58	-44.2	-45.8	18.9	0.00e+00	92	42	0	110100480	60	7032
2026-01-20 15:13:30.85	20.18	7.89	-43.5	-44.9	19.7	0.00e+00	71	42	0	117440512	60	6387
2026-01-20 15:13:34.88	20.11	8.21	-43.7	-45.1	19.6	0.00e+00	22	42	0	124780544	60	6524
2026-01-20 15:13:38.92	20.04	8.54	-42.2	-43.4	21.2	0.00e+00	0	42	0	133169152	58	5989
2026-01-20 15:13:42.96	19.96	8.87	-42.6	-43.8	20.6	0.00e+00	91	42	0	140509184	58	6316
2026-01-20 15:13:47.00	19.89	9.20	-43.3	-44.6	20.1	0.00e+00	0	42	0	147849216	58	6895
2026-01-20 15:13:51.04	19.81	9.54	-42.7	-44.0	20.8	0.00e+00	59	42	0	155189248	58	6404
2026-01-20 15:13:55.07	19.72	9.88	-42.5	-43.7	21.0	0.00e+00	0	42	0	162529280	58	6224
2026-01-20 15:13:59.11	19.64	10.23	-41.8	-42.9	21.8	0.00e+00	92	42	0	170917888	58	5656
2026-01-20 15:14:03.15	19.55	10.59	-42.1	-43.2	21.7	0.00e+00	0	42	0	178257920	58	5853
2026-01-20 15:14:07.19	19.46	10.94	-42.1	-43.2	21.6	0.00e+00	0	42	0	185597952	58	5857
2026-01-20 15:14:11.22	19.37	11.31	-42.1	-43.3	21.6	0.00e+00	0	42	0	192937984	58	5902
2026-01-20 15:14:15.26	19.27	11.67	-41.7	-42.7	22.2	0.00e+00	91	42	0	201326592	56	6244
2026-01-20 15:14:19.30	19.18	12.05	-42.0	-43.1	22.0	0.00e+00	0	42	0	208666624	56	6478
2026-01-20 15:14:23.33	19.07	12.43	-41.4	-42.5	22.4	0.00e+00	0	42	0	216006656	56	6051
2026-01-20 15:14:27.37	18.97	12.81	-41.2	-42.2	22.6	0.00e+00	0	42	0	223346688	56	5865
2026-01-20 15:14:31.41	18.86	13.20	-41.5	-42.5	22.4	0.00e+00	90	42	0	230686720	56	6053
2026-01-20 15:14:35.45	18.75	13.60	-41.1	-42.1	22.8	0.00e+00	0	42	0	239075328	56	5766
2026-01-20 15:14:39.49	18.64	14.01	-40.8	-41.8	23.0	0.00e+00	27	42	0	246415360	54	6263
2026-01-20 15:14:43.52	18.52	14.42	-40.8	-41.8	23.0	0.00e+00	5	42	0	253755392	54	6256
2026-01-20 15:14:47.56	18.40	14.83	-40.7	-41.7	23.1	0.00e+00	92	42	0	261095424	54	6188
2026-01-20 15:14:51.60	18.27	15.26	-40.3	-41.2	23.4	0.00e+00	0	42	0	268435456	54	5892
2026-01-20 15:14:55.63	18.14	15.69	-40.5	-41.4	23.4	0.00e+00	55	42	0	276824064	54	5993
2026-01-20 15:14:59.67	18.01	16.13	-40.1	-41.0	23.7	0.00e+00	34	42	0	284164096	54	5735
2026-01-20 15:15:03.71	17.87	16.58	-40.3	-41.2	23.5	0.00e+00	92	42	0	291504128	54	5874
2026-01-20 15:15:07.75	17.73	17.04	-40.1	-41.0	23.8	0.00e+00	0	42	0	298844160	54	5724
2026-01-20 15:15:11.78	17.58	17.50	-39.8	-40.7	24.0	0.00e+00	0	42	0	307232768	52	6184
2026-01-20 15:15:15.82	17.43	17.97	-39.7	-40.6	24.2	0.00e+00	61	42	0	314572800	52	6129
2026-01-20 15:15:19.85	17.27	18.45	-39.6	-40.4	24.3	0.00e+00	92	42	0	321912832	52	6024
2026-01-20 15:15:23.89	17.10	18.95	-39.5	-40.3	24.4	0.00e+00	21	42	0	329252864	52	5961
2026-01-20 15:15:27.93	16.93	19.45	-39.4	-40.3	24.4	0.00e+00	0	42	0	336592896	52	5921
2026-01-20 15:15:31.96	16.75	19.96	-39.4	-40.3	24.5	0.00e+00	92	42	0	344981504	52	5901
2026-01-20 15:15:36.00	16.57	20.48	-39.4	-40.2	24.4	0.00e+00	12	42	0	352321536	52	5881
2026-01-20 15:15:40.03	16.38	21.01	-39.4	-40.2	24.6	0.00e+00	64	42	0	359661568	52	5846
2026-01-20 15:15:44.07	16.18	21.56	-39.2	-40.0	24.7	0.00e+00	0	42	0	367001600	52	5734
2026-01-20 15:15:48.11	15.98	22.11	-39.1	-39.9	24.7	0.00e+00	92	42	0	375390208	52	5694
2026-01-20 15:15:52.15	15.76	22.68	-39.2	-40.0	24.8	0.00e+00	0	42	0	382730240	52	5747
2026-01-20 15:15:56.19	15.54	23.26	-39.1	-39.9	24.9	0.00e+00	63	42	0	390070272	52	5634
2026-01-20 15:16:00.22	15.31	23.85	-39.3	-40.1	24.8	0.00e+00	59	42	0	397410304	52	5775
2026-01-20 15:16:04.26	15.07	24.45	-39.5	-40.4	24.5	0.00e+00	90	42	0	404750336	52	5967
2026-01-20 15:16:08.30	14.82	25.07	-39.8	-40.7	24.3	0.00e+00	24	42	0	413138944	52	6188
2026-01-20 15:16:12.34	14.56	25.71	-40.3	-41.2	23.8	0.00e+00	2	42	0	420478976	52	6565
2026-01-20 15:16:16.38	14.28	26.36	-40.7	-41.6	23.4	0.00e+00	0	42	0	427819008	52	6914
2026-01-20 15:16:20.42	14.00	27.02	-41.1	-42.0	23.1	0.00e+00	92	42	0	435159040	54	6458
2026-01-20 15:16:24.46	13.70	27.70	-41.4	-42.4	22.7	0.00e+00	22	42	0	442499072	54	6748
2026-01-20 15:16:28.49	13.39	28.39	-42.2	-43.2	22.2	0.00e+00	19	42	0	450887680	56	6586
2026-01-20 15:16:32.53	13.06	29.10	-42.7	-43.8	21.6	0.00e+00	0	42	0	458227712	56	7066
2026-01-20 15:16:36.57	12.72	29.83	-43.4	-44.6	20.8	0.00e+00	92	42	0	465567744	58	6926
2026-01-20 15:16:40.60	12.36	30.58	-43.3	-44.6	20.9	0.00e+00	0	42	0	472907776	58	6856
2026-01-20 15:16:44.64	11.99	31.35	-43.8	-45.2	20.3	0.00e+00	21	42	0	481296384	58	7371
2026-01-20 15:16:48.68	11.59	32.13	-44.3	-45.7	19.9	0.00e+00	33	42	0	488636416	60	6973
2026-01-20 15:16:52.71	11.17	32.93	-44.4	-45.8	19.7	0.00e+00	55	42	0	495976448	60	7063
2026-01-20 15:16:56.75	10.73	33.76	-44.9	-46.4	19.2	0.00e+00	6	42	0	503316480	60	7552
2026-01-20 15:17:00.79	10.27	34.60	-44.4	-45.9	19.7	0.00e+00	0	42	0	510656512	60	7134
2026-01-20 15:17:04.82	9.78	35.47	-43.6	-44.9	20.5	0.00e+00	92	42	0	519045120	60	6357
2026-01-20 15:17:08.86	9.27	36.35	-43.8	-45.2	20.4	0.00e+00	0	42	0	526385152	60	6552
2026-01-20 15:17:12.90	8.72	37.26	-44.3	-45.8	19.7	0.00e+00	0	42	0	533725184	60	7065
2026-01-20 15:17:16.94	8.14	38.20	-44.4	-46.0	19.8	0.00e+00	0	42	0	541065216	60	7175
2026-01-20 15:17:20.98	7.53	39.15	-44.5	-46.0	19.6	0.00e+00	92	42	0	549453824	60	7223
2026-01-20 15:17:25.02	6.87	40.13	-44.0	-45.3	20.3	0.00e+00	16	42	0	556793856	60	6657
2026-01-20 15:17:29.06	6.18	41.13	-43.7	-45.0	20.6	0.00e+00	16	42	0	564133888	60	6394
2026-01-20 15:17:33.09	5.44	42.15	-42.9	-44.1	21.4	0.00e+00	0	42	0	571473920	60	5801
2026-01-20 15:17:37.13	4.65	43.20	-42.8	-44.0	21.5	0.00e+00	90	42	0	578813952	58	6412
2026-01-20 15:17:41.17	3.80	44.27	-41.9	-42.9	22.5	0.00e+00	0	42	0	587202560	58	5654
2026-01-20 15:17:45.21	2.90	45.36	-41.8	-42.8	22.7	0.00e+00	60	42	0	594542592	56	6247
2026-01-20 15:17:49.24	1.93	46.47	-41.4	-42.4	23.0	0.00e+00	67	42	0	601882624	56	5990
2026-01-20 15:17:53.28	0.88	47.61	-41.3	-42.3	23.1	0.00e+00	91	42	0	609222656	56	5911
2026-01-20 15:17:57.32	359.75	48.76	-41.6	-42.6	22.5	0.00e+00	0	42	0	617611264	56	6144
2026-01-20 15:18:01.36	358.54	49.94	-41.0	-41.9	23.4	0.00e+00	0	42	0	624951296	56	5655
2026-01-20 15:18:05.39	357.22	51.12	-40.1	-40.9	24.2	0.00e+00	0	42	0	632291328	54	5684
2026-01-20 15:18:09.43	355.80	52.32	-39.7	-40.5	24.6	0.00e+00	90	42	0	639631360	52	6089
2026-01-20 15:18:13.46	354.25	53.53	-39.7	-40.5	24.6	0.00e+00	5	42	0	646971392	52	6087
2026-01-20 15:18:17.50	352.56	54.75	-40.1	-41.0	24.2	0.00e+00	18	42	0	655360000	52	6407
2026-01-20 15:18:21.54	350.73	55.96	-42.5	-43.6	22.0	0.00e+00	0	42	0	662700032	56	6927
2026-01-20 15:18:25.57	348.73	57.17	-45.5	-47.2	18.5	0.00e+00	92	42	0	670040064	60	8303
2026-01-20 15:18:29.61	346.53	58.38	-44.5	-45.9	19.9	0.00e+00	18	42	0	677380096	60	7155
2026-01-20 15:18:33.65	344.14	59.56	-43.0	-44.2	21.5	0.00e+00	5	42	0	684720128	58	6602
2026-01-20 15:18:37.68	341.52	60.71	-40.9	-41.8	23.5	0.00e+00	42	42	0	693108736	56	5593
2026-01-20 15:18:41.72	338.64	61.83	-38.7	-39.4	25.3	0.00e+00	0	42	0	700448768	50	6027
2026-01-20 15:18:45.76	335.50	62.89	-38.7	-39.5	25.4	0.00e+00	68	42	0	707788800	50	6044
2026-01-20 15:18:49.79	332.08	63.89	-39.6	-40.4	24.6	0.00e+00	0	42	0	715128832	50	6732
2026-01-20 15:18:53.83	328.36	64.81	-39.8	-40.6	24.5	0.00e+00	90	42	0	723517440	52	6138
2026-01-20 15:18:57.87	324.33	65.64	-40.7	-41.5	23.9	0.00e+00	0	42	0	730857472	54	6092
2026-01-20 15:19:01.90	320.02	66.36	-42.8	-44.0	21.5	0.00e+00	12	42	0	738197504	58	6438
2026-01-20 15:19:05.94	315.42	66.96	-42.4	-43.5	21.8	0.00e+00	0	42	0	745537536	58	6092
2026-01-20 15:19:09.98	310.59	67.41	-43.6	-44.8	21.0	0.00e+00	92	42	0	752877568	58	7086
2026-01-20 15:19:14.01	305.59	67.72	-43.0	-44.1	21.5	0.00e+00	62	42	0	761266176	58	6533
2026-01-20 15:19:18.05	300.47	67.86	-42.8	-43.9	21.7	0.00e+00	14	42	0	768606208	58	6329
2026-01-20 15:19:22.08	295.33	67.84	-42.9	-44.1	21.1	0.00e+00	13	42	0	775946240	58	6510
2026-01-20 15:19:26.12	290.23	67.65	-42.9	-44.0	21.6	0.00e+00	92	42	0	783286272	60	5737
2026-01-20 15:19:30.16	285.26	67.30	-42.5	-43.6	22.1	0.00e+00	2	42	0	791674880	58	6119
2026-01-20 15:19:34.19	280.50	66.81	-42.1	-43.2	22.5	0.00e+00	0	42	0	799014912	58	5843
2026-01-20 15:19:38.23	275.97	66.18	-41.6	-42.6	23.1	0.00e+00	0	42	0	806354944	56	6135
2026-01-20 15:19:42.27	271.73	65.43	-39.8	-40.6	24.6	0.00e+00	92	42	0	813694976	52	6161
2026-01-20 15:19:46.31	267.78	64.57	-39.3	-40.1	25.0	0.00e+00	0	42	0	821035008	52	5772
2026-01-20 15:19:50.35	264.13	63.62	-39.0	-39.8	25.2	0.00e+00	0	42	0	829423616	52	5590
2026-01-20 15:19:54.39	260.78	62.60	-40.9	-41.9	23.4	0.00e+00	0	42	0	836763648	54	6318
2026-01-20 15:19:58.42	257.72	61.52	-42.1	-43.2	22.3	0.00e+00	92	42	0	844103680	56	6544
2026-01-20 15:20:02.46	254.91	60.39	-43.6	-44.9	20.6	0.00e+00	7	42	0	851443712	58	7104
2026-01-20 15:20:06.50	252.35	59.22	-44.2	-45.7	19.9	0.00e+00	6	42	0	859832320	60	6940
2026-01-20 15:20:10.53	250.01	58.03	-44.2	-45.5	20.2	0.00e+00	6	42	0	867172352	60	6841
2026-01-20 15:20:14.57	247.87	56.83	-41.6	-42.6	22.9	0.00e+00	92	42	0	874512384	56	6107
2026-01-20 15:20:18.60	245.91	55.61	-41.4	-42.3	23.3	0.00e+00	0	42	0	881852416	56	5919
2026-01-20 15:20:22.64	244.11	54.39	-40.7	-41.6	23.7	0.00e+00	22	42	0	889192448	56	5494
2026-01-20 15:20:26.67	242.47	53.18	-41.1	-42.0	23.4	0.00e+00	47	42	0	897581056	54	6432
2026-01-20 15:20:30.71	240.95	51.96	-42.1	-43.1	22.7	0.00e+00	0	42	0	904921088	56	6530
2026-01-20 15:20:34.75	239.56	50.76	-42.0	-43.0	22.5	0.00e+00	6	42	0	912261120	56	6454
2026-01-20 15:20:38.79	238.27	49.58	-42.5	-43.7	22.0	0.00e+00	0	42	0	919601152	56	6929
2026-01-20 15:20:42.82	237.07	48.41	-42.3	-43.4	22.0	0.00e+00	92	42	0	927989760	56	6764
2026-01-20 15:20:46.86	235.97	47.26	-42.3	-43.5	21.9	0.00e+00	15	42	0	935329792	56	6811
2026-01-20 15:20:50.90	234.94	46.12	-42.1	-43.3	22.1	0.00e+00	17	42	0	942669824	56	6650
2026-01-20 15:20:54.93	233.99	45.01	-43.0	-44.3	21.2	0.00e+00	2	42	0	950009856	58	6651
2026-01-20 15:20:58.97	233.10	43.92	-42.9	-44.2	21.2	0.00e+00	92	42	0	957349888	58	6588
2026-01-20 15:21:03.01	232.27	42.86	-43.3	-44.7	20.7	0.00e+00	60	42	0	965738496	58	6983
2026-01-20 15:21:07.05	231.49	41.81	-44.7	-46.4	19.5	0.00e+00	0	42	0	973078528	60	7516
2026-01-20 15:21:11.09	230.76	40.79	-45.2	-47.1	18.6	0.00e+00	22	42	0	980418560	60	8146
2026-01-20 15:21:15.12	230.07	39.80	-45.1	-46.9	18.8	0.00e+00	92	42	0	987758592	60	7971
2026-01-20 15:21:19.16	229.43	38.82	-44.0	-45.6	19.9	0.00e+00	64	42	0	996147200	60	6886
2026-01-20 15:21:23.19	228.83	37.87	-43.7	-45.2	20.3	0.00e+00	0	42	0	1003487232	60	6550
2026-01-20 15:21:27.23	228.25	36.94	-43.5	-44.8	20.6	0.00e+00	16	42	0	1010827264	60	6313
2026-01-20 15:21:31.26	227.72	36.04	-43.4	-44.8	20.7	0.00e+00	92	42	0	1018167296	60	6267
2026-01-20 15:21:35.30	227.21	35.15	-43.3	-44.7	21.0	0.00e+00	18	42	0	1025507328	60	6176
2026-01-20 15:21:39.34	226.72	34.29	-43.5	-44.8	20.6	0.00e+00	0	42	0	1033895936	60	6311
2026-01-20 15:21:43.38	226.27	33.45	-43.2	-44.5	21.0	0.00e+00	0	42	0	1041235968	60	6035
2026-01-20 15:21:47.41	225.83	32.63	-43.0	-44.2	21.2	0.00e+00	0	42	0	1048576000	60	5896
2026-01-20 15:21:51.45	225.42	31.83	-43.7	-45.0	20.4	0.00e+00	20	42	0	1055916032	60	6453
2026-01-20 15:21:55.49	225.03	31.05	-43.9	-45.3	20.2	0.00e+00	0	42	0	1063256064	60	6638
2026-01-20 15:21:59.53	224.65	30.29	-44.3	-45.7	19.8	0.00e+00	0	42	0	1071644672	60	6993
2026-01-20 15:22:03.56	224.30	29.54	-44.6	-46.1	19.4	0.00e+00	62	42	0	1078984704	60	7278
2026-01-20 15:22:07.60	223.96	28.82	-44.9	-46.5	19.0	0.00e+00	56	42	0	1086324736	60	7642
2026-01-20 15:22:11.64	223.63	28.11	-44.8	-46.3	19.3	0.00e+00	29	42	0	1093664768	60	7482
2026-01-20 15:22:15.68	223.32	27.41	-44.2	-45.7	19.9	0.00e+00	92	42	0	1102053376	60	6928
2026-01-20 15:22:19.71	223.03	26.74	-43.9	-45.3	20.2	0.00e+00	0	42	0	1109393408	60	6656
2026-01-20 15:22:23.75	222.74	26.08	-43.7	-45.0	20.5	0.00e+00	0	42	0	1116733440	60	6448
2026-01-20 15:22:27.79	222.47	25.43	-43.4	-44.7	20.8	0.00e+00	0	42	0	1124073472	60	6195
2026-01-20 15:22:31.82	222.21	24.80	-43.1	-44.5	20.9	0.00e+00	92	42	0	1131413504	60	6037
2026-01-20 15:22:35.85	221.96	24.19	-42.6	-43.8	21.4	0.00e+00	21	42	0	1139802112	58	6312
2026-01-20 15:22:39.89	221.72	23.58	-42.4	-43.6	21.6	0.00e+00	29	42	0	1147142144	58	6168
2026-01-20 15:22:43.93	221.49	22.99	-42.2	-43.3	21.9	0.00e+00	0	42	0	1154482176	58	5936
2026-01-20 15:22:47.97	221.27	22.41	-42.0	-43.2	22.0	0.00e+00	92	42	0	1161822208	58	5836
2026-01-20 15:22:52.01	221.06	21.85	-41.8	-42.9	22.3	0.00e+00	59	42	0	1169162240	56	6324
2026-01-20 15:22:56.04	220.85	21.30	-41.8	-42.9	22.3	0.00e+00	60	42	0	1177550848	56	6352
2026-01-20 15:23:00.08	220.65	20.76	-41.5	-42.5	22.6	0.00e+00	20	42	0	1184890880	56	6099
2026-01-20 15:23:04.12	220.46	20.22	-41.4	-42.4	22.6	0.00e+00	92	42	0	1192230912	56	6015
2026-01-20 15:23:08.16	220.28	19.70	-41.4	-42.5	22.7	0.00e+00	0	42	0	1199570944	56	6038
2026-01-20 15:23:12.20	220.10	19.19	-41.8	-42.8	22.3	0.00e+00	55	42	0	1207959552	56	6296
2026-01-20 15:23:16.23	219.93	18.70	-41.6	-42.6	22.5	0.00e+00	24	42	0	1215299584	56	6156
2026-01-20 15:23:20.26	219.77	18.21	-41.6	-42.6	22.4	0.00e+00	92	42	0	1222639616	56	6135
2026-01-20 15:23:24.30	219.61	17.72	-41.6	-42.6	22.4	0.00e+00	21	42	0	1229979648	56	6143
2026-01-20 15:23:28.34	219.45	17.25	-41.9	-43.0	22.1	0.00e+00	0	42	0	1237319680	56	6404
2026-01-20 15:23:32.37	219.30	16.79	-42.2	-43.3	21.8	0.00e+00	0	42	0	1245708288	56	6644
2026-01-20 15:23:36.41	219.16	16.34	-42.2	-43.3	21.8	0.00e+00	92	42	0	1253048320	56	6627
2026-01-20 15:23:40.45	219.02	15.89	-42.3	-43.4	21.6	0.00e+00	28	42	0	1260388352	56	6733
2026-01-20 15:23:44.49	218.88	15.45	-42.3	-43.5	21.6	0.00e+00	28	42	0	1267728384	56	6795
2026-01-20 15:23:48.53	218.75	15.02	-42.3	-43.4	21.6	0.00e+00	92	42	0	1276116992	56	6749
2026-01-20 15:23:52.56	218.63	14.60	-42.3	-43.4	21.7	0.00e+00	84	42	0	1283457024	56	6769
2026-01-20 15:23:56.60	218.50	14.18	-42.5	-43.7	21.4	0.00e+00	0	42	0	1290797056	56	6973
2026-01-20 15:24:00.64	218.38	13.77	-42.6	-43.8	21.3	0.00e+00	58	42	0	1298137088	58	6287
2026-01-20 15:24:04.68	218.27	13.36	-43.7	-45.0	20.6	0.00e+00	92	42	0	1305477120	60	6448
2026-01-20 15:24:08.72	218.16	12.97	-43.4	-44.8	20.5	0.00e+00	0	42	0	1313865728	60	6257
2026-01-20 15:24:12.75	218.05	12.58	-43.3	-44.6	20.7	0.00e+00	0	42	0	1321205760	60	6164
2026-01-20 15:24:16.79	217.94	12.19	-43.4	-44.7	20.6	0.00e+00	0	42	0	1328545792	60	6197
2026-01-20 15:24:20.83	217.84	11.81	-43.3	-44.6	20.5	0.00e+00	92	42	0	1335885824	60	6136
2026-01-20 15:24:24.86	217.74	11.44	-43.6	-44.9	20.2	0.00e+00	0	42	0	1344274432	60	6377
2026-01-20 15:24:28.90	217.64	11.07	-43.8	-45.2	19.7	0.00e+00	2	42	0	1351614464	60	6578
2026-01-20 15:24:32.94	217.55	10.71	-43.4	-44.8	20.2	0.00e+00	0	42	0	1358954496	60	6262
2026-01-20 15:24:36.98	217.45	10.36	-43.4	-44.7	20.1	0.00e+00	90	42	0	1366294528	60	6232
2026-01-20 15:24:41.02	217.36	10.00	-43.7	-45.1	19.9	0.00e+00	28	42	0	1373634560	60	6521
2026-01-20 15:24:45.05	217.28	9.66	-43.7	-45.1	19.7	0.00e+00	32	42	0	1382023168	60	6536
2026-01-20 15:24:49.09	217.19	9.31	-43.7	-45.1	19.6	0.00e+00	25	42	0	1389363200	60	6531
2026-01-20 15:24:53.13	217.11	8.98	-43.2	-44.5	20.3	0.00e+00	92	42	0	1396703232	60	6081
2026-01-20 15:24:57.17	217.03	8.64	-43.8	-45.3	19.5	0.00e+00	57	42	0	1404043264	60	6623
2026-01-20 15:25:01.21	216.95	8.31	-43.5	-45.0	19.6	0.00e+00	25	42	0	1412431872	60	6404
2026-01-20 15:25:05.24	216.88	7.99	-44.0	-45.5	19.1	0.00e+00	40	42	0	1419771904	60	6845
2026-01-20 15:25:09.28	216.80	7.67	-44.2	-45.9	18.8	0.00e+00	91	42	0	1427111936	60	7109
2026-01-20 15:25:13.32	216.73	7.35	-43.8	-45.3	19.6	0.00e+00	0	42	0	1434451968	60	6661
2026-01-20 15:25:17.36	216.66	7.04	-44.4	-46.2	18.4	0.00e+00	55	42	0	1441792000	60	7344
2026-01-20 15:25:21.40	216.59	6.73	-44.6	-46.4	18.2	0.00e+00	0	42	0	1450180608	60	7578
2026-01-20 15:25:25.43	216.52	6.42	-44.2	-45.8	18.7	0.00e+00	90	42	0	1457520640	60	7050
2026-01-20 15:25:29.47	216.46	6.12	-44.3	-46.1	18.4	0.00e+00	6	42	0	1464860672	60	7275
2026-01-20 15:25:33.51	216.39	5.82	-44.2	-46.0	18.6	0.00e+00	26	42	0	1472200704	60	7179
2026-01-20 15:25:37.55	216.33	5.53	-44.3	-46.1	18.3	0.00e+00	80	42	0	1479540736	60	7283
2026-01-20 15:25:41.58	216.27	5.24	-44.6	-46.4	17.9	0.00e+00	85	42	0	1487929344	60	7571
2026-01-20 15:25:45.62	216.21	4.95	-44.7	-46.7	17.6	0.00e+00	0	42	0	1495269376	60	7778
2026-01-20 15:25:49.66	216.15	4.66	-45.1	-47.1	17.1	0.00e+00	7	42	0	1502609408	60	8220
2026-01-20 15:25:53.70	216.09	4.38	-45.4	-47.6	17.0	0.00e+00	92	42	0	1509949440	60	8685
2026-01-20 15:25:57.74	216.04	4.10	-44.5	-46.4	17.6	0.00e+00	0	42	0	1518338048	60	7552
2026-01-20 15:26:01.78	215.98	3.82	-46.5	-49.6	14.4	0.00e+00	0	42	0	1525678080	60	10948
2026-01-20 15:26:05.82	215.93	3.55	-45.6	-48.1	15.8	0.00e+00	53	42	0	1533018112	60	9234
2026-01-20 15:26:09.86	215.88	3.27	-45.3	-47.7	16.3	0.00e+00	92	42	0	1540358144	60	8767
2026-01-20 15:26:13.90	215.83	3.00	-49.9	-65.1	3.6	1.06e+00	0	42	104	1547698176	60	65088
2026-01-20 15:26:17.93	215.78	2.74	-51.0	-66.2	3.6	1.51e+00	0	42	104	1547698176	60	74096
2026-01-20 15:26:21.97	215.73	2.47	-51.3	-66.5	3.6	1.51e+00	0	42	104	1547698176	60	76640
2026-01-20 15:26:26.01	215.68	2.21	-51.4	-66.7	3.6	1.51e+00	0	42	104	1547698176	60	78050
2026-01-20 15:26:30.05	215.64	1.95	-51.4	-66.6	3.6	1.51e+00	0	42	104	1547698176	60	76943
2026-01-20 15:26:34.09	215.59	1.70	-51.3	-66.6	3.6	1.51e+00	0	42	104	1547698176	60	77383
2026-01-20 15:26:38.12	215.55	1.44	-51.4	-66.6	3.6	1.51e+00	0	42	104	1547698176	60	77021
2026-01-20 15:26:42.16	215.51	1.19	-51.6	-66.9	3.6	1.51e+00	0	42	104	1547698176	60	79730
2026-01-20 15:26:46.20	215.46	0.94	-51.6	-66.8	3.6	1.51e+00	0	42	104	1547698176	60	79049
2026-01-20 15:26:50.24	215.42	0.69	-51.6	-66.8	3.6	1.51e+00	0	43	104	1547698176	60	78768
2026-01-20 15:26:54.28	215.38	0.44	-51.7	-66.9	3.6	1.51e+00	0	42	104	1547698176	60	79839
2026-01-20 15:26:58.32	215.34	0.20	-51.6	-66.8	3.6	1.51e+00	0	42	104	1547698176	60	79009

#Closed at: 2026-01-20 15:27:01
#Recorded file [1547 MB]: D:/lorett/data/35029_260121_031137.dat