passes_logs/2026/01/20/R4.6S_Anadyr/R4.6S_Anadyr__20260120_181059_SUOMI_NPP_rec.log

#Pass ID: 20260120_181059_SUOMI NPP
#Satellite: SUOMI NPP
#Configuration: NPP
#almurnet v.1.7.20251203
#Start time: 2026-01-20 18:11:02

#Version: 2.2.20231116
#Station: R4.6S_Anadyr
#Location: 177.4865 lon 64.73178 lat
#TLE: 1 37849U 11061A   26019.89702167  .00000121  00000+0  78274-4 0  9993
#TLE: 2 37849  98.7817 321.9035 0002338  55.0397 305.0998 14.19526700737401

#Time	Az	El	Level	Level2	SNR	BER	BlckErr	Temp	State	Recorded	gain1	gain2
2026-01-20 18:11:02.56	37.28	0.15	-52.9	-66.7	3.3	1.54e+00	0	41	0	0	60	78047
2026-01-20 18:11:06.59	37.00	0.36	-51.9	-67.1	3.6	1.51e+00	0	41	104	0	60	82251
2026-01-20 18:11:10.64	36.72	0.56	-51.5	-66.8	3.6	1.51e+00	0	41	104	0	60	78636
2026-01-20 18:11:14.68	36.44	0.77	-51.4	-66.6	3.6	1.51e+00	0	41	104	0	60	77064
2026-01-20 18:11:18.72	36.15	0.98	-51.0	-66.2	3.6	1.51e+00	0	41	104	0	60	74158
2026-01-20 18:11:22.76	35.86	1.19	-50.4	-65.6	3.6	1.51e+00	0	41	104	0	60	68645
2026-01-20 18:11:26.80	35.56	1.40	-49.6	-64.8	3.5	1.51e+00	0	41	104	0	60	62556
2026-01-20 18:11:30.84	35.26	1.61	-49.6	-64.8	3.6	1.51e+00	0	41	104	0	60	62660
2026-01-20 18:11:34.88	34.95	1.82	-49.6	-64.8	3.6	1.51e+00	0	41	104	0	60	62868
2026-01-20 18:11:38.92	34.64	2.03	-49.6	-64.6	3.6	1.51e+00	0	41	104	0	60	61487
2026-01-20 18:11:42.96	34.33	2.25	-49.6	-64.8	3.6	1.51e+00	0	41	104	0	60	62625
2026-01-20 18:11:47.00	34.01	2.46	-49.6	-64.8	3.6	1.51e+00	0	42	104	0	60	62600
2026-01-20 18:11:51.04	33.68	2.68	-49.5	-63.1	3.6	1.51e+00	0	42	104	0	60	51566
2026-01-20 18:11:55.08	33.35	2.89	-49.4	-61.2	3.7	1.50e+00	0	42	104	0	60	41512
2026-01-20 18:11:59.12	33.02	3.11	-49.6	-64.2	3.6	1.51e+00	0	42	104	4194304	60	58461
2026-01-20 18:12:03.15	32.68	3.32	-45.6	-48.2	15.4	1.50e-06	76	42	0	5242880	60	9289
2026-01-20 18:12:07.19	32.33	3.54	-46.5	-49.6	13.8	0.00e+00	0	42	0	12582912	60	10950
2026-01-20 18:12:11.23	31.98	3.76	-44.3	-46.2	17.6	0.00e+00	0	42	0	19922944	60	7364
2026-01-20 18:12:15.27	31.62	3.98	-42.4	-43.7	20.0	0.00e+00	12	42	0	27262976	60	5552
2026-01-20 18:12:19.31	31.26	4.20	-45.1	-47.3	16.6	0.00e+00	0	42	0	35651584	60	8334
2026-01-20 18:12:23.35	30.89	4.42	-44.0	-45.8	18.1	0.00e+00	0	42	0	42991616	60	7051
2026-01-20 18:12:27.39	30.52	4.64	-43.7	-45.4	18.3	0.00e+00	0	42	0	50331648	60	6735
2026-01-20 18:12:31.43	30.14	4.86	-44.8	-46.8	17.6	0.00e+00	79	42	0	57671680	60	7878
2026-01-20 18:12:35.46	29.75	5.08	-44.5	-46.4	17.7	0.00e+00	0	42	0	65011712	60	7539
2026-01-20 18:12:39.50	29.36	5.31	-44.1	-45.8	18.2	0.00e+00	0	42	0	73400320	60	7026
2026-01-20 18:12:43.54	28.96	5.53	-44.2	-46.0	17.9	0.00e+00	25	42	0	80740352	60	7206
2026-01-20 18:12:47.59	28.56	5.76	-44.5	-46.3	17.7	0.00e+00	80	42	0	88080384	60	7495
2026-01-20 18:12:51.63	28.15	5.98	-43.8	-45.5	18.4	0.00e+00	0	42	0	95420416	60	6798
2026-01-20 18:12:55.67	27.73	6.21	-44.8	-46.7	17.4	0.00e+00	0	42	0	103809024	60	7827
2026-01-20 18:12:59.71	27.31	6.43	-44.1	-45.7	18.8	0.00e+00	1	42	0	111149056	60	6985
2026-01-20 18:13:03.75	26.88	6.66	-44.4	-46.3	18.1	0.00e+00	0	42	0	118489088	60	7430
2026-01-20 18:13:07.78	26.44	6.88	-44.5	-46.3	18.0	0.00e+00	0	42	0	125829120	60	7489
2026-01-20 18:13:11.83	25.99	7.11	-44.1	-45.8	18.5	0.00e+00	0	42	0	133169152	60	7009
2026-01-20 18:13:15.87	25.54	7.34	-44.2	-45.9	18.4	0.00e+00	90	42	0	141557760	60	7168
2026-01-20 18:13:19.90	25.08	7.57	-44.0	-45.7	18.8	0.00e+00	0	42	0	148897792	60	6937
2026-01-20 18:13:23.94	24.61	7.79	-43.9	-45.5	18.9	0.00e+00	0	42	0	156237824	60	6822
2026-01-20 18:13:27.99	24.14	8.02	-43.4	-45.0	19.4	0.00e+00	0	42	0	163577856	60	6407
2026-01-20 18:13:32.03	23.66	8.25	-43.6	-45.2	19.3	0.00e+00	92	42	0	171966464	60	6567
2026-01-20 18:13:36.07	23.17	8.48	-43.9	-45.5	19.0	0.00e+00	0	42	0	179306496	60	6834
2026-01-20 18:13:40.11	22.67	8.71	-44.1	-45.8	18.8	0.00e+00	5	42	0	186646528	60	7042
2026-01-20 18:13:44.15	22.16	8.94	-43.2	-44.6	19.9	0.00e+00	0	42	0	193986560	60	6125
2026-01-20 18:13:48.18	21.65	9.16	-43.2	-44.6	19.8	0.00e+00	0	42	0	201326592	58	6914
2026-01-20 18:13:52.22	21.12	9.39	-43.0	-44.4	20.1	0.00e+00	0	42	0	209715200	58	6709
2026-01-20 18:13:56.26	20.59	9.62	-42.7	-44.0	20.5	0.00e+00	0	42	0	217055232	58	6418
2026-01-20 18:14:00.30	20.05	9.85	-43.0	-44.3	20.1	0.00e+00	57	42	0	224395264	58	6686
2026-01-20 18:14:04.34	19.50	10.07	-43.1	-44.5	20.0	0.00e+00	0	42	0	231735296	58	6801
2026-01-20 18:14:08.37	18.95	10.30	-43.2	-44.6	19.8	0.00e+00	0	42	0	240123904	58	6892
2026-01-20 18:14:12.41	18.38	10.52	-42.5	-43.8	20.7	0.00e+00	0	42	0	247463936	58	6264
2026-01-20 18:14:16.45	17.81	10.75	-43.0	-44.3	20.1	0.00e+00	76	42	0	254803968	58	6664
2026-01-20 18:14:20.49	17.22	10.97	-42.9	-44.2	20.3	0.00e+00	0	42	0	262144000	58	6572
2026-01-20 18:14:24.53	16.63	11.20	-43.0	-44.3	20.2	0.00e+00	0	42	0	269484032	58	6671
2026-01-20 18:14:28.57	16.03	11.42	-43.0	-44.3	20.2	0.00e+00	49	42	0	277872640	58	6671
2026-01-20 18:14:32.60	15.42	11.64	-43.5	-45.0	19.6	0.00e+00	7	42	0	285212672	58	7224
2026-01-20 18:14:36.64	14.80	11.86	-43.2	-44.6	20.0	0.00e+00	0	42	0	292552704	58	6907
2026-01-20 18:14:40.68	14.16	12.08	-42.8	-44.1	20.4	0.00e+00	0	42	0	299892736	58	6539
2026-01-20 18:14:44.72	13.52	12.30	-42.8	-44.2	20.5	0.00e+00	0	42	0	308281344	58	6543
2026-01-20 18:14:48.76	12.87	12.51	-43.0	-44.4	20.2	0.00e+00	0	42	0	315621376	58	6721
2026-01-20 18:14:52.80	12.21	12.72	-41.7	-42.9	21.2	0.00e+00	0	42	0	322961408	58	5660
2026-01-20 18:14:56.84	11.54	12.94	-41.7	-42.8	21.5	0.00e+00	0	42	0	330301440	56	6276
2026-01-20 18:15:00.88	10.87	13.14	-40.9	-42.0	22.2	0.00e+00	92	42	0	337641472	56	5707
2026-01-20 18:15:04.92	10.18	13.35	-41.4	-42.5	21.7	0.00e+00	0	42	0	346030080	56	6048
2026-01-20 18:15:08.96	9.48	13.56	-41.0	-42.0	22.1	0.00e+00	0	42	0	353370112	56	5751
2026-01-20 18:15:13.00	8.77	13.76	-41.3	-42.4	21.9	0.00e+00	0	42	0	360710144	56	5973
2026-01-20 18:15:17.04	8.05	13.96	-41.6	-42.7	21.8	0.00e+00	64	42	0	368050176	56	6191
2026-01-20 18:15:21.08	7.32	14.15	-41.7	-42.8	21.5	0.00e+00	0	42	0	376438784	56	6301
2026-01-20 18:15:25.11	6.58	14.35	-41.4	-42.5	21.9	0.00e+00	0	42	0	383778816	56	6097
2026-01-20 18:15:29.15	5.84	14.54	-40.7	-41.7	22.5	0.00e+00	7	42	0	391118848	54	6200
2026-01-20 18:15:33.18	5.08	14.72	-39.7	-40.6	23.4	0.00e+00	0	42	0	398458880	52	6155
2026-01-20 18:15:37.22	4.31	14.90	-40.3	-41.3	22.9	0.00e+00	0	42	0	405798912	52	6616
2026-01-20 18:15:41.26	3.54	15.08	-40.8	-41.8	22.4	0.00e+00	0	42	0	414187520	54	6299
2026-01-20 18:15:45.30	2.75	15.26	-40.7	-41.8	22.4	0.00e+00	92	42	0	421527552	54	6262
2026-01-20 18:15:49.34	1.95	15.43	-40.5	-41.5	22.7	0.00e+00	0	42	0	428867584	54	6067
2026-01-20 18:15:53.37	1.15	15.59	-40.8	-41.8	22.5	0.00e+00	0	42	0	436207616	54	6283
2026-01-20 18:15:57.42	0.34	15.75	-40.7	-41.7	22.6	0.00e+00	0	42	0	444596224	54	6191
2026-01-20 18:16:01.46	359.51	15.91	-40.3	-41.3	22.9	0.00e+00	57	42	0	451936256	54	5928
2026-01-20 18:16:05.50	358.68	16.06	-41.0	-42.1	22.3	0.00e+00	0	42	0	459276288	54	6518
2026-01-20 18:16:09.53	357.85	16.21	-40.4	-41.4	22.8	0.00e+00	0	42	0	466616320	54	6019
2026-01-20 18:16:13.57	357.00	16.35	-40.2	-41.1	22.7	0.00e+00	0	42	0	473956352	54	5802
2026-01-20 18:16:17.61	356.14	16.48	-39.4	-40.2	23.6	0.00e+00	5	42	0	482344960	52	5883
2026-01-20 18:16:21.65	355.28	16.61	-39.7	-40.6	23.4	0.00e+00	0	42	0	489684992	52	6143
2026-01-20 18:16:25.68	354.41	16.73	-39.9	-40.9	23.2	0.00e+00	0	42	0	497025024	52	6326
2026-01-20 18:16:29.72	353.53	16.85	-40.6	-41.6	22.6	0.00e+00	92	42	0	504365056	54	6156
2026-01-20 18:16:33.76	352.65	16.96	-40.3	-41.3	22.9	0.00e+00	0	42	0	512753664	54	5903
2026-01-20 18:16:37.80	351.76	17.06	-40.8	-41.8	22.3	0.00e+00	0	42	0	520093696	54	6276
2026-01-20 18:16:41.84	350.86	17.16	-40.7	-41.7	22.5	0.00e+00	0	42	0	527433728	54	6195
2026-01-20 18:16:45.87	349.96	17.25	-41.0	-42.0	22.3	0.00e+00	92	42	0	534773760	54	6430
2026-01-20 18:16:49.91	349.06	17.33	-40.0	-40.9	23.2	0.00e+00	0	42	0	542113792	54	5634
2026-01-20 18:16:53.95	348.14	17.41	-40.8	-41.8	22.5	0.00e+00	0	42	0	550502400	54	6267
2026-01-20 18:16:57.99	347.23	17.48	-40.2	-41.2	23.0	0.00e+00	0	42	0	557842432	54	5833
2026-01-20 18:17:02.02	346.31	17.54	-40.9	-41.9	22.4	0.00e+00	65	42	0	565182464	54	6357
2026-01-20 18:17:06.06	345.38	17.59	-42.1	-43.4	21.3	0.00e+00	0	42	0	572522496	56	6699
2026-01-20 18:17:10.10	344.46	17.64	-41.9	-43.1	21.5	0.00e+00	0	42	0	579862528	56	6527
2026-01-20 18:17:14.14	343.53	17.68	-41.2	-42.2	22.3	0.00e+00	93	42	0	588251136	56	5872
2026-01-20 18:17:18.17	342.60	17.71	-41.2	-42.2	22.4	0.00e+00	0	42	0	595591168	56	5858
2026-01-20 18:17:22.21	341.66	17.73	-41.3	-42.3	22.3	0.00e+00	0	42	0	602931200	56	5957
2026-01-20 18:17:26.25	340.73	17.74	-40.4	-41.4	22.9	0.00e+00	0	42	0	610271232	54	5972
2026-01-20 18:17:30.29	339.79	17.75	-41.1	-42.2	22.1	0.00e+00	92	42	0	618659840	54	6572
2026-01-20 18:17:34.33	338.86	17.75	-41.3	-42.4	22.1	0.00e+00	0	42	0	625999872	54	6713
2026-01-20 18:17:38.36	337.92	17.74	-40.3	-41.3	23.0	0.00e+00	0	42	0	633339904	54	5911
2026-01-20 18:17:42.40	336.99	17.72	-40.5	-41.5	22.8	0.00e+00	0	42	0	640679936	54	6077
2026-01-20 18:17:46.44	336.06	17.70	-41.1	-42.2	22.3	0.00e+00	36	42	0	648019968	54	6585
2026-01-20 18:17:50.48	335.12	17.67	-41.2	-42.3	22.1	0.00e+00	0	42	0	656408576	54	6630
2026-01-20 18:17:54.52	334.19	17.63	-40.9	-41.9	22.5	0.00e+00	0	42	0	663748608	54	6385
2026-01-20 18:17:58.56	333.27	17.58	-40.7	-41.7	22.6	0.00e+00	63	42	0	671088640	54	6206
2026-01-20 18:18:02.60	332.34	17.53	-40.4	-41.4	22.8	0.00e+00	0	42	0	678428672	54	5990
2026-01-20 18:18:06.64	331.42	17.46	-40.9	-41.9	22.6	0.00e+00	0	42	0	686817280	54	6356
2026-01-20 18:18:10.67	330.51	17.39	-40.3	-41.3	23.0	0.00e+00	0	42	0	694157312	54	5926
2026-01-20 18:18:14.70	329.60	17.32	-40.3	-41.3	22.9	0.00e+00	14	42	0	701497344	54	5916
2026-01-20 18:18:18.74	328.69	17.23	-40.2	-41.1	22.9	0.00e+00	0	42	0	708837376	54	5791
2026-01-20 18:18:22.78	327.79	17.14	-40.5	-41.4	22.9	0.00e+00	0	42	0	716177408	54	6021
2026-01-20 18:18:26.82	326.90	17.04	-40.8	-41.8	22.7	0.00e+00	0	42	0	724566016	54	6276
2026-01-20 18:18:30.86	326.01	16.94	-40.7	-41.7	22.7	0.00e+00	91	42	0	731906048	54	6209
2026-01-20 18:18:34.89	325.13	16.83	-40.7	-41.7	22.6	0.00e+00	0	42	0	739246080	54	6204
2026-01-20 18:18:38.93	324.25	16.71	-40.6	-41.6	23.0	0.00e+00	0	42	0	746586112	54	6122
2026-01-20 18:18:42.97	323.38	16.58	-41.0	-42.0	22.6	0.00e+00	3	42	0	754974720	54	6444
2026-01-20 18:18:47.01	322.52	16.45	-40.9	-41.9	22.6	0.00e+00	92	42	0	762314752	54	6350
2026-01-20 18:18:51.04	321.66	16.32	-42.0	-43.1	21.6	0.00e+00	0	42	0	769654784	56	6517
2026-01-20 18:18:55.08	320.82	16.18	-42.0	-43.1	21.6	0.00e+00	8	42	0	776994816	56	6529
2026-01-20 18:18:59.12	319.98	16.03	-41.2	-42.2	22.2	0.00e+00	65	42	0	784334848	56	5874
2026-01-20 18:19:03.15	319.15	15.88	-41.2	-42.3	22.3	0.00e+00	0	42	0	792723456	56	5916
2026-01-20 18:19:07.19	318.33	15.72	-41.3	-42.4	21.9	0.00e+00	0	42	0	800063488	56	5971
2026-01-20 18:19:11.23	317.52	15.56	-40.4	-41.3	23.0	0.00e+00	0	42	0	807403520	54	5928
2026-01-20 18:19:15.27	316.71	15.39	-40.4	-41.3	23.0	0.00e+00	77	42	0	814743552	54	5928
2026-01-20 18:19:19.31	315.92	15.22	-41.0	-42.1	22.5	0.00e+00	0	42	0	823132160	54	6487
2026-01-20 18:19:23.35	315.13	15.05	-42.7	-43.9	20.8	0.00e+00	0	42	0	830472192	56	7130
2026-01-20 18:19:27.39	314.36	14.87	-42.3	-43.5	21.1	0.00e+00	0	42	0	837812224	58	6082
2026-01-20 18:19:31.43	313.59	14.68	-42.2	-43.4	21.5	0.00e+00	90	42	0	845152256	58	5968
2026-01-20 18:19:35.47	312.84	14.50	-42.2	-43.4	21.5	0.00e+00	0	42	0	852492288	58	5967
2026-01-20 18:19:39.51	312.09	14.30	-41.5	-42.5	22.1	0.00e+00	0	42	0	860880896	56	6095
2026-01-20 18:19:43.54	311.35	14.11	-41.3	-42.4	22.0	0.00e+00	0	42	0	868220928	56	5968
2026-01-20 18:19:47.58	310.63	13.91	-40.7	-41.6	22.7	0.00e+00	17	42	0	875560960	54	6133
2026-01-20 18:19:51.61	309.91	13.71	-41.1	-42.1	22.5	0.00e+00	0	42	0	882900992	54	6490
2026-01-20 18:19:55.65	309.20	13.51	-41.6	-42.6	21.9	0.00e+00	0	42	0	891289600	54	6892
2026-01-20 18:19:59.69	308.50	13.31	-41.3	-42.4	22.1	0.00e+00	40	42	0	898629632	54	6693
2026-01-20 18:20:03.74	307.81	13.10	-41.9	-43.0	21.5	0.00e+00	0	42	0	905969664	56	6440
2026-01-20 18:20:07.78	307.14	12.89	-43.9	-45.4	19.5	0.00e+00	0	42	0	913309696	60	6737
2026-01-20 18:20:11.81	306.47	12.68	-44.0	-45.6	19.3	0.00e+00	0	42	0	920649728	60	6849
2026-01-20 18:20:15.85	305.81	12.46	-43.5	-44.9	19.9	0.00e+00	92	42	0	929038336	60	6384
2026-01-20 18:20:19.89	305.16	12.25	-43.1	-44.4	20.5	0.00e+00	0	42	0	936378368	60	5995
2026-01-20 18:20:23.93	304.52	12.03	-42.5	-43.7	21.0	0.00e+00	0	42	0	943718400	58	6176
2026-01-20 18:20:27.97	303.89	11.81	-42.9	-44.2	20.3	0.00e+00	4	42	0	951058432	58	6544
2026-01-20 18:20:32.00	303.27	11.59	-42.4	-43.6	21.0	0.00e+00	65	42	0	959447040	58	6128
2026-01-20 18:20:36.04	302.66	11.37	-41.7	-42.8	21.5	0.00e+00	0	42	0	966787072	56	6294
2026-01-20 18:20:40.08	302.06	11.15	-41.9	-43.0	21.4	0.00e+00	0	42	0	974127104	56	6439
2026-01-20 18:20:44.11	301.47	10.92	-42.2	-43.4	21.2	0.00e+00	9	42	0	981467136	56	6699
2026-01-20 18:20:48.15	300.88	10.70	-42.4	-43.6	20.9	0.00e+00	3	42	0	988807168	56	6863
2026-01-20 18:20:52.19	300.31	10.47	-42.3	-43.5	21.0	0.00e+00	0	42	0	997195776	56	6805
2026-01-20 18:20:56.24	299.74	10.25	-41.7	-42.8	21.6	0.00e+00	0	42	0	1004535808	56	6257
2026-01-20 18:21:00.28	299.19	10.02	-41.1	-42.1	22.2	0.00e+00	64	42	0	1011875840	56	5821
2026-01-20 18:21:04.31	298.64	9.79	-40.8	-41.8	22.3	0.00e+00	0	42	0	1019215872	54	6311
2026-01-20 18:21:08.35	298.10	9.57	-40.7	-41.7	22.4	0.00e+00	0	42	0	1027604480	54	6204
2026-01-20 18:21:12.39	297.57	9.34	-40.7	-41.8	22.4	0.00e+00	0	42	0	1034944512	54	6251
2026-01-20 18:21:16.43	297.05	9.11	-40.6	-41.6	22.4	0.00e+00	88	42	0	1042284544	54	6149
2026-01-20 18:21:20.47	296.53	8.88	-40.5	-41.5	22.6	0.00e+00	0	42	0	1049624576	54	6047
2026-01-20 18:21:24.51	296.03	8.65	-41.2	-42.3	21.8	0.00e+00	0	42	0	1056964608	54	6662
2026-01-20 18:21:28.55	295.53	8.43	-42.0	-43.2	21.0	0.00e+00	89	42	0	1065353216	56	6561
2026-01-20 18:21:32.59	295.04	8.20	-42.1	-43.3	20.9	0.00e+00	0	42	0	1072693248	56	6628
2026-01-20 18:21:36.62	294.56	7.97	-42.3	-43.6	20.6	0.00e+00	0	42	0	1080033280	56	6866
2026-01-20 18:21:40.66	294.08	7.74	-42.5	-43.7	20.6	0.00e+00	0	42	0	1087373312	58	6227
2026-01-20 18:21:44.70	293.62	7.51	-41.2	-42.2	22.0	0.00e+00	91	43	0	1095761920	56	5880
2026-01-20 18:21:48.74	293.16	7.28	-41.5	-42.6	21.5	0.00e+00	0	42	0	1103101952	56	6144
2026-01-20 18:21:52.77	292.71	7.06	-42.2	-43.4	20.8	0.00e+00	0	42	0	1110441984	56	6738
2026-01-20 18:21:56.81	292.26	6.83	-42.3	-43.6	20.7	0.00e+00	0	42	0	1117782016	58	6123
2026-01-20 18:22:00.85	291.82	6.60	-41.9	-43.0	21.2	0.00e+00	66	42	0	1125122048	58	5745
2026-01-20 18:22:04.89	291.39	6.38	-41.8	-43.0	21.0	0.00e+00	0	42	0	1133510656	56	6443
2026-01-20 18:22:08.92	290.97	6.15	-42.2	-43.5	20.5	0.00e+00	0	43	0	1140850688	56	6780
2026-01-20 18:22:12.96	290.55	5.93	-43.6	-45.1	19.2	0.00e+00	0	42	0	1148190720	60	6483
2026-01-20 18:22:17.00	290.14	5.70	-42.7	-44.0	20.0	0.00e+00	17	42	0	1155530752	58	6459
2026-01-20 18:22:21.05	289.73	5.48	-43.7	-45.3	19.0	0.00e+00	0	43	0	1163919360	60	6641
2026-01-20 18:22:25.08	289.34	5.25	-43.3	-44.8	19.3	0.00e+00	0	42	0	1171259392	60	6275
2026-01-20 18:22:29.12	288.94	5.03	-43.5	-45.1	18.9	0.00e+00	83	43	0	1178599424	58	7274
2026-01-20 18:22:33.16	288.56	4.81	-43.1	-44.5	19.3	0.00e+00	0	43	0	1185939456	58	6826
2026-01-20 18:22:37.19	288.18	4.59	-44.3	-46.1	17.5	0.00e+00	0	43	0	1193279488	60	7294
2026-01-20 18:22:41.23	287.81	4.37	-43.7	-45.4	18.0	0.00e+00	0	42	0	1201668096	60	6734
2026-01-20 18:22:45.28	287.44	4.14	-44.6	-46.6	17.3	0.00e+00	91	42	0	1209008128	60	7750
2026-01-20 18:22:49.31	287.08	3.93	-44.3	-46.2	17.9	0.00e+00	0	42	0	1216348160	60	7383
2026-01-20 18:22:53.35	286.72	3.71	-45.1	-47.4	16.6	0.00e+00	0	42	0	1223688192	60	8425
2026-01-20 18:22:57.39	286.37	3.49	-45.2	-47.4	15.4	0.00e+00	0	43	0	1232076800	60	8511
2026-01-20 18:23:01.43	286.02	3.27	-41.9	-43.2	20.3	0.00e+00	89	42	0	1239416832	56	6560
2026-01-20 18:23:05.47	285.68	3.05	-42.8	-44.3	19.2	0.00e+00	0	43	0	1246756864	60	5960
2026-01-20 18:23:09.51	285.34	2.84	-50.9	-66.1	3.6	1.51e+00	0	43	104	1248854016	60	72656
2026-01-20 18:23:13.55	285.01	2.62	-51.2	-66.4	3.6	1.51e+00	0	43	104	1248854016	60	75450
2026-01-20 18:23:17.58	284.69	2.41	-51.3	-66.5	3.6	1.51e+00	0	43	104	1248854016	60	76616
2026-01-20 18:23:21.62	284.37	2.19	-51.2	-66.5	3.6	1.51e+00	0	43	104	1248854016	60	76138
2026-01-20 18:23:25.66	284.05	1.98	-51.2	-66.5	3.6	1.51e+00	0	43	104	1248854016	60	75988
2026-01-20 18:23:29.70	283.74	1.77	-51.3	-66.6	3.6	1.51e+00	0	43	104	1248854016	60	77100
2026-01-20 18:23:33.74	283.43	1.56	-51.3	-66.5	3.6	1.51e+00	0	43	104	1248854016	60	76482
2026-01-20 18:23:37.78	283.13	1.35	-51.3	-66.6	3.6	1.51e+00	0	43	104	1248854016	60	76950
2026-01-20 18:23:41.82	282.83	1.14	-51.4	-66.5	3.6	1.51e+00	0	43	104	1248854016	60	76450
2026-01-20 18:23:45.86	282.54	0.93	-51.3	-66.5	3.6	1.51e+00	0	43	104	1248854016	60	76464
2026-01-20 18:23:49.90	282.25	0.72	-51.3	-66.5	3.6	1.51e+00	0	43	104	1248854016	60	76524
2026-01-20 18:23:53.93	281.97	0.51	-51.3	-66.6	3.6	1.51e+00	0	43	104	1248854016	60	77031
2026-01-20 18:23:57.97	281.69	0.31	-51.3	-66.5	3.6	1.51e+00	0	43	104	1248854016	60	76543
2026-01-20 18:24:02.02	281.41	0.10	-51.4	-66.6	3.6	1.51e+00	0	43	104	1248854016	60	77083

#Closed at: 2026-01-20 18:24:04
#Recorded file [1248 MB]: D:/lorett/data/35029_260121_061102.dat