passes_logs/2026/01/20/R4.6S_Anadyr/R4.6S_Anadyr__20260120_190928_FENGYUN_3D_rec.log

#Pass ID: 20260120_190928_FENGYUN 3D
#Satellite: FENGYUN 3D
#Configuration: FENGYUN 3D
#almurnet v.1.7.20251203
#Start time: 2026-01-20 19:09:31

#Version: 2.2.20231116
#Station: R4.6S_Anadyr
#Location: 177.4865 lon 64.73178 lat
#TLE: 1 43010U 17072A   26019.93695019 -.00000250  00000+0 -96545-4 0  9996
#TLE: 2 43010  98.9942 351.8290 0002452 100.7901 259.3550 14.19695974423957

#Time	Az	El	Level	Level2	SNR	BER	BlckErr	Temp	State	Recorded	gain1	gain2
2026-01-20 19:09:31.88	30.00	0.17	-52.1	-62.8	3.3	8.41e-01	0	41	0	0	60	50179
2026-01-20 19:09:35.92	29.79	0.40	-51.5	-63.7	3.6	8.45e-01	0	41	104	0	60	55451
2026-01-20 19:09:39.96	29.57	0.62	-51.3	-63.4	3.6	8.46e-01	0	41	104	0	60	53723
2026-01-20 19:09:44.00	29.35	0.84	-51.1	-63.2	3.6	8.45e-01	0	41	104	0	60	52343
2026-01-20 19:09:48.04	29.13	1.07	-50.7	-62.8	3.6	8.45e-01	0	41	104	0	60	50110
2026-01-20 19:09:52.08	28.91	1.30	-49.9	-62.0	3.6	8.44e-01	0	41	104	0	60	45640
2026-01-20 19:09:56.12	28.68	1.53	-49.5	-61.6	3.6	8.45e-01	0	41	104	0	60	43255
2026-01-20 19:10:00.16	28.44	1.76	-49.5	-61.6	3.6	8.46e-01	0	41	104	0	60	43305
2026-01-20 19:10:04.20	28.21	1.99	-49.4	-61.1	3.6	8.46e-01	0	41	104	0	60	40835
2026-01-20 19:10:08.24	27.97	2.22	-49.4	-61.3	3.6	8.44e-01	0	42	104	0	60	42046
2026-01-20 19:10:12.29	27.72	2.46	-49.4	-61.5	3.6	8.46e-01	0	42	104	0	60	43091
2026-01-20 19:10:16.33	27.47	2.69	-49.4	-60.8	3.6	8.47e-01	0	42	104	0	60	39601
2026-01-20 19:10:20.37	27.22	2.93	-49.4	-61.1	3.6	8.46e-01	0	42	104	0	60	40823
2026-01-20 19:10:24.41	26.96	3.17	-47.0	-50.3	10.0	7.79e-03	0	41	0	8388608	60	11877
2026-01-20 19:10:28.45	26.70	3.41	-47.2	-50.9	5.8	8.44e-01	0	42	104	26214400	60	12623
2026-01-20 19:10:32.49	26.43	3.65	-42.3	-43.6	17.8	0.00e+00	0	42	0	30408704	56	6855
2026-01-20 19:10:36.53	26.16	3.89	-40.3	-41.3	19.4	0.00e+00	0	42	0	53477376	52	6621
2026-01-20 19:10:40.57	25.88	4.14	-38.3	-39.2	21.6	0.00e+00	0	42	0	76546048	50	5832
2026-01-20 19:10:44.61	25.60	4.39	-38.8	-39.7	21.3	0.00e+00	0	42	0	99614720	52	5512
2026-01-20 19:10:48.65	25.31	4.63	-38.4	-39.2	21.5	0.00e+00	0	42	0	121634816	48	6581
2026-01-20 19:10:52.69	25.02	4.88	-37.3	-38.0	22.7	0.00e+00	0	42	0	144703488	48	5752
2026-01-20 19:10:56.73	24.72	5.13	-39.1	-40.0	21.2	0.00e+00	0	42	0	167772160	50	6393
2026-01-20 19:11:00.78	24.42	5.39	-38.5	-39.4	21.7	0.00e+00	0	42	0	189792256	50	5988
2026-01-20 19:11:04.82	24.11	5.64	-38.1	-38.9	22.2	0.00e+00	0	42	0	212860928	48	6348
2026-01-20 19:11:08.85	23.80	5.90	-38.1	-38.9	22.3	0.00e+00	0	42	0	235929600	48	6339
2026-01-20 19:11:12.89	23.48	6.16	-37.9	-38.7	22.4	0.00e+00	0	42	0	257949696	48	6206
2026-01-20 19:11:16.93	23.15	6.42	-38.5	-39.3	22.0	0.00e+00	0	42	0	281018368	48	6634
2026-01-20 19:11:20.97	22.82	6.68	-38.3	-39.1	22.3	0.00e+00	0	42	0	304087040	50	5828
2026-01-20 19:11:25.00	22.48	6.94	-38.3	-39.1	22.2	0.00e+00	0	42	0	326107136	48	6511
2026-01-20 19:11:29.05	22.14	7.20	-37.4	-38.2	23.0	0.00e+00	0	42	0	349175808	48	5838
2026-01-20 19:11:33.09	21.78	7.47	-37.7	-38.5	22.8	0.00e+00	0	42	0	372244480	48	6064
2026-01-20 19:11:37.13	21.43	7.74	-37.2	-37.9	23.3	0.00e+00	0	42	0	394264576	48	5680
2026-01-20 19:11:41.17	21.06	8.01	-37.3	-38.1	23.1	0.00e+00	0	42	0	417333248	48	5781
2026-01-20 19:11:45.21	20.69	8.28	-37.0	-37.7	23.6	0.00e+00	0	42	0	440401920	48	5536
2026-01-20 19:11:49.24	20.31	8.55	-36.9	-37.7	23.7	0.00e+00	0	42	0	462422016	46	6204
2026-01-20 19:11:53.28	19.92	8.83	-37.1	-37.8	23.5	0.00e+00	0	42	0	485490688	46	6287
2026-01-20 19:11:57.32	19.53	9.11	-37.2	-37.9	23.4	0.00e+00	0	42	0	508559360	46	6369
2026-01-20 19:12:01.36	19.12	9.38	-36.9	-37.6	23.8	0.00e+00	0	42	0	530579456	46	6154
2026-01-20 19:12:05.40	18.71	9.66	-36.6	-37.3	24.1	0.00e+00	0	42	0	553648128	46	5916
2026-01-20 19:12:09.44	18.29	9.95	-36.7	-37.4	24.0	0.00e+00	0	42	0	576716800	46	6007
2026-01-20 19:12:13.48	17.87	10.23	-36.6	-37.3	24.1	0.00e+00	0	42	0	598736896	46	5919
2026-01-20 19:12:17.52	17.43	10.52	-36.7	-37.4	24.1	0.00e+00	0	42	0	621805568	46	5976
2026-01-20 19:12:21.56	16.99	10.80	-37.0	-37.8	23.8	0.00e+00	0	42	0	644874240	46	6251
2026-01-20 19:12:25.60	16.53	11.09	-36.7	-37.4	24.2	0.00e+00	0	42	0	666894336	46	5997
2026-01-20 19:12:29.64	16.07	11.38	-36.6	-37.3	24.1	0.00e+00	0	42	0	689963008	46	5932
2026-01-20 19:12:33.68	15.59	11.67	-36.4	-37.1	24.4	0.00e+00	0	42	0	713031680	46	5825
2026-01-20 19:12:37.72	15.11	11.97	-36.4	-37.1	24.4	0.00e+00	0	42	0	735051776	46	5773
2026-01-20 19:12:41.76	14.62	12.26	-36.2	-36.9	24.6	0.00e+00	0	42	0	758120448	46	5689
2026-01-20 19:12:45.80	14.12	12.56	-35.8	-36.5	24.9	0.00e+00	0	42	0	781189120	46	5403
2026-01-20 19:12:49.84	13.60	12.86	-35.8	-36.5	24.9	0.00e+00	0	42	0	803209216	46	5409
2026-01-20 19:12:53.88	13.08	13.15	-35.5	-36.2	25.2	0.00e+00	0	42	0	826277888	44	5866
2026-01-20 19:12:57.92	12.54	13.45	-35.7	-36.4	25.0	0.00e+00	0	42	0	849346560	44	6023
2026-01-20 19:13:01.96	11.99	13.76	-35.7	-36.4	25.1	0.00e+00	0	42	0	871366656	44	5967
2026-01-20 19:13:06.00	11.44	14.06	-35.4	-36.1	25.3	0.00e+00	0	42	0	894435328	44	5796
2026-01-20 19:13:10.04	10.87	14.36	-35.4	-36.1	25.3	0.00e+00	0	42	0	917504000	44	5773
2026-01-20 19:13:14.08	10.28	14.67	-35.2	-35.9	25.6	0.00e+00	0	42	0	939524096	44	5633
2026-01-20 19:13:18.11	9.69	14.97	-35.3	-36.0	25.5	0.00e+00	0	42	0	962592768	44	5733
2026-01-20 19:13:22.16	9.08	15.28	-35.2	-35.8	25.5	0.00e+00	0	42	0	985661440	44	5610
2026-01-20 19:13:26.20	8.46	15.58	-35.0	-35.7	25.7	0.00e+00	0	42	0	1008730112	44	5555
2026-01-20 19:13:30.24	7.83	15.89	-34.9	-35.5	25.9	0.00e+00	0	42	0	1030750208	44	5420
2026-01-20 19:13:34.28	7.18	16.19	-34.8	-35.5	26.1	0.00e+00	0	42	0	1053818880	42	6071
2026-01-20 19:13:38.32	6.52	16.50	-35.0	-35.6	25.9	0.00e+00	0	42	0	1075838976	42	6168
2026-01-20 19:13:42.36	5.85	16.81	-34.9	-35.5	26.0	0.00e+00	0	42	0	1098907648	42	6079
2026-01-20 19:13:46.40	5.16	17.11	-35.1	-35.8	25.8	0.00e+00	0	42	0	1121976320	42	6273
2026-01-20 19:13:50.44	4.46	17.42	-34.9	-35.5	26.0	0.00e+00	0	42	0	1143996416	42	6100
2026-01-20 19:13:54.48	3.74	17.72	-34.6	-35.3	26.2	0.00e+00	0	42	0	1167065088	42	5943
2026-01-20 19:13:58.53	3.00	18.03	-34.4	-35.0	26.5	0.00e+00	0	42	0	1190133760	42	5760
2026-01-20 19:14:02.57	2.26	18.33	-34.4	-35.0	26.4	0.00e+00	0	42	0	1213202432	42	5760
2026-01-20 19:14:06.61	1.50	18.63	-34.5	-35.1	26.4	0.00e+00	0	42	0	1235222528	42	5819
2026-01-20 19:14:10.65	0.72	18.93	-34.4	-35.1	26.4	0.00e+00	0	42	0	1258291200	42	5788
2026-01-20 19:14:14.69	359.92	19.23	-34.3	-35.0	26.5	0.00e+00	0	42	0	1280311296	42	5696
2026-01-20 19:14:18.73	359.11	19.52	-34.7	-35.4	26.2	0.00e+00	0	42	0	1303379968	42	6023
2026-01-20 19:14:22.77	358.29	19.81	-33.9	-34.6	26.8	0.00e+00	0	42	0	1326448640	42	5454
2026-01-20 19:14:26.80	357.45	20.10	-33.6	-34.2	27.0	0.00e+00	0	42	0	1349517312	40	5892
2026-01-20 19:14:30.85	356.59	20.39	-33.3	-33.9	27.2	0.00e+00	0	42	0	1371537408	40	5689
2026-01-20 19:14:34.89	355.72	20.67	-33.7	-34.3	26.9	0.00e+00	0	42	0	1394606080	40	5959
2026-01-20 19:14:38.93	354.83	20.95	-33.7	-34.4	26.8	0.00e+00	0	42	0	1417674752	40	5969
2026-01-20 19:14:42.97	353.92	21.22	-33.9	-34.4	26.9	0.00e+00	0	42	0	1439694848	40	6033
2026-01-20 19:14:47.01	353.00	21.49	-34.2	-34.8	26.6	0.00e+00	0	42	0	1462763520	40	6300
2026-01-20 19:14:51.05	352.06	21.76	-33.9	-34.5	26.7	0.00e+00	0	42	0	1485832192	40	6076
2026-01-20 19:14:55.10	351.10	22.01	-34.7	-35.3	26.3	0.00e+00	0	42	0	1507852288	42	5958
2026-01-20 19:14:59.14	350.13	22.27	-34.3	-35.0	26.6	0.00e+00	0	42	0	1530920960	42	5702
2026-01-20 19:15:03.18	349.14	22.51	-33.5	-34.2	27.2	0.00e+00	0	42	0	1553989632	40	5840
2026-01-20 19:15:07.21	348.14	22.75	-33.5	-34.2	27.4	0.00e+00	0	42	0	1576009728	40	5832
2026-01-20 19:15:11.25	347.13	22.98	-33.7	-34.4	27.1	0.00e+00	0	42	0	1599078400	40	5986
2026-01-20 19:15:15.29	346.09	23.20	-33.5	-34.2	27.3	0.00e+00	0	42	0	1622147072	40	5845
2026-01-20 19:15:19.33	345.05	23.42	-33.4	-34.0	27.4	0.00e+00	0	42	0	1644167168	40	5759
2026-01-20 19:15:23.37	343.98	23.62	-33.4	-34.0	27.4	0.00e+00	0	42	0	1667235840	40	5738
2026-01-20 19:15:27.40	342.91	23.82	-33.2	-33.8	27.6	0.00e+00	0	42	0	1690304512	40	5583
2026-01-20 19:15:31.44	341.82	24.00	-33.4	-34.1	27.3	0.00e+00	0	42	0	1712324608	40	5779
2026-01-20 19:15:35.48	340.72	24.18	-33.1	-33.7	27.6	0.00e+00	0	42	0	1735393280	40	5561
2026-01-20 19:15:39.52	339.60	24.35	-32.9	-33.5	27.8	0.00e+00	0	42	0	1758461952	40	5434
2026-01-20 19:15:43.56	338.48	24.50	-33.2	-33.8	27.6	0.00e+00	0	42	0	1780482048	40	5617
2026-01-20 19:15:47.60	337.34	24.65	-33.5	-34.1	27.3	0.00e+00	0	42	0	1803550720	40	5822
2026-01-20 19:15:51.64	336.19	24.78	-33.3	-34.0	27.4	0.00e+00	0	42	0	1826619392	40	5707
2026-01-20 19:15:55.68	335.04	24.90	-33.3	-33.9	27.5	0.00e+00	0	42	0	1848639488	40	5653
2026-01-20 19:15:59.72	333.87	25.01	-33.3	-33.9	27.5	0.00e+00	0	42	0	1871708160	40	5676
2026-01-20 19:16:03.76	332.70	25.10	-33.0	-33.6	27.8	0.00e+00	0	42	0	1894776832	40	5485
2026-01-20 19:16:07.80	331.52	25.18	-33.0	-33.6	27.6	0.00e+00	0	42	0	1916796928	40	5491
2026-01-20 19:16:11.84	330.34	25.25	-33.5	-34.2	27.4	0.00e+00	0	42	0	1939865600	40	5853
2026-01-20 19:16:15.88	329.15	25.31	-33.5	-34.2	27.4	0.00e+00	0	42	0	1962934272	40	5846
2026-01-20 19:16:19.92	327.95	25.35	-33.3	-34.0	27.5	0.00e+00	0	42	0	1984954368	40	5710
2026-01-20 19:16:23.97	326.75	25.38	-32.9	-33.5	27.9	0.00e+00	0	42	0	2008023040	40	5390
2026-01-20 19:16:28.01	325.55	25.40	-33.1	-33.8	27.7	0.00e+00	0	42	0	2031091712	40	5567
2026-01-20 19:16:32.05	324.35	25.40	-33.3	-34.0	27.5	0.00e+00	0	42	0	2054160384	40	5719
2026-01-20 19:16:36.09	323.16	25.38	-33.0	-33.6	27.7	0.00e+00	0	42	0	2076180480	40	5496
2026-01-20 19:16:40.13	321.96	25.36	-32.9	-33.5	27.7	0.00e+00	0	42	0	2099249152	40	5404
2026-01-20 19:16:44.17	320.76	25.32	-32.7	-33.3	28.0	0.00e+00	0	42	0	2121269248	38	5919
2026-01-20 19:16:48.22	319.57	25.27	-33.3	-33.9	27.5	0.00e+00	0	42	0	2144337920	38	6328
2026-01-20 19:16:52.26	318.38	25.20	-33.4	-34.0	27.4	0.00e+00	0	42	0	2167406592	38	6420
2026-01-20 19:16:56.30	317.20	25.12	-33.1	-33.7	27.7	0.00e+00	0	42	0	2190475264	38	6235
2026-01-20 19:17:00.34	316.03	25.03	-33.0	-33.6	27.7	0.00e+00	0	42	0	2212495360	38	6168
2026-01-20 19:17:04.38	314.86	24.92	-32.7	-33.4	28.0	0.00e+00	0	42	0	2235564032	38	6002
2026-01-20 19:17:08.43	313.70	24.80	-33.3	-33.9	27.6	0.00e+00	0	42	0	2258632704	38	6357
2026-01-20 19:17:12.47	312.55	24.67	-33.2	-33.8	27.6	0.00e+00	0	42	0	2280652800	38	6307
2026-01-20 19:17:16.51	311.41	24.53	-33.3	-34.0	27.5	0.00e+00	0	42	0	2303721472	38	6394
2026-01-20 19:17:20.55	310.28	24.38	-33.1	-33.7	27.8	0.00e+00	0	42	0	2326790144	38	6207
2026-01-20 19:17:24.59	309.16	24.21	-33.0	-33.6	27.7	0.00e+00	0	42	0	2348810240	38	6104
2026-01-20 19:17:28.63	308.05	24.04	-33.2	-33.7	27.6	0.00e+00	0	42	0	2371878912	38	6229
2026-01-20 19:17:32.66	306.96	23.85	-33.2	-33.9	27.7	0.00e+00	0	42	0	2394947584	38	6347
2026-01-20 19:17:36.70	305.88	23.66	-32.9	-33.4	27.8	0.00e+00	0	42	0	2416967680	38	6005
2026-01-20 19:17:40.74	304.81	23.46	-32.9	-33.5	27.8	0.00e+00	0	42	0	2440036352	38	6045
2026-01-20 19:17:44.78	303.76	23.24	-33.1	-33.8	27.7	0.00e+00	0	42	0	2463105024	38	6261
2026-01-20 19:17:48.82	302.72	23.02	-33.3	-33.9	27.5	0.00e+00	0	42	0	2485125120	38	6365
2026-01-20 19:17:52.86	301.70	22.79	-33.2	-33.8	27.6	0.00e+00	0	42	0	2508193792	38	6247
2026-01-20 19:17:56.90	300.69	22.55	-33.3	-34.0	27.5	0.00e+00	0	42	0	2531262464	38	6398
2026-01-20 19:18:00.95	299.70	22.31	-33.0	-33.6	27.7	0.00e+00	0	42	0	2553282560	38	6157
2026-01-20 19:18:04.99	298.72	22.06	-33.0	-33.7	27.6	0.00e+00	0	42	0	2576351232	38	6176
2026-01-20 19:18:09.03	297.76	21.80	-33.2	-33.9	27.6	0.00e+00	0	42	0	2599419904	38	6349
2026-01-20 19:18:13.07	296.82	21.54	-34.0	-34.5	26.9	0.00e+00	0	42	0	2621440000	40	6079
2026-01-20 19:18:17.12	295.89	21.27	-33.8	-34.4	26.9	0.00e+00	0	42	0	2644508672	40	6000
2026-01-20 19:18:21.16	294.97	21.00	-33.4	-34.0	27.3	0.00e+00	0	42	0	2667577344	40	5719
2026-01-20 19:18:25.20	294.08	20.72	-33.8	-34.3	27.1	0.00e+00	0	42	0	2690646016	40	5954
2026-01-20 19:18:29.25	293.20	20.44	-34.0	-34.7	26.7	0.00e+00	0	42	0	2712666112	40	6185
2026-01-20 19:18:33.29	292.33	20.15	-33.9	-34.4	26.8	0.00e+00	0	42	0	2735734784	40	6025
2026-01-20 19:18:37.33	291.49	19.86	-34.1	-34.8	26.6	0.00e+00	0	42	0	2757754880	40	6264
2026-01-20 19:18:41.37	290.66	19.57	-34.0	-34.6	26.7	0.00e+00	0	42	0	2780823552	40	6113
2026-01-20 19:18:45.41	289.84	19.27	-34.3	-35.0	26.4	0.00e+00	0	42	0	2803892224	40	6431
2026-01-20 19:18:49.45	289.04	18.98	-34.2	-34.9	26.2	0.00e+00	0	42	0	2826960896	40	6354
2026-01-20 19:18:53.49	288.26	18.68	-34.8	-35.5	25.9	0.00e+00	0	42	0	2848980992	42	6074
2026-01-20 19:18:57.53	287.49	18.37	-34.4	-35.1	26.3	0.00e+00	0	42	0	2872049664	42	5811
2026-01-20 19:19:01.57	286.74	18.07	-34.1	-34.7	26.6	0.00e+00	0	42	0	2895118336	42	5508
2026-01-20 19:19:05.61	286.00	17.77	-34.2	-34.9	26.5	0.00e+00	0	42	0	2917138432	42	5695
2026-01-20 19:19:09.64	285.28	17.46	-34.1	-34.7	26.5	0.00e+00	0	42	0	2940207104	42	5515
2026-01-20 19:19:13.69	284.57	17.16	-34.7	-35.2	26.0	0.00e+00	0	42	0	2962227200	42	5895
2026-01-20 19:19:17.73	283.88	16.85	-34.8	-35.4	25.9	0.00e+00	0	42	0	2985295872	42	6008
2026-01-20 19:19:21.77	283.20	16.54	-34.8	-35.4	26.0	0.00e+00	0	42	0	3008364544	42	6031
2026-01-20 19:19:25.81	282.53	16.23	-34.7	-35.3	26.0	0.00e+00	0	42	0	3031433216	42	5900
2026-01-20 19:19:29.85	281.88	15.93	-34.9	-35.6	25.8	0.00e+00	0	42	0	3053453312	42	6132
2026-01-20 19:19:33.89	281.24	15.62	-35.1	-35.7	25.7	0.00e+00	0	43	0	3076521984	42	6178
2026-01-20 19:19:37.93	280.62	15.31	-35.1	-35.8	25.6	0.00e+00	0	42	0	3099590656	42	6296
2026-01-20 19:19:41.97	280.01	15.01	-35.1	-35.7	25.6	0.00e+00	0	43	0	3121610752	42	6232
2026-01-20 19:19:46.01	279.41	14.70	-35.3	-35.9	25.4	0.00e+00	0	43	0	3144679424	42	6377
2026-01-20 19:19:50.05	278.82	14.40	-35.4	-36.2	25.3	0.00e+00	0	43	0	3167748096	42	6560
2026-01-20 19:19:54.09	278.24	14.09	-35.8	-36.6	25.0	0.00e+00	0	43	0	3189768192	42	6870
2026-01-20 19:19:58.14	277.68	13.79	-35.5	-36.3	25.1	0.00e+00	0	43	0	3212836864	44	5898
2026-01-20 19:20:02.18	277.13	13.49	-35.4	-36.2	25.2	0.00e+00	0	43	0	3235905536	44	5831
2026-01-20 19:20:06.22	276.59	13.18	-35.6	-36.2	25.1	0.00e+00	0	43	0	3257925632	44	5871
2026-01-20 19:20:10.26	276.06	12.88	-35.8	-36.5	25.0	0.00e+00	0	43	0	3280994304	44	6081
2026-01-20 19:20:14.30	275.54	12.59	-36.2	-36.8	24.6	0.00e+00	0	43	0	3304062976	44	6265
2026-01-20 19:20:18.34	275.03	12.29	-35.7	-36.3	24.8	0.00e+00	0	43	0	3326083072	44	5948
2026-01-20 19:20:22.39	274.53	11.99	-36.2	-36.8	24.6	0.00e+00	0	43	0	3349151744	44	6299
2026-01-20 19:20:26.43	274.05	11.70	-36.2	-37.0	24.5	0.00e+00	0	43	0	3372220416	44	6433
2026-01-20 19:20:30.47	273.57	11.41	-36.4	-37.0	24.4	0.00e+00	0	43	0	3394240512	44	6453
2026-01-20 19:20:34.51	273.10	11.11	-36.6	-37.3	24.0	0.00e+00	0	43	0	3417309184	44	6648
2026-01-20 19:20:38.55	272.64	10.82	-36.6	-37.4	24.1	0.00e+00	0	43	0	3440377856	46	5979
2026-01-20 19:20:42.59	272.19	10.54	-36.4	-37.1	24.3	0.00e+00	0	43	0	3462397952	46	5823
2026-01-20 19:20:46.64	271.75	10.25	-36.6	-37.3	24.1	0.00e+00	0	43	0	3485466624	46	5928
2026-01-20 19:20:50.68	271.32	9.96	-36.4	-37.1	24.2	0.00e+00	0	43	0	3508535296	46	5783
2026-01-20 19:20:54.72	270.90	9.68	-36.8	-37.6	23.9	0.00e+00	0	43	0	3531603968	46	6148
2026-01-20 19:20:58.76	270.48	9.40	-36.9	-37.6	23.8	0.00e+00	0	43	0	3553624064	46	6117
2026-01-20 19:21:02.80	270.08	9.12	-37.1	-37.8	23.5	0.00e+00	0	43	0	3576692736	46	6295
2026-01-20 19:21:06.84	269.68	8.84	-36.9	-37.6	23.7	0.00e+00	0	43	0	3598712832	46	6108
2026-01-20 19:21:10.88	269.29	8.57	-36.8	-37.5	23.6	0.00e+00	0	43	0	3621781504	46	6077
2026-01-20 19:21:14.92	268.90	8.29	-37.1	-37.8	23.3	0.00e+00	0	43	0	3644850176	46	6287
2026-01-20 19:21:18.95	268.53	8.02	-37.4	-38.3	23.1	0.00e+00	0	43	0	3667918848	46	6636
2026-01-20 19:21:23.00	268.16	7.75	-37.2	-37.9	23.3	0.00e+00	0	43	0	3689938944	48	5694
2026-01-20 19:21:27.04	267.80	7.48	-37.6	-38.3	22.9	0.00e+00	0	43	0	3713007616	48	5941
2026-01-20 19:21:31.08	267.44	7.21	-38.0	-38.8	22.6	0.00e+00	0	43	0	3736076288	48	6299
2026-01-20 19:21:35.12	267.09	6.95	-38.0	-38.7	22.4	0.00e+00	0	43	0	3758096384	48	6223
2026-01-20 19:21:39.15	266.75	6.68	-37.4	-38.1	22.9	0.00e+00	0	43	0	3781165056	48	5812
2026-01-20 19:21:43.19	266.41	6.42	-37.7	-38.4	22.7	0.00e+00	0	42	0	3803185152	48	5983
2026-01-20 19:21:47.23	266.08	6.16	-38.1	-38.8	22.1	0.00e+00	0	42	0	3826253824	48	6317
2026-01-20 19:21:51.27	265.76	5.90	-38.0	-38.7	22.2	0.00e+00	0	42	0	3849322496	48	6226
2026-01-20 19:21:55.31	265.44	5.65	-37.6	-38.3	23.1	0.00e+00	0	43	0	3872391168	48	5915
2026-01-20 19:21:59.35	265.13	5.39	-37.8	-38.5	22.4	0.00e+00	0	43	0	3894411264	48	6062
2026-01-20 19:22:03.39	264.83	5.14	-38.3	-39.0	21.9	0.00e+00	0	43	0	3917479936	48	6418
2026-01-20 19:22:07.43	264.52	4.88	-38.4	-39.2	21.9	0.00e+00	0	42	0	3939500032	48	6555
2026-01-20 19:22:11.46	264.23	4.63	-39.0	-39.8	21.0	0.00e+00	0	42	0	3962568704	50	6311
2026-01-20 19:22:15.50	263.94	4.39	-38.6	-39.4	21.4	0.00e+00	0	43	0	3985637376	48	6722
2026-01-20 19:22:19.54	263.65	4.14	-37.6	-38.5	22.4	0.00e+00	0	42	0	4007657472	50	5406
2026-01-20 19:22:23.58	263.37	3.89	-38.1	-38.8	21.8	0.00e+00	0	42	0	4030726144	50	5602
2026-01-20 19:22:27.62	263.10	3.65	-39.5	-40.4	20.0	0.00e+00	0	43	0	4053794816	50	6695
2026-01-20 19:22:31.67	262.83	3.41	-39.4	-40.2	20.3	0.00e+00	0	42	0	4076863488	48	7415
2026-01-20 19:22:35.71	262.56	3.16	-38.2	-39.1	21.7	0.00e+00	0	43	0	4098883584	50	5794
2026-01-20 19:22:39.75	262.30	2.93	-50.4	-62.6	3.6	8.45e-01	0	42	104	4114612224	60	48642
2026-01-20 19:22:43.78	262.04	2.69	-51.1	-63.3	3.6	8.46e-01	0	43	104	4114612224	60	52712
2026-01-20 19:22:47.83	261.79	2.45	-51.3	-63.5	3.6	8.46e-01	0	42	104	4114612224	60	54029
2026-01-20 19:22:51.87	261.54	2.22	-51.3	-63.6	3.6	8.45e-01	0	43	104	4114612224	60	54556
2026-01-20 19:22:55.91	261.30	1.98	-51.1	-63.4	3.6	8.46e-01	0	42	104	4114612224	60	53707
2026-01-20 19:22:59.95	261.06	1.75	-51.2	-63.5	3.6	8.45e-01	0	43	104	4114612224	60	53827
2026-01-20 19:23:03.99	260.82	1.52	-51.4	-63.5	3.6	8.46e-01	0	42	104	4114612224	60	53992
2026-01-20 19:23:08.03	260.59	1.29	-51.4	-63.5	3.6	8.45e-01	0	42	104	4114612224	60	54332
2026-01-20 19:23:12.06	260.36	1.06	-51.5	-63.6	3.6	8.45e-01	0	42	104	4114612224	60	54896
2026-01-20 19:23:16.10	260.13	0.84	-51.4	-63.2	3.6	8.44e-01	0	43	104	4114612224	60	52087
2026-01-20 19:23:20.14	259.91	0.61	-51.4	-63.5	3.6	8.46e-01	0	43	104	4114612224	60	54131
2026-01-20 19:23:24.18	259.69	0.39	-51.3	-63.5	3.5	8.44e-01	0	42	104	4114612224	60	54109
2026-01-20 19:23:28.22	259.48	0.16	-51.4	-63.5	3.6	8.46e-01	0	43	104	4114612224	60	54364

#Closed at: 2026-01-20 19:23:31
#Recorded file [4114 MB]: D:/lorett/data/35029_260121_070931.dat