passes_logs/2026/01/20/R4.6S_Anadyr/R4.6S_Anadyr__20260120_010513_SUOMI_NPP_rec.log

#Pass ID: 20260120_010513_SUOMI NPP
#Satellite: SUOMI NPP
#Configuration: NPP
#almurnet v.1.7.20251203
#Start time: 2026-01-20 01:05:16

#Version: 2.2.20231116
#Station: R4.6S_Anadyr
#Location: 177.4865 lon 64.73178 lat
#TLE: 1 37849U 11061A   26019.26265094  .00000081  00000+0  59609-4 0  9993
#TLE: 2 37849  98.7817 321.2746 0002356  56.2510 303.8890 14.19526363737315

#Time	Az	El	Level	Level2	SNR	BER	BlckErr	Temp	State	Recorded	gain1	gain2
2026-01-20 01:05:16.41	176.34	0.19	-52.5	-66.2	3.3	1.54e+00	0	40	0	0	60	73993
2026-01-20 01:05:20.44	176.45	0.43	-52.7	-67.9	3.6	1.51e+00	0	40	104	0	60	89781
2026-01-20 01:05:24.49	176.56	0.67	-53.1	-68.3	3.6	1.51e+00	0	40	104	0	60	93793
2026-01-20 01:05:28.52	176.68	0.92	-52.7	-67.9	3.6	1.51e+00	0	40	104	0	60	90056
2026-01-20 01:05:32.56	176.79	1.16	-51.9	-67.0	3.6	1.51e+00	0	40	104	0	60	81107
2026-01-20 01:05:36.61	176.91	1.41	-50.5	-65.7	3.6	1.51e+00	0	40	104	0	60	69742
2026-01-20 01:05:40.64	177.03	1.66	-50.0	-65.2	3.6	1.51e+00	0	41	104	0	60	65659
2026-01-20 01:05:44.68	177.15	1.91	-51.0	-66.3	3.6	1.51e+00	0	41	104	0	60	74301
2026-01-20 01:05:48.72	177.27	2.16	-50.8	-66.0	3.6	1.51e+00	0	41	104	0	60	72355
2026-01-20 01:05:52.76	177.40	2.42	-49.3	-64.2	3.6	1.51e+00	0	41	104	0	60	58527
2026-01-20 01:05:56.80	177.53	2.68	-49.4	-62.8	3.6	1.51e+00	0	41	104	0	60	49837
2026-01-20 01:06:00.84	177.66	2.94	-49.9	-59.1	5.5	1.31e+00	0	41	104	0	60	32673
2026-01-20 01:06:04.88	177.79	3.20	-46.6	-49.4	15.4	4.50e-06	0	41	0	7340032	60	10633
2026-01-20 01:06:08.92	177.92	3.47	-45.3	-47.2	18.2	0.00e+00	0	41	0	14680064	60	8243
2026-01-20 01:06:12.96	178.06	3.73	-49.7	-55.5	7.7	1.56e-04	0	41	0	22020096	60	21639
2026-01-20 01:06:17.00	178.19	4.00	-46.7	-50.1	13.2	1.44e-01	0	41	0	29360128	60	11576
2026-01-20 01:06:21.04	178.33	4.28	-47.4	-50.0	13.8	3.00e-06	0	41	0	36700160	60	11428
2026-01-20 01:06:25.08	178.48	4.55	-46.0	-48.4	16.4	0.00e+00	0	41	0	45088768	60	9483
2026-01-20 01:06:29.12	178.62	4.83	-47.0	-49.3	16.5	0.00e+00	0	41	0	52428800	60	10605
2026-01-20 01:06:33.15	178.77	5.11	-44.4	-46.2	18.1	0.00e+00	0	41	0	59768832	60	7352
2026-01-20 01:06:37.19	178.92	5.40	-44.7	-46.3	18.8	0.00e+00	0	41	0	67108864	60	7488
2026-01-20 01:06:41.23	179.07	5.68	-45.1	-46.6	18.8	0.00e+00	0	41	0	75497472	60	7764
2026-01-20 01:06:45.28	179.23	5.97	-45.3	-47.0	18.5	0.00e+00	0	41	0	82837504	60	8070
2026-01-20 01:06:49.31	179.39	6.27	-43.3	-44.8	19.0	0.00e+00	0	41	0	90177536	60	6288
2026-01-20 01:06:53.35	179.55	6.56	-45.1	-46.7	18.8	0.00e+00	0	41	0	97517568	60	7836
2026-01-20 01:06:57.39	179.71	6.86	-44.2	-45.6	19.3	0.00e+00	0	41	0	104857600	60	6878
2026-01-20 01:07:01.43	179.88	7.16	-43.9	-45.3	19.6	0.00e+00	0	41	0	113246208	60	6659
2026-01-20 01:07:05.46	180.05	7.47	-43.3	-44.5	20.8	0.00e+00	0	41	0	120586240	60	6055
2026-01-20 01:07:09.49	180.22	7.78	-43.5	-44.7	20.8	0.00e+00	0	41	0	127926272	60	6201
2026-01-20 01:07:13.53	180.40	8.09	-43.4	-44.5	21.0	0.00e+00	0	41	0	135266304	58	6846
2026-01-20 01:07:17.56	180.58	8.41	-42.8	-44.0	21.2	0.00e+00	0	41	0	143654912	60	5724
2026-01-20 01:07:21.61	180.77	8.73	-42.7	-43.9	21.0	0.00e+00	0	41	0	150994944	58	6358
2026-01-20 01:07:25.65	180.96	9.06	-42.1	-43.2	21.3	0.00e+00	0	41	0	158334976	58	5862
2026-01-20 01:07:29.69	181.15	9.39	-43.8	-45.0	20.9	0.00e+00	0	41	0	165675008	60	6449
2026-01-20 01:07:33.73	181.35	9.72	-42.7	-43.9	21.3	0.00e+00	0	41	0	173015040	58	6335
2026-01-20 01:07:37.77	181.55	10.06	-41.2	-42.3	21.6	0.00e+00	0	41	0	181403648	56	5903
2026-01-20 01:07:41.81	181.75	10.40	-41.7	-42.9	21.5	0.00e+00	0	41	0	188743680	56	6324
2026-01-20 01:07:45.85	181.96	10.74	-42.5	-43.6	21.6	0.00e+00	0	41	0	196083712	56	6895
2026-01-20 01:07:49.88	182.18	11.09	-42.3	-43.4	21.4	0.00e+00	0	41	0	203423744	56	6718
2026-01-20 01:07:53.92	182.40	11.45	-41.8	-42.9	21.8	0.00e+00	0	41	0	211812352	56	6369
2026-01-20 01:07:57.96	182.62	11.81	-41.2	-42.2	22.0	0.00e+00	0	41	0	219152384	56	5895
2026-01-20 01:08:01.99	182.85	12.18	-41.0	-42.0	22.0	0.00e+00	0	41	0	226492416	56	5744
2026-01-20 01:08:06.03	183.09	12.55	-40.7	-41.7	22.2	0.00e+00	0	41	0	233832448	54	6241
2026-01-20 01:08:10.07	183.33	12.92	-41.4	-42.4	22.4	0.00e+00	0	41	0	241172480	56	6032
2026-01-20 01:08:14.11	183.58	13.30	-40.4	-41.4	22.5	0.00e+00	0	41	0	249561088	54	5970
2026-01-20 01:08:18.16	183.83	13.69	-40.4	-41.4	22.7	0.00e+00	0	41	0	256901120	54	5972
2026-01-20 01:08:22.20	184.09	14.09	-40.8	-41.7	22.9	0.00e+00	0	41	0	264241152	54	6228
2026-01-20 01:08:26.23	184.35	14.48	-40.6	-41.6	22.8	0.00e+00	0	41	0	271581184	54	6117
2026-01-20 01:08:30.27	184.63	14.89	-41.0	-42.0	22.1	0.00e+00	0	41	0	279969792	54	6457
2026-01-20 01:08:34.30	184.91	15.30	-40.8	-41.7	23.0	0.00e+00	0	41	0	287309824	54	6235
2026-01-20 01:08:38.34	185.19	15.72	-41.3	-42.2	23.3	0.00e+00	0	41	0	294649856	54	6552
2026-01-20 01:08:42.38	185.49	16.14	-40.6	-41.5	23.2	0.00e+00	0	41	0	301989888	54	6068
2026-01-20 01:08:46.41	185.79	16.57	-42.0	-42.9	22.9	0.00e+00	0	41	0	309329920	56	6376
2026-01-20 01:08:50.45	186.10	17.01	-41.6	-42.5	23.1	0.00e+00	0	41	0	317718528	56	6065
2026-01-20 01:08:54.49	186.43	17.46	-40.8	-41.7	23.3	0.00e+00	0	41	0	325058560	54	6216
2026-01-20 01:08:58.53	186.76	17.91	-41.1	-42.0	23.6	0.00e+00	0	41	0	332398592	54	6410
2026-01-20 01:09:02.56	187.09	18.37	-40.3	-41.2	23.8	0.00e+00	0	41	0	339738624	54	5829
2026-01-20 01:09:06.60	187.44	18.84	-40.3	-41.2	23.6	0.00e+00	0	41	0	348127232	54	5834
2026-01-20 01:09:10.64	187.80	19.31	-40.4	-41.3	23.6	0.00e+00	0	41	0	355467264	52	6622
2026-01-20 01:09:14.68	188.17	19.80	-39.9	-40.8	23.5	0.00e+00	0	41	0	362807296	54	5598
2026-01-20 01:09:18.71	188.56	20.29	-40.5	-41.4	23.4	0.00e+00	0	41	0	370147328	54	5983
2026-01-20 01:09:22.75	188.95	20.79	-40.5	-41.4	23.6	0.00e+00	0	41	0	377487360	54	5966
2026-01-20 01:09:26.79	189.36	21.30	-41.0	-41.8	23.8	0.00e+00	0	41	0	385875968	54	6298
2026-01-20 01:09:30.83	189.78	21.82	-39.5	-40.4	23.4	0.00e+00	0	41	0	393216000	52	6028
2026-01-20 01:09:34.87	190.21	22.35	-40.5	-41.3	23.9	0.00e+00	0	41	0	400556032	52	6687
2026-01-20 01:09:38.90	190.66	22.89	-40.7	-41.5	24.3	0.00e+00	0	41	0	407896064	54	6092
2026-01-20 01:09:42.94	191.12	23.43	-40.9	-41.7	24.5	0.00e+00	0	41	0	416284672	54	6195
2026-01-20 01:09:46.99	191.60	23.99	-39.8	-40.6	24.6	0.00e+00	0	41	0	423624704	52	6118
2026-01-20 01:09:51.02	192.10	24.56	-39.0	-39.8	24.5	0.00e+00	0	41	0	430964736	50	6262
2026-01-20 01:09:55.06	192.61	25.14	-39.9	-40.8	24.2	0.00e+00	0	41	0	438304768	52	6260
2026-01-20 01:09:59.09	193.15	25.73	-39.9	-40.7	23.6	0.00e+00	0	41	0	445644800	52	6240
2026-01-20 01:10:03.13	193.70	26.33	-41.0	-41.9	23.2	0.00e+00	0	41	0	454033408	54	6354
2026-01-20 01:10:07.17	194.27	26.94	-41.3	-42.3	23.2	0.00e+00	0	41	0	461373440	56	5912
2026-01-20 01:10:11.21	194.87	27.56	-41.2	-42.1	23.2	0.00e+00	0	41	0	468713472	56	5769
2026-01-20 01:10:15.25	195.49	28.19	-40.4	-41.3	22.9	0.00e+00	0	41	0	476053504	54	5944
2026-01-20 01:10:19.29	196.13	28.83	-41.6	-42.6	22.0	0.00e+00	0	41	0	484442112	54	6907
2026-01-20 01:10:23.33	196.80	29.49	-44.4	-45.6	20.4	0.00e+00	0	41	0	491782144	60	6923
2026-01-20 01:10:27.37	197.50	30.15	-45.8	-47.2	19.9	0.00e+00	0	41	0	499122176	60	8326
2026-01-20 01:10:31.41	198.22	30.83	-43.3	-44.5	20.6	0.00e+00	0	41	0	506462208	60	6102
2026-01-20 01:10:35.45	198.98	31.51	-42.5	-43.6	21.3	0.00e+00	0	41	0	513802240	58	6153
2026-01-20 01:10:39.48	199.76	32.21	-43.7	-44.9	21.6	0.00e+00	0	41	0	522190848	60	6320
2026-01-20 01:10:43.52	200.58	32.92	-43.4	-44.5	21.7	0.00e+00	0	41	0	529530880	60	6098
2026-01-20 01:10:47.56	201.44	33.64	-43.8	-44.9	21.6	0.00e+00	0	41	0	536870912	60	6319
2026-01-20 01:10:51.59	202.33	34.36	-43.0	-43.9	22.9	0.00e+00	0	41	0	544210944	58	6355
2026-01-20 01:10:55.63	203.27	35.10	-44.3	-45.5	21.9	0.00e+00	0	41	0	552599552	60	6785
2026-01-20 01:10:59.67	204.25	35.85	-44.5	-45.7	21.5	0.00e+00	0	41	0	559939584	60	6974
2026-01-20 01:11:03.71	205.27	36.60	-43.2	-44.2	22.4	0.00e+00	0	41	0	567279616	60	5855
2026-01-20 01:11:07.75	206.34	37.36	-42.1	-43.0	23.1	0.00e+00	0	41	0	574619648	58	5755
2026-01-20 01:11:11.80	207.47	38.13	-41.9	-42.8	23.5	0.00e+00	0	41	0	581959680	56	6283
2026-01-20 01:11:15.84	208.64	38.91	-41.3	-42.2	23.6	0.00e+00	0	41	0	590348288	56	5848
2026-01-20 01:11:19.88	209.87	39.68	-39.6	-40.3	24.5	0.00e+00	0	41	0	597688320	52	5954
2026-01-20 01:11:23.92	211.16	40.46	-41.4	-42.2	23.8	0.00e+00	0	41	0	605028352	56	5893
2026-01-20 01:11:27.95	212.51	41.24	-42.1	-43.0	23.4	0.00e+00	0	41	0	612368384	56	6448
2026-01-20 01:11:31.99	213.93	42.02	-40.8	-41.6	23.8	0.00e+00	0	41	0	620756992	56	5486
2026-01-20 01:11:36.02	215.41	42.79	-41.9	-42.8	23.0	0.00e+00	0	41	0	628097024	56	6287
2026-01-20 01:11:40.06	216.97	43.56	-42.7	-43.7	22.7	0.00e+00	0	41	0	635437056	58	6229
2026-01-20 01:11:44.10	218.61	44.31	-41.0	-41.9	23.4	0.00e+00	0	41	0	642777088	54	6333
2026-01-20 01:11:48.14	220.32	45.06	-42.0	-43.1	22.2	0.00e+00	0	41	0	650117120	58	5804
2026-01-20 01:11:52.17	222.11	45.79	-40.9	-42.0	22.5	0.00e+00	0	41	0	658505728	54	6395
2026-01-20 01:11:56.22	223.99	46.50	-42.9	-44.0	22.1	0.00e+00	0	41	0	665845760	58	6422
2026-01-20 01:12:00.25	225.94	47.19	-42.9	-43.9	22.3	0.00e+00	0	41	0	673185792	60	5686
2026-01-20 01:12:04.29	227.99	47.85	-41.6	-42.4	23.8	0.00e+00	0	41	0	680525824	58	5374
2026-01-20 01:12:08.33	230.12	48.49	-42.1	-43.1	23.0	0.00e+00	0	41	0	688914432	58	5786
2026-01-20 01:12:12.36	232.33	49.08	-43.1	-44.1	22.9	0.00e+00	0	41	0	696254464	58	6516
2026-01-20 01:12:16.40	234.64	49.64	-43.1	-44.1	22.7	0.00e+00	0	41	0	703594496	58	6532
2026-01-20 01:12:20.44	237.02	50.16	-43.5	-44.5	22.2	0.00e+00	0	42	0	710934528	58	6842
2026-01-20 01:12:24.48	239.48	50.63	-42.2	-43.2	22.1	0.00e+00	0	41	0	718274560	58	5870
2026-01-20 01:12:28.52	242.01	51.04	-45.3	-46.6	21.0	0.00e+00	0	42	0	726663168	60	7705
2026-01-20 01:12:32.55	244.61	51.40	-42.7	-43.9	22.1	0.00e+00	0	41	0	734003200	58	6326
2026-01-20 01:12:36.59	247.26	51.70	-41.4	-42.3	23.7	0.00e+00	0	41	0	741343232	56	5925
2026-01-20 01:12:40.63	249.97	51.94	-41.9	-42.8	23.3	0.00e+00	0	42	0	748683264	56	6250
2026-01-20 01:12:44.67	252.71	52.11	-41.4	-42.3	23.5	0.00e+00	0	41	0	756023296	56	5963
2026-01-20 01:12:48.71	255.47	52.21	-42.1	-43.0	23.1	0.00e+00	0	41	0	764411904	58	5755
2026-01-20 01:12:52.75	258.25	52.25	-43.3	-44.3	22.6	0.00e+00	0	41	0	771751936	58	6635
2026-01-20 01:12:56.79	261.03	52.22	-43.5	-44.6	22.0	0.00e+00	0	41	0	779091968	58	6907
2026-01-20 01:13:00.82	263.79	52.12	-42.5	-43.4	23.2	0.00e+00	0	41	0	786432000	56	6750
2026-01-20 01:13:04.86	266.53	51.95	-42.0	-42.8	22.8	0.00e+00	0	41	0	794820608	58	5621
2026-01-20 01:13:08.90	269.24	51.72	-40.6	-41.5	24.0	0.00e+00	0	41	0	802160640	56	5399
2026-01-20 01:13:12.94	271.89	51.43	-40.9	-41.8	23.5	0.00e+00	0	41	0	809500672	54	6276
2026-01-20 01:13:16.97	274.49	51.08	-40.6	-41.4	23.7	0.00e+00	0	41	0	816840704	52	6757
2026-01-20 01:13:21.01	277.02	50.67	-42.1	-43.0	23.6	0.00e+00	0	42	0	824180736	56	6428
2026-01-20 01:13:25.05	279.49	50.21	-42.9	-44.0	22.0	0.00e+00	0	41	0	832569344	58	6419
2026-01-20 01:13:29.09	281.88	49.70	-44.4	-45.8	20.4	0.00e+00	0	42	0	839909376	60	7040
2026-01-20 01:13:33.13	284.18	49.14	-41.8	-42.8	22.7	0.00e+00	0	42	0	847249408	56	6250
2026-01-20 01:13:37.17	286.40	48.55	-41.8	-42.8	22.3	0.00e+00	0	42	0	854589440	54	7053
2026-01-20 01:13:41.21	288.54	47.92	-44.8	-46.2	20.2	0.00e+00	0	41	0	862978048	60	7361
2026-01-20 01:13:45.24	290.58	47.27	-47.3	-49.2	17.6	0.00e+00	0	41	0	870318080	60	10432
2026-01-20 01:13:49.28	292.55	46.58	-46.8	-48.8	17.5	0.00e+00	0	41	0	877658112	60	9988
2026-01-20 01:13:53.32	294.43	45.87	-48.9	-52.6	12.8	5.30e-06	0	42	0	884998144	60	15446
2026-01-20 01:13:57.36	296.22	45.15	-45.3	-46.9	18.8	0.00e+00	0	42	0	892338176	60	8029
2026-01-20 01:14:01.41	297.94	44.40	-43.9	-45.2	20.6	0.00e+00	0	42	0	900726784	60	6548
2026-01-20 01:14:05.44	299.58	43.65	-41.2	-42.1	23.3	0.00e+00	0	41	0	908066816	56	5809
2026-01-20 01:14:09.48	301.14	42.89	-40.5	-41.4	23.6	0.00e+00	0	41	0	915406848	54	5985
2026-01-20 01:14:13.52	302.63	42.12	-40.3	-41.2	23.4	0.00e+00	0	42	0	922746880	54	5874
2026-01-20 01:14:17.57	304.06	41.34	-40.1	-41.0	24.1	0.00e+00	0	41	0	931135488	52	6394
2026-01-20 01:14:21.60	305.41	40.57	-42.9	-44.1	21.2	0.00e+00	0	42	0	938475520	58	6488
2026-01-20 01:14:25.65	306.70	39.79	-40.9	-41.9	22.7	0.00e+00	0	42	0	945815552	56	5663
2026-01-20 01:14:29.68	307.94	39.02	-43.7	-44.9	21.2	0.00e+00	0	42	0	953155584	60	6359
2026-01-20 01:14:33.72	309.11	38.25	-44.5	-46.0	19.3	0.00e+00	0	42	0	960495616	60	7213
2026-01-20 01:14:37.76	310.24	37.49	-41.7	-42.7	22.2	0.00e+00	0	42	0	968884224	56	6209
2026-01-20 01:14:41.80	311.31	36.73	-45.1	-46.9	18.2	0.00e+00	0	42	0	976224256	60	7998
2026-01-20 01:14:45.85	312.34	35.97	-41.2	-42.2	22.3	0.00e+00	0	42	0	983564288	56	5879
2026-01-20 01:14:49.88	313.32	35.23	-44.6	-46.1	19.6	0.00e+00	0	42	0	990904320	60	7254
2026-01-20 01:14:53.92	314.26	34.50	-40.8	-41.6	23.3	0.00e+00	0	42	0	999292928	56	5492
2026-01-20 01:14:57.96	315.15	33.77	-44.1	-45.4	20.1	0.00e+00	0	42	0	1006632960	60	6731
2026-01-20 01:15:01.99	316.01	33.06	-44.8	-46.3	19.5	0.00e+00	0	42	0	1013972992	60	7428
2026-01-20 01:15:06.03	316.83	32.35	-43.9	-45.1	21.4	0.00e+00	0	42	0	1021313024	60	6478
2026-01-20 01:15:10.06	317.62	31.66	-47.4	-50.0	15.7	0.00e+00	0	42	0	1028653056	60	11458
2026-01-20 01:15:14.10	318.38	30.97	-43.8	-45.2	20.5	0.00e+00	0	42	0	1037041664	60	6547
2026-01-20 01:15:18.14	319.11	30.30	-42.2	-43.2	22.4	0.00e+00	0	42	0	1044381696	58	5832
2026-01-20 01:15:22.18	319.81	29.64	-44.0	-45.3	20.3	0.00e+00	0	42	0	1051721728	60	6638
2026-01-20 01:15:26.22	320.48	28.99	-41.8	-42.8	22.0	0.00e+00	0	42	0	1059061760	56	6282
2026-01-20 01:15:30.25	321.12	28.35	-41.7	-42.8	22.0	0.00e+00	0	42	0	1067450368	56	6249
2026-01-20 01:15:34.29	321.74	27.72	-42.2	-43.3	22.1	0.00e+00	0	42	0	1074790400	56	6644
2026-01-20 01:15:38.33	322.34	27.10	-42.0	-43.0	22.5	0.00e+00	0	42	0	1082130432	58	5731
2026-01-20 01:15:42.37	322.92	26.49	-41.7	-42.7	22.8	0.00e+00	0	42	0	1089470464	58	5507
2026-01-20 01:15:46.41	323.47	25.89	-41.3	-42.3	23.3	0.00e+00	0	42	0	1096810496	54	6616
2026-01-20 01:15:50.45	324.01	25.31	-41.0	-41.9	23.4	0.00e+00	0	42	0	1105199104	54	6376
2026-01-20 01:15:54.48	324.52	24.73	-42.1	-43.1	22.5	0.00e+00	0	42	0	1112539136	56	6531
2026-01-20 01:15:58.52	325.02	24.16	-41.5	-42.5	22.8	0.00e+00	0	42	0	1119879168	56	6043
2026-01-20 01:16:02.56	325.51	23.61	-40.7	-41.6	22.8	0.00e+00	0	42	0	1127219200	54	6136
2026-01-20 01:16:06.60	325.97	23.06	-41.9	-42.9	22.1	0.00e+00	0	42	0	1135607808	56	6390
2026-01-20 01:16:10.64	326.42	22.53	-42.9	-44.0	22.0	0.00e+00	0	42	0	1142947840	58	6421
2026-01-20 01:16:14.68	326.86	22.00	-42.3	-43.4	22.0	0.00e+00	0	42	0	1150287872	58	6024
2026-01-20 01:16:18.71	327.28	21.48	-41.8	-42.9	21.8	0.00e+00	0	42	0	1157627904	56	6339
2026-01-20 01:16:22.75	327.69	20.97	-42.2	-43.3	22.4	0.00e+00	0	42	0	1164967936	56	6641
2026-01-20 01:16:26.79	328.09	20.47	-42.8	-43.9	21.5	0.00e+00	0	42	0	1173356544	58	6366
2026-01-20 01:16:30.83	328.47	19.98	-43.3	-44.6	20.8	0.00e+00	0	42	0	1180696576	58	6849
2026-01-20 01:16:34.87	328.85	19.50	-42.9	-44.2	21.0	0.00e+00	0	42	0	1188036608	60	5852
2026-01-20 01:16:38.91	329.21	19.02	-42.8	-43.9	21.7	0.00e+00	0	42	0	1195376640	58	6373
2026-01-20 01:16:42.95	329.56	18.56	-43.0	-44.0	22.4	0.00e+00	0	42	0	1203765248	58	6431
2026-01-20 01:16:46.99	329.90	18.10	-42.6	-43.6	22.8	0.00e+00	0	42	0	1211105280	56	6863
2026-01-20 01:16:51.03	330.24	17.65	-42.2	-43.2	22.3	0.00e+00	0	42	0	1218445312	58	5855
2026-01-20 01:16:55.07	330.56	17.20	-42.4	-43.5	22.0	0.00e+00	0	42	0	1225785344	58	6058
2026-01-20 01:16:59.11	330.87	16.76	-42.9	-44.2	21.0	0.00e+00	0	42	0	1233125376	58	6545
2026-01-20 01:17:03.14	331.18	16.33	-42.6	-43.8	21.8	0.00e+00	0	42	0	1241513984	58	6264
2026-01-20 01:17:07.18	331.48	15.91	-42.4	-43.5	22.0	0.00e+00	0	42	0	1248854016	58	6049
2026-01-20 01:17:11.22	331.77	15.49	-41.6	-42.7	22.4	0.00e+00	0	42	0	1256194048	56	6183
2026-01-20 01:17:15.26	332.05	15.08	-42.5	-43.5	22.3	0.00e+00	0	42	0	1263534080	56	6801
2026-01-20 01:17:19.30	332.33	14.68	-41.2	-42.2	22.5	0.00e+00	0	42	0	1271922688	56	5832
2026-01-20 01:17:23.34	332.59	14.28	-42.0	-43.0	22.4	0.00e+00	0	42	0	1279262720	56	6426
2026-01-20 01:17:27.38	332.86	13.89	-42.4	-43.5	21.7	0.00e+00	0	42	0	1286602752	58	6101
2026-01-20 01:17:31.41	333.11	13.51	-44.4	-45.8	20.4	0.00e+00	0	42	0	1293942784	60	7027
2026-01-20 01:17:35.45	333.36	13.12	-43.9	-45.3	20.1	0.00e+00	0	42	0	1301282816	60	6628
2026-01-20 01:17:39.49	333.61	12.75	-45.6	-47.0	19.8	0.00e+00	0	42	0	1309671424	60	8130
2026-01-20 01:17:43.53	333.85	12.38	-44.8	-46.3	20.0	0.00e+00	0	42	0	1317011456	60	7437
2026-01-20 01:17:47.57	334.08	12.01	-43.7	-45.1	20.4	0.00e+00	0	42	0	1324351488	60	6504
2026-01-20 01:17:51.60	334.31	11.66	-42.2	-43.5	21.0	0.00e+00	0	42	0	1331691520	58	6043
2026-01-20 01:17:55.64	334.53	11.30	-43.0	-44.1	21.7	0.00e+00	0	42	0	1340080128	58	6509
2026-01-20 01:17:59.69	334.75	10.95	-42.6	-43.7	21.8	0.00e+00	0	42	0	1347420160	58	6219
2026-01-20 01:18:03.72	334.96	10.61	-42.3	-43.4	22.2	0.00e+00	0	42	0	1354760192	58	5994
2026-01-20 01:18:07.76	335.17	10.26	-41.9	-43.0	22.2	0.00e+00	0	42	0	1362100224	56	6404
2026-01-20 01:18:11.80	335.37	9.93	-42.9	-44.0	21.8	0.00e+00	0	42	0	1369440256	58	6456
2026-01-20 01:18:15.83	335.57	9.60	-42.7	-43.8	21.5	0.00e+00	0	42	0	1377828864	58	6256
2026-01-20 01:18:19.87	335.77	9.27	-43.3	-44.5	21.2	0.00e+00	0	42	0	1385168896	58	6771
2026-01-20 01:18:23.90	335.96	8.94	-42.8	-44.1	20.2	0.00e+00	0	42	0	1392508928	58	6521
2026-01-20 01:18:27.94	336.15	8.62	-43.3	-44.6	20.7	0.00e+00	0	41	0	1399848960	60	6163
2026-01-20 01:18:31.98	336.33	8.31	-44.2	-45.5	20.6	0.00e+00	0	42	0	1408237568	60	6789
2026-01-20 01:18:36.01	336.52	8.00	-44.0	-45.4	20.1	0.00e+00	0	42	0	1415577600	60	6715
2026-01-20 01:18:40.05	336.69	7.69	-43.7	-45.2	19.9	0.00e+00	0	42	0	1422917632	60	6587
2026-01-20 01:18:44.09	336.87	7.38	-44.7	-46.2	19.3	0.00e+00	0	42	0	1430257664	60	7416
2026-01-20 01:18:48.14	337.04	7.08	-45.1	-46.7	19.2	0.00e+00	0	42	0	1437597696	60	7775
2026-01-20 01:18:52.17	337.21	6.78	-44.5	-46.1	19.1	0.00e+00	0	42	0	1445986304	60	7320
2026-01-20 01:18:56.21	337.37	6.48	-44.8	-46.3	19.1	0.00e+00	0	42	0	1453326336	60	7505
2026-01-20 01:19:00.24	337.53	6.19	-44.9	-46.5	18.9	0.00e+00	0	42	0	1460666368	60	7656
2026-01-20 01:19:04.28	337.69	5.90	-45.0	-46.6	18.6	0.00e+00	0	42	0	1468006400	60	7758
2026-01-20 01:19:08.31	337.85	5.62	-45.1	-46.9	18.1	0.00e+00	0	42	0	1475346432	60	7963
2026-01-20 01:19:12.36	338.00	5.33	-46.0	-48.2	16.6	0.00e+00	0	42	0	1483735040	60	9301
2026-01-20 01:19:16.40	338.16	5.05	-46.1	-49.2	14.4	1.50e-06	0	42	0	1491075072	60	10412
2026-01-20 01:19:20.44	338.30	4.78	-46.8	-51.0	11.8	1.47e-04	0	42	0	1498415104	60	12792
2026-01-20 01:19:24.48	338.45	4.50	-48.5	-54.8	8.3	3.98e-02	0	42	0	1505755136	60	19916
2026-01-20 01:19:28.51	338.60	4.23	-47.5	-56.3	4.7	5.64e-01	0	42	0	1514143744	60	23601
2026-01-20 01:19:32.55	338.74	3.96	-47.8	-60.9	3.6	1.50e+00	0	42	104	1517289472	60	40092
2026-01-20 01:19:36.59	338.88	3.69	-47.9	-62.7	3.6	1.51e+00	0	42	104	1517289472	60	49515
2026-01-20 01:19:40.63	339.01	3.43	-48.1	-63.3	3.6	1.51e+00	0	42	104	1517289472	60	52743
2026-01-20 01:19:44.67	339.15	3.17	-48.0	-63.2	3.6	1.51e+00	0	42	104	1517289472	60	52034
2026-01-20 01:19:48.71	339.28	2.91	-48.3	-63.4	3.6	1.51e+00	0	42	104	1517289472	60	53712
2026-01-20 01:19:52.75	339.41	2.65	-52.9	-68.1	3.6	1.51e+00	0	42	104	1517289472	60	91489
2026-01-20 01:19:56.79	339.54	2.39	-52.7	-67.9	3.6	1.51e+00	0	42	104	1517289472	60	89680
2026-01-20 01:20:00.83	339.67	2.14	-51.9	-67.1	3.6	1.51e+00	0	42	104	1517289472	60	81635
2026-01-20 01:20:04.87	339.80	1.89	-51.9	-67.3	3.6	1.51e+00	0	42	104	1517289472	60	84070
2026-01-20 01:20:08.91	339.92	1.64	-53.0	-68.3	3.6	1.51e+00	0	42	104	1517289472	60	93452
2026-01-20 01:20:12.94	340.04	1.40	-53.1	-68.3	3.6	1.51e+00	0	42	104	1517289472	60	93827
2026-01-20 01:20:16.98	340.16	1.15	-51.7	-67.0	3.6	1.51e+00	0	42	104	1517289472	60	80611
2026-01-20 01:20:21.02	340.28	0.91	-52.2	-67.4	3.6	1.51e+00	0	42	104	1517289472	60	84873
2026-01-20 01:20:25.05	340.40	0.67	-51.7	-66.9	3.6	1.51e+00	0	42	104	1517289472	60	80400
2026-01-20 01:20:29.09	340.51	0.43	-52.1	-67.3	3.6	1.51e+00	0	42	104	1517289472	60	83748
2026-01-20 01:20:33.13	340.63	0.19	-52.9	-68.1	3.6	1.51e+00	0	42	104	1517289472	60	91478
2026-01-20 01:20:37.17	340.74	-0.04	-53.1	-68.3	3.6	1.51e+00	0	42	104	1517289472	60	93988

#Closed at: 2026-01-20 01:20:37
#Recorded file [1517 MB]: D:/lorett/data/35029_260120_130516.dat