passes_logs/2026/01/20/R4.6S_Anadyr/R4.6S_Anadyr__20260120_024747_SUOMI_NPP_rec.log

#Pass ID: 20260120_024747_SUOMI NPP
#Satellite: SUOMI NPP
#Configuration: NPP
#almurnet v.1.7.20251203
#Start time: 2026-01-20 02:47:50

#Version: 2.2.20231116
#Station: R4.6S_Anadyr
#Location: 177.4865 lon 64.73178 lat
#TLE: 1 37849U 11061A   26019.26265094  .00000081  00000+0  59609-4 0  9993
#TLE: 2 37849  98.7817 321.2746 0002356  56.2510 303.8890 14.19526363737315

#Time	Az	El	Level	Level2	SNR	BER	BlckErr	Temp	State	Recorded	gain1	gain2
2026-01-20 02:47:50.81	222.49	0.14	-53.9	-67.7	3.3	1.54e+00	0	41	0	0	60	87360
2026-01-20 02:47:54.85	222.81	0.33	-51.6	-66.9	3.6	1.51e+00	0	41	104	0	60	79924
2026-01-20 02:47:58.89	223.13	0.53	-52.8	-68.0	3.6	1.51e+00	0	41	104	0	60	90498
2026-01-20 02:48:02.93	223.45	0.72	-52.1	-67.4	3.6	1.51e+00	0	41	104	0	60	84685
2026-01-20 02:48:06.97	223.78	0.92	-51.8	-67.6	3.6	1.51e+00	0	41	104	0	60	86422
2026-01-20 02:48:11.01	224.11	1.12	-51.7	-66.8	3.6	1.51e+00	0	41	104	0	60	79220
2026-01-20 02:48:15.05	224.45	1.32	-48.6	-63.8	3.6	1.51e+00	0	41	104	0	60	55910
2026-01-20 02:48:19.09	224.79	1.52	-49.5	-64.7	3.6	1.51e+00	0	41	104	0	60	61797
2026-01-20 02:48:23.13	225.14	1.71	-49.5	-64.7	3.6	1.51e+00	0	41	104	0	60	61744
2026-01-20 02:48:27.17	225.48	1.91	-49.1	-64.3	3.6	1.51e+00	0	41	104	0	60	59137
2026-01-20 02:48:31.21	225.84	2.11	-48.7	-63.8	3.6	1.51e+00	0	41	104	0	60	56082
2026-01-20 02:48:35.25	226.20	2.32	-48.4	-63.6	3.6	1.51e+00	0	41	104	0	60	54460
2026-01-20 02:48:39.29	226.56	2.52	-48.5	-62.8	3.6	1.51e+00	0	41	104	0	60	49666
2026-01-20 02:48:43.33	226.93	2.72	-48.3	-57.3	5.1	9.47e-01	0	41	0	0	60	26338
2026-01-20 02:48:47.37	227.30	2.92	-47.4	-53.6	8.2	3.93e-02	0	41	0	7340032	60	17248
2026-01-20 02:48:51.41	227.68	3.12	-47.9	-56.9	5.7	9.68e-01	0	41	104	11534336	60	25186
2026-01-20 02:48:55.45	228.06	3.33	-47.8	-53.7	8.7	2.77e-01	0	41	0	12582912	60	17506
2026-01-20 02:48:59.49	228.45	3.53	-48.7	-56.3	6.3	5.91e-02	0	41	0	19922944	60	23739
2026-01-20 02:49:03.53	228.84	3.74	-48.2	-54.8	7.4	1.23e-01	0	42	0	28311552	60	19787
2026-01-20 02:49:07.56	229.24	3.94	-48.4	-54.7	8.0	1.11e-01	0	42	0	35651584	60	19718
2026-01-20 02:49:11.60	229.64	4.15	-48.6	-56.0	6.6	3.28e-01	0	42	0	42991616	60	22693
2026-01-20 02:49:15.64	230.05	4.35	-48.5	-55.6	7.0	9.09e-02	0	42	0	50331648	60	21779
2026-01-20 02:49:19.68	230.47	4.56	-49.0	-56.0	7.0	1.09e-01	0	42	0	58720256	60	22898
2026-01-20 02:49:23.72	230.89	4.76	-48.4	-55.8	6.4	2.13e-01	0	42	0	66060288	60	22340
2026-01-20 02:49:27.76	231.31	4.97	-48.7	-56.0	6.4	2.79e-01	0	42	0	73400320	60	22934
2026-01-20 02:49:31.79	231.74	5.18	-49.1	-56.4	6.0	2.38e-01	0	42	0	80740352	60	24005
2026-01-20 02:49:35.83	232.18	5.38	-50.3	-57.8	6.2	2.55e-01	0	42	0	88080384	60	28128
2026-01-20 02:49:39.87	232.62	5.59	-49.8	-57.1	6.6	2.33e-01	0	42	0	96468992	60	25762
2026-01-20 02:49:43.91	233.07	5.80	-49.3	-56.3	6.6	2.09e-01	0	42	0	103809024	60	23652
2026-01-20 02:49:47.95	233.53	6.01	-49.5	-56.0	7.5	6.73e-02	0	42	0	111149056	60	22841
2026-01-20 02:49:52.00	233.99	6.22	-49.3	-55.9	7.6	5.67e-02	0	42	0	118489088	60	22574
2026-01-20 02:49:56.03	234.46	6.42	-49.3	-55.7	7.8	7.82e-02	0	42	0	126877696	60	22011
2026-01-20 02:50:00.07	234.94	6.63	-49.6	-55.8	8.3	4.66e-02	0	42	0	134217728	60	22195
2026-01-20 02:50:04.11	235.42	6.84	-49.2	-55.2	8.5	6.88e-02	0	42	0	141557760	60	20791
2026-01-20 02:50:08.16	235.91	7.05	-49.2	-55.1	8.8	4.91e-02	0	42	0	148897792	60	20468
2026-01-20 02:50:12.19	236.40	7.26	-49.1	-54.7	9.1	2.80e-02	0	42	0	156237824	60	19662
2026-01-20 02:50:16.23	236.90	7.46	-48.3	-53.3	10.5	8.49e-03	0	42	0	164626432	60	16661
2026-01-20 02:50:20.27	237.41	7.67	-48.2	-53.2	10.8	6.30e-03	0	42	0	171966464	60	16435
2026-01-20 02:50:24.31	237.93	7.88	-47.2	-50.6	13.5	1.24e-04	0	42	0	179306496	60	12184
2026-01-20 02:50:28.35	238.45	8.09	-48.4	-51.8	13.6	4.50e-06	0	42	0	186646528	60	14065
2026-01-20 02:50:32.39	238.98	8.29	-47.5	-50.6	13.9	7.00e-07	0	42	0	195035136	60	12284
2026-01-20 02:50:36.43	239.52	8.50	-47.5	-50.5	14.9	3.00e-06	0	42	0	202375168	60	12064
2026-01-20 02:50:40.47	240.06	8.71	-47.6	-50.0	16.0	0.00e+00	0	42	0	209715200	60	11375
2026-01-20 02:50:44.51	240.62	8.91	-46.9	-49.0	17.0	0.00e+00	0	42	0	217055232	60	10174
2026-01-20 02:50:48.54	241.18	9.12	-47.1	-49.2	17.0	0.00e+00	0	42	0	224395264	60	10416
2026-01-20 02:50:52.58	241.74	9.32	-45.2	-47.1	18.0	0.00e+00	0	42	0	232783872	60	8139
2026-01-20 02:50:56.62	242.32	9.52	-44.7	-46.3	19.1	0.00e+00	0	41	0	240123904	60	7437
2026-01-20 02:51:00.66	242.90	9.73	-43.3	-44.7	19.8	0.00e+00	0	42	0	247463936	60	6207
2026-01-20 02:51:04.70	243.49	9.93	-44.6	-45.9	20.2	0.00e+00	0	42	0	254803968	60	7121
2026-01-20 02:51:08.74	244.09	10.13	-43.0	-44.3	20.9	0.00e+00	0	42	0	263192576	58	6621
2026-01-20 02:51:12.78	244.70	10.33	-41.7	-42.8	21.4	0.00e+00	0	41	0	270532608	56	6298
2026-01-20 02:51:16.81	245.31	10.53	-42.6	-43.7	21.5	0.00e+00	0	42	0	277872640	58	6186
2026-01-20 02:51:20.86	245.93	10.72	-42.6	-43.7	21.4	0.00e+00	0	42	0	285212672	58	6229
2026-01-20 02:51:24.90	246.57	10.92	-40.6	-41.5	22.5	0.00e+00	0	42	0	292552704	54	6102
2026-01-20 02:51:28.94	247.20	11.11	-40.6	-41.6	22.8	0.00e+00	0	42	0	300941312	54	6133
2026-01-20 02:51:32.98	247.85	11.30	-40.6	-41.6	22.6	0.00e+00	0	42	0	308281344	54	6141
2026-01-20 02:51:37.02	248.51	11.49	-40.9	-41.9	22.2	0.00e+00	0	42	0	315621376	54	6344
2026-01-20 02:51:41.06	249.17	11.68	-41.4	-42.4	22.2	0.00e+00	0	42	0	322961408	54	6719
2026-01-20 02:51:45.10	249.84	11.87	-41.9	-43.0	21.9	0.00e+00	0	42	0	331350016	56	6405
2026-01-20 02:51:49.14	250.52	12.05	-41.3	-42.3	22.0	0.00e+00	0	42	0	338690048	56	5942
2026-01-20 02:51:53.18	251.21	12.23	-43.5	-44.6	21.0	0.00e+00	0	42	0	346030080	60	6153
2026-01-20 02:51:57.22	251.91	12.41	-42.4	-43.4	22.0	0.00e+00	0	42	0	353370112	58	6011
2026-01-20 02:52:01.26	252.61	12.59	-42.3	-43.4	22.1	0.00e+00	0	42	0	360710144	58	5966
2026-01-20 02:52:05.29	253.32	12.76	-42.8	-43.9	21.8	0.00e+00	0	42	0	369098752	58	6348
2026-01-20 02:52:09.33	254.04	12.94	-42.2	-43.3	21.5	0.00e+00	0	42	0	376438784	58	5936
2026-01-20 02:52:13.37	254.77	13.10	-42.3	-43.4	21.8	0.00e+00	0	42	0	383778816	58	5983
2026-01-20 02:52:17.41	255.51	13.27	-43.1	-44.2	21.3	0.00e+00	0	42	0	391118848	58	6593
2026-01-20 02:52:21.45	256.25	13.43	-43.4	-44.6	21.1	0.00e+00	0	41	0	399507456	58	6910
2026-01-20 02:52:25.49	257.01	13.59	-44.6	-45.8	20.0	0.00e+00	0	42	0	406847488	60	7036
2026-01-20 02:52:29.53	257.77	13.75	-44.3	-45.6	20.6	0.00e+00	0	42	0	414187520	60	6868
2026-01-20 02:52:33.57	258.53	13.90	-45.5	-46.8	20.0	0.00e+00	0	42	0	421527552	60	7926
2026-01-20 02:52:37.62	259.31	14.04	-44.8	-46.2	20.0	0.00e+00	0	42	0	428867584	60	7391
2026-01-20 02:52:41.65	260.09	14.19	-45.7	-47.2	19.4	0.00e+00	0	42	0	437256192	60	8276
2026-01-20 02:52:45.70	260.88	14.33	-44.0	-45.3	20.7	0.00e+00	0	42	0	444596224	60	6620
2026-01-20 02:52:49.74	261.68	14.46	-44.1	-45.4	20.4	0.00e+00	0	41	0	451936256	60	6764
2026-01-20 02:52:53.78	262.48	14.59	-43.7	-44.9	20.7	0.00e+00	0	42	0	459276288	60	6381
2026-01-20 02:52:57.82	263.30	14.72	-42.4	-43.6	21.2	0.00e+00	0	42	0	467664896	58	6142
2026-01-20 02:53:01.85	264.11	14.84	-41.4	-42.5	22.1	0.00e+00	0	42	0	475004928	56	6051
2026-01-20 02:53:05.89	264.93	14.96	-42.2	-43.2	22.2	0.00e+00	0	42	0	482344960	56	6605
2026-01-20 02:53:09.93	265.76	15.07	-42.0	-43.1	22.2	0.00e+00	0	42	0	489684992	56	6480
2026-01-20 02:53:13.97	266.60	15.17	-42.8	-43.9	21.7	0.00e+00	0	42	0	497025024	56	7160
2026-01-20 02:53:18.01	267.44	15.28	-41.5	-42.6	22.2	0.00e+00	0	42	0	505413632	56	6125
2026-01-20 02:53:22.05	268.29	15.37	-42.7	-43.7	21.8	0.00e+00	0	42	0	512753664	56	6999
2026-01-20 02:53:26.09	269.14	15.46	-42.8	-44.0	21.6	0.00e+00	0	42	0	520093696	60	5697
2026-01-20 02:53:30.13	270.00	15.55	-44.8	-46.1	20.7	0.00e+00	0	42	0	527433728	60	7330
2026-01-20 02:53:34.18	270.86	15.62	-43.9	-45.1	21.6	0.00e+00	0	42	0	535822336	60	6472
2026-01-20 02:53:38.22	271.72	15.70	-43.7	-44.9	20.7	0.00e+00	0	42	0	543162368	60	6322
2026-01-20 02:53:42.26	272.59	15.76	-44.5	-45.7	21.0	0.00e+00	0	42	0	550502400	60	6930
2026-01-20 02:53:46.30	273.46	15.82	-42.5	-43.5	22.6	0.00e+00	0	41	0	557842432	56	6774
2026-01-20 02:53:50.34	274.34	15.88	-43.9	-45.1	21.4	0.00e+00	0	41	0	565182464	60	6486
2026-01-20 02:53:54.38	275.22	15.93	-42.4	-43.4	22.6	0.00e+00	0	42	0	573571072	58	5980
2026-01-20 02:53:58.41	276.10	15.97	-42.3	-43.3	22.1	0.00e+00	0	42	0	580911104	58	5946
2026-01-20 02:54:02.43	276.98	16.01	-42.6	-43.6	22.1	0.00e+00	0	42	0	588251136	58	6151
2026-01-20 02:54:06.48	277.86	16.04	-43.1	-44.2	21.5	0.00e+00	0	42	0	595591168	58	6598
2026-01-20 02:54:10.52	278.75	16.06	-42.3	-43.4	21.5	0.00e+00	0	41	0	603979776	58	5989
2026-01-20 02:54:14.55	279.64	16.08	-43.7	-45.0	20.9	0.00e+00	0	42	0	611319808	60	6427
2026-01-20 02:54:18.59	280.52	16.09	-43.2	-44.3	21.8	0.00e+00	0	42	0	618659840	60	5905
2026-01-20 02:54:22.62	281.41	16.09	-43.5	-44.6	21.3	0.00e+00	0	42	0	625999872	60	6155
2026-01-20 02:54:26.67	282.30	16.09	-43.2	-44.2	22.0	0.00e+00	0	42	0	633339904	58	6597
2026-01-20 02:54:30.71	283.19	16.08	-43.3	-44.5	21.1	0.00e+00	0	42	0	641728512	60	6087
2026-01-20 02:54:34.75	284.08	16.06	-41.3	-42.2	22.8	0.00e+00	0	42	0	649068544	56	5872
2026-01-20 02:54:38.79	284.96	16.04	-43.3	-44.4	22.1	0.00e+00	0	42	0	656408576	58	6696
2026-01-20 02:54:42.83	285.85	16.01	-42.3	-43.3	22.2	0.00e+00	0	42	0	663748608	58	5929
2026-01-20 02:54:46.87	286.73	15.98	-42.9	-43.9	22.1	0.00e+00	0	42	0	672137216	58	6377
2026-01-20 02:54:50.91	287.61	15.93	-43.0	-44.0	22.5	0.00e+00	0	42	0	679477248	58	6443
2026-01-20 02:54:54.95	288.49	15.89	-44.6	-45.8	20.7	0.00e+00	0	42	0	686817280	60	7039
2026-01-20 02:54:58.99	289.36	15.83	-42.7	-43.8	21.3	0.00e+00	0	41	0	694157312	60	5619
2026-01-20 02:55:03.03	290.23	15.77	-41.3	-42.3	22.6	0.00e+00	0	42	0	701497344	56	5915
2026-01-20 02:55:07.07	291.10	15.71	-41.8	-42.8	22.5	0.00e+00	0	42	0	709885952	56	6266
2026-01-20 02:55:11.11	291.97	15.63	-43.6	-44.6	21.3	0.00e+00	0	42	0	717225984	58	6916
2026-01-20 02:55:15.15	292.83	15.56	-42.4	-43.5	22.1	0.00e+00	0	42	0	724566016	58	6048
2026-01-20 02:55:19.19	293.68	15.47	-42.5	-43.5	22.7	0.00e+00	0	42	0	731906048	58	6053
2026-01-20 02:55:23.23	294.53	15.38	-41.1	-42.0	23.5	0.00e+00	0	42	0	740294656	56	5734
2026-01-20 02:55:27.27	295.38	15.29	-41.8	-42.8	23.1	0.00e+00	0	42	0	747634688	56	6258
2026-01-20 02:55:31.30	296.21	15.19	-40.7	-41.6	23.3	0.00e+00	0	42	0	754974720	56	5492
2026-01-20 02:55:35.34	297.05	15.09	-41.5	-42.4	22.8	0.00e+00	0	42	0	762314752	54	6750
2026-01-20 02:55:39.38	297.88	14.98	-42.2	-43.2	22.7	0.00e+00	0	41	0	769654784	56	6573
2026-01-20 02:55:43.42	298.70	14.86	-42.8	-43.8	22.1	0.00e+00	0	42	0	778043392	58	6294
2026-01-20 02:55:47.45	299.51	14.74	-42.5	-43.5	22.3	0.00e+00	0	41	0	785383424	58	6054
2026-01-20 02:55:51.49	300.32	14.62	-40.0	-40.9	23.5	0.00e+00	0	42	0	792723456	54	5667
2026-01-20 02:55:55.53	301.12	14.49	-41.1	-41.9	23.6	0.00e+00	0	42	0	800063488	54	6379
2026-01-20 02:55:59.58	301.92	14.35	-41.4	-42.3	22.7	0.00e+00	0	42	0	808452096	56	5954
2026-01-20 02:56:03.62	302.71	14.21	-41.3	-42.2	23.3	0.00e+00	0	42	0	815792128	56	5867
2026-01-20 02:56:07.66	303.49	14.07	-41.7	-42.7	22.2	0.00e+00	0	42	0	823132160	56	6222
2026-01-20 02:56:11.70	304.26	13.93	-41.4	-42.3	22.9	0.00e+00	0	42	0	830472192	56	5957
2026-01-20 02:56:15.73	305.03	13.78	-41.5	-42.4	23.1	0.00e+00	0	42	0	837812224	54	6729
2026-01-20 02:56:19.77	305.79	13.62	-40.3	-41.3	23.1	0.00e+00	0	42	0	846200832	54	5912
2026-01-20 02:56:23.81	306.54	13.47	-42.2	-43.2	22.5	0.00e+00	0	42	0	853540864	56	6612
2026-01-20 02:56:27.85	307.28	13.31	-41.5	-42.4	22.6	0.00e+00	0	42	0	860880896	56	6028
2026-01-20 02:56:31.89	308.01	13.14	-42.5	-43.6	22.0	0.00e+00	0	41	0	868220928	56	6868
2026-01-20 02:56:35.93	308.74	12.98	-42.4	-43.5	21.7	0.00e+00	0	42	0	876609536	58	6034
2026-01-20 02:56:39.96	309.46	12.81	-42.7	-43.8	21.3	0.00e+00	0	42	0	883949568	58	6279
2026-01-20 02:56:44.00	310.17	12.63	-44.3	-45.5	21.1	0.00e+00	0	42	0	891289600	60	6792
2026-01-20 02:56:48.03	310.87	12.46	-44.1	-45.5	20.3	0.00e+00	0	41	0	898629632	60	6791
2026-01-20 02:56:52.07	311.56	12.28	-43.5	-44.6	21.5	0.00e+00	0	42	0	905969664	60	6131
2026-01-20 02:56:56.11	312.25	12.10	-43.8	-45.0	21.0	0.00e+00	0	42	0	914358272	60	6422
2026-01-20 02:57:00.15	312.93	11.92	-44.6	-45.8	20.6	0.00e+00	0	42	0	921698304	60	7079
2026-01-20 02:57:04.19	313.60	11.73	-44.8	-46.2	19.8	0.00e+00	0	42	0	929038336	60	7402
2026-01-20 02:57:08.22	314.26	11.55	-43.1	-44.3	21.0	0.00e+00	0	42	0	936378368	60	5925
2026-01-20 02:57:12.26	314.91	11.36	-43.1	-44.3	21.0	0.00e+00	0	42	0	944766976	58	6669
2026-01-20 02:57:16.30	315.56	11.17	-44.1	-45.4	20.7	0.00e+00	0	42	0	952107008	60	6709
2026-01-20 02:57:20.34	316.20	10.98	-44.1	-45.3	20.9	0.00e+00	0	41	0	959447040	60	6672
2026-01-20 02:57:24.38	316.83	10.79	-42.2	-43.3	21.3	0.00e+00	0	42	0	966787072	58	5959
2026-01-20 02:57:28.42	317.45	10.59	-44.9	-46.3	20.2	0.00e+00	0	42	0	974127104	60	7437
2026-01-20 02:57:32.45	318.06	10.40	-44.5	-45.8	20.2	0.00e+00	0	42	0	982515712	60	7058
2026-01-20 02:57:36.49	318.66	10.20	-44.3	-45.6	20.8	0.00e+00	0	42	0	989855744	60	6861
2026-01-20 02:57:40.53	319.26	10.00	-44.2	-45.4	20.9	0.00e+00	0	42	0	997195776	60	6768
2026-01-20 02:57:44.57	319.85	9.80	-44.1	-45.3	21.1	0.00e+00	0	41	0	1004535808	60	6634
2026-01-20 02:57:48.61	320.43	9.60	-42.6	-43.8	21.1	0.00e+00	0	41	0	1012924416	58	6248
2026-01-20 02:57:52.66	321.01	9.40	-43.9	-45.0	21.4	0.00e+00	0	42	0	1020264448	60	6456
2026-01-20 02:57:56.69	321.57	9.20	-43.2	-44.4	21.4	0.00e+00	0	42	0	1027604480	60	5983
2026-01-20 02:58:00.73	322.13	8.99	-42.9	-44.0	21.5	0.00e+00	0	42	0	1034944512	60	5751
2026-01-20 02:58:04.76	322.68	8.79	-43.2	-44.3	21.2	0.00e+00	0	42	0	1042284544	60	5948
2026-01-20 02:58:08.81	323.23	8.59	-43.0	-44.2	21.4	0.00e+00	0	42	0	1050673152	58	6541
2026-01-20 02:58:12.85	323.77	8.38	-43.2	-44.3	21.6	0.00e+00	0	41	0	1058013184	58	6668
2026-01-20 02:58:16.88	324.30	8.18	-42.9	-44.1	21.4	0.00e+00	0	41	0	1065353216	58	6495
2026-01-20 02:58:20.92	324.82	7.97	-42.7	-44.0	20.5	0.00e+00	0	42	0	1072693248	58	6443
2026-01-20 02:58:24.96	325.33	7.77	-44.0	-45.3	20.2	0.00e+00	0	42	0	1081081856	60	6665
2026-01-20 02:58:29.00	325.84	7.56	-44.1	-45.5	20.1	0.00e+00	0	41	0	1088421888	60	6813
2026-01-20 02:58:33.04	326.34	7.35	-44.7	-46.1	20.0	0.00e+00	0	41	0	1095761920	60	7262
2026-01-20 02:58:37.07	326.84	7.15	-44.3	-45.6	20.6	0.00e+00	0	42	0	1103101952	60	6867
2026-01-20 02:58:41.12	327.33	6.94	-43.9	-45.1	21.2	0.00e+00	0	41	0	1110441984	60	6501
2026-01-20 02:58:45.16	327.81	6.74	-44.6	-45.9	20.8	0.00e+00	0	42	0	1118830592	60	7112
2026-01-20 02:58:49.20	328.28	6.53	-44.0	-45.4	20.1	0.00e+00	0	41	0	1126170624	60	6700
2026-01-20 02:58:53.24	328.75	6.32	-44.7	-46.0	20.6	0.00e+00	0	41	0	1133510656	60	7198
2026-01-20 02:58:57.28	329.22	6.12	-45.5	-46.9	19.4	0.00e+00	0	42	0	1140850688	60	8009
2026-01-20 02:59:01.32	329.67	5.91	-44.6	-46.0	19.6	0.00e+00	0	41	0	1149239296	60	7249
2026-01-20 02:59:05.35	330.12	5.71	-45.5	-47.1	18.7	0.00e+00	0	42	0	1156579328	60	8164
2026-01-20 02:59:09.40	330.57	5.50	-46.1	-47.8	18.5	0.00e+00	0	42	0	1163919360	60	8905
2026-01-20 02:59:13.44	331.01	5.30	-45.1	-46.7	19.0	0.00e+00	0	41	0	1171259392	60	7843
2026-01-20 02:59:17.48	331.44	5.09	-44.5	-46.2	18.7	0.00e+00	0	41	0	1178599424	60	7357
2026-01-20 02:59:21.52	331.86	4.89	-45.6	-47.6	17.4	0.00e+00	0	41	0	1186988032	60	8680
2026-01-20 02:59:25.56	332.29	4.68	-46.0	-48.2	16.5	0.00e+00	0	41	0	1194328064	60	9275
2026-01-20 02:59:29.59	332.70	4.48	-47.2	-52.2	9.8	5.02e-03	0	42	0	1201668096	60	14702
2026-01-20 02:59:33.63	333.11	4.27	-48.3	-57.7	4.2	6.28e-01	0	42	0	1209008128	60	27877
2026-01-20 02:59:37.67	333.51	4.07	-48.0	-62.4	3.6	1.51e+00	0	42	104	1210056704	60	47500
2026-01-20 02:59:41.71	333.91	3.87	-47.9	-63.1	3.6	1.51e+00	0	42	104	1210056704	60	51471
2026-01-20 02:59:45.75	334.31	3.67	-48.2	-63.1	3.6	1.51e+00	0	41	104	1210056704	60	51691
2026-01-20 02:59:49.79	334.70	3.46	-48.4	-63.6	3.6	1.51e+00	0	42	104	1210056704	60	54405
2026-01-20 02:59:53.83	335.08	3.26	-48.2	-63.4	3.6	1.51e+00	0	42	104	1210056704	60	53521
2026-01-20 02:59:57.86	335.46	3.06	-48.1	-63.3	3.6	1.51e+00	0	42	104	1210056704	60	52681
2026-01-20 03:00:01.90	335.83	2.86	-51.8	-67.0	3.6	1.51e+00	0	42	104	1210056704	60	81073
2026-01-20 03:00:05.95	336.20	2.66	-52.0	-67.3	3.6	1.51e+00	0	42	104	1210056704	60	83322
2026-01-20 03:00:09.99	336.57	2.46	-52.8	-68.0	3.6	1.51e+00	0	42	104	1210056704	60	90557
2026-01-20 03:00:14.03	336.93	2.26	-52.5	-67.7	3.6	1.51e+00	0	42	104	1210056704	60	88014
2026-01-20 03:00:18.07	337.29	2.06	-52.2	-67.5	3.6	1.51e+00	0	42	104	1210056704	60	85969
2026-01-20 03:00:22.11	337.64	1.87	-52.3	-67.5	3.6	1.51e+00	0	42	104	1210056704	60	86199
2026-01-20 03:00:26.15	337.98	1.67	-52.7	-67.9	3.6	1.51e+00	0	42	104	1210056704	60	89874
2026-01-20 03:00:30.19	338.33	1.47	-52.6	-67.8	3.6	1.51e+00	0	42	104	1210056704	60	88735
2026-01-20 03:00:34.23	338.66	1.28	-53.5	-68.6	3.6	1.51e+00	0	42	104	1210056704	60	97464
2026-01-20 03:00:38.26	339.00	1.08	-53.5	-68.7	3.6	1.51e+00	0	42	104	1210056704	60	98809
2026-01-20 03:00:42.30	339.33	0.89	-53.3	-68.5	3.6	1.51e+00	0	42	104	1210056704	60	96426
2026-01-20 03:00:46.34	339.65	0.69	-52.4	-67.6	3.6	1.51e+00	0	42	104	1210056704	60	86397
2026-01-20 03:00:50.38	339.98	0.50	-52.8	-68.0	3.6	1.51e+00	0	42	104	1210056704	60	91248
2026-01-20 03:00:54.42	340.29	0.31	-52.5	-67.7	3.6	1.51e+00	0	42	104	1210056704	60	87474
2026-01-20 03:00:58.45	340.61	0.11	-53.3	-68.5	3.6	1.51e+00	0	42	104	1210056704	60	96538

#Closed at: 2026-01-20 03:01:01
#Recorded file [1210 MB]: D:/lorett/data/35029_260120_144750.dat