passes_logs/2026/01/20/R4.6S_Anadyr/R4.6S_Anadyr__20260120_134751_AQUA_rec.log

#Pass ID: 20260120_134751_AQUA
#Satellite: AQUA
#Configuration: AQUA
#almurnet v.1.7.20251203
#Start time: 2026-01-20 13:47:53

#Version: 2.2.20231116
#Station: R4.6S_Anadyr
#Location: 177.4865 lon 64.73178 lat
#TLE: 1 27424U 02022A   26019.95447505  .00001296  00000+0  26931-3 0  9993
#TLE: 2 27424  98.4091 346.4652 0001983  72.1988 359.6274 14.61832814261618

#Time	Az	El	Level	Level2	SNR	BER	BlckErr	Temp	State	Recorded	gain1	gain2
2026-01-20 13:47:53.19	22.86	0.08	-51.7	-66.7	3.5	1.51e+00	0	40	0	0	60	77807
2026-01-20 13:47:56.21	23.15	0.21	-52.3	-70.2	3.5	3.02e+01	0	41	104	0	60	123991
2026-01-20 13:47:59.24	23.45	0.35	-52.5	-70.4	3.5	3.02e+01	0	41	104	0	60	126888
2026-01-20 13:48:02.27	23.75	0.49	-52.3	-70.2	3.5	3.02e+01	0	41	104	0	60	124187
2026-01-20 13:48:05.30	24.05	0.62	-52.0	-69.9	3.5	3.02e+01	0	41	104	0	60	120624
2026-01-20 13:48:08.33	24.35	0.76	-51.8	-69.6	3.5	3.02e+01	0	41	104	0	60	116152
2026-01-20 13:48:11.36	24.66	0.90	-51.5	-69.4	3.5	3.02e+01	0	41	104	0	60	113692
2026-01-20 13:48:14.39	24.97	1.04	-51.2	-69.2	3.5	3.02e+01	0	41	104	0	60	110362
2026-01-20 13:48:17.41	25.28	1.17	-50.6	-68.6	3.5	3.02e+01	0	41	104	0	60	103229
2026-01-20 13:48:20.44	25.60	1.31	-49.9	-67.9	3.5	3.02e+01	0	42	104	0	60	95125
2026-01-20 13:48:23.47	25.92	1.45	-49.8	-67.8	3.5	3.02e+01	0	41	104	0	60	94479
2026-01-20 13:48:26.50	26.24	1.59	-50.0	-67.9	3.5	3.02e+01	0	42	104	0	60	95780
2026-01-20 13:48:29.53	26.57	1.73	-49.9	-67.7	3.5	3.02e+01	0	42	104	0	60	93369
2026-01-20 13:48:32.56	26.89	1.86	-49.9	-67.9	3.5	3.02e+01	0	42	104	0	60	95771
2026-01-20 13:48:35.59	27.23	2.00	-49.9	-67.9	3.5	3.02e+01	0	42	104	0	60	95339
2026-01-20 13:48:38.62	27.56	2.14	-49.8	-67.8	3.5	3.02e+01	0	42	104	0	60	94603
2026-01-20 13:48:41.65	27.90	2.28	-49.8	-67.8	3.5	3.02e+01	0	42	104	0	60	94662
2026-01-20 13:48:44.68	28.24	2.42	-49.9	-67.8	3.5	3.02e+01	0	42	104	0	60	94906
2026-01-20 13:48:47.71	28.59	2.55	-49.8	-67.7	3.5	3.02e+01	0	42	104	0	60	92893
2026-01-20 13:48:50.74	28.94	2.69	-49.4	-65.5	3.5	3.02e+01	0	42	104	0	60	72240
2026-01-20 13:48:53.77	29.29	2.83	-45.2	-56.7	3.5	3.02e+01	0	42	104	0	60	26285
2026-01-20 13:48:56.80	29.64	2.97	-45.4	-57.0	3.5	3.02e+01	0	42	104	0	60	27110
2026-01-20 13:48:59.83	30.00	3.11	-46.2	-58.1	3.5	3.02e+01	0	42	104	0	58	34783
2026-01-20 13:49:02.86	30.37	3.25	-48.8	-63.2	3.5	3.02e+01	0	42	104	0	60	55414
2026-01-20 13:49:05.89	30.73	3.38	-42.7	-53.4	3.5	3.02e+01	0	42	104	0	58	20136
2026-01-20 13:49:08.92	31.10	3.52	-45.2	-56.6	3.5	3.02e+01	0	42	104	0	60	26017
2026-01-20 13:49:11.94	31.47	3.66	-49.7	-66.6	3.5	3.02e+01	0	42	104	0	60	82438
2026-01-20 13:49:14.97	31.85	3.80	-41.6	-52.1	3.5	3.02e+01	0	42	104	0	58	17416
2026-01-20 13:49:18.00	32.23	3.93	-45.6	-57.1	3.6	3.02e+01	0	42	104	0	60	27571
2026-01-20 13:49:21.02	32.62	4.07	-42.2	-52.8	3.5	3.02e+01	0	42	104	0	58	18849
2026-01-20 13:49:24.05	33.01	4.21	-41.8	-52.3	3.5	3.02e+01	0	42	104	0	56	19916
2026-01-20 13:49:27.08	33.40	4.34	-44.5	-55.5	3.5	3.02e+01	0	42	104	0	60	22987
2026-01-20 13:49:30.10	33.79	4.48	-45.6	-57.0	3.5	3.02e+01	0	42	104	0	60	27206
2026-01-20 13:49:33.13	34.19	4.61	-43.3	-54.1	3.5	3.02e+01	0	42	104	0	60	19580
2026-01-20 13:49:36.16	34.60	4.75	-41.6	-52.1	3.5	3.02e+01	0	42	104	0	58	17327
2026-01-20 13:49:39.18	35.00	4.89	-46.4	-58.0	3.5	3.02e+01	0	42	104	0	60	30420
2026-01-20 13:49:42.20	35.42	5.02	-41.4	-51.8	3.5	3.02e+01	0	42	104	0	58	16838
2026-01-20 13:49:45.23	35.83	5.16	-41.9	-52.4	3.5	3.02e+01	0	42	104	0	60	16003
2026-01-20 13:49:48.27	36.25	5.29	-48.1	-60.8	3.5	3.02e+01	0	42	104	0	60	42227
2026-01-20 13:49:51.29	36.68	5.42	-41.3	-51.8	3.6	3.02e+01	0	42	104	0	58	16790
2026-01-20 13:49:54.31	37.10	5.56	-44.3	-55.2	3.5	3.02e+01	0	42	104	0	60	22238
2026-01-20 13:49:57.34	37.54	5.69	-47.3	-59.3	3.5	3.02e+01	0	42	104	0	60	35627
2026-01-20 13:50:00.37	37.97	5.82	-44.2	-55.2	3.5	3.02e+01	0	42	104	0	60	22085
2026-01-20 13:50:03.40	38.41	5.95	-47.3	-59.2	3.5	3.02e+01	0	42	104	0	60	35153
2026-01-20 13:50:06.43	38.86	6.08	-50.5	-68.0	3.5	3.02e+01	0	42	104	0	60	96229
2026-01-20 13:50:09.46	39.31	6.21	-44.2	-55.2	3.5	3.02e+01	0	42	104	0	60	22044
2026-01-20 13:50:12.48	39.76	6.34	-41.3	-51.8	3.5	3.02e+01	0	42	104	0	58	16716
2026-01-20 13:50:15.52	40.22	6.47	-46.1	-57.6	3.5	3.02e+01	0	42	104	0	60	29143
2026-01-20 13:50:18.54	40.68	6.60	-41.6	-52.0	3.5	3.02e+01	0	42	104	0	58	17136
2026-01-20 13:50:21.58	41.15	6.73	-42.2	-52.9	3.7	3.02e+01	0	42	104	0	56	21344
2026-01-20 13:50:24.61	41.62	6.86	-44.1	-55.3	3.5	3.02e+01	0	42	104	0	60	22415
2026-01-20 13:50:27.64	42.09	6.98	-41.0	-51.6	3.5	3.02e+01	0	42	104	0	56	18391
2026-01-20 13:50:30.67	42.57	7.11	-41.7	-52.3	3.5	3.02e+01	0	42	104	0	56	20026
2026-01-20 13:50:33.70	43.06	7.23	-44.9	-56.0	3.5	3.02e+01	0	42	104	0	60	24145
2026-01-20 13:50:36.72	43.54	7.36	-40.8	-51.2	3.5	3.02e+01	0	42	104	0	56	17580
2026-01-20 13:50:39.75	44.04	7.48	-43.0	-53.7	3.5	3.02e+01	0	42	104	0	56	23411
2026-01-20 13:50:42.78	44.53	7.60	-44.2	-55.2	3.5	3.02e+01	0	42	104	0	60	22043
2026-01-20 13:50:45.81	45.04	7.72	-40.3	-50.7	3.5	3.02e+01	0	42	104	0	56	16523
2026-01-20 13:50:48.84	45.54	7.84	-46.2	-57.7	3.5	3.02e+01	0	42	104	0	60	29476
2026-01-20 13:50:51.86	46.05	7.96	-43.6	-54.4	3.6	3.02e+01	0	42	104	0	60	20152
2026-01-20 13:50:54.89	46.56	8.07	-40.6	-50.9	3.6	3.02e+01	0	42	104	0	56	16992
2026-01-20 13:50:57.92	47.08	8.19	-49.6	-64.0	3.5	3.02e+01	0	42	104	0	60	60782
2026-01-20 13:51:00.95	47.61	8.30	-41.6	-52.1	3.5	3.02e+01	0	42	104	0	60	15513
2026-01-20 13:51:03.98	48.13	8.41	-41.6	-52.0	3.5	3.02e+01	0	42	104	0	56	19188
2026-01-20 13:51:07.01	48.67	8.52	-50.2	-65.8	3.5	3.02e+01	0	42	104	0	60	75230
2026-01-20 13:51:10.04	49.20	8.63	-41.6	-52.1	3.6	3.02e+01	0	42	104	0	60	15420
2026-01-20 13:51:13.07	49.74	8.74	-40.9	-51.3	3.5	3.02e+01	0	42	104	0	56	17853
2026-01-20 13:51:16.10	50.29	8.85	-50.9	-68.3	3.5	3.02e+01	0	42	104	0	60	100156
2026-01-20 13:51:19.12	50.83	8.95	-39.9	-50.3	3.5	3.02e+01	0	42	104	0	56	15790
2026-01-20 13:51:22.15	51.39	9.06	-39.8	-50.4	3.5	3.02e+01	0	42	104	0	54	17991
2026-01-20 13:51:25.17	51.94	9.16	-49.4	-68.3	3.5	3.02e+01	0	42	104	0	60	99920
2026-01-20 13:51:28.20	52.50	9.26	-41.2	-51.6	3.5	3.02e+01	0	42	104	0	56	18368
2026-01-20 13:51:31.23	53.07	9.36	-40.5	-50.9	3.5	3.02e+01	0	42	104	0	56	16920
2026-01-20 13:51:34.26	53.64	9.45	-50.9	-67.8	3.5	3.02e+01	0	42	104	0	60	94193
2026-01-20 13:51:37.28	54.21	9.55	-41.1	-51.7	3.6	3.02e+01	0	42	104	0	58	16635
2026-01-20 13:51:40.31	54.78	9.64	-40.0	-50.3	3.5	3.02e+01	0	42	104	0	56	15853
2026-01-20 13:51:43.34	55.36	9.73	-50.1	-68.1	3.5	3.02e+01	0	42	104	0	60	98168
2026-01-20 13:51:46.37	55.95	9.82	-40.4	-50.7	3.5	3.02e+01	0	42	104	0	56	16530
2026-01-20 13:51:49.40	56.54	9.90	-39.7	-50.1	3.5	3.02e+01	0	42	104	0	56	15478
2026-01-20 13:51:52.43	57.13	9.99	-50.8	-68.0	3.5	3.02e+01	0	42	104	0	60	96349
2026-01-20 13:51:55.45	57.72	10.07	-40.7	-51.1	3.5	3.02e+01	0	42	104	0	56	17439
2026-01-20 13:51:58.48	58.32	10.15	-40.9	-51.3	3.5	3.02e+01	0	42	104	0	56	17709
2026-01-20 13:52:01.51	58.92	10.22	-50.9	-67.7	3.5	3.02e+01	0	42	104	0	60	93653
2026-01-20 13:52:04.54	59.53	10.30	-41.0	-51.4	3.5	3.02e+01	0	42	104	0	56	18095
2026-01-20 13:52:07.57	60.14	10.37	-40.4	-50.7	3.5	3.02e+01	0	42	104	0	56	16586
2026-01-20 13:52:10.59	60.75	10.44	-50.4	-68.3	3.5	3.02e+01	0	42	104	0	60	100573
2026-01-20 13:52:13.62	61.36	10.50	-39.7	-49.9	3.5	3.02e+01	0	42	104	0	54	17083
2026-01-20 13:52:16.65	61.98	10.57	-39.6	-50.0	3.5	3.02e+01	0	42	104	0	56	15262
2026-01-20 13:52:19.68	62.60	10.63	-50.8	-68.3	3.5	3.02e+01	0	42	104	0	60	100626
2026-01-20 13:52:22.71	63.22	10.69	-40.1	-50.6	3.6	3.02e+01	0	42	104	0	56	16326
2026-01-20 13:52:25.73	63.85	10.75	-38.8	-49.1	3.6	3.02e+01	0	42	104	0	52	17310
2026-01-20 13:52:28.75	64.48	10.80	-48.6	-65.6	3.5	3.02e+01	0	42	104	0	60	73430
2026-01-20 13:52:31.78	65.11	10.85	-40.9	-51.3	3.5	3.02e+01	0	42	104	0	56	17716
2026-01-20 13:52:34.81	65.74	10.90	-39.2	-49.5	3.5	3.02e+01	0	42	104	0	54	16312
2026-01-20 13:52:37.84	66.37	10.94	-49.4	-63.6	3.5	3.02e+01	0	42	104	0	60	58197
2026-01-20 13:52:40.86	67.01	10.99	-39.6	-50.1	3.5	3.02e+01	0	42	104	0	54	17307
2026-01-20 13:52:43.88	67.65	11.02	-41.0	-51.6	3.6	3.02e+01	0	42	104	0	54	20751
2026-01-20 13:52:46.91	68.29	11.06	-47.8	-65.5	3.5	3.02e+01	0	42	104	0	60	72635
2026-01-20 13:52:49.94	68.93	11.09	-39.3	-49.8	3.5	3.02e+01	0	42	104	0	54	16838
2026-01-20 13:52:52.97	69.58	11.13	-38.7	-49.2	3.5	3.02e+01	0	42	104	0	52	17551
2026-01-20 13:52:56.00	70.22	11.15	-50.2	-66.1	3.5	3.02e+01	0	42	104	0	60	77408
2026-01-20 13:52:59.03	70.87	11.18	-40.7	-51.0	3.5	3.02e+01	0	42	104	0	56	17239
2026-01-20 13:53:02.06	71.52	11.20	-41.9	-52.4	3.5	3.02e+01	0	42	104	0	56	20219
2026-01-20 13:53:05.09	72.16	11.22	-50.7	-67.6	3.5	3.02e+01	0	42	104	0	60	91954
2026-01-20 13:53:08.12	72.81	11.23	-39.1	-49.4	3.5	3.02e+01	0	42	104	0	52	17972
2026-01-20 13:53:11.15	73.47	11.24	-42.8	-53.6	3.5	3.02e+01	0	42	104	0	58	20581
2026-01-20 13:53:14.18	74.12	11.25	-49.9	-66.8	3.5	3.02e+01	0	42	104	0	60	84022
2026-01-20 13:53:17.20	74.77	11.26	-39.4	-49.8	3.5	3.02e+01	0	42	104	0	54	16776
2026-01-20 13:53:20.23	75.42	11.26	-44.4	-55.2	3.5	3.02e+01	0	42	104	0	60	22225
2026-01-20 13:53:23.26	76.07	11.26	-48.8	-67.5	3.5	3.02e+01	0	42	104	0	60	91722
2026-01-20 13:53:26.28	76.72	11.26	-39.2	-49.7	3.5	3.02e+01	0	42	104	0	54	16550
2026-01-20 13:53:29.31	77.37	11.25	-40.1	-50.3	3.5	3.02e+01	0	42	104	0	54	17802
2026-01-20 13:53:32.34	78.02	11.24	-50.0	-67.2	3.5	3.02e+01	0	42	104	0	60	88523
2026-01-20 13:53:35.37	78.67	11.23	-39.4	-49.7	3.5	3.02e+01	0	42	104	0	52	18567
2026-01-20 13:53:38.39	79.32	11.21	-41.7	-52.2	3.5	3.02e+01	0	42	104	0	58	17597
2026-01-20 13:53:41.42	79.97	11.19	-50.2	-66.0	3.5	3.02e+01	0	42	104	0	60	76744
2026-01-20 13:53:44.44	80.61	11.17	-39.5	-49.8	3.6	3.02e+01	0	42	104	0	54	16773
2026-01-20 13:53:47.47	81.26	11.14	-39.5	-49.8	3.6	3.02e+01	0	42	104	0	52	18932
2026-01-20 13:53:50.50	81.91	11.11	-50.3	-66.4	3.6	3.02e+01	0	42	104	0	60	80024
2026-01-20 13:53:53.53	82.55	11.08	-40.1	-50.3	3.5	3.02e+01	0	42	104	0	56	15928
2026-01-20 13:53:56.55	83.19	11.05	-40.4	-50.8	3.6	3.02e+01	0	42	104	0	56	16734
2026-01-20 13:53:59.59	83.84	11.01	-46.8	-58.6	3.5	3.02e+01	0	42	104	0	60	32784
2026-01-20 13:54:02.62	84.48	10.97	-38.9	-49.1	3.5	3.02e+01	0	42	104	0	54	15523
2026-01-20 13:54:05.65	85.11	10.93	-39.6	-49.9	3.6	3.02e+01	0	42	104	0	54	16945
2026-01-20 13:54:08.68	85.75	10.88	-45.7	-57.2	3.5	3.02e+01	0	42	104	0	60	27814
2026-01-20 13:54:11.70	86.38	10.83	-40.4	-50.7	3.5	3.02e+01	0	42	104	0	56	16603
2026-01-20 13:54:14.73	87.01	10.78	-39.5	-49.7	3.5	3.02e+01	0	42	104	0	54	16593
2026-01-20 13:54:17.76	87.64	10.73	-42.7	-53.3	3.5	3.02e+01	0	42	104	0	54	25023
2026-01-20 13:54:20.79	88.27	10.67	-39.5	-49.9	3.5	3.02e+01	0	42	104	0	54	17023
2026-01-20 13:54:23.82	88.89	10.61	-41.7	-52.2	3.5	3.02e+01	0	42	104	0	60	15610
2026-01-20 13:54:26.85	89.51	10.54	-39.0	-49.3	3.5	3.02e+01	0	42	104	0	58	12601
2026-01-20 13:54:29.87	90.13	10.48	-39.3	-49.6	3.5	3.02e+01	0	42	104	0	52	18391
2026-01-20 13:54:32.90	90.75	10.41	-40.7	-51.2	3.5	3.02e+01	0	42	104	0	58	15625
2026-01-20 13:54:35.93	91.36	10.34	-39.4	-49.7	3.5	3.02e+01	0	42	104	0	52	18539
2026-01-20 13:54:38.96	91.97	10.27	-40.0	-50.3	3.5	3.02e+01	0	42	104	0	54	17852
2026-01-20 13:54:41.99	92.57	10.19	-39.9	-50.3	3.5	3.02e+01	0	42	104	0	52	19859
2026-01-20 13:54:45.01	93.18	10.11	-39.9	-50.2	3.5	3.02e+01	0	42	104	0	52	19682
2026-01-20 13:54:48.04	93.77	10.03	-39.3	-49.4	3.5	3.02e+01	0	42	104	0	54	16116
2026-01-20 13:54:51.06	94.37	9.95	-40.2	-50.7	3.5	3.02e+01	0	42	104	0	54	18614
2026-01-20 13:54:54.09	94.96	9.87	-41.0	-51.5	3.4	3.02e+01	0	42	104	0	52	22912
2026-01-20 13:54:57.12	95.55	9.78	-39.9	-50.2	3.5	3.02e+01	0	42	104	0	56	15674
2026-01-20 13:55:00.15	96.14	9.69	-40.0	-50.4	3.5	3.02e+01	0	42	104	0	54	18078
2026-01-20 13:55:03.18	96.72	9.60	-44.2	-46.7	5.1	3.02e+01	0	42	104	0	58	9363
2026-01-20 13:55:06.20	97.29	9.51	-44.7	-47.1	21.1	3.02e+01	56	42	0	3145728	60	8725
2026-01-20 13:55:09.23	97.87	9.41	-42.2	-43.9	24.2	3.02e+01	59	42	0	8912896	60	6013
2026-01-20 13:55:12.26	98.44	9.31	-39.8	-41.1	26.8	3.02e+01	60	42	0	14155776	54	6204
2026-01-20 13:55:15.28	99.00	9.21	-39.1	-40.5	27.4	3.02e+01	60	42	0	19922944	52	6436
2026-01-20 13:55:18.31	99.56	9.11	-39.0	-40.3	27.5	3.02e+01	58	42	0	25690112	52	6308
2026-01-20 13:55:21.34	100.12	9.01	-39.1	-40.5	27.4	3.02e+01	61	42	0	31457280	52	6453
2026-01-20 13:55:24.37	100.67	8.91	-39.4	-40.7	27.2	3.02e+01	61	42	0	37224448	52	6610
2026-01-20 13:55:27.40	101.22	8.80	-38.7	-40.0	27.9	3.02e+01	62	42	0	42467328	52	6127
2026-01-20 13:55:30.43	101.77	8.69	-39.9	-41.3	26.6	3.02e+01	52	42	0	48234496	54	6328
2026-01-20 13:55:33.46	102.31	8.58	-38.7	-40.0	27.9	3.02e+01	61	42	0	54001664	52	6116
2026-01-20 13:55:36.49	102.84	8.47	-39.6	-41.0	27.0	3.02e+01	60	42	0	59768832	52	6816
2026-01-20 13:55:39.52	103.38	8.36	-40.2	-41.6	26.4	3.02e+01	59	42	0	65536000	54	6514
2026-01-20 13:55:42.55	103.91	8.24	-38.6	-39.9	28.0	3.02e+01	59	42	0	71303168	52	6046
2026-01-20 13:55:45.57	104.43	8.13	-39.1	-40.4	27.5	3.02e+01	48	42	0	77070336	52	6406
2026-01-20 13:55:48.60	104.95	8.01	-39.2	-40.5	27.3	3.02e+01	57	42	0	82313216	52	6489
2026-01-20 13:55:51.63	105.46	7.89	-39.0	-40.3	27.6	3.02e+01	60	42	0	88080384	52	6323
2026-01-20 13:55:54.66	105.97	7.78	-39.7	-41.1	26.8	3.02e+01	57	42	0	93847552	54	6144
2026-01-20 13:55:57.68	106.48	7.66	-40.3	-41.7	26.4	3.02e+01	60	42	0	99614720	54	6628
2026-01-20 13:56:00.71	106.98	7.53	-39.3	-40.7	27.2	3.02e+01	59	42	0	105381888	52	6574
2026-01-20 13:56:03.74	107.48	7.41	-39.5	-40.8	26.9	3.02e+01	46	42	0	110624768	54	5984
2026-01-20 13:56:06.76	107.97	7.29	-40.5	-42.0	26.1	3.02e+01	52	42	0	116391936	54	6846
2026-01-20 13:56:09.79	108.46	7.16	-39.2	-40.6	27.2	3.02e+01	58	42	0	122159104	54	5822
2026-01-20 13:56:12.81	108.94	7.04	-39.5	-40.9	26.8	3.02e+01	60	42	0	127926272	52	6741
2026-01-20 13:56:15.84	109.42	6.91	-39.4	-40.8	27.1	3.02e+01	59	42	0	133693440	52	6671
2026-01-20 13:56:18.87	109.89	6.78	-40.1	-41.5	26.3	3.02e+01	59	42	0	139460608	54	6486
2026-01-20 13:56:21.90	110.37	6.66	-39.8	-41.2	26.6	3.02e+01	60	42	0	144703488	54	6232
2026-01-20 13:56:24.92	110.83	6.53	-40.1	-41.6	26.2	3.02e+01	58	42	0	150470656	54	6524
2026-01-20 13:56:27.95	111.29	6.40	-39.4	-40.8	27.2	3.02e+01	57	42	0	156237824	54	5943
2026-01-20 13:56:30.98	111.75	6.27	-39.2	-40.5	27.2	3.02e+01	48	42	0	162004992	54	5763
2026-01-20 13:56:34.01	112.21	6.14	-39.3	-40.6	27.1	3.02e+01	62	42	0	167772160	54	5857
2026-01-20 13:56:37.04	112.66	6.00	-39.9	-41.2	26.6	3.02e+01	59	42	0	173539328	52	7037
2026-01-20 13:56:40.07	113.10	5.87	-40.0	-41.4	26.4	3.02e+01	57	42	0	178782208	54	6382
2026-01-20 13:56:43.10	113.54	5.74	-41.0	-42.5	25.3	3.02e+01	58	42	0	184549376	56	6434
2026-01-20 13:56:46.13	113.98	5.60	-40.1	-41.5	26.3	3.02e+01	63	42	0	190316544	56	5785
2026-01-20 13:56:49.15	114.41	5.47	-40.1	-41.5	26.2	3.02e+01	62	42	0	196083712	54	6453
2026-01-20 13:56:52.17	114.84	5.34	-40.4	-41.9	25.8	3.02e+01	44	42	0	201850880	54	6733
2026-01-20 13:56:55.20	115.26	5.20	-40.2	-41.7	25.6	3.02e+01	60	42	0	207618048	54	6635
2026-01-20 13:56:58.23	115.68	5.07	-39.0	-40.3	27.2	3.02e+01	57	42	0	212860928	52	6341
2026-01-20 13:57:01.26	116.10	4.93	-39.6	-41.0	26.5	3.02e+01	61	42	0	218628096	54	6129
2026-01-20 13:57:04.28	116.51	4.79	-39.6	-41.0	26.6	3.02e+01	60	42	0	224395264	54	6110
2026-01-20 13:57:07.31	116.92	4.66	-42.1	-43.8	23.9	3.02e+01	63	42	0	230162432	56	7511
2026-01-20 13:57:10.34	117.32	4.52	-41.1	-42.7	25.0	3.02e+01	60	42	0	235929600	58	5868
2026-01-20 13:57:13.36	117.72	4.38	-39.9	-41.3	26.2	3.02e+01	59	42	0	241696768	56	5657
2026-01-20 13:57:16.39	118.12	4.24	-41.6	-43.2	24.0	3.02e+01	44	42	0	246939648	58	6255
2026-01-20 13:57:19.41	118.51	4.11	-42.4	-44.2	23.3	3.02e+01	61	42	0	252706816	58	6988
2026-01-20 13:57:22.44	118.89	3.97	-41.5	-43.1	24.1	3.02e+01	60	42	0	258473984	56	6940
2026-01-20 13:57:25.47	119.28	3.83	-40.5	-42.1	25.2	3.02e+01	60	42	0	264241152	54	6891
2026-01-20 13:57:28.49	119.66	3.69	-40.0	-41.5	25.9	3.02e+01	58	42	0	270008320	54	6461
2026-01-20 13:57:31.52	120.04	3.55	-41.3	-43.0	24.2	3.02e+01	57	42	0	275251200	56	6816
2026-01-20 13:57:34.55	120.41	3.41	-41.5	-43.2	24.0	3.02e+01	52	42	0	281018368	56	6995
2026-01-20 13:57:37.58	120.78	3.27	-44.6	-47.2	20.1	3.02e+01	49	42	0	286785536	60	8794
2026-01-20 13:57:40.61	121.14	3.14	-38.1	-39.5	27.4	3.02e+01	61	42	0	292552704	50	6435
2026-01-20 13:57:43.63	121.51	3.00	-45.6	-48.7	15.1	3.02e+01	62	42	0	298319872	56	13264
2026-01-20 13:57:46.66	121.86	2.86	-51.1	-69.0	3.5	3.02e+01	0	42	104	298319872	60	108582
2026-01-20 13:57:49.68	122.22	2.72	-51.3	-69.4	3.5	3.02e+01	0	43	104	298319872	60	113516
2026-01-20 13:57:52.71	122.57	2.58	-51.6	-69.5	3.5	3.02e+01	0	42	104	298319872	60	115092
2026-01-20 13:57:55.74	122.92	2.44	-51.7	-69.7	3.5	3.02e+01	0	42	104	298319872	60	117125
2026-01-20 13:57:58.77	123.26	2.30	-51.8	-69.7	3.5	3.02e+01	0	43	104	298319872	60	117159
2026-01-20 13:58:01.77	123.60	2.16	-51.8	-69.7	3.5	3.02e+01	0	42	104	298319872	60	117209
2026-01-20 13:58:04.80	123.94	2.02	-51.9	-69.7	3.5	3.02e+01	0	42	104	298319872	60	118055
2026-01-20 13:58:07.83	124.27	1.88	-51.8	-69.7	3.5	3.02e+01	0	43	104	298319872	60	117312
2026-01-20 13:58:10.86	124.60	1.74	-51.8	-69.7	3.5	3.02e+01	0	42	104	298319872	60	118003
2026-01-20 13:58:13.89	124.93	1.60	-51.9	-69.8	3.5	3.02e+01	0	42	104	298319872	60	118362
2026-01-20 13:58:16.92	125.26	1.46	-51.9	-69.8	3.5	3.02e+01	0	42	104	298319872	60	119443
2026-01-20 13:58:19.95	125.58	1.32	-52.0	-69.9	3.5	3.02e+01	0	43	104	298319872	60	120360
2026-01-20 13:58:22.97	125.90	1.19	-52.1	-70.0	3.5	3.02e+01	0	43	104	298319872	60	121193
2026-01-20 13:58:26.00	126.21	1.05	-52.3	-70.2	3.5	3.02e+01	0	43	104	298319872	60	124175
2026-01-20 13:58:29.04	126.52	0.91	-52.1	-69.9	3.5	3.02e+01	0	43	104	298319872	60	120291
2026-01-20 13:58:32.07	126.83	0.77	-51.9	-69.8	3.5	3.02e+01	0	43	104	298319872	60	118475
2026-01-20 13:58:35.10	127.14	0.63	-51.9	-69.8	3.5	3.02e+01	0	43	104	298319872	60	118419
2026-01-20 13:58:38.13	127.44	0.49	-52.0	-69.9	3.5	3.02e+01	0	42	104	298319872	60	120921
2026-01-20 13:58:41.16	127.74	0.35	-52.1	-70.0	3.5	3.02e+01	0	43	104	298319872	60	121706
2026-01-20 13:58:44.19	128.04	0.21	-52.2	-70.0	3.5	3.02e+01	0	43	104	298319872	60	122087
2026-01-20 13:58:47.21	128.33	0.07	-52.3	-70.2	3.5	3.02e+01	0	43	104	298319872	60	124328

#Closed at: 2026-01-20 13:58:49
#Recorded file [298 MB]: D:/lorett/data/35029_260121_014753.dat