passes_logs/2026/01/20/R4.6S_Anadyr/R4.6S_Anadyr__20260120_115047_NOAA_20_JPSS-1_rec.log

#Pass ID: 20260120_115047_NOAA 20 (JPSS-1)
#Satellite: NOAA 20 (JPSS-1)
#Configuration: NOAA 20
#almurnet v.1.7.20251203
#Start time: 2026-01-20 11:50:49

#Version: 2.2.20231116
#Station: R4.6S_Anadyr
#Location: 177.4865 lon 64.73178 lat
#TLE: 1 43013U 17073A   26019.91154542  .00000116  00000+0  76014-4 0  9997
#TLE: 2 43013  98.7642 320.7991 0001304  32.0041 328.1214 14.19537346423438

#Time	Az	El	Level	Level2	SNR	BER	BlckErr	Temp	State	Recorded	gain1	gain2
2026-01-20 11:50:49.96	20.06	0.10	-52.1	-67.1	3.5	1.51e+00	0	39	0	0	60	82279
2026-01-20 11:50:52.99	20.33	0.23	-52.5	-67.7	3.6	1.51e+00	0	40	104	0	60	88067
2026-01-20 11:50:56.02	20.60	0.36	-52.0	-67.2	3.6	1.51e+00	0	40	104	0	60	82870
2026-01-20 11:50:59.05	20.87	0.49	-51.5	-66.7	3.6	1.51e+00	0	41	104	0	60	78597
2026-01-20 11:51:02.08	21.15	0.62	-51.3	-66.6	3.6	1.51e+00	0	41	104	0	60	77129
2026-01-20 11:51:05.11	21.43	0.75	-51.0	-66.3	3.6	1.51e+00	0	41	104	0	60	74450
2026-01-20 11:51:08.14	21.71	0.88	-50.7	-66.0	3.6	1.51e+00	0	41	104	0	60	71772
2026-01-20 11:51:11.17	21.99	1.01	-50.5	-65.7	3.5	1.51e+00	0	41	104	0	60	69307
2026-01-20 11:51:14.20	22.28	1.14	-49.6	-64.9	3.6	1.51e+00	0	41	104	0	60	63275
2026-01-20 11:51:17.24	22.57	1.27	-49.5	-64.7	3.6	1.51e+00	0	41	104	0	60	62239
2026-01-20 11:51:20.26	22.86	1.41	-49.5	-64.7	3.6	1.51e+00	0	41	104	0	60	62062
2026-01-20 11:51:23.29	23.15	1.54	-49.5	-64.7	3.6	1.51e+00	0	41	104	0	60	61812
2026-01-20 11:51:26.32	23.44	1.67	-49.5	-64.7	3.6	1.51e+00	0	41	104	0	60	61910
2026-01-20 11:51:29.35	23.74	1.80	-49.5	-64.7	3.6	1.51e+00	0	41	104	0	60	61933
2026-01-20 11:51:32.38	24.04	1.93	-49.5	-64.7	3.6	1.51e+00	0	41	104	0	60	62092
2026-01-20 11:51:35.41	24.34	2.06	-49.5	-64.7	3.6	1.51e+00	0	41	104	0	60	61880
2026-01-20 11:51:38.44	24.65	2.19	-49.5	-64.6	3.6	1.51e+00	0	41	104	0	60	61068
2026-01-20 11:51:41.47	24.95	2.32	-49.5	-64.7	3.6	1.51e+00	0	41	104	0	60	61968
2026-01-20 11:51:44.50	25.26	2.46	-49.5	-64.7	3.6	1.51e+00	0	41	104	0	60	61891
2026-01-20 11:51:47.52	25.58	2.59	-49.5	-64.0	3.6	1.51e+00	0	41	104	0	60	57139
2026-01-20 11:51:50.55	25.89	2.72	-48.5	-54.8	8.3	4.38e-01	0	41	0	0	60	19772
2026-01-20 11:51:53.58	26.21	2.85	-45.9	-48.8	14.6	0.00e+00	0	41	0	5242880	60	9972
2026-01-20 11:51:56.61	26.53	2.98	-45.6	-48.3	15.5	0.00e+00	0	41	0	11534336	60	9349
2026-01-20 11:51:59.64	26.85	3.11	-49.3	-63.5	3.6	1.22e-03	28	41	104	16777216	60	53951
2026-01-20 11:52:02.67	27.18	3.24	-48.6	-55.3	4.7	2.20e-06	0	41	0	18874368	60	21031
2026-01-20 11:52:05.70	27.51	3.37	-46.1	-48.8	15.0	0.00e+00	0	41	0	19922944	60	9958
2026-01-20 11:52:08.73	27.84	3.50	-44.3	-46.2	17.5	0.00e+00	0	41	0	26214400	60	7349
2026-01-20 11:52:11.76	28.18	3.63	-44.0	-45.7	18.7	0.00e+00	0	41	0	31457280	60	6998
2026-01-20 11:52:14.79	28.51	3.76	-42.2	-43.5	20.3	0.00e+00	0	41	0	37748736	58	6052
2026-01-20 11:52:17.82	28.85	3.89	-45.5	-47.8	16.6	0.00e+00	0	41	0	42991616	60	8906
2026-01-20 11:52:20.85	29.20	4.02	-42.3	-43.6	20.4	0.00e+00	0	41	0	48234496	58	6129
2026-01-20 11:52:23.88	29.54	4.15	-43.2	-44.8	19.0	0.00e+00	0	41	0	54525952	60	6253
2026-01-20 11:52:26.91	29.89	4.28	-44.2	-46.0	18.0	0.00e+00	0	41	0	59768832	60	7238
2026-01-20 11:52:29.94	30.24	4.41	-42.4	-43.7	20.2	0.00e+00	0	41	0	66060288	58	6209
2026-01-20 11:52:32.97	30.60	4.54	-43.1	-44.6	19.5	0.00e+00	0	41	0	71303168	58	6904
2026-01-20 11:52:35.99	30.96	4.67	-43.1	-44.6	19.4	0.00e+00	0	42	0	77594624	58	6901
2026-01-20 11:52:39.02	31.32	4.80	-42.8	-44.2	19.9	0.00e+00	0	42	0	82837504	58	6587
2026-01-20 11:52:42.05	31.68	4.92	-41.9	-43.1	20.8	0.00e+00	0	41	0	88080384	58	5821
2026-01-20 11:52:45.08	32.05	5.05	-42.8	-44.3	19.9	0.00e+00	0	41	0	94371840	58	6619
2026-01-20 11:52:48.11	32.42	5.18	-42.3	-43.6	20.4	0.00e+00	0	41	0	99614720	58	6115
2026-01-20 11:52:51.14	32.79	5.31	-43.1	-44.6	19.6	0.00e+00	0	41	0	105906176	58	6866
2026-01-20 11:52:54.16	33.17	5.43	-42.6	-43.9	20.3	0.00e+00	0	42	0	111149056	58	6343
2026-01-20 11:52:57.19	33.55	5.56	-43.0	-44.5	19.6	0.00e+00	0	42	0	116391936	58	6790
2026-01-20 11:53:00.22	33.93	5.68	-43.1	-44.5	19.7	0.00e+00	0	42	0	122683392	58	6816
2026-01-20 11:53:03.25	34.32	5.81	-42.5	-43.9	20.3	0.00e+00	0	42	0	127926272	58	6318
2026-01-20 11:53:06.28	34.70	5.93	-42.3	-43.6	20.6	0.00e+00	0	42	0	134217728	58	6147
2026-01-20 11:53:09.30	35.10	6.06	-42.2	-43.5	20.7	0.00e+00	0	42	0	139460608	58	6069
2026-01-20 11:53:12.33	35.49	6.18	-42.8	-44.1	20.2	0.00e+00	0	42	0	145752064	58	6534
2026-01-20 11:53:15.36	35.89	6.30	-42.6	-43.9	20.4	0.00e+00	0	42	0	150994944	58	6350
2026-01-20 11:53:18.38	36.29	6.43	-42.5	-43.8	20.6	0.00e+00	0	42	0	156237824	58	6253
2026-01-20 11:53:21.41	36.70	6.55	-42.5	-43.8	20.5	0.00e+00	0	42	0	162529280	58	6307
2026-01-20 11:53:24.44	37.10	6.67	-42.7	-44.0	20.3	0.00e+00	0	42	0	167772160	58	6447
2026-01-20 11:53:27.47	37.52	6.79	-42.6	-43.9	20.5	0.00e+00	0	41	0	174063616	58	6387
2026-01-20 11:53:30.50	37.93	6.91	-42.8	-44.1	20.3	0.00e+00	0	42	0	179306496	58	6519
2026-01-20 11:53:33.53	38.35	7.03	-42.5	-43.8	20.7	0.00e+00	0	41	0	184549376	58	6277
2026-01-20 11:53:36.56	38.77	7.15	-42.9	-44.3	20.1	0.00e+00	0	42	0	190840832	58	6644
2026-01-20 11:53:39.58	39.20	7.27	-43.4	-44.9	19.9	0.00e+00	0	42	0	196083712	58	7090
2026-01-20 11:53:42.61	39.62	7.39	-42.9	-44.3	20.2	0.00e+00	0	42	0	202375168	58	6631
2026-01-20 11:53:45.64	40.06	7.50	-42.6	-43.9	20.5	0.00e+00	0	42	0	207618048	58	6334
2026-01-20 11:53:48.67	40.49	7.62	-42.9	-44.2	20.3	0.00e+00	0	42	0	212860928	58	6602
2026-01-20 11:53:51.70	40.93	7.73	-42.7	-44.0	20.3	0.00e+00	0	42	0	219152384	58	6420
2026-01-20 11:53:54.73	41.37	7.85	-42.8	-44.1	20.3	0.00e+00	0	42	0	224395264	58	6517
2026-01-20 11:53:57.76	41.82	7.96	-42.8	-44.2	20.2	0.00e+00	0	42	0	230686720	58	6550
2026-01-20 11:54:00.79	42.26	8.07	-42.8	-44.1	20.2	0.00e+00	0	42	0	235929600	58	6533
2026-01-20 11:54:03.82	42.72	8.18	-42.8	-44.2	20.3	0.00e+00	0	42	0	242221056	58	6542
2026-01-20 11:54:06.85	43.17	8.29	-42.6	-43.9	20.5	0.00e+00	0	42	0	247463936	58	6367
2026-01-20 11:54:09.87	43.63	8.40	-43.2	-44.6	19.9	0.00e+00	0	42	0	252706816	58	6896
2026-01-20 11:54:12.90	44.09	8.51	-42.9	-44.3	20.0	0.00e+00	0	42	0	258998272	58	6652
2026-01-20 11:54:15.93	44.55	8.61	-42.8	-44.2	20.2	0.00e+00	0	42	0	264241152	58	6548
2026-01-20 11:54:18.96	45.02	8.72	-42.5	-43.8	20.6	0.00e+00	0	42	0	270532608	58	6286
2026-01-20 11:54:21.98	45.49	8.82	-43.2	-44.6	20.1	0.00e+00	0	42	0	275775488	58	6856
2026-01-20 11:54:25.01	45.97	8.93	-42.5	-43.8	20.8	0.00e+00	0	42	0	281018368	58	6246
2026-01-20 11:54:28.04	46.45	9.03	-42.4	-43.6	20.9	0.00e+00	0	42	0	287309824	58	6142
2026-01-20 11:54:31.07	46.93	9.13	-42.8	-44.1	20.4	0.00e+00	0	42	0	292552704	58	6484
2026-01-20 11:54:34.10	47.41	9.23	-42.9	-44.2	20.5	0.00e+00	0	42	0	298844160	58	6601
2026-01-20 11:54:37.13	47.90	9.33	-43.0	-44.3	20.3	0.00e+00	0	42	0	304087040	58	6682
2026-01-20 11:54:40.16	48.39	9.42	-42.5	-43.8	20.5	0.00e+00	0	42	0	310378496	58	6287
2026-01-20 11:54:43.19	48.88	9.52	-43.0	-44.4	20.4	0.00e+00	0	42	0	315621376	58	6698
2026-01-20 11:54:46.22	49.38	9.61	-43.5	-44.9	19.7	0.00e+00	0	42	0	320864256	58	7132
2026-01-20 11:54:49.24	49.88	9.70	-43.1	-44.4	20.1	0.00e+00	0	42	0	327155712	58	6759
2026-01-20 11:54:52.27	50.38	9.79	-42.4	-43.7	20.5	0.00e+00	0	42	0	332398592	58	6177
2026-01-20 11:54:55.30	50.89	9.88	-42.9	-44.2	20.4	0.00e+00	0	42	0	338690048	58	6574
2026-01-20 11:54:58.32	51.40	9.97	-43.4	-44.8	19.9	0.00e+00	0	42	0	343932928	58	7020
2026-01-20 11:55:01.35	51.91	10.05	-43.0	-44.4	20.4	0.00e+00	0	42	0	349175808	58	6709
2026-01-20 11:55:04.38	52.42	10.14	-42.9	-44.2	20.5	0.00e+00	0	42	0	355467264	58	6583
2026-01-20 11:55:07.42	52.94	10.22	-42.4	-43.7	20.8	0.00e+00	0	42	0	360710144	58	6188
2026-01-20 11:55:10.45	53.46	10.30	-42.2	-43.3	21.3	0.00e+00	0	42	0	367001600	58	5953
2026-01-20 11:55:13.48	53.99	10.38	-42.5	-43.7	20.9	0.00e+00	0	42	0	372244480	58	6240
2026-01-20 11:55:16.51	54.51	10.45	-42.4	-43.7	20.9	0.00e+00	0	42	0	378535936	58	6187
2026-01-20 11:55:19.54	55.04	10.53	-42.4	-43.7	20.8	0.00e+00	0	42	0	383778816	58	6179
2026-01-20 11:55:22.57	55.57	10.60	-42.0	-43.2	21.5	0.00e+00	0	42	0	389021696	58	5863
2026-01-20 11:55:25.60	56.11	10.67	-41.8	-42.9	21.6	0.00e+00	0	42	0	395313152	56	6387
2026-01-20 11:55:28.63	56.64	10.74	-41.5	-42.6	21.9	0.00e+00	0	42	0	400556032	56	6109
2026-01-20 11:55:31.65	57.18	10.80	-42.3	-43.5	21.0	0.00e+00	0	42	0	406847488	56	6828
2026-01-20 11:55:34.68	57.72	10.87	-42.5	-43.7	20.8	0.00e+00	0	42	0	412090368	56	6978
2026-01-20 11:55:37.71	58.26	10.93	-42.7	-43.9	20.6	0.00e+00	0	42	0	417333248	58	6384
2026-01-20 11:55:40.74	58.81	10.99	-42.7	-44.0	20.7	0.00e+00	0	42	0	423624704	58	6418
2026-01-20 11:55:43.77	59.36	11.05	-42.7	-44.0	20.5	0.00e+00	0	42	0	428867584	58	6464
2026-01-20 11:55:46.79	59.91	11.10	-42.9	-44.2	20.4	0.00e+00	0	42	0	435159040	58	6564
2026-01-20 11:55:49.82	60.46	11.16	-43.1	-44.5	20.3	0.00e+00	0	42	0	440401920	58	6797
2026-01-20 11:55:52.85	61.01	11.21	-43.3	-44.6	20.0	0.00e+00	0	42	0	446693376	58	6923
2026-01-20 11:55:55.88	61.57	11.26	-43.0	-44.4	20.1	0.00e+00	0	42	0	451936256	58	6730
2026-01-20 11:55:58.90	62.12	11.31	-43.5	-44.9	19.7	0.00e+00	0	42	0	457179136	58	7141
2026-01-20 11:56:01.92	62.68	11.35	-43.9	-45.5	19.2	0.00e+00	0	42	0	463470592	60	6797
2026-01-20 11:56:04.94	63.24	11.39	-43.6	-45.1	19.5	0.00e+00	0	42	0	468713472	60	6490
2026-01-20 11:56:07.97	63.80	11.43	-43.3	-44.7	19.8	0.00e+00	0	42	0	475004928	60	6233
2026-01-20 11:56:10.99	64.36	11.47	-43.0	-44.3	20.3	0.00e+00	0	42	0	480247808	58	6643
2026-01-20 11:56:14.02	64.93	11.50	-42.5	-43.8	20.7	0.00e+00	0	42	0	485490688	58	6273
2026-01-20 11:56:17.05	65.50	11.54	-42.6	-43.9	20.6	0.00e+00	0	42	0	491782144	58	6319
2026-01-20 11:56:20.08	66.06	11.57	-42.8	-44.1	20.5	0.00e+00	0	42	0	497025024	58	6491
2026-01-20 11:56:23.11	66.63	11.59	-42.4	-43.6	20.8	0.00e+00	0	42	0	503316480	58	6152
2026-01-20 11:56:26.13	67.20	11.62	-42.8	-44.1	20.5	0.00e+00	0	42	0	508559360	58	6489
2026-01-20 11:56:29.16	67.77	11.64	-42.8	-44.1	20.4	0.00e+00	0	42	0	513802240	58	6492
2026-01-20 11:56:32.19	68.34	11.66	-42.7	-44.0	20.6	0.00e+00	0	42	0	520093696	58	6445
2026-01-20 11:56:35.22	68.92	11.68	-42.4	-43.7	20.8	0.00e+00	0	42	0	525336576	58	6203
2026-01-20 11:56:38.24	69.49	11.69	-42.4	-43.6	20.8	0.00e+00	0	42	0	531628032	58	6152
2026-01-20 11:56:41.28	70.06	11.71	-42.4	-43.7	20.8	0.00e+00	0	42	0	536870912	58	6213
2026-01-20 11:56:44.31	70.64	11.72	-41.8	-43.0	21.4	0.00e+00	0	42	0	543162368	56	6404
2026-01-20 11:56:47.34	71.21	11.72	-42.1	-43.2	21.2	0.00e+00	0	42	0	548405248	56	6609
2026-01-20 11:56:50.37	71.79	11.73	-41.5	-42.6	21.9	0.00e+00	0	42	0	553648128	56	6124
2026-01-20 11:56:53.39	72.36	11.73	-41.8	-42.9	21.4	0.00e+00	0	42	0	559939584	56	6382
2026-01-20 11:56:56.42	72.93	11.73	-41.5	-42.7	21.9	0.00e+00	0	42	0	565182464	56	6175
2026-01-20 11:56:59.45	73.51	11.73	-41.3	-42.3	21.6	0.00e+00	0	42	0	571473920	56	5961
2026-01-20 11:57:02.48	74.08	11.72	-41.1	-42.1	22.2	0.00e+00	0	42	0	576716800	56	5817
2026-01-20 11:57:05.51	74.66	11.71	-41.2	-42.2	22.2	0.00e+00	0	42	0	581959680	56	5881
2026-01-20 11:57:08.53	75.23	11.70	-41.3	-42.5	22.1	0.00e+00	0	42	0	588251136	56	6035
2026-01-20 11:57:11.57	75.80	11.69	-41.1	-42.3	22.2	0.00e+00	0	42	0	593494016	56	5909
2026-01-20 11:57:14.59	76.38	11.67	-40.9	-41.9	22.4	0.00e+00	0	42	0	599785472	56	5676
2026-01-20 11:57:17.62	76.95	11.66	-41.1	-42.2	22.3	0.00e+00	0	42	0	605028352	56	5847
2026-01-20 11:57:20.65	77.52	11.64	-41.6	-42.7	21.7	0.00e+00	0	42	0	611319808	56	6237
2026-01-20 11:57:23.68	78.09	11.61	-41.3	-42.4	22.2	0.00e+00	0	42	0	616562688	56	5969
2026-01-20 11:57:26.71	78.66	11.59	-41.3	-42.4	22.0	0.00e+00	0	42	0	621805568	56	6011
2026-01-20 11:57:29.74	79.23	11.56	-41.2	-42.3	22.1	0.00e+00	0	42	0	628097024	56	5908
2026-01-20 11:57:32.77	79.80	11.53	-41.2	-42.3	22.0	0.00e+00	0	42	0	633339904	56	5907
2026-01-20 11:57:35.80	80.37	11.49	-41.0	-42.0	22.2	0.00e+00	0	42	0	639631360	56	5758
2026-01-20 11:57:38.83	80.93	11.46	-41.5	-42.6	21.9	0.00e+00	0	42	0	644874240	56	6115
2026-01-20 11:57:41.86	81.50	11.42	-42.2	-43.3	21.1	0.00e+00	0	42	0	650117120	56	6686
2026-01-20 11:57:44.88	82.06	11.38	-41.5	-42.6	21.8	0.00e+00	0	42	0	656408576	56	6168
2026-01-20 11:57:47.91	82.62	11.34	-41.3	-42.4	22.1	0.00e+00	0	42	0	661651456	56	5971
2026-01-20 11:57:50.93	83.18	11.29	-41.1	-42.2	22.2	0.00e+00	0	42	0	667942912	56	5864
2026-01-20 11:57:53.97	83.74	11.24	-41.5	-42.6	21.8	0.00e+00	0	42	0	673185792	56	6132
2026-01-20 11:57:56.99	84.29	11.19	-41.3	-42.3	22.1	0.00e+00	0	42	0	679477248	56	5937
2026-01-20 11:58:00.02	84.85	11.14	-41.0	-42.0	22.4	0.00e+00	0	42	0	684720128	56	5730
2026-01-20 11:58:03.05	85.40	11.09	-41.4	-42.5	22.1	0.00e+00	0	42	0	689963008	56	6075
2026-01-20 11:58:06.08	85.95	11.03	-40.9	-41.9	22.5	0.00e+00	0	42	0	696254464	54	6336
2026-01-20 11:58:09.10	86.49	10.97	-40.5	-41.6	22.7	0.00e+00	0	42	0	701497344	54	6111
2026-01-20 11:58:12.13	87.04	10.91	-40.7	-41.7	22.6	0.00e+00	0	42	0	707788800	54	6231
2026-01-20 11:58:15.16	87.59	10.85	-40.6	-41.6	22.8	0.00e+00	0	42	0	713031680	54	6132
2026-01-20 11:58:18.19	88.13	10.78	-40.9	-42.0	22.4	0.00e+00	0	42	0	718274560	54	6443
2026-01-20 11:58:21.22	88.67	10.71	-40.6	-41.6	22.6	0.00e+00	0	42	0	724566016	54	6169
2026-01-20 11:58:24.25	89.20	10.64	-41.2	-42.4	22.1	0.00e+00	0	42	0	729808896	54	6766
2026-01-20 11:58:27.27	89.74	10.57	-40.8	-41.8	22.5	0.00e+00	0	42	0	736100352	54	6301
2026-01-20 11:58:30.30	90.27	10.50	-40.8	-41.9	22.5	0.00e+00	0	42	0	741343232	54	6380
2026-01-20 11:58:33.33	90.80	10.42	-40.6	-41.6	22.7	0.00e+00	0	42	0	747634688	54	6129
2026-01-20 11:58:36.36	91.32	10.35	-41.1	-42.2	22.3	0.00e+00	0	42	0	752877568	54	6578
2026-01-20 11:58:39.39	91.85	10.27	-41.3	-42.3	22.1	0.00e+00	0	42	0	758120448	54	6671
2026-01-20 11:58:42.41	92.37	10.19	-41.1	-42.2	22.2	0.00e+00	0	42	0	764411904	54	6583
2026-01-20 11:58:45.44	92.89	10.10	-41.3	-42.4	21.9	0.00e+00	0	42	0	769654784	54	6732
2026-01-20 11:58:48.47	93.40	10.02	-41.3	-42.4	21.7	0.00e+00	0	42	0	775946240	54	6769
2026-01-20 11:58:51.50	93.92	9.93	-42.1	-43.3	21.3	0.00e+00	0	42	0	781189120	56	6659
2026-01-20 11:58:54.53	94.43	9.84	-42.4	-43.7	20.9	0.00e+00	0	42	0	786432000	56	6957
2026-01-20 11:58:57.56	94.93	9.75	-42.4	-43.8	20.8	0.00e+00	0	42	0	792723456	56	7008
2026-01-20 11:59:00.58	95.43	9.66	-42.8	-44.2	20.3	0.00e+00	0	42	0	797966336	58	6563
2026-01-20 11:59:03.61	95.94	9.57	-42.8	-44.2	20.4	0.00e+00	0	42	0	804257792	58	6555
2026-01-20 11:59:06.64	96.43	9.48	-43.0	-44.4	20.1	0.00e+00	0	42	0	809500672	58	6699
2026-01-20 11:59:09.67	96.93	9.38	-42.7	-44.1	20.5	0.00e+00	0	42	0	814743552	58	6478
2026-01-20 11:59:12.69	97.42	9.28	-43.2	-44.8	19.5	0.00e+00	0	42	0	821035008	58	7066
2026-01-20 11:59:15.72	97.91	9.18	-43.5	-45.0	19.5	0.00e+00	0	42	0	826277888	58	7235
2026-01-20 11:59:18.75	98.39	9.08	-44.1	-45.7	18.8	0.00e+00	0	42	0	832569344	60	6980
2026-01-20 11:59:21.78	98.87	8.98	-44.4	-46.2	18.3	0.00e+00	0	42	0	837812224	60	7388
2026-01-20 11:59:24.81	99.35	8.88	-44.2	-45.9	18.6	0.00e+00	0	42	0	844103680	60	7118
2026-01-20 11:59:27.84	99.83	8.78	-44.3	-46.0	18.4	0.00e+00	0	42	0	849346560	60	7211
2026-01-20 11:59:30.87	100.30	8.67	-43.9	-45.7	18.9	0.00e+00	0	42	0	854589440	60	6943
2026-01-20 11:59:33.90	100.77	8.56	-44.0	-45.8	18.7	0.00e+00	0	42	0	860880896	60	7019
2026-01-20 11:59:36.92	101.23	8.46	-44.2	-45.8	18.9	0.00e+00	0	42	0	866123776	60	7071
2026-01-20 11:59:39.95	101.69	8.35	-44.4	-46.2	18.4	0.00e+00	0	42	0	872415232	60	7385
2026-01-20 11:59:42.98	102.15	8.24	-43.7	-45.8	18.8	0.00e+00	0	42	0	877658112	60	7020
2026-01-20 11:59:46.01	102.61	8.13	-43.2	-45.4	19.1	0.00e+00	0	42	0	882900992	60	6724
2026-01-20 11:59:49.03	103.06	8.01	-43.3	-45.0	19.4	0.00e+00	0	42	0	889192448	60	6431
2026-01-20 11:59:52.07	103.51	7.90	-43.6	-45.2	19.1	0.00e+00	0	42	0	894435328	60	6579
2026-01-20 11:59:55.10	103.96	7.79	-43.9	-45.5	19.0	0.00e+00	0	42	0	900726784	60	6843
2026-01-20 11:59:58.13	104.40	7.67	-43.6	-45.2	19.0	0.00e+00	0	42	0	905969664	60	6612
2026-01-20 12:00:01.16	104.84	7.56	-43.0	-44.5	20.0	0.00e+00	0	42	0	912261120	60	6047
2026-01-20 12:00:04.19	105.27	7.44	-43.1	-44.6	19.8	0.00e+00	0	42	0	917504000	58	6871
2026-01-20 12:00:07.22	105.70	7.32	-43.1	-44.6	19.7	0.00e+00	0	42	0	922746880	58	6852
2026-01-20 12:00:10.25	106.13	7.20	-43.4	-44.8	19.5	0.00e+00	0	43	0	929038336	58	7088
2026-01-20 12:00:13.28	106.56	7.08	-43.2	-44.7	19.6	0.00e+00	0	43	0	934281216	58	6966
2026-01-20 12:00:16.31	106.98	6.96	-43.0	-44.7	19.7	0.00e+00	0	43	0	940572672	58	6961
2026-01-20 12:00:19.34	107.40	6.84	-42.8	-44.3	20.0	0.00e+00	0	42	0	945815552	58	6683
2026-01-20 12:00:22.37	107.82	6.72	-42.7	-44.1	20.1	0.00e+00	0	42	0	951058432	58	6477
2026-01-20 12:00:25.40	108.23	6.60	-42.0	-43.3	20.8	0.00e+00	0	43	0	957349888	58	5934
2026-01-20 12:00:28.43	108.64	6.48	-42.0	-43.3	20.8	0.00e+00	0	42	0	962592768	58	5906
2026-01-20 12:00:31.45	109.04	6.35	-42.2	-43.4	20.7	0.00e+00	0	42	0	968884224	58	6012
2026-01-20 12:00:34.48	109.44	6.23	-42.0	-43.2	20.9	0.00e+00	0	42	0	974127104	58	5894
2026-01-20 12:00:37.51	109.84	6.10	-42.1	-43.4	20.5	0.00e+00	0	42	0	980418560	58	6001
2026-01-20 12:00:40.54	110.24	5.98	-42.3	-43.6	20.7	0.00e+00	0	42	0	985661440	58	6156
2026-01-20 12:00:43.57	110.63	5.85	-42.3	-43.7	20.2	0.00e+00	0	42	0	990904320	58	6178
2026-01-20 12:00:46.59	111.02	5.73	-43.4	-44.9	19.2	0.00e+00	0	42	0	997195776	58	7170
2026-01-20 12:00:49.62	111.40	5.60	-42.3	-43.6	20.5	0.00e+00	0	42	0	1002438656	58	6117
2026-01-20 12:00:52.65	111.79	5.47	-41.8	-43.0	20.9	0.00e+00	0	42	0	1008730112	56	6458
2026-01-20 12:00:55.68	112.17	5.35	-41.7	-42.8	21.3	0.00e+00	0	42	0	1013972992	56	6303
2026-01-20 12:00:58.72	112.54	5.22	-42.0	-43.3	20.6	0.00e+00	0	42	0	1019215872	56	6631
2026-01-20 12:01:01.74	112.92	5.09	-42.9	-44.3	19.8	0.00e+00	0	42	0	1025507328	58	6648
2026-01-20 12:01:04.77	113.29	4.96	-42.4	-43.8	20.1	0.00e+00	0	42	0	1030750208	58	6293
2026-01-20 12:01:07.80	113.65	4.83	-42.3	-43.6	20.6	0.00e+00	0	42	0	1037041664	56	6864
2026-01-20 12:01:10.82	114.01	4.70	-42.2	-43.5	20.4	0.00e+00	0	42	0	1042284544	58	6066
2026-01-20 12:01:13.85	114.38	4.57	-43.1	-44.7	19.4	0.00e+00	0	42	0	1048576000	58	6981
2026-01-20 12:01:16.88	114.73	4.44	-42.0	-43.3	20.5	0.00e+00	0	42	0	1053818880	58	5943
2026-01-20 12:01:19.91	115.09	4.31	-42.7	-44.3	19.2	0.00e+00	0	42	0	1059061760	58	6646
2026-01-20 12:01:22.93	115.44	4.18	-42.7	-44.3	19.5	0.00e+00	0	42	0	1065353216	58	6647
2026-01-20 12:01:25.96	115.79	4.05	-42.7	-44.5	19.3	0.00e+00	0	42	0	1070596096	58	6776
2026-01-20 12:01:28.99	116.13	3.92	-43.8	-45.5	18.5	0.00e+00	0	42	0	1076887552	60	6825
2026-01-20 12:01:32.01	116.47	3.79	-43.2	-45.1	18.7	0.00e+00	0	42	0	1082130432	58	7300
2026-01-20 12:01:35.04	116.81	3.66	-43.6	-45.5	18.6	0.00e+00	0	42	0	1087373312	60	6843
2026-01-20 12:01:38.07	117.15	3.53	-44.1	-46.2	17.3	0.00e+00	0	42	0	1093664768	60	7374
2026-01-20 12:01:41.10	117.49	3.40	-44.8	-47.0	16.7	0.00e+00	0	42	0	1098907648	60	8127
2026-01-20 12:01:44.14	117.82	3.26	-43.2	-44.9	18.5	0.00e+00	0	42	0	1105199104	60	6382
2026-01-20 12:01:47.17	118.15	3.13	-44.9	-47.3	16.0	0.00e+00	0	42	0	1110441984	60	8371
2026-01-20 12:01:50.19	118.47	3.00	-43.8	-45.7	17.7	0.00e+00	0	42	0	1116733440	60	6954
2026-01-20 12:01:53.22	118.79	2.87	-50.6	-65.8	3.6	1.51e+00	0	42	104	1116733440	60	70126
2026-01-20 12:01:56.25	119.11	2.74	-50.9	-66.1	3.6	1.51e+00	0	42	104	1116733440	60	73259
2026-01-20 12:01:59.28	119.43	2.60	-51.1	-66.3	3.6	1.51e+00	0	42	104	1116733440	60	74831
2026-01-20 12:02:02.31	119.75	2.47	-51.2	-66.4	3.6	1.51e+00	0	42	104	1116733440	60	75635
2026-01-20 12:02:05.34	120.06	2.34	-51.2	-66.4	3.6	1.51e+00	0	42	104	1116733440	60	75659
2026-01-20 12:02:08.37	120.37	2.21	-51.3	-66.5	3.6	1.51e+00	0	42	104	1116733440	60	76410
2026-01-20 12:02:11.40	120.67	2.07	-51.3	-66.5	3.6	1.51e+00	0	42	104	1116733440	60	76526
2026-01-20 12:02:14.43	120.98	1.94	-51.3	-66.5	3.6	1.51e+00	0	42	104	1116733440	60	76729
2026-01-20 12:02:17.46	121.28	1.81	-51.5	-66.7	3.6	1.51e+00	0	42	104	1116733440	60	77753
2026-01-20 12:02:20.49	121.58	1.68	-51.4	-66.6	3.6	1.51e+00	0	42	104	1116733440	60	77510
2026-01-20 12:02:23.52	121.87	1.54	-51.4	-66.7	3.6	1.51e+00	0	42	104	1116733440	60	77961
2026-01-20 12:02:26.55	122.17	1.41	-51.6	-66.8	3.6	1.51e+00	0	42	104	1116733440	60	79351
2026-01-20 12:02:29.59	122.46	1.28	-51.5	-66.7	3.6	1.51e+00	0	42	104	1116733440	60	77913
2026-01-20 12:02:32.61	122.75	1.14	-51.4	-66.7	3.6	1.51e+00	0	42	104	1116733440	60	78209
2026-01-20 12:02:35.65	123.04	1.01	-51.4	-66.7	3.6	1.51e+00	0	42	104	1116733440	60	78066
2026-01-20 12:02:38.68	123.32	0.88	-51.4	-66.7	3.6	1.51e+00	0	42	104	1116733440	60	77957
2026-01-20 12:02:41.71	123.60	0.75	-51.5	-66.7	3.6	1.51e+00	0	42	104	1116733440	60	78053
2026-01-20 12:02:44.74	123.88	0.61	-51.4	-66.6	3.6	1.51e+00	0	42	104	1116733440	60	77647
2026-01-20 12:02:47.76	124.16	0.48	-51.5	-66.7	3.6	1.51e+00	0	42	104	1116733440	60	78037
2026-01-20 12:02:50.79	124.43	0.35	-51.6	-66.8	3.6	1.51e+00	0	42	104	1116733440	60	79396
2026-01-20 12:02:53.82	124.70	0.22	-51.6	-66.9	3.6	1.51e+00	0	42	104	1116733440	60	79865
2026-01-20 12:02:56.85	124.97	0.09	-51.9	-67.1	3.6	1.51e+00	0	42	104	1116733440	60	82032
2026-01-20 12:02:59.88	125.24	-0.05	-51.8	-67.0	3.6	1.51e+00	0	42	104	1116733440	60	81061

#Closed at: 2026-01-20 12:03:00
#Recorded file [1116 MB]: D:/lorett/data/35029_260120_235049.dat