passes_logs/2026/01/20/R4.6S_Anadyr/R4.6S_Anadyr__20260120_212754_SUOMI_NPP_rec.log

#Pass ID: 20260120_212754_SUOMI NPP
#Satellite: SUOMI NPP
#Configuration: NPP
#almurnet v.1.7.20251203
#Start time: 2026-01-20 21:27:57

#Version: 2.2.20231116
#Station: R4.6S_Anadyr
#Location: 177.4865 lon 64.73178 lat
#TLE: 1 37849U 11061A   26019.89702167  .00000121  00000+0  78274-4 0  9993
#TLE: 2 37849  98.7817 321.9035 0002338  55.0397 305.0998 14.19526700737401

#Time	Az	El	Level	Level2	SNR	BER	BlckErr	Temp	State	Recorded	gain1	gain2
2026-01-20 21:27:57.38	89.34	0.13	-51.7	-64.2	3.5	1.52e+00	0	40	0	0	60	57232
2026-01-20 21:28:01.42	89.09	0.35	-51.5	-66.7	3.6	1.51e+00	0	41	104	0	60	78386
2026-01-20 21:28:05.46	88.83	0.56	-51.4	-66.6	3.6	1.51e+00	0	41	104	0	60	77199
2026-01-20 21:28:09.50	88.57	0.78	-51.4	-66.6	3.6	1.51e+00	0	41	104	0	60	77176
2026-01-20 21:28:13.53	88.31	0.99	-51.2	-66.5	3.6	1.51e+00	0	41	104	0	60	76466
2026-01-20 21:28:17.57	88.04	1.21	-50.7	-66.1	3.6	1.51e+00	0	41	104	0	60	73261
2026-01-20 21:28:21.61	87.77	1.43	-49.8	-65.3	3.6	1.51e+00	0	41	104	0	60	66272
2026-01-20 21:28:25.65	87.50	1.65	-49.5	-64.9	3.6	1.51e+00	0	41	104	0	60	63268
2026-01-20 21:28:29.69	87.22	1.87	-49.5	-64.8	3.6	1.51e+00	0	41	104	0	60	62632
2026-01-20 21:28:33.73	86.93	2.10	-49.6	-64.8	3.6	1.51e+00	0	41	104	0	60	62846
2026-01-20 21:28:37.77	86.65	2.32	-49.6	-64.7	3.6	1.51e+00	0	41	104	0	60	61989
2026-01-20 21:28:41.80	86.35	2.54	-49.6	-64.9	3.6	1.51e+00	0	41	104	0	60	63855
2026-01-20 21:28:45.85	86.06	2.77	-49.6	-64.8	3.6	1.51e+00	0	41	104	0	60	62858
2026-01-20 21:28:49.89	85.75	2.99	-49.5	-64.1	3.6	1.51e+00	0	41	104	0	60	58019
2026-01-20 21:28:53.93	85.45	3.22	-49.1	-58.9	4.8	1.32e+00	0	42	0	0	60	31885
2026-01-20 21:28:57.97	85.13	3.45	-47.0	-51.0	12.5	1.44e+00	0	42	104	3145728	60	12781
2026-01-20 21:29:02.01	84.82	3.68	-45.5	-48.0	15.6	0.00e+00	0	42	0	5242880	60	9117
2026-01-20 21:29:06.05	84.49	3.91	-45.0	-47.3	16.6	0.00e+00	0	42	0	12582912	60	8400
2026-01-20 21:29:10.09	84.17	4.14	-44.1	-46.0	18.1	0.00e+00	0	42	0	20971520	60	7199
2026-01-20 21:29:14.13	83.83	4.38	-44.0	-45.9	18.3	0.00e+00	0	42	0	28311552	60	7090
2026-01-20 21:29:18.17	83.49	4.61	-45.5	-47.9	16.3	0.00e+00	0	42	0	35651584	60	9012
2026-01-20 21:29:22.21	83.15	4.85	-43.8	-45.6	18.3	0.00e+00	0	42	0	42991616	60	6886
2026-01-20 21:29:26.25	82.80	5.08	-44.3	-46.3	17.9	0.00e+00	0	42	0	51380224	60	7445
2026-01-20 21:29:30.29	82.44	5.32	-43.2	-44.8	19.1	0.00e+00	0	42	0	58720256	60	6316
2026-01-20 21:29:34.33	82.08	5.56	-43.2	-44.8	19.1	0.00e+00	0	42	0	66060288	60	6274
2026-01-20 21:29:38.36	81.71	5.80	-43.3	-44.9	19.3	0.00e+00	0	42	0	73400320	60	6375
2026-01-20 21:29:42.40	81.34	6.04	-42.7	-44.2	19.9	0.00e+00	0	42	0	80740352	58	6575
2026-01-20 21:29:46.44	80.96	6.28	-43.7	-45.5	18.6	0.00e+00	0	42	0	89128960	58	7666
2026-01-20 21:29:50.48	80.57	6.52	-43.4	-45.1	19.1	0.00e+00	0	42	0	96468992	58	7298
2026-01-20 21:29:54.51	80.18	6.77	-43.7	-45.5	19.0	0.00e+00	0	42	0	103809024	60	6823
2026-01-20 21:29:58.55	79.77	7.01	-44.1	-46.1	18.2	0.00e+00	0	42	0	111149056	60	7276
2026-01-20 21:30:02.59	79.37	7.26	-43.8	-45.6	19.0	0.00e+00	0	42	0	118489088	60	6856
2026-01-20 21:30:06.62	78.95	7.50	-43.6	-45.3	19.0	0.00e+00	0	42	0	126877696	60	6659
2026-01-20 21:30:10.66	78.53	7.75	-42.9	-44.5	19.8	0.00e+00	0	42	0	134217728	60	6056
2026-01-20 21:30:14.70	78.10	8.00	-43.1	-44.6	19.7	0.00e+00	0	42	0	141557760	60	6170
2026-01-20 21:30:18.74	77.66	8.25	-43.3	-45.0	19.2	0.00e+00	0	42	0	148897792	60	6402
2026-01-20 21:30:22.78	77.21	8.50	-43.4	-45.1	19.3	0.00e+00	0	42	0	157286400	60	6487
2026-01-20 21:30:26.81	76.76	8.75	-43.5	-45.3	19.0	0.00e+00	0	42	0	164626432	60	6677
2026-01-20 21:30:30.85	76.30	9.00	-43.1	-44.7	19.7	0.00e+00	0	42	0	171966464	60	6197
2026-01-20 21:30:34.89	75.83	9.25	-42.9	-44.5	19.8	0.00e+00	0	42	0	179306496	60	6092
2026-01-20 21:30:38.93	75.35	9.51	-42.7	-44.2	20.1	0.00e+00	0	42	0	186646528	58	6571
2026-01-20 21:30:42.97	74.86	9.76	-42.5	-43.9	20.4	0.00e+00	0	42	0	195035136	58	6373
2026-01-20 21:30:47.01	74.37	10.02	-42.5	-43.9	20.4	0.00e+00	0	42	0	202375168	58	6356
2026-01-20 21:30:51.05	73.86	10.27	-42.5	-43.9	20.4	0.00e+00	0	42	0	209715200	58	6355
2026-01-20 21:30:55.09	73.35	10.53	-42.8	-44.3	20.2	0.00e+00	0	42	0	217055232	58	6634
2026-01-20 21:30:59.14	72.83	10.78	-42.8	-44.2	20.2	0.00e+00	0	42	0	225443840	58	6598
2026-01-20 21:31:03.18	72.29	11.04	-42.7	-44.1	20.4	0.00e+00	0	42	0	232783872	58	6502
2026-01-20 21:31:07.22	71.75	11.29	-42.4	-43.7	20.7	0.00e+00	0	42	0	240123904	58	6233
2026-01-20 21:31:11.25	71.20	11.55	-42.4	-43.7	20.8	0.00e+00	0	42	0	247463936	58	6182
2026-01-20 21:31:15.29	70.64	11.81	-42.3	-43.5	20.9	0.00e+00	0	42	0	254803968	58	6095
2026-01-20 21:31:19.33	70.07	12.06	-42.6	-44.0	20.5	0.00e+00	0	42	0	263192576	58	6407
2026-01-20 21:31:23.37	69.49	12.32	-42.4	-43.7	20.8	0.00e+00	0	42	0	270532608	58	6190
2026-01-20 21:31:27.41	68.90	12.57	-42.4	-43.6	20.7	0.00e+00	0	42	0	277872640	58	6155
2026-01-20 21:31:31.45	68.29	12.83	-42.2	-43.4	21.1	0.00e+00	0	42	0	285212672	58	6012
2026-01-20 21:31:35.49	67.68	13.08	-42.6	-43.9	20.6	0.00e+00	0	42	0	293601280	58	6348
2026-01-20 21:31:39.53	67.06	13.34	-42.7	-43.9	20.6	0.00e+00	0	42	0	300941312	58	6385
2026-01-20 21:31:43.57	66.42	13.59	-42.9	-44.3	20.3	0.00e+00	0	42	0	308281344	58	6636
2026-01-20 21:31:47.61	65.78	13.84	-42.8	-44.0	20.4	0.00e+00	0	42	0	315621376	58	6464
2026-01-20 21:31:51.65	65.12	14.09	-42.5	-43.7	20.8	0.00e+00	0	42	0	324009984	58	6224
2026-01-20 21:31:55.69	64.45	14.34	-42.6	-43.9	20.6	0.00e+00	0	42	0	331350016	58	6354
2026-01-20 21:31:59.73	63.77	14.59	-42.7	-44.1	20.6	0.00e+00	0	42	0	338690048	58	6479
2026-01-20 21:32:03.77	63.08	14.84	-42.3	-43.6	21.0	0.00e+00	0	42	0	346030080	58	6110
2026-01-20 21:32:07.81	62.37	15.09	-41.8	-43.0	21.4	0.00e+00	0	42	0	353370112	56	6391
2026-01-20 21:32:11.85	61.66	15.33	-41.2	-42.3	22.1	0.00e+00	0	42	0	361758720	56	5900
2026-01-20 21:32:15.88	60.93	15.57	-41.3	-42.4	22.1	0.00e+00	0	42	0	369098752	56	5991
2026-01-20 21:32:19.92	60.20	15.81	-41.1	-42.2	22.2	0.00e+00	0	42	0	376438784	56	5840
2026-01-20 21:32:23.96	59.44	16.04	-40.4	-41.3	22.8	0.00e+00	0	42	0	383778816	54	5951
2026-01-20 21:32:28.00	58.68	16.28	-40.4	-41.4	22.8	0.00e+00	0	42	0	392167424	54	6021
2026-01-20 21:32:32.04	57.91	16.51	-40.6	-41.7	22.6	0.00e+00	0	42	0	399507456	54	6185
2026-01-20 21:32:36.08	57.12	16.73	-40.4	-41.4	22.7	0.00e+00	0	42	0	406847488	54	6028
2026-01-20 21:32:40.11	56.32	16.96	-40.1	-41.1	23.1	0.00e+00	0	42	0	414187520	54	5783
2026-01-20 21:32:44.15	55.51	17.18	-40.5	-41.5	22.8	0.00e+00	0	42	0	421527552	54	6066
2026-01-20 21:32:48.19	54.69	17.39	-40.6	-41.6	22.6	0.00e+00	0	42	0	429916160	54	6173
2026-01-20 21:32:52.23	53.86	17.60	-40.0	-41.0	23.1	0.00e+00	0	42	0	437256192	54	5725
2026-01-20 21:32:56.27	53.01	17.81	-40.1	-41.0	23.2	0.00e+00	0	42	0	444596224	54	5721
2026-01-20 21:33:00.31	52.15	18.01	-39.2	-40.0	23.9	0.00e+00	0	42	0	451936256	52	5748
2026-01-20 21:33:04.35	51.28	18.21	-39.1	-39.9	23.7	0.00e+00	0	42	0	460324864	52	5686
2026-01-20 21:33:08.38	50.41	18.40	-39.4	-40.3	23.7	0.00e+00	0	42	0	467664896	52	5939
2026-01-20 21:33:12.42	49.51	18.58	-40.0	-40.9	23.3	0.00e+00	0	42	0	475004928	52	6388
2026-01-20 21:33:16.46	48.61	18.76	-40.2	-41.2	22.9	0.00e+00	0	42	0	482344960	52	6585
2026-01-20 21:33:20.49	47.70	18.94	-39.7	-40.6	23.5	0.00e+00	0	42	0	489684992	52	6143
2026-01-20 21:33:24.53	46.78	19.10	-39.2	-40.1	23.9	0.00e+00	0	42	0	498073600	52	5791
2026-01-20 21:33:28.58	45.84	19.26	-39.1	-40.0	23.5	0.00e+00	0	42	0	505413632	52	5703
2026-01-20 21:33:32.61	44.90	19.42	-39.5	-40.4	23.7	0.00e+00	0	42	0	512753664	52	5985
2026-01-20 21:33:36.65	43.95	19.56	-39.5	-40.4	23.7	0.00e+00	0	42	0	520093696	52	5997
2026-01-20 21:33:40.69	42.99	19.70	-40.1	-41.0	23.2	0.00e+00	0	42	0	527433728	52	6444
2026-01-20 21:33:44.73	42.02	19.83	-40.3	-41.3	23.0	0.00e+00	0	42	0	535822336	52	6640
2026-01-20 21:33:48.77	41.04	19.95	-40.8	-41.8	22.6	0.00e+00	0	42	0	543162368	54	6308
2026-01-20 21:33:52.80	40.06	20.07	-40.8	-41.8	22.6	0.00e+00	0	42	0	550502400	54	6291
2026-01-20 21:33:56.84	39.07	20.17	-40.6	-41.5	22.8	0.00e+00	0	42	0	557842432	54	6085
2026-01-20 21:34:00.88	38.07	20.27	-41.5	-42.7	21.8	0.00e+00	0	42	0	566231040	54	6928
2026-01-20 21:34:04.92	37.07	20.36	-41.3	-42.4	22.1	0.00e+00	0	42	0	573571072	56	5970
2026-01-20 21:34:08.96	36.06	20.44	-41.8	-43.0	21.8	0.00e+00	0	42	0	580911104	56	6411
2026-01-20 21:34:13.00	35.04	20.51	-40.9	-41.9	22.5	0.00e+00	0	42	0	588251136	56	5687
2026-01-20 21:34:17.04	34.02	20.57	-40.7	-41.7	22.8	0.00e+00	0	42	0	595591168	54	6200
2026-01-20 21:34:21.08	33.00	20.62	-41.6	-42.6	21.7	0.00e+00	0	42	0	603979776	54	6923
2026-01-20 21:34:25.12	31.97	20.66	-41.7	-42.8	21.9	0.00e+00	0	42	0	611319808	56	6273
2026-01-20 21:34:29.16	30.95	20.69	-41.5	-42.6	21.9	0.00e+00	0	42	0	618659840	56	6158
2026-01-20 21:34:33.20	29.91	20.71	-40.9	-41.9	22.6	0.00e+00	0	42	0	625999872	56	5675
2026-01-20 21:34:37.23	28.89	20.72	-40.6	-41.6	22.9	0.00e+00	0	42	0	634388480	54	6124
2026-01-20 21:34:41.27	27.85	20.73	-40.9	-41.9	22.6	0.00e+00	0	42	0	641728512	54	6348
2026-01-20 21:34:45.31	26.82	20.72	-41.2	-42.3	22.3	0.00e+00	0	42	0	649068544	54	6652
2026-01-20 21:34:49.35	25.79	20.70	-41.0	-42.0	22.4	0.00e+00	0	42	0	656408576	54	6457
2026-01-20 21:34:53.39	24.76	20.67	-39.7	-40.6	23.6	0.00e+00	0	42	0	663748608	54	5442
2026-01-20 21:34:57.43	23.74	20.64	-39.4	-40.2	23.9	0.00e+00	0	42	0	672137216	52	5867
2026-01-20 21:35:01.47	22.71	20.59	-39.3	-40.1	24.0	0.00e+00	0	42	0	679477248	52	5795
2026-01-20 21:35:05.51	21.69	20.54	-39.5	-40.3	23.7	0.00e+00	0	42	0	686817280	52	5952
2026-01-20 21:35:09.55	20.68	20.47	-39.3	-40.1	23.8	0.00e+00	0	42	0	694157312	52	5812
2026-01-20 21:35:13.59	19.66	20.40	-39.1	-40.0	24.0	0.00e+00	0	42	0	702545920	52	5714
2026-01-20 21:35:17.62	18.66	20.31	-40.0	-41.0	23.3	0.00e+00	0	42	0	709885952	52	6424
2026-01-20 21:35:21.66	17.66	20.22	-39.2	-40.0	24.0	0.00e+00	0	42	0	717225984	52	5748
2026-01-20 21:35:25.70	16.66	20.12	-39.3	-40.1	23.8	0.00e+00	0	42	0	724566016	52	5801
2026-01-20 21:35:29.74	15.68	20.01	-40.2	-41.2	23.1	0.00e+00	0	42	0	732954624	52	6582
2026-01-20 21:35:33.78	14.70	19.89	-40.9	-41.9	22.5	0.00e+00	0	42	0	740294656	54	6378
2026-01-20 21:35:37.82	13.73	19.76	-40.9	-41.9	22.6	0.00e+00	0	43	0	747634688	54	6384
2026-01-20 21:35:41.86	12.76	19.63	-41.4	-42.5	22.1	0.00e+00	0	42	0	754974720	54	6839
2026-01-20 21:35:45.89	11.81	19.49	-42.0	-43.1	21.7	0.00e+00	0	42	0	762314752	56	6513
2026-01-20 21:35:49.94	10.86	19.34	-41.2	-42.2	22.5	0.00e+00	0	42	0	770703360	56	5856
2026-01-20 21:35:53.98	9.93	19.18	-40.5	-41.5	22.9	0.00e+00	0	42	0	778043392	54	6080
2026-01-20 21:35:58.02	9.00	19.02	-40.6	-41.6	22.7	0.00e+00	0	43	0	785383424	54	6142
2026-01-20 21:36:02.06	8.08	18.85	-40.3	-41.3	23.1	0.00e+00	0	42	0	792723456	54	5913
2026-01-20 21:36:06.09	7.18	18.67	-39.6	-40.5	23.6	0.00e+00	0	43	0	800063488	52	6057
2026-01-20 21:36:10.13	6.29	18.49	-40.2	-41.1	22.9	0.00e+00	0	42	0	808452096	52	6493
2026-01-20 21:36:14.17	5.40	18.30	-41.6	-42.7	21.8	0.00e+00	0	43	0	815792128	54	6995
2026-01-20 21:36:18.20	4.53	18.11	-42.0	-43.2	21.6	0.00e+00	0	43	0	823132160	56	6546
2026-01-20 21:36:22.53	3.61	17.89	-42.6	-43.8	21.0	0.00e+00	0	43	0	830472192	56	7080
2026-01-20 21:36:26.58	2.76	17.69	-42.8	-44.1	20.9	0.00e+00	0	43	0	838860800	58	6531
2026-01-20 21:36:30.62	1.92	17.48	-41.1	-42.1	22.5	0.00e+00	0	43	0	846200832	56	5813
2026-01-20 21:36:34.66	1.10	17.27	-40.1	-41.0	23.2	0.00e+00	0	43	0	853540864	54	5759
2026-01-20 21:36:38.69	0.29	17.05	-40.4	-41.4	22.8	0.00e+00	0	42	0	860880896	54	5976
2026-01-20 21:36:42.74	359.48	16.83	-41.3	-42.3	22.2	0.00e+00	0	43	0	869269504	54	6670
2026-01-20 21:36:46.77	358.70	16.60	-40.5	-41.5	22.8	0.00e+00	0	43	0	876609536	54	6051
2026-01-20 21:36:50.81	357.92	16.38	-41.3	-42.4	22.1	0.00e+00	0	43	0	883949568	54	6733
2026-01-20 21:36:54.85	357.15	16.14	-42.7	-44.1	20.7	0.00e+00	0	43	0	891289600	58	6479
2026-01-20 21:36:58.89	356.40	15.91	-42.1	-43.3	21.5	0.00e+00	0	43	0	898629632	58	5899
2026-01-20 21:37:02.92	355.66	15.67	-41.2	-42.3	22.2	0.00e+00	0	43	0	907018240	56	5945
2026-01-20 21:37:06.96	354.93	15.43	-41.0	-42.1	22.3	0.00e+00	0	43	0	914358272	56	5765
2026-01-20 21:37:11.00	354.21	15.19	-41.7	-42.8	21.8	0.00e+00	0	43	0	921698304	56	6305
2026-01-20 21:37:15.04	353.51	14.95	-42.2	-43.5	21.2	0.00e+00	0	43	0	929038336	56	6791
2026-01-20 21:37:19.07	352.82	14.70	-41.3	-42.4	22.1	0.00e+00	0	43	0	936378368	56	6021
2026-01-20 21:37:23.11	352.13	14.46	-41.5	-42.5	21.9	0.00e+00	0	43	0	944766976	56	6094
2026-01-20 21:37:27.15	351.46	14.21	-41.8	-42.9	21.6	0.00e+00	0	43	0	952107008	56	6351
2026-01-20 21:37:31.19	350.80	13.96	-41.1	-42.2	22.3	0.00e+00	0	42	0	959447040	56	5867
2026-01-20 21:37:35.23	350.15	13.71	-40.7	-41.7	22.5	0.00e+00	0	43	0	966787072	54	6241
2026-01-20 21:37:39.27	349.52	13.45	-40.3	-41.3	22.9	0.00e+00	0	42	0	975175680	54	5912
2026-01-20 21:37:43.30	348.89	13.20	-39.4	-40.3	23.6	0.00e+00	0	42	0	982515712	52	5952
2026-01-20 21:37:47.34	348.28	12.95	-39.7	-40.7	23.5	0.00e+00	0	42	0	989855744	52	6177
2026-01-20 21:37:51.38	347.67	12.69	-40.6	-41.6	22.5	0.00e+00	0	43	0	997195776	52	6880
2026-01-20 21:37:55.41	347.08	12.44	-40.6	-41.6	22.6	0.00e+00	0	43	0	1004535808	54	6155
2026-01-20 21:37:59.45	346.50	12.18	-40.1	-41.0	23.0	0.00e+00	0	42	0	1012924416	54	5743
2026-01-20 21:38:03.49	345.92	11.93	-40.0	-40.9	23.1	0.00e+00	0	43	0	1020264448	54	5659
2026-01-20 21:38:07.53	345.36	11.67	-40.6	-41.6	22.5	0.00e+00	0	42	0	1027604480	54	6144
2026-01-20 21:38:11.56	344.81	11.42	-41.2	-42.3	22.0	0.00e+00	0	42	0	1034944512	54	6617
2026-01-20 21:38:15.60	344.26	11.16	-41.2	-42.3	21.9	0.00e+00	0	42	0	1043333120	54	6683
2026-01-20 21:38:19.64	343.73	10.91	-40.7	-41.7	22.4	0.00e+00	0	43	0	1050673152	54	6225
2026-01-20 21:38:23.68	343.21	10.65	-39.9	-40.8	23.0	0.00e+00	0	42	0	1058013184	52	6259
2026-01-20 21:38:27.71	342.69	10.40	-41.1	-42.2	22.0	0.00e+00	0	42	0	1065353216	54	6546
2026-01-20 21:38:31.75	342.19	10.14	-41.9	-43.0	21.2	0.00e+00	0	42	0	1072693248	56	6438
2026-01-20 21:38:35.79	341.69	9.89	-41.9	-43.0	21.3	0.00e+00	0	42	0	1081081856	56	6427
2026-01-20 21:38:39.83	341.20	9.64	-41.2	-42.3	21.9	0.00e+00	0	42	0	1088421888	56	5952
2026-01-20 21:38:43.87	340.72	9.38	-41.7	-42.8	21.6	0.00e+00	0	42	0	1095761920	56	6286
2026-01-20 21:38:47.91	340.25	9.13	-41.4	-42.5	21.7	0.00e+00	0	42	0	1103101952	56	6047
2026-01-20 21:38:51.94	339.79	8.88	-42.1	-43.2	21.1	0.00e+00	0	42	0	1111490560	56	6608
2026-01-20 21:38:55.98	339.33	8.63	-42.7	-44.0	20.3	0.00e+00	0	42	0	1118830592	58	6464
2026-01-20 21:39:00.02	338.89	8.38	-42.4	-43.7	20.8	0.00e+00	0	42	0	1126170624	58	6209
2026-01-20 21:39:04.06	338.45	8.13	-42.0	-43.2	21.1	0.00e+00	0	42	0	1133510656	58	5862
2026-01-20 21:39:08.10	338.02	7.88	-42.9	-44.3	20.1	0.00e+00	0	43	0	1140850688	58	6680
2026-01-20 21:39:12.14	337.59	7.63	-43.0	-44.4	19.8	0.00e+00	0	42	0	1149239296	58	6768
2026-01-20 21:39:16.18	337.18	7.39	-43.1	-44.5	20.0	0.00e+00	0	42	0	1156579328	58	6780
2026-01-20 21:39:20.21	336.77	7.14	-42.5	-43.8	20.4	0.00e+00	0	42	0	1163919360	58	6246
2026-01-20 21:39:24.25	336.37	6.90	-43.0	-44.4	19.7	0.00e+00	0	42	0	1171259392	58	6711
2026-01-20 21:39:28.29	335.97	6.65	-42.6	-44.0	20.0	0.00e+00	0	42	0	1179648000	58	6403
2026-01-20 21:39:32.33	335.58	6.41	-43.2	-44.6	19.4	0.00e+00	0	42	0	1186988032	58	6906
2026-01-20 21:39:36.37	335.20	6.17	-43.9	-45.6	18.6	0.00e+00	0	42	0	1194328064	60	6911
2026-01-20 21:39:40.41	334.83	5.93	-43.7	-45.5	18.0	0.00e+00	0	42	0	1201668096	60	6805
2026-01-20 21:39:44.45	334.46	5.69	-44.3	-46.6	16.2	0.00e+00	0	42	0	1209008128	60	7726
2026-01-20 21:39:48.48	334.10	5.45	-45.1	-48.2	14.3	0.00e+00	0	42	0	1217396736	60	9254
2026-01-20 21:39:52.52	333.74	5.21	-45.8	-50.0	11.7	2.07e-04	0	42	0	1224736768	60	11375
2026-01-20 21:39:56.56	333.39	4.98	-46.4	-51.9	9.5	4.41e-03	0	42	0	1232076800	60	14232
2026-01-20 21:40:00.60	333.05	4.74	-46.7	-52.9	8.5	3.46e-02	0	42	0	1239416832	60	15885
2026-01-20 21:40:04.63	332.71	4.51	-46.7	-52.4	9.2	3.18e-02	0	42	0	1247805440	60	15058
2026-01-20 21:40:08.67	332.37	4.28	-46.5	-50.5	12.0	4.00e-04	0	42	0	1255145472	60	12139
2026-01-20 21:40:12.71	332.05	4.04	-46.1	-49.7	13.0	3.83e-04	0	42	0	1262485504	60	11056
2026-01-20 21:40:16.75	331.72	3.81	-45.8	-48.9	14.1	1.90e-05	0	42	0	1269825536	60	10122
2026-01-20 21:40:20.79	331.41	3.58	-45.7	-48.9	13.9	4.50e-06	0	42	0	1277165568	60	10117
2026-01-20 21:40:24.83	331.09	3.35	-45.8	-49.1	13.6	3.81e-05	0	42	0	1285554176	60	10264
2026-01-20 21:40:28.87	330.79	3.13	-46.2	-50.1	12.4	9.53e-05	0	42	0	1292894208	60	11542
2026-01-20 21:40:32.91	330.49	2.90	-50.2	-65.4	3.6	1.51e+00	0	42	104	1298137088	60	67480
2026-01-20 21:40:36.95	330.19	2.67	-51.1	-66.3	3.6	1.51e+00	0	42	104	1298137088	60	74977
2026-01-20 21:40:40.99	329.90	2.45	-51.4	-66.6	3.6	1.51e+00	0	42	104	1298137088	60	77152
2026-01-20 21:40:45.03	329.61	2.23	-51.4	-66.6	3.6	1.51e+00	0	43	104	1298137088	60	77464
2026-01-20 21:40:49.08	329.32	2.00	-51.3	-66.5	3.6	1.51e+00	0	42	104	1298137088	60	76541
2026-01-20 21:40:53.12	329.05	1.78	-51.3	-66.5	3.6	1.51e+00	0	42	104	1298137088	60	76437
2026-01-20 21:40:57.16	328.77	1.56	-51.3	-66.5	3.6	1.51e+00	0	42	104	1298137088	60	76523
2026-01-20 21:41:01.20	328.50	1.34	-51.3	-66.5	3.6	1.51e+00	0	42	104	1298137088	60	76639
2026-01-20 21:41:05.24	328.23	1.12	-51.3	-66.5	3.6	1.51e+00	0	43	104	1298137088	60	76759
2026-01-20 21:41:09.28	327.97	0.91	-51.3	-66.5	3.6	1.51e+00	0	42	104	1298137088	60	76364
2026-01-20 21:41:13.32	327.71	0.69	-51.3	-66.5	3.6	1.51e+00	0	42	104	1298137088	60	76123
2026-01-20 21:41:17.36	327.46	0.48	-51.3	-66.5	3.6	1.51e+00	0	42	104	1298137088	60	76691
2026-01-20 21:41:21.39	327.21	0.26	-51.4	-66.6	3.6	1.51e+00	0	42	104	1298137088	60	76933
2026-01-20 21:41:25.44	326.96	0.05	-51.3	-66.5	3.6	1.51e+00	0	42	104	1298137088	60	76231

#Closed at: 2026-01-20 21:41:27
#Recorded file [1298 MB]: D:/lorett/data/35029_260121_092757.dat