passes_logs/2026/01/20/R4.6S_Anadyr/R4.6S_Anadyr__20260120_034137_AQUA_rec.log

#Pass ID: 20260120_034137_AQUA
#Satellite: AQUA
#Configuration: AQUA
#almurnet v.1.7.20251203
#Start time: 2026-01-20 03:41:39

#Version: 2.2.20231116
#Station: R4.6S_Anadyr
#Location: 177.4865 lon 64.73178 lat
#TLE: 1 27424U 02022A   26019.27629806  .00001032  00000+0  21655-3 0  9990
#TLE: 2 27424  98.4090 345.7756 0001997  73.0764  31.8912 14.61830109261513

#Time	Az	El	Level	Level2	SNR	BER	BlckErr	Temp	State	Recorded	gain1	gain2
2026-01-20 03:41:39.88	203.47	0.13	-52.4	-67.4	3.5	1.51e+00	0	39	0	0	60	84542
2026-01-20 03:41:42.90	203.67	0.30	-53.8	-71.7	3.5	3.02e+01	0	40	104	0	60	147201
2026-01-20 03:41:45.93	203.87	0.47	-54.2	-72.0	3.5	3.02e+01	0	40	104	0	60	152848
2026-01-20 03:41:48.96	204.07	0.64	-54.0	-71.8	3.5	3.02e+01	0	40	104	0	60	150027
2026-01-20 03:41:51.99	204.28	0.81	-54.3	-72.2	3.5	3.02e+01	0	40	104	0	60	155999
2026-01-20 03:41:55.02	204.48	0.98	-54.2	-72.1	3.5	3.02e+01	0	40	104	0	60	154256
2026-01-20 03:41:58.05	204.69	1.15	-53.4	-71.4	3.5	3.02e+01	0	40	104	0	60	142433
2026-01-20 03:42:01.08	204.91	1.33	-53.4	-71.3	3.5	3.02e+01	0	40	104	0	60	141976
2026-01-20 03:42:04.11	205.12	1.50	-53.8	-71.6	3.5	3.02e+01	0	40	104	0	60	146862
2026-01-20 03:42:07.14	205.34	1.68	-53.7	-71.7	3.5	3.02e+01	0	40	104	0	60	148140
2026-01-20 03:42:10.17	205.56	1.85	-52.6	-70.8	3.5	3.02e+01	0	40	104	0	60	132968
2026-01-20 03:42:13.20	205.78	2.03	-53.3	-71.5	3.5	3.02e+01	0	40	104	0	60	145304
2026-01-20 03:42:16.22	206.01	2.21	-53.8	-72.0	3.5	3.02e+01	0	41	104	0	60	153788
2026-01-20 03:42:19.26	206.24	2.38	-52.6	-70.8	3.5	3.02e+01	0	41	104	0	60	132999
2026-01-20 03:42:22.28	206.47	2.56	-53.6	-71.7	3.5	3.02e+01	0	41	104	0	60	148051
2026-01-20 03:42:25.31	206.70	2.74	-53.3	-71.4	3.5	3.02e+01	0	40	104	0	60	142330
2026-01-20 03:42:28.34	206.94	2.93	-53.5	-71.7	3.5	3.02e+01	0	41	104	0	60	148174
2026-01-20 03:42:31.37	207.18	3.11	-53.3	-71.6	3.5	3.02e+01	0	41	104	0	60	146539
2026-01-20 03:42:34.39	207.42	3.29	-53.7	-71.8	3.5	3.02e+01	0	41	104	0	60	150327
2026-01-20 03:42:37.42	207.67	3.48	-53.9	-71.9	3.5	3.02e+01	0	41	104	0	60	151554
2026-01-20 03:42:40.45	207.92	3.66	-53.8	-71.7	3.5	3.02e+01	0	41	104	0	60	148534
2026-01-20 03:42:43.48	208.17	3.85	-54.1	-72.0	3.5	3.02e+01	0	41	104	0	60	153873
2026-01-20 03:42:46.51	208.43	4.03	-52.8	-70.7	3.5	3.02e+01	0	41	104	0	60	132252
2026-01-20 03:42:49.54	208.69	4.22	-53.8	-71.8	3.5	3.02e+01	0	41	104	0	60	149787
2026-01-20 03:42:52.57	208.95	4.41	-53.3	-71.2	3.5	3.02e+01	0	41	104	0	60	139635
2026-01-20 03:42:55.60	209.22	4.60	-53.3	-71.2	3.5	3.02e+01	0	41	104	0	60	139656
2026-01-20 03:42:58.62	209.49	4.79	-54.1	-72.1	3.5	3.02e+01	0	41	104	0	60	154284
2026-01-20 03:43:01.66	209.77	4.99	-53.2	-71.1	3.5	3.02e+01	0	41	104	0	60	138282
2026-01-20 03:43:04.69	210.05	5.18	-52.9	-70.8	3.5	3.02e+01	0	41	104	0	60	133529
2026-01-20 03:43:07.72	210.33	5.37	-52.6	-70.5	3.5	3.02e+01	0	41	104	0	60	129156
2026-01-20 03:43:10.74	210.61	5.57	-52.5	-70.5	3.5	3.02e+01	0	41	104	0	60	128211
2026-01-20 03:43:13.78	210.90	5.77	-52.6	-70.7	3.5	3.02e+01	0	41	104	0	60	131617
2026-01-20 03:43:16.81	211.20	5.96	-52.5	-70.5	3.5	3.02e+01	0	41	104	0	60	129593
2026-01-20 03:43:19.84	211.50	6.16	-52.5	-70.6	3.5	3.02e+01	0	41	104	0	60	130530
2026-01-20 03:43:22.87	211.80	6.36	-53.4	-71.3	3.5	3.02e+01	0	41	104	0	60	141947
2026-01-20 03:43:25.90	212.11	6.56	-52.9	-70.8	3.5	3.02e+01	0	41	104	0	60	133973
2026-01-20 03:43:28.93	212.42	6.77	-53.4	-71.2	3.5	3.02e+01	0	41	104	0	60	140267
2026-01-20 03:43:31.96	212.74	6.97	-52.8	-70.7	3.5	3.02e+01	0	41	104	0	60	131882
2026-01-20 03:43:34.99	213.06	7.17	-53.6	-71.5	3.5	3.02e+01	0	41	104	0	60	144949
2026-01-20 03:43:38.02	213.39	7.38	-53.0	-71.1	3.5	3.02e+01	0	41	104	0	60	138254
2026-01-20 03:43:41.05	213.72	7.59	-53.4	-71.6	3.5	3.02e+01	0	41	104	0	60	146581
2026-01-20 03:43:44.08	214.05	7.79	-52.7	-70.8	3.5	3.02e+01	0	41	104	0	60	133115
2026-01-20 03:43:47.11	214.39	8.00	-53.3	-71.2	3.5	3.02e+01	0	41	104	0	60	140376
2026-01-20 03:43:50.14	214.74	8.21	-52.7	-70.5	3.5	3.02e+01	0	41	104	0	60	129552
2026-01-20 03:43:53.17	215.09	8.42	-53.2	-71.1	3.5	3.02e+01	0	41	104	0	60	137618
2026-01-20 03:43:56.20	215.45	8.64	-53.1	-71.0	3.5	3.02e+01	0	41	104	0	60	137183
2026-01-20 03:43:59.23	215.81	8.85	-54.0	-71.9	3.5	3.02e+01	0	41	104	0	60	150651
2026-01-20 03:44:02.26	216.18	9.06	-53.6	-71.5	3.5	3.02e+01	0	41	104	0	60	144048
2026-01-20 03:44:05.29	216.55	9.28	-53.2	-71.0	3.5	3.02e+01	0	41	104	0	60	137232
2026-01-20 03:44:08.32	216.93	9.50	-53.2	-71.1	3.5	3.02e+01	0	41	104	0	60	137951
2026-01-20 03:44:11.35	217.32	9.71	-54.3	-72.1	3.5	3.02e+01	0	41	104	0	60	155724
2026-01-20 03:44:14.39	217.71	9.93	-53.1	-71.0	3.5	3.02e+01	0	41	104	0	60	136856
2026-01-20 03:44:17.42	218.11	10.15	-53.1	-71.0	3.5	3.02e+01	0	41	104	0	60	136890
2026-01-20 03:44:20.45	218.51	10.37	-53.5	-71.4	3.5	3.02e+01	0	41	104	0	60	143464
2026-01-20 03:44:23.48	218.92	10.60	-53.4	-71.4	3.5	3.02e+01	0	41	104	0	60	142501
2026-01-20 03:44:26.51	219.34	10.82	-53.2	-71.2	3.5	3.02e+01	0	41	104	0	60	139569
2026-01-20 03:44:29.54	219.76	11.04	-54.3	-72.2	3.5	3.02e+01	0	41	104	0	60	156037
2026-01-20 03:44:32.57	220.19	11.27	-52.9	-70.9	3.5	3.02e+01	0	41	104	0	60	134742
2026-01-20 03:44:35.60	220.63	11.49	-53.5	-71.4	3.5	3.02e+01	0	42	104	0	60	143786
2026-01-20 03:44:38.63	221.08	11.72	-53.5	-71.6	3.5	3.02e+01	0	41	104	0	60	145496
2026-01-20 03:44:41.66	221.53	11.95	-52.5	-70.5	3.5	3.02e+01	0	41	104	0	60	128463
2026-01-20 03:44:44.69	221.99	12.18	-52.1	-70.1	3.5	3.02e+01	0	41	104	0	60	123409
2026-01-20 03:44:47.72	222.45	12.41	-52.1	-70.0	3.5	3.02e+01	0	41	104	0	60	122386
2026-01-20 03:44:50.75	222.93	12.64	-51.7	-69.7	3.5	3.02e+01	0	41	104	0	60	117910
2026-01-20 03:44:53.77	223.41	12.86	-53.0	-71.0	3.6	3.02e+01	0	41	104	0	60	136215
2026-01-20 03:44:56.80	223.90	13.10	-53.0	-71.1	3.5	3.02e+01	0	41	104	0	60	137400
2026-01-20 03:44:59.84	224.40	13.33	-53.5	-71.5	3.5	3.02e+01	0	41	104	0	60	144186
2026-01-20 03:45:02.87	224.90	13.56	-53.4	-71.4	3.5	3.02e+01	0	41	104	0	60	143802
2026-01-20 03:45:05.90	225.42	13.79	-53.7	-71.6	3.5	3.02e+01	0	41	104	0	60	147069
2026-01-20 03:45:08.93	225.94	14.03	-53.2	-71.1	3.5	3.02e+01	0	42	104	0	60	137934
2026-01-20 03:45:11.96	226.47	14.26	-54.2	-72.2	3.5	3.02e+01	0	42	104	0	60	156763
2026-01-20 03:45:14.99	227.01	14.50	-54.2	-72.1	3.5	3.02e+01	0	42	104	0	60	155845
2026-01-20 03:45:18.02	227.56	14.73	-53.5	-71.4	3.5	3.02e+01	0	42	104	0	60	143767
2026-01-20 03:45:21.05	228.12	14.96	-51.9	-70.0	3.5	3.02e+01	0	42	104	0	60	121582
2026-01-20 03:45:24.08	228.69	15.20	-52.0	-70.0	3.5	3.02e+01	0	42	104	0	60	121661
2026-01-20 03:45:27.11	229.26	15.43	-53.4	-71.4	3.5	3.02e+01	0	42	104	0	60	142660
2026-01-20 03:45:30.15	229.85	15.67	-52.7	-70.8	3.5	3.02e+01	0	41	104	0	60	133262
2026-01-20 03:45:33.18	230.45	15.90	-52.6	-70.7	3.5	3.02e+01	0	42	104	0	60	132007
2026-01-20 03:45:36.21	231.05	16.14	-52.2	-70.3	3.5	3.02e+01	0	42	104	0	60	125564
2026-01-20 03:45:39.24	231.67	16.37	-52.8	-70.8	3.5	3.02e+01	0	42	104	0	60	133620
2026-01-20 03:45:42.27	232.29	16.60	-52.2	-70.3	3.5	3.02e+01	0	42	104	0	60	125854
2026-01-20 03:45:45.30	232.93	16.83	-51.8	-69.8	3.5	3.02e+01	0	42	104	0	60	119267
2026-01-20 03:45:48.33	233.58	17.06	-51.2	-69.1	3.5	3.02e+01	0	42	104	0	60	110211
2026-01-20 03:45:51.36	234.23	17.29	-52.8	-70.8	3.5	3.02e+01	0	42	104	0	60	133588
2026-01-20 03:45:54.39	234.90	17.52	-52.8	-70.7	3.5	3.02e+01	0	42	104	0	60	132379
2026-01-20 03:45:57.41	235.57	17.75	-52.7	-70.6	3.5	3.02e+01	0	41	104	0	60	131109
2026-01-20 03:46:00.45	236.26	17.98	-52.4	-70.3	3.5	3.02e+01	0	41	104	0	60	126179
2026-01-20 03:46:03.47	236.96	18.20	-52.3	-70.3	3.5	3.02e+01	0	42	104	0	60	125347
2026-01-20 03:46:06.50	237.67	18.42	-52.8	-70.7	3.5	3.02e+01	0	42	104	0	60	132524
2026-01-20 03:46:09.53	238.38	18.64	-53.1	-71.1	3.5	3.02e+01	0	42	104	0	60	137357
2026-01-20 03:46:12.56	239.11	18.86	-52.2	-70.2	3.5	3.02e+01	0	42	104	0	60	123915
2026-01-20 03:46:15.59	239.86	19.08	-52.8	-70.7	3.5	3.02e+01	0	42	104	0	60	131892
2026-01-20 03:46:18.62	240.61	19.29	-53.0	-70.8	3.5	3.02e+01	0	42	104	0	60	134207
2026-01-20 03:46:21.65	241.37	19.50	-53.4	-71.3	3.5	3.02e+01	0	42	104	0	60	141105
2026-01-20 03:46:24.68	242.14	19.71	-54.0	-71.8	3.5	3.02e+01	0	42	104	0	60	150141
2026-01-20 03:46:27.71	242.93	19.92	-54.4	-72.3	3.5	3.02e+01	0	41	104	0	60	158640
2026-01-20 03:46:30.74	243.72	20.12	-53.2	-71.0	3.5	3.02e+01	0	41	104	0	60	137131
2026-01-20 03:46:33.77	244.53	20.32	-53.8	-71.8	3.5	3.02e+01	0	42	104	0	60	149002
2026-01-20 03:46:36.80	245.34	20.51	-53.9	-71.8	3.5	3.02e+01	0	42	104	0	60	149303
2026-01-20 03:46:39.82	246.17	20.70	-54.4	-72.3	3.5	3.02e+01	0	42	104	0	60	157733
2026-01-20 03:46:42.86	247.01	20.89	-53.5	-71.4	3.5	3.02e+01	0	42	104	0	60	142956
2026-01-20 03:46:45.89	247.86	21.07	-53.6	-71.4	3.5	3.02e+01	0	42	104	0	60	143018
2026-01-20 03:46:48.91	248.71	21.25	-52.8	-70.6	3.5	3.02e+01	0	42	104	0	60	130573
2026-01-20 03:46:51.95	249.58	21.42	-52.1	-70.0	3.5	3.02e+01	0	42	104	0	60	122237
2026-01-20 03:46:54.98	250.46	21.59	-51.8	-69.7	3.5	3.02e+01	0	42	104	0	60	117060
2026-01-20 03:46:58.01	251.35	21.75	-52.4	-70.2	3.5	3.02e+01	0	42	104	0	60	124926
2026-01-20 03:47:01.04	252.24	21.90	-53.0	-70.9	3.5	3.02e+01	0	42	104	0	60	134245
2026-01-20 03:47:04.07	253.15	22.05	-52.7	-70.5	3.5	3.02e+01	0	42	104	0	60	129311
2026-01-20 03:47:07.10	254.06	22.20	-51.9	-69.8	3.5	3.02e+01	0	42	104	0	60	118810
2026-01-20 03:47:10.13	254.98	22.33	-52.7	-70.6	3.5	3.02e+01	0	42	104	0	60	130567
2026-01-20 03:47:13.16	255.92	22.46	-52.7	-70.6	3.5	3.02e+01	0	42	104	0	60	131091
2026-01-20 03:47:16.19	256.85	22.59	-53.2	-71.1	3.5	3.02e+01	0	42	104	0	60	138075
2026-01-20 03:47:19.21	257.80	22.70	-52.9	-70.8	3.5	3.02e+01	0	42	104	0	60	132958
2026-01-20 03:47:22.25	258.75	22.82	-53.3	-71.1	3.5	3.02e+01	0	42	104	0	60	138434
2026-01-20 03:47:25.28	259.71	22.92	-52.9	-70.8	3.5	3.02e+01	0	42	104	0	60	134119
2026-01-20 03:47:28.31	260.68	23.01	-52.2	-70.1	3.5	3.02e+01	0	42	104	0	60	122769
2026-01-20 03:47:31.34	261.65	23.10	-51.7	-69.6	3.5	3.02e+01	0	42	104	0	60	115812
2026-01-20 03:47:34.37	262.63	23.18	-52.2	-70.1	3.5	3.02e+01	0	42	104	0	60	122653
2026-01-20 03:47:37.40	263.61	23.25	-52.5	-70.3	3.5	3.02e+01	0	42	104	0	60	126525
2026-01-20 03:47:40.43	264.60	23.31	-53.0	-70.9	3.5	3.02e+01	0	42	104	0	60	135386
2026-01-20 03:47:43.45	265.58	23.37	-51.9	-69.8	3.5	3.02e+01	0	42	104	0	60	118818
2026-01-20 03:47:46.48	266.57	23.41	-51.7	-69.5	3.5	3.02e+01	0	42	104	0	60	115388
2026-01-20 03:47:49.51	267.57	23.45	-52.3	-70.2	3.5	3.02e+01	0	42	104	0	60	124222
2026-01-20 03:47:52.55	268.57	23.48	-52.8	-70.7	3.5	3.02e+01	0	42	104	0	60	131867
2026-01-20 03:47:55.57	269.57	23.50	-53.3	-71.2	3.5	3.02e+01	0	42	104	0	60	138966
2026-01-20 03:47:58.60	270.57	23.51	-52.8	-70.7	3.5	3.02e+01	0	42	104	0	60	131330
2026-01-20 03:48:01.63	271.57	23.52	-51.6	-69.4	3.5	3.02e+01	0	42	104	0	60	114155
2026-01-20 03:48:04.67	272.57	23.51	-51.3	-69.2	3.5	3.02e+01	0	42	104	0	60	110861
2026-01-20 03:48:07.70	273.57	23.50	-52.9	-70.7	3.5	3.02e+01	0	42	104	0	60	132498
2026-01-20 03:48:10.73	274.57	23.48	-53.7	-71.5	3.5	3.02e+01	0	42	104	0	60	145300
2026-01-20 03:48:13.76	275.57	23.44	-52.3	-70.1	3.5	3.02e+01	0	42	104	0	60	122953
2026-01-20 03:48:16.78	276.56	23.41	-53.7	-71.5	3.5	3.02e+01	0	42	104	0	60	144865
2026-01-20 03:48:19.82	277.55	23.36	-53.1	-71.0	3.5	3.02e+01	0	42	104	0	60	137105
2026-01-20 03:48:22.84	278.54	23.30	-53.4	-71.4	3.5	3.02e+01	0	42	104	0	60	142471
2026-01-20 03:48:25.88	279.52	23.24	-53.4	-71.3	3.5	3.02e+01	0	42	104	0	60	140847
2026-01-20 03:48:28.91	280.50	23.16	-52.2	-70.0	3.5	3.02e+01	0	42	104	0	60	122008
2026-01-20 03:48:31.94	281.48	23.08	-52.7	-70.6	3.5	3.02e+01	0	42	104	0	60	129995
2026-01-20 03:48:34.97	282.45	22.99	-52.2	-70.1	3.5	3.02e+01	0	42	104	0	60	123095
2026-01-20 03:48:38.00	283.41	22.90	-52.4	-70.3	3.5	3.02e+01	0	42	104	0	60	125515
2026-01-20 03:48:41.03	284.37	22.79	-52.9	-70.7	3.5	3.02e+01	0	42	104	0	60	132224
2026-01-20 03:48:44.06	285.32	22.68	-51.9	-69.8	3.5	3.02e+01	0	42	104	0	60	118791
2026-01-20 03:48:47.09	286.26	22.57	-51.6	-69.6	3.5	3.02e+01	0	42	104	0	60	116579
2026-01-20 03:48:50.12	287.19	22.44	-51.5	-69.4	3.5	3.02e+01	0	42	104	0	60	113225
2026-01-20 03:48:53.15	288.12	22.31	-51.9	-69.8	3.5	3.02e+01	0	42	104	0	60	119079
2026-01-20 03:48:56.18	289.04	22.17	-52.0	-69.9	3.5	3.02e+01	0	42	104	0	60	119867
2026-01-20 03:48:59.21	289.95	22.03	-52.6	-70.4	3.5	3.02e+01	0	42	104	0	60	127691
2026-01-20 03:49:02.24	290.85	21.88	-52.1	-70.0	3.5	3.02e+01	0	42	104	0	60	121571
2026-01-20 03:49:05.28	291.74	21.72	-51.1	-69.0	3.5	3.02e+01	0	42	104	0	60	108531
2026-01-20 03:49:08.31	292.63	21.56	-51.9	-69.8	3.5	3.02e+01	0	42	104	0	60	118504
2026-01-20 03:49:11.34	293.50	21.39	-51.7	-69.6	3.5	3.02e+01	0	42	104	0	60	115848
2026-01-20 03:49:14.37	294.36	21.22	-51.4	-69.3	3.5	3.02e+01	0	42	104	0	60	112314
2026-01-20 03:49:17.40	295.21	21.04	-51.0	-68.8	3.5	3.02e+01	0	42	104	0	60	106521
2026-01-20 03:49:20.43	296.06	20.86	-50.9	-68.7	3.5	3.02e+01	0	42	104	0	60	104938
2026-01-20 03:49:23.46	296.89	20.68	-51.4	-69.3	3.5	3.02e+01	0	42	104	0	60	112064
2026-01-20 03:49:26.50	297.71	20.48	-51.0	-68.9	3.5	3.02e+01	0	42	104	0	60	107283
2026-01-20 03:49:29.53	298.52	20.29	-52.6	-70.4	3.5	3.02e+01	0	42	104	0	60	128041
2026-01-20 03:49:32.56	299.32	20.09	-52.8	-70.6	3.5	3.02e+01	0	42	104	0	60	130865
2026-01-20 03:49:35.59	300.11	19.89	-52.2	-70.0	3.5	3.02e+01	0	42	104	0	60	122393
2026-01-20 03:49:38.62	300.89	19.69	-51.2	-69.1	3.5	3.02e+01	0	42	104	0	60	109924
2026-01-20 03:49:41.65	301.66	19.48	-52.3	-70.2	3.5	3.02e+01	0	42	104	0	60	125198
2026-01-20 03:49:44.68	302.42	19.27	-51.9	-69.8	3.5	3.02e+01	0	42	104	0	60	119014
2026-01-20 03:49:47.71	303.17	19.06	-52.2	-70.1	3.5	3.02e+01	0	42	104	0	60	123337
2026-01-20 03:49:50.74	303.90	18.84	-53.0	-70.9	3.5	3.02e+01	0	42	104	0	60	134801
2026-01-20 03:49:53.77	304.63	18.62	-52.5	-70.3	3.5	3.02e+01	0	42	104	0	60	126570
2026-01-20 03:49:56.80	305.34	18.40	-53.0	-70.9	3.5	3.02e+01	0	42	104	0	60	135406
2026-01-20 03:49:59.83	306.04	18.18	-52.5	-70.4	3.5	3.02e+01	0	42	104	0	60	127456
2026-01-20 03:50:02.86	306.74	17.96	-52.7	-70.6	3.5	3.02e+01	0	42	104	0	60	130047
2026-01-20 03:50:05.89	307.42	17.73	-52.1	-70.0	3.5	3.02e+01	0	42	104	0	60	121567
2026-01-20 03:50:08.93	308.09	17.51	-52.3	-70.2	3.5	3.02e+01	0	42	104	0	60	124637
2026-01-20 03:50:11.95	308.75	17.28	-52.5	-70.4	3.5	3.02e+01	0	42	104	0	60	126707
2026-01-20 03:50:14.98	309.40	17.05	-52.9	-70.8	3.5	3.02e+01	0	42	104	0	60	133056
2026-01-20 03:50:18.01	310.04	16.82	-52.4	-70.3	3.5	3.02e+01	0	42	104	0	60	125738
2026-01-20 03:50:21.04	310.67	16.59	-51.1	-68.9	3.5	3.02e+01	0	42	104	0	60	107480
2026-01-20 03:50:24.07	311.29	16.36	-52.1	-69.9	3.5	3.02e+01	0	42	104	0	60	120849
2026-01-20 03:50:27.10	311.91	16.13	-52.7	-70.5	3.5	3.02e+01	0	42	104	0	60	129288
2026-01-20 03:50:30.13	312.51	15.90	-53.0	-70.9	3.5	3.02e+01	0	42	104	0	60	134375
2026-01-20 03:50:33.16	313.10	15.67	-52.3	-70.2	3.5	3.02e+01	0	42	104	0	60	124083
2026-01-20 03:50:36.19	313.68	15.43	-51.1	-68.9	3.5	3.02e+01	0	42	104	0	60	107647
2026-01-20 03:50:39.23	314.25	15.20	-50.9	-68.8	3.5	3.02e+01	0	42	104	0	60	106222
2026-01-20 03:50:42.26	314.82	14.97	-51.1	-69.0	3.5	3.02e+01	0	42	104	0	60	108250
2026-01-20 03:50:45.29	315.37	14.74	-51.9	-69.8	3.5	3.02e+01	0	42	104	0	60	119520
2026-01-20 03:50:48.31	315.92	14.50	-52.1	-70.0	3.5	3.02e+01	0	42	104	0	60	121607
2026-01-20 03:50:51.34	316.45	14.27	-52.0	-70.0	3.5	3.02e+01	0	42	104	0	60	121257
2026-01-20 03:50:54.37	316.98	14.04	-52.0	-69.9	3.5	3.02e+01	0	42	104	0	60	119680
2026-01-20 03:50:57.40	317.50	13.81	-51.8	-69.7	3.5	3.02e+01	0	42	104	0	60	117143
2026-01-20 03:51:00.43	318.01	13.58	-51.8	-69.7	3.5	3.02e+01	0	42	104	0	60	118233
2026-01-20 03:51:03.47	318.52	13.35	-52.3	-70.2	3.5	3.02e+01	0	42	104	0	60	124186
2026-01-20 03:51:06.49	319.01	13.12	-52.1	-69.9	3.5	3.02e+01	0	42	104	0	60	120644
2026-01-20 03:51:09.53	319.50	12.89	-52.2	-70.0	3.5	3.02e+01	0	42	104	0	60	122192
2026-01-20 03:51:12.56	319.98	12.66	-52.7	-70.5	3.5	3.02e+01	0	42	104	0	60	128983
2026-01-20 03:51:15.59	320.45	12.43	-51.5	-69.4	3.5	3.02e+01	0	42	104	0	60	113949
2026-01-20 03:51:18.62	320.91	12.20	-52.4	-70.2	3.5	3.02e+01	0	42	104	0	60	125053
2026-01-20 03:51:21.65	321.37	11.98	-51.7	-69.7	3.5	3.02e+01	0	42	104	0	60	117191
2026-01-20 03:51:24.68	321.82	11.75	-51.4	-69.4	3.5	3.02e+01	0	42	104	0	60	113246
2026-01-20 03:51:27.71	322.26	11.53	-51.7	-69.6	3.5	3.02e+01	0	42	104	0	60	116444
2026-01-20 03:51:30.74	322.69	11.30	-52.0	-70.0	3.5	3.02e+01	0	42	104	0	60	121106
2026-01-20 03:51:33.77	323.12	11.08	-51.6	-69.5	3.5	3.02e+01	0	42	104	0	60	115414
2026-01-20 03:51:36.80	323.54	10.86	-51.7	-69.6	3.5	3.02e+01	0	42	104	0	60	116352
2026-01-20 03:51:39.82	323.96	10.64	-50.9	-68.8	3.5	3.02e+01	0	42	104	0	60	105557
2026-01-20 03:51:42.85	324.37	10.42	-50.5	-68.3	3.5	3.02e+01	0	42	104	0	60	100640
2026-01-20 03:51:45.88	324.77	10.20	-50.6	-68.5	3.5	3.02e+01	0	42	104	0	60	101937
2026-01-20 03:51:48.91	325.17	9.98	-51.2	-69.1	3.5	3.02e+01	0	42	104	0	60	109207
2026-01-20 03:51:51.94	325.56	9.77	-50.9	-68.8	3.5	3.02e+01	0	42	104	0	60	105532
2026-01-20 03:51:54.96	325.94	9.55	-51.2	-69.1	3.5	3.02e+01	0	42	104	0	60	110022
2026-01-20 03:51:58.00	326.32	9.34	-51.3	-69.3	3.5	3.02e+01	0	42	104	0	60	111873
2026-01-20 03:52:01.02	326.69	9.12	-50.8	-68.7	3.5	3.02e+01	0	42	104	0	60	104478
2026-01-20 03:52:04.06	327.06	8.91	-50.4	-68.4	3.5	3.02e+01	0	42	104	0	60	100667
2026-01-20 03:52:07.09	327.42	8.70	-50.9	-68.8	3.5	3.02e+01	0	42	104	0	60	105792
2026-01-20 03:52:10.12	327.77	8.49	-50.6	-68.5	3.5	3.02e+01	0	42	104	0	60	102047
2026-01-20 03:52:13.15	328.12	8.28	-50.3	-68.2	3.5	3.02e+01	0	42	104	0	60	99379
2026-01-20 03:52:16.17	328.47	8.07	-50.5	-68.4	3.5	3.02e+01	0	42	104	0	60	101034
2026-01-20 03:52:19.21	328.81	7.86	-50.3	-68.1	3.5	3.02e+01	0	42	104	0	60	98253
2026-01-20 03:52:22.24	329.14	7.66	-50.4	-68.2	3.5	3.02e+01	0	42	104	0	60	99341
2026-01-20 03:52:25.27	329.48	7.45	-50.2	-68.1	3.5	3.02e+01	0	42	104	0	60	98034
2026-01-20 03:52:28.30	329.80	7.25	-50.1	-67.9	3.5	3.02e+01	0	42	104	0	60	95745
2026-01-20 03:52:31.33	330.12	7.05	-50.0	-67.9	3.5	3.02e+01	0	42	104	0	60	95437
2026-01-20 03:52:34.36	330.44	6.84	-50.6	-68.6	3.5	3.02e+01	0	42	104	0	60	103025
2026-01-20 03:52:37.39	330.75	6.64	-50.6	-68.5	3.5	3.02e+01	0	42	104	0	60	101817
2026-01-20 03:52:40.42	331.06	6.44	-50.8	-68.7	3.5	3.02e+01	0	42	104	0	60	104233
2026-01-20 03:52:43.45	331.36	6.25	-50.3	-68.2	3.5	3.02e+01	0	42	104	0	60	98516
2026-01-20 03:52:46.48	331.66	6.05	-50.5	-68.4	3.5	3.02e+01	0	42	104	0	60	101266
2026-01-20 03:52:49.51	331.95	5.85	-50.2	-68.0	3.5	3.02e+01	0	42	104	0	60	97107
2026-01-20 03:52:52.54	332.24	5.66	-50.8	-68.7	3.5	3.02e+01	0	42	104	0	60	104362
2026-01-20 03:52:55.57	332.53	5.46	-48.5	-68.6	3.5	3.02e+01	0	42	104	0	60	103343
2026-01-20 03:52:58.60	332.81	5.27	-50.6	-69.0	3.5	3.02e+01	0	42	104	0	60	108754
2026-01-20 03:53:01.62	333.09	5.08	-51.7	-69.7	3.5	3.02e+01	0	42	104	0	60	117600
2026-01-20 03:53:04.65	333.37	4.89	-51.8	-69.7	3.5	3.02e+01	0	42	104	0	60	117483
2026-01-20 03:53:07.68	333.64	4.70	-51.6	-69.5	3.5	3.02e+01	0	42	104	0	60	114440
2026-01-20 03:53:10.71	333.91	4.51	-50.9	-68.8	3.5	3.02e+01	0	42	104	0	60	105671
2026-01-20 03:53:13.74	334.17	4.32	-51.6	-69.5	3.5	3.02e+01	0	42	104	0	60	114737
2026-01-20 03:53:16.77	334.43	4.14	-51.1	-69.0	3.5	3.02e+01	0	42	104	0	60	108512
2026-01-20 03:53:19.80	334.69	3.95	-50.7	-69.0	3.5	3.02e+01	0	42	104	0	60	108757
2026-01-20 03:53:22.83	334.94	3.76	-51.6	-69.5	3.5	3.02e+01	0	42	104	0	60	115251
2026-01-20 03:53:25.86	335.19	3.58	-51.7	-69.6	3.5	3.02e+01	0	42	104	0	60	116679
2026-01-20 03:53:28.88	335.44	3.40	-47.5	-65.4	3.5	3.02e+01	0	42	104	0	60	71671
2026-01-20 03:53:31.92	335.69	3.22	-47.7	-65.7	3.5	3.02e+01	0	42	104	0	60	74128
2026-01-20 03:53:34.95	335.93	3.04	-48.2	-66.1	3.5	3.02e+01	0	42	104	0	60	77287
2026-01-20 03:53:37.98	336.17	2.86	-52.0	-69.9	3.5	3.02e+01	0	42	104	0	60	119940
2026-01-20 03:53:41.01	336.40	2.68	-52.3	-70.2	3.5	3.02e+01	0	42	104	0	60	124181
2026-01-20 03:53:44.04	336.63	2.50	-52.2	-70.1	3.5	3.02e+01	0	42	104	0	60	123777
2026-01-20 03:53:47.07	336.86	2.32	-51.8	-69.7	3.5	3.02e+01	0	42	104	0	60	117644
2026-01-20 03:53:50.10	337.09	2.14	-51.8	-69.8	3.5	3.02e+01	0	42	104	0	60	118408
2026-01-20 03:53:53.13	337.32	1.97	-52.5	-70.8	3.5	3.02e+01	0	42	104	0	60	133425
2026-01-20 03:53:56.16	337.54	1.79	-52.2	-70.1	3.5	3.02e+01	0	42	104	0	60	122882
2026-01-20 03:53:59.19	337.76	1.62	-53.1	-70.9	3.5	3.02e+01	0	42	104	0	60	135173
2026-01-20 03:54:02.19	337.97	1.45	-53.5	-71.3	3.5	3.02e+01	0	42	104	0	60	140744
2026-01-20 03:54:05.22	338.18	1.28	-52.9	-70.7	3.5	3.02e+01	0	42	104	0	60	132377
2026-01-20 03:54:08.25	338.39	1.11	-53.7	-71.5	3.5	3.02e+01	0	42	104	0	60	145420
2026-01-20 03:54:11.28	338.60	0.94	-53.3	-71.2	3.5	3.02e+01	0	42	104	0	60	139489
2026-01-20 03:54:14.32	338.81	0.77	-52.8	-70.6	3.5	3.02e+01	0	42	104	0	60	130887
2026-01-20 03:54:17.35	339.01	0.60	-53.8	-71.7	3.5	3.02e+01	0	42	104	0	60	147690
2026-01-20 03:54:20.38	339.22	0.43	-53.3	-71.2	3.5	3.02e+01	0	42	104	0	60	139054
2026-01-20 03:54:23.41	339.41	0.26	-54.0	-71.8	3.5	3.02e+01	0	42	104	0	60	150257
2026-01-20 03:54:26.44	339.61	0.10	-54.1	-71.9	3.5	3.02e+01	0	42	104	0	60	151866
2026-01-20 03:54:29.47	339.81	-0.07	-53.6	-71.5	3.5	3.02e+01	0	42	104	0	60	144425

#Closed at: 2026-01-20 03:54:30
#Recorded file [0 MB]: D:/lorett/data/35029_260120_154139.dat