passes_logs/2026/01/20/R4.6S_Anadyr/R4.6S_Anadyr__20260120_142112_NOAA_21_JPSS-2_rec.log

#Pass ID: 20260120_142112_NOAA 21 (JPSS-2)
#Satellite: NOAA 21 (JPSS-2)
#Configuration: NOAA-21
#almurnet v.1.7.20251203
#Start time: 2026-01-20 14:21:13

#Version: 2.2.20231116
#Station: R4.6S_Anadyr
#Location: 177.4865 lon 64.73178 lat
#TLE: 1 54234U 22150A   26019.94667805  .00000106  00000+0  71222-4 0  9995
#TLE: 2 54234  98.7505 320.7866 0000607 253.4528 106.6582 14.19535964165511

#Time	Az	El	Level	Level2	SNR	BER	BlckErr	Temp	State	Recorded	gain1	gain2
2026-01-20 14:21:13.46	19.80	0.04	-52.4	-70.2	3.5	3.02e+01	0	39	0	0	60	123835
2026-01-20 14:21:17.49	19.86	0.28	-52.6	-65.6	3.5	1.52e+00	0	41	104	0	60	66536
2026-01-20 14:21:21.54	19.93	0.52	-51.7	-64.6	3.5	1.51e+00	0	41	104	0	60	59540
2026-01-20 14:21:25.58	19.99	0.77	-51.5	-64.4	3.5	1.52e+00	0	41	104	0	60	58410
2026-01-20 14:21:29.62	20.05	1.01	-51.2	-64.1	3.5	1.52e+00	0	41	104	0	60	56375
2026-01-20 14:21:33.65	20.12	1.26	-50.6	-63.6	3.5	1.52e+00	0	41	104	0	60	53022
2026-01-20 14:21:37.69	20.18	1.51	-49.8	-62.7	3.5	1.51e+00	0	41	104	0	60	47778
2026-01-20 14:21:41.73	20.25	1.76	-49.8	-62.6	3.5	1.52e+00	0	41	104	0	60	47195
2026-01-20 14:21:45.77	20.31	2.02	-49.7	-62.6	3.5	1.52e+00	0	41	104	0	60	47275
2026-01-20 14:21:49.81	20.38	2.27	-49.6	-61.3	3.5	1.51e+00	0	41	104	0	60	40763
2026-01-20 14:21:53.85	20.45	2.53	-49.6	-61.4	3.5	1.51e+00	0	41	104	0	60	41405
2026-01-20 14:21:57.89	20.52	2.79	-47.5	-51.5	9.6	1.60e-02	120	41	0	4194304	60	13151
2026-01-20 14:22:01.92	20.59	3.06	-43.0	-44.7	17.1	0.00e+00	123	41	0	13631488	60	5996
2026-01-20 14:22:05.96	20.66	3.32	-41.9	-43.3	18.4	0.00e+00	122	41	0	26214400	58	5784
2026-01-20 14:22:10.00	20.73	3.59	-44.0	-45.9	15.9	7.00e-07	122	41	0	38797312	60	6927
2026-01-20 14:22:14.04	20.81	3.86	-49.6	-62.3	3.5	5.42e-03	0	42	104	51380224	60	45828
2026-01-20 14:22:18.08	20.88	4.14	-41.0	-42.3	20.0	0.00e+00	123	42	0	54525952	56	5747
2026-01-20 14:22:22.12	20.96	4.42	-41.1	-42.3	20.0	0.00e+00	123	41	0	67108864	56	5774
2026-01-20 14:22:26.16	21.03	4.70	-41.1	-42.4	19.7	0.00e+00	123	42	0	79691776	54	6533
2026-01-20 14:22:30.20	21.11	4.98	-41.2	-42.5	19.7	0.00e+00	123	42	0	92274688	54	6625
2026-01-20 14:22:34.23	21.19	5.26	-41.4	-42.6	19.6	0.00e+00	123	42	0	104857600	56	5979
2026-01-20 14:22:38.27	21.27	5.55	-40.7	-41.9	19.7	0.00e+00	122	42	0	117440512	52	6940
2026-01-20 14:22:42.31	21.35	5.85	-42.0	-43.3	19.1	0.00e+00	123	42	0	130023424	54	7276
2026-01-20 14:22:46.34	21.43	6.14	-40.9	-42.1	20.0	0.00e+00	122	42	0	142606336	54	6301
2026-01-20 14:22:50.38	21.52	6.44	-40.6	-41.8	20.5	0.00e+00	123	42	0	155189248	54	6102
2026-01-20 14:22:54.42	21.60	6.74	-38.9	-40.0	21.7	0.00e+00	123	42	0	167772160	50	6208
2026-01-20 14:22:58.45	21.69	7.05	-40.3	-41.5	20.4	0.00e+00	122	42	0	180355072	52	6615
2026-01-20 14:23:02.49	21.78	7.36	-39.8	-40.9	21.0	0.00e+00	120	42	0	192937984	52	6201
2026-01-20 14:23:06.53	21.87	7.67	-39.6	-40.7	21.4	0.00e+00	123	42	0	205520896	52	6003
2026-01-20 14:23:10.57	21.96	7.99	-39.6	-40.7	21.5	0.00e+00	123	42	0	218103808	52	6026
2026-01-20 14:23:14.61	22.05	8.31	-39.4	-40.4	21.8	0.00e+00	123	42	0	230686720	52	5844
2026-01-20 14:23:18.64	22.14	8.63	-39.7	-40.8	21.4	0.00e+00	122	42	0	243269632	52	6104
2026-01-20 14:23:22.68	22.24	8.96	-39.8	-40.9	21.4	0.00e+00	122	42	0	255852544	52	6170
2026-01-20 14:23:26.72	22.34	9.30	-38.9	-40.0	22.1	0.00e+00	123	42	0	268435456	50	6213
2026-01-20 14:23:30.75	22.44	9.63	-38.9	-40.0	22.1	0.00e+00	123	42	0	281018368	50	6216
2026-01-20 14:23:34.79	22.54	9.98	-38.3	-39.3	22.6	0.00e+00	123	42	0	294649856	50	5777
2026-01-20 14:23:38.83	22.64	10.33	-38.4	-39.4	22.6	0.00e+00	122	42	0	307232768	50	5826
2026-01-20 14:23:42.88	22.75	10.68	-38.5	-39.5	22.5	0.00e+00	123	42	0	319815680	50	5885
2026-01-20 14:23:46.92	22.85	11.04	-38.2	-39.2	22.7	0.00e+00	123	42	0	332398592	50	5692
2026-01-20 14:23:50.95	22.96	11.40	-37.8	-38.8	23.1	0.00e+00	120	42	0	344981504	50	5405
2026-01-20 14:23:54.99	23.08	11.77	-38.0	-39.0	22.9	0.00e+00	123	42	0	357564416	50	5546
2026-01-20 14:23:59.04	23.19	12.14	-37.7	-38.7	23.1	0.00e+00	122	42	0	370147328	48	6041
2026-01-20 14:24:03.08	23.31	12.52	-37.8	-38.8	22.9	0.00e+00	123	42	0	382730240	48	6115
2026-01-20 14:24:07.11	23.43	12.91	-38.2	-39.2	22.7	0.00e+00	123	42	0	395313152	48	6352
2026-01-20 14:24:11.16	23.55	13.30	-37.7	-38.7	23.1	0.00e+00	123	42	0	407896064	48	6039
2026-01-20 14:24:15.20	23.68	13.70	-38.1	-39.1	22.8	0.00e+00	123	42	0	420478976	48	6329
2026-01-20 14:24:19.24	23.81	14.10	-37.6	-38.5	23.3	0.00e+00	123	42	0	433061888	48	5903
2026-01-20 14:24:23.27	23.94	14.51	-37.5	-38.5	23.5	0.00e+00	122	42	0	445644800	48	5860
2026-01-20 14:24:27.31	24.07	14.93	-37.6	-38.6	23.3	0.00e+00	120	42	0	458227712	48	5943
2026-01-20 14:24:31.35	24.21	15.36	-37.9	-38.8	23.3	0.00e+00	123	42	0	470810624	48	6122
2026-01-20 14:24:35.39	24.35	15.79	-37.8	-38.7	23.4	0.00e+00	123	42	0	483393536	48	6045
2026-01-20 14:24:39.43	24.50	16.23	-38.2	-39.2	22.8	0.00e+00	122	42	0	495976448	48	6391
2026-01-20 14:24:43.46	24.64	16.68	-37.9	-38.8	23.2	0.00e+00	122	42	0	508559360	48	6104
2026-01-20 14:24:47.50	24.80	17.14	-37.7	-38.6	23.3	0.00e+00	124	42	0	521142272	48	5968
2026-01-20 14:24:51.54	24.95	17.60	-37.6	-38.5	23.3	0.00e+00	123	42	0	533725184	48	5910
2026-01-20 14:24:55.57	25.12	18.07	-37.8	-38.8	23.3	0.00e+00	123	42	0	546308096	48	6088
2026-01-20 14:24:59.61	25.28	18.56	-37.5	-38.4	23.4	0.00e+00	119	42	0	558891008	48	5842
2026-01-20 14:25:03.65	25.45	19.05	-37.3	-38.3	23.6	0.00e+00	123	42	0	571473920	48	5731
2026-01-20 14:25:07.68	25.63	19.55	-37.6	-38.5	23.5	0.00e+00	120	42	0	584056832	48	5897
2026-01-20 14:25:11.72	25.81	20.06	-37.3	-38.2	23.8	0.00e+00	123	42	0	596639744	48	5701
2026-01-20 14:25:15.76	26.00	20.59	-37.2	-38.1	23.8	0.00e+00	123	42	0	609222656	48	5646
2026-01-20 14:25:19.80	26.19	21.12	-36.6	-37.5	24.3	0.00e+00	122	42	0	621805568	46	5881
2026-01-20 14:25:23.84	26.39	21.67	-36.7	-37.6	24.2	0.00e+00	122	42	0	635437056	46	5956
2026-01-20 14:25:27.88	26.59	22.23	-36.6	-37.5	24.4	0.00e+00	122	42	0	648019968	46	5899
2026-01-20 14:25:31.93	26.81	22.80	-36.2	-37.1	24.6	0.00e+00	120	42	0	660602880	46	5641
2026-01-20 14:25:35.96	27.03	23.38	-36.1	-37.0	24.7	0.00e+00	120	42	0	673185792	46	5551
2026-01-20 14:25:40.00	27.26	23.97	-36.0	-36.9	24.8	0.00e+00	122	42	0	685768704	46	5511
2026-01-20 14:25:44.04	27.49	24.58	-36.5	-37.4	24.6	0.00e+00	122	42	0	698351616	46	5815
2026-01-20 14:25:48.07	27.74	25.20	-36.1	-37.0	24.8	0.00e+00	122	42	0	710934528	46	5549
2026-01-20 14:25:52.11	27.99	25.84	-36.7	-37.6	24.5	0.00e+00	123	42	0	723517440	46	5974
2026-01-20 14:25:56.15	28.25	26.49	-36.9	-37.8	24.4	0.00e+00	121	42	0	736100352	46	6072
2026-01-20 14:26:00.19	28.53	27.16	-37.4	-38.3	23.8	0.00e+00	120	42	0	748683264	46	6497
2026-01-20 14:26:04.23	28.81	27.84	-37.4	-38.3	24.0	0.00e+00	123	43	0	761266176	46	6473
2026-01-20 14:26:08.28	29.11	28.55	-38.2	-39.2	23.2	0.00e+00	123	42	0	773849088	48	6351
2026-01-20 14:26:12.31	29.42	29.26	-38.3	-39.2	23.2	0.00e+00	123	43	0	786432000	48	6415
2026-01-20 14:26:16.34	29.74	30.00	-37.7	-38.7	23.4	0.00e+00	122	43	0	799014912	48	6048
2026-01-20 14:26:20.38	30.08	30.75	-36.8	-37.7	24.4	0.00e+00	123	42	0	811597824	48	5377
2026-01-20 14:26:24.41	30.43	31.52	-37.1	-38.0	24.2	0.00e+00	122	43	0	824180736	48	5566
2026-01-20 14:26:28.45	30.80	32.32	-37.1	-38.0	24.4	0.00e+00	120	43	0	836763648	48	5552
2026-01-20 14:26:32.49	31.19	33.13	-37.9	-38.9	23.8	0.00e+00	123	43	0	849346560	48	6154
2026-01-20 14:26:36.53	31.60	33.97	-37.5	-38.4	24.1	0.00e+00	123	43	0	861929472	48	5822
2026-01-20 14:26:40.57	32.03	34.82	-38.8	-39.8	23.1	0.00e+00	123	43	0	874512384	48	6805
2026-01-20 14:26:44.61	32.48	35.70	-38.6	-39.6	23.1	0.00e+00	122	43	0	887095296	50	5929
2026-01-20 14:26:48.65	32.95	36.60	-38.7	-39.7	23.0	0.00e+00	120	43	0	899678208	50	6005
2026-01-20 14:26:52.69	33.45	37.53	-38.7	-39.7	23.0	0.00e+00	120	43	0	912261120	50	6017
2026-01-20 14:26:56.72	33.98	38.48	-38.5	-39.4	23.3	0.00e+00	123	43	0	924844032	50	5823
2026-01-20 14:27:00.76	34.54	39.45	-38.6	-39.6	23.2	0.00e+00	122	43	0	937426944	50	5945
2026-01-20 14:27:04.80	35.13	40.45	-39.2	-40.2	22.6	0.00e+00	123	43	0	950009856	50	6352
2026-01-20 14:27:08.83	35.77	41.47	-40.2	-41.3	21.7	0.00e+00	122	43	0	962592768	52	6467
2026-01-20 14:27:12.87	36.44	42.52	-40.4	-41.5	21.5	0.00e+00	123	43	0	975175680	54	5885
2026-01-20 14:27:16.91	37.15	43.60	-40.7	-41.8	21.0	0.00e+00	122	43	0	987758592	54	6132
2026-01-20 14:27:20.95	37.92	44.70	-40.8	-41.9	21.4	0.00e+00	123	43	0	1001390080	54	6151
2026-01-20 14:27:24.98	38.74	45.82	-40.9	-42.1	20.5	0.00e+00	122	43	0	1013972992	54	6281
2026-01-20 14:27:29.02	39.62	46.98	-39.7	-40.7	21.9	0.00e+00	123	43	0	1026555904	52	6054
2026-01-20 14:27:33.05	40.57	48.15	-39.0	-40.0	22.6	0.00e+00	122	43	0	1039138816	52	5542
2026-01-20 14:27:37.09	41.59	49.35	-38.8	-39.8	22.9	0.00e+00	123	43	0	1051721728	50	6074
2026-01-20 14:27:41.13	42.70	50.58	-39.6	-40.6	22.5	0.00e+00	122	43	0	1064304640	50	6699
2026-01-20 14:27:45.17	43.89	51.82	-39.6	-40.6	22.4	0.00e+00	123	43	0	1076887552	52	5976
2026-01-20 14:27:49.21	45.20	53.09	-38.8	-39.8	23.1	0.00e+00	120	43	0	1089470464	52	5419
2026-01-20 14:27:53.25	46.62	54.37	-38.8	-39.8	23.0	0.00e+00	122	43	0	1102053376	50	6108
2026-01-20 14:27:57.29	48.17	55.67	-38.2	-39.2	23.5	0.00e+00	121	43	0	1114636288	50	5667
2026-01-20 14:28:01.33	49.87	56.97	-38.0	-38.9	23.7	0.00e+00	122	43	0	1127219200	50	5507
2026-01-20 14:28:05.37	51.74	58.28	-37.3	-38.2	24.1	0.00e+00	123	43	0	1139802112	48	5700
2026-01-20 14:28:09.41	53.80	59.59	-36.8	-37.7	24.7	0.00e+00	123	43	0	1152385024	48	5383
2026-01-20 14:28:13.45	56.08	60.89	-36.1	-37.0	25.3	0.00e+00	122	43	0	1164967936	46	5549
2026-01-20 14:28:17.49	58.60	62.17	-36.2	-37.1	25.1	0.00e+00	120	43	0	1177550848	46	5629
2026-01-20 14:28:21.53	61.40	63.42	-36.0	-36.9	25.2	0.00e+00	123	43	0	1190133760	46	5480
2026-01-20 14:28:25.57	64.50	64.63	-35.6	-36.5	24.8	0.00e+00	123	43	0	1202716672	44	5892
2026-01-20 14:28:29.60	67.94	65.79	-35.7	-36.6	24.9	0.00e+00	123	43	0	1215299584	44	5930
2026-01-20 14:28:33.64	71.75	66.88	-35.9	-36.7	25.3	0.00e+00	123	43	0	1227882496	44	6051
2026-01-20 14:28:37.68	75.96	67.88	-35.6	-36.4	25.5	0.00e+00	123	43	0	1240465408	44	5837
2026-01-20 14:28:41.71	80.56	68.76	-35.5	-36.3	25.5	0.00e+00	122	43	0	1253048320	44	5788
2026-01-20 14:28:45.75	85.58	69.52	-35.8	-36.7	25.1	0.00e+00	120	43	0	1265631232	44	5998
2026-01-20 14:28:49.79	90.97	70.13	-35.1	-36.0	25.8	0.00e+00	123	43	0	1278214144	44	5537
2026-01-20 14:28:53.83	96.67	70.57	-35.2	-36.0	25.4	0.00e+00	123	43	0	1290797056	44	5560
2026-01-20 14:28:57.87	102.59	70.82	-35.2	-36.0	24.9	0.00e+00	122	43	0	1303379968	44	5592
2026-01-20 14:29:01.90	108.60	70.88	-35.6	-36.5	25.2	0.00e+00	122	43	0	1315962880	44	5863
2026-01-20 14:29:05.94	114.59	70.74	-36.3	-37.2	24.7	0.00e+00	121	43	0	1328545792	44	6413
2026-01-20 14:29:09.98	120.44	70.40	-35.7	-36.5	25.0	0.00e+00	123	43	0	1342177280	44	5908
2026-01-20 14:29:14.02	126.02	69.89	-37.2	-38.1	24.3	0.00e+00	122	43	0	1353711616	46	6302
2026-01-20 14:29:18.06	131.26	69.22	-36.9	-37.8	25.0	0.00e+00	123	43	0	1367343104	48	5412
2026-01-20 14:29:22.10	136.11	68.40	-36.1	-36.9	25.6	0.00e+00	122	43	0	1379926016	44	6203
2026-01-20 14:29:26.14	140.56	67.46	-35.6	-36.5	25.8	0.00e+00	122	43	0	1392508928	44	5874
2026-01-20 14:29:30.18	144.60	66.42	-36.1	-37.0	25.1	0.00e+00	123	43	0	1405091840	44	6233
2026-01-20 14:29:34.22	148.25	65.30	-35.5	-36.4	25.6	0.00e+00	122	43	0	1417674752	44	5807
2026-01-20 14:29:38.26	151.55	64.11	-36.5	-37.4	24.6	0.00e+00	123	43	0	1430257664	46	5835
2026-01-20 14:29:42.30	154.52	62.87	-37.6	-38.6	24.2	0.00e+00	122	43	0	1442840576	46	6664
2026-01-20 14:29:46.33	157.19	61.61	-35.7	-36.5	25.4	0.00e+00	120	43	0	1455423488	46	5280
2026-01-20 14:29:50.37	159.61	60.31	-37.9	-38.9	23.9	0.00e+00	122	43	0	1468006400	48	6150
2026-01-20 14:29:54.41	161.79	59.01	-35.8	-36.7	25.1	0.00e+00	123	43	0	1480589312	44	5999
2026-01-20 14:29:58.45	163.77	57.69	-39.3	-40.4	22.3	0.00e+00	122	43	0	1493172224	50	6543
2026-01-20 14:30:02.49	165.57	56.38	-35.6	-36.4	25.4	0.00e+00	123	43	0	1505755136	44	5852
2026-01-20 14:30:06.53	167.21	55.08	-40.0	-41.2	21.6	0.00e+00	123	43	0	1518338048	52	6367
2026-01-20 14:30:10.56	168.70	53.79	-36.7	-37.6	24.6	0.00e+00	123	43	0	1530920960	46	5965
2026-01-20 14:30:14.60	170.07	52.51	-39.3	-40.3	22.2	0.00e+00	123	42	0	1543503872	50	6490
2026-01-20 14:30:18.64	171.32	51.24	-39.5	-40.7	21.1	0.00e+00	123	42	0	1556086784	52	6036
2026-01-20 14:30:22.68	172.48	50.00	-38.6	-39.5	23.1	0.00e+00	118	43	0	1568669696	50	5922
2026-01-20 14:30:26.72	173.55	48.78	-40.9	-42.0	21.3	0.00e+00	123	43	0	1581252608	54	6237
2026-01-20 14:30:30.76	174.54	47.59	-39.8	-40.8	21.9	0.00e+00	122	42	0	1593835520	52	6078
2026-01-20 14:30:34.79	175.46	46.42	-38.9	-39.8	22.9	0.00e+00	122	43	0	1606418432	50	6133
2026-01-20 14:30:38.83	176.31	45.27	-39.3	-40.2	22.5	0.00e+00	123	43	0	1619001344	50	6423
2026-01-20 14:30:42.87	177.11	44.15	-40.9	-42.1	20.9	0.00e+00	120	42	0	1631584256	54	6298
2026-01-20 14:30:46.91	177.86	43.06	-39.9	-40.9	21.9	0.00e+00	123	43	0	1644167168	54	5502
2026-01-20 14:30:50.95	178.55	41.99	-40.6	-41.7	21.4	0.00e+00	120	42	0	1656750080	52	6766
2026-01-20 14:30:54.98	179.20	40.95	-40.2	-41.2	21.7	0.00e+00	123	42	0	1669332992	52	6404
2026-01-20 14:30:59.02	179.82	39.93	-40.3	-41.3	21.6	0.00e+00	123	43	0	1681915904	52	6497
2026-01-20 14:31:03.06	180.40	38.94	-40.1	-41.2	21.7	0.00e+00	122	43	0	1694498816	54	5706
2026-01-20 14:31:07.10	180.94	37.97	-39.1	-40.1	22.6	0.00e+00	123	42	0	1708130304	52	5617
2026-01-20 14:31:11.13	181.46	37.03	-39.1	-40.0	23.1	0.00e+00	123	43	0	1720713216	50	6267
2026-01-20 14:31:15.17	181.95	36.11	-38.1	-39.1	23.1	0.00e+00	122	42	0	1733296128	50	5599
2026-01-20 14:31:19.20	182.41	35.22	-38.5	-39.4	23.1	0.00e+00	120	42	0	1745879040	50	5836
2026-01-20 14:31:23.24	182.85	34.35	-38.4	-39.3	23.2	0.00e+00	123	42	0	1758461952	50	5769
2026-01-20 14:31:27.28	183.27	33.50	-39.0	-40.0	22.6	0.00e+00	123	43	0	1771044864	50	6248
2026-01-20 14:31:31.32	183.66	32.67	-38.6	-39.6	23.1	0.00e+00	120	42	0	1783627776	50	5975
2026-01-20 14:31:35.35	184.04	31.86	-37.6	-38.6	24.1	0.00e+00	122	42	0	1796210688	48	5931
2026-01-20 14:31:39.39	184.40	31.07	-37.4	-38.3	24.0	0.00e+00	120	42	0	1808793600	48	5777
2026-01-20 14:31:43.43	184.75	30.30	-37.3	-38.2	24.3	0.00e+00	122	42	0	1821376512	48	5697
2026-01-20 14:31:47.47	185.08	29.56	-36.7	-37.5	24.7	0.00e+00	122	42	0	1833959424	46	5926
2026-01-20 14:31:51.51	185.40	28.82	-36.9	-37.7	24.4	0.00e+00	122	42	0	1846542336	46	6058
2026-01-20 14:31:55.54	185.70	28.11	-37.5	-38.4	24.0	0.00e+00	123	42	0	1859125248	46	6512
2026-01-20 14:31:59.58	185.99	27.42	-37.7	-38.6	23.9	0.00e+00	122	42	0	1871708160	48	5939
2026-01-20 14:32:03.62	186.27	26.74	-38.0	-38.9	23.8	0.00e+00	123	42	0	1884291072	48	6197
2026-01-20 14:32:07.66	186.54	26.07	-37.1	-38.0	24.3	0.00e+00	123	42	0	1896873984	48	5536
2026-01-20 14:32:11.70	186.79	25.43	-37.4	-38.3	24.0	0.00e+00	123	42	0	1909456896	48	5744
2026-01-20 14:32:15.73	187.04	24.80	-37.0	-37.9	24.2	0.00e+00	120	42	0	1922039808	46	6200
2026-01-20 14:32:19.77	187.28	24.18	-36.9	-37.9	24.1	0.00e+00	123	42	0	1934622720	46	6138
2026-01-20 14:32:23.81	187.51	23.57	-37.3	-38.3	23.8	0.00e+00	120	42	0	1947205632	46	6437
2026-01-20 14:32:27.85	187.73	22.98	-37.3	-38.3	23.7	0.00e+00	123	42	0	1959788544	46	6432
2026-01-20 14:32:31.89	187.95	22.40	-37.0	-37.9	24.0	0.00e+00	120	42	0	1972371456	46	6151
2026-01-20 14:32:35.93	188.16	21.84	-36.5	-37.4	24.3	0.00e+00	120	43	0	1984954368	46	5814
2026-01-20 14:32:39.97	188.36	21.28	-37.1	-38.0	23.8	0.00e+00	122	42	0	1997537280	46	6249
2026-01-20 14:32:44.01	188.55	20.74	-36.2	-37.1	24.6	0.00e+00	122	42	0	2010120192	46	5634
2026-01-20 14:32:48.04	188.74	20.21	-36.8	-37.7	24.4	0.00e+00	123	42	0	2022703104	46	5996
2026-01-20 14:32:52.08	188.92	19.69	-36.8	-37.7	24.6	0.00e+00	122	43	0	2035286016	46	5996
2026-01-20 14:32:56.12	189.10	19.18	-37.2	-38.1	24.3	0.00e+00	122	42	0	2047868928	46	6312
2026-01-20 14:33:00.15	189.27	18.68	-37.5	-38.4	24.1	0.00e+00	122	42	0	2060451840	48	5846
2026-01-20 14:33:04.19	189.44	18.19	-37.9	-38.8	23.8	0.00e+00	122	42	0	2074083328	48	6104
2026-01-20 14:33:08.23	189.60	17.71	-38.0	-39.0	23.7	0.00e+00	120	42	0	2086666240	48	6227
2026-01-20 14:33:12.27	189.76	17.24	-38.4	-39.3	23.4	0.00e+00	122	42	0	2099249152	48	6493
2026-01-20 14:33:16.30	189.91	16.77	-38.6	-39.5	23.0	0.00e+00	122	42	0	2111832064	50	5911
2026-01-20 14:33:20.33	190.06	16.32	-38.3	-39.3	23.1	0.00e+00	120	42	0	2124414976	50	5784
2026-01-20 14:33:24.37	190.20	15.87	-38.1	-39.1	23.3	0.00e+00	122	42	0	2136997888	50	5633
2026-01-20 14:33:28.41	190.34	15.44	-38.1	-39.0	23.3	0.00e+00	123	42	0	2149580800	50	5593
2026-01-20 14:33:32.44	190.48	15.01	-38.3	-39.3	23.0	0.00e+00	123	42	0	2162163712	50	5760
2026-01-20 14:33:36.49	190.61	14.58	-38.2	-39.2	23.1	0.00e+00	122	42	0	2174746624	50	5681
2026-01-20 14:33:40.53	190.75	14.16	-38.1	-39.1	23.0	0.00e+00	123	42	0	2187329536	48	6281
2026-01-20 14:33:44.57	190.87	13.75	-38.3	-39.2	22.9	0.00e+00	123	42	0	2199912448	48	6400
2026-01-20 14:33:48.60	191.00	13.35	-38.3	-39.3	23.1	0.00e+00	120	42	0	2212495360	50	5740
2026-01-20 14:33:52.64	191.12	12.96	-38.3	-39.3	23.0	0.00e+00	123	43	0	2225078272	50	5738
2026-01-20 14:33:56.68	191.24	12.57	-37.9	-38.9	23.3	0.00e+00	123	42	0	2237661184	50	5482
2026-01-20 14:34:00.72	191.35	12.18	-38.4	-39.4	23.0	0.00e+00	120	42	0	2250244096	50	5829
2026-01-20 14:34:04.76	191.47	11.80	-38.5	-39.5	22.8	0.00e+00	123	42	0	2262827008	50	5861
2026-01-20 14:34:08.79	191.58	11.43	-38.7	-39.7	22.5	0.00e+00	120	42	0	2275409920	50	6023
2026-01-20 14:34:12.83	191.68	11.06	-38.5	-39.5	22.6	0.00e+00	123	42	0	2287992832	50	5919
2026-01-20 14:34:16.87	191.79	10.70	-38.8	-39.8	22.3	0.00e+00	123	42	0	2300575744	50	6087
2026-01-20 14:34:20.91	191.89	10.35	-39.5	-40.5	21.9	0.00e+00	122	42	0	2313158656	50	6637
2026-01-20 14:34:24.95	192.00	10.00	-38.8	-39.8	22.4	0.00e+00	123	42	0	2325741568	50	6119
2026-01-20 14:34:28.99	192.10	9.65	-39.2	-40.2	22.2	0.00e+00	123	42	0	2338324480	50	6414
2026-01-20 14:34:33.02	192.19	9.31	-38.8	-39.8	22.4	0.00e+00	122	42	0	2350907392	50	6083
2026-01-20 14:34:37.06	192.29	8.97	-39.1	-40.1	22.2	0.00e+00	122	42	0	2363490304	52	5630
2026-01-20 14:34:41.10	192.38	8.64	-40.7	-41.8	20.7	0.00e+00	122	42	0	2376073216	52	6867
2026-01-20 14:34:45.14	192.47	8.31	-39.8	-40.9	21.6	0.00e+00	120	42	0	2388656128	52	6136
2026-01-20 14:34:49.17	192.56	7.98	-40.5	-41.7	20.5	0.00e+00	123	42	0	2401239040	52	6765
2026-01-20 14:34:53.20	192.65	7.67	-39.7	-40.8	21.5	0.00e+00	122	42	0	2413821952	52	6086
2026-01-20 14:34:57.24	192.74	7.35	-39.7	-40.8	21.4	0.00e+00	122	42	0	2426404864	52	6116
2026-01-20 14:35:01.28	192.83	7.04	-39.6	-40.6	21.6	0.00e+00	123	42	0	2438987776	52	5988
2026-01-20 14:35:05.32	192.91	6.73	-40.0	-41.1	21.1	0.00e+00	122	42	0	2452619264	54	5645
2026-01-20 14:35:09.36	192.99	6.42	-39.8	-40.9	21.2	0.00e+00	123	43	0	2464153600	52	6185
2026-01-20 14:35:13.40	193.07	6.12	-40.3	-41.4	20.4	0.00e+00	123	42	0	2477785088	52	6553
2026-01-20 14:35:17.44	193.15	5.82	-42.2	-43.6	18.8	0.00e+00	122	42	0	2490368000	56	6654
2026-01-20 14:35:21.48	193.23	5.53	-41.6	-42.9	19.7	0.00e+00	122	42	0	2502950912	56	6152
2026-01-20 14:35:25.51	193.31	5.24	-41.3	-42.6	19.5	0.00e+00	122	42	0	2515533824	54	6669
2026-01-20 14:35:29.55	193.38	4.95	-41.0	-42.2	19.8	0.00e+00	123	42	0	2528116736	54	6422
2026-01-20 14:35:33.59	193.46	4.66	-42.2	-43.6	18.6	0.00e+00	122	43	0	2540699648	56	6678
2026-01-20 14:35:37.63	193.53	4.38	-42.0	-43.4	18.7	0.00e+00	123	43	0	2553282560	56	6538
2026-01-20 14:35:41.67	193.60	4.10	-41.6	-42.9	19.1	0.00e+00	123	43	0	2565865472	56	6161
2026-01-20 14:35:45.71	193.67	3.82	-40.7	-42.0	20.0	0.00e+00	120	42	0	2578448384	56	5539
2026-01-20 14:35:49.75	193.74	3.55	-41.9	-43.3	18.5	0.00e+00	123	43	0	2591031296	58	5748
2026-01-20 14:35:53.79	193.81	3.28	-41.6	-43.0	18.8	0.00e+00	123	43	0	2603614208	56	6220
2026-01-20 14:35:57.83	193.88	3.01	-49.8	-62.0	3.5	0.00e+00	0	42	104	2616197120	60	44145
2026-01-20 14:36:01.87	193.95	2.74	-50.7	-63.8	3.5	1.52e+00	0	42	104	2616197120	60	54312
2026-01-20 14:36:05.91	194.01	2.48	-51.1	-64.0	3.5	1.52e+00	0	43	104	2616197120	60	55725
2026-01-20 14:36:09.95	194.08	2.22	-51.1	-64.1	3.5	1.52e+00	0	43	104	2616197120	60	56344
2026-01-20 14:36:13.99	194.14	1.96	-51.3	-64.2	3.5	1.52e+00	0	43	104	2616197120	60	57143
2026-01-20 14:36:18.02	194.20	1.70	-51.8	-64.7	3.5	1.51e+00	0	43	104	2616197120	60	60296
2026-01-20 14:36:21.86	194.26	1.46	-52.0	-64.8	3.5	1.52e+00	0	43	104	2616197120	60	61258
2026-01-20 14:36:25.90	194.33	1.21	-51.5	-64.4	3.5	1.52e+00	0	43	104	2616197120	60	57915
2026-01-20 14:36:29.94	194.39	0.96	-52.1	-65.0	3.5	1.52e+00	0	43	104	2616197120	60	62644
2026-01-20 14:36:33.97	194.45	0.71	-52.5	-65.3	3.5	1.52e+00	0	43	104	2616197120	60	64599
2026-01-20 14:36:38.01	194.50	0.47	-52.7	-65.6	3.5	1.52e+00	0	43	104	2616197120	60	66688
2026-01-20 14:36:42.05	194.56	0.22	-52.4	-65.3	3.5	1.52e+00	0	43	104	2616197120	60	64972
2026-01-20 14:36:46.09	194.62	-0.02	-51.9	-64.8	3.5	1.52e+00	0	43	104	2616197120	60	60671

#Closed at: 2026-01-20 14:36:48
#Recorded file [2616 MB]: D:/lorett/data/35029_260121_022113.dat