passes_logs/2026/01/20/R4.6S_Anadyr/R4.6S_Anadyr__20260120_072912_TY-42_rec.log

#Pass ID: 20260120_072912_TY-42
#Satellite: TY-42
#Configuration: TY-42_900M
#almurnet v.1.7.20251203
#Start time: 2026-01-20 07:29:43

#Version: 2.2.20231116
#Station: R4.6S_Anadyr
#Location: 177.4865 lon 64.73178 lat
#TLE: 1 64048U 25103A   26019.69670139  .00008010  00000-0  38191-3 0 09996
#TLE: 2 64048 097.4123 095.0255 0001753 094.0404 196.1589 15.19169419 37525

#Time	Az	El	Level	Level2	SNR	BER	BlckErr	Temp	State	Recorded	gain1	gain2
2026-01-20 07:29:43.38	103.65	1.84	-52.6	-64.3	3.5	8.45e-01	0	39	0	0	60	59244
2026-01-20 07:29:46.40	103.37	2.02	-49.4	-52.1	6.1	0.00e+00	0	41	104	0	60	49171
2026-01-20 07:29:49.43	103.08	2.20	-49.3	-52.0	6.1	0.00e+00	0	41	104	0	60	48698
2026-01-20 07:29:52.46	102.79	2.38	-49.4	-52.0	6.1	0.00e+00	0	41	104	0	60	48969
2026-01-20 07:29:55.49	102.50	2.57	-49.4	-52.0	6.1	0.00e+00	0	41	104	0	60	48954
2026-01-20 07:29:58.52	102.20	2.75	-49.3	-52.0	6.1	0.00e+00	0	41	104	0	60	48976
2026-01-20 07:30:01.55	101.90	2.94	-49.3	-52.0	6.1	0.00e+00	0	41	104	0	60	48713
2026-01-20 07:30:04.58	101.59	3.13	-49.3	-52.0	6.1	0.00e+00	0	41	104	0	60	48638
2026-01-20 07:30:07.61	101.27	3.32	-49.3	-52.0	6.1	0.00e+00	0	41	104	0	60	48494
2026-01-20 07:30:10.64	100.95	3.51	-49.3	-51.9	6.1	0.00e+00	0	41	104	0	60	48393
2026-01-20 07:30:13.67	100.62	3.70	-49.3	-51.9	6.1	0.00e+00	0	42	104	0	60	48243
2026-01-20 07:30:16.69	100.29	3.89	-49.5	-52.1	6.1	0.00e+00	0	42	104	0	60	49532
2026-01-20 07:30:19.72	99.96	4.09	-49.5	-52.2	6.1	0.00e+00	0	42	104	0	60	49811
2026-01-20 07:30:22.75	99.61	4.28	-49.5	-52.1	6.1	0.00e+00	0	42	104	0	60	49558
2026-01-20 07:30:25.78	99.27	4.47	-49.5	-52.1	6.1	0.00e+00	0	42	104	0	60	49446
2026-01-20 07:30:28.81	98.91	4.67	-49.6	-52.2	6.1	0.00e+00	0	42	104	0	60	49925
2026-01-20 07:30:31.83	98.55	4.87	-49.8	-52.4	6.1	0.00e+00	0	42	104	0	60	50917
2026-01-20 07:30:34.86	98.18	5.07	-49.9	-52.5	6.1	0.00e+00	0	42	104	0	60	51484
2026-01-20 07:30:37.89	97.81	5.27	-48.8	-51.6	6.1	0.00e+00	0	42	104	0	60	46744
2026-01-20 07:30:40.91	97.43	5.47	-49.0	-51.7	6.1	0.00e+00	0	42	104	0	60	47298
2026-01-20 07:30:43.94	97.04	5.67	-48.6	-50.5	6.1	0.00e+00	0	42	104	0	60	40850
2026-01-20 07:30:46.97	96.65	5.87	-30.9	-31.4	15.6	0.00e+00	0	42	0	41943040	36	18142
2026-01-20 07:30:50.00	96.25	6.07	-30.6	-31.1	16.0	1.25e-02	0	43	0	184549376	36	17434
2026-01-20 07:30:53.03	95.84	6.28	-30.1	-30.5	16.2	2.01e-03	0	43	0	520093696	34	18410
2026-01-20 07:30:56.05	95.42	6.48	-30.7	-31.2	16.0	6.05e-04	0	43	0	864026624	36	17740
2026-01-20 07:30:59.08	95.00	6.69	-30.7	-31.1	16.0	9.32e-04	0	43	0	1199570944	36	17587
2026-01-20 07:31:02.11	94.57	6.90	-30.7	-31.1	16.0	1.90e-03	0	43	0	1543503872	36	17567
2026-01-20 07:31:05.14	94.13	7.10	-29.9	-30.4	16.3	6.65e-04	0	43	0	1879048192	36	16069
2026-01-20 07:31:08.16	93.68	7.31	-30.5	-30.9	16.1	5.07e-04	0	43	0	2222981120	34	19291
2026-01-20 07:31:11.19	93.23	7.52	-30.1	-30.6	16.3	4.31e-04	0	43	0	2566914048	34	18571
2026-01-20 07:31:14.22	92.76	7.73	-30.8	-31.3	16.0	3.32e-04	0	43	0	2902458368	36	17811
2026-01-20 07:31:17.25	92.29	7.95	-29.8	-30.3	16.1	9.54e-04	0	43	0	3246391296	36	16034
2026-01-20 07:31:20.28	91.81	8.16	-29.7	-30.2	16.0	7.14e-04	0	43	0	3581935616	34	17734
2026-01-20 07:31:23.30	91.32	8.37	-29.2	-29.6	16.2	4.14e-04	0	43	0	3925868544	32	18602
2026-01-20 07:31:26.33	90.82	8.58	-29.8	-30.3	16.3	3.11e-04	0	43	0	4261412864	34	17949
2026-01-20 07:31:29.36	90.32	8.80	-29.9	-30.4	16.1	4.80e-04	0	43	0	4605345792	34	18144
2026-01-20 07:31:32.39	89.80	9.01	-29.6	-30.1	16.4	4.52e-04	0	43	0	4949278720	34	17533
2026-01-20 07:31:35.40	89.28	9.23	-28.9	-29.4	16.5	2.51e-04	0	43	0	5284823040	32	18036
2026-01-20 07:31:38.43	88.74	9.44	-28.9	-29.3	16.4	1.14e-04	0	44	0	5628755968	32	17963
2026-01-20 07:31:41.45	88.19	9.66	-28.8	-29.3	16.6	1.58e-04	0	44	0	5972688896	32	17865
2026-01-20 07:31:44.48	87.64	9.88	-28.4	-28.9	16.7	6.53e-05	0	44	0	6308233216	32	17164
2026-01-20 07:31:47.51	87.07	10.09	-28.6	-29.1	16.7	7.08e-05	0	44	0	6652166144	32	17559
2026-01-20 07:31:50.54	86.49	10.31	-28.5	-29.0	16.7	7.62e-05	0	44	0	6996099072	32	17223
2026-01-20 07:31:53.57	85.90	10.53	-28.7	-29.2	16.7	3.81e-05	0	44	0	7331643392	30	19826
2026-01-20 07:31:56.60	85.30	10.75	-28.5	-28.9	16.8	4.90e-05	0	44	0	7675576320	32	17156
2026-01-20 07:31:59.63	84.69	10.96	-27.9	-28.4	16.9	3.26e-05	0	44	0	8011120640	32	16143
2026-01-20 07:32:02.65	84.07	11.18	-27.8	-28.3	16.9	1.63e-05	0	44	0	8355053568	30	17851
2026-01-20 07:32:05.68	83.44	11.40	-27.9	-28.4	16.8	0.00e+00	0	44	0	8690597888	30	18128
2026-01-20 07:32:08.71	82.80	11.61	-27.7	-28.1	16.7	1.08e-05	0	44	0	9034530816	30	17546
2026-01-20 07:32:11.74	82.14	11.83	-28.0	-28.4	17.0	1.63e-05	0	44	0	9370075136	30	18130
2026-01-20 07:32:14.76	81.48	12.04	-27.7	-28.1	17.0	1.08e-05	0	44	0	9714008064	30	17506
2026-01-20 07:32:17.79	80.80	12.25	-27.5	-27.9	16.9	0.00e+00	0	44	0	10057940992	30	17167
2026-01-20 07:32:20.82	80.11	12.47	-27.6	-28.0	17.0	5.40e-06	0	44	0	10393485312	30	17291
2026-01-20 07:32:23.85	79.40	12.68	-28.4	-28.8	16.9	2.17e-05	0	44	0	10737418240	30	19018
2026-01-20 07:32:26.87	78.69	12.89	-28.4	-28.8	17.0	2.72e-05	0	44	0	11072962560	32	16927
2026-01-20 07:32:29.90	77.96	13.10	-28.7	-29.2	16.5	4.35e-05	0	44	0	11416895488	32	17634
2026-01-20 07:32:32.93	77.22	13.31	-27.6	-28.0	16.8	2.07e-04	0	44	0	11760828416	30	17354
2026-01-20 07:32:35.95	76.47	13.51	-27.4	-27.8	17.0	0.00e+00	0	44	0	12096372736	30	16875
2026-01-20 07:32:38.98	75.70	13.71	-27.1	-27.5	16.1	1.63e-05	0	44	0	12440305664	30	16406
2026-01-20 07:32:42.01	74.93	13.91	-26.7	-27.2	16.9	5.44e-05	0	44	0	12784238592	30	15731
2026-01-20 07:32:45.03	74.14	14.11	-27.0	-27.5	17.0	2.17e-05	0	44	0	13119782912	28	18241
2026-01-20 07:32:48.06	73.33	14.31	-26.9	-27.3	17.0	1.08e-05	0	44	0	13463715840	28	17912
2026-01-20 07:32:51.09	72.52	14.50	-26.9	-27.3	17.0	5.40e-06	0	44	0	13807648768	28	17916
2026-01-20 07:32:54.11	71.69	14.69	-27.0	-27.4	17.0	0.00e+00	0	45	0	14143193088	28	18143
2026-01-20 07:32:57.15	70.85	14.88	-27.0	-27.4	16.5	0.00e+00	0	44	0	14487126016	28	18140
2026-01-20 07:33:00.17	70.00	15.06	-26.5	-26.9	16.4	4.35e-05	0	44	0	14822670336	28	17128
2026-01-20 07:33:03.20	69.13	15.24	-26.5	-26.9	17.0	5.40e-06	0	44	0	15166603264	28	17179
2026-01-20 07:33:06.23	68.25	15.41	-26.5	-26.9	17.0	5.40e-06	0	44	0	15502147584	28	17143
2026-01-20 07:33:09.26	67.36	15.58	-26.2	-26.7	16.4	1.08e-05	0	45	0	15846080512	28	16689
2026-01-20 07:33:12.29	66.46	15.75	-26.2	-26.6	16.8	1.63e-05	0	44	0	16181624832	28	16529
2026-01-20 07:33:15.31	65.55	15.91	-26.2	-26.7	17.0	5.40e-06	0	45	0	16525557760	28	16687
2026-01-20 07:33:18.34	64.63	16.06	-26.7	-27.1	16.9	1.08e-05	0	44	0	16869490688	28	17550
2026-01-20 07:33:21.37	63.69	16.21	-26.9	-27.4	16.6	0.00e+00	0	45	0	17205035008	28	18062
2026-01-20 07:33:24.40	62.75	16.35	-26.0	-26.5	16.9	5.40e-06	0	45	0	17548967936	28	16279
2026-01-20 07:33:27.43	61.79	16.49	-26.2	-26.7	16.8	5.40e-06	0	45	0	17884512256	28	16675
2026-01-20 07:33:30.46	60.82	16.62	-26.3	-26.7	16.5	5.40e-06	0	45	0	18228445184	28	16792
2026-01-20 07:33:33.48	59.85	16.75	-25.9	-26.3	16.9	1.08e-05	0	45	0	18572378112	28	16000
2026-01-20 07:33:36.51	58.86	16.87	-26.0	-26.5	16.7	0.00e+00	0	45	0	18916311040	28	16249
2026-01-20 07:33:39.54	57.87	16.98	-26.0	-26.4	16.7	2.17e-05	0	45	0	19251855360	28	16237
2026-01-20 07:33:42.57	56.87	17.08	-26.0	-26.4	16.6	0.00e+00	0	45	0	19595788288	28	16137
2026-01-20 07:33:45.60	55.85	17.18	-26.0	-26.5	16.8	5.40e-06	0	45	0	19939721216	28	16266
2026-01-20 07:33:48.62	54.84	17.27	-26.2	-26.6	16.7	5.40e-06	0	45	0	20275265536	28	16599
2026-01-20 07:33:51.65	53.82	17.35	-26.1	-26.6	16.6	0.00e+00	0	45	0	20619198464	28	16484
2026-01-20 07:33:54.68	52.78	17.42	-26.1	-26.5	16.6	1.08e-05	0	45	0	20954742784	28	16343
2026-01-20 07:33:57.70	51.75	17.49	-26.1	-26.5	16.5	0.00e+00	0	45	0	21298675712	28	16329
2026-01-20 07:34:00.73	50.71	17.54	-26.1	-26.5	16.6	0.00e+00	0	45	0	21634220032	28	16337
2026-01-20 07:34:03.76	49.67	17.59	-26.2	-26.6	16.5	0.00e+00	0	45	0	21978152960	28	16518
2026-01-20 07:34:06.79	48.62	17.63	-26.3	-26.7	16.5	2.17e-05	0	45	0	22313697280	28	16711
2026-01-20 07:34:09.82	47.57	17.66	-26.4	-26.8	16.6	0.00e+00	0	45	0	22657630208	28	16989
2026-01-20 07:34:12.85	46.51	17.68	-26.7	-27.1	16.6	5.40e-06	0	45	0	23001563136	28	17537
2026-01-20 07:34:15.87	45.46	17.70	-26.2	-26.6	16.7	0.00e+00	0	45	0	23337107456	28	16466
2026-01-20 07:34:18.90	44.41	17.70	-26.3	-26.7	16.7	0.00e+00	0	45	0	23681040384	28	16715
2026-01-20 07:34:21.93	43.35	17.70	-26.1	-26.5	16.8	5.40e-06	0	45	0	24016584704	28	16399
2026-01-20 07:34:24.95	42.30	17.69	-26.1	-26.5	16.8	0.00e+00	0	45	0	24360517632	28	16258
2026-01-20 07:34:27.98	41.25	17.66	-26.1	-26.5	16.9	0.00e+00	0	45	0	24704450560	28	16354
2026-01-20 07:34:31.01	40.20	17.63	-26.0	-26.5	16.8	0.00e+00	0	45	0	25039994880	28	16311
2026-01-20 07:34:34.03	39.15	17.60	-26.0	-26.5	16.9	1.08e-05	0	45	0	25383927808	28	16306
2026-01-20 07:34:37.06	38.11	17.55	-26.0	-26.5	17.0	0.00e+00	0	45	0	25727860736	28	16316
2026-01-20 07:34:40.09	37.07	17.49	-26.4	-26.9	17.0	0.00e+00	0	45	0	26063405056	28	17105
2026-01-20 07:34:43.11	36.04	17.43	-27.2	-27.7	16.8	0.00e+00	0	45	0	26407337984	28	18699
2026-01-20 07:34:46.14	35.01	17.36	-26.2	-26.7	17.0	5.40e-06	0	45	0	26751270912	28	16656
2026-01-20 07:34:49.17	33.98	17.28	-26.1	-26.6	17.0	0.00e+00	0	45	0	27086815232	28	16477
2026-01-20 07:34:52.19	32.97	17.19	-26.1	-26.6	17.0	5.40e-06	0	45	0	27430748160	28	16568
2026-01-20 07:34:55.22	31.96	17.09	-26.2	-26.7	17.1	0.00e+00	0	45	0	27766292480	28	16797
2026-01-20 07:34:58.24	30.96	16.99	-26.3	-26.8	17.1	0.00e+00	0	45	0	28110225408	28	16860
2026-01-20 07:35:01.27	29.97	16.88	-26.1	-26.6	17.0	0.00e+00	0	45	0	28445769728	28	16535
2026-01-20 07:35:04.30	28.98	16.76	-26.3	-26.9	16.9	0.00e+00	0	45	0	28789702656	28	17015
2026-01-20 07:35:07.33	28.01	16.64	-51.0	-53.5	6.1	0.00e+00	0	45	104	28923920384	60	57912
2026-01-20 07:35:10.35	27.05	16.51	-50.9	-53.4	6.1	0.00e+00	0	45	104	28923920384	60	57443
2026-01-20 07:35:13.38	26.09	16.37	-50.9	-53.4	6.1	0.00e+00	0	45	104	28923920384	60	57352
2026-01-20 07:35:16.41	25.15	16.23	-50.9	-53.4	6.1	0.00e+00	0	45	104	28923920384	60	57127
2026-01-20 07:35:19.44	24.21	16.08	-51.0	-53.4	6.1	0.00e+00	0	45	104	28923920384	60	57562
2026-01-20 07:35:22.47	23.29	15.92	-50.8	-53.3	6.1	0.00e+00	0	45	104	28923920384	60	56797
2026-01-20 07:35:25.50	22.38	15.77	-51.0	-53.5	6.1	0.00e+00	0	45	104	28923920384	60	57704
2026-01-20 07:35:28.52	21.48	15.60	-50.9	-53.4	6.1	0.00e+00	0	45	104	28923920384	60	57341
2026-01-20 07:35:31.55	20.59	15.43	-51.0	-53.5	6.1	0.00e+00	0	45	104	28923920384	60	57677
2026-01-20 07:35:34.58	19.72	15.26	-51.0	-53.5	6.1	0.00e+00	0	45	104	28923920384	60	57674
2026-01-20 07:35:37.60	18.85	15.08	-51.0	-53.4	6.1	0.00e+00	0	45	104	28923920384	60	57560
2026-01-20 07:35:40.63	18.00	14.90	-51.0	-53.5	6.1	0.00e+00	0	45	104	28923920384	60	57845
2026-01-20 07:35:43.65	17.17	14.72	-51.1	-53.6	6.1	0.00e+00	0	45	104	28923920384	60	58626
2026-01-20 07:35:46.68	16.34	14.53	-51.0	-53.4	6.1	0.00e+00	0	44	104	28923920384	60	57451
2026-01-20 07:35:49.70	15.53	14.34	-51.0	-53.4	6.1	0.00e+00	0	44	104	28923920384	60	57454
2026-01-20 07:35:52.73	14.73	14.14	-51.0	-53.5	6.1	0.00e+00	0	44	104	28923920384	60	57635
2026-01-20 07:35:55.76	13.94	13.95	-50.9	-53.3	6.0	0.00e+00	0	44	104	28923920384	60	56776
2026-01-20 07:35:58.78	13.16	13.75	-51.0	-53.4	6.1	0.00e+00	0	44	104	28923920384	60	57371
2026-01-20 07:36:01.81	12.40	13.54	-50.8	-53.3	6.1	0.00e+00	0	44	104	28923920384	60	56598
2026-01-20 07:36:04.84	11.65	13.34	-50.9	-53.3	6.1	0.00e+00	0	45	104	28923920384	60	56843
2026-01-20 07:36:07.86	10.91	13.13	-50.9	-53.4	6.1	0.00e+00	0	44	104	28923920384	60	57178
2026-01-20 07:36:10.88	10.19	12.93	-50.8	-53.3	6.1	0.00e+00	0	45	104	28923920384	60	56545
2026-01-20 07:36:13.91	9.47	12.72	-50.8	-53.3	6.1	0.00e+00	0	44	104	28923920384	60	56614
2026-01-20 07:36:16.94	8.77	12.51	-50.8	-53.3	6.1	0.00e+00	0	45	104	28923920384	60	56600
2026-01-20 07:36:19.97	8.08	12.30	-50.7	-53.2	6.1	0.00e+00	0	44	104	28923920384	60	56126
2026-01-20 07:36:22.79	7.45	12.10	-50.8	-53.3	6.1	0.00e+00	0	44	104	28923920384	60	56308
2026-01-20 07:36:25.96	6.76	11.87	-50.7	-53.2	6.1	0.00e+00	0	45	104	28923920384	60	56085
2026-01-20 07:36:28.84	6.13	11.67	-50.7	-53.2	6.1	0.00e+00	0	44	104	28923920384	60	55666
2026-01-20 07:36:32.01	5.46	11.44	-50.8	-53.3	6.1	0.00e+00	0	45	104	28923920384	60	56478
2026-01-20 07:36:34.90	4.86	11.24	-50.7	-53.2	6.1	0.00e+00	0	44	104	28923920384	60	56126
2026-01-20 07:36:38.07	4.21	11.01	-50.7	-53.2	6.1	0.00e+00	0	45	104	28923920384	60	55842
2026-01-20 07:36:40.95	3.63	10.81	-50.6	-53.1	6.1	0.00e+00	0	45	104	28923920384	60	55166
2026-01-20 07:36:44.12	3.01	10.58	-50.7	-53.2	6.1	0.00e+00	0	44	104	28923920384	60	55952
2026-01-20 07:36:47.00	2.45	10.38	-50.7	-53.2	6.1	0.00e+00	0	45	104	28923920384	60	55812
2026-01-20 07:36:50.17	1.85	10.15	-50.7	-53.2	6.1	0.00e+00	0	45	104	28923920384	60	56055
2026-01-20 07:36:53.05	1.31	9.94	-50.7	-53.2	6.1	0.00e+00	0	45	104	28923920384	60	55840
2026-01-20 07:36:56.22	0.73	9.72	-50.7	-53.2	6.1	0.00e+00	0	44	104	28923920384	60	56007
2026-01-20 07:36:59.10	0.21	9.51	-50.7	-53.2	6.1	0.00e+00	0	45	104	28923920384	60	56067
2026-01-20 07:37:02.27	359.65	9.29	-50.7	-53.2	6.1	0.00e+00	0	44	104	28923920384	60	56055
2026-01-20 07:37:05.15	359.15	9.08	-50.7	-53.2	6.1	0.00e+00	0	45	104	28923920384	60	55913
2026-01-20 07:37:08.32	358.61	8.86	-50.7	-53.2	6.1	0.00e+00	0	44	104	28923920384	60	55694
2026-01-20 07:37:11.20	358.13	8.66	-50.7	-53.1	6.1	0.00e+00	0	44	104	28923920384	60	55444
2026-01-20 07:37:14.37	357.61	8.43	-50.7	-53.1	6.1	0.00e+00	0	45	104	28923920384	60	55584
2026-01-20 07:37:17.25	357.14	8.23	-50.6	-53.1	6.1	0.00e+00	0	44	104	28923920384	60	55612
2026-01-20 07:37:20.42	356.64	8.01	-50.6	-53.2	6.1	0.00e+00	0	44	104	28923920384	60	55668
2026-01-20 07:37:23.30	356.19	7.81	-50.6	-53.1	6.1	0.00e+00	0	44	104	28923920384	60	55066
2026-01-20 07:37:26.47	355.71	7.59	-50.5	-53.0	6.1	0.00e+00	0	44	104	28923920384	60	54406
2026-01-20 07:37:29.35	355.28	7.39	-50.5	-53.0	6.1	0.00e+00	0	44	104	28923920384	60	54519
2026-01-20 07:37:32.53	354.81	7.17	-50.4	-52.9	6.1	0.00e+00	0	44	104	28923920384	60	54262
2026-01-20 07:37:35.41	354.39	6.97	-50.5	-53.0	6.1	0.00e+00	0	44	104	28923920384	60	54825
2026-01-20 07:37:38.58	353.94	6.76	-50.6	-53.1	6.1	0.00e+00	0	45	104	28923920384	60	55216
2026-01-20 07:37:41.46	353.54	6.56	-50.5	-53.0	6.1	0.00e+00	0	44	104	28923920384	60	54911
2026-01-20 07:37:44.64	353.11	6.35	-50.5	-53.0	6.1	0.00e+00	0	44	104	28923920384	60	54403
2026-01-20 07:37:47.52	352.72	6.15	-50.6	-53.1	6.1	0.00e+00	0	44	104	28923920384	60	55033
2026-01-20 07:37:50.69	352.30	5.94	-50.5	-53.0	6.1	0.00e+00	0	45	104	28923920384	60	54791
2026-01-20 07:37:53.57	351.93	5.75	-50.4	-52.9	6.1	0.00e+00	0	44	104	28923920384	60	54165
2026-01-20 07:37:56.75	351.52	5.54	-50.3	-52.8	6.1	0.00e+00	0	44	104	28923920384	60	53494
2026-01-20 07:37:59.63	351.16	5.35	-50.5	-52.9	6.1	0.00e+00	0	44	104	28923920384	60	54049
2026-01-20 07:38:02.80	350.77	5.14	-50.4	-52.9	6.1	0.00e+00	0	44	104	28923920384	60	54141
2026-01-20 07:38:05.69	350.43	4.95	-50.3	-52.8	6.1	0.00e+00	0	44	104	28923920384	60	53485
2026-01-20 07:38:08.86	350.05	4.75	-50.2	-52.7	6.1	0.00e+00	0	44	104	28923920384	60	52916
2026-01-20 07:38:11.74	349.71	4.56	-50.4	-52.9	6.1	0.00e+00	0	44	104	28923920384	60	53923
2026-01-20 07:38:14.91	349.35	4.36	-50.3	-52.7	6.1	0.00e+00	0	44	104	28923920384	60	53071
2026-01-20 07:38:17.80	349.02	4.17	-49.9	-52.3	6.1	0.00e+00	0	45	104	28923920384	60	50555
2026-01-20 07:38:20.97	348.67	3.97	-49.8	-52.3	6.1	0.00e+00	0	45	104	28923920384	60	50609
2026-01-20 07:38:23.86	348.36	3.79	-49.4	-51.8	6.1	0.00e+00	0	44	104	28923920384	60	47824
2026-01-20 07:38:27.03	348.02	3.59	-48.2	-50.7	6.1	0.00e+00	0	44	104	28923920384	60	41745
2026-01-20 07:38:29.91	347.72	3.41	-47.3	-49.8	6.1	0.00e+00	0	44	104	28923920384	60	37968
2026-01-20 07:38:33.08	347.39	3.21	-47.0	-49.6	6.1	0.00e+00	0	44	104	28923920384	60	36812
2026-01-20 07:38:35.96	347.10	3.03	-46.8	-49.3	6.1	0.00e+00	0	44	104	28923920384	60	35815
2026-01-20 07:38:39.14	346.78	2.84	-50.7	-53.2	6.1	0.00e+00	0	44	104	28923920384	60	56080
2026-01-20 07:38:42.02	346.50	2.66	-51.2	-53.7	6.1	0.00e+00	0	44	104	28923920384	60	59379
2026-01-20 07:38:45.20	346.19	2.47	-51.3	-53.8	6.1	0.00e+00	0	45	104	28923920384	60	60095
2026-01-20 07:38:48.08	345.91	2.29	-51.6	-54.1	6.1	0.00e+00	0	45	104	28923920384	60	61823
2026-01-20 07:38:51.26	345.62	2.10	-51.5	-54.0	6.1	0.00e+00	0	45	104	28923920384	60	61397
2026-01-20 07:38:54.15	345.35	1.93	-51.7	-54.2	6.0	0.00e+00	0	45	104	28923920384	60	62663
2026-01-20 07:38:57.32	345.06	1.74	-51.9	-54.3	6.1	0.00e+00	0	45	104	28923920384	60	63859
2026-01-20 07:39:00.21	344.81	1.57	-51.7	-54.2	6.1	0.00e+00	0	44	104	28923920384	60	62506
2026-01-20 07:39:03.38	344.53	1.38	-51.7	-54.2	6.1	0.00e+00	0	45	104	28923920384	60	62722
2026-01-20 07:39:06.26	344.28	1.21	-52.0	-54.5	6.1	0.00e+00	0	45	104	28923920384	60	64809
2026-01-20 07:39:09.43	344.01	1.02	-51.9	-54.3	6.1	0.00e+00	0	45	104	28923920384	60	63826
2026-01-20 07:39:12.32	343.77	0.86	-52.2	-54.7	6.1	0.00e+00	0	45	104	28923920384	60	66602
2026-01-20 07:39:15.49	343.51	0.67	-51.7	-54.2	6.1	0.00e+00	0	45	104	28923920384	60	62695
2026-01-20 07:39:18.38	343.27	0.51	-52.3	-54.8	6.1	0.00e+00	0	45	104	28923920384	60	67493
2026-01-20 07:39:21.55	343.02	0.33	-51.7	-54.2	6.1	0.00e+00	0	45	104	28923920384	60	62464
2026-01-20 07:39:24.44	342.79	0.16	-52.6	-55.1	6.1	0.00e+00	0	45	104	28923920384	60	69387
2026-01-20 07:39:27.61	342.55	-0.02	-52.3	-54.7	6.1	0.00e+00	0	45	104	28923920384	60	66786

#Closed at: 2026-01-20 07:39:28
#Recorded file [28923 MB]: D:/lorett/data/35029_260120_192943.dat