passes_logs/2026/01/20/R4.6S_Anadyr/R4.6S_Anadyr__20260120_003520_NOAA_21_JPSS-2_rec.log

#Pass ID: 20260120_003520_NOAA 21 (JPSS-2)
#Satellite: NOAA 21 (JPSS-2)
#Configuration: NOAA-21
#almurnet v.1.7.20251203
#Start time: 2026-01-20 00:35:25

#Version: 2.2.20231116
#Station: R4.6S_Anadyr
#Location: 177.4865 lon 64.73178 lat
#TLE: 1 54234U 22150A   26019.31231101  .00000073  00000+0  55355-4 0  9994
#TLE: 2 54234  98.7504 320.1599 0000604 258.3686 101.7423 14.19535697165426

#Time	Az	El	Level	Level2	SNR	BER	BlckErr	Temp	State	Recorded	gain1	gain2
2026-01-20 00:35:25.27	165.61	0.29	-50.5	-51.8	3.4	0.00e+00	0	39	0	0	60	47444
2026-01-20 00:35:29.31	165.67	0.53	-50.5	-63.3	3.5	1.52e+00	0	41	104	0	60	51341
2026-01-20 00:35:33.35	165.73	0.78	-50.5	-63.3	3.5	1.51e+00	0	40	104	0	60	51037
2026-01-20 00:35:37.39	165.79	1.03	-50.3	-63.2	3.5	1.52e+00	0	41	104	0	60	50724
2026-01-20 00:35:41.42	165.86	1.28	-49.5	-62.4	3.5	1.52e+00	0	41	104	0	60	46397
2026-01-20 00:35:45.46	165.92	1.53	-49.1	-61.9	3.5	1.51e+00	0	41	104	0	60	43930
2026-01-20 00:35:49.50	165.98	1.79	-49.0	-61.9	3.5	1.52e+00	0	41	104	0	60	43560
2026-01-20 00:35:53.54	166.05	2.04	-48.9	-61.6	3.5	1.52e+00	0	41	104	0	60	42135
2026-01-20 00:35:57.59	166.11	2.30	-48.9	-61.3	3.5	1.51e+00	0	41	104	0	60	40711
2026-01-20 00:36:01.63	166.18	2.57	-48.7	-60.2	3.5	1.52e+00	0	41	104	0	60	35951
2026-01-20 00:36:05.67	166.24	2.83	-48.7	-60.8	3.5	1.51e+00	0	41	104	0	60	38436
2026-01-20 00:36:09.71	166.31	3.10	-47.0	-51.4	9.1	3.80e-02	123	41	0	4194304	60	13057
2026-01-20 00:36:13.75	166.38	3.37	-42.5	-44.3	16.7	0.00e+00	123	41	0	16777216	58	6431
2026-01-20 00:36:17.79	166.45	3.64	-41.3	-42.7	18.1	0.00e+00	122	41	0	29360128	54	6795
2026-01-20 00:36:21.61	166.52	3.90	-42.2	-44.3	5.2	1.48e+00	0	41	104	39845888	60	5734
2026-01-20 00:36:25.65	166.59	4.18	-47.7	-53.9	4.3	1.46e+00	0	41	104	42991616	60	17316
2026-01-20 00:36:29.69	166.66	4.46	-44.6	-47.0	13.2	1.37e-05	123	41	0	52428800	60	7829
2026-01-20 00:36:33.72	166.74	4.74	-43.8	-45.8	15.4	0.00e+00	120	41	0	65011712	60	6843
2026-01-20 00:36:37.76	166.81	5.03	-41.8	-43.3	17.8	0.00e+00	123	41	0	77594624	56	6481
2026-01-20 00:36:41.80	166.89	5.31	-40.7	-42.0	19.0	0.00e+00	123	41	0	90177536	54	6247
2026-01-20 00:36:45.85	166.97	5.61	-39.7	-40.9	20.2	0.00e+00	122	41	0	102760448	54	5495
2026-01-20 00:36:49.89	167.05	5.90	-39.0	-40.2	20.9	0.00e+00	123	41	0	115343360	52	5689
2026-01-20 00:36:53.93	167.13	6.20	-38.9	-40.0	21.0	0.00e+00	122	42	0	127926272	50	6260
2026-01-20 00:36:57.97	167.21	6.51	-38.9	-40.1	21.0	0.00e+00	122	41	0	140509184	50	6289
2026-01-20 00:37:02.01	167.30	6.81	-38.6	-39.7	21.3	0.00e+00	121	41	0	153092096	50	6001
2026-01-20 00:37:06.05	167.38	7.12	-38.7	-39.8	21.2	0.00e+00	123	41	0	165675008	50	6118
2026-01-20 00:37:10.08	167.47	7.43	-38.4	-39.5	21.5	0.00e+00	123	41	0	178257920	50	5860
2026-01-20 00:37:14.12	167.56	7.75	-38.4	-39.5	21.6	0.00e+00	122	41	0	190840832	50	5885
2026-01-20 00:37:18.16	167.65	8.07	-38.5	-39.6	21.5	0.00e+00	123	42	0	203423744	50	5969
2026-01-20 00:37:22.20	167.74	8.40	-38.2	-39.3	21.8	0.00e+00	123	41	0	216006656	50	5730
2026-01-20 00:37:26.23	167.83	8.73	-38.0	-39.0	21.9	0.00e+00	122	42	0	228589568	50	5579
2026-01-20 00:37:30.28	167.93	9.06	-38.0	-39.0	22.0	0.00e+00	123	41	0	241172480	50	5555
2026-01-20 00:37:34.32	168.03	9.40	-37.5	-38.5	22.4	0.00e+00	123	42	0	253755392	48	5905
2026-01-20 00:37:38.36	168.13	9.74	-37.5	-38.5	22.4	0.00e+00	123	42	0	266338304	48	5915
2026-01-20 00:37:42.40	168.23	10.09	-37.7	-38.7	22.4	0.00e+00	122	42	0	278921216	48	6042
2026-01-20 00:37:46.44	168.33	10.44	-37.4	-38.4	22.6	0.00e+00	122	42	0	291504128	48	5809
2026-01-20 00:37:50.48	168.44	10.80	-37.5	-38.5	22.7	0.00e+00	123	42	0	304087040	48	5859
2026-01-20 00:37:54.52	168.55	11.16	-37.2	-38.2	22.8	0.00e+00	123	42	0	316669952	48	5701
2026-01-20 00:37:58.56	168.66	11.53	-37.3	-38.3	22.8	0.00e+00	123	42	0	329252864	48	5728
2026-01-20 00:38:02.60	168.77	11.91	-37.2	-38.1	22.8	0.00e+00	123	42	0	341835776	48	5659
2026-01-20 00:38:06.64	168.89	12.29	-37.1	-38.0	23.0	0.00e+00	123	42	0	354418688	48	5585
2026-01-20 00:38:10.68	169.00	12.67	-36.8	-37.8	23.1	0.00e+00	123	42	0	368050176	48	5439
2026-01-20 00:38:14.72	169.12	13.06	-36.9	-37.9	23.2	0.00e+00	123	42	0	379584512	48	5499
2026-01-20 00:38:18.76	169.25	13.46	-36.9	-37.9	23.1	0.00e+00	122	42	0	393216000	46	6162
2026-01-20 00:38:22.80	169.38	13.87	-36.6	-37.5	23.5	0.00e+00	123	42	0	405798912	46	5909
2026-01-20 00:38:26.84	169.51	14.28	-36.6	-37.6	23.4	0.00e+00	123	42	0	418381824	46	5935
2026-01-20 00:38:30.88	169.64	14.70	-36.3	-37.3	23.6	0.00e+00	120	42	0	430964736	46	5729
2026-01-20 00:38:34.93	169.78	15.12	-36.4	-37.3	23.7	0.00e+00	122	42	0	443547648	46	5755
2026-01-20 00:38:38.97	169.92	15.55	-36.3	-37.3	23.8	0.00e+00	120	42	0	456130560	46	5729
2026-01-20 00:38:43.01	170.06	16.00	-36.1	-37.1	23.9	0.00e+00	120	42	0	468713472	46	5596
2026-01-20 00:38:47.05	170.21	16.44	-36.1	-37.0	23.9	0.00e+00	122	42	0	481296384	46	5569
2026-01-20 00:38:51.09	170.36	16.90	-36.2	-37.1	23.8	0.00e+00	123	42	0	493879296	46	5637
2026-01-20 00:38:55.13	170.52	17.37	-36.2	-37.2	23.8	0.00e+00	122	42	0	506462208	46	5679
2026-01-20 00:38:59.17	170.68	17.84	-36.4	-37.3	23.7	0.00e+00	122	42	0	519045120	46	5771
2026-01-20 00:39:03.21	170.85	18.32	-36.3	-37.2	23.9	0.00e+00	122	42	0	531628032	46	5694
2026-01-20 00:39:07.25	171.02	18.82	-36.3	-37.2	23.8	0.00e+00	122	42	0	544210944	46	5720
2026-01-20 00:39:11.29	171.19	19.32	-36.3	-37.2	23.8	0.00e+00	123	42	0	556793856	46	5713
2026-01-20 00:39:15.32	171.37	19.83	-36.2	-37.1	23.9	0.00e+00	122	42	0	569376768	46	5651
2026-01-20 00:39:19.36	171.56	20.35	-36.0	-36.9	24.1	0.00e+00	123	42	0	581959680	46	5476
2026-01-20 00:39:23.40	171.75	20.89	-35.9	-36.8	24.1	0.00e+00	123	42	0	594542592	46	5449
2026-01-20 00:39:27.44	171.95	21.43	-35.5	-36.4	24.4	0.00e+00	122	42	0	607125504	44	5809
2026-01-20 00:39:31.49	172.16	21.99	-35.1	-36.0	24.6	0.00e+00	123	42	0	619708416	44	5563
2026-01-20 00:39:35.52	172.37	22.56	-35.0	-35.9	24.6	0.00e+00	123	42	0	632291328	44	5503
2026-01-20 00:39:39.56	172.59	23.14	-34.6	-35.5	25.0	0.00e+00	123	42	0	644874240	42	5910
2026-01-20 00:39:43.60	172.82	23.73	-34.6	-35.5	25.1	0.00e+00	123	42	0	657457152	42	5890
2026-01-20 00:39:47.64	173.06	24.34	-34.7	-35.5	25.2	0.00e+00	122	42	0	670040064	42	5905
2026-01-20 00:39:51.68	173.30	24.96	-35.1	-35.9	24.9	0.00e+00	123	42	0	683671552	42	6191
2026-01-20 00:39:55.72	173.56	25.60	-35.4	-36.3	24.5	0.00e+00	120	42	0	695205888	42	6476
2026-01-20 00:39:59.76	173.82	26.25	-35.5	-36.4	24.4	0.00e+00	120	42	0	708837376	42	6561
2026-01-20 00:40:03.80	174.10	26.92	-35.8	-36.7	24.3	0.00e+00	120	42	0	721420288	44	6011
2026-01-20 00:40:07.84	174.38	27.60	-36.1	-37.1	24.1	0.00e+00	120	42	0	734003200	44	6280
2026-01-20 00:40:11.88	174.68	28.30	-36.4	-37.3	23.8	0.00e+00	122	42	0	746586112	44	6498
2026-01-20 00:40:15.92	174.99	29.02	-36.4	-37.3	23.7	0.00e+00	123	42	0	759169024	44	6497
2026-01-20 00:40:19.96	175.32	29.75	-36.0	-36.9	23.8	0.00e+00	120	42	0	771751936	44	6204
2026-01-20 00:40:23.99	175.66	30.51	-35.6	-36.5	24.2	0.00e+00	122	42	0	784334848	44	5860
2026-01-20 00:40:28.04	176.01	31.28	-35.8	-36.8	23.9	0.00e+00	120	42	0	796917760	44	6074
2026-01-20 00:40:32.07	176.38	32.07	-35.9	-36.8	23.8	0.00e+00	123	42	0	809500672	44	6106
2026-01-20 00:40:36.11	176.77	32.88	-36.1	-37.1	23.9	0.00e+00	122	42	0	822083584	44	6293
2026-01-20 00:40:40.15	177.18	33.72	-36.4	-37.3	23.7	0.00e+00	122	42	0	834666496	44	6493
2026-01-20 00:40:44.19	177.61	34.57	-37.2	-38.2	23.2	0.00e+00	120	42	0	847249408	46	6375
2026-01-20 00:40:48.23	178.06	35.45	-37.7	-38.7	22.6	0.00e+00	122	42	0	859832320	46	6769
2026-01-20 00:40:52.27	178.54	36.35	-38.0	-39.0	22.6	0.00e+00	123	42	0	872415232	48	6217
2026-01-20 00:40:56.31	179.04	37.27	-38.2	-39.2	22.5	0.00e+00	123	42	0	884998144	48	6382
2026-01-20 00:41:00.35	179.58	38.22	-37.7	-38.7	23.0	0.00e+00	123	42	0	897581056	48	6027
2026-01-20 00:41:04.38	180.14	39.19	-37.8	-38.8	22.9	0.00e+00	123	42	0	910163968	48	6083
2026-01-20 00:41:08.42	180.74	40.18	-37.7	-38.7	22.9	0.00e+00	123	42	0	922746880	48	6024
2026-01-20 00:41:12.46	181.37	41.20	-38.0	-38.9	22.7	0.00e+00	122	42	0	935329792	48	6205
2026-01-20 00:41:16.50	182.05	42.25	-38.3	-39.3	22.4	0.00e+00	123	42	0	947912704	48	6462
2026-01-20 00:41:20.54	182.77	43.32	-38.6	-39.7	22.1	0.00e+00	123	42	0	960495616	48	6734
2026-01-20 00:41:24.57	183.53	44.42	-38.4	-39.4	22.0	0.00e+00	122	42	0	973078528	48	6564
2026-01-20 00:41:28.61	184.36	45.54	-39.4	-40.5	21.1	0.00e+00	122	42	0	985661440	50	6642
2026-01-20 00:41:32.66	185.24	46.69	-38.7	-39.8	21.8	0.00e+00	120	42	0	998244352	50	6080
2026-01-20 00:41:36.70	186.19	47.87	-38.4	-39.4	22.4	0.00e+00	122	42	0	1010827264	50	5805
2026-01-20 00:41:40.74	187.22	49.07	-39.0	-40.1	21.9	0.00e+00	122	42	0	1024458752	50	6285
2026-01-20 00:41:44.78	188.33	50.29	-37.9	-38.9	22.6	0.00e+00	123	42	0	1037041664	50	5508
2026-01-20 00:41:48.82	189.52	51.53	-37.6	-38.6	22.9	0.00e+00	122	42	0	1049624576	48	5959
2026-01-20 00:41:52.86	190.83	52.79	-36.9	-37.9	23.0	0.00e+00	123	42	0	1062207488	48	5497
2026-01-20 00:41:56.90	192.25	54.06	-36.9	-37.8	23.4	0.00e+00	123	42	0	1074790400	48	5446
2026-01-20 00:42:00.94	193.80	55.35	-36.9	-37.9	23.6	0.00e+00	123	42	0	1087373312	48	5490
2026-01-20 00:42:04.98	195.49	56.65	-36.2	-37.2	24.0	0.00e+00	123	42	0	1099956224	46	5672
2026-01-20 00:42:09.02	197.35	57.95	-35.9	-36.9	24.2	0.00e+00	123	42	0	1112539136	44	6153
2026-01-20 00:42:13.06	199.40	59.25	-35.9	-36.8	24.2	0.00e+00	123	42	0	1125122048	44	6109
2026-01-20 00:42:17.10	201.67	60.55	-35.9	-36.8	24.4	0.00e+00	123	42	0	1137704960	44	6133
2026-01-20 00:42:21.14	204.17	61.82	-34.8	-35.6	25.1	0.00e+00	123	42	0	1150287872	42	5993
2026-01-20 00:42:25.17	206.93	63.06	-34.6	-35.5	25.2	0.00e+00	122	42	0	1162870784	42	5884
2026-01-20 00:42:29.21	209.99	64.27	-34.4	-35.2	25.1	0.00e+00	120	42	0	1175453696	42	5703
2026-01-20 00:42:33.25	213.39	65.43	-34.0	-34.8	25.5	0.00e+00	123	42	0	1188036608	42	5458
2026-01-20 00:42:37.29	217.14	66.51	-34.5	-35.3	25.4	0.00e+00	122	42	0	1200619520	42	5779
2026-01-20 00:42:41.33	221.28	67.51	-35.2	-36.1	25.1	0.00e+00	123	42	0	1213202432	42	6298
2026-01-20 00:42:45.37	225.81	68.40	-34.7	-35.6	25.3	0.00e+00	123	42	0	1225785344	42	5955
2026-01-20 00:42:49.42	230.74	69.16	-34.9	-35.8	25.1	0.00e+00	120	42	0	1238368256	42	6116
2026-01-20 00:42:53.46	236.03	69.78	-34.8	-35.7	24.9	0.00e+00	120	42	0	1250951168	42	6028
2026-01-20 00:42:57.50	241.61	70.23	-34.0	-34.9	25.4	0.00e+00	123	42	0	1263534080	42	5501
2026-01-20 00:43:01.54	247.42	70.50	-34.7	-35.6	24.6	0.00e+00	122	42	0	1276116992	42	5963
2026-01-20 00:43:05.58	253.34	70.57	-35.0	-35.9	24.7	0.00e+00	123	42	0	1288699904	42	6154
2026-01-20 00:43:09.62	259.24	70.46	-34.7	-35.7	24.8	0.00e+00	122	42	0	1301282816	42	6002
2026-01-20 00:43:13.66	265.01	70.15	-34.6	-35.5	25.3	0.00e+00	123	42	0	1313865728	42	5892
2026-01-20 00:43:17.70	270.54	69.67	-35.0	-35.9	24.6	0.00e+00	122	42	0	1326448640	42	6148
2026-01-20 00:43:21.74	275.76	69.03	-35.2	-36.1	24.7	0.00e+00	123	42	0	1340080128	42	6344
2026-01-20 00:43:25.78	280.60	68.24	-34.5	-35.4	25.3	0.00e+00	123	42	0	1352663040	42	5828
2026-01-20 00:43:29.82	285.05	67.33	-34.4	-35.2	25.4	0.00e+00	120	42	0	1365245952	42	5710
2026-01-20 00:43:33.85	289.10	66.31	-34.5	-35.3	25.6	0.00e+00	123	42	0	1377828864	42	5758
2026-01-20 00:43:37.90	292.78	65.22	-35.2	-36.0	24.9	0.00e+00	122	42	0	1390411776	42	6276
2026-01-20 00:43:41.93	296.10	64.06	-34.7	-35.5	25.4	0.00e+00	123	42	0	1402994688	42	5897
2026-01-20 00:43:45.97	299.11	62.84	-35.5	-36.4	24.1	0.00e+00	123	42	0	1415577600	44	5850
2026-01-20 00:43:50.01	301.82	61.59	-36.3	-37.2	24.2	0.00e+00	120	42	0	1428160512	44	6376
2026-01-20 00:43:54.05	304.27	60.32	-35.0	-35.9	24.8	0.00e+00	122	42	0	1440743424	44	5521
2026-01-20 00:43:58.09	306.48	59.03	-36.9	-37.9	23.8	0.00e+00	123	42	0	1453326336	46	6183
2026-01-20 00:44:02.13	308.50	57.73	-35.5	-36.4	24.4	0.00e+00	122	42	0	1465909248	44	5851
2026-01-20 00:44:06.17	310.32	56.43	-37.6	-38.6	23.3	0.00e+00	122	42	0	1478492160	46	6651
2026-01-20 00:44:10.21	311.99	55.14	-37.2	-38.2	22.8	0.00e+00	123	42	0	1491075072	48	5694
2026-01-20 00:44:14.25	313.51	53.86	-37.4	-38.4	23.1	0.00e+00	120	42	0	1503657984	46	6510
2026-01-20 00:44:18.28	314.90	52.59	-37.9	-39.0	21.6	0.00e+00	123	42	0	1516240896	48	6261
2026-01-20 00:44:22.32	316.18	51.34	-36.6	-37.6	24.0	0.00e+00	122	42	0	1528823808	46	5929
2026-01-20 00:44:26.36	317.36	50.10	-40.6	-42.0	20.1	0.00e+00	120	42	0	1541406720	52	7030
2026-01-20 00:44:30.41	318.46	48.89	-39.1	-40.2	21.3	0.00e+00	123	42	0	1553989632	52	5710
2026-01-20 00:44:34.45	319.47	47.70	-38.0	-38.9	23.1	0.00e+00	123	42	0	1566572544	50	5515
2026-01-20 00:44:38.49	320.40	46.54	-40.0	-41.2	21.3	0.00e+00	123	42	0	1579155456	52	6358
2026-01-20 00:44:42.53	321.28	45.40	-39.1	-40.2	21.9	0.00e+00	123	42	0	1591738368	52	5675
2026-01-20 00:44:46.57	322.09	44.28	-39.5	-40.7	21.1	0.00e+00	120	42	0	1604321280	50	6736
2026-01-20 00:44:50.61	322.85	43.19	-39.2	-40.2	21.9	0.00e+00	123	42	0	1616904192	52	5707
2026-01-20 00:44:54.65	323.56	42.13	-39.2	-40.2	21.8	0.00e+00	122	42	0	1629487104	50	6399
2026-01-20 00:44:58.69	324.23	41.09	-39.0	-40.1	22.0	0.00e+00	123	42	0	1642070016	50	6301
2026-01-20 00:45:02.72	324.85	40.08	-39.1	-40.1	22.0	0.00e+00	123	42	0	1654652928	50	6333
2026-01-20 00:45:06.76	325.45	39.09	-39.3	-40.4	21.8	0.00e+00	123	42	0	1667235840	50	6521
2026-01-20 00:45:10.80	326.00	38.13	-37.5	-38.4	23.3	0.00e+00	122	42	0	1680867328	48	5808
2026-01-20 00:45:14.84	326.53	37.19	-38.3	-39.3	22.8	0.00e+00	122	42	0	1693450240	48	6459
2026-01-20 00:45:18.88	327.03	36.27	-35.9	-38.7	18.9	2.16e-02	123	42	0	1706033152	44	7634
2026-01-20 00:45:22.92	327.50	35.38	-38.6	-39.6	22.8	0.00e+00	123	42	0	1718616064	48	6651
2026-01-20 00:45:26.95	327.95	34.51	-39.2	-40.4	20.3	9.86e-04	122	42	0	1731198976	50	6552
2026-01-20 00:45:30.99	328.38	33.67	-37.7	-38.7	21.8	0.00e+00	122	42	0	1743781888	48	6045
2026-01-20 00:45:35.03	328.78	32.84	-36.9	-37.8	23.7	0.00e+00	123	42	0	1756364800	48	5433
2026-01-20 00:45:39.07	329.17	32.03	-36.7	-37.6	24.1	0.00e+00	123	42	0	1768947712	46	5971
2026-01-20 00:45:43.11	329.54	31.25	-36.6	-37.5	24.2	0.00e+00	122	42	0	1781530624	46	5905
2026-01-20 00:45:47.15	329.90	30.48	-37.1	-38.0	24.0	0.00e+00	122	42	0	1794113536	46	6235
2026-01-20 00:45:51.19	330.23	29.74	-37.5	-38.5	23.4	0.00e+00	120	42	0	1806696448	46	6586
2026-01-20 00:45:55.23	330.56	29.01	-37.2	-38.2	23.7	0.00e+00	123	42	0	1819279360	48	5663
2026-01-20 00:45:59.27	330.87	28.30	-37.3	-38.3	23.6	0.00e+00	123	42	0	1831862272	48	5749
2026-01-20 00:46:03.31	331.16	27.60	-37.2	-38.2	23.6	0.00e+00	123	42	0	1844445184	48	5677
2026-01-20 00:46:07.34	331.45	26.93	-37.0	-37.9	24.2	0.00e+00	123	42	0	1857028096	48	5483
2026-01-20 00:46:11.38	331.72	26.26	-36.4	-37.3	24.5	0.00e+00	123	42	0	1869611008	46	5746
2026-01-20 00:46:15.42	331.99	25.62	-36.3	-37.1	24.7	0.00e+00	123	42	0	1882193920	46	5628
2026-01-20 00:46:19.46	332.24	24.99	-36.3	-37.2	24.4	0.00e+00	123	42	0	1894776832	46	5686
2026-01-20 00:46:23.51	332.49	24.37	-36.3	-37.1	24.5	0.00e+00	123	42	0	1907359744	46	5648
2026-01-20 00:46:27.55	332.73	23.76	-36.7	-37.6	24.5	0.00e+00	122	42	0	1919942656	46	5979
2026-01-20 00:46:31.59	332.96	23.17	-36.8	-37.7	24.3	0.00e+00	123	42	0	1932525568	46	6015
2026-01-20 00:46:35.63	333.18	22.60	-37.1	-38.0	24.2	0.00e+00	123	42	0	1945108480	46	6260
2026-01-20 00:46:39.67	333.39	22.03	-37.0	-37.9	24.2	0.00e+00	122	42	0	1957691392	46	6178
2026-01-20 00:46:43.71	333.60	21.48	-37.2	-38.1	24.0	0.00e+00	122	42	0	1970274304	46	6326
2026-01-20 00:46:47.75	333.80	20.94	-37.6	-38.5	23.8	0.00e+00	122	42	0	1982857216	46	6648
2026-01-20 00:46:51.79	333.99	20.41	-37.5	-38.5	23.9	0.00e+00	120	42	0	1996488704	48	5893
2026-01-20 00:46:55.82	334.18	19.89	-37.4	-38.3	23.7	0.00e+00	122	42	0	2009071616	48	5788
2026-01-20 00:46:59.86	334.36	19.38	-37.4	-38.3	23.8	0.00e+00	123	42	0	2021654528	48	5759
2026-01-20 00:47:03.90	334.54	18.88	-37.8	-38.7	23.5	0.00e+00	122	42	0	2034237440	48	6061
2026-01-20 00:47:07.93	334.71	18.39	-37.4	-38.4	23.6	0.00e+00	120	42	0	2046820352	48	5821
2026-01-20 00:47:11.98	334.88	17.91	-37.3	-38.2	23.5	0.00e+00	120	42	0	2059403264	48	5708
2026-01-20 00:47:16.01	335.04	17.44	-37.7	-38.7	23.4	0.00e+00	123	42	0	2071986176	48	5995
2026-01-20 00:47:20.05	335.20	16.98	-37.9	-38.9	23.4	0.00e+00	120	42	0	2084569088	48	6160
2026-01-20 00:47:24.09	335.35	16.52	-37.6	-38.6	23.5	0.00e+00	123	42	0	2097152000	48	5949
2026-01-20 00:47:28.13	335.50	16.08	-38.6	-39.6	23.3	0.00e+00	120	42	0	2109734912	48	6652
2026-01-20 00:47:32.17	335.65	15.64	-38.3	-39.3	23.3	0.00e+00	122	42	0	2122317824	48	6451
2026-01-20 00:47:36.21	335.79	15.21	-38.2	-39.1	23.4	0.00e+00	122	42	0	2134900736	48	6329
2026-01-20 00:47:40.25	335.93	14.79	-38.4	-39.4	23.4	0.00e+00	123	42	0	2147483648	48	6511
2026-01-20 00:47:44.29	336.06	14.37	-37.8	-38.7	23.5	0.00e+00	120	42	0	2160066560	50	5380
2026-01-20 00:47:48.32	336.19	13.96	-38.3	-39.3	23.3	0.00e+00	122	42	0	2172649472	48	6434
2026-01-20 00:47:52.36	336.32	13.56	-38.5	-39.5	23.1	0.00e+00	123	42	0	2185232384	50	5881
2026-01-20 00:47:56.40	336.45	13.16	-39.0	-39.9	22.6	0.00e+00	122	42	0	2197815296	50	6201
2026-01-20 00:48:00.44	336.57	12.78	-38.2	-39.2	22.9	0.00e+00	122	42	0	2210398208	50	5690
2026-01-20 00:48:04.48	336.69	12.39	-38.3	-39.3	22.7	0.00e+00	123	42	0	2222981120	50	5776
2026-01-20 00:48:08.52	336.81	12.01	-39.0	-40.0	22.5	0.00e+00	120	42	0	2235564032	50	6233
2026-01-20 00:48:12.56	336.93	11.64	-38.8	-39.8	22.5	0.00e+00	122	42	0	2248146944	50	6107
2026-01-20 00:48:16.60	337.04	11.28	-38.9	-40.0	22.3	0.00e+00	123	42	0	2260729856	50	6215
2026-01-20 00:48:20.64	337.15	10.91	-38.8	-39.8	22.1	0.00e+00	122	42	0	2273312768	50	6122
2026-01-20 00:48:24.68	337.26	10.56	-38.8	-39.9	21.9	0.00e+00	123	42	0	2285895680	50	6161
2026-01-20 00:48:28.72	337.37	10.21	-38.9	-39.9	22.0	0.00e+00	120	42	0	2298478592	50	6193
2026-01-20 00:48:32.76	337.47	9.86	-38.9	-39.9	21.8	0.00e+00	120	42	0	2311061504	50	6201
2026-01-20 00:48:36.80	337.57	9.52	-38.8	-39.9	21.8	0.00e+00	120	42	0	2323644416	50	6159
2026-01-20 00:48:40.84	337.67	9.18	-39.0	-40.1	21.8	0.00e+00	121	42	0	2337275904	50	6311
2026-01-20 00:48:44.88	337.77	8.85	-39.3	-40.4	21.5	0.00e+00	122	42	0	2349858816	50	6518
2026-01-20 00:48:48.92	337.87	8.52	-39.1	-40.2	21.5	0.00e+00	122	42	0	2362441728	50	6373
2026-01-20 00:48:52.96	337.96	8.20	-39.0	-40.1	21.6	0.00e+00	123	42	0	2375024640	50	6344
2026-01-20 00:48:56.99	338.06	7.88	-39.6	-40.7	21.3	0.00e+00	120	42	0	2387607552	50	6763
2026-01-20 00:49:01.03	338.15	7.56	-39.5	-40.6	21.1	0.00e+00	122	42	0	2400190464	52	5976
2026-01-20 00:49:05.07	338.24	7.25	-40.1	-41.2	20.8	0.00e+00	123	42	0	2412773376	52	6421
2026-01-20 00:49:09.11	338.33	6.94	-39.7	-40.9	20.7	0.00e+00	122	42	0	2425356288	52	6152
2026-01-20 00:49:13.16	338.41	6.64	-39.9	-41.1	20.6	0.00e+00	122	42	0	2437939200	52	6283
2026-01-20 00:49:17.20	338.50	6.34	-39.7	-40.9	20.6	0.00e+00	123	42	0	2450522112	52	6186
2026-01-20 00:49:21.24	338.59	6.04	-40.0	-41.2	20.4	0.00e+00	123	42	0	2463105024	52	6380
2026-01-20 00:49:25.27	338.67	5.75	-40.5	-41.8	19.8	0.00e+00	123	42	0	2475687936	54	6094
2026-01-20 00:49:29.31	338.75	5.45	-41.5	-42.9	18.7	0.00e+00	122	42	0	2488270848	56	6167
2026-01-20 00:49:33.35	338.83	5.17	-41.8	-43.5	17.3	0.00e+00	122	42	0	2500853760	56	6595
2026-01-20 00:49:37.38	338.91	4.88	-43.4	-45.7	14.8	0.00e+00	123	42	0	2513436672	58	7580
2026-01-20 00:49:41.43	338.99	4.60	-44.9	-48.5	10.7	1.78e-03	120	42	0	2526019584	60	9342
2026-01-20 00:49:45.47	339.06	4.32	-45.8	-51.4	6.7	1.18e-01	123	42	0	2538602496	60	13036
2026-01-20 00:49:49.51	339.14	4.04	-46.3	-56.1	4.1	1.38e+00	0	42	104	2541748224	60	22488
2026-01-20 00:49:53.55	339.22	3.77	-46.3	-58.8	3.5	1.51e+00	0	42	104	2541748224	60	30522
2026-01-20 00:49:57.59	339.29	3.50	-46.4	-58.8	3.5	1.52e+00	0	42	104	2541748224	60	30661
2026-01-20 00:50:01.62	339.36	3.23	-46.7	-59.5	3.5	1.52e+00	0	42	104	2541748224	60	33016
2026-01-20 00:50:05.66	339.43	2.97	-46.8	-59.7	3.5	1.52e+00	0	42	104	2541748224	60	33768
2026-01-20 00:50:09.70	339.51	2.70	-51.0	-63.8	3.5	1.52e+00	0	42	104	2541748224	60	54620
2026-01-20 00:50:13.74	339.58	2.44	-51.5	-64.4	3.5	1.52e+00	0	42	104	2541748224	60	58114
2026-01-20 00:50:17.78	339.64	2.19	-51.3	-64.1	3.5	1.52e+00	0	42	104	2541748224	60	56459
2026-01-20 00:50:21.82	339.71	1.93	-50.8	-64.1	3.5	1.52e+00	0	42	104	2541748224	60	55966
2026-01-20 00:50:25.86	339.78	1.68	-51.7	-64.5	3.5	1.52e+00	0	42	104	2541748224	60	58907
2026-01-20 00:50:29.90	339.85	1.42	-51.3	-64.1	3.5	1.52e+00	0	42	104	2541748224	60	56463
2026-01-20 00:50:33.94	339.91	1.17	-52.3	-65.1	3.5	1.52e+00	0	42	104	2541748224	60	63243
2026-01-20 00:50:37.97	339.98	0.93	-52.3	-65.1	3.5	1.51e+00	0	42	104	2541748224	60	63056
2026-01-20 00:50:42.01	340.04	0.68	-52.5	-65.3	3.5	1.52e+00	0	42	104	2541748224	60	64702
2026-01-20 00:50:46.05	340.11	0.44	-51.5	-64.4	3.5	1.52e+00	0	42	104	2541748224	60	58246
2026-01-20 00:50:50.09	340.17	0.20	-52.1	-64.9	3.5	1.52e+00	0	42	104	2541748224	60	61472
2026-01-20 00:50:54.13	340.23	-0.04	-51.8	-64.7	3.5	1.51e+00	0	42	104	2541748224	60	60325

#Closed at: 2026-01-20 00:50:54
#Recorded file [2541 MB]: D:/lorett/data/35029_260120_123525.dat