passes_logs/2026/01/20/R4.6S_Anadyr/R4.6S_Anadyr__20260120_163114_SUOMI_NPP_rec.log

#Pass ID: 20260120_163114_SUOMI NPP
#Satellite: SUOMI NPP
#Configuration: NPP
#almurnet v.1.7.20251203
#Start time: 2026-01-20 16:31:17

#Version: 2.2.20231116
#Station: R4.6S_Anadyr
#Location: 177.4865 lon 64.73178 lat
#TLE: 1 37849U 11061A   26019.89702167  .00000121  00000+0  78274-4 0  9993
#TLE: 2 37849  98.7817 321.9035 0002338  55.0397 305.0998 14.19526700737401

#Time	Az	El	Level	Level2	SNR	BER	BlckErr	Temp	State	Recorded	gain1	gain2
2026-01-20 16:31:17.49	26.07	0.18	-52.1	-65.9	3.3	1.54e+00	0	40	0	0	60	71206
2026-01-20 16:31:21.52	25.91	0.41	-51.6	-66.8	3.6	1.51e+00	0	41	104	0	60	79477
2026-01-20 16:31:25.57	25.74	0.64	-51.5	-66.7	3.6	1.51e+00	0	41	104	0	60	78608
2026-01-20 16:31:29.60	25.58	0.88	-51.3	-66.5	3.6	1.51e+00	0	41	104	0	60	76547
2026-01-20 16:31:33.63	25.41	1.11	-50.8	-66.1	3.6	1.51e+00	0	41	104	0	60	72704
2026-01-20 16:31:37.67	25.23	1.35	-50.3	-65.5	3.6	1.51e+00	0	41	104	0	60	68067
2026-01-20 16:31:41.72	25.05	1.59	-49.8	-65.0	3.6	1.51e+00	0	41	104	0	60	64045
2026-01-20 16:31:45.76	24.87	1.83	-49.8	-64.8	3.6	1.51e+00	0	41	104	0	60	63177
2026-01-20 16:31:49.79	24.69	2.07	-49.8	-64.8	3.6	1.51e+00	0	41	104	0	60	62933
2026-01-20 16:31:53.83	24.50	2.32	-49.8	-65.0	3.6	1.51e+00	0	41	104	0	60	63933
2026-01-20 16:31:57.87	24.31	2.56	-49.8	-64.6	3.6	1.51e+00	0	41	104	0	60	61692
2026-01-20 16:32:01.91	24.12	2.81	-49.8	-64.5	3.6	1.51e+00	0	41	104	0	60	60936
2026-01-20 16:32:05.95	23.92	3.06	-49.5	-60.0	4.7	1.50e+00	0	41	104	0	60	36339
2026-01-20 16:32:09.99	23.72	3.31	-48.6	-54.6	8.7	3.35e-02	0	41	0	6291456	60	19485
2026-01-20 16:32:14.02	23.52	3.56	-49.7	-61.4	4.1	1.50e+00	0	42	104	11534336	60	42282
2026-01-20 16:32:18.06	23.31	3.82	-44.4	-46.3	16.9	1.39e+00	0	42	104	12582912	60	7472
2026-01-20 16:32:22.09	23.10	4.08	-44.3	-46.2	18.0	0.00e+00	0	42	0	18874368	60	7369
2026-01-20 16:32:26.13	22.88	4.34	-43.8	-45.4	18.9	0.00e+00	0	41	0	26214400	60	6742
2026-01-20 16:32:30.17	22.66	4.60	-45.1	-47.2	16.7	0.00e+00	81	42	0	33554432	60	8289
2026-01-20 16:32:34.20	22.43	4.86	-44.5	-46.4	18.0	0.00e+00	0	42	0	40894464	60	7566
2026-01-20 16:32:38.24	22.21	5.13	-44.2	-45.9	18.4	0.00e+00	18	42	0	49283072	60	7151
2026-01-20 16:32:42.28	21.97	5.40	-44.4	-46.2	18.1	0.00e+00	67	42	0	56623104	60	7345
2026-01-20 16:32:46.32	21.73	5.67	-44.1	-45.8	18.4	0.00e+00	0	42	0	63963136	60	7058
2026-01-20 16:32:50.35	21.49	5.94	-43.6	-45.2	19.1	0.00e+00	0	42	0	71303168	60	6572
2026-01-20 16:32:54.39	21.24	6.22	-43.3	-44.8	19.6	0.00e+00	0	41	0	78643200	60	6281
2026-01-20 16:32:58.43	20.99	6.49	-43.7	-45.2	19.2	0.00e+00	25	42	0	87031808	60	6561
2026-01-20 16:33:02.47	20.73	6.78	-43.1	-44.6	19.7	0.00e+00	0	42	0	94371840	60	6115
2026-01-20 16:33:06.51	20.46	7.06	-43.2	-44.6	19.8	0.00e+00	0	42	0	101711872	60	6158
2026-01-20 16:33:10.54	20.20	7.34	-42.9	-44.3	20.2	0.00e+00	0	42	0	109051904	60	5916
2026-01-20 16:33:14.58	19.92	7.63	-42.7	-44.0	20.4	0.00e+00	73	42	0	117440512	58	6402
2026-01-20 16:33:18.61	19.64	7.92	-42.7	-44.0	20.4	0.00e+00	0	42	0	124780544	58	6394
2026-01-20 16:33:22.65	19.35	8.21	-42.8	-44.1	20.2	0.00e+00	0	42	0	132120576	58	6508
2026-01-20 16:33:26.69	19.06	8.51	-43.5	-44.9	19.7	0.00e+00	18	42	0	139460608	60	6385
2026-01-20 16:33:30.73	18.76	8.81	-43.3	-44.7	20.0	0.00e+00	85	42	0	146800640	60	6223
2026-01-20 16:33:34.76	18.46	9.11	-42.9	-44.3	20.3	0.00e+00	0	42	0	155189248	60	5908
2026-01-20 16:33:38.80	18.14	9.41	-42.5	-43.8	20.6	0.00e+00	0	42	0	162529280	58	6278
2026-01-20 16:33:42.84	17.82	9.72	-42.5	-43.8	20.8	0.00e+00	92	42	0	169869312	58	6260
2026-01-20 16:33:46.88	17.50	10.03	-42.1	-43.3	21.1	0.00e+00	0	42	0	177209344	58	5941
2026-01-20 16:33:50.91	17.16	10.34	-42.3	-43.5	21.1	0.00e+00	0	42	0	185597952	58	6044
2026-01-20 16:33:54.95	16.82	10.66	-41.8	-42.9	21.5	0.00e+00	10	42	0	192937984	56	6326
2026-01-20 16:33:58.99	16.47	10.98	-41.5	-42.6	21.8	0.00e+00	90	42	0	200278016	56	6152
2026-01-20 16:34:03.03	16.11	11.30	-42.0	-43.1	21.3	0.00e+00	0	42	0	207618048	56	6538
2026-01-20 16:34:07.06	15.75	11.62	-42.0	-43.1	21.4	0.00e+00	0	42	0	214958080	56	6524
2026-01-20 16:34:11.10	15.37	11.95	-41.9	-43.0	21.5	0.00e+00	0	42	0	223346688	56	6416
2026-01-20 16:34:15.14	14.99	12.28	-42.1	-43.2	21.3	0.00e+00	85	42	0	230686720	56	6591
2026-01-20 16:34:19.17	14.60	12.62	-41.5	-42.6	21.9	0.00e+00	21	42	0	238026752	56	6106
2026-01-20 16:34:23.21	14.20	12.96	-41.6	-42.7	21.6	0.00e+00	0	42	0	245366784	56	6186
2026-01-20 16:34:27.24	13.79	13.30	-41.4	-42.5	21.9	0.00e+00	58	42	0	253755392	56	6081
2026-01-20 16:34:31.28	13.36	13.64	-41.6	-42.7	21.9	0.00e+00	0	42	0	261095424	56	6238
2026-01-20 16:34:35.32	12.93	13.99	-41.3	-42.3	22.2	0.00e+00	0	42	0	268435456	56	5933
2026-01-20 16:34:39.36	12.49	14.34	-40.9	-41.9	22.6	0.00e+00	0	42	0	275775488	56	5652
2026-01-20 16:34:43.40	12.04	14.69	-40.4	-41.3	22.8	0.00e+00	43	42	0	283115520	54	5946
2026-01-20 16:34:47.43	11.57	15.05	-41.0	-41.9	22.4	0.00e+00	0	42	0	291504128	54	6390
2026-01-20 16:34:51.47	11.10	15.41	-40.8	-41.8	22.5	0.00e+00	0	42	0	298844160	54	6273
2026-01-20 16:34:55.50	10.61	15.77	-40.9	-41.8	22.4	0.00e+00	0	42	0	306184192	54	6308
2026-01-20 16:34:59.55	10.11	16.14	-41.4	-42.4	22.1	0.00e+00	92	42	0	313524224	54	6714
2026-01-20 16:35:03.58	9.59	16.51	-41.3	-42.4	22.1	0.00e+00	0	42	0	321912832	54	6702
2026-01-20 16:35:07.60	9.07	16.89	-41.1	-42.1	22.3	0.00e+00	0	42	0	329252864	54	6474
2026-01-20 16:35:11.64	8.53	17.26	-41.1	-42.2	22.2	0.00e+00	43	42	0	336592896	54	6553
2026-01-20 16:35:15.68	7.97	17.64	-41.4	-42.5	22.1	0.00e+00	2	42	0	343932928	54	6779
2026-01-20 16:35:19.72	7.41	18.03	-41.3	-42.4	21.6	0.00e+00	0	42	0	351272960	54	6698
2026-01-20 16:35:23.75	6.82	18.41	-41.9	-43.1	21.7	0.00e+00	0	42	0	359661568	56	6469
2026-01-20 16:35:27.79	6.22	18.80	-42.2	-43.4	21.4	0.00e+00	66	42	0	367001600	56	6728
2026-01-20 16:35:31.83	5.61	19.19	-42.1	-43.3	21.3	0.00e+00	0	42	0	374341632	56	6649
2026-01-20 16:35:35.86	4.98	19.59	-42.5	-43.7	21.2	0.00e+00	0	42	0	381681664	56	6950
2026-01-20 16:35:39.90	4.33	19.98	-42.5	-43.6	21.2	0.00e+00	0	42	0	389021696	58	6167
2026-01-20 16:35:43.93	3.66	20.38	-42.9	-44.2	20.8	0.00e+00	90	42	0	397410304	58	6553
2026-01-20 16:35:47.97	2.98	20.78	-42.5	-43.7	21.4	0.00e+00	0	42	0	404750336	58	6192
2026-01-20 16:35:52.00	2.28	21.19	-42.2	-43.3	21.5	0.00e+00	0	42	0	412090368	58	5952
2026-01-20 16:35:56.04	1.56	21.59	-42.5	-43.7	21.3	0.00e+00	0	42	0	419430400	58	6243
2026-01-20 16:36:00.08	0.82	22.00	-42.1	-43.2	21.5	0.00e+00	58	42	0	427819008	58	5881
2026-01-20 16:36:04.12	0.06	22.41	-42.2	-43.3	21.4	0.00e+00	0	42	0	435159040	56	6648
2026-01-20 16:36:08.16	359.27	22.82	-42.5	-43.7	21.1	0.00e+00	0	42	0	442499072	58	6223
2026-01-20 16:36:12.20	358.47	23.23	-41.8	-42.8	22.0	0.00e+00	24	42	0	449839104	56	6317
2026-01-20 16:36:16.24	357.65	23.64	-41.9	-43.0	21.8	0.00e+00	24	42	0	457179136	56	6417
2026-01-20 16:36:20.28	356.80	24.05	-41.2	-42.2	22.4	0.00e+00	0	42	0	465567744	56	5868
2026-01-20 16:36:24.31	355.93	24.45	-41.6	-42.7	22.0	0.00e+00	0	42	0	472907776	56	6195
2026-01-20 16:36:28.34	355.04	24.86	-41.3	-42.4	22.3	0.00e+00	92	42	0	480247808	56	5968
2026-01-20 16:36:32.37	354.13	25.27	-41.2	-42.2	22.5	0.00e+00	0	42	0	487587840	56	5871
2026-01-20 16:36:36.41	353.19	25.67	-41.8	-42.9	22.0	0.00e+00	0	42	0	495976448	56	6335
2026-01-20 16:36:40.45	352.22	26.07	-41.4	-42.5	22.1	0.00e+00	0	42	0	503316480	56	6041
2026-01-20 16:36:44.49	351.23	26.47	-42.2	-43.4	21.6	0.00e+00	92	42	0	510656512	56	6754
2026-01-20 16:36:48.52	350.22	26.86	-40.5	-41.4	23.1	0.00e+00	0	42	0	517996544	54	5980
2026-01-20 16:36:52.56	349.18	27.25	-40.2	-41.2	23.3	0.00e+00	0	42	0	525336576	54	5831
2026-01-20 16:36:56.60	348.11	27.64	-40.7	-41.7	22.9	0.00e+00	20	42	0	533725184	54	6183
2026-01-20 16:37:00.64	347.02	28.02	-42.0	-43.1	21.8	0.00e+00	78	42	0	541065216	56	6489
2026-01-20 16:37:04.67	345.90	28.39	-43.1	-44.5	20.6	0.00e+00	0	42	0	548405248	58	6805
2026-01-20 16:37:08.71	344.76	28.75	-43.2	-44.5	20.8	0.00e+00	0	42	0	555745280	58	6772
2026-01-20 16:37:12.75	343.59	29.11	-41.6	-42.7	22.1	0.00e+00	50	42	0	564133888	56	6190
2026-01-20 16:37:16.78	342.39	29.45	-43.2	-44.5	20.6	0.00e+00	0	42	0	571473920	58	6843
2026-01-20 16:37:20.81	341.17	29.79	-43.6	-45.0	19.9	0.00e+00	0	42	0	578813952	60	6408
2026-01-20 16:37:24.85	339.92	30.12	-45.7	-47.7	17.7	0.00e+00	0	42	0	586153984	60	8813
2026-01-20 16:37:28.88	338.65	30.43	-43.4	-44.7	20.6	0.00e+00	92	42	0	593494016	60	6202
2026-01-20 16:37:32.92	337.35	30.73	-43.5	-44.8	20.3	0.00e+00	0	42	0	601882624	60	6299
2026-01-20 16:37:36.96	336.03	31.01	-43.0	-44.2	21.0	0.00e+00	0	42	0	609222656	58	6584
2026-01-20 16:37:41.00	334.68	31.29	-43.4	-44.8	20.4	0.00e+00	0	42	0	616562688	60	6247
2026-01-20 16:37:45.03	333.32	31.54	-42.9	-44.1	20.9	0.00e+00	63	42	0	623902720	58	6523
2026-01-20 16:37:49.07	331.93	31.78	-41.7	-42.8	22.1	0.00e+00	0	42	0	631242752	58	5567
2026-01-20 16:37:53.11	330.52	32.00	-43.1	-44.3	20.8	0.00e+00	0	42	0	639631360	58	6676
2026-01-20 16:37:57.15	329.09	32.20	-41.9	-43.0	22.2	0.00e+00	24	42	0	646971392	56	6415
2026-01-20 16:38:01.18	327.65	32.39	-42.5	-43.7	21.4	0.00e+00	78	42	0	654311424	56	6982
2026-01-20 16:38:05.22	326.19	32.55	-41.5	-42.5	22.5	0.00e+00	0	42	0	661651456	56	6055
2026-01-20 16:38:09.26	324.71	32.69	-41.5	-42.5	22.4	0.00e+00	0	42	0	670040064	56	6092
2026-01-20 16:38:13.30	323.22	32.82	-40.8	-41.8	22.8	0.00e+00	24	42	0	677380096	54	6263
2026-01-20 16:38:17.34	321.72	32.92	-43.2	-44.5	20.8	0.00e+00	0	42	0	684720128	58	6776
2026-01-20 16:38:21.38	320.22	32.99	-41.7	-42.8	22.3	0.00e+00	0	42	0	692060160	56	6258
2026-01-20 16:38:25.41	318.71	33.05	-41.9	-42.9	22.3	0.00e+00	0	42	0	699400192	56	6333
2026-01-20 16:38:29.45	317.19	33.08	-41.7	-42.7	22.3	0.00e+00	90	42	0	707788800	56	6226
2026-01-20 16:38:33.48	315.68	33.09	-44.3	-45.7	19.6	0.00e+00	0	42	0	715128832	60	7004
2026-01-20 16:38:37.52	314.16	33.08	-43.3	-44.6	20.8	0.00e+00	0	42	0	722468864	60	6133
2026-01-20 16:38:41.56	312.64	33.05	-42.2	-43.3	21.9	0.00e+00	20	42	0	729808896	58	5962
2026-01-20 16:38:45.59	311.13	32.99	-42.0	-43.0	22.0	0.00e+00	69	42	0	738197504	58	5746
2026-01-20 16:38:49.63	309.62	32.91	-42.8	-44.0	21.3	0.00e+00	0	42	0	745537536	58	6405
2026-01-20 16:38:53.67	308.12	32.81	-43.4	-44.7	20.7	0.00e+00	0	42	0	752877568	60	6179
2026-01-20 16:38:57.70	306.64	32.68	-43.0	-44.2	21.0	0.00e+00	29	42	0	760217600	60	5896
2026-01-20 16:39:01.73	305.17	32.54	-42.6	-43.8	21.3	0.00e+00	0	42	0	767557632	58	6289
2026-01-20 16:39:05.77	303.71	32.37	-42.4	-43.6	21.4	0.00e+00	0	42	0	775946240	58	6116
2026-01-20 16:39:09.80	302.26	32.19	-41.7	-42.8	22.4	0.00e+00	0	42	0	783286272	56	6273
2026-01-20 16:39:13.84	300.84	31.98	-42.3	-43.5	21.7	0.00e+00	24	42	0	790626304	56	6784
2026-01-20 16:39:17.88	299.43	31.76	-42.6	-43.9	21.2	0.00e+00	0	42	0	797966336	58	6353
2026-01-20 16:39:21.92	298.04	31.52	-41.4	-42.4	22.5	0.00e+00	0	42	0	805306368	56	6015
2026-01-20 16:39:25.95	296.67	31.26	-42.0	-43.0	22.0	0.00e+00	0	42	0	813694976	56	6432
2026-01-20 16:39:29.99	295.32	30.99	-42.5	-43.6	21.6	0.00e+00	92	42	0	821035008	56	6925
2026-01-20 16:39:34.02	294.00	30.70	-43.2	-44.4	20.7	0.00e+00	0	42	0	828375040	58	6736
2026-01-20 16:39:38.06	292.71	30.40	-43.2	-44.5	20.8	0.00e+00	0	42	0	835715072	58	6780
2026-01-20 16:39:42.10	291.43	30.09	-43.1	-44.3	20.9	0.00e+00	73	42	0	844103680	58	6660
2026-01-20 16:39:46.13	290.18	29.76	-42.8	-44.0	21.2	0.00e+00	74	42	0	851443712	58	6407
2026-01-20 16:39:50.17	288.96	29.42	-42.2	-43.3	21.8	0.00e+00	29	42	0	858783744	58	5948
2026-01-20 16:39:54.21	287.76	29.07	-39.5	-40.3	23.9	0.00e+00	0	42	0	866123776	52	5906
2026-01-20 16:39:58.24	286.59	28.72	-40.9	-41.9	22.8	0.00e+00	26	42	0	873463808	54	6348
2026-01-20 16:40:02.28	285.45	28.35	-43.1	-44.3	21.1	0.00e+00	0	42	0	881852416	58	6678
2026-01-20 16:40:06.32	284.33	27.98	-41.9	-42.9	22.0	0.00e+00	29	42	0	889192448	56	6388
2026-01-20 16:40:10.36	283.24	27.60	-43.7	-45.1	20.2	0.00e+00	0	42	0	896532480	60	6520
2026-01-20 16:40:14.40	282.17	27.21	-42.5	-43.7	21.5	0.00e+00	92	42	0	903872512	58	6214
2026-01-20 16:40:18.43	281.13	26.82	-41.8	-42.9	22.0	0.00e+00	0	42	0	912261120	58	5683
2026-01-20 16:40:22.47	280.11	26.43	-40.2	-41.1	23.4	0.00e+00	0	42	0	919601152	54	5768
2026-01-20 16:40:26.50	279.13	26.03	-40.1	-41.0	23.6	0.00e+00	0	42	0	926941184	54	5728
2026-01-20 16:40:30.54	278.16	25.62	-41.0	-41.9	22.8	0.00e+00	91	42	0	934281216	54	6384
2026-01-20 16:40:34.58	277.22	25.22	-41.3	-42.3	22.4	0.00e+00	0	42	0	941621248	54	6672
2026-01-20 16:40:38.61	276.31	24.81	-41.1	-42.1	22.7	0.00e+00	0	42	0	950009856	54	6504
2026-01-20 16:40:42.65	275.41	24.40	-40.6	-41.5	23.2	0.00e+00	82	42	0	957349888	54	6081
2026-01-20 16:40:46.69	274.54	23.99	-39.0	-39.8	24.4	0.00e+00	0	42	0	964689920	52	5609
2026-01-20 16:40:50.73	273.69	23.58	-39.8	-40.6	23.7	0.00e+00	0	42	0	972029952	52	6165
2026-01-20 16:40:54.77	272.87	23.17	-40.2	-41.1	23.5	0.00e+00	0	42	0	980418560	52	6519
2026-01-20 16:40:58.81	272.07	22.76	-39.9	-40.7	23.7	0.00e+00	36	42	0	987758592	52	6242
2026-01-20 16:41:02.84	271.28	22.35	-39.9	-40.8	23.7	0.00e+00	0	42	0	995098624	52	6279
2026-01-20 16:41:06.88	270.52	21.94	-40.1	-41.0	23.5	0.00e+00	0	42	0	1002438656	52	6441
2026-01-20 16:41:10.92	269.78	21.53	-39.5	-40.4	24.0	0.00e+00	0	42	0	1009778688	52	5967
2026-01-20 16:41:14.95	269.06	21.13	-40.0	-40.9	23.6	0.00e+00	86	42	0	1018167296	52	6333
2026-01-20 16:41:18.99	268.36	20.72	-40.3	-41.3	23.1	0.00e+00	0	42	0	1025507328	52	6618
2026-01-20 16:41:23.03	267.67	20.32	-39.7	-40.5	23.7	0.00e+00	0	43	0	1032847360	52	6071
2026-01-20 16:41:27.07	267.00	19.92	-39.5	-40.3	23.9	0.00e+00	0	42	0	1040187392	52	5964
2026-01-20 16:41:31.10	266.36	19.52	-40.6	-41.5	23.0	0.00e+00	69	42	0	1047527424	52	6833
2026-01-20 16:41:35.14	265.72	19.13	-41.6	-42.7	22.2	0.00e+00	0	43	0	1055916032	56	6193
2026-01-20 16:41:39.18	265.11	18.74	-40.4	-41.4	22.9	0.00e+00	0	42	0	1063256064	54	5969
2026-01-20 16:41:43.22	264.51	18.35	-41.0	-41.9	22.7	0.00e+00	19	42	0	1070596096	54	6384
2026-01-20 16:41:47.26	263.92	17.96	-41.3	-42.4	22.1	0.00e+00	0	42	0	1077936128	54	6698
2026-01-20 16:41:51.30	263.35	17.57	-41.1	-42.0	22.6	0.00e+00	0	42	0	1086324736	56	5754
2026-01-20 16:41:55.34	262.79	17.19	-40.2	-41.1	23.3	0.00e+00	0	42	0	1093664768	54	5811
2026-01-20 16:41:59.38	262.25	16.81	-40.5	-41.4	22.9	0.00e+00	92	42	0	1101004800	54	6027
2026-01-20 16:42:03.42	261.72	16.44	-40.9	-41.9	22.6	0.00e+00	0	42	0	1108344832	54	6324
2026-01-20 16:42:07.46	261.21	16.07	-40.2	-41.1	23.2	0.00e+00	0	42	0	1115684864	54	5827
2026-01-20 16:42:11.49	260.71	15.70	-40.5	-41.4	22.9	0.00e+00	2	42	0	1124073472	54	6007
2026-01-20 16:42:15.53	260.22	15.34	-41.4	-42.5	22.1	0.00e+00	71	42	0	1131413504	54	6795
2026-01-20 16:42:19.57	259.74	14.97	-42.9	-44.2	20.6	0.00e+00	0	42	0	1138753536	58	6544
2026-01-20 16:42:23.61	259.27	14.62	-41.3	-42.2	22.4	0.00e+00	0	42	0	1146093568	56	5883
2026-01-20 16:42:27.64	258.82	14.26	-39.8	-40.7	23.3	0.00e+00	91	42	0	1154482176	54	5518
2026-01-20 16:42:31.68	258.38	13.91	-40.6	-41.6	22.6	0.00e+00	0	42	0	1161822208	54	6113
2026-01-20 16:42:35.71	257.94	13.56	-42.5	-43.7	21.1	0.00e+00	0	42	0	1169162240	56	6950
2026-01-20 16:42:39.76	257.52	13.22	-43.1	-44.4	20.3	0.00e+00	0	42	0	1176502272	58	6768
2026-01-20 16:42:43.80	257.11	12.88	-42.9	-44.2	20.6	0.00e+00	92	42	0	1183842304	58	6555
2026-01-20 16:42:47.84	256.70	12.54	-42.7	-43.9	20.7	0.00e+00	0	42	0	1192230912	58	6371
2026-01-20 16:42:51.88	256.31	12.20	-42.6	-43.8	20.8	0.00e+00	0	42	0	1199570944	58	6288
2026-01-20 16:42:55.91	255.93	11.87	-42.2	-43.4	21.0	0.00e+00	0	42	0	1206910976	58	5982
2026-01-20 16:42:59.95	255.55	11.54	-42.6	-43.8	20.8	0.00e+00	92	42	0	1214251008	58	6282
2026-01-20 16:43:03.99	255.18	11.22	-42.3	-43.5	21.0	0.00e+00	0	42	0	1222639616	58	6088
2026-01-20 16:43:08.03	254.82	10.89	-41.8	-42.9	21.5	0.00e+00	0	42	0	1229979648	56	6345
2026-01-20 16:43:12.07	254.47	10.58	-41.2	-42.2	22.1	0.00e+00	5	42	0	1237319680	56	5842
2026-01-20 16:43:16.11	254.13	10.26	-41.8	-42.9	21.6	0.00e+00	9	42	0	1244659712	56	6320
2026-01-20 16:43:20.14	253.79	9.95	-42.3	-43.5	20.9	0.00e+00	0	42	0	1251999744	56	6841
2026-01-20 16:43:24.18	253.46	9.64	-43.6	-45.1	19.4	0.00e+00	16	42	0	1260388352	58	7333
2026-01-20 16:43:28.22	253.14	9.33	-44.1	-45.7	18.9	0.00e+00	92	42	0	1267728384	60	6959
2026-01-20 16:43:32.26	252.83	9.02	-43.8	-45.4	19.3	0.00e+00	0	42	0	1275068416	60	6695
2026-01-20 16:43:36.29	252.52	8.72	-43.5	-45.0	19.5	0.00e+00	0	42	0	1282408448	60	6431
2026-01-20 16:43:40.33	252.22	8.42	-43.7	-45.2	19.5	0.00e+00	0	42	0	1290797056	60	6563
2026-01-20 16:43:44.37	251.92	8.13	-43.1	-44.5	20.0	0.00e+00	81	42	0	1298137088	60	6043
2026-01-20 16:43:48.41	251.63	7.83	-42.9	-44.3	20.1	0.00e+00	0	42	0	1305477120	58	6639
2026-01-20 16:43:52.45	251.35	7.54	-43.0	-44.4	20.0	0.00e+00	0	42	0	1312817152	58	6717
2026-01-20 16:43:56.48	251.07	7.26	-43.5	-45.0	19.6	0.00e+00	12	42	0	1320157184	60	6430
2026-01-20 16:44:00.52	250.80	6.97	-44.4	-46.1	18.3	0.00e+00	92	42	0	1328545792	60	7305
2026-01-20 16:44:04.56	250.54	6.69	-44.9	-46.8	17.8	0.00e+00	0	42	0	1335885824	60	7885
2026-01-20 16:44:08.59	250.28	6.41	-45.2	-47.2	17.4	0.00e+00	0	42	0	1343225856	60	8245
2026-01-20 16:44:12.63	250.02	6.13	-44.7	-46.5	17.8	0.00e+00	53	42	0	1350565888	60	7658
2026-01-20 16:44:16.67	249.77	5.85	-44.9	-46.8	17.7	0.00e+00	0	42	0	1358954496	60	7894
2026-01-20 16:44:20.70	249.52	5.58	-44.8	-46.7	17.7	0.00e+00	0	42	0	1366294528	60	7820
2026-01-20 16:44:24.74	249.28	5.31	-45.5	-47.6	16.8	0.00e+00	0	42	0	1373634560	60	8711
2026-01-20 16:44:28.78	249.05	5.04	-44.7	-46.6	17.8	0.00e+00	90	42	0	1380974592	60	7694
2026-01-20 16:44:32.82	248.81	4.78	-43.9	-45.5	18.6	0.00e+00	0	42	0	1388314624	60	6843
2026-01-20 16:44:36.86	248.59	4.51	-46.0	-48.5	15.9	0.00e+00	0	42	0	1396703232	60	9569
2026-01-20 16:44:40.89	248.36	4.25	-46.3	-49.0	15.4	0.00e+00	0	42	0	1404043264	60	10175
2026-01-20 16:44:44.94	248.14	3.99	-45.7	-48.0	16.4	0.00e+00	92	42	0	1411383296	60	9123
2026-01-20 16:44:48.98	247.93	3.73	-44.8	-46.7	17.3	0.00e+00	0	42	0	1418723328	60	7851
2026-01-20 16:44:53.01	247.72	3.48	-45.2	-47.5	16.4	0.00e+00	0	42	0	1427111936	60	8570
2026-01-20 16:44:57.05	247.51	3.22	-45.3	-47.5	16.3	0.00e+00	41	42	0	1434451968	60	8591
2026-01-20 16:45:01.09	247.31	2.97	-50.3	-65.4	3.6	1.51e+00	0	42	104	1440743424	60	67267
2026-01-20 16:45:05.13	247.11	2.72	-51.2	-66.4	3.6	1.51e+00	0	42	104	1440743424	60	75284
2026-01-20 16:45:09.17	246.91	2.47	-51.4	-66.5	3.6	1.51e+00	0	42	104	1440743424	60	76819
2026-01-20 16:45:13.21	246.72	2.22	-51.4	-66.6	3.6	1.51e+00	0	42	104	1440743424	60	77549
2026-01-20 16:45:17.25	246.53	1.98	-51.3	-66.5	3.6	1.51e+00	0	42	104	1440743424	60	76593
2026-01-20 16:45:21.29	246.34	1.74	-51.4	-66.6	3.6	1.51e+00	0	42	104	1440743424	60	77113
2026-01-20 16:45:25.33	246.16	1.50	-51.3	-66.6	3.6	1.51e+00	0	42	104	1440743424	60	76986
2026-01-20 16:45:29.37	245.98	1.26	-51.5	-66.6	3.6	1.51e+00	0	42	104	1440743424	60	77722
2026-01-20 16:45:33.40	245.80	1.02	-51.5	-66.7	3.6	1.51e+00	0	42	104	1440743424	60	78078
2026-01-20 16:45:37.44	245.63	0.78	-51.5	-66.7	3.6	1.51e+00	0	42	104	1440743424	60	77776
2026-01-20 16:45:41.48	245.46	0.55	-51.5	-66.7	3.5	1.51e+00	0	42	104	1440743424	60	77937
2026-01-20 16:45:45.52	245.29	0.32	-51.5	-66.8	3.6	1.51e+00	0	42	104	1440743424	60	78782
2026-01-20 16:45:49.56	245.12	0.09	-51.5	-66.7	3.6	1.51e+00	0	42	104	1440743424	60	78211

#Closed at: 2026-01-20 16:45:52
#Recorded file [1440 MB]: D:/lorett/data/35029_260121_043117.dat