passes_logs/2026/01/20/R4.6S_Anadyr/R4.6S_Anadyr__20260120_200954_NOAA_20_JPSS-1_rec.log

#Pass ID: 20260120_200954_NOAA 20 (JPSS-1)
#Satellite: NOAA 20 (JPSS-1)
#Configuration: NOAA 20
#almurnet v.1.7.20251203
#Start time: 2026-01-20 20:09:57

#Version: 2.2.20231116
#Station: R4.6S_Anadyr
#Location: 177.4865 lon 64.73178 lat
#TLE: 1 43013U 17073A   26019.91154542  .00000116  00000+0  76014-4 0  9997
#TLE: 2 43013  98.7642 320.7991 0001304  32.0041 328.1214 14.19537346423438

#Time	Az	El	Level	Level2	SNR	BER	BlckErr	Temp	State	Recorded	gain1	gain2
2026-01-20 20:09:57.70	64.90	0.16	-51.2	-65.0	3.3	1.54e+00	0	41	0	0	60	64355
2026-01-20 20:10:00.73	64.67	0.31	-51.4	-66.6	3.6	1.51e+00	0	41	104	0	60	77032
2026-01-20 20:10:03.76	64.44	0.46	-51.7	-66.9	3.6	1.51e+00	0	41	104	0	60	80433
2026-01-20 20:10:06.78	64.21	0.61	-51.6	-66.8	3.6	1.51e+00	0	41	104	0	60	78878
2026-01-20 20:10:09.81	63.98	0.76	-51.8	-67.0	3.6	1.51e+00	0	41	104	0	60	80621
2026-01-20 20:10:12.84	63.74	0.91	-51.8	-67.0	3.6	1.51e+00	0	41	104	0	60	80563
2026-01-20 20:10:15.86	63.51	1.06	-51.8	-66.9	3.6	1.51e+00	0	41	104	0	60	80304
2026-01-20 20:10:18.89	63.27	1.21	-52.0	-67.2	3.6	1.51e+00	0	41	104	0	60	82529
2026-01-20 20:10:21.92	63.02	1.36	-52.2	-67.3	3.6	1.51e+00	0	41	104	0	60	83981
2026-01-20 20:10:24.95	62.78	1.51	-51.7	-66.9	3.6	1.51e+00	0	42	104	0	60	80102
2026-01-20 20:10:27.98	62.53	1.66	-51.7	-66.9	3.6	1.51e+00	0	42	104	0	60	79772
2026-01-20 20:10:31.01	62.28	1.82	-51.5	-66.7	3.6	1.51e+00	0	42	104	0	60	78549
2026-01-20 20:10:34.04	62.02	1.97	-51.4	-66.7	3.6	1.51e+00	0	42	104	0	60	77745
2026-01-20 20:10:37.06	61.77	2.12	-51.3	-66.5	3.6	1.51e+00	0	42	104	0	60	76703
2026-01-20 20:10:40.09	61.51	2.27	-51.1	-66.3	3.6	1.51e+00	0	42	104	0	60	74736
2026-01-20 20:10:43.12	61.25	2.43	-50.6	-65.8	3.6	1.51e+00	0	42	104	0	60	70358
2026-01-20 20:10:46.15	60.98	2.58	-49.8	-65.0	3.6	1.51e+00	0	42	104	0	60	64161
2026-01-20 20:10:49.18	60.71	2.73	-49.7	-64.5	3.6	1.51e+00	0	42	104	0	60	60878
2026-01-20 20:10:52.21	60.44	2.89	-49.7	-64.8	3.6	1.51e+00	0	42	104	0	60	62521
2026-01-20 20:10:55.24	60.17	3.04	-49.2	-57.0	5.7	3.59e-01	92	42	0	2097152	60	25465
2026-01-20 20:10:58.27	59.89	3.20	-49.7	-64.4	3.6	1.51e+00	0	42	104	3145728	60	60209
2026-01-20 20:11:01.30	59.61	3.35	-47.4	-51.4	12.5	2.82e-05	92	42	0	4194304	60	13444
2026-01-20 20:11:04.32	59.33	3.50	-46.7	-49.8	14.5	1.83e-05	90	42	0	10485760	60	11133
2026-01-20 20:11:07.35	59.05	3.66	-46.4	-49.4	14.5	7.00e-07	92	42	0	15728640	60	10638
2026-01-20 20:11:10.38	58.76	3.81	-45.9	-48.4	15.6	0.00e+00	59	42	0	20971520	60	9547
2026-01-20 20:11:13.41	58.46	3.97	-45.4	-47.8	16.1	0.00e+00	92	42	0	27262976	60	8824
2026-01-20 20:11:16.44	58.17	4.13	-45.3	-47.6	16.6	0.00e+00	92	42	0	32505856	60	8622
2026-01-20 20:11:19.46	57.87	4.28	-45.4	-47.7	16.4	0.00e+00	5	42	0	38797312	60	8777
2026-01-20 20:11:22.49	57.57	4.44	-45.5	-47.8	16.2	0.00e+00	92	42	0	44040192	60	8876
2026-01-20 20:11:25.52	57.26	4.59	-45.2	-47.5	16.6	0.00e+00	92	42	0	50331648	60	8529
2026-01-20 20:11:28.55	56.96	4.75	-44.8	-46.8	17.3	0.00e+00	16	42	0	55574528	60	7917
2026-01-20 20:11:31.58	56.64	4.91	-44.9	-47.0	17.2	0.00e+00	7	42	0	60817408	60	8057
2026-01-20 20:11:34.60	56.33	5.06	-45.0	-47.1	17.2	0.00e+00	92	42	0	67108864	60	8148
2026-01-20 20:11:37.63	56.01	5.22	-44.6	-46.5	17.8	0.00e+00	12	42	0	72351744	60	7596
2026-01-20 20:11:40.66	55.69	5.37	-44.4	-46.2	18.1	0.00e+00	7	42	0	78643200	60	7351
2026-01-20 20:11:43.69	55.36	5.53	-44.2	-45.9	18.5	0.00e+00	91	42	0	83886080	60	7155
2026-01-20 20:11:46.71	55.03	5.69	-44.4	-46.2	18.2	0.00e+00	90	42	0	89128960	60	7359
2026-01-20 20:11:49.74	54.70	5.84	-44.6	-46.5	17.8	0.00e+00	55	42	0	95420416	60	7605
2026-01-20 20:11:52.77	54.36	6.00	-44.0	-45.6	18.7	0.00e+00	92	42	0	100663296	60	6898
2026-01-20 20:11:55.80	54.02	6.16	-43.6	-45.2	19.2	0.00e+00	92	42	0	106954752	60	6548
2026-01-20 20:11:58.83	53.68	6.31	-43.8	-45.4	18.9	0.00e+00	0	42	0	112197632	60	6742
2026-01-20 20:12:01.86	53.33	6.47	-43.8	-45.4	19.1	0.00e+00	92	42	0	117440512	60	6695
2026-01-20 20:12:04.89	52.98	6.63	-44.3	-46.0	18.5	0.00e+00	92	42	0	123731968	60	7222
2026-01-20 20:12:07.92	52.62	6.78	-43.7	-45.2	19.3	0.00e+00	0	42	0	128974848	60	6590
2026-01-20 20:12:10.95	52.26	6.94	-43.8	-45.4	19.1	0.00e+00	0	42	0	135266304	60	6698
2026-01-20 20:12:13.97	51.90	7.10	-43.7	-45.2	19.4	0.00e+00	90	42	0	140509184	60	6576
2026-01-20 20:12:17.00	51.53	7.25	-43.9	-45.5	19.0	0.00e+00	91	42	0	146800640	60	6827
2026-01-20 20:12:20.04	51.16	7.41	-43.5	-45.0	19.7	0.00e+00	0	42	0	152043520	60	6442
2026-01-20 20:12:23.07	50.78	7.57	-43.8	-45.3	19.3	0.00e+00	92	42	0	157286400	60	6682
2026-01-20 20:12:26.10	50.40	7.72	-43.7	-45.2	19.4	0.00e+00	92	42	0	163577856	60	6575
2026-01-20 20:12:29.13	50.02	7.88	-43.6	-45.1	19.6	0.00e+00	28	42	0	168820736	60	6473
2026-01-20 20:12:32.16	49.63	8.03	-43.8	-45.3	19.4	0.00e+00	88	42	0	175112192	60	6683
2026-01-20 20:12:35.18	49.24	8.19	-43.4	-44.9	19.8	0.00e+00	92	42	0	180355072	60	6339
2026-01-20 20:12:38.21	48.84	8.34	-43.6	-45.1	19.6	0.00e+00	53	42	0	185597952	60	6494
2026-01-20 20:12:41.24	48.44	8.49	-43.8	-45.4	19.3	0.00e+00	0	42	0	191889408	60	6711
2026-01-20 20:12:44.27	48.03	8.65	-43.4	-44.9	19.7	0.00e+00	92	42	0	197132288	60	6345
2026-01-20 20:12:47.30	47.62	8.80	-43.1	-44.5	20.1	0.00e+00	0	42	0	203423744	60	6045
2026-01-20 20:12:50.33	47.21	8.95	-43.4	-44.8	19.9	0.00e+00	0	42	0	208666624	60	6316
2026-01-20 20:12:53.36	46.79	9.10	-43.1	-44.5	20.1	0.00e+00	92	42	0	214958080	60	6084
2026-01-20 20:12:56.39	46.36	9.26	-43.4	-44.8	19.8	0.00e+00	90	42	0	220200960	60	6298
2026-01-20 20:12:59.42	45.94	9.41	-43.4	-44.9	19.7	0.00e+00	2	42	0	225443840	60	6327
2026-01-20 20:13:02.45	45.50	9.56	-43.4	-44.8	19.8	0.00e+00	92	42	0	231735296	60	6283
2026-01-20 20:13:05.48	45.07	9.71	-43.2	-44.6	20.1	0.00e+00	91	42	0	236978176	60	6121
2026-01-20 20:13:08.51	44.62	9.86	-43.2	-44.6	20.1	0.00e+00	26	42	0	243269632	60	6124
2026-01-20 20:13:11.53	44.18	10.00	-42.9	-44.2	20.4	0.00e+00	27	42	0	248512512	60	5893
2026-01-20 20:13:14.56	43.73	10.15	-43.0	-44.4	20.3	0.00e+00	92	42	0	253755392	60	5989
2026-01-20 20:13:17.59	43.27	10.30	-42.5	-43.8	20.8	0.00e+00	0	42	0	260046848	58	6268
2026-01-20 20:13:20.61	42.82	10.44	-42.6	-43.8	20.9	0.00e+00	63	42	0	265289728	58	6278
2026-01-20 20:13:23.64	42.35	10.59	-41.8	-42.9	21.8	0.00e+00	90	42	0	271581184	58	5693
2026-01-20 20:13:26.67	41.88	10.73	-41.8	-42.9	21.7	0.00e+00	91	42	0	276824064	56	6333
2026-01-20 20:13:29.70	41.41	10.87	-42.1	-43.2	21.5	0.00e+00	27	42	0	283115520	56	6607
2026-01-20 20:13:32.73	40.93	11.01	-42.0	-43.2	21.6	0.00e+00	92	42	0	288358400	56	6540
2026-01-20 20:13:35.75	40.45	11.15	-41.6	-42.7	22.0	0.00e+00	92	43	0	293601280	56	6207
2026-01-20 20:13:38.78	39.96	11.29	-41.5	-42.6	22.1	0.00e+00	2	43	0	299892736	56	6138
2026-01-20 20:13:41.82	39.46	11.43	-41.4	-42.4	22.4	0.00e+00	0	42	0	305135616	56	5994
2026-01-20 20:13:44.84	38.97	11.56	-41.4	-42.4	22.2	0.00e+00	92	42	0	311427072	56	6029
2026-01-20 20:13:47.87	38.47	11.70	-41.3	-42.3	22.4	0.00e+00	0	42	0	316669952	56	5940
2026-01-20 20:13:50.90	37.96	11.83	-41.1	-42.1	22.6	0.00e+00	28	42	0	321912832	56	5818
2026-01-20 20:13:53.92	37.45	11.96	-40.9	-41.9	22.8	0.00e+00	92	43	0	328204288	56	5683
2026-01-20 20:13:56.95	36.93	12.10	-40.9	-41.9	22.9	0.00e+00	11	42	0	333447168	56	5642
2026-01-20 20:13:59.98	36.41	12.22	-40.8	-41.8	22.9	0.00e+00	0	43	0	339738624	54	6269
2026-01-20 20:14:03.01	35.89	12.35	-41.0	-42.0	22.7	0.00e+00	0	43	0	344981504	54	6447
2026-01-20 20:14:06.04	35.36	12.48	-41.2	-42.2	22.5	0.00e+00	91	42	0	351272960	54	6560
2026-01-20 20:14:09.06	34.82	12.60	-41.4	-42.4	22.3	0.00e+00	2	42	0	356515840	54	6742
2026-01-20 20:14:12.09	34.29	12.72	-41.2	-42.2	22.6	0.00e+00	29	43	0	361758720	54	6554
2026-01-20 20:14:15.11	33.74	12.84	-41.3	-42.3	22.4	0.00e+00	92	42	0	368050176	54	6666
2026-01-20 20:14:18.14	33.20	12.96	-41.1	-42.1	22.6	0.00e+00	0	43	0	373293056	54	6536
2026-01-20 20:14:21.17	32.64	13.07	-41.3	-42.3	22.5	0.00e+00	52	43	0	379584512	54	6644
2026-01-20 20:14:24.20	32.09	13.19	-41.3	-42.4	22.5	0.00e+00	90	43	0	384827392	54	6702
2026-01-20 20:14:27.23	31.53	13.30	-41.2	-42.2	22.6	0.00e+00	0	43	0	390070272	54	6570
2026-01-20 20:14:30.26	30.96	13.41	-41.1	-42.0	22.7	0.00e+00	0	42	0	396361728	54	6462
2026-01-20 20:14:33.29	30.39	13.52	-41.0	-42.0	22.8	0.00e+00	27	43	0	401604608	54	6405
2026-01-20 20:14:36.32	29.82	13.62	-40.7	-41.7	23.0	0.00e+00	92	42	0	407896064	54	6205
2026-01-20 20:14:39.35	29.24	13.72	-40.8	-41.7	23.0	0.00e+00	53	43	0	413138944	54	6236
2026-01-20 20:14:42.38	28.66	13.82	-40.8	-41.7	23.0	0.00e+00	7	43	0	419430400	54	6237
2026-01-20 20:14:45.41	28.07	13.92	-40.8	-41.8	22.9	0.00e+00	92	43	0	424673280	54	6294
2026-01-20 20:14:48.44	27.48	14.01	-40.8	-41.7	23.1	0.00e+00	6	43	0	429916160	54	6242
2026-01-20 20:14:51.47	26.89	14.10	-40.7	-41.6	23.1	0.00e+00	5	43	0	436207616	54	6167
2026-01-20 20:14:54.49	26.30	14.19	-40.6	-41.6	23.1	0.00e+00	92	43	0	441450496	54	6108
2026-01-20 20:14:57.53	25.69	14.28	-40.6	-41.5	23.2	0.00e+00	0	42	0	447741952	54	6084
2026-01-20 20:15:00.55	25.09	14.36	-40.8	-41.8	23.1	0.00e+00	29	43	0	452984832	54	6261
2026-01-20 20:15:03.58	24.48	14.44	-40.9	-41.8	22.9	0.00e+00	7	43	0	458227712	54	6301
2026-01-20 20:15:06.61	23.87	14.52	-41.3	-42.3	22.4	0.00e+00	18	43	0	464519168	54	6689
2026-01-20 20:15:09.64	23.26	14.59	-41.1	-42.1	22.7	0.00e+00	0	42	0	469762048	54	6477
2026-01-20 20:15:12.66	22.65	14.67	-41.1	-42.1	22.8	0.00e+00	0	43	0	476053504	54	6493
2026-01-20 20:15:15.69	22.03	14.73	-41.4	-42.4	22.5	0.00e+00	92	43	0	481296384	54	6714
2026-01-20 20:15:18.72	21.40	14.80	-41.6	-42.7	22.3	0.00e+00	28	43	0	487587840	56	6203
2026-01-20 20:15:21.76	20.78	14.86	-41.8	-42.9	22.2	0.00e+00	29	43	0	492830720	56	6348
2026-01-20 20:15:24.78	20.15	14.92	-41.5	-42.5	22.4	0.00e+00	92	43	0	498073600	56	6067
2026-01-20 20:15:27.81	19.52	14.97	-41.4	-42.4	22.4	0.00e+00	52	43	0	504365056	56	5987
2026-01-20 20:15:30.83	18.89	15.02	-41.1	-42.1	22.7	0.00e+00	2	43	0	509607936	56	5814
2026-01-20 20:15:33.87	18.25	15.07	-41.2	-42.2	22.7	0.00e+00	29	43	0	515899392	56	5850
2026-01-20 20:15:36.89	17.62	15.12	-41.2	-42.2	22.7	0.00e+00	0	43	0	521142272	56	5858
2026-01-20 20:15:39.92	16.98	15.16	-41.2	-42.2	22.4	0.00e+00	29	43	0	526385152	56	5850
2026-01-20 20:15:42.95	16.34	15.20	-41.4	-42.4	22.5	0.00e+00	55	43	0	532676608	56	6025
2026-01-20 20:15:45.98	15.70	15.23	-41.3	-42.3	22.6	0.00e+00	92	43	0	537919488	56	5903
2026-01-20 20:15:49.01	15.06	15.26	-41.2	-42.1	22.7	0.00e+00	54	43	0	544210944	56	5826
2026-01-20 20:15:52.04	14.41	15.29	-41.4	-42.4	22.4	0.00e+00	0	43	0	549453824	56	6028
2026-01-20 20:15:55.07	13.77	15.31	-41.3	-42.3	22.6	0.00e+00	91	43	0	555745280	56	5943
2026-01-20 20:15:58.09	13.13	15.33	-41.2	-42.2	22.6	0.00e+00	0	43	0	560988160	56	5888
2026-01-20 20:16:01.12	12.48	15.35	-41.4	-42.5	22.5	0.00e+00	30	42	0	566231040	56	6049
2026-01-20 20:16:04.15	11.83	15.36	-41.1	-42.0	22.8	0.00e+00	92	43	0	572522496	56	5760
2026-01-20 20:16:07.17	11.19	15.37	-41.3	-42.3	22.7	0.00e+00	0	43	0	577765376	56	5905
2026-01-20 20:16:10.20	10.54	15.37	-41.4	-42.4	22.5	0.00e+00	0	43	0	584056832	56	6025
2026-01-20 20:16:13.23	9.89	15.37	-41.2	-42.2	22.7	0.00e+00	27	43	0	589299712	56	5886
2026-01-20 20:16:16.26	9.24	15.37	-41.2	-42.2	22.4	0.00e+00	0	43	0	594542592	56	5879
2026-01-20 20:16:19.28	8.59	15.37	-41.5	-42.5	22.5	0.00e+00	0	43	0	600834048	56	6090
2026-01-20 20:16:22.30	7.95	15.36	-41.3	-42.4	22.6	0.00e+00	0	43	0	606076928	56	5979
2026-01-20 20:16:25.33	7.30	15.34	-41.7	-42.8	22.2	0.00e+00	91	43	0	612368384	56	6278
2026-01-20 20:16:28.36	6.66	15.33	-41.7	-42.8	22.3	0.00e+00	28	43	0	617611264	56	6246
2026-01-20 20:16:31.39	6.01	15.31	-41.5	-42.5	22.4	0.00e+00	53	43	0	622854144	56	6070
2026-01-20 20:16:34.42	5.36	15.28	-41.4	-42.4	22.5	0.00e+00	91	43	0	629145600	56	5995
2026-01-20 20:16:37.44	4.72	15.25	-41.7	-42.7	22.3	0.00e+00	6	43	0	634388480	56	6219
2026-01-20 20:16:40.47	4.08	15.22	-41.6	-42.6	22.3	0.00e+00	22	42	0	640679936	56	6162
2026-01-20 20:16:43.50	3.44	15.19	-41.6	-42.7	22.3	0.00e+00	21	43	0	645922816	56	6177
2026-01-20 20:16:46.53	2.80	15.15	-41.2	-42.2	22.6	0.00e+00	70	43	0	652214272	56	5865
2026-01-20 20:16:49.56	2.16	15.11	-41.3	-42.3	22.5	0.00e+00	0	43	0	657457152	56	5929
2026-01-20 20:16:52.58	1.53	15.06	-41.4	-42.4	22.7	0.00e+00	58	43	0	662700032	56	6023
2026-01-20 20:16:55.61	0.90	15.01	-41.1	-42.1	22.8	0.00e+00	91	43	0	668991488	56	5777
2026-01-20 20:16:58.64	0.27	14.96	-40.7	-41.7	23.1	0.00e+00	6	42	0	674234368	56	5529
2026-01-20 20:17:01.67	359.64	14.90	-40.9	-41.9	22.9	0.00e+00	0	43	0	680525824	54	6358
2026-01-20 20:17:04.70	359.01	14.84	-41.0	-42.0	22.9	0.00e+00	91	43	0	685768704	54	6395
2026-01-20 20:17:07.72	358.39	14.78	-41.0	-42.0	22.8	0.00e+00	52	43	0	691011584	54	6417
2026-01-20 20:17:10.75	357.77	14.71	-41.0	-42.0	22.7	0.00e+00	58	43	0	697303040	54	6415
2026-01-20 20:17:13.78	357.15	14.65	-41.1	-42.0	22.7	0.00e+00	92	43	0	702545920	54	6456
2026-01-20 20:17:16.81	356.53	14.57	-41.2	-42.2	22.7	0.00e+00	58	42	0	708837376	54	6555
2026-01-20 20:17:19.84	355.92	14.50	-41.2	-42.3	22.5	0.00e+00	0	42	0	714080256	54	6628
2026-01-20 20:17:22.86	355.31	14.42	-41.2	-42.3	22.6	0.00e+00	64	42	0	719323136	54	6617
2026-01-20 20:17:25.89	354.71	14.34	-41.1	-42.2	22.6	0.00e+00	0	42	0	725614592	54	6544
2026-01-20 20:17:28.92	354.11	14.26	-41.2	-42.2	22.6	0.00e+00	27	42	0	730857472	54	6567
2026-01-20 20:17:31.95	353.51	14.17	-41.4	-42.5	22.2	0.00e+00	27	42	0	737148928	54	6808
2026-01-20 20:17:34.98	352.91	14.08	-41.5	-42.6	22.1	0.00e+00	91	42	0	742391808	54	6878
2026-01-20 20:17:38.00	352.32	13.99	-41.5	-42.5	22.1	0.00e+00	54	42	0	748683264	54	6815
2026-01-20 20:17:41.03	351.73	13.89	-41.1	-42.1	22.5	0.00e+00	0	43	0	753926144	54	6524
2026-01-20 20:17:44.05	351.15	13.79	-41.0	-42.0	22.8	0.00e+00	92	42	0	759169024	54	6408
2026-01-20 20:17:47.08	350.57	13.69	-41.0	-42.0	22.7	0.00e+00	0	42	0	765460480	54	6445
2026-01-20 20:17:50.11	350.00	13.59	-40.9	-41.8	22.8	0.00e+00	0	42	0	770703360	54	6303
2026-01-20 20:17:53.14	349.43	13.49	-40.9	-41.9	22.7	0.00e+00	92	42	0	776994816	54	6372
2026-01-20 20:17:56.17	348.86	13.38	-41.3	-42.3	22.2	0.00e+00	53	42	0	782237696	54	6678
2026-01-20 20:17:59.20	348.29	13.27	-41.2	-42.3	22.2	0.00e+00	0	42	0	787480576	54	6631
2026-01-20 20:18:02.22	347.74	13.16	-41.1	-42.1	22.6	0.00e+00	0	42	0	793772032	54	6494
2026-01-20 20:18:05.25	347.18	13.04	-40.8	-41.9	22.7	0.00e+00	0	42	0	799014912	54	6318
2026-01-20 20:18:08.28	346.63	12.93	-40.9	-42.0	22.7	0.00e+00	0	42	0	805306368	54	6413
2026-01-20 20:18:11.31	346.08	12.81	-40.9	-42.0	22.8	0.00e+00	0	42	0	810549248	54	6408
2026-01-20 20:18:14.34	345.54	12.69	-41.0	-42.1	22.6	0.00e+00	92	42	0	816840704	54	6486
2026-01-20 20:18:17.37	345.01	12.57	-41.2	-42.3	22.3	0.00e+00	54	42	0	822083584	54	6677
2026-01-20 20:18:20.40	344.47	12.44	-41.6	-42.8	21.9	0.00e+00	55	42	0	827326464	54	7039
2026-01-20 20:18:23.43	343.95	12.32	-41.7	-42.9	21.8	0.00e+00	90	42	0	833617920	54	7108
2026-01-20 20:18:26.45	343.42	12.19	-42.2	-43.5	21.4	0.00e+00	5	42	0	838860800	56	6794
2026-01-20 20:18:29.48	342.90	12.06	-42.2	-43.5	21.4	0.00e+00	27	42	0	845152256	56	6814
2026-01-20 20:18:32.51	342.39	11.93	-42.4	-43.7	21.1	0.00e+00	95	42	0	850395136	56	6952
2026-01-20 20:18:35.54	341.88	11.80	-42.7	-44.1	20.8	0.00e+00	4	42	0	855638016	58	6517
2026-01-20 20:18:38.57	341.38	11.67	-43.0	-44.4	20.4	0.00e+00	7	42	0	861929472	58	6738
2026-01-20 20:18:41.59	340.88	11.53	-42.8	-44.3	20.4	0.00e+00	0	42	0	867172352	58	6619
2026-01-20 20:18:44.62	340.38	11.39	-42.9	-44.3	20.4	0.00e+00	85	42	0	873463808	58	6666
2026-01-20 20:18:47.65	339.89	11.26	-43.1	-44.5	20.4	0.00e+00	7	42	0	878706688	58	6824
2026-01-20 20:18:50.68	339.41	11.12	-43.5	-45.0	19.8	0.00e+00	28	42	0	884998144	58	7238
2026-01-20 20:18:53.71	338.92	10.98	-43.7	-45.2	19.7	0.00e+00	92	42	0	890241024	60	6606
2026-01-20 20:18:56.74	338.45	10.84	-43.6	-45.1	19.9	0.00e+00	54	42	0	895483904	60	6494
2026-01-20 20:18:59.77	337.97	10.69	-43.9	-45.4	19.5	0.00e+00	2	42	0	901775360	60	6746
2026-01-20 20:19:02.80	337.51	10.55	-44.1	-45.7	19.4	0.00e+00	92	42	0	907018240	60	6977
2026-01-20 20:19:05.83	337.04	10.40	-44.1	-45.7	19.2	0.00e+00	0	42	0	913309696	60	6975
2026-01-20 20:19:08.86	336.59	10.26	-44.1	-45.7	19.4	0.00e+00	0	42	0	918552576	60	6946
2026-01-20 20:19:11.88	336.13	10.11	-44.1	-45.7	19.3	0.00e+00	21	42	0	923795456	60	6955
2026-01-20 20:19:14.91	335.69	9.97	-44.3	-45.8	19.3	0.00e+00	0	42	0	930086912	60	7086
2026-01-20 20:19:17.94	335.24	9.82	-44.3	-45.9	19.0	0.00e+00	60	42	0	935329792	60	7113
2026-01-20 20:19:20.97	334.80	9.67	-44.2	-45.7	19.3	0.00e+00	56	42	0	941621248	60	6960
2026-01-20 20:19:23.99	334.37	9.52	-44.0	-45.5	19.5	0.00e+00	92	42	0	946864128	60	6840
2026-01-20 20:19:27.02	333.94	9.37	-43.7	-45.1	19.8	0.00e+00	0	42	0	953155584	60	6498
2026-01-20 20:19:30.05	333.51	9.22	-43.9	-45.4	19.6	0.00e+00	0	42	0	958398464	60	6734
2026-01-20 20:19:33.08	333.09	9.07	-43.9	-45.4	19.5	0.00e+00	92	42	0	963641344	60	6707
2026-01-20 20:19:36.11	332.67	8.92	-43.3	-44.7	20.3	0.00e+00	21	42	0	969932800	60	6176
2026-01-20 20:19:39.14	332.26	8.76	-43.3	-44.7	20.4	0.00e+00	0	42	0	975175680	60	6177
2026-01-20 20:19:42.17	331.85	8.61	-43.1	-44.4	20.5	0.00e+00	92	42	0	981467136	60	6030
2026-01-20 20:19:45.19	331.45	8.46	-42.5	-43.8	21.0	0.00e+00	0	42	0	986710016	58	6252
2026-01-20 20:19:48.22	331.05	8.30	-43.0	-44.3	20.5	0.00e+00	0	42	0	991952896	58	6627
2026-01-20 20:19:51.25	330.65	8.15	-42.5	-43.6	21.2	0.00e+00	39	42	0	998244352	58	6171
2026-01-20 20:19:54.28	330.26	7.99	-42.1	-43.3	21.5	0.00e+00	72	42	0	1003487232	58	5911
2026-01-20 20:19:57.31	329.88	7.84	-42.0	-43.2	21.5	0.00e+00	26	42	0	1009778688	58	5846
2026-01-20 20:20:00.33	329.50	7.69	-42.1	-43.3	21.4	0.00e+00	61	42	0	1015021568	58	5924
2026-01-20 20:20:03.36	329.12	7.53	-41.9	-43.0	21.7	0.00e+00	92	42	0	1020264448	56	6446
2026-01-20 20:20:06.39	328.74	7.37	-41.9	-43.0	21.6	0.00e+00	4	42	0	1026555904	56	6407
2026-01-20 20:20:09.42	328.37	7.22	-42.0	-43.1	21.4	0.00e+00	6	42	0	1031798784	56	6513
2026-01-20 20:20:12.45	328.01	7.06	-41.9	-43.0	21.6	0.00e+00	92	42	0	1038090240	56	6452
2026-01-20 20:20:15.48	327.64	6.91	-41.8	-42.9	21.7	0.00e+00	4	42	0	1043333120	56	6384
2026-01-20 20:20:18.51	327.29	6.75	-42.1	-43.2	21.6	0.00e+00	24	42	0	1049624576	56	6571
2026-01-20 20:20:21.53	326.93	6.59	-42.0	-43.2	21.5	0.00e+00	92	42	0	1054867456	56	6550
2026-01-20 20:20:24.56	326.58	6.44	-42.0	-43.1	21.5	0.00e+00	0	42	0	1060110336	56	6523
2026-01-20 20:20:27.59	326.24	6.28	-42.5	-43.7	21.0	0.00e+00	64	42	0	1066401792	56	6997
2026-01-20 20:20:30.62	325.89	6.12	-42.6	-43.9	20.7	0.00e+00	5	42	0	1071644672	56	7096
2026-01-20 20:20:33.65	325.55	5.97	-42.5	-43.7	21.0	0.00e+00	41	42	0	1077936128	58	6233
2026-01-20 20:20:36.68	325.22	5.81	-42.3	-43.6	20.9	0.00e+00	0	42	0	1083179008	58	6120
2026-01-20 20:20:39.70	324.89	5.65	-42.3	-43.5	20.9	0.00e+00	18	42	0	1088421888	58	6073
2026-01-20 20:20:42.73	324.56	5.50	-42.3	-43.5	21.0	0.00e+00	90	42	0	1094713344	58	6048
2026-01-20 20:20:45.76	324.24	5.34	-42.3	-43.5	20.9	0.00e+00	24	42	0	1099956224	58	6101
2026-01-20 20:20:48.79	323.92	5.18	-42.9	-44.2	20.2	0.00e+00	63	42	0	1106247680	58	6612
2026-01-20 20:20:51.82	323.60	5.03	-44.1	-45.7	18.9	0.00e+00	92	42	0	1111490560	60	6961
2026-01-20 20:20:54.85	323.28	4.87	-42.5	-43.8	20.6	0.00e+00	0	42	0	1117782016	58	6271
2026-01-20 20:20:57.88	322.97	4.72	-43.6	-45.2	19.2	0.00e+00	0	42	0	1123024896	58	7374
2026-01-20 20:21:00.91	322.67	4.56	-42.8	-44.1	20.2	0.00e+00	23	42	0	1128267776	58	6509
2026-01-20 20:21:03.94	322.36	4.40	-43.4	-44.9	19.4	0.00e+00	10	42	0	1134559232	60	6343
2026-01-20 20:21:06.96	322.06	4.25	-43.2	-44.7	19.4	0.00e+00	4	42	0	1139802112	60	6218
2026-01-20 20:21:09.99	321.77	4.09	-43.7	-45.3	19.0	0.00e+00	59	42	0	1146093568	60	6678
2026-01-20 20:21:13.02	321.47	3.94	-44.3	-46.1	18.1	0.00e+00	90	42	0	1151336448	60	7301
2026-01-20 20:21:16.05	321.18	3.78	-44.3	-46.1	18.2	0.00e+00	0	42	0	1156579328	60	7324
2026-01-20 20:21:19.07	320.90	3.63	-44.1	-45.8	18.3	0.00e+00	17	42	0	1162870784	60	7072
2026-01-20 20:21:22.10	320.61	3.47	-44.2	-46.0	17.8	0.00e+00	92	42	0	1168113664	60	7193
2026-01-20 20:21:25.13	320.33	3.32	-44.4	-46.4	17.8	0.00e+00	58	42	0	1174405120	60	7509
2026-01-20 20:21:28.16	320.05	3.16	-43.2	-44.8	19.0	0.00e+00	22	42	0	1179648000	60	6253
2026-01-20 20:21:31.19	319.78	3.01	-44.4	-46.3	17.5	0.00e+00	0	42	0	1185939456	60	7454
2026-01-20 20:21:34.22	319.51	2.86	-50.9	-66.1	3.6	1.51e+00	0	42	104	1185939456	60	72923
2026-01-20 20:21:37.25	319.24	2.70	-51.2	-66.5	3.6	1.51e+00	0	43	104	1185939456	60	76023
2026-01-20 20:21:40.28	318.97	2.55	-51.4	-66.7	3.6	1.51e+00	0	42	104	1185939456	60	77867
2026-01-20 20:21:43.30	318.71	2.40	-51.5	-66.7	3.6	1.51e+00	0	42	104	1185939456	60	78470
2026-01-20 20:21:46.33	318.45	2.24	-51.4	-66.7	3.6	1.51e+00	0	42	104	1185939456	60	78165
2026-01-20 20:21:49.36	318.19	2.09	-51.4	-66.7	3.6	1.51e+00	0	43	104	1185939456	60	77882
2026-01-20 20:21:52.39	317.94	1.94	-51.5	-66.6	3.6	1.51e+00	0	42	104	1185939456	60	77657
2026-01-20 20:21:55.42	317.68	1.79	-51.5	-66.7	3.6	1.51e+00	0	43	104	1185939456	60	78447
2026-01-20 20:21:58.44	317.43	1.64	-51.6	-66.7	3.5	1.51e+00	0	42	104	1185939456	60	78555
2026-01-20 20:22:01.47	317.19	1.48	-51.5	-66.7	3.6	1.51e+00	0	43	104	1185939456	60	78188
2026-01-20 20:22:04.50	316.94	1.33	-51.6	-66.8	3.6	1.51e+00	0	43	104	1185939456	60	79115
2026-01-20 20:22:07.53	316.70	1.18	-51.7	-66.9	3.6	1.51e+00	0	43	104	1185939456	60	79888
2026-01-20 20:22:10.56	316.46	1.03	-51.7	-66.8	3.6	1.51e+00	0	43	104	1185939456	60	79435
2026-01-20 20:22:13.59	316.22	0.88	-51.6	-66.8	3.6	1.51e+00	0	42	104	1185939456	60	78742
2026-01-20 20:22:16.62	315.99	0.73	-51.6	-66.8	3.6	1.51e+00	0	42	104	1185939456	60	79005
2026-01-20 20:22:19.65	315.76	0.58	-51.5	-66.7	3.6	1.51e+00	0	42	104	1185939456	60	78231
2026-01-20 20:22:22.68	315.53	0.43	-51.7	-66.9	3.6	1.51e+00	0	42	104	1185939456	60	80301
2026-01-20 20:22:25.71	315.30	0.28	-51.7	-66.9	3.6	1.51e+00	0	43	104	1185939456	60	79769
2026-01-20 20:22:28.74	315.08	0.14	-51.7	-66.9	3.6	1.51e+00	0	42	104	1185939456	60	79879
2026-01-20 20:22:31.77	314.86	-0.01	-51.7	-66.8	3.6	1.51e+00	0	42	104	1185939456	60	79517

#Closed at: 2026-01-20 20:22:32
#Recorded file [1185 MB]: D:/lorett/data/35029_260121_080957.dat