passes_logs/2026/01/20/R4.6S_Anadyr/R4.6S_Anadyr__20260120_154858_FENGYUN_3D_rec.log

#Pass ID: 20260120_154858_FENGYUN 3D
#Satellite: FENGYUN 3D
#Configuration: FENGYUN 3D
#almurnet v.1.7.20251203
#Start time: 2026-01-20 15:49:00

#Version: 2.2.20231116
#Station: R4.6S_Anadyr
#Location: 177.4865 lon 64.73178 lat
#TLE: 1 43010U 17072A   26019.93695019 -.00000250  00000+0 -96545-4 0  9996
#TLE: 2 43010  98.9942 351.8290 0002452 100.7901 259.3550 14.19695974423957

#Time	Az	El	Level	Level2	SNR	BER	BlckErr	Temp	State	Recorded	gain1	gain2
2026-01-20 15:49:00.50	19.63	0.11	-51.6	-66.5	3.5	1.51e+00	0	39	0	0	60	76192
2026-01-20 15:49:04.54	19.77	0.34	-51.4	-63.5	3.6	8.45e-01	0	40	104	0	60	54203
2026-01-20 15:49:08.58	19.91	0.58	-51.4	-63.5	3.6	8.46e-01	0	40	104	0	60	54067
2026-01-20 15:49:12.61	20.06	0.81	-51.2	-63.4	3.6	8.46e-01	0	40	104	0	60	53457
2026-01-20 15:49:16.66	20.20	1.05	-50.9	-63.1	3.6	8.46e-01	0	41	104	0	60	51415
2026-01-20 15:49:20.69	20.35	1.29	-50.5	-62.5	3.6	8.47e-01	0	41	104	0	60	48476
2026-01-20 15:49:24.74	20.50	1.54	-49.7	-61.5	3.6	8.46e-01	0	41	104	0	60	42911
2026-01-20 15:49:28.78	20.65	1.78	-49.7	-61.6	3.6	8.46e-01	0	41	104	0	60	43347
2026-01-20 15:49:32.82	20.81	2.03	-49.6	-61.7	3.6	8.45e-01	0	41	104	0	60	44127
2026-01-20 15:49:36.85	20.96	2.28	-49.5	-60.5	3.6	8.45e-01	0	41	104	0	60	38419
2026-01-20 15:49:40.89	21.12	2.53	-49.5	-60.9	3.6	8.43e-01	0	41	104	0	60	40312
2026-01-20 15:49:44.93	21.29	2.78	-47.2	-50.5	9.8	5.39e-02	0	41	0	4194304	60	12129
2026-01-20 15:49:48.96	21.45	3.03	-39.8	-40.8	19.8	0.00e+00	0	41	0	26214400	52	6263
2026-01-20 15:49:53.00	21.62	3.29	-37.8	-38.6	21.9	0.00e+00	0	41	0	49283072	48	6159
2026-01-20 15:49:57.04	21.78	3.55	-45.2	-47.4	13.2	3.40e-06	0	41	0	72351744	60	8462
2026-01-20 15:50:01.08	21.96	3.81	-48.2	-53.0	7.3	2.20e-06	0	41	0	87031808	60	16142
2026-01-20 15:50:05.11	22.13	4.07	-43.6	-45.1	15.7	0.00e+00	0	41	0	102760448	58	7299
2026-01-20 15:50:09.15	22.31	4.34	-40.1	-41.1	19.9	0.00e+00	0	41	0	124780544	54	5821
2026-01-20 15:50:13.19	22.49	4.61	-39.4	-40.3	20.6	0.00e+00	0	41	0	147849216	52	5955
2026-01-20 15:50:17.23	22.67	4.88	-39.5	-40.4	20.7	0.00e+00	0	41	0	170917888	52	5978
2026-01-20 15:50:21.27	22.86	5.15	-39.3	-40.2	20.9	0.00e+00	0	41	0	193986560	52	5847
2026-01-20 15:50:25.31	23.05	5.43	-37.3	-38.0	22.8	0.00e+00	0	41	0	216006656	48	5742
2026-01-20 15:50:29.35	23.24	5.71	-38.0	-38.8	22.2	0.00e+00	0	41	0	239075328	48	6301
2026-01-20 15:50:33.39	23.44	5.99	-37.6	-38.3	22.8	0.00e+00	0	41	0	261095424	48	5959
2026-01-20 15:50:37.43	23.64	6.28	-37.9	-38.7	22.8	0.00e+00	0	41	0	284164096	48	6188
2026-01-20 15:50:41.47	23.84	6.57	-38.2	-39.0	22.3	0.00e+00	0	41	0	307232768	48	6434
2026-01-20 15:50:45.51	24.05	6.86	-37.1	-37.8	23.3	0.00e+00	0	41	0	329252864	48	5611
2026-01-20 15:50:49.55	24.26	7.15	-38.0	-38.8	22.5	0.00e+00	0	41	0	352321536	48	6251
2026-01-20 15:50:53.58	24.47	7.45	-37.3	-38.0	23.0	0.00e+00	0	41	0	375390208	46	6431
2026-01-20 15:50:57.62	24.69	7.75	-37.0	-37.7	23.3	0.00e+00	0	41	0	398458880	48	5538
2026-01-20 15:51:01.66	24.91	8.05	-36.5	-37.3	23.8	0.00e+00	0	41	0	420478976	46	5924
2026-01-20 15:51:05.70	25.14	8.36	-36.7	-37.4	23.9	0.00e+00	0	41	0	443547648	46	6027
2026-01-20 15:51:09.74	25.37	8.67	-36.5	-37.3	24.0	0.00e+00	0	41	0	465567744	46	5912
2026-01-20 15:51:13.78	25.61	8.98	-36.2	-36.9	24.4	0.00e+00	0	41	0	488636416	46	5639
2026-01-20 15:51:17.82	25.85	9.30	-36.1	-36.7	24.5	0.00e+00	0	41	0	511705088	46	5557
2026-01-20 15:51:21.86	26.09	9.62	-35.9	-36.6	24.6	0.00e+00	0	41	0	533725184	44	6131
2026-01-20 15:51:25.90	26.34	9.94	-36.0	-36.6	24.5	0.00e+00	0	41	0	556793856	44	6164
2026-01-20 15:51:29.94	26.60	10.27	-36.2	-36.9	24.4	0.00e+00	0	41	0	579862528	44	6343
2026-01-20 15:51:33.98	26.86	10.60	-36.7	-37.4	24.0	0.00e+00	0	41	0	602931200	44	6707
2026-01-20 15:51:38.01	27.13	10.94	-36.4	-37.1	24.2	0.00e+00	0	41	0	624951296	46	5808
2026-01-20 15:51:42.05	27.40	11.28	-35.8	-36.4	24.8	0.00e+00	0	41	0	648019968	44	6030
2026-01-20 15:51:46.09	27.68	11.63	-35.9	-36.7	24.6	0.00e+00	0	41	0	670040064	44	6184
2026-01-20 15:51:50.13	27.97	11.98	-36.0	-36.7	24.6	0.00e+00	0	41	0	693108736	44	6213
2026-01-20 15:51:54.17	28.26	12.33	-36.2	-36.9	24.5	0.00e+00	0	41	0	716177408	44	6357
2026-01-20 15:51:58.21	28.56	12.69	-35.7	-36.4	24.9	0.00e+00	0	41	0	738197504	44	6009
2026-01-20 15:52:02.25	28.86	13.05	-35.6	-36.3	25.0	0.00e+00	0	41	0	761266176	44	5924
2026-01-20 15:52:06.29	29.17	13.42	-35.3	-36.0	25.2	0.00e+00	0	42	0	784334848	44	5718
2026-01-20 15:52:10.32	29.49	13.79	-35.6	-36.3	25.0	0.00e+00	0	41	0	807403520	44	5916
2026-01-20 15:52:14.36	29.82	14.17	-35.2	-35.9	25.3	0.00e+00	0	41	0	829423616	44	5670
2026-01-20 15:52:18.39	30.16	14.55	-35.3	-36.0	25.4	0.00e+00	0	41	0	852492288	44	5706
2026-01-20 15:52:22.43	30.50	14.94	-34.9	-35.6	25.7	0.00e+00	0	41	0	874512384	42	6141
2026-01-20 15:52:26.46	30.85	15.33	-35.0	-35.7	25.7	0.00e+00	0	41	0	897581056	42	6203
2026-01-20 15:52:30.50	31.21	15.73	-35.1	-35.8	25.7	0.00e+00	0	42	0	920649728	42	6278
2026-01-20 15:52:34.54	31.59	16.14	-34.6	-35.3	26.1	0.00e+00	0	41	0	942669824	42	5899
2026-01-20 15:52:38.59	31.97	16.55	-34.7	-35.3	26.0	0.00e+00	0	41	0	965738496	42	5951
2026-01-20 15:52:42.62	32.36	16.97	-34.6	-35.3	26.0	0.00e+00	0	42	0	988807168	42	5914
2026-01-20 15:52:46.66	32.76	17.39	-34.5	-35.2	26.2	0.00e+00	0	42	0	1010827264	42	5848
2026-01-20 15:52:50.70	33.17	17.82	-34.3	-35.0	26.3	0.00e+00	0	42	0	1033895936	42	5712
2026-01-20 15:52:54.74	33.59	18.25	-33.9	-34.6	26.7	0.00e+00	0	42	0	1056964608	42	5466
2026-01-20 15:52:58.78	34.03	18.69	-34.0	-34.7	26.7	0.00e+00	0	42	0	1078984704	42	5529
2026-01-20 15:53:02.82	34.48	19.14	-33.9	-34.5	26.8	0.00e+00	0	42	0	1102053376	40	6056
2026-01-20 15:53:06.86	34.94	19.60	-33.7	-34.3	26.8	0.00e+00	0	42	0	1125122048	40	5904
2026-01-20 15:53:10.89	35.41	20.06	-33.7	-34.4	26.9	0.00e+00	0	41	0	1147142144	40	5984
2026-01-20 15:53:14.93	35.90	20.53	-33.9	-34.6	26.7	0.00e+00	0	42	0	1170210816	40	6112
2026-01-20 15:53:18.97	36.40	21.00	-33.7	-34.4	26.8	0.00e+00	0	42	0	1193279488	40	5982
2026-01-20 15:53:23.00	36.92	21.48	-33.8	-34.4	26.8	0.00e+00	0	42	0	1215299584	40	6024
2026-01-20 15:53:27.04	37.45	21.97	-33.6	-34.2	27.0	0.00e+00	0	42	0	1238368256	40	5892
2026-01-20 15:53:31.08	38.00	22.46	-33.4	-34.1	27.1	0.00e+00	0	42	0	1261436928	40	5798
2026-01-20 15:53:35.12	38.57	22.97	-33.4	-34.0	27.2	0.00e+00	0	42	0	1283457024	40	5739
2026-01-20 15:53:39.16	39.16	23.48	-33.1	-33.7	27.4	0.00e+00	0	42	0	1306525696	40	5548
2026-01-20 15:53:43.19	39.76	23.99	-33.0	-33.6	27.5	0.00e+00	0	42	0	1329594368	40	5440
2026-01-20 15:53:47.23	40.39	24.52	-32.6	-33.2	27.9	0.00e+00	0	42	0	1351614464	38	5887
2026-01-20 15:53:51.27	41.03	25.05	-32.7	-33.4	27.7	0.00e+00	0	42	0	1374683136	38	5970
2026-01-20 15:53:55.31	41.70	25.59	-32.8	-33.4	27.7	0.00e+00	0	42	0	1397751808	38	6022
2026-01-20 15:53:59.34	42.39	26.13	-32.7	-33.3	27.8	0.00e+00	0	42	0	1419771904	38	5927
2026-01-20 15:54:03.38	43.10	26.68	-32.5	-33.1	27.9	0.00e+00	0	42	0	1442840576	38	5791
2026-01-20 15:54:07.41	43.84	27.24	-32.4	-33.1	27.9	0.00e+00	0	42	0	1465909248	38	5769
2026-01-20 15:54:11.46	44.60	27.81	-32.3	-32.9	28.1	0.00e+00	0	42	0	1487929344	38	5668
2026-01-20 15:54:15.49	45.39	28.38	-32.3	-32.9	28.1	0.00e+00	0	42	0	1510998016	38	5676
2026-01-20 15:54:19.53	46.21	28.96	-32.3	-32.8	28.1	0.00e+00	0	42	0	1534066688	38	5614
2026-01-20 15:54:23.57	47.06	29.54	-32.3	-32.9	28.1	0.00e+00	0	42	0	1556086784	38	5664
2026-01-20 15:54:27.61	47.94	30.13	-32.2	-32.8	28.2	0.00e+00	0	42	0	1579155456	38	5587
2026-01-20 15:54:31.66	48.85	30.73	-32.1	-32.7	28.2	0.00e+00	0	42	0	1602224128	38	5532
2026-01-20 15:54:35.70	49.80	31.33	-32.2	-32.8	28.2	0.00e+00	0	42	0	1624244224	38	5624
2026-01-20 15:54:39.74	50.78	31.93	-32.2	-32.8	28.0	0.00e+00	0	42	0	1647312896	38	5611
2026-01-20 15:54:43.78	51.79	32.53	-32.1	-32.7	28.3	0.00e+00	0	42	0	1670381568	38	5513
2026-01-20 15:54:47.82	52.85	33.14	-32.3	-32.9	28.2	0.00e+00	0	42	0	1692401664	38	5656
2026-01-20 15:54:51.85	53.94	33.75	-32.3	-32.9	28.2	0.00e+00	0	42	0	1715470336	38	5658
2026-01-20 15:54:55.89	55.07	34.36	-32.3	-33.0	28.1	0.00e+00	0	42	0	1738539008	38	5698
2026-01-20 15:54:59.93	56.25	34.97	-32.2	-32.8	28.3	0.00e+00	0	42	0	1760559104	38	5618
2026-01-20 15:55:03.96	57.47	35.57	-32.1	-32.7	28.3	0.00e+00	0	42	0	1783627776	38	5544
2026-01-20 15:55:08.00	58.74	36.17	-32.1	-32.7	28.3	0.00e+00	0	42	0	1806696448	38	5540
2026-01-20 15:55:12.04	60.05	36.77	-32.1	-32.8	28.4	0.00e+00	0	42	0	1828716544	38	5569
2026-01-20 15:55:16.08	61.41	37.37	-31.7	-32.3	28.3	0.00e+00	0	42	0	1851785216	36	5931
2026-01-20 15:55:20.12	62.83	37.95	-31.9	-32.5	28.4	0.00e+00	0	42	0	1874853888	36	6069
2026-01-20 15:55:24.16	64.29	38.53	-32.0	-32.7	28.3	0.00e+00	0	42	0	1896873984	36	6178
2026-01-20 15:55:28.20	65.80	39.09	-32.3	-32.9	28.2	0.00e+00	0	42	0	1919942656	36	6342
2026-01-20 15:55:32.24	67.37	39.64	-32.1	-32.7	28.3	0.00e+00	0	42	0	1943011328	36	6191
2026-01-20 15:55:36.28	68.99	40.18	-31.7	-32.3	28.6	0.00e+00	0	42	0	1965031424	36	5953
2026-01-20 15:55:40.32	70.66	40.69	-31.9	-32.5	28.5	0.00e+00	0	42	0	1988100096	36	6088
2026-01-20 15:55:44.35	72.38	41.19	-32.2	-32.8	28.2	0.00e+00	0	42	0	2011168768	36	6307
2026-01-20 15:55:48.39	74.15	41.66	-32.1	-32.7	28.3	0.00e+00	0	42	0	2033188864	36	6194
2026-01-20 15:55:52.43	75.98	42.11	-32.1	-32.8	28.2	0.00e+00	0	42	0	2056257536	36	6257
2026-01-20 15:55:56.47	77.86	42.53	-32.4	-33.0	28.2	0.00e+00	0	42	0	2079326208	36	6439
2026-01-20 15:56:00.51	79.78	42.92	-32.2	-32.8	28.2	0.00e+00	0	42	0	2101346304	36	6275
2026-01-20 15:56:04.54	81.75	43.28	-31.9	-32.5	28.4	0.00e+00	0	42	0	2124414976	36	6091
2026-01-20 15:56:08.58	83.76	43.60	-32.2	-32.8	28.2	0.00e+00	0	42	0	2147483648	36	6296
2026-01-20 15:56:12.62	85.81	43.89	-32.5	-33.1	28.1	0.00e+00	0	42	0	2169503744	36	6528
2026-01-20 15:56:16.66	87.89	44.14	-32.7	-33.4	27.9	0.00e+00	0	42	0	2192572416	38	5984
2026-01-20 15:56:20.70	90.01	44.35	-32.7	-33.4	27.9	0.00e+00	0	42	0	2215641088	38	5976
2026-01-20 15:56:24.74	92.14	44.51	-32.4	-33.0	28.1	0.00e+00	0	42	0	2237661184	38	5729
2026-01-20 15:56:28.77	94.30	44.63	-32.7	-33.3	28.0	0.00e+00	0	42	0	2260729856	38	5933
2026-01-20 15:56:32.81	96.47	44.71	-32.4	-33.1	28.1	0.00e+00	0	42	0	2282749952	38	5795
2026-01-20 15:56:36.85	98.65	44.75	-32.8	-33.5	27.8	0.00e+00	0	42	0	2305818624	38	6035
2026-01-20 15:56:40.90	100.84	44.74	-32.6	-33.2	28.0	0.00e+00	0	42	0	2328887296	38	5894
2026-01-20 15:56:44.94	103.02	44.68	-32.7	-33.3	27.8	0.00e+00	0	42	0	2351955968	38	5940
2026-01-20 15:56:48.97	105.18	44.58	-32.8	-33.4	27.7	0.00e+00	0	42	0	2373976064	38	6024
2026-01-20 15:56:53.01	107.33	44.44	-32.8	-33.4	27.8	0.00e+00	0	42	0	2397044736	38	5991
2026-01-20 15:56:57.05	109.46	44.25	-32.5	-33.0	28.0	0.00e+00	0	42	0	2420113408	38	5759
2026-01-20 15:57:01.08	111.56	44.02	-32.6	-33.1	28.0	0.00e+00	0	42	0	2442133504	38	5805
2026-01-20 15:57:05.12	113.63	43.76	-32.4	-33.0	28.0	0.00e+00	0	42	0	2465202176	38	5734
2026-01-20 15:57:09.16	115.66	43.45	-32.1	-32.7	28.4	0.00e+00	0	42	0	2487222272	38	5510
2026-01-20 15:57:13.19	117.65	43.11	-32.3	-32.9	28.1	0.00e+00	0	42	0	2510290944	38	5642
2026-01-20 15:57:17.23	119.60	42.73	-32.7	-33.4	27.8	0.00e+00	0	42	0	2533359616	38	5971
2026-01-20 15:57:21.27	121.51	42.33	-32.4	-33.0	28.1	0.00e+00	0	42	0	2556428288	38	5696
2026-01-20 15:57:25.31	123.37	41.89	-32.6	-33.2	27.9	0.00e+00	0	42	0	2578448384	38	5867
2026-01-20 15:57:29.35	125.17	41.43	-32.2	-32.8	28.3	0.00e+00	0	42	0	2601517056	38	5570
2026-01-20 15:57:33.39	126.93	40.94	-32.1	-32.8	28.3	0.00e+00	0	42	0	2624585728	38	5602
2026-01-20 15:57:37.43	128.63	40.43	-32.2	-32.7	28.3	0.00e+00	0	42	0	2646605824	36	6226
2026-01-20 15:57:41.47	130.28	39.91	-32.2	-32.9	28.3	0.00e+00	0	42	0	2669674496	36	6327
2026-01-20 15:57:45.51	131.88	39.36	-31.7	-32.3	28.6	0.00e+00	0	42	0	2691694592	36	5904
2026-01-20 15:57:49.55	133.42	38.80	-31.8	-32.5	28.5	0.00e+00	0	42	0	2714763264	36	6071
2026-01-20 15:57:53.58	134.91	38.23	-31.9	-32.5	28.5	0.00e+00	0	42	0	2737831936	36	6057
2026-01-20 15:57:57.62	136.35	37.65	-31.7	-32.4	28.5	0.00e+00	0	42	0	2760900608	36	5989
2026-01-20 15:58:01.64	137.73	37.06	-31.9	-32.6	28.3	0.00e+00	0	42	0	2782920704	36	6113
2026-01-20 15:58:05.68	139.08	36.46	-31.9	-32.5	28.6	0.00e+00	0	42	0	2805989376	36	6089
2026-01-20 15:58:09.72	140.37	35.86	-32.5	-33.1	28.0	0.00e+00	0	42	0	2829058048	36	6499
2026-01-20 15:58:13.76	141.62	35.25	-31.9	-32.4	28.2	0.00e+00	0	42	0	2851078144	36	6031
2026-01-20 15:58:17.80	142.82	34.64	-31.8	-32.3	28.3	0.00e+00	0	42	0	2874146816	36	5963
2026-01-20 15:58:21.84	143.98	34.03	-32.2	-32.7	28.2	0.00e+00	0	42	0	2896166912	36	6224
2026-01-20 15:58:25.88	145.10	33.41	-31.9	-32.4	28.3	0.00e+00	0	42	0	2919235584	36	6009
2026-01-20 15:58:29.92	146.18	32.80	-32.1	-32.7	28.2	0.00e+00	0	42	0	2942304256	36	6177
2026-01-20 15:58:33.96	147.21	32.19	-32.0	-32.6	28.2	0.00e+00	0	42	0	2964324352	36	6109
2026-01-20 15:58:38.01	148.22	31.58	-32.4	-33.1	28.0	0.00e+00	0	42	0	2987393024	36	6522
2026-01-20 15:58:42.05	149.18	30.98	-32.4	-32.9	27.9	0.00e+00	0	42	0	3010461696	36	6388
2026-01-20 15:58:46.09	150.11	30.38	-32.3	-33.0	28.0	0.00e+00	0	42	0	3033530368	36	6439
2026-01-20 15:58:50.13	151.01	29.78	-32.2	-32.9	28.1	0.00e+00	0	42	0	3055550464	36	6368
2026-01-20 15:58:54.17	151.87	29.19	-32.2	-32.8	28.1	0.00e+00	0	42	0	3078619136	36	6273
2026-01-20 15:58:58.20	152.71	28.61	-32.3	-33.0	28.0	0.00e+00	0	42	0	3100639232	36	6423
2026-01-20 15:59:02.24	153.51	28.03	-32.6	-33.1	27.8	0.00e+00	0	42	0	3123707904	36	6523
2026-01-20 15:59:06.28	154.29	27.46	-32.6	-33.2	27.8	0.00e+00	0	42	0	3146776576	38	5852
2026-01-20 15:59:10.31	155.04	26.90	-32.5	-33.2	27.8	0.00e+00	0	42	0	3168796672	38	5861
2026-01-20 15:59:14.35	155.77	26.34	-32.5	-33.2	27.8	0.00e+00	0	42	0	3191865344	38	5832
2026-01-20 15:59:18.39	156.47	25.79	-32.8	-33.5	27.6	0.00e+00	0	42	0	3214934016	38	6046
2026-01-20 15:59:22.43	157.15	25.24	-32.7	-33.3	27.8	0.00e+00	0	42	0	3238002688	38	5953
2026-01-20 15:59:26.47	157.81	24.70	-32.7	-33.2	27.7	0.00e+00	0	42	0	3260022784	38	5884
2026-01-20 15:59:30.51	158.44	24.17	-32.7	-33.3	27.7	0.00e+00	0	42	0	3283091456	38	5963
2026-01-20 15:59:34.55	159.06	23.65	-32.9	-33.6	27.5	0.00e+00	0	42	0	3305111552	38	6126
2026-01-20 15:59:38.59	159.65	23.13	-33.0	-33.7	27.5	0.00e+00	0	42	0	3328180224	38	6217
2026-01-20 15:59:42.63	160.23	22.62	-33.5	-34.2	27.1	0.00e+00	0	42	0	3351248896	38	6560
2026-01-20 15:59:46.67	160.79	22.12	-33.3	-33.9	27.1	0.00e+00	0	42	0	3374317568	38	6373
2026-01-20 15:59:50.71	161.33	21.63	-33.2	-33.9	27.2	0.00e+00	0	42	0	3396337664	38	6341
2026-01-20 15:59:54.75	161.86	21.14	-33.3	-34.0	27.2	0.00e+00	0	42	0	3419406336	38	6444
2026-01-20 15:59:58.79	162.37	20.66	-33.5	-34.2	27.0	0.00e+00	0	42	0	3442475008	38	6573
2026-01-20 16:00:02.83	162.86	20.18	-33.6	-34.2	26.9	0.00e+00	0	42	0	3464495104	38	6540
2026-01-20 16:00:06.86	163.34	19.72	-33.6	-34.1	26.9	0.00e+00	0	42	0	3487563776	38	6525
2026-01-20 16:00:10.90	163.81	19.26	-33.8	-34.3	26.8	0.00e+00	0	42	0	3509583872	40	5950
2026-01-20 16:00:14.94	164.26	18.80	-34.2	-34.9	26.4	0.00e+00	0	42	0	3532652544	40	6353
2026-01-20 16:00:18.97	164.70	18.36	-34.1	-34.8	26.6	0.00e+00	0	42	0	3555721216	40	6286
2026-01-20 16:00:23.02	165.13	17.92	-34.3	-34.9	26.4	0.00e+00	0	42	0	3578789888	40	6338
2026-01-20 16:00:27.05	165.54	17.48	-34.1	-34.8	26.5	0.00e+00	0	42	0	3600809984	40	6264
2026-01-20 16:00:31.09	165.95	17.06	-34.6	-35.1	26.1	0.00e+00	0	42	0	3623878656	42	5812
2026-01-20 16:00:35.13	166.35	16.63	-34.9	-35.6	25.7	0.00e+00	0	42	0	3646947328	42	6171
2026-01-20 16:00:39.17	166.73	16.22	-34.7	-35.5	25.9	0.00e+00	0	42	0	3668967424	42	6059
2026-01-20 16:00:43.21	167.10	15.81	-34.8	-35.6	25.7	0.00e+00	0	42	0	3692036096	42	6109
2026-01-20 16:00:47.25	167.47	15.40	-35.0	-35.6	25.6	0.00e+00	0	42	0	3714056192	42	6149
2026-01-20 16:00:51.29	167.82	15.01	-35.1	-35.7	25.5	0.00e+00	0	42	0	3737124864	42	6187
2026-01-20 16:00:55.33	168.17	14.61	-35.1	-35.7	25.5	0.00e+00	0	42	0	3760193536	42	6237
2026-01-20 16:00:59.37	168.51	14.22	-35.5	-36.3	25.1	0.00e+00	0	42	0	3783262208	42	6643
2026-01-20 16:01:03.41	168.84	13.84	-35.3	-35.9	25.2	0.00e+00	0	42	0	3805282304	44	5676
2026-01-20 16:01:07.45	169.16	13.46	-35.4	-36.1	25.2	0.00e+00	0	42	0	3828350976	44	5819
2026-01-20 16:01:11.49	169.48	13.09	-35.4	-36.0	25.2	0.00e+00	0	42	0	3850371072	44	5755
2026-01-20 16:01:15.53	169.78	12.72	-35.6	-36.4	25.0	0.00e+00	0	42	0	3873439744	44	5981
2026-01-20 16:01:19.57	170.08	12.36	-36.3	-36.9	24.3	0.00e+00	0	42	0	3896508416	44	6343
2026-01-20 16:01:23.60	170.37	12.00	-35.8	-36.6	24.7	0.00e+00	0	42	0	3918528512	44	6148
2026-01-20 16:01:27.64	170.66	11.65	-36.1	-36.9	24.3	0.00e+00	0	42	0	3941597184	44	6354
2026-01-20 16:01:31.68	170.94	11.30	-36.0	-36.7	24.5	0.00e+00	0	42	0	3964665856	44	6238
2026-01-20 16:01:35.72	171.21	10.96	-36.1	-36.9	24.5	0.00e+00	0	42	0	3987734528	44	6319
2026-01-20 16:01:39.76	171.48	10.62	-36.4	-37.0	24.2	0.00e+00	0	42	0	4009754624	46	5749
2026-01-20 16:01:43.79	171.74	10.28	-36.2	-36.8	24.3	0.00e+00	0	42	0	4032823296	46	5606
2026-01-20 16:01:47.83	172.00	9.95	-36.2	-36.8	24.4	0.00e+00	0	42	0	4054843392	46	5587
2026-01-20 16:01:51.86	172.25	9.62	-36.3	-36.9	24.2	0.00e+00	0	42	0	4077912064	46	5675
2026-01-20 16:01:55.90	172.50	9.30	-36.5	-37.2	24.0	0.00e+00	0	42	0	4100980736	46	5835
2026-01-20 16:01:59.94	172.74	8.98	-36.9	-37.5	23.6	0.00e+00	0	42	0	4123000832	46	6070
2026-01-20 16:02:03.98	172.97	8.66	-36.4	-37.0	24.0	0.00e+00	0	42	0	4146069504	46	5733
2026-01-20 16:02:08.01	173.20	8.35	-36.9	-37.6	23.5	0.00e+00	0	42	0	4169138176	46	6130
2026-01-20 16:02:12.05	173.43	8.04	-36.0	-36.7	24.3	0.00e+00	0	42	0	4191158272	46	5563
2026-01-20 16:02:16.09	173.65	7.73	-36.7	-37.4	23.7	0.00e+00	0	42	0	4214226944	46	5973
2026-01-20 16:02:20.13	173.87	7.43	-36.7	-37.5	23.7	0.00e+00	0	42	0	4237295616	46	6082
2026-01-20 16:02:24.16	174.08	7.13	-36.5	-37.3	23.6	0.00e+00	0	42	0	4259315712	46	5948
2026-01-20 16:02:28.21	174.29	6.83	-37.3	-38.0	23.1	0.00e+00	0	42	0	4282384384	46	6431
2026-01-20 16:02:32.25	174.50	6.54	-37.4	-38.3	23.2	0.00e+00	0	42	0	4305453056	46	6627
2026-01-20 16:02:36.28	174.70	6.25	-37.2	-37.9	23.1	0.00e+00	0	42	0	4327473152	48	5636
2026-01-20 16:02:40.33	174.90	5.96	-37.7	-38.4	22.7	0.00e+00	0	42	0	4350541824	48	6017
2026-01-20 16:02:44.37	175.09	5.68	-37.7	-38.4	22.5	0.00e+00	0	42	0	4373610496	46	6742
2026-01-20 16:02:48.41	175.28	5.39	-38.1	-39.0	21.8	0.00e+00	0	42	0	4395630592	48	6441
2026-01-20 16:02:52.45	175.47	5.12	-38.7	-39.5	21.2	0.00e+00	0	42	0	4418699264	50	6054
2026-01-20 16:02:56.48	175.65	4.84	-39.1	-39.9	20.6	0.00e+00	0	42	0	4441767936	50	6383
2026-01-20 16:03:00.52	175.84	4.57	-38.5	-39.3	21.8	0.00e+00	0	42	0	4463788032	50	5912
2026-01-20 16:03:04.56	176.01	4.29	-38.7	-39.5	21.5	0.00e+00	0	42	0	4486856704	50	6048
2026-01-20 16:03:08.60	176.19	4.03	-39.1	-40.1	20.7	0.00e+00	0	42	0	4509925376	50	6485
2026-01-20 16:03:12.63	176.36	3.76	-38.9	-39.7	21.1	0.00e+00	0	42	0	4531945472	52	5552
2026-01-20 16:03:16.67	176.53	3.50	-40.3	-41.4	18.7	0.00e+00	0	42	0	4555014144	54	6002
2026-01-20 16:03:20.72	176.70	3.23	-42.5	-43.8	17.2	0.00e+00	0	42	0	4578082816	58	6301
2026-01-20 16:03:24.76	176.86	2.98	-49.8	-61.6	3.6	5.25e-02	0	42	104	4599054336	60	43466
2026-01-20 16:03:28.79	177.02	2.72	-50.6	-63.0	3.6	8.45e-01	0	42	104	4599054336	60	50765
2026-01-20 16:03:32.83	177.18	2.46	-51.0	-63.2	3.6	8.45e-01	0	42	104	4599054336	60	51989
2026-01-20 16:03:36.87	177.34	2.21	-51.2	-63.3	3.6	8.45e-01	0	42	104	4599054336	60	52833
2026-01-20 16:03:40.91	177.49	1.96	-51.1	-63.3	3.6	8.46e-01	0	42	104	4599054336	60	52919
2026-01-20 16:03:44.95	177.64	1.71	-51.1	-63.3	3.6	8.45e-01	0	42	104	4599054336	60	52924
2026-01-20 16:03:48.99	177.79	1.47	-51.2	-63.3	3.6	8.46e-01	0	42	104	4599054336	60	52932
2026-01-20 16:03:53.03	177.94	1.22	-51.3	-63.4	3.5	8.46e-01	0	42	104	4599054336	60	53282
2026-01-20 16:03:57.06	178.08	0.98	-51.2	-63.4	3.6	8.45e-01	0	42	104	4599054336	60	53167
2026-01-20 16:04:01.10	178.23	0.74	-51.3	-63.5	3.6	8.45e-01	0	42	104	4599054336	60	53909
2026-01-20 16:04:05.14	178.37	0.50	-51.3	-63.4	3.6	8.44e-01	0	42	104	4599054336	60	53622
2026-01-20 16:04:09.18	178.50	0.26	-51.3	-63.4	3.6	8.46e-01	0	42	104	4599054336	60	53643
2026-01-20 16:04:13.21	178.64	0.03	-51.4	-63.5	3.6	8.44e-01	0	42	104	4599054336	60	54052

#Closed at: 2026-01-20 16:04:14
#Recorded file [4599 MB]: D:/lorett/data/35029_260121_034900.dat