passes_logs/2026/01/20/R4.6S_Anadyr/R4.6S_Anadyr__20260120_145056_SUOMI_NPP_rec.log

#Pass ID: 20260120_145056_SUOMI NPP
#Satellite: SUOMI NPP
#Configuration: NPP
#almurnet v.1.7.20251203
#Start time: 2026-01-20 14:50:57

#Version: 2.2.20231116
#Station: R4.6S_Anadyr
#Location: 177.4865 lon 64.73178 lat
#TLE: 1 37849U 11061A   26019.89702167  .00000121  00000+0  78274-4 0  9993
#TLE: 2 37849  98.7817 321.9035 0002338  55.0397 305.0998 14.19526700737401

#Time	Az	El	Level	Level2	SNR	BER	BlckErr	Temp	State	Recorded	gain1	gain2
2026-01-20 14:50:57.45	20.65	0.04	-51.9	-64.4	3.5	1.52e+00	0	39	0	0	60	58385
2026-01-20 14:51:01.49	20.66	0.28	-51.7	-67.1	3.6	1.51e+00	0	40	104	0	60	81859
2026-01-20 14:51:05.52	20.68	0.52	-51.6	-66.8	3.6	1.51e+00	0	41	104	0	60	79415
2026-01-20 14:51:09.56	20.69	0.77	-51.4	-66.7	3.6	1.51e+00	0	41	104	0	60	78382
2026-01-20 14:51:13.60	20.70	1.02	-51.1	-66.3	3.6	1.51e+00	0	41	104	0	60	74688
2026-01-20 14:51:17.65	20.72	1.27	-50.6	-65.9	3.6	1.51e+00	0	41	104	0	60	70938
2026-01-20 14:51:21.68	20.73	1.52	-49.8	-64.9	3.6	1.51e+00	0	41	104	0	60	63231
2026-01-20 14:51:25.72	20.74	1.78	-49.8	-65.0	3.6	1.51e+00	0	41	104	0	60	64430
2026-01-20 14:51:29.76	20.75	2.03	-49.8	-65.0	3.6	1.51e+00	0	41	104	0	60	64190
2026-01-20 14:51:33.80	20.77	2.29	-49.8	-65.0	3.6	1.51e+00	0	41	104	0	60	64200
2026-01-20 14:51:37.84	20.78	2.55	-49.8	-63.8	3.6	1.51e+00	0	41	104	0	60	56085
2026-01-20 14:51:41.87	20.79	2.82	-49.3	-58.6	5.6	6.35e-01	0	41	104	0	60	30735
2026-01-20 14:51:45.91	20.80	3.08	-47.8	-52.1	11.5	7.32e-03	85	41	0	7340032	60	14633
2026-01-20 14:51:49.95	20.81	3.35	-46.9	-50.5	12.8	5.30e-06	0	41	0	14680064	60	12110
2026-01-20 14:51:53.99	20.83	3.62	-47.8	-52.3	11.5	6.93e-02	0	41	0	22020096	60	14927
2026-01-20 14:51:58.03	20.84	3.90	-49.6	-64.2	3.6	3.40e-03	0	41	104	29360128	60	58513
2026-01-20 14:52:02.07	20.85	4.18	-46.9	-50.3	13.8	4.11e-05	0	41	0	29360128	60	11777
2026-01-20 14:52:06.10	20.86	4.45	-46.9	-50.2	13.7	1.50e-06	0	41	0	36700160	60	11636
2026-01-20 14:52:10.14	20.87	4.74	-47.0	-50.3	13.6	2.20e-06	0	41	0	45088768	60	11897
2026-01-20 14:52:14.18	20.88	5.02	-46.3	-49.0	15.0	0.00e+00	56	41	0	52428800	60	10219
2026-01-20 14:52:18.21	20.90	5.31	-45.9	-48.4	15.9	0.00e+00	0	41	0	59768832	60	9514
2026-01-20 14:52:22.25	20.91	5.60	-45.4	-47.6	16.6	0.00e+00	33	41	0	67108864	60	8645
2026-01-20 14:52:26.29	20.92	5.90	-44.8	-46.7	17.4	0.00e+00	0	41	0	74448896	60	7830
2026-01-20 14:52:30.33	20.93	6.20	-44.5	-46.3	18.0	0.00e+00	92	41	0	82837504	60	7445
2026-01-20 14:52:34.36	20.94	6.50	-43.9	-45.5	18.7	0.00e+00	0	41	0	90177536	60	6810
2026-01-20 14:52:38.40	20.95	6.81	-44.2	-45.8	18.5	0.00e+00	0	42	0	97517568	60	7086
2026-01-20 14:52:42.44	20.96	7.12	-44.5	-46.3	18.2	0.00e+00	0	41	0	104857600	60	7441
2026-01-20 14:52:46.47	20.97	7.43	-44.5	-46.2	18.4	0.00e+00	90	41	0	113246208	60	7378
2026-01-20 14:52:50.51	20.98	7.75	-44.3	-46.0	18.8	0.00e+00	0	42	0	120586240	60	7210
2026-01-20 14:52:54.54	20.99	8.07	-44.1	-45.7	18.8	0.00e+00	0	42	0	127926272	60	6944
2026-01-20 14:52:58.58	21.00	8.39	-43.9	-45.5	19.2	0.00e+00	58	42	0	135266304	60	6800
2026-01-20 14:53:02.62	21.01	8.72	-43.6	-45.1	19.6	0.00e+00	0	42	0	142606336	60	6507
2026-01-20 14:53:06.65	21.02	9.06	-44.3	-46.1	18.3	0.00e+00	0	42	0	150994944	60	7257
2026-01-20 14:53:10.68	21.02	9.40	-43.4	-44.9	19.6	0.00e+00	0	42	0	158334976	60	6325
2026-01-20 14:53:14.72	21.03	9.74	-43.6	-45.1	19.6	0.00e+00	92	42	0	165675008	60	6519
2026-01-20 14:53:18.76	21.04	10.09	-43.1	-44.4	20.0	0.00e+00	0	42	0	173015040	60	6032
2026-01-20 14:53:22.80	21.05	10.44	-42.9	-44.2	20.2	0.00e+00	0	42	0	180355072	60	5868
2026-01-20 14:53:26.84	21.06	10.80	-43.2	-44.6	20.0	0.00e+00	0	42	0	188743680	60	6140
2026-01-20 14:53:30.88	21.07	11.16	-42.8	-44.1	20.4	0.00e+00	63	42	0	196083712	58	6511
2026-01-20 14:53:34.92	21.07	11.53	-42.7	-44.0	20.6	0.00e+00	0	42	0	203423744	58	6391
2026-01-20 14:53:38.96	21.08	11.91	-42.1	-43.4	21.0	0.00e+00	0	42	0	210763776	58	5971
2026-01-20 14:53:42.99	21.09	12.29	-42.0	-43.2	21.1	0.00e+00	65	42	0	219152384	58	5873
2026-01-20 14:53:47.03	21.10	12.68	-42.0	-43.2	21.1	0.00e+00	29	42	0	226492416	58	5880
2026-01-20 14:53:51.06	21.10	13.07	-41.8	-43.0	21.4	0.00e+00	0	42	0	233832448	56	6407
2026-01-20 14:53:55.10	21.11	13.47	-41.8	-43.0	21.4	0.00e+00	0	42	0	241172480	56	6404
2026-01-20 14:53:59.14	21.11	13.87	-41.1	-42.2	22.2	0.00e+00	77	42	0	248512512	56	5842
2026-01-20 14:54:03.17	21.12	14.29	-41.0	-42.0	22.3	0.00e+00	0	42	0	256901120	56	5722
2026-01-20 14:54:07.21	21.12	14.71	-41.1	-42.2	22.1	0.00e+00	0	42	0	264241152	56	5851
2026-01-20 14:54:11.24	21.13	15.13	-41.2	-42.2	21.8	0.00e+00	0	42	0	271581184	56	5876
2026-01-20 14:54:15.28	21.13	15.57	-41.3	-42.3	22.2	0.00e+00	92	42	0	278921216	56	5933
2026-01-20 14:54:19.32	21.14	16.01	-40.7	-41.7	22.6	0.00e+00	0	42	0	287309824	54	6213
2026-01-20 14:54:23.35	21.14	16.46	-41.1	-42.1	22.3	0.00e+00	0	42	0	294649856	54	6504
2026-01-20 14:54:27.39	21.15	16.92	-40.8	-41.8	22.4	0.00e+00	17	42	0	301989888	54	6311
2026-01-20 14:54:31.42	21.15	17.39	-40.4	-41.3	22.9	0.00e+00	75	42	0	309329920	54	5952
2026-01-20 14:54:35.46	21.15	17.87	-40.1	-41.1	23.1	0.00e+00	0	42	0	316669952	54	5776
2026-01-20 14:54:39.49	21.15	18.36	-40.4	-41.4	23.0	0.00e+00	0	42	0	325058560	54	6005
2026-01-20 14:54:43.53	21.15	18.85	-40.6	-41.6	22.8	0.00e+00	58	42	0	332398592	54	6133
2026-01-20 14:54:47.57	21.16	19.36	-40.7	-41.7	22.7	0.00e+00	0	42	0	339738624	54	6198
2026-01-20 14:54:51.61	21.16	19.88	-40.8	-41.8	22.6	0.00e+00	0	42	0	347078656	54	6290
2026-01-20 14:54:55.64	21.16	20.41	-40.7	-41.7	22.7	0.00e+00	0	42	0	355467264	54	6191
2026-01-20 14:54:59.68	21.16	20.95	-40.6	-41.6	22.8	0.00e+00	72	42	0	362807296	54	6124
2026-01-20 14:55:03.72	21.15	21.50	-40.8	-41.9	22.5	0.00e+00	0	42	0	370147328	54	6320
2026-01-20 14:55:07.76	21.15	22.07	-40.9	-42.0	22.5	0.00e+00	0	42	0	377487360	54	6393
2026-01-20 14:55:11.79	21.15	22.64	-40.7	-41.7	22.7	0.00e+00	0	42	0	384827392	54	6183
2026-01-20 14:55:15.83	21.15	23.24	-40.8	-41.8	22.7	0.00e+00	71	42	0	393216000	54	6257
2026-01-20 14:55:19.86	21.14	23.84	-40.8	-41.8	22.8	0.00e+00	0	42	0	400556032	54	6252
2026-01-20 14:55:23.90	21.14	24.46	-40.7	-41.6	22.8	0.00e+00	0	42	0	407896064	54	6164
2026-01-20 14:55:27.94	21.13	25.10	-40.4	-41.3	23.0	0.00e+00	0	42	0	415236096	54	5944
2026-01-20 14:55:31.97	21.12	25.74	-40.5	-41.4	22.8	0.00e+00	18	42	0	423624704	54	6017
2026-01-20 14:55:36.00	21.12	26.41	-40.8	-41.7	22.7	0.00e+00	0	42	0	430964736	54	6232
2026-01-20 14:55:40.04	21.11	27.09	-40.8	-41.8	22.6	0.00e+00	0	42	0	438304768	54	6268
2026-01-20 14:55:44.07	21.10	27.79	-41.3	-42.3	22.3	0.00e+00	7	42	0	445644800	54	6630
2026-01-20 14:55:48.11	21.09	28.51	-41.7	-42.7	21.9	0.00e+00	0	42	0	452984832	56	6216
2026-01-20 14:55:52.15	21.08	29.25	-42.9	-44.2	20.8	0.00e+00	0	42	0	461373440	58	6541
2026-01-20 14:55:56.19	21.06	30.01	-42.5	-43.7	21.3	0.00e+00	33	42	0	468713472	58	6225
2026-01-20 14:56:00.23	21.05	30.79	-43.1	-44.4	20.6	0.00e+00	74	42	0	476053504	58	6737
2026-01-20 14:56:04.27	21.03	31.59	-43.0	-44.3	20.6	0.00e+00	0	42	0	483393536	58	6663
2026-01-20 14:56:08.31	21.01	32.42	-42.5	-43.7	21.2	0.00e+00	0	42	0	490733568	58	6190
2026-01-20 14:56:12.35	20.99	33.26	-43.1	-44.5	20.5	0.00e+00	0	42	0	499122176	58	6800
2026-01-20 14:56:16.38	20.97	34.13	-42.4	-43.6	21.4	0.00e+00	92	42	0	506462208	58	6118
2026-01-20 14:56:20.43	20.94	35.03	-41.2	-42.2	22.4	0.00e+00	0	42	0	513802240	56	5859
2026-01-20 14:56:24.46	20.92	35.95	-40.2	-41.1	23.3	0.00e+00	0	42	0	521142272	54	5790
2026-01-20 14:56:28.50	20.89	36.90	-39.5	-40.5	23.8	0.00e+00	0	42	0	529530880	52	6034
2026-01-20 14:56:32.53	20.86	37.88	-39.7	-40.6	23.8	0.00e+00	0	42	0	536870912	52	6139
2026-01-20 14:56:36.57	20.82	38.89	-39.1	-39.9	24.3	0.00e+00	0	42	0	544210944	52	5688
2026-01-20 14:56:40.61	20.78	39.93	-39.4	-40.2	24.1	0.00e+00	0	42	0	551550976	52	5876
2026-01-20 14:56:44.65	20.74	41.00	-39.4	-40.3	23.7	0.00e+00	88	42	0	558891008	52	5928
2026-01-20 14:56:48.69	20.69	42.10	-39.7	-40.6	23.7	0.00e+00	0	42	0	567279616	52	6168
2026-01-20 14:56:52.73	20.64	43.24	-40.6	-41.6	23.1	0.00e+00	0	42	0	574619648	52	6856
2026-01-20 14:56:56.76	20.59	44.41	-40.8	-41.8	22.9	0.00e+00	0	42	0	581959680	54	6257
2026-01-20 14:57:00.80	20.53	45.62	-42.6	-43.8	21.1	0.00e+00	92	42	0	589299712	56	7060
2026-01-20 14:57:04.84	20.46	46.86	-42.1	-43.2	21.8	0.00e+00	0	42	0	597688320	58	5846
2026-01-20 14:57:08.87	20.39	48.14	-42.6	-43.8	20.5	0.00e+00	0	42	0	605028352	58	6271
2026-01-20 14:57:12.91	20.30	49.47	-42.3	-43.5	21.5	0.00e+00	65	42	0	612368384	58	6088
2026-01-20 14:57:16.95	20.21	50.83	-40.9	-41.9	22.7	0.00e+00	80	42	0	619708416	56	5683
2026-01-20 14:57:20.98	20.11	52.23	-39.9	-40.8	23.5	0.00e+00	0	42	0	627048448	52	6278
2026-01-20 14:57:25.02	20.00	53.68	-38.5	-39.2	24.8	0.00e+00	0	42	0	635437056	50	5871
2026-01-20 14:57:29.05	19.87	55.16	-39.4	-40.3	24.0	0.00e+00	1	42	0	642777088	50	6624
2026-01-20 14:57:33.09	19.73	56.69	-39.7	-40.6	23.8	0.00e+00	0	42	0	650117120	50	6887
2026-01-20 14:57:37.13	19.57	58.27	-40.2	-41.1	23.3	0.00e+00	0	42	0	657457152	52	6520
2026-01-20 14:57:41.16	19.38	59.88	-41.4	-42.5	22.4	0.00e+00	0	42	0	664797184	56	6080
2026-01-20 14:57:45.20	19.17	61.54	-40.3	-41.2	23.3	0.00e+00	91	42	0	673185792	54	5888
2026-01-20 14:57:49.23	18.93	63.24	-37.5	-38.2	25.3	0.00e+00	33	42	0	680525824	48	5883
2026-01-20 14:57:53.27	18.64	64.99	-39.3	-40.2	24.0	0.00e+00	0	42	0	687865856	50	6581
2026-01-20 14:57:57.31	18.31	66.77	-40.4	-41.4	23.1	0.00e+00	0	42	0	695205888	54	5981
2026-01-20 14:58:01.33	17.91	68.58	-42.4	-43.5	21.6	0.00e+00	92	42	0	703594496	56	6795
2026-01-20 14:58:05.37	17.42	70.44	-45.2	-47.0	18.3	0.00e+00	0	42	0	710934528	60	8049
2026-01-20 14:58:09.40	16.82	72.33	-45.1	-47.0	18.5	0.00e+00	0	42	0	718274560	60	8057
2026-01-20 14:58:13.44	16.06	74.25	-42.4	-43.6	21.2	0.00e+00	0	42	0	725614592	58	6137
2026-01-20 14:58:17.48	15.07	76.20	-42.9	-44.1	20.7	0.00e+00	0	42	0	732954624	58	6506
2026-01-20 14:58:21.51	13.74	78.17	-44.5	-46.1	18.7	0.00e+00	0	42	0	741343232	60	7258
2026-01-20 14:58:25.55	11.85	80.16	-42.2	-43.4	21.9	0.00e+00	0	42	0	748683264	58	5968
2026-01-20 14:58:29.59	8.97	82.15	-42.7	-43.9	21.2	0.00e+00	66	42	0	756023296	58	6377
2026-01-20 14:58:33.63	4.11	84.12	-39.0	-39.8	24.4	0.00e+00	0	42	0	763363328	52	5596
2026-01-20 14:58:37.67	354.43	86.02	-39.3	-40.1	24.1	0.00e+00	0	42	0	771751936	52	5811
2026-01-20 14:58:41.71	329.69	87.63	-43.3	-44.6	20.1	0.00e+00	0	42	0	779091968	58	6891
2026-01-20 14:58:45.75	273.75	87.99	-44.4	-46.1	19.5	0.00e+00	92	42	0	786432000	60	7284
2026-01-20 14:58:49.79	237.69	86.67	-42.5	-43.6	21.2	0.00e+00	0	42	0	793772032	58	6127
2026-01-20 14:58:53.82	224.51	84.83	-39.8	-40.7	23.4	0.00e+00	0	42	0	801112064	52	6219
2026-01-20 14:58:57.86	218.40	82.87	-38.6	-39.4	24.6	0.00e+00	33	42	0	809500672	50	5969
2026-01-20 14:59:01.90	214.97	80.88	-39.5	-40.3	24.0	0.00e+00	82	42	0	816840704	52	5924
2026-01-20 14:59:05.94	212.78	78.89	-42.2	-43.4	21.5	0.00e+00	0	42	0	824180736	54	7514
2026-01-20 14:59:09.98	211.28	76.91	-40.0	-40.9	23.5	0.00e+00	0	42	0	831520768	54	5668
2026-01-20 14:59:14.02	210.18	74.95	-41.3	-42.4	22.4	0.00e+00	70	42	0	839909376	56	5983
2026-01-20 14:59:18.06	209.35	73.01	-41.9	-43.0	21.6	0.00e+00	0	42	0	847249408	56	6417
2026-01-20 14:59:22.10	208.69	71.11	-45.3	-47.3	18.1	0.00e+00	0	42	0	854589440	60	8332
2026-01-20 14:59:26.14	208.17	69.23	-43.6	-44.9	20.3	0.00e+00	0	42	0	861929472	60	6366
2026-01-20 14:59:30.17	207.74	67.40	-42.5	-43.7	21.5	0.00e+00	92	42	0	869269504	56	6938
2026-01-20 14:59:34.20	207.38	65.60	-40.0	-40.9	23.5	0.00e+00	0	42	0	877658112	52	6336
2026-01-20 14:59:38.24	207.08	63.84	-40.1	-41.0	23.3	0.00e+00	0	42	0	884998144	52	6456
2026-01-20 14:59:42.28	206.82	62.12	-38.8	-39.6	24.5	0.00e+00	0	42	0	892338176	52	5495
2026-01-20 14:59:46.32	206.59	60.44	-41.1	-42.2	22.4	0.00e+00	90	42	0	899678208	54	6570
2026-01-20 14:59:50.36	206.40	58.80	-40.8	-41.7	22.7	0.00e+00	0	42	0	907018240	54	6239
2026-01-20 14:59:54.39	206.23	57.21	-39.4	-40.2	24.2	0.00e+00	0	42	0	915406848	52	5845
2026-01-20 14:59:58.43	206.08	55.66	-38.1	-38.9	25.0	0.00e+00	0	42	0	922746880	50	5662
2026-01-20 15:00:02.47	205.95	54.16	-40.1	-41.1	23.3	0.00e+00	32	42	0	930086912	52	6467
2026-01-20 15:00:06.51	205.83	52.69	-40.6	-41.6	22.9	0.00e+00	0	42	0	937426944	54	6125
2026-01-20 15:00:10.55	205.72	51.27	-43.2	-44.7	20.6	0.00e+00	0	42	0	945815552	60	6184
2026-01-20 15:00:14.59	205.63	49.89	-42.3	-43.5	21.6	0.00e+00	62	42	0	953155584	56	6791
2026-01-20 15:00:18.63	205.54	48.54	-45.6	-47.7	17.8	0.00e+00	0	42	0	960495616	60	8748
2026-01-20 15:00:22.67	205.46	47.24	-40.7	-41.7	22.9	0.00e+00	0	42	0	967835648	56	5534
2026-01-20 15:00:26.71	205.39	45.98	-42.4	-43.6	20.6	0.00e+00	0	42	0	975175680	56	6915
2026-01-20 15:00:30.75	205.33	44.76	-46.7	-49.5	16.0	0.00e+00	92	42	0	983564288	60	10821
2026-01-20 15:00:34.78	205.27	43.57	-41.7	-42.8	22.1	0.00e+00	0	42	0	990904320	56	6256
2026-01-20 15:00:38.82	205.22	42.42	-42.4	-43.7	20.1	0.00e+00	0	42	0	998244352	56	6952
2026-01-20 15:00:42.86	205.17	41.30	-43.7	-45.2	20.2	0.00e+00	0	42	0	1005584384	60	6576
2026-01-20 15:00:46.90	205.13	40.22	-41.7	-42.8	22.2	0.00e+00	92	42	0	1013972992	58	5574
2026-01-20 15:00:50.93	205.08	39.17	-43.0	-44.3	20.8	0.00e+00	0	42	0	1021313024	58	6644
2026-01-20 15:00:54.97	205.05	38.14	-45.1	-46.9	19.0	0.00e+00	0	42	0	1028653056	60	8014
2026-01-20 15:00:59.01	205.01	37.15	-42.5	-43.7	21.5	0.00e+00	67	42	0	1035993088	58	6203
2026-01-20 15:01:03.05	204.98	36.19	-42.3	-43.4	21.7	0.00e+00	0	42	0	1043333120	58	6015
2026-01-20 15:01:07.08	204.95	35.26	-42.5	-43.6	21.4	0.00e+00	0	42	0	1051721728	56	6923
2026-01-20 15:01:11.12	204.93	34.35	-46.8	-49.3	15.6	0.00e+00	0	42	0	1059061760	60	10561
2026-01-20 15:01:15.16	204.90	33.47	-46.4	-48.8	16.6	0.00e+00	92	42	0	1066401792	60	9938
2026-01-20 15:01:19.20	204.88	32.61	-41.6	-42.6	22.2	0.00e+00	0	42	0	1073741824	58	5501
2026-01-20 15:01:23.23	204.86	31.78	-41.9	-43.0	21.9	0.00e+00	0	42	0	1082130432	56	6404
2026-01-20 15:01:27.27	204.84	30.97	-42.9	-44.2	21.0	0.00e+00	0	42	0	1089470464	58	6555
2026-01-20 15:01:31.31	204.82	30.18	-42.5	-43.6	21.2	0.00e+00	66	42	0	1096810496	58	6152
2026-01-20 15:01:35.34	204.81	29.41	-45.0	-46.7	18.6	0.00e+00	0	42	0	1104150528	60	7808
2026-01-20 15:01:39.38	204.79	28.66	-44.1	-45.5	19.9	0.00e+00	0	42	0	1111490560	60	6825
2026-01-20 15:01:43.42	204.78	27.94	-41.2	-42.2	22.6	0.00e+00	21	42	0	1119879168	56	5892
2026-01-20 15:01:47.45	204.77	27.23	-40.2	-41.1	23.5	0.00e+00	64	42	0	1127219200	54	5780
2026-01-20 15:01:51.49	204.76	26.54	-39.9	-40.8	23.7	0.00e+00	0	42	0	1134559232	54	5604
2026-01-20 15:01:55.53	204.75	25.86	-40.3	-41.2	23.5	0.00e+00	0	42	0	1141899264	52	6595
2026-01-20 15:01:59.56	204.74	25.21	-40.8	-41.7	23.1	0.00e+00	59	42	0	1150287872	54	6209
2026-01-20 15:02:03.60	204.73	24.56	-40.6	-41.6	23.1	0.00e+00	0	42	0	1157627904	54	6143
2026-01-20 15:02:07.64	204.72	23.94	-39.8	-40.7	23.5	0.00e+00	0	42	0	1164967936	52	6217
2026-01-20 15:02:11.68	204.72	23.33	-40.8	-41.8	22.8	0.00e+00	0	42	0	1172307968	54	6268
2026-01-20 15:02:15.72	204.71	22.73	-41.5	-42.5	22.1	0.00e+00	90	42	0	1179648000	54	6844
2026-01-20 15:02:19.75	204.71	22.15	-40.9	-41.9	22.6	0.00e+00	0	42	0	1188036608	54	6370
2026-01-20 15:02:23.79	204.70	21.57	-40.0	-41.0	23.3	0.00e+00	0	42	0	1195376640	54	5704
2026-01-20 15:02:27.82	204.70	21.02	-40.1	-41.1	23.3	0.00e+00	0	42	0	1202716672	52	6490
2026-01-20 15:02:31.86	204.70	20.47	-40.2	-41.2	23.1	0.00e+00	92	42	0	1210056704	52	6554
2026-01-20 15:02:35.90	204.69	19.94	-40.6	-41.6	22.8	0.00e+00	0	42	0	1217396736	54	6145
2026-01-20 15:02:39.94	204.69	19.41	-41.0	-42.0	22.5	0.00e+00	0	42	0	1225785344	54	6447
2026-01-20 15:02:43.98	204.69	18.90	-41.4	-42.5	22.1	0.00e+00	15	42	0	1233125376	54	6771
2026-01-20 15:02:48.02	204.69	18.40	-42.6	-43.8	20.9	0.00e+00	0	42	0	1240465408	56	7083
2026-01-20 15:02:52.05	204.69	17.91	-43.1	-44.4	20.5	0.00e+00	0	42	0	1247805440	58	6732
2026-01-20 15:02:56.08	204.69	17.43	-43.1	-44.4	20.4	0.00e+00	0	42	0	1256194048	58	6758
2026-01-20 15:03:00.12	204.69	16.95	-42.9	-44.2	20.6	0.00e+00	35	42	0	1263534080	58	6548
2026-01-20 15:03:04.16	204.69	16.49	-41.9	-43.1	21.4	0.00e+00	0	42	0	1270874112	58	5789
2026-01-20 15:03:08.19	204.69	16.03	-42.0	-43.1	21.6	0.00e+00	33	42	0	1278214144	56	6496
2026-01-20 15:03:12.23	204.69	15.59	-42.1	-43.3	21.7	0.00e+00	0	42	0	1285554176	56	6623
2026-01-20 15:03:16.27	204.70	15.15	-42.2	-43.4	21.4	0.00e+00	92	42	0	1293942784	56	6694
2026-01-20 15:03:20.31	204.70	14.72	-42.4	-43.6	21.2	0.00e+00	0	42	0	1301282816	58	6116
2026-01-20 15:03:24.34	204.70	14.29	-42.7	-43.9	20.9	0.00e+00	0	42	0	1308622848	58	6344
2026-01-20 15:03:28.38	204.70	13.88	-42.8	-44.1	20.6	0.00e+00	60	42	0	1315962880	58	6506
2026-01-20 15:03:32.42	204.71	13.47	-42.9	-44.1	20.7	0.00e+00	90	42	0	1324351488	58	6521
2026-01-20 15:03:36.45	204.71	13.07	-42.8	-44.0	20.8	0.00e+00	0	42	0	1331691520	58	6435
2026-01-20 15:03:40.49	204.71	12.67	-42.6	-43.8	21.0	0.00e+00	0	42	0	1339031552	58	6292
2026-01-20 15:03:44.53	204.72	12.28	-42.8	-44.1	20.6	0.00e+00	55	42	0	1346371584	58	6507
2026-01-20 15:03:48.57	204.72	11.90	-42.6	-43.8	20.9	0.00e+00	0	42	0	1353711616	58	6284
2026-01-20 15:03:52.61	204.73	11.52	-42.5	-43.7	20.9	0.00e+00	0	42	0	1362100224	58	6207
2026-01-20 15:03:56.65	204.73	11.15	-42.3	-43.5	21.0	0.00e+00	0	42	0	1369440256	58	6057
2026-01-20 15:04:00.68	204.74	10.78	-42.3	-43.5	21.1	0.00e+00	81	42	0	1376780288	58	6057
2026-01-20 15:04:04.71	204.74	10.42	-42.3	-43.6	21.0	0.00e+00	0	42	0	1384120320	58	6130
2026-01-20 15:04:08.75	204.75	10.07	-42.3	-43.5	21.0	0.00e+00	0	42	0	1392508928	58	6086
2026-01-20 15:04:12.79	204.75	9.71	-42.5	-43.8	20.9	0.00e+00	49	42	0	1399848960	58	6262
2026-01-20 15:04:16.82	204.76	9.37	-42.3	-43.5	21.0	0.00e+00	76	42	0	1407188992	58	6081
2026-01-20 15:04:20.86	204.76	9.03	-42.8	-44.1	20.4	0.00e+00	0	42	0	1414529024	58	6535
2026-01-20 15:04:24.89	204.77	8.69	-42.5	-43.8	20.6	0.00e+00	0	42	0	1421869056	58	6262
2026-01-20 15:04:28.93	204.77	8.36	-42.7	-44.0	20.6	0.00e+00	59	42	0	1430257664	58	6421
2026-01-20 15:04:32.97	204.78	8.03	-43.0	-44.4	20.1	0.00e+00	0	42	0	1437597696	58	6698
2026-01-20 15:04:37.01	204.79	7.71	-43.1	-44.5	20.0	0.00e+00	0	42	0	1444937728	58	6811
2026-01-20 15:04:41.05	204.79	7.39	-43.3	-44.7	19.8	0.00e+00	0	42	0	1452277760	58	6965
2026-01-20 15:04:45.09	204.80	7.07	-43.2	-44.6	19.6	0.00e+00	69	42	0	1460666368	58	6906
2026-01-20 15:04:49.13	204.81	6.76	-43.2	-44.6	19.6	0.00e+00	0	42	0	1468006400	58	6916
2026-01-20 15:04:53.16	204.81	6.46	-43.4	-44.8	19.6	0.00e+00	0	42	0	1475346432	58	7063
2026-01-20 15:04:57.20	204.82	6.15	-43.4	-44.8	19.4	0.00e+00	0	42	0	1482686464	60	6307
2026-01-20 15:05:01.23	204.83	5.85	-43.5	-45.0	19.4	0.00e+00	92	42	0	1490026496	60	6395
2026-01-20 15:05:05.26	204.83	5.55	-43.9	-45.4	19.0	0.00e+00	0	42	0	1498415104	60	6761
2026-01-20 15:05:09.29	204.84	5.26	-44.2	-45.8	18.6	0.00e+00	0	42	0	1505755136	60	7045
2026-01-20 15:05:13.33	204.85	4.97	-44.6	-46.3	18.4	0.00e+00	0	42	0	1513095168	60	7508
2026-01-20 15:05:17.36	204.86	4.68	-45.1	-47.1	17.2	0.00e+00	92	42	0	1520435200	60	8183
2026-01-20 15:05:21.40	204.86	4.40	-43.7	-45.3	18.6	0.00e+00	0	42	0	1527775232	60	6691
2026-01-20 15:05:25.44	204.87	4.12	-44.0	-45.8	18.0	0.00e+00	0	42	0	1536163840	60	7024
2026-01-20 15:05:29.47	204.88	3.84	-43.4	-45.0	18.9	0.00e+00	25	42	0	1543503872	60	6423
2026-01-20 15:05:33.51	204.89	3.56	-43.2	-44.8	19.0	0.00e+00	0	42	0	1550843904	58	7045
2026-01-20 15:05:37.55	204.90	3.29	-44.5	-46.5	17.8	0.00e+00	0	42	0	1558183936	60	7601
2026-01-20 15:05:41.58	204.90	3.02	-49.7	-63.6	3.6	3.00e-01	6	42	104	1565523968	60	54547
2026-01-20 15:05:45.62	204.91	2.75	-50.9	-66.0	3.6	1.51e+00	0	42	104	1565523968	60	72429
2026-01-20 15:05:49.66	204.92	2.49	-51.3	-66.5	3.6	1.51e+00	0	42	104	1565523968	60	76195
2026-01-20 15:05:53.70	204.93	2.22	-50.8	-66.6	3.6	1.51e+00	0	42	104	1565523968	60	76927
2026-01-20 15:05:57.73	204.94	1.96	-51.3	-66.5	3.6	1.51e+00	0	42	104	1565523968	60	76656
2026-01-20 15:06:01.77	204.95	1.71	-51.2	-66.5	3.6	1.51e+00	0	42	104	1565523968	60	76621
2026-01-20 15:06:05.81	204.95	1.45	-51.4	-66.6	3.6	1.51e+00	0	42	104	1565523968	60	77181
2026-01-20 15:06:09.85	204.96	1.20	-51.5	-66.7	3.6	1.51e+00	0	42	104	1565523968	60	78104
2026-01-20 15:06:13.89	204.97	0.95	-51.5	-66.7	3.6	1.51e+00	0	42	104	1565523968	60	78013
2026-01-20 15:06:17.93	204.98	0.70	-51.4	-66.6	3.6	1.51e+00	0	42	104	1565523968	60	77655
2026-01-20 15:06:21.97	204.99	0.45	-51.4	-66.6	3.6	1.51e+00	0	42	104	1565523968	60	77587
2026-01-20 15:06:26.01	205.00	0.20	-51.3	-66.5	3.6	1.51e+00	0	42	104	1565523968	60	76811

#Closed at: 2026-01-20 15:06:29
#Recorded file [1565 MB]: D:/lorett/data/35029_260121_025057.dat