passes_logs/2026/01/20/R4.6S_Anadyr/R4.6S_Anadyr__20260120_230622_SUOMI_NPP_rec.log

#Pass ID: 20260120_230622_SUOMI NPP
#Satellite: SUOMI NPP
#Configuration: NPP
#almurnet v.1.7.20251203
#Start time: 2026-01-20 23:06:27

#Version: 2.2.20231116
#Station: R4.6S_Anadyr
#Location: 177.4865 lon 64.73178 lat
#TLE: 1 37849U 11061A   26020.31993517  .00000142  00000+0  88240-4 0  9990
#TLE: 2 37849  98.7818 322.3228 0002330  54.3778 305.7615 14.19527005737466

#Time	Az	El	Level	Level2	SNR	BER	BlckErr	Temp	State	Recorded	gain1	gain2
2026-01-20 23:06:27.76	127.10	0.29	-51.6	-53.2	5.7	0.00e+00	0	39	0	0	60	55797
2026-01-20 23:06:31.80	126.99	0.53	-51.3	-66.5	3.6	1.51e+00	0	40	104	0	60	76512
2026-01-20 23:06:35.84	126.87	0.77	-51.2	-66.4	3.6	1.51e+00	0	41	104	0	60	75517
2026-01-20 23:06:39.88	126.74	1.01	-51.0	-66.3	3.6	1.51e+00	0	41	104	0	60	74336
2026-01-20 23:06:43.92	126.62	1.26	-50.8	-65.9	3.6	1.51e+00	0	41	104	0	60	71605
2026-01-20 23:06:47.96	126.49	1.50	-50.1	-65.3	3.6	1.51e+00	0	41	104	0	60	66454
2026-01-20 23:06:52.00	126.36	1.75	-49.7	-64.9	3.6	1.51e+00	0	41	104	0	60	63640
2026-01-20 23:06:56.04	126.23	2.00	-49.7	-64.9	3.6	1.51e+00	0	41	104	0	60	63403
2026-01-20 23:07:00.08	126.10	2.26	-49.7	-64.6	3.6	1.51e+00	0	41	104	0	60	61529
2026-01-20 23:07:04.13	125.96	2.51	-49.7	-64.9	3.6	1.51e+00	0	41	104	0	60	63720
2026-01-20 23:07:08.17	125.82	2.77	-49.7	-64.8	3.6	1.51e+00	0	41	104	0	60	62841
2026-01-20 23:07:12.21	125.68	3.03	-49.6	-64.1	3.6	1.51e+00	0	41	104	0	60	57765
2026-01-20 23:07:16.25	125.54	3.29	-49.6	-64.7	3.6	1.51e+00	0	41	104	0	60	62424
2026-01-20 23:07:20.29	125.39	3.56	-49.1	-57.4	5.6	7.79e-01	0	41	0	0	60	26898
2026-01-20 23:07:24.33	125.24	3.82	-49.6	-64.6	3.7	1.51e+00	0	41	104	6291456	60	61278
2026-01-20 23:07:28.37	125.08	4.09	-42.7	-44.2	18.3	4.79e-01	0	41	104	8388608	60	5843
2026-01-20 23:07:32.41	124.93	4.36	-43.1	-44.7	19.1	0.00e+00	0	41	0	14680064	58	6972
2026-01-20 23:07:36.45	124.77	4.64	-42.7	-44.2	19.7	0.00e+00	0	41	0	22020096	58	6545
2026-01-20 23:07:40.49	124.61	4.91	-42.6	-43.9	19.9	0.00e+00	0	41	0	30408704	56	7170
2026-01-20 23:07:44.53	124.44	5.19	-43.5	-45.2	18.7	0.00e+00	0	41	0	37748736	60	6567
2026-01-20 23:07:48.58	124.27	5.48	-43.8	-45.5	18.6	0.00e+00	0	41	0	45088768	60	6818
2026-01-20 23:07:52.62	124.10	5.76	-43.0	-44.5	19.4	0.00e+00	0	41	0	52428800	60	6074
2026-01-20 23:07:56.65	123.92	6.05	-42.5	-43.9	20.0	0.00e+00	0	41	0	60817408	58	6336
2026-01-20 23:08:00.68	123.74	6.34	-43.1	-44.6	19.4	0.00e+00	0	41	0	68157440	58	6876
2026-01-20 23:08:04.72	123.56	6.63	-43.0	-44.5	19.5	0.00e+00	0	41	0	75497472	58	6786
2026-01-20 23:08:08.76	123.37	6.93	-42.0	-43.2	20.7	0.00e+00	0	41	0	82837504	58	5871
2026-01-20 23:08:12.80	123.18	7.23	-42.4	-43.7	20.4	0.00e+00	0	41	0	90177536	58	6181
2026-01-20 23:08:16.83	122.98	7.53	-42.7	-44.1	20.0	0.00e+00	0	41	0	98566144	58	6529
2026-01-20 23:08:20.87	122.78	7.84	-42.3	-43.6	20.4	0.00e+00	0	41	0	105906176	58	6171
2026-01-20 23:08:24.91	122.57	8.15	-41.7	-42.8	21.3	0.00e+00	0	41	0	113246208	56	6278
2026-01-20 23:08:28.94	122.36	8.46	-42.0	-43.2	20.9	0.00e+00	0	41	0	120586240	56	6576
2026-01-20 23:08:32.98	122.15	8.78	-42.2	-43.5	20.8	0.00e+00	0	41	0	128974848	56	6771
2026-01-20 23:08:37.02	121.93	9.10	-42.0	-43.2	21.0	0.00e+00	0	41	0	136314880	56	6566
2026-01-20 23:08:41.05	121.70	9.42	-41.8	-42.9	21.1	0.00e+00	0	41	0	143654912	56	6388
2026-01-20 23:08:45.09	121.47	9.75	-42.1	-43.3	20.9	0.00e+00	0	41	0	150994944	56	6662
2026-01-20 23:08:49.12	121.23	10.08	-41.8	-43.0	21.2	0.00e+00	0	41	0	158334976	56	6402
2026-01-20 23:08:53.16	120.99	10.42	-41.9	-43.1	21.2	0.00e+00	0	41	0	166723584	56	6491
2026-01-20 23:08:57.20	120.74	10.76	-41.9	-43.0	21.2	0.00e+00	0	41	0	174063616	56	6451
2026-01-20 23:09:01.24	120.49	11.10	-41.7	-42.9	21.5	0.00e+00	0	41	0	181403648	56	6325
2026-01-20 23:09:05.27	120.23	11.45	-41.1	-42.2	22.0	0.00e+00	0	41	0	188743680	56	5852
2026-01-20 23:09:09.31	119.96	11.80	-41.7	-42.9	21.4	0.00e+00	0	41	0	197132288	56	6324
2026-01-20 23:09:13.35	119.69	12.16	-41.4	-42.5	21.6	0.00e+00	0	41	0	204472320	56	6097
2026-01-20 23:09:17.39	119.41	12.52	-41.3	-42.4	21.9	0.00e+00	0	41	0	211812352	56	5998
2026-01-20 23:09:21.43	119.12	12.89	-41.6	-42.8	21.5	0.00e+00	0	41	0	219152384	56	6276
2026-01-20 23:09:25.46	118.82	13.26	-41.0	-42.0	22.2	0.00e+00	0	41	0	226492416	56	5736
2026-01-20 23:09:29.50	118.52	13.64	-41.2	-42.3	21.9	0.00e+00	0	41	0	234881024	56	5915
2026-01-20 23:09:33.54	118.21	14.02	-41.2	-42.3	21.9	0.00e+00	0	41	0	242221056	56	5963
2026-01-20 23:09:37.58	117.89	14.40	-41.1	-42.2	22.1	0.00e+00	0	41	0	249561088	56	5829
2026-01-20 23:09:41.61	117.56	14.79	-41.2	-42.2	22.1	0.00e+00	0	41	0	256901120	56	5875
2026-01-20 23:09:45.64	117.22	15.19	-41.9	-43.1	21.3	0.00e+00	0	41	0	265289728	56	6536
2026-01-20 23:09:49.68	116.87	15.59	-41.4	-42.6	21.7	0.00e+00	0	41	0	272629760	56	6142
2026-01-20 23:09:53.72	116.52	16.00	-41.1	-42.2	22.0	0.00e+00	0	41	0	279969792	56	5896
2026-01-20 23:09:57.76	116.15	16.42	-41.1	-42.1	22.0	0.00e+00	0	41	0	287309824	56	5798
2026-01-20 23:10:01.80	115.77	16.84	-41.3	-42.3	22.0	0.00e+00	0	41	0	294649856	56	5963
2026-01-20 23:10:05.84	115.38	17.26	-41.2	-42.3	22.0	0.00e+00	0	41	0	303038464	56	5937
2026-01-20 23:10:09.88	114.98	17.70	-40.8	-41.8	22.3	0.00e+00	0	41	0	310378496	56	5623
2026-01-20 23:10:13.91	114.57	18.13	-41.1	-42.2	22.1	0.00e+00	0	41	0	317718528	56	5871
2026-01-20 23:10:17.95	114.14	18.58	-41.1	-42.1	22.2	0.00e+00	0	41	0	325058560	56	5819
2026-01-20 23:10:21.99	113.70	19.03	-41.4	-42.5	21.9	0.00e+00	0	41	0	333447168	56	6037
2026-01-20 23:10:26.03	113.25	19.49	-41.2	-42.3	22.0	0.00e+00	0	41	0	340787200	56	5902
2026-01-20 23:10:30.07	112.78	19.95	-40.5	-41.4	22.7	0.00e+00	0	41	0	348127232	54	6032
2026-01-20 23:10:34.10	112.30	20.42	-40.9	-42.0	22.3	0.00e+00	0	41	0	355467264	54	6425
2026-01-20 23:10:38.14	111.81	20.90	-40.8	-41.8	22.4	0.00e+00	0	41	0	362807296	54	6283
2026-01-20 23:10:42.18	111.29	21.38	-42.0	-43.2	21.2	0.00e+00	0	41	0	371195904	56	6584
2026-01-20 23:10:46.22	110.76	21.87	-41.8	-42.9	21.5	0.00e+00	0	41	0	378535936	56	6387
2026-01-20 23:10:50.26	110.22	22.37	-41.4	-42.5	22.0	0.00e+00	0	41	0	385875968	56	6049
2026-01-20 23:10:54.30	109.65	22.88	-41.5	-42.6	21.9	0.00e+00	0	41	0	393216000	56	6112
2026-01-20 23:10:58.33	109.07	23.39	-41.8	-43.0	21.7	0.00e+00	0	41	0	401604608	56	6392
2026-01-20 23:11:02.37	108.46	23.90	-42.1	-43.3	21.3	0.00e+00	0	41	0	408944640	56	6659
2026-01-20 23:11:06.41	107.84	24.43	-41.0	-42.0	22.5	0.00e+00	0	41	0	416284672	56	5756
2026-01-20 23:11:10.45	107.19	24.96	-41.2	-42.3	22.2	0.00e+00	0	41	0	423624704	56	5916
2026-01-20 23:11:14.49	106.52	25.50	-41.6	-42.7	21.8	0.00e+00	0	41	0	430964736	56	6219
2026-01-20 23:11:18.53	105.83	26.05	-41.8	-42.9	21.7	0.00e+00	0	41	0	439353344	56	6340
2026-01-20 23:11:22.57	105.11	26.60	-42.2	-43.3	21.3	0.00e+00	0	41	0	446693376	56	6661
2026-01-20 23:11:26.60	104.37	27.15	-42.3	-43.4	21.3	0.00e+00	0	41	0	454033408	56	6749
2026-01-20 23:11:30.64	103.60	27.72	-41.7	-42.9	21.6	0.00e+00	0	41	0	461373440	58	5631
2026-01-20 23:11:34.68	102.80	28.29	-42.4	-43.6	21.0	0.00e+00	0	41	0	469762048	56	6914
2026-01-20 23:11:38.72	101.97	28.86	-43.0	-44.3	20.7	0.00e+00	0	41	0	477102080	58	6623
2026-01-20 23:11:42.75	101.12	29.44	-43.8	-45.2	19.8	0.00e+00	0	41	0	484442112	60	6591
2026-01-20 23:11:46.79	100.23	30.02	-44.8	-46.6	18.5	0.00e+00	0	41	0	491782144	60	7728
2026-01-20 23:11:50.83	99.30	30.61	-43.6	-45.0	19.8	0.00e+00	0	41	0	499122176	60	6453
2026-01-20 23:11:54.87	98.34	31.20	-44.4	-45.9	19.2	0.00e+00	0	41	0	507510784	60	7137
2026-01-20 23:11:58.90	97.35	31.80	-43.8	-45.2	19.9	0.00e+00	0	41	0	514850816	60	6564
2026-01-20 23:12:02.94	96.32	32.39	-44.3	-46.0	19.2	0.00e+00	0	41	0	522190848	60	7184
2026-01-20 23:12:06.98	95.25	32.99	-43.0	-44.3	20.8	0.00e+00	0	41	0	529530880	60	5906
2026-01-20 23:12:11.01	94.14	33.58	-41.9	-43.0	21.8	0.00e+00	0	41	0	536870912	56	6392
2026-01-20 23:12:15.04	92.99	34.17	-43.2	-44.6	20.4	0.00e+00	0	41	0	545259520	58	6866
2026-01-20 23:12:19.06	91.81	34.76	-43.1	-44.4	20.2	0.00e+00	0	41	0	552599552	60	5998
2026-01-20 23:12:23.10	90.57	35.35	-43.4	-44.8	20.3	0.00e+00	0	41	0	559939584	60	6283
2026-01-20 23:12:27.14	89.28	35.94	-43.6	-45.0	20.1	0.00e+00	0	41	0	567279616	60	6406
2026-01-20 23:12:31.17	87.95	36.51	-43.9	-45.4	19.7	0.00e+00	0	41	0	574619648	60	6716
2026-01-20 23:12:35.21	86.57	37.08	-44.6	-46.3	18.9	0.00e+00	0	41	0	583008256	60	7499
2026-01-20 23:12:39.24	85.15	37.64	-43.6	-45.0	20.1	0.00e+00	0	41	0	590348288	60	6400
2026-01-20 23:12:43.28	83.67	38.19	-42.0	-43.1	21.7	0.00e+00	0	41	0	597688320	58	5782
2026-01-20 23:12:47.31	82.15	38.72	-42.5	-43.7	21.1	0.00e+00	0	41	0	605028352	56	7006
2026-01-20 23:12:51.36	80.57	39.24	-42.1	-43.2	21.6	0.00e+00	0	41	0	613416960	58	5881
2026-01-20 23:12:55.39	78.94	39.73	-41.8	-42.9	21.8	0.00e+00	0	41	0	620756992	56	6350
2026-01-20 23:12:59.43	77.26	40.21	-40.9	-42.0	22.6	0.00e+00	0	41	0	628097024	56	5707
2026-01-20 23:13:03.47	75.54	40.67	-41.0	-42.0	22.7	0.00e+00	0	41	0	635437056	54	6459
2026-01-20 23:13:07.51	73.76	41.10	-41.1	-42.1	22.4	0.00e+00	0	41	0	642777088	56	5815
2026-01-20 23:13:11.55	71.94	41.50	-39.6	-40.4	23.9	0.00e+00	0	41	0	651165696	52	6022
2026-01-20 23:13:15.58	70.08	41.87	-39.6	-40.4	23.8	0.00e+00	0	41	0	658505728	52	6030
2026-01-20 23:13:19.62	68.17	42.22	-41.8	-43.0	21.9	0.00e+00	0	41	0	665845760	56	6408
2026-01-20 23:13:23.66	66.22	42.53	-41.3	-42.4	22.2	0.00e+00	0	41	0	673185792	54	6704
2026-01-20 23:13:27.70	64.24	42.80	-40.9	-41.8	22.9	0.00e+00	0	41	0	681574400	54	6300
2026-01-20 23:13:31.74	62.23	43.03	-41.8	-42.9	21.8	0.00e+00	0	41	0	688914432	54	7105
2026-01-20 23:13:35.78	60.19	43.23	-41.0	-42.0	22.7	0.00e+00	0	41	0	696254464	56	5723
2026-01-20 23:13:39.81	58.13	43.39	-42.0	-43.1	21.7	0.00e+00	0	41	0	703594496	56	6535
2026-01-20 23:13:43.85	56.05	43.50	-42.4	-43.6	21.3	0.00e+00	0	41	0	710934528	56	6924
2026-01-20 23:13:47.89	53.95	43.57	-42.0	-43.1	21.6	0.00e+00	0	41	0	719323136	56	6526
2026-01-20 23:13:51.93	51.85	43.60	-41.9	-43.1	21.9	0.00e+00	0	41	0	726663168	58	5779
2026-01-20 23:13:55.97	49.75	43.59	-42.9	-44.2	20.9	0.00e+00	0	41	0	734003200	58	6560
2026-01-20 23:14:00.01	47.66	43.53	-44.1	-45.7	19.5	0.00e+00	0	41	0	741343232	60	6932
2026-01-20 23:14:04.04	45.58	43.43	-43.8	-45.3	19.9	0.00e+00	0	41	0	749731840	60	6642
2026-01-20 23:14:08.08	43.51	43.29	-43.1	-44.5	20.6	0.00e+00	0	41	0	757071872	60	6061
2026-01-20 23:14:12.12	41.46	43.10	-44.1	-45.6	19.7	0.00e+00	0	41	0	764411904	60	6903
2026-01-20 23:14:16.16	39.44	42.88	-44.1	-45.7	19.4	0.00e+00	0	42	0	771751936	60	6997
2026-01-20 23:14:20.19	37.45	42.62	-41.7	-42.7	22.2	0.00e+00	0	41	0	779091968	56	6233
2026-01-20 23:14:24.23	35.50	42.33	-41.1	-42.1	22.5	0.00e+00	0	41	0	787480576	56	5824
2026-01-20 23:14:28.26	33.58	42.00	-40.0	-40.9	23.5	0.00e+00	0	41	0	794820608	52	6332
2026-01-20 23:14:32.30	31.71	41.63	-39.9	-40.8	23.5	0.00e+00	0	41	0	802160640	54	5570
2026-01-20 23:14:36.34	29.87	41.24	-41.2	-42.2	22.4	0.00e+00	0	42	0	809500672	54	6603
2026-01-20 23:14:40.38	28.08	40.82	-39.2	-40.0	24.1	0.00e+00	0	42	0	817889280	52	5753
2026-01-20 23:14:44.41	26.35	40.37	-39.3	-40.2	23.9	0.00e+00	0	41	0	825229312	50	6542
2026-01-20 23:14:48.45	24.66	39.90	-38.5	-39.3	24.6	0.00e+00	0	42	0	832569344	50	5937
2026-01-20 23:14:52.48	23.02	39.41	-39.2	-40.1	24.0	0.00e+00	0	42	0	839909376	50	6468
2026-01-20 23:14:56.52	21.43	38.90	-38.3	-39.1	24.6	0.00e+00	0	41	0	847249408	50	5785
2026-01-20 23:15:00.56	19.89	38.38	-39.6	-40.5	23.8	0.00e+00	0	41	0	855638016	50	6807
2026-01-20 23:15:04.60	18.40	37.84	-39.8	-40.7	23.6	0.00e+00	0	41	0	862978048	52	6202
2026-01-20 23:15:08.64	16.96	37.28	-40.7	-41.7	22.9	0.00e+00	0	42	0	870318080	56	5519
2026-01-20 23:15:12.68	15.56	36.72	-40.5	-41.5	23.0	0.00e+00	0	41	0	877658112	54	6034
2026-01-20 23:15:16.72	14.22	36.15	-40.5	-41.5	23.1	0.00e+00	0	42	0	884998144	54	6043
2026-01-20 23:15:20.76	12.92	35.57	-40.8	-41.8	22.8	0.00e+00	0	41	0	893386752	54	6264
2026-01-20 23:15:24.80	11.67	34.98	-41.4	-42.5	22.1	0.00e+00	0	42	0	900726784	54	6790
2026-01-20 23:15:28.84	10.47	34.39	-40.9	-41.9	22.9	0.00e+00	0	42	0	908066816	54	6327
2026-01-20 23:15:32.87	9.31	33.80	-42.6	-43.8	21.3	0.00e+00	0	41	0	915406848	56	7053
2026-01-20 23:15:36.91	8.19	33.21	-44.6	-46.2	19.1	0.00e+00	0	41	0	923795456	60	7409
2026-01-20 23:15:40.95	7.11	32.62	-44.1	-45.6	19.6	0.00e+00	0	42	0	931135488	60	6899
2026-01-20 23:15:44.99	6.07	32.02	-44.1	-45.5	19.9	0.00e+00	0	42	0	938475520	60	6806
2026-01-20 23:15:49.03	5.06	31.43	-42.9	-44.1	20.9	0.00e+00	0	42	0	945815552	58	6476
2026-01-20 23:15:53.06	4.10	30.84	-43.7	-45.1	20.2	0.00e+00	0	42	0	953155584	60	6466
2026-01-20 23:15:57.10	3.17	30.26	-41.9	-43.0	21.8	0.00e+00	0	41	0	961544192	56	6442
2026-01-20 23:16:01.14	2.27	29.67	-43.0	-44.3	20.7	0.00e+00	0	42	0	968884224	58	6628
2026-01-20 23:16:05.17	1.40	29.10	-42.0	-43.0	21.8	0.00e+00	0	42	0	976224256	58	5761
2026-01-20 23:16:09.21	0.57	28.52	-42.3	-43.5	21.4	0.00e+00	0	41	0	983564288	58	6073
2026-01-20 23:16:13.25	359.77	27.95	-42.3	-43.5	21.4	0.00e+00	0	41	0	991952896	58	6059
2026-01-20 23:16:17.29	358.99	27.39	-41.9	-43.0	21.9	0.00e+00	0	41	0	999292928	58	5708
2026-01-20 23:16:21.33	358.24	26.83	-41.2	-42.2	22.5	0.00e+00	0	41	0	1006632960	56	5863
2026-01-20 23:16:25.36	357.52	26.28	-42.0	-43.1	21.7	0.00e+00	0	42	0	1013972992	56	6487
2026-01-20 23:16:29.40	356.82	25.73	-42.4	-43.5	21.4	0.00e+00	0	42	0	1021313024	58	6094
2026-01-20 23:16:33.43	356.15	25.20	-40.4	-41.3	23.2	0.00e+00	0	42	0	1029701632	54	5936
2026-01-20 23:16:37.47	355.50	24.66	-41.3	-42.4	22.2	0.00e+00	0	42	0	1037041664	54	6703
2026-01-20 23:16:41.50	354.87	24.14	-42.1	-43.2	21.6	0.00e+00	0	42	0	1044381696	56	6582
2026-01-20 23:16:45.54	354.26	23.62	-42.8	-44.1	20.8	0.00e+00	0	42	0	1051721728	58	6497
2026-01-20 23:16:49.58	353.67	23.11	-43.6	-44.9	20.2	0.00e+00	0	42	0	1060110336	60	6385
2026-01-20 23:16:53.62	353.10	22.60	-41.7	-42.8	22.0	0.00e+00	0	42	0	1067450368	58	5579
2026-01-20 23:16:57.66	352.55	22.11	-41.0	-42.0	22.7	0.00e+00	0	42	0	1074790400	56	5713
2026-01-20 23:17:01.70	352.02	21.61	-41.2	-42.2	22.3	0.00e+00	0	42	0	1082130432	56	5882
2026-01-20 23:17:05.74	351.50	21.13	-41.5	-42.6	22.0	0.00e+00	0	42	0	1089470464	56	6152
2026-01-20 23:17:09.77	351.01	20.65	-41.1	-42.1	22.4	0.00e+00	0	42	0	1097859072	56	5810
2026-01-20 23:17:13.81	350.52	20.18	-41.3	-42.3	22.3	0.00e+00	0	42	0	1105199104	56	5963
2026-01-20 23:17:17.84	350.05	19.72	-43.0	-44.3	20.4	0.00e+00	0	42	0	1112539136	58	6669
2026-01-20 23:17:21.89	349.60	19.26	-43.7	-45.1	20.0	0.00e+00	0	42	0	1119879168	60	6506
2026-01-20 23:17:25.93	349.16	18.81	-42.5	-43.8	21.1	0.00e+00	0	42	0	1128267776	58	6264
2026-01-20 23:17:29.97	348.73	18.36	-42.2	-43.4	21.3	0.00e+00	0	42	0	1135607808	58	6007
2026-01-20 23:17:34.00	348.32	17.92	-41.8	-42.9	21.7	0.00e+00	0	42	0	1142947840	56	6363
2026-01-20 23:17:38.04	347.91	17.49	-42.1	-43.3	21.4	0.00e+00	0	42	0	1150287872	56	6623
2026-01-20 23:17:42.07	347.52	17.06	-42.1	-43.3	21.4	0.00e+00	0	41	0	1157627904	56	6650
2026-01-20 23:17:46.11	347.14	16.64	-42.4	-43.6	21.2	0.00e+00	0	42	0	1166016512	56	6866
2026-01-20 23:17:50.15	346.77	16.23	-42.1	-43.2	21.5	0.00e+00	0	42	0	1173356544	56	6599
2026-01-20 23:17:54.19	346.42	15.82	-42.3	-43.6	21.1	0.00e+00	0	42	0	1180696576	56	6849
2026-01-20 23:17:58.23	346.07	15.42	-43.0	-44.3	20.6	0.00e+00	0	42	0	1188036608	58	6640
2026-01-20 23:18:02.26	345.73	15.02	-43.2	-44.5	20.3	0.00e+00	0	42	0	1196425216	58	6829
2026-01-20 23:18:06.29	345.40	14.63	-43.0	-44.3	20.5	0.00e+00	0	42	0	1203765248	58	6656
2026-01-20 23:18:10.33	345.08	14.24	-42.3	-43.5	21.1	0.00e+00	0	42	0	1211105280	58	6060
2026-01-20 23:18:14.37	344.77	13.86	-41.9	-43.0	21.5	0.00e+00	0	42	0	1218445312	58	5730
2026-01-20 23:18:18.41	344.46	13.48	-41.9	-43.0	21.6	0.00e+00	0	42	0	1225785344	56	6418
2026-01-20 23:18:22.45	344.17	13.11	-42.0	-43.2	21.3	0.00e+00	0	42	0	1234173952	56	6579
2026-01-20 23:18:26.49	343.88	12.74	-42.4	-43.6	20.9	0.00e+00	0	42	0	1241513984	56	6898
2026-01-20 23:18:30.53	343.60	12.38	-42.7	-44.1	20.5	0.00e+00	0	42	0	1248854016	58	6470
2026-01-20 23:18:34.57	343.32	12.02	-42.7	-44.1	20.4	0.00e+00	0	42	0	1256194048	58	6476
2026-01-20 23:18:38.61	343.06	11.67	-43.1	-44.5	20.1	0.00e+00	0	42	0	1264582656	58	6843
2026-01-20 23:18:42.65	342.80	11.32	-43.4	-44.8	19.9	0.00e+00	0	42	0	1271922688	58	7044
2026-01-20 23:18:46.69	342.54	10.97	-43.4	-44.8	19.8	0.00e+00	0	42	0	1279262720	58	7080
2026-01-20 23:18:50.73	342.30	10.63	-43.3	-44.8	19.8	0.00e+00	0	42	0	1286602752	58	7010
2026-01-20 23:18:54.77	342.06	10.30	-43.4	-44.9	19.7	0.00e+00	0	42	0	1293942784	58	7091
2026-01-20 23:18:58.80	341.82	9.96	-43.3	-44.7	19.8	0.00e+00	0	42	0	1302331392	58	6972
2026-01-20 23:19:02.85	341.59	9.64	-43.0	-44.4	20.0	0.00e+00	0	42	0	1309671424	58	6760
2026-01-20 23:19:06.88	341.37	9.31	-43.2	-44.6	19.9	0.00e+00	0	42	0	1317011456	58	6874
2026-01-20 23:19:10.92	341.15	8.99	-43.0	-44.4	20.1	0.00e+00	0	42	0	1324351488	58	6706
2026-01-20 23:19:14.96	340.93	8.67	-43.5	-45.1	19.4	0.00e+00	0	42	0	1332740096	58	7296
2026-01-20 23:19:19.00	340.72	8.36	-43.7	-45.3	19.2	0.00e+00	0	42	0	1340080128	60	6665
2026-01-20 23:19:23.04	340.52	8.05	-44.1	-45.8	18.8	0.00e+00	0	42	0	1347420160	60	7020
2026-01-20 23:19:27.08	340.32	7.74	-44.1	-45.8	18.7	0.00e+00	0	42	0	1354760192	60	7032
2026-01-20 23:19:31.11	340.12	7.44	-44.5	-46.4	18.0	0.00e+00	0	42	0	1362100224	60	7546
2026-01-20 23:19:35.15	339.93	7.14	-44.7	-46.6	17.9	0.00e+00	0	42	0	1370488832	60	7738
2026-01-20 23:19:39.19	339.75	6.84	-44.6	-46.5	17.9	0.00e+00	0	42	0	1377828864	60	7675
2026-01-20 23:19:43.23	339.56	6.55	-44.7	-46.7	17.7	0.00e+00	0	42	0	1385168896	60	7777
2026-01-20 23:19:47.27	339.39	6.26	-44.7	-46.7	17.8	0.00e+00	0	42	0	1392508928	60	7785
2026-01-20 23:19:51.31	339.21	5.97	-44.7	-46.7	17.5	0.00e+00	0	42	0	1400897536	60	7784
2026-01-20 23:19:55.34	339.04	5.68	-44.6	-46.6	17.5	0.00e+00	0	42	0	1408237568	60	7721
2026-01-20 23:19:59.38	338.87	5.40	-45.0	-47.2	16.6	0.00e+00	0	42	0	1415577600	60	8282
2026-01-20 23:20:03.42	338.71	5.12	-45.6	-48.5	14.8	0.00e+00	0	42	0	1422917632	60	9591
2026-01-20 23:20:07.46	338.55	4.85	-46.2	-50.2	12.6	7.32e-05	0	42	0	1430257664	60	11643
2026-01-20 23:20:11.49	338.39	4.57	-46.7	-52.6	8.9	2.21e-02	0	42	0	1438646272	60	15376
2026-01-20 23:20:15.53	338.24	4.30	-46.8	-54.8	5.6	3.65e-01	0	42	0	1445986304	60	19877
2026-01-20 23:20:19.57	338.09	4.03	-46.7	-59.2	3.8	1.45e+00	0	42	104	1451229184	60	33007
2026-01-20 23:20:23.61	337.94	3.76	-46.5	-61.0	3.6	1.51e+00	0	42	104	1451229184	60	40514
2026-01-20 23:20:27.65	337.79	3.50	-46.4	-61.5	3.6	1.51e+00	0	42	104	1451229184	60	42883
2026-01-20 23:20:31.69	337.65	3.24	-46.4	-61.5	3.6	1.51e+00	0	42	104	1451229184	60	43049
2026-01-20 23:20:35.73	337.51	2.98	-46.3	-61.5	3.6	1.51e+00	0	42	104	1451229184	60	42956
2026-01-20 23:20:39.77	337.37	2.72	-51.0	-66.2	3.6	1.51e+00	0	42	104	1451229184	60	73897
2026-01-20 23:20:43.81	337.24	2.46	-51.4	-66.6	3.6	1.51e+00	0	42	104	1451229184	60	77178
2026-01-20 23:20:47.85	337.11	2.21	-51.5	-66.7	3.6	1.51e+00	0	42	104	1451229184	60	77956
2026-01-20 23:20:51.89	336.98	1.96	-50.7	-66.5	3.6	1.51e+00	0	42	104	1451229184	60	76820
2026-01-20 23:20:55.92	336.85	1.71	-51.3	-66.5	3.6	1.51e+00	0	42	104	1451229184	60	76136
2026-01-20 23:20:59.96	336.73	1.46	-51.4	-66.6	3.6	1.51e+00	0	42	104	1451229184	60	77035
2026-01-20 23:21:04.00	336.61	1.22	-51.3	-66.5	3.6	1.51e+00	0	42	104	1451229184	60	76363
2026-01-20 23:21:08.04	336.49	0.97	-51.3	-66.5	3.6	1.51e+00	0	42	104	1451229184	60	76559
2026-01-20 23:21:12.08	336.37	0.73	-51.3	-66.5	3.6	1.51e+00	0	42	104	1451229184	60	76315
2026-01-20 23:21:16.12	336.26	0.49	-51.3	-66.5	3.6	1.51e+00	0	42	104	1451229184	60	76351
2026-01-20 23:21:20.16	336.14	0.25	-51.3	-66.5	3.6	1.51e+00	0	42	104	1451229184	60	76586
2026-01-20 23:21:24.21	336.03	0.02	-51.4	-66.5	3.6	1.51e+00	0	42	104	1451229184	60	76799

#Closed at: 2026-01-20 23:21:26
#Recorded file [1451 MB]: D:/lorett/data/35029_260121_110627.dat