passes_logs/2026/01/20/R4.6S_Anadyr/R4.6S_Anadyr__20260120_232643_NOAA_20_JPSS-1_rec.log

#Pass ID: 20260120_232643_NOAA 20 (JPSS-1)
#Satellite: NOAA 20 (JPSS-1)
#Configuration: NOAA 20
#almurnet v.1.7.20251203
#Start time: 2026-01-20 23:26:43

#Version: 2.2.20231116
#Station: R4.6S_Anadyr
#Location: 177.4865 lon 64.73178 lat
#TLE: 1 43013U 17073A   26020.26397077  .00000127  00000+0  80954-4 0  9999
#TLE: 2 43013  98.7643 321.1479 0001288  31.3158 328.8095 14.19537595423482

#Time	Az	El	Level	Level2	SNR	BER	BlckErr	Temp	State	Recorded	gain1	gain2
2026-01-20 23:26:43.85	137.20	0.05	-51.4	-66.3	3.5	1.51e+00	0	39	0	0	60	75019
2026-01-20 23:26:47.89	137.12	0.29	-51.4	-66.6	3.6	1.51e+00	0	40	104	0	60	77077
2026-01-20 23:26:51.93	137.05	0.53	-51.2	-66.4	3.6	1.51e+00	0	40	104	0	60	75923
2026-01-20 23:26:55.96	136.97	0.78	-51.1	-66.3	3.6	1.51e+00	0	40	104	0	60	74643
2026-01-20 23:27:00.01	136.90	1.03	-50.8	-66.0	3.6	1.51e+00	0	40	104	0	60	72278
2026-01-20 23:27:04.05	136.82	1.27	-50.5	-65.7	3.6	1.51e+00	0	40	104	0	60	69411
2026-01-20 23:27:08.09	136.74	1.53	-49.7	-64.6	3.6	1.51e+00	0	40	104	0	60	61714
2026-01-20 23:27:12.12	136.66	1.78	-49.4	-64.7	3.6	1.51e+00	0	40	104	0	60	61945
2026-01-20 23:27:16.17	136.57	2.04	-49.4	-64.4	3.6	1.51e+00	0	41	104	0	60	60261
2026-01-20 23:27:20.20	136.49	2.29	-49.4	-64.3	3.6	1.51e+00	0	41	104	0	60	59572
2026-01-20 23:27:24.24	136.40	2.55	-49.4	-64.7	3.6	1.51e+00	0	41	104	0	60	61787
2026-01-20 23:27:28.28	136.31	2.82	-49.4	-64.2	3.6	1.51e+00	0	41	104	0	60	58295
2026-01-20 23:27:32.31	136.22	3.08	-49.4	-63.5	3.6	1.51e+00	0	41	104	0	60	53872
2026-01-20 23:27:36.35	136.13	3.35	-49.4	-64.3	3.6	1.51e+00	0	41	104	0	60	59332
2026-01-20 23:27:40.39	136.03	3.62	-48.3	-54.3	8.7	3.92e-02	0	41	0	3145728	60	18855
2026-01-20 23:27:44.43	135.94	3.89	-49.2	-58.8	4.7	1.51e+00	0	41	104	7340032	60	31593
2026-01-20 23:27:48.46	135.84	4.17	-42.6	-44.1	18.6	2.86e-01	0	41	104	9437184	58	6488
2026-01-20 23:27:52.50	135.74	4.44	-42.0	-43.3	20.5	0.00e+00	0	41	0	15728640	56	6639
2026-01-20 23:27:56.54	135.64	4.72	-42.0	-43.3	20.5	0.00e+00	0	41	0	24117248	56	6644
2026-01-20 23:28:00.58	135.53	5.01	-42.1	-43.4	20.5	0.00e+00	0	41	0	31457280	56	6733
2026-01-20 23:28:04.62	135.42	5.30	-42.2	-43.5	20.3	0.00e+00	0	41	0	38797312	58	6065
2026-01-20 23:28:08.65	135.31	5.58	-41.8	-43.0	21.0	0.00e+00	0	41	0	46137344	58	5739
2026-01-20 23:28:12.69	135.20	5.88	-41.7	-42.9	21.3	0.00e+00	0	41	0	54525952	56	6349
2026-01-20 23:28:16.73	135.09	6.17	-41.5	-42.6	21.4	0.00e+00	0	41	0	61865984	56	6140
2026-01-20 23:28:20.77	134.97	6.47	-41.5	-42.6	21.5	0.00e+00	0	41	0	69206016	56	6170
2026-01-20 23:28:24.81	134.85	6.78	-41.3	-42.4	21.7	0.00e+00	0	41	0	76546048	56	6020
2026-01-20 23:28:28.85	134.73	7.08	-41.3	-42.4	21.8	0.00e+00	0	41	0	83886080	56	6029
2026-01-20 23:28:32.89	134.60	7.39	-41.3	-42.4	21.8	0.00e+00	0	41	0	92274688	56	5994
2026-01-20 23:28:36.93	134.47	7.71	-41.5	-42.7	21.6	0.00e+00	0	41	0	99614720	56	6197
2026-01-20 23:28:40.96	134.34	8.02	-41.1	-42.2	22.1	0.00e+00	0	41	0	106954752	56	5877
2026-01-20 23:28:45.00	134.21	8.34	-40.9	-41.9	22.2	0.00e+00	0	41	0	114294784	54	6366
2026-01-20 23:28:49.03	134.07	8.67	-40.8	-41.8	22.4	0.00e+00	0	41	0	122683392	54	6298
2026-01-20 23:28:53.07	133.93	9.00	-41.0	-42.0	22.2	0.00e+00	0	41	0	130023424	54	6457
2026-01-20 23:28:57.11	133.79	9.33	-40.8	-41.9	22.4	0.00e+00	0	41	0	137363456	54	6322
2026-01-20 23:29:01.15	133.64	9.67	-40.8	-41.8	22.5	0.00e+00	0	41	0	144703488	54	6280
2026-01-20 23:29:05.18	133.48	10.01	-40.5	-41.5	22.8	0.00e+00	0	41	0	152043520	54	6083
2026-01-20 23:29:09.23	133.33	10.36	-40.8	-41.8	22.5	0.00e+00	0	41	0	160432128	54	6312
2026-01-20 23:29:13.27	133.17	10.71	-40.5	-41.5	22.9	0.00e+00	0	41	0	167772160	54	6040
2026-01-20 23:29:17.31	133.00	11.07	-40.3	-41.3	23.0	0.00e+00	0	41	0	175112192	54	5932
2026-01-20 23:29:21.35	132.83	11.43	-40.2	-41.2	23.1	0.00e+00	0	41	0	182452224	54	5843
2026-01-20 23:29:25.38	132.66	11.79	-40.4	-41.4	23.0	0.00e+00	0	41	0	190840832	54	6000
2026-01-20 23:29:29.42	132.48	12.17	-40.6	-41.6	22.8	0.00e+00	0	41	0	198180864	54	6115
2026-01-20 23:29:33.46	132.30	12.54	-40.4	-41.3	22.9	0.00e+00	0	41	0	205520896	54	5962
2026-01-20 23:29:37.50	132.11	12.93	-40.2	-41.2	23.1	0.00e+00	0	41	0	212860928	54	5842
2026-01-20 23:29:41.53	131.92	13.31	-40.2	-41.1	23.2	0.00e+00	0	41	0	220200960	54	5812
2026-01-20 23:29:45.57	131.72	13.71	-40.1	-41.0	23.2	0.00e+00	0	41	0	228589568	54	5757
2026-01-20 23:29:49.61	131.52	14.11	-40.2	-41.1	23.2	0.00e+00	0	41	0	235929600	54	5785
2026-01-20 23:29:53.65	131.30	14.52	-40.3	-41.2	23.2	0.00e+00	0	41	0	243269632	54	5895
2026-01-20 23:29:57.69	131.09	14.93	-40.6	-41.6	22.8	0.00e+00	0	41	0	250609664	54	6113
2026-01-20 23:30:01.73	130.86	15.35	-40.3	-41.3	23.0	0.00e+00	0	41	0	258998272	54	5925
2026-01-20 23:30:05.77	130.63	15.78	-39.8	-40.7	23.6	0.00e+00	0	41	0	266338304	54	5554
2026-01-20 23:30:09.80	130.40	16.21	-40.0	-40.9	23.5	0.00e+00	0	41	0	273678336	54	5675
2026-01-20 23:30:13.84	130.15	16.65	-39.9	-40.8	23.5	0.00e+00	0	41	0	281018368	54	5625
2026-01-20 23:30:17.87	129.90	17.10	-40.1	-41.0	23.4	0.00e+00	0	41	0	288358400	54	5744
2026-01-20 23:30:21.91	129.64	17.56	-40.0	-40.9	23.5	0.00e+00	0	41	0	296747008	54	5652
2026-01-20 23:30:25.95	129.37	18.02	-40.1	-41.0	23.4	0.00e+00	0	41	0	304087040	54	5747
2026-01-20 23:30:29.99	129.10	18.49	-40.2	-41.1	23.3	0.00e+00	0	41	0	311427072	54	5812
2026-01-20 23:30:34.03	128.81	18.97	-40.0	-40.9	23.5	0.00e+00	0	42	0	318767104	54	5670
2026-01-20 23:30:38.07	128.51	19.47	-40.0	-41.0	23.6	0.00e+00	0	41	0	327155712	54	5699
2026-01-20 23:30:42.10	128.21	19.96	-40.1	-41.0	23.5	0.00e+00	0	41	0	334495744	54	5737
2026-01-20 23:30:46.14	127.89	20.47	-40.3	-41.2	23.3	0.00e+00	0	41	0	341835776	54	5864
2026-01-20 23:30:50.18	127.56	20.99	-40.4	-41.4	23.2	0.00e+00	0	41	0	349175808	54	5984
2026-01-20 23:30:54.22	127.22	21.52	-40.4	-41.3	23.4	0.00e+00	0	42	0	356515840	54	5927
2026-01-20 23:30:58.26	126.87	22.05	-40.5	-41.5	23.1	0.00e+00	0	41	0	364904448	54	6065
2026-01-20 23:31:02.29	126.51	22.60	-40.6	-41.6	23.1	0.00e+00	0	41	0	372244480	54	6143
2026-01-20 23:31:06.33	126.13	23.16	-40.9	-41.9	22.8	0.00e+00	0	42	0	379584512	54	6339
2026-01-20 23:31:10.37	125.73	23.73	-41.1	-42.1	22.6	0.00e+00	0	42	0	386924544	54	6496
2026-01-20 23:31:14.41	125.33	24.31	-41.9	-43.0	21.9	0.00e+00	0	42	0	394264576	56	6419
2026-01-20 23:31:18.45	124.90	24.90	-41.7	-42.8	22.0	0.00e+00	0	42	0	402653184	56	6284
2026-01-20 23:31:22.49	124.46	25.51	-41.8	-42.9	21.9	0.00e+00	0	42	0	409993216	56	6334
2026-01-20 23:31:26.52	124.00	26.12	-42.1	-43.3	21.6	0.00e+00	0	42	0	417333248	56	6618
2026-01-20 23:31:30.57	123.53	26.75	-42.3	-43.4	21.5	0.00e+00	0	42	0	424673280	56	6720
2026-01-20 23:31:34.60	123.03	27.39	-42.5	-43.7	21.3	0.00e+00	0	41	0	433061888	56	6940
2026-01-20 23:31:38.65	122.51	28.04	-42.8	-44.0	21.0	0.00e+00	0	42	0	440401920	58	6393
2026-01-20 23:31:42.69	121.97	28.71	-42.6	-43.8	21.1	0.00e+00	0	42	0	447741952	58	6311
2026-01-20 23:31:46.72	121.41	29.39	-42.4	-43.6	21.3	0.00e+00	0	42	0	455081984	58	6131
2026-01-20 23:31:50.77	120.82	30.08	-41.8	-42.9	21.9	0.00e+00	0	42	0	463470592	58	5662
2026-01-20 23:31:54.80	120.20	30.78	-41.8	-42.9	22.0	0.00e+00	0	42	0	470810624	56	6371
2026-01-20 23:31:58.84	119.56	31.50	-42.4	-43.5	21.4	0.00e+00	0	41	0	478150656	56	6840
2026-01-20 23:32:02.88	118.89	32.24	-43.3	-44.6	20.5	0.00e+00	0	41	0	485490688	58	6926
2026-01-20 23:32:06.92	118.18	32.98	-43.7	-45.1	19.8	0.00e+00	0	42	0	492830720	60	6539
2026-01-20 23:32:10.96	117.44	33.74	-43.0	-44.2	20.7	0.00e+00	0	42	0	501219328	60	5883
2026-01-20 23:32:15.00	116.67	34.51	-44.0	-45.5	19.5	0.00e+00	0	42	0	508559360	60	6825
2026-01-20 23:32:19.03	115.86	35.30	-44.1	-45.6	19.4	0.00e+00	0	42	0	515899392	60	6859
2026-01-20 23:32:23.07	115.00	36.10	-44.0	-45.5	19.5	0.00e+00	0	42	0	523239424	60	6817
2026-01-20 23:32:27.10	114.10	36.91	-43.0	-44.3	20.8	0.00e+00	0	42	0	530579456	60	5929
2026-01-20 23:32:31.14	113.16	37.73	-42.6	-43.8	21.0	0.00e+00	0	42	0	538968064	58	6276
2026-01-20 23:32:35.17	112.17	38.56	-43.0	-44.2	20.7	0.00e+00	0	41	0	546308096	58	6578
2026-01-20 23:32:39.21	111.12	39.40	-43.1	-44.4	20.5	0.00e+00	0	42	0	553648128	58	6712
2026-01-20 23:32:43.25	110.02	40.26	-44.2	-45.8	19.3	0.00e+00	0	42	0	560988160	60	7064
2026-01-20 23:32:47.29	108.85	41.12	-43.3	-44.7	20.4	0.00e+00	0	42	0	569376768	60	6211
2026-01-20 23:32:51.33	107.62	41.99	-42.7	-44.0	20.9	0.00e+00	0	42	0	576716800	58	6400
2026-01-20 23:32:55.36	106.33	42.86	-42.2	-43.4	21.5	0.00e+00	0	42	0	584056832	58	5974
2026-01-20 23:32:59.40	104.96	43.73	-43.2	-44.5	20.4	0.00e+00	0	42	0	591396864	58	6805
2026-01-20 23:33:03.43	103.51	44.60	-43.3	-44.7	20.3	0.00e+00	0	42	0	598736896	58	6955
2026-01-20 23:33:07.48	101.98	45.48	-43.3	-44.7	20.3	0.00e+00	0	42	0	607125504	58	6940
2026-01-20 23:33:11.51	100.36	46.34	-43.2	-44.5	20.4	0.00e+00	0	42	0	614465536	58	6831
2026-01-20 23:33:15.55	98.66	47.20	-43.2	-44.5	20.4	0.00e+00	0	42	0	621805568	58	6804
2026-01-20 23:33:19.59	96.85	48.05	-42.5	-43.6	21.3	0.00e+00	0	42	0	629145600	58	6156
2026-01-20 23:33:23.63	94.94	48.87	-42.2	-43.4	21.6	0.00e+00	0	42	0	637534208	58	6002
2026-01-20 23:33:27.67	92.93	49.68	-41.4	-42.4	22.5	0.00e+00	0	42	0	644874240	56	6001
2026-01-20 23:33:31.70	90.82	50.46	-39.8	-40.7	23.9	0.00e+00	0	42	0	652214272	54	5544
2026-01-20 23:33:35.74	88.59	51.21	-39.8	-40.7	23.8	0.00e+00	0	42	0	659554304	52	6202
2026-01-20 23:33:39.78	86.25	51.93	-40.2	-41.1	23.7	0.00e+00	0	42	0	666894336	52	6490
2026-01-20 23:33:43.81	83.80	52.60	-39.9	-40.8	23.8	0.00e+00	0	42	0	675282944	52	6293
2026-01-20 23:33:47.85	81.24	53.22	-40.7	-41.7	23.0	0.00e+00	0	42	0	682622976	52	6956
2026-01-20 23:33:51.89	78.57	53.79	-39.7	-40.6	24.0	0.00e+00	0	42	0	689963008	52	6151
2026-01-20 23:33:55.93	75.79	54.30	-38.8	-39.6	24.9	0.00e+00	0	42	0	697303040	50	6113
2026-01-20 23:33:59.97	72.93	54.75	-38.7	-39.5	24.9	0.00e+00	0	42	0	705691648	50	6084
2026-01-20 23:34:04.00	69.98	55.12	-38.5	-39.2	25.1	0.00e+00	0	42	0	713031680	50	5893
2026-01-20 23:34:08.03	66.97	55.42	-37.9	-38.7	25.6	0.00e+00	0	42	0	720371712	50	5507
2026-01-20 23:34:12.07	63.89	55.64	-37.6	-38.3	25.9	0.00e+00	0	42	0	727711744	48	5955
2026-01-20 23:34:16.11	60.78	55.77	-37.7	-38.4	25.8	0.00e+00	0	42	0	735051776	48	5998
2026-01-20 23:34:20.14	57.65	55.83	-38.3	-39.1	25.3	0.00e+00	0	42	0	743440384	48	6479
2026-01-20 23:34:24.18	54.51	55.80	-38.5	-39.3	25.1	0.00e+00	0	42	0	750780416	48	6649
2026-01-20 23:34:28.21	51.39	55.68	-38.2	-39.0	25.2	0.00e+00	0	42	0	758120448	48	6440
2026-01-20 23:34:32.25	48.30	55.48	-36.7	-37.4	26.4	0.00e+00	0	42	0	765460480	46	6032
2026-01-20 23:34:36.29	45.27	55.21	-37.0	-37.7	26.5	0.00e+00	0	42	0	773849088	46	6204
2026-01-20 23:34:40.33	42.30	54.85	-37.0	-37.7	26.4	0.00e+00	0	42	0	781189120	46	6190
2026-01-20 23:34:44.36	39.42	54.43	-37.7	-38.4	25.8	0.00e+00	0	42	0	788529152	46	6743
2026-01-20 23:34:48.39	36.63	53.94	-38.7	-39.5	25.0	0.00e+00	0	42	0	795869184	48	6826
2026-01-20 23:34:52.43	33.93	53.39	-39.1	-39.9	24.6	0.00e+00	0	42	0	803209216	50	6380
2026-01-20 23:34:56.46	31.35	52.78	-38.9	-39.7	24.8	0.00e+00	0	42	0	811597824	50	6207
2026-01-20 23:35:00.51	28.86	52.12	-39.0	-39.8	24.7	0.00e+00	0	42	0	818937856	50	6274
2026-01-20 23:35:04.54	26.50	51.42	-39.1	-39.9	24.6	0.00e+00	0	42	0	826277888	50	6383
2026-01-20 23:35:08.59	24.24	50.68	-40.9	-41.9	22.6	0.00e+00	0	42	0	833617920	54	6330
2026-01-20 23:35:12.62	22.10	49.91	-42.3	-43.4	21.5	0.00e+00	0	42	0	842006528	56	6753
2026-01-20 23:35:16.66	20.06	49.11	-43.1	-44.4	20.6	0.00e+00	0	42	0	849346560	58	6695
2026-01-20 23:35:20.71	18.13	48.29	-43.9	-45.3	19.8	0.00e+00	0	42	0	856686592	60	6682
2026-01-20 23:35:24.75	16.30	47.45	-43.9	-45.3	19.9	0.00e+00	0	42	0	864026624	60	6638
2026-01-20 23:35:28.78	14.57	46.60	-43.5	-44.8	20.2	0.00e+00	0	42	0	871366656	60	6317
2026-01-20 23:35:32.82	12.93	45.74	-42.2	-43.3	21.6	0.00e+00	0	42	0	879755264	58	5942
2026-01-20 23:35:36.85	11.39	44.87	-42.2	-43.3	21.5	0.00e+00	0	42	0	887095296	58	5929
2026-01-20 23:35:40.89	9.92	44.00	-41.8	-42.9	22.0	0.00e+00	0	42	0	894435328	58	5668
2026-01-20 23:35:44.93	8.53	43.13	-42.3	-43.5	21.3	0.00e+00	0	42	0	901775360	58	6047
2026-01-20 23:35:48.96	7.22	42.26	-42.3	-43.5	21.4	0.00e+00	0	42	0	909115392	58	6073
2026-01-20 23:35:53.00	5.98	41.39	-43.0	-44.2	20.6	0.00e+00	0	42	0	917504000	58	6593
2026-01-20 23:35:57.04	4.80	40.53	-42.6	-43.7	21.1	0.00e+00	0	42	0	924844032	58	6242
2026-01-20 23:36:01.08	3.68	39.68	-42.6	-43.8	21.0	0.00e+00	0	42	0	932184064	58	6268
2026-01-20 23:36:05.11	2.62	38.84	-42.4	-43.5	21.2	0.00e+00	0	42	0	939524096	58	6073
2026-01-20 23:36:09.15	1.62	38.01	-43.1	-44.4	20.5	0.00e+00	0	42	0	947912704	58	6750
2026-01-20 23:36:13.19	0.66	37.18	-42.7	-44.0	20.9	0.00e+00	0	42	0	955252736	58	6399
2026-01-20 23:36:17.23	359.75	36.37	-42.3	-43.5	21.3	0.00e+00	0	42	0	962592768	58	6081
2026-01-20 23:36:21.26	358.89	35.58	-42.9	-44.1	20.7	0.00e+00	0	42	0	969932800	58	6522
2026-01-20 23:36:25.31	358.07	34.79	-43.4	-44.8	20.1	0.00e+00	0	42	0	977272832	58	7052
2026-01-20 23:36:29.35	357.28	34.01	-42.5	-43.7	21.1	0.00e+00	0	41	0	985661440	58	6231
2026-01-20 23:36:33.38	356.54	33.25	-42.9	-44.2	20.4	0.00e+00	0	42	0	993001472	58	6595
2026-01-20 23:36:37.42	355.83	32.51	-43.3	-44.7	20.0	0.00e+00	0	42	0	1000341504	58	6956
2026-01-20 23:36:41.46	355.15	31.77	-43.0	-44.2	20.5	0.00e+00	0	42	0	1007681536	58	6607
2026-01-20 23:36:45.50	354.50	31.05	-42.4	-43.6	21.1	0.00e+00	0	41	0	1016070144	58	6154
2026-01-20 23:36:49.53	353.88	30.35	-42.3	-43.5	21.2	0.00e+00	0	41	0	1023410176	58	6052
2026-01-20 23:36:53.57	353.28	29.65	-42.5	-43.8	20.9	0.00e+00	0	41	0	1030750208	58	6268
2026-01-20 23:36:57.61	352.72	28.97	-42.6	-43.8	20.8	0.00e+00	0	41	0	1038090240	58	6310
2026-01-20 23:37:01.64	352.17	28.31	-42.3	-43.5	21.0	0.00e+00	0	41	0	1045430272	58	6078
2026-01-20 23:37:05.68	351.65	27.65	-42.0	-43.2	21.4	0.00e+00	0	41	0	1053818880	58	5854
2026-01-20 23:37:09.71	351.15	27.01	-41.7	-42.8	21.8	0.00e+00	0	41	0	1061158912	56	6288
2026-01-20 23:37:13.75	350.67	26.39	-41.6	-42.7	21.8	0.00e+00	0	41	0	1068498944	56	6243
2026-01-20 23:37:17.78	350.21	25.77	-41.4	-42.4	22.1	0.00e+00	0	41	0	1075838976	56	6024
2026-01-20 23:37:21.82	349.77	25.16	-41.3	-42.4	22.2	0.00e+00	0	41	0	1084227584	56	5985
2026-01-20 23:37:25.86	349.34	24.57	-41.2	-42.3	22.2	0.00e+00	0	41	0	1091567616	56	5908
2026-01-20 23:37:29.90	348.93	23.99	-41.5	-42.6	22.0	0.00e+00	0	41	0	1098907648	56	6127
2026-01-20 23:37:33.93	348.54	23.42	-41.5	-42.6	22.0	0.00e+00	0	41	0	1106247680	56	6142
2026-01-20 23:37:37.97	348.16	22.86	-41.2	-42.3	22.2	0.00e+00	0	41	0	1113587712	56	5905
2026-01-20 23:37:42.01	347.79	22.31	-41.1	-42.2	22.3	0.00e+00	0	41	0	1121976320	56	5842
2026-01-20 23:37:46.04	347.44	21.77	-41.0	-42.0	22.4	0.00e+00	0	41	0	1129316352	56	5761
2026-01-20 23:37:50.08	347.10	21.25	-40.8	-41.8	22.5	0.00e+00	0	41	0	1136656384	56	5604
2026-01-20 23:37:54.12	346.77	20.73	-40.8	-41.8	22.6	0.00e+00	0	41	0	1143996416	56	5620
2026-01-20 23:37:58.16	346.45	20.22	-40.9	-41.9	22.5	0.00e+00	0	41	0	1151336448	56	5680
2026-01-20 23:38:02.20	346.14	19.72	-41.1	-42.1	22.2	0.00e+00	0	41	0	1159725056	56	5798
2026-01-20 23:38:06.23	345.85	19.23	-40.7	-41.7	22.6	0.00e+00	0	41	0	1167065088	54	6176
2026-01-20 23:38:10.27	345.56	18.74	-40.9	-41.9	22.3	0.00e+00	0	41	0	1174405120	54	6363
2026-01-20 23:38:14.30	345.28	18.27	-40.8	-41.8	22.3	0.00e+00	0	41	0	1181745152	54	6281
2026-01-20 23:38:18.34	345.01	17.81	-40.9	-41.9	22.3	0.00e+00	0	41	0	1190133760	54	6348
2026-01-20 23:38:22.37	344.75	17.35	-41.1	-42.1	22.1	0.00e+00	0	41	0	1197473792	54	6537
2026-01-20 23:38:26.41	344.50	16.90	-40.8	-41.8	22.4	0.00e+00	0	41	0	1204813824	54	6312
2026-01-20 23:38:30.45	344.26	16.46	-41.3	-42.4	22.0	0.00e+00	0	41	0	1212153856	54	6733
2026-01-20 23:38:34.49	344.02	16.02	-41.3	-42.4	21.9	0.00e+00	0	41	0	1219493888	54	6693
2026-01-20 23:38:38.52	343.79	15.59	-41.0	-42.1	22.1	0.00e+00	0	41	0	1227882496	54	6489
2026-01-20 23:38:42.56	343.57	15.17	-41.2	-42.3	21.9	0.00e+00	0	41	0	1235222528	54	6626
2026-01-20 23:38:46.60	343.35	14.76	-41.3	-42.4	21.9	0.00e+00	0	41	0	1242562560	54	6699
2026-01-20 23:38:50.65	343.14	14.35	-41.5	-42.6	21.6	0.00e+00	0	41	0	1249902592	54	6916
2026-01-20 23:38:54.68	342.94	13.95	-41.9	-43.0	21.3	0.00e+00	0	41	0	1258291200	56	6453
2026-01-20 23:38:58.72	342.74	13.55	-41.9	-43.1	21.2	0.00e+00	0	41	0	1265631232	56	6489
2026-01-20 23:39:02.76	342.55	13.16	-41.7	-42.8	21.4	0.00e+00	0	41	0	1272971264	56	6300
2026-01-20 23:39:06.80	342.36	12.78	-41.6	-42.7	21.5	0.00e+00	0	41	0	1280311296	56	6239
2026-01-20 23:39:10.83	342.18	12.40	-41.6	-42.8	21.3	0.00e+00	0	41	0	1287651328	56	6303
2026-01-20 23:39:14.87	342.00	12.03	-41.7	-42.9	21.3	0.00e+00	0	41	0	1296039936	56	6371
2026-01-20 23:39:18.91	341.83	11.66	-42.0	-43.3	21.0	0.00e+00	0	41	0	1303379968	56	6635
2026-01-20 23:39:22.95	341.66	11.30	-42.3	-43.7	20.5	0.00e+00	0	41	0	1310720000	56	6942
2026-01-20 23:39:26.98	341.50	10.95	-42.6	-44.0	20.3	0.00e+00	0	41	0	1318060032	56	7188
2026-01-20 23:39:31.01	341.34	10.59	-42.9	-44.4	19.8	0.00e+00	0	41	0	1325400064	58	6758
2026-01-20 23:39:35.05	341.19	10.25	-43.0	-44.5	19.7	0.00e+00	0	41	0	1333788672	58	6845
2026-01-20 23:39:39.09	341.04	9.90	-43.0	-44.6	19.6	0.00e+00	0	41	0	1341128704	58	6861
2026-01-20 23:39:43.13	340.89	9.57	-43.0	-44.6	19.6	0.00e+00	0	41	0	1348468736	58	6872
2026-01-20 23:39:47.17	340.75	9.23	-43.2	-44.8	19.5	0.00e+00	0	41	0	1355808768	58	7018
2026-01-20 23:39:51.20	340.61	8.90	-43.2	-44.9	19.3	0.00e+00	0	41	0	1364197376	58	7093
2026-01-20 23:39:55.24	340.47	8.58	-43.6	-45.3	19.0	0.00e+00	0	41	0	1371537408	58	7462
2026-01-20 23:39:59.28	340.34	8.26	-43.5	-45.2	18.9	0.00e+00	0	41	0	1378877440	58	7354
2026-01-20 23:40:03.31	340.21	7.94	-43.3	-44.8	19.4	0.00e+00	0	41	0	1386217472	58	7077
2026-01-20 23:40:07.35	340.08	7.62	-43.4	-45.0	19.1	0.00e+00	0	41	0	1393557504	58	7240
2026-01-20 23:40:11.38	339.96	7.32	-43.3	-44.9	19.2	0.00e+00	0	41	0	1401946112	58	7162
2026-01-20 23:40:15.42	339.84	7.01	-43.7	-45.5	18.7	0.00e+00	0	41	0	1409286144	58	7617
2026-01-20 23:40:19.46	339.72	6.71	-43.5	-45.2	18.7	0.00e+00	0	41	0	1416626176	60	6564
2026-01-20 23:40:23.50	339.61	6.41	-43.7	-45.5	18.5	0.00e+00	0	41	0	1423966208	60	6773
2026-01-20 23:40:27.54	339.50	6.11	-43.4	-45.1	18.8	0.00e+00	0	41	0	1432354816	60	6482
2026-01-20 23:40:31.57	339.39	5.82	-43.4	-45.1	18.5	0.00e+00	0	41	0	1439694848	60	6507
2026-01-20 23:40:35.61	339.28	5.53	-44.0	-46.1	17.3	0.00e+00	0	41	0	1447034880	60	7275
2026-01-20 23:40:39.65	339.17	5.24	-44.6	-47.2	15.7	0.00e+00	0	41	0	1454374912	60	8267
2026-01-20 23:40:43.69	339.07	4.95	-45.4	-49.1	13.1	1.60e-05	0	41	0	1461714944	60	10287
2026-01-20 23:40:47.73	338.97	4.67	-46.1	-52.3	8.3	2.07e-02	0	41	0	1470103552	60	14916
2026-01-20 23:40:51.77	338.87	4.39	-46.2	-54.0	5.8	2.56e-01	0	41	0	1477443584	60	18109
2026-01-20 23:40:55.81	338.78	4.12	-46.1	-56.6	3.8	1.35e+00	0	41	0	1483735040	60	24522
2026-01-20 23:40:59.85	338.69	3.85	-46.1	-60.0	3.6	1.51e+00	0	41	104	1483735040	60	36332
2026-01-20 23:41:03.89	338.59	3.58	-46.2	-61.4	3.5	1.51e+00	0	41	104	1483735040	60	42273
2026-01-20 23:41:07.93	338.51	3.31	-46.1	-61.2	3.6	1.51e+00	0	41	104	1483735040	60	41517
2026-01-20 23:41:11.96	338.42	3.04	-46.1	-61.2	3.6	1.51e+00	0	41	104	1483735040	60	41598
2026-01-20 23:41:16.01	338.33	2.78	-50.4	-65.7	3.6	1.51e+00	0	41	104	1483735040	60	69298
2026-01-20 23:41:20.05	338.25	2.52	-50.9	-66.0	3.6	1.51e+00	0	41	104	1483735040	60	72337
2026-01-20 23:41:24.09	338.17	2.26	-51.0	-66.2	3.6	1.51e+00	0	41	104	1483735040	60	73731
2026-01-20 23:41:28.13	338.09	2.00	-50.2	-66.1	3.6	1.51e+00	0	41	104	1483735040	60	73036
2026-01-20 23:41:32.17	338.01	1.75	-50.9	-66.2	3.6	1.51e+00	0	41	104	1483735040	60	73409
2026-01-20 23:41:36.21	337.93	1.50	-51.0	-66.2	3.6	1.51e+00	0	41	104	1483735040	60	73820
2026-01-20 23:41:40.25	337.85	1.25	-51.0	-66.2	3.6	1.51e+00	0	41	104	1483735040	60	74004
2026-01-20 23:41:44.29	337.78	1.00	-51.0	-66.2	3.6	1.51e+00	0	41	104	1483735040	60	74145
2026-01-20 23:41:48.33	337.71	0.76	-51.0	-66.2	3.6	1.51e+00	0	41	104	1483735040	60	73693
2026-01-20 23:41:52.36	337.64	0.51	-51.0	-66.2	3.6	1.51e+00	0	41	104	1483735040	60	74110
2026-01-20 23:41:56.40	337.57	0.27	-51.1	-66.3	3.6	1.51e+00	0	42	104	1483735040	60	74532
2026-01-20 23:42:00.44	337.50	0.03	-51.3	-66.5	3.5	1.51e+00	0	42	104	1483735040	60	76105

#Closed at: 2026-01-20 23:42:02
#Recorded file [1483 MB]: D:/lorett/data/35029_260121_112643.dat