passes_logs/2026/01/20/R4.6S_Anadyr/R4.6S_Anadyr__20260120_205846_NOAA_21_JPSS-2_rec.log

#Pass ID: 20260120_205846_NOAA 21 (JPSS-2)
#Satellite: NOAA 21 (JPSS-2)
#Configuration: NOAA-21
#almurnet v.1.7.20251203
#Start time: 2026-01-20 20:58:48

#Version: 2.2.20231116
#Station: R4.6S_Anadyr
#Location: 177.4865 lon 64.73178 lat
#TLE: 1 54234U 22150A   26019.94667805  .00000106  00000+0  71222-4 0  9995
#TLE: 2 54234  98.7505 320.7866 0000607 253.4528 106.6582 14.19535964165511

#Time	Az	El	Level	Level2	SNR	BER	BlckErr	Temp	State	Recorded	gain1	gain2
2026-01-20 20:58:48.52	80.75	0.09	-51.8	-66.7	3.5	1.51e+00	0	40	0	0	60	78017
2026-01-20 20:58:52.56	80.47	0.30	-51.4	-64.3	3.5	1.51e+00	0	41	104	0	60	57607
2026-01-20 20:58:56.59	80.20	0.51	-51.4	-64.3	3.5	1.52e+00	0	41	104	0	60	57592
2026-01-20 20:59:00.63	79.92	0.72	-51.4	-64.3	3.5	1.52e+00	0	41	104	0	60	57337
2026-01-20 20:59:04.67	79.63	0.93	-51.3	-64.1	3.5	1.52e+00	0	42	104	0	60	56465
2026-01-20 20:59:08.71	79.34	1.14	-50.8	-63.9	3.5	1.52e+00	0	42	104	0	60	54881
2026-01-20 20:59:12.75	79.05	1.35	-50.1	-63.0	3.5	1.52e+00	0	42	104	0	60	49355
2026-01-20 20:59:16.79	78.75	1.56	-49.7	-62.6	3.5	1.52e+00	0	42	104	0	60	47401
2026-01-20 20:59:20.84	78.45	1.78	-49.7	-62.5	3.5	1.52e+00	0	42	104	0	60	46815
2026-01-20 20:59:24.87	78.15	1.99	-49.7	-62.6	3.5	1.52e+00	0	42	104	0	60	47260
2026-01-20 20:59:28.91	77.84	2.20	-49.7	-62.3	3.5	1.52e+00	0	42	104	0	60	45917
2026-01-20 20:59:32.95	77.52	2.42	-49.7	-62.6	3.5	1.52e+00	0	42	104	0	60	47409
2026-01-20 20:59:36.99	77.20	2.64	-49.7	-62.5	3.5	1.52e+00	0	42	104	0	60	47018
2026-01-20 20:59:41.03	76.88	2.85	-49.6	-61.6	3.5	1.52e+00	0	42	104	0	60	42115
2026-01-20 20:59:45.07	76.54	3.07	-48.9	-56.2	5.8	5.48e-01	122	42	0	0	60	22694
2026-01-20 20:59:49.11	76.21	3.29	-44.7	-47.3	15.3	1.27e+00	123	42	104	5242880	60	8096
2026-01-20 20:59:53.15	75.87	3.51	-42.1	-43.6	18.0	0.00e+00	123	42	0	9437184	56	6680
2026-01-20 20:59:57.18	75.52	3.73	-41.2	-42.6	19.2	0.00e+00	122	42	0	22020096	54	6651
2026-01-20 21:00:01.21	75.17	3.95	-41.5	-42.8	19.4	0.00e+00	123	42	0	34603008	54	6849
2026-01-20 21:00:05.25	74.82	4.17	-40.5	-41.7	20.3	0.00e+00	123	42	0	47185920	56	5346
2026-01-20 21:00:09.29	74.45	4.40	-41.3	-42.6	19.7	0.00e+00	122	42	0	60817408	56	5956
2026-01-20 21:00:13.32	74.09	4.62	-40.2	-41.3	20.6	0.00e+00	120	42	0	72351744	54	5787
2026-01-20 21:00:17.36	73.71	4.84	-40.5	-41.7	20.3	0.00e+00	121	42	0	84934656	54	6060
2026-01-20 21:00:21.40	73.33	5.07	-40.2	-41.4	20.5	0.00e+00	123	42	0	98566144	54	5833
2026-01-20 21:00:25.44	72.95	5.29	-40.6	-41.8	20.2	0.00e+00	123	42	0	111149056	54	6119
2026-01-20 21:00:29.48	72.55	5.52	-40.9	-42.2	19.8	0.00e+00	122	42	0	123731968	54	6381
2026-01-20 21:00:33.52	72.15	5.75	-41.3	-42.6	19.4	0.00e+00	120	42	0	136314880	54	6698
2026-01-20 21:00:37.55	71.75	5.97	-40.6	-41.8	20.1	0.00e+00	123	42	0	148897792	54	6127
2026-01-20 21:00:41.59	71.34	6.20	-41.5	-42.8	19.2	0.00e+00	122	42	0	161480704	54	6859
2026-01-20 21:00:45.63	70.92	6.43	-40.7	-41.9	20.1	0.00e+00	123	42	0	174063616	54	6139
2026-01-20 21:00:49.67	70.50	6.66	-40.4	-41.6	20.4	0.00e+00	123	42	0	186646528	54	5955
2026-01-20 21:00:53.71	70.06	6.89	-40.3	-41.4	20.6	0.00e+00	122	42	0	199229440	54	5854
2026-01-20 21:00:57.75	69.62	7.12	-40.0	-41.1	20.9	0.00e+00	123	42	0	211812352	52	6332
2026-01-20 21:01:01.78	69.18	7.35	-39.8	-41.0	21.0	0.00e+00	123	42	0	224395264	52	6214
2026-01-20 21:01:05.82	68.72	7.58	-39.7	-40.8	21.2	0.00e+00	123	42	0	236978176	52	6119
2026-01-20 21:01:09.86	68.26	7.82	-39.8	-40.9	21.3	0.00e+00	120	42	0	249561088	52	6146
2026-01-20 21:01:13.90	67.79	8.05	-38.9	-40.0	22.0	0.00e+00	120	42	0	262144000	52	5540
2026-01-20 21:01:17.94	67.32	8.28	-39.0	-40.0	22.1	0.00e+00	123	42	0	274726912	52	5592
2026-01-20 21:01:21.98	66.83	8.51	-38.8	-39.9	22.1	0.00e+00	120	42	0	287309824	52	5476
2026-01-20 21:01:26.02	66.34	8.74	-39.1	-40.1	22.0	0.00e+00	123	42	0	299892736	52	5648
2026-01-20 21:01:30.06	65.84	8.98	-38.8	-39.8	22.2	0.00e+00	122	42	0	312475648	50	6124
2026-01-20 21:01:34.10	65.33	9.21	-38.8	-39.9	22.1	0.00e+00	123	42	0	325058560	50	6144
2026-01-20 21:01:38.14	64.82	9.44	-38.7	-39.8	22.4	0.00e+00	123	42	0	337641472	50	6068
2026-01-20 21:01:42.17	64.29	9.67	-38.4	-39.4	22.6	0.00e+00	123	42	0	350224384	50	5829
2026-01-20 21:01:46.21	63.76	9.91	-38.8	-39.8	22.3	0.00e+00	120	42	0	362807296	50	6088
2026-01-20 21:01:50.25	63.22	10.14	-38.0	-39.0	23.0	0.00e+00	123	42	0	375390208	50	5554
2026-01-20 21:01:54.28	62.67	10.37	-38.0	-39.0	23.1	0.00e+00	123	42	0	387973120	50	5552
2026-01-20 21:01:58.31	62.11	10.60	-38.0	-39.0	23.0	0.00e+00	122	42	0	400556032	50	5564
2026-01-20 21:02:02.35	61.54	10.83	-38.1	-39.1	22.9	0.00e+00	123	42	0	413138944	50	5626
2026-01-20 21:02:06.39	60.96	11.06	-38.0	-39.0	23.1	0.00e+00	120	42	0	425721856	50	5566
2026-01-20 21:02:10.42	60.37	11.29	-38.0	-39.0	23.1	0.00e+00	122	42	0	438304768	50	5550
2026-01-20 21:02:14.46	59.77	11.52	-38.1	-39.1	23.0	0.00e+00	120	42	0	450887680	50	5630
2026-01-20 21:02:18.50	59.17	11.75	-38.2	-39.1	23.0	0.00e+00	120	42	0	464519168	50	5659
2026-01-20 21:02:22.53	58.55	11.97	-38.1	-39.1	22.8	0.00e+00	123	43	0	476053504	50	5635
2026-01-20 21:02:26.58	57.93	12.20	-38.3	-39.3	22.8	0.00e+00	122	42	0	489684992	50	5751
2026-01-20 21:02:30.61	57.29	12.42	-38.4	-39.4	22.8	0.00e+00	123	42	0	502267904	50	5828
2026-01-20 21:02:34.65	56.65	12.64	-38.4	-39.4	22.9	0.00e+00	123	43	0	514850816	50	5795
2026-01-20 21:02:38.69	55.99	12.86	-38.6	-39.6	22.7	0.00e+00	123	42	0	527433728	50	5979
2026-01-20 21:02:42.73	55.33	13.08	-38.4	-39.3	22.9	0.00e+00	121	42	0	540016640	50	5786
2026-01-20 21:02:46.77	54.65	13.30	-38.0	-38.9	23.2	0.00e+00	122	43	0	552599552	50	5519
2026-01-20 21:02:50.81	53.96	13.51	-37.8	-38.7	23.4	0.00e+00	122	43	0	565182464	50	5390
2026-01-20 21:02:54.85	53.27	13.73	-37.9	-38.9	23.2	0.00e+00	123	43	0	577765376	48	6186
2026-01-20 21:02:58.89	52.56	13.94	-38.1	-39.1	23.1	0.00e+00	120	42	0	590348288	48	6310
2026-01-20 21:03:02.93	51.85	14.14	-38.1	-39.1	23.1	0.00e+00	123	43	0	602931200	48	6294
2026-01-20 21:03:06.97	51.12	14.35	-38.3	-39.3	23.0	0.00e+00	122	43	0	615514112	48	6434
2026-01-20 21:03:11.00	50.39	14.55	-38.3	-39.2	22.9	0.00e+00	122	43	0	628097024	48	6419
2026-01-20 21:03:15.04	49.64	14.75	-38.2	-39.1	23.1	0.00e+00	122	42	0	640679936	48	6331
2026-01-20 21:03:19.08	48.88	14.94	-37.9	-38.8	23.3	0.00e+00	123	43	0	653262848	48	6117
2026-01-20 21:03:23.12	48.12	15.13	-37.9	-38.9	23.1	0.00e+00	120	42	0	665845760	48	6171
2026-01-20 21:03:27.17	47.34	15.32	-38.1	-39.0	23.2	0.00e+00	122	43	0	678428672	48	6275
2026-01-20 21:03:31.21	46.55	15.51	-38.0	-38.9	23.3	0.00e+00	122	43	0	691011584	48	6196
2026-01-20 21:03:35.25	45.76	15.69	-37.7	-38.7	23.5	0.00e+00	123	43	0	703594496	48	6014
2026-01-20 21:03:39.28	44.96	15.86	-37.4	-38.3	23.7	0.00e+00	122	43	0	716177408	48	5782
2026-01-20 21:03:43.32	44.14	16.03	-37.4	-38.3	23.7	0.00e+00	123	43	0	728760320	48	5761
2026-01-20 21:03:47.36	43.32	16.20	-37.4	-38.3	23.6	0.00e+00	122	43	0	741343232	48	5785
2026-01-20 21:03:51.41	42.48	16.36	-37.4	-38.3	23.6	0.00e+00	123	43	0	753926144	48	5755
2026-01-20 21:03:55.44	41.64	16.51	-37.6	-38.5	23.5	0.00e+00	123	43	0	766509056	48	5920
2026-01-20 21:03:59.47	40.79	16.66	-37.4	-38.3	23.7	0.00e+00	121	43	0	779091968	48	5777
2026-01-20 21:04:03.51	39.94	16.81	-37.2	-38.1	23.9	0.00e+00	122	43	0	791674880	48	5646
2026-01-20 21:04:07.55	39.07	16.95	-37.1	-38.0	24.1	0.00e+00	123	43	0	805306368	48	5556
2026-01-20 21:04:11.59	38.19	17.08	-37.4	-38.3	23.8	0.00e+00	123	43	0	817889280	48	5751
2026-01-20 21:04:15.63	37.31	17.21	-37.4	-38.3	23.7	0.00e+00	122	43	0	830472192	48	5787
2026-01-20 21:04:19.67	36.42	17.33	-37.4	-38.3	23.7	0.00e+00	122	43	0	843055104	48	5758
2026-01-20 21:04:23.71	35.52	17.44	-37.4	-38.4	23.7	0.00e+00	123	43	0	855638016	48	5805
2026-01-20 21:04:27.75	34.62	17.55	-37.4	-38.4	23.7	0.00e+00	122	43	0	868220928	48	5797
2026-01-20 21:04:31.79	33.71	17.65	-37.2	-38.1	23.9	0.00e+00	120	43	0	880803840	48	5617
2026-01-20 21:04:35.83	32.80	17.74	-37.4	-38.4	23.6	0.00e+00	123	43	0	893386752	48	5809
2026-01-20 21:04:39.87	31.88	17.82	-37.4	-38.3	23.8	0.00e+00	120	43	0	905969664	48	5790
2026-01-20 21:04:43.91	30.95	17.90	-37.7	-38.6	23.5	0.00e+00	122	43	0	918552576	48	5958
2026-01-20 21:04:47.95	30.02	17.97	-37.3	-38.3	23.9	0.00e+00	122	43	0	931135488	48	5727
2026-01-20 21:04:51.99	29.09	18.03	-37.3	-38.2	23.9	0.00e+00	123	43	0	943718400	48	5699
2026-01-20 21:04:56.03	28.15	18.09	-37.2	-38.1	23.9	0.00e+00	122	43	0	956301312	48	5642
2026-01-20 21:05:00.07	27.21	18.14	-37.2	-38.1	23.9	0.00e+00	122	43	0	968884224	48	5625
2026-01-20 21:05:04.11	26.26	18.18	-37.3	-38.3	23.8	0.00e+00	123	43	0	981467136	48	5751
2026-01-20 21:05:08.15	25.32	18.21	-37.5	-38.5	23.7	0.00e+00	123	43	0	994050048	48	5865
2026-01-20 21:05:12.19	24.37	18.23	-37.7	-38.6	23.6	0.00e+00	123	43	0	1006632960	48	5966
2026-01-20 21:05:16.23	23.42	18.24	-37.3	-38.2	23.9	0.00e+00	123	43	0	1019215872	48	5677
2026-01-20 21:05:20.27	22.47	18.25	-37.0	-37.9	24.0	0.00e+00	123	43	0	1031798784	48	5511
2026-01-20 21:05:24.31	21.52	18.25	-37.0	-37.9	24.1	0.00e+00	123	43	0	1044381696	48	5517
2026-01-20 21:05:28.36	20.57	18.24	-37.2	-38.1	23.9	0.00e+00	120	43	0	1056964608	48	5605
2026-01-20 21:05:32.40	19.62	18.22	-37.4	-38.3	23.9	0.00e+00	120	43	0	1069547520	48	5760
2026-01-20 21:05:36.44	18.67	18.20	-37.3	-38.3	23.9	0.00e+00	120	43	0	1083179008	48	5756
2026-01-20 21:05:40.48	17.73	18.16	-37.1	-38.1	23.7	0.00e+00	123	43	0	1094713344	48	5601
2026-01-20 21:05:44.52	16.78	18.12	-37.1	-38.0	24.0	0.00e+00	123	43	0	1107296256	48	5556
2026-01-20 21:05:48.56	15.84	18.07	-37.3	-38.2	23.8	0.00e+00	123	43	0	1120927744	48	5713
2026-01-20 21:05:52.59	14.91	18.01	-37.4	-38.4	23.9	0.00e+00	123	43	0	1133510656	48	5800
2026-01-20 21:05:56.63	13.98	17.95	-37.5	-38.5	23.6	0.00e+00	123	43	0	1146093568	48	5898
2026-01-20 21:06:00.67	13.05	17.88	-37.2	-38.1	23.9	0.00e+00	123	43	0	1158676480	48	5621
2026-01-20 21:06:04.71	12.13	17.80	-37.2	-38.1	24.0	0.00e+00	123	43	0	1171259392	48	5607
2026-01-20 21:06:08.75	11.21	17.71	-37.2	-38.1	23.8	0.00e+00	120	43	0	1183842304	48	5624
2026-01-20 21:06:12.78	10.30	17.61	-37.2	-38.2	23.9	0.00e+00	122	43	0	1196425216	48	5669
2026-01-20 21:06:16.83	9.39	17.51	-37.3	-38.2	23.8	0.00e+00	120	43	0	1209008128	48	5715
2026-01-20 21:06:20.86	8.49	17.40	-37.2	-38.1	23.9	0.00e+00	123	43	0	1221591040	48	5616
2026-01-20 21:06:24.90	7.60	17.29	-37.2	-38.2	23.9	0.00e+00	123	43	0	1234173952	48	5673
2026-01-20 21:06:28.95	6.71	17.16	-37.1	-38.0	24.0	0.00e+00	123	43	0	1246756864	48	5585
2026-01-20 21:06:32.99	5.83	17.04	-37.1	-38.1	24.1	0.00e+00	122	43	0	1259339776	48	5607
2026-01-20 21:06:37.03	4.96	16.90	-37.4	-38.3	23.9	0.00e+00	123	43	0	1271922688	48	5786
2026-01-20 21:06:41.07	4.09	16.76	-37.3	-38.2	23.9	0.00e+00	122	43	0	1284505600	48	5690
2026-01-20 21:06:45.11	3.24	16.61	-37.4	-38.3	23.9	0.00e+00	120	43	0	1297088512	48	5769
2026-01-20 21:06:49.15	2.39	16.46	-37.3	-38.2	24.0	0.00e+00	123	43	0	1309671424	48	5692
2026-01-20 21:06:53.19	1.56	16.31	-37.1	-38.1	24.0	0.00e+00	123	43	0	1322254336	48	5607
2026-01-20 21:06:57.23	0.73	16.14	-37.3	-38.3	23.9	0.00e+00	123	43	0	1334837248	48	5728
2026-01-20 21:07:01.27	359.91	15.98	-37.6	-38.6	23.7	0.00e+00	122	43	0	1347420160	48	5929
2026-01-20 21:07:05.31	359.10	15.80	-37.2	-38.1	23.9	0.00e+00	123	43	0	1360003072	48	5643
2026-01-20 21:07:09.36	358.29	15.63	-37.2	-38.2	23.9	0.00e+00	123	43	0	1372585984	48	5674
2026-01-20 21:07:13.40	357.50	15.45	-37.7	-38.6	23.4	0.00e+00	120	43	0	1385168896	48	5994
2026-01-20 21:07:17.44	356.72	15.26	-37.9	-38.8	23.4	0.00e+00	122	43	0	1398800384	48	6100
2026-01-20 21:07:21.48	355.95	15.07	-37.9	-38.8	23.4	0.00e+00	123	43	0	1410334720	48	6109
2026-01-20 21:07:25.52	355.19	14.88	-37.6	-38.6	23.5	0.00e+00	122	43	0	1422917632	48	5941
2026-01-20 21:07:29.56	354.44	14.68	-37.5	-38.5	23.6	0.00e+00	120	43	0	1436549120	48	5865
2026-01-20 21:07:33.61	353.70	14.48	-37.7	-38.7	23.3	0.00e+00	120	43	0	1449132032	48	6024
2026-01-20 21:07:37.64	352.97	14.28	-37.8	-38.8	23.3	0.00e+00	120	43	0	1461714944	48	6115
2026-01-20 21:07:41.68	352.25	14.08	-37.8	-38.8	23.3	0.00e+00	123	43	0	1474297856	48	6069
2026-01-20 21:07:45.73	351.53	13.87	-38.0	-39.0	23.1	0.00e+00	121	43	0	1486880768	48	6248
2026-01-20 21:07:49.77	350.83	13.66	-38.4	-39.4	22.8	0.00e+00	122	43	0	1499463680	48	6550
2026-01-20 21:07:53.81	350.14	13.45	-38.0	-39.0	23.3	0.00e+00	123	43	0	1512046592	48	6219
2026-01-20 21:07:57.85	349.46	13.23	-37.6	-38.5	23.5	0.00e+00	123	43	0	1524629504	48	5923
2026-01-20 21:08:01.89	348.79	13.01	-37.7	-38.6	23.4	0.00e+00	121	43	0	1537212416	48	5979
2026-01-20 21:08:05.93	348.13	12.79	-37.9	-38.8	23.2	0.00e+00	123	43	0	1549795328	48	6127
2026-01-20 21:08:09.97	347.48	12.57	-38.1	-39.0	22.9	0.00e+00	123	43	0	1562378240	48	6268
2026-01-20 21:08:14.02	346.84	12.35	-38.3	-39.3	22.9	0.00e+00	123	43	0	1574961152	48	6455
2026-01-20 21:08:18.06	346.21	12.13	-38.6	-39.6	22.6	0.00e+00	122	43	0	1587544064	50	5977
2026-01-20 21:08:22.09	345.59	11.90	-38.6	-39.6	22.6	0.00e+00	122	43	0	1600126976	50	5950
2026-01-20 21:08:26.13	344.98	11.68	-38.5	-39.5	22.6	0.00e+00	123	43	0	1612709888	50	5903
2026-01-20 21:08:30.17	344.37	11.45	-38.4	-39.4	22.7	0.00e+00	122	43	0	1625292800	50	5799
2026-01-20 21:08:34.22	343.78	11.22	-38.6	-39.6	22.6	0.00e+00	123	43	0	1637875712	50	5965
2026-01-20 21:08:38.26	343.20	10.99	-38.5	-39.5	22.6	0.00e+00	122	43	0	1650458624	50	5921
2026-01-20 21:08:42.29	342.63	10.76	-38.5	-39.5	22.7	0.00e+00	123	43	0	1663041536	50	5922
2026-01-20 21:08:46.34	342.06	10.53	-38.8	-39.8	22.3	0.00e+00	123	43	0	1675624448	50	6127
2026-01-20 21:08:50.38	341.50	10.30	-38.7	-39.7	22.4	0.00e+00	120	43	0	1688207360	50	6022
2026-01-20 21:08:54.42	340.96	10.07	-38.6	-39.7	22.3	0.00e+00	121	43	0	1700790272	50	6010
2026-01-20 21:08:58.46	340.42	9.83	-38.7	-39.8	22.3	0.00e+00	122	43	0	1714421760	50	6072
2026-01-20 21:09:02.50	339.89	9.60	-39.1	-40.1	22.2	0.00e+00	122	43	0	1727004672	50	6324
2026-01-20 21:09:06.54	339.37	9.37	-39.3	-40.4	21.8	0.00e+00	120	43	0	1739587584	50	6557
2026-01-20 21:09:10.58	338.86	9.14	-39.6	-40.6	21.5	0.00e+00	121	43	0	1752170496	50	6723
2026-01-20 21:09:14.62	338.35	8.91	-39.4	-40.4	21.7	0.00e+00	122	43	0	1764753408	50	6554
2026-01-20 21:09:18.66	337.86	8.67	-39.5	-40.6	21.7	0.00e+00	123	43	0	1777336320	50	6656
2026-01-20 21:09:22.70	337.37	8.44	-39.8	-40.8	21.5	0.00e+00	120	43	0	1789919232	52	6126
2026-01-20 21:09:26.75	336.89	8.21	-39.9	-40.9	21.3	0.00e+00	122	43	0	1802502144	52	6193
2026-01-20 21:09:30.78	336.42	7.98	-39.4	-40.4	21.7	0.00e+00	123	43	0	1815085056	52	5839
2026-01-20 21:09:34.83	335.95	7.74	-39.3	-40.3	21.7	0.00e+00	120	43	0	1827667968	52	5772
2026-01-20 21:09:38.86	335.50	7.51	-40.0	-41.2	20.9	0.00e+00	122	43	0	1840250880	52	6362
2026-01-20 21:09:42.90	335.05	7.28	-40.0	-41.1	20.9	0.00e+00	123	43	0	1852833792	52	6324
2026-01-20 21:09:46.95	334.61	7.05	-39.3	-40.4	21.4	0.00e+00	122	43	0	1865416704	52	5832
2026-01-20 21:09:50.99	334.17	6.82	-39.2	-40.3	21.5	0.00e+00	123	43	0	1877999616	52	5752
2026-01-20 21:09:55.02	333.74	6.59	-39.5	-40.6	21.2	0.00e+00	123	43	0	1890582528	52	5984
2026-01-20 21:09:59.07	333.32	6.36	-40.2	-41.4	20.5	0.00e+00	123	43	0	1903165440	52	6559
2026-01-20 21:10:03.11	332.91	6.14	-40.6	-41.8	20.1	0.00e+00	122	43	0	1915748352	52	6857
2026-01-20 21:10:07.15	332.50	5.91	-40.7	-42.0	19.9	0.00e+00	120	43	0	1928331264	52	6963
2026-01-20 21:10:11.19	332.10	5.68	-40.0	-41.1	20.6	0.00e+00	123	43	0	1940914176	52	6343
2026-01-20 21:10:15.22	331.70	5.45	-39.9	-41.1	20.8	0.00e+00	123	43	0	1953497088	52	6302
2026-01-20 21:10:19.26	331.32	5.23	-41.1	-42.4	19.6	0.00e+00	122	43	0	1966080000	54	6506
2026-01-20 21:10:23.30	330.93	5.00	-40.9	-42.2	19.7	0.00e+00	123	43	0	1978662912	54	6382
2026-01-20 21:10:27.35	330.56	4.78	-41.0	-42.3	19.4	0.00e+00	122	43	0	1991245824	54	6487
2026-01-20 21:10:31.39	330.19	4.55	-41.4	-42.7	19.2	0.00e+00	123	43	0	2004877312	56	6039
2026-01-20 21:10:35.43	329.82	4.33	-40.0	-41.1	20.5	0.00e+00	123	43	0	2016411648	54	5654
2026-01-20 21:10:39.47	329.46	4.11	-40.8	-42.0	19.6	0.00e+00	123	43	0	2030043136	52	7039
2026-01-20 21:10:43.51	329.11	3.89	-41.3	-42.6	18.9	0.00e+00	123	43	0	2042626048	54	6680
2026-01-20 21:10:47.55	328.76	3.67	-41.8	-43.3	18.1	0.00e+00	122	43	0	2055208960	56	6460
2026-01-20 21:10:51.59	328.42	3.45	-41.8	-43.2	18.4	0.00e+00	123	43	0	2067791872	56	6400
2026-01-20 21:10:55.63	328.08	3.23	-40.5	-41.7	19.3	0.00e+00	122	43	0	2080374784	54	6049
2026-01-20 21:10:59.67	327.75	3.01	-49.9	-62.7	3.5	5.39e-01	0	43	104	2091909120	60	47698
2026-01-20 21:11:03.71	327.43	2.79	-51.1	-64.0	3.5	1.52e+00	0	43	104	2091909120	60	55446
2026-01-20 21:11:07.75	327.10	2.57	-51.4	-64.3	3.5	1.52e+00	0	43	104	2091909120	60	57615
2026-01-20 21:11:11.79	326.79	2.36	-51.5	-64.4	3.5	1.52e+00	0	43	104	2091909120	60	57960
2026-01-20 21:11:15.83	326.47	2.14	-51.3	-64.3	3.5	1.52e+00	0	43	104	2091909120	60	57310
2026-01-20 21:11:19.87	326.17	1.93	-51.4	-64.3	3.5	1.52e+00	0	43	104	2091909120	60	57739
2026-01-20 21:11:23.91	325.87	1.72	-51.4	-64.3	3.5	1.52e+00	0	43	104	2091909120	60	57670
2026-01-20 21:11:27.95	325.57	1.50	-51.4	-64.3	3.5	1.52e+00	0	43	104	2091909120	60	57371
2026-01-20 21:11:31.99	325.27	1.29	-51.4	-64.3	3.5	1.52e+00	0	43	104	2091909120	60	57335
2026-01-20 21:11:36.02	324.98	1.08	-51.5	-64.4	3.5	1.52e+00	0	43	104	2091909120	60	58173
2026-01-20 21:11:40.06	324.70	0.87	-51.6	-64.5	3.5	1.52e+00	0	43	104	2091909120	60	58929
2026-01-20 21:11:44.11	324.42	0.66	-51.5	-64.4	3.5	1.51e+00	0	43	104	2091909120	60	58252
2026-01-20 21:11:48.15	324.14	0.45	-51.6	-64.4	3.5	1.51e+00	0	43	104	2091909120	60	58438
2026-01-20 21:11:52.19	323.87	0.24	-51.6	-64.5	3.5	1.51e+00	0	43	104	2091909120	60	58825
2026-01-20 21:11:56.23	323.60	0.04	-51.5	-64.4	3.5	1.51e+00	0	43	104	2091909120	60	58472

#Closed at: 2026-01-20 21:11:57
#Recorded file [2091 MB]: D:/lorett/data/35029_260121_085848.dat