passes_logs/2026/01/20/R4.6S_Anadyr/R4.6S_Anadyr__20260120_012609_NOAA_20_JPSS-1_rec.log

#Pass ID: 20260120_012609_NOAA 20 (JPSS-1)
#Satellite: NOAA 20 (JPSS-1)
#Configuration: NOAA 20
#almurnet v.1.7.20251203
#Start time: 2026-01-20 01:26:11

#Version: 2.2.20231116
#Station: R4.6S_Anadyr
#Location: 177.4865 lon 64.73178 lat
#TLE: 1 43013U 17073A   26019.27717929  .00000087  00000+0  62288-4 0  9995
#TLE: 2 43013  98.7641 320.1715 0001339  33.1986 326.9274 14.19537047423343

#Time	Az	El	Level	Level2	SNR	BER	BlckErr	Temp	State	Recorded	gain1	gain2
2026-01-20 01:26:11.84	187.27	0.15	-53.3	-68.2	3.5	1.51e+00	0	39	0	0	60	93320
2026-01-20 01:26:15.87	187.43	0.38	-52.6	-67.8	3.6	1.51e+00	0	40	104	0	60	88598
2026-01-20 01:26:19.91	187.60	0.62	-53.0	-68.3	3.6	1.51e+00	0	40	104	0	60	94220
2026-01-20 01:26:23.94	187.76	0.85	-52.4	-67.7	3.6	1.51e+00	0	40	104	0	60	87500
2026-01-20 01:26:27.98	187.93	1.09	-51.2	-66.5	3.6	1.51e+00	0	41	104	0	60	76208
2026-01-20 01:26:32.02	188.11	1.33	-50.3	-65.6	3.6	1.51e+00	0	41	104	0	60	68559
2026-01-20 01:26:36.06	188.28	1.57	-49.6	-64.8	3.6	1.51e+00	0	41	104	0	60	63150
2026-01-20 01:26:40.10	188.46	1.82	-49.4	-64.6	3.6	1.51e+00	0	41	104	0	60	61077
2026-01-20 01:26:44.15	188.64	2.06	-49.3	-64.5	3.6	1.51e+00	0	41	104	0	60	60691
2026-01-20 01:26:48.18	188.82	2.31	-49.3	-64.6	3.6	1.51e+00	0	41	104	0	60	61070
2026-01-20 01:26:52.23	189.01	2.56	-50.4	-65.6	3.6	1.51e+00	0	41	104	0	60	68989
2026-01-20 01:26:56.27	189.20	2.81	-49.8	-64.6	3.6	1.51e+00	0	41	104	0	60	61545
2026-01-20 01:27:00.31	189.39	3.06	-50.4	-63.3	3.6	1.51e+00	0	41	104	0	60	52987
2026-01-20 01:27:04.34	189.58	3.32	-48.7	-52.7	12.3	1.37e-03	0	41	0	5242880	60	15560
2026-01-20 01:27:08.38	189.78	3.58	-46.1	-48.5	16.3	0.00e+00	0	41	0	12582912	60	9673
2026-01-20 01:27:12.42	189.98	3.83	-45.5	-47.8	16.6	5.64e-05	0	41	0	19922944	60	8895
2026-01-20 01:27:16.45	190.19	4.10	-45.7	-47.9	16.6	0.00e+00	0	41	0	23068672	60	9010
2026-01-20 01:27:20.49	190.40	4.36	-45.1	-47.2	17.0	0.00e+00	0	41	0	30408704	60	8252
2026-01-20 01:27:24.53	190.61	4.63	-44.0	-45.7	18.2	0.00e+00	0	41	0	38797312	60	7002
2026-01-20 01:27:28.57	190.82	4.90	-44.9	-46.6	18.5	0.00e+00	0	41	0	46137344	60	7759
2026-01-20 01:27:32.61	191.04	5.17	-44.2	-45.9	18.4	0.00e+00	0	41	0	53477376	60	7102
2026-01-20 01:27:36.65	191.27	5.44	-44.2	-45.9	18.2	0.00e+00	0	41	0	60817408	60	7149
2026-01-20 01:27:40.69	191.49	5.72	-44.2	-45.9	18.8	0.00e+00	0	41	0	69206016	60	7123
2026-01-20 01:27:44.72	191.72	5.99	-43.1	-44.6	19.8	0.00e+00	0	41	0	76546048	60	6106
2026-01-20 01:27:48.75	191.96	6.27	-43.2	-44.7	19.5	0.00e+00	0	41	0	83886080	60	6227
2026-01-20 01:27:52.79	192.20	6.56	-44.1	-45.7	19.4	0.00e+00	0	41	0	91226112	60	6966
2026-01-20 01:27:56.83	192.44	6.85	-44.5	-46.0	19.5	0.00e+00	0	41	0	98566144	60	7213
2026-01-20 01:28:00.86	192.69	7.13	-43.2	-44.7	19.9	0.00e+00	0	41	0	106954752	60	6177
2026-01-20 01:28:04.90	192.94	7.43	-43.0	-44.4	20.1	0.00e+00	0	41	0	114294784	60	5971
2026-01-20 01:28:08.94	193.20	7.72	-43.5	-44.9	20.1	0.00e+00	0	41	0	121634816	60	6352
2026-01-20 01:28:12.98	193.47	8.02	-42.5	-43.7	20.5	0.00e+00	0	41	0	128974848	58	6245
2026-01-20 01:28:17.01	193.73	8.32	-43.5	-44.8	20.7	0.00e+00	0	41	0	137363456	58	7049
2026-01-20 01:28:21.05	194.01	8.63	-44.0	-45.3	20.6	0.00e+00	0	41	0	144703488	60	6642
2026-01-20 01:28:25.08	194.29	8.93	-44.7	-46.0	20.6	0.00e+00	0	41	0	152043520	60	7188
2026-01-20 01:28:29.12	194.57	9.24	-43.7	-45.0	20.5	0.00e+00	0	41	0	159383552	60	6423
2026-01-20 01:28:33.15	194.86	9.56	-42.6	-43.9	20.9	0.00e+00	0	41	0	166723584	58	6330
2026-01-20 01:28:37.19	195.16	9.88	-42.1	-43.3	21.2	0.00e+00	0	41	0	175112192	58	5922
2026-01-20 01:28:41.22	195.46	10.20	-42.3	-43.5	21.0	0.00e+00	0	41	0	182452224	58	6049
2026-01-20 01:28:45.26	195.77	10.52	-42.7	-43.9	21.5	0.00e+00	0	41	0	189792256	58	6332
2026-01-20 01:28:49.30	196.09	10.85	-42.1	-43.2	21.4	0.00e+00	0	41	0	197132288	58	5889
2026-01-20 01:28:53.33	196.41	11.18	-43.6	-44.8	21.4	0.00e+00	0	41	0	205520896	58	7013
2026-01-20 01:28:57.37	196.74	11.52	-43.5	-44.6	21.8	0.00e+00	0	41	0	212860928	60	6160
2026-01-20 01:29:01.40	197.07	11.86	-43.0	-44.1	22.1	0.00e+00	0	41	0	220200960	58	6488
2026-01-20 01:29:05.44	197.42	12.20	-42.8	-43.9	22.2	0.00e+00	0	41	0	227540992	58	6353
2026-01-20 01:29:09.48	197.77	12.55	-42.3	-43.4	22.3	0.00e+00	0	41	0	234881024	58	5973
2026-01-20 01:29:13.52	198.13	12.90	-42.3	-43.3	22.3	0.00e+00	0	41	0	243269632	58	5949
2026-01-20 01:29:17.55	198.50	13.25	-41.4	-42.4	22.4	0.00e+00	0	41	0	250609664	56	6003
2026-01-20 01:29:21.59	198.88	13.61	-41.0	-42.0	22.4	0.00e+00	0	41	0	257949696	56	5716
2026-01-20 01:29:25.63	199.26	13.98	-41.1	-42.1	22.5	0.00e+00	0	41	0	265289728	56	5798
2026-01-20 01:29:29.66	199.66	14.35	-41.4	-42.4	22.6	0.00e+00	0	42	0	273678336	56	6029
2026-01-20 01:29:33.70	200.06	14.72	-41.5	-42.5	22.4	0.00e+00	0	41	0	281018368	56	6047
2026-01-20 01:29:37.74	200.48	15.10	-40.8	-41.8	22.8	0.00e+00	0	41	0	288358400	56	5584
2026-01-20 01:29:41.77	200.90	15.48	-41.2	-42.2	22.8	0.00e+00	0	42	0	295698432	54	6595
2026-01-20 01:29:45.80	201.34	15.86	-41.3	-42.3	22.8	0.00e+00	0	42	0	303038464	54	6631
2026-01-20 01:29:49.84	201.79	16.25	-42.0	-43.0	22.9	0.00e+00	0	41	0	311427072	56	6439
2026-01-20 01:29:53.88	202.25	16.65	-42.2	-43.3	22.3	0.00e+00	0	41	0	318767104	56	6649
2026-01-20 01:29:57.91	202.71	17.05	-41.7	-42.8	22.6	0.00e+00	0	42	0	326107136	56	6267
2026-01-20 01:30:01.96	203.20	17.46	-42.0	-43.1	22.5	0.00e+00	0	42	0	333447168	58	5773
2026-01-20 01:30:05.99	203.69	17.87	-41.8	-42.8	22.5	0.00e+00	0	42	0	340787200	56	6312
2026-01-20 01:30:10.04	204.20	18.28	-41.8	-42.9	22.1	0.00e+00	0	42	0	349175808	56	6372
2026-01-20 01:30:14.08	204.72	18.70	-43.0	-44.0	22.2	0.00e+00	0	42	0	356515840	58	6446
2026-01-20 01:30:18.11	205.26	19.13	-42.7	-43.7	22.5	0.00e+00	0	42	0	363855872	58	6225
2026-01-20 01:30:22.14	205.81	19.55	-42.1	-43.2	22.3	0.00e+00	0	42	0	371195904	58	5855
2026-01-20 01:30:26.17	206.37	19.99	-42.2	-43.3	21.9	0.00e+00	0	42	0	379584512	58	5963
2026-01-20 01:30:30.21	206.96	20.43	-42.7	-43.8	21.9	0.00e+00	0	42	0	386924544	58	6283
2026-01-20 01:30:34.24	207.55	20.87	-42.0	-43.1	22.0	0.00e+00	0	42	0	394264576	58	5788
2026-01-20 01:30:38.28	208.17	21.32	-42.0	-43.1	21.8	0.00e+00	0	42	0	401604608	56	6478
2026-01-20 01:30:42.32	208.80	21.77	-41.9	-43.0	21.9	0.00e+00	0	42	0	408944640	56	6416
2026-01-20 01:30:46.36	209.45	22.23	-41.5	-42.5	22.1	0.00e+00	0	42	0	417333248	56	6073
2026-01-20 01:30:50.40	210.12	22.70	-42.4	-43.4	22.4	0.00e+00	0	42	0	424673280	56	6728
2026-01-20 01:30:54.43	210.81	23.16	-41.4	-42.4	22.5	0.00e+00	0	42	0	432013312	56	5978
2026-01-20 01:30:58.47	211.52	23.63	-41.2	-42.2	22.6	0.00e+00	0	42	0	439353344	56	5835
2026-01-20 01:31:02.50	212.25	24.11	-42.4	-43.3	22.8	0.00e+00	0	42	0	447741952	56	6685
2026-01-20 01:31:06.54	213.01	24.59	-42.6	-43.5	23.1	0.00e+00	0	42	0	455081984	56	6819
2026-01-20 01:31:10.57	213.78	25.07	-41.7	-42.6	23.2	0.00e+00	0	42	0	462422016	56	6143
2026-01-20 01:31:14.61	214.58	25.56	-42.0	-43.0	23.4	0.00e+00	0	42	0	469762048	56	6392
2026-01-20 01:31:18.64	215.41	26.04	-43.3	-44.4	22.6	0.00e+00	0	42	0	477102080	58	6698
2026-01-20 01:31:22.69	216.26	26.54	-41.7	-42.7	22.9	0.00e+00	0	42	0	485490688	56	6219
2026-01-20 01:31:26.72	217.13	27.03	-41.9	-42.8	23.0	0.00e+00	0	42	0	492830720	56	6306
2026-01-20 01:31:30.77	218.04	27.53	-42.5	-43.5	22.6	0.00e+00	0	42	0	500170752	56	6788
2026-01-20 01:31:34.80	218.96	28.03	-42.0	-43.0	22.7	0.00e+00	0	42	0	507510784	58	5759
2026-01-20 01:31:38.83	219.92	28.52	-42.1	-43.1	22.1	0.00e+00	0	42	0	514850816	56	6537
2026-01-20 01:31:42.87	220.91	29.02	-43.6	-44.7	21.9	0.00e+00	0	42	0	523239424	60	6203
2026-01-20 01:31:46.91	221.93	29.52	-44.3	-45.5	21.1	0.00e+00	0	42	0	530579456	60	6843
2026-01-20 01:31:50.95	222.98	30.01	-43.3	-44.4	21.7	0.00e+00	0	42	0	537919488	60	6016
2026-01-20 01:31:54.98	224.06	30.51	-43.9	-45.1	21.2	0.00e+00	0	42	0	545259520	60	6486
2026-01-20 01:31:59.02	225.17	31.00	-44.1	-45.4	20.6	0.00e+00	0	42	0	553648128	60	6702
2026-01-20 01:32:03.06	226.32	31.49	-44.6	-45.8	20.9	0.00e+00	0	42	0	560988160	60	7060
2026-01-20 01:32:07.10	227.51	31.97	-46.2	-47.8	19.3	0.00e+00	0	42	0	568328192	60	8917
2026-01-20 01:32:11.13	228.72	32.45	-46.8	-48.5	18.7	0.00e+00	0	42	0	575668224	60	9644
2026-01-20 01:32:15.17	229.97	32.92	-47.1	-49.0	18.0	0.00e+00	0	42	0	583008256	60	10220
2026-01-20 01:32:19.21	231.26	33.38	-47.1	-48.9	18.1	0.00e+00	0	42	0	591396864	60	10085
2026-01-20 01:32:23.24	232.59	33.83	-47.7	-49.8	17.1	0.00e+00	0	42	0	598736896	60	11216
2026-01-20 01:32:27.28	233.95	34.27	-46.2	-47.6	19.9	0.00e+00	0	42	0	606076928	60	8714
2026-01-20 01:32:31.32	235.34	34.70	-46.2	-47.7	19.2	0.00e+00	0	42	0	613416960	60	8807
2026-01-20 01:32:35.35	236.77	35.12	-47.3	-49.0	19.0	0.00e+00	0	42	0	621805568	60	10194
2026-01-20 01:32:39.39	238.24	35.52	-45.7	-47.1	20.4	0.00e+00	0	42	0	629145600	60	8139
2026-01-20 01:32:43.43	239.75	35.91	-44.6	-45.9	20.4	0.00e+00	0	42	0	636485632	60	7158
2026-01-20 01:32:47.46	241.28	36.27	-44.0	-45.2	21.6	0.00e+00	0	42	0	643825664	60	6546
2026-01-20 01:32:51.50	242.85	36.62	-43.1	-44.1	22.1	0.00e+00	0	42	0	651165696	60	5818
2026-01-20 01:32:55.53	244.45	36.95	-44.0	-45.1	21.8	0.00e+00	0	42	0	659554304	60	6473
2026-01-20 01:32:59.57	246.09	37.25	-44.1	-45.2	21.4	0.00e+00	0	42	0	666894336	60	6604
2026-01-20 01:33:03.61	247.76	37.54	-43.6	-44.8	21.2	0.00e+00	0	42	0	674234368	60	6255
2026-01-20 01:33:07.64	249.44	37.79	-44.4	-45.6	21.5	0.00e+00	0	42	0	681574400	60	6854
2026-01-20 01:33:11.67	251.16	38.02	-44.4	-45.6	21.1	0.00e+00	0	42	0	689963008	60	6891
2026-01-20 01:33:15.71	252.90	38.23	-43.3	-44.5	21.0	0.00e+00	0	42	0	697303040	60	6061
2026-01-20 01:33:19.74	254.65	38.40	-44.5	-45.8	21.0	0.00e+00	0	42	0	704643072	60	7034
2026-01-20 01:33:23.78	256.43	38.55	-44.8	-46.2	20.0	0.00e+00	0	42	0	711983104	60	7348
2026-01-20 01:33:27.81	258.21	38.67	-45.1	-46.6	19.7	0.00e+00	0	42	0	719323136	60	7733
2026-01-20 01:33:31.85	260.01	38.75	-44.8	-46.2	19.9	0.00e+00	0	42	0	727711744	60	7409
2026-01-20 01:33:35.89	261.82	38.81	-46.0	-47.5	19.3	0.00e+00	0	42	0	735051776	60	8593
2026-01-20 01:33:39.93	263.64	38.83	-46.1	-47.7	19.0	0.00e+00	0	42	0	742391808	60	8733
2026-01-20 01:33:43.97	265.45	38.82	-46.6	-48.0	19.7	0.00e+00	0	42	0	749731840	60	9063
2026-01-20 01:33:48.01	267.26	38.78	-45.5	-46.9	20.3	0.00e+00	0	41	0	758120448	60	7959
2026-01-20 01:33:52.04	269.06	38.71	-44.2	-45.5	20.8	0.00e+00	0	42	0	765460480	60	6822
2026-01-20 01:33:56.08	270.85	38.61	-43.8	-45.0	21.2	0.00e+00	0	42	0	772800512	60	6395
2026-01-20 01:34:00.12	272.64	38.48	-44.3	-45.6	20.7	0.00e+00	0	42	0	780140544	60	6895
2026-01-20 01:34:04.15	274.40	38.31	-45.8	-47.4	18.9	0.00e+00	0	42	0	787480576	60	8510
2026-01-20 01:34:08.19	276.14	38.12	-47.0	-48.8	18.1	0.00e+00	0	42	0	795869184	60	9968
2026-01-20 01:34:12.22	277.87	37.91	-44.5	-45.8	20.7	0.00e+00	0	42	0	803209216	60	7024
2026-01-20 01:34:16.25	279.56	37.66	-44.3	-45.7	20.0	0.00e+00	0	41	0	810549248	60	6954
2026-01-20 01:34:20.29	281.24	37.39	-42.4	-43.5	22.2	0.00e+00	0	42	0	817889280	58	6054
2026-01-20 01:34:24.33	282.88	37.10	-42.5	-43.5	22.5	0.00e+00	0	42	0	825229312	58	6054
2026-01-20 01:34:28.35	284.49	36.78	-42.7	-43.6	22.7	0.00e+00	0	42	0	833617920	58	6173
2026-01-20 01:34:32.39	286.07	36.44	-41.0	-41.9	23.5	0.00e+00	0	42	0	840957952	56	5683
2026-01-20 01:34:36.42	287.62	36.09	-42.1	-43.0	23.2	0.00e+00	0	42	0	848297984	56	6426
2026-01-20 01:34:40.45	289.13	35.71	-41.2	-42.1	23.8	0.00e+00	0	42	0	855638016	54	6510
2026-01-20 01:34:44.49	290.62	35.32	-41.1	-41.9	24.3	0.00e+00	0	42	0	862978048	54	6374
2026-01-20 01:34:48.52	292.06	34.91	-42.2	-43.2	22.7	0.00e+00	0	42	0	871366656	56	6598
2026-01-20 01:34:52.56	293.47	34.49	-41.3	-42.3	23.2	0.00e+00	0	42	0	878706688	56	5905
2026-01-20 01:34:56.60	294.84	34.06	-42.1	-43.1	23.1	0.00e+00	0	42	0	886046720	58	5787
2026-01-20 01:35:00.63	296.18	33.61	-43.6	-44.8	21.2	0.00e+00	0	42	0	893386752	58	7036
2026-01-20 01:35:04.67	297.48	33.16	-42.1	-43.2	22.1	0.00e+00	0	42	0	901775360	58	5840
2026-01-20 01:35:08.71	298.75	32.69	-43.8	-45.0	21.4	0.00e+00	0	42	0	909115392	60	6445
2026-01-20 01:35:12.74	299.97	32.22	-44.2	-45.5	20.4	0.00e+00	0	41	0	916455424	60	6828
2026-01-20 01:35:16.78	301.17	31.74	-42.5	-43.5	22.6	0.00e+00	0	41	0	923795456	58	6067
2026-01-20 01:35:20.81	302.33	31.26	-44.5	-45.8	20.6	0.00e+00	0	41	0	931135488	60	7046
2026-01-20 01:35:24.85	303.45	30.77	-41.8	-42.7	23.2	0.00e+00	0	41	0	939524096	56	6206
2026-01-20 01:35:28.88	304.55	30.29	-44.5	-45.9	20.4	0.00e+00	0	41	0	946864128	60	7121
2026-01-20 01:35:32.91	305.61	29.79	-41.9	-42.9	22.2	0.00e+00	0	42	0	954204160	58	5694
2026-01-20 01:35:36.95	306.64	29.30	-43.4	-44.7	20.8	0.00e+00	0	42	0	961544192	60	6242
2026-01-20 01:35:40.98	307.64	28.81	-41.1	-42.0	23.5	0.00e+00	0	41	0	968884224	54	6394
2026-01-20 01:35:45.02	308.61	28.31	-42.5	-43.6	21.9	0.00e+00	0	41	0	977272832	58	6111
2026-01-20 01:35:49.06	309.55	27.82	-42.4	-43.4	22.7	0.00e+00	0	42	0	984612864	58	5981
2026-01-20 01:35:53.10	310.46	27.32	-43.0	-44.1	21.6	0.00e+00	0	41	0	991952896	60	5820
2026-01-20 01:35:57.14	311.35	26.83	-42.9	-44.0	22.0	0.00e+00	0	42	0	999292928	58	6435
2026-01-20 01:36:01.17	312.21	26.34	-42.5	-43.5	22.6	0.00e+00	0	41	0	1007681536	58	6055
2026-01-20 01:36:05.21	313.04	25.85	-41.0	-41.9	24.3	0.00e+00	0	41	0	1015021568	56	5658
2026-01-20 01:36:09.24	313.85	25.37	-41.6	-42.5	23.6	0.00e+00	0	42	0	1022361600	56	6101
2026-01-20 01:36:13.28	314.63	24.89	-40.2	-41.0	24.6	0.00e+00	0	42	0	1029701632	54	5729
2026-01-20 01:36:17.32	315.40	24.41	-41.5	-42.4	24.2	0.00e+00	0	41	0	1037041664	54	6727
2026-01-20 01:36:21.35	316.14	23.94	-41.8	-42.6	24.4	0.00e+00	0	42	0	1045430272	56	6158
2026-01-20 01:36:25.39	316.86	23.47	-40.4	-41.2	25.0	0.00e+00	0	41	0	1052770304	52	6565
2026-01-20 01:36:29.42	317.55	23.00	-40.9	-41.7	24.3	0.00e+00	0	42	0	1060110336	54	6219
2026-01-20 01:36:33.45	318.23	22.54	-42.1	-43.0	23.8	0.00e+00	0	42	0	1067450368	56	6404
2026-01-20 01:36:37.49	318.89	22.08	-41.6	-42.4	24.5	0.00e+00	0	41	0	1075838976	56	6007
2026-01-20 01:36:41.53	319.53	21.63	-41.3	-42.2	24.2	0.00e+00	0	42	0	1083179008	56	5862
2026-01-20 01:36:45.56	320.15	21.18	-40.2	-41.0	24.1	0.00e+00	0	41	0	1090519040	54	5736
2026-01-20 01:36:49.60	320.76	20.74	-41.8	-42.6	24.1	0.00e+00	0	41	0	1097859072	56	6171
2026-01-20 01:36:53.63	321.35	20.30	-41.7	-42.6	23.8	0.00e+00	0	41	0	1105199104	56	6151
2026-01-20 01:36:57.67	321.92	19.87	-41.8	-42.6	24.3	0.00e+00	0	42	0	1113587712	56	6147
2026-01-20 01:37:01.70	322.48	19.44	-42.1	-43.0	23.6	0.00e+00	0	42	0	1120927744	56	6450
2026-01-20 01:37:05.74	323.02	19.01	-42.6	-43.6	22.7	0.00e+00	0	42	0	1128267776	58	6142
2026-01-20 01:37:09.78	323.55	18.59	-42.5	-43.4	23.3	0.00e+00	0	42	0	1135607808	56	6732
2026-01-20 01:37:13.81	324.07	18.18	-43.3	-44.3	22.8	0.00e+00	0	41	0	1143996416	58	6638
2026-01-20 01:37:17.85	324.57	17.77	-43.6	-44.7	21.9	0.00e+00	0	42	0	1151336448	60	6214
2026-01-20 01:37:21.89	325.06	17.36	-42.1	-43.1	22.3	0.00e+00	0	42	0	1158676480	58	5823
2026-01-20 01:37:25.93	325.53	16.96	-42.3	-43.2	22.6	0.00e+00	0	42	0	1166016512	58	5861
2026-01-20 01:37:29.97	326.00	16.57	-43.2	-44.2	22.7	0.00e+00	0	42	0	1173356544	58	6596
2026-01-20 01:37:34.00	326.45	16.18	-44.1	-45.2	21.8	0.00e+00	0	41	0	1181745152	60	6554
2026-01-20 01:37:38.04	326.89	15.79	-43.0	-44.1	21.9	0.00e+00	0	41	0	1189085184	60	5769
2026-01-20 01:37:42.08	327.32	15.41	-43.6	-44.7	22.8	0.00e+00	0	42	0	1196425216	58	6973
2026-01-20 01:37:46.12	327.75	15.03	-43.6	-44.6	22.9	0.00e+00	0	42	0	1203765248	60	6127
2026-01-20 01:37:50.15	328.16	14.66	-42.3	-43.3	22.3	0.00e+00	0	41	0	1212153856	58	5943
2026-01-20 01:37:54.19	328.56	14.29	-44.1	-45.3	21.5	0.00e+00	0	41	0	1219493888	60	6655
2026-01-20 01:37:58.23	328.95	13.93	-43.6	-44.7	21.7	0.00e+00	0	41	0	1226833920	60	6220
2026-01-20 01:38:02.26	329.33	13.57	-42.8	-43.9	22.3	0.00e+00	0	41	0	1234173952	58	6324
2026-01-20 01:38:06.30	329.71	13.21	-41.6	-42.6	22.6	0.00e+00	0	42	0	1241513984	56	6146
2026-01-20 01:38:10.34	330.07	12.86	-42.3	-43.3	22.5	0.00e+00	0	41	0	1249902592	58	5936
2026-01-20 01:38:14.38	330.43	12.51	-42.3	-43.3	22.3	0.00e+00	0	42	0	1257242624	58	5954
2026-01-20 01:38:18.42	330.78	12.17	-42.0	-43.1	22.1	0.00e+00	0	41	0	1264582656	58	5797
2026-01-20 01:38:22.46	331.12	11.83	-42.8	-43.9	21.9	0.00e+00	0	41	0	1271922688	56	7152
2026-01-20 01:38:26.49	331.46	11.50	-42.9	-44.0	22.0	0.00e+00	0	42	0	1279262720	58	6402
2026-01-20 01:38:30.53	331.79	11.16	-42.5	-43.5	22.3	0.00e+00	0	41	0	1287651328	58	6100
2026-01-20 01:38:34.57	332.11	10.83	-42.9	-44.0	22.1	0.00e+00	0	41	0	1294991360	58	6424
2026-01-20 01:38:38.61	332.42	10.51	-43.3	-44.4	21.9	0.00e+00	0	42	0	1302331392	60	6022
2026-01-20 01:38:42.64	332.73	10.19	-43.9	-45.0	21.6	0.00e+00	0	42	0	1309671424	60	6462
2026-01-20 01:38:46.68	333.03	9.87	-44.6	-45.9	21.2	0.00e+00	0	41	0	1318060032	60	7101
2026-01-20 01:38:50.72	333.33	9.56	-44.4	-45.7	20.9	0.00e+00	0	41	0	1325400064	60	6937
2026-01-20 01:38:54.75	333.62	9.25	-44.9	-46.2	20.4	0.00e+00	0	42	0	1332740096	60	7397
2026-01-20 01:38:58.79	333.90	8.94	-44.1	-45.4	20.6	0.00e+00	0	41	0	1340080128	60	6755
2026-01-20 01:39:02.83	334.18	8.64	-44.5	-46.0	20.1	0.00e+00	0	42	0	1347420160	60	7181
2026-01-20 01:39:06.86	334.45	8.33	-45.0	-46.4	19.4	0.00e+00	0	41	0	1355808768	60	7559
2026-01-20 01:39:10.90	334.72	8.04	-44.5	-45.9	19.9	0.00e+00	0	41	0	1363148800	60	7153
2026-01-20 01:39:14.94	334.98	7.74	-45.1	-46.5	20.0	0.00e+00	0	42	0	1370488832	60	7667
2026-01-20 01:39:18.97	335.24	7.45	-45.3	-46.8	19.7	0.00e+00	0	41	0	1377828864	60	7901
2026-01-20 01:39:23.01	335.50	7.16	-44.8	-46.3	19.6	0.00e+00	0	42	0	1386217472	60	7477
2026-01-20 01:39:27.05	335.75	6.87	-43.6	-45.2	19.1	0.00e+00	0	41	0	1393557504	60	6555
2026-01-20 01:39:31.08	335.99	6.59	-43.2	-44.8	19.2	0.00e+00	0	42	0	1400897536	60	6289
2026-01-20 01:39:35.13	336.23	6.31	-43.8	-45.4	19.0	0.00e+00	0	42	0	1408237568	60	6762
2026-01-20 01:39:39.16	336.47	6.03	-45.3	-47.1	18.1	0.00e+00	0	42	0	1415577600	60	8206
2026-01-20 01:39:43.20	336.70	5.75	-46.2	-48.3	17.1	0.00e+00	0	42	0	1423966208	60	9422
2026-01-20 01:39:47.23	336.93	5.48	-47.2	-50.0	15.5	0.00e+00	0	42	0	1431306240	60	11463
2026-01-20 01:39:51.27	337.15	5.21	-47.1	-50.9	12.8	3.81e-05	0	42	0	1438646272	60	12750
2026-01-20 01:39:55.31	337.37	4.94	-47.6	-52.6	10.3	4.21e-03	0	42	0	1445986304	60	15347
2026-01-20 01:39:59.35	337.59	4.68	-47.8	-54.4	7.6	7.09e-02	0	42	0	1454374912	60	18954
2026-01-20 01:40:03.38	337.80	4.41	-47.7	-55.8	5.6	3.37e-01	0	42	0	1461714944	60	22168
2026-01-20 01:40:07.42	338.01	4.15	-48.8	-59.3	3.8	1.37e+00	0	42	0	1468006400	60	33193
2026-01-20 01:40:11.47	338.22	3.89	-48.0	-61.9	3.6	1.51e+00	0	42	104	1468006400	60	44990
2026-01-20 01:40:15.51	338.42	3.63	-48.7	-63.9	3.6	1.51e+00	0	42	104	1468006400	60	56413
2026-01-20 01:40:19.54	338.62	3.38	-48.4	-63.6	3.6	1.51e+00	0	42	104	1468006400	60	54681
2026-01-20 01:40:23.58	338.82	3.13	-48.4	-63.6	3.6	1.51e+00	0	42	104	1468006400	60	54772
2026-01-20 01:40:27.62	339.01	2.88	-51.5	-66.7	3.6	1.51e+00	0	42	104	1468006400	60	78532
2026-01-20 01:40:31.66	339.20	2.63	-52.4	-67.6	3.6	1.51e+00	0	42	104	1468006400	60	86348
2026-01-20 01:40:35.70	339.39	2.38	-52.6	-67.8	3.6	1.51e+00	0	42	104	1468006400	60	88946
2026-01-20 01:40:39.73	339.58	2.14	-52.7	-68.1	3.6	1.51e+00	0	42	104	1468006400	60	91500
2026-01-20 01:40:43.76	339.76	1.89	-52.1	-67.4	3.6	1.51e+00	0	42	104	1468006400	60	84951
2026-01-20 01:40:47.80	339.94	1.65	-53.2	-68.5	3.6	1.51e+00	0	42	104	1468006400	60	95866
2026-01-20 01:40:51.84	340.12	1.41	-53.4	-68.6	3.6	1.51e+00	0	42	104	1468006400	60	97426
2026-01-20 01:40:55.87	340.29	1.18	-53.8	-69.0	3.6	1.51e+00	0	42	104	1468006400	60	101698
2026-01-20 01:40:59.91	340.46	0.94	-51.4	-66.6	3.6	1.51e+00	0	42	104	1468006400	60	77609
2026-01-20 01:41:03.96	340.63	0.71	-51.9	-67.1	3.6	1.51e+00	0	42	104	1468006400	60	81606
2026-01-20 01:41:08.00	340.80	0.47	-52.8	-67.9	3.6	1.51e+00	0	42	104	1468006400	60	90233
2026-01-20 01:41:12.03	340.97	0.24	-53.8	-69.0	3.6	1.51e+00	0	42	104	1468006400	60	101684
2026-01-20 01:41:16.08	341.13	0.01	-53.6	-68.8	3.6	1.51e+00	0	42	104	1468006400	60	98985

#Closed at: 2026-01-20 01:41:18
#Recorded file [1468 MB]: D:/lorett/data/35029_260120_132611.dat