passes_logs/2025/01/04/X_MFTI_01/X_MFTI_01__20250104_234226_SUOMI_NPP_rec.log

#Pass ID: 20250104_234226_SUOMI NPP
#Satellite: SUOMI NPP
#Configuration: NPP
#Start time: 2025-01-04 23:42:21

#Version: 1.5.20200625
#Station: X_MFTI_01
#Location: 37.5186 lon 55.9291 lat
#TLE: 1 37849U 11061A   23362.48341244  .00000167  00000+0  99749-4 0  9991
#TLE: 2 37849  98.7252 298.0509 0001500  77.1966 282.9377 14.19535461630502

#Time	Az	El	Level	Level2	SNR	BER	Gain	Gain2
2025-01-04 23:42:21.30	28.04	68.26	-71.5	-96.4	3.8	14922027	99	63118
2025-01-04 23:42:21.71	28.15	68.44	-71.4	-96.2	3.8	14897384	99	62497
2025-01-04 23:42:22.12	28.26	68.62	-71.4	-96.2	3.8	14909027	99	62584
2025-01-04 23:42:22.52	28.36	68.80	-71.5	-96.3	3.8	14910591	99	62592
2025-01-04 23:42:22.92	28.47	68.98	-71.4	-96.1	3.8	14897796	99	61955
2025-01-04 23:42:23.34	28.59	69.17	-71.5	-96.2	3.8	14914642	99	61844
2025-01-04 23:42:23.74	28.70	69.35	-71.5	-96.1	3.8	14909629	99	61767
2025-01-04 23:42:24.14	28.82	69.54	-71.4	-96.1	3.8	14911315	99	61956
2025-01-04 23:42:24.56	28.94	69.73	-71.5	-96.2	3.8	14905868	99	61988
2025-01-04 23:42:24.96	29.06	69.91	-71.5	-96.2	3.8	14906806	99	61888
2025-01-04 23:42:25.37	29.19	70.09	-71.4	-96.1	3.8	14906806	99	62168
2025-01-04 23:42:25.78	29.31	70.28	-71.5	-96.2	3.8	14901924	99	62122
2025-01-04 23:42:26.20	29.45	70.47	-71.5	-96.3	3.8	14903984	99	62201
2025-01-04 23:42:26.60	29.58	70.66	-71.5	-96.2	3.8	14899414	99	62284
2025-01-04 23:42:27.00	29.71	70.84	-71.4	-96.2	3.8	14899436	99	62254
2025-01-04 23:42:27.42	29.85	71.03	-71.4	-96.2	3.8	14908149	99	62378
2025-01-04 23:42:27.84	30.00	71.22	-71.5	-96.2	3.9	14908927	99	62188
2025-01-04 23:42:28.24	30.14	71.41	-71.5	-96.2	3.9	14906036	99	62167
2025-01-04 23:42:28.66	30.29	71.60	-71.4	-96.2	3.8	14893081	99	62197
2025-01-04 23:42:29.06	30.44	71.78	-71.5	-96.2	3.8	14905662	99	62197
2025-01-04 23:42:29.47	30.59	71.97	-71.5	-96.2	3.9	14913726	99	62130
2025-01-04 23:42:29.88	30.75	72.16	-71.5	-96.2	3.9	14901306	99	61892
2025-01-04 23:42:30.28	30.91	72.35	-71.4	-96.1	3.8	14903244	99	61966
2025-01-04 23:42:30.68	31.07	72.53	-71.5	-96.2	3.8	14902191	99	61910
2025-01-04 23:42:31.08	31.23	72.72	-71.5	-96.1	3.9	14912322	99	61438
2025-01-04 23:42:31.49	31.40	72.91	-71.5	-96.1	3.9	14912322	99	61613
2025-01-04 23:42:31.90	31.58	73.10	-71.4	-96.2	3.8	14916343	99	61952
2025-01-04 23:42:32.31	31.76	73.29	-71.4	-96.1	3.8	14913581	99	61860
2025-01-04 23:42:32.72	31.95	73.48	-71.5	-96.1	3.8	14910865	99	61718
2025-01-04 23:42:33.14	32.14	73.67	-71.5	-96.1	3.9	14895133	99	61376
2025-01-04 23:42:33.54	32.33	73.86	-71.4	-96.1	3.8	14899345	99	61860
2025-01-04 23:42:33.95	32.53	74.05	-71.5	-96.2	3.8	14915679	99	61861
2025-01-04 23:42:34.36	32.73	74.24	-71.5	-96.1	3.9	14910881	99	61446
2025-01-04 23:42:34.77	32.94	74.43	-71.4	-96.1	3.9	14901939	99	61390
2025-01-04 23:42:35.17	33.15	74.62	-71.4	-96.1	3.8	14918792	99	61947
2025-01-04 23:42:35.57	33.37	74.81	-71.5	-96.3	3.8	14902389	99	62644
2025-01-04 23:42:35.97	33.59	74.99	-71.5	-96.3	3.8	14900733	99	62513
2025-01-04 23:42:36.39	33.82	75.19	-71.5	-96.3	3.8	14901260	99	62553
2025-01-04 23:42:36.79	34.05	75.37	-71.4	-96.2	3.8	14897544	99	62617
2025-01-04 23:42:37.20	34.30	75.57	-71.4	-96.1	3.8	14897544	99	61990
2025-01-04 23:42:37.61	34.55	75.76	-71.5	-96.3	3.8	14900199	99	62513
2025-01-04 23:42:38.03	34.81	75.95	-71.5	-96.3	3.8	14900199	99	62791
2025-01-04 23:42:38.43	35.07	76.14	-71.5	-96.3	3.8	14906974	99	62627
2025-01-04 23:42:38.85	35.35	76.34	-71.5	-96.3	3.8	14909194	99	62401
2025-01-04 23:42:39.25	35.63	76.52	-71.4	-96.2	3.8	14898681	99	62234
2025-01-04 23:42:39.66	35.92	76.71	-71.4	-96.1	3.8	14907600	99	62164
2025-01-04 23:42:40.06	36.21	76.90	-71.4	-96.2	3.8	14909400	99	62269
2025-01-04 23:42:40.46	36.51	77.09	-71.5	-96.3	3.8	14914161	99	62823
2025-01-04 23:42:40.86	36.81	77.27	-71.5	-96.3	3.8	14906372	99	62923
2025-01-04 23:42:41.26	37.13	77.46	-71.4	-96.2	3.8	14902198	99	62292
2025-01-04 23:42:41.67	37.47	77.65	-71.4	-96.3	3.8	14907943	99	62909
2025-01-04 23:42:42.08	37.81	77.84	-71.5	-96.3	3.8	14908065	99	62959
2025-01-04 23:42:42.49	38.17	78.03	-71.5	-96.3	3.9	14915405	99	62620
2025-01-04 23:42:42.90	38.54	78.22	-71.5	-96.3	3.8	14907386	99	62704
2025-01-04 23:42:43.31	38.92	78.41	-71.4	-96.2	3.8	14906150	99	62218
2025-01-04 23:42:43.72	39.32	78.60	-71.5	-96.3	3.9	14906150	99	62612
2025-01-04 23:42:44.12	39.71	78.78	-71.5	-96.3	3.8	14909851	99	62600
2025-01-04 23:42:44.53	40.14	78.97	-71.4	-96.3	3.8	14906753	99	63123
2025-01-04 23:42:44.94	40.57	79.16	-71.5	-96.3	3.8	14905067	99	62730
2025-01-04 23:42:45.35	41.03	79.35	-71.5	-96.3	3.9	14910591	99	62400
2025-01-04 23:42:45.75	41.48	79.53	-71.5	-96.2	3.8	14900894	99	62348
2025-01-04 23:42:46.15	41.96	79.72	-71.5	-96.3	3.8	14900039	99	62891
2025-01-04 23:42:46.55	42.45	79.90	-71.5	-96.3	3.8	14910392	99	62655
2025-01-04 23:42:46.96	42.97	80.08	-71.5	-96.3	3.9	14907150	99	62430
2025-01-04 23:42:47.36	43.50	80.26	-71.5	-96.2	3.8	14904548	99	62097
2025-01-04 23:42:47.76	44.05	80.44	-71.5	-96.3	3.8	14907989	99	62722
2025-01-04 23:42:48.18	44.65	80.63	-71.4	-96.3	3.8	14912811	99	62677
2025-01-04 23:42:48.59	45.26	80.81	-71.5	-96.3	3.8	14896675	99	62691
2025-01-04 23:42:49.00	45.90	81.00	-71.4	-96.3	3.8	14902755	99	62657
2025-01-04 23:42:49.40	46.54	81.17	-71.4	-96.3	3.8	14902755	99	62927
2025-01-04 23:42:49.82	47.25	81.36	-71.5	-96.3	3.8	14903610	99	63123
2025-01-04 23:42:50.22	47.95	81.53	-71.5	-96.3	3.8	14912590	99	63005
2025-01-04 23:42:50.62	48.68	81.70	-71.4	-96.2	3.8	14905281	99	62436
2025-01-04 23:42:51.04	49.48	81.89	-71.4	-96.2	3.8	14902885	99	62627
2025-01-04 23:42:51.44	50.28	82.06	-71.5	-96.3	3.9	14907386	99	62378
2025-01-04 23:42:51.86	51.15	82.23	-71.5	-96.3	3.8	14906265	99	62671
2025-01-04 23:42:52.26	52.02	82.40	-71.4	-96.2	3.8	14898880	99	62621
2025-01-04 23:42:52.66	52.93	82.57	-71.5	-96.3	3.8	14909782	99	62564
2025-01-04 23:42:53.06	53.89	82.73	-71.5	-96.3	3.9	14906127	99	62377
2025-01-04 23:42:53.47	54.91	82.90	-71.5	-96.2	3.9	14898925	99	62210
2025-01-04 23:42:53.87	55.95	83.06	-71.5	-96.3	3.8	14910377	99	62649
2025-01-04 23:42:54.29	57.10	83.22	-71.5	-96.3	3.8	14914901	99	62723
2025-01-04 23:42:54.69	58.25	83.38	-71.5	-96.3	3.8	14893096	99	62409
2025-01-04 23:42:55.09	59.45	83.53	-71.5	-96.3	3.8	14893096	99	62646
2025-01-04 23:42:55.49	60.71	83.68	-71.5	-96.3	3.8	14905792	99	63004
2025-01-04 23:42:55.90	62.06	83.83	-71.5	-96.3	3.9	14898994	99	62730
2025-01-04 23:42:56.30	63.45	83.97	-71.5	-96.3	3.8	14916206	99	62833
2025-01-04 23:42:56.70	64.90	84.11	-71.4	-96.3	3.8	14908241	99	62794
2025-01-04 23:42:57.11	66.46	84.25	-71.5	-96.3	3.8	14898757	99	62957
2025-01-04 23:42:57.51	68.06	84.38	-71.5	-96.3	3.8	14913192	99	62915
2025-01-04 23:42:57.91	69.73	84.50	-71.5	-96.3	3.8	14896629	99	62947
2025-01-04 23:42:58.33	71.57	84.63	-71.5	-96.3	3.8	14908042	99	62934
2025-01-04 23:42:58.73	73.40	84.75	-71.4	-96.3	3.8	14910499	99	62900
2025-01-04 23:42:59.16	75.46	84.87	-71.5	-96.3	3.8	14915664	99	62932
2025-01-04 23:42:59.56	77.47	84.97	-71.5	-96.4	3.8	14901199	99	62982
2025-01-04 23:42:59.96	79.55	85.07	-71.4	-96.3	3.8	14902015	99	62878
2025-01-04 23:43:00.37	81.77	85.16	-71.5	-96.2	3.8	14919883	99	62426
2025-01-04 23:43:00.77	84.02	85.25	-71.5	-96.2	3.9	14897071	99	61938
2025-01-04 23:43:01.19	86.47	85.33	-71.5	-96.2	3.9	14897071	99	61853
2025-01-04 23:43:01.59	88.87	85.40	-71.5	-96.3	3.8	14905570	99	62346
2025-01-04 23:43:02.00	91.40	85.46	-71.5	-96.2	3.8	14908943	99	62229
2025-01-04 23:43:02.41	94.00	85.51	-71.5	-96.2	3.9	14911445	99	62099
2025-01-04 23:43:02.82	96.66	85.55	-71.5	-96.1	3.9	14910659	99	61597
2025-01-04 23:43:03.23	99.36	85.58	-71.5	-96.2	3.8	14907165	99	62334
2025-01-04 23:43:03.64	102.09	85.61	-71.4	-96.2	3.8	14918190	99	62493
2025-01-04 23:43:04.05	104.85	85.62	-71.4	-96.1	3.8	14903869	99	62169
2025-01-04 23:43:04.46	107.62	85.62	-71.4	-96.0	3.8	14907615	99	61517
2025-01-04 23:43:04.86	110.31	85.62	-71.4	-96.2	3.8	14901641	99	62131
2025-01-04 23:43:05.27	113.06	85.60	-71.4	-96.2	3.8	14910812	99	62405
2025-01-04 23:43:05.70	115.92	85.57	-71.4	-96.2	3.8	14903953	99	62322
2025-01-04 23:43:06.11	118.60	85.53	-71.4	-96.2	3.8	14900482	99	62290
2025-01-04 23:43:06.52	121.23	85.49	-71.4	-96.2	3.8	14915130	99	62251
2025-01-04 23:43:06.93	123.80	85.43	-71.5	-96.2	3.8	14908973	99	62035
2025-01-04 23:43:07.33	126.25	85.37	-71.4	-96.2	3.8	14904571	99	62130
2025-01-04 23:43:07.75	128.74	85.29	-71.4	-96.1	3.8	14898559	99	62324
2025-01-04 23:43:08.15	131.03	85.21	-71.4	-96.2	3.8	14898559	99	62303
2025-01-04 23:43:08.57	133.35	85.12	-71.4	-96.2	3.8	14913192	99	62273
2025-01-04 23:43:08.97	135.49	85.03	-71.4	-96.2	3.8	14915885	99	62157
2025-01-04 23:43:09.37	137.53	84.93	-71.4	-96.2	3.8	14894660	99	62209
2025-01-04 23:43:09.77	139.50	84.82	-71.4	-96.2	3.8	14905799	99	62204
2025-01-04 23:43:10.18	141.43	84.70	-71.4	-96.2	3.8	14911376	99	62189
2025-01-04 23:43:10.58	143.23	84.58	-71.5	-96.3	3.8	14903625	99	62703
2025-01-04 23:43:10.98	144.95	84.46	-71.5	-96.3	3.8	14905448	99	62605
2025-01-04 23:43:11.39	146.64	84.33	-71.5	-96.3	3.8	14907417	99	62442
2025-01-04 23:43:11.79	148.21	84.20	-71.5	-96.3	3.9	14904243	99	62464
2025-01-04 23:43:12.20	149.74	84.06	-71.5	-96.3	3.8	14903404	99	62627
2025-01-04 23:43:12.61	151.20	83.91	-71.5	-96.2	3.8	14906715	99	62305
2025-01-04 23:43:13.01	152.56	83.77	-71.5	-96.3	3.8	14911087	99	62653
2025-01-04 23:43:13.41	153.86	83.62	-71.5	-96.3	3.8	14911087	99	62721
2025-01-04 23:43:13.83	155.16	83.46	-71.5	-96.3	3.8	14891998	99	62583
2025-01-04 23:43:14.23	156.34	83.31	-71.4	-96.2	3.8	14902229	99	62734
2025-01-04 23:43:14.63	157.46	83.15	-71.5	-96.3	3.8	14907897	99	62466
2025-01-04 23:43:15.03	158.54	82.99	-71.5	-96.3	3.9	14907196	99	62620
2025-01-04 23:43:15.44	159.59	82.83	-71.4	-96.1	3.8	14912590	99	61578
2025-01-04 23:43:15.84	160.57	82.67	-71.4	-96.1	3.8	14902748	99	61916
2025-01-04 23:43:16.25	161.53	82.50	-71.4	-96.1	3.8	14916305	99	62043
2025-01-04 23:43:16.66	162.45	82.33	-71.5	-96.1	3.9	14906280	99	61783
2025-01-04 23:43:17.06	163.30	82.16	-71.5	-96.2	3.8	14904136	99	61929
2025-01-04 23:43:17.47	164.14	81.99	-71.4	-96.1	3.8	14910163	99	61917
2025-01-04 23:43:17.87	164.92	81.81	-71.4	-96.2	3.8	14903739	99	62074
2025-01-04 23:43:18.29	165.71	81.63	-71.4	-96.2	3.8	14908348	99	62106
2025-01-04 23:43:18.70	166.45	81.45	-71.5	-96.2	3.8	14906555	99	62003
2025-01-04 23:43:19.10	167.14	81.28	-71.4	-96.2	3.8	14910011	99	61931
2025-01-04 23:43:19.51	167.81	81.10	-71.5	-96.2	3.8	14910011	99	62050
2025-01-04 23:43:19.93	168.48	80.91	-71.5	-96.2	3.8	14909164	99	62016
2025-01-04 23:43:20.33	169.09	80.74	-71.4	-96.2	3.8	14903236	99	62059
2025-01-04 23:43:20.73	169.67	80.56	-71.5	-96.3	3.8	14911163	99	62500
2025-01-04 23:43:21.13	170.24	80.38	-71.5	-96.3	3.9	14912132	99	62519
2025-01-04 23:43:21.54	170.79	80.19	-71.5	-96.2	3.8	14902847	99	62149
2025-01-04 23:43:21.95	171.33	80.01	-71.5	-96.3	3.8	14918777	99	62692
2025-01-04 23:43:22.37	171.86	79.82	-71.5	-96.3	3.8	14895179	99	62638
2025-01-04 23:43:22.77	172.34	79.63	-71.5	-96.3	3.9	14899024	99	62443
2025-01-04 23:43:23.17	172.81	79.45	-71.4	-96.2	3.8	14892761	99	62118
2025-01-04 23:43:23.57	173.26	79.27	-71.5	-96.3	3.8	14905189	99	62807
2025-01-04 23:43:23.99	173.72	79.07	-71.5	-96.3	3.8	14901397	99	62607
2025-01-04 23:43:24.41	174.16	78.88	-71.5	-96.3	3.8	14908210	99	62146
2025-01-04 23:43:24.83	174.58	78.69	-71.4	-96.2	3.8	14905563	99	62449
2025-01-04 23:43:25.23	174.97	78.50	-71.5	-96.3	3.8	14905563	99	62512
2025-01-04 23:43:25.63	175.35	78.32	-71.4	-96.3	3.8	14907058	99	62728
2025-01-04 23:43:26.05	175.74	78.12	-71.5	-96.3	3.9	14914199	99	62494
2025-01-04 23:43:26.45	176.09	77.94	-71.5	-96.3	3.8	14897216	99	62889
2025-01-04 23:43:26.85	176.44	77.75	-71.4	-96.3	3.8	14921234	99	62909
2025-01-04 23:43:27.26	176.78	77.56	-71.5	-96.3	3.9	14904487	99	62686
2025-01-04 23:43:27.66	177.10	77.37	-71.4	-96.2	3.8	14897911	99	62503
2025-01-04 23:43:28.06	177.41	77.19	-71.5	-96.3	3.8	14898918	99	62712
2025-01-04 23:43:28.46	177.72	77.00	-71.5	-96.3	3.8	14913543	99	62718
2025-01-04 23:43:28.87	178.02	76.81	-71.5	-96.3	3.8	14905120	99	62707
2025-01-04 23:43:29.30	178.33	76.61	-71.5	-96.3	3.8	14903671	99	62643
2025-01-04 23:43:29.70	178.61	76.42	-71.4	-96.2	3.8	14902267	99	62636
2025-01-04 23:43:30.13	178.90	76.22	-71.5	-96.3	3.8	14915519	99	62740
2025-01-04 23:43:30.56	179.18	76.02	-71.4	-96.1	3.9	14898941	99	61867
2025-01-04 23:43:30.97	179.44	75.83	-71.3	-96.0	3.8	14907104	99	61506
2025-01-04 23:43:31.37	179.69	75.64	-71.4	-96.2	3.8	14913070	99	62422
2025-01-04 23:43:31.79	179.94	75.44	-71.4	-96.2	3.8	14913070	99	62314
2025-01-04 23:43:32.20	180.18	75.25	-71.4	-96.2	3.9	14910018	99	62024
2025-01-04 23:43:32.60	180.41	75.06	-71.4	-96.2	3.8	14903427	99	62298
2025-01-04 23:43:33.00	180.63	74.88	-71.4	-96.2	3.8	14911766	99	62285
2025-01-04 23:43:33.41	180.86	74.69	-71.4	-96.2	3.8	14907272	99	62185
2025-01-04 23:43:33.82	181.07	74.49	-71.4	-96.2	3.8	14907852	99	62325
2025-01-04 23:43:34.24	181.29	74.30	-71.4	-96.2	3.8	14905693	99	62374
2025-01-04 23:43:34.64	181.49	74.11	-71.4	-96.2	3.8	14900856	99	62190
2025-01-04 23:43:35.05	181.69	73.92	-71.4	-96.2	3.9	14922866	99	61971
2025-01-04 23:43:35.45	181.88	73.73	-71.4	-96.3	3.9	14908294	99	62645
2025-01-04 23:43:35.85	182.07	73.55	-71.5	-96.3	3.8	14909553	99	62678
2025-01-04 23:43:36.27	182.26	73.35	-71.5	-96.3	3.9	14908172	99	62836
2025-01-04 23:43:36.69	182.45	73.16	-71.5	-96.3	3.9	14898033	99	62642
2025-01-04 23:43:37.10	182.62	72.97	-71.5	-96.3	3.8	14901496	99	62903
2025-01-04 23:43:37.52	182.80	72.77	-71.4	-96.3	3.8	14909973	99	63014
2025-01-04 23:43:37.92	182.97	72.59	-71.4	-96.3	3.8	14918998	99	62833
2025-01-04 23:43:38.34	183.14	72.39	-71.5	-96.2	3.9	14918998	99	62531
2025-01-04 23:43:38.74	183.30	72.21	-71.5	-96.2	3.9	14906738	99	62092
2025-01-04 23:43:39.14	183.45	72.02	-71.4	-96.3	3.8	14904701	99	63004
2025-01-04 23:43:39.54	183.60	71.84	-71.5	-96.3	3.8	14912094	99	63029
2025-01-04 23:43:39.96	183.76	71.64	-71.5	-96.3	3.9	14908988	99	62625
2025-01-04 23:43:40.36	183.90	71.46	-71.5	-96.3	3.8	14902801	99	62736
2025-01-04 23:43:40.77	184.05	71.27	-71.5	-96.3	3.8	14906547	99	62348
2025-01-04 23:43:41.17	184.19	71.09	-71.5	-96.3	3.8	14907447	99	62694
2025-01-04 23:43:41.59	184.33	70.89	-71.5	-96.3	3.8	14890953	99	62734
2025-01-04 23:43:41.99	184.47	70.71	-71.5	-96.3	3.8	14906425	99	62837
2025-01-04 23:43:42.40	184.60	70.52	-71.5	-96.3	3.8	14899818	99	62756
2025-01-04 23:43:42.81	184.73	70.33	-71.4	-96.2	3.8	14910453	99	62496

#Closed at: 2025-01-04 23:43:43