passes_logs/2025/01/15/LEX_Murmansk/LEX_Murmansk__20250115_190232_NOAA_19_rec.log

#Pass ID: 20250115_190232_NOAA 19
#Satellite: NOAA 19
#Configuration: NOAA 19
#Start time: 2025-01-15 19:02:27.842086

#LorettStation: 1.0.0 05.05.2024
#Station: LEX_Murmansk
#Location: 33.156738 lon 68.926811 lat
#TLE: 1 33591U 09005A   25015.14570653  .00000261  00000+0  16322-3 0  9994
#TLE: 2 33591  99.0196  78.9093 0014467  57.1425 303.1137 14.13259366821569

#Time	Az	El	Level	SNR
2025-01-15 19:02:40.016517	195.5	16.2	-92.0	3.1
2025-01-15 19:02:41.176629	195.7	16.3	-92.2	2.5
2025-01-15 19:02:42.323038	195.8	16.4	-92.1	2.0
2025-01-15 19:02:43.486903	195.9	16.5	-92.2	1.7
2025-01-15 19:02:44.649712	196.0	16.7	-92.2	1.5
2025-01-15 19:02:45.810171	196.1	16.8	-92.9	1.2
2025-01-15 19:02:46.981905	196.2	16.9	-92.6	1.8
2025-01-15 19:02:48.146065	196.4	17.0	-92.3	3.0
2025-01-15 19:02:49.330160	196.5	17.1	-92.7	2.1
2025-01-15 19:02:50.491914	196.6	17.3	-92.6	3.7
2025-01-15 19:02:51.654472	196.7	17.4	-92.8	1.3
2025-01-15 19:02:52.815747	196.9	17.5	-92.2	3.8
2025-01-15 19:02:53.977729	197.0	17.6	-92.5	1.2
2025-01-15 19:02:55.137619	197.1	17.7	-92.3	3.2
2025-01-15 19:02:56.307252	197.2	17.9	-91.8	3.5
2025-01-15 19:02:57.475096	197.4	18.0	-92.3	2.6
2025-01-15 19:02:58.640331	197.5	18.1	-92.4	4.4
2025-01-15 19:02:59.806700	197.6	18.2	-92.5	3.3
2025-01-15 19:03:00.971044	197.8	18.4	-92.3	3.7
2025-01-15 19:03:02.132382	197.9	18.5	-92.3	6.3
2025-01-15 19:03:03.295442	198.0	18.6	-92.2	7.9
2025-01-15 19:03:04.469283	198.2	18.7	-92.4	8.6
2025-01-15 19:03:05.631015	198.3	18.9	-92.4	11.2
2025-01-15 19:03:06.793315	198.4	19.0	-92.6	6.0
2025-01-15 19:03:07.960472	198.6	19.1	-92.5	7.2
2025-01-15 19:03:09.126661	198.7	19.2	-92.3	8.6
2025-01-15 19:03:10.283507	198.8	19.4	-92.0	7.7
2025-01-15 19:03:11.448323	199.0	19.5	-92.3	8.4
2025-01-15 19:03:12.621899	199.1	19.6	-92.4	10.1
2025-01-15 19:03:13.785896	199.3	19.8	-92.5	4.1
2025-01-15 19:03:14.950061	199.4	19.9	-92.2	5.2
2025-01-15 19:03:16.129332	199.6	20.0	-92.0	4.2
2025-01-15 19:03:17.289966	199.7	20.1	-91.9	1.8
2025-01-15 19:03:18.454795	199.9	20.3	-92.2	5.3
2025-01-15 19:03:19.618546	200.0	20.4	-92.6	4.3
2025-01-15 19:03:20.778441	200.2	20.5	-92.1	4.4
2025-01-15 19:03:21.935405	200.3	20.7	-92.5	5.3
2025-01-15 19:03:23.103423	200.5	20.8	-92.6	6.7
2025-01-15 19:03:24.267969	200.6	20.9	-92.4	5.7
2025-01-15 19:03:25.432535	200.8	21.1	-92.6	6.4
2025-01-15 19:03:26.599813	200.9	21.2	-92.2	6.9
2025-01-15 19:03:27.761059	201.1	21.3	-92.4	7.7
2025-01-15 19:03:28.932217	201.2	21.5	-92.6	9.3
2025-01-15 19:03:30.091753	201.4	21.6	-92.6	8.3
2025-01-15 19:03:31.259150	201.6	21.8	-92.7	6.5
2025-01-15 19:03:32.422446	201.7	21.9	-92.6	5.7
2025-01-15 19:03:33.580862	201.9	22.0	-92.7	4.0
2025-01-15 19:03:34.748969	202.1	22.2	-92.6	2.4
2025-01-15 19:03:35.914190	202.2	22.3	-92.7	5.1
2025-01-15 19:03:37.081263	202.4	22.5	-92.2	3.4
2025-01-15 19:03:38.236611	202.6	22.6	-92.3	6.2
2025-01-15 19:03:39.388396	202.7	22.7	-92.6	6.4
2025-01-15 19:03:40.549209	202.9	22.9	-92.8	7.3
2025-01-15 19:03:41.717703	203.1	23.0	-92.6	7.5
2025-01-15 19:03:42.879525	203.3	23.2	-92.2	3.5
2025-01-15 19:03:44.040640	203.4	23.3	-92.2	6.6
2025-01-15 19:03:45.206872	203.6	23.4	-92.3	5.3
2025-01-15 19:03:46.367801	203.8	23.6	-92.3	8.0
2025-01-15 19:03:47.530704	204.0	23.7	-92.4	10.2
2025-01-15 19:03:48.695260	204.2	23.9	-92.6	9.8
2025-01-15 19:03:49.859329	204.4	24.0	-92.5	6.9
2025-01-15 19:03:51.024846	204.6	24.2	-92.3	3.9
2025-01-15 19:03:52.193670	204.7	24.3	-91.5	3.4
2025-01-15 19:03:53.359109	204.9	24.5	-92.5	1.3
2025-01-15 19:03:54.518998	205.1	24.6	-92.4	3.7
2025-01-15 19:03:55.678924	205.3	24.8	-92.4	5.6
2025-01-15 19:03:56.836593	205.5	24.9	-92.5	6.4
2025-01-15 19:03:58.000486	205.7	25.0	-92.5	9.0
2025-01-15 19:03:59.164453	205.9	25.2	-92.6	10.8
2025-01-15 19:04:00.329733	206.1	25.3	-92.5	11.1
2025-01-15 19:04:01.492460	206.3	25.5	-92.6	9.3
2025-01-15 19:04:02.658131	206.5	25.6	-92.7	5.9
2025-01-15 19:04:03.822836	206.7	25.8	-92.6	5.5
2025-01-15 19:04:04.989586	207.0	25.9	-92.7	7.4
2025-01-15 19:04:06.156210	207.2	26.1	-92.1	9.2
2025-01-15 19:04:07.321593	207.4	26.3	-91.8	7.3
2025-01-15 19:04:08.489397	207.6	26.4	-91.2	7.5
2025-01-15 19:04:09.653071	207.8	26.6	-91.4	4.9
2025-01-15 19:04:10.817253	208.0	26.7	-91.8	2.6
2025-01-15 19:04:11.987265	208.3	26.9	-91.8	1.5
2025-01-15 19:04:13.145231	208.5	27.0	-91.7	1.5
2025-01-15 19:04:14.308887	208.7	27.2	-92.2	1.9
2025-01-15 19:04:15.488471	208.9	27.3	-92.7	2.6
2025-01-15 19:04:16.651185	209.2	27.5	-92.7	6.1
2025-01-15 19:04:17.819519	209.4	27.6	-92.6	6.4
2025-01-15 19:04:18.983869	209.6	27.8	-92.4	7.8
2025-01-15 19:04:20.149384	209.9	28.0	-92.4	8.1
2025-01-15 19:04:21.311033	210.1	28.1	-92.7	5.9
2025-01-15 19:04:22.477939	210.4	28.3	-92.5	6.7
2025-01-15 19:04:23.638649	210.6	28.4	-92.6	6.4
2025-01-15 19:04:24.805046	210.8	28.6	-92.5	3.9
2025-01-15 19:04:25.973011	211.1	28.8	-92.8	7.2
2025-01-15 19:04:27.138943	211.3	28.9	-92.4	5.2
2025-01-15 19:04:28.304466	211.6	29.1	-92.5	8.8
2025-01-15 19:04:29.466499	211.9	29.2	-92.7	4.0
2025-01-15 19:04:30.631465	212.1	29.4	-92.7	4.8
2025-01-15 19:04:31.793566	212.4	29.5	-92.5	1.9
2025-01-15 19:04:32.963644	212.6	29.7	-92.8	3.4
2025-01-15 19:04:34.121912	212.9	29.9	-92.4	3.1
2025-01-15 19:04:35.286098	213.2	30.0	-92.3	2.7
2025-01-15 19:04:36.454235	213.5	30.2	-92.5	6.6
2025-01-15 19:04:37.613519	213.7	30.4	-92.4	6.6
2025-01-15 19:04:38.776178	214.0	30.5	-92.7	8.2
2025-01-15 19:04:39.941152	214.3	30.7	-92.4	8.4
2025-01-15 19:04:41.106973	214.6	30.8	-92.2	12.1
2025-01-15 19:04:42.269084	214.8	31.0	-92.1	7.1
2025-01-15 19:04:43.438171	215.1	31.2	-92.4	5.5
2025-01-15 19:04:44.596177	215.4	31.3	-93.1	6.6
2025-01-15 19:04:45.763623	215.7	31.5	-92.6	4.7
2025-01-15 19:04:46.924367	216.0	31.6	-92.7	5.4
2025-01-15 19:04:48.081854	216.3	31.8	-92.6	7.4
2025-01-15 19:04:49.247309	216.6	32.0	-92.5	3.2
2025-01-15 19:04:50.407499	216.9	32.1	-92.6	8.7
2025-01-15 19:04:51.574139	217.2	32.3	-92.7	7.7
2025-01-15 19:04:52.737679	217.5	32.5	-92.4	2.3
2025-01-15 19:04:53.899499	217.9	32.6	-92.4	4.5
2025-01-15 19:04:55.062368	218.2	32.8	-92.3	3.8
2025-01-15 19:04:56.227629	218.5	32.9	-92.3	3.4
2025-01-15 19:04:57.396950	218.8	33.1	-92.6	4.5
2025-01-15 19:04:58.556760	219.1	33.3	-92.7	8.1
2025-01-15 19:04:59.721778	219.5	33.4	-92.3	10.9
2025-01-15 19:05:00.880834	219.8	33.6	-92.7	12.4
2025-01-15 19:05:02.051529	220.1	33.8	-92.5	9.9
2025-01-15 19:05:03.220157	220.5	33.9	-92.6	17.3
2025-01-15 19:05:04.378677	220.8	34.1	-92.7	10.8
2025-01-15 19:05:05.543763	221.2	34.2	-92.8	13.0
2025-01-15 19:05:06.707152	221.5	34.4	-92.8	6.7
2025-01-15 19:05:07.864085	221.9	34.6	-92.7	9.1
2025-01-15 19:05:09.022796	222.2	34.7	-93.0	8.4
2025-01-15 19:05:10.190524	222.6	34.9	-92.8	10.5
2025-01-15 19:05:11.355468	223.0	35.0	-92.7	13.9
2025-01-15 19:05:12.519502	223.3	35.2	-92.6	14.8
2025-01-15 19:05:13.682749	223.7	35.3	-92.9	14.5
2025-01-15 19:05:14.842230	224.1	35.5	-92.3	17.2
2025-01-15 19:05:16.005653	224.4	35.7	-92.2	14.0
2025-01-15 19:05:17.169043	224.8	35.8	-92.3	7.7
2025-01-15 19:05:18.337630	225.2	36.0	-92.4	3.7
2025-01-15 19:05:19.502885	225.6	36.1	-92.5	6.0
2025-01-15 19:05:20.671728	226.0	36.3	-92.6	3.0
2025-01-15 19:05:21.835517	226.4	36.4	-92.4	3.6
2025-01-15 19:05:23.002614	226.8	36.6	-92.6	5.7
2025-01-15 19:05:24.161490	227.2	36.7	-92.9	10.0
2025-01-15 19:05:25.324739	227.6	36.9	-92.8	4.4
2025-01-15 19:05:26.495264	228.0	37.0	-92.8	17.2
2025-01-15 19:05:27.655345	228.4	37.2	-92.7	20.1
2025-01-15 19:05:28.821495	228.8	37.3	-92.8	12.2
2025-01-15 19:05:29.985720	229.3	37.5	-92.6	20.7
2025-01-15 19:05:31.150279	229.7	37.6	-92.5	10.5
2025-01-15 19:05:32.314862	230.1	37.8	-92.5	9.1
2025-01-15 19:05:33.481107	230.6	37.9	-92.9	8.8
2025-01-15 19:05:34.643322	231.0	38.1	-92.6	13.5
2025-01-15 19:05:35.811699	231.4	38.2	-92.5	7.9
2025-01-15 19:05:36.978383	231.9	38.3	-92.5	15.5
2025-01-15 19:05:38.143509	232.3	38.5	-92.6	12.4
2025-01-15 19:05:39.301870	232.8	38.6	-92.4	15.7
2025-01-15 19:05:40.466424	233.2	38.7	-92.4	15.0
2025-01-15 19:05:41.630012	233.7	38.9	-92.7	20.0
2025-01-15 19:05:42.790312	234.1	39.0	-92.8	17.1
2025-01-15 19:05:43.953539	234.6	39.1	-92.8	13.4
2025-01-15 19:05:45.118616	235.1	39.3	-92.7	10.7
2025-01-15 19:05:46.278431	235.6	39.4	-92.6	12.0
2025-01-15 19:05:47.448434	236.0	39.5	-92.5	6.3
2025-01-15 19:05:48.613306	236.5	39.7	-92.7	10.1
2025-01-15 19:05:49.781012	237.0	39.8	-92.6	2.9
2025-01-15 19:05:50.945378	237.5	39.9	-93.1	6.0
2025-01-15 19:05:52.112935	238.0	40.0	-92.9	6.9
2025-01-15 19:05:53.281277	238.5	40.1	-92.6	5.1
2025-01-15 19:05:54.438016	239.0	40.2	-92.7	5.5
2025-01-15 19:05:55.606263	239.5	40.4	-92.6	7.8
2025-01-15 19:05:56.770249	240.0	40.5	-92.3	13.7
2025-01-15 19:05:57.933757	240.5	40.6	-92.0	15.9
2025-01-15 19:05:59.098801	241.0	40.7	-92.2	21.5
2025-01-15 19:06:00.262212	241.5	40.8	-92.3	17.5
2025-01-15 19:06:01.423534	242.0	40.9	-92.7	17.2
2025-01-15 19:06:02.593408	242.6	41.0	-92.2	20.4
2025-01-15 19:06:03.753559	243.1	41.1	-92.4	9.6
2025-01-15 19:06:04.925155	243.6	41.2	-92.3	14.1
2025-01-15 19:06:06.091931	244.1	41.3	-93.0	10.1
2025-01-15 19:06:07.252910	244.7	41.4	-92.5	8.6
2025-01-15 19:06:08.416582	245.2	41.4	-92.7	11.9
2025-01-15 19:06:09.575425	245.7	41.5	-92.8	11.3
2025-01-15 19:06:10.740533	246.3	41.6	-92.9	9.3
2025-01-15 19:06:11.901391	246.8	41.7	-92.8	13.9
2025-01-15 19:06:13.071016	247.4	41.8	-92.4	13.5
2025-01-15 19:06:14.231144	247.9	41.8	-92.5	15.7
2025-01-15 19:06:15.396728	248.5	41.9	-92.5	15.0
2025-01-15 19:06:16.557419	249.0	42.0	-92.9	21.9
2025-01-15 19:06:17.722979	249.6	42.0	-92.9	22.8
2025-01-15 19:06:18.892902	250.2	42.1	-92.9	21.9
2025-01-15 19:06:20.055678	250.7	42.2	-92.4	23.0
2025-01-15 19:06:21.208166	251.3	42.2	-92.3	20.0
2025-01-15 19:06:22.352051	251.8	42.3	-92.6	17.1
2025-01-15 19:06:23.503568	252.4	42.3	-92.4	22.7
2025-01-15 19:06:24.663169	253.0	42.4	-92.5	15.5
2025-01-15 19:06:25.828927	253.5	42.4	-92.4	14.2
2025-01-15 19:06:26.993167	254.1	42.5	-92.6	14.9
2025-01-15 19:06:28.158846	254.7	42.5	-92.5	9.0
2025-01-15 19:06:29.322949	255.2	42.5	-92.4	6.2
2025-01-15 19:06:30.490888	255.8	42.6	-92.7	9.3
2025-01-15 19:06:31.657273	256.4	42.6	-92.6	9.5
2025-01-15 19:06:32.815474	257.0	42.6	-92.3	3.8
2025-01-15 19:06:33.981444	257.5	42.6	-92.5	8.7
2025-01-15 19:06:35.138631	258.1	42.7	-92.2	11.3
2025-01-15 19:06:36.301830	258.7	42.7	-92.3	6.3
2025-01-15 19:06:37.467532	259.3	42.7	-92.4	9.0
2025-01-15 19:06:38.635088	259.9	42.7	-92.4	9.8
2025-01-15 19:06:39.803948	260.4	42.7	-92.5	7.6
2025-01-15 19:06:40.969976	261.0	42.7	-92.3	8.8
2025-01-15 19:06:42.133349	261.6	42.7	-92.4	16.5
2025-01-15 19:06:43.297655	262.2	42.7	-92.5	9.5
2025-01-15 19:06:44.450915	262.8	42.7	-92.5	14.3
2025-01-15 19:06:45.612817	263.3	42.7	-92.3	15.7
2025-01-15 19:06:46.778313	263.9	42.7	-93.0	10.6
2025-01-15 19:06:47.944924	264.5	42.7	-92.9	12.2
2025-01-15 19:06:49.106272	265.1	42.7	-92.2	12.9
2025-01-15 19:06:50.270848	265.7	42.6	-92.6	16.2
2025-01-15 19:06:51.432933	266.2	42.6	-92.5	13.2
2025-01-15 19:06:52.598141	266.8	42.6	-92.5	16.6
2025-01-15 19:06:53.756854	267.4	42.5	-92.7	13.7
2025-01-15 19:06:54.918386	268.0	42.5	-92.4	16.3
2025-01-15 19:06:56.079209	268.5	42.5	-92.5	13.4
2025-01-15 19:06:57.250256	269.1	42.4	-92.6	15.5
2025-01-15 19:06:58.415012	269.7	42.4	-92.8	12.7
2025-01-15 19:06:59.584178	270.2	42.3	-92.8	15.6
2025-01-15 19:07:00.748623	270.8	42.3	-92.5	14.4
2025-01-15 19:07:01.908439	271.4	42.2	-92.6	13.0
2025-01-15 19:07:03.073794	271.9	42.2	-92.2	15.3
2025-01-15 19:07:04.239098	272.5	42.1	-92.1	15.2
2025-01-15 19:07:05.399112	273.1	42.1	-92.1	13.9
2025-01-15 19:07:06.560805	273.6	42.0	-92.8	10.6
2025-01-15 19:07:07.728386	274.2	41.9	-92.7	12.9
2025-01-15 19:07:08.892536	274.7	41.9	-92.7	13.9
2025-01-15 19:07:10.056784	275.3	41.8	-92.5	16.5
2025-01-15 19:07:11.225695	275.8	41.7	-92.1	14.3
2025-01-15 19:07:12.390462	276.4	41.6	-92.5	14.0
2025-01-15 19:07:13.554690	276.9	41.6	-92.6	14.4
2025-01-15 19:07:14.710242	277.4	41.5	-92.4	11.0
2025-01-15 19:07:15.867628	278.0	41.4	-92.2	11.7
2025-01-15 19:07:17.036326	278.5	41.3	-92.5	14.4
2025-01-15 19:07:18.198675	279.0	41.2	-92.4	16.6
2025-01-15 19:07:19.360604	279.6	41.1	-92.6	13.8
2025-01-15 19:07:20.529472	280.1	41.0	-92.7	13.0
2025-01-15 19:07:21.694104	280.6	40.9	-92.7	15.4
2025-01-15 19:07:22.858677	281.1	40.8	-92.6	12.9
2025-01-15 19:07:24.023701	281.6	40.7	-92.6	14.9
2025-01-15 19:07:25.177393	282.2	40.6	-92.5	10.3
2025-01-15 19:07:26.339648	282.7	40.5	-92.3	11.5
2025-01-15 19:07:27.500756	283.2	40.4	-92.6	12.1
2025-01-15 19:07:28.666699	283.7	40.3	-92.2	11.2
2025-01-15 19:07:29.830941	284.2	40.2	-92.3	11.7
2025-01-15 19:07:30.993685	284.7	40.1	-92.5	10.9
2025-01-15 19:07:32.155572	285.2	39.9	-92.3	11.3
2025-01-15 19:07:33.319931	285.6	39.8	-92.5	14.0
2025-01-15 19:07:34.481266	286.1	39.7	-92.7	10.9
2025-01-15 19:07:35.656113	286.6	39.6	-92.4	15.8
2025-01-15 19:07:36.820823	287.1	39.5	-92.3	13.2
2025-01-15 19:07:37.987879	287.6	39.3	-92.2	14.2
2025-01-15 19:07:39.152889	288.0	39.2	-92.1	19.2
2025-01-15 19:07:40.317791	288.5	39.1	-92.0	16.4
2025-01-15 19:07:41.481607	289.0	38.9	-92.1	15.4
2025-01-15 19:07:42.649065	289.4	38.8	-92.0	14.6
2025-01-15 19:07:43.817229	289.9	38.7	-92.1	18.2
2025-01-15 19:07:44.978804	290.3	38.5	-92.3	17.9
2025-01-15 19:07:46.146443	290.8	38.4	-92.4	10.3
2025-01-15 19:07:47.313375	291.2	38.3	-92.1	13.9
2025-01-15 19:07:48.479857	291.7	38.1	-92.1	15.0
2025-01-15 19:07:49.644105	292.1	38.0	-92.5	18.0
2025-01-15 19:07:50.809228	292.5	37.8	-92.3	15.7
2025-01-15 19:07:51.965187	293.0	37.7	-92.0	14.2
2025-01-15 19:07:53.130290	293.4	37.5	-92.4	18.6
2025-01-15 19:07:54.294691	293.8	37.4	-92.1	15.3
2025-01-15 19:07:55.458632	294.2	37.3	-92.5	7.6
2025-01-15 19:07:56.621957	294.6	37.1	-92.2	14.7
2025-01-15 19:07:57.791089	295.0	37.0	-92.0	12.0
2025-01-15 19:07:58.962383	295.5	36.8	-92.3	14.4
2025-01-15 19:08:00.130579	295.9	36.7	-92.1	12.6
2025-01-15 19:08:01.305998	296.3	36.5	-92.2	11.9
2025-01-15 19:08:02.470820	296.7	36.4	-92.2	12.2
2025-01-15 19:08:03.637052	297.0	36.2	-92.4	8.0
2025-01-15 19:08:04.803845	297.4	36.0	-92.2	4.7
2025-01-15 19:08:05.963085	297.8	35.9	-92.3	5.8
2025-01-15 19:08:07.128679	298.2	35.7	-92.2	4.8
2025-01-15 19:08:08.288054	298.6	35.6	-92.5	2.9
2025-01-15 19:08:09.452412	299.0	35.4	-92.3	4.2
2025-01-15 19:08:10.615333	299.3	35.3	-92.2	4.5
2025-01-15 19:08:11.779578	299.7	35.1	-92.3	2.8
2025-01-15 19:08:12.940854	300.1	35.0	-92.4	5.1
2025-01-15 19:08:14.106750	300.4	34.8	-92.5	4.2
2025-01-15 19:08:15.266473	300.8	34.6	-92.3	1.8
2025-01-15 19:08:16.430888	301.1	34.5	-92.5	1.6
2025-01-15 19:08:17.598941	301.5	34.3	-92.6	3.8
2025-01-15 19:08:18.759973	301.8	34.2	-92.5	3.7
2025-01-15 19:08:19.927251	302.2	34.0	-92.6	3.4
2025-01-15 19:08:21.090821	302.5	33.8	-92.2	7.1
2025-01-15 19:08:22.259427	302.8	33.7	-92.1	6.6
2025-01-15 19:08:23.420979	303.2	33.5	-92.4	10.2
2025-01-15 19:08:24.582147	303.5	33.4	-92.6	11.4
2025-01-15 19:08:25.745992	303.8	33.2	-92.5	9.0
2025-01-15 19:08:26.906262	304.2	33.0	-92.5	13.6
2025-01-15 19:08:28.073634	304.5	32.9	-92.4	12.8
2025-01-15 19:08:29.239411	304.8	32.7	-92.4	11.4
2025-01-15 19:08:30.404939	305.1	32.6	-92.3	12.3
2025-01-15 19:08:31.568694	305.4	32.4	-92.3	12.7
2025-01-15 19:08:32.732094	305.7	32.2	-92.3	11.4
2025-01-15 19:08:33.900299	306.0	32.1	-92.8	8.2
2025-01-15 19:08:35.056760	306.3	31.9	-92.7	9.7
2025-01-15 19:08:36.226742	306.6	31.7	-92.7	4.2
2025-01-15 19:08:37.390963	306.9	31.6	-92.6	6.7
2025-01-15 19:08:38.553919	307.2	31.4	-92.8	7.9
2025-01-15 19:08:39.719243	307.5	31.3	-92.7	5.5
2025-01-15 19:08:40.888877	307.8	31.1	-92.6	6.9
2025-01-15 19:08:42.069253	308.1	30.9	-92.7	7.1
2025-01-15 19:08:43.232703	308.4	30.8	-92.4	4.5
2025-01-15 19:08:44.397820	308.7	30.6	-92.3	7.0
2025-01-15 19:08:45.552424	308.9	30.5	-92.8	6.9
2025-01-15 19:08:46.726760	309.2	30.3	-93.0	3.8
2025-01-15 19:08:47.890025	309.5	30.1	-92.4	8.0
2025-01-15 19:08:49.060078	309.8	30.0	-92.5	10.3
2025-01-15 19:08:50.228104	310.0	29.8	-92.2	7.7
2025-01-15 19:08:51.391704	310.3	29.7	-92.0	16.3
2025-01-15 19:08:52.554842	310.5	29.5	-92.2	13.8
2025-01-15 19:08:53.719705	310.8	29.3	-92.5	15.0
2025-01-15 19:08:54.879369	311.1	29.2	-92.6	12.0
2025-01-15 19:08:56.044506	311.3	29.0	-92.6	11.2
2025-01-15 19:08:57.201951	311.6	28.9	-92.7	13.8
2025-01-15 19:08:58.367637	311.8	28.7	-92.6	11.7
2025-01-15 19:08:59.542834	312.1	28.5	-92.5	10.9
2025-01-15 19:09:00.702766	312.3	28.4	-92.5	7.7
2025-01-15 19:09:01.860505	312.5	28.2	-92.5	6.9
2025-01-15 19:09:03.028000	312.8	28.1	-92.5	12.3
2025-01-15 19:09:04.192681	313.0	27.9	-92.4	5.8
2025-01-15 19:09:05.355943	313.3	27.8	-92.4	3.4
2025-01-15 19:09:06.514671	313.5	27.6	-92.8	5.2
2025-01-15 19:09:07.679161	313.7	27.5	-92.6	7.9
2025-01-15 19:09:08.844542	314.0	27.3	-92.0	5.6
2025-01-15 19:09:10.005778	314.2	27.1	-91.8	4.6
2025-01-15 19:09:11.169243	314.4	27.0	-91.5	9.0
2025-01-15 19:09:12.327426	314.6	26.8	-91.8	6.4
2025-01-15 19:09:13.493511	314.8	26.7	-91.8	3.3
2025-01-15 19:09:14.656310	315.1	26.5	-91.7	5.8
2025-01-15 19:09:15.814777	315.3	26.4	-92.0	11.9
2025-01-15 19:09:16.976268	315.5	26.2	-92.2	10.8
2025-01-15 19:09:18.140230	315.7	26.1	-91.9	8.5
2025-01-15 19:09:19.307202	315.9	25.9	-91.9	5.9
2025-01-15 19:09:20.468505	316.1	25.8	-92.1	2.2
2025-01-15 19:09:21.630020	316.3	25.6	-91.7	7.1
2025-01-15 19:09:22.788170	316.5	25.5	-91.6	3.8
2025-01-15 19:09:23.960973	316.7	25.3	-91.9	5.0
2025-01-15 19:09:25.124511	316.9	25.2	-91.7	3.4
2025-01-15 19:09:26.289636	317.1	25.0	-91.8	2.1
2025-01-15 19:09:27.454900	317.3	24.9	-92.0	4.1
2025-01-15 19:09:28.620207	317.5	24.7	-91.9	7.6
2025-01-15 19:09:29.783924	317.7	24.6	-91.6	3.7
2025-01-15 19:09:30.948617	317.9	24.4	-91.6	4.9
2025-01-15 19:09:32.111505	318.1	24.3	-91.5	3.7
2025-01-15 19:09:33.273491	318.3	24.2	-91.7	4.0
2025-01-15 19:09:34.431661	318.5	24.0	-92.1	3.4
2025-01-15 19:09:35.590954	318.7	23.9	-91.8	7.1
2025-01-15 19:09:36.753461	318.8	23.7	-91.8	8.1
2025-01-15 19:09:37.917189	319.0	23.6	-91.9	4.4
2025-01-15 19:09:39.066117	319.2	23.4	-91.9	3.9
2025-01-15 19:09:40.235386	319.4	23.3	-92.1	2.6
2025-01-15 19:09:41.396876	319.6	23.2	-92.0	3.5
2025-01-15 19:09:42.564884	319.7	23.0	-92.1	3.0
2025-01-15 19:09:43.721142	319.9	22.9	-91.9	3.9
2025-01-15 19:09:44.881493	320.1	22.7	-92.6	3.8
2025-01-15 19:09:46.040592	320.3	22.6	-92.8	2.5
2025-01-15 19:09:47.205163	320.4	22.5	-92.8	2.0
2025-01-15 19:09:48.361902	320.6	22.3	-92.8	4.6
2025-01-15 19:09:49.527975	320.8	22.2	-92.7	4.1
2025-01-15 19:09:50.686152	320.9	22.0	-93.0	5.0
2025-01-15 19:09:51.851733	321.1	21.9	-92.6	3.1
2025-01-15 19:09:53.012294	321.3	21.8	-92.7	5.1
2025-01-15 19:09:54.173326	321.4	21.6	-92.7	2.8
2025-01-15 19:09:55.336400	321.6	21.5	-92.5	1.4
2025-01-15 19:09:56.501431	321.7	21.4	-93.0	4.5
2025-01-15 19:09:57.664544	321.9	21.2	-93.0	3.0
2025-01-15 19:09:58.828686	322.0	21.1	-93.1	5.3
2025-01-15 19:09:59.989447	322.2	21.0	-93.0	1.1
2025-01-15 19:10:01.151730	322.4	20.8	-92.7	2.7
2025-01-15 19:10:02.317102	322.5	20.7	-92.7	1.5
2025-01-15 19:10:03.483149	322.7	20.6	-92.8	3.0
2025-01-15 19:10:04.647126	322.8	20.4	-92.7	0.2
2025-01-15 19:10:05.809669	323.0	20.3	-93.1	0.4
2025-01-15 19:10:06.973095	323.1	20.2	-93.1	2.9
2025-01-15 19:10:08.133429	323.2	20.0	-92.7	0.9
2025-01-15 19:10:09.297725	323.4	19.9	-92.7	4.0
2025-01-15 19:10:10.462769	323.5	19.8	-93.1	1.3
2025-01-15 19:10:11.629495	323.7	19.7	-92.8	1.4
2025-01-15 19:10:12.809009	323.8	19.5	-92.9	2.1
2025-01-15 19:10:13.977146	324.0	19.4	-92.7	1.4
2025-01-15 19:10:15.241982	324.1	19.3	-92.4	0.6
2025-01-15 19:10:16.408782	324.3	19.1	-92.9	0.9
2025-01-15 19:10:17.579112	324.4	19.0	-92.6	3.1
2025-01-15 19:10:18.739908	324.5	18.9	-92.8	2.4
2025-01-15 19:10:19.902378	324.7	18.8	-92.7	2.3
2025-01-15 19:10:21.066761	324.8	18.6	-92.4	2.4
2025-01-15 19:10:22.234425	324.9	18.5	-92.5	2.6
2025-01-15 19:10:23.399949	325.1	18.4	-92.4	4.8
2025-01-15 19:10:24.562514	325.2	18.3	-92.6	2.7
2025-01-15 19:10:25.724146	325.3	18.1	-93.2	2.4
2025-01-15 19:10:26.897326	325.4	18.0	-92.7	1.7
2025-01-15 19:10:28.064072	325.6	17.9	-92.4	4.8
2025-01-15 19:10:29.226570	325.7	17.8	-92.6	2.9
2025-01-15 19:10:30.389762	325.8	17.7	-92.9	1.0
2025-01-15 19:10:31.552796	326.0	17.5	-93.0	3.3
2025-01-15 19:10:32.710633	326.1	17.4	-93.1	1.0
2025-01-15 19:10:33.873386	326.2	17.3	-92.9	2.5
2025-01-15 19:10:35.042178	326.3	17.2	-92.8	2.2
2025-01-15 19:10:36.201650	326.4	17.1	-92.6	3.0
2025-01-15 19:10:37.364798	326.6	16.9	-92.7	3.0
2025-01-15 19:10:38.528109	326.7	16.8	-92.5	2.5
2025-01-15 19:10:39.685970	326.8	16.7	-93.1	1.4
2025-01-15 19:10:40.847747	326.9	16.6	-93.0	3.8
2025-01-15 19:10:42.012577	327.0	16.5	-92.7	2.2
2025-01-15 19:10:43.174830	327.2	16.4	-92.6	6.4
2025-01-15 19:10:44.334650	327.3	16.2	-92.3	4.5
2025-01-15 19:10:45.494892	327.4	16.1	-92.5	1.8
2025-01-15 19:10:46.661587	327.5	16.0	-92.7	5.0
2025-01-15 19:10:47.826922	327.6	15.9	-92.8	4.1
2025-01-15 19:10:48.988623	327.7	15.8	-92.8	4.0
2025-01-15 19:10:50.153505	327.8	15.7	-92.9	3.4
2025-01-15 19:10:51.317306	327.9	15.6	-92.7	3.4
2025-01-15 19:10:52.478949	328.0	15.5	-92.9	2.9
2025-01-15 19:10:53.645853	328.2	15.3	-92.8	1.9
2025-01-15 19:10:54.828023	328.3	15.2	-93.0	3.0
2025-01-15 19:10:55.988031	328.4	15.1	-92.6	5.3
2025-01-15 19:10:57.155941	328.5	15.0	-92.3	3.9
2025-01-15 19:10:58.318541	328.6	14.9	-92.5	2.0
2025-01-15 19:10:59.483137	328.7	14.8	-92.6	3.9
2025-01-15 19:11:00.646886	328.8	14.7	-93.0	4.7
2025-01-15 19:11:01.806735	328.9	14.6	-92.5	1.3
#Closed at: 2025-01-15 19:02:32.827375