passes_logs/2025/01/15/LEX_Murmansk/LEX_Murmansk__20250115_154132_NOAA_19_rec.log

#Pass ID: 20250115_154132_NOAA 19
#Satellite: NOAA 19
#Configuration: NOAA 19
#Start time: 2025-01-15 15:41:27.780346

#LorettStation: 1.0.0 05.05.2024
#Station: LEX_Murmansk
#Location: 33.156738 lon 68.926811 lat
#TLE: 1 33591U 09005A   25015.14570653  .00000261  00000+0  16322-3 0  9994
#TLE: 2 33591  99.0196  78.9093 0014467  57.1425 303.1137 14.13259366821569

#Time	Az	El	Level	SNR
2025-01-15 15:41:46.067087	92.1	16.7	-90.2	14.1
2025-01-15 15:41:47.226944	92.0	16.8	-90.4	5.6
2025-01-15 15:41:48.396837	91.9	17.0	-90.3	2.8
2025-01-15 15:41:49.558945	91.7	17.1	-90.7	2.9
2025-01-15 15:41:50.724220	91.6	17.2	-90.9	2.4
2025-01-15 15:41:51.887685	91.4	17.3	-90.7	2.0
2025-01-15 15:41:53.046209	91.3	17.4	-90.5	2.2
2025-01-15 15:41:54.224989	91.2	17.5	-90.3	3.2
2025-01-15 15:41:55.390097	91.0	17.6	-90.7	4.7
2025-01-15 15:41:56.551984	90.9	17.8	-90.6	7.2
2025-01-15 15:41:57.720437	90.7	17.9	-90.7	5.5
2025-01-15 15:41:58.885179	90.6	18.0	-90.5	6.1
2025-01-15 15:42:00.052656	90.4	18.1	-90.6	3.8
2025-01-15 15:42:01.209159	90.3	18.2	-90.2	4.7
2025-01-15 15:42:02.371025	90.1	18.3	-90.0	7.6
2025-01-15 15:42:03.529327	90.0	18.5	-89.5	4.7
2025-01-15 15:42:04.695060	89.8	18.6	-89.5	1.0
2025-01-15 15:42:05.862881	89.7	18.7	-90.0	4.2
2025-01-15 15:42:07.022473	89.5	18.8	-90.1	1.6
2025-01-15 15:42:08.188139	89.4	18.9	-90.3	1.9
2025-01-15 15:42:09.353341	89.2	19.1	-89.6	2.8
2025-01-15 15:42:10.520339	89.0	19.2	-90.0	1.6
2025-01-15 15:42:11.682642	88.9	19.3	-90.0	4.1
2025-01-15 15:42:12.843030	88.7	19.4	-89.5	5.1
2025-01-15 15:42:14.003526	88.6	19.5	-89.5	5.8
2025-01-15 15:42:15.166734	88.4	19.7	-89.6	5.5
2025-01-15 15:42:16.332432	88.2	19.8	-89.3	9.9
2025-01-15 15:42:17.499191	88.1	19.9	-90.2	4.4
2025-01-15 15:42:18.664144	87.9	20.0	-90.0	6.0
2025-01-15 15:42:19.826950	87.7	20.2	-90.0	4.0
2025-01-15 15:42:20.990579	87.6	20.3	-90.0	11.3
2025-01-15 15:42:22.151926	87.4	20.4	-89.5	13.1
2025-01-15 15:42:23.316076	87.2	20.5	-89.9	7.2
2025-01-15 15:42:24.476667	87.0	20.6	-89.8	7.4
2025-01-15 15:42:25.644675	86.9	20.8	-90.6	1.9
2025-01-15 15:42:26.806280	86.7	20.9	-90.6	2.1
2025-01-15 15:42:27.965358	86.5	21.0	-90.9	3.6
2025-01-15 15:42:29.126786	86.3	21.1	-90.8	6.2
2025-01-15 15:42:30.288987	86.1	21.3	-90.6	6.0
2025-01-15 15:42:31.450915	86.0	21.4	-90.9	3.9
2025-01-15 15:42:32.616207	85.8	21.5	-90.9	5.8
2025-01-15 15:42:33.772606	85.6	21.6	-90.1	10.2
2025-01-15 15:42:34.936917	85.4	21.8	-89.4	5.8
2025-01-15 15:42:36.098483	85.2	21.9	-89.4	4.2
2025-01-15 15:42:37.259623	85.0	22.0	-89.7	4.0
2025-01-15 15:42:38.430991	84.8	22.2	-89.6	3.4
2025-01-15 15:42:39.591153	84.6	22.3	-89.6	2.8
2025-01-15 15:42:40.762169	84.4	22.4	-89.9	4.7
2025-01-15 15:42:41.934582	84.2	22.5	-89.6	2.7
2025-01-15 15:42:43.102029	84.0	22.7	-89.4	1.6
2025-01-15 15:42:44.256351	83.8	22.8	-89.6	1.3
2025-01-15 15:42:45.416494	83.6	22.9	-89.7	1.1
2025-01-15 15:42:46.585059	83.4	23.1	-89.7	0.9
2025-01-15 15:42:47.751172	83.2	23.2	-89.5	2.6
2025-01-15 15:42:48.911708	83.0	23.3	-89.6	2.0
2025-01-15 15:42:50.077141	82.8	23.5	-89.4	2.6
2025-01-15 15:42:51.242966	82.6	23.6	-89.9	5.5
2025-01-15 15:42:52.411210	82.4	23.7	-89.7	5.4
2025-01-15 15:42:53.571740	82.2	23.8	-90.4	4.7
2025-01-15 15:42:54.734914	81.9	24.0	-90.5	3.0
2025-01-15 15:42:55.900444	81.7	24.1	-90.5	2.7
2025-01-15 15:42:57.064436	81.5	24.2	-90.4	3.2
2025-01-15 15:42:58.234085	81.3	24.4	-90.4	2.3
2025-01-15 15:42:59.398654	81.0	24.5	-90.5	4.7
2025-01-15 15:43:00.562610	80.8	24.6	-89.9	7.7
2025-01-15 15:43:01.721014	80.6	24.8	-89.9	5.4
2025-01-15 15:43:02.885156	80.4	24.9	-89.8	1.1
2025-01-15 15:43:04.045481	80.1	25.0	-89.9	4.3
2025-01-15 15:43:05.210714	79.9	25.2	-89.9	2.5
2025-01-15 15:43:06.373365	79.7	25.3	-89.9	1.5
2025-01-15 15:43:07.538125	79.4	25.4	-90.7	2.0
2025-01-15 15:43:08.702953	79.2	25.6	-91.3	3.3
2025-01-15 15:43:09.867507	78.9	25.7	-91.2	2.0
2025-01-15 15:43:11.031534	78.7	25.8	-90.4	1.0
2025-01-15 15:43:12.199557	78.4	26.0	-89.6	2.0
2025-01-15 15:43:13.359396	78.2	26.1	-89.5	2.1
2025-01-15 15:43:14.522710	77.9	26.2	-89.8	1.8
2025-01-15 15:43:15.684440	77.7	26.4	-89.2	3.2
2025-01-15 15:43:16.850493	77.4	26.5	-90.1	2.2
2025-01-15 15:43:18.009689	77.2	26.6	-90.8	5.5
2025-01-15 15:43:19.178830	76.9	26.8	-90.6	4.2
2025-01-15 15:43:20.340776	76.7	26.9	-90.9	3.2
2025-01-15 15:43:21.503789	76.4	27.0	-90.6	2.4
2025-01-15 15:43:22.667502	76.1	27.2	-90.7	5.5
2025-01-15 15:43:23.825649	75.9	27.3	-90.9	7.7
2025-01-15 15:43:24.988190	75.6	27.4	-90.9	5.2
2025-01-15 15:43:26.147789	75.3	27.6	-90.7	5.5
2025-01-15 15:43:27.308322	75.0	27.7	-90.6	2.9
2025-01-15 15:43:28.466594	74.8	27.8	-90.7	2.5
2025-01-15 15:43:29.631948	74.5	28.0	-90.8	3.5
2025-01-15 15:43:30.778363	74.2	28.1	-90.6	3.5
2025-01-15 15:43:31.946378	73.9	28.2	-90.8	3.2
2025-01-15 15:43:33.121728	73.6	28.4	-90.8	4.4
2025-01-15 15:43:34.286902	73.3	28.5	-90.5	5.2
2025-01-15 15:43:35.454436	73.0	28.6	-91.0	7.0
2025-01-15 15:43:36.618592	72.8	28.7	-90.8	5.7
2025-01-15 15:43:37.783480	72.5	28.9	-90.7	5.1
2025-01-15 15:43:38.943714	72.2	29.0	-90.2	6.1
2025-01-15 15:43:40.111011	71.9	29.1	-91.1	5.2
2025-01-15 15:43:41.277116	71.6	29.3	-90.3	4.0
2025-01-15 15:43:42.444864	71.2	29.4	-90.7	3.0
2025-01-15 15:43:43.606875	70.9	29.5	-90.2	5.4
2025-01-15 15:43:44.776433	70.6	29.7	-90.7	7.3
2025-01-15 15:43:45.937767	70.3	29.8	-90.3	10.0
2025-01-15 15:43:47.105327	70.0	29.9	-90.1	9.2
2025-01-15 15:43:48.266255	69.7	30.0	-90.5	9.3
2025-01-15 15:43:49.430764	69.4	30.2	-91.0	6.3
2025-01-15 15:43:50.606171	69.0	30.3	-90.3	9.1
2025-01-15 15:43:51.777524	68.7	30.4	-91.0	5.5
2025-01-15 15:43:52.936940	68.4	30.6	-90.5	3.7
2025-01-15 15:43:54.097971	68.0	30.7	-90.8	3.8
2025-01-15 15:43:55.266634	67.7	30.8	-89.8	1.7
2025-01-15 15:43:56.434861	67.4	30.9	-89.6	3.7
2025-01-15 15:43:57.605378	67.0	31.1	-89.5	9.7
2025-01-15 15:43:58.769569	66.7	31.2	-89.7	9.1
2025-01-15 15:43:59.935883	66.3	31.3	-90.0	13.9
2025-01-15 15:44:01.097894	66.0	31.4	-90.3	14.8
2025-01-15 15:44:02.261651	65.6	31.6	-89.6	15.7
2025-01-15 15:44:03.430995	65.3	31.7	-90.1	12.3
2025-01-15 15:44:04.593534	64.9	31.8	-90.9	11.1
2025-01-15 15:44:05.755437	64.6	31.9	-90.6	6.6
2025-01-15 15:44:06.917606	64.2	32.0	-90.7	8.1
2025-01-15 15:44:08.076061	63.8	32.1	-90.5	6.6
2025-01-15 15:44:09.242654	63.5	32.3	-90.5	6.6
2025-01-15 15:44:10.406470	63.1	32.4	-90.3	11.5
2025-01-15 15:44:11.571135	62.7	32.5	-90.5	16.5
2025-01-15 15:44:12.740080	62.4	32.6	-90.5	14.6
2025-01-15 15:44:13.900134	62.0	32.7	-90.6	14.6
2025-01-15 15:44:15.069053	61.6	32.8	-90.7	15.2
2025-01-15 15:44:16.230748	61.2	32.9	-90.3	12.1
2025-01-15 15:44:17.399039	60.8	33.1	-90.2	10.7
2025-01-15 15:44:18.566326	60.4	33.2	-90.3	8.8
2025-01-15 15:44:19.725698	60.1	33.3	-90.9	5.8
2025-01-15 15:44:20.894430	59.7	33.4	-90.7	3.5
2025-01-15 15:44:22.058927	59.3	33.5	-90.5	4.4
2025-01-15 15:44:23.228538	58.9	33.6	-90.1	3.5
2025-01-15 15:44:24.403925	58.5	33.7	-90.4	6.4
2025-01-15 15:44:25.569200	58.1	33.8	-90.7	9.5
2025-01-15 15:44:26.733751	57.7	33.9	-90.6	8.4
2025-01-15 15:44:27.894908	57.3	34.0	-90.6	10.7
2025-01-15 15:44:29.063537	56.8	34.1	-90.5	12.8
2025-01-15 15:44:30.230919	56.4	34.2	-90.7	13.1
2025-01-15 15:44:31.400244	56.0	34.3	-90.8	12.9
2025-01-15 15:44:32.567476	55.6	34.4	-90.5	11.8
2025-01-15 15:44:33.726853	55.2	34.5	-90.8	12.9
2025-01-15 15:44:34.892330	54.7	34.6	-90.4	11.8
2025-01-15 15:44:36.057132	54.3	34.6	-90.3	10.8
2025-01-15 15:44:37.221151	53.9	34.7	-90.6	8.5
2025-01-15 15:44:38.385891	53.5	34.8	-90.5	10.1
2025-01-15 15:44:39.553793	53.0	34.9	-90.8	8.4
2025-01-15 15:44:40.712552	52.6	35.0	-91.0	8.2
2025-01-15 15:44:41.876800	52.2	35.1	-90.7	11.2
2025-01-15 15:44:43.040992	51.7	35.1	-90.6	10.6
2025-01-15 15:44:44.200790	51.3	35.2	-90.3	11.2
2025-01-15 15:44:45.369075	50.8	35.3	-90.3	13.5
2025-01-15 15:44:46.534156	50.4	35.4	-90.5	14.5
2025-01-15 15:44:47.699041	50.0	35.4	-90.4	16.3
2025-01-15 15:44:48.864438	49.5	35.5	-90.6	12.2
2025-01-15 15:44:50.022922	49.1	35.6	-90.9	13.2
2025-01-15 15:44:51.185936	48.6	35.6	-90.0	8.4
2025-01-15 15:44:52.342954	48.2	35.7	-89.7	8.6
2025-01-15 15:44:53.510968	47.7	35.8	-89.9	8.2
2025-01-15 15:44:54.671610	47.2	35.8	-89.9	7.5
2025-01-15 15:44:55.831583	46.8	35.9	-90.2	4.7
2025-01-15 15:44:56.996349	46.3	35.9	-90.0	6.0
2025-01-15 15:44:58.162955	45.9	36.0	-90.3	5.1
2025-01-15 15:44:59.329196	45.4	36.1	-90.3	4.0
2025-01-15 15:45:00.490287	44.9	36.1	-90.5	7.0
2025-01-15 15:45:01.654421	44.5	36.2	-91.0	4.1
2025-01-15 15:45:02.818355	44.0	36.2	-90.9	5.4
2025-01-15 15:45:03.984401	43.5	36.2	-90.7	6.6
2025-01-15 15:45:05.146265	43.1	36.3	-90.7	7.9
2025-01-15 15:45:06.310341	42.6	36.3	-90.4	8.7
2025-01-15 15:45:07.469346	42.1	36.4	-90.5	8.4
2025-01-15 15:45:08.633614	41.7	36.4	-90.5	10.7
2025-01-15 15:45:09.800413	41.2	36.4	-89.8	11.3
2025-01-15 15:45:10.961277	40.7	36.5	-89.6	14.7
2025-01-15 15:45:12.121463	40.2	36.5	-89.7	11.0
2025-01-15 15:45:13.290140	39.8	36.5	-89.7	12.4
2025-01-15 15:45:14.450930	39.3	36.5	-90.5	14.0
2025-01-15 15:45:15.610827	38.8	36.6	-91.3	10.8
2025-01-15 15:45:16.770458	38.3	36.6	-90.9	9.9
2025-01-15 15:45:17.934136	37.8	36.6	-91.0	10.9
2025-01-15 15:45:19.099860	37.4	36.6	-90.0	10.2
2025-01-15 15:45:20.252123	36.9	36.6	-90.9	11.8
2025-01-15 15:45:21.418717	36.4	36.6	-90.8	10.6
2025-01-15 15:45:22.578097	35.9	36.6	-91.1	8.8
2025-01-15 15:45:23.739493	35.4	36.7	-91.0	4.4
2025-01-15 15:45:24.899848	35.0	36.7	-90.7	3.8
2025-01-15 15:45:26.063302	34.5	36.7	-90.3	9.0
2025-01-15 15:45:27.227635	34.0	36.7	-90.9	4.7
2025-01-15 15:45:28.395448	33.5	36.7	-90.7	7.1
2025-01-15 15:45:29.562719	33.0	36.6	-90.7	8.5
2025-01-15 15:45:30.727782	32.6	36.6	-90.0	3.5
2025-01-15 15:45:31.892025	32.1	36.6	-89.8	6.6
2025-01-15 15:45:33.052255	31.6	36.6	-90.0	6.7
2025-01-15 15:45:34.213212	31.1	36.6	-90.1	6.1
2025-01-15 15:45:35.374071	30.6	36.6	-89.9	6.9
2025-01-15 15:45:36.531710	30.2	36.6	-90.0	6.9
2025-01-15 15:45:37.692614	29.7	36.5	-90.7	8.2
2025-01-15 15:45:38.858529	29.2	36.5	-91.1	6.3
2025-01-15 15:45:40.023347	28.7	36.5	-91.1	10.6
2025-01-15 15:45:41.182671	28.3	36.5	-90.9	9.8
2025-01-15 15:45:42.350043	27.8	36.4	-91.0	7.9
2025-01-15 15:45:43.514262	27.3	36.4	-90.7	13.1
2025-01-15 15:45:44.670092	26.8	36.4	-90.8	11.8
2025-01-15 15:45:45.819996	26.4	36.3	-91.2	11.8
2025-01-15 15:45:46.951499	25.9	36.3	-90.0	10.3
2025-01-15 15:45:48.072731	25.5	36.3	-90.1	9.3
2025-01-15 15:45:49.193800	25.0	36.2	-89.9	7.6
2025-01-15 15:45:50.315007	24.6	36.2	-90.0	9.6
2025-01-15 15:45:51.435698	24.1	36.1	-89.7	12.9
2025-01-15 15:45:52.556332	23.7	36.1	-90.2	14.8
2025-01-15 15:45:53.677967	23.2	36.0	-90.2	11.0
2025-01-15 15:45:54.803092	22.8	36.0	-90.1	10.4
2025-01-15 15:45:55.936515	22.3	35.9	-89.8	9.4
2025-01-15 15:45:57.101297	21.9	35.9	-89.7	11.3
2025-01-15 15:45:58.262304	21.4	35.8	-89.9	11.5
2025-01-15 15:45:59.431142	21.0	35.7	-90.1	13.0
2025-01-15 15:46:00.580724	20.5	35.7	-91.3	11.3
2025-01-15 15:46:01.741451	20.1	35.6	-90.9	13.3
2025-01-15 15:46:02.902985	19.6	35.5	-90.4	12.2
2025-01-15 15:46:04.067734	19.2	35.5	-89.9	10.5
2025-01-15 15:46:05.231818	18.7	35.4	-90.1	9.4
2025-01-15 15:46:06.400433	18.3	35.3	-89.8	10.0
2025-01-15 15:46:07.566427	17.8	35.3	-89.8	9.6
2025-01-15 15:46:08.731275	17.4	35.2	-89.8	14.0
2025-01-15 15:46:09.891054	16.9	35.1	-89.9	11.8
2025-01-15 15:46:11.058140	16.5	35.0	-90.1	13.7
2025-01-15 15:46:12.226202	16.1	34.9	-89.8	14.5
2025-01-15 15:46:13.388151	15.6	34.9	-89.6	9.9
2025-01-15 15:46:14.546139	15.2	34.8	-89.8	13.6
2025-01-15 15:46:15.708275	14.8	34.7	-90.1	12.8
2025-01-15 15:46:16.869305	14.4	34.6	-90.2	13.4
2025-01-15 15:46:18.034050	13.9	34.5	-90.9	14.2
2025-01-15 15:46:19.197134	13.5	34.4	-90.9	13.0
2025-01-15 15:46:20.356483	13.1	34.3	-91.2	13.5
2025-01-15 15:46:21.485174	12.7	34.2	-91.2	13.0
2025-01-15 15:46:22.632828	12.3	34.1	-90.9	11.7
2025-01-15 15:46:23.797720	11.9	34.1	-91.3	11.0
2025-01-15 15:46:24.959599	11.5	34.0	-91.3	12.5
2025-01-15 15:46:26.127316	11.1	33.9	-90.9	14.6
2025-01-15 15:46:27.288618	10.7	33.8	-90.8	13.5
2025-01-15 15:46:28.452759	10.3	33.7	-90.8	13.7
2025-01-15 15:46:29.616771	9.9	33.5	-90.8	11.4
2025-01-15 15:46:30.780854	9.5	33.4	-90.6	11.1
2025-01-15 15:46:31.947922	9.1	33.3	-90.5	13.5
2025-01-15 15:46:33.112362	8.7	33.2	-90.9	11.0
2025-01-15 15:46:34.276551	8.3	33.1	-90.9	8.7
2025-01-15 15:46:35.432032	7.9	33.0	-91.2	7.8
2025-01-15 15:46:36.611115	7.5	32.9	-90.8	8.1
2025-01-15 15:46:37.776643	7.2	32.8	-90.9	8.0
2025-01-15 15:46:38.936831	6.8	32.7	-91.0	9.4
2025-01-15 15:46:40.102655	6.4	32.6	-90.8	8.2
2025-01-15 15:46:41.266919	6.0	32.5	-91.5	4.8
2025-01-15 15:46:42.428291	5.7	32.3	-91.4	6.8
2025-01-15 15:46:43.592501	5.3	32.2	-91.4	7.7
2025-01-15 15:46:44.751899	4.9	32.1	-91.5	4.2
2025-01-15 15:46:45.915844	4.6	32.0	-91.3	5.9
2025-01-15 15:46:47.079898	4.2	31.9	-90.9	6.5
2025-01-15 15:46:48.243169	3.9	31.8	-91.0	4.4
2025-01-15 15:46:49.409909	3.5	31.6	-91.2	2.8
2025-01-15 15:46:50.572369	3.1	31.5	-91.1	5.6
2025-01-15 15:46:51.733927	2.8	31.4	-91.3	4.2
2025-01-15 15:46:52.899113	2.5	31.3	-91.3	4.8
2025-01-15 15:46:54.062974	2.1	31.1	-90.4	5.3
2025-01-15 15:46:55.227071	1.8	31.0	-89.9	1.7
2025-01-15 15:46:56.386270	1.4	30.9	-89.8	2.2
2025-01-15 15:46:57.550182	1.1	30.8	-90.5	3.6
2025-01-15 15:46:58.716981	0.8	30.7	-90.3	3.5
2025-01-15 15:46:59.878915	0.4	30.5	-90.1	4.1
2025-01-15 15:47:01.034509	0.1	30.4	-90.4	4.3
2025-01-15 15:47:02.198094	359.8	30.3	-90.1	3.4
2025-01-15 15:47:03.362422	359.5	30.1	-90.6	1.6
2025-01-15 15:47:04.529100	359.1	30.0	-91.0	4.5
2025-01-15 15:47:05.690282	358.8	29.9	-91.0	4.9
2025-01-15 15:47:06.851731	358.5	29.8	-90.7	3.4
2025-01-15 15:47:08.024068	358.2	29.6	-90.8	6.0
2025-01-15 15:47:09.188053	357.9	29.5	-90.3	10.1
2025-01-15 15:47:10.352159	357.6	29.4	-90.3	9.7
2025-01-15 15:47:11.517013	357.3	29.2	-90.0	8.8
2025-01-15 15:47:12.685189	357.0	29.1	-90.4	11.9
2025-01-15 15:47:13.849223	356.7	29.0	-90.7	6.9
2025-01-15 15:47:15.005000	356.4	28.9	-90.4	5.6
2025-01-15 15:47:16.173231	356.1	28.7	-90.0	8.1
2025-01-15 15:47:17.335634	355.8	28.6	-90.2	5.9
2025-01-15 15:47:18.502781	355.5	28.5	-90.3	6.9
2025-01-15 15:47:19.666940	355.2	28.3	-90.4	3.9
2025-01-15 15:47:20.831264	354.9	28.2	-90.3	4.0
2025-01-15 15:47:21.995096	354.6	28.1	-90.5	5.1
2025-01-15 15:47:23.151086	354.4	27.9	-90.6	4.2
2025-01-15 15:47:24.318346	354.1	27.8	-90.1	3.6
2025-01-15 15:47:25.478709	353.8	27.7	-90.3	4.5
2025-01-15 15:47:26.645949	353.5	27.5	-89.8	4.7
2025-01-15 15:47:27.816033	353.3	27.4	-90.0	2.8
2025-01-15 15:47:28.975641	353.0	27.3	-90.7	3.7
2025-01-15 15:47:30.141127	352.7	27.1	-90.4	4.7
2025-01-15 15:47:31.300464	352.5	27.0	-90.4	5.5
2025-01-15 15:47:32.466764	352.2	26.9	-91.1	5.5
2025-01-15 15:47:33.631695	351.9	26.7	-91.2	5.7
2025-01-15 15:47:34.791030	351.7	26.6	-91.4	5.2
2025-01-15 15:47:35.959414	351.4	26.5	-91.1	8.3
2025-01-15 15:47:37.111159	351.2	26.3	-91.1	8.7
2025-01-15 15:47:38.280306	350.9	26.2	-90.8	8.7
2025-01-15 15:47:39.440195	350.7	26.1	-90.7	11.4
2025-01-15 15:47:40.605077	350.4	25.9	-90.8	8.8
2025-01-15 15:47:41.776422	350.2	25.8	-90.8	9.6
2025-01-15 15:47:42.937945	349.9	25.7	-91.4	10.9
2025-01-15 15:47:44.103065	349.7	25.5	-91.3	10.0
2025-01-15 15:47:45.259309	349.5	25.4	-91.1	6.3
2025-01-15 15:47:46.420805	349.2	25.3	-91.0	6.4
2025-01-15 15:47:47.588694	349.0	25.1	-91.1	6.3
2025-01-15 15:47:48.754481	348.8	25.0	-91.2	3.7
2025-01-15 15:47:49.915295	348.5	24.9	-90.9	4.5
2025-01-15 15:47:51.079297	348.3	24.8	-90.6	5.5
2025-01-15 15:47:52.243349	348.1	24.6	-90.3	4.3
2025-01-15 15:47:53.407630	347.8	24.5	-90.4	5.4
2025-01-15 15:47:54.563202	347.6	24.4	-91.0	6.2
2025-01-15 15:47:55.726526	347.4	24.2	-91.4	6.7
2025-01-15 15:47:56.887010	347.2	24.1	-90.8	8.2
2025-01-15 15:47:58.050195	347.0	24.0	-90.9	8.5
2025-01-15 15:47:59.216837	346.7	23.8	-90.9	10.3
2025-01-15 15:48:00.376678	346.5	23.7	-90.8	10.3
2025-01-15 15:48:01.543435	346.3	23.6	-90.9	7.6
2025-01-15 15:48:02.702362	346.1	23.4	-90.8	9.6
2025-01-15 15:48:03.866730	345.9	23.3	-90.9	7.7
2025-01-15 15:48:05.030775	345.7	23.2	-90.9	6.7
2025-01-15 15:48:06.197498	345.5	23.1	-90.9	5.4
2025-01-15 15:48:07.358773	345.3	22.9	-90.8	5.5
2025-01-15 15:48:08.526869	345.1	22.8	-91.2	4.1
2025-01-15 15:48:09.690358	344.9	22.7	-91.1	4.1
2025-01-15 15:48:10.857566	344.7	22.5	-91.2	4.5
2025-01-15 15:48:12.022102	344.5	22.4	-91.2	5.3
2025-01-15 15:48:13.184247	344.3	22.3	-90.8	3.5
2025-01-15 15:48:14.351210	344.1	22.2	-90.3	2.1
2025-01-15 15:48:15.511258	343.9	22.0	-90.0	5.3
2025-01-15 15:48:16.678774	343.7	21.9	-90.4	6.6
2025-01-15 15:48:17.842259	343.5	21.8	-90.5	8.6
2025-01-15 15:48:19.009719	343.3	21.7	-90.2	10.0
2025-01-15 15:48:20.175938	343.2	21.5	-90.4	10.5
2025-01-15 15:48:21.333889	343.0	21.4	-89.6	9.2
2025-01-15 15:48:22.498442	342.8	21.3	-89.7	12.8
2025-01-15 15:48:23.658136	342.6	21.2	-90.1	9.4
2025-01-15 15:48:24.824726	342.4	21.0	-90.6	8.5
2025-01-15 15:48:25.977777	342.3	20.9	-90.1	9.2
2025-01-15 15:48:27.128234	342.1	20.8	-90.7	7.8
2025-01-15 15:48:28.291819	341.9	20.7	-90.9	2.0
2025-01-15 15:48:29.461118	341.7	20.5	-91.0	3.4
2025-01-15 15:48:30.621536	341.6	20.4	-91.0	3.7
2025-01-15 15:48:31.786871	341.4	20.3	-91.1	3.1
2025-01-15 15:48:32.943888	341.2	20.2	-91.1	1.9
2025-01-15 15:48:34.101992	341.0	20.0	-90.8	4.0
2025-01-15 15:48:35.260564	340.9	19.9	-90.6	2.0
2025-01-15 15:48:36.424892	340.7	19.8	-90.3	3.1
2025-01-15 15:48:37.586606	340.6	19.7	-90.6	6.4
2025-01-15 15:48:38.751663	340.4	19.6	-91.2	3.1
2025-01-15 15:48:39.918921	340.2	19.4	-90.5	4.6
2025-01-15 15:48:41.083907	340.1	19.3	-91.0	6.4
2025-01-15 15:48:42.243524	339.9	19.2	-90.6	3.5
2025-01-15 15:48:43.408513	339.7	19.1	-90.8	4.0
2025-01-15 15:48:44.579783	339.6	19.0	-90.8	4.2
2025-01-15 15:48:45.740434	339.4	18.8	-90.9	2.8
2025-01-15 15:48:46.903496	339.3	18.7	-90.0	2.8
2025-01-15 15:48:48.067034	339.1	18.6	-89.7	2.0
2025-01-15 15:48:49.233045	339.0	18.5	-89.7	2.7
2025-01-15 15:48:50.396953	338.8	18.4	-89.6	3.9
2025-01-15 15:48:51.561605	338.7	18.3	-90.0	3.6
2025-01-15 15:48:52.723658	338.5	18.1	-89.8	1.7
2025-01-15 15:48:53.888770	338.4	18.0	-90.2	2.6
2025-01-15 15:48:55.032858	338.2	17.9	-90.2	3.9
2025-01-15 15:48:56.196392	338.1	17.8	-90.0	0.9
2025-01-15 15:48:57.360435	338.0	17.7	-90.0	3.4
2025-01-15 15:48:58.525310	337.8	17.6	-90.2	3.3
2025-01-15 15:48:59.686034	337.7	17.4	-90.1	4.1
2025-01-15 15:49:00.843923	337.5	17.3	-90.2	1.9
2025-01-15 15:49:02.021729	337.4	17.2	-90.2	3.5
2025-01-15 15:49:03.188574	337.2	17.1	-89.8	0.9
2025-01-15 15:49:04.347602	337.1	17.0	-89.9	1.6
2025-01-15 15:49:05.506817	337.0	16.9	-90.0	0.9
2025-01-15 15:49:06.773279	336.8	16.8	-90.1	2.4
2025-01-15 15:49:07.940862	336.7	16.6	-89.8	0.4
2025-01-15 15:49:09.105810	336.6	16.5	-90.1	2.5
2025-01-15 15:49:10.277778	336.4	16.4	-90.2	0.7
2025-01-15 15:49:11.445895	336.3	16.3	-90.3	4.2
2025-01-15 15:49:12.609482	336.2	16.2	-90.4	3.9
2025-01-15 15:49:13.767432	336.0	16.1	-90.3	3.6
2025-01-15 15:49:14.931171	335.9	16.0	-89.9	5.9
2025-01-15 15:49:16.092751	335.8	15.9	-89.8	2.1
2025-01-15 15:49:17.256194	335.7	15.8	-90.2	1.7
2025-01-15 15:49:18.423565	335.5	15.7	-91.2	3.6
2025-01-15 15:49:19.581939	335.4	15.5	-91.1	1.3
2025-01-15 15:49:20.747057	335.3	15.4	-91.0	1.0
2025-01-15 15:49:21.909675	335.2	15.3	-90.8	2.2
2025-01-15 15:49:23.072993	335.0	15.2	-90.9	1.9
2025-01-15 15:49:24.238024	334.9	15.1	-91.0	2.4
2025-01-15 15:49:25.391464	334.8	15.0	-91.1	3.0
2025-01-15 15:49:26.553299	334.7	14.9	-91.5	1.0
2025-01-15 15:49:27.720528	334.6	14.8	-91.1	2.9
2025-01-15 15:49:28.884500	334.5	14.7	-91.1	4.6
2025-01-15 15:49:30.046998	334.3	14.6	-90.5	2.8
#Closed at: 2025-01-15 15:41:32.836172