passes_logs/2025/01/15/LEX_Murmansk/LEX_Murmansk__20250115_160725_NOAA_18_rec.log

#Pass ID: 20250115_160725_NOAA 18
#Satellite: NOAA 18
#Configuration: NOAA 18
#Start time: 2025-01-15 16:07:20.766602

#LorettStation: 1.0.0 05.05.2024
#Station: LEX_Murmansk
#Location: 33.156738 lon 68.926811 lat
#TLE: 1 28654U 05018A   25015.16278545  .00000300  00000+0  18295-3 0  9990
#TLE: 2 28654  98.8567  96.2156 0014367 178.7074 181.4138 14.13486503 13201

#Time	Az	El	Level	SNR
2025-01-15 16:07:32.888801	73.8	16.0	-90.7	8.9
2025-01-15 16:07:34.033419	73.6	16.1	-91.1	7.3
2025-01-15 16:07:35.182063	73.5	16.2	-90.6	10.6
2025-01-15 16:07:36.328130	73.3	16.3	-90.5	12.2
2025-01-15 16:07:37.477902	73.2	16.4	-90.7	6.8
2025-01-15 16:07:38.621892	73.0	16.5	-91.1	9.8
2025-01-15 16:07:39.766326	72.8	16.6	-90.7	13.2
2025-01-15 16:07:40.918735	72.7	16.7	-90.5	8.8
2025-01-15 16:07:42.067205	72.5	16.8	-90.7	13.3
2025-01-15 16:07:43.213302	72.3	16.9	-90.7	12.9
2025-01-15 16:07:44.371626	72.2	17.0	-90.5	17.1
2025-01-15 16:07:45.521012	72.0	17.1	-90.7	10.0
2025-01-15 16:07:46.667000	71.8	17.2	-90.9	12.0
2025-01-15 16:07:47.814401	71.7	17.3	-90.0	16.6
2025-01-15 16:07:48.963969	71.5	17.4	-90.8	9.2
2025-01-15 16:07:50.112281	71.3	17.5	-90.3	6.7
2025-01-15 16:07:51.266429	71.1	17.6	-90.9	14.9
2025-01-15 16:07:52.412523	71.0	17.7	-90.9	7.9
2025-01-15 16:07:53.558968	70.8	17.8	-90.7	6.9
2025-01-15 16:07:54.714857	70.6	17.9	-90.8	12.6
2025-01-15 16:07:55.863995	70.4	18.0	-90.9	7.7
2025-01-15 16:07:57.020846	70.3	18.1	-91.3	5.3
2025-01-15 16:07:58.167883	70.1	18.2	-90.5	11.0
2025-01-15 16:07:59.317213	69.9	18.3	-90.8	14.2
2025-01-15 16:08:00.460911	69.7	18.4	-91.0	9.9
2025-01-15 16:08:01.609677	69.5	18.5	-91.1	11.4
2025-01-15 16:08:02.756398	69.3	18.6	-90.8	12.3
2025-01-15 16:08:03.903651	69.2	18.7	-90.9	11.2
2025-01-15 16:08:05.055502	69.0	18.8	-90.8	10.9
2025-01-15 16:08:06.202088	68.8	18.9	-90.9	7.8
2025-01-15 16:08:07.345866	68.6	19.0	-90.6	13.2
2025-01-15 16:08:08.494928	68.4	19.1	-89.0	10.1
2025-01-15 16:08:09.645583	68.2	19.2	-91.0	11.5
2025-01-15 16:08:10.791218	68.0	19.3	-91.0	11.9
2025-01-15 16:08:11.937655	67.8	19.4	-91.2	11.6
2025-01-15 16:08:13.082093	67.6	19.5	-91.2	7.1
2025-01-15 16:08:14.229602	67.4	19.6	-90.5	13.3
2025-01-15 16:08:15.371810	67.2	19.7	-91.1	11.5
2025-01-15 16:08:16.520131	67.0	19.8	-90.8	7.0
2025-01-15 16:08:17.667703	66.8	19.9	-90.8	14.6
2025-01-15 16:08:18.812817	66.6	20.0	-90.0	9.1
2025-01-15 16:08:19.963729	66.4	20.1	-91.0	11.7
2025-01-15 16:08:21.113551	66.2	20.2	-90.6	18.4
2025-01-15 16:08:22.260657	66.0	20.3	-90.8	20.1
2025-01-15 16:08:23.411432	65.8	20.4	-90.6	10.5
2025-01-15 16:08:24.560365	65.6	20.5	-90.8	10.9
2025-01-15 16:08:25.710140	65.4	20.6	-90.7	7.5
2025-01-15 16:08:26.858568	65.2	20.7	-90.6	8.5
2025-01-15 16:08:28.008978	64.9	20.8	-90.7	14.2
2025-01-15 16:08:29.156537	64.7	20.9	-90.9	17.5
2025-01-15 16:08:30.304699	64.5	21.0	-90.1	16.2
2025-01-15 16:08:31.460009	64.3	21.1	-90.6	9.4
2025-01-15 16:08:32.604698	64.1	21.2	-91.0	11.6
2025-01-15 16:08:33.758198	63.8	21.3	-90.8	16.0
2025-01-15 16:08:34.903884	63.6	21.4	-90.4	9.5
2025-01-15 16:08:36.049861	63.4	21.5	-90.4	5.4
2025-01-15 16:08:37.201342	63.2	21.6	-90.8	12.2
2025-01-15 16:08:38.353403	62.9	21.7	-90.4	11.0
2025-01-15 16:08:39.507120	62.7	21.8	-90.7	7.7
2025-01-15 16:08:40.652645	62.5	21.9	-91.0	11.5
2025-01-15 16:08:41.805881	62.3	22.0	-91.1	11.4
2025-01-15 16:08:42.965708	62.0	22.1	-90.7	14.9
2025-01-15 16:08:44.115656	61.8	22.2	-90.5	15.4
2025-01-15 16:08:45.262033	61.5	22.3	-90.1	14.4
2025-01-15 16:08:46.408178	61.3	22.4	-90.4	8.3
2025-01-15 16:08:47.555832	61.1	22.5	-90.5	12.5
2025-01-15 16:08:48.706854	60.8	22.6	-90.6	17.8
2025-01-15 16:08:49.853437	60.6	22.6	-91.0	14.8
2025-01-15 16:08:51.006938	60.3	22.7	-90.7	10.6
2025-01-15 16:08:52.157272	60.1	22.8	-90.4	9.0
2025-01-15 16:08:53.308679	59.8	22.9	-90.6	10.8
2025-01-15 16:08:54.461645	59.6	23.0	-90.3	7.9
2025-01-15 16:08:55.619665	59.3	23.1	-89.9	9.7
2025-01-15 16:08:56.772459	59.1	23.2	-90.1	11.9
2025-01-15 16:08:57.918586	58.8	23.3	-90.6	9.7
2025-01-15 16:08:59.070635	58.6	23.4	-90.4	6.2
2025-01-15 16:09:00.223361	58.3	23.5	-90.3	6.4
2025-01-15 16:09:01.378935	58.1	23.6	-90.3	7.1
2025-01-15 16:09:02.528626	57.8	23.7	-90.8	4.0
2025-01-15 16:09:03.670867	57.5	23.8	-90.8	9.9
2025-01-15 16:09:04.823618	57.3	23.9	-90.7	7.7
2025-01-15 16:09:05.971003	57.0	24.0	-90.7	10.6
2025-01-15 16:09:07.117727	56.7	24.1	-90.6	14.1
2025-01-15 16:09:08.271056	56.5	24.2	-90.5	12.8
2025-01-15 16:09:09.419747	56.2	24.3	-90.6	6.3
2025-01-15 16:09:10.566317	55.9	24.4	-90.6	9.9
2025-01-15 16:09:11.715895	55.7	24.5	-90.7	11.9
2025-01-15 16:09:12.871320	55.4	24.6	-90.7	10.3
2025-01-15 16:09:14.016453	55.1	24.7	-90.8	4.0
2025-01-15 16:09:15.164637	54.8	24.7	-90.0	7.5
2025-01-15 16:09:16.312115	54.6	24.8	-90.4	10.6
2025-01-15 16:09:17.459434	54.3	24.9	-90.5	9.7
2025-01-15 16:09:18.609851	54.0	25.0	-90.6	9.9
2025-01-15 16:09:19.758774	53.7	25.1	-90.5	10.3
2025-01-15 16:09:20.910162	53.4	25.2	-90.9	8.7
2025-01-15 16:09:22.056925	53.1	25.3	-88.9	5.2
2025-01-15 16:09:23.213225	52.8	25.4	-88.9	10.2
2025-01-15 16:09:24.372859	52.6	25.5	-89.3	9.5
2025-01-15 16:09:25.514814	52.3	25.5	-89.8	7.5
2025-01-15 16:09:26.665248	52.0	25.6	-89.7	6.8
2025-01-15 16:09:27.810523	51.7	25.7	-89.4	7.0
2025-01-15 16:09:28.959282	51.4	25.8	-89.3	4.6
2025-01-15 16:09:30.108834	51.1	25.9	-90.7	7.8
2025-01-15 16:09:31.267959	50.8	26.0	-90.4	7.0
2025-01-15 16:09:32.422106	50.5	26.1	-90.5	9.8
2025-01-15 16:09:33.568042	50.2	26.1	-90.2	8.6
2025-01-15 16:09:34.716974	49.9	26.2	-89.5	8.7
2025-01-15 16:09:35.858952	49.6	26.3	-89.4	8.6
2025-01-15 16:09:37.008855	49.3	26.4	-89.6	5.0
2025-01-15 16:09:38.151507	48.9	26.5	-89.3	3.4
2025-01-15 16:09:39.296387	48.6	26.5	-89.1	6.8
2025-01-15 16:09:40.440279	48.3	26.6	-89.5	4.6
2025-01-15 16:09:41.595411	48.0	26.7	-90.9	4.3
2025-01-15 16:09:42.744874	47.7	26.8	-91.0	10.1
2025-01-15 16:09:43.895036	47.4	26.9	-90.7	8.8
2025-01-15 16:09:45.054259	47.1	26.9	-91.0	6.7
2025-01-15 16:09:46.210358	46.7	27.0	-90.6	9.2
2025-01-15 16:09:47.363351	46.4	27.1	-90.7	8.1
2025-01-15 16:09:48.519835	46.1	27.2	-91.0	7.1
2025-01-15 16:09:49.669534	45.8	27.2	-90.5	12.1
2025-01-15 16:09:50.816511	45.4	27.3	-90.3	5.3
2025-01-15 16:09:51.968814	45.1	27.4	-90.9	7.7
2025-01-15 16:09:53.122491	44.8	27.4	-90.6	5.7
2025-01-15 16:09:54.271965	44.4	27.5	-90.9	6.0
2025-01-15 16:09:55.417505	44.1	27.6	-90.4	6.0
2025-01-15 16:09:56.567317	43.8	27.6	-91.0	6.2
2025-01-15 16:09:57.712551	43.4	27.7	-90.7	12.1
2025-01-15 16:09:58.865899	43.1	27.8	-90.6	15.9
2025-01-15 16:10:00.015868	42.8	27.8	-91.2	5.8
2025-01-15 16:10:01.162502	42.4	27.9	-90.5	10.5
2025-01-15 16:10:02.308904	42.1	28.0	-90.7	6.7
2025-01-15 16:10:03.460511	41.7	28.0	-91.2	6.2
2025-01-15 16:10:04.613249	41.4	28.1	-91.1	8.2
2025-01-15 16:10:05.766209	41.0	28.1	-90.8	10.1
2025-01-15 16:10:06.919534	40.7	28.2	-90.8	9.5
2025-01-15 16:10:08.067427	40.4	28.3	-90.4	6.3
2025-01-15 16:10:09.216338	40.0	28.3	-90.8	10.3
2025-01-15 16:10:10.367698	39.7	28.4	-90.8	7.6
2025-01-15 16:10:11.515030	39.3	28.4	-91.2	7.8
2025-01-15 16:10:12.662761	39.0	28.5	-90.5	11.6
2025-01-15 16:10:13.818252	38.6	28.5	-90.7	6.8
2025-01-15 16:10:14.971329	38.2	28.6	-91.1	7.6
2025-01-15 16:10:16.118591	37.9	28.6	-90.8	7.5
2025-01-15 16:10:17.271599	37.5	28.7	-90.9	11.2
2025-01-15 16:10:18.425947	37.2	28.7	-91.0	7.0
2025-01-15 16:10:19.573220	36.8	28.8	-91.1	5.4
2025-01-15 16:10:20.724308	36.5	28.8	-91.3	10.1
2025-01-15 16:10:21.873878	36.1	28.9	-90.9	12.4
2025-01-15 16:10:23.018959	35.7	28.9	-91.0	14.8
2025-01-15 16:10:24.166556	35.4	29.0	-91.1	12.1
2025-01-15 16:10:25.310516	35.0	29.0	-90.3	11.4
2025-01-15 16:10:26.458412	34.6	29.0	-90.7	11.2
2025-01-15 16:10:27.597980	34.3	29.1	-90.8	9.2
2025-01-15 16:10:28.741696	33.9	29.1	-91.3	9.6
2025-01-15 16:10:29.890278	33.5	29.1	-90.9	11.0
2025-01-15 16:10:31.040186	33.2	29.2	-90.8	10.3
2025-01-15 16:10:32.188022	32.8	29.2	-90.4	18.4
2025-01-15 16:10:33.335454	32.4	29.2	-90.7	9.4
2025-01-15 16:10:34.483130	32.1	29.3	-91.1	8.4
2025-01-15 16:10:35.631471	31.7	29.3	-90.9	9.9
2025-01-15 16:10:36.778365	31.3	29.3	-90.1	9.5
2025-01-15 16:10:37.926003	31.0	29.3	-91.2	5.8
2025-01-15 16:10:39.075257	30.6	29.4	-90.3	6.2
2025-01-15 16:10:40.221282	30.2	29.4	-90.6	9.7
2025-01-15 16:10:41.369532	29.8	29.4	-90.9	6.0
2025-01-15 16:10:42.520839	29.5	29.4	-91.0	8.6
2025-01-15 16:10:43.671414	29.1	29.5	-90.8	9.5
2025-01-15 16:10:44.821789	28.7	29.5	-90.8	10.1
2025-01-15 16:10:45.969307	28.3	29.5	-90.8	6.9
2025-01-15 16:10:47.118319	28.0	29.5	-90.7	5.5
2025-01-15 16:10:48.265354	27.6	29.5	-90.5	8.2
2025-01-15 16:10:49.414599	27.2	29.5	-90.8	6.4
2025-01-15 16:10:50.562471	26.8	29.5	-90.8	9.0
2025-01-15 16:10:51.706687	26.5	29.5	-90.8	9.2
2025-01-15 16:10:52.857448	26.1	29.6	-91.1	6.9
2025-01-15 16:10:54.005139	25.7	29.6	-90.9	15.3
2025-01-15 16:10:55.153283	25.3	29.6	-90.4	11.0
2025-01-15 16:10:56.298147	25.0	29.6	-90.5	5.8
2025-01-15 16:10:57.443907	24.6	29.6	-91.0	5.2
2025-01-15 16:10:58.590670	24.2	29.6	-90.6	8.9
2025-01-15 16:10:59.744730	23.8	29.6	-90.7	9.0
2025-01-15 16:11:00.890574	23.4	29.6	-90.9	11.4
2025-01-15 16:11:02.037713	23.1	29.6	-91.3	11.9
2025-01-15 16:11:03.177312	22.7	29.6	-91.0	10.9
2025-01-15 16:11:04.323129	22.3	29.6	-90.8	14.6
2025-01-15 16:11:05.449307	21.9	29.6	-90.8	10.9
2025-01-15 16:11:06.570566	21.6	29.5	-90.9	9.5
2025-01-15 16:11:07.690009	21.2	29.5	-90.9	6.1
2025-01-15 16:11:08.811144	20.8	29.5	-91.0	14.3
2025-01-15 16:11:09.932172	20.5	29.5	-90.7	8.6
2025-01-15 16:11:11.053207	20.1	29.5	-90.7	5.8
2025-01-15 16:11:12.173391	19.7	29.5	-90.4	11.9
2025-01-15 16:11:13.297515	19.4	29.5	-90.3	12.7
2025-01-15 16:11:14.427300	19.0	29.4	-90.6	5.7
2025-01-15 16:11:15.572940	18.6	29.4	-90.8	7.2
2025-01-15 16:11:16.722881	18.3	29.4	-90.6	9.5
2025-01-15 16:11:17.884520	17.9	29.4	-90.7	7.0
2025-01-15 16:11:19.028229	17.5	29.4	-90.5	6.2
2025-01-15 16:11:20.175496	17.1	29.3	-91.1	8.1
2025-01-15 16:11:21.329557	16.8	29.3	-90.8	8.2
2025-01-15 16:11:22.480892	16.4	29.3	-91.0	8.9
2025-01-15 16:11:23.623801	16.0	29.3	-90.8	5.0
2025-01-15 16:11:24.773245	15.6	29.2	-90.7	8.2
2025-01-15 16:11:25.921951	15.3	29.2	-91.2	8.0
2025-01-15 16:11:27.068224	14.9	29.2	-90.7	8.5
2025-01-15 16:11:28.220589	14.5	29.1	-90.7	7.8
2025-01-15 16:11:29.375198	14.2	29.1	-90.8	7.7
2025-01-15 16:11:30.524866	13.8	29.1	-90.9	10.2
2025-01-15 16:11:31.675975	13.4	29.0	-90.8	8.4
2025-01-15 16:11:32.824012	13.1	29.0	-90.9	8.6
2025-01-15 16:11:33.969752	12.7	28.9	-91.1	9.3
2025-01-15 16:11:35.118776	12.3	28.9	-90.9	10.7
2025-01-15 16:11:36.262985	12.0	28.8	-90.7	9.2
2025-01-15 16:11:37.415159	11.6	28.8	-90.7	11.5
2025-01-15 16:11:38.565047	11.3	28.8	-91.1	13.8
2025-01-15 16:11:39.721912	10.9	28.7	-91.0	11.6
2025-01-15 16:11:40.864823	10.6	28.7	-91.1	7.4
2025-01-15 16:11:42.015278	10.2	28.6	-91.0	7.5
2025-01-15 16:11:43.159003	9.8	28.6	-90.5	6.5
2025-01-15 16:11:44.303041	9.5	28.5	-90.2	8.4
2025-01-15 16:11:45.455937	9.1	28.5	-90.7	5.8
2025-01-15 16:11:46.602819	8.8	28.4	-90.7	3.8
2025-01-15 16:11:47.755199	8.4	28.4	-90.5	5.5
2025-01-15 16:11:48.903600	8.1	28.3	-90.7	4.1
2025-01-15 16:11:50.053488	7.7	28.2	-90.3	6.5
2025-01-15 16:11:51.197131	7.4	28.2	-90.6	5.4
2025-01-15 16:11:52.351379	7.0	28.1	-91.2	7.7
2025-01-15 16:11:53.503280	6.7	28.1	-91.2	8.8
2025-01-15 16:11:54.654200	6.3	28.0	-91.0	7.7
2025-01-15 16:11:55.803057	6.0	27.9	-91.3	4.7
2025-01-15 16:11:56.952360	5.7	27.9	-91.2	9.3
2025-01-15 16:11:58.106409	5.3	27.8	-90.9	8.4
2025-01-15 16:11:59.250723	5.0	27.7	-90.8	8.0
2025-01-15 16:12:00.394901	4.7	27.7	-90.9	11.2
2025-01-15 16:12:01.543714	4.3	27.6	-91.0	7.3
2025-01-15 16:12:02.692657	4.0	27.5	-90.6	8.7
2025-01-15 16:12:03.840840	3.7	27.5	-90.8	8.3
2025-01-15 16:12:04.991452	3.3	27.4	-90.9	9.6
2025-01-15 16:12:06.148660	3.0	27.3	-91.1	9.5
2025-01-15 16:12:07.297961	2.7	27.3	-90.8	10.1
2025-01-15 16:12:08.445962	2.3	27.2	-90.7	9.5
2025-01-15 16:12:09.599698	2.0	27.1	-90.8	8.0
2025-01-15 16:12:10.746027	1.7	27.0	-91.1	11.3
2025-01-15 16:12:11.896191	1.4	27.0	-90.9	12.0
2025-01-15 16:12:13.052386	1.0	26.9	-91.0	9.5
2025-01-15 16:12:14.200420	0.7	26.8	-90.7	10.2
2025-01-15 16:12:15.346566	0.4	26.7	-90.9	11.0
2025-01-15 16:12:16.498386	0.1	26.7	-91.2	6.4
2025-01-15 16:12:17.644887	359.8	26.6	-90.5	8.3
2025-01-15 16:12:18.793547	359.5	26.5	-90.9	12.1
2025-01-15 16:12:19.942694	359.1	26.4	-91.2	7.6
2025-01-15 16:12:21.093792	358.8	26.3	-90.9	6.9
2025-01-15 16:12:22.251207	358.5	26.3	-90.7	10.6
2025-01-15 16:12:23.396300	358.2	26.2	-90.4	8.2
2025-01-15 16:12:24.550376	357.9	26.1	-90.9	5.7
2025-01-15 16:12:25.697218	357.6	26.0	-90.9	10.8
2025-01-15 16:12:26.846517	357.3	25.9	-90.9	10.0
2025-01-15 16:12:27.997313	357.0	25.8	-90.8	6.9
2025-01-15 16:12:29.145432	356.7	25.8	-90.5	8.4
2025-01-15 16:12:30.296531	356.4	25.7	-90.8	14.6
2025-01-15 16:12:31.445828	356.1	25.6	-90.7	8.8
2025-01-15 16:12:32.596872	355.8	25.5	-90.9	9.2
2025-01-15 16:12:33.744423	355.5	25.4	-91.0	16.8
2025-01-15 16:12:34.899783	355.2	25.3	-91.2	11.2
2025-01-15 16:12:36.051400	354.9	25.2	-91.1	9.6
2025-01-15 16:12:37.199107	354.7	25.2	-90.6	16.6
2025-01-15 16:12:38.347378	354.4	25.1	-90.3	13.4
2025-01-15 16:12:39.493370	354.1	25.0	-91.2	10.5
2025-01-15 16:12:40.642608	353.8	24.9	-91.4	12.1
2025-01-15 16:12:41.794072	353.5	24.8	-90.9	15.3
2025-01-15 16:12:42.942219	353.3	24.7	-91.1	13.0
2025-01-15 16:12:44.088224	353.0	24.6	-90.9	10.8
2025-01-15 16:12:45.240161	352.7	24.5	-90.7	13.6
2025-01-15 16:12:46.390591	352.4	24.4	-90.6	16.3
2025-01-15 16:12:47.542381	352.1	24.3	-90.6	14.5
2025-01-15 16:12:48.695111	351.9	24.2	-91.2	13.0
2025-01-15 16:12:49.843687	351.6	24.1	-91.1	15.9
2025-01-15 16:12:50.993398	351.3	24.0	-91.0	11.0
2025-01-15 16:12:52.145878	351.1	24.0	-90.6	10.7
2025-01-15 16:12:53.290428	350.8	23.9	-91.0	12.9
2025-01-15 16:12:54.435027	350.5	23.8	-91.4	11.3
2025-01-15 16:12:55.580645	350.3	23.7	-91.2	12.7
2025-01-15 16:12:56.724628	350.0	23.6	-91.0	15.3
2025-01-15 16:12:57.874105	349.8	23.5	-90.8	15.3
2025-01-15 16:12:59.018679	349.5	23.4	-91.4	12.6
2025-01-15 16:13:00.166200	349.3	23.3	-90.8	14.3
2025-01-15 16:13:01.317415	349.0	23.2	-90.8	13.5
2025-01-15 16:13:02.476771	348.8	23.1	-90.7	10.3
2025-01-15 16:13:03.628226	348.5	23.0	-90.7	10.7
2025-01-15 16:13:04.779144	348.3	22.9	-91.1	14.0
2025-01-15 16:13:05.931307	348.0	22.8	-91.1	10.7
2025-01-15 16:13:07.078427	347.8	22.7	-90.9	6.9
2025-01-15 16:13:08.224447	347.5	22.6	-90.3	8.9
2025-01-15 16:13:09.377445	347.3	22.5	-90.4	12.1
2025-01-15 16:13:10.517168	347.0	22.4	-90.9	8.0
2025-01-15 16:13:11.662079	346.8	22.3	-91.4	8.8
2025-01-15 16:13:12.812090	346.6	22.2	-91.2	10.4
2025-01-15 16:13:13.969115	346.3	22.1	-90.5	6.8
2025-01-15 16:13:15.118308	346.1	22.0	-91.3	10.1
2025-01-15 16:13:16.267669	345.8	21.9	-90.8	10.8
2025-01-15 16:13:17.426185	345.6	21.8	-91.0	9.6
2025-01-15 16:13:18.584655	345.4	21.7	-90.7	10.7
2025-01-15 16:13:19.732525	345.2	21.6	-91.1	11.9
2025-01-15 16:13:20.881233	344.9	21.5	-91.3	13.7
2025-01-15 16:13:22.031549	344.7	21.4	-91.2	12.3
2025-01-15 16:13:23.179031	344.5	21.3	-90.5	11.6
2025-01-15 16:13:24.327386	344.3	21.2	-90.9	10.0
2025-01-15 16:13:25.479247	344.0	21.1	-91.2	9.4
2025-01-15 16:13:26.625103	343.8	21.0	-90.8	6.6
2025-01-15 16:13:27.773925	343.6	20.9	-91.1	9.8
2025-01-15 16:13:28.928164	343.4	20.8	-90.9	9.3
2025-01-15 16:13:30.075561	343.2	20.7	-91.1	7.0
2025-01-15 16:13:31.225835	342.9	20.6	-90.5	10.0
2025-01-15 16:13:32.366151	342.7	20.5	-90.9	7.8
2025-01-15 16:13:33.513170	342.5	20.4	-91.1	4.8
2025-01-15 16:13:34.663211	342.3	20.3	-91.2	6.9
2025-01-15 16:13:35.817319	342.1	20.2	-91.1	5.3
2025-01-15 16:13:36.972450	341.9	20.1	-90.6	4.7
2025-01-15 16:13:38.119855	341.7	20.0	-90.1	4.7
2025-01-15 16:13:39.264359	341.5	19.9	-90.7	6.3
2025-01-15 16:13:40.411478	341.3	19.8	-90.4	4.5
2025-01-15 16:13:41.561813	341.1	19.7	-90.4	4.6
2025-01-15 16:13:42.720438	340.9	19.6	-90.5	6.0
2025-01-15 16:13:43.867202	340.7	19.5	-91.2	6.4
2025-01-15 16:13:45.017630	340.5	19.4	-90.7	5.8
2025-01-15 16:13:46.161573	340.3	19.3	-90.5	6.5
2025-01-15 16:13:47.310839	340.1	19.2	-90.6	5.3
2025-01-15 16:13:48.463070	339.9	19.1	-90.9	5.0
2025-01-15 16:13:49.619709	339.7	19.0	-91.1	6.3
2025-01-15 16:13:50.769725	339.5	18.9	-91.4	3.6
2025-01-15 16:13:51.915603	339.3	18.8	-90.9	6.6
2025-01-15 16:13:53.061807	339.1	18.7	-90.8	4.0
2025-01-15 16:13:54.211984	338.9	18.6	-90.7	3.1
2025-01-15 16:13:55.358385	338.7	18.5	-90.7	5.3
2025-01-15 16:13:56.503686	338.6	18.4	-91.2	5.8
2025-01-15 16:13:57.654193	338.4	18.3	-90.5	5.1
2025-01-15 16:13:58.807630	338.2	18.2	-91.1	9.2
2025-01-15 16:13:59.951175	338.0	18.1	-90.7	4.3
2025-01-15 16:14:01.096326	337.8	18.0	-90.7	4.9
2025-01-15 16:14:02.240048	337.7	17.9	-90.6	7.4
2025-01-15 16:14:03.387020	337.5	17.8	-91.0	7.1
2025-01-15 16:14:04.532310	337.3	17.7	-90.9	6.4
2025-01-15 16:14:05.682024	337.1	17.6	-90.9	6.0
2025-01-15 16:14:06.833090	337.0	17.5	-91.4	6.6
2025-01-15 16:14:07.988994	336.8	17.4	-90.4	4.2
2025-01-15 16:14:09.140842	336.6	17.3	-91.3	4.0
2025-01-15 16:14:10.290479	336.4	17.2	-90.9	4.3
2025-01-15 16:14:11.444545	336.3	17.1	-90.7	6.5
2025-01-15 16:14:12.594640	336.1	17.0	-91.3	4.8
2025-01-15 16:14:13.743588	335.9	16.9	-91.4	3.9
2025-01-15 16:14:14.897816	335.8	16.8	-91.3	6.1
2025-01-15 16:14:16.046366	335.6	16.7	-91.4	4.5
2025-01-15 16:14:17.192597	335.4	16.6	-90.4	5.9
2025-01-15 16:14:18.340772	335.3	16.5	-91.2	3.9
2025-01-15 16:14:19.490313	335.1	16.4	-91.3	5.0
2025-01-15 16:14:20.636434	334.9	16.3	-91.3	3.3
2025-01-15 16:14:21.788033	334.8	16.2	-91.2	2.7
2025-01-15 16:14:22.935905	334.6	16.1	-91.5	4.7
2025-01-15 16:14:24.089577	334.5	16.0	-90.8	6.1
2025-01-15 16:14:25.244205	334.3	15.9	-90.5	5.5
2025-01-15 16:14:26.393675	334.1	15.8	-91.1	6.0
2025-01-15 16:14:27.544097	334.0	15.7	-91.5	4.4
2025-01-15 16:14:28.690341	333.8	15.6	-91.1	6.5
2025-01-15 16:14:29.845181	333.7	15.5	-91.3	5.5
2025-01-15 16:14:31.005606	333.5	15.4	-91.3	4.9
2025-01-15 16:14:32.152234	333.4	15.4	-91.0	7.7
2025-01-15 16:14:33.299316	333.2	15.3	-91.2	6.6
2025-01-15 16:14:34.447456	333.1	15.2	-91.6	4.5
2025-01-15 16:14:35.591829	332.9	15.1	-90.9	4.7
2025-01-15 16:14:36.736816	332.8	15.0	-91.5	3.6
2025-01-15 16:14:37.885617	332.6	14.9	-91.3	4.8
2025-01-15 16:14:39.043131	332.5	14.8	-91.2	6.2
2025-01-15 16:14:40.189344	332.3	14.7	-91.1	7.6
2025-01-15 16:14:41.331382	332.2	14.6	-90.9	6.2
#Closed at: 2025-01-15 16:07:25.699341