passes_logs/2025/01/15/LEX_Murmansk/LEX_Murmansk__20250115_092659_NOAA_18_rec.log

#Pass ID: 20250115_092659_NOAA 18
#Satellite: NOAA 18
#Configuration: NOAA 18
#Start time: 2025-01-15 09:26:54.295939

#LorettStation: 1.0.0 05.05.2024
#Station: LEX_Murmansk
#Location: 33.156738 lon 68.926811 lat
#TLE: 1 28654U 05018A   25014.17177243  .00000313  00000+0  18955-3 0  9990
#TLE: 2 28654  98.8569  95.2344 0014326 181.4762 178.6370 14.13485757 13061

#Time	Az	El	Level	SNR
2025-01-15 09:27:06.574629	27.9	16.3	-91.0	4.0
2025-01-15 09:27:08.901839	28.0	16.5	-90.9	7.2
2025-01-15 09:27:11.210916	28.1	16.8	-90.8	12.3
2025-01-15 09:27:13.542496	28.2	17.1	-91.0	11.9
2025-01-15 09:27:15.873732	28.3	17.3	-91.2	10.6
2025-01-15 09:27:18.208039	28.4	17.6	-90.8	9.7
2025-01-15 09:27:20.529301	28.5	17.8	-91.0	7.0
2025-01-15 09:27:22.852923	28.7	18.1	-91.2	11.2
2025-01-15 09:27:25.178835	28.8	18.4	-90.7	11.6
2025-01-15 09:27:27.510024	28.9	18.7	-91.2	10.3
2025-01-15 09:27:29.842202	29.0	18.9	-90.9	11.2
2025-01-15 09:27:32.166701	29.1	19.2	-90.7	11.0
2025-01-15 09:27:34.501029	29.3	19.5	-91.0	11.3
2025-01-15 09:27:36.826924	29.4	19.8	-91.3	11.3
2025-01-15 09:27:39.142218	29.5	20.1	-91.0	10.4
2025-01-15 09:27:41.468965	29.7	20.4	-91.0	15.0
2025-01-15 09:27:43.793455	29.8	20.7	-90.9	14.4
2025-01-15 09:27:46.123178	29.9	21.0	-90.8	8.5
2025-01-15 09:27:48.449193	30.1	21.3	-90.9	7.4
2025-01-15 09:27:50.778052	30.2	21.6	-91.2	10.1
2025-01-15 09:27:53.100768	30.4	21.9	-90.8	12.2
2025-01-15 09:27:55.425890	30.5	22.2	-90.9	12.0
2025-01-15 09:27:57.754933	30.7	22.5	-91.3	12.2
2025-01-15 09:28:00.079782	30.8	22.8	-91.1	10.4
2025-01-15 09:28:02.401385	31.0	23.1	-91.2	12.6
2025-01-15 09:28:04.722799	31.2	23.5	-91.6	10.7
2025-01-15 09:28:07.050503	31.3	23.8	-91.5	11.2
2025-01-15 09:28:09.367836	31.5	24.1	-91.1	12.1
2025-01-15 09:28:11.689739	31.7	24.5	-91.1	11.3
2025-01-15 09:28:14.021637	31.8	24.8	-91.4	13.1
2025-01-15 09:28:16.347110	32.0	25.2	-91.0	10.7
2025-01-15 09:28:18.665346	32.2	25.5	-91.4	10.2
2025-01-15 09:28:20.984339	32.4	25.9	-91.3	12.2
2025-01-15 09:28:23.314853	32.6	26.2	-91.1	9.4
2025-01-15 09:28:25.644749	32.8	26.6	-91.4	10.8
2025-01-15 09:28:27.966710	33.0	27.0	-90.9	9.9
2025-01-15 09:28:30.289199	33.2	27.4	-91.2	11.9
2025-01-15 09:28:32.613716	33.4	27.7	-91.2	12.1
2025-01-15 09:28:34.944066	33.6	28.1	-91.0	12.8
2025-01-15 09:28:37.273736	33.8	28.5	-90.5	7.7
2025-01-15 09:28:39.597342	34.0	28.9	-91.1	9.1
2025-01-15 09:28:41.928455	34.3	29.3	-91.5	10.5
2025-01-15 09:28:44.252712	34.5	29.7	-91.3	14.3
2025-01-15 09:28:46.584207	34.7	30.1	-91.3	12.1
2025-01-15 09:28:48.912444	35.0	30.6	-91.1	11.9
2025-01-15 09:28:51.238033	35.2	31.0	-91.0	9.3
2025-01-15 09:28:53.566880	35.5	31.4	-91.2	8.9
2025-01-15 09:28:55.895707	35.8	31.8	-91.4	9.9
2025-01-15 09:28:58.218492	36.0	32.3	-89.9	8.3
2025-01-15 09:29:00.540407	36.3	32.7	-89.7	9.5
2025-01-15 09:29:02.863413	36.6	33.2	-90.2	14.0
2025-01-15 09:29:05.188782	36.9	33.6	-91.3	12.8
2025-01-15 09:29:07.522165	37.2	34.1	-91.4	10.2
2025-01-15 09:29:09.847699	37.5	34.6	-91.4	14.7
2025-01-15 09:29:12.184223	37.8	35.0	-91.3	12.5
2025-01-15 09:29:14.514027	38.2	35.5	-91.2	7.8
2025-01-15 09:29:16.838068	38.5	36.0	-91.0	14.3
2025-01-15 09:29:19.166651	38.8	36.5	-91.0	13.4
2025-01-15 09:29:21.496330	39.2	37.0	-91.5	14.8
2025-01-15 09:29:23.809801	39.6	37.5	-91.2	15.3
2025-01-15 09:29:26.136396	40.0	38.0	-91.1	15.1
2025-01-15 09:29:28.477792	40.3	38.6	-91.1	12.9
2025-01-15 09:29:30.793903	40.8	39.1	-91.2	12.4
2025-01-15 09:29:33.136078	41.2	39.6	-91.2	10.3
2025-01-15 09:29:35.466071	41.6	40.2	-90.8	12.7
2025-01-15 09:29:37.796781	42.1	40.7	-91.2	15.3
2025-01-15 09:29:40.131320	42.5	41.3	-91.3	17.9
2025-01-15 09:29:42.463320	43.0	41.8	-91.4	14.1
2025-01-15 09:29:44.786159	43.5	42.4	-91.5	15.4
2025-01-15 09:29:47.113282	44.0	43.0	-91.1	18.2
2025-01-15 09:29:49.444721	44.5	43.6	-91.1	15.0
2025-01-15 09:29:51.772220	45.1	44.1	-91.2	14.8
2025-01-15 09:29:54.102555	45.7	44.7	-90.8	8.2
2025-01-15 09:29:56.430476	46.3	45.3	-91.3	13.4
2025-01-15 09:29:58.755950	46.9	45.9	-91.6	20.1
2025-01-15 09:30:01.084188	47.5	46.6	-91.3	11.8
2025-01-15 09:30:03.421666	48.2	47.2	-91.5	10.5
2025-01-15 09:30:05.755075	48.9	47.8	-91.6	15.4
2025-01-15 09:30:08.090538	49.6	48.4	-91.5	8.4
2025-01-15 09:30:10.412629	50.3	49.0	-91.2	11.1
2025-01-15 09:30:12.743491	51.1	49.7	-91.7	12.2
2025-01-15 09:30:15.065394	51.9	50.3	-91.4	7.5
2025-01-15 09:30:17.393494	52.8	50.9	-89.9	6.6
2025-01-15 09:30:19.723445	53.7	51.6	-90.1	6.7
2025-01-15 09:30:22.051041	54.6	52.2	-89.8	10.1
2025-01-15 09:30:24.376461	55.5	52.9	-91.1	14.6
2025-01-15 09:30:26.707877	56.5	53.5	-91.2	15.1
2025-01-15 09:30:29.037620	57.6	54.2	-91.0	9.6
2025-01-15 09:30:31.361731	58.7	54.8	-91.2	15.4
2025-01-15 09:30:33.691127	59.8	55.4	-91.7	13.0
2025-01-15 09:30:36.015913	61.0	56.1	-91.3	18.4
2025-01-15 09:30:38.350534	62.3	56.7	-90.7	16.9
2025-01-15 09:30:40.665969	63.6	57.3	-90.8	13.9
2025-01-15 09:30:42.996345	65.0	57.9	-91.6	10.4
2025-01-15 09:30:45.320215	66.4	58.5	-90.8	20.5
2025-01-15 09:30:47.645573	67.9	59.1	-91.1	10.1
2025-01-15 09:30:49.969228	69.5	59.7	-91.0	16.9
2025-01-15 09:30:52.295110	71.1	60.3	-90.9	18.0
2025-01-15 09:30:54.620892	72.8	60.8	-91.3	19.9
2025-01-15 09:30:56.947561	74.6	61.3	-91.5	17.1
2025-01-15 09:30:59.269509	76.4	61.8	-91.1	17.1
2025-01-15 09:31:01.586252	78.4	62.3	-91.5	15.0
2025-01-15 09:31:03.931343	80.4	62.8	-91.2	13.0
2025-01-15 09:31:06.249056	82.5	63.2	-91.2	13.7
2025-01-15 09:31:08.580909	84.6	63.6	-91.3	15.4
2025-01-15 09:31:10.917115	86.9	64.0	-91.2	12.8
2025-01-15 09:31:13.248421	89.2	64.3	-91.0	15.5
2025-01-15 09:31:15.576307	91.6	64.6	-90.3	15.2
2025-01-15 09:31:17.901063	94.0	64.9	-90.3	10.5
2025-01-15 09:31:20.226806	96.5	65.1	-89.2	10.9
2025-01-15 09:31:22.552235	99.0	65.3	-91.2	10.3
2025-01-15 09:31:24.875178	101.6	65.4	-91.1	14.4
2025-01-15 09:31:27.206172	104.1	65.5	-91.2	12.5
2025-01-15 09:31:29.530224	106.7	65.6	-91.5	10.7
2025-01-15 09:31:31.849316	109.3	65.6	-91.6	11.1
2025-01-15 09:31:34.178319	112.0	65.5	-90.8	17.1
2025-01-15 09:31:36.501756	114.5	65.4	-91.0	11.8
2025-01-15 09:31:38.821984	117.1	65.3	-91.3	8.9
2025-01-15 09:31:41.145636	119.6	65.1	-90.6	13.0
2025-01-15 09:31:43.468969	122.1	64.9	-91.4	11.0
2025-01-15 09:31:45.795857	124.6	64.7	-91.4	15.2
2025-01-15 09:31:48.126142	126.9	64.4	-90.8	16.4
2025-01-15 09:31:50.454311	129.2	64.0	-91.6	14.1
2025-01-15 09:31:52.770358	131.5	63.7	-90.9	17.4
2025-01-15 09:31:55.106480	133.7	63.3	-89.2	21.6
2025-01-15 09:31:57.435848	135.8	62.8	-89.7	20.9
2025-01-15 09:31:59.763596	137.8	62.4	-91.4	16.7
2025-01-15 09:32:02.079429	139.7	61.9	-91.1	16.7
2025-01-15 09:32:04.409939	141.6	61.4	-89.8	16.8
2025-01-15 09:32:06.733621	143.4	60.8	-89.8	17.0
2025-01-15 09:32:09.068381	145.1	60.3	-91.0	18.0
2025-01-15 09:32:11.391184	146.8	59.7	-90.9	12.8
2025-01-15 09:32:13.711897	148.3	59.1	-91.0	17.0
2025-01-15 09:32:16.031555	149.8	58.6	-91.1	7.9
2025-01-15 09:32:18.360358	151.3	57.9	-91.1	12.5
2025-01-15 09:32:20.687213	152.7	57.3	-91.3	9.2
2025-01-15 09:32:23.006927	154.0	56.7	-91.4	13.1
2025-01-15 09:32:25.332095	155.2	56.1	-90.9	4.7
2025-01-15 09:32:27.664098	156.4	55.4	-91.3	12.2
2025-01-15 09:32:29.973223	157.6	54.8	-91.1	9.3
2025-01-15 09:32:32.304287	158.7	54.2	-91.1	15.8
2025-01-15 09:32:34.645873	159.8	53.5	-91.3	10.3
2025-01-15 09:32:36.964073	160.8	52.9	-91.5	5.6
2025-01-15 09:32:39.288050	161.7	52.2	-91.0	11.5
2025-01-15 09:32:41.616330	162.6	51.6	-90.9	6.6
2025-01-15 09:32:43.884595	163.5	51.0	-90.6	7.3
2025-01-15 09:32:46.200396	164.4	50.3	-91.4	11.5
2025-01-15 09:32:48.531051	165.2	49.7	-90.6	11.8
2025-01-15 09:32:50.853706	166.0	49.0	-91.1	9.7
2025-01-15 09:32:53.179752	166.7	48.4	-90.8	6.1
2025-01-15 09:32:55.503257	167.4	47.8	-90.9	11.3
2025-01-15 09:32:57.830628	168.1	47.2	-91.2	14.9
2025-01-15 09:33:00.153039	168.8	46.5	-90.5	14.8
2025-01-15 09:33:02.471605	169.4	45.9	-90.0	10.5
2025-01-15 09:33:04.795355	170.1	45.3	-90.6	20.3
2025-01-15 09:33:07.120578	170.7	44.7	-90.6	6.3
2025-01-15 09:33:09.439779	171.2	44.1	-90.7	11.2
2025-01-15 09:33:11.764093	171.8	43.5	-91.0	16.1
2025-01-15 09:33:14.087851	172.3	43.0	-91.3	10.2
2025-01-15 09:33:16.420828	172.8	42.4	-91.1	11.9
2025-01-15 09:33:18.721864	173.3	41.8	-91.6	14.3
2025-01-15 09:33:21.048263	173.8	41.2	-91.5	16.3
2025-01-15 09:33:23.361633	174.3	40.7	-91.2	9.2
2025-01-15 09:33:25.692181	174.7	40.1	-91.3	3.6
2025-01-15 09:33:28.021601	175.2	39.6	-91.7	6.2
2025-01-15 09:33:30.353414	175.6	39.0	-91.2	9.5
2025-01-15 09:33:32.671186	176.0	38.5	-91.7	13.3
2025-01-15 09:33:34.997651	176.4	38.0	-91.5	6.5
2025-01-15 09:33:37.321438	176.8	37.5	-91.2	13.8
2025-01-15 09:33:39.650430	177.1	37.0	-91.1	12.5
2025-01-15 09:33:41.978307	177.5	36.4	-91.5	9.7
2025-01-15 09:33:44.308581	177.9	35.9	-91.0	13.2
2025-01-15 09:33:46.641081	178.2	35.4	-90.9	12.1
2025-01-15 09:33:48.968641	178.5	35.0	-90.9	6.0
2025-01-15 09:33:51.294662	178.9	34.5	-91.3	10.6
2025-01-15 09:33:53.614207	179.2	34.0	-91.4	9.6
2025-01-15 09:33:55.933987	179.5	33.5	-91.4	11.5
2025-01-15 09:33:58.261829	179.8	33.1	-91.2	11.9
2025-01-15 09:34:00.579714	180.0	32.6	-91.4	14.6
2025-01-15 09:34:02.901371	180.3	32.2	-91.4	10.6
2025-01-15 09:34:05.227909	180.6	31.7	-91.4	11.0
2025-01-15 09:34:07.553301	180.9	31.3	-91.4	7.5
2025-01-15 09:34:09.882507	181.1	30.9	-91.7	6.2
2025-01-15 09:34:12.198789	181.4	30.4	-91.0	7.5
2025-01-15 09:34:14.519340	181.6	30.0	-91.3	10.1
2025-01-15 09:34:16.846223	181.9	29.6	-91.3	8.3
2025-01-15 09:34:19.176104	182.1	29.2	-90.9	7.3
2025-01-15 09:34:21.505542	182.3	28.8	-91.4	6.1
2025-01-15 09:34:23.833196	182.6	28.4	-91.1	5.2
2025-01-15 09:34:26.157774	182.8	28.0	-91.0	4.7
2025-01-15 09:34:28.491198	183.0	27.6	-91.0	6.2
2025-01-15 09:34:30.823027	183.2	27.2	-91.4	10.7
2025-01-15 09:34:33.150843	183.4	26.8	-91.2	7.3
2025-01-15 09:34:35.477478	183.6	26.5	-91.1	10.0
2025-01-15 09:34:37.810368	183.8	26.1	-90.8	8.7
2025-01-15 09:34:40.131442	184.0	25.7	-91.1	8.5
2025-01-15 09:34:42.450399	184.2	25.4	-90.8	8.3
2025-01-15 09:34:44.774797	184.4	25.0	-91.6	10.9
2025-01-15 09:34:47.095123	184.5	24.7	-91.5	9.1
2025-01-15 09:34:49.432049	184.7	24.3	-91.2	8.9
2025-01-15 09:34:51.760590	184.9	24.0	-91.3	7.0
2025-01-15 09:34:54.086645	185.0	23.6	-91.3	3.6
2025-01-15 09:34:56.414359	185.2	23.3	-91.1	6.3
2025-01-15 09:34:58.743252	185.4	23.0	-91.2	10.9
2025-01-15 09:35:01.069428	185.5	22.6	-91.3	10.2
2025-01-15 09:35:03.392639	185.7	22.3	-91.2	10.6
2025-01-15 09:35:05.715964	185.8	22.0	-90.9	10.5
2025-01-15 09:35:08.041707	186.0	21.7	-91.0	6.7
2025-01-15 09:35:10.362859	186.1	21.4	-90.7	4.4
2025-01-15 09:35:12.683921	186.3	21.1	-90.8	9.0
2025-01-15 09:35:15.023065	186.4	20.8	-90.9	7.5
2025-01-15 09:35:17.342333	186.6	20.5	-90.6	6.2
2025-01-15 09:35:19.670042	186.7	20.2	-91.6	8.0
2025-01-15 09:35:22.004626	186.8	19.9	-91.0	4.9
2025-01-15 09:35:24.330424	187.0	19.6	-91.2	6.5
2025-01-15 09:35:26.658609	187.1	19.3	-91.7	5.3
2025-01-15 09:35:28.982662	187.2	19.0	-91.3	4.6
2025-01-15 09:35:31.309696	187.3	18.7	-91.4	4.6
2025-01-15 09:35:33.633621	187.5	18.4	-91.4	3.0
2025-01-15 09:35:35.951760	187.6	18.2	-91.4	4.6
2025-01-15 09:35:38.280054	187.7	17.9	-91.0	3.1
2025-01-15 09:35:40.601328	187.8	17.6	-91.8	6.2
2025-01-15 09:35:42.926780	187.9	17.4	-90.4	4.8
2025-01-15 09:35:45.255585	188.1	17.1	-91.7	7.3
2025-01-15 09:35:47.581490	188.2	16.8	-91.3	6.4
2025-01-15 09:35:49.902927	188.3	16.6	-91.0	5.6
2025-01-15 09:35:52.228248	188.4	16.3	-91.2	6.7
2025-01-15 09:35:54.553885	188.5	16.1	-89.0	3.9
2025-01-15 09:35:56.880424	188.6	15.8	-91.6	7.2
2025-01-15 09:35:59.209315	188.7	15.6	-91.6	5.9
2025-01-15 09:36:01.536577	188.8	15.3	-91.5	4.7
2025-01-15 09:36:03.861335	188.9	15.1	-91.4	3.4
2025-01-15 09:36:06.182289	189.0	14.8	-91.2	4.9
2025-01-15 09:36:08.506405	189.1	14.6	-91.8	5.7
#Closed at: 2025-01-15 09:26:59.366935