passes_logs/2025/01/15/LEX_Murmansk/LEX_Murmansk__20250115_174630_NOAA_18_rec.log

#Pass ID: 20250115_174630_NOAA 18
#Satellite: NOAA 18
#Configuration: NOAA 18
#Start time: 2025-01-15 17:46:25.334242

#LorettStation: 1.0.0 05.05.2024
#Station: LEX_Murmansk
#Location: 33.156738 lon 68.926811 lat
#TLE: 1 28654U 05018A   25015.16278545  .00000300  00000+0  18295-3 0  9990
#TLE: 2 28654  98.8567  96.2156 0014367 178.7074 181.4138 14.13486503 13201

#Time	Az	El	Level	SNR
2025-01-15 17:46:37.391118	119.0	16.2	-91.9	13.9
2025-01-15 17:46:39.697206	118.8	16.5	-92.3	9.7
2025-01-15 17:46:42.012446	118.7	16.7	-92.3	5.7
2025-01-15 17:46:44.332352	118.5	17.0	-90.9	7.8
2025-01-15 17:46:46.660976	118.3	17.2	-90.8	6.4
2025-01-15 17:46:48.987354	118.2	17.5	-90.8	9.2
2025-01-15 17:46:51.305552	118.0	17.7	-90.5	11.9
2025-01-15 17:46:53.632246	117.8	18.0	-91.0	16.3
2025-01-15 17:46:55.963113	117.7	18.3	-91.1	8.7
2025-01-15 17:46:58.292312	117.5	18.5	-90.9	8.9
2025-01-15 17:47:00.615586	117.3	18.8	-91.0	6.5
2025-01-15 17:47:02.949152	117.1	19.1	-92.5	10.5
2025-01-15 17:47:05.288433	116.9	19.3	-91.7	13.1
2025-01-15 17:47:07.615962	116.7	19.6	-92.4	9.9
2025-01-15 17:47:09.956174	116.5	19.9	-92.6	14.8
2025-01-15 17:47:12.277507	116.4	20.2	-92.2	11.2
2025-01-15 17:47:14.600741	116.2	20.5	-92.4	6.4
2025-01-15 17:47:16.922728	115.9	20.7	-92.5	5.0
2025-01-15 17:47:19.261155	115.7	21.0	-92.2	15.8
2025-01-15 17:47:21.586463	115.5	21.3	-92.7	11.4
2025-01-15 17:47:23.912837	115.3	21.6	-92.6	8.0
2025-01-15 17:47:26.238572	115.1	21.9	-92.2	9.1
2025-01-15 17:47:28.564418	114.9	22.2	-92.4	10.3
2025-01-15 17:47:30.887427	114.6	22.5	-92.6	6.2
2025-01-15 17:47:33.213525	114.4	22.8	-92.1	8.8
2025-01-15 17:47:35.533960	114.2	23.1	-92.1	8.0
2025-01-15 17:47:37.858355	113.9	23.4	-92.7	5.8
2025-01-15 17:47:40.163719	113.7	23.8	-92.4	5.2
2025-01-15 17:47:42.486822	113.4	24.1	-92.7	10.5
2025-01-15 17:47:44.814436	113.2	24.4	-92.6	5.8
2025-01-15 17:47:47.143120	112.9	24.7	-92.4	5.3
2025-01-15 17:47:49.482444	112.6	25.1	-92.5	4.4
2025-01-15 17:47:51.812275	112.3	25.4	-92.6	6.4
2025-01-15 17:47:54.133511	112.1	25.7	-92.0	3.4
2025-01-15 17:47:56.457013	111.8	26.1	-92.6	7.5
2025-01-15 17:47:58.754184	111.5	26.4	-92.6	7.3
2025-01-15 17:48:00.994437	111.2	26.7	-92.6	7.6
2025-01-15 17:48:03.235906	110.9	27.1	-90.5	7.7
2025-01-15 17:48:05.479367	110.6	27.4	-91.4	9.9
2025-01-15 17:48:07.724739	110.3	27.8	-91.3	12.4
2025-01-15 17:48:10.041946	109.9	28.1	-91.8	11.7
2025-01-15 17:48:12.361221	109.6	28.5	-92.3	11.0
2025-01-15 17:48:14.678479	109.3	28.8	-92.6	6.3
2025-01-15 17:48:16.994731	108.9	29.2	-92.6	9.3
2025-01-15 17:48:19.323740	108.6	29.6	-92.5	5.4
2025-01-15 17:48:21.645645	108.2	30.0	-92.6	6.6
2025-01-15 17:48:23.973327	107.8	30.3	-92.3	9.2
2025-01-15 17:48:26.305280	107.4	30.7	-92.5	13.2
2025-01-15 17:48:28.631821	107.0	31.1	-92.3	10.2
2025-01-15 17:48:30.960404	106.6	31.5	-92.2	16.2
2025-01-15 17:48:33.280872	106.2	31.9	-92.2	12.2
2025-01-15 17:48:35.601435	105.8	32.3	-91.9	10.9
2025-01-15 17:48:37.923936	105.3	32.7	-92.6	10.5
2025-01-15 17:48:40.254522	104.9	33.1	-92.2	10.0
2025-01-15 17:48:42.588490	104.4	33.5	-92.7	4.0
2025-01-15 17:48:44.908776	103.9	33.9	-92.3	7.6
2025-01-15 17:48:47.239977	103.5	34.3	-92.2	10.6
2025-01-15 17:48:49.569489	103.0	34.8	-92.7	12.8
2025-01-15 17:48:51.892112	102.5	35.2	-92.9	11.4
2025-01-15 17:48:54.213856	101.9	35.6	-92.2	17.4
2025-01-15 17:48:56.533865	101.4	36.0	-92.4	10.7
2025-01-15 17:48:58.862741	100.8	36.5	-92.5	6.7
2025-01-15 17:49:01.187709	100.3	36.9	-92.3	7.1
2025-01-15 17:49:03.524396	99.7	37.3	-92.6	7.7
2025-01-15 17:49:05.857498	99.1	37.8	-92.6	3.4
2025-01-15 17:49:08.188456	98.5	38.2	-92.7	13.1
2025-01-15 17:49:10.521685	97.8	38.6	-92.6	5.3
2025-01-15 17:49:12.846193	97.2	39.1	-92.3	15.4
2025-01-15 17:49:15.161667	96.5	39.5	-92.1	11.0
2025-01-15 17:49:17.491569	95.8	40.0	-92.5	8.0
2025-01-15 17:49:19.818532	95.1	40.4	-92.9	12.2
2025-01-15 17:49:22.143316	94.4	40.9	-92.3	15.7
2025-01-15 17:49:24.470568	93.7	41.3	-92.7	10.5
2025-01-15 17:49:26.796614	92.9	41.7	-92.3	8.2
2025-01-15 17:49:29.126392	92.1	42.2	-92.4	5.1
2025-01-15 17:49:31.447335	91.3	42.6	-92.3	5.8
2025-01-15 17:49:33.778024	90.5	43.1	-92.5	12.5
2025-01-15 17:49:36.108429	89.6	43.5	-92.0	16.8
2025-01-15 17:49:38.427480	88.7	43.9	-92.2	13.5
2025-01-15 17:49:40.760310	87.8	44.4	-92.8	12.1
2025-01-15 17:49:43.085683	86.9	44.8	-92.8	3.1
2025-01-15 17:49:45.414019	85.9	45.2	-92.7	6.3
2025-01-15 17:49:47.736054	84.9	45.7	-92.7	11.8
2025-01-15 17:49:50.058058	83.9	46.1	-92.4	14.1
2025-01-15 17:49:52.374664	82.9	46.5	-92.1	5.0
2025-01-15 17:49:54.699893	81.8	46.9	-92.6	14.0
2025-01-15 17:49:57.022047	80.8	47.3	-92.4	6.6
2025-01-15 17:49:59.350493	79.6	47.7	-92.1	10.6
2025-01-15 17:50:01.679220	78.5	48.1	-92.2	13.4
2025-01-15 17:50:04.009678	77.3	48.4	-92.3	9.5
2025-01-15 17:50:06.335022	76.1	48.8	-91.8	13.1
2025-01-15 17:50:08.661227	74.9	49.1	-92.7	10.5
2025-01-15 17:50:10.985247	73.6	49.5	-92.5	5.9
2025-01-15 17:50:13.313902	72.3	49.8	-91.9	7.7
2025-01-15 17:50:15.636062	71.0	50.1	-92.1	10.8
2025-01-15 17:50:17.961131	69.7	50.4	-92.4	7.3
2025-01-15 17:50:20.289841	68.3	50.7	-92.0	10.0
2025-01-15 17:50:22.631597	66.9	50.9	-92.5	5.3
2025-01-15 17:50:24.955754	65.5	51.2	-92.3	9.4
2025-01-15 17:50:27.291894	64.1	51.4	-92.2	10.7
2025-01-15 17:50:29.625987	62.6	51.6	-92.5	7.1
2025-01-15 17:50:31.955176	61.1	51.8	-92.1	7.4
2025-01-15 17:50:34.281565	59.6	52.0	-92.4	10.5
2025-01-15 17:50:36.603954	58.1	52.1	-92.7	7.3
2025-01-15 17:50:38.930334	56.6	52.3	-92.5	7.3
2025-01-15 17:50:41.261390	55.1	52.4	-92.3	8.1
2025-01-15 17:50:43.586881	53.5	52.5	-92.4	11.9
2025-01-15 17:50:45.910848	51.9	52.5	-92.5	15.3
2025-01-15 17:50:48.229449	50.4	52.6	-92.6	18.3
2025-01-15 17:50:50.560336	48.8	52.6	-92.7	14.2
2025-01-15 17:50:52.887506	47.2	52.6	-92.7	12.9
2025-01-15 17:50:55.214081	45.7	52.6	-92.0	15.5
2025-01-15 17:50:57.532722	44.1	52.6	-92.6	10.9
2025-01-15 17:50:59.856236	42.5	52.5	-92.6	12.7
2025-01-15 17:51:02.155806	41.0	52.4	-92.5	15.1
2025-01-15 17:51:04.396125	39.5	52.3	-90.2	9.1
2025-01-15 17:51:06.637565	38.1	52.2	-90.8	10.7
2025-01-15 17:51:08.879794	36.6	52.0	-91.6	11.4
2025-01-15 17:51:11.126459	35.1	51.9	-92.2	14.0
2025-01-15 17:51:13.433983	33.7	51.7	-92.4	9.6
2025-01-15 17:51:15.745881	32.2	51.5	-92.5	18.2
2025-01-15 17:51:18.062052	30.8	51.3	-92.5	7.6
2025-01-15 17:51:20.392151	29.3	51.0	-92.3	8.7
2025-01-15 17:51:22.724531	27.9	50.8	-92.8	12.9
2025-01-15 17:51:25.055966	26.6	50.5	-92.1	7.4
2025-01-15 17:51:27.378231	25.2	50.2	-92.1	12.5
2025-01-15 17:51:29.708916	23.9	49.9	-92.3	15.6
2025-01-15 17:51:32.035650	22.6	49.6	-92.5	9.9
2025-01-15 17:51:34.367818	21.3	49.2	-92.5	14.5
2025-01-15 17:51:36.689904	20.1	48.9	-92.5	18.8
2025-01-15 17:51:39.013997	18.9	48.5	-92.4	12.7
2025-01-15 17:51:41.341292	17.7	48.2	-92.5	15.5
2025-01-15 17:51:43.666817	16.5	47.8	-92.7	18.3
2025-01-15 17:51:45.988906	15.4	47.4	-92.6	10.0
2025-01-15 17:51:48.311545	14.3	47.0	-92.2	20.4
2025-01-15 17:51:50.637431	13.2	46.6	-92.4	18.4
2025-01-15 17:51:52.968231	12.2	46.2	-92.4	14.3
2025-01-15 17:51:55.289537	11.2	45.8	-92.0	20.9
2025-01-15 17:51:57.607125	10.2	45.4	-92.6	14.0
2025-01-15 17:51:59.932878	9.2	45.0	-92.5	15.1
2025-01-15 17:52:02.266251	8.3	44.5	-92.6	19.2
2025-01-15 17:52:04.596228	7.4	44.1	-92.3	17.9
2025-01-15 17:52:06.922017	6.5	43.7	-92.2	20.4
2025-01-15 17:52:09.260319	5.6	43.2	-92.0	17.3
2025-01-15 17:52:11.589399	4.8	42.8	-92.4	18.7
2025-01-15 17:52:13.913750	4.0	42.3	-92.8	19.6
2025-01-15 17:52:16.234574	3.2	41.9	-92.2	21.4
2025-01-15 17:52:18.562775	2.4	41.4	-92.3	18.4
2025-01-15 17:52:20.887002	1.6	41.0	-92.1	17.9
2025-01-15 17:52:23.214021	0.9	40.6	-92.4	19.3
2025-01-15 17:52:25.537655	0.2	40.1	-92.5	13.8
2025-01-15 17:52:27.864708	359.5	39.7	-92.2	19.2
2025-01-15 17:52:30.190960	358.8	39.2	-91.9	18.8
2025-01-15 17:52:32.529440	358.2	38.8	-92.3	12.7
2025-01-15 17:52:34.856976	357.5	38.3	-92.5	18.1
2025-01-15 17:52:37.193164	356.9	37.9	-92.1	17.6
2025-01-15 17:52:39.525416	356.3	37.5	-92.5	17.8
2025-01-15 17:52:41.845062	355.7	37.0	-92.6	12.5
2025-01-15 17:52:44.186222	355.1	36.6	-92.1	12.4
2025-01-15 17:52:46.504995	354.6	36.2	-92.1	10.9
2025-01-15 17:52:48.828043	354.0	35.7	-92.5	15.0
2025-01-15 17:52:51.161016	353.5	35.3	-92.5	16.3
2025-01-15 17:52:53.492970	353.0	34.9	-92.4	8.0
2025-01-15 17:52:55.815658	352.5	34.5	-92.3	10.3
2025-01-15 17:52:58.146123	352.0	34.0	-92.3	13.3
2025-01-15 17:53:00.469290	351.5	33.6	-92.5	10.9
2025-01-15 17:53:02.798185	351.0	33.2	-92.6	11.7
2025-01-15 17:53:05.129762	350.6	32.8	-92.5	12.1
2025-01-15 17:53:07.445687	350.1	32.4	-92.4	10.7
2025-01-15 17:53:09.774521	349.7	32.0	-92.7	10.8
2025-01-15 17:53:12.105833	349.3	31.6	-92.5	8.8
2025-01-15 17:53:14.432175	348.9	31.2	-92.5	9.3
2025-01-15 17:53:16.753825	348.5	30.8	-92.6	17.0
2025-01-15 17:53:19.078238	348.1	30.4	-92.2	12.7
2025-01-15 17:53:21.397752	347.7	30.1	-92.2	11.1
2025-01-15 17:53:23.710908	347.3	29.7	-92.5	12.1
2025-01-15 17:53:26.035243	347.0	29.3	-92.3	10.0
2025-01-15 17:53:28.362634	346.6	28.9	-92.3	12.0
2025-01-15 17:53:30.688840	346.3	28.6	-92.8	7.4
2025-01-15 17:53:33.018810	345.9	28.2	-92.5	4.5
2025-01-15 17:53:35.331629	345.6	27.9	-92.7	7.1
2025-01-15 17:53:37.644251	345.3	27.5	-92.0	11.5
2025-01-15 17:53:39.977276	345.0	27.1	-92.6	13.5
2025-01-15 17:53:42.294526	344.7	26.8	-91.6	20.4
2025-01-15 17:53:44.619389	344.4	26.4	-92.5	15.1
2025-01-15 17:53:46.940142	344.1	26.1	-92.7	4.5
2025-01-15 17:53:49.264312	343.8	25.8	-92.1	10.4
2025-01-15 17:53:51.594375	343.5	25.4	-92.5	12.3
2025-01-15 17:53:53.916490	343.2	25.1	-92.5	14.9
2025-01-15 17:53:56.236187	342.9	24.8	-92.5	10.6
2025-01-15 17:53:58.563552	342.7	24.4	-92.6	9.6
2025-01-15 17:54:00.890345	342.4	24.1	-92.4	10.8
2025-01-15 17:54:03.218825	342.2	23.8	-90.9	6.8
2025-01-15 17:54:05.540745	341.9	23.5	-91.3	5.9
2025-01-15 17:54:07.868355	341.7	23.2	-90.9	8.5
2025-01-15 17:54:10.193825	341.4	22.9	-92.4	10.2
2025-01-15 17:54:12.516072	341.2	22.5	-92.5	15.6
2025-01-15 17:54:14.855108	341.0	22.2	-93.0	11.4
2025-01-15 17:54:17.175471	340.7	21.9	-92.2	17.5
2025-01-15 17:54:19.505592	340.5	21.6	-92.4	11.7
2025-01-15 17:54:21.846108	340.3	21.3	-93.0	9.7
2025-01-15 17:54:24.176414	340.1	21.0	-92.0	12.8
2025-01-15 17:54:26.506457	339.9	20.8	-92.7	17.8
2025-01-15 17:54:28.852753	339.7	20.5	-91.9	11.7
2025-01-15 17:54:31.175458	339.5	20.2	-92.5	8.7
2025-01-15 17:54:33.501790	339.3	19.9	-92.7	5.2
2025-01-15 17:54:35.833192	339.1	19.6	-92.6	10.4
2025-01-15 17:54:38.159969	338.9	19.4	-92.6	7.0
2025-01-15 17:54:40.502032	338.7	19.1	-92.6	4.4
2025-01-15 17:54:42.824181	338.5	18.8	-92.6	5.4
2025-01-15 17:54:45.155916	338.3	18.5	-92.0	5.4
2025-01-15 17:54:47.471719	338.2	18.3	-92.8	6.5
2025-01-15 17:54:49.795316	338.0	18.0	-92.7	8.5
2025-01-15 17:54:52.124044	337.8	17.8	-92.6	6.5
2025-01-15 17:54:54.443898	337.7	17.5	-92.5	4.0
2025-01-15 17:54:56.768841	337.5	17.2	-92.5	6.5
2025-01-15 17:54:59.091684	337.3	17.0	-92.3	4.2
2025-01-15 17:55:01.413482	337.2	16.7	-92.6	4.2
2025-01-15 17:55:03.750667	337.0	16.5	-92.7	5.7
2025-01-15 17:55:06.079373	336.9	16.2	-92.5	4.0
2025-01-15 17:55:08.402422	336.7	16.0	-92.3	5.0
2025-01-15 17:55:10.731921	336.6	15.8	-92.8	8.2
2025-01-15 17:55:13.058797	336.4	15.5	-92.3	11.6
2025-01-15 17:55:15.386127	336.3	15.3	-92.1	6.8
2025-01-15 17:55:17.712277	336.1	15.0	-92.5	5.3
2025-01-15 17:55:20.041112	336.0	14.8	-92.7	8.0
2025-01-15 17:55:22.361902	335.9	14.6	-92.3	5.4
#Closed at: 2025-01-15 17:46:30.246240