passes_logs/2025/01/15/LEX_Murmansk/LEX_Murmansk__20250115_122310_NOAA_19_rec.log

#Pass ID: 20250115_122310_NOAA 19
#Satellite: NOAA 19
#Configuration: NOAA 19
#Start time: 2025-01-15 12:23:05.218499

#LorettStation: 1.0.0 05.05.2024
#Station: LEX_Murmansk
#Location: 33.156738 lon 68.926811 lat
#TLE: 1 33591U 09005A   25014.15453959  .00000276  00000+0  17122-3 0  9998
#TLE: 2 33591  99.0198  77.9105 0014501  59.8090 300.4516 14.13258688821422

#Time	Az	El	Level	SNR
2025-01-15 12:23:17.367439	30.2	15.9	-90.5	2.7
2025-01-15 12:23:18.513124	30.1	16.0	-90.7	5.2
2025-01-15 12:23:19.661606	29.9	16.1	-90.3	4.3
2025-01-15 12:23:20.808649	29.7	16.2	-90.8	1.7
2025-01-15 12:23:21.959032	29.5	16.3	-90.6	2.2
2025-01-15 12:23:23.105726	29.3	16.4	-90.7	4.7
2025-01-15 12:23:24.242286	29.2	16.5	-90.5	3.4
2025-01-15 12:23:25.393284	29.0	16.6	-90.7	4.8
2025-01-15 12:23:26.544815	28.8	16.6	-90.8	2.7
2025-01-15 12:23:27.690407	28.6	16.7	-90.7	5.4
2025-01-15 12:23:28.839547	28.4	16.8	-90.5	3.9
2025-01-15 12:23:29.987435	28.2	16.9	-90.9	3.3
2025-01-15 12:23:31.135826	28.1	17.0	-90.6	3.1
2025-01-15 12:23:32.279551	27.9	17.1	-90.4	1.7
2025-01-15 12:23:33.431368	27.7	17.2	-90.7	3.8
2025-01-15 12:23:34.583155	27.5	17.3	-90.8	3.2
2025-01-15 12:23:35.736441	27.3	17.4	-90.7	4.9
2025-01-15 12:23:36.888815	27.1	17.5	-90.7	5.1
2025-01-15 12:23:38.038609	26.9	17.5	-90.9	3.6
2025-01-15 12:23:39.195325	26.7	17.6	-90.6	5.3
2025-01-15 12:23:40.343549	26.5	17.7	-90.7	6.4
2025-01-15 12:23:41.500746	26.3	17.8	-90.7	5.0
2025-01-15 12:23:42.655996	26.1	17.9	-90.9	5.5
2025-01-15 12:23:43.804162	25.9	18.0	-90.8	4.6
2025-01-15 12:23:44.956565	25.7	18.1	-90.7	7.8
2025-01-15 12:23:46.109987	25.5	18.2	-90.4	9.2
2025-01-15 12:23:47.258307	25.3	18.3	-90.8	9.5
2025-01-15 12:23:48.415743	25.1	18.3	-90.3	9.5
2025-01-15 12:23:49.564246	24.9	18.4	-90.8	6.9
2025-01-15 12:23:50.709408	24.7	18.5	-91.0	3.9
2025-01-15 12:23:51.862729	24.5	18.6	-90.9	1.9
2025-01-15 12:23:53.010107	24.2	18.7	-91.0	4.8
2025-01-15 12:23:54.172705	24.0	18.8	-90.7	3.5
2025-01-15 12:23:55.322343	23.8	18.9	-90.1	1.6
2025-01-15 12:23:56.468575	23.6	19.0	-90.9	4.2
2025-01-15 12:23:57.625715	23.4	19.0	-90.8	4.4
2025-01-15 12:23:58.776363	23.2	19.1	-90.8	7.2
2025-01-15 12:23:59.919163	22.9	19.2	-90.1	9.1
2025-01-15 12:24:01.051993	22.7	19.3	-89.9	11.0
2025-01-15 12:24:02.195183	22.5	19.4	-89.7	8.6
2025-01-15 12:24:03.339205	22.3	19.5	-90.5	6.4
2025-01-15 12:24:04.483652	22.1	19.6	-90.1	7.1
2025-01-15 12:24:05.634119	21.8	19.7	-90.1	9.3
2025-01-15 12:24:06.779896	21.6	19.7	-89.2	4.2
2025-01-15 12:24:07.923083	21.4	19.8	-88.4	4.3
2025-01-15 12:24:09.073138	21.2	19.9	-88.2	4.0
2025-01-15 12:24:10.229144	20.9	20.0	-87.6	4.3
2025-01-15 12:24:11.372596	20.7	20.1	-88.1	7.7
2025-01-15 12:24:12.524989	20.5	20.2	-89.6	5.7
2025-01-15 12:24:13.678573	20.2	20.3	-89.3	3.9
2025-01-15 12:24:14.820964	20.0	20.3	-89.1	2.3
2025-01-15 12:24:15.972877	19.8	20.4	-87.8	1.3
2025-01-15 12:24:17.122518	19.5	20.5	-87.5	3.1
2025-01-15 12:24:18.275694	19.3	20.6	-87.8	2.0
2025-01-15 12:24:19.421042	19.0	20.7	-89.7	3.1
2025-01-15 12:24:20.570552	18.8	20.8	-88.5	3.6
2025-01-15 12:24:21.724304	18.6	20.9	-87.5	4.1
2025-01-15 12:24:22.877874	18.3	20.9	-88.4	6.4
2025-01-15 12:24:24.022172	18.1	21.0	-89.4	4.8
2025-01-15 12:24:25.183764	17.8	21.1	-87.9	5.9
2025-01-15 12:24:26.338276	17.6	21.2	-88.3	4.0
2025-01-15 12:24:27.484080	17.3	21.3	-89.9	5.3
2025-01-15 12:24:28.632459	17.1	21.3	-89.9	5.5
2025-01-15 12:24:29.780350	16.8	21.4	-89.9	2.9
2025-01-15 12:24:30.932883	16.6	21.5	-90.3	4.3
2025-01-15 12:24:32.086053	16.3	21.6	-90.0	3.1
2025-01-15 12:24:33.232902	16.0	21.7	-90.2	6.8
2025-01-15 12:24:34.381317	15.8	21.8	-90.5	5.7
2025-01-15 12:24:35.525373	15.5	21.8	-90.9	8.6
2025-01-15 12:24:36.672211	15.3	21.9	-91.0	4.3
2025-01-15 12:24:37.822046	15.0	22.0	-91.0	6.0
2025-01-15 12:24:38.974952	14.7	22.1	-90.9	5.5
2025-01-15 12:24:40.120830	14.5	22.1	-91.0	5.3
2025-01-15 12:24:41.269963	14.2	22.2	-90.5	1.3
2025-01-15 12:24:42.420255	13.9	22.3	-90.5	4.2
2025-01-15 12:24:43.572291	13.7	22.4	-90.8	4.0
2025-01-15 12:24:44.720108	13.4	22.5	-90.9	3.2
2025-01-15 12:24:45.869451	13.1	22.5	-90.3	3.4
2025-01-15 12:24:47.019935	12.9	22.6	-90.6	6.9
2025-01-15 12:24:48.167951	12.6	22.7	-90.8	6.9
2025-01-15 12:24:49.315892	12.3	22.8	-90.5	11.0
2025-01-15 12:24:50.467333	12.0	22.8	-90.7	10.5
2025-01-15 12:24:51.614940	11.8	22.9	-90.8	12.2
2025-01-15 12:24:52.762987	11.5	23.0	-90.9	9.6
2025-01-15 12:24:53.916007	11.2	23.1	-90.7	7.6
2025-01-15 12:24:55.060716	10.9	23.1	-90.7	9.7
2025-01-15 12:24:56.215537	10.6	23.2	-90.8	5.7
2025-01-15 12:24:57.354813	10.4	23.3	-91.0	5.2
2025-01-15 12:24:58.501705	10.1	23.3	-90.8	8.1
2025-01-15 12:24:59.647840	9.8	23.4	-90.8	8.4
2025-01-15 12:25:00.795426	9.5	23.5	-91.0	8.2
2025-01-15 12:25:01.947900	9.2	23.5	-90.7	9.8
2025-01-15 12:25:03.093815	8.9	23.6	-90.8	12.3
2025-01-15 12:25:04.239160	8.6	23.7	-90.9	10.9
2025-01-15 12:25:05.387902	8.3	23.7	-90.7	9.0
2025-01-15 12:25:06.534462	8.0	23.8	-90.9	8.9
2025-01-15 12:25:07.684889	7.7	23.9	-90.9	8.0
2025-01-15 12:25:08.834513	7.4	23.9	-91.0	3.8
2025-01-15 12:25:09.984082	7.1	24.0	-90.8	5.1
2025-01-15 12:25:11.134544	6.8	24.1	-90.6	4.6
2025-01-15 12:25:12.288434	6.5	24.1	-90.6	3.7
2025-01-15 12:25:13.442345	6.2	24.2	-91.1	3.1
2025-01-15 12:25:14.584782	5.9	24.2	-91.1	3.3
2025-01-15 12:25:15.732773	5.6	24.3	-90.9	3.0
2025-01-15 12:25:16.886138	5.3	24.4	-90.8	3.4
2025-01-15 12:25:18.032922	5.0	24.4	-91.1	5.3
2025-01-15 12:25:19.185918	4.7	24.5	-90.8	7.2
2025-01-15 12:25:20.331964	4.4	24.5	-91.1	9.3
2025-01-15 12:25:21.489439	4.1	24.6	-91.0	10.0
2025-01-15 12:25:22.637911	3.8	24.7	-91.0	8.0
2025-01-15 12:25:23.787210	3.5	24.7	-90.9	10.1
2025-01-15 12:25:24.936695	3.2	24.8	-90.8	10.4
2025-01-15 12:25:26.094972	2.8	24.8	-90.6	9.0
2025-01-15 12:25:27.249674	2.5	24.9	-90.6	5.8
2025-01-15 12:25:28.401522	2.2	24.9	-90.7	6.6
2025-01-15 12:25:29.558918	1.9	25.0	-90.9	8.6
2025-01-15 12:25:30.708726	1.6	25.0	-90.9	4.9
2025-01-15 12:25:31.865629	1.2	25.1	-91.3	5.4
2025-01-15 12:25:33.014165	0.9	25.1	-91.1	8.1
2025-01-15 12:25:34.163614	0.6	25.2	-90.6	7.4
2025-01-15 12:25:35.311905	0.3	25.2	-90.8	6.8
2025-01-15 12:25:36.461423	360.0	25.3	-91.0	10.1
2025-01-15 12:25:37.607151	359.6	25.3	-90.9	10.3
2025-01-15 12:25:38.754621	359.3	25.3	-90.9	12.3
2025-01-15 12:25:39.906021	359.0	25.4	-91.0	10.9
2025-01-15 12:25:41.056573	358.7	25.4	-90.7	11.1
2025-01-15 12:25:42.212007	358.3	25.5	-90.6	10.2
2025-01-15 12:25:43.364517	358.0	25.5	-90.6	5.6
2025-01-15 12:25:44.515746	357.7	25.5	-90.8	6.0
2025-01-15 12:25:45.665628	357.3	25.6	-90.8	2.7
2025-01-15 12:25:46.811397	357.0	25.6	-91.1	2.9
2025-01-15 12:25:47.963287	356.7	25.7	-90.7	4.5
2025-01-15 12:25:49.115467	356.3	25.7	-90.7	5.3
2025-01-15 12:25:50.267547	356.0	25.7	-90.8	1.9
2025-01-15 12:25:51.425896	355.7	25.8	-90.9	4.0
2025-01-15 12:25:52.574474	355.3	25.8	-91.0	5.8
2025-01-15 12:25:53.720366	355.0	25.8	-91.0	6.0
2025-01-15 12:25:54.871783	354.7	25.8	-91.1	3.6
2025-01-15 12:25:56.018230	354.3	25.9	-91.0	4.6
2025-01-15 12:25:57.163361	354.0	25.9	-91.1	7.1
2025-01-15 12:25:58.314057	353.7	25.9	-90.3	6.6
2025-01-15 12:25:59.461416	353.3	26.0	-91.0	11.1
2025-01-15 12:26:00.612764	353.0	26.0	-90.9	10.1
2025-01-15 12:26:01.761859	352.6	26.0	-90.5	8.7
2025-01-15 12:26:02.912842	352.3	26.0	-90.7	11.0
2025-01-15 12:26:04.060997	352.0	26.0	-91.2	5.6
2025-01-15 12:26:05.211142	351.6	26.1	-91.0	8.8
2025-01-15 12:26:06.373659	351.3	26.1	-90.8	10.6
2025-01-15 12:26:07.518079	350.9	26.1	-90.9	11.4
2025-01-15 12:26:08.664732	350.6	26.1	-91.2	11.6
2025-01-15 12:26:09.818267	350.3	26.1	-91.1	6.6
2025-01-15 12:26:10.970205	349.9	26.1	-91.1	9.0
2025-01-15 12:26:12.116282	349.6	26.2	-90.7	8.6
2025-01-15 12:26:13.264215	349.2	26.2	-90.8	5.4
2025-01-15 12:26:14.415525	348.9	26.2	-91.1	9.6
2025-01-15 12:26:15.566766	348.5	26.2	-90.8	6.4
2025-01-15 12:26:16.716048	348.2	26.2	-90.9	7.1
2025-01-15 12:26:17.863010	347.9	26.2	-90.9	4.7
2025-01-15 12:26:19.010304	347.5	26.2	-91.2	4.5
2025-01-15 12:26:20.168837	347.2	26.2	-91.0	5.2
2025-01-15 12:26:21.315764	346.8	26.2	-91.0	4.3
2025-01-15 12:26:22.471647	346.5	26.2	-90.9	4.5
2025-01-15 12:26:23.621234	346.1	26.2	-91.0	5.9
2025-01-15 12:26:24.775270	345.8	26.2	-91.1	6.2
2025-01-15 12:26:25.925493	345.4	26.2	-91.0	5.0
2025-01-15 12:26:27.075867	345.1	26.2	-90.6	6.1
2025-01-15 12:26:28.225409	344.8	26.2	-90.4	5.0
2025-01-15 12:26:29.373750	344.4	26.2	-90.6	5.3
2025-01-15 12:26:30.520048	344.1	26.2	-90.5	7.4
2025-01-15 12:26:31.674088	343.7	26.2	-91.0	6.3
2025-01-15 12:26:32.831688	343.4	26.2	-90.7	6.0
2025-01-15 12:26:33.982829	343.0	26.2	-90.6	7.6
2025-01-15 12:26:35.130920	342.7	26.2	-90.6	8.4
2025-01-15 12:26:36.289598	342.3	26.2	-90.7	5.9
2025-01-15 12:26:37.438318	342.0	26.1	-91.0	9.5
2025-01-15 12:26:38.593444	341.7	26.1	-91.0	9.6
2025-01-15 12:26:39.752346	341.3	26.1	-91.2	10.1
2025-01-15 12:26:40.906128	341.0	26.1	-90.8	5.1
2025-01-15 12:26:42.053238	340.6	26.1	-90.8	10.3
2025-01-15 12:26:43.201227	340.3	26.1	-90.2	8.1
2025-01-15 12:26:44.348912	339.9	26.0	-90.1	8.2
2025-01-15 12:26:45.501538	339.6	26.0	-89.6	5.9
2025-01-15 12:26:46.651276	339.3	26.0	-90.5	6.8
2025-01-15 12:26:47.815290	338.9	26.0	-90.9	7.7
2025-01-15 12:26:48.962928	338.6	26.0	-91.1	9.8
2025-01-15 12:26:50.111849	338.2	25.9	-90.7	9.5
2025-01-15 12:26:51.256227	337.9	25.9	-90.7	6.8
2025-01-15 12:26:52.413165	337.6	25.9	-90.8	7.3
2025-01-15 12:26:53.558317	337.2	25.9	-90.4	7.1
2025-01-15 12:26:54.710493	336.9	25.8	-90.4	6.2
2025-01-15 12:26:55.868474	336.6	25.8	-90.9	5.1
2025-01-15 12:26:57.014676	336.2	25.8	-90.9	6.1
2025-01-15 12:26:58.162765	335.9	25.7	-90.6	8.3
2025-01-15 12:26:59.306819	335.6	25.7	-90.7	4.2
2025-01-15 12:27:00.461600	335.2	25.7	-90.8	5.7
2025-01-15 12:27:01.612458	334.9	25.6	-91.0	4.1
2025-01-15 12:27:02.760686	334.6	25.6	-90.9	3.7
2025-01-15 12:27:03.910590	334.2	25.6	-91.5	4.7
2025-01-15 12:27:05.057701	333.9	25.5	-90.7	3.6
2025-01-15 12:27:06.213940	333.6	25.5	-90.0	2.7
2025-01-15 12:27:07.355358	333.3	25.4	-90.4	3.2
2025-01-15 12:27:08.510801	332.9	25.4	-90.4	3.3
2025-01-15 12:27:09.655553	332.6	25.4	-90.4	3.2
2025-01-15 12:27:10.809964	332.3	25.3	-90.0	4.0
2025-01-15 12:27:11.960922	331.9	25.3	-90.9	4.2
2025-01-15 12:27:13.116793	331.6	25.2	-91.1	1.6
2025-01-15 12:27:14.275591	331.3	25.2	-90.8	5.6
2025-01-15 12:27:15.420375	331.0	25.1	-91.0	5.3
2025-01-15 12:27:16.566376	330.7	25.1	-90.9	4.6
2025-01-15 12:27:17.714541	330.3	25.0	-91.1	4.6
2025-01-15 12:27:18.864838	330.0	25.0	-91.2	3.6
2025-01-15 12:27:20.020250	329.7	24.9	-91.3	4.7
2025-01-15 12:27:21.176779	329.4	24.9	-90.9	6.6
2025-01-15 12:27:22.331469	329.1	24.8	-90.9	3.7
2025-01-15 12:27:23.485042	328.7	24.8	-90.7	6.8
2025-01-15 12:27:24.635221	328.4	24.7	-91.1	4.5
2025-01-15 12:27:25.783066	328.1	24.7	-91.4	1.0
2025-01-15 12:27:26.936663	327.8	24.6	-91.2	5.1
2025-01-15 12:27:28.085115	327.5	24.6	-90.8	6.6
2025-01-15 12:27:29.240584	327.2	24.5	-91.1	4.8
2025-01-15 12:27:30.387775	326.9	24.5	-91.0	3.8
2025-01-15 12:27:31.539179	326.6	24.4	-91.1	7.8
2025-01-15 12:27:32.685869	326.3	24.3	-91.2	5.1
2025-01-15 12:27:33.838540	326.0	24.3	-91.1	2.8
2025-01-15 12:27:34.991464	325.7	24.2	-91.2	8.6
2025-01-15 12:27:36.144797	325.4	24.2	-90.8	7.8
2025-01-15 12:27:37.295718	325.1	24.1	-91.2	5.7
2025-01-15 12:27:38.445843	324.8	24.0	-90.7	8.2
2025-01-15 12:27:39.594465	324.5	24.0	-91.0	6.1
2025-01-15 12:27:40.744163	324.2	23.9	-91.2	7.3
2025-01-15 12:27:41.903183	323.9	23.8	-91.0	9.8
2025-01-15 12:27:43.051885	323.6	23.8	-91.0	10.1
2025-01-15 12:27:44.208369	323.3	23.7	-91.0	4.1
2025-01-15 12:27:45.356307	323.0	23.6	-90.7	6.8
2025-01-15 12:27:46.502898	322.7	23.6	-91.0	4.5
2025-01-15 12:27:47.654754	322.4	23.5	-91.2	4.2
2025-01-15 12:27:48.799510	322.1	23.4	-90.8	6.8
2025-01-15 12:27:49.956948	321.8	23.4	-91.2	5.6
2025-01-15 12:27:51.107825	321.5	23.3	-90.9	2.7
2025-01-15 12:27:52.258958	321.3	23.2	-90.9	3.9
2025-01-15 12:27:53.410876	321.0	23.1	-91.1	4.1
2025-01-15 12:27:54.569074	320.7	23.1	-91.0	8.3
2025-01-15 12:27:55.711868	320.4	23.0	-90.9	8.4
2025-01-15 12:27:56.858548	320.1	22.9	-91.4	2.7
2025-01-15 12:27:58.005769	319.9	22.9	-91.2	8.2
2025-01-15 12:27:59.155354	319.6	22.8	-90.8	8.5
2025-01-15 12:28:00.303948	319.3	22.7	-90.9	8.4
2025-01-15 12:28:01.453122	319.0	22.6	-91.1	10.6
2025-01-15 12:28:02.605898	318.8	22.6	-91.3	13.1
2025-01-15 12:28:03.759689	318.5	22.5	-90.9	5.9
2025-01-15 12:28:04.905887	318.2	22.4	-90.8	2.1
2025-01-15 12:28:06.058013	317.9	22.3	-90.7	8.3
2025-01-15 12:28:07.209246	317.7	22.3	-90.8	2.1
2025-01-15 12:28:08.360401	317.4	22.2	-91.0	4.1
2025-01-15 12:28:09.513349	317.1	22.1	-91.2	4.6
2025-01-15 12:28:10.660375	316.9	22.0	-91.1	3.4
2025-01-15 12:28:11.811419	316.6	21.9	-91.1	4.2
2025-01-15 12:28:12.959981	316.4	21.9	-91.3	5.3
2025-01-15 12:28:14.111790	316.1	21.8	-90.7	5.8
2025-01-15 12:28:15.259915	315.8	21.7	-90.9	4.5
2025-01-15 12:28:16.407968	315.6	21.6	-91.0	3.1
2025-01-15 12:28:17.558498	315.3	21.5	-91.1	3.0
2025-01-15 12:28:18.702180	315.1	21.5	-90.9	0.4
2025-01-15 12:28:19.850756	314.8	21.4	-91.2	3.7
2025-01-15 12:28:20.999653	314.6	21.3	-91.1	2.9
2025-01-15 12:28:22.148111	314.3	21.2	-91.2	1.4
2025-01-15 12:28:23.298102	314.1	21.1	-90.9	2.8
2025-01-15 12:28:24.448110	313.8	21.1	-91.3	2.0
2025-01-15 12:28:25.594342	313.6	21.0	-91.2	2.8
2025-01-15 12:28:26.740730	313.3	20.9	-90.7	0.8
2025-01-15 12:28:27.887568	313.1	20.8	-91.0	2.8
2025-01-15 12:28:29.035414	312.8	20.7	-91.2	1.3
2025-01-15 12:28:30.184925	312.6	20.6	-90.8	1.6
2025-01-15 12:28:31.336372	312.4	20.6	-91.1	2.7
2025-01-15 12:28:32.486137	312.1	20.5	-91.1	3.1
2025-01-15 12:28:33.632334	311.9	20.4	-90.9	2.0
2025-01-15 12:28:34.787524	311.7	20.3	-91.0	2.3
2025-01-15 12:28:35.939056	311.4	20.2	-91.4	2.0
2025-01-15 12:28:37.084397	311.2	20.1	-91.2	1.1
2025-01-15 12:28:38.234217	311.0	20.0	-90.7	1.7
2025-01-15 12:28:39.386820	310.7	20.0	-90.9	0.7
2025-01-15 12:28:40.532412	310.5	19.9	-90.8	1.0
2025-01-15 12:28:41.680562	310.3	19.8	-91.1	2.8
2025-01-15 12:28:42.832894	310.0	19.7	-91.4	2.4
2025-01-15 12:28:43.978334	309.8	19.6	-90.7	1.4
2025-01-15 12:28:45.125133	309.6	19.5	-91.0	1.4
2025-01-15 12:28:46.272501	309.4	19.4	-91.1	1.7
2025-01-15 12:28:47.422938	309.2	19.3	-90.9	4.0
2025-01-15 12:28:48.577771	308.9	19.3	-91.1	2.6
2025-01-15 12:28:49.727501	308.7	19.2	-91.3	1.5
2025-01-15 12:28:50.880525	308.5	19.1	-91.1	3.6
2025-01-15 12:28:52.042067	308.3	19.0	-91.2	4.2
2025-01-15 12:28:53.191593	308.1	18.9	-91.1	0.3
2025-01-15 12:28:54.341711	307.8	18.8	-91.0	3.1
2025-01-15 12:28:55.495648	307.6	18.7	-91.0	0.4
2025-01-15 12:28:56.648890	307.4	18.6	-91.2	2.0
2025-01-15 12:28:57.795434	307.2	18.6	-91.1	4.1
2025-01-15 12:28:58.941267	307.0	18.5	-90.9	4.1
2025-01-15 12:29:00.089154	306.8	18.4	-90.6	6.2
2025-01-15 12:29:01.233366	306.6	18.3	-90.9	3.8
2025-01-15 12:29:02.386714	306.4	18.2	-90.9	1.0
2025-01-15 12:29:03.529025	306.2	18.1	-91.0	8.3
2025-01-15 12:29:04.682203	306.0	18.0	-91.0	6.8
2025-01-15 12:29:05.835032	305.8	17.9	-91.4	8.4
2025-01-15 12:29:06.982208	305.6	17.9	-91.2	5.8
2025-01-15 12:29:08.131762	305.4	17.8	-90.7	5.4
2025-01-15 12:29:09.282262	305.2	17.7	-90.9	3.1
2025-01-15 12:29:10.430124	305.0	17.6	-91.0	6.3
2025-01-15 12:29:11.589330	304.8	17.5	-91.3	3.8
2025-01-15 12:29:12.740258	304.6	17.4	-91.1	2.5
2025-01-15 12:29:13.890902	304.4	17.3	-91.1	5.3
2025-01-15 12:29:15.038444	304.2	17.2	-91.0	3.8
2025-01-15 12:29:16.190756	304.0	17.1	-90.9	0.9
2025-01-15 12:29:17.335167	303.8	17.1	-91.1	2.3
2025-01-15 12:29:18.482940	303.6	17.0	-91.1	2.5
2025-01-15 12:29:19.632848	303.5	16.9	-91.2	4.5
2025-01-15 12:29:20.786263	303.3	16.8	-91.3	4.6
2025-01-15 12:29:21.936762	303.1	16.7	-91.5	3.1
2025-01-15 12:29:23.091507	302.9	16.6	-90.9	2.1
2025-01-15 12:29:24.239557	302.7	16.5	-91.0	3.0
2025-01-15 12:29:25.386636	302.5	16.4	-91.1	4.2
2025-01-15 12:29:26.542045	302.3	16.3	-91.4	6.6
2025-01-15 12:29:27.691314	302.2	16.2	-91.6	4.3
2025-01-15 12:29:28.844885	302.0	16.2	-91.1	6.1
2025-01-15 12:29:30.107858	301.8	16.1	-90.9	1.8
2025-01-15 12:29:31.265354	301.6	16.0	-91.2	3.7
2025-01-15 12:29:32.413424	301.4	15.9	-91.2	3.5
2025-01-15 12:29:33.566411	301.3	15.8	-91.1	2.6
2025-01-15 12:29:34.723081	301.1	15.7	-91.3	4.5
2025-01-15 12:29:35.873091	300.9	15.6	-91.1	2.3
2025-01-15 12:29:37.020221	300.7	15.5	-91.6	4.8
2025-01-15 12:29:38.179178	300.6	15.4	-91.2	0.8
2025-01-15 12:29:39.325191	300.4	15.4	-91.5	2.6
2025-01-15 12:29:40.478593	300.2	15.3	-90.8	2.4
2025-01-15 12:29:41.635721	300.1	15.2	-91.2	4.1
2025-01-15 12:29:42.791067	299.9	15.1	-91.0	3.3
2025-01-15 12:29:43.938865	299.7	15.0	-91.1	3.6
2025-01-15 12:29:45.090707	299.6	14.9	-91.1	4.4
2025-01-15 12:29:46.238371	299.4	14.8	-90.8	5.1
2025-01-15 12:29:47.384455	299.3	14.7	-91.1	4.5
2025-01-15 12:29:48.568450	299.1	14.6	-91.7	5.5
#Closed at: 2025-01-15 12:23:10.194399