passes_logs/2025/01/15/LEX_Murmansk/LEX_Murmansk__20250115_072112_NOAA_19_rec.log

#Pass ID: 20250115_072112_NOAA 19
#Satellite: NOAA 19
#Configuration: NOAA 19
#Start time: 2025-01-15 07:21:07.625292

#LorettStation: 1.0.0 05.05.2024
#Station: LEX_Murmansk
#Location: 33.156738 lon 68.926811 lat
#TLE: 1 33591U 09005A   25014.15453959  .00000276  00000+0  17122-3 0  9998
#TLE: 2 33591  99.0198  77.9105 0014501  59.8090 300.4516 14.13258688821422

#Time	Az	El	Level	SNR
2025-01-15 07:21:19.879980	34.6	16.1	-90.2	1.1
2025-01-15 07:21:21.031904	34.8	16.2	-90.4	0.8
2025-01-15 07:21:22.182884	34.9	16.3	-90.6	0.7
2025-01-15 07:21:23.430583	35.0	16.5	-90.4	2.8
2025-01-15 07:21:24.580860	35.2	16.6	-90.5	3.0
2025-01-15 07:21:25.728491	35.3	16.7	-90.8	4.2
2025-01-15 07:21:26.873074	35.5	16.8	-90.5	2.5
2025-01-15 07:21:28.020147	35.6	16.9	-90.3	2.1
2025-01-15 07:21:29.166001	35.7	17.0	-90.5	1.8
2025-01-15 07:21:30.314704	35.9	17.1	-90.6	3.3
2025-01-15 07:21:31.464205	36.0	17.2	-90.7	3.6
2025-01-15 07:21:32.613267	36.2	17.3	-90.8	4.2
2025-01-15 07:21:33.765035	36.3	17.4	-90.6	4.2
2025-01-15 07:21:34.914375	36.5	17.6	-91.0	5.0
2025-01-15 07:21:36.062559	36.6	17.7	-90.7	3.2
2025-01-15 07:21:37.209038	36.8	17.8	-90.6	2.4
2025-01-15 07:21:38.366923	36.9	17.9	-90.8	2.5
2025-01-15 07:21:39.506876	37.0	18.0	-90.5	2.5
2025-01-15 07:21:40.655364	37.2	18.1	-90.8	1.4
2025-01-15 07:21:41.806744	37.4	18.2	-90.9	3.7
2025-01-15 07:21:42.955037	37.5	18.3	-90.6	3.1
2025-01-15 07:21:44.106909	37.7	18.5	-90.7	2.8
2025-01-15 07:21:45.257962	37.8	18.6	-90.2	8.1
2025-01-15 07:21:46.409964	38.0	18.7	-90.6	13.5
2025-01-15 07:21:47.559929	38.1	18.8	-90.9	5.7
2025-01-15 07:21:48.705384	38.3	18.9	-90.5	4.9
2025-01-15 07:21:49.850578	38.4	19.0	-90.7	5.2
2025-01-15 07:21:50.999010	38.6	19.1	-91.0	4.7
2025-01-15 07:21:52.145228	38.8	19.3	-90.7	5.7
2025-01-15 07:21:53.297918	38.9	19.4	-90.5	9.4
2025-01-15 07:21:54.454939	39.1	19.5	-90.6	5.4
2025-01-15 07:21:55.605378	39.3	19.6	-90.9	7.7
2025-01-15 07:21:56.753327	39.4	19.7	-90.2	0.6
2025-01-15 07:21:57.915058	39.6	19.9	-90.8	4.3
2025-01-15 07:21:59.063541	39.8	20.0	-90.6	2.1
2025-01-15 07:22:00.211853	39.9	20.1	-90.4	3.0
2025-01-15 07:22:01.358401	40.1	20.2	-90.8	4.8
2025-01-15 07:22:02.514285	40.3	20.3	-91.0	5.2
2025-01-15 07:22:03.659397	40.5	20.4	-90.6	10.2
2025-01-15 07:22:04.810215	40.6	20.6	-90.9	11.8
2025-01-15 07:22:05.959742	40.8	20.7	-90.8	14.1
2025-01-15 07:22:07.109611	41.0	20.8	-90.7	4.5
2025-01-15 07:22:08.252565	41.2	20.9	-90.7	4.0
2025-01-15 07:22:09.397784	41.3	21.0	-90.9	7.7
2025-01-15 07:22:10.547108	41.5	21.2	-90.8	5.2
2025-01-15 07:22:11.695038	41.7	21.3	-90.9	6.7
2025-01-15 07:22:12.843256	41.9	21.4	-90.7	9.5
2025-01-15 07:22:13.989190	42.1	21.5	-90.7	8.0
2025-01-15 07:22:15.134066	42.3	21.7	-90.7	3.9
2025-01-15 07:22:16.285978	42.5	21.8	-90.5	2.5
2025-01-15 07:22:17.441090	42.7	21.9	-91.0	2.5
2025-01-15 07:22:18.592824	42.8	22.0	-90.8	2.9
2025-01-15 07:22:19.738947	43.0	22.2	-90.9	3.6
2025-01-15 07:22:20.886332	43.2	22.3	-91.0	5.4
2025-01-15 07:22:22.038517	43.4	22.4	-90.8	10.4
2025-01-15 07:22:23.186820	43.6	22.5	-90.9	9.0
2025-01-15 07:22:24.338225	43.8	22.6	-90.6	4.8
2025-01-15 07:22:25.488011	44.0	22.8	-90.9	4.7
2025-01-15 07:22:26.636801	44.2	22.9	-90.9	6.3
2025-01-15 07:22:27.791669	44.4	23.0	-90.8	7.3
2025-01-15 07:22:28.939137	44.6	23.1	-91.1	7.9
2025-01-15 07:22:30.081177	44.9	23.3	-90.5	12.7
2025-01-15 07:22:31.230786	45.1	23.4	-90.7	10.1
2025-01-15 07:22:32.378104	45.3	23.5	-91.0	15.4
2025-01-15 07:22:33.530775	45.5	23.7	-90.6	6.4
2025-01-15 07:22:34.683083	45.7	23.8	-90.9	9.3
2025-01-15 07:22:35.831677	45.9	23.9	-90.8	1.8
2025-01-15 07:22:36.979183	46.1	24.0	-90.8	3.7
2025-01-15 07:22:38.125708	46.4	24.2	-90.7	3.6
2025-01-15 07:22:39.271541	46.6	24.3	-90.5	0.6
2025-01-15 07:22:40.419975	46.8	24.4	-90.8	3.5
2025-01-15 07:22:41.572768	47.0	24.5	-90.9	3.8
2025-01-15 07:22:42.721430	47.3	24.7	-90.9	8.5
2025-01-15 07:22:43.872229	47.5	24.8	-90.7	7.3
2025-01-15 07:22:45.024329	47.7	24.9	-91.0	3.7
2025-01-15 07:22:46.180612	47.9	25.1	-90.9	4.9
2025-01-15 07:22:47.331937	48.2	25.2	-90.6	3.4
2025-01-15 07:22:48.483661	48.4	25.3	-90.7	3.9
2025-01-15 07:22:49.630634	48.7	25.4	-90.8	7.6
2025-01-15 07:22:50.787842	48.9	25.6	-90.9	4.6
2025-01-15 07:22:51.938081	49.1	25.7	-91.1	4.0
2025-01-15 07:22:53.085688	49.4	25.8	-91.0	5.9
2025-01-15 07:22:54.234776	49.6	26.0	-90.7	3.7
2025-01-15 07:22:55.381475	49.9	26.1	-91.0	4.3
2025-01-15 07:22:56.531047	50.1	26.2	-91.1	2.5
2025-01-15 07:22:57.681545	50.4	26.4	-90.6	1.2
2025-01-15 07:22:58.828414	50.6	26.5	-90.3	1.8
2025-01-15 07:22:59.974239	50.9	26.6	-90.3	2.7
2025-01-15 07:23:01.124603	51.1	26.7	-90.2	1.5
2025-01-15 07:23:02.265544	51.4	26.9	-90.1	1.4
2025-01-15 07:23:03.414543	51.7	27.0	-90.5	3.0
2025-01-15 07:23:04.561493	51.9	27.1	-90.1	2.8
2025-01-15 07:23:05.717226	52.2	27.3	-90.3	1.8
2025-01-15 07:23:06.868489	52.5	27.4	-90.3	3.4
2025-01-15 07:23:08.019884	52.7	27.5	-90.5	5.9
2025-01-15 07:23:09.173336	53.0	27.6	-90.9	3.3
2025-01-15 07:23:10.325845	53.3	27.8	-90.8	2.8
2025-01-15 07:23:11.472123	53.5	27.9	-90.8	5.3
2025-01-15 07:23:12.611837	53.8	28.0	-91.3	5.5
2025-01-15 07:23:13.766196	54.1	28.2	-91.3	5.7
2025-01-15 07:23:14.911112	54.4	28.3	-90.8	8.1
2025-01-15 07:23:16.063331	54.7	28.4	-90.7	3.9
2025-01-15 07:23:17.213283	55.0	28.5	-90.9	4.4
2025-01-15 07:23:18.356992	55.2	28.7	-90.9	3.8
2025-01-15 07:23:19.504494	55.5	28.8	-91.0	2.2
2025-01-15 07:23:20.653081	55.8	28.9	-91.2	4.6
2025-01-15 07:23:21.802286	56.1	29.1	-90.9	2.9
2025-01-15 07:23:22.950860	56.4	29.2	-91.1	3.0
2025-01-15 07:23:24.102802	56.7	29.3	-90.8	3.0
2025-01-15 07:23:25.254391	57.0	29.4	-91.0	4.7
2025-01-15 07:23:26.401157	57.3	29.6	-91.0	8.6
2025-01-15 07:23:27.554894	57.6	29.7	-90.8	10.5
2025-01-15 07:23:28.702000	58.0	29.8	-90.8	12.1
2025-01-15 07:23:29.849028	58.3	29.9	-90.7	14.0
2025-01-15 07:23:31.000391	58.6	30.1	-91.0	15.2
2025-01-15 07:23:32.147672	58.9	30.2	-90.4	10.0
2025-01-15 07:23:33.299903	59.2	30.3	-90.9	8.8
2025-01-15 07:23:34.449120	59.5	30.4	-91.0	8.5
2025-01-15 07:23:35.599195	59.9	30.6	-90.8	5.2
2025-01-15 07:23:36.745755	60.2	30.7	-90.4	4.2
2025-01-15 07:23:37.894304	60.5	30.8	-91.0	7.3
2025-01-15 07:23:39.050851	60.9	30.9	-90.4	8.2
2025-01-15 07:23:40.200475	61.2	31.1	-91.0	12.3
2025-01-15 07:23:41.349107	61.5	31.2	-90.3	7.5
2025-01-15 07:23:42.499773	61.9	31.3	-90.6	7.3
2025-01-15 07:23:43.652483	62.2	31.4	-90.7	7.3
2025-01-15 07:23:44.803420	62.6	31.5	-90.9	7.1
2025-01-15 07:23:45.952354	62.9	31.7	-90.5	3.9
2025-01-15 07:23:47.099528	63.2	31.8	-90.9	3.4
2025-01-15 07:23:48.248734	63.6	31.9	-90.5	2.5
2025-01-15 07:23:49.395867	64.0	32.0	-90.8	5.5
2025-01-15 07:23:50.539908	64.3	32.1	-90.8	5.2
2025-01-15 07:23:51.690380	64.7	32.2	-90.4	6.1
2025-01-15 07:23:52.838502	65.0	32.4	-90.9	7.9
2025-01-15 07:23:53.994683	65.4	32.5	-90.9	14.4
2025-01-15 07:23:55.148831	65.8	32.6	-91.0	12.0
2025-01-15 07:23:56.290911	66.1	32.7	-90.6	10.3
2025-01-15 07:23:57.443971	66.5	32.8	-90.7	13.7
2025-01-15 07:23:58.592086	66.9	32.9	-90.4	13.3
2025-01-15 07:23:59.740059	67.3	33.0	-90.6	9.6
2025-01-15 07:24:00.885931	67.6	33.1	-90.8	9.5
2025-01-15 07:24:02.032292	68.0	33.2	-91.0	9.2
2025-01-15 07:24:03.183547	68.4	33.3	-90.6	6.4
2025-01-15 07:24:04.326578	68.8	33.4	-90.6	6.6
2025-01-15 07:24:05.476222	69.2	33.6	-90.9	11.2
2025-01-15 07:24:06.623310	69.6	33.7	-90.9	14.4
2025-01-15 07:24:07.772893	70.0	33.8	-90.6	13.6
2025-01-15 07:24:08.929013	70.4	33.9	-90.8	18.5
2025-01-15 07:24:10.072854	70.8	34.0	-90.8	18.2
2025-01-15 07:24:11.220991	71.2	34.1	-90.9	17.2
2025-01-15 07:24:12.363574	71.6	34.2	-90.9	17.3
2025-01-15 07:24:13.518535	72.0	34.2	-90.8	9.4
2025-01-15 07:24:14.665790	72.4	34.3	-91.0	9.5
2025-01-15 07:24:15.814029	72.8	34.4	-90.6	6.0
2025-01-15 07:24:16.964616	73.2	34.5	-90.9	7.0
2025-01-15 07:24:18.107574	73.6	34.6	-91.0	8.2
2025-01-15 07:24:19.255979	74.0	34.7	-90.6	3.9
2025-01-15 07:24:20.406120	74.4	34.8	-90.9	7.5
2025-01-15 07:24:21.554959	74.9	34.9	-90.9	6.9
2025-01-15 07:24:22.705765	75.3	35.0	-90.8	5.9
2025-01-15 07:24:23.857076	75.7	35.0	-90.9	9.6
2025-01-15 07:24:25.013422	76.1	35.1	-90.6	10.2
2025-01-15 07:24:26.160792	76.6	35.2	-90.6	11.9
2025-01-15 07:24:27.318593	77.0	35.3	-90.6	13.8
2025-01-15 07:24:28.460862	77.4	35.4	-90.7	15.3
2025-01-15 07:24:29.617340	77.9	35.4	-90.2	14.3
2025-01-15 07:24:30.759766	78.3	35.5	-90.3	14.1
2025-01-15 07:24:31.910404	78.8	35.6	-90.3	14.0
2025-01-15 07:24:33.059921	79.2	35.7	-90.2	11.6
2025-01-15 07:24:34.206595	79.6	35.7	-90.0	9.2
2025-01-15 07:24:35.353172	80.1	35.8	-89.8	7.5
2025-01-15 07:24:36.501050	80.5	35.9	-90.4	10.0
2025-01-15 07:24:37.650159	81.0	35.9	-90.0	6.4
2025-01-15 07:24:38.798973	81.4	36.0	-90.4	5.5
2025-01-15 07:24:39.959680	81.9	36.0	-90.3	8.3
2025-01-15 07:24:41.106396	82.3	36.1	-90.2	9.1
2025-01-15 07:24:42.252654	82.8	36.2	-90.2	7.2
2025-01-15 07:24:43.401071	83.3	36.2	-90.3	8.3
2025-01-15 07:24:44.548888	83.7	36.3	-90.3	7.0
2025-01-15 07:24:45.698622	84.2	36.3	-90.1	7.4
2025-01-15 07:24:46.846500	84.6	36.4	-90.3	13.1
2025-01-15 07:24:48.000481	85.1	36.4	-90.2	13.2
2025-01-15 07:24:49.147259	85.6	36.4	-90.2	8.4
2025-01-15 07:24:50.292411	86.0	36.5	-90.8	14.2
2025-01-15 07:24:51.442030	86.5	36.5	-90.8	15.6
2025-01-15 07:24:52.586563	87.0	36.6	-91.1	14.4
2025-01-15 07:24:53.736442	87.4	36.6	-91.1	11.1
2025-01-15 07:24:54.887166	87.9	36.6	-91.0	14.0
2025-01-15 07:24:56.041354	88.4	36.7	-90.8	12.4
2025-01-15 07:24:57.190486	88.8	36.7	-90.9	8.7
2025-01-15 07:24:58.340046	89.3	36.7	-90.6	7.9
2025-01-15 07:24:59.489928	89.8	36.7	-91.1	9.3
2025-01-15 07:25:00.639019	90.3	36.8	-90.4	7.4
2025-01-15 07:25:01.792572	90.7	36.8	-90.1	3.1
2025-01-15 07:25:02.935523	91.2	36.8	-90.3	6.3
2025-01-15 07:25:04.080524	91.7	36.8	-90.2	7.2
2025-01-15 07:25:05.231055	92.2	36.8	-90.1	3.4
2025-01-15 07:25:06.386078	92.6	36.9	-90.2	4.8
2025-01-15 07:25:07.539808	93.1	36.9	-90.2	5.7
2025-01-15 07:25:08.691238	93.6	36.9	-90.4	4.2
2025-01-15 07:25:09.843650	94.1	36.9	-90.3	2.7
2025-01-15 07:25:10.991826	94.5	36.9	-90.2	5.6
2025-01-15 07:25:12.139607	95.0	36.9	-90.1	4.6
2025-01-15 07:25:13.290069	95.5	36.9	-90.9	5.6
2025-01-15 07:25:14.439732	96.0	36.9	-90.7	6.7
2025-01-15 07:25:15.591557	96.5	36.9	-91.1	5.5
2025-01-15 07:25:16.742529	96.9	36.9	-90.7	5.9
2025-01-15 07:25:17.898470	97.4	36.9	-91.0	7.7
2025-01-15 07:25:19.049225	97.9	36.8	-90.5	10.3
2025-01-15 07:25:20.198113	98.4	36.8	-90.4	9.9
2025-01-15 07:25:21.361271	98.8	36.8	-90.1	10.8
2025-01-15 07:25:22.508737	99.3	36.8	-90.0	10.2
2025-01-15 07:25:23.655128	99.8	36.8	-89.8	8.7
2025-01-15 07:25:24.802051	100.3	36.8	-90.3	11.7
2025-01-15 07:25:25.954334	100.7	36.7	-90.9	11.1
2025-01-15 07:25:27.102313	101.2	36.7	-90.8	12.2
2025-01-15 07:25:28.252246	101.7	36.7	-90.9	15.5
2025-01-15 07:25:29.401405	102.1	36.6	-91.0	12.9
2025-01-15 07:25:30.549509	102.6	36.6	-90.9	9.8
2025-01-15 07:25:31.700032	103.1	36.6	-90.6	11.9
2025-01-15 07:25:32.847309	103.6	36.5	-91.1	10.8
2025-01-15 07:25:33.996703	104.0	36.5	-91.2	9.8
2025-01-15 07:25:35.147083	104.5	36.5	-90.5	15.7
2025-01-15 07:25:36.299703	105.0	36.4	-90.6	14.0
2025-01-15 07:25:37.452567	105.4	36.4	-90.9	11.9
2025-01-15 07:25:38.597246	105.9	36.3	-90.8	13.9
2025-01-15 07:25:39.747455	106.3	36.3	-91.0	10.6
2025-01-15 07:25:40.897441	106.8	36.2	-90.8	12.6
2025-01-15 07:25:42.045609	107.3	36.2	-90.8	14.3
2025-01-15 07:25:43.195734	107.7	36.1	-90.7	11.4
2025-01-15 07:25:44.339296	108.2	36.1	-90.7	12.9
2025-01-15 07:25:45.490272	108.6	36.0	-91.0	11.9
2025-01-15 07:25:46.639634	109.1	35.9	-90.3	10.0
2025-01-15 07:25:47.789993	109.5	35.9	-90.5	13.8
2025-01-15 07:25:48.938183	110.0	35.8	-90.1	9.9
2025-01-15 07:25:50.084708	110.4	35.7	-90.1	11.0
2025-01-15 07:25:51.236178	110.9	35.7	-90.6	7.5
2025-01-15 07:25:52.382201	111.3	35.6	-90.3	9.2
2025-01-15 07:25:53.533618	111.7	35.5	-91.1	10.1
2025-01-15 07:25:54.681084	112.2	35.5	-91.1	10.2
2025-01-15 07:25:55.828447	112.6	35.4	-90.9	12.5
2025-01-15 07:25:56.977547	113.0	35.3	-90.8	12.1
2025-01-15 07:25:58.126028	113.5	35.2	-90.6	8.4
2025-01-15 07:25:59.278433	113.9	35.2	-90.1	10.9
2025-01-15 07:26:00.423788	114.3	35.1	-90.6	10.7
2025-01-15 07:26:01.573879	114.8	35.0	-90.3	9.3
2025-01-15 07:26:02.728741	115.2	34.9	-90.6	14.0
2025-01-15 07:26:03.882797	115.6	34.8	-90.2	9.7
2025-01-15 07:26:05.029727	116.0	34.7	-90.2	7.6
2025-01-15 07:26:06.179671	116.5	34.6	-90.3	12.4
2025-01-15 07:26:07.332722	116.9	34.6	-90.7	11.9
2025-01-15 07:26:08.479919	117.3	34.5	-90.9	9.2
2025-01-15 07:26:09.631699	117.7	34.4	-91.1	10.7
2025-01-15 07:26:10.777906	118.1	34.3	-91.1	13.0
2025-01-15 07:26:11.926086	118.5	34.2	-90.7	10.2
2025-01-15 07:26:13.079550	118.9	34.1	-90.7	8.6
2025-01-15 07:26:14.228484	119.3	34.0	-90.9	10.1
2025-01-15 07:26:15.380056	119.7	33.9	-90.9	8.4
2025-01-15 07:26:16.529807	120.1	33.8	-90.8	11.3
2025-01-15 07:26:17.681316	120.5	33.7	-91.0	12.2
2025-01-15 07:26:18.826777	120.9	33.6	-91.2	13.1
2025-01-15 07:26:19.973241	121.3	33.5	-91.0	13.4
2025-01-15 07:26:21.120084	121.7	33.4	-90.8	13.7
2025-01-15 07:26:22.269687	122.1	33.3	-90.9	14.8
2025-01-15 07:26:23.423595	122.4	33.2	-91.1	14.7
2025-01-15 07:26:24.571696	122.8	33.1	-91.5	17.2
2025-01-15 07:26:25.720066	123.2	32.9	-91.0	12.5
2025-01-15 07:26:26.874262	123.6	32.8	-91.1	13.3
2025-01-15 07:26:28.023651	124.0	32.7	-91.3	14.1
2025-01-15 07:26:29.175115	124.3	32.6	-91.2	14.3
2025-01-15 07:26:30.320594	124.7	32.5	-90.8	15.6
2025-01-15 07:26:31.470265	125.1	32.4	-91.0	14.7
2025-01-15 07:26:32.620762	125.4	32.3	-91.5	14.2
2025-01-15 07:26:33.770075	125.8	32.2	-91.2	13.9
2025-01-15 07:26:34.922118	126.1	32.0	-91.0	11.1
2025-01-15 07:26:36.070879	126.5	31.9	-91.1	10.8
2025-01-15 07:26:37.220489	126.8	31.8	-91.1	10.5
2025-01-15 07:26:38.370724	127.2	31.7	-91.1	9.4
2025-01-15 07:26:39.523331	127.5	31.6	-91.0	8.5
2025-01-15 07:26:40.668535	127.9	31.4	-90.9	9.9
2025-01-15 07:26:41.818961	128.2	31.3	-91.2	8.6
2025-01-15 07:26:42.978828	128.6	31.2	-91.2	5.8
2025-01-15 07:26:44.127286	128.9	31.1	-90.7	4.5
2025-01-15 07:26:45.280873	129.2	31.0	-90.8	6.8
2025-01-15 07:26:46.431259	129.6	30.8	-90.9	4.6
2025-01-15 07:26:47.584304	129.9	30.7	-91.1	5.3
2025-01-15 07:26:48.735839	130.2	30.6	-91.0	4.8
2025-01-15 07:26:49.888359	130.6	30.5	-91.2	5.1
2025-01-15 07:26:51.033999	130.9	30.3	-90.8	3.7
2025-01-15 07:26:52.178334	131.2	30.2	-91.1	4.8
2025-01-15 07:26:53.325983	131.5	30.1	-91.0	5.6
2025-01-15 07:26:54.478287	131.8	30.0	-90.9	2.5
2025-01-15 07:26:55.631479	132.2	29.8	-91.3	1.8
2025-01-15 07:26:56.780449	132.5	29.7	-90.9	3.4
2025-01-15 07:26:57.930002	132.8	29.6	-91.1	5.0
2025-01-15 07:26:59.075764	133.1	29.5	-90.7	2.6
2025-01-15 07:27:00.220107	133.4	29.3	-91.0	6.3
2025-01-15 07:27:01.370001	133.7	29.2	-91.2	6.2
2025-01-15 07:27:02.517312	134.0	29.1	-91.1	6.3
2025-01-15 07:27:03.669975	134.3	29.0	-91.0	2.5
2025-01-15 07:27:04.819352	134.6	28.8	-91.2	2.6
2025-01-15 07:27:05.968610	134.9	28.7	-91.3	2.5
2025-01-15 07:27:07.119154	135.2	28.6	-91.2	1.6
2025-01-15 07:27:08.264602	135.4	28.4	-90.9	4.1
2025-01-15 07:27:09.413299	135.7	28.3	-90.9	5.4
2025-01-15 07:27:10.560130	136.0	28.2	-91.2	4.8
2025-01-15 07:27:11.709181	136.3	28.1	-90.7	4.0
2025-01-15 07:27:12.853818	136.6	27.9	-91.0	4.3
2025-01-15 07:27:14.004178	136.8	27.8	-91.1	5.2
2025-01-15 07:27:15.160368	137.1	27.7	-90.8	6.5
2025-01-15 07:27:16.311394	137.4	27.5	-90.8	6.3
2025-01-15 07:27:17.459445	137.7	27.4	-90.9	4.1
2025-01-15 07:27:18.611054	137.9	27.3	-91.1	3.2
2025-01-15 07:27:19.761976	138.2	27.2	-91.1	4.6
2025-01-15 07:27:20.907089	138.5	27.0	-91.0	4.7
2025-01-15 07:27:22.050046	138.7	26.9	-91.2	3.3
2025-01-15 07:27:23.197957	139.0	26.8	-90.9	8.3
2025-01-15 07:27:24.342158	139.2	26.6	-90.7	7.2
2025-01-15 07:27:25.491889	139.5	26.5	-91.0	5.9
2025-01-15 07:27:26.642662	139.7	26.4	-91.2	5.5
2025-01-15 07:27:27.792297	140.0	26.2	-91.0	5.1
2025-01-15 07:27:28.937106	140.2	26.1	-91.0	6.6
2025-01-15 07:27:30.083063	140.5	26.0	-91.1	8.1
2025-01-15 07:27:31.229540	140.7	25.9	-90.6	8.2
2025-01-15 07:27:32.379102	141.0	25.7	-90.8	10.2
2025-01-15 07:27:33.526396	141.2	25.6	-91.4	10.6
2025-01-15 07:27:34.674874	141.5	25.5	-90.9	10.0
2025-01-15 07:27:35.823623	141.7	25.3	-91.0	8.5
2025-01-15 07:27:36.974708	141.9	25.2	-91.1	8.6
2025-01-15 07:27:38.123074	142.2	25.1	-91.1	10.1
2025-01-15 07:27:39.271687	142.4	25.0	-90.9	10.8
2025-01-15 07:27:40.415907	142.6	24.8	-90.7	8.5
2025-01-15 07:27:41.559186	142.9	24.7	-91.0	6.4
2025-01-15 07:27:42.709507	143.1	24.6	-91.3	10.6
2025-01-15 07:27:43.854551	143.3	24.4	-91.0	10.6
2025-01-15 07:27:45.005075	143.5	24.3	-91.0	4.7
2025-01-15 07:27:46.150841	143.8	24.2	-91.0	7.2
2025-01-15 07:27:47.307692	144.0	24.1	-90.7	7.9
2025-01-15 07:27:48.455759	144.2	23.9	-90.8	5.3
2025-01-15 07:27:49.607251	144.4	23.8	-91.0	6.0
2025-01-15 07:27:50.751739	144.6	23.7	-91.3	8.6
2025-01-15 07:27:51.896192	144.8	23.6	-91.1	6.5
2025-01-15 07:27:53.045563	145.1	23.4	-90.9	5.9
2025-01-15 07:27:54.194716	145.3	23.3	-90.9	8.9
2025-01-15 07:27:55.343865	145.5	23.2	-90.7	10.4
2025-01-15 07:27:56.494039	145.7	23.0	-91.0	10.1
2025-01-15 07:27:57.645106	145.9	22.9	-91.2	11.0
2025-01-15 07:27:58.795807	146.1	22.8	-91.1	10.0
2025-01-15 07:27:59.949391	146.3	22.7	-91.4	8.7
2025-01-15 07:28:01.102089	146.5	22.5	-91.0	7.4
2025-01-15 07:28:02.254127	146.7	22.4	-90.9	6.9
2025-01-15 07:28:03.406657	146.9	22.3	-91.1	4.6
2025-01-15 07:28:04.560885	147.1	22.2	-91.1	3.8
2025-01-15 07:28:05.716014	147.3	22.0	-91.3	7.4
2025-01-15 07:28:06.862432	147.5	21.9	-91.1	6.7
2025-01-15 07:28:08.010822	147.7	21.8	-91.1	3.5
2025-01-15 07:28:09.158786	147.8	21.7	-91.1	7.5
2025-01-15 07:28:10.310036	148.0	21.6	-91.0	6.0
2025-01-15 07:28:11.459116	148.2	21.4	-90.7	4.3
2025-01-15 07:28:12.612564	148.4	21.3	-91.1	5.8
2025-01-15 07:28:13.766299	148.6	21.2	-91.0	7.7
2025-01-15 07:28:14.919483	148.8	21.1	-89.5	6.6
2025-01-15 07:28:16.067223	149.0	20.9	-90.1	5.6
2025-01-15 07:28:17.217245	149.1	20.8	-90.2	7.9
2025-01-15 07:28:18.364511	149.3	20.7	-90.0	6.2
2025-01-15 07:28:19.516774	149.5	20.6	-90.4	6.4
2025-01-15 07:28:20.667706	149.7	20.5	-90.4	5.2
2025-01-15 07:28:21.812542	149.8	20.3	-90.0	5.7
2025-01-15 07:28:22.964522	150.0	20.2	-90.4	6.6
2025-01-15 07:28:24.113778	150.2	20.1	-90.5	5.9
2025-01-15 07:28:25.261594	150.4	20.0	-90.8	8.2
2025-01-15 07:28:26.407271	150.5	19.9	-90.8	4.1
2025-01-15 07:28:27.557531	150.7	19.7	-91.0	3.9
2025-01-15 07:28:28.714399	150.9	19.6	-90.9	7.9
2025-01-15 07:28:29.863933	151.0	19.5	-90.9	6.0
2025-01-15 07:28:31.004697	151.2	19.4	-90.9	4.3
2025-01-15 07:28:32.152212	151.4	19.3	-90.6	5.0
2025-01-15 07:28:33.302715	151.5	19.2	-90.7	4.9
2025-01-15 07:28:34.450264	151.7	19.0	-91.2	3.2
2025-01-15 07:28:35.597898	151.8	18.9	-91.1	5.6
2025-01-15 07:28:36.746020	152.0	18.8	-90.6	2.9
2025-01-15 07:28:37.891889	152.2	18.7	-90.4	2.1
2025-01-15 07:28:39.039282	152.3	18.6	-90.1	3.9
2025-01-15 07:28:40.185906	152.5	18.5	-90.5	3.2
2025-01-15 07:28:41.332389	152.6	18.4	-90.5	2.9
2025-01-15 07:28:42.481716	152.8	18.2	-90.3	4.0
2025-01-15 07:28:43.633267	152.9	18.1	-90.6	4.9
2025-01-15 07:28:44.783826	153.1	18.0	-90.6	4.5
2025-01-15 07:28:45.930999	153.2	17.9	-90.5	2.2
2025-01-15 07:28:47.077324	153.4	17.8	-90.3	1.8
2025-01-15 07:28:48.226110	153.5	17.7	-90.6	4.0
2025-01-15 07:28:49.377054	153.7	17.6	-90.5	2.0
2025-01-15 07:28:50.525216	153.8	17.5	-90.6	1.4
2025-01-15 07:28:51.672736	154.0	17.3	-90.4	4.0
2025-01-15 07:28:52.820900	154.1	17.2	-90.5	2.0
2025-01-15 07:28:53.970699	154.2	17.1	-90.9	2.3
2025-01-15 07:28:55.115978	154.4	17.0	-90.8	2.9
2025-01-15 07:28:56.262715	154.5	16.9	-91.1	4.8
2025-01-15 07:28:57.410841	154.7	16.8	-91.1	3.7
2025-01-15 07:28:58.562156	154.8	16.7	-91.1	2.8
2025-01-15 07:28:59.709024	154.9	16.6	-91.1	3.0
2025-01-15 07:29:00.859113	155.1	16.5	-91.0	4.1
2025-01-15 07:29:02.003895	155.2	16.4	-91.2	4.4
2025-01-15 07:29:03.150591	155.3	16.2	-90.7	4.6
2025-01-15 07:29:04.294484	155.5	16.1	-91.1	4.4
2025-01-15 07:29:05.440024	155.6	16.0	-90.9	4.6
2025-01-15 07:29:06.588504	155.7	15.9	-91.0	6.6
2025-01-15 07:29:07.738838	155.9	15.8	-91.0	4.4
2025-01-15 07:29:08.886383	156.0	15.7	-91.1	3.2
2025-01-15 07:29:10.036604	156.1	15.6	-91.2	4.5
2025-01-15 07:29:11.180879	156.3	15.5	-90.8	3.9
2025-01-15 07:29:12.337184	156.4	15.4	-90.7	5.4
2025-01-15 07:29:13.482588	156.5	15.3	-91.1	3.7
2025-01-15 07:29:14.627462	156.6	15.2	-90.8	3.9
2025-01-15 07:29:15.781613	156.8	15.1	-91.0	5.9
2025-01-15 07:29:16.926572	156.9	15.0	-91.0	2.3
2025-01-15 07:29:18.079343	157.0	14.9	-90.9	0.7
2025-01-15 07:29:19.224590	157.1	14.8	-91.1	5.0
2025-01-15 07:29:20.376526	157.3	14.7	-90.9	3.2
2025-01-15 07:29:21.513191	157.4	14.6	-91.0	4.9
#Closed at: 2025-01-15 07:21:12.705298