passes_logs/2025/01/15/LEX_Murmansk/LEX_Murmansk__20250115_172108_NOAA_19_rec.log

#Pass ID: 20250115_172108_NOAA 19
#Satellite: NOAA 19
#Configuration: NOAA 19
#Start time: 2025-01-15 17:21:03.510728

#LorettStation: 1.0.0 05.05.2024
#Station: LEX_Murmansk
#Location: 33.156738 lon 68.926811 lat
#TLE: 1 33591U 09005A   25015.14570653  .00000261  00000+0  16322-3 0  9994
#TLE: 2 33591  99.0196  78.9093 0014467  57.1425 303.1137 14.13259366821569

#Time	Az	El	Level	SNR
2025-01-15 17:21:15.694559	141.1	16.3	-92.3	0.9
2025-01-15 17:21:18.020840	141.0	16.6	-92.3	4.6
2025-01-15 17:21:20.353155	141.0	16.9	-91.8	3.7
2025-01-15 17:21:22.680203	140.9	17.1	-92.3	2.8
2025-01-15 17:21:25.011490	140.9	17.4	-92.4	4.6
2025-01-15 17:21:27.336389	140.8	17.7	-92.3	2.8
2025-01-15 17:21:29.662500	140.8	17.9	-92.3	3.2
2025-01-15 17:21:31.990769	140.7	18.2	-92.6	3.5
2025-01-15 17:21:34.322583	140.7	18.5	-92.5	10.6
2025-01-15 17:21:36.654742	140.6	18.8	-92.3	6.3
2025-01-15 17:21:38.972317	140.5	19.1	-92.4	8.9
2025-01-15 17:21:41.241326	140.5	19.4	-92.1	11.7
2025-01-15 17:21:43.481140	140.4	19.6	-92.0	6.8
2025-01-15 17:21:45.722458	140.4	19.9	-92.3	2.1
2025-01-15 17:21:47.964358	140.3	20.2	-92.5	7.5
2025-01-15 17:21:50.232867	140.2	20.5	-92.4	15.1
2025-01-15 17:21:52.567797	140.2	20.8	-92.4	8.6
2025-01-15 17:21:54.874314	140.1	21.1	-92.3	8.1
2025-01-15 17:21:57.206391	140.0	21.5	-92.1	12.5
2025-01-15 17:21:59.526378	140.0	21.8	-92.2	4.8
2025-01-15 17:22:01.844912	139.9	22.1	-92.7	2.8
2025-01-15 17:22:04.169541	139.8	22.4	-91.3	5.8
2025-01-15 17:22:06.496932	139.8	22.8	-91.0	8.6
2025-01-15 17:22:08.817611	139.7	23.1	-91.8	7.1
2025-01-15 17:22:11.147918	139.6	23.4	-92.7	9.8
2025-01-15 17:22:13.473575	139.5	23.8	-92.6	11.0
2025-01-15 17:22:15.799989	139.4	24.1	-92.4	3.5
2025-01-15 17:22:18.130469	139.4	24.5	-92.2	5.0
2025-01-15 17:22:20.454573	139.3	24.9	-92.6	8.2
2025-01-15 17:22:22.786561	139.2	25.2	-92.2	15.5
2025-01-15 17:22:25.109099	139.1	25.6	-92.1	10.2
2025-01-15 17:22:27.443413	139.0	26.0	-92.6	10.6
2025-01-15 17:22:29.762868	138.9	26.3	-92.4	6.3
2025-01-15 17:22:32.090747	138.8	26.7	-92.5	4.2
2025-01-15 17:22:34.427918	138.7	27.1	-92.2	2.1
2025-01-15 17:22:36.752730	138.6	27.5	-92.4	4.2
2025-01-15 17:22:39.077963	138.5	27.9	-92.6	7.7
2025-01-15 17:22:41.325975	138.4	28.3	-92.3	4.6
2025-01-15 17:22:43.651375	138.3	28.7	-92.4	5.6
2025-01-15 17:22:45.982206	138.2	29.1	-92.2	6.1
2025-01-15 17:22:48.307198	138.0	29.6	-92.1	4.6
2025-01-15 17:22:50.638550	137.9	30.0	-92.6	4.2
2025-01-15 17:22:52.965243	137.8	30.4	-92.6	1.5
2025-01-15 17:22:55.300802	137.7	30.9	-92.3	1.4
2025-01-15 17:22:57.621579	137.5	31.3	-92.8	4.6
2025-01-15 17:22:59.947927	137.4	31.8	-92.6	4.4
2025-01-15 17:23:02.265864	137.3	32.3	-92.5	9.3
2025-01-15 17:23:04.593860	137.1	32.7	-92.4	10.1
2025-01-15 17:23:06.920538	137.0	33.2	-92.4	2.6
2025-01-15 17:23:09.253283	136.8	33.7	-92.2	1.6
2025-01-15 17:23:11.579135	136.6	34.2	-92.5	5.9
2025-01-15 17:23:13.906052	136.5	34.7	-92.2	11.7
2025-01-15 17:23:16.227066	136.3	35.2	-92.6	7.0
2025-01-15 17:23:18.555664	136.1	35.7	-92.4	11.7
2025-01-15 17:23:20.889028	136.0	36.3	-92.4	16.4
2025-01-15 17:23:23.213909	135.8	36.8	-92.3	10.7
2025-01-15 17:23:25.540605	135.6	37.3	-92.3	5.8
2025-01-15 17:23:27.886533	135.4	37.9	-92.2	3.0
2025-01-15 17:23:30.201878	135.2	38.5	-92.4	9.6
2025-01-15 17:23:32.530959	134.9	39.0	-92.5	13.4
2025-01-15 17:23:34.842988	134.7	39.6	-92.4	9.9
2025-01-15 17:23:37.164585	134.5	40.2	-91.9	12.2
2025-01-15 17:23:39.482233	134.2	40.8	-92.2	12.1
2025-01-15 17:23:41.812006	134.0	41.4	-92.1	8.8
2025-01-15 17:23:44.141151	133.7	42.0	-92.5	5.3
2025-01-15 17:23:46.472700	133.5	42.6	-92.6	5.1
2025-01-15 17:23:48.789312	133.2	43.3	-92.4	8.2
2025-01-15 17:23:51.117904	132.9	43.9	-92.3	12.3
2025-01-15 17:23:53.443658	132.6	44.6	-92.4	10.8
2025-01-15 17:23:55.765801	132.3	45.2	-92.5	8.5
2025-01-15 17:23:58.095611	131.9	45.9	-92.4	11.0
2025-01-15 17:24:00.424260	131.6	46.6	-92.5	11.5
2025-01-15 17:24:02.751211	131.2	47.3	-92.5	5.8
2025-01-15 17:24:05.075241	130.8	48.0	-92.4	0.4
2025-01-15 17:24:07.403456	130.4	48.7	-92.5	1.2
2025-01-15 17:24:09.720847	130.0	49.4	-92.6	2.5
2025-01-15 17:24:12.043034	129.6	50.2	-92.4	8.5
2025-01-15 17:24:14.361044	129.1	50.9	-91.9	3.3
2025-01-15 17:24:16.683830	128.6	51.7	-92.5	0.9
2025-01-15 17:24:19.011145	128.1	52.4	-92.5	10.2
2025-01-15 17:24:21.350941	127.6	53.2	-91.9	4.3
2025-01-15 17:24:23.688156	127.0	54.0	-92.5	6.0
2025-01-15 17:24:26.021983	126.4	54.8	-92.2	4.2
2025-01-15 17:24:28.347213	125.7	55.6	-92.2	3.1
2025-01-15 17:24:30.677347	125.0	56.4	-92.8	4.5
2025-01-15 17:24:33.010659	124.3	57.2	-92.3	6.1
2025-01-15 17:24:35.338148	123.6	58.0	-92.4	15.0
2025-01-15 17:24:37.658297	122.7	58.9	-92.4	9.7
2025-01-15 17:24:39.988991	121.9	59.7	-92.6	12.5
2025-01-15 17:24:42.320670	120.9	60.6	-92.6	5.7
2025-01-15 17:24:44.650535	120.0	61.4	-92.6	6.7
2025-01-15 17:24:46.974504	118.9	62.3	-92.3	18.5
2025-01-15 17:24:49.297419	117.8	63.1	-92.7	18.1
2025-01-15 17:24:51.623279	116.5	63.9	-92.7	10.8
2025-01-15 17:24:53.953299	115.2	64.8	-92.4	6.3
2025-01-15 17:24:56.276014	113.8	65.6	-92.3	2.2
2025-01-15 17:24:58.599638	112.3	66.5	-92.5	8.4
2025-01-15 17:25:00.923516	110.6	67.3	-92.3	13.4
2025-01-15 17:25:03.267582	108.8	68.1	-92.3	14.0
2025-01-15 17:25:05.588298	106.9	68.9	-92.4	16.8
2025-01-15 17:25:07.916888	104.8	69.7	-91.5	14.9
2025-01-15 17:25:10.235255	102.5	70.5	-91.4	5.3
2025-01-15 17:25:12.562837	100.0	71.2	-91.8	7.4
2025-01-15 17:25:14.890404	97.3	71.9	-92.0	5.9
2025-01-15 17:25:17.221232	94.3	72.6	-92.1	5.8
2025-01-15 17:25:19.542166	91.2	73.2	-92.0	13.8
2025-01-15 17:25:21.862945	87.8	73.8	-92.0	18.7
2025-01-15 17:25:24.197766	84.1	74.3	-92.3	15.7
2025-01-15 17:25:26.532518	80.2	74.8	-92.2	15.0
2025-01-15 17:25:28.852342	76.0	75.2	-92.1	12.9
2025-01-15 17:25:31.176065	71.7	75.5	-92.0	6.3
2025-01-15 17:25:33.508008	67.2	75.7	-92.6	10.6
2025-01-15 17:25:35.832686	62.5	75.8	-92.6	5.7
2025-01-15 17:25:38.160579	57.9	75.9	-92.2	5.4
2025-01-15 17:25:40.484455	53.2	75.8	-92.1	4.0
2025-01-15 17:25:42.813555	48.5	75.7	-92.5	2.8
2025-01-15 17:25:45.136219	44.0	75.4	-92.6	7.0
2025-01-15 17:25:47.467488	39.7	75.1	-92.5	6.3
2025-01-15 17:25:49.788942	35.6	74.7	-92.4	3.9
2025-01-15 17:25:52.118432	31.7	74.3	-91.9	11.5
2025-01-15 17:25:54.448946	28.0	73.8	-92.1	11.6
2025-01-15 17:25:56.781957	24.6	73.2	-92.2	10.7
2025-01-15 17:25:59.105151	21.5	72.5	-92.1	15.2
2025-01-15 17:26:01.408772	18.6	71.9	-92.9	11.9
2025-01-15 17:26:03.720606	15.9	71.2	-92.5	12.0
2025-01-15 17:26:06.048687	13.5	70.4	-92.5	16.3
2025-01-15 17:26:08.372961	11.2	69.7	-92.5	15.9
2025-01-15 17:26:10.689715	9.1	68.9	-92.5	16.0
2025-01-15 17:26:13.013958	7.2	68.1	-92.5	17.5
2025-01-15 17:26:15.336029	5.4	67.3	-92.3	16.3
2025-01-15 17:26:17.664432	3.7	66.4	-92.3	17.1
2025-01-15 17:26:19.988908	2.2	65.6	-92.4	15.9
2025-01-15 17:26:22.317177	0.8	64.8	-92.2	12.4
2025-01-15 17:26:24.638234	359.5	63.9	-92.5	13.4
2025-01-15 17:26:26.961512	358.3	63.1	-92.3	12.3
2025-01-15 17:26:29.281840	357.2	62.2	-92.5	8.0
2025-01-15 17:26:31.609634	356.1	61.4	-92.4	10.8
2025-01-15 17:26:33.936443	355.1	60.5	-92.1	9.6
2025-01-15 17:26:36.257792	354.2	59.7	-92.7	3.5
2025-01-15 17:26:38.583036	353.3	58.9	-92.4	7.4
2025-01-15 17:26:40.899360	352.5	58.0	-92.5	6.0
2025-01-15 17:26:43.227252	351.8	57.2	-92.2	7.8
2025-01-15 17:26:45.550994	351.0	56.4	-92.4	12.6
2025-01-15 17:26:47.879857	350.4	55.6	-92.4	12.2
2025-01-15 17:26:50.201225	349.7	54.8	-92.2	13.3
2025-01-15 17:26:52.533158	349.1	54.0	-92.8	16.3
2025-01-15 17:26:54.863348	348.5	53.2	-92.3	13.9
2025-01-15 17:26:57.189446	348.0	52.5	-92.0	11.3
2025-01-15 17:26:59.512057	347.5	51.7	-92.3	12.3
2025-01-15 17:27:01.831347	347.0	50.9	-92.2	8.4
2025-01-15 17:27:04.156287	346.5	50.2	-92.6	6.4
2025-01-15 17:27:06.487104	346.1	49.5	-92.5	7.2
2025-01-15 17:27:08.808636	345.7	48.8	-92.6	4.7
2025-01-15 17:27:11.126208	345.3	48.0	-92.3	10.6
2025-01-15 17:27:13.456537	344.9	47.3	-92.4	10.9
2025-01-15 17:27:15.784474	344.5	46.6	-92.5	13.5
2025-01-15 17:27:18.106959	344.2	46.0	-92.3	17.1
2025-01-15 17:27:20.428625	343.9	45.3	-92.5	17.6
2025-01-15 17:27:22.759620	343.5	44.6	-92.5	16.5
2025-01-15 17:27:25.082965	343.2	44.0	-92.5	13.1
2025-01-15 17:27:27.405106	342.9	43.3	-92.0	11.9
2025-01-15 17:27:29.727419	342.7	42.7	-92.6	5.5
2025-01-15 17:27:32.065047	342.4	42.1	-92.7	11.7
2025-01-15 17:27:34.387864	342.1	41.5	-92.3	11.8
2025-01-15 17:27:36.718722	341.9	40.9	-92.1	15.3
2025-01-15 17:27:39.045909	341.6	40.3	-91.5	14.8
2025-01-15 17:27:41.368132	341.4	39.7	-92.6	13.3
2025-01-15 17:27:43.692431	341.2	39.1	-92.5	11.8
2025-01-15 17:27:46.032563	341.0	38.5	-92.2	9.0
2025-01-15 17:27:48.360156	340.8	38.0	-92.5	3.2
2025-01-15 17:27:50.682678	340.6	37.4	-92.5	4.2
2025-01-15 17:27:53.018710	340.4	36.9	-92.4	8.0
2025-01-15 17:27:55.341324	340.2	36.3	-92.3	9.0
2025-01-15 17:27:57.665383	340.0	35.8	-92.5	11.3
2025-01-15 17:27:59.982828	339.8	35.3	-92.2	11.6
2025-01-15 17:28:02.297649	339.7	34.8	-92.4	5.0
2025-01-15 17:28:04.624671	339.5	34.3	-92.3	9.8
2025-01-15 17:28:06.945340	339.3	33.8	-92.2	6.2
2025-01-15 17:28:09.274335	339.2	33.3	-92.5	6.7
2025-01-15 17:28:11.599963	339.0	32.8	-92.5	12.8
2025-01-15 17:28:13.928070	338.9	32.4	-92.3	13.2
2025-01-15 17:28:16.252863	338.7	31.9	-92.0	9.7
2025-01-15 17:28:18.582939	338.6	31.5	-92.4	7.6
2025-01-15 17:28:20.909165	338.5	31.0	-92.6	5.0
2025-01-15 17:28:23.240889	338.3	30.6	-92.1	3.9
2025-01-15 17:28:25.564354	338.2	30.1	-92.5	9.1
2025-01-15 17:28:27.894170	338.1	29.7	-92.5	10.1
2025-01-15 17:28:30.220302	338.0	29.3	-92.4	12.7
2025-01-15 17:28:32.534017	337.9	28.9	-92.8	13.1
2025-01-15 17:28:34.777852	337.8	28.5	-92.6	4.9
2025-01-15 17:28:37.021246	337.7	28.1	-92.5	4.5
2025-01-15 17:28:39.263079	337.6	27.7	-92.6	4.5
2025-01-15 17:28:41.510534	337.5	27.3	-92.6	10.2
2025-01-15 17:28:43.799827	337.4	26.9	-92.2	12.6
2025-01-15 17:28:46.123740	337.3	26.5	-92.0	9.7
2025-01-15 17:28:48.442384	337.2	26.1	-92.3	7.4
2025-01-15 17:28:50.758606	337.1	25.8	-92.5	1.0
2025-01-15 17:28:53.084784	337.0	25.4	-92.4	4.5
2025-01-15 17:28:55.409709	336.9	25.0	-92.6	5.1
2025-01-15 17:28:57.748390	336.8	24.7	-92.5	9.0
2025-01-15 17:29:00.064345	336.7	24.3	-92.3	8.6
2025-01-15 17:29:02.390407	336.6	24.0	-92.3	7.9
2025-01-15 17:29:04.710170	336.6	23.6	-92.2	3.9
2025-01-15 17:29:07.032240	336.5	23.3	-92.4	6.8
2025-01-15 17:29:09.358081	336.4	23.0	-92.3	8.9
2025-01-15 17:29:11.676925	336.3	22.6	-92.8	12.7
2025-01-15 17:29:14.002442	336.3	22.3	-92.7	12.2
2025-01-15 17:29:16.344919	336.2	22.0	-92.4	4.8
2025-01-15 17:29:18.661850	336.1	21.6	-92.4	6.3
2025-01-15 17:29:20.985881	336.1	21.3	-92.5	4.8
2025-01-15 17:29:23.317310	336.0	21.0	-92.5	4.1
2025-01-15 17:29:25.644391	335.9	20.7	-92.3	7.2
2025-01-15 17:29:27.973433	335.9	20.4	-92.7	4.4
2025-01-15 17:29:30.293552	335.8	20.1	-92.3	2.8
2025-01-15 17:29:32.619616	335.7	19.8	-92.3	2.9
2025-01-15 17:29:34.947065	335.7	19.5	-92.7	2.7
2025-01-15 17:29:37.274663	335.6	19.2	-92.3	2.4
2025-01-15 17:29:39.600634	335.6	18.9	-92.5	9.0
2025-01-15 17:29:41.917826	335.5	18.6	-92.3	8.1
2025-01-15 17:29:44.243417	335.5	18.4	-92.5	3.3
2025-01-15 17:29:46.574226	335.4	18.1	-93.0	1.5
2025-01-15 17:29:48.902159	335.4	17.8	-92.8	0.9
2025-01-15 17:29:51.221995	335.3	17.5	-92.5	2.5
2025-01-15 17:29:53.552382	335.3	17.3	-92.5	3.4
2025-01-15 17:29:55.870430	335.2	17.0	-92.7	2.0
2025-01-15 17:29:58.189619	335.2	16.7	-92.4	2.3
2025-01-15 17:30:00.509866	335.1	16.5	-92.6	2.4
2025-01-15 17:30:02.835054	335.1	16.2	-92.2	2.8
2025-01-15 17:30:05.159361	335.0	16.0	-92.5	2.3
2025-01-15 17:30:07.481013	335.0	15.7	-92.4	2.4
2025-01-15 17:30:09.806475	334.9	15.5	-92.7	1.5
2025-01-15 17:30:12.130165	334.9	15.2	-92.5	2.7
2025-01-15 17:30:14.457156	334.9	15.0	-92.3	1.3
2025-01-15 17:30:16.785493	334.8	14.7	-92.7	1.0
2025-01-15 17:30:19.107213	334.8	14.5	-92.4	1.8
#Closed at: 2025-01-15 17:21:08.486076