passes_logs/2025/01/15/LEX_Murmansk/LEX_Murmansk__20250115_140240_NOAA_19_rec.log

#Pass ID: 20250115_140240_NOAA 19
#Satellite: NOAA 19
#Configuration: NOAA 19
#Start time: 2025-01-15 14:02:35.558427

#LorettStation: 1.0.0 05.05.2024
#Station: LEX_Murmansk
#Location: 33.156738 lon 68.926811 lat
#TLE: 1 33591U 09005A   25015.14570653  .00000261  00000+0  16322-3 0  9994
#TLE: 2 33591  99.0196  78.9093 0014467  57.1425 303.1137 14.13259366821569

#Time	Az	El	Level	SNR
2025-01-15 14:02:49.766489	52.8	16.1	-88.1	5.0
2025-01-15 14:02:50.906138	52.6	16.2	-88.0	4.0
2025-01-15 14:02:52.053069	52.5	16.2	-88.0	4.5
2025-01-15 14:02:53.201135	52.3	16.3	-87.6	4.0
2025-01-15 14:02:54.346170	52.1	16.4	-87.5	3.5
2025-01-15 14:02:55.503614	51.9	16.5	-88.1	4.5
2025-01-15 14:02:56.645981	51.7	16.6	-87.5	2.5
2025-01-15 14:02:57.782591	51.5	16.7	-87.3	3.5
2025-01-15 14:02:58.924583	51.3	16.8	-87.4	6.9
2025-01-15 14:03:00.069086	51.1	16.8	-87.1	5.4
2025-01-15 14:03:01.212081	50.9	16.9	-87.2	5.8
2025-01-15 14:03:02.354596	50.8	17.0	-87.0	8.3
2025-01-15 14:03:03.503027	50.6	17.1	-87.5	4.8
2025-01-15 14:03:04.656760	50.4	17.2	-87.2	2.8
2025-01-15 14:03:05.805059	50.2	17.3	-87.0	3.0
2025-01-15 14:03:06.953961	50.0	17.4	-87.4	4.6
2025-01-15 14:03:08.097852	49.8	17.4	-86.0	4.8
2025-01-15 14:03:09.242298	49.6	17.5	-85.8	6.3
2025-01-15 14:03:10.392745	49.4	17.6	-85.8	5.0
2025-01-15 14:03:11.541782	49.2	17.7	-87.5	6.4
2025-01-15 14:03:12.693696	49.0	17.8	-87.5	5.0
2025-01-15 14:03:13.840105	48.7	17.9	-87.3	3.3
2025-01-15 14:03:14.990051	48.5	18.0	-87.9	5.0
2025-01-15 14:03:16.135448	48.3	18.0	-87.2	2.2
2025-01-15 14:03:17.288833	48.1	18.1	-87.7	3.8
2025-01-15 14:03:18.435701	47.9	18.2	-88.2	4.3
2025-01-15 14:03:19.586142	47.7	18.3	-87.8	4.3
2025-01-15 14:03:20.734489	47.5	18.4	-87.4	6.4
2025-01-15 14:03:21.879592	47.3	18.5	-87.6	6.9
2025-01-15 14:03:23.028677	47.1	18.6	-87.9	6.6
2025-01-15 14:03:24.171227	46.8	18.6	-87.5	5.0
2025-01-15 14:03:25.322595	46.6	18.7	-87.9	4.2
2025-01-15 14:03:26.476071	46.4	18.8	-87.5	5.8
2025-01-15 14:03:27.615085	46.2	18.9	-89.2	6.7
2025-01-15 14:03:28.761704	46.0	19.0	-88.8	1.0
2025-01-15 14:03:29.917859	45.7	19.1	-89.2	3.6
2025-01-15 14:03:31.062355	45.5	19.1	-88.7	6.7
2025-01-15 14:03:32.208249	45.3	19.2	-88.5	4.9
2025-01-15 14:03:33.355811	45.1	19.3	-88.7	6.7
2025-01-15 14:03:34.507007	44.8	19.4	-88.8	5.6
2025-01-15 14:03:35.653107	44.6	19.5	-88.8	3.9
2025-01-15 14:03:36.801435	44.4	19.6	-89.2	1.4
2025-01-15 14:03:37.951744	44.2	19.6	-88.4	1.8
2025-01-15 14:03:39.098834	43.9	19.7	-88.8	1.0
2025-01-15 14:03:40.251822	43.7	19.8	-89.0	0.7
2025-01-15 14:03:41.399328	43.5	19.9	-88.9	2.7
2025-01-15 14:03:42.544213	43.2	20.0	-89.1	2.0
2025-01-15 14:03:43.694038	43.0	20.0	-89.4	2.6
2025-01-15 14:03:44.841517	42.7	20.1	-88.9	7.4
2025-01-15 14:03:45.984767	42.5	20.2	-88.8	5.9
2025-01-15 14:03:47.130862	42.3	20.3	-89.0	7.6
2025-01-15 14:03:48.275052	42.0	20.4	-88.6	4.4
2025-01-15 14:03:49.422138	41.8	20.4	-88.1	5.3
2025-01-15 14:03:50.568317	41.5	20.5	-88.3	5.4
2025-01-15 14:03:51.714549	41.3	20.6	-88.6	0.7
2025-01-15 14:03:52.863836	41.0	20.7	-88.3	2.2
2025-01-15 14:03:54.011689	40.8	20.8	-87.9	6.1
2025-01-15 14:03:55.163639	40.5	20.8	-88.7	8.6
2025-01-15 14:03:56.313103	40.3	20.9	-89.0	7.5
2025-01-15 14:03:57.463754	40.0	21.0	-88.4	5.9
2025-01-15 14:03:58.611102	39.8	21.1	-89.0	9.4
2025-01-15 14:03:59.761258	39.5	21.2	-89.0	6.8
2025-01-15 14:04:00.908011	39.3	21.2	-88.9	2.7
2025-01-15 14:04:02.056884	39.0	21.3	-88.7	2.8
2025-01-15 14:04:03.207243	38.8	21.4	-89.4	1.5
2025-01-15 14:04:04.458794	38.5	21.5	-89.4	1.6
2025-01-15 14:04:05.608419	38.2	21.5	-89.5	0.2
2025-01-15 14:04:06.752632	38.0	21.6	-88.9	0.6
2025-01-15 14:04:07.902663	37.7	21.7	-89.1	2.6
2025-01-15 14:04:09.044743	37.4	21.8	-89.0	4.4
2025-01-15 14:04:10.191478	37.2	21.8	-88.8	5.3
2025-01-15 14:04:11.339164	36.9	21.9	-89.1	6.1
2025-01-15 14:04:12.477794	36.6	22.0	-89.0	8.4
2025-01-15 14:04:13.636474	36.3	22.0	-88.6	3.6
2025-01-15 14:04:14.781103	36.1	22.1	-88.5	4.8
2025-01-15 14:04:15.930586	35.8	22.2	-87.3	2.5
2025-01-15 14:04:17.081739	35.5	22.3	-88.6	2.5
2025-01-15 14:04:18.227431	35.3	22.3	-87.9	2.5
2025-01-15 14:04:19.378962	35.0	22.4	-88.6	2.7
2025-01-15 14:04:20.524835	34.7	22.5	-88.3	5.4
2025-01-15 14:04:21.668863	34.4	22.5	-88.4	2.3
2025-01-15 14:04:22.815665	34.1	22.6	-88.8	5.6
2025-01-15 14:04:23.966904	33.9	22.7	-89.4	8.3
2025-01-15 14:04:25.117248	33.6	22.7	-89.2	8.8
2025-01-15 14:04:26.265228	33.3	22.8	-88.9	6.8
2025-01-15 14:04:27.414407	33.0	22.9	-88.2	7.3
2025-01-15 14:04:28.560686	32.7	22.9	-88.9	6.2
2025-01-15 14:04:29.702284	32.4	23.0	-88.4	2.4
2025-01-15 14:04:30.852003	32.1	23.1	-89.3	1.6
2025-01-15 14:04:31.999607	31.9	23.1	-89.5	4.0
2025-01-15 14:04:33.145940	31.6	23.2	-89.0	0.9
2025-01-15 14:04:34.402925	31.3	23.2	-88.8	1.2
2025-01-15 14:04:35.547310	31.0	23.3	-88.3	1.7
2025-01-15 14:04:36.689305	30.7	23.4	-88.8	1.4
2025-01-15 14:04:37.836217	30.4	23.4	-89.1	3.6
2025-01-15 14:04:38.982676	30.1	23.5	-89.2	4.7
2025-01-15 14:04:40.125845	29.8	23.5	-89.0	7.2
2025-01-15 14:04:41.270658	29.5	23.6	-89.4	6.7
2025-01-15 14:04:42.421578	29.2	23.7	-89.2	10.2
2025-01-15 14:04:43.568895	28.9	23.7	-89.0	8.5
2025-01-15 14:04:44.719746	28.6	23.8	-88.9	5.9
2025-01-15 14:04:45.863448	28.3	23.8	-89.6	10.3
2025-01-15 14:04:47.005179	28.0	23.9	-89.1	11.0
2025-01-15 14:04:48.155373	27.7	23.9	-89.3	6.7
2025-01-15 14:04:49.302740	27.4	24.0	-89.2	2.2
2025-01-15 14:04:50.452752	27.1	24.0	-89.6	5.3
2025-01-15 14:04:51.600674	26.7	24.1	-89.4	5.1
2025-01-15 14:04:52.741351	26.4	24.1	-89.3	4.7
2025-01-15 14:04:53.895000	26.1	24.2	-89.4	3.3
2025-01-15 14:04:55.042268	25.8	24.2	-88.5	3.6
2025-01-15 14:04:56.191855	25.5	24.3	-88.9	6.3
2025-01-15 14:04:57.342806	25.2	24.3	-89.4	5.9
2025-01-15 14:04:58.489470	24.9	24.4	-88.9	4.2
2025-01-15 14:04:59.634424	24.6	24.4	-88.8	10.6
2025-01-15 14:05:00.779575	24.2	24.4	-89.0	7.2
2025-01-15 14:05:01.932802	23.9	24.5	-88.9	11.5
2025-01-15 14:05:03.077046	23.6	24.5	-90.0	9.1
2025-01-15 14:05:04.225265	23.3	24.6	-89.8	9.1
2025-01-15 14:05:05.374431	23.0	24.6	-90.0	8.3
2025-01-15 14:05:06.520936	22.7	24.7	-90.1	4.9
2025-01-15 14:05:07.670035	22.3	24.7	-89.5	4.1
2025-01-15 14:05:08.819664	22.0	24.7	-90.2	2.3
2025-01-15 14:05:09.971027	21.7	24.8	-89.9	3.5
2025-01-15 14:05:11.120077	21.4	24.8	-90.0	1.8
2025-01-15 14:05:12.264841	21.0	24.8	-90.1	3.8
2025-01-15 14:05:13.411425	20.7	24.9	-89.7	3.5
2025-01-15 14:05:14.558028	20.4	24.9	-90.3	2.4
2025-01-15 14:05:15.708295	20.1	24.9	-90.2	2.1
2025-01-15 14:05:16.857642	19.7	25.0	-90.0	2.4
2025-01-15 14:05:18.004583	19.4	25.0	-90.0	8.0
2025-01-15 14:05:19.149178	19.1	25.0	-89.9	6.4
2025-01-15 14:05:20.291326	18.8	25.0	-89.6	3.3
2025-01-15 14:05:21.440887	18.4	25.1	-90.1	3.0
2025-01-15 14:05:22.595963	18.1	25.1	-89.3	5.7
2025-01-15 14:05:23.742839	17.8	25.1	-89.9	3.4
2025-01-15 14:05:24.891190	17.5	25.1	-90.0	7.3
2025-01-15 14:05:26.041092	17.1	25.2	-88.1	5.5
2025-01-15 14:05:27.186917	16.8	25.2	-89.8	11.4
2025-01-15 14:05:28.334276	16.5	25.2	-90.0	6.0
2025-01-15 14:05:29.480639	16.1	25.2	-89.5	6.9
2025-01-15 14:05:30.630649	15.8	25.2	-89.6	7.2
2025-01-15 14:05:31.778021	15.5	25.3	-89.6	2.9
2025-01-15 14:05:32.925499	15.1	25.3	-89.5	4.7
2025-01-15 14:05:34.074970	14.8	25.3	-89.5	5.8
2025-01-15 14:05:35.224490	14.5	25.3	-89.5	3.1
2025-01-15 14:05:36.371622	14.1	25.3	-90.3	2.6
2025-01-15 14:05:37.519373	13.8	25.3	-89.9	5.5
2025-01-15 14:05:38.673984	13.5	25.3	-89.9	2.2
2025-01-15 14:05:39.814261	13.1	25.4	-90.1	1.7
2025-01-15 14:05:40.962702	12.8	25.4	-90.6	3.1
2025-01-15 14:05:42.111940	12.5	25.4	-89.9	4.0
2025-01-15 14:05:43.261807	12.1	25.4	-90.3	1.5
2025-01-15 14:05:44.414021	11.8	25.4	-90.4	1.2
2025-01-15 14:05:45.560197	11.5	25.4	-89.9	5.6
2025-01-15 14:05:46.708666	11.1	25.4	-90.0	1.6
2025-01-15 14:05:47.854300	10.8	25.4	-90.4	4.2
2025-01-15 14:05:48.995843	10.4	25.4	-89.9	2.2
2025-01-15 14:05:50.143199	10.1	25.4	-90.0	5.6
2025-01-15 14:05:51.291066	9.8	25.4	-90.1	1.7
2025-01-15 14:05:52.441973	9.4	25.4	-89.4	7.9
2025-01-15 14:05:53.587662	9.1	25.4	-89.5	2.2
2025-01-15 14:05:54.735716	8.8	25.4	-89.5	4.1
2025-01-15 14:05:55.891349	8.4	25.4	-89.5	6.8
2025-01-15 14:05:57.038470	8.1	25.4	-89.6	6.3
2025-01-15 14:05:58.185313	7.8	25.4	-89.3	5.6
2025-01-15 14:05:59.334068	7.4	25.4	-90.1	7.8
2025-01-15 14:06:00.479790	7.1	25.3	-90.5	5.1
2025-01-15 14:06:01.624988	6.8	25.3	-89.9	4.5
2025-01-15 14:06:02.772197	6.4	25.3	-90.1	5.7
2025-01-15 14:06:03.921823	6.1	25.3	-90.1	4.6
2025-01-15 14:06:05.066005	5.8	25.3	-90.0	2.5
2025-01-15 14:06:06.202678	5.4	25.3	-90.3	5.7
2025-01-15 14:06:07.324118	5.1	25.3	-90.2	5.0
2025-01-15 14:06:08.445081	4.8	25.2	-90.2	4.1
2025-01-15 14:06:09.565052	4.5	25.2	-90.0	5.9
2025-01-15 14:06:10.686143	4.1	25.2	-90.2	5.0
2025-01-15 14:06:11.807258	3.8	25.2	-90.3	4.6
2025-01-15 14:06:12.927449	3.5	25.2	-90.1	4.3
2025-01-15 14:06:14.048922	3.2	25.1	-90.2	2.2
2025-01-15 14:06:15.173630	2.8	25.1	-90.1	2.7
2025-01-15 14:06:16.304302	2.5	25.1	-89.9	3.2
2025-01-15 14:06:17.458723	2.2	25.1	-90.0	4.1
2025-01-15 14:06:18.603036	1.9	25.0	-89.9	4.9
2025-01-15 14:06:19.748700	1.5	25.0	-89.5	1.9
2025-01-15 14:06:20.891605	1.2	25.0	-89.1	4.1
2025-01-15 14:06:22.037352	0.9	25.0	-89.3	3.6
2025-01-15 14:06:23.183612	0.6	24.9	-89.2	1.0
2025-01-15 14:06:24.330130	0.2	24.9	-89.4	1.6
2025-01-15 14:06:25.479604	359.9	24.9	-89.4	4.0
2025-01-15 14:06:26.626791	359.6	24.8	-88.8	6.9
2025-01-15 14:06:27.772908	359.3	24.8	-90.1	1.6
2025-01-15 14:06:28.917912	358.9	24.8	-89.6	3.9
2025-01-15 14:06:30.059627	358.6	24.7	-89.7	2.4
2025-01-15 14:06:31.181018	358.3	24.7	-89.3	1.9
2025-01-15 14:06:32.325257	358.0	24.7	-89.3	2.6
2025-01-15 14:06:33.470233	357.7	24.6	-89.4	2.7
2025-01-15 14:06:34.610129	357.4	24.6	-90.1	7.2
2025-01-15 14:06:35.752082	357.0	24.5	-89.8	3.0
2025-01-15 14:06:36.895981	356.7	24.5	-90.0	2.7
2025-01-15 14:06:38.040870	356.4	24.5	-89.9	7.9
2025-01-15 14:06:39.188609	356.1	24.4	-89.2	2.3
2025-01-15 14:06:40.331705	355.8	24.4	-89.5	3.0
2025-01-15 14:06:41.484096	355.5	24.3	-90.2	4.1
2025-01-15 14:06:42.627566	355.2	24.3	-89.6	4.8
2025-01-15 14:06:43.774736	354.8	24.2	-90.0	2.4
2025-01-15 14:06:44.922976	354.5	24.2	-90.1	5.8
2025-01-15 14:06:46.067387	354.2	24.1	-89.9	2.5
2025-01-15 14:06:47.214006	353.9	24.1	-90.4	0.9
2025-01-15 14:06:48.360846	353.6	24.0	-90.0	3.5
2025-01-15 14:06:49.507447	353.3	24.0	-90.2	2.5
2025-01-15 14:06:50.659581	353.0	23.9	-89.6	6.6
2025-01-15 14:06:51.809280	352.7	23.9	-89.8	2.5
2025-01-15 14:06:52.955501	352.4	23.8	-89.5	3.2
2025-01-15 14:06:54.099175	352.1	23.8	-89.0	1.3
2025-01-15 14:06:55.243984	351.8	23.7	-89.6	1.3
2025-01-15 14:06:56.389169	351.5	23.7	-89.3	1.9
2025-01-15 14:06:57.536389	351.2	23.6	-89.5	1.8
2025-01-15 14:06:58.685786	350.9	23.6	-89.5	0.2
2025-01-15 14:06:59.829062	350.6	23.5	-89.1	0.0
2025-01-15 14:07:00.971906	350.3	23.4	-90.1	4.6
2025-01-15 14:07:02.126910	350.0	23.4	-90.0	3.6
2025-01-15 14:07:03.276184	349.7	23.3	-90.0	1.7
2025-01-15 14:07:04.418457	349.4	23.3	-90.4	2.4
2025-01-15 14:07:05.567082	349.1	23.2	-90.4	4.4
2025-01-15 14:07:06.714835	348.8	23.1	-89.9	1.7
2025-01-15 14:07:07.864037	348.5	23.1	-90.2	3.7
2025-01-15 14:07:09.013484	348.3	23.0	-90.2	1.1
2025-01-15 14:07:10.159018	348.0	23.0	-90.2	3.6
2025-01-15 14:07:11.320184	347.7	22.9	-90.0	4.6
2025-01-15 14:07:12.469944	347.4	22.8	-90.4	2.5
2025-01-15 14:07:13.612519	347.1	22.8	-90.0	2.4
2025-01-15 14:07:14.759364	346.8	22.7	-89.9	3.7
2025-01-15 14:07:15.906687	346.6	22.6	-89.2	2.6
2025-01-15 14:07:17.056066	346.3	22.6	-89.6	4.4
2025-01-15 14:07:18.200173	346.0	22.5	-89.4	0.5
2025-01-15 14:07:19.347948	345.7	22.4	-89.5	2.7
2025-01-15 14:07:20.492623	345.4	22.4	-89.5	5.9
2025-01-15 14:07:21.643065	345.2	22.3	-89.3	3.9
2025-01-15 14:07:22.790644	344.9	22.2	-90.2	3.7
2025-01-15 14:07:23.936677	344.6	22.1	-90.2	5.8
2025-01-15 14:07:25.080720	344.3	22.1	-90.1	4.7
2025-01-15 14:07:26.227939	344.1	22.0	-90.1	5.8
2025-01-15 14:07:27.371003	343.8	21.9	-90.4	4.1
2025-01-15 14:07:28.516267	343.5	21.9	-89.9	8.9
2025-01-15 14:07:29.657804	343.3	21.8	-89.9	10.7
2025-01-15 14:07:30.803726	343.0	21.7	-89.5	9.7
2025-01-15 14:07:31.947561	342.8	21.6	-90.2	8.0
2025-01-15 14:07:33.094713	342.5	21.6	-90.2	11.5
2025-01-15 14:07:34.241319	342.2	21.5	-90.4	5.9
2025-01-15 14:07:35.389011	342.0	21.4	-90.4	3.7
2025-01-15 14:07:36.540459	341.7	21.3	-90.4	0.9
2025-01-15 14:07:37.683904	341.5	21.3	-90.0	4.6
2025-01-15 14:07:38.834699	341.2	21.2	-90.3	5.6
2025-01-15 14:07:39.977588	340.9	21.1	-90.6	5.9
2025-01-15 14:07:41.125920	340.7	21.0	-90.1	5.4
2025-01-15 14:07:42.274162	340.4	21.0	-90.0	3.4
2025-01-15 14:07:43.422789	340.2	20.9	-90.7	6.5
2025-01-15 14:07:44.569179	339.9	20.8	-90.0	4.2
2025-01-15 14:07:45.712937	339.7	20.7	-90.2	3.2
2025-01-15 14:07:46.863385	339.4	20.7	-90.5	4.2
2025-01-15 14:07:48.009595	339.2	20.6	-90.2	2.3
2025-01-15 14:07:49.153818	339.0	20.5	-89.9	2.9
2025-01-15 14:07:50.301794	338.7	20.4	-90.3	2.7
2025-01-15 14:07:51.447381	338.5	20.3	-90.0	2.3
2025-01-15 14:07:52.591277	338.2	20.3	-90.5	2.2
2025-01-15 14:07:53.740343	338.0	20.2	-90.5	1.1
2025-01-15 14:07:54.888334	337.7	20.1	-90.1	3.8
2025-01-15 14:07:56.038550	337.5	20.0	-90.3	1.9
2025-01-15 14:07:57.184128	337.3	19.9	-90.2	0.7
2025-01-15 14:07:58.334948	337.0	19.9	-89.8	1.8
2025-01-15 14:07:59.485390	336.8	19.8	-90.0	1.5
2025-01-15 14:08:00.630024	336.6	19.7	-90.2	0.9
2025-01-15 14:08:01.777897	336.3	19.6	-90.1	0.9
2025-01-15 14:08:02.927781	336.1	19.5	-90.1	2.5
2025-01-15 14:08:04.076078	335.9	19.4	-89.5	3.8
2025-01-15 14:08:05.221367	335.7	19.4	-89.8	1.7
2025-01-15 14:08:06.366655	335.4	19.3	-89.6	1.7
2025-01-15 14:08:07.514842	335.2	19.2	-90.1	3.3
2025-01-15 14:08:08.656254	335.0	19.1	-90.4	2.8
2025-01-15 14:08:09.798399	334.8	19.0	-90.0	3.7
2025-01-15 14:08:10.944897	334.5	18.9	-90.1	4.0
2025-01-15 14:08:12.091023	334.3	18.9	-90.4	2.8
2025-01-15 14:08:13.238060	334.1	18.8	-90.1	2.6
2025-01-15 14:08:14.382406	333.9	18.7	-90.2	4.2
2025-01-15 14:08:15.529854	333.7	18.6	-90.6	1.3
2025-01-15 14:08:16.677692	333.5	18.5	-90.1	2.0
2025-01-15 14:08:17.823277	333.2	18.4	-90.1	1.3
2025-01-15 14:08:18.972160	333.0	18.4	-90.3	1.4
2025-01-15 14:08:20.118780	332.8	18.3	-90.2	3.7
2025-01-15 14:08:21.267641	332.6	18.2	-90.3	0.1
2025-01-15 14:08:22.416194	332.4	18.1	-90.6	2.9
2025-01-15 14:08:23.562646	332.2	18.0	-89.1	2.4
2025-01-15 14:08:24.710284	332.0	17.9	-90.1	2.3
2025-01-15 14:08:25.855977	331.8	17.9	-90.4	1.8
2025-01-15 14:08:27.004182	331.6	17.8	-90.2	1.2
2025-01-15 14:08:28.153831	331.4	17.7	-89.6	0.2
2025-01-15 14:08:29.406057	331.2	17.6	-89.5	1.3
2025-01-15 14:08:30.557035	331.0	17.5	-90.4	0.5
2025-01-15 14:08:31.702644	330.8	17.4	-90.1	1.1
2025-01-15 14:08:32.848808	330.6	17.3	-90.1	1.0
2025-01-15 14:08:33.991442	330.4	17.2	-90.5	2.2
2025-01-15 14:08:35.146779	330.2	17.2	-90.3	1.9
2025-01-15 14:08:36.290474	330.0	17.1	-90.2	1.0
2025-01-15 14:08:37.437614	329.8	17.0	-90.3	1.2
2025-01-15 14:08:38.591885	329.6	16.9	-90.1	0.4
2025-01-15 14:08:39.735944	329.4	16.8	-90.0	2.2
2025-01-15 14:08:40.887034	329.2	16.7	-90.1	1.6
2025-01-15 14:08:42.027824	329.0	16.6	-89.8	3.5
2025-01-15 14:08:43.178501	328.8	16.6	-89.7	4.9
2025-01-15 14:08:44.328489	328.6	16.5	-90.1	1.8
2025-01-15 14:08:45.478134	328.5	16.4	-90.0	1.6
2025-01-15 14:08:46.629026	328.3	16.3	-89.9	2.6
2025-01-15 14:08:47.884206	328.1	16.2	-90.5	2.2
2025-01-15 14:08:49.029151	327.9	16.1	-89.6	2.2
2025-01-15 14:08:50.172768	327.7	16.0	-89.8	2.0
2025-01-15 14:08:51.325226	327.5	15.9	-89.8	2.6
2025-01-15 14:08:52.476207	327.3	15.9	-89.0	1.0
2025-01-15 14:08:53.621489	327.2	15.8	-89.5	2.0
2025-01-15 14:08:54.771187	327.0	15.7	-88.4	2.8
2025-01-15 14:08:55.918813	326.8	15.6	-87.8	4.0
2025-01-15 14:08:57.066409	326.6	15.5	-89.2	1.7
2025-01-15 14:08:58.214152	326.5	15.4	-89.3	4.5
2025-01-15 14:08:59.361097	326.3	15.3	-89.5	7.1
2025-01-15 14:09:00.508588	326.1	15.3	-89.7	3.7
2025-01-15 14:09:01.654620	325.9	15.2	-89.5	2.4
2025-01-15 14:09:02.797955	325.8	15.1	-89.6	2.1
2025-01-15 14:09:03.949250	325.6	15.0	-90.3	4.3
2025-01-15 14:09:05.099865	325.4	14.9	-89.8	1.6
2025-01-15 14:09:06.248172	325.3	14.8	-90.2	2.7
2025-01-15 14:09:07.395171	325.1	14.7	-90.2	1.9
2025-01-15 14:09:08.543651	324.9	14.7	-90.0	2.7
#Closed at: 2025-01-15 14:02:40.579827