passes_logs/2025/01/15/LEX_Murmansk/LEX_Murmansk__20250115_104241_NOAA_19_rec.log

#Pass ID: 20250115_104241_NOAA 19
#Satellite: NOAA 19
#Configuration: NOAA 19
#Start time: 2025-01-15 10:42:36.660668

#LorettStation: 1.0.0 05.05.2024
#Station: LEX_Murmansk
#Location: 33.156738 lon 68.926811 lat
#TLE: 1 33591U 09005A   25014.15453959  .00000276  00000+0  17122-3 0  9998
#TLE: 2 33591  99.0198  77.9105 0014501  59.8090 300.4516 14.13258688821422

#Time	Az	El	Level	SNR
2025-01-15 10:42:48.757407	23.6	16.2	-91.0	3.0
2025-01-15 10:42:49.900586	23.5	16.3	-90.7	3.2
2025-01-15 10:42:51.048701	23.4	16.4	-91.0	1.7
2025-01-15 10:42:52.196028	23.2	16.5	-90.9	1.1
2025-01-15 10:42:53.342550	23.1	16.6	-90.8	1.8
2025-01-15 10:42:54.494403	23.0	16.7	-90.8	3.0
2025-01-15 10:42:55.637911	22.9	16.9	-91.1	6.3
2025-01-15 10:42:56.785478	22.8	17.0	-90.8	3.4
2025-01-15 10:42:57.936719	22.6	17.1	-91.0	1.5
2025-01-15 10:42:59.086795	22.5	17.2	-91.1	7.7
2025-01-15 10:43:00.241914	22.4	17.3	-91.0	7.6
2025-01-15 10:43:01.392733	22.3	17.4	-90.9	9.8
2025-01-15 10:43:02.536235	22.2	17.6	-90.8	5.2
2025-01-15 10:43:03.682790	22.0	17.7	-91.2	4.1
2025-01-15 10:43:04.824184	21.9	17.8	-91.2	1.7
2025-01-15 10:43:05.969210	21.8	17.9	-91.1	3.5
2025-01-15 10:43:07.117156	21.6	18.0	-90.7	2.2
2025-01-15 10:43:08.265910	21.5	18.2	-91.1	4.5
2025-01-15 10:43:09.410663	21.4	18.3	-91.0	7.0
2025-01-15 10:43:10.560207	21.2	18.4	-91.1	7.3
2025-01-15 10:43:11.704642	21.1	18.5	-90.9	7.7
2025-01-15 10:43:12.854372	21.0	18.6	-90.9	6.0
2025-01-15 10:43:13.999469	20.8	18.8	-90.9	7.3
2025-01-15 10:43:15.146694	20.7	18.9	-91.0	5.0
2025-01-15 10:43:16.298235	20.6	19.0	-90.8	4.5
2025-01-15 10:43:17.443827	20.4	19.1	-90.7	7.6
2025-01-15 10:43:18.595026	20.3	19.2	-91.1	8.4
2025-01-15 10:43:19.719440	20.2	19.4	-91.0	4.5
2025-01-15 10:43:20.864337	20.0	19.5	-91.2	4.6
2025-01-15 10:43:22.012597	19.9	19.6	-90.9	5.4
2025-01-15 10:43:23.156866	19.7	19.7	-91.1	4.5
2025-01-15 10:43:24.311156	19.6	19.9	-91.1	2.4
2025-01-15 10:43:25.455485	19.4	20.0	-90.9	3.4
2025-01-15 10:43:26.600892	19.3	20.1	-91.1	5.6
2025-01-15 10:43:27.748527	19.1	20.2	-91.3	3.5
2025-01-15 10:43:28.897025	19.0	20.4	-90.9	3.6
2025-01-15 10:43:30.046240	18.8	20.5	-90.8	8.5
2025-01-15 10:43:31.193570	18.7	20.6	-90.9	6.7
2025-01-15 10:43:32.339219	18.5	20.8	-90.9	3.3
2025-01-15 10:43:33.494232	18.4	20.9	-91.1	6.7
2025-01-15 10:43:34.641211	18.2	21.0	-91.2	7.4
2025-01-15 10:43:35.787075	18.0	21.2	-91.3	12.5
2025-01-15 10:43:36.941162	17.9	21.3	-91.4	10.8
2025-01-15 10:43:38.101332	17.7	21.4	-91.2	7.8
2025-01-15 10:43:39.254870	17.6	21.5	-90.8	5.2
2025-01-15 10:43:40.403810	17.4	21.7	-91.1	3.8
2025-01-15 10:43:41.552720	17.2	21.8	-91.4	3.4
2025-01-15 10:43:42.700603	17.1	21.9	-90.8	3.2
2025-01-15 10:43:43.844893	16.9	22.1	-91.0	1.9
2025-01-15 10:43:44.996483	16.7	22.2	-91.2	6.6
2025-01-15 10:43:46.145823	16.6	22.3	-91.2	7.4
2025-01-15 10:43:47.291334	16.4	22.5	-91.1	8.5
2025-01-15 10:43:48.445286	16.2	22.6	-91.1	8.0
2025-01-15 10:43:49.584952	16.0	22.7	-91.0	7.9
2025-01-15 10:43:50.730154	15.9	22.9	-90.9	3.9
2025-01-15 10:43:51.883311	15.7	23.0	-91.0	5.6
2025-01-15 10:43:53.028445	15.5	23.2	-91.0	8.3
2025-01-15 10:43:54.175214	15.3	23.3	-91.0	8.0
2025-01-15 10:43:55.320484	15.1	23.4	-90.9	8.4
2025-01-15 10:43:56.472957	14.9	23.6	-91.0	10.4
2025-01-15 10:43:57.622805	14.7	23.7	-91.0	5.9
2025-01-15 10:43:58.764788	14.6	23.8	-91.0	2.9
2025-01-15 10:43:59.913702	14.4	24.0	-91.3	3.2
2025-01-15 10:44:01.062322	14.2	24.1	-91.3	2.6
2025-01-15 10:44:02.209221	14.0	24.3	-91.1	2.6
2025-01-15 10:44:03.361163	13.8	24.4	-91.3	4.7
2025-01-15 10:44:04.511227	13.6	24.5	-91.6	4.7
2025-01-15 10:44:05.662812	13.4	24.7	-91.4	8.5
2025-01-15 10:44:06.811905	13.2	24.8	-91.1	9.6
2025-01-15 10:44:07.960602	13.0	25.0	-91.0	10.4
2025-01-15 10:44:09.105172	12.8	25.1	-91.1	5.6
2025-01-15 10:44:10.255047	12.6	25.2	-91.2	2.7
2025-01-15 10:44:11.407308	12.4	25.4	-91.3	4.6
2025-01-15 10:44:12.555784	12.1	25.5	-91.4	3.8
2025-01-15 10:44:13.705932	11.9	25.7	-91.2	5.6
2025-01-15 10:44:14.853852	11.7	25.8	-91.5	6.9
2025-01-15 10:44:16.008007	11.5	26.0	-91.1	6.1
2025-01-15 10:44:17.157482	11.3	26.1	-91.1	4.6
2025-01-15 10:44:18.306123	11.1	26.3	-91.0	3.7
2025-01-15 10:44:19.455947	10.8	26.4	-91.1	2.5
2025-01-15 10:44:20.605830	10.6	26.5	-91.3	2.3
2025-01-15 10:44:21.756148	10.4	26.7	-90.9	2.5
2025-01-15 10:44:22.898441	10.2	26.8	-91.3	3.9
2025-01-15 10:44:24.048693	9.9	27.0	-91.5	7.1
2025-01-15 10:44:25.199665	9.7	27.1	-91.0	7.2
2025-01-15 10:44:26.348468	9.5	27.3	-91.3	11.8
2025-01-15 10:44:27.506916	9.2	27.4	-91.2	11.8
2025-01-15 10:44:28.656262	9.0	27.6	-91.3	11.2
2025-01-15 10:44:29.802976	8.7	27.7	-90.9	4.1
2025-01-15 10:44:30.949356	8.5	27.9	-91.3	7.7
2025-01-15 10:44:32.104106	8.2	28.0	-91.3	6.8
2025-01-15 10:44:33.252470	8.0	28.1	-91.3	4.2
2025-01-15 10:44:34.408575	7.7	28.3	-91.4	9.5
2025-01-15 10:44:35.560266	7.5	28.4	-91.2	4.9
2025-01-15 10:44:36.710958	7.2	28.6	-90.9	3.3
2025-01-15 10:44:37.861544	7.0	28.7	-91.1	4.9
2025-01-15 10:44:39.008557	6.7	28.9	-91.2	3.5
2025-01-15 10:44:40.156754	6.4	29.0	-90.9	3.0
2025-01-15 10:44:41.296170	6.2	29.2	-91.0	2.7
2025-01-15 10:44:42.443617	5.9	29.3	-91.4	2.7
2025-01-15 10:44:43.590781	5.6	29.5	-91.2	2.1
2025-01-15 10:44:44.739760	5.4	29.6	-91.1	5.0
2025-01-15 10:44:45.890542	5.1	29.8	-91.4	3.9
2025-01-15 10:44:47.044663	4.8	29.9	-91.1	10.4
2025-01-15 10:44:48.191913	4.5	30.1	-91.1	7.2
2025-01-15 10:44:49.339401	4.2	30.2	-90.9	6.0
2025-01-15 10:44:50.486813	4.0	30.4	-91.2	6.1
2025-01-15 10:44:51.637526	3.7	30.5	-91.3	3.2
2025-01-15 10:44:52.784664	3.4	30.7	-91.0	4.3
2025-01-15 10:44:53.934149	3.1	30.8	-91.1	4.0
2025-01-15 10:44:55.095771	2.8	31.0	-91.1	6.7
2025-01-15 10:44:56.241026	2.5	31.1	-91.0	4.9
2025-01-15 10:44:57.388324	2.2	31.3	-90.9	10.3
2025-01-15 10:44:58.538215	1.9	31.4	-91.2	6.4
2025-01-15 10:44:59.690318	1.6	31.6	-91.4	5.6
2025-01-15 10:45:00.833821	1.3	31.7	-91.1	4.5
2025-01-15 10:45:01.981823	0.9	31.8	-91.2	4.9
2025-01-15 10:45:03.130975	0.6	32.0	-91.4	5.5
2025-01-15 10:45:04.270767	0.3	32.1	-91.1	1.5
2025-01-15 10:45:05.419235	360.0	32.3	-91.2	3.5
2025-01-15 10:45:06.566107	359.7	32.4	-91.4	1.8
2025-01-15 10:45:07.711806	359.3	32.6	-91.7	4.4
2025-01-15 10:45:08.860687	359.0	32.7	-91.4	6.5
2025-01-15 10:45:10.004724	358.7	32.9	-91.5	8.6
2025-01-15 10:45:11.138545	358.3	33.0	-91.0	10.1
2025-01-15 10:45:12.258793	358.0	33.1	-91.2	10.5
2025-01-15 10:45:13.379985	357.7	33.3	-91.1	9.5
2025-01-15 10:45:14.500657	357.3	33.4	-91.4	4.5
2025-01-15 10:45:15.622242	357.0	33.6	-91.4	8.8
2025-01-15 10:45:16.741669	356.6	33.7	-91.4	4.1
2025-01-15 10:45:17.862150	356.3	33.8	-91.2	3.3
2025-01-15 10:45:18.982840	355.9	34.0	-91.2	8.8
2025-01-15 10:45:20.115681	355.6	34.1	-91.2	9.8
2025-01-15 10:45:21.247598	355.2	34.2	-91.3	12.3
2025-01-15 10:45:22.380271	354.9	34.4	-91.2	8.1
2025-01-15 10:45:23.529671	354.5	34.5	-91.1	15.3
2025-01-15 10:45:24.677663	354.1	34.7	-91.2	8.7
2025-01-15 10:45:25.825661	353.7	34.8	-91.5	4.7
2025-01-15 10:45:26.974535	353.4	34.9	-91.2	3.7
2025-01-15 10:45:28.122271	353.0	35.1	-91.2	6.1
2025-01-15 10:45:29.276195	352.6	35.2	-91.0	1.9
2025-01-15 10:45:30.427670	352.2	35.3	-90.6	4.1
2025-01-15 10:45:31.577810	351.8	35.5	-90.6	4.7
2025-01-15 10:45:32.734449	351.4	35.6	-91.0	4.0
2025-01-15 10:45:33.883584	351.0	35.7	-91.1	5.3
2025-01-15 10:45:35.030531	350.6	35.8	-90.4	6.8
2025-01-15 10:45:36.177330	350.2	36.0	-91.1	9.6
2025-01-15 10:45:37.326342	349.8	36.1	-91.2	12.4
2025-01-15 10:45:38.470589	349.4	36.2	-91.2	9.5
2025-01-15 10:45:39.617432	349.0	36.3	-91.1	13.1
2025-01-15 10:45:40.767996	348.6	36.5	-91.1	11.3
2025-01-15 10:45:41.918299	348.1	36.6	-91.0	6.5
2025-01-15 10:45:43.071126	347.7	36.7	-90.9	10.7
2025-01-15 10:45:44.225115	347.3	36.8	-90.5	4.9
2025-01-15 10:45:45.375614	346.8	36.9	-90.9	4.9
2025-01-15 10:45:46.524558	346.4	37.0	-90.8	6.8
2025-01-15 10:45:47.672969	346.0	37.2	-90.7	7.0
2025-01-15 10:45:48.825583	345.5	37.3	-90.5	7.7
2025-01-15 10:45:49.972095	345.1	37.4	-90.7	12.9
2025-01-15 10:45:51.129369	344.6	37.5	-90.9	14.4
2025-01-15 10:45:52.278929	344.2	37.6	-90.9	16.5
2025-01-15 10:45:53.425088	343.7	37.7	-91.4	15.9
2025-01-15 10:45:54.573194	343.3	37.8	-91.1	16.7
2025-01-15 10:45:55.715516	342.8	37.9	-91.5	11.2
2025-01-15 10:45:56.863869	342.4	38.0	-91.2	11.9
2025-01-15 10:45:58.016680	341.9	38.1	-91.0	9.7
2025-01-15 10:45:59.160602	341.4	38.2	-91.1	6.4
2025-01-15 10:46:00.303004	341.0	38.3	-91.2	4.4
2025-01-15 10:46:01.450392	340.5	38.4	-90.9	3.8
2025-01-15 10:46:02.577682	340.0	38.5	-91.2	6.4
2025-01-15 10:46:03.716820	339.6	38.6	-91.2	2.7
2025-01-15 10:46:04.856676	339.1	38.7	-91.0	6.4
2025-01-15 10:46:06.010682	338.6	38.7	-91.1	4.4
2025-01-15 10:46:07.157110	338.1	38.8	-91.1	9.1
2025-01-15 10:46:08.306971	337.6	38.9	-90.8	10.1
2025-01-15 10:46:09.455835	337.2	39.0	-91.0	13.7
2025-01-15 10:46:10.624265	336.7	39.1	-91.1	14.9
2025-01-15 10:46:11.768480	336.2	39.1	-90.8	12.9
2025-01-15 10:46:12.922735	335.7	39.2	-91.1	12.1
2025-01-15 10:46:14.074093	335.2	39.3	-91.1	13.6
2025-01-15 10:46:15.227769	334.7	39.3	-91.0	13.5
2025-01-15 10:46:16.377087	334.2	39.4	-91.3	13.0
2025-01-15 10:46:17.529031	333.7	39.5	-90.7	9.2
2025-01-15 10:46:18.678970	333.2	39.5	-90.9	9.7
2025-01-15 10:46:19.820133	332.7	39.6	-91.2	6.2
2025-01-15 10:46:20.960111	332.1	39.6	-91.1	9.5
2025-01-15 10:46:22.081473	331.6	39.7	-91.1	9.6
2025-01-15 10:46:23.202633	331.1	39.7	-90.9	6.0
2025-01-15 10:46:24.322349	330.6	39.8	-91.0	5.0
2025-01-15 10:46:25.443327	330.1	39.8	-91.2	6.5
2025-01-15 10:46:26.563855	329.6	39.9	-90.4	8.5
2025-01-15 10:46:27.685032	329.1	39.9	-90.4	5.3
2025-01-15 10:46:28.806205	328.6	39.9	-90.2	5.1
2025-01-15 10:46:29.935027	328.1	40.0	-90.6	8.2
2025-01-15 10:46:31.061973	327.6	40.0	-90.1	10.0
2025-01-15 10:46:32.184256	327.1	40.0	-90.5	8.5
2025-01-15 10:46:33.304860	326.6	40.0	-90.4	10.2
2025-01-15 10:46:34.430034	326.1	40.1	-90.5	13.4
2025-01-15 10:46:35.551829	325.6	40.1	-90.9	12.2
2025-01-15 10:46:36.674824	325.0	40.1	-90.3	14.8
2025-01-15 10:46:37.794749	324.5	40.1	-90.3	15.6
2025-01-15 10:46:38.916147	324.0	40.1	-90.9	16.3
2025-01-15 10:46:40.039829	323.5	40.1	-91.1	12.6
2025-01-15 10:46:41.160444	323.0	40.1	-91.0	13.5
2025-01-15 10:46:42.283820	322.5	40.2	-91.2	10.9
2025-01-15 10:46:43.404256	322.0	40.2	-90.4	10.1
2025-01-15 10:46:44.526289	321.4	40.2	-90.4	11.2
2025-01-15 10:46:45.650153	320.9	40.2	-89.8	10.4
2025-01-15 10:46:46.773887	320.4	40.1	-90.2	7.8
2025-01-15 10:46:47.899302	319.9	40.1	-90.4	10.8
2025-01-15 10:46:49.023186	319.4	40.1	-90.3	7.8
2025-01-15 10:46:50.145583	318.9	40.1	-90.1	8.2
2025-01-15 10:46:51.270154	318.4	40.1	-90.3	5.8
2025-01-15 10:46:52.391606	317.8	40.1	-90.5	8.1
2025-01-15 10:46:53.513394	317.3	40.1	-90.9	7.6
2025-01-15 10:46:54.635416	316.8	40.0	-90.7	7.4
2025-01-15 10:46:55.757963	316.3	40.0	-90.5	4.9
2025-01-15 10:46:56.879439	315.8	40.0	-91.4	7.7
2025-01-15 10:46:58.001161	315.3	39.9	-91.1	5.8
2025-01-15 10:46:59.125183	314.8	39.9	-90.4	8.3
2025-01-15 10:47:00.248070	314.3	39.9	-90.4	3.6
2025-01-15 10:47:01.369939	313.8	39.8	-90.4	5.1
2025-01-15 10:47:02.490608	313.3	39.8	-90.8	3.8
2025-01-15 10:47:03.612449	312.8	39.7	-90.6	7.6
2025-01-15 10:47:04.734204	312.3	39.7	-90.7	3.2
2025-01-15 10:47:05.855248	311.8	39.6	-90.8	5.4
2025-01-15 10:47:06.981149	311.3	39.6	-91.2	6.5
2025-01-15 10:47:08.104421	310.8	39.5	-90.1	5.6
2025-01-15 10:47:09.226966	310.3	39.5	-90.0	2.9
2025-01-15 10:47:10.348774	309.8	39.4	-90.4	3.4
2025-01-15 10:47:11.469470	309.3	39.4	-90.3	3.3
2025-01-15 10:47:12.591009	308.8	39.3	-90.3	5.5
2025-01-15 10:47:13.713718	308.3	39.2	-90.5	4.1
2025-01-15 10:47:14.835910	307.8	39.2	-90.3	2.4
2025-01-15 10:47:15.958652	307.4	39.1	-90.1	4.3
2025-01-15 10:47:17.079865	306.9	39.0	-90.3	4.1
2025-01-15 10:47:18.200519	306.4	39.0	-90.0	3.0
2025-01-15 10:47:19.325663	305.9	38.9	-90.2	3.5
2025-01-15 10:47:20.457341	305.4	38.8	-90.5	6.5
2025-01-15 10:47:21.578059	305.0	38.7	-90.8	7.3
2025-01-15 10:47:22.701077	304.5	38.6	-91.4	6.1
2025-01-15 10:47:23.822822	304.0	38.5	-91.2	4.9
2025-01-15 10:47:24.942916	303.6	38.5	-91.2	4.3
2025-01-15 10:47:26.065233	303.1	38.4	-91.1	6.0
2025-01-15 10:47:27.187356	302.6	38.3	-91.2	5.9
2025-01-15 10:47:28.309281	302.2	38.2	-90.9	4.2
2025-01-15 10:47:29.431426	301.7	38.1	-91.1	6.5
2025-01-15 10:47:30.553654	301.3	38.0	-91.0	5.7
2025-01-15 10:47:31.674904	300.8	37.9	-91.0	5.0
2025-01-15 10:47:32.803266	300.4	37.8	-91.3	3.8
2025-01-15 10:47:33.933862	299.9	37.7	-91.5	4.6
2025-01-15 10:47:35.054923	299.5	37.6	-91.3	6.8
2025-01-15 10:47:36.182202	299.1	37.5	-91.1	4.2
2025-01-15 10:47:37.304325	298.6	37.4	-91.3	5.1
2025-01-15 10:47:38.430314	298.2	37.3	-91.4	5.0
2025-01-15 10:47:39.552506	297.8	37.2	-91.4	6.3
2025-01-15 10:47:40.673613	297.3	37.1	-91.4	5.4
2025-01-15 10:47:41.797434	296.9	36.9	-91.3	4.2
2025-01-15 10:47:42.918755	296.5	36.8	-91.3	4.9
2025-01-15 10:47:44.041676	296.1	36.7	-91.0	3.7
2025-01-15 10:47:45.162698	295.7	36.6	-91.1	2.8
2025-01-15 10:47:46.287261	295.2	36.5	-90.9	3.4
2025-01-15 10:47:47.409173	294.8	36.4	-91.1	3.5
2025-01-15 10:47:48.531263	294.4	36.2	-91.3	5.4
2025-01-15 10:47:49.655033	294.0	36.1	-91.1	3.7
2025-01-15 10:47:50.776154	293.6	36.0	-91.4	5.3
2025-01-15 10:47:51.897539	293.2	35.9	-91.0	5.2
2025-01-15 10:47:53.019013	292.8	35.8	-91.0	5.1
2025-01-15 10:47:54.140770	292.4	35.6	-91.2	7.0
2025-01-15 10:47:55.263399	292.1	35.5	-91.0	4.5
2025-01-15 10:47:56.384907	291.7	35.4	-91.0	4.7
2025-01-15 10:47:57.507174	291.3	35.2	-90.5	6.1
2025-01-15 10:47:58.629947	290.9	35.1	-90.6	8.2
2025-01-15 10:47:59.765213	290.5	35.0	-90.7	4.6
2025-01-15 10:48:00.915186	290.1	34.9	-91.2	6.7
2025-01-15 10:48:02.060222	289.8	34.7	-90.0	4.6
2025-01-15 10:48:03.208542	289.4	34.6	-90.6	4.2
2025-01-15 10:48:04.329633	289.0	34.5	-90.0	7.0
2025-01-15 10:48:05.450972	288.7	34.3	-91.2	3.9
2025-01-15 10:48:06.572709	288.3	34.2	-91.4	10.4
2025-01-15 10:48:07.695548	288.0	34.0	-91.3	5.8
2025-01-15 10:48:08.815747	287.6	33.9	-91.0	5.0
2025-01-15 10:48:09.936519	287.3	33.8	-91.0	5.3
2025-01-15 10:48:11.058523	286.9	33.6	-91.0	7.5
2025-01-15 10:48:12.179537	286.6	33.5	-91.1	5.4
2025-01-15 10:48:13.324026	286.2	33.4	-91.0	5.6
2025-01-15 10:48:14.474247	285.9	33.2	-91.4	6.5
2025-01-15 10:48:15.621884	285.5	33.1	-91.0	7.7
2025-01-15 10:48:16.768903	285.2	32.9	-91.2	5.0
2025-01-15 10:48:17.922898	284.9	32.8	-91.2	6.7
2025-01-15 10:48:19.074127	284.5	32.6	-91.2	5.8
2025-01-15 10:48:20.221716	284.2	32.5	-90.9	2.9
2025-01-15 10:48:21.366614	283.9	32.4	-91.0	3.6
2025-01-15 10:48:22.514921	283.5	32.2	-91.4	1.4
2025-01-15 10:48:23.665867	283.2	32.1	-91.3	4.1
2025-01-15 10:48:24.819604	282.9	31.9	-91.0	3.2
2025-01-15 10:48:25.982355	282.6	31.8	-91.1	3.0
2025-01-15 10:48:27.137737	282.3	31.6	-91.2	3.1
2025-01-15 10:48:28.288495	282.0	31.5	-91.0	2.7
2025-01-15 10:48:29.433316	281.7	31.3	-91.3	3.8
2025-01-15 10:48:30.582066	281.4	31.2	-91.4	2.5
2025-01-15 10:48:31.722440	281.1	31.0	-91.2	3.0
2025-01-15 10:48:32.863892	280.8	30.9	-91.2	3.8
2025-01-15 10:48:34.016708	280.5	30.7	-91.4	4.1
2025-01-15 10:48:35.160322	280.2	30.6	-91.2	4.4
2025-01-15 10:48:36.304175	279.9	30.4	-91.3	2.6
2025-01-15 10:48:37.454149	279.6	30.3	-91.3	3.4
2025-01-15 10:48:38.604438	279.3	30.1	-91.3	7.8
2025-01-15 10:48:39.753629	279.0	30.0	-91.3	9.1
2025-01-15 10:48:40.894148	278.7	29.8	-91.1	7.2
2025-01-15 10:48:42.041611	278.5	29.7	-91.4	4.3
2025-01-15 10:48:43.185297	278.2	29.6	-91.4	2.1
2025-01-15 10:48:44.330322	277.9	29.4	-90.7	5.0
2025-01-15 10:48:45.476574	277.7	29.3	-91.3	7.6
2025-01-15 10:48:46.622885	277.4	29.1	-91.4	5.6
2025-01-15 10:48:47.781360	277.1	29.0	-91.3	7.3
2025-01-15 10:48:48.927016	276.9	28.8	-91.0	2.3
2025-01-15 10:48:50.075493	276.6	28.7	-91.1	6.9
2025-01-15 10:48:51.225238	276.3	28.5	-91.0	3.8
2025-01-15 10:48:52.370809	276.1	28.4	-90.8	4.0
2025-01-15 10:48:53.520201	275.8	28.2	-91.2	5.0
2025-01-15 10:48:54.672006	275.6	28.1	-91.3	3.1
2025-01-15 10:48:55.833901	275.3	27.9	-91.2	3.4
2025-01-15 10:48:56.982610	275.1	27.8	-91.3	3.5
2025-01-15 10:48:58.134163	274.8	27.6	-90.8	3.8
2025-01-15 10:48:59.279749	274.6	27.5	-90.7	2.9
2025-01-15 10:49:00.428401	274.4	27.3	-91.1	4.7
2025-01-15 10:49:01.578706	274.1	27.2	-91.1	4.7
2025-01-15 10:49:02.728925	273.9	27.1	-90.9	3.1
2025-01-15 10:49:03.878726	273.7	26.9	-91.1	5.0
2025-01-15 10:49:05.029268	273.4	26.8	-91.2	6.1
2025-01-15 10:49:06.183171	273.2	26.6	-91.1	9.6
2025-01-15 10:49:07.328266	273.0	26.5	-91.1	6.3
2025-01-15 10:49:08.480630	272.8	26.3	-91.0	7.6
2025-01-15 10:49:09.623924	272.5	26.2	-91.3	12.8
2025-01-15 10:49:10.773231	272.3	26.0	-91.4	9.2
2025-01-15 10:49:11.922727	272.1	25.9	-91.1	13.5
2025-01-15 10:49:13.073173	271.9	25.7	-91.1	6.1
2025-01-15 10:49:14.221092	271.7	25.6	-91.2	11.0
2025-01-15 10:49:15.367523	271.4	25.5	-91.0	8.0
2025-01-15 10:49:16.514751	271.2	25.3	-91.3	9.8
2025-01-15 10:49:17.659881	271.0	25.2	-91.2	7.9
2025-01-15 10:49:18.807350	270.8	25.0	-91.1	4.9
2025-01-15 10:49:19.957203	270.6	24.9	-91.2	5.6
2025-01-15 10:49:21.102844	270.4	24.8	-90.1	4.7
2025-01-15 10:49:22.250082	270.2	24.6	-90.4	3.0
2025-01-15 10:49:23.400490	270.0	24.5	-90.2	2.9
2025-01-15 10:49:24.549106	269.8	24.3	-90.4	7.3
2025-01-15 10:49:25.706202	269.6	24.2	-90.4	5.9
2025-01-15 10:49:26.857621	269.4	24.1	-89.9	2.8
2025-01-15 10:49:28.007229	269.2	23.9	-90.2	5.6
2025-01-15 10:49:29.152695	269.0	23.8	-89.7	5.2
2025-01-15 10:49:30.294598	268.9	23.6	-89.9	9.8
2025-01-15 10:49:31.446118	268.7	23.5	-89.9	2.8
2025-01-15 10:49:32.592369	268.5	23.4	-88.2	2.5
2025-01-15 10:49:33.741033	268.3	23.2	-88.4	6.5
2025-01-15 10:49:34.888797	268.1	23.1	-88.9	7.4
2025-01-15 10:49:36.035297	267.9	23.0	-88.9	5.4
2025-01-15 10:49:37.189179	267.8	22.8	-89.8	7.8
2025-01-15 10:49:38.332913	267.6	22.7	-90.4	11.0
2025-01-15 10:49:39.483213	267.4	22.6	-90.2	3.3
2025-01-15 10:49:40.632789	267.2	22.4	-90.6	4.1
2025-01-15 10:49:41.782416	267.1	22.3	-90.3	8.3
2025-01-15 10:49:42.923427	266.9	22.2	-90.4	5.0
2025-01-15 10:49:44.074514	266.7	22.0	-90.8	2.8
2025-01-15 10:49:45.234925	266.6	21.9	-90.5	8.8
2025-01-15 10:49:46.381710	266.4	21.8	-90.2	11.7
2025-01-15 10:49:47.531167	266.2	21.6	-90.7	3.4
2025-01-15 10:49:48.677374	266.1	21.5	-91.3	4.5
2025-01-15 10:49:49.830756	265.9	21.4	-90.3	6.2
2025-01-15 10:49:50.985374	265.7	21.2	-90.4	8.0
2025-01-15 10:49:52.144068	265.6	21.1	-90.3	4.5
2025-01-15 10:49:53.296315	265.4	21.0	-90.2	6.0
2025-01-15 10:49:54.448640	265.3	20.8	-90.4	2.0
2025-01-15 10:49:55.598376	265.1	20.7	-90.4	2.9
2025-01-15 10:49:56.749927	264.9	20.6	-90.4	11.5
2025-01-15 10:49:57.911037	264.8	20.4	-90.1	3.2
2025-01-15 10:49:59.057267	264.6	20.3	-90.1	2.5
2025-01-15 10:50:00.204118	264.5	20.2	-90.3	3.2
2025-01-15 10:50:01.352785	264.3	20.1	-90.3	7.6
2025-01-15 10:50:02.501845	264.2	19.9	-90.5	6.0
2025-01-15 10:50:03.648573	264.0	19.8	-90.4	4.3
2025-01-15 10:50:04.794622	263.9	19.7	-90.3	5.8
2025-01-15 10:50:05.941694	263.8	19.6	-90.2	6.8
2025-01-15 10:50:07.089439	263.6	19.4	-90.7	5.5
2025-01-15 10:50:08.238691	263.5	19.3	-90.0	3.0
2025-01-15 10:50:09.401309	263.3	19.2	-90.4	4.7
2025-01-15 10:50:10.549309	263.2	19.1	-90.4	3.0
2025-01-15 10:50:11.703721	263.0	18.9	-90.3	3.3
2025-01-15 10:50:12.847054	262.9	18.8	-90.2	1.6
2025-01-15 10:50:13.999893	262.8	18.7	-90.5	0.6
2025-01-15 10:50:15.151487	262.6	18.6	-90.1	3.0
2025-01-15 10:50:16.306269	262.5	18.5	-90.8	2.2
2025-01-15 10:50:17.456405	262.4	18.3	-90.2	0.7
2025-01-15 10:50:18.606688	262.2	18.2	-91.0	2.8
2025-01-15 10:50:19.759347	262.1	18.1	-90.1	4.7
2025-01-15 10:50:20.909032	262.0	18.0	-90.4	4.8
2025-01-15 10:50:22.057816	261.8	17.9	-90.2	1.4
2025-01-15 10:50:23.206544	261.7	17.7	-90.4	1.1
2025-01-15 10:50:24.359152	261.6	17.6	-90.5	4.4
2025-01-15 10:50:25.506654	261.5	17.5	-90.9	2.7
2025-01-15 10:50:26.660094	261.3	17.4	-91.2	3.5
2025-01-15 10:50:27.805348	261.2	17.3	-90.4	5.6
2025-01-15 10:50:28.958670	261.1	17.1	-90.5	2.5
2025-01-15 10:50:30.105378	261.0	17.0	-90.7	1.2
2025-01-15 10:50:31.251373	260.9	16.9	-90.4	4.8
2025-01-15 10:50:32.398476	260.7	16.8	-90.9	2.6
2025-01-15 10:50:33.556122	260.6	16.7	-90.7	3.4
2025-01-15 10:50:34.701805	260.5	16.6	-90.8	2.8
2025-01-15 10:50:35.850826	260.4	16.5	-90.4	1.9
2025-01-15 10:50:37.003240	260.3	16.3	-90.6	0.4
2025-01-15 10:50:38.152424	260.1	16.2	-91.0	2.6
2025-01-15 10:50:39.293256	260.0	16.1	-90.8	1.5
2025-01-15 10:50:40.440649	259.9	16.0	-90.8	3.2
2025-01-15 10:50:41.590527	259.8	15.9	-90.7	0.8
2025-01-15 10:50:42.741720	259.7	15.8	-90.5	1.9
2025-01-15 10:50:43.896319	259.6	15.7	-90.7	5.0
2025-01-15 10:50:45.049874	259.5	15.6	-90.3	3.9
2025-01-15 10:50:46.195600	259.4	15.4	-90.4	4.1
2025-01-15 10:50:47.345861	259.3	15.3	-90.7	5.4
2025-01-15 10:50:48.497289	259.2	15.2	-90.7	1.4
2025-01-15 10:50:49.657063	259.0	15.1	-90.4	5.2
2025-01-15 10:50:50.802341	258.9	15.0	-91.2	2.2
2025-01-15 10:50:51.957466	258.8	14.9	-91.1	2.1
2025-01-15 10:50:53.099218	258.7	14.8	-90.9	2.1
2025-01-15 10:50:54.255001	258.6	14.7	-91.2	7.9
2025-01-15 10:50:55.403186	258.5	14.6	-90.7	6.7
2025-01-15 10:50:56.549490	258.4	14.5	-90.5	8.5
#Closed at: 2025-01-15 10:42:41.561470