passes_logs/2025/01/15/LEX_Murmansk/LEX_Murmansk__20250115_142828_NOAA_18_rec.log

#Pass ID: 20250115_142828_NOAA 18
#Satellite: NOAA 18
#Configuration: NOAA 18
#Start time: 2025-01-15 14:28:23.344967

#LorettStation: 1.0.0 05.05.2024
#Station: LEX_Murmansk
#Location: 33.156738 lon 68.926811 lat
#TLE: 1 28654U 05018A   25015.16278545  .00000300  00000+0  18295-3 0  9990
#TLE: 2 28654  98.8567  96.2156 0014367 178.7074 181.4138 14.13486503 13201

#Time	Az	El	Level	SNR
2025-01-15 14:28:35.476388	40.4	15.9	-86.4	7.2
2025-01-15 14:28:36.641373	40.2	15.9	-87.7	4.3
2025-01-15 14:28:37.799449	40.0	16.0	-86.4	7.4
2025-01-15 14:28:38.962045	39.8	16.1	-86.4	6.4
2025-01-15 14:28:40.122863	39.7	16.2	-86.2	6.6
2025-01-15 14:28:41.290345	39.5	16.3	-86.8	6.0
2025-01-15 14:28:42.450666	39.3	16.4	-88.7	3.7
2025-01-15 14:28:43.612972	39.1	16.4	-88.9	6.7
2025-01-15 14:28:44.771008	38.9	16.5	-88.3	4.8
2025-01-15 14:28:45.941224	38.7	16.6	-87.6	5.4
2025-01-15 14:28:47.107178	38.5	16.7	-88.3	6.1
2025-01-15 14:28:48.268371	38.3	16.8	-88.6	7.3
2025-01-15 14:28:49.432501	38.1	16.9	-88.5	4.3
2025-01-15 14:28:50.596932	37.9	16.9	-88.9	5.3
2025-01-15 14:28:51.761365	37.7	17.0	-87.6	4.6
2025-01-15 14:28:52.925119	37.5	17.1	-86.8	5.5
2025-01-15 14:28:54.094803	37.3	17.2	-88.1	7.5
2025-01-15 14:28:55.253720	37.1	17.3	-88.1	7.0
2025-01-15 14:28:56.431478	36.9	17.3	-88.8	7.4
2025-01-15 14:28:57.592577	36.7	17.4	-89.1	7.9
2025-01-15 14:28:58.755032	36.5	17.5	-88.6	6.5
2025-01-15 14:28:59.921341	36.3	17.6	-88.7	7.0
2025-01-15 14:29:01.083682	36.0	17.7	-87.7	5.0
2025-01-15 14:29:02.249209	35.8	17.8	-88.3	5.9
2025-01-15 14:29:03.403876	35.6	17.8	-88.7	7.3
2025-01-15 14:29:04.569593	35.4	17.9	-88.4	8.1
2025-01-15 14:29:05.733569	35.2	18.0	-88.3	8.4
2025-01-15 14:29:06.891603	35.0	18.1	-88.6	9.1
2025-01-15 14:29:08.059099	34.8	18.2	-88.9	8.6
2025-01-15 14:29:09.217240	34.5	18.2	-88.2	8.7
2025-01-15 14:29:10.384333	34.3	18.3	-87.9	7.0
2025-01-15 14:29:11.548159	34.1	18.4	-86.4	5.9
2025-01-15 14:29:12.710046	33.9	18.5	-88.0	11.5
2025-01-15 14:29:13.875682	33.7	18.6	-88.2	8.4
2025-01-15 14:29:15.036158	33.4	18.6	-88.2	6.9
2025-01-15 14:29:16.198773	33.2	18.7	-88.3	9.0
2025-01-15 14:29:17.360387	33.0	18.8	-87.4	6.9
2025-01-15 14:29:18.522535	32.7	18.9	-87.7	6.1
2025-01-15 14:29:19.698435	32.5	18.9	-88.8	6.4
2025-01-15 14:29:20.863070	32.3	19.0	-88.8	7.0
2025-01-15 14:29:22.025638	32.1	19.1	-88.3	8.4
2025-01-15 14:29:23.192943	31.8	19.2	-87.7	9.8
2025-01-15 14:29:24.359622	31.6	19.3	-88.6	8.8
2025-01-15 14:29:25.517887	31.4	19.3	-88.1	7.5
2025-01-15 14:29:26.675068	31.1	19.4	-87.7	7.3
2025-01-15 14:29:27.837139	30.9	19.5	-88.9	8.0
2025-01-15 14:29:29.001164	30.6	19.6	-88.6	9.1
2025-01-15 14:29:30.165973	30.4	19.6	-87.7	8.2
2025-01-15 14:29:31.330575	30.2	19.7	-87.1	9.8
2025-01-15 14:29:32.494781	29.9	19.8	-87.6	7.5
2025-01-15 14:29:33.663125	29.7	19.9	-87.9	8.4
2025-01-15 14:29:34.823724	29.4	19.9	-87.7	12.3
2025-01-15 14:29:35.977739	29.2	20.0	-87.8	5.0
2025-01-15 14:29:37.143557	28.9	20.1	-86.7	7.1
2025-01-15 14:29:38.300352	28.7	20.2	-86.9	8.1
2025-01-15 14:29:39.470220	28.4	20.2	-87.9	7.3
2025-01-15 14:29:40.630188	28.2	20.3	-87.9	8.1
2025-01-15 14:29:41.797714	27.9	20.4	-88.8	6.5
2025-01-15 14:29:42.957179	27.7	20.4	-88.4	11.3
2025-01-15 14:29:44.125870	27.4	20.5	-88.2	7.7
2025-01-15 14:29:45.284568	27.2	20.6	-88.9	10.4
2025-01-15 14:29:46.454664	26.9	20.7	-88.9	10.0
2025-01-15 14:29:47.622594	26.7	20.7	-88.6	11.2
2025-01-15 14:29:48.783763	26.4	20.8	-88.7	7.6
2025-01-15 14:29:49.950721	26.1	20.9	-87.9	7.9
2025-01-15 14:29:51.119281	25.9	20.9	-88.2	7.5
2025-01-15 14:29:52.281415	25.6	21.0	-88.2	6.5
2025-01-15 14:29:53.451991	25.4	21.1	-88.0	7.7
2025-01-15 14:29:54.611718	25.1	21.1	-87.9	6.7
2025-01-15 14:29:55.777681	24.8	21.2	-88.3	5.4
2025-01-15 14:29:56.941261	24.6	21.3	-88.6	12.1
2025-01-15 14:29:58.111461	24.3	21.3	-88.9	8.8
2025-01-15 14:29:59.280310	24.0	21.4	-88.0	11.4
2025-01-15 14:30:00.440658	23.8	21.5	-88.4	8.3
2025-01-15 14:30:01.607944	23.5	21.5	-88.8	7.5
2025-01-15 14:30:02.770811	23.2	21.6	-88.6	8.1
2025-01-15 14:30:03.932719	22.9	21.7	-87.9	7.2
2025-01-15 14:30:05.100204	22.7	21.7	-87.6	7.1
2025-01-15 14:30:06.258924	22.4	21.8	-87.6	10.0
2025-01-15 14:30:07.419518	22.1	21.8	-87.8	5.5
2025-01-15 14:30:08.597304	21.8	21.9	-87.1	5.3
2025-01-15 14:30:09.760292	21.5	22.0	-86.3	8.4
2025-01-15 14:30:10.925294	21.3	22.0	-86.9	6.9
2025-01-15 14:30:12.086615	21.0	22.1	-87.6	8.2
2025-01-15 14:30:13.251569	20.7	22.1	-87.2	9.6
2025-01-15 14:30:14.421918	20.4	22.2	-87.6	8.0
2025-01-15 14:30:15.584720	20.1	22.3	-88.1	12.0
2025-01-15 14:30:16.748748	19.8	22.3	-88.1	6.6
2025-01-15 14:30:17.907857	19.6	22.4	-87.6	7.9
2025-01-15 14:30:19.066942	19.3	22.4	-88.5	7.7
2025-01-15 14:30:20.228905	19.0	22.5	-88.8	7.4
2025-01-15 14:30:21.389408	18.7	22.5	-88.5	8.6
2025-01-15 14:30:22.548488	18.4	22.6	-88.9	8.2
2025-01-15 14:30:23.712610	18.1	22.6	-88.7	8.3
2025-01-15 14:30:24.874143	17.8	22.7	-89.0	8.3
2025-01-15 14:30:26.038216	17.5	22.7	-88.8	9.2
2025-01-15 14:30:27.202384	17.2	22.8	-88.9	10.7
2025-01-15 14:30:28.363824	16.9	22.8	-89.0	9.2
2025-01-15 14:30:29.526663	16.6	22.9	-89.3	8.3
2025-01-15 14:30:30.679271	16.3	22.9	-88.7	9.5
2025-01-15 14:30:31.840838	16.0	23.0	-88.5	9.5
2025-01-15 14:30:33.004249	15.7	23.0	-88.8	8.7
2025-01-15 14:30:34.184981	15.4	23.1	-88.4	8.1
2025-01-15 14:30:35.343543	15.1	23.1	-88.7	10.5
2025-01-15 14:30:36.503758	14.8	23.2	-89.0	6.3
2025-01-15 14:30:37.671706	14.5	23.2	-89.1	8.1
2025-01-15 14:30:38.834640	14.2	23.3	-89.0	7.3
2025-01-15 14:30:40.001865	13.9	23.3	-89.0	7.8
2025-01-15 14:30:41.166520	13.6	23.3	-88.7	11.4
2025-01-15 14:30:42.324682	13.3	23.4	-89.1	12.4
2025-01-15 14:30:43.492065	13.0	23.4	-88.3	8.4
2025-01-15 14:30:44.655854	12.7	23.5	-88.9	9.7
2025-01-15 14:30:45.814342	12.4	23.5	-88.9	8.9
2025-01-15 14:30:46.978880	12.1	23.5	-88.8	10.5
2025-01-15 14:30:48.145925	11.8	23.6	-89.1	5.7
2025-01-15 14:30:49.314034	11.5	23.6	-88.8	7.3
2025-01-15 14:30:50.474034	11.1	23.6	-88.4	9.0
2025-01-15 14:30:51.641423	10.8	23.7	-87.9	10.1
2025-01-15 14:30:52.808201	10.5	23.7	-88.6	8.0
2025-01-15 14:30:53.975444	10.2	23.7	-87.6	8.3
2025-01-15 14:30:55.139788	9.9	23.8	-87.7	8.8
2025-01-15 14:30:56.301433	9.6	23.8	-88.8	11.3
2025-01-15 14:30:57.468965	9.3	23.8	-88.5	8.7
2025-01-15 14:30:58.624942	8.9	23.9	-88.6	6.8
2025-01-15 14:30:59.790306	8.6	23.9	-88.8	8.1
2025-01-15 14:31:00.952346	8.3	23.9	-88.8	5.9
2025-01-15 14:31:02.119085	8.0	23.9	-88.7	7.1
2025-01-15 14:31:03.279367	7.7	24.0	-88.7	9.9
2025-01-15 14:31:04.440302	7.4	24.0	-88.9	7.0
2025-01-15 14:31:05.602197	7.0	24.0	-88.3	7.0
2025-01-15 14:31:06.767020	6.7	24.0	-89.0	10.6
2025-01-15 14:31:07.929032	6.4	24.1	-89.0	11.7
2025-01-15 14:31:09.098397	6.1	24.1	-88.7	8.9
2025-01-15 14:31:10.262638	5.8	24.1	-88.7	7.8
2025-01-15 14:31:11.428132	5.4	24.1	-88.6	5.9
2025-01-15 14:31:12.586047	5.1	24.1	-88.6	7.7
2025-01-15 14:31:13.751868	4.8	24.1	-87.9	8.5
2025-01-15 14:31:14.915414	4.5	24.2	-88.7	11.0
2025-01-15 14:31:16.075832	4.1	24.2	-88.8	6.8
2025-01-15 14:31:17.243313	3.8	24.2	-88.5	11.1
2025-01-15 14:31:18.403007	3.5	24.2	-88.8	8.5
2025-01-15 14:31:19.562673	3.2	24.2	-89.0	8.5
2025-01-15 14:31:20.728582	2.9	24.2	-89.3	13.5
2025-01-15 14:31:21.891832	2.5	24.2	-89.3	7.3
2025-01-15 14:31:23.059241	2.2	24.2	-88.8	9.5
2025-01-15 14:31:24.224258	1.9	24.2	-88.7	10.4
2025-01-15 14:31:25.384859	1.6	24.3	-88.7	7.4
2025-01-15 14:31:26.537012	1.2	24.3	-89.2	7.4
2025-01-15 14:31:27.698549	0.9	24.3	-89.0	10.9
2025-01-15 14:31:28.862510	0.6	24.3	-88.8	11.1
2025-01-15 14:31:30.025710	0.3	24.3	-88.4	5.1
2025-01-15 14:31:31.194952	359.9	24.3	-88.3	10.9
2025-01-15 14:31:32.353858	359.6	24.3	-87.9	8.0
2025-01-15 14:31:33.535296	359.3	24.3	-89.3	7.2
2025-01-15 14:31:34.696706	359.0	24.3	-89.1	11.6
2025-01-15 14:31:35.852190	358.6	24.3	-88.2	12.0
2025-01-15 14:31:37.016943	358.3	24.3	-88.9	7.3
2025-01-15 14:31:38.197516	358.0	24.3	-89.2	13.5
2025-01-15 14:31:39.364388	357.7	24.2	-89.0	16.8
2025-01-15 14:31:40.529441	357.3	24.2	-89.1	9.7
2025-01-15 14:31:41.691770	357.0	24.2	-89.0	11.2
2025-01-15 14:31:42.856115	356.7	24.2	-88.6	10.2
2025-01-15 14:31:44.021435	356.4	24.2	-89.0	11.0
2025-01-15 14:31:45.181173	356.0	24.2	-88.9	13.5
2025-01-15 14:31:46.347720	355.7	24.2	-88.5	9.6
2025-01-15 14:31:47.511723	355.4	24.2	-88.6	12.4
2025-01-15 14:31:48.679433	355.1	24.2	-89.0	11.0
2025-01-15 14:31:49.840402	354.7	24.1	-88.5	12.1
2025-01-15 14:31:51.003681	354.4	24.1	-88.7	10.7
2025-01-15 14:31:52.166973	354.1	24.1	-88.6	15.0
2025-01-15 14:31:53.334081	353.8	24.1	-88.6	16.2
2025-01-15 14:31:54.507241	353.4	24.1	-88.6	16.2
2025-01-15 14:31:55.667871	353.1	24.1	-88.9	15.0
2025-01-15 14:31:56.839023	352.8	24.0	-88.4	11.0
2025-01-15 14:31:58.004202	352.5	24.0	-88.8	12.4
2025-01-15 14:31:59.166777	352.2	24.0	-88.5	14.8
2025-01-15 14:32:00.334079	351.8	24.0	-88.9	8.4
2025-01-15 14:32:01.498287	351.5	23.9	-88.9	10.9
2025-01-15 14:32:02.665604	351.2	23.9	-89.4	10.3
2025-01-15 14:32:03.834006	350.9	23.9	-89.1	6.0
2025-01-15 14:32:04.992621	350.6	23.9	-89.2	9.7
2025-01-15 14:32:06.155821	350.3	23.8	-89.4	10.1
2025-01-15 14:32:07.321119	349.9	23.8	-88.8	8.4
2025-01-15 14:32:08.484987	349.6	23.8	-88.9	7.5
2025-01-15 14:32:09.651731	349.3	23.7	-89.3	13.6
2025-01-15 14:32:10.813380	349.0	23.7	-89.2	11.3
2025-01-15 14:32:11.974185	348.7	23.7	-89.2	11.3
2025-01-15 14:32:13.137482	348.4	23.6	-88.8	13.6
2025-01-15 14:32:14.296483	348.1	23.6	-89.2	10.6
2025-01-15 14:32:15.460559	347.7	23.6	-89.5	10.4
2025-01-15 14:32:16.624202	347.4	23.5	-89.1	12.4
2025-01-15 14:32:17.788115	347.1	23.5	-89.5	10.4
2025-01-15 14:32:18.951578	346.8	23.5	-89.3	8.2
2025-01-15 14:32:20.115863	346.5	23.4	-89.3	9.1
2025-01-15 14:32:21.274557	346.2	23.4	-88.8	8.4
2025-01-15 14:32:22.442173	345.9	23.3	-89.1	7.3
2025-01-15 14:32:23.604752	345.6	23.3	-89.2	6.6
2025-01-15 14:32:24.771580	345.3	23.3	-89.3	11.1
2025-01-15 14:32:25.920786	345.0	23.2	-89.4	9.6
2025-01-15 14:32:27.076308	344.7	23.2	-89.6	4.9
2025-01-15 14:32:28.236831	344.4	23.1	-89.2	9.0
2025-01-15 14:32:29.404609	344.1	23.1	-89.0	9.5
2025-01-15 14:32:30.565286	343.8	23.0	-89.1	7.8
2025-01-15 14:32:31.731247	343.5	23.0	-89.5	8.4
2025-01-15 14:32:32.898028	343.2	22.9	-88.5	7.0
2025-01-15 14:32:34.058251	342.9	22.9	-88.0	6.6
2025-01-15 14:32:35.202645	342.6	22.8	-89.4	9.7
2025-01-15 14:32:36.361779	342.3	22.8	-89.5	6.0
2025-01-15 14:32:37.526297	342.0	22.7	-89.2	7.8
2025-01-15 14:32:38.692461	341.7	22.7	-89.2	10.0
2025-01-15 14:32:39.857361	341.4	22.6	-88.7	10.3
2025-01-15 14:32:41.022522	341.1	22.6	-89.3	9.4
2025-01-15 14:32:42.187392	340.8	22.5	-89.1	5.8
2025-01-15 14:32:43.345417	340.5	22.5	-89.3	11.3
2025-01-15 14:32:44.509452	340.2	22.4	-89.7	8.4
2025-01-15 14:32:45.673430	340.0	22.4	-89.1	9.8
2025-01-15 14:32:46.836097	339.7	22.3	-89.3	17.0
2025-01-15 14:32:47.997973	339.4	22.2	-89.4	6.5
2025-01-15 14:32:49.160746	339.1	22.2	-89.4	12.5
2025-01-15 14:32:50.323383	338.8	22.1	-89.3	11.5
2025-01-15 14:32:51.487088	338.5	22.1	-89.5	4.2
2025-01-15 14:32:52.651092	338.2	22.0	-89.5	9.1
2025-01-15 14:32:53.812569	338.0	22.0	-89.4	11.3
2025-01-15 14:32:54.980269	337.7	21.9	-89.4	10.4
2025-01-15 14:32:56.140292	337.4	21.8	-89.3	9.1
2025-01-15 14:32:57.297721	337.1	21.8	-88.9	6.3
2025-01-15 14:32:58.468239	336.8	21.7	-88.7	9.6
2025-01-15 14:32:59.625593	336.6	21.6	-88.6	12.4
2025-01-15 14:33:00.786045	336.3	21.6	-88.9	7.4
2025-01-15 14:33:01.946998	336.0	21.5	-89.7	10.6
2025-01-15 14:33:03.110994	335.8	21.5	-89.1	9.7
2025-01-15 14:33:04.272881	335.5	21.4	-89.7	10.2
2025-01-15 14:33:05.445225	335.2	21.3	-88.6	10.5
2025-01-15 14:33:06.603129	334.9	21.3	-88.7	10.2
2025-01-15 14:33:07.771449	334.7	21.2	-88.9	10.1
2025-01-15 14:33:08.932758	334.4	21.1	-88.8	12.8
2025-01-15 14:33:10.101847	334.1	21.1	-88.4	7.6
2025-01-15 14:33:11.266994	333.9	21.0	-89.0	7.4
2025-01-15 14:33:12.432910	333.6	20.9	-88.7	12.2
2025-01-15 14:33:13.596923	333.4	20.8	-88.7	5.3
2025-01-15 14:33:14.761665	333.1	20.8	-88.7	6.0
2025-01-15 14:33:15.928915	332.8	20.7	-89.6	6.0
2025-01-15 14:33:17.094065	332.6	20.6	-88.1	8.4
2025-01-15 14:33:18.260488	332.3	20.6	-88.4	8.6
2025-01-15 14:33:19.421922	332.1	20.5	-88.4	5.6
2025-01-15 14:33:20.581735	331.8	20.4	-89.0	7.4
2025-01-15 14:33:21.750340	331.6	20.3	-88.7	6.9
2025-01-15 14:33:22.910075	331.3	20.3	-89.5	4.6
2025-01-15 14:33:24.073069	331.1	20.2	-89.4	5.3
2025-01-15 14:33:25.233597	330.8	20.1	-88.0	5.6
2025-01-15 14:33:26.391951	330.6	20.1	-89.0	7.1
2025-01-15 14:33:27.559122	330.3	20.0	-89.5	4.8
2025-01-15 14:33:28.708270	330.1	19.9	-88.6	6.0
2025-01-15 14:33:29.871550	329.8	19.8	-89.9	6.2
2025-01-15 14:33:31.033741	329.6	19.8	-89.5	5.8
2025-01-15 14:33:32.194626	329.3	19.7	-89.3	4.5
2025-01-15 14:33:33.355867	329.1	19.6	-89.3	3.6
2025-01-15 14:33:34.518759	328.8	19.5	-89.3	3.8
2025-01-15 14:33:35.679058	328.6	19.5	-88.9	5.7
2025-01-15 14:33:36.838731	328.4	19.4	-88.8	6.7
2025-01-15 14:33:38.002693	328.1	19.3	-89.1	5.2
2025-01-15 14:33:39.170525	327.9	19.2	-88.8	5.2
2025-01-15 14:33:40.333900	327.7	19.1	-89.6	5.3
2025-01-15 14:33:41.497557	327.4	19.1	-89.4	6.9
2025-01-15 14:33:42.666635	327.2	19.0	-89.8	6.7
2025-01-15 14:33:43.825951	327.0	18.9	-89.3	6.9
2025-01-15 14:33:44.991040	326.7	18.8	-89.3	5.5
2025-01-15 14:33:46.149050	326.5	18.8	-89.3	8.1
2025-01-15 14:33:47.308551	326.3	18.7	-89.6	4.8
2025-01-15 14:33:48.473779	326.1	18.6	-89.5	5.1
2025-01-15 14:33:49.645171	325.8	18.5	-89.7	5.9
2025-01-15 14:33:50.809161	325.6	18.4	-89.8	6.6
2025-01-15 14:33:51.975303	325.4	18.4	-89.8	6.5
2025-01-15 14:33:53.142843	325.2	18.3	-89.5	4.9
2025-01-15 14:33:54.303976	324.9	18.2	-89.3	6.7
2025-01-15 14:33:55.472879	324.7	18.1	-89.5	7.0
2025-01-15 14:33:56.638486	324.5	18.0	-89.3	8.6
2025-01-15 14:33:57.800908	324.3	18.0	-89.5	5.4
2025-01-15 14:33:58.965156	324.1	17.9	-89.4	6.6
2025-01-15 14:34:00.123129	323.9	17.8	-89.6	6.8
2025-01-15 14:34:01.291116	323.6	17.7	-88.0	5.6
2025-01-15 14:34:02.454694	323.4	17.6	-88.1	6.1
2025-01-15 14:34:03.618798	323.2	17.6	-88.0	5.2
2025-01-15 14:34:04.782213	323.0	17.5	-87.9	5.4
2025-01-15 14:34:05.947572	322.8	17.4	-88.1	6.2
2025-01-15 14:34:07.106837	322.6	17.3	-88.3	6.1
2025-01-15 14:34:08.268507	322.4	17.2	-89.2	6.1
2025-01-15 14:34:09.429272	322.2	17.1	-89.3	6.4
2025-01-15 14:34:10.592092	322.0	17.1	-89.4	6.3
2025-01-15 14:34:11.761118	321.8	17.0	-89.6	7.5
2025-01-15 14:34:12.918803	321.6	16.9	-89.4	6.2
2025-01-15 14:34:14.086167	321.4	16.8	-89.2	5.3
2025-01-15 14:34:15.790672	321.1	16.7	-89.5	5.8
2025-01-15 14:34:16.948708	320.9	16.6	-89.3	7.7
2025-01-15 14:34:18.115071	320.7	16.5	-89.0	5.0
2025-01-15 14:34:19.276168	320.5	16.4	-89.6	7.0
2025-01-15 14:34:20.440085	320.3	16.4	-89.9	7.9
2025-01-15 14:34:21.603750	320.1	16.3	-90.0	9.6
2025-01-15 14:34:22.767345	319.9	16.2	-90.4	7.6
2025-01-15 14:34:23.929576	319.7	16.1	-89.8	6.4
2025-01-15 14:34:25.090433	319.5	16.0	-89.8	5.2
2025-01-15 14:34:26.255457	319.3	15.9	-89.9	6.3
2025-01-15 14:34:27.413463	319.2	15.9	-89.5	8.2
2025-01-15 14:34:28.574095	319.0	15.8	-89.3	7.3
2025-01-15 14:34:29.752337	318.8	15.7	-89.0	5.5
2025-01-15 14:34:30.908851	318.6	15.6	-88.6	5.8
2025-01-15 14:34:32.073524	318.4	15.5	-88.5	5.7
2025-01-15 14:34:33.236686	318.2	15.4	-87.7	4.7
2025-01-15 14:34:34.398437	318.0	15.4	-87.2	7.8
2025-01-15 14:34:35.578569	317.9	15.3	-87.7	5.9
2025-01-15 14:34:36.737530	317.7	15.2	-87.7	7.3
2025-01-15 14:34:37.906248	317.5	15.1	-88.2	6.6
2025-01-15 14:34:39.065637	317.3	15.0	-87.8	6.0
2025-01-15 14:34:40.227287	317.1	14.9	-87.2	4.7
2025-01-15 14:34:41.395110	317.0	14.9	-87.2	6.2
2025-01-15 14:34:42.558375	316.8	14.8	-87.2	9.2
2025-01-15 14:34:43.726872	316.6	14.7	-87.2	12.9
2025-01-15 14:34:44.912895	316.4	14.6	-87.5	6.5
#Closed at: 2025-01-15 14:28:28.302110