passes_logs/2025/01/15/LEX_Murmansk/LEX_Murmansk__20250115_124830_NOAA_18_rec.log

#Pass ID: 20250115_124830_NOAA 18
#Satellite: NOAA 18
#Configuration: NOAA 18
#Start time: 2025-01-15 12:48:25.683810

#LorettStation: 1.0.0 05.05.2024
#Station: LEX_Murmansk
#Location: 33.156738 lon 68.926811 lat
#TLE: 1 28654U 05018A   25014.17177243  .00000313  00000+0  18955-3 0  9990
#TLE: 2 28654  98.8569  95.2344 0014326 181.4762 178.6370 14.13485757 13061

#Time	Az	El	Level	SNR
2025-01-15 12:48:37.877932	25.4	16.0	-87.8	9.8
2025-01-15 12:48:39.025211	25.3	16.1	-87.3	10.1
2025-01-15 12:48:40.171471	25.1	16.2	-87.4	9.2
2025-01-15 12:48:41.318620	25.0	16.3	-87.8	9.8
2025-01-15 12:48:42.469514	24.8	16.4	-87.8	9.5
2025-01-15 12:48:43.622722	24.6	16.5	-87.5	7.5
2025-01-15 12:48:44.771582	24.5	16.6	-87.2	7.0
2025-01-15 12:48:45.919852	24.3	16.7	-87.4	7.1
2025-01-15 12:48:47.067836	24.1	16.8	-88.0	8.1
2025-01-15 12:48:48.214948	24.0	16.9	-87.7	7.9
2025-01-15 12:48:49.367424	23.8	17.0	-87.2	10.5
2025-01-15 12:48:50.515721	23.7	17.1	-87.6	8.2
2025-01-15 12:48:51.665520	23.5	17.2	-87.5	8.9
2025-01-15 12:48:52.819893	23.3	17.3	-87.4	8.6
2025-01-15 12:48:53.966734	23.1	17.4	-87.4	7.3
2025-01-15 12:48:55.111893	23.0	17.5	-87.2	6.6
2025-01-15 12:48:56.256203	22.8	17.6	-87.5	7.3
2025-01-15 12:48:57.405257	22.6	17.7	-87.6	7.4
2025-01-15 12:48:58.554044	22.5	17.8	-87.5	10.7
2025-01-15 12:48:59.698841	22.3	17.9	-87.5	9.4
2025-01-15 12:49:00.848235	22.1	18.0	-87.3	9.6
2025-01-15 12:49:01.995673	21.9	18.1	-87.7	6.7
2025-01-15 12:49:03.140568	21.7	18.2	-87.7	9.0
2025-01-15 12:49:04.294132	21.6	18.3	-87.6	9.1
2025-01-15 12:49:05.448410	21.4	18.4	-87.1	9.6
2025-01-15 12:49:06.597661	21.2	18.5	-87.6	11.5
2025-01-15 12:49:07.749318	21.0	18.6	-87.9	10.4
2025-01-15 12:49:08.895490	20.8	18.7	-87.6	10.4
2025-01-15 12:49:10.045955	20.6	18.8	-87.1	9.5
2025-01-15 12:49:11.190603	20.4	18.9	-87.5	8.8
2025-01-15 12:49:12.336939	20.3	19.0	-87.4	8.1
2025-01-15 12:49:13.484516	20.1	19.1	-87.3	7.7
2025-01-15 12:49:14.639929	19.9	19.2	-87.8	6.1
2025-01-15 12:49:15.790139	19.7	19.3	-87.9	7.0
2025-01-15 12:49:16.938445	19.5	19.4	-87.8	7.1
2025-01-15 12:49:18.089466	19.3	19.5	-87.4	6.7
2025-01-15 12:49:19.234573	19.1	19.6	-87.2	8.6
2025-01-15 12:49:20.379963	18.9	19.7	-87.8	9.3
2025-01-15 12:49:21.527122	18.7	19.8	-87.5	10.8
2025-01-15 12:49:22.674622	18.5	19.9	-87.5	7.5
2025-01-15 12:49:23.826054	18.3	20.0	-87.6	9.1
2025-01-15 12:49:24.975301	18.1	20.1	-88.2	5.8
2025-01-15 12:49:26.120993	17.9	20.2	-88.6	8.7
2025-01-15 12:49:27.271516	17.7	20.3	-88.5	9.4
2025-01-15 12:49:28.420281	17.5	20.4	-88.2	8.1
2025-01-15 12:49:29.574555	17.3	20.5	-87.7	10.0
2025-01-15 12:49:30.722742	17.0	20.6	-87.2	9.3
2025-01-15 12:49:31.869185	16.8	20.7	-89.2	6.0
2025-01-15 12:49:33.014983	16.6	20.8	-89.5	8.2
2025-01-15 12:49:34.164895	16.4	20.9	-87.9	6.9
2025-01-15 12:49:35.311833	16.2	21.0	-88.5	9.4
2025-01-15 12:49:36.457355	16.0	21.1	-88.1	4.9
2025-01-15 12:49:37.603445	15.8	21.2	-88.2	5.4
2025-01-15 12:49:38.750185	15.5	21.3	-88.0	7.3
2025-01-15 12:49:39.899023	15.3	21.4	-87.7	8.5
2025-01-15 12:49:41.045818	15.1	21.5	-88.9	7.8
2025-01-15 12:49:42.198513	14.9	21.6	-87.1	9.4
2025-01-15 12:49:43.350823	14.6	21.7	-87.5	9.1
2025-01-15 12:49:44.499355	14.4	21.8	-88.3	9.1
2025-01-15 12:49:45.647496	14.2	21.9	-88.3	9.2
2025-01-15 12:49:46.795136	13.9	22.0	-87.7	8.8
2025-01-15 12:49:47.945678	13.7	22.1	-87.8	7.9
2025-01-15 12:49:49.098401	13.5	22.2	-88.1	11.0
2025-01-15 12:49:50.249287	13.2	22.3	-87.4	8.8
2025-01-15 12:49:51.395689	13.0	22.4	-87.4	10.8
2025-01-15 12:49:52.541050	12.8	22.5	-87.3	10.0
2025-01-15 12:49:53.691879	12.5	22.6	-86.9	11.0
2025-01-15 12:49:54.843002	12.3	22.7	-86.9	10.7
2025-01-15 12:49:55.990789	12.0	22.8	-86.8	9.2
2025-01-15 12:49:57.139142	11.8	22.9	-87.7	8.7
2025-01-15 12:49:58.290310	11.5	23.0	-87.3	9.8
2025-01-15 12:49:59.436940	11.3	23.1	-88.2	8.5
2025-01-15 12:50:00.579285	11.0	23.2	-87.6	8.4
2025-01-15 12:50:01.728153	10.8	23.3	-88.3	12.5
2025-01-15 12:50:02.876354	10.5	23.4	-87.7	12.1
2025-01-15 12:50:04.020907	10.3	23.5	-87.3	9.4
2025-01-15 12:50:05.171504	10.0	23.6	-87.7	9.5
2025-01-15 12:50:06.319131	9.8	23.7	-87.4	12.1
2025-01-15 12:50:07.467529	9.5	23.8	-87.8	7.8
2025-01-15 12:50:08.608672	9.3	23.9	-87.4	10.1
2025-01-15 12:50:09.756807	9.0	24.0	-88.1	10.7
2025-01-15 12:50:10.904315	8.7	24.1	-87.4	9.1
2025-01-15 12:50:12.052118	8.5	24.2	-87.0	7.8
2025-01-15 12:50:13.200752	8.2	24.3	-87.7	9.6
2025-01-15 12:50:14.349264	7.9	24.4	-88.2	9.1
2025-01-15 12:50:15.496608	7.7	24.5	-87.9	12.3
2025-01-15 12:50:16.645299	7.4	24.5	-87.8	11.5
2025-01-15 12:50:17.791765	7.1	24.6	-88.0	9.8
2025-01-15 12:50:18.941277	6.8	24.7	-87.6	9.6
2025-01-15 12:50:20.088042	6.6	24.8	-87.2	8.6
2025-01-15 12:50:21.231775	6.3	24.9	-87.3	8.0
2025-01-15 12:50:22.385984	6.0	25.0	-87.6	9.1
2025-01-15 12:50:23.532931	5.7	25.1	-87.8	8.1
2025-01-15 12:50:24.678037	5.4	25.2	-87.8	8.7
2025-01-15 12:50:25.825303	5.1	25.3	-87.4	12.3
2025-01-15 12:50:26.975377	4.9	25.4	-87.1	7.9
2025-01-15 12:50:28.122983	4.6	25.5	-87.7	9.6
2025-01-15 12:50:29.271286	4.3	25.6	-87.2	10.9
2025-01-15 12:50:30.419083	4.0	25.6	-87.4	9.9
2025-01-15 12:50:31.571728	3.7	25.7	-87.3	11.8
2025-01-15 12:50:32.722587	3.4	25.8	-87.6	8.2
2025-01-15 12:50:33.870219	3.1	25.9	-87.4	8.9
2025-01-15 12:50:35.020147	2.8	26.0	-87.1	7.6
2025-01-15 12:50:36.170403	2.5	26.1	-87.6	8.2
2025-01-15 12:50:37.319009	2.2	26.2	-87.4	9.3
2025-01-15 12:50:38.468992	1.9	26.2	-87.0	6.5
2025-01-15 12:50:39.616698	1.6	26.3	-87.5	7.6
2025-01-15 12:50:40.762107	1.3	26.4	-87.5	9.9
2025-01-15 12:50:41.910193	1.0	26.5	-88.2	7.5
2025-01-15 12:50:43.060182	0.7	26.6	-88.1	6.8
2025-01-15 12:50:44.209566	0.3	26.7	-87.7	7.7
2025-01-15 12:50:45.357174	0.0	26.7	-87.4	9.1
2025-01-15 12:50:46.506278	359.7	26.8	-87.9	7.6
2025-01-15 12:50:47.658468	359.4	26.9	-87.4	8.5
2025-01-15 12:50:48.806297	359.1	27.0	-87.9	10.6
2025-01-15 12:50:49.954510	358.8	27.1	-87.9	8.5
2025-01-15 12:50:51.101392	358.4	27.1	-88.0	5.0
2025-01-15 12:50:52.249703	358.1	27.2	-87.6	9.7
2025-01-15 12:50:53.397246	357.8	27.3	-87.9	8.6
2025-01-15 12:50:54.545701	357.5	27.4	-87.8	8.3
2025-01-15 12:50:55.695000	357.1	27.4	-88.2	8.0
2025-01-15 12:50:56.842662	356.8	27.5	-87.9	9.5
2025-01-15 12:50:57.985160	356.5	27.6	-87.9	8.2
2025-01-15 12:50:59.131990	356.1	27.6	-88.0	9.7
2025-01-15 12:51:00.278962	355.8	27.7	-87.6	8.1
2025-01-15 12:51:01.428732	355.5	27.8	-87.7	8.5
2025-01-15 12:51:02.575488	355.1	27.9	-87.7	8.2
2025-01-15 12:51:03.730711	354.8	27.9	-87.8	10.7
2025-01-15 12:51:04.882497	354.5	28.0	-88.3	8.3
2025-01-15 12:51:06.029222	354.1	28.0	-87.9	5.8
2025-01-15 12:51:07.178363	353.8	28.1	-86.9	6.6
2025-01-15 12:51:08.328063	353.4	28.2	-87.8	6.4
2025-01-15 12:51:09.474974	353.1	28.2	-87.8	8.2
2025-01-15 12:51:10.620184	352.7	28.3	-88.2	6.8
2025-01-15 12:51:11.778714	352.4	28.4	-88.2	8.5
2025-01-15 12:51:12.931246	352.0	28.4	-87.9	8.3
2025-01-15 12:51:14.082347	351.7	28.5	-87.9	9.4
2025-01-15 12:51:15.228619	351.3	28.5	-88.1	8.5
2025-01-15 12:51:16.381701	351.0	28.6	-88.1	9.0
2025-01-15 12:51:17.528508	350.6	28.6	-87.6	7.0
2025-01-15 12:51:18.682936	350.3	28.7	-87.9	9.9
2025-01-15 12:51:19.828653	349.9	28.8	-87.8	9.1
2025-01-15 12:51:20.975155	349.6	28.8	-87.7	8.8
2025-01-15 12:51:22.123369	349.2	28.9	-87.4	9.4
2025-01-15 12:51:23.273604	348.8	28.9	-87.8	6.6
2025-01-15 12:51:24.420656	348.5	28.9	-88.0	7.0
2025-01-15 12:51:25.566768	348.1	29.0	-88.1	8.0
2025-01-15 12:51:26.710087	347.8	29.0	-88.5	9.8
2025-01-15 12:51:27.859768	347.4	29.1	-88.4	10.4
2025-01-15 12:51:29.006918	347.0	29.1	-88.3	7.0
2025-01-15 12:51:30.153626	346.7	29.2	-87.7	9.3
2025-01-15 12:51:31.301164	346.3	29.2	-87.9	11.0
2025-01-15 12:51:32.450380	345.9	29.2	-87.7	8.4
2025-01-15 12:51:33.607246	345.6	29.3	-88.0	7.1
2025-01-15 12:51:34.754833	345.2	29.3	-88.5	11.6
2025-01-15 12:51:35.900186	344.8	29.4	-88.7	9.2
2025-01-15 12:51:37.047857	344.4	29.4	-87.7	6.5
2025-01-15 12:51:38.197015	344.1	29.4	-87.4	11.1
2025-01-15 12:51:39.342688	343.7	29.5	-87.4	9.1
2025-01-15 12:51:40.496524	343.3	29.5	-87.6	7.7
2025-01-15 12:51:41.644164	342.9	29.5	-87.9	7.2
2025-01-15 12:51:42.792368	342.6	29.5	-87.8	10.5
2025-01-15 12:51:43.942205	342.2	29.6	-87.9	7.9
2025-01-15 12:51:45.086123	341.8	29.6	-87.6	8.4
2025-01-15 12:51:46.232696	341.4	29.6	-88.1	10.8
2025-01-15 12:51:47.379957	341.1	29.6	-87.8	8.6
2025-01-15 12:51:48.527823	340.7	29.7	-87.6	6.5
2025-01-15 12:51:49.679253	340.3	29.7	-88.0	5.8
2025-01-15 12:51:50.822357	339.9	29.7	-87.9	9.0
2025-01-15 12:51:51.975339	339.6	29.7	-88.1	8.0
2025-01-15 12:51:53.125546	339.2	29.7	-88.1	5.1
2025-01-15 12:51:54.278562	338.8	29.7	-88.3	12.3
2025-01-15 12:51:55.427288	338.4	29.7	-88.0	7.5
2025-01-15 12:51:56.573640	338.0	29.8	-88.5	7.3
2025-01-15 12:51:57.719833	337.7	29.8	-88.3	7.5
2025-01-15 12:51:58.870339	337.3	29.8	-88.1	7.7
2025-01-15 12:52:00.017609	336.9	29.8	-87.1	7.9
2025-01-15 12:52:01.164523	336.5	29.8	-87.6	8.5
2025-01-15 12:52:02.312280	336.1	29.8	-88.0	8.9
2025-01-15 12:52:03.459955	335.7	29.8	-87.8	10.0
2025-01-15 12:52:04.609258	335.4	29.8	-88.0	7.9
2025-01-15 12:52:05.760752	335.0	29.8	-88.2	10.3
2025-01-15 12:52:06.903376	334.6	29.8	-87.8	8.8
2025-01-15 12:52:08.049381	334.2	29.8	-88.3	10.1
2025-01-15 12:52:09.196893	333.8	29.8	-88.1	9.3
2025-01-15 12:52:10.340563	333.5	29.8	-88.0	10.8
2025-01-15 12:52:11.488123	333.1	29.8	-88.1	11.2
2025-01-15 12:52:12.635414	332.7	29.8	-88.0	10.4
2025-01-15 12:52:13.783561	332.3	29.7	-88.0	9.4
2025-01-15 12:52:14.938935	331.9	29.7	-87.8	10.2
2025-01-15 12:52:16.088448	331.6	29.7	-87.8	8.7
2025-01-15 12:52:17.237800	331.2	29.7	-87.9	7.8
2025-01-15 12:52:18.390539	330.8	29.7	-88.0	9.4
2025-01-15 12:52:19.541173	330.4	29.7	-87.4	6.3
2025-01-15 12:52:20.689356	330.0	29.6	-87.3	10.1
2025-01-15 12:52:21.838810	329.7	29.6	-87.5	9.3
2025-01-15 12:52:22.990945	329.3	29.6	-87.3	7.3
2025-01-15 12:52:24.137547	328.9	29.6	-87.2	7.4
2025-01-15 12:52:25.284794	328.5	29.6	-87.3	8.8
2025-01-15 12:52:26.432671	328.2	29.5	-87.1	7.2
2025-01-15 12:52:27.587069	327.8	29.5	-87.4	6.1
2025-01-15 12:52:28.734668	327.4	29.5	-88.5	8.0
2025-01-15 12:52:29.882033	327.0	29.4	-88.5	10.4
2025-01-15 12:52:31.037068	326.7	29.4	-88.5	9.0
2025-01-15 12:52:32.184428	326.3	29.4	-87.9	7.7
2025-01-15 12:52:33.332329	325.9	29.3	-88.0	7.3
2025-01-15 12:52:34.486419	325.5	29.3	-88.3	6.3
2025-01-15 12:52:35.629745	325.2	29.3	-88.8	8.6
2025-01-15 12:52:36.777255	324.8	29.2	-88.0	8.4
2025-01-15 12:52:37.924525	324.4	29.2	-88.3	7.7
2025-01-15 12:52:39.075860	324.1	29.1	-88.3	7.2
2025-01-15 12:52:40.226949	323.7	29.1	-87.9	11.1
2025-01-15 12:52:41.376993	323.3	29.1	-88.1	9.2
2025-01-15 12:52:42.519533	323.0	29.0	-87.9	7.3
2025-01-15 12:52:43.670173	322.6	29.0	-87.8	8.5
2025-01-15 12:52:44.819378	322.2	28.9	-87.9	10.7
2025-01-15 12:52:45.964569	321.9	28.9	-87.2	7.5
2025-01-15 12:52:47.116338	321.5	28.8	-87.3	7.3
2025-01-15 12:52:48.261354	321.2	28.8	-86.7	10.5
2025-01-15 12:52:49.409262	320.8	28.7	-86.7	9.7
2025-01-15 12:52:50.556416	320.4	28.7	-87.3	7.8
2025-01-15 12:52:51.702257	320.1	28.6	-87.8	9.1
2025-01-15 12:52:52.855446	319.7	28.6	-87.5	9.5
2025-01-15 12:52:53.999588	319.4	28.5	-88.3	6.9
2025-01-15 12:52:55.144849	319.0	28.4	-87.3	11.3
2025-01-15 12:52:56.301102	318.7	28.4	-87.5	9.5
2025-01-15 12:52:57.448838	318.3	28.3	-87.7	6.8
2025-01-15 12:52:58.595982	318.0	28.3	-87.7	8.5
2025-01-15 12:52:59.747187	317.6	28.2	-88.0	11.3
2025-01-15 12:53:00.894866	317.3	28.1	-87.4	7.5
2025-01-15 12:53:02.044583	316.9	28.1	-88.5	7.2
2025-01-15 12:53:03.194782	316.6	28.0	-88.5	11.0
2025-01-15 12:53:04.351254	316.3	27.9	-87.8	12.7
2025-01-15 12:53:05.503251	315.9	27.9	-87.9	8.6
2025-01-15 12:53:06.651698	315.6	27.8	-87.5	9.4
2025-01-15 12:53:07.795771	315.2	27.7	-86.5	9.8
2025-01-15 12:53:08.942850	314.9	27.7	-87.7	9.4
2025-01-15 12:53:10.087571	314.6	27.6	-88.0	7.0
2025-01-15 12:53:11.237274	314.2	27.5	-87.9	10.2
2025-01-15 12:53:12.387446	313.9	27.5	-87.8	11.3
2025-01-15 12:53:13.536892	313.6	27.4	-87.7	8.4
2025-01-15 12:53:14.684172	313.2	27.3	-88.0	11.9
2025-01-15 12:53:15.830487	312.9	27.2	-88.3	16.0
2025-01-15 12:53:16.986844	312.6	27.2	-88.3	10.2
2025-01-15 12:53:18.130718	312.3	27.1	-87.8	11.6
2025-01-15 12:53:19.278277	312.0	27.0	-87.6	9.9
2025-01-15 12:53:20.430793	311.6	26.9	-87.9	11.1
2025-01-15 12:53:21.579528	311.3	26.8	-88.1	12.0
2025-01-15 12:53:22.729546	311.0	26.8	-87.9	9.3
2025-01-15 12:53:23.886678	310.7	26.7	-88.0	12.5
2025-01-15 12:53:25.023551	310.4	26.6	-88.0	10.9
2025-01-15 12:53:26.171753	310.1	26.5	-88.2	10.1
2025-01-15 12:53:27.318986	309.7	26.4	-87.7	12.4
2025-01-15 12:53:28.464948	309.4	26.4	-87.5	12.8
2025-01-15 12:53:29.614544	309.1	26.3	-87.7	9.4
2025-01-15 12:53:30.759800	308.8	26.2	-87.7	11.3
2025-01-15 12:53:31.904501	308.5	26.1	-88.3	11.9
2025-01-15 12:53:33.050935	308.2	26.0	-88.2	9.1
2025-01-15 12:53:34.200593	307.9	25.9	-88.0	6.6
2025-01-15 12:53:35.347474	307.6	25.8	-87.5	10.7
2025-01-15 12:53:36.495857	307.3	25.8	-87.8	8.6
2025-01-15 12:53:37.644882	307.0	25.7	-88.2	7.9
2025-01-15 12:53:38.792370	306.7	25.6	-88.2	9.0
2025-01-15 12:53:39.947731	306.4	25.5	-88.0	7.5
2025-01-15 12:53:41.090492	306.1	25.4	-87.8	9.7
2025-01-15 12:53:42.238964	305.8	25.3	-87.7	7.8
2025-01-15 12:53:43.388547	305.6	25.2	-87.6	11.0
2025-01-15 12:53:44.532858	305.3	25.1	-88.2	8.0
2025-01-15 12:53:45.683839	305.0	25.0	-87.8	8.6
2025-01-15 12:53:46.835121	304.7	24.9	-88.1	9.8
2025-01-15 12:53:47.983093	304.4	24.9	-88.1	8.1
2025-01-15 12:53:49.130754	304.1	24.8	-87.9	8.3
2025-01-15 12:53:50.278518	303.9	24.7	-87.3	8.9
2025-01-15 12:53:51.431243	303.6	24.6	-88.2	6.6
2025-01-15 12:53:52.577930	303.3	24.5	-88.4	6.2
2025-01-15 12:53:53.725167	303.0	24.4	-87.8	10.2
2025-01-15 12:53:54.873561	302.8	24.3	-88.1	8.1
2025-01-15 12:53:56.018817	302.5	24.2	-88.4	5.0
2025-01-15 12:53:57.170503	302.2	24.1	-88.4	6.9
2025-01-15 12:53:58.319120	302.0	24.0	-87.8	6.1
2025-01-15 12:53:59.468201	301.7	23.9	-88.1	6.4
2025-01-15 12:54:00.613765	301.4	23.8	-88.6	6.1
2025-01-15 12:54:01.767645	301.2	23.7	-88.4	8.8
2025-01-15 12:54:02.921308	300.9	23.6	-88.1	6.6
2025-01-15 12:54:04.064353	300.7	23.5	-87.7	5.4
2025-01-15 12:54:05.211475	300.4	23.4	-88.1	6.6
2025-01-15 12:54:06.358739	300.1	23.3	-87.8	7.1
2025-01-15 12:54:07.504907	299.9	23.2	-88.1	8.0
2025-01-15 12:54:08.650274	299.6	23.1	-88.2	7.1
2025-01-15 12:54:09.797503	299.4	23.0	-87.7	11.5
2025-01-15 12:54:10.948639	299.1	22.9	-88.2	8.3
2025-01-15 12:54:12.093505	298.9	22.8	-88.1	7.7
2025-01-15 12:54:13.245207	298.6	22.7	-88.4	9.5
2025-01-15 12:54:14.391442	298.4	22.6	-87.9	8.0
2025-01-15 12:54:15.537498	298.2	22.5	-88.3	6.6
2025-01-15 12:54:16.692621	297.9	22.4	-88.6	14.5
2025-01-15 12:54:17.843709	297.7	22.3	-88.0	7.5
2025-01-15 12:54:18.994879	297.4	22.2	-88.4	5.0
2025-01-15 12:54:20.140711	297.2	22.1	-88.2	11.5
2025-01-15 12:54:21.291139	297.0	22.0	-88.3	4.9
2025-01-15 12:54:22.437619	296.7	21.9	-88.2	9.5
2025-01-15 12:54:23.583475	296.5	21.8	-88.1	7.0
2025-01-15 12:54:24.731187	296.3	21.7	-88.4	6.2
2025-01-15 12:54:25.880188	296.0	21.6	-88.7	10.4
2025-01-15 12:54:27.023709	295.8	21.5	-88.6	6.0
2025-01-15 12:54:28.172414	295.6	21.4	-88.4	5.3
2025-01-15 12:54:29.320833	295.4	21.3	-88.5	5.1
2025-01-15 12:54:30.472760	295.1	21.2	-87.2	7.2
2025-01-15 12:54:31.618548	294.9	21.1	-87.7	6.8
2025-01-15 12:54:32.765336	294.7	21.0	-88.1	9.8
2025-01-15 12:54:33.920153	294.5	20.9	-87.8	8.4
2025-01-15 12:54:35.062772	294.3	20.8	-87.4	5.9
2025-01-15 12:54:36.208971	294.1	20.7	-87.3	15.2
2025-01-15 12:54:37.360518	293.8	20.6	-87.7	10.8
2025-01-15 12:54:38.508352	293.6	20.5	-87.5	5.9
2025-01-15 12:54:39.658587	293.4	20.4	-88.4	5.8
2025-01-15 12:54:40.807691	293.2	20.3	-88.4	8.6
2025-01-15 12:54:41.956764	293.0	20.2	-88.3	8.4
2025-01-15 12:54:43.102323	292.8	20.1	-88.6	11.4
2025-01-15 12:54:44.250582	292.6	20.0	-88.8	8.1
2025-01-15 12:54:45.400784	292.4	19.9	-88.5	4.8
2025-01-15 12:54:46.545526	292.2	19.8	-87.8	9.5
2025-01-15 12:54:47.699780	292.0	19.7	-88.1	11.1
2025-01-15 12:54:48.844991	291.8	19.6	-87.9	7.1
2025-01-15 12:54:49.995040	291.6	19.5	-88.2	4.8
2025-01-15 12:54:51.140650	291.4	19.4	-87.5	4.7
2025-01-15 12:54:52.287565	291.2	19.3	-88.0	9.5
2025-01-15 12:54:53.436645	291.0	19.2	-87.9	5.8
2025-01-15 12:54:54.580359	290.8	19.1	-88.1	6.9
2025-01-15 12:54:55.735743	290.6	19.0	-87.8	9.2
2025-01-15 12:54:56.885545	290.4	18.9	-88.3	5.5
2025-01-15 12:54:58.034112	290.2	18.8	-87.9	6.1
2025-01-15 12:54:59.190921	290.0	18.7	-87.2	7.5
2025-01-15 12:55:00.341742	289.8	18.6	-88.1	6.2
2025-01-15 12:55:01.497387	289.7	18.5	-88.3	6.4
2025-01-15 12:55:02.644111	289.5	18.4	-88.6	4.2
2025-01-15 12:55:03.793646	289.3	18.3	-88.7	7.2
2025-01-15 12:55:04.942076	289.1	18.2	-88.1	4.8
2025-01-15 12:55:06.085500	288.9	18.1	-88.2	8.6
2025-01-15 12:55:07.231265	288.7	18.0	-88.6	7.6
2025-01-15 12:55:08.378971	288.6	17.9	-88.1	8.6
2025-01-15 12:55:09.526528	288.4	17.8	-87.7	5.8
2025-01-15 12:55:10.674545	288.2	17.7	-88.4	7.3
2025-01-15 12:55:11.824638	288.0	17.6	-88.6	7.2
2025-01-15 12:55:12.972651	287.9	17.5	-88.3	6.1
2025-01-15 12:55:14.121095	287.7	17.4	-88.7	6.5
2025-01-15 12:55:15.272512	287.5	17.3	-89.0	7.5
2025-01-15 12:55:16.417457	287.3	17.2	-89.4	6.9
2025-01-15 12:55:17.566118	287.2	17.1	-88.8	5.5
2025-01-15 12:55:18.710353	287.0	17.0	-88.6	7.9
2025-01-15 12:55:19.853645	286.8	16.9	-88.6	7.6
2025-01-15 12:55:21.004076	286.7	16.8	-88.6	6.7
2025-01-15 12:55:22.148728	286.5	16.7	-88.6	7.8
2025-01-15 12:55:23.298827	286.3	16.6	-88.6	5.0
2025-01-15 12:55:24.450372	286.2	16.5	-87.7	11.7
2025-01-15 12:55:25.600231	286.0	16.4	-88.1	5.3
2025-01-15 12:55:26.744112	285.9	16.3	-87.9	8.7
2025-01-15 12:55:27.893623	285.7	16.2	-88.4	7.2
2025-01-15 12:55:29.043481	285.5	16.1	-88.2	6.9
2025-01-15 12:55:30.195492	285.4	16.0	-88.4	6.1
2025-01-15 12:55:31.343131	285.2	15.9	-87.7	8.2
2025-01-15 12:55:32.487971	285.1	15.8	-88.3	6.0
2025-01-15 12:55:33.633883	284.9	15.7	-88.1	6.1
2025-01-15 12:55:34.780032	284.8	15.6	-88.7	4.9
2025-01-15 12:55:35.923639	284.6	15.5	-88.0	7.2
2025-01-15 12:55:37.075007	284.5	15.4	-87.6	7.3
2025-01-15 12:55:38.222414	284.3	15.3	-88.0	6.7
2025-01-15 12:55:39.369769	284.2	15.2	-87.5	8.2
2025-01-15 12:55:40.523731	284.0	15.1	-87.7	8.1
2025-01-15 12:55:41.668376	283.9	15.0	-88.6	6.8
2025-01-15 12:55:42.814055	283.7	14.9	-88.6	5.7
2025-01-15 12:55:43.962933	283.6	14.8	-88.0	7.0
2025-01-15 12:55:45.110294	283.4	14.7	-87.9	2.8
2025-01-15 12:55:46.254004	283.3	14.6	-88.1	5.3
2025-01-15 12:55:47.392073	283.1	14.5	-88.2	4.2
#Closed at: 2025-01-15 12:48:30.684204