passes_logs/2025/01/15/LEX_Murmansk/LEX_Murmansk__20250115_090151_NOAA_19_rec.log

#Pass ID: 20250115_090151_NOAA 19
#Satellite: NOAA 19
#Configuration: NOAA 19
#Start time: 2025-01-15 09:01:46.597229

#LorettStation: 1.0.0 05.05.2024
#Station: LEX_Murmansk
#Location: 33.156738 lon 68.926811 lat
#TLE: 1 33591U 09005A   25014.15453959  .00000276  00000+0  17122-3 0  9998
#TLE: 2 33591  99.0198  77.9105 0014501  59.8090 300.4516 14.13258688821422

#Time	Az	El	Level	SNR
2025-01-15 09:01:58.727436	25.6	16.3	-90.6	3.2
2025-01-15 09:02:01.046539	25.6	16.6	-90.7	2.8
2025-01-15 09:02:03.360035	25.6	16.8	-90.4	1.7
2025-01-15 09:02:05.679706	25.6	17.1	-91.3	5.3
2025-01-15 09:02:07.994383	25.6	17.4	-90.8	3.3
2025-01-15 09:02:10.289601	25.6	17.6	-91.0	4.2
2025-01-15 09:02:12.607418	25.6	17.9	-90.7	3.8
2025-01-15 09:02:14.922829	25.6	18.2	-90.9	6.3
2025-01-15 09:02:17.239132	25.6	18.5	-91.0	1.9
2025-01-15 09:02:19.556035	25.6	18.8	-90.9	2.2
2025-01-15 09:02:21.871594	25.6	19.0	-91.0	8.1
2025-01-15 09:02:24.190062	25.6	19.3	-90.8	8.8
2025-01-15 09:02:26.505253	25.5	19.6	-91.0	7.6
2025-01-15 09:02:28.804240	25.5	19.9	-91.2	8.8
2025-01-15 09:02:31.113612	25.5	20.2	-91.1	7.7
2025-01-15 09:02:33.428038	25.5	20.5	-90.7	1.8
2025-01-15 09:02:35.746645	25.5	20.8	-91.1	2.6
2025-01-15 09:02:38.063603	25.5	21.1	-91.2	8.7
2025-01-15 09:02:40.388998	25.5	21.5	-91.0	5.0
2025-01-15 09:02:42.704334	25.5	21.8	-91.0	4.5
2025-01-15 09:02:45.016630	25.5	22.1	-90.7	9.9
2025-01-15 09:02:47.331842	25.4	22.4	-90.7	7.2
2025-01-15 09:02:49.634674	25.4	22.8	-91.1	6.3
2025-01-15 09:02:51.952326	25.4	23.1	-91.2	5.8
2025-01-15 09:02:54.255715	25.4	23.4	-90.8	10.0
2025-01-15 09:02:56.567282	25.4	23.8	-90.9	9.1
2025-01-15 09:02:58.877268	25.4	24.1	-90.9	8.0
2025-01-15 09:03:01.186334	25.3	24.5	-91.2	14.3
2025-01-15 09:03:03.495067	25.3	24.8	-91.1	6.9
2025-01-15 09:03:05.802628	25.3	25.2	-91.0	0.3
2025-01-15 09:03:08.110781	25.3	25.6	-91.1	3.4
2025-01-15 09:03:10.419860	25.3	25.9	-91.2	8.7
2025-01-15 09:03:12.741073	25.3	26.3	-90.9	7.8
2025-01-15 09:03:15.066962	25.2	26.7	-90.6	5.9
2025-01-15 09:03:17.375875	25.2	27.1	-91.3	3.6
2025-01-15 09:03:19.687431	25.2	27.5	-90.2	7.2
2025-01-15 09:03:22.004472	25.2	27.9	-90.6	3.5
2025-01-15 09:03:24.321778	25.1	28.3	-89.9	2.3
2025-01-15 09:03:26.631818	25.1	28.7	-91.1	7.9
2025-01-15 09:03:28.949632	25.1	29.1	-90.9	8.3
2025-01-15 09:03:31.277194	25.1	29.5	-91.2	4.1
2025-01-15 09:03:33.600650	25.0	30.0	-91.3	10.2
2025-01-15 09:03:35.904213	25.0	30.4	-90.8	10.2
2025-01-15 09:03:38.238519	25.0	30.9	-91.1	2.4
2025-01-15 09:03:40.559506	25.0	31.3	-91.2	3.8
2025-01-15 09:03:42.871563	24.9	31.8	-91.2	5.7
2025-01-15 09:03:45.180647	24.9	32.2	-91.1	9.4
2025-01-15 09:03:47.493953	24.9	32.7	-91.2	6.6
2025-01-15 09:03:49.808859	24.8	33.2	-91.2	5.3
2025-01-15 09:03:52.126335	24.8	33.7	-90.2	8.0
2025-01-15 09:03:54.434824	24.7	34.2	-90.5	7.2
2025-01-15 09:03:56.747385	24.7	34.7	-90.5	0.3
2025-01-15 09:03:59.076706	24.7	35.2	-90.3	4.0
2025-01-15 09:04:01.390854	24.6	35.7	-90.3	9.7
2025-01-15 09:04:03.692124	24.6	36.2	-90.4	6.2
2025-01-15 09:04:06.001441	24.5	36.8	-90.5	6.8
2025-01-15 09:04:08.317018	24.5	37.3	-91.1	8.1
2025-01-15 09:04:10.631800	24.4	37.9	-91.2	10.3
2025-01-15 09:04:12.957130	24.4	38.4	-91.0	6.8
2025-01-15 09:04:15.259379	24.3	39.0	-91.4	1.9
2025-01-15 09:04:17.569633	24.3	39.6	-91.2	8.3
2025-01-15 09:04:19.886142	24.2	40.2	-91.3	16.2
2025-01-15 09:04:22.201180	24.2	40.8	-90.6	13.8
2025-01-15 09:04:24.506934	24.1	41.4	-91.0	13.6
2025-01-15 09:04:26.816704	24.0	42.0	-91.0	12.2
2025-01-15 09:04:29.120772	24.0	42.7	-90.8	15.3
2025-01-15 09:04:31.431658	23.9	43.3	-90.9	9.6
2025-01-15 09:04:33.745083	23.8	44.0	-90.8	2.9
2025-01-15 09:04:36.056607	23.7	44.6	-91.1	8.7
2025-01-15 09:04:38.374174	23.6	45.3	-90.9	12.0
2025-01-15 09:04:40.683894	23.6	46.0	-91.3	16.3
2025-01-15 09:04:42.995393	23.5	46.7	-90.9	12.7
2025-01-15 09:04:45.307877	23.4	47.4	-90.8	6.2
2025-01-15 09:04:47.621062	23.3	48.1	-91.1	11.5
2025-01-15 09:04:49.925957	23.2	48.9	-91.1	10.2
2025-01-15 09:04:52.244560	23.0	49.6	-91.2	5.7
2025-01-15 09:04:54.546688	22.9	50.4	-91.0	4.1
2025-01-15 09:04:56.848502	22.8	51.2	-91.1	4.9
2025-01-15 09:04:59.160269	22.7	52.0	-91.0	9.6
2025-01-15 09:05:01.470875	22.5	52.8	-91.3	13.9
2025-01-15 09:05:03.781731	22.4	53.6	-91.1	2.2
2025-01-15 09:05:06.091334	22.2	54.4	-90.9	7.5
2025-01-15 09:05:08.401042	22.1	55.2	-91.0	8.4
2025-01-15 09:05:10.720836	21.9	56.1	-91.1	10.4
2025-01-15 09:05:13.042368	21.7	57.0	-91.1	6.9
2025-01-15 09:05:15.354174	21.5	57.8	-91.2	3.1
2025-01-15 09:05:17.678018	21.3	58.7	-91.2	2.6
2025-01-15 09:05:19.993926	21.0	59.7	-91.2	5.1
2025-01-15 09:05:22.301194	20.8	60.6	-91.2	13.8
2025-01-15 09:05:24.609955	20.5	61.5	-90.9	15.0
2025-01-15 09:05:26.927085	20.2	62.4	-91.4	16.0
2025-01-15 09:05:29.234118	19.9	63.4	-90.9	8.4
2025-01-15 09:05:31.546264	19.5	64.4	-91.4	7.6
2025-01-15 09:05:33.862114	19.2	65.4	-91.1	11.6
2025-01-15 09:05:36.160864	18.7	66.3	-90.9	16.9
2025-01-15 09:05:38.466749	18.3	67.3	-91.0	14.1
2025-01-15 09:05:40.776543	17.8	68.4	-91.2	8.6
2025-01-15 09:05:43.092798	17.2	69.4	-91.2	2.2
2025-01-15 09:05:45.417676	16.6	70.4	-90.9	4.8
2025-01-15 09:05:47.723710	15.9	71.5	-91.3	4.4
2025-01-15 09:05:50.049214	15.1	72.5	-91.1	9.4
2025-01-15 09:05:52.354725	14.2	73.6	-91.0	12.1
2025-01-15 09:05:54.677599	13.2	74.6	-91.1	9.2
2025-01-15 09:05:56.998001	12.0	75.7	-91.5	14.8
2025-01-15 09:05:59.313299	10.6	76.8	-91.1	12.3
2025-01-15 09:06:01.629724	8.9	77.8	-89.8	12.2
2025-01-15 09:06:03.945937	7.0	78.9	-90.2	11.3
2025-01-15 09:06:06.280285	4.5	79.9	-90.4	7.9
2025-01-15 09:06:08.594055	1.6	81.0	-90.1	10.6
2025-01-15 09:06:10.910359	357.8	82.0	-90.4	12.7
2025-01-15 09:06:13.233906	353.0	83.0	-90.2	15.4
2025-01-15 09:06:15.532351	346.8	83.9	-90.1	21.0
2025-01-15 09:06:17.845938	338.5	84.7	-90.5	19.8
2025-01-15 09:06:20.158145	327.5	85.3	-90.4	19.0
2025-01-15 09:06:22.467939	313.6	85.8	-90.1	14.6
2025-01-15 09:06:24.776404	297.6	85.9	-89.9	13.8
2025-01-15 09:06:27.081173	281.8	85.7	-90.1	11.8
2025-01-15 09:06:29.391756	268.2	85.3	-91.1	11.5
2025-01-15 09:06:31.709130	257.5	84.6	-90.6	7.8
2025-01-15 09:06:34.033097	249.3	83.8	-90.2	8.2
2025-01-15 09:06:36.345487	243.2	82.9	-89.9	2.9
2025-01-15 09:06:38.645534	238.6	81.9	-90.1	13.1
2025-01-15 09:06:40.961769	234.9	80.9	-89.8	9.3
2025-01-15 09:06:43.283491	232.0	79.8	-90.4	3.4
2025-01-15 09:06:45.583927	229.7	78.8	-90.4	9.3
2025-01-15 09:06:47.908511	227.7	77.7	-91.0	10.1
2025-01-15 09:06:50.220048	226.1	76.7	-89.0	4.7
2025-01-15 09:06:52.546872	224.7	75.6	-91.2	7.1
2025-01-15 09:06:54.854904	223.5	74.5	-91.3	4.4
2025-01-15 09:06:57.179008	222.5	73.5	-91.0	5.6
2025-01-15 09:06:59.492604	221.6	72.4	-91.1	9.3
2025-01-15 09:07:01.806642	220.9	71.4	-91.5	6.1
2025-01-15 09:07:04.119443	220.2	70.3	-90.6	8.6
2025-01-15 09:07:06.429030	219.5	69.3	-91.2	12.2
2025-01-15 09:07:08.743477	219.0	68.3	-90.5	17.7
2025-01-15 09:07:11.045276	218.5	67.3	-91.4	10.1
2025-01-15 09:07:13.359303	218.0	66.3	-90.9	15.1
2025-01-15 09:07:15.666258	217.6	65.3	-91.1	11.0
2025-01-15 09:07:17.991103	217.2	64.3	-91.1	10.4
2025-01-15 09:07:20.300668	216.9	63.3	-90.4	15.9
2025-01-15 09:07:22.615312	216.6	62.4	-89.4	13.1
2025-01-15 09:07:24.926322	216.3	61.4	-90.7	14.7
2025-01-15 09:07:27.237067	216.0	60.5	-90.9	15.3
2025-01-15 09:07:29.544963	215.8	59.6	-91.2	16.2
2025-01-15 09:07:31.850962	215.5	58.7	-91.0	15.6
2025-01-15 09:07:34.171719	215.3	57.8	-90.9	19.0
2025-01-15 09:07:36.484112	215.1	56.9	-91.0	14.4
2025-01-15 09:07:38.794797	214.9	56.0	-91.3	15.6
2025-01-15 09:07:41.111292	214.7	55.2	-91.2	9.3
2025-01-15 09:07:43.434134	214.6	54.3	-91.1	11.2
2025-01-15 09:07:45.744672	214.4	53.5	-91.5	15.2
2025-01-15 09:07:48.064994	214.3	52.7	-91.1	7.7
2025-01-15 09:07:50.366340	214.1	51.9	-90.8	13.1
2025-01-15 09:07:52.680932	214.0	51.1	-91.4	15.5
2025-01-15 09:07:54.989234	213.9	50.3	-91.1	10.5
2025-01-15 09:07:57.307372	213.7	49.6	-90.5	10.3
2025-01-15 09:07:59.632305	213.6	48.8	-90.0	10.8
2025-01-15 09:08:01.935848	213.5	48.1	-90.5	10.0
2025-01-15 09:08:04.249510	213.4	47.3	-90.2	10.2
2025-01-15 09:08:06.565355	213.3	46.6	-90.3	4.4
2025-01-15 09:08:08.877192	213.2	45.9	-90.3	8.3
2025-01-15 09:08:11.183906	213.2	45.2	-90.4	8.2
2025-01-15 09:08:13.497482	213.1	44.6	-90.6	4.4
2025-01-15 09:08:15.808229	213.0	43.9	-90.8	7.4
2025-01-15 09:08:18.115021	212.9	43.2	-90.4	8.1
2025-01-15 09:08:20.429264	212.8	42.6	-90.4	7.8
2025-01-15 09:08:22.748353	212.8	42.0	-90.5	10.4
2025-01-15 09:08:25.064916	212.7	41.3	-90.8	6.9
2025-01-15 09:08:27.371776	212.6	40.7	-90.7	6.8
2025-01-15 09:08:29.688464	212.6	40.1	-91.1	7.0
2025-01-15 09:08:31.999099	212.5	39.5	-91.4	2.8
2025-01-15 09:08:34.306112	212.5	39.0	-91.1	4.8
2025-01-15 09:08:36.617375	212.4	38.4	-91.2	1.2
2025-01-15 09:08:38.933057	212.4	37.8	-91.4	5.6
2025-01-15 09:08:41.248700	212.3	37.3	-90.5	5.3
2025-01-15 09:08:43.570853	212.3	36.7	-90.6	3.3
2025-01-15 09:08:45.888550	212.2	36.2	-90.5	6.3
2025-01-15 09:08:48.203448	212.2	35.6	-90.5	8.2
2025-01-15 09:08:50.506392	212.1	35.1	-90.4	2.1
2025-01-15 09:08:52.827567	212.1	34.6	-91.2	5.9
2025-01-15 09:08:55.139477	212.0	34.1	-90.9	7.1
2025-01-15 09:08:57.453422	212.0	33.6	-91.5	5.9
2025-01-15 09:08:59.765383	212.0	33.1	-90.8	4.5
2025-01-15 09:09:02.083804	211.9	32.7	-91.4	2.6
2025-01-15 09:09:04.405469	211.9	32.2	-91.1	3.4
2025-01-15 09:09:06.714546	211.9	31.7	-91.2	1.0
2025-01-15 09:09:09.035398	211.8	31.3	-91.1	2.8
2025-01-15 09:09:11.348138	211.8	30.8	-90.5	1.2
2025-01-15 09:09:13.674898	211.8	30.4	-90.8	3.6
2025-01-15 09:09:15.986007	211.7	29.9	-90.5	3.6
2025-01-15 09:09:18.290649	211.7	29.5	-91.1	6.1
2025-01-15 09:09:20.620873	211.7	29.1	-91.1	6.3
2025-01-15 09:09:22.942760	211.7	28.6	-91.1	7.9
2025-01-15 09:09:25.271906	211.6	28.2	-91.4	8.8
2025-01-15 09:09:27.573498	211.6	27.8	-91.0	3.9
2025-01-15 09:09:29.878584	211.6	27.4	-91.3	4.0
2025-01-15 09:09:32.198344	211.6	27.0	-91.4	5.5
2025-01-15 09:09:34.507079	211.5	26.6	-91.3	4.4
2025-01-15 09:09:36.803329	211.5	26.3	-91.4	4.0
2025-01-15 09:09:39.097807	211.5	25.9	-91.0	3.8
2025-01-15 09:09:41.413287	211.5	25.5	-90.9	7.1
2025-01-15 09:09:43.722756	211.5	25.2	-91.4	9.2
2025-01-15 09:09:46.044251	211.4	24.8	-90.8	5.4
2025-01-15 09:09:48.348306	211.4	24.4	-91.2	7.3
2025-01-15 09:09:50.656871	211.4	24.1	-91.2	6.7
2025-01-15 09:09:52.980963	211.4	23.7	-91.4	8.2
2025-01-15 09:09:55.292232	211.4	23.4	-91.0	7.5
2025-01-15 09:09:57.603164	211.4	23.0	-91.2	6.4
2025-01-15 09:09:59.905347	211.3	22.7	-91.5	7.1
2025-01-15 09:10:02.224073	211.3	22.4	-90.8	7.0
2025-01-15 09:10:04.526941	211.3	22.1	-90.5	6.0
2025-01-15 09:10:06.833928	211.3	21.7	-90.6	4.8
2025-01-15 09:10:09.148471	211.3	21.4	-90.4	6.4
2025-01-15 09:10:11.461944	211.3	21.1	-90.7	6.3
2025-01-15 09:10:13.783181	211.3	20.8	-90.6	5.5
2025-01-15 09:10:16.092229	211.3	20.5	-90.8	3.8
2025-01-15 09:10:18.394328	211.2	20.2	-90.3	3.8
2025-01-15 09:10:20.714793	211.2	19.9	-90.3	4.1
2025-01-15 09:10:23.028372	211.2	19.6	-90.5	1.1
2025-01-15 09:10:25.354727	211.2	19.3	-90.2	4.0
2025-01-15 09:10:27.671314	211.2	19.0	-90.8	5.4
2025-01-15 09:10:29.986890	211.2	18.7	-90.2	3.1
2025-01-15 09:10:32.297915	211.2	18.4	-90.3	0.9
2025-01-15 09:10:34.618195	211.2	18.2	-90.2	3.9
2025-01-15 09:10:36.935559	211.2	17.9	-90.3	2.4
2025-01-15 09:10:39.254274	211.2	17.6	-90.7	2.1
2025-01-15 09:10:41.665335	211.1	17.3	-91.6	2.2
2025-01-15 09:10:43.969814	211.1	17.1	-91.3	3.6
2025-01-15 09:10:46.285495	211.1	16.8	-91.3	6.1
2025-01-15 09:10:48.598266	211.1	16.5	-91.2	5.0
2025-01-15 09:10:50.912523	211.1	16.3	-90.4	3.3
2025-01-15 09:10:53.228831	211.1	16.0	-90.4	1.8
2025-01-15 09:10:55.538555	211.1	15.8	-90.7	2.3
2025-01-15 09:10:57.851083	211.1	15.5	-90.7	1.6
2025-01-15 09:11:00.162020	211.1	15.3	-90.2	5.1
2025-01-15 09:11:02.473726	211.1	15.0	-90.4	2.3
2025-01-15 09:11:04.784813	211.1	14.8	-90.4	2.8
2025-01-15 09:11:07.097383	211.1	14.5	-90.3	3.3
#Closed at: 2025-01-15 09:01:51.545506