passes_logs/2025/01/15/LEX_Murmansk/LEX_Murmansk__20250115_210950_NOAA_18_rec.log

#Pass ID: 20250115_210950_NOAA 18
#Satellite: NOAA 18
#Configuration: NOAA 18
#Start time: 2025-01-15 21:09:45.412812

#LorettStation: 1.0.0 05.05.2024
#Station: LEX_Murmansk
#Location: 33.156738 lon 68.926811 lat
#TLE: 1 28654U 05018A   25015.16278545  .00000300  00000+0  18295-3 0  9990
#TLE: 2 28654  98.8567  96.2156 0014367 178.7074 181.4138 14.13486503 13201

#Time	Az	El	Level	SNR
2025-01-15 21:09:57.604118	230.3	15.9	-92.4	7.1
2025-01-15 21:09:58.752856	230.5	16.0	-93.0	11.7
2025-01-15 21:09:59.902620	230.7	16.1	-92.7	9.9
2025-01-15 21:10:01.052240	230.9	16.1	-92.7	12.4
2025-01-15 21:10:02.209122	231.1	16.2	-92.2	8.3
2025-01-15 21:10:03.364561	231.3	16.3	-92.1	7.4
2025-01-15 21:10:04.525866	231.4	16.4	-92.9	7.1
2025-01-15 21:10:05.673613	231.6	16.5	-92.6	6.8
2025-01-15 21:10:06.826727	231.8	16.6	-93.1	8.5
2025-01-15 21:10:07.980191	232.0	16.6	-92.6	10.3
2025-01-15 21:10:09.126875	232.2	16.7	-92.7	6.7
2025-01-15 21:10:10.274861	232.4	16.8	-92.3	7.3
2025-01-15 21:10:11.428428	232.6	16.9	-92.7	4.5
2025-01-15 21:10:12.577723	232.8	17.0	-93.0	7.3
2025-01-15 21:10:13.725435	233.0	17.1	-92.7	8.3
2025-01-15 21:10:14.876750	233.2	17.1	-92.6	7.0
2025-01-15 21:10:16.020415	233.4	17.2	-92.9	4.5
2025-01-15 21:10:17.164286	233.6	17.3	-92.3	7.4
2025-01-15 21:10:18.305220	233.8	17.4	-92.7	12.7
2025-01-15 21:10:19.457502	234.0	17.5	-93.1	9.6
2025-01-15 21:10:20.611447	234.2	17.6	-92.9	12.0
2025-01-15 21:10:21.765231	234.4	17.6	-92.8	12.3
2025-01-15 21:10:22.916513	234.6	17.7	-92.6	5.7
2025-01-15 21:10:24.061055	234.8	17.8	-92.5	5.2
2025-01-15 21:10:25.206709	235.0	17.9	-92.8	13.0
2025-01-15 21:10:26.357352	235.2	18.0	-92.5	9.9
2025-01-15 21:10:27.508579	235.4	18.0	-92.5	13.2
2025-01-15 21:10:28.657131	235.6	18.1	-92.7	10.6
2025-01-15 21:10:29.802480	235.8	18.2	-93.2	5.7
2025-01-15 21:10:30.953715	236.1	18.3	-92.7	15.3
2025-01-15 21:10:32.104712	236.3	18.4	-92.6	10.7
2025-01-15 21:10:33.248891	236.5	18.5	-92.7	8.7
2025-01-15 21:10:34.394437	236.7	18.5	-92.9	6.3
2025-01-15 21:10:35.536262	236.9	18.6	-92.8	7.9
2025-01-15 21:10:36.688412	237.1	18.7	-93.2	11.5
2025-01-15 21:10:37.837147	237.4	18.8	-93.5	13.0
2025-01-15 21:10:38.988279	237.6	18.9	-93.0	6.0
2025-01-15 21:10:40.131629	237.8	18.9	-93.0	7.1
2025-01-15 21:10:41.277930	238.0	19.0	-92.8	13.0
2025-01-15 21:10:42.424236	238.2	19.1	-93.2	9.7
2025-01-15 21:10:43.575507	238.5	19.2	-93.2	9.9
2025-01-15 21:10:44.727368	238.7	19.3	-93.1	14.4
2025-01-15 21:10:45.878931	238.9	19.4	-93.3	15.5
2025-01-15 21:10:47.031258	239.1	19.4	-92.6	10.2
2025-01-15 21:10:48.183568	239.4	19.5	-92.9	12.8
2025-01-15 21:10:49.330070	239.6	19.6	-92.8	15.2
2025-01-15 21:10:50.482367	239.8	19.7	-93.2	11.3
2025-01-15 21:10:51.637809	240.1	19.8	-93.1	13.6
2025-01-15 21:10:52.783146	240.3	19.8	-93.2	10.5
2025-01-15 21:10:53.930625	240.5	19.9	-93.1	16.4
2025-01-15 21:10:55.080203	240.8	20.0	-93.1	12.8
2025-01-15 21:10:56.239338	241.0	20.1	-93.0	11.9
2025-01-15 21:10:57.386685	241.3	20.1	-92.8	11.1
2025-01-15 21:10:58.532977	241.5	20.2	-93.0	10.2
2025-01-15 21:10:59.684544	241.7	20.3	-92.9	11.8
2025-01-15 21:11:00.832597	242.0	20.4	-92.7	11.7
2025-01-15 21:11:01.978127	242.2	20.5	-93.2	6.0
2025-01-15 21:11:03.122387	242.5	20.5	-93.1	8.2
2025-01-15 21:11:04.270281	242.7	20.6	-92.5	8.9
2025-01-15 21:11:05.416586	243.0	20.7	-93.0	4.7
2025-01-15 21:11:06.564719	243.2	20.8	-93.3	9.4
2025-01-15 21:11:07.719289	243.4	20.8	-93.0	5.3
2025-01-15 21:11:08.871898	243.7	20.9	-93.2	6.9
2025-01-15 21:11:10.013942	243.9	21.0	-92.8	10.7
2025-01-15 21:11:11.171082	244.2	21.1	-92.7	12.1
2025-01-15 21:11:12.339838	244.5	21.1	-92.6	10.3
2025-01-15 21:11:13.488988	244.7	21.2	-92.8	8.1
2025-01-15 21:11:14.637448	245.0	21.3	-93.1	6.4
2025-01-15 21:11:15.782555	245.2	21.4	-93.2	8.1
2025-01-15 21:11:16.933595	245.5	21.4	-93.0	4.7
2025-01-15 21:11:18.079660	245.7	21.5	-93.0	5.6
2025-01-15 21:11:19.229531	246.0	21.6	-92.9	4.2
2025-01-15 21:11:20.375540	246.3	21.6	-92.8	4.1
2025-01-15 21:11:21.518953	246.5	21.7	-92.7	5.3
2025-01-15 21:11:22.667198	246.8	21.8	-92.5	6.7
2025-01-15 21:11:23.820388	247.1	21.9	-92.5	1.0
2025-01-15 21:11:24.974092	247.3	21.9	-92.9	2.2
2025-01-15 21:11:26.127963	247.6	22.0	-92.7	6.9
2025-01-15 21:11:27.281924	247.9	22.1	-92.7	3.8
2025-01-15 21:11:28.433568	248.1	22.1	-93.0	4.3
2025-01-15 21:11:29.580697	248.4	22.2	-93.1	4.9
2025-01-15 21:11:30.725411	248.7	22.3	-93.0	6.1
2025-01-15 21:11:31.872406	249.0	22.3	-93.5	2.8
2025-01-15 21:11:33.017718	249.2	22.4	-93.4	3.6
2025-01-15 21:11:34.166881	249.5	22.5	-92.7	8.5
2025-01-15 21:11:35.314573	249.8	22.5	-92.8	6.7
2025-01-15 21:11:36.462061	250.1	22.6	-93.0	5.6
2025-01-15 21:11:37.606609	250.3	22.7	-92.7	5.4
2025-01-15 21:11:38.757982	250.6	22.7	-93.1	8.1
2025-01-15 21:11:39.908163	250.9	22.8	-93.3	5.4
2025-01-15 21:11:41.057500	251.2	22.9	-93.2	7.5
2025-01-15 21:11:42.205240	251.5	22.9	-92.6	6.2
2025-01-15 21:11:43.347814	251.8	23.0	-92.8	5.7
2025-01-15 21:11:44.495685	252.0	23.0	-93.2	4.5
2025-01-15 21:11:45.651921	252.3	23.1	-93.0	6.0
2025-01-15 21:11:46.796267	252.6	23.2	-92.9	6.8
2025-01-15 21:11:47.943325	252.9	23.2	-93.1	5.1
2025-01-15 21:11:49.093946	253.2	23.3	-93.1	8.6
2025-01-15 21:11:50.240950	253.5	23.3	-92.6	11.3
2025-01-15 21:11:51.390529	253.8	23.4	-92.8	10.9
2025-01-15 21:11:52.540733	254.1	23.5	-92.9	13.0
2025-01-15 21:11:53.689113	254.4	23.5	-93.2	9.0
2025-01-15 21:11:54.839963	254.7	23.6	-92.9	7.6
2025-01-15 21:11:55.985033	255.0	23.6	-93.0	4.7
2025-01-15 21:11:57.135474	255.3	23.7	-93.0	11.2
2025-01-15 21:11:58.291513	255.6	23.7	-92.6	12.6
2025-01-15 21:11:59.439411	255.9	23.8	-93.2	5.1
2025-01-15 21:12:00.591827	256.2	23.8	-93.1	7.4
2025-01-15 21:12:01.734110	256.5	23.9	-93.1	12.4
2025-01-15 21:12:02.885272	256.8	23.9	-93.2	5.1
2025-01-15 21:12:04.035624	257.1	24.0	-92.8	6.5
2025-01-15 21:12:05.184749	257.4	24.0	-92.7	14.3
2025-01-15 21:12:06.333588	257.7	24.1	-93.0	10.5
2025-01-15 21:12:07.481728	258.0	24.1	-92.8	8.8
2025-01-15 21:12:08.642771	258.3	24.2	-92.7	15.0
2025-01-15 21:12:09.789089	258.6	24.2	-92.8	11.6
2025-01-15 21:12:10.937528	258.9	24.3	-93.0	16.5
2025-01-15 21:12:12.083109	259.2	24.3	-92.5	10.6
2025-01-15 21:12:13.237635	259.5	24.4	-92.6	13.1
2025-01-15 21:12:14.380428	259.8	24.4	-92.9	14.5
2025-01-15 21:12:15.524507	260.1	24.4	-93.2	9.2
2025-01-15 21:12:16.674915	260.5	24.5	-93.3	9.9
2025-01-15 21:12:17.821851	260.8	24.5	-93.3	12.3
2025-01-15 21:12:18.980967	261.1	24.6	-93.2	8.6
2025-01-15 21:12:20.122980	261.4	24.6	-92.5	10.4
2025-01-15 21:12:21.271003	261.7	24.6	-92.6	13.0
2025-01-15 21:12:22.419092	262.0	24.7	-92.5	10.1
2025-01-15 21:12:23.565608	262.4	24.7	-93.1	8.3
2025-01-15 21:12:24.719518	262.7	24.8	-93.3	6.8
2025-01-15 21:12:25.864475	263.0	24.8	-93.2	12.9
2025-01-15 21:12:27.009216	263.3	24.8	-93.1	15.7
2025-01-15 21:12:28.161125	263.6	24.9	-92.9	17.2
2025-01-15 21:12:29.308599	264.0	24.9	-92.6	15.8
2025-01-15 21:12:30.455242	264.3	24.9	-93.1	16.5
2025-01-15 21:12:31.600861	264.6	24.9	-92.7	20.2
2025-01-15 21:12:32.747395	264.9	25.0	-93.1	16.1
2025-01-15 21:12:33.891546	265.2	25.0	-93.1	14.5
2025-01-15 21:12:35.041131	265.6	25.0	-92.6	11.8
2025-01-15 21:12:36.189090	265.9	25.1	-92.8	15.4
2025-01-15 21:12:37.332297	266.2	25.1	-93.2	18.7
2025-01-15 21:12:38.481810	266.5	25.1	-93.2	9.4
2025-01-15 21:12:39.629040	266.9	25.1	-93.3	14.2
2025-01-15 21:12:40.776794	267.2	25.2	-93.0	11.7
2025-01-15 21:12:41.922847	267.5	25.2	-93.2	10.5
2025-01-15 21:12:43.070390	267.8	25.2	-93.1	13.2
2025-01-15 21:12:44.221858	268.2	25.2	-92.5	19.2
2025-01-15 21:12:45.368645	268.5	25.2	-92.8	10.8
2025-01-15 21:12:46.514108	268.8	25.3	-93.0	7.5
2025-01-15 21:12:47.657613	269.2	25.3	-93.3	14.4
2025-01-15 21:12:48.806271	269.5	25.3	-93.2	13.8
2025-01-15 21:12:49.953154	269.8	25.3	-93.4	8.0
2025-01-15 21:12:51.097990	270.1	25.3	-93.0	11.8
2025-01-15 21:12:52.246045	270.5	25.3	-92.8	19.6
2025-01-15 21:12:53.393258	270.8	25.3	-93.4	10.9
2025-01-15 21:12:54.541365	271.1	25.4	-93.0	11.8
2025-01-15 21:12:55.690291	271.5	25.4	-93.2	13.3
2025-01-15 21:12:56.839576	271.8	25.4	-93.5	11.6
2025-01-15 21:12:57.992848	272.1	25.4	-93.0	16.5
2025-01-15 21:12:59.139812	272.5	25.4	-92.9	9.9
2025-01-15 21:13:00.292408	272.8	25.4	-92.8	14.7
2025-01-15 21:13:01.439009	273.1	25.4	-93.4	16.5
2025-01-15 21:13:02.590917	273.4	25.4	-93.5	12.2
2025-01-15 21:13:03.740726	273.8	25.4	-92.9	14.4
2025-01-15 21:13:04.887483	274.1	25.4	-93.2	11.7
2025-01-15 21:13:06.035491	274.4	25.4	-93.3	13.4
2025-01-15 21:13:07.182744	274.8	25.4	-92.6	21.0
2025-01-15 21:13:08.333384	275.1	25.4	-92.9	10.3
2025-01-15 21:13:09.480439	275.4	25.4	-93.1	17.6
2025-01-15 21:13:10.627004	275.8	25.4	-92.8	12.1
2025-01-15 21:13:11.776394	276.1	25.4	-92.7	16.4
2025-01-15 21:13:12.924572	276.4	25.4	-93.1	12.8
2025-01-15 21:13:14.076952	276.8	25.4	-93.0	11.6
2025-01-15 21:13:15.223055	277.1	25.4	-92.6	12.4
2025-01-15 21:13:16.377189	277.4	25.4	-93.0	8.3
2025-01-15 21:13:17.523037	277.8	25.4	-93.1	11.4
2025-01-15 21:13:18.659716	278.1	25.4	-92.9	15.3
2025-01-15 21:13:19.796570	278.4	25.4	-93.1	15.7
2025-01-15 21:13:20.948270	278.7	25.3	-93.1	6.3
2025-01-15 21:13:22.098710	279.1	25.3	-93.5	10.9
2025-01-15 21:13:23.253661	279.4	25.3	-92.6	14.7
2025-01-15 21:13:24.405141	279.7	25.3	-92.9	10.2
2025-01-15 21:13:25.559245	280.1	25.3	-92.9	9.5
2025-01-15 21:13:26.702816	280.4	25.3	-93.1	13.3
2025-01-15 21:13:27.848370	280.7	25.3	-93.0	16.3
2025-01-15 21:13:28.996989	281.1	25.2	-93.1	9.1
2025-01-15 21:13:30.147413	281.4	25.2	-93.2	12.5
2025-01-15 21:13:31.294689	281.7	25.2	-92.6	13.1
2025-01-15 21:13:32.442684	282.0	25.2	-93.0	7.6
2025-01-15 21:13:33.589310	282.4	25.2	-93.4	7.5
2025-01-15 21:13:34.733708	282.7	25.1	-93.1	11.3
2025-01-15 21:13:35.880975	283.0	25.1	-93.2	8.8
2025-01-15 21:13:37.034898	283.3	25.1	-93.2	11.1
2025-01-15 21:13:38.184246	283.7	25.1	-92.9	7.9
2025-01-15 21:13:39.338399	284.0	25.0	-93.2	10.3
2025-01-15 21:13:40.488548	284.3	25.0	-93.0	12.0
2025-01-15 21:13:41.639865	284.6	25.0	-93.2	10.1
2025-01-15 21:13:42.787534	285.0	24.9	-93.4	11.7
2025-01-15 21:13:43.931735	285.3	24.9	-92.6	10.3
2025-01-15 21:13:45.083607	285.6	24.9	-93.0	5.5
2025-01-15 21:13:46.232962	285.9	24.8	-92.9	8.4
2025-01-15 21:13:47.379717	286.2	24.8	-93.2	8.7
2025-01-15 21:13:48.532954	286.6	24.8	-93.5	12.8
2025-01-15 21:13:49.687154	286.9	24.7	-93.4	12.5
2025-01-15 21:13:50.829582	287.2	24.7	-93.3	14.4
2025-01-15 21:13:51.990424	287.5	24.7	-93.0	14.1
2025-01-15 21:13:53.142060	287.8	24.6	-93.0	12.0
2025-01-15 21:13:54.291576	288.2	24.6	-92.5	13.4
2025-01-15 21:13:55.440940	288.5	24.6	-92.9	11.6
2025-01-15 21:13:56.590396	288.8	24.5	-92.9	12.1
2025-01-15 21:13:57.742863	289.1	24.5	-93.3	16.4
2025-01-15 21:13:58.892761	289.4	24.4	-92.7	10.7
2025-01-15 21:14:00.044713	289.7	24.4	-92.9	13.4
2025-01-15 21:14:01.187395	290.0	24.3	-93.0	11.3
2025-01-15 21:14:02.338211	290.3	24.3	-93.1	11.6
2025-01-15 21:14:03.494660	290.7	24.3	-93.3	9.9
2025-01-15 21:14:04.648567	291.0	24.2	-93.2	10.6
2025-01-15 21:14:05.794427	291.3	24.2	-92.7	12.5
2025-01-15 21:14:06.945257	291.6	24.1	-92.9	14.9
2025-01-15 21:14:08.100052	291.9	24.1	-93.0	10.8
2025-01-15 21:14:09.248084	292.2	24.0	-92.8	14.2
2025-01-15 21:14:10.399863	292.5	24.0	-93.2	13.4
2025-01-15 21:14:11.548011	292.8	23.9	-93.0	12.5
2025-01-15 21:14:12.698171	293.1	23.9	-93.1	10.4
2025-01-15 21:14:13.843081	293.4	23.8	-93.3	9.9
2025-01-15 21:14:14.991787	293.7	23.8	-93.0	11.0
2025-01-15 21:14:16.144831	294.0	23.7	-93.0	8.9
2025-01-15 21:14:17.292385	294.3	23.7	-92.9	7.6
2025-01-15 21:14:18.443246	294.6	23.6	-93.4	8.7
2025-01-15 21:14:19.587766	294.9	23.5	-93.4	12.2
2025-01-15 21:14:20.741067	295.2	23.5	-93.3	13.6
2025-01-15 21:14:21.893524	295.5	23.4	-93.6	15.0
2025-01-15 21:14:23.039525	295.8	23.4	-92.9	9.3
2025-01-15 21:14:24.190375	296.1	23.3	-92.8	10.8
2025-01-15 21:14:25.337772	296.4	23.3	-93.5	12.3
2025-01-15 21:14:26.486776	296.7	23.2	-93.1	12.9
2025-01-15 21:14:27.637594	296.9	23.1	-93.0	11.6
2025-01-15 21:14:28.790227	297.2	23.1	-93.0	14.9
2025-01-15 21:14:29.937499	297.5	23.0	-93.2	8.1
2025-01-15 21:14:31.085626	297.8	23.0	-93.1	9.5
2025-01-15 21:14:32.236171	298.1	22.9	-92.5	16.4
2025-01-15 21:14:33.391816	298.4	22.8	-92.9	10.6
2025-01-15 21:14:34.542612	298.7	22.8	-93.2	10.1
2025-01-15 21:14:35.698971	298.9	22.7	-93.1	9.2
2025-01-15 21:14:36.854594	299.2	22.6	-93.3	14.1
2025-01-15 21:14:38.005253	299.5	22.6	-93.0	7.6
2025-01-15 21:14:39.156650	299.8	22.5	-93.4	16.8
2025-01-15 21:14:40.303456	300.1	22.4	-93.0	15.1
2025-01-15 21:14:41.449339	300.3	22.4	-93.2	9.1
2025-01-15 21:14:42.598885	300.6	22.3	-93.5	11.4
2025-01-15 21:14:43.751315	300.9	22.2	-93.2	11.1
2025-01-15 21:14:44.905555	301.1	22.2	-92.9	5.1
2025-01-15 21:14:46.051441	301.4	22.1	-92.9	4.5
2025-01-15 21:14:47.201757	301.7	22.0	-93.2	13.9
2025-01-15 21:14:48.353220	302.0	22.0	-92.8	15.6
2025-01-15 21:14:49.500661	302.2	21.9	-93.3	8.7
2025-01-15 21:14:50.647954	302.5	21.8	-93.4	15.0
2025-01-15 21:14:51.795195	302.8	21.8	-93.1	15.7
2025-01-15 21:14:52.949040	303.0	21.7	-93.4	10.3
2025-01-15 21:14:54.097268	303.3	21.6	-92.8	5.1
2025-01-15 21:14:55.245818	303.5	21.5	-93.0	15.2
2025-01-15 21:14:56.395200	303.8	21.5	-93.2	10.0
2025-01-15 21:14:57.552573	304.1	21.4	-93.3	8.2
2025-01-15 21:14:58.702993	304.3	21.3	-93.1	13.1
2025-01-15 21:14:59.848676	304.6	21.3	-93.1	18.1
2025-01-15 21:15:00.996755	304.8	21.2	-93.0	9.8
2025-01-15 21:15:02.142055	305.1	21.1	-93.0	10.9
2025-01-15 21:15:03.288498	305.3	21.0	-92.7	4.5
2025-01-15 21:15:04.442630	305.6	21.0	-93.2	8.4
2025-01-15 21:15:05.598080	305.9	20.9	-93.3	10.1
2025-01-15 21:15:06.746536	306.1	20.8	-93.4	9.6
2025-01-15 21:15:07.895823	306.3	20.7	-93.3	5.7
2025-01-15 21:15:09.047109	306.6	20.7	-93.0	9.1
2025-01-15 21:15:10.196462	306.8	20.6	-93.1	8.4
2025-01-15 21:15:11.341317	307.1	20.5	-92.6	10.3
2025-01-15 21:15:12.490863	307.3	20.4	-93.3	8.6
2025-01-15 21:15:13.637396	307.6	20.3	-93.2	8.4
2025-01-15 21:15:14.788319	307.8	20.3	-93.0	9.1
2025-01-15 21:15:15.938458	308.1	20.2	-93.2	8.5
2025-01-15 21:15:17.088157	308.3	20.1	-92.8	7.5
2025-01-15 21:15:18.234501	308.5	20.0	-93.1	6.8
2025-01-15 21:15:19.382407	308.8	20.0	-93.1	4.5
2025-01-15 21:15:20.535193	309.0	19.9	-93.1	8.1
2025-01-15 21:15:21.682425	309.2	19.8	-93.5	12.0
2025-01-15 21:15:22.827554	309.5	19.7	-93.5	7.4
2025-01-15 21:15:23.974677	309.7	19.6	-93.0	8.7
2025-01-15 21:15:25.124095	309.9	19.6	-93.0	6.6
2025-01-15 21:15:26.268832	310.2	19.5	-92.7	7.9
2025-01-15 21:15:27.422635	310.4	19.4	-93.3	5.3
2025-01-15 21:15:28.571663	310.6	19.3	-92.7	6.6
2025-01-15 21:15:29.720402	310.9	19.2	-92.9	4.2
2025-01-15 21:15:30.873046	311.1	19.2	-93.1	6.0
2025-01-15 21:15:32.014348	311.3	19.1	-92.9	4.9
2025-01-15 21:15:33.161907	311.5	19.0	-92.7	7.6
2025-01-15 21:15:34.307140	311.7	18.9	-92.8	10.8
2025-01-15 21:15:35.461120	312.0	18.8	-93.1	6.0
2025-01-15 21:15:36.607869	312.2	18.8	-93.1	3.6
2025-01-15 21:15:37.757833	312.4	18.7	-92.8	6.4
2025-01-15 21:15:38.905689	312.6	18.6	-93.3	5.4
2025-01-15 21:15:40.063807	312.8	18.5	-93.0	4.1
2025-01-15 21:15:41.207062	313.1	18.4	-92.7	5.3
2025-01-15 21:15:42.355429	313.3	18.4	-92.9	5.0
2025-01-15 21:15:43.519928	313.5	18.3	-93.3	9.3
2025-01-15 21:15:44.669691	313.7	18.2	-93.4	4.7
2025-01-15 21:15:45.820772	313.9	18.1	-93.3	6.9
2025-01-15 21:15:46.966897	314.1	18.0	-93.5	5.4
2025-01-15 21:15:48.114332	314.3	17.9	-93.1	5.0
2025-01-15 21:15:49.265489	314.5	17.9	-93.2	8.1
2025-01-15 21:15:50.414321	314.7	17.8	-93.3	12.4
2025-01-15 21:15:51.564186	314.9	17.7	-93.0	11.1
2025-01-15 21:15:52.710628	315.1	17.6	-93.1	4.7
2025-01-15 21:15:53.854065	315.3	17.5	-93.4	7.9
2025-01-15 21:15:55.000531	315.6	17.4	-93.0	6.2
2025-01-15 21:15:56.141254	315.8	17.4	-93.1	7.9
2025-01-15 21:15:57.292345	316.0	17.3	-93.2	7.1
2025-01-15 21:15:58.442462	316.2	17.2	-92.7	3.6
2025-01-15 21:15:59.591762	316.3	17.1	-93.0	4.6
2025-01-15 21:16:00.742231	316.5	17.0	-93.0	11.7
2025-01-15 21:16:01.887052	316.7	16.9	-93.1	5.5
2025-01-15 21:16:03.031926	316.9	16.9	-93.0	4.0
2025-01-15 21:16:04.179190	317.1	16.8	-92.9	5.1
2025-01-15 21:16:05.338268	317.3	16.7	-93.1	7.7
2025-01-15 21:16:06.490155	317.5	16.6	-93.5	4.5
2025-01-15 21:16:07.638585	317.7	16.5	-93.3	4.4
2025-01-15 21:16:08.794092	317.9	16.4	-93.1	11.9
2025-01-15 21:16:09.941245	318.1	16.4	-93.5	4.6
2025-01-15 21:16:11.091373	318.3	16.3	-92.9	6.1
2025-01-15 21:16:12.233086	318.5	16.2	-92.7	7.9
2025-01-15 21:16:13.395632	318.6	16.1	-92.8	4.7
2025-01-15 21:16:14.546418	318.8	16.0	-92.9	9.1
2025-01-15 21:16:15.692564	319.0	15.9	-93.4	5.9
2025-01-15 21:16:16.841573	319.2	15.9	-92.9	12.0
2025-01-15 21:16:17.989994	319.4	15.8	-93.0	5.3
2025-01-15 21:16:19.138785	319.6	15.7	-92.9	5.9
2025-01-15 21:16:20.284063	319.7	15.6	-92.8	9.3
2025-01-15 21:16:21.432770	319.9	15.5	-92.9	5.6
2025-01-15 21:16:22.591030	320.1	15.4	-92.6	4.8
2025-01-15 21:16:23.748037	320.3	15.4	-92.7	8.4
2025-01-15 21:16:24.896238	320.5	15.3	-92.8	7.1
2025-01-15 21:16:26.044560	320.6	15.2	-93.0	3.9
2025-01-15 21:16:27.192316	320.8	15.1	-93.0	3.5
2025-01-15 21:16:28.339059	321.0	15.0	-92.9	7.9
2025-01-15 21:16:29.485080	321.1	14.9	-93.2	4.5
2025-01-15 21:16:30.636263	321.3	14.9	-92.9	8.9
2025-01-15 21:16:31.781827	321.5	14.8	-92.7	9.7
2025-01-15 21:16:32.935347	321.7	14.7	-92.9	7.5
2025-01-15 21:16:34.089722	321.8	14.6	-92.9	4.5
#Closed at: 2025-01-15 21:09:50.408147