passes_logs/2025/01/15/LEX_Murmansk/LEX_Murmansk__20250115_074641_NOAA_18_rec.log

#Pass ID: 20250115_074641_NOAA 18
#Satellite: NOAA 18
#Configuration: NOAA 18
#Start time: 2025-01-15 07:46:36.152687

#LorettStation: 1.0.0 05.05.2024
#Station: LEX_Murmansk
#Location: 33.156738 lon 68.926811 lat
#TLE: 1 28654U 05018A   25014.17177243  .00000313  00000+0  18955-3 0  9990
#TLE: 2 28654  98.8569  95.2344 0014326 181.4762 178.6370 14.13485757 13061

#Time	Az	El	Level	SNR
2025-01-15 07:46:48.261401	41.6	15.9	-90.4	5.4
2025-01-15 07:46:49.423667	41.8	15.9	-90.1	5.0
2025-01-15 07:46:50.583708	42.0	16.0	-90.2	4.7
2025-01-15 07:46:51.741272	42.2	16.1	-90.7	4.8
2025-01-15 07:46:52.901706	42.4	16.2	-90.7	5.1
2025-01-15 07:46:54.067227	42.6	16.3	-90.6	5.8
2025-01-15 07:46:55.227931	42.8	16.3	-90.6	6.5
2025-01-15 07:46:56.387079	42.9	16.4	-90.5	5.1
2025-01-15 07:46:57.555607	43.1	16.5	-90.5	6.7
2025-01-15 07:46:58.711732	43.3	16.6	-90.3	8.0
2025-01-15 07:46:59.870070	43.5	16.7	-90.5	6.3
2025-01-15 07:47:01.023815	43.7	16.7	-90.0	3.8
2025-01-15 07:47:02.190517	43.9	16.8	-90.2	6.3
2025-01-15 07:47:03.354970	44.1	16.9	-90.1	6.3
2025-01-15 07:47:04.530672	44.3	17.0	-90.6	8.7
2025-01-15 07:47:05.692256	44.5	17.1	-90.7	5.7
2025-01-15 07:47:06.852429	44.8	17.2	-89.0	7.9
2025-01-15 07:47:08.007447	45.0	17.2	-89.7	5.9
2025-01-15 07:47:09.162174	45.2	17.3	-89.4	7.9
2025-01-15 07:47:10.323494	45.4	17.4	-89.8	5.1
2025-01-15 07:47:11.484176	45.6	17.5	-89.7	4.9
2025-01-15 07:47:12.640094	45.8	17.6	-89.6	6.4
2025-01-15 07:47:13.799489	46.0	17.6	-90.0	6.9
2025-01-15 07:47:14.956508	46.2	17.7	-90.0	6.8
2025-01-15 07:47:16.112454	46.4	17.8	-89.9	8.3
2025-01-15 07:47:17.271838	46.6	17.9	-89.1	9.2
2025-01-15 07:47:18.432359	46.9	18.0	-89.3	8.0
2025-01-15 07:47:19.597502	47.1	18.0	-89.4	7.8
2025-01-15 07:47:20.757564	47.3	18.1	-89.5	9.7
2025-01-15 07:47:21.915567	47.5	18.2	-89.4	8.3
2025-01-15 07:47:23.079743	47.7	18.3	-90.7	11.7
2025-01-15 07:47:24.242305	47.9	18.3	-90.7	8.1
2025-01-15 07:47:25.405362	48.2	18.4	-90.2	8.9
2025-01-15 07:47:26.547873	48.4	18.5	-90.5	7.2
2025-01-15 07:47:27.704386	48.6	18.6	-90.7	10.3
2025-01-15 07:47:28.863030	48.8	18.7	-91.0	11.0
2025-01-15 07:47:30.025292	49.1	18.7	-91.0	8.7
2025-01-15 07:47:31.182458	49.3	18.8	-90.6	14.1
2025-01-15 07:47:32.342686	49.5	18.9	-90.8	10.6
2025-01-15 07:47:33.503625	49.7	19.0	-91.0	10.8
2025-01-15 07:47:34.659665	50.0	19.1	-90.8	7.8
2025-01-15 07:47:35.820703	50.2	19.1	-90.8	6.2
2025-01-15 07:47:36.973511	50.4	19.2	-91.0	14.6
2025-01-15 07:47:38.130425	50.7	19.3	-91.0	8.1
2025-01-15 07:47:39.293230	50.9	19.4	-90.8	6.0
2025-01-15 07:47:40.451786	51.2	19.4	-90.6	13.5
2025-01-15 07:47:41.604647	51.4	19.5	-90.8	12.7
2025-01-15 07:47:42.768212	51.6	19.6	-91.1	12.8
2025-01-15 07:47:43.923638	51.9	19.7	-90.4	15.8
2025-01-15 07:47:45.082284	52.1	19.7	-90.8	15.6
2025-01-15 07:47:46.235813	52.3	19.8	-90.6	12.1
2025-01-15 07:47:47.393385	52.6	19.9	-90.4	12.7
2025-01-15 07:47:48.549898	52.8	20.0	-90.4	11.6
2025-01-15 07:47:49.711729	53.1	20.0	-90.7	7.6
2025-01-15 07:47:50.868473	53.3	20.1	-90.7	10.8
2025-01-15 07:47:52.032133	53.6	20.2	-90.9	15.4
2025-01-15 07:47:53.186174	53.8	20.3	-90.8	13.9
2025-01-15 07:47:54.342680	54.1	20.3	-89.6	13.1
2025-01-15 07:47:55.506359	54.3	20.4	-90.1	9.7
2025-01-15 07:47:56.665367	54.6	20.5	-89.4	8.8
2025-01-15 07:47:57.822047	54.8	20.5	-89.6	10.9
2025-01-15 07:47:58.980356	55.1	20.6	-89.6	12.4
2025-01-15 07:48:00.138615	55.3	20.7	-89.4	10.0
2025-01-15 07:48:01.294754	55.6	20.8	-89.8	6.4
2025-01-15 07:48:02.460380	55.9	20.8	-89.8	12.4
2025-01-15 07:48:03.617771	56.1	20.9	-89.2	11.0
2025-01-15 07:48:04.778551	56.4	21.0	-89.6	6.7
2025-01-15 07:48:05.940396	56.6	21.0	-89.7	15.4
2025-01-15 07:48:07.091006	56.9	21.1	-90.9	14.8
2025-01-15 07:48:08.253840	57.2	21.2	-89.6	12.5
2025-01-15 07:48:09.417955	57.4	21.2	-89.7	7.5
2025-01-15 07:48:10.576132	57.7	21.3	-89.5	16.2
2025-01-15 07:48:11.742627	58.0	21.4	-89.4	18.2
2025-01-15 07:48:12.907689	58.2	21.4	-89.7	14.8
2025-01-15 07:48:14.070989	58.5	21.5	-89.0	15.2
2025-01-15 07:48:15.230589	58.8	21.6	-90.9	13.2
2025-01-15 07:48:16.383426	59.1	21.6	-90.4	11.2
2025-01-15 07:48:17.542984	59.3	21.7	-90.5	17.0
2025-01-15 07:48:18.705711	59.6	21.8	-90.7	10.3
2025-01-15 07:48:19.866945	59.9	21.8	-91.0	11.5
2025-01-15 07:48:21.025948	60.2	21.9	-90.7	15.1
2025-01-15 07:48:22.187459	60.4	22.0	-90.8	14.4
2025-01-15 07:48:23.350503	60.7	22.0	-90.7	16.1
2025-01-15 07:48:24.512521	61.0	22.1	-90.5	14.5
2025-01-15 07:48:25.661913	61.3	22.1	-90.9	17.8
2025-01-15 07:48:26.819306	61.6	22.2	-90.7	13.0
2025-01-15 07:48:27.979536	61.8	22.3	-91.1	18.7
2025-01-15 07:48:29.144532	62.1	22.3	-91.3	13.5
2025-01-15 07:48:30.308274	62.4	22.4	-90.6	9.6
2025-01-15 07:48:31.465433	62.7	22.4	-90.7	14.6
2025-01-15 07:48:32.618576	63.0	22.5	-90.9	18.6
2025-01-15 07:48:33.777772	63.3	22.5	-91.0	9.4
2025-01-15 07:48:34.935103	63.6	22.6	-90.8	13.5
2025-01-15 07:48:36.094168	63.8	22.7	-90.6	13.0
2025-01-15 07:48:37.253892	64.1	22.7	-91.0	9.6
2025-01-15 07:48:38.411395	64.4	22.8	-90.8	12.1
2025-01-15 07:48:39.575725	64.7	22.8	-90.9	13.8
2025-01-15 07:48:40.743517	65.0	22.9	-91.1	15.0
2025-01-15 07:48:41.907474	65.3	22.9	-91.2	15.5
2025-01-15 07:48:43.068206	65.6	23.0	-90.9	14.9
2025-01-15 07:48:44.226106	65.9	23.0	-90.7	13.1
2025-01-15 07:48:45.388918	66.2	23.1	-90.3	15.3
2025-01-15 07:48:46.539604	66.5	23.1	-90.7	16.0
2025-01-15 07:48:47.691564	66.8	23.2	-91.1	13.0
2025-01-15 07:48:48.854545	67.1	23.2	-91.0	10.2
2025-01-15 07:48:50.025175	67.4	23.3	-90.7	11.5
2025-01-15 07:48:51.181691	67.7	23.3	-90.9	9.7
2025-01-15 07:48:52.348681	68.0	23.4	-90.7	10.4
2025-01-15 07:48:53.511491	68.3	23.4	-90.6	13.8
2025-01-15 07:48:54.675427	68.6	23.5	-90.8	12.4
2025-01-15 07:48:55.837224	68.9	23.5	-90.7	13.6
2025-01-15 07:48:56.993750	69.3	23.6	-90.7	12.7
2025-01-15 07:48:58.156546	69.6	23.6	-89.8	13.9
2025-01-15 07:48:59.314691	69.9	23.6	-89.8	14.9
2025-01-15 07:49:00.470631	70.2	23.7	-89.7	14.2
2025-01-15 07:49:01.633509	70.5	23.7	-89.5	14.1
2025-01-15 07:49:02.783665	70.8	23.8	-90.0	8.5
2025-01-15 07:49:03.942456	71.1	23.8	-89.4	10.1
2025-01-15 07:49:05.105635	71.4	23.8	-89.6	10.5
2025-01-15 07:49:06.257935	71.7	23.9	-90.9	7.3
2025-01-15 07:49:07.420071	72.1	23.9	-90.7	7.5
2025-01-15 07:49:08.577415	72.4	23.9	-90.6	10.6
2025-01-15 07:49:09.737344	72.7	24.0	-90.9	5.8
2025-01-15 07:49:10.901491	73.0	24.0	-89.3	8.2
2025-01-15 07:49:12.067983	73.3	24.0	-89.7	11.3
2025-01-15 07:49:13.228910	73.6	24.1	-90.1	7.1
2025-01-15 07:49:14.390535	74.0	24.1	-89.8	9.4
2025-01-15 07:49:15.554537	74.3	24.1	-89.8	10.1
2025-01-15 07:49:16.713956	74.6	24.2	-89.6	8.5
2025-01-15 07:49:17.879584	74.9	24.2	-89.5	10.2
2025-01-15 07:49:19.037347	75.2	24.2	-89.6	8.5
2025-01-15 07:49:20.199754	75.6	24.2	-89.9	9.3
2025-01-15 07:49:21.360129	75.9	24.3	-89.3	7.1
2025-01-15 07:49:22.522878	76.2	24.3	-90.8	9.3
2025-01-15 07:49:23.684216	76.5	24.3	-90.9	8.4
2025-01-15 07:49:24.844255	76.9	24.3	-89.1	7.8
2025-01-15 07:49:26.009290	77.2	24.4	-89.7	7.5
2025-01-15 07:49:27.169262	77.5	24.4	-89.4	7.2
2025-01-15 07:49:28.325519	77.8	24.4	-89.6	5.2
2025-01-15 07:49:29.491548	78.2	24.4	-89.1	5.3
2025-01-15 07:49:30.646997	78.5	24.4	-90.1	6.2
2025-01-15 07:49:31.800653	78.8	24.5	-90.2	5.1
2025-01-15 07:49:32.941163	79.1	24.5	-89.7	6.8
2025-01-15 07:49:34.068343	79.4	24.5	-89.9	6.0
2025-01-15 07:49:35.189238	79.8	24.5	-89.5	7.0
2025-01-15 07:49:36.311097	80.1	24.5	-89.3	3.3
2025-01-15 07:49:37.430980	80.4	24.5	-89.7	7.8
2025-01-15 07:49:38.551373	80.7	24.5	-89.3	5.8
2025-01-15 07:49:39.672112	81.0	24.5	-89.6	5.5
2025-01-15 07:49:40.792108	81.3	24.6	-90.4	6.9
2025-01-15 07:49:41.915981	81.7	24.6	-90.9	6.2
2025-01-15 07:49:43.048364	82.0	24.6	-90.6	7.7
2025-01-15 07:49:44.207020	82.3	24.6	-90.6	8.9
2025-01-15 07:49:45.361683	82.6	24.6	-90.7	6.8
2025-01-15 07:49:46.525491	83.0	24.6	-90.8	5.0
2025-01-15 07:49:47.676591	83.3	24.6	-90.8	11.7
2025-01-15 07:49:48.840218	83.6	24.6	-90.7	10.2
2025-01-15 07:49:50.000128	84.0	24.6	-90.7	9.3
2025-01-15 07:49:51.159783	84.3	24.6	-90.5	7.8
2025-01-15 07:49:52.318114	84.6	24.6	-90.5	6.0
2025-01-15 07:49:53.468738	84.9	24.6	-90.9	4.4
2025-01-15 07:49:54.625760	85.3	24.6	-90.8	9.1
2025-01-15 07:49:55.776290	85.6	24.6	-90.7	7.4
2025-01-15 07:49:56.933617	85.9	24.6	-90.6	7.3
2025-01-15 07:49:58.083902	86.2	24.6	-91.0	5.7
2025-01-15 07:49:59.245159	86.6	24.6	-90.6	6.8
2025-01-15 07:50:00.402068	86.9	24.6	-90.8	4.6
2025-01-15 07:50:01.562812	87.2	24.6	-90.7	9.3
2025-01-15 07:50:02.718814	87.6	24.6	-90.6	5.7
2025-01-15 07:50:03.880659	87.9	24.5	-91.0	6.1
2025-01-15 07:50:05.035434	88.2	24.5	-90.8	6.1
2025-01-15 07:50:06.197548	88.5	24.5	-90.5	5.6
2025-01-15 07:50:07.356934	88.9	24.5	-90.5	7.9
2025-01-15 07:50:08.527799	89.2	24.5	-90.7	8.6
2025-01-15 07:50:09.683519	89.5	24.5	-91.1	7.2
2025-01-15 07:50:10.850803	89.9	24.5	-89.0	7.1
2025-01-15 07:50:12.010098	90.2	24.5	-89.3	6.6
2025-01-15 07:50:13.167125	90.5	24.4	-90.0	8.2
2025-01-15 07:50:14.322159	90.8	24.4	-89.8	4.6
2025-01-15 07:50:15.476831	91.2	24.4	-89.4	7.6
2025-01-15 07:50:16.642890	91.5	24.4	-89.3	7.4
2025-01-15 07:50:17.785590	91.8	24.4	-91.1	8.3
2025-01-15 07:50:18.944653	92.1	24.3	-91.0	8.7
2025-01-15 07:50:20.111759	92.5	24.3	-90.6	7.8
2025-01-15 07:50:21.272699	92.8	24.3	-90.8	6.6
2025-01-15 07:50:22.433068	93.1	24.3	-90.6	7.4
2025-01-15 07:50:23.592447	93.4	24.2	-90.7	9.5
2025-01-15 07:50:24.747449	93.7	24.2	-90.8	4.8
2025-01-15 07:50:25.906826	94.1	24.2	-90.8	6.1
2025-01-15 07:50:27.063331	94.4	24.2	-90.9	7.6
2025-01-15 07:50:28.224221	94.7	24.1	-90.8	5.9
2025-01-15 07:50:29.379194	95.0	24.1	-90.7	4.8
2025-01-15 07:50:30.541457	95.3	24.1	-90.4	9.0
2025-01-15 07:50:31.699250	95.7	24.0	-90.7	8.3
2025-01-15 07:50:32.859951	96.0	24.0	-90.6	7.4
2025-01-15 07:50:34.017961	96.3	24.0	-90.5	6.8
2025-01-15 07:50:35.177744	96.6	23.9	-90.4	7.1
2025-01-15 07:50:36.335055	96.9	23.9	-90.7	5.2
2025-01-15 07:50:37.492245	97.2	23.9	-90.5	8.2
2025-01-15 07:50:38.651702	97.6	23.8	-90.7	6.3
2025-01-15 07:50:39.807509	97.9	23.8	-90.8	7.6
2025-01-15 07:50:40.963544	98.2	23.7	-91.0	7.8
2025-01-15 07:50:42.128642	98.5	23.7	-90.8	5.4
2025-01-15 07:50:43.291606	98.8	23.7	-90.6	3.6
2025-01-15 07:50:44.449366	99.1	23.6	-90.3	6.7
2025-01-15 07:50:45.608135	99.4	23.6	-90.6	7.5
2025-01-15 07:50:46.771776	99.7	23.5	-90.8	4.1
2025-01-15 07:50:47.919536	100.1	23.5	-90.7	6.0
2025-01-15 07:50:49.083564	100.4	23.4	-90.6	8.6
2025-01-15 07:50:50.243601	100.7	23.4	-90.8	5.8
2025-01-15 07:50:51.405760	101.0	23.4	-90.6	5.8
2025-01-15 07:50:52.566681	101.3	23.3	-90.6	5.1
2025-01-15 07:50:53.728682	101.6	23.3	-90.7	7.6
2025-01-15 07:50:54.892091	101.9	23.2	-90.9	5.1
2025-01-15 07:50:56.047477	102.2	23.2	-90.9	5.8
2025-01-15 07:50:57.205217	102.5	23.1	-91.1	4.9
2025-01-15 07:50:58.368559	102.8	23.1	-89.3	5.2
2025-01-15 07:50:59.528424	103.1	23.0	-89.6	4.3
2025-01-15 07:51:00.678442	103.4	23.0	-89.9	6.9
2025-01-15 07:51:01.840079	103.7	22.9	-89.6	4.6
2025-01-15 07:51:03.001292	104.0	22.9	-89.6	5.3
2025-01-15 07:51:04.164638	104.3	22.8	-90.3	4.6
2025-01-15 07:51:05.325153	104.6	22.7	-91.1	3.3
2025-01-15 07:51:06.488838	104.9	22.7	-90.9	5.7
2025-01-15 07:51:07.648609	105.2	22.6	-89.8	4.3
2025-01-15 07:51:08.809931	105.5	22.6	-89.9	3.9
2025-01-15 07:51:09.972778	105.7	22.5	-90.2	3.5
2025-01-15 07:51:11.134185	106.0	22.5	-90.1	3.3
2025-01-15 07:51:12.301588	106.3	22.4	-90.0	4.9
2025-01-15 07:51:13.457758	106.6	22.3	-89.8	4.5
2025-01-15 07:51:14.619871	106.9	22.3	-90.8	5.8
2025-01-15 07:51:15.772284	107.2	22.2	-91.3	5.6
2025-01-15 07:51:16.936317	107.5	22.2	-91.0	7.8
2025-01-15 07:51:18.086899	107.8	22.1	-91.2	8.1
2025-01-15 07:51:19.249113	108.0	22.0	-90.8	5.6
2025-01-15 07:51:20.405615	108.3	22.0	-90.8	6.6
2025-01-15 07:51:21.569226	108.6	21.9	-91.0	7.2
2025-01-15 07:51:22.725307	108.9	21.9	-91.0	5.7
2025-01-15 07:51:23.892423	109.2	21.8	-91.0	8.7
2025-01-15 07:51:25.045139	109.4	21.7	-91.0	11.8
2025-01-15 07:51:26.205289	109.7	21.7	-91.0	7.5
2025-01-15 07:51:27.368700	110.0	21.6	-90.7	5.6
2025-01-15 07:51:28.535261	110.3	21.5	-90.8	11.5
2025-01-15 07:51:29.693799	110.5	21.5	-91.2	7.0
2025-01-15 07:51:30.853096	110.8	21.4	-91.0	8.8
2025-01-15 07:51:32.016233	111.1	21.3	-90.9	11.9
2025-01-15 07:51:33.168331	111.3	21.3	-90.8	10.4
2025-01-15 07:51:34.328102	111.6	21.2	-90.7	8.4
2025-01-15 07:51:35.490502	111.9	21.1	-90.8	13.3
2025-01-15 07:51:36.647839	112.1	21.1	-91.2	10.4
2025-01-15 07:51:37.805709	112.4	21.0	-91.1	9.1
2025-01-15 07:51:38.959433	112.7	20.9	-90.8	14.3
2025-01-15 07:51:40.131834	112.9	20.9	-90.8	13.4
2025-01-15 07:51:41.287284	113.2	20.8	-90.7	9.1
2025-01-15 07:51:42.448863	113.5	20.7	-91.1	14.4
2025-01-15 07:51:43.609257	113.7	20.6	-90.8	11.4
2025-01-15 07:51:44.766075	114.0	20.6	-91.0	12.1
2025-01-15 07:51:45.927048	114.2	20.5	-90.8	15.4
2025-01-15 07:51:47.084045	114.5	20.4	-91.0	16.6
2025-01-15 07:51:48.240455	114.7	20.3	-90.9	14.8
2025-01-15 07:51:49.398121	115.0	20.3	-90.8	15.6
2025-01-15 07:51:50.556904	115.2	20.2	-90.9	15.8
2025-01-15 07:51:51.716802	115.5	20.1	-91.0	14.1
2025-01-15 07:51:52.872634	115.7	20.1	-91.1	14.9
2025-01-15 07:51:54.031031	116.0	20.0	-91.2	14.9
2025-01-15 07:51:55.194457	116.2	19.9	-91.4	16.1
2025-01-15 07:51:56.344856	116.5	19.8	-90.8	14.8
2025-01-15 07:51:57.501033	116.7	19.8	-90.8	13.4
2025-01-15 07:51:58.662180	117.0	19.7	-90.8	12.4
2025-01-15 07:51:59.827023	117.2	19.6	-91.2	9.8
2025-01-15 07:52:00.979995	117.4	19.5	-91.2	11.4
2025-01-15 07:52:02.141021	117.7	19.4	-91.5	11.4
2025-01-15 07:52:03.292782	117.9	19.4	-91.2	10.2
2025-01-15 07:52:04.457574	118.2	19.3	-90.7	11.1
2025-01-15 07:52:05.616531	118.4	19.2	-91.1	10.9
2025-01-15 07:52:06.779323	118.6	19.1	-91.1	7.3
2025-01-15 07:52:07.941272	118.9	19.1	-91.2	10.0
2025-01-15 07:52:09.104823	119.1	19.0	-91.1	12.3
2025-01-15 07:52:10.266997	119.3	18.9	-90.9	8.2
2025-01-15 07:52:11.433460	119.6	18.8	-90.7	12.5
2025-01-15 07:52:12.595146	119.8	18.7	-91.1	11.4
2025-01-15 07:52:13.753788	120.0	18.7	-91.1	7.3
2025-01-15 07:52:14.908874	120.3	18.6	-90.8	9.4
2025-01-15 07:52:16.066085	120.5	18.5	-91.0	12.6
2025-01-15 07:52:17.221655	120.7	18.4	-91.3	9.2
2025-01-15 07:52:18.383341	120.9	18.4	-90.8	10.2
2025-01-15 07:52:19.543369	121.2	18.3	-90.6	9.9
2025-01-15 07:52:20.708533	121.4	18.2	-90.8	8.9
2025-01-15 07:52:21.865147	121.6	18.1	-90.9	9.1
2025-01-15 07:52:23.021635	121.8	18.0	-90.8	12.3
2025-01-15 07:52:24.183277	122.0	18.0	-90.8	10.1
2025-01-15 07:52:25.341670	122.3	17.9	-90.8	10.8
2025-01-15 07:52:26.503753	122.5	17.8	-90.9	7.5
2025-01-15 07:52:27.659986	122.7	17.7	-91.1	7.7
2025-01-15 07:52:28.817886	122.9	17.6	-90.8	8.6
2025-01-15 07:52:29.979823	123.1	17.5	-90.7	8.7
2025-01-15 07:52:31.141802	123.3	17.5	-91.2	9.5
2025-01-15 07:52:32.303518	123.5	17.4	-90.9	9.5
2025-01-15 07:52:33.462928	123.7	17.3	-90.7	7.5
2025-01-15 07:52:34.626458	124.0	17.2	-90.8	7.6
2025-01-15 07:52:35.790394	124.2	17.1	-91.4	9.2
2025-01-15 07:52:36.953476	124.4	17.1	-91.3	9.8
2025-01-15 07:52:38.109327	124.6	17.0	-91.3	8.4
2025-01-15 07:52:39.273888	124.8	16.9	-91.2	7.8
2025-01-15 07:52:40.427321	125.0	16.8	-90.9	10.1
2025-01-15 07:52:41.583965	125.2	16.7	-91.0	12.1
2025-01-15 07:52:42.751503	125.4	16.6	-91.2	6.7
2025-01-15 07:52:43.918858	125.6	16.6	-91.0	10.1
2025-01-15 07:52:45.075958	125.8	16.5	-91.1	10.3
2025-01-15 07:52:46.236325	126.0	16.4	-90.9	6.0
2025-01-15 07:52:47.391907	126.2	16.3	-90.8	6.2
2025-01-15 07:52:48.551395	126.4	16.2	-90.7	9.1
2025-01-15 07:52:49.706008	126.6	16.2	-90.9	7.6
2025-01-15 07:52:50.865699	126.8	16.1	-91.1	8.1
2025-01-15 07:52:52.026697	127.0	16.0	-91.3	10.3
2025-01-15 07:52:53.185288	127.2	15.9	-91.2	9.9
2025-01-15 07:52:54.339595	127.3	15.8	-90.7	10.0
2025-01-15 07:52:55.501600	127.5	15.7	-91.0	9.5
2025-01-15 07:52:56.660723	127.7	15.7	-90.8	10.1
2025-01-15 07:52:57.821835	127.9	15.6	-90.9	8.6
2025-01-15 07:52:58.977936	128.1	15.5	-91.0	11.7
2025-01-15 07:53:00.131564	128.3	15.4	-91.0	8.4
2025-01-15 07:53:01.285728	128.5	15.3	-90.8	7.3
2025-01-15 07:53:02.449482	128.7	15.3	-90.3	8.5
2025-01-15 07:53:03.606654	128.8	15.2	-90.5	7.5
2025-01-15 07:53:04.771927	129.0	15.1	-91.1	8.6
2025-01-15 07:53:05.925229	129.2	15.0	-90.9	8.3
2025-01-15 07:53:07.085370	129.4	14.9	-90.8	7.7
2025-01-15 07:53:08.238746	129.6	14.8	-91.0	6.4
2025-01-15 07:53:09.392659	129.7	14.8	-91.1	8.0
2025-01-15 07:53:10.572169	129.9	14.7	-89.9	6.4
#Closed at: 2025-01-15 07:46:41.052842