passes_logs/2025/01/15/LEX_Murmansk/LEX_Murmansk__20250115_192657_NOAA_18_rec.log

#Pass ID: 20250115_192657_NOAA 18
#Satellite: NOAA 18
#Configuration: NOAA 18
#Start time: 2025-01-15 19:26:52.603057

#LorettStation: 1.0.0 05.05.2024
#Station: LEX_Murmansk
#Location: 33.156738 lon 68.926811 lat
#TLE: 1 28654U 05018A   25015.16278545  .00000300  00000+0  18295-3 0  9990
#TLE: 2 28654  98.8567  96.2156 0014367 178.7074 181.4138 14.13486503 13201

#Time	Az	El	Level	SNR
2025-01-15 19:27:04.776556	170.1	16.3	-92.1	5.1
2025-01-15 19:27:07.072166	170.2	16.5	-92.8	9.0
2025-01-15 19:27:09.367111	170.3	16.8	-92.3	7.2
2025-01-15 19:27:11.658064	170.4	17.0	-92.3	6.3
2025-01-15 19:27:13.953933	170.5	17.3	-92.7	5.4
2025-01-15 19:27:16.249578	170.6	17.6	-92.2	5.1
2025-01-15 19:27:18.553509	170.7	17.8	-92.6	5.4
2025-01-15 19:27:20.856776	170.8	18.1	-92.5	7.7
2025-01-15 19:27:23.152602	170.9	18.4	-92.3	6.1
2025-01-15 19:27:25.448846	171.0	18.6	-92.5	4.6
2025-01-15 19:27:27.756154	171.1	18.9	-92.7	6.7
2025-01-15 19:27:30.052682	171.2	19.2	-92.5	6.5
2025-01-15 19:27:32.365092	171.4	19.5	-92.1	6.2
2025-01-15 19:27:34.665548	171.5	19.8	-92.6	7.5
2025-01-15 19:27:36.961568	171.6	20.0	-92.6	6.4
2025-01-15 19:27:39.274682	171.7	20.3	-92.6	6.7
2025-01-15 19:27:41.566261	171.9	20.6	-92.8	7.6
2025-01-15 19:27:43.861751	172.0	20.9	-92.7	8.7
2025-01-15 19:27:46.155094	172.1	21.2	-92.6	11.2
2025-01-15 19:27:48.455075	172.2	21.5	-92.8	5.6
2025-01-15 19:27:50.748102	172.4	21.8	-92.5	11.2
2025-01-15 19:27:53.047180	172.5	22.1	-92.6	9.5
2025-01-15 19:27:55.339799	172.6	22.5	-93.1	13.0
2025-01-15 19:27:57.637611	172.8	22.8	-92.8	10.0
2025-01-15 19:27:59.940332	172.9	23.1	-92.8	11.6
2025-01-15 19:28:02.237207	173.1	23.4	-92.1	12.6
2025-01-15 19:28:04.550150	173.2	23.8	-92.6	8.4
2025-01-15 19:28:06.850586	173.4	24.1	-92.4	11.9
2025-01-15 19:28:09.155980	173.5	24.4	-92.3	11.7
2025-01-15 19:28:11.471565	173.7	24.8	-92.5	15.8
2025-01-15 19:28:13.769573	173.9	25.1	-93.0	13.4
2025-01-15 19:28:16.074446	174.0	25.5	-92.5	10.3
2025-01-15 19:28:18.364201	174.2	25.8	-91.9	11.0
2025-01-15 19:28:20.664369	174.4	26.2	-92.2	8.2
2025-01-15 19:28:22.959630	174.5	26.6	-92.6	6.5
2025-01-15 19:28:25.256173	174.7	26.9	-92.6	8.4
2025-01-15 19:28:27.570853	174.9	27.3	-92.9	11.8
2025-01-15 19:28:29.870389	175.1	27.7	-92.8	11.5
2025-01-15 19:28:32.174489	175.3	28.1	-92.5	13.7
2025-01-15 19:28:34.488449	175.5	28.4	-93.1	11.6
2025-01-15 19:28:36.777502	175.7	28.8	-92.8	9.3
2025-01-15 19:28:39.070979	175.9	29.2	-92.3	5.8
2025-01-15 19:28:41.368443	176.1	29.6	-92.7	7.6
2025-01-15 19:28:43.665020	176.3	30.0	-92.9	8.1
2025-01-15 19:28:45.960475	176.5	30.5	-92.9	13.1
2025-01-15 19:28:48.265120	176.8	30.9	-92.2	7.3
2025-01-15 19:28:50.561385	177.0	31.3	-93.0	6.3
2025-01-15 19:28:52.868893	177.2	31.7	-92.7	11.5
2025-01-15 19:28:55.165217	177.5	32.2	-92.7	10.0
2025-01-15 19:28:57.464062	177.7	32.6	-92.9	6.8
2025-01-15 19:28:59.771773	178.0	33.1	-92.9	10.3
2025-01-15 19:29:02.064393	178.3	33.5	-92.6	9.8
2025-01-15 19:29:04.368298	178.5	34.0	-92.4	15.8
2025-01-15 19:29:06.668984	178.8	34.5	-92.5	15.3
2025-01-15 19:29:08.962769	179.1	34.9	-93.2	13.1
2025-01-15 19:29:11.251541	179.4	35.4	-92.7	10.2
2025-01-15 19:29:13.562748	179.7	35.9	-93.0	8.5
2025-01-15 19:29:15.861238	180.0	36.4	-92.7	10.1
2025-01-15 19:29:18.160593	180.4	36.9	-92.7	10.2
2025-01-15 19:29:20.457829	180.7	37.4	-93.1	13.7
2025-01-15 19:29:22.755762	181.0	37.9	-93.2	8.8
2025-01-15 19:29:25.057029	181.4	38.4	-92.8	8.8
2025-01-15 19:29:27.354054	181.7	38.9	-92.9	9.1
2025-01-15 19:29:29.665974	182.1	39.5	-93.4	5.7
2025-01-15 19:29:31.970644	182.5	40.0	-92.8	7.7
2025-01-15 19:29:34.270440	182.9	40.6	-93.1	10.7
2025-01-15 19:29:36.570695	183.3	41.1	-92.7	3.8
2025-01-15 19:29:38.867299	183.8	41.7	-93.0	13.3
2025-01-15 19:29:41.163482	184.2	42.3	-92.4	16.6
2025-01-15 19:29:43.463490	184.7	42.8	-92.9	16.6
2025-01-15 19:29:45.775662	185.2	43.4	-92.6	15.6
2025-01-15 19:29:48.077428	185.6	44.0	-92.6	12.1
2025-01-15 19:29:50.372824	186.2	44.6	-93.0	17.6
2025-01-15 19:29:52.675997	186.7	45.2	-93.0	15.3
2025-01-15 19:29:54.968707	187.2	45.8	-92.8	9.2
2025-01-15 19:29:57.264616	187.8	46.4	-93.1	11.8
2025-01-15 19:29:59.565325	188.4	47.0	-92.7	9.0
2025-01-15 19:30:01.866197	189.0	47.7	-93.1	16.7
2025-01-15 19:30:04.157680	189.7	48.3	-92.5	15.4
2025-01-15 19:30:06.453263	190.3	48.9	-92.8	10.2
2025-01-15 19:30:08.749144	191.0	49.6	-93.0	16.1
2025-01-15 19:30:11.047151	191.8	50.2	-93.0	13.1
2025-01-15 19:30:13.353897	192.5	50.9	-92.9	7.6
2025-01-15 19:30:15.652882	193.3	51.5	-93.1	10.6
2025-01-15 19:30:17.949353	194.2	52.2	-93.0	6.1
2025-01-15 19:30:20.258889	195.0	52.8	-92.7	15.6
2025-01-15 19:30:22.558163	195.9	53.5	-92.6	11.2
2025-01-15 19:30:24.853244	196.9	54.1	-93.0	17.0
2025-01-15 19:30:27.149589	197.9	54.8	-92.4	13.3
2025-01-15 19:30:29.452965	198.9	55.5	-92.9	17.4
2025-01-15 19:30:31.742361	200.0	56.1	-92.6	17.8
2025-01-15 19:30:34.034081	201.1	56.8	-92.6	11.3
2025-01-15 19:30:36.333236	202.3	57.4	-92.9	12.9
2025-01-15 19:30:38.634829	203.6	58.1	-92.8	15.1
2025-01-15 19:30:40.938325	204.9	58.7	-92.9	18.7
2025-01-15 19:30:43.237407	206.3	59.4	-92.1	11.9
2025-01-15 19:30:45.532075	207.7	60.0	-93.1	9.4
2025-01-15 19:30:47.824069	209.2	60.6	-92.9	17.6
2025-01-15 19:30:50.123932	210.8	61.2	-92.5	11.0
2025-01-15 19:30:52.423067	212.5	61.8	-92.6	16.6
2025-01-15 19:30:54.720763	214.2	62.4	-93.2	20.2
2025-01-15 19:30:57.020953	216.0	62.9	-92.6	22.3
2025-01-15 19:30:59.320675	217.9	63.4	-92.7	19.6
2025-01-15 19:31:01.623265	219.9	64.0	-93.0	19.6
2025-01-15 19:31:03.922141	222.0	64.4	-92.6	14.2
2025-01-15 19:31:06.218184	224.2	64.9	-92.5	17.3
2025-01-15 19:31:08.507982	226.4	65.3	-92.9	13.7
2025-01-15 19:31:10.806830	228.8	65.7	-92.9	22.6
2025-01-15 19:31:13.101111	231.2	66.1	-92.6	16.2
2025-01-15 19:31:15.405401	233.7	66.4	-92.5	23.4
2025-01-15 19:31:17.710658	236.3	66.7	-93.1	21.5
2025-01-15 19:31:20.013967	238.9	66.9	-92.8	21.4
2025-01-15 19:31:22.309920	241.6	67.1	-93.1	21.4
2025-01-15 19:31:24.607376	244.3	67.2	-92.4	18.5
2025-01-15 19:31:26.901050	247.1	67.3	-92.0	15.2
2025-01-15 19:31:29.150396	249.8	67.4	-92.1	20.9
2025-01-15 19:31:31.391043	252.5	67.4	-89.7	13.8
2025-01-15 19:31:33.631162	255.2	67.3	-92.7	15.2
2025-01-15 19:31:35.873641	257.9	67.2	-92.4	20.2
2025-01-15 19:31:38.144920	260.6	67.1	-91.4	16.2
2025-01-15 19:31:40.448064	263.3	66.9	-92.5	13.7
2025-01-15 19:31:42.736716	265.9	66.7	-92.6	19.7
2025-01-15 19:31:45.037108	268.4	66.4	-93.1	10.6
2025-01-15 19:31:47.333402	270.9	66.1	-92.4	20.5
2025-01-15 19:31:49.635415	273.4	65.7	-92.6	23.8
2025-01-15 19:31:51.938092	275.7	65.3	-92.9	16.1
2025-01-15 19:31:54.247531	278.0	64.9	-92.7	15.3
2025-01-15 19:31:56.543584	280.2	64.5	-93.1	10.8
2025-01-15 19:31:58.850541	282.3	64.0	-92.6	16.3
2025-01-15 19:32:01.144879	284.3	63.5	-92.8	3.2
2025-01-15 19:32:03.443551	286.2	63.0	-92.8	5.9
2025-01-15 19:32:05.738134	288.0	62.4	-93.5	7.5
2025-01-15 19:32:08.047074	289.8	61.8	-92.5	10.3
2025-01-15 19:32:10.352433	291.5	61.2	-92.8	12.4
2025-01-15 19:32:12.657353	293.1	60.6	-93.0	11.2
2025-01-15 19:32:14.949025	294.6	60.0	-92.9	13.3
2025-01-15 19:32:17.245894	296.0	59.4	-92.5	12.1
2025-01-15 19:32:19.539226	297.4	58.8	-93.2	11.5
2025-01-15 19:32:21.831806	298.7	58.1	-93.1	18.5
2025-01-15 19:32:24.131366	300.0	57.5	-92.6	14.8
2025-01-15 19:32:26.425707	301.2	56.8	-93.0	11.8
2025-01-15 19:32:28.724827	302.3	56.2	-92.9	21.0
2025-01-15 19:32:31.034902	303.4	55.5	-92.7	15.9
2025-01-15 19:32:33.326275	304.4	54.8	-93.2	16.8
2025-01-15 19:32:35.619562	305.4	54.2	-92.9	17.3
2025-01-15 19:32:37.907632	306.4	53.5	-92.8	12.7
2025-01-15 19:32:40.204411	307.3	52.9	-92.8	10.6
2025-01-15 19:32:42.490514	308.1	52.2	-93.2	12.6
2025-01-15 19:32:44.791619	309.0	51.6	-92.9	14.3
2025-01-15 19:32:47.097455	309.8	50.9	-92.6	11.4
2025-01-15 19:32:49.389579	310.5	50.3	-92.8	13.4
2025-01-15 19:32:51.684412	311.3	49.6	-93.2	12.6
2025-01-15 19:32:53.979377	312.0	49.0	-93.1	11.8
2025-01-15 19:32:56.277818	312.6	48.3	-93.1	18.7
2025-01-15 19:32:58.573825	313.3	47.7	-92.9	13.3
2025-01-15 19:33:00.872126	313.9	47.1	-93.2	16.3
2025-01-15 19:33:03.167528	314.5	46.5	-92.6	13.4
2025-01-15 19:33:05.468443	315.1	45.9	-92.9	7.8
2025-01-15 19:33:07.767130	315.6	45.2	-93.3	16.0
2025-01-15 19:33:10.067485	316.2	44.6	-92.6	12.0
2025-01-15 19:33:12.361348	316.7	44.1	-93.2	15.5
2025-01-15 19:33:14.655948	317.2	43.5	-92.9	15.7
2025-01-15 19:33:16.951055	317.7	42.9	-92.8	17.1
2025-01-15 19:33:19.255080	318.1	42.3	-92.7	20.4
2025-01-15 19:33:21.558422	318.6	41.7	-93.0	17.4
2025-01-15 19:33:23.851848	319.0	41.2	-92.9	14.0
2025-01-15 19:33:26.147476	319.4	40.6	-93.1	10.3
2025-01-15 19:33:28.442307	319.8	40.1	-93.0	12.8
2025-01-15 19:33:30.755315	320.2	39.5	-93.0	18.0
2025-01-15 19:33:33.058969	320.6	39.0	-92.9	13.9
2025-01-15 19:33:35.371193	321.0	38.5	-92.5	19.9
2025-01-15 19:33:37.664992	321.3	38.0	-93.5	16.3
2025-01-15 19:33:39.958682	321.7	37.4	-93.2	14.7
2025-01-15 19:33:42.260868	322.0	36.9	-92.7	15.4
2025-01-15 19:33:44.554015	322.3	36.4	-93.3	6.9
2025-01-15 19:33:46.856472	322.6	35.9	-93.0	10.7
2025-01-15 19:33:49.151071	323.0	35.5	-92.6	12.1
2025-01-15 19:33:51.445207	323.2	35.0	-92.7	11.9
2025-01-15 19:33:53.739778	323.5	34.5	-93.1	18.3
2025-01-15 19:33:56.036982	323.8	34.0	-92.8	15.0
2025-01-15 19:33:58.335389	324.1	33.6	-92.4	17.2
2025-01-15 19:34:00.630426	324.4	33.1	-93.1	11.5
2025-01-15 19:34:02.934765	324.6	32.7	-92.9	12.1
2025-01-15 19:34:05.229416	324.9	32.2	-93.0	8.1
2025-01-15 19:34:07.519497	325.1	31.8	-92.7	13.7
2025-01-15 19:34:09.824513	325.4	31.4	-93.5	15.5
2025-01-15 19:34:12.122714	325.6	30.9	-92.5	13.7
2025-01-15 19:34:14.414745	325.8	30.5	-93.0	14.4
2025-01-15 19:34:16.714429	326.0	30.1	-93.1	10.8
2025-01-15 19:34:19.015104	326.3	29.7	-93.1	7.3
2025-01-15 19:34:21.307381	326.5	29.3	-92.9	5.5
2025-01-15 19:34:23.597037	326.7	28.9	-92.7	7.2
2025-01-15 19:34:25.893877	326.9	28.5	-93.4	16.2
2025-01-15 19:34:28.189277	327.1	28.1	-93.0	9.8
2025-01-15 19:34:30.491107	327.3	27.7	-93.2	8.1
2025-01-15 19:34:32.786507	327.5	27.3	-93.0	10.1
2025-01-15 19:34:35.080363	327.7	27.0	-92.5	9.5
2025-01-15 19:34:37.375402	327.8	26.6	-92.9	15.1
2025-01-15 19:34:39.673475	328.0	26.2	-92.6	14.1
2025-01-15 19:34:41.969730	328.2	25.9	-92.8	13.9
2025-01-15 19:34:44.266607	328.4	25.5	-92.5	9.7
2025-01-15 19:34:46.561543	328.5	25.2	-93.0	7.5
2025-01-15 19:34:48.855639	328.7	24.8	-92.7	12.4
2025-01-15 19:34:51.147566	328.9	24.5	-92.0	9.7
2025-01-15 19:34:53.444359	329.0	24.1	-93.0	8.7
2025-01-15 19:34:55.740174	329.2	23.8	-92.7	10.7
2025-01-15 19:34:58.040135	329.3	23.5	-92.6	11.5
2025-01-15 19:35:00.335934	329.5	23.2	-92.5	8.2
2025-01-15 19:35:02.632228	329.6	22.8	-93.0	5.0
2025-01-15 19:35:04.933043	329.7	22.5	-93.2	7.1
2025-01-15 19:35:07.231166	329.9	22.2	-92.3	15.7
2025-01-15 19:35:09.521533	330.0	21.9	-93.3	11.0
2025-01-15 19:35:11.820134	330.2	21.6	-93.2	9.7
2025-01-15 19:35:14.114755	330.3	21.3	-92.5	12.8
2025-01-15 19:35:16.407340	330.4	21.0	-93.3	9.2
2025-01-15 19:35:18.722321	330.6	20.7	-93.0	6.7
2025-01-15 19:35:21.017548	330.7	20.4	-92.6	2.1
2025-01-15 19:35:23.312578	330.8	20.1	-92.9	4.3
2025-01-15 19:35:25.614009	330.9	19.8	-93.1	3.0
2025-01-15 19:35:27.916160	331.0	19.5	-93.1	5.5
2025-01-15 19:35:30.220681	331.2	19.2	-92.3	3.9
2025-01-15 19:35:32.524215	331.3	19.0	-93.2	4.7
2025-01-15 19:35:34.818527	331.4	18.7	-92.8	9.6
2025-01-15 19:35:37.122216	331.5	18.4	-92.9	3.0
2025-01-15 19:35:39.420190	331.6	18.1	-92.3	4.3
2025-01-15 19:35:41.715475	331.7	17.9	-93.2	6.6
2025-01-15 19:35:44.016669	331.8	17.6	-93.0	2.5
2025-01-15 19:35:46.318782	331.9	17.3	-92.9	6.5
2025-01-15 19:35:48.614507	332.0	17.1	-92.6	3.9
2025-01-15 19:35:50.910219	332.1	16.8	-93.2	4.0
2025-01-15 19:35:53.211429	332.2	16.6	-92.9	5.7
2025-01-15 19:35:55.508292	332.3	16.3	-93.2	6.5
2025-01-15 19:35:57.810036	332.4	16.1	-92.9	2.7
2025-01-15 19:36:00.105546	332.5	15.8	-92.8	4.3
2025-01-15 19:36:02.394941	332.6	15.6	-93.1	3.0
2025-01-15 19:36:04.700060	332.7	15.3	-93.4	2.3
2025-01-15 19:36:06.990980	332.8	15.1	-92.9	5.0
2025-01-15 19:36:09.285392	332.9	14.9	-92.4	4.3
2025-01-15 19:36:11.594250	333.0	14.6	-93.0	4.6
#Closed at: 2025-01-15 19:26:57.578569