passes_logs/2026/01/24/T1/T1__20260124_000639_SUOMI_NPP_rec.log

#Pass ID: 20260124_000639_SUOMI NPP
#Satellite: SUOMI NPP
#Configuration: NPP
#almurnet v.1.7.20251203
#Start time: 2026-01-24 00:06:40

#Version: 2.0.20230620
#Station: T1
#Location: 37.570604 lon 55.790049 lat
#TLE: 1 37849U 11061A   26022.92790088  .00000200  00000+0  11571-3 0  9994
#TLE: 2 37849  98.7820 324.9085 0002258  50.1112 310.0263 14.19528452737839

#Time	Az	El	Level	Level2	SNR	BER	BlckErr	Temp	State	Recorded	gain1	gain2
2026-01-24 00:06:40.24	14.20	5.05	-47.6	-63.2	3.8	1.49e+00	0	35	0	0	65	23548
2026-01-24 00:06:44.21	14.14	5.33	-47.6	-63.2	3.8	1.49e+00	0	36	104	0	66	22221
2026-01-24 00:06:48.19	14.08	5.62	-47.6	-63.3	3.8	1.49e+00	0	36	104	0	66	22292
2026-01-24 00:06:52.16	14.02	5.91	-47.6	-63.3	3.8	1.49e+00	0	36	104	0	66	22366
2026-01-24 00:06:56.13	13.96	6.20	-47.3	-63.2	3.8	1.49e+00	0	36	104	0	66	22024
2026-01-24 00:07:00.10	13.89	6.50	-47.6	-62.8	3.8	1.49e+00	0	36	104	0	66	21181
2026-01-24 00:07:04.07	13.83	6.80	-47.5	-62.6	3.8	1.49e+00	0	36	104	0	66	20766
2026-01-24 00:07:08.04	13.76	7.10	-47.6	-62.9	3.8	1.49e+00	0	37	104	0	66	21304
2026-01-24 00:07:12.02	13.69	7.41	-47.6	-63.1	3.8	1.49e+00	0	37	104	0	66	21804
2026-01-24 00:07:15.99	13.62	7.72	-47.5	-61.6	3.8	1.49e+00	0	37	104	0	66	18396
2026-01-24 00:07:19.96	13.55	8.03	-47.1	-57.1	5.3	5.75e-01	0	37	0	3145728	66	10967
2026-01-24 00:07:23.93	13.47	8.35	-46.0	-52.4	9.5	1.79e-02	0	37	0	10485760	64	7128
2026-01-24 00:07:27.90	13.40	8.67	-45.3	-50.2	11.8	3.50e-04	0	37	0	17825792	62	6262
2026-01-24 00:07:31.88	13.32	9.00	-45.0	-49.7	12.4	9.15e-05	0	37	0	25165824	61	6236
2026-01-24 00:07:35.86	13.23	9.33	-47.0	-56.7	5.7	7.36e-02	0	37	0	32505856	64	11737
2026-01-24 00:07:39.89	13.15	9.67	-42.5	-45.5	16.6	0.00e+00	0	37	0	39845888	57	4833
2026-01-24 00:07:43.85	13.06	10.00	-42.4	-45.3	16.8	0.00e+00	0	38	0	48234496	56	5026
2026-01-24 00:07:47.83	12.98	10.35	-42.1	-44.9	17.2	0.00e+00	0	37	0	55574528	56	4811
2026-01-24 00:07:51.83	12.88	10.70	-41.9	-44.8	17.2	0.00e+00	0	37	0	62914560	55	5013
2026-01-24 00:07:55.81	12.79	11.05	-41.7	-44.5	17.4	0.00e+00	0	38	0	70254592	55	4863
2026-01-24 00:07:59.79	12.70	11.41	-41.6	-44.5	17.5	0.00e+00	0	37	0	77594624	55	4820
2026-01-24 00:08:03.76	12.60	11.78	-41.4	-44.2	17.8	0.00e+00	0	38	0	84934656	54	4929
2026-01-24 00:08:07.75	12.49	12.15	-41.4	-44.2	17.8	0.00e+00	0	37	0	92274688	54	4976
2026-01-24 00:08:11.82	12.39	12.53	-41.2	-43.9	18.1	0.00e+00	0	38	0	100663296	54	4786
2026-01-24 00:08:15.87	12.28	12.92	-41.3	-44.0	18.0	0.00e+00	0	38	0	108003328	54	4840
2026-01-24 00:08:19.85	12.17	13.31	-41.2	-43.9	18.1	0.00e+00	0	38	0	115343360	54	4792
2026-01-24 00:08:23.83	12.05	13.70	-41.1	-43.8	18.3	0.00e+00	0	38	0	122683392	54	4710
2026-01-24 00:08:27.86	11.93	14.11	-41.0	-43.6	18.3	0.00e+00	0	38	0	130023424	54	4650
2026-01-24 00:08:31.95	11.81	14.52	-41.0	-43.6	18.4	6.56e-05	0	38	0	137363456	53	4895
2026-01-24 00:08:35.92	11.68	14.94	-40.7	-43.1	18.9	0.00e+00	0	38	0	145752064	53	4649
2026-01-24 00:08:39.90	11.55	15.36	-40.5	-42.9	19.0	0.00e+00	0	38	0	153092096	52	4811
2026-01-24 00:08:43.88	11.42	15.78	-40.2	-42.6	19.3	0.00e+00	0	38	0	160432128	52	4635
2026-01-24 00:08:47.95	11.27	16.23	-40.0	-42.4	19.6	0.00e+00	0	38	0	167772160	52	4530
2026-01-24 00:08:51.99	11.13	16.68	-40.1	-42.5	19.5	0.00e+00	0	38	0	175112192	51	4845
2026-01-24 00:08:55.97	10.98	17.13	-40.1	-42.5	19.6	0.00e+00	0	38	0	182452224	51	4818
2026-01-24 00:08:59.95	10.83	17.59	-40.2	-42.6	19.4	0.00e+00	0	38	0	190840832	51	4921
2026-01-24 00:09:03.93	10.67	18.06	-40.1	-42.5	19.6	0.00e+00	0	38	0	198180864	51	4835
2026-01-24 00:09:07.91	10.50	18.53	-40.1	-42.5	19.5	6.10e-06	0	38	0	205520896	51	4863
2026-01-24 00:09:11.89	10.33	19.02	-39.9	-42.3	19.7	0.00e+00	0	38	0	212860928	51	4752
2026-01-24 00:09:15.89	10.16	19.52	-40.0	-42.5	19.6	0.00e+00	0	38	0	220200960	51	4827
2026-01-24 00:09:19.87	9.98	20.02	-40.0	-42.3	19.7	0.00e+00	0	38	0	227540992	51	4731
2026-01-24 00:09:23.84	9.79	20.54	-40.2	-42.5	19.6	2.36e-04	0	38	0	234881024	51	4837
2026-01-24 00:09:27.86	9.59	21.07	-39.9	-42.2	19.9	0.00e+00	0	38	0	243269632	51	4652
2026-01-24 00:09:31.83	9.39	21.60	-40.1	-42.3	19.8	0.00e+00	0	38	0	250609664	51	4733
2026-01-24 00:09:35.82	9.18	22.15	-40.0	-42.3	19.8	0.00e+00	0	38	0	257949696	51	4713
2026-01-24 00:09:39.88	8.95	22.72	-40.6	-43.0	19.2	0.00e+00	0	38	0	265289728	51	5118
2026-01-24 00:09:43.85	8.72	23.29	-39.9	-42.2	19.9	0.00e+00	0	38	0	272629760	51	4689
2026-01-24 00:09:47.83	8.49	23.88	-40.1	-42.4	19.7	0.00e+00	0	38	0	279969792	51	4787
2026-01-24 00:09:51.81	8.24	24.48	-40.1	-42.2	19.8	0.00e+00	0	38	0	287309824	51	4697
2026-01-24 00:09:55.95	7.97	25.11	-41.0	-43.3	18.9	0.00e+00	0	38	0	295698432	52	5008
2026-01-24 00:10:00.24	7.68	25.78	-41.0	-43.4	18.8	0.00e+00	0	38	0	303038464	53	4772
2026-01-24 00:10:04.22	7.40	26.42	-41.2	-43.6	18.6	0.00e+00	0	38	0	311427072	53	4915
2026-01-24 00:10:08.22	7.11	27.08	-41.7	-44.2	18.1	0.00e+00	0	38	0	318767104	54	4976
2026-01-24 00:10:12.26	6.80	27.76	-42.3	-45.0	17.3	0.00e+00	0	38	0	326107136	55	5118
2026-01-24 00:10:16.27	6.47	28.45	-42.0	-44.7	17.6	0.00e+00	0	38	0	333447168	55	4975
2026-01-24 00:10:20.26	6.14	29.16	-41.9	-44.5	17.7	0.00e+00	0	38	0	340787200	55	4869
2026-01-24 00:10:24.25	5.79	29.88	-43.0	-45.9	16.8	0.00e+00	0	38	0	348127232	56	5343
2026-01-24 00:10:28.23	5.42	30.62	-43.3	-46.4	16.1	0.00e+00	0	38	0	355467264	57	5391
2026-01-24 00:10:32.24	5.03	31.38	-43.1	-46.3	16.2	0.00e+00	0	38	0	363855872	57	5282
2026-01-24 00:10:36.25	4.62	32.16	-43.8	-47.1	15.5	0.00e+00	0	38	0	371195904	58	5506
2026-01-24 00:10:40.23	4.19	32.95	-44.0	-47.2	15.3	0.00e+00	0	38	0	378535936	59	5278
2026-01-24 00:10:44.24	3.74	33.76	-43.9	-47.1	15.5	0.00e+00	0	38	0	385875968	59	5204
2026-01-24 00:10:48.25	3.27	34.60	-44.4	-48.0	14.5	0.00e+00	0	38	0	393216000	59	5741
2026-01-24 00:10:52.23	2.77	35.45	-42.9	-45.9	16.6	0.00e+00	0	38	0	400556032	57	5059
2026-01-24 00:10:56.30	2.23	36.35	-44.0	-47.7	14.9	0.00e+00	0	38	0	408944640	58	5864
2026-01-24 00:11:00.28	1.67	37.24	-44.4	-48.3	14.2	2.20e-06	0	38	0	416284672	59	5986
2026-01-24 00:11:04.26	1.08	38.16	-43.7	-46.7	15.9	0.00e+00	0	38	0	423624704	58	5255
2026-01-24 00:11:08.23	0.46	39.09	-44.2	-47.5	15.1	0.00e+00	0	38	0	430964736	59	5451
2026-01-24 00:11:12.21	359.79	40.05	-44.3	-47.7	15.0	0.00e+00	0	38	0	438304768	59	5585
2026-01-24 00:11:16.20	359.09	41.04	-43.9	-47.2	15.4	0.00e+00	0	38	0	445644800	59	5245
2026-01-24 00:11:20.17	358.34	42.04	-42.9	-45.6	16.8	0.00e+00	0	38	0	452984832	57	4886
2026-01-24 00:11:24.12	357.54	43.05	-42.9	-45.7	16.9	0.00e+00	0	38	0	460324864	57	4936
2026-01-24 00:11:28.46	356.61	44.20	-42.2	-44.9	17.7	0.00e+00	0	38	0	468713472	56	4760
2026-01-24 00:11:32.48	355.68	45.28	-42.0	-44.7	17.7	0.00e+00	0	38	0	476053504	54	5229
2026-01-24 00:11:36.47	354.69	46.37	-42.6	-45.3	17.3	0.00e+00	0	38	0	483393536	56	5016
2026-01-24 00:11:40.54	353.61	47.51	-41.9	-44.5	17.9	0.00e+00	0	38	0	491782144	54	5114
2026-01-24 00:11:44.54	352.46	48.64	-41.8	-44.4	18.0	0.00e+00	0	38	0	499122176	55	4771
2026-01-24 00:11:48.82	351.14	49.87	-41.1	-43.5	18.8	0.00e+00	0	38	0	507510784	53	4822
2026-01-24 00:11:52.83	349.79	51.04	-40.0	-42.1	20.2	0.00e+00	0	38	0	514850816	51	4603
2026-01-24 00:11:56.82	348.34	52.21	-40.4	-42.6	19.6	0.00e+00	0	38	0	522190848	52	4637
2026-01-24 00:12:00.99	346.70	53.45	-42.0	-44.6	17.7	0.00e+00	0	38	0	529530880	55	4892
2026-01-24 00:12:04.95	345.00	54.62	-41.8	-44.3	18.0	0.00e+00	0	38	0	536870912	54	5000
2026-01-24 00:12:08.93	343.15	55.81	-42.2	-44.8	17.7	0.00e+00	0	38	0	545259520	56	4735
2026-01-24 00:12:12.93	341.12	56.99	-42.8	-45.6	17.1	0.00e+00	0	38	0	552599552	56	5166
2026-01-24 00:12:17.04	338.84	58.19	-41.7	-44.2	18.1	0.00e+00	0	38	0	559939584	55	4691
2026-01-24 00:12:21.03	336.43	59.33	-42.8	-45.6	17.1	0.00e+00	0	38	0	567279616	56	5189
2026-01-24 00:12:25.04	333.79	60.45	-41.5	-43.9	18.5	0.00e+00	0	38	0	574619648	54	4764
2026-01-24 00:12:29.05	330.90	61.52	-39.9	-42.0	20.2	0.00e+00	0	38	0	581959680	51	4583
2026-01-24 00:12:33.14	327.70	62.57	-40.5	-42.7	19.6	0.00e+00	0	39	0	590348288	51	4955
2026-01-24 00:12:37.11	324.31	63.52	-40.5	-42.8	19.5	0.00e+00	0	38	0	597688320	52	4719
2026-01-24 00:12:41.09	320.65	64.40	-40.5	-42.7	19.6	0.00e+00	0	38	0	605028352	53	4415
2026-01-24 00:12:45.04	316.73	65.17	-40.5	-42.7	19.7	0.00e+00	0	38	0	612368384	51	4933
2026-01-24 00:12:49.35	312.17	65.90	-42.3	-44.9	17.4	0.00e+00	0	38	0	620756992	55	5071
2026-01-24 00:12:53.54	307.45	66.47	-41.8	-44.4	17.9	0.00e+00	0	38	0	628097024	54	5080
2026-01-24 00:12:57.53	302.75	66.87	-40.4	-42.5	19.7	0.00e+00	0	38	0	635437056	52	4552
2026-01-24 00:13:01.56	297.85	67.13	-40.3	-42.4	19.9	0.00e+00	0	38	0	643825664	51	4785
2026-01-24 00:13:05.54	292.93	67.24	-40.6	-42.9	19.3	0.00e+00	0	38	0	651165696	53	4497
2026-01-24 00:13:09.57	287.94	67.18	-41.1	-43.4	18.9	0.00e+00	0	38	0	658505728	54	4527
2026-01-24 00:13:13.55	283.06	66.98	-41.7	-44.4	18.0	0.00e+00	0	38	0	665845760	54	5099
2026-01-24 00:13:17.53	278.32	66.62	-41.5	-43.8	18.6	0.00e+00	0	38	0	673185792	54	4750
2026-01-24 00:13:21.51	273.76	66.12	-42.8	-45.5	17.1	0.00e+00	0	38	0	680525824	56	5150
2026-01-24 00:13:25.60	269.31	65.48	-41.1	-43.4	18.9	0.00e+00	0	38	0	688914432	53	4787
2026-01-24 00:13:29.57	265.26	64.75	-39.7	-41.7	20.5	0.00e+00	0	38	0	696254464	51	4430
2026-01-24 00:13:33.55	261.47	63.91	-38.6	-40.5	21.5	0.00e+00	0	38	0	703594496	48	4569
2026-01-24 00:13:37.54	257.94	62.98	-41.8	-44.4	18.0	0.00e+00	0	38	0	710934528	54	5076
2026-01-24 00:13:41.53	254.69	61.99	-40.5	-42.7	19.5	0.00e+00	0	38	0	718274560	53	4436
2026-01-24 00:13:45.64	251.62	60.90	-42.5	-45.1	17.5	0.00e+00	0	38	0	725614592	56	4900
2026-01-24 00:13:49.61	248.90	59.81	-41.3	-43.7	18.7	3.12e-05	0	38	0	734003200	54	4652
2026-01-24 00:13:53.54	246.42	58.69	-43.7	-46.8	15.9	0.00e+00	0	38	0	741343232	58	5283
2026-01-24 00:13:57.52	244.12	57.54	-43.8	-46.9	15.7	0.00e+00	0	38	0	748683264	58	5350
2026-01-24 00:14:01.50	242.02	56.36	-42.2	-44.7	17.9	0.00e+00	0	38	0	756023296	56	4675
2026-01-24 00:14:05.48	240.08	55.18	-41.0	-43.3	19.1	0.00e+00	0	38	0	763363328	53	4730
2026-01-24 00:14:09.46	238.30	54.00	-41.2	-43.6	18.8	0.00e+00	0	38	0	770703360	53	4896
2026-01-24 00:14:13.44	236.66	52.81	-42.6	-45.4	17.1	0.00e+00	0	38	0	778043392	55	5366
2026-01-24 00:14:17.48	235.13	51.61	-41.4	-43.7	18.6	0.00e+00	0	38	0	785383424	53	4979
2026-01-24 00:14:21.46	233.74	50.44	-41.5	-43.8	18.5	0.00e+00	0	38	0	793772032	54	4750
2026-01-24 00:14:25.44	232.45	49.29	-43.2	-46.0	16.6	0.00e+00	0	38	0	801112064	57	5141
2026-01-24 00:14:29.42	231.25	48.15	-41.2	-43.6	18.8	0.00e+00	0	38	0	808452096	53	4872
2026-01-24 00:14:33.40	230.14	47.02	-41.1	-43.5	18.8	0.00e+00	0	38	0	815792128	52	5132
2026-01-24 00:14:37.73	229.02	45.82	-44.3	-47.9	14.8	7.00e-07	0	38	0	824180736	59	5693
2026-01-24 00:14:41.72	228.06	44.73	-43.0	-45.8	16.9	0.00e+00	0	38	0	831520768	57	4986
2026-01-24 00:14:45.73	227.16	43.66	-41.6	-44.0	18.4	1.40e-04	0	38	0	838860800	55	4554
2026-01-24 00:14:49.74	226.32	42.61	-41.6	-43.9	18.4	0.00e+00	0	38	0	846200832	53	5074
2026-01-24 00:14:53.76	225.53	41.58	-44.9	-48.7	13.9	5.30e-06	0	38	0	853540864	60	5860
2026-01-24 00:14:57.75	224.79	40.58	-45.0	-48.7	14.0	1.50e-06	0	38	0	860880896	61	5556
2026-01-24 00:15:01.78	224.09	39.59	-42.1	-44.6	18.0	0.00e+00	0	38	0	869269504	56	4605
2026-01-24 00:15:05.76	223.44	38.63	-42.8	-45.5	17.0	0.00e+00	0	38	0	876609536	56	5124
2026-01-24 00:15:10.27	222.75	37.58	-44.5	-47.9	14.7	0.00e+00	0	38	0	884998144	60	5369
2026-01-24 00:15:14.28	222.17	36.67	-45.0	-48.8	14.0	0.00e+00	0	38	0	892338176	60	5965
2026-01-24 00:15:18.27	221.63	35.78	-44.0	-47.2	15.4	0.00e+00	0	38	0	899678208	59	5240
2026-01-24 00:15:22.25	221.12	34.91	-42.5	-45.1	17.4	0.00e+00	0	38	0	907018240	56	4922
2026-01-24 00:15:26.23	220.63	34.07	-42.3	-44.9	17.5	8.23e-05	0	38	0	914358272	55	5057
2026-01-24 00:15:30.27	220.16	33.23	-44.0	-47.2	15.3	7.55e-05	0	38	0	922746880	59	5274
2026-01-24 00:15:34.25	219.72	32.43	-43.7	-46.8	15.7	0.00e+00	0	38	0	930086912	58	5333
2026-01-24 00:15:38.44	219.28	31.60	-42.7	-45.4	17.1	4.50e-05	0	38	0	937426944	56	5059
2026-01-24 00:15:42.75	218.85	30.78	-43.0	-45.8	16.7	2.04e-04	0	38	0	945815552	56	5328
2026-01-24 00:15:47.30	218.42	29.93	-43.0	-45.8	16.6	2.20e-04	0	38	0	954204160	57	5036
2026-01-24 00:15:51.84	218.02	29.10	-45.4	-49.6	12.9	2.68e-04	0	38	0	962592768	61	6184
2026-01-24 00:15:56.39	217.63	28.29	-44.5	-48.0	14.6	0.00e+00	0	38	0	970981376	60	5421
2026-01-24 00:16:00.95	217.27	27.51	-44.0	-47.1	15.4	0.00e+00	0	38	0	979369984	59	5217
2026-01-24 00:16:05.50	216.92	26.75	-42.8	-45.5	16.9	0.00e+00	0	38	0	987758592	57	4859
2026-01-24 00:16:10.04	216.59	26.00	-42.6	-45.3	17.1	0.00e+00	0	38	0	997195776	56	5024
2026-01-24 00:16:14.76	216.26	25.25	-43.2	-46.3	16.1	0.00e+00	0	38	0	1005584384	57	5290
2026-01-24 00:16:18.87	215.98	24.61	-43.7	-46.9	15.6	0.00e+00	0	38	0	1012924416	58	5350
2026-01-24 00:16:22.83	215.73	24.01	-44.1	-47.5	14.9	0.00e+00	0	38	0	1021313024	59	5452
2026-01-24 00:16:26.81	215.49	23.42	-43.9	-47.2	15.3	0.00e+00	0	38	0	1028653056	59	5246
2026-01-24 00:16:30.99	215.24	22.81	-43.3	-46.3	16.2	0.00e+00	0	38	0	1035993088	58	5004
2026-01-24 00:16:35.07	215.01	22.23	-42.2	-44.7	17.7	0.00e+00	0	38	0	1043333120	56	4702
2026-01-24 00:16:39.05	214.79	21.68	-41.5	-44.0	18.2	0.00e+00	0	38	0	1051721728	55	4572
2026-01-24 00:16:43.03	214.59	21.14	-41.7	-44.1	18.1	0.00e+00	0	38	0	1059061760	54	4920
2026-01-24 00:16:47.01	214.38	20.61	-41.7	-44.3	17.9	0.00e+00	0	38	0	1066401792	54	4998
2026-01-24 00:16:51.09	214.19	20.07	-42.5	-45.3	16.9	0.00e+00	0	38	0	1073741824	55	5339
2026-01-24 00:16:55.10	214.00	19.56	-43.1	-46.0	16.4	0.00e+00	0	38	0	1081081856	56	5459
2026-01-24 00:16:59.07	213.82	19.06	-42.9	-45.7	16.7	0.00e+00	0	38	0	1088421888	56	5278
2026-01-24 00:17:03.46	213.62	18.52	-42.8	-45.6	16.8	0.00e+00	0	38	0	1096810496	56	5201
2026-01-24 00:17:07.79	213.44	18.00	-43.6	-46.7	15.7	0.00e+00	0	38	0	1105199104	57	5574
2026-01-24 00:17:12.09	213.27	17.49	-44.0	-47.3	15.1	0.00e+00	0	38	0	1113587712	58	5593
2026-01-24 00:17:16.09	213.11	17.02	-43.4	-46.3	16.0	0.00e+00	0	38	0	1120927744	58	5028
2026-01-24 00:17:20.18	212.95	16.56	-42.6	-45.3	17.0	0.00e+00	0	38	0	1128267776	56	4991
2026-01-24 00:17:24.29	212.80	16.10	-41.4	-43.8	18.2	0.00e+00	0	38	0	1135607808	54	4745
2026-01-24 00:17:28.27	212.66	15.66	-41.4	-43.8	18.2	1.15e-04	0	38	0	1143996416	54	4757
2026-01-24 00:17:32.28	212.52	15.23	-41.8	-44.4	17.6	0.00e+00	0	38	0	1151336448	54	5070
2026-01-24 00:17:36.58	212.38	14.78	-42.4	-45.2	16.8	5.79e-05	0	38	0	1158676480	55	5279
2026-01-24 00:17:40.78	212.24	14.34	-43.0	-45.9	16.3	3.12e-05	0	38	0	1167065088	56	5383
2026-01-24 00:17:44.77	212.11	13.93	-43.0	-45.9	16.3	0.00e+00	0	38	0	1174405120	56	5394
2026-01-24 00:17:48.74	211.99	13.53	-42.8	-45.7	16.5	0.00e+00	0	38	0	1181745152	56	5277
2026-01-24 00:17:53.02	211.87	13.11	-42.6	-45.4	16.8	0.00e+00	0	38	0	1190133760	56	5043
2026-01-24 00:17:57.17	211.75	12.70	-42.5	-45.2	17.0	0.00e+00	0	38	0	1197473792	56	4953
2026-01-24 00:18:01.15	211.63	12.32	-42.6	-45.3	16.9	0.00e+00	0	38	0	1204813824	56	5030
2026-01-24 00:18:05.14	211.53	11.95	-42.9	-45.8	16.4	0.00e+00	0	38	0	1212153856	56	5318
2026-01-24 00:18:09.66	211.41	11.53	-42.8	-45.7	16.5	0.00e+00	0	38	0	1221591040	56	5248
2026-01-24 00:18:13.64	211.31	11.16	-43.0	-45.9	16.2	0.00e+00	0	38	0	1228931072	56	5377
2026-01-24 00:18:17.73	211.20	10.79	-43.2	-46.2	15.9	0.00e+00	0	38	0	1236271104	56	5572
2026-01-24 00:18:21.74	211.11	10.44	-42.9	-45.9	16.2	0.00e+00	0	38	0	1243611136	57	5046
2026-01-24 00:18:25.72	211.01	10.09	-42.7	-46.0	15.9	1.36e-04	0	38	0	1250951168	57	5154
2026-01-24 00:18:29.70	210.92	9.75	-43.0	-46.0	16.0	0.00e+00	0	38	0	1258291200	57	5137
2026-01-24 00:18:33.68	210.83	9.41	-43.2	-46.2	15.8	0.00e+00	0	38	0	1265631232	57	5278
2026-01-24 00:18:37.77	210.74	9.06	-43.1	-46.2	15.9	0.00e+00	0	38	0	1274019840	57	5223
2026-01-24 00:18:41.75	210.66	8.73	-48.4	-63.7	3.8	1.49e+00	0	38	104	1276116992	67	22102
2026-01-24 00:18:45.72	210.58	8.41	-49.0	-64.1	3.8	1.49e+00	0	38	104	1276116992	68	21843
2026-01-24 00:18:49.70	210.49	8.09	-48.7	-64.2	3.8	1.49e+00	0	38	104	1276116992	68	22051
2026-01-24 00:18:53.67	210.42	7.77	-49.0	-64.1	3.8	1.49e+00	0	38	104	1276116992	68	22001
2026-01-24 00:18:57.64	210.34	7.46	-48.7	-64.1	3.8	1.49e+00	0	38	104	1276116992	68	21901
2026-01-24 00:19:01.62	210.26	7.15	-48.7	-64.1	3.8	1.49e+00	0	38	104	1276116992	68	21788
2026-01-24 00:19:05.59	210.19	6.84	-48.7	-64.1	3.8	1.49e+00	0	38	104	1276116992	68	21764
2026-01-24 00:19:09.57	210.12	6.54	-48.7	-64.0	3.8	1.49e+00	0	38	104	1276116992	68	21744
2026-01-24 00:19:13.54	210.05	6.24	-48.7	-64.0	3.8	1.49e+00	0	38	104	1276116992	68	21622
2026-01-24 00:19:17.51	209.98	5.94	-48.7	-64.0	3.8	1.49e+00	0	38	104	1276116992	68	21705
2026-01-24 00:19:21.48	209.92	5.65	-48.6	-63.8	3.8	1.49e+00	0	38	104	1276116992	67	22507
2026-01-24 00:19:25.46	209.85	5.36	-48.6	-63.9	3.8	1.49e+00	0	38	104	1276116992	67	22526
2026-01-24 00:19:29.43	209.79	5.08	-48.6	-63.8	3.8	1.49e+00	0	38	104	1276116992	67	22453

#Closed at: 2026-01-24 00:19:32
#Recorded file [1276 MB]: D:/Data/31040_260124_030640.dat