passes_logs/2026/01/24/T1/T1__20260124_124824_AQUA_rec.log

#Pass ID: 20260124_124824_AQUA
#Satellite: AQUA
#Configuration: AQUA
#almurnet v.1.7.20251203
#Start time: 2026-01-24 12:48:23

#Version: 2.0.20230620
#Station: T1
#Location: 37.570604 lon 55.790049 lat
#TLE: 1 27424U 02022A   26023.58972979  .00001888  00000+0  38753-3 0  9997
#TLE: 2 27424  98.4100 350.1620 0001948  68.5331  43.0280 14.61852003262140

#Time	Az	El	Level	Level2	SNR	BER	BlckErr	Temp	State	Recorded	gain1	gain2
2026-01-24 12:48:23.81	199.48	4.99	-48.1	-70.2	3.8	7.47e-01	0	40	0	0	68	44104
2026-01-24 12:48:26.79	199.72	5.19	-48.0	-69.7	3.8	7.45e-01	0	40	104	0	66	47026
2026-01-24 12:48:29.77	199.95	5.39	-47.9	-69.8	3.8	7.48e-01	0	40	104	0	66	47507
2026-01-24 12:48:32.75	200.19	5.59	-47.9	-70.0	3.8	7.44e-01	0	40	104	0	66	48663
2026-01-24 12:48:35.73	200.44	5.80	-47.9	-70.0	3.8	7.43e-01	0	40	104	0	66	48611
2026-01-24 12:48:38.71	200.68	6.01	-47.9	-69.7	3.8	7.45e-01	0	40	104	0	66	46730
2026-01-24 12:48:41.69	200.93	6.21	-47.9	-67.6	4.0	7.40e-01	0	40	104	0	66	36875
2026-01-24 12:48:44.66	201.19	6.42	-47.9	-67.6	4.0	7.39e-01	0	40	104	0	66	36760
2026-01-24 12:48:47.64	201.44	6.63	-47.9	-68.5	3.8	7.42e-01	0	40	104	0	66	40572
2026-01-24 12:48:50.62	201.71	6.85	-47.9	-67.8	3.9	7.46e-01	0	40	104	0	66	37752
2026-01-24 12:48:53.61	201.97	7.06	-47.9	-68.5	3.8	7.44e-01	0	40	104	0	66	40693
2026-01-24 12:48:56.58	202.24	7.28	-47.9	-69.1	3.8	7.45e-01	0	40	104	0	66	43531
2026-01-24 12:48:59.56	202.52	7.49	-47.8	-63.0	6.0	6.86e-01	0	40	0	524288	66	21582
2026-01-24 12:49:02.54	202.79	7.71	-47.9	-66.1	3.9	7.40e-01	0	40	104	4718592	66	30984
2026-01-24 12:49:05.52	203.08	7.93	-47.3	-57.6	11.1	6.19e-01	0	40	0	5767168	66	11679
2026-01-24 12:49:08.50	203.37	8.15	-44.5	-48.7	20.2	6.06e-01	0	40	0	11534336	61	5565
2026-01-24 12:49:11.48	203.66	8.38	-43.0	-46.2	22.7	6.07e-01	0	40	0	17301504	58	4979
2026-01-24 12:49:14.46	203.96	8.60	-44.0	-47.8	21.3	6.10e-01	0	40	0	22544384	58	5975
2026-01-24 12:49:17.44	204.26	8.83	-46.2	-52.6	16.5	6.05e-01	0	40	0	28311552	63	7730
2026-01-24 12:49:20.42	204.56	9.06	-47.3	-58.2	10.6	6.19e-01	0	40	0	34078720	65	13131
2026-01-24 12:49:23.41	204.88	9.29	-47.3	-60.1	8.3	6.39e-01	0	40	0	39321600	65	16356
2026-01-24 12:49:26.39	205.19	9.52	-45.7	-51.2	17.9	6.08e-01	0	40	0	45088768	63	6614
2026-01-24 12:49:29.38	205.52	9.76	-44.2	-47.9	21.3	6.07e-01	0	40	0	50855936	59	5685
2026-01-24 12:49:32.36	205.85	9.99	-43.0	-45.9	23.2	6.06e-01	0	40	0	56098816	58	4804
2026-01-24 12:49:35.35	206.18	10.23	-42.9	-45.8	23.4	6.07e-01	0	40	0	61865984	57	5003
2026-01-24 12:49:38.33	206.52	10.47	-42.5	-45.3	23.8	6.06e-01	0	40	0	67633152	57	4724
2026-01-24 12:49:41.31	206.87	10.71	-42.6	-45.3	23.6	6.08e-01	0	40	0	72876032	57	4758
2026-01-24 12:49:44.30	207.22	10.95	-42.6	-45.3	23.8	6.08e-01	0	40	0	78643200	57	4746
2026-01-24 12:49:47.28	207.58	11.19	-42.6	-45.2	23.9	6.07e-01	0	40	0	84410368	57	4689
2026-01-24 12:49:50.27	207.94	11.44	-42.6	-45.3	23.8	6.05e-01	0	40	0	89653248	57	4714
2026-01-24 12:49:53.25	208.31	11.69	-42.6	-45.2	23.9	6.07e-01	0	40	0	95420416	57	4695
2026-01-24 12:49:56.24	208.69	11.94	-42.5	-45.1	24.1	6.08e-01	0	40	0	101187584	56	4880
2026-01-24 12:49:59.22	209.07	12.19	-42.5	-45.0	24.1	6.06e-01	0	40	0	106430464	56	4859
2026-01-24 12:50:02.21	209.46	12.44	-42.4	-44.9	24.3	6.06e-01	0	40	0	112197632	56	4765
2026-01-24 12:50:05.20	209.86	12.70	-42.4	-44.9	24.3	6.05e-01	0	40	0	117964800	56	4792
2026-01-24 12:50:08.18	210.27	12.96	-42.5	-45.0	24.2	6.05e-01	0	40	0	123207680	56	4828
2026-01-24 12:50:11.17	210.68	13.22	-42.3	-44.8	24.4	6.06e-01	0	40	0	128974848	56	4724
2026-01-24 12:50:14.15	211.10	13.48	-42.4	-44.9	24.3	6.08e-01	0	40	0	134742016	56	4795
2026-01-24 12:50:17.13	211.53	13.74	-42.3	-44.7	24.5	6.07e-01	0	40	0	139984896	56	4702
2026-01-24 12:50:20.12	211.97	14.00	-42.3	-44.8	24.4	6.06e-01	0	40	0	145752064	56	4743
2026-01-24 12:50:23.10	212.41	14.27	-42.3	-44.8	24.5	6.06e-01	0	40	0	151519232	56	4731
2026-01-24 12:50:26.09	212.86	14.53	-42.3	-44.9	24.4	6.07e-01	0	40	0	156762112	56	4782
2026-01-24 12:50:29.07	213.32	14.80	-42.1	-44.6	24.6	6.07e-01	0	40	0	162529280	56	4634
2026-01-24 12:50:32.06	213.79	15.07	-42.2	-44.7	24.6	6.05e-01	0	40	0	168296448	56	4674
2026-01-24 12:50:35.05	214.27	15.35	-42.2	-44.7	24.5	6.05e-01	0	40	0	173539328	56	4677
2026-01-24 12:50:38.03	214.76	15.62	-42.3	-44.8	24.5	6.07e-01	0	40	0	179306496	56	4716
2026-01-24 12:50:41.02	215.26	15.90	-42.1	-44.7	24.6	6.07e-01	0	40	0	185073664	56	4657
2026-01-24 12:50:44.01	215.77	16.17	-42.2	-44.7	24.5	6.05e-01	0	40	0	190316544	56	4699
2026-01-24 12:50:46.99	216.28	16.45	-42.0	-44.4	24.8	6.06e-01	0	40	0	196083712	55	4798
2026-01-24 12:50:49.97	216.81	16.73	-42.0	-44.4	24.7	6.05e-01	0	40	0	201850880	55	4809
2026-01-24 12:50:52.96	217.35	17.01	-41.8	-44.3	24.9	6.06e-01	0	40	0	207093760	55	4729
2026-01-24 12:50:55.94	217.90	17.30	-42.0	-44.4	24.8	6.04e-01	0	40	0	212860928	55	4797
2026-01-24 12:50:58.93	218.46	17.58	-41.7	-44.1	25.0	6.06e-01	0	40	0	218628096	55	4641
2026-01-24 12:51:01.91	219.03	17.86	-41.8	-44.3	24.9	6.07e-01	0	40	0	223870976	55	4720
2026-01-24 12:51:04.89	219.60	18.15	-41.8	-44.2	25.0	6.05e-01	0	40	0	229638144	55	4697
2026-01-24 12:51:07.88	220.20	18.44	-41.8	-44.2	25.0	6.06e-01	0	40	0	235405312	55	4672
2026-01-24 12:51:10.86	220.80	18.72	-41.8	-44.2	25.0	6.07e-01	0	40	0	240648192	55	4695
2026-01-24 12:51:13.85	221.42	19.01	-41.8	-44.2	25.0	6.07e-01	0	40	0	246415360	55	4692
2026-01-24 12:51:16.83	222.05	19.30	-42.0	-44.4	24.9	6.08e-01	0	40	0	252182528	55	4763
2026-01-24 12:51:19.82	222.69	19.59	-42.0	-44.3	24.9	6.05e-01	0	40	0	257949696	55	4754
2026-01-24 12:51:22.80	223.34	19.88	-42.0	-44.3	24.9	6.06e-01	0	40	0	263192576	55	4751
2026-01-24 12:51:25.78	224.00	20.16	-42.1	-44.5	24.8	6.07e-01	0	40	0	268959744	55	4821
2026-01-24 12:51:28.77	224.68	20.45	-41.9	-44.3	25.0	6.07e-01	0	40	0	274726912	55	4736
2026-01-24 12:51:31.75	225.37	20.74	-41.9	-44.3	25.0	6.05e-01	0	40	0	279969792	55	4720
2026-01-24 12:51:34.73	226.08	21.03	-42.0	-44.4	24.8	6.06e-01	0	40	0	285736960	55	4794
2026-01-24 12:51:37.72	226.80	21.32	-42.1	-44.5	24.8	6.07e-01	0	40	0	291504128	55	4821
2026-01-24 12:51:40.71	227.53	21.61	-42.0	-44.4	24.9	6.08e-01	0	40	0	296747008	55	4773
2026-01-24 12:51:43.69	228.28	21.89	-42.1	-44.5	24.7	6.04e-01	0	40	0	302514176	55	4865
2026-01-24 12:51:46.68	229.04	22.18	-42.1	-44.5	24.8	6.03e-01	0	40	0	308281344	55	4851
2026-01-24 12:51:49.66	229.82	22.46	-42.1	-44.5	24.8	6.09e-01	0	40	0	313524224	55	4838
2026-01-24 12:51:52.65	230.61	22.74	-42.2	-44.6	24.7	6.06e-01	0	40	0	319291392	55	4899
2026-01-24 12:51:55.63	231.41	23.02	-42.1	-44.5	24.8	6.06e-01	0	40	0	325058560	55	4852
2026-01-24 12:51:58.62	232.23	23.29	-42.2	-44.6	24.6	6.06e-01	0	40	0	330301440	55	4922
2026-01-24 12:52:01.60	233.06	23.57	-42.2	-44.6	24.7	6.08e-01	0	40	0	336068608	55	4923
2026-01-24 12:52:04.59	233.92	23.84	-42.3	-44.8	24.5	6.08e-01	0	40	0	341835776	55	5020
2026-01-24 12:52:07.57	234.78	24.10	-42.4	-45.0	24.3	6.07e-01	0	40	0	347078656	55	5152
2026-01-24 12:52:10.55	235.66	24.37	-42.4	-45.0	24.4	6.05e-01	0	40	0	352845824	55	5111
2026-01-24 12:52:13.54	236.55	24.63	-42.3	-44.7	24.6	6.06e-01	0	40	0	358612992	55	4982
2026-01-24 12:52:16.53	237.46	24.88	-42.4	-44.8	24.5	6.07e-01	0	40	0	363855872	55	5040
2026-01-24 12:52:19.51	238.39	25.13	-42.2	-44.7	24.7	6.06e-01	0	40	0	369623040	55	4931
2026-01-24 12:52:22.50	239.33	25.38	-42.3	-44.8	24.6	6.06e-01	0	40	0	375390208	55	4995
2026-01-24 12:52:25.48	240.28	25.62	-42.3	-44.8	24.6	6.09e-01	0	40	0	380633088	55	4991
2026-01-24 12:52:28.47	241.25	25.85	-42.2	-44.6	24.7	6.05e-01	0	40	0	386400256	55	4913
2026-01-24 12:52:31.45	242.23	26.08	-42.4	-44.8	24.6	6.05e-01	0	40	0	392167424	55	5025
2026-01-24 12:52:34.43	243.23	26.30	-42.3	-44.7	24.6	6.05e-01	0	40	0	397410304	55	4960
2026-01-24 12:52:37.42	244.24	26.51	-42.6	-45.0	24.4	6.05e-01	0	40	0	403177472	55	5140
2026-01-24 12:52:40.40	245.27	26.72	-42.4	-44.8	24.5	6.06e-01	0	40	0	408944640	55	5040
2026-01-24 12:52:43.39	246.31	26.91	-42.1	-44.5	24.8	6.06e-01	0	40	0	414187520	55	4866
2026-01-24 12:52:46.37	247.36	27.10	-42.2	-44.6	24.7	6.08e-01	0	40	0	419954688	55	4922
2026-01-24 12:52:49.36	248.42	27.28	-42.0	-44.5	24.8	6.04e-01	0	40	0	425721856	55	4841
2026-01-24 12:52:52.34	249.50	27.46	-42.1	-44.5	24.9	6.08e-01	0	40	0	430964736	55	4832
2026-01-24 12:52:55.33	250.59	27.62	-41.9	-44.3	25.0	6.07e-01	0	40	0	436731904	55	4756
2026-01-24 12:52:58.32	251.69	27.77	-42.0	-44.4	24.9	6.07e-01	0	40	0	442499072	55	4781
2026-01-24 12:53:01.29	252.79	27.91	-42.0	-44.3	25.0	6.07e-01	0	40	0	447741952	55	4756
2026-01-24 12:53:04.28	253.91	28.05	-42.0	-44.4	25.0	6.07e-01	0	40	0	453509120	55	4780
2026-01-24 12:53:07.26	255.04	28.17	-41.9	-44.3	25.1	6.06e-01	0	40	0	459276288	55	4725
2026-01-24 12:53:10.25	256.17	28.28	-41.8	-44.2	25.2	6.04e-01	0	40	0	464519168	55	4666
2026-01-24 12:53:13.23	257.32	28.38	-41.9	-44.3	25.0	6.07e-01	0	40	0	470286336	55	4733
2026-01-24 12:53:16.21	258.46	28.46	-41.7	-44.1	25.3	6.09e-01	0	40	0	476053504	55	4608
2026-01-24 12:53:19.20	259.62	28.54	-41.8	-44.2	25.1	6.05e-01	0	40	0	481296384	55	4674
2026-01-24 12:53:22.18	260.78	28.60	-41.7	-44.1	25.2	6.04e-01	0	40	0	487063552	55	4644
2026-01-24 12:53:25.17	261.95	28.65	-41.8	-44.1	25.1	6.04e-01	0	40	0	492830720	55	4637
2026-01-24 12:53:28.15	263.11	28.69	-41.6	-44.1	25.3	6.07e-01	0	40	0	498073600	55	4604
2026-01-24 12:53:31.14	264.29	28.72	-41.6	-44.0	25.3	6.06e-01	0	40	0	503840768	54	4827
2026-01-24 12:53:34.12	265.46	28.73	-41.8	-44.1	25.3	6.05e-01	0	40	0	509607936	55	4647
2026-01-24 12:53:37.11	266.63	28.73	-41.4	-43.7	25.5	6.05e-01	0	40	0	514850816	54	4667
2026-01-24 12:53:40.09	267.80	28.72	-41.5	-43.8	25.4	6.06e-01	0	40	0	520617984	54	4720
2026-01-24 12:53:43.08	268.97	28.70	-41.3	-43.7	25.5	6.07e-01	0	40	0	526385152	54	4659
2026-01-24 12:53:46.06	270.14	28.66	-41.6	-43.9	25.3	6.07e-01	0	40	0	531628032	54	4794
2026-01-24 12:53:49.05	271.30	28.62	-41.5	-43.8	25.4	6.05e-01	0	40	0	537395200	54	4734
2026-01-24 12:53:52.03	272.46	28.56	-41.6	-43.9	25.4	6.07e-01	0	40	0	543162368	54	4787
2026-01-24 12:53:55.02	273.62	28.48	-41.5	-43.8	25.4	6.05e-01	0	40	0	548929536	54	4728
2026-01-24 12:53:58.01	274.77	28.40	-41.5	-43.8	25.5	6.06e-01	0	40	0	554172416	54	4729
2026-01-24 12:54:00.99	275.91	28.30	-41.4	-43.6	25.6	6.06e-01	0	40	0	559939584	54	4647
2026-01-24 12:54:03.98	277.05	28.20	-41.3	-43.6	25.6	6.06e-01	0	40	0	565706752	54	4617
2026-01-24 12:54:06.97	278.18	28.08	-41.3	-43.6	25.6	6.05e-01	0	40	0	570949632	54	4642
2026-01-24 12:54:09.95	279.30	27.95	-41.3	-43.7	25.6	6.07e-01	0	40	0	576716800	54	4658
2026-01-24 12:54:12.93	280.40	27.81	-41.4	-43.6	25.6	6.05e-01	0	40	0	582483968	54	4647
2026-01-24 12:54:15.92	281.50	27.66	-41.4	-43.7	25.6	6.06e-01	0	40	0	587726848	54	4662
2026-01-24 12:54:18.90	282.59	27.50	-41.4	-43.6	25.6	6.07e-01	0	40	0	593494016	54	4648
2026-01-24 12:54:21.88	283.66	27.33	-41.5	-43.8	25.5	6.05e-01	0	40	0	599261184	54	4740
2026-01-24 12:54:24.87	284.73	27.16	-41.4	-43.7	25.6	6.06e-01	0	40	0	604504064	54	4670
2026-01-24 12:54:27.85	285.78	26.97	-41.3	-43.6	25.6	6.05e-01	0	40	0	610271232	54	4613
2026-01-24 12:54:30.84	286.82	26.77	-41.4	-43.7	25.5	6.05e-01	0	40	0	616038400	54	4687
2026-01-24 12:54:33.82	287.84	26.57	-41.5	-43.8	25.3	6.06e-01	0	40	0	621281280	54	4746
2026-01-24 12:54:36.81	288.86	26.36	-41.4	-43.7	25.5	6.08e-01	0	40	0	627048448	54	4681
2026-01-24 12:54:39.79	289.85	26.14	-41.5	-43.7	25.5	6.07e-01	0	40	0	632815616	54	4699
2026-01-24 12:54:42.78	290.84	25.92	-41.3	-43.6	25.6	6.06e-01	0	40	0	638058496	54	4645
2026-01-24 12:54:45.76	291.81	25.69	-41.4	-43.8	25.4	6.04e-01	0	40	0	643825664	54	4733
2026-01-24 12:54:48.75	292.76	25.45	-41.4	-43.7	25.5	6.05e-01	0	40	0	649592832	54	4667
2026-01-24 12:54:51.73	293.70	25.21	-41.4	-43.7	25.4	6.07e-01	0	40	0	654835712	54	4692
2026-01-24 12:54:54.71	294.63	24.97	-41.5	-43.8	25.3	6.05e-01	0	40	0	660602880	54	4733
2026-01-24 12:54:57.70	295.54	24.71	-41.5	-43.8	25.4	6.07e-01	0	40	0	666370048	54	4721
2026-01-24 12:55:00.68	296.43	24.46	-41.4	-43.8	25.4	6.06e-01	0	40	0	671612928	54	4715
2026-01-24 12:55:03.67	297.31	24.20	-41.6	-43.9	25.3	6.04e-01	0	40	0	677380096	54	4802
2026-01-24 12:55:06.65	298.17	23.93	-41.4	-43.8	25.4	6.05e-01	0	40	0	683147264	54	4732
2026-01-24 12:55:09.64	299.03	23.66	-41.5	-43.9	25.4	6.06e-01	0	40	0	688390144	54	4778
2026-01-24 12:55:12.62	299.86	23.39	-41.5	-43.9	25.3	6.06e-01	0	40	0	694157312	54	4767
2026-01-24 12:55:15.61	300.68	23.12	-41.4	-43.7	25.5	6.06e-01	0	40	0	699924480	54	4665
2026-01-24 12:55:18.59	301.49	22.85	-41.4	-43.7	25.4	6.06e-01	0	40	0	705167360	54	4703
2026-01-24 12:55:21.57	302.27	22.57	-41.5	-43.9	25.3	6.07e-01	0	40	0	710934528	54	4773
2026-01-24 12:55:24.55	303.05	22.29	-41.4	-43.7	25.5	6.07e-01	0	40	0	716701696	54	4665
2026-01-24 12:55:27.54	303.81	22.01	-41.4	-43.7	25.4	6.06e-01	0	40	0	721944576	54	4687
2026-01-24 12:55:30.52	304.56	21.72	-41.3	-43.7	25.5	6.07e-01	0	40	0	727711744	54	4664
2026-01-24 12:55:33.50	305.29	21.44	-41.4	-43.8	25.3	6.04e-01	0	40	0	733478912	54	4740
2026-01-24 12:55:36.49	306.01	21.15	-41.3	-43.7	25.5	6.06e-01	0	40	0	738721792	54	4661
2026-01-24 12:55:39.47	306.72	20.87	-41.1	-43.5	25.6	6.05e-01	0	40	0	744488960	54	4551
2026-01-24 12:55:42.46	307.41	20.58	-41.3	-43.7	25.5	6.05e-01	0	40	0	750256128	54	4673
2026-01-24 12:55:45.45	308.09	20.30	-41.5	-43.9	25.3	6.04e-01	0	40	0	755499008	54	4760
2026-01-24 12:55:48.43	308.76	20.01	-41.1	-43.4	25.7	6.06e-01	0	40	0	761266176	54	4535
2026-01-24 12:55:51.41	309.41	19.72	-41.2	-43.5	25.6	6.06e-01	0	40	0	767033344	54	4596
2026-01-24 12:55:54.39	310.05	19.44	-41.1	-43.5	25.6	6.07e-01	0	40	0	772276224	54	4547
2026-01-24 12:55:57.38	310.68	19.15	-41.0	-43.5	25.6	6.06e-01	0	40	0	778043392	54	4549
2026-01-24 12:56:00.36	311.30	18.87	-41.1	-43.5	25.5	6.04e-01	0	40	0	783810560	54	4589
2026-01-24 12:56:03.35	311.90	18.58	-41.2	-43.5	25.5	6.05e-01	0	40	0	789053440	54	4579
2026-01-24 12:56:06.33	312.50	18.30	-41.1	-43.5	25.5	6.06e-01	0	40	0	794820608	54	4547
2026-01-24 12:56:09.31	313.08	18.01	-41.1	-43.5	25.5	6.07e-01	0	40	0	800587776	54	4551
2026-01-24 12:56:12.30	313.65	17.73	-40.9	-43.3	25.6	6.05e-01	0	40	0	805830656	53	4752
2026-01-24 12:56:15.29	314.21	17.45	-41.0	-43.4	25.6	6.06e-01	0	40	0	811597824	53	4801
2026-01-24 12:56:18.27	314.76	17.17	-41.1	-43.5	25.5	6.07e-01	0	41	0	817364992	53	4846
2026-01-24 12:56:21.26	315.30	16.89	-41.1	-43.5	25.5	6.04e-01	0	40	0	822607872	53	4868
2026-01-24 12:56:24.24	315.82	16.61	-41.0	-43.3	25.5	6.06e-01	0	40	0	828375040	53	4753
2026-01-24 12:56:27.23	316.34	16.34	-41.0	-43.4	25.6	6.04e-01	0	40	0	834142208	53	4779
2026-01-24 12:56:30.21	316.85	16.06	-41.0	-43.6	25.4	6.06e-01	0	40	0	839909376	53	4895
2026-01-24 12:56:33.19	317.35	15.79	-40.8	-43.5	25.4	6.03e-01	0	40	0	845152256	53	4859
2026-01-24 12:56:36.18	317.84	15.52	-41.2	-43.7	25.4	6.06e-01	0	40	0	850919424	53	4930
2026-01-24 12:56:39.16	318.32	15.25	-41.1	-43.6	25.4	6.04e-01	0	40	0	856686592	53	4876
2026-01-24 12:56:42.15	318.79	14.98	-41.0	-43.5	25.5	6.03e-01	0	40	0	861929472	53	4837
2026-01-24 12:56:45.13	319.26	14.71	-41.2	-43.7	25.3	6.05e-01	0	40	0	867696640	53	4959
2026-01-24 12:56:48.12	319.71	14.44	-41.1	-43.6	25.3	6.05e-01	0	40	0	873463808	53	4913
2026-01-24 12:56:51.10	320.16	14.18	-41.2	-43.7	25.2	6.06e-01	0	40	0	878706688	53	4964
2026-01-24 12:56:54.09	320.60	13.92	-41.3	-43.9	25.1	6.07e-01	0	40	0	884473856	53	5044
2026-01-24 12:56:57.07	321.02	13.66	-41.2	-43.7	25.2	6.06e-01	0	40	0	890241024	53	4944
2026-01-24 12:57:00.06	321.45	13.40	-41.2	-43.7	25.2	6.07e-01	0	40	0	895483904	53	4955
2026-01-24 12:57:03.04	321.86	13.14	-41.2	-43.7	25.1	6.05e-01	0	40	0	901251072	53	4949
2026-01-24 12:57:06.02	322.27	12.89	-41.4	-43.9	25.0	6.05e-01	0	40	0	907018240	53	5067
2026-01-24 12:57:09.00	322.67	12.63	-41.8	-44.2	24.8	6.07e-01	0	40	0	912261120	54	4947
2026-01-24 12:57:11.99	323.06	12.38	-41.5	-44.1	24.8	6.06e-01	0	41	0	918028288	54	4907
2026-01-24 12:57:14.98	323.45	12.13	-41.2	-44.2	24.7	6.05e-01	0	40	0	923795456	54	4933
2026-01-24 12:57:17.96	323.83	11.88	-41.1	-44.2	24.8	6.08e-01	0	40	0	929038336	54	4952
2026-01-24 12:57:20.95	324.20	11.64	-41.1	-44.1	24.7	6.08e-01	0	40	0	934805504	54	4918
2026-01-24 12:57:23.93	324.57	11.39	-41.2	-44.2	24.7	6.07e-01	0	40	0	940572672	54	4957
2026-01-24 12:57:26.92	324.93	11.15	-41.5	-44.4	24.4	6.08e-01	0	40	0	945815552	54	5092
2026-01-24 12:57:29.91	325.28	10.91	-41.5	-44.4	24.4	6.06e-01	0	40	0	951582720	54	5089
2026-01-24 12:57:32.90	325.63	10.67	-41.6	-44.6	24.2	6.07e-01	0	40	0	957349888	54	5196
2026-01-24 12:57:35.88	325.97	10.43	-41.5	-44.6	24.3	6.06e-01	0	40	0	962592768	54	5176
2026-01-24 12:57:38.86	326.31	10.20	-41.6	-44.5	24.3	6.06e-01	0	40	0	968359936	54	5126
2026-01-24 12:57:41.85	326.64	9.96	-42.0	-44.6	24.2	6.07e-01	0	40	0	974127104	54	5193
2026-01-24 12:57:44.84	326.96	9.73	-42.2	-44.7	24.0	6.09e-01	0	40	0	979369984	54	5277
2026-01-24 12:57:47.82	327.28	9.50	-42.0	-44.7	24.0	6.07e-01	0	40	0	985137152	55	4982
2026-01-24 12:57:50.81	327.60	9.27	-42.1	-45.0	23.8	6.07e-01	0	40	0	990904320	55	5134
2026-01-24 12:57:53.79	327.91	9.04	-42.2	-45.2	23.5	6.07e-01	0	40	0	996147200	55	5244
2026-01-24 12:57:56.78	328.21	8.81	-50.1	-69.8	3.9	7.44e-01	0	40	104	998768640	70	37477
2026-01-24 12:57:59.75	328.51	8.59	-49.3	-70.8	3.8	7.44e-01	0	40	104	998768640	69	44892
2026-01-24 12:58:02.73	328.81	8.37	-50.1	-70.9	3.8	7.47e-01	0	41	104	998768640	71	40229
2026-01-24 12:58:05.71	329.10	8.15	-50.4	-71.0	3.8	7.46e-01	0	41	104	998768640	71	40717
2026-01-24 12:58:08.69	329.38	7.93	-50.7	-71.0	3.8	7.47e-01	0	40	104	998768640	71	40956
2026-01-24 12:58:11.67	329.67	7.71	-50.9	-71.0	3.8	7.44e-01	0	41	104	998768640	72	38591
2026-01-24 12:58:14.65	329.94	7.50	-50.7	-71.0	3.8	7.48e-01	0	40	104	998768640	72	38280
2026-01-24 12:58:17.63	330.22	7.28	-50.1	-70.9	3.8	7.45e-01	0	41	104	998768640	71	40468
2026-01-24 12:58:20.61	330.48	7.07	-50.2	-70.9	3.8	7.50e-01	0	41	104	998768640	71	40509
2026-01-24 12:58:23.59	330.75	6.86	-50.1	-70.9	3.8	7.48e-01	0	41	104	998768640	71	40393
2026-01-24 12:58:26.57	331.01	6.65	-50.2	-70.9	3.8	7.47e-01	0	41	104	998768640	71	40418
2026-01-24 12:58:29.55	331.27	6.44	-50.2	-70.9	3.8	7.46e-01	0	41	104	998768640	71	40468
2026-01-24 12:58:32.53	331.52	6.23	-50.1	-70.9	3.8	7.46e-01	0	41	104	998768640	71	40376
2026-01-24 12:58:35.51	331.77	6.03	-50.1	-70.9	3.8	7.48e-01	0	41	104	998768640	71	40403
2026-01-24 12:58:38.49	332.02	5.82	-50.1	-70.9	3.8	7.43e-01	0	41	104	998768640	71	40339
2026-01-24 12:58:41.46	332.26	5.62	-50.1	-70.9	3.8	7.45e-01	0	41	104	998768640	71	40456
2026-01-24 12:58:44.44	332.50	5.42	-50.1	-70.9	3.8	7.48e-01	0	41	104	998768640	71	40339
2026-01-24 12:58:47.42	332.73	5.22	-50.1	-70.9	3.8	7.45e-01	0	41	104	998768640	71	40308
2026-01-24 12:58:50.40	332.96	5.02	-50.1	-70.9	3.8	7.48e-01	0	41	104	998768640	71	40285

#Closed at: 2026-01-24 12:58:52
#Recorded file [998 MB]: D:/Data/31040_260124_154823.dat