passes_logs/2026/01/24/T1/T1__20260124_013631_AQUA_rec.log

#Pass ID: 20260124_013631_AQUA
#Satellite: AQUA
#Configuration: AQUA
#almurnet v.1.7.20251203
#Start time: 2026-01-24 01:36:31

#Version: 2.0.20230620
#Station: T1
#Location: 37.570604 lon 55.790049 lat
#TLE: 1 27424U 02022A   26022.96978264  .00001879  00000+0  38593-3 0  9993
#TLE: 2 27424  98.4100 349.5315 0001958  69.4371  21.4765 14.61848807262053

#Time	Az	El	Level	Level2	SNR	BER	BlckErr	Temp	State	Recorded	gain1	gain2
2026-01-24 01:36:31.08	13.89	4.98	-46.1	-70.1	3.8	7.47e-01	0	35	0	0	64	55176
2026-01-24 01:36:34.06	13.86	5.20	-48.5	-69.9	3.8	7.47e-01	0	35	104	0	67	45297
2026-01-24 01:36:37.04	13.83	5.42	-48.5	-69.9	3.8	7.45e-01	0	35	104	0	67	45395
2026-01-24 01:36:40.01	13.79	5.65	-48.5	-70.0	3.8	7.48e-01	0	35	104	0	67	45582
2026-01-24 01:36:42.99	13.76	5.88	-48.5	-70.0	3.8	7.47e-01	0	35	104	0	67	45817
2026-01-24 01:36:45.97	13.72	6.11	-48.5	-70.0	3.8	7.48e-01	0	36	104	0	67	45898
2026-01-24 01:36:48.95	13.68	6.34	-48.5	-70.0	3.8	7.45e-01	0	36	104	0	67	45649
2026-01-24 01:36:51.93	13.64	6.58	-48.5	-69.8	3.8	7.45e-01	0	36	104	0	67	44718
2026-01-24 01:36:54.91	13.61	6.82	-48.5	-69.5	3.8	7.45e-01	0	36	104	0	67	43292
2026-01-24 01:36:57.89	13.56	7.06	-48.5	-69.4	3.8	7.47e-01	0	36	104	0	67	42616
2026-01-24 01:37:00.87	13.52	7.30	-48.5	-69.3	3.8	7.48e-01	0	36	104	0	67	42388
2026-01-24 01:37:03.85	13.48	7.55	-48.5	-69.1	3.8	7.47e-01	0	36	104	0	67	41270
2026-01-24 01:37:06.83	13.44	7.80	-48.3	-68.3	3.8	7.47e-01	0	36	104	0	67	37381
2026-01-24 01:37:09.81	13.39	8.05	-48.0	-66.2	3.8	7.44e-01	0	36	104	0	67	29397
2026-01-24 01:37:12.79	13.35	8.30	-47.2	-63.2	3.8	7.41e-01	0	36	104	0	66	22153
2026-01-24 01:37:15.77	13.30	8.56	-46.2	-60.7	3.8	7.44e-01	0	36	104	0	64	18578
2026-01-24 01:37:18.75	13.26	8.82	-45.6	-59.4	3.8	7.48e-01	0	36	104	0	63	16927
2026-01-24 01:37:21.73	13.21	9.08	-45.4	-59.0	3.8	7.46e-01	0	37	104	0	62	17084
2026-01-24 01:37:24.95	13.15	9.37	-44.3	-57.2	3.8	7.45e-01	0	36	104	0	59	16539
2026-01-24 01:37:27.85	13.10	9.63	-42.8	-55.2	3.8	7.46e-01	0	37	104	0	57	14764
2026-01-24 01:37:30.84	13.05	9.91	-42.7	-55.0	3.8	7.44e-01	0	37	104	0	57	14540
2026-01-24 01:37:33.82	13.00	10.18	-44.2	-57.4	3.8	7.45e-01	0	37	104	0	60	15988
2026-01-24 01:37:36.85	12.94	10.47	-42.7	-55.1	3.8	7.46e-01	0	37	104	0	57	14648
2026-01-24 01:37:39.94	12.88	10.76	-42.4	-54.7	3.8	7.46e-01	0	37	104	0	56	14762
2026-01-24 01:37:42.82	12.83	11.04	-44.4	-57.5	3.9	7.45e-01	0	37	104	0	60	16232
2026-01-24 01:37:45.95	12.76	11.34	-42.8	-55.2	3.8	7.43e-01	0	37	104	0	57	14849
2026-01-24 01:37:48.79	12.70	11.62	-42.6	-55.0	3.8	7.46e-01	0	37	104	0	57	14399
2026-01-24 01:37:51.91	12.64	11.94	-45.6	-59.2	3.9	7.45e-01	0	37	104	0	63	16562
2026-01-24 01:37:54.82	12.58	12.23	-43.4	-46.6	22.5	6.03e-01	0	37	0	1048576	58	5205
2026-01-24 01:37:57.81	12.51	12.54	-42.8	-45.8	23.3	6.02e-01	0	37	0	6291456	57	4992
2026-01-24 01:38:00.80	12.44	12.85	-41.6	-44.4	24.6	6.07e-01	0	37	0	12058624	55	4769
2026-01-24 01:38:03.78	12.37	13.17	-41.3	-44.0	24.9	6.06e-01	0	37	0	17825792	54	4863
2026-01-24 01:38:06.74	12.30	13.48	-41.2	-43.9	25.0	6.03e-01	0	37	0	23068672	54	4811
2026-01-24 01:38:10.07	12.22	13.85	-41.2	-43.8	25.1	6.04e-01	0	37	0	29360128	54	4750
2026-01-24 01:38:12.80	12.15	14.15	-41.2	-43.8	25.2	6.03e-01	0	37	0	34603008	54	4713
2026-01-24 01:38:16.07	12.06	14.52	-41.0	-43.6	25.3	6.06e-01	0	37	0	40894464	54	4636
2026-01-24 01:38:18.88	11.99	14.84	-41.0	-43.6	25.3	6.05e-01	0	37	0	46137344	54	4643
2026-01-24 01:38:22.00	11.90	15.20	-40.9	-43.6	25.3	6.06e-01	0	37	0	51904512	53	4884
2026-01-24 01:38:24.85	11.82	15.54	-41.0	-43.8	25.2	6.02e-01	0	37	0	57147392	53	5009
2026-01-24 01:38:27.98	11.73	15.91	-41.0	-43.8	25.1	6.05e-01	0	37	0	62914560	53	5000
2026-01-24 01:38:30.83	11.64	16.26	-41.0	-43.9	25.1	6.06e-01	0	37	0	68157440	53	5055
2026-01-24 01:38:33.96	11.54	16.64	-41.0	-44.0	25.0	6.03e-01	0	37	0	74448896	53	5101
2026-01-24 01:38:36.80	11.45	17.00	-40.9	-43.9	25.1	6.02e-01	0	37	0	79691776	53	5076
2026-01-24 01:38:39.92	11.35	17.40	-41.0	-43.9	25.0	6.02e-01	0	37	0	85458944	53	5081
2026-01-24 01:38:42.81	11.25	17.78	-40.8	-43.7	25.2	6.02e-01	0	37	0	90701824	53	4958
2026-01-24 01:38:46.00	11.14	18.20	-40.8	-43.7	25.2	6.02e-01	0	37	0	96993280	53	4966
2026-01-24 01:38:48.84	11.04	18.58	-40.8	-43.6	25.2	6.04e-01	0	37	0	102236160	53	4918
2026-01-24 01:38:51.97	10.92	19.01	-40.7	-43.6	25.4	6.03e-01	0	37	0	108003328	53	4876
2026-01-24 01:38:54.80	10.81	19.41	-41.0	-43.8	25.2	6.05e-01	0	37	0	113246208	53	5024
2026-01-24 01:38:57.93	10.69	19.85	-41.3	-44.0	24.9	6.03e-01	0	37	0	119013376	53	5159
2026-01-24 01:39:00.86	10.57	20.28	-41.4	-44.1	24.9	6.04e-01	0	37	0	124780544	53	5177
2026-01-24 01:39:04.07	10.43	20.75	-41.3	-44.1	25.1	6.02e-01	0	37	0	130547712	53	5165
2026-01-24 01:39:07.02	10.30	21.19	-41.2	-43.9	25.2	6.05e-01	0	37	0	136314880	53	5079
2026-01-24 01:39:10.00	10.17	21.65	-41.2	-44.0	25.0	6.04e-01	0	37	0	142082048	53	5107
2026-01-24 01:39:12.98	10.03	22.12	-41.3	-44.1	25.0	6.04e-01	0	37	0	147324928	53	5168
2026-01-24 01:39:15.96	9.88	22.60	-41.2	-43.9	25.2	6.03e-01	0	37	0	153092096	53	5057
2026-01-24 01:39:18.95	9.73	23.08	-41.3	-43.8	25.2	6.04e-01	0	37	0	158859264	53	5018
2026-01-24 01:39:21.93	9.58	23.58	-41.3	-43.7	25.4	6.05e-01	0	37	0	164102144	53	4950
2026-01-24 01:39:24.92	9.41	24.09	-41.5	-43.9	25.2	6.02e-01	0	37	0	169869312	53	5063
2026-01-24 01:39:27.90	9.25	24.60	-41.6	-43.9	25.1	6.06e-01	0	37	0	175636480	54	4809
2026-01-24 01:39:30.89	9.07	25.13	-41.7	-44.1	25.0	6.05e-01	0	37	0	180879360	54	4881
2026-01-24 01:39:33.81	8.90	25.66	-41.7	-44.1	25.1	6.04e-01	0	37	0	186646528	54	4877
2026-01-24 01:39:36.94	8.70	26.24	-41.3	-43.7	25.4	6.04e-01	0	37	0	192413696	54	4681
2026-01-24 01:39:39.78	8.51	26.78	-41.4	-43.7	25.4	6.07e-01	0	37	0	197656576	54	4705
2026-01-24 01:39:42.91	8.30	27.38	-41.3	-43.7	25.4	6.05e-01	0	37	0	203423744	54	4681
2026-01-24 01:39:45.75	8.10	27.94	-41.2	-43.6	25.5	6.02e-01	0	37	0	208666624	54	4643
2026-01-24 01:39:49.07	7.86	28.62	-41.0	-43.4	25.7	6.03e-01	0	37	0	214958080	54	4516
2026-01-24 01:39:51.77	7.65	29.17	-40.9	-43.2	25.8	6.03e-01	0	37	0	220200960	53	4693
2026-01-24 01:39:55.04	7.39	29.87	-41.0	-43.4	25.7	6.04e-01	0	37	0	226492416	53	4804
2026-01-24 01:39:57.75	7.16	30.46	-40.7	-43.1	25.9	6.05e-01	0	37	0	231211008	53	4637
2026-01-24 01:40:01.03	6.87	31.18	-40.6	-43.0	26.1	6.04e-01	0	37	0	237502464	53	4573
2026-01-24 01:40:04.27	6.58	31.92	-41.1	-43.5	25.7	6.06e-01	0	37	0	243793920	53	4819
2026-01-24 01:40:07.26	6.29	32.62	-40.9	-43.2	25.9	6.05e-01	0	37	0	249036800	53	4683
2026-01-24 01:40:10.24	5.99	33.33	-41.2	-43.6	25.5	6.01e-01	0	37	0	254803968	53	4890
2026-01-24 01:40:13.23	5.67	34.06	-41.3	-43.7	25.5	6.03e-01	0	37	0	260571136	53	4972
2026-01-24 01:40:16.21	5.34	34.81	-41.8	-44.4	24.8	6.03e-01	0	37	0	265814016	54	5096
2026-01-24 01:40:19.19	5.00	35.58	-41.6	-44.4	24.9	6.03e-01	0	37	0	271581184	54	5058
2026-01-24 01:40:22.18	4.63	36.36	-42.2	-45.1	24.3	6.04e-01	0	37	0	277348352	55	5161
2026-01-24 01:40:25.16	4.25	37.17	-42.2	-44.8	24.4	6.07e-01	0	37	0	282591232	55	5037
2026-01-24 01:40:28.18	3.84	38.00	-43.2	-45.8	23.6	6.04e-01	0	37	0	288358400	57	5037
2026-01-24 01:40:31.13	3.42	38.84	-43.3	-46.0	23.5	6.04e-01	0	37	0	294125568	57	5118
2026-01-24 01:40:34.63	2.88	39.86	-43.2	-46.0	23.5	6.06e-01	0	37	0	300417024	57	5105
2026-01-24 01:40:37.33	2.45	40.66	-43.3	-46.1	23.3	6.07e-01	0	37	0	305659904	58	4872
2026-01-24 01:40:40.71	1.87	41.70	-42.5	-45.1	24.4	6.06e-01	0	37	0	311951360	57	4599
2026-01-24 01:40:43.70	1.33	42.63	-42.7	-45.3	24.1	6.04e-01	0	37	0	317718528	56	5012
2026-01-24 01:40:46.69	0.75	43.59	-42.0	-44.5	24.9	6.03e-01	0	37	0	322961408	56	4586
2026-01-24 01:40:49.78	0.11	44.61	-42.1	-44.6	24.6	6.07e-01	0	37	0	328728576	55	4919
2026-01-24 01:40:52.74	359.46	45.60	-41.7	-44.2	25.0	6.06e-01	0	37	0	334495744	55	4675
2026-01-24 01:40:56.09	358.67	46.75	-41.6	-44.0	25.3	6.03e-01	0	37	0	340787200	54	4823
2026-01-24 01:40:58.79	357.98	47.70	-42.0	-44.4	24.9	6.05e-01	0	37	0	346030080	54	5054
2026-01-24 01:41:02.06	357.10	48.87	-42.0	-44.5	24.8	6.04e-01	0	37	0	351797248	54	5123
2026-01-24 01:41:04.80	356.30	49.88	-42.2	-44.6	24.7	6.05e-01	0	38	0	357040128	55	4916
2026-01-24 01:41:08.08	355.26	51.10	-41.6	-43.9	25.3	6.05e-01	0	37	0	363331584	54	4794
2026-01-24 01:41:10.87	354.32	52.16	-40.9	-43.2	26.0	6.06e-01	0	37	0	368574464	53	4679
2026-01-24 01:41:14.24	353.07	53.46	-41.0	-43.3	25.9	6.02e-01	0	37	0	374865920	53	4746
2026-01-24 01:41:16.97	351.98	54.52	-40.5	-42.7	26.4	6.03e-01	0	38	0	380108800	53	4440
2026-01-24 01:41:20.24	350.56	55.82	-41.1	-43.4	25.8	6.05e-01	0	38	0	385875968	53	4779
2026-01-24 01:41:22.94	349.27	56.89	-41.4	-43.8	25.4	6.04e-01	0	37	0	391118848	53	5028
2026-01-24 01:41:26.21	347.58	58.21	-41.7	-44.3	25.0	6.04e-01	0	37	0	397410304	54	5007
2026-01-24 01:41:29.21	345.87	59.42	-42.3	-44.8	24.5	6.06e-01	0	37	0	402653184	55	5020
2026-01-24 01:41:32.78	343.61	60.86	-42.7	-45.3	24.1	6.04e-01	0	37	0	409468928	55	5330
2026-01-24 01:41:35.57	341.65	61.98	-42.9	-45.5	24.0	6.03e-01	0	37	0	414711808	56	5139
2026-01-24 01:41:38.84	339.12	63.27	-43.2	-45.8	23.7	6.04e-01	0	38	0	421003264	57	4999
2026-01-24 01:41:41.56	336.79	64.33	-43.4	-46.0	23.5	6.06e-01	0	38	0	426246144	58	4854
2026-01-24 01:41:44.84	333.69	65.56	-43.8	-46.8	22.9	6.05e-01	0	38	0	432013312	58	5290
2026-01-24 01:41:47.64	330.75	66.58	-44.4	-47.4	22.1	6.04e-01	0	38	0	437256192	60	5079
2026-01-24 01:41:50.82	327.06	67.67	-45.2	-48.4	21.2	6.05e-01	0	37	0	443547648	61	5364
2026-01-24 01:41:53.80	323.25	68.62	-44.4	-47.3	22.2	6.03e-01	0	37	0	448790528	60	5028
2026-01-24 01:41:56.79	319.05	69.48	-44.9	-48.1	21.5	6.02e-01	0	37	0	454557696	61	5200
2026-01-24 01:41:59.81	314.43	70.25	-44.9	-48.2	21.4	6.03e-01	0	38	0	460324864	60	5544
2026-01-24 01:42:02.87	309.37	70.90	-44.9	-48.1	21.4	6.05e-01	0	37	0	466092032	61	5214
2026-01-24 01:42:05.83	304.15	71.39	-45.2	-48.6	21.0	6.02e-01	0	37	0	471334912	61	5470
2026-01-24 01:42:08.95	298.38	71.74	-44.0	-46.8	22.8	6.02e-01	0	37	0	477626368	59	4992
2026-01-24 01:42:11.79	292.97	71.91	-44.1	-46.9	22.6	6.03e-01	0	37	0	482869248	60	4795
2026-01-24 01:42:14.92	286.94	71.91	-44.7	-47.8	21.8	6.03e-01	0	37	0	488636416	60	5284
2026-01-24 01:42:17.80	281.45	71.74	-45.2	-48.7	20.8	6.04e-01	0	38	0	493879296	61	5552
2026-01-24 01:42:21.04	275.46	71.37	-44.8	-47.8	21.7	6.04e-01	0	37	0	500170752	61	5022
2026-01-24 01:42:23.88	270.46	70.90	-45.0	-48.4	21.2	6.02e-01	0	37	0	505413632	61	5349
2026-01-24 01:42:27.01	265.29	70.23	-45.3	-48.7	20.9	6.04e-01	0	37	0	511180800	62	5242
2026-01-24 01:42:29.86	260.93	69.50	-45.9	-49.6	20.0	6.02e-01	0	37	0	516423680	62	5790
2026-01-24 01:42:32.99	256.52	68.60	-45.9	-49.5	20.0	6.06e-01	0	37	0	522715136	62	5745
2026-01-24 01:42:35.83	252.88	67.69	-45.9	-49.7	19.9	6.03e-01	0	37	0	527958016	63	5533
2026-01-24 01:42:38.95	249.25	66.62	-45.8	-49.5	20.1	6.03e-01	0	37	0	533725184	63	5448
2026-01-24 01:42:41.79	246.26	65.59	-46.1	-49.7	19.9	6.03e-01	0	37	0	538968064	62	5915
2026-01-24 01:42:44.91	243.28	64.41	-44.5	-47.4	22.0	6.04e-01	0	38	0	544735232	61	4781
2026-01-24 01:42:47.82	240.77	63.28	-43.7	-46.4	23.2	6.04e-01	0	37	0	549978112	59	4780
2026-01-24 01:42:51.10	238.23	61.98	-43.9	-46.6	22.9	6.03e-01	0	37	0	556269568	59	4915
2026-01-24 01:42:54.42	235.91	60.65	-43.7	-46.4	23.1	6.05e-01	0	37	0	562561024	59	4802
2026-01-24 01:42:57.12	234.20	59.56	-42.9	-45.5	24.1	6.04e-01	0	37	0	567803904	57	4820
2026-01-24 01:43:00.39	232.32	58.23	-42.3	-44.8	24.5	6.05e-01	0	37	0	574095360	56	4747
2026-01-24 01:43:03.11	230.89	57.13	-42.0	-44.5	25.0	6.08e-01	0	37	0	578813952	56	4550
2026-01-24 01:43:06.65	229.19	55.72	-41.5	-43.8	25.4	6.02e-01	0	37	0	585629696	54	4750
2026-01-24 01:43:09.46	227.97	54.60	-40.8	-43.0	26.1	6.02e-01	0	38	0	590872576	53	4568
2026-01-24 01:43:12.76	226.64	53.31	-41.0	-43.2	25.9	6.06e-01	0	38	0	597164032	53	4670
2026-01-24 01:43:15.47	225.64	52.26	-40.6	-42.8	26.2	6.02e-01	0	38	0	601882624	53	4493
2026-01-24 01:43:18.77	224.51	51.00	-41.1	-43.5	25.7	6.04e-01	0	37	0	608174080	52	5118
2026-01-24 01:43:21.50	223.65	49.98	-41.1	-43.4	25.7	6.05e-01	0	38	0	613416960	53	4784
2026-01-24 01:43:24.80	222.68	48.77	-41.6	-43.9	25.3	6.02e-01	0	37	0	619708416	53	5060
2026-01-24 01:43:27.50	221.95	47.79	-41.5	-43.8	25.4	6.04e-01	0	37	0	624427008	54	4730
2026-01-24 01:43:30.79	221.11	46.63	-41.5	-43.8	25.3	6.04e-01	0	37	0	630718464	54	4729
2026-01-24 01:43:33.52	220.46	45.69	-41.8	-44.2	25.0	6.04e-01	0	37	0	635961344	54	4942
2026-01-24 01:43:36.80	219.73	44.58	-41.4	-43.7	25.4	6.05e-01	0	37	0	642252800	54	4687
2026-01-24 01:43:39.51	219.17	43.69	-41.6	-44.0	25.2	6.05e-01	0	37	0	646971392	54	4833
2026-01-24 01:43:42.83	218.52	42.61	-42.0	-44.4	24.8	6.03e-01	0	37	0	653262848	54	5063
2026-01-24 01:43:45.67	218.00	41.72	-42.1	-44.5	24.8	6.04e-01	0	37	0	658505728	54	5107
2026-01-24 01:43:49.17	217.40	40.64	-42.9	-45.4	24.0	6.05e-01	0	37	0	665321472	56	5054
2026-01-24 01:43:51.88	216.96	39.83	-43.1	-45.6	23.7	6.03e-01	0	37	0	670564352	56	5200
2026-01-24 01:43:55.17	216.45	38.87	-43.2	-45.9	23.4	6.03e-01	0	37	0	676331520	57	5060
2026-01-24 01:43:57.87	216.06	38.10	-43.2	-45.8	23.5	6.01e-01	0	37	0	681574400	57	5034
2026-01-24 01:44:01.14	215.61	37.19	-43.0	-45.7	23.7	6.06e-01	0	37	0	687865856	57	4939
2026-01-24 01:44:04.21	215.21	36.35	-42.8	-45.4	24.0	6.03e-01	0	37	0	693633024	57	4793
2026-01-24 01:44:07.05	214.86	35.60	-42.5	-45.0	24.4	6.07e-01	0	37	0	698875904	56	4828
2026-01-24 01:44:10.18	214.49	34.79	-42.1	-44.6	24.7	6.06e-01	0	38	0	704643072	56	4622
2026-01-24 01:44:13.13	214.16	34.05	-41.7	-44.0	25.2	6.05e-01	0	37	0	710410240	55	4594
2026-01-24 01:44:16.42	213.81	33.24	-41.5	-43.8	25.4	6.02e-01	0	37	0	716177408	55	4483
2026-01-24 01:44:19.34	213.52	32.53	-41.3	-43.6	25.5	6.05e-01	0	37	0	721944576	54	4633
2026-01-24 01:44:22.97	213.17	31.69	-41.3	-43.6	25.5	6.04e-01	0	37	0	728760320	54	4647
2026-01-24 01:44:25.67	212.92	31.07	-41.0	-43.3	25.8	6.04e-01	0	37	0	733478912	54	4479
2026-01-24 01:44:28.95	212.63	30.34	-40.9	-43.1	26.0	6.05e-01	0	37	0	739770368	53	4642
2026-01-24 01:44:31.87	212.39	29.70	-40.9	-43.1	25.9	6.05e-01	0	37	0	745537536	53	4642
2026-01-24 01:44:35.27	212.11	28.98	-41.3	-43.6	25.6	6.04e-01	0	38	0	751828992	53	4889
2026-01-24 01:44:37.97	211.91	28.42	-41.2	-43.6	24.7	6.02e-01	0	37	0	756547584	53	4874
2026-01-24 01:44:41.23	211.66	27.76	-41.5	-43.9	25.2	6.04e-01	0	37	0	762839040	53	5076
2026-01-24 01:44:44.01	211.47	27.21	-41.6	-44.0	25.1	6.04e-01	0	37	0	768081920	53	5105
2026-01-24 01:44:47.17	211.25	26.60	-41.6	-44.0	25.1	6.03e-01	0	37	0	773849088	53	5111
2026-01-24 01:44:50.30	211.05	26.01	-41.7	-44.1	25.0	6.04e-01	0	37	0	780140544	54	4916
2026-01-24 01:44:53.31	210.86	25.45	-41.7	-44.1	25.0	6.02e-01	0	37	0	785383424	54	4886
2026-01-24 01:44:56.30	210.68	24.91	-41.6	-44.0	25.2	6.02e-01	0	37	0	791150592	54	4831
2026-01-24 01:44:59.29	210.50	24.38	-41.8	-44.2	25.0	6.04e-01	0	37	0	796917760	54	4934
2026-01-24 01:45:02.27	210.33	23.87	-41.9	-44.3	24.9	6.04e-01	0	38	0	802160640	54	5015
2026-01-24 01:45:05.35	210.17	23.34	-41.8	-44.2	24.9	6.04e-01	0	38	0	807927808	54	4954
2026-01-24 01:45:08.24	210.01	22.86	-41.7	-44.2	25.0	6.03e-01	0	37	0	813694976	54	4941
2026-01-24 01:45:11.36	209.86	22.35	-41.8	-44.2	24.8	6.03e-01	0	37	0	819462144	54	4982
2026-01-24 01:45:14.21	209.72	21.90	-42.1	-44.7	24.5	6.05e-01	0	37	0	824705024	54	5220
2026-01-24 01:45:17.33	209.57	21.41	-42.1	-44.6	24.5	6.05e-01	0	37	0	830472192	54	5187
2026-01-24 01:45:20.20	209.44	20.97	-42.0	-44.5	24.6	6.05e-01	0	37	0	835715072	54	5117
2026-01-24 01:45:23.39	209.30	20.49	-42.0	-44.4	24.7	6.01e-01	0	37	0	842006528	54	5078
2026-01-24 01:45:26.23	209.18	20.07	-41.9	-44.4	24.7	6.02e-01	0	37	0	847249408	54	5069
2026-01-24 01:45:29.36	209.05	19.62	-41.8	-44.2	24.8	6.05e-01	0	38	0	853016576	54	4962
2026-01-24 01:45:32.21	208.93	19.21	-41.8	-44.2	24.8	6.01e-01	0	37	0	858259456	54	4963
2026-01-24 01:45:35.33	208.81	18.78	-41.9	-44.4	24.7	6.04e-01	0	37	0	864026624	54	5055
2026-01-24 01:45:38.17	208.70	18.39	-42.0	-44.5	24.6	6.04e-01	0	37	0	869793792	54	5125
2026-01-24 01:45:41.41	208.58	17.95	-42.1	-44.6	24.4	6.03e-01	0	37	0	875560960	54	5207
2026-01-24 01:45:44.33	208.48	17.56	-42.1	-44.6	24.4	6.02e-01	0	37	0	881328128	54	5210
2026-01-24 01:45:47.45	208.37	17.16	-42.0	-44.5	24.5	6.02e-01	0	37	0	887095296	54	5121
2026-01-24 01:45:50.36	208.27	16.79	-41.9	-44.4	24.6	6.06e-01	0	37	0	892338176	54	5063
2026-01-24 01:45:53.34	208.18	16.41	-41.9	-44.3	24.6	6.03e-01	0	37	0	898105344	54	5041
2026-01-24 01:45:56.33	208.08	16.04	-41.9	-44.3	24.6	6.06e-01	0	37	0	903872512	54	5035
2026-01-24 01:45:59.31	207.99	15.68	-41.7	-44.1	24.8	6.04e-01	0	37	0	909115392	54	4896
2026-01-24 01:46:02.38	207.90	15.31	-41.6	-44.1	24.8	6.07e-01	0	37	0	914882560	54	4883
2026-01-24 01:46:05.34	207.81	14.96	-41.7	-44.2	24.8	6.04e-01	0	38	0	920649728	54	4945
2026-01-24 01:46:08.47	207.73	14.60	-41.7	-44.2	24.7	6.05e-01	0	37	0	926416896	54	4944
2026-01-24 01:46:11.31	207.65	14.28	-41.8	-44.3	24.6	6.07e-01	0	38	0	931659776	54	5029
2026-01-24 01:46:14.44	207.56	13.93	-41.8	-44.2	24.7	6.02e-01	0	38	0	937426944	54	4968
2026-01-24 01:46:17.28	207.49	13.61	-41.8	-44.4	24.6	6.03e-01	0	37	0	942669824	54	5045
2026-01-24 01:46:20.50	207.41	13.26	-41.9	-44.4	24.5	6.03e-01	0	38	0	948961280	54	5091
2026-01-24 01:46:23.36	207.34	12.95	-42.0	-44.5	24.3	6.04e-01	0	37	0	954204160	54	5154
2026-01-24 01:46:26.49	207.26	12.62	-42.0	-44.6	24.3	6.05e-01	0	37	0	960495616	54	5178
2026-01-24 01:46:29.33	207.19	12.33	-42.0	-44.5	24.3	6.04e-01	0	37	0	965738496	54	5154
2026-01-24 01:46:32.46	207.12	12.00	-42.0	-44.6	24.3	6.04e-01	0	38	0	971505664	54	5162
2026-01-24 01:46:35.30	207.06	11.72	-42.0	-44.5	24.3	6.04e-01	0	37	0	976748544	54	5147
2026-01-24 01:46:38.61	206.99	11.38	-42.0	-44.6	24.2	6.05e-01	0	37	0	983040000	54	5195
2026-01-24 01:46:41.34	206.93	11.11	-42.1	-44.8	24.1	6.03e-01	0	38	0	988282880	55	4984
2026-01-24 01:46:44.61	206.86	10.80	-42.1	-44.8	24.0	6.05e-01	0	38	0	994050048	55	5008
2026-01-24 01:46:47.66	206.80	10.50	-42.2	-44.9	23.9	6.07e-01	0	37	0	999817216	55	5084
2026-01-24 01:46:50.93	206.73	10.19	-42.2	-44.9	23.9	6.03e-01	0	38	0	1006108672	55	5078
2026-01-24 01:46:53.82	206.68	9.92	-42.1	-44.9	23.9	6.02e-01	0	38	0	1011351552	55	5047
2026-01-24 01:46:57.04	206.62	9.62	-42.2	-45.0	23.8	6.05e-01	0	37	0	1017643008	55	5113
2026-01-24 01:46:59.88	206.57	9.37	-42.2	-45.0	23.8	6.04e-01	0	38	0	1022885888	55	5119
2026-01-24 01:47:02.98	206.51	9.09	-42.2	-45.1	23.7	6.05e-01	0	38	0	1028653056	55	5168
2026-01-24 01:47:05.81	206.46	8.83	-50.1	-70.4	3.8	7.43e-01	0	37	104	1030225920	71	37845
2026-01-24 01:47:08.94	206.41	8.56	-50.3	-70.7	3.8	7.48e-01	0	38	104	1030225920	71	39574
2026-01-24 01:47:11.77	206.36	8.31	-50.8	-70.8	3.8	7.46e-01	0	38	104	1030225920	72	37618
2026-01-24 01:47:14.90	206.31	8.04	-50.5	-70.9	3.8	7.45e-01	0	38	104	1030225920	72	37815
2026-01-24 01:47:17.73	206.26	7.80	-50.7	-70.9	3.8	7.50e-01	0	38	104	1030225920	72	37855
2026-01-24 01:47:20.85	206.21	7.54	-50.1	-70.8	3.8	7.44e-01	0	38	104	1030225920	72	37751
2026-01-24 01:47:23.69	206.17	7.30	-50.1	-70.9	3.8	7.44e-01	0	38	104	1030225920	71	40060
2026-01-24 01:47:26.82	206.12	7.04	-50.2	-70.8	3.8	7.45e-01	0	38	104	1030225920	71	39797
2026-01-24 01:47:29.66	206.08	6.81	-50.1	-70.8	3.8	7.45e-01	0	38	104	1030225920	71	39785
2026-01-24 01:47:32.78	206.04	6.56	-50.1	-70.8	3.8	7.44e-01	0	38	104	1030225920	71	39770
2026-01-24 01:47:35.62	206.00	6.33	-50.1	-70.8	3.8	7.47e-01	0	37	104	1030225920	71	39716
2026-01-24 01:47:38.74	205.95	6.09	-50.1	-70.8	3.8	7.47e-01	0	38	104	1030225920	71	39705
2026-01-24 01:47:41.58	205.92	5.86	-50.1	-70.8	3.8	7.44e-01	0	37	104	1030225920	71	39681
2026-01-24 01:47:44.70	205.87	5.62	-50.1	-70.8	3.8	7.45e-01	0	38	104	1030225920	71	39727
2026-01-24 01:47:47.54	205.84	5.40	-50.1	-70.8	3.8	7.46e-01	0	38	104	1030225920	71	39658
2026-01-24 01:47:50.66	205.80	5.17	-50.1	-70.8	3.8	7.45e-01	0	38	104	1030225920	71	39705
2026-01-24 01:47:53.50	205.76	4.95	-50.1	-70.8	3.8	7.46e-01	0	38	104	1030225920	71	39654

#Closed at: 2026-01-24 01:47:54
#Recorded file [1030 MB]: D:/Data/31040_260124_043631.dat