passes_logs/2026/01/24/T1/T1__20260124_092738_NOAA_21_JPSS-2_rec.log

#Pass ID: 20260124_092738_NOAA 21 (JPSS-2)
#Satellite: NOAA 21 (JPSS-2)
#Configuration: NOAA 21
#almurnet v.1.7.20251203
#Start time: 2026-01-24 09:27:39

#Version: 2.0.20230620
#Station: T1
#Location: 37.570604 lon 55.790049 lat
#TLE: 1 54234U 22150A   26023.61190495  .00000215  00000+0  12293-3 0  9993
#TLE: 2 54234  98.7508 324.4078 0000700 226.6110 133.5008 14.19538339166032

#Time	Az	El	Level	Level2	SNR	BER	BlckErr	Temp	State	Recorded	gain1	gain2
2026-01-24 09:27:39.25	145.64	5.06	-48.3	-61.4	3.8	1.49e+00	0	38	0	0	68	15951
2026-01-24 09:27:42.24	145.56	5.27	-48.3	-61.3	3.8	1.49e+00	0	39	104	0	68	15801
2026-01-24 09:27:45.22	145.49	5.49	-48.3	-61.3	3.8	1.49e+00	0	39	104	0	68	15865
2026-01-24 09:27:48.21	145.42	5.70	-48.3	-61.1	3.8	1.49e+00	0	39	104	0	68	15500
2026-01-24 09:27:51.19	145.34	5.92	-48.2	-60.6	3.8	1.49e+00	0	39	104	0	68	14655
2026-01-24 09:27:54.17	145.27	6.14	-48.2	-60.4	3.8	1.49e+00	0	39	104	0	68	14339
2026-01-24 09:27:57.16	145.19	6.36	-48.2	-60.9	3.8	1.49e+00	0	39	104	0	68	15172
2026-01-24 09:28:00.14	145.11	6.59	-48.3	-61.7	3.8	1.49e+00	0	39	104	0	68	16517
2026-01-24 09:28:03.12	145.03	6.81	-48.3	-61.4	3.8	1.49e+00	0	39	104	0	68	16087
2026-01-24 09:28:06.11	144.95	7.04	-48.2	-60.4	3.8	1.49e+00	0	39	104	0	68	14371
2026-01-24 09:28:09.09	144.87	7.27	-48.0	-58.3	4.1	1.47e+00	0	39	104	0	68	11250
2026-01-24 09:28:12.08	144.78	7.50	-47.1	-54.2	6.2	3.64e-01	0	39	0	0	66	7885
2026-01-24 09:28:15.06	144.70	7.73	-45.7	-50.2	10.1	1.21e-02	0	39	0	0	63	5918
2026-01-24 09:28:18.05	144.61	7.97	-44.2	-47.6	12.8	7.93e-05	0	39	0	0	60	5177
2026-01-24 09:28:21.03	144.52	8.21	-43.4	-46.3	14.2	1.50e-06	0	39	0	0	58	4993
2026-01-24 09:28:24.02	144.43	8.45	-43.6	-46.5	13.9	7.00e-07	0	39	0	0	58	5146
2026-01-24 09:28:27.01	144.34	8.69	-44.8	-48.6	11.8	2.75e-04	0	39	0	0	60	5802
2026-01-24 09:28:29.99	144.24	8.93	-46.5	-52.1	8.2	3.98e-02	0	39	0	0	63	7352
2026-01-24 09:28:32.98	144.15	9.18	-44.2	-47.4	13.1	1.44e-05	0	39	0	0	59	5395
2026-01-24 09:28:35.96	144.05	9.43	-42.9	-45.5	15.1	3.00e-06	0	39	0	0	57	4818
2026-01-24 09:28:38.94	143.95	9.68	-41.7	-43.9	16.4	0.00e+00	0	39	0	0	55	4526
2026-01-24 09:28:41.92	143.85	9.93	-40.4	-42.4	17.9	0.00e+00	0	39	0	0	52	4507
2026-01-24 09:28:44.91	143.75	10.19	-40.2	-42.1	18.2	0.00e+00	0	39	0	0	52	4374
2026-01-24 09:28:47.89	143.64	10.45	-40.1	-42.0	18.3	0.00e+00	0	39	0	0	52	4339
2026-01-24 09:28:50.88	143.54	10.71	-40.1	-42.0	18.5	0.00e+00	0	39	0	0	51	4555
2026-01-24 09:28:53.86	143.43	10.98	-40.1	-42.0	18.4	0.00e+00	0	39	0	0	51	4570
2026-01-24 09:28:56.85	143.32	11.24	-39.8	-41.7	18.8	0.00e+00	0	39	0	0	51	4394
2026-01-24 09:28:59.83	143.21	11.51	-39.6	-41.4	19.0	0.00e+00	0	39	0	0	51	4288
2026-01-24 09:29:02.82	143.09	11.79	-39.6	-41.4	19.0	0.00e+00	0	39	0	0	51	4257
2026-01-24 09:29:05.80	142.97	12.06	-39.6	-41.4	19.1	0.00e+00	0	39	0	0	50	4501
2026-01-24 09:29:08.78	142.85	12.34	-39.4	-41.2	19.3	0.00e+00	0	39	0	0	50	4414
2026-01-24 09:29:11.76	142.73	12.62	-39.3	-41.0	19.4	0.00e+00	0	39	0	0	50	4334
2026-01-24 09:29:14.74	142.61	12.91	-39.2	-40.9	19.5	0.00e+00	0	39	0	0	50	4291
2026-01-24 09:29:17.73	142.48	13.20	-39.1	-40.9	19.5	0.00e+00	0	39	0	0	50	4247
2026-01-24 09:29:20.71	142.35	13.49	-39.0	-40.8	19.6	0.00e+00	0	39	0	0	50	4214
2026-01-24 09:29:23.70	142.21	13.78	-39.1	-40.8	19.5	0.00e+00	0	39	0	0	50	4239
2026-01-24 09:29:26.68	142.08	14.08	-39.1	-40.8	19.5	0.00e+00	0	39	0	0	50	4232
2026-01-24 09:29:29.67	141.94	14.39	-39.0	-40.8	19.6	0.00e+00	0	39	0	0	50	4203
2026-01-24 09:29:32.65	141.80	14.69	-39.1	-40.9	19.5	0.00e+00	0	39	0	0	50	4265
2026-01-24 09:29:35.64	141.65	15.00	-39.2	-41.0	19.4	0.00e+00	0	39	0	0	50	4313
2026-01-24 09:29:38.62	141.51	15.31	-39.4	-41.2	19.2	0.00e+00	0	39	0	0	50	4401
2026-01-24 09:29:41.60	141.35	15.63	-39.3	-41.1	19.3	0.00e+00	0	39	0	0	50	4376
2026-01-24 09:29:44.59	141.20	15.95	-39.4	-41.1	19.3	0.00e+00	0	39	0	0	50	4390
2026-01-24 09:29:47.57	141.04	16.28	-39.5	-41.3	19.1	0.00e+00	0	39	0	0	50	4477
2026-01-24 09:29:50.55	140.88	16.61	-39.4	-41.2	19.2	0.00e+00	0	39	0	0	50	4428
2026-01-24 09:29:53.54	140.71	16.94	-39.4	-41.2	19.3	0.00e+00	0	39	0	0	50	4432
2026-01-24 09:29:56.52	140.54	17.28	-39.5	-41.3	19.3	0.00e+00	0	39	0	0	50	4442
2026-01-24 09:29:59.51	140.37	17.62	-39.4	-41.2	19.3	0.00e+00	0	39	0	0	50	4402
2026-01-24 09:30:02.49	140.19	17.97	-39.5	-41.3	19.2	0.00e+00	0	39	0	0	50	4456
2026-01-24 09:30:05.47	140.01	18.32	-39.6	-41.4	19.1	0.00e+00	0	39	0	0	50	4530
2026-01-24 09:30:08.46	139.82	18.68	-39.6	-41.4	19.1	0.00e+00	0	39	0	0	50	4506
2026-01-24 09:30:11.44	139.63	19.04	-39.6	-41.4	19.1	0.00e+00	0	39	0	0	50	4519
2026-01-24 09:30:14.42	139.44	19.40	-39.4	-41.2	19.2	0.00e+00	0	39	0	0	50	4438
2026-01-24 09:30:17.41	139.23	19.77	-39.4	-41.2	19.3	0.00e+00	0	39	0	0	50	4412
2026-01-24 09:30:20.39	139.03	20.15	-39.2	-41.0	19.5	0.00e+00	0	39	0	0	50	4298
2026-01-24 09:30:23.38	138.82	20.53	-39.1	-40.8	19.6	0.00e+00	0	39	0	0	50	4227
2026-01-24 09:30:26.36	138.60	20.92	-38.8	-40.5	19.9	0.00e+00	0	39	0	0	49	4331
2026-01-24 09:30:29.35	138.38	21.31	-38.6	-40.3	20.1	0.00e+00	0	39	0	0	49	4201
2026-01-24 09:30:32.34	138.15	21.71	-38.3	-39.9	20.4	0.00e+00	0	39	0	0	48	4276
2026-01-24 09:30:35.32	137.91	22.12	-38.3	-40.0	20.4	0.00e+00	0	39	0	0	48	4298
2026-01-24 09:30:38.30	137.67	22.53	-38.1	-39.8	20.6	0.00e+00	0	39	0	0	48	4205
2026-01-24 09:30:41.28	137.42	22.94	-37.9	-39.5	20.5	0.00e+00	0	39	0	0	47	4339
2026-01-24 09:30:44.27	137.17	23.36	-37.9	-39.6	20.5	0.00e+00	0	39	0	0	47	4352
2026-01-24 09:30:47.26	136.91	23.79	-38.0	-39.6	20.5	0.00e+00	0	39	0	0	47	4380
2026-01-24 09:30:50.24	136.64	24.23	-38.1	-39.7	20.5	0.00e+00	0	39	0	0	47	4438
2026-01-24 09:30:53.22	136.36	24.67	-38.1	-39.8	20.4	0.00e+00	0	39	0	0	47	4475
2026-01-24 09:30:56.20	136.07	25.12	-38.3	-39.9	20.3	0.00e+00	0	39	0	0	47	4538
2026-01-24 09:30:59.19	135.78	25.58	-38.2	-39.9	20.4	0.00e+00	0	39	0	0	47	4513
2026-01-24 09:31:02.17	135.48	26.04	-38.6	-40.2	20.0	0.00e+00	0	39	0	0	47	4703
2026-01-24 09:31:05.15	135.17	26.51	-38.9	-40.6	19.8	0.00e+00	0	39	0	0	48	4650
2026-01-24 09:31:08.14	134.84	26.99	-39.0	-40.8	19.7	0.00e+00	0	39	0	0	48	4711
2026-01-24 09:31:11.12	134.51	27.47	-39.1	-40.9	19.7	0.00e+00	0	39	0	0	48	4772
2026-01-24 09:31:14.11	134.17	27.96	-39.0	-40.7	19.9	0.00e+00	0	39	0	0	48	4669
2026-01-24 09:31:17.10	133.81	28.46	-39.0	-40.7	19.9	0.00e+00	0	39	0	0	48	4695
2026-01-24 09:31:20.08	133.45	28.97	-38.9	-40.6	19.9	0.00e+00	0	39	0	0	48	4611
2026-01-24 09:31:23.07	133.07	29.49	-38.9	-40.6	19.9	0.00e+00	0	39	0	0	48	4634
2026-01-24 09:31:26.05	132.68	30.01	-39.0	-40.7	19.8	0.00e+00	0	39	0	0	48	4685
2026-01-24 09:31:29.04	132.28	30.54	-39.0	-40.8	19.8	0.00e+00	0	39	0	0	48	4721
2026-01-24 09:31:32.02	131.86	31.08	-38.9	-40.6	20.0	0.00e+00	0	39	0	0	48	4629
2026-01-24 09:31:35.00	131.43	31.63	-38.8	-40.4	20.1	0.00e+00	0	39	0	0	48	4533
2026-01-24 09:31:37.99	130.98	32.19	-39.0	-40.7	19.7	0.00e+00	0	39	0	0	48	4660
2026-01-24 09:31:40.97	130.52	32.75	-39.4	-41.2	19.4	0.00e+00	0	39	0	0	49	4663
2026-01-24 09:31:43.95	130.04	33.33	-39.6	-41.4	19.3	0.00e+00	0	39	0	0	49	4763
2026-01-24 09:31:46.93	129.55	33.91	-39.9	-41.7	19.1	0.00e+00	0	39	0	0	50	4690
2026-01-24 09:31:49.92	129.03	34.50	-39.7	-41.5	19.3	0.00e+00	0	39	0	0	50	4556
2026-01-24 09:31:52.90	128.50	35.10	-39.8	-41.6	19.1	0.00e+00	0	39	0	0	50	4613
2026-01-24 09:31:55.88	127.94	35.71	-40.2	-42.0	18.7	0.00e+00	0	39	0	0	51	4583
2026-01-24 09:31:58.87	127.37	36.33	-40.3	-42.1	18.6	0.00e+00	0	39	0	0	51	4637
2026-01-24 09:32:01.85	126.77	36.95	-40.3	-42.2	18.5	0.00e+00	0	39	0	0	51	4670
2026-01-24 09:32:04.83	126.15	37.58	-40.5	-42.3	18.4	0.00e+00	0	39	0	0	51	4751
2026-01-24 09:32:07.81	125.50	38.22	-40.5	-42.4	18.3	0.00e+00	0	39	0	0	51	4786
2026-01-24 09:32:10.79	124.83	38.87	-40.5	-42.4	18.2	0.00e+00	0	39	0	0	52	4526
2026-01-24 09:32:13.78	124.12	39.53	-40.8	-42.7	18.0	0.00e+00	0	39	0	0	52	4693
2026-01-24 09:32:16.76	123.39	40.19	-40.8	-42.7	18.1	0.00e+00	0	39	0	0	52	4674
2026-01-24 09:32:19.75	122.63	40.87	-40.6	-42.5	18.2	0.00e+00	0	39	0	0	52	4595
2026-01-24 09:32:22.73	121.83	41.54	-40.7	-42.6	18.2	0.00e+00	0	39	0	0	52	4628
2026-01-24 09:32:25.71	121.01	42.23	-41.3	-43.3	17.6	0.00e+00	0	39	0	0	53	4722
2026-01-24 09:32:28.69	120.14	42.92	-41.5	-43.5	17.4	0.00e+00	0	39	0	0	53	4842
2026-01-24 09:32:31.67	119.24	43.61	-41.0	-43.0	17.9	0.00e+00	0	39	0	0	53	4551
2026-01-24 09:32:34.65	118.29	44.31	-41.5	-43.5	17.3	0.00e+00	0	39	0	0	53	4846
2026-01-24 09:32:37.64	117.30	45.01	-41.7	-43.8	17.1	0.00e+00	0	39	0	0	54	4741
2026-01-24 09:32:40.63	116.27	45.72	-41.2	-43.1	17.6	0.00e+00	0	39	0	0	54	4359
2026-01-24 09:32:43.61	115.19	46.42	-41.4	-43.5	17.3	0.00e+00	0	39	0	0	54	4555
2026-01-24 09:32:46.59	114.06	47.13	-41.3	-43.3	17.5	0.00e+00	0	39	0	0	54	4484
2026-01-24 09:32:49.58	112.88	47.83	-41.4	-43.4	17.4	0.00e+00	0	39	0	0	54	4507
2026-01-24 09:32:52.56	111.64	48.54	-41.5	-43.5	17.5	0.00e+00	0	39	0	0	54	4562
2026-01-24 09:32:55.54	110.35	49.23	-41.8	-43.9	16.9	0.00e+00	0	39	0	0	54	4811
2026-01-24 09:32:58.53	108.99	49.93	-41.0	-43.0	17.8	0.00e+00	0	39	0	0	54	4317
2026-01-24 09:33:01.51	107.57	50.61	-41.4	-43.5	17.3	0.00e+00	0	39	0	0	53	4845
2026-01-24 09:33:04.49	106.09	51.29	-40.5	-42.4	18.4	0.00e+00	0	39	0	0	52	4518
2026-01-24 09:33:07.47	104.54	51.95	-40.8	-42.8	17.9	0.00e+00	0	39	0	0	52	4745
2026-01-24 09:33:10.46	102.92	52.60	-40.2	-42.1	18.7	0.00e+00	0	39	0	0	52	4353
2026-01-24 09:33:13.44	101.22	53.24	-40.1	-42.0	18.9	0.00e+00	0	39	0	0	52	4300
2026-01-24 09:33:16.42	99.45	53.85	-39.8	-41.5	19.3	0.00e+00	0	39	0	0	51	4331
2026-01-24 09:33:19.41	97.60	54.44	-39.5	-41.2	19.5	0.00e+00	0	39	0	0	50	4432
2026-01-24 09:33:22.39	95.69	55.01	-39.1	-40.8	19.5	0.00e+00	0	39	0	0	50	4226
2026-01-24 09:33:25.38	93.68	55.55	-39.5	-41.3	19.3	0.00e+00	0	39	0	0	50	4466
2026-01-24 09:33:28.37	91.60	56.06	-39.5	-41.3	19.5	0.00e+00	0	39	0	0	50	4457
2026-01-24 09:33:31.35	89.45	56.54	-39.1	-40.8	20.0	0.00e+00	0	39	0	0	50	4207
2026-01-24 09:33:34.34	87.23	56.98	-38.8	-40.6	20.0	0.00e+00	0	39	0	0	49	4350
2026-01-24 09:33:37.32	84.94	57.38	-38.7	-40.5	19.8	0.00e+00	0	39	0	0	49	4295
2026-01-24 09:33:40.30	82.59	57.74	-38.9	-40.7	19.9	0.00e+00	0	39	0	0	49	4393
2026-01-24 09:33:43.29	80.16	58.05	-39.3	-41.1	19.6	0.00e+00	0	39	0	0	49	4613
2026-01-24 09:33:46.27	77.70	58.31	-38.7	-40.4	20.4	0.00e+00	0	39	0	0	49	4260
2026-01-24 09:33:49.25	75.19	58.53	-38.9	-40.6	20.2	0.00e+00	0	39	0	0	49	4378
2026-01-24 09:33:52.24	72.64	58.69	-39.0	-40.8	20.1	0.00e+00	0	39	0	0	49	4443
2026-01-24 09:33:55.22	70.06	58.80	-38.8	-40.4	20.0	0.00e+00	0	39	0	0	49	4280
2026-01-24 09:33:58.21	67.47	58.86	-38.5	-40.1	20.5	0.00e+00	0	39	0	0	48	4365
2026-01-24 09:34:01.19	64.87	58.86	-38.8	-40.5	20.0	0.00e+00	0	39	0	0	48	4575
2026-01-24 09:34:04.17	62.29	58.81	-38.7	-40.3	20.3	0.00e+00	0	39	0	0	48	4481
2026-01-24 09:34:07.15	59.71	58.70	-38.9	-40.6	20.2	0.00e+00	0	39	0	0	49	4367
2026-01-24 09:34:10.13	57.17	58.54	-38.9	-40.6	20.0	0.00e+00	0	39	0	0	49	4354
2026-01-24 09:34:13.11	54.66	58.33	-39.3	-41.0	19.7	0.00e+00	0	39	0	0	49	4570
2026-01-24 09:34:16.11	52.17	58.07	-38.9	-40.5	19.9	0.00e+00	0	39	0	0	49	4321
2026-01-24 09:34:19.09	49.76	57.76	-39.5	-41.3	19.5	0.00e+00	0	39	0	0	49	4720
2026-01-24 09:34:22.09	47.39	57.41	-38.9	-40.6	20.2	0.00e+00	0	39	0	0	49	4349
2026-01-24 09:34:25.08	45.09	57.01	-39.4	-41.1	19.8	0.00e+00	0	39	0	0	49	4635
2026-01-24 09:34:28.07	42.86	56.57	-39.3	-41.0	19.9	0.00e+00	0	39	0	0	49	4547
2026-01-24 09:34:31.06	40.70	56.10	-39.5	-41.2	19.6	0.00e+00	0	39	0	0	49	4701
2026-01-24 09:34:34.05	38.62	55.59	-39.7	-41.4	19.4	0.00e+00	0	39	0	0	50	4545
2026-01-24 09:34:37.04	36.62	55.05	-39.7	-41.4	19.5	0.00e+00	0	39	0	0	50	4520
2026-01-24 09:34:40.03	34.69	54.49	-40.0	-41.8	18.8	0.00e+00	0	39	0	0	52	4234
2026-01-24 09:34:43.03	32.83	53.89	-40.6	-42.5	18.5	0.00e+00	0	39	0	0	51	4829
2026-01-24 09:34:46.02	31.06	53.28	-41.7	-43.8	17.2	0.00e+00	0	39	0	0	54	4732
2026-01-24 09:34:49.02	29.35	52.65	-39.6	-41.3	19.5	0.00e+00	0	39	0	0	51	4228
2026-01-24 09:34:52.01	27.73	52.00	-41.9	-44.1	16.9	0.00e+00	0	39	0	0	54	4891
2026-01-24 09:34:55.01	26.17	51.33	-40.6	-42.6	17.8	0.00e+00	0	39	0	0	53	4345
2026-01-24 09:34:58.00	24.68	50.66	-40.7	-42.6	17.9	0.00e+00	0	39	0	0	53	4359
2026-01-24 09:35:00.99	23.26	49.98	-41.9	-44.0	16.9	0.00e+00	0	39	0	0	54	4836
2026-01-24 09:35:03.99	21.90	49.28	-40.5	-42.4	18.2	0.00e+00	0	39	0	0	53	4268
2026-01-24 09:35:06.98	20.60	48.58	-41.5	-43.6	17.4	0.00e+00	0	39	0	0	53	4886
2026-01-24 09:35:09.97	19.36	47.88	-41.9	-44.0	16.9	0.00e+00	0	39	0	0	54	4867
2026-01-24 09:35:12.96	18.18	47.18	-40.7	-42.6	18.2	0.00e+00	0	39	0	0	53	4362
2026-01-24 09:35:15.95	17.05	46.47	-41.6	-43.6	17.4	0.00e+00	0	39	0	0	53	4888
2026-01-24 09:35:18.94	15.97	45.77	-43.0	-45.3	15.5	0.00e+00	0	39	0	0	57	4751
2026-01-24 09:35:21.94	14.93	45.06	-41.5	-43.5	17.1	0.00e+00	0	39	0	0	55	4320
2026-01-24 09:35:24.93	13.94	44.36	-40.1	-41.9	18.9	0.00e+00	0	39	0	0	52	4274
2026-01-24 09:35:27.92	13.00	43.66	-43.6	-46.2	14.8	0.00e+00	0	39	0	0	57	5256
2026-01-24 09:35:30.91	12.09	42.97	-41.5	-43.5	16.5	0.00e+00	0	39	0	0	54	4598
2026-01-24 09:35:33.90	11.23	42.28	-41.5	-43.6	17.2	0.00e+00	0	39	0	0	54	4628
2026-01-24 09:35:36.90	10.40	41.60	-42.0	-44.2	16.8	0.00e+00	0	39	0	0	54	4958
2026-01-24 09:35:39.89	9.60	40.92	-41.5	-43.7	17.3	0.00e+00	0	39	0	0	54	4654
2026-01-24 09:35:42.89	8.84	40.25	-40.5	-42.3	18.2	0.00e+00	0	39	0	0	52	4484
2026-01-24 09:35:45.88	8.11	39.59	-39.7	-41.5	19.2	0.00e+00	0	39	0	0	51	4297
2026-01-24 09:35:48.88	7.41	38.93	-41.9	-44.1	16.9	0.00e+00	0	39	0	0	54	4888
2026-01-24 09:35:51.88	6.73	38.28	-41.4	-43.5	17.4	0.00e+00	0	39	0	0	54	4571
2026-01-24 09:35:54.87	6.08	37.64	-40.6	-42.4	18.4	0.00e+00	0	39	0	0	53	4288
2026-01-24 09:35:57.86	5.46	37.01	-39.7	-41.5	19.2	0.00e+00	0	39	0	0	51	4310
2026-01-24 09:36:00.85	4.86	36.38	-39.2	-40.9	19.5	0.00e+00	0	39	0	0	50	4287
2026-01-24 09:36:03.83	4.29	35.77	-39.5	-41.3	19.5	0.00e+00	0	39	0	0	50	4466
2026-01-24 09:36:06.83	3.74	35.16	-40.6	-42.6	18.3	0.00e+00	0	39	0	0	51	4875
2026-01-24 09:36:09.82	3.20	34.56	-40.2	-42.1	18.7	0.00e+00	0	39	0	0	51	4612
2026-01-24 09:36:12.81	2.69	33.97	-39.3	-41.0	19.5	0.00e+00	0	39	0	0	50	4334
2026-01-24 09:36:15.80	2.20	33.39	-39.4	-41.2	19.2	0.00e+00	0	39	0	0	50	4432
2026-01-24 09:36:18.79	1.72	32.82	-39.7	-41.6	18.9	0.00e+00	0	39	0	0	50	4612
2026-01-24 09:36:21.79	1.26	32.25	-39.6	-41.4	19.1	0.00e+00	0	39	0	0	50	4526
2026-01-24 09:36:24.78	0.81	31.70	-39.0	-40.8	19.7	0.00e+00	0	39	0	0	50	4215
2026-01-24 09:36:27.77	0.38	31.15	-38.8	-40.5	19.9	0.00e+00	0	39	0	0	49	4316
2026-01-24 09:36:30.75	359.97	30.62	-38.9	-40.6	19.7	0.00e+00	0	39	0	0	49	4386
2026-01-24 09:36:33.74	359.57	30.08	-39.1	-40.9	19.4	0.00e+00	0	39	0	0	49	4518
2026-01-24 09:36:36.74	359.18	29.56	-39.5	-41.3	19.2	0.00e+00	0	39	0	0	49	4714
2026-01-24 09:36:39.73	358.80	29.05	-39.4	-41.2	19.3	0.00e+00	0	39	0	0	49	4687
2026-01-24 09:36:42.72	358.44	28.54	-39.6	-41.4	19.1	0.00e+00	0	39	0	0	49	4802
2026-01-24 09:36:45.70	358.09	28.04	-39.6	-41.4	19.0	0.00e+00	0	39	0	0	50	4526
2026-01-24 09:36:48.69	357.75	27.55	-39.1	-40.9	19.5	0.00e+00	0	39	0	0	50	4248
2026-01-24 09:36:51.68	357.42	27.07	-38.8	-40.5	19.9	0.00e+00	0	39	0	0	49	4320
2026-01-24 09:36:54.67	357.10	26.59	-37.8	-39.5	20.6	0.00e+00	0	39	0	0	47	4310
2026-01-24 09:36:57.67	356.79	26.12	-37.8	-39.4	20.8	0.00e+00	0	39	0	0	47	4275
2026-01-24 09:37:00.67	356.49	25.66	-38.0	-39.7	20.5	0.00e+00	0	39	0	0	47	4398
2026-01-24 09:37:03.66	356.19	25.20	-38.0	-39.6	20.6	0.00e+00	0	39	0	0	47	4386
2026-01-24 09:37:06.65	355.91	24.76	-38.2	-39.9	20.3	0.00e+00	0	39	0	0	47	4525
2026-01-24 09:37:09.64	355.63	24.32	-38.4	-40.1	20.1	0.00e+00	0	39	0	0	47	4650
2026-01-24 09:37:12.64	355.37	23.88	-38.5	-40.3	19.9	0.00e+00	0	39	0	0	47	4733
2026-01-24 09:37:15.64	355.10	23.45	-38.8	-40.6	19.8	0.00e+00	0	39	0	0	48	4615
2026-01-24 09:37:18.63	354.85	23.03	-38.9	-40.7	19.7	0.00e+00	0	39	0	0	48	4660
2026-01-24 09:37:21.62	354.61	22.61	-38.9	-40.7	19.6	0.00e+00	0	39	0	0	48	4654
2026-01-24 09:37:24.62	354.37	22.20	-38.9	-40.7	19.6	0.00e+00	0	39	0	0	48	4697
2026-01-24 09:37:27.60	354.13	21.80	-39.0	-40.7	19.6	0.00e+00	0	39	0	0	48	4703
2026-01-24 09:37:30.58	353.91	21.41	-39.0	-40.7	19.6	0.00e+00	0	39	0	0	48	4703
2026-01-24 09:37:33.56	353.69	21.02	-38.7	-40.4	19.8	0.00e+00	0	39	0	0	48	4518
2026-01-24 09:37:36.54	353.47	20.63	-38.6	-40.3	19.9	0.00e+00	0	39	0	0	48	4479
2026-01-24 09:37:39.52	353.27	20.25	-38.4	-40.2	20.1	0.00e+00	0	39	0	0	48	4399
2026-01-24 09:37:42.51	353.06	19.88	-38.6	-40.3	19.9	0.00e+00	0	39	0	0	48	4474
2026-01-24 09:37:45.49	352.86	19.51	-38.7	-40.5	19.7	0.00e+00	0	39	0	0	48	4571
2026-01-24 09:37:48.47	352.67	19.14	-38.8	-40.6	19.7	0.00e+00	0	39	0	0	48	4623
2026-01-24 09:37:51.45	352.48	18.78	-39.0	-40.9	19.4	0.00e+00	0	39	0	0	48	4771
2026-01-24 09:37:54.43	352.30	18.43	-38.9	-40.8	19.5	0.00e+00	0	39	0	0	48	4708
2026-01-24 09:37:57.41	352.12	18.08	-38.9	-40.7	19.5	0.00e+00	0	39	0	0	48	4680
2026-01-24 09:38:00.40	351.94	17.73	-38.9	-40.8	19.4	0.00e+00	0	39	0	0	48	4728
2026-01-24 09:38:03.38	351.77	17.39	-39.0	-40.8	19.4	0.00e+00	0	39	0	0	48	4723
2026-01-24 09:38:06.36	351.61	17.06	-39.1	-40.9	19.3	0.00e+00	0	39	0	0	48	4762
2026-01-24 09:38:09.34	351.44	16.73	-39.2	-41.0	19.2	0.00e+00	0	39	0	0	49	4593
2026-01-24 09:38:12.32	351.28	16.40	-39.4	-41.3	19.0	0.00e+00	0	39	0	0	49	4719
2026-01-24 09:38:15.30	351.13	16.07	-39.5	-41.4	18.8	0.00e+00	0	39	0	0	49	4804
2026-01-24 09:38:18.29	350.98	15.75	-39.6	-41.5	18.7	0.00e+00	0	39	0	0	49	4864
2026-01-24 09:38:21.27	350.83	15.44	-39.7	-41.6	18.7	0.00e+00	0	39	0	0	49	4903
2026-01-24 09:38:24.25	350.68	15.13	-39.8	-41.7	18.6	0.00e+00	0	39	0	0	50	4695
2026-01-24 09:38:27.23	350.54	14.82	-39.7	-41.7	18.5	0.00e+00	0	39	0	0	50	4695
2026-01-24 09:38:30.21	350.40	14.52	-39.7	-41.8	18.5	0.00e+00	0	39	0	0	50	4723
2026-01-24 09:38:33.19	350.27	14.21	-39.5	-41.5	18.7	0.00e+00	0	39	0	0	50	4572
2026-01-24 09:38:36.18	350.13	13.92	-39.4	-41.4	18.8	0.00e+00	0	39	0	0	50	4512
2026-01-24 09:38:39.16	350.00	13.62	-39.5	-41.4	18.7	0.00e+00	0	39	0	0	50	4533
2026-01-24 09:38:42.14	349.88	13.33	-39.6	-41.5	18.6	0.00e+00	0	39	0	0	50	4598
2026-01-24 09:38:45.12	349.75	13.05	-39.5	-41.5	18.6	0.00e+00	0	39	0	0	50	4590
2026-01-24 09:38:48.10	349.63	12.76	-39.2	-41.4	18.7	0.00e+00	0	39	0	0	50	4537
2026-01-24 09:38:51.08	349.51	12.48	-39.1	-41.5	18.7	0.00e+00	0	39	0	0	50	4552
2026-01-24 09:38:54.07	349.39	12.20	-39.2	-41.5	18.7	0.00e+00	0	39	0	0	50	4571
2026-01-24 09:38:57.05	349.28	11.93	-39.3	-41.6	18.6	0.00e+00	0	39	0	0	50	4621
2026-01-24 09:39:00.03	349.17	11.66	-39.4	-41.6	18.6	0.00e+00	0	39	0	0	50	4624
2026-01-24 09:39:03.02	349.06	11.39	-39.3	-41.6	18.6	0.00e+00	0	39	0	0	50	4607
2026-01-24 09:39:06.00	348.95	11.12	-39.3	-41.6	18.6	0.00e+00	0	39	0	0	50	4615
2026-01-24 09:39:08.98	348.84	10.86	-39.3	-41.7	18.4	0.00e+00	0	39	0	0	50	4698
2026-01-24 09:39:11.96	348.74	10.60	-39.3	-41.9	18.2	0.00e+00	0	39	0	0	50	4773
2026-01-24 09:39:14.95	348.64	10.34	-39.2	-42.0	18.1	0.00e+00	0	39	0	0	50	4834
2026-01-24 09:39:17.93	348.54	10.08	-39.2	-42.0	18.0	0.00e+00	0	39	0	0	50	4852
2026-01-24 09:39:20.91	348.44	9.83	-39.5	-42.2	17.9	0.00e+00	0	39	0	0	50	4941
2026-01-24 09:39:23.89	348.35	9.58	-39.5	-42.1	17.9	0.00e+00	0	39	0	0	50	4904
2026-01-24 09:39:26.88	348.25	9.33	-39.7	-42.1	17.8	0.00e+00	0	39	0	0	50	4906
2026-01-24 09:39:29.86	348.16	9.08	-39.8	-42.3	17.6	0.00e+00	0	39	0	0	50	5003
2026-01-24 09:39:32.85	348.07	8.84	-47.0	-61.7	3.8	1.49e+00	0	39	104	0	66	18666
2026-01-24 09:39:35.83	347.98	8.60	-48.2	-62.0	3.8	1.49e+00	0	39	104	0	67	18150
2026-01-24 09:39:38.81	347.89	8.36	-48.7	-62.3	3.8	1.49e+00	0	39	104	0	68	17790
2026-01-24 09:39:41.80	347.81	8.12	-49.1	-62.3	3.8	1.49e+00	0	39	104	0	69	16749
2026-01-24 09:39:44.78	347.72	7.89	-49.2	-62.3	3.8	1.49e+00	0	39	104	0	69	16787
2026-01-24 09:39:47.77	347.64	7.66	-49.1	-62.3	3.8	1.49e+00	0	39	104	0	69	16874
2026-01-24 09:39:50.75	347.56	7.43	-49.2	-62.4	3.8	1.49e+00	0	39	104	0	69	16894
2026-01-24 09:39:53.73	347.48	7.20	-49.4	-62.3	3.8	1.49e+00	0	39	104	0	69	16824
2026-01-24 09:39:56.72	347.40	6.97	-49.3	-62.3	3.8	1.49e+00	0	39	104	0	69	16818
2026-01-24 09:39:59.70	347.33	6.75	-49.1	-62.3	3.8	1.49e+00	0	39	104	0	69	16778
2026-01-24 09:40:02.69	347.25	6.52	-49.1	-62.2	3.8	1.49e+00	0	39	104	0	69	16657
2026-01-24 09:40:05.67	347.18	6.30	-49.1	-62.3	3.8	1.49e+00	0	39	104	0	69	16778
2026-01-24 09:40:08.66	347.10	6.08	-49.1	-62.3	3.8	1.49e+00	0	39	104	0	69	16720
2026-01-24 09:40:11.64	347.03	5.86	-49.1	-62.2	3.8	1.49e+00	0	39	104	0	69	16691
2026-01-24 09:40:14.62	346.96	5.65	-49.1	-62.3	3.8	1.49e+00	0	39	104	0	69	16721
2026-01-24 09:40:17.61	346.89	5.43	-49.1	-62.3	3.8	1.49e+00	0	39	104	0	69	16711
2026-01-24 09:40:20.59	346.83	5.22	-49.0	-62.3	3.8	1.49e+00	0	39	104	0	69	16715
2026-01-24 09:40:23.58	346.76	5.01	-49.0	-62.2	3.8	1.49e+00	0	39	104	0	69	16671

#Closed at: 2026-01-24 09:40:25
#Recorded file [0 MB]: D:/Data/31040_260124_122739.dat