passes_logs/2026/01/24/T1/T1__20260124_083834_NOAA_20_JPSS-1_rec.log

#Pass ID: 20260124_083834_NOAA 20 (JPSS-1)
#Satellite: NOAA 20 (JPSS-1)
#Configuration: NOAA 20
#almurnet v.1.7.20251203
#Start time: 2026-01-24 08:38:35

#Version: 2.0.20230620
#Station: T1
#Location: 37.570604 lon 55.790049 lat
#TLE: 1 43013U 17073A   26023.57676825  .00000205  00000+0  11821-3 0  9990
#TLE: 2 43013  98.7645 324.4259 0001147  27.0566 333.0670 14.19539368423954

#Time	Az	El	Level	Level2	SNR	BER	BlckErr	Temp	State	Recorded	gain1	gain2
2026-01-24 08:38:35.50	119.57	5.10	-48.0	-63.1	3.8	1.49e+00	0	39	0	0	68	19529
2026-01-24 08:38:38.49	119.37	5.29	-48.0	-63.2	3.8	1.49e+00	0	39	104	0	68	19626
2026-01-24 08:38:41.48	119.17	5.49	-48.0	-63.1	3.8	1.49e+00	0	39	104	0	68	19509
2026-01-24 08:38:44.48	118.96	5.68	-48.0	-63.1	3.8	1.49e+00	0	39	104	0	68	19511
2026-01-24 08:38:47.46	118.76	5.88	-48.0	-63.1	3.8	1.49e+00	0	39	104	0	68	19499
2026-01-24 08:38:50.46	118.55	6.08	-48.0	-63.1	3.8	1.49e+00	0	39	104	0	68	19453
2026-01-24 08:38:53.45	118.33	6.28	-48.0	-63.1	3.8	1.49e+00	0	39	104	0	68	19610
2026-01-24 08:38:56.45	118.12	6.48	-48.0	-63.1	3.8	1.49e+00	0	39	104	0	68	19431
2026-01-24 08:38:59.43	117.90	6.69	-48.0	-63.0	3.8	1.49e+00	0	40	104	0	68	19309
2026-01-24 08:39:02.42	117.68	6.89	-48.0	-63.0	3.8	1.49e+00	0	40	104	0	68	19191
2026-01-24 08:39:05.41	117.45	7.10	-48.0	-63.0	3.8	1.49e+00	0	40	104	0	68	19310
2026-01-24 08:39:08.41	117.22	7.30	-48.0	-62.8	3.8	1.49e+00	0	40	104	0	68	18758
2026-01-24 08:39:11.40	116.99	7.51	-48.0	-62.2	3.8	1.49e+00	0	40	104	0	68	17609
2026-01-24 08:39:14.40	116.75	7.72	-47.7	-61.0	3.8	1.49e+00	0	40	104	0	67	16179
2026-01-24 08:39:17.39	116.52	7.93	-46.7	-54.0	7.5	2.72e-01	0	40	0	3145728	65	8163
2026-01-24 08:39:20.38	116.27	8.14	-45.0	-49.3	12.5	4.39e-04	0	40	0	8388608	62	5647
2026-01-24 08:39:23.38	116.03	8.36	-43.8	-47.2	14.7	0.00e+00	0	40	0	14680064	59	5227
2026-01-24 08:39:26.37	115.78	8.57	-43.7	-47.0	14.9	7.00e-07	0	40	0	19922944	58	5419
2026-01-24 08:39:29.37	115.52	8.79	-45.4	-50.1	11.7	2.44e-04	0	40	0	26214400	61	6562
2026-01-24 08:39:32.36	115.26	9.00	-47.3	-56.4	5.7	3.05e-01	0	40	0	31457280	65	10698
2026-01-24 08:39:35.35	115.00	9.22	-47.4	-57.5	5.0	3.09e-01	0	41	0	36700160	65	12108
2026-01-24 08:39:38.34	114.74	9.44	-47.8	-61.3	3.8	1.37e+00	0	41	104	38797312	66	17843
2026-01-24 08:39:41.32	114.47	9.66	-45.9	-51.5	10.5	6.99e-03	0	41	0	42991616	63	6812
2026-01-24 08:39:44.31	114.19	9.88	-45.7	-50.8	11.3	2.26e-03	0	41	0	48234496	63	6275
2026-01-24 08:39:47.30	113.92	10.11	-45.6	-50.6	11.4	9.63e-04	0	41	0	54525952	63	6164
2026-01-24 08:39:50.28	113.63	10.33	-45.8	-51.0	11.0	1.29e-03	0	41	0	59768832	63	6428
2026-01-24 08:39:53.27	113.35	10.56	-45.5	-50.3	11.8	4.97e-04	0	41	0	65011712	62	6277
2026-01-24 08:39:56.26	113.05	10.78	-45.4	-49.9	12.1	1.64e-04	0	41	0	71303168	62	6051
2026-01-24 08:39:59.25	112.76	11.01	-45.1	-49.5	12.6	7.93e-05	0	41	0	76546048	61	6076
2026-01-24 08:40:02.24	112.46	11.24	-44.7	-48.7	13.3	1.06e-05	0	41	0	81788928	61	5580
2026-01-24 08:40:05.23	112.15	11.47	-44.5	-48.4	13.7	1.22e-05	0	41	0	88080384	60	5684
2026-01-24 08:40:08.22	111.84	11.71	-43.5	-46.7	15.5	0.00e+00	0	41	0	93323264	58	5219
2026-01-24 08:40:11.21	111.52	11.94	-43.1	-46.1	16.0	0.00e+00	0	41	0	99614720	58	4907
2026-01-24 08:40:14.20	111.20	12.18	-43.2	-46.2	15.9	0.00e+00	0	41	0	104857600	58	4967
2026-01-24 08:40:17.19	110.88	12.41	-43.1	-46.1	16.0	0.00e+00	0	41	0	110100480	58	4925
2026-01-24 08:40:20.19	110.54	12.65	-42.6	-45.4	16.7	0.00e+00	0	41	0	116391936	57	4797
2026-01-24 08:40:23.18	110.20	12.89	-43.0	-45.9	16.3	0.00e+00	0	41	0	121634816	57	5076
2026-01-24 08:40:26.17	109.86	13.13	-42.7	-45.5	16.6	0.00e+00	0	41	0	126877696	57	4862
2026-01-24 08:40:29.15	109.51	13.38	-42.8	-45.6	16.6	0.00e+00	0	41	0	133169152	57	4892
2026-01-24 08:40:32.14	109.16	13.62	-42.7	-45.5	16.7	0.00e+00	0	41	0	138412032	57	4829
2026-01-24 08:40:35.14	108.80	13.87	-42.5	-45.2	16.9	0.00e+00	0	41	0	143654912	57	4697
2026-01-24 08:40:38.12	108.43	14.11	-42.8	-45.6	16.6	0.00e+00	0	41	0	149946368	57	4908
2026-01-24 08:40:41.11	108.06	14.36	-42.6	-45.4	16.8	0.00e+00	0	41	0	155189248	57	4781
2026-01-24 08:40:44.11	107.68	14.61	-42.4	-45.0	17.2	0.00e+00	0	41	0	160432128	56	4866
2026-01-24 08:40:47.11	107.29	14.86	-42.4	-45.2	17.1	0.00e+00	0	41	0	166723584	56	4951
2026-01-24 08:40:50.12	106.89	15.12	-42.2	-44.9	17.4	0.00e+00	0	41	0	171966464	56	4767
2026-01-24 08:40:53.12	106.49	15.37	-42.6	-45.4	16.9	0.00e+00	0	41	0	178257920	56	5060
2026-01-24 08:40:56.13	106.08	15.63	-42.3	-45.0	17.3	0.00e+00	0	41	0	183500800	56	4824
2026-01-24 08:40:59.13	105.67	15.88	-42.2	-44.8	17.5	0.00e+00	0	41	0	188743680	56	4732
2026-01-24 08:41:02.14	105.24	16.14	-41.6	-44.1	18.0	0.00e+00	0	41	0	195035136	55	4631
2026-01-24 08:41:05.14	104.81	16.40	-41.9	-44.4	17.7	0.00e+00	0	41	0	200278016	55	4814
2026-01-24 08:41:08.15	104.37	16.66	-41.9	-44.4	17.7	0.00e+00	0	41	0	205520896	55	4803
2026-01-24 08:41:11.14	103.93	16.92	-41.9	-44.5	17.7	0.00e+00	0	41	0	211812352	55	4834
2026-01-24 08:41:14.14	103.48	17.18	-41.9	-44.5	17.6	0.00e+00	0	41	0	217055232	55	4861
2026-01-24 08:41:17.14	103.01	17.44	-41.7	-44.2	17.9	0.00e+00	0	41	0	222298112	55	4705
2026-01-24 08:41:20.14	102.55	17.71	-42.0	-44.5	17.8	0.00e+00	0	41	0	228589568	55	4846
2026-01-24 08:41:23.14	102.07	17.97	-41.9	-44.4	17.9	0.00e+00	0	41	0	233832448	55	4803
2026-01-24 08:41:26.15	101.58	18.24	-41.9	-44.4	18.0	0.00e+00	0	41	0	240123904	55	4780
2026-01-24 08:41:29.15	101.08	18.50	-42.1	-44.7	17.7	0.00e+00	0	41	0	245366784	55	4959
2026-01-24 08:41:32.15	100.58	18.77	-42.1	-44.7	17.8	0.00e+00	0	41	0	250609664	55	4951
2026-01-24 08:41:35.16	100.07	19.04	-42.5	-45.2	17.2	0.00e+00	0	41	0	256901120	55	5256
2026-01-24 08:41:38.16	99.54	19.31	-42.3	-44.9	17.6	0.00e+00	0	41	0	262144000	55	5081
2026-01-24 08:41:41.16	99.01	19.57	-42.3	-45.0	17.6	0.00e+00	0	41	0	267386880	55	5109
2026-01-24 08:41:44.16	98.47	19.84	-42.2	-44.8	17.7	0.00e+00	0	41	0	273678336	55	5022
2026-01-24 08:41:47.16	97.92	20.11	-42.1	-44.6	17.9	0.00e+00	0	41	0	278921216	55	4926
2026-01-24 08:41:50.16	97.36	20.38	-42.1	-44.7	17.8	0.00e+00	0	41	0	285212672	55	4955
2026-01-24 08:41:53.17	96.79	20.65	-42.2	-44.8	17.8	0.00e+00	0	41	0	290455552	55	5002
2026-01-24 08:41:56.17	96.21	20.91	-42.2	-44.8	17.8	0.00e+00	0	41	0	295698432	55	4985
2026-01-24 08:41:59.18	95.61	21.18	-41.9	-44.4	18.2	0.00e+00	0	41	0	301989888	55	4775
2026-01-24 08:42:02.18	95.01	21.45	-41.7	-44.2	18.4	0.00e+00	0	41	0	307232768	55	4675
2026-01-24 08:42:05.19	94.40	21.72	-41.8	-44.2	18.3	0.00e+00	0	41	0	312475648	55	4699
2026-01-24 08:42:08.19	93.78	21.98	-41.7	-44.1	18.5	0.00e+00	0	41	0	318767104	55	4638
2026-01-24 08:42:11.20	93.14	22.25	-41.4	-43.7	18.8	0.00e+00	0	41	0	324009984	54	4700
2026-01-24 08:42:14.19	92.50	22.51	-41.0	-43.3	19.2	0.00e+00	0	41	0	329252864	53	4725
2026-01-24 08:42:17.19	91.85	22.77	-41.1	-43.3	19.2	0.00e+00	0	41	0	335544320	53	4754
2026-01-24 08:42:20.18	91.18	23.03	-41.1	-43.4	19.1	0.00e+00	0	41	0	340787200	53	4783
2026-01-24 08:42:23.19	90.50	23.29	-41.0	-43.3	19.2	0.00e+00	0	41	0	347078656	53	4724
2026-01-24 08:42:26.18	89.82	23.55	-40.8	-43.1	19.4	0.00e+00	0	41	0	352321536	53	4620
2026-01-24 08:42:29.18	89.12	23.81	-40.9	-43.2	19.3	0.00e+00	0	41	0	357564416	53	4663
2026-01-24 08:42:32.19	88.40	24.06	-41.0	-43.3	19.2	0.00e+00	0	41	0	363855872	53	4727
2026-01-24 08:42:35.19	87.68	24.31	-41.0	-43.3	19.2	0.00e+00	0	41	0	369098752	53	4740
2026-01-24 08:42:38.20	86.94	24.56	-41.0	-43.4	19.1	0.00e+00	0	41	0	374341632	53	4763
2026-01-24 08:42:41.20	86.19	24.81	-41.1	-43.5	19.0	0.00e+00	0	41	0	380633088	53	4825
2026-01-24 08:42:44.21	85.43	25.05	-41.1	-43.5	19.0	0.00e+00	0	41	0	385875968	53	4836
2026-01-24 08:42:47.20	84.67	25.29	-41.2	-43.6	18.9	0.00e+00	0	41	0	391118848	53	4895
2026-01-24 08:42:50.21	83.88	25.52	-41.5	-44.0	18.5	0.00e+00	0	41	0	397410304	53	5155
2026-01-24 08:42:53.21	83.09	25.75	-41.5	-44.0	18.5	0.00e+00	0	41	0	402653184	53	5133
2026-01-24 08:42:56.22	82.28	25.98	-41.5	-44.0	18.6	0.00e+00	0	41	0	408944640	54	4837
2026-01-24 08:42:59.21	81.47	26.20	-41.2	-43.5	19.0	0.00e+00	0	41	0	414187520	54	4580
2026-01-24 08:43:02.21	80.64	26.42	-41.1	-43.4	19.1	0.00e+00	0	41	0	419430400	54	4502
2026-01-24 08:43:05.22	79.80	26.63	-41.1	-43.4	19.1	0.00e+00	0	41	0	425721856	54	4534
2026-01-24 08:43:08.22	78.95	26.84	-41.4	-43.8	18.8	0.00e+00	0	41	0	430964736	54	4717
2026-01-24 08:43:11.23	78.08	27.05	-41.5	-43.9	18.7	0.00e+00	0	41	0	436207616	54	4763
2026-01-24 08:43:14.23	77.21	27.24	-41.3	-43.6	18.9	0.00e+00	0	41	0	442499072	54	4617
2026-01-24 08:43:17.23	76.33	27.43	-41.6	-44.0	18.5	0.00e+00	0	41	0	447741952	54	4867
2026-01-24 08:43:20.24	75.43	27.62	-41.7	-44.1	18.5	0.00e+00	0	41	0	454033408	54	4905
2026-01-24 08:43:23.23	74.53	27.79	-41.7	-44.2	18.4	0.00e+00	0	41	0	459276288	54	4930
2026-01-24 08:43:26.23	73.62	27.96	-42.1	-44.6	18.0	0.00e+00	0	41	0	464519168	54	5179
2026-01-24 08:43:29.23	72.69	28.13	-42.4	-45.0	17.6	0.00e+00	0	41	0	470810624	55	5144
2026-01-24 08:43:32.23	71.76	28.28	-42.3	-44.8	17.8	0.00e+00	0	42	0	476053504	55	5023
2026-01-24 08:43:35.23	70.82	28.43	-42.4	-45.0	17.6	0.00e+00	0	41	0	481296384	55	5150
2026-01-24 08:43:38.24	69.87	28.57	-42.3	-44.9	17.7	0.00e+00	0	41	0	487587840	55	5047
2026-01-24 08:43:41.24	68.91	28.70	-42.5	-45.1	17.5	0.00e+00	0	41	0	492830720	55	5207
2026-01-24 08:43:44.25	67.94	28.83	-42.4	-44.9	17.6	0.00e+00	0	41	0	498073600	55	5078
2026-01-24 08:43:47.25	66.97	28.94	-42.4	-44.9	17.6	0.00e+00	0	41	0	504365056	55	5087
2026-01-24 08:43:50.25	65.99	29.05	-43.0	-45.8	17.1	0.00e+00	0	41	0	509607936	56	5282
2026-01-24 08:43:53.26	65.00	29.15	-43.1	-45.8	17.0	0.00e+00	0	41	0	515899392	56	5319
2026-01-24 08:43:56.26	64.01	29.24	-43.4	-46.2	16.6	0.00e+00	0	41	0	521142272	57	5244
2026-01-24 08:43:59.26	63.01	29.31	-43.4	-46.2	16.6	0.00e+00	0	41	0	526385152	57	5276
2026-01-24 08:44:02.27	62.01	29.38	-43.4	-46.2	16.6	0.00e+00	0	41	0	532676608	57	5265
2026-01-24 08:44:05.27	61.01	29.44	-43.3	-46.1	16.7	0.00e+00	0	41	0	537919488	57	5192
2026-01-24 08:44:08.28	59.99	29.49	-43.8	-46.8	16.1	0.00e+00	0	41	0	543162368	58	5292
2026-01-24 08:44:11.27	58.99	29.53	-43.4	-46.3	16.6	0.00e+00	0	41	0	549453824	58	4999
2026-01-24 08:44:14.28	57.97	29.56	-43.4	-46.3	16.4	0.00e+00	0	41	0	554696704	58	5040
2026-01-24 08:44:17.28	56.96	29.58	-43.4	-46.3	16.5	0.00e+00	0	41	0	560988160	58	5038
2026-01-24 08:44:20.29	55.94	29.59	-43.2	-46.0	16.8	0.00e+00	0	41	0	566231040	58	4816
2026-01-24 08:44:23.29	54.92	29.59	-43.1	-45.8	17.0	0.00e+00	0	42	0	571473920	58	4757
2026-01-24 08:44:26.29	53.91	29.58	-42.8	-45.5	17.3	0.00e+00	0	42	0	577765376	57	4848
2026-01-24 08:44:29.28	52.90	29.56	-42.8	-45.5	17.3	0.00e+00	0	41	0	583008256	57	4838
2026-01-24 08:44:32.29	51.88	29.53	-42.4	-45.0	17.8	0.00e+00	0	41	0	588251136	56	4848
2026-01-24 08:44:35.30	50.87	29.49	-42.6	-45.2	17.7	0.00e+00	0	41	0	594542592	56	4935
2026-01-24 08:44:38.30	49.86	29.44	-42.8	-45.4	17.4	0.00e+00	0	41	0	599785472	56	5094
2026-01-24 08:44:41.31	48.86	29.38	-42.3	-44.8	18.0	0.00e+00	0	42	0	606076928	56	4743
2026-01-24 08:44:44.31	47.86	29.31	-42.6	-45.2	17.8	0.00e+00	0	41	0	611319808	56	4932
2026-01-24 08:44:47.31	46.86	29.23	-42.4	-44.9	17.9	0.00e+00	0	41	0	616562688	56	4798
2026-01-24 08:44:50.32	45.87	29.14	-42.5	-45.0	17.8	0.00e+00	0	41	0	622854144	56	4861
2026-01-24 08:44:53.32	44.89	29.04	-42.2	-44.6	18.2	0.00e+00	0	42	0	628097024	56	4649
2026-01-24 08:44:56.32	43.91	28.94	-42.3	-44.8	18.1	0.00e+00	0	42	0	633339904	56	4723
2026-01-24 08:44:59.32	42.94	28.82	-42.6	-45.2	17.6	0.00e+00	0	41	0	639631360	56	4960
2026-01-24 08:45:02.32	41.98	28.70	-43.1	-45.8	17.0	0.00e+00	0	41	0	644874240	56	5320
2026-01-24 08:45:05.33	41.02	28.56	-43.2	-46.0	16.8	0.00e+00	0	41	0	650117120	57	5125
2026-01-24 08:45:08.34	40.07	28.42	-43.3	-46.1	16.7	0.00e+00	0	42	0	656408576	57	5209
2026-01-24 08:45:11.34	39.13	28.27	-43.5	-46.3	16.5	0.00e+00	0	41	0	661651456	57	5334
2026-01-24 08:45:14.34	38.20	28.12	-43.4	-46.2	16.7	0.00e+00	0	42	0	667942912	57	5247
2026-01-24 08:45:17.35	37.28	27.95	-43.5	-46.4	16.5	0.00e+00	0	41	0	673185792	57	5349
2026-01-24 08:45:20.35	36.37	27.78	-43.6	-46.6	16.3	0.00e+00	0	41	0	678428672	58	5172
2026-01-24 08:45:23.36	35.46	27.60	-43.6	-46.5	16.3	0.00e+00	0	42	0	684720128	58	5132
2026-01-24 08:45:26.37	34.57	27.42	-43.3	-46.1	16.7	0.00e+00	0	41	0	689963008	58	4926
2026-01-24 08:45:29.37	33.69	27.23	-43.2	-46.0	16.8	0.00e+00	0	41	0	695205888	58	4827
2026-01-24 08:45:32.37	32.82	27.03	-43.1	-45.9	17.0	0.00e+00	0	41	0	701497344	58	4763
2026-01-24 08:45:35.38	31.96	26.83	-43.0	-45.7	17.1	0.00e+00	0	41	0	706740224	58	4698
2026-01-24 08:45:38.38	31.12	26.62	-42.6	-45.2	17.6	0.00e+00	0	41	0	713031680	57	4661
2026-01-24 08:45:41.38	30.28	26.41	-42.5	-45.1	17.7	0.00e+00	0	42	0	718274560	56	4898
2026-01-24 08:45:44.38	29.46	26.19	-42.7	-45.4	17.4	0.00e+00	0	42	0	723517440	56	5063
2026-01-24 08:45:47.38	28.65	25.97	-42.5	-45.0	17.8	0.00e+00	0	41	0	729808896	56	4866
2026-01-24 08:45:50.38	27.85	25.74	-42.4	-44.9	17.9	0.00e+00	0	42	0	735051776	56	4783
2026-01-24 08:45:53.39	27.05	25.51	-42.1	-44.5	18.3	0.00e+00	0	42	0	740294656	56	4573
2026-01-24 08:45:56.39	26.28	25.28	-42.0	-44.5	18.3	0.00e+00	0	42	0	746586112	56	4560
2026-01-24 08:45:59.40	25.51	25.04	-41.7	-44.2	18.5	0.00e+00	0	41	0	751828992	55	4652
2026-01-24 08:46:02.40	24.75	24.80	-41.5	-43.9	18.7	0.00e+00	0	41	0	758120448	55	4514
2026-01-24 08:46:05.41	24.01	24.55	-41.3	-43.8	18.8	0.00e+00	0	41	0	763363328	54	4721
2026-01-24 08:46:08.41	23.28	24.30	-41.3	-43.7	18.9	0.00e+00	0	41	0	768606208	54	4696
2026-01-24 08:46:11.40	22.56	24.05	-40.9	-43.3	19.3	0.00e+00	0	41	0	774897664	53	4706
2026-01-24 08:46:14.40	21.85	23.80	-40.5	-42.8	19.7	0.00e+00	0	42	0	780140544	53	4463
2026-01-24 08:46:17.39	21.16	23.55	-40.5	-42.7	19.8	0.00e+00	0	41	0	785383424	52	4681
2026-01-24 08:46:20.40	20.47	23.29	-40.6	-42.9	19.7	0.00e+00	0	42	0	791674880	52	4783
2026-01-24 08:46:23.40	19.80	23.03	-40.2	-42.4	20.1	0.00e+00	0	41	0	796917760	52	4512
2026-01-24 08:46:26.40	19.14	22.77	-39.9	-42.0	20.5	0.00e+00	0	41	0	802160640	51	4596
2026-01-24 08:46:29.41	18.49	22.51	-39.8	-41.9	20.6	0.00e+00	0	42	0	808452096	51	4542
2026-01-24 08:46:32.41	17.85	22.25	-39.9	-42.1	20.5	0.00e+00	0	42	0	813694976	51	4599
2026-01-24 08:46:35.42	17.22	21.98	-40.1	-42.2	20.3	0.00e+00	0	42	0	819986432	51	4680
2026-01-24 08:46:38.42	16.60	21.72	-39.8	-41.9	20.6	0.00e+00	0	42	0	825229312	51	4514
2026-01-24 08:46:41.43	15.99	21.45	-39.9	-42.1	20.5	0.00e+00	0	42	0	830472192	51	4612
2026-01-24 08:46:44.43	15.39	21.19	-40.2	-42.4	20.2	0.00e+00	0	42	0	836763648	51	4777
2026-01-24 08:46:47.43	14.81	20.92	-40.1	-42.2	20.3	0.00e+00	0	42	0	842006528	51	4699
2026-01-24 08:46:50.44	14.23	20.65	-40.2	-42.3	20.2	0.00e+00	0	42	0	847249408	51	4745
2026-01-24 08:46:53.44	13.66	20.39	-40.5	-42.6	19.9	0.00e+00	0	42	0	853540864	51	4905
2026-01-24 08:46:56.44	13.11	20.12	-40.4	-42.6	20.0	0.00e+00	0	42	0	858783744	51	4888
2026-01-24 08:46:59.44	12.56	19.85	-40.5	-42.9	19.7	0.00e+00	0	42	0	865075200	51	5045
2026-01-24 08:47:02.42	12.03	19.59	-40.7	-43.1	19.4	0.00e+00	0	41	0	870318080	52	4925
2026-01-24 08:47:05.42	11.50	19.32	-40.9	-43.3	19.0	0.00e+00	0	41	0	875560960	52	5039
2026-01-24 08:47:08.42	10.98	19.06	-40.9	-43.4	19.2	0.00e+00	0	41	0	881852416	52	5053
2026-01-24 08:47:11.43	10.47	18.79	-41.0	-43.5	19.0	0.00e+00	0	41	0	887095296	52	5157
2026-01-24 08:47:14.43	9.97	18.52	-41.2	-43.8	18.8	0.00e+00	0	41	0	892338176	53	4995
2026-01-24 08:47:17.43	9.48	18.26	-41.3	-43.8	18.7	0.00e+00	0	41	0	898629632	53	5027
2026-01-24 08:47:20.44	9.00	18.00	-41.3	-43.9	18.6	0.00e+00	0	41	0	903872512	53	5054
2026-01-24 08:47:23.44	8.52	17.73	-41.2	-43.8	18.6	0.00e+00	0	41	0	909115392	53	5040
2026-01-24 08:47:26.44	8.06	17.47	-41.4	-44.0	18.5	0.00e+00	0	42	0	915406848	53	5137
2026-01-24 08:47:29.44	7.60	17.21	-41.6	-44.1	18.4	0.00e+00	0	42	0	920649728	53	5181
2026-01-24 08:47:32.44	7.15	16.95	-41.5	-44.1	18.4	0.00e+00	0	42	0	926941184	53	5176
2026-01-24 08:47:35.44	6.71	16.69	-41.7	-44.4	18.1	0.00e+00	0	42	0	932184064	54	5060
2026-01-24 08:47:38.44	6.27	16.43	-41.9	-44.6	17.9	0.00e+00	0	42	0	937426944	54	5190
2026-01-24 08:47:41.44	5.85	16.17	-41.9	-44.7	17.9	0.00e+00	0	42	0	943718400	54	5253
2026-01-24 08:47:44.44	5.43	15.92	-42.0	-44.8	17.7	0.00e+00	0	42	0	948961280	54	5320
2026-01-24 08:47:47.45	5.02	15.66	-42.0	-44.7	17.8	0.00e+00	0	42	0	954204160	55	4946
2026-01-24 08:47:50.46	4.61	15.41	-42.2	-45.0	17.5	0.00e+00	0	41	0	960495616	55	5135
2026-01-24 08:47:53.47	4.21	15.15	-42.3	-45.1	17.3	0.00e+00	0	42	0	965738496	55	5212
2026-01-24 08:47:56.47	3.82	14.90	-42.3	-45.2	17.3	0.00e+00	0	42	0	972029952	55	5226
2026-01-24 08:47:59.47	3.44	14.65	-42.3	-45.2	17.3	0.00e+00	0	42	0	977272832	55	5226
2026-01-24 08:48:02.48	3.06	14.40	-42.4	-45.4	17.2	0.00e+00	0	42	0	982515712	55	5365
2026-01-24 08:48:05.48	2.69	14.15	-42.4	-45.4	17.2	0.00e+00	0	42	0	988807168	55	5358
2026-01-24 08:48:08.48	2.32	13.91	-42.6	-45.4	17.2	0.00e+00	0	42	0	994050048	55	5357
2026-01-24 08:48:11.49	1.96	13.66	-42.5	-45.3	17.3	0.00e+00	0	42	0	999292928	55	5282
2026-01-24 08:48:14.49	1.61	13.42	-42.5	-45.3	17.3	0.00e+00	0	41	0	1005584384	55	5327
2026-01-24 08:48:17.49	1.26	13.18	-42.9	-45.8	16.9	0.00e+00	0	42	0	1010827264	56	5321
2026-01-24 08:48:20.49	0.92	12.93	-43.1	-46.1	16.6	0.00e+00	0	42	0	1016070144	56	5500
2026-01-24 08:48:23.48	0.59	12.70	-43.2	-46.3	16.5	0.00e+00	0	42	0	1022361600	57	5293
2026-01-24 08:48:26.48	0.26	12.46	-42.9	-46.2	16.5	0.00e+00	0	42	0	1027604480	57	5254
2026-01-24 08:48:29.49	359.93	12.22	-43.1	-46.4	16.3	0.00e+00	0	42	0	1033895936	57	5359
2026-01-24 08:48:32.48	359.62	11.99	-43.2	-46.3	16.4	0.00e+00	0	41	0	1039138816	57	5333
2026-01-24 08:48:35.48	359.30	11.75	-43.4	-46.6	16.1	0.00e+00	0	41	0	1044381696	57	5502
2026-01-24 08:48:38.48	359.00	11.52	-43.4	-46.8	15.9	0.00e+00	0	42	0	1050673152	57	5642
2026-01-24 08:48:41.49	358.69	11.29	-43.2	-46.8	15.9	0.00e+00	0	41	0	1055916032	57	5629
2026-01-24 08:48:44.49	358.39	11.06	-43.0	-46.4	16.2	0.00e+00	0	42	0	1061158912	57	5393
2026-01-24 08:48:47.48	358.10	10.83	-43.0	-46.3	16.4	0.00e+00	0	42	0	1067450368	57	5303
2026-01-24 08:48:50.49	357.81	10.60	-43.2	-46.4	16.3	0.00e+00	0	41	0	1072693248	57	5380
2026-01-24 08:48:53.49	357.53	10.38	-43.2	-46.5	16.1	0.00e+00	0	42	0	1078984704	57	5456
2026-01-24 08:48:56.50	357.24	10.15	-43.0	-46.6	16.0	0.00e+00	0	42	0	1084227584	57	5490
2026-01-24 08:48:59.50	356.97	9.93	-42.8	-46.8	15.8	0.00e+00	0	42	0	1089470464	57	5648
2026-01-24 08:49:02.50	356.70	9.71	-42.5	-47.0	15.6	0.00e+00	0	42	0	1095761920	56	6079
2026-01-24 08:49:05.51	356.43	9.48	-41.7	-47.0	15.4	0.00e+00	0	42	0	1101004800	55	6479
2026-01-24 08:49:08.51	356.17	9.26	-41.1	-47.3	15.1	0.00e+00	0	42	0	1106247680	54	7089
2026-01-24 08:49:11.51	355.91	9.05	-41.2	-47.5	14.8	7.00e-07	0	42	0	1112539136	54	7274
2026-01-24 08:49:14.50	355.66	8.83	-47.9	-63.9	3.8	1.49e+00	0	42	104	1114636288	67	22761
2026-01-24 08:49:17.49	355.41	8.62	-48.9	-64.3	3.8	1.49e+00	0	42	104	1114636288	68	22483
2026-01-24 08:49:20.48	355.16	8.40	-49.0	-64.4	3.8	1.49e+00	0	42	104	1114636288	69	21494
2026-01-24 08:49:23.46	354.92	8.19	-49.3	-64.5	3.8	1.49e+00	0	42	104	1114636288	69	21625
2026-01-24 08:49:26.45	354.68	7.98	-49.2	-64.5	3.8	1.49e+00	0	42	104	1114636288	69	21685
2026-01-24 08:49:29.44	354.44	7.77	-49.2	-64.5	3.8	1.49e+00	0	42	104	1114636288	69	21734
2026-01-24 08:49:32.43	354.21	7.57	-49.4	-64.6	3.8	1.49e+00	0	41	104	1114636288	69	21815
2026-01-24 08:49:35.42	353.98	7.36	-49.3	-64.6	3.8	1.49e+00	0	42	104	1114636288	69	21859
2026-01-24 08:49:38.42	353.76	7.15	-49.3	-64.6	3.8	1.49e+00	0	41	104	1114636288	69	21824
2026-01-24 08:49:41.41	353.54	6.95	-49.2	-64.6	3.8	1.49e+00	0	42	104	1114636288	69	21868
2026-01-24 08:49:44.40	353.32	6.74	-49.1	-64.5	3.8	1.49e+00	0	42	104	1114636288	69	21695
2026-01-24 08:49:47.38	353.11	6.54	-49.1	-64.5	3.8	1.49e+00	0	42	104	1114636288	69	21676
2026-01-24 08:49:50.37	352.89	6.34	-49.1	-64.5	3.8	1.49e+00	0	42	104	1114636288	69	21725
2026-01-24 08:49:53.36	352.68	6.14	-49.1	-64.5	3.8	1.49e+00	0	42	104	1114636288	69	21717
2026-01-24 08:49:56.35	352.48	5.94	-49.1	-64.5	3.8	1.49e+00	0	42	104	1114636288	69	21702
2026-01-24 08:49:59.35	352.27	5.75	-49.1	-64.5	3.8	1.49e+00	0	42	104	1114636288	69	21740
2026-01-24 08:50:02.34	352.07	5.55	-49.1	-64.5	3.8	1.49e+00	0	42	104	1114636288	69	21651
2026-01-24 08:50:05.32	351.88	5.36	-49.1	-64.5	3.8	1.49e+00	0	42	104	1114636288	69	21629
2026-01-24 08:50:08.31	351.68	5.16	-49.1	-64.5	3.8	1.49e+00	0	42	104	1114636288	69	21521
2026-01-24 08:50:11.30	351.49	4.97	-49.1	-64.5	3.8	1.49e+00	0	42	104	1114636288	69	21642

#Closed at: 2026-01-24 08:50:12
#Recorded file [1114 MB]: D:/Data/31040_260124_113835.dat