passes_logs/2026/01/24/T1/T1__20260124_042742_FENGYUN_3E_rec.log

#Pass ID: 20260124_042742_FENGYUN 3E
#Satellite: FENGYUN 3E
#Configuration: FENGYUN 3E
#almurnet v.1.7.20251203
#Start time: 2026-01-24 04:27:42

#Version: 2.0.20230620
#Station: T1
#Location: 37.570604 lon 55.790049 lat
#TLE: 1 49008U 21062A   26022.96857035  .00000014  00000+0  27449-4 0  9991
#TLE: 2 49008  98.7488  28.0032 0002359 122.8887 237.2516 14.19886951235971

#Time	Az	El	Level	Level2	SNR	BER	BlckErr	Temp	State	Recorded	gain1	gain2
2026-01-24 04:27:42.80	13.22	5.00	-48.7	-60.0	3.8	8.46e-01	0	39	0	0	66	14353
2026-01-24 04:27:46.77	13.13	5.29	-48.0	-59.6	3.8	8.47e-01	0	39	104	0	65	14513
2026-01-24 04:27:50.74	13.04	5.57	-48.0	-59.6	3.8	8.47e-01	0	40	104	0	65	14417
2026-01-24 04:27:54.71	12.94	5.86	-48.0	-59.8	3.8	8.47e-01	0	40	104	0	65	14777
2026-01-24 04:27:58.69	12.85	6.15	-48.0	-59.8	3.8	8.47e-01	0	40	104	0	65	14854
2026-01-24 04:28:02.66	12.75	6.44	-47.9	-59.2	3.8	8.48e-01	0	40	104	0	65	13880
2026-01-24 04:28:06.64	12.65	6.74	-47.8	-58.3	3.8	8.46e-01	0	40	104	0	65	12453
2026-01-24 04:28:10.61	12.54	7.04	-47.8	-58.2	3.9	8.46e-01	0	40	104	0	65	12246
2026-01-24 04:28:14.59	12.44	7.34	-47.9	-59.1	3.8	8.47e-01	0	40	104	0	65	13619
2026-01-24 04:28:18.56	12.33	7.65	-47.8	-58.3	3.8	8.45e-01	0	41	104	0	65	12467
2026-01-24 04:28:22.53	12.22	7.96	-47.1	-53.7	5.4	7.38e-01	0	41	0	0	64	7749
2026-01-24 04:28:26.51	12.10	8.27	-45.3	-48.8	10.0	1.14e-02	0	41	0	26214400	61	5224
2026-01-24 04:28:30.48	11.99	8.59	-43.7	-46.0	12.8	1.05e-04	0	41	0	54525952	58	4540
2026-01-24 04:28:34.45	11.87	8.91	-43.4	-45.6	13.2	2.40e-05	0	41	0	83886080	57	4583
2026-01-24 04:28:38.43	11.75	9.24	-43.2	-45.3	13.6	2.86e-05	0	41	0	112197632	57	4428
2026-01-24 04:28:42.40	11.62	9.57	-38.9	-40.2	18.6	0.00e+00	0	41	0	139460608	48	4100
2026-01-24 04:28:46.38	11.49	9.90	-37.6	-38.8	19.7	0.00e+00	0	41	0	167772160	46	3943
2026-01-24 04:28:50.48	11.36	10.25	-37.6	-38.8	19.8	0.00e+00	0	41	0	198180864	45	4166
2026-01-24 04:28:54.67	11.21	10.62	-37.5	-38.7	19.9	0.00e+00	0	41	0	228589568	45	4107
2026-01-24 04:28:58.68	11.07	10.97	-37.4	-38.6	20.0	0.00e+00	0	41	0	256901120	45	4056
2026-01-24 04:29:02.80	10.92	11.34	-37.2	-38.4	20.2	0.00e+00	0	41	0	287309824	45	3965
2026-01-24 04:29:07.19	10.76	11.73	-37.2	-38.4	20.2	0.00e+00	0	41	0	318767104	45	3984
2026-01-24 04:29:11.23	10.60	12.10	-37.0	-38.1	20.5	0.00e+00	0	41	0	347078656	44	4081
2026-01-24 04:29:15.24	10.45	12.48	-36.8	-37.9	20.7	0.00e+00	0	42	0	376438784	44	3972
2026-01-24 04:29:19.24	10.28	12.85	-36.6	-37.7	20.9	0.00e+00	0	42	0	405798912	44	3889
2026-01-24 04:29:23.49	10.11	13.26	-36.3	-37.3	21.1	0.00e+00	0	42	0	436207616	43	3938
2026-01-24 04:29:27.72	9.92	13.68	-36.2	-37.2	21.3	0.00e+00	0	41	0	466616320	43	3881
2026-01-24 04:29:31.72	9.75	14.07	-36.1	-37.0	21.4	0.00e+00	0	41	0	495976448	43	3818
2026-01-24 04:29:35.74	9.56	14.48	-36.1	-37.1	21.4	0.00e+00	0	42	0	524288000	42	4060
2026-01-24 04:29:39.74	9.38	14.89	-36.1	-37.1	21.4	0.00e+00	0	42	0	553648128	42	4060
2026-01-24 04:29:43.73	9.18	15.30	-36.1	-37.0	21.4	0.00e+00	0	42	0	581959680	42	4043
2026-01-24 04:29:47.82	8.98	15.73	-36.0	-36.9	21.6	0.00e+00	0	42	0	611319808	42	3980
2026-01-24 04:29:51.84	8.77	16.16	-35.9	-36.8	21.5	0.00e+00	0	42	0	640679936	42	3954
2026-01-24 04:29:55.83	8.56	16.60	-36.0	-36.9	21.5	0.00e+00	0	42	0	670040064	42	3995
2026-01-24 04:30:00.10	8.32	17.08	-36.0	-37.0	21.5	0.00e+00	0	42	0	700448768	42	4023
2026-01-24 04:30:04.08	8.10	17.53	-36.0	-37.0	21.5	0.00e+00	0	42	0	728760320	42	4020
2026-01-24 04:30:08.07	7.86	17.99	-35.7	-36.6	21.9	0.00e+00	0	42	0	758120448	42	3853
2026-01-24 04:30:12.05	7.62	18.45	-35.4	-36.4	22.1	0.00e+00	0	42	0	786432000	41	3969
2026-01-24 04:30:16.03	7.38	18.93	-35.4	-36.3	22.1	0.00e+00	0	42	0	815792128	41	3955
2026-01-24 04:30:20.01	7.12	19.41	-35.2	-36.1	22.3	0.00e+00	0	42	0	844103680	41	3863
2026-01-24 04:30:23.99	6.85	19.91	-35.3	-36.2	22.3	0.00e+00	0	42	0	872415232	41	3879
2026-01-24 04:30:27.97	6.58	20.41	-35.2	-36.1	22.4	0.00e+00	0	42	0	901775360	41	3831
2026-01-24 04:30:31.95	6.29	20.92	-35.2	-36.1	22.4	0.00e+00	0	42	0	930086912	40	4066
2026-01-24 04:30:36.08	5.98	21.46	-35.1	-35.9	22.5	0.00e+00	0	42	0	960495616	40	3993
2026-01-24 04:30:40.26	5.66	22.02	-35.0	-35.9	22.6	0.00e+00	0	42	0	990904320	40	3983
2026-01-24 04:30:44.29	5.34	22.57	-34.9	-35.8	22.7	0.00e+00	0	42	0	1019215872	40	3920
2026-01-24 04:30:48.31	5.00	23.13	-34.7	-35.5	23.0	0.00e+00	0	42	0	1048576000	39	4044
2026-01-24 04:30:52.36	4.66	23.71	-34.7	-35.6	23.0	0.00e+00	0	42	0	1077936128	39	4057
2026-01-24 04:30:56.35	4.30	24.29	-34.7	-35.6	23.0	0.00e+00	0	42	0	1106247680	39	4066
2026-01-24 04:31:00.45	3.91	24.90	-34.6	-35.5	23.1	0.00e+00	0	42	0	1136656384	39	4020
2026-01-24 04:31:04.67	3.50	25.53	-34.6	-35.5	23.1	0.00e+00	0	42	0	1167065088	39	4013
2026-01-24 04:31:08.80	3.09	26.17	-34.6	-35.5	23.1	0.00e+00	0	42	0	1196425216	39	4019
2026-01-24 04:31:12.79	2.66	26.80	-34.7	-35.5	23.1	0.00e+00	0	42	0	1224736768	39	4033
2026-01-24 04:31:16.80	2.22	27.45	-34.6	-35.4	23.2	0.00e+00	0	42	0	1254096896	39	4002
2026-01-24 04:31:20.76	1.77	28.10	-34.5	-35.4	23.2	0.00e+00	0	42	0	1282408448	39	3965
2026-01-24 04:31:24.74	1.29	28.77	-34.5	-35.3	23.3	0.00e+00	0	42	0	1311768576	39	3935
2026-01-24 04:31:28.72	0.79	29.45	-34.5	-35.3	23.3	0.00e+00	0	42	0	1340080128	39	3923
2026-01-24 04:31:32.72	0.27	30.15	-34.3	-35.1	23.5	0.00e+00	0	42	0	1369440256	39	3842
2026-01-24 04:31:36.71	359.73	30.86	-34.3	-35.1	23.5	0.00e+00	0	42	0	1397751808	39	3845
2026-01-24 04:31:40.94	359.12	31.63	-34.1	-34.9	23.7	0.00e+00	0	42	0	1428160512	38	3990
2026-01-24 04:31:44.92	358.52	32.38	-34.3	-35.1	23.5	0.00e+00	0	42	0	1457520640	38	4093
2026-01-24 04:31:48.89	357.90	33.13	-34.5	-35.4	23.3	0.00e+00	0	42	0	1485832192	38	4202
2026-01-24 04:31:52.87	357.24	33.90	-34.5	-35.4	23.3	0.00e+00	0	42	0	1514143744	38	4198
2026-01-24 04:31:57.07	356.51	34.73	-34.3	-35.1	23.5	0.00e+00	0	42	0	1544552448	38	4068
2026-01-24 04:32:01.06	355.78	35.54	-34.1	-34.9	23.7	0.00e+00	0	42	0	1573912576	38	3997
2026-01-24 04:32:05.10	355.00	36.37	-34.2	-35.0	23.6	0.00e+00	0	42	0	1603272704	38	4034
2026-01-24 04:32:09.69	354.07	37.33	-34.3	-35.1	23.5	0.00e+00	0	42	0	1635778560	38	4095
2026-01-24 04:32:13.67	353.21	38.18	-34.4	-35.3	23.4	0.00e+00	0	42	0	1665138688	38	4150
2026-01-24 04:32:17.65	352.30	39.05	-34.6	-35.4	23.2	0.00e+00	0	42	0	1693450240	39	4000
2026-01-24 04:32:21.77	351.31	39.95	-34.9	-35.7	23.0	0.00e+00	0	42	0	1722810368	39	4118
2026-01-24 04:32:25.75	350.30	40.84	-34.9	-35.7	23.0	0.00e+00	0	42	0	1752170496	39	4141
2026-01-24 04:32:29.87	349.19	41.78	-34.8	-35.6	23.1	0.00e+00	0	42	0	1781530624	39	4072
2026-01-24 04:32:33.86	348.06	42.69	-34.2	-35.0	23.6	0.00e+00	0	42	0	1810890752	39	3819
2026-01-24 04:32:37.87	346.84	43.62	-34.3	-35.2	23.5	0.00e+00	0	42	0	1839202304	38	4107
2026-01-24 04:32:41.85	345.57	44.55	-34.6	-35.5	23.3	0.00e+00	0	42	0	1867513856	38	4245
2026-01-24 04:32:45.95	344.17	45.52	-34.7	-35.5	23.2	0.00e+00	0	42	0	1897922560	39	4043
2026-01-24 04:32:49.92	342.74	46.45	-34.7	-35.5	23.2	0.00e+00	0	42	0	1926234112	39	4020
2026-01-24 04:32:53.90	341.21	47.39	-35.5	-36.4	22.3	0.00e+00	0	42	0	1955594240	40	4225
2026-01-24 04:32:57.96	339.55	48.34	-36.0	-36.9	22.0	0.00e+00	0	42	0	1984954368	41	4200
2026-01-24 04:33:02.13	337.74	49.32	-35.8	-36.7	22.1	0.00e+00	0	42	0	2014314496	41	4120
2026-01-24 04:33:06.17	335.87	50.25	-36.1	-37.0	21.9	0.00e+00	0	42	0	2043674624	42	4008
2026-01-24 04:33:10.16	333.90	51.15	-35.9	-36.8	22.0	0.00e+00	0	42	0	2073034752	41	4166
2026-01-24 04:33:14.32	331.73	52.07	-36.2	-37.1	21.7	0.00e+00	0	42	0	2102394880	41	4308
2026-01-24 04:33:18.30	329.51	52.92	-36.1	-37.0	21.9	0.00e+00	0	42	0	2131755008	42	4026
2026-01-24 04:33:22.28	327.17	53.75	-36.6	-37.5	21.4	0.00e+00	0	42	0	2160066560	42	4257
2026-01-24 04:33:26.27	324.69	54.53	-35.7	-36.6	22.2	0.00e+00	0	42	0	2188378112	42	3859
2026-01-24 04:33:30.23	322.08	55.26	-35.7	-36.5	22.2	0.00e+00	0	42	0	2217738240	41	4031
2026-01-24 04:33:34.21	319.33	55.95	-35.7	-36.5	22.2	0.00e+00	0	42	0	2246049792	41	4049
2026-01-24 04:33:38.19	316.45	56.57	-35.5	-36.4	22.4	0.00e+00	0	42	0	2274361344	41	3960
2026-01-24 04:33:42.17	313.44	57.13	-35.9	-36.7	22.0	0.00e+00	0	42	0	2303721472	41	4142
2026-01-24 04:33:46.26	310.23	57.62	-35.5	-36.4	22.4	0.00e+00	0	42	0	2333081600	41	3978
2026-01-24 04:33:50.24	306.99	58.02	-36.3	-37.2	21.2	0.00e+00	0	42	0	2361393152	42	4125
2026-01-24 04:33:54.30	303.60	58.34	-35.8	-36.7	22.2	0.00e+00	0	42	0	2390753280	41	4107
2026-01-24 04:33:58.31	300.19	58.57	-36.2	-37.1	21.7	0.00e+00	0	42	0	2420113408	41	4306
2026-01-24 04:34:02.30	296.74	58.69	-35.9	-36.8	22.0	0.00e+00	0	42	0	2449473536	42	3936
2026-01-24 04:34:06.29	293.27	58.72	-36.3	-37.2	21.7	0.00e+00	0	42	0	2477785088	42	4118
2026-01-24 04:34:10.38	289.72	58.65	-35.8	-36.7	22.1	0.00e+00	0	42	0	2507145216	42	3883
2026-01-24 04:34:14.38	286.28	58.49	-35.9	-36.7	22.1	0.00e+00	0	42	0	2535456768	42	3900
2026-01-24 04:34:18.41	282.87	58.23	-36.0	-36.9	21.9	0.00e+00	0	42	0	2564816896	42	3984
2026-01-24 04:34:22.70	279.33	57.85	-36.3	-37.2	21.7	0.00e+00	0	42	0	2596274176	42	4111
2026-01-24 04:34:26.96	275.92	57.37	-36.4	-37.3	21.6	0.00e+00	0	42	0	2626682880	42	4161
2026-01-24 04:34:30.96	272.83	56.85	-35.5	-36.4	22.3	0.00e+00	0	42	0	2656043008	41	3979
2026-01-24 04:34:34.98	269.85	56.25	-35.6	-36.4	22.3	0.00e+00	0	42	0	2684354560	41	3990
2026-01-24 04:34:38.97	267.03	55.59	-35.5	-36.4	22.4	0.00e+00	0	42	0	2713714688	41	3978
2026-01-24 04:34:43.11	264.24	54.84	-35.6	-36.5	22.3	0.00e+00	0	42	0	2743074816	41	4005
2026-01-24 04:34:47.09	261.70	54.07	-35.4	-36.3	22.5	0.00e+00	0	42	0	2772434944	41	3924
2026-01-24 04:34:51.07	259.30	53.27	-36.1	-36.9	21.9	0.00e+00	0	42	0	2800746496	41	4242
2026-01-24 04:34:55.08	257.01	52.42	-35.6	-36.4	22.4	0.00e+00	0	42	0	2830106624	41	3986
2026-01-24 04:34:59.36	254.71	51.48	-35.6	-36.4	22.4	0.00e+00	0	42	0	2860515328	41	3985
2026-01-24 04:35:03.48	252.63	50.55	-35.6	-36.5	22.3	0.00e+00	0	42	0	2889875456	41	4014
2026-01-24 04:35:07.47	250.74	49.63	-35.5	-36.3	22.5	0.00e+00	0	42	0	2919235584	41	3950
2026-01-24 04:35:11.48	248.95	48.70	-35.6	-36.5	22.3	0.00e+00	0	42	0	2948595712	41	4027
2026-01-24 04:35:15.51	247.26	47.75	-34.8	-35.6	23.1	0.00e+00	0	42	0	2976907264	40	3866
2026-01-24 04:35:19.49	245.68	46.81	-35.0	-35.8	22.8	0.00e+00	0	42	0	3006267392	40	3927
2026-01-24 04:35:23.67	244.13	45.82	-34.6	-35.4	23.3	0.00e+00	0	42	0	3036676096	39	3999
2026-01-24 04:35:27.65	242.74	44.88	-34.6	-35.4	23.2	0.00e+00	0	42	0	3064987648	39	4004
2026-01-24 04:35:31.74	241.40	43.92	-34.7	-35.5	23.2	0.00e+00	0	42	0	3094347776	39	4034
2026-01-24 04:35:35.86	240.13	42.96	-35.0	-35.8	23.0	0.00e+00	0	42	0	3124756480	39	4168
2026-01-24 04:35:39.97	238.93	42.01	-34.7	-35.5	23.2	0.00e+00	0	42	0	3154116608	39	4023
2026-01-24 04:35:43.95	237.84	41.10	-34.8	-35.6	23.1	0.00e+00	0	42	0	3182428160	39	4088
2026-01-24 04:35:47.93	236.80	40.20	-34.6	-35.5	23.3	0.00e+00	0	42	0	3210739712	39	4006
2026-01-24 04:35:51.91	235.82	39.31	-34.6	-35.4	23.3	0.00e+00	0	42	0	3240099840	39	3994
2026-01-24 04:35:56.27	234.81	38.36	-34.3	-35.1	23.5	0.00e+00	0	42	0	3271557120	39	3851
2026-01-24 04:36:00.27	233.93	37.49	-34.5	-35.3	23.4	0.00e+00	0	42	0	3300917248	39	3949
2026-01-24 04:36:04.25	233.11	36.65	-34.6	-35.4	23.3	0.00e+00	0	42	0	3329228800	39	3986
2026-01-24 04:36:08.62	232.24	35.74	-34.7	-35.5	23.3	0.00e+00	0	42	0	3360686080	39	4013
2026-01-24 04:36:12.72	231.48	34.91	-34.0	-34.8	23.8	0.00e+00	0	42	0	3390046208	38	3928
2026-01-24 04:36:16.78	230.76	34.09	-34.2	-35.0	23.6	0.00e+00	0	42	0	3419406336	38	4030
2026-01-24 04:36:20.76	230.09	33.31	-34.2	-35.0	23.6	0.00e+00	0	42	0	3448766464	38	4029
2026-01-24 04:36:24.75	229.44	32.55	-34.5	-35.3	23.3	0.00e+00	0	42	0	3477078016	38	4174
2026-01-24 04:36:28.73	228.83	31.80	-34.5	-35.3	23.3	0.00e+00	0	42	0	3505389568	38	4178
2026-01-24 04:36:32.68	228.25	31.07	-34.4	-35.2	23.4	0.00e+00	0	42	0	3534749696	38	4122
2026-01-24 04:36:36.66	227.70	30.35	-34.4	-35.2	23.4	0.00e+00	0	42	0	3563061248	38	4135
2026-01-24 04:36:40.62	227.17	29.65	-34.2	-34.9	23.6	0.00e+00	0	42	0	3591372800	38	4001
2026-01-24 04:36:44.60	226.66	28.95	-34.5	-35.3	23.4	0.00e+00	0	42	0	3620732928	38	4153
2026-01-24 04:36:48.57	226.17	28.28	-34.6	-35.4	23.2	0.00e+00	0	43	0	3649044480	38	4236
2026-01-24 04:36:52.56	225.70	27.61	-34.6	-35.4	23.1	0.00e+00	0	42	0	3678404608	38	4209
2026-01-24 04:36:56.53	225.25	26.97	-34.7	-35.6	23.1	0.00e+00	0	42	0	3706716160	39	4061
2026-01-24 04:37:00.51	224.82	26.33	-34.9	-35.7	23.0	0.00e+00	0	42	0	3735027712	39	4136
2026-01-24 04:37:04.74	224.38	25.67	-34.7	-35.5	23.1	0.00e+00	0	42	0	3765436416	39	4036
2026-01-24 04:37:08.74	223.99	25.06	-34.4	-35.2	23.4	0.00e+00	0	42	0	3794796544	39	3881
2026-01-24 04:37:12.73	223.60	24.46	-34.4	-35.2	23.4	0.00e+00	0	42	0	3823108096	39	3891
2026-01-24 04:37:16.88	223.22	23.85	-34.5	-35.4	23.3	0.00e+00	0	42	0	3853516800	39	3963
2026-01-24 04:37:20.98	222.86	23.26	-34.9	-35.7	22.9	0.00e+00	0	42	0	3882876928	39	4132
2026-01-24 04:37:25.00	222.52	22.69	-35.1	-35.9	22.7	0.00e+00	0	42	0	3912237056	39	4240
2026-01-24 04:37:29.01	222.19	22.14	-35.1	-36.0	22.6	0.00e+00	0	42	0	3940548608	40	4011
2026-01-24 04:37:33.00	221.87	21.59	-35.2	-36.0	22.5	0.00e+00	0	42	0	3969908736	40	4048
2026-01-24 04:37:37.11	221.56	21.05	-35.2	-36.1	22.5	0.00e+00	0	42	0	3999268864	40	4055
2026-01-24 04:37:41.72	221.22	20.45	-35.2	-36.1	22.5	0.00e+00	0	42	0	4032823296	40	4067
2026-01-24 04:37:45.70	220.94	19.94	-35.3	-36.1	22.5	0.00e+00	0	42	0	4061134848	40	4090
2026-01-24 04:37:49.62	220.67	19.45	-35.5	-36.4	22.3	0.00e+00	0	42	0	4089446400	40	4196
2026-01-24 04:37:53.61	220.41	18.96	-35.7	-36.5	22.1	0.00e+00	0	42	0	4118806528	40	4280
2026-01-24 04:37:57.71	220.14	18.47	-36.0	-36.8	21.8	0.00e+00	0	42	0	4148166656	41	4185
2026-01-24 04:38:01.71	219.90	17.99	-36.1	-37.0	21.6	0.00e+00	0	42	0	4177526784	41	4274
2026-01-24 04:38:05.70	219.66	17.53	-36.3	-37.2	21.3	0.00e+00	0	42	0	4205838336	42	4143
2026-01-24 04:38:09.77	219.42	17.06	-36.4	-37.4	21.3	0.00e+00	0	42	0	4235198464	42	4196
2026-01-24 04:38:13.75	219.20	16.62	-36.4	-37.3	21.4	0.00e+00	0	42	0	4264558592	42	4155
2026-01-24 04:38:18.03	218.96	16.14	-36.4	-37.3	21.3	0.00e+00	0	42	0	4294967296	42	4171
2026-01-24 04:38:22.04	218.75	15.71	-36.5	-37.4	21.3	0.00e+00	0	42	0	4323278848	42	4206
2026-01-24 04:38:26.11	218.54	15.28	-36.4	-37.3	21.3	0.00e+00	0	42	0	4353687552	42	4174
2026-01-24 04:38:30.14	218.34	14.85	-36.6	-37.5	21.2	0.00e+00	0	42	0	4381999104	42	4263
2026-01-24 04:38:34.12	218.15	14.44	-36.8	-37.7	21.0	0.00e+00	0	42	0	4411359232	42	4357
2026-01-24 04:38:38.16	217.96	14.03	-36.9	-37.8	20.8	0.00e+00	0	42	0	4439670784	43	4181
2026-01-24 04:38:42.22	217.78	13.63	-37.1	-38.0	20.6	0.00e+00	0	42	0	4469030912	43	4271
2026-01-24 04:38:46.23	217.60	13.23	-37.1	-38.0	20.6	0.00e+00	0	42	0	4498391040	43	4277
2026-01-24 04:38:50.21	217.43	12.85	-37.2	-38.2	20.5	0.00e+00	0	42	0	4526702592	43	4352
2026-01-24 04:38:54.19	217.26	12.47	-37.2	-38.2	20.5	0.00e+00	0	42	0	4556062720	43	4345
2026-01-24 04:38:58.17	217.10	12.10	-37.6	-38.6	20.2	0.00e+00	0	42	0	4584374272	44	4299
2026-01-24 04:39:02.21	216.94	11.72	-37.7	-38.7	20.0	0.00e+00	0	42	0	4613734400	44	4361
2026-01-24 04:39:06.23	216.78	11.35	-37.9	-38.9	19.9	0.00e+00	0	42	0	4643094528	45	4218
2026-01-24 04:39:10.23	216.63	11.00	-38.1	-39.1	19.7	0.00e+00	0	42	0	4671406080	45	4329
2026-01-24 04:39:14.23	216.49	10.64	-38.1	-39.1	19.6	0.00e+00	0	42	0	4700766208	45	4328
2026-01-24 04:39:18.23	216.34	10.29	-38.3	-39.4	19.4	0.00e+00	0	42	0	4729077760	46	4200
2026-01-24 04:39:22.24	216.20	9.94	-38.6	-39.6	19.2	0.00e+00	0	42	0	4758437888	46	4315
2026-01-24 04:39:26.23	216.07	9.61	-38.4	-39.5	19.2	0.00e+00	0	42	0	4786749440	46	4261
2026-01-24 04:39:30.23	215.94	9.27	-38.6	-39.6	19.1	0.00e+00	0	42	0	4816109568	46	4331
2026-01-24 04:39:34.34	215.80	8.93	-49.5	-59.6	3.8	8.48e-01	0	42	104	4842323968	68	12232
2026-01-24 04:39:38.47	215.67	8.59	-50.3	-61.0	3.8	8.46e-01	0	42	104	4842323968	70	12678
2026-01-24 04:39:42.55	215.55	8.26	-50.2	-61.1	3.8	8.48e-01	0	42	104	4842323968	70	12878
2026-01-24 04:39:46.53	215.43	7.94	-50.5	-61.2	3.8	8.47e-01	0	42	104	4842323968	70	13034
2026-01-24 04:39:50.50	215.31	7.63	-50.2	-61.1	3.8	8.46e-01	0	42	104	4842323968	70	12882
2026-01-24 04:39:54.47	215.20	7.32	-50.2	-61.0	3.8	8.47e-01	0	42	104	4842323968	70	12794
2026-01-24 04:39:58.46	215.09	7.01	-50.1	-61.0	3.8	8.46e-01	0	42	104	4842323968	70	12734
2026-01-24 04:40:02.45	214.98	6.71	-50.1	-61.1	3.8	8.46e-01	0	42	104	4842323968	70	12835
2026-01-24 04:40:06.44	214.87	6.41	-50.1	-61.0	3.8	8.47e-01	0	42	104	4842323968	70	12743
2026-01-24 04:40:10.41	214.77	6.12	-50.1	-61.0	3.8	8.46e-01	0	42	104	4842323968	70	12688
2026-01-24 04:40:14.38	214.66	5.82	-50.1	-60.9	3.8	8.47e-01	0	42	104	4842323968	70	12607
2026-01-24 04:40:18.39	214.56	5.53	-50.1	-61.0	3.8	8.47e-01	0	42	104	4842323968	70	12757
2026-01-24 04:40:22.37	214.47	5.25	-50.1	-60.9	3.8	8.46e-01	0	42	104	4842323968	70	12634

#Closed at: 2026-01-24 04:40:26
#Recorded file [4842 MB]: D:/Data/31040_260124_072742.dat