passes_logs/2026/01/24/T1/T1__20260124_225041_KHAYYAM_rec.log

#Pass ID: 20260124_225041_KHAYYAM
#Satellite: KHAYYAM
#Configuration: KHAYYAM_480M
#almurnet v.1.7.20251203
#Start time: 2026-01-24 22:50:40

#Version: 2.0.20230620
#Station: T1
#Location: 37.570604 lon 55.790049 lat
#TLE: 1 53370U 22096A   26024.53891351  .00009807  00000+0  39879-3 0  9998
#TLE: 2 53370  97.3549 291.3780 0001977 107.4992 252.6462 15.24736514192695

#Time	Az	El	Level	Level2	SNR	BER	BlckErr	Temp	State	Recorded	gain1	gain2
2026-01-24 22:50:40.54	352.48	4.98	-49.2	-55.1	3.5	0.00e+00	0	40	0	0	68	30928
2026-01-24 22:50:42.53	352.20	5.10	-50.1	-55.8	3.7	0.00e+00	0	40	104	0	70	29868
2026-01-24 22:50:44.51	351.92	5.22	-50.1	-55.8	3.7	0.00e+00	0	40	104	0	70	29968
2026-01-24 22:50:46.50	351.63	5.34	-50.1	-55.8	3.7	0.00e+00	0	41	104	0	70	30015
2026-01-24 22:50:48.48	351.35	5.46	-50.1	-55.8	3.7	0.00e+00	0	41	104	0	70	29898
2026-01-24 22:50:50.47	351.05	5.58	-50.1	-55.8	3.7	0.00e+00	0	41	104	0	70	29938
2026-01-24 22:50:52.46	350.76	5.70	-50.1	-55.8	3.7	0.00e+00	0	41	104	0	70	29856
2026-01-24 22:50:54.44	350.46	5.82	-50.1	-55.8	3.7	0.00e+00	0	41	104	0	70	29858
2026-01-24 22:50:56.43	350.15	5.95	-50.1	-55.8	3.7	0.00e+00	0	41	104	0	70	29844
2026-01-24 22:50:58.42	349.85	6.07	-50.1	-55.8	3.7	0.00e+00	0	42	104	0	70	29882
2026-01-24 22:51:00.40	349.54	6.19	-50.1	-55.8	3.7	0.00e+00	0	42	104	0	70	29933
2026-01-24 22:51:02.39	349.23	6.31	-50.1	-55.8	3.7	0.00e+00	0	42	104	0	70	29919
2026-01-24 22:51:04.38	348.91	6.43	-50.1	-55.8	3.7	0.00e+00	0	42	104	0	70	29862
2026-01-24 22:51:06.36	348.59	6.55	-50.1	-55.8	3.7	0.00e+00	0	42	104	0	70	29929
2026-01-24 22:51:08.35	348.27	6.67	-50.1	-55.8	3.7	0.00e+00	0	42	104	0	70	29826
2026-01-24 22:51:10.34	347.94	6.80	-50.1	-55.8	3.7	0.00e+00	0	42	104	0	70	29868
2026-01-24 22:51:12.32	347.61	6.92	-50.1	-55.7	3.7	0.00e+00	0	43	104	0	70	29795
2026-01-24 22:51:14.31	347.28	7.04	-50.1	-55.8	3.7	0.00e+00	0	43	104	0	70	29850
2026-01-24 22:51:16.30	346.94	7.16	-50.1	-55.8	3.7	0.00e+00	0	43	104	0	70	29942
2026-01-24 22:51:18.28	346.60	7.28	-50.1	-55.8	3.7	0.00e+00	0	43	104	0	70	29849
2026-01-24 22:51:20.27	346.26	7.41	-50.1	-55.8	3.7	0.00e+00	0	43	104	0	70	29839
2026-01-24 22:51:22.25	345.91	7.53	-50.1	-55.8	3.7	0.00e+00	0	43	104	0	70	29902
2026-01-24 22:51:24.24	345.56	7.65	-50.1	-55.8	3.7	0.00e+00	0	43	104	0	70	29825
2026-01-24 22:51:26.23	345.20	7.77	-50.1	-55.7	3.7	0.00e+00	0	43	104	0	70	29743
2026-01-24 22:51:28.21	344.84	7.89	-50.1	-55.8	3.7	0.00e+00	0	43	104	0	70	29851
2026-01-24 22:51:30.20	344.48	8.02	-50.1	-55.7	3.7	0.00e+00	0	43	104	0	70	29820
2026-01-24 22:51:32.19	344.11	8.14	-50.1	-55.8	3.7	0.00e+00	0	44	104	0	70	29841
2026-01-24 22:51:34.17	343.74	8.26	-50.1	-55.7	3.7	0.00e+00	0	44	104	0	70	29809
2026-01-24 22:51:36.16	343.36	8.38	-50.1	-55.7	3.7	0.00e+00	0	44	104	0	70	29761
2026-01-24 22:51:38.15	342.98	8.50	-50.1	-55.8	3.7	0.00e+00	0	44	104	0	70	29873
2026-01-24 22:51:40.13	342.60	8.62	-50.1	-55.8	3.7	0.00e+00	0	44	104	0	70	29906
2026-01-24 22:51:42.12	342.21	8.74	-50.1	-55.8	3.7	0.00e+00	0	44	104	0	70	29888
2026-01-24 22:51:44.11	341.82	8.86	-50.1	-55.8	3.7	0.00e+00	0	44	104	0	70	29886
2026-01-24 22:51:46.09	341.43	8.98	-50.1	-55.8	3.7	0.00e+00	0	44	104	0	70	29867
2026-01-24 22:51:48.08	341.02	9.10	-50.6	-56.1	3.7	0.00e+00	0	44	104	0	71	29249
2026-01-24 22:51:50.07	340.62	9.22	-51.2	-56.3	3.7	0.00e+00	0	44	104	0	73	26877
2026-01-24 22:51:52.06	340.21	9.34	-51.1	-56.4	3.7	0.00e+00	0	44	104	0	73	26981
2026-01-24 22:51:54.05	339.80	9.46	-51.2	-56.5	3.7	0.00e+00	0	44	104	0	73	27515
2026-01-24 22:51:56.04	339.38	9.58	-50.0	-55.6	3.7	0.00e+00	0	44	104	0	71	27642
2026-01-24 22:51:58.03	338.96	9.70	-49.5	-55.3	3.7	0.00e+00	0	44	104	0	69	30060
2026-01-24 22:52:00.02	338.53	9.81	-48.5	-54.5	3.7	0.00e+00	0	44	104	0	68	29057
2026-01-24 22:52:02.01	338.10	9.93	-48.6	-54.6	3.7	0.00e+00	0	44	104	0	68	29470
2026-01-24 22:52:04.01	337.66	10.05	-47.6	-53.8	3.7	0.00e+00	0	44	104	0	67	28465
2026-01-24 22:52:06.00	337.22	10.16	-47.1	-53.5	3.8	0.00e+00	0	44	104	0	66	28966
2026-01-24 22:52:07.99	336.78	10.28	-48.5	-54.6	3.7	0.00e+00	0	44	104	0	67	31058
2026-01-24 22:52:09.98	336.33	10.39	-48.5	-54.6	3.7	0.00e+00	0	44	104	0	67	30887
2026-01-24 22:52:11.97	335.88	10.50	-51.4	-56.4	3.7	0.00e+00	0	44	104	0	73	26984
2026-01-24 22:52:13.96	335.42	10.62	-50.6	-56.0	3.7	0.00e+00	0	44	104	0	71	28865
2026-01-24 22:52:15.95	334.96	10.73	-51.5	-56.5	3.7	0.00e+00	0	44	104	0	73	27216
2026-01-24 22:52:17.94	334.50	10.84	-50.9	-56.1	3.7	0.00e+00	0	44	104	0	73	26043
2026-01-24 22:52:19.93	334.03	10.95	-51.1	-56.2	3.7	0.00e+00	0	45	104	0	73	26558
2026-01-24 22:52:21.91	333.55	11.06	-51.1	-56.1	3.7	0.00e+00	0	45	104	0	73	26240
2026-01-24 22:52:23.90	333.08	11.17	-51.0	-56.2	3.7	0.00e+00	0	45	104	0	73	26545
2026-01-24 22:52:25.89	332.59	11.27	-51.2	-56.4	3.7	0.00e+00	0	45	104	0	73	26926
2026-01-24 22:52:27.88	332.10	11.38	-51.5	-56.5	3.7	0.00e+00	0	45	104	0	73	27263
2026-01-24 22:52:29.87	331.61	11.49	-51.9	-56.5	3.7	0.00e+00	0	45	104	0	74	25724
2026-01-24 22:52:31.86	331.12	11.59	-51.2	-56.1	3.7	0.00e+00	0	45	104	0	74	24752
2026-01-24 22:52:33.85	330.61	11.69	-51.2	-56.2	3.7	0.00e+00	0	45	104	0	74	25043
2026-01-24 22:52:35.84	330.11	11.79	-51.3	-56.4	3.7	0.00e+00	0	45	104	0	73	26906
2026-01-24 22:52:37.83	329.60	11.89	-51.0	-56.1	3.7	0.00e+00	0	45	104	0	73	26150
2026-01-24 22:52:39.82	329.09	11.99	-51.8	-56.7	3.7	0.00e+00	0	45	104	0	74	26320
2026-01-24 22:52:41.81	328.57	12.09	-51.9	-56.6	3.7	0.00e+00	0	45	104	0	74	26016
2026-01-24 22:52:43.80	328.05	12.19	-50.4	-55.9	3.7	0.00e+00	0	45	104	0	72	26917
2026-01-24 22:52:45.79	327.52	12.28	-49.8	-55.4	3.7	0.00e+00	0	45	104	0	71	26895
2026-01-24 22:52:47.77	326.99	12.37	-49.9	-55.4	3.7	0.00e+00	0	45	104	0	71	27016
2026-01-24 22:52:49.76	326.46	12.46	-49.0	-54.9	3.7	0.00e+00	0	45	104	0	70	27125
2026-01-24 22:52:51.75	325.92	12.55	-48.7	-54.7	3.7	0.00e+00	0	45	104	0	69	27903
2026-01-24 22:52:53.74	325.37	12.64	-48.7	-54.7	3.7	0.00e+00	0	45	104	0	69	27836
2026-01-24 22:52:55.73	324.83	12.73	-48.8	-54.7	3.7	0.00e+00	0	45	104	0	69	28076
2026-01-24 22:52:57.72	324.28	12.81	-49.6	-55.3	3.7	0.00e+00	0	45	104	0	71	26722
2026-01-24 22:52:59.71	323.72	12.90	-50.5	-55.8	3.7	0.00e+00	0	45	104	0	72	26615
2026-01-24 22:53:01.70	323.16	12.98	-52.0	-56.6	3.7	0.00e+00	0	45	104	0	74	26234
2026-01-24 22:53:03.69	322.60	13.05	-51.6	-56.5	3.7	0.00e+00	0	45	104	0	74	25709
2026-01-24 22:53:05.68	322.03	13.13	-51.2	-56.3	3.7	0.00e+00	0	45	104	0	74	25220
2026-01-24 22:53:07.67	321.46	13.21	-50.5	-55.9	3.7	0.00e+00	0	45	104	0	73	25502
2026-01-24 22:53:09.66	320.89	13.28	-50.4	-55.8	3.7	0.00e+00	0	45	104	0	72	26665
2026-01-24 22:53:11.65	320.31	13.35	-50.6	-55.7	3.7	0.00e+00	0	45	104	0	72	26540
2026-01-24 22:53:13.64	319.73	13.42	-51.4	-56.4	3.7	0.00e+00	0	45	104	0	73	26896
2026-01-24 22:53:15.63	319.15	13.48	-51.6	-56.4	3.7	0.00e+00	0	45	104	0	74	25442
2026-01-24 22:53:17.62	318.57	13.55	-52.0	-56.7	3.7	0.00e+00	0	45	104	0	74	26569
2026-01-24 22:53:19.61	317.98	13.61	-51.7	-56.6	3.7	0.00e+00	0	45	104	0	74	26271
2026-01-24 22:53:21.60	317.38	13.67	-50.5	-55.9	3.7	0.00e+00	0	45	104	0	72	27012
2026-01-24 22:53:23.58	316.79	13.72	-50.7	-56.0	3.7	0.00e+00	0	45	104	0	72	27415
2026-01-24 22:53:25.57	316.19	13.78	-51.7	-56.6	3.7	0.00e+00	0	45	104	0	74	26242
2026-01-24 22:53:27.56	315.59	13.83	-52.1	-56.8	3.7	0.00e+00	0	45	104	0	74	26804
2026-01-24 22:53:29.55	314.99	13.88	-51.4	-56.3	3.7	0.00e+00	0	45	104	0	74	25316
2026-01-24 22:53:31.54	314.38	13.93	-51.4	-56.4	3.7	0.00e+00	0	45	104	0	74	25417
2026-01-24 22:53:33.54	313.77	13.97	-51.5	-56.4	3.7	0.00e+00	0	45	104	0	74	25565
2026-01-24 22:53:35.52	313.17	14.01	-51.3	-56.4	3.7	0.00e+00	0	45	104	0	74	25429
2026-01-24 22:53:37.51	312.55	14.05	-51.6	-56.4	3.7	0.00e+00	0	45	104	0	74	25615
2026-01-24 22:53:39.50	311.94	14.09	-51.6	-56.4	3.7	0.00e+00	0	45	104	0	74	25633
2026-01-24 22:53:41.49	311.33	14.12	-51.7	-56.5	3.7	0.00e+00	0	45	104	0	74	25843
2026-01-24 22:53:43.48	310.71	14.15	-51.2	-56.1	3.7	0.00e+00	0	45	104	0	74	24575
2026-01-24 22:53:45.47	310.09	14.18	-51.6	-56.5	3.7	0.00e+00	0	45	104	0	74	25863
2026-01-24 22:53:47.46	309.47	14.20	-51.6	-56.4	3.7	0.00e+00	0	45	104	0	74	25589
2026-01-24 22:53:49.45	308.85	14.22	-52.3	-56.9	3.7	0.00e+00	0	45	104	0	75	25397
2026-01-24 22:53:51.44	308.23	14.24	-52.3	-56.8	3.7	0.00e+00	0	45	104	0	75	25332
2026-01-24 22:53:53.43	307.60	14.26	-51.8	-56.4	3.7	0.00e+00	0	45	104	0	75	24087
2026-01-24 22:53:55.41	306.98	14.27	-52.3	-56.7	3.7	0.00e+00	0	45	104	0	75	24901
2026-01-24 22:53:57.40	306.36	14.28	-52.3	-56.5	3.7	0.00e+00	0	45	104	0	75	24516
2026-01-24 22:53:59.39	305.73	14.29	-52.1	-56.6	3.7	0.00e+00	0	45	104	0	75	24658
2026-01-24 22:54:01.38	305.10	14.30	-52.1	-56.6	3.7	0.00e+00	0	45	104	0	75	24647
2026-01-24 22:54:03.37	304.48	14.30	-51.9	-56.5	3.7	0.00e+00	0	46	104	0	75	24497
2026-01-24 22:54:05.36	303.85	14.30	-52.2	-56.7	3.7	0.00e+00	0	45	104	0	75	24824
2026-01-24 22:54:07.35	303.23	14.29	-52.4	-56.7	3.7	0.00e+00	0	46	104	0	75	24958
2026-01-24 22:54:09.34	302.60	14.28	-52.3	-56.5	3.7	0.00e+00	0	45	104	0	75	24307
2026-01-24 22:54:11.33	301.98	14.27	-52.4	-56.7	3.7	0.00e+00	0	45	104	0	75	25017
2026-01-24 22:54:13.32	301.35	14.26	-52.4	-56.7	3.7	0.00e+00	0	45	104	0	75	25019
2026-01-24 22:54:15.31	300.73	14.25	-52.4	-56.8	3.7	0.00e+00	0	45	104	0	75	25227
2026-01-24 22:54:17.30	300.10	14.23	-52.3	-56.7	3.7	0.00e+00	0	45	104	0	75	24986
2026-01-24 22:54:19.28	299.49	14.21	-52.1	-56.4	3.7	0.00e+00	0	45	104	0	75	23985
2026-01-24 22:54:21.28	298.86	14.18	-52.0	-56.3	3.7	0.00e+00	0	45	104	0	75	23910
2026-01-24 22:54:23.27	298.24	14.15	-52.2	-56.4	3.7	0.00e+00	0	45	104	0	75	24219
2026-01-24 22:54:25.26	297.62	14.12	-52.3	-56.6	3.7	0.00e+00	0	45	104	0	75	24746
2026-01-24 22:54:27.25	297.01	14.09	-52.0	-56.0	3.6	0.00e+00	0	45	104	0	75	23106
2026-01-24 22:54:29.24	296.39	14.06	-51.8	-55.9	3.7	0.00e+00	0	45	104	0	75	22839
2026-01-24 22:54:31.23	295.78	14.02	-52.3	-56.5	3.7	0.00e+00	0	45	104	0	75	24382
2026-01-24 22:54:33.22	295.16	13.98	-52.3	-56.4	3.7	0.00e+00	0	46	104	0	75	24071
2026-01-24 22:54:35.21	294.56	13.93	-52.2	-56.4	3.7	0.00e+00	0	45	104	0	75	24041
2026-01-24 22:54:37.19	293.95	13.89	-52.3	-56.6	3.7	0.00e+00	0	46	104	0	75	24759
2026-01-24 22:54:39.18	293.35	13.84	-52.2	-56.3	3.7	0.00e+00	0	45	104	0	75	23923
2026-01-24 22:54:41.17	292.74	13.79	-52.5	-56.7	3.7	0.00e+00	0	46	104	0	75	25043
2026-01-24 22:54:43.16	292.14	13.73	-52.4	-56.6	3.7	0.00e+00	0	45	104	0	75	24759
2026-01-24 22:54:45.15	291.55	13.68	-52.0	-55.8	3.7	0.00e+00	0	45	104	0	75	22418
2026-01-24 22:54:47.14	290.95	13.62	-51.2	-54.5	3.7	0.00e+00	0	45	104	0	74	20491
2026-01-24 22:54:49.13	290.36	13.56	-50.9	-54.0	3.7	0.00e+00	0	45	104	0	73	20629
2026-01-24 22:54:51.12	289.77	13.49	-51.3	-55.0	3.7	0.00e+00	0	45	104	0	73	23024
2026-01-24 22:54:53.11	289.19	13.43	-52.5	-57.0	3.7	0.00e+00	0	45	104	0	75	25688
2026-01-24 22:54:55.10	288.60	13.36	-52.5	-57.0	3.7	0.00e+00	0	45	104	0	75	25927
2026-01-24 22:54:57.09	288.02	13.29	-52.2	-56.5	3.7	0.00e+00	0	45	104	0	75	24292
2026-01-24 22:54:59.08	287.45	13.22	-52.1	-56.6	3.7	0.00e+00	0	45	104	0	75	24553
2026-01-24 22:55:01.07	286.88	13.14	-51.8	-56.0	3.7	0.00e+00	0	45	104	0	75	22991
2026-01-24 22:55:03.06	286.31	13.07	-51.7	-56.0	3.7	0.00e+00	0	45	104	0	75	23098
2026-01-24 22:55:05.04	285.74	12.99	-52.2	-56.5	3.7	0.00e+00	0	45	104	0	75	24461
2026-01-24 22:55:07.03	285.18	12.91	-52.2	-56.8	3.7	0.00e+00	0	45	104	0	75	25303
2026-01-24 22:55:09.02	284.62	12.82	-52.2	-56.5	3.7	0.00e+00	0	45	104	0	75	24455
2026-01-24 22:55:11.01	284.07	12.74	-52.5	-56.8	3.7	0.00e+00	0	45	104	0	75	25345
2026-01-24 22:55:13.01	283.52	12.65	-52.3	-56.7	3.7	0.00e+00	0	45	104	0	75	24924
2026-01-24 22:55:15.00	282.97	12.57	-52.2	-56.6	3.7	0.00e+00	0	45	104	0	75	24770
2026-01-24 22:55:16.99	282.43	12.48	-52.4	-56.9	3.7	0.00e+00	0	45	104	0	75	25427
2026-01-24 22:55:18.98	281.89	12.38	-52.3	-56.8	3.7	0.00e+00	0	45	104	0	75	25151
2026-01-24 22:55:20.97	281.36	12.29	-52.2	-56.6	3.7	0.00e+00	0	46	104	0	75	24769
2026-01-24 22:55:22.96	280.83	12.20	-52.0	-56.4	3.7	0.00e+00	0	46	104	0	75	24063
2026-01-24 22:55:24.95	280.30	12.10	-52.1	-56.8	3.7	0.00e+00	0	46	104	0	75	25256
2026-01-24 22:55:26.94	279.78	12.00	-52.2	-56.8	3.7	0.00e+00	0	46	104	0	75	25370
2026-01-24 22:55:28.93	279.26	11.90	-51.7	-56.1	3.7	0.00e+00	0	45	104	0	75	23349
2026-01-24 22:55:30.92	278.75	11.80	-51.7	-56.4	3.7	0.00e+00	0	45	104	0	75	24107
2026-01-24 22:55:32.91	278.24	11.70	-51.9	-56.7	3.7	0.00e+00	0	46	104	0	75	24869
2026-01-24 22:55:34.90	277.73	11.60	-52.0	-56.7	3.7	0.00e+00	0	45	104	0	75	25004
2026-01-24 22:55:36.89	277.23	11.49	-51.7	-55.8	3.7	0.00e+00	0	46	104	0	75	22604
2026-01-24 22:55:38.88	276.74	11.39	-51.8	-56.0	3.7	0.00e+00	0	46	104	0	75	23037
2026-01-24 22:55:40.87	276.25	11.28	-51.7	-56.5	3.7	0.00e+00	0	46	104	0	75	24245
2026-01-24 22:55:42.86	275.76	11.17	-52.1	-56.6	3.7	0.00e+00	0	46	104	0	75	24702
2026-01-24 22:55:44.85	275.28	11.07	-52.1	-56.5	3.7	0.00e+00	0	45	104	0	75	24472
2026-01-24 22:55:46.84	274.80	10.96	-51.8	-56.1	3.7	0.00e+00	0	46	104	0	75	23178
2026-01-24 22:55:48.83	274.32	10.85	-51.9	-56.0	3.7	0.00e+00	0	46	104	0	75	22892
2026-01-24 22:55:50.82	273.85	10.73	-51.5	-55.9	3.7	0.00e+00	0	45	104	0	75	22863
2026-01-24 22:55:52.81	273.39	10.62	-51.5	-56.2	3.7	0.00e+00	0	45	104	0	74	24946
2026-01-24 22:55:54.80	272.93	10.51	-51.6	-56.3	3.7	0.00e+00	0	45	104	0	74	25282
2026-01-24 22:55:56.79	272.47	10.39	-51.8	-56.7	3.7	0.00e+00	0	46	104	0	74	26406
2026-01-24 22:55:58.77	272.02	10.28	-51.4	-56.6	3.7	0.00e+00	0	45	104	0	74	26262
2026-01-24 22:56:00.77	271.57	10.16	-51.9	-56.2	3.7	0.00e+00	0	45	104	0	74	24986
2026-01-24 22:56:02.76	271.13	10.05	-51.9	-56.3	3.7	0.00e+00	0	46	104	0	74	25102
2026-01-24 22:56:04.75	270.69	9.93	-52.0	-56.3	3.7	0.00e+00	0	46	104	0	74	25235
2026-01-24 22:56:06.74	270.26	9.81	-52.0	-56.3	3.7	0.00e+00	0	46	104	0	74	25352
2026-01-24 22:56:08.73	269.83	9.70	-52.1	-56.5	3.7	0.00e+00	0	46	104	0	74	25803
2026-01-24 22:56:10.72	269.40	9.58	-51.9	-56.6	3.7	0.00e+00	0	46	104	0	74	26165
2026-01-24 22:56:12.71	268.98	9.46	-51.6	-56.4	3.7	0.00e+00	0	46	104	0	74	25604
2026-01-24 22:56:14.70	268.56	9.34	-51.9	-56.6	3.7	0.00e+00	0	46	104	0	74	26131
2026-01-24 22:56:16.70	268.15	9.22	-52.0	-56.6	3.7	0.00e+00	0	46	104	0	74	26206
2026-01-24 22:56:18.69	267.74	9.10	-52.1	-56.6	3.7	0.00e+00	0	46	104	0	74	26048
2026-01-24 22:56:20.68	267.34	8.98	-52.2	-56.8	3.6	0.00e+00	0	45	104	0	75	25320
2026-01-24 22:56:22.67	266.94	8.86	-52.3	-56.8	3.7	0.00e+00	0	46	104	0	75	25114
2026-01-24 22:56:24.65	266.54	8.74	-52.7	-57.3	3.7	0.00e+00	0	46	104	0	76	25372
2026-01-24 22:56:26.64	266.15	8.62	-52.9	-57.3	3.7	0.00e+00	0	45	104	0	76	25295
2026-01-24 22:56:28.63	265.76	8.49	-52.9	-57.5	3.7	0.00e+00	0	46	104	0	76	25839
2026-01-24 22:56:30.61	265.38	8.37	-52.7	-57.4	3.7	0.00e+00	0	46	104	0	76	25625
2026-01-24 22:56:32.60	265.00	8.25	-52.5	-57.3	3.7	0.00e+00	0	45	104	0	76	25219
2026-01-24 22:56:34.59	264.62	8.13	-52.5	-57.2	3.7	0.00e+00	0	46	104	0	76	25086
2026-01-24 22:56:36.57	264.25	8.01	-5
