passes_logs/2026/01/24/T1/T1__20260124_113911_SUOMI_NPP_rec.log

#Pass ID: 20260124_113911_SUOMI NPP
#Satellite: SUOMI NPP
#Configuration: NPP
#almurnet v.1.7.20251203
#Start time: 2026-01-24 11:39:14

#Version: 2.0.20230620
#Station: T1
#Location: 37.570604 lon 55.790049 lat
#TLE: 1 37849U 11061A   26023.63275593  .00000212  00000+0  12133-3 0  9990
#TLE: 2 37849  98.7820 325.6074 0002234  48.9695 311.1673 14.19528901737937

#Time	Az	El	Level	Level2	SNR	BER	BlckErr	Temp	State	Recorded	gain1	gain2
2026-01-24 11:39:14.05	215.04	5.13	-46.2	-63.2	3.8	1.49e+00	0	35	0	0	64	24819
2026-01-24 11:39:17.03	215.32	5.30	-46.3	-63.3	3.8	1.49e+00	0	35	104	0	63	26463
2026-01-24 11:39:20.01	215.60	5.47	-46.3	-63.2	3.8	1.49e+00	0	35	104	0	63	26365
2026-01-24 11:39:22.99	215.89	5.65	-46.3	-63.2	3.8	1.49e+00	0	35	104	0	63	26212
2026-01-24 11:39:25.97	216.17	5.82	-46.3	-63.2	3.8	1.49e+00	0	35	104	0	63	26277
2026-01-24 11:39:28.95	216.47	5.99	-46.3	-63.2	3.8	1.49e+00	0	35	104	0	63	26414
2026-01-24 11:39:31.93	216.76	6.17	-46.3	-63.2	3.8	1.49e+00	0	35	104	0	63	26201
2026-01-24 11:39:34.90	217.06	6.34	-46.3	-63.1	3.8	1.49e+00	0	36	104	0	63	26050
2026-01-24 11:39:37.88	217.36	6.52	-46.3	-63.2	3.8	1.49e+00	0	35	104	0	63	26341
2026-01-24 11:39:40.86	217.66	6.69	-46.3	-63.2	3.8	1.49e+00	0	36	104	0	63	26314
2026-01-24 11:39:43.84	217.97	6.87	-46.3	-63.1	3.8	1.49e+00	0	36	104	0	63	25986
2026-01-24 11:39:46.82	218.28	7.04	-46.3	-62.8	3.8	1.49e+00	0	36	104	0	63	25210
2026-01-24 11:39:49.80	218.60	7.22	-46.3	-62.9	3.8	1.49e+00	0	36	104	0	63	25451
2026-01-24 11:39:52.78	218.92	7.40	-46.3	-62.7	3.8	1.49e+00	0	36	104	0	63	24946
2026-01-24 11:39:55.76	219.24	7.58	-46.3	-62.9	3.8	1.49e+00	0	36	104	0	63	25277
2026-01-24 11:39:58.74	219.57	7.76	-46.3	-62.7	3.8	1.49e+00	0	36	104	0	63	24847
2026-01-24 11:40:01.72	219.90	7.94	-46.2	-61.3	3.8	1.49e+00	0	36	104	0	63	21213
2026-01-24 11:40:04.70	220.23	8.12	-46.3	-63.1	3.8	1.49e+00	0	36	104	0	63	25936
2026-01-24 11:40:07.68	220.57	8.30	-45.4	-53.7	8.2	2.40e-01	0	36	0	2097152	62	9293
2026-01-24 11:40:10.66	220.91	8.48	-43.5	-48.0	13.9	1.37e-05	0	36	0	7340032	59	5779
2026-01-24 11:40:13.64	221.26	8.66	-43.0	-47.0	14.9	0.00e+00	0	36	0	13631488	57	5757
2026-01-24 11:40:16.62	221.61	8.84	-44.2	-49.5	12.5	3.58e-05	0	36	0	18874368	59	6826
2026-01-24 11:40:19.60	221.97	9.02	-45.5	-54.3	7.6	3.37e-02	0	36	0	24117248	61	10628
2026-01-24 11:40:22.58	222.33	9.20	-45.9	-55.5	6.7	3.37e-04	0	36	0	30408704	62	11442
2026-01-24 11:40:25.56	222.69	9.39	-45.5	-50.7	11.4	3.67e-03	0	37	0	35651584	62	6589
2026-01-24 11:40:28.55	223.06	9.57	-45.2	-49.8	12.3	3.00e-04	0	37	0	40894464	62	5951
2026-01-24 11:40:31.53	223.43	9.75	-44.5	-48.2	14.0	1.50e-06	0	37	0	47185920	60	5578
2026-01-24 11:40:34.52	223.81	9.94	-44.6	-48.4	13.8	1.06e-05	0	37	0	52428800	60	5667
2026-01-24 11:40:37.50	224.19	10.12	-43.6	-46.8	15.4	0.00e+00	0	37	0	57671680	58	5295
2026-01-24 11:40:40.49	224.58	10.31	-43.1	-46.0	16.2	0.00e+00	0	37	0	63963136	58	4864
2026-01-24 11:40:43.47	224.97	10.49	-42.9	-45.8	16.5	0.00e+00	0	37	0	69206016	57	4984
2026-01-24 11:40:46.46	225.37	10.68	-42.6	-45.4	16.9	0.00e+00	0	37	0	74448896	57	4764
2026-01-24 11:40:49.44	225.77	10.86	-42.5	-45.3	17.0	0.00e+00	0	37	0	80740352	56	4987
2026-01-24 11:40:52.43	226.18	11.05	-42.6	-45.4	16.9	0.00e+00	0	37	0	85983232	56	5042
2026-01-24 11:40:55.41	226.59	11.23	-42.3	-45.0	17.2	0.00e+00	0	37	0	91226112	56	4836
2026-01-24 11:40:58.39	227.01	11.42	-41.9	-44.5	17.6	0.00e+00	0	37	0	97517568	55	4835
2026-01-24 11:41:01.37	227.43	11.60	-41.8	-44.4	17.6	0.00e+00	0	37	0	102760448	55	4785
2026-01-24 11:41:04.36	227.86	11.79	-41.6	-44.1	17.9	0.00e+00	0	37	0	108003328	55	4647
2026-01-24 11:41:07.34	228.29	11.97	-41.7	-44.3	17.8	0.00e+00	0	37	0	114294784	55	4708
2026-01-24 11:41:10.32	228.73	12.16	-41.8	-44.3	17.8	0.00e+00	0	37	0	119537664	55	4740
2026-01-24 11:41:13.31	229.17	12.34	-42.0	-44.6	17.5	0.00e+00	0	37	0	124780544	55	4894
2026-01-24 11:41:16.29	229.62	12.53	-42.0	-44.6	17.5	0.00e+00	0	37	0	131072000	55	4872
2026-01-24 11:41:19.28	230.07	12.71	-41.9	-44.5	17.6	0.00e+00	0	37	0	136314880	55	4845
2026-01-24 11:41:22.27	230.54	12.90	-41.8	-44.4	17.7	0.00e+00	0	37	0	141557760	55	4780
2026-01-24 11:41:25.25	231.00	13.08	-42.0	-44.6	17.6	0.00e+00	0	37	0	147849216	55	4871
2026-01-24 11:41:28.24	231.47	13.26	-41.8	-44.3	17.9	0.00e+00	0	37	0	153092096	55	4731
2026-01-24 11:41:31.22	231.95	13.45	-41.4	-43.9	18.2	0.00e+00	0	37	0	158334976	54	4778
2026-01-24 11:41:34.20	232.43	13.63	-41.4	-43.9	18.2	0.00e+00	0	37	0	164626432	54	4778
2026-01-24 11:41:37.19	232.92	13.81	-41.3	-43.7	18.5	0.00e+00	0	37	0	169869312	54	4661
2026-01-24 11:41:40.17	233.41	13.99	-41.3	-43.7	18.5	0.00e+00	0	37	0	175112192	54	4657
2026-01-24 11:41:43.16	233.91	14.17	-41.4	-43.9	18.2	0.00e+00	0	37	0	181403648	54	4781
2026-01-24 11:41:46.14	234.42	14.35	-41.5	-44.0	18.2	0.00e+00	0	37	0	186646528	54	4852
2026-01-24 11:41:49.13	234.93	14.54	-41.6	-44.2	18.0	0.00e+00	0	37	0	191889408	54	4927
2026-01-24 11:41:52.11	235.45	14.71	-41.8	-44.4	17.8	0.00e+00	0	37	0	198180864	54	5082
2026-01-24 11:41:55.09	235.97	14.89	-42.2	-44.9	17.3	0.00e+00	0	37	0	203423744	55	5059
2026-01-24 11:41:58.08	236.50	15.07	-41.8	-44.4	17.8	0.00e+00	0	37	0	208666624	55	4787
2026-01-24 11:42:01.06	237.04	15.24	-41.6	-44.1	18.1	0.00e+00	0	37	0	214958080	54	4896
2026-01-24 11:42:04.05	237.58	15.42	-42.0	-44.6	17.6	0.00e+00	0	37	0	220200960	54	5165
2026-01-24 11:42:07.03	238.13	15.59	-41.6	-44.1	18.1	0.00e+00	0	37	0	225443840	54	4885
2026-01-24 11:42:10.01	238.68	15.77	-41.2	-43.5	18.6	0.00e+00	0	37	0	231735296	54	4598
2026-01-24 11:42:12.99	239.24	15.94	-41.2	-43.6	18.6	0.00e+00	0	37	0	236978176	54	4618
2026-01-24 11:42:15.98	239.81	16.11	-41.2	-43.6	18.5	0.00e+00	0	37	0	242221056	54	4620
2026-01-24 11:42:18.97	240.39	16.28	-41.1	-43.5	18.7	0.00e+00	0	37	0	248512512	54	4567
2026-01-24 11:42:21.95	240.96	16.44	-41.4	-43.8	18.4	0.00e+00	0	37	0	253755392	54	4706
2026-01-24 11:42:24.93	241.55	16.61	-41.5	-43.9	18.3	0.00e+00	0	37	0	258998272	54	4803
2026-01-24 11:42:27.92	242.14	16.77	-41.1	-43.5	18.7	0.00e+00	0	37	0	265289728	54	4563
2026-01-24 11:42:30.90	242.74	16.93	-41.2	-43.6	18.6	0.00e+00	0	37	0	270532608	54	4601
2026-01-24 11:42:33.89	243.35	17.09	-41.6	-44.0	18.2	0.00e+00	0	37	0	275775488	54	4845
2026-01-24 11:42:36.88	243.96	17.25	-41.6	-44.1	18.2	0.00e+00	0	37	0	282066944	54	4876
2026-01-24 11:42:39.86	244.58	17.40	-41.5	-43.9	18.3	0.00e+00	0	37	0	287309824	54	4780
2026-01-24 11:42:42.84	245.20	17.56	-41.9	-44.4	17.8	0.00e+00	0	37	0	293601280	54	5099
2026-01-24 11:42:45.82	245.83	17.71	-41.9	-44.6	17.0	3.89e-05	0	37	0	298844160	54	5218
2026-01-24 11:42:48.81	246.46	17.85	-41.1	-44.6	16.7	1.56e-02	0	37	0	304087040	54	5205
2026-01-24 11:42:51.79	247.10	18.00	-42.4	-45.1	17.2	0.00e+00	0	37	0	309329920	55	5163
2026-01-24 11:42:54.78	247.75	18.14	-42.5	-45.1	17.1	0.00e+00	0	37	0	315621376	55	5204
2026-01-24 11:42:57.77	248.41	18.28	-43.0	-45.9	16.5	0.00e+00	0	37	0	320864256	56	5360
2026-01-24 11:43:00.75	249.06	18.42	-43.2	-46.1	16.4	0.00e+00	0	37	0	326107136	57	5198
2026-01-24 11:43:03.73	249.73	18.55	-43.2	-46.0	16.4	0.00e+00	0	37	0	332398592	57	5154
2026-01-24 11:43:06.72	250.40	18.69	-43.3	-46.2	16.2	0.00e+00	0	37	0	337641472	57	5250
2026-01-24 11:43:09.70	251.07	18.81	-42.9	-45.7	16.7	0.00e+00	0	37	0	342884352	57	4946
2026-01-24 11:43:12.69	251.76	18.94	-42.8	-45.5	16.9	0.00e+00	0	37	0	349175808	57	4846
2026-01-24 11:43:15.67	252.44	19.06	-42.5	-45.2	17.3	0.00e+00	0	37	0	354418688	57	4657
2026-01-24 11:43:18.66	253.14	19.18	-41.9	-44.5	17.8	0.00e+00	0	37	0	360710144	55	4818
2026-01-24 11:43:21.64	253.83	19.29	-42.0	-44.6	17.7	0.00e+00	0	37	0	365953024	55	4900
2026-01-24 11:43:24.62	254.53	19.40	-41.9	-44.4	17.9	0.00e+00	0	37	0	371195904	55	4793
2026-01-24 11:43:27.60	255.24	19.51	-41.5	-43.9	18.4	0.00e+00	0	37	0	377487360	54	4775
2026-01-24 11:43:30.59	255.95	19.61	-41.9	-44.5	17.8	0.00e+00	0	37	0	382730240	54	5104
2026-01-24 11:43:33.57	256.67	19.71	-41.2	-43.5	18.7	0.00e+00	0	37	0	387973120	54	4575
2026-01-24 11:43:36.56	257.39	19.81	-40.9	-43.2	19.0	0.00e+00	0	37	0	394264576	53	4686
2026-01-24 11:43:39.55	258.12	19.90	-40.9	-43.2	19.0	0.00e+00	0	37	0	399507456	53	4656
2026-01-24 11:43:42.53	258.85	19.98	-40.8	-43.0	19.1	0.00e+00	0	37	0	404750336	53	4594
2026-01-24 11:43:45.52	259.58	20.07	-41.3	-43.7	18.5	0.00e+00	0	37	0	411041792	53	4964
2026-01-24 11:43:48.50	260.32	20.14	-41.0	-43.3	18.9	0.00e+00	0	37	0	416284672	53	4735
2026-01-24 11:43:51.48	261.06	20.22	-41.2	-43.7	18.6	0.00e+00	0	37	0	421527552	53	4941
2026-01-24 11:43:54.47	261.80	20.29	-41.1	-43.4	18.8	0.00e+00	0	37	0	427819008	53	4801
2026-01-24 11:43:57.45	262.55	20.35	-41.1	-43.4	18.8	0.00e+00	0	37	0	433061888	53	4782
2026-01-24 11:44:00.44	263.30	20.41	-41.2	-43.6	18.7	0.00e+00	0	37	0	438304768	53	4895
2026-01-24 11:44:03.42	264.05	20.46	-40.7	-43.0	19.1	0.00e+00	0	37	0	444596224	53	4588
2026-01-24 11:44:06.41	264.80	20.51	-41.5	-43.9	18.4	0.00e+00	0	37	0	449839104	53	5088
2026-01-24 11:44:09.39	265.56	20.56	-41.5	-43.9	18.4	0.00e+00	0	37	0	455081984	54	4784
2026-01-24 11:44:12.38	266.32	20.60	-41.8	-44.3	17.9	0.00e+00	0	37	0	461373440	54	5024
2026-01-24 11:44:15.36	267.08	20.64	-41.9	-44.4	17.9	0.00e+00	0	37	0	466616320	54	5096
2026-01-24 11:44:18.34	267.84	20.67	-41.3	-43.7	18.6	0.00e+00	0	37	0	471859200	54	4659
2026-01-24 11:44:21.33	268.61	20.69	-41.3	-43.7	18.5	0.00e+00	0	37	0	478150656	54	4687
2026-01-24 11:44:24.31	269.37	20.71	-41.1	-43.5	18.8	0.00e+00	0	37	0	483393536	54	4551
2026-01-24 11:44:27.29	270.13	20.73	-41.8	-44.3	18.0	0.00e+00	0	37	0	488636416	54	4992
2026-01-24 11:44:30.28	270.90	20.74	-42.3	-44.9	17.4	0.00e+00	0	37	0	494927872	55	5098
2026-01-24 11:44:33.26	271.67	20.74	-42.1	-44.7	17.6	0.00e+00	0	37	0	500170752	55	4951
2026-01-24 11:44:36.24	272.43	20.74	-42.1	-44.6	17.7	0.00e+00	0	37	0	505413632	55	4903
2026-01-24 11:44:39.23	273.20	20.73	-42.0	-44.6	17.7	0.00e+00	0	37	0	511705088	55	4895
2026-01-24 11:44:42.21	273.96	20.72	-42.1	-44.7	17.6	0.00e+00	0	37	0	516947968	55	4978
2026-01-24 11:44:45.19	274.73	20.71	-41.9	-44.4	17.9	0.00e+00	0	37	0	522190848	55	4791
2026-01-24 11:44:48.18	275.49	20.69	-42.2	-44.8	17.5	0.00e+00	0	37	0	528482304	55	5038
2026-01-24 11:44:51.16	276.25	20.66	-42.7	-45.4	17.1	0.00e+00	0	37	0	533725184	56	5083
2026-01-24 11:44:54.15	277.02	20.63	-42.4	-45.0	17.5	0.00e+00	0	37	0	538968064	56	4850
2026-01-24 11:44:57.13	277.77	20.60	-42.5	-45.1	17.4	0.00e+00	0	37	0	545259520	56	4921
2026-01-24 11:45:00.11	278.53	20.56	-41.7	-44.2	18.1	0.00e+00	0	37	0	550502400	55	4664
2026-01-24 11:45:03.09	279.28	20.51	-41.5	-43.9	18.5	0.00e+00	0	37	0	555745280	54	4760
2026-01-24 11:45:06.08	280.04	20.46	-41.5	-43.9	18.4	0.00e+00	0	37	0	562036736	54	4801
2026-01-24 11:45:09.07	280.79	20.41	-42.0	-44.5	17.8	0.00e+00	0	37	0	567279616	54	5134
2026-01-24 11:45:12.05	281.54	20.35	-41.9	-44.5	17.8	0.00e+00	0	37	0	572522496	54	5105
2026-01-24 11:45:15.03	282.28	20.28	-41.8	-44.3	18.0	0.00e+00	0	37	0	578813952	54	5019
2026-01-24 11:45:18.02	283.02	20.21	-41.7	-44.2	18.1	0.00e+00	0	37	0	584056832	54	4950
2026-01-24 11:45:21.00	283.76	20.14	-41.8	-44.3	18.0	0.00e+00	0	38	0	589299712	54	5020
2026-01-24 11:45:23.99	284.50	20.06	-41.5	-43.9	18.3	0.00e+00	0	37	0	595591168	54	4794
2026-01-24 11:45:26.97	285.23	19.98	-41.5	-44.0	18.3	0.00e+00	0	37	0	600834048	54	4831
2026-01-24 11:45:29.96	285.96	19.89	-42.0	-44.5	17.8	0.00e+00	0	37	0	606076928	54	5135
2026-01-24 11:45:32.95	286.68	19.80	-42.0	-44.6	17.7	0.00e+00	0	37	0	612368384	54	5193
2026-01-24 11:45:35.93	287.40	19.71	-42.5	-45.3	17.0	0.00e+00	0	37	0	617611264	55	5292
2026-01-24 11:45:38.92	288.11	19.61	-42.2	-44.9	17.4	0.00e+00	0	37	0	622854144	55	5045
2026-01-24 11:45:41.90	288.82	19.50	-41.5	-43.9	18.4	0.00e+00	0	37	0	629145600	54	4773
2026-01-24 11:45:44.89	289.53	19.40	-41.7	-44.1	18.2	0.00e+00	0	37	0	634388480	54	4917
2026-01-24 11:45:47.87	290.22	19.29	-41.3	-43.7	18.6	0.00e+00	0	38	0	639631360	54	4664
2026-01-24 11:45:50.86	290.92	19.17	-41.3	-43.7	18.5	0.00e+00	0	37	0	645922816	54	4695
2026-01-24 11:45:53.84	291.61	19.06	-41.6	-44.1	18.2	0.00e+00	0	37	0	651165696	54	4883
2026-01-24 11:45:56.83	292.29	18.93	-41.4	-43.8	18.5	0.00e+00	0	37	0	656408576	54	4717
2026-01-24 11:45:59.81	292.97	18.81	-40.9	-43.2	19.0	0.00e+00	0	37	0	662700032	53	4683
2026-01-24 11:46:02.80	293.64	18.68	-41.2	-43.5	18.7	0.00e+00	0	37	0	667942912	53	4845
2026-01-24 11:46:05.79	294.31	18.55	-41.3	-43.7	18.6	0.00e+00	0	37	0	673185792	53	4927
2026-01-24 11:46:08.77	294.97	18.42	-41.4	-43.8	18.3	0.00e+00	0	37	0	679477248	53	5026
2026-01-24 11:46:11.75	295.63	18.28	-42.1	-44.7	17.6	0.00e+00	0	37	0	684720128	54	5226
2026-01-24 11:46:14.73	296.28	18.14	-41.9	-44.5	17.8	0.00e+00	0	37	0	689963008	54	5123
2026-01-24 11:46:17.72	296.92	18.00	-41.6	-44.1	18.1	0.00e+00	0	37	0	696254464	54	4926
2026-01-24 11:46:20.70	297.56	17.86	-41.6	-44.1	18.1	0.00e+00	0	37	0	701497344	54	4888
2026-01-24 11:46:23.69	298.19	17.71	-42.0	-44.6	17.7	0.00e+00	0	37	0	706740224	54	5172
2026-01-24 11:46:26.67	298.82	17.56	-42.6	-45.4	16.9	0.00e+00	0	37	0	713031680	55	5348
2026-01-24 11:46:29.66	299.44	17.41	-42.2	-44.8	17.4	0.00e+00	0	37	0	718274560	55	5012
2026-01-24 11:46:32.64	300.05	17.25	-42.4	-45.0	17.2	0.00e+00	0	37	0	723517440	55	5152
2026-01-24 11:46:35.63	300.66	17.10	-42.1	-44.7	17.5	0.00e+00	0	37	0	729808896	55	4937
2026-01-24 11:46:38.61	301.26	16.94	-41.7	-44.2	18.0	0.00e+00	0	37	0	735051776	55	4673
2026-01-24 11:46:41.59	301.86	16.78	-42.1	-44.7	17.5	0.00e+00	0	37	0	740294656	55	4976
2026-01-24 11:46:44.58	302.45	16.62	-43.0	-45.9	16.6	0.00e+00	0	37	0	746586112	56	5343
2026-01-24 11:46:47.56	303.03	16.45	-43.6	-46.6	15.8	0.00e+00	0	37	0	751828992	57	5505
2026-01-24 11:46:50.55	303.61	16.29	-43.1	-46.1	16.4	0.00e+00	0	37	0	757071872	58	4878
2026-01-24 11:46:53.53	304.18	16.12	-42.6	-45.4	17.0	0.00e+00	0	37	0	763363328	57	4760
2026-01-24 11:46:56.52	304.74	15.95	-42.2	-44.8	17.6	0.00e+00	0	37	0	768606208	56	4736
2026-01-24 11:46:59.50	305.30	15.78	-42.1	-44.7	17.5	0.00e+00	0	37	0	773849088	55	4952
2026-01-24 11:47:02.47	305.85	15.61	-43.3	-46.3	16.1	0.00e+00	0	37	0	780140544	57	5325
2026-01-24 11:47:05.45	306.39	15.44	-43.4	-46.5	15.9	0.00e+00	0	38	0	785383424	57	5429
2026-01-24 11:47:08.44	306.93	15.27	-42.8	-45.6	16.8	0.00e+00	0	37	0	790626304	57	4901
2026-01-24 11:47:11.42	307.46	15.09	-42.8	-45.6	16.8	0.00e+00	0	37	0	796917760	57	4901
2026-01-24 11:47:14.41	307.99	14.92	-42.6	-45.3	17.0	0.00e+00	0	37	0	802160640	57	4755
2026-01-24 11:47:17.39	308.51	14.74	-42.2	-44.8	17.5	0.00e+00	0	37	0	807403520	56	4720
2026-01-24 11:47:20.37	309.03	14.57	-42.4	-45.1	17.2	0.00e+00	0	37	0	813694976	56	4911
2026-01-24 11:47:23.36	309.54	14.39	-42.6	-45.4	17.0	0.00e+00	0	37	0	818937856	56	5060
2026-01-24 11:47:26.34	310.04	14.21	-42.6	-45.4	16.9	0.00e+00	0	37	0	824180736	56	5082
2026-01-24 11:47:29.33	310.54	14.03	-42.2	-44.9	17.4	0.00e+00	0	37	0	830472192	56	4801
2026-01-24 11:47:32.31	311.03	13.85	-42.4	-45.2	17.2	0.00e+00	0	37	0	835715072	56	4934
2026-01-24 11:47:35.30	311.52	13.67	-42.4	-45.2	17.1	0.00e+00	0	37	0	840957952	56	4951
2026-01-24 11:47:38.28	312.00	13.49	-42.3	-45.1	17.2	0.00e+00	0	37	0	847249408	56	4872
2026-01-24 11:47:41.27	312.47	13.31	-42.6	-45.4	16.9	0.00e+00	0	37	0	852492288	56	5093
2026-01-24 11:47:44.26	312.94	13.12	-42.5	-45.3	17.0	0.00e+00	0	37	0	857735168	56	5015
2026-01-24 11:47:47.25	313.41	12.94	-41.7	-44.3	17.8	0.00e+00	0	37	0	864026624	55	4735
2026-01-24 11:47:50.23	313.86	12.76	-41.7	-44.3	17.7	0.00e+00	0	37	0	869269504	54	5041
2026-01-24 11:47:53.22	314.31	12.58	-41.5	-44.2	17.9	0.00e+00	0	37	0	874512384	54	4927
2026-01-24 11:47:56.20	314.76	12.39	-42.2	-45.0	17.1	0.00e+00	0	37	0	880803840	55	5116
2026-01-24 11:47:59.18	315.20	12.21	-42.2	-45.0	17.1	0.00e+00	0	37	0	886046720	55	5125
2026-01-24 11:48:02.17	315.64	12.03	-41.6	-44.3	17.8	0.00e+00	0	37	0	891289600	55	4720
2026-01-24 11:48:05.15	316.07	11.84	-41.6	-44.2	17.8	0.00e+00	0	38	0	897581056	54	4977
2026-01-24 11:48:08.14	316.50	11.66	-41.8	-44.5	17.5	0.00e+00	0	37	0	902823936	54	5146
2026-01-24 11:48:11.12	316.91	11.48	-41.9	-44.6	17.3	0.00e+00	0	38	0	908066816	54	5217
2026-01-24 11:48:14.11	317.33	11.29	-42.0	-44.7	17.3	0.00e+00	0	38	0	914358272	54	5235
2026-01-24 11:48:17.09	317.74	11.11	-42.1	-44.8	17.1	0.00e+00	0	37	0	919601152	55	5034
2026-01-24 11:48:20.07	318.15	10.93	-42.6	-45.6	16.5	0.00e+00	0	37	0	924844032	55	5483
2026-01-24 11:48:23.04	318.54	10.75	-43.2	-46.4	15.8	0.00e+00	0	37	0	931135488	57	5385
2026-01-24 11:48:26.02	318.94	10.56	-43.0	-46.2	16.0	0.00e+00	0	38	0	936378368	57	5232
2026-01-24 11:48:29.01	319.33	10.38	-42.5	-45.6	16.6	0.00e+00	0	38	0	941621248	56	5196
2026-01-24 11:48:31.99	319.72	10.20	-42.6	-45.8	16.4	0.00e+00	0	37	0	947912704	56	5302
2026-01-24 11:48:34.97	320.10	10.02	-42.5	-45.6	16.5	0.00e+00	0	38	0	953155584	56	5176
2026-01-24 11:48:37.96	320.48	9.84	-42.6	-45.7	16.4	0.00e+00	0	37	0	958398464	56	5228
2026-01-24 11:48:40.94	320.85	9.65	-42.4	-45.3	16.8	0.00e+00	0	37	0	964689920	56	5031
2026-01-24 11:48:43.92	321.22	9.47	-42.5	-45.5	16.6	0.00e+00	0	37	0	969932800	56	5133
2026-01-24 11:48:46.90	321.58	9.29	-42.8	-45.9	16.2	0.00e+00	0	38	0	976224256	56	5361
2026-01-24 11:48:49.89	321.94	9.11	-42.8	-45.9	16.2	0.00e+00	0	37	0	981467136	56	5357
2026-01-24 11:48:52.87	322.30	8.93	-47.6	-63.5	3.8	1.49e+00	0	37	104	984612864	66	22812
2026-01-24 11:48:55.85	322.65	8.75	-48.5	-63.8	3.8	1.49e+00	0	38	104	984612864	67	22469
2026-01-24 11:48:58.83	322.99	8.57	-48.8	-64.2	3.8	1.49e+00	0	38	104	984612864	68	22018
2026-01-24 11:49:01.80	323.33	8.40	-48.9	-64.2	3.8	1.49e+00	0	38	104	984612864	68	22094
2026-01-24 11:49:04.78	323.67	8.22	-48.6	-64.1	3.8	1.49e+00	0	38	104	984612864	68	21854
2026-01-24 11:49:07.76	324.01	8.04	-49.0	-64.2	3.8	1.49e+00	0	37	104	984612864	68	22229
2026-01-24 11:49:10.74	324.34	7.86	-48.9	-64.2	3.8	1.49e+00	0	38	104	984612864	68	22130
2026-01-24 11:49:13.72	324.66	7.68	-48.7	-64.1	3.8	1.49e+00	0	37	104	984612864	68	21912
2026-01-24 11:49:16.70	324.99	7.51	-48.7	-64.1	3.8	1.49e+00	0	38	104	984612864	68	21808
2026-01-24 11:49:19.68	325.31	7.33	-48.7	-64.1	3.8	1.49e+00	0	38	104	984612864	68	21867
2026-01-24 11:49:22.66	325.62	7.16	-48.7	-64.1	3.8	1.49e+00	0	37	104	984612864	68	21892
2026-01-24 11:49:25.64	325.93	6.98	-48.7	-64.1	3.8	1.49e+00	0	38	104	984612864	68	21804
2026-01-24 11:49:28.62	326.24	6.81	-48.7	-64.1	3.8	1.49e+00	0	37	104	984612864	68	21764
2026-01-24 11:49:31.60	326.55	6.63	-48.7	-64.1	3.8	1.49e+00	0	38	104	984612864	68	21805
2026-01-24 11:49:34.58	326.85	6.46	-48.7	-64.1	3.8	1.49e+00	0	38	104	984612864	68	21829
2026-01-24 11:49:37.55	327.15	6.29	-48.7	-64.1	3.8	1.49e+00	0	38	104	984612864	68	21807
2026-01-24 11:49:40.53	327.44	6.12	-48.7	-64.1	3.8	1.49e+00	0	38	104	984612864	68	21793
2026-01-24 11:49:43.51	327.73	5.94	-48.7	-64.1	3.8	1.49e+00	0	38	104	984612864	68	21805
2026-01-24 11:49:46.49	328.02	5.77	-48.7	-64.1	3.8	1.49e+00	0	38	104	984612864	68	21778
2026-01-24 11:49:49.47	328.31	5.60	-48.7	-64.1	3.8	1.49e+00	0	38	104	984612864	68	21845
2026-01-24 11:49:52.45	328.59	5.43	-48.7	-64.1	3.8	1.49e+00	0	37	104	984612864	68	21799
2026-01-24 11:49:55.43	328.87	5.26	-48.7	-64.1	3.8	1.49e+00	0	38	104	984612864	68	21757
2026-01-24 11:49:58.41	329.14	5.09	-48.7	-64.1	3.8	1.49e+00	0	38	104	984612864	68	21808

#Closed at: 2026-01-24 11:50:01
#Recorded file [984 MB]: D:/Data/31040_260124_143914.dat