passes_logs/2026/01/24/T1/T1__20260124_234750_SUOMI_NPP_rec.log

#Pass ID: 20260124_234750_SUOMI NPP
#Satellite: SUOMI NPP
#Configuration: NPP
#almurnet v.1.7.20251203
#Start time: 2026-01-24 23:47:52

#Version: 2.0.20230620
#Station: T1
#Location: 37.570604 lon 55.790049 lat
#TLE: 1 37849U 11061A   26024.54906732  .00000185  00000+0  10878-3 0  9990
#TLE: 2 37849  98.7821 326.5159 0002200  47.3746 312.7615 14.19529340738061

#Time	Az	El	Level	Level2	SNR	BER	BlckErr	Temp	State	Recorded	gain1	gain2
2026-01-24 23:47:52.70	16.21	5.15	-46.7	-63.0	3.8	1.49e+00	0	35	0	0	65	23019
2026-01-24 23:47:56.67	16.22	5.44	-46.6	-63.1	3.8	1.49e+00	0	35	104	0	64	24511
2026-01-24 23:48:00.64	16.23	5.73	-46.7	-63.0	3.8	1.49e+00	0	35	104	0	64	24326
2026-01-24 23:48:04.61	16.24	6.02	-46.7	-63.1	3.8	1.49e+00	0	35	104	0	64	24445
2026-01-24 23:48:08.58	16.25	6.32	-46.7	-63.1	3.8	1.49e+00	0	36	104	0	64	24424
2026-01-24 23:48:12.56	16.26	6.61	-46.7	-62.9	3.8	1.49e+00	0	36	104	0	64	24127
2026-01-24 23:48:16.53	16.27	6.92	-46.6	-62.6	3.8	1.49e+00	0	36	104	0	64	23132
2026-01-24 23:48:20.50	16.28	7.22	-46.6	-62.0	3.8	1.49e+00	0	36	104	0	64	21753
2026-01-24 23:48:24.44	16.28	7.53	-46.6	-61.3	3.8	1.49e+00	0	36	104	0	64	20003
2026-01-24 23:48:28.42	16.29	7.84	-46.5	-60.3	3.9	1.47e+00	0	36	104	0	64	17777
2026-01-24 23:48:32.39	16.30	8.16	-46.4	-58.4	4.6	1.18e+00	0	36	0	2097152	64	14214
2026-01-24 23:48:36.36	16.31	8.48	-46.1	-56.2	5.9	4.52e-01	0	36	0	9437184	64	11048
2026-01-24 23:48:40.33	16.32	8.81	-45.9	-54.3	7.4	1.15e-01	0	36	0	16777216	63	9494
2026-01-24 23:48:44.31	16.32	9.14	-46.1	-54.8	7.1	1.44e-01	0	36	0	24117248	63	9954
2026-01-24 23:48:48.28	16.33	9.47	-43.8	-48.4	13.5	2.89e-05	0	36	0	29360128	59	6042
2026-01-24 23:48:52.26	16.34	9.81	-42.6	-46.3	15.7	0.00e+00	0	36	0	36700160	57	5311
2026-01-24 23:48:56.24	16.34	10.16	-42.4	-46.0	16.0	0.00e+00	0	36	0	44040192	56	5443
2026-01-24 23:49:00.21	16.35	10.50	-42.4	-45.9	16.0	0.00e+00	0	36	0	51380224	56	5371
2026-01-24 23:49:04.19	16.36	10.86	-42.2	-45.6	16.4	0.00e+00	0	36	0	59768832	56	5194
2026-01-24 23:49:08.17	16.36	11.22	-42.2	-45.8	16.2	0.00e+00	0	37	0	67108864	56	5283
2026-01-24 23:49:12.15	16.37	11.58	-42.1	-45.4	16.6	0.00e+00	0	37	0	74448896	56	5086
2026-01-24 23:49:16.13	16.37	11.95	-42.0	-45.2	16.6	0.00e+00	0	37	0	81788928	55	5277
2026-01-24 23:49:20.10	16.38	12.33	-41.8	-44.9	17.0	0.00e+00	0	37	0	89128960	55	5075
2026-01-24 23:49:24.08	16.38	12.71	-41.6	-44.7	17.2	0.00e+00	0	37	0	96468992	54	5234
2026-01-24 23:49:28.06	16.39	13.10	-41.4	-44.4	17.5	0.00e+00	0	37	0	103809024	54	5046
2026-01-24 23:49:32.04	16.39	13.49	-41.3	-44.2	17.7	0.00e+00	0	37	0	111149056	54	4944
2026-01-24 23:49:36.02	16.40	13.89	-41.3	-44.2	17.7	0.00e+00	0	37	0	118489088	54	4933
2026-01-24 23:49:40.00	16.40	14.30	-41.2	-43.9	18.0	0.00e+00	0	37	0	126877696	54	4778
2026-01-24 23:49:43.98	16.40	14.71	-41.0	-43.6	18.3	0.00e+00	0	37	0	134217728	53	4891
2026-01-24 23:49:47.96	16.41	15.13	-41.1	-43.7	18.3	0.00e+00	0	37	0	141557760	53	4931
2026-01-24 23:49:51.94	16.41	15.56	-41.0	-43.4	18.5	0.00e+00	0	37	0	148897792	53	4797
2026-01-24 23:49:55.91	16.41	16.00	-41.3	-43.8	18.1	0.00e+00	0	37	0	156237824	53	5041
2026-01-24 23:49:59.89	16.41	16.44	-41.0	-43.5	18.4	0.00e+00	0	37	0	163577856	53	4823
2026-01-24 23:50:03.86	16.41	16.90	-41.2	-43.7	18.2	0.00e+00	0	37	0	170917888	53	4965
2026-01-24 23:50:07.84	16.41	17.36	-41.2	-43.7	18.3	0.00e+00	0	37	0	178257920	53	4930
2026-01-24 23:50:11.82	16.41	17.83	-41.2	-43.7	18.2	0.00e+00	0	37	0	185597952	53	4941
2026-01-24 23:50:15.79	16.41	18.31	-41.2	-43.7	18.3	0.00e+00	0	37	0	193986560	53	4945
2026-01-24 23:50:19.78	16.41	18.80	-41.1	-43.6	18.4	0.00e+00	0	37	0	201326592	53	4879
2026-01-24 23:50:23.75	16.41	19.30	-41.2	-43.7	18.2	0.00e+00	0	37	0	208666624	53	4981
2026-01-24 23:50:27.73	16.41	19.81	-41.3	-43.9	18.1	0.00e+00	0	37	0	216006656	53	5046
2026-01-24 23:50:31.71	16.41	20.33	-41.1	-43.7	18.3	0.00e+00	0	37	0	223346688	53	4932
2026-01-24 23:50:35.68	16.40	20.86	-41.0	-43.5	18.4	0.00e+00	0	37	0	230686720	53	4861
2026-01-24 23:50:39.66	16.40	21.40	-41.1	-43.7	18.4	0.00e+00	0	37	0	238026752	53	4927
2026-01-24 23:50:43.64	16.40	21.95	-41.5	-44.1	18.0	0.00e+00	0	37	0	245366784	53	5165
2026-01-24 23:50:47.62	16.39	22.52	-41.3	-43.9	18.1	0.00e+00	0	37	0	253755392	53	5054
2026-01-24 23:50:51.60	16.39	23.10	-41.2	-43.8	18.2	0.00e+00	0	37	0	261095424	53	5004
2026-01-24 23:50:55.58	16.38	23.69	-41.2	-43.9	18.1	0.00e+00	0	37	0	268435456	53	5045
2026-01-24 23:50:59.56	16.37	24.30	-41.2	-43.8	18.2	0.00e+00	0	37	0	275775488	53	4996
2026-01-24 23:51:03.54	16.36	24.92	-41.3	-43.8	18.3	0.00e+00	0	37	0	283115520	53	4991
2026-01-24 23:51:07.51	16.35	25.56	-40.9	-43.2	18.7	0.00e+00	0	37	0	290455552	53	4699
2026-01-24 23:51:11.49	16.34	26.21	-41.4	-43.9	18.2	0.00e+00	0	37	0	297795584	53	5073
2026-01-24 23:51:15.47	16.33	26.88	-41.4	-43.8	18.2	0.00e+00	0	37	0	305135616	54	4725
2026-01-24 23:51:19.45	16.32	27.57	-41.3	-43.8	18.4	0.00e+00	0	37	0	312475648	54	4737
2026-01-24 23:51:23.43	16.30	28.27	-41.7	-44.3	17.8	0.00e+00	0	37	0	320864256	54	5007
2026-01-24 23:51:27.40	16.29	28.99	-42.2	-45.1	17.0	0.00e+00	0	37	0	328204288	55	5207
2026-01-24 23:51:31.38	16.27	29.73	-42.7	-45.8	16.6	0.00e+00	0	37	0	335544320	56	5304
2026-01-24 23:51:35.36	16.25	30.49	-42.6	-45.5	16.9	0.00e+00	0	37	0	342884352	56	5133
2026-01-24 23:51:39.34	16.23	31.27	-43.0	-46.1	16.4	0.00e+00	0	37	0	350224384	56	5467
2026-01-24 23:51:43.32	16.21	32.08	-42.8	-45.6	16.7	0.00e+00	0	37	0	357564416	57	4921
2026-01-24 23:51:47.29	16.19	32.90	-42.9	-45.7	16.7	0.00e+00	0	37	0	364904448	56	5267
2026-01-24 23:51:51.27	16.16	33.75	-43.0	-45.9	16.5	0.00e+00	0	37	0	372244480	57	5074
2026-01-24 23:51:55.25	16.13	34.62	-41.7	-44.3	17.8	0.00e+00	0	37	0	379584512	54	5007
2026-01-24 23:51:59.23	16.10	35.52	-41.3	-43.7	18.4	0.00e+00	0	37	0	387973120	54	4702
2026-01-24 23:52:03.21	16.07	36.44	-40.7	-43.0	19.1	0.00e+00	0	37	0	395313152	52	4826
2026-01-24 23:52:07.19	16.03	37.40	-40.0	-42.2	19.9	0.00e+00	0	37	0	402653184	51	4680
2026-01-24 23:52:11.17	15.99	38.38	-40.0	-42.2	19.9	0.00e+00	0	37	0	409993216	51	4671
2026-01-24 23:52:15.15	15.95	39.38	-39.8	-42.0	20.0	0.00e+00	0	37	0	417333248	50	4856
2026-01-24 23:52:19.12	15.90	40.42	-40.3	-42.5	19.6	0.00e+00	0	37	0	424673280	51	4856
2026-01-24 23:52:23.10	15.85	41.49	-40.6	-42.9	19.4	0.00e+00	0	37	0	432013312	51	5059
2026-01-24 23:52:27.08	15.80	42.60	-40.9	-43.2	18.9	0.00e+00	0	37	0	439353344	52	4977
2026-01-24 23:52:31.05	15.74	43.73	-41.0	-43.4	18.8	0.00e+00	0	37	0	446693376	53	4762
2026-01-24 23:52:35.03	15.67	44.90	-41.7	-44.1	18.1	0.00e+00	0	37	0	455081984	53	5204
2026-01-24 23:52:39.01	15.60	46.11	-42.7	-45.4	17.1	0.00e+00	0	37	0	462422016	56	5059
2026-01-24 23:52:42.99	15.52	47.35	-42.6	-45.3	17.1	0.00e+00	0	37	0	469762048	56	5027
2026-01-24 23:52:46.97	15.44	48.63	-43.4	-46.4	16.1	0.00e+00	0	37	0	477102080	57	5389
2026-01-24 23:52:50.95	15.34	49.95	-42.4	-45.2	17.4	0.00e+00	0	37	0	484442112	56	4928
2026-01-24 23:52:54.93	15.24	51.31	-40.7	-43.0	19.2	0.00e+00	0	37	0	491782144	53	4575
2026-01-24 23:52:58.90	15.12	52.71	-41.0	-43.4	18.8	0.00e+00	0	37	0	499122176	52	5043
2026-01-24 23:53:02.88	14.99	54.15	-39.0	-40.9	21.1	0.00e+00	0	37	0	506462208	49	4538
2026-01-24 23:53:06.86	14.84	55.63	-40.3	-42.6	19.6	0.00e+00	0	37	0	513802240	51	4874
2026-01-24 23:53:10.84	14.68	57.15	-40.1	-42.3	19.9	0.00e+00	0	37	0	522190848	51	4712
2026-01-24 23:53:14.82	14.49	58.72	-41.7	-44.3	18.0	0.00e+00	0	37	0	529530880	54	5007
2026-01-24 23:53:18.80	14.28	60.33	-41.9	-44.5	17.7	0.00e+00	0	37	0	536870912	55	4844
2026-01-24 23:53:22.78	14.04	61.97	-39.9	-42.0	20.1	0.00e+00	0	37	0	544210944	51	4598
2026-01-24 23:53:26.75	13.76	63.66	-38.6	-40.6	21.4	0.00e+00	0	37	0	551550976	48	4600
2026-01-24 23:53:30.73	13.44	65.39	-39.7	-41.8	20.3	0.00e+00	0	37	0	558891008	50	4719
2026-01-24 23:53:34.70	13.06	67.15	-41.3	-43.7	18.5	0.00e+00	0	37	0	566231040	53	4971
2026-01-24 23:53:38.68	12.60	68.96	-43.2	-46.0	16.4	0.00e+00	0	37	0	573571072	57	5111
2026-01-24 23:53:42.66	12.05	70.80	-45.1	-49.0	13.7	3.81e-05	0	37	0	580911104	62	5454
2026-01-24 23:53:46.65	11.36	72.67	-44.8	-48.8	13.9	3.00e-06	0	38	0	589299712	60	5958
2026-01-24 23:53:50.63	10.49	74.57	-43.1	-46.0	16.4	0.00e+00	0	37	0	596639744	57	5141
2026-01-24 23:53:54.60	9.37	76.50	-44.5	-48.0	14.6	0.00e+00	0	37	0	603979776	59	5758
2026-01-24 23:53:58.58	7.85	78.44	-45.7	-50.4	12.1	8.08e-05	0	37	0	611319808	62	6396
2026-01-24 23:54:02.56	5.69	80.40	-43.1	-45.8	16.8	0.00e+00	0	38	0	618659840	58	4727
2026-01-24 23:54:06.54	2.39	82.35	-42.5	-45.2	17.3	0.00e+00	0	37	0	625999872	57	4692
2026-01-24 23:54:10.51	356.83	84.27	-39.9	-42.0	20.1	0.00e+00	0	37	0	633339904	50	4858
2026-01-24 23:54:14.50	345.76	86.10	-40.3	-42.4	19.8	0.00e+00	0	37	0	640679936	51	4765
2026-01-24 23:54:18.47	318.94	87.57	-44.7	-48.6	14.1	0.00e+00	0	37	0	649068544	60	5814
2026-01-24 23:54:22.46	266.95	87.75	-44.5	-48.4	13.9	6.71e-05	0	37	0	656408576	61	5379
2026-01-24 23:54:26.44	234.36	86.45	-43.2	-46.2	16.4	0.00e+00	0	38	0	663748608	58	4932
2026-01-24 23:54:30.42	221.30	84.66	-41.4	-43.9	18.3	0.00e+00	0	38	0	671088640	53	5077
2026-01-24 23:54:34.39	214.99	82.75	-40.2	-42.4	19.7	0.00e+00	0	37	0	678428672	51	4785
2026-01-24 23:54:38.38	211.34	80.79	-41.7	-44.2	18.1	0.00e+00	0	37	0	685768704	55	4664
2026-01-24 23:54:42.35	209.00	78.84	-43.2	-46.1	16.5	0.00e+00	0	37	0	693108736	57	5217
2026-01-24 23:54:46.33	207.37	76.89	-41.3	-43.7	18.6	0.00e+00	0	37	0	700448768	54	4662
2026-01-24 23:54:50.31	206.18	74.96	-42.9	-45.7	16.8	0.00e+00	0	37	0	707788800	57	4978
2026-01-24 23:54:54.29	205.27	73.05	-43.3	-46.3	16.2	0.00e+00	0	37	0	716177408	57	5310
2026-01-24 23:54:58.27	204.55	71.17	-45.9	-50.5	12.0	2.43e-04	0	37	0	723517440	63	6126
2026-01-24 23:55:02.25	203.97	69.32	-44.7	-48.3	14.3	1.60e-04	0	37	0	730857472	61	5297
2026-01-24 23:55:06.23	203.50	67.50	-43.6	-46.5	16.0	0.00e+00	0	37	0	738197504	58	5143
2026-01-24 23:55:10.21	203.10	65.72	-42.3	-44.9	17.6	0.00e+00	0	37	0	745537536	56	4789
2026-01-24 23:55:14.19	202.76	63.98	-43.0	-45.9	16.7	0.00e+00	0	37	0	752877568	56	5371
2026-01-24 23:55:18.17	202.47	62.28	-41.4	-43.9	18.4	0.00e+00	0	37	0	760217600	54	4762
2026-01-24 23:55:22.14	202.22	60.62	-41.5	-43.9	18.4	0.00e+00	0	37	0	767557632	54	4799
2026-01-24 23:55:26.13	202.01	59.00	-40.6	-42.8	19.4	0.00e+00	0	37	0	774897664	52	4728
2026-01-24 23:55:30.11	201.82	57.42	-41.1	-43.4	18.8	0.00e+00	0	37	0	783286272	53	4792
2026-01-24 23:55:34.09	201.65	55.88	-40.9	-43.2	19.0	0.00e+00	0	37	0	790626304	53	4679
2026-01-24 23:55:38.07	201.50	54.39	-40.0	-42.0	20.1	0.00e+00	0	37	0	797966336	51	4590
2026-01-24 23:55:42.04	201.36	52.94	-40.2	-42.3	19.8	0.00e+00	0	37	0	805306368	52	4478
2026-01-24 23:55:46.02	201.24	51.53	-43.4	-46.4	16.2	0.00e+00	0	37	0	812646400	57	5341
2026-01-24 23:55:50.00	201.13	50.15	-43.2	-46.2	16.3	0.00e+00	0	37	0	819986432	57	5258
2026-01-24 23:55:53.98	201.03	48.82	-44.2	-47.8	14.8	0.00e+00	0	37	0	827326464	59	5600
2026-01-24 23:55:57.97	200.94	47.53	-43.2	-46.2	16.3	0.00e+00	0	37	0	834666496	58	4953
2026-01-24 23:56:01.95	200.86	46.27	-41.1	-43.5	18.6	0.00e+00	0	37	0	843055104	53	4848
2026-01-24 23:56:05.93	200.79	45.05	-44.6	-48.2	14.3	2.20e-06	0	37	0	850395136	60	5587
2026-01-24 23:56:09.91	200.72	43.87	-42.6	-45.3	17.1	0.00e+00	0	37	0	857735168	57	4752
2026-01-24 23:56:13.89	200.66	42.72	-41.3	-43.6	18.6	0.00e+00	0	38	0	865075200	54	4647
2026-01-24 23:56:17.87	200.60	41.61	-43.6	-46.8	15.8	0.00e+00	0	37	0	872415232	57	5594
2026-01-24 23:56:21.85	200.55	40.53	-42.3	-44.8	17.6	0.00e+00	0	37	0	879755264	56	4752
2026-01-24 23:56:25.83	200.50	39.48	-42.7	-45.4	17.0	0.00e+00	0	37	0	887095296	56	5060
2026-01-24 23:56:29.81	200.46	38.46	-44.4	-47.9	14.5	0.00e+00	0	37	0	894435328	59	5679
2026-01-24 23:56:33.78	200.41	37.48	-43.8	-46.9	15.6	0.00e+00	0	37	0	901775360	59	5099
2026-01-24 23:56:37.76	200.38	36.52	-43.5	-46.6	15.9	0.00e+00	0	37	0	910163968	57	5478
2026-01-24 23:56:41.74	200.34	35.59	-42.3	-44.9	17.5	0.00e+00	0	37	0	917504000	56	4797
2026-01-24 23:56:45.72	200.31	34.68	-43.9	-47.1	15.4	0.00e+00	0	37	0	924844032	58	5482
2026-01-24 23:56:49.70	200.28	33.80	-46.6	-52.4	9.9	4.96e-03	0	37	0	932184064	64	7139
2026-01-24 23:56:53.68	200.25	32.94	-44.0	-47.2	15.1	2.20e-06	0	37	0	939524096	59	5243
2026-01-24 23:56:57.66	200.22	32.11	-42.0	-44.5	17.8	0.00e+00	0	37	0	946864128	56	4582
2026-01-24 23:57:01.64	200.20	31.30	-42.5	-45.1	17.1	0.00e+00	0	37	0	954204160	55	5210
2026-01-24 23:57:05.62	200.18	30.51	-42.5	-45.2	17.2	0.00e+00	0	37	0	961544192	56	4943
2026-01-24 23:57:09.60	200.16	29.75	-43.0	-45.9	16.5	0.00e+00	0	37	0	968884224	57	5076
2026-01-24 23:57:13.57	200.14	29.00	-44.4	-48.0	14.5	0.00e+00	0	37	0	977272832	59	5732
2026-01-24 23:57:17.55	200.12	28.27	-42.9	-45.7	16.7	0.00e+00	0	37	0	984612864	57	4973
2026-01-24 23:57:21.53	200.10	27.56	-41.0	-43.3	18.7	0.00e+00	0	37	0	991952896	53	4745
2026-01-24 23:57:25.50	200.09	26.87	-40.3	-42.5	19.5	0.00e+00	0	37	0	999292928	52	4575
2026-01-24 23:57:29.48	200.07	26.20	-40.4	-42.6	19.4	0.00e+00	0	37	0	1006632960	52	4631
2026-01-24 23:57:33.46	200.06	25.54	-41.7	-44.2	18.0	0.00e+00	0	37	0	1013972992	54	4938
2026-01-24 23:57:37.44	200.05	24.90	-41.6	-44.2	18.0	0.00e+00	0	37	0	1021313024	54	4935
2026-01-24 23:57:41.42	200.04	24.27	-40.5	-42.8	19.2	0.00e+00	0	37	0	1028653056	52	4729
2026-01-24 23:57:45.40	200.03	23.66	-40.2	-42.4	19.6	0.00e+00	0	37	0	1035993088	52	4495
2026-01-24 23:57:49.38	200.02	23.06	-41.2	-43.7	18.4	0.00e+00	0	37	0	1044381696	53	4934
2026-01-24 23:57:53.37	200.01	22.48	-41.6	-44.1	18.0	0.00e+00	0	37	0	1051721728	54	4893
2026-01-24 23:57:57.35	200.00	21.91	-41.0	-43.4	18.6	0.00e+00	0	37	0	1059061760	54	4523
2026-01-24 23:58:01.33	199.99	21.35	-40.9	-43.2	18.8	0.00e+00	0	37	0	1066401792	53	4699
2026-01-24 23:58:05.31	199.98	20.80	-41.3	-43.8	18.2	0.00e+00	0	37	0	1073741824	53	5016
2026-01-24 23:58:09.29	199.98	20.27	-41.6	-44.1	18.0	0.00e+00	0	37	0	1081081856	54	4908
2026-01-24 23:58:13.27	199.97	19.74	-41.9	-44.6	17.5	0.00e+00	0	37	0	1088421888	54	5198
2026-01-24 23:58:17.25	199.97	19.23	-41.9	-44.6	17.5	0.00e+00	0	37	0	1095761920	54	5177
2026-01-24 23:58:21.23	199.96	18.73	-42.6	-45.5	16.6	0.00e+00	0	37	0	1104150528	55	5452
2026-01-24 23:58:25.21	199.96	18.24	-43.3	-46.5	15.8	0.00e+00	0	37	0	1111490560	57	5436
2026-01-24 23:58:29.19	199.96	17.75	-44.0	-47.5	14.8	1.50e-06	0	37	0	1118830592	58	5769
2026-01-24 23:58:33.17	199.95	17.28	-44.0	-47.5	14.7	0.00e+00	0	37	0	1126170624	59	5438
2026-01-24 23:58:37.15	199.95	16.82	-43.5	-46.8	15.4	0.00e+00	0	37	0	1133510656	59	5031
2026-01-24 23:58:41.13	199.95	16.36	-43.0	-46.0	16.3	0.00e+00	0	37	0	1140850688	57	5118
2026-01-24 23:58:45.11	199.95	15.91	-42.4	-45.1	17.0	0.00e+00	0	37	0	1148190720	56	4922
2026-01-24 23:58:49.09	199.95	15.47	-42.6	-45.5	16.7	0.00e+00	0	37	0	1155530752	56	5134
2026-01-24 23:58:53.07	199.95	15.04	-42.6	-45.5	16.7	0.00e+00	0	37	0	1163919360	56	5124
2026-01-24 23:58:57.05	199.94	14.62	-42.5	-45.3	16.8	0.00e+00	0	37	0	1171259392	56	5029
2026-01-24 23:59:01.03	199.94	14.20	-42.5	-45.3	16.8	0.00e+00	0	37	0	1178599424	56	5021
2026-01-24 23:59:05.01	199.94	13.79	-42.4	-45.2	16.9	0.00e+00	0	37	0	1185939456	56	4945
2026-01-24 23:59:08.98	199.94	13.39	-42.6	-45.5	16.6	0.00e+00	0	37	0	1193279488	56	5134
2026-01-24 23:59:12.96	199.95	12.99	-42.7	-45.7	16.4	0.00e+00	0	37	0	1200619520	56	5228
2026-01-24 23:59:16.94	199.95	12.60	-42.6	-45.6	16.5	0.00e+00	0	37	0	1207959552	56	5191
2026-01-24 23:59:20.92	199.95	12.22	-42.6	-45.6	16.5	0.00e+00	0	37	0	1215299584	56	5192
2026-01-24 23:59:24.90	199.95	11.84	-42.6	-45.7	16.4	0.00e+00	0	37	0	1222639616	56	5244
2026-01-24 23:59:28.88	199.95	11.47	-42.6	-45.7	16.3	0.00e+00	0	37	0	1231028224	56	5251
2026-01-24 23:59:32.85	199.95	11.11	-42.7	-46.0	16.1	0.00e+00	0	37	0	1238368256	56	5427
2026-01-24 23:59:36.83	199.95	10.74	-42.6	-45.7	16.3	0.00e+00	0	37	0	1245708288	56	5268
2026-01-24 23:59:40.80	199.96	10.39	-42.5	-45.6	16.4	0.00e+00	0	37	0	1253048320	56	5194
2026-01-24 23:59:44.78	199.96	10.04	-42.4	-45.5	16.5	0.00e+00	0	37	0	1260388352	56	5119
2026-01-24 23:59:48.77	199.96	9.69	-42.3	-45.4	16.6	0.00e+00	0	37	0	1267728384	56	5058
2026-01-24 23:59:52.74	199.96	9.35	-42.4	-45.6	16.4	0.00e+00	0	37	0	1275068416	56	5163
2026-01-24 23:59:56.72	199.97	9.02	-45.8	-52.3	10.5	0.00e+00	0	37	0	1282408448	62	7974
2026-01-25 00:00:00.69	199.97	8.68	-48.4	-63.7	3.8	1.49e+00	0	37	104	1283457024	67	22110
2026-01-25 00:00:04.67	199.97	8.36	-48.5	-63.8	3.8	1.49e+00	0	37	104	1283457024	67	22474
2026-01-25 00:00:08.64	199.98	8.03	-48.8	-64.1	3.8	1.49e+00	0	37	104	1283457024	68	21861
2026-01-25 00:00:12.61	199.98	7.72	-49.0	-64.1	3.8	1.49e+00	0	37	104	1283457024	68	21889
2026-01-25 00:00:16.59	199.98	7.40	-48.9	-64.1	3.8	1.49e+00	0	37	104	1283457024	68	21757
2026-01-25 00:00:20.56	199.99	7.09	-48.6	-64.0	3.8	1.49e+00	0	37	104	1283457024	68	21557
2026-01-25 00:00:24.53	199.99	6.78	-48.6	-64.0	3.8	1.49e+00	0	37	104	1283457024	68	21597
2026-01-25 00:00:28.50	200.00	6.48	-48.5	-63.9	3.8	1.49e+00	0	37	104	1283457024	68	21480
2026-01-25 00:00:32.48	200.00	6.18	-48.5	-64.0	3.8	1.49e+00	0	38	104	1283457024	68	21537
2026-01-25 00:00:36.45	200.01	5.88	-48.5	-64.0	3.8	1.49e+00	0	38	104	1283457024	68	21552
2026-01-25 00:00:40.42	200.01	5.59	-48.5	-63.9	3.8	1.49e+00	0	38	104	1283457024	68	21502
2026-01-25 00:00:44.39	200.01	5.30	-48.5	-64.0	3.8	1.49e+00	0	38	104	1283457024	68	21509
2026-01-25 00:00:48.37	200.02	5.01	-48.5	-63.9	3.8	1.49e+00	0	38	104	1283457024	68	21462

#Closed at: 2026-01-25 00:00:50
#Recorded file [1283 MB]: D:/Data/31040_260125_024752.dat