passes_logs/2026/01/24/T1/T1__20260124_111023_AQUA_rec.log

#Pass ID: 20260124_111023_AQUA
#Satellite: AQUA
#Configuration: AQUA
#almurnet v.1.7.20251203
#Start time: 2026-01-24 11:10:24

#Version: 2.0.20230620
#Station: T1
#Location: 37.570604 lon 55.790049 lat
#TLE: 1 27424U 02022A   26023.58972979  .00001888  00000+0  38753-3 0  9997
#TLE: 2 27424  98.4100 350.1620 0001948  68.5331  43.0280 14.61852003262140

#Time	Az	El	Level	Level2	SNR	BER	BlckErr	Temp	State	Recorded	gain1	gain2
2026-01-24 11:10:24.99	143.42	5.11	-50.4	-70.5	3.8	7.46e-01	0	35	0	0	71	38559
2026-01-24 11:10:27.96	143.31	5.33	-50.4	-69.3	3.8	7.47e-01	0	35	104	0	71	33659
2026-01-24 11:10:30.94	143.21	5.56	-50.4	-68.4	3.8	7.42e-01	0	35	104	0	71	30321
2026-01-24 11:10:33.92	143.10	5.78	-50.4	-67.3	4.1	7.34e-01	0	35	104	0	71	26631
2026-01-24 11:10:36.90	142.99	6.01	-50.3	-66.6	4.3	7.31e-01	0	36	104	0	71	24676
2026-01-24 11:10:39.88	142.88	6.24	-50.3	-66.0	4.5	7.22e-01	0	36	104	0	71	22940
2026-01-24 11:10:42.86	142.77	6.48	-50.3	-67.2	3.8	7.43e-01	0	36	104	0	71	26360
2026-01-24 11:10:45.84	142.66	6.71	-50.4	-69.9	3.8	7.43e-01	0	36	104	0	71	35794
2026-01-24 11:10:48.82	142.54	6.95	-50.4	-68.7	3.8	7.44e-01	0	36	104	0	71	31107
2026-01-24 11:10:51.80	142.42	7.19	-50.2	-64.0	5.6	6.96e-01	0	36	0	0	71	18297
2026-01-24 11:10:54.78	142.30	7.43	-49.9	-60.9	8.3	6.45e-01	0	36	0	5242880	71	12694
2026-01-24 11:10:57.76	142.18	7.67	-48.8	-55.6	13.8	6.09e-01	0	36	0	11010048	69	7741
2026-01-24 11:11:00.74	142.05	7.92	-46.8	-51.1	18.3	6.07e-01	0	36	0	16777216	65	5801
2026-01-24 11:11:03.72	141.92	8.17	-45.3	-48.7	20.7	6.07e-01	0	36	0	22020096	62	5227
2026-01-24 11:11:06.70	141.79	8.42	-45.2	-48.4	21.0	6.09e-01	0	36	0	27787264	62	5099
2026-01-24 11:11:09.68	141.66	8.68	-46.5	-50.6	19.0	6.08e-01	0	36	0	33554432	63	6134
2026-01-24 11:11:12.66	141.52	8.94	-48.6	-55.2	14.3	6.10e-01	0	36	0	38797312	67	8306
2026-01-24 11:11:15.64	141.38	9.20	-48.6	-55.0	15.1	6.12e-01	0	37	0	44564480	67	8120
2026-01-24 11:11:18.62	141.24	9.46	-49.8	-60.6	9.8	6.37e-01	0	37	0	50331648	70	13095
2026-01-24 11:11:21.61	141.09	9.73	-45.0	-48.5	21.0	6.06e-01	0	36	0	54001664	61	5438
2026-01-24 11:11:24.59	140.94	10.00	-44.2	-47.3	22.2	6.08e-01	0	37	0	59768832	60	4994
2026-01-24 11:11:27.58	140.79	10.27	-44.1	-47.0	22.6	6.04e-01	0	37	0	65536000	59	5131
2026-01-24 11:11:30.56	140.64	10.55	-43.3	-46.0	23.5	6.06e-01	0	37	0	70778880	58	4858
2026-01-24 11:11:33.55	140.48	10.83	-42.9	-45.4	24.1	6.08e-01	0	37	0	76546048	57	4811
2026-01-24 11:11:36.53	140.32	11.11	-43.0	-45.5	24.1	6.06e-01	0	37	0	82313216	57	4848
2026-01-24 11:11:39.51	140.15	11.40	-42.7	-45.2	24.4	6.06e-01	0	37	0	87556096	57	4683
2026-01-24 11:11:42.50	139.98	11.69	-42.6	-45.0	24.6	6.08e-01	0	37	0	93323264	57	4575
2026-01-24 11:11:45.48	139.81	11.98	-42.5	-45.0	24.6	6.08e-01	0	37	0	99090432	57	4547
2026-01-24 11:11:48.47	139.63	12.28	-42.6	-45.0	24.6	6.08e-01	0	37	0	104333312	56	4836
2026-01-24 11:11:51.45	139.45	12.58	-42.5	-45.0	24.7	6.07e-01	0	37	0	110100480	56	4832
2026-01-24 11:11:54.44	139.27	12.89	-42.4	-44.8	24.8	6.08e-01	0	37	0	115867648	56	4728
2026-01-24 11:11:57.42	139.08	13.19	-42.5	-44.9	24.7	6.07e-01	0	37	0	121110528	56	4797
2026-01-24 11:12:00.41	138.88	13.51	-42.5	-44.9	24.7	6.07e-01	0	37	0	126877696	56	4769
2026-01-24 11:12:03.39	138.69	13.82	-42.5	-44.9	24.7	6.09e-01	0	37	0	132644864	56	4795
2026-01-24 11:12:06.38	138.48	14.15	-42.5	-44.9	24.8	6.07e-01	0	37	0	137887744	56	4772
2026-01-24 11:12:09.36	138.27	14.47	-42.3	-44.7	25.0	6.06e-01	0	37	0	143654912	56	4660
2026-01-24 11:12:12.34	138.06	14.80	-42.1	-44.5	25.2	6.05e-01	0	37	0	149422080	56	4566
2026-01-24 11:12:15.33	137.84	15.14	-42.2	-44.6	25.1	6.06e-01	0	37	0	154664960	56	4605
2026-01-24 11:12:18.31	137.62	15.48	-42.2	-44.6	25.1	6.05e-01	0	37	0	160432128	56	4623
2026-01-24 11:12:21.29	137.39	15.82	-42.3	-44.7	25.0	6.06e-01	0	37	0	166199296	56	4665
2026-01-24 11:12:24.28	137.15	16.17	-42.1	-44.5	25.2	6.06e-01	0	37	0	171442176	56	4568
2026-01-24 11:12:27.26	136.91	16.53	-42.1	-44.5	25.2	6.06e-01	0	37	0	177209344	56	4558
2026-01-24 11:12:30.25	136.66	16.89	-42.2	-44.6	25.1	6.05e-01	0	37	0	182976512	56	4608
2026-01-24 11:12:33.23	136.41	17.26	-42.3	-44.6	25.1	6.07e-01	0	37	0	188219392	56	4636
2026-01-24 11:12:36.22	136.14	17.63	-42.2	-44.5	25.2	6.05e-01	0	37	0	193986560	56	4556
2026-01-24 11:12:39.20	135.87	18.00	-42.1	-44.5	25.2	6.04e-01	0	37	0	199753728	56	4552
2026-01-24 11:12:42.19	135.60	18.39	-42.1	-44.4	25.2	6.07e-01	0	37	0	204996608	56	4537
2026-01-24 11:12:45.17	135.31	18.78	-42.2	-44.5	25.2	6.05e-01	0	37	0	210763776	56	4568
2026-01-24 11:12:48.15	135.02	19.17	-42.2	-44.5	25.2	6.07e-01	0	37	0	216530944	56	4584
2026-01-24 11:12:51.14	134.72	19.57	-42.3	-44.7	25.1	6.05e-01	0	37	0	221773824	56	4652
2026-01-24 11:12:54.12	134.41	19.98	-42.3	-44.7	25.0	6.07e-01	0	37	0	227540992	56	4665
2026-01-24 11:12:57.11	134.09	20.39	-42.3	-44.7	24.9	6.03e-01	0	37	0	233308160	56	4689
2026-01-24 11:13:00.09	133.76	20.81	-42.3	-44.7	25.1	6.04e-01	0	37	0	239075328	56	4657
2026-01-24 11:13:03.08	133.43	21.24	-42.5	-44.9	24.9	6.06e-01	0	37	0	244318208	56	4765
2026-01-24 11:13:06.06	133.08	21.68	-42.5	-44.8	24.9	6.10e-01	0	37	0	250085376	56	4750
2026-01-24 11:13:09.05	132.72	22.12	-42.5	-44.9	24.9	6.06e-01	0	37	0	255852544	56	4785
2026-01-24 11:13:12.04	132.35	22.57	-42.4	-44.9	24.9	6.07e-01	0	37	0	261095424	56	4761
2026-01-24 11:13:15.03	131.96	23.03	-42.5	-44.9	24.8	6.08e-01	0	37	0	266862592	56	4802
2026-01-24 11:13:18.01	131.57	23.49	-42.4	-44.7	25.0	6.06e-01	0	37	0	272629760	56	4702
2026-01-24 11:13:20.99	131.17	23.96	-42.5	-44.9	24.9	6.08e-01	0	37	0	277872640	56	4765
2026-01-24 11:13:23.98	130.75	24.44	-42.6	-45.0	24.8	6.06e-01	0	37	0	283639808	56	4835
2026-01-24 11:13:26.96	130.31	24.93	-42.5	-44.8	24.1	6.05e-01	0	37	0	289406976	56	4749
2026-01-24 11:13:29.94	129.86	25.42	-42.0	-44.3	25.4	6.07e-01	0	37	0	294649856	56	4484
2026-01-24 11:13:32.93	129.40	25.93	-42.2	-44.7	25.1	6.07e-01	0	37	0	300417024	56	4663
2026-01-24 11:13:35.92	128.92	26.44	-42.4	-44.9	24.7	6.06e-01	0	37	0	306184192	56	4789
2026-01-24 11:13:38.91	128.42	26.96	-42.3	-44.6	25.1	6.06e-01	0	37	0	311427072	56	4627
2026-01-24 11:13:41.89	127.91	27.49	-42.1	-44.4	15.9	6.07e-01	0	37	0	317194240	56	4539
2026-01-24 11:13:44.87	127.38	28.03	-41.7	-44.0	16.1	6.05e-01	0	37	0	322961408	55	4558
2026-01-24 11:13:47.86	126.83	28.57	-41.8	-44.2	25.4	6.07e-01	0	37	0	328204288	55	4654
2026-01-24 11:13:50.85	126.25	29.13	-41.4	-43.7	25.8	6.04e-01	0	37	0	333971456	54	4678
2026-01-24 11:13:53.83	125.66	29.69	-41.6	-43.8	25.7	6.07e-01	0	37	0	339738624	54	4748
2026-01-24 11:13:56.81	125.05	30.26	-41.6	-43.9	25.6	6.07e-01	0	37	0	344981504	54	4790
2026-01-24 11:13:59.80	124.41	30.84	-41.5	-43.7	25.7	6.06e-01	0	37	0	350748672	54	4695
2026-01-24 11:14:02.78	123.75	31.43	-41.5	-43.7	25.8	6.05e-01	0	37	0	356515840	54	4695
2026-01-24 11:14:05.77	123.06	32.03	-41.8	-44.1	25.4	6.08e-01	0	37	0	361758720	54	4895
2026-01-24 11:14:08.75	122.35	32.64	-41.2	-43.6	25.9	6.07e-01	0	37	0	367525888	54	4603
2026-01-24 11:14:11.74	121.60	33.25	-41.9	-44.4	25.2	6.07e-01	0	37	0	373293056	54	5045
2026-01-24 11:14:14.72	120.83	33.87	-41.8	-44.1	25.3	6.07e-01	0	37	0	378535936	54	4916
2026-01-24 11:14:17.71	120.02	34.50	-42.0	-44.3	25.2	6.05e-01	0	37	0	384303104	54	5006
2026-01-24 11:14:20.70	119.18	35.14	-42.3	-44.7	24.8	6.07e-01	0	38	0	390070272	55	4947
2026-01-24 11:14:23.68	118.31	35.78	-42.5	-44.9	24.5	6.06e-01	0	37	0	395313152	55	5082
2026-01-24 11:14:26.67	117.40	36.43	-42.2	-44.7	24.7	6.06e-01	0	37	0	401080320	55	4932
2026-01-24 11:14:29.66	116.46	37.09	-43.3	-45.9	23.7	6.06e-01	0	37	0	406847488	57	5062
2026-01-24 11:14:32.64	115.47	37.75	-42.9	-45.5	24.0	6.04e-01	0	37	0	412090368	57	4837
2026-01-24 11:14:35.62	114.44	38.41	-44.0	-46.8	22.8	6.04e-01	0	37	0	417857536	58	5303
2026-01-24 11:14:38.61	113.37	39.07	-42.7	-45.1	24.4	6.08e-01	0	37	0	423624704	57	4651
2026-01-24 11:14:41.59	112.25	39.74	-43.6	-46.3	23.2	6.07e-01	0	37	0	429391872	58	5041
2026-01-24 11:14:44.58	111.08	40.41	-42.8	-45.3	24.3	6.10e-01	0	37	0	434634752	57	4714
2026-01-24 11:14:47.56	109.87	41.08	-43.1	-45.7	23.8	6.03e-01	0	37	0	440401920	57	4957
2026-01-24 11:14:50.55	108.60	41.74	-42.6	-45.1	24.4	6.08e-01	0	37	0	446169088	56	4878
2026-01-24 11:14:53.53	107.28	42.40	-42.4	-44.9	24.6	6.04e-01	0	37	0	451411968	56	4761
2026-01-24 11:14:56.52	105.89	43.06	-42.6	-45.1	24.4	6.08e-01	0	37	0	457179136	56	4882
2026-01-24 11:14:59.51	104.45	43.71	-42.1	-44.6	24.8	6.09e-01	0	37	0	462946304	56	4627
2026-01-24 11:15:02.49	102.96	44.35	-42.8	-45.3	24.3	6.07e-01	0	37	0	468189184	56	5001
2026-01-24 11:15:05.47	101.40	44.97	-42.4	-44.9	24.6	6.06e-01	0	37	0	473956352	56	4795
2026-01-24 11:15:08.46	99.77	45.59	-42.1	-44.5	24.9	6.06e-01	0	37	0	479723520	56	4589
2026-01-24 11:15:11.44	98.09	46.18	-42.5	-45.0	24.5	6.03e-01	0	37	0	484966400	56	4819
2026-01-24 11:15:14.42	96.34	46.76	-42.6	-45.2	24.4	6.06e-01	0	37	0	490733568	56	4951
2026-01-24 11:15:17.41	94.52	47.32	-42.6	-45.2	24.4	6.08e-01	0	37	0	496500736	56	4945
2026-01-24 11:15:20.39	92.64	47.85	-42.5	-45.1	24.4	6.07e-01	0	37	0	501743616	56	4887
2026-01-24 11:15:23.38	90.69	48.35	-42.2	-44.6	24.8	6.06e-01	0	37	0	507510784	56	4641
2026-01-24 11:15:26.37	88.67	48.82	-42.4	-44.9	24.6	6.06e-01	0	37	0	513277952	56	4787
2026-01-24 11:15:29.35	86.60	49.26	-42.6	-45.3	24.2	6.08e-01	0	38	0	518520832	56	5011
2026-01-24 11:15:32.33	84.48	49.66	-42.3	-44.9	24.6	6.06e-01	0	37	0	524288000	55	5057
2026-01-24 11:15:35.32	82.29	50.02	-42.1	-44.6	24.9	6.06e-01	0	37	0	530055168	56	4626
2026-01-24 11:15:38.31	80.05	50.34	-42.2	-44.6	24.9	6.09e-01	0	37	0	535298048	56	4634
2026-01-24 11:15:41.29	77.78	50.61	-42.3	-44.7	24.8	6.05e-01	0	37	0	541065216	56	4680
2026-01-24 11:15:44.27	75.46	50.83	-42.4	-44.8	24.7	6.07e-01	0	37	0	546832384	56	4734
2026-01-24 11:15:47.26	73.11	51.01	-42.2	-44.6	24.9	6.07e-01	0	37	0	552075264	56	4638
2026-01-24 11:15:50.24	70.74	51.14	-42.2	-44.6	24.9	6.05e-01	0	37	0	557842432	56	4636
2026-01-24 11:15:53.23	68.35	51.22	-41.8	-44.1	25.3	6.04e-01	0	37	0	563609600	55	4623
2026-01-24 11:15:56.21	65.96	51.24	-41.8	-44.2	25.2	6.08e-01	0	37	0	568852480	55	4659
2026-01-24 11:15:59.20	63.56	51.21	-41.7	-44.0	25.4	6.06e-01	0	37	0	574619648	55	4587
2026-01-24 11:16:02.19	61.16	51.13	-41.7	-44.0	25.4	6.05e-01	0	37	0	580386816	55	4567
2026-01-24 11:16:05.17	58.80	51.00	-41.9	-44.2	25.2	6.06e-01	0	37	0	585629696	55	4668
2026-01-24 11:16:08.16	56.45	50.82	-42.3	-44.7	24.8	6.09e-01	0	37	0	591396864	55	4941
2026-01-24 11:16:11.14	54.14	50.59	-41.9	-44.3	25.1	6.04e-01	0	37	0	597164032	55	4713
2026-01-24 11:16:14.12	51.87	50.32	-41.3	-43.6	25.7	6.06e-01	0	37	0	602406912	54	4650
2026-01-24 11:16:17.10	49.65	50.00	-41.6	-43.9	25.5	6.07e-01	0	37	0	608174080	54	4780
2026-01-24 11:16:20.09	47.47	49.63	-41.7	-44.1	25.3	6.08e-01	0	37	0	613941248	54	4892
2026-01-24 11:16:23.07	45.35	49.23	-41.9	-44.2	25.2	6.07e-01	0	37	0	619184128	54	4964
2026-01-24 11:16:26.06	43.28	48.79	-41.7	-44.1	25.3	6.05e-01	0	37	0	624951296	54	4907
2026-01-24 11:16:29.04	41.28	48.32	-41.4	-43.7	25.6	6.07e-01	0	37	0	630718464	54	4663
2026-01-24 11:16:32.03	39.33	47.82	-41.4	-43.7	25.6	6.06e-01	0	37	0	635961344	54	4669
2026-01-24 11:16:35.01	37.46	47.29	-41.6	-43.9	25.5	6.05e-01	0	37	0	641728512	54	4784
2026-01-24 11:16:38.00	35.65	46.74	-41.3	-43.6	25.6	6.06e-01	0	37	0	647495680	54	4649
2026-01-24 11:16:40.99	33.90	46.16	-41.6	-44.1	25.2	6.06e-01	0	37	0	652738560	54	4890
2026-01-24 11:16:43.97	32.22	45.56	-41.5	-43.8	25.5	6.09e-01	0	38	0	658505728	54	4751
2026-01-24 11:16:46.96	30.61	44.95	-41.2	-43.6	25.6	6.03e-01	0	37	0	664272896	54	4636
2026-01-24 11:16:49.94	29.06	44.33	-41.4	-43.8	25.5	6.06e-01	0	37	0	669515776	54	4734
2026-01-24 11:16:52.92	27.57	43.69	-41.7	-44.1	25.3	6.06e-01	0	37	0	675282944	54	4926
2026-01-24 11:16:55.91	26.14	43.04	-41.5	-44.0	25.3	6.05e-01	0	37	0	681050112	54	4842
2026-01-24 11:16:58.89	24.77	42.39	-42.1	-44.5	24.9	6.07e-01	0	37	0	686817280	54	5143
2026-01-24 11:17:01.88	23.45	41.73	-42.2	-44.6	24.7	6.06e-01	0	37	0	692060160	55	4924
2026-01-24 11:17:04.87	22.18	41.06	-42.5	-45.0	24.5	6.07e-01	0	37	0	697827328	55	5110
2026-01-24 11:17:07.85	20.98	40.40	-42.8	-45.5	24.1	6.06e-01	0	37	0	703594496	56	5111
2026-01-24 11:17:10.84	19.81	39.73	-43.5	-46.3	22.9	6.07e-01	0	38	0	708837376	57	5315
2026-01-24 11:17:13.83	18.70	39.07	-42.9	-45.6	23.9	6.06e-01	0	38	0	714604544	57	4899
2026-01-24 11:17:16.81	17.64	38.41	-43.2	-46.0	23.6	6.05e-01	0	37	0	720371712	57	5143
2026-01-24 11:17:19.80	16.61	37.75	-42.9	-45.7	23.8	6.08e-01	0	37	0	725614592	57	4966
2026-01-24 11:17:22.78	15.63	37.09	-42.6	-45.2	24.3	6.07e-01	0	38	0	731381760	57	4658
2026-01-24 11:17:25.77	14.69	36.44	-42.7	-45.3	24.2	6.07e-01	0	38	0	737148928	57	4728
2026-01-24 11:17:28.75	13.79	35.80	-43.0	-45.6	23.9	6.05e-01	0	37	0	742391808	57	4898
2026-01-24 11:17:31.74	12.92	35.16	-43.1	-45.8	23.8	6.03e-01	0	38	0	748158976	57	4989
2026-01-24 11:17:34.72	12.09	34.52	-41.8	-44.1	25.2	6.05e-01	0	38	0	753926144	55	4632
2026-01-24 11:17:37.70	11.29	33.90	-41.8	-44.4	24.9	6.06e-01	0	37	0	759169024	55	4793
2026-01-24 11:17:40.68	10.52	33.28	-41.5	-44.1	25.2	6.05e-01	0	37	0	764936192	54	4882
2026-01-24 11:17:43.67	9.78	32.67	-41.6	-44.1	25.2	6.07e-01	0	37	0	770703360	54	4897
2026-01-24 11:17:46.66	9.07	32.07	-41.5	-43.9	25.4	6.05e-01	0	37	0	775946240	54	4782
2026-01-24 11:17:49.64	8.39	31.47	-41.6	-44.1	25.2	6.07e-01	0	37	0	781713408	54	4874
2026-01-24 11:17:52.62	7.73	30.89	-41.3	-43.7	25.5	6.06e-01	0	37	0	787480576	54	4699
2026-01-24 11:17:55.61	7.10	30.31	-41.1	-43.5	25.7	6.07e-01	0	38	0	792723456	54	4595
2026-01-24 11:17:58.59	6.49	29.74	-41.1	-43.4	25.8	6.06e-01	0	38	0	798490624	54	4529
2026-01-24 11:18:01.58	5.90	29.18	-41.3	-43.7	25.5	6.07e-01	0	37	0	804257792	54	4674
2026-01-24 11:18:04.56	5.33	28.63	-41.2	-43.6	25.6	6.08e-01	0	37	0	809500672	54	4605
2026-01-24 11:18:07.55	4.78	28.08	-41.6	-44.0	25.2	6.06e-01	0	37	0	815267840	54	4836
2026-01-24 11:18:10.53	4.25	27.55	-41.6	-43.9	25.3	6.05e-01	0	38	0	821035008	54	4802
2026-01-24 11:18:13.52	3.74	27.02	-41.6	-44.0	25.0	6.05e-01	0	37	0	826277888	54	4816
2026-01-24 11:18:16.50	3.25	26.51	-41.6	-44.0	25.2	6.06e-01	0	37	0	832045056	54	4836
2026-01-24 11:18:19.48	2.78	26.00	-41.7	-44.1	25.1	6.07e-01	0	37	0	837812224	54	4925
2026-01-24 11:18:22.45	2.32	25.50	-41.6	-44.0	25.2	6.07e-01	0	37	0	843055104	54	4820
2026-01-24 11:18:25.43	1.87	25.01	-41.8	-44.4	24.8	6.08e-01	0	38	0	848822272	54	5076
2026-01-24 11:18:28.41	1.44	24.52	-41.8	-44.4	24.8	6.06e-01	0	37	0	854589440	54	5049
2026-01-24 11:18:31.40	1.03	24.05	-41.6	-44.0	25.1	6.07e-01	0	37	0	859832320	54	4866
2026-01-24 11:18:34.38	0.62	23.58	-41.6	-44.1	25.0	6.06e-01	0	38	0	865599488	54	4906
2026-01-24 11:18:37.36	0.23	23.12	-41.6	-44.2	25.0	6.06e-01	0	37	0	871366656	54	4950
2026-01-24 11:18:40.35	359.85	22.66	-41.9	-44.5	24.7	6.06e-01	0	37	0	876609536	54	5127
2026-01-24 11:18:43.34	359.48	22.21	-41.9	-44.4	24.7	6.08e-01	0	38	0	882376704	54	5081
2026-01-24 11:18:46.32	359.13	21.77	-41.9	-44.4	24.7	6.07e-01	0	37	0	888143872	54	5074
2026-01-24 11:18:49.30	358.78	21.34	-41.8	-44.3	24.8	6.04e-01	0	37	0	893386752	54	5033
2026-01-24 11:18:52.29	358.45	20.92	-41.8	-44.3	24.9	6.07e-01	0	37	0	899153920	54	5003
2026-01-24 11:18:55.27	358.12	20.50	-41.6	-44.2	25.0	6.09e-01	0	38	0	904921088	54	4933
2026-01-24 11:18:58.26	357.81	20.09	-41.7	-44.2	24.9	6.08e-01	0	37	0	910163968	54	4942
2026-01-24 11:19:01.24	357.50	19.68	-41.8	-44.3	24.9	6.08e-01	0	38	0	915931136	54	4984
2026-01-24 11:19:04.23	357.20	19.28	-41.9	-44.4	24.7	6.07e-01	0	37	0	921698304	54	5089
2026-01-24 11:19:07.21	356.91	18.89	-41.5	-44.3	24.9	6.06e-01	0	37	0	926941184	54	4997
2026-01-24 11:19:10.20	356.63	18.50	-41.6	-44.3	24.9	6.05e-01	0	37	0	932708352	54	5000
2026-01-24 11:19:13.18	356.36	18.12	-41.7	-44.2	24.9	6.05e-01	0	37	0	938475520	54	4955
2026-01-24 11:19:16.16	356.09	17.74	-41.5	-44.1	25.0	6.05e-01	0	37	0	943718400	54	4901
2026-01-24 11:19:19.14	355.83	17.37	-41.5	-44.3	24.8	6.05e-01	0	37	0	949485568	54	4991
2026-01-24 11:19:22.13	355.58	17.01	-41.6	-44.1	24.9	6.06e-01	0	38	0	955252736	54	4907
2026-01-24 11:19:25.11	355.33	16.65	-41.5	-44.1	25.0	6.07e-01	0	37	0	960495616	54	4895
2026-01-24 11:19:28.10	355.09	16.30	-41.6	-44.2	24.9	6.06e-01	0	37	0	966262784	54	4972
2026-01-24 11:19:31.09	354.86	15.95	-41.7	-44.4	24.7	6.06e-01	0	37	0	972029952	54	5056
2026-01-24 11:19:34.07	354.63	15.60	-41.8	-44.4	24.7	6.04e-01	0	37	0	977797120	54	5067
2026-01-24 11:19:37.05	354.41	15.27	-41.8	-44.4	24.7	6.08e-01	0	37	0	983040000	54	5081
2026-01-24 11:19:40.04	354.19	14.93	-41.6	-44.2	24.8	6.04e-01	0	37	0	988807168	54	4961
2026-01-24 11:19:43.02	353.98	14.60	-41.8	-44.4	24.7	6.04e-01	0	38	0	994574336	54	5075
2026-01-24 11:19:46.01	353.78	14.28	-41.7	-44.3	24.8	6.03e-01	0	38	0	999817216	54	4989
2026-01-24 11:19:48.99	353.58	13.96	-41.8	-44.4	24.7	6.02e-01	0	37	0	1005584384	54	5045
2026-01-24 11:19:51.97	353.38	13.64	-41.7	-44.3	24.7	6.00e-01	0	37	0	1011351552	54	5040
2026-01-24 11:19:54.96	353.19	13.33	-41.5	-44.3	24.7	6.03e-01	0	38	0	1016594432	54	5015
2026-01-24 11:19:57.94	353.00	13.02	-40.9	-44.3	24.6	6.03e-01	0	38	0	1022361600	53	5334
2026-01-24 11:20:00.93	352.82	12.72	-40.7	-44.4	24.5	6.04e-01	0	38	0	1028128768	53	5367
2026-01-24 11:20:03.91	352.64	12.42	-40.7	-44.5	24.5	6.05e-01	0	38	0	1033371648	53	5411
2026-01-24 11:20:06.90	352.47	12.12	-41.1	-44.7	24.4	6.01e-01	0	37	0	1039138816	53	5535
2026-01-24 11:20:09.88	352.30	11.83	-41.3	-44.7	24.3	6.04e-01	0	38	0	1044905984	53	5557
2026-01-24 11:20:12.86	352.13	11.54	-41.3	-44.9	24.0	6.03e-01	0	37	0	1050148864	53	5695
2026-01-24 11:20:15.85	351.97	11.25	-40.5	-44.9	24.1	6.02e-01	0	38	0	1055916032	53	5672
2026-01-24 11:20:18.84	351.81	10.97	-40.0	-45.0	24.0	6.03e-01	0	37	0	1061683200	51	6453
2026-01-24 11:20:21.82	351.65	10.69	-39.7	-45.0	23.9	6.05e-01	0	37	0	1066926080	51	6455
2026-01-24 11:20:24.80	351.50	10.42	-40.1	-45.1	23.8	6.07e-01	0	37	0	1072693248	51	6541
2026-01-24 11:20:27.79	351.35	10.14	-41.0	-45.1	23.8	6.04e-01	0	38	0	1078460416	52	6156
2026-01-24 11:20:30.77	351.21	9.87	-41.2	-45.1	23.8	6.03e-01	0	37	0	1083703296	53	5791
2026-01-24 11:20:33.76	351.06	9.61	-41.2	-45.2	23.7	6.06e-01	0	38	0	1089470464	53	5899
2026-01-24 11:20:36.74	350.93	9.34	-41.1	-45.3	23.6	6.04e-01	0	37	0	1095237632	53	5935
2026-01-24 11:20:39.73	350.79	9.08	-41.1	-45.2	23.6	6.04e-01	0	37	0	1100480512	53	5918
2026-01-24 11:20:42.71	350.65	8.83	-49.3	-70.3	3.8	7.46e-01	0	37	104	1103101952	69	42366
2026-01-24 11:20:45.69	350.52	8.57	-48.5	-70.6	3.8	7.47e-01	0	37	104	1103101952	67	49184
2026-01-24 11:20:48.67	350.40	8.32	-49.1	-70.9	3.7	7.46e-01	0	38	104	1103101952	70	42634
2026-01-24 11:20:51.65	350.27	8.07	-50.1	-70.9	3.8	7.45e-01	0	37	104	1103101952	72	38028
2026-01-24 11:20:54.63	350.15	7.83	-50.6	-71.0	3.8	7.46e-01	0	38	104	1103101952	71	40785
2026-01-24 11:20:57.61	350.03	7.58	-49.6	-71.0	3.8	7.49e-01	0	38	104	1103101952	71	40809
2026-01-24 11:21:00.59	349.91	7.34	-50.2	-71.0	3.8	7.45e-01	0	38	104	1103101952	71	40875
2026-01-24 11:21:03.57	349.79	7.10	-51.0	-71.0	3.8	7.42e-01	0	38	104	1103101952	72	38356
2026-01-24 11:21:06.55	349.68	6.87	-50.6	-71.0	3.8	7.48e-01	0	37	104	1103101952	72	38318
2026-01-24 11:21:09.53	349.57	6.63	-50.2	-71.0	3.8	7.45e-01	0	38	104	1103101952	71	40589
2026-01-24 11:21:12.51	349.46	6.40	-50.2	-70.9	3.8	7.45e-01	0	38	104	1103101952	71	40490
2026-01-24 11:21:15.49	349.35	6.17	-50.2	-70.9	3.8	7.45e-01	0	38	104	1103101952	71	40461
2026-01-24 11:21:18.46	349.25	5.94	-50.2	-70.9	3.8	7.45e-01	0	38	104	1103101952	71	40361
2026-01-24 11:21:21.44	349.14	5.72	-50.1	-70.9	3.8	7.46e-01	0	38	104	1103101952	71	40369
2026-01-24 11:21:24.42	349.04	5.49	-50.1	-70.9	3.8	7.47e-01	0	37	104	1103101952	71	40363
2026-01-24 11:21:27.40	348.94	5.27	-50.1	-70.9	3.8	7.47e-01	0	38	104	1103101952	71	40289
2026-01-24 11:21:30.38	348.84	5.05	-50.1	-70.9	3.8	7.46e-01	0	38	104	1103101952	71	40298

#Closed at: 2026-01-24 11:21:32
#Recorded file [1103 MB]: D:/Data/31040_260124_141024.dat