passes_logs/2026/01/24/T1/T1__20260124_060832_FENGYUN_3E_rec.log

#Pass ID: 20260124_060832_FENGYUN 3E
#Satellite: FENGYUN 3E
#Configuration: FENGYUN 3E
#almurnet v.1.7.20251203
#Start time: 2026-01-24 06:08:33

#Version: 2.0.20230620
#Station: T1
#Location: 37.570604 lon 55.790049 lat
#TLE: 1 49008U 21062A   26023.60278097 -.00000097  00000+0 -24964-4 0  9990
#TLE: 2 49008  98.7490  28.6300 0002358 120.0933 240.0477 14.19886577236062

#Time	Az	El	Level	Level2	SNR	BER	BlckErr	Temp	State	Recorded	gain1	gain2
2026-01-24 06:08:33.25	3.55	5.02	-47.7	-59.4	3.8	8.45e-01	0	35	0	0	65	14047
2026-01-24 06:08:36.23	3.25	5.18	-42.8	-59.0	3.8	8.48e-01	0	36	104	0	55	23965
2026-01-24 06:08:39.21	2.95	5.34	-42.8	-59.0	3.8	8.46e-01	0	36	104	0	55	24078
2026-01-24 06:08:42.20	2.64	5.50	-42.8	-59.0	3.8	8.48e-01	0	36	104	0	55	24098
2026-01-24 06:08:45.19	2.32	5.66	-42.7	-59.0	3.8	8.47e-01	0	36	104	0	55	24029
2026-01-24 06:08:48.18	2.01	5.82	-42.8	-59.1	3.8	8.46e-01	0	36	104	0	55	24196
2026-01-24 06:08:51.16	1.69	5.98	-42.8	-59.0	3.8	8.47e-01	0	36	104	0	55	24028
2026-01-24 06:08:54.15	1.36	6.14	-42.8	-59.0	3.8	8.48e-01	0	36	104	0	55	24012
2026-01-24 06:08:57.14	1.03	6.29	-42.8	-59.0	3.8	8.46e-01	0	36	104	0	55	24075
2026-01-24 06:09:00.12	0.70	6.45	-42.8	-59.0	3.8	8.47e-01	0	37	104	0	55	23959
2026-01-24 06:09:03.12	0.36	6.61	-42.8	-59.0	3.8	8.47e-01	0	37	104	0	55	24010
2026-01-24 06:09:06.10	0.03	6.77	-42.8	-59.0	3.8	8.46e-01	0	37	104	0	55	23913
2026-01-24 06:09:09.09	359.68	6.93	-42.8	-59.0	3.8	8.47e-01	0	37	104	0	55	24109
2026-01-24 06:09:12.07	359.34	7.09	-42.8	-59.0	3.8	8.47e-01	0	37	104	0	55	23919
2026-01-24 06:09:15.06	358.98	7.25	-42.8	-58.9	3.8	8.47e-01	0	37	104	0	55	23805
2026-01-24 06:09:18.05	358.63	7.41	-42.8	-59.0	3.8	8.47e-01	0	37	104	0	55	23961
2026-01-24 06:09:21.03	358.27	7.57	-42.9	-58.9	3.8	8.47e-01	0	37	104	0	55	23815
2026-01-24 06:09:24.02	357.91	7.73	-42.9	-59.0	3.8	8.47e-01	0	37	104	0	55	23980
2026-01-24 06:09:27.00	357.54	7.89	-42.8	-58.7	3.8	8.46e-01	0	37	104	0	55	23049
2026-01-24 06:09:29.99	357.17	8.05	-42.8	-58.9	3.8	8.47e-01	0	37	104	0	55	23689
2026-01-24 06:09:32.98	356.79	8.21	-42.8	-58.2	3.8	8.46e-01	0	37	104	0	55	21806
2026-01-24 06:09:35.97	356.41	8.37	-42.8	-56.8	3.9	8.45e-01	0	37	104	0	55	18718
2026-01-24 06:09:38.96	356.03	8.53	-42.7	-55.2	4.3	8.35e-01	0	38	0	0	55	15491
2026-01-24 06:09:41.95	355.64	8.68	-42.3	-51.9	6.1	4.07e-01	0	38	0	2097152	55	10605
2026-01-24 06:09:44.94	355.24	8.84	-41.2	-46.8	11.0	3.33e-03	0	38	0	23068672	53	6592
2026-01-24 06:09:47.93	354.85	9.00	-39.6	-43.0	15.1	0.00e+00	0	38	0	45088768	50	5049
2026-01-24 06:09:50.93	354.44	9.16	-37.5	-39.6	18.2	0.00e+00	0	37	0	63963136	45	4546
2026-01-24 06:09:53.94	354.03	9.32	-37.1	-39.0	18.7	0.00e+00	0	37	0	85983232	45	4271
2026-01-24 06:09:56.94	353.62	9.47	-37.3	-39.2	18.6	0.00e+00	0	37	0	106954752	45	4344
2026-01-24 06:09:59.95	353.20	9.63	-37.2	-39.0	18.8	0.00e+00	0	38	0	128974848	45	4256
2026-01-24 06:10:02.95	352.78	9.79	-37.3	-38.9	19.0	0.00e+00	0	37	0	150994944	44	4455
2026-01-24 06:10:05.96	352.35	9.94	-37.2	-38.7	19.1	0.00e+00	0	38	0	173015040	44	4362
2026-01-24 06:10:08.96	351.92	10.10	-37.1	-38.6	19.3	0.00e+00	0	38	0	193986560	44	4320
2026-01-24 06:10:11.96	351.49	10.25	-37.0	-38.5	19.3	0.00e+00	0	38	0	216006656	44	4270
2026-01-24 06:10:14.97	351.04	10.41	-36.8	-38.6	19.3	0.00e+00	0	38	0	238026752	44	4297
2026-01-24 06:10:17.97	350.60	10.56	-36.8	-38.6	19.3	0.00e+00	0	38	0	258998272	44	4304
2026-01-24 06:10:20.98	350.15	10.71	-37.0	-38.7	19.2	0.00e+00	0	38	0	281018368	44	4375
2026-01-24 06:10:23.98	349.69	10.87	-37.2	-38.8	19.1	0.00e+00	0	38	0	301989888	44	4426
2026-01-24 06:10:26.99	349.23	11.02	-37.3	-38.7	19.2	0.00e+00	0	38	0	324009984	44	4381
2026-01-24 06:10:29.99	348.76	11.17	-37.1	-38.5	19.4	0.00e+00	0	38	0	346030080	44	4248
2026-01-24 06:10:32.99	348.30	11.32	-36.9	-38.3	19.6	0.00e+00	0	38	0	367001600	44	4157
2026-01-24 06:10:35.99	347.82	11.46	-36.8	-38.2	19.7	0.00e+00	0	38	0	389021696	44	4105
2026-01-24 06:10:38.99	347.34	11.61	-36.8	-38.2	19.7	0.00e+00	0	38	0	411041792	44	4114
2026-01-24 06:10:42.00	346.86	11.76	-36.9	-38.2	19.7	0.00e+00	0	38	0	432013312	44	4126
2026-01-24 06:10:45.01	346.36	11.90	-37.1	-38.3	19.6	0.00e+00	0	38	0	454033408	44	4183
2026-01-24 06:10:48.01	345.87	12.05	-37.0	-38.1	19.8	0.00e+00	0	38	0	476053504	44	4087
2026-01-24 06:10:51.00	345.37	12.19	-36.7	-37.8	20.1	0.00e+00	0	38	0	498073600	44	3953
2026-01-24 06:10:54.00	344.87	12.33	-36.6	-37.7	20.2	0.00e+00	0	38	0	519045120	44	3904
2026-01-24 06:10:57.01	344.36	12.47	-36.5	-37.6	20.1	0.00e+00	0	38	0	541065216	43	4095
2026-01-24 06:11:00.01	343.84	12.61	-36.7	-37.8	20.0	0.00e+00	0	38	0	563085312	43	4169
2026-01-24 06:11:03.02	343.32	12.74	-36.6	-37.7	20.0	0.00e+00	0	38	0	584056832	43	4139
2026-01-24 06:11:06.02	342.80	12.88	-36.6	-37.7	20.1	0.00e+00	0	38	0	606076928	43	4128
2026-01-24 06:11:09.03	342.27	13.01	-36.5	-37.7	20.1	0.00e+00	0	38	0	628097024	43	4101
2026-01-24 06:11:12.04	341.73	13.15	-36.5	-37.6	20.2	0.00e+00	0	38	0	649068544	43	4060
2026-01-24 06:11:15.04	341.19	13.28	-36.3	-37.5	20.3	0.00e+00	0	38	0	671088640	43	4006
2026-01-24 06:11:18.04	340.65	13.40	-36.3	-37.3	20.4	0.00e+00	0	38	0	693108736	43	3957
2026-01-24 06:11:21.05	340.10	13.53	-36.2	-37.2	20.6	0.00e+00	0	38	0	715128832	43	3875
2026-01-24 06:11:24.05	339.55	13.65	-36.2	-37.2	20.5	0.00e+00	0	38	0	736100352	43	3912
2026-01-24 06:11:27.05	338.99	13.78	-36.2	-37.4	20.3	0.00e+00	0	38	0	758120448	43	3975
2026-01-24 06:11:30.06	338.43	13.90	-36.2	-37.3	20.4	0.00e+00	0	38	0	780140544	43	3941
2026-01-24 06:11:33.07	337.86	14.01	-36.1	-37.2	20.5	0.00e+00	0	38	0	801112064	43	3887
2026-01-24 06:11:36.07	337.29	14.13	-36.2	-37.2	20.5	0.00e+00	0	38	0	823132160	42	4145
2026-01-24 06:11:39.08	336.71	14.24	-36.2	-37.2	20.6	0.00e+00	0	38	0	845152256	42	4112
2026-01-24 06:11:42.08	336.13	14.35	-36.2	-37.2	20.6	0.00e+00	0	38	0	866123776	42	4121
2026-01-24 06:11:45.08	335.54	14.46	-36.2	-37.2	20.6	0.00e+00	0	38	0	888143872	42	4101
2026-01-24 06:11:48.09	334.95	14.57	-35.9	-36.9	20.8	0.00e+00	0	38	0	909115392	42	3997
2026-01-24 06:11:51.09	334.36	14.67	-35.9	-36.9	20.9	0.00e+00	0	38	0	931135488	42	3990
2026-01-24 06:11:54.09	333.76	14.77	-35.9	-36.9	20.9	0.00e+00	0	38	0	953155584	42	3980
2026-01-24 06:11:57.10	333.16	14.87	-36.1	-37.0	20.7	0.00e+00	0	38	0	974127104	42	4039
2026-01-24 06:12:00.11	332.55	14.97	-36.0	-37.0	20.8	0.00e+00	0	38	0	996147200	42	4009
2026-01-24 06:12:03.11	331.94	15.06	-35.9	-36.9	20.8	0.00e+00	0	38	0	1018167296	42	3982
2026-01-24 06:12:06.11	331.33	15.15	-35.9	-36.8	20.9	0.00e+00	0	38	0	1040187392	42	3944
2026-01-24 06:12:09.11	330.71	15.23	-35.9	-36.8	20.9	0.00e+00	0	38	0	1061158912	42	3946
2026-01-24 06:12:12.12	330.09	15.32	-35.9	-36.8	20.9	0.00e+00	0	38	0	1083179008	42	3949
2026-01-24 06:12:15.12	329.46	15.40	-36.0	-36.9	20.9	0.00e+00	0	38	0	1105199104	42	3988
2026-01-24 06:12:18.13	328.83	15.47	-35.7	-36.7	21.1	0.00e+00	0	38	0	1126170624	42	3883
2026-01-24 06:12:21.13	328.20	15.55	-35.4	-36.3	21.4	0.00e+00	0	38	0	1148190720	41	3958
2026-01-24 06:12:24.14	327.57	15.62	-35.3	-36.3	21.4	0.00e+00	0	38	0	1170210816	41	3926
2026-01-24 06:12:27.15	326.93	15.68	-35.5	-36.5	21.3	0.00e+00	0	38	0	1191182336	41	4007
2026-01-24 06:12:30.15	326.29	15.75	-35.6	-36.6	21.1	0.00e+00	0	38	0	1213202432	41	4076
2026-01-24 06:12:33.15	325.65	15.81	-35.5	-36.6	21.2	0.00e+00	0	38	0	1235222528	41	4053
2026-01-24 06:12:36.16	325.00	15.86	-35.5	-36.5	21.3	0.00e+00	0	38	0	1257242624	41	4006
2026-01-24 06:12:39.16	324.35	15.92	-35.4	-36.3	21.4	0.00e+00	0	38	0	1278214144	41	3941
2026-01-24 06:12:42.15	323.70	15.97	-35.1	-36.0	21.7	0.00e+00	0	38	0	1300234240	40	4021
2026-01-24 06:12:45.15	323.05	16.01	-35.2	-36.1	21.6	0.00e+00	0	38	0	1322254336	40	4056
2026-01-24 06:12:48.16	322.40	16.05	-35.3	-36.2	21.5	0.00e+00	0	38	0	1343225856	40	4123
2026-01-24 06:12:51.16	321.74	16.09	-35.4	-36.4	21.4	0.00e+00	0	38	0	1365245952	40	4215
2026-01-24 06:12:54.16	321.08	16.13	-35.5	-36.4	21.3	0.00e+00	0	38	0	1387266048	40	4238
2026-01-24 06:12:57.16	320.42	16.16	-35.3	-36.2	21.5	0.00e+00	0	38	0	1408237568	40	4143
2026-01-24 06:13:00.16	319.76	16.18	-35.1	-36.0	21.7	0.00e+00	0	38	0	1430257664	40	4019
2026-01-24 06:13:03.16	319.10	16.21	-35.1	-36.0	21.7	0.00e+00	0	38	0	1451229184	40	4046
2026-01-24 06:13:06.16	318.44	16.23	-35.1	-36.0	21.7	0.00e+00	0	38	0	1473249280	40	4013
2026-01-24 06:13:09.16	317.78	16.24	-35.0	-35.9	21.8	0.00e+00	0	38	0	1495269376	40	3967
2026-01-24 06:13:12.16	317.11	16.25	-35.0	-35.9	21.8	0.00e+00	0	38	0	1516240896	40	3980
2026-01-24 06:13:15.17	316.45	16.26	-35.2	-36.2	21.6	0.00e+00	0	38	0	1538260992	40	4104
2026-01-24 06:13:18.18	315.78	16.27	-35.4	-36.3	21.4	0.00e+00	0	38	0	1560281088	40	4181
2026-01-24 06:13:21.18	315.12	16.26	-35.5	-36.4	21.3	0.00e+00	0	38	0	1581252608	40	4219
2026-01-24 06:13:24.19	314.45	16.26	-35.6	-36.5	21.2	0.00e+00	0	38	0	1603272704	40	4270
2026-01-24 06:13:27.19	313.79	16.25	-35.7	-36.6	21.2	0.00e+00	0	38	0	1625292800	41	4071
2026-01-24 06:13:30.20	313.12	16.24	-35.6	-36.5	21.2	0.00e+00	0	38	0	1646264320	41	4047
2026-01-24 06:13:33.20	312.46	16.23	-35.4	-36.3	21.4	0.00e+00	0	38	0	1668284416	41	3943
2026-01-24 06:13:36.21	311.79	16.21	-35.3	-36.2	21.5	0.00e+00	0	38	0	1690304512	41	3892
2026-01-24 06:13:39.21	311.13	16.18	-35.2	-36.1	21.7	0.00e+00	0	38	0	1712324608	41	3827
2026-01-24 06:13:42.21	310.47	16.15	-35.3	-36.2	21.5	0.00e+00	0	38	0	1733296128	41	3872
2026-01-24 06:13:45.22	309.81	16.12	-35.3	-36.2	21.5	0.00e+00	0	38	0	1755316224	41	3895
2026-01-24 06:13:48.22	309.15	16.09	-35.2	-36.1	21.6	0.00e+00	0	38	0	1777336320	41	3835
2026-01-24 06:13:51.23	308.49	16.05	-35.1	-36.0	21.7	0.00e+00	0	38	0	1798307840	40	4042
2026-01-24 06:13:54.23	307.84	16.01	-35.3	-36.2	21.5	0.00e+00	0	38	0	1820327936	40	4134
2026-01-24 06:13:57.24	307.19	15.96	-35.5	-36.4	21.4	0.00e+00	0	38	0	1842348032	40	4208
2026-01-24 06:14:00.25	306.53	15.91	-35.6	-36.5	21.2	0.00e+00	0	38	0	1863319552	40	4276
2026-01-24 06:14:03.25	305.88	15.86	-35.6	-36.5	21.3	0.00e+00	0	38	0	1885339648	40	4249
2026-01-24 06:14:06.26	305.24	15.80	-35.6	-36.6	21.2	0.00e+00	0	38	0	1907359744	40	4302
2026-01-24 06:14:09.26	304.59	15.74	-35.6	-36.6	21.2	0.00e+00	0	38	0	1929379840	40	4296
2026-01-24 06:14:12.26	303.95	15.68	-35.7	-36.6	21.1	0.00e+00	0	38	0	1950351360	41	4087
2026-01-24 06:14:15.26	303.32	15.61	-35.7	-36.6	21.1	0.00e+00	0	38	0	1972371456	41	4096
2026-01-24 06:14:18.26	302.68	15.54	-35.7	-36.6	21.1	0.00e+00	0	38	0	1993342976	41	4093
2026-01-24 06:14:21.27	302.05	15.46	-35.8	-36.7	21.0	0.00e+00	0	38	0	2015363072	41	4129
2026-01-24 06:14:24.28	301.42	15.39	-35.8	-36.7	21.1	0.00e+00	0	38	0	2037383168	41	4109
2026-01-24 06:14:27.28	300.79	15.31	-35.9	-36.8	20.9	0.00e+00	0	38	0	2058354688	41	4166
2026-01-24 06:14:30.28	300.17	15.22	-35.8	-36.8	21.0	0.00e+00	0	38	0	2080374784	41	4147
2026-01-24 06:14:33.29	299.55	15.13	-35.8	-36.7	21.1	0.00e+00	0	38	0	2102394880	41	4103
2026-01-24 06:14:36.29	298.93	15.05	-35.8	-36.7	21.1	0.00e+00	0	38	0	2123366400	41	4104
2026-01-24 06:14:39.29	298.32	14.95	-35.9	-36.8	20.9	0.00e+00	0	38	0	2145386496	41	4172
2026-01-24 06:14:42.30	297.71	14.86	-36.2	-37.1	20.6	0.00e+00	0	38	0	2167406592	41	4322
2026-01-24 06:14:45.30	297.11	14.76	-36.0	-36.9	20.8	0.00e+00	0	38	0	2188378112	42	3992
2026-01-24 06:14:48.30	296.51	14.66	-36.0	-36.9	20.9	0.00e+00	0	38	0	2210398208	42	3993
2026-01-24 06:14:51.30	295.92	14.55	-36.1	-37.0	20.8	0.00e+00	0	38	0	2232418304	42	4022
2026-01-24 06:14:54.30	295.33	14.45	-36.1	-37.0	20.7	0.00e+00	0	38	0	2254438400	42	4050
2026-01-24 06:14:57.30	294.74	14.34	-36.2	-37.2	20.6	0.00e+00	0	38	0	2275409920	42	4106
2026-01-24 06:15:00.32	294.16	14.23	-36.1	-37.1	20.7	0.00e+00	0	38	0	2297430016	42	4061
2026-01-24 06:15:03.32	293.58	14.11	-36.1	-37.0	20.8	0.00e+00	0	38	0	2319450112	42	4019
2026-01-24 06:15:06.32	293.00	14.00	-36.0	-36.9	20.9	0.00e+00	0	38	0	2340421632	42	3978
2026-01-24 06:15:09.33	292.43	13.88	-36.2	-37.1	20.7	0.00e+00	0	38	0	2362441728	42	4077
2026-01-24 06:15:12.33	291.87	13.76	-36.4	-37.3	20.5	0.00e+00	0	38	0	2384461824	42	4176
2026-01-24 06:15:15.34	291.31	13.63	-36.3	-37.3	20.5	0.00e+00	0	38	0	2405433344	42	4147
2026-01-24 06:15:18.34	290.75	13.51	-36.4	-37.4	20.5	0.00e+00	0	38	0	2427453440	42	4196
2026-01-24 06:15:21.34	290.20	13.38	-36.5	-37.4	20.3	0.00e+00	0	38	0	2449473536	42	4238
2026-01-24 06:15:24.33	289.66	13.25	-36.5	-37.5	20.3	0.00e+00	0	38	0	2470445056	42	4269
2026-01-24 06:15:27.34	289.12	13.12	-36.5	-37.5	20.3	0.00e+00	0	38	0	2492465152	42	4267
2026-01-24 06:15:30.34	288.58	12.99	-36.6	-37.6	20.3	0.00e+00	0	38	0	2513436672	42	4311
2026-01-24 06:15:33.34	288.05	12.86	-36.6	-37.6	20.3	0.00e+00	0	38	0	2535456768	42	4300
2026-01-24 06:15:36.34	287.53	12.72	-36.6	-37.6	20.2	0.00e+00	0	38	0	2557476864	42	4313
2026-01-24 06:15:39.35	287.01	12.58	-36.7	-37.7	20.2	0.00e+00	0	38	0	2578448384	42	4361
2026-01-24 06:15:42.35	286.49	12.45	-36.6	-37.5	20.2	0.00e+00	0	38	0	2600468480	43	4050
2026-01-24 06:15:45.36	285.98	12.31	-36.5	-37.5	20.3	0.00e+00	0	38	0	2622488576	43	4030
2026-01-24 06:15:48.37	285.47	12.16	-36.4	-37.3	20.5	0.00e+00	0	38	0	2644508672	43	3936
2026-01-24 06:15:51.37	284.97	12.02	-36.4	-37.3	20.5	0.00e+00	0	38	0	2665480192	43	3953
2026-01-24 06:15:54.36	284.47	11.88	-36.5	-37.5	20.3	0.00e+00	0	38	0	2687500288	43	4023
2026-01-24 06:15:57.36	283.98	11.73	-36.8	-37.8	20.0	0.00e+00	0	38	0	2709520384	43	4158
2026-01-24 06:16:00.37	283.49	11.58	-37.0	-38.0	19.8	0.00e+00	0	38	0	2730491904	43	4280
2026-01-24 06:16:03.37	283.01	11.44	-36.8	-37.8	20.0	0.00e+00	0	38	0	2752512000	43	4171
2026-01-24 06:16:06.37	282.54	11.29	-36.9	-37.9	19.9	0.00e+00	0	38	0	2774532096	43	4235
2026-01-24 06:16:09.37	282.06	11.14	-36.9	-37.9	20.0	0.00e+00	0	38	0	2795503616	43	4214
2026-01-24 06:16:12.37	281.60	10.99	-36.8	-37.7	20.1	0.00e+00	0	38	0	2817523712	43	4135
2026-01-24 06:16:15.38	281.13	10.84	-36.9	-37.9	19.9	0.00e+00	0	38	0	2839543808	43	4208
2026-01-24 06:16:18.38	280.68	10.68	-37.0	-37.9	19.9	0.00e+00	0	38	0	2860515328	43	4233
2026-01-24 06:16:21.38	280.22	10.53	-37.1	-38.1	19.7	0.00e+00	0	38	0	2882535424	43	4321
2026-01-24 06:16:24.38	279.78	10.38	-37.2	-38.2	19.6	0.00e+00	0	38	0	2904555520	43	4351
2026-01-24 06:16:27.39	279.33	10.22	-37.2	-38.2	19.6	0.00e+00	0	38	0	2925527040	43	4389
2026-01-24 06:16:30.40	278.89	10.07	-37.2	-38.2	19.5	0.00e+00	0	38	0	2947547136	43	4384
2026-01-24 06:16:33.40	278.46	9.91	-37.5	-38.5	19.5	0.00e+00	0	38	0	2969567232	44	4256
2026-01-24 06:16:36.41	278.03	9.75	-37.4	-38.4	19.6	0.00e+00	0	38	0	2991587328	44	4201
2026-01-24 06:16:39.42	277.60	9.60	-37.4	-38.4	19.5	0.00e+00	0	38	0	3012558848	44	4232
2026-01-24 06:16:42.42	277.18	9.44	-37.5	-38.5	19.4	0.00e+00	0	38	0	3034578944	44	4284
2026-01-24 06:16:45.42	276.77	9.28	-37.5	-38.5	19.4	0.00e+00	0	38	0	3055550464	44	4274
2026-01-24 06:16:48.43	276.36	9.12	-37.5	-38.5	19.4	0.00e+00	0	38	0	3077570560	44	4261
2026-01-24 06:16:51.42	275.95	8.96	-48.6	-59.1	3.8	8.46e-01	0	38	104	3095396352	66	12827
2026-01-24 06:16:54.41	275.55	8.81	-49.1	-59.9	3.8	8.48e-01	0	38	104	3095396352	67	13283
2026-01-24 06:16:57.40	275.16	8.65	-49.2	-60.0	3.8	8.46e-01	0	38	104	3095396352	67	13497
2026-01-24 06:17:00.39	274.76	8.49	-49.5	-60.2	3.8	8.48e-01	0	38	104	3095396352	68	13068
2026-01-24 06:17:03.37	274.38	8.33	-49.3	-60.2	3.8	8.47e-01	0	38	104	3095396352	68	13088
2026-01-24 06:17:06.36	274.00	8.17	-49.3	-60.3	3.8	8.46e-01	0	38	104	3095396352	68	13132
2026-01-24 06:17:09.35	273.62	8.01	-49.4	-60.2	3.8	8.46e-01	0	38	104	3095396352	68	13027
2026-01-24 06:17:12.34	273.24	7.85	-49.2	-60.1	3.8	8.47e-01	0	39	104	3095396352	68	12945
2026-01-24 06:17:15.33	272.87	7.69	-49.2	-60.1	3.8	8.46e-01	0	38	104	3095396352	68	12938
2026-01-24 06:17:18.32	272.51	7.53	-49.2	-60.1	3.8	8.48e-01	0	38	104	3095396352	68	12846
2026-01-24 06:17:21.31	272.14	7.37	-49.2	-60.1	3.8	8.46e-01	0	38	104	3095396352	68	12897
2026-01-24 06:17:24.29	271.79	7.21	-49.1	-60.1	3.8	8.46e-01	0	38	104	3095396352	68	12928
2026-01-24 06:17:27.28	271.43	7.05	-49.1	-60.1	3.8	8.47e-01	0	38	104	3095396352	68	12906
2026-01-24 06:17:30.27	271.08	6.89	-49.1	-60.0	3.8	8.47e-01	0	38	104	3095396352	68	12748
2026-01-24 06:17:33.26	270.74	6.73	-49.1	-60.1	3.8	8.47e-01	0	38	104	3095396352	68	12811
2026-01-24 06:17:36.24	270.40	6.57	-49.1	-60.1	3.8	8.48e-01	0	38	104	3095396352	68	12894
2026-01-24 06:17:39.23	270.06	6.41	-49.1	-60.1	3.8	8.47e-01	0	38	104	3095396352	68	12811
2026-01-24 06:17:42.22	269.72	6.25	-49.1	-60.1	3.8	8.46e-01	0	38	104	3095396352	68	12860
2026-01-24 06:17:45.20	269.39	6.09	-49.1	-60.1	3.8	8.47e-01	0	38	104	3095396352	68	12851
2026-01-24 06:17:48.19	269.07	5.93	-49.1	-60.0	3.8	8.46e-01	0	38	104	3095396352	68	12719
2026-01-24 06:17:51.18	268.74	5.77	-49.1	-60.0	3.8	8.47e-01	0	39	104	3095396352	68	12775
2026-01-24 06:17:54.17	268.42	5.61	-49.1	-60.0	3.8	8.47e-01	0	38	104	3095396352	68	12734
2026-01-24 06:17:57.16	268.11	5.45	-49.1	-60.0	3.8	8.47e-01	0	38	104	3095396352	68	12760
2026-01-24 06:18:00.15	267.79	5.29	-49.1	-60.1	3.8	8.48e-01	0	38	104	3095396352	68	12837
2026-01-24 06:18:03.13	267.48	5.13	-49.1	-60.0	3.8	8.46e-01	0	38	104	3095396352	68	12759
2026-01-24 06:18:06.12	267.18	4.97	-49.1	-60.0	3.8	8.47e-01	0	38	104	3095396352	68	12806

#Closed at: 2026-01-24 06:18:07
#Recorded file [3095 MB]: D:/Data/31040_260124_090833.dat