passes_logs/2026/01/24/T1/T1__20260124_091850_FENGYUN_3D_rec.log

#Pass ID: 20260124_091850_FENGYUN 3D
#Satellite: FENGYUN 3D
#Configuration: FENGYUN 3D
#almurnet v.1.7.20251203
#Start time: 2026-01-24 09:18:51

#Version: 2.0.20230620
#Station: T1
#Location: 37.570604 lon 55.790049 lat
#TLE: 1 43010U 17072A   26023.60174628  .00000324  00000+0  17481-3 0  9994
#TLE: 2 43010  98.9958 355.5514 0002482  93.7422 266.4037 14.19699955424476

#Time	Az	El	Level	Level2	SNR	BER	BlckErr	Temp	State	Recorded	gain1	gain2
2026-01-24 09:18:51.08	72.23	5.04	-48.1	-60.2	3.8	8.47e-01	0	38	0	0	68	13980
2026-01-24 09:18:53.06	71.99	5.12	-48.1	-60.2	3.8	8.47e-01	0	38	104	0	68	13944
2026-01-24 09:18:55.05	71.74	5.20	-48.1	-60.1	3.8	8.46e-01	0	38	104	0	68	13877
2026-01-24 09:18:57.05	71.49	5.29	-48.1	-60.2	3.8	8.47e-01	0	38	104	0	68	13985
2026-01-24 09:18:59.04	71.24	5.37	-48.1	-60.2	3.8	8.47e-01	0	38	104	0	68	13891
2026-01-24 09:19:01.04	70.99	5.45	-48.1	-60.1	3.8	8.48e-01	0	38	104	0	68	13812
2026-01-24 09:19:03.04	70.73	5.53	-48.0	-60.1	3.8	8.46e-01	0	38	104	0	68	13875
2026-01-24 09:19:05.04	70.48	5.61	-48.0	-60.1	3.8	8.46e-01	0	38	104	0	68	13777
2026-01-24 09:19:07.03	70.22	5.70	-48.0	-60.1	3.8	8.48e-01	0	38	104	0	68	13756
2026-01-24 09:19:09.03	69.96	5.78	-48.0	-60.0	3.8	8.46e-01	0	38	104	0	68	13708
2026-01-24 09:19:11.02	69.70	5.86	-48.0	-60.1	3.8	8.47e-01	0	39	104	0	68	13823
2026-01-24 09:19:13.02	69.44	5.94	-48.0	-60.1	3.8	8.46e-01	0	39	104	0	68	13838
2026-01-24 09:19:15.02	69.18	6.02	-48.0	-60.2	3.8	8.47e-01	0	39	104	0	68	13895
2026-01-24 09:19:17.01	68.92	6.10	-48.0	-60.1	3.8	8.45e-01	0	39	104	0	68	13759
2026-01-24 09:19:19.01	68.65	6.18	-48.0	-60.1	3.8	8.47e-01	0	39	104	0	68	13765
2026-01-24 09:19:21.01	68.38	6.26	-48.0	-60.1	3.8	8.47e-01	0	39	104	0	68	13869
2026-01-24 09:19:23.00	68.11	6.34	-48.0	-60.1	3.8	8.47e-01	0	39	104	0	68	13849
2026-01-24 09:19:24.99	67.84	6.42	-48.0	-60.1	3.8	8.47e-01	0	39	104	0	68	13843
2026-01-24 09:19:26.99	67.57	6.50	-48.0	-60.1	3.8	8.48e-01	0	39	104	0	68	13783
2026-01-24 09:19:28.98	67.30	6.57	-48.0	-60.1	3.8	8.48e-01	0	39	104	0	68	13763
2026-01-24 09:19:30.98	67.03	6.65	-48.0	-60.1	3.8	8.47e-01	0	39	104	0	68	13760
2026-01-24 09:19:32.97	66.75	6.73	-48.0	-60.1	3.8	8.46e-01	0	39	104	0	68	13735
2026-01-24 09:19:34.97	66.47	6.81	-48.0	-60.1	3.8	8.47e-01	0	39	104	0	68	13744
2026-01-24 09:19:36.96	66.19	6.88	-48.0	-60.1	3.8	8.47e-01	0	39	104	0	68	13782
2026-01-24 09:19:38.96	65.91	6.96	-48.0	-60.1	3.8	8.47e-01	0	39	104	0	68	13766
2026-01-24 09:19:40.96	65.63	7.04	-48.0	-60.1	3.8	8.47e-01	0	40	104	0	68	13773
2026-01-24 09:19:42.95	65.35	7.11	-48.0	-60.1	3.8	8.47e-01	0	39	104	0	68	13827
2026-01-24 09:19:44.95	65.06	7.19	-48.0	-60.1	3.8	8.47e-01	0	39	104	0	68	13733
2026-01-24 09:19:46.95	64.78	7.26	-48.0	-60.0	3.8	8.46e-01	0	39	104	0	68	13724
2026-01-24 09:19:48.94	64.49	7.33	-48.0	-60.0	3.8	8.48e-01	0	39	104	0	68	13686
2026-01-24 09:19:50.94	64.20	7.41	-48.1	-60.0	3.8	8.47e-01	0	39	104	0	68	13699
2026-01-24 09:19:52.93	63.91	7.48	-48.1	-60.0	3.8	8.46e-01	0	39	104	0	68	13591
2026-01-24 09:19:54.93	63.62	7.55	-48.2	-59.8	3.8	8.46e-01	0	39	104	0	68	13386
2026-01-24 09:19:56.92	63.32	7.62	-48.2	-59.9	3.8	8.47e-01	0	39	104	0	68	13487
2026-01-24 09:19:58.92	63.03	7.70	-48.3	-60.1	3.8	8.47e-01	0	39	104	0	68	13772
2026-01-24 09:20:00.91	62.73	7.77	-48.3	-60.1	3.8	8.48e-01	0	40	104	0	68	13876
2026-01-24 09:20:02.91	62.43	7.84	-48.3	-60.1	3.8	8.48e-01	0	39	104	0	68	13782
2026-01-24 09:20:04.91	62.13	7.91	-48.3	-59.9	3.8	8.47e-01	0	39	104	0	68	13558
2026-01-24 09:20:06.90	61.83	7.98	-48.3	-60.0	3.8	8.48e-01	0	39	104	0	68	13576
2026-01-24 09:20:08.90	61.53	8.05	-48.4	-60.3	3.8	8.48e-01	0	39	104	0	68	14056
2026-01-24 09:20:10.90	61.23	8.12	-48.4	-60.4	3.8	8.46e-01	0	40	104	0	68	14215
2026-01-24 09:20:12.90	60.92	8.18	-48.4	-60.0	3.8	8.47e-01	0	39	104	0	68	13591
2026-01-24 09:20:14.89	60.61	8.25	-48.3	-59.1	3.8	8.46e-01	0	40	104	0	68	12331
2026-01-24 09:20:16.89	60.30	8.32	-48.4	-59.2	3.8	8.47e-01	0	40	104	0	68	12390
2026-01-24 09:20:18.89	59.99	8.38	-48.5	-60.1	3.8	8.47e-01	0	40	104	0	68	13813
2026-01-24 09:20:20.89	59.68	8.45	-48.5	-60.5	3.8	8.47e-01	0	40	104	0	68	14392
2026-01-24 09:20:22.88	59.37	8.51	-48.4	-59.3	3.8	8.46e-01	0	40	104	0	68	12598
2026-01-24 09:20:24.88	59.06	8.58	-48.0	-56.9	4.2	8.37e-01	0	40	0	0	68	9527
2026-01-24 09:20:26.88	58.74	8.64	-48.4	-59.1	3.8	8.45e-01	0	40	104	0	68	12352
2026-01-24 09:20:28.87	58.42	8.70	-47.3	-54.0	5.6	8.31e-01	0	40	0	0	66	7653
2026-01-24 09:20:30.87	58.11	8.76	-42.9	-45.7	13.6	1.65e-04	0	40	0	10485760	57	4958
2026-01-24 09:20:32.86	57.79	8.83	-39.9	-42.1	17.1	0.00e+00	0	40	0	22020096	51	4603
2026-01-24 09:20:34.86	57.47	8.89	-39.6	-41.8	17.4	0.00e+00	0	40	0	33554432	50	4716
2026-01-24 09:20:36.86	57.14	8.95	-41.8	-44.4	14.8	0.00e+00	0	40	0	44040192	54	5076
2026-01-24 09:20:38.86	56.82	9.01	-45.8	-50.2	9.0	1.56e-02	0	40	0	55574528	62	6273
2026-01-24 09:20:40.85	56.50	9.06	-44.7	-48.2	11.2	3.68e-04	0	40	0	67108864	59	5877
2026-01-24 09:20:42.85	56.17	9.12	-41.3	-43.7	15.6	7.72e-02	0	40	0	75497472	54	4683
2026-01-24 09:20:44.85	55.84	9.18	-42.0	-44.6	14.8	1.08e-01	0	39	0	83886080	56	4602
2026-01-24 09:20:46.85	55.51	9.24	-40.7	-43.0	16.2	0.00e+00	0	40	0	94371840	53	4579
2026-01-24 09:20:48.84	55.18	9.29	-40.8	-43.1	16.1	0.00e+00	0	40	0	105906176	53	4620
2026-01-24 09:20:50.84	54.85	9.35	-40.1	-42.3	16.9	0.00e+00	0	40	0	117440512	52	4467
2026-01-24 09:20:52.84	54.52	9.40	-39.1	-41.1	18.1	0.00e+00	0	40	0	128974848	50	4372
2026-01-24 09:20:54.83	54.18	9.45	-38.3	-40.3	18.8	0.00e+00	0	40	0	139460608	48	4478
2026-01-24 09:20:56.83	53.85	9.51	-38.1	-40.1	19.1	0.00e+00	0	40	0	150994944	48	4349
2026-01-24 09:20:58.81	53.52	9.56	-38.2	-40.2	18.9	0.00e+00	0	40	0	161480704	48	4415
2026-01-24 09:21:00.82	53.18	9.61	-38.2	-40.1	19.0	0.00e+00	0	40	0	173015040	48	4386
2026-01-24 09:21:02.81	52.84	9.66	-38.1	-40.1	19.0	0.00e+00	0	40	0	184549376	48	4372
2026-01-24 09:21:04.80	52.50	9.71	-38.3	-40.3	18.8	0.00e+00	0	40	0	196083712	48	4464
2026-01-24 09:21:06.80	52.16	9.75	-38.2	-40.2	19.0	0.00e+00	0	40	0	206569472	48	4417
2026-01-24 09:21:08.80	51.82	9.80	-38.1	-40.1	19.1	0.00e+00	0	40	0	218103808	48	4360
2026-01-24 09:21:10.79	51.47	9.85	-37.9	-39.8	19.1	0.00e+00	0	40	0	229638144	47	4492
2026-01-24 09:21:12.79	51.13	9.89	-37.8	-39.8	19.1	0.00e+00	0	40	0	241172480	47	4459
2026-01-24 09:21:14.78	50.78	9.94	-37.9	-39.9	19.0	0.00e+00	0	40	0	251658240	47	4535
2026-01-24 09:21:16.77	50.44	9.98	-37.9	-39.9	19.1	0.00e+00	0	40	0	263192576	47	4520
2026-01-24 09:21:18.77	50.09	10.02	-37.9	-39.9	19.1	0.00e+00	0	40	0	273678336	47	4507
2026-01-24 09:21:20.76	49.74	10.06	-38.2	-40.1	19.2	0.00e+00	0	40	0	285212672	47	4612
2026-01-24 09:21:22.75	49.40	10.10	-38.1	-40.0	19.2	0.00e+00	0	40	0	296747008	47	4572
2026-01-24 09:21:24.75	49.05	10.14	-38.2	-40.1	19.1	0.00e+00	0	40	0	308281344	47	4633
2026-01-24 09:21:26.75	48.69	10.18	-38.0	-39.9	19.3	0.00e+00	0	40	0	318767104	47	4505
2026-01-24 09:21:28.74	48.34	10.22	-37.8	-39.6	19.5	0.00e+00	0	40	0	330301440	47	4389
2026-01-24 09:21:30.73	47.99	10.26	-37.8	-39.6	19.5	0.00e+00	0	40	0	341835776	47	4382
2026-01-24 09:21:32.72	47.64	10.29	-37.6	-39.5	19.6	0.00e+00	0	40	0	352321536	47	4309
2026-01-24 09:21:34.71	47.28	10.33	-37.6	-39.5	19.6	0.00e+00	0	40	0	363855872	47	4299
2026-01-24 09:21:36.71	46.93	10.36	-37.5	-39.3	19.8	0.00e+00	0	40	0	375390208	47	4237
2026-01-24 09:21:38.71	46.57	10.40	-37.6	-39.4	19.6	0.00e+00	0	40	0	385875968	47	4287
2026-01-24 09:21:40.71	46.21	10.43	-37.7	-39.6	19.5	0.00e+00	0	40	0	397410304	47	4346
2026-01-24 09:21:42.70	45.86	10.46	-37.7	-39.5	19.5	0.00e+00	0	40	0	408944640	47	4337
2026-01-24 09:21:44.70	45.50	10.49	-37.6	-39.4	19.6	0.00e+00	0	40	0	420478976	46	4531
2026-01-24 09:21:46.69	45.14	10.52	-37.4	-39.3	19.7	0.00e+00	0	40	0	430964736	46	4454
2026-01-24 09:21:48.69	44.78	10.54	-37.6	-39.4	19.6	0.00e+00	0	40	0	442499072	46	4525
2026-01-24 09:21:50.69	44.42	10.57	-37.5	-39.3	19.7	0.00e+00	0	40	0	454033408	46	4481
2026-01-24 09:21:52.68	44.06	10.60	-37.5	-39.3	19.7	0.00e+00	0	40	0	465567744	46	4470
2026-01-24 09:21:54.67	43.70	10.62	-37.3	-39.2	19.9	0.00e+00	0	40	0	476053504	46	4396
2026-01-24 09:21:56.66	43.33	10.64	-37.4	-39.3	19.8	0.00e+00	0	40	0	487587840	46	4457
2026-01-24 09:21:58.66	42.97	10.67	-37.5	-39.4	19.7	0.00e+00	0	40	0	498073600	46	4511
2026-01-24 09:22:00.66	42.61	10.69	-37.7	-39.5	19.6	0.00e+00	0	40	0	509607936	46	4588
2026-01-24 09:22:02.65	42.24	10.71	-37.6	-39.5	19.7	0.00e+00	0	40	0	521142272	46	4556
2026-01-24 09:22:04.65	41.88	10.73	-37.6	-39.5	19.7	0.00e+00	0	40	0	532676608	46	4561
2026-01-24 09:22:06.65	41.51	10.74	-37.7	-39.5	19.7	0.00e+00	0	40	0	543162368	46	4588
2026-01-24 09:22:08.65	41.15	10.76	-37.8	-39.7	19.5	0.00e+00	0	40	0	554696704	46	4656
2026-01-24 09:22:10.64	40.78	10.78	-37.9	-39.7	19.5	0.00e+00	0	40	0	566231040	46	4700
2026-01-24 09:22:12.64	40.41	10.79	-37.9	-39.8	19.4	0.00e+00	0	40	0	577765376	46	4728
2026-01-24 09:22:14.63	40.05	10.80	-37.9	-39.8	19.5	0.00e+00	0	40	0	588251136	46	4716
2026-01-24 09:22:16.63	39.68	10.82	-37.9	-39.8	19.4	0.00e+00	0	40	0	599785472	46	4745
2026-01-24 09:22:18.62	39.31	10.83	-37.8	-39.7	19.6	0.00e+00	0	40	0	611319808	46	4658
2026-01-24 09:22:20.61	38.95	10.84	-37.7	-39.6	19.7	0.00e+00	0	40	0	621805568	46	4616
2026-01-24 09:22:22.61	38.58	10.85	-37.5	-39.4	19.9	0.00e+00	0	40	0	633339904	46	4503
2026-01-24 09:22:24.61	38.21	10.86	-37.2	-39.1	20.2	0.00e+00	0	40	0	644874240	46	4341
2026-01-24 09:22:26.60	37.84	10.86	-37.4	-39.3	20.0	0.00e+00	0	40	0	655360000	46	4444
2026-01-24 09:22:28.59	37.48	10.87	-37.4	-39.3	20.0	0.00e+00	0	40	0	666894336	46	4457
2026-01-24 09:22:30.58	37.11	10.87	-37.5	-39.3	20.0	0.00e+00	0	40	0	678428672	46	4466
2026-01-24 09:22:32.58	36.74	10.87	-37.5	-39.3	20.0	0.00e+00	0	40	0	689963008	46	4484
2026-01-24 09:22:34.57	36.37	10.88	-37.6	-39.5	19.8	0.00e+00	0	40	0	700448768	46	4584
2026-01-24 09:22:36.57	36.00	10.88	-37.6	-39.5	19.8	0.00e+00	0	40	0	711983104	46	4580
2026-01-24 09:22:38.57	35.63	10.88	-37.8	-39.6	19.7	0.00e+00	0	40	0	723517440	46	4650
2026-01-24 09:22:40.57	35.26	10.88	-37.9	-39.8	19.5	0.00e+00	0	40	0	734003200	46	4727
2026-01-24 09:22:42.56	34.90	10.87	-37.9	-39.8	19.5	0.00e+00	0	40	0	745537536	46	4710
2026-01-24 09:22:44.56	34.53	10.87	-37.8	-39.7	19.6	0.00e+00	0	40	0	757071872	46	4691
2026-01-24 09:22:46.55	34.16	10.87	-37.7	-39.6	19.7	0.00e+00	0	40	0	767557632	46	4614
2026-01-24 09:22:48.55	33.79	10.86	-37.7	-39.6	19.7	0.00e+00	0	40	0	779091968	46	4619
2026-01-24 09:22:50.55	33.42	10.85	-37.4	-39.3	20.0	0.00e+00	0	40	0	790626304	46	4453
2026-01-24 09:22:52.54	33.06	10.84	-37.2	-39.0	20.3	0.00e+00	0	40	0	802160640	46	4324
2026-01-24 09:22:54.53	32.69	10.84	-37.2	-39.0	20.3	0.00e+00	0	40	0	812646400	46	4316
2026-01-24 09:22:56.53	32.32	10.82	-37.2	-39.1	20.2	0.00e+00	0	40	0	824180736	46	4358
2026-01-24 09:22:58.53	31.95	10.81	-37.4	-39.3	20.0	0.00e+00	0	40	0	835715072	46	4462
2026-01-24 09:23:00.53	31.59	10.80	-37.3	-39.1	20.2	0.00e+00	0	40	0	846200832	46	4381
2026-01-24 09:23:02.52	31.22	10.79	-37.3	-39.2	20.2	0.00e+00	0	40	0	857735168	46	4392
2026-01-24 09:23:04.52	30.85	10.77	-37.4	-39.3	20.1	0.00e+00	0	40	0	869269504	46	4444
2026-01-24 09:23:06.52	30.49	10.76	-37.6	-39.5	19.9	0.00e+00	0	40	0	879755264	46	4554
2026-01-24 09:23:08.51	30.12	10.74	-37.9	-39.8	19.6	0.00e+00	0	40	0	891289600	46	4711
2026-01-24 09:23:10.50	29.76	10.72	-38.0	-39.9	19.4	0.00e+00	0	40	0	902823936	46	4789
2026-01-24 09:23:12.50	29.40	10.70	-37.8	-39.7	19.6	0.00e+00	0	40	0	914358272	46	4698
2026-01-24 09:23:14.50	29.03	10.68	-37.8	-39.7	19.7	0.00e+00	0	40	0	924844032	46	4665
2026-01-24 09:23:16.49	28.67	10.66	-37.6	-39.4	19.9	0.00e+00	0	40	0	936378368	46	4531
2026-01-24 09:23:18.49	28.31	10.64	-37.7	-39.6	19.8	0.00e+00	0	40	0	947912704	46	4610
2026-01-24 09:23:20.49	27.94	10.61	-37.6	-39.5	19.9	0.00e+00	0	40	0	959447040	46	4548
2026-01-24 09:23:22.48	27.58	10.59	-37.6	-39.4	19.9	0.00e+00	0	40	0	969932800	46	4541
2026-01-24 09:23:24.48	27.22	10.56	-37.6	-39.5	19.9	0.00e+00	0	40	0	981467136	46	4578
2026-01-24 09:23:26.47	26.86	10.54	-37.7	-39.6	19.8	0.00e+00	0	40	0	991952896	46	4625
2026-01-24 09:23:28.46	26.50	10.51	-37.9	-39.8	19.6	0.00e+00	0	40	0	1003487232	46	4709
2026-01-24 09:23:30.45	26.15	10.48	-37.9	-39.9	19.5	0.00e+00	0	40	0	1015021568	46	4765
2026-01-24 09:23:32.45	25.79	10.45	-38.0	-39.9	19.5	0.00e+00	0	40	0	1026555904	46	4802
2026-01-24 09:23:34.45	25.43	10.42	-38.0	-39.9	19.5	0.00e+00	0	40	0	1037041664	46	4792
2026-01-24 09:23:36.44	25.08	10.39	-38.0	-39.9	19.5	0.00e+00	0	40	0	1048576000	46	4782
2026-01-24 09:23:38.44	24.72	10.35	-38.1	-40.0	19.4	0.00e+00	0	40	0	1060110336	46	4852
2026-01-24 09:23:40.43	24.37	10.32	-38.1	-40.0	19.5	0.00e+00	0	40	0	1070596096	46	4834
2026-01-24 09:23:42.43	24.01	10.28	-37.9	-39.8	19.6	0.00e+00	0	40	0	1082130432	46	4752
2026-01-24 09:23:44.42	23.66	10.25	-38.0	-39.9	19.5	0.00e+00	0	40	0	1093664768	46	4783
2026-01-24 09:23:46.42	23.31	10.21	-38.0	-39.9	19.5	0.00e+00	0	40	0	1105199104	46	4765
2026-01-24 09:23:48.41	22.96	10.17	-37.8	-39.7	19.7	0.00e+00	0	40	0	1115684864	46	4688
2026-01-24 09:23:50.41	22.61	10.13	-37.7	-39.6	19.8	0.00e+00	0	40	0	1127219200	46	4635
2026-01-24 09:23:52.41	22.26	10.09	-37.7	-39.7	19.7	0.00e+00	0	40	0	1138753536	46	4680
2026-01-24 09:23:54.40	21.91	10.05	-37.7	-39.7	19.7	0.00e+00	0	40	0	1149239296	46	4680
2026-01-24 09:23:56.40	21.56	10.01	-37.7	-39.8	19.7	0.00e+00	0	40	0	1160773632	46	4712
2026-01-24 09:23:58.40	21.21	9.97	-37.8	-39.9	19.5	0.00e+00	0	40	0	1172307968	46	4761
2026-01-24 09:24:00.39	20.87	9.92	-37.7	-39.7	19.7	0.00e+00	0	40	0	1183842304	46	4679
2026-01-24 09:24:02.39	20.52	9.88	-37.9	-39.9	19.5	0.00e+00	0	40	0	1194328064	46	4774
2026-01-24 09:24:04.39	20.18	9.83	-38.0	-40.0	19.5	0.00e+00	0	40	0	1205862400	46	4823
2026-01-24 09:24:06.38	19.84	9.79	-37.9	-39.9	19.5	0.00e+00	0	40	0	1217396736	46	4766
2026-01-24 09:24:08.38	19.50	9.74	-37.9	-39.8	19.6	0.00e+00	0	40	0	1228931072	46	4750
2026-01-24 09:24:10.38	19.16	9.69	-38.0	-39.9	19.5	0.00e+00	0	40	0	1239416832	46	4786
2026-01-24 09:24:12.38	18.82	9.64	-38.0	-39.9	19.5	0.00e+00	0	40	0	1250951168	46	4784
2026-01-24 09:24:14.38	18.48	9.59	-38.0	-39.9	19.5	0.00e+00	0	40	0	1261436928	46	4796
2026-01-24 09:24:16.37	18.15	9.54	-38.0	-39.9	19.6	0.00e+00	0	40	0	1272971264	46	4762
2026-01-24 09:24:18.37	17.81	9.49	-38.0	-39.9	19.5	0.00e+00	0	40	0	1284505600	46	4784
2026-01-24 09:24:20.36	17.48	9.44	-38.0	-39.9	19.5	0.00e+00	0	40	0	1296039936	46	4809
2026-01-24 09:24:22.36	17.15	9.38	-38.1	-40.0	19.4	0.00e+00	0	40	0	1306525696	46	4861
2026-01-24 09:24:24.36	16.81	9.33	-38.0	-40.0	19.4	0.00e+00	0	40	0	1318060032	46	4851
2026-01-24 09:24:26.35	16.48	9.27	-38.1	-40.2	19.2	0.00e+00	0	40	0	1329594368	46	4952
2026-01-24 09:24:28.35	16.16	9.22	-38.3	-40.4	19.0	0.00e+00	0	40	0	1341128704	47	4811
2026-01-24 09:24:30.35	15.83	9.16	-38.5	-40.6	18.8	0.00e+00	0	40	0	1351614464	47	4911
2026-01-24 09:24:32.34	15.50	9.10	-38.5	-40.6	18.9	0.00e+00	0	40	0	1363148800	47	4873
2026-01-24 09:24:34.34	15.18	9.05	-38.5	-40.6	18.8	0.00e+00	0	40	0	1374683136	47	4899
2026-01-24 09:24:36.34	14.85	8.99	-47.3	-59.3	3.8	8.25e-01	0	40	104	1384120320	65	15006
2026-01-24 09:24:38.34	14.53	8.93	-48.5	-61.2	3.8	8.46e-01	0	40	104	1384120320	67	16544
2026-01-24 09:24:40.34	14.21	8.87	-48.8	-61.4	3.8	8.47e-01	0	40	104	1384120320	68	16102
2026-01-24 09:24:42.34	13.89	8.81	-49.3	-61.6	3.8	8.48e-01	0	40	104	1384120320	69	15425
2026-01-24 09:24:44.34	13.57	8.74	-49.2	-61.6	3.8	8.47e-01	0	40	104	1384120320	69	15558
2026-01-24 09:24:46.34	13.25	8.68	-49.1	-61.7	3.8	8.47e-01	0	40	104	1384120320	69	15630
2026-01-24 09:24:48.34	12.94	8.62	-49.4	-61.7	3.8	8.47e-01	0	40	104	1384120320	69	15683
2026-01-24 09:24:50.33	12.62	8.56	-49.5	-61.8	3.8	8.46e-01	0	40	104	1384120320	69	15772
2026-01-24 09:24:52.32	12.31	8.49	-49.7	-61.8	3.8	8.47e-01	0	40	104	1384120320	70	14882
2026-01-24 09:24:54.32	12.00	8.43	-49.5	-61.7	3.8	8.47e-01	0	40	104	1384120320	70	14857
2026-01-24 09:24:56.32	11.69	8.36	-49.5	-61.7	3.8	8.46e-01	0	40	104	1384120320	70	14832
2026-01-24 09:24:58.32	11.38	8.30	-49.5	-61.7	3.8	8.47e-01	0	40	104	1384120320	70	14778
2026-01-24 09:25:00.32	11.08	8.23	-49.4	-61.7	3.8	8.48e-01	0	40	104	1384120320	70	14803
2026-01-24 09:25:02.31	10.77	8.16	-49.3	-61.7	3.8	8.48e-01	0	40	104	1384120320	70	14728
2026-01-24 09:25:04.30	10.47	8.09	-49.3	-61.6	3.8	8.47e-01	0	40	104	1384120320	70	14673
2026-01-24 09:25:06.30	10.17	8.03	-49.3	-61.6	3.8	8.47e-01	0	40	104	1384120320	70	14698
2026-01-24 09:25:08.30	9.86	7.96	-49.3	-61.6	3.8	8.48e-01	0	40	104	1384120320	70	14672
2026-01-24 09:25:10.29	9.57	7.89	-49.3	-61.6	3.8	8.47e-01	0	40	104	1384120320	70	14626
2026-01-24 09:25:12.29	9.27	7.82	-49.3	-61.6	3.8	8.47e-01	0	40	104	1384120320	70	14670
2026-01-24 09:25:14.29	8.97	7.75	-49.3	-61.6	3.8	8.48e-01	0	40	104	1384120320	70	14698
2026-01-24 09:25:16.28	8.68	7.68	-49.3	-61.7	3.8	8.47e-01	0	40	104	1384120320	70	14719
2026-01-24 09:25:18.28	8.38	7.60	-49.3	-61.6	3.8	8.47e-01	0	40	104	1384120320	70	14652
2026-01-24 09:25:20.27	8.09	7.53	-49.3	-61.6	3.8	8.48e-01	0	40	104	1384120320	70	14605
2026-01-24 09:25:22.26	7.80	7.46	-49.3	-61.6	3.8	8.48e-01	0	40	104	1384120320	70	14621
2026-01-24 09:25:24.26	7.51	7.39	-49.3	-61.7	3.8	8.47e-01	0	40	104	1384120320	70	14716
2026-01-24 09:25:26.26	7.22	7.31	-49.3	-61.6	3.8	8.47e-01	0	40	104	1384120320	70	14699
2026-01-24 09:25:28.25	6.94	7.24	-49.3	-61.6	3.8	8.47e-01	0	40	104	1384120320	70	14686
2026-01-24 09:25:30.25	6.65	7.16	-49.3	-61.5	3.8	8.47e-01	0	40	104	1384120320	70	14527
2026-01-24 09:25:32.25	6.37	7.09	-49.3	-61.6	3.8	8.47e-01	0	40	104	1384120320	70	14644
2026-01-24 09:25:34.24	6.09	7.01	-49.3	-61.6	3.8	8.46e-01	0	40	104	1384120320	70	14581
2026-01-24 09:25:36.24	5.81	6.94	-49.3	-61.6	3.8	8.48e-01	0	40	104	1384120320	70	14562
2026-01-24 09:25:38.24	5.53	6.86	-49.3	-61.6	3.8	8.48e-01	0	40	104	1384120320	70	14602
2026-01-24 09:25:40.23	5.25	6.78	-49.3	-61.6	3.8	8.47e-01	0	40	104	1384120320	70	14633
2026-01-24 09:25:42.23	4.98	6.71	-49.3	-61.6	3.8	8.47e-01	0	40	104	1384120320	70	14606
2026-01-24 09:25:44.22	4.70	6.63	-49.2	-61.6	3.8	8.48e-01	0	40	104	1384120320	70	14549
2026-01-24 09:25:46.22	4.43	6.55	-49.2	-61.6	3.8	8.46e-01	0	40	104	1384120320	70	14585
2026-01-24 09:25:48.22	4.16	6.47	-49.3	-61.6	3.8	8.46e-01	0	40	104	1384120320	70	14647
2026-01-24 09:25:50.21	3.89	6.40	-49.2	-61.6	3.8	8.46e-01	0	40	104	1384120320	70	14599
2026-01-24 09:25:52.20	3.62	6.32	-49.3	-61.6	3.8	8.47e-01	0	40	104	1384120320	70	14561
2026-01-24 09:25:54.20	3.35	6.24	-49.3	-61.6	3.8	8.47e-01	0	40	104	1384120320	70	14606
2026-01-24 09:25:56.19	3.09	6.16	-49.3	-61.6	3.8	8.46e-01	0	40	104	1384120320	70	14604
2026-01-24 09:25:58.18	2.83	6.08	-49.2	-61.5	3.8	8.46e-01	0	40	104	1384120320	69	15382
2026-01-24 09:26:00.17	2.57	6.00	-49.2	-61.6	3.8	8.47e-01	0	40	104	1384120320	69	15419
2026-01-24 09:26:02.16	2.31	5.92	-49.2	-61.6	3.8	8.46e-01	0	40	104	1384120320	69	15452
2026-01-24 09:26:04.15	2.05	5.84	-49.2	-61.6	3.8	8.47e-01	0	40	104	1384120320	69	15443
2026-01-24 09:26:06.14	1.79	5.76	-49.2	-61.5	3.8	8.46e-01	0	40	104	1384120320	69	15371
2026-01-24 09:26:08.13	1.53	5.68	-49.2	-61.5	3.8	8.46e-01	0	40	104	1384120320	69	15398
2026-01-24 09:26:10.13	1.28	5.59	-49.2	-61.6	3.8	8.47e-01	0	40	104	1384120320	69	15456
2026-01-24 09:26:12.12	1.03	5.51	-49.2	-61.6	3.8	8.47e-01	0	40	104	1384120320	69	15432
