passes_logs/2026/01/24/T1/T1__20260124_160024_FENGYUN_3E_rec.log

#Pass ID: 20260124_160024_FENGYUN 3E
#Satellite: FENGYUN 3E
#Configuration: FENGYUN 3E
#almurnet v.1.7.20251203
#Start time: 2026-01-24 16:00:26

#Version: 2.0.20230620
#Station: T1
#Location: 37.570604 lon 55.790049 lat
#TLE: 1 49008U 21062A   26024.23699167 -.00000179  00000+0 -63840-4 0  9992
#TLE: 2 49008  98.7493  29.2570 0002404 119.1229 241.0188 14.19886095236155

#Time	Az	El	Level	Level2	SNR	BER	BlckErr	Temp	State	Recorded	gain1	gain2
2026-01-24 16:00:26.29	220.54	5.08	-48.7	-59.4	3.8	8.47e-01	0	35	0	0	68	11886
2026-01-24 16:00:29.27	220.84	5.24	-48.6	-59.4	3.8	8.47e-01	0	35	104	0	68	11873
2026-01-24 16:00:32.25	221.15	5.40	-48.6	-59.4	3.8	8.48e-01	0	35	104	0	68	11869
2026-01-24 16:00:35.23	221.45	5.57	-48.6	-59.4	3.8	8.47e-01	0	35	104	0	68	11910
2026-01-24 16:00:38.21	221.76	5.73	-48.6	-59.4	3.8	8.47e-01	0	35	104	0	68	11871
2026-01-24 16:00:41.18	222.08	5.89	-48.6	-59.4	3.8	8.48e-01	0	36	104	0	68	11870
2026-01-24 16:00:44.16	222.39	6.06	-48.6	-59.4	3.8	8.48e-01	0	36	104	0	68	11843
2026-01-24 16:00:47.14	222.71	6.22	-48.6	-59.4	3.8	8.47e-01	0	36	104	0	68	11921
2026-01-24 16:00:50.12	223.04	6.38	-48.6	-59.3	3.8	8.47e-01	0	36	104	0	68	11792
2026-01-24 16:00:53.10	223.36	6.55	-48.6	-59.3	3.8	8.47e-01	0	36	104	0	68	11735
2026-01-24 16:00:56.08	223.69	6.71	-48.4	-58.9	3.8	8.47e-01	0	36	104	0	67	11836
2026-01-24 16:00:59.06	224.03	6.88	-48.4	-58.9	3.8	8.46e-01	0	36	104	0	67	11901
2026-01-24 16:01:02.04	224.37	7.04	-48.4	-59.2	3.8	8.46e-01	0	36	104	0	67	12284
2026-01-24 16:01:05.02	224.71	7.21	-48.4	-59.0	3.8	8.47e-01	0	36	104	0	67	11990
2026-01-24 16:01:08.00	225.05	7.38	-48.4	-58.9	3.8	8.47e-01	0	37	104	0	67	11826
2026-01-24 16:01:10.98	225.40	7.54	-48.4	-58.7	3.8	8.47e-01	0	37	104	0	67	11590
2026-01-24 16:01:13.96	225.75	7.71	-48.4	-58.6	3.8	8.47e-01	0	37	104	0	67	11483
2026-01-24 16:01:16.93	226.11	7.87	-48.4	-59.0	3.8	8.46e-01	0	37	104	0	67	12038
2026-01-24 16:01:19.92	226.47	8.04	-47.9	-55.7	4.2	8.41e-01	0	37	0	0	66	8754
2026-01-24 16:01:22.90	226.84	8.21	-48.4	-58.9	3.8	8.46e-01	0	37	104	0	66	12645
2026-01-24 16:01:25.87	227.21	8.37	-44.8	-47.5	10.6	6.32e-03	0	37	0	7340032	60	4786
2026-01-24 16:01:28.85	227.58	8.54	-39.2	-40.3	17.8	0.00e+00	0	37	0	29360128	49	3945
2026-01-24 16:01:31.83	227.96	8.71	-37.9	-38.9	18.9	0.00e+00	0	37	0	50331648	46	3994
2026-01-24 16:01:34.81	228.34	8.88	-40.7	-42.0	16.1	0.00e+00	0	37	0	72351744	50	4538
2026-01-24 16:01:37.79	228.72	9.04	-45.3	-48.2	9.8	5.15e-03	0	37	0	93323264	59	5514
2026-01-24 16:01:40.77	229.11	9.21	-46.7	-51.2	7.0	7.50e-03	0	37	0	115343360	62	6499
2026-01-24 16:01:43.76	229.51	9.38	-41.0	-42.5	15.6	1.10e-06	0	37	0	137363456	52	4267
2026-01-24 16:01:46.74	229.91	9.54	-40.5	-41.8	16.4	0.00e+00	0	37	0	158334976	51	4179
2026-01-24 16:01:49.72	230.31	9.71	-39.6	-40.8	17.4	0.00e+00	0	37	0	180355072	50	3935
2026-01-24 16:01:52.71	230.72	9.88	-38.6	-39.7	18.2	0.00e+00	0	37	0	201326592	47	4145
2026-01-24 16:01:55.69	231.13	10.04	-37.9	-39.0	19.0	0.00e+00	0	37	0	222298112	46	4023
2026-01-24 16:01:58.68	231.55	10.21	-37.8	-38.9	19.1	0.00e+00	0	37	0	244318208	46	3983
2026-01-24 16:02:01.66	231.97	10.38	-37.2	-38.2	19.8	0.00e+00	0	37	0	266338304	45	3905
2026-01-24 16:02:04.65	232.40	10.54	-37.0	-38.0	20.0	0.00e+00	0	37	0	287309824	44	4028
2026-01-24 16:02:07.63	232.83	10.71	-37.0	-38.0	20.0	0.00e+00	0	37	0	309329920	44	4006
2026-01-24 16:02:10.62	233.27	10.88	-37.1	-38.1	19.9	0.00e+00	0	37	0	330301440	44	4067
2026-01-24 16:02:13.60	233.71	11.04	-36.9	-37.8	20.1	0.00e+00	0	37	0	352321536	44	3952
2026-01-24 16:02:16.59	234.16	11.21	-36.7	-37.7	20.3	0.00e+00	0	37	0	373293056	44	3878
2026-01-24 16:02:19.57	234.61	11.37	-36.7	-37.7	20.3	0.00e+00	0	37	0	395313152	44	3892
2026-01-24 16:02:22.55	235.06	11.53	-36.7	-37.6	20.4	0.00e+00	0	37	0	417333248	44	3864
2026-01-24 16:02:25.54	235.52	11.70	-36.5	-37.4	20.4	0.00e+00	0	37	0	438304768	43	4001
2026-01-24 16:02:28.52	235.99	11.86	-36.5	-37.5	20.4	0.00e+00	0	37	0	460324864	43	4011
2026-01-24 16:02:31.51	236.46	12.02	-36.7	-37.6	20.3	0.00e+00	0	37	0	481296384	43	4087
2026-01-24 16:02:34.49	236.93	12.18	-36.4	-37.4	20.5	0.00e+00	0	37	0	503316480	43	3975
2026-01-24 16:02:37.48	237.42	12.34	-36.3	-37.2	20.6	0.00e+00	0	37	0	524288000	43	3909
2026-01-24 16:02:40.46	237.90	12.50	-36.4	-37.3	20.6	0.00e+00	0	37	0	546308096	43	3933
2026-01-24 16:02:43.45	238.39	12.66	-36.2	-37.1	20.8	0.00e+00	0	37	0	568328192	43	3845
2026-01-24 16:02:46.43	238.89	12.82	-36.1	-37.1	20.8	0.00e+00	0	37	0	589299712	43	3831
2026-01-24 16:02:49.41	239.39	12.98	-36.1	-37.0	20.8	0.00e+00	0	37	0	611319808	42	4045
2026-01-24 16:02:52.40	239.90	13.13	-36.1	-37.1	20.9	0.00e+00	0	37	0	632291328	42	4053
2026-01-24 16:02:55.38	240.41	13.29	-36.2	-37.1	20.8	0.00e+00	0	37	0	653262848	42	4073
2026-01-24 16:02:58.37	240.93	13.44	-36.1	-37.0	20.9	0.00e+00	0	37	0	675282944	42	4042
2026-01-24 16:03:01.35	241.45	13.59	-36.2	-37.1	20.8	0.00e+00	0	37	0	697303040	42	4077
2026-01-24 16:03:04.34	241.98	13.74	-36.2	-37.2	20.7	0.00e+00	0	37	0	718274560	42	4121
2026-01-24 16:03:07.32	242.51	13.89	-36.1	-37.0	20.9	0.00e+00	0	37	0	740294656	42	4040
2026-01-24 16:03:10.31	243.05	14.04	-36.0	-36.9	21.0	0.00e+00	0	37	0	761266176	42	3994
2026-01-24 16:03:13.29	243.59	14.19	-36.1	-37.0	20.9	0.00e+00	0	37	0	783286272	42	4033
2026-01-24 16:03:16.28	244.14	14.34	-35.9	-36.9	21.0	0.00e+00	0	37	0	804257792	42	3966
2026-01-24 16:03:19.26	244.69	14.48	-35.8	-36.7	21.2	0.00e+00	0	37	0	826277888	42	3872
2026-01-24 16:03:22.25	245.25	14.62	-35.7	-36.6	21.2	0.00e+00	0	37	0	848297984	41	4088
2026-01-24 16:03:25.23	245.81	14.76	-35.9	-36.8	21.1	0.00e+00	0	37	0	869269504	41	4181
2026-01-24 16:03:28.21	246.38	14.90	-35.7	-36.6	21.3	0.00e+00	0	37	0	891289600	41	4089
2026-01-24 16:03:31.20	246.96	15.04	-35.8	-36.7	21.2	0.00e+00	0	37	0	912261120	41	4125
2026-01-24 16:03:34.18	247.54	15.18	-35.7	-36.6	21.3	0.00e+00	0	38	0	934281216	41	4067
2026-01-24 16:03:37.16	248.12	15.31	-35.6	-36.5	21.3	0.00e+00	0	37	0	955252736	41	4041
2026-01-24 16:03:40.15	248.71	15.44	-35.5	-36.4	21.5	0.00e+00	0	37	0	977272832	41	3976
2026-01-24 16:03:43.13	249.30	15.57	-35.5	-36.4	21.5	0.00e+00	0	37	0	998244352	41	3979
2026-01-24 16:03:46.12	249.90	15.69	-35.6	-36.5	21.4	0.00e+00	0	37	0	1020264448	41	4042
2026-01-24 16:03:49.10	250.51	15.82	-35.5	-36.4	21.5	0.00e+00	0	37	0	1042284544	41	3990
2026-01-24 16:03:52.09	251.12	15.94	-35.6	-36.5	21.4	0.00e+00	0	37	0	1063256064	41	4033
2026-01-24 16:03:55.07	251.73	16.06	-35.7	-36.6	21.3	0.00e+00	0	37	0	1084227584	41	4086
2026-01-24 16:03:58.06	252.35	16.18	-35.5	-36.4	21.5	0.00e+00	0	37	0	1106247680	41	3990
2026-01-24 16:04:01.04	252.97	16.29	-35.4	-36.3	21.5	0.00e+00	0	37	0	1127219200	41	3948
2026-01-24 16:04:04.02	253.60	16.40	-35.4	-36.3	21.6	0.00e+00	0	37	0	1149239296	41	3937
2026-01-24 16:04:07.01	254.23	16.51	-35.5	-36.4	21.5	0.00e+00	0	37	0	1171259392	41	3982
2026-01-24 16:04:09.99	254.87	16.62	-35.3	-36.2	21.7	0.00e+00	0	38	0	1192230912	41	3901
2026-01-24 16:04:12.98	255.51	16.72	-35.3	-36.2	21.7	0.00e+00	0	38	0	1214251008	41	3896
2026-01-24 16:04:15.96	256.16	16.82	-35.3	-36.2	21.7	0.00e+00	0	38	0	1235222528	41	3877
2026-01-24 16:04:18.94	256.81	16.92	-35.2	-36.1	21.8	0.00e+00	0	38	0	1257242624	41	3829
2026-01-24 16:04:21.93	257.46	17.01	-35.1	-36.0	21.9	0.00e+00	0	38	0	1278214144	41	3794
2026-01-24 16:04:24.91	258.12	17.10	-35.1	-36.0	21.9	0.00e+00	0	38	0	1300234240	40	4026
2026-01-24 16:04:27.90	258.78	17.19	-35.2	-36.0	21.8	0.00e+00	0	38	0	1322254336	40	4047
2026-01-24 16:04:30.88	259.44	17.27	-35.3	-36.2	21.7	0.00e+00	0	38	0	1343225856	40	4115
2026-01-24 16:04:33.87	260.11	17.35	-35.1	-36.0	21.9	0.00e+00	0	37	0	1365245952	40	4028
2026-01-24 16:04:36.86	260.78	17.43	-35.0	-35.9	22.0	0.00e+00	0	38	0	1386217472	40	3985
2026-01-24 16:04:39.84	261.46	17.50	-35.2	-36.1	21.8	0.00e+00	0	37	0	1408237568	40	4075
2026-01-24 16:04:42.82	262.13	17.57	-35.2	-36.1	21.8	0.00e+00	0	38	0	1429209088	40	4077
2026-01-24 16:04:45.80	262.81	17.64	-35.3	-36.2	21.8	0.00e+00	0	38	0	1451229184	40	4102
2026-01-24 16:04:48.79	263.50	17.70	-35.4	-36.3	21.7	0.00e+00	0	38	0	1472200704	40	4155
2026-01-24 16:04:51.77	264.18	17.76	-35.6	-36.5	21.4	0.00e+00	0	38	0	1494220800	40	4286
2026-01-24 16:04:54.75	264.87	17.81	-35.3	-36.2	21.7	0.00e+00	0	38	0	1515192320	40	4143
2026-01-24 16:04:57.74	265.56	17.86	-34.9	-35.8	22.1	0.00e+00	0	37	0	1537212416	40	3942
2026-01-24 16:05:00.72	266.26	17.91	-34.8	-35.7	22.2	0.00e+00	0	37	0	1558183936	40	3890
2026-01-24 16:05:03.71	266.95	17.95	-35.0	-35.9	21.9	0.00e+00	0	38	0	1580204032	40	3994
2026-01-24 16:05:06.69	267.65	17.99	-35.2	-36.1	21.8	0.00e+00	0	37	0	1601175552	40	4068
2026-01-24 16:05:09.68	268.35	18.02	-35.1	-36.0	21.9	0.00e+00	0	37	0	1623195648	40	4032
2026-01-24 16:05:12.66	269.05	18.06	-35.1	-36.0	21.9	0.00e+00	0	38	0	1645215744	40	4008
2026-01-24 16:05:15.65	269.75	18.08	-35.1	-36.0	21.9	0.00e+00	0	38	0	1666187264	40	4026
2026-01-24 16:05:18.63	270.45	18.10	-35.2	-36.1	21.8	0.00e+00	0	38	0	1688207360	40	4054
2026-01-24 16:05:21.62	271.15	18.12	-35.0	-35.9	22.0	0.00e+00	0	37	0	1709178880	40	3970
2026-01-24 16:05:24.60	271.86	18.14	-35.0	-35.9	22.0	0.00e+00	0	38	0	1731198976	40	3987
2026-01-24 16:05:27.58	272.56	18.15	-35.0	-35.9	22.0	0.00e+00	0	38	0	1752170496	40	3985
2026-01-24 16:05:30.57	273.26	18.15	-35.1	-36.0	21.9	0.00e+00	0	37	0	1774190592	40	4038
2026-01-24 16:05:33.56	273.97	18.15	-35.0	-35.9	22.0	0.00e+00	0	38	0	1796210688	40	3968
2026-01-24 16:05:36.54	274.67	18.15	-34.8	-35.7	22.2	0.00e+00	0	37	0	1817182208	40	3878
2026-01-24 16:05:39.53	275.38	18.14	-34.8	-35.6	22.2	0.00e+00	0	37	0	1839202304	40	3857
2026-01-24 16:05:42.51	276.08	18.13	-34.8	-35.7	22.2	0.00e+00	0	38	0	1860173824	40	3890
2026-01-24 16:05:45.49	276.78	18.12	-34.9	-35.8	22.1	0.00e+00	0	37	0	1881145344	40	3932
2026-01-24 16:05:48.48	277.49	18.10	-35.3	-36.1	21.8	0.00e+00	0	38	0	1903165440	40	4096
2026-01-24 16:05:51.46	278.19	18.07	-35.4	-36.3	21.6	0.00e+00	0	37	0	1925185536	40	4148
2026-01-24 16:05:54.45	278.89	18.05	-35.2	-36.1	21.8	0.00e+00	0	38	0	1946157056	40	4056
2026-01-24 16:05:57.43	279.59	18.01	-35.3	-36.2	21.8	0.00e+00	0	38	0	1968177152	40	4102
2026-01-24 16:06:00.41	280.28	17.98	-35.2	-36.1	21.7	0.00e+00	0	38	0	1989148672	40	4088
2026-01-24 16:06:03.40	280.98	17.94	-35.2	-36.1	21.8	0.00e+00	0	38	0	2011168768	40	4052
2026-01-24 16:06:06.39	281.67	17.89	-35.5	-36.4	21.5	0.00e+00	0	38	0	2032140288	40	4213
2026-01-24 16:06:09.37	282.36	17.85	-35.2	-36.1	21.8	0.00e+00	0	37	0	2054160384	40	4069
2026-01-24 16:06:12.36	283.05	17.79	-35.2	-36.0	21.8	0.00e+00	0	38	0	2076180480	40	4043
2026-01-24 16:06:15.35	283.74	17.74	-35.3	-36.2	21.8	0.00e+00	0	37	0	2097152000	40	4103
2026-01-24 16:06:18.33	284.42	17.68	-35.3	-36.2	21.8	0.00e+00	0	37	0	2119172096	40	4099
2026-01-24 16:06:21.31	285.10	17.62	-35.4	-36.3	21.6	0.00e+00	0	37	0	2140143616	40	4156
2026-01-24 16:06:24.30	285.78	17.55	-35.4	-36.2	21.6	0.00e+00	0	38	0	2162163712	40	4135
2026-01-24 16:06:27.28	286.46	17.48	-35.3	-36.1	21.8	0.00e+00	0	37	0	2183135232	40	4087
2026-01-24 16:06:30.26	287.13	17.40	-35.4	-36.3	21.7	0.00e+00	0	38	0	2205155328	40	4148
2026-01-24 16:06:33.25	287.80	17.33	-35.4	-36.3	21.6	0.00e+00	0	38	0	2227175424	40	4186
2026-01-24 16:06:36.23	288.46	17.25	-35.5	-36.4	21.5	0.00e+00	0	38	0	2248146944	40	4226
2026-01-24 16:06:39.21	289.12	17.16	-35.3	-36.2	21.6	0.00e+00	0	38	0	2270167040	40	4132
2026-01-24 16:06:42.20	289.78	17.07	-35.3	-36.2	21.6	0.00e+00	0	38	0	2291138560	40	4123
2026-01-24 16:06:45.19	290.44	16.98	-35.4	-36.3	21.5	0.00e+00	0	37	0	2312110080	40	4152
2026-01-24 16:06:48.17	291.09	16.89	-35.6	-36.5	21.4	0.00e+00	0	37	0	2334130176	40	4252
2026-01-24 16:06:51.15	291.73	16.79	-35.7	-36.6	21.3	0.00e+00	0	37	0	2356150272	40	4334
2026-01-24 16:06:54.14	292.38	16.69	-35.7	-36.6	21.3	0.00e+00	0	37	0	2377121792	41	4063
2026-01-24 16:06:57.13	293.01	16.59	-35.6	-36.5	21.4	0.00e+00	0	37	0	2399141888	41	4032
2026-01-24 16:07:00.11	293.65	16.48	-35.7	-36.6	21.3	0.00e+00	0	38	0	2420113408	41	4080
2026-01-24 16:07:03.09	294.27	16.37	-35.6	-36.5	21.4	0.00e+00	0	38	0	2442133504	41	4044
2026-01-24 16:07:06.08	294.90	16.26	-35.6	-36.5	21.3	0.00e+00	0	37	0	2463105024	41	4029
2026-01-24 16:07:09.06	295.52	16.15	-35.8	-36.7	21.2	0.00e+00	0	38	0	2485125120	41	4125
2026-01-24 16:07:12.05	296.13	16.03	-35.7	-36.6	21.3	0.00e+00	0	38	0	2507145216	41	4061
2026-01-24 16:07:15.04	296.75	15.91	-35.8	-36.7	21.2	0.00e+00	0	38	0	2528116736	41	4112
2026-01-24 16:07:18.03	297.35	15.79	-35.9	-36.8	21.0	0.00e+00	0	37	0	2550136832	41	4182
2026-01-24 16:07:21.01	297.95	15.66	-36.1	-37.1	20.8	0.00e+00	0	37	0	2571108352	41	4311
2026-01-24 16:07:24.00	298.55	15.54	-36.3	-37.3	20.6	0.00e+00	0	38	0	2593128448	42	4161
2026-01-24 16:07:26.98	299.14	15.41	-36.3	-37.3	20.6	0.00e+00	0	37	0	2614099968	42	4165
2026-01-24 16:07:29.97	299.73	15.28	-36.2	-37.2	20.7	0.00e+00	0	38	0	2636120064	42	4121
2026-01-24 16:07:32.96	300.31	15.15	-36.2	-37.1	20.7	0.00e+00	0	38	0	2658140160	42	4092
2026-01-24 16:07:35.94	300.88	15.01	-36.2	-37.2	20.7	0.00e+00	0	38	0	2679111680	42	4114
2026-01-24 16:07:38.93	301.45	14.87	-36.5	-37.4	20.5	0.00e+00	0	37	0	2701131776	42	4224
2026-01-24 16:07:41.91	302.02	14.74	-36.3	-37.2	20.6	0.00e+00	0	38	0	2722103296	42	4137
2026-01-24 16:07:44.90	302.58	14.60	-36.3	-37.2	20.7	0.00e+00	0	37	0	2744123392	42	4115
2026-01-24 16:07:47.88	303.13	14.45	-36.5	-37.4	20.4	0.00e+00	0	37	0	2765094912	42	4238
2026-01-24 16:07:50.87	303.68	14.31	-36.6	-37.6	20.3	0.00e+00	0	38	0	2787115008	42	4315
2026-01-24 16:07:53.85	304.23	14.16	-36.5	-37.5	20.4	0.00e+00	0	37	0	2808086528	42	4251
2026-01-24 16:07:56.83	304.76	14.02	-36.6	-37.5	20.4	0.00e+00	0	37	0	2830106624	42	4284
2026-01-24 16:07:59.82	305.30	13.87	-36.5	-37.4	20.5	0.00e+00	0	37	0	2851078144	42	4228
2026-01-24 16:08:02.81	305.83	13.72	-36.4	-37.3	20.6	0.00e+00	0	37	0	2873098240	42	4192
2026-01-24 16:08:05.79	306.35	13.57	-36.6	-37.6	20.3	0.00e+00	0	37	0	2894069760	42	4308
2026-01-24 16:08:08.77	306.87	13.42	-36.9	-37.8	20.0	0.00e+00	0	38	0	2916089856	43	4191
2026-01-24 16:08:11.76	307.38	13.27	-36.9	-37.9	20.0	0.00e+00	0	38	0	2938109952	43	4205
2026-01-24 16:08:14.75	307.89	13.11	-36.9	-37.9	20.0	0.00e+00	0	37	0	2959081472	43	4234
2026-01-24 16:08:17.73	308.40	12.96	-36.9	-38.0	19.9	0.00e+00	0	38	0	2981101568	43	4246
2026-01-24 16:08:20.72	308.89	12.80	-37.1	-38.1	19.8	0.00e+00	0	37	0	3002073088	43	4304
2026-01-24 16:08:23.71	309.39	12.64	-37.1	-38.1	19.7	0.00e+00	0	37	0	3024093184	43	4340
2026-01-24 16:08:26.69	309.87	12.49	-37.0	-38.1	19.8	0.00e+00	0	38	0	3045064704	43	4305
2026-01-24 16:08:29.68	310.36	12.33	-36.9	-37.9	19.8	0.00e+00	0	38	0	3067084800	43	4242
2026-01-24 16:08:32.66	310.83	12.17	-37.0	-38.0	19.8	0.00e+00	0	37	0	3089104896	43	4283
2026-01-24 16:08:35.65	311.31	12.01	-37.1	-38.1	19.7	0.00e+00	0	38	0	3110076416	43	4333
2026-01-24 16:08:38.63	311.77	11.85	-37.2	-38.3	19.5	0.00e+00	0	37	0	3131047936	43	4418
2026-01-24 16:08:41.62	312.24	11.69	-37.5	-38.6	19.5	0.00e+00	0	37	0	3153068032	44	4293
2026-01-24 16:08:44.60	312.69	11.53	-37.5	-38.5	19.5	0.00e+00	0	37	0	3175088128	44	4289
2026-01-24 16:08:47.59	313.15	11.36	-37.5	-38.6	19.4	0.00e+00	0	37	0	3196059648	44	4293
2026-01-24 16:08:50.57	313.60	11.20	-37.2	-38.2	19.8	0.00e+00	0	37	0	3218079744	44	4121
2026-01-24 16:08:53.56	314.04	11.04	-37.1	-38.1	19.8	0.00e+00	0	37	0	3239051264	44	4090
2026-01-24 16:08:56.54	314.48	10.87	-37.2	-38.2	19.8	0.00e+00	0	38	0	3261071360	44	4110
2026-01-24 16:08:59.53	314.91	10.71	-37.3	-38.3	19.6	0.00e+00	0	38	0	3282042880	44	4181
2026-01-24 16:09:02.51	315.34	10.55	-37.6	-38.6	19.3	0.00e+00	0	37	0	3304062976	44	4327
2026-01-24 16:09:05.49	315.76	10.38	-37.8	-38.9	19.0	0.00e+00	0	38	0	3325034496	45	4234
2026-01-24 16:09:08.47	316.18	10.22	-37.9	-39.1	18.9	0.00e+00	0	38	0	3347054592	45	4301
2026-01-24 16:09:11.46	316.60	10.05	-37.9	-38.9	19.0	0.00e+00	0	37	0	3369074688	45	4238
2026-01-24 16:09:14.44	317.01	9.89	-38.0	-39.1	18.8	0.00e+00	0	37	0	3390046208	45	4304
2026-01-24 16:09:17.43	317.41	9.72	-37.6	-38.6	19.3	0.00e+00	0	38	0	3412066304	45	4097
2026-01-24 16:09:20.41	317.82	9.56	-37.4	-38.5	19.4	0.00e+00	0	37	0	3433037824	45	4027
2026-01-24 16:09:23.39	318.21	9.39	-37.6	-38.7	19.2	0.00e+00	0	38	0	3455057920	45	4118
2026-01-24 16:09:26.38	318.61	9.23	-37.6	-38.6	19.2	0.00e+00	0	38	0	3476029440	45	4098
2026-01-24 16:09:29.37	319.00	9.06	-37.8	-39.0	18.9	0.00e+00	0	38	0	3498049536	45	4282
2026-01-24 16:09:32.35	319.38	8.89	-48.6	-59.5	3.8	8.46e-01	0	38	104	3508535296	66	13495
2026-01-24 16:09:35.33	319.76	8.73	-49.1	-59.8	3.8	8.46e-01	0	38	104	3508535296	67	13225
2026-01-24 16:09:38.31	320.13	8.56	-48.8	-60.0	3.8	8.46e-01	0	38	104	3508535296	67	13526
2026-01-24 16:09:41.28	320.50	8.40	-49.3	-60.1	3.8	8.47e-01	0	38	104	3508535296	67	13573
2026-01-24 16:09:44.26	320.87	8.23	-49.5	-60.2	3.8	8.47e-01	0	38	104	3508535296	68	13065
2026-01-24 16:09:47.24	321.24	8.07	-49.4	-60.2	3.8	8.47e-01	0	38	104	3508535296	68	13031
2026-01-24 16:09:50.23	321.60	7.90	-49.2	-60.2	3.8	8.46e-01	0	38	104	3508535296	68	13025
2026-01-24 16:09:53.20	321.95	7.74	-49.2	-60.1	3.8	8.46e-01	0	38	104	3508535296	68	12927
2026-01-24 16:09:56.18	322.30	7.58	-49.1	-60.1	3.8	8.47e-01	0	38	104	3508535296	68	12935
2026-01-24 16:09:59.16	322.65	7.41	-49.1	-60.1	3.8	8.47e-01	0	38	104	3508535296	68	12915
2026-01-24 16:10:02.14	322.99	7.25	-49.1	-60.1	3.8	8.47e-01	0	38	104	3508535296	68	12920
2026-01-24 16:10:05.12	323.33	7.08	-49.1	-60.1	3.8	8.47e-01	0	38	104	3508535296	68	12898
2026-01-24 16:10:08.10	323.67	6.92	-49.1	-60.1	3.8	8.47e-01	0	38	104	3508535296	68	12861
2026-01-24 16:10:11.08	324.01	6.76	-49.1	-60.0	3.8	8.47e-01	0	38	104	3508535296	68	12768
2026-01-24 16:10:14.06	324.33	6.59	-49.1	-60.1	3.8	8.46e-01	0	38	104	3508535296	68	12842
2026-01-24 16:10:17.04	324.66	6.43	-49.1	-60.0	3.8	8.47e-01	0	38	104	3508535296	68	12807
2026-01-24 16:10:20.02	324.98	6.27	-49.1	-60.0	3.8	8.47e-01	0	38	104	3508535296	68	12785
2026-01-24 16:10:23.00	325.30	6.10	-49.1	-60.0	3.8	8.48e-01	0	38	104	3508535296	68	12703
2026-01-24 16:10:25.98	325.62	5.94	-49.1	-60.0	3.8	8.46e-01	0	38	104	3508535296	68	12804
2026-01-24 16:10:28.95	325.93	5.78	-49.1	-60.0	3.8	8.48e-01	0	38	104	3508535296	68	12731
2026-01-24 16:10:31.93	326.24	5.62	-49.1	-60.0	3.8	8.47e-01	0	38	104	3508535296	68	12810
2026-01-24 16:10:34.91	326.55	5.46	-49.1	-60.1	3.8	8.46e-01	0	38	104	3508535296	68	12818
2026-01-24 16:10:37.89	326.85	5.30	-49.1	-60.0	3.8	8.48e-01	0	38	104	3508535296	68	12732
2026-01-24 16:10:40.87	327.15	5.14	-49.1	-60.0	3.8	8.48e-01	0	38	104	3508535296	68	12786
2026-01-24 16:10:43.85	327.44	4.98	-49.1	-60.0	3.8	8.47e-01	0	38	104	3508535296	68	12791

#Closed at: 2026-01-24 16:10:44
#Recorded file [3508 MB]: D:/Data/31040_260124_190026.dat