passes_logs/2026/01/24/T1/T1__20260124_200656_FENGYUN_3G_rec.log

#Pass ID: 20260124_200656_FENGYUN 3G
#Satellite: FENGYUN 3G
#Configuration: FENGYUN 3G
#almurnet v.1.7.20251203
#Start time: 2026-01-24 20:06:57

#Version: 2.0.20230620
#Station: T1
#Location: 37.570604 lon 55.790049 lat
#TLE: 1 56232U 23055A   26024.24521059  .00049620  00000+0  74824-3 0  9993
#TLE: 2 56232  49.9947   8.2107 0004117  75.2128 284.9296 15.54221826157636

#Time	Az	El	Level	Level2	SNR	BER	BlckErr	Temp	State	Recorded	gain1	gain2
2026-01-24 20:06:57.61	254.39	5.19	-48.3	-67.2	3.8	8.47e-01	0	34	0	0	68	31103
2026-01-24 20:06:59.59	254.21	5.34	-48.3	-67.2	3.8	8.46e-01	0	35	104	0	68	31146
2026-01-24 20:07:01.58	254.03	5.50	-48.2	-67.1	3.8	8.48e-01	0	35	104	0	68	30939
2026-01-24 20:07:03.57	253.85	5.65	-48.2	-67.0	3.8	8.47e-01	0	35	104	0	68	30570
2026-01-24 20:07:05.55	253.66	5.80	-48.2	-66.9	3.8	8.46e-01	0	35	104	0	68	30095
2026-01-24 20:07:07.54	253.47	5.96	-48.2	-66.7	3.8	8.47e-01	0	35	104	0	68	29612
2026-01-24 20:07:09.53	253.28	6.12	-48.2	-66.6	3.8	8.48e-01	0	35	104	0	68	29061
2026-01-24 20:07:11.51	253.09	6.27	-48.2	-66.5	3.8	8.46e-01	0	35	104	0	68	28902
2026-01-24 20:07:13.50	252.89	6.43	-48.2	-66.5	3.8	8.47e-01	0	35	104	0	68	28838
2026-01-24 20:07:15.49	252.69	6.59	-48.2	-66.4	3.8	8.47e-01	0	35	104	0	68	28620
2026-01-24 20:07:17.47	252.48	6.76	-48.2	-66.5	3.8	8.47e-01	0	35	104	0	68	28740
2026-01-24 20:07:19.46	252.28	6.92	-48.2	-66.7	3.8	8.47e-01	0	35	104	0	68	29617
2026-01-24 20:07:21.45	252.06	7.08	-48.2	-67.1	3.8	8.47e-01	0	35	104	0	68	30766
2026-01-24 20:07:23.43	251.85	7.25	-48.2	-67.0	3.8	8.47e-01	0	35	104	0	68	30400
2026-01-24 20:07:25.42	251.63	7.42	-48.2	-66.9	3.8	8.46e-01	0	36	104	0	68	30166
2026-01-24 20:07:27.40	251.41	7.59	-48.2	-66.6	3.8	8.48e-01	0	36	104	0	68	29303
2026-01-24 20:07:29.39	251.19	7.76	-48.2	-65.4	3.8	8.47e-01	0	36	104	0	68	25427
2026-01-24 20:07:31.37	250.96	7.93	-48.1	-64.7	3.9	8.47e-01	0	36	104	0	68	23312
2026-01-24 20:07:33.36	250.72	8.10	-48.2	-65.7	3.8	8.45e-01	0	36	104	0	68	26282
2026-01-24 20:07:35.35	250.49	8.28	-48.2	-67.0	3.8	8.46e-01	0	36	104	0	68	30514
2026-01-24 20:07:37.33	250.25	8.45	-48.2	-65.7	3.8	8.47e-01	0	36	104	0	68	26430
2026-01-24 20:07:39.32	250.00	8.63	-48.1	-64.4	4.0	8.46e-01	0	36	104	0	68	22655
2026-01-24 20:07:41.31	249.75	8.81	-47.6	-58.8	6.8	6.65e-01	0	36	0	0	67	12574
2026-01-24 20:07:43.29	249.50	8.99	-46.4	-52.8	13.0	5.08e-02	0	36	0	0	64	7494
2026-01-24 20:07:45.28	249.24	9.17	-46.6	-53.5	12.2	1.70e-04	0	36	0	0	64	8093
2026-01-24 20:07:47.27	248.98	9.35	-47.0	-55.2	10.1	3.68e-03	0	36	0	0	65	9370
2026-01-24 20:07:49.26	248.71	9.54	-41.4	-44.2	21.6	1.16e-02	0	36	0	0	54	4939
2026-01-24 20:07:51.25	248.44	9.73	-41.1	-43.7	22.2	0.00e+00	0	36	0	0	53	4965
2026-01-24 20:07:53.24	248.16	9.92	-40.4	-42.9	22.9	0.00e+00	0	36	0	0	52	4802
2026-01-24 20:07:55.23	247.88	10.11	-40.4	-42.9	22.9	0.00e+00	0	36	0	0	52	4790
2026-01-24 20:07:57.23	247.59	10.30	-39.9	-42.3	23.6	0.00e+00	0	36	0	0	51	4724
2026-01-24 20:07:59.22	247.30	10.49	-39.8	-42.2	23.6	0.00e+00	0	36	0	0	51	4678
2026-01-24 20:08:01.21	247.00	10.69	-39.6	-41.9	24.0	0.00e+00	0	36	0	0	51	4515
2026-01-24 20:08:03.20	246.70	10.89	-39.0	-41.2	24.6	0.00e+00	0	36	0	0	50	4414
2026-01-24 20:08:05.20	246.39	11.09	-38.5	-40.7	25.0	0.00e+00	0	36	0	0	49	4425
2026-01-24 20:08:07.18	246.08	11.29	-38.5	-40.6	25.1	0.00e+00	0	36	0	0	49	4384
2026-01-24 20:08:09.18	245.76	11.49	-38.7	-40.8	25.0	0.00e+00	0	36	0	0	48	4736
2026-01-24 20:08:11.17	245.43	11.70	-38.6	-40.8	25.0	0.00e+00	0	36	0	0	48	4739
2026-01-24 20:08:13.16	245.10	11.90	-38.6	-40.8	25.0	0.00e+00	0	36	0	0	48	4737
2026-01-24 20:08:15.15	244.76	12.11	-38.6	-40.8	25.1	0.00e+00	0	36	0	0	48	4717
2026-01-24 20:08:17.14	244.41	12.32	-38.4	-40.6	25.2	0.00e+00	0	36	0	0	48	4617
2026-01-24 20:08:19.13	244.06	12.53	-38.2	-40.3	25.5	0.00e+00	0	36	0	0	48	4457
2026-01-24 20:08:21.11	243.71	12.75	-38.2	-40.3	25.4	0.00e+00	0	36	0	0	48	4477
2026-01-24 20:08:23.10	243.34	12.96	-38.1	-40.3	25.4	0.00e+00	0	36	0	0	48	4443
2026-01-24 20:08:25.09	242.97	13.18	-38.4	-40.5	25.2	0.00e+00	0	36	0	0	48	4576
2026-01-24 20:08:27.09	242.58	13.40	-38.1	-40.3	25.5	0.00e+00	0	36	0	0	48	4450
2026-01-24 20:08:29.08	242.20	13.62	-37.9	-40.0	25.7	0.00e+00	0	36	0	0	47	4590
2026-01-24 20:08:31.07	241.80	13.85	-37.9	-40.0	25.7	0.00e+00	0	36	0	0	47	4564
2026-01-24 20:08:33.06	241.40	14.07	-37.7	-39.8	25.9	0.00e+00	0	36	0	0	47	4452
2026-01-24 20:08:35.05	240.99	14.30	-37.5	-39.6	26.2	0.00e+00	0	36	0	0	47	4357
2026-01-24 20:08:37.04	240.57	14.53	-37.5	-39.6	26.2	0.00e+00	0	37	0	0	47	4359
2026-01-24 20:08:39.03	240.14	14.76	-37.6	-39.7	26.0	0.00e+00	0	37	0	0	47	4420
2026-01-24 20:08:41.02	239.70	15.00	-37.6	-39.6	26.1	0.00e+00	0	36	0	0	47	4387
2026-01-24 20:08:43.01	239.26	15.23	-37.2	-39.3	26.4	0.00e+00	0	36	0	0	46	4463
2026-01-24 20:08:45.00	238.80	15.47	-37.1	-39.1	26.7	0.00e+00	0	37	0	0	46	4357
2026-01-24 20:08:47.00	238.33	15.71	-37.0	-39.0	26.7	0.00e+00	0	36	0	0	46	4339
2026-01-24 20:08:48.99	237.86	15.95	-36.8	-38.8	26.9	0.00e+00	0	36	0	0	45	4475
2026-01-24 20:08:50.98	237.38	16.19	-37.0	-39.0	26.7	0.00e+00	0	37	0	0	45	4597
2026-01-24 20:08:52.97	236.88	16.44	-37.1	-39.1	26.7	0.00e+00	0	37	0	0	45	4630
2026-01-24 20:08:54.96	236.38	16.68	-36.8	-38.8	26.9	0.00e+00	0	36	0	0	45	4472
2026-01-24 20:08:56.95	235.86	16.93	-36.8	-38.8	26.9	0.00e+00	0	37	0	0	45	4458
2026-01-24 20:08:58.94	235.34	17.18	-36.7	-38.7	26.9	0.00e+00	0	36	0	0	45	4403
2026-01-24 20:09:00.93	234.80	17.43	-36.7	-38.7	26.9	0.00e+00	0	37	0	0	45	4420
2026-01-24 20:09:02.92	234.25	17.68	-36.7	-38.7	26.9	0.00e+00	0	37	0	0	45	4434
2026-01-24 20:09:04.91	233.69	17.94	-36.8	-38.8	26.8	0.00e+00	0	37	0	0	45	4454
2026-01-24 20:09:06.90	233.12	18.19	-36.1	-38.1	27.5	0.00e+00	0	37	0	0	44	4360
2026-01-24 20:09:08.89	232.54	18.45	-36.2	-38.1	27.5	0.00e+00	0	37	0	0	44	4391
2026-01-24 20:09:10.88	231.95	18.70	-36.3	-38.2	27.4	0.00e+00	0	37	0	0	44	4433
2026-01-24 20:09:12.87	231.34	18.96	-36.6	-38.5	27.1	0.00e+00	0	37	0	0	44	4589
2026-01-24 20:09:14.86	230.72	19.22	-36.7	-38.7	26.9	0.00e+00	0	37	0	0	44	4700
2026-01-24 20:09:16.85	230.08	19.48	-36.5	-38.4	27.2	0.00e+00	0	37	0	0	44	4539
2026-01-24 20:09:18.84	229.43	19.74	-36.0	-37.9	27.7	0.00e+00	0	36	0	0	44	4282
2026-01-24 20:09:20.83	228.77	20.00	-35.8	-37.7	27.7	0.00e+00	0	37	0	0	43	4414
2026-01-24 20:09:22.82	228.10	20.27	-36.1	-38.0	27.4	0.00e+00	0	36	0	0	43	4598
2026-01-24 20:09:24.81	227.41	20.53	-36.1	-38.0	27.4	0.00e+00	0	37	0	0	43	4572
2026-01-24 20:09:26.80	226.71	20.79	-36.3	-38.3	27.3	0.00e+00	0	37	0	0	43	4717
2026-01-24 20:09:28.78	225.99	21.05	-35.7	-37.6	27.8	0.00e+00	0	37	0	0	43	4374
2026-01-24 20:09:30.77	225.26	21.31	-35.4	-37.3	28.0	0.00e+00	0	37	0	0	42	4488
2026-01-24 20:09:32.76	224.51	21.57	-35.1	-37.0	28.2	0.00e+00	0	37	0	0	42	4309
2026-01-24 20:09:34.74	223.76	21.83	-35.2	-37.1	28.2	0.00e+00	0	37	0	0	42	4365
2026-01-24 20:09:36.74	222.97	22.09	-35.4	-37.4	28.0	0.00e+00	0	37	0	0	42	4501
2026-01-24 20:09:38.72	222.18	22.34	-35.4	-37.3	28.1	0.00e+00	0	37	0	0	42	4455
2026-01-24 20:09:40.71	221.38	22.60	-35.2	-37.1	28.1	0.00e+00	0	37	0	0	42	4352
2026-01-24 20:09:42.70	220.55	22.85	-35.0	-36.9	28.3	0.00e+00	0	37	0	0	42	4287
2026-01-24 20:09:44.69	219.71	23.10	-35.1	-37.0	28.4	0.00e+00	0	37	0	0	42	4303
2026-01-24 20:09:46.69	218.85	23.35	-35.1	-37.0	28.3	0.00e+00	0	37	0	0	42	4296
2026-01-24 20:09:48.68	217.98	23.60	-35.2	-37.1	28.2	0.00e+00	0	37	0	0	42	4377
2026-01-24 20:09:50.66	217.09	23.84	-35.2	-37.1	28.2	0.00e+00	0	37	0	0	42	4369
2026-01-24 20:09:52.66	216.18	24.08	-35.0	-36.9	28.4	0.00e+00	0	37	0	0	41	4512
2026-01-24 20:09:54.65	215.26	24.31	-34.9	-36.8	28.4	0.00e+00	0	37	0	0	41	4466
2026-01-24 20:09:56.64	214.32	24.54	-34.8	-36.7	28.5	0.00e+00	0	37	0	0	41	4395
2026-01-24 20:09:58.62	213.38	24.77	-34.5	-36.4	28.8	0.00e+00	0	37	0	0	41	4257
2026-01-24 20:10:00.61	212.41	24.99	-34.4	-36.2	28.9	0.00e+00	0	37	0	0	40	4440
2026-01-24 20:10:02.60	211.42	25.20	-34.5	-36.4	28.8	0.00e+00	0	37	0	0	40	4499
2026-01-24 20:10:04.59	210.42	25.41	-34.5	-36.3	28.9	0.00e+00	0	37	0	0	40	4473
2026-01-24 20:10:06.57	209.41	25.61	-34.4	-36.3	28.9	0.00e+00	0	37	0	0	40	4463
2026-01-24 20:10:08.56	208.38	25.81	-34.4	-36.2	29.0	0.00e+00	0	37	0	0	40	4417
2026-01-24 20:10:10.55	207.34	25.99	-34.5	-36.4	28.8	0.00e+00	0	37	0	0	40	4497
2026-01-24 20:10:12.54	206.28	26.17	-34.5	-36.3	28.9	0.00e+00	0	37	0	0	40	4489
2026-01-24 20:10:14.53	205.21	26.35	-34.1	-36.0	29.1	0.00e+00	0	37	0	0	40	4298
2026-01-24 20:10:16.52	204.12	26.51	-34.5	-36.3	28.8	0.00e+00	0	37	0	0	40	4485
2026-01-24 20:10:18.51	203.03	26.67	-34.4	-36.2	28.9	0.00e+00	0	37	0	0	40	4433
2026-01-24 20:10:20.50	201.92	26.81	-33.9	-35.8	29.3	0.00e+00	0	37	0	0	39	4466
2026-01-24 20:10:22.49	200.80	26.95	-34.3	-36.1	29.1	0.00e+00	0	37	0	0	39	4642
2026-01-24 20:10:24.48	199.67	27.07	-34.0	-35.8	29.3	0.00e+00	0	36	0	0	39	4471
2026-01-24 20:10:26.47	198.52	27.19	-33.6	-35.4	29.7	0.00e+00	0	37	0	0	39	4260
2026-01-24 20:10:28.46	197.37	27.29	-33.9	-35.8	29.4	0.00e+00	0	37	0	0	39	4445
2026-01-24 20:10:30.46	196.21	27.39	-34.1	-36.0	29.1	0.00e+00	0	37	0	0	39	4549
2026-01-24 20:10:32.45	195.04	27.47	-34.0	-35.9	29.3	0.00e+00	0	37	0	0	39	4497
2026-01-24 20:10:34.44	193.87	27.54	-34.1	-36.0	29.2	0.00e+00	0	37	0	0	39	4550
2026-01-24 20:10:36.43	192.69	27.60	-34.2	-36.0	29.1	0.00e+00	0	37	0	0	39	4591
2026-01-24 20:10:38.42	191.51	27.65	-33.9	-35.7	29.4	0.00e+00	0	37	0	0	39	4441
2026-01-24 20:10:40.40	190.33	27.68	-34.2	-36.1	29.1	0.00e+00	0	37	0	0	39	4621
2026-01-24 20:10:42.39	189.14	27.71	-34.4	-36.2	29.0	0.00e+00	0	37	0	0	39	4697
2026-01-24 20:10:44.38	187.95	27.72	-34.5	-36.4	28.9	0.00e+00	0	37	0	0	39	4784
2026-01-24 20:10:46.37	186.76	27.72	-34.5	-36.4	28.9	0.00e+00	0	37	0	0	40	4495
2026-01-24 20:10:48.36	185.57	27.71	-34.5	-36.3	28.9	0.00e+00	0	37	0	0	40	4480
2026-01-24 20:10:50.35	184.39	27.68	-34.2	-36.1	29.0	0.00e+00	0	37	0	0	40	4349
2026-01-24 20:10:52.34	183.20	27.64	-34.0	-35.9	29.2	0.00e+00	0	37	0	0	40	4268
2026-01-24 20:10:54.33	182.02	27.59	-34.1	-36.0	29.2	0.00e+00	0	37	0	0	39	4546
2026-01-24 20:10:56.32	180.84	27.53	-34.0	-35.8	29.2	0.00e+00	0	37	0	0	39	4480
2026-01-24 20:10:58.31	179.67	27.46	-34.5	-36.3	29.0	0.00e+00	0	37	0	0	39	4746
2026-01-24 20:11:00.30	178.50	27.38	-34.3	-36.2	29.0	0.00e+00	0	37	0	0	39	4679
2026-01-24 20:11:02.29	177.35	27.28	-33.2	-35.0	29.9	0.00e+00	0	37	0	0	38	4325
2026-01-24 20:11:04.29	176.19	27.18	-33.9	-35.7	29.4	0.00e+00	0	37	0	0	38	4699
2026-01-24 20:11:06.28	175.05	27.06	-34.3	-36.2	28.8	0.00e+00	0	37	0	0	39	4666
2026-01-24 20:11:08.27	173.92	26.93	-33.9	-35.8	29.3	0.00e+00	0	37	0	0	39	4444
2026-01-24 20:11:10.26	172.80	26.79	-33.8	-35.6	29.4	0.00e+00	0	37	0	0	39	4371
2026-01-24 20:11:12.25	171.69	26.65	-33.9	-35.8	29.2	0.00e+00	0	37	0	0	38	4731
2026-01-24 20:11:14.23	170.60	26.49	-34.3	-36.2	29.0	0.00e+00	0	37	0	0	39	4665
2026-01-24 20:11:16.22	169.52	26.33	-34.4	-36.2	28.9	0.00e+00	0	37	0	0	39	4698
2026-01-24 20:11:18.21	168.45	26.15	-34.5	-36.4	28.8	0.00e+00	0	37	0	0	39	4784
2026-01-24 20:11:20.20	167.39	25.97	-34.6	-36.5	28.7	0.00e+00	0	37	0	0	40	4570
2026-01-24 20:11:22.19	166.35	25.78	-34.1	-36.0	29.0	0.00e+00	0	37	0	0	40	4326
2026-01-24 20:11:24.18	165.32	25.59	-34.1	-36.0	29.2	0.00e+00	0	37	0	0	39	4552
2026-01-24 20:11:26.17	164.31	25.39	-34.6	-36.5	28.7	0.00e+00	0	37	0	0	39	4861
2026-01-24 20:11:28.16	163.31	25.18	-35.0	-36.9	28.4	0.00e+00	0	37	0	0	40	4778
2026-01-24 20:11:30.15	162.32	24.96	-34.8	-36.7	28.5	0.00e+00	0	37	0	0	40	4694
2026-01-24 20:11:32.14	161.36	24.74	-34.8	-36.7	28.5	0.00e+00	0	37	0	0	40	4682
2026-01-24 20:11:34.14	160.40	24.51	-35.1	-37.0	28.3	0.00e+00	0	37	0	0	40	4846
2026-01-24 20:11:36.13	159.47	24.28	-34.9	-36.8	28.4	0.00e+00	0	37	0	0	41	4465
2026-01-24 20:11:38.12	158.55	24.05	-34.5	-36.4	28.8	0.00e+00	0	37	0	0	41	4251
2026-01-24 20:11:40.11	157.64	23.81	-34.5	-36.4	28.7	0.00e+00	0	37	0	0	40	4531
2026-01-24 20:11:42.09	156.76	23.57	-35.1	-37.0	28.2	0.00e+00	0	37	0	0	40	4847
2026-01-24 20:11:44.08	155.89	23.32	-35.3	-37.2	28.1	0.00e+00	0	37	0	0	41	4705
2026-01-24 20:11:46.07	155.03	23.07	-35.0	-36.9	28.3	0.00e+00	0	37	0	0	41	4533
2026-01-24 20:11:48.06	154.19	22.82	-34.7	-36.6	28.5	0.00e+00	0	37	0	0	41	4390
2026-01-24 20:11:50.05	153.37	22.57	-34.5	-36.4	28.7	0.00e+00	0	37	0	0	41	4249
2026-01-24 20:11:52.04	152.56	22.31	-34.9	-36.9	28.4	0.00e+00	0	37	0	0	41	4497
2026-01-24 20:11:54.03	151.77	22.06	-35.3	-37.2	28.1	0.00e+00	0	37	0	0	41	4691
2026-01-24 20:11:56.02	151.00	21.80	-35.4	-37.3	27.9	0.00e+00	0	37	0	0	41	4756
2026-01-24 20:11:58.01	150.23	21.54	-35.3	-37.2	27.8	0.00e+00	0	37	0	0	41	4692
2026-01-24 20:12:00.00	149.49	21.28	-35.5	-37.4	27.9	0.00e+00	0	37	0	0	41	4797
2026-01-24 20:12:01.99	148.76	21.02	-35.5	-37.5	27.9	0.00e+00	0	37	0	0	41	4830
2026-01-24 20:12:03.98	148.04	20.75	-35.5	-37.4	27.9	0.00e+00	0	37	0	0	41	4798
2026-01-24 20:12:05.97	147.34	20.49	-35.7	-37.7	27.6	0.00e+00	0	37	0	0	42	4687
2026-01-24 20:12:07.97	146.65	20.23	-35.7	-37.6	27.7	0.00e+00	0	37	0	0	42	4644
2026-01-24 20:12:09.95	145.98	19.97	-35.5	-37.5	27.8	0.00e+00	0	37	0	0	42	4552
2026-01-24 20:12:11.94	145.32	19.71	-35.6	-37.6	27.7	0.00e+00	0	37	0	0	42	4627
2026-01-24 20:12:13.94	144.67	19.45	-36.1	-38.1	27.2	0.00e+00	0	37	0	0	42	4911
2026-01-24 20:12:15.92	144.04	19.19	-36.0	-38.0	27.4	0.00e+00	0	37	0	0	42	4817
2026-01-24 20:12:17.91	143.42	18.93	-36.0	-38.0	27.3	0.00e+00	0	37	0	0	42	4841
2026-01-24 20:12:19.90	142.82	18.67	-35.9	-37.9	27.4	0.00e+00	0	37	0	0	42	4797
2026-01-24 20:12:21.89	142.22	18.41	-35.9	-37.9	27.4	0.00e+00	0	37	0	0	42	4774
2026-01-24 20:12:23.88	141.64	18.16	-35.9	-37.9	27.4	0.00e+00	0	37	0	0	42	4782
2026-01-24 20:12:25.87	141.07	17.90	-36.2	-38.1	27.3	0.00e+00	0	37	0	0	42	4915
2026-01-24 20:12:27.86	140.51	17.65	-36.3	-38.3	27.1	0.00e+00	0	37	0	0	43	4706
2026-01-24 20:12:29.85	139.96	17.39	-36.2	-38.2	27.2	0.00e+00	0	37	0	0	43	4659
2026-01-24 20:12:31.84	139.43	17.14	-36.2	-38.2	27.2	0.00e+00	0	37	0	0	43	4670
2026-01-24 20:12:33.83	138.90	16.89	-36.4	-38.4	27.0	0.00e+00	0	37	0	0	43	4776
2026-01-24 20:12:35.82	138.39	16.65	-36.6	-38.7	26.8	0.00e+00	0	37	0	0	43	4927
2026-01-24 20:12:37.81	137.89	16.40	-37.1	-39.2	26.4	0.00e+00	0	37	0	0	44	4966
2026-01-24 20:12:39.80	137.39	16.16	-37.1	-39.2	26.4	0.00e+00	0	37	0	0	44	4934
2026-01-24 20:12:41.79	136.91	15.91	-37.0	-39.1	26.5	0.00e+00	0	37	0	0	45	4599
2026-01-24 20:12:43.78	136.44	15.67	-37.0	-39.0	26.6	0.00e+00	0	37	0	0	45	4571
2026-01-24 20:12:45.77	135.98	15.43	-37.1	-39.1	26.4	0.00e+00	0	37	0	0	45	4651
2026-01-24 20:12:47.76	135.52	15.20	-37.6	-39.6	26.0	0.00e+00	0	37	0	0	45	4914
2026-01-24 20:12:49.75	135.08	14.96	-37.6	-39.7	26.0	0.00e+00	0	37	0	0	45	4934
2026-01-24 20:12:51.75	134.64	14.73	-37.6	-39.6	26.0	0.00e+00	0	37	0	0	45	4922
2026-01-24 20:12:53.73	134.21	14.50	-37.4	-39.5	25.8	0.00e+00	0	37	0	0	45	4817
2026-01-24 20:12:55.72	133.79	14.27	-37.6	-39.7	25.8	3.40e-06	0	37	0	0	45	4964
2026-01-24 20:12:57.72	133.38	14.04	-37.9	-40.0	25.5	9.10e-06	0	37	0	0	46	4863
2026-01-24 20:12:59.71	132.98	13.81	-38.0	-40.2	25.4	0.00e+00	0	37	0	0	46	4963
2026-01-24 20:13:01.70	132.58	13.59	-38.1	-40.3	25.3	0.00e+00	0	37	0	0	46	5032
2026-01-24 20:13:03.69	132.20	13.37	-38.0	-40.2	24.9	2.63e-05	0	37	0	0	46	4959
2026-01-24 20:13:05.68	131.82	13.15	-38.0	-40.2	25.3	1.23e-04	0	37	0	0	46	4952
2026-01-24 20:13:07.67	131.44	12.93	-38.0	-40.2	25.3	0.00e+00	0	37	0	0	46	4938
2026-01-24 20:13:09.66	131.08	12.72	-38.4	-40.6	25.1	0.00e+00	0	37	0	0	47	4880
2026-01-24 20:13:11.65	130.72	12.50	-38.6	-40.8	24.9	0.00e+00	0	37	0	0	47	4999
2026-01-24 20:13:13.64	130.37	12.29	-38.7	-40.9	24.8	0.00e+00	0	37	0	0	48	4772
2026-01-24 20:13:15.63	130.03	12.08	-38.7	-40.9	24.8	0.00e+00	0	37	0	0	48	4785
2026-01-24 20:13:17.62	129.69	11.87	-38.6	-40.8	24.9	0.00e+00	0	37	0	0	48	4737
2026-01-24 20:13:19.61	129.35	11.66	-38.9	-41.1	24.5	0.00e+00	0	37	0	0	48	4920
2026-01-24 20:13:21.60	129.03	11.46	-39.1	-41.4	24.3	0.00e+00	0	37	0	0	48	5087
2026-01-24 20:13:23.58	128.71	11.26	-39.2	-41.5	24.2	0.00e+00	0	37	0	0	49	4831
2026-01-24 20:13:25.57	128.40	11.06	-39.1	-41.4	24.2	0.00e+00	0	37	0	0	49	4810
2026-01-24 20:13:27.56	128.09	10.86	-39.0	-41.3	24.4	0.00e+00	0	37	0	0	49	4708
2026-01-24 20:13:29.55	127.79	10.66	-39.1	-41.4	24.3	0.00e+00	0	37	0	0	49	4781
2026-01-24 20:13:31.54	127.49	10.46	-39.3	-41.6	24.0	0.00e+00	0	37	0	0	49	4922
2026-01-24 20:13:33.53	127.20	10.27	-39.2	-41.5	24.1	0.00e+00	0	37	0	0	49	4852
2026-01-24 20:13:35.52	126.91	10.08	-39.4	-41.7	23.9	0.00e+00	0	37	0	0	49	4951
2026-01-24 20:13:37.50	126.63	9.89	-39.6	-41.9	23.7	0.00e+00	0	37	0	0	49	5087
2026-01-24 20:13:39.49	126.35	9.70	-40.0	-42.4	23.2	0.00e+00	0	37	0	0	50	5069
2026-01-24 20:13:41.48	126.08	9.51	-40.1	-42.6	23.0	0.00e+00	0	37	0	0	51	4898
2026-01-24 20:13:43.47	125.82	9.33	-40.0	-42.4	23.1	0.00e+00	0	37	0	0	51	4811
2026-01-24 20:13:45.46	125.55	9.14	-40.0	-42.4	23.2	0.00e+00	0	37	0	0	51	4779
2026-01-24 20:13:47.45	125.30	8.96	-39.8	-42.2	23.4	0.00e+00	0	37	0	0	51	4657
2026-01-24 20:13:49.44	125.04	8.78	-48.3	-67.1	3.8	2.56e-01	0	37	104	0	67	32738
2026-01-24 20:13:51.42	124.79	8.60	-48.5	-67.3	3.8	8.47e-01	0	37	104	0	67	33348
2026-01-24 20:13:53.41	124.55	8.42	-48.4	-67.4	3.8	8.46e-01	0	37	104	0	67	33938
2026-01-24 20:13:55.40	124.31	8.25	-48.8	-67.6	3.8	8.46e-01	0	37	104	0	68	32831
2026-01-24 20:13:57.38	124.07	8.07	-48.6	-67.7	3.8	8.47e-01	0	37	104	0	68	33101
2026-01-24 20:13:59.37	123.84	7.90	-48.7	-67.7	3.8	8.48e-01	0	37	104	0	68	33270
2026-01-24 20:14:01.36	123.61	7.73	-48.6	-67.8	3.8	8.46e-01	0	37	104	0	68	33368
2026-01-24 20:14:03.34	123.39	7.56	-48.8	-67.8	3.8	8.47e-01	0	37	104	0	68	33462
