passes_logs/2026/01/24/T1/T1__20260124_002718_NOAA_20_JPSS-1_rec.log

#Pass ID: 20260124_002718_NOAA 20 (JPSS-1)
#Satellite: NOAA 20 (JPSS-1)
#Configuration: NOAA 20
#almurnet v.1.7.20251203
#Start time: 2026-01-24 00:27:19

#Version: 2.0.20230620
#Station: T1
#Location: 37.570604 lon 55.790049 lat
#TLE: 1 43013U 17073A   26022.94240312  .00000200  00000+0  11574-3 0  9998
#TLE: 2 43013  98.7645 323.7982 0001179  28.0279 332.0961 14.19539020423863

#Time	Az	El	Level	Level2	SNR	BER	BlckErr	Temp	State	Recorded	gain1	gain2
2026-01-24 00:27:19.41	11.64	5.07	-44.4	-63.4	3.8	1.49e+00	0	36	0	0	60	31834
2026-01-24 00:27:22.38	11.53	5.27	-44.4	-63.3	3.8	1.49e+00	0	36	104	0	60	31739
2026-01-24 00:27:25.36	11.42	5.48	-44.4	-63.3	3.8	1.49e+00	0	36	104	0	60	31805
2026-01-24 00:27:28.34	11.31	5.69	-44.4	-63.3	3.8	1.49e+00	0	36	104	0	60	31702
2026-01-24 00:27:31.32	11.19	5.90	-44.4	-63.3	3.8	1.49e+00	0	36	104	0	60	31773
2026-01-24 00:27:34.30	11.08	6.12	-44.4	-63.3	3.8	1.49e+00	0	36	104	0	60	31554
2026-01-24 00:27:37.28	10.96	6.33	-44.4	-63.1	3.8	1.49e+00	0	36	104	0	60	31076
2026-01-24 00:27:40.26	10.84	6.55	-44.4	-62.6	3.8	1.49e+00	0	37	104	0	60	29184
2026-01-24 00:27:43.24	10.72	6.76	-44.4	-61.7	3.8	1.49e+00	0	37	104	0	60	26157
2026-01-24 00:27:46.22	10.59	6.98	-44.3	-61.0	4.0	1.48e+00	0	37	104	0	60	24233
2026-01-24 00:27:49.20	10.47	7.21	-44.3	-61.4	3.8	1.49e+00	0	37	104	0	60	25313
2026-01-24 00:27:52.18	10.34	7.43	-44.4	-62.3	3.8	1.49e+00	0	37	104	0	60	28315
2026-01-24 00:27:55.16	10.21	7.65	-44.4	-63.2	3.8	1.49e+00	0	37	104	0	60	31310
2026-01-24 00:27:58.14	10.08	7.88	-44.4	-62.5	3.8	1.49e+00	0	37	104	0	60	28937
2026-01-24 00:28:01.12	9.94	8.11	-44.2	-57.1	5.4	7.65e-01	0	37	0	1048576	60	15577
2026-01-24 00:28:04.09	9.81	8.34	-43.8	-52.1	9.9	1.56e-02	0	37	0	7340032	59	9263
2026-01-24 00:28:07.07	9.67	8.57	-42.9	-49.0	13.1	4.50e-05	0	37	0	12582912	57	7235
2026-01-24 00:28:10.05	9.52	8.81	-42.5	-47.9	14.2	3.00e-06	0	37	0	17825792	57	6408
2026-01-24 00:28:13.03	9.38	9.05	-42.8	-48.8	13.4	3.80e-06	0	37	0	24117248	56	7468
2026-01-24 00:28:15.95	9.24	9.28	-41.5	-45.9	16.0	8.70e-04	0	37	0	29360128	55	5701
2026-01-24 00:28:19.24	9.07	9.55	-40.8	-44.5	17.5	7.00e-07	0	37	0	35651584	53	5412
2026-01-24 00:28:21.96	8.93	9.77	-40.8	-44.4	17.7	0.00e+00	0	37	0	40894464	53	5341
2026-01-24 00:28:25.22	8.76	10.04	-40.9	-44.3	17.8	0.00e+00	0	37	0	46137344	53	5287
2026-01-24 00:28:28.08	8.61	10.27	-41.0	-44.2	17.8	0.00e+00	0	37	0	52428800	53	5254
2026-01-24 00:28:31.49	8.42	10.56	-41.1	-44.2	17.8	0.00e+00	0	37	0	58720256	53	5270
2026-01-24 00:28:34.46	8.26	10.81	-41.0	-44.1	17.9	0.00e+00	0	37	0	63963136	53	5213
2026-01-24 00:28:37.73	8.08	11.09	-41.1	-44.1	18.0	0.00e+00	0	38	0	70254592	53	5171
2026-01-24 00:28:40.44	7.92	11.33	-41.1	-44.0	18.1	0.00e+00	0	37	0	75497472	53	5137
2026-01-24 00:28:43.78	7.73	11.62	-41.0	-43.9	18.2	0.00e+00	0	38	0	81788928	53	5053
2026-01-24 00:28:46.59	7.56	11.87	-41.1	-44.0	18.1	0.00e+00	0	38	0	87031808	53	5115
2026-01-24 00:28:50.06	7.35	12.18	-41.1	-43.9	18.2	0.00e+00	0	37	0	93323264	53	5070
2026-01-24 00:28:52.78	7.18	12.42	-41.0	-43.7	18.3	0.00e+00	0	38	0	98566144	53	4983
2026-01-24 00:28:56.05	6.97	12.72	-41.1	-43.9	18.2	0.00e+00	0	38	0	104857600	53	5053
2026-01-24 00:28:58.77	6.80	12.97	-40.9	-43.6	18.5	0.00e+00	0	38	0	109051904	53	4906
2026-01-24 00:29:02.18	6.57	13.28	-40.8	-43.5	18.6	0.00e+00	0	38	0	116391936	53	4835
2026-01-24 00:29:05.19	6.37	13.57	-40.9	-43.5	18.5	0.00e+00	0	38	0	121634816	53	4865
2026-01-24 00:29:08.77	6.12	13.91	-40.9	-43.5	18.6	0.00e+00	0	38	0	127926272	53	4851
2026-01-24 00:29:11.49	5.93	14.17	-40.9	-43.5	18.7	0.00e+00	0	38	0	133169152	53	4822
2026-01-24 00:29:14.77	5.70	14.48	-40.9	-43.5	18.6	0.00e+00	0	38	0	139460608	53	4829
2026-01-24 00:29:17.49	5.50	14.75	-40.9	-43.5	18.6	0.00e+00	0	38	0	144703488	53	4829
2026-01-24 00:29:20.76	5.25	15.07	-41.0	-43.5	18.6	0.00e+00	0	38	0	150994944	53	4833
2026-01-24 00:29:23.78	5.02	15.38	-40.9	-43.3	18.8	0.00e+00	0	38	0	156237824	53	4754
2026-01-24 00:29:26.76	4.79	15.68	-41.0	-43.4	18.7	0.00e+00	0	38	0	162529280	53	4812
2026-01-24 00:29:29.74	4.55	15.98	-40.9	-43.3	18.8	0.00e+00	0	38	0	167772160	53	4752
2026-01-24 00:29:32.72	4.31	16.29	-40.9	-43.3	18.9	0.00e+00	0	38	0	173015040	53	4734
2026-01-24 00:29:35.70	4.06	16.60	-41.0	-43.4	18.8	0.00e+00	0	38	0	178257920	53	4766
2026-01-24 00:29:38.69	3.81	16.92	-41.1	-43.5	18.7	0.00e+00	0	38	0	184549376	53	4823
2026-01-24 00:29:41.67	3.55	17.24	-41.1	-43.5	18.7	0.00e+00	0	38	0	189792256	53	4850
2026-01-24 00:29:44.66	3.28	17.56	-41.0	-43.5	18.7	0.00e+00	0	38	0	196083712	53	4835
2026-01-24 00:29:47.64	3.01	17.88	-41.0	-43.6	18.6	0.00e+00	0	38	0	201326592	53	4889
2026-01-24 00:29:50.63	2.73	18.21	-41.0	-43.6	18.6	0.00e+00	0	38	0	206569472	53	4881
2026-01-24 00:29:54.23	2.39	18.62	-41.2	-43.8	18.4	0.00e+00	0	38	0	213909504	53	5032
2026-01-24 00:29:57.07	2.11	18.94	-41.4	-44.0	18.2	0.00e+00	0	38	0	219152384	53	5158
2026-01-24 00:30:00.34	1.79	19.31	-41.7	-44.3	18.0	0.00e+00	0	38	0	225443840	54	5015
2026-01-24 00:30:03.05	1.51	19.63	-41.6	-44.1	18.1	0.00e+00	0	38	0	229638144	54	4918
2026-01-24 00:30:06.37	1.16	20.02	-41.8	-44.4	17.9	0.00e+00	0	38	0	235929600	54	5059
2026-01-24 00:30:09.07	0.87	20.34	-41.8	-44.4	18.0	0.00e+00	0	38	0	241172480	54	5053
2026-01-24 00:30:12.34	0.51	20.73	-41.9	-44.6	17.7	0.00e+00	0	38	0	247463936	54	5188
2026-01-24 00:30:15.05	0.21	21.06	-41.9	-44.7	17.7	0.00e+00	0	38	0	252706816	54	5247
2026-01-24 00:30:18.34	359.83	21.46	-42.0	-44.8	17.6	0.00e+00	0	38	0	258998272	54	5291
2026-01-24 00:30:21.05	359.50	21.80	-42.1	-44.8	17.6	0.00e+00	0	38	0	264241152	54	5297
2026-01-24 00:30:24.32	359.11	22.21	-42.1	-44.8	17.5	0.00e+00	0	38	0	269484032	55	5028
2026-01-24 00:30:27.04	358.77	22.55	-42.0	-44.7	17.6	0.00e+00	0	38	0	274726912	55	4955
2026-01-24 00:30:30.31	358.35	22.97	-42.1	-44.9	17.5	0.00e+00	0	38	0	281018368	55	5042
2026-01-24 00:30:33.04	358.00	23.33	-42.2	-45.0	17.3	0.00e+00	0	38	0	286261248	55	5126
2026-01-24 00:30:36.32	357.56	23.76	-42.3	-45.1	17.3	0.00e+00	0	38	0	292552704	55	5177
2026-01-24 00:30:39.35	357.14	24.16	-42.2	-44.9	17.5	0.00e+00	0	38	0	297795584	55	5081
2026-01-24 00:30:42.74	356.66	24.62	-42.3	-45.0	17.4	0.00e+00	0	38	0	304087040	55	5153
2026-01-24 00:30:45.54	356.25	25.00	-42.4	-45.1	17.3	0.00e+00	0	38	0	309329920	55	5200
2026-01-24 00:30:48.84	355.75	25.45	-42.3	-45.1	17.3	0.00e+00	0	38	0	315621376	55	5195
2026-01-24 00:30:51.55	355.34	25.83	-42.2	-45.0	17.4	0.00e+00	0	38	0	320864256	55	5133
2026-01-24 00:30:54.84	354.82	26.29	-42.2	-45.0	17.4	0.00e+00	0	38	0	327155712	55	5128
2026-01-24 00:30:57.55	354.38	26.68	-42.4	-45.2	17.3	0.00e+00	0	38	0	332398592	55	5243
2026-01-24 00:31:00.84	353.83	27.15	-42.3	-45.0	17.5	0.00e+00	0	38	0	338690048	55	5102
2026-01-24 00:31:03.57	353.36	27.55	-42.0	-44.6	17.8	0.00e+00	0	38	0	343932928	55	4873
2026-01-24 00:31:06.85	352.78	28.03	-42.0	-44.6	17.8	0.00e+00	0	38	0	349175808	55	4909
2026-01-24 00:31:09.57	352.28	28.43	-42.0	-44.6	17.8	0.00e+00	0	38	0	354418688	55	4907
2026-01-24 00:31:13.11	351.62	28.96	-42.2	-44.9	17.6	0.00e+00	0	38	0	361758720	55	5055
2026-01-24 00:31:15.81	351.10	29.37	-42.2	-45.0	17.6	0.00e+00	0	38	0	367001600	55	5108
2026-01-24 00:31:19.09	350.45	29.86	-42.2	-45.0	17.5	0.00e+00	0	38	0	372244480	55	5117
2026-01-24 00:31:21.81	349.90	30.28	-42.5	-45.2	17.3	0.00e+00	0	38	0	377487360	55	5259
2026-01-24 00:31:25.09	349.21	30.79	-42.9	-45.7	16.9	0.00e+00	0	38	0	383778816	56	5259
2026-01-24 00:31:27.79	348.62	31.21	-43.0	-46.0	16.6	0.00e+00	0	38	0	389021696	56	5441
2026-01-24 00:31:31.16	347.87	31.74	-43.3	-46.4	16.3	0.00e+00	0	38	0	395313152	57	5346
2026-01-24 00:31:33.86	347.25	32.16	-43.4	-46.5	16.1	0.00e+00	0	38	0	400556032	57	5429
2026-01-24 00:31:37.12	346.48	32.68	-43.4	-46.7	16.0	0.00e+00	0	38	0	406847488	57	5558
2026-01-24 00:31:39.98	345.78	33.13	-43.2	-46.6	16.1	0.00e+00	0	38	0	412090368	57	5469
2026-01-24 00:31:43.11	345.00	33.64	-43.3	-46.6	16.2	0.00e+00	0	38	0	417333248	57	5473
2026-01-24 00:31:45.95	344.26	34.09	-43.7	-46.9	15.8	0.00e+00	0	38	0	422576128	57	5658
2026-01-24 00:31:49.07	343.43	34.60	-43.8	-47.0	15.7	0.00e+00	0	38	0	428867584	58	5431
2026-01-24 00:31:51.91	342.65	35.05	-43.7	-46.9	15.8	0.00e+00	0	38	0	434110464	58	5344
2026-01-24 00:31:55.04	341.77	35.56	-43.5	-46.8	15.9	0.00e+00	0	38	0	440401920	58	5331
2026-01-24 00:31:57.88	340.94	36.02	-42.9	-46.0	16.7	0.00e+00	0	38	0	445644800	57	5114
2026-01-24 00:32:01.01	340.00	36.52	-43.0	-46.1	16.6	0.00e+00	0	38	0	450887680	57	5166
2026-01-24 00:32:03.85	339.12	36.98	-43.1	-45.9	16.8	0.00e+00	0	38	0	456130560	57	5092
2026-01-24 00:32:07.10	338.08	37.50	-43.2	-46.1	16.6	0.00e+00	0	38	0	462422016	57	5177
2026-01-24 00:32:09.85	337.18	37.94	-42.9	-45.7	17.0	0.00e+00	0	38	0	467664896	57	4935
2026-01-24 00:32:13.12	336.07	38.46	-43.2	-46.1	16.6	0.00e+00	0	38	0	473956352	57	5182
2026-01-24 00:32:15.83	335.13	38.89	-42.9	-45.8	16.9	0.00e+00	0	38	0	479199232	57	5001
2026-01-24 00:32:19.11	333.95	39.40	-43.1	-45.9	16.7	0.00e+00	0	38	0	485490688	57	5090
2026-01-24 00:32:22.07	332.86	39.85	-43.1	-46.1	16.6	0.00e+00	0	38	0	490733568	57	5170
2026-01-24 00:32:25.73	331.46	40.41	-43.6	-46.9	15.8	0.00e+00	0	38	0	498073600	58	5392
2026-01-24 00:32:28.57	330.34	40.83	-43.5	-46.8	15.9	0.00e+00	0	38	0	503316480	58	5292
2026-01-24 00:32:32.55	328.73	41.40	-43.2	-46.3	16.4	0.00e+00	0	38	0	510656512	58	5000
2026-01-24 00:32:35.39	327.54	41.81	-42.3	-44.8	17.8	0.00e+00	0	38	0	515899392	56	4756
2026-01-24 00:32:39.09	325.94	42.31	-41.6	-44.1	18.4	0.00e+00	0	38	0	522190848	55	4608
2026-01-24 00:32:42.42	324.47	42.75	-41.1	-43.5	19.0	0.00e+00	0	38	0	528482304	54	4577
2026-01-24 00:32:45.15	323.23	43.10	-41.2	-43.6	18.9	0.00e+00	0	38	0	533725184	54	4612
2026-01-24 00:32:48.44	321.70	43.51	-41.2	-43.6	18.9	0.00e+00	0	38	0	540016640	54	4635
2026-01-24 00:32:51.15	320.41	43.83	-40.9	-43.2	19.2	0.00e+00	0	38	0	545259520	53	4691
2026-01-24 00:32:54.62	318.72	44.21	-41.3	-43.7	18.8	0.00e+00	0	38	0	551550976	53	4952
2026-01-24 00:32:57.45	317.31	44.51	-42.3	-45.0	17.6	0.00e+00	0	38	0	556793856	55	5103
2026-01-24 00:33:00.76	315.63	44.83	-42.3	-45.0	17.4	0.00e+00	0	38	0	563085312	55	5112
2026-01-24 00:33:03.50	314.21	45.08	-42.4	-45.1	17.4	0.00e+00	0	38	0	568328192	55	5187
2026-01-24 00:33:06.77	312.49	45.36	-42.5	-45.2	17.2	0.00e+00	0	38	0	574619648	55	5278
2026-01-24 00:33:09.52	311.03	45.57	-42.9	-45.7	17.0	0.00e+00	0	38	0	579862528	56	5238
2026-01-24 00:33:13.05	309.12	45.81	-42.9	-45.7	17.0	0.00e+00	0	38	0	586153984	56	5225
2026-01-24 00:33:15.77	307.63	45.97	-43.6	-46.7	16.1	0.00e+00	0	38	0	591396864	57	5529
2026-01-24 00:33:19.05	305.81	46.13	-43.5	-46.5	16.2	0.00e+00	0	38	0	597688320	57	5435
2026-01-24 00:33:21.78	304.28	46.25	-43.3	-46.3	16.3	0.00e+00	0	38	0	602931200	57	5290
2026-01-24 00:33:25.15	302.38	46.36	-43.5	-46.5	16.2	0.00e+00	0	38	0	609222656	57	5415
2026-01-24 00:33:27.93	300.81	46.42	-43.8	-47.0	15.7	0.00e+00	0	38	0	614465536	58	5446
2026-01-24 00:33:31.20	298.95	46.47	-43.8	-46.9	15.8	0.00e+00	0	38	0	620756992	58	5399
2026-01-24 00:33:33.90	297.41	46.48	-43.8	-46.9	15.9	0.00e+00	0	38	0	624951296	58	5347
2026-01-24 00:33:37.18	295.55	46.46	-43.4	-46.2	16.5	0.00e+00	0	38	0	631242752	58	4980
2026-01-24 00:33:39.89	294.01	46.43	-43.3	-46.2	16.5	0.00e+00	0	38	0	636485632	58	4972
2026-01-24 00:33:43.18	292.14	46.35	-43.6	-46.6	16.1	0.00e+00	0	38	0	642777088	58	5199
2026-01-24 00:33:45.90	290.61	46.26	-43.7	-46.7	16.0	0.00e+00	0	38	0	648019968	58	5270
2026-01-24 00:33:49.29	288.71	46.12	-43.4	-46.4	16.3	0.00e+00	0	38	0	654311424	58	5042
2026-01-24 00:33:51.99	287.21	45.98	-44.0	-47.1	15.6	0.00e+00	0	38	0	659554304	58	5515
2026-01-24 00:33:55.26	285.42	45.79	-44.5	-48.0	14.8	1.50e-06	0	38	0	665845760	60	5434
2026-01-24 00:33:57.97	283.95	45.61	-43.9	-46.9	15.8	0.00e+00	0	38	0	670040064	58	5402
2026-01-24 00:34:01.23	282.21	45.36	-44.2	-47.5	15.1	0.00e+00	0	38	0	676331520	59	5451
2026-01-24 00:34:03.95	280.77	45.14	-43.7	-46.7	16.0	0.00e+00	0	38	0	681574400	59	4939
2026-01-24 00:34:07.23	279.07	44.84	-43.5	-46.5	16.3	0.00e+00	0	38	0	687865856	58	5136
2026-01-24 00:34:09.93	277.69	44.58	-42.4	-45.4	17.2	0.00e+00	0	38	0	693108736	57	4806
2026-01-24 00:34:13.20	276.06	44.24	-42.3	-44.9	17.8	0.00e+00	0	38	0	699400192	56	4795
2026-01-24 00:34:16.01	274.68	43.93	-42.4	-44.9	17.8	0.00e+00	0	38	0	704643072	56	4796
2026-01-24 00:34:19.13	273.19	43.56	-41.5	-43.9	18.6	0.00e+00	0	38	0	709885952	55	4507
2026-01-24 00:34:21.98	271.85	43.22	-41.0	-43.3	19.1	0.00e+00	0	38	0	715128832	53	4724
2026-01-24 00:34:25.11	270.42	42.82	-40.8	-43.1	19.3	0.00e+00	0	38	0	721420288	53	4648
2026-01-24 00:34:28.06	269.10	42.43	-40.0	-42.1	20.3	0.00e+00	0	38	0	726663168	51	4617
2026-01-24 00:34:31.05	267.79	42.03	-39.7	-41.7	20.7	0.00e+00	0	38	0	732954624	51	4426
2026-01-24 00:34:34.03	266.52	41.61	-39.9	-42.1	20.4	0.00e+00	0	38	0	738197504	51	4603
2026-01-24 00:34:37.01	265.29	41.18	-40.0	-42.1	20.4	0.00e+00	0	38	0	743440384	51	4605
2026-01-24 00:34:39.99	264.09	40.74	-40.1	-42.2	20.3	0.00e+00	0	38	0	749731840	51	4677
2026-01-24 00:34:42.98	262.91	40.30	-39.9	-42.1	20.4	0.00e+00	0	38	0	754974720	51	4603
2026-01-24 00:34:45.96	261.78	39.84	-40.1	-42.2	20.2	0.00e+00	0	38	0	760217600	51	4676
2026-01-24 00:34:48.95	260.67	39.38	-39.9	-42.1	20.4	0.00e+00	0	38	0	766509056	51	4604
2026-01-24 00:34:51.93	259.59	38.92	-40.2	-42.3	20.2	0.00e+00	0	38	0	771751936	51	4724
2026-01-24 00:34:54.92	258.55	38.45	-40.4	-42.5	19.9	0.00e+00	0	38	0	776994816	51	4865
2026-01-24 00:34:57.90	257.53	37.97	-40.5	-42.7	19.7	0.00e+00	0	38	0	783286272	51	4959
2026-01-24 00:35:00.89	256.54	37.49	-40.9	-43.2	19.2	0.00e+00	0	38	0	788529152	52	4948
2026-01-24 00:35:03.87	255.59	37.01	-41.0	-43.3	19.1	0.00e+00	0	38	0	793772032	53	4734
2026-01-24 00:35:06.85	254.66	36.53	-41.1	-43.3	19.1	0.00e+00	0	38	0	800063488	53	4754
2026-01-24 00:35:09.89	253.74	36.04	-41.7	-44.2	18.3	0.00e+00	0	38	0	805306368	54	4948
2026-01-24 00:35:12.85	252.87	35.56	-42.7	-45.4	17.0	0.00e+00	0	38	0	810549248	55	5386
2026-01-24 00:35:15.82	252.03	35.08	-42.5	-45.1	17.5	0.00e+00	0	38	0	816840704	56	4896
2026-01-24 00:35:18.81	251.20	34.59	-43.4	-46.3	16.3	0.00e+00	0	38	0	822083584	57	5310
2026-01-24 00:35:21.89	250.38	34.09	-44.0	-47.2	15.4	0.00e+00	0	38	0	827326464	58	5576
2026-01-24 00:35:24.78	249.62	33.63	-43.8	-46.9	15.8	0.00e+00	0	38	0	833617920	58	5352
2026-01-24 00:35:28.25	248.75	33.07	-44.2	-47.5	15.2	0.00e+00	0	38	0	839909376	59	5434
2026-01-24 00:35:30.97	248.08	32.63	-44.5	-48.1	14.6	0.00e+00	0	38	0	845152256	59	5795
2026-01-24 00:35:34.25	247.31	32.11	-44.2	-47.5	15.1	0.00e+00	0	38	0	851443712	59	5451
2026-01-24 00:35:36.97	246.68	31.68	-43.8	-46.9	15.7	0.00e+00	0	38	0	855638016	59	5075
2026-01-24 00:35:40.24	245.95	31.16	-44.0	-47.1	15.5	0.00e+00	0	38	0	861929472	59	5214
2026-01-24 00:35:43.29	245.29	30.69	-43.9	-47.1	15.5	0.00e+00	0	38	0	868220928	59	5213
2026-01-24 00:35:46.13	244.69	30.25	-44.0	-47.2	15.4	0.00e+00	0	38	0	873463808	59	5245
2026-01-24 00:35:49.41	244.02	29.74	-43.5	-46.5	16.1	0.00e+00	0	38	0	879755264	59	4825
2026-01-24 00:35:52.11	243.48	29.33	-43.3	-46.2	16.5	0.00e+00	0	38	0	884998144	58	4927
2026-01-24 00:35:55.66	242.79	28.79	-43.3	-46.2	16.5	0.00e+00	0	38	0	891289600	58	4936
2026-01-24 00:35:58.49	242.26	28.37	-43.1	-45.9	16.7	2.74e-05	0	38	0	896532480	58	4778
2026-01-24 00:36:01.75	241.67	27.89	-42.8	-45.5	17.0	0.00e+00	0	38	0	902823936	57	4854
2026-01-24 00:36:04.47	241.19	27.49	-42.9	-45.6	17.0	0.00e+00	0	38	0	908066816	57	4912
2026-01-24 00:36:07.77	240.62	27.01	-42.7	-45.5	17.1	0.00e+00	0	38	0	914358272	57	4815
2026-01-24 00:36:10.59	240.15	26.60	-42.7	-45.3	17.2	0.00e+00	0	38	0	919601152	57	4750
2026-01-24 00:36:14.26	239.55	26.08	-42.6	-45.2	17.3	0.00e+00	0	38	0	925892608	56	4958
2026-01-24 00:36:16.96	239.13	25.70	-42.8	-45.5	17.0	0.00e+00	0	38	0	931135488	56	5156
2026-01-24 00:36:20.23	238.62	25.24	-42.7	-45.3	17.2	0.00e+00	0	38	0	937426944	56	5037
2026-01-24 00:36:22.94	238.22	24.87	-42.2	-44.7	17.8	0.00e+00	0	38	0	942669824	56	4680
2026-01-24 00:36:26.23	237.74	24.42	-41.8	-44.3	18.0	0.00e+00	0	38	0	948961280	55	4738
2026-01-24 00:36:28.96	237.35	24.05	-41.8	-44.3	18.1	0.00e+00	0	38	0	953155584	55	4722
2026-01-24 00:36:32.24	236.90	23.61	-42.1	-44.7	17.6	0.00e+00	0	38	0	959447040	55	4968
2026-01-24 00:36:34.96	236.53	23.25	-42.5	-45.2	17.2	0.00e+00	0	38	0	964689920	55	5252
2026-01-24 00:36:38.53	236.06	22.79	-42.3	-44.9	17.4	0.00e+00	0	38	0	972029952	55	5095
2026-01-24 00:36:41.24	235.71	22.44	-42.3	-45.0	17.4	0.00e+00	0	38	0	976224256	55	5124
2026-01-24 00:36:44.86	235.26	21.98	-42.3	-45.1	17.3	0.00e+00	0	38	0	983564288	55	5164
2026-01-24 00:36:47.70	234.92	21.62	-42.2	-44.9	17.4	0.00e+00	0	38	0	988807168	55	5066
2026-01-24 00:36:51.68	234.45	21.13	-42.0	-44.6	17.7	0.00e+00	0	38	0	996147200	55	4899
2026-01-24 00:36:54.41	234.14	20.80	-42.2	-44.9	17.4	0.00e+00	0	38	0	1001390080	55	5070
2026-01-24 00:36:57.76	233.76	20.39	-42.2	-44.9	17.5	0.00e+00	0	38	0	1007681536	55	5052
2026-01-24 00:37:00.46	233.47	20.07	-42.3	-45.0	17.4	0.00e+00	0	38	0	1012924416	55	5105
2026-01-24 00:37:03.74	233.12	19.68	-42.1	-44.7	17.6	0.00e+00	0	38	0	1019215872	55	4939
2026-01-24 00:37:06.48	232.83	19.36	-41.9	-44.5	17.8	0.00e+00	0	38	0	1024458752	55	4817
2026-01-24 00:37:10.05	232.47	18.95	-42.0	-44.5	17.7	0.00e+00	0	38	0	1030750208	55	4848
2026-01-24 00:37:12.96	232.18	18.62	-42.2	-44.8	17.5	0.00e+00	0	38	0	1035993088	55	5014
2026-01-24 00:37:16.23	231.86	18.25	-42.5	-45.3	17.0	0.00e+00	0	38	0	1042284544	55	5311
2026-01-24 00:37:18.94	231.61	17.95	-42.5	-45.3	17.0	0.00e+00	0	38	0	1047527424	55	5292
2026-01-24 00:37:22.23	231.30	17.58	-42.3	-45.0	17.2	0.00e+00	0	38	0	1053818880	55	5126
2026-01-24 00:37:24.93	231.06	17.29	-42.1	-44.8	17.5	0.00e+00	0	38	0	1059061760	55	5000
2026-01-24 00:37:28.47	230.74	16.91	-42.3	-45.0	17.3	0.00e+00	0	38	0	1065353216	55	5106
2026-01-24 00:37:31.24	230.50	16.61	-42.5	-45.3	17.0	0.00e+00	0	38	0	1070596096	55	5296
2026-01-24 00:37:34.53	230.22	16.27	-42.6	-45.3	16.9	0.00e+00	0	38	0	1076887552	55	5335
2026-01-24 00:37:37.26	230.00	15.98	-42.5	-45.3	16.8	0.00e+00	0	38	0	1082130432	55	5335
2026-01-24 00:37:40.53	229.73	15.65	-42.4	-45.2	17.0	0.00e+00	0	38	0	1087373312	55	5230
2026-01-24 00:37:43.43	229.50	15.35	-42.3	-45.1	17.1	0.00e+00	0	38	0	1093664768	55	5178
2026-01-24 00:37:46.76	229.24	15.02	-42.5	-45.2	16.9	0.00e+00	0	38	0	1099956224	55	5266
2026-01-24 00:37:49.49	229.04	14.74	-42.6	-45.5	16.7	0.00e+00	0	38	0	1104150528	55	5404
2026-01-24 00:37:52.76	228.79	14.42	-42.9	-45.8	16.5	0.00e+00	0	38	0	1110441984	56	5294
2026-01-24 00:37:55.48	228.59	14.16	-43.0	-45.9	16.4	0.00e+00	0	38	0	1115684864	56	5373
2026-01-24 00:37:58.75	228.36	13.84	-43.1	-46.0	16.3	0.00e+00	0	38	0	1121976320	56	5450
2026-01-24 00:38:01.69	228.15	13.56	-43.1	-46.1	16.2	0.00e+00	0	38	0	1127219200	56	5485
2026-01-24 00:38:04.68	227.95	13.28	-43.1	-46.1	16.2	0.00e+00	0	38	0	1133510656	56	5483
2026-01-24 00:38:07.66	227.75	13.00	-43.2	-46.2	16.1	0.00e+00	0	38	0	1138753536	56	5543
2026-01-24 00:38:10.64	227.55	12.72	-43.1	-46.1	16.1	0.00e+00	0	38	0	1143996416	57	5199
2026-01-24 00:38:13.62	227.36	12.45	-43.2	-46.2	16.1	0.00e+00	0	38	0	1150287872	57	5233
2026-01-24 00:38:16.96	227.15	12.15	-43.2	-46.2	16.0	0.00e+00	0	38	0	1155530752	57	5258
2026-01-24 00:38:19.70	226.98	11.90	-43.2	-46.2	16.0	0.00e+00	0	38	0	1160773632	57	5267
2026-01-24 00:38:22.97	226.78	11.61	-43.2	-46.3	15.9	0.00e+00	0	38	0	1167065088	57	5287
2026-01-24 00:38:25.69	226.61	11.37	-43.2	-46.3	15.9	0.00e+00	0	38	0	1172307968	57	5316
2026-01-24 00:38:28.96	226.42	11.09	-43.4	-46.5	15.6	0.00e+00	0	38	0	1178599424	57	5456
2026-01-24 00:38:31.69	226.26	10.85	-43.5	-46.6	15.5	0.00e+00	0	38	0	1183842304	57	5523
2026-01-24 00:38:34.98	226.07	10.57	-43.4	-46.6	15.5	0.00e+00	0	38	0	1190133760	57	5493
2026-01-24 00:38:37.69	225.92	10.34	-43.6	-46.9	15.2	0.00e+00	0	38	0	1195376640	57	5687
2026-01-24 00:38:40.97	225.74	10.07	-43.8	-47.1	15.0	0.00e+00	0	38	0	1200619520	58	5512
2026-01-24 00:38:43.68	225.60	9.84	-43.8	-47.2	14.9	0.00e+00	0	38	0	1205862400	58	5568
2026-01-24 00:38:46.95	225.43	9.57	-43.6	-47.0	15.1	0.00e+00	0	38	0	1212153856	58	5444
2026-01-24 00:38:49.84	225.28	9.34	-43.5	-46.8	15.2	0.00e+00	0	38	0	1217396736	58	5330
2026-01-24 00:38:53.56	225.09	9.03	-43.9	-47.4	14.8	0.00e+00	0	38	0	1224736768	58	5667
2026-01-24 00:38:56.25	224.95	8.82	-48.4	-63.6	3.8	1.49e+00	0	38	104	1225785344	67	21820
2026-01-24 00:38:59.57	224.79	8.56	-48.9	-64.0	3.8	1.49e+00	0	38	104	1225785344	68	21670
2026-01-24 00:39:02.36	224.65	8.34	-48.9	-64.1	3.8	1.49e+00	0	38	104	1225785344	68	21783
2026-01-24 00:39:05.75	224.49	8.07	-48.9	-64.1	3.8	1.49e+00	0	38	104	1225785344	68	21911
2026-01-24 00:39:08.50	224.37	7.86	-48.7	-64.1	3.8	1.49e+00	0	38	104	1225785344	68	21885
2026-01-24 00:39:11.83	224.21	7.60	-48.8	-64.1	3.8	1.49e+00	0	38	104	1225785344	68	21809
2026-01-24 00:39:14.53	224.09	7.40	-48.7	-64.0	3.8	1.49e+00	0	38	104	1225785344	68	21668
2026-01-24 00:39:17.81	223.95	7.15	-48.7	-64.0	3.8	1.49e+00	0	38	104	1225785344	68	21628
2026-01-24 00:39:20.50	223.83	6.95	-48.7	-64.0	3.8	1.49e+00	0	38	104	1225785344	68	21580
2026-01-24 00:39:23.78	223.69	6.71	-48.7	-64.0	3.8	1.49e+00	0	38	104	1225785344	68	21561
2026-01-24 00:39:26.50	223.57	6.51	-48.7	-63.9	3.8	1.49e+00	0	38	104	1225785344	68	21497
2026-01-24 00:39:29.76	223.44	6.27	-48.7	-63.9	3.8	1.49e+00	0	38	104	1225785344	68	21455
2026-01-24 00:39:32.45	223.33	6.07	-48.6	-63.9	3.8	1.49e+00	0	38	104	1225785344	68	21488
2026-01-24 00:39:35.73	223.19	5.84	-48.6	-63.9	3.8	1.49e+00	0	38	104	1225785344	68	21473
2026-01-24 00:39:38.43	223.09	5.65	-48.6	-63.9	3.8	1.49e+00	0	38	104	1225785344	68	21481
2026-01-24 00:39:41.71	222.96	5.41	-48.6	-63.9	3.8	1.49e+00	0	38	104	1225785344	68	21476
2026-01-24 00:39:44.41	222.85	5.22	-48.6	-63.9	3.8	1.49e+00	0	38	104	1225785344	68	21451
2026-01-24 00:39:47.67	222.73	5.00	-48.6	-63.9	3.8	1.49e+00	0	38	104	1225785344	68	21470

#Closed at: 2026-01-24 00:39:48
#Recorded file [1225 MB]: D:/Data/31040_260124_032719.dat