passes_logs/2026/01/24/T1/T1__20260124_123506_FENGYUN_3D_rec.log

#Pass ID: 20260124_123506_FENGYUN 3D
#Satellite: FENGYUN 3D
#Configuration: FENGYUN 3D
#almurnet v.1.7.20251203
#Start time: 2026-01-24 12:35:07

#Version: 2.0.20230620
#Station: T1
#Location: 37.570604 lon 55.790049 lat
#TLE: 1 43010U 17072A   26023.60174628  .00000324  00000+0  17481-3 0  9994
#TLE: 2 43010  98.9958 355.5514 0002482  93.7422 266.4037 14.19699955424476

#Time	Az	El	Level	Level2	SNR	BER	BlckErr	Temp	State	Recorded	gain1	gain2
2026-01-24 12:35:07.94	178.95	5.12	-47.4	-60.3	3.8	8.47e-01	0	36	0	0	66	15777
2026-01-24 12:35:11.91	179.09	5.40	-45.5	-59.3	3.8	8.47e-01	0	37	104	0	61	18823
2026-01-24 12:35:15.88	179.24	5.68	-45.5	-59.7	3.8	8.47e-01	0	37	104	0	61	19682
2026-01-24 12:35:19.86	179.38	5.97	-45.5	-59.9	3.8	8.48e-01	0	37	104	0	61	20153
2026-01-24 12:35:23.83	179.53	6.26	-45.4	-59.4	3.8	8.46e-01	0	37	104	0	61	19139
2026-01-24 12:35:27.80	179.68	6.55	-45.3	-57.2	4.0	8.44e-01	0	37	0	0	61	14767
2026-01-24 12:35:31.77	179.84	6.84	-45.3	-57.1	4.0	8.41e-01	0	37	0	0	61	14706
2026-01-24 12:35:35.75	180.00	7.14	-45.3	-57.4	3.9	8.46e-01	0	37	104	0	61	15193
2026-01-24 12:35:39.72	180.16	7.45	-42.5	-46.6	12.2	7.98e-04	0	37	0	14680064	57	5501
2026-01-24 12:35:43.69	180.32	7.75	-39.1	-41.8	17.0	0.00e+00	0	38	0	36700160	50	4708
2026-01-24 12:35:47.67	180.49	8.06	-38.1	-40.5	18.2	0.00e+00	0	37	0	59768832	48	4582
2026-01-24 12:35:51.64	180.66	8.37	-39.8	-42.6	16.2	0.00e+00	0	38	0	81788928	50	5183
2026-01-24 12:35:55.61	180.83	8.69	-42.9	-47.4	11.4	5.17e-04	0	38	0	103809024	56	6408
2026-01-24 12:35:59.58	181.01	9.01	-44.8	-53.4	5.7	3.74e-01	0	38	0	126877696	60	10069
2026-01-24 12:36:03.56	181.19	9.34	-44.9	-53.9	5.3	8.28e-01	0	38	0	139460608	61	10060
2026-01-24 12:36:07.54	181.37	9.67	-42.7	-46.4	12.4	5.83e-05	0	38	0	160432128	56	5710
2026-01-24 12:36:11.52	181.56	10.00	-41.8	-44.7	14.1	6.80e-06	0	38	0	183500800	55	4958
2026-01-24 12:36:15.49	181.76	10.34	-40.0	-42.3	16.4	0.00e+00	0	38	0	205520896	52	4470
2026-01-24 12:36:19.47	181.95	10.68	-37.5	-39.5	19.0	0.00e+00	0	38	0	228589568	47	4317
2026-01-24 12:36:23.45	182.15	11.03	-37.1	-39.1	19.4	0.00e+00	0	38	0	250609664	46	4353
2026-01-24 12:36:27.43	182.36	11.38	-37.0	-39.0	19.5	0.00e+00	0	38	0	272629760	45	4565
2026-01-24 12:36:31.41	182.57	11.73	-36.7	-38.6	19.8	0.00e+00	0	38	0	295698432	45	4383
2026-01-24 12:36:35.39	182.79	12.10	-36.7	-38.6	19.9	0.00e+00	0	38	0	317718528	45	4372
2026-01-24 12:36:39.37	183.01	12.46	-36.5	-38.4	20.0	0.00e+00	0	38	0	339738624	44	4545
2026-01-24 12:36:43.35	183.24	12.83	-36.5	-38.5	20.0	0.00e+00	0	38	0	362807296	44	4552
2026-01-24 12:36:47.33	183.47	13.21	-36.4	-38.3	20.1	0.00e+00	0	38	0	384827392	44	4473
2026-01-24 12:36:51.31	183.71	13.59	-36.4	-38.3	20.2	0.00e+00	0	38	0	406847488	44	4459
2026-01-24 12:36:55.29	183.95	13.98	-36.2	-38.1	20.3	0.00e+00	0	39	0	429916160	44	4384
2026-01-24 12:36:59.27	184.20	14.38	-36.0	-37.9	20.5	0.00e+00	0	39	0	451936256	44	4280
2026-01-24 12:37:03.25	184.46	14.78	-35.7	-37.5	20.7	0.00e+00	0	39	0	473956352	43	4328
2026-01-24 12:37:07.23	184.72	15.18	-35.6	-37.4	20.8	0.00e+00	0	39	0	497025024	43	4267
2026-01-24 12:37:11.21	184.99	15.60	-35.7	-37.5	20.8	0.00e+00	0	39	0	519045120	43	4330
2026-01-24 12:37:15.18	185.27	16.01	-35.5	-37.4	20.9	0.00e+00	0	38	0	541065216	43	4253
2026-01-24 12:37:19.16	185.55	16.44	-35.3	-37.2	21.1	0.00e+00	0	39	0	564133888	42	4399
2026-01-24 12:37:23.14	185.84	16.87	-35.2	-37.0	21.2	0.00e+00	0	39	0	586153984	42	4325
2026-01-24 12:37:27.12	186.14	17.31	-35.1	-36.9	21.3	0.00e+00	0	39	0	608174080	42	4278
2026-01-24 12:37:31.09	186.45	17.76	-35.1	-36.9	21.3	0.00e+00	0	39	0	631242752	42	4260
2026-01-24 12:37:35.07	186.77	18.21	-34.9	-36.7	21.5	0.00e+00	0	39	0	653262848	41	4402
2026-01-24 12:37:39.05	187.10	18.68	-34.8	-36.6	21.6	0.00e+00	0	39	0	676331520	41	4373
2026-01-24 12:37:43.03	187.44	19.15	-34.7	-36.6	21.7	0.00e+00	0	39	0	698351616	41	4343
2026-01-24 12:37:47.01	187.78	19.62	-34.9	-36.7	21.5	0.00e+00	0	39	0	720371712	41	4417
2026-01-24 12:37:50.99	188.14	20.11	-34.7	-36.5	21.7	0.00e+00	0	39	0	742391808	41	4318
2026-01-24 12:37:54.97	188.51	20.61	-34.4	-36.2	22.0	0.00e+00	0	39	0	765460480	40	4416
2026-01-24 12:37:58.95	188.89	21.11	-34.5	-36.2	22.0	0.00e+00	0	39	0	787480576	40	4436
2026-01-24 12:38:02.92	189.29	21.62	-34.4	-36.2	22.0	0.00e+00	0	39	0	809500672	40	4419
2026-01-24 12:38:06.90	189.69	22.15	-34.2	-35.9	22.2	0.00e+00	0	39	0	832569344	40	4288
2026-01-24 12:38:10.89	190.11	22.68	-34.2	-35.9	22.3	0.00e+00	0	39	0	854589440	40	4275
2026-01-24 12:38:14.87	190.55	23.22	-34.1	-35.9	22.3	0.00e+00	0	39	0	877658112	40	4262
2026-01-24 12:38:18.85	191.00	23.77	-34.2	-35.9	22.3	0.00e+00	0	39	0	899678208	40	4279
2026-01-24 12:38:22.83	191.46	24.33	-34.1	-35.9	22.3	0.00e+00	0	39	0	921698304	40	4256
2026-01-24 12:38:26.80	191.94	24.91	-34.0	-35.7	22.5	0.00e+00	0	39	0	944766976	39	4426
2026-01-24 12:38:30.78	192.44	25.49	-33.7	-35.4	22.7	0.00e+00	0	39	0	966787072	39	4289
2026-01-24 12:38:34.76	192.96	26.08	-33.6	-35.4	22.8	0.00e+00	0	39	0	988807168	39	4245
2026-01-24 12:38:38.74	193.49	26.69	-33.8	-35.5	22.6	0.00e+00	0	39	0	1011875840	39	4331
2026-01-24 12:38:42.72	194.05	27.30	-33.7	-35.4	22.7	0.00e+00	0	39	0	1033895936	39	4268
2026-01-24 12:38:46.70	194.63	27.93	-33.8	-35.6	22.6	0.00e+00	0	39	0	1055916032	39	4345
2026-01-24 12:38:50.68	195.23	28.57	-33.6	-35.3	22.9	0.00e+00	0	39	0	1078984704	39	4207
2026-01-24 12:38:54.65	195.85	29.21	-33.7	-35.4	22.7	0.00e+00	0	39	0	1101004800	39	4259
2026-01-24 12:38:58.63	196.50	29.87	-33.8	-35.5	22.7	0.00e+00	0	39	0	1123024896	39	4309
2026-01-24 12:39:02.61	197.18	30.55	-33.8	-35.6	22.6	0.00e+00	0	39	0	1146093568	39	4357
2026-01-24 12:39:06.59	197.88	31.23	-33.1	-34.8	23.3	0.00e+00	0	39	0	1168113664	38	4214
2026-01-24 12:39:10.57	198.62	31.93	-33.5	-35.2	23.0	0.00e+00	0	39	0	1190133760	38	4422
2026-01-24 12:39:14.55	199.39	32.63	-33.6	-35.3	22.9	0.00e+00	0	39	0	1213202432	38	4456
2026-01-24 12:39:18.52	200.18	33.35	-33.5	-35.2	23.0	0.00e+00	0	39	0	1235222528	38	4418
2026-01-24 12:39:22.50	201.02	34.08	-33.2	-34.8	23.3	0.00e+00	0	39	0	1257242624	38	4242
2026-01-24 12:39:26.48	201.89	34.82	-33.3	-35.0	23.2	0.00e+00	0	39	0	1280311296	38	4306
2026-01-24 12:39:30.46	202.81	35.57	-33.0	-34.7	23.4	0.00e+00	0	39	0	1302331392	38	4173
2026-01-24 12:39:34.44	203.76	36.32	-33.0	-34.7	23.4	0.00e+00	0	39	0	1325400064	37	4424
2026-01-24 12:39:38.42	204.76	37.09	-33.1	-34.8	23.3	0.00e+00	0	39	0	1347420160	37	4487
2026-01-24 12:39:42.40	205.81	37.87	-33.3	-35.0	23.2	0.00e+00	0	39	0	1369440256	37	4555
2026-01-24 12:39:46.38	206.91	38.65	-33.2	-34.9	23.3	0.00e+00	0	39	0	1391460352	37	4531
2026-01-24 12:39:50.36	208.06	39.44	-33.2	-34.9	23.3	0.00e+00	0	39	0	1414529024	37	4516
2026-01-24 12:39:54.34	209.27	40.23	-33.1	-34.8	23.4	0.00e+00	0	39	0	1436549120	37	4480
2026-01-24 12:39:58.31	210.54	41.03	-33.3	-35.0	23.3	0.00e+00	0	39	0	1459617792	37	4550
2026-01-24 12:40:02.30	211.87	41.83	-33.4	-35.1	23.2	0.00e+00	0	39	0	1481637888	37	4610
2026-01-24 12:40:06.28	213.27	42.63	-33.4	-35.1	23.2	0.00e+00	0	39	0	1503657984	37	4633
2026-01-24 12:40:10.27	214.74	43.42	-33.3	-35.0	23.2	0.00e+00	0	39	0	1526726656	37	4565
2026-01-24 12:40:14.24	216.28	44.21	-33.4	-35.1	23.1	0.00e+00	0	39	0	1548746752	37	4637
2026-01-24 12:40:18.22	217.90	44.99	-33.7	-35.4	22.8	0.00e+00	0	39	0	1570766848	38	4526
2026-01-24 12:40:22.20	219.60	45.76	-33.9	-35.7	22.7	0.00e+00	0	39	0	1593835520	38	4669
2026-01-24 12:40:26.18	221.38	46.52	-33.7	-35.4	23.0	0.00e+00	0	39	0	1615855616	38	4503
2026-01-24 12:40:30.15	223.25	47.26	-33.4	-35.1	23.3	0.00e+00	0	39	0	1637875712	38	4356
2026-01-24 12:40:34.13	225.20	47.98	-33.5	-35.2	23.2	0.00e+00	0	39	0	1660944384	38	4405
2026-01-24 12:40:38.11	227.25	48.67	-33.6	-35.3	23.1	0.00e+00	0	40	0	1682964480	38	4483
2026-01-24 12:40:42.09	229.39	49.33	-33.8	-35.5	23.0	0.00e+00	0	39	0	1706033152	38	4548
2026-01-24 12:40:46.07	231.62	49.96	-33.8	-35.5	22.9	0.00e+00	0	39	0	1728053248	38	4574
2026-01-24 12:40:50.05	233.94	50.55	-34.0	-35.8	22.7	0.00e+00	0	39	0	1750073344	38	4711
2026-01-24 12:40:54.03	236.34	51.10	-33.6	-35.4	23.0	0.00e+00	0	39	0	1772093440	38	4497
2026-01-24 12:40:58.01	238.83	51.60	-34.0	-35.8	22.6	0.00e+00	0	39	0	1795162112	39	4457
2026-01-24 12:41:02.00	241.41	52.04	-34.0	-35.7	22.7	0.00e+00	0	39	0	1817182208	39	4409
2026-01-24 12:41:05.97	244.05	52.43	-33.9	-35.6	22.9	0.00e+00	0	39	0	1839202304	39	4358
2026-01-24 12:41:09.95	246.76	52.76	-34.1	-35.8	22.7	0.00e+00	0	39	0	1862270976	39	4459
2026-01-24 12:41:13.93	249.52	53.02	-34.2	-35.9	22.6	0.00e+00	0	39	0	1884291072	39	4510
2026-01-24 12:41:17.91	252.33	53.22	-34.1	-35.9	22.6	0.00e+00	0	39	0	1907359744	39	4496
2026-01-24 12:41:21.89	255.16	53.34	-34.4	-36.1	22.4	0.00e+00	0	39	0	1929379840	39	4648
2026-01-24 12:41:25.87	258.02	53.40	-34.4	-36.1	22.3	0.00e+00	0	39	0	1951399936	39	4628
2026-01-24 12:41:29.84	260.87	53.39	-34.5	-36.3	22.2	0.00e+00	0	39	0	1974468608	39	4738
2026-01-24 12:41:33.83	263.72	53.30	-34.3	-36.1	22.4	0.00e+00	0	39	0	1996488704	39	4612
2026-01-24 12:41:37.81	266.55	53.15	-34.2	-35.9	22.6	0.00e+00	0	39	0	2018508800	39	4525
2026-01-24 12:41:41.79	269.33	52.92	-34.2	-35.9	22.6	0.00e+00	0	39	0	2040528896	39	4503
2026-01-24 12:41:45.77	272.07	52.63	-34.0	-35.7	22.7	0.00e+00	0	40	0	2063597568	39	4429
2026-01-24 12:41:49.76	274.76	52.28	-34.3	-36.0	22.4	0.00e+00	0	39	0	2085617664	39	4588
2026-01-24 12:41:53.74	277.37	51.87	-34.0	-35.7	22.7	0.00e+00	0	40	0	2108686336	39	4416
2026-01-24 12:41:57.72	279.91	51.40	-33.8	-35.5	22.9	0.00e+00	0	40	0	2130706432	39	4307
2026-01-24 12:42:01.70	282.36	50.89	-33.8	-35.5	22.9	0.00e+00	0	40	0	2153775104	39	4324
2026-01-24 12:42:05.68	284.73	50.32	-34.1	-35.8	22.6	0.00e+00	0	40	0	2175795200	39	4490
2026-01-24 12:42:09.66	287.01	49.72	-33.6	-35.3	23.2	0.00e+00	0	39	0	2197815296	39	4197
2026-01-24 12:42:13.64	289.20	49.08	-33.7	-35.4	23.5	0.00e+00	0	39	0	2220883968	38	4502
2026-01-24 12:42:17.63	291.30	48.40	-33.6	-35.2	23.6	0.00e+00	0	40	0	2242904064	38	4432
2026-01-24 12:42:21.61	293.30	47.70	-33.3	-34.9	23.9	0.00e+00	0	40	0	2264924160	38	4284
2026-01-24 12:42:25.59	295.22	46.98	-33.8	-35.4	23.4	0.00e+00	0	39	0	2286944256	38	4544
2026-01-24 12:42:29.57	297.05	46.24	-33.9	-35.6	23.3	0.00e+00	0	40	0	2310012928	38	4604
2026-01-24 12:42:33.54	298.79	45.48	-33.7	-35.3	23.6	0.00e+00	0	39	0	2332033024	38	4459
2026-01-24 12:42:37.52	300.45	44.70	-33.8	-35.4	23.4	0.00e+00	0	39	0	2355101696	38	4536
2026-01-24 12:42:41.50	302.04	43.92	-33.6	-35.2	23.6	0.00e+00	0	40	0	2377121792	38	4425
2026-01-24 12:42:45.48	303.55	43.13	-33.6	-35.3	23.6	0.00e+00	0	40	0	2399141888	38	4446
2026-01-24 12:42:49.46	304.98	42.34	-33.5	-35.1	23.8	0.00e+00	0	40	0	2422210560	38	4359
2026-01-24 12:42:53.44	306.35	41.55	-33.3	-34.9	23.9	0.00e+00	0	40	0	2444230656	38	4266
2026-01-24 12:42:57.42	307.66	40.75	-33.2	-34.8	23.9	0.00e+00	0	39	0	2466250752	38	4227
2026-01-24 12:43:01.40	308.90	39.96	-33.1	-34.7	24.0	0.00e+00	0	40	0	2489319424	38	4191
2026-01-24 12:43:05.37	310.08	39.18	-33.2	-34.8	24.0	0.00e+00	0	39	0	2511339520	38	4208
2026-01-24 12:43:09.35	311.21	38.39	-33.1	-34.7	24.0	0.00e+00	0	40	0	2533359616	38	4186
2026-01-24 12:43:13.33	312.28	37.62	-33.0	-34.6	24.1	0.00e+00	0	40	0	2556428288	37	4362
2026-01-24 12:43:17.31	313.31	36.85	-33.1	-34.7	24.0	0.00e+00	0	40	0	2578448384	37	4429
2026-01-24 12:43:21.29	314.29	36.09	-32.9	-34.5	24.2	0.00e+00	0	40	0	2600468480	37	4298
2026-01-24 12:43:25.26	315.23	35.34	-33.2	-34.8	23.9	0.00e+00	0	40	0	2623537152	37	4493
2026-01-24 12:43:29.24	316.13	34.60	-33.1	-34.7	24.0	0.00e+00	0	40	0	2645557248	37	4436
2026-01-24 12:43:33.23	316.99	33.87	-33.1	-34.8	24.0	0.00e+00	0	39	0	2667577344	37	4445
2026-01-24 12:43:37.21	317.81	33.15	-33.2	-34.8	23.9	0.00e+00	0	40	0	2690646016	37	4478
2026-01-24 12:43:41.18	318.59	32.44	-33.2	-34.8	23.9	0.00e+00	0	40	0	2712666112	37	4472
2026-01-24 12:43:45.16	319.34	31.74	-33.5	-35.1	23.6	0.00e+00	0	40	0	2734686208	37	4624
2026-01-24 12:43:49.14	320.07	31.05	-33.8	-35.5	23.3	0.00e+00	0	40	0	2757754880	38	4553
2026-01-24 12:43:53.12	320.76	30.38	-33.7	-35.3	23.4	0.00e+00	0	40	0	2779774976	38	4491
2026-01-24 12:43:57.10	321.43	29.71	-33.5	-35.1	23.6	0.00e+00	0	40	0	2802843648	38	4368
2026-01-24 12:44:01.08	322.07	29.06	-33.5	-35.2	23.6	0.00e+00	0	39	0	2824863744	38	4396
2026-01-24 12:44:05.05	322.68	28.42	-33.6	-35.3	23.5	0.00e+00	0	40	0	2846883840	38	4463
2026-01-24 12:44:09.03	323.27	27.79	-33.5	-35.2	23.6	0.00e+00	0	40	0	2868903936	38	4422
2026-01-24 12:44:13.01	323.84	27.17	-33.6	-35.3	23.5	0.00e+00	0	40	0	2891972608	38	4471
2026-01-24 12:44:16.99	324.39	26.56	-33.5	-35.1	23.6	0.00e+00	0	40	0	2913992704	38	4382
2026-01-24 12:44:20.97	324.92	25.97	-33.6	-35.3	23.4	0.00e+00	0	40	0	2936012800	38	4457
2026-01-24 12:44:24.96	325.43	25.38	-33.5	-35.2	23.5	0.00e+00	0	40	0	2959081472	38	4394
2026-01-24 12:44:28.94	325.93	24.80	-33.7	-35.3	23.4	0.00e+00	0	40	0	2981101568	38	4459
2026-01-24 12:44:32.92	326.40	24.24	-34.1	-35.7	23.0	0.00e+00	0	40	0	3004170240	38	4704
2026-01-24 12:44:36.90	326.86	23.68	-34.3	-36.0	22.8	0.00e+00	0	40	0	3026190336	39	4576
2026-01-24 12:44:40.87	327.31	23.14	-34.2	-36.0	22.8	0.00e+00	0	40	0	3048210432	39	4554
2026-01-24 12:44:44.85	327.74	22.60	-34.3	-35.9	22.8	0.00e+00	0	40	0	3071279104	39	4535
2026-01-24 12:44:48.83	328.15	22.08	-34.3	-36.0	22.8	0.00e+00	0	40	0	3093299200	39	4559
2026-01-24 12:44:52.81	328.56	21.56	-34.5	-36.2	22.5	0.00e+00	0	40	0	3115319296	39	4681
2026-01-24 12:44:56.79	328.95	21.05	-34.7	-36.4	22.3	0.00e+00	0	40	0	3138387968	40	4521
2026-01-24 12:45:00.76	329.32	20.56	-34.6	-36.3	22.4	0.00e+00	0	40	0	3160408064	40	4487
2026-01-24 12:45:04.74	329.69	20.07	-34.7	-36.4	22.3	0.00e+00	0	40	0	3182428160	40	4507
2026-01-24 12:45:08.72	330.05	19.59	-34.7	-36.4	22.3	0.00e+00	0	40	0	3205496832	40	4515
2026-01-24 12:45:12.70	330.39	19.11	-34.8	-36.5	22.2	0.00e+00	0	40	0	3227516928	40	4571
2026-01-24 12:45:16.67	330.73	18.65	-35.0	-36.7	22.0	0.00e+00	0	40	0	3249537024	40	4690
2026-01-24 12:45:20.65	331.06	18.19	-35.2	-36.9	21.8	0.00e+00	0	40	0	3272605696	41	4535
2026-01-24 12:45:24.63	331.37	17.74	-35.3	-37.0	21.7	0.00e+00	0	40	0	3294625792	41	4568
2026-01-24 12:45:28.61	331.68	17.30	-35.3	-37.0	21.6	0.00e+00	0	40	0	3316645888	41	4593
2026-01-24 12:45:32.59	331.98	16.86	-35.4	-37.2	21.5	0.00e+00	0	40	0	3339714560	41	4683
2026-01-24 12:45:36.57	332.27	16.44	-35.6	-37.4	21.3	0.00e+00	0	40	0	3361734656	41	4776
2026-01-24 12:45:40.55	332.56	16.01	-35.8	-37.6	21.1	0.00e+00	0	40	0	3383754752	42	4642
2026-01-24 12:45:44.53	332.83	15.60	-36.0	-37.8	20.9	0.00e+00	0	40	0	3406823424	42	4736
2026-01-24 12:45:48.51	333.10	15.19	-36.1	-37.9	20.8	0.00e+00	0	40	0	3428843520	43	4516
2026-01-24 12:45:52.49	333.37	14.79	-36.2	-38.0	20.7	0.00e+00	0	40	0	3451912192	43	4574
2026-01-24 12:45:56.47	333.62	14.39	-36.3	-38.1	20.6	0.00e+00	0	40	0	3473932288	43	4610
2026-01-24 12:46:00.45	333.88	14.00	-36.3	-38.2	20.5	0.00e+00	0	40	0	3495952384	43	4660
2026-01-24 12:46:04.43	334.12	13.62	-36.5	-38.3	20.4	0.00e+00	0	40	0	3517972480	43	4736
2026-01-24 12:46:08.41	334.36	13.24	-36.5	-38.3	20.3	0.00e+00	0	40	0	3541041152	43	4757
2026-01-24 12:46:12.39	334.59	12.87	-36.6	-38.4	20.2	0.00e+00	0	40	0	3563061248	43	4805
2026-01-24 12:46:16.37	334.82	12.50	-36.6	-38.5	20.2	0.00e+00	0	40	0	3586129920	43	4827
2026-01-24 12:46:20.35	335.04	12.14	-36.9	-38.7	20.1	0.00e+00	0	40	0	3608150016	44	4675
2026-01-24 12:46:24.33	335.26	11.78	-36.9	-38.8	20.1	0.00e+00	0	40	0	3630170112	44	4712
2026-01-24 12:46:28.31	335.47	11.42	-36.8	-38.7	20.1	0.00e+00	0	40	0	3653238784	44	4674
2026-01-24 12:46:32.29	335.68	11.08	-36.7	-38.7	20.1	0.00e+00	0	40	0	3675258880	44	4659
2026-01-24 12:46:36.27	335.89	10.73	-36.7	-38.7	20.1	0.00e+00	0	40	0	3697278976	44	4684
2026-01-24 12:46:40.25	336.08	10.39	-36.8	-38.8	20.0	0.00e+00	0	40	0	3720347648	44	4719
2026-01-24 12:46:44.22	336.28	10.06	-36.8	-38.8	19.9	0.00e+00	0	40	0	3742367744	44	4745
2026-01-24 12:46:48.21	336.47	9.73	-36.9	-39.0	19.8	0.00e+00	0	40	0	3764387840	44	4826
2026-01-24 12:46:52.18	336.66	9.40	-37.2	-39.3	19.5	0.00e+00	0	40	0	3787456512	44	4995
2026-01-24 12:46:56.16	336.84	9.08	-37.2	-39.3	19.4	0.00e+00	0	40	0	3809476608	45	4727
2026-01-24 12:47:00.13	337.02	8.76	-47.7	-60.3	3.8	8.47e-01	0	40	104	3819962368	66	15936
2026-01-24 12:47:04.09	337.20	8.45	-47.5	-60.7	3.8	8.46e-01	0	40	104	3819962368	67	15671
2026-01-24 12:47:08.06	337.37	8.14	-48.4	-60.8	3.8	8.46e-01	0	40	104	3819962368	67	15911
2026-01-24 12:47:12.03	337.54	7.83	-48.7	-61.1	3.8	8.46e-01	0	40	104	3819962368	68	15412
2026-01-24 12:47:16.01	337.71	7.53	-49.0	-61.1	3.8	8.47e-01	0	40	104	3819962368	68	15423
2026-01-24 12:47:19.98	337.87	7.23	-48.9	-61.0	3.8	8.47e-01	0	40	104	3819962368	68	15324
2026-01-24 12:47:23.95	338.03	6.93	-48.7	-61.0	3.8	8.47e-01	0	40	104	3819962368	68	15369
2026-01-24 12:47:27.92	338.19	6.64	-48.7	-61.0	3.8	8.47e-01	0	40	104	3819962368	68	15277
2026-01-24 12:47:31.90	338.34	6.35	-48.7	-61.0	3.8	8.47e-01	0	40	104	3819962368	68	15319
2026-01-24 12:47:35.87	338.50	6.06	-48.7	-61.0	3.8	8.46e-01	0	40	104	3819962368	68	15284
2026-01-24 12:47:39.84	338.65	5.78	-48.7	-61.0	3.8	8.47e-01	0	40	104	3819962368	68	15302
2026-01-24 12:47:43.81	338.79	5.50	-48.7	-61.0	3.8	8.46e-01	0	40	104	3819962368	68	15238
2026-01-24 12:47:47.78	338.94	5.22	-48.7	-61.0	3.8	8.47e-01	0	40	104	3819962368	68	15263

#Closed at: 2026-01-24 12:47:51
#Recorded file [3819 MB]: D:/Data/31040_260124_153507.dat