passes_logs/2026/01/24/T1/T1__20260124_074957_NOAA_21_JPSS-2_rec.log

#Pass ID: 20260124_074957_NOAA 21 (JPSS-2)
#Satellite: NOAA 21 (JPSS-2)
#Configuration: NOAA 21
#almurnet v.1.7.20251203
#Start time: 2026-01-24 07:49:56

#Version: 2.0.20230620
#Station: T1
#Location: 37.570604 lon 55.790049 lat
#TLE: 1 54234U 22150A   26023.61190495  .00000215  00000+0  12293-3 0  9993
#TLE: 2 54234  98.7508 324.4078 0000700 226.6110 133.5008 14.19538339166032

#Time	Az	El	Level	Level2	SNR	BER	BlckErr	Temp	State	Recorded	gain1	gain2
2026-01-24 07:49:56.87	92.91	4.99	-47.6	-60.8	3.8	1.49e+00	0	35	0	0	66	16718
2026-01-24 07:49:59.86	92.60	5.15	-47.5	-60.8	3.8	1.49e+00	0	35	104	0	67	15782
2026-01-24 07:50:02.86	92.29	5.31	-47.5	-60.8	3.8	1.49e+00	0	35	104	0	67	15777
2026-01-24 07:50:05.85	91.98	5.47	-47.5	-60.7	3.8	1.49e+00	0	36	104	0	67	15696
2026-01-24 07:50:08.84	91.67	5.63	-47.5	-60.7	3.8	1.49e+00	0	36	104	0	67	15582
2026-01-24 07:50:11.84	91.35	5.79	-47.5	-60.7	3.8	1.49e+00	0	36	104	0	67	15601
2026-01-24 07:50:14.83	91.02	5.95	-47.5	-60.7	3.8	1.49e+00	0	36	104	0	67	15608
2026-01-24 07:50:17.83	90.70	6.11	-47.5	-60.7	3.8	1.49e+00	0	36	104	0	67	15600
2026-01-24 07:50:20.83	90.37	6.27	-47.5	-60.6	3.8	1.49e+00	0	36	104	0	67	15564
2026-01-24 07:50:23.82	90.03	6.43	-47.5	-60.7	3.8	1.49e+00	0	36	104	0	67	15640
2026-01-24 07:50:26.81	89.70	6.59	-47.5	-60.7	3.8	1.49e+00	0	36	104	0	67	15624
2026-01-24 07:50:29.80	89.36	6.76	-47.5	-60.5	3.8	1.49e+00	0	36	104	0	67	15393
2026-01-24 07:50:32.80	89.01	6.92	-47.5	-60.3	3.8	1.49e+00	0	36	104	0	66	15817
2026-01-24 07:50:35.79	88.66	7.08	-47.5	-60.4	3.8	1.49e+00	0	36	104	0	66	15947
2026-01-24 07:50:38.78	88.31	7.24	-47.5	-60.4	3.8	1.49e+00	0	37	104	0	66	16042
2026-01-24 07:50:41.77	87.95	7.40	-47.4	-60.0	3.8	1.49e+00	0	37	104	0	66	15260
2026-01-24 07:50:44.76	87.59	7.56	-47.4	-59.2	3.8	1.49e+00	0	37	104	0	66	14042
2026-01-24 07:50:47.76	87.22	7.72	-47.4	-59.6	3.8	1.49e+00	0	37	104	0	66	14630
2026-01-24 07:50:50.75	86.86	7.88	-47.4	-60.1	3.8	1.49e+00	0	37	104	0	66	15418
2026-01-24 07:50:53.74	86.48	8.04	-47.3	-58.1	3.9	1.49e+00	0	37	104	0	66	12329
2026-01-24 07:50:56.73	86.11	8.20	-47.3	-58.2	4.0	1.48e+00	0	37	104	0	66	12416
2026-01-24 07:50:59.72	85.72	8.36	-46.7	-54.4	5.4	7.16e-01	0	37	0	0	65	8519
2026-01-24 07:51:02.71	85.34	8.52	-42.3	-45.0	14.6	7.00e-07	0	37	0	0	56	4837
2026-01-24 07:51:05.71	84.95	8.68	-39.9	-41.9	17.6	0.00e+00	0	37	0	0	51	4530
2026-01-24 07:51:08.70	84.55	8.84	-41.6	-44.1	15.4	0.00e+00	0	37	0	0	53	5161
2026-01-24 07:51:11.69	84.15	9.00	-46.0	-51.7	7.8	3.76e-02	0	37	0	0	62	7437
2026-01-24 07:51:14.69	83.75	9.15	-46.8	-55.2	5.1	2.99e-01	0	37	0	0	64	9861
2026-01-24 07:51:17.69	83.34	9.31	-44.2	-48.1	11.3	1.06e+00	0	37	104	0	60	5487
2026-01-24 07:51:20.69	82.93	9.47	-40.3	-42.4	17.1	0.00e+00	0	37	0	0	52	4494
2026-01-24 07:51:23.68	82.51	9.63	-40.1	-42.2	17.2	0.00e+00	0	37	0	0	52	4421
2026-01-24 07:51:26.68	82.09	9.79	-40.0	-42.0	17.5	0.00e+00	0	37	0	0	51	4595
2026-01-24 07:51:29.68	81.66	9.94	-40.0	-42.0	17.5	0.00e+00	0	37	0	0	51	4596
2026-01-24 07:51:32.67	81.23	10.10	-39.8	-41.8	17.8	0.00e+00	0	37	0	0	51	4453
2026-01-24 07:51:35.66	80.80	10.25	-39.8	-41.8	17.8	0.00e+00	0	38	0	0	51	4467
2026-01-24 07:51:38.66	80.35	10.41	-39.8	-41.8	17.7	0.00e+00	0	38	0	0	51	4477
2026-01-24 07:51:41.65	79.91	10.56	-39.8	-41.8	17.8	0.00e+00	0	38	0	0	51	4477
2026-01-24 07:51:44.64	79.46	10.72	-39.7	-41.6	17.9	0.00e+00	0	38	0	0	51	4385
2026-01-24 07:51:47.64	79.00	10.87	-39.6	-41.5	18.1	0.00e+00	0	38	0	0	51	4325
2026-01-24 07:51:50.64	78.54	11.02	-39.3	-41.2	18.4	0.00e+00	0	37	0	0	50	4411
2026-01-24 07:51:53.63	78.08	11.17	-39.2	-41.0	18.5	0.00e+00	0	38	0	0	50	4320
2026-01-24 07:51:56.63	77.61	11.32	-39.3	-41.2	18.3	0.00e+00	0	38	0	0	50	4425
2026-01-24 07:51:59.63	77.14	11.47	-39.5	-41.4	18.1	0.00e+00	0	38	0	0	50	4520
2026-01-24 07:52:02.62	76.66	11.62	-39.5	-41.5	18.1	0.00e+00	0	38	0	0	50	4558
2026-01-24 07:52:05.62	76.17	11.76	-39.2	-41.1	18.5	0.00e+00	0	37	0	0	50	4373
2026-01-24 07:52:08.62	75.68	11.91	-39.2	-41.1	18.5	0.00e+00	0	37	0	0	50	4362
2026-01-24 07:52:11.61	75.19	12.05	-39.1	-40.9	18.6	0.00e+00	0	38	0	0	50	4291
2026-01-24 07:52:14.61	74.69	12.20	-39.1	-40.9	18.6	0.00e+00	0	38	0	0	50	4285
2026-01-24 07:52:17.60	74.19	12.34	-38.8	-40.6	18.9	0.00e+00	0	38	0	0	49	4389
2026-01-24 07:52:20.59	73.68	12.48	-39.0	-40.8	18.7	0.00e+00	0	38	0	0	49	4475
2026-01-24 07:52:23.58	73.17	12.62	-38.9	-40.8	18.8	0.00e+00	0	38	0	0	49	4456
2026-01-24 07:52:26.58	72.65	12.76	-38.7	-40.5	19.1	0.00e+00	0	38	0	0	49	4337
2026-01-24 07:52:29.58	72.13	12.89	-38.9	-40.7	18.9	0.00e+00	0	38	0	0	49	4401
2026-01-24 07:52:32.57	71.60	13.03	-38.9	-40.8	18.7	0.00e+00	0	38	0	0	49	4462
2026-01-24 07:52:35.57	71.07	13.16	-38.9	-40.8	18.8	0.00e+00	0	38	0	0	49	4449
2026-01-24 07:52:38.56	70.53	13.29	-39.1	-41.0	18.6	0.00e+00	0	38	0	0	49	4566
2026-01-24 07:52:41.55	69.99	13.42	-39.2	-41.1	18.5	0.00e+00	0	38	0	0	49	4638
2026-01-24 07:52:44.54	69.44	13.55	-39.2	-41.1	18.6	0.00e+00	0	38	0	0	49	4607
2026-01-24 07:52:47.54	68.89	13.67	-38.8	-40.6	19.0	0.00e+00	0	38	0	0	49	4360
2026-01-24 07:52:50.53	68.33	13.80	-38.9	-40.7	18.9	0.00e+00	0	38	0	0	49	4422
2026-01-24 07:52:53.53	67.77	13.92	-38.9	-40.7	18.9	0.00e+00	0	38	0	0	49	4438
2026-01-24 07:52:56.52	67.21	14.04	-39.0	-40.8	18.8	0.00e+00	0	38	0	0	49	4472
2026-01-24 07:52:59.52	66.64	14.15	-39.0	-40.8	18.8	0.00e+00	0	38	0	0	49	4482
2026-01-24 07:53:02.52	66.06	14.27	-39.0	-40.8	18.8	0.00e+00	0	38	0	0	49	4489
2026-01-24 07:53:05.51	65.48	14.38	-39.0	-40.9	18.8	0.00e+00	0	38	0	0	49	4496
2026-01-24 07:53:08.50	64.90	14.49	-39.0	-40.9	18.8	0.00e+00	0	38	0	0	49	4499
2026-01-24 07:53:11.50	64.31	14.60	-38.9	-40.7	19.0	0.00e+00	0	38	0	0	49	4405
2026-01-24 07:53:14.49	63.72	14.70	-38.6	-40.4	19.2	0.00e+00	0	38	0	0	49	4273
2026-01-24 07:53:17.49	63.13	14.80	-38.8	-40.6	19.0	0.00e+00	0	38	0	0	49	4344
2026-01-24 07:53:20.48	62.53	14.90	-38.8	-40.6	19.1	0.00e+00	0	38	0	0	49	4354
2026-01-24 07:53:23.48	61.92	15.00	-38.6	-40.4	19.2	0.00e+00	0	38	0	0	49	4275
2026-01-24 07:53:26.48	61.31	15.09	-38.6	-40.4	19.2	0.00e+00	0	38	0	0	49	4281
2026-01-24 07:53:29.47	60.70	15.18	-38.6	-40.4	19.2	0.00e+00	0	38	0	0	49	4271
2026-01-24 07:53:32.47	60.09	15.27	-38.7	-40.5	19.1	0.00e+00	0	38	0	0	49	4317
2026-01-24 07:53:35.46	59.47	15.36	-38.7	-40.5	19.1	0.00e+00	0	38	0	0	49	4324
2026-01-24 07:53:38.46	58.84	15.44	-38.7	-40.5	19.2	0.00e+00	0	38	0	0	49	4306
2026-01-24 07:53:41.45	58.22	15.52	-38.4	-40.1	19.5	0.00e+00	0	38	0	0	48	4376
2026-01-24 07:53:44.45	57.59	15.59	-38.6	-40.4	19.2	0.00e+00	0	38	0	0	48	4513
2026-01-24 07:53:47.44	56.96	15.66	-38.5	-40.3	19.3	0.00e+00	0	38	0	0	48	4450
2026-01-24 07:53:50.43	56.32	15.73	-38.4	-40.1	19.5	0.00e+00	0	38	0	0	48	4372
2026-01-24 07:53:53.42	55.69	15.80	-38.4	-40.1	19.5	0.00e+00	0	38	0	0	48	4365
2026-01-24 07:53:56.42	55.05	15.86	-38.5	-40.3	19.3	0.00e+00	0	38	0	0	48	4453
2026-01-24 07:53:59.41	54.40	15.92	-38.6	-40.4	19.2	0.00e+00	0	38	0	0	48	4529
2026-01-24 07:54:02.40	53.76	15.97	-38.5	-40.2	19.5	0.00e+00	0	38	0	0	48	4431
2026-01-24 07:54:05.40	53.11	16.02	-38.2	-40.0	19.6	0.00e+00	0	38	0	0	48	4306
2026-01-24 07:54:08.39	52.46	16.07	-38.2	-39.9	19.7	0.00e+00	0	38	0	0	48	4276
2026-01-24 07:54:11.38	51.81	16.12	-38.3	-40.1	19.5	0.00e+00	0	38	0	0	48	4341
2026-01-24 07:54:14.37	51.16	16.16	-38.6	-40.4	19.2	0.00e+00	0	38	0	0	48	4516
2026-01-24 07:54:17.37	50.50	16.19	-38.8	-40.7	19.0	0.00e+00	0	38	0	0	48	4662
2026-01-24 07:54:20.36	49.85	16.23	-38.8	-40.6	19.1	0.00e+00	0	38	0	0	48	4613
2026-01-24 07:54:23.35	49.19	16.26	-38.8	-40.6	19.1	0.00e+00	0	38	0	0	48	4600
2026-01-24 07:54:26.34	48.53	16.28	-39.0	-40.8	19.0	0.00e+00	0	38	0	0	48	4714
2026-01-24 07:54:29.34	47.87	16.30	-38.8	-40.6	19.1	0.00e+00	0	38	0	0	48	4646
2026-01-24 07:54:32.34	47.21	16.32	-38.7	-40.5	19.2	0.00e+00	0	38	0	0	48	4576
2026-01-24 07:54:35.33	46.55	16.33	-38.5	-40.3	19.3	0.00e+00	0	38	0	0	48	4471
2026-01-24 07:54:38.33	45.88	16.34	-38.8	-40.5	19.1	0.00e+00	0	38	0	0	48	4597
2026-01-24 07:54:41.32	45.22	16.35	-38.9	-40.7	19.0	0.00e+00	0	38	0	0	48	4693
2026-01-24 07:54:44.31	44.56	16.35	-38.9	-40.7	19.0	0.00e+00	0	38	0	0	48	4666
2026-01-24 07:54:47.31	43.89	16.35	-38.6	-40.4	19.3	0.00e+00	0	38	0	0	48	4513
2026-01-24 07:54:50.30	43.23	16.34	-38.5	-40.2	19.4	0.00e+00	0	38	0	0	48	4437
2026-01-24 07:54:53.29	42.57	16.34	-38.5	-40.2	19.4	0.00e+00	0	38	0	0	48	4426
2026-01-24 07:54:56.28	41.91	16.32	-38.5	-40.3	19.4	0.00e+00	0	38	0	0	48	4458
2026-01-24 07:54:59.28	41.25	16.30	-38.6	-40.3	19.4	0.00e+00	0	38	0	0	48	4481
2026-01-24 07:55:02.28	40.59	16.28	-38.5	-40.2	19.5	0.00e+00	0	38	0	0	48	4421
2026-01-24 07:55:05.27	39.93	16.26	-38.5	-40.2	19.5	0.00e+00	0	39	0	0	48	4435
2026-01-24 07:55:08.26	39.27	16.23	-38.4	-40.1	19.6	0.00e+00	0	38	0	0	48	4364
2026-01-24 07:55:11.26	38.62	16.20	-38.4	-40.2	19.5	0.00e+00	0	38	0	0	48	4396
2026-01-24 07:55:14.25	37.96	16.16	-38.6	-40.4	19.3	0.00e+00	0	38	0	0	48	4527
2026-01-24 07:55:17.23	37.31	16.12	-38.7	-40.5	19.2	0.00e+00	0	38	0	0	48	4560
2026-01-24 07:55:20.23	36.66	16.08	-38.5	-40.2	19.5	0.00e+00	0	38	0	0	48	4428
2026-01-24 07:55:23.22	36.01	16.03	-38.5	-40.3	19.5	0.00e+00	0	38	0	0	48	4452
2026-01-24 07:55:26.21	35.36	15.98	-38.8	-40.6	19.1	0.00e+00	0	38	0	0	48	4635
2026-01-24 07:55:29.20	34.72	15.93	-38.8	-40.6	19.1	0.00e+00	0	38	0	0	48	4637
2026-01-24 07:55:32.20	34.08	15.87	-38.5	-40.3	19.4	0.00e+00	0	38	0	0	48	4446
2026-01-24 07:55:35.19	33.44	15.81	-38.5	-40.2	19.5	0.00e+00	0	38	0	0	48	4430
2026-01-24 07:55:38.19	32.80	15.74	-38.5	-40.3	19.4	0.00e+00	0	39	0	0	48	4443
2026-01-24 07:55:41.19	32.17	15.67	-38.4	-40.2	19.4	0.00e+00	0	38	0	0	48	4425
2026-01-24 07:55:44.18	31.54	15.60	-38.5	-40.3	19.4	0.00e+00	0	38	0	0	48	4468
2026-01-24 07:55:47.17	30.91	15.53	-38.3	-40.1	19.6	0.00e+00	0	38	0	0	48	4344
2026-01-24 07:55:50.17	30.28	15.45	-38.3	-40.1	19.6	0.00e+00	0	38	0	0	48	4350
2026-01-24 07:55:53.17	29.66	15.37	-38.5	-40.2	19.5	0.00e+00	0	38	0	0	48	4421
2026-01-24 07:55:56.16	29.04	15.28	-38.5	-40.3	19.4	0.00e+00	0	38	0	0	48	4466
2026-01-24 07:55:59.15	28.43	15.20	-38.5	-40.4	19.3	0.00e+00	0	38	0	0	48	4506
2026-01-24 07:56:02.14	27.82	15.11	-38.4	-40.3	19.3	0.00e+00	0	38	0	0	48	4477
2026-01-24 07:56:05.13	27.22	15.01	-38.4	-40.2	19.4	0.00e+00	0	38	0	0	48	4416
2026-01-24 07:56:08.13	26.61	14.92	-38.4	-40.2	19.5	0.00e+00	0	38	0	0	48	4399
2026-01-24 07:56:11.12	26.01	14.82	-38.6	-40.4	19.2	0.00e+00	0	39	0	0	48	4528
2026-01-24 07:56:14.12	25.42	14.72	-38.7	-40.5	19.1	0.00e+00	0	39	0	0	48	4587
2026-01-24 07:56:17.12	24.83	14.61	-38.7	-40.6	19.1	0.00e+00	0	39	0	0	48	4602
2026-01-24 07:56:20.11	24.24	14.50	-38.7	-40.5	19.1	0.00e+00	0	39	0	0	48	4595
2026-01-24 07:56:23.11	23.66	14.40	-38.6	-40.4	19.2	0.00e+00	0	39	0	0	48	4538
2026-01-24 07:56:26.10	23.08	14.28	-38.7	-40.6	19.1	0.00e+00	0	38	0	0	48	4605
2026-01-24 07:56:29.10	22.51	14.17	-38.6	-40.5	19.1	0.00e+00	0	39	0	0	48	4557
2026-01-24 07:56:32.08	21.94	14.05	-37.3	-40.4	18.8	0.00e+00	0	39	0	0	46	5085
2026-01-24 07:56:35.07	21.38	13.94	-38.2	-40.6	18.7	0.00e+00	0	39	0	0	47	4902
2026-01-24 07:56:38.07	20.82	13.81	-38.8	-40.7	18.9	0.00e+00	0	39	0	0	48	4691
2026-01-24 07:56:41.06	20.27	13.69	-38.4	-40.4	19.2	0.00e+00	0	39	0	0	48	4495
2026-01-24 07:56:44.05	19.72	13.57	-38.3	-40.2	19.4	0.00e+00	0	39	0	0	48	4400
2026-01-24 07:56:47.05	19.17	13.44	-38.5	-40.4	19.2	0.00e+00	0	39	0	0	48	4520
2026-01-24 07:56:50.04	18.63	13.31	-38.9	-40.7	18.9	0.00e+00	0	39	0	0	48	4688
2026-01-24 07:56:53.04	18.09	13.18	-38.9	-40.8	18.8	0.00e+00	0	39	0	0	48	4715
2026-01-24 07:56:56.03	17.56	13.05	-38.9	-40.7	18.9	0.00e+00	0	39	0	0	48	4690
2026-01-24 07:56:59.03	17.04	12.92	-38.9	-40.8	18.9	0.00e+00	0	38	0	0	48	4712
2026-01-24 07:57:02.02	16.52	12.78	-39.1	-41.2	18.6	0.00e+00	0	39	0	0	48	4927
2026-01-24 07:57:05.01	16.00	12.64	-39.2	-41.3	18.3	0.00e+00	0	39	0	0	49	4758
2026-01-24 07:57:08.00	15.49	12.51	-39.1	-41.2	18.4	0.00e+00	0	38	0	0	49	4686
2026-01-24 07:57:11.00	14.98	12.37	-38.9	-41.0	18.5	0.00e+00	0	39	0	0	49	4583
2026-01-24 07:57:13.99	14.48	12.22	-38.8	-40.9	18.7	0.00e+00	0	39	0	0	49	4507
2026-01-24 07:57:16.99	13.99	12.08	-38.9	-40.9	18.7	0.00e+00	0	39	0	0	49	4502
2026-01-24 07:57:19.98	13.49	11.94	-38.9	-40.7	18.8	0.00e+00	0	39	0	0	49	4440
2026-01-24 07:57:22.98	13.01	11.79	-39.1	-41.1	18.5	0.00e+00	0	39	0	0	49	4601
2026-01-24 07:57:25.98	12.52	11.65	-39.3	-41.3	18.1	0.00e+00	0	39	0	0	49	4738
2026-01-24 07:57:28.97	12.05	11.50	-39.4	-41.4	18.1	0.00e+00	0	39	0	0	49	4794
2026-01-24 07:57:31.97	11.58	11.35	-39.1	-41.3	18.2	0.00e+00	0	39	0	0	49	4733
2026-01-24 07:57:34.96	11.11	11.20	-39.2	-41.4	18.1	0.00e+00	0	39	0	0	49	4804
2026-01-24 07:57:37.96	10.65	11.05	-39.2	-41.5	18.1	0.00e+00	0	39	0	0	49	4820
2026-01-24 07:57:40.96	10.19	10.90	-39.3	-41.6	18.0	0.00e+00	0	39	0	0	49	4888
2026-01-24 07:57:43.96	9.73	10.75	-39.0	-41.6	18.1	0.00e+00	0	39	0	0	49	4874
2026-01-24 07:57:46.96	9.28	10.59	-39.1	-41.7	18.0	0.00e+00	0	39	0	0	49	4935
2026-01-24 07:57:49.95	8.84	10.44	-39.3	-41.8	17.8	0.00e+00	0	39	0	0	49	5024
2026-01-24 07:57:52.95	8.40	10.29	-39.4	-41.8	17.8	0.00e+00	0	39	0	0	49	4998
2026-01-24 07:57:55.94	7.97	10.13	-39.3	-41.5	18.0	0.00e+00	0	39	0	0	49	4868
2026-01-24 07:57:58.94	7.54	9.98	-39.1	-41.3	18.3	0.00e+00	0	39	0	0	49	4711
2026-01-24 07:58:01.94	7.12	9.82	-39.2	-41.2	18.3	0.00e+00	0	39	0	0	49	4685
2026-01-24 07:58:04.92	6.70	9.66	-39.3	-41.4	18.2	0.00e+00	0	39	0	0	49	4791
2026-01-24 07:58:07.91	6.28	9.51	-39.3	-41.5	18.0	0.00e+00	0	39	0	0	49	4865
2026-01-24 07:58:10.91	5.87	9.35	-39.1	-41.4	18.1	0.00e+00	0	39	0	0	49	4782
2026-01-24 07:58:13.90	5.47	9.19	-39.3	-41.5	18.0	0.00e+00	0	39	0	0	49	4837
2026-01-24 07:58:16.89	5.07	9.03	-39.3	-41.4	18.1	0.00e+00	0	39	0	0	49	4806
2026-01-24 07:58:19.89	4.67	8.88	-47.4	-61.1	3.8	1.49e+00	0	39	104	0	65	18500
2026-01-24 07:58:22.88	4.28	8.72	-48.4	-61.4	3.8	1.49e+00	0	39	104	0	67	16968
2026-01-24 07:58:25.88	3.89	8.56	-48.0	-61.5	3.8	1.49e+00	0	39	104	0	67	17262
2026-01-24 07:58:28.87	3.50	8.40	-48.2	-61.6	3.8	1.49e+00	0	39	104	0	67	17450
2026-01-24 07:58:31.87	3.12	8.24	-48.4	-61.6	3.8	1.49e+00	0	39	104	0	67	17363
2026-01-24 07:58:34.86	2.75	8.08	-48.5	-61.6	3.8	1.49e+00	0	39	104	0	67	17415
2026-01-24 07:58:37.85	2.38	7.92	-48.9	-61.8	3.8	1.49e+00	0	39	104	0	68	16836
2026-01-24 07:58:40.85	2.01	7.76	-48.7	-61.8	3.8	1.49e+00	0	39	104	0	68	16816
2026-01-24 07:58:43.84	1.65	7.60	-48.8	-61.8	3.8	1.49e+00	0	39	104	0	68	16763
2026-01-24 07:58:46.83	1.29	7.44	-48.6	-61.8	3.8	1.49e+00	0	39	104	0	68	16733
2026-01-24 07:58:49.82	0.93	7.28	-48.6	-61.8	3.8	1.49e+00	0	39	104	0	68	16735
2026-01-24 07:58:52.81	0.58	7.12	-48.6	-61.7	3.8	1.49e+00	0	39	104	0	68	16669
2026-01-24 07:58:55.81	0.24	6.96	-48.6	-61.7	3.8	1.49e+00	0	39	104	0	68	16626
2026-01-24 07:58:58.80	359.89	6.80	-48.6	-61.7	3.8	1.49e+00	0	39	104	0	68	16667
2026-01-24 07:59:01.79	359.56	6.64	-48.6	-61.7	3.8	1.49e+00	0	39	104	0	68	16669
2026-01-24 07:59:04.79	359.22	6.48	-48.6	-61.7	3.8	1.49e+00	0	39	104	0	68	16642
2026-01-24 07:59:07.78	358.89	6.32	-48.6	-61.7	3.8	1.49e+00	0	39	104	0	68	16601
2026-01-24 07:59:10.77	358.56	6.16	-48.6	-61.7	3.8	1.49e+00	0	39	104	0	68	16601
2026-01-24 07:59:13.76	358.24	6.00	-48.6	-61.7	3.8	1.49e+00	0	39	104	0	68	16664
2026-01-24 07:59:16.75	357.92	5.84	-48.6	-61.7	3.8	1.49e+00	0	39	104	0	68	16602
2026-01-24 07:59:19.74	357.60	5.68	-48.6	-61.7	3.8	1.49e+00	0	39	104	0	68	16621
2026-01-24 07:59:22.73	357.29	5.52	-48.6	-61.7	3.8	1.49e+00	0	39	104	0	68	16627
2026-01-24 07:59:25.73	356.98	5.36	-48.6	-61.7	3.8	1.49e+00	0	39	104	0	68	16554
2026-01-24 07:59:28.72	356.67	5.20	-48.6	-61.7	3.8	1.49e+00	0	39	104	0	68	16557
2026-01-24 07:59:31.71	356.37	5.04	-48.6	-61.7	3.8	1.49e+00	0	39	104	0	68	16546

#Closed at: 2026-01-24 07:59:33
#Recorded file [0 MB]: D:/Data/31040_260124_104956.dat