passes_logs/2026/01/24/T1/T1__20260124_011733_NOAA_21_JPSS-2_rec.log

#Pass ID: 20260124_011733_NOAA 21 (JPSS-2)
#Satellite: NOAA 21 (JPSS-2)
#Configuration: NOAA 21
#almurnet v.1.7.20251203
#Start time: 2026-01-24 01:17:33

#Version: 2.0.20230620
#Station: T1
#Location: 37.570604 lon 55.790049 lat
#TLE: 1 54234U 22150A   26022.90705406  .00000208  00000+0  11937-3 0  9994
#TLE: 2 54234  98.7507 323.7115 0000669 231.3756 128.7360 14.19537879165931

#Time	Az	El	Level	Level2	SNR	BER	BlckErr	Temp	State	Recorded	gain1	gain2
2026-01-24 01:17:33.90	6.94	5.00	-47.5	-61.3	3.8	1.49e+00	0	37	0	0	66	17789
2026-01-24 01:17:36.88	6.71	5.18	-46.3	-60.9	3.8	1.49e+00	0	37	104	0	64	19091
2026-01-24 01:17:39.86	6.47	5.37	-46.3	-61.0	3.8	1.49e+00	0	37	104	0	64	19202
2026-01-24 01:17:42.84	6.24	5.55	-46.3	-60.9	3.8	1.49e+00	0	37	104	0	64	19131
2026-01-24 01:17:45.82	6.00	5.74	-46.3	-60.9	3.8	1.49e+00	0	37	104	0	64	19167
2026-01-24 01:17:48.80	5.76	5.92	-46.3	-60.9	3.8	1.49e+00	0	37	104	0	64	19164
2026-01-24 01:17:51.78	5.51	6.11	-46.3	-61.0	3.8	1.49e+00	0	37	104	0	64	19171
2026-01-24 01:17:54.76	5.27	6.30	-46.3	-60.9	3.8	1.49e+00	0	38	104	0	64	19058
2026-01-24 01:17:57.74	5.02	6.49	-46.3	-60.8	3.8	1.49e+00	0	38	104	0	64	18896
2026-01-24 01:18:00.72	4.76	6.68	-46.3	-60.9	3.8	1.49e+00	0	38	104	0	64	19090
2026-01-24 01:18:03.70	4.50	6.87	-46.3	-61.0	3.8	1.49e+00	0	38	104	0	64	19280
2026-01-24 01:18:06.68	4.24	7.06	-46.3	-60.9	3.8	1.49e+00	0	38	104	0	64	19057
2026-01-24 01:18:09.66	3.97	7.25	-46.3	-60.7	3.8	1.49e+00	0	38	104	0	64	18580
2026-01-24 01:18:12.64	3.70	7.44	-46.3	-60.2	3.8	1.49e+00	0	38	104	0	64	17646
2026-01-24 01:18:15.62	3.43	7.64	-46.2	-59.5	3.8	1.49e+00	0	38	104	0	64	16160
2026-01-24 01:18:18.58	3.16	7.83	-46.2	-58.5	3.9	1.48e+00	0	38	104	0	64	14506
2026-01-24 01:18:21.56	2.88	8.03	-46.2	-59.6	3.8	1.49e+00	0	38	104	0	64	16421
2026-01-24 01:18:24.54	2.59	8.22	-46.3	-60.7	3.8	1.49e+00	0	38	104	0	64	18711
2026-01-24 01:18:27.52	2.30	8.42	-46.1	-58.0	4.1	1.49e+00	0	38	104	0	64	13639
2026-01-24 01:18:30.50	2.01	8.62	-44.4	-49.7	10.0	1.25e-02	0	38	0	0	60	6583
2026-01-24 01:18:33.48	1.71	8.82	-42.1	-45.2	14.6	2.20e-06	0	38	0	0	56	4974
2026-01-24 01:18:36.46	1.41	9.02	-41.3	-44.2	15.5	0.00e+00	0	38	0	0	54	4939
2026-01-24 01:18:39.45	1.11	9.22	-41.2	-44.1	15.6	0.00e+00	0	38	0	0	54	4885
2026-01-24 01:18:42.43	0.80	9.42	-39.4	-41.7	17.9	0.00e+00	0	38	0	0	50	4702
2026-01-24 01:18:45.41	0.48	9.62	-39.1	-41.3	18.3	0.00e+00	0	38	0	0	50	4462
2026-01-24 01:18:48.39	0.16	9.82	-39.1	-41.2	18.4	0.00e+00	0	38	0	0	50	4413
2026-01-24 01:18:51.38	359.84	10.03	-39.1	-41.2	18.4	0.00e+00	0	38	0	0	50	4401
2026-01-24 01:18:54.36	359.51	10.23	-39.2	-41.3	18.4	0.00e+00	0	38	0	0	50	4446
2026-01-24 01:18:57.35	359.17	10.44	-38.9	-40.9	18.7	0.00e+00	0	38	0	0	49	4508
2026-01-24 01:19:00.33	358.84	10.65	-38.6	-40.6	19.1	0.00e+00	0	38	0	0	49	4345
2026-01-24 01:19:03.31	358.49	10.85	-38.5	-40.5	19.1	0.00e+00	0	38	0	0	49	4318
2026-01-24 01:19:06.30	358.14	11.06	-38.4	-40.4	19.1	0.00e+00	0	38	0	0	48	4539
2026-01-24 01:19:09.28	357.79	11.27	-38.5	-40.5	19.1	0.00e+00	0	38	0	0	48	4582
2026-01-24 01:19:12.27	357.43	11.48	-38.4	-40.5	19.2	0.00e+00	0	38	0	0	48	4557
2026-01-24 01:19:15.26	357.07	11.69	-38.4	-40.5	19.2	0.00e+00	0	38	0	0	48	4570
2026-01-24 01:19:18.33	356.69	11.90	-38.3	-40.4	19.2	0.00e+00	0	38	0	0	48	4519
2026-01-24 01:19:21.31	356.31	12.11	-38.4	-40.6	19.0	0.00e+00	0	38	0	0	48	4630
2026-01-24 01:19:24.30	355.93	12.33	-38.4	-40.6	19.1	0.00e+00	0	38	0	0	48	4601
2026-01-24 01:19:27.28	355.55	12.54	-38.3	-40.5	19.3	0.00e+00	0	38	0	0	48	4549
2026-01-24 01:19:30.26	355.15	12.75	-38.2	-40.4	19.3	0.00e+00	0	38	0	0	48	4515
2026-01-24 01:19:33.36	354.74	12.97	-38.2	-40.2	19.5	0.00e+00	0	38	0	0	48	4407
2026-01-24 01:19:36.28	354.35	13.18	-38.3	-40.4	19.3	0.00e+00	0	38	0	0	48	4510
2026-01-24 01:19:39.56	353.89	13.42	-38.5	-40.4	19.3	0.00e+00	0	38	0	0	48	4516
2026-01-24 01:19:42.27	353.52	13.61	-38.5	-40.4	19.4	0.00e+00	0	38	0	0	48	4515
2026-01-24 01:19:45.56	353.05	13.85	-38.4	-40.3	19.4	0.00e+00	0	38	0	0	48	4470
2026-01-24 01:19:48.28	352.66	14.04	-38.3	-40.2	19.5	0.00e+00	0	38	0	0	48	4399
2026-01-24 01:19:51.63	352.17	14.29	-38.5	-40.3	19.4	0.00e+00	0	38	0	0	48	4450
2026-01-24 01:19:54.43	351.76	14.49	-38.5	-40.3	19.4	0.00e+00	0	38	0	0	48	4493
2026-01-24 01:19:57.75	351.26	14.73	-38.5	-40.4	19.4	0.00e+00	0	38	0	0	48	4516
2026-01-24 01:20:00.45	350.84	14.92	-38.5	-40.4	19.4	0.00e+00	0	38	0	0	48	4516
2026-01-24 01:20:03.73	350.33	15.16	-38.8	-40.7	19.0	0.00e+00	0	38	0	0	48	4667
2026-01-24 01:20:06.50	349.90	15.36	-38.9	-40.8	19.0	0.00e+00	0	38	0	0	48	4751
2026-01-24 01:20:10.05	349.33	15.62	-38.8	-40.7	19.1	0.00e+00	0	38	0	0	48	4695
2026-01-24 01:20:12.96	348.86	15.83	-38.8	-40.8	19.0	0.00e+00	0	38	0	0	48	4719
2026-01-24 01:20:16.26	348.31	16.07	-38.9	-40.8	19.0	0.00e+00	0	38	0	0	48	4736
2026-01-24 01:20:19.25	347.81	16.28	-38.9	-40.8	19.0	0.00e+00	0	38	0	0	48	4757
2026-01-24 01:20:22.25	347.30	16.50	-38.7	-40.6	19.2	0.00e+00	0	38	0	0	48	4640
2026-01-24 01:20:25.25	346.79	16.71	-38.6	-40.5	19.2	0.00e+00	0	38	0	0	48	4583
2026-01-24 01:20:28.35	346.24	16.94	-38.3	-40.3	19.5	0.00e+00	0	38	0	0	48	4469
2026-01-24 01:20:31.27	345.72	17.14	-38.3	-40.3	19.5	0.00e+00	0	38	0	0	48	4452
2026-01-24 01:20:34.55	345.13	17.38	-38.3	-40.2	19.6	0.00e+00	0	38	0	0	48	4392
2026-01-24 01:20:37.28	344.63	17.57	-38.3	-40.1	19.7	0.00e+00	0	38	0	0	48	4357
2026-01-24 01:20:40.56	344.02	17.80	-38.1	-39.9	19.9	0.00e+00	0	38	0	0	48	4263
2026-01-24 01:20:43.30	343.51	18.00	-38.1	-39.9	19.7	0.00e+00	0	38	0	0	47	4504
2026-01-24 01:20:46.58	342.88	18.22	-38.5	-40.3	19.4	0.00e+00	0	38	0	0	47	4738
2026-01-24 01:20:49.58	342.30	18.43	-38.3	-40.0	19.6	0.00e+00	0	38	0	0	47	4593
2026-01-24 01:20:52.57	341.71	18.64	-38.1	-39.9	19.8	0.00e+00	0	38	0	0	47	4500
2026-01-24 01:20:55.55	341.12	18.84	-38.2	-39.9	19.7	0.00e+00	0	38	0	0	47	4526
2026-01-24 01:20:58.53	340.52	19.05	-38.0	-39.8	19.8	0.00e+00	0	38	0	0	47	4454
2026-01-24 01:21:01.52	339.91	19.25	-38.0	-39.8	19.8	0.00e+00	0	38	0	0	47	4451
2026-01-24 01:21:04.49	339.29	19.45	-38.1	-40.0	19.5	0.00e+00	0	38	0	0	47	4584
2026-01-24 01:21:07.48	338.66	19.64	-38.3	-40.1	19.5	0.00e+00	0	38	0	0	47	4639
2026-01-24 01:21:10.46	338.03	19.84	-38.0	-39.8	19.8	0.00e+00	0	38	0	0	47	4450
2026-01-24 01:21:13.44	337.39	20.03	-37.8	-39.7	19.9	0.00e+00	0	38	0	0	47	4431
2026-01-24 01:21:16.42	336.73	20.22	-37.7	-39.5	20.0	0.00e+00	0	38	0	0	47	4329
2026-01-24 01:21:19.41	336.07	20.41	-37.8	-39.6	20.0	0.00e+00	0	38	0	0	47	4352
2026-01-24 01:21:22.39	335.41	20.60	-37.7	-39.5	20.0	0.00e+00	0	38	0	0	47	4321
2026-01-24 01:21:25.38	334.73	20.78	-37.7	-39.5	20.1	0.00e+00	0	38	0	0	47	4339
2026-01-24 01:21:28.37	334.04	20.96	-37.7	-39.5	20.1	0.00e+00	0	38	0	0	47	4305
2026-01-24 01:21:31.35	333.35	21.14	-37.9	-39.6	20.0	0.00e+00	0	38	0	0	47	4374
2026-01-24 01:21:34.69	332.57	21.33	-37.8	-39.6	20.1	0.00e+00	0	38	0	0	47	4341
2026-01-24 01:21:37.41	331.92	21.48	-37.6	-39.4	20.2	0.00e+00	0	38	0	0	47	4284
2026-01-24 01:21:40.70	331.13	21.67	-37.5	-39.3	20.3	0.00e+00	0	38	0	0	47	4203
2026-01-24 01:21:43.48	330.45	21.82	-37.5	-39.2	20.3	0.00e+00	0	38	0	0	46	4409
2026-01-24 01:21:46.70	329.66	21.99	-37.4	-39.1	20.4	0.00e+00	0	38	0	0	46	4383
2026-01-24 01:21:49.81	328.89	22.15	-37.6	-39.3	20.1	0.00e+00	0	38	0	0	46	4491
2026-01-24 01:21:52.82	328.14	22.30	-37.9	-39.7	19.8	0.00e+00	0	38	0	0	46	4665
2026-01-24 01:21:55.81	327.38	22.44	-37.7	-39.5	20.1	0.00e+00	0	38	0	0	46	4558
2026-01-24 01:21:58.79	326.62	22.59	-37.6	-39.4	20.2	0.00e+00	0	38	0	0	46	4545
2026-01-24 01:22:01.78	325.85	22.72	-37.5	-39.2	20.3	0.00e+00	0	38	0	0	46	4436
2026-01-24 01:22:04.83	325.05	22.85	-37.3	-39.0	20.5	0.00e+00	0	38	0	0	46	4317
2026-01-24 01:22:07.68	324.31	22.97	-37.5	-39.3	20.2	0.00e+00	0	38	0	0	46	4448
2026-01-24 01:22:10.80	323.48	23.10	-37.6	-39.3	20.2	0.00e+00	0	38	0	0	46	4491
2026-01-24 01:22:13.64	322.73	23.21	-37.6	-39.4	20.1	0.00e+00	0	38	0	0	46	4529
2026-01-24 01:22:16.87	321.86	23.33	-37.6	-39.4	20.2	0.00e+00	0	38	0	0	46	4495
2026-01-24 01:22:19.76	321.08	23.43	-37.6	-39.4	20.2	0.00e+00	0	38	0	0	46	4532
2026-01-24 01:22:23.05	320.18	23.54	-37.5	-39.3	20.3	0.00e+00	0	38	0	0	46	4473
2026-01-24 01:22:25.81	319.43	23.62	-37.5	-39.2	20.4	0.00e+00	0	38	0	0	46	4418
2026-01-24 01:22:29.14	318.51	23.72	-37.6	-39.3	20.2	0.00e+00	0	38	0	0	46	4469
2026-01-24 01:22:31.97	317.73	23.79	-37.8	-39.5	20.1	0.00e+00	0	38	0	0	46	4577
2026-01-24 01:22:35.09	316.86	23.87	-37.8	-39.5	20.1	0.00e+00	0	38	0	0	46	4594
2026-01-24 01:22:38.21	315.98	23.94	-37.7	-39.4	20.3	0.00e+00	0	38	0	0	46	4514
2026-01-24 01:22:41.05	315.19	24.00	-37.6	-39.3	20.3	0.00e+00	0	38	0	0	46	4461
2026-01-24 01:22:44.18	314.30	24.05	-37.4	-39.1	20.5	0.00e+00	0	38	0	0	46	4355
2026-01-24 01:22:47.02	313.50	24.10	-37.3	-39.0	20.5	0.00e+00	0	38	0	0	46	4315
2026-01-24 01:22:50.14	312.62	24.14	-37.0	-38.6	20.8	0.00e+00	0	38	0	0	45	4384
2026-01-24 01:22:53.20	311.75	24.17	-37.2	-38.8	20.6	0.00e+00	0	38	0	0	45	4490
2026-01-24 01:22:56.75	310.73	24.20	-37.4	-39.1	20.5	0.00e+00	0	38	0	0	45	4600
2026-01-24 01:22:59.45	309.96	24.22	-37.5	-39.1	20.4	0.00e+00	0	38	0	0	45	4643
2026-01-24 01:23:02.74	309.02	24.23	-37.6	-39.3	20.3	0.00e+00	0	38	0	0	45	4714
2026-01-24 01:23:05.44	308.25	24.24	-37.6	-39.3	20.3	0.00e+00	0	38	0	0	46	4453
2026-01-24 01:23:08.68	307.32	24.24	-37.6	-39.2	20.3	0.00e+00	0	38	0	0	46	4437
2026-01-24 01:23:11.53	306.51	24.23	-37.6	-39.3	20.3	0.00e+00	0	38	0	0	46	4462
2026-01-24 01:23:14.70	305.60	24.21	-37.8	-39.5	20.0	0.00e+00	0	38	0	0	46	4557
2026-01-24 01:23:17.83	304.71	24.19	-37.8	-39.5	20.1	0.00e+00	0	38	0	0	46	4565
2026-01-24 01:23:20.67	303.90	24.16	-37.6	-39.3	20.3	0.00e+00	0	38	0	0	46	4474
2026-01-24 01:23:23.89	302.99	24.12	-37.6	-39.3	20.3	0.00e+00	0	38	0	0	46	4444
2026-01-24 01:23:26.73	302.18	24.08	-37.6	-39.2	20.4	0.00e+00	0	38	0	0	46	4427
2026-01-24 01:23:30.26	301.18	24.02	-37.4	-39.0	20.5	0.00e+00	0	38	0	0	46	4322
2026-01-24 01:23:32.98	300.42	23.96	-37.3	-39.0	20.6	0.00e+00	0	38	0	0	46	4310
2026-01-24 01:23:36.26	299.50	23.89	-37.4	-39.0	20.5	0.00e+00	0	38	0	0	46	4316
2026-01-24 01:23:38.99	298.74	23.83	-37.3	-38.9	20.6	0.00e+00	0	38	0	0	46	4271
2026-01-24 01:23:42.29	297.82	23.74	-37.4	-39.0	20.5	0.00e+00	0	38	0	0	46	4333
2026-01-24 01:23:45.27	296.99	23.66	-37.3	-38.9	20.5	0.00e+00	0	38	0	0	46	4290
2026-01-24 01:23:48.67	296.06	23.56	-37.6	-39.3	20.3	0.00e+00	0	38	0	0	46	4462
2026-01-24 01:23:51.65	295.25	23.46	-37.8	-39.5	20.2	0.00e+00	0	38	0	0	46	4549
2026-01-24 01:23:54.63	294.44	23.36	-37.8	-39.4	20.2	0.00e+00	0	38	0	0	46	4543
2026-01-24 01:23:57.91	293.55	23.24	-37.7	-39.4	20.3	0.00e+00	0	38	0	0	46	4519
2026-01-24 01:24:00.61	292.83	23.14	-37.4	-39.1	20.6	0.00e+00	0	38	0	0	46	4351
2026-01-24 01:24:03.88	291.96	23.01	-37.6	-39.3	20.4	0.00e+00	0	38	0	0	46	4446
2026-01-24 01:24:06.61	291.24	22.89	-37.8	-39.5	20.2	0.00e+00	0	38	0	0	46	4550
2026-01-24 01:24:09.88	290.39	22.75	-37.7	-39.4	20.2	0.00e+00	0	38	0	0	46	4514
2026-01-24 01:24:12.61	289.68	22.63	-37.8	-39.5	20.1	0.00e+00	0	38	0	0	46	4554
2026-01-24 01:24:15.88	288.84	22.47	-37.9	-39.7	19.9	0.00e+00	0	38	0	0	46	4653
2026-01-24 01:24:18.60	288.15	22.34	-37.9	-39.6	19.9	0.00e+00	0	38	0	0	46	4641
2026-01-24 01:24:22.37	287.20	22.15	-38.1	-39.8	19.7	0.00e+00	0	38	0	0	46	4715
2026-01-24 01:24:25.08	286.52	22.01	-38.0	-39.7	19.9	0.00e+00	0	38	0	0	46	4676
2026-01-24 01:24:28.40	285.70	21.84	-38.1	-39.9	19.7	0.00e+00	0	38	0	0	46	4770
2026-01-24 01:24:31.16	285.03	21.69	-38.5	-40.3	19.3	0.00e+00	0	38	0	0	47	4732
2026-01-24 01:24:34.54	284.21	21.50	-38.5	-40.2	19.3	0.00e+00	0	38	0	0	47	4701
2026-01-24 01:24:37.32	283.55	21.34	-38.1	-39.8	19.8	0.00e+00	0	38	0	0	47	4474
2026-01-24 01:24:40.73	282.74	21.14	-38.4	-40.1	19.4	0.00e+00	0	38	0	0	47	4639
2026-01-24 01:24:43.47	282.10	20.98	-38.4	-40.2	19.3	0.00e+00	0	38	0	0	47	4676
2026-01-24 01:24:46.76	281.34	20.78	-38.1	-39.9	19.6	0.00e+00	0	38	0	0	47	4500
2026-01-24 01:24:49.47	280.73	20.62	-38.0	-39.7	19.8	0.00e+00	0	38	0	0	47	4429
2026-01-24 01:24:52.75	279.99	20.41	-37.8	-39.5	20.0	0.00e+00	0	38	0	0	47	4318
2026-01-24 01:24:55.57	279.36	20.24	-37.9	-39.6	19.9	0.00e+00	0	38	0	0	47	4367
2026-01-24 01:24:59.06	278.59	20.01	-37.8	-39.5	20.1	0.00e+00	0	38	0	0	47	4329
2026-01-24 01:25:01.88	277.98	19.83	-38.1	-39.8	19.8	0.00e+00	0	38	0	0	47	4487
2026-01-24 01:25:05.00	277.32	19.62	-38.0	-39.7	19.9	0.00e+00	0	38	0	0	47	4426
2026-01-24 01:25:07.85	276.71	19.43	-37.9	-39.6	20.0	0.00e+00	0	38	0	0	47	4367
2026-01-24 01:25:11.02	276.05	19.22	-38.0	-39.7	20.0	0.00e+00	0	38	0	0	47	4399
2026-01-24 01:25:13.91	275.46	19.03	-38.6	-40.3	19.4	0.00e+00	0	38	0	0	47	4747
2026-01-24 01:25:17.10	274.81	18.81	-38.9	-40.7	19.2	0.00e+00	0	38	0	0	48	4669
2026-01-24 01:25:20.46	274.14	18.58	-38.2	-39.9	19.7	0.00e+00	0	38	0	0	48	4287
2026-01-24 01:25:23.21	273.60	18.39	-37.8	-39.6	19.9	0.00e+00	0	38	0	0	47	4344
2026-01-24 01:25:26.49	272.96	18.16	-37.8	-39.5	19.9	0.00e+00	0	38	0	0	47	4327
2026-01-24 01:25:29.23	272.44	17.96	-37.7	-39.4	19.9	0.00e+00	0	38	0	0	47	4267
2026-01-24 01:25:32.50	271.82	17.73	-38.0	-39.7	19.7	0.00e+00	0	38	0	0	47	4400
2026-01-24 01:25:35.25	271.31	17.54	-38.5	-40.3	19.2	0.00e+00	0	38	0	0	47	4718
2026-01-24 01:25:38.53	270.71	17.30	-38.8	-40.7	19.0	0.00e+00	0	38	0	0	48	4659
2026-01-24 01:25:41.24	270.21	17.11	-38.5	-40.2	19.4	0.00e+00	0	38	0	0	48	4437
2026-01-24 01:25:44.62	269.61	16.87	-38.1	-39.7	19.9	0.00e+00	0	38	0	0	48	4192
2026-01-24 01:25:47.69	269.07	16.65	-37.9	-39.6	19.8	0.00e+00	0	38	0	0	47	4385
2026-01-24 01:25:51.40	268.43	16.38	-37.6	-39.3	20.1	0.00e+00	0	38	0	0	47	4228
2026-01-24 01:25:54.10	267.97	16.18	-37.9	-39.7	19.6	0.00e+00	0	38	0	0	47	4408
2026-01-24 01:25:57.53	267.40	15.93	-38.4	-40.2	19.2	0.00e+00	0	38	0	0	47	4677
2026-01-24 01:26:00.23	266.95	15.74	-38.8	-40.6	19.2	0.00e+00	0	38	0	0	48	4632
2026-01-24 01:26:03.51	266.42	15.50	-39.0	-40.8	18.9	0.00e+00	0	38	0	0	48	4742
2026-01-24 01:26:06.23	265.98	15.30	-38.9	-40.7	19.1	0.00e+00	0	38	0	0	48	4669
2026-01-24 01:26:09.50	265.47	15.07	-38.2	-39.9	19.7	0.00e+00	0	38	0	0	48	4285
2026-01-24 01:26:12.24	265.04	14.87	-38.5	-40.2	19.4	0.00e+00	0	38	0	0	48	4414
2026-01-24 01:26:15.55	264.53	14.63	-38.9	-40.8	18.9	0.00e+00	0	38	0	0	48	4717
2026-01-24 01:26:18.25	264.12	14.43	-39.0	-40.9	18.9	0.00e+00	0	38	0	0	48	4779
2026-01-24 01:26:21.93	263.58	14.16	-38.6	-40.4	19.4	0.00e+00	0	38	0	0	48	4509
2026-01-24 01:26:24.82	263.15	13.95	-38.5	-40.3	19.5	0.00e+00	0	38	0	0	48	4444
2026-01-24 01:26:28.80	262.58	13.66	-38.4	-40.2	19.3	0.00e+00	0	38	0	0	48	4399
2026-01-24 01:26:31.64	262.18	13.46	-39.0	-40.8	18.9	0.00e+00	0	38	0	0	48	4751
2026-01-24 01:26:35.71	261.61	13.17	-39.3	-41.2	18.7	0.00e+00	0	38	0	0	49	4659
2026-01-24 01:26:38.65	261.21	12.96	-39.3	-41.2	18.7	0.00e+00	0	38	0	0	49	4674
2026-01-24 01:26:41.94	260.77	12.72	-39.1	-41.0	18.7	0.00e+00	0	38	0	0	49	4578
2026-01-24 01:26:44.70	260.40	12.52	-39.1	-41.0	18.5	0.00e+00	0	38	0	0	49	4570
2026-01-24 01:26:47.96	259.98	12.29	-39.2	-41.1	18.5	0.00e+00	0	38	0	0	49	4600
2026-01-24 01:26:50.82	259.61	12.09	-39.3	-41.2	18.5	0.00e+00	0	38	0	0	49	4658
2026-01-24 01:26:54.23	259.17	11.84	-39.4	-41.3	18.5	0.00e+00	0	38	0	0	49	4716
2026-01-24 01:26:56.96	258.83	11.65	-39.4	-41.3	18.4	0.00e+00	0	38	0	0	49	4731
2026-01-24 01:27:00.24	258.43	11.42	-39.3	-41.2	18.4	0.00e+00	0	38	0	0	49	4655
2026-01-24 01:27:02.96	258.10	11.23	-39.2	-41.0	18.5	0.00e+00	0	38	0	0	49	4576
2026-01-24 01:27:06.24	257.71	11.00	-39.2	-41.1	18.4	0.00e+00	0	38	0	0	49	4626
2026-01-24 01:27:08.96	257.39	10.81	-39.5	-41.4	18.2	0.00e+00	0	38	0	0	49	4793
2026-01-24 01:27:12.25	257.01	10.58	-39.9	-41.9	17.8	0.00e+00	0	38	0	0	50	4779
2026-01-24 01:27:14.95	256.70	10.39	-40.1	-42.1	17.6	0.00e+00	0	38	0	0	50	4887
2026-01-24 01:27:18.22	256.33	10.16	-39.8	-41.8	17.8	0.00e+00	0	38	0	0	50	4736
2026-01-24 01:27:20.93	256.03	9.98	-39.6	-41.6	18.0	0.00e+00	0	38	0	0	50	4615
2026-01-24 01:27:24.21	255.67	9.75	-39.4	-41.4	18.2	0.00e+00	0	38	0	0	50	4494
2026-01-24 01:27:26.92	255.37	9.57	-39.5	-41.4	18.2	0.00e+00	0	38	0	0	50	4543
2026-01-24 01:27:30.21	255.02	9.34	-39.8	-41.8	17.9	0.00e+00	0	38	0	0	50	4738
2026-01-24 01:27:32.93	254.74	9.16	-40.2	-42.3	17.4	0.00e+00	0	38	0	0	51	4706
2026-01-24 01:27:36.26	254.39	8.93	-48.0	-61.0	3.8	1.49e+00	0	38	104	0	66	17140
2026-01-24 01:27:39.20	254.09	8.74	-48.4	-61.5	3.8	1.49e+00	0	38	104	0	67	17088
2026-01-24 01:27:42.56	253.76	8.51	-48.7	-61.6	3.8	1.49e+00	0	38	104	0	67	17447
2026-01-24 01:27:45.48	253.47	8.32	-48.9	-61.9	3.8	1.49e+00	0	38	104	0	68	16911
2026-01-24 01:27:48.81	253.14	8.10	-48.7	-61.9	3.8	1.49e+00	0	38	104	0	68	16943
2026-01-24 01:27:51.50	252.88	7.92	-48.6	-61.9	3.8	1.49e+00	0	38	104	0	68	16977
2026-01-24 01:27:54.80	252.57	7.70	-48.7	-61.9	3.8	1.49e+00	0	38	104	0	68	16927
2026-01-24 01:27:57.49	252.32	7.53	-48.6	-61.8	3.8	1.49e+00	0	38	104	0	68	16735
2026-01-24 01:28:00.77	252.02	7.31	-48.6	-61.7	3.8	1.49e+00	0	38	104	0	68	16646
2026-01-24 01:28:03.47	251.77	7.14	-48.6	-61.7	3.8	1.49e+00	0	38	104	0	68	16642
2026-01-24 01:28:06.73	251.48	6.93	-48.6	-61.7	3.8	1.49e+00	0	38	104	0	68	16634
2026-01-24 01:28:09.43	251.24	6.75	-48.6	-61.7	3.8	1.49e+00	0	38	104	0	68	16662
2026-01-24 01:28:12.69	250.95	6.54	-48.6	-61.7	3.8	1.49e+00	0	38	104	0	68	16687
2026-01-24 01:28:15.41	250.72	6.37	-48.6	-61.7	3.8	1.49e+00	0	38	104	0	68	16593
2026-01-24 01:28:18.67	250.44	6.16	-48.6	-61.7	3.8	1.49e+00	0	38	104	0	68	16615
2026-01-24 01:28:21.37	250.21	5.99	-48.6	-61.7	3.8	1.49e+00	0	38	104	0	68	16565
2026-01-24 01:28:24.63	249.94	5.79	-48.6	-61.7	3.8	1.49e+00	0	38	104	0	68	16626
2026-01-24 01:28:27.34	249.72	5.62	-48.6	-61.7	3.8	1.49e+00	0	38	104	0	68	16538
2026-01-24 01:28:30.61	249.46	5.42	-48.6	-61.7	3.8	1.49e+00	0	38	104	0	68	16605
2026-01-24 01:28:33.30	249.24	5.25	-48.6	-61.7	3.8	1.49e+00	0	38	104	0	68	16626
2026-01-24 01:28:36.57	248.99	5.05	-48.6	-61.7	3.8	1.49e+00	0	38	104	0	68	16559

#Closed at: 2026-01-24 01:28:38
#Recorded file [0 MB]: D:/Data/31040_260124_041733.dat