passes_logs/2026/01/24/T1/T1__20260124_101749_NOAA_20_JPSS-1_rec.log

#Pass ID: 20260124_101749_NOAA 20 (JPSS-1)
#Satellite: NOAA 20 (JPSS-1)
#Configuration: NOAA 20
#almurnet v.1.7.20251203
#Start time: 2026-01-24 10:17:49

#Version: 2.0.20230620
#Station: T1
#Location: 37.570604 lon 55.790049 lat
#TLE: 1 43013U 17073A   26023.57676825  .00000205  00000+0  11821-3 0  9990
#TLE: 2 43013  98.7645 324.4259 0001147  27.0566 333.0670 14.19539368423954

#Time	Az	El	Level	Level2	SNR	BER	BlckErr	Temp	State	Recorded	gain1	gain2
2026-01-24 10:17:49.78	171.79	5.02	-49.5	-65.0	3.8	1.49e+00	0	35	0	0	70	21731
2026-01-24 10:17:53.76	171.87	5.30	-45.2	-64.4	3.8	1.49e+00	0	35	104	0	61	33983
2026-01-24 10:17:57.76	171.96	5.59	-45.1	-64.2	3.8	1.49e+00	0	36	104	0	61	33183
2026-01-24 10:18:01.74	172.05	5.88	-45.1	-63.9	3.8	1.49e+00	0	36	104	0	61	32160
2026-01-24 10:18:05.74	172.15	6.18	-45.2	-63.9	3.8	1.49e+00	0	36	104	0	61	32027
2026-01-24 10:18:09.73	172.24	6.47	-45.2	-64.5	3.8	1.49e+00	0	36	104	0	61	34194
2026-01-24 10:18:13.72	172.34	6.78	-45.1	-64.3	3.8	1.49e+00	0	36	104	0	61	33426
2026-01-24 10:18:17.70	172.44	7.08	-45.1	-63.3	3.8	1.49e+00	0	36	104	0	61	29844
2026-01-24 10:18:21.69	172.53	7.39	-45.0	-60.5	4.3	1.36e+00	0	36	0	0	61	21720
2026-01-24 10:18:25.65	172.64	7.70	-44.7	-55.8	7.4	1.39e-01	0	36	0	7340032	61	12567
2026-01-24 10:18:29.65	172.74	8.02	-44.3	-53.0	10.2	6.06e-03	0	36	0	14680064	60	9640
2026-01-24 10:18:33.64	172.84	8.34	-44.2	-52.8	10.4	3.72e-03	0	36	0	22020096	60	9478
2026-01-24 10:18:37.63	172.95	8.66	-44.7	-56.2	7.1	9.03e-02	0	37	0	29360128	60	13943
2026-01-24 10:18:41.61	173.06	8.99	-45.0	-62.3	3.9	1.45e+00	0	37	104	34603008	60	28268
2026-01-24 10:18:45.60	173.17	9.32	-44.4	-52.5	10.4	6.80e-01	0	37	0	36700160	60	9120
2026-01-24 10:18:49.58	173.29	9.66	-44.3	-48.9	14.6	0.00e+00	0	37	0	39845888	60	6022
2026-01-24 10:18:53.58	173.41	10.00	-43.8	-47.8	15.5	0.00e+00	0	37	0	47185920	59	5632
2026-01-24 10:18:57.57	173.53	10.35	-42.7	-46.4	17.0	0.00e+00	0	37	0	55574528	57	5374
2026-01-24 10:19:01.56	173.65	10.70	-42.3	-46.1	17.3	0.00e+00	0	37	0	62914560	56	5487
2026-01-24 10:19:05.54	173.77	11.06	-42.3	-46.0	17.4	0.00e+00	0	37	0	70254592	56	5436
2026-01-24 10:19:09.54	173.90	11.42	-42.6	-45.9	17.5	0.00e+00	0	37	0	77594624	56	5373
2026-01-24 10:19:13.53	174.03	11.78	-42.9	-45.8	17.7	0.00e+00	0	37	0	84934656	56	5280
2026-01-24 10:19:17.51	174.16	12.16	-43.1	-45.8	17.7	0.00e+00	0	37	0	92274688	56	5297
2026-01-24 10:19:21.50	174.30	12.53	-43.0	-45.6	17.9	0.00e+00	0	37	0	99614720	56	5169
2026-01-24 10:19:25.49	174.44	12.92	-42.9	-45.4	18.1	0.00e+00	0	37	0	106954752	56	5074
2026-01-24 10:19:29.48	174.58	13.31	-42.7	-45.2	18.3	0.00e+00	0	37	0	115343360	56	4962
2026-01-24 10:19:33.48	174.73	13.71	-42.6	-45.2	18.3	0.00e+00	0	37	0	122683392	56	4937
2026-01-24 10:19:37.46	174.88	14.11	-42.7	-45.3	18.2	0.00e+00	0	37	0	130023424	56	5004
2026-01-24 10:19:41.44	175.03	14.52	-42.7	-45.3	18.3	0.00e+00	0	37	0	137363456	56	4989
2026-01-24 10:19:45.42	175.19	14.93	-42.8	-45.4	18.1	0.00e+00	0	37	0	144703488	56	5070
2026-01-24 10:19:49.41	175.36	15.35	-42.9	-45.5	18.0	0.00e+00	0	37	0	152043520	56	5148
2026-01-24 10:19:53.39	175.52	15.78	-43.0	-45.6	18.0	0.00e+00	0	38	0	159383552	56	5177
2026-01-24 10:19:57.37	175.69	16.22	-43.0	-45.6	18.0	0.00e+00	0	38	0	166723584	56	5196
2026-01-24 10:20:01.36	175.87	16.67	-43.2	-45.8	17.8	0.00e+00	0	38	0	175112192	57	5008
2026-01-24 10:20:05.36	176.05	17.12	-43.3	-46.0	17.6	0.00e+00	0	38	0	182452224	57	5136
2026-01-24 10:20:09.35	176.24	17.58	-43.6	-46.4	17.3	0.00e+00	0	38	0	189792256	57	5348
2026-01-24 10:20:13.34	176.43	18.05	-43.6	-46.4	17.2	0.00e+00	0	38	0	197132288	58	5093
2026-01-24 10:20:17.33	176.63	18.53	-43.7	-46.5	17.2	0.00e+00	0	38	0	204472320	58	5130
2026-01-24 10:20:21.32	176.83	19.02	-43.8	-46.6	17.1	0.00e+00	0	37	0	211812352	58	5174
2026-01-24 10:20:25.31	177.04	19.52	-43.8	-46.5	17.2	0.00e+00	0	38	0	219152384	58	5149
2026-01-24 10:20:29.30	177.26	20.03	-43.8	-46.6	17.1	0.00e+00	0	38	0	227540992	58	5186
2026-01-24 10:20:33.29	177.48	20.55	-43.8	-46.5	17.2	0.00e+00	0	38	0	234881024	58	5143
2026-01-24 10:20:37.28	177.71	21.08	-43.8	-46.6	17.1	0.00e+00	0	38	0	242221056	58	5184
2026-01-24 10:20:41.26	177.95	21.62	-43.7	-46.3	17.4	0.00e+00	0	38	0	249561088	58	5041
2026-01-24 10:20:45.23	178.19	22.16	-43.6	-46.4	17.4	0.00e+00	0	38	0	256901120	58	5050
2026-01-24 10:20:49.22	178.45	22.73	-43.5	-46.1	17.6	0.00e+00	0	38	0	264241152	58	4910
2026-01-24 10:20:53.21	178.71	23.30	-43.5	-46.2	17.6	0.00e+00	0	38	0	271581184	58	4971
2026-01-24 10:20:57.21	178.98	23.89	-43.3	-45.9	17.8	0.00e+00	0	38	0	279969792	58	4795
2026-01-24 10:21:01.20	179.27	24.49	-43.3	-45.9	17.9	0.00e+00	0	38	0	287309824	58	4770
2026-01-24 10:21:05.20	179.56	25.11	-43.4	-46.0	17.7	0.00e+00	0	38	0	294649856	58	4867
2026-01-24 10:21:09.19	179.87	25.73	-43.8	-46.5	17.3	0.00e+00	0	38	0	301989888	58	5119
2026-01-24 10:21:13.19	180.18	26.38	-43.8	-46.5	17.4	0.00e+00	0	38	0	309329920	58	5105
2026-01-24 10:21:17.18	180.51	27.03	-43.9	-46.6	17.2	0.00e+00	0	38	0	316669952	58	5218
2026-01-24 10:21:21.18	180.86	27.71	-44.1	-46.8	17.0	0.00e+00	0	38	0	324009984	58	5312
2026-01-24 10:21:25.19	181.22	28.40	-44.4	-47.3	16.6	0.00e+00	0	38	0	331350016	59	5314
2026-01-24 10:21:29.19	181.59	29.10	-44.0	-46.8	17.0	0.00e+00	0	38	0	339738624	59	5027
2026-01-24 10:21:33.19	181.98	29.83	-44.1	-46.9	16.9	0.00e+00	0	38	0	347078656	59	5091
2026-01-24 10:21:37.19	182.39	30.57	-44.6	-47.5	16.4	0.00e+00	0	38	0	354418688	59	5442
2026-01-24 10:21:41.20	182.81	31.33	-44.8	-47.9	16.0	0.00e+00	0	38	0	361758720	60	5350
2026-01-24 10:21:45.21	183.26	32.10	-45.0	-48.0	15.9	0.00e+00	0	38	0	369098752	60	5450
2026-01-24 10:21:49.21	183.73	32.90	-45.0	-48.1	15.9	0.00e+00	0	38	0	376438784	60	5474
2026-01-24 10:21:53.23	184.22	33.72	-44.7	-47.6	16.4	0.00e+00	0	38	0	384827392	60	5190
2026-01-24 10:21:57.24	184.73	34.55	-44.5	-47.4	16.6	0.00e+00	0	38	0	392167424	60	5044
2026-01-24 10:22:01.24	185.28	35.41	-44.5	-47.4	16.6	0.00e+00	0	38	0	399507456	60	5059
2026-01-24 10:22:05.24	185.85	36.28	-44.8	-47.8	16.2	0.00e+00	0	38	0	406847488	60	5288
2026-01-24 10:22:09.25	186.45	37.18	-45.2	-48.5	15.6	0.00e+00	0	38	0	414187520	61	5410
2026-01-24 10:22:13.25	187.08	38.10	-45.7	-49.1	15.0	0.00e+00	0	38	0	421527552	62	5482
2026-01-24 10:22:17.26	187.75	39.04	-46.3	-50.1	13.9	2.20e-06	0	38	0	429916160	63	5823
2026-01-24 10:22:21.25	188.46	40.00	-45.9	-49.4	14.6	0.00e+00	0	38	0	437256192	63	5370
2026-01-24 10:22:25.27	189.22	40.98	-46.2	-49.9	14.1	7.00e-07	0	38	0	444596224	63	5694
2026-01-24 10:22:29.28	190.02	41.99	-45.6	-49.0	15.1	7.00e-07	0	38	0	451936256	63	5110
2026-01-24 10:22:33.29	190.87	43.02	-45.2	-48.4	15.7	0.00e+00	0	38	0	459276288	62	5055
2026-01-24 10:22:37.29	191.78	44.06	-44.9	-47.9	16.2	0.00e+00	0	38	0	466616320	61	5056
2026-01-24 10:22:41.29	192.75	45.13	-45.0	-48.1	16.0	0.00e+00	0	38	0	475004928	61	5171
2026-01-24 10:22:45.29	193.78	46.22	-45.1	-48.3	15.8	0.00e+00	0	38	0	482344960	61	5314
2026-01-24 10:22:49.30	194.89	47.33	-45.2	-48.2	15.8	0.00e+00	0	38	0	489684992	61	5276
2026-01-24 10:22:53.30	196.08	48.45	-44.6	-47.6	16.4	0.00e+00	0	38	0	497025024	61	4900
2026-01-24 10:22:57.30	197.36	49.59	-44.4	-47.2	16.8	0.00e+00	0	38	0	504365056	60	4946
2026-01-24 10:23:01.30	198.73	50.74	-42.9	-45.3	18.6	0.00e+00	0	38	0	511705088	57	4758
2026-01-24 10:23:05.31	200.22	51.90	-40.9	-42.9	20.6	0.00e+00	0	38	0	520093696	53	4543
2026-01-24 10:23:09.31	201.83	53.07	-40.2	-42.1	21.4	0.00e+00	0	38	0	527433728	52	4364
2026-01-24 10:23:13.32	203.57	54.24	-40.0	-41.9	21.6	0.00e+00	0	38	0	534773760	52	4278
2026-01-24 10:23:17.32	205.45	55.41	-40.7	-42.7	20.9	0.00e+00	0	38	0	542113792	52	4695
2026-01-24 10:23:21.32	207.49	56.57	-42.5	-44.8	19.0	0.00e+00	0	38	0	549453824	55	5005
2026-01-24 10:23:25.33	209.72	57.73	-43.3	-45.8	18.2	0.00e+00	0	38	0	556793856	57	5005
2026-01-24 10:23:29.34	212.14	58.86	-43.7	-46.3	17.7	0.00e+00	0	38	0	564133888	58	5025
2026-01-24 10:23:33.34	214.77	59.95	-43.3	-45.9	18.1	0.00e+00	0	38	0	572522496	57	5076
2026-01-24 10:23:37.35	217.63	61.01	-42.7	-45.0	19.0	0.00e+00	0	38	0	579862528	57	4551
2026-01-24 10:23:41.35	220.73	62.02	-42.5	-44.8	19.2	0.00e+00	0	38	0	587202560	56	4728
2026-01-24 10:23:45.35	224.08	62.96	-42.5	-44.9	18.9	0.00e+00	0	38	0	594542592	55	5058
2026-01-24 10:23:49.35	227.69	63.83	-42.0	-44.3	19.4	0.00e+00	0	38	0	601882624	55	4730
2026-01-24 10:23:53.36	231.58	64.61	-42.4	-44.7	19.2	0.00e+00	0	38	0	609222656	56	4677
2026-01-24 10:23:57.36	235.72	65.29	-43.4	-45.9	18.0	0.00e+00	0	38	0	617611264	57	5058
2026-01-24 10:24:01.36	240.09	65.85	-44.0	-46.6	17.4	0.00e+00	0	38	0	624951296	58	5190
2026-01-24 10:24:05.37	244.67	66.28	-44.6	-47.5	16.5	0.00e+00	0	38	0	632291328	60	5140
2026-01-24 10:24:09.37	249.39	66.57	-45.0	-48.1	15.9	0.00e+00	0	38	0	639631360	60	5504
2026-01-24 10:24:13.37	254.21	66.71	-43.7	-46.3	17.7	0.00e+00	0	38	0	646971392	59	4712
2026-01-24 10:24:17.38	259.07	66.70	-43.8	-46.5	17.5	0.00e+00	0	38	0	654311424	59	4822
2026-01-24 10:24:21.39	263.89	66.55	-43.0	-45.5	18.5	0.00e+00	0	38	0	662700032	58	4553
2026-01-24 10:24:25.38	268.59	66.24	-43.7	-46.3	17.6	0.00e+00	0	38	0	670040064	59	4750
2026-01-24 10:24:29.38	273.14	65.80	-44.5	-47.4	16.7	0.00e+00	0	38	0	677380096	59	5343
2026-01-24 10:24:33.39	277.49	65.23	-44.3	-47.1	16.9	0.00e+00	0	38	0	684720128	59	5204
2026-01-24 10:24:37.40	281.61	64.54	-43.4	-45.9	18.1	0.00e+00	0	38	0	692060160	57	5067
2026-01-24 10:24:41.41	285.47	63.75	-40.3	-42.3	21.3	0.00e+00	0	38	0	699400192	52	4487
2026-01-24 10:24:45.41	289.05	62.88	-38.4	-40.2	23.2	0.00e+00	0	38	0	706740224	48	4400
2026-01-24 10:24:49.42	292.38	61.93	-39.0	-40.8	22.6	0.00e+00	0	38	0	715128832	49	4475
2026-01-24 10:24:53.43	295.45	60.92	-40.8	-42.8	20.8	0.00e+00	0	38	0	722468864	52	4749
2026-01-24 10:24:57.43	298.28	59.86	-42.4	-44.7	19.1	0.00e+00	0	38	0	729808896	55	4939
2026-01-24 10:25:01.43	300.88	58.76	-42.2	-44.4	19.5	0.00e+00	0	38	0	737148928	56	4519
2026-01-24 10:25:05.43	303.27	57.63	-41.3	-43.4	20.2	0.00e+00	0	38	0	744488960	54	4542
2026-01-24 10:25:09.43	305.47	56.49	-40.4	-42.4	21.2	0.00e+00	0	38	0	751828992	52	4500
2026-01-24 10:25:13.43	307.49	55.33	-39.5	-41.4	22.1	0.00e+00	0	38	0	760217600	50	4524
2026-01-24 10:25:17.43	309.36	54.16	-39.8	-41.8	21.8	0.00e+00	0	38	0	767557632	50	4714
2026-01-24 10:25:21.43	311.08	53.00	-40.6	-42.6	21.0	0.00e+00	0	38	0	774897664	51	4917
2026-01-24 10:25:25.44	312.68	51.83	-42.0	-44.3	19.4	0.00e+00	0	38	0	782237696	55	4721
2026-01-24 10:25:29.45	314.15	50.67	-43.4	-46.0	18.0	0.00e+00	0	38	0	789577728	57	5110
2026-01-24 10:25:33.46	315.52	49.53	-44.3	-47.2	16.8	0.00e+00	0	38	0	796917760	60	4942
2026-01-24 10:25:37.45	316.78	48.40	-45.8	-49.6	14.4	2.20e-06	0	38	0	805306368	62	5828
2026-01-24 10:25:41.46	317.97	47.28	-45.8	-49.6	14.4	3.00e-06	0	38	0	812646400	62	5821
2026-01-24 10:25:45.46	319.07	46.18	-44.2	-47.0	17.0	0.00e+00	0	38	0	819986432	60	4855
2026-01-24 10:25:49.47	320.10	45.10	-43.9	-46.6	17.3	0.00e+00	0	38	0	827326464	59	4921
2026-01-24 10:25:53.48	321.06	44.04	-41.8	-44.0	19.6	0.00e+00	0	38	0	834666496	55	4586
2026-01-24 10:25:57.49	321.96	43.00	-43.9	-46.7	17.2	0.00e+00	0	38	0	842006528	58	5251
2026-01-24 10:26:01.49	322.81	41.98	-40.7	-42.7	20.8	0.00e+00	0	38	0	850395136	53	4431
2026-01-24 10:26:05.50	323.60	40.98	-42.9	-45.4	18.5	0.00e+00	0	38	0	857735168	56	5061
2026-01-24 10:26:09.51	324.36	40.00	-42.7	-45.1	18.7	0.00e+00	0	38	0	865075200	57	4632
2026-01-24 10:26:13.51	325.06	39.05	-41.7	-44.0	19.7	0.00e+00	0	38	0	872415232	55	4551
2026-01-24 10:26:17.51	325.73	38.11	-43.9	-47.0	17.0	0.00e+00	0	38	0	879755264	58	5435
2026-01-24 10:26:21.51	326.36	37.20	-41.0	-43.1	20.4	0.00e+00	0	38	0	887095296	54	4386
2026-01-24 10:26:25.52	326.96	36.31	-42.2	-44.6	19.1	0.00e+00	0	38	0	895483904	55	4888
2026-01-24 10:26:29.52	327.53	35.44	-43.7	-46.6	17.3	0.00e+00	0	38	0	902823936	58	5203
2026-01-24 10:26:33.53	328.07	34.59	-42.7	-45.1	18.7	0.00e+00	0	38	0	910163968	57	4630
2026-01-24 10:26:37.53	328.58	33.76	-42.4	-44.7	19.1	0.00e+00	0	38	0	917504000	56	4705
2026-01-24 10:26:41.53	329.07	32.95	-43.5	-46.2	17.7	0.00e+00	0	38	0	924844032	57	5236
2026-01-24 10:26:45.54	329.54	32.16	-43.6	-46.4	17.5	0.00e+00	0	38	0	932184064	57	5349
2026-01-24 10:26:49.54	329.99	31.39	-44.6	-47.9	16.0	0.00e+00	0	38	0	939524096	59	5693
2026-01-24 10:26:53.55	330.41	30.64	-44.2	-47.5	16.3	0.00e+00	0	38	0	947912704	60	5154
2026-01-24 10:26:57.55	330.82	29.90	-43.5	-46.1	17.7	0.00e+00	0	38	0	955252736	58	4920
2026-01-24 10:27:01.56	331.21	29.18	-43.8	-46.6	17.3	0.00e+00	0	38	0	962592768	58	5169
2026-01-24 10:27:05.57	331.58	28.48	-43.9	-46.9	17.0	0.00e+00	0	38	0	969932800	58	5367
2026-01-24 10:27:09.57	331.94	27.80	-43.5	-46.5	17.3	0.00e+00	0	38	0	977272832	58	5155
2026-01-24 10:27:13.57	332.29	27.13	-43.0	-45.8	18.0	0.00e+00	0	38	0	984612864	58	4710
2026-01-24 10:27:17.59	332.62	26.47	-42.5	-45.0	18.8	0.00e+00	0	38	0	993001472	57	4556
2026-01-24 10:27:21.59	332.94	25.83	-42.7	-45.1	18.7	0.00e+00	0	38	0	1000341504	57	4627
2026-01-24 10:27:25.59	333.24	25.21	-43.0	-45.7	18.1	0.00e+00	0	38	0	1007681536	57	4931
2026-01-24 10:27:29.60	333.54	24.59	-43.0	-45.7	18.1	0.00e+00	0	38	0	1015021568	57	4935
2026-01-24 10:27:33.60	333.83	24.00	-42.5	-45.0	18.7	0.00e+00	0	38	0	1022361600	57	4595
2026-01-24 10:27:37.61	334.10	23.41	-41.8	-44.2	19.3	0.00e+00	0	38	0	1029701632	55	4693
2026-01-24 10:27:41.62	334.37	22.84	-41.3	-43.6	19.9	0.00e+00	0	38	0	1038090240	54	4609
2026-01-24 10:27:45.62	334.62	22.27	-41.5	-43.7	19.8	0.00e+00	0	38	0	1045430272	54	4666
2026-01-24 10:27:49.62	334.87	21.73	-41.7	-44.1	19.5	0.00e+00	0	38	0	1052770304	54	4883
2026-01-24 10:27:53.64	335.11	21.19	-42.0	-44.5	19.0	0.00e+00	0	38	0	1060110336	54	5138
2026-01-24 10:27:57.64	335.35	20.66	-42.0	-44.6	19.0	0.00e+00	0	38	0	1067450368	54	5202
2026-01-24 10:28:01.64	335.57	20.14	-41.9	-44.4	19.2	0.00e+00	0	38	0	1074790400	54	5054
2026-01-24 10:28:05.65	335.79	19.63	-41.6	-44.0	19.5	0.00e+00	0	38	0	1083179008	54	4844
2026-01-24 10:28:09.65	336.00	19.14	-41.4	-43.8	19.7	0.00e+00	0	38	0	1090519040	54	4734
2026-01-24 10:28:13.65	336.21	18.65	-41.6	-44.0	19.5	0.00e+00	0	38	0	1097859072	54	4832
2026-01-24 10:28:17.65	336.41	18.17	-41.8	-44.1	19.4	0.00e+00	0	38	0	1105199104	54	4921
2026-01-24 10:28:21.65	336.60	17.70	-42.1	-44.5	19.0	0.00e+00	0	38	0	1112539136	54	5134
2026-01-24 10:28:25.65	336.79	17.24	-42.2	-44.7	18.8	0.00e+00	0	38	0	1119879168	55	4936
2026-01-24 10:28:29.65	336.98	16.79	-42.4	-44.9	18.6	0.00e+00	0	38	0	1127219200	55	5070
2026-01-24 10:28:33.65	337.15	16.35	-42.4	-45.0	18.5	0.00e+00	0	38	0	1135607808	55	5116
2026-01-24 10:28:37.66	337.33	15.91	-42.5	-45.0	18.5	0.00e+00	0	38	0	1142947840	55	5108
2026-01-24 10:28:41.67	337.50	15.48	-42.5	-45.0	18.5	0.00e+00	0	38	0	1150287872	55	5139
2026-01-24 10:28:45.67	337.67	15.06	-42.4	-45.1	18.4	0.00e+00	0	38	0	1157627904	55	5200
2026-01-24 10:28:49.68	337.83	14.64	-42.4	-45.2	18.3	0.00e+00	0	38	0	1164967936	55	5243
2026-01-24 10:28:53.69	337.98	14.24	-42.5	-45.4	18.1	0.00e+00	0	38	0	1172307968	55	5363
2026-01-24 10:28:57.68	338.14	13.84	-42.9	-45.9	17.7	0.00e+00	0	38	0	1180696576	56	5377
2026-01-24 10:29:01.69	338.29	13.44	-42.9	-46.2	17.4	0.00e+00	0	38	0	1188036608	56	5540
2026-01-24 10:29:05.70	338.44	13.05	-42.9	-46.3	17.4	0.00e+00	0	38	0	1195376640	56	5594
2026-01-24 10:29:09.70	338.58	12.67	-43.2	-46.5	17.2	0.00e+00	0	38	0	1202716672	56	5735
2026-01-24 10:29:13.70	338.72	12.29	-43.4	-46.5	17.1	0.00e+00	0	38	0	1210056704	57	5439
2026-01-24 10:29:17.71	338.86	11.92	-43.6	-46.6	17.0	0.00e+00	0	38	0	1217396736	57	5502
2026-01-24 10:29:21.71	338.99	11.55	-43.4	-46.5	17.0	0.00e+00	0	38	0	1225785344	57	5455
2026-01-24 10:29:25.72	339.12	11.19	-43.3	-46.7	16.9	0.00e+00	0	38	0	1233125376	57	5552
2026-01-24 10:29:29.72	339.25	10.84	-43.4	-46.7	16.9	0.00e+00	0	38	0	1240465408	57	5531
2026-01-24 10:29:33.72	339.38	10.49	-43.8	-46.9	16.6	0.00e+00	0	38	0	1247805440	58	5386
2026-01-24 10:29:37.72	339.50	10.14	-43.6	-46.6	17.0	0.00e+00	0	38	0	1255145472	58	5162
2026-01-24 10:29:41.72	339.62	9.80	-43.5	-46.5	17.0	0.00e+00	0	38	0	1262485504	58	5135
2026-01-24 10:29:45.73	339.74	9.47	-43.3	-46.5	17.0	0.00e+00	0	38	0	1270874112	58	5151
2026-01-24 10:29:49.73	339.85	9.13	-43.4	-46.4	17.1	0.00e+00	0	38	0	1278214144	58	5046
2026-01-24 10:29:53.72	339.97	8.81	-49.5	-64.9	3.8	1.49e+00	0	38	104	1282408448	69	22695
2026-01-24 10:29:57.70	340.08	8.49	-49.0	-65.3	3.8	1.49e+00	0	38	104	1282408448	70	22424
2026-01-24 10:30:01.68	340.19	8.17	-49.7	-65.5	3.8	1.49e+00	0	37	104	1282408448	70	22867
2026-01-24 10:30:05.66	340.30	7.85	-50.0	-65.5	3.8	1.49e+00	0	38	104	1282408448	71	21684
2026-01-24 10:30:09.64	340.40	7.54	-50.3	-65.5	3.8	1.49e+00	0	38	104	1282408448	71	21680
2026-01-24 10:30:13.62	340.50	7.24	-50.3	-65.5	3.8	1.49e+00	0	38	104	1282408448	71	21646
2026-01-24 10:30:17.60	340.61	6.94	-50.1	-65.4	3.8	1.49e+00	0	38	104	1282408448	71	21468
2026-01-24 10:30:21.59	340.71	6.64	-50.1	-65.4	3.8	1.49e+00	0	38	104	1282408448	71	21491
2026-01-24 10:30:25.57	340.80	6.34	-50.0	-65.4	3.8	1.49e+00	0	38	104	1282408448	71	21458
2026-01-24 10:30:29.55	340.90	6.05	-50.0	-65.4	3.8	1.49e+00	0	38	104	1282408448	71	21439
2026-01-24 10:30:33.53	341.00	5.76	-50.0	-65.4	3.8	1.49e+00	0	38	104	1282408448	71	21402
2026-01-24 10:30:37.51	341.09	5.47	-50.0	-65.4	3.8	1.49e+00	0	38	104	1282408448	71	21359
2026-01-24 10:30:41.49	341.18	5.19	-50.0	-65.5	3.8	1.49e+00	0	38	104	1282408448	71	21528

#Closed at: 2026-01-24 10:30:45
#Recorded file [1282 MB]: D:/Data/31040_260124_131749.dat