passes_logs/2026/01/24/T1/T1__20260124_231807_NOAA_21_JPSS-2_rec.log

#Pass ID: 20260124_231807_NOAA 21 (JPSS-2)
#Satellite: NOAA 21 (JPSS-2)
#Configuration: NOAA 21
#almurnet v.1.7.20251203
#Start time: 2026-01-24 23:18:08

#Version: 2.0.20230620
#Station: T1
#Location: 37.570604 lon 55.790049 lat
#TLE: 1 54234U 22150A   26024.45772595  .00000201  00000+0  11607-3 0  9996
#TLE: 2 54234  98.7508 325.2435 0000728 220.7365 139.3757 14.19538765166156

#Time	Az	El	Level	Level2	SNR	BER	BlckErr	Temp	State	Recorded	gain1	gain2
2026-01-24 23:18:08.67	19.06	5.12	-46.8	-61.6	3.8	1.49e+00	0	35	0	0	65	19595
2026-01-24 23:18:11.64	19.14	5.33	-46.8	-61.5	3.8	1.49e+00	0	35	104	0	64	20433
2026-01-24 23:18:14.62	19.22	5.54	-46.8	-61.5	3.8	1.49e+00	0	35	104	0	64	20367
2026-01-24 23:18:17.60	19.29	5.75	-46.8	-61.6	3.8	1.49e+00	0	36	104	0	64	20581
2026-01-24 23:18:20.58	19.37	5.97	-46.8	-61.6	3.8	1.49e+00	0	36	104	0	64	20763
2026-01-24 23:18:23.54	19.45	6.19	-46.8	-61.7	3.8	1.49e+00	0	36	104	0	64	20990
2026-01-24 23:18:26.52	19.53	6.40	-46.8	-61.7	3.8	1.49e+00	0	36	104	0	64	20999
2026-01-24 23:18:29.50	19.61	6.63	-46.8	-61.4	3.8	1.49e+00	0	36	104	0	64	20291
2026-01-24 23:18:32.48	19.69	6.85	-46.7	-60.7	3.8	1.49e+00	0	36	104	0	64	18724
2026-01-24 23:18:35.46	19.77	7.07	-46.7	-59.9	3.8	1.49e+00	0	36	104	0	64	16982
2026-01-24 23:18:38.44	19.86	7.30	-46.6	-59.2	3.9	1.48e+00	0	36	104	0	64	15691
2026-01-24 23:18:41.42	19.94	7.53	-46.6	-58.3	4.2	1.47e+00	0	36	104	0	64	14145
2026-01-24 23:18:44.40	20.03	7.76	-46.6	-58.7	3.9	1.47e+00	0	36	104	0	64	14805
2026-01-24 23:18:47.38	20.12	7.99	-46.5	-58.1	4.2	1.46e+00	0	36	104	0	64	13826
2026-01-24 23:18:50.36	20.21	8.23	-46.5	-57.5	4.4	1.45e+00	0	36	104	0	64	12949
2026-01-24 23:18:53.34	20.30	8.46	-46.3	-55.9	5.2	6.78e-01	0	37	0	0	64	10760
2026-01-24 23:18:56.32	20.39	8.70	-45.9	-53.4	7.1	1.53e-01	0	37	0	0	63	8536
2026-01-24 23:18:59.30	20.48	8.95	-45.2	-51.1	9.4	1.92e-02	0	37	0	0	62	6956
2026-01-24 23:19:02.28	20.57	9.19	-45.9	-53.0	7.5	2.55e-01	0	37	0	0	63	8085
2026-01-24 23:19:05.26	20.67	9.44	-41.4	-44.1	16.3	0.00e+00	0	37	0	0	54	4913
2026-01-24 23:19:08.25	20.77	9.69	-41.1	-43.7	16.8	0.00e+00	0	37	0	0	54	4652
2026-01-24 23:19:11.23	20.86	9.94	-40.4	-42.7	17.8	0.00e+00	0	37	0	0	52	4661
2026-01-24 23:19:14.21	20.96	10.19	-40.2	-42.4	18.1	0.00e+00	0	37	0	0	52	4520
2026-01-24 23:19:17.19	21.07	10.45	-40.0	-42.2	18.3	0.00e+00	0	37	0	0	51	4702
2026-01-24 23:19:20.18	21.17	10.71	-40.0	-42.2	18.3	0.00e+00	0	37	0	0	51	4692
2026-01-24 23:19:23.16	21.27	10.97	-40.0	-42.1	18.4	0.00e+00	0	37	0	0	51	4632
2026-01-24 23:19:26.15	21.38	11.23	-40.0	-42.1	18.4	0.00e+00	0	37	0	0	51	4629
2026-01-24 23:19:29.14	21.49	11.50	-39.8	-41.9	18.7	0.00e+00	0	37	0	0	51	4495
2026-01-24 23:19:32.12	21.60	11.77	-39.8	-41.8	18.7	0.00e+00	0	37	0	0	51	4483
2026-01-24 23:19:35.10	21.71	12.05	-39.8	-41.7	18.8	0.00e+00	0	37	0	0	51	4440
2026-01-24 23:19:38.08	21.82	12.32	-39.8	-41.8	18.8	0.00e+00	0	37	0	0	51	4478
2026-01-24 23:19:41.06	21.94	12.60	-39.8	-41.7	18.9	0.00e+00	0	37	0	0	51	4402
2026-01-24 23:19:44.05	22.05	12.88	-39.7	-41.6	19.0	0.00e+00	0	37	0	0	51	4360
2026-01-24 23:19:47.03	22.17	13.17	-39.6	-41.5	19.1	0.00e+00	0	37	0	0	51	4298
2026-01-24 23:19:50.01	22.29	13.46	-39.6	-41.4	19.2	0.00e+00	0	37	0	0	51	4257
2026-01-24 23:19:53.00	22.42	13.75	-39.5	-41.3	19.2	0.00e+00	0	37	0	0	51	4231
2026-01-24 23:19:55.98	22.54	14.05	-39.5	-41.3	19.2	0.00e+00	0	37	0	0	51	4228
2026-01-24 23:19:58.97	22.67	14.35	-39.5	-41.3	19.3	0.00e+00	0	37	0	0	50	4450
2026-01-24 23:20:01.95	22.80	14.65	-39.4	-41.2	19.4	0.00e+00	0	37	0	0	50	4402
2026-01-24 23:20:04.94	22.93	14.96	-39.3	-41.1	19.5	0.00e+00	0	37	0	0	50	4365
2026-01-24 23:20:07.92	23.07	15.27	-39.3	-41.1	19.5	0.00e+00	0	37	0	0	50	4348
2026-01-24 23:20:10.91	23.21	15.58	-39.3	-41.2	19.4	0.00e+00	0	37	0	0	50	4402
2026-01-24 23:20:13.89	23.35	15.90	-39.3	-41.2	19.5	0.00e+00	0	37	0	0	50	4392
2026-01-24 23:20:16.87	23.49	16.23	-39.2	-41.1	19.6	0.00e+00	0	37	0	0	50	4350
2026-01-24 23:20:19.86	23.64	16.55	-39.3	-41.2	19.5	0.00e+00	0	37	0	0	50	4395
2026-01-24 23:20:22.84	23.78	16.88	-39.4	-41.2	19.4	0.00e+00	0	37	0	0	50	4441
2026-01-24 23:20:25.82	23.94	17.22	-39.5	-41.3	19.4	0.00e+00	0	37	0	0	50	4446
2026-01-24 23:20:28.80	24.09	17.56	-39.4	-41.2	19.5	0.00e+00	0	37	0	0	50	4416
2026-01-24 23:20:31.79	24.25	17.91	-39.6	-41.4	19.3	0.00e+00	0	37	0	0	50	4511
2026-01-24 23:20:34.77	24.41	18.25	-39.6	-41.5	19.2	0.00e+00	0	37	0	0	50	4548
2026-01-24 23:20:37.76	24.58	18.61	-39.6	-41.5	19.3	0.00e+00	0	37	0	0	50	4547
2026-01-24 23:20:40.74	24.75	18.97	-39.6	-41.5	19.2	0.00e+00	0	37	0	0	50	4557
2026-01-24 23:20:43.72	24.92	19.33	-39.5	-41.3	19.3	0.00e+00	0	37	0	0	50	4485
2026-01-24 23:20:46.71	25.10	19.70	-39.5	-41.4	19.3	0.00e+00	0	37	0	0	50	4495
2026-01-24 23:20:49.69	25.28	20.08	-39.2	-41.1	19.6	0.00e+00	0	37	0	0	50	4349
2026-01-24 23:20:52.67	25.46	20.46	-39.0	-40.8	19.8	0.00e+00	0	37	0	0	50	4222
2026-01-24 23:20:55.65	25.65	20.84	-38.7	-40.5	20.1	0.00e+00	0	37	0	0	49	4307
2026-01-24 23:20:58.64	25.84	21.24	-38.5	-40.2	20.3	0.00e+00	0	37	0	0	48	4419
2026-01-24 23:21:01.62	26.04	21.63	-38.2	-39.9	20.7	0.00e+00	0	37	0	0	48	4244
2026-01-24 23:21:04.61	26.25	22.04	-38.1	-39.7	20.8	0.00e+00	0	37	0	0	48	4184
2026-01-24 23:21:07.59	26.46	22.45	-38.0	-39.6	20.9	0.00e+00	0	37	0	0	48	4129
2026-01-24 23:21:10.57	26.67	22.87	-37.9	-39.6	20.7	0.00e+00	0	37	0	0	47	4342
2026-01-24 23:21:13.56	26.89	23.29	-37.9	-39.5	20.8	0.00e+00	0	37	0	0	47	4331
2026-01-24 23:21:16.54	27.11	23.72	-37.9	-39.6	20.6	0.00e+00	0	37	0	0	47	4357
2026-01-24 23:21:19.52	27.34	24.15	-38.1	-39.8	20.5	0.00e+00	0	37	0	0	47	4466
2026-01-24 23:21:22.51	27.58	24.60	-38.3	-40.0	20.3	0.00e+00	0	37	0	0	47	4564
2026-01-24 23:21:25.49	27.82	25.05	-38.6	-40.3	20.0	0.00e+00	0	37	0	0	47	4713
2026-01-24 23:21:28.47	28.07	25.51	-38.7	-40.4	20.1	0.00e+00	0	37	0	0	48	4529
2026-01-24 23:21:31.46	28.33	25.97	-38.8	-40.5	20.0	0.00e+00	0	37	0	0	48	4591
2026-01-24 23:21:34.43	28.60	26.44	-39.1	-40.8	19.8	0.00e+00	0	37	0	0	48	4722
2026-01-24 23:21:37.42	28.87	26.93	-39.3	-41.1	19.6	0.00e+00	0	37	0	0	49	4604
2026-01-24 23:21:40.40	29.15	27.41	-39.7	-41.5	19.1	0.00e+00	0	37	0	0	49	4860
2026-01-24 23:21:43.39	29.44	27.91	-39.5	-41.3	19.3	0.00e+00	0	37	0	0	50	4482
2026-01-24 23:21:46.37	29.74	28.42	-39.5	-41.2	19.4	0.00e+00	0	37	0	0	50	4420
2026-01-24 23:21:49.35	30.04	28.93	-39.4	-41.1	19.6	0.00e+00	0	37	0	0	50	4380
2026-01-24 23:21:52.34	30.36	29.46	-39.1	-40.9	19.9	0.00e+00	0	37	0	0	50	4259
2026-01-24 23:21:55.32	30.68	29.99	-39.2	-40.9	19.9	0.00e+00	0	37	0	0	50	4265
2026-01-24 23:21:58.30	31.02	30.53	-39.1	-40.9	19.9	0.00e+00	0	37	0	0	50	4250
2026-01-24 23:22:01.29	31.37	31.08	-39.1	-40.8	19.9	0.00e+00	0	37	0	0	50	4224
2026-01-24 23:22:04.27	31.73	31.64	-39.2	-40.9	19.8	0.00e+00	0	37	0	0	50	4271
2026-01-24 23:22:07.25	32.10	32.21	-39.1	-40.8	19.9	0.00e+00	0	37	0	0	50	4232
2026-01-24 23:22:10.24	32.49	32.79	-39.2	-40.9	19.9	0.00e+00	0	37	0	0	50	4289
2026-01-24 23:22:13.23	32.89	33.38	-39.4	-41.2	19.6	0.00e+00	0	37	0	0	50	4419
2026-01-24 23:22:16.21	33.30	33.98	-39.6	-41.3	19.5	0.00e+00	0	37	0	0	50	4472
2026-01-24 23:22:19.19	33.73	34.59	-40.0	-41.8	19.1	0.00e+00	0	37	0	0	50	4746
2026-01-24 23:22:22.18	34.18	35.21	-40.7	-42.6	18.4	0.00e+00	0	37	0	0	51	4891
2026-01-24 23:22:25.16	34.64	35.84	-41.1	-43.1	17.8	0.00e+00	0	37	0	0	52	4924
2026-01-24 23:22:28.14	35.12	36.48	-41.3	-43.3	17.7	0.00e+00	0	37	0	0	53	4728
2026-01-24 23:22:31.13	35.62	37.13	-41.1	-43.1	17.8	0.00e+00	0	37	0	0	53	4627
2026-01-24 23:22:34.11	36.13	37.80	-41.1	-43.0	17.9	0.00e+00	0	37	0	0	53	4589
2026-01-24 23:22:37.09	36.67	38.47	-41.1	-43.1	17.8	0.00e+00	0	37	0	0	53	4633
2026-01-24 23:22:40.08	37.24	39.16	-40.8	-42.7	18.2	0.00e+00	0	37	0	0	53	4394
2026-01-24 23:22:43.06	37.82	39.85	-40.6	-42.5	18.3	0.00e+00	0	37	0	0	53	4325
2026-01-24 23:22:46.05	38.44	40.56	-40.9	-42.9	18.1	0.00e+00	0	37	0	0	53	4494
2026-01-24 23:22:49.03	39.07	41.27	-41.0	-42.9	18.1	0.00e+00	0	37	0	0	53	4514
2026-01-24 23:22:52.02	39.74	42.00	-40.7	-42.5	18.4	0.00e+00	0	37	0	0	53	4328
2026-01-24 23:22:55.00	40.44	42.74	-41.3	-43.3	17.6	0.00e+00	0	37	0	0	53	4716
2026-01-24 23:22:57.99	41.17	43.49	-42.0	-44.1	16.9	0.00e+00	0	37	0	0	54	4893
2026-01-24 23:23:00.97	41.93	44.24	-42.9	-45.3	15.9	0.00e+00	0	37	0	0	56	5015
2026-01-24 23:23:03.96	42.74	45.01	-42.6	-44.8	16.2	0.00e+00	0	37	0	0	56	4755
2026-01-24 23:23:06.94	43.58	45.78	-42.7	-45.1	16.0	0.00e+00	0	37	0	0	56	4871
2026-01-24 23:23:09.92	44.46	46.57	-42.5	-44.8	16.2	0.00e+00	0	37	0	0	56	4749
2026-01-24 23:23:12.90	45.38	47.36	-40.7	-42.6	18.0	0.00e+00	0	37	0	0	53	4372
2026-01-24 23:23:15.89	46.36	48.15	-40.5	-42.3	18.4	0.00e+00	0	37	0	0	52	4484
2026-01-24 23:23:18.87	47.39	48.96	-41.1	-43.1	17.8	0.00e+00	0	37	0	0	52	4877
2026-01-24 23:23:21.86	48.47	49.77	-41.3	-43.3	17.5	0.00e+00	0	37	0	0	53	4750
2026-01-24 23:23:24.85	49.61	50.58	-41.0	-43.0	17.8	0.00e+00	0	37	0	0	53	4566
2026-01-24 23:23:27.83	50.81	51.39	-40.7	-42.6	18.3	0.00e+00	0	38	0	0	53	4391
2026-01-24 23:23:30.82	52.09	52.20	-40.8	-42.7	18.1	0.00e+00	0	37	0	0	53	4426
2026-01-24 23:23:33.80	53.42	53.02	-40.0	-41.8	19.1	0.00e+00	0	37	0	0	52	4203
2026-01-24 23:23:36.79	54.84	53.83	-39.4	-41.1	19.7	0.00e+00	0	37	0	0	50	4388
2026-01-24 23:23:39.77	56.34	54.63	-39.5	-41.2	19.7	0.00e+00	0	37	0	0	50	4425
2026-01-24 23:23:42.76	57.92	55.42	-38.6	-40.3	20.4	0.00e+00	0	37	0	0	49	4196
2026-01-24 23:23:45.74	59.59	56.21	-39.1	-40.8	19.9	0.00e+00	0	37	0	0	49	4446
2026-01-24 23:23:48.73	61.37	56.98	-39.1	-40.8	19.6	0.00e+00	0	37	0	0	49	4454
2026-01-24 23:23:51.71	63.23	57.73	-38.8	-40.4	20.3	0.00e+00	0	37	0	0	49	4285
2026-01-24 23:23:54.69	65.21	58.47	-38.8	-40.5	20.0	0.00e+00	0	37	0	0	49	4319
2026-01-24 23:23:57.68	67.30	59.18	-38.3	-39.9	20.7	0.00e+00	0	37	0	0	48	4278
2026-01-24 23:24:00.67	69.50	59.86	-38.4	-40.1	20.6	0.00e+00	0	37	0	0	48	4358
2026-01-24 23:24:03.65	71.81	60.51	-37.7	-39.3	21.3	0.00e+00	0	37	0	0	47	4207
2026-01-24 23:24:06.63	74.24	61.12	-37.6	-39.2	21.3	0.00e+00	0	37	0	0	46	4396
2026-01-24 23:24:09.61	76.78	61.69	-37.7	-39.3	20.9	0.00e+00	0	37	0	0	46	4471
2026-01-24 23:24:12.59	79.44	62.22	-37.8	-39.4	21.0	0.00e+00	0	37	0	0	46	4502
2026-01-24 23:24:15.57	82.22	62.69	-38.3	-40.0	20.6	0.00e+00	0	37	0	0	47	4583
2026-01-24 23:24:18.56	85.10	63.11	-37.8	-39.4	20.8	0.00e+00	0	37	0	0	47	4266
2026-01-24 23:24:21.54	88.07	63.47	-37.7	-39.2	21.1	0.00e+00	0	37	0	0	47	4193
2026-01-24 23:24:24.52	91.13	63.77	-37.5	-39.1	21.3	0.00e+00	0	37	0	0	46	4341
2026-01-24 23:24:27.51	94.27	64.00	-38.4	-40.2	20.4	0.00e+00	0	37	0	0	47	4652
2026-01-24 23:24:30.49	97.45	64.16	-37.9	-39.5	20.6	0.00e+00	0	37	0	0	47	4317
2026-01-24 23:24:33.48	100.67	64.25	-37.8	-39.4	21.2	0.00e+00	0	37	0	0	47	4281
2026-01-24 23:24:36.46	103.90	64.27	-37.4	-39.0	21.5	0.00e+00	0	37	0	0	46	4310
2026-01-24 23:24:39.45	107.14	64.21	-38.9	-40.6	20.4	0.00e+00	0	37	0	0	48	4633
2026-01-24 23:24:42.43	110.34	64.09	-37.8	-39.4	21.2	0.00e+00	0	37	0	0	47	4264
2026-01-24 23:24:45.42	113.51	63.89	-37.8	-39.4	21.2	0.00e+00	0	37	0	0	46	4545
2026-01-24 23:24:48.40	116.60	63.63	-37.7	-39.3	21.1	0.00e+00	0	37	0	0	46	4493
2026-01-24 23:24:51.38	119.62	63.30	-38.3	-39.9	20.8	0.00e+00	0	37	0	0	47	4538
2026-01-24 23:24:54.37	122.56	62.90	-38.0	-39.7	20.6	0.00e+00	0	37	0	0	47	4410
2026-01-24 23:24:57.36	125.39	62.45	-38.0	-39.6	21.0	0.00e+00	0	37	0	0	47	4382
2026-01-24 23:25:00.34	128.11	61.95	-37.7	-39.2	21.2	0.00e+00	0	37	0	0	47	4189
2026-01-24 23:25:03.32	130.72	61.40	-38.9	-40.6	20.4	0.00e+00	0	37	0	0	48	4609
2026-01-24 23:25:06.31	133.21	60.80	-39.4	-41.1	19.9	0.00e+00	0	38	0	0	50	4370
2026-01-24 23:25:09.29	135.58	60.17	-39.0	-40.7	20.2	0.00e+00	0	37	0	0	48	4670
2026-01-24 23:25:12.27	137.84	59.50	-40.0	-41.8	19.1	0.00e+00	0	38	0	0	51	4493
2026-01-24 23:25:15.26	139.99	58.80	-37.5	-39.0	21.2	0.00e+00	0	38	0	0	47	4093
2026-01-24 23:25:18.25	142.02	58.08	-40.0	-41.8	19.3	0.00e+00	0	38	0	0	50	4745
2026-01-24 23:25:21.22	143.94	57.33	-38.2	-39.8	20.4	0.00e+00	0	37	0	0	48	4216
2026-01-24 23:25:24.21	145.76	56.56	-39.4	-41.1	19.9	0.00e+00	0	38	0	0	49	4613
2026-01-24 23:25:27.19	147.48	55.78	-40.7	-42.7	18.3	0.00e+00	0	38	0	0	53	4405
2026-01-24 23:25:30.17	149.11	54.99	-38.7	-40.3	20.5	0.00e+00	0	37	0	0	49	4223
2026-01-24 23:25:33.16	150.65	54.19	-40.4	-42.2	18.8	0.00e+00	0	37	0	0	51	4667
2026-01-24 23:25:36.14	152.10	53.38	-40.1	-41.9	18.8	0.00e+00	0	37	0	0	52	4284
2026-01-24 23:25:39.12	153.48	52.57	-39.2	-40.8	19.9	0.00e+00	0	37	0	0	50	4229
2026-01-24 23:25:42.11	154.79	51.75	-41.2	-43.1	17.9	0.00e+00	0	38	0	0	53	4649
2026-01-24 23:25:45.09	156.02	50.93	-41.8	-44.0	16.7	0.00e+00	0	37	0	0	54	4826
2026-01-24 23:25:48.08	157.20	50.11	-40.8	-42.7	18.3	0.00e+00	0	37	0	0	53	4410
2026-01-24 23:25:51.06	158.31	49.30	-41.2	-43.2	18.0	0.00e+00	0	38	0	0	53	4662
2026-01-24 23:25:54.04	159.36	48.49	-41.4	-43.4	17.7	0.00e+00	0	38	0	0	54	4510
2026-01-24 23:25:57.02	160.36	47.69	-40.0	-41.8	19.2	0.00e+00	0	37	0	0	51	4446
2026-01-24 23:26:00.01	161.31	46.89	-41.9	-44.0	17.0	0.00e+00	0	37	0	0	54	4837
2026-01-24 23:26:02.99	162.22	46.10	-41.6	-43.6	17.3	0.00e+00	0	37	0	0	54	4642
2026-01-24 23:26:05.97	163.08	45.32	-41.7	-43.8	17.1	0.00e+00	0	37	0	0	54	4755
2026-01-24 23:26:08.96	163.90	44.55	-41.9	-44.0	17.0	0.00e+00	0	37	0	0	55	4589
2026-01-24 23:26:11.94	164.68	43.78	-41.9	-44.0	16.9	0.00e+00	0	38	0	0	55	4566
2026-01-24 23:26:14.93	165.43	43.02	-41.8	-43.9	17.1	0.00e+00	0	37	0	0	55	4501
2026-01-24 23:26:17.91	166.14	42.28	-40.9	-42.8	18.2	0.00e+00	0	37	0	0	53	4456
2026-01-24 23:26:20.89	166.82	41.54	-41.0	-42.9	18.0	0.00e+00	0	38	0	0	53	4541
2026-01-24 23:26:23.87	167.47	40.82	-41.4	-43.4	17.5	0.00e+00	0	37	0	0	53	4780
2026-01-24 23:26:26.86	168.10	40.10	-41.1	-43.1	17.9	0.00e+00	0	37	0	0	53	4602
2026-01-24 23:26:29.84	168.70	39.40	-41.5	-43.5	17.4	0.00e+00	0	37	0	0	53	4829
2026-01-24 23:26:32.82	169.27	38.71	-41.4	-43.4	17.7	0.00e+00	0	37	0	0	54	4507
2026-01-24 23:26:35.81	169.82	38.02	-41.1	-43.0	18.0	0.00e+00	0	37	0	0	53	4581
2026-01-24 23:26:38.79	170.35	37.35	-40.9	-42.9	17.7	0.00e+00	0	37	0	0	53	4523
2026-01-24 23:26:41.78	170.86	36.69	-40.1	-42.0	18.6	0.00e+00	0	37	0	0	52	4321
2026-01-24 23:26:44.76	171.35	36.04	-39.8	-41.6	19.2	0.00e+00	0	37	0	0	51	4368
2026-01-24 23:26:47.75	171.82	35.40	-39.7	-41.5	19.4	0.00e+00	0	38	0	0	51	4305
2026-01-24 23:26:50.74	172.27	34.77	-40.0	-41.8	19.2	0.00e+00	0	38	0	0	51	4469
2026-01-24 23:26:53.72	172.71	34.15	-40.0	-41.7	19.3	0.00e+00	0	38	0	0	51	4428
2026-01-24 23:26:56.71	173.13	33.54	-40.7	-42.6	18.4	0.00e+00	0	37	0	0	52	4630
2026-01-24 23:26:59.69	173.53	32.95	-40.4	-42.3	18.5	0.00e+00	0	37	0	0	52	4488
2026-01-24 23:27:02.67	173.92	32.36	-39.8	-41.6	19.1	0.00e+00	0	38	0	0	51	4373
2026-01-24 23:27:05.66	174.30	31.78	-39.1	-40.8	19.9	0.00e+00	0	37	0	0	50	4204
2026-01-24 23:27:08.64	174.67	31.22	-39.0	-40.7	20.1	0.00e+00	0	38	0	0	50	4164
2026-01-24 23:27:11.63	175.02	30.66	-39.1	-40.8	20.1	0.00e+00	0	37	0	0	50	4211
2026-01-24 23:27:14.61	175.36	30.11	-39.1	-40.8	20.1	0.00e+00	0	38	0	0	50	4231
2026-01-24 23:27:17.59	175.69	29.57	-39.3	-41.1	19.9	0.00e+00	0	37	0	0	50	4345
2026-01-24 23:27:20.58	176.01	29.04	-39.9	-41.6	19.4	0.00e+00	0	37	0	0	50	4642
2026-01-24 23:27:23.56	176.32	28.52	-40.0	-41.9	19.1	0.00e+00	0	38	0	0	50	4761
2026-01-24 23:27:26.55	176.62	28.01	-39.9	-41.7	19.2	0.00e+00	0	38	0	0	50	4700
2026-01-24 23:27:29.53	176.92	27.50	-39.9	-41.7	19.2	0.00e+00	0	37	0	0	50	4659
2026-01-24 23:27:32.52	177.20	27.01	-39.7	-41.5	19.3	0.00e+00	0	38	0	0	50	4573
2026-01-24 23:27:35.50	177.47	26.52	-39.4	-41.1	19.7	0.00e+00	0	37	0	0	50	4377
2026-01-24 23:27:38.48	177.74	26.04	-38.7	-40.4	20.3	0.00e+00	0	38	0	0	49	4250
2026-01-24 23:27:41.46	178.00	25.57	-38.3	-39.9	20.7	0.00e+00	0	38	0	0	48	4252
2026-01-24 23:27:44.45	178.25	25.11	-38.3	-39.9	20.7	0.00e+00	0	38	0	0	48	4261
2026-01-24 23:27:47.43	178.50	24.65	-38.6	-40.2	20.6	0.00e+00	0	38	0	0	48	4420
2026-01-24 23:27:50.41	178.74	24.20	-38.7	-40.4	20.5	0.00e+00	0	37	0	0	48	4504
2026-01-24 23:27:53.40	178.97	23.76	-38.7	-40.4	20.4	0.00e+00	0	38	0	0	48	4524
2026-01-24 23:27:56.38	179.19	23.33	-39.0	-40.7	20.1	0.00e+00	0	37	0	0	48	4684
2026-01-24 23:27:59.37	179.42	22.90	-39.1	-40.8	20.0	0.00e+00	0	38	0	0	48	4721
2026-01-24 23:28:02.36	179.63	22.47	-39.1	-40.8	20.0	0.00e+00	0	38	0	0	48	4717
2026-01-24 23:28:05.34	179.84	22.06	-39.1	-40.8	20.0	0.00e+00	0	37	0	0	49	4452
2026-01-24 23:28:08.32	180.04	21.65	-39.2	-40.9	19.9	0.00e+00	0	37	0	0	49	4544
2026-01-24 23:28:11.30	180.24	21.25	-39.0	-40.8	20.0	0.00e+00	0	37	0	0	49	4442
2026-01-24 23:28:14.28	180.44	20.85	-39.0	-40.7	20.1	0.00e+00	0	37	0	0	49	4399
2026-01-24 23:28:17.27	180.63	20.46	-39.0	-40.7	20.0	0.00e+00	0	38	0	0	49	4433
2026-01-24 23:28:20.25	180.81	20.08	-39.1	-40.8	19.9	0.00e+00	0	38	0	0	49	4491
2026-01-24 23:28:23.24	180.99	19.70	-39.2	-41.0	19.7	0.00e+00	0	37	0	0	49	4551
2026-01-24 23:28:26.22	181.17	19.32	-39.2	-41.0	19.7	0.00e+00	0	37	0	0	49	4563
2026-01-24 23:28:29.21	181.34	18.95	-39.1	-40.9	19.7	0.00e+00	0	37	0	0	49	4510
2026-01-24 23:28:32.19	181.51	18.59	-39.1	-40.8	19.7	0.00e+00	0	38	0	0	49	4485
2026-01-24 23:28:35.18	181.67	18.23	-39.2	-40.9	19.6	0.00e+00	0	38	0	0	49	4522
2026-01-24 23:28:38.17	181.84	17.88	-39.3	-41.0	19.5	0.00e+00	0	37	0	0	49	4581
2026-01-24 23:28:41.15	181.99	17.53	-39.4	-41.1	19.5	0.00e+00	0	37	0	0	49	4649
2026-01-24 23:28:44.13	182.15	17.19	-39.4	-41.2	19.5	0.00e+00	0	37	0	0	49	4660
2026-01-24 23:28:47.12	182.30	16.85	-39.4	-41.2	19.5	0.00e+00	0	37	0	0	49	4696
2026-01-24 23:28:50.10	182.45	16.51	-39.4	-41.2	19.6	0.00e+00	0	38	0	0	49	4675
2026-01-24 23:28:53.08	182.59	16.18	-39.5	-41.2	19.5	0.00e+00	0	38	0	0	49	4698
2026-01-24 23:28:56.07	182.74	15.86	-39.6	-41.5	19.3	0.00e+00	0	37	0	0	49	4822
2026-01-24 23:28:59.06	182.87	15.53	-39.6	-41.4	19.3	0.00e+00	0	37	0	0	49	4807
2026-01-24 23:29:02.04	183.01	15.22	-39.6	-41.5	19.3	0.00e+00	0	38	0	0	50	4575
2026-01-24 23:29:05.03	183.15	14.90	-39.8	-41.7	19.1	0.00e+00	0	38	0	0	50	4653
2026-01-24 23:29:08.01	183.28	14.59	-39.9	-41.8	18.9	0.00e+00	0	38	0	0	50	4747
2026-01-24 23:29:11.00	183.41	14.28	-40.0	-41.9	18.8	0.00e+00	0	37	0	0	50	4792
2026-01-24 23:29:13.98	183.53	13.98	-40.2	-42.1	18.6	0.00e+00	0	37	0	0	50	4922
2026-01-24 23:29:16.96	183.66	13.68	-40.2	-42.2	18.5	0.00e+00	0	37	0	0	51	4664
2026-01-24 23:29:19.95	183.78	13.39	-40.4	-42.4	18.4	0.00e+00	0	37	0	0	51	4785
2026-01-24 23:29:22.94	183.90	13.10	-40.4	-42.4	18.3	0.00e+00	0	37	0	0	51	4787
2026-01-24 23:29:25.92	184.02	12.81	-40.4	-42.4	18.3	0.00e+00	0	37	0	0	51	4795
2026-01-24 23:29:28.91	184.13	12.52	-40.3	-42.3	18.4	0.00e+00	0	38	0	0	51	4745
2026-01-24 23:29:31.89	184.24	12.24	-40.3	-42.3	18.3	0.00e+00	0	38	0	0	51	4753
2026-01-24 23:29:34.88	184.36	11.96	-40.3	-42.3	18.3	0.00e+00	0	37	0	0	51	4752
2026-01-24 23:29:37.86	184.46	11.68	-40.5	-42.5	18.1	0.00e+00	0	37	0	0	51	4843
2026-01-24 23:29:40.85	184.57	11.41	-40.6	-42.7	18.0	0.00e+00	0	37	0	0	51	4928
2026-01-24 23:29:43.83	184.68	11.14	-40.6	-42.6	18.0	0.00e+00	0	37	0	0	51	4903
2026-01-24 23:29:46.81	184.78	10.87	-40.6	-42.6	17.8	0.00e+00	0	38	0	0	52	4630
2026-01-24 23:29:49.79	184.88	10.61	-40.4	-42.5	18.0	0.00e+00	0	37	0	0	52	4550
2026-01-24 23:29:52.78	184.99	10.35	-40.5	-42.5	17.8	0.00e+00	0	38	0	0	52	4585
2026-01-24 23:29:55.76	185.08	10.09	-40.5	-42.5	17.8	0.00e+00	0	38	0	0	52	4593
2026-01-24 23:29:58.74	185.18	9.83	-40.5	-42.6	17.7	0.00e+00	0	37	0	0	52	4631
2026-01-24 23:30:01.73	185.28	9.58	-40.5	-42.6	17.8	0.00e+00	0	37	0	0	52	4609
2026-01-24 23:30:04.71	185.37	9.33	-40.5	-42.6	17.7	0.00e+00	0	37	0	0	52	4628
2026-01-24 23:30:07.69	185.46	9.08	-40.6	-42.7	17.6	0.00e+00	0	38	0	0	52	4676
2026-01-24 23:30:10.67	185.56	8.84	-48.4	-62.1	3.8	1.49e+00	0	38	104	0	68	17449
2026-01-24 23:30:13.65	185.65	8.59	-49.5	-62.5	3.8	1.49e+00	0	37	104	0	69	17236
2026-01-24 23:30:16.63	185.73	8.35	-49.6	-62.6	3.8	1.49e+00	0	38	104	0	69	17468
2026-01-24 23:30:19.61	185.82	8.11	-49.7	-62.7	3.8	1.49e+00	0	38	104	0	70	16541
2026-01-24 23:30:22.59	185.91	7.87	-49.7	-62.7	3.8	1.49e+00	0	37	104	0	70	16541
2026-01-24 23:30:25.57	185.99	7.64	-49.6	-62.7	3.8	1.49e+00	0	37	104	0	70	16596
2026-01-24 23:30:28.55	186.08	7.41	-49.7	-62.7	3.8	1.49e+00	0	38	104	0	70	16596
2026-01-24 23:30:31.53	186.16	7.18	-49.7	-62.7	3.8	1.49e+00	0	37	104	0	70	16596
2026-01-24 23:30:34.51	186.24	6.95	-49.5	-62.6	3.8	1.49e+00	0	37	104	0	70	16496
2026-01-24 23:30:37.49	186.32	6.72	-49.4	-62.6	3.8	1.49e+00	0	38	104	0	70	16425
2026-01-24 23:30:40.47	186.40	6.50	-49.4	-62.6	3.8	1.49e+00	0	38	104	0	70	16387
2026-01-24 23:30:43.45	186.48	6.27	-49.4	-62.6	3.8	1.49e+00	0	38	104	0	70	16334
2026-01-24 23:30:46.43	186.55	6.05	-49.4	-62.6	3.8	1.49e+00	0	38	104	0	70	16441
2026-01-24 23:30:49.41	186.63	5.83	-49.4	-62.6	3.8	1.49e+00	0	38	104	0	70	16415
2026-01-24 23:30:52.39	186.70	5.62	-49.4	-62.6	3.8	1.49e+00	0	38	104	0	70	16428
2026-01-24 23:30:55.37	186.78	5.40	-49.4	-62.6	3.8	1.49e+00	0	38	104	0	70	16359
2026-01-24 23:30:58.35	186.85	5.19	-49.4	-62.6	3.8	1.49e+00	0	38	104	0	70	16371
2026-01-24 23:31:01.33	186.92	4.98	-49.4	-62.5	3.8	1.49e+00	0	37	104	0	70	16310

#Closed at: 2026-01-24 23:31:02
#Recorded file [0 MB]: D:/Data/31040_260125_021808.dat