passes_logs/2026/01/24/T1/T1__20260124_194348_KHAYYAM_rec.log

#Pass ID: 20260124_194348_KHAYYAM
#Satellite: KHAYYAM
#Configuration: KHAYYAM_480M
#almurnet v.1.7.20251203
#Start time: 2026-01-24 19:43:48

#Version: 2.0.20230620
#Station: T1
#Location: 37.570604 lon 55.790049 lat
#TLE: 1 53370U 22096A   26024.21077653  .00010360  00000+0  42114-3 0  9996
#TLE: 2 53370  97.3550 291.0558 0001968 107.3963 252.7490 15.24731392192640

#Time	Az	El	Level	Level2	SNR	BER	BlckErr	Temp	State	Recorded	gain1	gain2
2026-01-24 19:43:48.33	44.16	5.02	-50.9	-55.6	3.6	0.00e+00	0	39	0	0	73	24651
2026-01-24 19:43:50.31	44.49	5.12	-50.9	-55.6	3.7	0.00e+00	0	39	104	0	72	26132
2026-01-24 19:43:52.30	44.83	5.21	-50.9	-55.6	3.7	0.00e+00	0	40	104	0	72	26052
2026-01-24 19:43:54.28	45.16	5.31	-50.9	-55.6	3.7	0.00e+00	0	40	104	0	72	26127
2026-01-24 19:43:56.27	45.51	5.41	-50.9	-55.6	3.7	0.00e+00	0	40	104	0	72	26051
2026-01-24 19:43:58.26	45.85	5.51	-50.9	-55.6	3.7	0.00e+00	0	40	104	0	72	26076
2026-01-24 19:44:00.24	46.19	5.61	-50.9	-55.6	3.7	0.00e+00	0	40	104	0	72	26052
2026-01-24 19:44:02.23	46.54	5.71	-50.9	-55.6	3.7	0.00e+00	0	41	104	0	72	26082
2026-01-24 19:44:04.22	46.90	5.81	-50.9	-55.6	3.7	0.00e+00	0	41	104	0	72	26077
2026-01-24 19:44:06.20	47.25	5.91	-50.8	-55.6	3.7	0.00e+00	0	41	104	0	72	25990
2026-01-24 19:44:08.19	47.61	6.00	-50.8	-55.6	3.7	0.00e+00	0	41	104	0	72	25999
2026-01-24 19:44:10.17	47.97	6.10	-50.8	-55.5	3.7	0.00e+00	0	41	104	0	72	25954
2026-01-24 19:44:12.16	48.33	6.20	-50.8	-55.6	3.7	0.00e+00	0	41	104	0	72	25993
2026-01-24 19:44:14.15	48.70	6.29	-50.8	-55.5	3.7	0.00e+00	0	41	104	0	72	25966
2026-01-24 19:44:16.13	49.07	6.39	-50.8	-55.6	3.7	0.00e+00	0	42	104	0	72	25982
2026-01-24 19:44:18.12	49.44	6.49	-50.8	-55.6	3.7	0.00e+00	0	42	104	0	72	26013
2026-01-24 19:44:20.11	49.82	6.58	-50.8	-55.5	3.7	0.00e+00	0	42	104	0	72	25934
2026-01-24 19:44:22.09	50.20	6.68	-50.8	-55.5	3.7	0.00e+00	0	42	104	0	72	25951
2026-01-24 19:44:24.08	50.58	6.77	-50.8	-55.5	3.7	0.00e+00	0	42	104	0	72	25952
2026-01-24 19:44:26.06	50.96	6.87	-50.8	-55.6	3.7	0.00e+00	0	42	104	0	72	25981
2026-01-24 19:44:28.05	51.35	6.96	-50.8	-55.5	3.7	0.00e+00	0	42	104	0	72	25866
2026-01-24 19:44:30.03	51.74	7.05	-50.8	-55.5	3.7	0.00e+00	0	42	104	0	72	25916
2026-01-24 19:44:32.02	52.14	7.15	-50.8	-55.5	3.7	0.00e+00	0	42	104	0	72	25815
2026-01-24 19:44:34.01	52.53	7.24	-50.8	-55.5	3.7	0.00e+00	0	42	104	0	72	25939
2026-01-24 19:44:35.99	52.93	7.33	-50.8	-55.5	3.7	0.00e+00	0	42	104	0	72	25902
2026-01-24 19:44:37.98	53.34	7.42	-50.8	-55.5	3.7	0.00e+00	0	43	104	0	72	25910
2026-01-24 19:44:39.96	53.74	7.51	-50.8	-55.5	3.7	0.00e+00	0	42	104	0	72	25919
2026-01-24 19:44:41.95	54.16	7.60	-50.8	-55.5	3.7	0.00e+00	0	43	104	0	72	25917
2026-01-24 19:44:43.94	54.57	7.69	-50.8	-55.5	3.7	0.00e+00	0	43	104	0	72	25929
2026-01-24 19:44:45.92	54.98	7.78	-50.8	-55.5	3.7	0.00e+00	0	43	104	0	72	25941
2026-01-24 19:44:47.91	55.40	7.87	-50.8	-55.5	3.7	0.00e+00	0	43	104	0	72	25896
2026-01-24 19:44:49.90	55.83	7.96	-50.8	-55.5	3.7	0.00e+00	0	43	104	0	72	25901
2026-01-24 19:44:51.88	56.25	8.04	-50.8	-55.5	3.7	0.00e+00	0	43	104	0	72	25911
2026-01-24 19:44:53.87	56.68	8.13	-50.8	-55.5	3.7	0.00e+00	0	43	104	0	72	25906
2026-01-24 19:44:55.85	57.11	8.21	-50.8	-55.5	3.7	0.00e+00	0	43	104	0	72	25861
2026-01-24 19:44:57.84	57.55	8.30	-50.8	-55.5	3.7	0.00e+00	0	43	104	0	72	25872
2026-01-24 19:44:59.83	57.99	8.38	-50.8	-55.5	3.7	0.00e+00	0	43	104	0	72	25865
2026-01-24 19:45:01.81	58.43	8.46	-50.8	-55.5	3.7	0.00e+00	0	43	104	0	72	25923
2026-01-24 19:45:03.80	58.87	8.55	-50.8	-55.5	3.7	0.00e+00	0	43	104	0	72	25868
2026-01-24 19:45:05.78	59.32	8.63	-50.8	-55.5	3.7	0.00e+00	0	44	104	0	72	25912
2026-01-24 19:45:07.77	59.77	8.71	-50.8	-55.5	3.7	0.00e+00	0	44	104	0	72	25905
2026-01-24 19:45:09.76	60.23	8.78	-50.8	-55.5	3.7	0.00e+00	0	43	104	0	72	25889
2026-01-24 19:45:11.74	60.68	8.86	-50.8	-55.5	3.7	0.00e+00	0	43	104	0	72	25802
2026-01-24 19:45:13.73	61.14	8.94	-50.8	-55.5	3.7	0.00e+00	0	43	104	0	72	25800
2026-01-24 19:45:15.72	61.61	9.01	-50.8	-55.5	3.7	0.00e+00	0	44	104	0	72	25850
2026-01-24 19:45:17.71	62.07	9.09	-51.2	-55.9	3.7	0.00e+00	0	43	104	0	72	27074
2026-01-24 19:45:19.69	62.54	9.16	-51.1	-55.7	3.7	0.00e+00	0	44	104	0	73	25012
2026-01-24 19:45:21.69	63.01	9.24	-51.2	-55.6	3.7	0.00e+00	0	44	104	0	73	24692
2026-01-24 19:45:23.67	63.49	9.31	-51.2	-55.6	3.7	0.00e+00	0	44	104	0	73	24765
2026-01-24 19:45:25.66	63.97	9.38	-51.0	-55.5	3.7	0.00e+00	0	44	104	0	73	24334
2026-01-24 19:45:27.65	64.45	9.44	-50.9	-55.4	3.6	0.00e+00	0	44	104	0	73	24177
2026-01-24 19:45:29.64	64.93	9.51	-51.5	-55.9	3.7	0.00e+00	0	44	104	0	73	25676
2026-01-24 19:45:31.63	65.42	9.58	-51.2	-55.4	3.7	0.00e+00	0	44	104	0	73	23965
2026-01-24 19:45:33.62	65.91	9.64	-51.3	-55.8	3.7	0.00e+00	0	44	104	0	74	23889
2026-01-24 19:45:35.62	66.40	9.71	-50.8	-55.4	3.7	0.00e+00	0	44	104	0	73	24021
2026-01-24 19:45:37.61	66.89	9.77	-51.2	-55.8	3.7	0.00e+00	0	44	104	0	73	25265
2026-01-24 19:45:39.60	67.39	9.83	-51.4	-56.0	3.7	0.00e+00	0	44	104	0	73	25730
2026-01-24 19:45:41.58	67.89	9.89	-51.5	-56.0	3.7	0.00e+00	0	44	104	0	73	25953
2026-01-24 19:45:43.57	68.39	9.95	-51.4	-55.9	3.7	0.00e+00	0	44	104	0	73	25572
2026-01-24 19:45:45.56	68.90	10.00	-51.2	-55.7	3.7	0.00e+00	0	44	104	0	73	24880
2026-01-24 19:45:47.55	69.40	10.06	-51.3	-55.7	3.7	0.00e+00	0	44	104	0	73	24969
2026-01-24 19:45:49.54	69.91	10.11	-51.3	-55.7	3.7	0.00e+00	0	44	104	0	73	25029
2026-01-24 19:45:51.53	70.42	10.16	-51.3	-55.8	3.7	0.00e+00	0	44	104	0	73	25147
2026-01-24 19:45:53.52	70.94	10.21	-50.8	-55.3	3.7	0.00e+00	0	44	104	0	73	23792
2026-01-24 19:45:55.51	71.45	10.26	-50.4	-54.4	3.7	0.00e+00	0	44	104	0	72	22688
2026-01-24 19:45:57.50	71.97	10.31	-51.0	-55.0	3.7	0.00e+00	0	44	104	0	72	24254
2026-01-24 19:45:59.49	72.49	10.35	-51.2	-55.4	3.7	0.00e+00	0	44	104	0	73	24063
2026-01-24 19:46:01.48	73.01	10.40	-51.2	-55.3	3.7	0.00e+00	0	44	104	0	73	23959
2026-01-24 19:46:03.47	73.54	10.44	-51.1	-55.6	3.7	0.00e+00	0	44	104	0	73	24797
2026-01-24 19:46:05.46	74.06	10.48	-51.1	-55.6	3.7	0.00e+00	0	44	104	0	73	24693
2026-01-24 19:46:07.45	74.59	10.52	-51.2	-55.7	3.7	0.00e+00	0	44	104	0	73	24943
2026-01-24 19:46:09.44	75.12	10.55	-51.3	-55.5	3.7	0.00e+00	0	44	104	0	73	24259
2026-01-24 19:46:11.43	75.65	10.59	-51.1	-55.6	3.7	0.00e+00	0	44	104	0	73	24583
2026-01-24 19:46:13.42	76.18	10.62	-50.7	-55.1	3.7	0.00e+00	0	44	104	0	73	23266
2026-01-24 19:46:15.41	76.71	10.65	-50.6	-54.8	3.7	0.00e+00	0	44	104	0	73	22512
2026-01-24 19:46:17.40	77.25	10.68	-50.9	-55.2	3.7	0.00e+00	0	44	104	0	72	24932
2026-01-24 19:46:19.39	77.78	10.71	-51.2	-55.7	3.7	0.00e+00	0	44	104	0	73	25023
2026-01-24 19:46:21.38	78.32	10.74	-50.9	-55.5	3.7	0.00e+00	0	44	104	0	73	24253
2026-01-24 19:46:23.37	78.86	10.76	-51.0	-55.5	3.7	0.00e+00	0	44	104	0	73	24499
2026-01-24 19:46:25.36	79.40	10.78	-50.6	-54.9	3.7	0.00e+00	0	44	104	0	73	22775
2026-01-24 19:46:27.34	79.94	10.80	-50.5	-54.6	3.7	0.00e+00	0	44	104	0	72	23164
2026-01-24 19:46:29.33	80.48	10.82	-50.6	-54.4	3.7	0.00e+00	0	44	104	0	72	22804
2026-01-24 19:46:31.32	81.02	10.83	-50.8	-55.4	3.7	0.00e+00	0	44	104	0	72	25434
2026-01-24 19:46:33.31	81.56	10.85	-51.1	-55.6	3.7	0.00e+00	0	44	104	0	72	26132
2026-01-24 19:46:35.30	82.11	10.86	-51.2	-55.6	3.7	0.00e+00	0	44	104	0	73	24724
2026-01-24 19:46:37.29	82.65	10.87	-50.8	-55.6	3.7	0.00e+00	0	44	104	0	73	24708
2026-01-24 19:46:39.28	83.20	10.88	-50.5	-55.4	3.7	0.00e+00	0	45	104	0	72	25654
2026-01-24 19:46:41.27	83.74	10.88	-50.8	-55.6	3.7	0.00e+00	0	44	104	0	72	26210
2026-01-24 19:46:43.26	84.29	10.89	-50.6	-55.6	3.7	0.00e+00	0	44	104	0	72	26009
2026-01-24 19:46:45.25	84.83	10.89	-50.6	-55.5	3.7	0.00e+00	0	44	104	0	72	25789
2026-01-24 19:46:47.24	85.38	10.89	-50.7	-55.6	3.7	0.00e+00	0	44	104	0	72	26174
2026-01-24 19:46:49.23	85.92	10.89	-50.5	-55.0	3.7	0.00e+00	0	45	104	0	72	24513
2026-01-24 19:46:51.21	86.47	10.88	-50.3	-55.1	3.7	0.00e+00	0	44	104	0	72	24662
2026-01-24 19:46:53.20	87.01	10.88	-51.0	-55.3	3.7	0.00e+00	0	45	104	0	72	25383
2026-01-24 19:46:55.19	87.56	10.87	-51.1	-55.5	3.7	0.00e+00	0	45	104	0	72	25701
2026-01-24 19:46:57.18	88.10	10.86	-50.9	-55.6	3.7	0.00e+00	0	44	104	0	72	26026
2026-01-24 19:46:59.17	88.64	10.85	-51.0	-55.7	3.7	0.00e+00	0	45	104	0	72	26450
2026-01-24 19:47:01.15	89.18	10.83	-51.2	-55.9	3.7	0.00e+00	0	44	104	0	73	25615
2026-01-24 19:47:03.14	89.73	10.82	-51.0	-55.8	3.7	0.00e+00	0	44	104	0	73	25352
2026-01-24 19:47:05.13	90.27	10.80	-51.4	-55.9	3.7	0.00e+00	0	45	104	0	73	25600
2026-01-24 19:47:07.12	90.81	10.78	-51.4	-56.0	3.7	0.00e+00	0	44	104	0	73	25723
2026-01-24 19:47:09.10	91.35	10.76	-51.3	-55.8	3.7	0.00e+00	0	45	104	0	73	25198
2026-01-24 19:47:11.09	91.89	10.73	-51.1	-55.6	3.7	0.00e+00	0	45	104	0	73	24705
2026-01-24 19:47:13.08	92.43	10.71	-51.1	-55.8	3.7	0.00e+00	0	45	104	0	73	25288
2026-01-24 19:47:15.07	92.96	10.68	-51.0	-55.6	3.7	0.00e+00	0	45	104	0	73	24667
2026-01-24 19:47:17.06	93.50	10.65	-51.4	-55.9	3.7	0.00e+00	0	45	104	0	73	25395
2026-01-24 19:47:19.05	94.04	10.62	-51.2	-55.7	3.7	0.00e+00	0	44	104	0	73	25041
2026-01-24 19:47:21.04	94.57	10.59	-51.1	-55.5	3.7	0.00e+00	0	45	104	0	73	24512
2026-01-24 19:47:23.03	95.10	10.55	-50.8	-55.4	3.7	0.00e+00	0	44	104	0	73	24165
2026-01-24 19:47:25.02	95.63	10.51	-51.4	-55.9	3.7	0.00e+00	0	45	104	0	73	25479
2026-01-24 19:47:27.00	96.16	10.48	-51.3	-55.8	3.7	0.00e+00	0	45	104	0	73	25256
2026-01-24 19:47:28.99	96.68	10.44	-51.3	-55.8	3.7	0.00e+00	0	45	104	0	73	25374
2026-01-24 19:47:30.98	97.21	10.39	-51.4	-55.8	3.7	0.00e+00	0	45	104	0	73	25355
2026-01-24 19:47:32.97	97.73	10.35	-51.6	-56.1	3.7	0.00e+00	0	45	104	0	73	26019
2026-01-24 19:47:34.96	98.26	10.30	-51.5	-56.0	3.7	0.00e+00	0	45	104	0	73	25873
2026-01-24 19:47:36.95	98.77	10.26	-51.4	-56.0	3.7	0.00e+00	0	45	104	0	73	25689
2026-01-24 19:47:38.94	99.29	10.21	-51.5	-56.0	3.7	0.00e+00	0	45	104	0	73	25797
2026-01-24 19:47:40.93	99.81	10.16	-51.5	-56.0	3.7	0.00e+00	0	45	104	0	73	25735
2026-01-24 19:47:42.91	100.32	10.11	-51.5	-56.0	3.7	0.00e+00	0	45	104	0	73	25844
2026-01-24 19:47:44.91	100.83	10.05	-51.3	-55.9	3.7	0.00e+00	0	45	104	0	73	25389
2026-01-24 19:47:46.90	101.34	10.00	-51.5	-56.0	3.7	0.00e+00	0	45	104	0	73	25679
2026-01-24 19:47:48.89	101.85	9.94	-51.5	-56.0	3.7	0.00e+00	0	44	104	0	73	25897
2026-01-24 19:47:50.87	102.35	9.88	-51.4	-55.9	3.7	0.00e+00	0	45	104	0	73	25562
2026-01-24 19:47:52.87	102.85	9.82	-51.5	-56.0	3.7	0.00e+00	0	45	104	0	73	25811
2026-01-24 19:47:54.86	103.35	9.76	-51.5	-56.0	3.7	0.00e+00	0	45	104	0	73	25715
2026-01-24 19:47:56.85	103.85	9.70	-51.4	-55.9	3.7	0.00e+00	0	45	104	0	73	25674
2026-01-24 19:47:58.83	104.34	9.63	-51.4	-55.9	3.7	0.00e+00	0	44	104	0	73	25532
2026-01-24 19:48:00.82	104.83	9.57	-51.4	-55.9	3.7	0.00e+00	0	45	104	0	73	25661
2026-01-24 19:48:02.81	105.32	9.50	-51.3	-55.9	3.7	0.00e+00	0	44	104	0	73	25565
2026-01-24 19:48:04.80	105.81	9.43	-51.1	-55.8	3.7	0.00e+00	0	44	104	0	73	25245
2026-01-24 19:48:06.79	106.29	9.36	-50.9	-55.7	3.7	0.00e+00	0	45	104	0	73	24963
2026-01-24 19:48:08.78	106.77	9.29	-51.3	-55.9	3.7	0.00e+00	0	45	104	0	73	25433
2026-01-24 19:48:10.77	107.25	9.22	-51.2	-55.8	3.7	0.00e+00	0	45	104	0	73	25148
2026-01-24 19:48:12.76	107.72	9.15	-51.4	-55.9	3.7	0.00e+00	0	45	104	0	73	25448
2026-01-24 19:48:14.75	108.20	9.07	-51.3	-55.8	3.7	0.00e+00	0	45	104	0	73	25312
2026-01-24 19:48:16.74	108.67	9.00	-51.6	-56.0	3.7	0.00e+00	0	45	104	0	73	25936
2026-01-24 19:48:18.73	109.13	8.92	-52.0	-56.4	3.7	0.00e+00	0	45	104	0	74	25636
2026-01-24 19:48:20.71	109.59	8.85	-51.8	-56.3	3.7	0.00e+00	0	45	104	0	74	25291
2026-01-24 19:48:22.68	110.05	8.77	-51.8	-56.5	3.7	0.00e+00	0	45	104	0	75	24332
2026-01-24 19:48:24.67	110.51	8.69	-51.2	-56.3	3.7	0.00e+00	0	45	104	0	74	25208
2026-01-24 19:48:26.65	110.96	8.61	-51.0	-56.1	3.7	0.00e+00	0	45	104	0	73	26219
2026-01-24 19:48:28.64	111.41	8.53	-51.4	-56.4	3.7	0.00e+00	0	45	104	0	73	27022
2026-01-24 19:48:30.63	111.86	8.44	-51.6	-56.5	3.7	0.00e+00	0	45	104	0	73	27324
2026-01-24 19:48:32.61	112.30	8.36	-51.7	-56.5	3.7	0.00e+00	0	45	104	0	74	25793
2026-01-24 19:48:34.60	112.74	8.28	-51.6	-56.5	3.7	0.00e+00	0	45	104	0	74	25736
2026-01-24 19:48:36.59	113.18	8.19	-51.5	-56.2	3.7	0.00e+00	0	45	104	0	74	25077
2026-01-24 19:48:38.57	113.61	8.11	-51.6	-56.2	3.7	0.00e+00	0	45	104	0	74	24960
2026-01-24 19:48:40.56	114.05	8.02	-51.6	-56.2	3.7	0.00e+00	0	45	104	0	74	24980
2026-01-24 19:48:42.54	114.47	7.93	-51.6	-56.2	3.7	0.00e+00	0	45	104	0	74	24893
2026-01-24 19:48:44.53	114.90	7.84	-51.6	-56.2	3.7	0.00e+00	0	45	104	0	74	24981
2026-01-24 19:48:46.51	115.32	7.75	-51.6	-56.2	3.7	0.00e+00	0	45	104	0	74	24934
2026-01-24 19:48:48.50	115.74	7.66	-51.6	-56.2	3.7	0.00e+00	0	45	104	0	74	24923
2026-01-24 19:48:50.49	116.16	7.57	-51.6	-56.2	3.7	0.00e+00	0	45	104	0	74	24935
2026-01-24 19:48:52.47	116.57	7.48	-51.6	-56.2	3.7	0.00e+00	0	45	104	0	74	24970
2026-01-24 19:48:54.46	116.98	7.39	-51.6	-56.1	3.7	0.00e+00	0	45	104	0	74	24804
2026-01-24 19:48:56.44	117.38	7.30	-51.6	-56.2	3.7	0.00e+00	0	45	104	0	74	24850
2026-01-24 19:48:58.43	117.79	7.21	-51.6	-56.2	3.7	0.00e+00	0	45	104	0	74	24868
2026-01-24 19:49:00.41	118.19	7.11	-51.6	-56.2	3.7	0.00e+00	0	45	104	0	74	24827
2026-01-24 19:49:02.39	118.58	7.02	-51.6	-56.2	3.7	0.00e+00	0	45	104	0	74	24856
2026-01-24 19:49:04.38	118.98	6.92	-51.6	-56.2	3.7	0.00e+00	0	45	104	0	74	24835
2026-01-24 19:49:06.37	119.37	6.83	-51.6	-56.2	3.7	0.00e+00	0	45	104	0	74	24883
2026-01-24 19:49:08.35	119.75	6.73	-51.6	-56.2	3.7	0.00e+00	0	45	104	0	74	24950
2026-01-24 19:49:10.34	120.14	6.64	-51.6	-56.1	3.7	0.00e+00	0	45	104	0	74	24796
2026-01-24 19:49:12.32	120.52	6.54	-51.6	-56.2	3.7	0.00e+00	0	45	104	0	74	24837
2026-01-24 19:49:14.31	120.90	6.45	-51.6	-56.1	3.7	0.00e+00	0	45	104	0	74	24804
2026-01-24 19:49:16.30	121.27	6.35	-51.6	-56.2	3.7	0.00e+00	0	45	104	0	74	24857
2026-01-24 19:49:18.28	121.65	6.25	-51.6	-56.1	3.7	0.00e+00	0	45	104	0	74	24772
2026-01-24 19:49:20.27	122.01	6.15	-51.6	-56.2	3.7	0.00e+00	0	45	104	0	74	24827
2026-01-24 19:49:22.25	122.38	6.06	-51.6	-56.1	3.7	0.00e+00	0	45	104	0	74	24788
2026-01-24 19:49:24.24	122.74	5.96	-51.6	-56.2	3.7	0.00e+00	0	45	104	0	74	24858
2026-01-24 19:49:26.23	123.10	5.86	-51.6	-56.1	3.7	0.00e+00	0	45	104	0	74	24748
2026-01-24 19:49:28.21	123.46	5.76	-51.6	-56.1	3.7	0.00e+00	0	45	104	0	74	24802
2026-01-24 19:49:30.20	123.81	5.66	-51.6	-56.2	3.7	0.00e+00	0	45	104	0	74	24854
2026-01-24 19:49:32.18	124.16	5.56	-51.6	-56.1	3.7	0.00e+00	0	45	104	0	74	24753
2026-01-24 19:49:34.17	124.51	5.46	-51.6	-56.2	3.7	0.00e+00	0	45	104	0	74	24828
2026-01-24 19:49:36.16	124.86	5.36	-51.6	-56.1	3.7	0.00e+00	0	45	104	0	74	24775
2026-01-24 19:49:38.14	125.20	5.26	-51.6	-56.1	3.7	0.00e+00	0	45	104	0	74	24753
2026-01-24 19:49:40.13	125.54	5.16	-51.6	-56.2	3.7	0.00e+00	0	45	104	0	74	24839
2026-01-24 19:49:42.12	125.88	5.06	-51.6	-56.1	3.7	0.00e+00	0	45	104	0	74	24792
2026-01-24 19:49:44.10	126.21	4.96	-51.6	-56.1	3.7	0.00e+00	0	45	104	0	74	24787

#Closed at: 2026-01-24 19:49:45
#Recorded file [0 MB]: D:/Data/31040_260124_224348.dat