passes_logs/2026/01/24/T1/T1__20260124_220802_SUOMI_NPP_rec.log

#Pass ID: 20260124_220802_SUOMI NPP
#Satellite: SUOMI NPP
#Configuration: NPP
#almurnet v.1.7.20251203
#Start time: 2026-01-24 22:08:02

#Version: 2.0.20230620
#Station: T1
#Location: 37.570604 lon 55.790049 lat
#TLE: 1 37849U 11061A   26024.54906732  .00000185  00000+0  10878-3 0  9990
#TLE: 2 37849  98.7821 326.5159 0002200  47.3746 312.7615 14.19529340738061

#Time	Az	El	Level	Level2	SNR	BER	BlckErr	Temp	State	Recorded	gain1	gain2
2026-01-24 22:08:02.13	31.25	5.00	-48.1	-63.4	3.8	1.49e+00	0	37	0	0	68	20143
2026-01-24 22:08:05.11	31.53	5.16	-48.0	-63.2	3.8	1.49e+00	0	37	104	0	66	22111
2026-01-24 22:08:08.09	31.81	5.33	-47.9	-63.2	3.8	1.49e+00	0	38	104	0	66	22036
2026-01-24 22:08:11.07	32.10	5.50	-47.9	-63.2	3.8	1.49e+00	0	38	104	0	66	22137
2026-01-24 22:08:14.05	32.39	5.66	-47.9	-63.2	3.8	1.49e+00	0	38	104	0	66	22113
2026-01-24 22:08:17.03	32.68	5.83	-47.9	-63.2	3.8	1.49e+00	0	38	104	0	66	22010
2026-01-24 22:08:20.01	32.98	6.00	-47.9	-63.2	3.8	1.49e+00	0	38	104	0	66	22083
2026-01-24 22:08:22.99	33.28	6.17	-47.9	-63.2	3.8	1.49e+00	0	38	104	0	66	22014
2026-01-24 22:08:25.97	33.58	6.34	-47.9	-63.1	3.8	1.49e+00	0	38	104	0	66	21943
2026-01-24 22:08:28.94	33.89	6.51	-47.9	-63.1	3.8	1.49e+00	0	38	104	0	66	21846
2026-01-24 22:08:31.93	34.20	6.68	-47.9	-63.1	3.8	1.49e+00	0	38	104	0	66	21873
2026-01-24 22:08:34.91	34.51	6.85	-47.9	-63.1	3.8	1.49e+00	0	38	104	0	66	21855
2026-01-24 22:08:37.89	34.83	7.02	-47.9	-63.1	3.8	1.49e+00	0	38	104	0	66	21970
2026-01-24 22:08:40.87	35.15	7.19	-47.9	-63.1	3.8	1.49e+00	0	39	104	0	66	21978
2026-01-24 22:08:43.84	35.47	7.37	-47.9	-63.0	3.8	1.49e+00	0	38	104	0	66	21653
2026-01-24 22:08:46.82	35.80	7.54	-47.9	-62.9	3.8	1.49e+00	0	39	104	0	66	21447
2026-01-24 22:08:49.80	36.13	7.71	-47.9	-62.8	3.8	1.49e+00	0	39	104	0	66	21129
2026-01-24 22:08:52.78	36.46	7.89	-47.9	-62.6	3.8	1.49e+00	0	39	104	0	66	20684
2026-01-24 22:08:55.76	36.80	8.06	-47.9	-62.9	3.8	1.49e+00	0	39	104	0	66	21358
2026-01-24 22:08:58.74	37.15	8.23	-47.9	-63.1	3.8	1.49e+00	0	39	104	0	66	21851
2026-01-24 22:09:01.72	37.49	8.41	-47.9	-63.1	3.8	1.49e+00	0	39	104	0	66	21778
2026-01-24 22:09:04.70	37.85	8.58	-47.9	-62.7	3.8	1.49e+00	0	39	104	0	66	20836
2026-01-24 22:09:07.68	38.20	8.76	-47.8	-61.9	3.8	1.49e+00	0	39	104	0	66	19166
2026-01-24 22:09:10.66	38.56	8.93	-47.4	-57.4	5.1	1.14e+00	0	39	0	1048576	66	11354
2026-01-24 22:09:13.64	38.92	9.11	-47.4	-56.9	5.7	1.49e-03	0	39	0	6291456	65	11365
2026-01-24 22:09:16.62	39.29	9.29	-45.9	-51.3	10.4	5.55e-01	0	39	0	9437184	63	6670
2026-01-24 22:09:19.61	39.66	9.46	-43.1	-46.2	15.7	0.00e+00	0	39	0	15728640	58	4950
2026-01-24 22:09:22.59	40.04	9.64	-42.9	-45.9	16.1	0.00e+00	0	39	0	20971520	57	5060
2026-01-24 22:09:25.58	40.42	9.82	-42.6	-45.4	16.5	0.00e+00	0	39	0	26214400	57	4806
2026-01-24 22:09:28.56	40.81	9.99	-42.7	-45.5	16.4	0.00e+00	0	39	0	32505856	56	5157
2026-01-24 22:09:31.54	41.20	10.17	-42.5	-45.3	16.7	0.00e+00	0	39	0	37748736	56	5021
2026-01-24 22:09:34.53	41.59	10.35	-42.4	-45.2	16.8	0.00e+00	0	39	0	42991616	56	4941
2026-01-24 22:09:37.51	41.99	10.52	-42.2	-45.0	16.9	0.00e+00	0	39	0	49283072	56	4843
2026-01-24 22:09:40.49	42.40	10.70	-42.2	-45.0	17.1	0.00e+00	0	39	0	54525952	56	4838
2026-01-24 22:09:43.48	42.81	10.88	-42.2	-44.9	17.1	0.00e+00	0	39	0	59768832	56	4796
2026-01-24 22:09:46.47	43.22	11.06	-42.1	-44.8	17.2	0.00e+00	0	39	0	66060288	56	4735
2026-01-24 22:09:49.45	43.64	11.24	-42.2	-44.8	17.2	0.00e+00	0	39	0	71303168	56	4757
2026-01-24 22:09:52.44	44.06	11.41	-42.6	-45.4	16.7	0.00e+00	0	39	0	76546048	56	5060
2026-01-24 22:09:55.43	44.49	11.59	-42.5	-45.3	16.8	0.00e+00	0	39	0	82837504	56	5004
2026-01-24 22:09:58.41	44.93	11.77	-42.4	-45.2	16.9	0.00e+00	0	39	0	88080384	56	4940
2026-01-24 22:10:01.39	45.37	11.94	-42.2	-44.9	17.1	0.00e+00	0	39	0	93323264	56	4798
2026-01-24 22:10:04.38	45.81	12.12	-42.1	-44.8	17.2	0.00e+00	0	39	0	99614720	56	4742
2026-01-24 22:10:07.36	46.26	12.30	-42.1	-44.7	17.3	0.00e+00	0	39	0	104857600	56	4705
2026-01-24 22:10:10.35	46.71	12.47	-41.7	-44.2	17.7	0.00e+00	0	39	0	110100480	55	4693
2026-01-24 22:10:13.33	47.17	12.65	-41.1	-43.6	18.3	0.00e+00	0	39	0	116391936	54	4603
2026-01-24 22:10:16.32	47.64	12.83	-41.2	-43.7	18.2	0.00e+00	0	39	0	121634816	54	4670
2026-01-24 22:10:19.30	48.11	13.00	-41.5	-44.0	18.0	0.00e+00	0	39	0	126877696	54	4834
2026-01-24 22:10:22.29	48.59	13.18	-41.6	-44.1	17.8	0.00e+00	0	39	0	133169152	54	4897
2026-01-24 22:10:25.27	49.07	13.35	-41.4	-43.9	18.0	0.00e+00	0	39	0	138412032	54	4792
2026-01-24 22:10:28.25	49.55	13.52	-41.1	-43.6	18.3	0.00e+00	0	39	0	143654912	54	4599
2026-01-24 22:10:31.24	50.05	13.70	-41.1	-43.5	18.4	0.00e+00	0	39	0	149946368	54	4589
2026-01-24 22:10:34.22	50.55	13.87	-41.1	-43.5	18.4	0.00e+00	0	39	0	155189248	54	4588
2026-01-24 22:10:37.20	51.05	14.04	-41.1	-43.6	18.3	0.00e+00	0	39	0	160432128	54	4617
2026-01-24 22:10:40.19	51.56	14.21	-41.4	-43.9	18.0	0.00e+00	0	39	0	166723584	54	4804
2026-01-24 22:10:43.17	52.07	14.38	-41.5	-44.0	18.0	0.00e+00	0	39	0	171966464	54	4859
2026-01-24 22:10:46.16	52.60	14.55	-41.2	-43.7	18.2	0.00e+00	0	39	0	177209344	54	4681
2026-01-24 22:10:49.14	53.12	14.71	-41.3	-43.7	18.1	0.00e+00	0	39	0	183500800	54	4703
2026-01-24 22:10:52.13	53.66	14.88	-41.5	-44.1	17.9	0.00e+00	0	39	0	188743680	54	4890
2026-01-24 22:10:55.12	54.20	15.05	-41.8	-44.4	17.6	0.00e+00	0	39	0	193986560	54	5091
2026-01-24 22:10:58.09	54.74	15.21	-41.8	-44.4	17.6	0.00e+00	0	39	0	200278016	54	5058
2026-01-24 22:11:01.08	55.29	15.37	-41.9	-44.6	17.4	0.00e+00	0	39	0	205520896	54	5175
2026-01-24 22:11:04.06	55.84	15.53	-42.2	-44.9	17.1	0.00e+00	0	39	0	210763776	55	5095
2026-01-24 22:11:07.05	56.41	15.69	-42.4	-45.1	16.9	0.00e+00	0	39	0	217055232	55	5215
2026-01-24 22:11:10.03	56.97	15.85	-42.2	-44.8	17.2	0.00e+00	0	39	0	222298112	55	5032
2026-01-24 22:11:13.01	57.55	16.01	-42.2	-44.9	17.1	0.00e+00	0	39	0	227540992	55	5053
2026-01-24 22:11:16.00	58.13	16.16	-42.1	-44.7	17.3	0.00e+00	0	39	0	233832448	55	4973
2026-01-24 22:11:18.98	58.71	16.32	-42.4	-45.2	16.9	0.00e+00	0	39	0	239075328	55	5229
2026-01-24 22:11:21.97	59.30	16.47	-42.3	-45.0	17.0	0.00e+00	0	39	0	244318208	55	5152
2026-01-24 22:11:24.95	59.90	16.62	-42.2	-44.9	17.2	0.00e+00	0	39	0	250609664	55	5047
2026-01-24 22:11:27.94	60.51	16.77	-42.8	-45.8	16.5	0.00e+00	0	39	0	255852544	56	5289
2026-01-24 22:11:30.93	61.12	16.91	-42.9	-45.8	16.4	0.00e+00	0	40	0	261095424	56	5308
2026-01-24 22:11:33.92	61.73	17.05	-42.4	-45.2	17.1	0.00e+00	0	39	0	267386880	56	4929
2026-01-24 22:11:36.90	62.35	17.19	-42.4	-45.1	17.0	0.00e+00	0	39	0	272629760	56	4920
2026-01-24 22:11:39.89	62.98	17.33	-42.4	-45.1	17.1	0.00e+00	0	39	0	277872640	56	4905
2026-01-24 22:11:42.87	63.61	17.47	-41.9	-44.5	17.5	0.00e+00	0	39	0	284164096	55	4829
2026-01-24 22:11:45.86	64.25	17.60	-42.1	-44.8	17.2	0.00e+00	0	39	0	289406976	55	4994
2026-01-24 22:11:48.84	64.89	17.73	-42.0	-44.7	17.4	0.00e+00	0	39	0	294649856	55	4934
2026-01-24 22:11:51.83	65.54	17.86	-41.3	-43.7	18.3	0.00e+00	0	39	0	300941312	54	4661
2026-01-24 22:11:54.81	66.19	17.98	-41.4	-43.9	18.2	0.00e+00	0	39	0	306184192	54	4771
2026-01-24 22:11:57.80	66.85	18.11	-41.8	-44.3	17.8	0.00e+00	0	39	0	311427072	54	5015
2026-01-24 22:12:00.78	67.51	18.22	-41.4	-43.9	18.2	0.00e+00	0	39	0	317718528	54	4777
2026-01-24 22:12:03.76	68.18	18.34	-41.5	-43.9	18.1	0.00e+00	0	40	0	322961408	54	4784
2026-01-24 22:12:06.75	68.85	18.45	-41.1	-43.5	18.6	0.00e+00	0	39	0	328204288	54	4547
2026-01-24 22:12:09.73	69.53	18.56	-40.6	-42.8	19.2	0.00e+00	0	40	0	334495744	53	4478
2026-01-24 22:12:12.72	70.22	18.66	-41.1	-43.4	18.6	0.00e+00	0	39	0	339738624	53	4806
2026-01-24 22:12:15.70	70.90	18.77	-41.0	-43.4	18.6	0.00e+00	0	39	0	344981504	53	4770
2026-01-24 22:12:18.69	71.60	18.86	-41.0	-43.3	18.7	0.00e+00	0	39	0	351272960	53	4738
2026-01-24 22:12:21.67	72.29	18.96	-40.9	-43.2	18.8	0.00e+00	0	39	0	356515840	53	4704
2026-01-24 22:12:24.66	72.99	19.05	-41.0	-43.3	18.7	0.00e+00	0	40	0	361758720	53	4723
2026-01-24 22:12:27.64	73.70	19.14	-41.2	-43.6	18.4	0.00e+00	0	39	0	368050176	53	4906
2026-01-24 22:12:30.63	74.41	19.22	-40.7	-43.0	19.0	0.00e+00	0	40	0	373293056	53	4571
2026-01-24 22:12:33.62	75.12	19.30	-41.0	-43.4	18.6	0.00e+00	0	39	0	378535936	53	4777
2026-01-24 22:12:36.60	75.84	19.37	-41.6	-44.1	18.0	0.00e+00	0	39	0	384827392	54	4890
2026-01-24 22:12:39.58	76.55	19.44	-41.8	-44.3	17.8	0.00e+00	0	39	0	390070272	54	5022
2026-01-24 22:12:42.57	77.28	19.51	-42.2	-44.9	17.2	0.00e+00	0	39	0	395313152	55	5062
2026-01-24 22:12:45.55	78.00	19.57	-41.7	-44.2	17.8	0.00e+00	0	39	0	401604608	55	4690
2026-01-24 22:12:48.53	78.73	19.63	-41.5	-44.0	18.1	0.00e+00	0	39	0	406847488	54	4837
2026-01-24 22:12:51.51	79.46	19.68	-41.4	-43.8	18.2	0.00e+00	0	39	0	413138944	54	4759
2026-01-24 22:12:54.50	80.20	19.73	-41.3	-43.7	18.4	0.00e+00	0	39	0	418381824	54	4668
2026-01-24 22:12:57.48	80.93	19.77	-41.7	-44.2	17.9	0.00e+00	0	39	0	423624704	54	4969
2026-01-24 22:13:00.47	81.67	19.81	-42.0	-44.8	17.3	0.00e+00	0	39	0	429916160	54	5285
2026-01-24 22:13:03.45	82.41	19.85	-42.0	-44.8	17.4	0.00e+00	0	39	0	435159040	55	4988
2026-01-24 22:13:06.44	83.15	19.88	-42.0	-44.7	17.5	0.00e+00	0	39	0	440401920	55	4928
2026-01-24 22:13:09.43	83.89	19.90	-41.5	-44.0	18.1	0.00e+00	0	39	0	446693376	54	4827
2026-01-24 22:13:12.41	84.64	19.92	-41.8	-44.5	17.6	0.00e+00	0	39	0	451936256	54	5137
2026-01-24 22:13:15.39	85.38	19.94	-41.9	-44.6	17.6	0.00e+00	0	39	0	457179136	54	5169
2026-01-24 22:13:18.38	86.13	19.95	-41.9	-44.5	17.6	0.00e+00	0	39	0	463470592	54	5146
2026-01-24 22:13:21.36	86.87	19.95	-42.4	-45.3	16.9	0.00e+00	0	39	0	468713472	55	5331
2026-01-24 22:13:24.35	87.62	19.96	-42.0	-44.6	17.5	0.00e+00	0	39	0	473956352	55	4912
2026-01-24 22:13:27.33	88.36	19.95	-42.1	-44.8	17.4	0.00e+00	0	40	0	480247808	55	5017
2026-01-24 22:13:30.32	89.11	19.94	-41.9	-44.6	17.5	0.00e+00	0	40	0	485490688	55	4885
2026-01-24 22:13:33.30	89.85	19.93	-41.6	-44.1	17.9	0.00e+00	0	39	0	490733568	55	4651
2026-01-24 22:13:36.28	90.60	19.91	-41.3	-43.7	18.4	0.00e+00	0	39	0	497025024	54	4675
2026-01-24 22:13:39.27	91.34	19.89	-41.5	-44.0	18.0	0.00e+00	0	39	0	502267904	54	4844
2026-01-24 22:13:42.26	92.09	19.86	-41.8	-44.4	17.7	0.00e+00	0	39	0	507510784	54	5060
2026-01-24 22:13:45.24	92.83	19.83	-41.6	-44.2	18.0	0.00e+00	0	40	0	513802240	54	4930
2026-01-24 22:13:48.23	93.57	19.80	-41.5	-44.0	18.1	0.00e+00	0	40	0	519045120	54	4821
2026-01-24 22:13:51.21	94.30	19.75	-41.6	-44.1	18.0	0.00e+00	0	39	0	524288000	54	4875
2026-01-24 22:13:54.20	95.04	19.71	-41.6	-44.1	18.0	0.00e+00	0	39	0	530579456	54	4881
2026-01-24 22:13:57.18	95.77	19.66	-41.2	-43.6	18.4	0.00e+00	0	39	0	535822336	54	4633
2026-01-24 22:14:00.17	96.51	19.60	-41.6	-44.1	18.0	0.00e+00	0	40	0	541065216	54	4893
2026-01-24 22:14:03.15	97.23	19.54	-41.6	-44.0	18.0	0.00e+00	0	39	0	547356672	54	4857
2026-01-24 22:14:06.14	97.96	19.48	-42.1	-44.8	17.4	0.00e+00	0	39	0	552599552	54	5289
2026-01-24 22:14:09.12	98.68	19.41	-42.2	-44.9	17.1	0.00e+00	0	39	0	557842432	55	5099
2026-01-24 22:14:12.10	99.40	19.34	-41.3	-43.7	18.3	0.00e+00	0	39	0	564133888	54	4695
2026-01-24 22:14:15.09	100.12	19.26	-41.3	-43.7	18.3	0.00e+00	0	39	0	569376768	54	4668
2026-01-24 22:14:18.07	100.83	19.18	-41.5	-43.9	18.1	0.00e+00	0	39	0	574619648	54	4811
2026-01-24 22:14:21.06	101.54	19.10	-40.9	-43.2	18.6	0.00e+00	0	39	0	580911104	53	4686
2026-01-24 22:14:24.04	102.24	19.01	-41.2	-43.6	18.4	0.00e+00	0	39	0	586153984	53	4888
2026-01-24 22:14:27.02	102.94	18.92	-41.2	-43.6	18.4	0.00e+00	0	39	0	591396864	53	4892
2026-01-24 22:14:30.00	103.64	18.82	-40.8	-43.1	18.8	0.00e+00	0	40	0	597688320	53	4648
2026-01-24 22:14:32.99	104.33	18.72	-40.7	-43.0	18.9	0.00e+00	0	39	0	602931200	53	4598
2026-01-24 22:14:35.97	105.02	18.62	-40.9	-43.2	18.7	0.00e+00	0	39	0	608174080	53	4700
2026-01-24 22:14:38.95	105.70	18.51	-40.8	-43.1	18.8	0.00e+00	0	39	0	614465536	53	4640
2026-01-24 22:14:41.94	106.38	18.40	-41.2	-43.6	18.3	0.00e+00	0	39	0	619708416	53	4921
2026-01-24 22:14:44.92	107.05	18.29	-41.5	-44.0	18.0	0.00e+00	0	40	0	624951296	53	5119
2026-01-24 22:14:47.90	107.72	18.17	-41.1	-43.6	18.4	0.00e+00	0	39	0	631242752	53	4892
2026-01-24 22:14:50.89	108.39	18.05	-41.1	-43.5	18.5	0.00e+00	0	40	0	636485632	53	4846
2026-01-24 22:14:53.88	109.05	17.92	-41.3	-43.8	18.2	0.00e+00	0	39	0	641728512	53	4995
2026-01-24 22:14:56.87	109.70	17.80	-42.1	-44.7	17.3	0.00e+00	0	40	0	648019968	54	5264
2026-01-24 22:14:59.85	110.35	17.67	-41.7	-44.2	17.8	0.00e+00	0	39	0	653262848	54	4980
2026-01-24 22:15:02.84	110.99	17.53	-42.0	-44.7	17.3	0.00e+00	0	39	0	658505728	54	5247
2026-01-24 22:15:05.82	111.63	17.40	-41.9	-44.5	17.6	0.00e+00	0	39	0	664797184	55	4825
2026-01-24 22:15:08.81	112.26	17.26	-42.0	-44.6	17.4	0.00e+00	0	39	0	670040064	55	4908
2026-01-24 22:15:11.80	112.89	17.12	-42.5	-45.3	16.7	0.00e+00	0	39	0	675282944	55	5335
2026-01-24 22:15:14.78	113.51	16.98	-42.6	-45.4	16.7	0.00e+00	0	39	0	681574400	55	5360
2026-01-24 22:15:17.76	114.12	16.83	-42.2	-44.9	17.1	0.00e+00	0	39	0	686817280	55	5055
2026-01-24 22:15:20.75	114.73	16.69	-42.2	-44.9	17.1	0.00e+00	0	39	0	692060160	55	5083
2026-01-24 22:15:23.73	115.33	16.54	-42.2	-44.9	17.1	0.00e+00	0	39	0	698351616	55	5070
2026-01-24 22:15:26.71	115.93	16.39	-42.1	-44.7	17.3	0.00e+00	0	39	0	703594496	55	4936
2026-01-24 22:15:29.70	116.52	16.23	-42.3	-45.0	17.0	0.00e+00	0	39	0	708837376	55	5155
2026-01-24 22:15:32.68	117.11	16.08	-43.3	-46.3	16.0	0.00e+00	0	39	0	715128832	57	5308
2026-01-24 22:15:35.67	117.69	15.92	-42.9	-45.8	16.5	0.00e+00	0	39	0	720371712	57	4998
2026-01-24 22:15:38.65	118.26	15.76	-42.9	-45.7	16.5	0.00e+00	0	40	0	725614592	57	4983
2026-01-24 22:15:41.64	118.83	15.60	-42.6	-45.4	16.8	0.00e+00	0	40	0	731906048	57	4792
2026-01-24 22:15:44.63	119.39	15.44	-42.4	-45.0	17.3	0.00e+00	0	39	0	737148928	56	4855
2026-01-24 22:15:47.62	119.95	15.28	-42.2	-44.8	17.5	0.00e+00	0	39	0	742391808	56	4735
2026-01-24 22:15:50.60	120.50	15.11	-42.5	-45.2	17.1	0.00e+00	0	39	0	748683264	56	4973
2026-01-24 22:15:53.59	121.04	14.95	-42.4	-45.1	17.2	0.00e+00	0	39	0	753926144	56	4881
2026-01-24 22:15:56.57	121.58	14.78	-42.6	-45.4	17.0	0.00e+00	0	39	0	759169024	56	5061
2026-01-24 22:15:59.55	122.11	14.61	-42.8	-45.6	16.8	0.00e+00	0	39	0	765460480	56	5166
2026-01-24 22:16:02.54	122.64	14.44	-42.5	-45.2	17.1	0.00e+00	0	39	0	770703360	56	4966
2026-01-24 22:16:05.52	123.16	14.27	-42.3	-45.0	17.3	0.00e+00	0	40	0	775946240	56	4829
2026-01-24 22:16:08.51	123.67	14.10	-42.7	-45.4	16.9	0.00e+00	0	39	0	782237696	56	5099
2026-01-24 22:16:11.49	124.18	13.93	-42.2	-44.8	17.5	0.00e+00	0	39	0	787480576	56	4720
2026-01-24 22:16:14.48	124.69	13.75	-41.7	-44.2	17.9	0.00e+00	0	39	0	792723456	55	4666
2026-01-24 22:16:17.46	125.18	13.58	-42.0	-44.6	17.5	0.00e+00	0	39	0	799014912	55	4922
2026-01-24 22:16:20.44	125.67	13.40	-43.0	-45.9	16.5	0.00e+00	0	39	0	804257792	56	5344
2026-01-24 22:16:23.43	126.16	13.23	-42.6	-45.3	17.1	0.00e+00	0	39	0	809500672	56	5010
2026-01-24 22:16:26.41	126.64	13.05	-41.7	-44.2	17.9	0.00e+00	0	39	0	815792128	55	4653
2026-01-24 22:16:29.40	127.12	12.88	-41.4	-43.8	18.2	0.00e+00	0	39	0	821035008	54	4749
2026-01-24 22:16:32.38	127.59	12.70	-41.7	-44.2	17.9	0.00e+00	0	39	0	826277888	54	4942
2026-01-24 22:16:35.36	128.05	12.52	-41.6	-44.2	17.9	0.00e+00	0	39	0	832569344	54	4932
2026-01-24 22:16:38.35	128.51	12.34	-41.6	-44.2	17.8	0.00e+00	0	39	0	837812224	54	4979
2026-01-24 22:16:41.33	128.96	12.17	-42.1	-44.9	17.2	0.00e+00	0	39	0	843055104	54	5369
2026-01-24 22:16:44.31	129.41	11.99	-42.9	-45.8	16.5	0.00e+00	0	39	0	849346560	56	5305
2026-01-24 22:16:47.30	129.85	11.81	-42.4	-45.1	17.1	0.00e+00	0	39	0	854589440	56	4919
2026-01-24 22:16:50.28	130.29	11.63	-42.5	-45.2	17.0	0.00e+00	0	39	0	859832320	56	4959
2026-01-24 22:16:53.26	130.72	11.45	-42.8	-45.7	16.6	0.00e+00	0	39	0	866123776	56	5223
2026-01-24 22:16:56.24	131.15	11.27	-42.4	-45.2	17.0	0.00e+00	0	39	0	871366656	56	4931
2026-01-24 22:16:59.23	131.57	11.09	-42.1	-44.8	17.4	0.00e+00	0	39	0	876609536	56	4712
2026-01-24 22:17:02.21	131.99	10.91	-41.4	-43.9	18.0	0.00e+00	0	39	0	882900992	54	4790
2026-01-24 22:17:05.19	132.40	10.73	-41.8	-44.4	17.5	0.00e+00	0	39	0	888143872	54	5092
2026-01-24 22:17:08.18	132.81	10.56	-42.0	-44.7	17.2	0.00e+00	0	39	0	893386752	54	5249
2026-01-24 22:17:11.16	133.21	10.38	-42.1	-44.8	17.1	0.00e+00	0	39	0	899678208	55	5026
2026-01-24 22:17:14.14	133.61	10.20	-42.2	-45.0	16.9	0.00e+00	0	39	0	904921088	55	5114
2026-01-24 22:17:17.13	134.01	10.02	-42.9	-45.9	16.1	0.00e+00	0	39	0	910163968	56	5366
2026-01-24 22:17:20.11	134.39	9.84	-42.9	-45.9	16.0	0.00e+00	0	39	0	916455424	56	5389
2026-01-24 22:17:23.10	134.78	9.66	-42.3	-45.1	16.8	0.00e+00	0	39	0	921698304	56	4893
2026-01-24 22:17:26.08	135.16	9.48	-42.1	-44.8	17.1	0.00e+00	0	39	0	926941184	56	4723
2026-01-24 22:17:29.07	135.53	9.30	-41.4	-44.0	17.7	0.00e+00	0	39	0	933232640	54	4836
2026-01-24 22:17:32.05	135.90	9.12	-42.0	-44.8	17.0	0.00e+00	0	39	0	938475520	54	5286
2026-01-24 22:17:35.04	136.27	8.95	-47.9	-61.8	3.8	3.06e-04	0	39	104	943718400	66	18923
2026-01-24 22:17:38.02	136.63	8.77	-48.5	-63.7	3.8	1.49e+00	0	39	104	943718400	67	22094
2026-01-24 22:17:41.00	136.99	8.59	-48.6	-63.8	3.8	1.49e+00	0	39	104	943718400	67	22351
2026-01-24 22:17:43.97	137.34	8.42	-48.7	-64.0	3.8	1.49e+00	0	40	104	943718400	68	21676
2026-01-24 22:17:46.95	137.69	8.24	-48.7	-64.1	3.8	1.49e+00	0	39	104	943718400	68	21800
2026-01-24 22:17:49.94	138.04	8.06	-48.7	-64.2	3.8	1.49e+00	0	39	104	943718400	68	22013
2026-01-24 22:17:52.92	138.38	7.89	-48.6	-64.1	3.8	1.49e+00	0	39	104	943718400	68	21954
2026-01-24 22:17:55.90	138.72	7.71	-48.7	-64.1	3.8	1.49e+00	0	39	104	943718400	68	21892
2026-01-24 22:17:58.88	139.05	7.54	-48.7	-64.1	3.8	1.49e+00	0	39	104	943718400	68	21802
2026-01-24 22:18:01.85	139.38	7.36	-48.7	-64.1	3.8	1.49e+00	0	39	104	943718400	68	21843
2026-01-24 22:18:04.83	139.71	7.19	-48.6	-64.1	3.8	1.49e+00	0	39	104	943718400	68	21781
2026-01-24 22:18:07.81	140.03	7.01	-48.6	-64.0	3.8	1.49e+00	0	39	104	943718400	68	21709
2026-01-24 22:18:10.79	140.35	6.84	-48.6	-64.0	3.8	1.49e+00	0	39	104	943718400	68	21717
2026-01-24 22:18:13.77	140.66	6.67	-48.6	-64.1	3.8	1.49e+00	0	39	104	943718400	68	21757
2026-01-24 22:18:16.75	140.97	6.49	-48.6	-64.1	3.8	1.49e+00	0	39	104	943718400	68	21809
2026-01-24 22:18:19.73	141.28	6.32	-48.6	-64.0	3.8	1.49e+00	0	39	104	943718400	68	21567
2026-01-24 22:18:22.70	141.58	6.15	-48.6	-64.0	3.8	1.49e+00	0	39	104	943718400	68	21644
2026-01-24 22:18:25.67	141.88	5.98	-48.6	-64.0	3.8	1.49e+00	0	39	104	943718400	68	21659
2026-01-24 22:18:28.64	142.18	5.81	-48.6	-64.0	3.8	1.49e+00	0	39	104	943718400	68	21622
2026-01-24 22:18:31.62	142.47	5.64	-48.6	-64.0	3.8	1.49e+00	0	39	104	943718400	68	21622
2026-01-24 22:18:34.60	142.76	5.47	-48.6	-64.0	3.8	1.49e+00	0	39	104	943718400	68	21683
2026-01-24 22:18:37.58	143.05	5.30	-48.6	-64.0	3.8	1.49e+00	0	39	104	943718400	68	21642
2026-01-24 22:18:40.56	143.33	5.13	-48.6	-64.0	3.8	1.49e+00	0	39	104	943718400	68	21707
2026-01-24 22:18:43.54	143.62	4.96	-48.6	-64.0	3.8	1.49e+00	0	39	104	943718400	68	21559

#Closed at: 2026-01-24 22:18:44
#Recorded file [943 MB]: D:/Data/31040_260125_010802.dat