passes_logs/2026/01/24/T1/T1__20260124_095712_SUOMI_NPP_rec.log

#Pass ID: 20260124_095712_SUOMI NPP
#Satellite: SUOMI NPP
#Configuration: NPP
#almurnet v.1.7.20251203
#Start time: 2026-01-24 09:57:13

#Version: 2.0.20230620
#Station: T1
#Location: 37.570604 lon 55.790049 lat
#TLE: 1 37849U 11061A   26023.63275593  .00000212  00000+0  12133-3 0  9990
#TLE: 2 37849  98.7820 325.6074 0002234  48.9695 311.1673 14.19528901737937

#Time	Az	El	Level	Level2	SNR	BER	BlckErr	Temp	State	Recorded	gain1	gain2
2026-01-24 09:57:13.54	158.63	5.06	-48.6	-63.7	3.8	1.49e+00	0	35	0	0	68	20986
2026-01-24 09:57:17.52	158.63	5.35	-48.5	-63.7	3.8	1.49e+00	0	36	104	0	69	19681
2026-01-24 09:57:21.49	158.62	5.64	-48.5	-63.8	3.8	1.49e+00	0	36	104	0	69	19903
2026-01-24 09:57:25.48	158.62	5.93	-48.5	-63.3	3.8	1.49e+00	0	36	104	0	69	18795
2026-01-24 09:57:29.45	158.61	6.23	-48.5	-62.7	3.8	1.49e+00	0	36	104	0	68	18526
2026-01-24 09:57:33.43	158.61	6.53	-48.5	-62.9	3.8	1.49e+00	0	36	104	0	68	19138
2026-01-24 09:57:37.41	158.60	6.83	-48.5	-63.7	3.8	1.49e+00	0	36	104	0	68	20800
2026-01-24 09:57:41.39	158.59	7.14	-48.5	-63.8	3.8	1.49e+00	0	37	104	0	68	21065
2026-01-24 09:57:45.37	158.59	7.46	-48.4	-62.3	3.8	1.49e+00	0	37	104	0	68	17804
2026-01-24 09:57:49.34	158.58	7.77	-47.8	-57.2	5.5	7.10e-01	0	37	0	3145728	67	10481
2026-01-24 09:57:53.32	158.57	8.09	-47.1	-53.8	8.4	5.15e-02	0	37	0	10485760	66	7514
2026-01-24 09:57:57.30	158.56	8.42	-46.7	-52.9	9.4	1.63e-02	0	37	0	17825792	65	7160
2026-01-24 09:58:01.27	158.55	8.74	-47.3	-54.9	7.4	9.89e-02	0	37	0	25165824	65	8985
2026-01-24 09:58:05.25	158.54	9.08	-48.1	-59.2	4.5	9.86e-01	0	37	0	32505856	66	13975
2026-01-24 09:58:09.23	158.54	9.42	-45.5	-49.9	12.8	8.69e-05	0	37	0	36700160	62	6018
2026-01-24 09:58:13.20	158.53	9.76	-44.6	-48.3	14.3	3.00e-06	0	37	0	41943040	61	5318
2026-01-24 09:58:17.17	158.51	10.10	-44.6	-48.3	14.2	5.30e-06	0	37	0	49283072	61	5334
2026-01-24 09:58:21.15	158.50	10.46	-44.0	-47.2	15.4	7.00e-07	0	37	0	56623104	59	5251
2026-01-24 09:58:25.13	158.49	10.81	-43.6	-46.6	15.9	2.43e-02	0	37	0	63963136	59	4907
2026-01-24 09:58:29.10	158.48	11.17	-43.3	-46.3	16.3	0.00e+00	0	37	0	71303168	58	4984
2026-01-24 09:58:33.08	158.47	11.54	-43.5	-46.5	16.1	0.00e+00	0	37	0	79691776	58	5145
2026-01-24 09:58:37.05	158.45	11.91	-43.1	-46.0	16.6	0.00e+00	0	38	0	87031808	58	4846
2026-01-24 09:58:41.03	158.44	12.29	-43.1	-46.0	16.6	0.00e+00	0	37	0	94371840	58	4829
2026-01-24 09:58:45.00	158.43	12.68	-42.9	-45.7	16.9	9.44e-03	0	38	0	101711872	57	4937
2026-01-24 09:58:48.98	158.41	13.07	-42.7	-45.4	17.2	0.00e+00	0	38	0	109051904	57	4766
2026-01-24 09:58:52.96	158.39	13.47	-42.6	-45.3	17.2	0.00e+00	0	38	0	116391936	57	4723
2026-01-24 09:58:56.93	158.38	13.87	-42.3	-44.9	17.6	0.00e+00	0	38	0	123731968	56	4803
2026-01-24 09:59:00.91	158.36	14.28	-42.2	-44.7	17.8	0.00e+00	0	38	0	131072000	56	4665
2026-01-24 09:59:04.88	158.34	14.70	-42.1	-44.6	15.2	0.00e+00	0	38	0	138412032	56	4647
2026-01-24 09:59:08.86	158.32	15.13	-41.6	-44.1	17.9	0.00e+00	0	38	0	146800640	55	4646
2026-01-24 09:59:12.84	158.30	15.56	-41.4	-43.9	18.0	0.00e+00	0	38	0	154140672	54	4794
2026-01-24 09:59:16.81	158.28	16.00	-41.3	-43.8	18.1	0.00e+00	0	38	0	161480704	54	4748
2026-01-24 09:59:20.79	158.26	16.45	-41.0	-43.5	18.4	0.00e+00	0	38	0	168820736	54	4575
2026-01-24 09:59:24.76	158.24	16.91	-40.9	-43.3	18.6	0.00e+00	0	38	0	176160768	53	4729
2026-01-24 09:59:28.74	158.21	17.37	-40.7	-43.0	18.8	0.00e+00	0	38	0	183500800	53	4585
2026-01-24 09:59:32.71	158.19	17.85	-40.8	-43.2	18.8	0.00e+00	0	38	0	190840832	53	4653
2026-01-24 09:59:36.69	158.16	18.33	-40.8	-43.2	18.7	0.00e+00	0	38	0	198180864	53	4691
2026-01-24 09:59:40.66	158.13	18.83	-41.0	-43.4	18.5	0.00e+00	0	38	0	205520896	53	4786
2026-01-24 09:59:44.64	158.11	19.33	-41.0	-43.4	18.5	0.00e+00	0	38	0	213909504	53	4814
2026-01-24 09:59:48.62	158.08	19.85	-40.8	-43.2	18.8	0.00e+00	0	38	0	221249536	53	4670
2026-01-24 09:59:52.59	158.04	20.37	-41.0	-43.5	18.5	0.00e+00	0	38	0	228589568	53	4843
2026-01-24 09:59:56.57	158.01	20.91	-41.3	-43.8	18.2	0.00e+00	0	38	0	235929600	53	5004
2026-01-24 10:00:00.55	157.98	21.46	-41.4	-44.0	18.0	0.00e+00	0	38	0	243269632	53	5156
2026-01-24 10:00:04.53	157.94	22.02	-41.3	-43.8	18.2	0.00e+00	0	38	0	250609664	53	5015
2026-01-24 10:00:08.50	157.90	22.59	-41.2	-43.6	18.4	0.00e+00	0	38	0	257949696	53	4926
2026-01-24 10:00:12.48	157.86	23.18	-41.1	-43.4	18.5	0.00e+00	0	38	0	265289728	53	4814
2026-01-24 10:00:16.45	157.82	23.78	-40.9	-43.2	18.8	0.00e+00	0	38	0	272629760	53	4686
2026-01-24 10:00:20.43	157.78	24.39	-40.7	-42.9	19.1	0.00e+00	0	38	0	279969792	53	4543
2026-01-24 10:00:24.40	157.73	25.02	-40.9	-43.3	18.8	0.00e+00	0	38	0	288358400	53	4718
2026-01-24 10:00:28.38	157.68	25.67	-40.8	-43.1	18.9	0.00e+00	0	38	0	295698432	53	4639
2026-01-24 10:00:32.36	157.63	26.33	-40.5	-42.8	19.2	0.00e+00	0	38	0	303038464	52	4713
2026-01-24 10:00:36.33	157.58	27.01	-41.2	-43.6	18.4	0.00e+00	0	38	0	310378496	53	4925
2026-01-24 10:00:40.31	157.52	27.70	-41.9	-44.5	17.7	0.00e+00	0	38	0	317718528	54	5111
2026-01-24 10:00:44.29	157.46	28.41	-41.7	-44.2	17.9	0.00e+00	0	38	0	325058560	54	4973
2026-01-24 10:00:48.26	157.40	29.14	-42.0	-44.8	17.4	0.00e+00	0	38	0	332398592	54	5280
2026-01-24 10:00:52.25	157.33	29.90	-42.9	-45.9	16.5	0.00e+00	0	38	0	339738624	56	5349
2026-01-24 10:00:56.22	157.26	30.67	-42.5	-45.4	17.0	0.00e+00	0	38	0	348127232	56	5085
2026-01-24 10:01:00.20	157.19	31.46	-43.1	-46.2	16.2	0.00e+00	0	38	0	355467264	57	5258
2026-01-24 10:01:04.18	157.11	32.27	-44.0	-47.4	15.0	7.00e-07	0	38	0	362807296	59	5402
2026-01-24 10:01:08.15	157.02	33.11	-44.2	-47.7	14.8	0.00e+00	0	38	0	370147328	59	5569
2026-01-24 10:01:12.13	156.94	33.97	-44.0	-47.4	15.1	0.00e+00	0	38	0	377487360	59	5362
2026-01-24 10:01:16.10	156.84	34.85	-42.3	-45.0	17.4	0.00e+00	0	38	0	384827392	56	4820
2026-01-24 10:01:20.08	156.74	35.77	-41.5	-43.9	18.3	0.00e+00	0	38	0	392167424	54	4799
2026-01-24 10:01:24.06	156.63	36.70	-41.2	-43.5	18.7	0.00e+00	0	38	0	399507456	54	4584
2026-01-24 10:01:28.04	156.52	37.67	-40.5	-42.7	19.5	0.00e+00	0	38	0	406847488	51	4959
2026-01-24 10:01:32.02	156.40	38.66	-40.7	-43.0	19.3	0.00e+00	0	38	0	415236096	52	4829
2026-01-24 10:01:36.00	156.27	39.69	-40.5	-42.7	19.6	0.00e+00	0	38	0	422576128	52	4661
2026-01-24 10:01:39.97	156.13	40.74	-40.5	-42.6	19.6	0.00e+00	0	38	0	429916160	52	4642
2026-01-24 10:01:43.95	155.98	41.82	-40.8	-43.0	19.3	0.00e+00	0	38	0	437256192	53	4575
2026-01-24 10:01:47.93	155.82	42.94	-41.4	-43.7	18.7	0.00e+00	0	38	0	444596224	54	4660
2026-01-24 10:01:51.90	155.65	44.09	-42.6	-45.3	17.3	0.00e+00	0	38	0	451936256	55	5300
2026-01-24 10:01:55.88	155.46	45.28	-42.6	-45.1	17.6	0.00e+00	0	38	0	459276288	57	4636
2026-01-24 10:01:59.85	155.25	46.50	-44.0	-47.0	15.9	0.00e+00	0	38	0	466616320	58	5441
2026-01-24 10:02:03.83	155.03	47.76	-44.0	-47.1	15.9	0.00e+00	0	38	0	473956352	60	4883
2026-01-24 10:02:07.80	154.79	49.05	-42.9	-45.5	17.3	0.00e+00	0	38	0	482344960	57	4855
2026-01-24 10:02:11.78	154.53	50.38	-41.6	-43.9	18.7	0.00e+00	0	38	0	489684992	55	4515
2026-01-24 10:02:15.76	154.24	51.76	-41.6	-44.0	18.7	0.00e+00	0	38	0	497025024	54	4847
2026-01-24 10:02:19.74	153.92	53.17	-42.7	-45.3	17.6	0.00e+00	0	38	0	504365056	55	5295
2026-01-24 10:02:23.71	153.56	54.62	-40.9	-43.0	19.6	0.00e+00	0	38	0	511705088	53	4588
2026-01-24 10:02:27.69	153.17	56.11	-42.2	-44.7	18.4	0.00e+00	0	38	0	519045120	55	4932
2026-01-24 10:02:31.67	152.73	57.65	-43.5	-46.1	17.3	0.00e+00	0	38	0	526385152	57	5210
2026-01-24 10:02:35.65	152.23	59.22	-43.9	-46.7	16.8	0.00e+00	0	38	0	533725184	59	4969
2026-01-24 10:02:39.62	151.67	60.83	-44.1	-47.1	16.4	0.00e+00	0	38	0	541065216	59	5160
2026-01-24 10:02:43.59	151.03	62.47	-42.8	-45.3	18.2	0.00e+00	0	38	0	549453824	57	4755
2026-01-24 10:02:47.57	150.29	64.16	-40.7	-42.7	20.4	0.00e+00	0	38	0	556793856	53	4441
2026-01-24 10:02:51.55	149.44	65.88	-42.1	-44.4	19.0	0.00e+00	0	38	0	564133888	55	4799
2026-01-24 10:02:55.52	148.43	67.63	-44.4	-47.2	16.8	0.00e+00	0	38	0	571473920	60	4969
2026-01-24 10:02:59.51	147.23	69.42	-44.7	-47.7	16.2	0.00e+00	0	38	0	578813952	61	4952
2026-01-24 10:03:03.48	145.78	71.22	-44.0	-46.8	17.0	0.00e+00	0	38	0	586153984	59	5000
2026-01-24 10:03:07.46	144.00	73.04	-41.3	-43.4	19.9	0.00e+00	0	38	0	593494016	53	4812
2026-01-24 10:03:11.44	141.76	74.87	-44.0	-46.8	17.0	0.00e+00	0	38	0	600834048	58	5336
2026-01-24 10:03:15.42	138.88	76.70	-45.7	-49.3	14.6	0.00e+00	0	38	0	608174080	61	5988
2026-01-24 10:03:19.39	135.05	78.50	-45.8	-49.6	13.7	2.20e-06	0	38	0	616562688	62	5848
2026-01-24 10:03:23.37	129.77	80.26	-44.4	-47.4	16.2	0.00e+00	0	38	0	623902720	60	5052
2026-01-24 10:03:27.34	122.23	81.90	-41.0	-43.2	19.6	0.00e+00	0	38	0	631242752	54	4420
2026-01-24 10:03:31.32	111.04	83.36	-41.6	-43.9	19.0	0.00e+00	0	38	0	638582784	53	5082
2026-01-24 10:03:35.29	94.64	84.44	-41.3	-43.6	19.2	0.00e+00	0	38	0	645922816	54	4631
2026-01-24 10:03:39.26	73.08	84.89	-41.1	-43.4	19.4	0.00e+00	0	38	0	653262848	53	4765
2026-01-24 10:03:43.24	50.96	84.56	-43.1	-45.9	17.3	0.00e+00	0	38	0	660602880	56	5356
2026-01-24 10:03:47.21	33.64	83.56	-40.9	-43.0	19.6	0.00e+00	0	38	0	667942912	53	4589
2026-01-24 10:03:51.19	21.73	82.15	-42.9	-45.5	17.5	0.00e+00	0	38	0	675282944	56	5124
2026-01-24 10:03:55.17	13.71	80.53	-43.9	-46.8	16.2	0.00e+00	0	38	0	682622976	59	5014
2026-01-24 10:03:59.14	8.15	78.79	-45.9	-50.2	13.1	0.00e+00	0	38	0	691011584	62	6258
2026-01-24 10:04:03.12	4.13	76.99	-42.0	-44.4	18.4	0.00e+00	0	38	0	698351616	54	5065
2026-01-24 10:04:07.10	1.12	75.17	-41.5	-43.8	19.0	0.00e+00	0	38	0	705691648	55	4459
2026-01-24 10:04:11.08	358.79	73.34	-40.9	-43.1	19.6	0.00e+00	0	38	0	713031680	53	4637
2026-01-24 10:04:15.06	356.95	71.52	-43.1	-45.8	17.2	0.00e+00	0	38	0	720371712	57	5022
2026-01-24 10:04:19.04	355.45	69.71	-43.1	-45.7	17.4	0.00e+00	0	38	0	727711744	58	4658
2026-01-24 10:04:23.01	354.22	67.94	-44.8	-48.1	15.2	0.00e+00	0	38	0	735051776	60	5526
2026-01-24 10:04:26.99	353.19	66.18	-43.9	-47.0	16.1	0.00e+00	0	38	0	742391808	59	5105
2026-01-24 10:04:30.97	352.31	64.46	-43.5	-46.4	16.8	0.00e+00	0	38	0	750780416	58	5072
2026-01-24 10:04:34.95	351.56	62.77	-42.3	-44.9	18.1	0.00e+00	0	38	0	758120448	56	4796
2026-01-24 10:04:38.93	350.91	61.12	-40.0	-42.0	20.5	0.00e+00	0	38	0	765460480	51	4588
2026-01-24 10:04:42.90	350.34	59.51	-40.1	-42.1	20.5	0.00e+00	0	38	0	772800512	52	4385
2026-01-24 10:04:46.88	349.83	57.94	-43.1	-45.8	17.1	0.00e+00	0	38	0	780140544	57	5001
2026-01-24 10:04:50.86	349.38	56.41	-41.2	-43.5	19.3	0.00e+00	0	38	0	787480576	53	4826
2026-01-24 10:04:54.84	348.98	54.91	-40.5	-42.7	20.0	0.00e+00	0	38	0	794820608	52	4652
2026-01-24 10:04:58.81	348.62	53.46	-42.6	-45.1	18.0	0.00e+00	0	38	0	802160640	56	4891
2026-01-24 10:05:02.79	348.30	52.05	-43.6	-46.5	16.7	0.00e+00	0	38	0	809500672	57	5445
2026-01-24 10:05:06.77	348.01	50.67	-43.3	-46.1	17.1	0.00e+00	0	38	0	817889280	58	4877
2026-01-24 10:05:10.75	347.74	49.34	-44.0	-47.0	16.1	0.00e+00	0	38	0	825229312	59	5115
2026-01-24 10:05:14.73	347.50	48.04	-46.0	-50.6	12.5	1.11e-03	0	38	0	832569344	64	5855
2026-01-24 10:05:18.70	347.27	46.78	-42.0	-44.3	18.5	0.00e+00	0	38	0	839909376	55	4752
2026-01-24 10:05:22.68	347.07	45.56	-45.7	-49.9	13.5	0.00e+00	0	38	0	847249408	61	6389
2026-01-24 10:05:26.66	346.88	44.37	-45.1	-49.0	14.1	1.22e-05	0	38	0	854589440	62	5460
2026-01-24 10:05:30.63	346.70	43.22	-43.6	-46.5	16.6	0.00e+00	0	38	0	861929472	58	5156
2026-01-24 10:05:34.61	346.54	42.10	-46.3	-51.3	11.8	9.76e-05	0	38	0	869269504	63	6699
2026-01-24 10:05:38.59	346.39	41.01	-45.5	-49.6	13.5	1.63e-04	0	38	0	876609536	63	5492
2026-01-24 10:05:42.57	346.25	39.96	-42.0	-44.3	18.6	0.00e+00	0	38	0	884998144	56	4485
2026-01-24 10:05:46.55	346.12	38.93	-45.3	-49.0	14.2	0.00e+00	0	38	0	892338176	61	5747
2026-01-24 10:05:50.52	346.00	37.94	-45.4	-49.7	13.5	4.50e-06	0	38	0	899678208	62	5885
2026-01-24 10:05:54.51	345.89	36.97	-44.0	-47.4	15.7	0.00e+00	0	38	0	907018240	59	5349
2026-01-24 10:05:58.48	345.78	36.04	-43.0	-45.7	17.3	0.00e+00	0	38	0	914358272	58	4682
2026-01-24 10:06:02.46	345.68	35.12	-43.6	-46.6	16.5	0.00e+00	0	38	0	921698304	59	4878
2026-01-24 10:06:06.44	345.59	34.24	-46.8	-52.4	10.6	2.21e-03	0	38	0	929038336	64	7155
2026-01-24 10:06:10.42	345.50	33.38	-45.7	-50.5	12.6	3.96e-05	0	38	0	936378368	62	6480
2026-01-24 10:06:14.39	345.42	32.54	-43.3	-46.3	16.7	0.00e+00	0	38	0	943718400	58	5023
2026-01-24 10:06:18.37	345.34	31.73	-43.8	-46.8	16.2	0.00e+00	0	38	0	952107008	59	5010
2026-01-24 10:06:22.34	345.27	30.93	-43.7	-46.7	16.4	0.00e+00	0	38	0	959447040	59	4945
2026-01-24 10:06:26.32	345.20	30.16	-44.7	-48.1	15.0	0.00e+00	0	38	0	966787072	60	5512
2026-01-24 10:06:30.30	345.14	29.41	-45.5	-50.0	13.1	8.30e-06	0	38	0	974127104	61	6440
2026-01-24 10:06:34.28	345.07	28.68	-44.1	-47.7	15.4	0.00e+00	0	38	0	981467136	59	5552
2026-01-24 10:06:38.25	345.02	27.97	-42.9	-45.6	17.4	0.00e+00	0	38	0	988807168	57	4883
2026-01-24 10:06:42.23	344.96	27.27	-41.7	-44.2	18.6	0.00e+00	0	38	0	996147200	55	4655
2026-01-24 10:06:46.20	344.91	26.59	-41.9	-44.5	18.3	0.00e+00	0	38	0	1003487232	55	4819
2026-01-24 10:06:50.18	344.86	25.93	-42.5	-45.1	17.8	0.00e+00	0	38	0	1010827264	55	5203
2026-01-24 10:06:54.16	344.81	25.29	-43.4	-46.4	16.7	0.00e+00	0	38	0	1019215872	57	5366
2026-01-24 10:06:58.13	344.77	24.66	-43.4	-46.6	16.4	0.00e+00	0	38	0	1026555904	58	5215
2026-01-24 10:07:02.10	344.73	24.04	-42.6	-45.5	17.4	0.00e+00	0	38	0	1033895936	57	4853
2026-01-24 10:07:06.08	344.69	23.44	-41.8	-44.3	18.4	0.00e+00	0	38	0	1041235968	55	4747
2026-01-24 10:07:10.06	344.65	22.85	-41.8	-44.5	18.3	0.00e+00	0	38	0	1048576000	55	4820
2026-01-24 10:07:14.04	344.61	22.28	-40.9	-43.4	19.2	0.00e+00	0	38	0	1055916032	53	4797
2026-01-24 10:07:18.02	344.58	21.72	-40.4	-42.7	19.9	0.00e+00	0	38	0	1063256064	52	4663
2026-01-24 10:07:22.00	344.55	21.17	-40.6	-42.7	19.8	0.00e+00	0	38	0	1070596096	52	4700
2026-01-24 10:07:25.98	344.52	20.63	-41.0	-43.3	19.3	0.00e+00	0	38	0	1077936128	52	5024
2026-01-24 10:07:29.96	344.49	20.10	-42.1	-44.7	18.1	0.00e+00	0	38	0	1086324736	54	5228
2026-01-24 10:07:33.93	344.46	19.59	-42.5	-45.1	17.6	0.00e+00	0	38	0	1093664768	55	5193
2026-01-24 10:07:37.92	344.44	19.08	-43.1	-45.9	17.0	0.00e+00	0	38	0	1101004800	56	5355
2026-01-24 10:07:41.89	344.41	18.59	-43.3	-46.4	16.5	0.00e+00	0	38	0	1108344832	57	5358
2026-01-24 10:07:45.87	344.39	18.10	-43.2	-46.4	16.5	0.00e+00	0	38	0	1115684864	57	5379
2026-01-24 10:07:49.85	344.37	17.63	-43.2	-46.3	16.6	0.00e+00	0	38	0	1123024896	57	5285
2026-01-24 10:07:53.82	344.34	17.16	-42.9	-45.7	17.2	0.00e+00	0	38	0	1130364928	57	4956
2026-01-24 10:07:57.80	344.32	16.71	-42.8	-45.8	17.0	0.00e+00	0	38	0	1137704960	57	5001
2026-01-24 10:08:01.77	344.31	16.26	-42.5	-45.9	17.0	0.00e+00	0	38	0	1145044992	56	5346
2026-01-24 10:08:05.75	344.29	15.82	-42.8	-46.2	16.7	0.00e+00	0	38	0	1153433600	56	5533
2026-01-24 10:08:09.73	344.27	15.38	-43.1	-46.3	16.6	0.00e+00	0	38	0	1160773632	57	5337
2026-01-24 10:08:13.71	344.26	14.96	-43.3	-46.6	16.2	0.00e+00	0	38	0	1168113664	57	5512
2026-01-24 10:08:17.68	344.24	14.54	-43.3	-47.0	15.9	0.00e+00	0	38	0	1175453696	57	5745
2026-01-24 10:08:21.66	344.23	14.13	-42.9	-46.4	16.3	0.00e+00	0	38	0	1182793728	57	5401
2026-01-24 10:08:25.64	344.21	13.72	-43.0	-46.7	16.2	0.00e+00	0	38	0	1190133760	57	5537
2026-01-24 10:08:29.62	344.20	13.33	-43.0	-46.4	16.4	0.00e+00	0	38	0	1197473792	57	5389
2026-01-24 10:08:33.59	344.19	12.93	-43.0	-46.3	16.5	0.00e+00	0	38	0	1204813824	57	5287
2026-01-24 10:08:37.57	344.18	12.55	-42.6	-46.1	16.7	0.00e+00	0	38	0	1212153856	57	5187
2026-01-24 10:08:41.54	344.17	12.17	-42.4	-45.9	16.8	0.00e+00	0	38	0	1220542464	56	5394
2026-01-24 10:08:45.52	344.16	11.80	-42.4	-45.8	16.9	0.00e+00	0	38	0	1227882496	56	5302
2026-01-24 10:08:49.49	344.15	11.43	-42.4	-45.7	16.9	0.00e+00	0	38	0	1235222528	56	5279
2026-01-24 10:08:53.47	344.14	11.07	-42.4	-45.7	17.0	0.00e+00	0	38	0	1242562560	56	5269
2026-01-24 10:08:57.46	344.13	10.71	-42.1	-45.7	17.0	0.00e+00	0	38	0	1249902592	56	5229
2026-01-24 10:09:01.43	344.13	10.36	-41.9	-45.6	16.8	0.00e+00	0	38	0	1257242624	55	5510
2026-01-24 10:09:05.41	344.12	10.01	-41.3	-45.3	17.1	0.00e+00	0	38	0	1264582656	54	5655
2026-01-24 10:09:09.39	344.11	9.67	-41.2	-45.5	16.9	0.00e+00	0	38	0	1271922688	54	5733
2026-01-24 10:09:13.36	344.11	9.33	-41.3	-45.4	17.0	0.00e+00	0	38	0	1279262720	54	5701
2026-01-24 10:09:17.34	344.10	9.00	-41.6	-45.8	16.6	0.00e+00	0	38	0	1287651328	54	5990
2026-01-24 10:09:21.32	344.10	8.67	-48.0	-64.4	3.8	1.49e+00	0	38	104	1288699904	68	22581
2026-01-24 10:09:25.30	344.09	8.35	-49.2	-64.6	3.8	1.49e+00	0	38	104	1288699904	68	23243
2026-01-24 10:09:29.28	344.09	8.03	-49.5	-64.7	3.8	1.49e+00	0	38	104	1288699904	69	22156
2026-01-24 10:09:33.25	344.09	7.71	-49.0	-64.7	3.8	1.49e+00	0	38	104	1288699904	69	22140
2026-01-24 10:09:37.23	344.09	7.40	-49.5	-64.7	3.8	1.49e+00	0	38	104	1288699904	69	22160
2026-01-24 10:09:41.21	344.08	7.09	-49.5	-64.7	3.8	1.49e+00	0	38	104	1288699904	69	22069
2026-01-24 10:09:45.19	344.08	6.79	-49.3	-64.6	3.8	1.49e+00	0	38	104	1288699904	69	21934
2026-01-24 10:09:49.17	344.08	6.49	-49.3	-64.6	3.8	1.49e+00	0	38	104	1288699904	69	21885
2026-01-24 10:09:53.15	344.08	6.19	-49.3	-64.6	3.8	1.49e+00	0	38	104	1288699904	69	21925
2026-01-24 10:09:57.12	344.08	5.89	-49.3	-64.6	3.8	1.49e+00	0	38	104	1288699904	69	21959
2026-01-24 10:1