passes_logs/2026/01/24/T1/T1__20260124_064939_KHAYYAM_rec.log

#Pass ID: 20260124_064939_KHAYYAM
#Satellite: KHAYYAM
#Configuration: KHAYYAM_480M
#almurnet v.1.7.20251203
#Start time: 2026-01-24 06:49:40

#Version: 2.0.20230620
#Station: T1
#Location: 37.570604 lon 55.790049 lat
#TLE: 1 53370U 22096A   26023.62012604  .00008987  00000+0  36588-3 0  9995
#TLE: 2 53370  97.3551 290.4757 0001913 108.0149 252.1298 15.24719440192559

#Time	Az	El	Level	Level2	SNR	BER	BlckErr	Temp	State	Recorded	gain1	gain2
2026-01-24 06:49:40.82	123.28	5.10	-50.9	-55.6	3.6	0.00e+00	0	40	0	0	73	24573
2026-01-24 06:49:42.80	123.08	5.25	-50.8	-55.5	3.7	0.00e+00	0	40	104	0	72	25854
2026-01-24 06:49:44.79	122.88	5.39	-50.8	-55.5	3.7	0.00e+00	0	40	104	0	72	25822
2026-01-24 06:49:46.77	122.67	5.54	-50.8	-55.5	3.7	0.00e+00	0	40	104	0	72	25896
2026-01-24 06:49:48.76	122.46	5.68	-50.8	-55.5	3.7	0.00e+00	0	41	104	0	72	25834
2026-01-24 06:49:50.75	122.25	5.83	-50.8	-55.5	3.7	0.00e+00	0	41	104	0	72	25924
2026-01-24 06:49:52.74	122.03	5.98	-50.8	-55.5	3.7	0.00e+00	0	41	104	0	72	25825
2026-01-24 06:49:54.72	121.81	6.13	-50.8	-55.5	3.7	0.00e+00	0	41	104	0	72	25874
2026-01-24 06:49:56.71	121.59	6.28	-50.8	-55.5	3.7	0.00e+00	0	41	104	0	72	25762
2026-01-24 06:49:58.70	121.37	6.43	-50.8	-55.5	3.7	0.00e+00	0	41	104	0	72	25759
2026-01-24 06:50:00.69	121.14	6.58	-50.8	-55.5	3.7	0.00e+00	0	42	104	0	72	25848
2026-01-24 06:50:02.67	120.91	6.73	-50.8	-55.5	3.7	0.00e+00	0	41	104	0	72	25832
2026-01-24 06:50:04.66	120.68	6.89	-50.8	-55.5	3.7	0.00e+00	0	42	104	0	72	25862
2026-01-24 06:50:06.65	120.44	7.04	-50.8	-55.5	3.7	0.00e+00	0	42	104	0	72	25905
2026-01-24 06:50:08.63	120.20	7.20	-50.8	-55.5	3.7	0.00e+00	0	42	104	0	72	25828
2026-01-24 06:50:10.62	119.96	7.35	-50.8	-55.5	3.7	0.00e+00	0	42	104	0	72	25811
2026-01-24 06:50:12.61	119.71	7.51	-50.8	-55.5	3.7	0.00e+00	0	42	104	0	72	25849
2026-01-24 06:50:14.59	119.46	7.67	-50.8	-55.5	3.7	0.00e+00	0	42	104	0	72	25874
2026-01-24 06:50:16.58	119.21	7.83	-50.8	-55.5	3.7	0.00e+00	0	42	104	0	72	25836
2026-01-24 06:50:18.57	118.95	7.99	-50.8	-55.5	3.7	0.00e+00	0	42	104	0	72	25808
2026-01-24 06:50:20.55	118.69	8.15	-50.8	-55.4	3.7	0.00e+00	0	42	104	0	72	25576
2026-01-24 06:50:22.54	118.42	8.31	-50.6	-55.2	3.7	0.00e+00	0	43	104	0	72	24885
2026-01-24 06:50:24.53	118.15	8.47	-50.5	-54.9	3.7	0.00e+00	0	43	104	0	72	24006
2026-01-24 06:50:26.51	117.88	8.63	-50.5	-54.9	3.7	0.00e+00	0	43	104	0	72	24004
2026-01-24 06:50:28.50	117.61	8.80	-50.7	-55.2	3.7	0.00e+00	0	43	104	0	72	24909
2026-01-24 06:50:30.49	117.33	8.96	-50.8	-55.4	3.7	0.00e+00	0	43	104	0	72	25537
2026-01-24 06:50:32.52	117.04	9.13	-50.9	-55.5	3.7	0.00e+00	0	43	104	0	72	25786
2026-01-24 06:50:34.51	116.75	9.30	-50.9	-55.6	3.7	0.00e+00	0	43	104	0	72	26117
2026-01-24 06:50:36.50	116.45	9.47	-51.3	-55.7	3.7	0.00e+00	0	43	104	0	73	25048
2026-01-24 06:50:38.49	116.16	9.64	-51.1	-55.7	3.7	0.00e+00	0	43	104	0	73	25057
2026-01-24 06:50:40.48	115.85	9.81	-51.5	-55.8	3.7	0.00e+00	0	43	104	0	73	25347
2026-01-24 06:50:42.47	115.55	9.98	-51.5	-56.0	3.7	0.00e+00	0	43	104	0	73	25780
2026-01-24 06:50:44.46	115.24	10.15	-51.4	-55.9	3.7	0.00e+00	0	43	104	0	73	25638
2026-01-24 06:50:46.45	114.92	10.32	-51.5	-56.0	3.7	0.00e+00	0	43	104	0	73	25823
2026-01-24 06:50:48.45	114.60	10.50	-51.3	-55.9	3.7	0.00e+00	0	44	104	0	73	25443
2026-01-24 06:50:50.44	114.28	10.67	-51.4	-56.0	3.7	0.00e+00	0	44	104	0	73	25743
2026-01-24 06:50:52.43	113.95	10.85	-51.3	-56.0	3.7	0.00e+00	0	43	104	0	73	25717
2026-01-24 06:50:54.42	113.61	11.03	-51.4	-56.0	3.7	0.00e+00	0	44	104	0	73	25709
2026-01-24 06:50:56.41	113.27	11.20	-51.5	-56.1	3.7	0.00e+00	0	44	104	0	73	25982
2026-01-24 06:50:58.40	112.93	11.38	-51.6	-56.1	3.7	0.00e+00	0	44	104	0	73	26091
2026-01-24 06:51:00.39	112.58	11.56	-51.4	-56.0	3.7	0.00e+00	0	44	104	0	73	25875
2026-01-24 06:51:02.38	112.22	11.74	-51.5	-56.1	3.7	0.00e+00	0	44	104	0	73	26100
2026-01-24 06:51:04.37	111.86	11.92	-51.2	-55.9	3.7	0.00e+00	0	44	104	0	73	25488
2026-01-24 06:51:06.35	111.50	12.10	-51.0	-55.8	3.7	0.00e+00	0	44	104	0	73	25291
2026-01-24 06:51:08.34	111.12	12.28	-51.2	-55.8	3.7	0.00e+00	0	44	104	0	73	25253
2026-01-24 06:51:10.33	110.75	12.47	-51.3	-56.0	3.7	0.00e+00	0	44	104	0	73	25778
2026-01-24 06:51:12.32	110.36	12.65	-51.5	-56.0	3.7	0.00e+00	0	44	104	0	73	25895
2026-01-24 06:51:14.31	109.97	12.84	-51.3	-56.0	3.7	0.00e+00	0	44	104	0	73	25773
2026-01-24 06:51:16.30	109.58	13.02	-51.6	-56.2	3.7	0.00e+00	0	44	104	0	73	26307
2026-01-24 06:51:18.32	109.17	13.21	-51.7	-56.2	3.7	0.00e+00	0	44	104	0	74	24995
2026-01-24 06:51:20.31	108.76	13.40	-51.8	-56.3	3.7	0.00e+00	0	44	104	0	74	25254
2026-01-24 06:51:22.30	108.35	13.59	-51.8	-56.3	3.7	0.00e+00	0	44	104	0	74	25245
2026-01-24 06:51:24.29	107.93	13.78	-51.7	-56.2	3.7	0.00e+00	0	44	104	0	74	24956
2026-01-24 06:51:26.28	107.50	13.96	-51.7	-56.3	3.7	0.00e+00	0	44	104	0	74	25104
2026-01-24 06:51:28.27	107.07	14.15	-51.3	-56.0	3.7	0.00e+00	0	44	104	0	74	24397
2026-01-24 06:51:30.26	106.63	14.34	-51.3	-55.9	3.7	0.00e+00	0	44	104	0	74	24196
2026-01-24 06:51:32.25	106.18	14.53	-51.5	-56.1	3.7	0.00e+00	0	44	104	0	74	24775
2026-01-24 06:51:34.24	105.73	14.73	-51.5	-56.1	3.7	0.00e+00	0	44	104	0	74	24674
2026-01-24 06:51:36.23	105.26	14.92	-51.4	-56.1	3.7	0.00e+00	0	44	104	0	74	24758
2026-01-24 06:51:38.22	104.79	15.11	-51.5	-56.2	3.7	0.00e+00	0	44	104	0	74	24860
2026-01-24 06:51:40.21	104.32	15.30	-51.6	-56.2	3.7	0.00e+00	0	44	104	0	74	24929
2026-01-24 06:51:42.20	103.84	15.49	-51.7	-56.2	3.7	0.00e+00	0	44	104	0	74	24845
2026-01-24 06:51:44.19	103.34	15.69	-51.7	-56.2	3.7	0.00e+00	0	44	104	0	74	25038
2026-01-24 06:51:46.19	102.84	15.88	-51.6	-56.1	3.7	0.00e+00	0	44	104	0	74	24798
2026-01-24 06:51:48.18	102.34	16.07	-51.8	-56.3	3.6	0.00e+00	0	44	104	0	74	25220
2026-01-24 06:51:50.17	101.82	16.26	-51.8	-56.3	3.7	0.00e+00	0	44	104	0	74	25103
2026-01-24 06:51:52.23	101.28	16.46	-51.7	-56.1	3.7	0.00e+00	0	44	104	0	74	24623
2026-01-24 06:51:54.23	100.75	16.66	-51.7	-56.2	3.7	0.00e+00	0	44	104	0	74	24889
2026-01-24 06:51:56.22	100.21	16.85	-51.7	-56.1	3.7	0.00e+00	0	45	104	0	74	24545
2026-01-24 06:51:58.21	99.67	17.04	-51.7	-56.0	3.7	0.00e+00	0	45	104	0	74	24499
2026-01-24 06:52:00.20	99.11	17.23	-51.8	-56.2	3.7	0.00e+00	0	45	104	0	74	24920
2026-01-24 06:52:02.21	98.54	17.42	-51.8	-56.2	3.7	0.00e+00	0	44	104	0	74	24920
2026-01-24 06:52:04.21	97.97	17.62	-51.7	-56.1	3.7	0.00e+00	0	45	104	0	74	24680
2026-01-24 06:52:06.21	97.39	17.81	-51.7	-56.2	3.7	0.00e+00	0	45	104	0	74	24924
2026-01-24 06:52:08.28	96.77	18.00	-51.7	-56.3	3.7	0.00e+00	0	45	104	0	74	25225
2026-01-24 06:52:10.28	96.17	18.19	-51.7	-56.2	3.7	0.00e+00	0	45	104	0	74	25023
2026-01-24 06:52:12.28	95.56	18.38	-51.5	-56.1	3.7	0.00e+00	0	45	104	0	74	24538
2026-01-24 06:52:14.29	94.94	18.57	-51.5	-55.9	3.7	0.00e+00	0	45	104	0	74	24186
2026-01-24 06:52:16.28	94.32	18.75	-51.6	-56.1	3.7	0.00e+00	0	45	104	0	74	24739
2026-01-24 06:52:18.29	93.68	18.94	-51.5	-56.1	3.7	0.00e+00	0	45	104	0	74	24655
2026-01-24 06:52:20.28	93.04	19.12	-51.7	-56.2	3.7	0.00e+00	0	45	104	0	74	24896
2026-01-24 06:52:22.28	92.39	19.30	-51.7	-56.2	3.7	0.00e+00	0	45	104	0	74	24863
2026-01-24 06:52:24.29	91.72	19.48	-51.5	-56.2	3.7	0.00e+00	0	45	104	0	74	24896
2026-01-24 06:52:26.32	91.04	19.66	-51.4	-56.1	3.7	0.00e+00	0	45	104	0	74	24653
2026-01-24 06:52:28.37	90.34	19.84	-51.0	-55.0	3.7	0.00e+00	0	45	104	0	74	21841
2026-01-24 06:52:30.43	89.63	20.01	-51.0	-55.2	3.7	0.00e+00	0	45	104	0	73	23451
2026-01-24 06:52:32.48	88.91	20.19	-51.0	-55.6	3.7	0.00e+00	0	45	104	0	73	24706
2026-01-24 06:52:34.55	88.18	20.36	-51.3	-56.1	3.7	0.00e+00	0	45	104	0	73	26069
2026-01-24 06:52:36.54	87.47	20.52	-51.4	-56.1	3.7	0.00e+00	0	45	104	0	73	26200
2026-01-24 06:52:38.54	86.74	20.68	-51.2	-56.0	3.7	0.00e+00	0	45	104	0	73	25875
2026-01-24 06:52:40.55	86.00	20.84	-50.6	-55.6	3.7	0.00e+00	0	45	104	0	73	24659
2026-01-24 06:52:42.54	85.26	21.00	-50.9	-55.8	3.7	0.00e+00	0	45	104	0	73	25099
2026-01-24 06:52:44.56	84.50	21.15	-51.0	-56.1	3.7	0.00e+00	0	45	104	0	73	26024
2026-01-24 06:52:46.60	83.73	21.30	-50.6	-55.8	3.7	0.00e+00	0	45	104	0	73	25362
2026-01-24 06:52:48.59	82.97	21.45	-51.0	-55.8	3.7	0.00e+00	0	45	104	0	73	25304
2026-01-24 06:52:50.74	82.13	21.60	-51.1	-56.0	3.7	0.00e+00	0	45	104	0	73	25851
2026-01-24 06:52:52.72	81.35	21.73	-50.9	-55.9	3.7	0.00e+00	0	45	104	0	73	25457
2026-01-24 06:52:54.71	80.56	21.86	-51.0	-56.0	3.7	0.00e+00	0	45	104	0	73	25858
2026-01-24 06:52:56.71	79.76	21.99	-51.9	-56.4	3.7	0.00e+00	0	45	104	0	74	25543
2026-01-24 06:52:58.70	78.96	22.11	-51.9	-56.4	3.7	0.00e+00	0	45	104	0	74	25572
2026-01-24 06:53:00.68	78.16	22.23	-51.8	-56.4	3.7	0.00e+00	0	45	104	0	74	25505
2026-01-24 06:53:02.68	77.33	22.34	-51.9	-56.5	3.7	0.00e+00	0	45	104	0	74	25717
2026-01-24 06:53:04.67	76.51	22.45	-51.3	-56.1	3.7	0.00e+00	0	45	104	0	74	24694
2026-01-24 06:53:06.66	75.68	22.55	-51.4	-56.3	3.7	0.00e+00	0	45	104	0	74	25101
2026-01-24 06:53:08.65	74.84	22.65	-52.0	-56.4	3.7	0.00e+00	0	45	104	0	74	25510
2026-01-24 06:53:10.64	74.00	22.74	-51.9	-56.3	3.7	0.00e+00	0	45	104	0	74	25190
2026-01-24 06:53:12.63	73.16	22.83	-51.9	-56.4	3.7	0.00e+00	0	45	104	0	74	25604
2026-01-24 06:53:14.62	72.30	22.91	-52.0	-56.5	3.7	0.00e+00	0	45	104	0	74	25872
2026-01-24 06:53:16.61	71.45	22.98	-52.0	-56.4	3.7	0.00e+00	0	45	104	0	74	25532
2026-01-24 06:53:18.60	70.59	23.05	-51.9	-56.3	3.7	0.00e+00	0	45	104	0	74	25226
2026-01-24 06:53:20.59	69.72	23.11	-51.9	-56.4	3.7	0.00e+00	0	45	104	0	74	25553
2026-01-24 06:53:22.58	68.85	23.17	-52.0	-56.5	3.7	0.00e+00	0	45	104	0	74	25730
2026-01-24 06:53:24.57	67.98	23.22	-52.0	-56.5	3.7	0.00e+00	0	45	104	0	74	25856
2026-01-24 06:53:26.56	67.10	23.26	-52.0	-56.5	3.7	0.00e+00	0	45	104	0	74	25752
2026-01-24 06:53:28.54	66.23	23.30	-51.9	-56.5	3.7	0.00e+00	0	45	104	0	74	25762
2026-01-24 06:53:30.53	65.35	23.33	-51.8	-56.4	3.7	0.00e+00	0	45	104	0	74	25673
2026-01-24 06:53:32.65	64.41	23.35	-52.1	-56.5	3.7	0.00e+00	0	45	104	0	74	25935
2026-01-24 06:53:34.72	63.50	23.37	-51.9	-56.4	3.7	0.00e+00	0	45	104	0	74	25519
2026-01-24 06:53:36.71	62.61	23.38	-51.8	-56.1	3.7	0.00e+00	0	45	104	0	74	24674
2026-01-24 06:53:38.70	61.73	23.38	-51.7	-56.1	3.7	0.00e+00	0	45	104	0	74	24660
2026-01-24 06:53:40.68	60.85	23.38	-51.9	-56.5	3.7	0.00e+00	0	45	104	0	74	25774
2026-01-24 06:53:42.67	59.97	23.37	-52.0	-56.5	3.7	0.00e+00	0	45	104	0	74	25827
2026-01-24 06:53:44.66	59.08	23.36	-51.4	-56.1	3.7	0.00e+00	0	45	104	0	74	24766
2026-01-24 06:53:46.65	58.20	23.33	-51.4	-56.0	3.7	0.00e+00	0	45	104	0	74	24396
2026-01-24 06:53:48.73	57.28	23.30	-51.3	-55.2	3.7	0.00e+00	0	45	104	0	74	22268
2026-01-24 06:53:50.77	56.38	23.27	-51.3	-55.2	3.7	0.00e+00	0	45	104	0	74	22348
2026-01-24 06:53:52.76	55.51	23.22	-51.6	-56.0	3.7	0.00e+00	0	45	104	0	74	24272
2026-01-24 06:53:54.75	54.64	23.17	-52.0	-56.4	3.7	0.00e+00	0	45	104	0	74	25410
2026-01-24 06:53:56.79	53.75	23.12	-51.5	-56.1	3.7	0.00e+00	0	45	104	0	74	24782
2026-01-24 06:53:58.79	52.88	23.06	-51.7	-56.2	3.7	0.00e+00	0	45	104	0	74	24831
2026-01-24 06:54:00.89	51.97	22.99	-51.6	-55.7	3.7	0.00e+00	0	45	104	0	74	23486
2026-01-24 06:54:02.88	51.12	22.91	-51.6	-56.0	3.7	0.00e+00	0	45	104	0	74	24367
2026-01-24 06:54:04.87	50.27	22.83	-51.4	-55.9	3.7	0.00e+00	0	45	104	0	74	24142
2026-01-24 06:54:06.86	49.42	22.75	-51.7	-56.2	3.7	0.00e+00	0	45	104	0	74	24926
2026-01-24 06:54:08.85	48.58	22.66	-51.7	-56.0	3.7	0.00e+00	0	45	104	0	74	24284
2026-01-24 06:54:10.95	47.70	22.55	-51.7	-56.1	3.7	0.00e+00	0	45	104	0	74	24775
2026-01-24 06:54:12.94	46.87	22.45	-51.8	-56.1	3.7	0.00e+00	0	45	104	0	74	24785
2026-01-24 06:54:14.93	46.05	22.34	-51.9	-56.3	3.7	0.00e+00	0	45	104	0	74	25355
2026-01-24 06:54:16.92	45.24	22.23	-51.9	-56.4	3.7	0.00e+00	0	45	104	0	74	25477
2026-01-24 06:54:18.91	44.43	22.12	-51.6	-55.8	3.7	0.00e+00	0	45	104	0	74	23865
2026-01-24 06:54:20.90	43.63	21.99	-51.7	-56.0	3.7	0.00e+00	0	45	104	0	74	24395
2026-01-24 06:54:22.88	42.84	21.87	-51.4	-55.9	3.7	0.00e+00	0	45	104	0	74	24104
2026-01-24 06:54:24.88	42.05	21.74	-51.6	-56.1	3.7	0.00e+00	0	45	104	0	74	24642
2026-01-24 06:54:26.93	41.25	21.60	-51.6	-55.8	3.7	0.00e+00	0	45	104	0	74	23831
2026-01-24 06:54:28.98	40.45	21.46	-51.9	-56.2	3.7	0.00e+00	0	45	104	0	74	25078
2026-01-24 06:54:30.97	39.69	21.31	-51.5	-55.5	3.7	0.00e+00	0	45	104	0	74	23032
2026-01-24 06:54:33.02	38.92	21.16	-51.0	-54.7	3.7	0.00e+00	0	45	104	0	74	20904
2026-01-24 06:54:35.01	38.17	21.01	-50.9	-54.5	3.7	0.00e+00	0	45	104	0	73	21615
2026-01-24 06:54:37.00	37.43	20.86	-50.3	-53.6	3.7	0.00e+00	0	45	104	0	72	20644
2026-01-24 06:54:38.99	36.71	20.70	-50.8	-54.2	3.7	0.00e+00	0	45	104	0	72	22319
2026-01-24 06:54:40.98	35.99	20.54	-50.6	-54.1	3.7	0.00e+00	0	45	104	0	73	20767
2026-01-24 06:54:42.97	35.28	20.38	-51.8	-56.2	3.7	0.00e+00	0	45	104	0	74	24893
2026-01-24 06:54:44.96	34.57	20.21	-51.1	-55.0	3.7	0.00e+00	0	45	104	0	74	21656
2026-01-24 06:54:46.95	33.88	20.05	-51.0	-55.0	3.7	0.00e+00	0	45	104	0	74	21613
2026-01-24 06:54:48.93	33.20	19.88	-50.4	-55.1	3.7	0.00e+00	0	45	104	0	72	24756
2026-01-24 06:54:50.92	32.52	19.70	-50.2	-54.9	3.7	0.00e+00	0	45	104	0	71	25439
2026-01-24 06:54:52.94	31.85	19.53	-49.5	-52.3	3.9	0.00e+00	0	45	104	0	70	20067
2026-01-24 06:54:54.99	31.17	19.35	-51.2	-55.1	3.7	0.00e+00	0	45	104	0	73	23321
2026-01-24 06:54:56.98	30.52	19.17	-51.3	-55.4	3.7	0.00e+00	0	45	104	0	73	24146
2026-01-24 06:54:58.97	29.88	18.99	-50.8	-54.7	3.7	0.00e+00	0	45	104	0	73	22112
2026-01-24 06:55:00.96	29.25	18.81	-50.9	-55.1	3.7	0.00e+00	0	45	104	0	73	23410
2026-01-24 06:55:02.95	28.63	18.62	-51.0	-55.0	3.7	0.00e+00	0	45	104	0	73	23147
2026-01-24 06:55:04.94	28.01	18.44	-50.6	-54.0	3.7	0.00e+00	0	45	104	0	73	20578
2026-01-24 06:55:06.98	27.39	18.25	-50.8	-55.3	3.7	0.00e+00	0	45	104	0	73	23825
2026-01-24 06:55:08.92	26.81	18.07	-50.6	-54.8	3.7	0.00e+00	0	45	104	0	72	23725
2026-01-24 06:55:10.91	26.23	17.88	-50.2	-55.1	3.7	0.00e+00	0	45	104	0	72	24540
2026-01-24 06:55:12.90	25.65	17.69	-49.4	-54.8	3.7	0.00e+00	0	45	104	0	70	26756
2026-01-24 06:55:14.89	25.08	17.50	-49.2	-54.6	3.7	0.00e+00	0	45	104	0	69	27559
2026-01-24 06:55:16.88	24.52	17.31	-50.8	-55.7	3.7	0.00e+00	0	45	104	0	72	26337
2026-01-24 06:55:18.87	23.96	17.12	-50.9	-55.8	3.7	0.00e+00	0	45	104	0	72	26695
2026-01-24 06:55:20.94	23.39	16.92	-50.3	-55.1	3.7	0.00e+00	0	45	104	0	72	24678
2026-01-24 06:55:22.96	22.85	16.73	-50.1	-54.7	3.7	0.00e+00	0	45	104	0	72	23577
2026-01-24 06:55:24.95	22.32	16.54	-50.0	-54.8	3.7	0.00e+00	0	45	104	0	72	23844
2026-01-24 06:55:26.94	21.80	16.35	-50.1	-55.0	3.7	0.00e+00	0	45	104	0	71	25778
2026-01-24 06:55:28.93	21.29	16.16	-50.0	-55.0	3.7	0.00e+00	0	45	104	0	71	25856
2026-01-24 06:55:30.92	20.78	15.96	-50.5	-55.4	3.7	0.00e+00	0	45	104	0	71	26914
2026-01-24 06:55:33.02	20.26	15.76	-50.3	-54.7	3.7	0.00e+00	0	45	104	0	71	24943
2026-01-24 06:55:35.00	19.77	15.57	-50.6	-55.3	3.7	0.00e+00	0	45	104	0	72	25355
2026-01-24 06:55:37.15	19.25	15.37	-50.0	-55.2	3.7	0.00e+00	0	45	104	0	71	26384
2026-01-24 06:55:39.13	18.78	15.18	-48.7	-54.2	3.7	0.00e+00	0	45	104	0	69	26401
2026-01-24 06:55:41.12	18.31	14.99	-48.9	-54.4	3.7	0.00e+00	0	45	104	0	69	27036
2026-01-24 06:55:43.16	17.84	14.79	-50.1	-55.2	3.7	0.00e+00	0	45	104	0	70	27899
2026-01-24 06:55:45.14	17.39	14.60	-51.3	-55.8	3.7	0.00e+00	0	45	104	0	73	25265
2026-01-24 06:55:47.19	16.93	14.41	-51.8	-56.3	3.7	0.00e+00	0	45	104	0	74	25179
2026-01-24 06:55:49.26	16.48	14.21	-51.8	-56.3	3.7	0.00e+00	0	45	104	0	74	25199
2026-01-24 06:55:51.26	16.04	14.02	-50.8	-55.5	3.7	0.00e+00	0	45	104	0	73	24334
2026-01-24 06:55:53.29	15.61	13.83	-50.5	-55.4	3.7	0.00e+00	0	45	104	0	72	25557
2026-01-24 06:55:55.28	15.19	13.64	-48.3	-54.0	3.7	0.00e+00	0	45	104	0	68	27432
2026-01-24 06:55:57.27	14.78	13.45	-47.7	-53.6	3.7	0.00e+00	0	45	104	0	67	27613
2026-01-24 06:55:59.26	14.38	13.27	-47.8	-53.7	3.7	0.00e+00	0	45	104	0	67	27937
2026-01-24 06:56:01.27	13.97	13.08	-47.6	-53.6	3.7	0.00e+00	0	45	104	0	67	27698
2026-01-24 06:56:03.26	13.58	12.90	-47.8	-53.6	3.7	0.00e+00	0	45	104	0	66	29453
2026-01-24 06:56:05.25	13.19	12.71	-47.7	-53.6	3.7	0.00e+00	0	45	104	0	66	29312
2026-01-24 06:56:07.26	12.81	12.53	-48.3	-54.1	3.7	0.00e+00	0	45	104	0	67	29164
2026-01-24 06:56:09.26	12.43	12.34	-50.3	-55.4	3.7	0.00e+00	0	45	104	0	71	27009
2026-01-24 06:56:11.47	12.02	12.14	-50.3	-55.2	3.7	0.00e+00	0	45	104	0	71	26571
2026-01-24 06:56:13.46	11.66	11.96	-49.7	-55.1	3.7	0.00e+00	0	45	104	0	71	26064
2026-01-24 06:56:15.45	11.30	11.78	-49.0	-54.7	3.7	0.00e+00	0	45	104	0	70	26347
2026-01-24 06:56:17.44	10.95	11.60	-49.6	-55.0	3.7	0.00e+00	0	45	104	0	70	27355
2026-01-24 06:56:19.51	10.59	11.42	-46.7	-53.0	3.8	0.00e+00	0	45	104	0	65	29044
2026-01-24 06:56:21.50	10.25	11.24	-46.9	-53.2	3.7	0.00e+00	0	45	104	0	65	29598
2026-01-24 06:56:23.49	9.91	11.07	-47.0	-53.4	3.7	0.00e+00	0	46	104	0	65	30199
2026-01-24 06:56:25.80	9.53	10.86	-45.9	-52.4	3.8	0.00e+00	0	45	104	0	63	30438
2026-01-24 06:56:27.77	9.20	10.69	-45.9	-52.5	3.8	0.00e+00	0	45	104	0	63	30615
2026-01-24 06:56:29.76	8.88	10.52	-45.3	-51.9	3.9	0.00e+00	0	45	104	0	62	30293
2026-01-24 06:56:31.75	8.57	10.34	-45.7	-52.2	3.8	0.00e+00	0	45	104	0	62	31405
2026-01-24 06:56:33.74	8.26	10.17	-46.6	-52.8	3.7	0.00e+00	0	45	104	0	64	29944
2026-01-24 06:56:35.73	7.95	10.00	-46.1	-52.4	3.7	0.00e+00	0	45	104	0	64	28739
2026-01-24 06:56:37.80	7.64	9.82	-47.1	-53.3	3.7	0.00e+00	0	45	104	0	65	29982
2026-01-24 06:56:39.99	7.31	9.64	-47.0	-53.1	3.7	0.00e+00	0	45	104	0	66	27698
2026-01-24 06:56:41.99	7.01	9.47	-47.8	-54.0	3.7	0.00e+00	0	45	104	0	66	30537
2026-01-24 06:56:43.99	6.72	9.30	-47.9	-53.8	3.7	0.00e+00	0	45	104	0	66	29980
2026-01-24 06:56:45.98	6.44	9.14	-48.6	-54.1	3.7	0.00e+00	0	45	104	0	67	29256
2026-01-24 06:56:47.98	6.16	8.97	-47.8	-54.0	3.7	0.00e+00	0	45	104	0	67	28942
2026-01-24 06:56:49.97	5.88	8.81	-48.8	-54.5	3.7	0.00e+00	0	45	104	0	69	27485
2026-01-24 06:56:51.96	5.61	8.64	-51.0	-55.5	3.7	0.00e+00	0	45	104	0	72	25851
2026-01-24 06:56:53.96	5.34	8.48	-50.5	-55.7	3.7	0.00e+00	0	45	104	0	72	26369
2026-01-24 06:56:55.94	5.08	8.32	-51.7	-56.2	3.7	0.00e+00	0	45	104	0	74	25063
2026-01-24 06:56:57.94	4.81	8.16	-50.8	-56.0	3.7	0.00e+00	0	45	104	0	73	25766
2026-01-24 06:56:59.93	4.56	8.00	-52.1	-56.8	3.7	0.00e+00	0	45	104	0	74	26632
2026-01-24 06:57:01.92	4.30	7.84	-52.0	-56.7	3.7	0.00e+00	0	45	104	0	75	24885
2026-01-24 06:57:03.91	4.05	7.68	-51.8	-56.6	3.7	0.00e+00	0	45	104	0	74	26075
2026-01-24 06:57:05.89	3.81	7.53	-51.7	-56.6	3.7	0.00e+00	0	45	104	0	75	24720
2026-01-24 06:57:07.88	3.56	7.37	-52.4	-57.0	3.7	0.00e+00	0	45	104	0	75	25710
2026-01-24 06:57:09.87	3.32	7.21	-52.5	-57.0	3.7	0.00e+00	0	45	104	0	75	25816
2026-01-24 06:57:11.86	3.09	7.06	-52.4	-56.8	3.7	0.00e+00	0	45	104	0	75	25122
2026-01-24 06:57:13.86	2.85	6.91	-51.8	-56.2	3.7	0.00e+00	0	45	104	0	74	25000
2026-01-24 06:57:15.87	2.62	6.75	-51.7	-56.3	3.7	0.00e+00	0	45	104	0	74	25102
2026-01-24 06:57:17.87	2.39	6.60	-51.7	-56.3	3.7	0.00e+00	0	45	104	0	74	25141
2026-01-24 06:57:19.88	2.17	6.45	-51.7	-56.3	3.7	0.00e+00	0	45	104	0	74	25205
2026-01-24 06:57:21.88	1.94	6.30	-51.7	-56.3	3.7	0.00e+00	0	45	104	0	74	25180
2026-01-24 06:57:23.88	1.72	6.15	-51.7	-56.2	3.7	0.00e+00	0	45	104	0	74	25058
2026-01-24 06:57:25.88	1.51	6.00	-51.7	-56.3	3.7	0.00e+00	0	45	104	0	74	25111
2026-01-24 06:57:27.89	1.29	5.85	-51.7	-56.3	3.7	0.00e+00	0	45	104	0	74	25122
2026-01-24 06:57:29.89	1.08	5.70	-51.7	-56.2	3.7	0.00e+00	0	45	104	0	74	25002
2026-01-24 06:57:31.90	0.88	5.55	-51.7	-56.2	3.7	0.00e+00	0	45	104	0	74	25050
2026-01-24 06:57:33.92	0.67	5.41	-51.7	-56.2	3.7	0.00e+00	0	45	104	0	74	25061
2026-01-24 06:57:35.91	0.47	5.26	-51.7	-56.2	3.7	0.00e+00	0	45	104	0	74	25068
2026-01-24 06:57:37.91	0.27	5.12	-51.7	-56.2	3.7	0.00e+00	0	46	104	0	74	25008
2026-01-24 06:57:39.92	0.07	4.97	-51.7	-56.2	3.7	0.00e+00	0	45	104	0	74	25082

#Closed at: 2026-01-24 06:57:40
#Recorded file [0 MB]: D:/Data/31040_260124_094940.dat