passes_logs/2026/01/24/T1/T1__20260124_165600_FENGYUN_3G_rec.log

#Pass ID: 20260124_165600_FENGYUN 3G
#Satellite: FENGYUN 3G
#Configuration: FENGYUN 3G
#almurnet v.1.7.20251203
#Start time: 2026-01-24 16:56:00

#Version: 2.0.20230620
#Station: T1
#Location: 37.570604 lon 55.790049 lat
#TLE: 1 56232U 23055A   26024.24521059  .00049620  00000+0  74824-3 0  9993
#TLE: 2 56232  49.9947   8.2107 0004117  75.2128 284.9296 15.54221826157636

#Time	Az	El	Level	Level2	SNR	BER	BlckErr	Temp	State	Recorded	gain1	gain2
2026-01-24 16:56:00.66	191.83	5.09	-48.4	-67.5	3.8	8.47e-01	0	38	0	0	68	32465
2026-01-24 16:56:02.64	191.48	5.20	-44.2	-66.9	3.8	8.47e-01	0	38	104	0	60	48078
2026-01-24 16:56:04.63	191.14	5.32	-44.1	-67.0	3.8	8.46e-01	0	38	104	0	60	48214
2026-01-24 16:56:06.61	190.79	5.42	-44.2	-66.9	3.8	8.45e-01	0	38	104	0	60	48074
2026-01-24 16:56:08.60	190.43	5.54	-44.2	-66.9	3.8	8.47e-01	0	38	104	0	60	47942
2026-01-24 16:56:10.58	190.07	5.65	-44.2	-66.9	3.8	8.47e-01	0	38	104	0	60	48023
2026-01-24 16:56:12.57	189.71	5.76	-44.2	-66.9	3.8	8.48e-01	0	39	104	0	60	47866
2026-01-24 16:56:14.56	189.34	5.87	-44.2	-66.9	3.8	8.46e-01	0	38	104	0	60	47747
2026-01-24 16:56:16.54	188.97	5.98	-44.2	-66.9	3.8	8.46e-01	0	39	104	0	60	47608
2026-01-24 16:56:18.53	188.60	6.08	-44.1	-66.9	3.8	8.47e-01	0	39	104	0	60	47670
2026-01-24 16:56:20.52	188.22	6.19	-44.1	-66.9	3.8	8.47e-01	0	39	104	0	60	47841
2026-01-24 16:56:22.50	187.84	6.30	-44.0	-66.8	3.8	8.46e-01	0	39	104	0	60	47297
2026-01-24 16:56:24.49	187.45	6.41	-44.1	-66.7	3.8	8.48e-01	0	39	104	0	60	46626
2026-01-24 16:56:26.48	187.06	6.52	-44.0	-66.7	3.8	8.46e-01	0	39	104	0	60	46588
2026-01-24 16:56:28.46	186.67	6.63	-44.4	-66.9	3.8	8.46e-01	0	39	104	0	59	50427
2026-01-24 16:56:30.45	186.27	6.74	-44.4	-66.9	3.8	8.47e-01	0	39	104	0	59	50978
2026-01-24 16:56:32.44	185.87	6.85	-44.4	-67.0	3.8	8.47e-01	0	39	104	0	59	51435
2026-01-24 16:56:34.42	185.46	6.95	-44.4	-67.0	3.8	8.47e-01	0	39	104	0	59	51496
2026-01-24 16:56:36.41	185.05	7.06	-44.4	-67.0	3.8	8.47e-01	0	39	104	0	59	51133
2026-01-24 16:56:38.40	184.63	7.17	-44.4	-66.8	3.8	8.48e-01	0	39	104	0	59	50138
2026-01-24 16:56:40.38	184.22	7.28	-44.4	-66.7	3.8	8.46e-01	0	39	104	0	59	49580
2026-01-24 16:56:42.37	183.79	7.38	-44.4	-66.7	3.8	8.46e-01	0	39	104	0	59	49589
2026-01-24 16:56:44.36	183.36	7.49	-44.4	-66.8	3.8	8.46e-01	0	39	104	0	59	50258
2026-01-24 16:56:46.34	182.93	7.59	-44.4	-67.0	3.8	8.46e-01	0	39	104	0	59	51195
2026-01-24 16:56:48.33	182.49	7.70	-44.4	-67.0	3.8	8.47e-01	0	39	104	0	59	51064
2026-01-24 16:56:50.32	182.05	7.80	-44.3	-67.0	3.8	8.46e-01	0	40	104	0	59	51385
2026-01-24 16:56:52.30	181.61	7.91	-44.3	-66.6	3.8	8.47e-01	0	40	104	0	59	48717
2026-01-24 16:56:54.29	181.16	8.01	-44.3	-66.5	3.8	8.47e-01	0	39	104	0	59	48237
2026-01-24 16:56:56.28	180.70	8.11	-44.3	-67.0	3.8	8.48e-01	0	40	104	0	59	51284
2026-01-24 16:56:58.26	180.25	8.21	-44.3	-66.4	3.8	8.46e-01	0	40	104	0	59	47912
2026-01-24 16:57:00.25	179.78	8.31	-44.3	-65.4	3.8	8.46e-01	0	40	104	0	59	42426
2026-01-24 16:57:02.24	179.31	8.41	-44.4	-65.9	3.8	8.47e-01	0	40	104	0	59	45258
2026-01-24 16:57:04.22	178.84	8.51	-44.3	-66.2	3.8	8.46e-01	0	40	104	0	59	46751
2026-01-24 16:57:06.21	178.37	8.61	-44.2	-62.2	4.6	8.36e-01	0	40	0	0	59	29625
2026-01-24 16:57:08.19	177.89	8.71	-44.3	-63.9	4.1	8.03e-01	0	40	0	0	59	35719
2026-01-24 16:57:10.18	177.40	8.81	-44.4	-65.2	3.9	8.42e-01	0	40	104	0	59	41520
2026-01-24 16:57:12.17	176.91	8.90	-44.3	-61.5	5.0	8.05e-01	0	40	0	0	59	27235
2026-01-24 16:57:14.15	176.42	9.00	-44.3	-62.4	4.5	7.99e-01	0	40	0	0	59	30199
2026-01-24 16:57:16.14	175.92	9.09	-44.1	-57.2	8.7	8.07e-01	0	40	0	0	59	16603
2026-01-24 16:57:18.13	175.42	9.18	-44.0	-58.7	7.0	6.40e-01	0	40	0	0	59	19810
2026-01-24 16:57:20.12	174.91	9.28	-44.5	-64.7	3.8	6.45e-02	0	40	104	0	59	39211
2026-01-24 16:57:22.11	174.40	9.37	-42.6	-48.0	17.9	6.30e-01	0	40	0	0	56	6832
2026-01-24 16:57:24.10	173.88	9.46	-41.7	-45.8	19.7	0.00e+00	0	40	0	0	55	5628
2026-01-24 16:57:26.10	173.36	9.54	-40.3	-43.3	22.3	0.00e+00	0	40	0	0	52	5039
2026-01-24 16:57:28.08	172.83	9.63	-39.9	-42.8	23.0	0.00e+00	0	40	0	0	51	4988
2026-01-24 16:57:30.07	172.30	9.72	-39.5	-42.3	23.5	0.00e+00	0	40	0	0	51	4737
2026-01-24 16:57:32.06	171.77	9.80	-39.2	-42.0	23.8	0.00e+00	0	40	0	0	50	4830
2026-01-24 16:57:34.05	171.23	9.88	-39.0	-41.7	24.1	0.00e+00	0	40	0	0	49	4959
2026-01-24 16:57:36.04	170.69	9.97	-39.0	-41.8	24.0	0.00e+00	0	40	0	0	49	5006
2026-01-24 16:57:38.03	170.14	10.04	-38.8	-41.5	24.2	0.00e+00	0	40	0	0	49	4851
2026-01-24 16:57:40.02	169.59	10.12	-38.8	-41.5	24.3	0.00e+00	0	40	0	0	49	4830
2026-01-24 16:57:42.01	169.04	10.20	-38.6	-41.2	24.5	0.00e+00	0	40	0	0	49	4687
2026-01-24 16:57:44.00	168.48	10.27	-38.9	-41.6	24.2	0.00e+00	0	40	0	0	49	4888
2026-01-24 16:57:45.99	167.92	10.35	-39.0	-41.6	24.2	0.00e+00	0	40	0	0	49	4873
2026-01-24 16:57:47.98	167.36	10.42	-39.1	-41.6	24.2	0.00e+00	0	40	0	0	49	4894
2026-01-24 16:57:49.96	166.79	10.49	-39.7	-42.2	23.5	0.00e+00	0	40	0	0	50	4958
2026-01-24 16:57:51.95	166.22	10.56	-39.9	-42.4	23.5	0.00e+00	0	40	0	0	50	5049
2026-01-24 16:57:53.94	165.64	10.62	-40.0	-42.4	23.4	0.00e+00	0	40	0	0	51	4794
2026-01-24 16:57:55.93	165.06	10.69	-40.0	-42.4	23.4	0.00e+00	0	41	0	0	51	4813
2026-01-24 16:57:57.93	164.48	10.75	-39.9	-42.3	23.5	3.93e-03	0	40	0	0	51	4756
2026-01-24 16:57:59.91	163.90	10.81	-39.9	-42.3	23.6	0.00e+00	0	40	0	0	51	4742
2026-01-24 16:58:01.90	163.31	10.87	-39.9	-42.3	23.6	0.00e+00	0	40	0	0	51	4727
2026-01-24 16:58:03.89	162.72	10.92	-39.9	-42.3	23.5	0.00e+00	0	40	0	0	51	4748
2026-01-24 16:58:05.88	162.12	10.98	-39.8	-42.1	23.5	0.00e+00	0	40	0	0	51	4640
2026-01-24 16:58:07.87	161.52	11.03	-39.5	-41.8	24.0	0.00e+00	0	40	0	0	51	4479
2026-01-24 16:58:09.86	160.92	11.08	-39.5	-41.8	24.0	0.00e+00	0	40	0	0	50	4723
2026-01-24 16:58:11.85	160.32	11.12	-39.4	-41.6	24.2	0.00e+00	0	40	0	0	50	4647
2026-01-24 16:58:13.84	159.71	11.17	-39.4	-41.7	24.1	0.00e+00	0	40	0	0	50	4674
2026-01-24 16:58:15.83	159.11	11.21	-39.6	-41.9	23.9	2.37e-03	0	40	0	0	50	4782
2026-01-24 16:58:17.82	158.50	11.25	-39.4	-41.7	24.1	5.38e-03	0	40	0	0	50	4681
2026-01-24 16:58:19.81	157.88	11.29	-39.6	-41.9	23.9	0.00e+00	0	40	0	0	50	4783
2026-01-24 16:58:21.80	157.27	11.33	-39.5	-41.8	24.0	6.19e-03	0	40	0	0	50	4714
2026-01-24 16:58:23.78	156.66	11.36	-39.5	-41.8	24.0	3.83e-03	0	40	0	0	50	4711
2026-01-24 16:58:25.78	156.03	11.39	-39.2	-41.5	24.3	0.00e+00	0	40	0	0	50	4569
2026-01-24 16:58:27.77	155.41	11.42	-38.9	-41.2	24.6	0.00e+00	0	40	0	0	49	4663
2026-01-24 16:58:29.76	154.79	11.44	-38.3	-40.4	25.3	6.40e-05	0	41	0	0	48	4533
2026-01-24 16:58:31.74	154.17	11.47	-38.5	-40.7	25.0	0.00e+00	0	41	0	0	48	4703
2026-01-24 16:58:33.73	153.55	11.49	-38.4	-40.6	25.1	0.00e+00	0	40	0	0	48	4621
2026-01-24 16:58:35.72	152.93	11.50	-38.5	-40.7	25.1	0.00e+00	0	40	0	0	48	4673
2026-01-24 16:58:37.71	152.30	11.52	-38.7	-41.0	24.8	0.00e+00	0	40	0	0	48	4818
2026-01-24 16:58:39.70	151.67	11.53	-39.0	-41.2	24.4	0.00e+00	0	40	0	0	48	4972
2026-01-24 16:58:41.69	151.05	11.54	-39.0	-41.2	24.6	0.00e+00	0	40	0	0	48	4958
2026-01-24 16:58:43.68	150.42	11.55	-39.0	-41.2	24.3	0.00e+00	0	40	0	0	48	4983
2026-01-24 16:58:45.67	149.79	11.55	-39.1	-41.3	24.4	0.00e+00	0	41	0	0	48	5039
2026-01-24 16:58:47.66	149.16	11.56	-38.8	-41.0	24.7	0.00e+00	0	40	0	0	48	4854
2026-01-24 16:58:49.65	148.54	11.56	-38.5	-40.6	25.1	0.00e+00	0	40	0	0	48	4628
2026-01-24 16:58:51.63	147.91	11.55	-38.5	-40.6	25.1	0.00e+00	0	40	0	0	48	4637
2026-01-24 16:58:53.62	147.28	11.55	-38.5	-40.7	25.0	0.00e+00	0	41	0	0	48	4669
2026-01-24 16:58:55.61	146.66	11.54	-38.9	-41.1	24.6	0.00e+00	0	40	0	0	48	4916
2026-01-24 16:58:57.60	146.03	11.53	-38.6	-40.8	24.8	0.00e+00	0	40	0	0	48	4741
2026-01-24 16:58:59.59	145.40	11.51	-38.3	-40.5	25.1	0.00e+00	0	41	0	0	48	4578
2026-01-24 16:59:01.58	144.78	11.50	-38.4	-40.5	25.1	0.00e+00	0	40	0	0	48	4581
2026-01-24 16:59:03.57	144.15	11.48	-38.4	-40.6	25.1	0.00e+00	0	41	0	0	48	4624
2026-01-24 16:59:05.56	143.53	11.46	-38.8	-40.9	24.8	0.00e+00	0	41	0	0	48	4807
2026-01-24 16:59:07.56	142.91	11.44	-39.1	-41.3	24.5	0.00e+00	0	40	0	0	48	4999
2026-01-24 16:59:09.54	142.29	11.41	-39.2	-41.4	24.3	0.00e+00	0	40	0	0	49	4812
2026-01-24 16:59:11.53	141.67	11.38	-38.8	-41.1	24.7	0.00e+00	0	40	0	0	49	4601
2026-01-24 16:59:13.52	141.06	11.35	-38.9	-41.1	24.7	0.00e+00	0	41	0	0	49	4622
2026-01-24 16:59:15.51	140.44	11.32	-39.3	-41.6	24.1	0.00e+00	0	41	0	0	49	4910
2026-01-24 16:59:17.50	139.83	11.28	-39.3	-41.5	24.2	0.00e+00	0	41	0	0	49	4857
2026-01-24 16:59:19.49	139.22	11.24	-39.8	-42.2	23.6	0.00e+00	0	41	0	0	50	4938
2026-01-24 16:59:21.48	138.61	11.20	-40.1	-42.5	23.3	0.00e+00	0	41	0	0	50	5151
2026-01-24 16:59:23.47	138.00	11.16	-39.8	-42.2	23.7	0.00e+00	0	41	0	0	50	4937
2026-01-24 16:59:25.46	137.40	11.11	-39.6	-41.9	23.9	0.00e+00	0	41	0	0	50	4768
2026-01-24 16:59:27.45	136.80	11.06	-39.6	-41.9	23.8	0.00e+00	0	40	0	0	50	4801
2026-01-24 16:59:29.44	136.20	11.01	-40.2	-42.6	23.2	0.00e+00	0	41	0	0	51	4925
2026-01-24 16:59:31.43	135.60	10.96	-40.3	-42.8	23.0	0.00e+00	0	41	0	0	51	5035
2026-01-24 16:59:33.42	135.01	10.91	-40.3	-42.7	23.0	0.00e+00	0	41	0	0	51	4979
2026-01-24 16:59:35.41	134.42	10.85	-39.9	-42.3	23.5	0.00e+00	0	41	0	0	51	4721
2026-01-24 16:59:37.40	133.83	10.79	-39.8	-42.2	23.6	0.00e+00	0	41	0	0	51	4694
2026-01-24 16:59:39.40	133.25	10.73	-40.2	-42.7	23.1	0.00e+00	0	41	0	0	51	4941
2026-01-24 16:59:41.38	132.67	10.67	-40.2	-42.7	23.1	0.00e+00	0	41	0	0	51	4932
2026-01-24 16:59:43.37	132.09	10.60	-39.8	-42.2	23.5	0.00e+00	0	40	0	0	51	4660
2026-01-24 16:59:45.36	131.52	10.54	-39.4	-41.7	24.0	0.00e+00	0	40	0	0	50	4690
2026-01-24 16:59:47.35	130.95	10.47	-39.1	-41.4	24.3	0.00e+00	0	40	0	0	50	4522
2026-01-24 16:59:49.34	130.38	10.40	-39.6	-42.0	23.8	0.00e+00	0	41	0	0	50	4835
2026-01-24 16:59:51.32	129.83	10.33	-40.0	-42.4	23.3	0.00e+00	0	40	0	0	50	5089
2026-01-24 16:59:53.31	129.27	10.26	-40.2	-42.7	23.1	0.00e+00	0	40	0	0	51	4936
2026-01-24 16:59:55.30	128.71	10.18	-40.1	-42.6	23.1	0.00e+00	0	41	0	0	51	4891
2026-01-24 16:59:57.29	128.16	10.10	-39.1	-41.4	23.0	0.00e+00	0	41	0	0	50	4527
2026-01-24 16:59:59.28	127.61	10.02	-39.0	-41.3	24.3	0.00e+00	0	41	0	0	49	4743
2026-01-24 17:00:01.27	127.07	9.94	-39.1	-41.4	24.2	0.00e+00	0	40	0	0	49	4781
2026-01-24 17:00:03.26	126.53	9.86	-39.7	-42.1	23.7	0.00e+00	0	41	0	0	50	4878
2026-01-24 17:00:05.25	126.00	9.78	-40.2	-42.6	23.1	0.00e+00	0	40	0	0	51	4905
2026-01-24 17:00:07.24	125.47	9.70	-40.4	-42.9	22.8	0.00e+00	0	41	0	0	51	5054
2026-01-24 17:00:09.23	124.94	9.61	-40.3	-42.8	22.9	0.00e+00	0	41	0	0	51	5033
2026-01-24 17:00:11.23	124.42	9.52	-40.3	-42.7	23.1	0.00e+00	0	41	0	0	51	4958
2026-01-24 17:00:13.22	123.90	9.43	-40.3	-42.7	23.0	0.00e+00	0	41	0	0	51	4964
2026-01-24 17:00:15.21	123.39	9.35	-39.9	-42.3	23.4	0.00e+00	0	41	0	0	51	4717
2026-01-24 17:00:17.20	122.88	9.25	-40.1	-42.6	23.1	0.00e+00	0	41	0	0	51	4897
2026-01-24 17:00:19.19	122.37	9.16	-40.4	-42.9	22.7	0.00e+00	0	41	0	0	51	5100
2026-01-24 17:00:21.17	121.88	9.07	-40.5	-43.1	22.6	0.00e+00	0	40	0	0	51	5171
2026-01-24 17:00:23.16	121.38	8.98	-48.0	-65.0	3.3	0.00e+00	0	41	104	0	66	27362
2026-01-24 17:00:25.15	120.89	8.88	-48.5	-67.1	3.8	7.72e-01	0	41	104	0	67	32587
2026-01-24 17:00:27.13	120.40	8.79	-48.6	-67.4	3.8	8.46e-01	0	41	104	0	67	33988
2026-01-24 17:00:29.12	119.92	8.69	-48.8	-67.7	3.8	8.47e-01	0	40	104	0	68	32931
2026-01-24 17:00:31.11	119.44	8.59	-48.7	-67.7	3.8	8.47e-01	0	41	104	0	68	33194
2026-01-24 17:00:33.09	118.97	8.49	-48.9	-67.8	3.8	8.47e-01	0	41	104	0	68	33314
2026-01-24 17:00:35.08	118.50	8.39	-48.6	-67.8	3.8	8.47e-01	0	41	104	0	68	33549
2026-01-24 17:00:37.07	118.04	8.29	-48.7	-67.8	3.8	8.47e-01	0	41	104	0	68	33622
2026-01-24 17:00:39.06	117.58	8.19	-48.8	-67.9	3.8	8.45e-01	0	41	104	0	68	33723
2026-01-24 17:00:41.04	117.12	8.09	-48.7	-67.9	3.8	8.48e-01	0	41	104	0	68	33713
2026-01-24 17:00:43.03	116.67	7.99	-48.8	-67.9	3.8	8.47e-01	0	41	104	0	68	33773
2026-01-24 17:00:45.01	116.23	7.89	-48.8	-67.8	3.8	8.47e-01	0	41	104	0	68	33609
2026-01-24 17:00:47.00	115.78	7.78	-48.8	-67.8	3.8	8.46e-01	0	41	104	0	68	33574
2026-01-24 17:00:48.99	115.35	7.68	-48.8	-67.8	3.8	8.46e-01	0	41	104	0	68	33545
2026-01-24 17:00:50.97	114.91	7.57	-48.8	-67.8	3.8	8.47e-01	0	41	104	0	68	33512
2026-01-24 17:00:52.96	114.48	7.47	-48.8	-67.8	3.8	8.47e-01	0	41	104	0	68	33447
2026-01-24 17:00:54.95	114.06	7.36	-48.7	-67.8	3.8	8.47e-01	0	41	104	0	68	33443
2026-01-24 17:00:56.93	113.64	7.26	-48.8	-67.8	3.8	8.47e-01	0	41	104	0	68	33505
2026-01-24 17:00:58.92	113.22	7.15	-48.8	-67.8	3.8	8.46e-01	0	41	104	0	68	33409
2026-01-24 17:01:00.90	112.81	7.04	-48.7	-67.8	3.8	8.47e-01	0	41	104	0	68	33479
2026-01-24 17:01:02.89	112.40	6.94	-48.7	-67.8	3.8	8.47e-01	0	41	104	0	68	33393
2026-01-24 17:01:04.88	112.00	6.83	-48.7	-67.8	3.8	8.47e-01	0	41	104	0	68	33434
2026-01-24 17:01:06.86	111.60	6.72	-48.7	-67.8	3.8	8.48e-01	0	41	104	0	68	33388
2026-01-24 17:01:08.85	111.21	6.61	-48.7	-67.7	3.8	8.47e-01	0	41	104	0	68	33306
2026-01-24 17:01:10.84	110.81	6.51	-48.7	-67.8	3.8	8.47e-01	0	41	104	0	68	33358
2026-01-24 17:01:12.82	110.43	6.40	-48.7	-67.8	3.8	8.48e-01	0	41	104	0	68	33435
2026-01-24 17:01:14.81	110.05	6.29	-48.7	-67.7	3.8	8.47e-01	0	41	104	0	68	33271
2026-01-24 17:01:16.79	109.67	6.18	-48.7	-67.8	3.8	8.47e-01	0	41	104	0	68	33350
2026-01-24 17:01:18.78	109.29	6.07	-48.7	-67.7	3.8	8.47e-01	0	41	104	0	68	33294
2026-01-24 17:01:20.76	108.92	5.96	-48.7	-67.8	3.8	8.48e-01	0	41	104	0	68	33325
2026-01-24 17:01:22.75	108.56	5.85	-48.7	-67.7	3.8	8.48e-01	0	41	104	0	68	33233
2026-01-24 17:01:24.74	108.19	5.74	-48.7	-67.8	3.8	8.46e-01	0	41	104	0	68	33339
2026-01-24 17:01:26.73	107.83	5.63	-48.7	-67.7	3.8	8.46e-01	0	41	104	0	68	33214
2026-01-24 17:01:28.71	107.48	5.52	-48.7	-67.7	3.8	8.46e-01	0	41	104	0	68	33274
2026-01-24 17:01:30.70	107.13	5.41	-48.7	-67.8	3.8	8.47e-01	0	41	104	0	68	33322
2026-01-24 17:01:32.68	106.78	5.30	-48.7	-67.7	3.8	8.48e-01	0	41	104	0	68	33208
2026-01-24 17:01:34.67	106.44	5.19	-48.7	-67.7	3.8	8.47e-01	0	41	104	0	68	33224
2026-01-24 17:01:36.66	106.09	5.08	-48.7	-67.7	3.8	8.47e-01	0	41	104	0	68	33175
2026-01-24 17:01:38.64	105.76	4.97	-48.7	-67.7	3.8	8.47e-01	0	41	104	0	68	33291

#Closed at: 2026-01-24 17:01:40
#Recorded file [0 MB]: D:/Data/31040_260124_195600.dat