passes_logs/2026/01/24/T1/T1__20260124_214330_FENGYUN_3G_rec.log

#Pass ID: 20260124_214330_FENGYUN 3G
#Satellite: FENGYUN 3G
#Configuration: FENGYUN 3G
#almurnet v.1.7.20251203
#Start time: 2026-01-24 21:43:31

#Version: 2.0.20230620
#Station: T1
#Location: 37.570604 lon 55.790049 lat
#TLE: 1 56232U 23055A   26024.50237624  .00046442  00000+0  70049-3 0  9998
#TLE: 2 56232  49.9946   6.8827 0004106  76.8159 283.3267 15.54243337157673

#Time	Az	El	Level	Level2	SNR	BER	BlckErr	Temp	State	Recorded	gain1	gain2
2026-01-24 21:43:31.36	257.05	5.14	-48.3	-67.3	3.8	8.47e-01	0	38	0	0	68	31540
2026-01-24 21:43:33.34	256.76	5.27	-48.3	-67.2	3.8	8.47e-01	0	39	104	0	68	31310
2026-01-24 21:43:35.33	256.46	5.39	-48.3	-67.1	3.8	8.48e-01	0	39	104	0	68	30892
2026-01-24 21:43:37.31	256.16	5.52	-48.3	-67.1	3.8	8.47e-01	0	39	104	0	68	30838
2026-01-24 21:43:39.30	255.85	5.64	-48.3	-67.2	3.8	8.47e-01	0	39	104	0	68	31275
2026-01-24 21:43:41.29	255.54	5.77	-48.3	-67.2	3.8	8.47e-01	0	39	104	0	68	31141
2026-01-24 21:43:43.27	255.23	5.90	-48.3	-66.9	3.8	8.47e-01	0	39	104	0	68	30124
2026-01-24 21:43:45.26	254.91	6.03	-48.3	-66.8	3.8	8.46e-01	0	39	104	0	68	29744
2026-01-24 21:43:47.24	254.59	6.15	-48.3	-67.0	3.8	8.47e-01	0	39	104	0	68	30587
2026-01-24 21:43:49.23	254.26	6.28	-48.3	-67.2	3.8	8.48e-01	0	39	104	0	68	31367
2026-01-24 21:43:51.22	253.93	6.41	-48.3	-67.2	3.8	8.47e-01	0	39	104	0	68	31358
2026-01-24 21:43:53.20	253.60	6.54	-48.3	-67.1	3.8	8.47e-01	0	39	104	0	68	30933
2026-01-24 21:43:55.19	253.26	6.67	-48.3	-67.0	3.8	8.47e-01	0	39	104	0	68	30625
2026-01-24 21:43:57.17	252.92	6.80	-48.3	-67.1	3.8	8.46e-01	0	40	104	0	68	30777
2026-01-24 21:43:59.16	252.57	6.93	-48.3	-67.1	3.8	8.47e-01	0	39	104	0	68	31086
2026-01-24 21:44:01.15	252.22	7.06	-48.3	-67.1	3.8	8.47e-01	0	40	104	0	68	30800
2026-01-24 21:44:03.13	251.86	7.19	-48.3	-67.1	3.8	8.48e-01	0	40	104	0	68	31040
2026-01-24 21:44:05.12	251.50	7.32	-48.3	-67.2	3.8	8.46e-01	0	40	104	0	68	31293
2026-01-24 21:44:07.10	251.14	7.45	-48.3	-67.2	3.8	8.48e-01	0	40	104	0	68	31153
2026-01-24 21:44:09.09	250.77	7.58	-48.3	-67.1	3.8	8.48e-01	0	40	104	0	68	31020
2026-01-24 21:44:11.08	250.39	7.71	-48.3	-67.1	3.8	8.48e-01	0	40	104	0	68	30957
2026-01-24 21:44:13.06	250.02	7.84	-48.3	-67.2	3.8	8.48e-01	0	40	104	0	68	31401
2026-01-24 21:44:15.05	249.63	7.97	-48.3	-67.1	3.8	8.47e-01	0	40	104	0	68	30760
2026-01-24 21:44:17.04	249.24	8.11	-48.3	-66.9	3.8	8.48e-01	0	40	104	0	68	30207
2026-01-24 21:44:19.02	248.85	8.24	-48.3	-67.1	3.8	8.47e-01	0	40	104	0	68	31056
2026-01-24 21:44:21.01	248.45	8.37	-48.3	-67.2	3.8	8.48e-01	0	40	104	0	68	31239
2026-01-24 21:44:23.00	248.05	8.50	-48.3	-67.1	3.8	8.49e-01	0	40	104	0	68	31003
2026-01-24 21:44:24.98	247.64	8.63	-48.3	-67.1	3.8	8.47e-01	0	40	104	0	68	30969
2026-01-24 21:44:26.97	247.22	8.76	-48.2	-65.2	3.8	8.46e-01	0	40	104	0	68	24807
2026-01-24 21:44:28.95	246.81	8.89	-47.7	-59.2	6.5	8.38e-01	0	40	0	0	67	13117
2026-01-24 21:44:30.94	246.38	9.02	-46.3	-52.4	13.4	3.84e-01	0	40	0	0	64	7158
2026-01-24 21:44:32.93	245.95	9.16	-47.5	-57.3	8.3	1.13e-01	0	40	0	0	66	11173
2026-01-24 21:44:34.92	245.51	9.29	-42.1	-45.0	21.0	3.02e-02	0	40	0	0	56	4822
2026-01-24 21:44:36.91	245.07	9.42	-42.1	-45.0	20.9	1.29e-01	0	41	0	0	56	4847
2026-01-24 21:44:38.90	244.63	9.55	-41.3	-44.0	21.9	0.00e+00	0	40	0	0	54	4828
2026-01-24 21:44:40.89	244.18	9.68	-40.7	-43.1	22.8	0.00e+00	0	40	0	0	53	4648
2026-01-24 21:44:42.88	243.72	9.81	-39.8	-42.1	23.8	0.00e+00	0	40	0	0	51	4619
2026-01-24 21:44:44.87	243.25	9.94	-39.9	-42.2	23.7	0.00e+00	0	40	0	0	51	4701
2026-01-24 21:44:46.87	242.78	10.07	-39.9	-42.3	23.7	0.00e+00	0	40	0	0	51	4707
2026-01-24 21:44:48.86	242.31	10.20	-39.7	-42.0	23.9	0.00e+00	0	40	0	0	51	4554
2026-01-24 21:44:50.84	241.83	10.33	-39.6	-41.9	24.0	0.00e+00	0	40	0	0	51	4544
2026-01-24 21:44:52.84	241.34	10.45	-39.3	-41.5	24.4	0.00e+00	0	40	0	0	50	4580
2026-01-24 21:44:54.83	240.85	10.58	-39.0	-41.3	24.6	0.00e+00	0	41	0	0	50	4443
2026-01-24 21:44:56.82	240.35	10.71	-39.1	-41.4	24.5	0.00e+00	0	40	0	0	50	4514
2026-01-24 21:44:58.80	239.85	10.83	-39.3	-41.6	24.3	0.00e+00	0	40	0	0	50	4618
2026-01-24 21:45:00.79	239.34	10.96	-39.6	-41.8	24.1	0.00e+00	0	41	0	0	50	4749
2026-01-24 21:45:02.78	238.83	11.08	-39.4	-41.6	24.3	0.00e+00	0	41	0	0	50	4630
2026-01-24 21:45:04.77	238.31	11.21	-39.2	-41.4	24.5	0.00e+00	0	41	0	0	50	4534
2026-01-24 21:45:06.75	237.78	11.33	-39.2	-41.4	24.5	0.00e+00	0	40	0	0	50	4539
2026-01-24 21:45:08.74	237.25	11.45	-39.2	-41.4	24.5	0.00e+00	0	41	0	0	50	4543
2026-01-24 21:45:10.73	236.71	11.57	-39.1	-41.3	24.6	0.00e+00	0	41	0	0	50	4485
2026-01-24 21:45:12.72	236.17	11.69	-39.0	-41.2	24.7	0.00e+00	0	41	0	0	50	4422
2026-01-24 21:45:14.71	235.62	11.81	-38.9	-41.2	24.8	0.00e+00	0	40	0	0	49	4657
2026-01-24 21:45:16.70	235.06	11.93	-39.1	-41.4	24.5	0.00e+00	0	41	0	0	49	4780
2026-01-24 21:45:18.69	234.50	12.05	-39.1	-41.4	24.6	0.00e+00	0	41	0	0	49	4771
2026-01-24 21:45:20.68	233.93	12.16	-39.5	-41.8	24.2	0.00e+00	0	40	0	0	49	4985
2026-01-24 21:45:22.67	233.36	12.27	-39.3	-41.5	24.4	0.00e+00	0	41	0	0	49	4864
2026-01-24 21:45:24.66	232.78	12.39	-39.1	-41.3	24.6	0.00e+00	0	41	0	0	49	4726
2026-01-24 21:45:26.64	232.19	12.50	-38.8	-41.0	24.9	0.00e+00	0	41	0	0	49	4566
2026-01-24 21:45:28.63	231.60	12.61	-38.6	-40.7	25.1	0.00e+00	0	41	0	0	49	4427
2026-01-24 21:45:30.62	231.00	12.71	-38.9	-41.1	24.9	0.00e+00	0	41	0	0	49	4603
2026-01-24 21:45:32.61	230.40	12.82	-39.0	-41.2	24.8	0.00e+00	0	40	0	0	49	4662
2026-01-24 21:45:34.60	229.79	12.92	-39.1	-41.3	24.7	0.00e+00	0	41	0	0	49	4730
2026-01-24 21:45:36.59	229.18	13.02	-39.2	-41.4	24.6	0.00e+00	0	41	0	0	49	4784
2026-01-24 21:45:38.58	228.56	13.12	-38.7	-40.8	25.1	0.00e+00	0	41	0	0	49	4484
2026-01-24 21:45:40.57	227.93	13.22	-38.4	-40.6	25.2	0.00e+00	0	41	0	0	48	4605
2026-01-24 21:45:42.56	227.30	13.32	-38.3	-40.4	25.5	0.00e+00	0	41	0	0	48	4544
2026-01-24 21:45:44.55	226.67	13.41	-38.2	-40.3	25.6	0.00e+00	0	41	0	0	48	4451
2026-01-24 21:45:46.53	226.03	13.50	-38.0	-40.1	25.7	0.00e+00	0	41	0	0	48	4388
2026-01-24 21:45:48.52	225.38	13.59	-38.0	-40.1	25.7	0.00e+00	0	41	0	0	47	4647
2026-01-24 21:45:50.51	224.73	13.68	-38.1	-40.2	25.7	0.00e+00	0	41	0	0	47	4660
2026-01-24 21:45:52.50	224.08	13.76	-38.1	-40.2	25.5	0.00e+00	0	41	0	0	47	4688
2026-01-24 21:45:54.49	223.41	13.84	-38.1	-40.2	25.6	0.00e+00	0	41	0	0	47	4685
2026-01-24 21:45:56.48	222.75	13.92	-38.1	-40.2	25.7	0.00e+00	0	41	0	0	47	4661
2026-01-24 21:45:58.47	222.08	13.99	-38.1	-40.3	25.6	0.00e+00	0	41	0	0	47	4709
2026-01-24 21:46:00.46	221.40	14.07	-38.1	-40.3	25.5	0.00e+00	0	41	0	0	47	4711
2026-01-24 21:46:02.45	220.73	14.14	-38.2	-40.3	25.5	0.00e+00	0	41	0	0	47	4758
2026-01-24 21:46:04.44	220.04	14.20	-38.2	-40.3	25.5	0.00e+00	0	41	0	0	47	4752
2026-01-24 21:46:06.43	219.36	14.27	-37.9	-40.0	25.7	0.00e+00	0	41	0	0	47	4594
2026-01-24 21:46:08.42	218.67	14.33	-37.6	-39.7	26.0	0.00e+00	0	41	0	0	47	4427
2026-01-24 21:46:10.41	217.97	14.39	-37.6	-39.7	26.1	0.00e+00	0	41	0	0	46	4663
2026-01-24 21:46:12.40	217.27	14.44	-37.5	-39.5	26.3	0.00e+00	0	41	0	0	46	4571
2026-01-24 21:46:14.39	216.57	14.49	-37.8	-39.9	25.9	0.00e+00	0	41	0	0	46	4772
2026-01-24 21:46:16.38	215.87	14.54	-38.2	-40.3	25.5	0.00e+00	0	41	0	0	47	4734
2026-01-24 21:46:18.37	215.16	14.59	-38.2	-40.3	25.5	0.00e+00	0	41	0	0	47	4753
2026-01-24 21:46:20.36	214.45	14.63	-38.2	-40.3	25.5	0.00e+00	0	41	0	0	47	4751
2026-01-24 21:46:22.36	213.74	14.67	-37.7	-39.8	26.0	0.00e+00	0	41	0	0	47	4458
2026-01-24 21:46:24.35	213.02	14.70	-37.3	-39.4	26.3	0.00e+00	0	41	0	0	46	4525
2026-01-24 21:46:26.33	212.31	14.73	-37.2	-39.3	26.4	0.00e+00	0	41	0	0	46	4464
2026-01-24 21:46:28.33	211.59	14.76	-37.3	-39.4	26.3	0.00e+00	0	41	0	0	46	4507
2026-01-24 21:46:30.32	210.87	14.78	-37.5	-39.6	26.2	0.00e+00	0	41	0	0	46	4607
2026-01-24 21:46:32.31	210.15	14.80	-37.6	-39.7	26.1	0.00e+00	0	41	0	0	46	4673
2026-01-24 21:46:34.30	209.43	14.82	-38.2	-40.3	25.6	0.00e+00	0	41	0	0	47	4722
2026-01-24 21:46:36.29	208.71	14.83	-38.5	-40.7	25.1	0.00e+00	0	41	0	0	47	4975
2026-01-24 21:46:38.28	207.98	14.84	-38.3	-40.4	25.4	0.00e+00	0	41	0	0	47	4796
2026-01-24 21:46:40.26	207.26	14.85	-38.1	-40.2	25.6	0.00e+00	0	41	0	0	47	4669
2026-01-24 21:46:42.26	206.53	14.85	-38.1	-40.2	25.7	0.00e+00	0	41	0	0	47	4666
2026-01-24 21:46:44.24	205.81	14.84	-38.1	-40.2	25.6	0.00e+00	0	41	0	0	47	4680
2026-01-24 21:46:46.23	205.09	14.84	-38.1	-40.3	25.5	0.00e+00	0	41	0	0	47	4722
2026-01-24 21:46:48.22	204.37	14.83	-38.1	-40.3	25.5	0.00e+00	0	41	0	0	47	4708
2026-01-24 21:46:50.22	203.64	14.82	-38.0	-40.2	25.6	0.00e+00	0	41	0	0	47	4666
2026-01-24 21:46:52.21	202.92	14.80	-37.9	-40.0	25.7	0.00e+00	0	41	0	0	47	4587
2026-01-24 21:46:54.19	202.20	14.78	-37.6	-39.8	25.9	0.00e+00	0	41	0	0	47	4446
2026-01-24 21:46:56.18	201.48	14.76	-37.6	-39.7	26.0	0.00e+00	0	41	0	0	47	4436
2026-01-24 21:46:58.17	200.76	14.73	-37.9	-40.0	25.8	0.00e+00	0	41	0	0	47	4556
2026-01-24 21:47:00.15	200.05	14.70	-38.3	-40.5	25.3	0.00e+00	0	41	0	0	47	4850
2026-01-24 21:47:02.12	199.34	14.66	-38.7	-40.9	25.1	0.00e+00	0	41	0	0	48	4762
2026-01-24 21:47:04.11	198.63	14.62	-38.6	-40.8	25.0	0.00e+00	0	41	0	0	48	4757
2026-01-24 21:47:06.10	197.92	14.58	-38.4	-40.6	25.3	0.00e+00	0	41	0	0	48	4614
2026-01-24 21:47:08.09	197.21	14.54	-37.9	-40.1	25.6	0.00e+00	0	41	0	0	47	4631
2026-01-24 21:47:10.08	196.51	14.49	-37.9	-40.1	25.7	0.00e+00	0	41	0	0	47	4607
2026-01-24 21:47:12.07	195.81	14.44	-38.2	-40.4	25.4	0.00e+00	0	41	0	0	47	4781
2026-01-24 21:47:14.06	195.11	14.38	-38.1	-40.3	25.5	0.00e+00	0	41	0	0	47	4744
2026-01-24 21:47:16.04	194.42	14.32	-38.0	-40.2	25.6	0.00e+00	0	41	0	0	47	4659
2026-01-24 21:47:18.03	193.73	14.26	-37.6	-39.8	26.0	0.00e+00	0	41	0	0	47	4462
2026-01-24 21:47:20.02	193.04	14.20	-37.4	-39.5	26.2	0.00e+00	0	41	0	0	46	4586
2026-01-24 21:47:22.01	192.36	14.13	-37.5	-39.7	26.0	0.00e+00	0	41	0	0	46	4675
2026-01-24 21:47:24.00	191.68	14.06	-37.7	-39.8	25.9	0.00e+00	0	41	0	0	46	4745
2026-01-24 21:47:25.99	191.00	13.99	-37.2	-39.2	26.5	0.00e+00	0	41	0	0	46	4441
2026-01-24 21:47:27.98	190.33	13.91	-36.8	-38.8	26.8	0.00e+00	0	41	0	0	45	4486
2026-01-24 21:47:29.96	189.67	13.83	-37.5	-39.6	26.1	0.00e+00	0	41	0	0	45	4919
2026-01-24 21:47:31.95	189.01	13.75	-37.8	-40.0	25.7	0.00e+00	0	41	0	0	46	4869
2026-01-24 21:47:33.94	188.35	13.67	-37.5	-39.7	26.0	0.00e+00	0	41	0	0	46	4666
2026-01-24 21:47:35.93	187.70	13.58	-37.2	-39.2	26.4	0.00e+00	0	41	0	0	46	4438
2026-01-24 21:47:37.92	187.05	13.49	-37.3	-39.4	26.3	0.00e+00	0	41	0	0	46	4515
2026-01-24 21:47:39.91	186.41	13.40	-37.9	-40.0	25.8	0.00e+00	0	41	0	0	46	4833
2026-01-24 21:47:41.90	185.77	13.31	-38.2	-40.4	25.4	0.00e+00	0	41	0	0	47	4775
2026-01-24 21:47:43.89	185.14	13.21	-38.2	-40.5	25.3	0.00e+00	0	41	0	0	47	4819
2026-01-24 21:47:45.88	184.52	13.11	-37.9	-40.1	25.7	0.00e+00	0	41	0	0	47	4608
2026-01-24 21:47:47.87	183.90	13.01	-37.7	-39.9	25.8	0.00e+00	0	41	0	0	47	4525
2026-01-24 21:47:49.86	183.28	12.91	-38.2	-40.5	25.3	0.00e+00	0	41	0	0	47	4815
2026-01-24 21:47:51.85	182.67	12.80	-38.5	-40.7	25.1	0.00e+00	0	41	0	0	47	4965
2026-01-24 21:47:53.83	182.07	12.70	-38.7	-41.0	24.9	0.00e+00	0	41	0	0	48	4839
2026-01-24 21:47:55.82	181.47	12.59	-38.5	-40.7	25.2	0.00e+00	0	41	0	0	48	4666
2026-01-24 21:47:57.81	180.88	12.48	-38.3	-40.6	25.3	0.00e+00	0	41	0	0	48	4612
2026-01-24 21:47:59.80	180.29	12.37	-38.0	-40.2	25.6	0.00e+00	0	41	0	0	47	4658
2026-01-24 21:48:01.79	179.71	12.26	-38.0	-40.2	25.6	0.00e+00	0	41	0	0	47	4674
2026-01-24 21:48:03.78	179.14	12.14	-38.4	-40.6	25.1	0.00e+00	0	41	0	0	47	4926
2026-01-24 21:48:05.76	178.57	12.03	-38.9	-41.2	24.7	0.00e+00	0	41	0	0	48	4933
2026-01-24 21:48:07.75	178.01	11.91	-39.1	-41.4	24.5	0.00e+00	0	41	0	0	49	4768
2026-01-24 21:48:09.75	177.45	11.79	-38.5	-40.7	25.1	0.00e+00	0	41	0	0	49	4428
2026-01-24 21:48:11.73	176.90	11.68	-38.2	-40.4	25.5	0.00e+00	0	41	0	0	48	4496
2026-01-24 21:48:13.72	176.35	11.56	-38.2	-40.4	25.4	0.00e+00	0	41	0	0	48	4502
2026-01-24 21:48:15.71	175.81	11.43	-38.7	-41.1	24.8	0.00e+00	0	41	0	0	48	4871
2026-01-24 21:48:17.71	175.28	11.31	-39.1	-41.7	24.2	0.00e+00	0	41	0	0	48	5223
2026-01-24 21:48:19.70	174.75	11.19	-38.8	-41.4	24.4	0.00e+00	0	41	0	0	48	5091
2026-01-24 21:48:21.69	174.23	11.06	-38.4	-41.0	24.8	0.00e+00	0	41	0	0	48	4850
2026-01-24 21:48:23.66	173.72	10.94	-38.4	-41.0	24.8	0.00e+00	0	41	0	0	48	4846
2026-01-24 21:48:25.65	173.21	10.81	-38.3	-40.9	24.9	0.00e+00	0	41	0	0	48	4777
2026-01-24 21:48:27.63	172.70	10.69	-38.3	-40.9	24.8	0.00e+00	0	41	0	0	48	4805
2026-01-24 21:48:29.62	172.21	10.56	-38.5	-41.2	24.5	1.97e-03	0	41	0	0	48	4953
2026-01-24 21:48:31.61	171.71	10.43	-38.8	-41.6	24.1	9.06e-04	0	41	0	0	48	5194
2026-01-24 21:48:33.60	171.23	10.30	-39.3	-42.1	23.6	0.00e+00	0	41	0	0	49	5216
2026-01-24 21:48:35.59	170.75	10.18	-39.2	-42.0	23.7	0.00e+00	0	41	0	0	49	5141
2026-01-24 21:48:37.58	170.27	10.05	-38.8	-41.4	24.3	0.00e+00	0	41	0	0	49	4791
2026-01-24 21:48:39.56	169.80	9.92	-38.9	-41.6	24.2	0.00e+00	0	41	0	0	49	4876
2026-01-24 21:48:41.55	169.34	9.79	-39.0	-41.7	22.6	0.00e+00	0	41	0	0	49	4933
2026-01-24 21:48:43.55	168.88	9.66	-39.0	-41.7	24.0	0.00e+00	0	41	0	0	49	4949
2026-01-24 21:48:45.54	168.42	9.52	-39.0	-41.6	24.1	1.29e-03	0	41	0	0	49	4898
2026-01-24 21:48:47.52	167.98	9.39	-38.9	-41.6	24.2	3.43e-03	0	41	0	0	49	4872
2026-01-24 21:48:49.52	167.53	9.26	-39.1	-41.8	23.9	0.00e+00	0	41	0	0	49	5001
2026-01-24 21:48:51.51	167.10	9.13	-39.3	-42.0	23.7	5.66e-04	0	41	0	0	49	5133
2026-01-24 21:48:53.50	166.67	9.00	-40.1	-43.0	23.0	0.00e+00	0	41	0	0	50	5415
2026-01-24 21:48:55.48	166.24	8.87	-48.1	-66.8	3.8	4.00e-01	0	41	104	0	66	33509
2026-01-24 21:48:57.47	165.82	8.74	-48.5	-67.4	3.8	8.48e-01	0	41	104	0	67	33861
2026-01-24 21:48:59.46	165.41	8.60	-48.8	-67.6	3.8	8.47e-01	0	41	104	0	68	32917
2026-01-24 21:49:01.44	165.00	8.47	-48.9	-67.7	3.8	8.47e-01	0	41	104	0	68	33282
2026-01-24 21:49:03.43	164.59	8.34	-49.0	-67.8	3.8	8.47e-01	0	41	104	0	68	33438
2026-01-24 21:49:05.41	164.19	8.21	-48.9	-67.8	3.8	8.46e-01	0	41	104	0	68	33605
2026-01-24 21:49:07.40	163.80	8.08	-49.1	-67.9	3.8	8.48e-01	0	41	104	0	68	33705
2026-01-24 21:49:09.39	163.41	7.95	-49.1	-67.9	3.8	8.48e-01	0	41	104	0	68	33739
2026-01-24 21:49:11.37	163.02	7.81	-49.0	-67.8	3.8	8.48e-01	0	41	104	0	68	33660
2026-01-24 21:49:13.36	162.64	7.68	-48.8	-67.8	3.8	8.46e-01	0	41	104	0	68	33673
2026-01-24 21:49:15.34	162.27	7.55	-48.9	-67.8	3.8	8.48e-01	0	41	104	0	68	33653
2026-01-24 21:49:17.33	161.90	7.42	-49.0	-67.8	3.8	8.45e-01	0	41	104	0	68	33646
2026-01-24 21:49:19.32	161.53	7.29	-48.7	-67.8	3.8	8.47e-01	0	41	104	0	68	33674
2026-01-24 21:49:21.30	161.17	7.16	-48.7	-67.8	3.8	8.47e-01	0	41	104	0	68	33386
2026-01-24 21:49:23.29	160.81	7.03	-48.7	-67.8	3.8	8.47e-01	0	41	104	0	68	33410
2026-01-24 21:49:25.28	160.46	6.90	-48.7	-67.7	3.8	8.47e-01	0	41	104	0	68	33272
2026-01-24 21:49:27.26	160.11	6.77	-48.7	-67.7	3.8	8.47e-01	0	41	104	0	68	33287
2026-01-24 21:49:29.25	159.77	6.64	-48.7	-67.8	3.8	8.47e-01	0	41	104	0	68	33337
2026-01-24 21:49:31.24	159.43	6.51	-48.7	-67.8	3.8	8.47e-01	0	41	104	0	68	33348
2026-01-24 21:49:33.22	159.09	6.38	-48.7	-67.8	3.8	8.47e-01	0	41	104	0	68	33356
2026-01-24 21:49:35.21	158.76	6.25	-48.7	-67.7	3.8	8.47e-01	0	41	104	0	68	33300
2026-01-24 21:49:37.19	158.44	6.12	-48.7	-67.7	3.8	8.46e-01	0	41	104	0	68	33245
2026-01-24 21:49:39.18	158.11	5.99	-48.7	-67.8	3.8	8.47e-01	0	42	104	0	68	33317
2026-01-24 21:49:41.16	157.80	5.87	-48.7	-67.7	3.8	8.46e-01	0	42	104	0	68	33176
2026-01-24 21:49:43.15	157.48	5.74	-48.7	-67.7	3.8	8.47e-01	0	41	104	0	68	33294
2026-01-24 21:49:45.14	157.17	5.61	-48.7	-67.7	3.8	8.46e-01	0	41	104	0	68	33213
2026-01-24 21:49:47.12	156.86	5.48	-48.7	-67.7	3.8	8.48e-01	0	41	104	0	68	33267
2026-01-24 21:49:49.11	156.56	5.36	-48.7	-67.7	3.8	8.46e-01	0	42	104	0	68	33238
2026-01-24 21:49:51.10	156.26	5.23	-48.7	-67.7	3.8	8.48e-01	0	41	104	0	68	33205
2026-01-24 21:49:53.08	155.96	5.11	-48.7	-67.7	3.8	8.47e-01	0	41	104	0	68	33158
2026-01-24 21:49:55.07	155.67	4.98	-48.7	-67.7	3.8	8.47e-01	0	41	104	0	68	33228
2026-01-24 21:49:57.06	155.38	4.85	-48.7	-67.7	3.8	8.47e-01	0	41	104	0	68	33125

#Closed at: 2026-01-24 21:49:58
#Recorded file [0 MB]: D:/Data/31040_260125_004331.dat