passes_logs/2026/01/24/T1/T1__20260124_183054_FENGYUN_3G_rec.log

#Pass ID: 20260124_183054_FENGYUN 3G
#Satellite: FENGYUN 3G
#Configuration: FENGYUN 3G
#almurnet v.1.7.20251203
#Start time: 2026-01-24 18:30:57

#Version: 2.0.20230620
#Station: T1
#Location: 37.570604 lon 55.790049 lat
#TLE: 1 56232U 23055A   26024.24521059  .00049620  00000+0  74824-3 0  9993
#TLE: 2 56232  49.9947   8.2107 0004117  75.2128 284.9296 15.54221826157636

#Time	Az	El	Level	Level2	SNR	BER	BlckErr	Temp	State	Recorded	gain1	gain2
2026-01-24 18:30:57.02	232.66	5.26	-48.2	-67.0	3.8	8.47e-01	0	35	0	0	68	30540
2026-01-24 18:30:59.00	232.46	5.41	-48.1	-67.2	3.8	8.48e-01	0	35	104	0	68	31143
2026-01-24 18:31:00.99	232.26	5.56	-48.1	-67.1	3.8	8.47e-01	0	35	104	0	68	31049
2026-01-24 18:31:02.97	232.06	5.71	-48.2	-67.1	3.8	8.47e-01	0	35	104	0	68	30879
2026-01-24 18:31:04.96	231.85	5.86	-48.1	-66.9	3.8	8.47e-01	0	35	104	0	68	30197
2026-01-24 18:31:06.95	231.64	6.02	-48.1	-66.9	3.8	8.47e-01	0	35	104	0	68	30093
2026-01-24 18:31:08.93	231.43	6.17	-48.1	-66.7	3.8	8.47e-01	0	35	104	0	68	29534
2026-01-24 18:31:10.92	231.22	6.33	-48.1	-66.5	3.8	8.47e-01	0	36	104	0	68	28709
2026-01-24 18:31:12.91	231.00	6.48	-48.1	-66.6	3.8	8.47e-01	0	36	104	0	68	29215
2026-01-24 18:31:14.89	230.78	6.64	-48.1	-66.6	3.8	8.47e-01	0	36	104	0	68	29239
2026-01-24 18:31:16.88	230.55	6.80	-48.1	-66.2	3.8	8.46e-01	0	36	104	0	68	27903
2026-01-24 18:31:18.87	230.32	6.96	-48.1	-66.8	3.8	8.47e-01	0	36	104	0	68	29752
2026-01-24 18:31:20.85	230.09	7.12	-48.1	-66.8	3.8	8.47e-01	0	36	104	0	68	29921
2026-01-24 18:31:22.84	229.85	7.29	-48.1	-67.0	3.8	8.48e-01	0	36	104	0	68	30643
2026-01-24 18:31:24.83	229.61	7.45	-48.1	-66.6	3.8	8.48e-01	0	36	104	0	68	29294
2026-01-24 18:31:26.81	229.37	7.62	-48.1	-66.8	3.8	8.47e-01	0	36	104	0	68	29991
2026-01-24 18:31:28.80	229.12	7.78	-48.1	-65.4	3.8	8.48e-01	0	36	104	0	68	25536
2026-01-24 18:31:30.79	228.87	7.95	-48.0	-65.1	3.8	8.46e-01	0	36	104	0	68	24491
2026-01-24 18:31:32.77	228.61	8.12	-48.0	-65.3	3.9	8.45e-01	0	36	104	0	68	25248
2026-01-24 18:31:34.76	228.35	8.29	-48.1	-66.8	3.8	8.46e-01	0	36	104	0	68	29990
2026-01-24 18:31:36.74	228.09	8.46	-48.1	-66.1	3.8	8.47e-01	0	36	104	0	68	27432
2026-01-24 18:31:38.73	227.82	8.64	-48.0	-64.0	4.0	8.46e-01	0	36	104	0	68	21602
2026-01-24 18:31:40.72	227.55	8.81	-47.5	-58.5	7.0	6.17e-01	0	36	0	0	67	12158
2026-01-24 18:31:42.70	227.27	8.99	-46.4	-53.3	12.3	4.49e-02	0	36	0	0	65	7539
2026-01-24 18:31:44.69	226.99	9.16	-46.3	-52.8	12.0	2.17e-03	0	36	0	0	64	7522
2026-01-24 18:31:46.68	226.70	9.34	-46.8	-55.0	11.2	1.17e-02	0	36	0	0	64	9641
2026-01-24 18:31:48.67	226.41	9.52	-41.9	-44.8	21.0	5.87e-03	0	36	0	0	55	5020
2026-01-24 18:31:50.67	226.11	9.71	-41.6	-44.4	21.3	0.00e+00	0	36	0	0	54	5092
2026-01-24 18:31:52.66	225.80	9.89	-41.1	-43.8	21.9	0.00e+00	0	36	0	0	54	4740
2026-01-24 18:31:54.65	225.50	10.08	-40.6	-43.2	22.7	0.00e+00	0	37	0	0	53	4657
2026-01-24 18:31:56.64	225.18	10.26	-40.4	-42.9	22.8	0.00e+00	0	37	0	0	52	4808
2026-01-24 18:31:58.63	224.86	10.45	-40.1	-42.6	23.2	0.00e+00	0	37	0	0	52	4605
2026-01-24 18:32:00.62	224.54	10.64	-40.0	-42.3	23.5	0.00e+00	0	37	0	0	51	4757
2026-01-24 18:32:02.61	224.21	10.83	-39.3	-41.6	24.2	0.00e+00	0	36	0	0	50	4607
2026-01-24 18:32:04.60	223.87	11.02	-38.9	-41.1	24.6	0.00e+00	0	37	0	0	49	4645
2026-01-24 18:32:06.59	223.53	11.22	-39.0	-41.2	24.6	0.00e+00	0	37	0	0	49	4660
2026-01-24 18:32:08.58	223.18	11.41	-38.9	-41.2	24.6	0.00e+00	0	37	0	0	49	4652
2026-01-24 18:32:10.57	222.83	11.61	-38.8	-41.0	24.8	0.00e+00	0	36	0	0	49	4573
2026-01-24 18:32:12.56	222.46	11.81	-38.9	-41.1	24.7	0.00e+00	0	37	0	0	49	4644
2026-01-24 18:32:14.55	222.10	12.01	-38.6	-40.8	25.1	0.00e+00	0	37	0	0	49	4444
2026-01-24 18:32:16.54	221.72	12.21	-38.2	-40.4	25.4	0.00e+00	0	37	0	0	48	4500
2026-01-24 18:32:18.53	221.34	12.41	-38.2	-40.3	25.4	0.00e+00	0	37	0	0	48	4491
2026-01-24 18:32:20.52	220.95	12.62	-38.2	-40.3	25.4	0.00e+00	0	37	0	0	48	4480
2026-01-24 18:32:22.52	220.55	12.82	-38.2	-40.4	25.4	0.00e+00	0	37	0	0	48	4503
2026-01-24 18:32:24.51	220.15	13.03	-38.3	-40.4	25.4	0.00e+00	0	37	0	0	48	4516
2026-01-24 18:32:26.50	219.74	13.24	-38.0	-40.1	25.6	0.00e+00	0	37	0	0	48	4378
2026-01-24 18:32:28.49	219.32	13.45	-37.6	-39.7	26.0	0.00e+00	0	37	0	0	47	4427
2026-01-24 18:32:30.47	218.90	13.66	-37.3	-39.4	26.2	0.00e+00	0	37	0	0	46	4510
2026-01-24 18:32:32.46	218.46	13.88	-37.4	-39.5	26.2	0.00e+00	0	37	0	0	46	4572
2026-01-24 18:32:34.45	218.02	14.09	-37.6	-39.7	26.1	0.00e+00	0	37	0	0	46	4669
2026-01-24 18:32:36.44	217.57	14.31	-37.9	-40.0	25.7	0.00e+00	0	37	0	0	46	4862
2026-01-24 18:32:38.43	217.11	14.53	-37.7	-39.8	25.9	0.00e+00	0	37	0	0	46	4755
2026-01-24 18:32:40.42	216.64	14.74	-37.4	-39.5	26.3	0.00e+00	0	37	0	0	46	4555
2026-01-24 18:32:42.41	216.16	14.96	-37.2	-39.3	26.5	0.00e+00	0	37	0	0	46	4450
2026-01-24 18:32:44.40	215.68	15.19	-37.0	-39.0	26.6	0.00e+00	0	37	0	0	45	4589
2026-01-24 18:32:46.39	215.18	15.41	-37.3	-39.4	26.1	0.00e+00	0	37	0	0	45	4793
2026-01-24 18:32:48.38	214.67	15.63	-37.1	-39.2	26.5	0.00e+00	0	37	0	0	45	4658
2026-01-24 18:32:50.37	214.16	15.86	-37.2	-39.3	26.4	0.00e+00	0	37	0	0	45	4718
2026-01-24 18:32:52.36	213.63	16.08	-37.0	-39.0	26.6	0.00e+00	0	37	0	0	45	4569
2026-01-24 18:32:54.35	213.10	16.31	-36.9	-38.9	26.8	0.00e+00	0	37	0	0	45	4496
2026-01-24 18:32:56.34	212.55	16.54	-36.8	-38.8	26.9	0.00e+00	0	37	0	0	45	4474
2026-01-24 18:32:58.33	212.00	16.77	-36.8	-38.8	26.9	0.00e+00	0	37	0	0	45	4482
2026-01-24 18:33:00.32	211.43	17.00	-36.9	-39.0	26.7	0.00e+00	0	37	0	0	45	4564
2026-01-24 18:33:02.31	210.85	17.23	-36.9	-38.9	26.8	0.00e+00	0	37	0	0	45	4501
2026-01-24 18:33:04.30	210.26	17.46	-36.6	-38.6	27.1	0.00e+00	0	37	0	0	45	4344
2026-01-24 18:33:06.29	209.66	17.69	-36.5	-38.5	27.2	0.00e+00	0	37	0	0	45	4320
2026-01-24 18:33:08.27	209.05	17.92	-36.3	-38.3	27.4	0.00e+00	0	37	0	0	44	4467
2026-01-24 18:33:10.26	208.43	18.15	-36.4	-38.4	27.3	0.00e+00	0	37	0	0	44	4523
2026-01-24 18:33:12.26	207.79	18.39	-36.6	-38.5	27.0	0.00e+00	0	37	0	0	44	4597
2026-01-24 18:33:14.25	207.14	18.62	-36.6	-38.6	27.0	0.00e+00	0	37	0	0	44	4641
2026-01-24 18:33:16.23	206.49	18.85	-36.3	-38.2	27.4	0.00e+00	0	37	0	0	44	4435
2026-01-24 18:33:18.23	205.81	19.08	-35.8	-37.7	27.7	0.00e+00	0	37	0	0	43	4431
2026-01-24 18:33:20.21	205.13	19.31	-35.7	-37.6	27.8	0.00e+00	0	37	0	0	43	4384
2026-01-24 18:33:22.20	204.43	19.54	-35.9	-37.8	27.6	0.00e+00	0	37	0	0	43	4480
2026-01-24 18:33:24.19	203.72	19.77	-35.9	-37.9	27.6	0.00e+00	0	37	0	0	43	4518
2026-01-24 18:33:26.18	203.00	20.00	-36.1	-38.1	27.4	0.00e+00	0	37	0	0	43	4607
2026-01-24 18:33:28.17	202.26	20.23	-36.0	-38.0	26.3	0.00e+00	0	37	0	0	43	4565
2026-01-24 18:33:30.17	201.51	20.45	-35.9	-37.8	27.6	0.00e+00	0	37	0	0	43	4484
2026-01-24 18:33:32.16	200.74	20.68	-35.5	-37.5	27.9	0.00e+00	0	37	0	0	43	4302
2026-01-24 18:33:34.15	199.97	20.90	-35.5	-37.4	27.9	0.00e+00	0	37	0	0	42	4539
2026-01-24 18:33:36.14	199.18	21.12	-35.6	-37.6	27.8	0.00e+00	0	37	0	0	42	4604
2026-01-24 18:33:38.12	198.38	21.33	-35.5	-37.5	27.9	0.00e+00	0	37	0	0	42	4556
2026-01-24 18:33:40.12	197.55	21.55	-35.5	-37.5	28.0	0.00e+00	0	37	0	0	42	4550
2026-01-24 18:33:42.11	196.72	21.76	-35.5	-37.4	28.0	0.00e+00	0	37	0	0	42	4520
2026-01-24 18:33:44.09	195.88	21.97	-35.4	-37.3	28.1	0.00e+00	0	37	0	0	42	4463
2026-01-24 18:33:46.09	195.02	22.18	-35.4	-37.3	28.0	0.00e+00	0	37	0	0	42	4482
2026-01-24 18:33:48.08	194.15	22.38	-35.3	-37.2	28.1	0.00e+00	0	37	0	0	42	4438
2026-01-24 18:33:50.07	193.27	22.57	-35.4	-37.3	28.1	0.00e+00	0	37	0	0	42	4462
2026-01-24 18:33:52.06	192.37	22.77	-35.2	-37.1	28.3	0.00e+00	0	37	0	0	42	4389
2026-01-24 18:33:54.05	191.46	22.95	-35.4	-37.4	27.5	0.00e+00	0	37	0	0	42	4497
2026-01-24 18:33:56.04	190.53	23.14	-35.2	-37.1	28.3	0.00e+00	0	37	0	0	42	4356
2026-01-24 18:33:58.03	189.60	23.32	-34.8	-36.6	28.5	0.00e+00	0	37	0	0	41	4387
2026-01-24 18:34:00.02	188.65	23.49	-34.8	-36.7	28.6	0.00e+00	0	37	0	0	41	4408
2026-01-24 18:34:02.01	187.69	23.65	-35.0	-36.9	28.4	0.00e+00	0	37	0	0	41	4502
2026-01-24 18:34:04.00	186.71	23.81	-35.2	-37.1	28.2	0.00e+00	0	37	0	0	41	4617
2026-01-24 18:34:05.99	185.73	23.97	-34.9	-36.8	28.5	0.00e+00	0	37	0	0	41	4470
2026-01-24 18:34:07.98	184.73	24.11	-34.9	-36.8	28.5	0.00e+00	0	37	0	0	41	4480
2026-01-24 18:34:09.97	183.73	24.25	-35.0	-36.9	28.4	0.00e+00	0	37	0	0	41	4512
2026-01-24 18:34:11.96	182.71	24.38	-35.0	-36.9	28.4	0.00e+00	0	37	0	0	41	4509
2026-01-24 18:34:13.95	181.69	24.51	-35.3	-37.2	28.0	0.00e+00	0	37	0	0	41	4698
2026-01-24 18:34:15.94	180.65	24.62	-35.4	-37.3	28.1	0.00e+00	0	37	0	0	41	4723
2026-01-24 18:34:17.93	179.61	24.73	-35.4	-37.3	28.1	0.00e+00	0	37	0	0	41	4743
2026-01-24 18:34:19.92	178.56	24.83	-35.5	-37.4	27.4	0.00e+00	0	37	0	0	41	4772
2026-01-24 18:34:21.91	177.50	24.92	-35.8	-37.7	27.8	0.00e+00	0	37	0	0	42	4690
2026-01-24 18:34:23.90	176.44	25.00	-35.5	-37.4	27.9	0.00e+00	0	37	0	0	42	4525
2026-01-24 18:34:25.89	175.36	25.07	-35.2	-37.1	28.3	0.00e+00	0	37	0	0	42	4375
2026-01-24 18:34:27.87	174.29	25.14	-35.0	-36.9	28.4	0.00e+00	0	37	0	0	42	4255
2026-01-24 18:34:29.87	173.21	25.19	-34.4	-36.3	28.9	0.00e+00	0	37	0	0	40	4450
2026-01-24 18:34:31.85	172.13	25.23	-34.2	-36.1	29.0	0.00e+00	0	37	0	0	40	4363
2026-01-24 18:34:33.84	171.04	25.27	-34.5	-36.3	28.8	0.00e+00	0	37	0	0	40	4475
2026-01-24 18:34:35.83	169.95	25.29	-34.1	-35.9	29.2	0.00e+00	0	37	0	0	40	4286
2026-01-24 18:34:37.83	168.85	25.30	-34.4	-36.3	28.9	0.00e+00	0	37	0	0	40	4452
2026-01-24 18:34:39.82	167.76	25.31	-35.2	-37.1	28.2	0.00e+00	0	37	0	0	41	4649
2026-01-24 18:34:41.81	166.67	25.30	-35.0	-36.8	28.4	0.00e+00	0	37	0	0	41	4493
2026-01-24 18:34:43.80	165.58	25.28	-34.6	-36.4	28.7	0.00e+00	0	37	0	0	41	4272
2026-01-24 18:34:45.79	164.49	25.26	-34.1	-35.9	25.4	0.00e+00	0	37	0	0	40	4268
2026-01-24 18:34:47.78	163.40	25.22	-34.2	-36.1	28.9	0.00e+00	0	37	0	0	40	4344
2026-01-24 18:34:49.77	162.32	25.18	-34.3	-36.2	28.9	0.00e+00	0	37	0	0	40	4429
2026-01-24 18:34:51.76	161.24	25.12	-34.6	-36.5	28.7	0.00e+00	0	37	0	0	39	4837
2026-01-24 18:34:53.75	160.17	25.06	-35.0	-36.9	28.3	0.00e+00	0	37	0	0	40	4790
2026-01-24 18:34:55.74	159.10	24.98	-35.4	-37.4	28.1	0.00e+00	0	37	0	0	41	4767
2026-01-24 18:34:57.73	158.03	24.90	-34.6	-36.5	28.7	0.00e+00	0	37	0	0	41	4308
2026-01-24 18:34:59.72	156.98	24.81	-34.8	-36.7	28.5	0.00e+00	0	37	0	0	41	4410
2026-01-24 18:35:01.71	155.93	24.71	-35.6	-37.5	27.9	0.00e+00	0	37	0	0	41	4857
2026-01-24 18:35:03.70	154.89	24.60	-35.0	-36.8	28.4	0.00e+00	0	37	0	0	41	4490
2026-01-24 18:35:05.70	153.85	24.48	-34.9	-36.8	28.4	0.00e+00	0	37	0	0	41	4486
2026-01-24 18:35:07.68	152.83	24.35	-34.8	-36.7	28.6	0.00e+00	0	37	0	0	41	4396
2026-01-24 18:35:09.68	151.82	24.22	-34.8	-36.7	28.5	0.00e+00	0	37	0	0	41	4407
2026-01-24 18:35:11.67	150.81	24.08	-34.7	-36.6	28.5	0.00e+00	0	37	0	0	41	4371
2026-01-24 18:35:13.66	149.82	23.93	-34.4	-36.3	28.8	0.00e+00	0	37	0	0	40	4474
2026-01-24 18:35:15.65	148.84	23.78	-34.3	-36.1	28.9	0.00e+00	0	37	0	0	40	4386
2026-01-24 18:35:17.64	147.87	23.61	-34.8	-36.7	28.5	0.00e+00	0	37	0	0	40	4705
2026-01-24 18:35:19.63	146.92	23.45	-34.7	-36.6	28.6	0.00e+00	0	37	0	0	40	4617
2026-01-24 18:35:21.62	145.97	23.27	-34.5	-36.4	28.8	0.00e+00	0	37	0	0	40	4502
2026-01-24 18:35:23.61	145.04	23.10	-34.6	-36.5	28.7	0.00e+00	0	37	0	0	40	4575
2026-01-24 18:35:25.60	144.12	22.91	-35.0	-36.9	28.3	0.00e+00	0	37	0	0	40	4804
2026-01-24 18:35:27.59	143.21	22.72	-34.8	-36.8	28.5	0.00e+00	0	37	0	0	40	4706
2026-01-24 18:35:29.58	142.32	22.53	-34.3	-36.2	28.8	0.00e+00	0	37	0	0	40	4425
2026-01-24 18:35:31.57	141.44	22.33	-34.5	-36.3	28.8	0.00e+00	0	37	0	0	40	4491
2026-01-24 18:35:33.56	140.57	22.13	-35.2	-37.1	28.1	0.00e+00	0	37	0	0	41	4643
2026-01-24 18:35:35.55	139.72	21.92	-35.1	-37.0	28.1	0.00e+00	0	37	0	0	41	4593
2026-01-24 18:35:37.54	138.88	21.71	-34.6	-36.5	28.6	0.00e+00	0	37	0	0	41	4320
2026-01-24 18:35:39.53	138.05	21.50	-34.6	-36.5	28.6	0.00e+00	0	37	0	0	41	4334
2026-01-24 18:35:41.52	137.24	21.29	-35.2	-37.1	28.2	0.00e+00	0	37	0	0	41	4604
2026-01-24 18:35:43.52	136.44	21.07	-35.7	-37.7	27.6	0.00e+00	0	37	0	0	42	4664
2026-01-24 18:35:45.50	135.65	20.85	-35.8	-37.8	27.6	0.00e+00	0	37	0	0	42	4724
2026-01-24 18:35:47.49	134.88	20.63	-35.6	-37.6	27.7	0.00e+00	0	37	0	0	42	4624
2026-01-24 18:35:49.48	134.12	20.40	-35.9	-37.8	27.5	0.00e+00	0	37	0	0	42	4758
2026-01-24 18:35:51.47	133.38	20.18	-36.1	-38.1	27.3	0.00e+00	0	37	0	0	42	4874
2026-01-24 18:35:53.46	132.64	19.95	-36.0	-37.9	27.5	0.00e+00	0	37	0	0	42	4803
2026-01-24 18:35:55.45	131.92	19.72	-35.5	-37.4	27.9	0.00e+00	0	37	0	0	42	4509
2026-01-24 18:35:57.44	131.22	19.49	-35.8	-37.7	27.5	0.00e+00	0	37	0	0	42	4702
2026-01-24 18:35:59.43	130.52	19.26	-35.8	-37.7	27.5	0.00e+00	0	37	0	0	42	4702
2026-01-24 18:36:01.42	129.84	19.03	-35.6	-37.5	27.8	0.00e+00	0	37	0	0	42	4568
2026-01-24 18:36:03.41	129.18	18.80	-35.8	-37.7	27.6	0.00e+00	0	37	0	0	42	4691
2026-01-24 18:36:05.40	128.52	18.57	-35.9	-37.9	27.5	0.00e+00	0	37	0	0	42	4786
2026-01-24 18:36:07.39	127.88	18.34	-35.9	-37.8	27.5	0.00e+00	0	37	0	0	42	4748
2026-01-24 18:36:09.38	127.24	18.11	-36.1	-38.1	27.2	0.00e+00	0	37	0	0	42	4894
2026-01-24 18:36:11.36	126.63	17.88	-36.0	-38.0	27.3	0.00e+00	0	37	0	0	42	4833
2026-01-24 18:36:13.35	126.02	17.65	-35.9	-37.8	27.5	0.00e+00	0	37	0	0	42	4756
2026-01-24 18:36:15.35	125.42	17.41	-36.2	-38.2	27.2	0.00e+00	0	37	0	0	43	4658
2026-01-24 18:36:17.34	124.83	17.18	-36.4	-38.4	26.9	0.00e+00	0	37	0	0	43	4797
2026-01-24 18:36:19.33	124.26	16.95	-36.6	-38.6	26.7	0.00e+00	0	37	0	0	43	4916
2026-01-24 18:36:21.32	123.70	16.73	-36.6	-38.6	26.8	0.00e+00	0	37	0	0	43	4887
2026-01-24 18:36:23.31	123.14	16.50	-36.6	-38.6	26.8	0.00e+00	0	37	0	0	43	4894
2026-01-24 18:36:25.30	122.60	16.27	-36.5	-38.5	26.8	0.00e+00	0	37	0	0	43	4858
2026-01-24 18:36:27.29	122.07	16.04	-36.5	-38.5	26.9	0.00e+00	0	37	0	0	43	4835
2026-01-24 18:36:29.28	121.55	15.82	-37.2	-39.2	26.1	0.00e+00	0	37	0	0	45	4703
2026-01-24 18:36:31.27	121.04	15.59	-37.2	-39.2	26.4	0.00e+00	0	37	0	0	45	4692
2026-01-24 18:36:33.26	120.53	15.37	-37.1	-39.1	26.4	0.00e+00	0	37	0	0	45	4635
2026-01-24 18:36:35.25	120.04	15.15	-37.1	-39.1	26.4	0.00e+00	0	37	0	0	45	4646
2026-01-24 18:36:37.23	119.56	14.93	-37.3	-39.4	26.2	0.00e+00	0	37	0	0	45	4807
2026-01-24 18:36:39.23	119.08	14.71	-37.6	-39.7	25.9	0.00e+00	0	37	0	0	45	4940
2026-01-24 18:36:41.21	118.62	14.49	-37.6	-39.7	26.0	0.00e+00	0	37	0	0	45	4949
2026-01-24 18:36:43.21	118.16	14.27	-37.7	-39.9	25.8	0.00e+00	0	37	0	0	46	4760
2026-01-24 18:36:45.20	117.71	14.06	-37.6	-39.7	25.9	0.00e+00	0	37	0	0	46	4674
2026-01-24 18:36:47.19	117.27	13.84	-37.5	-39.6	25.9	0.00e+00	0	37	0	0	46	4637
2026-01-24 18:36:49.18	116.84	13.63	-37.8	-39.9	25.7	0.00e+00	0	37	0	0	46	4793
2026-01-24 18:36:51.17	116.42	13.42	-38.1	-40.2	25.4	0.00e+00	0	37	0	0	46	4969
2026-01-24 18:36:53.16	116.00	13.21	-38.4	-40.5	25.1	0.00e+00	0	37	0	0	47	4865
2026-01-24 18:36:55.15	115.59	13.00	-38.3	-40.5	25.1	0.00e+00	0	37	0	0	47	4851
2026-01-24 18:36:57.14	115.19	12.79	-38.2	-40.4	25.3	0.00e+00	0	37	0	0	47	4788
2026-01-24 18:36:59.13	114.80	12.59	-38.4	-40.6	25.0	0.00e+00	0	37	0	0	47	4905
2026-01-24 18:37:01.12	114.41	12.38	-38.6	-40.8	24.9	0.00e+00	0	37	0	0	47	4999
2026-01-24 18:37:03.11	114.03	12.18	-38.8	-41.0	24.7	0.00e+00	0	37	0	0	48	4833
2026-01-24 18:37:05.10	113.66	11.98	-38.7	-40.9	24.8	0.00e+00	0	37	0	0	48	4767
2026-01-24 18:37:07.09	113.30	11.78	-38.7	-40.9	24.8	0.00e+00	0	37	0	0	48	4793
2026-01-24 18:37:09.08	112.94	11.58	-38.7	-40.9	24.8	0.00e+00	0	37	0	0	48	4777
2026-01-24 18:37:11.06	112.59	11.39	-38.6	-40.8	24.8	0.00e+00	0	37	0	0	48	4733
2026-01-24 18:37:13.05	112.24	11.19	-38.8	-41.0	24.6	0.00e+00	0	37	0	0	48	4847
2026-01-24 18:37:15.05	111.90	11.00	-39.0	-41.3	24.4	0.00e+00	0	37	0	0	48	5014
2026-01-24 18:37:17.03	111.56	10.81	-39.3	-41.6	24.1	0.00e+00	0	37	0	0	49	4914
2026-01-24 18:37:19.02	111.24	10.62	-39.4	-41.7	24.0	0.00e+00	0	37	0	0	49	4934
2026-01-24 18:37:21.01	110.91	10.43	-39.2	-41.5	24.1	0.00e+00	0	37	0	0	49	4844
2026-01-24 18:37:23.00	110.60	10.24	-39.4	-41.7	23.9	0.00e+00	0	37	0	0	49	4974
2026-01-24 18:37:24.99	110.28	10.06	-39.5	-41.8	23.8	0.00e+00	0	37	0	0	49	5016
2026-01-24 18:37:26.98	109.98	9.87	-39.8	-42.1	23.5	0.00e+00	0	37	0	0	50	4910
2026-01-24 18:37:28.98	109.67	9.69	-40.0	-42.4	23.3	0.00e+00	0	37	0	0	50	5071
2026-01-24 18:37:30.97	109.38	9.51	-39.9	-42.3	23.4	0.00e+00	0	37	0	0	50	5002
2026-01-24 18:37:32.96	109.09	9.33	-40.1	-42.5	23.1	0.00e+00	0	37	0	0	50	5158
2026-01-24 18:37:34.95	108.80	9.15	-39.9	-42.3	23.3	0.00e+00	0	37	0	0	51	4722
2026-01-24 18:37:36.94	108.52	8.97	-47.8	-60.4	7.2	0.00e+00	0	37	0	0	66	15958
2026-01-24 18:37:38.92	108.25	8.80	-48.4	-67.0	3.8	4.09e-01	0	37	104	0	67	32247
2026-01-24 18:37:40.91	107.97	8.62	-48.5	-67.4	3.8	8.46e-01	0	37	104	0	67	33717
2026-01-24 18:37:42.89	107.71	8.45	-48.5	-67.4	3.8	8.47e-01	0	37	104	0	67	34049
2026-01-24 18:37:44.88	107.44	8.28	-48.3	-67.5	3.8	8.46e-01	0	37	104	0	67	34349
2026-01-24 18:37:46.87	107.18	8.11	-48.4	-67.6	3.8	8.47e-01	0	37	104	0	67	34648
2026-01-24 18:37:48.85	106.93	7.94	-48.4	-67.6	3.8	8.47e-01	0	37	104	0	67	34701
2026-01-24 18:37:50.84	106.68	7.77	-48.5	-67.6	3.8	8.48e-01	0	37	104	0	67	34726
2026-01-24 18:37:52.83	106.43	7.60	-48.8	-67.8	3.8	8.47e-01	0	37	104	0	68	33564
2026-01-24 18:37:54.81	106.19	7.44	-48.6	-67.8	3.8	8.46e-01	0	37	104	0	68	33540
2026-01-24 18:37:56.80	105.95	7.28	-48.7	-67.8	3.8	8.48e-01	0	38	104	0	68	33638
2026-01-24 18:37:58.78	105.72	7.11	-48.8	-67.8	3.8	8.47e-01	0	38	104	0	68	33608
2026-01-24 18:38:00.77	105.49	6.95	-48.7	-67.8	3.8	8.47e-01	0	37	104	0	68	33415
2026-01-24 18:38:02.76	105.26	6.79	-48.7	-67.8	3.8	8.47e-01	0	38	104	0	68	33419
2026-01-24 18:38:04.74	105.04	6.63	-48.7	-67.8	3.8	8.47e-01	0	37	104	0	68	33331
2026-01-24 18:38:06.73	104.82	6.48	-48.7	-67.7	3.8	8.46e-01	0	37	104	0	68	33268
2026-01-24 18:38:08.72	104.60	6.32	-48.7	-67.7	3.8	8.46e-01	0	38	104	0	68	33221
2026-01-24 18:38:10.70	104.39	6.16	-48.7	-67.7	3.8	8.47e-01	0	37	104	0	68	33193
2026-01-24 18:38:12.69	104.18	6.01	-48.7	-67.7	3.8	8.46e-01	0	37	104	0	68	33220
2026-01-24 18:38:14.67	103.97	5.86	-48.7	-67.7	3.8	8.46e-01	0	37	104	0	68	33250
2026-01-24 18:38:16.66	103.76	5.70	-48.7	-67.7	3.8	8.49e-01	0	38	104	0	68	33106
2026-01-24 18:38:18.65	103.56	5.55	-48.7	-67.7	3.8	8.46e-01	0	38	104	0	68	33071
2026-01-24 18:38:20.63	103.36	5.40	-48.7	-67.7	3.8	8.48e-01	0	37	104	0	68	33114
2026-01-24 18:38:22.62	103.17	5.25	-48.7	-67.7	3.8	8.48e-01	0	37	104	0	68	33087
2026-01-24 18:38:24.61	102.98	5.11	-48.7	-67.7	3.8	8.46e-01	0	38	104	0	68	33124
2026-01-24 18:38:26.59	102.79	4.96	-48.7	-67.7	3.8	8.47e-01	0	37	104	0	68	33081

#Closed at: 2026-01-24 18:38:28
#Recorded file [0 MB]: D:/Data/31040_260124_213057.dat