passes_logs/2026/01/24/T1/T1__20260124_141804_FENGYUN_3E_rec.log

#Pass ID: 20260124_141804_FENGYUN 3E
#Satellite: FENGYUN 3E
#Configuration: FENGYUN 3E
#almurnet v.1.7.20251203
#Start time: 2026-01-24 14:18:06

#Version: 2.0.20230620
#Station: T1
#Location: 37.570604 lon 55.790049 lat
#TLE: 1 49008U 21062A   26024.23699167 -.00000179  00000+0 -63840-4 0  9992
#TLE: 2 49008  98.7493  29.2570 0002404 119.1229 241.0188 14.19886095236155

#Time	Az	El	Level	Level2	SNR	BER	BlckErr	Temp	State	Recorded	gain1	gain2
2026-01-24 14:18:06.22	163.12	5.10	-46.1	-58.8	3.8	8.44e-01	0	36	0	0	63	14811
2026-01-24 14:18:10.19	163.15	5.39	-46.0	-58.8	3.8	8.46e-01	0	37	104	0	62	15731
2026-01-24 14:18:14.16	163.18	5.68	-46.2	-59.3	3.8	8.47e-01	0	37	104	0	62	16601
2026-01-24 14:18:18.13	163.20	5.98	-46.1	-57.8	3.8	8.47e-01	0	37	104	0	62	13993
2026-01-24 14:18:22.11	163.23	6.27	-45.8	-56.0	4.1	8.41e-01	0	37	0	0	62	11411
2026-01-24 14:18:26.06	163.26	6.57	-45.9	-56.6	3.9	8.43e-01	0	37	104	0	62	12151
2026-01-24 14:18:30.04	163.29	6.88	-46.0	-58.5	3.8	8.45e-01	0	37	104	0	62	15129
2026-01-24 14:18:34.01	163.32	7.19	-46.2	-58.9	3.9	8.44e-01	0	37	104	0	62	15931
2026-01-24 14:18:37.98	163.35	7.50	-46.0	-56.0	3.9	8.43e-01	0	37	104	0	62	11352
2026-01-24 14:18:41.95	163.37	7.81	-44.5	-49.4	8.5	4.97e-02	0	38	0	14680064	59	6292
2026-01-24 14:18:45.93	163.40	8.14	-42.7	-45.9	12.1	5.35e-04	0	38	0	42991616	56	5029
2026-01-24 14:18:49.90	163.43	8.46	-42.5	-45.6	12.2	1.86e-04	0	38	0	71303168	55	5158
2026-01-24 14:18:53.87	163.47	8.79	-44.2	-48.8	9.1	2.06e-02	0	38	0	100663296	57	6646
2026-01-24 14:18:57.85	163.50	9.12	-45.3	-52.2	6.1	4.40e-01	0	38	0	120586240	60	8203
2026-01-24 14:19:01.82	163.53	9.46	-40.7	-42.6	15.3	4.07e-03	0	38	0	137363456	52	4340
2026-01-24 14:19:05.80	163.56	9.80	-38.3	-40.0	17.7	6.60e-03	0	38	0	165675008	47	4247
2026-01-24 14:19:09.78	163.59	10.15	-36.9	-38.4	19.1	0.00e+00	0	38	0	193986560	44	4208
2026-01-24 14:19:13.76	163.63	10.50	-36.3	-37.8	19.5	0.00e+00	0	38	0	223346688	43	4160
2026-01-24 14:19:17.73	163.66	10.86	-36.0	-37.5	19.8	0.00e+00	0	38	0	251658240	42	4248
2026-01-24 14:19:21.71	163.69	11.22	-36.2	-37.7	19.6	0.00e+00	0	38	0	281018368	42	4343
2026-01-24 14:19:25.69	163.73	11.59	-36.2	-37.7	19.2	0.00e+00	0	38	0	309329920	42	4370
2026-01-24 14:19:29.67	163.76	11.96	-35.9	-37.3	20.0	0.00e+00	0	38	0	337641472	42	4192
2026-01-24 14:19:33.65	163.80	12.34	-35.8	-37.3	20.0	0.00e+00	0	38	0	367001600	42	4164
2026-01-24 14:19:37.63	163.84	12.72	-35.6	-37.0	20.3	0.00e+00	0	38	0	395313152	42	4041
2026-01-24 14:19:41.61	163.87	13.12	-35.5	-36.9	20.4	0.00e+00	0	38	0	424673280	41	4226
2026-01-24 14:19:45.59	163.91	13.51	-35.5	-36.9	20.4	0.00e+00	0	39	0	452984832	41	4232
2026-01-24 14:19:49.56	163.95	13.92	-35.4	-36.8	20.5	0.00e+00	0	38	0	481296384	41	4154
2026-01-24 14:19:53.55	163.99	14.33	-35.2	-36.6	20.7	0.00e+00	0	38	0	510656512	41	4073
2026-01-24 14:19:57.53	164.03	14.75	-35.2	-36.6	20.7	0.00e+00	0	38	0	538968064	41	4060
2026-01-24 14:20:01.50	164.07	15.18	-35.1	-36.4	20.8	0.00e+00	0	39	0	568328192	40	4235
2026-01-24 14:20:05.48	164.12	15.61	-35.0	-36.4	20.9	0.00e+00	0	39	0	596639744	40	4206
2026-01-24 14:20:09.46	164.16	16.05	-34.9	-36.3	21.0	0.00e+00	0	39	0	624951296	40	4173
2026-01-24 14:20:13.44	164.20	16.50	-34.9	-36.2	21.0	0.00e+00	0	39	0	654311424	40	4140
2026-01-24 14:20:17.42	164.25	16.96	-34.7	-36.0	21.2	0.00e+00	0	39	0	682622976	40	4051
2026-01-24 14:20:21.40	164.29	17.43	-34.7	-36.0	21.2	0.00e+00	0	39	0	711983104	40	4027
2026-01-24 14:20:25.38	164.34	17.90	-34.7	-36.1	21.2	0.00e+00	0	39	0	740294656	40	4055
2026-01-24 14:20:29.36	164.39	18.39	-34.7	-36.1	21.2	0.00e+00	0	39	0	768606208	40	4061
2026-01-24 14:20:33.34	164.44	18.88	-34.7	-36.1	21.1	0.00e+00	0	39	0	797966336	40	4071
2026-01-24 14:20:37.32	164.49	19.39	-34.7	-36.1	21.2	0.00e+00	0	39	0	826277888	39	4323
2026-01-24 14:20:41.30	164.54	19.90	-34.4	-35.7	21.6	0.00e+00	0	39	0	855638016	39	4114
2026-01-24 14:20:45.28	164.60	20.43	-34.3	-35.6	21.6	0.00e+00	0	39	0	883949568	39	4094
2026-01-24 14:20:49.26	164.65	20.97	-34.2	-35.5	21.8	0.00e+00	0	39	0	912261120	39	4011
2026-01-24 14:20:53.24	164.71	21.52	-34.0	-35.3	21.9	0.00e+00	0	39	0	941621248	38	4173
2026-01-24 14:20:57.22	164.77	22.08	-33.9	-35.2	21.9	0.00e+00	0	39	0	969932800	38	4136
2026-01-24 14:21:01.19	164.83	22.66	-33.8	-35.1	21.9	0.00e+00	0	39	0	998244352	38	4081
2026-01-24 14:21:05.17	164.89	23.24	-33.8	-35.1	22.0	0.00e+00	0	39	0	1027604480	38	4079
2026-01-24 14:21:09.15	164.95	23.85	-33.8	-35.1	21.9	0.00e+00	0	39	0	1055916032	38	4091
2026-01-24 14:21:13.13	165.02	24.46	-33.8	-35.2	21.8	0.00e+00	0	39	0	1085276160	38	4135
2026-01-24 14:21:17.11	165.08	25.09	-33.9	-35.3	21.7	0.00e+00	0	39	0	1113587712	38	4157
2026-01-24 14:21:21.08	165.16	25.74	-33.7	-35.1	21.9	0.00e+00	0	39	0	1141899264	37	4295
2026-01-24 14:21:25.06	165.23	26.40	-33.4	-34.8	22.1	0.00e+00	0	39	0	1171259392	37	4166
2026-01-24 14:21:29.04	165.30	27.08	-33.3	-34.6	22.3	0.00e+00	0	39	0	1199570944	37	4085
2026-01-24 14:21:33.02	165.38	27.78	-32.9	-34.2	22.7	0.00e+00	0	39	0	1228931072	36	4122
2026-01-24 14:21:36.99	165.46	28.49	-33.0	-34.2	22.7	0.00e+00	0	39	0	1257242624	36	4130
2026-01-24 14:21:40.97	165.55	29.22	-33.2	-34.4	22.5	0.00e+00	0	39	0	1285554176	36	4242
2026-01-24 14:21:44.95	165.63	29.97	-33.5	-34.8	22.3	0.00e+00	0	39	0	1314914304	36	4418
2026-01-24 14:21:48.93	165.72	30.75	-33.4	-34.7	22.4	0.00e+00	0	39	0	1343225856	36	4367
2026-01-24 14:21:52.91	165.82	31.54	-33.4	-34.7	22.3	0.00e+00	0	39	0	1372585984	36	4370
2026-01-24 14:21:56.89	165.92	32.36	-33.4	-34.8	22.2	0.00e+00	0	39	0	1400897536	36	4392
2026-01-24 14:22:00.87	166.02	33.20	-33.3	-34.7	22.3	0.00e+00	0	39	0	1429209088	36	4353
2026-01-24 14:22:04.84	166.13	34.06	-33.3	-34.8	22.2	0.00e+00	0	39	0	1458569216	36	4394
2026-01-24 14:22:08.83	166.25	34.95	-33.2	-34.6	22.4	0.00e+00	0	39	0	1486880768	36	4303
2026-01-24 14:22:12.81	166.37	35.86	-32.9	-34.2	22.7	0.00e+00	0	39	0	1516240896	36	4130
2026-01-24 14:22:16.79	166.49	36.80	-33.0	-34.3	22.7	0.00e+00	0	39	0	1544552448	36	4158
2026-01-24 14:22:20.77	166.62	37.77	-33.2	-34.5	22.5	0.00e+00	0	39	0	1572864000	36	4278
2026-01-24 14:22:24.75	166.76	38.76	-33.6	-34.9	22.2	0.00e+00	0	39	0	1602224128	36	4476
2026-01-24 14:22:28.73	166.91	39.79	-33.8	-35.2	21.9	0.00e+00	0	39	0	1630535680	37	4347
2026-01-24 14:22:32.71	167.07	40.84	-33.5	-34.8	22.2	0.00e+00	0	39	0	1659895808	37	4149
2026-01-24 14:22:36.69	167.24	41.93	-33.5	-34.7	22.4	0.00e+00	0	39	0	1688207360	37	4141
2026-01-24 14:22:40.67	167.41	43.05	-33.4	-34.7	22.6	0.00e+00	0	39	0	1716518912	37	4101
2026-01-24 14:22:44.65	167.60	44.21	-33.5	-34.7	22.6	0.00e+00	0	39	0	1745879040	37	4135
2026-01-24 14:22:48.63	167.81	45.40	-34.4	-35.2	22.9	0.00e+00	0	39	0	1774190592	38	4135
2026-01-24 14:22:52.61	168.03	46.62	-34.8	-35.6	22.5	0.00e+00	0	39	0	1803550720	39	4094
2026-01-24 14:22:56.59	168.26	47.89	-34.8	-35.6	22.6	0.00e+00	0	39	0	1831862272	39	4080
2026-01-24 14:23:00.57	168.52	49.19	-35.5	-36.4	21.8	0.00e+00	0	39	0	1860173824	40	4222
2026-01-24 14:23:04.55	168.79	50.53	-35.3	-36.2	22.0	0.00e+00	0	39	0	1889533952	40	4112
2026-01-24 14:23:08.53	169.10	51.90	-35.0	-35.9	22.2	0.00e+00	0	39	0	1917845504	40	3975
2026-01-24 14:23:12.51	169.43	53.32	-35.2	-36.1	22.1	0.00e+00	0	39	0	1947205632	40	4059
2026-01-24 14:23:16.49	169.79	54.78	-35.1	-36.0	22.2	0.00e+00	0	39	0	1975517184	40	4023
2026-01-24 14:23:20.47	170.19	56.28	-35.3	-36.2	22.0	0.00e+00	0	39	0	2003828736	40	4103
2026-01-24 14:23:24.44	170.63	57.81	-35.3	-36.2	21.9	0.00e+00	0	39	0	2033188864	40	4133
2026-01-24 14:23:28.42	171.13	59.39	-35.0	-35.8	22.3	0.00e+00	0	39	0	2061500416	40	3951
2026-01-24 14:23:32.40	171.69	61.01	-34.6	-35.4	22.6	0.00e+00	0	39	0	2090860544	40	3773
2026-01-24 14:23:36.38	172.33	62.66	-34.8	-35.6	22.5	0.00e+00	0	39	0	2119172096	39	4088
2026-01-24 14:23:40.36	173.06	64.35	-33.9	-34.7	23.2	0.00e+00	0	39	0	2147483648	38	3912
2026-01-24 14:23:44.34	173.91	66.08	-33.9	-34.8	23.3	0.00e+00	0	39	0	2176843776	37	4152
2026-01-24 14:23:48.32	174.90	67.84	-33.8	-34.6	23.4	0.00e+00	0	39	0	2205155328	37	4079
2026-01-24 14:23:52.30	176.08	69.63	-34.2	-35.0	23.1	0.00e+00	0	39	0	2233466880	38	4045
2026-01-24 14:23:56.28	177.50	71.44	-34.1	-34.9	23.2	0.00e+00	0	39	0	2262827008	38	3982
2026-01-24 14:24:00.26	179.25	73.28	-33.8	-34.6	23.4	0.00e+00	0	39	0	2291138560	37	4079
2026-01-24 14:24:04.24	181.45	75.12	-33.4	-34.2	23.7	0.00e+00	0	39	0	2320498688	37	3895
2026-01-24 14:24:08.22	184.29	76.96	-33.0	-33.8	24.1	0.00e+00	0	39	0	2348810240	36	3934
2026-01-24 14:24:12.20	188.10	78.78	-31.6	-32.4	24.3	0.00e+00	0	39	0	2377121792	33	3976
2026-01-24 14:24:16.17	193.36	80.55	-31.3	-32.0	24.6	0.00e+00	0	39	0	2406481920	33	3822
2026-01-24 14:24:20.15	201.03	82.22	-31.6	-32.4	24.3	0.00e+00	0	39	0	2434793472	33	3969
2026-01-24 14:24:24.13	212.60	83.70	-31.5	-32.3	24.4	0.00e+00	0	39	0	2464153600	33	3941
2026-01-24 14:24:28.11	230.04	84.78	-31.9	-32.7	23.9	0.00e+00	0	39	0	2492465152	33	4123
2026-01-24 14:24:32.09	253.21	85.19	-32.0	-32.8	23.9	0.00e+00	0	39	0	2520776704	33	4185
2026-01-24 14:24:36.07	276.32	84.77	-31.9	-32.7	24.0	0.00e+00	0	39	0	2550136832	33	4139
2026-01-24 14:24:40.05	293.66	83.68	-32.2	-33.0	23.7	0.00e+00	0	39	0	2578448384	34	4026
2026-01-24 14:24:44.02	305.14	82.21	-31.8	-32.6	24.1	0.00e+00	0	39	0	2607808512	33	4067
2026-01-24 14:24:48.00	312.77	80.53	-31.3	-32.1	24.5	0.00e+00	0	39	0	2636120064	33	3842
2026-01-24 14:24:51.98	318.02	78.76	-31.0	-31.8	24.8	0.00e+00	0	39	0	2664431616	32	3934
2026-01-24 14:24:55.96	321.81	76.94	-31.6	-32.4	24.2	0.00e+00	0	39	0	2693791744	33	3978
2026-01-24 14:24:59.94	324.64	75.10	-32.6	-33.4	23.5	0.00e+00	0	39	0	2722103296	34	4226
2026-01-24 14:25:03.92	326.84	73.26	-33.2	-34.1	22.9	0.00e+00	0	39	0	2751463424	35	4300
2026-01-24 14:25:07.90	328.58	71.43	-34.2	-35.0	23.1	0.00e+00	0	39	0	2779774976	37	4265
2026-01-24 14:25:11.88	330.00	69.62	-34.0	-34.8	23.2	0.00e+00	0	39	0	2808086528	38	3944
2026-01-24 14:25:15.86	331.17	67.84	-33.6	-34.4	23.6	0.00e+00	0	39	0	2837446656	37	3980
2026-01-24 14:25:19.84	332.16	66.08	-33.8	-34.6	23.5	0.00e+00	0	39	0	2865758208	37	4065
2026-01-24 14:25:23.81	333.01	64.37	-34.2	-35.0	23.1	0.00e+00	0	39	0	2895118336	37	4269
2026-01-24 14:25:27.79	333.74	62.68	-34.4	-35.2	22.8	0.00e+00	0	39	0	2923429888	38	4138
2026-01-24 14:25:31.77	334.37	61.03	-35.3	-36.2	21.9	0.00e+00	0	39	0	2951741440	40	4127
2026-01-24 14:25:35.75	334.93	59.41	-35.4	-36.3	21.8	0.00e+00	0	39	0	2981101568	40	4165
2026-01-24 14:25:39.74	335.43	57.84	-35.2	-36.1	22.1	0.00e+00	0	39	0	3009413120	40	4072
2026-01-24 14:25:43.72	335.88	56.30	-35.3	-36.2	22.0	0.00e+00	0	39	0	3038773248	40	4111
2026-01-24 14:25:47.70	336.28	54.81	-35.0	-35.9	22.2	0.00e+00	0	39	0	3067084800	40	3963
2026-01-24 14:25:51.69	336.64	53.36	-35.1	-36.0	21.7	0.00e+00	0	38	0	3095396352	40	4024
2026-01-24 14:25:55.67	336.97	51.94	-35.0	-35.9	22.3	0.00e+00	0	39	0	3124756480	40	3965
2026-01-24 14:25:59.65	337.28	50.57	-35.1	-36.0	22.1	0.00e+00	0	39	0	3153068032	40	4044
2026-01-24 14:26:03.63	337.55	49.24	-34.8	-35.6	22.3	0.00e+00	0	39	0	3182428160	40	3862
2026-01-24 14:26:07.60	337.81	47.94	-34.5	-35.4	22.5	0.00e+00	0	39	0	3210739712	39	3987
2026-01-24 14:26:11.59	338.05	46.68	-34.6	-35.4	22.7	0.00e+00	0	39	0	3239051264	39	3995
2026-01-24 14:26:15.57	338.27	45.46	-34.0	-34.8	23.2	0.00e+00	0	39	0	3268411392	38	3953
2026-01-24 14:26:19.55	338.47	44.28	-33.7	-34.5	23.5	0.00e+00	0	39	0	3296722944	38	3820
2026-01-24 14:26:23.53	338.66	43.13	-34.0	-34.8	23.1	0.00e+00	0	39	0	3325034496	38	3946
2026-01-24 14:26:27.52	338.84	42.01	-34.0	-34.8	23.2	0.00e+00	0	39	0	3354394624	38	3952
2026-01-24 14:26:31.49	339.01	40.93	-33.9	-34.7	23.4	0.00e+00	0	39	0	3382706176	38	3896
2026-01-24 14:26:35.47	339.17	39.87	-34.3	-35.2	22.9	0.00e+00	0	39	0	3412066304	38	4108
2026-01-24 14:26:39.45	339.32	38.85	-34.2	-35.0	23.0	0.00e+00	0	39	0	3440377856	38	4043
2026-01-24 14:26:43.43	339.46	37.86	-33.4	-34.2	23.7	0.00e+00	0	39	0	3468689408	37	3907
2026-01-24 14:26:47.41	339.59	36.90	-33.4	-34.2	23.7	0.00e+00	0	39	0	3498049536	37	3913
2026-01-24 14:26:51.39	339.72	35.96	-33.5	-34.3	23.6	0.00e+00	0	39	0	3526361088	37	3942
2026-01-24 14:26:55.38	339.84	35.05	-33.5	-34.4	23.5	0.00e+00	0	39	0	3555721216	37	3972
2026-01-24 14:26:59.36	339.96	34.16	-33.4	-34.3	23.7	0.00e+00	0	39	0	3584032768	37	3917
2026-01-24 14:27:03.34	340.07	33.30	-33.2	-34.0	23.8	0.00e+00	0	39	0	3612344320	37	3824
2026-01-24 14:27:07.31	340.17	32.47	-33.4	-34.2	23.7	0.00e+00	0	39	0	3641704448	37	3888
2026-01-24 14:27:11.29	340.27	31.66	-33.5	-34.3	23.6	0.00e+00	0	39	0	3670016000	37	3948
2026-01-24 14:27:15.27	340.37	30.86	-33.7	-34.6	23.4	0.00e+00	0	39	0	3699376128	37	4057
2026-01-24 14:27:19.25	340.46	30.09	-34.0	-34.9	23.1	0.00e+00	0	39	0	3727687680	37	4221
2026-01-24 14:27:23.23	340.55	29.34	-34.1	-35.0	23.0	0.00e+00	0	39	0	3755999232	37	4271
2026-01-24 14:27:27.22	340.64	28.61	-34.2	-35.0	23.0	0.00e+00	0	39	0	3785359360	37	4271
2026-01-24 14:27:31.20	340.72	27.90	-34.2	-35.1	22.9	0.00e+00	0	39	0	3814719488	38	4073
2026-01-24 14:27:35.18	340.80	27.21	-34.2	-35.1	22.9	0.00e+00	0	39	0	3843031040	38	4084
2026-01-24 14:27:39.16	340.88	26.53	-34.1	-34.9	23.1	0.00e+00	0	39	0	3871342592	38	3984
2026-01-24 14:27:43.14	340.96	25.87	-34.0	-34.9	23.1	0.00e+00	0	39	0	3899654144	38	3962
2026-01-24 14:27:47.11	341.03	25.23	-33.9	-34.8	23.1	0.00e+00	0	39	0	3929014272	38	3935
2026-01-24 14:27:51.09	341.10	24.60	-34.0	-34.9	23.1	0.00e+00	0	38	0	3957325824	38	3970
2026-01-24 14:27:55.07	341.17	23.98	-33.9	-34.8	23.1	0.00e+00	0	39	0	3986685952	38	3931
2026-01-24 14:27:59.05	341.23	23.38	-34.0	-34.9	23.1	0.00e+00	0	38	0	4014997504	38	3964
2026-01-24 14:28:03.03	341.30	22.80	-34.0	-34.9	23.0	0.00e+00	0	39	0	4043309056	38	3992
2026-01-24 14:28:07.01	341.36	22.22	-34.1	-34.9	22.9	0.00e+00	0	39	0	4072669184	38	3991
2026-01-24 14:28:10.99	341.42	21.66	-34.2	-35.0	22.9	0.00e+00	0	39	0	4100980736	38	4032
2026-01-24 14:28:14.97	341.48	21.12	-34.3	-35.2	22.8	0.00e+00	0	39	0	4130340864	38	4110
2026-01-24 14:28:18.95	341.54	20.58	-34.4	-35.3	22.6	0.00e+00	0	39	0	4158652416	38	4169
2026-01-24 14:28:22.93	341.59	20.05	-34.7	-35.6	22.4	0.00e+00	0	39	0	4186963968	38	4317
2026-01-24 14:28:26.91	341.65	19.54	-34.8	-35.7	22.3	0.00e+00	0	39	0	4216324096	39	4124
2026-01-24 14:28:30.88	341.70	19.04	-34.8	-35.7	22.3	0.00e+00	0	39	0	4244635648	39	4120
2026-01-24 14:28:34.87	341.76	18.54	-34.8	-35.7	22.3	0.00e+00	0	39	0	4273995776	39	4126
2026-01-24 14:28:38.85	341.81	18.06	-35.1	-36.0	22.0	0.00e+00	0	39	0	4302307328	39	4251
2026-01-24 14:28:42.83	341.86	17.58	-35.1	-36.0	21.9	0.00e+00	0	39	0	4330618880	40	4030
2026-01-24 14:28:46.81	341.91	17.12	-35.3	-36.3	21.6	0.00e+00	0	39	0	4359979008	40	4148
2026-01-24 14:28:50.79	341.96	16.66	-35.3	-36.3	21.6	0.00e+00	0	39	0	4388290560	40	4161
2026-01-24 14:28:54.77	342.00	16.21	-35.4	-36.4	21.5	0.00e+00	0	39	0	4417650688	40	4200
2026-01-24 14:28:58.75	342.05	15.77	-35.6	-36.6	21.3	0.00e+00	0	38	0	4445962240	40	4293
2026-01-24 14:29:02.73	342.09	15.34	-35.7	-36.7	21.2	0.00e+00	0	39	0	4474273792	41	4108
2026-01-24 14:29:06.71	342.14	14.91	-35.8	-36.8	21.1	0.00e+00	0	39	0	4503633920	41	4193
2026-01-24 14:29:10.69	342.18	14.50	-35.8	-36.8	21.0	0.00e+00	0	39	0	4531945472	41	4184
2026-01-24 14:29:14.67	342.23	14.09	-36.1	-37.1	20.8	0.00e+00	0	39	0	4561305600	41	4333
2026-01-24 14:29:18.64	342.27	13.68	-36.1	-37.1	20.8	0.00e+00	0	39	0	4589617152	41	4318
2026-01-24 14:29:22.62	342.31	13.29	-36.2	-37.2	20.6	0.00e+00	0	39	0	4617928704	41	4382
2026-01-24 14:29:26.61	342.35	12.89	-36.3	-37.4	20.5	0.00e+00	0	39	0	4647288832	42	4204
2026-01-24 14:29:30.58	342.39	12.51	-36.4	-37.5	20.4	0.00e+00	0	39	0	4675600384	42	4257
2026-01-24 14:29:34.56	342.43	12.13	-36.5	-37.6	20.2	0.00e+00	0	39	0	4704960512	42	4339
2026-01-24 14:29:38.54	342.47	11.76	-36.6	-37.7	20.2	0.00e+00	0	39	0	4733272064	42	4355
2026-01-24 14:29:42.52	342.51	11.39	-36.7	-37.9	20.0	0.00e+00	0	38	0	4761583616	42	4447
2026-01-24 14:29:46.50	342.55	11.03	-36.9	-38.1	19.7	0.00e+00	0	38	0	4790943744	43	4330
2026-01-24 14:29:50.48	342.59	10.67	-36.9	-38.1	19.6	0.00e+00	0	39	0	4819255296	43	4339
2026-01-24 14:29:54.46	342.62	10.32	-36.9	-38.2	19.6	0.00e+00	0	38	0	4848615424	43	4363
2026-01-24 14:29:58.44	342.66	9.98	-37.0	-38.3	19.4	0.00e+00	0	39	0	4876926976	43	4437
2026-01-24 14:30:02.42	342.70	9.63	-36.9	-38.3	19.4	0.00e+00	0	39	0	4905238528	43	4438
2026-01-24 14:30:06.40	342.73	9.30	-37.0	-38.5	19.2	0.00e+00	0	39	0	4934598656	43	4506
2026-01-24 14:30:10.38	342.77	8.97	-47.2	-59.2	3.8	8.45e-01	0	39	104	4959764480	63	15498
2026-01-24 14:30:14.35	342.80	8.64	-47.8	-59.7	3.8	8.47e-01	0	39	104	4959764480	65	14636
2026-01-24 14:30:18.32	342.84	8.31	-49.2	-60.0	3.8	8.46e-01	0	39	104	4959764480	67	13466
2026-01-24 14:30:22.30	342.87	8.00	-49.3	-60.0	3.8	8.46e-01	0	39	104	4959764480	67	13525
2026-01-24 14:30:26.27	342.90	7.68	-49.3	-60.2	3.8	8.47e-01	0	39	104	4959764480	68	13108
2026-01-24 14:30:30.24	342.94	7.37	-49.4	-60.2	3.8	8.47e-01	0	39	104	4959764480	68	13064
2026-01-24 14:30:34.22	342.97	7.06	-49.4	-60.2	3.8	8.46e-01	0	39	104	4959764480	68	13023
2026-01-24 14:30:38.19	343.00	6.76	-49.2	-60.1	3.8	8.46e-01	0	39	104	4959764480	68	12953
2026-01-24 14:30:42.16	343.04	6.46	-49.2	-60.2	3.8	8.46e-01	0	39	104	4959764480	68	12963
2026-01-24 14:30:46.13	343.07	6.16	-49.2	-60.2	3.8	8.47e-01	0	39	104	4959764480	68	13057
2026-01-24 14:30:50.11	343.10	5.87	-49.2	-60.1	3.8	8.46e-01	0	39	104	4959764480	68	12903
2026-01-24 14:30:54.08	343.13	5.58	-49.2	-60.1	3.8	8.46e-01	0	39	104	4959764480	68	12937
2026-01-24 14:30:58.05	343.16	5.29	-49.2	-60.2	3.8	8.46e-01	0	39	104	4959764480	68	12998
2026-01-24 14:31:02.02	343.19	5.01	-49.2	-60.1	3.8	8.47e-01	0	39	104	4959764480	68	12959

#Closed at: 2026-01-24 14:31:03
#Recorded file [4959 MB]: D:/Data/31040_260124_171806.dat