passes_logs/2026/01/24/T1/T1__20260124_020815_NOAA_20_JPSS-1_rec.log

#Pass ID: 20260124_020815_NOAA 20 (JPSS-1)
#Satellite: NOAA 20 (JPSS-1)
#Configuration: NOAA 20
#almurnet v.1.7.20251203
#Start time: 2026-01-24 02:08:15

#Version: 2.0.20230620
#Station: T1
#Location: 37.570604 lon 55.790049 lat
#TLE: 1 43013U 17073A   26022.94240312  .00000200  00000+0  11574-3 0  9998
#TLE: 2 43013  98.7645 323.7982 0001179  28.0279 332.0961 14.19539020423863

#Time	Az	El	Level	Level2	SNR	BER	BlckErr	Temp	State	Recorded	gain1	gain2
2026-01-24 02:08:15.96	1.99	5.03	-49.3	-64.7	3.8	1.49e+00	0	35	0	0	69	22137
2026-01-24 02:08:18.94	1.66	5.17	-46.0	-64.2	3.8	1.49e+00	0	35	104	0	64	27816
2026-01-24 02:08:21.92	1.32	5.32	-46.1	-64.2	3.8	1.49e+00	0	35	104	0	64	27806
2026-01-24 02:08:24.90	0.98	5.46	-46.1	-64.2	3.8	1.49e+00	0	35	104	0	64	27826
2026-01-24 02:08:27.88	0.64	5.60	-46.1	-64.2	3.8	1.49e+00	0	35	104	0	64	27813
2026-01-24 02:08:30.85	0.30	5.74	-46.1	-64.2	3.8	1.49e+00	0	35	104	0	64	27782
2026-01-24 02:08:33.84	359.95	5.89	-46.1	-64.2	3.8	1.49e+00	0	35	104	0	64	27885
2026-01-24 02:08:36.81	359.59	6.03	-46.1	-64.2	3.8	1.49e+00	0	36	104	0	64	27867
2026-01-24 02:08:39.79	359.24	6.17	-46.1	-64.2	3.8	1.49e+00	0	36	104	0	64	27846
2026-01-24 02:08:42.77	358.88	6.31	-46.1	-64.2	3.8	1.49e+00	0	36	104	0	64	27890
2026-01-24 02:08:45.75	358.51	6.46	-46.1	-64.2	3.8	1.49e+00	0	36	104	0	64	27854
2026-01-24 02:08:48.74	358.15	6.60	-46.1	-64.2	3.8	1.49e+00	0	36	104	0	64	27810
2026-01-24 02:08:51.72	357.77	6.74	-46.1	-64.2	3.8	1.49e+00	0	36	104	0	64	27771
2026-01-24 02:08:54.70	357.40	6.88	-46.1	-64.2	3.8	1.49e+00	0	36	104	0	64	27714
2026-01-24 02:08:57.68	357.02	7.02	-46.1	-64.2	3.8	1.49e+00	0	36	104	0	64	27736
2026-01-24 02:09:00.66	356.64	7.16	-46.1	-64.2	3.8	1.49e+00	0	36	104	0	64	27841
2026-01-24 02:09:03.64	356.25	7.30	-46.1	-64.2	3.8	1.49e+00	0	36	104	0	64	27865
2026-01-24 02:09:06.62	355.86	7.44	-46.1	-64.2	3.8	1.49e+00	0	36	104	0	64	27832
2026-01-24 02:09:09.60	355.47	7.58	-46.2	-64.2	3.8	1.49e+00	0	36	104	0	64	27819
2026-01-24 02:09:12.58	355.07	7.71	-46.2	-64.1	3.8	1.49e+00	0	36	104	0	64	27617
2026-01-24 02:09:15.56	354.67	7.85	-46.2	-63.9	3.8	1.49e+00	0	37	104	0	64	27061
2026-01-24 02:09:18.54	354.26	7.99	-46.2	-64.0	3.8	1.49e+00	0	36	104	0	64	27333
2026-01-24 02:09:21.52	353.85	8.12	-46.1	-64.2	3.8	1.49e+00	0	36	104	0	64	27707
2026-01-24 02:09:24.51	353.44	8.26	-46.1	-64.1	3.8	1.49e+00	0	36	104	0	64	27639
2026-01-24 02:09:27.48	353.02	8.39	-46.1	-63.2	3.8	1.49e+00	0	37	104	0	64	24894
2026-01-24 02:09:30.47	352.60	8.53	-46.1	-62.4	3.8	1.49e+00	0	37	104	0	64	22561
2026-01-24 02:09:33.45	352.18	8.66	-46.1	-61.8	3.8	1.48e+00	0	37	104	0	64	21097
2026-01-24 02:09:36.43	351.75	8.79	-46.0	-59.8	4.5	1.27e+00	0	37	0	0	64	16728
2026-01-24 02:09:39.41	351.31	8.92	-45.5	-54.3	8.6	1.21e-01	0	37	0	5242880	63	9418
2026-01-24 02:09:42.38	350.88	9.05	-44.1	-49.4	13.8	1.29e-05	0	37	0	11534336	60	6364
2026-01-24 02:09:45.42	350.43	9.19	-44.4	-49.4	13.8	0.00e+00	0	37	0	16777216	59	6778
2026-01-24 02:09:48.40	349.98	9.31	-42.9	-46.6	16.4	0.00e+00	0	37	0	23068672	57	5500
2026-01-24 02:09:51.39	349.53	9.44	-42.9	-46.6	16.5	0.00e+00	0	37	0	28311552	57	5465
2026-01-24 02:09:54.38	349.08	9.57	-42.6	-46.3	16.7	0.00e+00	0	37	0	33554432	57	5308
2026-01-24 02:09:57.36	348.62	9.69	-42.1	-46.0	17.0	0.00e+00	0	37	0	39845888	56	5433
2026-01-24 02:10:00.47	348.14	9.82	-41.6	-46.0	16.9	0.00e+00	0	37	0	45088768	55	5746
2026-01-24 02:10:03.32	347.69	9.94	-41.7	-45.9	17.0	0.00e+00	0	37	0	50331648	55	5670
2026-01-24 02:10:06.44	347.20	10.07	-41.7	-45.5	17.3	0.00e+00	0	37	0	56623104	55	5454
2026-01-24 02:10:09.28	346.75	10.18	-41.7	-45.6	17.3	0.00e+00	0	37	0	61865984	55	5508
2026-01-24 02:10:12.52	346.23	10.31	-41.8	-45.5	17.4	0.00e+00	0	37	0	68157440	55	5460
2026-01-24 02:10:15.36	345.77	10.43	-41.8	-45.4	17.5	0.00e+00	0	37	0	73400320	55	5360
2026-01-24 02:10:18.58	345.25	10.55	-41.5	-45.4	17.5	0.00e+00	0	37	0	79691776	55	5368
2026-01-24 02:10:21.42	344.78	10.66	-41.5	-45.3	17.7	0.00e+00	0	37	0	84934656	54	5603
2026-01-24 02:10:24.55	344.26	10.78	-41.8	-45.0	17.9	0.00e+00	0	37	0	90177536	54	5462
2026-01-24 02:10:27.39	343.79	10.89	-42.0	-45.1	17.8	0.00e+00	0	37	0	95420416	54	5497
2026-01-24 02:10:30.52	343.26	11.00	-42.1	-45.3	17.6	0.00e+00	0	37	0	101711872	54	5634
2026-01-24 02:10:33.37	342.78	11.11	-42.3	-45.4	17.5	0.00e+00	0	37	0	106954752	55	5401
2026-01-24 02:10:36.50	342.25	11.22	-42.3	-45.4	17.6	0.00e+00	0	37	0	113246208	55	5343
2026-01-24 02:10:39.34	341.76	11.32	-42.4	-45.4	17.6	0.00e+00	0	37	0	118489088	55	5372
2026-01-24 02:10:42.47	341.21	11.43	-42.5	-45.6	17.3	0.00e+00	0	37	0	123731968	55	5505
2026-01-24 02:10:45.33	340.72	11.52	-42.9	-45.9	17.3	0.00e+00	0	37	0	128974848	56	5345
2026-01-24 02:10:48.46	340.17	11.63	-42.7	-45.8	17.3	0.00e+00	0	37	0	135266304	56	5312
2026-01-24 02:10:51.30	339.66	11.72	-42.3	-45.5	17.6	0.00e+00	0	37	0	140509184	56	5137
2026-01-24 02:10:54.43	339.11	11.82	-42.6	-45.5	17.6	0.00e+00	0	37	0	146800640	56	5112
2026-01-24 02:10:57.27	338.60	11.91	-42.7	-45.7	17.5	0.00e+00	0	37	0	152043520	56	5221
2026-01-24 02:11:00.40	338.03	12.01	-42.3	-45.6	17.6	0.00e+00	0	37	0	157286400	56	5191
2026-01-24 02:11:03.25	337.51	12.09	-42.2	-45.4	17.7	0.00e+00	0	37	0	162529280	56	5085
2026-01-24 02:11:06.37	336.94	12.18	-42.3	-45.5	17.7	0.00e+00	0	37	0	168820736	56	5108
2026-01-24 02:11:09.36	336.39	12.27	-42.4	-45.5	17.6	0.00e+00	0	37	0	174063616	56	5143
2026-01-24 02:11:12.64	335.79	12.36	-42.6	-45.4	17.7	0.00e+00	0	37	0	180355072	56	5085
2026-01-24 02:11:15.39	335.28	12.43	-42.7	-45.3	17.8	0.00e+00	0	37	0	185597952	56	5026
2026-01-24 02:11:18.62	334.67	12.52	-42.6	-45.4	17.8	0.00e+00	0	37	0	191889408	56	5043
2026-01-24 02:11:21.72	334.09	12.59	-42.5	-45.1	18.0	0.00e+00	0	37	0	197132288	56	4914
2026-01-24 02:11:24.94	333.48	12.67	-42.6	-45.2	17.9	0.00e+00	0	37	0	203423744	56	4959
2026-01-24 02:11:27.83	332.93	12.74	-42.6	-45.3	17.9	0.00e+00	0	37	0	208666624	56	4987
2026-01-24 02:11:31.13	332.30	12.81	-42.5	-45.1	18.0	0.00e+00	0	37	0	214958080	56	4918
2026-01-24 02:11:33.86	331.78	12.87	-42.7	-45.3	17.9	0.00e+00	0	37	0	220200960	56	4993
2026-01-24 02:11:37.14	331.14	12.94	-42.9	-45.5	17.6	0.00e+00	0	37	0	226492416	56	5139
2026-01-24 02:11:39.86	330.62	12.99	-42.9	-45.7	17.4	0.00e+00	0	37	0	231735296	56	5260
2026-01-24 02:11:43.14	329.98	13.06	-43.1	-45.8	17.3	0.00e+00	0	37	0	238026752	56	5327
2026-01-24 02:11:46.11	329.40	13.11	-43.0	-45.8	17.4	0.00e+00	0	37	0	243269632	56	5286
2026-01-24 02:11:49.27	328.78	13.16	-43.0	-45.9	17.3	0.00e+00	0	37	0	249561088	56	5364
2026-01-24 02:11:52.11	328.23	13.21	-43.2	-46.0	17.2	0.00e+00	0	37	0	254803968	57	5138
2026-01-24 02:11:55.24	327.61	13.25	-43.1	-45.9	17.2	0.00e+00	0	37	0	260046848	57	5080
2026-01-24 02:11:58.08	327.05	13.29	-42.7	-45.6	17.5	0.00e+00	0	37	0	265289728	57	4925
2026-01-24 02:12:01.32	326.40	13.34	-42.7	-45.6	17.6	0.00e+00	0	37	0	271581184	57	4894
2026-01-24 02:12:04.24	325.82	13.37	-42.6	-45.6	17.6	0.00e+00	0	37	0	276824064	57	4876
2026-01-24 02:12:07.42	325.19	13.41	-42.5	-45.6	17.6	0.00e+00	0	37	0	283115520	57	4877
2026-01-24 02:12:10.27	324.62	13.43	-42.5	-45.5	17.7	0.00e+00	0	37	0	288358400	56	5147
2026-01-24 02:12:13.60	323.95	13.46	-42.6	-45.4	17.8	0.00e+00	0	37	0	294649856	56	5081
2026-01-24 02:12:16.31	323.41	13.48	-42.8	-45.4	17.7	0.00e+00	0	37	0	299892736	56	5092
2026-01-24 02:12:19.56	322.76	13.51	-42.8	-45.4	17.8	0.00e+00	0	37	0	306184192	56	5076
2026-01-24 02:12:22.40	322.19	13.52	-42.8	-45.4	17.8	0.00e+00	0	37	0	311427072	56	5076
2026-01-24 02:12:25.53	321.56	13.54	-42.5	-45.2	18.0	0.00e+00	0	37	0	317718528	56	4949
2026-01-24 02:12:28.37	320.99	13.55	-42.6	-45.3	17.9	0.00e+00	0	37	0	322961408	56	5013
2026-01-24 02:12:31.49	320.36	13.56	-42.6	-45.3	17.9	0.00e+00	0	37	0	328204288	56	4993
2026-01-24 02:12:34.33	319.78	13.56	-42.5	-45.2	17.9	0.00e+00	0	37	0	333447168	56	4975
2026-01-24 02:12:37.46	319.15	13.56	-42.7	-45.4	17.9	0.00e+00	0	37	0	339738624	56	5053
2026-01-24 02:12:40.31	318.58	13.56	-42.7	-45.3	17.9	0.00e+00	0	38	0	344981504	56	5008
2026-01-24 02:12:43.53	317.93	13.56	-42.7	-45.2	17.9	0.00e+00	0	37	0	351272960	56	4970
2026-01-24 02:12:46.37	317.36	13.55	-42.8	-45.4	17.8	0.00e+00	0	37	0	356515840	56	5052
2026-01-24 02:12:49.50	316.72	13.54	-42.6	-45.3	17.9	0.00e+00	0	37	0	361758720	56	4986
2026-01-24 02:12:52.35	316.15	13.52	-42.5	-45.2	17.9	0.00e+00	0	37	0	367001600	56	4977
2026-01-24 02:12:55.48	315.52	13.51	-42.7	-45.2	17.9	0.00e+00	0	38	0	373293056	56	4978
2026-01-24 02:12:58.37	314.94	13.49	-42.8	-45.5	17.7	0.00e+00	0	37	0	378535936	56	5109
2026-01-24 02:13:01.61	314.29	13.46	-43.1	-45.9	17.3	0.00e+00	0	37	0	384827392	56	5367
2026-01-24 02:13:04.46	313.72	13.43	-43.3	-46.1	17.0	0.00e+00	0	37	0	390070272	57	5211
2026-01-24 02:13:07.58	313.10	13.40	-43.4	-46.2	16.9	0.00e+00	0	37	0	396361728	57	5265
2026-01-24 02:13:10.42	312.53	13.37	-43.3	-46.1	17.0	0.00e+00	0	37	0	401604608	57	5185
2026-01-24 02:13:13.55	311.91	13.34	-43.3	-46.1	17.1	0.00e+00	0	38	0	406847488	57	5192
2026-01-24 02:13:16.40	311.34	13.30	-43.4	-46.3	16.9	0.00e+00	0	37	0	412090368	57	5292
2026-01-24 02:13:19.52	310.72	13.25	-43.5	-46.4	16.8	0.00e+00	0	37	0	418381824	57	5357
2026-01-24 02:13:22.47	310.14	13.21	-43.4	-46.2	16.9	0.00e+00	0	37	0	423624704	57	5263
2026-01-24 02:13:25.60	309.53	13.16	-43.4	-46.2	16.9	0.00e+00	0	37	0	429916160	57	5277
2026-01-24 02:13:28.45	308.97	13.11	-43.5	-46.4	16.8	0.00e+00	0	37	0	435159040	57	5362
2026-01-24 02:13:31.77	308.32	13.05	-43.4	-46.3	16.9	0.00e+00	0	37	0	441450496	57	5286
2026-01-24 02:13:34.69	307.75	13.00	-43.4	-46.2	16.9	0.00e+00	0	37	0	446693376	57	5268
2026-01-24 02:13:38.24	307.06	12.93	-43.2	-45.9	17.2	0.00e+00	0	38	0	454033408	57	5077
2026-01-24 02:13:40.99	306.53	12.87	-43.4	-46.2	17.0	0.00e+00	0	37	0	458227712	57	5257
2026-01-24 02:13:44.26	305.90	12.80	-43.5	-46.3	16.8	0.00e+00	0	37	0	464519168	57	5306
2026-01-24 02:13:46.96	305.39	12.74	-43.4	-46.2	17.0	0.00e+00	0	37	0	469762048	57	5238
2026-01-24 02:13:50.22	304.77	12.66	-43.3	-46.0	17.1	0.00e+00	0	38	0	476053504	57	5143
2026-01-24 02:13:53.08	304.22	12.59	-43.4	-46.3	16.9	0.00e+00	0	37	0	481296384	57	5307
2026-01-24 02:13:56.53	303.57	12.51	-43.6	-46.5	16.6	0.00e+00	0	37	0	487587840	57	5448
2026-01-24 02:13:59.25	303.06	12.44	-43.7	-46.6	16.5	0.00e+00	0	37	0	492830720	58	5213
2026-01-24 02:14:02.52	302.45	12.35	-43.8	-46.8	16.4	0.00e+00	0	38	0	499122176	58	5281
2026-01-24 02:14:05.25	301.95	12.27	-43.6	-46.4	16.7	0.00e+00	0	37	0	504365056	58	5097
2026-01-24 02:14:08.64	301.32	12.18	-43.6	-46.4	16.8	0.00e+00	0	37	0	510656512	58	5053
2026-01-24 02:14:11.36	300.82	12.10	-43.7	-46.5	16.6	0.00e+00	0	38	0	515899392	58	5138
2026-01-24 02:14:14.74	300.21	12.00	-43.9	-46.9	16.3	0.00e+00	0	37	0	522190848	58	5355
2026-01-24 02:14:17.47	299.72	11.91	-43.8	-46.7	16.4	0.00e+00	0	37	0	527433728	58	5269
2026-01-24 02:14:20.75	299.13	11.81	-43.5	-46.3	16.9	0.00e+00	0	38	0	533725184	58	5012
2026-01-24 02:14:23.48	298.64	11.72	-43.4	-46.1	17.0	0.00e+00	0	38	0	537919488	58	4879
2026-01-24 02:14:26.77	298.05	11.61	-43.4	-46.1	16.9	0.00e+00	0	37	0	544210944	58	4925
2026-01-24 02:14:29.50	297.57	11.52	-43.3	-46.1	17.0	0.00e+00	0	37	0	549453824	58	4884
2026-01-24 02:14:32.79	297.00	11.41	-43.4	-46.1	17.0	0.00e+00	0	38	0	555745280	58	4897
2026-01-24 02:14:35.50	296.53	11.32	-43.3	-46.0	17.1	0.00e+00	0	38	0	560988160	58	4832
2026-01-24 02:14:38.72	295.97	11.20	-43.2	-45.9	17.2	0.00e+00	0	37	0	567279616	58	4761
2026-01-24 02:14:41.82	295.44	11.09	-43.3	-46.0	17.1	0.00e+00	0	37	0	572522496	58	4862
2026-01-24 02:14:44.84	294.93	10.98	-43.3	-46.1	17.1	0.00e+00	0	38	0	578813952	58	4880
2026-01-24 02:14:47.82	294.43	10.87	-43.3	-46.0	17.1	0.00e+00	0	37	0	584056832	58	4868
2026-01-24 02:14:50.80	293.93	10.76	-43.2	-45.9	17.2	0.00e+00	0	38	0	589299712	58	4796
2026-01-24 02:14:53.77	293.43	10.64	-43.1	-45.7	17.4	0.00e+00	0	37	0	595591168	58	4689
2026-01-24 02:14:56.86	292.92	10.52	-43.2	-45.9	17.2	0.00e+00	0	37	0	600834048	58	4773
2026-01-24 02:14:59.70	292.46	10.41	-43.5	-46.3	16.8	0.00e+00	0	38	0	606076928	58	5023
2026-01-24 02:15:02.83	291.95	10.29	-43.8	-46.8	16.4	0.00e+00	0	37	0	612368384	58	5285
2026-01-24 02:15:05.67	291.50	10.17	-43.8	-46.7	16.4	0.00e+00	0	37	0	617611264	58	5263
2026-01-24 02:15:08.96	290.97	10.04	-43.9	-46.8	16.3	0.00e+00	0	37	0	623902720	58	5304
2026-01-24 02:15:12.15	290.47	9.91	-44.1	-47.1	16.0	0.00e+00	0	37	0	629145600	58	5490
2026-01-24 02:15:15.84	289.89	9.76	-44.3	-47.5	15.6	0.00e+00	0	37	0	636485632	59	5405
2026-01-24 02:15:18.75	289.44	9.64	-44.5	-47.8	15.3	0.00e+00	0	37	0	641728512	59	5616
2026-01-24 02:15:22.25	288.90	9.49	-44.6	-47.9	15.1	0.00e+00	0	37	0	648019968	59	5714
2026-01-24 02:15:24.96	288.49	9.37	-44.5	-47.8	15.3	0.00e+00	0	37	0	653262848	59	5638
2026-01-24 02:15:28.24	288.00	9.23	-44.6	-48.0	15.0	0.00e+00	0	37	0	659554304	60	5448
2026-01-24 02:15:30.94	287.59	9.11	-44.8	-48.3	14.9	0.00e+00	0	37	0	664797184	60	5600
2026-01-24 02:15:34.26	287.10	8.97	-49.2	-64.0	3.8	3.78e-01	0	37	104	670040064	68	21632
2026-01-24 02:15:36.96	286.71	8.85	-49.6	-64.8	3.8	1.49e+00	0	37	104	670040064	69	22508
2026-01-24 02:15:40.22	286.23	8.70	-49.6	-65.0	3.8	1.49e+00	0	37	104	670040064	70	21639
2026-01-24 02:15:43.04	285.83	8.58	-49.8	-65.1	3.8	1.49e+00	0	37	104	670040064	70	21820
2026-01-24 02:15:46.37	285.35	8.43	-49.8	-65.1	3.8	1.49e+00	0	37	104	670040064	70	21814
2026-01-24 02:15:49.29	284.94	8.30	-49.7	-65.1	3.8	1.49e+00	0	37	104	670040064	70	21786
2026-01-24 02:15:52.84	284.44	8.14	-49.7	-65.0	3.8	1.49e+00	0	38	104	670040064	70	21719
2026-01-24 02:15:55.58	284.06	8.01	-49.6	-65.0	3.8	1.49e+00	0	38	104	670040064	70	21551
2026-01-24 02:15:58.85	283.62	7.86	-49.6	-65.0	3.8	1.49e+00	0	38	104	670040064	70	21540
2026-01-24 02:16:01.54	283.25	7.74	-49.6	-64.9	3.8	1.49e+00	0	38	104	670040064	70	21429
2026-01-24 02:16:04.81	282.81	7.59	-49.6	-64.9	3.8	1.49e+00	0	38	104	670040064	70	21505
2026-01-24 02:16:07.50	282.45	7.46	-49.6	-64.9	3.8	1.49e+00	0	37	104	670040064	70	21495
2026-01-24 02:16:10.78	282.02	7.31	-49.6	-65.0	3.8	1.49e+00	0	38	104	670040064	70	21546
2026-01-24 02:16:13.48	281.67	7.18	-49.6	-64.9	3.8	1.49e+00	0	38	104	670040064	70	21410
2026-01-24 02:16:16.77	281.24	7.03	-49.6	-64.9	3.8	1.49e+00	0	38	104	670040064	70	21436
2026-01-24 02:16:19.48	280.90	6.90	-49.6	-64.9	3.8	1.49e+00	0	38	104	670040064	70	21402
2026-01-24 02:16:22.76	280.48	6.74	-49.6	-64.9	3.8	1.49e+00	0	38	104	670040064	70	21318
2026-01-24 02:16:25.46	280.14	6.62	-49.5	-64.9	3.8	1.49e+00	0	37	104	670040064	70	21370
2026-01-24 02:16:28.74	279.73	6.46	-49.6	-64.9	3.8	1.49e+00	0	38	104	670040064	70	21356
2026-01-24 02:16:31.44	279.40	6.33	-49.5	-64.9	3.8	1.49e+00	0	37	104	670040064	70	21340
2026-01-24 02:16:34.71	279.00	6.18	-49.6	-64.9	3.8	1.49e+00	0	37	104	670040064	70	21302
2026-01-24 02:16:37.42	278.67	6.05	-49.5	-64.9	3.8	1.49e+00	0	38	104	670040064	70	21373
2026-01-24 02:16:40.70	278.28	5.89	-49.5	-64.9	3.8	1.49e+00	0	37	104	670040064	70	21328
2026-01-24 02:16:43.42	277.96	5.76	-49.6	-64.9	3.8	1.49e+00	0	38	104	670040064	70	21334
2026-01-24 02:16:46.68	277.58	5.60	-49.6	-64.9	3.8	1.49e+00	0	38	104	670040064	70	21404
2026-01-24 02:16:49.38	277.27	5.47	-49.6	-64.9	3.8	1.49e+00	0	38	104	670040064	70	21343
2026-01-24 02:16:52.64	276.89	5.31	-49.6	-64.9	3.8	1.49e+00	0	38	104	670040064	70	21316
2026-01-24 02:16:55.36	276.58	5.18	-49.5	-64.8	3.8	1.49e+00	0	38	104	670040064	70	21241
2026-01-24 02:16:58.62	276.22	5.03	-49.5	-64.8	3.8	1.49e+00	0	38	104	670040064	70	21259

#Closed at: 2026-01-24 02:17:00
#Recorded file [670 MB]: D:/Data/31040_260124_050815.dat