passes_logs/2026/01/24/T1/T1__20260124_120059_NOAA_20_JPSS-1_rec.log

#Pass ID: 20260124_120059_NOAA 20 (JPSS-1)
#Satellite: NOAA 20 (JPSS-1)
#Configuration: NOAA 20
#almurnet v.1.7.20251203
#Start time: 2026-01-24 12:00:58

#Version: 2.0.20230620
#Station: T1
#Location: 37.570604 lon 55.790049 lat
#TLE: 1 43013U 17073A   26023.57676825  .00000205  00000+0  11821-3 0  9990
#TLE: 2 43013  98.7645 324.4259 0001147  27.0566 333.0670 14.19539368423954

#Time	Az	El	Level	Level2	SNR	BER	BlckErr	Temp	State	Recorded	gain1	gain2
2026-01-24 12:00:58.99	231.86	4.99	-48.5	-63.6	3.8	1.49e+00	0	34	0	0	68	20722
2026-01-24 12:01:01.97	232.20	5.13	-48.4	-63.6	3.8	1.49e+00	0	35	104	0	68	20693
2026-01-24 12:01:04.95	232.54	5.27	-48.4	-63.6	3.8	1.49e+00	0	35	104	0	68	20705
2026-01-24 12:01:07.93	232.89	5.42	-48.4	-63.6	3.8	1.49e+00	0	35	104	0	68	20558
2026-01-24 12:01:10.91	233.24	5.56	-48.4	-63.6	3.8	1.49e+00	0	35	104	0	68	20588
2026-01-24 12:01:13.88	233.60	5.70	-48.4	-63.6	3.8	1.49e+00	0	35	104	0	68	20596
2026-01-24 12:01:16.86	233.95	5.84	-48.4	-63.6	3.8	1.49e+00	0	35	104	0	68	20620
2026-01-24 12:01:19.84	234.32	5.98	-48.4	-63.6	3.8	1.49e+00	0	35	104	0	68	20595
2026-01-24 12:01:22.82	234.68	6.12	-48.4	-63.6	3.8	1.49e+00	0	35	104	0	68	20551
2026-01-24 12:01:25.80	235.05	6.26	-48.4	-63.5	3.8	1.49e+00	0	36	104	0	68	20509
2026-01-24 12:01:28.78	235.42	6.40	-48.4	-63.5	3.8	1.49e+00	0	36	104	0	68	20401
2026-01-24 12:01:31.76	235.80	6.54	-48.4	-63.5	3.8	1.49e+00	0	36	104	0	68	20373
2026-01-24 12:01:34.74	236.17	6.68	-48.4	-63.5	3.8	1.49e+00	0	36	104	0	68	20391
2026-01-24 12:01:37.72	236.56	6.82	-48.4	-63.5	3.8	1.49e+00	0	36	104	0	68	20468
2026-01-24 12:01:40.71	236.94	6.96	-48.4	-63.5	3.8	1.49e+00	0	36	104	0	68	20507
2026-01-24 12:01:43.68	237.33	7.09	-48.4	-63.5	3.8	1.49e+00	0	36	104	0	68	20401
2026-01-24 12:01:46.66	237.72	7.23	-48.4	-63.5	3.8	1.49e+00	0	36	104	0	68	20434
2026-01-24 12:01:49.64	238.12	7.37	-48.4	-63.3	3.8	1.49e+00	0	36	104	0	68	19874
2026-01-24 12:01:52.62	238.52	7.51	-48.4	-63.3	3.8	1.49e+00	0	36	104	0	68	19958
2026-01-24 12:01:55.60	238.92	7.64	-48.4	-63.6	3.8	1.49e+00	0	36	104	0	68	20560
2026-01-24 12:01:58.58	239.33	7.78	-48.4	-63.4	3.8	1.49e+00	0	36	104	0	68	20288
2026-01-24 12:02:01.56	239.74	7.91	-48.4	-63.5	3.8	1.49e+00	0	36	104	0	68	20421
2026-01-24 12:02:04.54	240.16	8.05	-48.4	-63.5	3.8	1.49e+00	0	36	104	0	68	20377
2026-01-24 12:02:07.52	240.57	8.18	-48.4	-63.3	3.8	1.49e+00	0	36	104	0	68	19994
2026-01-24 12:02:10.50	241.00	8.32	-48.2	-60.6	4.1	1.47e+00	0	37	104	0	68	14599
2026-01-24 12:02:13.48	241.42	8.45	-48.3	-63.1	3.8	1.49e+00	0	37	104	0	68	19581
2026-01-24 12:02:16.46	241.85	8.58	-45.4	-49.7	12.5	1.08e-03	0	37	0	3145728	62	5917
2026-01-24 12:02:19.44	242.28	8.71	-42.9	-45.7	16.6	0.00e+00	0	37	0	9437184	57	4963
2026-01-24 12:02:22.41	242.72	8.85	-43.9	-47.3	15.1	0.00e+00	0	37	0	14680064	58	5598
2026-01-24 12:02:25.39	243.16	8.98	-46.7	-53.0	9.1	5.43e-03	0	37	0	19922944	64	7634
2026-01-24 12:02:28.37	243.61	9.10	-46.1	-51.4	11.0	4.34e-05	0	37	0	26214400	62	7168
2026-01-24 12:02:31.36	244.06	9.23	-46.5	-52.4	9.7	1.01e-02	0	37	0	31457280	63	7569
2026-01-24 12:02:34.34	244.51	9.36	-45.7	-50.4	11.9	7.03e-04	0	37	0	36700160	63	5996
2026-01-24 12:02:37.33	244.97	9.49	-44.2	-47.7	14.6	2.20e-06	0	37	0	42991616	60	5253
2026-01-24 12:02:40.31	245.43	9.62	-43.4	-46.4	15.9	0.00e+00	0	37	0	48234496	58	5056
2026-01-24 12:02:43.29	245.89	9.74	-42.8	-45.6	16.8	0.00e+00	0	37	0	53477376	57	4877
2026-01-24 12:02:46.28	246.36	9.86	-42.7	-45.5	16.8	0.00e+00	0	37	0	59768832	57	4859
2026-01-24 12:02:49.27	246.83	9.99	-42.5	-45.2	17.1	0.00e+00	0	37	0	65011712	56	4972
2026-01-24 12:02:52.25	247.31	10.11	-42.4	-45.1	17.3	0.00e+00	0	37	0	70254592	56	4902
2026-01-24 12:02:55.24	247.79	10.23	-42.4	-45.2	17.2	0.00e+00	0	37	0	76546048	56	4929
2026-01-24 12:02:58.22	248.27	10.35	-42.6	-45.3	17.1	0.00e+00	0	37	0	81788928	56	5006
2026-01-24 12:03:01.20	248.76	10.47	-42.8	-45.5	16.9	0.00e+00	0	37	0	87031808	56	5151
2026-01-24 12:03:04.18	249.25	10.58	-42.8	-45.6	16.8	0.00e+00	0	37	0	93323264	56	5185
2026-01-24 12:03:07.17	249.75	10.70	-42.8	-45.6	16.8	0.00e+00	0	37	0	98566144	56	5182
2026-01-24 12:03:10.15	250.24	10.81	-42.7	-45.5	16.9	0.00e+00	0	37	0	103809024	56	5144
2026-01-24 12:03:13.14	250.75	10.93	-42.8	-45.7	16.8	0.00e+00	0	37	0	110100480	56	5221
2026-01-24 12:03:16.12	251.25	11.04	-43.0	-45.9	16.5	0.00e+00	0	37	0	115343360	56	5357
2026-01-24 12:03:19.11	251.76	11.15	-43.1	-46.0	16.4	0.00e+00	0	37	0	120586240	56	5440
2026-01-24 12:03:22.09	252.28	11.26	-42.9	-45.8	16.6	0.00e+00	0	37	0	126877696	56	5323
2026-01-24 12:03:25.07	252.79	11.36	-43.1	-46.0	16.4	0.00e+00	0	37	0	132120576	56	5429
2026-01-24 12:03:28.06	253.32	11.47	-43.2	-46.1	16.4	0.00e+00	0	37	0	137363456	56	5484
2026-01-24 12:03:31.04	253.84	11.57	-43.1	-46.0	16.4	0.00e+00	0	37	0	143654912	57	5134
2026-01-24 12:03:34.02	254.37	11.67	-42.9	-45.8	16.7	0.00e+00	0	37	0	148897792	57	4990
2026-01-24 12:03:37.00	254.90	11.77	-42.8	-45.6	16.8	0.00e+00	0	37	0	154140672	57	4907
2026-01-24 12:03:39.98	255.43	11.87	-42.9	-45.7	16.8	0.00e+00	0	37	0	160432128	57	4951
2026-01-24 12:03:42.97	255.97	11.97	-43.1	-46.0	16.5	0.00e+00	0	37	0	165675008	57	5119
2026-01-24 12:03:45.95	256.51	12.06	-43.2	-46.2	16.2	0.00e+00	0	37	0	170917888	57	5272
2026-01-24 12:03:48.94	257.06	12.15	-43.1	-46.1	16.3	0.00e+00	0	37	0	177209344	57	5184
2026-01-24 12:03:51.93	257.61	12.24	-43.1	-46.0	16.5	0.00e+00	0	37	0	182452224	57	5122
2026-01-24 12:03:54.91	258.16	12.33	-43.0	-45.9	16.5	0.00e+00	0	37	0	187695104	57	5071
2026-01-24 12:03:57.90	258.72	12.42	-43.1	-46.0	16.5	0.00e+00	0	37	0	193986560	57	5137
2026-01-24 12:04:00.88	259.27	12.50	-43.2	-46.2	16.3	0.00e+00	0	37	0	199229440	57	5223
2026-01-24 12:04:03.87	259.83	12.58	-43.3	-46.4	16.1	0.00e+00	0	37	0	204472320	57	5364
2026-01-24 12:04:06.85	260.40	12.66	-43.1	-46.1	16.3	0.00e+00	0	37	0	210763776	57	5194
2026-01-24 12:04:09.83	260.96	12.74	-42.9	-45.8	16.7	0.00e+00	0	37	0	216006656	57	4999
2026-01-24 12:04:12.81	261.53	12.82	-42.6	-45.4	17.1	0.00e+00	0	37	0	221249536	57	4785
2026-01-24 12:04:15.80	262.11	12.89	-42.6	-45.4	17.1	0.00e+00	0	37	0	227540992	57	4761
2026-01-24 12:04:18.79	262.68	12.96	-42.7	-45.4	17.0	0.00e+00	0	37	0	232783872	57	4811
2026-01-24 12:04:21.77	263.26	13.03	-42.7	-45.5	16.9	0.00e+00	0	37	0	238026752	57	4844
2026-01-24 12:04:24.76	263.84	13.09	-42.4	-45.1	17.4	0.00e+00	0	37	0	244318208	56	4919
2026-01-24 12:04:27.74	264.42	13.15	-42.3	-44.9	17.6	0.00e+00	0	37	0	249561088	56	4780
2026-01-24 12:04:30.73	265.01	13.21	-42.2	-44.8	17.7	0.00e+00	0	37	0	254803968	56	4730
2026-01-24 12:04:33.71	265.60	13.27	-42.5	-45.3	17.3	0.00e+00	0	37	0	261095424	56	4987
2026-01-24 12:04:36.69	266.18	13.33	-42.8	-45.6	16.9	0.00e+00	0	37	0	266338304	56	5165
2026-01-24 12:04:39.67	266.77	13.38	-43.0	-45.9	16.6	0.00e+00	0	37	0	271581184	56	5349
2026-01-24 12:04:42.66	267.37	13.43	-43.0	-45.9	16.6	0.00e+00	0	37	0	277872640	56	5363
2026-01-24 12:04:45.64	267.96	13.48	-42.9	-45.8	16.7	0.00e+00	0	37	0	283115520	56	5300
2026-01-24 12:04:48.63	268.56	13.52	-43.1	-46.0	16.5	0.00e+00	0	37	0	288358400	56	5423
2026-01-24 12:04:51.61	269.16	13.56	-43.1	-46.1	16.3	0.00e+00	0	37	0	294649856	57	5201
2026-01-24 12:04:54.60	269.76	13.60	-43.1	-46.0	16.5	0.00e+00	0	37	0	299892736	57	5117
2026-01-24 12:04:57.59	270.36	13.63	-43.1	-46.0	16.4	0.00e+00	0	37	0	305135616	57	5152
2026-01-24 12:05:00.57	270.96	13.67	-43.0	-45.9	16.5	0.00e+00	0	37	0	311427072	57	5082
2026-01-24 12:05:03.55	271.57	13.70	-42.9	-45.7	16.7	0.00e+00	0	37	0	316669952	57	4955
2026-01-24 12:05:06.54	272.17	13.72	-42.9	-45.7	16.7	0.00e+00	0	37	0	321912832	57	4978
2026-01-24 12:05:09.52	272.78	13.75	-42.8	-45.7	16.8	0.00e+00	0	37	0	328204288	57	4937
2026-01-24 12:05:12.51	273.39	13.77	-42.9	-45.7	16.7	0.00e+00	0	37	0	333447168	57	4961
2026-01-24 12:05:15.50	274.00	13.79	-42.7	-45.5	16.9	0.00e+00	0	37	0	339738624	57	4845
2026-01-24 12:05:18.48	274.60	13.80	-42.6	-45.3	17.1	0.00e+00	0	37	0	344981504	57	4759
2026-01-24 12:05:21.46	275.21	13.81	-42.6	-45.3	17.1	0.00e+00	0	37	0	350224384	57	4729
2026-01-24 12:05:24.45	275.82	13.82	-42.6	-45.4	17.0	0.00e+00	0	37	0	356515840	56	5060
2026-01-24 12:05:27.43	276.43	13.83	-42.6	-45.4	17.0	0.00e+00	0	37	0	361758720	56	5075
2026-01-24 12:05:30.42	277.04	13.83	-42.4	-45.1	17.3	0.00e+00	0	37	0	367001600	56	4905
2026-01-24 12:05:33.41	277.65	13.83	-42.1	-44.8	17.7	0.00e+00	0	37	0	373293056	56	4708
2026-01-24 12:05:36.39	278.26	13.83	-42.2	-44.8	17.6	0.00e+00	0	37	0	378535936	56	4753
2026-01-24 12:05:39.38	278.87	13.83	-42.1	-44.7	17.7	0.00e+00	0	37	0	383778816	56	4690
2026-01-24 12:05:42.37	279.48	13.82	-42.1	-44.8	17.6	0.00e+00	0	37	0	390070272	56	4709
2026-01-24 12:05:45.35	280.09	13.81	-41.6	-44.1	18.1	0.00e+00	0	37	0	395313152	55	4629
2026-01-24 12:05:48.33	280.70	13.79	-41.5	-43.9	18.3	0.00e+00	0	37	0	400556032	55	4545
2026-01-24 12:05:51.31	281.30	13.77	-41.8	-44.3	17.9	0.00e+00	0	37	0	406847488	55	4730
2026-01-24 12:05:54.29	281.91	13.75	-41.7	-44.3	17.9	0.00e+00	0	37	0	412090368	55	4730
2026-01-24 12:05:57.28	282.51	13.73	-41.5	-44.0	18.2	0.00e+00	0	37	0	417333248	55	4555
2026-01-24 12:06:00.26	283.12	13.70	-41.6	-44.1	18.1	0.00e+00	0	37	0	423624704	54	4893
2026-01-24 12:06:03.25	283.72	13.67	-41.5	-43.9	18.3	0.00e+00	0	37	0	428867584	54	4801
2026-01-24 12:06:06.23	284.32	13.64	-41.4	-43.8	18.4	0.00e+00	0	37	0	434110464	54	4749
2026-01-24 12:06:09.22	284.92	13.61	-41.3	-43.7	18.5	0.00e+00	0	37	0	440401920	54	4660
2026-01-24 12:06:12.20	285.52	13.57	-41.6	-44.1	18.1	0.00e+00	0	37	0	445644800	54	4897
2026-01-24 12:06:15.19	286.12	13.53	-41.7	-44.3	17.9	0.00e+00	0	37	0	450887680	54	4999
2026-01-24 12:06:18.17	286.72	13.49	-41.7	-44.1	18.0	0.00e+00	0	37	0	457179136	54	4926
2026-01-24 12:06:21.15	287.31	13.44	-41.7	-44.3	18.0	0.00e+00	0	37	0	462422016	54	4988
2026-01-24 12:06:24.14	287.90	13.39	-41.9	-44.5	17.7	0.00e+00	0	37	0	467664896	54	5117
2026-01-24 12:06:27.13	288.50	13.34	-41.6	-44.1	18.0	0.00e+00	0	37	0	473956352	54	4925
2026-01-24 12:06:30.11	289.08	13.29	-41.6	-44.1	18.1	0.00e+00	0	37	0	479199232	54	4876
2026-01-24 12:06:33.09	289.67	13.23	-41.9	-44.5	17.7	0.00e+00	0	37	0	484442112	54	5115
2026-01-24 12:06:36.08	290.25	13.17	-42.2	-44.9	17.3	0.00e+00	0	37	0	490733568	55	5050
2026-01-24 12:06:39.06	290.83	13.11	-42.0	-44.6	17.5	0.00e+00	0	37	0	495976448	55	4906
2026-01-24 12:06:42.05	291.41	13.04	-41.8	-44.3	17.8	0.00e+00	0	37	0	501219328	55	4748
2026-01-24 12:06:45.04	291.99	12.98	-41.6	-44.1	18.0	0.00e+00	0	37	0	507510784	55	4650
2026-01-24 12:06:48.03	292.57	12.91	-41.4	-43.9	18.3	0.00e+00	0	37	0	512753664	54	4769
2026-01-24 12:06:51.02	293.14	12.84	-41.4	-43.8	18.3	0.00e+00	0	37	0	517996544	54	4746
2026-01-24 12:06:54.00	293.71	12.76	-41.6	-44.1	18.0	0.00e+00	0	37	0	524288000	54	4905
2026-01-24 12:06:56.99	294.27	12.69	-41.8	-44.3	17.8	0.00e+00	0	37	0	529530880	54	5017
2026-01-24 12:06:59.97	294.83	12.61	-41.7	-44.2	18.0	0.00e+00	0	37	0	534773760	54	4939
2026-01-24 12:07:02.96	295.39	12.53	-41.6	-44.2	17.9	0.00e+00	0	37	0	541065216	54	4929
2026-01-24 12:07:05.94	295.95	12.44	-41.4	-43.9	18.2	0.00e+00	0	37	0	546308096	54	4796
2026-01-24 12:07:08.92	296.50	12.36	-41.6	-44.2	17.9	0.00e+00	0	37	0	551550976	54	4934
2026-01-24 12:07:11.91	297.05	12.27	-41.7	-44.3	17.8	0.00e+00	0	37	0	557842432	54	4987
2026-01-24 12:07:14.89	297.60	12.18	-41.9	-44.5	17.6	0.00e+00	0	37	0	563085312	54	5141
2026-01-24 12:07:17.88	298.14	12.09	-41.9	-44.6	17.4	0.00e+00	0	37	0	568328192	54	5180
2026-01-24 12:07:20.86	298.68	12.00	-41.9	-44.6	17.5	0.00e+00	0	37	0	574619648	54	5162
2026-01-24 12:07:23.85	299.22	11.90	-41.9	-44.6	17.5	0.00e+00	0	37	0	579862528	54	5174
2026-01-24 12:07:26.84	299.76	11.81	-41.9	-44.5	17.6	0.00e+00	0	37	0	585105408	54	5126
2026-01-24 12:07:29.82	300.29	11.71	-41.9	-44.5	17.5	0.00e+00	0	37	0	591396864	54	5145
2026-01-24 12:07:32.81	300.81	11.61	-42.0	-44.7	17.4	0.00e+00	0	37	0	596639744	54	5223
2026-01-24 12:07:35.79	301.34	11.50	-42.2	-44.9	17.1	0.00e+00	0	37	0	601882624	55	5065
2026-01-24 12:07:38.77	301.85	11.40	-42.5	-45.3	16.8	0.00e+00	0	37	0	608174080	55	5290
2026-01-24 12:07:41.76	302.37	11.30	-42.7	-45.5	16.5	0.00e+00	0	37	0	613416960	55	5457
2026-01-24 12:07:44.74	302.88	11.19	-43.1	-46.1	16.1	0.00e+00	0	37	0	618659840	56	5501
2026-01-24 12:07:47.72	303.39	11.08	-43.4	-46.6	15.7	0.00e+00	0	37	0	624951296	57	5489
2026-01-24 12:07:50.71	303.90	10.97	-43.5	-46.7	15.5	0.00e+00	0	37	0	630194176	57	5551
2026-01-24 12:07:53.69	304.40	10.86	-43.2	-46.3	15.9	0.00e+00	0	37	0	635437056	57	5302
2026-01-24 12:07:56.67	304.89	10.75	-43.3	-46.5	15.7	0.00e+00	0	37	0	641728512	57	5406
2026-01-24 12:07:59.66	305.39	10.63	-43.6	-46.9	15.3	0.00e+00	0	37	0	646971392	57	5674
2026-01-24 12:08:02.65	305.88	10.52	-44.0	-47.4	14.8	0.00e+00	0	37	0	652214272	58	5712
2026-01-24 12:08:05.63	306.36	10.40	-44.2	-47.8	14.4	7.00e-07	0	37	0	658505728	59	5628
2026-01-24 12:08:08.61	306.84	10.28	-44.7	-48.7	13.5	3.80e-06	0	37	0	663748608	60	5867
2026-01-24 12:08:11.59	307.32	10.16	-44.9	-49.1	13.2	2.13e-05	0	37	0	668991488	60	6136
2026-01-24 12:08:14.58	307.80	10.04	-44.6	-48.6	13.6	1.06e-05	0	37	0	675282944	60	5823
2026-01-24 12:08:17.56	308.27	9.92	-44.3	-48.0	14.2	0.00e+00	0	37	0	680525824	60	5449
2026-01-24 12:08:20.55	308.74	9.80	-44.1	-47.9	14.3	7.00e-07	0	37	0	685768704	60	5370
2026-01-24 12:08:23.53	309.20	9.67	-44.2	-48.0	14.2	7.00e-07	0	37	0	692060160	60	5441
2026-01-24 12:08:26.51	309.66	9.55	-44.2	-48.2	14.0	0.00e+00	0	37	0	697303040	60	5575
2026-01-24 12:08:29.50	310.11	9.43	-44.6	-48.7	13.4	7.60e-06	0	37	0	702545920	60	5900
2026-01-24 12:08:32.49	310.57	9.30	-44.6	-48.8	13.3	1.75e-05	0	37	0	708837376	60	5956
2026-01-24 12:08:35.47	311.01	9.17	-44.3	-48.2	13.9	2.20e-06	0	37	0	714080256	60	5559
2026-01-24 12:08:38.46	311.46	9.04	-44.2	-48.0	14.1	0.00e+00	0	37	0	719323136	60	5463
2026-01-24 12:08:41.44	311.90	8.91	-48.1	-63.5	3.8	1.49e+00	0	38	104	722468864	67	21729
2026-01-24 12:08:44.42	312.33	8.79	-48.5	-63.8	3.8	1.49e+00	0	37	104	722468864	67	22518
2026-01-24 12:08:47.40	312.77	8.65	-48.8	-64.1	3.8	1.49e+00	0	37	104	722468864	68	21915
2026-01-24 12:08:50.38	313.19	8.52	-49.0	-64.2	3.8	1.49e+00	0	38	104	722468864	68	22016
2026-01-24 12:08:53.36	313.62	8.39	-49.0	-64.2	3.8	1.49e+00	0	37	104	722468864	68	22062
2026-01-24 12:08:56.34	314.04	8.26	-48.8	-64.2	3.8	1.49e+00	0	37	104	722468864	68	22101
2026-01-24 12:08:59.32	314.46	8.13	-48.7	-64.1	3.8	1.49e+00	0	37	104	722468864	68	22002
2026-01-24 12:09:02.30	314.87	7.99	-48.6	-64.1	3.8	1.49e+00	0	37	104	722468864	68	21845
2026-01-24 12:09:05.28	315.28	7.86	-48.6	-64.1	3.8	1.49e+00	0	37	104	722468864	68	21834
2026-01-24 12:09:08.26	315.69	7.73	-48.6	-64.1	3.8	1.49e+00	0	37	104	722468864	68	21822
2026-01-24 12:09:11.23	316.09	7.59	-48.5	-64.1	3.8	1.49e+00	0	37	104	722468864	68	21759
2026-01-24 12:09:14.21	316.49	7.46	-48.6	-64.1	3.8	1.49e+00	0	37	104	722468864	68	21865
2026-01-24 12:09:17.19	316.88	7.32	-48.6	-64.1	3.8	1.49e+00	0	37	104	722468864	68	21771
2026-01-24 12:09:20.17	317.28	7.19	-48.6	-64.1	3.8	1.49e+00	0	37	104	722468864	68	21831
2026-01-24 12:09:23.15	317.66	7.05	-48.6	-64.1	3.8	1.49e+00	0	37	104	722468864	68	21802
2026-01-24 12:09:26.13	318.05	6.91	-48.6	-64.1	3.8	1.49e+00	0	37	104	722468864	68	21770
2026-01-24 12:09:29.11	318.43	6.77	-48.6	-64.0	3.8	1.49e+00	0	37	104	722468864	68	21700
2026-01-24 12:09:32.09	318.81	6.64	-48.6	-64.1	3.8	1.49e+00	0	37	104	722468864	68	21769
2026-01-24 12:09:35.07	319.18	6.50	-48.6	-64.1	3.8	1.49e+00	0	37	104	722468864	68	21769
2026-01-24 12:09:38.04	319.55	6.36	-48.6	-64.0	3.8	1.49e+00	0	37	104	722468864	68	21719
2026-01-24 12:09:41.02	319.92	6.22	-48.6	-64.1	3.8	1.49e+00	0	37	104	722468864	68	21784
2026-01-24 12:09:44.00	320.29	6.09	-48.6	-64.0	3.8	1.49e+00	0	37	104	722468864	68	21653
2026-01-24 12:09:46.98	320.65	5.95	-48.6	-64.0	3.8	1.49e+00	0	37	104	722468864	68	21730
2026-01-24 12:09:49.96	321.01	5.81	-48.6	-64.0	3.8	1.49e+00	0	37	104	722468864	68	21731
2026-01-24 12:09:52.94	321.36	5.67	-48.6	-64.1	3.8	1.49e+00	0	37	104	722468864	68	21793
2026-01-24 12:09:55.92	321.71	5.53	-48.6	-64.1	3.8	1.49e+00	0	37	104	722468864	68	21815
2026-01-24 12:09:58.90	322.06	5.39	-48.6	-64.1	3.8	1.49e+00	0	37	104	722468864	68	21836
2026-01-24 12:10:01.88	322.41	5.25	-48.6	-64.1	3.8	1.49e+00	0	37	104	722468864	68	21785
2026-01-24 12:10:04.86	322.75	5.11	-48.6	-64.1	3.8	1.49e+00	0	37	104	722468864	68	21814
2026-01-24 12:10:07.83	323.08	4.97	-48.6	-64.0	3.8	1.49e+00	0	38	104	722468864	68	21717

#Closed at: 2026-01-24 12:10:08
#Recorded file [722 MB]: D:/Data/31040_260124_150058.dat