passes_logs/2026/01/24/T1/T1__20260124_222819_NOAA_20_JPSS-1_rec.log

#Pass ID: 20260124_222819_NOAA 20 (JPSS-1)
#Satellite: NOAA 20 (JPSS-1)
#Configuration: NOAA 20
#almurnet v.1.7.20251203
#Start time: 2026-01-24 22:28:19

#Version: 2.0.20230620
#Station: T1
#Location: 37.570604 lon 55.790049 lat
#TLE: 1 43013U 17073A   26024.42258823  .00000183  00000+0  10747-3 0  9990
#TLE: 2 43013  98.7646 325.2629 0001105  25.8644 334.2587 14.19539754424075

#Time	Az	El	Level	Level2	SNR	BER	BlckErr	Temp	State	Recorded	gain1	gain2
2026-01-24 22:28:19.69	26.32	5.01	-47.7	-63.2	3.8	1.49e+00	0	36	0	0	67	20906
2026-01-24 22:28:22.67	26.53	5.20	-47.7	-63.2	3.8	1.49e+00	0	36	104	0	66	22138
2026-01-24 22:28:25.65	26.74	5.39	-47.6	-63.2	3.8	1.49e+00	0	36	104	0	66	22135
2026-01-24 22:28:28.63	26.96	5.58	-47.7	-63.1	3.8	1.49e+00	0	36	104	0	66	21921
2026-01-24 22:28:31.61	27.18	5.77	-47.7	-63.1	3.8	1.49e+00	0	36	104	0	66	21840
2026-01-24 22:28:34.59	27.41	5.96	-47.7	-63.1	3.8	1.49e+00	0	36	104	0	66	21894
2026-01-24 22:28:37.57	27.63	6.15	-47.6	-63.1	3.8	1.49e+00	0	37	104	0	66	21997
2026-01-24 22:28:40.55	27.86	6.35	-47.6	-63.2	3.8	1.49e+00	0	37	104	0	66	22056
2026-01-24 22:28:43.53	28.09	6.54	-47.6	-63.1	3.8	1.49e+00	0	37	104	0	66	21962
2026-01-24 22:28:46.51	28.33	6.74	-47.6	-63.1	3.8	1.49e+00	0	37	104	0	66	21841
2026-01-24 22:28:49.49	28.57	6.93	-47.6	-63.1	3.8	1.49e+00	0	37	104	0	66	21764
2026-01-24 22:28:52.47	28.81	7.13	-47.6	-63.0	3.8	1.49e+00	0	37	104	0	66	21710
2026-01-24 22:28:55.45	29.05	7.33	-47.6	-62.9	3.8	1.49e+00	0	37	104	0	66	21403
2026-01-24 22:28:58.43	29.30	7.53	-47.6	-63.0	3.8	1.49e+00	0	37	104	0	66	21539
2026-01-24 22:29:01.41	29.55	7.73	-47.6	-63.1	3.8	1.49e+00	0	37	104	0	66	21828
2026-01-24 22:29:04.39	29.80	7.94	-47.6	-63.1	3.8	1.49e+00	0	37	104	0	66	21851
2026-01-24 22:29:07.37	30.06	8.14	-47.6	-63.0	3.8	1.49e+00	0	37	104	0	66	21587
2026-01-24 22:29:10.35	30.32	8.35	-47.6	-62.7	3.8	1.49e+00	0	37	104	0	66	20885
2026-01-24 22:29:13.33	30.58	8.55	-47.6	-62.2	3.8	1.49e+00	0	38	104	0	66	19748
2026-01-24 22:29:16.31	30.85	8.76	-47.5	-60.2	4.0	1.48e+00	0	38	0	0	66	15618
2026-01-24 22:29:19.29	31.12	8.97	-46.7	-54.9	6.9	2.56e-01	0	38	0	4194304	65	9035
2026-01-24 22:29:22.27	31.40	9.18	-47.2	-58.0	4.7	1.39e+00	0	38	0	8388608	65	12920
2026-01-24 22:29:25.26	31.68	9.39	-47.2	-57.8	4.8	8.00e-01	0	38	0	11534336	65	12650
2026-01-24 22:29:28.25	31.96	9.61	-47.0	-57.4	5.0	7.10e-01	0	38	0	16777216	65	12022
2026-01-24 22:29:31.23	32.25	9.82	-45.2	-50.5	11.6	5.31e-03	0	38	0	23068672	62	6435
2026-01-24 22:29:34.22	32.54	10.03	-43.3	-46.7	15.4	1.22e-05	0	38	0	27262976	58	5248
2026-01-24 22:29:37.20	32.84	10.25	-43.4	-46.8	15.3	0.00e+00	0	38	0	32505856	58	5326
2026-01-24 22:29:40.19	33.14	10.47	-43.0	-46.1	16.1	0.00e+00	0	38	0	38797312	57	5161
2026-01-24 22:29:43.17	33.44	10.69	-42.5	-45.4	16.7	0.00e+00	0	38	0	44040192	57	4810
2026-01-24 22:29:46.15	33.75	10.91	-42.7	-45.5	16.7	0.00e+00	0	38	0	49283072	56	5158
2026-01-24 22:29:49.14	34.06	11.13	-42.1	-44.8	17.3	0.00e+00	0	38	0	55574528	56	4749
2026-01-24 22:29:52.12	34.38	11.35	-42.1	-44.9	17.3	0.00e+00	0	38	0	60817408	56	4767
2026-01-24 22:29:55.11	34.70	11.58	-41.7	-44.4	17.6	0.00e+00	0	38	0	66060288	55	4776
2026-01-24 22:29:58.09	35.03	11.80	-41.8	-44.4	17.6	0.00e+00	0	38	0	72351744	55	4789
2026-01-24 22:30:01.08	35.36	12.03	-41.8	-44.5	17.6	0.00e+00	0	38	0	77594624	55	4816
2026-01-24 22:30:04.07	35.70	12.26	-41.5	-44.2	17.9	0.00e+00	0	38	0	82837504	55	4656
2026-01-24 22:30:07.05	36.04	12.49	-41.5	-44.1	18.0	0.00e+00	0	38	0	89128960	54	4890
2026-01-24 22:30:10.03	36.38	12.72	-41.6	-44.2	17.8	0.00e+00	0	38	0	94371840	54	4967
2026-01-24 22:30:13.02	36.74	12.95	-41.8	-44.4	17.7	0.00e+00	0	38	0	99614720	54	5059
2026-01-24 22:30:16.00	37.09	13.18	-41.9	-44.6	17.5	0.00e+00	0	38	0	105906176	54	5165
2026-01-24 22:30:18.98	37.45	13.42	-41.9	-44.5	17.6	0.00e+00	0	38	0	111149056	54	5151
2026-01-24 22:30:21.97	37.82	13.65	-41.7	-44.2	17.9	0.00e+00	0	38	0	116391936	54	4964
2026-01-24 22:30:24.96	38.20	13.89	-41.6	-44.1	18.0	0.00e+00	0	38	0	122683392	54	4889
2026-01-24 22:30:27.94	38.58	14.13	-41.7	-44.3	17.8	0.00e+00	0	38	0	127926272	54	5018
2026-01-24 22:30:30.93	38.96	14.37	-41.7	-44.2	17.9	0.00e+00	0	38	0	133169152	54	4967
2026-01-24 22:30:33.92	39.36	14.61	-41.6	-44.0	18.1	0.00e+00	0	38	0	139460608	54	4864
2026-01-24 22:30:36.90	39.76	14.85	-41.4	-43.8	18.4	0.00e+00	0	38	0	144703488	54	4738
2026-01-24 22:30:39.89	40.16	15.10	-41.4	-43.9	18.3	0.00e+00	0	38	0	149946368	54	4771
2026-01-24 22:30:42.87	40.57	15.34	-41.5	-44.0	18.1	0.00e+00	0	38	0	156237824	54	4836
2026-01-24 22:30:45.85	40.99	15.58	-41.5	-44.0	18.2	0.00e+00	0	38	0	161480704	54	4818
2026-01-24 22:30:48.84	41.41	15.83	-41.4	-43.8	18.3	0.00e+00	0	38	0	166723584	54	4740
2026-01-24 22:30:51.82	41.84	16.08	-41.2	-43.6	18.6	0.00e+00	0	38	0	173015040	54	4650
2026-01-24 22:30:54.80	42.28	16.33	-41.1	-43.5	18.6	0.00e+00	0	38	0	178257920	54	4593
2026-01-24 22:30:57.79	42.73	16.57	-41.1	-43.5	18.7	0.00e+00	0	38	0	183500800	54	4567
2026-01-24 22:31:00.77	43.18	16.82	-41.0	-43.4	18.8	0.00e+00	0	38	0	189792256	54	4499
2026-01-24 22:31:03.76	43.64	17.08	-41.0	-43.4	18.7	0.00e+00	0	38	0	195035136	53	4780
2026-01-24 22:31:06.74	44.11	17.33	-40.9	-43.3	18.9	0.00e+00	0	38	0	200278016	53	4717
2026-01-24 22:31:09.73	44.58	17.58	-41.0	-43.3	18.8	0.00e+00	0	38	0	206569472	53	4736
2026-01-24 22:31:12.71	45.06	17.83	-40.8	-43.1	19.0	0.00e+00	0	38	0	211812352	53	4624
2026-01-24 22:31:15.70	45.55	18.09	-40.8	-43.1	19.0	0.00e+00	0	38	0	217055232	53	4634
2026-01-24 22:31:18.68	46.05	18.34	-40.7	-43.0	19.2	0.00e+00	0	38	0	223346688	53	4565
2026-01-24 22:31:21.67	46.56	18.60	-40.6	-42.9	19.2	0.00e+00	0	38	0	228589568	53	4527
2026-01-24 22:31:24.65	47.08	18.85	-40.6	-42.9	19.3	0.00e+00	0	38	0	233832448	53	4507
2026-01-24 22:31:27.63	47.60	19.11	-40.6	-42.8	19.3	0.00e+00	0	38	0	240123904	53	4478
2026-01-24 22:31:30.62	48.13	19.37	-40.7	-43.0	19.2	0.00e+00	0	38	0	245366784	53	4561
2026-01-24 22:31:33.60	48.67	19.62	-40.6	-42.8	19.4	0.00e+00	0	38	0	250609664	53	4475
2026-01-24 22:31:36.58	49.22	19.88	-40.5	-42.7	19.4	0.00e+00	0	38	0	256901120	52	4703
2026-01-24 22:31:39.57	49.78	20.14	-40.3	-42.6	19.6	0.00e+00	0	38	0	262144000	52	4606
2026-01-24 22:31:42.55	50.35	20.39	-40.2	-42.4	19.7	0.00e+00	0	38	0	267386880	52	4515
2026-01-24 22:31:45.53	50.93	20.65	-40.2	-42.4	19.8	0.00e+00	0	38	0	273678336	52	4531
2026-01-24 22:31:48.52	51.52	20.91	-40.5	-42.7	19.5	0.00e+00	0	38	0	278921216	52	4701
2026-01-24 22:31:51.50	52.11	21.16	-40.3	-42.5	19.7	0.00e+00	0	38	0	284164096	52	4591
2026-01-24 22:31:54.48	52.72	21.42	-40.2	-42.5	19.7	0.00e+00	0	38	0	290455552	52	4547
2026-01-24 22:31:57.47	53.34	21.67	-40.3	-42.5	19.7	0.00e+00	0	38	0	295698432	52	4563
2026-01-24 22:32:00.45	53.96	21.93	-40.4	-42.6	19.6	0.00e+00	0	38	0	300941312	52	4643
2026-01-24 22:32:03.44	54.60	22.18	-40.3	-42.5	19.7	0.00e+00	0	38	0	307232768	52	4588
2026-01-24 22:32:06.42	55.24	22.43	-40.0	-42.2	20.0	0.00e+00	0	38	0	312475648	52	4419
2026-01-24 22:32:09.41	55.90	22.68	-40.2	-42.3	19.9	0.00e+00	0	38	0	317718528	52	4474
2026-01-24 22:32:12.39	56.57	22.93	-40.3	-42.5	19.7	0.00e+00	0	38	0	324009984	52	4576
2026-01-24 22:32:15.38	57.25	23.18	-40.4	-42.6	19.6	0.00e+00	0	38	0	329252864	52	4642
2026-01-24 22:32:18.36	57.94	23.43	-40.5	-42.7	19.5	0.00e+00	0	38	0	334495744	52	4700
2026-01-24 22:32:21.34	58.64	23.67	-40.7	-43.0	19.2	0.00e+00	0	38	0	340787200	52	4861
2026-01-24 22:32:24.33	59.35	23.91	-41.0	-43.3	18.9	0.00e+00	0	38	0	346030080	52	5040
2026-01-24 22:32:27.32	60.07	24.15	-41.1	-43.5	18.8	0.00e+00	0	38	0	351272960	52	5118
2026-01-24 22:32:30.30	60.80	24.39	-41.0	-43.4	18.9	0.00e+00	0	38	0	357564416	53	4772
2026-01-24 22:32:33.29	61.55	24.62	-41.0	-43.3	19.0	0.00e+00	0	38	0	362807296	53	4730
2026-01-24 22:32:36.27	62.30	24.86	-41.3	-43.8	18.6	0.00e+00	0	38	0	368050176	53	4987
2026-01-24 22:32:39.25	63.06	25.08	-41.7	-44.2	18.2	0.00e+00	0	38	0	374341632	54	4963
2026-01-24 22:32:42.24	63.84	25.31	-41.7	-44.2	18.2	0.00e+00	0	38	0	379584512	54	4955
2026-01-24 22:32:45.22	64.62	25.53	-41.8	-44.3	18.1	0.00e+00	0	38	0	384827392	54	5014
2026-01-24 22:32:48.21	65.42	25.75	-42.0	-44.5	17.9	0.00e+00	0	38	0	391118848	54	5137
2026-01-24 22:32:51.19	66.23	25.96	-42.4	-45.0	17.4	0.00e+00	0	38	0	396361728	55	5159
2026-01-24 22:32:54.18	67.05	26.17	-42.6	-45.3	17.2	0.00e+00	0	38	0	401604608	55	5298
2026-01-24 22:32:57.16	67.88	26.37	-42.6	-45.3	17.1	0.00e+00	0	38	0	407896064	55	5301
2026-01-24 22:33:00.14	68.72	26.57	-42.9	-45.7	16.9	0.00e+00	0	38	0	413138944	56	5255
2026-01-24 22:33:03.13	69.57	26.77	-43.1	-45.9	16.7	0.00e+00	0	38	0	418381824	56	5343
2026-01-24 22:33:06.11	70.43	26.96	-43.0	-45.8	16.8	0.00e+00	0	38	0	424673280	56	5309
2026-01-24 22:33:09.09	71.30	27.14	-43.2	-46.0	16.6	0.00e+00	0	38	0	429916160	56	5437
2026-01-24 22:33:12.08	72.18	27.32	-43.1	-46.0	16.6	0.00e+00	0	38	0	435159040	57	5106
2026-01-24 22:33:15.06	73.07	27.49	-42.7	-45.4	17.2	0.00e+00	0	38	0	441450496	57	4805
2026-01-24 22:33:18.04	73.97	27.66	-43.2	-46.1	16.5	0.00e+00	0	38	0	446693376	57	5181
2026-01-24 22:33:21.03	74.88	27.82	-44.0	-47.1	15.5	0.00e+00	0	38	0	451936256	58	5525
2026-01-24 22:33:24.01	75.79	27.97	-44.1	-47.4	15.2	0.00e+00	0	38	0	458227712	59	5369
2026-01-24 22:33:27.00	76.72	28.11	-44.0	-47.2	15.4	0.00e+00	0	38	0	463470592	59	5244
2026-01-24 22:33:29.98	77.65	28.25	-43.7	-46.8	15.9	0.00e+00	0	38	0	468713472	59	5000
2026-01-24 22:33:32.97	78.59	28.38	-43.4	-46.3	16.3	0.00e+00	0	38	0	475004928	58	5026
2026-01-24 22:33:35.95	79.54	28.50	-43.4	-46.3	16.3	0.00e+00	0	38	0	480247808	58	5034
2026-01-24 22:33:38.93	80.50	28.62	-44.0	-47.3	15.4	0.00e+00	0	38	0	485490688	58	5617
2026-01-24 22:33:41.92	81.46	28.73	-44.1	-47.4	15.2	0.00e+00	0	38	0	491782144	58	5717
2026-01-24 22:33:44.90	82.43	28.82	-43.9	-47.3	15.5	0.00e+00	0	38	0	497025024	58	5594
2026-01-24 22:33:47.89	83.40	28.91	-43.4	-46.5	16.2	0.00e+00	0	38	0	502267904	58	5118
2026-01-24 22:33:50.87	84.38	28.99	-43.1	-46.0	16.7	0.00e+00	0	38	0	508559360	58	4860
2026-01-24 22:33:53.86	85.37	29.07	-43.3	-46.3	16.4	0.00e+00	0	39	0	513802240	58	4990
2026-01-24 22:33:56.84	86.36	29.13	-43.4	-46.5	16.3	0.00e+00	0	39	0	519045120	58	5114
2026-01-24 22:33:59.83	87.35	29.19	-42.8	-45.6	17.1	0.00e+00	0	38	0	525336576	57	4898
2026-01-24 22:34:02.81	88.34	29.23	-43.0	-45.9	16.8	0.00e+00	0	39	0	530579456	57	5074
2026-01-24 22:34:05.79	89.34	29.27	-43.6	-46.7	16.0	0.00e+00	0	38	0	535822336	58	5220
2026-01-24 22:34:08.78	90.34	29.29	-43.0	-45.9	16.8	0.00e+00	0	38	0	542113792	58	4786
2026-01-24 22:34:11.76	91.34	29.31	-42.3	-44.9	17.8	0.00e+00	0	38	0	547356672	56	4782
2026-01-24 22:34:14.75	92.35	29.32	-42.8	-45.6	17.2	0.00e+00	0	39	0	553648128	56	5168
2026-01-24 22:34:17.73	93.35	29.32	-43.1	-46.0	16.7	0.00e+00	0	38	0	558891008	56	5447
2026-01-24 22:34:20.72	94.35	29.31	-42.5	-45.1	17.6	0.00e+00	0	38	0	564133888	56	4913
2026-01-24 22:34:23.70	95.35	29.29	-42.8	-45.5	17.4	0.00e+00	0	39	0	570425344	56	5106
2026-01-24 22:34:26.68	96.35	29.26	-43.8	-46.9	16.0	0.00e+00	0	39	0	575668224	58	5351
2026-01-24 22:34:29.67	97.35	29.22	-43.8	-46.9	15.9	0.00e+00	0	38	0	580911104	58	5363
2026-01-24 22:34:32.65	98.34	29.17	-43.1	-45.9	16.9	0.00e+00	0	38	0	587202560	58	4776
2026-01-24 22:34:35.64	99.34	29.12	-44.1	-47.3	15.5	0.00e+00	0	38	0	592445440	58	5649
2026-01-24 22:34:38.62	100.32	29.05	-44.7	-48.3	14.5	3.00e-06	0	38	0	597688320	60	5650
2026-01-24 22:34:41.60	101.31	28.97	-44.4	-47.7	15.1	0.00e+00	0	38	0	603979776	60	5250
2026-01-24 22:34:44.59	102.29	28.89	-44.3	-47.6	15.2	0.00e+00	0	38	0	609222656	60	5169
2026-01-24 22:34:47.57	103.26	28.80	-43.4	-46.2	16.6	0.00e+00	0	39	0	614465536	58	4975
2026-01-24 22:34:50.55	104.23	28.70	-43.8	-46.9	15.9	0.00e+00	0	39	0	620756992	58	5360
2026-01-24 22:34:53.53	105.19	28.59	-43.8	-46.9	15.9	0.00e+00	0	38	0	625999872	58	5377
2026-01-24 22:34:56.52	106.15	28.47	-42.9	-45.6	17.2	0.00e+00	0	38	0	631242752	57	4908
2026-01-24 22:34:59.50	107.10	28.35	-42.3	-44.9	17.8	0.00e+00	0	38	0	637534208	56	4801
2026-01-24 22:35:02.48	108.04	28.21	-42.3	-44.9	17.9	0.00e+00	0	39	0	642777088	56	4793
2026-01-24 22:35:05.47	108.97	28.07	-42.5	-45.1	17.7	0.00e+00	0	39	0	648019968	56	4909
2026-01-24 22:35:08.45	109.90	27.93	-42.7	-45.3	17.4	0.00e+00	0	38	0	654311424	56	5036
2026-01-24 22:35:11.44	110.82	27.77	-41.8	-44.2	18.4	0.00e+00	0	38	0	659554304	55	4680
2026-01-24 22:35:14.42	111.72	27.61	-41.6	-44.0	18.5	0.00e+00	0	38	0	664797184	55	4594
2026-01-24 22:35:17.41	112.62	27.44	-42.0	-44.5	18.1	0.00e+00	0	39	0	671088640	55	4868
2026-01-24 22:35:20.39	113.51	27.27	-42.7	-45.4	17.2	0.00e+00	0	38	0	676331520	55	5376
2026-01-24 22:35:23.38	114.39	27.09	-42.8	-45.5	17.3	0.00e+00	0	38	0	681574400	56	5122
2026-01-24 22:35:26.36	115.26	26.90	-42.8	-45.5	17.3	0.00e+00	0	38	0	687865856	56	5114
2026-01-24 22:35:29.34	116.12	26.71	-42.6	-45.3	17.5	0.00e+00	0	38	0	693108736	56	4998
2026-01-24 22:35:32.33	116.98	26.51	-42.6	-45.2	17.6	0.00e+00	0	38	0	698351616	56	4971
2026-01-24 22:35:35.31	117.81	26.31	-42.9	-45.6	17.2	0.00e+00	0	38	0	704643072	56	5170
2026-01-24 22:35:38.29	118.64	26.10	-43.0	-45.8	17.0	0.00e+00	0	38	0	709885952	56	5310
2026-01-24 22:35:41.28	119.46	25.89	-42.7	-45.4	17.4	0.00e+00	0	38	0	715128832	56	5068
2026-01-24 22:35:44.26	120.27	25.68	-42.5	-45.0	17.7	0.00e+00	0	38	0	721420288	56	4868
2026-01-24 22:35:47.24	121.07	25.46	-42.1	-44.6	18.1	0.00e+00	0	38	0	726663168	56	4618
2026-01-24 22:35:50.23	121.85	25.23	-41.5	-43.9	18.7	0.00e+00	0	38	0	731906048	54	4763
2026-01-24 22:35:53.21	122.63	25.01	-42.1	-44.6	17.9	0.00e+00	0	38	0	738197504	54	5218
2026-01-24 22:35:56.20	123.40	24.78	-41.6	-44.0	18.6	0.00e+00	0	38	0	743440384	54	4815
2026-01-24 22:35:59.18	124.15	24.54	-41.7	-44.1	18.4	0.00e+00	0	38	0	748683264	54	4919
2026-01-24 22:36:02.17	124.89	24.30	-42.0	-44.4	18.1	0.00e+00	0	38	0	754974720	54	5091
2026-01-24 22:36:05.16	125.63	24.06	-41.8	-44.3	18.3	0.00e+00	0	38	0	760217600	54	4989
2026-01-24 22:36:08.15	126.35	23.82	-42.3	-44.9	17.6	0.00e+00	0	39	0	765460480	55	5090
2026-01-24 22:36:11.13	127.06	23.58	-41.8	-44.3	18.2	0.00e+00	0	38	0	771751936	55	4730
2026-01-24 22:36:14.12	127.76	23.33	-42.6	-45.3	17.3	0.00e+00	0	38	0	776994816	55	5301
2026-01-24 22:36:17.10	128.45	23.08	-43.0	-45.8	17.0	0.00e+00	0	38	0	782237696	57	4995
2026-01-24 22:36:20.09	129.12	22.83	-42.8	-45.5	17.3	0.00e+00	0	38	0	788529152	57	4819
2026-01-24 22:36:23.08	129.79	22.58	-43.2	-46.0	16.7	0.00e+00	0	38	0	793772032	57	5154
2026-01-24 22:36:26.06	130.45	22.33	-42.0	-44.5	18.2	0.00e+00	0	39	0	799014912	56	4551
2026-01-24 22:36:29.05	131.10	22.07	-41.5	-43.9	18.6	0.00e+00	0	38	0	805306368	54	4788
2026-01-24 22:36:32.03	131.73	21.82	-42.6	-45.3	17.2	0.00e+00	0	38	0	810549248	55	5311
2026-01-24 22:36:35.01	132.36	21.56	-42.2	-44.8	17.7	0.00e+00	0	38	0	815792128	55	4988
2026-01-24 22:36:38.00	132.97	21.30	-42.5	-45.1	17.4	0.00e+00	0	38	0	822083584	55	5203
2026-01-24 22:36:40.98	133.58	21.05	-43.0	-45.8	16.9	0.00e+00	0	38	0	827326464	56	5304
2026-01-24 22:36:43.96	134.18	20.79	-41.8	-44.2	18.2	0.00e+00	0	38	0	832569344	55	4703
2026-01-24 22:36:46.95	134.76	20.53	-41.7	-44.2	18.3	0.00e+00	0	38	0	838860800	54	4942
2026-01-24 22:36:49.93	135.34	20.27	-41.9	-44.5	18.0	0.00e+00	0	38	0	844103680	54	5105
2026-01-24 22:36:52.92	135.91	20.01	-41.5	-43.9	18.5	0.00e+00	0	38	0	849346560	54	4797
2026-01-24 22:36:55.91	136.47	19.75	-41.6	-43.9	18.5	0.00e+00	0	38	0	855638016	54	4814
2026-01-24 22:36:58.89	137.02	19.49	-41.8	-44.3	18.2	0.00e+00	0	38	0	860880896	54	5001
2026-01-24 22:37:01.88	137.56	19.23	-41.6	-44.0	18.5	0.00e+00	0	38	0	866123776	54	4835
2026-01-24 22:37:04.87	138.09	18.97	-41.3	-43.7	18.8	0.00e+00	0	38	0	872415232	54	4664
2026-01-24 22:37:07.85	138.61	18.72	-41.0	-43.3	19.1	0.00e+00	0	38	0	877658112	54	4486
2026-01-24 22:37:10.84	139.13	18.46	-40.9	-43.2	19.2	0.00e+00	0	38	0	882900992	53	4668
2026-01-24 22:37:13.82	139.63	18.20	-40.7	-43.0	19.4	0.00e+00	0	38	0	889192448	53	4549
2026-01-24 22:37:16.80	140.13	17.94	-41.0	-43.3	19.1	0.00e+00	0	38	0	894435328	53	4748
2026-01-24 22:37:19.79	140.62	17.69	-41.4	-43.8	18.6	0.00e+00	0	38	0	899678208	53	5003
2026-01-24 22:37:22.77	141.10	17.43	-41.4	-43.8	18.6	0.00e+00	0	38	0	905969664	53	5026
2026-01-24 22:37:25.75	141.57	17.18	-41.2	-43.6	18.8	0.00e+00	0	39	0	911212544	53	4908
2026-01-24 22:37:28.74	142.04	16.92	-41.1	-43.5	18.9	0.00e+00	0	38	0	916455424	53	4835
2026-01-24 22:37:31.73	142.50	16.67	-41.0	-43.4	19.0	0.00e+00	0	38	0	922746880	53	4800
2026-01-24 22:37:34.71	142.95	16.42	-41.4	-43.9	18.5	0.00e+00	0	38	0	927989760	53	5094
2026-01-24 22:37:37.69	143.39	16.17	-41.3	-43.8	18.7	0.00e+00	0	39	0	933232640	53	4994
2026-01-24 22:37:40.68	143.83	15.92	-41.6	-44.1	18.4	0.00e+00	0	38	0	939524096	54	4888
2026-01-24 22:37:43.66	144.26	15.67	-42.0	-44.6	17.9	0.00e+00	0	38	0	944766976	54	5164
2026-01-24 22:37:46.65	144.68	15.42	-42.1	-44.7	17.8	0.00e+00	0	39	0	950009856	55	4949
2026-01-24 22:37:49.63	145.10	15.17	-42.2	-44.7	17.8	0.00e+00	0	38	0	956301312	55	4974
2026-01-24 22:37:52.62	145.51	14.93	-42.3	-45.0	17.6	0.00e+00	0	38	0	961544192	55	5113
2026-01-24 22:37:55.60	145.91	14.68	-42.5	-45.2	17.3	0.00e+00	0	38	0	966787072	55	5238
2026-01-24 22:37:58.59	146.31	14.44	-43.0	-45.8	16.9	0.00e+00	0	38	0	973078528	56	5315
2026-01-24 22:38:01.57	146.70	14.20	-43.0	-45.9	16.8	0.00e+00	0	38	0	978321408	56	5388
2026-01-24 22:38:04.55	147.08	13.96	-42.9	-45.8	16.9	0.00e+00	0	38	0	983564288	56	5290
2026-01-24 22:38:07.54	147.46	13.72	-42.8	-45.5	17.2	0.00e+00	0	38	0	989855744	56	5149
2026-01-24 22:38:10.52	147.83	13.48	-42.7	-45.3	17.3	0.00e+00	0	38	0	995098624	56	5032
2026-01-24 22:38:13.50	148.20	13.24	-42.6	-45.2	17.5	0.00e+00	0	39	0	1001390080	56	4971
2026-01-24 22:38:16.49	148.56	13.00	-42.6	-45.4	17.3	0.00e+00	0	38	0	1006632960	56	5054
2026-01-24 22:38:19.47	148.92	12.77	-43.0	-45.8	16.9	0.00e+00	0	38	0	1011875840	56	5329
2026-01-24 22:38:22.46	149.27	12.54	-43.2	-46.1	16.6	0.00e+00	0	39	0	1018167296	57	5208
2026-01-24 22:38:25.44	149.61	12.30	-42.9	-45.6	17.2	0.00e+00	0	39	0	1023410176	57	4897
2026-01-24 22:38:28.43	149.95	12.07	-42.4	-45.1	17.7	0.00e+00	0	38	0	1028653056	56	4880
2026-01-24 22:38:31.41	150.28	11.84	-42.4	-45.1	17.7	0.00e+00	0	38	0	1034944512	56	4874
2026-01-24 22:38:34.40	150.61	11.61	-42.6	-45.3	17.5	0.00e+00	0	38	0	1040187392	56	5011
2026-01-24 22:38:37.38	150.94	11.39	-43.0	-45.8	17.1	0.00e+00	0	38	0	1045430272	56	5303
2026-01-24 22:38:40.37	151.26	11.16	-43.1	-45.8	17.0	0.00e+00	0	38	0	1051721728	56	5335
2026-01-24 22:38:43.35	151.57	10.94	-43.0	-45.8	17.0	0.00e+00	0	38	0	1056964608	56	5320
2026-01-24 22:38:46.34	151.88	10.71	-42.8	-45.6	17.3	0.00e+00	0	38	0	1062207488	56	5179
2026-01-24 22:38:49.32	152.19	10.49	-42.6	-45.3	17.6	0.00e+00	0	39	0	1068498944	56	4986
2026-01-24 22:38:52.31	152.49	10.27	-42.7	-45.4	17.4	0.00e+00	0	38	0	1073741824	56	5081
2026-01-24 22:38:55.29	152.79	10.05	-42.9	-45.7	17.1	0.00e+00	0	39	0	1078984704	56	5262
2026-01-24 22:38:58.28	153.08	9.83	-43.0	-45.9	17.0	0.00e+00	0	38	0	1085276160	56	5357
2026-01-24 22:39:01.26	153.37	9.62	-43.0	-46.0	16.7	0.00e+00	0	38	0	1090519040	56	5443
2026-01-24 22:39:04.25	153.66	9.40	-42.9	-45.8	16.1	0.00e+00	0	38	0	1095761920	56	5295
2026-01-24 22:39:07.23	153.94	9.19	-43.0	-45.7	17.1	0.00e+00	0	38	0	1102053376	56	5266
2026-01-24 22:39:10.21	154.21	8.97	-48.4	-62.6	3.8	6.50e-01	0	38	104	1106247680	67	19509
2026-01-24 22:39:13.19	154.48	8.76	-49.4	-64.6	3.8	1.49e+00	0	38	104	1106247680	69	21937
2026-01-24 22:39:16.17	154.75	8.55	-49.6	-64.8	3.8	1.49e+00	0	38	104	1106247680	69	22481
2026-01-24 22:39:19.15	155.02	8.34	-49.6	-64.9	3.8	1.49e+00	0	39	104	1106247680	70	21413
2026-01-24 22:39:22.13	155.28	8.14	-49.8	-65.0	3.8	1.49e+00	0	38	104	1106247680	70	21602
2026-01-24 22:39:25.11	155.54	7.93	-49.8	-65.0	3.8	1.49e+00	0	39	104	1106247680	70	21661
2026-01-24 22:39:28.09	155.79	7.72	-49.5	-65.0	3.8	1.49e+00	0	38	104	1106247680	70	21690
2026-01-24 22:39:31.07	156.04	7.52	-49.8	-65.0	3.8	1.49e+00	0	38	104	1106247680	70	21714
2026-01-24 22:39:34.05	156.29	7.32	-49.6	-65.0	3.8	1.49e+00	0	38	104	1106247680	70	21602
2026-01-24 22:39:37.03	156.54	7.11	-49.6	-65.0	3.8	1.49e+00	0	38	104	1106247680	70	21587
2026-01-24 22:39:40.01	156.78	6.91	-49.5	-65.0	3.8	1.49e+00	0	38	104	1106247680	70	21543
2026-01-24 22:39:42.99	157.01	6.71	-49.5	-65.0	3.8	1.49e+00	0	38	104	1106247680	70	21539
2026-01-24 22:39:45.96	157.25	6.52	-49.5	-65.0	3.8	1.49e+00	0	38	104	1106247680	70	21518
2026-01-24 22:39:48.94	157.48	6.32	-49.5	-64.9	3.8	1.49e+00	0	38	104	1106247680	70	21426
2026-01-24 22:39:51.92	157.71	6.12	-49.5	-64.9	3.8	1.49e+00	0	38	104	1106247680	70	21458
2026-01-24 22:39:54.90	157.94	5.93	-49.5	-64.9	3.8	1.49e+00	0	39	104	1106247680	70	21429
2026-01-24 22:39:57.88	158.16	5.73	-49.5	-64.9	3.8	1.49e+00	0	38	104	1106247680	70	21357
2026-01-24 22:40:00.86	158.38	5.54	-49.5	-64.9	3.8	1.49e+00	0	39	104	1106247680	70	21408
2026-01-24 22:40:03.84	158.60	5.35	-49.5	-64.9	3.8	1.49e+00	0	39	104	1106247680	70	21435
2026-01-24 22:40:06.81	158.81	5.16	-49.5	-64.9	3.8	1.49e+00	0	39	104	1106247680	70	21439
2026-01-24 22:40:09.79	159.02	4.97	-49.5	-64.9	3.8	1.49e+00	0	39	104	1106247680	70	21324

#Closed at: 2026-01-24 22:40:10
#Recorded file [1106 MB]: D:/Data/31040_260125_012819.dat