passes_logs/2026/01/24/T1/T1__20260124_082238_KHAYYAM_rec.log

#Pass ID: 20260124_082238_KHAYYAM
#Satellite: KHAYYAM
#Configuration: KHAYYAM_480M
#almurnet v.1.7.20251203
#Start time: 2026-01-24 08:22:40

#Version: 2.0.20230620
#Station: T1
#Location: 37.570604 lon 55.790049 lat
#TLE: 1 53370U 22096A   26023.62012604  .00008987  00000+0  36588-3 0  9995
#TLE: 2 53370  97.3551 290.4757 0001913 108.0149 252.1298 15.24719440192559

#Time	Az	El	Level	Level2	SNR	BER	BlckErr	Temp	State	Recorded	gain1	gain2
2026-01-24 08:22:40.24	184.16	5.15	-49.8	-54.7	3.4	0.00e+00	0	43	0	0	70	26290
2026-01-24 08:22:43.23	184.33	5.39	-49.7	-54.6	3.7	0.00e+00	0	43	104	0	70	26107
2026-01-24 08:22:46.22	184.50	5.64	-49.7	-54.6	3.7	0.00e+00	0	43	104	0	70	26118
2026-01-24 08:22:49.22	184.68	5.88	-49.7	-54.6	3.7	0.00e+00	0	44	104	0	70	26192
2026-01-24 08:22:52.21	184.87	6.13	-49.7	-54.6	3.7	0.00e+00	0	44	104	0	70	26187
2026-01-24 08:22:55.20	185.05	6.38	-49.7	-54.6	3.7	0.00e+00	0	44	104	0	70	26025
2026-01-24 08:22:58.20	185.24	6.63	-49.7	-54.6	3.7	0.00e+00	0	44	104	0	70	26186
2026-01-24 08:23:01.19	185.44	6.89	-49.7	-54.6	3.7	0.00e+00	0	44	104	0	70	26209
2026-01-24 08:23:04.18	185.63	7.15	-49.6	-54.5	3.7	0.00e+00	0	45	104	0	70	25968
2026-01-24 08:23:07.18	185.84	7.42	-49.6	-54.6	3.7	0.00e+00	0	45	104	0	70	26034
2026-01-24 08:23:10.18	186.04	7.69	-49.6	-54.6	3.7	0.00e+00	0	45	104	0	70	26051
2026-01-24 08:23:13.17	186.25	7.96	-49.6	-54.5	3.7	0.00e+00	0	45	104	0	70	25939
2026-01-24 08:23:16.17	186.47	8.23	-49.7	-54.6	3.7	0.00e+00	0	45	104	0	70	26119
2026-01-24 08:23:19.17	186.69	8.51	-49.7	-54.6	3.7	0.00e+00	0	45	104	0	70	26024
2026-01-24 08:23:22.16	186.92	8.79	-49.7	-54.5	3.7	0.00e+00	0	46	104	0	70	25923
2026-01-24 08:23:25.16	187.15	9.08	-49.7	-54.6	3.7	0.00e+00	0	46	104	0	70	26000
2026-01-24 08:23:28.16	187.39	9.37	-49.6	-54.5	3.7	0.00e+00	0	46	104	0	70	25858
2026-01-24 08:23:31.15	187.63	9.67	-49.4	-54.4	3.7	0.00e+00	0	46	104	0	70	25603
2026-01-24 08:23:34.15	187.88	9.97	-49.5	-54.5	3.7	0.00e+00	0	46	104	0	70	25775
2026-01-24 08:23:37.15	188.14	10.27	-49.2	-54.1	3.7	0.00e+00	0	46	104	0	70	24728
2026-01-24 08:23:40.14	188.40	10.58	-49.2	-54.3	3.7	0.00e+00	0	46	104	0	70	25102
2026-01-24 08:23:43.15	188.67	10.90	-50.0	-54.8	3.7	0.00e+00	0	46	104	0	70	26608
2026-01-24 08:23:46.15	188.95	11.22	-49.6	-54.5	3.7	0.00e+00	0	47	104	0	70	25821
2026-01-24 08:23:49.15	189.23	11.54	-49.9	-54.6	3.7	0.00e+00	0	47	104	0	70	26273
2026-01-24 08:23:52.14	189.52	11.87	-50.1	-54.8	3.7	0.00e+00	0	47	104	0	70	26637
2026-01-24 08:23:55.13	189.82	12.21	-49.9	-54.6	3.7	0.00e+00	0	47	104	0	70	26241
2026-01-24 08:23:58.13	190.13	12.55	-49.2	-54.1	3.7	0.00e+00	0	47	104	0	70	24710
2026-01-24 08:24:01.13	190.44	12.90	-49.2	-54.1	3.7	0.00e+00	0	47	104	0	69	26140
2026-01-24 08:24:04.13	190.77	13.25	-48.9	-53.8	3.7	0.00e+00	0	47	104	0	69	25110
2026-01-24 08:24:07.13	191.10	13.61	-49.4	-54.2	3.7	0.00e+00	0	47	104	0	69	26413
2026-01-24 08:24:10.13	191.44	13.97	-49.2	-54.0	3.7	0.00e+00	0	47	104	0	69	25833
2026-01-24 08:24:13.13	191.80	14.35	-49.8	-54.7	3.7	0.00e+00	0	47	104	0	70	26364
2026-01-24 08:24:16.13	192.16	14.73	-49.9	-54.8	3.7	0.00e+00	0	47	104	0	70	26592
2026-01-24 08:24:19.13	192.54	15.11	-49.8	-54.6	3.7	0.00e+00	0	47	104	0	70	26224
2026-01-24 08:24:22.12	192.92	15.50	-44.0	-45.7	7.2	1.54e-01	0	48	0	117440512	60	16752
2026-01-24 08:24:25.11	193.32	15.90	-43.1	-44.5	8.8	2.99e-02	0	48	0	293601280	56	18315
2026-01-24 08:24:28.10	193.73	16.31	-39.2	-40.3	12.3	1.11e-03	0	48	0	478150656	50	15943
2026-01-24 08:24:31.09	194.15	16.72	-33.3	-34.3	16.8	0.00e+00	0	48	0	654311424	38	15844
2026-01-24 08:24:34.08	194.59	17.15	-29.1	-30.0	18.3	0.00e+00	0	48	0	830472192	30	15359
2026-01-24 08:24:37.08	195.04	17.58	-28.5	-29.4	18.4	0.00e+00	0	48	0	1015021568	29	15215
2026-01-24 08:24:40.07	195.50	18.02	-28.0	-28.8	19.0	0.00e+00	0	48	0	1191182336	27	15985
2026-01-24 08:24:43.06	195.99	18.47	-27.5	-28.4	19.2	0.00e+00	0	48	0	1375731712	26	16103
2026-01-24 08:24:46.05	196.48	18.92	-26.9	-27.7	19.8	0.00e+00	0	49	0	1551892480	25	15722
2026-01-24 08:24:49.04	197.00	19.39	-26.7	-27.5	19.9	0.00e+00	0	49	0	1728053248	25	15440
2026-01-24 08:24:52.04	197.54	19.87	-26.2	-27.1	20.2	0.00e+00	0	49	0	1912602624	24	15509
2026-01-24 08:24:55.04	198.09	20.35	-26.1	-26.9	20.3	0.00e+00	0	49	0	2088763392	24	15203
2026-01-24 08:24:58.02	198.66	20.85	-26.0	-26.9	20.3	0.00e+00	0	49	0	2264924160	23	16024
2026-01-24 08:25:01.02	199.26	21.35	-25.6	-26.5	20.6	0.00e+00	0	49	0	2449473536	23	15305
2026-01-24 08:25:04.00	199.87	21.86	-25.6	-26.5	20.6	0.00e+00	0	49	0	2625634304	23	15369
2026-01-24 08:25:07.00	200.51	22.39	-25.7	-26.6	20.5	0.00e+00	0	49	0	2810183680	23	15537
2026-01-24 08:25:09.99	201.18	22.92	-25.1	-26.0	20.8	0.00e+00	0	49	0	2986344448	22	15332
2026-01-24 08:25:12.99	201.87	23.47	-25.1	-25.9	20.7	0.00e+00	0	49	0	3162505216	22	15280
2026-01-24 08:25:15.98	202.59	24.03	-24.8	-25.7	20.8	0.00e+00	0	49	0	3347054592	21	15689
2026-01-24 08:25:18.97	203.33	24.59	-24.8	-25.6	21.0	0.00e+00	0	49	0	3523215360	21	15593
2026-01-24 08:25:21.96	204.11	25.17	-24.6	-25.5	21.0	0.00e+00	0	49	0	3707764736	21	15318
2026-01-24 08:25:24.95	204.92	25.76	-24.3	-25.1	21.2	0.00e+00	0	49	0	3883925504	20	15545
2026-01-24 08:25:27.95	205.76	26.36	-24.1	-24.9	21.2	0.00e+00	0	49	0	4068474880	19	16153
2026-01-24 08:25:30.94	206.64	26.97	-24.0	-24.9	21.4	0.00e+00	0	49	0	4244635648	19	16070
2026-01-24 08:25:33.94	207.56	27.59	-23.7	-24.6	21.3	0.00e+00	0	49	0	4420796416	19	15545
2026-01-24 08:25:36.93	208.51	28.21	-23.4	-24.3	21.4	0.00e+00	0	49	0	4605345792	18	15887
2026-01-24 08:25:39.93	209.51	28.85	-23.2	-24.0	21.5	0.00e+00	0	49	0	4781506560	18	15373
2026-01-24 08:25:42.91	210.55	29.49	-23.3	-24.2	21.4	0.00e+00	0	49	0	4966055936	18	15700
2026-01-24 08:25:45.90	211.64	30.15	-22.9	-23.8	21.6	0.00e+00	0	49	0	5142216704	17	15846
2026-01-24 08:25:48.90	212.77	30.81	-22.9	-23.7	21.5	0.00e+00	0	49	0	5326766080	17	15817
2026-01-24 08:25:51.89	213.96	31.48	-22.7	-23.5	21.6	0.00e+00	0	50	0	5502926848	17	15452
2026-01-24 08:25:54.89	215.20	32.15	-22.5	-23.3	21.6	0.00e+00	0	49	0	5679087616	16	16013
2026-01-24 08:25:57.88	216.50	32.82	-22.4	-23.2	21.7	0.00e+00	0	49	0	5863636992	16	15803
2026-01-24 08:26:00.86	217.84	33.50	-21.7	-22.6	22.1	0.00e+00	0	50	0	6039797760	15	15507
2026-01-24 08:26:03.86	219.26	34.18	-21.5	-22.4	22.1	0.00e+00	0	50	0	6215958528	15	15171
2026-01-24 08:26:06.85	220.74	34.85	-21.3	-22.1	22.2	0.00e+00	0	50	0	6400507904	14	15628
2026-01-24 08:26:09.84	222.28	35.52	-21.2	-22.0	22.2	0.00e+00	0	50	0	6576668672	14	15418
2026-01-24 08:26:12.83	223.89	36.19	-21.0	-21.8	22.2	0.00e+00	0	50	0	6761218048	14	15063
2026-01-24 08:26:15.83	225.58	36.85	-20.9	-21.7	22.2	0.00e+00	0	50	0	6937378816	13	15815
2026-01-24 08:26:18.81	227.32	37.49	-20.7	-21.5	22.0	0.00e+00	0	49	0	7113539584	13	15438
2026-01-24 08:26:21.80	229.15	38.11	-20.6	-21.5	22.1	0.00e+00	0	49	0	7298088960	13	15318
2026-01-24 08:26:24.80	231.05	38.72	-20.6	-21.4	22.3	0.00e+00	0	50	0	7474249728	12	16097
2026-01-24 08:26:27.79	233.03	39.31	-20.5	-21.4	22.3	0.00e+00	0	50	0	7650410496	12	16020
2026-01-24 08:26:30.78	235.07	39.87	-20.4	-21.2	22.5	0.00e+00	0	50	0	7834959872	12	15717
2026-01-24 08:26:33.77	237.19	40.40	-20.2	-21.1	22.3	0.00e+00	0	49	0	8011120640	12	15516
2026-01-24 08:26:36.76	239.38	40.89	-52.3	-56.8	3.7	0.00e+00	0	49	104	8120172544	75	25309
2026-01-24 08:26:39.75	241.64	41.34	-52.1	-56.6	3.7	0.00e+00	0	49	104	8120172544	75	24806
2026-01-24 08:26:42.74	243.96	41.75	-51.8	-56.6	3.6	0.00e+00	0	49	104	8120172544	75	24546
2026-01-24 08:26:45.74	246.34	42.12	-52.1	-56.6	3.7	0.00e+00	0	49	104	8120172544	75	24689
2026-01-24 08:26:48.73	248.77	42.44	-52.2	-56.8	3.7	0.00e+00	0	49	104	8120172544	75	25101
2026-01-24 08:26:51.73	251.25	42.70	-52.2	-56.7	3.7	0.00e+00	0	49	104	8120172544	75	25024
2026-01-24 08:26:54.72	253.77	42.90	-52.2	-56.8	3.7	0.00e+00	0	49	104	8120172544	75	25264
2026-01-24 08:26:57.72	256.32	43.05	-52.1	-56.6	3.7	0.00e+00	0	49	104	8120172544	75	24707
2026-01-24 08:27:00.71	258.88	43.13	-52.0	-56.6	3.7	0.00e+00	0	49	104	8120172544	75	24768
2026-01-24 08:27:03.70	261.44	43.16	-51.5	-56.3	3.7	0.00e+00	0	49	104	8120172544	74	25195
2026-01-24 08:27:06.69	264.01	43.12	-51.5	-56.3	3.7	0.00e+00	0	49	104	8120172544	74	25197
2026-01-24 08:27:09.69	266.57	43.03	-52.3	-56.8	3.7	0.00e+00	0	49	104	8120172544	75	25246
2026-01-24 08:27:12.68	269.11	42.87	-52.0	-56.6	3.7	0.00e+00	0	49	104	8120172544	75	24538
2026-01-24 08:27:15.67	271.61	42.66	-51.8	-56.5	3.7	0.00e+00	0	49	104	8120172544	75	24487
2026-01-24 08:27:18.66	274.08	42.39	-52.3	-56.8	3.7	0.00e+00	0	49	104	8120172544	75	25284
2026-01-24 08:27:21.65	276.50	42.06	-52.1	-56.7	3.7	0.00e+00	0	49	104	8120172544	75	25059
2026-01-24 08:27:24.65	278.87	41.69	-51.8	-56.4	3.7	0.00e+00	0	49	104	8120172544	75	24205
2026-01-24 08:27:27.64	281.17	41.27	-52.2	-56.6	3.7	0.00e+00	0	49	104	8120172544	75	24760
2026-01-24 08:27:30.64	283.42	40.81	-52.2	-56.5	3.7	0.00e+00	0	49	104	8120172544	75	24417
2026-01-24 08:27:33.63	285.59	40.31	-52.2	-56.7	3.7	0.00e+00	0	49	104	8120172544	75	25033
2026-01-24 08:27:36.62	287.69	39.78	-51.9	-56.5	3.7	0.00e+00	0	49	104	8120172544	75	24447
2026-01-24 08:27:39.61	289.72	39.22	-52.0	-56.5	3.7	0.00e+00	0	49	104	8120172544	75	24474
2026-01-24 08:27:42.61	291.68	38.63	-51.9	-56.6	3.7	0.00e+00	0	49	104	8120172544	75	24671
2026-01-24 08:27:45.61	293.57	38.02	-52.2	-56.7	3.7	0.00e+00	0	49	104	8120172544	75	24897
2026-01-24 08:27:48.60	295.37	37.40	-51.8	-56.3	3.7	0.00e+00	0	49	104	8120172544	75	23745
2026-01-24 08:27:51.60	297.11	36.75	-51.7	-56.2	3.6	0.00e+00	0	49	104	8120172544	75	23423
2026-01-24 08:27:54.60	298.78	36.10	-51.7	-55.9	3.7	0.00e+00	0	49	104	8120172544	74	24135
2026-01-24 08:27:57.59	300.37	35.43	-51.6	-55.9	3.7	0.00e+00	0	49	104	8120172544	74	24049
2026-01-24 08:28:00.58	301.90	34.77	-51.6	-55.9	3.7	0.00e+00	0	48	104	8120172544	74	24226
2026-01-24 08:28:03.58	303.36	34.09	-51.0	-55.6	3.7	0.00e+00	0	49	104	8120172544	74	23350
2026-01-24 08:28:06.57	304.76	33.42	-51.1	-55.6	3.7	0.00e+00	0	49	104	8120172544	73	24605
2026-01-24 08:28:09.57	306.10	32.74	-51.4	-55.9	3.7	0.00e+00	0	49	104	8120172544	73	25507
2026-01-24 08:28:12.56	307.38	32.07	-51.8	-56.3	3.7	0.00e+00	0	49	104	8120172544	74	25284
2026-01-24 08:28:15.55	308.61	31.41	-51.8	-56.3	3.7	0.00e+00	0	49	104	8120172544	74	25228
2026-01-24 08:28:18.55	309.78	30.74	-51.6	-56.3	3.7	0.00e+00	0	49	104	8120172544	74	25106
2026-01-24 08:28:21.54	310.91	30.09	-51.5	-56.2	3.7	0.00e+00	0	49	104	8120172544	74	25092
2026-01-24 08:28:24.53	311.98	29.44	-51.9	-56.4	3.7	0.00e+00	0	49	104	8120172544	74	25449
2026-01-24 08:28:27.53	313.01	28.80	-52.1	-56.5	3.7	0.00e+00	0	49	104	8120172544	74	25945
2026-01-24 08:28:30.52	314.00	28.17	-51.6	-56.2	3.7	0.00e+00	0	49	104	8120172544	74	25091
2026-01-24 08:28:33.52	314.95	27.55	-50.1	-55.4	3.7	0.00e+00	0	49	104	8120172544	72	25497
2026-01-24 08:28:36.51	315.85	26.93	-50.5	-55.4	3.7	0.00e+00	0	49	104	8120172544	72	25481
2026-01-24 08:28:39.51	316.72	26.33	-51.5	-55.7	3.7	0.00e+00	0	49	104	8120172544	73	25048
2026-01-24 08:28:42.50	317.56	25.74	-51.3	-55.8	3.7	0.00e+00	0	49	104	8120172544	73	25233
2026-01-24 08:28:45.49	318.36	25.16	-50.8	-55.5	3.7	0.00e+00	0	49	104	8120172544	73	24301
2026-01-24 08:28:48.48	319.13	24.58	-50.5	-55.5	3.7	0.00e+00	0	49	104	8120172544	72	25747
2026-01-24 08:28:51.48	319.87	24.02	-50.4	-55.5	3.7	0.00e+00	0	49	104	8120172544	72	25954
2026-01-24 08:28:54.48	320.58	23.47	-49.8	-55.2	3.7	0.00e+00	0	49	104	8120172544	71	26294
2026-01-24 08:28:57.48	321.27	22.93	-49.0	-54.5	3.7	0.00e+00	0	49	104	8120172544	69	27367
2026-01-24 08:29:00.47	321.93	22.40	-50.6	-55.4	3.7	0.00e+00	0	49	104	8120172544	72	25565
2026-01-24 08:29:03.46	322.56	21.88	-49.4	-54.5	3.7	0.00e+00	0	49	104	8120172544	70	25774
2026-01-24 08:29:06.45	323.17	21.37	-50.0	-55.0	3.7	0.00e+00	0	49	104	8120172544	70	27322
2026-01-24 08:29:09.44	323.76	20.87	-50.4	-55.4	3.7	0.00e+00	0	49	104	8120172544	71	27040
2026-01-24 08:29:12.43	324.33	20.38	-50.3	-55.2	3.7	0.00e+00	0	49	104	8120172544	71	26353
2026-01-24 08:29:15.43	324.88	19.90	-50.0	-55.0	3.7	0.00e+00	0	49	104	8120172544	71	25941
2026-01-24 08:29:18.41	325.41	19.43	-50.3	-55.6	3.7	0.00e+00	0	49	104	8120172544	71	27717
2026-01-24 08:29:21.40	325.92	18.97	-50.8	-55.9	3.7	0.00e+00	0	49	104	8120172544	73	25405
2026-01-24 08:29:24.39	326.42	18.51	-50.9	-55.8	3.7	0.00e+00	0	49	104	8120172544	73	25363
2026-01-24 08:29:27.38	326.89	18.07	-49.2	-54.6	3.7	0.00e+00	0	49	104	8120172544	70	26138
2026-01-24 08:29:30.38	327.36	17.63	-49.7	-55.0	3.7	0.00e+00	0	49	104	8120172544	70	27393
2026-01-24 08:29:33.38	327.81	17.20	-50.3	-55.5	3.7	0.00e+00	0	49	104	8120172544	71	27294
2026-01-24 08:29:36.37	328.24	16.79	-50.0	-55.2	3.7	0.00e+00	0	49	104	8120172544	71	26431
2026-01-24 08:29:39.36	328.66	16.37	-49.7	-55.0	3.7	0.00e+00	0	49	104	8120172544	71	25924
2026-01-24 08:29:42.35	329.07	15.97	-50.0	-55.3	3.7	0.00e+00	0	49	104	8120172544	70	28342
2026-01-24 08:29:45.34	329.47	15.58	-51.2	-56.0	3.7	0.00e+00	0	49	104	8120172544	73	25956
2026-01-24 08:29:48.34	329.85	15.19	-51.3	-55.9	3.7	0.00e+00	0	49	104	8120172544	73	25597
2026-01-24 08:29:51.34	330.23	14.80	-50.9	-55.7	3.7	0.00e+00	0	49	104	8120172544	73	25050
2026-01-24 08:29:54.34	330.59	14.43	-50.6	-55.4	3.7	0.00e+00	0	49	104	8120172544	73	24160
2026-01-24 08:29:57.34	330.94	14.06	-50.8	-55.8	3.7	0.00e+00	0	49	104	8120172544	73	25248
2026-01-24 08:30:00.33	331.28	13.70	-50.6	-55.6	3.6	0.00e+00	0	49	104	8120172544	73	24683
2026-01-24 08:30:03.32	331.61	13.34	-50.5	-55.6	3.7	0.00e+00	0	49	104	8120172544	72	26002
2026-01-24 08:30:06.32	331.94	12.99	-51.5	-56.1	3.7	0.00e+00	0	49	104	8120172544	73	26019
2026-01-24 08:30:09.31	332.25	12.65	-51.3	-55.9	3.7	0.00e+00	0	49	104	8120172544	73	25663
2026-01-24 08:30:12.31	332.56	12.31	-51.2	-55.9	3.7	0.00e+00	0	49	104	8120172544	73	25395
2026-01-24 08:30:15.31	332.86	11.97	-50.9	-55.7	3.7	0.00e+00	0	49	104	8120172544	73	24982
2026-01-24 08:30:18.31	333.15	11.65	-50.6	-55.7	3.7	0.00e+00	0	49	104	8120172544	73	25056
2026-01-24 08:30:21.31	333.43	11.32	-50.7	-55.7	3.7	0.00e+00	0	49	104	8120172544	72	26557
2026-01-24 08:30:24.31	333.71	11.01	-50.8	-55.8	3.7	0.00e+00	0	49	104	8120172544	72	26680
2026-01-24 08:30:27.30	333.98	10.70	-50.8	-55.7	3.7	0.00e+00	0	49	104	8120172544	72	26578
2026-01-24 08:30:30.30	334.24	10.39	-49.9	-55.1	3.7	0.00e+00	0	49	104	8120172544	71	26158
2026-01-24 08:30:33.29	334.50	10.09	-50.1	-55.3	3.7	0.00e+00	0	49	104	8120172544	71	26720
2026-01-24 08:30:36.30	334.75	9.79	-49.8	-55.1	3.7	0.00e+00	0	49	104	8120172544	71	26052
2026-01-24 08:30:39.29	334.99	9.49	-50.1	-55.4	3.7	0.00e+00	0	49	104	8120172544	71	26948
2026-01-24 08:30:42.29	335.23	9.20	-49.1	-54.6	3.7	0.00e+00	0	49	104	8120172544	70	26070
2026-01-24 08:30:45.28	335.46	8.92	-50.3	-55.5	3.7	0.00e+00	0	49	104	8120172544	71	27212
2026-01-24 08:30:48.27	335.69	8.64	-49.9	-55.3	3.7	0.00e+00	0	49	104	8120172544	70	28368
2026-01-24 08:30:51.26	335.91	8.36	-50.6	-55.5	3.7	0.00e+00	0	49	104	8120172544	72	25939
2026-01-24 08:30:54.25	336.13	8.09	-51.7	-56.4	3.7	0.00e+00	0	49	104	8120172544	74	25546
2026-01-24 08:30:57.24	336.34	7.82	-51.4	-56.3	3.7	0.00e+00	0	49	104	8120172544	74	25336
2026-01-24 08:31:00.24	336.55	7.55	-51.7	-56.7	3.7	0.00e+00	0	49	104	8120172544	75	24997
2026-01-24 08:31:03.23	336.75	7.29	-52.7	-57.1	3.7	0.00e+00	0	49	104	8120172544	76	24747
2026-01-24 08:31:06.23	336.95	7.03	-52.3	-56.8	3.7	0.00e+00	0	49	104	8120172544	75	25120
2026-01-24 08:31:09.23	337.15	6.77	-51.8	-56.3	3.7	0.00e+00	0	49	104	8120172544	74	25309
2026-01-24 08:31:12.23	337.34	6.52	-51.8	-56.3	3.7	0.00e+00	0	49	104	8120172544	74	25160
2026-01-24 08:31:15.22	337.53	6.27	-51.8	-56.3	3.7	0.00e+00	0	49	104	8120172544	74	25126
2026-01-24 08:31:18.20	337.71	6.03	-51.8	-56.3	3.7	0.00e+00	0	49	104	8120172544	74	25188
2026-01-24 08:31:21.20	337.89	5.78	-51.8	-56.3	3.7	0.00e+00	0	49	104	8120172544	74	25207
2026-01-24 08:31:24.19	338.07	5.54	-51.7	-56.3	3.7	0.00e+00	0	49	104	8120172544	74	25145
2026-01-24 08:31:27.19	338.24	5.30	-51.7	-56.2	3.7	0.00e+00	0	49	104	8120172544	74	25088
2026-01-24 08:31:30.18	338.41	5.07	-51.7	-56.3	3.7	0.00e+00	0	49	104	8120172544	74	25156

#Closed at: 2026-01-24 08:31:32
#Recorded file [8120 MB]: D:/Data/31040_260124_112240.dat