passes_logs/2026/01/24/T1/T1__20260124_010412_FENGYUN_3D_rec.log

#Pass ID: 20260124_010412_FENGYUN 3D
#Satellite: FENGYUN 3D
#Configuration: FENGYUN 3D
#almurnet v.1.7.20251203
#Start time: 2026-01-24 01:04:14

#Version: 2.0.20230620
#Station: T1
#Location: 37.570604 lon 55.790049 lat
#TLE: 1 43010U 17072A   26022.96745493  .00000490  00000+0  25355-3 0  9999
#TLE: 2 43010  98.9955 354.9072 0002484  95.6139 264.5320 14.19700039424383

#Time	Az	El	Level	Level2	SNR	BER	BlckErr	Temp	State	Recorded	gain1	gain2
2026-01-24 01:04:14.21	22.15	5.10	-47.3	-60.0	3.8	8.47e-01	0	35	0	0	66	15327
2026-01-24 01:04:17.19	22.28	5.30	-47.3	-59.9	3.8	8.47e-01	0	35	104	0	66	15118
2026-01-24 01:04:20.17	22.41	5.51	-47.3	-59.9	3.8	8.47e-01	0	35	104	0	66	15086
2026-01-24 01:04:23.15	22.55	5.71	-47.3	-59.9	3.8	8.47e-01	0	36	104	0	66	15223
2026-01-24 01:04:26.12	22.68	5.92	-47.3	-60.0	3.8	8.47e-01	0	36	104	0	66	15307
2026-01-24 01:04:29.10	22.82	6.13	-47.3	-59.9	3.8	8.47e-01	0	36	104	0	66	15225
2026-01-24 01:04:32.08	22.96	6.35	-47.3	-59.9	3.8	8.47e-01	0	36	104	0	66	15141
2026-01-24 01:04:35.06	23.10	6.56	-47.3	-59.9	3.8	8.46e-01	0	36	104	0	66	15093
2026-01-24 01:04:38.04	23.25	6.78	-47.3	-59.9	3.8	8.47e-01	0	36	104	0	66	15061
2026-01-24 01:04:41.02	23.39	6.99	-47.2	-59.4	3.8	8.47e-01	0	36	104	0	66	14338
2026-01-24 01:04:44.00	23.54	7.21	-47.1	-58.2	3.8	8.47e-01	0	36	104	0	66	12503
2026-01-24 01:04:46.98	23.69	7.43	-47.0	-57.2	3.9	8.43e-01	0	36	104	0	66	11088
2026-01-24 01:04:49.96	23.84	7.65	-46.9	-56.5	4.2	8.39e-01	0	36	0	0	65	10878
2026-01-24 01:04:52.94	23.99	7.88	-46.9	-56.5	4.2	8.39e-01	0	37	0	0	65	10800
2026-01-24 01:04:55.92	24.15	8.11	-46.8	-56.4	4.2	8.37e-01	0	37	0	0	65	10739
2026-01-24 01:04:58.90	24.31	8.33	-46.7	-55.3	4.6	8.22e-01	0	37	0	0	65	9411
2026-01-24 01:05:01.88	24.47	8.56	-45.9	-52.1	6.7	3.14e-01	0	37	0	5242880	63	7338
2026-01-24 01:05:04.85	24.63	8.79	-44.0	-48.0	10.9	4.43e-03	0	37	0	22020096	60	5429
2026-01-24 01:05:07.84	24.80	9.03	-41.8	-44.5	14.2	6.80e-06	0	37	0	38797312	55	4862
2026-01-24 01:05:10.85	24.97	9.27	-41.0	-43.5	15.3	1.15e-04	0	37	0	55574528	53	4867
2026-01-24 01:05:13.98	25.14	9.52	-37.4	-39.3	19.4	0.00e+00	0	37	0	73400320	46	4481
2026-01-24 01:05:16.82	25.31	9.75	-37.1	-39.0	19.7	0.00e+00	0	37	0	89128960	46	4298
2026-01-24 01:05:19.96	25.49	10.00	-36.9	-38.8	19.9	0.00e+00	0	37	0	106954752	45	4467
2026-01-24 01:05:22.82	25.67	10.24	-36.8	-38.7	20.0	0.00e+00	0	37	0	123731968	45	4404
2026-01-24 01:05:26.10	25.86	10.51	-36.8	-38.6	20.0	0.00e+00	0	37	0	141557760	45	4390
2026-01-24 01:05:28.81	26.03	10.74	-36.8	-38.7	20.0	0.00e+00	0	37	0	157286400	45	4408
2026-01-24 01:05:32.08	26.24	11.01	-37.0	-38.9	19.8	0.00e+00	0	37	0	175112192	45	4543
2026-01-24 01:05:34.83	26.41	11.25	-37.1	-39.0	19.7	0.00e+00	0	37	0	190840832	45	4582
2026-01-24 01:05:38.15	26.63	11.53	-37.0	-38.9	19.9	0.00e+00	0	37	0	209715200	45	4508
2026-01-24 01:05:41.22	26.83	11.80	-36.9	-38.7	20.0	0.00e+00	0	37	0	226492416	45	4439
2026-01-24 01:05:44.84	27.07	12.12	-36.8	-38.6	20.1	0.00e+00	0	37	0	247463936	45	4384
2026-01-24 01:05:47.76	27.27	12.38	-36.7	-38.6	20.2	0.00e+00	0	37	0	263192576	45	4363
2026-01-24 01:05:51.24	27.52	12.69	-36.6	-38.5	20.3	0.00e+00	0	37	0	283115520	45	4302
2026-01-24 01:05:54.29	27.73	12.96	-36.6	-38.5	20.3	0.00e+00	0	37	0	299892736	45	4313
2026-01-24 01:05:57.36	27.95	13.25	-36.6	-38.5	20.4	0.00e+00	0	37	0	317718528	44	4551
2026-01-24 01:06:00.20	28.16	13.51	-36.4	-38.3	20.5	0.00e+00	0	37	0	333447168	44	4459
2026-01-24 01:06:03.32	28.40	13.80	-36.2	-38.0	20.8	0.00e+00	0	37	0	351272960	44	4309
2026-01-24 01:06:06.27	28.62	14.08	-36.1	-37.9	20.9	0.00e+00	0	37	0	368050176	44	4262
2026-01-24 01:06:09.52	28.87	14.39	-36.1	-37.9	20.9	0.00e+00	0	37	0	385875968	44	4282
2026-01-24 01:06:12.32	29.10	14.66	-36.1	-37.9	20.9	0.00e+00	0	37	0	401604608	44	4281
2026-01-24 01:06:15.45	29.35	14.96	-36.0	-37.8	21.0	0.00e+00	0	37	0	419430400	44	4231
2026-01-24 01:06:18.29	29.58	15.24	-35.9	-37.6	21.0	0.00e+00	0	37	0	435159040	43	4391
2026-01-24 01:06:21.42	29.84	15.56	-35.7	-37.5	21.2	0.00e+00	0	37	0	452984832	43	4294
2026-01-24 01:06:24.27	30.09	15.84	-35.6	-37.3	21.3	0.00e+00	0	37	0	468713472	43	4231
2026-01-24 01:06:27.62	30.38	16.18	-35.5	-37.2	21.4	0.00e+00	0	38	0	487587840	43	4189
2026-01-24 01:06:30.34	30.62	16.46	-35.3	-37.1	21.6	0.00e+00	0	37	0	503316480	42	4343
2026-01-24 01:06:33.62	30.92	16.81	-35.2	-36.9	21.7	0.00e+00	0	38	0	521142272	42	4285
2026-01-24 01:06:36.49	31.18	17.11	-34.9	-36.6	21.9	0.00e+00	0	38	0	537919488	41	4386
2026-01-24 01:06:39.62	31.48	17.44	-35.0	-36.7	21.9	0.00e+00	0	38	0	555745280	41	4402
2026-01-24 01:06:42.74	31.78	17.78	-35.0	-36.7	21.9	0.00e+00	0	38	0	572522496	41	4410
2026-01-24 01:06:46.14	32.11	18.15	-34.9	-36.6	22.0	0.00e+00	0	38	0	591396864	41	4356
2026-01-24 01:06:49.28	32.43	18.50	-34.8	-36.5	22.2	0.00e+00	0	38	0	609222656	41	4303
2026-01-24 01:06:52.13	32.72	18.81	-34.8	-36.5	22.1	0.00e+00	0	37	0	625999872	41	4326
2026-01-24 01:06:55.30	33.05	19.17	-34.7	-36.4	22.2	0.00e+00	0	38	0	642777088	41	4261
2026-01-24 01:06:58.15	33.36	19.50	-34.7	-36.4	22.2	0.00e+00	0	38	0	659554304	41	4253
2026-01-24 01:07:01.28	33.70	19.86	-34.5	-36.2	22.4	0.00e+00	0	38	0	677380096	41	4184
2026-01-24 01:07:04.12	34.02	20.19	-34.6	-36.3	22.4	0.00e+00	0	37	0	693108736	41	4210
2026-01-24 01:07:07.25	34.38	20.56	-34.5	-36.1	22.5	0.00e+00	0	38	0	710934528	41	4145
2026-01-24 01:07:10.09	34.71	20.90	-34.5	-36.2	22.5	0.00e+00	0	38	0	726663168	40	4418
2026-01-24 01:07:13.29	35.09	21.29	-34.6	-36.3	22.3	0.00e+00	0	38	0	744488960	40	4484
2026-01-24 01:07:16.19	35.45	21.64	-34.6	-36.3	22.3	0.00e+00	0	37	0	761266176	40	4460
2026-01-24 01:07:19.35	35.84	22.03	-34.4	-36.1	22.6	0.00e+00	0	37	0	778043392	40	4353
2026-01-24 01:07:22.30	36.22	22.40	-34.3	-36.0	22.7	0.00e+00	0	38	0	794820608	40	4296
2026-01-24 01:07:25.47	36.64	22.80	-34.4	-36.0	22.6	0.00e+00	0	37	0	812646400	40	4331
2026-01-24 01:07:28.31	37.02	23.17	-34.2	-35.8	22.8	0.00e+00	0	38	0	829423616	40	4232
2026-01-24 01:07:31.44	37.46	23.57	-34.0	-35.6	23.1	0.00e+00	0	38	0	846200832	39	4382
2026-01-24 01:07:34.28	37.86	23.95	-33.8	-35.5	23.2	0.00e+00	0	38	0	862978048	39	4309
2026-01-24 01:07:37.50	38.32	24.37	-33.7	-35.4	23.3	0.00e+00	0	38	0	880803840	39	4255
2026-01-24 01:07:40.42	38.76	24.77	-33.7	-35.3	23.3	0.00e+00	0	38	0	897581056	39	4236
2026-01-24 01:07:43.55	39.23	25.19	-33.7	-35.3	23.4	0.00e+00	0	38	0	914358272	39	4219
2026-01-24 01:07:46.39	39.68	25.58	-33.7	-35.3	23.3	0.00e+00	0	38	0	931135488	39	4241
2026-01-24 01:07:49.51	40.18	26.01	-33.5	-35.2	23.5	0.00e+00	0	38	0	947912704	39	4155
2026-01-24 01:07:52.36	40.65	26.41	-33.4	-35.0	23.7	0.00e+00	0	38	0	964689920	38	4302
2026-01-24 01:07:55.51	41.18	26.86	-33.2	-34.9	23.8	0.00e+00	0	38	0	982515712	38	4246
2026-01-24 01:07:58.36	41.67	27.26	-33.3	-34.9	23.7	0.00e+00	0	38	0	998244352	38	4287
2026-01-24 01:08:01.67	42.26	27.74	-33.5	-35.1	23.6	0.00e+00	0	38	0	1017118720	38	4377
2026-01-24 01:08:04.41	42.76	28.14	-33.4	-35.0	23.6	0.00e+00	0	38	0	1031798784	38	4312
2026-01-24 01:08:07.68	43.38	28.62	-33.4	-35.0	23.6	0.00e+00	0	38	0	1050673152	38	4339
2026-01-24 01:08:10.60	43.94	29.06	-33.2	-34.8	23.8	0.00e+00	0	38	0	1066401792	38	4220
2026-01-24 01:08:13.81	44.58	29.54	-33.4	-35.0	23.6	0.00e+00	0	38	0	1085276160	38	4320
2026-01-24 01:08:16.82	45.19	30.00	-33.7	-35.3	23.4	0.00e+00	0	38	0	1102053376	38	4467
2026-01-24 01:08:19.94	45.85	30.47	-33.4	-35.0	23.7	0.00e+00	0	38	0	1119879168	38	4298
2026-01-24 01:08:22.78	46.46	30.91	-33.1	-34.8	23.2	0.00e+00	0	38	0	1135607808	38	4240
2026-01-24 01:08:25.90	47.15	31.39	-32.9	-34.6	23.3	0.00e+00	0	38	0	1152385024	37	4368
2026-01-24 01:08:28.84	47.83	31.85	-33.2	-34.9	23.1	0.00e+00	0	38	0	1169162240	37	4502
2026-01-24 01:08:32.12	48.60	32.37	-33.3	-35.0	23.0	0.00e+00	0	38	0	1188036608	37	4598
2026-01-24 01:08:34.97	49.29	32.82	-32.8	-34.6	23.4	0.00e+00	0	38	0	1203765248	37	4343
2026-01-24 01:08:38.10	50.07	33.32	-32.9	-34.6	23.3	0.00e+00	0	38	0	1221591040	37	4383
2026-01-24 01:08:40.94	50.80	33.77	-33.1	-34.8	23.1	0.00e+00	0	38	0	1237319680	37	4489
2026-01-24 01:08:44.06	51.63	34.27	-33.0	-34.7	23.2	0.00e+00	0	38	0	1255145472	37	4427
2026-01-24 01:08:46.91	52.40	34.73	-33.0	-34.7	23.3	0.00e+00	0	38	0	1270874112	37	4422
2026-01-24 01:08:50.03	53.28	35.23	-33.0	-34.7	23.3	0.00e+00	0	38	0	1288699904	37	4413
2026-01-24 01:08:52.87	54.09	35.69	-32.8	-34.5	23.4	0.00e+00	0	38	0	1304428544	37	4323
2026-01-24 01:08:56.00	55.02	36.19	-32.7	-34.4	23.5	0.00e+00	0	38	0	1322254336	37	4280
2026-01-24 01:08:58.85	55.90	36.65	-33.0	-34.7	23.2	0.00e+00	0	38	0	1337982976	37	4414
2026-01-24 01:09:02.01	56.89	37.16	-32.5	-34.2	23.7	0.00e+00	0	38	0	1355808768	37	4163
2026-01-24 01:09:04.85	57.81	37.61	-32.5	-34.2	23.8	0.00e+00	0	38	0	1371537408	36	4415
2026-01-24 01:09:07.97	58.85	38.11	-33.0	-34.7	23.3	0.00e+00	0	38	0	1389363200	36	4680
2026-01-24 01:09:10.82	59.83	38.56	-33.0	-34.7	23.4	0.00e+00	0	38	0	1406140416	36	4658
2026-01-24 01:09:13.94	60.93	39.05	-32.8	-34.5	23.5	0.00e+00	0	38	0	1422917632	36	4558
2026-01-24 01:09:16.78	61.96	39.49	-33.0	-34.7	23.3	0.00e+00	0	38	0	1439694848	36	4675
2026-01-24 01:09:20.07	63.20	40.00	-32.9	-34.6	23.4	0.00e+00	0	38	0	1457520640	36	4610
2026-01-24 01:09:22.78	64.24	40.41	-32.9	-34.6	23.4	0.00e+00	0	38	0	1473249280	36	4615
2026-01-24 01:09:26.06	65.54	40.90	-32.8	-34.5	23.5	0.00e+00	0	38	0	1491075072	36	4586
2026-01-24 01:09:28.76	66.63	41.29	-33.0	-34.6	23.4	0.00e+00	0	38	0	1506803712	36	4651
2026-01-24 01:09:32.04	68.00	41.76	-32.9	-34.6	23.4	0.00e+00	0	38	0	1524629504	36	4600
2026-01-24 01:09:34.76	69.17	42.14	-33.0	-34.7	23.2	0.00e+00	0	38	0	1540358144	36	4705
2026-01-24 01:09:38.04	70.61	42.59	-33.0	-34.7	23.2	0.00e+00	0	38	0	1559232512	36	4678
2026-01-24 01:09:40.77	71.84	42.95	-33.0	-34.7	23.3	0.00e+00	0	38	0	1573912576	36	4660
2026-01-24 01:09:44.07	73.36	43.37	-33.4	-35.1	22.9	0.00e+00	0	38	0	1592786944	37	4645
2026-01-24 01:09:46.77	74.63	43.70	-33.3	-35.0	23.1	0.00e+00	0	38	0	1607467008	37	4561
2026-01-24 01:09:50.04	76.21	44.08	-32.8	-34.4	23.5	0.00e+00	0	38	0	1626341376	37	4287
2026-01-24 01:09:52.77	77.56	44.38	-33.2	-34.9	23.1	0.00e+00	0	38	0	1642070016	37	4533
2026-01-24 01:09:56.06	79.21	44.73	-33.2	-34.9	23.1	0.00e+00	0	38	0	1659895808	37	4545
2026-01-24 01:09:58.77	80.60	44.99	-33.1	-34.9	23.2	0.00e+00	0	38	0	1675624448	37	4494
2026-01-24 01:10:02.06	82.32	45.30	-33.2	-35.0	23.2	0.00e+00	0	38	0	1693450240	37	4552
2026-01-24 01:10:04.87	83.81	45.53	-33.1	-34.8	23.4	0.00e+00	0	38	0	1710227456	37	4464
2026-01-24 01:10:08.37	85.70	45.80	-33.1	-34.8	23.4	0.00e+00	0	38	0	1729101824	37	4458
2026-01-24 01:10:11.22	87.26	45.99	-33.4	-35.1	23.0	0.00e+00	0	38	0	1745879040	37	4632
2026-01-24 01:10:14.34	88.99	46.17	-33.1	-34.9	23.2	0.00e+00	0	38	0	1762656256	37	4497
2026-01-24 01:10:17.18	90.58	46.32	-33.3	-35.0	23.1	0.00e+00	0	38	0	1779433472	37	4596
2026-01-24 01:10:20.45	92.43	46.46	-33.0	-34.7	23.5	0.00e+00	0	38	0	1797259264	37	4397
2026-01-24 01:10:23.17	93.98	46.55	-33.3	-35.1	23.1	0.00e+00	0	38	0	1812987904	37	4606
2026-01-24 01:10:26.46	95.86	46.63	-33.4	-35.2	23.0	0.00e+00	0	38	0	1830813696	37	4652
2026-01-24 01:10:29.16	97.41	46.67	-33.1	-34.7	23.4	0.00e+00	0	38	0	1846542336	37	4433
2026-01-24 01:10:32.44	99.30	46.68	-33.3	-35.0	23.1	0.00e+00	0	38	0	1864368128	37	4591
2026-01-24 01:10:35.14	100.85	46.67	-33.3	-35.0	23.2	0.00e+00	0	38	0	1880096768	37	4565
2026-01-24 01:10:38.62	102.85	46.63	-33.3	-34.9	23.2	0.00e+00	0	38	0	1900019712	37	4545
2026-01-24 01:10:41.39	104.44	46.56	-33.3	-35.0	23.1	0.00e+00	0	38	0	1914699776	37	4595
2026-01-24 01:10:44.72	106.33	46.46	-33.3	-35.0	23.1	0.00e+00	0	38	0	1933574144	37	4584
2026-01-24 01:10:47.42	107.86	46.35	-33.1	-34.8	23.3	0.00e+00	0	38	0	1949302784	37	4483
2026-01-24 01:10:50.70	109.70	46.18	-33.1	-34.8	23.3	0.00e+00	0	38	0	1967128576	37	4469
2026-01-24 01:10:53.47	111.24	46.02	-33.4	-35.1	23.0	0.00e+00	0	38	0	1982857216	37	4646
2026-01-24 01:10:56.75	113.04	45.80	-33.5	-35.2	23.0	0.00e+00	0	38	0	2001731584	37	4670
2026-01-24 01:10:59.46	114.51	45.60	-33.1	-34.8	23.3	0.00e+00	0	38	0	2016411648	37	4477
2026-01-24 01:11:02.68	116.23	45.33	-33.5	-35.3	22.9	0.00e+00	0	38	0	2035286016	37	4713
2026-01-24 01:11:05.66	117.79	45.06	-33.5	-35.2	22.9	0.00e+00	0	38	0	2052063232	37	4702
2026-01-24 01:11:08.64	119.33	44.77	-33.5	-35.2	23.0	0.00e+00	0	38	0	2068840448	37	4668
2026-01-24 01:11:11.63	120.84	44.46	-33.3	-35.0	23.2	0.00e+00	0	38	0	2085617664	37	4558
2026-01-24 01:11:14.99	122.51	44.09	-33.5	-35.2	22.9	0.00e+00	0	38	0	2104492032	37	4690
2026-01-24 01:11:17.71	123.83	43.78	-33.7	-35.4	22.7	0.00e+00	0	38	0	2119172096	38	4525
2026-01-24 01:11:20.99	125.38	43.38	-33.5	-35.2	22.9	0.00e+00	0	38	0	2138046464	38	4422
2026-01-24 01:11:23.72	126.65	43.03	-33.1	-34.9	23.2	0.00e+00	0	38	0	2153775104	38	4245
2026-01-24 01:11:26.99	128.13	42.60	-33.3	-35.0	23.1	0.00e+00	0	38	0	2171600896	38	4318
2026-01-24 01:11:29.78	129.36	42.22	-33.3	-35.0	23.1	0.00e+00	0	38	0	2187329536	38	4300
2026-01-24 01:11:33.15	130.82	41.75	-33.1	-34.8	23.3	0.00e+00	0	38	0	2206203904	38	4198
2026-01-24 01:11:36.20	132.09	41.31	-33.0	-34.7	23.3	0.00e+00	0	38	0	2222981120	38	4173
2026-01-24 01:11:39.06	133.26	40.89	-32.9	-34.6	23.3	0.00e+00	0	38	0	2239758336	37	4382
2026-01-24 01:11:42.18	134.50	40.42	-33.2	-34.9	23.0	0.00e+00	0	38	0	2257584128	37	4524
2026-01-24 01:11:45.09	135.62	39.98	-33.2	-34.9	23.1	0.00e+00	0	38	0	2273312768	37	4503
2026-01-24 01:11:48.07	136.74	39.52	-32.9	-34.6	23.4	0.00e+00	0	38	0	2290089984	37	4356
2026-01-24 01:11:51.06	137.83	39.06	-33.0	-34.8	23.3	0.00e+00	0	38	0	2306867200	37	4446
2026-01-24 01:11:54.04	138.89	38.59	-32.9	-34.6	23.4	0.00e+00	0	37	0	2323644416	37	4380
2026-01-24 01:11:57.03	139.92	38.11	-32.9	-34.6	23.4	0.00e+00	0	38	0	2340421632	37	4365
2026-01-24 01:12:00.01	140.92	37.63	-33.0	-34.7	23.3	0.00e+00	0	38	0	2357198848	37	4399
2026-01-24 01:12:02.99	141.89	37.15	-32.8	-34.5	23.4	0.00e+00	0	38	0	2373976064	37	4328
2026-01-24 01:12:05.98	142.84	36.67	-33.0	-34.7	23.2	0.00e+00	0	38	0	2390753280	37	4435
2026-01-24 01:12:08.97	143.76	36.19	-33.0	-34.8	23.3	0.00e+00	0	38	0	2407530496	37	4447
2026-01-24 01:12:11.96	144.65	35.70	-32.9	-34.6	23.4	0.00e+00	0	38	0	2424307712	37	4374
2026-01-24 01:12:14.94	145.51	35.22	-32.9	-34.6	23.3	0.00e+00	0	37	0	2441084928	37	4391
2026-01-24 01:12:17.92	146.35	34.73	-33.1	-34.8	23.1	0.00e+00	0	38	0	2457862144	37	4461
2026-01-24 01:12:20.91	147.17	34.25	-33.0	-34.7	23.2	0.00e+00	0	38	0	2474639360	37	4419
2026-01-24 01:12:23.94	147.97	33.76	-32.9	-34.6	23.2	0.00e+00	0	38	0	2491416576	37	4378
2026-01-24 01:12:26.86	148.73	33.29	-33.0	-34.7	23.2	0.00e+00	0	38	0	2508193792	37	4434
2026-01-24 01:12:30.02	149.52	32.79	-33.1	-34.8	23.1	0.00e+00	0	38	0	2526019584	37	4472
2026-01-24 01:12:32.86	150.21	32.34	-33.3	-35.0	22.9	0.00e+00	0	38	0	2541748224	37	4578
2026-01-24 01:12:35.98	150.95	31.84	-33.2	-34.9	23.0	0.00e+00	0	38	0	2559574016	37	4529
2026-01-24 01:12:38.82	151.60	31.40	-33.3	-35.0	22.9	0.00e+00	0	38	0	2575302656	37	4595
2026-01-24 01:12:41.98	152.31	30.90	-33.3	-35.0	22.9	0.00e+00	0	38	0	2593128448	37	4597
2026-01-24 01:12:44.83	152.93	30.46	-33.2	-34.9	23.0	0.00e+00	0	38	0	2609905664	37	4534
2026-01-24 01:12:48.11	153.62	29.96	-33.1	-34.9	23.0	0.00e+00	0	38	0	2627731456	37	4495
2026-01-24 01:12:50.88	154.19	29.53	-33.4	-35.1	22.8	0.00e+00	0	37	0	2643460096	37	4635
2026-01-24 01:12:54.15	154.84	29.04	-33.5	-35.3	22.6	0.00e+00	0	38	0	2661285888	37	4759
2026-01-24 01:12:56.99	155.39	28.61	-33.6	-35.3	22.6	0.00e+00	0	38	0	2678063104	37	4750
2026-01-24 01:13:00.10	155.98	28.15	-33.2	-34.9	23.0	0.00e+00	0	38	0	2694840320	37	4541
2026-01-24 01:13:03.23	156.55	27.69	-33.1	-34.9	23.1	0.00e+00	0	38	0	2712666112	37	4507
2026-01-24 01:13:06.07	157.06	27.28	-33.2	-34.9	23.0	0.00e+00	0	38	0	2729443328	37	4537
2026-01-24 01:13:09.19	157.60	26.83	-33.3	-35.0	22.9	0.00e+00	0	38	0	2746220544	37	4591
2026-01-24 01:13:12.04	158.09	26.42	-33.5	-35.3	22.8	0.00e+00	0	38	0	2762997760	37	4715
2026-01-24 01:13:15.16	158.60	25.98	-33.6	-35.3	22.7	0.00e+00	0	38	0	2779774976	37	4747
2026-01-24 01:13:18.24	159.10	25.55	-33.6	-35.3	22.7	0.00e+00	0	38	0	2797600768	37	4744
2026-01-24 01:13:21.29	159.58	25.13	-33.5	-35.2	22.8	0.00e+00	0	38	0	2814377984	37	4688
2026-01-24 01:13:24.58	160.08	24.68	-33.5	-35.3	22.8	0.00e+00	0	38	0	2833252352	37	4706
2026-01-24 01:13:27.32	160.49	24.31	-33.6	-35.3	22.7	0.00e+00	0	38	0	2848980992	37	4745
2026-01-24 01:13:30.53	160.95	23.88	-33.7	-35.4	22.6	0.00e+00	0	38	0	2866806784	38	4543
2026-01-24 01:13:33.50	161.37	23.49	-33.8	-35.6	22.5	0.00e+00	0	38	0	2883584000	38	4606
2026-01-24 01:13:36.49	161.79	23.10	-34.0	-35.7	22.3	0.00e+00	0	38	0	2900361216	38	4683
2026-01-24 01:13:39.47	162.19	22.71	-34.2	-36.0	22.1	0.00e+00	0	38	0	2917138432	39	4555
2026-01-24 01:13:42.46	162.58	22.33	-34.3	-36.1	22.0	0.00e+00	0	38	0	2933915648	39	4614
2026-01-24 01:13:45.55	162.98	21.94	-34.4	-36.2	21.9	0.00e+00	0	38	0	2950692864	39	4666
2026-01-24 01:13:48.40	163.34	21.59	-34.4	-36.1	22.0	0.00e+00	0	38	0	2967470080	39	4641
2026-01-24 01:13:51.52	163.72	21.20	-34.4	-36.1	21.9	0.00e+00	0	38	0	2984247296	39	4649
2026-01-24 01:13:54.36	164.06	20.86	-34.3	-36.1	22.0	0.00e+00	0	38	0	3001024512	39	4628
2026-01-24 01:13:57.49	164.43	20.48	-34.4	-36.2	21.8	0.00e+00	0	38	0	3017801728	39	4693
2026-01-24 01:14:00.33	164.75	20.14	-34.7	-36.5	21.6	0.00e+00	0	38	0	3034578944	39	4824
2026-01-24 01:14:03.45	165.10	19.77	-34.6	-36.5	21.6	0.00e+00	0	38	0	3051356160	39	4820
2026-01-24 01:14:06.29	165.42	19.44	-34.7	-36.4	21.6	0.00e+00	0	38	0	3068133376	40	4545
2026-01-24 01:14:09.42	165.75	19.08	-34.6	-36.4	21.6	0.00e+00	0	38	0	3084910592	40	4534
2026-01-24 01:14:12.26	166.05	18.76	-34.8	-36.6	21.5	0.00e+00	0	38	0	3101687808	40	4602
2026-01-24 01:14:15.48	166.38	18.40	-34.8	-36.6	21.4	0.00e+00	0	38	0	3119513600	40	4651
2026-01-24 01:14:18.42	166.68	18.07	-34.9	-36.7	21.4	0.00e+00	0	38	0	3136290816	40	4702
2026-01-24 01:14:21.41	166.97	17.74	-35.1	-36.9	21.2	0.00e+00	0	38	0	3153068032	40	4800
2026-01-24 01:14:24.39	167.26	17.42	-35.2	-37.0	21.2	0.00e+00	0	38	0	3169845248	41	4583
2026-01-24 01:14:27.38	167.54	17.09	-35.2	-37.0	21.1	0.00e+00	0	38	0	3186622464	41	4591
2026-01-24 01:14:30.37	167.82	16.78	-35.2	-37.1	21.1	0.00e+00	0	38	0	3203399680	41	4614
2026-01-24 01:14:33.35	168.09	16.46	-35.4	-37.3	20.9	0.00e+00	0	38	0	3220176896	41	4709
2026-01-24 01:14:36.33	168.35	16.15	-35.6	-37.4	20.7	0.00e+00	0	38	0	3236954112	41	4806
2026-01-24 01:14:39.31	168.61	15.85	-35.7	-37.6	20.6	0.00e+00	0	38	0	3253731328	42	4640
2026-01-24 01:14:42.30	168.87	15.54	-35.8	-37.7	20.5	0.00e+00	0	38	0	3270508544	42	4663
2026-01-24 01:14:45.29	169.12	15.24	-35.8	-37.8	19.4	0.00e+00	0	38	0	3287285760	42	4711
2026-01-24 01:14:48.27	169.36	14.94	-35.9	-37.8	20.3	0.00e+00	0	38	0	3304062976	42	4743
2026-01-24 01:14:51.25	169.60	14.65	-35.9	-37.9	20.3	0.00e+00	0	38	0	3320840192	42	4772
2026-01-24 01:14:54.24	169.84	14.36	-36.1	-38.0	20.1	0.00e+00	0	38	0	3337617408	42	4858
2026-01-24 01:14:57.22	170.07	14.07	-36.2	-38.1	20.0	0.00e+00	0	38	0	3354394624	43	4647
2026-01-24 01:15:00.21	170.30	13.79	-36.2	-38.2	20.0	0.00e+00	0	38	0	3371171840	43	4652
2026-01-24 01:15:03.25	170.53	13.50	-36.3	-38.2	20.0	0.00e+00	0	38	0	3387949056	43	4683
2026-01-24 01:15:06.23	170.75	13.22	-36.4	-38.3	19.9	0.00e+00	0	38	0	3404726272	43	4733
2026-01-24 01:15:09.22	170.96	12.94	-36.5	-38.4	19.8	0.00e+00	0	38	0	3421503488	43	4800
2026-01-24 01:15:12.19	171.17	12.67	-36.5	-38.5	19.7	0.00e+00	0	38	0	3438280704	43	4842
2026-01-24 01:15:15.54	171.41	12.37	-36.5	-38.4	19.8	0.00e+00	0	38	0	3457155072	43	4795
2026-01-24 01:15:18.25	171.59	12.12	-36.5	-38.5	19.7	0.00e+00	0	38	0	3471835136	43	4825
2026-01-24 01:15:21.54	171.81	11.83	-36.4	-38.4	19.8	0.00e+00	0	38	0	3490709504	43	4778
2026-01-24 01:15:24.25	171.99	11.59	-36.3	-38.5	19.7	0.00e+00	0	38	0	3506438144	43	4817
2026-01-24 01:15:27.52	172.21	11.31	-36.3	-38.5	19.7	0.00e+00	0	38	0	3524263936	43	4833
2026-01-24 01:15:30.24	172.38	11.07	-36.2	-38.4	19.7	0.00e+00	0	38	0	3539992576	43	4808
2026-01-24 01:15:33.52	172.59	10.79	-36.2	-38.6	19.6	0.00e+00	0	38	0	3558866944	43	4873
2026-01-24 01:15:36.24	172.75	10.56	-36.3	-38.6	19.5	0.00e+00	0	38	0	3573547008	43	4922
2026-01-24 01:15:39.56	172.96	10.28	-36.5	-38.8	19.4	0.00e+00	0	38	0	3592421376	43	5015
2026-01-24 01:15:42.27	173.12	10.06	-36.4	-38.7	19.4	0.00e+00	0	38	0	3607101440	43	4974
2026-01-24 01:15:45.56	173.31	9.78	-36.6	-38.8	19.3	0.00e+00	0	38	0	3625975808	43	5027
2026-01-24 01:15:48.25	173.47	9.57	-36.8	-39.0	19.2	0.00e+00	0	38	0	3640655872	44	4866
2026-01-24 01:15:51.58	173.66	9.30	-37.0	-39.2	19.1	0.00e+00	0	38	0	3659530240	44	4938
2026-01-24 01:15:54.30	173.81	9.08	-36.9	-39.1	19.1	0.00e+00	0	38	0	3675258880	44	4925
2026-01-24 01:15:57.66	173.99	8.81	-47.3	-59.8	3.8	8.46e-01	0	38	104	3684696064	66	14983
2026-01-24 01:16:00.38	174.14	8.60	-48.1	-60.5	3.8	8.45e-01	0	38	104	3684696064	66	16141
2026-01-24 01:16:03.66	174.32	8.34	-48.4	-60.6	3.8	8.47e-01	0	38	104	3684696064	67	15410
2026-01-24 01:16:06.36	174.46	8.13	-48.6	-60.6	3.8	8.47e-01	0	38	104	3684696064	67	15554
2026-01-24 01:16:09.73	174.64	7.87	-48.7	-60.8	3.8	8.47e-01	0	38	104	3684696064	68	15045
2026-01-24 01:16:12.