passes_logs/2026/01/24/T1/T1__20260124_211624_KHAYYAM_rec.log

#Pass ID: 20260124_211624_KHAYYAM
#Satellite: KHAYYAM
#Configuration: KHAYYAM_480M
#almurnet v.1.7.20251203
#Start time: 2026-01-24 21:16:24

#Version: 2.0.20230620
#Station: T1
#Location: 37.570604 lon 55.790049 lat
#TLE: 1 53370U 22096A   26024.53891351  .00009807  00000+0  39879-3 0  9998
#TLE: 2 53370  97.3549 291.3780 0001977 107.4992 252.6462 15.24736514192695

#Time	Az	El	Level	Level2	SNR	BER	BlckErr	Temp	State	Recorded	gain1	gain2
2026-01-24 21:16:24.13	14.68	4.98	-48.1	-53.7	3.3	0.00e+00	0	42	0	0	68	26460
2026-01-24 21:16:26.11	14.70	5.14	-47.9	-53.7	3.7	0.00e+00	0	43	104	0	66	29622
2026-01-24 21:16:28.10	14.71	5.30	-47.9	-53.7	3.7	0.00e+00	0	43	104	0	66	29772
2026-01-24 21:16:30.08	14.73	5.47	-47.9	-53.7	3.7	0.00e+00	0	43	104	0	66	29725
2026-01-24 21:16:32.07	14.74	5.63	-47.9	-53.8	3.7	0.00e+00	0	43	104	0	66	29863
2026-01-24 21:16:34.05	14.76	5.80	-47.9	-53.7	3.7	0.00e+00	0	43	104	0	66	29751
2026-01-24 21:16:36.04	14.78	5.97	-47.9	-53.7	3.7	0.00e+00	0	44	104	0	66	29709
2026-01-24 21:16:38.02	14.79	6.14	-47.9	-53.7	3.7	0.00e+00	0	44	104	0	66	29744
2026-01-24 21:16:40.01	14.81	6.31	-47.9	-53.8	3.7	0.00e+00	0	44	104	0	66	29921
2026-01-24 21:16:42.00	14.83	6.48	-47.9	-53.7	3.7	0.00e+00	0	44	104	0	66	29708
2026-01-24 21:16:43.98	14.84	6.65	-47.9	-53.7	3.7	0.00e+00	0	44	104	0	66	29683
2026-01-24 21:16:45.97	14.86	6.83	-47.9	-53.8	3.7	0.00e+00	0	44	104	0	66	29864
2026-01-24 21:16:47.95	14.88	7.00	-47.9	-53.7	3.7	0.00e+00	0	45	104	0	66	29769
2026-01-24 21:16:49.94	14.89	7.18	-47.9	-53.7	3.7	0.00e+00	0	45	104	0	66	29752
2026-01-24 21:16:51.93	14.91	7.36	-47.9	-53.7	3.7	0.00e+00	0	45	104	0	66	29756
2026-01-24 21:16:53.91	14.93	7.55	-47.9	-53.8	3.7	0.00e+00	0	45	104	0	66	29831
2026-01-24 21:16:55.90	14.94	7.73	-47.9	-53.7	3.7	0.00e+00	0	45	104	0	66	29693
2026-01-24 21:16:57.89	14.96	7.92	-47.9	-53.8	3.7	0.00e+00	0	45	104	0	66	29870
2026-01-24 21:16:59.87	14.98	8.10	-47.9	-53.7	3.7	0.00e+00	0	45	104	0	66	29720
2026-01-24 21:17:01.86	15.00	8.29	-47.9	-53.7	3.7	0.00e+00	0	45	104	0	66	29813
2026-01-24 21:17:03.84	15.02	8.48	-47.9	-53.7	3.7	0.00e+00	0	46	104	0	66	29566
2026-01-24 21:17:05.83	15.03	8.68	-47.9	-53.7	3.7	0.00e+00	0	46	104	0	66	29522
2026-01-24 21:17:07.82	15.05	8.87	-47.9	-53.7	3.7	0.00e+00	0	46	104	0	66	29654
2026-01-24 21:17:09.80	15.07	9.07	-47.9	-53.7	3.7	0.00e+00	0	46	104	0	66	29606
2026-01-24 21:17:11.79	15.09	9.27	-47.6	-53.4	3.7	0.00e+00	0	46	104	0	66	28695
2026-01-24 21:17:13.78	15.11	9.47	-47.6	-53.5	3.7	0.00e+00	0	46	104	0	66	28976
2026-01-24 21:17:15.77	15.13	9.68	-47.4	-53.1	3.7	0.00e+00	0	46	104	0	66	27554
2026-01-24 21:17:17.76	15.15	9.89	-47.4	-53.2	3.7	0.00e+00	0	46	104	0	66	27884
2026-01-24 21:17:19.76	15.17	10.10	-47.6	-53.6	3.7	0.00e+00	0	46	104	0	66	29154
2026-01-24 21:17:21.74	15.19	10.31	-47.3	-53.0	3.7	0.00e+00	0	46	104	0	66	27265
2026-01-24 21:17:23.73	15.21	10.52	-47.4	-53.1	3.7	0.00e+00	0	46	104	0	66	27806
2026-01-24 21:17:25.72	15.23	10.74	-47.4	-53.2	3.7	0.00e+00	0	46	104	0	66	27846
2026-01-24 21:17:27.70	15.25	10.96	-47.6	-53.5	3.7	0.00e+00	0	46	104	0	66	28836
2026-01-24 21:17:29.69	15.27	11.18	-47.7	-53.5	3.7	0.00e+00	0	47	104	0	66	29110
2026-01-24 21:17:31.68	15.29	11.40	-47.9	-53.8	3.7	0.00e+00	0	47	104	0	66	29946
2026-01-24 21:17:33.66	15.31	11.63	-47.5	-53.6	3.7	0.00e+00	0	47	104	0	66	29191
2026-01-24 21:17:35.65	15.33	11.86	-47.7	-53.5	3.7	0.00e+00	0	47	104	0	66	28941
2026-01-24 21:17:37.64	15.35	12.09	-47.5	-53.5	3.7	0.00e+00	0	47	104	0	66	28937
2026-01-24 21:17:39.63	15.38	12.33	-47.9	-53.7	3.7	0.00e+00	0	47	104	0	66	29696
2026-01-24 21:17:41.62	15.40	12.57	-47.8	-53.7	3.7	0.00e+00	0	47	104	0	67	28139
2026-01-24 21:17:43.61	15.42	12.81	-47.8	-53.7	3.7	0.00e+00	0	47	104	0	67	28135
2026-01-24 21:17:45.60	15.44	13.06	-47.9	-53.7	3.7	0.00e+00	0	47	104	0	67	28063
2026-01-24 21:17:47.59	15.47	13.31	-48.2	-53.9	3.7	0.00e+00	0	47	104	0	68	27014
2026-01-24 21:17:49.58	15.49	13.56	-47.9	-53.7	3.7	0.00e+00	0	47	104	0	67	28044
2026-01-24 21:17:51.57	15.51	13.82	-47.9	-53.7	3.7	0.00e+00	0	47	104	0	67	28122
2026-01-24 21:17:53.56	15.54	14.08	-48.3	-54.0	3.7	0.00e+00	0	47	104	0	67	29141
2026-01-24 21:17:55.55	15.56	14.34	-48.7	-54.3	3.7	0.00e+00	0	47	104	0	67	29999
2026-01-24 21:17:57.54	15.59	14.61	-51.0	-55.7	3.7	0.00e+00	0	47	104	0	72	26566
2026-01-24 21:17:59.53	15.61	14.88	-50.7	-55.7	3.7	0.00e+00	0	47	104	0	72	26321
2026-01-24 21:18:01.51	15.64	15.15	-51.4	-55.8	3.7	0.00e+00	0	47	104	0	73	25311
2026-01-24 21:18:03.50	15.66	15.43	-51.5	-55.8	3.7	0.00e+00	0	47	104	0	73	25133
2026-01-24 21:18:05.49	15.69	15.72	-51.4	-56.1	3.7	0.00e+00	0	47	104	0	73	25989
2026-01-24 21:18:07.48	15.72	16.00	-51.7	-56.3	3.7	0.00e+00	0	47	104	0	74	25260
2026-01-24 21:18:09.47	15.74	16.30	-51.7	-56.3	3.7	0.00e+00	0	47	104	0	74	25220
2026-01-24 21:18:11.46	15.77	16.59	-51.6	-56.2	3.7	0.00e+00	0	47	104	0	74	24868
2026-01-24 21:18:13.45	15.80	16.90	-51.6	-56.2	3.7	0.00e+00	0	47	104	0	74	24974
2026-01-24 21:18:15.44	15.83	17.20	-51.6	-56.4	3.7	0.00e+00	0	47	104	0	74	25400
2026-01-24 21:18:17.43	15.86	17.52	-51.6	-56.3	3.7	0.00e+00	0	47	104	0	74	25138
2026-01-24 21:18:19.41	15.89	17.83	-51.6	-56.3	3.7	0.00e+00	0	47	104	0	74	25156
2026-01-24 21:18:21.41	15.92	18.16	-51.1	-55.9	3.7	0.00e+00	0	48	104	0	73	25596
2026-01-24 21:18:23.38	15.95	18.48	-50.3	-55.5	3.7	0.00e+00	0	47	104	0	72	25751
2026-01-24 21:18:25.37	15.98	18.82	-50.4	-55.5	3.7	0.00e+00	0	48	104	0	72	25816
2026-01-24 21:18:27.36	16.01	19.16	-50.5	-55.6	3.7	0.00e+00	0	48	104	0	72	25993
2026-01-24 21:18:29.35	16.04	19.50	-50.7	-55.5	3.7	0.00e+00	0	48	104	0	72	25715
2026-01-24 21:18:31.34	16.08	19.86	-50.4	-55.2	3.7	0.00e+00	0	48	104	0	72	24882
2026-01-24 21:18:33.33	16.11	20.21	-50.6	-55.4	3.7	0.00e+00	0	48	104	0	72	25585
2026-01-24 21:18:35.31	16.15	20.58	-50.8	-55.5	3.7	0.00e+00	0	48	104	0	72	25706
2026-01-24 21:18:37.30	16.18	20.95	-50.6	-55.0	3.7	0.00e+00	0	48	104	0	73	23145
2026-01-24 21:18:39.29	16.22	21.33	-50.7	-55.2	3.7	0.00e+00	0	48	104	0	73	23469
2026-01-24 21:18:41.28	16.26	21.72	-51.2	-55.7	3.7	0.00e+00	0	48	104	0	73	25012
2026-01-24 21:18:43.27	16.29	22.11	-50.8	-55.2	3.7	0.00e+00	0	48	104	0	73	23450
2026-01-24 21:18:45.26	16.33	22.52	-50.1	-55.3	3.7	0.00e+00	0	48	104	0	71	26601
2026-01-24 21:18:47.25	16.37	22.93	-50.1	-55.3	3.7	0.00e+00	0	48	104	0	71	26780
2026-01-24 21:18:49.24	16.41	23.34	-50.5	-55.7	3.7	0.00e+00	0	48	104	0	71	27887
2026-01-24 21:18:51.23	16.46	23.77	-50.3	-55.1	3.7	0.00e+00	0	48	104	0	71	26221
2026-01-24 21:18:53.22	16.50	24.21	-50.6	-54.9	3.7	0.00e+00	0	48	104	0	72	24235
2026-01-24 21:18:55.20	16.54	24.65	-50.7	-54.6	3.7	0.00e+00	0	48	104	0	72	23394
2026-01-24 21:18:57.19	16.59	25.11	-50.7	-55.0	3.7	0.00e+00	0	48	104	0	72	24326
2026-01-24 21:18:59.18	16.63	25.57	-50.8	-54.9	3.7	0.00e+00	0	48	104	0	72	24172
2026-01-24 21:19:01.17	16.68	26.05	-51.2	-55.8	3.7	0.00e+00	0	48	104	0	73	25257
2026-01-24 21:19:03.16	16.73	26.53	-51.0	-55.3	3.7	0.00e+00	0	48	104	0	73	23858
2026-01-24 21:19:05.15	16.78	27.03	-50.7	-55.4	3.7	0.00e+00	0	48	104	0	73	24136
2026-01-24 21:19:07.13	16.83	27.54	-50.4	-55.3	3.7	0.00e+00	0	48	104	0	72	25117
2026-01-24 21:19:09.13	16.89	28.06	-50.2	-55.0	3.7	0.00e+00	0	48	104	0	72	24279
2026-01-24 21:19:11.11	16.94	28.59	-50.3	-55.1	3.7	0.00e+00	0	48	104	0	72	24766
2026-01-24 21:19:13.10	17.00	29.13	-50.4	-55.2	3.7	0.00e+00	0	48	104	0	72	25054
2026-01-24 21:19:15.09	17.06	29.69	-51.1	-55.9	3.7	0.00e+00	0	48	104	0	72	27045
2026-01-24 21:19:17.08	17.12	30.26	-51.6	-56.2	3.7	0.00e+00	0	48	104	0	73	26326
2026-01-24 21:19:19.06	17.18	30.84	-51.6	-56.0	3.7	0.00e+00	0	48	104	0	74	24284
2026-01-24 21:19:21.05	17.25	31.44	-51.6	-56.2	3.7	0.00e+00	0	48	104	0	74	24851
2026-01-24 21:19:23.04	17.32	32.05	-51.6	-56.1	3.7	0.00e+00	0	48	104	0	74	24650
2026-01-24 21:19:25.03	17.39	32.68	-51.6	-56.4	3.7	0.00e+00	0	48	104	0	74	25509
2026-01-24 21:19:27.02	17.46	33.33	-51.5	-56.3	3.7	0.00e+00	0	48	104	0	74	25278
2026-01-24 21:19:29.01	17.54	33.99	-51.6	-56.3	3.7	0.00e+00	0	48	104	0	74	25384
2026-01-24 21:19:31.00	17.62	34.67	-51.7	-56.5	3.7	0.00e+00	0	48	104	0	74	25683
2026-01-24 21:19:32.99	17.70	35.37	-51.5	-56.2	3.7	0.00e+00	0	48	104	0	74	24914
2026-01-24 21:19:34.98	17.78	36.08	-51.1	-55.9	3.7	0.00e+00	0	48	104	0	72	27199
2026-01-24 21:19:36.96	17.87	36.81	-50.3	-55.6	3.7	0.00e+00	0	48	104	0	72	26081
2026-01-24 21:19:38.95	17.97	37.56	-50.6	-55.8	3.7	0.00e+00	0	48	104	0	72	26819
2026-01-24 21:19:40.94	18.07	38.34	-51.5	-56.3	3.7	0.00e+00	0	48	104	0	73	26880
2026-01-24 21:19:42.93	18.17	39.13	-51.4	-56.1	3.7	0.00e+00	0	48	104	0	73	26239
2026-01-24 21:19:44.92	18.28	39.95	-51.4	-56.2	3.7	0.00e+00	0	48	104	0	73	26336
2026-01-24 21:19:46.90	18.39	40.78	-51.4	-56.2	3.7	0.00e+00	0	48	104	0	73	26515
2026-01-24 21:19:48.89	18.51	41.64	-52.1	-56.6	3.7	0.00e+00	0	48	104	0	74	26183
2026-01-24 21:19:50.88	18.64	42.52	-52.1	-56.6	3.7	0.00e+00	0	48	104	0	74	26000
2026-01-24 21:19:52.87	18.77	43.43	-51.9	-56.6	3.7	0.00e+00	0	48	104	0	74	26113
2026-01-24 21:19:54.86	18.91	44.37	-52.1	-56.7	3.7	0.00e+00	0	48	104	0	74	26345
2026-01-24 21:19:56.85	19.06	45.32	-51.5	-56.3	3.7	0.00e+00	0	48	104	0	75	23695
2026-01-24 21:19:58.84	19.22	46.31	-51.0	-55.8	3.7	0.00e+00	0	48	104	0	73	25338
2026-01-24 21:20:00.83	19.39	47.32	-51.7	-56.3	3.7	0.00e+00	0	48	104	0	73	26627
2026-01-24 21:20:02.82	19.57	48.36	-51.7	-56.4	3.7	0.00e+00	0	48	104	0	74	25450
2026-01-24 21:20:04.81	19.76	49.43	-51.5	-56.1	3.7	0.00e+00	0	48	104	0	74	24786
2026-01-24 21:20:06.80	19.97	50.53	-52.0	-56.2	3.7	0.00e+00	0	48	104	0	74	24859
2026-01-24 21:20:08.79	20.19	51.66	-51.8	-56.1	3.7	0.00e+00	0	48	104	0	74	24706
2026-01-24 21:20:10.78	20.44	52.81	-51.4	-56.3	3.7	0.00e+00	0	48	104	0	74	25110
2026-01-24 21:20:12.77	20.70	54.00	-51.0	-55.9	3.7	0.00e+00	0	48	104	0	74	24029
2026-01-24 21:20:14.76	20.98	55.22	-51.5	-56.1	3.7	0.00e+00	0	48	104	0	74	24781
2026-01-24 21:20:16.75	21.29	56.47	-52.0	-56.5	3.7	0.00e+00	0	48	104	0	74	25872
2026-01-24 21:20:18.73	21.63	57.74	-51.7	-56.1	3.6	0.00e+00	0	48	104	0	74	24612
2026-01-24 21:20:20.72	22.00	59.05	-52.0	-56.5	3.7	0.00e+00	0	48	104	0	74	25681
2026-01-24 21:20:22.71	22.41	60.39	-51.8	-56.4	3.7	0.00e+00	0	48	104	0	74	25469
2026-01-24 21:20:24.70	22.87	61.76	-51.9	-56.4	3.7	0.00e+00	0	48	104	0	74	25600
2026-01-24 21:20:26.69	23.38	63.16	-52.1	-56.7	3.7	0.00e+00	0	48	104	0	75	24996
2026-01-24 21:20:28.68	23.96	64.59	-52.4	-56.9	3.7	0.00e+00	0	48	104	0	75	25416
2026-01-24 21:20:30.67	24.61	66.05	-52.0	-56.7	3.7	0.00e+00	0	48	104	0	75	24972
2026-01-24 21:20:32.65	25.36	67.53	-52.5	-57.0	3.7	0.00e+00	0	48	104	0	75	25730
2026-01-24 21:20:34.64	26.23	69.04	-52.1	-56.8	3.7	0.00e+00	0	48	104	0	75	25308
2026-01-24 21:20:36.63	27.24	70.57	-52.5	-57.0	3.7	0.00e+00	0	48	104	0	75	25937
2026-01-24 21:20:38.62	28.44	72.12	-52.5	-57.0	3.7	0.00e+00	0	48	104	0	75	25714
2026-01-24 21:20:40.61	29.88	73.68	-52.0	-56.7	3.7	0.00e+00	0	48	104	0	75	25068
2026-01-24 21:20:42.60	31.65	75.26	-52.3	-56.9	3.7	0.00e+00	0	48	104	0	75	25603
2026-01-24 21:20:44.59	33.86	76.84	-52.4	-56.9	3.7	0.00e+00	0	48	104	0	75	25437
2026-01-24 21:20:46.57	36.67	78.40	-52.4	-56.9	3.7	0.00e+00	0	48	104	0	75	25447
2026-01-24 21:20:48.56	40.40	79.96	-52.1	-56.7	3.7	0.00e+00	0	48	104	0	75	24938
2026-01-24 21:20:50.55	45.50	81.47	-52.4	-56.9	3.7	0.00e+00	0	48	104	0	75	25611
2026-01-24 21:20:52.54	52.74	82.89	-51.6	-56.3	3.7	0.00e+00	0	48	104	0	75	23903
2026-01-24 21:20:54.53	63.39	84.16	-51.8	-56.5	3.7	0.00e+00	0	48	104	0	75	24410
2026-01-24 21:20:56.51	78.96	85.12	-51.8	-56.5	3.7	0.00e+00	0	48	104	0	75	24455
2026-01-24 21:20:58.50	99.92	85.59	-51.4	-56.1	3.7	0.00e+00	0	48	104	0	74	24702
2026-01-24 21:21:00.49	122.17	85.39	-51.9	-56.4	3.7	0.00e+00	0	48	104	0	74	25619
2026-01-24 21:21:02.48	140.19	84.60	-52.1	-56.8	3.7	0.00e+00	0	48	104	0	74	26613
2026-01-24 21:21:04.46	152.67	83.44	-51.8	-56.5	3.7	0.00e+00	0	48	104	0	75	24480
2026-01-24 21:21:06.45	161.15	82.07	-52.2	-56.5	3.7	0.00e+00	0	48	104	0	75	24386
2026-01-24 21:21:08.45	167.06	80.58	-52.1	-56.6	3.7	0.00e+00	0	48	104	0	74	26132
2026-01-24 21:21:10.44	171.28	79.04	-52.0	-56.4	3.7	0.00e+00	0	48	104	0	74	25651
2026-01-24 21:21:12.43	174.44	77.47	-51.5	-56.3	3.7	0.00e+00	0	48	104	0	75	23845
2026-01-24 21:21:14.41	176.86	75.90	-51.5	-56.1	3.7	0.00e+00	0	48	104	0	74	24788
2026-01-24 21:21:16.40	178.80	74.32	-52.2	-56.7	3.7	0.00e+00	0	48	104	0	74	26394
2026-01-24 21:21:18.39	180.36	72.75	-52.3	-56.8	3.7	0.00e+00	0	48	104	0	75	25184
2026-01-24 21:21:20.38	181.65	71.19	-52.5	-57.0	3.7	0.00e+00	0	48	104	0	75	25900
2026-01-24 21:21:22.37	182.74	69.64	-52.4	-56.9	3.7	0.00e+00	0	48	104	0	75	25601
2026-01-24 21:21:24.36	183.66	68.12	-52.0	-56.8	3.7	0.00e+00	0	48	104	0	75	25136
2026-01-24 21:21:26.35	184.46	66.62	-52.3	-56.9	3.7	0.00e+00	0	49	104	0	75	25544
2026-01-24 21:21:28.34	185.15	65.15	-51.7	-56.6	3.7	0.00e+00	0	48	104	0	75	24589
2026-01-24 21:21:30.33	185.76	63.71	-52.1	-56.8	3.7	0.00e+00	0	48	104	0	75	25241
2026-01-24 21:21:32.32	186.29	62.29	-52.4	-56.9	3.7	0.00e+00	0	49	104	0	75	25661
2026-01-24 21:21:34.31	186.77	60.90	-52.2	-56.9	3.7	0.00e+00	0	49	104	0	75	25489
2026-01-24 21:21:36.29	187.20	59.55	-52.5	-57.0	3.7	0.00e+00	0	48	104	0	75	25736
2026-01-24 21:21:38.28	187.59	58.22	-52.5	-56.9	3.7	0.00e+00	0	49	104	0	75	25512
2026-01-24 21:21:40.27	187.94	56.93	-52.6	-56.9	3.7	0.00e+00	0	48	104	0	75	25669
2026-01-24 21:21:42.26	188.26	55.66	-52.3	-56.8	3.7	0.00e+00	0	49	104	0	75	25134
2026-01-24 21:21:44.25	188.55	54.43	-51.2	-56.2	3.7	0.00e+00	0	49	104	0	74	24822
2026-01-24 21:21:46.24	188.82	53.22	-51.2	-56.0	3.7	0.00e+00	0	48	104	0	74	24501
2026-01-24 21:21:48.23	189.07	52.05	-52.1	-56.6	3.7	0.00e+00	0	48	104	0	75	24660
2026-01-24 21:21:50.22	189.30	50.91	-52.0	-56.6	3.7	0.00e+00	0	49	104	0	75	24565
2026-01-24 21:21:52.21	189.51	49.79	-52.4	-56.8	3.7	0.00e+00	0	49	104	0	75	25344
2026-01-24 21:21:54.20	189.71	48.71	-51.8	-56.4	3.7	0.00e+00	0	48	104	0	75	24224
2026-01-24 21:21:56.18	189.90	47.66	-52.0	-56.5	3.7	0.00e+00	0	49	104	0	75	24457
2026-01-24 21:21:58.17	190.07	46.63	-52.4	-56.9	3.7	0.00e+00	0	48	104	0	75	25389
2026-01-24 21:22:00.16	190.23	45.63	-52.3	-56.7	3.7	0.00e+00	0	48	104	0	75	25041
2026-01-24 21:22:02.15	190.39	44.66	-51.7	-56.5	3.7	0.00e+00	0	49	104	0	75	24295
2026-01-24 21:22:04.14	190.53	43.71	-52.1	-56.7	3.7	0.00e+00	0	49	104	0	75	25007
2026-01-24 21:22:06.13	190.67	42.79	-52.2	-56.7	3.7	0.00e+00	0	49	104	0	75	24870
2026-01-24 21:22:08.12	190.80	41.89	-52.1	-56.6	3.7	0.00e+00	0	49	104	0	75	24766
2026-01-24 21:22:10.11	190.92	41.02	-52.3	-56.8	3.7	0.00e+00	0	48	104	0	75	25211
2026-01-24 21:22:12.10	191.03	40.17	-52.3	-56.9	3.7	0.00e+00	0	48	104	0	75	25395
2026-01-24 21:22:14.09	191.14	39.34	-52.0	-56.4	3.7	0.00e+00	0	48	104	0	75	24163
2026-01-24 21:22:16.08	191.25	38.54	-51.8	-56.3	3.7	0.00e+00	0	49	104	0	75	23769
2026-01-24 21:22:18.07	191.35	37.75	-52.0	-56.2	3.7	0.00e+00	0	49	104	0	75	23640
2026-01-24 21:22:20.06	191.44	36.99	-51.9	-56.2	3.7	0.00e+00	0	48	104	0	75	23537
2026-01-24 21:22:22.05	191.53	36.24	-51.6	-56.2	3.7	0.00e+00	0	48	104	0	75	23614
2026-01-24 21:22:24.04	191.62	35.52	-51.7	-56.2	3.7	0.00e+00	0	49	104	0	75	23586
2026-01-24 21:22:26.03	191.70	34.81	-51.5	-56.0	3.7	0.00e+00	0	49	104	0	74	24411
2026-01-24 21:22:28.01	191.78	34.13	-51.8	-56.3	3.7	0.00e+00	0	49	104	0	74	25163
2026-01-24 21:22:30.00	191.86	33.46	-51.8	-56.2	3.7	0.00e+00	0	48	104	0	74	24967
2026-01-24 21:22:31.99	191.93	32.80	-52.0	-56.4	3.7	0.00e+00	0	49	104	0	74	25494
2026-01-24 21:22:33.98	192.01	32.17	-52.1	-56.4	3.7	0.00e+00	0	49	104	0	74	25669
2026-01-24 21:22:35.97	192.07	31.54	-51.9	-56.5	3.7	0.00e+00	0	49	104	0	74	25765
2026-01-24 21:22:37.96	192.14	30.94	-52.0	-56.6	3.7	0.00e+00	0	49	104	0	75	24527
2026-01-24 21:22:39.95	192.20	30.34	-52.1	-56.5	3.7	0.00e+00	0	49	104	0	75	24381
2026-01-24 21:22:41.94	192.26	29.77	-51.9	-56.2	3.7	0.00e+00	0	49	104	0	75	23616
2026-01-24 21:22:43.92	192.32	29.20	-51.8	-56.2	3.7	0.00e+00	0	49	104	0	75	23466
2026-01-24 21:22:45.91	192.38	28.65	-52.0	-56.5	3.7	0.00e+00	0	49	104	0	75	24331
2026-01-24 21:22:47.90	192.44	28.12	-51.8	-56.4	3.7	0.00e+00	0	49	104	0	75	23995
2026-01-24 21:22:49.89	192.49	27.59	-51.9	-56.5	3.7	0.00e+00	0	49	104	0	75	24248
2026-01-24 21:22:51.88	192.54	27.07	-52.0	-56.4	3.7	0.00e+00	0	49	104	0	75	24081
2026-01-24 21:22:53.87	192.59	26.57	-51.8	-56.3	3.7	0.00e+00	0	48	104	0	75	23843
2026-01-24 21:22:55.86	192.64	26.08	-51.6	-56.3	3.7	0.00e+00	0	49	104	0	75	23721
2026-01-24 21:22:57.85	192.69	25.60	-51.4	-56.1	3.7	0.00e+00	0	49	104	0	74	24673
2026-01-24 21:22:59.84	192.74	25.13	-51.3	-55.9	3.7	0.00e+00	0	49	104	0	73	25648
2026-01-24 21:23:01.83	192.78	24.67	-51.5	-56.0	3.7	0.00e+00	0	49	104	0	73	25965
2026-01-24 21:23:03.82	192.82	24.22	-51.3	-55.9	3.7	0.00e+00	0	49	104	0	73	25582
2026-01-24 21:23:05.81	192.87	23.78	-51.4	-56.0	3.7	0.00e+00	0	49	104	0	73	25771
2026-01-24 21:23:07.79	192.91	23.35	-51.2	-55.8	3.7	0.00e+00	0	49	104	0	73	25381
2026-01-24 21:23:09.78	192.95	22.92	-50.9	-55.6	3.7	0.00e+00	0	49	104	0	73	24556
2026-01-24 21:23:11.77	192.99	22.51	-51.1	-55.7	3.7	0.00e+00	0	48	104	0	73	24932
2026-01-24 21:23:13.76	193.03	22.10	-50.7	-55.5	3.7	0.00e+00	0	49	104	0	73	24255
2026-01-24 21:23:15.75	193.06	21.70	-50.6	-55.4	3.7	0.00e+00	0	49	104	0	73	24036
2026-01-24 21:23:17.74	193.10	21.31	-50.4	-55.2	3.7	0.00e+00	0	48	104	0	72	24915
2026-01-24 21:23:19.73	193.14	20.93	-50.3	-55.0	3.7	0.00e+00	0	49	104	0	72	24412
2026-01-24 21:23:21.72	193.17	20.55	-50.3	-55.1	3.7	0.00e+00	0	49	104	0	72	24537
2026-01-24 21:23:23.71	193.20	20.18	-50.4	-55.1	3.7	0.00e+00	0	48	104	0	72	24635
2026-01-24 21:23:25.70	193.24	19.82	-50.4	-55.1	3.7	0.00e+00	0	48	104	0	72	24587
2026-01-24 21:23:27.69	193.27	19.46	-50.7	-55.4	3.7	0.00e+00	0	49	104	0	72	25545
2026-01-24 21:23:29.68	193.30	19.11	-50.4	-55.1	3.7	0.00e+00	0	49	104	0	72	24601
2026-01-24 21:23:31.67	193.33	18.77	-50.4	-55.1	3.7	0.00e+00	0	49	104	0	72	24805
2026-01-24 21:23:33.66	193.36	18.43	-50.4	-55.2	3.7	0.00e+00	0	49	104	0	72	24929
2026-01-24 21:23:35.65	193.39	18.10	-50.1	-54.9	3.7	0.00e+00	0	49	104	0	72	24232
2026-01-24 21:23:37.65	193.42	17.77	-50.1	-55.0	3.7	0.00e+00	0	49	104	0	72	24407
2026-01-24 21:23:39.64	193.45	17.45	-50.0	-54.9	3.7	0.00e+00	0	49	104	0	72	24028
2026-01-24 21:23:41.62	193.48	17.14	-50.0	-54.9	3.7	0.00e+00	0	49	104	0	72	24122
2026-01-24 21:23:43.61	193.51	16.83	-50.2	-55.0	3.7	0.00e+00	0	49	104	0	71	25817
2026-01-24 21:23:45.60	193.54	16.52	-50.2	-54.9	3.7	0.00e+00	0	49	104	0	71	25455
2026-01-24 21:23:47.59	193.56	16.22	-50.1	-54.9	3.7	0.00e+00	0	49	104	0	71	25452
2026-01-24 21:23:49.58	193.59	15.93	-49.9	-54.6	3.7	0.00e+00	0	49	104	0	71	24635
2026-01-24 21:23:51.57	193.62	15.64	-49.7	-54.4	3.7	0.00e+00	0	49	104	0	71	24155
2026-01-24 21:23:53.55	193.64	15.35	-49.6	-54.4	3.7	0.00e+00	0	49	104	0	70	25645
2026-01-24 21:23:55.55	193.67	15.07	-49.3	-54.2	3.7	0.00e+00	0	49	104	0	70	24869
2026-01-24 21:23:57.53	193.69	14.79	-49.1	-54.0	3.7	0.00e+00	0	49	104	0	70	24346
2026-01-24 21:23:59.53	193.71	14.52	-49.3	-54.3	3.7	0.00e+00	0	49	104	0	70	25192
2026-01-24 21:24:01.52	193.74	14.25	-49.1	-54.0	3.7	0.00e+00	0	49	104	0	70	24336
2026-01-24 21:24:03.50	193.76	13.98	-49.3	-54.3	3.7	0.00e+00	0	49	104	0	70	25112
2026-01-24 21:24:05.49	193.78	13.72	-49.1	-54.1	3.7	0.00e+00	0	49	104	0	70	24626
2026-01-24 21:24:07.48	193.81	13.46	-49.3	-54.2	3.7	0.00e+00	0	49	104	0	70	24929
2026-01-24 21:24:09.47	193.83	13.21	-49.3	-54.2	3.7	0.00e+00	0	49	104	0	70	25046
2026-01-24 21:24:11.46	193.85	12.96	-49.5	-54.3	3.7	0.00e+00	0	49	104	0	70	25222
2026-01-24 21:24:13.45	193.87	12.71	-49.5	-54.3	3.7	0.00e+00	0	49	104	0	70	25346
2026-01-24 21:24:15.44	193.89	12.47	-49.4	-54.3	3.7	0.00e+00	0	49	104	0	70	25231
2026-01-24 21:24:17.43	193.92	12.22	-49.5	-54.4	3.7	0.00e+00	0	49	104	0	70	25567
2026-01-24 21:24:19.42	193.94	11.99	-49.6	-54.5	3.7	0.00e+00	0	49	104	0	70	25809
2026-01-24 21:24:21.41	193.96	11.75	-49.4	-54.4	3.7	0.00e+00	0	49	104	0	70	25456
2026-01-24 21:24:23.40	193.98	11.52	-49.5	-54.4	3.7	0.00e+00	0	49	104	0	70	25596
2026-01-24 21:24:25.39	194.00	11.29	-49.5	-54.5	3.7	0.00e+00	0	49	104	0	70	25820
2026-01-24 21:24:27.38	194.02	11.06	-49.5	-54.5	3.7	0.00e+00	0	49	104	0	70	25962
2026-01-24 21:24:29.37	194.04	10.84	-49.4	-54.4	3.7	0.00e+00	0	49	104	0	70	25497
2026-01-24 21:24:31.36	194.05	10.62	-49.4	-54.5	3.7	0.00e+00	0	49	104	0	70	25869
2026-01-24 21:24:33.35	194.07	10.40	-49.4	-54.5	3.7	0.00e+00	0	49	104	0	70	25700
2026-01-24 21:24:35.34	194.09	10.19	-49.3	-54.4	3.7	0.00e+00	0	49	104	0	70	25538
2026-01-24 21:24:37.33	194.11	9.97	-49.3	-54.4	3.7	0.00e+00	0	49	104	0	70	25461
2026-01-24 21:24:39.32	194.13	9.76	-49.2	-54.3	3.7	0.00e+00	0	49	104	0	70	25105
2026-01-24 21:24:41.31	194.15	9.55	-49.2	-54.3	3.7	0.00e+00	0	49	104	0	69	26638
2026-01-24 21:24:43.30	194.16	9.35	-49.1	-54.1	3.7	0.00e+00	0	49	104	0	69	26257
2026-01-24 21:24:45.29	194.18	9.14	-49.2	-54.3	3.7	0.00e+00	0	49	104	0	69	26628
2026-01-24 21:24:47.27	194.20	8.94	-49.5	-54.4	3.7	0.00e+00	0	49	104	0	69	27139
2026-01-24 21:24:49.26	194.22	8.74	-49.8	-54.7	3.7	0.00e+00	0	49	104	0	70	26430
2026-01-24 21:24:51.25	194.23	8.55	-51.6	-56.2	3.7	0.00e+00	0	49	104	0	73	26475
2026-01-24 21:24:53.23	194.25	8.35	-51.9	-56.3	3.7	0.00e+00	0	49	104	0	74	25369
2026-01-24 21:24:55.22	194.27	8.16	-52.1	-56.2	3.7	0.00e+00	0	49	104	0	75	23588
2026-01-24 21:24:57.21	194.28	7.97	-51.7	-56.5	3.7	0.00e+00	0	49	104	0	75	24488
2026-01-24 21:24:59.19	194.30	7.78	-51.4	-56.4	3.7	0.00e+00	0	49	104	0	74	25487
2026-01-24 21:25:01.18	194.32	7.59	-52.3	-57.0	3.7	0.00e+00	0	49	104	0	76	24265
2026-01-24 21:25:03.17	194.33	7.41	-52.0	-56.8	3.7	0.00e+00	0	49	104	0	75	25325
2026-01-24 21:25:05.15	194.35	7.23	-52.6	-56.9	3.7	0.00e+00	0	49	104	0	75	25658
2026-01-24 21:25:07.14	194.36	7.04	-51.6	-56.4	3.7	0.00e+00	0	49	104	0	74	25637
2026-01-24 21:25:09.13	194.38	6.86	-52.1	-56.4	3.7	0.00e+00	0	49	104	0	75	23981
2026-01-24 21:25:11.11	194.39	6.69	-51.8	-56.7	3.7	0.00e+00	0	49	104	0	74	26375
2026-01-24 21:25:13.10	194.41	6.51	-51.7	-56.3	3.7	0.00e+00	0	49	104	0	74	25117
2026-01-24 21:25:15.08	194.42	6.34	-51.7	-56.2	3.7	0.00e+00	0	49	104	0	74	25071
2026-01-24 21:25:17.07	194.44	6.16	-51.7	-56.2	3.7	0.00e+00	0	49	104	0	74	25082
2026-01-24 21:25:19.05	194.45	5.99	-51.7	-56.2	3.7	0.00e+00	0	49	104	0	74	25075
2026-