passes_logs/2026/01/24/T1/T1__20260124_031435_AQUA_rec.log

#Pass ID: 20260124_031435_AQUA
#Satellite: AQUA
#Configuration: AQUA
#almurnet v.1.7.20251203
#Start time: 2026-01-24 03:14:36

#Version: 2.0.20230620
#Station: T1
#Location: 37.570604 lon 55.790049 lat
#TLE: 1 27424U 02022A   26022.96978264  .00001879  00000+0  38593-3 0  9993
#TLE: 2 27424  98.4100 349.5315 0001958  69.4371  21.4765 14.61848807262053

#Time	Az	El	Level	Level2	SNR	BER	BlckErr	Temp	State	Recorded	gain1	gain2
2026-01-24 03:14:36.79	0.01	5.07	-44.0	-69.1	3.4	7.70e-01	0	35	0	0	59	65535
2026-01-24 03:14:38.77	359.79	5.18	-45.7	-70.6	3.7	7.48e-01	0	35	104	0	62	65535
2026-01-24 03:14:40.76	359.57	5.29	-45.7	-70.6	3.8	7.52e-01	0	35	104	0	62	65527
2026-01-24 03:14:42.74	359.34	5.40	-45.7	-70.6	3.7	7.51e-01	0	35	104	0	62	65535
2026-01-24 03:14:44.73	359.12	5.52	-45.8	-70.6	3.7	7.53e-01	0	35	104	0	62	65535
2026-01-24 03:14:46.71	358.89	5.63	-45.8	-70.6	3.7	7.51e-01	0	35	104	0	62	65535
2026-01-24 03:14:48.70	358.66	5.75	-45.8	-70.6	3.7	7.50e-01	0	35	104	0	62	65531
2026-01-24 03:14:50.69	358.42	5.86	-45.8	-70.6	3.7	7.46e-01	0	36	104	0	62	65535
2026-01-24 03:14:52.67	358.19	5.97	-45.8	-70.6	3.7	7.51e-01	0	35	104	0	62	65533
2026-01-24 03:14:54.66	357.95	6.09	-45.8	-70.6	3.7	7.49e-01	0	35	104	0	62	65535
2026-01-24 03:14:56.65	357.71	6.20	-45.8	-70.6	3.7	7.45e-01	0	35	104	0	62	65531
2026-01-24 03:14:58.63	357.47	6.32	-45.8	-70.6	3.7	7.49e-01	0	36	104	0	62	65534
2026-01-24 03:15:00.62	357.23	6.43	-45.8	-70.6	3.7	7.46e-01	0	36	104	0	62	65534
2026-01-24 03:15:02.61	356.98	6.55	-45.8	-70.6	3.7	7.52e-01	0	36	104	0	62	65534
2026-01-24 03:15:04.60	356.74	6.66	-45.8	-70.6	3.7	7.49e-01	0	36	104	0	62	65534
2026-01-24 03:15:06.58	356.49	6.78	-45.8	-70.6	3.7	7.48e-01	0	36	104	0	62	65533
2026-01-24 03:15:08.57	356.23	6.89	-45.8	-70.6	3.7	7.47e-01	0	36	104	0	62	65533
2026-01-24 03:15:10.56	355.98	7.01	-45.8	-70.6	3.7	7.48e-01	0	36	104	0	62	65534
2026-01-24 03:15:12.55	355.72	7.12	-45.8	-70.6	3.7	7.51e-01	0	36	104	0	62	65534
2026-01-24 03:15:14.54	355.46	7.24	-45.8	-70.6	3.7	7.50e-01	0	36	104	0	62	65534
2026-01-24 03:15:16.52	355.20	7.35	-45.8	-70.6	3.7	7.47e-01	0	36	104	0	62	65532
2026-01-24 03:15:18.51	354.94	7.47	-45.8	-70.6	3.7	7.46e-01	0	36	104	0	62	65534
2026-01-24 03:15:20.50	354.67	7.59	-45.9	-70.6	3.8	7.49e-01	0	36	104	0	62	65534
2026-01-24 03:15:22.48	354.41	7.70	-45.9	-70.6	3.8	7.43e-01	0	36	104	0	62	65534
2026-01-24 03:15:24.47	354.13	7.82	-45.9	-70.6	3.8	7.46e-01	0	36	104	0	62	65535
2026-01-24 03:15:26.46	353.86	7.93	-45.9	-70.6	3.7	7.49e-01	0	36	104	0	62	65533
2026-01-24 03:15:28.44	353.59	8.05	-45.9	-70.6	3.7	7.50e-01	0	36	104	0	62	65527
2026-01-24 03:15:30.43	353.31	8.16	-45.9	-70.5	3.8	7.49e-01	0	36	104	0	62	64943
2026-01-24 03:15:32.42	353.03	8.28	-45.8	-70.0	3.8	7.48e-01	0	37	104	0	62	60957
2026-01-24 03:15:34.41	352.74	8.39	-45.8	-69.6	3.8	7.48e-01	0	36	104	0	62	58191
2026-01-24 03:15:36.39	352.46	8.51	-45.8	-69.1	3.8	7.45e-01	0	37	104	0	62	54672
2026-01-24 03:15:38.38	352.17	8.62	-45.7	-68.3	3.8	7.47e-01	0	37	104	0	62	50412
2026-01-24 03:15:40.37	351.88	8.74	-45.6	-66.9	3.8	7.47e-01	0	37	104	0	62	42890
2026-01-24 03:15:42.35	351.59	8.85	-45.1	-63.4	3.8	7.46e-01	0	37	104	0	62	28663
2026-01-24 03:15:44.34	351.29	8.97	-44.0	-59.4	3.8	7.44e-01	0	36	104	0	60	20290
2026-01-24 03:15:46.33	350.99	9.09	-44.1	-58.5	3.8	7.46e-01	0	37	104	0	59	19387
2026-01-24 03:15:48.32	350.69	9.20	-44.4	-58.8	3.8	7.47e-01	0	36	104	0	59	19985
2026-01-24 03:15:50.37	350.38	9.32	-43.5	-57.0	3.8	7.47e-01	0	37	104	0	58	17274
2026-01-24 03:15:52.39	350.07	9.44	-43.3	-56.8	3.8	7.45e-01	0	37	104	0	58	16719
2026-01-24 03:15:54.39	349.76	9.55	-42.9	-56.1	3.8	7.43e-01	0	37	104	0	57	16356
2026-01-24 03:15:56.37	349.45	9.66	-42.5	-57.1	3.8	7.47e-01	0	37	104	0	57	18472
2026-01-24 03:15:58.36	349.13	9.78	-42.6	-59.6	3.9	7.43e-01	0	37	104	0	57	24629
2026-01-24 03:16:00.35	348.81	9.89	-41.7	-55.7	3.8	7.47e-01	0	37	104	0	55	17663
2026-01-24 03:16:02.34	348.49	10.01	-41.4	-55.8	3.8	7.45e-01	0	37	104	0	54	18758
2026-01-24 03:16:04.40	348.16	10.12	-41.4	-55.7	3.8	7.46e-01	0	37	104	0	54	18617
2026-01-24 03:16:06.39	347.83	10.24	-44.7	-64.4	3.8	7.44e-01	0	37	104	0	59	38033
2026-01-24 03:16:08.38	347.51	10.35	-43.6	-60.6	3.8	7.44e-01	0	37	104	0	59	24443
2026-01-24 03:16:10.59	347.14	10.48	-44.0	-59.8	3.9	7.44e-01	0	37	104	0	59	22309
2026-01-24 03:16:12.58	346.80	10.59	-44.0	-59.5	3.8	7.46e-01	0	37	104	0	59	21693
2026-01-24 03:16:14.59	346.46	10.70	-43.1	-57.9	3.8	7.40e-01	0	37	104	0	58	19066
2026-01-24 03:16:16.60	346.12	10.81	-42.1	-55.8	3.8	7.48e-01	0	37	104	0	56	16752
2026-01-24 03:16:18.59	345.77	10.93	-41.8	-55.7	3.8	7.47e-01	0	37	104	0	55	17542
2026-01-24 03:16:20.58	345.43	11.04	-41.8	-55.6	3.8	7.46e-01	0	37	104	0	55	17394
2026-01-24 03:16:22.57	345.08	11.15	-42.8	-56.0	3.8	7.44e-01	0	37	104	0	56	17176
2026-01-24 03:16:24.56	344.73	11.26	-45.9	-62.0	3.9	7.44e-01	0	37	104	0	63	22927
2026-01-24 03:16:26.54	344.37	11.37	-43.6	-56.4	3.8	7.45e-01	0	37	104	0	59	15200
2026-01-24 03:16:28.53	344.02	11.48	-43.0	-55.8	3.8	7.47e-01	0	37	104	0	58	15031
2026-01-24 03:16:30.52	343.66	11.58	-42.8	-55.5	3.8	7.48e-01	0	37	104	0	57	15369
2026-01-24 03:16:32.51	343.29	11.69	-44.9	-58.2	3.8	7.44e-01	0	37	104	0	60	17664
2026-01-24 03:16:34.50	342.93	11.80	-43.7	-56.2	3.8	7.45e-01	0	37	104	0	59	14824
2026-01-24 03:16:36.48	342.56	11.91	-43.4	-55.7	3.8	7.45e-01	0	37	104	0	58	14872
2026-01-24 03:16:38.47	342.19	12.01	-43.4	-55.9	3.8	7.44e-01	0	37	104	0	58	15074
2026-01-24 03:16:40.68	341.77	12.13	-43.5	-55.9	3.8	7.45e-01	0	37	104	0	58	15187
2026-01-24 03:16:42.67	341.39	12.24	-45.9	-61.3	3.9	7.45e-01	0	37	104	0	63	21102
2026-01-24 03:16:44.68	341.00	12.34	-43.8	-56.3	3.8	7.44e-01	0	37	104	0	59	14893
2026-01-24 03:16:46.67	340.62	12.45	-42.7	-55.4	3.8	7.46e-01	0	37	104	0	57	15215
2026-01-24 03:16:48.62	340.24	12.55	-42.7	-55.7	3.8	7.45e-01	0	37	104	0	57	15628
2026-01-24 03:16:50.65	339.84	12.65	-46.2	-61.6	3.8	7.47e-01	0	37	104	0	63	21861
2026-01-24 03:16:52.64	339.45	12.75	-43.5	-55.8	3.8	7.42e-01	0	37	104	0	58	15051
2026-01-24 03:16:54.63	339.05	12.85	-42.8	-55.6	3.8	7.46e-01	0	37	104	0	57	15474
2026-01-24 03:16:56.62	338.65	12.95	-42.4	-55.3	3.8	7.45e-01	0	37	104	0	56	15910
2026-01-24 03:16:58.61	338.25	13.05	-43.3	-56.4	3.8	7.44e-01	0	37	104	0	58	16082
2026-01-24 03:17:00.60	337.84	13.15	-45.8	-61.3	3.8	7.44e-01	0	37	104	0	63	21134
2026-01-24 03:17:02.59	337.44	13.25	-43.1	-55.9	3.8	7.45e-01	0	37	104	0	58	15088
2026-01-24 03:17:04.58	337.02	13.35	-42.8	-55.2	3.8	7.46e-01	0	37	104	0	57	14861
2026-01-24 03:17:06.57	336.61	13.44	-43.0	-55.3	3.8	7.45e-01	0	37	104	0	57	14942
2026-01-24 03:17:08.56	336.19	13.53	-46.1	-59.1	3.8	7.45e-01	0	37	104	0	62	17409
2026-01-24 03:17:10.55	335.77	13.63	-44.6	-57.1	3.8	7.46e-01	0	37	104	0	61	14633
2026-01-24 03:17:12.54	335.35	13.72	-44.3	-56.8	3.8	7.43e-01	0	37	104	0	60	14887
2026-01-24 03:17:14.53	334.93	13.81	-44.3	-56.6	3.8	7.45e-01	0	37	104	0	59	15486
2026-01-24 03:17:16.55	334.49	13.90	-44.3	-56.7	3.8	7.50e-01	0	37	104	0	59	15630
2026-01-24 03:17:18.55	334.06	13.99	-46.2	-59.4	3.8	7.47e-01	0	37	104	0	62	17896
2026-01-24 03:17:20.54	333.62	14.08	-43.6	-55.6	3.9	7.48e-01	0	37	104	0	59	13871
2026-01-24 03:17:22.53	333.19	14.17	-43.5	-55.6	3.8	7.44e-01	0	37	104	0	59	13797
2026-01-24 03:17:24.52	332.75	14.25	-43.6	-55.7	3.8	7.45e-01	0	37	104	0	59	14010
2026-01-24 03:17:26.51	332.30	14.34	-43.5	-55.4	3.8	7.46e-01	0	37	104	0	58	14370
2026-01-24 03:17:28.50	331.86	14.42	-47.6	-62.0	3.8	7.42e-01	0	37	104	0	67	18203
2026-01-24 03:17:30.50	331.41	14.50	-44.7	-57.2	3.8	7.44e-01	0	37	104	0	61	14831
2026-01-24 03:17:32.49	330.96	14.58	-43.7	-55.8	3.8	7.48e-01	0	37	104	0	59	14105
2026-01-24 03:17:34.48	330.50	14.66	-43.7	-55.6	3.8	7.48e-01	0	37	104	0	58	14680
2026-01-24 03:17:36.47	330.05	14.74	-45.1	-57.5	3.8	7.44e-01	0	37	104	0	60	16129
2026-01-24 03:17:38.46	329.59	14.81	-44.3	-56.5	3.8	7.46e-01	0	37	104	0	60	14412
2026-01-24 03:17:40.44	329.13	14.89	-43.9	-55.9	3.8	7.43e-01	0	37	104	0	59	14286
2026-01-24 03:17:42.43	328.67	14.96	-43.9	-55.8	3.8	7.50e-01	0	37	104	0	59	14195
2026-01-24 03:17:44.42	328.20	15.03	-43.4	-55.3	3.8	7.44e-01	0	37	104	0	58	14149
2026-01-24 03:17:46.41	327.73	15.10	-46.6	-62.0	3.8	7.44e-01	0	37	104	0	65	20523
2026-01-24 03:17:48.48	327.24	15.17	-43.8	-56.5	3.8	7.39e-01	0	37	104	0	59	15291
2026-01-24 03:17:50.55	326.75	15.24	-43.6	-56.0	3.8	7.44e-01	0	37	104	0	58	15275
2026-01-24 03:17:52.54	326.28	15.30	-43.2	-55.3	3.8	7.44e-01	0	37	104	0	58	14202
2026-01-24 03:17:54.54	325.80	15.37	-45.0	-59.3	3.8	7.44e-01	0	37	104	0	60	19861
2026-01-24 03:17:56.53	325.32	15.43	-43.3	-56.2	3.9	7.46e-01	0	37	104	0	58	15628
2026-01-24 03:17:58.52	324.84	15.49	-43.8	-56.2	3.8	7.43e-01	0	37	104	0	59	14784
2026-01-24 03:18:00.51	324.35	15.54	-43.5	-55.4	3.8	7.49e-01	0	37	104	0	59	13418
2026-01-24 03:18:02.49	323.87	15.60	-43.7	-55.5	3.8	7.47e-01	0	37	104	0	59	13586
2026-01-24 03:18:04.55	323.36	15.65	-48.3	-63.5	3.8	7.43e-01	0	37	104	0	68	20521
2026-01-24 03:18:06.60	322.86	15.71	-45.4	-58.1	3.9	7.47e-01	0	37	104	0	62	15493
2026-01-24 03:18:08.65	322.35	15.76	-44.8	-57.5	3.8	7.45e-01	0	37	104	0	61	15387
2026-01-24 03:18:10.64	321.86	15.81	-44.8	-57.3	3.8	7.43e-01	0	37	104	0	61	14910
2026-01-24 03:18:12.63	321.36	15.85	-47.0	-61.0	3.8	7.47e-01	0	38	104	0	64	19248
2026-01-24 03:18:14.62	320.87	15.90	-44.4	-56.8	3.8	7.46e-01	0	37	104	0	60	14903
2026-01-24 03:18:16.59	320.37	15.94	-47.4	-62.1	3.8	7.44e-01	0	37	104	0	65	20553
2026-01-24 03:18:18.57	319.88	15.98	-46.6	-60.4	3.8	7.44e-01	0	37	104	0	65	16968
2026-01-24 03:18:20.56	319.38	16.02	-47.6	-61.7	3.8	7.46e-01	0	37	104	0	65	19677
2026-01-24 03:18:22.81	318.81	16.06	-48.3	-64.8	3.8	7.46e-01	0	37	104	0	67	25002
2026-01-24 03:18:24.80	318.30	16.09	-44.3	-56.6	3.8	7.46e-01	0	37	104	0	60	14596
2026-01-24 03:18:26.78	317.80	16.12	-43.6	-55.9	3.8	7.46e-01	0	37	104	0	59	14298
2026-01-24 03:18:28.77	317.30	16.15	-43.3	-55.5	3.8	7.46e-01	0	37	104	0	58	14487
2026-01-24 03:18:30.76	316.79	16.18	-49.1	-63.9	3.8	7.50e-01	0	37	104	0	68	21298
2026-01-24 03:18:32.77	316.28	16.21	-48.9	-63.8	3.8	7.46e-01	0	37	104	0	68	21141
2026-01-24 03:18:34.78	315.76	16.23	-47.8	-62.4	3.8	7.47e-01	0	37	104	0	67	19013
2026-01-24 03:18:36.76	315.25	16.25	-47.9	-62.1	3.8	7.44e-01	0	37	104	0	67	18306
2026-01-24 03:18:38.80	314.73	16.27	-49.2	-65.4	3.8	7.46e-01	0	38	104	0	69	24006
2026-01-24 03:18:40.79	314.22	16.29	-46.3	-59.1	3.8	7.45e-01	0	37	104	0	63	16384
2026-01-24 03:18:42.78	313.71	16.30	-45.5	-57.8	3.8	7.46e-01	0	38	104	0	61	15829
2026-01-24 03:18:44.76	313.20	16.31	-46.0	-58.8	3.8	7.46e-01	0	38	104	0	63	15781
2026-01-24 03:18:46.75	312.68	16.32	-45.0	-57.4	3.8	7.45e-01	0	38	104	0	61	15144
2026-01-24 03:18:48.74	312.17	16.33	-49.0	-64.1	3.7	7.43e-01	0	37	104	0	68	21985
2026-01-24 03:18:50.81	311.64	16.33	-45.9	-58.7	3.8	7.47e-01	0	38	104	0	62	16659
2026-01-24 03:18:52.80	311.12	16.34	-44.5	-57.1	3.8	7.45e-01	0	38	104	0	60	15477
2026-01-24 03:18:54.79	310.61	16.34	-44.2	-56.8	3.8	7.44e-01	0	37	104	0	60	14973
2026-01-24 03:18:56.77	310.10	16.34	-44.1	-56.7	3.8	7.41e-01	0	38	104	0	60	14761
2026-01-24 03:18:58.77	309.58	16.33	-47.5	-61.5	3.8	7.47e-01	0	38	104	0	67	17181
2026-01-24 03:19:00.75	309.07	16.33	-45.0	-57.6	3.8	7.45e-01	0	37	104	0	62	14618
2026-01-24 03:19:02.74	308.56	16.32	-44.4	-56.6	3.8	7.47e-01	0	38	104	0	60	14569
2026-01-24 03:19:04.73	308.04	16.31	-45.0	-57.5	3.8	7.45e-01	0	38	104	0	60	16247
2026-01-24 03:19:06.81	307.51	16.30	-49.6	-65.3	3.8	7.46e-01	0	38	104	0	69	23730
2026-01-24 03:19:08.83	306.99	16.28	-46.1	-58.5	3.8	7.46e-01	0	38	104	0	62	16130
2026-01-24 03:19:10.91	306.45	16.27	-44.0	-55.6	3.9	7.48e-01	0	38	104	0	60	13014
2026-01-24 03:19:12.90	305.94	16.25	-44.2	-55.9	3.8	7.45e-01	0	38	104	0	59	14250
2026-01-24 03:19:14.89	305.43	16.23	-44.6	-56.7	3.8	7.45e-01	0	38	104	0	59	15758
2026-01-24 03:19:16.88	304.92	16.20	-46.8	-59.9	3.8	7.43e-01	0	38	104	0	65	15946
2026-01-24 03:19:18.86	304.42	16.18	-44.7	-56.7	3.8	7.45e-01	0	38	104	0	61	13967
2026-01-24 03:19:20.85	303.91	16.15	-44.3	-56.4	3.8	7.49e-01	0	38	104	0	60	14221
2026-01-24 03:19:22.84	303.40	16.12	-44.7	-57.1	3.8	7.48e-01	0	38	104	0	60	15574
2026-01-24 03:19:24.83	302.90	16.09	-49.9	-66.0	3.8	7.49e-01	0	37	104	0	70	24303
2026-01-24 03:19:26.82	302.39	16.05	-47.7	-62.0	3.8	7.48e-01	0	37	104	0	66	19351
2026-01-24 03:19:28.81	301.89	16.02	-46.2	-58.9	3.8	7.44e-01	0	37	104	0	63	16012
2026-01-24 03:19:30.80	301.39	15.98	-46.2	-58.4	3.8	7.46e-01	0	37	104	0	63	15180
2026-01-24 03:19:32.79	300.89	15.94	-44.8	-56.9	3.9	7.46e-01	0	38	104	0	61	14341
2026-01-24 03:19:34.78	300.39	15.90	-47.1	-60.4	3.8	7.40e-01	0	38	104	0	66	16017
2026-01-24 03:19:36.77	299.89	15.85	-45.2	-57.9	3.8	7.50e-01	0	38	104	0	62	15109
2026-01-24 03:19:38.79	299.39	15.81	-44.6	-56.8	3.8	7.45e-01	0	38	104	0	61	14174
2026-01-24 03:19:40.81	298.89	15.76	-44.2	-55.9	3.8	7.43e-01	0	38	104	0	59	14245
2026-01-24 03:19:42.81	298.39	15.71	-49.5	-65.2	3.8	7.49e-01	0	38	104	0	69	23409
2026-01-24 03:19:44.80	297.90	15.65	-46.6	-59.4	3.8	7.45e-01	0	38	104	0	63	17011
2026-01-24 03:19:46.79	297.41	15.60	-45.1	-57.9	3.8	7.45e-01	0	38	104	0	61	16002
2026-01-24 03:19:48.97	296.88	15.54	-44.5	-57.2	3.8	7.47e-01	0	38	104	0	60	15595
2026-01-24 03:19:50.96	296.39	15.48	-44.4	-56.1	3.8	7.45e-01	0	38	104	0	60	13740
2026-01-24 03:19:52.95	295.91	15.42	-48.5	-62.5	3.8	7.44e-01	0	38	104	0	69	17104
2026-01-24 03:19:54.94	295.43	15.36	-46.3	-59.1	3.8	7.47e-01	0	38	104	0	64	15524
2026-01-24 03:19:56.93	294.95	15.30	-45.7	-57.8	3.8	7.44e-01	0	38	104	0	63	14198
2026-01-24 03:19:58.92	294.47	15.23	-49.5	-64.0	3.8	7.47e-01	0	38	104	0	69	20487
2026-01-24 03:20:00.90	294.00	15.17	-50.0	-66.2	3.8	7.44e-01	0	38	104	0	70	24725
2026-01-24 03:20:02.89	293.53	15.10	-47.5	-61.1	3.8	7.49e-01	0	38	104	0	65	18337
2026-01-24 03:20:04.88	293.06	15.03	-44.3	-56.2	3.8	7.43e-01	0	38	104	0	60	13927
2026-01-24 03:20:06.87	292.59	14.96	-44.2	-56.7	3.8	7.45e-01	0	38	104	0	60	14778
2026-01-24 03:20:08.86	292.13	14.89	-44.7	-57.1	3.8	7.45e-01	0	38	104	0	61	14650
2026-01-24 03:20:10.85	291.67	14.81	-50.5	-67.5	3.8	7.47e-01	0	38	104	0	71	27335
2026-01-24 03:20:12.88	291.20	14.73	-49.7	-65.7	3.8	7.47e-01	0	38	104	0	71	22146
2026-01-24 03:20:14.95	290.72	14.65	-49.1	-64.5	3.8	7.44e-01	0	38	104	0	70	20310
2026-01-24 03:20:16.97	290.26	14.57	-48.9	-63.8	3.8	7.49e-01	0	38	104	0	69	20040
2026-01-24 03:20:18.97	289.81	14.49	-45.1	-57.5	3.8	7.44e-01	0	38	104	0	62	14451
2026-01-24 03:20:20.96	289.36	14.41	-47.9	-61.4	3.8	7.44e-01	0	38	104	0	66	18076
2026-01-24 03:20:22.95	288.91	14.33	-44.7	-56.9	3.8	7.45e-01	0	38	104	0	61	14284
2026-01-24 03:20:24.94	288.47	14.24	-44.1	-56.0	3.8	7.47e-01	0	38	104	0	60	13696
2026-01-24 03:20:27.06	288.00	14.15	-44.5	-47.8	5.1	7.09e-01	0	38	104	0	60	5285
2026-01-24 03:20:29.00	287.57	14.07	-46.3	-49.8	19.9	6.02e-01	0	38	0	2621440	64	5320
2026-01-24 03:20:30.99	287.13	13.98	-45.2	-48.4	21.4	6.06e-01	0	38	0	6291456	62	5078
2026-01-24 03:20:32.97	286.70	13.89	-44.1	-46.8	23.0	6.03e-01	0	38	0	9961472	59	5025
2026-01-24 03:20:34.96	286.27	13.80	-44.5	-47.5	22.3	6.01e-01	0	38	0	13631488	60	5130
2026-01-24 03:20:36.95	285.85	13.71	-44.3	-47.0	22.9	6.03e-01	0	38	0	17825792	59	5148
2026-01-24 03:20:38.94	285.42	13.62	-43.7	-46.3	23.5	6.03e-01	0	38	0	21495808	59	4719
2026-01-24 03:20:40.93	285.00	13.52	-44.2	-46.9	23.1	6.03e-01	0	38	0	25165824	59	5073
2026-01-24 03:20:42.92	284.58	13.43	-43.2	-45.7	24.1	6.04e-01	0	38	0	28835840	58	4690
2026-01-24 03:20:44.96	284.16	13.33	-43.8	-46.5	23.4	6.06e-01	0	38	0	32505856	58	5124
2026-01-24 03:20:47.08	283.72	13.23	-43.4	-45.9	23.9	6.02e-01	0	38	0	36700160	58	4806
2026-01-24 03:20:49.13	283.29	13.12	-44.0	-46.6	23.2	6.03e-01	0	38	0	40370176	58	5216
2026-01-24 03:20:51.14	282.88	13.03	-43.7	-46.2	23.6	6.02e-01	0	38	0	44040192	58	4978
2026-01-24 03:20:53.13	282.48	12.93	-44.3	-47.1	22.8	6.01e-01	0	38	0	48234496	59	5196
2026-01-24 03:20:55.12	282.08	12.83	-43.5	-46.0	23.9	6.03e-01	0	38	0	51904512	59	4554
2026-01-24 03:20:57.11	281.68	12.72	-43.8	-46.5	23.5	6.05e-01	0	38	0	55574528	58	5102
2026-01-24 03:20:59.10	281.29	12.62	-43.7	-46.2	23.6	6.03e-01	0	38	0	59244544	58	4974
2026-01-24 03:21:01.09	280.89	12.52	-43.7	-46.3	23.5	6.03e-01	0	38	0	62914560	58	4995
2026-01-24 03:21:03.08	280.51	12.42	-43.6	-46.2	23.6	6.03e-01	0	38	0	66584576	58	4947
2026-01-24 03:21:05.07	280.12	12.31	-43.5	-46.1	23.7	6.03e-01	0	38	0	70254592	58	4922
2026-01-24 03:21:07.14	279.72	12.20	-43.6	-46.3	23.6	6.02e-01	0	38	0	74448896	58	5014
2026-01-24 03:21:09.16	279.34	12.09	-43.7	-46.4	23.5	6.03e-01	0	38	0	78118912	58	5050
2026-01-24 03:21:11.15	278.96	11.99	-43.7	-46.3	23.6	6.03e-01	0	38	0	81788928	58	5017
2026-01-24 03:21:13.13	278.59	11.88	-43.6	-46.2	23.6	6.02e-01	0	38	0	85458944	58	4975
2026-01-24 03:21:15.12	278.22	11.77	-43.7	-46.4	23.4	6.03e-01	0	38	0	89128960	58	5071
2026-01-24 03:21:17.12	277.85	11.67	-43.6	-46.4	23.5	6.05e-01	0	38	0	92798976	58	5047
2026-01-24 03:21:19.11	277.48	11.56	-43.7	-46.4	23.5	6.04e-01	0	38	0	96468992	58	5096
2026-01-24 03:21:21.10	277.12	11.45	-43.7	-46.4	23.5	6.03e-01	0	38	0	100139008	58	5056
2026-01-24 03:21:23.10	276.76	11.34	-43.7	-46.4	23.5	6.02e-01	0	38	0	104333312	58	5043
2026-01-24 03:21:25.09	276.40	11.23	-43.7	-46.4	23.4	6.03e-01	0	38	0	108003328	58	5096
2026-01-24 03:21:27.08	276.05	11.12	-43.7	-46.4	23.5	6.03e-01	0	38	0	111673344	58	5045
2026-01-24 03:21:29.07	275.70	11.01	-43.8	-46.6	23.3	6.02e-01	0	38	0	115343360	58	5166
2026-01-24 03:21:31.00	275.36	10.90	-43.9	-46.6	23.2	6.02e-01	0	38	0	119013376	58	5209
2026-01-24 03:21:32.99	275.01	10.79	-44.0	-46.7	23.2	6.06e-01	0	38	0	122683392	58	5241
2026-01-24 03:21:34.98	274.67	10.67	-43.8	-46.5	23.4	6.05e-01	0	38	0	126353408	58	5116
2026-01-24 03:21:36.97	274.33	10.56	-43.8	-46.6	23.3	6.03e-01	0	38	0	130023424	58	5169
2026-01-24 03:21:38.96	274.00	10.45	-43.8	-46.6	23.3	6.03e-01	0	38	0	133693440	58	5174
2026-01-24 03:21:40.98	273.66	10.33	-43.9	-46.6	23.2	6.02e-01	0	38	0	137887744	58	5200
2026-01-24 03:21:42.97	273.33	10.22	-43.9	-46.7	23.1	6.04e-01	0	38	0	141557760	58	5259
2026-01-24 03:21:44.96	273.00	10.11	-43.8	-46.6	23.2	6.01e-01	0	38	0	145227776	58	5207
2026-01-24 03:21:46.95	272.67	9.99	-43.7	-46.5	23.3	6.04e-01	0	38	0	148897792	58	5112
2026-01-24 03:21:48.94	272.35	9.88	-43.9	-46.7	23.1	6.03e-01	0	38	0	152567808	58	5254
2026-01-24 03:21:50.93	272.03	9.76	-44.0	-46.9	22.9	6.01e-01	0	38	0	156237824	58	5376
2026-01-24 03:21:52.91	271.72	9.65	-43.8	-46.8	23.0	6.02e-01	0	38	0	159907840	58	5301
2026-01-24 03:21:54.94	271.40	9.53	-43.9	-46.9	22.9	6.00e-01	0	38	0	164102144	58	5368
2026-01-24 03:21:56.98	271.08	9.41	-44.1	-47.0	22.8	6.02e-01	0	38	0	167772160	58	5431
2026-01-24 03:21:58.97	270.77	9.30	-44.2	-47.0	22.7	6.02e-01	0	38	0	171442176	59	5158
2026-01-24 03:22:00.96	270.46	9.18	-44.1	-46.8	22.9	6.02e-01	0	38	0	175112192	59	5036
2026-01-24 03:22:02.95	270.16	9.07	-44.1	-46.9	22.8	6.02e-01	0	38	0	178782208	59	5096
2026-01-24 03:22:04.94	269.86	8.95	-50.6	-69.2	4.8	7.60e-01	0	38	0	182452224	72	31218
2026-01-24 03:22:06.93	269.56	8.84	-51.0	-71.3	3.8	7.45e-01	0	38	104	182452224	72	39795
2026-01-24 03:22:08.91	269.27	8.72	-51.2	-71.5	3.8	7.44e-01	0	38	104	182452224	73	38297
2026-01-24 03:22:10.90	268.97	8.60	-51.1	-71.6	3.8	7.43e-01	0	38	104	182452224	73	38774
2026-01-24 03:22:12.89	268.68	8.49	-51.2	-71.6	3.8	7.45e-01	0	38	104	182452224	73	38897
2026-01-24 03:22:14.88	268.40	8.37	-51.1	-71.7	3.8	7.45e-01	0	38	104	182452224	73	39232
2026-01-24 03:22:16.86	268.11	8.26	-51.1	-71.6	3.8	7.47e-01	0	38	104	182452224	73	39091
2026-01-24 03:22:18.85	267.83	8.14	-51.1	-71.6	3.8	7.44e-01	0	38	104	182452224	73	39035
2026-01-24 03:22:20.84	267.55	8.02	-50.8	-71.6	3.8	7.42e-01	0	38	104	182452224	73	38931
2026-01-24 03:22:22.82	267.27	7.91	-51.2	-71.7	3.8	7.45e-01	0	38	104	182452224	74	37025
2026-01-24 03:22:24.81	267.00	7.79	-51.2	-71.7	3.8	7.49e-01	0	38	104	182452224	74	37147
2026-01-24 03:22:26.80	266.72	7.68	-51.2	-71.7	3.8	7.46e-01	0	38	104	182452224	74	37145
2026-01-24 03:22:28.78	266.45	7.56	-51.4	-71.7	3.8	7.46e-01	0	38	104	182452224	74	37062
2026-01-24 03:22:30.77	266.18	7.45	-51.3	-71.7	3.8	7.48e-01	0	38	104	182452224	74	36957
2026-01-24 03:22:32.76	265.92	7.33	-51.0	-71.6	3.8	7.49e-01	0	38	104	182452224	74	36715
2026-01-24 03:22:34.74	265.66	7.21	-51.0	-71.6	3.8	7.45e-01	0	38	104	182452224	74	36610
2026-01-24 03:22:36.73	265.39	7.10	-51.0	-71.6	3.8	7.47e-01	0	38	104	182452224	74	36632
2026-01-24 03:22:38.72	265.14	6.98	-51.1	-71.5	3.8	7.49e-01	0	38	104	182452224	74	36495
2026-01-24 03:22:40.71	264.88	6.87	-51.2	-71.6	3.8	7.47e-01	0	38	104	182452224	74	36567
2026-01-24 03:22:42.69	264.62	6.75	-51.0	-71.5	3.8	7.50e-01	0	38	104	182452224	74	36470
2026-01-24 03:22:44.68	264.37	6.64	-51.0	-71.5	3.8	7.47e-01	0	38	104	182452224	73	38617
2026-01-24 03:22:46.67	264.12	6.52	-50.9	-71.5	3.8	7.48e-01	0	38	104	182452224	73	38550
2026-01-24 03:22:48.65	263.88	6.41	-50.9	-71.5	3.8	7.42e-01	0	38	104	182452224	73	38519
2026-01-24 03:22:50.64	263.63	6.29	-50.9	-71.5	3.8	7.44e-01	0	38	104	182452224	73	38508
2026-01-24 03:22:52.63	263.39	6.18	-50.9	-71.5	3.8	7.44e-01	0	38	104	182452224	73	38496
2026-01-24 03:22:54.61	263.15	6.06	-51.0	-71.5	3.8	7.44e-01	0	38	104	182452224	73	38584
2026-01-24 03:22:56.60	262.91	5.95	-50.9	-71.5	3.8	7.48e-01	0	38	104	182452224	73	38495
2026-01-24 03:22:58.59	262.67	5.83	-51.0	-71.5	3.8	7.47e-01	0	38	104	182452224	73	38574
2026-01-24 03:23:00.57	262.43	5.72	-50.9	-71.5	3.8	7.48e-01	0	38	104	182452224	73	38502
2026-01-24 03:23:02.56	262.20	5.60	-51.0	-71.5	3.8	7.47e-01	0	38	104	182452224	73	38508
2026-01-24 03:23:04.55	261.97	5.49	-51.0	-71.5	3.8	7.43e-01	0	38	104	182452224	73	38480
2026-01-24 03:23:06.54	261.74	5.37	-50.9	-71.5	3.8	7.46e-01	0	38	104	182452224	73	38460
2026-01-24 03:23:08.52	261.51	5.26	-50.9	-71.5	3.8	7.44e-01	0	38	104	182452224	73	38513
2026-01-24 03:23:10.51	261.29	5.15	-50.9	-71.5	3.8	7.43e-01	0	38	104	182452224	73	38440
2026-01-24 03:23:12.50	261.07	5.03	-50.9	-71.5	3.8	7.45e-01	0	38	104	182452224	73	38458

#Closed at: 2026-01-24 03:23:14
#Recorded file [182 MB]: D:/Data/31040_260124_061436.dat