passes_logs/2026/01/24/T1/T1__20260124_105525_FENGYUN_3D_rec.log

#Pass ID: 20260124_105525_FENGYUN 3D
#Satellite: FENGYUN 3D
#Configuration: FENGYUN 3D
#almurnet v.1.7.20251203
#Start time: 2026-01-24 10:55:26

#Version: 2.0.20230620
#Station: T1
#Location: 37.570604 lon 55.790049 lat
#TLE: 1 43010U 17072A   26023.60174628  .00000324  00000+0  17481-3 0  9994
#TLE: 2 43010  98.9958 355.5514 0002482  93.7422 266.4037 14.19699955424476

#Time	Az	El	Level	Level2	SNR	BER	BlckErr	Temp	State	Recorded	gain1	gain2
2026-01-24 10:55:26.99	126.56	5.12	-48.7	-60.6	3.8	8.48e-01	0	35	0	0	69	13856
2026-01-24 10:55:29.96	126.39	5.32	-48.7	-60.6	3.8	8.47e-01	0	35	104	0	69	13789
2026-01-24 10:55:32.94	126.23	5.53	-48.7	-60.6	3.8	8.48e-01	0	35	104	0	69	13745
2026-01-24 10:55:35.92	126.06	5.73	-48.7	-60.6	3.8	8.46e-01	0	35	104	0	69	13880
2026-01-24 10:55:38.90	125.89	5.94	-48.7	-60.8	3.8	8.46e-01	0	36	104	0	69	14129
2026-01-24 10:55:41.88	125.71	6.14	-48.7	-60.8	3.8	8.46e-01	0	35	104	0	69	14114
2026-01-24 10:55:44.86	125.54	6.35	-48.7	-60.5	3.8	8.47e-01	0	36	104	0	69	13717
2026-01-24 10:55:47.84	125.36	6.56	-48.6	-60.2	3.8	8.46e-01	0	36	104	0	69	13192
2026-01-24 10:55:50.82	125.18	6.77	-48.6	-60.3	3.8	8.47e-01	0	36	104	0	69	13351
2026-01-24 10:55:53.80	124.99	6.98	-48.7	-60.8	3.8	8.48e-01	0	36	104	0	69	14150
2026-01-24 10:55:56.78	124.81	7.20	-48.6	-59.8	3.8	8.48e-01	0	36	104	0	69	12552
2026-01-24 10:55:59.76	124.62	7.41	-48.4	-58.0	3.9	8.44e-01	0	36	104	0	68	10860
2026-01-24 10:56:02.73	124.42	7.63	-47.6	-55.0	5.0	8.00e-01	0	36	0	0	67	8088
2026-01-24 10:56:05.71	124.23	7.85	-45.3	-49.1	10.3	1.19e-02	0	36	0	13631488	62	5521
2026-01-24 10:56:08.69	124.03	8.07	-42.0	-44.5	15.0	1.10e-06	0	36	0	30408704	56	4583
2026-01-24 10:56:11.67	123.83	8.29	-40.0	-42.1	17.2	0.00e+00	0	36	0	46137344	51	4647
2026-01-24 10:56:14.65	123.62	8.51	-39.9	-42.1	17.3	0.00e+00	0	36	0	63963136	51	4622
2026-01-24 10:56:17.63	123.41	8.74	-41.7	-44.1	15.3	0.00e+00	0	36	0	79691776	53	5218
2026-01-24 10:56:20.61	123.20	8.97	-45.2	-49.1	10.4	2.72e-03	0	37	0	97517568	61	5813
2026-01-24 10:56:23.59	122.99	9.20	-45.6	-49.5	9.9	8.43e-01	0	37	104	109051904	63	5429
2026-01-24 10:56:26.58	122.77	9.43	-46.7	-52.1	7.6	1.48e-05	0	37	0	123731968	64	6913
2026-01-24 10:56:29.56	122.54	9.66	-42.7	-45.4	14.3	1.10e-06	0	37	0	133169152	56	5075
2026-01-24 10:56:32.55	122.32	9.89	-40.9	-43.1	16.3	0.00e+00	0	37	0	149946368	53	4641
2026-01-24 10:56:35.53	122.09	10.13	-39.5	-41.6	17.9	0.00e+00	0	37	0	166723584	51	4358
2026-01-24 10:56:38.51	121.85	10.36	-38.7	-40.7	18.8	0.00e+00	0	37	0	183500800	49	4421
2026-01-24 10:56:41.50	121.61	10.60	-38.6	-40.6	18.8	0.00e+00	0	37	0	200278016	49	4373
2026-01-24 10:56:44.49	121.37	10.85	-38.4	-40.3	19.1	0.00e+00	0	37	0	217055232	48	4493
2026-01-24 10:56:47.47	121.13	11.09	-38.3	-40.3	19.2	0.00e+00	0	37	0	233832448	48	4444
2026-01-24 10:56:50.45	120.87	11.33	-37.9	-39.8	19.4	0.00e+00	0	37	0	250609664	47	4464
2026-01-24 10:56:53.44	120.62	11.58	-37.8	-39.8	19.4	0.00e+00	0	37	0	267386880	47	4461
2026-01-24 10:56:56.42	120.36	11.83	-38.0	-40.0	19.2	0.00e+00	0	37	0	284164096	47	4555
2026-01-24 10:56:59.41	120.10	12.08	-38.0	-39.9	19.3	0.00e+00	0	37	0	300941312	47	4535
2026-01-24 10:57:02.40	119.83	12.33	-38.2	-40.2	19.0	0.00e+00	0	37	0	317718528	47	4678
2026-01-24 10:57:05.38	119.55	12.59	-38.0	-39.9	19.2	0.00e+00	0	37	0	334495744	47	4539
2026-01-24 10:57:08.37	119.27	12.85	-37.7	-39.7	19.5	0.00e+00	0	37	0	351272960	47	4412
2026-01-24 10:57:11.35	118.99	13.11	-37.5	-39.4	19.7	0.00e+00	0	37	0	368050176	47	4269
2026-01-24 10:57:14.34	118.70	13.37	-37.5	-39.4	19.8	0.00e+00	0	37	0	384827392	46	4514
2026-01-24 10:57:17.33	118.41	13.63	-37.5	-39.4	19.7	0.00e+00	0	37	0	401604608	46	4534
2026-01-24 10:57:20.31	118.11	13.90	-37.2	-39.2	19.9	0.00e+00	0	37	0	418381824	46	4402
2026-01-24 10:57:23.29	117.80	14.16	-37.3	-39.2	19.9	0.00e+00	0	37	0	435159040	46	4429
2026-01-24 10:57:26.28	117.49	14.43	-37.1	-39.0	20.1	0.00e+00	0	37	0	451936256	46	4312
2026-01-24 10:57:29.26	117.18	14.70	-36.9	-38.7	20.3	0.00e+00	0	37	0	468713472	45	4434
2026-01-24 10:57:32.25	116.85	14.98	-36.8	-38.6	20.5	0.00e+00	0	37	0	485490688	45	4379
2026-01-24 10:57:35.23	116.53	15.25	-36.9	-38.7	20.3	0.00e+00	0	37	0	502267904	45	4429
2026-01-24 10:57:38.22	116.19	15.53	-36.9	-38.8	20.3	0.00e+00	0	37	0	519045120	45	4469
2026-01-24 10:57:41.21	115.85	15.81	-36.9	-38.8	20.2	0.00e+00	0	37	0	535822336	45	4476
2026-01-24 10:57:44.19	115.50	16.09	-36.9	-38.7	20.3	0.00e+00	0	37	0	552599552	45	4440
2026-01-24 10:57:47.17	115.15	16.38	-36.7	-38.6	20.4	0.00e+00	0	37	0	569376768	45	4383
2026-01-24 10:57:50.15	114.79	16.67	-36.7	-38.5	20.6	0.00e+00	0	37	0	586153984	45	4327
2026-01-24 10:57:53.14	114.42	16.95	-36.5	-38.4	20.7	0.00e+00	0	37	0	602931200	45	4257
2026-01-24 10:57:56.12	114.04	17.25	-36.4	-38.3	20.8	0.00e+00	0	37	0	619708416	44	4449
2026-01-24 10:57:59.11	113.66	17.54	-36.3	-38.2	20.9	0.00e+00	0	37	0	636485632	44	4399
2026-01-24 10:58:02.09	113.27	17.83	-35.8	-37.6	21.3	0.00e+00	0	38	0	654311424	43	4342
2026-01-24 10:58:05.08	112.87	18.13	-36.0	-37.8	21.1	0.00e+00	0	37	0	670040064	43	4474
2026-01-24 10:58:08.07	112.46	18.43	-35.9	-37.7	21.1	0.00e+00	0	37	0	686817280	43	4439
2026-01-24 10:58:11.05	112.04	18.74	-36.0	-37.8	21.1	0.00e+00	0	37	0	704643072	43	4486
2026-01-24 10:58:14.03	111.62	19.04	-35.8	-37.7	21.2	0.00e+00	0	37	0	720371712	43	4402
2026-01-24 10:58:17.02	111.19	19.35	-35.6	-37.4	21.5	0.00e+00	0	37	0	738197504	43	4261
2026-01-24 10:58:20.00	110.75	19.65	-35.6	-37.4	21.5	0.00e+00	0	37	0	754974720	43	4244
2026-01-24 10:58:22.99	110.30	19.96	-35.6	-37.4	21.4	0.00e+00	0	37	0	770703360	43	4289
2026-01-24 10:58:25.97	109.84	20.28	-35.7	-37.5	21.4	0.00e+00	0	38	0	788529152	43	4304
2026-01-24 10:58:28.96	109.37	20.59	-35.3	-37.1	21.6	0.00e+00	0	37	0	805306368	42	4380
2026-01-24 10:58:31.94	108.89	20.91	-35.3	-37.1	21.7	0.00e+00	0	37	0	821035008	42	4376
2026-01-24 10:58:34.93	108.40	21.23	-35.2	-36.9	21.9	0.00e+00	0	37	0	838860800	42	4286
2026-01-24 10:58:37.91	107.90	21.55	-35.4	-37.2	21.7	0.00e+00	0	37	0	855638016	42	4393
2026-01-24 10:58:40.89	107.39	21.87	-35.3	-37.1	21.6	0.00e+00	0	37	0	872415232	42	4389
2026-01-24 10:58:43.88	106.87	22.19	-35.2	-37.0	21.8	0.00e+00	0	37	0	889192448	42	4318
2026-01-24 10:58:46.86	106.34	22.51	-35.2	-37.0	21.8	0.00e+00	0	37	0	905969664	42	4308
2026-01-24 10:58:49.85	105.79	22.84	-35.0	-36.8	22.0	0.00e+00	0	37	0	922746880	42	4212
2026-01-24 10:58:52.83	105.24	23.17	-35.0	-36.7	22.0	0.00e+00	0	37	0	939524096	41	4438
2026-01-24 10:58:55.81	104.67	23.50	-35.1	-36.9	21.8	0.00e+00	0	37	0	956301312	41	4518
2026-01-24 10:58:58.80	104.09	23.83	-34.9	-36.7	22.0	0.00e+00	0	37	0	973078528	41	4429
2026-01-24 10:59:01.79	103.50	24.16	-35.0	-36.8	22.0	0.00e+00	0	38	0	989855744	41	4456
2026-01-24 10:59:04.77	102.89	24.49	-34.7	-36.4	22.3	0.00e+00	0	37	0	1006632960	41	4278
2026-01-24 10:59:07.76	102.28	24.82	-34.5	-36.3	22.3	0.00e+00	0	37	0	1023410176	41	4211
2026-01-24 10:59:10.74	101.65	25.15	-34.5	-36.3	22.3	0.00e+00	0	38	0	1040187392	41	4200
2026-01-24 10:59:13.72	101.00	25.48	-34.6	-36.3	22.3	0.00e+00	0	37	0	1056964608	41	4235
2026-01-24 10:59:16.71	100.34	25.82	-34.5	-36.2	22.5	0.00e+00	0	37	0	1073741824	40	4410
2026-01-24 10:59:19.70	99.67	26.15	-34.4	-36.1	22.6	0.00e+00	0	37	0	1090519040	40	4367
2026-01-24 10:59:22.69	98.98	26.48	-34.3	-36.1	22.6	0.00e+00	0	37	0	1107296256	40	4358
2026-01-24 10:59:25.67	98.28	26.81	-34.3	-36.1	22.6	0.00e+00	0	37	0	1124073472	40	4358
2026-01-24 10:59:28.66	97.57	27.15	-34.2	-35.9	22.7	0.00e+00	0	38	0	1140850688	40	4269
2026-01-24 10:59:31.64	96.84	27.48	-34.0	-35.7	22.9	0.00e+00	0	37	0	1157627904	40	4188
2026-01-24 10:59:34.62	96.09	27.80	-34.1	-35.8	22.8	0.00e+00	0	37	0	1174405120	40	4239
2026-01-24 10:59:37.61	95.33	28.13	-34.3	-36.0	22.6	0.00e+00	0	38	0	1191182336	40	4331
2026-01-24 10:59:40.59	94.55	28.46	-34.4	-36.1	22.6	0.00e+00	0	37	0	1207959552	40	4374
2026-01-24 10:59:43.58	93.76	28.78	-34.2	-35.9	22.7	0.00e+00	0	38	0	1224736768	40	4276
2026-01-24 10:59:46.56	92.95	29.10	-34.0	-35.8	22.8	0.00e+00	0	37	0	1241513984	40	4214
2026-01-24 10:59:49.55	92.12	29.42	-34.0	-35.8	22.9	0.00e+00	0	37	0	1258291200	40	4196
2026-01-24 10:59:52.53	91.28	29.73	-34.0	-35.7	22.9	0.00e+00	0	38	0	1275068416	40	4177
2026-01-24 10:59:55.51	90.42	30.04	-33.8	-35.5	23.2	0.00e+00	0	37	0	1291845632	39	4306
2026-01-24 10:59:58.50	89.55	30.35	-33.7	-35.4	23.2	0.00e+00	0	37	0	1308622848	39	4275
2026-01-24 11:00:01.49	88.65	30.65	-33.9	-35.6	23.0	0.00e+00	0	38	0	1325400064	39	4372
2026-01-24 11:00:04.47	87.75	30.95	-34.0	-35.7	23.0	0.00e+00	0	38	0	1342177280	39	4410
2026-01-24 11:00:07.46	86.82	31.24	-33.6	-35.3	23.4	0.00e+00	0	38	0	1358954496	39	4203
2026-01-24 11:00:10.44	85.88	31.52	-33.8	-35.5	23.2	0.00e+00	0	38	0	1375731712	39	4315
2026-01-24 11:00:13.43	84.92	31.80	-33.7	-35.5	23.2	0.00e+00	0	37	0	1392508928	39	4292
2026-01-24 11:00:16.41	83.94	32.08	-33.5	-35.2	23.4	0.00e+00	0	37	0	1409286144	38	4403
2026-01-24 11:00:19.39	82.95	32.34	-33.5	-35.2	23.4	0.00e+00	0	37	0	1426063360	38	4422
2026-01-24 11:00:22.38	81.94	32.60	-33.6	-35.4	23.3	0.00e+00	0	38	0	1442840576	38	4499
2026-01-24 11:00:25.37	80.92	32.85	-33.5	-35.2	23.4	0.00e+00	0	38	0	1459617792	38	4440
2026-01-24 11:00:28.35	79.88	33.09	-33.6	-35.4	23.2	0.00e+00	0	38	0	1476395008	38	4502
2026-01-24 11:00:31.34	78.82	33.33	-33.7	-35.4	23.2	0.00e+00	0	37	0	1493172224	38	4544
2026-01-24 11:00:34.33	77.75	33.55	-33.8	-35.5	23.1	0.00e+00	0	37	0	1509949440	38	4585
2026-01-24 11:00:37.31	76.67	33.76	-33.7	-35.4	23.2	0.00e+00	0	38	0	1526726656	38	4520
2026-01-24 11:00:40.30	75.57	33.97	-33.5	-35.2	23.4	0.00e+00	0	38	0	1543503872	38	4399
2026-01-24 11:00:43.28	74.46	34.16	-33.6	-35.3	23.3	0.00e+00	0	38	0	1560281088	38	4444
2026-01-24 11:00:46.27	73.33	34.34	-33.5	-35.2	23.3	0.00e+00	0	38	0	1577058304	38	4432
2026-01-24 11:00:49.25	72.20	34.51	-33.4	-35.1	23.5	0.00e+00	0	38	0	1593835520	38	4375
2026-01-24 11:00:52.24	71.04	34.67	-33.9	-35.6	22.8	0.00e+00	0	38	0	1610612736	38	4649
2026-01-24 11:00:55.23	69.88	34.81	-33.5	-35.2	23.4	0.00e+00	0	37	0	1627389952	38	4423
2026-01-24 11:00:58.21	68.72	34.94	-33.4	-35.1	23.5	0.00e+00	0	37	0	1644167168	38	4378
2026-01-24 11:01:01.19	67.54	35.06	-33.5	-35.3	23.3	0.00e+00	0	38	0	1660944384	38	4444
2026-01-24 11:01:04.18	66.35	35.17	-33.3	-35.0	23.6	0.00e+00	0	37	0	1677721600	38	4307
2026-01-24 11:01:07.17	65.16	35.26	-33.3	-35.0	23.6	0.00e+00	0	37	0	1694498816	38	4322
2026-01-24 11:01:10.15	63.96	35.34	-33.3	-35.0	23.6	0.00e+00	0	37	0	1711276032	38	4330
2026-01-24 11:01:13.14	62.76	35.40	-33.5	-35.2	23.4	0.00e+00	0	37	0	1728053248	38	4405
2026-01-24 11:01:16.12	61.55	35.45	-33.3	-34.9	23.6	0.00e+00	0	37	0	1744830464	38	4288
2026-01-24 11:01:19.10	60.34	35.48	-33.7	-35.4	23.3	0.00e+00	0	37	0	1761607680	38	4506
2026-01-24 11:01:22.09	59.12	35.50	-33.4	-35.1	23.4	0.00e+00	0	38	0	1778384896	38	4377
2026-01-24 11:01:25.07	57.91	35.51	-33.4	-35.1	23.5	0.00e+00	0	37	0	1795162112	38	4351
2026-01-24 11:01:28.05	56.70	35.50	-33.4	-35.1	23.4	0.00e+00	0	38	0	1811939328	38	4391
2026-01-24 11:01:31.04	55.49	35.47	-33.5	-35.2	23.4	0.00e+00	0	37	0	1828716544	38	4436
2026-01-24 11:01:34.02	54.28	35.44	-33.6	-35.3	23.3	0.00e+00	0	37	0	1845493760	38	4479
2026-01-24 11:01:37.00	53.07	35.38	-33.7	-35.5	23.2	0.00e+00	0	37	0	1862270976	38	4549
2026-01-24 11:01:39.99	51.87	35.32	-33.7	-35.4	23.2	0.00e+00	0	38	0	1879048192	38	4530
2026-01-24 11:01:42.97	50.68	35.24	-33.7	-35.4	23.3	0.00e+00	0	37	0	1895825408	38	4512
2026-01-24 11:01:45.95	49.49	35.14	-33.3	-35.0	23.6	0.00e+00	0	38	0	1912602624	38	4319
2026-01-24 11:01:48.94	48.30	35.03	-33.4	-35.1	23.5	0.00e+00	0	38	0	1930428416	38	4345
2026-01-24 11:01:51.92	47.13	34.91	-33.7	-35.4	23.2	0.00e+00	0	38	0	1946157056	38	4526
2026-01-24 11:01:54.91	45.96	34.77	-33.6	-35.3	23.3	0.00e+00	0	37	0	1962934272	38	4482
2026-01-24 11:01:57.89	44.81	34.63	-33.3	-34.9	23.6	0.00e+00	0	37	0	1979711488	38	4291
2026-01-24 11:02:00.87	43.67	34.47	-33.4	-35.1	23.5	0.00e+00	0	37	0	1996488704	38	4374
2026-01-24 11:02:03.86	42.54	34.29	-33.5	-35.2	23.4	0.00e+00	0	37	0	2013265920	38	4405
2026-01-24 11:02:06.85	41.42	34.11	-33.7	-35.4	23.2	0.00e+00	0	37	0	2031091712	38	4543
2026-01-24 11:02:09.83	40.31	33.91	-33.6	-35.3	23.4	0.00e+00	0	37	0	2046820352	38	4469
2026-01-24 11:02:12.82	39.22	33.71	-33.7	-35.4	22.8	0.00e+00	0	38	0	2063597568	38	4531
2026-01-24 11:02:15.80	38.14	33.49	-33.7	-35.4	23.9	0.00e+00	0	38	0	2081423360	38	4501
2026-01-24 11:02:18.79	37.08	33.27	-33.5	-35.1	24.1	0.00e+00	0	38	0	2097152000	38	4380
2026-01-24 11:02:21.77	36.03	33.03	-33.6	-35.2	24.1	0.00e+00	0	38	0	2113929216	38	4421
2026-01-24 11:02:24.75	35.00	32.79	-33.5	-35.1	24.2	0.00e+00	0	38	0	2131755008	38	4353
2026-01-24 11:02:27.73	33.98	32.54	-33.6	-35.3	24.1	0.00e+00	0	38	0	2147483648	38	4450
2026-01-24 11:02:30.72	32.98	32.28	-33.7	-35.3	24.0	0.00e+00	0	37	0	2164260864	38	4482
2026-01-24 11:02:33.70	32.00	32.01	-33.7	-35.3	24.0	0.00e+00	0	37	0	2182086656	38	4492
2026-01-24 11:02:36.68	31.03	31.74	-33.8	-35.4	23.9	0.00e+00	0	38	0	2197815296	38	4513
2026-01-24 11:02:39.67	30.08	31.46	-33.9	-35.5	23.9	0.00e+00	0	38	0	2214592512	38	4578
2026-01-24 11:02:42.66	29.14	31.17	-33.9	-35.6	23.8	0.00e+00	0	38	0	2232418304	38	4607
2026-01-24 11:02:45.64	28.22	30.88	-33.8	-35.5	23.8	0.00e+00	0	37	0	2249195520	38	4556
2026-01-24 11:02:48.63	27.32	30.58	-33.9	-35.5	23.8	0.00e+00	0	38	0	2264924160	38	4579
2026-01-24 11:02:51.61	26.44	30.28	-33.9	-35.5	23.8	0.00e+00	0	38	0	2282749952	38	4589
2026-01-24 11:02:54.60	25.57	29.97	-33.9	-35.5	23.8	0.00e+00	0	37	0	2299527168	38	4589
2026-01-24 11:02:57.58	24.72	29.66	-33.8	-35.4	23.9	0.00e+00	0	38	0	2315255808	38	4533
2026-01-24 11:03:00.56	23.89	29.35	-33.9	-35.6	23.8	0.00e+00	0	38	0	2333081600	38	4603
2026-01-24 11:03:03.55	23.07	29.03	-34.0	-35.6	23.7	0.00e+00	0	37	0	2349858816	38	4629
2026-01-24 11:03:06.53	22.26	28.71	-33.9	-35.5	23.8	0.00e+00	0	37	0	2366636032	38	4590
2026-01-24 11:03:09.51	21.48	28.39	-34.1	-35.7	23.7	0.00e+00	0	38	0	2383413248	38	4680
2026-01-24 11:03:12.50	20.71	28.07	-34.0	-35.6	23.7	0.00e+00	0	37	0	2400190464	38	4649
2026-01-24 11:03:15.49	19.95	27.74	-34.1	-35.7	23.6	0.00e+00	0	38	0	2416967680	38	4696
2026-01-24 11:03:18.47	19.22	27.41	-34.2	-35.8	23.5	0.00e+00	0	37	0	2433744896	39	4492
2026-01-24 11:03:21.45	18.49	27.08	-34.3	-35.9	23.4	0.00e+00	0	38	0	2450522112	39	4522
2026-01-24 11:03:24.44	17.78	26.75	-34.4	-36.0	23.3	0.00e+00	0	38	0	2467299328	39	4591
2026-01-24 11:03:27.43	17.09	26.42	-34.5	-36.1	23.2	0.00e+00	0	37	0	2484076544	39	4644
2026-01-24 11:03:30.41	16.41	26.09	-34.7	-36.4	23.0	0.00e+00	0	38	0	2500853760	40	4499
2026-01-24 11:03:33.40	15.74	25.76	-34.6	-36.3	23.0	0.00e+00	0	38	0	2517630976	40	4463
2026-01-24 11:03:36.38	15.09	25.43	-34.8	-36.5	22.9	0.00e+00	0	38	0	2534408192	40	4548
2026-01-24 11:03:39.37	14.45	25.10	-34.7	-36.4	22.9	0.00e+00	0	38	0	2551185408	40	4537
2026-01-24 11:03:42.35	13.83	24.77	-34.6	-36.3	23.0	0.00e+00	0	37	0	2567962624	40	4471
2026-01-24 11:03:45.34	13.22	24.43	-34.8	-36.5	22.8	0.00e+00	0	37	0	2584739840	40	4579
2026-01-24 11:03:48.33	12.62	24.10	-34.9	-36.6	22.7	0.00e+00	0	37	0	2601517056	40	4622
2026-01-24 11:03:51.31	12.04	23.78	-34.9	-36.6	22.7	0.00e+00	0	38	0	2618294272	40	4631
2026-01-24 11:03:54.30	11.46	23.45	-34.8	-36.5	22.8	0.00e+00	0	37	0	2635071488	40	4576
2026-01-24 11:03:57.28	10.90	23.12	-34.8	-36.5	22.9	0.00e+00	0	38	0	2651848704	40	4549
2026-01-24 11:04:00.27	10.35	22.80	-34.7	-36.3	23.0	0.00e+00	0	37	0	2668625920	40	4480
2026-01-24 11:04:03.25	9.81	22.47	-34.6	-36.3	23.0	0.00e+00	0	38	0	2685403136	40	4489
2026-01-24 11:04:06.23	9.29	22.15	-34.8	-36.5	22.8	0.00e+00	0	37	0	2702180352	40	4554
2026-01-24 11:04:09.22	8.77	21.83	-34.8	-36.5	22.8	0.00e+00	0	37	0	2718957568	40	4552
2026-01-24 11:04:12.21	8.27	21.51	-34.9	-36.6	22.7	0.00e+00	0	38	0	2735734784	40	4629
2026-01-24 11:04:15.19	7.77	21.19	-35.0	-36.7	22.7	0.00e+00	0	37	0	2752512000	40	4673
2026-01-24 11:04:18.17	7.29	20.87	-35.2	-36.9	22.4	0.00e+00	0	38	0	2769289216	41	4520
2026-01-24 11:04:21.16	6.82	20.56	-35.1	-36.8	22.5	0.00e+00	0	37	0	2786066432	41	4458
2026-01-24 11:04:24.15	6.35	20.25	-35.0	-36.8	22.5	0.00e+00	0	38	0	2802843648	41	4448
2026-01-24 11:04:27.13	5.90	19.94	-35.1	-36.8	22.5	0.00e+00	0	38	0	2819620864	41	4469
2026-01-24 11:04:30.12	5.45	19.63	-35.2	-36.9	22.4	0.00e+00	0	37	0	2836398080	41	4539
2026-01-24 11:04:33.10	5.02	19.32	-35.3	-37.1	22.2	0.00e+00	0	38	0	2853175296	41	4608
2026-01-24 11:04:36.09	4.59	19.02	-35.4	-37.1	22.2	0.00e+00	0	37	0	2869952512	41	4643
2026-01-24 11:04:39.07	4.17	18.71	-35.5	-37.2	22.1	0.00e+00	0	37	0	2886729728	41	4705
2026-01-24 11:04:42.05	3.76	18.41	-35.6	-37.4	21.9	0.00e+00	0	37	0	2903506944	41	4769
2026-01-24 11:04:45.04	3.36	18.12	-35.7	-37.4	21.9	0.00e+00	0	38	0	2920284160	42	4537
2026-01-24 11:04:48.02	2.96	17.82	-35.7	-37.5	21.8	0.00e+00	0	37	0	2937061376	42	4564
2026-01-24 11:04:51.00	2.58	17.53	-35.9	-37.6	21.7	0.00e+00	0	37	0	2953838592	42	4626
2026-01-24 11:04:53.99	2.20	17.23	-36.0	-37.8	21.6	0.00e+00	0	38	0	2970615808	42	4726
2026-01-24 11:04:56.97	1.83	16.94	-36.1	-37.8	21.5	0.00e+00	0	38	0	2987393024	42	4753
2026-01-24 11:04:59.96	1.46	16.66	-36.1	-37.9	21.4	0.00e+00	0	38	0	3004170240	43	4505
2026-01-24 11:05:02.94	1.11	16.37	-36.1	-37.8	21.5	0.00e+00	0	38	0	3020947456	43	4484
2026-01-24 11:05:05.93	0.76	16.09	-36.2	-37.9	21.4	0.00e+00	0	37	0	3037724672	43	4544
2026-01-24 11:05:08.91	0.41	15.81	-36.2	-38.0	21.4	0.00e+00	0	38	0	3054501888	43	4563
2026-01-24 11:05:11.89	0.08	15.53	-36.4	-38.2	21.2	0.00e+00	0	38	0	3071279104	43	4663
2026-01-24 11:05:14.88	359.75	15.25	-36.5	-38.3	21.0	0.00e+00	0	37	0	3088056320	43	4757
2026-01-24 11:05:17.87	359.42	14.98	-36.8	-38.6	20.9	0.00e+00	0	37	0	3104833536	44	4648
2026-01-24 11:05:20.85	359.10	14.71	-36.8	-38.6	20.9	0.00e+00	0	37	0	3121610752	44	4637
2026-01-24 11:05:23.83	358.79	14.44	-36.8	-38.6	20.9	0.00e+00	0	38	0	3138387968	44	4641
2026-01-24 11:05:26.82	358.49	14.17	-36.9	-38.7	20.8	0.00e+00	0	38	0	3155165184	44	4657
2026-01-24 11:05:29.80	358.19	13.90	-36.9	-38.7	20.8	0.00e+00	0	37	0	3171942400	44	4692
2026-01-24 11:05:32.78	357.89	13.64	-37.1	-38.9	20.6	0.00e+00	0	38	0	3188719616	44	4808
2026-01-24 11:05:35.77	357.60	13.38	-37.1	-38.9	20.6	0.00e+00	0	38	0	3205496832	44	4814
2026-01-24 11:05:38.75	357.32	13.12	-37.3	-39.1	20.4	0.00e+00	0	38	0	3222274048	45	4639
2026-01-24 11:05:41.74	357.04	12.86	-37.4	-39.2	20.3	0.00e+00	0	38	0	3239051264	45	4699
2026-01-24 11:05:44.72	356.76	12.60	-37.4	-39.4	20.1	0.00e+00	0	38	0	3255828480	45	4770
2026-01-24 11:05:47.71	356.49	12.35	-37.5	-39.6	20.0	0.00e+00	0	38	0	3272605696	45	4879
2026-01-24 11:05:50.69	356.23	12.10	-37.4	-39.5	20.0	0.00e+00	0	38	0	3289382912	45	4820
2026-01-24 11:05:53.67	355.97	11.85	-37.4	-39.5	20.0	0.00e+00	0	38	0	3306160128	45	4818
2026-01-24 11:05:56.66	355.71	11.60	-37.4	-39.4	20.1	0.00e+00	0	38	0	3322937344	45	4773
2026-01-24 11:05:59.64	355.46	11.36	-37.4	-39.4	20.1	0.00e+00	0	38	0	3339714560	45	4768
2026-01-24 11:06:02.63	355.22	11.11	-37.5	-39.6	19.9	0.00e+00	0	38	0	3356491776	45	4871
2026-01-24 11:06:05.61	354.97	10.87	-37.4	-39.7	19.8	0.00e+00	0	38	0	3373268992	45	4934
2026-01-24 11:06:08.60	354.73	10.63	-37.3	-39.7	19.8	0.00e+00	0	37	0	3390046208	45	4945
2026-01-24 11:06:11.58	354.50	10.39	-37.3	-39.8	19.6	0.00e+00	0	38	0	3406823424	45	5020
2026-01-24 11:06:14.56	354.27	10.16	-37.5	-40.0	19.5	0.00e+00	0	38	0	3423600640	45	5127
2026-01-24 11:06:17.55	354.04	9.92	-37.5	-40.0	19.5	0.00e+00	0	38	0	3440377856	46	4841
2026-01-24 11:06:20.53	353.82	9.69	-37.3	-40.0	19.5	0.00e+00	0	38	0	3457155072	46	4822
2026-01-24 11:06:23.52	353.60	9.46	-37.3	-39.9	19.6	0.00e+00	0	37	0	3473932288	46	4767
2026-01-24 11:06:26.50	353.39	9.23	-37.7	-40.0	19.4	0.00e+00	0	38	0	3490709504	46	4858
2026-01-24 11:06:29.49	353.17	9.00	-38.0	-40.2	19.2	0.00e+00	0	38	0	3507486720	46	4974
2026-01-24 11:06:32.47	352.97	8.78	-48.5	-61.1	3.8	8.47e-01	0	38	104	3510632448	67	16470
2026-01-24 11:06:35.45	352.76	8.55	-48.9	-61.5	3.8	8.47e-01	0	38	104	3510632448	68	16306
2026-01-24 11:06:38.43	352.56	8.33	-49.0	-61.6	3.8	8.48e-01	0	38	104	3510632448	69	15517
2026-01-24 11:06:41.40	352.36	8.11	-49.4	-61.7	3.8	8.47e-01	0	38	104	3510632448	69	15618
2026-01-24 11:06:44.38	352.17	7.89	-49.5	-61.7	3.8	8.46e-01	0	38	104	3510632448	69	15651
2026-01-24 11:06:47.36	351.98	7.67	-49.2	-61.7	3.8	8.47e-01	0	38	104	3510632448	69	15641
2026-01-24 11:06:50.34	351.79	7.46	-49.6	-61.7	3.8	8.47e-01	0	38	104	3510632448	69	15636
2026-01-24 11:06:53.32	351.60	7.24	-49.6	-61.7	3.8	8.48e-01	0	38	104	3510632448	69	15585
2026-01-24 11:06:56.30	351.42	7.03	-49.5	-61.7	3.8	8.47e-01	0	38	104	3510632448	69	15690
2026-01-24 11:06:59.28	351.24	6.82	-49.3	-61.7	3.8	8.46e-01	0	38	104	3510632448	69	15644
2026-01-24 11:07:02.26	351.06	6.61	-49.3	-61.7	3.8	8.47e-01	0	38	104	3510632448	69	15617
2026-01-24 11:07:05.24	350.88	6.40	-49.3	-61.6	3.8	8.47e-01	0	38	104	3510632448	69	15535
2026-01-24 11:07:08.22	350.71	6.19	-49.3	-61.7	3.8	8.47e-01	0	38	104	3510632448	69	15609
2026-01-24 11:07:11.20	350.54	5.98	-49.3	-61.7	3.8	8.47e-01	0	38	104	3510632448	69	15595
2026-01-24 11:07:14.18	350.38	5.78	-49.3	-61.7	3.8	8.47e-01	0	38	104	3510632448	69	15590
2026-01-24 11:07:17.16	350.21	5.58	-49.3	-61.6	3.8	8.47e-01	0	38	104	3510632448	69	15535
2026-01-24 11:07:20.13	350.05	5.38	-49.3	-61.6	3.8	8.47e-01	0	38	104	3510632448	69	15573
2026-01-24 11:07:23.11	349.89	5.17	-49.3	-61.6	3.8	8.47e-01	0	38	104	3510632448	69	15487
2026-01-24 11:07:26.09	349.73	4.98	-49.3	-61.6	3.8	8.47e-01	0	38	104	3510632448	69	15505

#Closed at: 2026-01-24 11:07:27
#Recorded file [3510 MB]: D:/Data/31040_260124_135526.dat