passes_logs/2026/01/24/T1/T1__20260124_024434_FENGYUN_3D_rec.log

#Pass ID: 20260124_024434_FENGYUN 3D
#Satellite: FENGYUN 3D
#Configuration: FENGYUN 3D
#almurnet v.1.7.20251203
#Start time: 2026-01-24 02:44:34

#Version: 2.0.20230620
#Station: T1
#Location: 37.570604 lon 55.790049 lat
#TLE: 1 43010U 17072A   26022.96745493  .00000490  00000+0  25355-3 0  9999
#TLE: 2 43010  98.9955 354.9072 0002484  95.6139 264.5320 14.19700039424383

#Time	Az	El	Level	Level2	SNR	BER	BlckErr	Temp	State	Recorded	gain1	gain2
2026-01-24 02:44:34.45	11.03	5.01	-48.2	-62.0	3.8	8.47e-01	0	35	0	0	68	17122
2026-01-24 02:44:37.43	10.89	5.22	-46.7	-61.5	3.8	8.48e-01	0	35	104	0	64	20408
2026-01-24 02:44:40.41	10.75	5.42	-46.7	-61.5	3.8	8.46e-01	0	35	104	0	64	20431
2026-01-24 02:44:43.39	10.61	5.63	-46.7	-61.5	3.8	8.47e-01	0	35	104	0	64	20312
2026-01-24 02:44:46.37	10.47	5.83	-46.7	-61.4	3.8	8.48e-01	0	35	104	0	64	20275
2026-01-24 02:44:49.35	10.32	6.04	-46.7	-61.5	3.8	8.47e-01	0	35	104	0	64	20335
2026-01-24 02:44:52.33	10.17	6.25	-46.7	-61.4	3.8	8.47e-01	0	35	104	0	64	20211
2026-01-24 02:44:55.31	10.02	6.46	-46.8	-61.3	3.8	8.48e-01	0	36	104	0	64	19936
2026-01-24 02:44:58.29	9.87	6.68	-46.7	-60.8	3.8	8.46e-01	0	36	104	0	64	18737
2026-01-24 02:45:01.27	9.72	6.89	-46.7	-59.5	3.8	8.46e-01	0	36	104	0	64	16277
2026-01-24 02:45:04.25	9.56	7.11	-46.6	-58.3	4.1	8.41e-01	0	36	0	0	64	14102
2026-01-24 02:45:07.22	9.40	7.32	-46.6	-58.3	4.1	8.40e-01	0	36	0	0	64	14110
2026-01-24 02:45:10.20	9.24	7.54	-46.7	-59.6	3.9	8.46e-01	0	36	104	0	64	16356
2026-01-24 02:45:13.18	9.07	7.77	-46.8	-61.1	3.8	8.47e-01	0	36	104	0	64	19436
2026-01-24 02:45:16.16	8.90	7.99	-46.7	-60.8	3.8	8.47e-01	0	36	104	0	64	18887
2026-01-24 02:45:19.14	8.73	8.21	-46.0	-54.2	6.2	5.92e-01	0	37	0	1048576	63	9353
2026-01-24 02:45:22.12	8.56	8.44	-43.4	-48.3	12.0	1.58e-03	0	36	0	17825792	59	5960
2026-01-24 02:45:25.10	8.38	8.67	-42.2	-45.4	15.0	0.00e+00	0	36	0	34603008	56	5046
2026-01-24 02:45:28.08	8.20	8.90	-41.6	-44.5	15.8	0.00e+00	0	37	0	51380224	55	4841
2026-01-24 02:45:31.06	8.02	9.13	-40.6	-43.2	17.1	0.00e+00	0	37	0	68157440	53	4663
2026-01-24 02:45:34.04	7.83	9.36	-45.4	-51.7	8.6	8.08e-03	0	36	0	84934656	61	7868
2026-01-24 02:45:37.02	7.64	9.60	-39.4	-41.5	18.8	0.00e+00	0	37	0	101711872	50	4580
2026-01-24 02:45:40.01	7.45	9.84	-39.3	-41.4	18.9	0.00e+00	0	37	0	118489088	50	4503
2026-01-24 02:45:43.00	7.25	10.08	-39.3	-41.3	19.0	0.00e+00	0	36	0	135266304	50	4493
2026-01-24 02:45:45.98	7.05	10.32	-39.2	-41.2	19.1	0.00e+00	0	37	0	152043520	50	4439
2026-01-24 02:45:48.97	6.85	10.57	-39.2	-41.2	19.1	0.00e+00	0	37	0	168820736	50	4419
2026-01-24 02:45:51.96	6.64	10.81	-39.2	-41.2	19.1	0.00e+00	0	37	0	185597952	50	4417
2026-01-24 02:45:54.95	6.43	11.06	-39.2	-41.2	19.1	0.00e+00	0	37	0	202375168	50	4429
2026-01-24 02:45:57.93	6.22	11.31	-39.1	-41.2	19.1	0.00e+00	0	37	0	219152384	50	4403
2026-01-24 02:46:00.95	6.00	11.57	-39.0	-41.0	19.4	0.00e+00	0	37	0	236978176	49	4550
2026-01-24 02:46:03.93	5.78	11.82	-38.8	-40.8	19.5	0.00e+00	0	37	0	253755392	49	4466
2026-01-24 02:46:06.91	5.55	12.08	-38.6	-40.6	19.7	0.00e+00	0	37	0	270532608	49	4366
2026-01-24 02:46:09.90	5.32	12.34	-38.5	-40.4	19.9	0.00e+00	0	37	0	287309824	48	4538
2026-01-24 02:46:12.88	5.09	12.60	-38.4	-40.3	20.0	0.00e+00	0	37	0	304087040	48	4470
2026-01-24 02:46:15.96	4.84	12.87	-38.3	-40.3	20.1	0.00e+00	0	37	0	320864256	48	4445
2026-01-24 02:46:18.83	4.60	13.13	-38.3	-40.2	20.1	0.00e+00	0	37	0	337641472	48	4406
2026-01-24 02:46:22.12	4.33	13.42	-38.4	-40.3	20.1	0.00e+00	0	37	0	355467264	48	4449
2026-01-24 02:46:24.86	4.10	13.67	-38.3	-40.1	20.1	0.00e+00	0	37	0	371195904	48	4390
2026-01-24 02:46:28.13	3.81	13.97	-38.2	-40.1	20.2	0.00e+00	0	37	0	389021696	48	4387
2026-01-24 02:46:30.97	3.56	14.24	-38.2	-40.1	20.3	0.00e+00	0	37	0	405798912	48	4349
2026-01-24 02:46:34.12	3.28	14.53	-38.2	-40.1	20.2	0.00e+00	0	37	0	423624704	48	4384
2026-01-24 02:46:37.24	2.99	14.82	-38.0	-39.9	20.4	0.00e+00	0	37	0	440401920	48	4272
2026-01-24 02:46:40.08	2.73	15.09	-37.9	-39.7	20.4	0.00e+00	0	37	0	457179136	47	4430
2026-01-24 02:46:43.27	2.42	15.40	-37.8	-39.6	20.6	0.00e+00	0	37	0	475004928	47	4359
2026-01-24 02:46:46.11	2.14	15.68	-37.5	-39.3	20.8	0.00e+00	0	37	0	490733568	47	4237
2026-01-24 02:46:49.24	1.83	15.98	-37.4	-39.2	21.0	0.00e+00	0	37	0	508559360	46	4416
2026-01-24 02:46:52.33	1.52	16.29	-37.4	-39.2	20.9	0.00e+00	0	37	0	525336576	46	4432
2026-01-24 02:46:55.31	1.21	16.59	-37.5	-39.3	20.8	0.00e+00	0	37	0	542113792	46	4490
2026-01-24 02:46:58.30	0.89	16.89	-37.6	-39.5	20.7	0.00e+00	0	37	0	558891008	46	4551
2026-01-24 02:47:01.26	0.57	17.19	-37.5	-39.3	20.9	0.00e+00	0	37	0	575668224	46	4472
2026-01-24 02:47:04.36	0.23	17.51	-37.3	-39.1	21.0	0.00e+00	0	37	0	593494016	46	4391
2026-01-24 02:47:07.29	359.90	17.81	-37.0	-38.8	21.3	0.00e+00	0	37	0	609222656	46	4216
2026-01-24 02:47:10.57	359.52	18.15	-36.8	-38.6	21.5	0.00e+00	0	37	0	628097024	45	4365
2026-01-24 02:47:13.29	359.20	18.44	-36.8	-38.6	21.5	0.00e+00	0	37	0	643825664	45	4353
2026-01-24 02:47:16.57	358.80	18.79	-36.8	-38.5	21.6	0.00e+00	0	37	0	661651456	45	4321
2026-01-24 02:47:19.28	358.47	19.08	-36.9	-38.6	21.5	0.00e+00	0	37	0	677380096	45	4390
2026-01-24 02:47:22.55	358.06	19.44	-36.7	-38.5	21.7	0.00e+00	0	37	0	695205888	45	4292
2026-01-24 02:47:25.27	357.71	19.73	-36.8	-38.6	21.6	0.00e+00	0	37	0	710934528	45	4361
2026-01-24 02:47:28.75	357.25	20.12	-36.7	-38.5	21.6	0.00e+00	0	37	0	730857472	45	4306
2026-01-24 02:47:31.46	356.88	20.42	-36.5	-38.3	21.9	0.00e+00	0	37	0	745537536	45	4197
2026-01-24 02:47:34.73	356.43	20.79	-36.3	-38.0	22.1	0.00e+00	0	37	0	764411904	44	4311
2026-01-24 02:47:37.47	356.05	21.10	-36.4	-38.1	22.1	0.00e+00	0	37	0	779091968	44	4350
2026-01-24 02:47:40.74	355.57	21.47	-36.3	-38.0	22.1	0.00e+00	0	37	0	797966336	44	4315
2026-01-24 02:47:43.59	355.15	21.80	-36.2	-38.0	22.1	0.00e+00	0	37	0	813694976	44	4294
2026-01-24 02:47:46.72	354.68	22.17	-36.2	-37.9	22.2	0.00e+00	0	37	0	831520768	44	4251
2026-01-24 02:47:49.56	354.24	22.50	-35.8	-37.5	22.5	0.00e+00	0	37	0	847249408	43	4298
2026-01-24 02:47:52.68	353.75	22.87	-35.6	-37.3	22.6	0.00e+00	0	37	0	865075200	43	4221
2026-01-24 02:47:55.53	353.29	23.21	-35.6	-37.3	22.7	0.00e+00	0	37	0	880803840	43	4196
2026-01-24 02:47:58.65	352.77	23.58	-35.8	-37.5	22.5	0.00e+00	0	37	0	898629632	43	4304
2026-01-24 02:48:01.95	352.21	23.98	-35.6	-37.3	22.6	0.00e+00	0	37	0	917504000	43	4224
2026-01-24 02:48:05.25	351.64	24.39	-35.7	-37.5	22.5	0.00e+00	0	37	0	935329792	43	4300
2026-01-24 02:48:08.10	351.13	24.74	-35.9	-37.6	22.3	0.00e+00	0	37	0	952107008	43	4381
2026-01-24 02:48:11.30	350.54	25.13	-35.7	-37.4	22.5	0.00e+00	0	37	0	969932800	43	4278
2026-01-24 02:48:14.15	350.01	25.49	-35.4	-37.1	22.8	0.00e+00	0	37	0	985661440	42	4366
2026-01-24 02:48:17.48	349.37	25.90	-35.1	-36.8	23.1	0.00e+00	0	37	0	1004535808	42	4213
2026-01-24 02:48:20.27	348.82	26.25	-35.2	-36.9	23.0	0.00e+00	0	37	0	1020264448	42	4270
2026-01-24 02:48:23.39	348.19	26.65	-35.4	-37.0	22.9	0.00e+00	0	37	0	1038090240	42	4326
2026-01-24 02:48:26.23	347.60	27.01	-35.2	-36.9	23.0	0.00e+00	0	37	0	1053818880	42	4268
2026-01-24 02:48:29.36	346.94	27.41	-35.1	-36.8	23.2	0.00e+00	0	37	0	1071644672	42	4208
2026-01-24 02:48:32.20	346.32	27.77	-35.3	-36.9	23.0	0.00e+00	0	38	0	1087373312	42	4290
2026-01-24 02:48:35.33	345.63	28.17	-35.3	-37.0	22.9	0.00e+00	0	37	0	1105199104	42	4293
2026-01-24 02:48:38.17	344.98	28.54	-35.3	-37.0	23.0	0.00e+00	0	38	0	1120927744	42	4307
2026-01-24 02:48:41.30	344.25	28.94	-35.1	-36.8	23.1	0.00e+00	0	37	0	1138753536	42	4220
2026-01-24 02:48:44.14	343.57	29.31	-35.3	-37.0	23.0	0.00e+00	0	37	0	1154482176	42	4298
2026-01-24 02:48:47.27	342.80	29.71	-35.3	-37.0	22.9	0.00e+00	0	37	0	1172307968	42	4334
2026-01-24 02:48:50.11	342.09	30.08	-34.9	-36.6	23.3	0.00e+00	0	37	0	1188036608	41	4375
2026-01-24 02:48:53.24	341.29	30.48	-35.0	-36.6	23.3	0.00e+00	0	37	0	1205862400	41	4387
2026-01-24 02:48:56.08	340.54	30.85	-35.1	-36.7	23.1	0.00e+00	0	37	0	1221591040	41	4427
2026-01-24 02:48:59.21	339.69	31.25	-35.0	-36.7	23.1	0.00e+00	0	37	0	1239416832	41	4435
2026-01-24 02:49:02.05	338.91	31.61	-34.8	-36.5	23.4	0.00e+00	0	37	0	1255145472	41	4326
2026-01-24 02:49:05.27	338.00	32.02	-34.9	-36.6	23.3	0.00e+00	0	37	0	1272971264	41	4366
2026-01-24 02:49:08.11	337.17	32.38	-34.8	-36.5	23.4	0.00e+00	0	38	0	1289748480	41	4302
2026-01-24 02:49:11.24	336.25	32.77	-35.0	-36.6	23.3	0.00e+00	0	37	0	1307574272	41	4374
2026-01-24 02:49:14.08	335.38	33.13	-34.9	-36.5	23.4	0.00e+00	0	37	0	1323302912	41	4328
2026-01-24 02:49:17.21	334.41	33.51	-34.6	-36.3	23.6	0.00e+00	0	37	0	1341128704	41	4202
2026-01-24 02:49:20.05	333.51	33.86	-34.6	-36.3	23.6	0.00e+00	0	37	0	1356857344	41	4211
2026-01-24 02:49:23.36	332.43	34.25	-34.6	-36.2	23.6	0.00e+00	0	37	0	1375731712	41	4169
2026-01-24 02:49:26.20	331.49	34.59	-34.5	-36.1	23.7	0.00e+00	0	37	0	1391460352	41	4138
2026-01-24 02:49:29.48	330.37	34.97	-34.6	-36.2	23.6	0.00e+00	0	37	0	1409286144	41	4191
2026-01-24 02:49:32.21	329.42	35.28	-34.6	-36.2	23.6	0.00e+00	0	37	0	1425014784	41	4189
2026-01-24 02:49:35.48	328.26	35.64	-34.5	-36.2	23.7	0.00e+00	0	37	0	1442840576	40	4392
2026-01-24 02:49:38.21	327.27	35.93	-34.7	-36.3	23.6	0.00e+00	0	37	0	1458569216	40	4468
2026-01-24 02:49:41.48	326.06	36.28	-34.7	-36.4	23.5	0.00e+00	0	37	0	1477443584	40	4507
2026-01-24 02:49:44.20	325.04	36.56	-34.6	-36.2	23.6	0.00e+00	0	37	0	1492123648	40	4416
2026-01-24 02:49:47.64	323.72	36.90	-34.5	-36.2	23.7	0.00e+00	0	37	0	1512046592	40	4394
2026-01-24 02:49:50.41	322.63	37.16	-34.7	-36.4	23.5	0.00e+00	0	37	0	1527775232	40	4499
2026-01-24 02:49:53.68	321.33	37.46	-34.6	-36.3	23.5	0.00e+00	0	37	0	1545601024	40	4462
2026-01-24 02:49:56.40	320.23	37.69	-34.9	-36.6	23.3	0.00e+00	0	38	0	1561329664	40	4600
2026-01-24 02:49:59.67	318.89	37.96	-34.7	-36.4	23.5	0.00e+00	0	37	0	1579155456	40	4494
2026-01-24 02:50:02.70	317.62	38.20	-34.4	-36.0	23.8	0.00e+00	0	37	0	1596981248	40	4324
2026-01-24 02:50:05.92	316.26	38.43	-34.4	-36.0	23.8	0.00e+00	0	38	0	1614807040	40	4332
2026-01-24 02:50:08.66	315.08	38.62	-34.7	-36.3	23.5	0.00e+00	0	37	0	1630535680	40	4467
2026-01-24 02:50:11.95	313.65	38.83	-34.7	-36.3	23.5	0.00e+00	0	37	0	1648361472	40	4484
2026-01-24 02:50:14.66	312.46	38.98	-34.5	-36.2	23.6	0.00e+00	0	38	0	1664090112	40	4407
2026-01-24 02:50:18.04	310.96	39.16	-34.8	-36.4	23.4	0.00e+00	0	38	0	1682964480	40	4526
2026-01-24 02:50:20.76	309.74	39.28	-34.9	-36.5	23.4	0.00e+00	0	38	0	1697644544	40	4564
2026-01-24 02:50:24.25	308.17	39.42	-34.4	-36.1	23.7	0.00e+00	0	37	0	1717567488	40	4350
2026-01-24 02:50:26.95	306.94	39.51	-34.5	-36.2	23.6	0.00e+00	0	37	0	1733296128	40	4412
2026-01-24 02:50:30.23	305.43	39.60	-34.8	-36.4	23.5	0.00e+00	0	37	0	1751121920	40	4508
2026-01-24 02:50:32.96	304.18	39.66	-34.8	-36.5	23.4	0.00e+00	0	37	0	1766850560	40	4563
2026-01-24 02:50:36.22	302.67	39.71	-34.6	-36.2	23.7	0.00e+00	0	38	0	1784676352	40	4407
2026-01-24 02:50:39.13	301.33	39.74	-34.6	-36.2	23.6	0.00e+00	0	37	0	1801453568	40	4423
2026-01-24 02:50:42.44	299.80	39.74	-34.5	-36.1	23.7	0.00e+00	0	37	0	1820327936	40	4386
2026-01-24 02:50:45.15	298.54	39.73	-34.4	-36.1	23.8	0.00e+00	0	38	0	1835008000	40	4348
2026-01-24 02:50:48.43	297.02	39.70	-34.4	-36.0	23.8	0.00e+00	0	37	0	1853882368	40	4333
2026-01-24 02:50:51.17	295.76	39.65	-34.3	-36.0	23.8	0.00e+00	0	38	0	1869611008	40	4305
2026-01-24 02:50:54.66	294.16	39.57	-34.3	-35.9	23.9	0.00e+00	0	37	0	1888485376	40	4272
2026-01-24 02:50:57.36	292.92	39.49	-34.2	-35.8	24.0	0.00e+00	0	38	0	1904214016	40	4210
2026-01-24 02:51:00.82	291.35	39.36	-34.2	-35.8	24.0	0.00e+00	0	38	0	1923088384	40	4206
2026-01-24 02:51:03.56	290.12	39.24	-34.3	-35.9	23.9	0.00e+00	0	37	0	1938817024	40	4251
2026-01-24 02:51:06.83	288.65	39.09	-34.1	-35.7	24.0	0.00e+00	0	37	0	1956642816	40	4191
2026-01-24 02:51:09.61	287.42	38.94	-34.4	-36.1	23.7	0.00e+00	0	38	0	1973420032	40	4362
2026-01-24 02:51:12.74	286.05	38.75	-34.2	-35.8	24.0	0.00e+00	0	37	0	1990197248	40	4235
2026-01-24 02:51:15.58	284.82	38.57	-34.1	-35.7	24.0	0.00e+00	0	37	0	2005925888	40	4178
2026-01-24 02:51:18.71	283.48	38.35	-34.0	-35.6	24.2	0.00e+00	0	37	0	2023751680	39	4351
2026-01-24 02:51:21.57	282.27	38.14	-34.4	-36.0	23.9	0.00e+00	0	37	0	2040528896	39	4568
2026-01-24 02:51:24.91	280.88	37.87	-34.1	-35.7	24.1	0.00e+00	0	38	0	2059403264	39	4436
2026-01-24 02:51:27.61	279.77	37.64	-34.3	-36.0	23.9	0.00e+00	0	38	0	2074083328	39	4552
2026-01-24 02:51:31.13	278.35	37.33	-34.3	-35.9	24.0	0.00e+00	0	38	0	2094006272	39	4513
2026-01-24 02:51:34.20	277.14	37.05	-34.1	-35.7	24.1	0.00e+00	0	37	0	2110783488	39	4441
2026-01-24 02:51:38.09	275.63	36.67	-34.3	-35.9	24.0	0.00e+00	0	38	0	2132803584	39	4508
2026-01-24 02:51:40.87	274.57	36.39	-34.3	-35.9	23.9	0.00e+00	0	38	0	2148532224	39	4525
2026-01-24 02:51:44.36	273.27	36.02	-34.6	-36.2	23.7	0.00e+00	0	37	0	2168455168	39	4697
2026-01-24 02:51:47.07	272.28	35.73	-34.4	-36.0	23.9	0.00e+00	0	37	0	2183135232	39	4578
2026-01-24 02:51:50.35	271.10	35.37	-34.4	-36.0	23.8	0.00e+00	0	37	0	2202009600	39	4593
2026-01-24 02:51:53.07	270.15	35.06	-34.2	-35.8	24.0	0.00e+00	0	37	0	2217738240	39	4490
2026-01-24 02:51:56.42	269.00	34.67	-34.3	-35.9	24.0	0.00e+00	0	38	0	2236612608	39	4519
2026-01-24 02:51:59.13	268.09	34.35	-34.4	-36.0	23.8	0.00e+00	0	37	0	2251292672	39	4598
2026-01-24 02:52:02.39	267.02	33.96	-34.5	-36.1	23.8	0.00e+00	0	38	0	2270167040	39	4615
2026-01-24 02:52:05.11	266.14	33.63	-34.4	-36.0	23.9	0.00e+00	0	38	0	2284847104	39	4575
2026-01-24 02:52:09.19	264.86	33.13	-34.5	-36.1	23.8	0.00e+00	0	38	0	2307915776	40	4354
2026-01-24 02:52:12.04	263.99	32.78	-34.4	-36.1	23.7	0.00e+00	0	38	0	2323644416	40	4350
2026-01-24 02:52:16.01	262.81	32.28	-34.4	-36.1	23.7	0.00e+00	0	37	0	2346713088	40	4349
2026-01-24 02:52:18.84	261.99	31.92	-34.5	-36.1	23.7	0.00e+00	0	37	0	2362441728	40	4384
2026-01-24 02:52:22.82	260.87	31.41	-34.3	-35.9	23.9	0.00e+00	0	38	0	2384461824	40	4268
2026-01-24 02:52:25.72	260.08	31.04	-34.3	-35.9	23.8	0.00e+00	0	37	0	2401239040	40	4279
2026-01-24 02:52:29.70	259.02	30.52	-34.5	-36.1	23.7	0.00e+00	0	38	0	2423259136	40	4374
2026-01-24 02:52:32.55	258.28	30.15	-34.6	-36.2	23.6	0.00e+00	0	37	0	2438987776	40	4409
2026-01-24 02:52:36.53	257.27	29.64	-34.7	-36.4	23.4	0.00e+00	0	38	0	2462056448	40	4503
2026-01-24 02:52:39.60	256.52	29.24	-34.7	-36.3	23.6	0.00e+00	0	37	0	2478833664	40	4465
2026-01-24 02:52:43.58	255.57	28.72	-34.7	-36.4	23.5	0.00e+00	0	38	0	2500853760	40	4506
2026-01-24 02:52:46.42	254.91	28.36	-34.8	-36.4	23.4	0.00e+00	0	37	0	2517630976	40	4532
2026-01-24 02:52:50.24	254.05	27.86	-34.8	-36.4	23.5	0.00e+00	0	37	0	2538602496	40	4513
2026-01-24 02:52:52.95	253.45	27.51	-34.7	-36.3	23.5	0.00e+00	0	38	0	2554331136	40	4490
2026-01-24 02:52:56.24	252.75	27.09	-35.0	-36.6	23.2	0.00e+00	0	38	0	2573205504	40	4630
2026-01-24 02:52:58.96	252.18	26.74	-35.0	-36.6	23.2	0.00e+00	0	37	0	2587885568	40	4626
2026-01-24 02:53:02.25	251.50	26.33	-35.0	-36.7	23.2	0.00e+00	0	38	0	2606759936	40	4654
2026-01-24 02:53:04.98	250.96	25.98	-35.1	-36.8	23.1	0.00e+00	0	37	0	2621440000	41	4453
2026-01-24 02:53:08.25	250.32	25.57	-35.3	-37.0	22.9	0.00e+00	0	38	0	2640314368	41	4558
2026-01-24 02:53:10.96	249.81	25.23	-35.4	-37.0	22.8	0.00e+00	0	38	0	2654994432	41	4588
2026-01-24 02:53:14.25	249.20	24.82	-35.4	-37.0	22.9	0.00e+00	0	38	0	2673868800	41	4580
2026-01-24 02:53:17.19	248.67	24.46	-35.4	-37.1	22.8	0.00e+00	0	38	0	2690646016	41	4605
2026-01-24 02:53:20.17	248.14	24.09	-35.4	-37.1	22.8	0.00e+00	0	38	0	2707423232	41	4630
2026-01-24 02:53:23.16	247.62	23.72	-35.4	-37.1	22.8	0.00e+00	0	37	0	2724200448	41	4611
2026-01-24 02:53:26.15	247.12	23.36	-35.2	-36.9	23.0	0.00e+00	0	38	0	2740977664	41	4499
2026-01-24 02:53:29.13	246.63	23.00	-35.2	-36.9	23.0	0.00e+00	0	38	0	2757754880	41	4510
2026-01-24 02:53:32.12	246.14	22.65	-35.4	-37.0	22.9	0.00e+00	0	38	0	2774532096	41	4577
2026-01-24 02:53:35.10	245.68	22.29	-35.6	-37.2	22.7	0.00e+00	0	38	0	2791309312	41	4697
2026-01-24 02:53:38.18	245.20	21.93	-35.7	-37.4	22.5	0.00e+00	0	38	0	2808086528	42	4522
2026-01-24 02:53:41.14	244.76	21.59	-35.6	-37.2	22.6	0.00e+00	0	37	0	2824863744	42	4441
2026-01-24 02:53:44.48	244.27	21.20	-35.6	-37.2	22.7	0.00e+00	0	38	0	2843738112	42	4421
2026-01-24 02:53:47.18	243.88	20.89	-35.5	-37.2	22.7	0.00e+00	0	37	0	2859466752	42	4407
2026-01-24 02:53:50.84	243.37	20.48	-35.6	-37.3	22.6	0.00e+00	0	38	0	2880438272	42	4475
2026-01-24 02:53:53.55	243.00	20.17	-35.8	-37.4	22.5	0.00e+00	0	37	0	2895118336	42	4542
2026-01-24 02:53:56.82	242.56	19.81	-35.9	-37.6	22.3	0.00e+00	0	37	0	2912944128	42	4633
2026-01-24 02:53:59.55	242.20	19.51	-36.0	-37.7	22.3	0.00e+00	0	38	0	2928672768	42	4657
2026-01-24 02:54:02.82	241.78	19.15	-36.1	-37.8	22.2	0.00e+00	0	38	0	2947547136	42	4713
2026-01-24 02:54:05.54	241.44	18.86	-36.0	-37.7	22.2	0.00e+00	0	37	0	2962227200	42	4694
2026-01-24 02:54:08.80	241.04	18.51	-36.1	-37.8	22.1	0.00e+00	0	38	0	2981101568	43	4465
2026-01-24 02:54:11.52	240.72	18.22	-36.2	-37.9	22.0	0.00e+00	0	37	0	2995781632	43	4533
2026-01-24 02:54:14.80	240.33	17.87	-36.5	-38.2	21.8	0.00e+00	0	37	0	3014656000	43	4656
2026-01-24 02:54:17.52	240.02	17.59	-36.8	-38.5	21.6	0.00e+00	0	37	0	3029336064	44	4589
2026-01-24 02:54:20.85	239.64	17.24	-36.7	-38.4	21.7	0.00e+00	0	38	0	3048210432	44	4514
2026-01-24 02:54:23.78	239.32	16.94	-36.8	-38.5	21.6	0.00e+00	0	37	0	3064987648	44	4554
2026-01-24 02:54:27.24	238.95	16.59	-36.8	-38.5	21.6	0.00e+00	0	38	0	3084910592	44	4562
2026-01-24 02:54:29.95	238.66	16.32	-36.8	-38.5	21.6	0.00e+00	0	38	0	3099590656	44	4589
2026-01-24 02:54:33.22	238.32	15.99	-36.9	-38.6	21.5	0.00e+00	0	38	0	3118465024	44	4621
2026-01-24 02:54:36.11	238.03	15.71	-37.1	-38.9	21.2	0.00e+00	0	38	0	3134193664	44	4760
2026-01-24 02:54:39.23	237.72	15.40	-37.3	-39.0	21.1	0.00e+00	0	38	0	3152019456	45	4585
2026-01-24 02:54:42.07	237.44	15.13	-37.4	-39.2	21.0	0.00e+00	0	38	0	3167748096	45	4654
2026-01-24 02:54:45.20	237.15	14.83	-37.5	-39.2	20.8	0.00e+00	0	38	0	3185573888	45	4693
2026-01-24 02:54:48.15	236.87	14.55	-37.4	-39.1	21.0	0.00e+00	0	38	0	3202351104	45	4632
2026-01-24 02:54:51.40	236.57	14.24	-37.4	-39.1	20.9	0.00e+00	0	38	0	3220176896	45	4643
2026-01-24 02:54:54.19	236.32	13.98	-37.5	-39.3	20.8	0.00e+00	0	37	0	3235905536	45	4719
2026-01-24 02:54:57.32	236.05	13.69	-37.6	-39.3	20.7	0.00e+00	0	38	0	3253731328	45	4742
2026-01-24 02:55:00.34	235.78	13.42	-37.6	-39.3	20.7	0.00e+00	0	38	0	3270508544	45	4755
2026-01-24 02:55:03.47	235.52	13.13	-37.7	-39.5	20.6	0.00e+00	0	38	0	3288334336	46	4561
2026-01-24 02:55:06.31	235.28	12.88	-37.8	-39.6	20.4	0.00e+00	0	38	0	3304062976	46	4645
2026-01-24 02:55:09.44	235.03	12.60	-38.0	-39.8	20.3	0.00e+00	0	38	0	3321888768	46	4751
2026-01-24 02:55:12.32	234.80	12.34	-38.1	-39.9	20.2	0.00e+00	0	38	0	3337617408	46	4804
2026-01-24 02:55:15.44	234.55	12.07	-38.2	-40.1	20.0	0.00e+00	0	38	0	3355443200	47	4612
2026-01-24 02:55:18.29	234.33	11.82	-38.3	-40.2	19.9	0.00e+00	0	38	0	3372220416	47	4657
2026-01-24 02:55:21.42	234.09	11.56	-38.3	-40.1	19.9	0.00e+00	0	38	0	3388997632	47	4640
2026-01-24 02:55:24.26	233.88	11.31	-38.2	-40.0	20.0	0.00e+00	0	38	0	3405774848	47	4568
2026-01-24 02:55:27.40	233.65	11.05	-38.2	-40.0	20.0	0.00e+00	0	38	0	3422552064	47	4554
2026-01-24 02:55:30.24	233.45	10.81	-38.2	-40.0	20.0	0.00e+00	0	38	0	3439329280	47	4590
2026-01-24 02:55:33.54	233.21	10.54	-38.4	-40.2	19.8	0.00e+00	0	38	0	3457155072	47	4678
2026-01-24 02:55:36.25	233.02	10.31	-38.5	-40.3	19.7	0.00e+00	0	38	0	3472883712	47	4729
2026-01-24 02:55:39.85	232.78	10.02	-38.5	-40.3	19.7	0.00e+00	0	38	0	3492806656	47	4735
2026-01-24 02:55:42.55	232.60	9.80	-38.6	-40.4	19.6	0.00e+00	0	38	0	3508535296	47	4803
2026-01-24 02:55:45.82	232.38	9.54	-38.8	-40.6	19.5	0.00e+00	0	38	0	3526361088	48	4643
2026-01-24 02:55:48.57	232.21	9.32	-39.0	-40.9	19.3	0.00e+00	0	38	0	3542089728	48	4771
2026-01-24 02:55:51.84	232.00	9.06	-39.1	-40.9	19.2	0.00e+00	0	38	0	3560964096	48	4800
2026-01-24 02:55:54.54	231.83	8.85	-49.6	-61.9	3.8	8.47e-01	0	38	104	3566206976	69	15976
2026-01-24 02:55:57.80	231.63	8.60	-50.1	-62.2	3.8	8.46e-01	0	38	104	3566206976	70	15704
2026-01-24 02:56:00.50	231.46	8.39	-50.2	-62.3	3.8	8.47e-01	0	38	104	3566206976	71	14961
2026-01-24 02:56:03.78	231.27	8.14	-50.2	-62.3	3.8	8.48e-01	0	38	104	3566206976	71	14948
2026-01-24 02:56:06.49	231.11	7.94	-50.1	-62.3	3.8	8.47e-01	0	38	104	3566206976	71	15045
2026-01-24 02:56:09.75	230.92	7.69	-50.0	-62.3	3.8	8.47e-01	0	38	104	3566206976	71	15025
2026-01-24 02:56:12.48	230.77	7.49	-50.0	-62.3	3.8	8.48e-01	0	38	104	3566206976	71	15012
2026-01-24 02:56:15.83	230.58	7.24	-50.0	-62.2	3.8	8.48e-01	0	38	104	3566206976	71	14839
2026-01-24 02:56:18.54	230.43	7.04	-49.9	-62.2	3.8	8.46e-01	0	38	104	3566206976	71	14752
2026-01-24 02:56:21.80	230.25	6.80	-49.9	-62.2	3.8	8.46e-01	0	38	104	3566206976	71	14752
2026-01-24 02:56:24.50	230.11	6.61	-49.9	-62.2	3.8	8.47e-01	0	38	104	3566206976	71	14781
2026-01-24 02:56:27.77	229.94	6.37	-49.9	-62.2	3.8	8.47e-01	0	38	104	3566206976	71	14726
2026-01-24 02:56:30.50	229.80	6.18	-49.9	-62.2	3.8	8.47e-01	0	38	104	3566206976	71	14797
2026-01-24 02:56:33.76	229.63	5.95	-49.9	-62.2	3.8	8.47e-01	0	38	104	3566206976	71	14753
2026-01-24 02:56:36.47	229.50	5.76	-49.9	-62.1	3.8	8.47e-01	0	38	104	3566206976	71	14701
2026-01-24 02:56:39.73	229.34	5.53	-49.9	-62.2	3.8	8.48e-01	0	38	104	3566206976	71	14750
2026-01-24 02:56:42.46	229.20	5.34	-49.9	-62.2	3.8	8.48e-01	0	38	104	3566206976	71	14714
2026-01-24 02:56:45.72	229.05	5.12	-49.9	-62.2	3.8	8.46e-01	0	38	104	3566206976	71	14725

#Closed at: 2026-01-24 02:56:48
#Recorded file [3566 MB]: D:/Data/31040_260124_054434.dat