passes_logs/2026/01/25/T1/T1__20260125_082018_NOAA_20_JPSS-1_rec.log

#Pass ID: 20260125_082018_NOAA 20 (JPSS-1)
#Satellite: NOAA 20 (JPSS-1)
#Configuration: NOAA 20
#almurnet v.1.7.20251203
#Start time: 2026-01-25 08:20:20

#Version: 2.0.20230620
#Station: T1
#Location: 37.570604 lon 55.790049 lat
#TLE: 1 43013U 17073A   26024.42258823  .00000183  00000+0  10747-3 0  9990
#TLE: 2 43013  98.7646 325.2629 0001105  25.8644 334.2587 14.19539754424075

#Time	Az	El	Level	Level2	SNR	BER	BlckErr	Temp	State	Recorded	gain1	gain2
2026-01-25 08:20:20.90	109.59	5.13	-48.1	-63.3	3.8	1.49e+00	0	35	0	0	68	20053
2026-01-25 08:20:23.87	109.35	5.31	-48.1	-63.3	3.8	1.49e+00	0	35	104	0	68	20012
2026-01-25 08:20:26.85	109.10	5.50	-48.1	-63.3	3.8	1.49e+00	0	35	104	0	68	19933
2026-01-25 08:20:29.83	108.86	5.68	-48.1	-63.3	3.8	1.49e+00	0	35	104	0	68	19935
2026-01-25 08:20:32.81	108.60	5.87	-48.1	-63.2	3.8	1.49e+00	0	35	104	0	68	19761
2026-01-25 08:20:35.79	108.35	6.05	-48.1	-63.2	3.8	1.49e+00	0	35	104	0	68	19803
2026-01-25 08:20:38.77	108.09	6.24	-48.1	-63.2	3.8	1.49e+00	0	35	104	0	68	19839
2026-01-25 08:20:41.75	107.83	6.43	-48.1	-63.2	3.8	1.49e+00	0	35	104	0	68	19802
2026-01-25 08:20:44.73	107.57	6.61	-48.1	-63.2	3.8	1.49e+00	0	36	104	0	68	19768
2026-01-25 08:20:47.71	107.30	6.80	-48.1	-63.0	3.8	1.49e+00	0	36	104	0	68	19382
2026-01-25 08:20:50.69	107.03	6.99	-48.0	-62.8	3.8	1.49e+00	0	36	104	0	68	18836
2026-01-25 08:20:53.67	106.75	7.18	-48.1	-63.0	3.8	1.49e+00	0	36	104	0	68	19269
2026-01-25 08:20:56.65	106.47	7.38	-48.1	-63.1	3.8	1.49e+00	0	36	104	0	68	19390
2026-01-25 08:20:59.63	106.19	7.57	-48.1	-62.6	3.8	1.49e+00	0	36	104	0	68	18323
2026-01-25 08:21:02.61	105.90	7.76	-48.0	-62.2	3.8	1.49e+00	0	36	104	0	68	17681
2026-01-25 08:21:05.59	105.61	7.96	-48.0	-62.7	3.8	1.49e+00	0	36	104	0	68	18587
2026-01-25 08:21:08.57	105.32	8.15	-46.8	-54.2	7.6	1.59e-01	0	37	0	2097152	65	8308
2026-01-25 08:21:11.55	105.02	8.35	-44.8	-49.0	13.1	1.74e-04	0	37	0	8388608	61	5752
2026-01-25 08:21:14.53	104.72	8.54	-44.2	-47.8	14.2	1.50e-06	0	36	0	13631488	60	5328
2026-01-25 08:21:17.51	104.41	8.74	-45.1	-49.4	12.7	2.89e-05	0	36	0	18874368	60	6370
2026-01-25 08:21:20.49	104.10	8.94	-47.0	-54.8	7.1	7.91e-02	0	37	0	25165824	64	9470
2026-01-25 08:21:23.48	103.78	9.14	-46.2	-52.0	9.4	1.10e+00	0	37	104	29360128	64	6862
2026-01-25 08:21:26.46	103.46	9.34	-46.3	-52.4	9.5	1.58e-02	0	37	0	30408704	64	7128
2026-01-25 08:21:29.44	103.14	9.54	-46.0	-51.5	10.4	8.28e-03	0	37	0	36700160	64	6478
2026-01-25 08:21:32.43	102.81	9.74	-45.3	-49.9	12.2	1.60e-04	0	37	0	41943040	62	6058
2026-01-25 08:21:35.41	102.47	9.94	-44.6	-48.5	13.6	1.14e-05	0	37	0	47185920	61	5461
2026-01-25 08:21:38.44	102.13	10.14	-44.6	-48.6	13.6	1.29e-05	0	37	0	53477376	61	5476
2026-01-25 08:21:41.55	101.77	10.36	-44.2	-47.7	14.5	1.50e-06	0	37	0	58720256	60	5275
2026-01-25 08:21:44.39	101.44	10.55	-43.7	-47.0	15.2	0.00e+00	0	37	0	63963136	59	5118
2026-01-25 08:21:47.52	101.07	10.76	-43.4	-46.5	15.8	0.00e+00	0	37	0	70254592	58	5127
2026-01-25 08:21:50.37	100.73	10.96	-43.4	-46.5	15.7	0.00e+00	0	37	0	75497472	58	5145
2026-01-25 08:21:53.49	100.35	11.18	-43.4	-46.5	15.8	0.00e+00	0	37	0	81788928	58	5123
2026-01-25 08:21:56.35	99.99	11.37	-43.2	-46.3	16.0	0.00e+00	0	37	0	87031808	58	4984
2026-01-25 08:21:59.48	99.60	11.59	-43.1	-46.1	16.2	0.00e+00	0	37	0	92274688	58	4889
2026-01-25 08:22:02.32	99.24	11.79	-43.0	-45.9	16.4	0.00e+00	0	37	0	98566144	58	4790
2026-01-25 08:22:05.44	98.83	12.00	-42.9	-45.7	16.6	0.00e+00	0	37	0	103809024	57	4972
2026-01-25 08:22:08.30	98.46	12.20	-42.7	-45.5	16.9	0.00e+00	0	37	0	109051904	57	4823
2026-01-25 08:22:11.59	98.02	12.43	-42.8	-45.6	16.7	0.00e+00	0	37	0	115343360	57	4914
2026-01-25 08:22:14.29	97.66	12.62	-42.8	-45.6	16.7	0.00e+00	0	37	0	120586240	57	4906
2026-01-25 08:22:17.57	97.21	12.85	-42.7	-45.5	16.8	0.00e+00	0	37	0	126877696	57	4858
2026-01-25 08:22:20.36	96.82	13.05	-42.8	-45.6	16.7	0.00e+00	0	37	0	132120576	57	4908
2026-01-25 08:22:23.76	96.34	13.29	-42.9	-45.7	16.7	0.00e+00	0	37	0	138412032	57	4974
2026-01-25 08:22:26.54	95.94	13.49	-42.9	-45.8	16.6	0.00e+00	0	37	0	143654912	57	5002
2026-01-25 08:22:29.83	95.47	13.72	-42.8	-45.7	16.7	0.00e+00	0	37	0	149946368	57	4929
2026-01-25 08:22:32.54	95.07	13.91	-43.0	-45.8	16.5	0.00e+00	0	37	0	155189248	57	5038
2026-01-25 08:22:35.82	94.58	14.14	-42.9	-45.8	16.6	0.00e+00	0	37	0	160432128	57	5005
2026-01-25 08:22:38.53	94.16	14.33	-43.2	-46.1	16.3	0.00e+00	0	37	0	165675008	57	5194
2026-01-25 08:22:41.82	93.66	14.57	-43.2	-46.1	16.3	0.00e+00	0	37	0	171966464	57	5213
2026-01-25 08:22:44.53	93.23	14.76	-43.2	-46.2	16.3	0.00e+00	0	37	0	177209344	57	5226
2026-01-25 08:22:47.82	92.71	14.99	-43.1	-46.0	16.4	0.00e+00	0	37	0	183500800	57	5129
2026-01-25 08:22:50.52	92.28	15.18	-43.2	-46.1	16.3	0.00e+00	0	37	0	188743680	57	5192
2026-01-25 08:22:53.79	91.75	15.41	-43.2	-46.2	16.3	0.00e+00	0	37	0	195035136	57	5249
2026-01-25 08:22:56.71	91.26	15.62	-43.2	-46.1	16.3	0.00e+00	0	37	0	200278016	57	5218
2026-01-25 08:22:59.70	90.76	15.83	-43.3	-46.4	16.1	0.00e+00	0	37	0	205520896	57	5342
2026-01-25 08:23:02.73	90.25	16.04	-43.3	-46.3	16.1	0.00e+00	0	37	0	211812352	57	5334
2026-01-25 08:23:05.81	89.71	16.26	-43.2	-46.3	16.2	0.00e+00	0	37	0	217055232	57	5318
2026-01-25 08:23:08.72	89.21	16.46	-43.3	-46.4	16.1	0.00e+00	0	37	0	222298112	57	5347
2026-01-25 08:23:12.27	88.57	16.71	-43.0	-46.0	16.5	0.00e+00	0	37	0	229638144	57	5133
2026-01-25 08:23:14.98	88.09	16.90	-42.9	-45.8	16.7	0.00e+00	0	37	0	233832448	57	5037
2026-01-25 08:23:18.26	87.49	17.12	-42.6	-45.4	17.1	0.00e+00	0	37	0	240123904	57	4766
2026-01-25 08:23:20.97	86.98	17.31	-42.3	-45.0	17.5	0.00e+00	0	37	0	245366784	56	4861
2026-01-25 08:23:24.26	86.36	17.53	-42.1	-44.8	17.7	0.00e+00	0	37	0	251658240	56	4745
2026-01-25 08:23:27.18	85.81	17.73	-42.0	-44.6	17.9	0.00e+00	0	37	0	256901120	56	4632
2026-01-25 08:23:30.84	85.10	17.98	-41.4	-43.9	18.3	0.00e+00	0	37	0	264241152	54	4811
2026-01-25 08:23:33.73	84.53	18.17	-41.3	-43.8	18.5	0.00e+00	0	37	0	269484032	54	4726
2026-01-25 08:23:37.43	83.79	18.42	-41.0	-43.4	19.0	0.00e+00	0	37	0	276824064	54	4504
2026-01-25 08:23:40.13	83.25	18.59	-40.9	-43.3	19.0	0.00e+00	0	37	0	281018368	53	4713
2026-01-25 08:23:43.76	82.51	18.83	-40.9	-43.3	19.0	0.00e+00	0	37	0	288358400	53	4721
2026-01-25 08:23:46.53	81.93	19.01	-40.9	-43.3	18.9	0.00e+00	0	37	0	293601280	53	4757
2026-01-25 08:23:49.81	81.24	19.22	-40.5	-42.8	19.5	0.00e+00	0	37	0	299892736	53	4463
2026-01-25 08:23:52.57	80.65	19.39	-40.7	-43.0	19.3	0.00e+00	0	37	0	305135616	53	4575
2026-01-25 08:23:55.85	79.95	19.60	-40.5	-42.8	19.5	0.00e+00	0	37	0	311427072	53	4462
2026-01-25 08:23:58.81	79.30	19.78	-40.7	-42.9	19.3	0.00e+00	0	37	0	316669952	53	4545
2026-01-25 08:24:02.74	78.43	20.01	-40.9	-43.1	19.2	0.00e+00	0	37	0	324009984	53	4650
2026-01-25 08:24:05.59	77.79	20.18	-40.8	-43.1	19.3	0.00e+00	0	37	0	329252864	53	4614
2026-01-25 08:24:09.56	76.89	20.41	-40.8	-43.1	19.2	0.00e+00	0	37	0	336592896	53	4627
2026-01-25 08:24:12.61	76.18	20.59	-40.6	-42.9	19.4	0.00e+00	0	37	0	342884352	53	4518
2026-01-25 08:24:16.31	75.32	20.79	-40.6	-42.9	19.4	0.00e+00	0	37	0	349175808	53	4513
2026-01-25 08:24:19.02	74.68	20.94	-40.5	-42.7	19.6	0.00e+00	0	37	0	354418688	53	4418
2026-01-25 08:24:22.30	73.90	21.12	-40.3	-42.4	19.9	0.00e+00	0	37	0	360710144	52	4526
2026-01-25 08:24:25.00	73.25	21.26	-40.5	-42.7	19.6	0.00e+00	0	37	0	365953024	52	4666
2026-01-25 08:24:28.28	72.45	21.42	-40.3	-42.5	19.8	0.00e+00	0	37	0	372244480	52	4564
2026-01-25 08:24:31.30	71.71	21.57	-40.1	-42.2	20.0	0.00e+00	0	37	0	377487360	52	4438
2026-01-25 08:24:34.35	70.95	21.72	-40.1	-42.3	20.0	0.00e+00	0	37	0	382730240	52	4451
2026-01-25 08:24:37.70	70.11	21.87	-40.0	-42.1	20.2	0.00e+00	0	37	0	389021696	51	4649
2026-01-25 08:24:40.52	69.40	22.00	-40.4	-42.5	19.9	0.00e+00	0	37	0	394264576	51	4862
2026-01-25 08:24:43.79	68.57	22.14	-40.5	-42.7	19.7	0.00e+00	0	37	0	400556032	51	4972
2026-01-25 08:24:46.76	67.80	22.26	-40.4	-42.5	19.9	0.00e+00	0	37	0	406847488	51	4859
2026-01-25 08:24:50.03	66.96	22.39	-40.6	-42.8	19.6	0.00e+00	0	37	0	412090368	51	5039
2026-01-25 08:24:52.76	66.24	22.49	-41.2	-43.6	18.8	0.00e+00	0	37	0	417333248	53	4886
2026-01-25 08:24:56.11	65.36	22.61	-41.4	-43.8	18.6	0.00e+00	0	37	0	423624704	53	4998
2026-01-25 08:24:58.92	64.62	22.71	-41.4	-43.8	18.6	0.00e+00	0	37	0	428867584	53	5006
2026-01-25 08:25:02.27	63.73	22.82	-41.8	-44.3	17.9	0.00e+00	0	37	0	435159040	54	5023
2026-01-25 08:25:04.98	63.00	22.90	-41.7	-44.2	18.2	0.00e+00	0	37	0	440401920	54	4955
2026-01-25 08:25:08.25	62.12	23.00	-41.9	-44.4	18.0	0.00e+00	0	37	0	446693376	54	5090
2026-01-25 08:25:10.98	61.38	23.07	-42.1	-44.7	17.7	0.00e+00	0	37	0	451936256	54	5275
2026-01-25 08:25:14.25	60.48	23.15	-42.1	-44.7	17.7	0.00e+00	0	37	0	458227712	55	4951
2026-01-25 08:25:17.28	59.65	23.22	-42.3	-44.9	17.5	0.00e+00	0	37	0	463470592	55	5079
2026-01-25 08:25:20.41	58.79	23.28	-42.2	-44.8	17.6	0.00e+00	0	37	0	469762048	55	5025
2026-01-25 08:25:23.25	58.01	23.33	-42.0	-44.5	17.9	0.00e+00	0	37	0	475004928	55	4862
2026-01-25 08:25:26.38	57.14	23.38	-42.2	-44.8	17.6	0.00e+00	0	37	0	480247808	55	4992
2026-01-25 08:25:29.22	56.36	23.42	-42.0	-44.6	17.9	0.00e+00	0	37	0	486539264	55	4883
2026-01-25 08:25:32.35	55.48	23.46	-42.0	-44.5	17.9	0.00e+00	0	37	0	491782144	55	4832
2026-01-25 08:25:35.40	54.63	23.49	-41.8	-44.3	18.1	0.00e+00	0	37	0	498073600	55	4740
2026-01-25 08:25:38.26	53.84	23.51	-41.9	-44.4	18.0	0.00e+00	0	37	0	503316480	55	4798
2026-01-25 08:25:41.39	52.96	23.52	-41.6	-44.1	18.3	0.00e+00	0	37	0	508559360	55	4599
2026-01-25 08:25:44.23	52.17	23.53	-41.5	-43.9	18.5	0.00e+00	0	37	0	513802240	54	4804
2026-01-25 08:25:47.43	51.27	23.54	-41.3	-43.7	18.7	0.00e+00	0	37	0	520093696	54	4657
2026-01-25 08:25:50.39	50.44	23.53	-41.0	-43.4	19.0	0.00e+00	0	37	0	525336576	54	4506
2026-01-25 08:25:53.52	49.57	23.52	-40.8	-43.1	19.2	0.00e+00	0	37	0	531628032	53	4627
2026-01-25 08:25:56.36	48.77	23.50	-40.6	-42.8	19.5	0.00e+00	0	37	0	536870912	53	4490
2026-01-25 08:25:59.49	47.90	23.48	-40.0	-42.1	20.2	0.00e+00	0	38	0	543162368	52	4376
2026-01-25 08:26:02.33	47.11	23.45	-40.0	-42.2	20.2	0.00e+00	0	37	0	548405248	51	4660
2026-01-25 08:26:05.46	46.24	23.41	-39.8	-41.8	20.5	0.00e+00	0	38	0	553648128	51	4490
2026-01-25 08:26:08.32	45.45	23.37	-39.8	-41.9	20.4	0.00e+00	0	37	0	558891008	51	4537
2026-01-25 08:26:11.59	44.54	23.31	-39.8	-41.9	20.5	0.00e+00	0	37	0	565182464	51	4519
2026-01-25 08:26:14.29	43.80	23.26	-39.8	-41.9	20.5	0.00e+00	0	37	0	570425344	51	4504
2026-01-25 08:26:17.55	42.90	23.19	-39.8	-41.9	20.5	0.00e+00	0	37	0	576716800	51	4505
2026-01-25 08:26:20.25	42.17	23.13	-40.1	-42.2	20.1	0.00e+00	0	37	0	581959680	51	4689
2026-01-25 08:26:23.98	41.15	23.04	-40.0	-42.1	20.2	0.00e+00	0	37	0	588251136	51	4640
2026-01-25 08:26:26.68	40.42	22.97	-40.4	-42.5	19.9	0.00e+00	0	37	0	593494016	51	4865
2026-01-25 08:26:29.97	39.54	22.87	-40.6	-42.9	19.5	0.00e+00	0	37	0	599785472	52	4760
2026-01-25 08:26:32.73	38.80	22.78	-40.8	-43.1	19.3	0.00e+00	0	37	0	605028352	52	4875
2026-01-25 08:26:36.04	37.92	22.67	-41.0	-43.4	19.0	0.00e+00	0	37	0	611319808	52	5054
2026-01-25 08:26:38.74	37.21	22.58	-41.1	-43.4	18.9	0.00e+00	0	37	0	616562688	52	5085
2026-01-25 08:26:42.02	36.35	22.46	-41.1	-43.5	18.9	0.00e+00	0	37	0	622854144	53	4828
2026-01-25 08:26:44.75	35.64	22.36	-41.5	-43.9	18.5	0.00e+00	0	37	0	628097024	53	5068
2026-01-25 08:26:48.03	34.80	22.22	-41.7	-44.1	18.2	0.00e+00	0	37	0	633339904	53	5213
2026-01-25 08:26:50.73	34.11	22.11	-41.5	-44.0	18.4	0.00e+00	0	37	0	638582784	54	4834
2026-01-25 08:26:54.00	33.28	21.97	-41.8	-44.3	18.1	0.00e+00	0	37	0	644874240	54	5041
2026-01-25 08:26:56.84	32.56	21.84	-41.8	-44.4	18.0	0.00e+00	0	37	0	650117120	54	5084
2026-01-25 08:27:00.22	31.72	21.69	-41.7	-44.2	18.2	0.00e+00	0	37	0	656408576	54	4982
2026-01-25 08:27:02.92	31.05	21.56	-41.6	-44.0	18.3	0.00e+00	0	37	0	661651456	54	4848
2026-01-25 08:27:06.21	30.25	21.39	-41.9	-44.5	17.9	0.00e+00	0	37	0	667942912	54	5139
2026-01-25 08:27:08.93	29.59	21.26	-42.1	-44.7	17.8	0.00e+00	0	37	0	673185792	54	5251
2026-01-25 08:27:12.21	28.81	21.09	-41.8	-44.3	18.1	0.00e+00	0	37	0	679477248	54	5028
2026-01-25 08:27:14.96	28.15	20.94	-41.8	-44.3	18.1	0.00e+00	0	37	0	684720128	54	4986
2026-01-25 08:27:18.25	27.38	20.76	-41.6	-44.1	18.3	0.00e+00	0	37	0	689963008	54	4915
2026-01-25 08:27:20.96	26.75	20.61	-41.6	-44.1	18.3	0.00e+00	0	37	0	695205888	54	4905
2026-01-25 08:27:24.28	25.99	20.42	-41.3	-43.9	18.4	0.00e+00	0	37	0	701497344	54	4794
2026-01-25 08:27:26.99	25.38	20.27	-41.2	-43.8	18.6	0.00e+00	0	37	0	706740224	54	4727
2026-01-25 08:27:30.27	24.64	20.07	-41.3	-43.9	18.4	0.00e+00	0	38	0	713031680	54	4793
2026-01-25 08:27:33.01	24.03	19.91	-41.4	-43.9	18.5	0.00e+00	0	37	0	718274560	54	4773
2026-01-25 08:27:36.31	23.31	19.71	-41.4	-43.9	18.5	0.00e+00	0	37	0	724566016	54	4780
2026-01-25 08:27:39.29	22.66	19.53	-41.3	-43.8	18.6	0.00e+00	0	37	0	729808896	54	4714
2026-01-25 08:27:42.28	22.03	19.34	-41.1	-43.6	18.7	0.00e+00	0	38	0	735051776	54	4624
2026-01-25 08:27:45.39	21.37	19.15	-41.3	-43.8	18.5	0.00e+00	0	37	0	741343232	54	4738
2026-01-25 08:27:48.29	20.77	18.96	-41.3	-43.9	18.5	0.00e+00	0	37	0	746586112	54	4767
2026-01-25 08:27:51.83	20.04	18.73	-41.4	-44.0	18.4	0.00e+00	0	37	0	753926144	54	4834
2026-01-25 08:27:54.53	19.49	18.56	-41.4	-43.9	18.5	0.00e+00	0	37	0	758120448	54	4769
2026-01-25 08:27:57.83	18.83	18.34	-41.4	-43.9	18.4	0.00e+00	0	37	0	764411904	54	4770
2026-01-25 08:28:00.55	18.29	18.16	-41.3	-43.9	18.5	0.00e+00	0	37	0	769654784	54	4761
2026-01-25 08:28:03.83	17.66	17.94	-41.3	-43.8	18.5	0.00e+00	0	37	0	775946240	54	4755
2026-01-25 08:28:06.67	17.11	17.75	-41.3	-43.7	18.6	0.00e+00	0	37	0	781189120	54	4705
2026-01-25 08:28:10.09	16.46	17.52	-41.1	-43.5	18.8	0.00e+00	0	37	0	787480576	54	4572
2026-01-25 08:28:13.07	15.91	17.32	-41.0	-43.3	19.0	0.00e+00	0	37	0	793772032	53	4742
2026-01-25 08:28:16.46	15.28	17.08	-40.8	-43.1	19.1	0.00e+00	0	38	0	800063488	53	4638
2026-01-25 08:28:19.16	14.79	16.90	-40.6	-43.1	19.2	0.00e+00	0	38	0	804257792	53	4602
2026-01-25 08:28:22.42	14.21	16.67	-40.5	-43.1	19.2	0.00e+00	0	37	0	810549248	52	4871
2026-01-25 08:28:25.30	13.70	16.47	-40.5	-43.0	19.2	0.00e+00	0	37	0	815792128	52	4848
2026-01-25 08:28:29.28	13.01	16.20	-40.1	-42.5	19.7	0.00e+00	0	37	0	823132160	52	4589
2026-01-25 08:28:32.12	12.53	16.00	-40.2	-42.7	19.5	0.00e+00	0	38	0	829423616	52	4661
2026-01-25 08:28:36.18	11.84	15.71	-40.5	-42.9	19.3	0.00e+00	0	37	0	836763648	52	4808
2026-01-25 08:28:39.03	11.37	15.51	-40.4	-42.7	19.4	0.00e+00	0	37	0	842006528	52	4704
2026-01-25 08:28:43.15	10.71	15.22	-40.2	-42.7	19.5	0.00e+00	0	37	0	849346560	52	4660
2026-01-25 08:28:46.29	10.20	15.00	-40.3	-42.8	19.4	0.00e+00	0	37	0	855638016	52	4734
2026-01-25 08:28:50.27	9.58	14.72	-40.7	-43.2	19.0	0.00e+00	0	37	0	862978048	52	4932
2026-01-25 08:28:53.12	9.14	14.52	-40.7	-43.3	18.9	0.00e+00	0	37	0	868220928	52	4998
2026-01-25 08:28:57.57	8.47	14.21	-41.1	-43.8	18.5	0.00e+00	0	37	0	876609536	52	5289
2026-01-25 08:29:00.43	8.04	14.01	-41.2	-44.0	18.2	0.00e+00	0	37	0	881852416	53	5109
2026-01-25 08:29:04.13	7.50	13.75	-40.9	-43.7	18.5	0.00e+00	0	38	0	889192448	53	4948
2026-01-25 08:29:07.13	7.06	13.54	-40.8	-43.6	18.6	0.00e+00	0	37	0	894435328	53	4880
2026-01-25 08:29:10.11	6.64	13.33	-41.2	-44.0	18.2	0.00e+00	0	38	0	900726784	53	5113
2026-01-25 08:29:13.10	6.22	13.12	-41.4	-44.2	18.0	0.00e+00	0	37	0	905969664	53	5260
2026-01-25 08:29:16.16	5.80	12.90	-41.5	-44.2	17.9	0.00e+00	0	37	0	911212544	53	5269
2026-01-25 08:29:19.14	5.39	12.69	-41.4	-44.1	18.0	0.00e+00	0	37	0	917504000	53	5201
2026-01-25 08:29:22.12	4.99	12.49	-41.4	-44.2	17.9	0.00e+00	0	37	0	922746880	53	5277
2026-01-25 08:29:25.11	4.60	12.28	-41.6	-44.4	17.7	0.00e+00	0	37	0	927989760	53	5384
2026-01-25 08:29:28.09	4.21	12.07	-41.8	-44.6	17.5	0.00e+00	0	37	0	934281216	54	5205
2026-01-25 08:29:31.08	3.83	11.86	-41.9	-44.7	17.5	0.00e+00	0	37	0	939524096	54	5220
2026-01-25 08:29:34.03	3.45	11.66	-41.9	-44.8	17.3	0.00e+00	0	37	0	944766976	54	5291
2026-01-25 08:29:37.28	3.05	11.43	-41.9	-45.0	17.2	0.00e+00	0	37	0	951058432	54	5413
2026-01-25 08:29:40.12	2.70	11.24	-42.0	-44.9	17.2	0.00e+00	0	38	0	956301312	54	5400
2026-01-25 08:29:43.25	2.32	11.02	-41.9	-44.9	17.2	0.00e+00	0	37	0	962592768	54	5391
2026-01-25 08:29:46.10	1.98	10.83	-41.7	-44.9	17.2	0.00e+00	0	37	0	967835648	54	5393
2026-01-25 08:29:49.86	1.54	10.57	-42.1	-45.1	17.0	0.00e+00	0	37	0	975175680	54	5510
2026-01-25 08:29:52.65	1.22	10.38	-42.3	-45.5	16.6	0.00e+00	0	37	0	980418560	55	5404
2026-01-25 08:29:56.05	0.83	10.15	-42.3	-45.6	16.5	0.00e+00	0	37	0	986710016	55	5485
2026-01-25 08:29:58.76	0.53	9.97	-42.2	-45.7	16.4	0.00e+00	0	37	0	991952896	55	5537
2026-01-25 08:30:02.22	0.14	9.74	-42.3	-45.9	16.2	0.00e+00	0	37	0	998244352	55	5681
2026-01-25 08:30:04.92	359.85	9.55	-42.4	-46.1	15.9	0.00e+00	0	37	0	1003487232	55	5823
2026-01-25 08:30:08.18	359.50	9.34	-42.9	-46.5	15.8	0.00e+00	0	37	0	1008730112	56	5731
2026-01-25 08:30:10.92	359.21	9.15	-43.2	-46.5	15.7	0.00e+00	0	37	0	1013972992	57	5449
2026-01-25 08:30:14.22	358.86	8.94	-46.8	-62.3	3.8	2.33e-01	0	38	104	1020264448	64	22342
2026-01-25 08:30:17.19	358.56	8.74	-48.1	-63.7	3.8	1.49e+00	0	37	104	1020264448	66	23485
2026-01-25 08:30:20.77	358.19	8.50	-48.3	-63.9	3.8	1.49e+00	0	37	104	1020264448	67	22661
2026-01-25 08:30:23.52	357.92	8.32	-47.7	-64.0	3.8	1.49e+00	0	37	104	1020264448	67	22794
2026-01-25 08:30:26.84	357.59	8.11	-48.8	-64.2	3.8	1.49e+00	0	38	104	1020264448	68	22037
2026-01-25 08:30:29.54	357.33	7.93	-48.7	-64.2	3.8	1.49e+00	0	37	104	1020264448	68	22069
2026-01-25 08:30:32.80	357.02	7.72	-48.8	-64.2	3.8	1.49e+00	0	37	104	1020264448	68	22153
2026-01-25 08:30:35.50	356.76	7.55	-49.0	-64.2	3.8	1.49e+00	0	37	104	1020264448	68	22217
2026-01-25 08:30:38.76	356.46	7.34	-48.9	-64.2	3.8	1.49e+00	0	37	104	1020264448	68	22125
2026-01-25 08:30:41.51	356.21	7.16	-48.8	-64.2	3.8	1.49e+00	0	37	104	1020264448	68	22232
2026-01-25 08:30:44.85	355.90	6.95	-48.6	-64.2	3.8	1.49e+00	0	38	104	1020264448	68	22033
2026-01-25 08:30:47.55	355.66	6.78	-48.6	-64.2	3.8	1.49e+00	0	37	104	1020264448	68	22023
2026-01-25 08:30:50.81	355.37	6.57	-48.6	-64.1	3.8	1.49e+00	0	37	104	1020264448	68	21959
2026-01-25 08:30:53.53	355.14	6.40	-48.6	-64.1	3.8	1.49e+00	0	37	104	1020264448	68	21991
2026-01-25 08:30:56.79	354.86	6.20	-48.6	-64.1	3.8	1.49e+00	0	37	104	1020264448	68	21967
2026-01-25 08:30:59.49	354.63	6.03	-48.6	-64.1	3.8	1.49e+00	0	37	104	1020264448	68	21969
2026-01-25 08:31:02.75	354.36	5.83	-48.6	-64.1	3.8	1.49e+00	0	38	104	1020264448	68	21986
2026-01-25 08:31:05.45	354.13	5.66	-48.6	-64.1	3.8	1.49e+00	0	37	104	1020264448	68	21976
2026-01-25 08:31:08.73	353.87	5.46	-48.5	-64.2	3.8	1.49e+00	0	37	104	1020264448	68	22013
2026-01-25 08:31:11.42	353.65	5.29	-48.5	-64.1	3.8	1.49e+00	0	38	104	1020264448	68	21920
2026-01-25 08:31:14.69	353.39	5.09	-48.5	-64.1	3.8	1.49e+00	0	38	104	1020264448	68	21899

#Closed at: 2026-01-25 08:31:17
#Recorded file [1020 MB]: D:/Data/31040_260125_112020.dat