passes_logs/2026/01/25/T1/T1__20260125_111945_SUOMI_NPP_rec.log

#Pass ID: 20260125_111945_SUOMI NPP
#Satellite: SUOMI NPP
#Configuration: NPP
#almurnet v.1.7.20251203
#Start time: 2026-01-25 11:19:47

#Version: 2.0.20230620
#Station: T1
#Location: 37.570604 lon 55.790049 lat
#TLE: 1 37849U 11061A   26024.54906732  .00000185  00000+0  10878-3 0  9990
#TLE: 2 37849  98.7821 326.5159 0002200  47.3746 312.7615 14.19529340738061

#Time	Az	El	Level	Level2	SNR	BER	BlckErr	Temp	State	Recorded	gain1	gain2
2026-01-25 11:19:47.36	203.42	5.14	-49.1	-64.7	3.8	1.49e+00	0	35	0	0	69	22066
2026-01-25 11:19:50.34	203.65	5.32	-49.1	-64.6	3.8	1.49e+00	0	36	104	0	70	20707
2026-01-25 11:19:53.32	203.88	5.51	-49.1	-64.6	3.8	1.49e+00	0	36	104	0	70	20763
2026-01-25 11:19:56.30	204.11	5.70	-49.1	-64.7	3.8	1.49e+00	0	36	104	0	70	20795
2026-01-25 11:19:59.28	204.34	5.89	-49.1	-64.7	3.8	1.49e+00	0	36	104	0	70	20944
2026-01-25 11:20:02.26	204.58	6.09	-49.1	-64.6	3.8	1.49e+00	0	36	104	0	70	20559
2026-01-25 11:20:05.24	204.82	6.28	-49.0	-64.2	3.8	1.49e+00	0	36	104	0	70	19823
2026-01-25 11:20:08.22	205.06	6.47	-49.0	-64.1	3.8	1.49e+00	0	36	104	0	70	19497
2026-01-25 11:20:11.19	205.31	6.67	-49.0	-64.0	3.8	1.49e+00	0	37	104	0	70	19320
2026-01-25 11:20:14.17	205.56	6.86	-49.0	-63.9	3.8	1.49e+00	0	37	104	0	70	19118
2026-01-25 11:20:17.15	205.81	7.06	-49.0	-64.1	3.8	1.49e+00	0	37	104	0	69	20617
2026-01-25 11:20:20.13	206.07	7.26	-49.0	-64.3	3.8	1.49e+00	0	37	104	0	69	21212
2026-01-25 11:20:23.11	206.33	7.46	-48.9	-63.3	3.8	1.49e+00	0	37	104	0	69	18873
2026-01-25 11:20:26.09	206.59	7.66	-48.9	-62.2	3.8	1.47e+00	0	37	104	0	69	16566
2026-01-25 11:20:29.07	206.86	7.86	-49.0	-64.3	3.8	1.49e+00	0	37	104	0	69	21048
2026-01-25 11:20:32.05	207.13	8.06	-47.4	-54.0	9.1	5.35e-02	0	37	0	3145728	66	7631
2026-01-25 11:20:35.03	207.40	8.27	-44.7	-48.1	15.1	0.00e+00	0	37	0	8388608	61	5200
2026-01-25 11:20:38.01	207.68	8.47	-43.6	-46.5	16.7	0.00e+00	0	37	0	13631488	58	5125
2026-01-25 11:20:40.99	207.96	8.68	-44.6	-48.1	15.2	0.00e+00	0	37	0	19922944	59	5793
2026-01-25 11:20:43.97	208.25	8.88	-46.8	-52.3	10.8	5.50e-04	0	37	0	25165824	64	7107
2026-01-25 11:20:46.95	208.54	9.09	-47.9	-55.7	7.4	1.37e-01	0	37	0	30408704	66	9330
2026-01-25 11:20:49.93	208.83	9.30	-45.9	-50.3	12.9	2.37e-03	0	37	0	35651584	63	5936
2026-01-25 11:20:52.93	209.13	9.51	-44.8	-48.4	14.7	1.50e-06	0	37	0	39845888	61	5384
2026-01-25 11:20:55.96	209.44	9.73	-43.7	-46.6	16.6	0.00e+00	0	38	0	45088768	59	4917
2026-01-25 11:20:58.94	209.74	9.94	-43.0	-45.7	17.5	0.00e+00	0	38	0	51380224	58	4687
2026-01-25 11:21:01.93	210.05	10.15	-43.0	-45.7	17.6	0.00e+00	0	38	0	56623104	57	4930
2026-01-25 11:21:04.91	210.37	10.37	-42.9	-45.6	17.6	0.00e+00	0	38	0	61865984	57	4879
2026-01-25 11:21:07.90	210.69	10.59	-43.0	-45.8	17.3	0.00e+00	0	37	0	68157440	57	5037
2026-01-25 11:21:10.86	211.01	10.80	-43.1	-46.0	17.1	0.00e+00	0	38	0	73400320	57	5124
2026-01-25 11:21:13.85	211.34	11.02	-43.2	-46.0	17.1	0.00e+00	0	38	0	78643200	57	5152
2026-01-25 11:21:16.83	211.67	11.24	-42.9	-45.6	17.6	0.00e+00	0	38	0	84934656	57	4885
2026-01-25 11:21:19.81	212.01	11.46	-42.7	-45.3	17.9	0.00e+00	0	38	0	90177536	57	4723
2026-01-25 11:21:22.80	212.35	11.68	-42.6	-45.1	18.1	0.00e+00	0	38	0	95420416	57	4613
2026-01-25 11:21:26.14	212.74	11.93	-42.8	-45.3	17.9	0.00e+00	0	38	0	101711872	56	5032
2026-01-25 11:21:28.87	213.07	12.14	-43.0	-45.6	17.6	0.00e+00	0	38	0	106954752	56	5214
2026-01-25 11:21:32.19	213.47	12.39	-43.2	-46.0	17.3	0.00e+00	0	38	0	113246208	57	5111
2026-01-25 11:21:34.95	213.81	12.60	-43.3	-46.0	17.2	0.00e+00	0	38	0	118489088	57	5143
2026-01-25 11:21:38.25	214.21	12.85	-43.2	-45.9	17.5	0.00e+00	0	38	0	124780544	57	5043
2026-01-25 11:21:41.21	214.59	13.07	-43.2	-45.9	17.4	0.00e+00	0	38	0	130023424	57	5045
2026-01-25 11:21:44.84	215.05	13.35	-43.2	-45.8	17.5	0.00e+00	0	38	0	137363456	57	4999
2026-01-25 11:21:47.71	215.43	13.57	-43.1	-45.7	17.6	0.00e+00	0	38	0	142606336	57	4945
2026-01-25 11:21:51.27	215.90	13.85	-43.1	-45.8	17.6	0.00e+00	0	38	0	148897792	57	4985
2026-01-25 11:21:53.99	216.26	14.06	-43.2	-45.9	17.4	0.00e+00	0	38	0	154140672	57	5047
2026-01-25 11:21:57.27	216.71	14.32	-42.9	-45.4	17.8	0.00e+00	0	38	0	160432128	57	4802
2026-01-25 11:21:59.97	217.09	14.53	-42.9	-45.4	17.9	0.00e+00	0	38	0	165675008	57	4784
2026-01-25 11:22:03.27	217.55	14.79	-42.5	-44.9	18.4	0.00e+00	0	38	0	171966464	56	4787
2026-01-25 11:22:06.26	217.98	15.03	-42.7	-45.1	18.2	0.00e+00	0	38	0	177209344	56	4920
2026-01-25 11:22:09.24	218.41	15.27	-42.9	-45.4	17.9	0.00e+00	0	38	0	182452224	56	5076
2026-01-25 11:22:12.22	218.85	15.50	-43.0	-45.6	17.7	0.00e+00	0	38	0	188743680	57	4906
2026-01-25 11:22:15.32	219.32	15.75	-43.1	-45.7	17.7	0.00e+00	0	38	0	193986560	57	4927
2026-01-25 11:22:18.44	219.80	16.00	-43.0	-45.6	17.8	0.00e+00	0	38	0	200278016	57	4898
2026-01-25 11:22:21.29	220.24	16.23	-43.0	-45.5	17.8	0.00e+00	0	38	0	205520896	57	4866
2026-01-25 11:22:24.41	220.73	16.48	-42.9	-45.5	17.9	0.00e+00	0	38	0	211812352	57	4820
2026-01-25 11:22:27.26	221.18	16.71	-42.7	-45.1	18.3	0.00e+00	0	38	0	217055232	57	4638
2026-01-25 11:22:30.48	221.71	16.97	-42.4	-44.8	18.6	0.00e+00	0	38	0	222298112	56	4722
2026-01-25 11:22:33.81	222.26	17.24	-41.8	-44.1	19.0	0.00e+00	0	38	0	228589568	55	4619
2026-01-25 11:22:36.65	222.73	17.47	-41.7	-43.9	19.2	0.00e+00	0	38	0	233832448	55	4529
2026-01-25 11:22:39.78	223.27	17.73	-41.7	-44.0	19.1	0.00e+00	0	38	0	240123904	55	4569
2026-01-25 11:22:42.64	223.76	17.96	-42.2	-44.5	18.7	0.00e+00	0	38	0	245366784	55	4861
2026-01-25 11:22:45.91	224.34	18.23	-42.1	-44.5	18.8	0.00e+00	0	38	0	251658240	55	4834
2026-01-25 11:22:48.88	224.87	18.47	-42.4	-44.8	18.5	0.00e+00	0	38	0	256901120	55	5004
2026-01-25 11:22:52.38	225.51	18.76	-42.0	-44.4	18.8	0.00e+00	0	38	0	264241152	55	4763
2026-01-25 11:22:55.11	226.01	18.98	-41.9	-44.2	19.0	0.00e+00	0	38	0	268435456	55	4658
2026-01-25 11:22:58.42	226.63	19.25	-41.8	-44.0	19.2	0.00e+00	0	38	0	274726912	55	4588
2026-01-25 11:23:01.13	227.15	19.47	-41.7	-43.9	19.2	0.00e+00	0	38	0	279969792	55	4537
2026-01-25 11:23:04.39	227.78	19.73	-41.7	-44.0	19.2	0.00e+00	0	38	0	286261248	54	4847
2026-01-25 11:23:07.28	228.35	19.96	-41.7	-44.0	19.2	0.00e+00	0	38	0	291504128	54	4824
2026-01-25 11:23:11.26	229.15	20.29	-41.4	-43.6	19.6	0.00e+00	0	38	0	298844160	54	4633
2026-01-25 11:23:14.10	229.73	20.51	-41.5	-43.7	19.5	0.00e+00	0	38	0	304087040	54	4658
2026-01-25 11:23:18.14	230.56	20.84	-41.3	-43.5	19.7	0.00e+00	0	38	0	312475648	54	4584
2026-01-25 11:23:21.11	231.19	21.07	-41.8	-44.1	19.2	0.00e+00	0	38	0	317718528	54	4871
2026-01-25 11:23:24.91	232.01	21.37	-41.8	-44.0	19.2	0.00e+00	0	38	0	325058560	54	4854
2026-01-25 11:23:27.74	232.62	21.59	-41.6	-43.8	19.4	0.00e+00	0	38	0	330301440	54	4756
2026-01-25 11:23:30.87	233.32	21.84	-41.7	-44.0	19.3	0.00e+00	0	38	0	335544320	54	4846
2026-01-25 11:23:33.71	233.96	22.06	-41.8	-44.0	19.2	0.00e+00	0	38	0	340787200	54	4858
2026-01-25 11:23:36.91	234.69	22.30	-41.7	-44.0	19.3	0.00e+00	0	38	0	347078656	54	4827
2026-01-25 11:23:39.76	235.35	22.52	-41.7	-43.9	19.3	0.00e+00	0	38	0	352321536	54	4812
2026-01-25 11:23:42.98	236.10	22.76	-41.8	-44.1	19.2	0.00e+00	0	38	0	358612992	54	4896
2026-01-25 11:23:45.82	236.78	22.97	-41.5	-43.7	19.4	0.00e+00	0	38	0	363855872	54	4703
2026-01-25 11:23:48.95	237.53	23.20	-41.4	-43.5	19.7	0.00e+00	0	38	0	370147328	54	4589
2026-01-25 11:23:51.79	238.23	23.41	-41.5	-43.8	19.5	0.00e+00	0	38	0	375390208	54	4709
2026-01-25 11:23:54.91	239.00	23.63	-42.2	-44.6	18.7	0.00e+00	0	38	0	380633088	55	4875
2026-01-25 11:23:57.75	239.72	23.83	-42.1	-44.5	18.8	0.00e+00	0	38	0	385875968	55	4850
2026-01-25 11:24:00.88	240.51	24.05	-41.7	-44.0	19.2	0.00e+00	0	38	0	392167424	55	4588
2026-01-25 11:24:03.80	241.27	24.24	-41.4	-43.6	19.6	0.00e+00	0	38	0	397410304	54	4632
2026-01-25 11:24:07.13	242.14	24.47	-41.8	-44.1	19.2	0.00e+00	0	38	0	403701760	54	4903
2026-01-25 11:24:10.27	242.97	24.67	-42.2	-44.7	18.7	0.00e+00	0	38	0	409993216	55	4938
2026-01-25 11:24:13.18	243.75	24.85	-41.4	-43.6	19.6	0.00e+00	0	38	0	415236096	54	4629
2026-01-25 11:24:16.30	244.59	25.05	-42.9	-45.4	18.1	0.00e+00	0	38	0	421527552	56	5070
2026-01-25 11:24:19.21	245.39	25.22	-43.2	-45.8	17.8	0.00e+00	0	38	0	426770432	57	5014
2026-01-25 11:24:22.48	246.30	25.42	-43.2	-45.8	17.8	0.00e+00	0	38	0	433061888	57	4988
2026-01-25 11:24:25.42	247.12	25.58	-42.9	-45.3	18.2	0.00e+00	0	38	0	438304768	57	4746
2026-01-25 11:24:29.40	248.25	25.80	-43.7	-46.4	17.3	0.00e+00	0	38	0	445644800	57	5356
2026-01-25 11:24:32.42	249.12	25.96	-44.1	-46.9	16.8	0.00e+00	0	38	0	450887680	59	5061
2026-01-25 11:24:35.68	250.06	26.13	-44.0	-46.9	16.8	0.00e+00	0	38	0	457179136	59	5042
2026-01-25 11:24:38.41	250.86	26.26	-44.2	-47.1	16.5	0.00e+00	0	38	0	462422016	59	5195
2026-01-25 11:24:41.68	251.83	26.41	-44.9	-48.2	15.6	0.00e+00	0	38	0	468713472	60	5530
2026-01-25 11:24:44.39	252.64	26.53	-43.8	-46.5	17.1	0.00e+00	0	38	0	473956352	59	4866
2026-01-25 11:24:47.63	253.61	26.67	-44.1	-47.1	16.5	0.00e+00	0	38	0	480247808	59	5163
2026-01-25 11:24:50.72	254.54	26.79	-44.4	-47.3	16.3	0.00e+00	0	38	0	485490688	59	5339
2026-01-25 11:24:54.13	255.58	26.92	-45.2	-48.6	15.2	0.00e+00	0	38	0	491782144	61	5499
2026-01-25 11:24:57.25	256.54	27.02	-44.8	-48.0	15.8	0.00e+00	0	38	0	498073600	61	5106
2026-01-25 11:25:00.16	257.44	27.12	-45.5	-49.0	14.8	0.00e+00	0	38	0	503316480	61	5745
2026-01-25 11:25:03.43	258.45	27.21	-44.8	-48.0	15.7	0.00e+00	0	38	0	509607936	61	5118
2026-01-25 11:25:06.33	259.36	27.29	-44.5	-47.5	16.2	0.00e+00	0	38	0	514850816	60	5146
2026-01-25 11:25:09.58	260.38	27.37	-45.0	-48.3	15.4	0.00e+00	0	38	0	521142272	60	5648
2026-01-25 11:25:12.49	261.29	27.43	-45.9	-49.7	14.1	3.00e-06	0	38	0	526385152	62	5880
2026-01-25 11:25:15.69	262.31	27.48	-45.4	-48.9	14.9	7.00e-07	0	38	0	532676608	62	5367
2026-01-25 11:25:18.53	263.21	27.53	-44.6	-47.7	16.0	0.00e+00	0	38	0	537919488	61	4980
2026-01-25 11:25:21.66	264.20	27.57	-45.1	-48.6	15.3	0.00e+00	0	38	0	543162368	61	5483
2026-01-25 11:25:24.50	265.11	27.60	-45.2	-48.5	15.3	0.00e+00	0	38	0	549453824	61	5415
2026-01-25 11:25:27.82	266.16	27.62	-44.5	-47.5	16.2	0.00e+00	0	38	0	555745280	60	5144
2026-01-25 11:25:30.80	267.12	27.63	-44.6	-47.6	16.1	0.00e+00	0	38	0	560988160	60	5213
2026-01-25 11:25:33.79	268.07	27.64	-44.2	-47.1	16.6	0.00e+00	0	38	0	566231040	60	4909
2026-01-25 11:25:36.78	269.03	27.63	-45.1	-48.5	15.2	0.00e+00	0	38	0	572522496	60	5777
2026-01-25 11:25:39.73	269.97	27.62	-45.2	-48.6	15.2	0.00e+00	0	38	0	577765376	61	5475
2026-01-25 11:25:42.85	270.96	27.60	-45.4	-49.0	14.8	0.00e+00	0	38	0	583008256	61	5737
2026-01-25 11:25:45.69	271.87	27.57	-44.1	-47.0	16.8	0.00e+00	0	38	0	588251136	60	4826
2026-01-25 11:25:48.82	272.86	27.53	-43.5	-46.1	17.5	0.00e+00	0	38	0	594542592	58	4921
2026-01-25 11:25:51.66	273.76	27.49	-43.0	-45.5	18.1	0.00e+00	0	38	0	599785472	58	4586
2026-01-25 11:25:54.79	274.75	27.43	-44.2	-47.1	16.6	0.00e+00	0	38	0	606076928	59	5180
2026-01-25 11:25:57.69	275.66	27.37	-44.5	-47.5	16.2	0.00e+00	0	38	0	611319808	59	5447
2026-01-25 11:26:00.87	276.66	27.29	-44.3	-47.2	16.5	0.00e+00	0	38	0	617611264	59	5244
2026-01-25 11:26:03.82	277.58	27.22	-43.9	-46.6	17.1	0.00e+00	0	38	0	622854144	59	4914
2026-01-25 11:26:06.94	278.54	27.13	-43.8	-46.5	17.1	0.00e+00	0	38	0	628097024	59	4868
2026-01-25 11:26:09.78	279.42	27.04	-43.8	-46.5	17.2	0.00e+00	0	38	0	634388480	59	4857
2026-01-25 11:26:13.01	280.41	26.93	-43.8	-46.5	17.1	0.00e+00	0	38	0	639631360	59	4834
2026-01-25 11:26:15.85	281.28	26.83	-42.7	-45.1	18.5	0.00e+00	0	38	0	644874240	57	4610
2026-01-25 11:26:19.07	282.25	26.70	-43.2	-45.8	17.8	0.00e+00	0	38	0	651165696	57	4994
2026-01-25 11:26:21.91	283.10	26.58	-44.1	-47.0	16.8	0.00e+00	0	38	0	656408576	59	5105
2026-01-25 11:26:25.04	284.03	26.45	-42.8	-45.3	18.3	0.00e+00	0	38	0	662700032	57	4715
2026-01-25 11:26:27.88	284.87	26.32	-42.6	-45.0	18.6	0.00e+00	0	39	0	667942912	56	4817
2026-01-25 11:26:31.01	285.79	26.17	-41.3	-43.4	19.8	0.00e+00	0	38	0	674234368	54	4533
2026-01-25 11:26:33.86	286.61	26.03	-42.0	-44.2	19.2	0.00e+00	0	38	0	679477248	54	4973
2026-01-25 11:26:36.99	287.51	25.87	-42.3	-44.6	18.7	0.00e+00	0	38	0	684720128	55	4926
2026-01-25 11:26:39.83	288.32	25.71	-41.3	-43.4	19.9	0.00e+00	0	38	0	689963008	54	4534
2026-01-25 11:26:42.95	289.20	25.54	-41.3	-43.4	19.9	0.00e+00	0	38	0	696254464	54	4526
2026-01-25 11:26:45.87	290.01	25.37	-40.4	-42.5	20.6	0.00e+00	0	38	0	701497344	52	4564
2026-01-25 11:26:49.00	290.88	25.19	-40.5	-42.5	20.6	0.00e+00	0	38	0	707788800	52	4597
2026-01-25 11:26:51.84	291.65	25.02	-41.6	-43.8	19.5	0.00e+00	0	38	0	713031680	53	5022
2026-01-25 11:26:54.97	292.49	24.82	-41.1	-43.3	20.0	0.00e+00	0	38	0	718274560	53	4708
2026-01-25 11:26:57.85	293.26	24.64	-41.0	-43.2	20.0	0.00e+00	0	38	0	723517440	53	4663
2026-01-25 11:27:01.03	294.10	24.43	-40.7	-42.7	20.4	0.00e+00	0	38	0	729808896	53	4438
2026-01-25 11:27:03.87	294.83	24.25	-41.1	-43.2	20.0	0.00e+00	0	38	0	735051776	53	4673
2026-01-25 11:27:07.00	295.64	24.04	-40.7	-42.7	20.4	0.00e+00	0	38	0	741343232	53	4419
2026-01-25 11:27:09.84	296.36	23.84	-41.0	-43.1	20.1	0.00e+00	0	38	0	746586112	53	4606
2026-01-25 11:27:13.03	297.15	23.62	-41.2	-43.3	19.9	0.00e+00	0	38	0	752877568	53	4755
2026-01-25 11:27:15.93	297.87	23.41	-41.0	-43.2	20.0	0.00e+00	0	38	0	758120448	53	4653
2026-01-25 11:27:19.06	298.63	23.19	-41.6	-43.9	19.4	0.00e+00	0	38	0	763363328	53	5042
2026-01-25 11:27:21.89	299.31	22.98	-42.5	-44.9	18.5	0.00e+00	0	38	0	768606208	55	5069
2026-01-25 11:27:25.02	300.05	22.75	-41.7	-44.0	19.3	0.00e+00	0	38	0	774897664	55	4567
2026-01-25 11:27:27.86	300.71	22.54	-41.8	-44.1	19.2	0.00e+00	0	38	0	780140544	55	4601
2026-01-25 11:27:31.04	301.44	22.30	-41.5	-43.8	19.5	0.00e+00	0	38	0	786432000	55	4446
2026-01-25 11:27:33.98	302.11	22.07	-41.2	-43.3	19.9	0.00e+00	0	38	0	791674880	54	4467
2026-01-25 11:27:37.10	302.81	21.83	-41.8	-44.1	19.2	0.00e+00	0	38	0	797966336	54	4901
2026-01-25 11:27:40.01	303.45	21.61	-42.1	-44.5	18.8	0.00e+00	0	38	0	803209216	55	4822
2026-01-25 11:27:43.00	304.10	21.38	-42.2	-44.5	18.8	0.00e+00	0	38	0	808452096	55	4841
2026-01-25 11:27:45.98	304.74	21.14	-42.3	-44.6	18.6	0.00e+00	0	38	0	814743552	55	4916
2026-01-25 11:27:48.96	305.36	20.91	-41.9	-44.2	19.1	0.00e+00	0	38	0	819986432	55	4679
2026-01-25 11:27:52.02	306.00	20.67	-42.5	-44.9	18.5	0.00e+00	0	38	0	825229312	55	5083
2026-01-25 11:27:54.86	306.58	20.44	-43.2	-45.9	17.6	0.00e+00	0	38	0	830472192	57	5052
2026-01-25 11:27:57.98	307.21	20.19	-42.0	-44.3	19.1	0.00e+00	0	38	0	836763648	56	4460
2026-01-25 11:28:00.83	307.77	19.96	-41.1	-43.2	19.9	0.00e+00	0	38	0	842006528	54	4441
2026-01-25 11:28:04.13	308.42	19.70	-42.3	-44.7	18.6	0.00e+00	0	38	0	848297984	55	4939
2026-01-25 11:28:07.25	309.02	19.45	-42.7	-45.1	18.3	0.00e+00	0	38	0	854589440	56	4906
2026-01-25 11:28:10.19	309.57	19.21	-42.5	-44.9	18.5	0.00e+00	0	38	0	859832320	56	4799
2026-01-25 11:28:13.31	310.15	18.96	-42.6	-45.1	18.4	0.00e+00	0	38	0	865075200	56	4900
2026-01-25 11:28:16.22	310.69	18.73	-41.9	-44.3	19.0	0.00e+00	0	38	0	871366656	55	4708
2026-01-25 11:28:19.71	311.32	18.45	-41.7	-43.9	19.3	0.00e+00	0	38	0	877658112	54	4801
2026-01-25 11:28:22.41	311.79	18.23	-42.4	-44.8	18.4	0.00e+00	0	38	0	882900992	55	5024
2026-01-25 11:28:25.68	312.37	17.96	-41.9	-44.3	18.9	0.00e+00	0	38	0	889192448	55	4724
2026-01-25 11:28:28.41	312.84	17.74	-41.5	-43.7	19.4	0.00e+00	0	38	0	893386752	54	4693
2026-01-25 11:28:31.68	313.39	17.48	-42.0	-44.4	18.8	0.00e+00	0	38	0	899678208	54	5086
2026-01-25 11:28:34.39	313.84	17.26	-42.5	-45.0	18.2	0.00e+00	0	38	0	904921088	55	5158
2026-01-25 11:28:37.76	314.39	16.99	-42.0	-44.4	18.8	0.00e+00	0	38	0	911212544	55	4786
2026-01-25 11:28:40.48	314.83	16.77	-41.8	-44.1	19.1	0.00e+00	0	38	0	916455424	55	4628
2026-01-25 11:28:43.76	315.35	16.51	-42.0	-44.3	18.8	0.00e+00	0	38	0	922746880	55	4754
2026-01-25 11:28:46.49	315.78	16.29	-41.9	-44.2	18.9	0.00e+00	0	38	0	927989760	55	4690
2026-01-25 11:28:49.76	316.29	16.03	-41.5	-43.8	19.3	0.00e+00	0	38	0	934281216	54	4730
2026-01-25 11:28:52.59	316.72	15.81	-42.2	-44.8	18.3	0.00e+00	0	38	0	939524096	55	5035
2026-01-25 11:28:55.71	317.18	15.56	-43.3	-46.4	17.1	0.00e+00	0	38	0	944766976	57	5355
2026-01-25 11:28:58.56	317.60	15.34	-43.5	-46.5	17.0	0.00e+00	0	38	0	950009856	57	5435
2026-01-25 11:29:01.64	318.05	15.09	-43.1	-45.8	17.6	0.00e+00	0	38	0	956301312	57	5000
2026-01-25 11:29:04.62	318.47	14.86	-42.7	-45.3	18.1	0.00e+00	0	38	0	961544192	57	4708
2026-01-25 11:29:07.60	318.89	14.63	-42.1	-44.5	18.8	0.00e+00	0	38	0	966787072	56	4562
2026-01-25 11:29:10.59	319.31	14.39	-41.5	-43.8	19.3	0.00e+00	0	38	0	973078528	55	4476
2026-01-25 11:29:13.57	319.71	14.16	-41.6	-43.9	19.2	0.00e+00	0	38	0	978321408	54	4770
2026-01-25 11:29:16.56	320.11	13.93	-42.1	-44.5	18.6	0.00e+00	0	38	0	983564288	54	5139
2026-01-25 11:29:19.54	320.51	13.70	-42.9	-45.7	17.7	0.00e+00	0	38	0	989855744	56	5222
2026-01-25 11:29:22.53	320.90	13.47	-43.2	-46.1	17.3	0.00e+00	0	38	0	995098624	57	5192
2026-01-25 11:29:25.51	321.28	13.25	-43.4	-46.2	17.2	0.00e+00	0	38	0	1000341504	57	5258
2026-01-25 11:29:28.50	321.66	13.02	-43.2	-45.9	17.4	0.00e+00	0	38	0	1006632960	57	5073
2026-01-25 11:29:31.53	322.04	12.79	-42.7	-45.3	18.0	0.00e+00	0	38	0	1011875840	57	4731
2026-01-25 11:29:34.51	322.40	12.57	-42.8	-45.4	17.9	0.00e+00	0	38	0	1018167296	57	4792
2026-01-25 11:29:37.49	322.76	12.34	-42.9	-45.5	17.8	0.00e+00	0	38	0	1023410176	57	4827
2026-01-25 11:29:40.48	323.12	12.12	-42.9	-45.6	17.7	0.00e+00	0	38	0	1028653056	57	4908
2026-01-25 11:29:43.46	323.47	11.90	-42.5	-45.4	17.9	0.00e+00	0	38	0	1034944512	56	5057
2026-01-25 11:29:46.58	323.83	11.67	-42.5	-45.4	17.9	0.00e+00	0	38	0	1040187392	56	5066
2026-01-25 11:29:49.42	324.16	11.46	-42.9	-45.9	17.4	0.00e+00	0	38	0	1045430272	56	5359
2026-01-25 11:29:52.55	324.51	11.23	-43.3	-46.5	16.9	0.00e+00	0	38	0	1051721728	57	5411
2026-01-25 11:29:55.39	324.82	11.03	-43.8	-47.1	16.2	0.00e+00	0	38	0	1056964608	58	5518
2026-01-25 11:29:58.51	325.17	10.80	-44.0	-47.6	15.7	0.00e+00	0	38	0	1062207488	58	5847
2026-01-25 11:30:01.36	325.47	10.60	-43.9	-47.5	15.9	0.00e+00	0	38	0	1068498944	58	5726
2026-01-25 11:30:04.48	325.81	10.37	-43.7	-47.1	16.2	0.00e+00	0	38	0	1073741824	58	5513
2026-01-25 11:30:07.32	326.10	10.17	-43.5	-46.8	16.5	0.00e+00	0	38	0	1078984704	58	5294
2026-01-25 11:30:10.45	326.43	9.95	-43.4	-46.5	16.8	0.00e+00	0	38	0	1085276160	58	5119
2026-01-25 11:30:13.29	326.72	9.75	-43.2	-46.0	17.2	0.00e+00	0	38	0	1090519040	58	4865
2026-01-25 11:30:16.51	327.04	9.52	-43.0	-45.8	17.4	0.00e+00	0	38	0	1096810496	58	4714
2026-01-25 11:30:19.35	327.32	9.32	-43.0	-45.8	17.4	0.00e+00	0	38	0	1102053376	57	5026
2026-01-25 11:30:22.59	327.64	9.10	-42.8	-45.7	17.5	0.00e+00	0	38	0	1108344832	57	4943
2026-01-25 11:30:25.43	327.92	8.90	-48.0	-64.2	3.8	7.99e-01	0	38	104	1112539136	68	22208
2026-01-25 11:30:28.55	328.21	8.69	-49.0	-65.1	3.8	1.49e+00	0	38	104	1112539136	69	23228
2026-01-25 11:30:31.39	328.48	8.50	-48.5	-65.3	3.8	1.49e+00	0	38	104	1112539136	69	23696
2026-01-25 11:30:34.59	328.78	8.28	-49.8	-65.3	3.8	1.49e+00	0	38	104	1112539136	70	22513
2026-01-25 11:30:37.49	329.04	8.08	-50.0	-65.3	3.8	1.49e+00	0	38	104	1112539136	70	22491
2026-01-25 11:30:40.68	329.33	7.87	-50.1	-65.4	3.8	1.49e+00	0	38	104	1112539136	71	21400
2026-01-25 11:30:43.52	329.58	7.68	-50.1	-65.4	3.8	1.49e+00	0	38	104	1112539136	71	21368
2026-01-25 11:30:46.64	329.86	7.47	-49.9	-65.3	3.8	1.49e+00	0	38	104	1112539136	71	21132
2026-01-25 11:30:49.48	330.11	7.29	-49.8	-65.3	3.8	1.49e+00	0	38	104	1112539136	71	21162
2026-01-25 11:30:52.60	330.37	7.08	-49.8	-65.3	3.8	1.49e+00	0	38	104	1112539136	71	21089
2026-01-25 11:30:55.44	330.61	6.90	-49.8	-65.3	3.8	1.49e+00	0	38	104	1112539136	71	21062
2026-01-25 11:30:58.56	330.87	6.69	-49.8	-65.3	3.8	1.49e+00	0	38	104	1112539136	71	21117
2026-01-25 11:31:01.40	331.11	6.51	-49.8	-65.2	3.8	1.49e+00	0	38	104	1112539136	71	20996
2026-01-25 11:31:04.52	331.36	6.31	-49.8	-65.3	3.8	1.49e+00	0	38	104	1112539136	71	21092
2026-01-25 11:31:07.36	331.59	6.13	-49.8	-65.2	3.8	1.49e+00	0	38	104	1112539136	71	20993
2026-01-25 11:31:10.48	331.84	5.93	-49.8	-65.2	3.8	1.49e+00	0	38	104	1112539136	71	21005
2026-01-25 11:31:13.32	332.06	5.75	-49.8	-65.2	3.8	1.49e+00	0	38	104	1112539136	71	20903
2026-01-25 11:31:16.44	332.31	5.55	-49.8	-65.2	3.8	1.49e+00	0	39	104	1112539136	71	20942
2026-01-25 11:31:19.28	332.52	5.38	-49.8	-65.2	3.8	1.49e+00	0	38	104	1112539136	71	20942
2026-01-25 11:31:22.40	332.76	5.18	-49.8	-65.3	3.8	1.49e+00	0	38	104	1112539136	71	21022
2026-01-25 11:31:25.24	332.97	5.00	-49.8	-65.2	3.8	1.49e+00	0	38	104	1112539136	71	20950

#Closed at: 2026-01-25 11:31:27
#Recorded file [1112 MB]: D:/Data/31040_260125_141947.dat