passes_logs/2026/01/25/T1/T1__20260125_132748_AQUA_rec.log

#Pass ID: 20260125_132748_AQUA
#Satellite: AQUA
#Configuration: AQUA
#almurnet v.1.7.20251203
#Start time: 2026-01-25 13:27:48

#Version: 2.0.20230620
#Station: T1
#Location: 37.570604 lon 55.790049 lat
#TLE: 1 27424U 02022A   26025.22169280  .00001965  00000+0  40301-3 0  9991
#TLE: 2 27424  98.4099 351.8218 0001902  66.1120 348.8694 14.61858181262382

#Time	Az	El	Level	Level2	SNR	BER	BlckErr	Temp	State	Recorded	gain1	gain2
2026-01-25 13:27:48.53	225.20	5.03	-49.8	-70.4	3.8	7.46e-01	0	36	0	0	71	37837
2026-01-25 13:27:51.51	225.56	5.19	-49.7	-70.3	3.8	7.45e-01	0	36	104	0	70	39820
2026-01-25 13:27:54.50	225.93	5.35	-49.8	-70.3	3.8	7.44e-01	0	36	104	0	70	39617
2026-01-25 13:27:57.49	226.30	5.51	-49.7	-70.1	3.8	7.46e-01	0	36	104	0	70	38919
2026-01-25 13:28:00.48	226.68	5.67	-49.7	-70.2	3.8	7.45e-01	0	36	104	0	70	39252
2026-01-25 13:28:03.47	227.06	5.83	-49.7	-70.3	3.8	7.44e-01	0	36	104	0	70	39830
2026-01-25 13:28:06.46	227.44	5.99	-49.7	-70.3	3.8	7.49e-01	0	36	104	0	70	39793
2026-01-25 13:28:09.45	227.84	6.15	-49.7	-70.3	3.8	7.48e-01	0	37	104	0	70	39886
2026-01-25 13:28:12.43	228.23	6.31	-49.7	-70.2	3.8	7.46e-01	0	37	104	0	70	39376
2026-01-25 13:28:15.42	228.63	6.47	-49.7	-70.0	3.8	7.47e-01	0	37	104	0	70	38627
2026-01-25 13:28:18.41	229.03	6.64	-49.7	-70.0	3.8	7.49e-01	0	37	104	0	70	38352
2026-01-25 13:28:21.40	229.44	6.80	-49.7	-70.0	3.8	7.49e-01	0	37	104	0	70	38492
2026-01-25 13:28:24.39	229.86	6.96	-49.7	-69.9	3.8	7.45e-01	0	37	104	0	70	37891
2026-01-25 13:28:27.39	230.28	7.12	-49.7	-69.8	3.8	7.47e-01	0	37	104	0	70	37774
2026-01-25 13:28:30.38	230.70	7.28	-49.7	-69.5	3.8	7.42e-01	0	37	104	0	70	36323
2026-01-25 13:28:33.37	231.13	7.44	-49.7	-68.7	3.8	7.43e-01	0	37	104	0	70	33045
2026-01-25 13:28:36.35	231.56	7.60	-49.7	-70.2	3.8	7.46e-01	0	37	104	0	70	39443
2026-01-25 13:28:39.34	232.00	7.76	-49.7	-69.4	3.8	7.43e-01	0	37	104	0	70	36073
2026-01-25 13:28:42.33	232.44	7.92	-49.7	-69.8	3.8	7.46e-01	0	37	104	0	70	37675
2026-01-25 13:28:45.33	232.89	8.09	-49.7	-69.2	3.8	7.48e-01	0	37	104	0	70	35045
2026-01-25 13:28:48.32	233.35	8.24	-49.7	-68.0	3.9	7.42e-01	0	38	104	0	70	30620
2026-01-25 13:28:51.31	233.81	8.40	-49.6	-67.3	3.8	7.44e-01	0	38	104	0	70	28238
2026-01-25 13:28:54.30	234.27	8.56	-48.0	-54.5	14.5	6.09e-01	0	38	0	2097152	68	7244
2026-01-25 13:28:57.29	234.74	8.72	-44.3	-47.5	21.6	6.08e-01	0	38	0	7340032	60	5135
2026-01-25 13:29:00.28	235.22	8.88	-45.3	-49.1	20.1	6.06e-01	0	38	0	13107200	61	5805
2026-01-25 13:29:03.27	235.70	9.04	-48.3	-55.8	13.2	6.10e-01	0	38	0	18874368	67	8952
2026-01-25 13:29:06.28	236.19	9.20	-49.1	-59.9	8.9	6.36e-01	0	38	0	24641536	68	13416
2026-01-25 13:29:09.29	236.68	9.35	-45.2	-48.7	20.4	6.07e-01	0	38	0	29884416	62	5231
2026-01-25 13:29:12.29	237.18	9.51	-44.2	-47.3	21.8	6.07e-01	0	38	0	35651584	60	5014
2026-01-25 13:29:15.29	237.69	9.67	-43.6	-46.4	22.8	6.09e-01	0	38	0	41418752	59	4806
2026-01-25 13:29:18.29	238.20	9.82	-43.2	-45.8	23.4	6.06e-01	0	38	0	47185920	58	4749
2026-01-25 13:29:21.29	238.72	9.97	-43.0	-45.7	23.5	6.06e-01	0	38	0	52428800	58	4653
2026-01-25 13:29:24.30	239.24	10.13	-43.1	-45.7	23.5	6.07e-01	0	38	0	58195968	58	4701
2026-01-25 13:29:27.30	239.77	10.28	-43.1	-45.7	23.5	6.06e-01	0	38	0	63963136	58	4665
2026-01-25 13:29:30.31	240.30	10.43	-43.1	-45.8	23.5	6.08e-01	0	38	0	69206016	57	4995
2026-01-25 13:29:33.31	240.84	10.58	-42.9	-45.4	23.8	6.07e-01	0	38	0	74973184	57	4810
2026-01-25 13:29:36.32	241.39	10.73	-42.9	-45.5	23.7	6.06e-01	0	38	0	80740352	57	4858
2026-01-25 13:29:39.32	241.94	10.88	-42.7	-45.4	23.7	6.06e-01	0	38	0	86507520	57	4803
2026-01-25 13:29:42.32	242.50	11.02	-42.7	-45.5	23.7	6.08e-01	0	38	0	91750400	57	4830
2026-01-25 13:29:45.32	243.06	11.17	-42.8	-45.4	23.8	6.04e-01	0	38	0	97517568	57	4786
2026-01-25 13:29:48.31	243.63	11.31	-42.7	-45.3	23.9	6.03e-01	0	38	0	103284736	57	4725
2026-01-25 13:29:51.31	244.20	11.46	-42.7	-45.3	23.9	6.06e-01	0	38	0	109051904	57	4710
2026-01-25 13:29:54.32	244.78	11.60	-42.6	-45.1	24.1	6.08e-01	0	38	0	114294784	57	4636
2026-01-25 13:29:57.33	245.37	11.74	-42.5	-45.0	24.0	6.07e-01	0	38	0	120061952	56	4865
2026-01-25 13:30:00.33	245.96	11.87	-42.6	-45.2	24.0	6.06e-01	0	38	0	125829120	56	4980
2026-01-25 13:30:03.32	246.56	12.01	-42.5	-45.1	24.2	6.07e-01	0	38	0	131596288	56	4874
2026-01-25 13:30:06.31	247.16	12.14	-42.6	-45.2	24.0	6.07e-01	0	38	0	136839168	56	4953
2026-01-25 13:30:09.26	247.76	12.27	-42.6	-45.1	24.1	6.07e-01	0	38	0	142606336	56	4905
2026-01-25 13:30:12.34	248.39	12.40	-42.5	-45.0	24.3	6.08e-01	0	38	0	148373504	56	4847
2026-01-25 13:30:15.18	248.98	12.52	-42.5	-45.1	24.2	6.06e-01	0	38	0	153616384	56	4876
2026-01-25 13:30:18.31	249.63	12.65	-42.6	-45.2	24.1	6.07e-01	0	38	0	159383552	56	4961
2026-01-25 13:30:21.15	250.23	12.77	-42.4	-45.0	24.2	6.08e-01	0	38	0	164626432	56	4827
2026-01-25 13:30:24.61	250.96	12.91	-42.5	-45.0	24.2	6.07e-01	0	38	0	171442176	56	4866
2026-01-25 13:30:27.66	251.62	13.03	-42.5	-45.0	24.2	6.06e-01	0	38	0	177209344	56	4850
2026-01-25 13:30:30.82	252.30	13.15	-42.4	-44.9	24.4	6.06e-01	0	38	0	182976512	56	4791
2026-01-25 13:30:33.67	252.92	13.26	-42.3	-44.8	24.4	6.08e-01	0	38	0	188219392	56	4735
2026-01-25 13:30:36.82	253.61	13.37	-42.3	-44.8	24.4	6.05e-01	0	38	0	193986560	56	4739
2026-01-25 13:30:39.67	254.24	13.47	-42.2	-44.8	24.5	6.08e-01	0	39	0	199753728	56	4740
2026-01-25 13:30:43.16	255.02	13.59	-42.1	-44.7	24.5	6.06e-01	0	38	0	206045184	56	4685
2026-01-25 13:30:45.97	255.65	13.69	-42.1	-44.7	24.6	6.05e-01	0	38	0	211288064	56	4675
2026-01-25 13:30:49.30	256.40	13.80	-42.1	-44.7	24.5	6.06e-01	0	39	0	217579520	56	4681
2026-01-25 13:30:52.00	257.02	13.88	-42.3	-44.8	24.5	6.08e-01	0	38	0	222822400	56	4748
2026-01-25 13:30:55.29	257.77	13.98	-42.3	-44.7	24.5	6.09e-01	0	38	0	228589568	56	4701
2026-01-25 13:30:58.01	258.40	14.06	-42.3	-44.8	24.5	6.06e-01	0	38	0	233832448	56	4713
2026-01-25 13:31:01.28	259.16	14.15	-42.1	-44.7	24.6	6.06e-01	0	38	0	240123904	56	4661
2026-01-25 13:31:04.00	259.79	14.23	-42.2	-44.9	24.4	6.08e-01	0	39	0	245366784	56	4771
2026-01-25 13:31:07.28	260.56	14.31	-42.0	-44.6	24.6	6.06e-01	0	38	0	251133952	56	4610
2026-01-25 13:31:09.99	261.20	14.38	-42.2	-44.6	24.6	6.07e-01	0	39	0	256376832	56	4651
2026-01-25 13:31:13.27	261.98	14.46	-42.1	-44.6	24.6	6.05e-01	0	39	0	262668288	56	4618
2026-01-25 13:31:16.21	262.68	14.52	-42.0	-44.5	24.7	6.08e-01	0	38	0	267911168	56	4570
2026-01-25 13:31:19.49	263.47	14.59	-42.0	-44.5	24.6	6.06e-01	0	38	0	274202624	55	4845
2026-01-25 13:31:22.20	264.12	14.64	-41.9	-44.4	24.7	6.07e-01	0	39	0	279445504	55	4811
2026-01-25 13:31:25.47	264.91	14.70	-42.1	-44.5	24.6	6.06e-01	0	39	0	285212672	55	4865
2026-01-25 13:31:28.28	265.59	14.75	-42.2	-44.8	24.6	6.07e-01	0	39	0	290455552	55	4988
2026-01-25 13:31:31.55	266.38	14.80	-42.0	-44.5	24.6	6.05e-01	0	39	0	296747008	55	4841
2026-01-25 13:31:34.27	267.05	14.84	-42.0	-44.5	24.6	6.07e-01	0	39	0	301989888	55	4865
2026-01-25 13:31:37.55	267.85	14.88	-42.0	-44.5	24.7	6.05e-01	0	39	0	308281344	55	4830
2026-01-25 13:31:40.28	268.52	14.91	-41.9	-44.4	24.7	6.06e-01	0	39	0	312999936	55	4802
2026-01-25 13:31:43.61	269.33	14.95	-42.1	-44.6	24.6	6.06e-01	0	39	0	319291392	55	4892
2026-01-25 13:31:46.33	270.00	14.97	-42.0	-44.4	24.7	6.07e-01	0	39	0	324534272	55	4807
2026-01-25 13:31:49.72	270.84	15.00	-41.9	-44.4	24.8	6.03e-01	0	39	0	330825728	55	4779
2026-01-25 13:31:52.44	271.51	15.01	-42.0	-44.5	24.7	6.06e-01	0	39	0	336068608	55	4848
2026-01-25 13:31:55.72	272.32	15.03	-42.0	-44.5	24.7	6.05e-01	0	39	0	341835776	55	4816
2026-01-25 13:31:58.44	272.99	15.03	-41.9	-44.4	24.7	6.08e-01	0	38	0	347078656	55	4796
2026-01-25 13:32:01.74	273.81	15.04	-42.0	-44.4	24.7	6.06e-01	0	39	0	353370112	55	4812
2026-01-25 13:32:04.44	274.48	15.04	-41.9	-44.3	24.8	6.06e-01	0	39	0	358612992	55	4739
2026-01-25 13:32:07.73	275.29	15.03	-41.9	-44.3	24.8	6.07e-01	0	39	0	364380160	55	4752
2026-01-25 13:32:10.45	275.96	15.03	-42.1	-44.5	24.6	6.07e-01	0	39	0	369623040	55	4842
2026-01-25 13:32:13.73	276.77	15.01	-41.9	-44.3	24.7	6.05e-01	0	39	0	375914496	55	4759
2026-01-25 13:32:16.46	277.45	15.00	-42.0	-44.4	24.7	6.07e-01	0	39	0	381157376	55	4811
2026-01-25 13:32:19.73	278.25	14.97	-42.1	-44.5	24.6	6.06e-01	0	39	0	386924544	55	4852
2026-01-25 13:32:22.44	278.92	14.95	-42.0	-44.3	24.8	6.08e-01	0	39	0	392167424	55	4759
2026-01-25 13:32:25.77	279.73	14.92	-42.1	-44.6	24.5	6.07e-01	0	39	0	398458880	55	4891
2026-01-25 13:32:28.51	280.40	14.89	-42.3	-44.7	24.5	6.06e-01	0	39	0	403701760	55	4978
2026-01-25 13:32:32.08	281.28	14.84	-41.9	-44.3	24.8	6.07e-01	0	39	0	409993216	55	4750
2026-01-25 13:32:34.79	281.94	14.80	-42.2	-44.6	24.5	6.07e-01	0	39	0	415236096	55	4921
2026-01-25 13:32:38.07	282.73	14.75	-41.9	-44.3	24.8	6.05e-01	0	39	0	421527552	55	4727
2026-01-25 13:32:41.00	283.44	14.70	-42.0	-44.4	24.8	6.07e-01	0	39	0	426770432	55	4764
2026-01-25 13:32:43.99	284.16	14.65	-42.0	-44.5	24.7	6.08e-01	0	39	0	432537600	55	4835
2026-01-25 13:32:46.97	284.87	14.59	-41.9	-44.3	24.8	6.06e-01	0	39	0	438304768	55	4757
2026-01-25 13:32:49.96	285.59	14.53	-42.1	-44.5	24.7	6.08e-01	0	39	0	443547648	55	4855
2026-01-25 13:32:52.94	286.30	14.46	-42.0	-44.5	24.7	6.07e-01	0	39	0	449314816	55	4843
2026-01-25 13:32:55.92	287.00	14.40	-42.1	-44.6	24.6	6.06e-01	0	39	0	455081984	55	4881
2026-01-25 13:32:58.90	287.70	14.32	-42.1	-44.5	24.7	6.05e-01	0	39	0	460849152	55	4822
2026-01-25 13:33:02.00	288.43	14.24	-42.1	-44.6	24.6	6.07e-01	0	39	0	466616320	55	4872
2026-01-25 13:33:04.95	289.12	14.16	-42.1	-44.6	24.6	6.08e-01	0	39	0	471859200	55	4899
2026-01-25 13:33:07.94	289.81	14.08	-42.0	-44.5	24.6	6.06e-01	0	39	0	477626368	55	4867
2026-01-25 13:33:10.92	290.49	13.99	-42.2	-44.7	24.5	6.07e-01	0	39	0	482869248	55	4927
2026-01-25 13:33:13.90	291.17	13.90	-42.2	-44.7	24.4	6.08e-01	0	39	0	488636416	55	4950
2026-01-25 13:33:16.95	291.87	13.81	-42.1	-44.6	24.5	6.06e-01	0	39	0	494403584	55	4890
2026-01-25 13:33:19.94	292.54	13.71	-42.2	-44.7	24.3	6.06e-01	0	39	0	500170752	55	4969
2026-01-25 13:33:22.92	293.21	13.61	-42.2	-44.7	24.4	6.04e-01	0	39	0	505413632	55	4929
2026-01-25 13:33:25.91	293.87	13.51	-42.3	-44.9	24.2	6.05e-01	0	39	0	511180800	55	5057
2026-01-25 13:33:28.89	294.53	13.41	-42.3	-44.8	24.3	6.05e-01	0	39	0	516947968	55	5036
2026-01-25 13:33:31.87	295.18	13.30	-42.3	-44.9	24.3	6.06e-01	0	39	0	522190848	55	5055
2026-01-25 13:33:35.00	295.86	13.18	-42.4	-45.0	24.2	6.06e-01	0	39	0	528482304	55	5102
2026-01-25 13:33:37.85	296.48	13.08	-42.4	-45.0	24.1	6.05e-01	0	39	0	533725184	55	5140
2026-01-25 13:33:40.98	297.15	12.96	-42.4	-45.0	24.1	6.07e-01	0	39	0	539492352	55	5102
2026-01-25 13:33:43.86	297.76	12.84	-42.4	-45.0	24.0	6.06e-01	0	39	0	544735232	55	5154
2026-01-25 13:33:47.12	298.44	12.71	-42.5	-45.1	24.0	6.07e-01	0	39	0	551026688	55	5203
2026-01-25 13:33:49.97	299.04	12.59	-42.6	-45.1	24.0	6.05e-01	0	39	0	556269568	55	5196
2026-01-25 13:33:53.09	299.68	12.46	-42.7	-45.3	23.9	6.06e-01	0	39	0	562036736	56	5012
2026-01-25 13:33:56.03	300.28	12.34	-42.7	-45.3	23.9	6.08e-01	0	39	0	567803904	56	4998
2026-01-25 13:33:59.01	300.89	12.21	-42.8	-45.3	23.9	6.05e-01	0	39	0	573046784	56	5033
2026-01-25 13:34:02.00	301.49	12.08	-42.8	-45.5	23.7	6.05e-01	0	39	0	578813952	56	5105
2026-01-25 13:34:04.98	302.08	11.95	-42.7	-45.4	23.9	6.09e-01	0	39	0	584581120	56	5045
2026-01-25 13:34:07.97	302.67	11.81	-42.8	-45.4	23.8	6.07e-01	0	39	0	589824000	56	5064
2026-01-25 13:34:10.95	303.25	11.68	-42.8	-45.5	23.7	6.08e-01	0	39	0	595591168	56	5114
2026-01-25 13:34:13.94	303.83	11.54	-42.8	-45.5	23.7	6.05e-01	0	39	0	601358336	56	5138
2026-01-25 13:34:16.92	304.40	11.40	-42.9	-45.5	23.6	6.06e-01	0	39	0	606601216	56	5134
2026-01-25 13:34:19.84	304.95	11.26	-42.9	-45.6	23.6	6.05e-01	0	39	0	612368384	56	5168
2026-01-25 13:34:22.97	305.54	11.11	-43.0	-45.6	23.5	6.07e-01	0	39	0	618135552	56	5196
2026-01-25 13:34:25.81	306.06	10.97	-43.0	-45.7	23.4	6.10e-01	0	39	0	623378432	56	5234
2026-01-25 13:34:28.94	306.64	10.82	-43.0	-45.7	23.4	6.08e-01	0	39	0	629669888	56	5234
2026-01-25 13:34:31.87	307.17	10.68	-43.0	-45.8	23.3	6.04e-01	0	39	0	634912768	56	5303
2026-01-25 13:34:34.99	307.73	10.53	-42.9	-45.8	23.2	6.07e-01	0	39	0	640679936	56	5299
2026-01-25 13:34:37.84	308.24	10.38	-43.1	-46.0	23.0	6.06e-01	0	39	0	645922816	56	5430
2026-01-25 13:34:40.97	308.79	10.23	-43.2	-45.9	23.1	6.06e-01	0	39	0	651689984	57	5100
2026-01-25 13:34:43.81	309.28	10.08	-42.9	-45.7	23.2	6.07e-01	0	39	0	657457152	57	4983
2026-01-25 13:34:46.94	309.82	9.93	-42.9	-45.9	23.1	6.06e-01	0	39	0	663224320	57	5070
2026-01-25 13:34:49.78	310.31	9.78	-43.1	-45.9	23.0	6.07e-01	0	39	0	668467200	57	5095
2026-01-25 13:34:52.92	310.83	9.62	-43.0	-45.9	23.0	6.06e-01	0	39	0	674234368	57	5086
2026-01-25 13:34:55.76	311.31	9.47	-43.0	-45.9	23.0	6.06e-01	0	39	0	679477248	57	5098
2026-01-25 13:34:58.92	311.83	9.31	-43.2	-46.0	23.0	6.07e-01	0	39	0	685768704	57	5105
2026-01-25 13:35:01.76	312.29	9.16	-43.2	-46.1	22.9	6.05e-01	0	39	0	691011584	57	5200
2026-01-25 13:35:05.03	312.82	8.99	-49.2	-69.6	3.8	7.53e-01	0	39	104	696778752	69	38869
2026-01-25 13:35:07.87	313.27	8.85	-50.3	-70.7	3.8	7.47e-01	0	39	104	696778752	71	39535
2026-01-25 13:35:10.99	313.76	8.68	-50.5	-71.0	3.8	7.49e-01	0	39	104	696778752	71	40723
2026-01-25 13:35:13.83	314.20	8.53	-50.9	-71.0	3.8	7.47e-01	0	39	104	696778752	72	38593
2026-01-25 13:35:16.95	314.68	8.37	-50.8	-71.1	3.8	7.47e-01	0	39	104	696778752	72	38732
2026-01-25 13:35:19.79	315.11	8.22	-50.5	-71.1	3.8	7.44e-01	0	39	104	696778752	72	38844
2026-01-25 13:35:22.91	315.58	8.05	-50.6	-71.1	3.8	7.47e-01	0	39	104	696778752	71	41241
2026-01-25 13:35:25.75	316.00	7.90	-50.2	-71.1	3.8	7.47e-01	0	39	104	696778752	71	41099
2026-01-25 13:35:28.87	316.46	7.74	-50.2	-71.0	3.8	7.48e-01	0	39	104	696778752	71	40962
2026-01-25 13:35:31.71	316.87	7.59	-50.2	-71.1	3.8	7.43e-01	0	39	104	696778752	71	40992
2026-01-25 13:35:34.83	317.32	7.42	-50.2	-71.0	3.8	7.47e-01	0	39	104	696778752	71	40884
2026-01-25 13:35:37.67	317.73	7.27	-50.2	-71.0	3.8	7.52e-01	0	39	104	696778752	71	40832
2026-01-25 13:35:40.80	318.17	7.10	-50.2	-71.0	3.8	7.45e-01	0	39	104	696778752	71	40816
2026-01-25 13:35:43.63	318.56	6.95	-50.2	-71.0	3.8	7.49e-01	0	39	104	696778752	71	40909
2026-01-25 13:35:46.76	318.99	6.78	-50.2	-71.0	3.8	7.43e-01	0	39	104	696778752	71	40878
2026-01-25 13:35:49.59	319.37	6.63	-50.2	-71.0	3.8	7.46e-01	0	39	104	696778752	71	40806
2026-01-25 13:35:52.72	319.79	6.47	-50.2	-71.0	3.8	7.49e-01	0	39	104	696778752	71	40783
2026-01-25 13:35:55.55	320.16	6.31	-50.1	-71.0	3.8	7.45e-01	0	39	104	696778752	71	40738
2026-01-25 13:35:58.67	320.57	6.15	-50.1	-71.0	3.8	7.46e-01	0	39	104	696778752	71	40740
2026-01-25 13:36:01.51	320.94	6.00	-50.1	-71.0	3.8	7.46e-01	0	39	104	696778752	71	40625
2026-01-25 13:36:04.63	321.34	5.83	-50.1	-71.0	3.8	7.48e-01	0	39	104	696778752	71	40656
2026-01-25 13:36:07.47	321.70	5.68	-50.1	-71.0	3.8	7.48e-01	0	39	104	696778752	71	40649
2026-01-25 13:36:10.59	322.09	5.51	-50.1	-71.0	3.8	7.46e-01	0	39	104	696778752	71	40728
2026-01-25 13:36:13.43	322.44	5.36	-50.1	-71.0	3.8	7.48e-01	0	39	104	696778752	71	40706
2026-01-25 13:36:16.55	322.82	5.20	-50.1	-71.0	3.8	7.43e-01	0	39	104	696778752	71	40625
2026-01-25 13:36:19.39	323.17	5.05	-50.1	-71.0	3.8	7.46e-01	0	39	104	696778752	71	40592

#Closed at: 2026-01-25 13:36:21
#Recorded file [696 MB]: D:/Data/31040_260125_162748.dat