passes_logs/2026/01/25/T1/T1__20260125_103656_FENGYUN_3D_rec.log

#Pass ID: 20260125_103656_FENGYUN 3D
#Satellite: FENGYUN 3D
#Configuration: FENGYUN 3D
#almurnet v.1.7.20251203
#Start time: 2026-01-25 10:36:57

#Version: 2.0.20230620
#Station: T1
#Location: 37.570604 lon 55.790049 lat
#TLE: 1 43010U 17072A   26024.51794477  .00000040  00000+0  40682-4 0  9990
#TLE: 2 43010  98.9961 356.4820 0002494  91.2631 268.8830 14.19699550424601

#Time	Az	El	Level	Level2	SNR	BER	BlckErr	Temp	State	Recorded	gain1	gain2
2026-01-25 10:36:57.97	116.59	5.13	-48.3	-60.4	3.8	8.47e-01	0	39	0	0	68	14290
2026-01-25 10:37:00.95	116.38	5.32	-48.3	-60.4	3.8	8.46e-01	0	39	104	0	68	14289
2026-01-25 10:37:03.93	116.17	5.51	-48.3	-60.4	3.8	8.47e-01	0	39	104	0	68	14244
2026-01-25 10:37:06.91	115.96	5.70	-48.3	-60.4	3.8	8.47e-01	0	39	104	0	68	14262
2026-01-25 10:37:09.89	115.74	5.90	-48.3	-60.4	3.8	8.47e-01	0	40	104	0	68	14286
2026-01-25 10:37:12.87	115.52	6.09	-48.3	-60.4	3.8	8.46e-01	0	40	104	0	68	14271
2026-01-25 10:37:15.85	115.29	6.29	-48.3	-60.4	3.8	8.46e-01	0	40	104	0	68	14330
2026-01-25 10:37:18.83	115.07	6.49	-48.3	-60.2	3.8	8.47e-01	0	40	104	0	68	14044
2026-01-25 10:37:21.81	114.84	6.69	-48.2	-60.0	3.8	8.47e-01	0	40	104	0	68	13622
2026-01-25 10:37:24.79	114.60	6.89	-48.2	-60.1	3.8	8.47e-01	0	40	104	0	68	13733
2026-01-25 10:37:27.77	114.36	7.09	-48.2	-60.1	3.8	8.47e-01	0	40	104	0	68	13851
2026-01-25 10:37:30.75	114.12	7.29	-48.2	-59.8	3.8	8.47e-01	0	40	104	0	68	13342
2026-01-25 10:37:33.73	113.88	7.50	-48.1	-58.5	3.8	8.46e-01	0	40	104	0	68	11505
2026-01-25 10:37:36.71	113.63	7.70	-48.1	-59.1	3.8	8.47e-01	0	40	104	0	68	12344
2026-01-25 10:37:39.69	113.38	7.91	-46.8	-53.1	6.0	7.08e-01	0	40	0	0	65	7319
2026-01-25 10:37:42.67	113.13	8.11	-42.7	-45.6	13.5	8.23e-05	0	40	0	16777216	57	4882
2026-01-25 10:37:45.65	112.87	8.32	-39.5	-41.6	17.3	0.00e+00	0	40	0	33554432	51	4374
2026-01-25 10:37:48.63	112.60	8.53	-38.8	-40.8	18.0	0.00e+00	0	40	0	50331648	49	4492
2026-01-25 10:37:51.62	112.34	8.74	-40.6	-43.0	15.9	0.00e+00	0	41	0	67108864	52	4840
2026-01-25 10:37:54.60	112.07	8.95	-44.6	-48.3	10.8	1.24e-03	0	40	0	83886080	59	5927
2026-01-25 10:37:57.58	111.79	9.17	-41.6	-44.1	14.2	8.44e-01	0	41	104	95420416	55	4608
2026-01-25 10:38:00.56	111.51	9.38	-46.2	-51.4	7.6	6.91e-02	0	41	0	104857600	63	6800
2026-01-25 10:38:03.55	111.23	9.60	-45.1	-49.2	9.9	1.94e-02	0	41	0	118489088	62	5563
2026-01-25 10:38:06.53	110.94	9.81	-42.6	-45.4	13.8	1.37e-05	0	41	0	135266304	57	4794
2026-01-25 10:38:09.51	110.65	10.03	-41.5	-44.1	15.0	2.20e-06	0	41	0	152043520	55	4602
2026-01-25 10:38:12.49	110.35	10.25	-40.1	-42.3	16.7	0.00e+00	0	41	0	168820736	52	4470
2026-01-25 10:38:15.48	110.05	10.47	-39.3	-41.4	17.7	0.00e+00	0	41	0	185597952	50	4526
2026-01-25 10:38:18.46	109.75	10.69	-38.2	-40.2	18.8	0.00e+00	0	41	0	202375168	48	4433
2026-01-25 10:38:21.50	109.43	10.92	-38.1	-40.1	18.9	0.00e+00	0	41	0	219152384	48	4342
2026-01-25 10:38:24.45	109.12	11.14	-37.9	-40.0	18.8	0.00e+00	0	41	0	235929600	47	4547
2026-01-25 10:38:27.44	108.80	11.37	-37.7	-39.7	19.0	0.00e+00	0	41	0	252706816	47	4429
2026-01-25 10:38:30.42	108.47	11.59	-37.8	-39.8	19.0	0.00e+00	0	41	0	269484032	47	4462
2026-01-25 10:38:33.41	108.14	11.82	-37.7	-39.7	19.2	0.00e+00	0	41	0	286261248	47	4399
2026-01-25 10:38:36.47	107.80	12.05	-37.7	-39.6	19.2	0.00e+00	0	41	0	303038464	47	4386
2026-01-25 10:38:39.45	107.46	12.28	-37.6	-39.6	19.2	0.00e+00	0	41	0	319815680	47	4341
2026-01-25 10:38:42.43	107.11	12.51	-37.5	-39.4	19.4	0.00e+00	0	41	0	336592896	46	4543
2026-01-25 10:38:45.42	106.76	12.75	-37.2	-39.2	19.6	0.00e+00	0	41	0	353370112	46	4418
2026-01-25 10:38:48.40	106.40	12.98	-37.0	-38.9	19.8	0.00e+00	0	41	0	370147328	46	4286
2026-01-25 10:38:51.39	106.03	13.22	-36.8	-38.7	20.0	0.00e+00	0	41	0	386924544	45	4434
2026-01-25 10:38:54.37	105.66	13.45	-36.8	-38.7	20.1	0.00e+00	0	41	0	403701760	45	4413
2026-01-25 10:38:57.47	105.27	13.70	-36.7	-38.6	20.2	0.00e+00	0	41	0	421527552	45	4382
2026-01-25 10:39:00.41	104.90	13.93	-36.7	-38.6	20.2	0.00e+00	0	41	0	438304768	45	4353
2026-01-25 10:39:03.70	104.47	14.19	-36.7	-38.6	20.1	0.00e+00	0	41	0	456130560	45	4379
2026-01-25 10:39:06.46	104.10	14.42	-36.7	-38.6	20.2	0.00e+00	0	41	0	471859200	45	4362
2026-01-25 10:39:09.73	103.66	14.68	-36.7	-38.5	20.2	0.00e+00	0	41	0	490733568	45	4333
2026-01-25 10:39:12.67	103.26	14.92	-36.5	-38.4	20.4	0.00e+00	0	41	0	506462208	44	4500
2026-01-25 10:39:15.97	102.80	15.19	-36.4	-38.2	20.5	0.00e+00	0	41	0	525336576	44	4427
2026-01-25 10:39:18.69	102.41	15.41	-36.5	-38.4	20.4	0.00e+00	0	41	0	541065216	44	4500
2026-01-25 10:39:21.95	101.94	15.68	-36.5	-38.3	20.5	0.00e+00	0	41	0	558891008	44	4478
2026-01-25 10:39:24.83	101.52	15.91	-36.4	-38.3	20.5	0.00e+00	0	41	0	575668224	44	4460
2026-01-25 10:39:28.21	101.01	16.19	-36.2	-38.0	20.7	0.00e+00	0	41	0	594542592	44	4324
2026-01-25 10:39:31.26	100.55	16.44	-36.0	-37.9	20.9	0.00e+00	0	41	0	611319808	44	4259
2026-01-25 10:39:34.41	100.06	16.70	-35.7	-37.5	21.0	0.00e+00	0	41	0	629145600	43	4329
2026-01-25 10:39:37.25	99.62	16.94	-35.7	-37.6	21.0	0.00e+00	0	41	0	644874240	43	4348
2026-01-25 10:39:40.37	99.12	17.20	-35.8	-37.6	21.0	0.00e+00	0	41	0	662700032	43	4366
2026-01-25 10:39:43.21	98.66	17.44	-35.5	-37.3	21.2	0.00e+00	0	41	0	678428672	43	4240
2026-01-25 10:39:46.34	98.14	17.70	-35.5	-37.3	21.2	0.00e+00	0	41	0	696254464	43	4209
2026-01-25 10:39:49.18	97.66	17.94	-35.6	-37.4	21.1	0.00e+00	0	41	0	711983104	43	4290
2026-01-25 10:39:52.31	97.13	18.20	-35.7	-37.5	21.0	0.00e+00	0	41	0	729808896	43	4332
2026-01-25 10:39:55.16	96.63	18.44	-35.6	-37.5	21.1	0.00e+00	0	41	0	745537536	43	4301
2026-01-25 10:39:58.29	96.08	18.70	-35.5	-37.3	21.2	0.00e+00	0	41	0	763363328	42	4478
2026-01-25 10:40:01.15	95.56	18.94	-35.4	-37.2	21.4	0.00e+00	0	41	0	780140544	42	4406
2026-01-25 10:40:04.28	94.99	19.20	-35.4	-37.2	21.4	0.00e+00	0	41	0	796917760	42	4404
2026-01-25 10:40:07.18	94.45	19.45	-35.3	-37.1	21.5	0.00e+00	0	41	0	813694976	42	4346
2026-01-25 10:40:10.45	93.84	19.72	-35.3	-37.1	21.4	0.00e+00	0	41	0	831520768	42	4381
2026-01-25 10:40:13.15	93.32	19.94	-35.4	-37.2	21.4	0.00e+00	0	41	0	847249408	42	4400
2026-01-25 10:40:16.45	92.67	20.22	-35.0	-36.8	21.6	0.00e+00	0	41	0	866123776	42	4242
2026-01-25 10:40:19.16	92.14	20.44	-35.0	-36.8	21.6	0.00e+00	0	41	0	880803840	42	4242
2026-01-25 10:40:22.45	91.47	20.72	-34.8	-36.6	21.9	0.00e+00	0	41	0	899678208	41	4352
2026-01-25 10:40:25.16	90.92	20.94	-34.9	-36.7	21.8	0.00e+00	0	41	0	914358272	41	4392
2026-01-25 10:40:28.73	90.17	21.23	-34.9	-36.7	21.8	0.00e+00	0	41	0	935329792	41	4399
2026-01-25 10:40:31.43	89.60	21.45	-34.9	-36.7	21.8	0.00e+00	0	41	0	950009856	41	4419
2026-01-25 10:40:34.71	88.89	21.72	-34.7	-36.5	22.0	0.00e+00	0	41	0	968884224	41	4294
2026-01-25 10:40:37.49	88.28	21.94	-34.7	-36.4	22.0	0.00e+00	0	41	0	984612864	41	4284
2026-01-25 10:40:40.76	87.56	22.20	-34.6	-36.4	22.0	0.00e+00	0	41	0	1002438656	41	4255
2026-01-25 10:40:43.71	86.89	22.44	-34.7	-36.5	21.9	0.00e+00	0	41	0	1019215872	41	4316
2026-01-25 10:40:46.99	86.14	22.69	-34.6	-36.4	22.0	0.00e+00	0	41	0	1038090240	41	4286
2026-01-25 10:40:49.71	85.50	22.90	-34.8	-36.6	21.9	0.00e+00	0	41	0	1052770304	41	4348
2026-01-25 10:40:53.04	84.72	23.16	-34.6	-36.4	22.0	0.00e+00	0	41	0	1071644672	41	4264
2026-01-25 10:40:55.74	84.07	23.37	-34.6	-36.4	22.0	0.00e+00	0	41	0	1086324736	41	4287
2026-01-25 10:40:59.14	83.24	23.62	-34.5	-36.3	22.1	0.00e+00	0	41	0	1106247680	41	4221
2026-01-25 10:41:02.11	82.50	23.84	-34.5	-36.3	22.1	0.00e+00	0	41	0	1123024896	40	4455
2026-01-25 10:41:05.04	81.77	24.05	-34.5	-36.3	22.1	0.00e+00	0	41	0	1138753536	40	4457
2026-01-25 10:41:08.28	80.95	24.28	-34.3	-36.1	22.3	0.00e+00	0	41	0	1157627904	40	4364
2026-01-25 10:41:11.20	80.19	24.49	-34.2	-36.0	22.4	0.00e+00	0	41	0	1173356544	40	4301
2026-01-25 10:41:14.49	79.33	24.71	-34.0	-35.7	22.6	0.00e+00	0	41	0	1192230912	40	4185
2026-01-25 10:41:17.19	78.62	24.89	-34.2	-36.0	22.5	0.00e+00	0	41	0	1207959552	39	4547
2026-01-25 10:41:20.47	77.74	25.11	-34.2	-35.9	22.4	0.00e+00	0	41	0	1225785344	39	4545
2026-01-25 10:41:23.17	77.00	25.28	-34.4	-36.1	22.3	0.00e+00	0	41	0	1240465408	39	4645
2026-01-25 10:41:26.61	76.06	25.50	-34.1	-35.8	22.5	0.00e+00	0	41	0	1260388352	39	4491
2026-01-25 10:41:29.65	75.21	25.68	-34.1	-35.8	22.5	0.00e+00	0	41	0	1277165568	39	4486
2026-01-25 10:41:32.93	74.28	25.87	-34.0	-35.7	22.7	0.00e+00	0	41	0	1296039936	39	4413
2026-01-25 10:41:35.65	73.51	26.03	-34.2	-35.9	22.5	0.00e+00	0	41	0	1311768576	39	4539
2026-01-25 10:41:38.93	72.57	26.21	-34.1	-35.9	22.5	0.00e+00	0	41	0	1329594368	39	4518
2026-01-25 10:41:41.76	71.74	26.35	-33.9	-35.6	22.7	0.00e+00	0	41	0	1345323008	39	4380
2026-01-25 10:41:45.18	70.74	26.52	-34.2	-35.9	22.4	0.00e+00	0	41	0	1365245952	39	4543
2026-01-25 10:41:48.23	69.83	26.67	-34.0	-35.7	22.6	0.00e+00	0	41	0	1382023168	39	4437
2026-01-25 10:41:51.21	68.94	26.81	-33.9	-35.7	22.8	0.00e+00	0	41	0	1398800384	39	4396
2026-01-25 10:41:54.20	68.04	26.93	-33.8	-35.6	22.8	0.00e+00	0	41	0	1415577600	39	4357
2026-01-25 10:41:57.22	67.12	27.06	-33.8	-35.6	22.9	0.00e+00	0	41	0	1432354816	39	4343
2026-01-25 10:42:00.22	66.20	27.17	-33.8	-35.5	22.8	0.00e+00	0	41	0	1449132032	39	4336
2026-01-25 10:42:03.58	65.16	27.29	-33.8	-35.6	22.8	0.00e+00	0	41	0	1468006400	39	4344
2026-01-25 10:42:06.29	64.32	27.38	-33.9	-35.6	22.7	0.00e+00	0	41	0	1483735040	39	4384
2026-01-25 10:42:09.56	63.30	27.47	-33.9	-35.6	22.8	0.00e+00	0	41	0	1501560832	39	4357
2026-01-25 10:42:12.29	62.44	27.55	-33.7	-35.4	23.0	0.00e+00	0	41	0	1517289472	39	4251
2026-01-25 10:42:15.56	61.41	27.63	-33.9	-35.6	22.9	0.00e+00	0	41	0	1536163840	39	4360
2026-01-25 10:42:18.27	60.55	27.69	-33.5	-35.2	23.2	0.00e+00	0	41	0	1550843904	38	4398
2026-01-25 10:42:21.54	59.50	27.75	-33.6	-35.3	23.0	0.00e+00	0	41	0	1569718272	38	4463
2026-01-25 10:42:24.27	58.63	27.79	-33.6	-35.3	23.1	0.00e+00	0	41	0	1584398336	38	4480
2026-01-25 10:42:27.56	57.58	27.83	-33.6	-35.3	23.1	0.00e+00	0	41	0	1603272704	38	4460
2026-01-25 10:42:30.30	56.70	27.86	-33.7	-35.5	23.0	0.00e+00	0	41	0	1619001344	38	4554
2026-01-25 10:42:33.56	55.65	27.88	-33.8	-35.5	22.8	0.00e+00	0	41	0	1636827136	38	4587
2026-01-25 10:42:36.29	54.78	27.89	-33.6	-35.3	23.0	0.00e+00	0	41	0	1652555776	38	4466
2026-01-25 10:42:39.65	53.69	27.89	-33.5	-35.2	23.1	0.00e+00	0	41	0	1671430144	38	4437
2026-01-25 10:42:42.67	52.72	27.88	-33.6	-35.3	23.0	0.00e+00	0	41	0	1688207360	38	4492
2026-01-25 10:42:46.31	51.55	27.86	-33.7	-35.4	23.0	0.00e+00	0	41	0	1709178880	38	4517
2026-01-25 10:42:49.01	50.69	27.84	-33.6	-35.4	23.1	0.00e+00	0	41	0	1723858944	38	4498
2026-01-25 10:42:52.31	49.63	27.80	-33.6	-35.3	23.0	0.00e+00	0	41	0	1742733312	38	4489
2026-01-25 10:42:55.02	48.77	27.76	-33.8	-35.5	22.8	0.00e+00	0	41	0	1757413376	38	4566
2026-01-25 10:42:58.65	47.61	27.69	-33.8	-35.4	23.6	0.00e+00	0	41	0	1778384896	38	4527
2026-01-25 10:43:01.68	46.65	27.63	-33.7	-35.3	23.7	0.00e+00	0	41	0	1795162112	38	4451
2026-01-25 10:43:04.69	45.70	27.56	-33.7	-35.4	23.6	0.00e+00	0	41	0	1811939328	38	4499
2026-01-25 10:43:07.68	44.76	27.48	-33.6	-35.2	23.8	0.00e+00	0	41	0	1828716544	38	4431
2026-01-25 10:43:10.67	43.83	27.39	-33.7	-35.3	23.7	0.00e+00	0	41	0	1845493760	38	4465
2026-01-25 10:43:13.78	42.86	27.29	-33.9	-35.5	23.5	0.00e+00	0	41	0	1863319552	38	4570
2026-01-25 10:43:16.72	41.95	27.19	-33.6	-35.2	23.8	0.00e+00	0	41	0	1880096768	38	4413
2026-01-25 10:43:20.18	40.90	27.06	-33.5	-35.2	23.8	0.00e+00	0	41	0	1898971136	38	4403
2026-01-25 10:43:22.88	40.07	26.95	-33.7	-35.3	23.7	0.00e+00	0	41	0	1914699776	38	4466
2026-01-25 10:43:26.16	39.09	26.81	-33.8	-35.5	23.5	0.00e+00	0	41	0	1932525568	38	4558
2026-01-25 10:43:28.86	38.28	26.68	-33.9	-35.6	23.5	0.00e+00	0	41	0	1948254208	38	4610
2026-01-25 10:43:32.13	37.31	26.53	-33.8	-35.5	23.6	0.00e+00	0	41	0	1966080000	38	4550
2026-01-25 10:43:35.21	36.41	26.37	-33.8	-35.5	23.6	0.00e+00	0	41	0	1983905792	38	4551
2026-01-25 10:43:38.06	35.58	26.23	-33.8	-35.4	23.6	0.00e+00	0	41	0	1999634432	38	4516
2026-01-25 10:43:41.19	34.68	26.06	-33.8	-35.4	23.6	0.00e+00	0	41	0	2017460224	38	4530
2026-01-25 10:43:44.09	33.85	25.89	-33.8	-35.4	23.6	0.00e+00	0	41	0	2034237440	38	4513
2026-01-25 10:43:47.28	32.95	25.71	-33.8	-35.4	23.6	0.00e+00	0	41	0	2052063232	38	4523
2026-01-25 10:43:50.25	32.13	25.53	-34.0	-35.6	23.4	0.00e+00	0	41	0	2068840448	38	4632
2026-01-25 10:43:53.47	31.24	25.33	-34.1	-35.7	23.3	0.00e+00	0	41	0	2086666240	38	4704
2026-01-25 10:43:56.32	30.47	25.15	-34.2	-35.8	23.2	0.00e+00	0	41	0	2102394880	39	4479
2026-01-25 10:43:59.45	29.63	24.95	-34.1	-35.7	23.4	0.00e+00	0	41	0	2120220672	39	4422
2026-01-25 10:44:02.29	28.88	24.76	-34.2	-35.9	23.2	0.00e+00	0	41	0	2135949312	39	4495
2026-01-25 10:44:05.42	28.06	24.55	-34.1	-35.8	23.3	0.00e+00	0	41	0	2153775104	39	4462
2026-01-25 10:44:08.36	27.30	24.34	-34.4	-36.0	23.1	0.00e+00	0	41	0	2170552320	39	4586
2026-01-25 10:44:11.69	26.45	24.11	-34.1	-35.7	23.3	0.00e+00	0	41	0	2189426688	39	4419
2026-01-25 10:44:14.41	25.77	23.91	-33.9	-35.5	23.5	0.00e+00	0	41	0	2204106752	39	4338
2026-01-25 10:44:17.69	24.96	23.67	-34.3	-35.9	23.1	0.00e+00	0	41	0	2222981120	39	4540
2026-01-25 10:44:20.69	24.23	23.45	-34.1	-35.8	23.3	0.00e+00	0	41	0	2239758336	39	4445
2026-01-25 10:44:23.76	23.49	23.21	-34.3	-35.9	23.1	0.00e+00	0	41	0	2256535552	39	4543
2026-01-25 10:44:27.12	22.70	22.96	-34.3	-36.0	23.1	0.00e+00	0	41	0	2275409920	39	4548
2026-01-25 10:44:30.30	21.96	22.71	-34.4	-36.0	23.1	0.00e+00	0	41	0	2293235712	39	4575
2026-01-25 10:44:33.15	21.31	22.49	-34.4	-36.1	23.0	0.00e+00	0	41	0	2310012928	39	4603
2026-01-25 10:44:36.30	20.60	22.24	-34.6	-36.3	22.8	0.00e+00	0	41	0	2327838720	40	4456
2026-01-25 10:44:39.15	19.97	22.01	-34.7	-36.4	22.6	0.00e+00	0	41	0	2343567360	40	4519
2026-01-25 10:44:42.48	19.24	21.75	-34.7	-36.3	22.7	0.00e+00	0	41	0	2362441728	40	4485
2026-01-25 10:44:45.18	18.66	21.53	-34.6	-36.3	22.7	0.00e+00	0	41	0	2377121792	40	4483
2026-01-25 10:44:48.48	17.96	21.26	-34.7	-36.4	22.6	0.00e+00	0	41	0	2395996160	40	4517
2026-01-25 10:44:51.18	17.40	21.04	-34.8	-36.4	22.6	0.00e+00	0	41	0	2411724800	40	4542
2026-01-25 10:44:54.45	16.73	20.77	-34.8	-36.5	22.5	0.00e+00	0	41	0	2429550592	40	4588
2026-01-25 10:44:57.26	16.16	20.54	-34.9	-36.5	22.5	0.00e+00	0	41	0	2445279232	40	4597
2026-01-25 10:45:00.53	15.51	20.27	-34.8	-36.5	22.5	0.00e+00	0	41	0	2464153600	40	4573
2026-01-25 10:45:03.23	14.99	20.05	-34.9	-36.6	22.2	0.00e+00	0	41	0	2478833664	40	4606
2026-01-25 10:45:06.50	14.36	19.78	-34.7	-36.4	22.6	0.00e+00	0	41	0	2497708032	40	4495
2026-01-25 10:45:09.21	13.85	19.55	-34.9	-36.5	22.5	0.00e+00	0	41	0	2512388096	40	4591
2026-01-25 10:45:12.48	13.24	19.28	-34.9	-36.7	22.4	0.00e+00	0	41	0	2531262464	40	4662
2026-01-25 10:45:15.28	12.73	19.05	-35.1	-36.8	22.2	0.00e+00	0	41	0	2546991104	40	4744
2026-01-25 10:45:18.61	12.13	18.77	-35.2	-36.9	22.2	0.00e+00	0	41	0	2565865472	41	4510
2026-01-25 10:45:21.70	11.59	18.51	-35.4	-37.2	21.9	0.00e+00	0	41	0	2582642688	41	4679
2026-01-25 10:45:24.83	11.05	18.25	-35.4	-37.1	21.9	0.00e+00	0	41	0	2600468480	41	4648
2026-01-25 10:45:27.67	10.56	18.01	-35.4	-37.2	21.9	0.00e+00	0	41	0	2616197120	41	4655
2026-01-25 10:45:30.91	10.02	17.74	-35.4	-37.2	21.9	0.00e+00	0	41	0	2634022912	41	4663
2026-01-25 10:45:33.75	9.55	17.50	-35.6	-37.4	21.7	0.00e+00	0	41	0	2650800128	42	4505
2026-01-25 10:45:37.02	9.03	17.23	-35.6	-37.4	21.7	0.00e+00	0	41	0	2668625920	42	4528
2026-01-25 10:45:39.73	8.59	17.01	-35.7	-37.5	21.6	0.00e+00	0	41	0	2684354560	42	4580
2026-01-25 10:45:43.00	8.08	16.74	-35.8	-37.6	21.5	0.00e+00	0	41	0	2702180352	42	4612
2026-01-25 10:45:45.72	7.67	16.51	-35.9	-37.7	21.4	0.00e+00	0	41	0	2717908992	42	4659
2026-01-25 10:45:49.16	7.15	16.23	-35.9	-37.7	21.4	0.00e+00	0	40	0	2736783360	42	4679
2026-01-25 10:45:51.87	6.74	16.01	-36.0	-37.8	21.3	0.00e+00	0	41	0	2752512000	42	4745
2026-01-25 10:45:55.24	6.25	15.73	-36.2	-38.0	21.0	0.00e+00	0	41	0	2771386368	43	4594
2026-01-25 10:45:57.96	5.86	15.51	-36.2	-38.0	21.1	0.00e+00	0	41	0	2787115008	43	4595
2026-01-25 10:46:01.22	5.40	15.24	-36.1	-37.9	21.2	0.00e+00	0	41	0	2804940800	43	4519
2026-01-25 10:46:03.94	5.02	15.02	-36.2	-38.0	21.1	0.00e+00	0	41	0	2820669440	43	4558
2026-01-25 10:46:07.24	4.57	14.76	-36.3	-38.1	21.0	0.00e+00	0	40	0	2838495232	43	4649
2026-01-25 10:46:10.08	4.19	14.53	-36.3	-38.1	21.0	0.00e+00	0	41	0	2855272448	43	4631
2026-01-25 10:46:13.20	3.78	14.28	-36.3	-38.1	21.0	0.00e+00	0	41	0	2872049664	43	4626
2026-01-25 10:46:16.05	3.41	14.05	-36.5	-38.4	20.7	0.00e+00	0	41	0	2888826880	43	4792
2026-01-25 10:46:19.17	3.01	13.80	-36.9	-38.7	20.6	0.00e+00	0	40	0	2905604096	44	4695
2026-01-25 10:46:22.16	2.63	13.57	-36.9	-38.7	20.6	0.00e+00	0	41	0	2922381312	44	4672
2026-01-25 10:46:25.22	2.26	13.32	-37.1	-39.0	20.4	0.00e+00	0	41	0	2940207104	44	4815
2026-01-25 10:46:28.27	1.89	13.09	-37.0	-38.9	20.4	0.00e+00	0	40	0	2956984320	45	4503
2026-01-25 10:46:31.47	1.50	12.84	-37.1	-38.9	20.3	0.00e+00	0	41	0	2974810112	45	4538
2026-01-25 10:46:34.31	1.17	12.62	-37.0	-38.9	20.4	0.00e+00	0	41	0	2991587328	45	4497
2026-01-25 10:46:37.44	0.81	12.37	-37.1	-38.9	20.3	0.00e+00	0	40	0	3008364544	45	4541
2026-01-25 10:46:40.28	0.48	12.16	-37.2	-39.2	20.1	0.00e+00	0	41	0	3025141760	45	4652
2026-01-25 10:46:43.53	0.12	11.91	-37.3	-39.3	20.0	0.00e+00	0	41	0	3042967552	45	4725
2026-01-25 10:46:46.30	359.82	11.70	-37.5	-39.5	19.8	0.00e+00	0	41	0	3058696192	45	4821
2026-01-25 10:46:49.58	359.46	11.45	-37.5	-39.5	19.8	0.00e+00	0	41	0	3077570560	45	4833
2026-01-25 10:46:52.30	359.17	11.24	-37.5	-39.5	19.7	0.00e+00	0	41	0	3092250624	45	4863
2026-01-25 10:46:55.57	358.83	11.00	-37.5	-39.5	19.7	0.00e+00	0	40	0	3111124992	45	4868
2026-01-25 10:46:58.31	358.54	10.80	-37.7	-39.8	19.5	0.00e+00	0	41	0	3125805056	46	4716
2026-01-25 10:47:01.60	358.21	10.55	-37.8	-39.8	19.4	0.00e+00	0	40	0	3144679424	46	4745
2026-01-25 10:47:04.73	357.90	10.32	-37.8	-39.7	19.5	0.00e+00	0	40	0	3162505216	46	4694
2026-01-25 10:47:07.57	357.62	10.11	-37.8	-39.8	19.4	0.00e+00	0	40	0	3178233856	46	4724
2026-01-25 10:47:10.79	357.30	9.88	-37.8	-39.9	19.4	0.00e+00	0	40	0	3196059648	46	4765
2026-01-25 10:47:13.70	357.03	9.67	-37.8	-40.0	19.2	0.00e+00	0	41	0	3212836864	46	4839
2026-01-25 10:47:16.97	356.72	9.43	-37.6	-40.0	19.1	0.00e+00	0	40	0	3230662656	46	4863
2026-01-25 10:47:19.68	356.47	9.24	-36.9	-40.0	19.1	0.00e+00	0	41	0	3246391296	45	5137
2026-01-25 10:47:22.95	356.17	9.01	-36.9	-39.9	19.2	0.00e+00	0	41	0	3265265664	45	5097
2026-01-25 10:47:25.65	355.93	8.81	-47.7	-60.7	3.8	8.48e-01	0	40	104	3270508544	67	15695
2026-01-25 10:47:28.93	355.64	8.58	-48.0	-61.2	3.8	8.48e-01	0	40	104	3270508544	68	15646
2026-01-25 10:47:31.66	355.40	8.39	-48.7	-61.3	3.8	8.47e-01	0	41	104	3270508544	68	15904
2026-01-25 10:47:34.92	355.12	8.17	-49.1	-61.4	3.8	8.46e-01	0	40	104	3270508544	69	15100
2026-01-25 10:47:37.63	354.89	7.98	-49.2	-61.4	3.8	8.47e-01	0	41	104	3270508544	69	15181
2026-01-25 10:47:40.90	354.62	7.75	-49.0	-61.4	3.8	8.47e-01	0	41	104	3270508544	69	15180
2026-01-25 10:47:43.61	354.40	7.57	-49.2	-61.4	3.8	8.45e-01	0	40	104	3270508544	69	15225
2026-01-25 10:47:46.87	354.13	7.35	-49.4	-61.5	3.8	8.46e-01	0	41	104	3270508544	69	15255
2026-01-25 10:47:49.57	353.92	7.16	-49.2	-61.5	3.8	8.46e-01	0	40	104	3270508544	69	15243
2026-01-25 10:47:52.83	353.66	6.94	-49.1	-61.5	3.8	8.48e-01	0	41	104	3270508544	69	15229
2026-01-25 10:47:55.53	353.45	6.76	-49.1	-61.4	3.8	8.48e-01	0	40	104	3270508544	69	15192
2026-01-25 10:47:58.81	353.20	6.54	-49.0	-61.4	3.8	8.46e-01	0	41	104	3270508544	69	15184
2026-01-25 10:48:01.52	353.00	6.36	-48.9	-61.4	3.8	8.46e-01	0	40	104	3270508544	69	15139
2026-01-25 10:48:04.80	352.76	6.15	-49.1	-61.4	3.8	8.46e-01	0	40	104	3270508544	69	15197
2026-01-25 10:48:07.53	352.56	5.97	-49.1	-61.4	3.8	8.47e-01	0	40	104	3270508544	69	15138
2026-01-25 10:48:10.79	352.32	5.76	-49.1	-61.3	3.8	8.47e-01	0	40	104	3270508544	69	15049
2026-01-25 10:48:13.50	352.13	5.58	-49.1	-61.4	3.8	8.47e-01	0	40	104	3270508544	69	15103
2026-01-25 10:48:16.77	351.90	5.37	-49.1	-61.4	3.8	8.47e-01	0	41	104	3270508544	69	15130
2026-01-25 10:48:19.48	351.71	5.20	-49.1	-61.4	3.8	8.46e-01	0	40	104	3270508544	69	15154
2026-01-25 10:48:22.74	351.49	4.99	-49.1	-61.4	3.8	8.47e-01	0	40	104	3270508544	69	15143

#Closed at: 2026-01-25 10:48:23
#Recorded file [3270 MB]: D:/Data/31040_260125_133657.dat