passes_logs/2026/01/25/T1/T1__20260125_234937_NOAA_20_JPSS-1_rec.log

#Pass ID: 20260125_234937_NOAA 20 (JPSS-1)
#Satellite: NOAA 20 (JPSS-1)
#Configuration: NOAA 20
#almurnet v.1.7.20251203
#Start time: 2026-01-25 23:49:36

#Version: 2.0.20230620
#Station: T1
#Location: 37.570604 lon 55.790049 lat
#TLE: 1 43013U 17073A   26025.47986292  .00000161  00000+0  97249-4 0  9993
#TLE: 2 43013  98.7646 326.3091 0001052  24.2709 335.8516 14.19540188424225

#Time	Az	El	Level	Level2	SNR	BER	BlckErr	Temp	State	Recorded	gain1	gain2
2026-01-25 23:49:36.73	15.48	4.98	-46.1	-63.1	3.8	1.49e+00	0	37	0	0	64	24583
2026-01-25 23:49:40.70	15.47	5.26	-46.2	-63.2	3.8	1.49e+00	0	37	104	0	63	26261
2026-01-25 23:49:44.67	15.46	5.55	-46.2	-63.2	3.8	1.49e+00	0	37	104	0	63	26401
2026-01-25 23:49:48.65	15.44	5.84	-46.2	-63.2	3.8	1.49e+00	0	38	104	0	63	26289
2026-01-25 23:49:52.62	15.43	6.13	-46.2	-63.1	3.8	1.49e+00	0	38	104	0	63	26133
2026-01-25 23:49:56.60	15.41	6.43	-46.2	-63.1	3.8	1.49e+00	0	38	104	0	63	26126
2026-01-25 23:50:00.57	15.39	6.73	-46.2	-63.1	3.8	1.49e+00	0	38	104	0	63	25876
2026-01-25 23:50:04.54	15.38	7.03	-46.2	-62.9	3.8	1.49e+00	0	38	104	0	63	25287
2026-01-25 23:50:08.52	15.36	7.34	-46.2	-62.5	3.8	1.49e+00	0	38	104	0	63	24371
2026-01-25 23:50:12.49	15.34	7.65	-46.1	-61.7	3.8	1.49e+00	0	38	104	0	63	22157
2026-01-25 23:50:16.47	15.32	7.97	-46.0	-59.7	4.2	1.43e+00	0	38	0	0	63	17566
2026-01-25 23:50:20.44	15.30	8.29	-45.8	-56.6	5.7	4.74e-01	0	38	0	5242880	63	12282
2026-01-25 23:50:24.41	15.28	8.61	-45.3	-53.7	8.2	6.46e-02	0	39	0	12582912	62	9341
2026-01-25 23:50:28.39	15.26	8.94	-45.0	-52.3	9.6	1.44e-02	0	38	0	20971520	62	7979
2026-01-25 23:50:32.37	15.24	9.27	-45.2	-52.7	9.2	6.47e-02	0	39	0	28311552	61	8776
2026-01-25 23:50:36.34	15.21	9.60	-43.4	-47.6	14.4	1.50e-06	0	39	0	33554432	58	5818
2026-01-25 23:50:40.32	15.19	9.94	-42.8	-46.6	15.5	0.00e+00	0	39	0	40894464	57	5477
2026-01-25 23:50:44.32	15.16	10.29	-42.7	-46.4	15.7	0.00e+00	0	39	0	48234496	57	5389
2026-01-25 23:50:48.33	15.14	10.64	-42.6	-46.4	15.8	0.00e+00	0	39	0	55574528	57	5356
2026-01-25 23:50:52.31	15.11	11.00	-42.6	-46.3	15.9	0.00e+00	0	39	0	62914560	57	5289
2026-01-25 23:50:56.29	15.08	11.36	-42.5	-46.1	16.0	0.00e+00	0	39	0	70254592	56	5509
2026-01-25 23:51:00.33	15.05	11.73	-42.3	-46.0	16.1	0.00e+00	0	39	0	78643200	56	5445
2026-01-25 23:51:04.31	15.02	12.11	-42.2	-45.9	16.3	0.00e+00	0	39	0	85983232	56	5351
2026-01-25 23:51:08.40	14.98	12.49	-42.1	-45.8	16.4	0.00e+00	0	39	0	93323264	56	5308
2026-01-25 23:51:12.39	14.95	12.88	-41.9	-45.4	16.7	0.00e+00	0	39	0	100663296	55	5356
2026-01-25 23:51:16.37	14.92	13.27	-41.8	-45.2	16.9	0.00e+00	0	39	0	108003328	55	5236
2026-01-25 23:51:20.45	14.88	13.68	-41.7	-45.1	17.0	0.00e+00	0	39	0	116391936	55	5173
2026-01-25 23:51:24.43	14.84	14.08	-41.8	-45.2	17.0	0.00e+00	0	39	0	123731968	55	5225
2026-01-25 23:51:28.41	14.80	14.49	-41.7	-44.9	17.2	0.00e+00	0	39	0	131072000	55	5089
2026-01-25 23:51:32.39	14.76	14.91	-41.7	-44.9	17.2	0.00e+00	0	39	0	138412032	55	5088
2026-01-25 23:51:36.38	14.72	15.33	-41.6	-44.7	17.4	0.00e+00	0	39	0	145752064	55	4959
2026-01-25 23:51:40.36	14.67	15.76	-41.6	-44.6	17.5	0.00e+00	0	39	0	153092096	55	4878
2026-01-25 23:51:44.34	14.63	16.20	-41.5	-44.4	17.7	0.00e+00	0	39	0	160432128	54	5065
2026-01-25 23:51:48.35	14.58	16.65	-41.4	-44.2	17.9	0.00e+00	0	39	0	168820736	54	4964
2026-01-25 23:51:52.86	14.52	17.17	-41.5	-44.3	17.9	0.00e+00	0	39	0	177209344	54	5002
2026-01-25 23:51:56.84	14.47	17.64	-41.3	-44.0	18.2	0.00e+00	0	39	0	184549376	54	4817
2026-01-25 23:52:00.90	14.42	18.12	-41.3	-43.8	18.3	0.00e+00	0	39	0	191889408	54	4749
2026-01-25 23:52:05.05	14.36	18.63	-41.2	-43.8	18.4	0.00e+00	0	39	0	199229440	54	4719
2026-01-25 23:52:09.05	14.30	19.12	-41.2	-43.6	18.5	0.00e+00	0	39	0	207618048	54	4640
2026-01-25 23:52:13.01	14.24	19.62	-41.2	-43.6	18.6	0.00e+00	0	39	0	214958080	54	4600
2026-01-25 23:52:17.11	14.17	20.16	-41.2	-43.5	18.6	0.00e+00	0	39	0	222298112	54	4594
2026-01-25 23:52:21.05	14.10	20.68	-41.1	-43.5	18.7	0.00e+00	0	39	0	229638144	54	4564
2026-01-25 23:52:25.02	14.03	21.21	-41.0	-43.4	18.8	0.00e+00	0	39	0	236978176	54	4506
2026-01-25 23:52:29.00	13.96	21.76	-41.0	-43.3	18.9	0.00e+00	0	39	0	244318208	53	4747
2026-01-25 23:52:33.09	13.88	22.34	-41.0	-43.4	18.8	0.00e+00	0	39	0	252706816	53	4774
2026-01-25 23:52:37.07	13.80	22.91	-40.8	-43.1	19.0	0.00e+00	0	39	0	260046848	53	4640
2026-01-25 23:52:40.97	13.72	23.49	-40.6	-43.0	19.2	0.00e+00	0	39	0	267386880	53	4558
2026-01-25 23:52:44.95	13.64	24.09	-40.6	-42.9	19.2	0.00e+00	0	39	0	274726912	53	4539
2026-01-25 23:52:48.95	13.54	24.70	-40.5	-42.7	19.4	0.00e+00	0	39	0	282066944	52	4692
2026-01-25 23:52:52.98	13.45	25.34	-40.7	-43.0	19.2	0.00e+00	0	39	0	289406976	52	4832
2026-01-25 23:52:56.96	13.35	25.99	-40.7	-43.1	19.1	0.00e+00	0	39	0	296747008	52	4902
2026-01-25 23:53:00.93	13.24	26.65	-41.2	-43.7	18.5	0.00e+00	0	39	0	304087040	53	4980
2026-01-25 23:53:04.93	13.13	27.33	-41.5	-44.1	18.2	0.00e+00	0	39	0	311427072	53	5174
2026-01-25 23:53:08.91	13.02	28.02	-42.0	-44.7	17.6	0.00e+00	0	40	0	319815680	54	5253
2026-01-25 23:53:12.89	12.90	28.73	-42.5	-45.3	17.0	0.00e+00	0	39	0	327155712	55	5330
2026-01-25 23:53:16.86	12.77	29.46	-43.2	-46.2	16.3	0.00e+00	0	39	0	334495744	56	5535
2026-01-25 23:53:20.84	12.64	30.21	-43.5	-46.6	15.9	0.00e+00	0	39	0	341835776	57	5519
2026-01-25 23:53:24.91	12.49	31.00	-43.3	-46.6	15.9	0.00e+00	0	39	0	349175808	57	5477
2026-01-25 23:53:29.04	12.34	31.82	-43.6	-47.0	15.5	0.00e+00	0	39	0	357564416	57	5741
2026-01-25 23:53:33.01	12.18	32.63	-43.6	-47.0	15.5	0.00e+00	0	39	0	364904448	58	5452
2026-01-25 23:53:36.99	12.01	33.46	-43.3	-46.5	16.0	0.00e+00	0	39	0	372244480	58	5156
2026-01-25 23:53:40.98	11.84	34.32	-42.5	-45.3	17.2	0.00e+00	0	39	0	379584512	57	4728
2026-01-25 23:53:44.96	11.65	35.21	-41.6	-44.1	18.3	0.00e+00	0	39	0	386924544	55	4607
2026-01-25 23:53:48.93	11.45	36.11	-40.9	-43.2	19.0	0.00e+00	0	40	0	394264576	53	4700
2026-01-25 23:53:52.98	11.24	37.06	-40.3	-42.5	19.8	0.00e+00	0	39	0	401604608	52	4566
2026-01-25 23:53:56.96	11.01	38.02	-40.3	-42.6	19.7	0.00e+00	0	39	0	408944640	52	4612
2026-01-25 23:54:00.95	10.78	39.01	-40.5	-42.8	19.5	0.00e+00	0	39	0	417333248	52	4715
2026-01-25 23:54:04.93	10.52	40.03	-40.9	-43.2	19.1	0.00e+00	0	39	0	424673280	52	4975
2026-01-25 23:54:09.00	10.24	41.10	-41.2	-43.6	18.7	0.00e+00	0	39	0	432013312	52	5215
2026-01-25 23:54:13.01	9.95	42.19	-41.4	-43.9	18.5	0.00e+00	0	39	0	439353344	53	5056
2026-01-25 23:54:16.99	9.63	43.30	-41.4	-43.9	18.5	0.00e+00	0	39	0	446693376	53	5056
2026-01-25 23:54:20.98	9.29	44.44	-42.0	-44.6	17.8	0.00e+00	0	39	0	454033408	54	5175
2026-01-25 23:54:24.96	8.93	45.62	-43.0	-45.9	16.7	0.00e+00	0	39	0	462422016	56	5353
2026-01-25 23:54:28.93	8.53	46.82	-43.9	-47.1	15.5	0.00e+00	0	39	0	469762048	58	5522
2026-01-25 23:54:32.98	8.10	48.09	-44.1	-47.4	15.1	0.00e+00	0	39	0	477102080	59	5378
2026-01-25 23:54:37.04	7.62	49.39	-43.4	-46.3	16.3	0.00e+00	0	39	0	484442112	58	5026
2026-01-25 23:54:41.02	7.11	50.71	-41.3	-43.6	18.8	0.00e+00	0	39	0	491782144	54	4637
2026-01-25 23:54:45.00	6.55	52.06	-39.9	-42.0	20.3	0.00e+00	0	39	0	499122176	51	4579
2026-01-25 23:54:48.97	5.94	53.44	-40.2	-42.4	20.0	0.00e+00	0	39	0	506462208	51	4780
2026-01-25 23:54:52.95	5.27	54.87	-40.5	-42.7	19.7	0.00e+00	0	39	0	514850816	51	4970
2026-01-25 23:54:56.93	4.52	56.32	-41.6	-44.1	18.3	0.00e+00	0	39	0	522190848	53	5180
2026-01-25 23:55:00.91	3.68	57.81	-43.5	-46.7	15.9	0.00e+00	0	39	0	529530880	57	5532
2026-01-25 23:55:04.92	2.73	59.35	-44.6	-48.3	14.3	1.50e-06	0	39	0	536870912	60	5620
2026-01-25 23:55:09.06	1.63	60.97	-41.5	-43.9	18.5	0.00e+00	0	39	0	544210944	55	4508
2026-01-25 23:55:13.30	0.34	62.65	-40.4	-42.6	19.7	0.00e+00	0	39	0	552599552	52	4644
2026-01-25 23:55:17.28	358.95	64.26	-40.4	-42.6	19.8	0.00e+00	0	39	0	559939584	52	4601
2026-01-25 23:55:21.40	357.28	65.95	-40.7	-43.0	19.3	0.00e+00	0	39	0	568328192	52	4865
2026-01-25 23:55:25.46	355.37	67.63	-41.8	-44.2	18.2	0.00e+00	0	39	0	575668224	54	4963
2026-01-25 23:55:29.51	353.11	69.30	-41.6	-44.0	18.5	0.00e+00	0	39	0	583008256	54	4838
2026-01-25 23:55:33.50	350.47	70.95	-40.7	-43.0	19.4	0.00e+00	0	39	0	590348288	53	4552
2026-01-25 23:55:37.48	347.29	72.57	-41.1	-43.4	19.0	0.00e+00	0	39	0	597688320	53	4783
2026-01-25 23:55:41.46	343.44	74.16	-43.6	-46.7	15.9	0.00e+00	0	39	0	605028352	58	5220
2026-01-25 23:55:45.48	338.65	75.69	-42.5	-45.1	17.5	0.00e+00	0	39	0	613416960	57	4628
2026-01-25 23:55:49.54	332.64	77.14	-42.8	-45.6	17.0	0.00e+00	0	39	0	620756992	57	4909
2026-01-25 23:55:53.69	324.98	78.45	-41.3	-43.6	18.8	0.00e+00	0	39	0	628097024	54	4620
2026-01-25 23:55:57.69	315.89	79.48	-41.4	-43.9	18.6	0.00e+00	0	39	0	635437056	53	5043
2026-01-25 23:56:01.86	304.62	80.23	-41.8	-44.3	18.2	0.00e+00	0	39	0	643825664	54	4993
2026-01-25 23:56:06.10	291.82	80.55	-41.7	-44.1	18.3	0.00e+00	0	39	0	651165696	55	4650
2026-01-25 23:56:10.25	279.05	80.40	-40.4	-42.6	19.7	0.00e+00	0	39	0	659554304	52	4641
2026-01-25 23:56:14.23	267.70	79.84	-40.5	-42.7	19.7	0.00e+00	0	39	0	666894336	52	4664
2026-01-25 23:56:18.26	257.77	78.92	-41.2	-43.6	18.8	0.00e+00	0	39	0	674234368	53	4891
2026-01-25 23:56:22.24	249.69	77.76	-44.5	-48.0	14.6	0.00e+00	0	39	0	681574400	59	5733
2026-01-25 23:56:26.26	243.08	76.40	-44.2	-47.6	15.1	7.00e-07	0	39	0	688914432	60	5193
2026-01-25 23:56:30.24	237.81	74.92	-43.2	-46.2	16.5	0.00e+00	0	39	0	697303040	58	4928
2026-01-25 23:56:34.27	233.50	73.34	-42.2	-44.7	17.9	0.00e+00	0	39	0	704643072	56	4703
2026-01-25 23:56:38.25	230.01	71.73	-40.7	-43.0	19.3	0.00e+00	0	39	0	711983104	53	4566
2026-01-25 23:56:42.83	226.74	69.84	-42.1	-44.7	17.8	0.00e+00	0	39	0	720371712	55	4929
2026-01-25 23:56:47.16	224.20	68.05	-44.7	-48.3	14.2	0.00e+00	0	39	0	728760320	60	5653
2026-01-25 23:56:51.09	222.26	66.42	-43.0	-45.8	16.7	0.00e+00	0	39	0	736100352	58	4758
2026-01-25 23:56:55.18	220.53	64.73	-40.8	-43.1	19.3	0.00e+00	0	39	0	743440384	53	4626
2026-01-25 23:56:59.16	219.07	63.11	-40.4	-42.6	19.8	0.00e+00	0	39	0	750780416	52	4599
2026-01-25 23:57:03.13	217.81	61.52	-40.6	-42.8	19.6	0.00e+00	0	39	0	758120448	52	4708
2026-01-25 23:57:07.19	216.67	59.92	-43.0	-45.8	16.9	0.00e+00	0	39	0	766509056	56	5298
2026-01-25 23:57:11.20	215.68	58.37	-44.7	-48.5	14.2	0.00e+00	0	39	0	773849088	59	6097
2026-01-25 23:57:15.17	214.81	56.86	-43.3	-46.2	16.4	0.00e+00	0	39	0	781189120	58	4970
2026-01-25 23:57:19.17	214.02	55.38	-42.0	-44.5	17.9	0.00e+00	0	39	0	788529152	55	4848
2026-01-25 23:57:23.17	213.31	53.93	-40.5	-42.7	19.7	0.00e+00	0	39	0	795869184	52	4662
2026-01-25 23:57:27.34	212.65	52.46	-40.3	-42.4	20.0	0.00e+00	0	39	0	804257792	51	4795
2026-01-25 23:57:31.52	212.04	51.03	-41.8	-44.3	18.2	0.00e+00	0	39	0	811597824	54	4997
2026-01-25 23:57:35.51	211.52	49.69	-43.9	-47.0	15.5	0.00e+00	0	39	0	818937856	58	5445
2026-01-25 23:57:39.54	211.03	48.38	-43.7	-46.8	15.8	0.00e+00	0	39	0	827326464	58	5305
2026-01-25 23:57:43.69	210.57	47.07	-45.1	-49.2	13.4	5.30e-06	0	39	0	834666496	60	6261
2026-01-25 23:57:47.85	210.15	45.80	-43.8	-46.9	15.6	0.00e+00	0	39	0	842006528	59	5091
2026-01-25 23:57:51.87	209.77	44.60	-43.4	-46.4	16.2	0.00e+00	0	39	0	850395136	58	5084
2026-01-25 23:57:55.99	209.42	43.40	-44.4	-48.0	14.6	0.00e+00	0	39	0	857735168	59	5738
2026-01-25 23:58:00.29	209.07	42.20	-44.1	-47.5	15.1	7.00e-07	0	39	0	866123776	59	5417
2026-01-25 23:58:04.47	208.76	41.06	-44.2	-47.6	14.9	0.00e+00	0	39	0	873463808	59	5519
2026-01-25 23:58:08.41	208.49	40.02	-44.5	-48.1	14.5	0.00e+00	0	39	0	880803840	59	5813
2026-01-25 23:58:12.39	208.23	38.99	-44.1	-47.4	15.1	0.00e+00	0	39	0	888143872	59	5391
2026-01-25 23:58:16.43	207.99	37.98	-43.5	-46.5	16.1	0.00e+00	0	39	0	895483904	58	5126
2026-01-25 23:58:20.47	207.76	37.00	-42.9	-45.8	16.7	0.00e+00	0	39	0	903872512	57	5012
2026-01-25 23:58:24.45	207.54	36.06	-43.0	-46.0	16.5	0.00e+00	0	39	0	911212544	57	5107
2026-01-25 23:58:28.43	207.34	35.15	-42.9	-45.8	16.7	0.00e+00	0	39	0	918552576	57	5014
2026-01-25 23:58:32.49	207.15	34.25	-42.8	-45.6	16.9	0.00e+00	0	39	0	925892608	57	4896
2026-01-25 23:58:36.81	206.96	33.31	-43.1	-46.0	16.5	0.00e+00	0	39	0	934281216	57	5133
2026-01-25 23:58:40.81	206.79	32.47	-43.5	-46.6	15.9	0.00e+00	0	39	0	941621248	57	5482
2026-01-25 23:58:44.81	206.63	31.65	-43.6	-46.6	15.8	0.00e+00	0	39	0	948961280	57	5526
2026-01-25 23:58:48.82	206.48	30.85	-43.7	-46.8	15.6	0.00e+00	0	39	0	956301312	58	5308
2026-01-25 23:58:53.12	206.32	30.02	-43.7	-46.8	15.7	0.00e+00	0	39	0	964689920	58	5323
2026-01-25 23:58:57.10	206.19	29.27	-43.7	-46.8	15.7	0.00e+00	0	39	0	972029952	58	5319
2026-01-25 23:59:01.10	206.06	28.53	-43.4	-46.4	16.1	0.00e+00	0	39	0	979369984	58	5051
2026-01-25 23:59:05.09	205.93	27.82	-43.1	-46.1	16.4	0.00e+00	0	39	0	987758592	58	4888
2026-01-25 23:59:09.17	205.81	27.11	-42.8	-45.5	16.9	0.00e+00	0	39	0	995098624	57	4869
2026-01-25 23:59:13.21	205.70	26.42	-42.7	-45.4	17.0	0.00e+00	0	39	0	1002438656	57	4814
2026-01-25 23:59:17.19	205.59	25.76	-42.5	-45.3	17.1	0.00e+00	0	39	0	1009778688	57	4745
2026-01-25 23:59:21.14	205.49	25.12	-42.1	-44.8	17.6	0.00e+00	0	39	0	1017118720	56	4741
2026-01-25 23:59:25.12	205.40	24.49	-41.8	-44.4	17.9	0.00e+00	0	39	0	1024458752	55	4803
2026-01-25 23:59:29.09	205.30	23.88	-41.8	-44.4	17.9	0.00e+00	0	39	0	1031798784	55	4768
2026-01-25 23:59:33.09	205.21	23.27	-41.6	-44.2	18.1	0.00e+00	0	39	0	1040187392	55	4655
2026-01-25 23:59:37.00	205.13	22.70	-41.8	-44.4	17.8	0.00e+00	0	39	0	1047527424	55	4766
2026-01-25 23:59:40.98	205.05	22.12	-41.8	-44.4	17.8	0.00e+00	0	39	0	1054867456	55	4776
2026-01-25 23:59:44.96	204.97	21.56	-41.7	-44.2	18.0	0.00e+00	0	39	0	1062207488	55	4675
2026-01-25 23:59:48.96	204.89	21.01	-41.8	-44.4	17.8	0.00e+00	0	39	0	1069547520	55	4784
2026-01-25 23:59:52.94	204.82	20.47	-42.0	-44.7	17.5	0.00e+00	0	39	0	1076887552	55	4930
2026-01-25 23:59:56.92	204.75	19.95	-42.3	-45.0	17.2	0.00e+00	0	39	0	1084227584	55	5113
2026-01-26 00:00:00.90	204.69	19.43	-42.5	-45.3	16.9	0.00e+00	0	39	0	1091567616	55	5293
2026-01-26 00:00:04.84	204.62	18.93	-42.5	-45.3	16.9	0.00e+00	0	39	0	1098907648	55	5331
2026-01-26 00:00:08.82	204.56	18.43	-42.6	-45.4	16.7	0.00e+00	0	39	0	1106247680	55	5395
2026-01-26 00:00:12.80	204.50	17.95	-42.6	-45.4	16.8	0.00e+00	0	39	0	1114636288	55	5362
2026-01-26 00:00:16.93	204.44	17.46	-42.8	-45.6	16.7	0.00e+00	0	39	0	1121976320	56	5216
2026-01-26 00:00:20.95	204.39	16.98	-42.9	-45.7	16.6	0.00e+00	0	39	0	1129316352	56	5252
2026-01-26 00:00:24.93	204.33	16.53	-43.0	-45.9	16.5	0.00e+00	0	39	0	1136656384	56	5345
2026-01-26 00:00:28.91	204.28	16.08	-43.1	-46.0	16.3	0.00e+00	0	39	0	1143996416	56	5443
2026-01-26 00:00:32.89	204.23	15.63	-43.1	-46.1	16.2	0.00e+00	0	39	0	1152385024	57	5177
2026-01-26 00:00:36.88	204.18	15.20	-43.1	-46.2	16.1	0.00e+00	0	39	0	1159725056	57	5239
2026-01-26 00:00:40.86	204.14	14.77	-43.1	-46.3	15.9	0.00e+00	0	39	0	1167065088	57	5286
2026-01-26 00:00:44.84	204.09	14.36	-43.1	-46.2	16.0	0.00e+00	0	39	0	1174405120	57	5254
2026-01-26 00:00:48.82	204.05	13.94	-43.0	-46.2	16.0	0.00e+00	0	39	0	1181745152	57	5247
2026-01-26 00:00:52.80	204.01	13.54	-43.0	-46.2	16.0	0.00e+00	0	39	0	1189085184	57	5228
2026-01-26 00:00:56.78	203.97	13.14	-43.0	-46.1	16.1	0.00e+00	0	39	0	1196425216	57	5196
2026-01-26 00:01:00.84	203.93	12.74	-42.9	-46.0	16.1	0.00e+00	0	39	0	1203765248	57	5151
2026-01-26 00:01:04.84	203.89	12.35	-42.8	-46.0	16.1	0.00e+00	0	39	0	1212153856	57	5141
2026-01-26 00:01:08.85	203.86	11.97	-42.8	-46.0	16.2	0.00e+00	0	39	0	1219493888	57	5113
2026-01-26 00:01:12.86	203.82	11.60	-42.9	-46.1	16.0	0.00e+00	0	39	0	1226833920	57	5192
2026-01-26 00:01:16.94	203.79	11.22	-42.8	-46.0	16.1	0.00e+00	0	39	0	1234173952	57	5137
2026-01-26 00:01:21.26	203.75	10.83	-42.8	-46.1	16.0	0.00e+00	0	39	0	1242562560	57	5190
2026-01-26 00:01:25.24	203.72	10.47	-42.8	-46.2	15.9	0.00e+00	0	39	0	1249902592	57	5236
2026-01-26 00:01:29.26	203.69	10.11	-42.9	-46.4	15.7	0.00e+00	0	39	0	1257242624	57	5361
2026-01-26 00:01:33.24	203.66	9.77	-43.0	-46.5	15.5	0.00e+00	0	39	0	1264582656	57	5432
2026-01-26 00:01:37.22	203.63	9.43	-43.1	-46.7	15.3	0.00e+00	0	39	0	1271922688	57	5540
2026-01-26 00:01:41.20	203.60	9.09	-43.1	-46.6	15.4	0.00e+00	0	39	0	1280311296	57	5465
2026-01-26 00:01:45.19	203.58	8.75	-48.1	-63.5	3.8	1.49e+00	0	39	104	1283457024	66	22968
2026-01-26 00:01:49.29	203.55	8.42	-48.5	-63.8	3.8	1.49e+00	0	39	104	1283457024	67	22435
2026-01-26 00:01:53.39	203.52	8.08	-48.8	-64.0	3.8	1.49e+00	0	39	104	1283457024	68	21733
2026-01-26 00:01:57.49	203.50	7.75	-49.0	-64.1	3.8	1.49e+00	0	39	104	1283457024	68	21799
2026-01-26 00:02:01.56	203.47	7.43	-48.8	-64.0	3.8	1.49e+00	0	39	104	1283457024	68	21574
2026-01-26 00:02:05.54	203.45	7.12	-48.5	-64.0	3.8	1.49e+00	0	39	104	1283457024	68	21520
2026-01-26 00:02:09.51	203.43	6.81	-48.5	-63.9	3.8	1.49e+00	0	39	104	1283457024	68	21483
2026-01-26 00:02:13.48	203.41	6.51	-48.5	-63.9	3.8	1.49e+00	0	39	104	1283457024	68	21477
2026-01-26 00:02:17.46	203.39	6.21	-48.5	-63.9	3.8	1.49e+00	0	39	104	1283457024	68	21459
2026-01-26 00:02:21.43	203.36	5.91	-48.5	-63.9	3.8	1.49e+00	0	39	104	1283457024	68	21395
2026-01-26 00:02:25.40	203.35	5.62	-48.5	-63.9	3.8	1.49e+00	0	39	104	1283457024	68	21480
2026-01-26 00:02:29.38	203.33	5.33	-48.5	-63.9	3.8	1.49e+00	0	39	104	1283457024	68	21435
2026-01-26 00:02:33.35	203.31	5.04	-48.5	-63.9	3.8	1.49e+00	0	39	104	1283457024	68	21369

#Closed at: 2026-01-26 00:02:35
#Recorded file [1283 MB]: D:/Data/31040_260126_024936.dat