passes_logs/2026/01/25/T1/T1__20260125_135859_FENGYUN_3E_rec.log

#Pass ID: 20260125_135859_FENGYUN 3E
#Satellite: FENGYUN 3E
#Configuration: FENGYUN 3E
#almurnet v.1.7.20251203
#Start time: 2026-01-25 13:58:59

#Version: 2.0.20230620
#Station: T1
#Location: 37.570604 lon 55.790049 lat
#TLE: 1 49008U 21062A   26025.22354119 -.00000045  00000+0 -39974-6 0  9992
#TLE: 2 49008  98.7496  30.2323 0002444 117.8821 242.2603 14.19886325236299

#Time	Az	El	Level	Level2	SNR	BER	BlckErr	Temp	State	Recorded	gain1	gain2
2026-01-25 13:58:59.82	153.15	5.02	-47.8	-58.6	3.8	8.47e-01	0	38	0	0	66	12222
2026-01-25 13:59:03.79	153.10	5.31	-47.8	-58.6	3.8	8.47e-01	0	39	104	0	66	12131
2026-01-25 13:59:07.76	153.06	5.60	-47.8	-59.1	3.8	8.47e-01	0	39	104	0	66	12839
2026-01-25 13:59:11.74	153.01	5.89	-47.7	-57.6	3.8	8.47e-01	0	39	104	0	66	10804
2026-01-25 13:59:15.71	152.97	6.18	-47.3	-55.7	4.2	8.41e-01	0	39	0	0	65	9258
2026-01-25 13:59:19.68	152.92	6.48	-47.6	-56.5	3.9	8.43e-01	0	39	104	0	65	10148
2026-01-25 13:59:23.66	152.87	6.79	-47.8	-58.8	3.8	8.47e-01	0	39	104	0	65	13150
2026-01-25 13:59:27.63	152.82	7.09	-47.7	-58.1	3.8	8.47e-01	0	39	104	0	65	12172
2026-01-25 13:59:31.60	152.77	7.40	-47.1	-54.6	4.5	8.29e-01	0	39	0	0	65	8116
2026-01-25 13:59:35.58	152.71	7.72	-45.0	-48.9	9.0	3.24e-02	0	40	0	16777216	60	5639
2026-01-25 13:59:39.55	152.66	8.04	-42.1	-44.5	13.3	3.43e-05	0	40	0	46137344	55	4505
2026-01-25 13:59:43.52	152.60	8.36	-40.8	-42.9	14.9	0.00e+00	0	40	0	74448896	52	4452
2026-01-25 13:59:47.50	152.55	8.68	-41.8	-44.0	13.8	4.50e-06	0	40	0	102760448	52	5087
2026-01-25 13:59:51.47	152.49	9.01	-44.9	-48.5	9.3	3.20e-02	0	40	0	132120576	59	5711
2026-01-25 13:59:55.45	152.43	9.35	-47.3	-54.8	4.3	8.46e-01	0	40	104	155189248	65	8322
2026-01-25 13:59:59.43	152.36	9.69	-37.7	-39.3	18.1	0.00e+00	0	40	0	182452224	46	4188
2026-01-25 14:00:03.41	152.30	10.03	-36.5	-38.0	19.2	0.00e+00	0	40	0	210763776	43	4290
2026-01-25 14:00:07.47	152.23	10.39	-36.2	-37.7	19.5	0.00e+00	0	40	0	240123904	43	4124
2026-01-25 14:00:11.45	152.17	10.74	-36.0	-37.5	19.5	0.00e+00	0	40	0	268435456	42	4244
2026-01-25 14:00:15.43	152.10	11.10	-35.9	-37.4	19.8	0.00e+00	0	41	0	297795584	42	4230
2026-01-25 14:00:19.48	152.02	11.48	-35.8	-37.3	19.9	0.00e+00	0	40	0	327155712	42	4187
2026-01-25 14:00:23.54	151.95	11.85	-35.7	-37.2	20.0	0.00e+00	0	40	0	355467264	42	4131
2026-01-25 14:00:27.53	151.87	12.23	-35.7	-37.2	20.0	0.00e+00	0	41	0	384827392	42	4111
2026-01-25 14:00:31.51	151.79	12.61	-35.6	-37.1	20.1	0.00e+00	0	40	0	413138944	41	4327
2026-01-25 14:00:35.49	151.71	13.00	-35.6	-37.0	20.2	0.00e+00	0	41	0	442499072	41	4279
2026-01-25 14:00:39.50	151.63	13.40	-35.6	-37.0	20.2	0.00e+00	0	41	0	470810624	41	4280
2026-01-25 14:00:43.48	151.54	13.80	-35.4	-36.8	20.4	0.00e+00	0	41	0	500170752	41	4179
2026-01-25 14:00:47.68	151.45	14.23	-35.4	-36.9	20.3	0.00e+00	0	41	0	530579456	41	4204
2026-01-25 14:00:51.68	151.36	14.65	-35.3	-36.8	20.4	0.00e+00	0	41	0	558891008	41	4152
2026-01-25 14:00:55.65	151.27	15.07	-35.3	-36.8	20.4	0.00e+00	0	40	0	587202560	41	4150
2026-01-25 14:00:59.85	151.16	15.52	-35.2	-36.7	20.5	0.00e+00	0	41	0	617611264	41	4101
2026-01-25 14:01:03.83	151.06	15.96	-35.3	-36.7	20.5	0.00e+00	0	41	0	646971392	41	4116
2026-01-25 14:01:07.81	150.96	16.40	-35.1	-36.5	20.7	0.00e+00	0	41	0	675282944	40	4263
2026-01-25 14:01:11.90	150.85	16.87	-35.1	-36.5	20.6	0.00e+00	0	41	0	704643072	40	4256
2026-01-25 14:01:16.09	150.73	17.36	-34.9	-36.4	20.8	0.00e+00	0	41	0	735051776	40	4196
2026-01-25 14:01:20.07	150.62	17.83	-34.7	-36.1	21.1	0.00e+00	0	41	0	764411904	40	4053
2026-01-25 14:01:24.05	150.50	18.31	-34.5	-35.9	21.3	0.00e+00	0	41	0	792723456	39	4196
2026-01-25 14:01:28.03	150.38	18.80	-34.4	-35.7	21.5	0.00e+00	0	41	0	822083584	39	4106
2026-01-25 14:01:32.04	150.25	19.30	-34.2	-35.5	21.7	0.00e+00	0	41	0	850395136	39	4007
2026-01-25 14:01:36.02	150.12	19.81	-34.1	-35.3	21.8	0.00e+00	0	41	0	879755264	38	4185
2026-01-25 14:01:40.02	149.98	20.34	-33.9	-35.2	21.9	0.00e+00	0	41	0	908066816	38	4112
2026-01-25 14:01:44.09	149.83	20.88	-33.8	-35.1	21.9	0.00e+00	0	41	0	937426944	38	4089
2026-01-25 14:01:48.07	149.68	21.42	-33.8	-35.1	21.9	0.00e+00	0	41	0	966787072	38	4095
2026-01-25 14:01:52.05	149.53	21.98	-33.8	-35.1	21.9	0.00e+00	0	41	0	995098624	38	4090
2026-01-25 14:01:56.03	149.37	22.55	-33.7	-35.0	22.0	0.00e+00	0	41	0	1023410176	38	4013
2026-01-25 14:02:00.01	149.21	23.13	-33.7	-35.0	21.9	0.00e+00	0	41	0	1051721728	38	4031
2026-01-25 14:02:03.99	149.03	23.72	-33.8	-35.2	21.8	0.00e+00	0	41	0	1081081856	38	4117
2026-01-25 14:02:07.97	148.85	24.32	-33.9	-35.3	21.6	0.00e+00	0	41	0	1110441984	38	4167
2026-01-25 14:02:11.96	148.66	24.95	-33.9	-35.4	21.5	0.00e+00	0	41	0	1138753536	38	4220
2026-01-25 14:02:15.93	148.47	25.58	-33.6	-35.0	21.9	0.00e+00	0	41	0	1167065088	38	4026
2026-01-25 14:02:19.91	148.27	26.23	-33.5	-34.9	21.9	0.00e+00	0	41	0	1195376640	37	4224
2026-01-25 14:02:23.90	148.05	26.90	-33.4	-34.8	22.1	0.00e+00	0	41	0	1224736768	37	4146
2026-01-25 14:02:27.86	147.83	27.58	-33.0	-34.3	22.5	0.00e+00	0	41	0	1253048320	36	4190
2026-01-25 14:02:31.85	147.60	28.28	-32.6	-33.9	22.9	0.00e+00	0	41	0	1282408448	36	3989
2026-01-25 14:02:35.91	147.35	29.01	-31.7	-33.0	22.7	0.00e+00	0	41	0	1311768576	34	4030
2026-01-25 14:02:39.99	147.08	29.76	-31.9	-33.2	22.6	0.00e+00	0	41	0	1341128704	34	4114
2026-01-25 14:02:43.96	146.82	30.51	-32.1	-33.4	22.4	0.00e+00	0	41	0	1369440256	34	4215
2026-01-25 14:02:47.99	146.53	31.29	-32.2	-33.5	22.2	0.00e+00	0	41	0	1398800384	34	4291
2026-01-25 14:02:51.97	146.23	32.09	-32.4	-33.7	22.1	0.00e+00	0	41	0	1427111936	34	4382
2026-01-25 14:02:55.95	145.92	32.90	-32.5	-33.9	21.8	0.00e+00	0	41	0	1456472064	34	4483
2026-01-25 14:02:59.93	145.59	33.74	-32.4	-33.8	21.9	0.00e+00	0	41	0	1484783616	34	4437
2026-01-25 14:03:03.96	145.24	34.61	-32.2	-33.6	22.1	0.00e+00	0	41	0	1514143744	34	4292
2026-01-25 14:03:07.94	144.87	35.49	-32.0	-33.4	22.4	0.00e+00	0	41	0	1542455296	34	4210
2026-01-25 14:03:12.02	144.47	36.41	-32.1	-33.4	22.3	0.00e+00	0	41	0	1572864000	34	4237
2026-01-25 14:03:16.00	144.06	37.34	-32.4	-33.8	22.0	0.00e+00	0	41	0	1601175552	34	4439
2026-01-25 14:03:19.97	143.62	38.29	-32.7	-34.2	21.7	0.00e+00	0	41	0	1629487104	34	4603
2026-01-25 14:03:23.95	143.16	39.27	-32.6	-34.0	21.8	0.00e+00	0	41	0	1657798656	35	4261
2026-01-25 14:03:27.93	142.66	40.28	-32.2	-33.5	22.2	0.00e+00	0	41	0	1687158784	35	4047
2026-01-25 14:03:31.92	142.13	41.31	-32.8	-33.7	23.1	0.00e+00	0	41	0	1715470336	35	4102
2026-01-25 14:03:35.90	141.57	42.37	-34.2	-35.1	22.9	0.00e+00	0	41	0	1744830464	37	4292
2026-01-25 14:03:39.88	140.96	43.46	-34.1	-34.9	23.0	0.00e+00	0	41	0	1773142016	38	4000
2026-01-25 14:03:43.86	140.32	44.58	-33.9	-34.8	23.2	0.00e+00	0	41	0	1801453568	38	3930
2026-01-25 14:03:47.86	139.62	45.72	-34.4	-35.2	22.8	0.00e+00	0	41	0	1830813696	38	4142
2026-01-25 14:03:51.98	138.84	46.94	-34.6	-35.5	22.5	0.00e+00	0	41	0	1861222400	39	4022
2026-01-25 14:03:55.98	138.02	48.14	-34.5	-35.3	22.7	0.00e+00	0	41	0	1889533952	39	3935
2026-01-25 14:03:59.89	137.16	49.35	-35.1	-36.0	22.1	0.00e+00	0	41	0	1917845504	39	4269
2026-01-25 14:04:04.03	136.17	50.65	-34.7	-35.5	22.4	0.00e+00	0	41	0	1947205632	40	3824
2026-01-25 14:04:08.29	135.05	52.02	-35.2	-36.1	22.0	0.00e+00	0	41	0	1978662912	40	4067
2026-01-25 14:04:12.30	133.90	53.33	-34.5	-35.3	22.7	0.00e+00	0	41	0	2006974464	39	3942
2026-01-25 14:04:16.28	132.65	54.66	-35.4	-36.3	21.8	0.00e+00	0	41	0	2036334592	40	4157
2026-01-25 14:04:20.26	131.27	56.00	-35.3	-36.3	21.7	0.00e+00	0	41	0	2064646144	41	3923
2026-01-25 14:04:24.24	129.75	57.36	-35.1	-36.0	22.1	0.00e+00	0	42	0	2094006272	39	4250
2026-01-25 14:04:28.44	127.97	58.80	-34.8	-35.7	22.3	0.00e+00	0	41	0	2123366400	39	4107
2026-01-25 14:04:32.48	126.07	60.20	-34.6	-35.5	22.5	0.00e+00	0	41	0	2152726528	39	4027
2026-01-25 14:04:36.51	123.95	61.59	-34.3	-35.2	22.9	0.00e+00	0	41	0	2182086656	39	3880
2026-01-25 14:04:40.49	121.60	62.96	-34.2	-35.1	22.9	0.00e+00	0	41	0	2210398208	38	4071
2026-01-25 14:04:44.50	118.96	64.31	-34.4	-35.2	22.8	0.00e+00	0	41	0	2239758336	38	4132
2026-01-25 14:04:48.50	115.99	65.63	-33.4	-34.2	23.7	0.00e+00	0	41	0	2268069888	37	3890
2026-01-25 14:04:52.57	112.59	66.93	-33.6	-34.4	23.5	0.00e+00	0	41	0	2298478592	37	3990
2026-01-25 14:04:56.60	108.79	68.15	-33.8	-34.7	23.3	0.00e+00	0	41	0	2326790144	37	4100
2026-01-25 14:05:00.58	104.57	69.27	-33.5	-34.4	23.5	0.00e+00	0	41	0	2356150272	37	3967
2026-01-25 14:05:04.56	99.86	70.29	-33.7	-34.5	23.4	0.00e+00	0	41	0	2384461824	37	4041
2026-01-25 14:05:08.78	94.30	71.23	-33.6	-34.4	23.6	0.00e+00	0	41	0	2414870528	37	3976
2026-01-25 14:05:12.76	88.55	71.95	-33.7	-34.6	23.4	0.00e+00	0	41	0	2443182080	37	4061
2026-01-25 14:05:16.74	82.36	72.49	-33.7	-34.5	23.4	0.00e+00	0	41	0	2472542208	37	4038
2026-01-25 14:05:20.88	75.56	72.83	-33.5	-34.3	23.6	0.00e+00	0	41	0	2502950912	37	3949
2026-01-25 14:05:25.15	68.36	72.93	-33.5	-34.4	23.6	0.00e+00	0	41	0	2533359616	37	3962
2026-01-25 14:05:29.63	60.84	72.76	-33.7	-34.5	23.4	0.00e+00	0	42	0	2565865472	37	4028
2026-01-25 14:05:33.82	54.05	72.36	-34.1	-35.0	23.0	0.00e+00	0	41	0	2595225600	37	4259
2026-01-25 14:05:37.84	47.91	71.76	-33.7	-34.5	23.4	0.00e+00	0	41	0	2624585728	37	4016
2026-01-25 14:05:41.84	42.27	70.98	-34.2	-35.1	23.0	0.00e+00	0	42	0	2653945856	38	4055
2026-01-25 14:05:45.86	37.13	70.06	-33.7	-34.6	23.4	0.00e+00	0	41	0	2682257408	38	3825
2026-01-25 14:05:49.88	32.50	69.00	-33.7	-34.5	23.4	0.00e+00	0	42	0	2711617536	37	4025
2026-01-25 14:05:53.87	28.40	67.85	-33.7	-34.5	23.4	0.00e+00	0	42	0	2739929088	37	4031
2026-01-25 14:05:58.02	24.61	66.58	-33.6	-34.4	23.5	0.00e+00	0	41	0	2770337792	37	3988
2026-01-25 14:06:02.14	21.29	65.25	-34.1	-34.9	23.1	0.00e+00	0	41	0	2800746496	37	4226
2026-01-25 14:06:06.22	18.37	63.90	-34.2	-35.1	23.0	0.00e+00	0	41	0	2830106624	37	4295
2026-01-25 14:06:10.27	15.80	62.52	-34.9	-35.7	22.4	0.00e+00	0	41	0	2859466752	39	4138
2026-01-25 14:06:14.28	13.53	61.15	-35.2	-36.0	22.1	0.00e+00	0	41	0	2887778304	39	4288
2026-01-25 14:06:18.26	11.52	59.78	-35.2	-36.1	22.1	0.00e+00	0	42	0	2916089856	39	4304
2026-01-25 14:06:22.22	9.71	58.41	-34.7	-35.6	22.5	0.00e+00	0	41	0	2945449984	40	3827
2026-01-25 14:06:26.20	8.08	57.05	-35.3	-36.2	21.8	0.00e+00	0	41	0	2973761536	40	4118
2026-01-25 14:06:30.18	6.60	55.70	-34.5	-35.3	22.7	0.00e+00	0	41	0	3003121664	39	3939
2026-01-25 14:06:34.16	5.25	54.36	-34.5	-35.3	22.7	0.00e+00	0	41	0	3031433216	39	3946
2026-01-25 14:06:38.14	4.03	53.05	-34.9	-35.8	22.2	0.00e+00	0	41	0	3059744768	39	4182
2026-01-25 14:06:42.12	2.91	51.75	-35.0	-35.9	22.1	0.00e+00	0	41	0	3089104896	39	4207
2026-01-25 14:06:46.10	1.89	50.48	-35.2	-36.1	21.9	0.00e+00	0	41	0	3117416448	40	4067
2026-01-25 14:06:50.08	0.95	49.24	-34.6	-35.4	22.5	0.00e+00	0	41	0	3146776576	40	3770
2026-01-25 14:06:54.53	359.98	47.88	-34.1	-35.0	23.0	0.00e+00	0	41	0	3178233856	39	3789
2026-01-25 14:06:58.52	359.19	46.69	-34.3	-35.1	22.8	0.00e+00	0	42	0	3206545408	38	4086
2026-01-25 14:07:02.49	358.46	45.53	-33.8	-34.6	23.3	0.00e+00	0	41	0	3235905536	38	3848
2026-01-25 14:07:06.48	357.77	44.39	-34.0	-34.8	23.2	0.00e+00	0	41	0	3265265664	38	3942
2026-01-25 14:07:10.45	357.14	43.29	-33.6	-34.4	23.5	0.00e+00	0	41	0	3293577216	37	3981
2026-01-25 14:07:14.43	356.54	42.22	-33.7	-34.5	23.4	0.00e+00	0	42	0	3321888768	37	4017
2026-01-25 14:07:18.78	355.94	41.07	-34.0	-34.9	23.1	0.00e+00	0	41	0	3353346048	37	4206
2026-01-25 14:07:22.78	355.42	40.04	-34.0	-34.8	23.1	0.00e+00	0	41	0	3382706176	37	4187
2026-01-25 14:07:26.76	354.94	39.05	-33.7	-34.5	23.3	0.00e+00	0	41	0	3411017728	37	4042
2026-01-25 14:07:30.70	354.49	38.09	-33.4	-34.2	23.5	0.00e+00	0	41	0	3439329280	37	3894
2026-01-25 14:07:34.68	354.06	37.15	-33.3	-34.1	23.7	0.00e+00	0	41	0	3468689408	37	3868
2026-01-25 14:07:38.66	353.66	36.23	-33.3	-34.2	23.7	0.00e+00	0	41	0	3497000960	37	3869
2026-01-25 14:07:42.64	353.28	35.33	-33.0	-33.8	24.0	0.00e+00	0	41	0	3525312512	36	3925
2026-01-25 14:07:46.85	352.89	34.41	-33.0	-33.9	23.9	0.00e+00	0	41	0	3555721216	36	3966
2026-01-25 14:07:50.83	352.55	33.56	-33.1	-34.0	23.5	0.00e+00	0	41	0	3585081344	36	4016
2026-01-25 14:07:54.81	352.23	32.74	-33.1	-33.9	23.8	0.00e+00	0	41	0	3613392896	36	3979
2026-01-25 14:07:58.79	351.93	31.93	-33.2	-34.1	23.7	0.00e+00	0	41	0	3642753024	36	4059
2026-01-25 14:08:02.79	351.64	31.15	-33.5	-34.3	23.5	0.00e+00	0	41	0	3671064576	36	4168
2026-01-25 14:08:06.77	351.36	30.38	-33.4	-34.3	23.5	0.00e+00	0	42	0	3700424704	36	4156
2026-01-25 14:08:10.75	351.10	29.64	-33.3	-34.1	23.7	0.00e+00	0	41	0	3728736256	36	4097
2026-01-25 14:08:14.73	350.85	28.91	-33.3	-34.1	23.6	0.00e+00	0	41	0	3757047808	36	4097
2026-01-25 14:08:18.71	350.61	28.20	-33.6	-34.5	23.3	0.00e+00	0	42	0	3786407936	36	4243
2026-01-25 14:08:22.72	350.38	27.50	-33.8	-34.7	23.1	0.00e+00	0	42	0	3814719488	37	4104
2026-01-25 14:08:26.71	350.16	26.83	-33.9	-34.8	23.1	0.00e+00	0	41	0	3844079616	37	4162
2026-01-25 14:08:30.71	349.95	26.16	-33.8	-34.6	23.2	0.00e+00	0	41	0	3872391168	37	4080
2026-01-25 14:08:34.95	349.74	25.48	-33.6	-34.4	23.3	0.00e+00	0	42	0	3902799872	37	3995
2026-01-25 14:08:39.00	349.55	24.84	-33.8	-34.6	23.2	0.00e+00	0	42	0	3932160000	37	4073
2026-01-25 14:08:43.02	349.36	24.22	-33.8	-34.7	22.9	0.00e+00	0	41	0	3961520128	37	4123
2026-01-25 14:08:47.02	349.19	23.62	-34.1	-35.0	22.9	0.00e+00	0	41	0	3989831680	37	4248
2026-01-25 14:08:51.01	349.02	23.03	-34.1	-35.0	22.8	0.00e+00	0	41	0	4019191808	37	4252
2026-01-25 14:08:55.01	348.86	22.46	-34.2	-35.0	22.6	0.00e+00	0	42	0	4047503360	38	4036
2026-01-25 14:08:59.01	348.70	21.89	-34.2	-35.1	22.7	0.00e+00	0	41	0	4076863488	38	4055
2026-01-25 14:09:03.03	348.55	21.34	-34.1	-35.0	22.9	0.00e+00	0	41	0	4106223616	38	4011
2026-01-25 14:09:07.01	348.41	20.80	-34.1	-35.0	22.9	0.00e+00	0	42	0	4134535168	38	4021
2026-01-25 14:09:11.01	348.27	20.27	-34.2	-35.1	22.7	0.00e+00	0	42	0	4163895296	38	4067
2026-01-25 14:09:14.99	348.14	19.76	-34.3	-35.2	22.6	0.00e+00	0	41	0	4192206848	38	4120
2026-01-25 14:09:18.97	348.01	19.25	-34.4	-35.3	22.5	0.00e+00	0	41	0	4220518400	38	4163
2026-01-25 14:09:22.96	347.89	18.76	-34.6	-35.5	22.3	0.00e+00	0	41	0	4249878528	38	4251
2026-01-25 14:09:26.97	347.77	18.27	-34.8	-35.6	22.2	0.00e+00	0	42	0	4278190080	39	4096
2026-01-25 14:09:30.99	347.65	17.79	-34.8	-35.8	22.0	0.00e+00	0	42	0	4307550208	39	4163
2026-01-25 14:09:35.09	347.54	17.31	-34.9	-35.8	22.0	0.00e+00	0	42	0	4336910336	39	4181
2026-01-25 14:09:39.07	347.43	16.85	-35.0	-35.9	21.9	0.00e+00	0	42	0	4366270464	39	4219
2026-01-25 14:09:43.05	347.33	16.40	-35.3	-36.2	21.6	0.00e+00	0	41	0	4394582016	39	4359
2026-01-25 14:09:47.03	347.23	15.96	-35.1	-36.1	21.6	0.00e+00	0	42	0	4423942144	40	4069
2026-01-25 14:09:51.15	347.13	15.51	-35.3	-36.3	21.5	0.00e+00	0	41	0	4453302272	40	4149
2026-01-25 14:09:55.13	347.04	15.08	-35.5	-36.5	21.3	0.00e+00	0	41	0	4482662400	40	4266
2026-01-25 14:09:59.11	346.95	14.66	-35.6	-36.6	21.1	0.00e+00	0	42	0	4510973952	40	4338
2026-01-25 14:10:03.13	346.86	14.25	-35.7	-36.7	21.0	0.00e+00	0	42	0	4540334080	41	4124
2026-01-25 14:10:07.35	346.77	13.82	-35.8	-36.9	20.8	0.00e+00	0	42	0	4569694208	41	4214
2026-01-25 14:10:11.79	346.68	13.38	-35.9	-37.0	20.7	0.00e+00	0	41	0	4602200064	41	4281
2026-01-25 14:10:15.76	346.61	12.99	-36.1	-37.2	20.5	0.00e+00	0	41	0	4630511616	41	4353
2026-01-25 14:10:19.77	346.53	12.60	-36.1	-37.2	20.4	0.00e+00	0	42	0	4659871744	41	4375
2026-01-25 14:10:23.78	346.45	12.22	-36.4	-37.4	20.3	0.00e+00	0	41	0	4689231872	42	4220
2026-01-25 14:10:27.78	346.38	11.84	-36.4	-37.4	20.1	0.00e+00	0	42	0	4717543424	42	4241
2026-01-25 14:10:31.76	346.31	11.47	-36.3	-37.5	20.2	0.00e+00	0	42	0	4745854976	42	4283
2026-01-25 14:10:35.75	346.25	11.11	-36.3	-37.5	20.1	0.00e+00	0	41	0	4775215104	42	4288
2026-01-25 14:10:39.73	346.18	10.75	-36.4	-37.7	20.0	0.00e+00	0	42	0	4804575232	42	4342
2026-01-25 14:10:43.71	346.12	10.40	-36.5	-37.8	19.8	0.00e+00	0	42	0	4832886784	42	4432
2026-01-25 14:10:47.71	346.06	10.05	-36.5	-38.0	19.7	0.00e+00	0	41	0	4861198336	42	4498
2026-01-25 14:10:51.73	346.00	9.71	-36.3	-37.9	19.8	0.00e+00	0	42	0	4890558464	42	4447
2026-01-25 14:10:55.84	345.94	9.36	-36.2	-37.9	19.6	0.00e+00	0	42	0	4919918592	42	4492
2026-01-25 14:10:59.85	345.88	9.03	-36.2	-38.0	19.6	0.00e+00	0	42	0	4949278720	42	4524
2026-01-25 14:11:03.84	345.83	8.70	-48.4	-59.4	3.8	8.47e-01	0	42	104	4957667328	66	13272
2026-01-25 14:11:07.83	345.78	8.37	-48.8	-59.9	3.8	8.47e-01	0	42	104	4957667328	67	13262
2026-01-25 14:11:11.82	345.72	8.05	-48.5	-59.9	3.8	8.47e-01	0	42	104	4957667328	67	13342
2026-01-25 14:11:15.79	345.68	7.74	-48.8	-59.9	3.8	8.48e-01	0	42	104	4957667328	67	13395
2026-01-25 14:11:19.78	345.63	7.42	-49.1	-60.0	3.8	8.47e-01	0	42	104	4957667328	67	13444
2026-01-25 14:11:23.77	345.58	7.11	-49.0	-59.9	3.8	8.46e-01	0	42	104	4957667328	67	13385
2026-01-25 14:11:27.75	345.53	6.81	-49.0	-59.9	3.8	8.47e-01	0	42	104	4957667328	67	13384
2026-01-25 14:11:31.79	345.49	6.50	-48.9	-59.9	3.8	8.46e-01	0	42	104	4957667328	67	13284
2026-01-25 14:11:35.78	345.45	6.21	-48.9	-59.9	3.8	8.47e-01	0	42	104	4957667328	67	13345
2026-01-25 14:11:39.77	345.41	5.91	-48.9	-59.8	3.8	8.47e-01	0	42	104	4957667328	67	13242
2026-01-25 14:11:43.74	345.36	5.62	-48.9	-59.9	3.8	8.47e-01	0	42	104	4957667328	67	13282
2026-01-25 14:11:47.71	345.33	5.33	-48.8	-59.8	3.8	8.47e-01	0	42	104	4957667328	67	13187
2026-01-25 14:11:51.75	345.29	5.04	-48.8	-59.8	3.8	8.48e-01	0	42	104	4957667328	67	13202

#Closed at: 2026-01-25 14:11:53
#Recorded file [4957 MB]: D:/Data/31040_260125_165859.dat