passes_logs/2026/01/25/T1/T1__20260125_121600_FENGYUN_3D_rec.log

#Pass ID: 20260125_121600_FENGYUN 3D
#Satellite: FENGYUN 3D
#Configuration: FENGYUN 3D
#almurnet v.1.7.20251203
#Start time: 2026-01-25 12:16:00

#Version: 2.0.20230620
#Station: T1
#Location: 37.570604 lon 55.790049 lat
#TLE: 1 43010U 17072A   26024.51794477  .00000040  00000+0  40682-4 0  9990
#TLE: 2 43010  98.9961 356.4820 0002494  91.2631 268.8830 14.19699550424601

#Time	Az	El	Level	Level2	SNR	BER	BlckErr	Temp	State	Recorded	gain1	gain2
2026-01-25 12:16:00.24	168.71	5.02	-47.9	-60.2	3.8	8.47e-01	0	35	0	0	67	14853
2026-01-25 12:16:04.21	168.78	5.30	-44.1	-58.5	3.8	8.47e-01	0	35	104	0	59	19175
2026-01-25 12:16:08.19	168.85	5.59	-44.1	-58.7	3.8	8.46e-01	0	36	104	0	59	19660
2026-01-25 12:16:12.16	168.92	5.88	-44.1	-58.5	3.8	8.47e-01	0	36	104	0	59	19230
2026-01-25 12:16:16.13	169.00	6.18	-44.0	-57.8	3.8	8.46e-01	0	36	104	0	59	17687
2026-01-25 12:16:20.10	169.07	6.48	-44.0	-58.0	3.8	8.46e-01	0	36	104	0	59	18272
2026-01-25 12:16:24.07	169.14	6.78	-44.2	-59.6	3.8	8.46e-01	0	36	104	0	59	21865
2026-01-25 12:16:28.04	169.22	7.08	-44.2	-59.6	3.8	8.48e-01	0	36	104	0	59	21768
2026-01-25 12:16:32.02	169.30	7.39	-44.1	-56.7	3.9	8.44e-01	0	36	104	0	59	15627
2026-01-25 12:16:35.99	169.38	7.70	-43.3	-51.0	7.6	1.59e-01	0	36	0	8388608	58	8648
2026-01-25 12:16:39.96	169.46	8.02	-41.5	-46.6	11.9	8.30e-04	0	36	0	31457280	55	6192
2026-01-25 12:16:43.94	169.54	8.34	-41.2	-45.6	9.3	3.77e-05	0	37	0	53477376	54	5819
2026-01-25 12:16:47.91	169.63	8.67	-42.2	-48.1	10.5	2.77e-03	0	37	0	75497472	54	7720
2026-01-25 12:16:51.88	169.71	8.99	-43.8	-55.3	4.6	7.81e-01	0	37	0	94371840	58	14082
2026-01-25 12:16:55.86	169.80	9.33	-43.9	-52.7	6.2	7.19e-01	0	37	104	106954752	59	9855
2026-01-25 12:16:59.81	169.89	9.66	-37.3	-39.7	18.7	0.00e+00	0	37	0	128974848	46	4685
2026-01-25 12:17:03.78	169.98	10.01	-36.9	-39.2	19.2	0.00e+00	0	37	0	150994944	45	4657
2026-01-25 12:17:07.76	170.07	10.35	-36.9	-39.1	19.2	0.00e+00	0	37	0	173015040	45	4642
2026-01-25 12:17:11.74	170.17	10.71	-36.9	-39.2	19.2	0.00e+00	0	37	0	195035136	45	4655
2026-01-25 12:17:15.81	170.26	11.07	-37.0	-39.2	19.2	4.50e-06	0	37	0	218103808	45	4674
2026-01-25 12:17:19.83	170.36	11.44	-36.9	-39.0	19.4	0.00e+00	0	37	0	241172480	45	4578
2026-01-25 12:17:24.06	170.47	11.83	-37.0	-39.0	19.4	0.00e+00	0	37	0	265289728	45	4564
2026-01-25 12:17:28.07	170.58	12.21	-36.9	-38.8	19.5	0.00e+00	0	37	0	287309824	45	4488
2026-01-25 12:17:32.05	170.68	12.59	-36.7	-38.6	19.8	0.00e+00	0	37	0	310378496	45	4363
2026-01-25 12:17:36.06	170.79	12.98	-36.4	-38.3	20.0	0.00e+00	0	37	0	332398592	44	4492
2026-01-25 12:17:40.25	170.91	13.39	-36.4	-38.3	20.0	0.00e+00	0	37	0	356515840	44	4475
2026-01-25 12:17:44.24	171.02	13.79	-36.2	-38.1	20.2	0.00e+00	0	37	0	378535936	44	4359
2026-01-25 12:17:48.26	171.14	14.20	-36.0	-37.9	20.4	0.00e+00	0	37	0	401604608	44	4279
2026-01-25 12:17:52.65	171.28	14.66	-35.8	-37.6	20.6	0.00e+00	0	37	0	425721856	43	4386
2026-01-25 12:17:56.85	171.41	15.11	-35.5	-37.4	20.8	0.00e+00	0	38	0	449839104	43	4257
2026-01-25 12:18:01.08	171.54	15.56	-35.4	-37.3	20.9	0.00e+00	0	37	0	472907776	42	4451
2026-01-25 12:18:05.09	171.67	16.00	-35.2	-37.1	21.1	0.00e+00	0	38	0	495976448	42	4343
2026-01-25 12:18:09.10	171.81	16.45	-35.2	-37.1	21.1	0.00e+00	0	38	0	517996544	42	4354
2026-01-25 12:18:13.14	171.95	16.91	-35.1	-36.9	21.1	0.00e+00	0	37	0	541065216	42	4267
2026-01-25 12:18:17.17	172.09	17.38	-35.0	-36.8	21.3	0.00e+00	0	37	0	564133888	42	4219
2026-01-25 12:18:21.19	172.24	17.85	-34.8	-36.7	21.5	0.00e+00	0	38	0	586153984	41	4392
2026-01-25 12:18:25.25	172.39	18.34	-34.7	-36.5	21.6	0.00e+00	0	38	0	609222656	41	4312
2026-01-25 12:18:29.23	172.55	18.83	-34.7	-36.4	21.6	0.00e+00	0	37	0	631242752	41	4291
2026-01-25 12:18:33.22	172.71	19.33	-34.5	-36.3	21.7	0.00e+00	0	37	0	654311424	41	4214
2026-01-25 12:18:37.20	172.87	19.84	-34.3	-36.0	22.0	0.00e+00	0	38	0	676331520	40	4328
2026-01-25 12:18:41.27	173.04	20.37	-34.1	-35.8	22.2	0.00e+00	0	38	0	699400192	40	4219
2026-01-25 12:18:45.47	173.23	20.93	-34.2	-35.9	22.1	0.00e+00	0	38	0	722468864	40	4284
2026-01-25 12:18:49.47	173.41	21.47	-34.2	-35.9	22.1	0.00e+00	0	38	0	745537536	40	4286
2026-01-25 12:18:53.46	173.60	22.03	-34.2	-36.0	22.0	0.00e+00	0	38	0	767557632	40	4319
2026-01-25 12:18:57.46	173.79	22.60	-34.1	-35.9	22.1	0.00e+00	0	38	0	790626304	40	4263
2026-01-25 12:19:01.65	174.00	23.20	-33.9	-35.6	22.4	0.00e+00	0	38	0	813694976	39	4369
2026-01-25 12:19:05.63	174.21	23.80	-33.6	-35.3	22.6	0.00e+00	0	38	0	836763648	39	4235
2026-01-25 12:19:09.69	174.43	24.41	-33.7	-35.4	22.6	0.00e+00	0	38	0	858783744	39	4288
2026-01-25 12:19:13.85	174.66	25.06	-33.6	-35.3	22.7	0.00e+00	0	38	0	882900992	39	4226
2026-01-25 12:19:17.94	174.90	25.71	-33.7	-35.4	22.6	0.00e+00	0	38	0	905969664	39	4274
2026-01-25 12:19:21.95	175.15	26.37	-33.9	-35.7	22.4	0.00e+00	0	38	0	927989760	39	4406
2026-01-25 12:19:25.93	175.40	27.03	-33.6	-35.3	22.7	0.00e+00	0	38	0	951058432	39	4223
2026-01-25 12:19:30.00	175.67	27.73	-33.6	-35.3	22.8	0.00e+00	0	38	0	973078528	38	4459
2026-01-25 12:19:34.11	175.95	28.45	-33.5	-35.2	22.9	0.00e+00	0	38	0	996147200	38	4406
2026-01-25 12:19:38.21	176.24	29.19	-33.7	-35.4	22.6	0.00e+00	0	38	0	1019215872	38	4540
2026-01-25 12:19:42.21	176.54	29.93	-33.8	-35.6	22.4	0.00e+00	0	38	0	1042284544	38	4625
2026-01-25 12:19:46.18	176.85	30.68	-33.5	-35.3	22.7	0.00e+00	0	38	0	1064304640	38	4456
2026-01-25 12:19:50.16	177.18	31.46	-33.1	-34.8	23.1	0.00e+00	0	38	0	1086324736	38	4203
2026-01-25 12:19:54.15	177.52	32.25	-33.0	-34.7	23.1	0.00e+00	0	38	0	1109393408	37	4441
2026-01-25 12:19:58.14	177.88	33.07	-33.5	-35.2	22.7	0.00e+00	0	38	0	1131413504	37	4692
2026-01-25 12:20:02.18	178.26	33.92	-33.1	-34.8	23.1	0.00e+00	0	38	0	1154482176	37	4463
2026-01-25 12:20:06.34	178.68	34.81	-32.7	-34.4	23.5	0.00e+00	0	38	0	1177550848	37	4268
2026-01-25 12:20:10.40	179.10	35.71	-33.1	-34.8	23.1	0.00e+00	0	37	0	1200619520	37	4474
2026-01-25 12:20:14.38	179.54	36.62	-33.1	-34.8	23.2	0.00e+00	0	38	0	1223688192	37	4458
2026-01-25 12:20:18.36	180.01	37.54	-32.6	-34.3	23.6	0.00e+00	0	38	0	1245708288	37	4223
2026-01-25 12:20:22.34	180.50	38.50	-32.7	-34.4	23.5	0.00e+00	0	38	0	1267728384	37	4271
2026-01-25 12:20:26.31	181.02	39.47	-33.1	-34.8	23.2	0.00e+00	0	38	0	1289748480	37	4472
2026-01-25 12:20:30.29	181.57	40.47	-33.3	-35.1	23.0	0.00e+00	0	38	0	1312817152	37	4599
2026-01-25 12:20:34.26	182.16	41.50	-33.2	-34.9	23.2	0.00e+00	0	38	0	1334837248	37	4506
2026-01-25 12:20:38.24	182.78	42.56	-33.5	-35.3	22.8	0.00e+00	0	38	0	1357905920	37	4718
2026-01-25 12:20:42.29	183.46	43.66	-33.7	-35.5	22.7	0.00e+00	0	38	0	1379926016	38	4557
2026-01-25 12:20:46.33	184.19	44.78	-34.0	-35.7	22.5	0.00e+00	0	38	0	1402994688	38	4681
2026-01-25 12:20:50.39	184.97	45.94	-34.1	-35.8	22.6	0.00e+00	0	37	0	1426063360	39	4446
2026-01-25 12:20:54.67	185.86	47.20	-33.5	-35.2	23.1	0.00e+00	0	38	0	1449132032	38	4405
2026-01-25 12:20:58.91	186.81	48.47	-33.7	-35.4	22.8	0.00e+00	0	38	0	1473249280	38	4539
2026-01-25 12:21:03.09	187.83	49.75	-33.9	-35.7	22.7	0.00e+00	0	38	0	1497366528	38	4655
2026-01-25 12:21:07.09	188.89	51.00	-34.2	-35.9	22.5	0.00e+00	0	38	0	1519386624	38	4769
2026-01-25 12:21:11.01	190.02	52.25	-34.5	-36.2	22.2	0.00e+00	0	38	0	1541406720	39	4697
2026-01-25 12:21:14.99	191.27	53.54	-34.0	-35.7	22.6	0.00e+00	0	38	0	1564475392	40	4165
2026-01-25 12:21:18.98	192.63	54.85	-34.7	-36.5	21.8	0.00e+00	0	38	0	1586495488	40	4575
2026-01-25 12:21:22.95	194.12	56.16	-34.2	-35.9	22.4	0.00e+00	0	38	0	1608515584	40	4265
2026-01-25 12:21:26.96	195.77	57.51	-34.7	-36.4	21.9	0.00e+00	0	38	0	1631584256	40	4542
2026-01-25 12:21:30.93	197.57	58.85	-34.6	-36.3	22.0	0.00e+00	0	38	0	1653604352	40	4490
2026-01-25 12:21:34.91	199.57	60.19	-33.7	-35.4	23.0	0.00e+00	0	38	0	1675624448	39	4250
2026-01-25 12:21:38.89	201.79	61.52	-33.1	-34.8	23.5	0.00e+00	0	38	0	1698693120	38	4199
2026-01-25 12:21:42.87	204.25	62.85	-33.0	-34.7	23.4	0.00e+00	0	38	0	1720713216	38	4157
2026-01-25 12:21:47.02	207.13	64.20	-32.7	-34.3	23.7	0.00e+00	0	38	0	1744830464	37	4229
2026-01-25 12:21:51.10	210.30	65.49	-32.7	-34.3	23.6	0.00e+00	0	38	0	1766850560	37	4228
2026-01-25 12:21:55.08	213.75	66.70	-32.7	-34.3	23.7	0.00e+00	0	38	0	1789919232	37	4233
2026-01-25 12:21:58.99	217.54	67.81	-32.8	-34.5	23.5	0.00e+00	0	38	0	1811939328	36	4580
2026-01-25 12:22:02.97	221.82	68.86	-32.5	-34.2	23.8	0.00e+00	0	38	0	1833959424	36	4399
2026-01-25 12:22:06.95	226.56	69.80	-32.1	-33.8	24.1	0.00e+00	0	38	0	1855979520	36	4208
2026-01-25 12:22:10.92	231.75	70.61	-31.8	-33.5	23.4	0.00e+00	0	38	0	1879048192	34	4577
2026-01-25 12:22:14.90	237.38	71.26	-31.4	-33.1	23.7	0.00e+00	0	38	0	1901068288	34	4366
2026-01-25 12:22:18.94	243.47	71.74	-31.3	-33.0	23.8	0.00e+00	0	38	0	1924136960	34	4324
2026-01-25 12:22:22.86	249.64	72.01	-31.1	-32.8	23.9	0.00e+00	0	38	0	1946157056	34	4230
2026-01-25 12:22:26.84	256.03	72.08	-31.4	-33.1	23.7	0.00e+00	0	38	0	1968177152	33	4632
2026-01-25 12:22:30.82	262.40	71.94	-31.3	-33.1	23.7	0.00e+00	0	38	0	1990197248	33	4602
2026-01-25 12:22:34.79	268.57	71.60	-30.9	-32.6	24.1	0.00e+00	0	38	0	2013265920	33	4352
2026-01-25 12:22:38.78	274.47	71.06	-31.3	-33.0	23.9	0.00e+00	0	38	0	2035286016	33	4566
2026-01-25 12:22:42.75	279.94	70.36	-31.5	-33.2	23.7	0.00e+00	0	38	0	2057306112	34	4412
2026-01-25 12:22:46.78	285.04	69.49	-31.4	-33.1	23.8	0.00e+00	0	38	0	2080374784	34	4360
2026-01-25 12:22:50.76	289.62	68.51	-32.0	-33.7	23.3	0.00e+00	0	38	0	2102394880	34	4700
2026-01-25 12:22:54.76	293.76	67.42	-31.7	-33.3	23.5	0.00e+00	0	38	0	2125463552	34	4492
2026-01-25 12:22:58.77	297.49	66.25	-31.9	-33.6	23.4	0.00e+00	0	38	0	2147483648	34	4600
2026-01-25 12:23:02.86	300.89	64.99	-32.2	-33.9	23.3	0.00e+00	0	38	0	2170552320	35	4504
2026-01-25 12:23:06.92	303.90	63.70	-32.0	-33.7	23.4	0.00e+00	0	38	0	2193620992	35	4396
2026-01-25 12:23:10.93	306.56	62.38	-32.1	-33.8	23.2	0.00e+00	0	38	0	2216689664	35	4448
2026-01-25 12:23:15.03	308.99	61.02	-32.6	-34.4	22.9	0.00e+00	0	38	0	2239758336	35	4773
2026-01-25 12:23:19.46	311.35	59.53	-33.6	-35.3	22.9	0.00e+00	0	38	0	2263875584	37	4749
2026-01-25 12:23:23.44	313.24	58.19	-33.5	-35.2	23.0	0.00e+00	0	38	0	2286944256	38	4436
2026-01-25 12:23:27.42	314.96	56.86	-33.7	-35.4	22.9	0.00e+00	0	38	0	2308964352	38	4533
2026-01-25 12:23:31.40	316.52	55.54	-34.4	-36.2	22.2	0.00e+00	0	38	0	2330984448	39	4683
2026-01-25 12:23:35.38	317.94	54.23	-34.1	-35.9	22.4	0.00e+00	0	38	0	2354053120	39	4522
2026-01-25 12:23:39.66	319.34	52.84	-34.0	-35.6	23.2	0.00e+00	0	38	0	2378170368	39	4384
2026-01-25 12:23:43.65	320.52	51.56	-34.1	-35.8	23.0	0.00e+00	0	38	0	2400190464	39	4465
2026-01-25 12:23:47.65	321.62	50.31	-33.8	-35.5	23.3	0.00e+00	0	38	0	2423259136	39	4292
2026-01-25 12:23:51.63	322.62	49.08	-33.1	-34.7	23.9	0.00e+00	0	38	0	2445279232	38	4188
2026-01-25 12:23:55.61	323.55	47.88	-33.6	-35.2	23.6	0.00e+00	0	38	0	2467299328	38	4413
2026-01-25 12:23:59.58	324.41	46.71	-33.5	-35.1	23.6	0.00e+00	0	38	0	2490368000	38	4370
2026-01-25 12:24:03.58	325.22	45.55	-33.3	-35.0	23.8	0.00e+00	0	38	0	2512388096	38	4293
2026-01-25 12:24:07.55	325.96	44.43	-33.2	-34.8	23.8	0.00e+00	0	38	0	2534408192	38	4224
2026-01-25 12:24:11.54	326.66	43.34	-33.2	-34.8	23.8	0.00e+00	0	38	0	2557476864	38	4230
2026-01-25 12:24:15.52	327.31	42.27	-32.7	-34.3	24.2	0.00e+00	0	38	0	2579496960	37	4227
2026-01-25 12:24:19.50	327.93	41.23	-33.0	-34.6	24.0	0.00e+00	0	38	0	2601517056	37	4361
2026-01-25 12:24:23.48	328.50	40.21	-32.8	-34.4	24.2	0.00e+00	0	38	0	2624585728	37	4274
2026-01-25 12:24:27.51	329.05	39.21	-33.0	-34.7	24.0	0.00e+00	0	38	0	2646605824	37	4395
2026-01-25 12:24:31.60	329.58	38.22	-32.9	-34.5	24.0	0.00e+00	0	38	0	2669674496	37	4334
2026-01-25 12:24:35.58	330.06	37.28	-32.7	-34.4	24.2	0.00e+00	0	38	0	2692743168	37	4244
2026-01-25 12:24:39.55	330.51	36.36	-32.9	-34.6	24.0	0.00e+00	0	38	0	2714763264	37	4348
2026-01-25 12:24:43.53	330.95	35.47	-32.9	-34.4	24.1	0.00e+00	0	38	0	2736783360	37	4291
2026-01-25 12:24:47.56	331.36	34.59	-32.9	-34.5	24.1	0.00e+00	0	38	0	2759852032	37	4315
2026-01-25 12:24:51.54	331.75	33.75	-33.2	-34.9	23.8	0.00e+00	0	38	0	2781872128	37	4508
2026-01-25 12:24:55.52	332.12	32.92	-33.1	-34.8	23.8	0.00e+00	0	38	0	2804940800	37	4472
2026-01-25 12:24:59.50	332.48	32.12	-32.9	-34.5	24.0	0.00e+00	0	38	0	2826960896	37	4328
2026-01-25 12:25:03.59	332.83	31.31	-32.8	-34.4	24.1	0.00e+00	0	38	0	2850029568	37	4281
2026-01-25 12:25:07.57	333.15	30.55	-33.1	-34.8	23.8	0.00e+00	0	38	0	2872049664	37	4443
2026-01-25 12:25:11.55	333.46	29.80	-33.2	-34.8	23.8	0.00e+00	0	38	0	2895118336	37	4483
2026-01-25 12:25:15.52	333.75	29.08	-33.0	-34.6	24.0	0.00e+00	0	38	0	2917138432	37	4379
2026-01-25 12:25:19.50	334.03	28.37	-33.1	-34.8	23.8	0.00e+00	0	38	0	2939158528	37	4444
2026-01-25 12:25:23.48	334.31	27.68	-33.4	-35.1	23.5	0.00e+00	0	38	0	2962227200	37	4634
2026-01-25 12:25:27.46	334.57	27.00	-33.4	-35.1	22.1	0.00e+00	0	38	0	2984247296	37	4611
2026-01-25 12:25:31.44	334.82	26.35	-33.3	-34.9	23.6	0.00e+00	0	38	0	3006267392	37	4534
2026-01-25 12:25:35.42	335.06	25.70	-33.3	-34.9	23.7	0.00e+00	0	38	0	3029336064	37	4515
2026-01-25 12:25:39.40	335.29	25.07	-33.3	-35.0	23.6	0.00e+00	0	38	0	3051356160	37	4546
2026-01-25 12:25:43.46	335.52	24.45	-33.6	-35.3	23.3	0.00e+00	0	38	0	3074424832	37	4721
2026-01-25 12:25:47.56	335.74	23.83	-33.9	-35.6	23.1	0.00e+00	0	38	0	3097493504	38	4621
2026-01-25 12:25:51.70	335.96	23.22	-34.1	-35.8	22.9	0.00e+00	0	38	0	3120562176	38	4710
2026-01-25 12:25:55.68	336.16	22.64	-34.1	-35.8	22.9	0.00e+00	0	38	0	3142582272	38	4716
2026-01-25 12:25:59.66	336.36	22.08	-34.1	-35.8	22.9	0.00e+00	0	38	0	3165650944	39	4464
2026-01-25 12:26:03.64	336.55	21.53	-34.2	-35.9	22.7	0.00e+00	0	38	0	3187671040	39	4532
2026-01-25 12:26:07.63	336.73	20.99	-34.4	-36.1	22.5	0.00e+00	0	38	0	3210739712	39	4633
2026-01-25 12:26:11.60	336.91	20.47	-34.5	-36.3	22.4	0.00e+00	0	38	0	3232759808	39	4718
2026-01-25 12:26:15.58	337.08	19.95	-34.5	-36.3	22.3	0.00e+00	0	38	0	3254779904	40	4482
2026-01-25 12:26:19.71	337.25	19.43	-34.7	-36.4	22.2	0.00e+00	0	38	0	3277848576	40	4540
2026-01-25 12:26:23.72	337.41	18.93	-34.9	-36.6	22.1	0.00e+00	0	38	0	3300917248	40	4600
2026-01-25 12:26:27.70	337.57	18.44	-34.9	-36.6	22.0	0.00e+00	0	38	0	3322937344	40	4625
2026-01-25 12:26:31.68	337.72	17.96	-35.1	-36.8	21.8	0.00e+00	0	38	0	3346006016	40	4732
2026-01-25 12:26:35.71	337.87	17.49	-35.1	-36.8	21.8	0.00e+00	0	38	0	3368026112	40	4750
2026-01-25 12:26:39.94	338.03	17.00	-35.2	-36.9	21.7	0.00e+00	0	38	0	3392143360	41	4530
2026-01-25 12:26:43.96	338.17	16.55	-35.4	-37.1	21.5	0.00e+00	0	38	0	3414163456	41	4634
2026-01-25 12:26:47.98	338.31	16.10	-35.4	-37.2	21.3	0.00e+00	0	38	0	3437232128	41	4693
2026-01-25 12:26:52.10	338.44	15.65	-35.5	-37.3	21.3	0.00e+00	0	38	0	3460300800	41	4752
2026-01-25 12:26:56.29	338.58	15.21	-35.6	-37.5	21.2	0.00e+00	0	38	0	3483369472	42	4574
2026-01-25 12:27:00.28	338.71	14.79	-35.8	-37.6	21.0	0.00e+00	0	38	0	3506438144	42	4627
2026-01-25 12:27:04.29	338.83	14.37	-35.9	-37.8	20.9	0.00e+00	0	38	0	3528458240	42	4721
2026-01-25 12:27:08.29	338.95	13.96	-35.9	-37.8	20.8	0.00e+00	0	38	0	3551526912	42	4731
2026-01-25 12:27:12.29	339.07	13.56	-36.0	-37.9	20.7	0.00e+00	0	38	0	3573547008	42	4810
2026-01-25 12:27:16.27	339.18	13.17	-36.0	-38.0	20.7	0.00e+00	0	38	0	3596615680	42	4822
2026-01-25 12:27:20.28	339.30	12.78	-36.2	-38.1	20.6	0.00e+00	0	38	0	3618635776	43	4600
2026-01-25 12:27:24.28	339.41	12.40	-36.3	-38.2	20.4	0.00e+00	0	38	0	3641704448	43	4675
2026-01-25 12:27:28.26	339.52	12.03	-36.4	-38.3	20.3	0.00e+00	0	38	0	3663724544	43	4748
2026-01-25 12:27:32.26	339.62	11.66	-36.4	-38.5	20.2	0.00e+00	0	38	0	3685744640	43	4821
2026-01-25 12:27:36.76	339.74	11.25	-36.5	-38.4	20.2	0.00e+00	0	38	0	3710910464	43	4784
2026-01-25 12:27:40.99	339.85	10.87	-36.9	-38.7	20.0	0.00e+00	0	38	0	3735027712	44	4697
2026-01-25 12:27:44.97	339.94	10.52	-36.9	-38.8	20.0	0.00e+00	0	38	0	3758096384	44	4719
2026-01-25 12:27:48.99	340.04	10.17	-36.9	-38.8	19.9	0.00e+00	0	38	0	3780116480	44	4742
2026-01-25 12:27:53.00	340.14	9.83	-37.1	-39.0	19.7	0.00e+00	0	38	0	3803185152	44	4853
2026-01-25 12:27:56.99	340.23	9.49	-37.2	-39.1	19.6	0.00e+00	0	38	0	3825205248	45	4632
2026-01-25 12:28:00.98	340.32	9.15	-37.2	-39.2	19.5	0.00e+00	0	38	0	3848273920	45	4668
2026-01-25 12:28:04.99	340.41	8.82	-47.7	-60.3	3.8	8.46e-01	0	38	104	3858759680	66	15847
2026-01-25 12:28:09.01	340.50	8.50	-47.0	-60.7	3.8	8.46e-01	0	38	104	3858759680	66	16603
2026-01-25 12:28:13.09	340.59	8.17	-48.4	-60.8	3.8	8.47e-01	0	38	104	3858759680	67	15864
2026-01-25 12:28:17.36	340.68	7.83	-48.7	-61.0	3.8	8.47e-01	0	38	104	3858759680	68	15379
2026-01-25 12:28:21.62	340.77	7.50	-49.0	-61.0	3.8	8.46e-01	0	38	104	3858759680	68	15326
2026-01-25 12:28:25.59	340.85	7.19	-48.9	-61.0	3.8	8.46e-01	0	38	104	3858759680	68	15285
2026-01-25 12:28:29.57	340.93	6.89	-48.6	-61.0	3.8	8.48e-01	0	38	104	3858759680	68	15247
2026-01-25 12:28:33.55	341.01	6.59	-48.6	-61.0	3.8	8.47e-01	0	38	104	3858759680	68	15230
2026-01-25 12:28:37.53	341.09	6.29	-48.6	-61.0	3.8	8.48e-01	0	38	104	3858759680	68	15232
2026-01-25 12:28:41.52	341.17	5.99	-48.6	-61.0	3.8	8.47e-01	0	38	104	3858759680	68	15226
2026-01-25 12:28:45.49	341.24	5.70	-48.6	-60.9	3.8	8.46e-01	0	38	104	3858759680	68	15134
2026-01-25 12:28:49.47	341.32	5.42	-48.6	-60.9	3.8	8.46e-01	0	38	104	3858759680	68	15078
2026-01-25 12:28:53.46	341.39	5.13	-48.6	-60.9	3.8	8.46e-01	0	38	104	3858759680	68	15140

#Closed at: 2026-01-25 12:28:56
#Recorded file [3858 MB]: D:/Data/31040_260125_151600.dat