passes_logs/2026/01/25/T1/T1__20260125_173839_FENGYUN_3G_rec.log

#Pass ID: 20260125_173839_FENGYUN 3G
#Satellite: FENGYUN 3G
#Configuration: FENGYUN 3G
#almurnet v.1.7.20251203
#Start time: 2026-01-25 17:38:40

#Version: 2.0.20230620
#Station: T1
#Location: 37.570604 lon 55.790049 lat
#TLE: 1 56232U 23055A   26025.14527328  .00046082  00000+0  69370-3 0  9997
#TLE: 2 56232  49.9948   3.5622 0004071  80.7231 279.4197 15.54300718157774

#Time	Az	El	Level	Level2	SNR	BER	BlckErr	Temp	State	Recorded	gain1	gain2
2026-01-25 17:38:40.78	223.11	5.11	-47.8	-66.8	3.8	8.48e-01	0	35	0	0	67	31624
2026-01-25 17:38:42.76	222.88	5.25	-47.7	-66.8	3.8	8.46e-01	0	36	104	0	67	31547
2026-01-25 17:38:44.74	222.66	5.40	-47.7	-66.8	3.8	8.47e-01	0	35	104	0	67	31557
2026-01-25 17:38:46.73	222.43	5.54	-47.7	-66.8	3.8	8.47e-01	0	35	104	0	67	31476
2026-01-25 17:38:48.72	222.19	5.69	-47.7	-66.7	3.8	8.47e-01	0	35	104	0	67	31402
2026-01-25 17:38:50.70	221.95	5.83	-47.7	-66.7	3.8	8.47e-01	0	36	104	0	67	31375
2026-01-25 17:38:52.69	221.71	5.98	-47.7	-66.8	3.8	8.47e-01	0	36	104	0	67	31474
2026-01-25 17:38:54.68	221.47	6.13	-47.7	-66.8	3.8	8.48e-01	0	36	104	0	67	31537
2026-01-25 17:38:56.66	221.22	6.28	-47.7	-66.7	3.8	8.46e-01	0	36	104	0	67	31222
2026-01-25 17:38:58.65	220.96	6.43	-47.7	-66.6	3.8	8.48e-01	0	36	104	0	67	30958
2026-01-25 17:39:00.64	220.71	6.58	-47.7	-66.6	3.8	8.47e-01	0	36	104	0	67	30949
2026-01-25 17:39:02.62	220.45	6.73	-47.7	-66.4	3.8	8.46e-01	0	36	104	0	67	30271
2026-01-25 17:39:04.61	220.19	6.88	-47.7	-66.4	3.8	8.47e-01	0	36	104	0	67	30087
2026-01-25 17:39:06.60	219.92	7.04	-47.7	-66.4	3.8	8.47e-01	0	36	104	0	67	30338
2026-01-25 17:39:08.58	219.65	7.19	-47.7	-66.4	3.8	8.47e-01	0	36	104	0	67	30061
2026-01-25 17:39:10.57	219.37	7.35	-47.7	-66.6	3.8	8.46e-01	0	36	104	0	67	30922
2026-01-25 17:39:12.56	219.09	7.51	-47.7	-66.7	3.8	8.47e-01	0	37	104	0	67	31196
2026-01-25 17:39:14.54	218.81	7.66	-47.7	-66.2	3.8	8.47e-01	0	36	104	0	67	29521
2026-01-25 17:39:16.53	218.52	7.82	-47.7	-65.1	3.8	8.48e-01	0	37	104	0	67	26131
2026-01-25 17:39:18.52	218.22	7.98	-47.6	-63.4	4.1	8.46e-01	0	37	0	0	67	21481
2026-01-25 17:39:20.51	217.93	8.14	-47.6	-63.2	4.2	8.38e-01	0	37	0	0	67	20874
2026-01-25 17:39:22.49	217.62	8.30	-47.7	-65.5	3.8	8.40e-01	0	37	104	0	67	27120
2026-01-25 17:39:24.48	217.32	8.47	-47.7	-65.4	3.8	8.48e-01	0	37	104	0	67	26989
2026-01-25 17:39:26.47	217.00	8.63	-47.7	-66.2	3.8	8.46e-01	0	37	104	0	67	29455
2026-01-25 17:39:28.46	216.69	8.80	-47.3	-59.0	6.4	8.47e-01	0	37	0	0	66	13691
2026-01-25 17:39:30.44	216.37	8.96	-46.3	-53.5	12.0	2.12e-02	0	37	0	0	64	8114
2026-01-25 17:39:32.43	216.04	9.13	-46.3	-53.0	12.9	2.20e-04	0	37	0	0	63	8170
2026-01-25 17:39:34.42	215.71	9.30	-44.6	-49.0	16.3	8.41e-03	0	37	0	0	61	5775
2026-01-25 17:39:36.41	215.37	9.47	-47.0	-57.2	7.4	1.29e-01	0	37	0	0	65	11794
2026-01-25 17:39:38.40	215.03	9.64	-42.3	-45.3	20.5	1.26e-01	0	37	0	0	56	5031
2026-01-25 17:39:40.39	214.68	9.81	-41.4	-44.2	21.6	0.00e+00	0	37	0	0	54	4951
2026-01-25 17:39:42.38	214.32	9.98	-40.9	-43.6	22.1	0.00e+00	0	37	0	0	53	4886
2026-01-25 17:39:44.43	213.95	10.16	-40.1	-42.6	23.1	0.00e+00	0	37	0	0	52	4636
2026-01-25 17:39:46.48	213.57	10.34	-39.9	-42.3	23.5	0.00e+00	0	37	0	0	51	4743
2026-01-25 17:39:48.47	213.20	10.51	-39.2	-41.5	24.2	0.00e+00	0	37	0	0	50	4571
2026-01-25 17:39:50.46	212.82	10.69	-38.9	-41.2	24.5	0.00e+00	0	37	0	0	49	4670
2026-01-25 17:39:52.45	212.44	10.86	-38.8	-41.1	24.5	0.00e+00	0	37	0	0	49	4646
2026-01-25 17:39:54.43	212.05	11.04	-38.4	-40.7	25.0	0.00e+00	0	37	0	0	48	4660
2026-01-25 17:39:56.42	211.65	11.22	-38.6	-40.8	24.8	0.00e+00	0	37	0	0	48	4749
2026-01-25 17:39:58.43	211.24	11.40	-38.6	-40.9	24.8	0.00e+00	0	37	0	0	48	4781
2026-01-25 17:40:00.47	210.82	11.59	-38.6	-40.9	24.8	0.00e+00	0	37	0	0	48	4769
2026-01-25 17:40:02.46	210.41	11.77	-38.5	-40.6	25.0	0.00e+00	0	37	0	0	48	4648
2026-01-25 17:40:04.45	209.98	11.95	-38.2	-40.3	25.3	0.00e+00	0	37	0	0	48	4480
2026-01-25 17:40:06.44	209.55	12.13	-38.2	-40.3	25.3	0.00e+00	0	37	0	0	48	4474
2026-01-25 17:40:08.38	209.12	12.31	-38.3	-40.5	25.1	0.00e+00	0	37	0	0	48	4579
2026-01-25 17:40:10.37	208.68	12.50	-38.5	-40.7	24.9	0.00e+00	0	37	0	0	48	4657
2026-01-25 17:40:12.36	208.22	12.68	-38.2	-40.3	25.4	0.00e+00	0	37	0	0	48	4472
2026-01-25 17:40:14.35	207.76	12.87	-38.3	-40.4	25.2	0.00e+00	0	38	0	0	48	4527
2026-01-25 17:40:16.34	207.29	13.05	-37.9	-40.1	25.5	0.00e+00	0	37	0	0	47	4622
2026-01-25 17:40:18.36	206.81	13.24	-37.7	-39.8	25.8	0.00e+00	0	37	0	0	47	4475
2026-01-25 17:40:20.35	206.32	13.43	-37.7	-39.8	25.8	0.00e+00	0	37	0	0	47	4478
2026-01-25 17:40:22.34	205.83	13.62	-37.9	-40.0	25.6	0.00e+00	0	37	0	0	47	4580
2026-01-25 17:40:24.33	205.33	13.81	-38.0	-40.1	25.5	0.00e+00	0	37	0	0	47	4649
2026-01-25 17:40:26.32	204.82	14.00	-37.5	-39.6	25.9	0.00e+00	0	38	0	0	47	4387
2026-01-25 17:40:28.31	204.30	14.19	-37.2	-39.3	26.2	0.00e+00	0	38	0	0	46	4474
2026-01-25 17:40:30.30	203.78	14.38	-37.2	-39.3	26.2	0.00e+00	0	38	0	0	46	4489
2026-01-25 17:40:32.29	203.24	14.57	-37.5	-39.6	26.0	0.00e+00	0	38	0	0	46	4646
2026-01-25 17:40:34.35	202.68	14.76	-37.6	-39.8	25.9	0.00e+00	0	37	0	0	46	4712
2026-01-25 17:40:36.35	202.12	14.95	-37.3	-39.5	26.1	0.00e+00	0	38	0	0	46	4549
2026-01-25 17:40:38.45	201.53	15.15	-36.6	-38.6	26.8	0.00e+00	0	38	0	0	45	4379
2026-01-25 17:40:40.64	200.90	15.36	-36.6	-38.6	26.8	0.00e+00	0	38	0	0	45	4387
2026-01-25 17:40:42.63	200.32	15.55	-36.7	-38.7	26.8	0.00e+00	0	38	0	0	45	4400
2026-01-25 17:40:44.64	199.72	15.74	-36.8	-38.8	26.7	0.00e+00	0	38	0	0	45	4474
2026-01-25 17:40:46.63	199.12	15.93	-37.0	-39.1	26.5	0.00e+00	0	38	0	0	45	4612
2026-01-25 17:40:48.63	198.51	16.12	-36.9	-39.0	26.6	0.00e+00	0	38	0	0	45	4569
2026-01-25 17:40:50.61	197.89	16.31	-37.0	-39.1	26.5	0.00e+00	0	38	0	0	45	4609
2026-01-25 17:40:52.60	197.26	16.49	-36.8	-38.8	26.7	0.00e+00	0	38	0	0	45	4492
2026-01-25 17:40:54.59	196.62	16.68	-36.4	-38.4	27.1	0.00e+00	0	38	0	0	44	4530
2026-01-25 17:40:56.58	195.97	16.86	-36.3	-38.4	27.1	0.00e+00	0	38	0	0	44	4496
2026-01-25 17:40:58.63	195.29	17.05	-36.4	-38.4	27.1	0.00e+00	0	38	0	0	44	4539
2026-01-25 17:41:00.62	194.62	17.23	-36.5	-38.6	26.9	0.00e+00	0	38	0	0	44	4619
2026-01-25 17:41:02.61	193.93	17.41	-36.4	-38.4	27.1	0.00e+00	0	38	0	0	44	4540
2026-01-25 17:41:04.60	193.24	17.59	-36.6	-38.6	26.9	0.00e+00	0	37	0	0	44	4637
2026-01-25 17:41:06.59	192.54	17.77	-36.3	-38.3	27.2	0.00e+00	0	38	0	0	44	4460
2026-01-25 17:41:08.75	191.77	17.96	-35.5	-37.5	27.5	0.00e+00	0	38	0	0	43	4294
2026-01-25 17:41:10.99	190.96	18.15	-35.4	-37.4	27.8	0.00e+00	0	37	0	0	42	4511
2026-01-25 17:41:12.99	190.22	18.33	-35.6	-37.6	27.7	0.00e+00	0	38	0	0	42	4604
2026-01-25 17:41:15.00	189.47	18.49	-35.7	-37.6	27.6	0.00e+00	0	38	0	0	42	4648
2026-01-25 17:41:16.99	188.71	18.66	-36.0	-38.1	27.2	0.00e+00	0	38	0	0	42	4878
2026-01-25 17:41:19.01	187.94	18.82	-36.2	-38.2	27.1	0.00e+00	0	38	0	0	43	4689
2026-01-25 17:41:21.01	187.16	18.98	-36.1	-38.1	27.2	0.00e+00	0	38	0	0	43	4610
2026-01-25 17:41:23.02	186.37	19.14	-36.4	-38.4	27.0	0.00e+00	0	38	0	0	43	4781
2026-01-25 17:41:25.04	185.56	19.30	-36.8	-38.8	26.7	0.00e+00	0	38	0	0	44	4749
2026-01-25 17:41:27.03	184.76	19.45	-36.7	-38.7	26.6	0.00e+00	0	38	0	0	44	4692
2026-01-25 17:41:29.15	183.89	19.60	-36.2	-38.2	27.2	0.00e+00	0	38	0	0	44	4429
2026-01-25 17:41:31.13	183.07	19.74	-36.1	-38.1	27.4	0.00e+00	0	38	0	0	44	4376
2026-01-25 17:41:33.26	182.18	19.89	-36.0	-38.0	27.5	0.00e+00	0	38	0	0	44	4300
2026-01-25 17:41:35.56	181.21	20.04	-35.4	-37.4	27.7	0.00e+00	0	38	0	0	42	4512
2026-01-25 17:41:37.55	180.35	20.17	-35.3	-37.3	27.9	0.00e+00	0	38	0	0	42	4466
2026-01-25 17:41:39.55	179.49	20.29	-35.7	-37.6	27.7	0.00e+00	0	38	0	0	42	4635
2026-01-25 17:41:41.56	178.61	20.41	-36.0	-38.0	27.3	0.00e+00	0	38	0	0	42	4821
2026-01-25 17:41:43.56	177.73	20.52	-35.8	-37.8	27.5	0.00e+00	0	38	0	0	42	4736
2026-01-25 17:41:45.57	176.84	20.63	-36.0	-38.0	27.3	0.00e+00	0	38	0	0	42	4848
2026-01-25 17:41:47.56	175.95	20.73	-36.1	-38.1	27.1	0.00e+00	0	38	0	0	42	4918
2026-01-25 17:41:49.55	175.05	20.82	-36.0	-38.1	27.2	0.00e+00	0	38	0	0	42	4872
2026-01-25 17:41:51.55	174.14	20.91	-36.2	-38.2	27.1	0.00e+00	0	38	0	0	43	4685
2026-01-25 17:41:53.56	173.22	20.99	-36.2	-38.3	27.1	0.00e+00	0	38	0	0	43	4714
2026-01-25 17:41:55.56	172.30	21.07	-36.4	-38.4	27.0	0.00e+00	0	38	0	0	43	4810
2026-01-25 17:41:57.58	171.37	21.14	-36.2	-38.2	27.1	0.00e+00	0	38	0	0	43	4673
2026-01-25 17:41:59.59	170.43	21.21	-35.7	-37.7	27.5	0.00e+00	0	38	0	0	43	4426
2026-01-25 17:42:01.59	169.50	21.26	-35.7	-37.7	27.4	0.00e+00	0	38	0	0	43	4412
2026-01-25 17:42:03.58	168.56	21.31	-35.4	-37.3	27.8	0.00e+00	0	38	0	0	42	4487
2026-01-25 17:42:05.58	167.62	21.36	-34.7	-36.6	28.4	0.00e+00	0	38	0	0	41	4381
2026-01-25 17:42:07.65	166.64	21.40	-34.3	-36.2	28.7	0.00e+00	0	38	0	0	40	4414
2026-01-25 17:42:09.64	165.70	21.42	-34.4	-36.2	28.8	0.00e+00	0	38	0	0	40	4435
2026-01-25 17:42:11.76	164.69	21.45	-34.6	-36.4	28.5	0.00e+00	0	38	0	0	40	4541
2026-01-25 17:42:13.74	163.75	21.46	-34.9	-36.8	28.1	0.00e+00	0	38	0	0	40	4725
2026-01-25 17:42:15.75	162.80	21.47	-35.3	-37.2	27.9	0.00e+00	0	38	0	0	41	4675
2026-01-25 17:42:17.75	161.84	21.47	-35.6	-37.5	27.7	0.00e+00	0	38	0	0	41	4858
2026-01-25 17:42:19.76	160.89	21.46	-35.2	-37.1	28.0	0.00e+00	0	38	0	0	41	4629
2026-01-25 17:42:21.76	159.94	21.45	-34.7	-36.6	28.4	0.00e+00	0	38	0	0	41	4381
2026-01-25 17:42:23.77	158.98	21.43	-34.6	-36.4	28.6	0.00e+00	0	38	0	0	40	4539
2026-01-25 17:42:25.77	158.03	21.40	-34.7	-36.6	28.4	0.00e+00	0	38	0	0	40	4618
2026-01-25 17:42:27.73	157.11	21.37	-35.2	-37.1	28.0	0.00e+00	0	38	0	0	40	4886
2026-01-25 17:42:29.67	156.19	21.33	-35.4	-37.4	27.8	0.00e+00	0	38	0	0	41	4766
2026-01-25 17:42:31.66	155.26	21.28	-35.4	-37.4	27.8	0.00e+00	0	38	0	0	41	4768
2026-01-25 17:42:33.65	154.33	21.22	-35.0	-37.0	28.1	0.00e+00	0	38	0	0	41	4564
2026-01-25 17:42:35.64	153.40	21.16	-34.8	-36.7	28.3	0.00e+00	0	38	0	0	41	4411
2026-01-25 17:42:37.63	152.48	21.10	-35.5	-37.5	27.7	0.00e+00	0	38	0	0	41	4837
2026-01-25 17:42:39.73	151.51	21.02	-35.8	-37.8	27.3	0.00e+00	0	38	0	0	42	4721
2026-01-25 17:42:41.77	150.58	20.93	-35.4	-37.4	27.7	0.00e+00	0	38	0	0	42	4521
2026-01-25 17:42:43.76	149.67	20.85	-35.1	-37.0	28.1	0.00e+00	0	38	0	0	42	4333
2026-01-25 17:42:45.75	148.77	20.75	-35.6	-37.6	27.5	0.00e+00	0	38	0	0	42	4618
2026-01-25 17:42:47.79	147.86	20.65	-35.9	-37.9	27.4	0.00e+00	0	38	0	0	42	4762
2026-01-25 17:42:49.95	146.90	20.54	-35.7	-37.7	27.5	0.00e+00	0	38	0	0	42	4673
2026-01-25 17:42:52.29	145.87	20.41	-35.6	-37.6	27.6	0.00e+00	0	38	0	0	42	4634
2026-01-25 17:42:54.29	145.00	20.29	-35.2	-37.2	27.9	0.00e+00	0	38	0	0	42	4418
2026-01-25 17:42:56.30	144.13	20.17	-36.0	-38.0	27.2	0.00e+00	0	38	0	0	42	4838
2026-01-25 17:42:58.29	143.28	20.04	-35.8	-37.7	27.5	0.00e+00	0	38	0	0	42	4704
2026-01-25 17:43:00.28	142.44	19.91	-35.6	-37.5	27.6	0.00e+00	0	38	0	0	42	4582
2026-01-25 17:43:02.48	141.52	19.76	-35.6	-37.5	27.7	0.00e+00	0	38	0	0	42	4576
2026-01-25 17:43:04.47	140.69	19.62	-35.5	-37.4	27.7	0.00e+00	0	38	0	0	42	4540
2026-01-25 17:43:06.74	139.77	19.45	-35.4	-37.4	27.7	0.00e+00	0	38	0	0	42	4507
2026-01-25 17:43:08.73	138.96	19.31	-35.2	-37.2	27.9	0.00e+00	0	38	0	0	42	4395
2026-01-25 17:43:10.72	138.17	19.15	-35.2	-37.1	27.9	0.00e+00	0	38	0	0	42	4376
2026-01-25 17:43:12.71	137.39	19.00	-35.2	-37.1	27.9	0.00e+00	0	38	0	0	42	4346
2026-01-25 17:43:14.72	136.61	18.84	-35.8	-37.7	27.4	0.00e+00	0	38	0	0	42	4697
2026-01-25 17:43:16.72	135.84	18.68	-36.1	-38.1	27.1	0.00e+00	0	38	0	0	42	4882
2026-01-25 17:43:18.74	135.07	18.51	-36.0	-38.0	27.1	0.00e+00	0	38	0	0	42	4866
2026-01-25 17:43:20.76	134.32	18.34	-35.7	-37.6	27.5	0.00e+00	0	38	0	0	42	4627
2026-01-25 17:43:22.80	133.57	18.16	-36.0	-37.9	27.2	0.00e+00	0	38	0	0	42	4803
2026-01-25 17:43:24.80	132.84	17.99	-36.1	-38.1	27.0	0.00e+00	0	38	0	0	43	4645
2026-01-25 17:43:26.81	132.12	17.82	-36.0	-38.0	27.1	0.00e+00	0	38	0	0	43	4565
2026-01-25 17:43:29.11	131.31	17.61	-35.9	-37.8	27.3	0.00e+00	0	38	0	0	43	4480
2026-01-25 17:43:31.11	130.62	17.43	-35.7	-37.7	27.4	0.00e+00	0	38	0	0	43	4420
2026-01-25 17:43:33.09	129.94	17.25	-36.0	-38.0	27.1	0.00e+00	0	38	0	0	43	4584
2026-01-25 17:43:35.10	129.26	17.07	-36.2	-38.2	27.0	0.00e+00	0	38	0	0	43	4654
2026-01-25 17:43:37.11	128.60	16.89	-36.2	-38.2	27.0	0.00e+00	0	38	0	0	43	4683
2026-01-25 17:43:39.12	127.94	16.70	-36.0	-38.0	27.2	0.00e+00	0	38	0	0	43	4550
2026-01-25 17:43:41.36	127.22	16.49	-36.2	-38.2	26.9	0.00e+00	0	38	0	0	43	4678
2026-01-25 17:43:43.38	126.58	16.30	-36.3	-38.3	26.8	0.00e+00	0	38	0	0	43	4727
2026-01-25 17:43:45.60	125.89	16.09	-36.3	-38.3	26.8	0.00e+00	0	38	0	0	43	4754
2026-01-25 17:43:47.59	125.29	15.91	-36.6	-38.6	26.6	0.00e+00	0	38	0	0	43	4911
2026-01-25 17:43:49.58	124.69	15.72	-36.9	-39.0	26.5	0.00e+00	0	38	0	0	44	4829
2026-01-25 17:43:51.59	124.09	15.53	-37.0	-39.0	26.4	0.00e+00	0	38	0	0	44	4837
2026-01-25 17:43:53.59	123.51	15.34	-36.8	-38.8	26.6	0.00e+00	0	38	0	0	44	4758
2026-01-25 17:43:55.59	122.94	15.15	-37.2	-39.3	26.2	0.00e+00	0	38	0	0	45	4718
2026-01-25 17:43:57.60	122.37	14.96	-37.4	-39.5	26.0	0.00e+00	0	38	0	0	45	4815
2026-01-25 17:43:59.60	121.82	14.77	-37.2	-39.3	26.2	0.00e+00	0	38	0	0	45	4722
2026-01-25 17:44:01.62	121.27	14.57	-37.4	-39.5	26.0	0.00e+00	0	38	0	0	45	4841
2026-01-25 17:44:03.86	120.67	14.36	-37.6	-39.8	25.8	0.00e+00	0	38	0	0	45	4989
2026-01-25 17:44:05.85	120.14	14.17	-37.7	-39.9	25.7	0.00e+00	0	38	0	0	46	4769
2026-01-25 17:44:07.84	119.63	13.98	-37.2	-39.3	26.1	0.00e+00	0	38	0	0	46	4470
2026-01-25 17:44:09.83	119.12	13.80	-37.7	-39.9	25.6	0.00e+00	0	38	0	0	46	4778
2026-01-25 17:44:11.90	118.60	13.60	-37.9	-40.0	25.5	0.00e+00	0	38	0	0	46	4860
2026-01-25 17:44:13.88	118.12	13.41	-37.7	-39.8	25.6	0.00e+00	0	38	0	0	46	4749
2026-01-25 17:44:15.87	117.63	13.23	-38.0	-40.2	25.3	0.00e+00	0	38	0	0	46	4945
2026-01-25 17:44:17.86	117.16	13.04	-38.4	-40.7	24.8	0.00e+00	0	39	0	0	47	4943
2026-01-25 17:44:19.94	116.67	12.84	-38.2	-40.4	25.1	0.00e+00	0	38	0	0	47	4794
2026-01-25 17:44:22.10	116.18	12.64	-37.8	-39.9	25.5	0.00e+00	0	38	0	0	47	4508
2026-01-25 17:44:24.27	115.69	12.44	-38.0	-40.1	25.3	0.00e+00	0	38	0	0	47	4640
2026-01-25 17:44:26.25	115.25	12.26	-38.3	-40.6	25.0	0.00e+00	0	38	0	0	47	4883
2026-01-25 17:44:28.27	114.81	12.07	-38.4	-40.6	24.8	0.00e+00	0	38	0	0	47	4911
2026-01-25 17:44:30.37	114.35	11.88	-38.7	-41.0	24.6	0.00e+00	0	38	0	0	48	4827
2026-01-25 17:44:32.44	113.92	11.69	-39.0	-41.3	24.2	0.00e+00	0	38	0	0	48	5013
2026-01-25 17:44:34.43	113.51	11.51	-38.8	-41.0	24.5	0.00e+00	0	38	0	0	48	4867
2026-01-25 17:44:36.43	113.10	11.33	-38.7	-41.0	24.5	0.00e+00	0	38	0	0	48	4824
2026-01-25 17:44:38.44	112.69	11.15	-38.9	-41.2	24.3	0.00e+00	0	38	0	0	48	4965
2026-01-25 17:44:40.43	112.30	10.97	-38.8	-41.1	24.5	0.00e+00	0	38	0	0	48	4875
2026-01-25 17:44:42.42	111.91	10.80	-39.3	-41.6	23.9	0.00e+00	0	38	0	0	49	4893
2026-01-25 17:44:44.42	111.53	10.62	-39.3	-41.7	23.7	0.00e+00	0	38	0	0	49	4956
2026-01-25 17:44:46.43	111.15	10.44	-38.9	-41.2	24.3	0.00e+00	0	38	0	0	49	4654
2026-01-25 17:44:48.43	110.78	10.27	-39.1	-41.4	24.1	0.00e+00	0	38	0	0	49	4808
2026-01-25 17:44:50.55	110.40	10.08	-39.5	-41.9	23.6	0.00e+00	0	39	0	0	49	5044
2026-01-25 17:44:52.54	110.04	9.91	-39.2	-41.6	23.9	0.00e+00	0	39	0	0	49	4883
2026-01-25 17:44:54.55	109.69	9.74	-39.5	-41.8	23.7	0.00e+00	0	38	0	0	49	5033
2026-01-25 17:44:56.57	109.34	9.57	-39.4	-41.8	23.7	0.00e+00	0	38	0	0	49	5017
2026-01-25 17:44:58.56	109.00	9.40	-39.8	-42.3	23.2	0.00e+00	0	39	0	0	50	4985
2026-01-25 17:45:00.55	108.66	9.23	-39.9	-42.4	23.1	0.00e+00	0	39	0	0	50	5063
2026-01-25 17:45:02.56	108.33	9.06	-39.8	-42.2	23.3	0.00e+00	0	39	0	0	50	4943
2026-01-25 17:45:04.56	108.01	8.89	-48.0	-66.2	3.7	1.61e-03	0	39	104	0	66	31422
2026-01-25 17:45:06.55	107.69	8.73	-48.3	-67.1	3.8	8.25e-01	0	38	104	0	67	32646
2026-01-25 17:45:08.56	107.37	8.56	-48.3	-67.2	3.8	8.47e-01	0	39	104	0	67	33164
2026-01-25 17:45:10.61	107.06	8.39	-48.2	-67.3	3.8	8.46e-01	0	39	104	0	67	33465
2026-01-25 17:45:12.66	106.74	8.23	-48.0	-67.4	3.8	8.47e-01	0	38	104	0	67	33763
2026-01-25 17:45:14.68	106.44	8.06	-48.3	-67.4	3.8	8.47e-01	0	39	104	0	67	34083
2026-01-25 17:45:16.77	106.13	7.90	-48.1	-67.5	3.8	8.47e-01	0	39	104	0	67	34168
2026-01-25 17:45:18.82	105.83	7.73	-48.3	-67.5	3.8	8.46e-01	0	38	104	0	67	34148
2026-01-25 17:45:20.87	105.54	7.57	-48.2	-67.5	3.8	8.46e-01	0	39	104	0	67	34168
2026-01-25 17:45:22.85	105.26	7.41	-48.3	-67.5	3.8	8.47e-01	0	39	104	0	67	34263
2026-01-25 17:45:24.86	104.98	7.26	-48.4	-67.5	3.8	8.46e-01	0	38	104	0	67	34298
2026-01-25 17:45:26.84	104.71	7.10	-48.4	-67.4	3.8	8.46e-01	0	39	104	0	67	34032
2026-01-25 17:45:28.85	104.44	6.95	-48.4	-67.4	3.8	8.47e-01	0	39	104	0	67	34012
2026-01-25 17:45:30.83	104.18	6.79	-48.4	-67.4	3.8	8.46e-01	0	39	104	0	67	34004
2026-01-25 17:45:32.84	103.91	6.64	-48.4	-67.4	3.8	8.47e-01	0	39	104	0	67	33929
2026-01-25 17:45:34.82	103.66	6.49	-48.4	-67.4	3.8	8.48e-01	0	39	104	0	67	33992
2026-01-25 17:45:36.81	103.41	6.34	-48.4	-67.4	3.8	8.47e-01	0	39	104	0	67	33965
2026-01-25 17:45:38.81	103.16	6.19	-48.3	-67.4	3.8	8.46e-01	0	38	104	0	67	33918
2026-01-25 17:45:40.80	102.91	6.04	-48.3	-67.4	3.8	8.47e-01	0	39	104	0	67	33803
2026-01-25 17:45:42.79	102.67	5.89	-48.3	-67.4	3.8	8.47e-01	0	39	104	0	67	33848
2026-01-25 17:45:44.77	102.43	5.75	-48.3	-67.4	3.8	8.46e-01	0	39	104	0	67	33851
2026-01-25 17:45:46.76	102.20	5.60	-48.3	-67.4	3.8	8.48e-01	0	39	104	0	67	33912
2026-01-25 17:45:48.75	101.96	5.46	-48.3	-67.4	3.8	8.46e-01	0	39	104	0	67	33796
2026-01-25 17:45:50.74	101.74	5.31	-48.3	-67.4	3.8	8.46e-01	0	39	104	0	67	33837
2026-01-25 17:45:52.72	101.51	5.17	-48.3	-67.4	3.8	8.46e-01	0	39	104	0	67	33778
2026-01-25 17:45:54.72	101.29	5.03	-48.3	-67.4	3.8	8.48e-01	0	39	104	0	67	33770

#Closed at: 2026-01-25 17:45:56
#Recorded file [0 MB]: D:/Data/31040_260125_203840.dat