passes_logs/2026/01/25/T1/T1__20260125_095858_NOAA_20_JPSS-1_rec.log

#Pass ID: 20260125_095858_NOAA 20 (JPSS-1)
#Satellite: NOAA 20 (JPSS-1)
#Configuration: NOAA 20
#almurnet v.1.7.20251203
#Start time: 2026-01-25 09:58:59

#Version: 2.0.20230620
#Station: T1
#Location: 37.570604 lon 55.790049 lat
#TLE: 1 43013U 17073A   26024.42258823  .00000183  00000+0  10747-3 0  9990
#TLE: 2 43013  98.7646 325.2629 0001105  25.8644 334.2587 14.19539754424075

#Time	Az	El	Level	Level2	SNR	BER	BlckErr	Temp	State	Recorded	gain1	gain2
2026-01-25 09:58:59.81	161.88	5.10	-47.8	-63.2	3.8	1.49e+00	0	38	0	0	67	21007
2026-01-25 09:59:03.78	161.90	5.39	-47.8	-63.3	3.8	1.49e+00	0	39	104	0	67	21059
2026-01-25 09:59:07.75	161.92	5.68	-47.8	-63.3	3.8	1.49e+00	0	39	104	0	67	21049
2026-01-25 09:59:11.73	161.94	5.98	-47.8	-62.8	3.8	1.49e+00	0	39	104	0	67	19908
2026-01-25 09:59:15.70	161.96	6.27	-47.7	-62.3	3.8	1.49e+00	0	39	104	0	67	18920
2026-01-25 09:59:19.68	161.97	6.58	-47.8	-62.8	3.8	1.49e+00	0	39	104	0	67	20037
2026-01-25 09:59:23.65	161.99	6.88	-47.8	-63.2	3.8	1.49e+00	0	39	104	0	67	21008
2026-01-25 09:59:27.63	162.01	7.19	-47.8	-63.2	3.8	1.49e+00	0	40	104	0	67	20925
2026-01-25 09:59:31.60	162.03	7.50	-47.7	-60.9	3.8	1.49e+00	0	40	104	0	67	16102
2026-01-25 09:59:35.57	162.05	7.82	-47.2	-56.2	6.0	4.46e-01	0	40	0	4194304	66	9922
2026-01-25 09:59:39.55	162.07	8.14	-46.6	-53.7	8.3	9.85e-02	0	40	0	11534336	65	7809
2026-01-25 09:59:43.52	162.09	8.46	-46.6	-53.7	8.2	4.96e-02	0	40	0	19922944	64	8358
2026-01-25 09:59:47.49	162.11	8.79	-47.2	-56.8	5.6	3.96e-01	0	40	0	27262976	65	11193
2026-01-25 09:59:51.47	162.13	9.13	-47.7	-61.8	3.8	1.45e+00	0	40	104	30408704	66	18741
2026-01-25 09:59:55.45	162.15	9.46	-47.5	-58.7	4.0	1.49e+00	0	40	104	33554432	66	13253
2026-01-25 09:59:59.43	162.17	9.81	-44.2	-47.9	14.5	1.14e-02	0	40	0	39845888	60	5351
2026-01-25 10:00:03.49	162.19	10.16	-44.0	-47.5	14.8	7.00e-07	0	40	0	47185920	59	5439
2026-01-25 10:00:07.67	162.21	10.53	-43.8	-47.3	15.1	0.00e+00	0	40	0	55574528	59	5290
2026-01-25 10:00:11.65	162.23	10.89	-43.4	-46.6	15.8	0.00e+00	0	41	0	62914560	58	5165
2026-01-25 10:00:15.65	162.26	11.25	-43.3	-46.4	16.0	0.00e+00	0	40	0	70254592	58	5086
2026-01-25 10:00:19.66	162.28	11.63	-43.2	-46.3	16.1	0.00e+00	0	40	0	77594624	58	5005
2026-01-25 10:00:23.73	162.30	12.01	-43.2	-46.2	16.2	0.00e+00	0	40	0	84934656	58	4969
2026-01-25 10:00:27.73	162.32	12.39	-43.2	-46.3	16.2	0.00e+00	0	40	0	93323264	58	4986
2026-01-25 10:00:31.77	162.35	12.78	-43.1	-46.1	16.3	0.00e+00	0	40	0	100663296	58	4925
2026-01-25 10:00:35.72	162.37	13.17	-43.0	-45.9	16.5	0.00e+00	0	41	0	108003328	57	5076
2026-01-25 10:00:39.69	162.39	13.57	-42.8	-45.7	16.8	1.50e-06	0	41	0	115343360	57	4931
2026-01-25 10:00:43.68	162.42	13.98	-42.8	-45.6	16.8	0.00e+00	0	41	0	122683392	57	4919
2026-01-25 10:00:47.59	162.44	14.39	-42.7	-45.6	16.9	0.00e+00	0	41	0	130023424	57	4885
2026-01-25 10:00:52.24	162.47	14.88	-42.5	-45.4	17.1	0.00e+00	0	41	0	138412032	57	4787
2026-01-25 10:00:56.77	162.50	15.37	-42.4	-45.2	17.3	0.00e+00	0	40	0	147849216	56	4941
2026-01-25 10:01:01.32	162.53	15.87	-42.4	-45.1	17.4	0.00e+00	0	41	0	156237824	56	4917
2026-01-25 10:01:05.57	162.55	16.34	-42.2	-44.8	17.7	0.00e+00	0	41	0	163577856	56	4748
2026-01-25 10:01:09.63	162.58	16.81	-41.8	-44.4	17.9	0.00e+00	0	41	0	171966464	55	4794
2026-01-25 10:01:13.61	162.61	17.27	-41.7	-44.3	18.1	0.00e+00	0	41	0	179306496	55	4706
2026-01-25 10:01:17.59	162.63	17.75	-41.7	-44.1	18.2	0.00e+00	0	41	0	186646528	55	4647
2026-01-25 10:01:21.57	162.66	18.23	-41.7	-44.1	18.2	0.00e+00	0	41	0	193986560	55	4649
2026-01-25 10:01:25.60	162.69	18.73	-41.6	-44.1	18.3	0.00e+00	0	41	0	201326592	55	4624
2026-01-25 10:01:29.65	162.72	19.24	-41.6	-44.2	18.2	0.00e+00	0	41	0	208666624	55	4668
2026-01-25 10:01:33.63	162.75	19.75	-41.5	-43.9	18.4	0.00e+00	0	41	0	216006656	55	4544
2026-01-25 10:01:37.69	162.78	20.29	-41.3	-43.6	18.7	0.00e+00	0	41	0	224395264	54	4651
2026-01-25 10:01:41.73	162.81	20.83	-41.3	-43.7	18.8	0.00e+00	0	41	0	231735296	54	4652
2026-01-25 10:01:45.72	162.84	21.38	-41.2	-43.5	18.9	0.00e+00	0	41	0	239075328	54	4576
2026-01-25 10:01:49.73	162.88	21.95	-41.3	-43.7	18.7	0.00e+00	0	41	0	246415360	54	4677
2026-01-25 10:01:53.82	162.91	22.53	-41.1	-43.5	18.9	0.00e+00	0	41	0	254803968	54	4579
2026-01-25 10:01:58.17	162.95	23.17	-41.3	-43.7	18.8	0.00e+00	0	41	0	262144000	54	4671
2026-01-25 10:02:02.15	162.98	23.77	-41.2	-43.5	18.9	0.00e+00	0	41	0	269484032	54	4583
2026-01-25 10:02:06.13	163.02	24.39	-41.3	-43.7	18.8	0.00e+00	0	41	0	277872640	54	4657
2026-01-25 10:02:10.18	163.05	25.03	-41.3	-43.6	18.9	0.00e+00	0	41	0	285212672	54	4621
2026-01-25 10:02:14.16	163.09	25.68	-41.6	-44.0	18.6	0.00e+00	0	41	0	292552704	54	4822
2026-01-25 10:02:18.14	163.13	26.34	-41.9	-44.4	18.1	0.00e+00	0	41	0	299892736	54	5066
2026-01-25 10:02:22.13	163.17	27.02	-42.2	-44.8	17.7	0.00e+00	0	41	0	307232768	55	5039
2026-01-25 10:02:26.14	163.21	27.72	-43.0	-45.8	16.9	0.00e+00	0	41	0	314572800	56	5312
2026-01-25 10:02:30.18	163.25	28.44	-43.3	-46.2	16.6	0.00e+00	0	41	0	322961408	57	5225
2026-01-25 10:02:34.19	163.30	29.18	-43.6	-46.6	16.2	0.00e+00	0	41	0	330301440	57	5470
2026-01-25 10:02:38.17	163.34	29.93	-43.9	-47.1	15.7	0.00e+00	0	41	0	337641472	58	5490
2026-01-25 10:02:42.18	163.39	30.71	-44.1	-47.5	15.3	0.00e+00	0	41	0	344981504	59	5419
2026-01-25 10:02:46.19	163.44	31.51	-44.0	-47.3	15.4	0.00e+00	0	41	0	352321536	59	5321
2026-01-25 10:02:50.18	163.49	32.33	-43.6	-46.6	16.1	0.00e+00	0	41	0	359661568	59	4903
2026-01-25 10:02:54.55	163.55	33.25	-43.3	-46.2	16.6	0.00e+00	0	41	0	368050176	58	4941
2026-01-25 10:02:58.53	163.60	34.12	-42.9	-45.6	17.2	0.00e+00	0	41	0	375390208	57	4897
2026-01-25 10:03:02.55	163.66	35.02	-42.1	-44.5	18.2	0.00e+00	0	41	0	382730240	56	4595
2026-01-25 10:03:06.52	163.72	35.93	-40.8	-43.1	19.5	0.00e+00	0	41	0	391118848	53	4605
2026-01-25 10:03:10.52	163.78	36.88	-40.6	-42.8	19.7	0.00e+00	0	41	0	398458880	53	4482
2026-01-25 10:03:14.53	163.84	37.86	-40.4	-42.6	19.9	0.00e+00	0	41	0	405798912	52	4615
2026-01-25 10:03:18.54	163.91	38.87	-40.7	-42.9	19.6	0.00e+00	0	41	0	413138944	52	4796
2026-01-25 10:03:22.53	163.99	39.90	-40.4	-42.6	19.9	0.00e+00	0	41	0	420478976	52	4608
2026-01-25 10:03:26.54	164.06	40.97	-40.2	-42.3	20.3	0.00e+00	0	41	0	427819008	51	4743
2026-01-25 10:03:30.53	164.14	42.07	-40.6	-42.8	19.9	0.00e+00	0	41	0	435159040	51	5010
2026-01-25 10:03:34.59	164.23	43.22	-40.4	-42.5	20.1	0.00e+00	0	41	0	443547648	51	4824
2026-01-25 10:03:38.95	164.33	44.49	-41.9	-44.3	18.4	0.00e+00	0	41	0	451936256	54	5001
2026-01-25 10:03:42.95	164.43	45.70	-43.1	-45.8	17.0	0.00e+00	0	41	0	459276288	56	5318
2026-01-25 10:03:46.95	164.53	46.94	-43.2	-45.9	16.9	0.00e+00	0	41	0	466616320	57	5069
2026-01-25 10:03:51.21	164.65	48.31	-43.6	-46.5	16.4	0.00e+00	0	41	0	473956352	58	5114
2026-01-25 10:03:55.45	164.78	49.71	-43.1	-45.8	17.0	0.00e+00	0	41	0	482344960	58	4750
2026-01-25 10:03:59.45	164.91	51.08	-42.2	-44.7	18.1	0.00e+00	0	41	0	489684992	56	4681
2026-01-25 10:04:03.44	165.06	52.48	-40.4	-42.5	20.0	0.00e+00	0	41	0	497025024	52	4586
2026-01-25 10:04:07.51	165.22	53.96	-39.6	-41.7	20.9	0.00e+00	0	41	0	505413632	51	4394
2026-01-25 10:04:11.52	165.39	55.45	-40.7	-42.9	19.6	0.00e+00	0	41	0	512753664	52	4790
2026-01-25 10:04:15.67	165.59	57.04	-41.5	-43.8	18.7	0.00e+00	0	41	0	520093696	53	5025
2026-01-25 10:04:19.65	165.80	58.61	-42.2	-44.7	17.9	0.00e+00	0	41	0	527433728	55	4971
2026-01-25 10:04:23.63	166.04	60.22	-41.3	-43.7	18.9	0.00e+00	0	41	0	534773760	54	4659
2026-01-25 10:04:27.61	166.30	61.87	-39.8	-41.8	20.7	0.00e+00	0	41	0	543162368	51	4469
2026-01-25 10:04:31.78	166.63	63.65	-39.2	-41.2	21.3	0.00e+00	0	41	0	550502400	50	4421
2026-01-25 10:04:35.87	166.99	65.43	-41.3	-43.7	19.0	0.00e+00	0	41	0	557842432	53	4927
2026-01-25 10:04:39.85	167.40	67.21	-42.0	-44.5	18.1	0.00e+00	0	41	0	565182464	55	4847
2026-01-25 10:04:43.86	167.89	69.03	-43.1	-45.9	17.0	0.00e+00	0	41	0	573571072	57	5064
2026-01-25 10:04:47.93	168.49	70.92	-41.8	-44.2	18.4	0.00e+00	0	41	0	580911104	55	4671
2026-01-25 10:04:52.05	169.25	72.86	-43.7	-46.6	16.3	0.00e+00	0	41	0	588251136	58	5190
2026-01-25 10:04:56.03	170.16	74.77	-44.2	-47.4	15.5	0.00e+00	0	41	0	595591168	59	5375
2026-01-25 10:05:00.01	171.35	76.70	-42.9	-45.6	17.3	0.00e+00	0	41	0	603979776	57	4871
2026-01-25 10:05:03.99	172.95	78.65	-41.6	-44.0	18.6	0.00e+00	0	41	0	611319808	55	4588
2026-01-25 10:05:07.97	175.23	80.61	-40.6	-42.8	19.9	0.00e+00	0	41	0	618659840	52	4707
2026-01-25 10:05:11.94	178.72	82.56	-44.5	-47.9	14.9	0.00e+00	0	41	0	625999872	59	5687
2026-01-25 10:05:15.96	184.77	84.50	-42.7	-45.4	17.4	0.00e+00	0	41	0	633339904	57	4809
2026-01-25 10:05:19.99	197.17	86.33	-43.1	-45.9	17.0	0.00e+00	0	41	0	640679936	56	5388
2026-01-25 10:05:23.97	227.63	87.70	-42.5	-45.2	17.7	0.00e+00	0	41	0	648019968	56	4978
2026-01-25 10:05:27.94	279.81	87.65	-41.7	-44.1	18.5	0.00e+00	0	41	0	655360000	54	4888
2026-01-25 10:05:31.95	308.95	86.23	-41.6	-44.0	18.6	0.00e+00	0	41	0	663748608	55	4556
2026-01-25 10:05:35.96	320.72	84.40	-40.4	-42.6	19.9	0.00e+00	0	41	0	671088640	52	4641
2026-01-25 10:05:39.94	326.53	82.47	-44.6	-48.2	14.7	0.00e+00	0	41	0	678428672	59	5857
2026-01-25 10:05:43.92	329.95	80.52	-42.1	-44.6	18.2	0.00e+00	0	41	0	685768704	56	4618
2026-01-25 10:05:47.90	332.19	78.56	-43.0	-45.7	17.1	0.00e+00	0	41	0	693108736	56	5276
2026-01-25 10:05:51.84	333.76	76.64	-45.0	-48.7	14.3	2.20e-06	0	41	0	700448768	61	5530
2026-01-25 10:05:55.82	334.93	74.71	-44.6	-48.0	14.9	0.00e+00	0	41	0	707788800	60	5408
2026-01-25 10:05:59.80	335.84	72.81	-42.1	-44.6	18.1	0.00e+00	0	41	0	715128832	55	4912
2026-01-25 10:06:03.89	336.58	70.88	-40.9	-43.1	19.6	0.00e+00	0	41	0	723517440	52	4892
2026-01-25 10:06:07.95	337.18	69.01	-42.7	-45.2	17.6	0.00e+00	0	41	0	730857472	56	4981
2026-01-25 10:06:11.93	337.66	67.20	-44.0	-47.0	15.9	0.00e+00	0	41	0	738197504	60	4865
2026-01-25 10:06:16.05	338.09	65.37	-43.9	-47.1	15.8	0.00e+00	0	41	0	745537536	58	5489
2026-01-25 10:06:20.25	338.46	63.55	-40.4	-42.6	20.0	0.00e+00	0	41	0	753926144	52	4600
2026-01-25 10:06:24.38	338.78	61.80	-39.2	-41.1	21.4	0.00e+00	0	41	0	761266176	50	4375
2026-01-25 10:06:28.41	339.04	60.13	-42.8	-45.4	17.4	0.00e+00	0	41	0	769654784	56	5091
2026-01-25 10:06:32.59	339.29	58.45	-44.2	-47.4	15.5	0.00e+00	0	41	0	776994816	59	5371
2026-01-25 10:06:36.53	339.50	56.91	-43.0	-45.7	17.1	0.00e+00	0	41	0	784334848	58	4700
2026-01-25 10:06:40.52	339.69	55.39	-42.0	-44.5	18.3	0.00e+00	0	41	0	791674880	56	4583
2026-01-25 10:06:44.57	339.86	53.89	-42.4	-45.1	17.6	0.00e+00	0	41	0	799014912	55	5205
2026-01-25 10:06:48.55	340.02	52.46	-41.1	-43.5	19.1	0.00e+00	0	41	0	807403520	53	4861
2026-01-25 10:06:52.53	340.16	51.07	-44.2	-47.4	15.5	0.00e+00	0	41	0	814743552	58	5709
2026-01-25 10:06:56.50	340.29	49.72	-43.9	-46.9	16.0	0.00e+00	0	41	0	822083584	59	5077
2026-01-25 10:07:00.47	340.41	48.41	-47.5	-55.4	7.2	5.45e-02	0	41	0	829423616	65	9548
2026-01-25 10:07:04.45	340.53	47.13	-43.4	-46.3	16.5	0.00e+00	0	41	0	836763648	58	4994
2026-01-25 10:07:08.51	340.64	45.87	-43.5	-46.5	16.4	0.00e+00	0	41	0	844103680	58	5101
2026-01-25 10:07:12.49	340.74	44.67	-42.1	-44.8	18.0	0.00e+00	0	41	0	851443712	56	4737
2026-01-25 10:07:16.47	340.83	43.51	-40.0	-42.1	20.5	0.00e+00	0	41	0	859832320	51	4618
2026-01-25 10:07:20.51	340.92	42.36	-41.8	-44.3	18.3	0.00e+00	0	41	0	867172352	54	5012
2026-01-25 10:07:24.71	341.00	41.21	-42.5	-45.2	17.6	0.00e+00	0	41	0	874512384	57	4699
2026-01-25 10:07:28.69	341.08	40.15	-41.4	-43.8	18.9	0.00e+00	0	41	0	881852416	54	4713
2026-01-25 10:07:32.84	341.16	39.07	-44.1	-47.2	15.7	0.00e+00	0	41	0	890241024	58	5559
2026-01-25 10:07:37.04	341.23	38.02	-45.9	-50.5	12.4	2.65e-04	0	41	0	897581056	62	6453
2026-01-25 10:07:41.02	341.30	37.05	-43.5	-46.6	16.2	0.00e+00	0	41	0	904921088	58	5206
2026-01-25 10:07:45.02	341.36	36.11	-43.1	-46.2	16.7	0.00e+00	0	41	0	913309696	58	4931
2026-01-25 10:07:49.01	341.43	35.19	-43.7	-46.9	15.9	0.00e+00	0	41	0	920649728	57	5681
2026-01-25 10:07:53.13	341.49	34.27	-46.2	-51.3	11.4	6.61e-04	0	41	0	927989760	63	6688
2026-01-25 10:07:57.24	341.55	33.38	-46.1	-51.0	11.7	8.15e-04	0	41	0	935329792	63	6477
2026-01-25 10:08:01.22	341.60	32.54	-44.3	-48.5	14.4	0.00e+00	0	41	0	943718400	60	5762
2026-01-25 10:08:05.26	341.65	31.71	-44.2	-47.9	15.0	0.00e+00	0	41	0	951058432	59	5679
2026-01-25 10:08:09.25	341.70	30.92	-44.6	-48.1	14.7	7.00e-07	0	41	0	958398464	59	5846
2026-01-25 10:08:13.23	341.75	30.15	-44.5	-48.4	14.5	7.00e-07	0	41	0	965738496	60	5703
2026-01-25 10:08:17.23	341.80	29.39	-44.1	-47.5	15.3	0.00e+00	0	41	0	973078528	60	5151
2026-01-25 10:08:21.26	341.85	28.65	-43.3	-46.6	16.3	0.00e+00	0	41	0	980418560	58	5162
2026-01-25 10:08:25.19	341.89	27.95	-42.5	-45.5	17.3	0.00e+00	0	41	0	987758592	57	4819
2026-01-25 10:08:29.17	341.93	27.25	-42.2	-44.7	18.1	0.00e+00	0	41	0	996147200	56	4677
2026-01-25 10:08:33.25	341.98	26.56	-42.0	-44.6	18.2	0.00e+00	0	41	0	1003487232	56	4616
2026-01-25 10:08:37.35	342.02	25.88	-41.9	-44.7	17.8	0.00e+00	0	41	0	1010827264	55	4982
2026-01-25 10:08:41.36	342.06	25.23	-42.0	-44.6	17.9	0.00e+00	0	41	0	1018167296	55	4912
2026-01-25 10:08:45.34	342.10	24.60	-41.7	-44.2	18.3	0.00e+00	0	41	0	1025507328	55	4681
2026-01-25 10:08:49.34	342.14	23.99	-40.9	-43.3	19.2	0.00e+00	0	41	0	1033895936	53	4743
2026-01-25 10:08:53.38	342.17	23.38	-40.5	-42.9	19.5	0.00e+00	0	41	0	1041235968	53	4540
2026-01-25 10:08:57.52	342.21	22.77	-40.5	-42.9	19.6	0.00e+00	0	41	0	1048576000	52	4810
2026-01-25 10:09:01.77	342.25	22.16	-40.7	-43.0	19.5	0.00e+00	0	41	0	1056964608	52	4839
2026-01-25 10:09:05.78	342.28	21.59	-40.8	-43.2	19.3	0.00e+00	0	41	0	1064304640	52	4964
2026-01-25 10:09:09.80	342.32	21.04	-40.8	-43.4	19.1	0.00e+00	0	41	0	1071644672	52	5089
2026-01-25 10:09:13.79	342.35	20.51	-41.1	-43.5	19.0	0.00e+00	0	41	0	1078984704	52	5152
2026-01-25 10:09:17.74	342.39	19.99	-41.2	-43.5	18.9	0.00e+00	0	41	0	1086324736	53	4861
2026-01-25 10:09:21.73	342.42	19.47	-41.1	-43.5	18.9	0.00e+00	0	41	0	1093664768	53	4845
2026-01-25 10:09:25.71	342.45	18.97	-41.4	-43.9	18.6	0.00e+00	0	41	0	1102053376	53	5086
2026-01-25 10:09:29.63	342.48	18.49	-41.6	-44.1	18.4	0.00e+00	0	41	0	1109393408	53	5209
2026-01-25 10:09:33.61	342.51	18.00	-41.7	-44.2	18.3	0.00e+00	0	41	0	1116733440	54	4955
2026-01-25 10:09:37.59	342.54	17.53	-41.6	-44.2	18.3	0.00e+00	0	41	0	1124073472	54	4969
2026-01-25 10:09:41.57	342.57	17.07	-41.5	-44.3	18.2	0.00e+00	0	41	0	1131413504	54	4992
2026-01-25 10:09:45.55	342.60	16.61	-41.6	-44.3	18.2	0.00e+00	0	41	0	1138753536	54	5003
2026-01-25 10:09:49.52	342.63	16.16	-41.7	-44.3	18.1	0.00e+00	0	41	0	1146093568	54	5013
2026-01-25 10:09:53.51	342.66	15.72	-41.5	-44.1	18.3	0.00e+00	0	41	0	1153433600	54	4907
2026-01-25 10:09:57.49	342.69	15.29	-41.4	-44.2	18.3	0.00e+00	0	41	0	1160773632	54	4940
2026-01-25 10:10:01.47	342.72	14.87	-41.3	-44.2	18.3	0.00e+00	0	41	0	1169162240	54	4934
2026-01-25 10:10:05.45	342.74	14.45	-41.3	-44.1	18.3	0.00e+00	0	41	0	1176502272	54	4907
2026-01-25 10:10:09.43	342.77	14.04	-41.5	-44.2	18.2	0.00e+00	0	41	0	1183842304	54	4982
2026-01-25 10:10:13.41	342.80	13.64	-41.4	-44.3	18.1	0.00e+00	0	41	0	1191182336	54	5012
2026-01-25 10:10:17.39	342.83	13.24	-41.4	-44.4	18.1	0.00e+00	0	41	0	1198522368	54	5061
2026-01-25 10:10:21.36	342.85	12.85	-41.5	-44.5	17.9	0.00e+00	0	41	0	1205862400	54	5135
2026-01-25 10:10:25.41	342.88	12.46	-41.6	-44.5	17.9	0.00e+00	0	41	0	1213202432	54	5143
2026-01-25 10:10:29.39	342.90	12.09	-41.7	-44.6	17.8	0.00e+00	0	41	0	1220542464	54	5174
2026-01-25 10:10:33.37	342.93	11.71	-41.9	-45.0	17.4	0.00e+00	0	41	0	1228931072	54	5427
2026-01-25 10:10:37.37	342.96	11.35	-41.8	-45.0	17.4	0.00e+00	0	41	0	1236271104	54	5403
2026-01-25 10:10:41.35	342.98	10.99	-41.9	-45.2	17.2	0.00e+00	0	41	0	1243611136	54	5546
2026-01-25 10:10:45.33	343.01	10.63	-41.8	-45.2	17.2	0.00e+00	0	41	0	1250951168	54	5533
2026-01-25 10:10:49.31	343.03	10.28	-41.7	-45.3	17.1	0.00e+00	0	41	0	1258291200	54	5598
2026-01-25 10:10:53.30	343.06	9.93	-41.5	-45.2	17.1	0.00e+00	0	42	0	1265631232	54	5538
2026-01-25 10:10:57.44	343.08	9.58	-41.4	-45.3	17.0	0.00e+00	0	41	0	1274019840	54	5606
2026-01-25 10:11:01.91	343.11	9.20	-41.0	-45.3	17.0	0.00e+00	0	41	0	1282408448	54	5602
2026-01-25 10:11:05.90	343.13	8.87	-47.2	-63.7	3.8	1.49e+00	0	41	104	1287651328	65	24954
2026-01-25 10:11:09.88	343.16	8.54	-48.4	-64.1	3.8	1.49e+00	0	41	104	1287651328	67	23128
2026-01-25 10:11:13.87	343.18	8.22	-49.2	-64.4	3.8	1.49e+00	0	41	104	1287651328	68	22595
2026-01-25 10:11:17.87	343.21	7.90	-49.0	-64.4	3.8	1.49e+00	0	41	104	1287651328	69	21477
2026-01-25 10:11:21.85	343.23	7.59	-49.2	-64.4	3.8	1.49e+00	0	42	104	1287651328	69	21450
2026-01-25 10:11:25.84	343.25	7.28	-49.3	-64.5	3.8	1.49e+00	0	41	104	1287651328	69	21515
2026-01-25 10:11:29.81	343.28	6.97	-49.2	-64.4	3.8	1.49e+00	0	42	104	1287651328	69	21430
2026-01-25 10:11:33.80	343.30	6.67	-48.8	-64.4	3.8	1.49e+00	0	42	104	1287651328	69	21361
2026-01-25 10:11:37.79	343.32	6.37	-48.8	-64.4	3.8	1.49e+00	0	42	104	1287651328	69	21349
2026-01-25 10:11:41.78	343.35	6.07	-48.8	-64.3	3.8	1.49e+00	0	41	104	1287651328	69	21230
2026-01-25 10:11:45.79	343.37	5.77	-48.8	-64.4	3.8	1.49e+00	0	41	104	1287651328	69	21261
2026-01-25 10:11:49.77	343.39	5.48	-48.8	-64.4	3.8	1.49e+00	0	42	104	1287651328	69	21275
2026-01-25 10:11:53.76	343.41	5.20	-48.8	-64.3	3.8	1.49e+00	0	41	104	1287651328	69	21237

#Closed at: 2026-01-25 10:11:57
#Recorded file [1287 MB]: D:/Data/31040_260125_125859.dat