passes_logs/2026/01/25/T1/T1__20260125_104924_NOAA_21_JPSS-2_rec.log

#Pass ID: 20260125_104924_NOAA 21 (JPSS-2)
#Satellite: NOAA 21 (JPSS-2)
#Configuration: NOAA 21
#almurnet v.1.7.20251203
#Start time: 2026-01-25 10:49:26

#Version: 2.0.20230620
#Station: T1
#Location: 37.570604 lon 55.790049 lat
#TLE: 1 54234U 22150A   26024.45772595  .00000201  00000+0  11607-3 0  9996
#TLE: 2 54234  98.7508 325.2435 0000728 220.7365 139.3757 14.19538765166156

#Time	Az	El	Level	Level2	SNR	BER	BlckErr	Temp	State	Recorded	gain1	gain2
2026-01-25 10:49:26.78	188.93	5.16	-47.2	-61.6	3.8	1.49e+00	0	39	0	0	66	18454
2026-01-25 10:49:29.76	189.08	5.36	-47.2	-61.2	3.8	1.49e+00	0	39	104	0	65	18576
2026-01-25 10:49:32.74	189.24	5.57	-47.0	-61.1	3.8	1.49e+00	0	39	104	0	65	18334
2026-01-25 10:49:35.72	189.40	5.77	-47.2	-61.2	3.8	1.49e+00	0	39	104	0	65	18606
2026-01-25 10:49:38.70	189.56	5.98	-47.2	-61.1	3.8	1.49e+00	0	39	104	0	65	18500
2026-01-25 10:49:41.68	189.72	6.19	-47.1	-60.8	3.8	1.49e+00	0	39	104	0	65	17809
2026-01-25 10:49:44.66	189.89	6.40	-47.2	-61.0	3.8	1.49e+00	0	39	104	0	65	18178
2026-01-25 10:49:47.64	190.06	6.62	-47.2	-61.2	3.8	1.49e+00	0	39	104	0	65	18585
2026-01-25 10:49:50.62	190.23	6.83	-47.2	-61.1	3.8	1.49e+00	0	39	104	0	65	18397
2026-01-25 10:49:53.60	190.40	7.04	-47.1	-59.3	4.0	1.49e+00	0	39	104	0	65	14965
2026-01-25 10:49:56.58	190.57	7.26	-47.1	-60.0	3.8	1.49e+00	0	39	104	0	65	16246
2026-01-25 10:49:59.56	190.75	7.48	-47.1	-60.9	3.8	1.49e+00	0	39	104	0	65	18095
2026-01-25 10:50:02.54	190.93	7.70	-45.6	-51.4	8.9	6.76e-02	0	40	0	0	63	6767
2026-01-25 10:50:05.53	191.11	7.92	-42.7	-45.7	14.7	7.00e-07	0	39	0	0	57	4963
2026-01-25 10:50:08.51	191.30	8.15	-40.6	-43.0	17.2	0.00e+00	0	39	0	0	53	4553
2026-01-25 10:50:11.49	191.48	8.37	-40.8	-43.1	17.1	0.00e+00	0	39	0	0	53	4622
2026-01-25 10:50:14.47	191.68	8.60	-42.4	-45.3	14.9	0.00e+00	0	40	0	0	55	5339
2026-01-25 10:50:17.45	191.87	8.83	-44.9	-49.6	10.8	1.49e-03	0	40	0	0	60	6514
2026-01-25 10:50:20.43	192.07	9.06	-46.2	-53.5	6.9	2.05e-01	0	40	0	0	63	8617
2026-01-25 10:50:23.42	192.27	9.29	-46.6	-55.9	5.0	1.08e+00	0	39	104	0	64	10697
2026-01-25 10:50:26.41	192.47	9.53	-43.5	-46.9	13.6	7.60e-06	0	40	0	0	58	5400
2026-01-25 10:50:29.47	192.68	9.77	-43.1	-46.2	14.3	0.00e+00	0	40	0	0	57	5241
2026-01-25 10:50:32.39	192.88	10.01	-42.7	-45.5	14.9	7.00e-07	0	40	0	0	57	4867
2026-01-25 10:50:35.68	193.12	10.27	-42.4	-45.0	15.4	0.00e+00	0	40	0	0	56	4854
2026-01-25 10:50:38.48	193.32	10.50	-41.8	-44.3	16.0	0.00e+00	0	40	0	0	55	4732
2026-01-25 10:50:41.74	193.56	10.77	-41.3	-43.7	16.6	0.00e+00	0	40	0	0	54	4652
2026-01-25 10:50:44.70	193.78	11.02	-41.1	-43.3	16.8	0.00e+00	0	40	0	0	54	4492
2026-01-25 10:50:47.69	194.01	11.27	-41.2	-43.5	16.6	0.00e+00	0	40	0	0	54	4558
2026-01-25 10:50:50.67	194.24	11.52	-40.8	-43.0	17.1	0.00e+00	0	40	0	0	53	4570
2026-01-25 10:50:53.75	194.48	11.78	-40.5	-42.7	17.4	0.00e+00	0	40	0	0	52	4659
2026-01-25 10:50:56.70	194.72	12.03	-40.1	-42.1	18.0	0.00e+00	0	40	0	0	51	4634
2026-01-25 10:51:00.07	194.99	12.33	-39.7	-41.6	18.6	0.00e+00	0	40	0	0	51	4367
2026-01-25 10:51:02.79	195.22	12.56	-39.7	-41.6	18.6	0.00e+00	0	40	0	0	51	4359
2026-01-25 10:51:06.07	195.49	12.85	-39.3	-41.2	18.9	0.00e+00	0	40	0	0	50	4408
2026-01-25 10:51:08.78	195.72	13.09	-39.1	-41.0	18.5	0.00e+00	0	40	0	0	50	4332
2026-01-25 10:51:12.05	196.01	13.39	-38.5	-40.9	15.5	0.00e+00	0	40	0	0	48	4802
2026-01-25 10:51:14.86	196.26	13.64	-36.6	-40.6	10.6	1.50e-03	0	39	0	0	45	5477
2026-01-25 10:51:18.45	196.58	13.97	-34.5	-40.1	7.4	1.04e-01	0	40	0	0	40	6949
2026-01-25 10:51:21.15	196.83	14.22	-34.0	-40.1	6.9	1.52e-01	0	40	0	0	39	7296
2026-01-25 10:51:24.42	197.14	14.53	-34.0	-44.8	3.9	1.49e+00	0	40	104	0	40	11835
2026-01-25 10:51:27.16	197.40	14.79	-38.5	-44.0	7.7	1.28e-01	0	40	0	0	47	7224
2026-01-25 10:51:30.46	197.72	15.10	-39.9	-42.0	17.3	0.00e+00	0	40	0	0	51	4572
2026-01-25 10:51:33.18	197.99	15.36	-39.7	-41.7	17.7	0.00e+00	0	40	0	0	51	4431
2026-01-25 10:51:36.72	198.35	15.71	-39.5	-41.4	18.8	0.00e+00	0	40	0	0	51	4243
2026-01-25 10:51:39.42	198.63	15.97	-39.5	-41.4	18.7	0.00e+00	0	40	0	0	50	4505
2026-01-25 10:51:42.70	198.97	16.30	-39.6	-41.4	18.7	0.00e+00	0	40	0	0	50	4531
2026-01-25 10:51:45.49	199.27	16.57	-39.7	-41.6	18.6	0.00e+00	0	40	0	0	50	4638
2026-01-25 10:51:48.76	199.63	16.90	-39.7	-41.5	18.7	0.00e+00	0	40	0	0	50	4591
2026-01-25 10:51:51.48	199.93	17.18	-39.6	-41.5	18.6	0.00e+00	0	40	0	0	50	4573
2026-01-25 10:51:54.76	200.30	17.52	-39.7	-41.6	18.7	0.00e+00	0	40	0	0	50	4610
2026-01-25 10:51:57.48	200.62	17.80	-39.7	-41.6	18.6	0.00e+00	0	40	0	0	50	4647
2026-01-25 10:52:00.74	201.00	18.14	-39.9	-41.9	18.4	0.00e+00	0	40	0	0	50	4760
2026-01-25 10:52:03.62	201.35	18.45	-39.7	-41.6	18.7	0.00e+00	0	40	0	0	50	4604
2026-01-25 10:52:06.70	201.73	18.78	-39.6	-41.4	18.8	0.00e+00	0	40	0	0	50	4531
2026-01-25 10:52:09.83	202.12	19.11	-39.3	-41.1	19.2	0.00e+00	0	40	0	0	50	4347
2026-01-25 10:52:12.76	202.50	19.43	-39.3	-41.0	19.2	0.00e+00	0	39	0	0	50	4324
2026-01-25 10:52:15.98	202.92	19.79	-39.1	-40.8	19.4	0.00e+00	0	40	0	0	50	4216
2026-01-25 10:52:18.82	203.30	20.10	-38.7	-40.4	19.8	0.00e+00	0	40	0	0	49	4283
2026-01-25 10:52:21.94	203.73	20.45	-38.5	-40.2	20.0	0.00e+00	0	40	0	0	49	4164
2026-01-25 10:52:24.79	204.13	20.77	-38.4	-40.1	20.1	0.00e+00	0	40	0	0	48	4347
2026-01-25 10:52:27.91	204.57	21.13	-38.2	-39.9	20.2	0.00e+00	0	40	0	0	48	4254
2026-01-25 10:52:30.75	204.99	21.45	-38.2	-39.8	20.3	0.00e+00	0	40	0	0	48	4219
2026-01-25 10:52:33.88	205.45	21.82	-38.0	-39.7	20.4	0.00e+00	0	40	0	0	48	4160
2026-01-25 10:52:36.80	205.90	22.16	-37.8	-39.5	20.4	0.00e+00	0	40	0	0	47	4292
2026-01-25 10:52:40.07	206.41	22.55	-37.6	-39.2	20.6	0.00e+00	0	40	0	0	47	4190
2026-01-25 10:52:42.80	206.84	22.87	-37.8	-39.4	20.5	0.00e+00	0	40	0	0	47	4283
2026-01-25 10:52:46.08	207.38	23.26	-37.7	-39.3	20.7	0.00e+00	0	40	0	0	47	4238
2026-01-25 10:52:49.09	207.88	23.63	-37.7	-39.4	20.7	0.00e+00	0	40	0	0	47	4243
2026-01-25 10:52:52.07	208.39	23.99	-37.9	-39.5	20.5	0.00e+00	0	39	0	0	47	4338
2026-01-25 10:52:55.06	208.91	24.36	-38.0	-39.7	20.2	0.00e+00	0	40	0	0	47	4429
2026-01-25 10:52:58.04	209.44	24.73	-38.2	-39.9	20.2	0.00e+00	0	40	0	0	47	4507
2026-01-25 10:53:01.02	209.98	25.10	-38.3	-40.0	20.2	0.00e+00	0	40	0	0	47	4553
2026-01-25 10:53:04.00	210.54	25.48	-38.3	-40.0	20.2	0.00e+00	0	40	0	0	47	4580
2026-01-25 10:53:06.99	211.11	25.85	-38.3	-40.0	20.2	0.00e+00	0	40	0	0	47	4597
2026-01-25 10:53:09.98	211.70	26.23	-38.5	-40.2	19.9	0.00e+00	0	40	0	0	47	4704
2026-01-25 10:53:12.96	212.30	26.62	-38.6	-40.4	19.7	0.00e+00	0	39	0	0	47	4764
2026-01-25 10:53:15.95	212.91	27.00	-38.9	-40.6	19.7	0.00e+00	0	40	0	0	48	4645
2026-01-25 10:53:18.93	213.54	27.39	-39.4	-41.2	19.3	0.00e+00	0	39	0	0	49	4683
2026-01-25 10:53:21.92	214.18	27.77	-39.5	-41.3	19.2	0.00e+00	0	40	0	0	49	4719
2026-01-25 10:53:24.90	214.84	28.16	-39.7	-41.5	19.1	0.00e+00	0	40	0	0	50	4573
2026-01-25 10:53:27.89	215.51	28.55	-39.7	-41.5	19.0	0.00e+00	0	40	0	0	50	4594
2026-01-25 10:53:30.87	216.20	28.94	-39.5	-41.3	19.2	0.00e+00	0	39	0	0	50	4484
2026-01-25 10:53:33.85	216.91	29.34	-39.4	-41.2	19.4	0.00e+00	0	40	0	0	50	4425
2026-01-25 10:53:36.87	217.64	29.73	-39.1	-40.8	19.7	0.00e+00	0	40	0	0	50	4241
2026-01-25 10:53:39.99	218.42	30.15	-39.2	-40.9	19.7	0.00e+00	0	39	0	0	50	4273
2026-01-25 10:53:42.84	219.14	30.52	-39.2	-40.9	19.7	0.00e+00	0	40	0	0	50	4271
2026-01-25 10:53:45.96	219.96	30.93	-38.9	-40.6	20.0	0.00e+00	0	39	0	0	49	4379
2026-01-25 10:53:48.81	220.72	31.31	-39.0	-40.7	19.9	0.00e+00	0	40	0	0	49	4438
2026-01-25 10:53:52.01	221.59	31.73	-39.0	-40.7	19.9	0.00e+00	0	40	0	0	49	4423
2026-01-25 10:53:54.91	222.40	32.11	-39.4	-41.2	19.5	0.00e+00	0	40	0	0	49	4661
2026-01-25 10:53:58.03	223.30	32.52	-39.7	-41.5	19.2	0.00e+00	0	40	0	0	50	4561
2026-01-25 10:54:00.87	224.13	32.89	-39.6	-41.4	19.3	0.00e+00	0	40	0	0	50	4516
2026-01-25 10:54:04.00	225.08	33.29	-39.8	-41.6	19.2	0.00e+00	0	39	0	0	50	4614
2026-01-25 10:54:06.86	225.96	33.66	-40.0	-41.9	18.9	0.00e+00	0	40	0	0	50	4763
2026-01-25 10:54:10.11	226.98	34.07	-40.2	-42.0	18.8	0.00e+00	0	40	0	0	50	4837
2026-01-25 10:54:12.90	227.88	34.42	-40.5	-42.3	18.5	0.00e+00	0	40	0	0	51	4758
2026-01-25 10:54:16.03	228.91	34.81	-40.4	-42.3	18.7	0.00e+00	0	39	0	0	51	4746
2026-01-25 10:54:18.87	229.87	35.15	-40.4	-42.3	18.6	0.00e+00	0	39	0	0	51	4745
2026-01-25 10:54:21.99	230.94	35.53	-40.5	-42.4	18.4	0.00e+00	0	39	0	0	52	4529
2026-01-25 10:54:24.85	231.95	35.86	-40.6	-42.5	18.4	0.00e+00	0	39	0	0	52	4564
2026-01-25 10:54:28.12	233.13	36.24	-40.9	-42.8	18.1	0.00e+00	0	39	0	0	52	4751
2026-01-25 10:54:31.24	234.27	36.59	-40.8	-42.7	18.3	0.00e+00	0	39	0	0	52	4660
2026-01-25 10:54:34.09	235.34	36.91	-41.1	-43.1	17.9	0.00e+00	0	39	0	0	52	4893
2026-01-25 10:54:37.31	236.58	37.25	-41.0	-43.0	18.0	0.00e+00	0	39	0	0	52	4816
2026-01-25 10:54:40.15	237.68	37.55	-40.8	-42.7	18.2	0.00e+00	0	39	0	0	52	4688
2026-01-25 10:54:43.48	239.01	37.88	-41.1	-43.1	17.9	0.00e+00	0	40	0	0	52	4883
2026-01-25 10:54:46.37	240.18	38.16	-41.0	-43.0	17.9	0.00e+00	0	40	0	0	53	4566
2026-01-25 10:54:49.96	241.66	38.48	-40.9	-42.8	18.1	0.00e+00	0	40	0	0	53	4465
2026-01-25 10:54:52.70	242.81	38.72	-40.9	-42.8	18.2	0.00e+00	0	39	0	0	53	4467
2026-01-25 10:54:55.97	244.20	38.99	-41.5	-43.6	17.4	0.00e+00	0	39	0	0	53	4879
2026-01-25 10:54:58.75	245.40	39.21	-41.1	-43.1	18.0	0.00e+00	0	40	0	0	53	4610
2026-01-25 10:55:02.02	246.83	39.45	-41.5	-43.5	17.5	0.00e+00	0	40	0	0	53	4870
2026-01-25 10:55:04.72	248.03	39.63	-41.2	-43.1	17.8	0.00e+00	0	39	0	0	53	4644
2026-01-25 10:55:07.99	249.50	39.83	-41.3	-43.3	17.7	0.00e+00	0	39	0	0	53	4739
2026-01-25 10:55:10.70	250.73	39.99	-41.6	-43.6	17.4	0.00e+00	0	39	0	0	53	4919
2026-01-25 10:55:14.01	252.25	40.15	-41.4	-43.4	17.6	0.00e+00	0	40	0	0	54	4516
2026-01-25 10:55:16.71	253.50	40.28	-41.5	-43.5	17.6	0.00e+00	0	39	0	0	54	4574
2026-01-25 10:55:19.98	255.02	40.40	-41.5	-43.5	17.5	0.00e+00	0	40	0	0	54	4589
2026-01-25 10:55:22.71	256.30	40.49	-41.1	-43.1	17.9	0.00e+00	0	40	0	0	54	4347
2026-01-25 10:55:25.98	257.84	40.58	-41.3	-43.2	17.8	0.00e+00	0	39	0	0	54	4435
2026-01-25 10:55:28.77	259.16	40.63	-41.4	-43.4	17.6	0.00e+00	0	39	0	0	54	4501
2026-01-25 10:55:32.18	260.78	40.68	-41.8	-43.9	17.2	0.00e+00	0	39	0	0	54	4796
2026-01-25 10:55:35.17	262.20	40.70	-42.2	-44.4	16.6	0.00e+00	0	39	0	0	55	4766
2026-01-25 10:55:38.15	263.62	40.70	-41.6	-43.7	17.3	0.00e+00	0	39	0	0	55	4412
2026-01-25 10:55:41.14	265.04	40.68	-42.0	-44.1	17.0	0.00e+00	0	39	0	0	55	4606
2026-01-25 10:55:44.13	266.46	40.64	-41.6	-43.7	17.4	0.00e+00	0	39	0	0	55	4418
2026-01-25 10:55:47.11	267.87	40.58	-41.9	-44.0	17.1	0.00e+00	0	39	0	0	55	4554
2026-01-25 10:55:50.10	269.28	40.50	-41.7	-43.7	17.3	0.00e+00	0	39	0	0	55	4435
2026-01-25 10:55:53.08	270.68	40.41	-41.7	-43.8	17.2	0.00e+00	0	39	0	0	55	4454
2026-01-25 10:55:56.06	272.06	40.29	-41.4	-43.3	17.6	0.00e+00	0	39	0	0	54	4484
2026-01-25 10:55:59.18	273.51	40.15	-41.5	-43.5	17.6	0.00e+00	0	39	0	0	54	4562
2026-01-25 10:56:02.02	274.81	40.01	-41.9	-44.0	17.0	0.00e+00	0	39	0	0	54	4857
2026-01-25 10:56:05.15	276.23	39.84	-41.4	-43.4	17.7	0.00e+00	0	40	0	0	54	4511
2026-01-25 10:56:08.29	277.63	39.64	-41.5	-43.6	17.5	0.00e+00	0	39	0	0	54	4624
2026-01-25 10:56:11.31	278.97	39.44	-41.7	-43.7	17.4	0.00e+00	0	40	0	0	54	4679
2026-01-25 10:56:14.29	280.27	39.22	-40.9	-42.7	18.3	0.00e+00	0	39	0	0	53	4431
2026-01-25 10:56:17.28	281.56	38.99	-41.4	-43.4	17.7	0.00e+00	0	39	0	0	53	4766
2026-01-25 10:56:20.26	282.83	38.75	-40.3	-42.1	18.8	0.00e+00	0	39	0	0	52	4371
2026-01-25 10:56:23.24	284.08	38.49	-40.3	-42.1	18.9	0.00e+00	0	39	0	0	52	4348
2026-01-25 10:56:26.32	285.35	38.21	-41.2	-43.2	17.8	0.00e+00	0	39	0	0	53	4668
2026-01-25 10:56:29.84	286.77	37.87	-40.6	-42.4	18.4	0.00e+00	0	39	0	0	53	4279
2026-01-25 10:56:32.55	287.85	37.60	-40.5	-42.4	18.4	0.00e+00	0	39	0	0	52	4501
2026-01-25 10:56:35.82	289.12	37.27	-40.6	-42.5	18.5	0.00e+00	0	39	0	0	52	4577
2026-01-25 10:56:38.52	290.15	36.98	-40.4	-42.2	18.6	0.00e+00	0	39	0	0	52	4428
2026-01-25 10:56:42.07	291.48	36.59	-40.7	-42.6	18.2	0.00e+00	0	39	0	0	52	4603
2026-01-25 10:56:44.77	292.47	36.29	-40.8	-42.7	18.3	0.00e+00	0	39	0	0	52	4666
2026-01-25 10:56:48.04	293.65	35.92	-40.4	-42.2	18.6	0.00e+00	0	40	0	0	52	4439
2026-01-25 10:56:50.76	294.60	35.60	-40.4	-42.2	18.5	0.00e+00	0	39	0	0	52	4440
2026-01-25 10:56:54.14	295.77	35.19	-40.3	-42.2	18.7	0.00e+00	0	39	0	0	52	4414
2026-01-25 10:56:57.17	296.79	34.83	-40.4	-42.3	18.6	0.00e+00	0	39	0	0	52	4465
2026-01-25 10:57:00.49	297.88	34.42	-40.5	-42.3	18.6	0.00e+00	0	39	0	0	52	4481
2026-01-25 10:57:03.34	298.79	34.06	-40.6	-42.5	18.5	0.00e+00	0	39	0	0	52	4585
2026-01-25 10:57:06.47	299.77	33.67	-40.2	-42.0	18.9	0.00e+00	0	39	0	0	52	4340
2026-01-25 10:57:09.31	300.64	33.31	-40.2	-42.0	18.9	0.00e+00	0	39	0	0	52	4327
2026-01-25 10:57:12.44	301.58	32.91	-39.8	-41.6	19.4	0.00e+00	0	39	0	0	51	4358
2026-01-25 10:57:15.29	302.41	32.54	-39.8	-41.6	19.4	0.00e+00	0	39	0	0	51	4347
2026-01-25 10:57:18.42	303.31	32.13	-39.7	-41.4	19.5	0.00e+00	0	39	0	0	51	4288
2026-01-25 10:57:21.26	304.10	31.76	-39.8	-41.6	19.3	0.00e+00	0	39	0	0	51	4383
2026-01-25 10:57:24.58	305.01	31.33	-39.7	-41.5	19.4	0.00e+00	0	39	0	0	51	4314
2026-01-25 10:57:27.48	305.78	30.95	-40.0	-41.8	19.1	0.00e+00	0	39	0	0	51	4490
2026-01-25 10:57:30.61	306.59	30.54	-40.0	-41.8	19.1	0.00e+00	0	39	0	0	51	4474
2026-01-25 10:57:33.46	307.31	30.16	-40.1	-41.9	19.1	0.00e+00	0	39	0	0	51	4502
2026-01-25 10:57:36.59	308.09	29.75	-40.1	-41.9	19.0	0.00e+00	0	39	0	0	51	4538
2026-01-25 10:57:39.43	308.77	29.38	-39.8	-41.6	19.3	0.00e+00	0	39	0	0	51	4365
2026-01-25 10:57:42.62	309.52	28.97	-39.6	-41.4	19.5	0.00e+00	0	39	0	0	51	4271
2026-01-25 10:57:45.46	310.18	28.60	-39.6	-41.4	19.6	0.00e+00	0	39	0	0	51	4259
2026-01-25 10:57:48.59	310.88	28.19	-39.5	-41.3	19.6	0.00e+00	0	39	0	0	51	4222
2026-01-25 10:57:51.43	311.50	27.82	-39.2	-40.9	19.8	0.00e+00	0	39	0	0	50	4243
2026-01-25 10:57:54.56	312.18	27.42	-39.0	-40.7	20.1	0.00e+00	0	39	0	0	49	4417
2026-01-25 10:57:57.43	312.78	27.05	-39.0	-40.7	20.0	0.00e+00	0	39	0	0	49	4437
2026-01-25 10:58:00.55	313.41	26.65	-38.7	-40.5	20.2	0.00e+00	0	39	0	0	49	4327
2026-01-25 10:58:03.39	313.98	26.29	-38.8	-40.6	20.1	0.00e+00	0	39	0	0	49	4364
2026-01-25 10:58:06.52	314.59	25.90	-38.6	-40.3	20.5	0.00e+00	0	40	0	0	49	4207
2026-01-25 10:58:09.37	315.14	25.54	-38.7	-40.4	20.3	0.00e+00	0	39	0	0	49	4284
2026-01-25 10:58:12.54	315.73	25.14	-38.6	-40.3	20.5	0.00e+00	0	39	0	0	49	4215
2026-01-25 10:58:15.46	316.26	24.78	-38.6	-40.3	20.5	0.00e+00	0	40	0	0	49	4198
2026-01-25 10:58:18.59	316.82	24.40	-38.7	-40.4	20.2	0.00e+00	0	39	0	0	49	4270
2026-01-25 10:58:21.43	317.31	24.05	-38.9	-40.7	20.1	0.00e+00	0	39	0	0	49	4393
2026-01-25 10:58:24.56	317.84	23.67	-38.7	-40.4	20.4	0.00e+00	0	40	0	0	49	4251
2026-01-25 10:58:27.40	318.31	23.33	-39.0	-40.7	20.0	0.00e+00	0	39	0	0	49	4423
2026-01-25 10:58:30.53	318.82	22.96	-39.3	-41.1	19.8	0.00e+00	0	40	0	0	49	4599
2026-01-25 10:58:33.47	319.29	22.61	-39.2	-41.0	19.8	0.00e+00	0	39	0	0	49	4571
2026-01-25 10:58:36.59	319.77	22.24	-39.5	-41.4	19.5	0.00e+00	0	39	0	0	49	4802
2026-01-25 10:58:39.43	320.21	21.91	-39.6	-41.5	19.4	0.00e+00	0	39	0	0	49	4838
2026-01-25 10:58:42.56	320.67	21.55	-39.4	-41.2	19.7	0.00e+00	0	39	0	0	50	4396
2026-01-25 10:58:45.40	321.09	21.23	-39.4	-41.3	19.6	0.00e+00	0	39	0	0	50	4449
2026-01-25 10:58:48.52	321.53	20.88	-39.5	-41.4	19.6	0.00e+00	0	39	0	0	50	4494
2026-01-25 10:58:51.36	321.93	20.56	-39.1	-40.8	20.0	0.00e+00	0	39	0	0	50	4229
2026-01-25 10:58:54.49	322.36	20.21	-39.0	-40.7	20.0	0.00e+00	0	39	0	0	50	4185
2026-01-25 10:58:57.42	322.75	19.89	-39.0	-40.8	20.0	0.00e+00	0	39	0	0	50	4209
2026-01-25 10:59:00.69	323.18	19.53	-39.0	-40.7	20.1	0.00e+00	0	39	0	0	49	4428
2026-01-25 10:59:03.41	323.53	19.24	-39.1	-40.8	20.0	0.00e+00	0	39	0	0	49	4475
2026-01-25 10:59:06.94	323.97	18.86	-39.1	-40.9	19.9	0.00e+00	0	39	0	0	49	4498
2026-01-25 10:59:09.70	324.31	18.57	-39.3	-41.0	19.8	0.00e+00	0	39	0	0	49	4593
2026-01-25 10:59:13.00	324.71	18.22	-39.3	-41.0	19.8	0.00e+00	0	39	0	0	49	4581
2026-01-25 10:59:15.71	325.03	17.94	-39.2	-40.9	19.9	0.00e+00	0	39	0	0	49	4521
2026-01-25 10:59:19.06	325.42	17.59	-39.2	-40.9	19.8	0.00e+00	0	39	0	0	49	4539
2026-01-25 10:59:21.87	325.74	17.31	-39.2	-41.1	19.7	0.00e+00	0	39	0	0	49	4629
2026-01-25 10:59:25.27	326.11	16.96	-39.3	-41.2	19.6	0.00e+00	0	39	0	0	49	4675
2026-01-25 10:59:27.99	326.41	16.69	-39.5	-41.4	19.5	0.00e+00	0	39	0	0	49	4762
2026-01-25 10:59:31.27	326.76	16.37	-39.6	-41.5	19.3	0.00e+00	0	39	0	0	49	4831
2026-01-25 10:59:33.99	327.05	16.10	-39.7	-41.7	19.1	0.00e+00	0	39	0	0	50	4658
2026-01-25 10:59:37.26	327.39	15.78	-39.9	-41.8	19.0	0.00e+00	0	39	0	0	50	4753
2026-01-25 10:59:40.11	327.67	15.51	-39.9	-41.8	19.1	0.00e+00	0	39	0	0	50	4717
2026-01-25 10:59:43.32	327.99	15.20	-40.0	-41.8	19.0	0.00e+00	0	40	0	0	50	4750
2026-01-25 10:59:46.17	328.27	14.93	-40.1	-41.9	19.0	0.00e+00	0	39	0	0	50	4793
2026-01-25 10:59:49.37	328.58	14.63	-40.1	-41.9	18.5	0.00e+00	0	39	0	0	50	4788
2026-01-25 10:59:52.21	328.85	14.37	-40.0	-41.9	18.7	0.00e+00	0	39	0	0	51	4518
2026-01-25 10:59:55.62	329.16	14.06	-40.2	-42.1	18.8	0.00e+00	0	39	0	0	51	4603
2026-01-25 10:59:58.36	329.41	13.81	-40.1	-42.0	18.9	0.00e+00	0	39	0	0	51	4556
2026-01-25 11:00:01.64	329.70	13.51	-40.2	-42.1	18.7	0.00e+00	0	39	0	0	51	4618
2026-01-25 11:00:04.34	329.94	13.27	-40.3	-42.2	18.6	0.00e+00	0	39	0	0	51	4671
2026-01-25 11:00:07.76	330.23	12.97	-40.3	-42.2	18.6	0.00e+00	0	39	0	0	51	4658
2026-01-25 11:00:10.55	330.47	12.72	-40.3	-42.3	18.4	0.00e+00	0	39	0	0	51	4713
2026-01-25 11:00:13.83	330.74	12.44	-40.4	-42.3	18.4	0.00e+00	0	39	0	0	51	4744
2026-01-25 11:00:16.53	330.96	12.21	-40.4	-42.3	18.4	0.00e+00	0	39	0	0	51	4732
2026-01-25 11:00:19.79	331.22	11.93	-40.4	-42.3	18.5	0.00e+00	0	39	0	0	51	4722
2026-01-25 11:00:22.82	331.46	11.67	-40.4	-42.3	18.6	0.00e+00	0	39	0	0	51	4708
2026-01-25 11:00:26.09	331.72	11.40	-40.4	-42.4	18.4	0.00e+00	0	39	0	0	51	4764
2026-01-25 11:00:28.90	331.93	11.16	-40.4	-42.3	18.5	0.00e+00	0	39	0	0	51	4733
2026-01-25 11:00:32.03	332.17	10.91	-40.4	-42.3	18.4	0.00e+00	0	39	0	0	51	4759
2026-01-25 11:00:34.87	332.38	10.67	-40.6	-42.6	18.2	0.00e+00	0	39	0	0	51	4878
2026-01-25 11:00:38.10	332.62	10.41	-40.7	-42.7	18.0	0.00e+00	0	39	0	0	52	4687
2026-01-25 11:00:41.42	332.85	10.15	-40.9	-43.0	17.7	0.00e+00	0	39	0	0	52	4860
2026-01-25 11:00:44.16	333.05	9.93	-41.1	-43.3	17.4	0.00e+00	0	39	0	0	52	5010
2026-01-25 11:00:47.43	333.28	9.67	-41.1	-43.3	17.4	0.00e+00	0	39	0	0	53	4721
2026-01-25 11:00:50.15	333.46	9.46	-41.1	-43.3	17.4	0.00e+00	0	39	0	0	53	4750
2026-01-25 11:00:53.77	333.71	9.18	-41.1	-43.3	17.4	0.00e+00	0	39	0	0	53	4717
2026-01-25 11:00:56.61	333.90	8.96	-42.2	-44.7	16.1	0.00e+00	0	39	0	0	55	4974
2026-01-25 11:01:00.58	334.15	8.66	-49.1	-62.7	3.8	1.49e+00	0	39	104	0	68	18589
2026-01-25 11:01:03.51	334.34	8.43	-49.2	-62.8	3.8	1.49e+00	0	39	104	0	69	17840
2026-01-25 11:01:07.20	334.58	8.16	-49.7	-62.9	3.8	1.49e+00	0	39	104	0	70	17036
2026-01-25 11:01:10.17	334.76	7.94	-49.6	-62.9	3.8	1.49e+00	0	39	104	0	70	16991
2026-01-25 11:01:14.09	335.00	7.65	-49.8	-62.9	3.8	1.49e+00	0	39	104	0	70	16976
2026-01-25 11:01:16.93	335.17	7.44	-49.7	-62.8	3.8	1.49e+00	0	39	104	0	70	16825
2026-01-25 11:01:20.90	335.41	7.16	-49.5	-62.8	3.8	1.49e+00	0	39	104	0	70	16770
2026-01-25 11:01:23.74	335.57	6.95	-49.5	-62.8	3.8	1.49e+00	0	39	104	0	70	16740
2026-01-25 11:01:27.71	335.80	6.67	-49.5	-62.7	3.8	1.49e+00	0	39	104	0	70	16687
2026-01-25 11:01:30.55	335.96	6.47	-49.5	-62.7	3.8	1.49e+00	0	39	104	0	70	16637
2026-01-25 11:01:34.53	336.19	6.19	-49.5	-62.8	3.8	1.49e+00	0	39	104	0	70	16718
2026-01-25 11:01:37.36	336.34	6.00	-49.5	-62.7	3.8	1.49e+00	0	39	104	0	70	16622
2026-01-25 11:01:41.34	336.56	5.72	-49.5	-62.7	3.8	1.49e+00	0	39	104	0	70	16661
2026-01-25 11:01:44.17	336.71	5.53	-49.5	-62.7	3.8	1.49e+00	0	39	104	0	70	16655
2026-01-25 11:01:48.15	336.92	5.26	-49.5	-62.8	3.8	1.49e+00	0	39	104	0	70	16719
2026-01-25 11:01:50.99	337.07	5.07	-49.5	-62.8	3.8	1.49e+00	0	39	104	0	70	16727

#Closed at: 2026-01-25 11:01:53
#Recorded file [0 MB]: D:/Data/31040_260125_134926.dat