passes_logs/2026/01/25/T1/T1__20260125_093831_SUOMI_NPP_rec.log

#Pass ID: 20260125_093831_SUOMI NPP
#Satellite: SUOMI NPP
#Configuration: NPP
#almurnet v.1.7.20251203
#Start time: 2026-01-25 09:38:32

#Version: 2.0.20230620
#Station: T1
#Location: 37.570604 lon 55.790049 lat
#TLE: 1 37849U 11061A   26024.54906732  .00000185  00000+0  10878-3 0  9990
#TLE: 2 37849  98.7821 326.5159 0002200  47.3746 312.7615 14.19529340738061

#Time	Az	El	Level	Level2	SNR	BER	BlckErr	Temp	State	Recorded	gain1	gain2
2026-01-25 09:38:32.35	148.87	5.05	-48.1	-62.9	3.8	1.49e+00	0	37	0	0	68	19015
2026-01-25 09:38:36.31	148.80	5.33	-48.1	-63.2	3.8	1.49e+00	0	38	104	0	68	19616
2026-01-25 09:38:40.29	148.73	5.62	-48.1	-63.0	3.8	1.49e+00	0	38	104	0	68	19297
2026-01-25 09:38:44.26	148.65	5.91	-48.0	-62.2	3.8	1.49e+00	0	38	104	0	68	17506
2026-01-25 09:38:48.23	148.57	6.21	-48.0	-62.0	3.8	1.49e+00	0	38	104	0	68	17159
2026-01-25 09:38:52.20	148.49	6.50	-48.1	-63.2	3.8	1.49e+00	0	38	104	0	68	19675
2026-01-25 09:38:56.18	148.41	6.81	-48.0	-63.1	3.8	1.49e+00	0	39	104	0	68	19470
2026-01-25 09:39:00.15	148.33	7.11	-48.0	-61.8	3.8	1.49e+00	0	39	104	0	68	16859
2026-01-25 09:39:04.12	148.24	7.42	-47.4	-57.3	5.2	8.60e-01	0	39	0	2097152	66	11161
2026-01-25 09:39:08.10	148.16	7.73	-46.0	-51.6	10.3	1.58e-02	0	39	0	9437184	64	6528
2026-01-25 09:39:12.07	148.07	8.05	-44.5	-48.5	13.6	1.37e-05	0	39	0	16777216	61	5413
2026-01-25 09:39:16.04	147.97	8.37	-44.3	-48.1	14.0	7.00e-07	0	39	0	24117248	60	5502
2026-01-25 09:39:20.01	147.88	8.69	-45.5	-50.3	11.7	2.72e-04	0	39	0	31457280	61	6708
2026-01-25 09:39:23.98	147.78	9.02	-47.0	-55.1	6.8	1.36e-01	0	39	0	38797312	64	9818
2026-01-25 09:39:27.97	147.68	9.36	-46.8	-53.7	8.3	6.53e-01	0	39	0	44040192	65	7849
2026-01-25 09:39:31.95	147.58	9.69	-43.0	-46.0	16.0	0.00e+00	0	39	0	51380224	58	4867
2026-01-25 09:39:35.92	147.48	10.04	-41.8	-44.5	17.4	0.00e+00	0	39	0	58720256	55	4821
2026-01-25 09:39:39.95	147.37	10.39	-41.2	-43.8	18.1	0.00e+00	0	39	0	66060288	54	4730
2026-01-25 09:39:43.93	147.26	10.74	-41.1	-43.5	18.4	0.00e+00	0	40	0	73400320	54	4590
2026-01-25 09:39:47.91	147.15	11.10	-40.8	-43.2	18.7	0.00e+00	0	40	0	81788928	53	4683
2026-01-25 09:39:51.95	147.03	11.46	-40.8	-43.2	18.8	0.00e+00	0	40	0	89128960	53	4662
2026-01-25 09:39:55.95	146.91	11.83	-40.2	-42.4	19.5	0.00e+00	0	40	0	96468992	52	4518
2026-01-25 09:39:59.93	146.79	12.21	-40.1	-42.2	19.7	0.00e+00	0	40	0	103809024	51	4703
2026-01-25 09:40:04.02	146.66	12.60	-40.2	-42.5	19.4	0.00e+00	0	40	0	111149056	51	4859
2026-01-25 09:40:08.06	146.53	12.99	-40.8	-43.3	18.7	0.00e+00	0	40	0	119537664	52	5004
2026-01-25 09:40:12.03	146.40	13.38	-40.9	-43.4	18.6	0.00e+00	0	40	0	126877696	52	5086
2026-01-25 09:40:16.01	146.26	13.77	-40.6	-42.9	19.1	0.00e+00	0	40	0	134217728	52	4813
2026-01-25 09:40:19.99	146.12	14.18	-40.3	-42.6	19.3	0.00e+00	0	40	0	141557760	52	4624
2026-01-25 09:40:23.97	145.97	14.59	-40.2	-42.4	19.5	0.00e+00	0	40	0	148897792	52	4520
2026-01-25 09:40:27.95	145.82	15.00	-40.2	-42.4	19.6	0.00e+00	0	40	0	156237824	52	4513
2026-01-25 09:40:31.87	145.67	15.42	-40.5	-42.8	19.2	0.00e+00	0	40	0	163577856	52	4757
2026-01-25 09:40:35.85	145.51	15.85	-40.5	-42.8	19.2	0.00e+00	0	40	0	170917888	52	4753
2026-01-25 09:40:39.88	145.35	16.30	-40.1	-42.2	19.7	0.00e+00	0	40	0	178257920	52	4431
2026-01-25 09:40:43.82	145.18	16.74	-39.6	-41.6	20.3	0.00e+00	0	40	0	185597952	51	4374
2026-01-25 09:40:47.80	145.00	17.20	-40.5	-42.8	19.3	0.00e+00	0	40	0	193986560	51	4998
2026-01-25 09:40:51.78	144.82	17.66	-40.7	-43.2	18.9	0.00e+00	0	40	0	201326592	52	4930
2026-01-25 09:40:55.75	144.64	18.13	-40.1	-42.2	19.7	0.00e+00	0	40	0	208666624	52	4430
2026-01-25 09:40:59.73	144.44	18.61	-39.7	-41.8	20.3	0.00e+00	0	40	0	216006656	51	4446
2026-01-25 09:41:03.72	144.25	19.10	-40.9	-43.4	18.7	0.00e+00	0	40	0	223346688	52	5049
2026-01-25 09:41:07.70	144.04	19.60	-41.2	-43.8	18.4	0.00e+00	0	40	0	230686720	53	4984
2026-01-25 09:41:11.74	143.82	20.12	-40.4	-42.7	19.4	0.00e+00	0	40	0	238026752	52	4660
2026-01-25 09:41:15.70	143.60	20.63	-40.1	-42.3	19.8	0.00e+00	0	40	0	246415360	51	4720
2026-01-25 09:41:19.68	143.37	21.16	-40.8	-43.1	19.0	0.00e+00	0	40	0	253755392	52	4904
2026-01-25 09:41:23.67	143.14	21.70	-40.6	-42.8	19.3	0.00e+00	0	40	0	261095424	52	4721
2026-01-25 09:41:27.74	142.88	22.27	-41.2	-43.6	18.5	0.00e+00	0	40	0	268435456	53	4914
2026-01-25 09:41:31.72	142.63	22.83	-41.6	-44.2	17.7	0.00e+00	0	40	0	275775488	54	4953
2026-01-25 09:41:35.70	142.36	23.41	-41.0	-43.4	18.8	0.00e+00	0	40	0	283115520	53	4768
2026-01-25 09:41:39.68	142.09	24.00	-41.7	-44.3	17.9	0.00e+00	0	40	0	290455552	54	5008
2026-01-25 09:41:43.69	141.80	24.60	-41.9	-44.4	17.8	0.00e+00	0	40	0	298844160	55	4793
2026-01-25 09:41:47.74	141.49	25.23	-41.5	-43.9	18.3	0.00e+00	0	40	0	306184192	54	4799
2026-01-25 09:41:51.73	141.18	25.85	-42.0	-44.6	17.6	0.00e+00	0	40	0	313524224	54	5216
2026-01-25 09:41:55.73	140.85	26.50	-41.7	-44.1	18.1	0.00e+00	0	40	0	320864256	54	4918
2026-01-25 09:41:59.73	140.51	27.16	-42.0	-44.6	17.8	0.00e+00	0	40	0	328204288	54	5177
2026-01-25 09:42:03.93	140.14	27.87	-41.6	-44.0	18.2	0.00e+00	0	40	0	336592896	55	4566
2026-01-25 09:42:07.91	139.77	28.56	-41.8	-44.2	18.0	0.00e+00	0	40	0	343932928	54	4954
2026-01-25 09:42:11.89	139.38	29.26	-42.8	-45.5	17.0	0.00e+00	0	40	0	351272960	56	5137
2026-01-25 09:42:16.20	138.94	30.04	-43.2	-46.1	16.5	0.00e+00	0	40	0	359661568	57	5185
2026-01-25 09:42:20.18	138.52	30.78	-42.9	-45.6	16.8	0.00e+00	0	40	0	367001600	57	4922
2026-01-25 09:42:24.15	138.07	31.53	-43.8	-46.9	15.6	0.00e+00	0	40	0	374341632	58	5377
2026-01-25 09:42:28.21	137.59	32.32	-43.9	-47.0	15.6	0.00e+00	0	40	0	381681664	59	5119
2026-01-25 09:42:32.19	137.10	33.11	-43.2	-46.1	16.2	0.00e+00	0	40	0	389021696	57	5196
2026-01-25 09:42:36.17	136.58	33.93	-44.7	-48.5	14.1	0.00e+00	0	41	0	396361728	60	5749
2026-01-25 09:42:40.21	136.03	34.77	-44.4	-48.0	14.5	0.00e+00	0	40	0	404750336	59	5767
2026-01-25 09:42:44.44	135.42	35.67	-45.4	-49.8	12.9	2.36e-05	0	40	0	412090368	61	6276
2026-01-25 09:42:48.42	134.81	36.54	-44.6	-48.3	14.4	7.00e-07	0	40	0	419430400	60	5595
2026-01-25 09:42:52.46	134.15	37.44	-43.2	-46.1	16.4	0.00e+00	0	41	0	427819008	57	5212
2026-01-25 09:42:56.49	133.47	38.36	-43.1	-45.9	16.7	0.00e+00	0	40	0	435159040	57	5086
2026-01-25 09:43:00.47	132.74	39.29	-42.6	-45.2	17.3	0.00e+00	0	40	0	442499072	57	4679
2026-01-25 09:43:04.46	131.98	40.25	-42.7	-45.4	17.2	0.00e+00	0	41	0	449839104	56	5052
2026-01-25 09:43:08.49	131.15	41.23	-42.9	-45.7	16.9	0.00e+00	0	40	0	457179136	57	4938
2026-01-25 09:43:12.61	130.26	42.25	-42.5	-45.1	17.5	0.00e+00	0	41	0	465567744	56	4896
2026-01-25 09:43:16.73	129.30	43.30	-43.1	-46.0	16.6	0.00e+00	0	41	0	472907776	57	5122
2026-01-25 09:43:20.74	128.31	44.33	-43.4	-46.4	16.2	0.00e+00	0	40	0	480247808	57	5342
2026-01-25 09:43:24.76	127.25	45.39	-42.2	-44.7	17.8	0.00e+00	0	40	0	487587840	56	4693
2026-01-25 09:43:28.91	126.07	46.50	-42.2	-44.7	17.7	0.00e+00	0	41	0	495976448	55	4980
2026-01-25 09:43:32.91	124.86	47.58	-41.5	-43.9	18.4	0.00e+00	0	40	0	503316480	54	4768
2026-01-25 09:43:36.93	123.55	48.68	-41.7	-44.2	18.1	0.00e+00	0	40	0	510656512	55	4689
2026-01-25 09:43:41.01	122.11	49.80	-41.1	-43.4	18.9	0.00e+00	0	41	0	517996544	53	4788
2026-01-25 09:43:45.24	120.51	50.98	-40.0	-42.1	20.1	0.00e+00	0	41	0	526385152	52	4343
2026-01-25 09:43:49.22	118.89	52.09	-40.9	-43.2	19.1	0.00e+00	0	41	0	533725184	52	4944
2026-01-25 09:43:53.20	117.13	53.20	-40.3	-42.3	19.9	0.00e+00	0	41	0	541065216	52	4490
2026-01-25 09:43:57.11	115.27	54.28	-41.6	-44.1	18.4	0.00e+00	0	40	0	548405248	53	5170
2026-01-25 09:44:01.10	113.23	55.38	-41.1	-43.4	18.9	0.00e+00	0	41	0	555745280	53	4794
2026-01-25 09:44:05.08	111.02	56.45	-40.9	-43.2	19.1	0.00e+00	0	41	0	563085312	52	4981
2026-01-25 09:44:09.05	108.65	57.50	-41.8	-44.3	18.1	0.00e+00	0	41	0	570425344	54	5006
2026-01-25 09:44:13.03	106.08	58.52	-41.1	-43.4	18.9	0.00e+00	0	41	0	578813952	53	4787
2026-01-25 09:44:17.01	103.30	59.50	-41.5	-43.9	18.6	0.00e+00	0	40	0	586153984	55	4494
2026-01-25 09:44:20.99	100.32	60.42	-40.6	-42.8	19.5	0.00e+00	0	41	0	593494016	53	4465
2026-01-25 09:44:24.97	97.12	61.29	-39.9	-42.0	20.3	0.00e+00	0	41	0	600834048	51	4573
2026-01-25 09:44:28.95	93.70	62.08	-40.1	-42.3	20.0	0.00e+00	0	41	0	608174080	51	4712
2026-01-25 09:44:32.94	90.05	62.78	-39.3	-41.3	20.9	0.00e+00	0	41	0	615514112	50	4459
2026-01-25 09:44:36.95	86.18	63.40	-38.4	-40.4	21.7	0.00e+00	0	41	0	622854144	48	4499
2026-01-25 09:44:40.92	82.16	63.90	-40.2	-42.4	19.9	0.00e+00	0	41	0	630194176	51	4773
2026-01-25 09:44:44.90	77.98	64.28	-39.3	-41.3	20.9	0.00e+00	0	41	0	638582784	50	4453
2026-01-25 09:44:48.85	73.71	64.54	-38.0	-39.8	22.0	0.00e+00	0	41	0	645922816	47	4482
2026-01-25 09:44:52.86	69.30	64.66	-38.4	-40.3	21.6	0.00e+00	0	41	0	653262848	47	4757
2026-01-25 09:44:56.84	64.90	64.66	-39.3	-41.4	20.9	0.00e+00	0	41	0	660602880	49	4760
2026-01-25 09:45:00.83	60.52	64.51	-38.0	-39.8	22.0	0.00e+00	0	41	0	667942912	47	4479
2026-01-25 09:45:04.85	56.19	64.24	-40.0	-42.1	20.3	0.00e+00	0	41	0	675282944	50	4908
2026-01-25 09:45:09.03	51.82	63.82	-39.8	-41.9	20.4	0.00e+00	0	41	0	683671552	50	4767
2026-01-25 09:45:13.01	47.83	63.30	-39.6	-41.6	20.7	0.00e+00	0	41	0	691011584	50	4613
2026-01-25 09:45:16.99	44.02	62.68	-39.0	-40.9	21.3	0.00e+00	0	41	0	698351616	48	4788
2026-01-25 09:45:21.01	40.39	61.95	-40.2	-42.3	20.1	0.00e+00	0	41	0	705691648	50	5040
2026-01-25 09:45:25.00	37.00	61.14	-42.9	-45.7	16.9	0.00e+00	0	41	0	713031680	57	4954
2026-01-25 09:45:28.97	33.85	60.27	-42.1	-44.7	17.8	0.00e+00	0	41	0	720371712	54	5226
2026-01-25 09:45:32.95	30.91	59.34	-43.6	-46.6	16.1	0.00e+00	0	41	0	728760320	58	5180
2026-01-25 09:45:37.29	27.94	58.27	-42.1	-44.6	17.9	0.00e+00	0	41	0	736100352	54	5186
2026-01-25 09:45:41.27	25.43	57.24	-42.6	-45.2	17.4	0.00e+00	0	41	0	743440384	57	4652
2026-01-25 09:45:45.29	23.08	56.17	-43.7	-46.7	16.1	0.00e+00	0	41	0	751828992	59	4962
2026-01-25 09:45:49.20	20.96	55.12	-43.2	-46.1	16.6	0.00e+00	0	41	0	759169024	57	5173
2026-01-25 09:45:53.18	18.96	54.02	-41.2	-43.5	19.0	0.00e+00	0	41	0	766509056	54	4560
2026-01-25 09:45:57.12	17.13	52.93	-41.9	-44.4	18.1	0.00e+00	0	41	0	773849088	55	4775
2026-01-25 09:46:01.13	15.40	51.82	-41.4	-43.8	18.6	0.00e+00	0	41	0	781189120	54	4748
2026-01-25 09:46:05.13	13.80	50.71	-41.2	-43.6	18.8	0.00e+00	0	41	0	788529152	54	4616
2026-01-25 09:46:09.78	12.09	49.42	-42.9	-45.6	17.1	0.00e+00	0	41	0	796917760	56	5211
2026-01-25 09:46:14.33	10.55	48.18	-40.8	-43.1	19.3	0.00e+00	0	41	0	805306368	52	4875
2026-01-25 09:46:18.96	9.10	46.92	-41.9	-44.4	18.1	0.00e+00	0	41	0	814743552	54	5071
2026-01-25 09:46:23.08	7.91	45.82	-43.1	-45.9	16.6	0.00e+00	0	41	0	822083584	58	4771
2026-01-25 09:46:27.07	6.83	44.78	-43.0	-45.8	16.8	0.00e+00	0	41	0	829423616	57	5012
2026-01-25 09:46:31.07	5.82	43.74	-42.0	-44.7	17.7	0.00e+00	0	41	0	836763648	55	4929
2026-01-25 09:46:35.05	4.87	42.73	-43.0	-45.9	16.7	0.00e+00	0	41	0	845152256	56	5382
2026-01-25 09:46:39.03	3.99	41.73	-45.2	-49.1	13.6	9.90e-06	0	41	0	852492288	62	5492
2026-01-25 09:46:43.21	3.11	40.71	-43.3	-46.2	16.4	0.00e+00	0	41	0	859832320	58	4979
2026-01-25 09:46:47.25	2.32	39.74	-43.3	-46.2	16.4	0.00e+00	0	41	0	867172352	57	5240
2026-01-25 09:46:51.23	1.59	38.81	-45.1	-48.9	13.8	2.20e-06	0	41	0	874512384	60	6058
2026-01-25 09:46:55.56	0.83	37.82	-44.7	-48.5	14.2	0.00e+00	0	41	0	882900992	60	5773
2026-01-25 09:46:59.54	0.18	36.92	-44.0	-47.6	15.1	0.00e+00	0	41	0	890241024	59	5472
2026-01-25 09:47:03.49	359.57	36.06	-42.0	-44.5	17.8	0.00e+00	0	41	0	897581056	56	4589
2026-01-25 09:47:07.47	358.98	35.20	-42.7	-45.4	17.2	0.00e+00	0	41	0	904921088	56	5064
2026-01-25 09:47:11.44	358.43	34.37	-44.1	-47.4	15.0	0.00e+00	0	41	0	913309696	59	5364
2026-01-25 09:47:15.46	357.90	33.55	-42.9	-45.7	16.8	0.00e+00	0	41	0	920649728	56	5272
2026-01-25 09:47:19.45	357.40	32.75	-43.0	-45.9	16.6	0.00e+00	0	41	0	927989760	57	5067
2026-01-25 09:47:23.44	356.92	31.97	-44.0	-47.3	15.4	0.00e+00	0	41	0	935329792	58	5626
2026-01-25 09:47:27.41	356.47	31.21	-42.4	-45.0	17.6	0.00e+00	0	41	0	942669824	56	4846
2026-01-25 09:47:31.40	356.03	30.47	-43.4	-46.5	16.2	0.00e+00	0	41	0	950009856	57	5413
2026-01-25 09:47:35.45	355.61	29.73	-44.3	-47.8	14.6	0.00e+00	0	41	0	958398464	60	5340
2026-01-25 09:47:39.43	355.22	29.02	-44.0	-47.2	15.4	0.00e+00	0	41	0	965738496	59	5255
2026-01-25 09:47:43.41	354.84	28.33	-44.5	-48.0	14.5	0.00e+00	0	41	0	973078528	59	5781
2026-01-25 09:47:47.39	354.48	27.65	-43.7	-46.8	15.8	0.00e+00	0	41	0	980418560	59	5032
2026-01-25 09:47:51.37	354.14	26.99	-43.4	-46.4	16.2	0.00e+00	0	41	0	987758592	58	5083
2026-01-25 09:47:55.37	353.81	26.34	-43.2	-46.2	16.3	0.00e+00	0	41	0	995098624	57	5274
2026-01-25 09:47:59.41	353.49	25.70	-42.9	-45.8	16.7	0.00e+00	0	41	0	1002438656	57	5025
2026-01-25 09:48:03.39	353.18	25.08	-42.4	-45.0	17.5	0.00e+00	0	41	0	1010827264	56	4830
2026-01-25 09:48:07.37	352.89	24.47	-42.4	-45.2	17.4	0.00e+00	0	41	0	1018167296	56	4927
2026-01-25 09:48:11.44	352.61	23.86	-43.6	-47.0	15.6	0.00e+00	0	41	0	1025507328	58	5446
2026-01-25 09:48:15.55	352.33	23.27	-43.9	-47.4	15.2	0.00e+00	0	41	0	1032847360	59	5380
2026-01-25 09:48:19.52	352.07	22.70	-43.3	-46.4	16.2	0.00e+00	0	41	0	1040187392	58	5052
2026-01-25 09:48:23.50	351.82	22.14	-42.9	-45.9	16.5	0.00e+00	0	41	0	1047527424	57	5050
2026-01-25 09:48:27.72	351.57	21.57	-42.7	-45.6	16.9	0.00e+00	0	41	0	1055916032	57	4874
2026-01-25 09:48:31.65	351.34	21.04	-42.7	-45.5	17.0	0.00e+00	0	41	0	1063256064	57	4823
2026-01-25 09:48:35.63	351.12	20.52	-42.2	-44.8	17.6	0.00e+00	0	41	0	1070596096	56	4748
2026-01-25 09:48:39.69	350.90	19.99	-42.2	-44.9	17.5	0.00e+00	0	41	0	1077936128	56	4793
2026-01-25 09:48:43.78	350.69	19.48	-42.2	-45.0	17.5	0.00e+00	0	41	0	1086324736	56	4835
2026-01-25 09:48:47.76	350.49	18.99	-41.9	-44.7	17.7	0.00e+00	0	41	0	1093664768	55	4927
2026-01-25 09:48:51.74	350.30	18.50	-41.8	-44.7	17.6	0.00e+00	0	41	0	1101004800	55	4944
2026-01-25 09:48:55.72	350.11	18.03	-42.4	-45.7	16.7	0.00e+00	0	41	0	1108344832	55	5536
2026-01-25 09:48:59.70	349.93	17.56	-43.4	-46.8	15.7	0.00e+00	0	41	0	1115684864	57	5640
2026-01-25 09:49:03.72	349.76	17.10	-43.7	-47.1	15.4	0.00e+00	0	41	0	1123024896	58	5528
2026-01-25 09:49:07.71	349.59	16.65	-43.1	-46.1	16.3	0.00e+00	0	41	0	1130364928	58	4925
2026-01-25 09:49:11.72	349.42	16.21	-42.3	-45.3	17.2	0.00e+00	0	41	0	1138753536	56	4988
2026-01-25 09:49:15.70	349.27	15.77	-42.4	-45.3	17.1	0.00e+00	0	41	0	1146093568	56	5039
2026-01-25 09:49:19.71	349.11	15.35	-42.9	-46.0	16.5	0.00e+00	0	41	0	1153433600	56	5409
2026-01-25 09:49:23.83	348.96	14.91	-43.8	-47.3	15.2	0.00e+00	0	41	0	1160773632	58	5649
2026-01-25 09:49:28.34	348.80	14.45	-43.5	-47.2	15.2	0.00e+00	0	41	0	1169162240	58	5567
2026-01-25 09:49:32.32	348.66	14.04	-43.5	-47.4	15.1	0.00e+00	0	41	0	1177550848	58	5668
2026-01-25 09:49:36.30	348.52	13.64	-43.3	-47.0	15.5	0.00e+00	0	41	0	1184890880	58	5417
2026-01-25 09:49:40.35	348.39	13.25	-42.6	-45.7	16.7	0.00e+00	0	41	0	1192230912	57	4931
2026-01-25 09:49:44.57	348.26	12.84	-42.7	-45.6	16.8	0.00e+00	0	41	0	1199570944	56	5178
2026-01-25 09:49:48.58	348.13	12.46	-41.7	-44.8	17.3	0.00e+00	0	41	0	1207959552	55	5026
2026-01-25 09:49:52.62	348.01	12.08	-41.5	-45.0	17.2	0.00e+00	0	41	0	1215299584	54	5435
2026-01-25 09:49:56.65	347.89	11.71	-41.5	-45.3	16.8	0.00e+00	0	41	0	1222639616	54	5639
2026-01-25 09:50:00.86	347.78	11.32	-41.8	-46.0	16.1	0.00e+00	0	41	0	1231028224	54	6088
2026-01-25 09:50:04.84	347.67	10.97	-41.9	-46.3	15.7	0.00e+00	0	41	0	1238368256	54	6334
2026-01-25 09:50:08.82	347.56	10.61	-41.9	-46.8	15.4	0.00e+00	0	41	0	1245708288	54	6677
2026-01-25 09:50:12.80	347.46	10.27	-42.0	-47.1	15.1	7.00e-07	0	41	0	1253048320	54	6926
2026-01-25 09:50:17.21	347.35	9.89	-41.9	-47.3	14.9	0.00e+00	0	41	0	1261436928	54	7057
2026-01-25 09:50:21.20	347.25	9.55	-41.8	-47.3	14.8	7.00e-07	0	41	0	1268776960	54	7107
2026-01-25 09:50:25.19	347.15	9.22	-42.0	-47.2	14.8	0.00e+00	0	41	0	1276116992	54	7022
2026-01-25 09:50:29.12	347.06	8.89	-46.9	-63.7	3.8	1.49e+00	0	41	104	1281359872	65	24746
2026-01-25 09:50:33.41	346.96	8.54	-47.8	-64.0	3.8	1.49e+00	0	41	104	1281359872	67	22964
2026-01-25 09:50:37.81	346.87	8.19	-49.0	-64.3	3.8	1.49e+00	0	41	104	1281359872	68	22421
2026-01-25 09:50:41.84	346.78	7.87	-48.9	-64.3	3.8	1.49e+00	0	41	104	1281359872	68	22506
2026-01-25 09:50:45.84	346.70	7.56	-49.0	-64.3	3.8	1.49e+00	0	41	104	1281359872	68	22500
2026-01-25 09:50:49.82	346.62	7.25	-49.2	-64.4	3.8	1.49e+00	0	41	104	1281359872	69	21350
2026-01-25 09:50:53.79	346.54	6.94	-49.2	-64.4	3.8	1.49e+00	0	41	104	1281359872	69	21284
2026-01-25 09:50:57.84	346.46	6.64	-48.8	-64.3	3.8	1.49e+00	0	41	104	1281359872	69	21090
2026-01-25 09:51:01.82	346.38	6.34	-48.7	-64.3	3.8	1.49e+00	0	41	104	1281359872	69	21145
2026-01-25 09:51:05.80	346.31	6.05	-48.7	-64.3	3.8	1.49e+00	0	41	104	1281359872	69	21173
2026-01-25 09:51:09.79	346.24	5.75	-48.7	-64.3	3.8	1.49e+00	0	41	104	1281359872	69	21132
2026-01-25 09:51:13.77	346.17	5.47	-48.7	-64.3	3.8	1.49e+00	0	41	104	1281359872	69	21116
2026-01-25 09:51:17.76	346.10	5.18	-48.7	-64.3	3.8	1.49e+00	0	41	104	1281359872	69	21061

#Closed at: 2026-01-25 09:51:21
#Recorded file [1281 MB]: D:/Data/31040_260125_123832.dat