passes_logs/2026/01/25/T1/T1__20260125_000827_NOAA_20_JPSS-1_rec.log

#Pass ID: 20260125_000827_NOAA 20 (JPSS-1)
#Satellite: NOAA 20 (JPSS-1)
#Configuration: NOAA 20
#almurnet v.1.7.20251203
#Start time: 2026-01-25 00:08:28

#Version: 2.0.20230620
#Station: T1
#Location: 37.570604 lon 55.790049 lat
#TLE: 1 43013U 17073A   26024.42258823  .00000183  00000+0  10747-3 0  9990
#TLE: 2 43013  98.7646 325.2629 0001105  25.8644 334.2587 14.19539754424075

#Time	Az	El	Level	Level2	SNR	BER	BlckErr	Temp	State	Recorded	gain1	gain2
2026-01-25 00:08:28.49	13.50	5.10	-46.9	-63.1	3.8	1.49e+00	0	35	0	0	65	23260
2026-01-25 00:08:32.46	13.42	5.38	-46.9	-63.1	3.8	1.49e+00	0	35	104	0	64	24524
2026-01-25 00:08:36.43	13.34	5.67	-46.9	-63.2	3.8	1.49e+00	0	35	104	0	64	24734
2026-01-25 00:08:40.40	13.25	5.95	-46.9	-63.2	3.8	1.49e+00	0	35	104	0	64	24788
2026-01-25 00:08:44.38	13.17	6.25	-46.9	-63.1	3.8	1.49e+00	0	35	104	0	64	24439
2026-01-25 00:08:48.35	13.08	6.54	-46.9	-62.8	3.8	1.49e+00	0	35	104	0	64	23646
2026-01-25 00:08:52.32	12.99	6.84	-46.9	-62.5	3.8	1.49e+00	0	36	104	0	64	23026
2026-01-25 00:08:56.30	12.89	7.14	-46.9	-62.7	3.8	1.49e+00	0	36	104	0	64	23522
2026-01-25 00:09:00.27	12.80	7.45	-46.9	-62.8	3.8	1.49e+00	0	36	104	0	64	23739
2026-01-25 00:09:04.24	12.70	7.76	-46.8	-61.1	3.8	1.49e+00	0	36	104	0	64	19593
2026-01-25 00:09:08.21	12.60	8.07	-46.5	-56.8	5.5	6.82e-01	0	36	0	3145728	64	11868
2026-01-25 00:09:12.18	12.50	8.38	-45.8	-53.0	8.9	4.36e-02	0	36	0	10485760	63	8138
2026-01-25 00:09:16.16	12.39	8.70	-45.2	-51.1	10.9	2.44e-03	0	36	0	17825792	62	6920
2026-01-25 00:09:20.13	12.28	9.03	-45.4	-51.6	10.4	3.94e-03	0	37	0	26214400	62	7297
2026-01-25 00:09:24.11	12.17	9.36	-46.9	-58.2	4.7	7.46e-01	0	37	0	33554432	64	14031
2026-01-25 00:09:28.09	12.06	9.69	-41.5	-44.6	17.4	0.00e+00	0	36	0	40894464	54	5191
2026-01-25 00:09:32.06	11.94	10.03	-41.1	-44.1	17.9	0.00e+00	0	37	0	48234496	54	4881
2026-01-25 00:09:36.04	11.82	10.37	-40.9	-43.8	18.1	0.00e+00	0	37	0	55574528	53	5036
2026-01-25 00:09:40.02	11.70	10.72	-40.9	-43.8	18.2	0.00e+00	0	36	0	62914560	53	5009
2026-01-25 00:09:44.00	11.57	11.07	-40.7	-43.6	18.4	0.00e+00	0	37	0	70254592	53	4899
2026-01-25 00:09:47.98	11.44	11.42	-40.7	-43.6	18.4	0.00e+00	0	37	0	77594624	53	4884
2026-01-25 00:09:51.96	11.31	11.79	-40.7	-43.6	18.5	0.00e+00	0	37	0	85983232	53	4884
2026-01-25 00:09:55.94	11.17	12.15	-40.6	-43.4	18.7	0.00e+00	0	37	0	93323264	53	4769
2026-01-25 00:09:59.92	11.03	12.53	-40.5	-43.1	18.9	0.00e+00	0	37	0	100663296	53	4612
2026-01-25 00:10:03.90	10.88	12.90	-40.4	-43.0	19.1	0.00e+00	0	37	0	108003328	52	4819
2026-01-25 00:10:07.88	10.73	13.29	-40.3	-42.8	19.2	0.00e+00	0	37	0	115343360	52	4739
2026-01-25 00:10:11.86	10.58	13.68	-40.3	-42.8	19.2	0.00e+00	0	37	0	122683392	52	4745
2026-01-25 00:10:15.84	10.42	14.07	-40.1	-42.6	19.4	0.00e+00	0	37	0	130023424	52	4600
2026-01-25 00:10:19.82	10.26	14.47	-40.1	-42.6	19.5	0.00e+00	0	37	0	137363456	52	4599
2026-01-25 00:10:23.79	10.09	14.88	-40.1	-42.5	19.6	0.00e+00	0	37	0	144703488	51	4839
2026-01-25 00:10:27.78	9.92	15.30	-40.0	-42.4	19.7	0.00e+00	0	37	0	153092096	51	4801
2026-01-25 00:10:31.76	9.74	15.72	-40.1	-42.5	19.7	0.00e+00	0	37	0	160432128	51	4830
2026-01-25 00:10:35.73	9.55	16.15	-39.9	-42.3	19.8	0.00e+00	0	37	0	167772160	51	4750
2026-01-25 00:10:39.71	9.36	16.59	-40.0	-42.4	19.7	0.00e+00	0	37	0	175112192	51	4804
2026-01-25 00:10:43.69	9.17	17.03	-39.9	-42.4	19.8	0.00e+00	0	37	0	182452224	51	4774
2026-01-25 00:10:47.68	8.96	17.48	-40.0	-42.4	19.7	0.00e+00	0	37	0	189792256	51	4810
2026-01-25 00:10:51.65	8.75	17.94	-39.9	-42.3	19.9	0.00e+00	0	37	0	197132288	51	4745
2026-01-25 00:10:55.64	8.54	18.41	-39.9	-42.3	19.9	0.00e+00	0	37	0	204472320	51	4729
2026-01-25 00:10:59.62	8.31	18.89	-39.9	-42.2	20.0	0.00e+00	0	37	0	211812352	51	4700
2026-01-25 00:11:03.59	8.08	19.37	-40.1	-42.4	19.9	0.00e+00	0	37	0	220200960	51	4772
2026-01-25 00:11:07.57	7.84	19.87	-40.1	-42.3	19.9	0.00e+00	0	37	0	227540992	51	4750
2026-01-25 00:11:11.56	7.59	20.37	-40.1	-42.4	19.9	0.00e+00	0	37	0	234881024	51	4778
2026-01-25 00:11:15.54	7.34	20.89	-40.1	-42.4	19.9	0.00e+00	0	37	0	242221056	51	4764
2026-01-25 00:11:19.51	7.07	21.41	-40.1	-42.4	19.9	0.00e+00	0	37	0	249561088	51	4784
2026-01-25 00:11:23.49	6.80	21.95	-40.0	-42.4	19.9	0.00e+00	0	37	0	256901120	51	4766
2026-01-25 00:11:27.47	6.51	22.49	-40.1	-42.4	19.8	0.00e+00	0	37	0	264241152	51	4805
2026-01-25 00:11:31.45	6.21	23.05	-40.2	-42.5	19.7	0.00e+00	0	37	0	271581184	51	4863
2026-01-25 00:11:35.43	5.90	23.62	-40.4	-42.7	19.6	0.00e+00	0	37	0	278921216	51	4972
2026-01-25 00:11:39.41	5.58	24.20	-40.5	-42.7	19.6	0.00e+00	0	37	0	287309824	51	4975
2026-01-25 00:11:43.39	5.25	24.79	-40.7	-43.0	19.3	0.00e+00	0	37	0	294649856	52	4839
2026-01-25 00:11:47.37	4.90	25.39	-40.8	-43.1	19.2	0.00e+00	0	37	0	301989888	52	4911
2026-01-25 00:11:51.35	4.54	26.01	-41.3	-43.7	18.6	0.00e+00	0	37	0	309329920	53	4947
2026-01-25 00:11:55.33	4.17	26.64	-41.5	-43.9	18.4	0.00e+00	0	37	0	316669952	53	5090
2026-01-25 00:11:59.30	3.78	27.28	-42.0	-44.6	17.8	0.00e+00	0	37	0	324009984	54	5183
2026-01-25 00:12:03.28	3.37	27.94	-42.3	-45.1	17.3	0.00e+00	0	37	0	331350016	55	5161
2026-01-25 00:12:07.26	2.94	28.61	-42.6	-45.4	17.0	0.00e+00	0	37	0	338690048	55	5343
2026-01-25 00:12:11.24	2.50	29.30	-42.8	-45.6	17.0	0.00e+00	0	37	0	347078656	56	5171
2026-01-25 00:12:15.22	2.03	30.00	-43.2	-46.2	16.4	0.00e+00	0	37	0	354418688	57	5235
2026-01-25 00:12:19.19	1.54	30.72	-43.4	-46.4	16.1	0.00e+00	0	37	0	361758720	57	5391
2026-01-25 00:12:23.17	1.03	31.45	-43.5	-46.6	16.0	0.00e+00	0	37	0	369098752	57	5501
2026-01-25 00:12:27.14	0.50	32.20	-43.6	-46.9	15.6	0.00e+00	0	37	0	376438784	58	5397
2026-01-25 00:12:31.12	359.94	32.96	-43.8	-47.3	15.3	0.00e+00	0	37	0	383778816	58	5602
2026-01-25 00:12:35.10	359.35	33.75	-44.1	-47.5	15.2	0.00e+00	0	37	0	391118848	59	5404
2026-01-25 00:12:39.08	358.73	34.54	-44.2	-47.6	15.0	0.00e+00	0	37	0	398458880	59	5517
2026-01-25 00:12:43.06	358.08	35.36	-44.2	-47.8	14.9	0.00e+00	0	37	0	405798912	59	5607
2026-01-25 00:12:47.04	357.39	36.19	-44.1	-47.6	15.0	0.00e+00	0	37	0	414187520	59	5512
2026-01-25 00:12:51.02	356.67	37.04	-43.7	-47.3	15.3	0.00e+00	0	37	0	421527552	59	5340
2026-01-25 00:12:55.00	355.91	37.91	-43.3	-46.6	16.1	0.00e+00	0	37	0	428867584	58	5166
2026-01-25 00:12:58.98	355.10	38.79	-43.3	-46.2	16.4	0.00e+00	0	37	0	436207616	58	4970
2026-01-25 00:13:02.96	354.25	39.69	-42.9	-45.7	17.0	0.00e+00	0	37	0	443547648	57	4948
2026-01-25 00:13:06.94	353.35	40.60	-43.3	-46.2	16.5	0.00e+00	0	37	0	450887680	57	5228
2026-01-25 00:13:10.92	352.40	41.53	-43.5	-46.6	16.1	0.00e+00	0	37	0	458227712	57	5498
2026-01-25 00:13:14.90	351.38	42.48	-42.9	-45.8	16.9	0.00e+00	0	37	0	465567744	57	4987
2026-01-25 00:13:18.88	350.31	43.43	-43.0	-45.9	16.8	0.00e+00	0	37	0	472907776	57	5055
2026-01-25 00:13:22.86	349.17	44.41	-42.1	-44.8	17.8	0.00e+00	0	37	0	481296384	56	4736
2026-01-25 00:13:26.84	347.95	45.39	-42.6	-45.4	17.3	0.00e+00	0	37	0	488636416	56	5048
2026-01-25 00:13:30.82	346.66	46.38	-42.8	-45.5	17.2	0.00e+00	0	37	0	495976448	56	5147
2026-01-25 00:13:34.80	345.28	47.37	-42.9	-45.6	17.0	0.00e+00	0	37	0	503316480	56	5210
2026-01-25 00:13:38.78	343.80	48.37	-43.0	-45.9	16.8	0.00e+00	0	38	0	510656512	56	5375
2026-01-25 00:13:42.76	342.23	49.38	-42.3	-44.9	17.7	0.00e+00	0	37	0	517996544	56	4805
2026-01-25 00:13:46.74	340.55	50.37	-42.0	-44.5	18.2	0.00e+00	0	37	0	525336576	56	4581
2026-01-25 00:13:50.72	338.76	51.37	-41.6	-44.1	18.3	0.00e+00	0	37	0	532676608	55	4625
2026-01-25 00:13:54.70	336.84	52.35	-40.5	-42.7	19.7	0.00e+00	0	37	0	541065216	52	4679
2026-01-25 00:13:58.68	334.79	53.32	-40.4	-42.6	19.9	0.00e+00	0	37	0	548405248	51	4907
2026-01-25 00:14:02.66	332.60	54.26	-40.5	-42.7	19.7	0.00e+00	0	37	0	555745280	51	4972
2026-01-25 00:14:06.64	330.27	55.18	-40.4	-42.6	19.8	0.00e+00	0	37	0	563085312	52	4642
2026-01-25 00:14:10.62	327.77	56.06	-41.9	-44.5	18.0	0.00e+00	0	37	0	570425344	54	5107
2026-01-25 00:14:14.60	325.12	56.90	-42.4	-45.2	17.4	0.00e+00	0	37	0	577765376	55	5225
2026-01-25 00:14:18.58	322.31	57.68	-42.6	-45.2	17.5	0.00e+00	0	37	0	585105408	56	4981
2026-01-25 00:14:22.56	319.33	58.41	-42.8	-45.6	17.1	0.00e+00	0	37	0	592445440	56	5171
2026-01-25 00:14:26.54	316.19	59.07	-42.5	-45.1	17.7	0.00e+00	0	37	0	599785472	56	4891
2026-01-25 00:14:30.52	312.90	59.65	-42.3	-44.9	17.8	0.00e+00	0	37	0	608174080	56	4779
2026-01-25 00:14:34.51	309.47	60.15	-40.8	-43.1	19.4	0.00e+00	0	37	0	615514112	53	4607
2026-01-25 00:14:38.49	305.91	60.55	-40.8	-43.0	19.5	0.00e+00	0	37	0	622854144	53	4579
2026-01-25 00:14:42.47	302.25	60.86	-40.6	-42.8	19.7	0.00e+00	0	37	0	630194176	52	4744
2026-01-25 00:14:46.45	298.52	61.06	-39.6	-41.6	20.8	0.00e+00	0	37	0	637534208	51	4388
2026-01-25 00:14:50.43	294.75	61.16	-39.3	-41.3	21.1	0.00e+00	0	37	0	644874240	50	4478
2026-01-25 00:14:54.41	290.96	61.14	-38.7	-40.6	21.8	0.00e+00	0	37	0	652214272	49	4351
2026-01-25 00:14:58.40	287.18	61.01	-38.3	-40.2	22.1	0.00e+00	0	38	0	659554304	48	4432
2026-01-25 00:15:02.37	283.48	60.78	-38.7	-40.7	21.7	0.00e+00	0	37	0	667942912	48	4657
2026-01-25 00:15:06.35	279.85	60.44	-39.4	-41.4	21.0	0.00e+00	0	37	0	675282944	49	4773
2026-01-25 00:15:10.33	276.32	60.01	-40.1	-42.3	20.2	0.00e+00	0	37	0	682622976	50	5005
2026-01-25 00:15:14.31	272.93	59.49	-40.9	-43.3	19.3	0.00e+00	0	37	0	689963008	52	4987
2026-01-25 00:15:18.29	269.68	58.88	-40.7	-42.9	19.5	0.00e+00	0	37	0	697303040	52	4788
2026-01-25 00:15:22.27	266.58	58.20	-41.6	-44.1	18.4	0.00e+00	0	37	0	704643072	54	4878
2026-01-25 00:15:26.25	263.65	57.45	-42.1	-44.7	17.8	0.00e+00	0	37	0	711983104	54	5255
2026-01-25 00:15:30.23	260.88	56.65	-41.3	-43.7	18.8	0.00e+00	0	37	0	719323136	54	4695
2026-01-25 00:15:34.21	258.27	55.79	-40.3	-42.5	19.9	0.00e+00	0	37	0	727711744	52	4566
2026-01-25 00:15:38.19	255.82	54.90	-40.6	-42.8	19.6	0.00e+00	0	37	0	735051776	52	4739
2026-01-25 00:15:42.17	253.52	53.97	-40.3	-42.4	20.1	0.00e+00	0	37	0	742391808	51	4807
2026-01-25 00:15:46.14	251.38	53.02	-41.5	-43.8	18.6	0.00e+00	0	37	0	749731840	53	5038
2026-01-25 00:15:50.13	249.36	52.04	-41.3	-43.6	18.9	0.00e+00	0	37	0	757071872	53	4904
2026-01-25 00:15:54.10	247.48	51.06	-42.1	-44.7	17.8	0.00e+00	0	37	0	764411904	55	4941
2026-01-25 00:15:58.08	245.71	50.06	-44.0	-47.3	15.4	0.00e+00	0	38	0	771751936	58	5628
2026-01-25 00:16:02.06	244.06	49.05	-43.7	-46.7	16.0	0.00e+00	0	37	0	779091968	58	5239
2026-01-25 00:16:06.04	242.52	48.05	-44.9	-48.7	14.1	0.00e+00	0	37	0	786432000	60	5868
2026-01-25 00:16:10.03	241.07	47.04	-43.8	-46.9	15.8	0.00e+00	0	37	0	794820608	59	5074
2026-01-25 00:16:14.01	239.71	46.04	-43.5	-46.6	16.1	0.00e+00	0	37	0	802160640	58	5162
2026-01-25 00:16:17.99	238.44	45.05	-42.9	-45.7	17.0	0.00e+00	0	37	0	809500672	57	4937
2026-01-25 00:16:21.97	237.24	44.07	-43.3	-46.2	16.5	0.00e+00	0	38	0	816840704	57	5252
2026-01-25 00:16:25.95	236.11	43.10	-42.8	-45.4	17.2	0.00e+00	0	37	0	824180736	57	4804
2026-01-25 00:16:29.93	235.06	42.14	-43.3	-46.2	16.5	0.00e+00	0	37	0	831520768	57	5231
2026-01-25 00:16:33.91	234.06	41.20	-43.7	-46.6	16.0	0.00e+00	0	37	0	838860800	57	5526
2026-01-25 00:16:37.89	233.12	40.27	-43.7	-46.9	15.8	0.00e+00	0	38	0	846200832	58	5381
2026-01-25 00:16:41.88	232.23	39.35	-44.5	-48.0	14.7	0.00e+00	0	38	0	853540864	59	5759
2026-01-25 00:16:45.86	231.39	38.46	-44.5	-47.9	14.7	0.00e+00	0	38	0	861929472	59	5711
2026-01-25 00:16:49.84	230.59	37.57	-43.7	-46.7	16.0	0.00e+00	0	37	0	869269504	59	4941
2026-01-25 00:16:53.82	229.84	36.71	-44.1	-47.2	15.4	0.00e+00	0	37	0	876609536	59	5268
2026-01-25 00:16:57.81	229.12	35.86	-44.0	-47.3	15.4	0.00e+00	0	37	0	883949568	59	5281
2026-01-25 00:17:01.79	228.45	35.03	-43.9	-47.0	15.6	0.00e+00	0	37	0	891289600	59	5137
2026-01-25 00:17:05.77	227.80	34.22	-43.7	-46.7	15.9	0.00e+00	0	37	0	898629632	58	5251
2026-01-25 00:17:09.75	227.19	33.42	-44.6	-48.2	14.4	0.00e+00	0	37	0	905969664	59	5869
2026-01-25 00:17:13.74	226.61	32.64	-44.3	-47.7	15.0	0.00e+00	0	38	0	913309696	59	5530
2026-01-25 00:17:17.72	226.05	31.88	-43.3	-46.2	16.5	0.00e+00	0	38	0	921698304	58	4931
2026-01-25 00:17:21.70	225.52	31.13	-43.5	-46.4	16.2	0.00e+00	0	37	0	929038336	58	5055
2026-01-25 00:17:25.68	225.01	30.40	-43.7	-46.7	16.0	0.00e+00	0	38	0	936378368	58	5241
2026-01-25 00:17:29.66	224.53	29.68	-43.8	-47.0	15.6	0.00e+00	0	38	0	943718400	58	5410
2026-01-25 00:17:33.64	224.07	28.98	-43.6	-46.6	16.0	0.00e+00	0	37	0	951058432	58	5185
2026-01-25 00:17:37.62	223.63	28.30	-43.2	-46.1	16.4	0.00e+00	0	37	0	958398464	58	4895
2026-01-25 00:17:41.59	223.20	27.63	-43.1	-45.9	16.7	0.00e+00	0	38	0	965738496	58	4792
2026-01-25 00:17:45.57	222.80	26.97	-42.7	-45.4	17.1	0.00e+00	0	37	0	973078528	57	4809
2026-01-25 00:17:49.56	222.41	26.33	-42.3	-45.0	17.5	0.00e+00	0	37	0	981467136	56	4826
2026-01-25 00:17:53.55	222.03	25.70	-42.6	-45.3	17.2	0.00e+00	0	38	0	988807168	56	5025
2026-01-25 00:17:57.53	221.68	25.09	-42.6	-45.3	17.2	0.00e+00	0	37	0	996147200	56	5037
2026-01-25 00:18:01.51	221.33	24.48	-42.5	-45.2	17.3	0.00e+00	0	37	0	1003487232	56	4959
2026-01-25 00:18:05.48	221.00	23.89	-42.4	-45.0	17.5	0.00e+00	0	37	0	1010827264	56	4858
2026-01-25 00:18:09.46	220.68	23.32	-42.4	-45.1	17.5	0.00e+00	0	37	0	1018167296	56	4877
2026-01-25 00:18:13.44	220.37	22.75	-42.4	-45.1	17.4	0.00e+00	0	37	0	1025507328	56	4885
2026-01-25 00:18:17.42	220.08	22.20	-42.3	-45.0	17.5	0.00e+00	0	37	0	1032847360	56	4823
2026-01-25 00:18:21.39	219.79	21.65	-42.2	-44.8	17.7	0.00e+00	0	37	0	1040187392	56	4719
2026-01-25 00:18:25.37	219.52	21.12	-41.7	-44.2	18.1	0.00e+00	0	37	0	1048576000	55	4660
2026-01-25 00:18:29.35	219.25	20.60	-41.8	-44.3	18.0	0.00e+00	0	37	0	1055916032	55	4757
2026-01-25 00:18:33.32	218.99	20.08	-42.0	-44.6	17.7	0.00e+00	0	38	0	1063256064	55	4926
2026-01-25 00:18:37.30	218.75	19.58	-42.0	-44.6	17.6	0.00e+00	0	38	0	1070596096	55	4905
2026-01-25 00:18:41.28	218.51	19.09	-41.8	-44.4	17.9	0.00e+00	0	37	0	1077936128	55	4778
2026-01-25 00:18:45.26	218.27	18.60	-41.7	-44.2	18.0	0.00e+00	0	37	0	1085276160	55	4702
2026-01-25 00:18:49.24	218.05	18.13	-41.8	-44.3	17.9	0.00e+00	0	37	0	1092616192	55	4746
2026-01-25 00:18:53.22	217.83	17.66	-41.9	-44.5	17.7	0.00e+00	0	37	0	1099956224	55	4845
2026-01-25 00:18:57.21	217.62	17.20	-42.2	-44.9	17.4	0.00e+00	0	37	0	1107296256	55	5056
2026-01-25 00:19:01.19	217.42	16.75	-42.1	-44.8	17.4	0.00e+00	0	37	0	1115684864	55	5016
2026-01-25 00:19:05.17	217.22	16.31	-42.2	-44.9	17.3	0.00e+00	0	37	0	1123024896	55	5083
2026-01-25 00:19:09.15	217.03	15.87	-42.1	-44.8	17.4	0.00e+00	0	37	0	1130364928	55	5015
2026-01-25 00:19:13.12	216.84	15.44	-42.2	-44.9	17.3	0.00e+00	0	37	0	1137704960	55	5069
2026-01-25 00:19:17.10	216.66	15.02	-42.2	-45.0	17.2	0.00e+00	0	37	0	1145044992	55	5118
2026-01-25 00:19:21.08	216.49	14.61	-42.4	-45.1	17.0	0.00e+00	0	37	0	1152385024	55	5214
2026-01-25 00:19:25.06	216.32	14.20	-42.4	-45.3	16.9	0.00e+00	0	37	0	1159725056	55	5302
2026-01-25 00:19:29.04	216.15	13.80	-42.5	-45.4	16.7	0.00e+00	0	37	0	1167065088	55	5356
2026-01-25 00:19:33.02	215.99	13.40	-42.4	-45.3	16.8	0.00e+00	0	37	0	1175453696	55	5306
2026-01-25 00:19:37.00	215.83	13.02	-42.8	-45.7	16.6	0.00e+00	0	37	0	1182793728	56	5243
2026-01-25 00:19:40.98	215.68	12.63	-42.6	-45.5	16.8	0.00e+00	0	37	0	1190133760	56	5103
2026-01-25 00:19:44.96	215.53	12.26	-42.7	-45.5	16.7	0.00e+00	0	37	0	1197473792	56	5154
2026-01-25 00:19:48.94	215.39	11.88	-42.8	-45.6	16.6	0.00e+00	0	37	0	1204813824	56	5213
2026-01-25 00:19:52.91	215.25	11.52	-42.9	-45.8	16.4	0.00e+00	0	37	0	1212153856	56	5304
2026-01-25 00:19:56.90	215.11	11.16	-43.1	-46.1	16.1	0.00e+00	0	37	0	1219493888	56	5512
2026-01-25 00:20:00.87	214.98	10.80	-43.2	-46.3	15.9	0.00e+00	0	37	0	1226833920	57	5289
2026-01-25 00:20:04.86	214.85	10.45	-43.4	-46.5	15.6	0.00e+00	0	37	0	1234173952	57	5440
2026-01-25 00:20:08.83	214.72	10.11	-43.4	-46.5	15.6	0.00e+00	0	38	0	1242562560	57	5464
2026-01-25 00:20:12.81	214.60	9.76	-43.5	-46.8	15.3	0.00e+00	0	38	0	1249902592	57	5630
2026-01-25 00:20:16.79	214.48	9.43	-43.6	-46.9	15.2	0.00e+00	0	37	0	1257242624	57	5657
2026-01-25 00:20:20.77	214.36	9.09	-43.7	-47.1	15.0	0.00e+00	0	38	0	1264582656	58	5487
2026-01-25 00:20:24.74	214.25	8.77	-48.4	-63.7	3.8	1.49e+00	0	37	104	1266679808	67	22028
2026-01-25 00:20:28.71	214.14	8.44	-48.9	-64.1	3.8	1.49e+00	0	38	104	1266679808	68	21805
2026-01-25 00:20:32.68	214.03	8.12	-49.0	-64.2	3.8	1.49e+00	0	37	104	1266679808	68	22013
2026-01-25 00:20:36.66	213.92	7.81	-48.9	-64.2	3.8	1.49e+00	0	37	104	1266679808	68	22064
2026-01-25 00:20:40.63	213.82	7.50	-48.6	-64.1	3.8	1.49e+00	0	37	104	1266679808	68	21920
2026-01-25 00:20:44.60	213.72	7.19	-48.6	-64.0	3.8	1.49e+00	0	37	104	1266679808	68	21750
2026-01-25 00:20:48.57	213.62	6.88	-48.6	-64.0	3.8	1.49e+00	0	38	104	1266679808	68	21690
2026-01-25 00:20:52.54	213.52	6.58	-48.6	-64.0	3.8	1.49e+00	0	37	104	1266679808	68	21687
2026-01-25 00:20:56.52	213.43	6.28	-48.6	-64.0	3.8	1.49e+00	0	37	104	1266679808	68	21654
2026-01-25 00:21:00.49	213.34	5.99	-48.6	-64.0	3.8	1.49e+00	0	37	104	1266679808	68	21688
2026-01-25 00:21:04.46	213.25	5.70	-48.6	-64.0	3.8	1.49e+00	0	37	104	1266679808	68	21623
2026-01-25 00:21:08.43	213.16	5.41	-48.6	-64.0	3.8	1.49e+00	0	37	104	1266679808	68	21584
2026-01-25 00:21:12.40	213.07	5.13	-48.6	-64.0	3.8	1.49e+00	0	38	104	1266679808	68	21610

#Closed at: 2026-01-25 00:21:15
#Recorded file [1266 MB]: D:/Data/31040_260125_030828.dat