passes_logs/2026/01/25/T1/T1__20260125_012832_SUOMI_NPP_rec.log

#Pass ID: 20260125_012832_SUOMI NPP
#Satellite: SUOMI NPP
#Configuration: NPP
#almurnet v.1.7.20251203
#Start time: 2026-01-25 01:28:34

#Version: 2.0.20230620
#Station: T1
#Location: 37.570604 lon 55.790049 lat
#TLE: 1 37849U 11061A   26024.54906732  .00000185  00000+0  10878-3 0  9990
#TLE: 2 37849  98.7821 326.5159 0002200  47.3746 312.7615 14.19529340738061

#Time	Az	El	Level	Level2	SNR	BER	BlckErr	Temp	State	Recorded	gain1	gain2
2026-01-25 01:28:34.12	6.26	5.12	-47.5	-63.5	3.8	1.49e+00	0	38	0	0	66	22870
2026-01-25 01:28:37.10	6.01	5.30	-46.0	-63.3	3.8	1.49e+00	0	39	104	0	63	26690
2026-01-25 01:28:40.07	5.76	5.48	-46.1	-63.3	3.8	1.49e+00	0	39	104	0	63	26737
2026-01-25 01:28:43.06	5.51	5.67	-46.1	-63.3	3.8	1.49e+00	0	39	104	0	63	26742
2026-01-25 01:28:46.03	5.26	5.85	-46.1	-63.4	3.8	1.49e+00	0	39	104	0	63	26789
2026-01-25 01:28:49.01	5.00	6.03	-46.1	-63.4	3.8	1.49e+00	0	39	104	0	63	26884
2026-01-25 01:28:51.99	4.74	6.21	-46.1	-63.4	3.8	1.49e+00	0	39	104	0	63	26820
2026-01-25 01:28:54.97	4.47	6.40	-46.1	-63.3	3.8	1.49e+00	0	39	104	0	63	26576
2026-01-25 01:28:57.95	4.20	6.58	-46.1	-63.3	3.8	1.49e+00	0	39	104	0	63	26579
2026-01-25 01:29:00.93	3.93	6.77	-46.0	-63.4	3.8	1.49e+00	0	39	104	0	63	26768
2026-01-25 01:29:03.91	3.66	6.95	-46.1	-63.4	3.8	1.49e+00	0	39	104	0	63	26891
2026-01-25 01:29:06.89	3.38	7.14	-46.0	-63.3	3.8	1.49e+00	0	40	104	0	63	26728
2026-01-25 01:29:09.87	3.10	7.33	-46.0	-63.2	3.8	1.49e+00	0	40	104	0	63	26401
2026-01-25 01:29:12.85	2.81	7.52	-46.0	-63.1	3.8	1.49e+00	0	40	104	0	63	25929
2026-01-25 01:29:15.83	2.52	7.71	-46.0	-62.7	3.8	1.49e+00	0	40	104	0	63	24798
2026-01-25 01:29:18.81	2.22	7.89	-46.0	-62.4	3.8	1.49e+00	0	40	104	0	63	23943
2026-01-25 01:29:21.79	1.92	8.09	-46.0	-62.9	3.8	1.49e+00	0	40	104	0	63	25410
2026-01-25 01:29:24.77	1.62	8.28	-46.0	-63.2	3.8	1.49e+00	0	40	104	0	63	26305
2026-01-25 01:29:27.75	1.32	8.47	-45.8	-59.1	4.4	1.44e+00	0	40	0	0	63	16485
2026-01-25 01:29:30.73	1.00	8.66	-45.0	-53.2	8.8	6.54e-02	0	40	0	5242880	62	8830
2026-01-25 01:29:33.71	0.69	8.85	-44.2	-50.2	11.9	6.00e-04	0	40	0	10485760	60	7003
2026-01-25 01:29:36.69	0.37	9.05	-44.3	-50.6	11.5	6.52e-04	0	40	0	16777216	60	7292
2026-01-25 01:29:39.67	0.04	9.24	-46.2	-57.0	5.7	1.51e-01	0	41	0	22020096	63	12840
2026-01-25 01:29:42.66	359.72	9.44	-42.6	-46.2	15.8	0.00e+00	0	41	0	27262976	57	5251
2026-01-25 01:29:45.65	359.38	9.63	-42.7	-46.2	15.8	0.00e+00	0	41	0	33554432	57	5225
2026-01-25 01:29:48.63	359.04	9.83	-42.8	-46.2	15.8	0.00e+00	0	40	0	38797312	57	5264
2026-01-25 01:29:51.61	358.70	10.03	-42.8	-46.2	15.8	0.00e+00	0	40	0	44040192	57	5271
2026-01-25 01:29:54.60	358.35	10.22	-43.0	-46.6	15.5	0.00e+00	0	41	0	50331648	57	5467
2026-01-25 01:29:57.58	358.00	10.42	-43.1	-46.9	15.2	0.00e+00	0	41	0	55574528	57	5659
2026-01-25 01:30:00.57	357.64	10.62	-43.0	-46.8	15.3	0.00e+00	0	41	0	60817408	57	5633
2026-01-25 01:30:03.55	357.28	10.82	-42.6	-46.3	15.7	0.00e+00	0	41	0	67108864	57	5339
2026-01-25 01:30:06.54	356.91	11.02	-42.5	-46.2	15.9	0.00e+00	0	41	0	72351744	56	5553
2026-01-25 01:30:09.52	356.54	11.22	-42.7	-46.5	15.6	0.00e+00	0	41	0	77594624	56	5780
2026-01-25 01:30:12.51	356.16	11.42	-42.5	-46.3	15.8	0.00e+00	0	41	0	83886080	56	5640
2026-01-25 01:30:15.49	355.78	11.62	-42.2	-45.9	16.1	0.00e+00	0	41	0	89128960	56	5402
2026-01-25 01:30:18.48	355.39	11.82	-41.9	-45.6	16.3	0.00e+00	0	41	0	94371840	55	5477
2026-01-25 01:30:21.46	354.99	12.02	-41.7	-45.4	16.5	0.00e+00	0	41	0	100663296	55	5400
2026-01-25 01:30:24.45	354.59	12.22	-41.8	-45.5	16.4	0.00e+00	0	41	0	105906176	55	5461
2026-01-25 01:30:27.43	354.19	12.42	-41.6	-45.3	16.7	0.00e+00	0	41	0	111149056	55	5320
2026-01-25 01:30:30.42	353.77	12.63	-41.3	-44.9	17.0	0.00e+00	0	41	0	117440512	54	5395
2026-01-25 01:30:33.40	353.36	12.83	-41.4	-45.0	16.9	0.00e+00	0	41	0	122683392	54	5447
2026-01-25 01:30:36.38	352.93	13.03	-41.4	-45.0	17.0	0.00e+00	0	41	0	127926272	54	5450
2026-01-25 01:30:39.37	352.50	13.23	-41.7	-45.2	16.8	0.00e+00	0	41	0	134217728	54	5531
2026-01-25 01:30:42.36	352.07	13.44	-41.8	-44.9	17.0	0.00e+00	0	41	0	139460608	54	5387
2026-01-25 01:30:45.34	351.63	13.64	-41.8	-44.9	17.1	0.00e+00	0	41	0	144703488	54	5389
2026-01-25 01:30:48.33	351.18	13.84	-42.1	-45.5	16.5	0.00e+00	0	41	0	150994944	55	5427
2026-01-25 01:30:51.31	350.72	14.05	-42.2	-45.7	16.4	0.00e+00	0	41	0	156237824	55	5536
2026-01-25 01:30:54.30	350.26	14.25	-42.1	-45.3	16.7	0.00e+00	0	41	0	161480704	55	5297
2026-01-25 01:30:57.28	349.80	14.45	-42.1	-45.4	16.6	0.00e+00	0	41	0	167772160	55	5399
2026-01-25 01:31:00.26	349.32	14.65	-42.3	-45.6	16.5	0.00e+00	0	40	0	173015040	55	5499
2026-01-25 01:31:03.24	348.84	14.85	-42.3	-45.5	16.5	0.00e+00	0	41	0	178257920	55	5432
2026-01-25 01:31:06.22	348.36	15.05	-42.5	-46.0	16.1	0.00e+00	0	41	0	184549376	55	5746
2026-01-25 01:31:09.21	347.86	15.25	-42.8	-46.4	15.9	0.00e+00	0	41	0	189792256	56	5666
2026-01-25 01:31:12.20	347.36	15.46	-42.6	-46.3	15.9	0.00e+00	0	41	0	195035136	56	5624
2026-01-25 01:31:15.18	346.86	15.65	-42.2	-45.6	16.6	0.00e+00	0	41	0	201326592	56	5210
2026-01-25 01:31:18.17	346.34	15.85	-42.3	-45.5	16.7	0.00e+00	0	41	0	206569472	56	5153
2026-01-25 01:31:21.16	345.82	16.05	-42.6	-45.9	16.3	0.00e+00	0	41	0	211812352	56	5367
2026-01-25 01:31:24.14	345.29	16.25	-42.4	-46.0	16.2	0.00e+00	0	41	0	218103808	56	5452
2026-01-25 01:31:27.13	344.76	16.45	-41.7	-45.2	16.9	0.00e+00	0	41	0	223346688	55	5236
2026-01-25 01:31:30.12	344.21	16.64	-42.3	-45.5	16.6	0.00e+00	0	41	0	228589568	55	5451
2026-01-25 01:31:33.10	343.66	16.84	-43.1	-46.5	15.7	0.00e+00	0	41	0	234881024	56	5776
2026-01-25 01:31:36.08	343.11	17.03	-42.9	-46.3	15.9	0.00e+00	0	41	0	240123904	57	5333
2026-01-25 01:31:39.07	342.54	17.22	-42.1	-45.3	17.0	0.00e+00	0	41	0	245366784	56	5014
2026-01-25 01:31:42.05	341.97	17.41	-42.0	-45.0	17.2	0.00e+00	0	41	0	251658240	55	5102
2026-01-25 01:31:45.04	341.39	17.60	-41.8	-44.7	17.4	0.00e+00	0	41	0	256901120	55	4968
2026-01-25 01:31:48.02	340.81	17.79	-41.5	-44.4	17.7	0.00e+00	0	41	0	263192576	54	5062
2026-01-25 01:31:51.01	340.21	17.97	-41.5	-44.4	17.7	0.00e+00	0	41	0	268435456	54	5047
2026-01-25 01:31:53.99	339.61	18.16	-41.4	-44.1	17.9	0.00e+00	0	41	0	273678336	54	4907
2026-01-25 01:31:56.98	339.00	18.34	-40.9	-43.5	18.4	0.00e+00	0	41	0	279969792	53	4869
2026-01-25 01:31:59.96	338.39	18.52	-40.8	-43.5	18.5	0.00e+00	0	41	0	285212672	53	4860
2026-01-25 01:32:02.95	337.76	18.70	-41.2	-44.0	18.1	0.00e+00	0	41	0	290455552	53	5126
2026-01-25 01:32:05.93	337.13	18.87	-40.4	-42.8	19.1	0.00e+00	0	41	0	296747008	52	4735
2026-01-25 01:32:08.92	336.49	19.04	-40.2	-42.7	19.2	0.00e+00	0	41	0	301989888	52	4705
2026-01-25 01:32:11.90	335.85	19.21	-40.5	-43.2	18.7	0.00e+00	0	41	0	307232768	52	4981
2026-01-25 01:32:14.89	335.20	19.38	-40.7	-43.4	18.5	0.00e+00	0	41	0	313524224	52	5097
2026-01-25 01:32:17.87	334.54	19.55	-40.4	-43.1	18.9	0.00e+00	0	41	0	318767104	52	4889
2026-01-25 01:32:20.86	333.87	19.71	-40.5	-43.3	18.6	0.00e+00	0	41	0	324009984	52	5007
2026-01-25 01:32:23.85	333.19	19.87	-40.6	-43.3	18.7	0.00e+00	0	41	0	330301440	52	5004
2026-01-25 01:32:26.83	332.51	20.02	-40.2	-42.6	19.3	0.00e+00	0	41	0	335544320	52	4629
2026-01-25 01:32:29.82	331.82	20.18	-40.3	-42.7	19.3	0.00e+00	0	41	0	340787200	52	4680
2026-01-25 01:32:32.80	331.13	20.32	-40.2	-42.8	19.2	0.00e+00	0	41	0	347078656	52	4715
2026-01-25 01:32:35.79	330.43	20.47	-39.7	-42.1	19.9	0.00e+00	0	41	0	352321536	51	4611
2026-01-25 01:32:38.77	329.72	20.61	-39.9	-42.3	19.7	0.00e+00	0	41	0	357564416	51	4720
2026-01-25 01:32:41.75	329.01	20.75	-40.2	-42.6	19.4	0.00e+00	0	41	0	363855872	51	4905
2026-01-25 01:32:44.74	328.28	20.88	-40.1	-42.5	19.6	0.00e+00	0	41	0	369098752	51	4836
2026-01-25 01:32:47.72	327.56	21.01	-40.4	-42.7	19.3	0.00e+00	0	41	0	374341632	51	4972
2026-01-25 01:32:50.70	326.82	21.13	-40.6	-43.0	19.1	0.00e+00	0	41	0	380633088	51	5114
2026-01-25 01:32:53.69	326.08	21.26	-40.0	-42.3	19.7	0.00e+00	0	41	0	385875968	51	4743
2026-01-25 01:32:56.67	325.34	21.37	-39.7	-42.1	19.9	0.00e+00	0	41	0	391118848	51	4613
2026-01-25 01:32:59.66	324.59	21.48	-40.0	-42.4	19.7	0.00e+00	0	41	0	397410304	51	4776
2026-01-25 01:33:02.64	323.83	21.59	-39.9	-42.3	19.8	0.00e+00	0	41	0	402653184	51	4719
2026-01-25 01:33:05.63	323.07	21.69	-39.8	-42.1	20.0	0.00e+00	0	41	0	407896064	51	4624
2026-01-25 01:33:08.62	322.30	21.79	-40.3	-42.8	19.3	0.00e+00	0	41	0	414187520	51	4990
2026-01-25 01:33:11.60	321.53	21.88	-41.0	-43.7	18.4	0.00e+00	0	41	0	419430400	52	5265
2026-01-25 01:33:14.58	320.75	21.96	-41.3	-44.0	18.2	0.00e+00	0	41	0	424673280	53	5110
2026-01-25 01:33:17.57	319.97	22.05	-41.7	-44.8	17.5	0.00e+00	0	41	0	430964736	54	5294
2026-01-25 01:33:20.55	319.19	22.12	-41.5	-44.4	17.8	0.00e+00	0	41	0	436207616	54	5053
2026-01-25 01:33:23.54	318.40	22.19	-40.9	-43.5	18.7	0.00e+00	0	41	0	441450496	53	4821
2026-01-25 01:33:26.52	317.61	22.25	-41.1	-43.7	18.3	0.00e+00	0	41	0	447741952	53	4980
2026-01-25 01:33:29.51	316.81	22.31	-41.5	-44.2	17.9	0.00e+00	0	41	0	452984832	53	5279
2026-01-25 01:33:32.49	316.02	22.37	-41.5	-44.4	17.8	0.00e+00	0	41	0	458227712	54	5042
2026-01-25 01:33:35.48	315.22	22.41	-41.1	-43.7	18.5	0.00e+00	0	41	0	464519168	54	4676
2026-01-25 01:33:38.46	314.41	22.45	-41.6	-44.2	17.9	0.00e+00	0	41	0	469762048	54	4983
2026-01-25 01:33:41.45	313.61	22.49	-42.0	-44.8	17.3	0.00e+00	0	42	0	475004928	55	5035
2026-01-25 01:33:44.44	312.80	22.52	-41.3	-44.0	18.1	0.00e+00	0	41	0	481296384	54	4847
2026-01-25 01:33:47.42	311.99	22.54	-41.8	-44.8	17.5	0.00e+00	0	41	0	486539264	54	5288
2026-01-25 01:33:50.41	311.18	22.56	-42.9	-46.3	16.1	0.00e+00	0	41	0	491782144	56	5641
2026-01-25 01:33:53.39	310.38	22.57	-43.2	-46.6	15.7	0.00e+00	0	41	0	498073600	57	5517
2026-01-25 01:33:56.38	309.57	22.57	-42.3	-45.2	17.1	0.00e+00	0	41	0	503316480	56	4976
2026-01-25 01:33:59.36	308.76	22.57	-41.2	-43.8	18.3	0.00e+00	0	41	0	508559360	54	4745
2026-01-25 01:34:02.34	307.95	22.56	-41.2	-43.9	18.2	0.00e+00	0	41	0	514850816	53	5055
2026-01-25 01:34:05.33	307.14	22.55	-41.4	-44.1	18.0	0.00e+00	0	41	0	520093696	53	5174
2026-01-25 01:34:08.31	306.33	22.53	-41.0	-43.5	18.5	0.00e+00	0	41	0	525336576	53	4842
2026-01-25 01:34:11.30	305.52	22.50	-41.2	-43.8	18.3	0.00e+00	0	41	0	531628032	53	5019
2026-01-25 01:34:14.29	304.71	22.47	-41.3	-43.9	18.2	0.00e+00	0	41	0	536870912	53	5098
2026-01-25 01:34:17.27	303.91	22.43	-41.3	-43.8	18.3	0.00e+00	0	41	0	542113792	53	5027
2026-01-25 01:34:20.25	303.11	22.39	-40.7	-43.1	18.9	0.00e+00	0	41	0	548405248	53	4638
2026-01-25 01:34:23.24	302.31	22.34	-41.2	-43.7	18.5	0.00e+00	0	41	0	553648128	53	4963
2026-01-25 01:34:26.23	301.51	22.28	-40.3	-42.6	19.3	0.00e+00	0	41	0	558891008	52	4614
2026-01-25 01:34:29.21	300.72	22.22	-40.5	-42.8	19.3	0.00e+00	0	41	0	565182464	52	4734
2026-01-25 01:34:32.20	299.93	22.15	-40.4	-42.6	19.5	0.00e+00	0	41	0	570425344	52	4628
2026-01-25 01:34:35.18	299.14	22.08	-40.1	-42.3	19.9	0.00e+00	0	41	0	575668224	51	4722
2026-01-25 01:34:38.16	298.36	22.00	-40.2	-42.3	19.8	0.00e+00	0	41	0	581959680	51	4747
2026-01-25 01:34:41.15	297.58	21.92	-40.4	-42.7	19.6	0.00e+00	0	41	0	587202560	51	4927
2026-01-25 01:34:44.13	296.80	21.83	-40.3	-42.5	19.5	0.00e+00	0	41	0	592445440	52	4596
2026-01-25 01:34:47.11	296.04	21.74	-40.0	-42.2	19.9	0.00e+00	0	41	0	598736896	52	4393
2026-01-25 01:34:50.10	295.27	21.64	-40.0	-42.1	20.1	0.00e+00	0	41	0	603979776	51	4615
2026-01-25 01:34:53.08	294.51	21.53	-40.3	-42.5	19.7	0.00e+00	0	41	0	609222656	51	4815
2026-01-25 01:34:56.06	293.76	21.42	-41.1	-43.4	18.8	0.00e+00	0	41	0	615514112	52	5090
2026-01-25 01:34:59.05	293.00	21.31	-40.9	-43.2	19.0	0.00e+00	0	41	0	620756992	53	4689
2026-01-25 01:35:02.03	292.26	21.19	-40.9	-43.2	19.0	0.00e+00	0	41	0	625999872	53	4652
2026-01-25 01:35:05.01	291.52	21.07	-41.4	-43.8	18.4	0.00e+00	0	41	0	632291328	53	5022
2026-01-25 01:35:08.00	290.79	20.94	-42.1	-44.7	17.6	0.00e+00	0	41	0	637534208	54	5223
2026-01-25 01:35:10.98	290.06	20.81	-42.5	-45.2	17.1	0.00e+00	0	41	0	642777088	55	5274
2026-01-25 01:35:13.97	289.34	20.67	-42.6	-45.3	17.2	0.00e+00	0	41	0	649068544	56	4994
2026-01-25 01:35:16.95	288.63	20.53	-42.1	-44.6	17.8	0.00e+00	0	41	0	654311424	56	4624
2026-01-25 01:35:19.94	287.92	20.39	-41.8	-44.3	17.9	0.00e+00	0	41	0	659554304	55	4714
2026-01-25 01:35:22.92	287.22	20.24	-41.8	-44.3	18.0	0.00e+00	0	41	0	665845760	55	4743
2026-01-25 01:35:25.91	286.53	20.09	-41.4	-43.7	18.5	0.00e+00	0	41	0	671088640	54	4699
2026-01-25 01:35:28.89	285.84	19.94	-40.7	-42.9	19.2	0.00e+00	0	41	0	676331520	53	4522
2026-01-25 01:35:31.88	285.16	19.78	-40.6	-42.8	19.3	0.00e+00	0	41	0	682622976	52	4726
2026-01-25 01:35:34.86	284.49	19.62	-41.1	-43.5	18.7	0.00e+00	0	41	0	687865856	53	4818
2026-01-25 01:35:37.85	283.82	19.45	-42.2	-44.8	17.5	0.00e+00	0	41	0	693108736	55	5029
2026-01-25 01:35:40.83	283.17	19.29	-42.8	-45.5	16.9	0.00e+00	0	41	0	699400192	56	5156
2026-01-25 01:35:43.82	282.51	19.12	-42.7	-45.6	16.9	0.00e+00	0	41	0	704643072	56	5177
2026-01-25 01:35:46.80	281.87	18.95	-43.6	-46.8	15.7	0.00e+00	0	41	0	709885952	58	5326
2026-01-25 01:35:49.79	281.23	18.77	-44.2	-47.7	14.9	0.00e+00	0	41	0	716177408	59	5529
2026-01-25 01:35:52.77	280.61	18.60	-43.4	-46.4	16.1	0.00e+00	0	41	0	721420288	58	5099
2026-01-25 01:35:55.76	279.98	18.42	-42.1	-44.6	17.7	0.00e+00	0	41	0	726663168	56	4645
2026-01-25 01:35:58.75	279.37	18.23	-41.1	-43.4	18.8	0.00e+00	0	41	0	732954624	54	4515
2026-01-25 01:36:01.74	278.76	18.05	-41.1	-43.4	18.7	0.00e+00	0	41	0	738197504	53	4791
2026-01-25 01:36:04.72	278.16	17.87	-41.4	-43.8	18.3	0.00e+00	0	41	0	744488960	53	5024
2026-01-25 01:36:07.71	277.57	17.68	-41.3	-43.7	18.4	0.00e+00	0	41	0	749731840	53	4956
2026-01-25 01:36:10.70	276.98	17.49	-40.7	-43.0	19.1	0.00e+00	0	41	0	754974720	53	4580
2026-01-25 01:36:13.68	276.40	17.30	-41.4	-43.8	18.4	0.00e+00	0	41	0	761266176	53	5013
2026-01-25 01:36:16.66	275.84	17.11	-42.5	-45.3	17.0	0.00e+00	0	41	0	766509056	55	5293
2026-01-25 01:36:19.64	275.27	16.91	-42.9	-45.7	16.7	0.00e+00	0	41	0	771751936	56	5261
2026-01-25 01:36:22.63	274.72	16.72	-42.3	-45.0	17.5	0.00e+00	0	41	0	778043392	56	4816
2026-01-25 01:36:25.61	274.17	16.52	-42.1	-44.6	17.7	0.00e+00	0	41	0	783286272	56	4649
2026-01-25 01:36:28.60	273.63	16.33	-41.7	-44.2	18.0	0.00e+00	0	41	0	788529152	55	4677
2026-01-25 01:36:31.58	273.09	16.13	-41.4	-43.8	18.4	0.00e+00	0	41	0	794820608	54	4753
2026-01-25 01:36:34.57	272.57	15.93	-42.0	-44.6	17.6	0.00e+00	0	41	0	800063488	54	5197
2026-01-25 01:36:37.55	272.05	15.73	-42.8	-45.6	16.9	0.00e+00	0	41	0	805306368	56	5171
2026-01-25 01:36:40.53	271.53	15.53	-42.2	-44.9	17.5	0.00e+00	0	41	0	811597824	56	4765
2026-01-25 01:36:43.52	271.03	15.33	-41.7	-44.3	17.9	0.00e+00	0	41	0	816840704	55	4728
2026-01-25 01:36:46.50	270.53	15.13	-41.9	-44.6	17.6	0.00e+00	0	41	0	822083584	55	4914
2026-01-25 01:36:49.49	270.03	14.93	-42.0	-44.6	17.6	0.00e+00	0	41	0	828375040	55	4916
2026-01-25 01:36:52.47	269.55	14.73	-41.8	-44.4	17.8	0.00e+00	0	41	0	833617920	55	4796
2026-01-25 01:36:55.45	269.07	14.53	-41.5	-43.9	18.2	0.00e+00	0	41	0	838860800	54	4806
2026-01-25 01:36:58.44	268.60	14.32	-41.1	-43.5	18.6	0.00e+00	0	42	0	845152256	54	4554
2026-01-25 01:37:01.42	268.13	14.12	-41.1	-43.4	18.7	0.00e+00	0	41	0	850395136	54	4532
2026-01-25 01:37:04.41	267.67	13.92	-40.7	-43.0	19.0	0.00e+00	0	41	0	855638016	53	4571
2026-01-25 01:37:07.40	267.22	13.71	-40.1	-42.3	19.7	0.00e+00	0	42	0	861929472	52	4457
2026-01-25 01:37:10.38	266.77	13.51	-40.3	-42.6	19.4	0.00e+00	0	41	0	867172352	52	4602
2026-01-25 01:37:13.37	266.33	13.31	-41.1	-43.5	18.6	0.00e+00	0	41	0	872415232	52	5132
2026-01-25 01:37:16.35	265.89	13.10	-41.4	-43.9	18.2	0.00e+00	0	41	0	878706688	53	5049
2026-01-25 01:37:19.34	265.46	12.90	-41.4	-43.9	18.2	0.00e+00	0	42	0	883949568	53	5047
2026-01-25 01:37:22.32	265.04	12.70	-41.1	-43.5	18.5	0.00e+00	0	42	0	889192448	53	4827
2026-01-25 01:37:25.31	264.62	12.49	-40.8	-43.1	18.9	0.00e+00	0	41	0	895483904	53	4605
2026-01-25 01:37:28.29	264.21	12.29	-40.9	-43.3	18.7	0.00e+00	0	41	0	900726784	53	4730
2026-01-25 01:37:31.27	263.81	12.09	-41.2	-43.7	18.3	0.00e+00	0	41	0	905969664	53	4950
2026-01-25 01:37:34.26	263.41	11.89	-41.5	-44.1	17.9	0.00e+00	0	41	0	912261120	53	5187
2026-01-25 01:37:37.25	263.01	11.68	-41.9	-44.5	17.6	0.00e+00	0	42	0	917504000	54	5154
2026-01-25 01:37:40.23	262.62	11.48	-41.9	-44.5	17.5	0.00e+00	0	42	0	922746880	54	5153
2026-01-25 01:37:43.21	262.24	11.28	-41.6	-44.1	17.7	0.00e+00	0	41	0	929038336	54	4887
2026-01-25 01:37:46.20	261.86	11.08	-40.6	-42.9	18.9	0.00e+00	0	42	0	934281216	53	4536
2026-01-25 01:37:49.18	261.49	10.88	-40.6	-42.9	19.0	0.00e+00	0	42	0	939524096	53	4512
2026-01-25 01:37:52.17	261.12	10.68	-41.3	-43.8	18.1	0.00e+00	0	42	0	945815552	53	5030
2026-01-25 01:37:55.15	260.76	10.48	-42.1	-44.9	17.1	0.00e+00	0	42	0	951058432	54	5351
2026-01-25 01:37:58.14	260.40	10.28	-42.2	-45.0	17.0	0.00e+00	0	41	0	956301312	55	5143
2026-01-25 01:38:01.13	260.05	10.08	-42.0	-44.7	17.3	0.00e+00	0	41	0	962592768	55	4972
2026-01-25 01:38:04.11	259.70	9.89	-41.7	-44.4	17.6	0.00e+00	0	41	0	967835648	55	4777
2026-01-25 01:38:07.10	259.35	9.69	-41.9	-44.6	17.3	0.00e+00	0	42	0	973078528	55	4899
2026-01-25 01:38:10.08	259.02	9.49	-42.0	-44.6	17.3	0.00e+00	0	41	0	979369984	55	4923
2026-01-25 01:38:13.07	258.68	9.30	-42.0	-44.7	17.2	0.00e+00	0	42	0	984612864	55	4933
2026-01-25 01:38:16.05	258.35	9.10	-42.3	-45.1	16.8	0.00e+00	0	41	0	989855744	55	5197
2026-01-25 01:38:19.03	258.03	8.91	-48.3	-63.6	3.8	1.49e+00	0	42	104	993001472	67	21838
2026-01-25 01:38:22.01	257.71	8.71	-48.8	-64.1	3.8	1.49e+00	0	41	104	993001472	68	21897
2026-01-25 01:38:24.99	257.39	8.52	-49.0	-64.2	3.8	1.49e+00	0	41	104	993001472	68	22255
2026-01-25 01:38:27.97	257.08	8.33	-49.0	-64.3	3.8	1.49e+00	0	42	104	993001472	68	22368
2026-01-25 01:38:30.95	256.77	8.14	-48.8	-64.3	3.8	1.49e+00	0	42	104	993001472	68	22401
2026-01-25 01:38:33.93	256.47	7.94	-48.9	-64.3	3.8	1.49e+00	0	42	104	993001472	68	22453
2026-01-25 01:38:36.91	256.17	7.75	-48.9	-64.3	3.8	1.49e+00	0	42	104	993001472	68	22367
2026-01-25 01:38:39.89	255.87	7.56	-48.8	-64.2	3.8	1.49e+00	0	42	104	993001472	68	22203
2026-01-25 01:38:42.87	255.58	7.37	-48.8	-64.2	3.8	1.49e+00	0	42	104	993001472	68	22142
2026-01-25 01:38:45.85	255.29	7.19	-48.8	-64.2	3.8	1.49e+00	0	42	104	993001472	68	22139
2026-01-25 01:38:48.83	255.01	7.00	-48.7	-64.2	3.8	1.49e+00	0	41	104	993001472	68	22094
2026-01-25 01:38:51.81	254.73	6.81	-48.7	-64.2	3.8	1.49e+00	0	42	104	993001472	68	22036
2026-01-25 01:38:54.79	254.45	6.63	-48.7	-64.2	3.8	1.49e+00	0	42	104	993001472	68	22071
2026-01-25 01:38:57.77	254.18	6.44	-48.7	-64.2	3.8	1.49e+00	0	42	104	993001472	68	22119
2026-01-25 01:39:00.75	253.91	6.26	-48.7	-64.2	3.8	1.49e+00	0	42	104	993001472	68	22040
2026-01-25 01:39:03.73	253.64	6.07	-48.7	-64.1	3.8	1.49e+00	0	42	104	993001472	68	21994
2026-01-25 01:39:06.71	253.38	5.89	-48.7	-64.2	3.8	1.49e+00	0	41	104	993001472	68	22010
2026-01-25 01:39:09.68	253.12	5.71	-48.7	-64.1	3.8	1.49e+00	0	42	104	993001472	68	21990
2026-01-25 01:39:12.66	252.87	5.52	-48.7	-64.1	3.8	1.49e+00	0	42	104	993001472	68	21960
2026-01-25 01:39:15.64	252.61	5.34	-48.7	-64.2	3.8	1.49e+00	0	42	104	993001472	68	22016
2026-01-25 01:39:18.62	252.36	5.16	-48.7	-64.1	3.8	1.49e+00	0	42	104	993001472	68	21942
2026-01-25 01:39:21.60	252.12	4.98	-48.7	-64.1	3.8	1.49e+00	0	42	104	993001472	68	21952

#Closed at: 2026-01-25 01:39:22
#Recorded file [993 MB]: D:/Data/31040_260125_042834.dat