passes_logs/2026/01/25/T1/T1__20260125_225921_NOAA_21_JPSS-2_rec.log

#Pass ID: 20260125_225921_NOAA 21 (JPSS-2)
#Satellite: NOAA 21 (JPSS-2)
#Configuration: NOAA 21
#almurnet v.1.7.20251203
#Start time: 2026-01-25 22:59:23

#Version: 2.0.20230620
#Station: T1
#Location: 37.570604 lon 55.790049 lat
#TLE: 1 54234U 22150A   26025.44451686  .00000186  00000+0  10896-3 0  9992
#TLE: 2 54234  98.7509 326.2184 0000763 215.1852 144.9274 14.19539183166293

#Time	Az	El	Level	Level2	SNR	BER	BlckErr	Temp	State	Recorded	gain1	gain2
2026-01-25 22:59:23.00	21.51	5.09	-47.2	-60.9	3.8	1.49e+00	0	39	0	0	66	17015
2026-01-25 22:59:25.97	21.64	5.29	-47.1	-60.8	3.8	1.49e+00	0	39	104	0	65	17788
2026-01-25 22:59:28.95	21.77	5.50	-47.2	-60.8	3.8	1.49e+00	0	39	104	0	65	17746
2026-01-25 22:59:31.93	21.90	5.71	-47.1	-60.8	3.8	1.49e+00	0	39	104	0	65	17792
2026-01-25 22:59:34.91	22.03	5.92	-47.2	-60.8	3.8	1.49e+00	0	39	104	0	65	17868
2026-01-25 22:59:37.89	22.16	6.13	-47.1	-60.8	3.8	1.49e+00	0	40	104	0	65	17854
2026-01-25 22:59:40.87	22.30	6.34	-47.1	-60.8	3.8	1.49e+00	0	39	104	0	65	17748
2026-01-25 22:59:43.85	22.44	6.55	-47.1	-60.8	3.8	1.49e+00	0	40	104	0	65	17707
2026-01-25 22:59:46.83	22.58	6.77	-47.1	-60.8	3.8	1.49e+00	0	40	104	0	65	17791
2026-01-25 22:59:49.81	22.72	6.99	-47.1	-60.6	3.8	1.49e+00	0	40	104	0	65	17353
2026-01-25 22:59:52.79	22.86	7.21	-47.1	-60.1	3.8	1.49e+00	0	40	104	0	65	16351
2026-01-25 22:59:55.77	23.00	7.43	-47.0	-59.3	3.8	1.49e+00	0	40	104	0	65	15034
2026-01-25 22:59:58.75	23.15	7.65	-47.0	-58.9	3.8	1.49e+00	0	40	104	0	65	14286
2026-01-25 23:00:01.73	23.30	7.88	-47.0	-58.6	3.9	1.49e+00	0	40	104	0	65	13821
2026-01-25 23:00:04.71	23.45	8.10	-47.0	-59.2	3.8	1.49e+00	0	40	104	0	65	14767
2026-01-25 23:00:07.69	23.60	8.33	-46.9	-58.7	3.9	1.49e+00	0	40	104	0	65	13952
2026-01-25 23:00:10.67	23.76	8.56	-46.7	-56.1	4.6	1.13e+00	0	40	104	0	65	10411
2026-01-25 23:00:13.65	23.92	8.79	-45.8	-51.8	7.8	1.10e-01	0	40	0	0	63	7083
2026-01-25 23:00:16.63	24.08	9.03	-44.3	-48.4	11.3	1.86e-03	0	40	0	0	60	5699
2026-01-25 23:00:19.61	24.24	9.26	-43.4	-46.6	13.2	4.33e-02	0	41	0	0	58	5172
2026-01-25 23:00:22.72	24.41	9.51	-40.1	-42.2	17.4	0.00e+00	0	40	0	0	51	4680
2026-01-25 23:00:25.64	24.58	9.75	-39.7	-41.7	18.0	0.00e+00	0	40	0	0	51	4402
2026-01-25 23:00:28.96	24.76	10.02	-39.6	-41.6	18.1	0.00e+00	0	41	0	0	51	4347
2026-01-25 23:00:31.93	24.94	10.26	-39.3	-41.3	18.3	0.00e+00	0	41	0	0	50	4457
2026-01-25 23:00:35.20	25.13	10.53	-39.2	-41.2	18.4	0.00e+00	0	41	0	0	50	4413
2026-01-25 23:00:37.89	25.29	10.76	-39.3	-41.3	18.4	0.00e+00	0	41	0	0	50	4462
2026-01-25 23:00:41.18	25.49	11.04	-39.0	-41.0	18.6	0.00e+00	0	41	0	0	50	4320
2026-01-25 23:00:44.03	25.67	11.28	-38.9	-40.9	18.7	0.00e+00	0	41	0	0	49	4531
2026-01-25 23:00:47.16	25.86	11.55	-38.7	-40.7	18.8	0.00e+00	0	41	0	0	49	4438
2026-01-25 23:00:50.38	26.07	11.83	-38.8	-40.7	18.9	0.00e+00	0	41	0	0	49	4414
2026-01-25 23:00:53.22	26.26	12.08	-38.6	-40.5	19.1	0.00e+00	0	41	0	0	49	4318
2026-01-25 23:00:56.41	26.47	12.37	-38.7	-40.5	19.1	0.00e+00	0	41	0	0	49	4326
2026-01-25 23:00:59.32	26.66	12.63	-38.7	-40.6	19.1	0.00e+00	0	41	0	0	49	4353
2026-01-25 23:01:02.59	26.89	12.92	-38.7	-40.5	19.1	0.00e+00	0	41	0	0	49	4340
2026-01-25 23:01:05.31	27.08	13.17	-38.6	-40.4	19.2	0.00e+00	0	41	0	0	49	4269
2026-01-25 23:01:08.58	27.31	13.48	-38.4	-40.2	19.4	0.00e+00	0	41	0	0	48	4425
2026-01-25 23:01:11.31	27.51	13.73	-38.4	-40.3	19.4	0.00e+00	0	41	0	0	48	4456
2026-01-25 23:01:14.51	27.74	14.03	-38.4	-40.2	19.4	0.00e+00	0	41	0	0	48	4430
2026-01-25 23:01:17.49	27.96	14.32	-38.5	-40.4	19.3	0.00e+00	0	41	0	0	48	4510
2026-01-25 23:01:20.47	28.19	14.61	-38.4	-40.3	19.4	0.00e+00	0	41	0	0	48	4464
2026-01-25 23:01:23.46	28.42	14.90	-38.4	-40.3	19.4	0.00e+00	0	41	0	0	48	4464
2026-01-25 23:01:26.45	28.66	15.19	-38.5	-40.4	19.3	0.00e+00	0	41	0	0	48	4500
2026-01-25 23:01:29.44	28.90	15.49	-38.6	-40.4	19.2	0.00e+00	0	41	0	0	48	4542
2026-01-25 23:01:32.42	29.15	15.79	-38.8	-40.6	19.1	0.00e+00	0	41	0	0	48	4649
2026-01-25 23:01:35.41	29.40	16.10	-38.9	-40.7	19.0	0.00e+00	0	41	0	0	48	4680
2026-01-25 23:01:38.40	29.65	16.41	-38.9	-40.7	19.1	0.00e+00	0	41	0	0	48	4665
2026-01-25 23:01:41.46	29.92	16.72	-38.9	-40.7	19.0	0.00e+00	0	41	0	0	48	4697
2026-01-25 23:01:44.31	30.17	17.02	-38.8	-40.6	19.2	0.00e+00	0	41	0	0	48	4625
2026-01-25 23:01:47.43	30.45	17.36	-38.9	-40.7	19.1	0.00e+00	0	41	0	0	48	4685
2026-01-25 23:01:50.27	30.72	17.66	-39.0	-40.8	18.9	0.00e+00	0	41	0	0	48	4752
2026-01-25 23:01:53.47	31.02	18.01	-38.9	-40.8	19.0	0.00e+00	0	41	0	0	48	4718
2026-01-25 23:01:56.32	31.29	18.33	-38.9	-40.7	19.0	0.00e+00	0	41	0	0	48	4696
2026-01-25 23:01:59.63	31.62	18.69	-38.8	-40.6	19.1	0.00e+00	0	41	0	0	48	4614
2026-01-25 23:02:02.42	31.90	19.01	-38.7	-40.5	19.3	0.00e+00	0	41	0	0	48	4561
2026-01-25 23:02:05.55	32.22	19.37	-38.6	-40.4	19.0	0.00e+00	0	41	0	0	48	4500
2026-01-25 23:02:08.40	32.52	19.70	-38.3	-40.0	19.7	0.00e+00	0	41	0	0	48	4325
2026-01-25 23:02:11.52	32.86	20.06	-38.1	-39.9	19.8	0.00e+00	0	41	0	0	48	4263
2026-01-25 23:02:14.36	33.17	20.40	-38.0	-39.8	19.9	0.00e+00	0	41	0	0	48	4215
2026-01-25 23:02:17.60	33.53	20.78	-37.9	-39.6	19.8	0.00e+00	0	41	0	0	47	4386
2026-01-25 23:02:20.44	33.86	21.13	-37.6	-39.3	20.2	0.00e+00	0	41	0	0	47	4195
2026-01-25 23:02:23.57	34.23	21.51	-37.7	-39.3	20.1	0.00e+00	0	41	0	0	47	4238
2026-01-25 23:02:26.41	34.57	21.86	-37.6	-39.3	20.1	0.00e+00	0	41	0	0	47	4206
2026-01-25 23:02:29.54	34.95	22.26	-37.5	-39.2	20.2	0.00e+00	0	41	0	0	46	4409
2026-01-25 23:02:32.38	35.31	22.62	-37.2	-38.9	20.5	0.00e+00	0	41	0	0	46	4269
2026-01-25 23:02:35.63	35.73	23.03	-37.2	-38.8	20.5	0.00e+00	0	41	0	0	46	4237
2026-01-25 23:02:38.48	36.11	23.40	-37.2	-38.8	20.6	0.00e+00	0	41	0	0	46	4225
2026-01-25 23:02:41.61	36.53	23.82	-37.2	-38.8	20.6	0.00e+00	0	41	0	0	46	4227
2026-01-25 23:02:44.61	36.95	24.22	-37.1	-38.8	20.7	0.00e+00	0	42	0	0	46	4212
2026-01-25 23:02:47.74	37.39	24.64	-37.2	-38.8	20.7	0.00e+00	0	41	0	0	46	4232
2026-01-25 23:02:50.58	37.81	25.02	-37.5	-39.1	20.4	0.00e+00	0	41	0	0	46	4388
2026-01-25 23:02:53.70	38.27	25.45	-37.6	-39.3	20.3	0.00e+00	0	41	0	0	46	4468
2026-01-25 23:02:56.55	38.71	25.85	-37.8	-39.5	20.2	0.00e+00	0	41	0	0	46	4559
2026-01-25 23:02:59.67	39.20	26.29	-37.9	-39.6	20.0	0.00e+00	0	41	0	0	46	4635
2026-01-25 23:03:02.63	39.68	26.71	-38.0	-39.7	19.8	0.00e+00	0	41	0	0	46	4684
2026-01-25 23:03:05.97	40.24	27.19	-38.0	-39.7	19.9	0.00e+00	0	41	0	0	46	4687
2026-01-25 23:03:08.86	40.73	27.61	-38.1	-39.8	19.8	0.00e+00	0	41	0	0	46	4736
2026-01-25 23:03:12.23	41.32	28.11	-38.2	-39.9	19.8	0.00e+00	0	41	0	0	46	4780
2026-01-25 23:03:15.29	41.88	28.57	-38.1	-39.8	19.7	0.00e+00	0	41	0	0	47	4490
2026-01-25 23:03:18.14	42.41	29.00	-38.1	-39.8	19.8	0.00e+00	0	41	0	0	47	4483
2026-01-25 23:03:21.27	43.01	29.47	-38.1	-39.8	19.8	0.00e+00	0	41	0	0	47	4480
2026-01-25 23:03:24.19	43.58	29.92	-38.1	-39.8	19.8	0.00e+00	0	41	0	0	47	4493
2026-01-25 23:03:27.57	44.26	30.44	-38.1	-39.8	19.9	0.00e+00	0	41	0	0	47	4456
2026-01-25 23:03:30.47	44.87	30.90	-38.1	-39.9	19.8	0.00e+00	0	41	0	0	47	4496
2026-01-25 23:03:33.76	45.58	31.41	-38.1	-39.8	19.9	0.00e+00	0	41	0	0	47	4453
2026-01-25 23:03:36.46	46.17	31.84	-38.2	-39.9	19.8	0.00e+00	0	41	0	0	47	4521
2026-01-25 23:03:39.73	46.92	32.37	-38.6	-40.3	19.3	0.00e+00	0	41	0	0	47	4747
2026-01-25 23:03:42.45	47.55	32.81	-38.7	-40.5	19.3	0.00e+00	0	41	0	0	48	4573
2026-01-25 23:03:45.72	48.34	33.34	-39.1	-40.9	19.0	0.00e+00	0	41	0	0	48	4793
2026-01-25 23:03:48.72	49.09	33.83	-39.0	-40.8	19.2	0.00e+00	0	41	0	0	48	4723
2026-01-25 23:03:52.00	49.93	34.36	-39.0	-40.7	19.2	0.00e+00	0	42	0	0	48	4701
2026-01-25 23:03:54.73	50.65	34.81	-39.0	-40.8	19.1	0.00e+00	0	41	0	0	48	4718
2026-01-25 23:03:58.15	51.58	35.38	-39.1	-40.9	19.0	0.00e+00	0	42	0	0	48	4811
2026-01-25 23:04:00.93	52.36	35.84	-39.6	-41.4	18.6	0.00e+00	0	41	0	0	49	4800
2026-01-25 23:04:04.21	53.31	36.38	-39.8	-41.7	18.4	0.00e+00	0	41	0	0	50	4695
2026-01-25 23:04:06.92	54.12	36.83	-40.0	-41.9	18.1	0.00e+00	0	41	0	0	50	4797
2026-01-25 23:04:10.22	55.14	37.38	-40.3	-42.2	17.8	0.00e+00	0	41	0	0	51	4701
2026-01-25 23:04:13.03	56.03	37.85	-40.3	-42.3	17.7	0.00e+00	0	41	0	0	51	4737
2026-01-25 23:04:16.16	57.06	38.36	-40.2	-42.2	17.8	0.00e+00	0	42	0	0	51	4701
2026-01-25 23:04:19.33	58.13	38.89	-39.8	-41.7	18.4	0.00e+00	0	42	0	0	51	4436
2026-01-25 23:04:22.18	59.12	39.35	-39.5	-41.4	18.8	0.00e+00	0	41	0	0	51	4250
2026-01-25 23:04:25.37	60.26	39.87	-39.6	-41.5	18.6	0.00e+00	0	42	0	0	51	4295
2026-01-25 23:04:28.21	61.31	40.32	-39.8	-41.7	18.5	0.00e+00	0	41	0	0	51	4400
2026-01-25 23:04:31.34	62.50	40.82	-40.5	-42.5	17.6	0.00e+00	0	41	0	0	51	4859
2026-01-25 23:04:34.35	63.68	41.29	-40.5	-42.5	17.7	0.00e+00	0	41	0	0	51	4840
2026-01-25 23:04:37.33	64.88	41.75	-40.6	-42.6	17.6	0.00e+00	0	41	0	0	51	4901
2026-01-25 23:04:40.32	66.11	42.20	-40.6	-42.6	17.6	0.00e+00	0	41	0	0	51	4918
2026-01-25 23:04:43.30	67.38	42.64	-40.3	-42.2	17.8	0.00e+00	0	42	0	0	51	4704
2026-01-25 23:04:46.31	68.70	43.08	-40.1	-42.0	18.1	0.00e+00	0	41	0	0	51	4587
2026-01-25 23:04:49.58	70.17	43.54	-40.3	-42.3	17.8	0.00e+00	0	41	0	0	51	4722
2026-01-25 23:04:52.28	71.42	43.90	-40.8	-42.9	17.1	0.00e+00	0	42	0	0	52	4774
2026-01-25 23:04:55.55	72.96	44.33	-40.1	-42.0	18.0	0.00e+00	0	42	0	0	52	4324
2026-01-25 23:04:58.26	74.28	44.67	-40.5	-42.5	17.7	0.00e+00	0	42	0	0	51	4822
2026-01-25 23:05:01.53	75.90	45.07	-40.5	-42.4	17.7	0.00e+00	0	41	0	0	52	4523
2026-01-25 23:05:04.25	77.27	45.38	-40.6	-42.6	17.5	0.00e+00	0	42	0	0	52	4629
2026-01-25 23:05:07.78	79.10	45.76	-40.4	-42.4	17.6	0.00e+00	0	42	0	0	52	4534
2026-01-25 23:05:10.50	80.54	46.03	-40.4	-42.5	17.6	0.00e+00	0	41	0	0	52	4550
2026-01-25 23:05:13.77	82.30	46.33	-40.8	-42.9	17.2	0.00e+00	0	41	0	0	52	4775
2026-01-25 23:05:16.57	83.83	46.57	-40.7	-42.8	17.1	0.00e+00	0	42	0	0	52	4737
2026-01-25 23:05:19.87	85.67	46.82	-40.2	-42.2	17.7	0.00e+00	0	41	0	0	52	4412
2026-01-25 23:05:22.58	87.20	47.01	-40.1	-42.1	17.8	0.00e+00	0	41	0	0	52	4359
2026-01-25 23:05:25.86	89.07	47.21	-40.0	-42.0	17.9	0.00e+00	0	42	0	0	52	4310
2026-01-25 23:05:28.56	90.63	47.34	-39.9	-41.8	18.1	0.00e+00	0	42	0	0	51	4489
2026-01-25 23:05:31.85	92.54	47.48	-40.0	-41.9	18.2	0.00e+00	0	42	0	0	51	4507
2026-01-25 23:05:34.58	94.15	47.57	-39.9	-41.8	18.3	0.00e+00	0	42	0	0	51	4453
2026-01-25 23:05:37.85	96.07	47.64	-40.2	-42.1	17.9	0.00e+00	0	42	0	0	51	4620
2026-01-25 23:05:40.55	97.67	47.67	-40.0	-42.0	18.0	0.00e+00	0	42	0	0	51	4562
2026-01-25 23:05:43.84	99.62	47.69	-40.3	-42.3	17.8	0.00e+00	0	41	0	0	51	4716
2026-01-25 23:05:46.56	101.23	47.67	-40.4	-42.4	17.6	0.00e+00	0	42	0	0	51	4811
2026-01-25 23:05:50.17	103.37	47.61	-40.5	-42.5	17.6	0.00e+00	0	42	0	0	51	4834
2026-01-25 23:05:52.95	105.00	47.53	-40.9	-43.0	17.1	0.00e+00	0	42	0	0	52	4850
2026-01-25 23:05:56.25	106.93	47.41	-40.4	-42.5	17.6	0.00e+00	0	42	0	0	52	4578
2026-01-25 23:05:59.00	108.53	47.28	-40.4	-42.4	17.8	0.00e+00	0	42	0	0	52	4499
2026-01-25 23:06:02.27	110.41	47.10	-40.8	-42.8	17.3	0.00e+00	0	42	0	0	52	4753
2026-01-25 23:06:04.97	111.94	46.92	-40.0	-41.8	18.2	0.00e+00	0	42	0	0	52	4240
2026-01-25 23:06:08.26	113.79	46.68	-40.6	-42.7	17.4	0.00e+00	0	41	0	0	52	4661
2026-01-25 23:06:10.97	115.28	46.46	-40.4	-42.4	17.7	0.00e+00	0	42	0	0	52	4513
2026-01-25 23:06:14.27	117.08	46.17	-40.4	-42.3	17.9	0.00e+00	0	42	0	0	51	4736
2026-01-25 23:06:17.16	118.62	45.89	-40.9	-43.0	17.1	0.00e+00	0	42	0	0	52	4865
2026-01-25 23:06:20.59	120.42	45.53	-39.5	-41.3	18.7	0.00e+00	0	41	0	0	50	4460
2026-01-25 23:06:23.36	121.84	45.22	-39.7	-41.6	18.5	0.00e+00	0	42	0	0	50	4616
2026-01-25 23:06:26.62	123.48	44.84	-39.6	-41.4	18.6	0.00e+00	0	42	0	0	50	4513
2026-01-25 23:06:29.47	124.88	44.49	-40.2	-42.2	18.0	0.00e+00	0	42	0	0	51	4655
2026-01-25 23:06:32.72	126.43	44.06	-40.2	-42.1	17.8	0.00e+00	0	42	0	0	51	4621
2026-01-25 23:06:35.88	127.91	43.64	-40.4	-42.4	17.6	0.00e+00	0	41	0	0	51	4793
2026-01-25 23:06:38.83	129.25	43.23	-40.9	-43.0	17.0	0.00e+00	0	42	0	0	52	4832
2026-01-25 23:06:41.96	130.63	42.78	-40.9	-43.0	17.1	0.00e+00	0	42	0	0	52	4815
2026-01-25 23:06:44.80	131.86	42.36	-40.7	-42.7	17.3	0.00e+00	0	42	0	0	52	4689
2026-01-25 23:06:47.93	133.17	41.89	-40.5	-42.5	17.6	0.00e+00	0	42	0	0	52	4577
2026-01-25 23:06:50.78	134.34	41.45	-40.1	-42.1	17.9	0.00e+00	0	42	0	0	52	4360
2026-01-25 23:06:54.14	135.67	40.92	-39.6	-41.5	18.5	0.00e+00	0	42	0	0	51	4297
2026-01-25 23:06:56.84	136.71	40.49	-40.2	-42.2	17.9	0.00e+00	0	42	0	0	51	4672
2026-01-25 23:07:00.08	137.92	39.97	-40.0	-41.9	18.1	0.00e+00	0	42	0	0	51	4508
2026-01-25 23:07:03.14	139.03	39.47	-40.5	-42.4	17.7	0.00e+00	0	42	0	0	51	4812
2026-01-25 23:07:05.99	140.03	39.01	-40.8	-42.9	17.2	0.00e+00	0	42	0	0	52	4778
2026-01-25 23:07:09.12	141.10	38.49	-39.9	-41.8	18.2	0.00e+00	0	42	0	0	51	4489
2026-01-25 23:07:12.36	142.17	37.95	-39.6	-41.5	18.5	0.00e+00	0	42	0	0	50	4549
2026-01-25 23:07:15.55	143.19	37.42	-39.3	-41.1	18.9	0.00e+00	0	41	0	0	50	4391
2026-01-25 23:07:18.39	144.08	36.95	-39.2	-41.1	18.9	0.00e+00	0	42	0	0	50	4344
2026-01-25 23:07:21.52	145.02	36.42	-39.1	-40.8	19.2	0.00e+00	0	42	0	0	49	4478
2026-01-25 23:07:24.36	145.85	35.95	-39.2	-41.0	19.0	0.00e+00	0	42	0	0	49	4558
2026-01-25 23:07:27.49	146.74	35.43	-39.7	-41.6	18.4	0.00e+00	0	42	0	0	50	4644
2026-01-25 23:07:30.33	147.53	34.95	-39.4	-41.3	18.7	0.00e+00	0	42	0	0	50	4444
2026-01-25 23:07:33.46	148.36	34.43	-39.2	-41.0	18.9	0.00e+00	0	42	0	0	50	4316
2026-01-25 23:07:36.30	149.10	33.96	-39.4	-41.2	18.7	0.00e+00	0	42	0	0	50	4439
2026-01-25 23:07:39.42	149.89	33.45	-39.2	-41.1	18.9	0.00e+00	0	42	0	0	50	4345
2026-01-25 23:07:42.26	150.58	32.99	-38.9	-40.7	19.2	0.00e+00	0	42	0	0	49	4419
2026-01-25 23:07:45.39	151.33	32.48	-38.7	-40.5	19.3	0.00e+00	0	42	0	0	49	4324
2026-01-25 23:07:48.31	152.00	32.00	-38.4	-40.2	19.5	0.00e+00	0	42	0	0	48	4415
2026-01-25 23:07:51.58	152.73	31.48	-38.5	-40.3	19.4	0.00e+00	0	42	0	0	48	4468
2026-01-25 23:07:54.30	153.32	31.05	-38.1	-39.8	19.9	0.00e+00	0	42	0	0	48	4224
2026-01-25 23:07:57.57	154.02	30.53	-37.6	-39.2	20.2	0.00e+00	0	42	0	0	47	4185
2026-01-25 23:08:00.28	154.57	30.11	-37.7	-39.4	20.1	0.00e+00	0	42	0	0	47	4271
2026-01-25 23:08:03.74	155.26	29.57	-37.9	-39.6	20.0	0.00e+00	0	42	0	0	47	4366
2026-01-25 23:08:06.44	155.79	29.15	-38.0	-39.7	20.0	0.00e+00	0	42	0	0	47	4425
2026-01-25 23:08:09.71	156.40	28.66	-37.8	-39.5	20.2	0.00e+00	0	42	0	0	47	4327
2026-01-25 23:08:12.44	156.91	28.25	-37.7	-39.4	20.2	0.00e+00	0	42	0	0	47	4291
2026-01-25 23:08:16.00	157.54	27.71	-37.9	-39.6	20.0	0.00e+00	0	42	0	0	47	4365
2026-01-25 23:08:18.72	158.01	27.31	-37.7	-39.4	20.2	0.00e+00	0	42	0	0	47	4280
2026-01-25 23:08:21.99	158.56	26.84	-37.3	-39.0	20.5	0.00e+00	0	42	0	0	46	4316
2026-01-25 23:08:24.71	159.01	26.44	-37.5	-39.1	20.4	0.00e+00	0	42	0	0	46	4373
2026-01-25 23:08:27.99	159.53	25.98	-37.5	-39.1	20.4	0.00e+00	0	42	0	0	46	4377
2026-01-25 23:08:30.76	159.97	25.58	-37.3	-39.0	20.5	0.00e+00	0	42	0	0	46	4312
2026-01-25 23:08:34.03	160.46	25.13	-37.4	-39.1	20.4	0.00e+00	0	42	0	0	46	4344
2026-01-25 23:08:36.95	160.89	24.73	-37.4	-39.1	20.4	0.00e+00	0	42	0	0	46	4358
2026-01-25 23:08:40.21	161.36	24.28	-37.7	-39.4	20.2	0.00e+00	0	42	0	0	46	4503
2026-01-25 23:08:42.92	161.75	23.92	-37.8	-39.5	20.1	0.00e+00	0	42	0	0	46	4581
2026-01-25 23:08:46.18	162.19	23.48	-37.9	-39.7	19.9	0.00e+00	0	42	0	0	46	4656
2026-01-25 23:08:48.98	162.57	23.11	-38.2	-40.0	19.5	0.00e+00	0	42	0	0	47	4578
2026-01-25 23:08:52.10	162.97	22.71	-38.2	-40.0	19.4	0.00e+00	0	42	0	0	47	4591
2026-01-25 23:08:55.36	163.39	22.29	-38.1	-39.8	19.6	0.00e+00	0	42	0	0	47	4481
2026-01-25 23:08:58.16	163.74	21.93	-38.0	-39.7	19.7	0.00e+00	0	42	0	0	47	4438
2026-01-25 23:09:01.30	164.12	21.54	-37.9	-39.6	19.7	0.00e+00	0	42	0	0	47	4378
2026-01-25 23:09:04.15	164.46	21.19	-37.9	-39.7	19.7	0.00e+00	0	42	0	0	47	4400
2026-01-25 23:09:07.48	164.84	20.78	-37.9	-39.7	19.8	0.00e+00	0	42	0	0	47	4394
2026-01-25 23:09:10.20	165.15	20.45	-37.8	-39.5	20.0	0.00e+00	0	42	0	0	47	4316
2026-01-25 23:09:13.73	165.54	20.03	-37.9	-39.6	19.9	0.00e+00	0	42	0	0	47	4374
2026-01-25 23:09:16.45	165.83	19.70	-38.2	-40.0	19.5	0.00e+00	0	42	0	0	47	4558
2026-01-25 23:09:19.72	166.18	19.32	-38.1	-39.9	19.5	0.00e+00	0	42	0	0	47	4516
2026-01-25 23:09:22.58	166.47	18.99	-38.1	-39.9	19.5	0.00e+00	0	42	0	0	47	4538
2026-01-25 23:09:25.70	166.79	18.64	-37.9	-39.6	19.7	0.00e+00	0	42	0	0	47	4382
2026-01-25 23:09:28.54	167.07	18.32	-38.0	-39.7	19.5	0.00e+00	0	42	0	0	47	4439
2026-01-25 23:09:31.69	167.37	17.97	-37.9	-39.6	19.7	0.00e+00	0	42	0	0	47	4379
2026-01-25 23:09:34.53	167.64	17.65	-37.7	-39.5	19.9	0.00e+00	0	42	0	0	47	4297
2026-01-25 23:09:37.66	167.93	17.31	-37.8	-39.5	19.9	0.00e+00	0	42	0	0	47	4331
2026-01-25 23:09:40.50	168.19	17.01	-37.8	-39.5	20.0	0.00e+00	0	42	0	0	47	4307
2026-01-25 23:09:43.64	168.47	16.67	-37.8	-39.5	19.9	0.00e+00	0	42	0	0	47	4334
2026-01-25 23:09:46.49	168.72	16.37	-38.0	-39.7	19.8	0.00e+00	0	42	0	0	47	4433
2026-01-25 23:09:49.54	168.98	16.05	-38.2	-40.0	19.5	0.00e+00	0	42	0	0	47	4552
2026-01-25 23:09:52.52	169.23	15.75	-38.5	-40.3	19.1	0.00e+00	0	42	0	0	47	4754
2026-01-25 23:09:55.51	169.48	15.44	-38.6	-40.4	19.0	0.00e+00	0	41	0	0	47	4802
2026-01-25 23:09:58.49	169.72	15.14	-38.6	-40.5	18.9	0.00e+00	0	42	0	0	47	4852
2026-01-25 23:10:01.48	169.95	14.84	-38.9	-40.8	18.8	0.00e+00	0	42	0	0	48	4707
2026-01-25 23:10:04.46	170.18	14.55	-38.8	-40.7	18.9	0.00e+00	0	42	0	0	48	4692
2026-01-25 23:10:07.44	170.41	14.26	-38.9	-40.8	18.8	0.00e+00	0	42	0	0	48	4748
2026-01-25 23:10:10.43	170.64	13.97	-38.8	-40.7	18.9	0.00e+00	0	42	0	0	48	4669
2026-01-25 23:10:13.41	170.85	13.69	-38.9	-40.7	18.8	0.00e+00	0	42	0	0	48	4698
2026-01-25 23:10:16.46	171.07	13.40	-38.8	-40.6	18.9	0.00e+00	0	42	0	0	48	4613
2026-01-25 23:10:19.45	171.29	13.12	-39.0	-40.8	18.7	0.00e+00	0	42	0	0	48	4738
2026-01-25 23:10:22.43	171.49	12.84	-39.0	-40.8	18.6	0.00e+00	0	42	0	0	48	4759
2026-01-25 23:10:25.41	171.70	12.57	-39.0	-40.9	18.6	0.00e+00	0	42	0	0	48	4802
2026-01-25 23:10:28.40	171.90	12.30	-39.2	-41.1	18.4	0.00e+00	0	42	0	0	49	4627
2026-01-25 23:10:31.38	172.09	12.03	-39.1	-41.2	18.4	0.00e+00	0	42	0	0	49	4656
2026-01-25 23:10:34.58	172.30	11.75	-39.0	-41.1	17.8	0.00e+00	0	42	0	0	49	4637
2026-01-25 23:10:37.43	172.48	11.50	-38.9	-41.1	18.0	0.00e+00	0	42	0	0	49	4625
2026-01-25 23:10:40.55	172.68	11.22	-38.7	-41.0	18.5	0.00e+00	0	42	0	0	49	4582
2026-01-25 23:10:43.40	172.85	10.98	-38.8	-41.1	18.4	1.33e-02	0	42	0	0	49	4626
2026-01-25 23:10:46.52	173.04	10.71	-38.7	-41.0	18.5	0.00e+00	0	42	0	0	49	4558
2026-01-25 23:10:49.37	173.21	10.47	-38.7	-40.9	18.5	0.00e+00	0	42	0	0	49	4526
2026-01-25 23:10:52.49	173.40	10.21	-38.7	-41.0	18.4	0.00e+00	0	42	0	0	49	4579
2026-01-25 23:10:55.33	173.56	9.97	-38.8	-41.2	18.3	0.00e+00	0	42	0	0	49	4667
2026-01-25 23:10:58.46	173.74	9.71	-38.8	-41.3	18.2	0.00e+00	0	42	0	0	49	4711
2026-01-25 23:11:01.30	173.90	9.48	-39.0	-41.4	18.0	0.00e+00	0	42	0	0	49	4808
2026-01-25 23:11:04.43	174.07	9.23	-39.1	-41.5	18.0	0.00e+00	0	42	0	0	49	4846
2026-01-25 23:11:07.36	174.23	8.99	-39.2	-41.7	17.8	0.00e+00	0	42	0	0	49	4957
2026-01-25 23:11:10.61	174.40	8.73	-47.9	-61.3	3.8	1.49e+00	0	42	104	0	66	17787
2026-01-25 23:11:13.45	174.55	8.51	-48.3	-61.4	3.8	1.49e+00	0	42	104	0	67	17030
2026-01-25 23:11:16.85	174.72	8.24	-48.5	-61.5	3.8	1.49e+00	0	42	104	0	67	17256
2026-01-25 23:11:19.56	174.86	8.03	-48.6	-61.6	3.8	1.49e+00	0	42	104	0	67	17395
2026-01-25 23:11:22.84	175.03	7.78	-48.9	-61.8	3.8	1.49e+00	0	42	104	0	68	16817
2026-01-25 23:11:25.54	175.16	7.58	-48.9	-61.8	3.8	1.49e+00	0	42	104	0	68	16790
2026-01-25 23:11:28.82	175.32	7.33	-48.8	-61.8	3.8	1.49e+00	0	42	104	0	68	16733
2026-01-25 23:11:31.54	175.45	7.13	-48.6	-61.8	3.8	1.49e+00	0	42	104	0	68	16802
2026-01-25 23:11:34.81	175.61	6.88	-48.5	-61.8	3.8	1.49e+00	0	42	104	0	68	16799
2026-01-25 23:11:37.53	175.73	6.68	-48.5	-61.8	3.8	1.49e+00	0	42	104	0	68	16716
2026-01-25 23:11:40.83	175.88	6.44	-48.5	-61.7	3.8	1.49e+00	0	42	104	0	68	16693
2026-01-25 23:11:43.52	176.01	6.25	-48.5	-61.8	3.8	1.49e+00	0	42	104	0	68	16702
2026-01-25 23:11:46.78	176.15	6.01	-48.5	-61.7	3.8	1.49e+00	0	42	104	0	68	16694
2026-01-25 23:11:49.48	176.27	5.82	-48.5	-61.7	3.8	1.49e+00	0	42	104	0	68	16649
2026-01-25 23:11:52.75	176.41	5.59	-48.5	-61.8	3.8	1.49e+00	0	42	104	0	68	16702
2026-01-25 23:11:55.46	176.53	5.40	-48.5	-61.7	3.8	1.49e+00	0	42	104	0	68	16648
2026-01-25 23:11:58.74	176.67	5.17	-48.5	-61.7	3.8	1.49e+00	0	42	104	0	68	16678
2026-01-25 23:12:01.44	176.78	4.98	-48.5	-61.7	3.8	1.49e+00	0	42	104	0	68	16669

#Closed at: 2026-01-25 23:12:02
#Recorded file [0 MB]: D:/Data/31040_260126_015922.dat