passes_logs/2026/01/25/T1/T1__20260125_003708_AQUA_rec.log

#Pass ID: 20260125_003708_AQUA
#Satellite: AQUA
#Configuration: AQUA
#almurnet v.1.7.20251203
#Start time: 2026-01-25 00:37:08

#Version: 2.0.20230620
#Station: T1
#Location: 37.570604 lon 55.790049 lat
#TLE: 1 27424U 02022A   26024.53919639  .00001970  00000+0  40397-3 0  9996
#TLE: 2 27424  98.4098 351.1277 0001915  66.8561 358.4840 14.61855303262281

#Time	Az	El	Level	Level2	SNR	BER	BlckErr	Temp	State	Recorded	gain1	gain2
2026-01-25 00:37:08.51	23.35	4.98	-48.5	-70.0	3.8	7.45e-01	0	34	0	0	69	40764
2026-01-25 00:37:11.48	23.52	5.19	-48.4	-69.9	3.8	7.44e-01	0	35	104	0	67	44948
2026-01-25 00:37:14.46	23.69	5.40	-48.4	-69.9	3.8	7.45e-01	0	35	104	0	67	45030
2026-01-25 00:37:17.44	23.86	5.61	-48.4	-69.9	3.8	7.46e-01	0	35	104	0	67	45175
2026-01-25 00:37:20.42	24.04	5.83	-48.4	-69.7	3.8	7.49e-01	0	35	104	0	67	44117
2026-01-25 00:37:23.40	24.22	6.04	-48.3	-69.7	3.8	7.46e-01	0	35	104	0	67	44413
2026-01-25 00:37:26.38	24.40	6.26	-48.3	-69.9	3.8	7.45e-01	0	35	104	0	67	44981
2026-01-25 00:37:29.36	24.58	6.49	-48.3	-69.8	3.8	7.49e-01	0	35	104	0	67	44762
2026-01-25 00:37:32.34	24.77	6.71	-48.3	-69.8	3.8	7.48e-01	0	36	104	0	67	44716
2026-01-25 00:37:35.32	24.96	6.93	-48.3	-69.7	3.8	7.46e-01	0	36	104	0	67	44339
2026-01-25 00:37:38.30	25.15	7.16	-48.3	-69.8	3.8	7.47e-01	0	35	104	0	67	44591
2026-01-25 00:37:41.28	25.35	7.39	-48.4	-69.7	3.8	7.47e-01	0	36	104	0	67	44248
2026-01-25 00:37:44.26	25.55	7.62	-48.3	-69.6	3.8	7.45e-01	0	35	104	0	67	43881
2026-01-25 00:37:47.24	25.75	7.85	-48.3	-66.9	3.8	7.43e-01	0	36	104	0	67	32104
2026-01-25 00:37:50.22	25.96	8.09	-48.3	-66.6	3.9	7.45e-01	0	36	104	0	67	30855
2026-01-25 00:37:53.20	26.17	8.33	-48.3	-66.5	3.9	7.40e-01	0	36	104	0	67	30622
2026-01-25 00:37:56.18	26.38	8.57	-48.3	-64.9	4.6	7.21e-01	0	36	104	0	67	25430
2026-01-25 00:37:59.16	26.60	8.81	-48.0	-60.1	8.2	6.41e-01	0	36	0	1572864	67	14665
2026-01-25 00:38:02.14	26.82	9.05	-47.1	-54.6	14.2	6.03e-01	0	36	0	6815744	66	8233
2026-01-25 00:38:05.12	27.04	9.30	-46.1	-50.7	18.3	6.00e-01	0	36	0	12582912	64	5872
2026-01-25 00:38:08.10	27.27	9.55	-43.7	-46.8	22.2	6.02e-01	0	36	0	18350080	59	5005
2026-01-25 00:38:11.08	27.50	9.80	-43.0	-45.8	23.0	6.01e-01	0	36	0	23592960	57	5023
2026-01-25 00:38:14.06	27.74	10.05	-43.0	-45.8	23.0	6.00e-01	0	36	0	29360128	57	5040
2026-01-25 00:38:17.05	27.98	10.31	-42.6	-45.4	23.5	6.02e-01	0	36	0	35127296	57	4796
2026-01-25 00:38:20.03	28.22	10.57	-42.4	-45.3	23.6	6.01e-01	0	36	0	40370176	56	4997
2026-01-25 00:38:23.02	28.47	10.83	-42.4	-45.3	23.6	6.04e-01	0	37	0	46137344	56	5031
2026-01-25 00:38:26.01	28.73	11.10	-42.4	-45.4	23.6	6.02e-01	0	36	0	51904512	56	5051
2026-01-25 00:38:28.99	28.98	11.37	-42.2	-45.2	23.8	6.01e-01	0	36	0	57147392	56	4945
2026-01-25 00:38:31.97	29.25	11.64	-42.3	-45.2	23.7	6.04e-01	0	37	0	62914560	56	4979
2026-01-25 00:38:34.96	29.52	11.91	-42.1	-45.0	24.0	6.02e-01	0	37	0	68681728	56	4834
2026-01-25 00:38:37.94	29.79	12.19	-42.2	-44.9	24.2	6.00e-01	0	36	0	73924608	56	4764
2026-01-25 00:38:40.92	30.07	12.47	-42.2	-44.8	24.2	6.02e-01	0	36	0	79691776	56	4751
2026-01-25 00:38:43.91	30.36	12.75	-42.2	-44.9	24.2	6.02e-01	0	37	0	85458944	56	4770
2026-01-25 00:38:46.89	30.65	13.04	-42.2	-44.7	24.3	6.02e-01	0	37	0	90701824	56	4687
2026-01-25 00:38:49.87	30.94	13.32	-42.0	-44.6	24.5	6.02e-01	0	37	0	96468992	56	4604
2026-01-25 00:38:52.86	31.25	13.62	-41.8	-44.4	24.5	6.03e-01	0	37	0	102236160	55	4785
2026-01-25 00:38:55.84	31.55	13.91	-41.8	-44.4	24.5	6.00e-01	0	37	0	107479040	55	4808
2026-01-25 00:38:58.83	31.87	14.21	-41.7	-44.3	24.6	6.04e-01	0	37	0	113246208	55	4737
2026-01-25 00:39:01.81	32.19	14.51	-41.7	-44.2	24.7	6.01e-01	0	37	0	119013376	55	4703
2026-01-25 00:39:04.80	32.52	14.82	-41.8	-44.3	24.7	6.03e-01	0	37	0	124256256	55	4747
2026-01-25 00:39:07.78	32.86	15.13	-41.8	-44.3	24.7	6.01e-01	0	37	0	130023424	55	4747
2026-01-25 00:39:10.77	33.20	15.44	-41.7	-44.2	24.7	6.00e-01	0	37	0	135790592	55	4686
2026-01-25 00:39:13.76	33.55	15.76	-41.8	-44.3	24.7	6.04e-01	0	37	0	141033472	55	4742
2026-01-25 00:39:16.74	33.91	16.08	-41.5	-44.1	24.9	6.03e-01	0	37	0	146800640	55	4612
2026-01-25 00:39:19.73	34.27	16.40	-41.4	-44.0	25.0	6.01e-01	0	37	0	152567808	54	4854
2026-01-25 00:39:22.71	34.65	16.73	-41.4	-44.1	24.9	6.00e-01	0	37	0	158334976	54	4912
2026-01-25 00:39:25.70	35.03	17.06	-41.4	-44.1	24.9	6.00e-01	0	37	0	163577856	54	4903
2026-01-25 00:39:28.69	35.42	17.39	-41.5	-44.1	24.5	6.01e-01	0	37	0	169345024	54	4891
2026-01-25 00:39:31.67	35.82	17.73	-41.7	-44.1	24.9	6.04e-01	0	37	0	175112192	54	4919
2026-01-25 00:39:34.66	36.24	18.08	-41.8	-44.2	24.9	6.01e-01	0	37	0	180355072	54	4945
2026-01-25 00:39:37.64	36.65	18.42	-41.7	-44.2	24.8	6.05e-01	0	37	0	186122240	54	4954
2026-01-25 00:39:40.62	37.08	18.77	-41.8	-44.2	24.8	6.04e-01	0	37	0	191889408	54	4979
2026-01-25 00:39:43.60	37.52	19.13	-41.6	-44.1	24.9	6.03e-01	0	37	0	197132288	54	4921
2026-01-25 00:39:46.59	37.97	19.49	-41.5	-44.2	24.8	6.02e-01	0	37	0	202899456	54	4978
2026-01-25 00:39:49.57	38.44	19.85	-41.7	-44.2	24.9	6.04e-01	0	37	0	208666624	54	4981
2026-01-25 00:39:52.55	38.91	20.22	-41.6	-44.1	25.0	6.02e-01	0	37	0	213909504	54	4910
2026-01-25 00:39:55.54	39.39	20.59	-41.7	-44.3	24.8	6.01e-01	0	37	0	219676672	54	4999
2026-01-25 00:39:58.52	39.89	20.96	-41.7	-44.2	24.9	6.02e-01	0	37	0	225443840	54	4947
2026-01-25 00:40:01.50	40.40	21.34	-41.6	-44.1	25.0	6.02e-01	0	37	0	230686720	54	4918
2026-01-25 00:40:04.48	40.92	21.72	-41.8	-44.2	24.9	6.02e-01	0	37	0	236453888	54	4954
2026-01-25 00:40:07.47	41.46	22.11	-41.8	-44.2	24.9	6.04e-01	0	37	0	242221056	54	4973
2026-01-25 00:40:10.46	42.01	22.50	-41.8	-44.3	24.9	6.02e-01	0	37	0	247463936	54	4994
2026-01-25 00:40:13.45	42.58	22.90	-41.8	-44.2	24.9	6.02e-01	0	37	0	253231104	54	4956
2026-01-25 00:40:16.43	43.16	23.30	-41.9	-44.3	24.9	6.01e-01	0	37	0	258998272	54	5035
2026-01-25 00:40:19.41	43.75	23.70	-41.9	-44.3	24.8	6.03e-01	0	37	0	264241152	54	5033
2026-01-25 00:40:22.40	44.36	24.11	-41.8	-44.2	24.8	6.01e-01	0	37	0	270008320	54	4962
2026-01-25 00:40:25.39	44.99	24.52	-41.9	-44.4	24.7	6.01e-01	0	37	0	275775488	54	5043
2026-01-25 00:40:28.37	45.64	24.94	-41.8	-44.2	24.8	6.05e-01	0	37	0	281018368	54	4974
2026-01-25 00:40:31.36	46.30	25.36	-42.1	-44.6	24.6	6.02e-01	0	37	0	286785536	54	5197
2026-01-25 00:40:34.34	46.98	25.78	-41.9	-44.3	24.9	6.03e-01	0	37	0	292552704	54	5015
2026-01-25 00:40:37.33	47.68	26.20	-41.9	-44.3	24.8	6.01e-01	0	37	0	297795584	54	5032
2026-01-25 00:40:40.31	48.40	26.63	-42.0	-44.5	24.7	6.01e-01	0	37	0	303562752	54	5115
2026-01-25 00:40:43.29	49.14	27.06	-41.9	-44.3	24.8	6.05e-01	0	37	0	309329920	54	5018
2026-01-25 00:40:46.28	49.90	27.49	-41.9	-44.3	24.9	6.03e-01	0	37	0	314572800	54	5027
2026-01-25 00:40:49.26	50.68	27.93	-42.0	-44.5	24.8	6.02e-01	0	37	0	320339968	54	5123
2026-01-25 00:40:52.25	51.49	28.36	-42.0	-44.4	24.8	6.03e-01	0	37	0	326107136	54	5066
2026-01-25 00:40:55.23	52.31	28.80	-41.9	-44.3	24.9	6.03e-01	0	37	0	331350016	54	5029
2026-01-25 00:40:58.21	53.16	29.24	-42.1	-44.5	24.7	6.02e-01	0	37	0	337117184	54	5135
2026-01-25 00:41:01.20	54.03	29.68	-42.0	-44.4	24.8	6.01e-01	0	37	0	342884352	54	5079
2026-01-25 00:41:04.18	54.93	30.12	-42.0	-44.4	24.9	6.02e-01	0	37	0	348127232	54	5049
2026-01-25 00:41:07.17	55.86	30.56	-41.9	-44.3	25.0	6.03e-01	0	37	0	353894400	54	4998
2026-01-25 00:41:10.16	56.81	31.00	-42.1	-44.5	24.8	6.04e-01	0	37	0	359661568	54	5111
2026-01-25 00:41:13.14	57.78	31.44	-42.1	-44.5	24.7	6.02e-01	0	37	0	364904448	54	5151
2026-01-25 00:41:16.13	58.79	31.87	-42.0	-44.4	24.9	6.02e-01	0	37	0	370671616	54	5052
2026-01-25 00:41:19.11	59.82	32.30	-42.1	-44.5	24.8	6.05e-01	0	37	0	376438784	54	5154
2026-01-25 00:41:22.10	60.88	32.73	-41.9	-44.3	24.9	6.01e-01	0	37	0	381681664	54	5020
2026-01-25 00:41:25.08	61.96	33.16	-42.0	-44.4	24.9	6.02e-01	0	37	0	387448832	54	5068
2026-01-25 00:41:28.06	63.08	33.58	-41.8	-44.2	25.0	6.03e-01	0	37	0	393216000	54	4950
2026-01-25 00:41:31.05	64.23	33.99	-42.1	-44.5	24.7	6.03e-01	0	37	0	398458880	55	4863
2026-01-25 00:41:34.03	65.40	34.40	-42.1	-44.5	24.8	6.01e-01	0	37	0	404226048	55	4866
2026-01-25 00:41:37.02	66.61	34.80	-42.2	-44.6	24.8	6.02e-01	0	37	0	409993216	55	4874
2026-01-25 00:41:40.00	67.84	35.19	-42.0	-44.3	25.0	6.02e-01	0	38	0	415236096	55	4745
2026-01-25 00:41:42.99	69.11	35.57	-42.2	-44.6	24.6	6.00e-01	0	38	0	421003264	55	4889
2026-01-25 00:41:45.97	70.41	35.94	-42.1	-44.5	24.8	6.01e-01	0	37	0	426770432	55	4817
2026-01-25 00:41:48.96	71.74	36.30	-42.0	-44.4	24.9	6.04e-01	0	37	0	432013312	55	4791
2026-01-25 00:41:51.94	73.09	36.65	-41.9	-44.3	24.9	6.00e-01	0	37	0	437780480	55	4740
2026-01-25 00:41:54.93	74.48	36.98	-41.6	-44.0	25.3	6.04e-01	0	37	0	443547648	55	4559
2026-01-25 00:41:57.91	75.89	37.30	-41.8	-44.3	25.0	6.04e-01	0	37	0	448790528	55	4706
2026-01-25 00:42:00.89	77.33	37.60	-42.0	-44.4	24.9	6.01e-01	0	37	0	454557696	55	4798
2026-01-25 00:42:03.88	78.80	37.88	-41.8	-44.2	25.1	5.99e-01	0	37	0	460324864	55	4666
2026-01-25 00:42:06.86	80.29	38.15	-41.8	-44.2	24.9	5.99e-01	0	37	0	466092032	55	4702
2026-01-25 00:42:09.84	81.80	38.39	-41.7	-44.1	25.2	6.00e-01	0	38	0	471334912	55	4629
2026-01-25 00:42:12.83	83.35	38.62	-41.6	-44.1	25.2	6.02e-01	0	37	0	477102080	55	4606
2026-01-25 00:42:15.81	84.90	38.82	-41.4	-43.8	25.3	6.05e-01	0	37	0	482869248	54	4744
2026-01-25 00:42:18.80	86.48	39.00	-41.7	-44.2	25.0	6.01e-01	0	38	0	488112128	54	4959
2026-01-25 00:42:21.78	88.08	39.16	-41.7	-44.1	25.2	6.04e-01	0	37	0	493879296	54	4915
2026-01-25 00:42:24.77	89.69	39.30	-41.7	-44.1	25.1	6.03e-01	0	38	0	499646464	54	4902
2026-01-25 00:42:27.75	91.31	39.41	-41.8	-44.2	25.1	6.02e-01	0	38	0	504889344	54	4950
2026-01-25 00:42:30.74	92.95	39.49	-41.6	-44.0	25.2	6.01e-01	0	37	0	510656512	54	4828
2026-01-25 00:42:33.72	94.59	39.55	-41.6	-44.0	25.3	6.01e-01	0	38	0	516423680	54	4831
2026-01-25 00:42:36.71	96.24	39.59	-41.7	-44.0	25.2	5.99e-01	0	38	0	521666560	54	4858
2026-01-25 00:42:39.69	97.88	39.60	-41.7	-44.1	25.1	5.96e-01	0	37	0	527433728	54	4913
2026-01-25 00:42:42.68	99.53	39.58	-41.8	-44.1	25.2	6.02e-01	0	38	0	533200896	54	4900
2026-01-25 00:42:45.66	101.18	39.54	-41.9	-44.3	25.0	6.01e-01	0	38	0	538443776	54	4987
2026-01-25 00:42:48.65	102.82	39.47	-41.7	-44.1	25.2	6.02e-01	0	37	0	544210944	54	4898
2026-01-25 00:42:51.63	104.45	39.38	-41.8	-44.2	25.2	6.04e-01	0	38	0	549978112	54	4927
2026-01-25 00:42:54.61	106.07	39.26	-41.8	-44.2	25.1	6.00e-01	0	38	0	555220992	54	4937
2026-01-25 00:42:57.60	107.68	39.12	-41.9	-44.3	25.0	6.02e-01	0	37	0	560988160	54	5021
2026-01-25 00:43:00.58	109.27	38.95	-41.8	-44.2	25.1	6.02e-01	0	38	0	566755328	54	4940
2026-01-25 00:43:03.57	110.85	38.76	-42.0	-44.4	24.9	6.02e-01	0	37	0	571998208	54	5084
2026-01-25 00:43:06.55	112.40	38.55	-42.1	-44.5	24.8	6.03e-01	0	37	0	577765376	54	5155
2026-01-25 00:43:09.53	113.94	38.32	-41.9	-44.2	25.0	6.01e-01	0	37	0	583532544	54	4976
2026-01-25 00:43:12.52	115.45	38.07	-41.6	-44.0	25.3	6.02e-01	0	38	0	588775424	54	4843
2026-01-25 00:43:15.50	116.94	37.80	-42.0	-44.4	24.9	6.02e-01	0	38	0	594542592	54	5080
2026-01-25 00:43:18.49	118.41	37.51	-42.1	-44.6	24.8	6.01e-01	0	38	0	600309760	54	5160
2026-01-25 00:43:21.47	119.84	37.20	-41.6	-43.9	25.4	6.02e-01	0	38	0	605552640	54	4783
2026-01-25 00:43:24.46	121.25	36.88	-41.7	-44.0	25.2	6.02e-01	0	38	0	611319808	54	4860
2026-01-25 00:43:27.45	122.63	36.54	-41.5	-43.9	24.7	6.02e-01	0	38	0	617086976	54	4771
2026-01-25 00:43:30.43	123.98	36.19	-41.4	-43.8	25.4	6.01e-01	0	38	0	622329856	54	4715
2026-01-25 00:43:33.42	125.31	35.82	-41.6	-43.9	25.3	6.02e-01	0	38	0	628097024	54	4781
2026-01-25 00:43:36.40	126.60	35.45	-41.1	-43.4	25.8	6.01e-01	0	38	0	633864192	54	4527
2026-01-25 00:43:39.39	127.86	35.06	-41.4	-43.7	25.5	6.02e-01	0	38	0	639107072	54	4667
2026-01-25 00:43:42.37	129.09	34.67	-41.2	-43.5	25.7	6.02e-01	0	38	0	644874240	54	4549
2026-01-25 00:43:45.35	130.29	34.26	-40.9	-43.2	25.9	6.01e-01	0	38	0	650641408	53	4683
2026-01-25 00:43:48.34	131.46	33.85	-41.0	-43.3	25.8	6.02e-01	0	38	0	655884288	53	4742
2026-01-25 00:43:51.32	132.60	33.43	-40.8	-43.1	26.1	6.01e-01	0	37	0	661651456	53	4614
2026-01-25 00:43:54.30	133.71	33.01	-40.8	-43.1	25.9	6.02e-01	0	38	0	667418624	53	4635
2026-01-25 00:43:57.28	134.80	32.58	-40.6	-42.8	26.3	6.03e-01	0	38	0	672661504	53	4461
2026-01-25 00:44:00.26	135.85	32.15	-40.7	-42.9	26.3	6.04e-01	0	37	0	678428672	53	4499
2026-01-25 00:44:03.25	136.88	31.71	-40.6	-42.8	26.3	6.01e-01	0	38	0	684195840	53	4466
2026-01-25 00:44:06.24	137.88	31.27	-40.6	-42.8	26.3	6.01e-01	0	38	0	689438720	53	4465
2026-01-25 00:44:09.23	138.85	30.83	-40.5	-42.6	26.4	6.01e-01	0	38	0	695205888	53	4389
2026-01-25 00:44:12.21	139.79	30.39	-40.6	-42.8	26.3	6.03e-01	0	38	0	700973056	52	4730
2026-01-25 00:44:15.20	140.71	29.95	-40.6	-42.8	26.3	6.03e-01	0	38	0	706215936	52	4749
2026-01-25 00:44:18.18	141.61	29.51	-41.0	-43.3	25.9	6.01e-01	0	38	0	711983104	52	5002
2026-01-25 00:44:21.16	142.47	29.06	-40.6	-42.9	26.2	6.02e-01	0	38	0	717750272	52	4760
2026-01-25 00:44:24.15	143.32	28.62	-40.8	-43.0	26.1	6.05e-01	0	38	0	722993152	52	4856
2026-01-25 00:44:27.13	144.14	28.18	-40.9	-43.2	25.9	6.02e-01	0	37	0	728760320	52	4940
2026-01-25 00:44:30.11	144.94	27.74	-40.8	-43.1	26.0	6.02e-01	0	38	0	734527488	52	4913
2026-01-25 00:44:33.10	145.72	27.30	-40.9	-43.3	25.8	6.01e-01	0	38	0	739770368	52	5015
2026-01-25 00:44:36.08	146.47	26.87	-41.1	-43.5	25.6	6.01e-01	0	38	0	745537536	52	5159
2026-01-25 00:44:39.07	147.21	26.44	-41.2	-43.5	25.6	6.05e-01	0	38	0	751304704	53	4831
2026-01-25 00:44:42.05	147.92	26.01	-41.2	-43.5	25.6	6.04e-01	0	38	0	756547584	53	4870
2026-01-25 00:44:45.04	148.62	25.58	-41.3	-43.8	25.3	6.03e-01	0	38	0	762314752	53	4999
2026-01-25 00:44:48.02	149.30	25.16	-41.2	-43.7	25.4	6.00e-01	0	38	0	768081920	53	4979
2026-01-25 00:44:51.00	149.95	24.74	-41.1	-43.6	25.6	6.03e-01	0	38	0	773324800	53	4879
2026-01-25 00:44:53.99	150.60	24.32	-41.3	-43.8	25.4	6.00e-01	0	38	0	779091968	53	4996
2026-01-25 00:44:56.97	151.22	23.91	-41.4	-43.7	25.4	6.03e-01	0	38	0	784859136	53	4951
2026-01-25 00:44:59.96	151.83	23.50	-41.4	-43.8	25.4	6.00e-01	0	38	0	790102016	53	4992
2026-01-25 00:45:02.94	152.42	23.10	-41.5	-43.8	25.3	6.01e-01	0	38	0	795869184	53	5008
2026-01-25 00:45:05.92	152.99	22.70	-41.4	-43.8	25.4	6.00e-01	0	38	0	801636352	53	4993
2026-01-25 00:45:08.91	153.56	22.30	-41.4	-43.7	25.4	6.02e-01	0	38	0	806879232	53	4960
2026-01-25 00:45:11.89	154.10	21.91	-41.5	-43.9	25.2	6.02e-01	0	38	0	812646400	53	5057
2026-01-25 00:45:14.88	154.64	21.52	-41.5	-43.8	25.3	6.01e-01	0	38	0	818413568	53	5030
2026-01-25 00:45:17.86	155.16	21.13	-41.3	-43.6	25.5	6.00e-01	0	38	0	824180736	53	4914
2026-01-25 00:45:20.85	155.66	20.75	-41.3	-43.5	25.5	6.03e-01	0	38	0	829423616	53	4866
2026-01-25 00:45:23.83	156.16	20.37	-41.3	-43.6	25.4	6.02e-01	0	38	0	835190784	53	4896
2026-01-25 00:45:26.81	156.64	20.00	-41.3	-43.6	25.4	6.02e-01	0	38	0	840957952	53	4921
2026-01-25 00:45:29.80	157.11	19.63	-41.2	-43.6	25.4	5.99e-01	0	38	0	846200832	53	4912
2026-01-25 00:45:32.79	157.57	19.27	-41.1	-43.6	25.4	6.00e-01	0	38	0	851968000	53	4875
2026-01-25 00:45:35.77	158.02	18.91	-41.1	-43.5	25.5	6.04e-01	0	38	0	857735168	53	4849
2026-01-25 00:45:38.75	158.45	18.55	-41.1	-43.5	25.5	6.03e-01	0	38	0	862978048	53	4822
2026-01-25 00:45:41.74	158.88	18.20	-41.1	-43.5	25.5	6.05e-01	0	38	0	868745216	53	4844
2026-01-25 00:45:44.72	159.29	17.85	-41.1	-43.5	25.5	6.00e-01	0	38	0	874512384	53	4825
2026-01-25 00:45:47.71	159.70	17.51	-41.1	-43.5	25.5	6.03e-01	0	38	0	879755264	53	4824
2026-01-25 00:45:50.70	160.10	17.17	-41.1	-43.4	25.6	6.03e-01	0	38	0	885522432	53	4805
2026-01-25 00:45:53.68	160.49	16.83	-41.1	-43.4	25.5	6.03e-01	0	38	0	891289600	53	4809
2026-01-25 00:45:56.67	160.87	16.50	-41.1	-43.4	25.5	6.00e-01	0	38	0	896532480	53	4781
2026-01-25 00:45:59.65	161.24	16.17	-41.0	-43.3	25.6	6.01e-01	0	38	0	902299648	53	4746
2026-01-25 00:46:02.64	161.60	15.85	-40.8	-43.2	25.7	6.01e-01	0	38	0	908066816	53	4683
2026-01-25 00:46:05.62	161.96	15.53	-41.0	-43.4	25.1	6.01e-01	0	38	0	913309696	53	4761
2026-01-25 00:46:08.61	162.31	15.21	-41.0	-43.4	25.5	6.05e-01	0	38	0	919076864	53	4810
2026-01-25 00:46:11.59	162.65	14.90	-41.1	-43.6	25.4	6.02e-01	0	38	0	924844032	53	4878
2026-01-25 00:46:14.58	162.98	14.59	-41.2	-43.6	25.3	6.03e-01	0	38	0	930086912	53	4921
2026-01-25 00:46:17.56	163.30	14.28	-41.2	-43.6	25.3	6.04e-01	0	38	0	935854080	53	4905
2026-01-25 00:46:20.55	163.62	13.98	-41.2	-43.6	25.3	6.01e-01	0	38	0	941621248	53	4886
2026-01-25 00:46:23.53	163.93	13.68	-41.2	-43.6	25.3	6.02e-01	0	38	0	946864128	53	4906
2026-01-25 00:46:26.52	164.24	13.38	-41.3	-43.7	25.2	6.03e-01	0	38	0	952631296	53	4954
2026-01-25 00:46:29.50	164.54	13.09	-41.3	-43.8	25.0	6.02e-01	0	38	0	958398464	53	5032
2026-01-25 00:46:32.49	164.83	12.80	-41.2	-43.8	25.0	6.02e-01	0	38	0	963641344	53	5034
2026-01-25 00:46:35.48	165.12	12.51	-41.3	-43.9	24.9	6.02e-01	0	38	0	969408512	53	5094
2026-01-25 00:46:38.46	165.40	12.23	-41.3	-44.0	24.9	6.01e-01	0	38	0	975175680	53	5112
2026-01-25 00:46:41.45	165.68	11.95	-41.4	-44.1	24.8	6.04e-01	0	38	0	980418560	53	5167
2026-01-25 00:46:44.43	165.95	11.67	-41.5	-44.0	24.8	6.03e-01	0	38	0	986185728	53	5158
2026-01-25 00:46:47.42	166.22	11.40	-41.5	-44.1	24.7	6.03e-01	0	38	0	991952896	53	5184
2026-01-25 00:46:50.40	166.48	11.13	-41.4	-44.0	24.9	6.02e-01	0	38	0	997195776	53	5112
2026-01-25 00:46:53.39	166.73	10.86	-41.5	-44.2	24.6	6.01e-01	0	38	0	1002962944	53	5269
2026-01-25 00:46:56.37	166.98	10.59	-41.3	-44.4	24.4	6.00e-01	0	38	0	1008730112	53	5352
2026-01-25 00:46:59.36	167.23	10.33	-41.0	-44.4	24.4	6.04e-01	0	38	0	1013972992	53	5380
2026-01-25 00:47:02.32	167.47	10.07	-40.7	-44.5	24.3	6.03e-01	0	38	0	1019740160	53	5433
2026-01-25 00:47:05.31	167.71	9.81	-40.5	-44.5	24.2	6.02e-01	0	38	0	1025507328	53	5433
2026-01-25 00:47:08.29	167.94	9.56	-40.6	-44.6	24.1	6.04e-01	0	38	0	1030750208	53	5521
2026-01-25 00:47:11.27	168.17	9.31	-40.8	-44.8	23.9	6.01e-01	0	38	0	1036517376	53	5597
2026-01-25 00:47:14.25	168.39	9.06	-41.0	-44.8	23.9	6.04e-01	0	38	0	1042284544	53	5621
2026-01-25 00:47:17.23	168.61	8.81	-49.2	-70.3	3.8	7.46e-01	0	38	104	1043333120	70	39927
2026-01-25 00:47:20.21	168.83	8.56	-50.3	-70.8	3.8	7.45e-01	0	38	104	1043333120	71	39771
2026-01-25 00:47:23.19	169.04	8.32	-50.6	-70.9	3.8	7.45e-01	0	38	104	1043333120	71	40435
2026-01-25 00:47:26.16	169.25	8.08	-50.7	-71.0	3.8	7.47e-01	0	38	104	1043333120	72	38299
2026-01-25 00:47:29.14	169.46	7.84	-50.8	-71.0	3.8	7.46e-01	0	38	104	1043333120	72	38343
2026-01-25 00:47:32.13	169.66	7.61	-50.4	-71.0	3.8	7.44e-01	0	38	104	1043333120	72	38356
2026-01-25 00:47:35.10	169.86	7.37	-50.9	-71.0	3.8	7.46e-01	0	38	104	1043333120	72	38382
2026-01-25 00:47:38.08	170.06	7.14	-50.5	-71.0	3.8	7.48e-01	0	38	104	1043333120	72	38426
2026-01-25 00:47:41.06	170.25	6.91	-50.4	-71.0	3.8	7.44e-01	0	38	104	1043333120	71	40804
2026-01-25 00:47:44.04	170.44	6.68	-50.1	-70.9	3.8	7.50e-01	0	38	104	1043333120	71	40503
2026-01-25 00:47:47.02	170.62	6.46	-50.1	-71.0	3.8	7.47e-01	0	38	104	1043333120	71	40556
2026-01-25 00:47:50.00	170.81	6.24	-50.1	-70.9	3.8	7.44e-01	0	38	104	1043333120	71	40458
2026-01-25 00:47:52.98	170.99	6.01	-50.0	-70.9	3.8	7.46e-01	0	38	104	1043333120	71	40473
2026-01-25 00:47:55.96	171.17	5.79	-50.0	-70.9	3.8	7.47e-01	0	38	104	1043333120	71	40376
2026-01-25 00:47:58.94	171.34	5.58	-50.0	-70.9	3.8	7.47e-01	0	38	104	1043333120	71	40350
2026-01-25 00:48:01.92	171.51	5.36	-50.1	-70.9	3.8	7.49e-01	0	38	104	1043333120	71	40401
2026-01-25 00:48:04.90	171.68	5.15	-50.0	-70.9	3.8	7.47e-01	0	38	104	1043333120	71	40361

#Closed at: 2026-01-25 00:48:07
#Recorded file [1043 MB]: D:/Data/31040_260125_033708.dat