passes_logs/2026/01/25/T1/T1__20260125_005839_NOAA_21_JPSS-2_rec.log

#Pass ID: 20260125_005839_NOAA 21 (JPSS-2)
#Satellite: NOAA 21 (JPSS-2)
#Configuration: NOAA 21
#almurnet v.1.7.20251203
#Start time: 2026-01-25 00:58:41

#Version: 2.0.20230620
#Station: T1
#Location: 37.570604 lon 55.790049 lat
#TLE: 1 54234U 22150A   26024.45772595  .00000201  00000+0  11607-3 0  9996
#TLE: 2 54234  98.7508 325.2435 0000728 220.7365 139.3757 14.19538765166156

#Time	Az	El	Level	Level2	SNR	BER	BlckErr	Temp	State	Recorded	gain1	gain2
2026-01-25 00:58:41.22	8.58	5.11	-46.0	-61.2	3.8	1.49e+00	0	37	0	0	63	20974
2026-01-25 00:58:44.20	8.39	5.31	-46.4	-61.1	3.8	1.49e+00	0	37	104	0	63	20761
2026-01-25 00:58:47.18	8.20	5.50	-46.4	-61.2	3.8	1.49e+00	0	37	104	0	63	20884
2026-01-25 00:58:50.16	8.01	5.70	-46.4	-61.2	3.8	1.49e+00	0	37	104	0	63	20810
2026-01-25 00:58:53.14	7.81	5.90	-46.4	-61.1	3.8	1.49e+00	0	37	104	0	63	20662
2026-01-25 00:58:56.12	7.61	6.09	-46.4	-61.2	3.8	1.49e+00	0	37	104	0	63	20853
2026-01-25 00:58:59.09	7.41	6.29	-46.4	-61.2	3.8	1.49e+00	0	38	104	0	63	20908
2026-01-25 00:59:02.07	7.21	6.50	-46.4	-61.1	3.8	1.49e+00	0	38	104	0	63	20768
2026-01-25 00:59:05.05	7.00	6.70	-46.4	-61.0	3.8	1.49e+00	0	38	104	0	63	20506
2026-01-25 00:59:08.03	6.79	6.90	-46.4	-60.8	3.8	1.49e+00	0	38	104	0	63	19917
2026-01-25 00:59:11.01	6.58	7.11	-46.3	-60.2	3.8	1.49e+00	0	38	104	0	63	18667
2026-01-25 00:59:13.99	6.36	7.31	-46.3	-59.1	3.9	1.49e+00	0	38	104	0	63	16403
2026-01-25 00:59:16.97	6.14	7.52	-46.2	-59.0	3.8	1.48e+00	0	38	104	0	63	16129
2026-01-25 00:59:19.95	5.92	7.73	-46.3	-59.8	3.8	1.49e+00	0	38	104	0	63	17696
2026-01-25 00:59:22.93	5.69	7.94	-46.3	-60.9	3.8	1.49e+00	0	38	104	0	63	20109
2026-01-25 00:59:25.91	5.46	8.15	-46.3	-60.1	3.8	1.49e+00	0	38	104	0	63	18449
2026-01-25 00:59:28.89	5.23	8.36	-45.4	-52.8	7.1	1.78e-01	0	38	0	0	62	8401
2026-01-25 00:59:31.87	4.99	8.58	-43.5	-47.6	12.3	4.16e-04	0	38	0	0	59	5504
2026-01-25 00:59:34.85	4.75	8.79	-42.5	-45.8	14.2	3.00e-06	0	38	0	0	56	5305
2026-01-25 00:59:37.83	4.51	9.01	-43.1	-46.9	13.1	1.75e-05	0	38	0	0	56	6023
2026-01-25 00:59:40.81	4.26	9.23	-44.6	-50.0	9.9	1.94e-04	0	38	0	0	59	7240
2026-01-25 00:59:43.80	4.00	9.45	-39.4	-41.5	18.3	0.00e+00	0	39	0	0	50	4555
2026-01-25 00:59:46.78	3.75	9.67	-39.2	-41.1	18.5	0.00e+00	0	39	0	0	50	4384
2026-01-25 00:59:49.76	3.49	9.89	-39.3	-41.1	18.5	0.00e+00	0	39	0	0	50	4387
2026-01-25 00:59:52.74	3.22	10.11	-39.3	-41.2	18.5	0.00e+00	0	39	0	0	50	4409
2026-01-25 00:59:55.73	2.95	10.34	-39.1	-41.0	18.7	0.00e+00	0	39	0	0	50	4314
2026-01-25 00:59:58.72	2.68	10.57	-39.0	-41.0	18.7	0.00e+00	0	39	0	0	49	4555
2026-01-25 01:00:01.70	2.40	10.79	-38.8	-40.8	18.8	0.00e+00	0	39	0	0	49	4488
2026-01-25 01:00:04.69	2.12	11.02	-38.9	-40.9	18.7	0.00e+00	0	39	0	0	49	4538
2026-01-25 01:00:07.67	1.83	11.25	-38.8	-40.9	18.8	0.00e+00	0	39	0	0	49	4526
2026-01-25 01:00:10.65	1.54	11.49	-38.7	-40.7	19.0	0.00e+00	0	39	0	0	49	4415
2026-01-25 01:00:13.64	1.24	11.72	-38.7	-40.7	19.0	0.00e+00	0	39	0	0	49	4440
2026-01-25 01:00:16.63	0.94	11.96	-38.6	-40.7	19.1	0.00e+00	0	39	0	0	49	4396
2026-01-25 01:00:19.61	0.63	12.19	-38.6	-40.6	19.2	0.00e+00	0	39	0	0	48	4608
2026-01-25 01:00:22.59	0.32	12.43	-38.6	-40.6	19.1	0.00e+00	0	39	0	0	48	4636
2026-01-25 01:00:25.58	0.00	12.67	-38.6	-40.5	19.3	0.00e+00	0	39	0	0	48	4583
2026-01-25 01:00:28.56	359.68	12.91	-38.5	-40.4	19.3	0.00e+00	0	39	0	0	48	4505
2026-01-25 01:00:31.55	359.35	13.16	-38.5	-40.4	19.4	0.00e+00	0	39	0	0	48	4498
2026-01-25 01:00:34.53	359.02	13.40	-38.6	-40.4	19.2	0.00e+00	0	39	0	0	48	4535
2026-01-25 01:00:37.52	358.68	13.65	-38.6	-40.5	19.2	0.00e+00	0	39	0	0	48	4570
2026-01-25 01:00:40.50	358.33	13.89	-38.8	-40.6	19.2	0.00e+00	0	39	0	0	48	4633
2026-01-25 01:00:43.49	357.98	14.14	-38.6	-40.4	19.4	0.00e+00	0	39	0	0	48	4505
2026-01-25 01:00:46.48	357.62	14.39	-38.6	-40.4	19.4	0.00e+00	0	39	0	0	48	4497
2026-01-25 01:00:49.46	357.26	14.64	-38.7	-40.5	19.3	0.00e+00	0	39	0	0	48	4568
2026-01-25 01:00:52.45	356.89	14.90	-38.8	-40.6	19.2	0.00e+00	0	39	0	0	48	4626
2026-01-25 01:00:55.44	356.51	15.15	-38.8	-40.6	19.2	0.00e+00	0	39	0	0	48	4616
2026-01-25 01:00:58.42	356.13	15.41	-39.1	-40.9	18.9	0.00e+00	0	39	0	0	48	4809
2026-01-25 01:01:01.41	355.74	15.67	-39.1	-41.0	18.9	0.00e+00	0	39	0	0	49	4570
2026-01-25 01:01:04.39	355.34	15.92	-39.0	-40.9	19.1	0.00e+00	0	39	0	0	49	4520
2026-01-25 01:01:07.37	354.94	16.18	-38.9	-40.8	19.2	0.00e+00	0	39	0	0	49	4457
2026-01-25 01:01:10.36	354.52	16.45	-38.9	-40.8	19.1	0.00e+00	0	39	0	0	49	4465
2026-01-25 01:01:13.34	354.11	16.71	-39.0	-40.8	19.1	0.00e+00	0	39	0	0	49	4482
2026-01-25 01:01:16.33	353.68	16.97	-38.9	-40.8	19.1	0.00e+00	0	39	0	0	49	4458
2026-01-25 01:01:19.32	353.24	17.24	-38.9	-40.8	19.2	0.00e+00	0	39	0	0	49	4452
2026-01-25 01:01:22.30	352.80	17.50	-38.8	-40.6	19.3	0.00e+00	0	40	0	0	49	4382
2026-01-25 01:01:25.29	352.35	17.77	-38.8	-40.7	19.3	0.00e+00	0	39	0	0	49	4392
2026-01-25 01:01:28.27	351.89	18.04	-38.8	-40.6	19.3	0.00e+00	0	39	0	0	49	4391
2026-01-25 01:01:31.25	351.43	18.31	-38.6	-40.5	19.5	0.00e+00	0	39	0	0	49	4295
2026-01-25 01:01:34.24	350.95	18.58	-38.4	-40.2	19.7	0.00e+00	0	39	0	0	48	4408
2026-01-25 01:01:37.22	350.47	18.85	-38.2	-40.0	19.9	0.00e+00	0	40	0	0	48	4327
2026-01-25 01:01:40.21	349.97	19.12	-38.2	-40.0	19.9	0.00e+00	0	39	0	0	48	4296
2026-01-25 01:01:43.19	349.47	19.39	-38.1	-39.9	20.0	0.00e+00	0	39	0	0	48	4263
2026-01-25 01:01:46.18	348.96	19.66	-38.0	-39.8	20.0	0.00e+00	0	39	0	0	47	4443
2026-01-25 01:01:49.17	348.44	19.94	-38.0	-39.8	19.9	0.00e+00	0	39	0	0	47	4471
2026-01-25 01:01:52.15	347.91	20.21	-38.0	-39.7	20.0	0.00e+00	0	40	0	0	47	4418
2026-01-25 01:01:55.14	347.37	20.49	-37.9	-39.6	20.2	0.00e+00	0	39	0	0	47	4358
2026-01-25 01:01:58.12	346.82	20.76	-37.8	-39.5	20.3	0.00e+00	0	39	0	0	47	4340
2026-01-25 01:02:01.10	346.26	21.03	-37.7	-39.4	20.3	0.00e+00	0	40	0	0	47	4286
2026-01-25 01:02:04.09	345.69	21.31	-37.5	-39.2	20.5	0.00e+00	0	39	0	0	47	4166
2026-01-25 01:02:07.07	345.11	21.58	-37.6	-39.2	20.5	0.00e+00	0	40	0	0	47	4188
2026-01-25 01:02:10.06	344.51	21.86	-37.4	-39.2	20.5	0.00e+00	0	40	0	0	46	4396
2026-01-25 01:02:13.04	343.91	22.13	-37.5	-39.3	20.4	0.00e+00	0	40	0	0	46	4447
2026-01-25 01:02:16.02	343.30	22.40	-37.7	-39.5	20.2	0.00e+00	0	40	0	0	46	4554
2026-01-25 01:02:19.01	342.68	22.68	-37.9	-39.7	20.1	0.00e+00	0	40	0	0	46	4661
2026-01-25 01:02:21.99	342.04	22.95	-37.6	-39.4	20.3	0.00e+00	0	40	0	0	46	4529
2026-01-25 01:02:24.98	341.39	23.22	-37.7	-39.5	20.1	0.00e+00	0	40	0	0	46	4582
2026-01-25 01:02:27.97	340.74	23.49	-38.0	-39.8	20.0	0.00e+00	0	40	0	0	46	4739
2026-01-25 01:02:30.95	340.07	23.76	-37.8	-39.5	20.4	0.00e+00	0	40	0	0	46	4563
2026-01-25 01:02:33.94	339.38	24.03	-37.7	-39.4	20.3	0.00e+00	0	39	0	0	46	4543
2026-01-25 01:02:36.92	338.69	24.29	-37.7	-39.5	20.2	0.00e+00	0	40	0	0	46	4568
2026-01-25 01:02:39.91	337.99	24.55	-37.7	-39.4	20.4	0.00e+00	0	39	0	0	46	4526
2026-01-25 01:02:42.89	337.27	24.82	-37.8	-39.5	20.2	0.00e+00	0	39	0	0	46	4588
2026-01-25 01:02:45.87	336.54	25.07	-38.1	-40.0	19.8	0.00e+00	0	40	0	0	47	4554
2026-01-25 01:02:48.86	335.80	25.33	-38.0	-39.8	20.0	0.00e+00	0	40	0	0	47	4486
2026-01-25 01:02:51.84	335.05	25.58	-38.2	-40.0	19.8	0.00e+00	0	40	0	0	47	4551
2026-01-25 01:02:54.83	334.28	25.83	-38.1	-39.8	20.0	0.00e+00	0	40	0	0	47	4473
2026-01-25 01:02:57.81	333.50	26.08	-38.0	-39.7	20.0	0.00e+00	0	40	0	0	47	4420
2026-01-25 01:03:00.80	332.71	26.32	-38.3	-40.0	19.5	0.00e+00	0	39	0	0	47	4588
2026-01-25 01:03:03.78	331.91	26.56	-38.1	-39.9	19.9	0.00e+00	0	40	0	0	47	4502
2026-01-25 01:03:06.76	331.10	26.79	-37.9	-39.8	19.9	0.00e+00	0	39	0	0	47	4490
2026-01-25 01:03:09.74	330.27	27.02	-38.1	-39.9	19.9	0.00e+00	0	40	0	0	47	4521
2026-01-25 01:03:12.73	329.43	27.25	-38.3	-40.1	19.8	0.00e+00	0	40	0	0	47	4602
2026-01-25 01:03:15.71	328.58	27.47	-38.1	-39.8	20.1	0.00e+00	0	40	0	0	47	4456
2026-01-25 01:03:18.69	327.72	27.68	-38.0	-39.8	20.1	0.00e+00	0	40	0	0	47	4472
2026-01-25 01:03:21.68	326.85	27.89	-38.2	-40.0	19.8	0.00e+00	0	40	0	0	47	4581
2026-01-25 01:03:24.66	325.96	28.10	-38.3	-40.1	19.7	0.00e+00	0	40	0	0	47	4648
2026-01-25 01:03:27.64	325.07	28.29	-38.1	-39.9	19.9	0.00e+00	0	40	0	0	47	4520
2026-01-25 01:03:30.63	324.16	28.49	-38.3	-40.1	19.7	0.00e+00	0	40	0	0	47	4618
2026-01-25 01:03:33.62	323.24	28.67	-38.0	-39.7	20.1	0.00e+00	0	40	0	0	47	4427
2026-01-25 01:03:36.60	322.31	28.85	-38.2	-40.0	19.8	0.00e+00	0	40	0	0	47	4582
2026-01-25 01:03:39.59	321.37	29.01	-38.4	-40.2	19.7	0.00e+00	0	40	0	0	47	4688
2026-01-25 01:03:42.57	320.42	29.18	-38.6	-40.4	19.5	0.00e+00	0	40	0	0	47	4776
2026-01-25 01:03:45.55	319.46	29.33	-38.6	-40.4	19.6	0.00e+00	0	40	0	0	48	4532
2026-01-25 01:03:48.54	318.50	29.47	-38.5	-40.2	19.8	0.00e+00	0	40	0	0	48	4439
2026-01-25 01:03:51.52	317.52	29.61	-38.8	-40.6	19.5	0.00e+00	0	40	0	0	48	4632
2026-01-25 01:03:54.50	316.54	29.74	-38.9	-40.7	19.3	0.00e+00	0	40	0	0	48	4704
2026-01-25 01:03:57.49	315.54	29.86	-38.6	-40.4	19.6	0.00e+00	0	40	0	0	48	4529
2026-01-25 01:04:00.47	314.55	29.97	-38.6	-40.4	19.6	0.00e+00	0	40	0	0	48	4526
2026-01-25 01:04:03.46	313.54	30.07	-38.8	-40.5	19.6	0.00e+00	0	40	0	0	48	4592
2026-01-25 01:04:06.45	312.52	30.16	-38.7	-40.5	19.6	0.00e+00	0	40	0	0	48	4555
2026-01-25 01:04:09.43	311.51	30.24	-38.5	-40.2	19.8	0.00e+00	0	40	0	0	48	4431
2026-01-25 01:04:12.42	310.48	30.31	-38.4	-40.1	19.9	0.00e+00	0	40	0	0	48	4360
2026-01-25 01:04:15.40	309.46	30.37	-38.5	-40.2	19.6	0.00e+00	0	40	0	0	48	4422
2026-01-25 01:04:18.38	308.43	30.42	-38.7	-40.4	19.6	0.00e+00	0	40	0	0	48	4539
2026-01-25 01:04:21.37	307.39	30.46	-38.6	-40.3	19.7	0.00e+00	0	40	0	0	48	4458
2026-01-25 01:04:24.35	306.36	30.49	-38.8	-40.6	19.5	0.00e+00	0	40	0	0	48	4624
2026-01-25 01:04:27.34	305.32	30.51	-38.6	-40.3	19.8	0.00e+00	0	40	0	0	48	4460
2026-01-25 01:04:30.32	304.29	30.52	-38.4	-40.2	19.9	0.00e+00	0	40	0	0	48	4393
2026-01-25 01:04:33.31	303.24	30.51	-38.2	-39.9	20.1	0.00e+00	0	40	0	0	48	4280
2026-01-25 01:04:36.30	302.20	30.50	-37.8	-39.5	20.2	0.00e+00	0	40	0	0	47	4329
2026-01-25 01:04:39.28	301.17	30.48	-38.1	-39.8	20.1	0.00e+00	0	40	0	0	47	4493
2026-01-25 01:04:42.27	300.13	30.44	-38.4	-40.2	19.8	0.00e+00	0	40	0	0	47	4679
2026-01-25 01:04:45.26	299.10	30.40	-38.4	-40.2	19.7	0.00e+00	0	40	0	0	47	4663
2026-01-25 01:04:48.24	298.07	30.34	-38.5	-40.3	19.5	0.00e+00	0	40	0	0	47	4713
2026-01-25 01:04:51.23	297.04	30.28	-38.8	-40.6	19.4	0.00e+00	0	40	0	0	48	4606
2026-01-25 01:04:54.21	296.02	30.20	-38.7	-40.4	19.7	0.00e+00	0	40	0	0	48	4517
2026-01-25 01:04:57.19	295.01	30.12	-38.6	-40.3	19.7	0.00e+00	0	40	0	0	48	4480
2026-01-25 01:05:00.18	293.99	30.03	-38.5	-40.2	19.9	0.00e+00	0	40	0	0	48	4437
2026-01-25 01:05:03.16	292.99	29.92	-38.5	-40.3	19.8	0.00e+00	0	40	0	0	48	4454
2026-01-25 01:05:06.14	291.99	29.81	-38.4	-40.1	19.8	0.00e+00	0	40	0	0	48	4380
2026-01-25 01:05:09.13	291.00	29.68	-38.2	-39.8	20.1	0.00e+00	0	40	0	0	48	4236
2026-01-25 01:05:12.11	290.02	29.55	-38.5	-40.2	19.9	0.00e+00	0	40	0	0	48	4410
2026-01-25 01:05:15.10	289.04	29.41	-38.6	-40.3	19.8	0.00e+00	0	40	0	0	48	4491
2026-01-25 01:05:18.09	288.08	29.26	-38.7	-40.4	19.7	0.00e+00	0	40	0	0	48	4512
2026-01-25 01:05:21.07	287.12	29.11	-38.9	-40.7	19.2	0.00e+00	0	40	0	0	48	4694
2026-01-25 01:05:24.05	286.17	28.94	-39.0	-40.8	19.3	0.00e+00	0	40	0	0	48	4725
2026-01-25 01:05:27.04	285.24	28.77	-38.6	-40.3	19.8	0.00e+00	0	40	0	0	48	4453
2026-01-25 01:05:30.02	284.31	28.59	-38.3	-40.0	20.0	0.00e+00	0	40	0	0	48	4322
2026-01-25 01:05:33.01	283.39	28.40	-38.4	-40.1	19.8	0.00e+00	0	40	0	0	48	4381
2026-01-25 01:05:35.99	282.49	28.21	-38.2	-39.9	20.1	0.00e+00	0	40	0	0	48	4258
2026-01-25 01:05:38.97	281.59	28.01	-38.3	-39.9	20.1	0.00e+00	0	40	0	0	48	4290
2026-01-25 01:05:41.96	280.71	27.80	-38.2	-39.9	20.1	0.00e+00	0	40	0	0	48	4256
2026-01-25 01:05:44.94	279.84	27.59	-37.6	-39.3	20.4	0.00e+00	0	40	0	0	47	4195
2026-01-25 01:05:47.93	278.98	27.37	-37.5	-39.2	20.7	0.00e+00	0	40	0	0	46	4404
2026-01-25 01:05:50.92	278.13	27.15	-38.7	-40.4	19.5	0.00e+00	0	40	0	0	47	4802
2026-01-25 01:05:53.90	277.29	26.92	-39.1	-40.9	19.1	0.00e+00	0	40	0	0	49	4539
2026-01-25 01:05:56.89	276.46	26.68	-38.4	-40.1	19.8	0.00e+00	0	40	0	0	48	4371
2026-01-25 01:05:59.87	275.65	26.45	-37.9	-39.5	20.3	0.00e+00	0	40	0	0	47	4340
2026-01-25 01:06:02.86	274.85	26.21	-38.0	-39.7	19.9	0.00e+00	0	40	0	0	47	4438
2026-01-25 01:06:05.84	274.06	25.96	-38.0	-39.7	19.9	0.00e+00	0	40	0	0	47	4418
2026-01-25 01:06:08.82	273.29	25.71	-38.2	-39.9	19.9	0.00e+00	0	40	0	0	47	4508
2026-01-25 01:06:11.81	272.53	25.46	-38.1	-39.8	19.9	0.00e+00	0	40	0	0	47	4467
2026-01-25 01:06:14.79	271.77	25.20	-37.7	-39.4	20.1	0.00e+00	0	40	0	0	47	4268
2026-01-25 01:06:17.78	271.03	24.95	-37.4	-39.0	20.7	0.00e+00	0	40	0	0	46	4339
2026-01-25 01:06:20.76	270.31	24.68	-37.7	-39.4	20.5	0.00e+00	0	40	0	0	46	4522
2026-01-25 01:06:23.74	269.59	24.42	-37.5	-39.2	20.7	0.00e+00	0	40	0	0	46	4403
2026-01-25 01:06:26.73	268.89	24.16	-37.5	-39.1	20.7	0.00e+00	0	40	0	0	46	4366
2026-01-25 01:06:29.71	268.20	23.89	-37.5	-39.2	20.6	0.00e+00	0	40	0	0	46	4408
2026-01-25 01:06:32.70	267.52	23.62	-37.6	-39.3	20.5	0.00e+00	0	40	0	0	46	4457
2026-01-25 01:06:35.68	266.85	23.35	-37.5	-39.1	20.6	0.00e+00	0	40	0	0	46	4376
2026-01-25 01:06:38.67	266.19	23.08	-37.4	-39.1	20.7	0.00e+00	0	40	0	0	46	4343
2026-01-25 01:06:41.65	265.55	22.81	-37.9	-39.6	20.3	0.00e+00	0	40	0	0	46	4616
2026-01-25 01:06:44.64	264.92	22.53	-44.0	-46.8	12.9	7.40e-05	0	40	0	0	60	4748
2026-01-25 01:06:47.62	264.29	22.26	-41.5	-43.7	16.4	0.00e+00	0	40	0	0	54	4693
2026-01-25 01:06:50.61	263.68	21.98	-41.4	-43.6	16.5	0.00e+00	0	40	0	0	54	4622
2026-01-25 01:06:53.59	263.08	21.71	-39.1	-40.9	19.1	0.00e+00	0	40	0	0	50	4278
2026-01-25 01:06:56.58	262.49	21.43	-38.1	-39.8	20.1	0.00e+00	0	40	0	0	48	4217
2026-01-25 01:06:59.56	261.91	21.16	-38.2	-39.9	20.0	0.00e+00	0	40	0	0	48	4276
2026-01-25 01:07:02.55	261.34	20.88	-38.5	-40.2	19.7	0.00e+00	0	40	0	0	48	4438
2026-01-25 01:07:05.54	260.78	20.60	-38.5	-40.2	19.8	0.00e+00	0	40	0	0	48	4416
2026-01-25 01:07:08.52	260.23	20.33	-38.3	-40.0	20.0	0.00e+00	0	40	0	0	48	4298
2026-01-25 01:07:11.51	259.69	20.05	-38.2	-39.9	20.0	0.00e+00	0	40	0	0	48	4254
2026-01-25 01:07:14.49	259.17	19.78	-38.4	-40.1	19.7	0.00e+00	0	40	0	0	48	4360
2026-01-25 01:07:17.47	258.65	19.50	-38.6	-40.4	19.5	0.00e+00	0	40	0	0	48	4505
2026-01-25 01:07:20.46	258.13	19.23	-38.2	-40.0	20.0	0.00e+00	0	40	0	0	48	4294
2026-01-25 01:07:23.44	257.63	18.96	-38.1	-39.8	20.0	0.00e+00	0	40	0	0	48	4210
2026-01-25 01:07:26.43	257.14	18.68	-38.6	-40.4	19.3	0.00e+00	0	40	0	0	48	4525
2026-01-25 01:07:29.41	256.66	18.41	-38.8	-40.6	19.3	0.00e+00	0	40	0	0	48	4622
2026-01-25 01:07:32.40	256.18	18.14	-38.3	-40.0	20.0	0.00e+00	0	40	0	0	48	4315
2026-01-25 01:07:35.38	255.72	17.87	-38.2	-39.9	20.1	0.00e+00	0	40	0	0	48	4256
2026-01-25 01:07:38.37	255.26	17.60	-38.7	-40.5	19.4	0.00e+00	0	40	0	0	48	4568
2026-01-25 01:07:41.35	254.81	17.33	-38.9	-40.8	19.2	0.00e+00	0	40	0	0	48	4706
2026-01-25 01:07:44.33	254.37	17.07	-38.6	-40.3	19.6	0.00e+00	0	40	0	0	48	4475
2026-01-25 01:07:47.32	253.93	16.80	-37.9	-39.6	20.1	0.00e+00	0	40	0	0	47	4373
2026-01-25 01:07:50.30	253.51	16.54	-38.4	-40.1	19.6	0.00e+00	0	40	0	0	47	4642
2026-01-25 01:07:53.28	253.09	16.27	-39.1	-40.9	19.0	0.00e+00	0	40	0	0	48	4810
2026-01-25 01:07:56.27	252.67	16.01	-39.1	-41.0	18.9	0.00e+00	0	40	0	0	49	4560
2026-01-25 01:07:59.25	252.27	15.75	-38.6	-40.4	19.4	0.00e+00	0	40	0	0	49	4261
2026-01-25 01:08:02.24	251.87	15.49	-38.4	-40.1	19.7	0.00e+00	0	40	0	0	48	4389
2026-01-25 01:08:05.22	251.48	15.24	-38.5	-40.2	19.7	0.00e+00	0	40	0	0	48	4439
2026-01-25 01:08:08.21	251.10	14.98	-38.9	-40.6	19.3	0.00e+00	0	40	0	0	48	4637
2026-01-25 01:08:11.19	250.72	14.72	-39.0	-40.8	19.1	0.00e+00	0	40	0	0	48	4727
2026-01-25 01:08:14.18	250.35	14.47	-38.9	-40.6	19.2	0.00e+00	0	40	0	0	48	4647
2026-01-25 01:08:17.16	249.99	14.22	-38.7	-40.5	19.4	0.00e+00	0	40	0	0	48	4547
2026-01-25 01:08:20.15	249.63	13.97	-38.1	-39.8	20.0	0.00e+00	0	40	0	0	48	4224
2026-01-25 01:08:23.13	249.28	13.72	-38.2	-39.9	19.9	0.00e+00	0	40	0	0	48	4246
2026-01-25 01:08:26.11	248.93	13.47	-38.6	-40.3	19.6	0.00e+00	0	40	0	0	48	4475
2026-01-25 01:08:29.10	248.59	13.22	-39.1	-40.9	18.9	0.00e+00	0	40	0	0	48	4796
2026-01-25 01:08:32.08	248.25	12.98	-39.4	-41.3	18.5	0.00e+00	0	40	0	0	49	4706
2026-01-25 01:08:35.07	247.93	12.74	-39.4	-41.3	18.4	0.00e+00	0	40	0	0	49	4715
2026-01-25 01:08:38.05	247.60	12.49	-39.2	-41.0	18.8	0.00e+00	0	40	0	0	49	4555
2026-01-25 01:08:41.04	247.28	12.25	-38.9	-40.7	19.1	0.00e+00	0	40	0	0	49	4394
2026-01-25 01:08:44.02	246.97	12.02	-38.6	-40.4	19.4	0.00e+00	0	40	0	0	49	4252
2026-01-25 01:08:47.00	246.66	11.78	-39.0	-40.8	19.0	0.00e+00	0	40	0	0	49	4492
2026-01-25 01:08:49.99	246.36	11.54	-39.5	-41.4	18.4	0.00e+00	0	40	0	0	49	4805
2026-01-25 01:08:52.97	246.06	11.31	-39.9	-41.9	18.0	0.00e+00	0	40	0	0	50	4761
2026-01-25 01:08:55.96	245.77	11.08	-40.1	-42.0	17.8	0.00e+00	0	40	0	0	50	4861
2026-01-25 01:08:58.94	245.48	10.84	-40.0	-42.0	17.8	0.00e+00	0	40	0	0	50	4816
2026-01-25 01:09:01.92	245.20	10.61	-39.5	-41.3	18.4	0.00e+00	0	40	0	0	50	4485
2026-01-25 01:09:04.90	244.92	10.39	-39.5	-41.3	18.4	0.00e+00	0	40	0	0	50	4478
2026-01-25 01:09:07.89	244.64	10.16	-39.5	-41.4	18.3	0.00e+00	0	40	0	0	50	4527
2026-01-25 01:09:10.87	244.37	9.93	-39.8	-41.7	18.1	0.00e+00	0	40	0	0	50	4670
2026-01-25 01:09:13.85	244.11	9.71	-40.1	-42.0	17.7	0.00e+00	0	40	0	0	50	4852
2026-01-25 01:09:16.84	243.84	9.49	-40.3	-42.3	17.4	0.00e+00	0	40	0	0	51	4753
2026-01-25 01:09:19.82	243.59	9.27	-40.4	-42.5	17.3	0.00e+00	0	40	0	0	51	4825
2026-01-25 01:09:22.81	243.33	9.05	-40.5	-42.6	17.1	0.00e+00	0	40	0	0	51	4890
2026-01-25 01:09:25.79	243.08	8.83	-48.4	-61.5	3.8	1.49e+00	0	40	104	0	67	17143
2026-01-25 01:09:28.77	242.84	8.61	-48.8	-61.9	3.8	1.49e+00	0	40	104	0	68	17012
2026-01-25 01:09:31.74	242.60	8.40	-49.0	-62.0	3.8	1.49e+00	0	40	104	0	68	17191
2026-01-25 01:09:34.72	242.36	8.18	-49.0	-62.1	3.8	1.49e+00	0	40	104	0	68	17284
2026-01-25 01:09:37.70	242.12	7.97	-48.9	-62.1	3.8	1.49e+00	0	40	104	0	68	17307
2026-01-25 01:09:40.68	241.89	7.76	-49.0	-62.1	3.8	1.49e+00	0	40	104	0	68	17332
2026-01-25 01:09:43.66	241.66	7.55	-48.9	-62.0	3.8	1.49e+00	0	40	104	0	68	17252
2026-01-25 01:09:46.64	241.44	7.34	-48.8	-62.0	3.8	1.49e+00	0	40	104	0	68	17124
2026-01-25 01:09:49.62	241.21	7.13	-48.7	-61.9	3.8	1.49e+00	0	40	104	0	68	17024
2026-01-25 01:09:52.60	241.00	6.92	-48.7	-61.9	3.8	1.49e+00	0	40	104	0	68	17035
2026-01-25 01:09:55.58	240.78	6.72	-48.7	-61.9	3.8	1.49e+00	0	40	104	0	68	17012
2026-01-25 01:09:58.56	240.57	6.52	-48.7	-61.9	3.8	1.49e+00	0	40	104	0	68	17028
2026-01-25 01:10:01.54	240.36	6.31	-48.7	-61.9	3.8	1.49e+00	0	40	104	0	68	17034
2026-01-25 01:10:04.52	240.15	6.11	-48.7	-61.9	3.8	1.49e+00	0	40	104	0	68	17044
2026-01-25 01:10:07.50	239.95	5.91	-48.7	-61.9	3.8	1.49e+00	0	40	104	0	68	17049
2026-01-25 01:10:10.47	239.75	5.71	-48.7	-61.9	3.8	1.49e+00	0	40	104	0	68	17023
2026-01-25 01:10:13.45	239.55	5.52	-48.7	-61.9	3.8	1.49e+00	0	40	104	0	68	17059
2026-01-25 01:10:16.43	239.36	5.32	-48.7	-61.9	3.8	1.49e+00	0	40	104	0	68	17046
2026-01-25 01:10:19.41	239.17	5.12	-48.7	-61.9	3.8	1.49e+00	0	40	104	0	68	16907

#Closed at: 2026-01-25 01:10:22
#Recorded file [0 MB]: D:/Data/31040_260125_035841.dat