passes_logs/2026/01/25/T1/T1__20260125_214935_SUOMI_NPP_rec.log

#Pass ID: 20260125_214935_SUOMI NPP
#Satellite: SUOMI NPP
#Configuration: NPP
#almurnet v.1.7.20251203
#Start time: 2026-01-25 21:49:36

#Version: 2.0.20230620
#Station: T1
#Location: 37.570604 lon 55.790049 lat
#TLE: 1 37849U 11061A   26025.53586395  .00000179  00000+0  10601-3 0  9996
#TLE: 2 37849  98.7821 327.4943 0002169  45.6246 314.5108 14.19529815738202

#Time	Az	El	Level	Level2	SNR	BER	BlckErr	Temp	State	Recorded	gain1	gain2
2026-01-25 21:49:36.22	36.07	5.05	-47.7	-63.0	3.8	1.49e+00	0	34	0	0	67	20363
2026-01-25 21:49:39.19	36.40	5.19	-47.7	-63.0	3.8	1.49e+00	0	35	104	0	67	20329
2026-01-25 21:49:42.17	36.74	5.34	-47.7	-63.0	3.8	1.49e+00	0	35	104	0	67	20348
2026-01-25 21:49:45.15	37.08	5.48	-47.7	-63.0	3.8	1.49e+00	0	35	104	0	67	20310
2026-01-25 21:49:48.13	37.42	5.62	-47.7	-63.0	3.8	1.49e+00	0	35	104	0	67	20311
2026-01-25 21:49:51.11	37.76	5.77	-47.7	-63.0	3.8	1.49e+00	0	35	104	0	67	20314
2026-01-25 21:49:54.09	38.11	5.91	-47.6	-62.9	3.8	1.49e+00	0	35	104	0	67	20255
2026-01-25 21:49:57.07	38.46	6.06	-47.7	-62.9	3.8	1.49e+00	0	36	104	0	67	20221
2026-01-25 21:50:00.05	38.81	6.20	-47.6	-62.9	3.8	1.49e+00	0	36	104	0	67	20201
2026-01-25 21:50:03.03	39.17	6.35	-47.6	-62.9	3.8	1.49e+00	0	36	104	0	67	20211
2026-01-25 21:50:06.01	39.53	6.49	-47.7	-62.9	3.8	1.49e+00	0	36	104	0	67	20257
2026-01-25 21:50:08.99	39.89	6.63	-47.6	-62.9	3.8	1.49e+00	0	36	104	0	67	20199
2026-01-25 21:50:11.97	40.26	6.78	-47.6	-62.9	3.8	1.49e+00	0	36	104	0	67	20212
2026-01-25 21:50:14.95	40.63	6.92	-47.6	-62.9	3.8	1.49e+00	0	36	104	0	67	20172
2026-01-25 21:50:17.93	41.01	7.06	-47.6	-62.9	3.8	1.49e+00	0	36	104	0	67	20147
2026-01-25 21:50:20.91	41.39	7.21	-47.6	-62.9	3.8	1.49e+00	0	36	104	0	67	20120
2026-01-25 21:50:23.89	41.77	7.35	-47.6	-62.8	3.8	1.49e+00	0	36	104	0	67	20069
2026-01-25 21:50:26.87	42.15	7.49	-47.6	-62.8	3.8	1.49e+00	0	36	104	0	67	20067
2026-01-25 21:50:29.85	42.54	7.64	-47.6	-62.8	3.8	1.49e+00	0	36	104	0	67	20055
2026-01-25 21:50:32.83	42.94	7.78	-47.6	-62.9	3.8	1.49e+00	0	36	104	0	67	20186
2026-01-25 21:50:35.81	43.33	7.92	-47.6	-62.9	3.8	1.49e+00	0	36	104	0	67	20168
2026-01-25 21:50:38.79	43.73	8.06	-47.6	-62.8	3.8	1.49e+00	0	36	104	0	67	20023
2026-01-25 21:50:41.77	44.14	8.20	-47.6	-62.6	3.8	1.49e+00	0	36	104	0	67	19527
2026-01-25 21:50:44.75	44.54	8.34	-47.6	-62.9	3.8	1.49e+00	0	36	104	0	67	20073
2026-01-25 21:50:47.73	44.96	8.48	-47.6	-62.9	3.8	1.49e+00	0	36	104	0	67	20212
2026-01-25 21:50:50.71	45.37	8.62	-47.6	-62.8	3.8	1.49e+00	0	37	104	0	67	19906
2026-01-25 21:50:53.69	45.79	8.76	-47.6	-62.3	3.8	1.49e+00	0	37	104	0	67	18792
2026-01-25 21:50:56.67	46.21	8.90	-47.4	-59.2	4.2	1.44e+00	0	36	0	0	66	14011
2026-01-25 21:50:59.65	46.64	9.04	-45.0	-49.6	12.2	1.77e-02	0	37	0	5242880	62	5809
2026-01-25 21:51:02.64	47.07	9.18	-46.6	-54.2	7.7	9.91e-05	0	37	0	10485760	63	9310
2026-01-25 21:51:05.62	47.51	9.31	-42.9	-46.1	15.7	0.00e+00	0	37	0	15728640	57	5183
2026-01-25 21:51:09.01	48.01	9.47	-42.6	-45.6	16.2	0.00e+00	0	37	0	22020096	57	4916
2026-01-25 21:51:11.92	48.44	9.60	-42.3	-45.1	16.6	0.00e+00	0	37	0	27262976	56	4925
2026-01-25 21:51:15.24	48.94	9.75	-42.5	-45.4	16.4	0.00e+00	0	37	0	33554432	56	5085
2026-01-25 21:51:18.23	49.39	9.88	-42.3	-45.1	16.7	0.00e+00	0	37	0	39845888	56	4915
2026-01-25 21:51:21.23	49.85	10.02	-41.8	-44.5	17.1	0.00e+00	0	37	0	45088768	55	4860
2026-01-25 21:51:24.25	50.32	10.15	-42.0	-44.7	16.9	0.00e+00	0	37	0	50331648	55	4979
2026-01-25 21:51:27.23	50.78	10.28	-42.2	-45.1	16.6	0.00e+00	0	37	0	56623104	55	5189
2026-01-25 21:51:30.42	51.28	10.42	-42.3	-45.2	16.5	0.00e+00	0	37	0	61865984	55	5222
2026-01-25 21:51:33.26	51.73	10.54	-42.2	-45.0	16.6	0.00e+00	0	37	0	67108864	55	5144
2026-01-25 21:51:36.39	52.24	10.68	-42.1	-44.9	16.8	0.00e+00	0	37	0	73400320	55	5062
2026-01-25 21:51:39.23	52.69	10.80	-42.2	-45.1	16.6	0.00e+00	0	37	0	78643200	55	5204
2026-01-25 21:51:42.48	53.22	10.94	-42.4	-45.4	16.4	0.00e+00	0	37	0	84934656	55	5372
2026-01-25 21:51:45.38	53.70	11.06	-42.5	-45.4	16.3	0.00e+00	0	37	0	90177536	55	5396
2026-01-25 21:51:48.62	54.23	11.19	-42.7	-45.7	16.2	0.00e+00	0	37	0	96468992	56	5262
2026-01-25 21:51:51.46	54.71	11.31	-42.9	-45.9	15.9	0.00e+00	0	37	0	101711872	56	5398
2026-01-25 21:51:54.59	55.23	11.43	-43.1	-46.1	15.8	0.00e+00	0	37	0	108003328	56	5525
2026-01-25 21:51:57.59	55.74	11.55	-43.1	-46.3	15.7	0.00e+00	0	37	0	113246208	56	5606
2026-01-25 21:52:00.71	56.28	11.68	-43.1	-46.2	15.7	0.00e+00	0	37	0	118489088	57	5250
2026-01-25 21:52:03.84	56.82	11.80	-42.8	-45.8	16.1	0.00e+00	0	37	0	124780544	57	5016
2026-01-25 21:52:06.68	57.31	11.91	-43.0	-46.1	15.8	7.00e-07	0	37	0	130023424	57	5205
2026-01-25 21:52:09.80	57.85	12.03	-43.0	-46.0	15.9	0.00e+00	0	37	0	136314880	57	5147
2026-01-25 21:52:12.65	58.36	12.13	-42.8	-45.8	16.1	0.00e+00	0	37	0	141557760	57	4984
2026-01-25 21:52:15.87	58.93	12.25	-42.7	-45.7	16.3	0.00e+00	0	37	0	147849216	57	4930
2026-01-25 21:52:18.71	59.44	12.35	-42.8	-45.7	16.2	0.00e+00	0	37	0	153092096	57	4963
2026-01-25 21:52:21.84	60.00	12.47	-42.8	-45.8	16.1	0.00e+00	0	37	0	158334976	57	5019
2026-01-25 21:52:24.68	60.52	12.56	-42.9	-45.9	16.0	0.00e+00	0	37	0	163577856	57	5090
2026-01-25 21:52:27.88	61.10	12.68	-42.7	-45.7	16.3	0.00e+00	0	37	0	169869312	57	4961
2026-01-25 21:52:30.79	61.64	12.77	-42.6	-45.5	16.5	0.00e+00	0	37	0	175112192	56	5111
2026-01-25 21:52:34.10	62.25	12.88	-42.2	-44.9	17.0	0.00e+00	0	37	0	181403648	56	4795
2026-01-25 21:52:37.29	62.85	12.99	-41.5	-44.2	17.6	0.00e+00	0	37	0	187695104	55	4653
2026-01-25 21:52:40.14	63.38	13.08	-41.6	-44.1	17.6	0.00e+00	0	37	0	192937984	54	4918
2026-01-25 21:52:43.38	63.99	13.18	-41.9	-44.6	17.2	0.00e+00	0	37	0	199229440	54	5199
2026-01-25 21:52:46.22	64.53	13.26	-41.9	-44.6	17.2	0.00e+00	0	37	0	204472320	54	5200
2026-01-25 21:52:49.35	65.13	13.35	-41.2	-43.8	18.0	0.00e+00	0	37	0	209715200	54	4714
2026-01-25 21:52:52.19	65.68	13.43	-41.2	-43.7	18.0	0.00e+00	0	37	0	216006656	54	4701
2026-01-25 21:52:55.26	66.27	13.52	-41.7	-44.3	17.5	0.00e+00	0	37	0	221249536	54	5003
2026-01-25 21:52:58.38	66.88	13.60	-41.2	-43.6	18.1	0.00e+00	0	37	0	227540992	54	4640
2026-01-25 21:53:01.23	67.44	13.68	-41.3	-43.8	17.9	0.00e+00	0	37	0	232783872	54	4736
2026-01-25 21:53:04.36	68.05	13.76	-42.0	-44.7	17.1	0.00e+00	0	37	0	238026752	54	5255
2026-01-25 21:53:07.20	68.61	13.83	-41.7	-44.4	17.4	0.00e+00	0	37	0	243269632	55	4769
2026-01-25 21:53:10.32	69.23	13.90	-42.0	-44.7	17.1	0.00e+00	0	37	0	249561088	55	4970
2026-01-25 21:53:13.16	69.80	13.96	-43.4	-46.6	15.5	0.00e+00	0	37	0	254803968	57	5478
2026-01-25 21:53:16.32	70.43	14.03	-43.0	-46.0	16.0	0.00e+00	0	37	0	261095424	57	5119
2026-01-25 21:53:19.23	71.02	14.09	-41.8	-44.5	17.3	0.00e+00	0	37	0	266338304	55	4839
2026-01-25 21:53:22.51	71.68	14.16	-42.4	-45.3	16.5	0.00e+00	0	37	0	272629760	55	5319
2026-01-25 21:53:25.35	72.26	14.21	-42.3	-45.1	16.7	0.00e+00	0	37	0	277872640	55	5184
2026-01-25 21:53:28.40	72.88	14.27	-41.8	-44.5	17.4	0.00e+00	0	37	0	283115520	55	4826
2026-01-25 21:53:31.39	73.49	14.32	-41.7	-44.4	17.4	0.00e+00	0	37	0	289406976	55	4781
2026-01-25 21:53:34.38	74.10	14.37	-41.6	-44.1	17.7	0.00e+00	0	37	0	294649856	55	4649
2026-01-25 21:53:37.36	74.71	14.41	-41.1	-43.5	18.3	0.00e+00	0	37	0	299892736	54	4590
2026-01-25 21:53:40.50	75.36	14.46	-41.6	-44.2	17.6	0.00e+00	0	37	0	306184192	54	4929
2026-01-25 21:53:43.35	75.95	14.49	-41.5	-44.1	17.7	0.00e+00	0	37	0	311427072	54	4885
2026-01-25 21:53:46.48	76.60	14.53	-40.8	-43.2	18.5	0.00e+00	0	37	0	317718528	53	4705
2026-01-25 21:53:49.32	77.19	14.56	-41.4	-43.9	17.9	0.00e+00	0	37	0	322961408	53	5081
2026-01-25 21:53:52.49	77.85	14.60	-41.7	-44.3	17.5	0.00e+00	0	37	0	328204288	54	5019
2026-01-25 21:53:55.34	78.44	14.62	-41.6	-44.2	17.6	0.00e+00	0	37	0	333447168	54	4970
2026-01-25 21:53:58.67	79.14	14.65	-41.6	-44.2	17.6	0.00e+00	0	37	0	339738624	54	4940
2026-01-25 21:54:01.40	79.71	14.67	-41.3	-43.8	18.0	0.00e+00	0	37	0	344981504	54	4733
2026-01-25 21:54:04.64	80.39	14.68	-41.6	-44.2	17.6	0.00e+00	0	37	0	351272960	54	4964
2026-01-25 21:54:07.48	80.99	14.70	-41.6	-44.3	17.5	0.00e+00	0	37	0	356515840	54	5014
2026-01-25 21:54:10.82	81.69	14.71	-41.1	-43.7	18.0	0.00e+00	0	37	0	362807296	54	4702
2026-01-25 21:54:13.80	82.31	14.72	-41.3	-43.9	17.8	0.00e+00	0	37	0	368050176	54	4810
2026-01-25 21:54:16.79	82.94	14.72	-41.3	-43.9	17.9	0.00e+00	0	37	0	374341632	54	4784
2026-01-25 21:54:19.77	83.57	14.72	-40.8	-43.3	18.5	0.00e+00	0	37	0	379584512	53	4724
2026-01-25 21:54:22.83	84.21	14.72	-41.1	-43.6	18.1	0.00e+00	0	37	0	385875968	53	4923
2026-01-25 21:54:25.73	84.82	14.71	-41.0	-43.5	18.3	0.00e+00	0	37	0	391118848	53	4838
2026-01-25 21:54:28.72	85.45	14.71	-40.6	-43.0	18.7	0.00e+00	0	37	0	396361728	53	4583
2026-01-25 21:54:31.70	86.08	14.69	-40.4	-42.8	18.9	0.00e+00	0	37	0	401604608	52	4732
2026-01-25 21:54:34.75	86.72	14.68	-40.8	-43.3	18.5	0.00e+00	0	37	0	407896064	52	4991
2026-01-25 21:54:37.62	87.32	14.66	-40.9	-43.4	18.4	0.00e+00	0	37	0	413138944	52	5047
2026-01-25 21:54:40.75	87.98	14.64	-40.9	-43.3	18.4	0.00e+00	0	37	0	419430400	52	5038
2026-01-25 21:54:43.88	88.63	14.61	-41.0	-43.5	18.2	0.00e+00	0	37	0	424673280	52	5149
2026-01-25 21:54:46.72	89.22	14.59	-41.1	-43.6	18.1	0.00e+00	0	37	0	429916160	52	5213
2026-01-25 21:54:49.85	89.88	14.55	-41.3	-43.9	17.9	0.00e+00	0	37	0	436207616	53	5065
2026-01-25 21:54:52.77	90.48	14.52	-41.4	-44.0	17.8	0.00e+00	0	37	0	441450496	53	5144
2026-01-25 21:54:55.96	91.14	14.48	-41.1	-43.6	18.2	0.00e+00	0	37	0	447741952	53	4887
2026-01-25 21:54:58.80	91.73	14.44	-40.6	-43.0	18.7	0.00e+00	0	37	0	452984832	53	4574
2026-01-25 21:55:01.92	92.38	14.40	-40.5	-42.9	18.9	0.00e+00	0	37	0	459276288	52	4766
2026-01-25 21:55:04.76	92.96	14.35	-40.3	-42.6	19.1	0.00e+00	0	37	0	464519168	52	4602
2026-01-25 21:55:07.89	93.60	14.30	-40.3	-42.5	19.1	0.00e+00	0	37	0	469762048	52	4587
2026-01-25 21:55:10.79	94.20	14.25	-40.2	-42.4	19.3	0.00e+00	0	37	0	475004928	51	4797
2026-01-25 21:55:14.08	94.87	14.19	-40.4	-42.7	19.0	0.00e+00	0	37	0	481296384	51	4945
2026-01-25 21:55:17.39	95.54	14.12	-40.7	-43.1	18.6	0.00e+00	0	37	0	487587840	52	4885
2026-01-25 21:55:20.36	96.14	14.06	-40.8	-43.2	18.5	0.00e+00	0	37	0	492830720	52	4943
2026-01-25 21:55:23.34	96.74	14.00	-40.8	-43.1	18.5	0.00e+00	0	37	0	499122176	52	4926
2026-01-25 21:55:26.32	97.33	13.93	-40.5	-42.8	18.9	0.00e+00	0	37	0	504365056	52	4739
2026-01-25 21:55:29.31	97.93	13.86	-40.1	-42.4	19.3	0.00e+00	0	37	0	509607936	52	4510
2026-01-25 21:55:32.58	98.58	13.78	-39.9	-42.1	19.6	0.00e+00	0	37	0	515899392	51	4624
2026-01-25 21:55:35.50	99.16	13.71	-39.8	-42.0	19.7	0.00e+00	0	37	0	522190848	51	4552
2026-01-25 21:55:38.77	99.80	13.63	-40.1	-42.3	19.4	0.00e+00	0	37	0	527433728	51	4728
2026-01-25 21:55:41.50	100.33	13.55	-40.1	-42.4	19.3	0.00e+00	0	37	0	532676608	51	4779
2026-01-25 21:55:44.77	100.97	13.46	-40.4	-42.7	19.0	0.00e+00	0	37	0	538968064	51	4954
2026-01-25 21:55:47.51	101.50	13.39	-40.5	-42.8	18.9	0.00e+00	0	37	0	544210944	51	5013
2026-01-25 21:55:50.78	102.13	13.29	-40.4	-42.7	19.0	0.00e+00	0	37	0	550502400	51	4951
2026-01-25 21:55:53.48	102.65	13.21	-40.6	-43.0	18.8	0.00e+00	0	37	0	555745280	51	5119
2026-01-25 21:55:56.75	103.27	13.11	-40.3	-42.6	19.0	0.00e+00	0	37	0	562036736	52	4631
2026-01-25 21:55:59.45	103.78	13.02	-40.3	-42.6	19.0	0.00e+00	0	37	0	566231040	52	4617
2026-01-25 21:56:02.72	104.39	12.92	-40.6	-43.0	18.6	0.00e+00	0	37	0	572522496	52	4839
2026-01-25 21:56:05.58	104.93	12.82	-41.0	-43.4	18.2	0.00e+00	0	37	0	577765376	52	5092
2026-01-25 21:56:08.74	105.51	12.72	-41.3	-43.8	17.9	0.00e+00	0	37	0	584056832	53	5014
2026-01-25 21:56:11.98	106.11	12.61	-41.4	-43.9	17.7	0.00e+00	0	37	0	590348288	53	5099
2026-01-25 21:56:14.82	106.63	12.51	-41.6	-44.3	17.5	0.00e+00	0	37	0	595591168	53	5293
2026-01-25 21:56:17.95	107.20	12.40	-42.1	-45.0	16.8	0.00e+00	0	37	0	600834048	54	5403
2026-01-25 21:56:20.79	107.71	12.29	-42.2	-45.0	16.7	0.00e+00	0	37	0	607125504	55	5142
2026-01-25 21:56:23.99	108.28	12.18	-42.5	-45.4	16.4	0.00e+00	0	38	0	612368384	55	5381
2026-01-25 21:56:26.84	108.79	12.07	-42.8	-45.7	16.2	0.00e+00	0	37	0	617611264	56	5273
2026-01-25 21:56:29.96	109.34	11.95	-42.1	-44.7	17.1	0.00e+00	0	37	0	623902720	56	4694
2026-01-25 21:56:32.81	109.84	11.84	-41.6	-44.1	17.5	0.00e+00	0	37	0	629145600	55	4647
2026-01-25 21:56:35.94	110.38	11.72	-42.3	-45.1	16.6	0.00e+00	0	37	0	635437056	55	5192
2026-01-25 21:56:38.78	110.87	11.61	-42.9	-45.9	15.9	0.00e+00	0	37	0	640679936	56	5394
2026-01-25 21:56:42.00	111.42	11.48	-43.3	-46.5	15.4	0.00e+00	0	37	0	645922816	57	5460
2026-01-25 21:56:44.84	111.90	11.36	-43.2	-46.4	15.5	0.00e+00	0	37	0	652214272	57	5371
2026-01-25 21:56:47.96	112.43	11.23	-42.5	-45.5	16.4	0.00e+00	0	37	0	657457152	57	4819
2026-01-25 21:56:50.80	112.90	11.12	-42.4	-45.2	16.6	0.00e+00	0	37	0	662700032	56	4968
2026-01-25 21:56:53.93	113.42	10.98	-42.6	-45.4	16.4	0.00e+00	0	37	0	668991488	56	5099
2026-01-25 21:56:56.77	113.89	10.86	-42.4	-45.2	16.6	0.00e+00	0	38	0	674234368	56	4956
2026-01-25 21:57:00.10	114.43	10.72	-42.2	-44.9	16.9	0.00e+00	0	37	0	680525824	56	4800
2026-01-25 21:57:02.82	114.87	10.61	-42.4	-45.2	16.6	0.00e+00	0	37	0	685768704	56	4970
2026-01-25 21:57:06.11	115.39	10.46	-43.0	-46.1	15.8	0.00e+00	0	38	0	692060160	56	5482
2026-01-25 21:57:09.19	115.88	10.33	-42.9	-46.0	15.8	0.00e+00	0	37	0	697303040	56	5443
2026-01-25 21:57:12.26	116.36	10.19	-43.0	-46.1	15.7	0.00e+00	0	37	0	703594496	56	5485
2026-01-25 21:57:15.10	116.81	10.06	-42.4	-45.3	16.5	0.00e+00	0	37	0	708837376	56	5016
2026-01-25 21:57:18.22	117.29	9.93	-42.2	-45.1	16.7	0.00e+00	0	37	0	714080256	56	4877
2026-01-25 21:57:21.18	117.74	9.79	-42.2	-45.0	16.7	0.00e+00	0	37	0	720371712	56	4864
2026-01-25 21:57:24.31	118.21	9.65	-42.0	-44.8	16.9	0.00e+00	0	38	0	725614592	56	4715
2026-01-25 21:57:27.20	118.65	9.52	-42.2	-44.9	16.7	0.00e+00	0	37	0	730857472	56	4808
2026-01-25 21:57:30.76	119.18	9.35	-41.8	-44.5	17.0	0.00e+00	0	37	0	738197504	55	4867
2026-01-25 21:57:33.60	119.60	9.22	-41.5	-44.2	17.3	0.00e+00	0	37	0	743440384	55	4675
2026-01-25 21:57:36.87	120.07	9.07	-41.8	-44.6	16.9	0.00e+00	0	37	0	749731840	55	4899
2026-01-25 21:57:39.59	120.47	8.94	-47.9	-63.0	3.8	1.26e+00	0	37	104	752877568	66	21598
2026-01-25 21:57:42.87	120.94	8.79	-48.3	-63.5	3.8	1.49e+00	0	37	104	752877568	67	21699
2026-01-25 21:57:45.58	121.32	8.66	-48.5	-63.7	3.8	1.49e+00	0	37	104	752877568	67	22020
2026-01-25 21:57:48.86	121.78	8.51	-48.2	-63.7	3.8	1.49e+00	0	38	104	752877568	67	22221
2026-01-25 21:57:51.57	122.16	8.38	-48.0	-63.7	3.8	1.49e+00	0	37	104	752877568	67	22251
2026-01-25 21:57:54.83	122.61	8.22	-48.2	-63.8	3.8	1.49e+00	0	38	104	752877568	67	22358
2026-01-25 21:57:57.53	122.98	8.09	-48.2	-63.8	3.8	1.49e+00	0	38	104	752877568	67	22419
2026-01-25 21:58:00.81	123.42	7.94	-48.3	-63.7	3.8	1.49e+00	0	37	104	752877568	67	22249
2026-01-25 21:58:03.51	123.79	7.81	-48.3	-63.7	3.8	1.49e+00	0	37	104	752877568	67	22099
2026-01-25 21:58:06.79	124.22	7.65	-48.3	-63.7	3.8	1.49e+00	0	38	104	752877568	67	22144
2026-01-25 21:58:09.48	124.58	7.52	-48.3	-63.7	3.8	1.49e+00	0	38	104	752877568	67	22129
2026-01-25 21:58:12.75	125.00	7.36	-48.3	-63.7	3.8	1.49e+00	0	38	104	752877568	67	22147
2026-01-25 21:58:15.46	125.35	7.23	-48.3	-63.7	3.8	1.49e+00	0	38	104	752877568	67	22104
2026-01-25 21:58:18.74	125.77	7.07	-48.3	-63.7	3.8	1.49e+00	0	38	104	752877568	67	22049
2026-01-25 21:58:21.44	126.11	6.94	-48.3	-63.7	3.8	1.49e+00	0	37	104	752877568	67	22026
2026-01-25 21:58:24.71	126.52	6.78	-48.3	-63.7	3.8	1.49e+00	0	38	104	752877568	67	22045
2026-01-25 21:58:27.42	126.86	6.65	-48.3	-63.6	3.8	1.49e+00	0	38	104	752877568	67	21985
2026-01-25 21:58:30.70	127.26	6.49	-48.2	-63.6	3.8	1.49e+00	0	38	104	752877568	67	21946
2026-01-25 21:58:33.41	127.59	6.36	-48.3	-63.6	3.8	1.49e+00	0	38	104	752877568	67	21994
2026-01-25 21:58:36.68	127.99	6.20	-48.2	-63.6	3.8	1.49e+00	0	38	104	752877568	67	21970
2026-01-25 21:58:39.37	128.31	6.06	-48.2	-63.6	3.8	1.49e+00	0	38	104	752877568	67	21967
2026-01-25 21:58:42.65	128.70	5.90	-48.2	-63.6	3.8	1.49e+00	0	38	104	752877568	67	21929
2026-01-25 21:58:45.35	129.01	5.77	-48.2	-63.6	3.8	1.49e+00	0	38	104	752877568	67	21956
2026-01-25 21:58:48.61	129.39	5.61	-48.2	-63.6	3.8	1.49e+00	0	38	104	752877568	67	21963
2026-01-25 21:58:51.31	129.70	5.48	-48.2	-63.6	3.8	1.49e+00	0	38	104	752877568	67	21938
2026-01-25 21:58:54.58	130.08	5.32	-48.2	-63.6	3.8	1.49e+00	0	38	104	752877568	67	21938