passes_logs/2026/01/25/T1/T1__20260125_191428_FENGYUN_3G_rec.log

#Pass ID: 20260125_191428_FENGYUN 3G
#Satellite: FENGYUN 3G
#Configuration: FENGYUN 3G
#almurnet v.1.7.20251203
#Start time: 2026-01-25 19:14:29

#Version: 2.0.20230620
#Station: T1
#Location: 37.570604 lon 55.790049 lat
#TLE: 1 56232U 23055A   26025.14527328  .00046082  00000+0  69370-3 0  9997
#TLE: 2 56232  49.9948   3.5622 0004071  80.7231 279.4197 15.54300718157774

#Time	Az	El	Level	Level2	SNR	BER	BlckErr	Temp	State	Recorded	gain1	gain2
2026-01-25 19:14:29.21	250.00	5.07	-47.8	-67.0	3.8	8.46e-01	0	37	0	0	67	32295
2026-01-25 19:14:31.20	249.83	5.22	-47.8	-66.8	3.8	8.47e-01	0	37	104	0	67	31591
2026-01-25 19:14:33.19	249.67	5.37	-47.8	-66.7	3.8	8.47e-01	0	37	104	0	67	31325
2026-01-25 19:14:35.18	249.49	5.52	-47.8	-66.7	3.8	8.46e-01	0	37	104	0	67	31335
2026-01-25 19:14:37.17	249.32	5.68	-47.8	-66.6	3.8	8.47e-01	0	37	104	0	67	30940
2026-01-25 19:14:39.16	249.14	5.84	-47.8	-66.5	3.8	8.48e-01	0	37	104	0	67	30607
2026-01-25 19:14:41.16	248.96	6.00	-47.8	-66.6	3.8	8.46e-01	0	38	104	0	67	30793
2026-01-25 19:14:43.15	248.78	6.15	-47.8	-66.7	3.8	8.46e-01	0	38	104	0	67	31212
2026-01-25 19:14:45.14	248.59	6.32	-47.8	-66.8	3.8	8.47e-01	0	38	104	0	67	31523
2026-01-25 19:14:47.13	248.40	6.48	-47.8	-66.6	3.8	8.46e-01	0	38	104	0	67	30940
2026-01-25 19:14:49.12	248.21	6.64	-47.7	-66.4	3.8	8.47e-01	0	38	104	0	67	30367
2026-01-25 19:14:51.11	248.02	6.80	-47.8	-66.7	3.8	8.47e-01	0	38	104	0	67	31372
2026-01-25 19:14:53.11	247.82	6.97	-47.8	-66.9	3.8	8.46e-01	0	38	104	0	67	31886
2026-01-25 19:14:55.10	247.62	7.14	-47.7	-66.5	3.8	8.46e-01	0	38	104	0	67	30602
2026-01-25 19:14:57.09	247.41	7.31	-47.7	-66.2	3.8	8.48e-01	0	38	104	0	67	29594
2026-01-25 19:14:59.08	247.20	7.48	-47.7	-65.3	3.8	8.46e-01	0	38	104	0	67	26757
2026-01-25 19:15:01.07	246.99	7.65	-47.7	-63.4	4.2	8.46e-01	0	38	0	0	67	21499
2026-01-25 19:15:03.06	246.78	7.82	-47.6	-62.4	4.5	8.31e-01	0	38	0	0	67	19113
2026-01-25 19:15:05.05	246.56	8.00	-47.7	-63.5	4.2	8.22e-01	0	38	0	0	67	21516
2026-01-25 19:15:07.04	246.34	8.17	-47.7	-65.4	3.8	8.44e-01	0	38	104	0	67	26873
2026-01-25 19:15:09.03	246.11	8.35	-47.7	-64.6	3.8	8.47e-01	0	39	104	0	67	24674
2026-01-25 19:15:11.03	245.88	8.53	-47.7	-65.2	3.8	8.45e-01	0	38	104	0	67	26367
2026-01-25 19:15:13.02	245.64	8.71	-47.6	-61.8	4.7	8.45e-01	0	38	0	0	67	17794
2026-01-25 19:15:15.01	245.41	8.89	-46.6	-54.4	11.2	3.93e-01	0	38	0	0	65	8471
2026-01-25 19:15:17.00	245.16	9.08	-45.5	-50.8	15.1	5.67e-03	0	38	0	0	63	6335
2026-01-25 19:15:19.00	244.92	9.26	-46.5	-54.1	11.7	5.70e-06	0	39	0	0	63	9203
2026-01-25 19:15:21.01	244.66	9.45	-40.5	-43.0	22.7	2.05e-04	0	39	0	0	53	4558
2026-01-25 19:15:23.00	244.41	9.64	-40.7	-43.3	22.2	0.00e+00	0	39	0	0	53	4734
2026-01-25 19:15:25.00	244.14	9.84	-39.4	-41.8	24.0	0.00e+00	0	39	0	0	50	4726
2026-01-25 19:15:27.00	243.88	10.03	-39.2	-41.6	24.2	0.00e+00	0	39	0	0	50	4599
2026-01-25 19:15:29.00	243.61	10.22	-38.8	-41.0	24.7	0.00e+00	0	39	0	0	49	4595
2026-01-25 19:15:31.00	243.33	10.42	-38.7	-40.9	24.8	0.00e+00	0	39	0	0	49	4536
2026-01-25 19:15:33.00	243.05	10.62	-38.5	-40.7	25.0	0.00e+00	0	39	0	0	49	4415
2026-01-25 19:15:35.00	242.76	10.82	-38.3	-40.5	25.1	0.00e+00	0	39	0	0	48	4596
2026-01-25 19:15:37.00	242.47	11.03	-38.4	-40.6	25.1	0.00e+00	0	39	0	0	48	4600
2026-01-25 19:15:39.00	242.17	11.23	-38.4	-40.6	25.1	0.00e+00	0	39	0	0	48	4639
2026-01-25 19:15:41.01	241.87	11.44	-38.5	-40.7	25.0	0.00e+00	0	39	0	0	48	4704
2026-01-25 19:15:43.01	241.56	11.65	-38.4	-40.5	25.2	0.00e+00	0	39	0	0	48	4586
2026-01-25 19:15:45.01	241.24	11.86	-38.3	-40.5	25.2	0.00e+00	0	39	0	0	48	4566
2026-01-25 19:15:47.01	240.92	12.07	-38.0	-40.1	25.6	0.00e+00	0	39	0	0	48	4351
2026-01-25 19:15:49.01	240.59	12.29	-37.9	-40.0	25.7	0.00e+00	0	39	0	0	47	4566
2026-01-25 19:15:51.01	240.26	12.51	-37.8	-39.9	25.7	0.00e+00	0	39	0	0	47	4516
2026-01-25 19:15:53.01	239.91	12.73	-37.8	-39.9	25.8	0.00e+00	0	39	0	0	47	4509
2026-01-25 19:15:55.01	239.57	12.95	-37.8	-39.9	25.8	0.00e+00	0	39	0	0	47	4523
2026-01-25 19:15:57.01	239.21	13.17	-37.9	-40.1	25.6	0.00e+00	0	39	0	0	47	4614
2026-01-25 19:15:59.01	238.85	13.40	-37.9	-40.1	25.6	0.00e+00	0	39	0	0	47	4614
2026-01-25 19:16:01.02	238.48	13.63	-37.7	-39.8	25.8	0.00e+00	0	39	0	0	47	4485
2026-01-25 19:16:03.02	238.10	13.86	-37.3	-39.4	26.2	0.00e+00	0	39	0	0	46	4505
2026-01-25 19:16:05.02	237.71	14.09	-37.3	-39.3	26.2	0.00e+00	0	39	0	0	46	4482
2026-01-25 19:16:07.02	237.32	14.33	-37.4	-39.4	26.2	0.00e+00	0	39	0	0	46	4534
2026-01-25 19:16:09.02	236.92	14.57	-37.6	-39.7	26.0	0.00e+00	0	39	0	0	46	4667
2026-01-25 19:16:11.03	236.51	14.81	-37.6	-39.7	26.0	0.00e+00	0	39	0	0	46	4660
2026-01-25 19:16:13.03	236.09	15.05	-37.2	-39.3	26.4	0.00e+00	0	39	0	0	46	4461
2026-01-25 19:16:15.03	235.66	15.29	-37.1	-39.1	26.5	0.00e+00	0	39	0	0	46	4380
2026-01-25 19:16:17.04	235.22	15.54	-36.8	-38.8	26.8	0.00e+00	0	39	0	0	45	4469
2026-01-25 19:16:19.04	234.78	15.79	-36.8	-38.8	26.8	0.00e+00	0	39	0	0	45	4470
2026-01-25 19:16:21.04	234.32	16.04	-36.8	-38.9	26.7	0.00e+00	0	39	0	0	45	4513
2026-01-25 19:16:23.04	233.86	16.29	-36.9	-39.0	26.7	0.00e+00	0	39	0	0	45	4548
2026-01-25 19:16:25.04	233.38	16.55	-36.6	-38.6	27.0	0.00e+00	0	39	0	0	45	4342
2026-01-25 19:16:27.04	232.90	16.81	-36.1	-38.1	27.4	0.00e+00	0	39	0	0	44	4347
2026-01-25 19:16:29.04	232.40	17.06	-36.4	-38.4	27.2	0.00e+00	0	39	0	0	44	4495
2026-01-25 19:16:31.04	231.89	17.33	-36.6	-38.6	27.0	0.00e+00	0	39	0	0	44	4613
2026-01-25 19:16:33.05	231.37	17.59	-36.6	-38.6	27.0	0.00e+00	0	39	0	0	44	4602
2026-01-25 19:16:35.05	230.84	17.86	-36.5	-38.5	27.1	0.00e+00	0	39	0	0	44	4560
2026-01-25 19:16:37.05	230.30	18.12	-36.3	-38.2	27.2	0.00e+00	0	39	0	0	44	4430
2026-01-25 19:16:39.06	229.75	18.40	-36.3	-38.3	27.2	0.00e+00	0	39	0	0	44	4462
2026-01-25 19:16:41.06	229.18	18.67	-36.2	-38.1	27.4	0.00e+00	0	39	0	0	44	4380
2026-01-25 19:16:43.07	228.60	18.94	-35.7	-37.7	27.6	0.00e+00	0	39	0	0	43	4404
2026-01-25 19:16:45.07	228.01	19.22	-35.8	-37.8	27.5	0.00e+00	0	39	0	0	43	4466
2026-01-25 19:16:47.07	227.40	19.49	-35.9	-37.9	27.5	0.00e+00	0	39	0	0	43	4503
2026-01-25 19:16:49.07	226.78	19.77	-35.9	-37.8	27.6	0.00e+00	0	39	0	0	43	4473
2026-01-25 19:16:51.08	226.15	20.05	-35.7	-37.6	27.7	0.00e+00	0	39	0	0	43	4380
2026-01-25 19:16:53.08	225.50	20.33	-35.2	-37.1	28.1	0.00e+00	0	39	0	0	42	4371
2026-01-25 19:16:55.09	224.84	20.61	-35.4	-37.3	28.0	0.00e+00	0	39	0	0	42	4456
2026-01-25 19:16:57.09	224.16	20.89	-35.4	-37.3	27.9	0.00e+00	0	39	0	0	42	4485
2026-01-25 19:16:59.10	223.47	21.18	-35.4	-37.3	28.0	0.00e+00	0	39	0	0	42	4482
2026-01-25 19:17:01.10	222.76	21.46	-35.3	-37.2	28.0	0.00e+00	0	39	0	0	42	4431
2026-01-25 19:17:03.11	222.04	21.74	-34.8	-36.7	28.5	0.00e+00	0	39	0	0	41	4411
2026-01-25 19:17:05.11	221.30	22.03	-34.9	-36.8	28.3	0.00e+00	0	39	0	0	41	4491
2026-01-25 19:17:07.11	220.55	22.31	-35.1	-37.0	28.2	0.00e+00	0	39	0	0	41	4583
2026-01-25 19:17:09.11	219.78	22.59	-35.3	-37.3	27.9	0.00e+00	0	39	0	0	41	4706
2026-01-25 19:17:11.12	218.99	22.88	-35.1	-37.0	28.2	0.00e+00	0	39	0	0	41	4580
2026-01-25 19:17:13.11	218.19	23.16	-34.9	-36.9	28.4	0.00e+00	0	39	0	0	41	4494
2026-01-25 19:17:15.12	217.36	23.44	-34.5	-36.4	28.7	0.00e+00	0	39	0	0	40	4507
2026-01-25 19:17:17.12	216.52	23.72	-34.5	-36.4	28.7	0.00e+00	0	39	0	0	40	4505
2026-01-25 19:17:19.12	215.66	23.99	-34.6	-36.5	28.5	0.00e+00	0	39	0	0	40	4588
2026-01-25 19:17:21.12	214.79	24.27	-34.5	-36.4	28.7	0.00e+00	0	39	0	0	40	4503
2026-01-25 19:17:23.13	213.89	24.54	-34.7	-36.6	28.6	0.00e+00	0	39	0	0	40	4618
2026-01-25 19:17:25.13	212.98	24.81	-34.6	-36.5	28.6	0.00e+00	0	39	0	0	40	4574
2026-01-25 19:17:27.13	212.06	25.07	-34.4	-36.3	28.8	0.00e+00	0	39	0	0	40	4456
2026-01-25 19:17:29.13	211.11	25.33	-34.3	-36.2	28.9	0.00e+00	0	39	0	0	40	4429
2026-01-25 19:17:31.14	210.14	25.59	-34.5	-36.3	28.8	0.00e+00	0	39	0	0	40	4486
2026-01-25 19:17:33.14	209.16	25.84	-34.4	-36.3	28.7	0.00e+00	0	39	0	0	40	4474
2026-01-25 19:17:35.15	208.15	26.09	-34.3	-36.1	28.9	0.00e+00	0	39	0	0	40	4372
2026-01-25 19:17:37.14	207.14	26.33	-34.0	-35.9	29.1	0.00e+00	0	39	0	0	40	4273
2026-01-25 19:17:39.15	206.10	26.56	-34.3	-36.2	28.9	0.00e+00	0	39	0	0	40	4421
2026-01-25 19:17:41.15	205.04	26.79	-34.2	-36.1	29.0	0.00e+00	0	39	0	0	40	4347
2026-01-25 19:17:43.15	203.97	27.01	-34.0	-35.9	29.2	0.00e+00	0	39	0	0	40	4258
2026-01-25 19:17:45.16	202.88	27.23	-34.2	-36.0	29.1	0.00e+00	0	39	0	0	39	4574
2026-01-25 19:17:47.16	201.78	27.43	-34.2	-36.0	29.0	0.00e+00	0	39	0	0	39	4586
2026-01-25 19:17:49.16	200.66	27.63	-33.6	-35.4	29.5	0.00e+00	0	39	0	0	39	4291
2026-01-25 19:17:51.16	199.52	27.81	-34.1	-36.0	29.1	0.00e+00	0	39	0	0	39	4556
2026-01-25 19:17:53.17	198.37	27.99	-34.3	-36.1	29.0	0.00e+00	0	39	0	0	39	4645
2026-01-25 19:17:55.18	197.20	28.16	-33.9	-35.7	29.2	0.00e+00	0	39	0	0	39	4435
2026-01-25 19:17:57.18	196.02	28.31	-34.0	-35.9	28.5	0.00e+00	0	39	0	0	39	4507
2026-01-25 19:17:59.18	194.83	28.46	-34.3	-36.2	29.0	0.00e+00	0	39	0	0	39	4677
2026-01-25 19:18:01.18	193.63	28.59	-33.7	-35.6	29.4	0.00e+00	0	39	0	0	39	4346
2026-01-25 19:18:03.18	192.42	28.71	-34.3	-36.2	29.0	0.00e+00	0	39	0	0	39	4660
2026-01-25 19:18:05.19	191.19	28.82	-34.6	-36.5	28.6	0.00e+00	0	39	0	0	40	4578
2026-01-25 19:18:07.19	189.96	28.92	-34.8	-36.7	28.5	0.00e+00	0	39	0	0	40	4672
2026-01-25 19:18:09.19	188.72	29.00	-34.6	-36.5	28.7	0.00e+00	0	39	0	0	40	4597
2026-01-25 19:18:11.19	187.47	29.07	-34.2	-36.1	29.0	0.00e+00	0	39	0	0	40	4346
2026-01-25 19:18:13.19	186.22	29.13	-34.1	-35.9	29.1	0.00e+00	0	39	0	0	40	4279
2026-01-25 19:18:15.20	184.96	29.17	-34.2	-36.0	29.1	0.00e+00	0	39	0	0	39	4576
2026-01-25 19:18:17.20	183.70	29.20	-34.3	-36.2	29.0	0.00e+00	0	39	0	0	39	4657
2026-01-25 19:18:19.21	182.43	29.22	-34.3	-36.2	28.9	0.00e+00	0	39	0	0	39	4671
2026-01-25 19:18:21.21	181.17	29.22	-34.1	-35.9	29.2	0.00e+00	0	39	0	0	39	4543
2026-01-25 19:18:23.21	179.91	29.20	-34.5	-36.4	28.8	0.00e+00	0	39	0	0	39	4785
2026-01-25 19:18:25.19	178.66	29.18	-34.4	-36.3	28.8	0.00e+00	0	39	0	0	39	4737
2026-01-25 19:18:27.20	177.40	29.14	-34.7	-36.5	28.6	0.00e+00	0	39	0	0	40	4598
2026-01-25 19:18:29.20	176.15	29.08	-34.4	-36.2	28.9	0.00e+00	0	39	0	0	40	4427
2026-01-25 19:18:31.20	174.90	29.02	-34.4	-36.2	28.9	0.00e+00	0	39	0	0	40	4441
2026-01-25 19:18:33.21	173.66	28.94	-34.6	-36.4	28.3	0.00e+00	0	39	0	0	40	4543
2026-01-25 19:18:35.21	172.42	28.84	-34.1	-36.0	28.9	0.00e+00	0	39	0	0	40	4319
2026-01-25 19:18:37.21	171.20	28.74	-34.3	-36.2	28.8	0.00e+00	0	39	0	0	39	4695
2026-01-25 19:18:39.22	169.98	28.62	-34.3	-36.1	28.9	0.00e+00	0	39	0	0	39	4650
2026-01-25 19:18:41.22	168.77	28.48	-34.2	-36.0	28.9	0.00e+00	0	39	0	0	39	4593
2026-01-25 19:18:43.22	167.58	28.34	-34.0	-35.8	29.2	0.00e+00	0	39	0	0	39	4476
2026-01-25 19:18:45.21	166.41	28.19	-34.2	-36.1	29.0	0.00e+00	0	39	0	0	39	4632
2026-01-25 19:18:47.21	165.24	28.03	-33.9	-35.7	29.3	0.00e+00	0	39	0	0	39	4438
2026-01-25 19:18:49.21	164.09	27.85	-33.7	-35.5	29.4	0.00e+00	0	39	0	0	39	4338
2026-01-25 19:18:51.21	162.95	27.67	-33.7	-35.5	29.4	0.00e+00	0	39	0	0	39	4318
2026-01-25 19:18:53.22	161.82	27.47	-33.3	-35.2	29.6	0.00e+00	0	39	0	0	38	4420
2026-01-25 19:18:55.22	160.72	27.27	-33.8	-35.6	29.3	0.00e+00	0	39	0	0	38	4643
2026-01-25 19:18:57.22	159.62	27.06	-34.4	-36.3	28.8	0.00e+00	0	39	0	0	39	4724
2026-01-25 19:18:59.23	158.55	26.84	-34.3	-36.2	28.8	0.00e+00	0	39	0	0	39	4695
2026-01-25 19:19:01.22	157.49	26.61	-33.9	-35.8	29.1	0.00e+00	0	39	0	0	39	4478
2026-01-25 19:19:03.22	156.45	26.38	-34.0	-35.8	29.2	0.00e+00	0	39	0	0	39	4473
2026-01-25 19:19:05.23	155.43	26.14	-34.2	-36.1	29.0	0.00e+00	0	39	0	0	39	4636
2026-01-25 19:19:07.23	154.42	25.89	-34.6	-36.6	28.6	0.00e+00	0	39	0	0	40	4601
2026-01-25 19:19:09.23	153.44	25.64	-34.6	-36.5	28.6	0.00e+00	0	39	0	0	40	4589
2026-01-25 19:19:11.23	152.47	25.39	-34.5	-36.4	28.7	0.00e+00	0	39	0	0	40	4525
2026-01-25 19:19:13.24	151.51	25.13	-34.4	-36.3	28.8	0.00e+00	0	39	0	0	40	4470
2026-01-25 19:19:15.24	150.58	24.86	-34.6	-36.5	28.6	0.00e+00	0	39	0	0	40	4550
2026-01-25 19:19:17.42	149.59	24.57	-34.5	-36.5	28.6	0.00e+00	0	39	0	0	40	4549
2026-01-25 19:19:19.41	148.70	24.30	-34.1	-36.0	29.0	0.00e+00	0	39	0	0	40	4295
2026-01-25 19:19:21.40	147.82	24.03	-34.5	-36.4	28.7	0.00e+00	0	39	0	0	40	4521
2026-01-25 19:19:23.39	146.97	23.75	-35.0	-36.9	28.2	0.00e+00	0	39	0	0	40	4810
2026-01-25 19:19:25.38	146.13	23.48	-34.7	-36.6	28.5	0.00e+00	0	39	0	0	40	4607
2026-01-25 19:19:27.37	145.31	23.20	-34.4	-36.2	28.8	0.00e+00	0	39	0	0	40	4440
2026-01-25 19:19:29.36	144.51	22.92	-34.7	-36.5	28.5	0.00e+00	0	39	0	0	40	4589
2026-01-25 19:19:31.35	143.72	22.64	-34.8	-36.8	28.3	0.00e+00	0	39	0	0	40	4722
2026-01-25 19:19:33.57	142.87	22.33	-34.8	-36.7	28.1	0.00e+00	0	39	0	0	40	4703
2026-01-25 19:19:35.56	142.12	22.05	-35.0	-37.0	28.2	0.00e+00	0	39	0	0	40	4826
2026-01-25 19:19:37.55	141.38	21.76	-35.0	-36.9	28.2	0.00e+00	0	39	0	0	40	4781
2026-01-25 19:19:39.56	140.65	21.48	-35.2	-37.1	28.1	0.00e+00	0	39	0	0	41	4637
2026-01-25 19:19:41.55	139.95	21.20	-35.4	-37.3	27.8	0.00e+00	0	39	0	0	41	4757
2026-01-25 19:19:43.55	139.26	20.91	-35.4	-37.3	27.9	0.00e+00	0	39	0	0	41	4735
2026-01-25 19:19:45.65	138.55	20.62	-35.3	-37.2	27.9	0.00e+00	0	39	0	0	41	4699
2026-01-25 19:19:47.72	137.86	20.33	-35.4	-37.4	27.8	0.00e+00	0	39	0	0	41	4779
2026-01-25 19:19:49.71	137.22	20.05	-35.5	-37.5	27.6	0.00e+00	0	39	0	0	41	4815
2026-01-25 19:19:51.71	136.59	19.77	-35.5	-37.4	27.7	0.00e+00	0	39	0	0	41	4789
2026-01-25 19:19:53.70	135.97	19.49	-35.7	-37.7	27.3	0.00e+00	0	39	0	0	42	4664
2026-01-25 19:19:55.71	135.37	19.22	-35.7	-37.7	27.5	0.00e+00	0	39	0	0	42	4662
2026-01-25 19:19:57.71	134.78	18.94	-35.7	-37.7	27.5	0.00e+00	0	39	0	0	42	4676
2026-01-25 19:19:59.71	134.20	18.67	-36.0	-38.0	27.3	0.00e+00	0	39	0	0	42	4850
2026-01-25 19:20:01.72	133.63	18.40	-36.0	-38.0	27.2	0.00e+00	0	39	0	0	42	4865
2026-01-25 19:20:03.71	133.08	18.13	-36.0	-38.0	27.2	0.00e+00	0	39	0	0	42	4846
2026-01-25 19:20:05.67	132.55	17.87	-36.1	-38.0	27.2	0.00e+00	0	39	0	0	42	4864
2026-01-25 19:20:07.66	132.02	17.60	-36.2	-38.2	27.1	0.00e+00	0	39	0	0	43	4672
2026-01-25 19:20:09.65	131.50	17.34	-36.0	-38.0	27.2	0.00e+00	0	39	0	0	43	4583
2026-01-25 19:20:11.64	131.00	17.08	-36.1	-38.1	27.2	0.00e+00	0	39	0	0	43	4614
2026-01-25 19:20:13.72	130.48	16.81	-36.4	-38.4	26.8	0.00e+00	0	39	0	0	43	4812
2026-01-25 19:20:15.75	129.99	16.55	-36.5	-38.5	26.7	0.00e+00	0	39	0	0	43	4863
2026-01-25 19:20:17.96	129.46	16.27	-36.5	-38.5	26.7	0.00e+00	0	39	0	0	43	4865
2026-01-25 19:20:19.95	129.00	16.01	-36.5	-38.5	26.8	0.00e+00	0	39	0	0	43	4856
2026-01-25 19:20:22.22	128.49	15.73	-36.6	-38.7	26.6	0.00e+00	0	39	0	0	43	4927
2026-01-25 19:20:24.40	128.00	15.46	-37.2	-39.2	26.2	0.00e+00	0	39	0	0	45	4705
2026-01-25 19:20:26.40	127.57	15.21	-37.5	-39.7	25.9	0.00e+00	0	39	0	0	45	4927
2026-01-25 19:20:28.39	127.15	14.97	-37.6	-39.8	25.8	0.00e+00	0	39	0	0	46	4709
2026-01-25 19:20:30.41	126.73	14.73	-37.5	-39.6	26.0	0.00e+00	0	39	0	0	46	4602
2026-01-25 19:20:32.40	126.32	14.49	-37.5	-39.6	25.9	0.00e+00	0	39	0	0	46	4647
2026-01-25 19:20:34.41	125.92	14.25	-37.6	-39.7	25.8	0.00e+00	0	39	0	0	46	4697
2026-01-25 19:20:36.40	125.53	14.02	-38.0	-40.1	25.5	0.00e+00	0	39	0	0	46	4908
2026-01-25 19:20:38.64	125.11	13.76	-37.9	-40.0	25.5	0.00e+00	0	39	0	0	46	4867
2026-01-25 19:20:40.63	124.73	13.53	-37.8	-39.9	25.6	0.00e+00	0	39	0	0	46	4777
2026-01-25 19:20:42.74	124.35	13.29	-37.9	-40.0	25.6	0.00e+00	0	39	0	0	46	4850
2026-01-25 19:20:44.74	123.99	13.07	-38.2	-40.4	25.2	0.00e+00	0	39	0	0	47	4761
2026-01-25 19:20:46.74	123.64	12.84	-38.3	-40.5	25.1	0.00e+00	0	39	0	0	47	4860
2026-01-25 19:20:48.73	123.29	12.62	-38.4	-40.6	25.0	0.00e+00	0	39	0	0	47	4876
2026-01-25 19:20:50.72	122.96	12.41	-38.3	-40.6	25.0	0.00e+00	0	39	0	0	47	4874
2026-01-25 19:20:52.71	122.63	12.19	-38.3	-40.6	25.0	0.00e+00	0	39	0	0	47	4873
2026-01-25 19:20:54.70	122.30	11.98	-38.5	-40.7	24.8	0.00e+00	0	39	0	0	47	4983
2026-01-25 19:20:56.71	121.98	11.76	-38.6	-40.9	24.7	0.00e+00	0	39	0	0	47	5048
2026-01-25 19:20:58.73	121.67	11.55	-38.7	-40.9	24.6	0.00e+00	0	39	0	0	47	5092
2026-01-25 19:21:00.72	121.36	11.34	-38.9	-41.2	24.4	0.00e+00	0	39	0	0	48	4933
2026-01-25 19:21:02.71	121.06	11.14	-39.1	-41.4	24.1	0.00e+00	0	39	0	0	48	5086
2026-01-25 19:21:04.71	120.77	10.93	-39.3	-41.6	24.0	0.00e+00	0	39	0	0	49	4893
2026-01-25 19:21:06.71	120.48	10.73	-39.2	-41.5	24.0	0.00e+00	0	39	0	0	49	4860
2026-01-25 19:21:08.72	120.19	10.53	-39.0	-41.2	24.3	0.00e+00	0	39	0	0	49	4680
2026-01-25 19:21:10.74	119.91	10.33	-39.0	-41.3	24.3	0.00e+00	0	39	0	0	49	4716
2026-01-25 19:21:12.73	119.64	10.13	-39.2	-41.4	24.1	0.00e+00	0	39	0	0	49	4811
2026-01-25 19:21:14.71	119.37	9.94	-39.4	-41.8	23.8	0.00e+00	0	39	0	0	49	4985
2026-01-25 19:21:17.08	119.06	9.71	-39.8	-42.2	23.3	0.00e+00	0	39	0	0	50	4966
2026-01-25 19:21:19.07	118.80	9.52	-40.0	-42.4	23.2	0.00e+00	0	39	0	0	50	5057
2026-01-25 19:21:21.07	118.54	9.33	-40.0	-42.5	23.0	0.00e+00	0	39	0	0	50	5140
2026-01-25 19:21:23.09	118.29	9.14	-40.0	-42.5	23.0	0.00e+00	0	39	0	0	50	5145
2026-01-25 19:21:25.10	118.05	8.96	-47.8	-65.8	3.5	0.00e+00	0	39	104	0	66	29836
2026-01-25 19:21:27.08	117.81	8.77	-48.1	-67.0	3.8	5.12e-01	0	39	104	0	67	32440
2026-01-25 19:21:29.08	117.57	8.59	-48.3	-67.3	3.8	8.47e-01	0	39	104	0	67	33429
2026-01-25 19:21:31.07	117.34	8.41	-48.4	-67.3	3.8	8.47e-01	0	39	104	0	67	33606
2026-01-25 19:21:33.06	117.11	8.23	-48.4	-67.4	3.8	8.48e-01	0	39	104	0	67	33895
2026-01-25 19:21:35.06	116.89	8.06	-48.2	-67.5	3.8	8.46e-01	0	39	104	0	67	34254
2026-01-25 19:21:37.05	116.67	7.88	-48.2	-67.5	3.8	8.48e-01	0	39	104	0	67	34321
2026-01-25 19:21:39.03	116.45	7.71	-48.3	-67.5	3.8	8.47e-01	0	39	104	0	67	34426
2026-01-25 19:21:41.04	116.24	7.53	-48.4	-67.5	3.8	8.49e-01	0	39	104	0	67	34374
2026-01-25 19:21:43.02	116.03	7.37	-48.3	-67.6	3.8	8.47e-01	0	39	104	0	67	34586
2026-01-25 19:21:45.01	115.82	7.20	-48.4	-67.6	3.8	8.45e-01	0	39	104	0	67	34489
2026-01-25 19:21:47.00	115.62	7.03	-48.4	-67.5	3.8	8.46e-01	0	39	104	0	67	34318
2026-01-25 19:21:48.98	115.42	6.86	-48.4	-67.5	3.8	8.46e-01	0	39	104	0	67	34310
2026-01-25 19:21:50.97	115.23	6.70	-48.4	-67.5	3.8	8.47e-01	0	39	104	0	67	34210
2026-01-25 19:21:52.97	115.03	6.53	-48.4	-67.5	3.8	8.48e-01	0	39	104	0	67	34136
2026-01-25 19:21:54.96	114.84	6.37	-48.4	-67.5	3.8	8.45e-01	0	39	104	0	67	34111
2026-01-25 19:21:56.95	114.65	6.21	-48.4	-67.5	3.8	8.48e-01	0	39	104	0	67	34142
2026-01-25 19:21:58.95	114.47	6.05	-48.4	-67.4	3.8	8.47e-01	0	39	104	0	67	34040
2026-01-25 19:22:00.94	114.29	5.89	-48.4	-67.4	3.8	8.47e-01	0	39	104	0	67	33983
2026-01-25 19:22:02.94	114.11	5.73	-48.4	-67.4	3.8	8.46e-01	0	39	104	0	67	34049
2026-01-25 19:22:04.94	113.93	5.58	-48.4	-67.5	3.8	8.47e-01	0	39	104	0	67	34138
2026-01-25 19:22:06.94	113.76	5.42	-48.4	-67.4	3.8	8.46e-01	0	39	104	0	67	33995
2026-01-25 19:22:08.93	113.59	5.27	-48.4	-67.4	3.8	8.47e-01	0	39	104	0	67	33900
2026-01-25 19:22:10.93	113.42	5.12	-48.4	-67.4	3.8	8.47e-01	0	39	104	0	67	34027
2026-01-25 19:22:12.93	113.26	4.96	-48.4	-67.4	3.8	8.46e-01	0	39	104	0	67	34020

#Closed at: 2026-01-25 19:22:13
#Recorded file [0 MB]: D:/Data/31040_260125_221429.dat