passes_logs/2026/01/25/T1/T1__20260125_054915_FENGYUN_3E_rec.log

#Pass ID: 20260125_054915_FENGYUN 3E
#Satellite: FENGYUN 3E
#Configuration: FENGYUN 3E
#almurnet v.1.7.20251203
#Start time: 2026-01-25 05:49:17

#Version: 2.0.20230620
#Station: T1
#Location: 37.570604 lon 55.790049 lat
#TLE: 1 49008U 21062A   26024.51886291 -.00000133  00000+0 -41802-4 0  9993
#TLE: 2 49008  98.7494  29.5356 0002407 118.1139 242.0281 14.19886269236195

#Time	Az	El	Level	Level2	SNR	BER	BlckErr	Temp	State	Recorded	gain1	gain2
2026-01-25 05:49:17.05	5.33	5.10	-48.3	-59.6	3.8	8.46e-01	0	39	0	0	66	13634
2026-01-25 05:49:20.03	5.06	5.27	-47.7	-59.0	3.8	8.48e-01	0	39	104	0	66	12805
2026-01-25 05:49:23.01	4.80	5.45	-47.7	-59.0	3.8	8.47e-01	0	39	104	0	66	12805
2026-01-25 05:49:26.00	4.52	5.62	-47.7	-59.0	3.8	8.47e-01	0	39	104	0	66	12764
2026-01-25 05:49:28.98	4.25	5.80	-47.7	-59.1	3.8	8.47e-01	0	39	104	0	66	12843
2026-01-25 05:49:31.97	3.97	5.97	-47.7	-59.1	3.8	8.47e-01	0	39	104	0	66	12951
2026-01-25 05:49:34.96	3.69	6.15	-47.7	-59.2	3.8	8.47e-01	0	39	104	0	66	12998
2026-01-25 05:49:37.94	3.40	6.33	-47.7	-59.2	3.8	8.48e-01	0	40	104	0	66	13106
2026-01-25 05:49:40.93	3.11	6.50	-47.7	-59.3	3.8	8.47e-01	0	40	104	0	66	13196
2026-01-25 05:49:43.92	2.82	6.68	-47.7	-59.2	3.8	8.46e-01	0	40	104	0	66	13093
2026-01-25 05:49:46.90	2.52	6.86	-47.7	-59.3	3.8	8.46e-01	0	40	104	0	66	13149
2026-01-25 05:49:49.89	2.22	7.04	-47.7	-59.3	3.8	8.48e-01	0	40	104	0	66	13114
2026-01-25 05:49:52.88	1.92	7.22	-47.7	-59.2	3.8	8.47e-01	0	40	104	0	66	12966
2026-01-25 05:49:55.87	1.61	7.40	-47.7	-59.2	3.8	8.47e-01	0	40	104	0	66	13021
2026-01-25 05:49:58.86	1.30	7.58	-47.7	-59.2	3.8	8.47e-01	0	40	104	0	66	13024
2026-01-25 05:50:01.85	0.98	7.76	-47.7	-59.0	3.8	8.46e-01	0	40	104	0	66	12731
2026-01-25 05:50:04.84	0.66	7.94	-47.5	-58.0	3.8	8.47e-01	0	40	104	0	65	12000
2026-01-25 05:50:07.82	0.34	8.13	-47.5	-57.7	3.8	8.47e-01	0	41	104	0	65	11662
2026-01-25 05:50:10.81	0.01	8.31	-47.6	-58.6	3.8	8.46e-01	0	41	104	0	65	12882
2026-01-25 05:50:13.80	359.67	8.49	-47.4	-56.8	4.0	8.45e-01	0	41	104	0	65	10454
2026-01-25 05:50:16.79	359.34	8.67	-45.7	-50.2	8.0	1.21e-01	0	41	0	7340032	62	5795
2026-01-25 05:50:19.78	358.99	8.86	-42.8	-45.0	13.3	3.43e-05	0	41	0	29360128	56	4503
2026-01-25 05:50:22.77	358.65	9.04	-41.5	-43.3	14.9	0.00e+00	0	41	0	50331648	53	4398
2026-01-25 05:50:25.77	358.30	9.23	-42.3	-44.3	13.9	0.00e+00	0	41	0	72351744	53	4983
2026-01-25 05:50:28.77	357.94	9.41	-38.1	-39.4	18.5	0.00e+00	0	41	0	91226112	47	4003
2026-01-25 05:50:31.78	357.58	9.60	-37.9	-39.3	18.6	0.00e+00	0	41	0	113246208	46	4192
2026-01-25 05:50:34.78	357.21	9.78	-37.7	-39.1	18.9	0.00e+00	0	41	0	135266304	46	4071
2026-01-25 05:50:37.78	356.84	9.97	-37.7	-39.1	18.9	0.00e+00	0	41	0	156237824	46	4082
2026-01-25 05:50:40.79	356.46	10.16	-37.6	-39.1	18.9	0.00e+00	0	41	0	178257920	45	4303
2026-01-25 05:50:43.79	356.08	10.34	-37.7	-39.2	18.8	0.00e+00	0	41	0	200278016	45	4374
2026-01-25 05:50:46.79	355.69	10.53	-37.6	-39.1	18.9	0.00e+00	0	41	0	221249536	45	4320
2026-01-25 05:50:49.79	355.30	10.72	-37.7	-39.3	18.7	0.00e+00	0	41	0	243269632	45	4427
2026-01-25 05:50:52.80	354.90	10.90	-37.6	-39.2	18.9	0.00e+00	0	41	0	265289728	45	4360
2026-01-25 05:50:55.80	354.50	11.09	-37.5	-38.9	19.1	0.00e+00	0	41	0	286261248	45	4234
2026-01-25 05:50:58.81	354.09	11.28	-37.5	-38.8	19.2	0.00e+00	0	41	0	308281344	45	4193
2026-01-25 05:51:01.81	353.68	11.47	-37.3	-38.6	19.5	0.00e+00	0	41	0	330301440	45	4059
2026-01-25 05:51:04.82	353.26	11.65	-37.0	-38.2	19.9	0.00e+00	0	41	0	351272960	44	4116
2026-01-25 05:51:07.83	352.84	11.84	-37.2	-38.3	19.8	0.00e+00	0	41	0	373293056	44	4182
2026-01-25 05:51:10.83	352.41	12.03	-37.4	-38.6	19.5	0.00e+00	0	41	0	395313152	44	4316
2026-01-25 05:51:13.83	351.97	12.21	-37.3	-38.6	19.5	0.00e+00	0	41	0	416284672	44	4316
2026-01-25 05:51:16.84	351.53	12.40	-37.3	-38.7	19.5	0.00e+00	0	41	0	438304768	44	4342
2026-01-25 05:51:19.85	351.08	12.59	-37.2	-38.5	19.6	0.00e+00	0	41	0	460324864	44	4283
2026-01-25 05:51:22.85	350.63	12.77	-36.9	-38.2	19.9	0.00e+00	0	41	0	482344960	44	4128
2026-01-25 05:51:25.84	350.18	12.96	-36.9	-38.1	20.0	0.00e+00	0	41	0	503316480	44	4063
2026-01-25 05:51:28.85	349.71	13.14	-36.9	-38.0	20.2	0.00e+00	0	41	0	525336576	44	4013
2026-01-25 05:51:31.84	349.24	13.33	-36.9	-37.9	20.2	0.00e+00	0	41	0	546308096	44	4000
2026-01-25 05:51:34.85	348.77	13.51	-36.9	-37.9	20.2	0.00e+00	0	41	0	568328192	44	3996
2026-01-25 05:51:37.84	348.29	13.69	-36.9	-38.0	20.1	0.00e+00	0	41	0	590348288	44	4042
2026-01-25 05:51:40.85	347.80	13.88	-36.8	-38.0	20.2	0.00e+00	0	41	0	612368384	44	4014
2026-01-25 05:51:43.86	347.30	14.06	-36.9	-38.0	20.1	0.00e+00	0	41	0	633339904	44	4038
2026-01-25 05:51:46.86	346.80	14.24	-36.8	-37.8	20.3	0.00e+00	0	41	0	655360000	44	3943
2026-01-25 05:51:49.86	346.29	14.42	-36.7	-37.8	20.4	0.00e+00	0	41	0	677380096	44	3927
2026-01-25 05:51:52.85	345.78	14.60	-36.7	-37.8	20.4	0.00e+00	0	41	0	698351616	44	3926
2026-01-25 05:51:55.85	345.26	14.78	-36.5	-37.6	20.4	0.00e+00	0	41	0	720371712	43	4076
2026-01-25 05:51:58.86	344.74	14.95	-36.6	-37.7	20.3	0.00e+00	0	41	0	742391808	43	4120
2026-01-25 05:52:01.85	344.21	15.13	-36.5	-37.6	20.5	0.00e+00	0	41	0	763363328	43	4054
2026-01-25 05:52:04.86	343.67	15.30	-36.1	-37.2	20.8	0.00e+00	0	41	0	785383424	43	3876
2026-01-25 05:52:07.86	343.12	15.48	-36.0	-37.0	21.0	0.00e+00	0	41	0	806354944	42	4036
2026-01-25 05:52:10.86	342.57	15.65	-36.0	-37.0	21.0	0.00e+00	0	41	0	828375040	42	4014
2026-01-25 05:52:13.86	342.01	15.82	-36.1	-37.0	21.0	0.00e+00	0	41	0	850395136	42	4051
2026-01-25 05:52:16.87	341.45	15.99	-35.8	-36.9	21.2	0.00e+00	0	41	0	871366656	42	3965
2026-01-25 05:52:19.87	340.88	16.16	-35.7	-36.7	21.3	0.00e+00	0	41	0	893386752	42	3902
2026-01-25 05:52:22.87	340.30	16.32	-35.6	-36.6	21.4	0.00e+00	0	41	0	915406848	41	4060
2026-01-25 05:52:25.87	339.71	16.49	-35.6	-36.6	21.4	0.00e+00	0	41	0	936378368	41	4062
2026-01-25 05:52:28.88	339.12	16.65	-35.5	-36.5	21.5	0.00e+00	0	41	0	958398464	41	4021
2026-01-25 05:52:31.87	338.53	16.81	-35.5	-36.4	21.6	0.00e+00	0	41	0	980418560	41	3980
2026-01-25 05:52:34.87	337.93	16.96	-35.5	-36.5	21.5	0.00e+00	0	41	0	1001390080	41	4012
2026-01-25 05:52:37.87	337.32	17.12	-35.6	-36.6	21.4	0.00e+00	0	41	0	1023410176	41	4055
2026-01-25 05:52:40.87	336.70	17.27	-35.8	-36.8	21.3	0.00e+00	0	41	0	1045430272	41	4149
2026-01-25 05:52:43.88	336.08	17.42	-35.6	-36.5	21.4	0.00e+00	0	41	0	1066401792	41	4037
2026-01-25 05:52:46.88	335.45	17.57	-35.3	-36.2	21.7	0.00e+00	0	41	0	1088421888	41	3911
2026-01-25 05:52:49.89	334.81	17.71	-35.2	-36.1	21.8	0.00e+00	0	41	0	1110441984	41	3858
2026-01-25 05:52:52.89	334.17	17.86	-35.3	-36.2	21.7	0.00e+00	0	42	0	1131413504	41	3904
2026-01-25 05:52:55.90	333.52	18.00	-35.2	-36.1	21.8	0.00e+00	0	41	0	1153433600	41	3848
2026-01-25 05:52:58.90	332.87	18.13	-35.3	-36.2	21.7	0.00e+00	0	41	0	1175453696	41	3902
2026-01-25 05:53:01.91	332.21	18.26	-35.4	-36.4	21.6	0.00e+00	0	42	0	1197473792	41	3964
2026-01-25 05:53:04.91	331.54	18.39	-35.2	-36.1	21.8	0.00e+00	0	41	0	1218445312	41	3844
2026-01-25 05:53:07.91	330.87	18.52	-35.0	-35.9	22.0	0.00e+00	0	41	0	1240465408	40	3965
2026-01-25 05:53:10.90	330.20	18.64	-34.9	-35.8	22.1	0.00e+00	0	41	0	1262485504	40	3948
2026-01-25 05:53:13.91	329.52	18.76	-34.8	-35.7	22.2	0.00e+00	0	41	0	1283457024	40	3905
2026-01-25 05:53:16.91	328.83	18.88	-34.8	-35.7	22.2	0.00e+00	0	42	0	1305477120	40	3876
2026-01-25 05:53:19.91	328.14	18.99	-34.7	-35.6	22.3	0.00e+00	0	42	0	1326448640	40	3855
2026-01-25 05:53:22.91	327.44	19.10	-34.7	-35.6	22.3	0.00e+00	0	42	0	1348468736	40	3837
2026-01-25 05:53:25.91	326.74	19.20	-34.6	-35.5	22.5	0.00e+00	0	41	0	1370488832	39	4027
2026-01-25 05:53:28.91	326.03	19.30	-34.6	-35.5	22.5	0.00e+00	0	42	0	1391460352	39	4007
2026-01-25 05:53:31.91	325.32	19.40	-34.6	-35.4	22.5	0.00e+00	0	42	0	1413480448	39	3994
2026-01-25 05:53:34.92	324.60	19.49	-34.7	-35.6	22.4	0.00e+00	0	41	0	1435500544	39	4086
2026-01-25 05:53:37.93	323.88	19.58	-34.9	-35.8	22.2	0.00e+00	0	42	0	1456472064	39	4181
2026-01-25 05:53:40.92	323.16	19.66	-35.0	-35.9	21.9	0.00e+00	0	42	0	1478492160	39	4227
2026-01-25 05:53:43.92	322.43	19.74	-34.9	-35.8	22.2	0.00e+00	0	42	0	1500512256	39	4148
2026-01-25 05:53:46.93	321.69	19.81	-35.0	-35.9	22.1	0.00e+00	0	42	0	1521483776	39	4197
2026-01-25 05:53:49.93	320.96	19.88	-34.6	-35.6	22.4	0.00e+00	0	41	0	1543503872	39	4056
2026-01-25 05:53:52.93	320.22	19.94	-34.7	-35.7	22.3	0.00e+00	0	42	0	1565523968	39	4107
2026-01-25 05:53:55.93	319.48	20.00	-34.7	-35.7	22.3	0.00e+00	0	42	0	1586495488	39	4114
2026-01-25 05:53:58.93	318.74	20.05	-34.5	-35.6	22.2	0.00e+00	0	42	0	1608515584	39	4086
2026-01-25 05:54:01.94	317.99	20.10	-34.4	-35.5	22.3	0.00e+00	0	42	0	1630535680	39	4047
2026-01-25 05:54:04.94	317.24	20.15	-34.4	-35.5	22.2	0.00e+00	0	42	0	1651507200	39	4044
2026-01-25 05:54:07.94	316.48	20.19	-34.4	-35.6	22.3	0.00e+00	0	42	0	1673527296	39	4056
2026-01-25 05:54:10.94	315.73	20.22	-34.6	-35.7	22.1	0.00e+00	0	41	0	1695547392	39	4119
2026-01-25 05:54:13.94	314.98	20.25	-34.3	-35.6	22.1	0.00e+00	0	42	0	1716518912	39	4064
2026-01-25 05:54:16.95	314.22	20.27	-34.5	-35.7	22.0	0.00e+00	0	42	0	1738539008	39	4135
2026-01-25 05:54:19.95	313.46	20.29	-34.6	-35.7	22.2	0.00e+00	0	42	0	1760559104	39	4110
2026-01-25 05:54:22.95	312.70	20.30	-34.2	-35.4	22.3	0.00e+00	0	42	0	1782579200	39	3971
2026-01-25 05:54:25.95	311.94	20.31	-34.6	-35.5	22.4	0.00e+00	0	42	0	1803550720	39	4032
2026-01-25 05:54:28.95	311.19	20.31	-34.5	-35.5	22.4	0.00e+00	0	42	0	1825570816	39	4012
2026-01-25 05:54:31.95	310.43	20.31	-34.5	-35.4	22.5	0.00e+00	0	41	0	1847590912	39	4003
2026-01-25 05:54:34.96	309.67	20.30	-34.6	-35.5	22.4	0.00e+00	0	41	0	1868562432	39	4049
2026-01-25 05:54:37.96	308.91	20.29	-34.6	-35.4	22.6	0.00e+00	0	41	0	1890582528	39	3987
2026-01-25 05:54:40.95	308.15	20.27	-34.6	-35.5	22.5	0.00e+00	0	41	0	1911554048	39	4008
2026-01-25 05:54:43.96	307.39	20.24	-34.8	-35.6	22.3	0.00e+00	0	41	0	1933574144	39	4096
2026-01-25 05:54:46.95	306.64	20.22	-34.6	-35.5	22.5	0.00e+00	0	42	0	1955594240	39	4024
2026-01-25 05:54:49.95	305.89	20.18	-34.5	-35.4	22.4	0.00e+00	0	41	0	1976565760	39	3989
2026-01-25 05:54:52.94	305.14	20.14	-34.7	-35.6	22.4	0.00e+00	0	42	0	1998585856	39	4079
2026-01-25 05:54:55.95	304.39	20.10	-34.7	-35.5	22.4	0.00e+00	0	42	0	2020605952	39	4040
2026-01-25 05:54:58.96	303.64	20.05	-34.6	-35.5	22.5	0.00e+00	0	42	0	2041577472	39	4031
2026-01-25 05:55:01.96	302.89	19.99	-34.5	-35.3	22.6	0.00e+00	0	42	0	2063597568	39	3950
2026-01-25 05:55:04.96	302.15	19.93	-34.7	-35.5	22.4	0.00e+00	0	42	0	2085617664	39	4045
2026-01-25 05:55:07.96	301.41	19.87	-34.8	-35.6	22.4	0.00e+00	0	42	0	2106589184	39	4092
2026-01-25 05:55:10.97	300.67	19.80	-34.5	-35.4	22.6	0.00e+00	0	42	0	2128609280	39	3960
2026-01-25 05:55:13.97	299.94	19.73	-34.6	-35.5	22.5	0.00e+00	0	42	0	2150629376	39	4006
2026-01-25 05:55:16.98	299.21	19.65	-34.9	-35.7	22.3	0.00e+00	0	42	0	2171600896	39	4134
2026-01-25 05:55:19.99	298.48	19.56	-34.7	-35.6	22.5	0.00e+00	0	42	0	2193620992	39	4053
2026-01-25 05:55:22.97	297.76	19.48	-34.6	-35.4	22.6	0.00e+00	0	42	0	2215641088	39	3992
2026-01-25 05:55:25.96	297.05	19.38	-34.7	-35.5	22.3	0.00e+00	0	42	0	2236612608	39	4026
2026-01-25 05:55:28.96	296.33	19.29	-34.8	-35.7	22.4	0.00e+00	0	41	0	2258632704	39	4109
2026-01-25 05:55:31.96	295.63	19.19	-34.7	-35.6	22.5	0.00e+00	0	41	0	2280652800	39	4052
2026-01-25 05:55:34.97	294.92	19.08	-34.7	-35.6	22.4	0.00e+00	0	42	0	2301624320	39	4061
2026-01-25 05:55:37.97	294.22	18.97	-35.1	-36.0	22.1	0.00e+00	0	42	0	2323644416	39	4256
2026-01-25 05:55:40.97	293.53	18.86	-35.3	-36.1	21.8	0.00e+00	0	42	0	2345664512	40	4095
2026-01-25 05:55:43.98	292.84	18.75	-35.2	-36.1	21.9	0.00e+00	0	42	0	2366636032	40	4055
2026-01-25 05:55:46.98	292.16	18.63	-34.8	-35.6	22.0	0.00e+00	0	42	0	2388656128	40	3847
2026-01-25 05:55:49.98	291.48	18.50	-35.0	-35.8	22.1	0.00e+00	0	42	0	2409627648	40	3946
2026-01-25 05:55:52.97	290.81	18.38	-35.1	-36.0	22.0	0.00e+00	0	42	0	2431647744	40	4021
2026-01-25 05:55:55.97	290.14	18.25	-35.2	-36.0	21.9	0.00e+00	0	42	0	2453667840	40	4046
2026-01-25 05:55:58.97	289.48	18.11	-35.3	-36.1	21.8	0.00e+00	0	42	0	2474639360	40	4096
2026-01-25 05:56:01.96	288.83	17.98	-35.1	-36.0	22.0	0.00e+00	0	42	0	2496659456	40	4035
2026-01-25 05:56:04.96	288.18	17.84	-35.2	-36.1	21.9	0.00e+00	0	42	0	2518679552	40	4059
2026-01-25 05:56:07.96	287.54	17.69	-35.2	-36.0	21.9	0.00e+00	0	42	0	2539651072	40	4049
2026-01-25 05:56:10.97	286.90	17.55	-35.4	-36.2	21.7	0.00e+00	0	42	0	2561671168	40	4141
2026-01-25 05:56:13.98	286.27	17.40	-35.2	-36.0	21.9	0.00e+00	0	42	0	2583691264	40	4048
2026-01-25 05:56:16.98	285.65	17.25	-35.2	-36.1	21.9	0.00e+00	0	42	0	2604662784	40	4060
2026-01-25 05:56:19.98	285.03	17.10	-35.3	-36.2	21.8	0.00e+00	0	42	0	2626682880	40	4113
2026-01-25 05:56:22.98	284.42	16.94	-35.3	-36.2	21.8	0.00e+00	0	42	0	2648702976	40	4130
2026-01-25 05:56:25.99	283.81	16.78	-35.3	-36.2	21.8	0.00e+00	0	42	0	2669674496	40	4112
2026-01-25 05:56:28.99	283.21	16.62	-35.2	-36.1	21.9	0.00e+00	0	42	0	2691694592	40	4081
2026-01-25 05:56:31.99	282.62	16.46	-35.5	-36.4	21.6	0.00e+00	0	42	0	2713714688	40	4202
2026-01-25 05:56:34.99	282.03	16.29	-35.8	-36.7	21.3	0.00e+00	0	42	0	2734686208	41	4116
2026-01-25 05:56:37.99	281.45	16.13	-35.9	-36.8	21.3	0.00e+00	0	42	0	2756706304	41	4151
2026-01-25 05:56:40.99	280.88	15.96	-35.8	-36.7	21.3	0.00e+00	0	42	0	2778726400	41	4109
2026-01-25 05:56:43.98	280.32	15.79	-35.8	-36.7	21.3	0.00e+00	0	42	0	2799697920	41	4144
2026-01-25 05:56:46.98	279.76	15.62	-35.8	-36.8	21.3	0.00e+00	0	42	0	2821718016	41	4154
2026-01-25 05:56:49.97	279.21	15.45	-35.7	-36.6	21.4	0.00e+00	0	42	0	2843738112	41	4095
2026-01-25 05:56:52.97	278.66	15.27	-36.0	-36.9	21.1	0.00e+00	0	42	0	2864709632	41	4213
2026-01-25 05:56:55.97	278.12	15.10	-36.0	-37.0	21.0	0.00e+00	0	42	0	2886729728	41	4257
2026-01-25 05:56:58.97	277.58	14.92	-36.0	-36.9	21.1	0.00e+00	0	42	0	2907701248	41	4235
2026-01-25 05:57:01.97	277.06	14.74	-36.1	-37.0	21.0	0.00e+00	0	42	0	2929721344	41	4253
2026-01-25 05:57:04.97	276.54	14.57	-36.0	-36.9	21.1	0.00e+00	0	42	0	2951741440	41	4223
2026-01-25 05:57:07.97	276.02	14.39	-36.0	-36.9	21.1	0.00e+00	0	42	0	2972712960	41	4227
2026-01-25 05:57:10.97	275.51	14.20	-36.0	-36.9	21.1	0.00e+00	0	42	0	2994733056	41	4224
2026-01-25 05:57:13.96	275.01	14.02	-36.1	-37.0	21.0	0.00e+00	0	42	0	3016753152	41	4285
2026-01-25 05:57:16.97	274.51	13.84	-36.1	-37.1	20.9	0.00e+00	0	42	0	3037724672	41	4301
2026-01-25 05:57:19.97	274.02	13.66	-36.0	-37.0	21.0	0.00e+00	0	41	0	3059744768	41	4250
2026-01-25 05:57:22.97	273.54	13.47	-36.2	-37.1	20.8	0.00e+00	0	42	0	3081764864	41	4339
2026-01-25 05:57:25.97	273.06	13.29	-36.3	-37.3	20.7	0.00e+00	0	42	0	3102736384	42	4161
2026-01-25 05:57:28.98	272.59	13.10	-36.5	-37.5	20.5	0.00e+00	0	42	0	3124756480	42	4259
2026-01-25 05:57:31.97	272.12	12.92	-36.7	-37.6	20.4	0.00e+00	0	42	0	3146776576	42	4332
2026-01-25 05:57:34.97	271.66	12.73	-36.8	-37.8	20.2	0.00e+00	0	42	0	3167748096	43	4148
2026-01-25 05:57:37.96	271.21	12.55	-36.7	-37.7	20.3	0.00e+00	0	42	0	3189768192	43	4132
2026-01-25 05:57:40.96	270.76	12.36	-36.4	-37.4	20.5	0.00e+00	0	42	0	3211788288	43	3979
2026-01-25 05:57:43.95	270.32	12.17	-36.3	-37.2	20.7	0.00e+00	0	42	0	3232759808	43	3907
2026-01-25 05:57:46.95	269.88	11.99	-36.6	-37.5	20.4	0.00e+00	0	42	0	3254779904	43	4039
2026-01-25 05:57:49.95	269.45	11.80	-36.9	-37.9	20.1	0.00e+00	0	41	0	3276800000	43	4195
2026-01-25 05:57:52.96	269.02	11.61	-36.9	-37.8	20.1	0.00e+00	0	42	0	3297771520	43	4191
2026-01-25 05:57:55.96	268.60	11.42	-37.0	-38.0	20.0	0.00e+00	0	42	0	3319791616	43	4246
2026-01-25 05:57:58.96	268.19	11.23	-36.8	-37.8	20.2	0.00e+00	0	42	0	3341811712	43	4160
2026-01-25 05:58:01.96	267.78	11.05	-36.8	-37.8	20.1	0.00e+00	0	42	0	3362783232	43	4155
2026-01-25 05:58:04.97	267.37	10.86	-36.8	-37.8	20.2	0.00e+00	0	42	0	3384803328	43	4158
2026-01-25 05:58:07.97	266.97	10.67	-36.9	-37.9	20.0	0.00e+00	0	42	0	3405774848	43	4219
2026-01-25 05:58:10.97	266.58	10.48	-36.7	-37.7	20.2	0.00e+00	0	42	0	3427794944	43	4127
2026-01-25 05:58:13.97	266.19	10.30	-36.9	-37.9	20.0	0.00e+00	0	42	0	3449815040	43	4218
2026-01-25 05:58:16.97	265.81	10.11	-37.1	-38.1	19.7	0.00e+00	0	42	0	3470786560	43	4327
2026-01-25 05:58:19.95	265.43	9.92	-37.5	-38.6	19.5	0.00e+00	0	42	0	3492806656	44	4293
2026-01-25 05:58:22.94	265.06	9.74	-37.6	-38.6	19.4	0.00e+00	0	42	0	3513778176	45	4068
2026-01-25 05:58:25.93	264.69	9.55	-37.5	-38.5	19.4	0.00e+00	0	42	0	3535798272	45	4029
2026-01-25 05:58:28.93	264.32	9.37	-37.5	-38.5	19.4	0.00e+00	0	42	0	3557818368	45	4034
2026-01-25 05:58:31.93	263.96	9.18	-37.6	-38.7	19.2	0.00e+00	0	42	0	3578789888	45	4116
2026-01-25 05:58:34.92	263.61	9.00	-48.1	-56.1	3.9	1.70e-01	0	42	104	3599761408	66	9132
2026-01-25 05:58:37.91	263.26	8.81	-49.1	-59.9	3.8	8.46e-01	0	42	104	3599761408	67	13342
2026-01-25 05:58:40.90	262.92	8.63	-49.4	-60.3	3.8	8.46e-01	0	42	104	3599761408	68	13117
2026-01-25 05:58:43.90	262.57	8.44	-49.5	-60.3	3.8	8.46e-01	0	42	104	3599761408	68	13230
2026-01-25 05:58:46.89	262.24	8.26	-49.5	-60.3	3.8	8.47e-01	0	42	104	3599761408	68	13246
2026-01-25 05:58:49.88	261.91	8.08	-49.4	-60.4	3.8	8.47e-01	0	42	104	3599761408	68	13342
2026-01-25 05:58:52.87	261.58	7.89	-49.5	-60.4	3.8	8.46e-01	0	42	104	3599761408	68	13278
2026-01-25 05:58:55.86	261.25	7.71	-49.2	-60.3	3.8	8.47e-01	0	42	104	3599761408	68	13259
2026-01-25 05:58:58.85	260.94	7.53	-49.2	-60.3	3.8	8.48e-01	0	42	104	3599761408	68	13136
2026-01-25 05:59:01.84	260.62	7.35	-49.1	-60.3	3.8	8.47e-01	0	42	104	3599761408	68	13126
2026-01-25 05:59:04.83	260.31	7.17	-49.1	-60.2	3.8	8.46e-01	0	42	104	3599761408	68	12969
2026-01-25 05:59:07.82	260.00	6.99	-49.1	-60.2	3.8	8.47e-01	0	42	104	3599761408	68	13082
2026-01-25 05:59:10.81	259.70	6.81	-49.1	-60.3	3.8	8.47e-01	0	42	104	3599761408	68	13130
2026-01-25 05:59:13.80	259.40	6.63	-49.1	-60.2	3.8	8.47e-01	0	42	104	3599761408	68	13015
2026-01-25 05:59:16.79	259.10	6.45	-49.1	-60.2	3.8	8.47e-01	0	42	104	3599761408	68	13068
2026-01-25 05:59:19.79	258.81	6.27	-49.1	-60.2	3.8	8.48e-01	0	42	104	3599761408	68	12969
