passes_logs/2026/01/25/T1/T1__20260125_062805_KHAYYAM_rec.log

#Pass ID: 20260125_062805_KHAYYAM
#Satellite: KHAYYAM
#Configuration: KHAYYAM_480M
#almurnet v.1.7.20251203
#Start time: 2026-01-25 06:28:06

#Version: 2.0.20230620
#Station: T1
#Location: 37.570604 lon 55.790049 lat
#TLE: 1 53370U 22096A   26024.53891351  .00009807  00000+0  39879-3 0  9998
#TLE: 2 53370  97.3549 291.3780 0001977 107.4992 252.6462 15.24736514192695

#Time	Az	El	Level	Level2	SNR	BER	BlckErr	Temp	State	Recorded	gain1	gain2
2026-01-25 06:28:06.02	108.06	5.07	-51.4	-55.9	3.6	0.00e+00	0	43	0	0	74	24151
2026-01-25 06:28:08.01	107.79	5.19	-51.4	-55.9	3.7	0.00e+00	0	44	104	0	73	25453
2026-01-25 06:28:09.99	107.52	5.32	-51.4	-55.9	3.7	0.00e+00	0	44	104	0	73	25496
2026-01-25 06:28:11.98	107.24	5.45	-51.4	-55.9	3.7	0.00e+00	0	44	104	0	73	25517
2026-01-25 06:28:13.98	106.96	5.58	-51.4	-55.9	3.7	0.00e+00	0	44	104	0	73	25499
2026-01-25 06:28:15.97	106.68	5.71	-51.4	-55.9	3.7	0.00e+00	0	45	104	0	73	25451
2026-01-25 06:28:17.96	106.40	5.83	-51.4	-55.9	3.7	0.00e+00	0	45	104	0	73	25444
2026-01-25 06:28:19.95	106.11	5.96	-51.4	-55.8	3.7	0.00e+00	0	45	104	0	73	25384
2026-01-25 06:28:21.94	105.82	6.09	-51.3	-55.9	3.7	0.00e+00	0	45	104	0	73	25414
2026-01-25 06:28:23.94	105.52	6.22	-51.3	-55.9	3.7	0.00e+00	0	45	104	0	73	25437
2026-01-25 06:28:25.93	105.22	6.35	-51.4	-55.8	3.7	0.00e+00	0	45	104	0	73	25371
2026-01-25 06:28:27.92	104.92	6.48	-51.4	-55.9	3.7	0.00e+00	0	45	104	0	73	25451
2026-01-25 06:28:29.91	104.62	6.61	-51.3	-55.9	3.7	0.00e+00	0	45	104	0	73	25462
2026-01-25 06:28:31.90	104.31	6.74	-51.4	-55.9	3.7	0.00e+00	0	46	104	0	73	25484
2026-01-25 06:28:33.90	104.00	6.88	-51.3	-55.8	3.7	0.00e+00	0	45	104	0	73	25353
2026-01-25 06:28:35.89	103.68	7.01	-51.3	-55.8	3.7	0.00e+00	0	46	104	0	73	25372
2026-01-25 06:28:37.88	103.36	7.14	-51.3	-55.8	3.7	0.00e+00	0	46	104	0	73	25378
2026-01-25 06:28:39.87	103.04	7.27	-51.3	-55.8	3.7	0.00e+00	0	46	104	0	73	25344
2026-01-25 06:28:41.87	102.71	7.40	-51.3	-55.9	3.7	0.00e+00	0	46	104	0	73	25410
2026-01-25 06:28:43.86	102.38	7.53	-51.3	-55.9	3.7	0.00e+00	0	46	104	0	73	25396
2026-01-25 06:28:45.85	102.05	7.67	-51.4	-55.9	3.7	0.00e+00	0	46	104	0	73	25445
2026-01-25 06:28:47.85	101.71	7.80	-51.3	-55.9	3.7	0.00e+00	0	46	104	0	73	25407
2026-01-25 06:28:49.84	101.36	7.93	-51.3	-55.9	3.7	0.00e+00	0	46	104	0	73	25441
2026-01-25 06:28:51.83	101.02	8.07	-51.3	-55.8	3.7	0.00e+00	0	46	104	0	73	25382
2026-01-25 06:28:53.82	100.67	8.20	-51.3	-55.9	3.7	0.00e+00	0	46	104	0	73	25401
2026-01-25 06:28:55.82	100.31	8.33	-51.3	-55.8	3.7	0.00e+00	0	47	104	0	73	25360
2026-01-25 06:28:57.81	99.95	8.46	-51.3	-55.9	3.7	0.00e+00	0	46	104	0	73	25416
2026-01-25 06:28:59.80	99.59	8.60	-51.3	-55.8	3.7	0.00e+00	0	47	104	0	73	25370
2026-01-25 06:29:01.79	99.22	8.73	-51.3	-55.8	3.6	0.00e+00	0	46	104	0	73	25359
2026-01-25 06:29:03.78	98.85	8.86	-51.3	-55.9	3.7	0.00e+00	0	47	104	0	73	25432
2026-01-25 06:29:05.78	98.48	9.00	-51.3	-55.9	3.7	0.00e+00	0	47	104	0	73	25440
2026-01-25 06:29:07.78	98.10	9.13	-51.4	-55.9	3.7	0.00e+00	0	47	104	0	73	25443
2026-01-25 06:29:09.78	97.71	9.26	-51.4	-56.0	3.7	0.00e+00	0	47	104	0	73	25760
2026-01-25 06:29:11.78	97.32	9.40	-51.2	-55.7	3.7	0.00e+00	0	47	104	0	73	24819
2026-01-25 06:29:13.78	96.92	9.53	-51.3	-55.9	3.7	0.00e+00	0	47	104	0	73	25402
2026-01-25 06:29:15.78	96.53	9.66	-51.2	-55.7	3.7	0.00e+00	0	47	104	0	73	25076
2026-01-25 06:29:17.78	96.12	9.80	-51.3	-55.8	3.7	0.00e+00	0	47	104	0	73	25381
2026-01-25 06:29:19.79	95.71	9.93	-50.6	-55.3	3.7	0.00e+00	0	47	104	0	73	23957
2026-01-25 06:29:21.79	95.30	10.06	-51.1	-55.7	3.7	0.00e+00	0	47	104	0	73	24841
2026-01-25 06:29:23.80	94.88	10.20	-50.9	-55.5	3.7	0.00e+00	0	47	104	0	72	25787
2026-01-25 06:29:25.80	94.45	10.33	-51.2	-55.7	3.7	0.00e+00	0	47	104	0	73	24972
2026-01-25 06:29:27.80	94.03	10.46	-51.4	-55.9	3.7	0.00e+00	0	47	104	0	73	25427
2026-01-25 06:29:29.80	93.60	10.59	-51.4	-55.9	3.7	0.00e+00	0	47	104	0	73	25467
2026-01-25 06:29:31.80	93.16	10.72	-51.1	-55.8	3.6	0.00e+00	0	47	104	0	73	25296
2026-01-25 06:29:33.80	92.72	10.85	-51.3	-55.9	3.7	0.00e+00	0	48	104	0	73	25616
2026-01-25 06:29:35.80	92.27	10.98	-51.2	-55.8	3.7	0.00e+00	0	47	104	0	73	25256
2026-01-25 06:29:37.81	91.82	11.11	-51.2	-55.9	3.7	0.00e+00	0	47	104	0	73	25416
2026-01-25 06:29:39.81	91.36	11.24	-51.2	-55.8	3.7	0.00e+00	0	47	104	0	73	25360
2026-01-25 06:29:41.81	90.90	11.37	-51.2	-55.9	3.7	0.00e+00	0	47	104	0	73	25505
2026-01-25 06:29:43.81	90.43	11.50	-51.0	-55.7	3.7	0.00e+00	0	47	104	0	73	25007
2026-01-25 06:29:45.81	89.96	11.63	-51.1	-55.9	3.7	0.00e+00	0	48	104	0	73	25400
2026-01-25 06:29:47.81	89.48	11.75	-51.0	-55.8	3.7	0.00e+00	0	47	104	0	73	25122
2026-01-25 06:29:49.82	89.00	11.88	-50.9	-55.7	3.7	0.00e+00	0	48	104	0	73	24837
2026-01-25 06:29:51.82	88.51	12.00	-50.9	-55.6	3.7	0.00e+00	0	48	104	0	73	24737
2026-01-25 06:29:53.82	88.02	12.13	-50.8	-55.6	3.7	0.00e+00	0	48	104	0	73	24589
2026-01-25 06:29:55.82	87.52	12.25	-50.8	-55.6	3.7	0.00e+00	0	48	104	0	73	24642
2026-01-25 06:29:57.82	87.02	12.37	-50.6	-55.3	3.7	0.00e+00	0	48	104	0	73	23719
2026-01-25 06:29:59.83	86.51	12.49	-50.7	-55.5	3.7	0.00e+00	0	48	104	0	73	24463
2026-01-25 06:30:01.83	86.00	12.61	-50.5	-55.3	3.7	0.00e+00	0	48	104	0	72	25198
2026-01-25 06:30:03.84	85.48	12.73	-50.6	-55.7	3.7	0.00e+00	0	48	104	0	72	26543
2026-01-25 06:30:05.84	84.96	12.85	-50.5	-55.6	3.7	0.00e+00	0	48	104	0	72	26035
2026-01-25 06:30:07.85	84.43	12.97	-49.9	-55.5	3.7	0.00e+00	0	48	104	0	71	27243
2026-01-25 06:30:09.85	83.89	13.08	-50.1	-55.5	3.7	0.00e+00	0	48	104	0	71	27404
2026-01-25 06:30:11.85	83.36	13.20	-49.9	-54.7	3.7	0.00e+00	0	48	104	0	71	24928
2026-01-25 06:30:13.85	82.81	13.31	-50.4	-54.9	3.7	0.00e+00	0	48	104	0	71	25540
2026-01-25 06:30:15.86	82.26	13.42	-50.3	-55.3	3.7	0.00e+00	0	48	104	0	71	26740
2026-01-25 06:30:17.86	81.71	13.53	-50.7	-55.4	3.7	0.00e+00	0	48	104	0	72	25456
2026-01-25 06:30:19.86	81.15	13.64	-50.1	-54.9	3.7	0.00e+00	0	48	104	0	71	25600
2026-01-25 06:30:21.86	80.59	13.74	-50.5	-55.2	3.7	0.00e+00	0	48	104	0	71	26482
2026-01-25 06:30:23.86	80.03	13.84	-50.5	-55.2	3.7	0.00e+00	0	48	104	0	73	23582
2026-01-25 06:30:25.86	79.45	13.95	-51.2	-56.0	3.7	0.00e+00	0	48	104	0	73	25734
2026-01-25 06:30:27.86	78.88	14.05	-51.4	-56.1	3.7	0.00e+00	0	48	104	0	73	25978
2026-01-25 06:30:29.87	78.29	14.15	-51.1	-55.9	3.7	0.00e+00	0	48	104	0	73	25597
2026-01-25 06:30:31.87	77.71	14.24	-51.2	-56.1	3.6	0.00e+00	0	48	104	0	73	26075
2026-01-25 06:30:33.87	77.12	14.34	-51.2	-55.7	3.7	0.00e+00	0	48	104	0	73	24916
2026-01-25 06:30:35.88	76.52	14.43	-51.3	-55.9	3.7	0.00e+00	0	48	104	0	73	25635
2026-01-25 06:30:37.88	75.92	14.52	-51.4	-56.1	3.7	0.00e+00	0	48	104	0	73	26151
2026-01-25 06:30:39.88	75.32	14.60	-51.5	-56.1	3.7	0.00e+00	0	48	104	0	73	26063
2026-01-25 06:30:41.89	74.71	14.69	-51.3	-56.0	3.7	0.00e+00	0	48	104	0	73	25937
2026-01-25 06:30:43.89	74.10	14.77	-51.4	-56.1	3.7	0.00e+00	0	48	104	0	73	26247
2026-01-25 06:30:45.89	73.48	14.85	-51.6	-56.2	3.7	0.00e+00	0	48	104	0	73	26525
2026-01-25 06:30:47.90	72.86	14.93	-51.6	-56.3	3.7	0.00e+00	0	48	104	0	73	26871
2026-01-25 06:30:49.90	72.24	15.01	-51.7	-56.3	3.7	0.00e+00	0	48	104	0	74	25221
2026-01-25 06:30:51.90	71.61	15.08	-51.8	-56.4	3.7	0.00e+00	0	48	104	0	74	25504
2026-01-25 06:30:53.91	70.98	15.15	-51.2	-56.1	3.7	0.00e+00	0	48	104	0	74	24542
2026-01-25 06:30:55.91	70.34	15.22	-51.3	-56.0	3.7	0.00e+00	0	48	104	0	74	24450
2026-01-25 06:30:57.91	69.71	15.28	-51.5	-55.9	3.7	0.00e+00	0	48	104	0	74	24159
2026-01-25 06:30:59.91	69.07	15.34	-51.5	-55.9	3.7	0.00e+00	0	48	104	0	74	24052
2026-01-25 06:31:01.92	68.42	15.40	-51.7	-56.3	3.7	0.00e+00	0	48	104	0	74	25219
2026-01-25 06:31:03.92	67.77	15.46	-51.6	-56.3	3.7	0.00e+00	0	48	104	0	74	25246
2026-01-25 06:31:05.92	67.12	15.51	-51.4	-56.0	3.7	0.00e+00	0	48	104	0	74	24302
2026-01-25 06:31:07.93	66.47	15.56	-51.4	-55.9	3.7	0.00e+00	0	48	104	0	74	24095
2026-01-25 06:31:09.93	65.82	15.60	-51.5	-56.2	3.7	0.00e+00	0	48	104	0	74	24923
2026-01-25 06:31:11.93	65.16	15.65	-51.7	-56.3	3.7	0.00e+00	0	48	104	0	74	25355
2026-01-25 06:31:13.93	64.50	15.69	-51.3	-56.1	3.7	0.00e+00	0	48	104	0	74	24556
2026-01-25 06:31:15.94	63.84	15.72	-51.3	-56.2	3.7	0.00e+00	0	48	104	0	74	24862
2026-01-25 06:31:17.94	63.17	15.76	-51.8	-56.3	3.7	0.00e+00	0	48	104	0	74	25302
2026-01-25 06:31:19.94	62.51	15.79	-51.8	-56.4	3.7	0.00e+00	0	48	104	0	74	25393
2026-01-25 06:31:21.95	61.84	15.81	-51.0	-55.8	3.7	0.00e+00	0	48	104	0	73	25268
2026-01-25 06:31:23.95	61.18	15.84	-51.4	-56.1	3.7	0.00e+00	0	48	104	0	73	26084
2026-01-25 06:31:25.95	60.51	15.86	-51.4	-56.2	3.7	0.00e+00	0	48	104	0	73	26448
2026-01-25 06:31:27.95	59.84	15.87	-51.3	-56.1	3.7	0.00e+00	0	48	104	0	73	26166
2026-01-25 06:31:29.96	59.17	15.89	-51.3	-56.0	3.7	0.00e+00	0	48	104	0	73	25699
2026-01-25 06:31:31.95	58.50	15.90	-51.3	-55.8	3.7	0.00e+00	0	48	104	0	73	25295
2026-01-25 06:31:33.96	57.83	15.90	-51.4	-56.1	3.7	0.00e+00	0	48	104	0	74	24690
2026-01-25 06:31:35.97	57.15	15.90	-51.3	-56.0	3.7	0.00e+00	0	48	104	0	74	24299
2026-01-25 06:31:37.97	56.48	15.90	-51.8	-56.4	3.7	0.00e+00	0	48	104	0	74	25534
2026-01-25 06:31:39.97	55.81	15.90	-51.8	-56.4	3.7	0.00e+00	0	48	104	0	74	25532
2026-01-25 06:31:41.97	55.14	15.89	-51.5	-56.1	3.7	0.00e+00	0	48	104	0	74	24787
2026-01-25 06:31:43.97	54.47	15.88	-51.4	-56.3	3.7	0.00e+00	0	48	104	0	74	25137
2026-01-25 06:31:45.97	53.81	15.87	-51.5	-56.3	3.7	0.00e+00	0	48	104	0	74	25104
2026-01-25 06:31:47.97	53.14	15.85	-51.5	-56.3	3.7	0.00e+00	0	48	104	0	74	25256
2026-01-25 06:31:49.98	52.47	15.83	-51.0	-55.9	3.7	0.00e+00	0	48	104	0	73	25425
2026-01-25 06:31:51.98	51.80	15.80	-51.0	-55.7	3.7	0.00e+00	0	48	104	0	73	24935
2026-01-25 06:31:53.98	51.14	15.78	-51.4	-56.0	3.7	0.00e+00	0	48	104	0	73	25834
2026-01-25 06:31:55.98	50.48	15.75	-51.5	-56.0	3.7	0.00e+00	0	48	104	0	73	25760
2026-01-25 06:31:57.99	49.81	15.71	-51.4	-56.0	3.7	0.00e+00	0	48	104	0	73	25902
2026-01-25 06:31:59.99	49.15	15.67	-51.3	-56.0	3.7	0.00e+00	0	48	104	0	73	25902
2026-01-25 06:32:01.99	48.50	15.63	-50.7	-55.8	3.7	0.00e+00	0	48	104	0	73	25280
2026-01-25 06:32:03.99	47.84	15.59	-50.8	-55.8	3.7	0.00e+00	0	48	104	0	73	25284
2026-01-25 06:32:05.99	47.19	15.54	-51.1	-55.5	3.7	0.00e+00	0	48	104	0	73	24426
2026-01-25 06:32:08.00	46.54	15.49	-50.9	-55.2	3.7	0.00e+00	0	48	104	0	73	23660
2026-01-25 06:32:10.00	45.89	15.44	-50.9	-55.4	3.7	0.00e+00	0	48	104	0	73	24240
2026-01-25 06:32:12.00	45.25	15.38	-50.6	-54.4	3.7	0.00e+00	0	48	104	0	73	21458
2026-01-25 06:32:14.00	44.61	15.32	-50.3	-53.9	3.7	0.00e+00	0	48	104	0	72	21462
2026-01-25 06:32:16.00	43.97	15.26	-50.8	-54.8	3.7	0.00e+00	0	48	104	0	72	23828
2026-01-25 06:32:18.01	43.33	15.20	-50.5	-54.7	3.7	0.00e+00	0	48	104	0	72	23521
2026-01-25 06:32:20.01	42.70	15.13	-50.9	-55.2	3.7	0.00e+00	0	48	104	0	72	25089
2026-01-25 06:32:22.01	42.07	15.06	-50.9	-55.0	3.7	0.00e+00	0	48	104	0	73	23120
2026-01-25 06:32:24.01	41.45	14.99	-51.3	-55.5	3.7	0.00e+00	0	48	104	0	73	24375
2026-01-25 06:32:26.02	40.83	14.91	-50.9	-54.7	3.7	0.00e+00	0	48	104	0	73	22356
2026-01-25 06:32:28.02	40.21	14.83	-50.3	-54.0	3.7	0.00e+00	0	48	104	0	72	21750
2026-01-25 06:32:30.02	39.60	14.75	-48.2	-51.6	3.9	0.00e+00	0	48	104	0	68	20732
2026-01-25 06:32:32.03	38.99	14.67	-47.0	-50.7	4.1	0.00e+00	0	48	104	0	65	22316
2026-01-25 06:32:34.03	38.38	14.58	-47.4	-52.1	3.8	0.00e+00	0	49	104	0	66	24639
2026-01-25 06:32:36.03	37.78	14.49	-47.2	-51.5	3.9	0.00e+00	0	48	104	0	65	24281
2026-01-25 06:32:38.04	37.19	14.40	-47.0	-53.5	3.7	0.00e+00	0	48	104	0	65	30805
2026-01-25 06:32:40.04	36.60	14.31	-47.0	-52.5	3.8	0.00e+00	0	48	104	0	65	27364
2026-01-25 06:32:42.04	36.01	14.22	-46.9	-50.4	4.0	0.00e+00	0	48	104	0	65	21364
2026-01-25 06:32:44.04	35.43	14.12	-48.2	-52.6	3.7	0.00e+00	0	48	104	0	66	26248
2026-01-25 06:32:46.04	34.85	14.02	-49.8	-54.7	3.6	0.00e+00	0	48	104	0	70	26534
2026-01-25 06:32:48.05	34.28	13.92	-49.8	-54.4	3.7	0.00e+00	0	48	104	0	70	25490
2026-01-25 06:32:50.05	33.71	13.82	-51.0	-56.1	3.7	0.00e+00	0	48	104	0	72	27605
2026-01-25 06:32:52.05	33.15	13.71	-50.6	-55.1	3.7	0.00e+00	0	48	104	0	72	24705
2026-01-25 06:32:54.05	32.59	13.61	-49.4	-54.3	3.7	0.00e+00	0	48	104	0	70	25131
2026-01-25 06:32:56.04	32.04	13.50	-50.1	-56.0	3.7	0.00e+00	0	48	104	0	70	30634
2026-01-25 06:32:58.03	31.49	13.39	-50.7	-55.7	3.7	0.00e+00	0	48	104	0	72	26373
2026-01-25 06:33:00.02	30.95	13.28	-49.7	-53.9	3.7	0.00e+00	0	48	104	0	70	24122
2026-01-25 06:33:02.01	30.42	13.17	-50.2	-54.7	3.7	0.00e+00	0	48	104	0	71	24972
2026-01-25 06:33:04.00	29.89	13.06	-50.2	-56.1	3.7	0.00e+00	0	48	104	0	72	27683
2026-01-25 06:33:05.99	29.36	12.95	-51.0	-56.0	3.7	0.00e+00	0	48	104	0	72	27274
2026-01-25 06:33:07.98	28.84	12.83	-51.0	-55.7	3.7	0.00e+00	0	48	104	0	72	26491
2026-01-25 06:33:09.97	28.32	12.71	-49.5	-54.3	3.7	0.00e+00	0	48	104	0	70	25369
2026-01-25 06:33:11.95	27.82	12.60	-49.5	-54.4	3.7	0.00e+00	0	48	104	0	70	25495
2026-01-25 06:33:13.88	27.33	12.48	-49.2	-53.8	3.7	0.00e+00	0	48	104	0	70	23955
2026-01-25 06:33:15.87	26.83	12.36	-49.2	-53.8	3.7	0.00e+00	0	48	104	0	70	23836
2026-01-25 06:33:17.86	26.33	12.24	-49.9	-54.6	3.7	0.00e+00	0	48	104	0	71	24614
2026-01-25 06:33:19.84	25.84	12.12	-49.7	-54.8	3.7	0.00e+00	0	48	104	0	70	26604
2026-01-25 06:33:21.83	25.36	12.00	-48.7	-54.2	3.7	0.00e+00	0	48	104	0	69	26466
2026-01-25 06:33:23.82	24.88	11.87	-49.9	-54.2	3.7	0.00e+00	0	48	104	0	70	24917
2026-01-25 06:33:25.85	24.39	11.75	-49.5	-55.0	3.7	0.00e+00	0	48	104	0	70	27426
2026-01-25 06:33:27.84	23.92	11.62	-50.1	-54.2	3.7	0.00e+00	0	48	104	0	71	23490
2026-01-25 06:33:29.83	23.46	11.50	-50.6	-55.1	3.7	0.00e+00	0	48	104	0	71	26096
2026-01-25 06:33:31.81	23.00	11.37	-50.9	-55.8	3.7	0.00e+00	0	48	104	0	72	26843
2026-01-25 06:33:33.80	22.54	11.24	-51.0	-55.7	3.7	0.00e+00	0	48	104	0	72	26397
2026-01-25 06:33:35.79	22.09	11.11	-50.0	-54.9	3.7	0.00e+00	0	48	104	0	71	25488
2026-01-25 06:33:37.89	21.62	10.98	-48.2	-52.7	3.7	0.00e+00	0	48	104	0	68	23501
2026-01-25 06:33:39.87	21.18	10.85	-46.9	-51.4	3.7	0.00e+00	0	48	104	0	65	24033
2026-01-25 06:33:41.86	20.75	10.72	-46.8	-52.1	3.7	0.00e+00	0	48	104	0	65	26100
2026-01-25 06:33:43.86	20.31	10.59	-46.9	-51.4	3.7	0.00e+00	0	48	104	0	65	24215
2026-01-25 06:33:45.85	19.89	10.46	-46.9	-52.4	3.7	0.00e+00	0	48	104	0	65	26929
2026-01-25 06:33:47.84	19.47	10.33	-47.1	-53.1	3.7	0.00e+00	0	48	104	0	65	29362
2026-01-25 06:33:49.82	19.05	10.20	-47.7	-53.4	3.7	0.00e+00	0	48	104	0	66	28778
2026-01-25 06:33:51.83	18.63	10.07	-48.4	-53.9	3.7	0.00e+00	0	48	104	0	67	28636
2026-01-25 06:33:53.82	18.23	9.94	-49.9	-55.1	3.7	0.00e+00	0	48	104	0	70	27674
2026-01-25 06:33:55.81	17.82	9.81	-49.5	-55.1	3.7	0.00e+00	0	48	104	0	70	27671
2026-01-25 06:33:57.90	17.41	9.67	-49.9	-55.2	3.7	0.00e+00	0	48	104	0	70	27838
2026-01-25 06:33:59.89	17.01	9.54	-50.4	-55.4	3.7	0.00e+00	0	48	104	0	71	26986
2026-01-25 06:34:01.88	16.62	9.40	-48.5	-53.5	3.7	0.00e+00	0	48	104	0	69	24517
2026-01-25 06:34:03.87	16.24	9.27	-47.8	-53.4	3.7	0.00e+00	0	48	104	0	66	28708
2026-01-25 06:34:05.86	15.86	9.14	-47.4	-53.0	3.7	0.00e+00	0	48	104	0	66	27447
2026-01-25 06:34:07.85	15.48	9.01	-47.3	-53.1	3.7	0.00e+00	0	48	104	0	66	27802
2026-01-25 06:34:09.84	15.11	8.87	-48.3	-53.5	3.7	0.00e+00	0	48	104	0	68	25694
2026-01-25 06:34:11.82	14.75	8.74	-50.5	-55.5	3.6	0.00e+00	0	48	104	0	72	25729
2026-01-25 06:34:13.81	14.38	8.61	-51.6	-56.4	3.7	0.00e+00	0	48	104	0	73	27134
2026-01-25 06:34:15.79	14.03	8.48	-51.3	-56.1	3.7	0.00e+00	0	48	104	0	73	26084
2026-01-25 06:34:17.78	13.67	8.35	-52.1	-56.6	3.7	0.00e+00	0	48	104	0	75	24767
2026-01-25 06:34:19.77	13.32	8.21	-52.1	-56.4	3.7	0.00e+00	0	48	104	0	74	25467
2026-01-25 06:34:21.75	12.98	8.08	-52.5	-57.1	3.7	0.00e+00	0	48	104	0	75	26001
2026-01-25 06:34:23.74	12.63	7.95	-52.2	-56.8	3.7	0.00e+00	0	48	104	0	74	26811
2026-01-25 06:34:25.73	12.29	7.82	-52.5	-57.1	3.7	0.00e+00	0	48	104	0	75	26047
2026-01-25 06:34:27.71	11.96	7.69	-51.9	-56.7	3.7	0.00e+00	0	48	104	0	75	24881
2026-01-25 06:34:29.70	11.63	7.56	-51.9	-56.7	3.7	0.00e+00	0	48	104	0	75	24983
2026-01-25 06:34:31.69	11.30	7.43	-51.4	-56.3	3.7	0.00e+00	0	48	104	0	74	25181
2026-01-25 06:34:33.67	10.98	7.30	-51.3	-56.1	3.7	0.00e+00	0	48	104	0	74	24668
2026-01-25 06:34:35.66	10.66	7.16	-51.3	-56.1	3.7	0.00e+00	0	48	104	0	74	24659
2026-01-25 06:34:37.65	10.35	7.03	-51.3	-56.1	3.7	0.00e+00	0	48	104	0	74	24670
2026-01-25 06:34:39.63	10.03	6.90	-51.3	-56.1	3.7	0.00e+00	0	48	104	0	74	24611
2026-01-25 06:34:41.62	9.73	6.77	-51.3	-56.1	3.7	0.00e+00	0	48	104	0	74	24616
2026-01-25 06:34:43.61	9.42	6.64	-51.3	-56.1	3.7	0.00e+00	0	48	104	0	74	24611
2026-01-25 06:34:45.59	9.12	6.51	-51.3	-56.1	3.7	0.00e+00	0	48	104	0	74	24701
2026-01-25 06:34:47.58	8.82	6.39	-51.3	-56.1	3.7	0.00e+00	0	48	104	0	74	24557
2026-01-25 06:34:49.57	8.53	6.26	-51.3	-56.1	3.7	0.00e+00	0	48	104	0	74	24598
2026-01-25 06:34:51.56	8.24	6.13	-51.3	-56.1	3.7	0.00e+00	0	48	104	0	74	24660
2026-01-25 06:34:53.54	7.95	6.00	-51.3	-56.1	3.7	0.00e+00	0	48	104	0	74	24542
2026-01-25 06:34:55.53	7.67	5.87	-51.3	-56.1	3.7	0.00e+00	0	48	104	0	74	24647
2026-01-25 06:34:57.52	7.38	5.74	-51.3	-56.0	3.7	0.00e+00	0	48	104	0	74	24521
2026-01-25 06:34:59.50	7.11	5.62	-51.3	-56.1	3.7	0.00e+00	0	48	104	0	74	24649
2026-01-25 06:35:01.49	6.83	5.49	-51.3	-56.1	3.7	0.00e+00	0	48	104	0	74	24569
2026-01-25 06:35:03.48	6.56	5.36	-51.3	-56.1	3.7	0.
