passes_logs/2026/01/25/T1/T1__20260125_220943_NOAA_20_JPSS-1_rec.log

#Pass ID: 20260125_220943_NOAA 20 (JPSS-1)
#Satellite: NOAA 20 (JPSS-1)
#Configuration: NOAA 20
#almurnet v.1.7.20251203
#Start time: 2026-01-25 22:09:45

#Version: 2.0.20230620
#Station: T1
#Location: 37.570604 lon 55.790049 lat
#TLE: 1 43013U 17073A   26025.47986292  .00000161  00000+0  97249-4 0  9993
#TLE: 2 43013  98.7646 326.3091 0001052  24.2709 335.8516 14.19540188424225

#Time	Az	El	Level	Level2	SNR	BER	BlckErr	Temp	State	Recorded	gain1	gain2
2026-01-25 22:09:45.04	30.02	5.12	-47.6	-63.0	3.8	1.49e+00	0	36	0	0	66	21690
2026-01-25 22:09:48.02	30.28	5.29	-47.6	-63.0	3.8	1.49e+00	0	36	104	0	66	21715
2026-01-25 22:09:51.00	30.55	5.46	-47.6	-63.0	3.8	1.49e+00	0	36	104	0	66	21567
2026-01-25 22:09:53.97	30.82	5.64	-47.6	-63.0	3.8	1.49e+00	0	37	104	0	66	21549
2026-01-25 22:09:56.95	31.10	5.81	-47.6	-63.0	3.8	1.49e+00	0	36	104	0	66	21554
2026-01-25 22:09:59.93	31.37	5.99	-47.6	-62.9	3.8	1.49e+00	0	37	104	0	66	21499
2026-01-25 22:10:02.91	31.66	6.16	-47.6	-62.9	3.8	1.49e+00	0	37	104	0	66	21413
2026-01-25 22:10:05.89	31.94	6.34	-47.6	-62.9	3.8	1.49e+00	0	37	104	0	66	21297
2026-01-25 22:10:08.87	32.23	6.52	-47.6	-62.9	3.8	1.49e+00	0	37	104	0	66	21374
2026-01-25 22:10:11.85	32.52	6.69	-47.6	-62.9	3.8	1.49e+00	0	37	104	0	66	21382
2026-01-25 22:10:14.83	32.81	6.87	-47.6	-62.9	3.8	1.49e+00	0	37	104	0	66	21418
2026-01-25 22:10:17.81	33.11	7.05	-47.6	-62.9	3.8	1.49e+00	0	37	104	0	66	21314
2026-01-25 22:10:20.79	33.41	7.23	-47.6	-62.8	3.8	1.49e+00	0	38	104	0	66	21068
2026-01-25 22:10:23.77	33.72	7.41	-47.6	-62.8	3.8	1.49e+00	0	38	104	0	66	21099
2026-01-25 22:10:26.75	34.02	7.59	-47.6	-62.7	3.8	1.49e+00	0	38	104	0	66	20955
2026-01-25 22:10:29.73	34.34	7.77	-47.6	-62.6	3.8	1.49e+00	0	38	104	0	66	20563
2026-01-25 22:10:32.71	34.65	7.96	-47.6	-62.8	3.8	1.49e+00	0	38	104	0	66	21126
2026-01-25 22:10:35.69	34.97	8.14	-47.6	-62.9	3.8	1.49e+00	0	38	104	0	66	21465
2026-01-25 22:10:38.67	35.30	8.32	-47.6	-62.9	3.8	1.49e+00	0	38	104	0	66	21383
2026-01-25 22:10:41.65	35.62	8.51	-47.6	-62.8	3.8	1.49e+00	0	38	104	0	66	21020
2026-01-25 22:10:44.63	35.95	8.69	-47.6	-62.5	3.8	1.49e+00	0	38	104	0	66	20351
2026-01-25 22:10:47.61	36.29	8.88	-47.2	-58.3	4.6	1.30e+00	0	38	0	0	66	12564
2026-01-25 22:10:50.59	36.63	9.06	-46.2	-52.9	8.8	3.41e-02	0	38	0	5242880	64	7574
2026-01-25 22:10:53.58	36.97	9.25	-46.6	-54.1	8.0	4.29e-04	0	38	0	10485760	63	9195
2026-01-25 22:10:56.56	37.32	9.44	-43.1	-46.3	15.7	0.00e+00	0	38	0	16777216	58	5013
2026-01-25 22:10:59.55	37.68	9.62	-42.6	-45.5	16.4	0.00e+00	0	38	0	22020096	57	4847
2026-01-25 22:11:02.53	38.03	9.81	-42.4	-45.3	16.7	0.00e+00	0	38	0	27262976	56	5000
2026-01-25 22:11:05.52	38.39	10.00	-42.6	-45.6	16.4	0.00e+00	0	38	0	33554432	56	5166
2026-01-25 22:11:08.50	38.76	10.19	-42.3	-45.2	16.8	0.00e+00	0	38	0	38797312	56	4965
2026-01-25 22:11:11.49	39.13	10.38	-42.3	-45.1	16.9	0.00e+00	0	38	0	44040192	56	4918
2026-01-25 22:11:14.48	39.51	10.57	-42.1	-44.9	17.1	0.00e+00	0	38	0	50331648	56	4796
2026-01-25 22:11:17.46	39.89	10.76	-42.2	-44.9	17.1	0.00e+00	0	38	0	55574528	56	4783
2026-01-25 22:11:20.45	40.27	10.95	-42.2	-45.0	17.0	0.00e+00	0	38	0	60817408	56	4862
2026-01-25 22:11:23.43	40.66	11.14	-42.4	-45.2	16.9	0.00e+00	0	38	0	67108864	56	4945
2026-01-25 22:11:26.41	41.06	11.33	-42.3	-45.1	17.0	0.00e+00	0	39	0	72351744	56	4882
2026-01-25 22:11:29.48	41.47	11.53	-42.1	-44.9	17.2	0.00e+00	0	38	0	77594624	56	4773
2026-01-25 22:11:32.32	41.85	11.71	-42.2	-44.9	17.2	0.00e+00	0	38	0	82837504	56	4771
2026-01-25 22:11:35.44	42.28	11.91	-42.1	-44.8	17.3	0.00e+00	0	38	0	89128960	56	4710
2026-01-25 22:11:38.29	42.68	12.09	-42.1	-44.8	17.2	0.00e+00	0	38	0	94371840	56	4743
2026-01-25 22:11:41.51	43.13	12.30	-42.1	-44.9	17.2	0.00e+00	0	38	0	100663296	56	4762
2026-01-25 22:11:44.43	43.55	12.49	-42.0	-44.6	17.4	0.00e+00	0	39	0	105906176	56	4646
2026-01-25 22:11:47.64	44.01	12.70	-41.6	-44.1	17.8	0.00e+00	0	39	0	112197632	55	4645
2026-01-25 22:11:50.48	44.43	12.88	-41.5	-44.1	17.8	0.00e+00	0	39	0	117440512	55	4625
2026-01-25 22:11:53.61	44.90	13.08	-41.6	-44.2	17.8	0.00e+00	0	39	0	123731968	55	4660
2026-01-25 22:11:56.69	45.36	13.28	-41.7	-44.2	17.7	0.00e+00	0	39	0	128974848	55	4704
2026-01-25 22:11:59.93	45.85	13.49	-41.6	-44.1	17.8	0.00e+00	0	39	0	135266304	55	4626
2026-01-25 22:12:02.88	46.31	13.68	-41.7	-44.3	17.7	0.00e+00	0	39	0	140509184	55	4715
2026-01-25 22:12:06.15	46.82	13.89	-41.7	-44.4	17.6	0.00e+00	0	39	0	146800640	55	4775
2026-01-25 22:12:08.88	47.25	14.07	-41.9	-44.6	17.4	0.00e+00	0	39	0	152043520	55	4887
2026-01-25 22:12:12.18	47.78	14.28	-41.6	-44.2	17.8	0.00e+00	0	39	0	158334976	55	4681
2026-01-25 22:12:15.03	48.24	14.46	-41.6	-44.1	17.8	0.00e+00	0	39	0	163577856	55	4638
2026-01-25 22:12:18.25	48.77	14.67	-41.5	-44.0	18.0	0.00e+00	0	39	0	169869312	54	4839
2026-01-25 22:12:21.38	49.30	14.87	-41.2	-43.7	18.3	0.00e+00	0	39	0	175112192	54	4672
2026-01-25 22:12:24.22	49.78	15.05	-41.0	-43.4	18.5	0.00e+00	0	39	0	180355072	54	4537
2026-01-25 22:12:27.42	50.32	15.25	-40.8	-43.2	18.8	0.00e+00	0	39	0	186646528	53	4663
2026-01-25 22:12:30.35	50.83	15.44	-40.7	-43.1	18.9	0.00e+00	0	39	0	191889408	53	4618
2026-01-25 22:12:33.48	51.38	15.64	-40.6	-43.0	19.0	0.00e+00	0	39	0	198180864	53	4555
2026-01-25 22:12:36.38	51.90	15.82	-40.5	-42.8	19.2	0.00e+00	0	39	0	203423744	52	4719
2026-01-25 22:12:39.67	52.49	16.02	-40.3	-42.6	19.4	0.00e+00	0	39	0	209715200	52	4618
2026-01-25 22:12:42.40	52.99	16.19	-40.4	-42.7	19.2	0.00e+00	0	39	0	214958080	52	4681
2026-01-25 22:12:45.67	53.59	16.39	-40.4	-42.7	19.2	0.00e+00	0	39	0	221249536	52	4692
2026-01-25 22:12:48.38	54.09	16.56	-40.3	-42.6	19.3	0.00e+00	0	39	0	225443840	52	4631
2026-01-25 22:12:51.74	54.73	16.77	-40.4	-42.7	19.3	0.00e+00	0	39	0	232783872	52	4681
2026-01-25 22:12:54.45	55.25	16.93	-40.8	-43.2	18.8	0.00e+00	0	39	0	236978176	52	4972
2026-01-25 22:12:57.71	55.88	17.13	-40.9	-43.3	18.7	0.00e+00	0	39	0	243269632	52	4985
2026-01-25 22:13:00.48	56.42	17.29	-40.8	-43.2	18.8	0.00e+00	0	39	0	248512512	52	4960
2026-01-25 22:13:03.79	57.07	17.49	-40.9	-43.3	18.7	0.00e+00	0	39	0	254803968	52	4989
2026-01-25 22:13:06.62	57.64	17.65	-41.1	-43.6	18.5	0.00e+00	0	39	0	260046848	52	5165
2026-01-25 22:13:09.75	58.27	17.83	-41.3	-43.8	18.3	0.00e+00	0	39	0	266338304	53	4987
2026-01-25 22:13:12.59	58.86	18.00	-41.3	-43.8	18.2	0.00e+00	0	39	0	271581184	53	5017
2026-01-25 22:13:15.71	59.50	18.17	-41.5	-44.1	18.0	0.00e+00	0	39	0	276824064	53	5178
2026-01-25 22:13:18.63	60.11	18.34	-41.8	-44.4	17.7	0.00e+00	0	39	0	283115520	54	5067
2026-01-25 22:13:21.84	60.79	18.51	-42.1	-44.8	17.3	0.00e+00	0	39	0	288358400	54	5287
2026-01-25 22:13:24.71	61.41	18.67	-42.2	-44.9	17.2	0.00e+00	0	39	0	293601280	55	5044
2026-01-25 22:13:28.09	62.14	18.85	-42.3	-45.1	17.0	0.00e+00	0	39	0	299892736	55	5199
2026-01-25 22:13:31.26	62.83	19.02	-42.5	-45.4	16.7	0.00e+00	0	39	0	306184192	55	5346
2026-01-25 22:13:34.17	63.47	19.17	-42.1	-44.9	17.2	0.00e+00	0	39	0	311427072	55	5045
2026-01-25 22:13:37.29	64.17	19.32	-41.8	-44.4	17.7	0.00e+00	0	39	0	317718528	55	4807
2026-01-25 22:13:40.18	64.82	19.47	-42.0	-44.7	17.4	0.00e+00	0	39	0	322961408	55	4938
2026-01-25 22:13:43.45	65.56	19.63	-42.1	-44.8	17.2	0.00e+00	0	39	0	329252864	55	5033
2026-01-25 22:13:46.18	66.19	19.76	-41.9	-44.6	17.5	0.00e+00	0	39	0	334495744	55	4890
2026-01-25 22:13:49.46	66.95	19.91	-41.9	-44.6	17.5	0.00e+00	0	39	0	340787200	55	4882
2026-01-25 22:13:52.25	67.60	20.04	-41.8	-44.4	17.7	0.00e+00	0	39	0	346030080	55	4805
2026-01-25 22:13:55.64	68.40	20.19	-41.8	-44.3	17.8	0.00e+00	0	39	0	352321536	55	4747
2026-01-25 22:13:58.34	69.05	20.30	-41.9	-44.5	17.6	0.00e+00	0	39	0	357564416	55	4833
2026-01-25 22:14:01.74	69.86	20.44	-41.8	-44.4	17.7	0.00e+00	0	39	0	363855872	55	4772
2026-01-25 22:14:04.44	70.52	20.55	-41.4	-43.8	18.2	0.00e+00	0	39	0	368050176	54	4751
2026-01-25 22:14:07.70	71.31	20.68	-41.2	-43.6	18.5	0.00e+00	0	39	0	374341632	54	4618
2026-01-25 22:14:10.51	72.00	20.79	-41.3	-43.8	18.3	0.00e+00	0	39	0	379584512	54	4733
2026-01-25 22:14:13.64	72.78	20.90	-41.3	-43.7	18.3	0.00e+00	0	39	0	385875968	54	4704
2026-01-25 22:14:16.81	73.56	21.01	-41.0	-43.4	18.7	0.00e+00	0	39	0	392167424	54	4510
2026-01-25 22:14:19.66	74.28	21.10	-41.0	-43.4	18.5	0.00e+00	0	39	0	397410304	53	4806
2026-01-25 22:14:22.79	75.07	21.20	-41.0	-43.3	18.7	0.00e+00	0	39	0	402653184	53	4745
2026-01-25 22:14:25.73	75.82	21.29	-41.2	-43.7	18.4	0.00e+00	0	39	0	407896064	53	4943
2026-01-25 22:14:28.85	76.61	21.38	-41.1	-43.6	18.5	0.00e+00	0	39	0	414187520	53	4883
2026-01-25 22:14:31.70	77.34	21.46	-41.5	-44.0	18.1	0.00e+00	0	39	0	419430400	53	5132
2026-01-25 22:14:34.82	78.15	21.53	-41.9	-44.5	17.6	0.00e+00	0	39	0	425721856	54	5110
2026-01-25 22:14:37.67	78.89	21.60	-41.9	-44.6	17.6	0.00e+00	0	39	0	430964736	54	5171
2026-01-25 22:14:40.79	79.70	21.67	-41.5	-44.0	18.1	0.00e+00	0	39	0	437256192	54	4849
2026-01-25 22:14:43.64	80.44	21.73	-41.3	-43.7	18.4	0.00e+00	0	39	0	442499072	54	4676
2026-01-25 22:14:47.00	81.32	21.79	-41.7	-44.4	17.8	0.00e+00	0	39	0	448790528	54	5046
2026-01-25 22:14:49.74	82.05	21.83	-41.9	-44.6	17.6	0.00e+00	0	39	0	452984832	54	5164
2026-01-25 22:14:53.01	82.91	21.88	-41.6	-44.3	17.9	0.00e+00	0	39	0	459276288	54	4989
2026-01-25 22:14:55.74	83.63	21.92	-41.5	-44.1	18.1	0.00e+00	0	39	0	464519168	54	4882
2026-01-25 22:14:59.04	84.51	21.95	-41.7	-44.4	17.8	0.00e+00	0	39	0	470810624	54	5046
2026-01-25 22:15:01.76	85.23	21.98	-41.5	-44.2	18.0	0.00e+00	0	39	0	476053504	54	4933
2026-01-25 22:15:05.14	86.13	22.00	-41.4	-43.9	18.2	0.00e+00	0	39	0	482344960	54	4804
2026-01-25 22:15:08.20	86.95	22.02	-40.9	-43.3	18.8	0.00e+00	0	39	0	487587840	53	4742
2026-01-25 22:15:12.10	87.99	22.03	-41.2	-43.7	18.4	0.00e+00	0	39	0	494927872	53	4960
2026-01-25 22:15:14.99	88.76	22.03	-41.7	-44.3	17.9	0.00e+00	0	39	0	501219328	53	5280
2026-01-25 22:15:18.26	89.63	22.03	-41.8	-44.4	17.7	0.00e+00	0	39	0	506462208	54	5087
2026-01-25 22:15:20.96	90.35	22.02	-41.9	-44.5	17.6	0.00e+00	0	39	0	511705088	54	5156
2026-01-25 22:15:24.23	91.23	22.01	-41.5	-44.1	18.1	0.00e+00	0	39	0	517996544	54	4887
2026-01-25 22:15:26.95	91.95	21.99	-41.7	-44.3	17.9	0.00e+00	0	39	0	523239424	54	4989
2026-01-25 22:15:30.31	92.85	21.96	-42.0	-44.6	17.5	0.00e+00	0	39	0	529530880	54	5215
2026-01-25 22:15:33.03	93.57	21.93	-41.7	-44.3	17.8	0.00e+00	0	39	0	534773760	54	5027
2026-01-25 22:15:36.30	94.44	21.89	-41.4	-43.9	18.2	0.00e+00	0	39	0	541065216	54	4767
2026-01-25 22:15:39.00	95.15	21.85	-41.2	-43.7	18.4	0.00e+00	0	39	0	546308096	54	4671
2026-01-25 22:15:42.30	96.02	21.80	-41.1	-43.5	18.6	0.00e+00	0	39	0	551550976	54	4560
2026-01-25 22:15:45.22	96.79	21.75	-41.0	-43.4	18.7	0.00e+00	0	39	0	557842432	54	4515
2026-01-25 22:15:48.21	97.57	21.69	-40.8	-43.2	18.9	0.00e+00	0	39	0	563085312	53	4673
2026-01-25 22:15:51.19	98.35	21.63	-40.7	-43.0	19.0	0.00e+00	0	39	0	568328192	53	4589
2026-01-25 22:15:54.28	99.15	21.56	-41.1	-43.5	18.5	0.00e+00	0	39	0	574619648	53	4855
2026-01-25 22:15:57.13	99.89	21.49	-41.3	-43.7	18.4	0.00e+00	0	39	0	579862528	53	4966
2026-01-25 22:16:00.75	100.82	21.39	-40.6	-42.9	19.1	0.00e+00	0	39	0	586153984	53	4527
2026-01-25 22:16:03.72	101.58	21.31	-40.0	-42.2	19.8	0.00e+00	0	39	0	592445440	52	4424
2026-01-25 22:16:06.70	102.34	21.22	-40.0	-42.1	20.0	0.00e+00	0	39	0	597688320	51	4634
2026-01-25 22:16:09.72	103.11	21.12	-40.4	-42.6	19.5	0.00e+00	0	39	0	602931200	51	4900
2026-01-25 22:16:12.70	103.86	21.02	-40.6	-42.9	19.2	0.00e+00	0	39	0	609222656	51	5047
2026-01-25 22:16:15.69	104.61	20.92	-40.5	-42.8	19.2	0.00e+00	0	39	0	614465536	51	5039
2026-01-25 22:16:18.67	105.35	20.81	-40.4	-42.6	19.5	0.00e+00	0	39	0	619708416	51	4917
2026-01-25 22:16:21.66	106.09	20.70	-39.8	-41.9	20.1	0.00e+00	0	39	0	625999872	51	4534
2026-01-25 22:16:24.69	106.83	20.58	-39.8	-41.9	20.1	0.00e+00	0	39	0	631242752	51	4540
2026-01-25 22:16:27.63	107.54	20.47	-39.7	-41.8	20.3	0.00e+00	0	40	0	636485632	51	4466
2026-01-25 22:16:30.93	108.34	20.33	-40.1	-42.3	19.7	0.00e+00	0	40	0	642777088	51	4753
2026-01-25 22:16:33.73	109.01	20.21	-40.5	-42.8	19.3	0.00e+00	0	40	0	648019968	51	4991
2026-01-25 22:16:36.92	109.77	20.07	-40.5	-42.7	19.3	0.00e+00	0	39	0	654311424	52	4692
2026-01-25 22:16:39.76	110.43	19.94	-40.4	-42.7	19.4	0.00e+00	0	39	0	659554304	52	4658
2026-01-25 22:16:42.98	111.18	19.79	-40.0	-42.1	19.9	0.00e+00	0	39	0	665845760	51	4635
2026-01-25 22:16:45.82	111.84	19.65	-40.4	-42.6	19.4	0.00e+00	0	39	0	671088640	51	4920
2026-01-25 22:16:48.94	112.56	19.50	-41.2	-43.7	18.4	0.00e+00	0	40	0	677380096	53	4943
2026-01-25 22:16:51.79	113.20	19.36	-41.4	-43.9	18.1	0.00e+00	0	39	0	682622976	53	5088
2026-01-25 22:16:54.91	113.90	19.20	-41.6	-44.2	17.9	0.00e+00	0	40	0	687865856	53	5252
2026-01-25 22:16:57.76	114.54	19.06	-41.3	-43.8	18.2	0.00e+00	0	39	0	693108736	53	4998
2026-01-25 22:17:00.98	115.25	18.89	-41.0	-43.4	18.6	0.00e+00	0	39	0	699400192	53	4808
2026-01-25 22:17:03.82	115.87	18.73	-40.9	-43.3	18.8	0.00e+00	0	39	0	704643072	53	4711
2026-01-25 22:17:06.95	116.54	18.56	-41.3	-43.8	18.2	0.00e+00	0	39	0	710934528	53	5035
2026-01-25 22:17:09.80	117.15	18.41	-41.6	-44.2	17.9	0.00e+00	0	39	0	716177408	53	5221
2026-01-25 22:17:13.01	117.83	18.23	-41.6	-44.1	17.9	0.00e+00	0	40	0	722468864	54	4898
2026-01-25 22:17:15.93	118.44	18.06	-40.8	-43.2	18.8	0.00e+00	0	40	0	727711744	53	4679
2026-01-25 22:17:19.06	119.09	17.88	-40.8	-43.1	18.8	0.00e+00	0	39	0	732954624	53	4646
2026-01-25 22:17:21.90	119.67	17.72	-41.1	-43.5	18.5	0.00e+00	0	39	0	739246080	53	4838
2026-01-25 22:17:25.03	120.30	17.53	-40.9	-43.3	18.7	0.00e+00	0	39	0	744488960	53	4728
2026-01-25 22:17:27.87	120.87	17.36	-41.0	-43.4	18.6	0.00e+00	0	39	0	749731840	53	4785
2026-01-25 22:17:31.00	121.49	17.18	-41.4	-44.0	18.0	0.00e+00	0	40	0	756023296	53	5105
2026-01-25 22:17:33.84	122.04	17.00	-41.5	-44.1	17.9	0.00e+00	0	39	0	761266176	53	5188
2026-01-25 22:17:36.97	122.64	16.81	-41.5	-44.0	18.0	0.00e+00	0	39	0	766509056	53	5143
2026-01-25 22:17:39.81	123.19	16.64	-41.5	-44.0	18.0	0.00e+00	0	40	0	772800512	53	5141
2026-01-25 22:17:42.94	123.78	16.45	-40.9	-43.2	18.7	0.00e+00	0	39	0	778043392	53	4693
2026-01-25 22:17:45.86	124.32	16.27	-41.0	-43.4	18.6	0.00e+00	0	39	0	783286272	53	4783
2026-01-25 22:17:49.07	124.91	16.06	-41.8	-44.4	17.6	0.00e+00	0	40	0	789577728	54	5064
2026-01-25 22:17:51.91	125.43	15.89	-41.6	-44.1	17.9	0.00e+00	0	39	0	794820608	54	4919
2026-01-25 22:17:55.04	125.99	15.69	-41.2	-43.6	18.4	0.00e+00	0	40	0	801112064	54	4614
2026-01-25 22:17:57.88	126.49	15.51	-41.5	-44.0	18.0	0.00e+00	0	40	0	806354944	54	4840
2026-01-25 22:18:01.00	127.04	15.31	-41.2	-43.6	18.3	0.00e+00	0	39	0	811597824	54	4643
2026-01-25 22:18:03.94	127.55	15.12	-41.0	-43.4	18.6	0.00e+00	0	40	0	817889280	54	4531
2026-01-25 22:18:07.07	128.08	14.92	-41.3	-43.8	18.2	0.00e+00	0	40	0	823132160	54	4706
2026-01-25 22:18:10.03	128.58	14.73	-41.8	-44.4	17.6	0.00e+00	0	40	0	829423616	54	5066
2026-01-25 22:18:13.01	129.08	14.54	-41.4	-43.9	18.1	0.00e+00	0	40	0	834666496	54	4774
2026-01-25 22:18:15.99	129.57	14.34	-41.3	-43.8	18.2	0.00e+00	0	40	0	839909376	54	4710
2026-01-25 22:18:18.98	130.05	14.15	-41.7	-44.4	17.6	0.00e+00	0	40	0	846200832	54	5046
2026-01-25 22:18:21.96	130.53	13.96	-41.8	-44.5	17.5	0.00e+00	0	40	0	851443712	54	5134
2026-01-25 22:18:24.93	131.00	13.76	-41.6	-44.2	17.7	0.00e+00	0	39	0	856686592	54	4981
2026-01-25 22:18:27.91	131.47	13.57	-41.5	-44.1	17.8	0.00e+00	0	40	0	862978048	54	4918
2026-01-25 22:18:30.90	131.93	13.37	-41.9	-44.7	17.3	0.00e+00	0	40	0	868220928	54	5241
2026-01-25 22:18:33.88	132.38	13.18	-42.0	-44.7	17.2	0.00e+00	0	40	0	873463808	54	5279
2026-01-25 22:18:36.87	132.83	12.99	-41.7	-44.4	17.6	0.00e+00	0	40	0	879755264	54	5063
2026-01-25 22:18:39.85	133.27	12.79	-41.8	-44.5	17.5	0.00e+00	0	40	0	884998144	54	5109
2026-01-25 22:18:42.84	133.71	12.60	-42.1	-44.8	17.1	0.00e+00	0	40	0	890241024	54	5311
2026-01-25 22:18:45.82	134.14	12.40	-41.9	-44.6	17.3	0.00e+00	0	40	0	896532480	54	5218
2026-01-25 22:18:48.77	134.57	12.21	-41.8	-44.4	17.5	0.00e+00	0	40	0	901775360	54	5085
2026-01-25 22:18:52.09	135.03	11.99	-42.2	-45.0	16.9	0.00e+00	0	40	0	908066816	55	5138
2026-01-25 22:18:54.80	135.41	11.82	-42.5	-45.5	16.4	0.00e+00	0	40	0	913309696	55	5412
2026-01-25 22:18:58.07	135.86	11.60	-42.4	-45.3	16.5	0.00e+00	0	40	0	919601152	55	5322
2026-01-25 22:19:00.77	136.23	11.43	-42.2	-45.0	16.9	0.00e+00	0	40	0	923795456	55	5114
2026-01-25 22:19:04.12	136.68	11.21	-42.0	-44.7	17.1	0.00e+00	0	40	0	930086912	55	4970
2026-01-25 22:19:07.19	137.08	11.01	-42.0	-44.7	17.1	0.00e+00	0	40	0	936378368	55	4959
2026-01-25 22:19:10.47	137.51	10.80	-42.2	-45.0	16.8	0.00e+00	0	40	0	942669824	55	5113
2026-01-25 22:19:13.17	137.86	10.63	-42.3	-45.2	16.6	0.00e+00	0	40	0	947912704	55	5220
2026-01-25 22:19:16.51	138.28	10.41	-42.4	-45.3	16.5	0.00e+00	0	40	0	953155584	55	5319
2026-01-25 22:19:19.23	138.62	10.24	-42.8	-45.8	16.2	0.00e+00	0	40	0	958398464	56	5307
2026-01-25 22:19:22.73	139.06	10.01	-43.0	-46.1	15.9	0.00e+00	0	40	0	965738496	56	5476
2026-01-25 22:19:25.45	139.39	9.84	-42.8	-45.9	16.0	0.00e+00	0	40	0	969932800	56	5371
2026-01-25 22:19:28.76	139.79	9.63	-42.7	-45.7	16.2	0.00e+00	0	40	0	976224256	56	5233
2026-01-25 22:19:31.49	140.11	9.46	-42.8	-45.8	16.1	0.00e+00	0	40	0	981467136	56	5313
2026-01-25 22:19:34.76	140.50	9.25	-43.1	-46.2	15.7	0.00e+00	0	40	0	987758592	56	5580
2026-01-25 22:19:37.51	140.82	9.07	-43.2	-46.6	15.3	0.00e+00	0	40	0	993001472	57	5466
2026-01-25 22:19:40.77	141.19	8.87	-48.1	-63.4	3.8	1.49e+00	0	40	104	996147200	66	22715
2026-01-25 22:19:43.49	141.50	8.70	-48.3	-63.6	3.8	1.49e+00	0	40	104	996147200	67	21875
2026-01-25 22:19:46.75	141.86	8.49	-48.5	-63.7	3.8	1.49e+00	0	40	104	996147200	67	22117
2026-01-25 22:19:49.46	142.16	8.32	-48.4	-63.7	3.8	1.49e+00	0	40	104	996147200	67	22233
2026-01-25 22:19:52.72	142.52	8.12	-48.3	-63.8	3.8	1.49e+00	0	40	104	996147200	67	22500
2026-01-25 22:19:55.42	142.81	7.95	-48.3	-63.8	3.8	1.49e+00	0	40	104	996147200	67	22457
2026-01-25 22:19:58.81	143.17	7.74	-48.4	-63.8	3.8	1.49e+00	0	40	104	996147200	67	22365
2026-01-25 22:20:01.56	143.46	7.57	-48.4	-63.7	3.8	1.49e+00	0	40	104	996147200	67	22239
2026-01-25 22:20:04.82	143.80	7.37	-48.4	-63.8	3.8	1.49e+00	0	40	104	996147200	67	22295
2026-01-25 22:20:07.55	144.08	7.21	-48.4	-63.8	3.8	1.49e+00	0	40	104	996147200	67	22278
2026-01-25 22:20:10.81	144.41	7.01	-48.4	-63.7	3.8	1.49e+00	0	40	104	996147200	67	22245
2026-01-25 22:20:13.51	144.68	6.84	-48.3	-63.7	3.8	1.49e+00	0	40	104	996147200	67	22232
2026-01-25 22:20:16.77	145.00	6.65	-48.4	-63.8	3.8	1.49e+00	0	40	104	996147200	67	22312
2026-01-25 22:20:19.47	145.27	6.48	-48.3	-63.7	3.8	1.49e+00	0	40	104	996147200	67	22169
2026-01-25 22:20:22.73	145.58	6.29	-48.3	-63.7	3.8	1.49e+00	0	40	104	996147200	67	22194
2026-01-25 22:20:25.44	145.84	6.12	-48.3	-63.7	3.8	1.49e+00	0	40	104	996147200	67	22192
2026-01-25 22:20:28.71	146.15	5.93	-48.3	-63.7	3.8	1.49e+00	0	40	104	996147200	67	22128
2026-01-25 22:20:31.41	146.40	5.77	-48.3	-63.7	3.8	1.49e+00	0	40	104	996147200	67	22167
2026-01-25 22:20:34.67	146.70	5.57	-48.3	-63.7	3.8	1.49e+00	0	40	104	996147200	67	22117
2026-01-25 22:20:37.40	146.95	5.41	-48.3	-63.7	3.8	1.49e+00	0	40	104	996147200	67	22105
2026-01-25 22:20:40.68	147.25	5.22	-48.3	-63.7	3.8	1.49e+00	0	40	104	996147200	67	22159
2026-01-25 22:20:43.38	147.49	5.06	-48.3	-63.7	3.8	1.49e+00	0	40	104	996147200	67	22108

#Closed at: 2026-01-25 22:20:45
#Recorded file [996 MB]: D:/Data/31040_260126_010945.dat