passes_logs/2026/01/25/T1/T1__20260125_154030_FENGYUN_3E_rec.log

#Pass ID: 20260125_154030_FENGYUN 3E
#Satellite: FENGYUN 3E
#Configuration: FENGYUN 3E
#almurnet v.1.7.20251203
#Start time: 2026-01-25 15:40:33

#Version: 2.0.20230620
#Station: T1
#Location: 37.570604 lon 55.790049 lat
#TLE: 1 49008U 21062A   26025.22354119 -.00000045  00000+0 -39974-6 0  9992
#TLE: 2 49008  98.7496  30.2323 0002444 117.8821 242.2603 14.19886325236299

#Time	Az	El	Level	Level2	SNR	BER	BlckErr	Temp	State	Recorded	gain1	gain2
2026-01-25 15:40:33.30	208.42	5.15	-48.0	-59.1	3.8	8.46e-01	0	36	104	0	66	12882
2026-01-25 15:40:36.28	208.67	5.33	-47.9	-59.1	3.8	8.47e-01	0	36	104	0	66	12847
2026-01-25 15:40:39.26	208.92	5.51	-47.9	-59.0	3.8	8.47e-01	0	36	104	0	66	12763
2026-01-25 15:40:42.24	209.17	5.69	-47.9	-59.0	3.8	8.46e-01	0	36	104	0	66	12680
2026-01-25 15:40:45.22	209.43	5.88	-47.9	-58.9	3.8	8.46e-01	0	36	104	0	66	12624
2026-01-25 15:40:48.20	209.69	6.06	-47.9	-59.0	3.8	8.46e-01	0	36	104	0	66	12764
2026-01-25 15:40:51.18	209.96	6.25	-47.9	-59.0	3.8	8.46e-01	0	36	104	0	66	12748
2026-01-25 15:40:54.16	210.22	6.43	-47.9	-58.8	3.8	8.47e-01	0	36	104	0	66	12444
2026-01-25 15:40:57.14	210.49	6.62	-47.8	-58.2	3.8	8.47e-01	0	37	104	0	66	11578
2026-01-25 15:41:00.11	210.77	6.81	-47.8	-58.2	3.8	8.47e-01	0	37	104	0	66	11577
2026-01-25 15:41:03.09	211.04	7.00	-47.8	-57.7	3.8	8.47e-01	0	37	104	0	66	10980
2026-01-25 15:41:06.07	211.33	7.19	-47.8	-57.8	3.8	8.46e-01	0	37	104	0	66	11079
2026-01-25 15:41:09.05	211.61	7.38	-47.8	-58.4	3.8	8.47e-01	0	37	104	0	66	11868
2026-01-25 15:41:12.03	211.90	7.57	-47.8	-57.8	3.8	8.48e-01	0	37	104	0	66	11093
2026-01-25 15:41:15.01	212.19	7.76	-47.5	-56.1	4.1	8.44e-01	0	37	104	0	65	9675
2026-01-25 15:41:17.99	212.48	7.95	-47.8	-58.6	3.8	8.48e-01	0	37	104	0	65	12924
2026-01-25 15:41:20.97	212.78	8.15	-44.2	-46.8	11.1	3.12e-03	0	37	0	10485760	59	4701
2026-01-25 15:41:23.95	213.09	8.34	-39.6	-40.9	17.1	0.00e+00	0	37	0	32505856	49	4205
2026-01-25 15:41:26.93	213.39	8.54	-38.2	-39.3	18.4	0.00e+00	0	37	0	53477376	47	3947
2026-01-25 15:41:29.91	213.71	8.73	-39.9	-41.3	16.7	0.00e+00	0	37	0	75497472	49	4400
2026-01-25 15:41:32.89	214.02	8.93	-43.8	-46.2	11.7	1.85e-04	0	38	0	96468992	56	5210
2026-01-25 15:41:35.87	214.34	9.13	-41.1	-42.7	15.2	5.49e-05	0	38	0	118489088	53	4125
2026-01-25 15:41:38.97	214.68	9.34	-47.4	-54.6	4.5	6.77e-01	0	37	0	131072000	64	8661
2026-01-25 15:41:41.81	214.99	9.53	-46.6	-51.9	6.1	3.25e-01	0	38	0	146800640	64	6285
2026-01-25 15:41:44.94	215.34	9.74	-46.9	-52.1	6.0	2.45e-01	0	38	0	169869312	63	6875
2026-01-25 15:41:47.78	215.66	9.93	-39.8	-41.1	17.0	0.00e+00	0	38	0	189792256	50	4080
2026-01-25 15:41:50.97	216.02	10.14	-39.5	-40.8	17.2	0.00e+00	0	38	0	212860928	49	4184
2026-01-25 15:41:53.81	216.35	10.34	-38.4	-39.5	18.3	0.00e+00	0	38	0	233832448	47	4035
2026-01-25 15:41:57.09	216.74	10.56	-37.6	-38.6	19.2	0.00e+00	0	38	0	256901120	46	3866
2026-01-25 15:41:59.81	217.07	10.75	-37.1	-38.1	19.8	0.00e+00	0	38	0	276824064	44	4083
2026-01-25 15:42:03.14	217.47	10.98	-36.9	-37.9	19.9	0.00e+00	0	38	0	300941312	44	3993
2026-01-25 15:42:05.86	217.80	11.16	-36.8	-37.8	20.0	0.00e+00	0	38	0	320864256	44	3957
2026-01-25 15:42:09.10	218.20	11.39	-36.7	-37.7	20.2	0.00e+00	0	38	0	343932928	44	3887
2026-01-25 15:42:12.08	218.58	11.59	-36.8	-37.8	20.0	0.00e+00	0	38	0	365953024	44	3954
2026-01-25 15:42:15.06	218.96	11.80	-37.0	-38.0	19.9	0.00e+00	0	38	0	386924544	44	4035
2026-01-25 15:42:18.05	219.35	12.01	-37.0	-38.0	19.9	0.00e+00	0	38	0	408944640	44	4042
2026-01-25 15:42:21.14	219.76	12.23	-36.9	-37.9	20.0	0.00e+00	0	38	0	430964736	44	3984
2026-01-25 15:42:24.22	220.17	12.44	-36.9	-37.9	20.0	0.00e+00	0	38	0	452984832	44	3973
2026-01-25 15:42:27.35	220.59	12.67	-36.8	-37.8	20.1	0.00e+00	0	38	0	476053504	44	3932
2026-01-25 15:42:30.19	220.98	12.87	-36.8	-37.8	20.1	0.00e+00	0	38	0	495976448	44	3951
2026-01-25 15:42:33.32	221.41	13.09	-36.4	-37.3	20.4	0.00e+00	0	38	0	517996544	43	3952
2026-01-25 15:42:36.16	221.81	13.29	-36.2	-37.2	20.6	0.00e+00	0	38	0	538968064	43	3871
2026-01-25 15:42:39.40	222.28	13.52	-36.1	-37.1	20.7	0.00e+00	0	38	0	562036736	43	3837
2026-01-25 15:42:42.24	222.69	13.72	-36.0	-36.9	20.9	0.00e+00	0	38	0	583008256	42	3983
2026-01-25 15:42:45.37	223.15	13.95	-35.9	-36.9	20.9	0.00e+00	0	38	0	605028352	42	3972
2026-01-25 15:42:48.21	223.57	14.15	-35.8	-36.7	21.1	0.00e+00	0	38	0	625999872	42	3877
2026-01-25 15:42:51.34	224.05	14.37	-35.9	-36.8	20.9	0.00e+00	0	38	0	649068544	42	3940
2026-01-25 15:42:54.18	224.48	14.58	-35.8	-36.8	21.0	0.00e+00	0	38	0	668991488	42	3932
2026-01-25 15:42:57.38	224.98	14.81	-35.7	-36.6	21.1	0.00e+00	0	38	0	692060160	42	3854
2026-01-25 15:43:00.27	225.44	15.01	-35.6	-36.5	21.2	0.00e+00	0	38	0	713031680	41	4030
2026-01-25 15:43:03.55	225.96	15.25	-35.4	-36.3	21.4	0.00e+00	0	38	0	737148928	41	3957
2026-01-25 15:43:06.26	226.40	15.44	-35.2	-36.1	21.6	0.00e+00	0	38	0	756023296	41	3860
2026-01-25 15:43:09.54	226.94	15.68	-35.1	-36.0	21.7	0.00e+00	0	38	0	780140544	40	4030
2026-01-25 15:43:12.26	227.40	15.87	-35.1	-36.0	21.7	0.00e+00	0	38	0	800063488	40	4012
2026-01-25 15:43:15.56	227.96	16.11	-35.2	-36.1	21.6	0.00e+00	0	38	0	823132160	40	4078
2026-01-25 15:43:18.33	228.43	16.31	-35.3	-36.2	21.6	0.00e+00	0	38	0	844103680	40	4131
2026-01-25 15:43:21.73	229.02	16.55	-35.2	-36.0	21.7	0.00e+00	0	38	0	868220928	40	4046
2026-01-25 15:43:24.49	229.51	16.75	-35.0	-35.9	21.8	0.00e+00	0	38	0	888143872	40	3993
2026-01-25 15:43:27.77	230.10	16.98	-35.2	-36.1	21.6	0.00e+00	0	38	0	911212544	40	4088
2026-01-25 15:43:30.49	230.59	17.17	-35.2	-36.1	21.7	0.00e+00	0	38	0	931135488	40	4071
2026-01-25 15:43:33.76	231.20	17.41	-35.0	-35.8	21.9	0.00e+00	0	38	0	955252736	40	3954
2026-01-25 15:43:36.47	231.70	17.60	-34.9	-35.8	22.0	0.00e+00	0	38	0	974127104	40	3938
2026-01-25 15:43:39.75	232.32	17.83	-34.8	-35.7	22.0	0.00e+00	0	38	0	998244352	40	3898
2026-01-25 15:43:42.45	232.84	18.02	-35.0	-35.9	21.9	0.00e+00	0	38	0	1018167296	40	3991
2026-01-25 15:43:45.72	233.48	18.24	-35.0	-35.9	21.9	0.00e+00	0	38	0	1041235968	40	3994
2026-01-25 15:43:48.43	234.01	18.43	-34.9	-35.8	22.0	0.00e+00	0	38	0	1061158912	40	3929
2026-01-25 15:43:51.67	234.66	18.65	-34.7	-35.6	22.2	0.00e+00	0	38	0	1084227584	40	3842
2026-01-25 15:43:54.71	235.27	18.86	-34.6	-35.5	22.3	0.00e+00	0	38	0	1106247680	40	3803
2026-01-25 15:43:57.82	235.91	19.07	-34.8	-35.7	22.2	0.00e+00	0	38	0	1128267776	39	4112
2026-01-25 15:44:00.66	236.50	19.26	-34.7	-35.6	22.2	0.00e+00	0	38	0	1149239296	39	4080
2026-01-25 15:44:03.79	237.16	19.47	-34.5	-35.3	22.5	0.00e+00	0	38	0	1172307968	39	3958
2026-01-25 15:44:06.63	237.76	19.66	-34.7	-35.6	22.2	0.00e+00	0	38	0	1192230912	39	4064
2026-01-25 15:44:10.11	238.52	19.89	-34.6	-35.6	22.3	0.00e+00	0	38	0	1217396736	39	4057
2026-01-25 15:44:12.89	239.12	20.07	-34.5	-35.4	22.4	0.00e+00	0	38	0	1237319680	39	3980
2026-01-25 15:44:16.26	239.87	20.28	-34.3	-35.2	22.6	0.00e+00	0	38	0	1261436928	39	3887
2026-01-25 15:44:18.96	240.48	20.45	-34.5	-35.3	22.5	0.00e+00	0	38	0	1281359872	39	3946
2026-01-25 15:44:22.23	241.22	20.65	-34.4	-35.2	22.6	0.00e+00	0	38	0	1305477120	39	3904
2026-01-25 15:44:24.95	241.84	20.82	-34.2	-35.1	22.7	0.00e+00	0	38	0	1324351488	39	3842
2026-01-25 15:44:28.28	242.62	21.02	-34.3	-35.2	22.7	0.00e+00	0	38	0	1348468736	39	3870
2026-01-25 15:44:31.20	243.30	21.19	-34.4	-35.2	22.6	0.00e+00	0	38	0	1369440256	39	3900
2026-01-25 15:44:34.26	244.03	21.37	-34.3	-35.2	22.6	0.00e+00	0	38	0	1391460352	39	3891
2026-01-25 15:44:37.54	244.82	21.56	-34.3	-35.2	22.6	0.00e+00	0	38	0	1415577600	39	3896
2026-01-25 15:44:40.24	245.47	21.71	-34.6	-35.5	22.4	0.00e+00	0	38	0	1434451968	39	4026
2026-01-25 15:44:43.51	246.28	21.89	-34.2	-35.0	22.8	0.00e+00	0	38	0	1458569216	39	3814
2026-01-25 15:44:46.22	246.95	22.03	-34.1	-34.9	22.9	0.00e+00	0	38	0	1477443584	38	4002
2026-01-25 15:44:49.73	247.83	22.22	-34.0	-34.9	22.9	0.00e+00	0	38	0	1503657984	38	3976
2026-01-25 15:44:52.43	248.51	22.35	-34.0	-34.9	23.0	0.00e+00	0	38	0	1522532352	38	3973
2026-01-25 15:44:55.70	249.35	22.51	-34.1	-34.9	22.9	0.00e+00	0	38	0	1546649600	38	3979
2026-01-25 15:44:58.43	250.05	22.65	-34.1	-34.9	22.9	0.00e+00	0	39	0	1566572544	38	3987
2026-01-25 15:45:01.72	250.91	22.80	-34.2	-35.0	22.8	0.00e+00	0	38	0	1589641216	38	4029
2026-01-25 15:45:04.69	251.69	22.93	-34.2	-35.0	22.8	0.00e+00	0	38	0	1611661312	38	4028
2026-01-25 15:45:07.96	252.55	23.07	-33.8	-34.7	23.1	0.00e+00	0	38	0	1634729984	38	3886
2026-01-25 15:45:10.68	253.28	23.18	-34.0	-34.9	22.9	0.00e+00	0	38	0	1654652928	38	3983
2026-01-25 15:45:14.04	254.18	23.31	-34.1	-35.0	22.9	0.00e+00	0	38	0	1678770176	38	4006
2026-01-25 15:45:16.76	254.92	23.42	-34.2	-35.0	22.8	0.00e+00	0	38	0	1698693120	38	4042
2026-01-25 15:45:20.04	255.81	23.54	-33.8	-34.6	23.2	0.00e+00	0	38	0	1721761792	38	3855
2026-01-25 15:45:22.78	256.56	23.63	-33.7	-34.5	23.2	0.00e+00	0	38	0	1741684736	38	3816
2026-01-25 15:45:26.05	257.47	23.73	-33.6	-34.4	23.4	0.00e+00	0	38	0	1765801984	37	3971
2026-01-25 15:45:28.89	258.26	23.82	-33.6	-34.4	23.3	0.00e+00	0	38	0	1785724928	37	3995
2026-01-25 15:45:32.02	259.13	23.91	-33.5	-34.3	23.4	0.00e+00	0	38	0	1808793600	37	3952
2026-01-25 15:45:34.86	259.93	23.98	-33.7	-34.5	23.3	0.00e+00	0	38	0	1828716544	37	4020
2026-01-25 15:45:37.99	260.81	24.06	-33.9	-34.8	23.0	0.00e+00	0	38	0	1851785216	37	4168
2026-01-25 15:45:40.83	261.61	24.12	-33.9	-34.7	23.1	0.00e+00	0	38	0	1872756736	37	4113
2026-01-25 15:45:43.96	262.50	24.18	-33.5	-34.4	23.4	0.00e+00	0	38	0	1894776832	37	3960
2026-01-25 15:45:46.81	263.32	24.23	-33.6	-34.5	23.3	0.00e+00	0	38	0	1915748352	37	4016
2026-01-25 15:45:50.11	264.26	24.28	-33.6	-34.4	23.3	0.00e+00	0	38	0	1938817024	37	3988
2026-01-25 15:45:52.95	265.08	24.32	-33.6	-34.4	23.4	0.00e+00	0	39	0	1959788544	37	3975
2026-01-25 15:45:56.03	265.96	24.35	-33.7	-34.5	23.2	0.00e+00	0	38	0	1981808640	37	4039
2026-01-25 15:45:59.01	266.82	24.38	-33.9	-34.8	23.0	0.00e+00	0	38	0	2003828736	37	4148
2026-01-25 15:46:01.99	267.68	24.40	-33.7	-34.5	23.2	0.00e+00	0	38	0	2024800256	37	4019
2026-01-25 15:46:04.98	268.54	24.41	-33.4	-34.2	23.5	0.00e+00	0	38	0	2046820352	37	3903
2026-01-25 15:46:07.97	269.41	24.42	-33.7	-34.5	23.2	0.00e+00	0	38	0	2067791872	37	4035
2026-01-25 15:46:10.95	270.27	24.42	-33.8	-34.6	23.2	0.00e+00	0	38	0	2089811968	37	4070
2026-01-25 15:46:13.93	271.13	24.41	-33.6	-34.5	23.3	0.00e+00	0	38	0	2111832064	37	4015
2026-01-25 15:46:16.91	271.99	24.40	-33.8	-34.7	23.1	0.00e+00	0	39	0	2132803584	37	4106
2026-01-25 15:46:19.96	272.87	24.38	-33.8	-34.6	23.2	0.00e+00	0	38	0	2154823680	37	4068
2026-01-25 15:46:22.90	273.71	24.35	-33.8	-34.6	23.1	0.00e+00	0	38	0	2175795200	37	4088
2026-01-25 15:46:25.89	274.57	24.32	-33.6	-34.4	23.3	0.00e+00	0	38	0	2197815296	37	3990
2026-01-25 15:46:28.87	275.43	24.28	-33.6	-34.4	23.3	0.00e+00	0	39	0	2218786816	37	3980
2026-01-25 15:46:31.86	276.28	24.23	-33.7	-34.5	23.2	0.00e+00	0	38	0	2240806912	37	4034
2026-01-25 15:46:34.82	277.12	24.18	-33.9	-34.7	23.0	0.00e+00	0	38	0	2261778432	37	4130
2026-01-25 15:46:37.95	278.01	24.12	-33.8	-34.7	23.1	0.00e+00	0	38	0	2284847104	37	4099
2026-01-25 15:46:40.79	278.81	24.05	-33.9	-34.7	23.0	0.00e+00	0	38	0	2304770048	37	4129
2026-01-25 15:46:43.92	279.70	23.98	-34.0	-34.8	22.9	0.00e+00	0	38	0	2327838720	37	4186
2026-01-25 15:46:46.76	280.49	23.90	-33.7	-34.5	23.2	0.00e+00	0	38	0	2347761664	37	4015
2026-01-25 15:46:49.89	281.36	23.82	-33.8	-34.7	23.1	0.00e+00	0	38	0	2370830336	37	4100
2026-01-25 15:46:52.84	282.18	23.73	-33.9	-34.7	23.1	0.00e+00	0	38	0	2391801856	37	4120
2026-01-25 15:46:55.97	283.04	23.63	-33.6	-34.5	23.2	0.00e+00	0	38	0	2414870528	37	4014
2026-01-25 15:46:58.81	283.82	23.53	-33.8	-34.7	23.1	0.00e+00	0	38	0	2434793472	37	4112
2026-01-25 15:47:01.91	284.66	23.42	-34.1	-35.0	22.8	0.00e+00	0	38	0	2457862144	37	4244
2026-01-25 15:47:04.76	285.43	23.31	-34.1	-34.9	22.8	0.00e+00	0	38	0	2477785088	37	4234
2026-01-25 15:47:07.99	286.30	23.18	-34.1	-34.9	22.8	0.00e+00	0	38	0	2501902336	37	4230
2026-01-25 15:47:10.92	287.08	23.06	-34.0	-34.9	22.9	0.00e+00	0	38	0	2522873856	37	4204
2026-01-25 15:47:14.05	287.90	22.93	-34.1	-34.9	22.8	0.00e+00	0	38	0	2544893952	37	4216
2026-01-25 15:47:16.90	288.65	22.80	-34.1	-34.9	22.8	0.00e+00	0	38	0	2565865472	37	4229
2026-01-25 15:47:20.02	289.46	22.66	-34.1	-35.0	22.8	0.00e+00	0	38	0	2587885568	37	4254
2026-01-25 15:47:22.86	290.19	22.53	-34.1	-34.9	22.8	0.00e+00	0	38	0	2608857088	37	4237
2026-01-25 15:47:26.09	291.01	22.37	-34.0	-34.9	22.9	0.00e+00	0	38	0	2631925760	37	4206
2026-01-25 15:47:28.94	291.73	22.22	-34.6	-35.4	22.4	0.00e+00	0	38	0	2652897280	38	4230
2026-01-25 15:47:32.06	292.51	22.06	-34.5	-35.4	22.4	0.00e+00	0	38	0	2674917376	38	4223
2026-01-25 15:47:35.48	293.36	21.88	-34.2	-35.0	22.7	0.00e+00	0	38	0	2700083200	38	4040
2026-01-25 15:47:38.19	294.02	21.73	-34.2	-35.0	22.8	0.00e+00	0	38	0	2718957568	38	4034
2026-01-25 15:47:41.46	294.81	21.55	-34.1	-34.9	22.9	0.00e+00	0	38	0	2743074816	38	3978
2026-01-25 15:47:44.22	295.47	21.39	-34.2	-35.0	22.7	0.00e+00	0	39	0	2762997760	38	4037
2026-01-25 15:47:47.51	296.25	21.20	-34.5	-35.3	22.5	0.00e+00	0	38	0	2787115008	38	4179
2026-01-25 15:47:50.22	296.89	21.05	-34.7	-35.6	22.2	0.00e+00	0	38	0	2805989376	39	4057
2026-01-25 15:47:53.65	297.68	20.84	-35.0	-35.9	22.0	0.00e+00	0	38	0	2831155200	39	4209
2026-01-25 15:47:56.36	298.30	20.68	-35.0	-35.9	21.9	0.00e+00	0	38	0	2850029568	39	4228
2026-01-25 15:47:59.76	299.07	20.47	-34.8	-35.6	22.1	0.00e+00	0	38	0	2875195392	39	4096
2026-01-25 15:48:02.49	299.68	20.29	-34.6	-35.4	22.3	0.00e+00	0	38	0	2895118336	39	3993
2026-01-25 15:48:05.78	300.41	20.09	-34.5	-35.4	22.4	0.00e+00	0	38	0	2919235584	39	3976
2026-01-25 15:48:08.60	301.02	19.91	-34.6	-35.5	22.3	0.00e+00	0	39	0	2939158528	39	4007
2026-01-25 15:48:12.23	301.80	19.67	-34.8	-35.7	22.0	0.00e+00	0	38	0	2965372928	39	4127
2026-01-25 15:48:14.93	302.37	19.49	-35.2	-36.1	21.7	0.00e+00	0	38	0	2984247296	39	4292
2026-01-25 15:48:18.20	303.06	19.28	-35.0	-35.9	21.8	0.00e+00	0	38	0	3008364544	39	4237
2026-01-25 15:48:20.89	303.62	19.10	-35.0	-35.9	21.9	0.00e+00	0	38	0	3027238912	39	4227
2026-01-25 15:48:24.21	304.29	18.87	-34.9	-35.8	22.0	0.00e+00	0	39	0	3051356160	39	4170
2026-01-25 15:48:26.95	304.85	18.69	-34.9	-35.8	22.0	0.00e+00	0	39	0	3071279104	39	4180
2026-01-25 15:48:30.26	305.50	18.46	-35.0	-35.9	21.9	0.00e+00	0	38	0	3095396352	39	4195
2026-01-25 15:48:32.97	306.04	18.28	-35.2	-36.1	21.6	0.00e+00	0	38	0	3115319296	39	4309
2026-01-25 15:48:36.24	306.67	18.05	-35.4	-36.3	21.4	0.00e+00	0	38	0	3138387968	40	4162
2026-01-25 15:48:38.96	307.19	17.86	-35.4	-36.3	21.4	0.00e+00	0	38	0	3158310912	40	4163
2026-01-25 15:48:42.22	307.80	17.64	-35.4	-36.3	21.4	0.00e+00	0	38	0	3181379584	40	4147
2026-01-25 15:48:44.94	308.31	17.44	-35.3	-36.2	21.5	0.00e+00	0	38	0	3201302528	40	4132
2026-01-25 15:48:48.22	308.91	17.21	-35.2	-36.1	21.5	0.00e+00	0	38	0	3225419776	40	4085
2026-01-25 15:48:50.95	309.41	17.02	-35.1	-36.0	21.6	0.00e+00	0	38	0	3244294144	40	4031
2026-01-25 15:48:54.22	309.99	16.79	-35.3	-36.2	21.5	0.00e+00	0	38	0	3268411392	40	4112
2026-01-25 15:48:57.16	310.51	16.58	-35.6	-36.5	21.1	0.00e+00	0	39	0	3289382912	40	4287
2026-01-25 15:49:00.45	311.08	16.35	-36.0	-37.0	20.8	0.00e+00	0	38	0	3313500160	41	4252
2026-01-25 15:49:03.19	311.55	16.16	-36.0	-36.9	20.7	0.00e+00	0	38	0	3333423104	41	4240
2026-01-25 15:49:06.46	312.10	15.92	-35.6	-36.6	21.1	0.00e+00	0	39	0	3356491776	41	4060
2026-01-25 15:49:09.17	312.55	15.73	-35.3	-36.2	21.4	0.00e+00	0	38	0	3376414720	41	3904
2026-01-25 15:49:12.64	313.12	15.49	-35.3	-36.2	21.4	0.00e+00	0	38	0	3401580544	41	3901
2026-01-25 15:49:15.64	313.61	15.27	-35.6	-36.5	21.1	0.00e+00	0	38	0	3422552064	41	4027
2026-01-25 15:49:18.95	314.13	15.04	-35.7	-36.7	20.9	0.00e+00	0	38	0	3446669312	41	4118
2026-01-25 15:49:21.65	314.56	14.84	-36.1	-37.1	20.4	0.00e+00	0	38	0	3466592256	41	4327
2026-01-25 15:49:24.93	315.07	14.61	-36.3	-37.3	20.4	0.00e+00	0	38	0	3489660928	42	4155
2026-01-25 15:49:27.65	315.48	14.42	-36.1	-37.0	20.6	0.00e+00	0	38	0	3509583872	42	4048
2026-01-25 15:49:30.94	315.98	14.18	-35.8	-36.7	20.9	0.00e+00	0	38	0	3533701120	42	3901
2026-01-25 15:49:33.67	316.38	13.99	-35.7	-36.7	21.0	0.00e+00	0	38	0	3553624064	42	3873
2026-01-25 15:49:37.02	316.87	13.75	-35.5	-36.4	21.1	0.00e+00	0	38	0	3577741312	41	4003
2026-01-25 15:49:39.77	317.27	13.56	-35.6	-36.5	21.1	0.00e+00	0	38	0	3597664256	41	4031
2026-01-25 15:49:43.12	317.75	13.32	-36.1	-37.0	20.6	0.00e+00	0	38	0	3621781504	41	4286
2026-01-25 15:49:46.21	318.18	13.11	-36.5	-37.4	20.2	0.00e+00	0	38	0	3643801600	42	4241
2026-01-25 15:49:49.20	318.60	12.90	-36.8	-37.8	19.8	0.00e+00	0	38	0	3664773120	42	4419
2026-01-25 15:49:52.19	319.00	12.69	-36.5	-37.5	20.1	0.00e+00	0	38	0	3686793216	43	4044
2026-01-25 15:49:55.25	319.42	12.47	-36.3	-37.3	20.3	0.00e+00	0	38	0	3708813312	43	3937
2026-01-25 15:49:58.20	319.81	12.27	-36.2	-37.3	20.3	0.00e+00	0	38	0	3729784832	43	3921
2026-01-25 15:50:01.71	320.27	12.03	-36.0	-37.1	20.5	0.00e+00	0	38	0	3755999232	42	4053
2026-01-25 15:50:04.42	320.62	11.84	-35.9	-36.9	20.7	0.00e+00	0	38	0	3774873600	42	3968
2026-01-25 15:50:07.81	321.05	11.60	-36.1	-37.0	20.5	0.00e+00	0	38	0	3798990848	42	4050
2026-01-25 15:50:10.51	321.39	11.42	-36.3	-37.3	20.3	0.00e+00	0	39	0	3818913792	42	4172
2026-01-25 15:50:13.80	321.79	11.19	-36.4	-37.5	20.1	0.00e+00	0	38	0	3843031040	42	4253
2026-01-25 15:50:16.62	322.14	11.00	-36.6	-37.6	19.9	0.00e+00	0	38	0	3862953984	42	4338
2026-01-25 15:50:19.80	322.52	10.78	-36.7	-37.8	19.8	0.00e+00	0	39	0	3886022656	42	4408
2026-01-25 15:50:22.86	322.89	10.58	-36.8	-37.9	19.7	0.00e+00	0	38	0	3908042752	42	4455
2026-01-25 15:50:25.70	323.22	10.39	-36.7	-37.9	19.7	0.00e+00	0	38	0	3929014272	43	4202
2026-01-25 15:50:28.91	323.59	10.17	-36.6	-37.8	19.7	0.00e+00	0	38	0	3952082944	43	4169
2026-01-25 15:50:31.82	323.92	9.97	-36.5	-37.7	19.8	0.00e+00	0	38	0	3973054464	43	4137
2026-01-25 15:50:35.07	324.29	9.76	-36.6	-37.8	19.7	0.00e+00	0	38	0	3996123136	43	4170
2026-01-25 15:50:37.91	324.60	9.57	-36.6	-37.8	19.7	0.00e+00	0	38	0	4017094656	43	4165
2026-01-25 15:50:41.04	324.95	9.36	-36.7	-37.9	19.6	0.00e+00	0	39	0	4039114752	43	4196
2026-01-25 15:50:43.88	325.26	9.17	-36.8	-38.0	19.5	0.00e+00	0	38	0	4060086272	43	4243
2026-01-25 15:50:47.01	325.59	8.97	-46.2	-56.6	4.0	5.87e-04	0	38	0	4081057792	61	12820
2026-01-25 15:50:49.85	325.89	8.78	-47.8	-59.5	3.8	8.46e-01	0	38	104	4081057792	65	14249
2026-01-25 15:50:52.97	326.22	8.58	-48.6	-59.7	3.8	8.47e-01	0	38	104	4081057792	66	13830
2026-01-25 15:50:55.81	326.51	8.39	-48.6	-59.7	3.8	8.46e-01	0	39	104	4081057792	67	13046
2026-01-25 15:50:58.93	326.82	8.19	-49.0	-59.7	3.8	8.48e-01	0	38	104	4081057792	67	13103
2026-01-25 15:51:01.77	327.11	8.01	-49.0	-59.8	3.8	8.47e-01	0	38	104	4081057792	67	13146
2026-01-25 15:51:04.89	327.42	7.81	-49.0	-59.8	3.8	8.46e-01	0	38	104	4081057792	67	13205
2026-01-25 15:51:07.73	327.70	7.63	-48.8	-59.8	3.8	8.46e-01	0	39	104	4081057792	67	13167
2026-01-25 15:51:10.85	328.00	7.43	-48.7	-59.7	3.8	8.47e-01	0	38	104	4081057792	67	13068
2026-01-25 15:51:13.69	328.27	7.25	-48.7	-59.7	3.8	8.46e-01	0	39	104	4081057792	67	12989
2026-01-25 15:51:16.81	328.56	7.06	-48.7	-59.7	3.8	8.46e-01	0	39	104	4081057792	67	13019
2026-01-25 15:51:19.65	328.83	6.88	-48.7	-59.7	3.8	8.47e-01	0	39	104	4081057792	67	13025
2026-01-25 15:51:22.78	329.12	6.68	-48.7	-59.7	3.8	8.48e-01	0	39	104	4081057792	67	13011
2026-01-25 15:51:25.61	329.37	6.51	-48.7	-59.7	3.8	8.47e-01	0	38	104	4081057792	67	13025
2026-01-25 15:51:28.74	329.65	6.31	-48.7	-59.7	3.8	8.46e-01	0	39	104	4081057792	67	12986
2026-01-25 15:51:31.58	329.91	6.14	-48.7	-59.7	3.8	8.46e-01	0	38	104	4081057792	67	13097
2026-01-25 15:51:34.70	330.18	5.95	-48.7	-59.7	3.8	8.47e-01	0	38	104	4081057792	67	13003
2026-01-25 15:51:37.53	330.43	5.77	-48.7	-59.7	3.8	8.47e-01	0	38	104	4081057792	67	13016
2026-01-25 15:51:40.66	330.69	5.58	-48.7	-59.7	3.8	8.47e-01	0	39	104	4081057792	67	13003
2026-01-25 15:51:43.50	330.93	5.41	-48.7	-59.7	3.8	8.47e-01	0	38	104	4081057792	67	13038
2026-01-25 15:51:46.62	331.19	5.22	-48.7	-59.8	3.8	8.47e-01	0	39	104	4081057792	67	13116
2026-01-25 15:51:49.46	331.43	5.05	-48.7	-59.6	3.8	8.47e-01	0	38	104	4081057792	67	12874

#Closed at: 2026-01-25 15:51:51
#Recorded file [4081 MB]: D:/Data/31040_260125_184033.dat