passes_logs/2026/01/25/T1/T1__20260125_090905_NOAA_21_JPSS-2_rec.log

#Pass ID: 20260125_090905_NOAA 21 (JPSS-2)
#Satellite: NOAA 21 (JPSS-2)
#Configuration: NOAA 21
#almurnet v.1.7.20251203
#Start time: 2026-01-25 09:09:06

#Version: 2.0.20230620
#Station: T1
#Location: 37.570604 lon 55.790049 lat
#TLE: 1 54234U 22150A   26024.45772595  .00000201  00000+0  11607-3 0  9996
#TLE: 2 54234  98.7508 325.2435 0000728 220.7365 139.3757 14.19538765166156

#Time	Az	El	Level	Level2	SNR	BER	BlckErr	Temp	State	Recorded	gain1	gain2
2026-01-25 09:09:06.74	135.93	5.06	-48.0	-61.1	3.8	1.49e+00	0	35	0	0	68	15408
2026-01-25 09:09:09.72	135.81	5.26	-48.0	-61.0	3.8	1.49e+00	0	36	104	0	68	15232
2026-01-25 09:09:12.70	135.68	5.47	-48.0	-60.9	3.8	1.49e+00	0	35	104	0	68	15060
2026-01-25 09:09:15.68	135.56	5.68	-47.8	-60.5	3.8	1.49e+00	0	36	104	0	67	15276
2026-01-25 09:09:18.66	135.44	5.90	-47.8	-60.1	3.8	1.49e+00	0	36	104	0	67	14612
2026-01-25 09:09:21.64	135.31	6.11	-47.7	-59.8	3.8	1.49e+00	0	36	104	0	67	14137
2026-01-25 09:09:24.62	135.18	6.33	-47.7	-59.9	3.8	1.49e+00	0	36	104	0	67	14271
2026-01-25 09:09:27.60	135.05	6.54	-47.8	-60.6	3.8	1.49e+00	0	36	104	0	67	15472
2026-01-25 09:09:30.58	134.91	6.76	-47.8	-60.8	3.8	1.49e+00	0	36	104	0	67	15767
2026-01-25 09:09:33.56	134.78	6.98	-47.7	-59.3	3.8	1.49e+00	0	36	104	0	67	13402
2026-01-25 09:09:36.54	134.64	7.20	-47.5	-57.9	3.9	1.48e+00	0	36	104	0	66	11957
2026-01-25 09:09:39.53	134.50	7.43	-46.9	-54.4	5.5	5.36e-01	0	36	0	0	65	8466
2026-01-25 09:09:42.51	134.36	7.65	-45.2	-49.5	10.2	1.25e-02	0	36	0	0	62	5728
2026-01-25 09:09:45.49	134.21	7.88	-42.9	-45.6	14.1	9.10e-06	0	36	0	0	57	4906
2026-01-25 09:09:48.47	134.06	8.11	-41.3	-43.7	15.9	0.00e+00	0	37	0	0	54	4652
2026-01-25 09:09:51.45	133.91	8.34	-41.3	-43.5	16.0	0.00e+00	0	37	0	0	54	4597
2026-01-25 09:09:54.43	133.76	8.58	-42.6	-45.3	14.3	0.00e+00	0	37	0	0	55	5292
2026-01-25 09:09:57.41	133.61	8.81	-45.0	-49.1	10.6	1.86e-03	0	37	0	0	60	6162
2026-01-25 09:10:00.39	133.45	9.05	-46.7	-53.4	6.2	3.29e-01	0	37	0	0	64	8074
2026-01-25 09:10:03.46	133.29	9.30	-45.4	-49.9	9.6	4.34e-01	0	37	0	0	63	5715
2026-01-25 09:10:06.30	133.13	9.53	-44.7	-48.5	11.4	1.18e-03	0	37	0	0	61	5461
2026-01-25 09:10:09.43	132.96	9.78	-44.3	-47.8	12.1	2.62e-04	0	37	0	0	60	5331
2026-01-25 09:10:12.27	132.79	10.02	-44.3	-47.9	12.0	2.05e-04	0	37	0	0	60	5345
2026-01-25 09:10:15.46	132.61	10.28	-43.4	-46.3	13.6	1.90e-05	0	37	0	0	58	5033
2026-01-25 09:10:18.30	132.44	10.52	-43.5	-46.3	13.6	8.30e-06	0	37	0	0	58	5029
2026-01-25 09:10:21.43	132.26	10.79	-42.0	-44.3	15.6	0.00e+00	0	37	0	0	56	4483
2026-01-25 09:10:24.28	132.08	11.03	-40.6	-42.7	17.0	0.00e+00	0	37	0	0	53	4405
2026-01-25 09:10:27.40	131.89	11.30	-39.8	-41.7	18.1	0.00e+00	0	37	0	0	51	4412
2026-01-25 09:10:30.24	131.71	11.55	-39.2	-41.0	18.7	0.00e+00	0	37	0	0	50	4339
2026-01-25 09:10:33.48	131.50	11.83	-39.0	-40.8	18.9	0.00e+00	0	37	0	0	50	4216
2026-01-25 09:10:36.40	131.31	12.09	-39.0	-40.8	18.7	0.00e+00	0	37	0	0	49	4493
2026-01-25 09:10:39.39	131.11	12.36	-39.0	-40.8	19.0	0.00e+00	0	37	0	0	49	4464
2026-01-25 09:10:42.37	130.91	12.63	-38.8	-40.6	19.2	0.00e+00	0	37	0	0	49	4368
2026-01-25 09:10:45.36	130.70	12.90	-38.7	-40.5	19.3	0.00e+00	0	38	0	0	49	4313
2026-01-25 09:10:48.34	130.49	13.18	-38.7	-40.5	19.3	0.00e+00	0	38	0	0	49	4294
2026-01-25 09:10:51.62	130.26	13.49	-38.6	-40.4	19.4	0.00e+00	0	38	0	0	49	4245
2026-01-25 09:10:54.33	130.06	13.74	-38.7	-40.5	19.3	0.00e+00	0	37	0	0	49	4303
2026-01-25 09:10:57.60	129.81	14.05	-38.7	-40.5	19.2	0.00e+00	0	37	0	0	49	4311
2026-01-25 09:11:00.30	129.60	14.31	-38.6	-40.4	19.4	0.00e+00	0	38	0	0	49	4259
2026-01-25 09:11:03.60	129.35	14.64	-38.7	-40.5	19.3	0.00e+00	0	38	0	0	49	4332
2026-01-25 09:11:06.59	129.11	14.93	-38.6	-40.4	19.4	0.00e+00	0	38	0	0	49	4258
2026-01-25 09:11:09.93	128.84	15.26	-38.8	-40.6	19.3	0.00e+00	0	38	0	0	49	4344
2026-01-25 09:11:12.66	128.61	15.54	-38.7	-40.4	19.4	0.00e+00	0	37	0	0	49	4290
2026-01-25 09:11:15.94	128.33	15.87	-38.7	-40.4	19.5	0.00e+00	0	38	0	0	49	4272
2026-01-25 09:11:18.66	128.09	16.15	-38.7	-40.4	19.4	0.00e+00	0	38	0	0	49	4274
2026-01-25 09:11:22.00	127.80	16.49	-38.7	-40.4	19.4	0.00e+00	0	37	0	0	49	4275
2026-01-25 09:11:24.71	127.55	16.78	-38.8	-40.6	19.3	0.00e+00	0	38	0	0	49	4359
2026-01-25 09:11:28.26	127.22	17.16	-38.9	-40.7	19.2	0.00e+00	0	38	0	0	49	4409
2026-01-25 09:11:30.96	126.97	17.45	-38.9	-40.6	19.2	0.00e+00	0	38	0	0	49	4385
2026-01-25 09:11:34.23	126.65	17.80	-38.8	-40.6	19.3	0.00e+00	0	38	0	0	49	4369
2026-01-25 09:11:36.93	126.38	18.10	-38.8	-40.5	19.4	0.00e+00	0	38	0	0	49	4336
2026-01-25 09:11:40.20	126.05	18.46	-38.9	-40.7	19.3	0.00e+00	0	38	0	0	49	4395
2026-01-25 09:11:42.93	125.77	18.76	-38.7	-40.5	19.4	0.00e+00	0	38	0	0	49	4292
2026-01-25 09:11:46.20	125.42	19.13	-38.6	-40.4	19.5	0.00e+00	0	38	0	0	49	4245
2026-01-25 09:11:49.18	125.10	19.48	-38.5	-40.2	19.6	0.00e+00	0	38	0	0	49	4183
2026-01-25 09:11:52.17	124.77	19.82	-38.5	-40.2	19.7	0.00e+00	0	38	0	0	48	4435
2026-01-25 09:11:55.25	124.42	20.18	-38.4	-40.1	19.8	0.00e+00	0	38	0	0	48	4364
2026-01-25 09:11:58.15	124.08	20.53	-38.0	-39.7	20.2	0.00e+00	0	38	0	0	48	4156
2026-01-25 09:12:01.14	123.73	20.88	-37.6	-39.2	20.5	0.00e+00	0	38	0	0	47	4191
2026-01-25 09:12:04.46	123.32	21.29	-37.3	-38.9	20.7	0.00e+00	0	38	0	0	46	4278
2026-01-25 09:12:07.16	122.98	21.62	-37.2	-38.8	20.8	0.00e+00	0	38	0	0	46	4211
2026-01-25 09:12:10.48	122.56	22.03	-37.2	-38.8	20.8	0.00e+00	0	38	0	0	46	4205
2026-01-25 09:12:13.19	122.20	22.37	-37.2	-38.9	20.8	0.00e+00	0	38	0	0	46	4244
2026-01-25 09:12:16.63	121.74	22.80	-37.2	-38.8	20.9	0.00e+00	0	38	0	0	46	4239
2026-01-25 09:12:19.66	121.32	23.19	-37.1	-38.8	20.9	0.00e+00	0	38	0	0	46	4200
2026-01-25 09:12:22.98	120.85	23.62	-37.0	-38.7	21.0	0.00e+00	0	38	0	0	46	4153
2026-01-25 09:12:25.68	120.46	23.97	-37.0	-38.6	21.1	0.00e+00	0	38	0	0	45	4343
2026-01-25 09:12:29.01	119.96	24.41	-37.1	-38.7	20.9	0.00e+00	0	38	0	0	45	4418
2026-01-25 09:12:31.77	119.54	24.78	-37.2	-38.8	20.8	0.00e+00	0	38	0	0	45	4464
2026-01-25 09:12:35.11	119.01	25.23	-37.4	-39.0	20.6	0.00e+00	0	38	0	0	45	4585
2026-01-25 09:12:37.93	118.55	25.62	-37.6	-39.3	20.4	0.00e+00	0	38	0	0	45	4720
2026-01-25 09:12:41.20	118.01	26.07	-37.9	-39.6	20.2	0.00e+00	0	38	0	0	46	4635
2026-01-25 09:12:43.93	117.55	26.45	-38.0	-39.6	20.1	0.00e+00	0	38	0	0	46	4647
2026-01-25 09:12:47.22	116.97	26.91	-38.4	-40.1	19.6	0.00e+00	0	38	0	0	47	4641
2026-01-25 09:12:50.05	116.46	27.31	-38.7	-40.4	19.7	0.00e+00	0	38	0	0	48	4517
2026-01-25 09:12:53.18	115.88	27.76	-38.6	-40.4	19.7	0.00e+00	0	38	0	0	48	4503
2026-01-25 09:12:56.34	115.28	28.21	-38.3	-40.0	20.0	0.00e+00	0	38	0	0	48	4324
2026-01-25 09:12:59.17	114.73	28.62	-38.5	-40.2	19.7	0.00e+00	0	38	0	0	48	4436
2026-01-25 09:13:02.30	114.10	29.08	-38.7	-40.4	19.5	0.00e+00	0	38	0	0	48	4544
2026-01-25 09:13:05.15	113.51	29.50	-38.3	-40.0	20.0	0.00e+00	0	38	0	0	48	4340
2026-01-25 09:13:08.27	112.85	29.96	-38.3	-40.0	20.0	0.00e+00	0	38	0	0	48	4311
2026-01-25 09:13:11.21	112.21	30.40	-38.4	-40.1	19.9	0.00e+00	0	38	0	0	48	4380
2026-01-25 09:13:14.59	111.45	30.91	-38.0	-39.7	20.3	0.00e+00	0	38	0	0	48	4178
2026-01-25 09:13:17.31	110.82	31.32	-38.1	-39.8	20.3	0.00e+00	0	38	0	0	48	4208
2026-01-25 09:13:20.59	110.04	31.82	-38.2	-39.9	20.0	0.00e+00	0	38	0	0	48	4252
2026-01-25 09:13:23.30	109.37	32.23	-38.2	-39.8	20.2	0.00e+00	0	38	0	0	48	4236
2026-01-25 09:13:26.57	108.55	32.73	-38.2	-39.9	20.1	0.00e+00	0	38	0	0	48	4279
2026-01-25 09:13:29.35	107.83	33.16	-38.4	-40.1	19.9	0.00e+00	0	38	0	0	48	4366
2026-01-25 09:13:32.59	106.96	33.66	-38.6	-40.3	19.7	0.00e+00	0	38	0	0	48	4462
2026-01-25 09:13:36.12	105.99	34.20	-39.2	-41.0	19.2	0.00e+00	0	38	0	0	49	4552
2026-01-25 09:13:38.89	105.20	34.62	-39.5	-41.3	18.8	0.00e+00	0	38	0	0	49	4730
2026-01-25 09:13:42.16	104.25	35.13	-39.6	-41.4	18.7	0.00e+00	0	38	0	0	50	4542
2026-01-25 09:13:44.88	103.43	35.54	-39.7	-41.5	18.7	0.00e+00	0	38	0	0	50	4578
2026-01-25 09:13:48.26	102.39	36.06	-40.0	-41.9	18.4	0.00e+00	0	39	0	0	50	4780
2026-01-25 09:13:50.98	101.52	36.47	-40.1	-42.0	18.3	0.00e+00	0	38	0	0	50	4844
2026-01-25 09:13:54.25	100.45	36.96	-39.9	-41.8	18.5	0.00e+00	0	38	0	0	50	4738
2026-01-25 09:13:56.96	99.54	37.37	-40.0	-41.9	18.4	0.00e+00	0	39	0	0	50	4792
2026-01-25 09:14:00.25	98.41	37.85	-39.7	-41.5	18.7	0.00e+00	0	38	0	0	50	4567
2026-01-25 09:14:02.98	97.44	38.25	-40.0	-41.9	18.3	0.00e+00	0	38	0	0	50	4779
2026-01-25 09:14:06.25	96.24	38.72	-40.1	-42.0	18.3	0.00e+00	0	38	0	0	50	4831
2026-01-25 09:14:08.97	95.22	39.11	-40.6	-42.6	17.7	0.00e+00	0	38	0	0	51	4884
2026-01-25 09:14:12.27	93.96	39.57	-40.3	-42.3	17.9	0.00e+00	0	39	0	0	52	4472
2026-01-25 09:14:15.33	92.75	39.99	-40.6	-42.6	17.6	0.00e+00	0	38	0	0	52	4637
2026-01-25 09:14:18.46	91.48	40.40	-40.2	-42.1	18.1	0.00e+00	0	38	0	0	52	4386
2026-01-25 09:14:21.30	90.30	40.77	-40.3	-42.2	17.9	0.00e+00	0	38	0	0	51	4697
2026-01-25 09:14:24.43	88.97	41.16	-40.1	-42.1	18.0	0.00e+00	0	38	0	0	51	4614
2026-01-25 09:14:27.27	87.74	41.50	-40.8	-42.9	17.2	0.00e+00	0	38	0	0	52	4809
2026-01-25 09:14:30.40	86.34	41.87	-40.8	-43.0	17.1	0.00e+00	0	38	0	0	53	4559
2026-01-25 09:14:33.24	85.06	42.19	-41.0	-43.2	17.0	0.00e+00	0	38	0	0	53	4679
2026-01-25 09:14:36.59	83.50	42.54	-40.8	-43.0	17.3	0.00e+00	0	38	0	0	53	4548
2026-01-25 09:14:39.31	82.22	42.82	-40.4	-42.3	17.9	0.00e+00	0	38	0	0	52	4492
2026-01-25 09:14:42.61	80.63	43.13	-40.8	-42.9	17.4	0.00e+00	0	38	0	0	52	4776
2026-01-25 09:14:45.33	79.30	43.37	-41.1	-43.2	17.1	0.00e+00	0	39	0	0	53	4666
2026-01-25 09:14:48.66	77.64	43.64	-41.0	-43.1	17.2	0.00e+00	0	38	0	0	53	4608
2026-01-25 09:14:51.36	76.27	43.84	-40.9	-42.9	17.4	0.00e+00	0	38	0	0	53	4519
2026-01-25 09:14:54.76	74.53	44.07	-40.7	-42.6	17.7	0.00e+00	0	38	0	0	53	4382
2026-01-25 09:14:57.46	73.13	44.24	-39.9	-41.8	18.6	0.00e+00	0	38	0	0	51	4455
2026-01-25 09:15:00.74	71.42	44.41	-40.6	-42.6	17.5	0.00e+00	0	38	0	0	52	4647
2026-01-25 09:15:03.44	69.99	44.53	-40.3	-42.2	18.0	0.00e+00	0	38	0	0	52	4425
2026-01-25 09:15:06.73	68.24	44.65	-40.5	-42.4	17.8	0.00e+00	0	38	0	0	52	4541
2026-01-25 09:15:09.43	66.79	44.72	-40.4	-42.3	18.0	0.00e+00	0	38	0	0	52	4453
2026-01-25 09:15:12.72	65.02	44.79	-40.4	-42.3	18.1	0.00e+00	0	38	0	0	52	4447
2026-01-25 09:15:15.45	63.55	44.82	-40.8	-42.8	17.6	0.00e+00	0	39	0	0	52	4729
2026-01-25 09:15:18.76	61.76	44.83	-40.6	-42.6	17.7	0.00e+00	0	38	0	0	52	4637
2026-01-25 09:15:21.48	60.29	44.81	-40.7	-42.7	17.7	0.00e+00	0	38	0	0	52	4655
2026-01-25 09:15:24.78	58.51	44.76	-42.0	-44.3	16.0	0.00e+00	0	39	0	0	54	4989
2026-01-25 09:15:27.50	57.05	44.70	-41.3	-43.4	16.9	0.00e+00	0	39	0	0	54	4537
2026-01-25 09:15:30.77	55.30	44.60	-40.9	-42.9	17.5	0.00e+00	0	38	0	0	53	4525
2026-01-25 09:15:33.47	53.87	44.49	-41.1	-43.2	17.1	0.00e+00	0	39	0	0	53	4658
2026-01-25 09:15:36.75	52.15	44.34	-40.5	-42.4	18.0	0.00e+00	0	39	0	0	52	4514
2026-01-25 09:15:39.52	50.70	44.18	-41.1	-43.1	17.2	0.00e+00	0	38	0	0	52	4925
2026-01-25 09:15:42.79	49.02	43.98	-40.5	-42.4	17.9	0.00e+00	0	38	0	0	52	4532
2026-01-25 09:15:45.56	47.61	43.78	-41.1	-43.2	17.0	0.00e+00	0	39	0	0	53	4701
2026-01-25 09:15:48.86	45.95	43.53	-41.6	-43.8	16.5	0.00e+00	0	38	0	0	53	5031
2026-01-25 09:15:51.57	44.61	43.30	-41.9	-44.2	16.2	0.00e+00	0	39	0	0	54	4975
2026-01-25 09:15:55.13	42.88	42.98	-41.7	-43.9	16.5	0.00e+00	0	38	0	0	54	4785
2026-01-25 09:15:57.84	41.59	42.71	-43.0	-45.6	14.9	0.00e+00	0	39	0	0	57	4884
2026-01-25 09:16:01.08	40.08	42.38	-40.7	-42.8	17.4	0.00e+00	0	39	0	0	53	4442
2026-01-25 09:16:03.92	38.78	42.07	-41.0	-43.1	17.2	0.00e+00	0	39	0	0	53	4631
2026-01-25 09:16:07.05	37.37	41.72	-40.9	-43.0	17.4	0.00e+00	0	38	0	0	53	4562
2026-01-25 09:16:09.89	36.12	41.38	-40.0	-41.8	18.5	0.00e+00	0	39	0	0	51	4491
2026-01-25 09:16:13.12	34.73	40.99	-41.4	-43.6	16.8	0.00e+00	0	39	0	0	53	4877
2026-01-25 09:16:16.05	33.51	40.62	-39.8	-41.6	18.7	0.00e+00	0	38	0	0	51	4370
2026-01-25 09:16:19.04	32.28	40.23	-40.5	-42.5	17.7	0.00e+00	0	39	0	0	51	4821
2026-01-25 09:16:22.02	31.09	39.83	-41.0	-43.2	17.0	0.00e+00	0	39	0	0	54	4394
2026-01-25 09:16:25.01	29.92	39.42	-38.7	-40.4	19.8	0.00e+00	0	39	0	0	49	4269
2026-01-25 09:16:27.99	28.79	39.00	-40.6	-42.6	17.7	0.00e+00	0	39	0	0	52	4629
2026-01-25 09:16:30.97	27.69	38.58	-40.2	-42.1	17.9	0.00e+00	0	39	0	0	52	4383
2026-01-25 09:16:33.96	26.61	38.15	-39.2	-41.0	19.3	0.00e+00	0	39	0	0	50	4326
2026-01-25 09:16:36.99	25.55	37.70	-40.9	-43.1	17.1	0.00e+00	0	39	0	0	52	4874
2026-01-25 09:16:39.94	24.54	37.27	-39.2	-41.0	19.2	0.00e+00	0	39	0	0	50	4331
2026-01-25 09:16:42.93	23.55	36.82	-39.2	-41.0	19.3	0.00e+00	0	39	0	0	49	4553
2026-01-25 09:16:45.91	22.59	36.37	-40.6	-42.6	17.7	0.00e+00	0	39	0	0	51	4880
2026-01-25 09:16:48.89	21.65	35.92	-39.5	-41.4	18.7	0.00e+00	0	39	0	0	51	4263
2026-01-25 09:16:51.88	20.74	35.47	-39.4	-41.3	18.9	0.00e+00	0	39	0	0	50	4470
2026-01-25 09:16:54.87	19.85	35.01	-40.2	-42.2	18.0	0.00e+00	0	39	0	0	51	4674
2026-01-25 09:16:57.85	18.99	34.56	-39.3	-41.0	19.1	0.00e+00	0	39	0	0	50	4340
2026-01-25 09:17:00.84	18.15	34.10	-39.4	-41.3	19.0	0.00e+00	0	39	0	0	50	4442
2026-01-25 09:17:03.83	17.33	33.64	-39.4	-41.3	18.9	0.00e+00	0	39	0	0	50	4456
2026-01-25 09:17:06.88	16.52	33.18	-39.2	-41.0	19.1	0.00e+00	0	39	0	0	50	4295
2026-01-25 09:17:09.83	15.76	32.73	-38.7	-40.4	19.7	0.00e+00	0	39	0	0	49	4251
2026-01-25 09:17:12.96	14.98	32.25	-38.9	-40.7	19.6	0.00e+00	0	39	0	0	49	4402
2026-01-25 09:17:15.80	14.29	31.82	-39.4	-41.3	18.9	0.00e+00	0	39	0	0	49	4724
2026-01-25 09:17:18.92	13.55	31.35	-39.3	-41.1	19.0	0.00e+00	0	39	0	0	49	4644
2026-01-25 09:17:21.77	12.90	30.92	-38.8	-40.6	19.5	0.00e+00	0	39	0	0	49	4387
2026-01-25 09:17:24.93	12.19	30.45	-38.8	-40.6	19.5	0.00e+00	0	39	0	0	49	4348
2026-01-25 09:17:27.77	11.57	30.02	-38.6	-40.3	19.8	0.00e+00	0	39	0	0	49	4231
2026-01-25 09:17:31.10	10.87	29.53	-38.3	-40.1	20.1	0.00e+00	0	39	0	0	48	4344
2026-01-25 09:17:33.90	10.29	29.12	-38.3	-40.1	20.0	0.00e+00	0	39	0	0	48	4351
2026-01-25 09:17:37.02	9.67	28.67	-38.3	-40.0	19.9	0.00e+00	0	39	0	0	48	4326
2026-01-25 09:17:39.86	9.12	28.26	-38.2	-39.9	20.0	0.00e+00	0	39	0	0	48	4275
2026-01-25 09:17:43.03	8.52	27.80	-37.9	-39.6	20.3	0.00e+00	0	39	0	0	47	4375
2026-01-25 09:17:45.88	7.99	27.40	-38.2	-39.9	20.0	0.00e+00	0	39	0	0	47	4543
2026-01-25 09:17:49.01	7.43	26.96	-38.3	-40.1	19.8	0.00e+00	0	39	0	0	47	4623
2026-01-25 09:17:51.85	6.94	26.56	-38.3	-40.1	19.8	0.00e+00	0	39	0	0	47	4616
2026-01-25 09:17:54.98	6.41	26.13	-38.2	-39.9	20.0	0.00e+00	0	39	0	0	47	4496
2026-01-25 09:17:57.90	5.92	25.73	-38.1	-39.8	20.2	0.00e+00	0	39	0	0	47	4449
2026-01-25 09:18:01.09	5.41	25.29	-38.0	-39.8	20.2	0.00e+00	0	39	0	0	47	4447
2026-01-25 09:18:03.93	4.97	24.91	-37.9	-39.6	20.3	0.00e+00	0	39	0	0	47	4381
2026-01-25 09:18:07.06	4.49	24.49	-37.8	-39.5	20.4	0.00e+00	0	39	0	0	47	4306
2026-01-25 09:18:10.04	4.04	24.10	-37.9	-39.7	20.3	0.00e+00	0	39	0	0	47	4393
2026-01-25 09:18:13.02	3.61	23.71	-38.1	-39.9	20.0	0.00e+00	0	39	0	0	47	4501
2026-01-25 09:18:16.01	3.19	23.33	-38.3	-40.1	19.8	0.00e+00	0	39	0	0	47	4627
2026-01-25 09:18:18.99	2.78	22.95	-38.5	-40.3	19.6	0.00e+00	0	39	0	0	47	4725
2026-01-25 09:18:21.97	2.38	22.57	-38.2	-40.0	19.9	0.00e+00	0	39	0	0	47	4559
2026-01-25 09:18:24.93	1.99	22.20	-38.2	-40.0	19.9	0.00e+00	0	39	0	0	47	4577
2026-01-25 09:18:27.92	1.61	21.83	-38.0	-39.7	20.1	0.00e+00	0	39	0	0	47	4407
2026-01-25 09:18:30.99	1.22	21.46	-37.8	-39.5	20.3	0.00e+00	0	39	0	0	47	4333
2026-01-25 09:18:33.83	0.88	21.11	-37.7	-39.5	20.4	0.00e+00	0	39	0	0	47	4295
2026-01-25 09:18:36.96	0.50	20.74	-37.9	-39.6	20.2	0.00e+00	0	39	0	0	47	4358
2026-01-25 09:18:39.80	0.17	20.40	-38.2	-40.0	19.9	0.00e+00	0	39	0	0	47	4549
2026-01-25 09:18:42.92	359.82	20.04	-38.3	-40.1	19.7	0.00e+00	0	39	0	0	47	4631
2026-01-25 09:18:45.77	359.50	19.71	-38.1	-39.9	19.8	0.00e+00	0	39	0	0	47	4513
2026-01-25 09:18:48.89	359.16	19.35	-37.9	-39.6	20.0	0.00e+00	0	39	0	0	47	4380
2026-01-25 09:18:51.73	358.86	19.03	-38.1	-39.8	19.9	0.00e+00	0	39	0	0	47	4460
2026-01-25 09:18:54.86	358.54	18.68	-38.1	-39.9	19.9	0.00e+00	0	39	0	0	47	4513
2026-01-25 09:18:57.70	358.25	18.36	-38.3	-40.2	19.7	0.00e+00	0	39	0	0	47	4657
2026-01-25 09:19:01.18	357.91	17.98	-38.5	-40.4	19.5	0.00e+00	0	39	0	0	47	4772
2026-01-25 09:19:03.96	357.64	17.68	-38.8	-40.6	19.4	0.00e+00	0	38	0	0	48	4627
2026-01-25 09:19:07.23	357.33	17.33	-38.9	-40.8	19.2	0.00e+00	0	39	0	0	48	4748
2026-01-25 09:19:09.93	357.08	17.04	-39.1	-41.0	19.0	0.00e+00	0	39	0	0	48	4856
2026-01-25 09:19:13.23	356.78	16.70	-39.2	-41.2	18.9	0.00e+00	0	39	0	0	49	4655
2026-01-25 09:19:16.20	356.52	16.39	-39.1	-41.0	19.0	0.00e+00	0	39	0	0	49	4583
2026-01-25 09:19:19.74	356.21	16.02	-39.0	-40.9	19.1	0.00e+00	0	39	0	0	49	4515
2026-01-25 09:19:22.43	355.98	15.75	-39.0	-40.9	19.1	0.00e+00	0	39	0	0	49	4499
2026-01-25 09:19:25.72	355.71	15.42	-38.7	-40.5	19.5	0.00e+00	0	39	0	0	49	4314
2026-01-25 09:19:28.48	355.49	15.15	-38.7	-40.5	19.4	0.00e+00	0	39	0	0	49	4340
2026-01-25 09:19:31.74	355.23	14.83	-38.8	-40.7	19.3	0.00e+00	0	39	0	0	49	4412
2026-01-25 09:19:34.59	355.01	14.55	-38.9	-40.8	19.2	0.00e+00	0	39	0	0	49	4471
2026-01-25 09:19:37.71	354.77	14.25	-39.1	-41.0	19.0	0.00e+00	0	39	0	0	49	4577
2026-01-25 09:19:40.56	354.56	13.98	-39.3	-41.2	18.9	0.00e+00	0	39	0	0	49	4671
2026-01-25 09:19:43.78	354.32	13.67	-39.4	-41.4	18.7	0.00e+00	0	39	0	0	49	4760
2026-01-25 09:19:46.70	354.11	13.40	-39.4	-41.4	18.6	0.00e+00	0	39	0	0	49	4799
2026-01-25 09:19:50.20	353.87	13.08	-39.2	-41.4	18.5	0.00e+00	0	39	0	0	49	4787
2026-01-25 09:19:52.90	353.68	12.83	-39.1	-41.4	18.5	0.00e+00	0	39	0	0	49	4805
2026-01-25 09:19:56.16	353.46	12.53	-39.2	-41.4	18.4	0.00e+00	0	39	0	0	49	4814
2026-01-25 09:19:59.00	353.27	12.28	-39.1	-41.4	18.5	0.00e+00	0	39	0	0	49	4774
2026-01-25 09:20:02.13	353.07	12.00	-39.2	-41.3	18.5	0.00e+00	0	39	0	0	49	4746
2026-01-25 09:20:04.97	352.89	11.75	-39.3	-41.4	18.4	0.00e+00	0	39	0	0	49	4800
2026-01-25 09:20:08.09	352.70	11.48	-39.0	-41.3	18.5	0.00e+00	0	39	0	0	49	4753
2026-01-25 09:20:11.00	352.52	11.23	-38.9	-41.3	18.5	0.00e+00	0	39	0	0	49	4743
2026-01-25 09:20:13.98	352.34	10.97	-38.7	-41.4	18.4	0.00e+00	0	39	0	0	49	4803
2026-01-25 09:20:16.97	352.16	10.72	-38.6	-41.4	18.4	0.00e+00	0	39	0	0	49	4800
2026-01-25 09:20:19.96	351.99	10.47	-38.9	-41.5	18.4	0.00e+00	0	39	0	0	49	4862
2026-01-25 09:20:22.94	351.82	10.22	-39.2	-41.6	18.3	0.00e+00	0	39	0	0	49	4897
2026-01-25 09:20:25.93	351.65	9.97	-39.4	-41.8	18.2	0.00e+00	0	39	0	0	49	4993
2026-01-25 09:20:28.91	351.49	9.73	-39.3	-41.8	18.2	0.00e+00	0	39	0	0	49	4995
2026-01-25 09:20:31.90	351.33	9.49	-39.3	-41.9	18.0	0.00e+00	0	39	0	0	49	5081
2026-01-25 09:20:34.95	351.17	9.24	-39.5	-42.2	17.7	0.00e+00	0	39	0	0	49	5236
2026-01-25 09:20:37.82	351.02	9.02	-39.6	-42.3	17.6	0.00e+00	0	39	0	0	49	5287
2026-01-25 09:20:40.94	350.86	8.77	-47.5	-61.4	3.8	1.49e+00	0	39	104	0	66	18055
2026-01-25 09:20:43.78	350.71	8.55	-48.0	-61.7	3.8	1.49e+00	0	39	104	0	67	17672
2026-01-25 09:20:46.90	350.56	8.30	-48.3	-62.0	3.8	1.49e+00	0	39	104	0	68	17154
2026-01-25 09:20:49.74	350.42	8.09	-48.8	-62.1	3.8	1.49e+00	0	39	104	0	68	17322
2026-01-25 09:20:52.86	350.27	7.85	-49.1	-62.1	3.8	1.49e+00	0	39	104	0	68	17347
2026-01-25 09:20:55.70	350.14	7.63	-49.0	-62.1	3.8	1.49e+00	0	39	104	0	68	17435
2026-01-25 09:20:58.82	349.99	7.40	-48.9	-62.1	3.8	1.49e+00	0	39	104	0	68	17363
2026-01-25 09:21:01.66	349.87	7.19	-49.2	-62.1	3.8	1.49e+00	0	39	104	0	69	16484
2026-01-25 09:21:04.78	349.73	6.96	-49.0	-62.1	3.8	1.49e+00	0	39	104	0	69	16434
2026-01-25 09:21:07.62	349.60	6.75	-48.7	-62.1	3.8	1.49e+00	0	39	104	0	69	16381
2026-01-25 09:21:10.74	349.47	6.52	-48.7	-62.1	3.8	1.49e+00	0	39	104	0	69	16334
2026-01-25 09:21:13.58	349.35	6.31	-48.7	-62.1	3.8	1.49e+00	0	39	104	0	69	16329
2026-01-25 09:21:16.70	349.22	6.09	-48.7	-62.1	3.8	1.49e+00	0	39	104	0	69	16331
2026-01-25 09:21:19.54	349.10	5.89	-48.7	-62.0	3.8	1.49e+00	0	39	104	0	69	16312
2026-01-25 09:21:22.66	348.97	5.67	-48.7	-62.0	3.8	1.49e+00	0	39	104	0	69	16270
2026-01-25 09:21:25.50	348.86	5.47	-48.7	-62.0	3.8	1.49e+00	0	39	104	0	69	16303
2026-01-25 09:21:28.62	348.74	5.25	-48.7	-62.0	3.8	1.49e+00	0	39	104	0	69	16272
2026-01-25 09:21:31.46	348.63	5.06	-48.7	-62.0	3.8	1.49e+00	0	39	104	0	69	16299

#Closed at: 2026-01-25 09:21:33
#Recorded file [0 MB]: D:/Data/31040_260125_120906.dat