passes_logs/2026/01/25/T1/T1__20260125_232903_SUOMI_NPP_rec.log

#Pass ID: 20260125_232903_SUOMI NPP
#Satellite: SUOMI NPP
#Configuration: NPP
#almurnet v.1.7.20251203
#Start time: 2026-01-25 23:29:04

#Version: 2.0.20230620
#Station: T1
#Location: 37.570604 lon 55.790049 lat
#TLE: 1 37849U 11061A   26025.53586395  .00000179  00000+0  10601-3 0  9996
#TLE: 2 37849  98.7821 327.4943 0002169  45.6246 314.5108 14.19529815738202

#Time	Az	El	Level	Level2	SNR	BER	BlckErr	Temp	State	Recorded	gain1	gain2
2026-01-25 23:29:04.05	18.38	5.06	-46.2	-63.2	3.8	1.49e+00	0	39	0	0	63	26417
2026-01-25 23:29:08.02	18.45	5.35	-46.2	-63.1	3.8	1.49e+00	0	40	104	0	63	25938
2026-01-25 23:29:11.99	18.53	5.63	-46.2	-63.0	3.8	1.49e+00	0	40	104	0	63	25657
2026-01-25 23:29:15.96	18.61	5.92	-46.2	-63.0	3.8	1.49e+00	0	40	104	0	63	25828
2026-01-25 23:29:19.93	18.70	6.21	-46.2	-63.2	3.8	1.49e+00	0	40	104	0	63	26258
2026-01-25 23:29:23.91	18.78	6.51	-46.2	-63.1	3.8	1.49e+00	0	40	104	0	63	25955
2026-01-25 23:29:27.88	18.86	6.81	-46.2	-62.4	3.8	1.49e+00	0	40	104	0	63	24126
2026-01-25 23:29:31.85	18.95	7.11	-46.1	-61.3	3.8	1.49e+00	0	40	104	0	63	21101
2026-01-25 23:29:35.82	19.04	7.41	-46.1	-60.2	4.1	1.47e+00	0	40	104	0	63	18589
2026-01-25 23:29:39.80	19.13	7.72	-46.0	-59.7	4.2	1.40e+00	0	41	0	0	63	17508
2026-01-25 23:29:43.77	19.22	8.03	-46.0	-59.2	4.3	1.34e+00	0	41	0	0	63	16587
2026-01-25 23:29:47.75	19.31	8.35	-45.9	-57.1	5.3	6.80e-01	0	41	0	7340032	63	13088
2026-01-25 23:29:51.72	19.40	8.67	-45.3	-53.5	8.3	5.89e-02	0	41	0	14680064	62	9137
2026-01-25 23:29:55.69	19.50	9.00	-44.6	-50.9	11.1	1.70e-03	0	41	0	22020096	61	7148
2026-01-25 23:29:59.67	19.60	9.33	-44.6	-49.7	12.6	0.00e+00	0	41	0	29360128	59	6979
2026-01-25 23:30:03.65	19.70	9.66	-41.7	-44.7	17.1	0.00e+00	0	41	0	36700160	55	4960
2026-01-25 23:30:07.72	19.80	10.01	-41.3	-44.2	17.6	0.00e+00	0	41	0	45088768	54	4966
2026-01-25 23:30:11.73	19.90	10.35	-41.1	-43.9	17.8	0.00e+00	0	41	0	52428800	53	5060
2026-01-25 23:30:15.87	20.01	10.72	-41.0	-43.8	18.0	0.00e+00	0	41	0	59768832	53	4999
2026-01-25 23:30:19.85	20.12	11.07	-40.8	-43.6	18.2	0.00e+00	0	41	0	67108864	53	4894
2026-01-25 23:30:23.83	20.23	11.43	-40.8	-43.6	18.2	0.00e+00	0	41	0	75497472	53	4899
2026-01-25 23:30:27.74	20.34	11.78	-40.7	-43.4	18.4	0.00e+00	0	41	0	82837504	53	4806
2026-01-25 23:30:31.95	20.46	12.17	-40.6	-43.3	18.5	0.00e+00	0	41	0	90177536	53	4742
2026-01-25 23:30:35.93	20.58	12.55	-40.7	-43.4	18.4	0.00e+00	0	41	0	97517568	53	4801
2026-01-25 23:30:40.00	20.70	12.94	-40.5	-43.1	18.7	0.00e+00	0	41	0	104857600	52	4914
2026-01-25 23:30:44.23	20.83	13.35	-40.6	-43.2	18.7	0.00e+00	0	41	0	113246208	52	4956
2026-01-25 23:30:48.23	20.96	13.75	-40.6	-43.1	18.8	0.00e+00	0	41	0	120586240	52	4877
2026-01-25 23:30:52.21	21.08	14.15	-40.7	-43.1	18.8	0.00e+00	0	41	0	127926272	52	4905
2026-01-25 23:30:56.32	21.22	14.57	-40.8	-43.2	18.7	0.00e+00	0	41	0	136314880	52	4975
2026-01-25 23:31:00.83	21.37	15.03	-40.9	-43.3	18.7	0.00e+00	0	41	0	144703488	52	5007
2026-01-25 23:31:04.81	21.51	15.46	-40.7	-43.1	18.8	0.00e+00	0	42	0	152043520	52	4883
2026-01-25 23:31:08.79	21.65	15.88	-40.6	-43.0	18.8	0.00e+00	0	41	0	159383552	52	4861
2026-01-25 23:31:12.77	21.80	16.32	-40.7	-43.2	18.8	0.00e+00	0	41	0	166723584	52	4945
2026-01-25 23:31:16.78	21.95	16.77	-40.7	-43.2	18.7	0.00e+00	0	41	0	174063616	52	4971
2026-01-25 23:31:20.72	22.10	17.22	-41.3	-43.9	18.1	0.00e+00	0	41	0	181403648	53	5055
2026-01-25 23:31:24.69	22.26	17.68	-41.3	-43.9	18.1	0.00e+00	0	41	0	188743680	53	5050
2026-01-25 23:31:28.66	22.42	18.14	-41.2	-43.8	18.2	0.00e+00	0	41	0	197132288	53	4995
2026-01-25 23:31:32.64	22.59	18.62	-41.4	-43.9	18.1	0.00e+00	0	41	0	204472320	53	5080
2026-01-25 23:31:36.61	22.76	19.11	-41.5	-44.2	17.8	0.00e+00	0	41	0	211812352	53	5229
2026-01-25 23:31:40.60	22.93	19.61	-41.5	-44.1	17.9	0.00e+00	0	41	0	219152384	54	4913
2026-01-25 23:31:44.75	23.12	20.14	-41.9	-44.6	17.5	0.00e+00	0	41	0	226492416	54	5160
2026-01-25 23:31:48.74	23.31	20.66	-41.6	-44.2	17.8	0.00e+00	0	41	0	233832448	54	4969
2026-01-25 23:31:52.73	23.51	21.19	-41.2	-43.8	18.3	0.00e+00	0	41	0	242221056	54	4718
2026-01-25 23:31:56.72	23.71	21.73	-41.2	-43.8	18.2	0.00e+00	0	41	0	249561088	54	4746
2026-01-25 23:32:00.73	23.91	22.28	-41.0	-43.6	18.4	0.00e+00	0	42	0	256901120	53	4919
2026-01-25 23:32:04.72	24.13	22.85	-41.1	-43.7	18.3	0.00e+00	0	41	0	264241152	53	4983
2026-01-25 23:32:08.96	24.36	23.46	-41.2	-43.8	18.2	0.00e+00	0	41	0	272629760	53	5041
2026-01-25 23:32:12.94	24.59	24.05	-41.4	-43.9	18.1	0.00e+00	0	41	0	279969792	53	5090
2026-01-25 23:32:17.01	24.84	24.67	-41.8	-44.4	17.7	0.00e+00	0	41	0	287309824	54	5072
2026-01-25 23:32:21.00	25.08	25.28	-41.3	-43.8	18.3	0.00e+00	0	41	0	294649856	54	4706
2026-01-25 23:32:24.98	25.34	25.91	-41.2	-43.6	18.4	0.00e+00	0	41	0	301989888	54	4640
2026-01-25 23:32:29.15	25.62	26.59	-40.9	-43.2	18.8	0.00e+00	0	41	0	310378496	53	4691
2026-01-25 23:32:33.29	25.90	27.28	-40.5	-42.7	19.3	0.00e+00	0	41	0	317718528	52	4683
2026-01-25 23:32:37.27	26.19	27.96	-40.1	-42.2	19.7	0.00e+00	0	41	0	325058560	52	4434
2026-01-25 23:32:41.25	26.49	28.65	-40.6	-42.9	19.2	0.00e+00	0	41	0	332398592	52	4783
2026-01-25 23:32:45.23	26.81	29.36	-40.9	-43.4	18.7	0.00e+00	0	41	0	339738624	52	5069
2026-01-25 23:32:49.27	27.14	30.10	-41.9	-44.6	17.5	0.00e+00	0	41	0	348127232	54	5209
2026-01-25 23:32:53.30	27.48	30.86	-43.0	-46.0	16.4	0.00e+00	0	42	0	355467264	56	5451
2026-01-25 23:32:57.37	27.85	31.64	-43.0	-46.0	16.4	0.00e+00	0	41	0	362807296	56	5452
2026-01-25 23:33:01.36	28.22	32.43	-43.3	-46.4	16.1	0.00e+00	0	41	0	370147328	57	5389
2026-01-25 23:33:05.34	28.61	33.23	-43.3	-46.4	16.0	0.00e+00	0	41	0	377487360	57	5397
2026-01-25 23:33:09.33	29.02	34.06	-42.9	-45.8	16.6	0.00e+00	0	41	0	384827392	57	4999
2026-01-25 23:33:13.33	29.46	34.91	-42.9	-45.7	16.7	0.00e+00	0	41	0	393216000	57	4959
2026-01-25 23:33:17.32	29.91	35.79	-43.4	-46.3	16.0	0.00e+00	0	41	0	400556032	57	5340
2026-01-25 23:33:21.65	30.44	36.76	-43.5	-46.5	16.0	0.00e+00	0	41	0	408944640	57	5426
2026-01-25 23:33:25.67	30.95	37.68	-43.9	-47.1	15.4	0.00e+00	0	41	0	416284672	58	5509
2026-01-25 23:33:29.66	31.49	38.63	-43.7	-46.9	15.6	0.00e+00	0	42	0	423624704	59	5097
2026-01-25 23:33:33.82	32.08	39.63	-44.1	-47.5	14.9	7.00e-07	0	41	0	430964736	59	5427
2026-01-25 23:33:38.54	32.80	40.81	-44.7	-48.3	14.2	3.80e-06	0	41	0	440401920	60	5656
2026-01-25 23:33:43.09	33.55	41.98	-44.0	-47.4	15.1	0.00e+00	0	41	0	448790528	59	5342
2026-01-25 23:33:48.21	34.45	43.33	-43.1	-46.0	16.4	0.00e+00	0	41	0	458227712	58	4861
2026-01-25 23:33:52.75	35.32	44.56	-41.7	-44.3	17.9	0.00e+00	0	41	0	466616320	55	4727
2026-01-25 23:33:57.30	36.26	45.83	-42.3	-45.0	17.2	0.00e+00	0	41	0	475004928	55	5154
2026-01-25 23:34:01.90	37.29	47.15	-42.9	-45.7	16.7	0.00e+00	0	41	0	483393536	56	5264
2026-01-25 23:34:06.55	38.42	48.51	-42.4	-45.0	17.4	0.00e+00	0	41	0	492830720	56	4836
2026-01-25 23:34:10.54	39.48	49.70	-41.0	-43.3	18.9	0.00e+00	0	41	0	500170752	53	4724
2026-01-25 23:34:14.52	40.62	50.91	-41.4	-43.8	18.4	0.00e+00	0	41	0	507510784	54	4755
2026-01-25 23:34:18.49	41.85	52.14	-40.6	-42.9	19.1	0.00e+00	0	41	0	514850816	53	4503
2026-01-25 23:34:22.48	43.19	53.39	-40.0	-42.2	20.0	0.00e+00	0	41	0	522190848	51	4673
2026-01-25 23:34:26.45	44.64	54.65	-39.4	-41.4	20.6	0.00e+00	0	41	0	529530880	50	4532
2026-01-25 23:34:30.43	46.23	55.92	-39.5	-41.6	20.4	0.00e+00	0	41	0	537919488	49	4921
2026-01-25 23:34:34.46	48.00	57.22	-39.0	-40.9	21.0	0.00e+00	0	41	0	545259520	49	4523
2026-01-25 23:34:38.43	49.91	58.50	-39.3	-41.3	20.8	0.00e+00	0	41	0	552599552	49	4723
2026-01-25 23:34:42.41	52.02	59.78	-40.2	-42.3	19.9	0.00e+00	0	41	0	559939584	51	4737
2026-01-25 23:34:46.40	54.35	61.05	-41.2	-43.6	18.6	0.00e+00	0	41	0	567279616	53	4894
2026-01-25 23:34:50.38	56.92	62.29	-39.6	-41.7	20.4	0.00e+00	0	41	0	574619648	51	4409
2026-01-25 23:34:54.36	59.76	63.51	-40.3	-42.4	19.7	0.00e+00	0	41	0	581959680	51	4809
2026-01-25 23:34:58.34	62.90	64.68	-39.2	-41.2	20.8	0.00e+00	0	41	0	589299712	49	4678
2026-01-25 23:35:02.32	66.38	65.79	-39.3	-41.3	20.7	0.00e+00	0	41	0	597688320	50	4491
2026-01-25 23:35:06.30	70.21	66.83	-41.4	-43.8	18.5	0.00e+00	0	41	0	605028352	53	4991
2026-01-25 23:35:10.26	74.40	67.78	-41.5	-43.9	18.3	0.00e+00	0	41	0	612368384	54	4806
2026-01-25 23:35:14.24	78.99	68.62	-43.6	-46.8	15.8	7.00e-07	0	41	0	619708416	58	5305
2026-01-25 23:35:18.22	83.96	69.33	-42.8	-45.6	16.9	0.00e+00	0	41	0	627048448	57	4904
2026-01-25 23:35:22.26	89.35	69.89	-42.4	-45.1	17.2	0.00e+00	0	41	0	634388480	56	4896
2026-01-25 23:35:26.26	94.96	70.29	-40.3	-42.6	19.5	0.00e+00	0	41	0	641728512	52	4638
2026-01-25 23:35:30.25	100.75	70.50	-41.5	-43.9	18.3	0.00e+00	0	41	0	650117120	53	5077
2026-01-25 23:35:34.23	106.59	70.52	-42.3	-45.0	17.3	0.00e+00	0	41	0	657457152	55	5102
2026-01-25 23:35:38.21	112.39	70.36	-43.0	-45.9	16.6	0.00e+00	0	41	0	664797184	57	5051
2026-01-25 23:35:42.21	118.06	70.00	-44.4	-47.9	14.6	7.00e-07	0	41	0	672137216	60	5386
2026-01-25 23:35:46.71	124.13	69.41	-42.8	-45.6	17.0	0.00e+00	0	41	0	680525824	56	5202
2026-01-25 23:35:50.71	129.17	68.71	-41.6	-44.1	18.2	0.00e+00	0	41	0	687865856	54	4894
2026-01-25 23:35:54.71	133.84	67.88	-42.9	-45.7	16.8	0.00e+00	0	41	0	695205888	56	5224
2026-01-25 23:35:58.75	138.16	66.92	-39.7	-41.8	20.3	0.00e+00	0	41	0	702545920	51	4452
2026-01-25 23:36:02.75	142.05	65.88	-39.8	-41.9	20.2	0.00e+00	0	41	0	710934528	51	4512
2026-01-25 23:36:06.73	145.56	64.77	-38.4	-40.3	21.5	0.00e+00	0	41	0	718274560	47	4751
2026-01-25 23:36:10.72	148.74	63.60	-39.7	-41.8	20.3	0.00e+00	0	41	0	725614592	50	4759
2026-01-25 23:36:14.73	151.63	62.38	-39.4	-41.5	20.5	0.00e+00	0	41	0	732954624	49	4826
2026-01-25 23:36:18.89	154.34	61.07	-39.0	-40.9	21.0	0.00e+00	0	41	0	740294656	48	4792
2026-01-25 23:36:22.90	156.69	59.79	-38.7	-40.6	21.2	0.00e+00	0	41	0	748683264	49	4378
2026-01-25 23:36:26.89	158.81	58.51	-39.9	-42.0	20.1	0.00e+00	0	41	0	756023296	50	4828
2026-01-25 23:36:31.06	160.82	57.16	-40.2	-42.4	19.7	0.00e+00	0	41	0	763363328	51	4788
2026-01-25 23:36:35.41	162.72	55.76	-38.4	-40.3	21.7	0.00e+00	0	41	0	771751936	48	4448
2026-01-25 23:36:39.44	164.31	54.46	-38.5	-40.4	21.4	0.00e+00	0	41	0	779091968	48	4542
2026-01-25 23:36:43.42	165.76	53.20	-40.0	-42.1	20.1	0.00e+00	0	41	0	786432000	50	4893
2026-01-25 23:36:47.44	167.10	51.94	-38.4	-40.3	21.5	0.00e+00	0	41	0	793772032	48	4479
2026-01-25 23:36:51.74	168.41	50.60	-40.6	-42.9	19.2	0.00e+00	0	41	0	802160640	52	4779
2026-01-25 23:36:55.84	169.56	49.36	-40.4	-42.7	19.5	0.00e+00	0	41	0	809500672	51	4928
2026-01-25 23:36:59.82	170.59	48.17	-43.1	-46.0	16.5	0.00e+00	0	41	0	817889280	56	5404
2026-01-25 23:37:03.80	171.55	47.00	-43.5	-46.5	15.9	0.00e+00	0	41	0	825229312	57	5445
2026-01-25 23:37:07.75	172.44	45.87	-42.9	-45.8	16.7	0.00e+00	0	41	0	832569344	56	5285
2026-01-25 23:37:11.73	173.27	44.75	-41.3	-43.7	18.4	0.00e+00	0	41	0	839909376	54	4705
2026-01-25 23:37:15.71	174.05	43.66	-42.2	-44.9	17.3	0.00e+00	0	41	0	847249408	55	5080
2026-01-25 23:37:19.74	174.78	42.58	-42.4	-45.0	17.4	0.00e+00	0	41	0	854589440	56	4869
2026-01-25 23:37:23.73	175.46	41.53	-39.3	-41.2	20.7	0.00e+00	0	41	0	861929472	50	4441
2026-01-25 23:37:27.71	176.10	40.51	-41.3	-43.7	18.4	0.00e+00	0	41	0	870318080	53	4973
2026-01-25 23:37:31.70	176.71	39.52	-39.5	-41.6	20.4	0.00e+00	0	41	0	877658112	51	4343
2026-01-25 23:37:35.77	177.29	38.53	-41.4	-43.9	18.2	0.00e+00	0	41	0	884998144	53	5054
2026-01-25 23:37:39.93	177.85	37.54	-41.4	-43.9	18.2	0.00e+00	0	41	0	892338176	54	4786
2026-01-25 23:37:44.29	178.40	36.54	-40.5	-42.8	19.2	0.00e+00	0	41	0	900726784	52	4726
2026-01-25 23:37:48.27	178.88	35.64	-40.5	-42.8	19.2	0.00e+00	0	41	0	908066816	52	4712
2026-01-25 23:37:52.36	179.34	34.75	-43.0	-45.9	16.5	0.00e+00	0	41	0	916455424	56	5372
2026-01-25 23:37:56.55	179.79	33.85	-44.5	-48.1	14.4	7.00e-07	0	41	0	923795456	59	5811
2026-01-25 23:38:00.54	180.20	33.02	-41.8	-44.3	17.7	0.00e+00	0	41	0	931135488	55	4750
2026-01-25 23:38:04.54	180.59	32.21	-41.5	-43.9	18.1	0.00e+00	0	41	0	938475520	54	4806
2026-01-25 23:38:08.52	180.96	31.43	-42.5	-45.2	16.9	0.00e+00	0	41	0	945815552	55	5265
2026-01-25 23:38:12.69	181.33	30.62	-43.8	-47.1	15.3	0.00e+00	0	41	0	954204160	58	5501
2026-01-25 23:38:16.95	181.69	29.83	-42.8	-45.7	16.7	0.00e+00	0	41	0	962592768	57	4953
2026-01-25 23:38:20.93	182.01	29.10	-42.2	-44.9	17.3	0.00e+00	0	41	0	969932800	56	4801
2026-01-25 23:38:25.01	182.33	28.37	-41.8	-44.5	17.6	0.00e+00	0	41	0	977272832	55	4818
2026-01-25 23:38:29.22	182.64	27.64	-41.5	-44.0	18.1	0.00e+00	0	41	0	985661440	54	4831
2026-01-25 23:38:33.21	182.92	26.96	-41.0	-43.4	18.5	0.00e+00	0	41	0	993001472	54	4541
2026-01-25 23:38:37.18	183.19	26.30	-40.8	-43.2	18.7	0.00e+00	0	41	0	1000341504	53	4682
2026-01-25 23:38:41.18	183.46	25.65	-40.3	-42.5	19.3	0.00e+00	0	41	0	1007681536	52	4584
2026-01-25 23:38:45.16	183.71	25.02	-39.7	-41.8	20.1	0.00e+00	0	41	0	1015021568	51	4465
2026-01-25 23:38:49.09	183.95	24.41	-39.3	-41.3	20.4	0.00e+00	0	41	0	1022361600	50	4487
2026-01-25 23:38:53.07	184.18	23.81	-39.5	-41.6	20.2	0.00e+00	0	41	0	1029701632	50	4642
2026-01-25 23:38:57.19	184.41	23.20	-39.6	-41.7	20.2	0.00e+00	0	41	0	1037041664	50	4667
2026-01-25 23:39:01.24	184.64	22.62	-40.0	-42.2	19.7	0.00e+00	0	41	0	1045430272	50	4942
2026-01-25 23:39:05.23	184.85	22.05	-40.5	-42.8	19.1	0.00e+00	0	41	0	1052770304	51	5034
2026-01-25 23:39:09.42	185.06	21.47	-40.5	-42.9	19.0	0.00e+00	0	41	0	1060110336	52	4763
2026-01-25 23:39:13.76	185.27	20.88	-40.4	-42.8	19.1	0.00e+00	0	41	0	1068498944	52	4710
2026-01-25 23:39:17.75	185.46	20.36	-40.3	-42.6	19.3	0.00e+00	0	41	0	1075838976	51	4884
2026-01-25 23:39:21.90	185.65	19.82	-40.3	-42.6	19.3	0.00e+00	0	41	0	1084227584	51	4894
2026-01-25 23:39:26.57	185.86	19.22	-39.8	-42.0	19.8	0.00e+00	0	41	0	1092616192	51	4596
2026-01-25 23:39:30.55	186.03	18.73	-39.6	-41.8	19.9	0.00e+00	0	41	0	1099956224	51	4473
2026-01-25 23:39:34.55	186.20	18.24	-39.5	-41.8	20.0	0.00e+00	0	41	0	1107296256	51	4448
2026-01-25 23:39:38.64	186.37	17.75	-39.7	-42.0	19.8	0.00e+00	0	41	0	1115684864	51	4578
2026-01-25 23:39:42.75	186.53	17.27	-40.0	-42.3	19.5	0.00e+00	0	41	0	1123024896	51	4723
2026-01-25 23:39:46.76	186.68	16.81	-40.5	-43.0	18.8	0.00e+00	0	41	0	1130364928	52	4850
2026-01-25 23:39:50.73	186.83	16.36	-40.7	-43.2	18.6	0.00e+00	0	41	0	1137704960	52	4938
2026-01-25 23:39:54.76	186.98	15.92	-41.0	-43.7	18.1	0.00e+00	0	41	0	1145044992	52	5255
2026-01-25 23:39:58.76	187.12	15.48	-40.9	-43.5	18.3	0.00e+00	0	41	0	1153433600	53	4835
2026-01-25 23:40:02.74	187.25	15.05	-41.0	-43.7	18.0	0.00e+00	0	41	0	1160773632	53	4942
2026-01-25 23:40:06.74	187.39	14.63	-41.1	-43.7	18.1	0.00e+00	0	41	0	1168113664	53	4979
2026-01-25 23:40:10.72	187.52	14.22	-41.2	-43.9	18.0	0.00e+00	0	41	0	1175453696	53	5053
2026-01-25 23:40:14.74	187.64	13.81	-41.2	-43.8	18.0	0.00e+00	0	40	0	1182793728	53	4993
2026-01-25 23:40:18.74	187.77	13.41	-41.3	-43.9	17.9	0.00e+00	0	41	0	1190133760	53	5081
2026-01-25 23:40:22.73	187.89	13.02	-41.5	-44.1	17.6	0.00e+00	0	41	0	1197473792	53	5218
2026-01-25 23:40:26.76	188.01	12.63	-41.4	-44.1	17.7	0.00e+00	0	41	0	1205862400	54	4882
2026-01-25 23:40:30.69	188.12	12.25	-41.6	-44.3	17.5	0.00e+00	0	41	0	1213202432	54	5004
2026-01-25 23:40:34.67	188.24	11.88	-41.4	-44.1	17.7	0.00e+00	0	41	0	1220542464	54	4903
2026-01-25 23:40:38.65	188.35	11.51	-41.5	-44.2	17.6	0.00e+00	0	41	0	1227882496	54	4949
2026-01-25 23:40:42.73	188.46	11.14	-41.5	-44.2	17.6	0.00e+00	0	41	0	1235222528	54	4957
2026-01-25 23:40:46.71	188.56	10.78	-41.7	-44.5	17.3	0.00e+00	0	41	0	1242562560	54	5114
2026-01-25 23:40:50.69	188.66	10.43	-41.5	-44.2	17.5	0.00e+00	0	41	0	1249902592	54	4974
2026-01-25 23:40:54.67	188.76	10.08	-41.3	-44.0	17.7	0.00e+00	0	40	0	1258291200	54	4845
2026-01-25 23:40:59.17	188.88	9.69	-41.2	-43.8	17.8	0.00e+00	0	41	0	1266679808	54	4758
2026-01-25 23:41:03.42	188.98	9.33	-41.1	-43.8	17.9	0.00e+00	0	40	0	1274019840	54	4726
2026-01-25 23:41:07.91	189.08	8.95	-47.0	-60.6	4.5	0.00e+00	0	41	0	1282408448	64	18492
2026-01-25 23:41:11.89	189.18	8.63	-48.2	-63.6	3.8	1.49e+00	0	40	104	1282408448	67	21939
2026-01-25 23:41:15.99	189.27	8.29	-48.6	-63.8	3.8	1.49e+00	0	40	104	1282408448	67	22294
2026-01-25 23:41:20.20	189.36	7.95	-48.8	-64.0	3.8	1.49e+00	0	40	104	1282408448	68	21656
2026-01-25 23:41:24.43	189.46	7.62	-48.8	-64.0	3.8	1.49e+00	0	41	104	1282408448	68	21562
2026-01-25 23:41:28.54	189.54	7.30	-48.7	-64.0	3.8	1.49e+00	0	41	104	1282408448	68	21542
2026-01-25 23:41:32.53	189.63	6.99	-48.5	-64.0	3.8	1.49e+00	0	41	104	1282408448	68	21685
2026-01-25 23:41:36.52	189.71	6.68	-48.5	-63.9	3.8	1.49e+00	0	41	104	1282408448	68	21467
2026-01-25 23:41:40.49	189.79	6.38	-48.5	-63.9	3.8	1.49e+00	0	41	104	1282408448	68	21395
2026-01-25 23:41:44.48	189.87	6.09	-48.5	-64.0	3.8	1.49e+00	0	41	104	1282408448	68	21533
2026-01-25 23:41:48.46	189.95	5.79	-48.5	-63.9	3.8	1.49e+00	0	41	104	1282408448	68	21331
2026-01-25 23:41:52.46	190.02	5.50	-48.5	-63.9	3.8	1.49e+00	0	41	104	1282408448	68	21313
2026-01-25 23:41:56.43	190.10	5.21	-48.5	-63.9	3.8	1.49e+00	0	40	104	1282408448	68	21435

#Closed at: 2026-01-25 23:42:00
#Recorded file [1282 MB]: D:/Data/31040_260126_022904.dat