passes_logs/2026/01/25/T1/T1__20260125_022532_FENGYUN_3D_rec.log

#Pass ID: 20260125_022532_FENGYUN 3D
#Satellite: FENGYUN 3D
#Configuration: FENGYUN 3D
#almurnet v.1.7.20251203
#Start time: 2026-01-25 02:25:33

#Version: 2.0.20230620
#Station: T1
#Location: 37.570604 lon 55.790049 lat
#TLE: 1 43010U 17072A   26024.51794477  .00000040  00000+0  40682-4 0  9990
#TLE: 2 43010  98.9961 356.4820 0002494  91.2631 268.8830 14.19699550424601

#Time	Az	El	Level	Level2	SNR	BER	BlckErr	Temp	State	Recorded	gain1	gain2
2026-01-25 02:25:33.88	12.83	5.08	-46.2	-60.2	3.8	8.47e-01	0	37	0	0	64	17521
2026-01-25 02:25:37.85	12.71	5.35	-46.2	-60.2	3.8	8.46e-01	0	37	104	0	63	18535
2026-01-25 02:25:41.82	12.59	5.64	-46.2	-60.2	3.8	8.48e-01	0	37	104	0	63	18603
2026-01-25 02:25:45.80	12.46	5.92	-46.2	-60.2	3.8	8.47e-01	0	37	104	0	63	18668
2026-01-25 02:25:49.77	12.34	6.21	-46.2	-60.1	3.8	8.48e-01	0	38	104	0	63	18450
2026-01-25 02:25:53.74	12.20	6.50	-46.2	-59.4	3.8	8.47e-01	0	38	104	0	63	16940
2026-01-25 02:25:57.71	12.07	6.80	-46.1	-58.4	3.8	8.46e-01	0	37	104	0	63	15135
2026-01-25 02:26:01.69	11.94	7.09	-46.1	-58.5	3.8	8.47e-01	0	38	104	0	63	15259
2026-01-25 02:26:05.66	11.80	7.39	-46.2	-59.7	3.8	8.48e-01	0	38	104	0	63	17557
2026-01-25 02:26:09.63	11.65	7.70	-46.2	-59.9	3.8	8.47e-01	0	38	104	0	63	18024
2026-01-25 02:26:13.61	11.51	8.01	-45.7	-55.1	4.8	8.18e-01	0	38	0	0	63	10364
2026-01-25 02:26:17.58	11.36	8.32	-44.0	-49.1	9.8	1.57e-02	0	38	0	16777216	60	6188
2026-01-25 02:26:21.55	11.20	8.63	-42.4	-46.0	13.1	8.12e-05	0	38	0	39845888	56	5412
2026-01-25 02:26:25.52	11.05	8.95	-42.5	-46.1	13.0	4.57e-05	0	38	0	61865984	56	5494
2026-01-25 02:26:29.50	10.89	9.28	-42.7	-46.5	12.7	2.17e-05	0	38	0	83886080	56	5734
2026-01-25 02:26:33.48	10.72	9.60	-38.3	-40.6	18.4	0.00e+00	0	38	0	106954752	48	4636
2026-01-25 02:26:37.46	10.55	9.94	-37.5	-39.8	19.0	0.00e+00	0	38	0	128974848	46	4746
2026-01-25 02:26:41.44	10.38	10.27	-37.5	-39.7	19.2	0.00e+00	0	38	0	150994944	46	4667
2026-01-25 02:26:45.42	10.20	10.61	-37.3	-39.5	19.4	0.00e+00	0	39	0	174063616	46	4570
2026-01-25 02:26:49.40	10.02	10.96	-37.3	-39.5	19.4	0.00e+00	0	39	0	196083712	46	4559
2026-01-25 02:26:53.38	9.83	11.31	-37.4	-39.5	19.4	0.00e+00	0	39	0	218103808	46	4570
2026-01-25 02:26:57.35	9.64	11.66	-37.3	-39.4	19.5	0.00e+00	0	38	0	241172480	46	4517
2026-01-25 02:27:01.33	9.44	12.02	-37.3	-39.3	19.6	0.00e+00	0	39	0	263192576	46	4470
2026-01-25 02:27:05.31	9.24	12.38	-37.1	-39.1	19.8	0.00e+00	0	39	0	285212672	46	4369
2026-01-25 02:27:09.29	9.03	12.75	-37.0	-39.0	20.0	0.00e+00	0	39	0	308281344	46	4315
2026-01-25 02:27:13.27	8.82	13.12	-36.8	-38.8	20.1	0.00e+00	0	39	0	330301440	45	4450
2026-01-25 02:27:17.25	8.60	13.50	-37.0	-38.9	20.0	0.00e+00	0	39	0	353370112	45	4536
2026-01-25 02:27:21.23	8.37	13.89	-36.7	-38.6	20.3	0.00e+00	0	39	0	375390208	45	4375
2026-01-25 02:27:25.21	8.14	14.28	-36.6	-38.5	20.4	0.00e+00	0	39	0	397410304	45	4318
2026-01-25 02:27:29.18	7.90	14.68	-36.9	-38.8	20.1	0.00e+00	0	39	0	420478976	45	4482
2026-01-25 02:27:33.17	7.66	15.08	-37.1	-39.0	20.0	0.00e+00	0	39	0	442499072	45	4549
2026-01-25 02:27:37.15	7.40	15.49	-36.5	-38.4	20.5	0.00e+00	0	39	0	464519168	45	4256
2026-01-25 02:27:41.12	7.14	15.90	-36.4	-38.2	20.7	0.00e+00	0	39	0	486539264	44	4425
2026-01-25 02:27:45.11	6.87	16.33	-36.1	-37.9	21.0	0.00e+00	0	39	0	509607936	44	4267
2026-01-25 02:27:49.08	6.60	16.75	-35.8	-37.5	21.2	0.00e+00	0	39	0	531628032	43	4340
2026-01-25 02:27:53.06	6.31	17.19	-35.3	-37.0	21.7	0.00e+00	0	39	0	554696704	42	4325
2026-01-25 02:27:57.04	6.02	17.63	-35.4	-37.2	21.6	0.00e+00	0	39	0	576716800	42	4402
2026-01-25 02:28:01.02	5.72	18.08	-35.3	-37.0	21.7	0.00e+00	0	39	0	598736896	42	4338
2026-01-25 02:28:05.00	5.40	18.54	-35.3	-37.0	21.7	0.00e+00	0	39	0	621805568	42	4325
2026-01-25 02:28:08.98	5.08	19.01	-35.2	-37.0	21.8	0.00e+00	0	39	0	643825664	42	4296
2026-01-25 02:28:12.96	4.75	19.48	-35.2	-36.9	21.9	0.00e+00	0	39	0	665845760	42	4275
2026-01-25 02:28:16.94	4.40	19.96	-35.1	-36.8	22.0	0.00e+00	0	39	0	688914432	42	4241
2026-01-25 02:28:20.92	4.05	20.45	-35.0	-36.7	22.1	0.00e+00	0	39	0	710934528	41	4416
2026-01-25 02:28:24.89	3.68	20.95	-34.9	-36.6	22.1	0.00e+00	0	39	0	732954624	41	4391
2026-01-25 02:28:28.87	3.30	21.45	-34.8	-36.6	22.2	0.00e+00	0	39	0	756023296	41	4345
2026-01-25 02:28:32.85	2.91	21.97	-34.7	-36.4	22.4	0.00e+00	0	39	0	778043392	41	4251
2026-01-25 02:28:36.83	2.50	22.49	-34.4	-36.1	22.7	0.00e+00	0	39	0	800063488	40	4384
2026-01-25 02:28:40.80	2.08	23.03	-34.3	-36.0	22.7	0.00e+00	0	39	0	823132160	40	4328
2026-01-25 02:28:44.79	1.64	23.57	-34.4	-36.0	22.7	0.00e+00	0	39	0	845152256	40	4339
2026-01-25 02:28:48.77	1.19	24.13	-34.4	-36.0	22.7	0.00e+00	0	39	0	867172352	40	4338
2026-01-25 02:28:52.74	0.72	24.69	-34.2	-35.9	22.9	0.00e+00	0	39	0	890241024	40	4264
2026-01-25 02:28:56.72	0.23	25.26	-34.2	-35.9	22.9	0.00e+00	0	39	0	912261120	40	4253
2026-01-25 02:29:00.70	359.72	25.84	-34.2	-35.8	22.3	0.00e+00	0	39	0	934281216	40	4236
2026-01-25 02:29:04.68	359.19	26.44	-34.0	-35.7	23.1	0.00e+00	0	39	0	957349888	40	4153
2026-01-25 02:29:08.66	358.64	27.04	-34.2	-35.9	23.0	0.00e+00	0	39	0	979369984	39	4509
2026-01-25 02:29:12.64	358.08	27.66	-34.1	-35.8	23.1	0.00e+00	0	39	0	1002438656	39	4459
2026-01-25 02:29:16.61	357.48	28.28	-34.2	-35.9	23.0	0.00e+00	0	39	0	1024458752	39	4499
2026-01-25 02:29:20.59	356.87	28.92	-34.1	-35.8	23.1	0.00e+00	0	39	0	1046478848	39	4463
2026-01-25 02:29:24.57	356.22	29.57	-34.1	-35.7	23.1	0.00e+00	0	39	0	1068498944	39	4441
2026-01-25 02:29:28.55	355.55	30.23	-33.6	-35.2	23.6	0.00e+00	0	39	0	1091567616	39	4182
2026-01-25 02:29:32.53	354.86	30.90	-33.5	-35.2	23.7	0.00e+00	0	39	0	1113587712	39	4152
2026-01-25 02:29:36.51	354.13	31.57	-33.6	-35.2	23.6	0.00e+00	0	39	0	1136656384	39	4173
2026-01-25 02:29:40.49	353.36	32.26	-33.2	-34.8	24.0	0.00e+00	0	39	0	1158676480	38	4216
2026-01-25 02:29:44.47	352.57	32.97	-33.5	-35.1	23.7	0.00e+00	0	39	0	1180696576	38	4380
2026-01-25 02:29:48.45	351.74	33.68	-33.4	-35.1	23.8	0.00e+00	0	39	0	1203765248	38	4342
2026-01-25 02:29:52.43	350.87	34.40	-33.0	-34.6	24.1	0.00e+00	0	39	0	1225785344	37	4385
2026-01-25 02:29:56.41	349.96	35.12	-33.3	-35.0	23.8	0.00e+00	0	39	0	1247805440	37	4561
2026-01-25 02:30:00.40	349.01	35.86	-33.2	-34.9	23.9	0.00e+00	0	39	0	1270874112	37	4502
2026-01-25 02:30:04.38	348.01	36.61	-33.5	-35.2	23.7	0.00e+00	0	39	0	1292894208	37	4675
2026-01-25 02:30:08.35	346.97	37.36	-33.4	-35.1	23.8	0.00e+00	0	39	0	1314914304	37	4621
2026-01-25 02:30:12.33	345.88	38.12	-33.5	-35.1	23.7	0.00e+00	0	39	0	1337982976	37	4631
2026-01-25 02:30:16.32	344.73	38.88	-33.7	-35.3	23.6	0.00e+00	0	39	0	1360003072	38	4492
2026-01-25 02:30:20.29	343.53	39.64	-33.4	-35.0	23.9	0.00e+00	0	39	0	1382023168	38	4315
2026-01-25 02:30:24.28	342.26	40.41	-33.5	-35.1	23.7	0.00e+00	0	39	0	1405091840	38	4390
2026-01-25 02:30:28.26	340.94	41.18	-33.7	-35.3	23.5	0.00e+00	0	39	0	1427111936	38	4491
2026-01-25 02:30:32.24	339.55	41.95	-33.4	-35.0	23.8	0.00e+00	0	39	0	1450180608	38	4339
2026-01-25 02:30:36.22	338.10	42.71	-33.6	-35.3	23.6	0.00e+00	0	39	0	1472200704	38	4453
2026-01-25 02:30:40.20	336.57	43.46	-33.2	-34.8	24.0	0.00e+00	0	39	0	1494220800	38	4219
2026-01-25 02:30:44.18	334.97	44.21	-33.3	-34.9	23.9	0.00e+00	0	39	0	1516240896	38	4266
2026-01-25 02:30:48.16	333.29	44.94	-33.6	-35.3	23.6	0.00e+00	0	39	0	1539309568	38	4456
2026-01-25 02:30:52.14	331.53	45.66	-33.6	-35.3	23.6	0.00e+00	0	39	0	1561329664	38	4444
2026-01-25 02:30:56.12	329.70	46.36	-33.7	-35.3	23.6	0.00e+00	0	39	0	1584398336	38	4476
2026-01-25 02:31:00.10	327.77	47.03	-33.6	-35.2	23.7	0.00e+00	0	39	0	1606418432	38	4414
2026-01-25 02:31:04.08	325.77	47.68	-34.2	-35.9	23.1	0.00e+00	0	39	0	1628438528	39	4532
2026-01-25 02:31:08.06	323.68	48.30	-34.3	-36.0	23.0	0.00e+00	0	39	0	1651507200	39	4558
2026-01-25 02:31:12.04	321.51	48.89	-34.1	-35.8	23.2	0.00e+00	0	39	0	1673527296	39	4443
2026-01-25 02:31:16.02	319.25	49.44	-34.3	-36.0	22.9	0.00e+00	0	39	0	1695547392	40	4310
2026-01-25 02:31:20.00	316.92	49.94	-34.3	-36.0	23.0	0.00e+00	0	39	0	1718616064	40	4314
2026-01-25 02:31:23.98	314.51	50.40	-34.4	-36.0	22.9	0.00e+00	0	39	0	1740636160	40	4325
2026-01-25 02:31:27.96	312.03	50.80	-34.4	-36.0	22.9	0.00e+00	0	39	0	1762656256	40	4325
2026-01-25 02:31:31.94	309.48	51.15	-34.2	-35.8	23.1	0.00e+00	0	39	0	1785724928	40	4240
2026-01-25 02:31:35.92	306.88	51.44	-34.2	-35.8	23.1	0.00e+00	0	39	0	1807745024	39	4471
2026-01-25 02:31:39.90	304.24	51.67	-33.9	-35.6	23.3	0.00e+00	0	39	0	1829765120	39	4355
2026-01-25 02:31:43.88	301.56	51.84	-34.5	-36.1	22.9	0.00e+00	0	39	0	1852833792	39	4641
2026-01-25 02:31:47.86	298.85	51.94	-34.0	-35.6	23.3	0.00e+00	0	39	0	1874853888	39	4390
2026-01-25 02:31:51.83	296.14	51.97	-34.1	-35.7	23.2	0.00e+00	0	39	0	1896873984	39	4418
2026-01-25 02:31:55.81	293.42	51.94	-34.6	-36.3	22.7	0.00e+00	0	39	0	1919942656	39	4726
2026-01-25 02:31:59.79	290.72	51.84	-34.1	-35.8	23.1	0.00e+00	0	39	0	1941962752	40	4203
2026-01-25 02:32:03.77	288.03	51.67	-34.1	-35.8	23.1	0.00e+00	0	39	0	1963982848	40	4210
2026-01-25 02:32:07.75	285.38	51.44	-34.2	-35.9	23.1	0.00e+00	0	39	0	1987051520	39	4496
2026-01-25 02:32:11.73	282.78	51.15	-34.1	-35.7	23.2	0.00e+00	0	39	0	2009071616	39	4431
2026-01-25 02:32:15.71	280.24	50.80	-34.0	-35.7	23.3	0.00e+00	0	39	0	2032140288	39	4402
2026-01-25 02:32:19.69	277.75	50.40	-34.2	-35.9	23.1	0.00e+00	0	39	0	2054160384	39	4501
2026-01-25 02:32:23.66	275.34	49.94	-34.0	-35.6	23.4	0.00e+00	0	39	0	2076180480	39	4368
2026-01-25 02:32:27.64	273.00	49.44	-33.8	-35.4	23.5	0.00e+00	0	39	0	2099249152	39	4291
2026-01-25 02:32:31.62	270.74	48.89	-33.6	-35.2	23.7	0.00e+00	0	39	0	2121269248	39	4159
2026-01-25 02:32:35.60	268.57	48.30	-33.7	-35.3	23.6	0.00e+00	0	39	0	2143289344	39	4235
2026-01-25 02:32:39.58	266.47	47.68	-33.8	-35.5	23.5	0.00e+00	0	39	0	2165309440	39	4301
2026-01-25 02:32:43.56	264.46	47.03	-33.4	-35.0	23.8	0.00e+00	0	39	0	2188378112	38	4324
2026-01-25 02:32:47.55	262.53	46.35	-33.2	-34.8	24.0	0.00e+00	0	39	0	2210398208	38	4241
2026-01-25 02:32:51.53	260.69	45.65	-33.6	-35.2	23.7	0.00e+00	0	39	0	2233466880	38	4434
2026-01-25 02:32:55.51	258.93	44.93	-33.3	-34.9	23.9	0.00e+00	0	39	0	2255486976	38	4266
2026-01-25 02:32:59.49	257.24	44.19	-33.1	-34.7	24.1	0.00e+00	0	39	0	2277507072	38	4158
2026-01-25 02:33:03.47	255.64	43.45	-32.9	-34.5	24.3	0.00e+00	0	39	0	2300575744	37	4293
2026-01-25 02:33:07.45	254.11	42.69	-33.2	-34.8	24.0	0.00e+00	0	39	0	2322595840	37	4487
2026-01-25 02:33:11.43	252.65	41.92	-33.0	-34.6	24.2	0.00e+00	0	39	0	2344615936	37	4384
2026-01-25 02:33:15.41	251.25	41.16	-33.3	-34.9	23.9	0.00e+00	0	39	0	2367684608	37	4539
2026-01-25 02:33:19.39	249.93	40.39	-33.4	-35.0	23.8	0.00e+00	0	39	0	2389704704	37	4592
2026-01-25 02:33:23.37	248.66	39.62	-33.1	-34.7	24.1	0.00e+00	0	39	0	2411724800	37	4432
2026-01-25 02:33:27.35	247.46	38.85	-33.0	-34.5	24.2	0.00e+00	0	39	0	2434793472	37	4338
2026-01-25 02:33:31.33	246.30	38.08	-33.0	-34.6	24.1	0.00e+00	0	39	0	2456813568	37	4386
2026-01-25 02:33:35.30	245.21	37.32	-33.2	-34.8	24.0	0.00e+00	0	39	0	2479882240	37	4483
2026-01-25 02:33:39.28	244.16	36.57	-33.0	-34.6	24.1	0.00e+00	0	39	0	2501902336	37	4391
2026-01-25 02:33:43.26	243.16	35.82	-33.1	-34.7	24.1	0.00e+00	0	39	0	2523922432	37	4398
2026-01-25 02:33:47.24	242.21	35.08	-32.9	-34.5	24.3	0.00e+00	0	39	0	2546991104	37	4295
2026-01-25 02:33:51.22	241.29	34.35	-33.1	-34.7	24.1	0.00e+00	0	39	0	2569011200	37	4393
2026-01-25 02:33:55.20	240.42	33.62	-32.9	-34.5	24.3	0.00e+00	0	39	0	2591031296	37	4295
2026-01-25 02:33:59.18	239.59	32.91	-33.1	-34.7	24.1	0.00e+00	0	39	0	2613051392	37	4430
2026-01-25 02:34:03.16	238.79	32.21	-33.4	-35.0	23.8	0.00e+00	0	39	0	2636120064	37	4579
2026-01-25 02:34:07.14	238.02	31.51	-33.2	-34.8	24.0	0.00e+00	0	39	0	2658140160	37	4452
2026-01-25 02:34:11.12	237.29	30.83	-33.3	-34.9	23.9	0.00e+00	0	39	0	2681208832	37	4531
2026-01-25 02:34:15.10	236.59	30.16	-33.5	-35.1	23.7	0.00e+00	0	39	0	2703228928	37	4640
2026-01-25 02:34:19.08	235.92	29.50	-33.6	-35.3	23.6	0.00e+00	0	39	0	2725249024	37	4709
2026-01-25 02:34:23.06	235.27	28.85	-33.7	-35.4	23.5	0.00e+00	0	39	0	2748317696	38	4504
2026-01-25 02:34:27.04	234.65	28.21	-34.0	-35.6	23.3	0.00e+00	0	39	0	2770337792	38	4626
2026-01-25 02:34:31.02	234.05	27.58	-34.0	-35.6	23.3	0.00e+00	0	39	0	2792357888	38	4629
2026-01-25 02:34:35.00	233.48	26.96	-33.7	-35.4	23.5	0.00e+00	0	39	0	2815426560	38	4504
2026-01-25 02:34:38.98	232.93	26.36	-33.6	-35.2	23.6	0.00e+00	0	39	0	2837446656	38	4430
2026-01-25 02:34:42.96	232.40	25.76	-33.7	-35.3	23.5	0.00e+00	0	39	0	2859466752	38	4488
2026-01-25 02:34:46.94	231.89	25.17	-33.8	-35.4	23.4	0.00e+00	0	39	0	2882535424	38	4544
2026-01-25 02:34:50.92	231.40	24.60	-33.8	-35.4	23.4	0.00e+00	0	39	0	2904555520	38	4538
2026-01-25 02:34:54.91	230.92	24.03	-33.9	-35.6	23.3	0.00e+00	0	39	0	2927624192	38	4611
2026-01-25 02:34:58.89	230.47	23.48	-34.2	-35.8	23.1	0.00e+00	0	39	0	2949644288	38	4744
2026-01-25 02:35:02.87	230.03	22.93	-34.2	-35.8	23.1	0.00e+00	0	39	0	2971664384	39	4463
2026-01-25 02:35:06.85	229.60	22.39	-34.1	-35.7	23.1	0.00e+00	0	39	0	2994733056	39	4410
2026-01-25 02:35:10.83	229.19	21.87	-33.9	-35.5	23.3	0.00e+00	0	39	0	3016753152	39	4339
2026-01-25 02:35:14.80	228.79	21.35	-33.9	-35.5	23.2	0.00e+00	0	39	0	3038773248	39	4336
2026-01-25 02:35:18.78	228.41	20.84	-34.1	-35.7	23.1	0.00e+00	0	39	0	3060793344	39	4428
2026-01-25 02:35:22.76	228.04	20.34	-34.4	-36.0	22.8	0.00e+00	0	39	0	3083862016	39	4586
2026-01-25 02:35:26.74	227.68	19.85	-34.7	-36.4	22.4	0.00e+00	0	39	0	3105882112	40	4525
2026-01-25 02:35:30.71	227.33	19.37	-34.9	-36.7	22.1	0.00e+00	0	39	0	3128950784	40	4658
2026-01-25 02:35:34.70	227.00	18.89	-34.8	-36.5	22.2	0.00e+00	0	39	0	3150970880	40	4590
2026-01-25 02:35:38.68	226.67	18.43	-34.9	-36.5	22.2	0.00e+00	0	39	0	3172990976	40	4582
2026-01-25 02:35:42.66	226.35	17.97	-34.9	-36.6	22.2	0.00e+00	0	39	0	3196059648	40	4610
2026-01-25 02:35:46.65	226.05	17.51	-35.1	-36.8	22.0	0.00e+00	0	39	0	3218079744	40	4715
2026-01-25 02:35:50.63	225.75	17.07	-35.2	-36.9	21.9	0.00e+00	0	39	0	3240099840	41	4500
2026-01-25 02:35:54.61	225.46	16.63	-35.3	-37.0	21.7	0.00e+00	0	39	0	3263168512	41	4592
2026-01-25 02:35:58.58	225.18	16.20	-35.4	-37.1	21.7	0.00e+00	0	39	0	3285188608	41	4627
2026-01-25 02:36:02.56	224.91	15.78	-35.7	-37.4	21.4	0.00e+00	0	39	0	3307208704	41	4775
2026-01-25 02:36:06.54	224.65	15.36	-35.9	-37.7	21.1	0.00e+00	0	39	0	3330277376	42	4680
2026-01-25 02:36:10.52	224.39	14.95	-36.2	-38.0	20.8	0.00e+00	0	39	0	3352297472	43	4557
2026-01-25 02:36:14.50	224.14	14.55	-36.2	-38.0	20.8	0.00e+00	0	39	0	3375366144	43	4561
2026-01-25 02:36:18.48	223.90	14.15	-36.2	-38.0	20.7	0.00e+00	0	39	0	3397386240	43	4577
2026-01-25 02:36:22.46	223.66	13.76	-36.2	-37.9	20.8	0.00e+00	0	39	0	3419406336	43	4544
2026-01-25 02:36:26.44	223.44	13.37	-36.3	-38.0	20.7	0.00e+00	0	39	0	3442475008	43	4574
2026-01-25 02:36:30.42	223.21	12.99	-36.3	-38.0	20.7	0.00e+00	0	39	0	3464495104	43	4587
2026-01-25 02:36:34.40	222.99	12.62	-36.3	-38.0	20.7	0.00e+00	0	39	0	3486515200	43	4588
2026-01-25 02:36:38.38	222.78	12.25	-36.4	-38.1	20.6	0.00e+00	0	39	0	3508535296	43	4639
2026-01-25 02:36:42.37	222.58	11.88	-36.6	-38.4	20.3	0.00e+00	0	39	0	3531603968	43	4805
2026-01-25 02:36:46.35	222.38	11.52	-37.1	-38.9	20.0	0.00e+00	0	39	0	3553624064	44	4773
2026-01-25 02:36:50.33	222.18	11.17	-37.0	-38.8	20.0	0.00e+00	0	39	0	3576692736	44	4759
2026-01-25 02:36:54.31	221.99	10.82	-37.2	-39.0	19.8	0.00e+00	0	39	0	3598712832	45	4573
2026-01-25 02:36:58.29	221.80	10.47	-37.2	-39.0	19.8	0.00e+00	0	39	0	3620732928	45	4576
2026-01-25 02:37:02.27	221.62	10.13	-37.1	-39.0	19.8	0.00e+00	0	39	0	3643801600	45	4559
2026-01-25 02:37:06.25	221.44	9.79	-37.3	-39.2	19.6	0.00e+00	0	39	0	3665821696	45	4665
2026-01-25 02:37:10.22	221.27	9.46	-37.4	-39.3	19.4	0.00e+00	0	39	0	3687841792	45	4758
2026-01-25 02:37:14.20	221.10	9.13	-37.4	-39.4	19.3	0.00e+00	0	39	0	3710910464	45	4769
2026-01-25 02:37:18.17	220.94	8.81	-48.5	-60.6	3.8	8.46e-01	0	39	104	3720347648	67	15486
2026-01-25 02:37:22.14	220.78	8.49	-49.0	-61.1	3.8	8.47e-01	0	39	104	3720347648	68	15482
2026-01-25 02:37:26.12	220.62	8.17	-49.0	-61.2	3.8	8.46e-01	0	39	104	3720347648	68	15646
2026-01-25 02:37:30.09	220.47	7.86	-49.1	-61.2	3.8	8.46e-01	0	39	104	3720347648	68	15642
2026-01-25 02:37:34.06	220.32	7.55	-48.8	-61.2	3.8	8.47e-01	0	39	104	3720347648	68	15629
2026-01-25 02:37:38.03	220.17	7.25	-48.8	-61.1	3.8	8.47e-01	0	39	104	3720347648	68	15478
2026-01-25 02:37:42.01	220.03	6.95	-48.7	-61.0	3.8	8.48e-01	0	39	104	3720347648	68	15353
2026-01-25 02:37:45.98	219.88	6.65	-48.7	-61.1	3.8	8.46e-01	0	39	104	3720347648	68	15421
2026-01-25 02:37:49.95	219.75	6.35	-48.7	-61.0	3.8	8.48e-01	0	39	104	3720347648	68	15379
2026-01-25 02:37:53.92	219.61	6.06	-48.7	-61.0	3.8	8.48e-01	0	39	104	3720347648	68	15391
2026-01-25 02:37:57.89	219.48	5.77	-48.7	-61.1	3.8	8.48e-01	0	39	104	3720347648	68	15416
2026-01-25 02:38:01.87	219.35	5.49	-48.7	-61.0	3.8	8.47e-01	0	39	104	3720347648	68	15382
2026-01-25 02:38:05.84	219.23	5.21	-48.7	-61.0	3.8	8.47e-01	0	39	104	3720347648	68	15360

#Closed at: 2026-01-25 02:38:09
#Recorded file [3720 MB]: D:/Data/31040_260125_052533.dat