passes_logs/2026/01/25/T1/T1__20260125_114812_AQUA_rec.log

#Pass ID: 20260125_114812_AQUA
#Satellite: AQUA
#Configuration: AQUA
#almurnet v.1.7.20251203
#Start time: 2026-01-25 11:48:13

#Version: 2.0.20230620
#Station: T1
#Location: 37.570604 lon 55.790049 lat
#TLE: 1 27424U 02022A   26024.53919639  .00001970  00000+0  40397-3 0  9996
#TLE: 2 27424  98.4098 351.1277 0001915  66.8561 358.4840 14.61855303262281

#Time	Az	El	Level	Level2	SNR	BER	BlckErr	Temp	State	Recorded	gain1	gain2
2026-01-25 11:48:13.50	164.57	5.11	-47.1	-70.0	3.8	7.48e-01	0	35	0	0	64	54290
2026-01-25 11:48:16.48	164.59	5.34	-47.1	-68.3	3.8	7.47e-01	0	36	104	0	64	44872
2026-01-25 11:48:19.46	164.62	5.57	-47.1	-69.3	3.8	7.46e-01	0	36	104	0	65	47293
2026-01-25 11:48:22.44	164.65	5.80	-47.1	-70.0	3.8	7.43e-01	0	36	104	0	65	51144
2026-01-25 11:48:25.40	164.67	6.03	-47.1	-66.4	4.3	7.31e-01	0	36	104	0	65	33924
2026-01-25 11:48:28.38	164.70	6.27	-46.9	-63.5	5.8	6.90e-01	0	36	0	524288	65	24141
2026-01-25 11:48:31.36	164.73	6.50	-46.9	-63.1	6.1	6.84e-01	0	36	0	5767168	65	23287
2026-01-25 11:48:34.34	164.76	6.74	-47.0	-65.9	4.0	7.38e-01	0	36	104	8912896	65	32012
2026-01-25 11:48:37.32	164.78	6.99	-47.0	-69.6	3.8	7.51e-01	0	36	104	8912896	65	49173
2026-01-25 11:48:40.30	164.81	7.23	-46.9	-69.4	3.8	7.47e-01	0	36	104	8912896	65	48087
2026-01-25 11:48:43.28	164.84	7.48	-46.9	-64.7	5.0	7.05e-01	0	36	104	8912896	65	27785
2026-01-25 11:48:46.26	164.87	7.73	-46.4	-58.4	10.5	6.20e-01	0	36	0	13631488	64	14354
2026-01-25 11:48:49.24	164.90	7.99	-45.9	-54.0	15.2	6.07e-01	0	37	0	18874368	63	9151
2026-01-25 11:48:52.22	164.93	8.24	-45.4	-52.2	17.1	6.05e-01	0	37	0	24641536	62	7825
2026-01-25 11:48:55.19	164.96	8.50	-45.4	-52.3	17.0	6.08e-01	0	37	0	30408704	62	7939
2026-01-25 11:48:58.17	164.99	8.76	-46.1	-55.0	14.2	6.09e-01	0	37	0	35651584	62	10903
2026-01-25 11:49:01.15	165.02	9.03	-46.7	-61.1	7.6	6.49e-01	0	37	0	41418752	64	19435
2026-01-25 11:49:04.18	165.06	9.30	-45.3	-53.8	15.2	6.09e-01	0	37	0	45088768	62	9474
2026-01-25 11:49:07.28	165.09	9.59	-45.7	-57.9	11.2	6.16e-01	0	37	0	48234496	63	14213
2026-01-25 11:49:10.22	165.12	9.86	-45.5	-55.9	13.4	6.10e-01	0	37	0	54001664	63	11305
2026-01-25 11:49:13.44	165.16	10.16	-45.9	-54.6	14.6	6.06e-01	0	37	0	59768832	63	9726
2026-01-25 11:49:16.36	165.19	10.44	-46.2	-54.6	14.9	6.06e-01	0	37	0	65536000	63	9746
2026-01-25 11:49:19.63	165.23	10.75	-46.5	-54.1	15.1	6.04e-01	0	37	0	71303168	63	9180
2026-01-25 11:49:22.44	165.26	11.03	-46.3	-52.5	16.6	6.05e-01	0	37	0	77070336	64	7222
2026-01-25 11:49:25.57	165.30	11.34	-46.2	-52.0	17.3	6.04e-01	0	37	0	82837504	64	6853
2026-01-25 11:49:28.41	165.33	11.62	-45.8	-50.4	18.7	6.08e-01	0	37	0	88080384	63	6042
2026-01-25 11:49:31.58	165.37	11.94	-45.5	-49.9	19.5	6.07e-01	0	37	0	93847552	62	6012
2026-01-25 11:49:34.43	165.41	12.24	-44.1	-47.6	21.6	6.07e-01	0	37	0	99090432	60	5182
2026-01-25 11:49:37.56	165.45	12.57	-43.9	-47.4	22.0	6.08e-01	0	37	0	105381888	59	5350
2026-01-25 11:49:40.39	165.48	12.87	-43.6	-47.0	22.5	6.05e-01	0	37	0	110624768	59	5102
2026-01-25 11:49:43.52	165.53	13.20	-42.4	-45.2	24.0	6.05e-01	0	37	0	116391936	56	4933
2026-01-25 11:49:46.37	165.56	13.51	-42.0	-44.7	24.6	6.04e-01	0	37	0	121634816	56	4672
2026-01-25 11:49:49.49	165.61	13.86	-41.7	-44.2	24.9	6.06e-01	0	37	0	127401984	55	4693
2026-01-25 11:49:52.34	165.65	14.18	-41.7	-44.2	25.0	6.06e-01	0	37	0	132644864	55	4662
2026-01-25 11:49:55.46	165.69	14.54	-41.6	-44.1	25.0	6.07e-01	0	37	0	138936320	55	4635
2026-01-25 11:49:58.31	165.73	14.87	-41.8	-44.2	25.0	6.05e-01	0	37	0	144179200	55	4703
2026-01-25 11:50:01.44	165.78	15.24	-41.8	-44.3	24.9	6.07e-01	0	37	0	149946368	55	4721
2026-01-25 11:50:04.28	165.82	15.58	-41.8	-44.3	25.0	6.07e-01	0	37	0	155189248	55	4724
2026-01-25 11:50:07.41	165.87	15.96	-41.7	-44.3	25.0	6.05e-01	0	37	0	160956416	55	4725
2026-01-25 11:50:10.25	165.92	16.31	-41.6	-44.1	25.1	6.08e-01	0	37	0	166723584	55	4633
2026-01-25 11:50:13.37	165.97	16.70	-41.5	-44.0	25.2	6.07e-01	0	37	0	172490752	54	4868
2026-01-25 11:50:16.28	166.02	17.08	-41.3	-43.8	25.5	6.05e-01	0	37	0	177733632	54	4720
2026-01-25 11:50:19.58	166.07	17.51	-41.4	-43.8	25.4	6.06e-01	0	37	0	184025088	54	4726
2026-01-25 11:50:22.31	166.12	17.87	-41.6	-44.0	25.3	6.03e-01	0	37	0	189267968	54	4854
2026-01-25 11:50:25.57	166.18	18.31	-41.6	-44.1	25.2	6.08e-01	0	37	0	195035136	54	4904
2026-01-25 11:50:28.28	166.22	18.69	-41.8	-44.3	25.1	6.05e-01	0	37	0	200278016	54	4995
2026-01-25 11:50:31.74	166.29	19.17	-41.7	-44.2	25.2	6.06e-01	0	37	0	206569472	54	4941
2026-01-25 11:50:34.45	166.34	19.56	-41.7	-44.1	25.2	6.07e-01	0	37	0	211812352	54	4909
2026-01-25 11:50:37.74	166.41	20.04	-41.7	-44.3	25.1	6.06e-01	0	38	0	218103808	54	5003
2026-01-25 11:50:40.45	166.46	20.44	-41.8	-44.4	24.9	6.06e-01	0	37	0	223346688	54	5096
2026-01-25 11:50:43.73	166.53	20.94	-41.9	-44.5	24.9	6.08e-01	0	37	0	229113856	54	5104
2026-01-25 11:50:46.45	166.58	21.36	-42.0	-44.5	24.9	6.07e-01	0	38	0	234356736	54	5148
2026-01-25 11:50:49.93	166.66	21.91	-42.0	-44.5	24.9	6.08e-01	0	37	0	240648192	54	5138
2026-01-25 11:50:52.65	166.72	22.35	-42.1	-44.5	24.9	6.07e-01	0	38	0	245891072	54	5153
2026-01-25 11:50:55.91	166.80	22.89	-42.2	-44.6	24.8	6.07e-01	0	38	0	252182528	55	4923
2026-01-25 11:50:58.65	166.86	23.35	-42.3	-44.8	24.7	6.04e-01	0	37	0	257425408	55	5002
2026-01-25 11:51:02.03	166.94	23.93	-42.1	-44.7	24.8	6.07e-01	0	37	0	263716864	55	4947
2026-01-25 11:51:04.82	167.01	24.42	-42.0	-44.5	24.7	6.06e-01	0	37	0	268959744	55	4851
2026-01-25 11:51:08.42	167.11	25.07	-42.1	-44.5	24.8	6.07e-01	0	38	0	275775488	55	4867
2026-01-25 11:51:11.15	167.18	25.58	-42.0	-44.5	24.9	6.06e-01	0	38	0	280494080	55	4855
2026-01-25 11:51:14.43	167.27	26.19	-41.8	-44.2	25.2	6.08e-01	0	38	0	286785536	55	4674
2026-01-25 11:51:17.14	167.35	26.72	-41.8	-44.2	25.2	6.05e-01	0	37	0	292028416	55	4671
2026-01-25 11:51:20.51	167.45	27.38	-41.8	-44.2	25.2	6.04e-01	0	37	0	298319872	55	4669
2026-01-25 11:51:23.27	167.54	27.94	-41.5	-43.8	25.5	6.06e-01	0	38	0	303562752	55	4493
2026-01-25 11:51:26.67	167.65	28.65	-41.3	-43.6	25.7	6.06e-01	0	38	0	309854208	54	4635
2026-01-25 11:51:29.43	167.74	29.24	-41.4	-43.8	25.6	6.05e-01	0	38	0	315097088	54	4709
2026-01-25 11:51:32.70	167.85	29.95	-41.3	-43.7	25.5	6.06e-01	0	38	0	320864256	54	4676
2026-01-25 11:51:35.43	167.95	30.56	-41.3	-43.7	25.5	6.07e-01	0	38	0	326107136	54	4665
2026-01-25 11:51:38.70	168.07	31.31	-41.6	-43.9	25.4	6.06e-01	0	37	0	332398592	54	4811
2026-01-25 11:51:41.42	168.18	31.95	-41.4	-43.8	25.6	6.05e-01	0	38	0	337641472	54	4708
2026-01-25 11:51:44.69	168.31	32.73	-41.7	-44.1	25.3	6.06e-01	0	38	0	343408640	54	4880
2026-01-25 11:51:47.68	168.44	33.47	-42.0	-44.4	25.1	6.07e-01	0	38	0	349175808	54	5046
2026-01-25 11:51:50.95	168.58	34.31	-42.1	-44.5	24.9	6.06e-01	0	38	0	355467264	54	5131
2026-01-25 11:51:53.69	168.71	35.02	-42.7	-45.2	24.4	6.07e-01	0	38	0	360710144	56	4969
2026-01-25 11:51:56.96	168.87	35.90	-42.8	-45.3	24.3	6.06e-01	0	38	0	366477312	56	5002
2026-01-25 11:51:59.83	169.01	36.69	-43.0	-45.7	24.0	6.06e-01	0	38	0	371720192	56	5247
2026-01-25 11:52:03.25	169.20	37.66	-43.5	-46.4	23.3	6.07e-01	0	38	0	378535936	57	5361
2026-01-25 11:52:05.95	169.35	38.45	-43.8	-46.5	23.1	6.06e-01	0	38	0	383254528	58	5135
2026-01-25 11:52:09.22	169.54	39.43	-43.7	-46.4	23.3	6.04e-01	0	38	0	389545984	58	5057
2026-01-25 11:52:11.93	169.71	40.26	-43.5	-46.1	23.5	6.06e-01	0	38	0	394788864	58	4903
2026-01-25 11:52:15.22	169.93	41.30	-43.1	-45.6	24.0	6.03e-01	0	38	0	400556032	58	4649
2026-01-25 11:52:17.96	170.13	42.19	-42.9	-45.4	24.2	6.07e-01	0	38	0	405798912	57	4809
2026-01-25 11:52:21.23	170.37	43.29	-42.2	-44.5	25.0	6.05e-01	0	38	0	412090368	56	4589
2026-01-25 11:52:23.96	170.59	44.23	-42.1	-44.5	25.0	6.07e-01	0	38	0	417333248	56	4553
2026-01-25 11:52:27.25	170.87	45.39	-41.9	-44.3	24.7	6.04e-01	0	38	0	423624704	55	4740
2026-01-25 11:52:29.98	171.11	46.38	-41.8	-44.2	25.2	6.05e-01	0	38	0	428343296	55	4691
2026-01-25 11:52:33.25	171.43	47.60	-41.6	-43.9	25.4	6.07e-01	0	38	0	434634752	55	4528
2026-01-25 11:52:35.96	171.71	48.64	-41.8	-44.2	24.9	6.08e-01	0	38	0	439877632	55	4673
2026-01-25 11:52:39.24	172.08	49.93	-41.5	-43.9	25.4	6.06e-01	0	38	0	445644800	55	4505
2026-01-25 11:52:41.97	172.41	51.04	-41.3	-43.6	25.7	6.05e-01	0	38	0	450887680	54	4601
2026-01-25 11:52:45.24	172.84	52.39	-41.0	-43.3	26.0	6.07e-01	0	38	0	457179136	53	4708
2026-01-25 11:52:47.95	173.23	53.55	-40.7	-42.9	26.4	6.08e-01	0	38	0	462422016	53	4512
2026-01-25 11:52:51.20	173.74	54.97	-40.9	-43.2	26.1	6.06e-01	0	38	0	468189184	53	4695
2026-01-25 11:52:54.18	174.25	56.30	-41.6	-44.0	24.3	6.05e-01	0	38	0	473956352	54	4830
2026-01-25 11:52:57.16	174.81	57.67	-42.5	-45.0	24.6	6.05e-01	0	38	0	479199232	55	5101
2026-01-25 11:53:00.23	175.45	59.11	-42.8	-45.3	24.3	6.06e-01	0	38	0	484966400	56	5009
2026-01-25 11:53:03.10	176.12	60.49	-43.2	-45.7	23.9	6.06e-01	0	38	0	490733568	56	5276
2026-01-25 11:53:06.23	176.94	62.02	-43.6	-46.3	23.3	6.05e-01	0	38	0	496500736	57	5320
2026-01-25 11:53:09.08	177.77	63.45	-44.3	-47.2	22.6	6.05e-01	0	38	0	501743616	59	5229
2026-01-25 11:53:12.68	178.99	65.28	-45.0	-48.4	21.2	6.07e-01	0	38	0	508559360	60	5717
2026-01-25 11:53:15.53	180.10	66.75	-45.7	-49.2	20.4	6.09e-01	0	38	0	513802240	62	5557
2026-01-25 11:53:19.48	181.93	68.83	-45.9	-49.4	20.2	6.07e-01	0	38	0	521142272	62	5717
2026-01-25 11:53:22.42	183.56	70.39	-45.5	-48.7	20.8	6.08e-01	0	38	0	526909440	63	4969
2026-01-25 11:53:25.83	185.84	72.21	-44.8	-47.9	21.6	6.07e-01	0	38	0	533200896	61	5088
2026-01-25 11:53:28.53	188.02	73.65	-44.4	-47.4	22.2	6.07e-01	0	38	0	538443776	60	5100
2026-01-25 11:53:31.80	191.27	75.38	-44.3	-47.4	22.1	6.06e-01	0	38	0	544210944	60	5100
2026-01-25 11:53:34.50	194.60	76.78	-44.1	-47.0	22.7	6.07e-01	0	38	0	549453824	60	4826
2026-01-25 11:53:37.82	199.84	78.45	-43.8	-46.6	23.1	6.05e-01	0	38	0	555745280	59	4897
2026-01-25 11:53:40.85	206.12	79.88	-43.0	-45.6	24.0	6.06e-01	0	38	0	561512448	57	4903
2026-01-25 11:53:44.25	215.54	81.30	-41.9	-44.3	25.0	6.04e-01	0	38	0	567803904	55	4735
2026-01-25 11:53:46.95	225.31	82.22	-41.9	-44.4	25.0	6.06e-01	0	38	0	573046784	55	4808
2026-01-25 11:53:50.50	241.43	82.99	-42.1	-44.6	24.3	6.06e-01	0	38	0	579338240	55	4925
2026-01-25 11:53:53.20	255.33	83.16	-42.3	-44.9	24.3	6.05e-01	0	38	0	584581120	55	5058
2026-01-25 11:53:56.68	272.79	82.77	-41.9	-44.4	24.9	6.08e-01	0	38	0	590872576	55	4772
2026-01-25 11:53:59.66	285.44	81.99	-41.8	-44.2	25.2	6.06e-01	0	38	0	596639744	55	4701
2026-01-25 11:54:02.94	296.29	80.77	-42.6	-45.1	24.2	6.06e-01	0	38	0	602931200	55	5199
2026-01-25 11:54:05.65	303.14	79.58	-42.9	-45.5	23.9	6.07e-01	0	38	0	607649792	56	5133
2026-01-25 11:54:09.02	309.64	77.97	-43.2	-46.0	22.9	6.07e-01	0	38	0	613941248	57	5122
2026-01-25 11:54:11.77	313.72	76.57	-43.8	-46.6	23.0	6.06e-01	0	38	0	619184128	58	5200
2026-01-25 11:54:15.23	317.75	74.76	-44.3	-47.3	22.4	6.06e-01	0	38	0	625999872	59	5320
2026-01-25 11:54:17.95	320.28	73.32	-44.5	-47.5	22.2	6.06e-01	0	38	0	630718464	59	5448
2026-01-25 11:54:21.22	322.77	71.58	-44.6	-47.7	22.0	6.07e-01	0	38	0	637009920	60	5220
2026-01-25 11:54:23.95	324.50	70.13	-44.8	-48.1	21.3	6.07e-01	0	37	0	642252800	60	5487
2026-01-25 11:54:27.49	326.38	68.26	-45.3	-48.8	20.8	6.06e-01	0	38	0	649068544	61	5650
2026-01-25 11:54:30.19	327.60	66.85	-44.3	-47.3	22.3	6.07e-01	0	38	0	653787136	60	4986
2026-01-25 11:54:33.49	328.88	65.15	-44.0	-46.9	22.8	6.08e-01	0	38	0	660078592	59	5044
2026-01-25 11:54:36.22	329.80	63.76	-43.7	-46.5	23.1	6.09e-01	0	38	0	665321472	59	4855
2026-01-25 11:54:39.53	330.79	62.11	-43.0	-45.6	24.0	6.07e-01	0	38	0	671088640	58	4633
2026-01-25 11:54:42.24	331.51	60.78	-42.8	-45.3	24.1	6.06e-01	0	38	0	676331520	57	4758
2026-01-25 11:54:45.72	332.32	59.11	-42.5	-45.0	24.5	6.07e-01	0	38	0	683147264	56	4837
2026-01-25 11:54:48.46	332.90	57.83	-42.2	-44.7	24.8	6.08e-01	0	38	0	687865856	56	4666
2026-01-25 11:54:51.73	333.52	56.33	-41.2	-43.6	25.7	6.07e-01	0	38	0	694157312	54	4625
2026-01-25 11:54:54.45	333.98	55.12	-41.1	-43.6	25.7	6.06e-01	0	38	0	699400192	54	4624
2026-01-25 11:54:57.72	334.50	53.69	-41.0	-43.3	25.9	6.04e-01	0	38	0	705691648	53	4759
2026-01-25 11:55:00.44	334.89	52.54	-41.0	-43.2	26.0	6.06e-01	0	38	0	710410240	53	4704
2026-01-25 11:55:03.71	335.32	51.18	-41.3	-43.6	25.7	6.06e-01	0	38	0	716701696	53	4916
2026-01-25 11:55:06.44	335.65	50.08	-41.8	-44.3	25.1	6.06e-01	0	38	0	721944576	54	5003
2026-01-25 11:55:09.71	336.02	48.79	-41.9	-44.3	25.0	6.06e-01	0	38	0	727711744	54	4992
2026-01-25 11:55:12.41	336.31	47.76	-41.7	-44.1	25.2	6.05e-01	0	37	0	732954624	54	4881
2026-01-25 11:55:15.68	336.63	46.54	-41.8	-44.3	25.1	6.08e-01	0	38	0	739246080	54	4987
2026-01-25 11:55:18.43	336.88	45.54	-42.1	-44.6	24.8	6.04e-01	0	38	0	744488960	54	5171
2026-01-25 11:55:21.72	337.16	44.38	-41.8	-44.3	25.1	6.05e-01	0	38	0	750256128	54	4987
2026-01-25 11:55:24.44	337.38	43.45	-41.7	-44.3	25.0	6.06e-01	0	38	0	755499008	54	5008
2026-01-25 11:55:27.71	337.62	42.36	-42.3	-45.0	24.4	6.07e-01	0	38	0	761790464	55	5125
2026-01-25 11:55:30.54	337.82	41.44	-42.3	-44.9	24.5	6.06e-01	0	38	0	767033344	55	5080
2026-01-25 11:55:33.67	338.03	40.45	-43.1	-45.9	23.7	6.06e-01	0	38	0	772800512	56	5353
2026-01-25 11:55:36.51	338.21	39.58	-42.8	-45.4	24.1	6.07e-01	0	38	0	778043392	56	5063
2026-01-25 11:55:39.64	338.40	38.65	-43.0	-45.7	23.8	6.04e-01	0	38	0	784334848	56	5241
2026-01-25 11:55:42.48	338.56	37.82	-42.9	-45.5	24.0	6.07e-01	0	38	0	789577728	56	5114
2026-01-25 11:55:45.61	338.73	36.93	-42.5	-45.0	24.4	6.05e-01	0	38	0	795344896	56	4856
2026-01-25 11:55:48.47	338.88	36.14	-41.8	-44.3	25.0	6.04e-01	0	38	0	800587776	55	4728
2026-01-25 11:55:51.60	339.04	35.30	-41.5	-44.2	25.1	6.06e-01	0	38	0	806354944	54	4967
2026-01-25 11:55:54.44	339.17	34.56	-41.4	-44.0	25.0	6.07e-01	0	38	0	812122112	54	4855
2026-01-25 11:55:57.78	339.32	33.71	-41.2	-43.5	25.7	6.07e-01	0	38	0	817889280	54	4586
2026-01-25 11:56:00.77	339.45	32.97	-41.0	-43.3	25.8	6.05e-01	0	37	0	823656448	54	4476
2026-01-25 11:56:04.23	339.59	32.14	-40.4	-42.9	26.2	6.04e-01	0	38	0	829947904	52	4798
2026-01-25 11:56:07.22	339.71	31.44	-40.3	-43.0	26.2	6.06e-01	0	38	0	835715072	52	4830
2026-01-25 11:56:10.25	339.82	30.75	-40.7	-43.2	26.0	6.03e-01	0	38	0	841482240	52	4929
2026-01-25 11:56:13.24	339.93	30.08	-40.8	-43.1	26.0	6.06e-01	0	38	0	847249408	52	4916
2026-01-25 11:56:16.22	340.04	29.43	-40.7	-43.1	26.0	6.05e-01	0	38	0	852492288	52	4884
2026-01-25 11:56:19.21	340.14	28.80	-40.8	-43.2	25.9	6.06e-01	0	38	0	858259456	52	4966
2026-01-25 11:56:22.19	340.23	28.18	-40.9	-43.5	25.6	6.04e-01	0	38	0	864026624	52	5106
2026-01-25 11:56:25.23	340.33	27.57	-41.0	-43.7	25.5	6.03e-01	0	38	0	869269504	52	5224
2026-01-25 11:56:28.24	340.42	26.97	-41.1	-43.8	25.4	6.06e-01	0	38	0	875036672	52	5308
2026-01-25 11:56:31.53	340.52	26.34	-41.5	-43.9	25.2	6.06e-01	0	38	0	881328128	53	5099
2026-01-25 11:56:34.43	340.60	25.79	-41.5	-44.1	25.1	6.08e-01	0	38	0	886571008	53	5217
2026-01-25 11:56:37.70	340.69	25.19	-41.4	-44.3	24.9	6.06e-01	0	38	0	892862464	53	5300
2026-01-25 11:56:40.42	340.76	24.70	-41.5	-44.2	25.0	6.05e-01	0	38	0	898105344	53	5276
2026-01-25 11:56:43.71	340.85	24.12	-41.7	-44.4	24.8	6.07e-01	0	38	0	904396800	54	5047
2026-01-25 11:56:46.55	340.92	23.63	-41.7	-44.3	24.9	6.06e-01	0	37	0	909639680	54	5020
2026-01-25 11:56:49.68	340.99	23.11	-41.6	-44.4	24.7	6.07e-01	0	38	0	915406848	54	5085
2026-01-25 11:56:52.52	341.06	22.64	-41.2	-44.2	25.0	6.07e-01	0	38	0	920649728	54	4952
2026-01-25 11:56:55.64	341.13	22.13	-41.4	-44.1	25.0	6.07e-01	0	38	0	926416896	54	4911
2026-01-25 11:56:58.48	341.20	21.68	-41.5	-44.0	25.0	6.06e-01	0	38	0	931659776	54	4831
2026-01-25 11:57:01.72	341.27	21.18	-41.3	-43.8	25.2	6.04e-01	0	38	0	937951232	54	4757
2026-01-25 11:57:04.80	341.33	20.71	-41.0	-43.8	25.2	6.05e-01	0	38	0	943718400	54	4738
2026-01-25 11:57:08.10	341.40	20.22	-41.4	-44.0	25.1	6.05e-01	0	38	0	950009856	54	4852
2026-01-25 11:57:10.81	341.46	19.83	-41.5	-44.0	23.0	6.03e-01	0	38	0	955252736	54	4836
2026-01-25 11:57:14.10	341.52	19.36	-41.6	-44.0	25.1	6.06e-01	0	38	0	961019904	54	4836
2026-01-25 11:57:16.81	341.57	18.98	-41.4	-43.8	25.3	6.06e-01	0	38	0	966262784	54	4748
2026-01-25 11:57:20.09	341.64	18.52	-41.1	-43.7	25.4	6.05e-01	0	38	0	972554240	54	4654
2026-01-25 11:57:22.94	341.69	18.14	-41.2	-43.7	25.3	6.05e-01	0	38	0	977797120	54	4673
2026-01-25 11:57:26.20	341.75	17.71	-41.2	-43.7	25.4	6.06e-01	0	38	0	984088576	54	4653
2026-01-25 11:57:28.92	341.80	17.35	-41.2	-43.7	25.4	6.05e-01	0	38	0	988807168	54	4670
2026-01-25 11:57:32.25	341.85	16.92	-41.1	-43.8	25.2	6.07e-01	0	38	0	995098624	54	4746
2026-01-25 11:57:34.97	341.90	16.58	-41.0	-43.9	25.1	6.06e-01	0	38	0	1000341504	54	4763
2026-01-25 11:57:38.46	341.96	16.15	-41.1	-43.9	24.9	6.07e-01	0	38	0	1006632960	54	4776
2026-01-25 11:57:41.27	342.00	15.81	-41.3	-44.0	24.6	6.05e-01	0	38	0	1011875840	54	4819
2026-01-25 11:57:44.43	342.05	15.43	-41.3	-43.9	24.7	6.03e-01	0	38	0	1018167296	54	4762
2026-01-25 11:57:47.27	342.10	15.09	-41.2	-43.9	24.7	6.06e-01	0	38	0	1023410176	54	4763
2026-01-25 11:57:50.40	342.15	14.73	-41.0	-43.8	24.8	6.06e-01	0	38	0	1029177344	54	4748
2026-01-25 11:57:53.28	342.19	14.40	-40.9	-43.9	24.8	6.06e-01	0	38	0	1034420224	53	5046
2026-01-25 11:57:56.55	342.24	14.04	-40.9	-43.8	24.8	6.05e-01	0	38	0	1040711680	53	5008
2026-01-25 11:57:59.28	342.28	13.73	-40.9	-43.8	24.9	6.08e-01	0	38	0	1045954560	53	5014
2026-01-25 11:58:02.55	342.32	13.38	-41.0	-44.0	24.6	6.05e-01	0	38	0	1052246016	53	5108
2026-01-25 11:58:05.26	342.36	13.09	-40.9	-44.0	24.5	6.07e-01	0	38	0	1056964608	53	5112
2026-01-25 11:58:08.60	342.41	12.73	-41.0	-44.2	24.2	6.06e-01	0	38	0	1063256064	53	5230
2026-01-25 11:58:11.84	342.45	12.40	-41.1	-44.3	24.2	6.01e-01	0	38	0	1069547520	53	5283
2026-01-25 11:58:14.83	342.49	12.09	-41.2	-44.3	24.4	6.03e-01	0	38	0	1074790400	53	5320
2026-01-25 11:58:17.82	342.53	11.79	-41.3	-44.3	24.2	6.03e-01	0	38	0	1080557568	53	5338
2026-01-25 11:58:20.80	342.57	11.49	-41.4	-44.4	24.4	6.04e-01	0	38	0	1086324736	53	5368
2026-01-25 11:58:23.76	342.61	11.20	-41.4	-44.5	24.4	5.99e-01	0	38	0	1091567616	53	5412
2026-01-25 11:58:27.06	342.65	10.88	-41.4	-44.5	24.3	6.04e-01	0	38	0	1097859072	53	5425
2026-01-25 11:58:29.76	342.68	10.62	-41.5	-44.6	24.3	6.04e-01	0	38	0	1103101952	53	5483
2026-01-25 11:58:33.05	342.72	10.31	-41.5	-44.7	24.2	6.00e-01	0	38	0	1109393408	53	5551
2026-01-25 11:58:35.78	342.76	10.05	-41.4	-44.7	24.1	6.01e-01	0	38	0	1114112000	53	5567
2026-01-25 11:58:39.13	342.80	9.74	-41.4	-44.8	24.0	6.03e-01	0	38	0	1120403456	53	5632
2026-01-25 11:58:41.88	342.83	9.49	-40.9	-44.9	23.9	5.98e-01	0	38	0	1125646336	53	5668
2026-01-25 11:58:45.21	342.87	9.19	-40.5	-44.9	23.7	6.00e-01	0	38	0	1131937792	53	5688
2026-01-25 11:58:47.91	342.90	8.95	-45.8	-56.7	14.2	6.03e-01	0	38	0	1137180672	62	13244
2026-01-25 11:58:51.17	342.93	8.67	-48.8	-70.5	3.8	7.50e-01	0	38	104	1137180672	68	45462
2026-01-25 11:58:53.88	342.97	8.43	-49.2	-70.8	3.8	7.43e-01	0	38	104	1137180672	69	44707
2026-01-25 11:58:57.18	343.00	8.15	-50.1	-70.9	3.8	7.46e-01	0	38	104	1137180672	72	38094
2026-01-25 11:58:59.94	343.03	7.91	-50.6	-71.0	3.8	7.43e-01	0	38	104	1137180672	72	38267
2026-01-25 11:59:03.23	343.07	7.64	-50.5	-71.0	3.8	7.50e-01	0	38	104	1137180672	71	40905
2026-01-25 11:59:05.99	343.10	7.41	-50.7	-71.0	3.8	7.46e-01	0	38	104	1137180672	72	38473
2026-01-25 11:59:09.30	343.13	7.14	-50.8	-71.0	3.8	7.46e-01	0	38	104	1137180672	72	38257
2026-01-25 11:59:12.06	343.16	6.91	-50.2	-71.0	3.8	7.47e-01	0	38	104	1137180672	71	40542
2026-01-25 11:59:15.37	343.19	6.65	-50.1	-71.0	3.8	7.44e-01	0	38	104	1137180672	71	40683
2026-01-25 11:59:18.10	343.22	6.43	-50.1	-71.0	3.8	7.46e-01	0	38	104	1137180672	71	40677
2026-01-25 11:59:21.36	343.26	6.17	-50.1	-71.0	3.8	7.46e-01	0	38	104	1137180672	71	40607
2026-01-25 11:59:24.07	343.28	5.96	-50.1	-71.0	3.8	7.46e-01	0	38	104	1137180672	71	40660
2026-01-25 11:59:27.33	343.31	5.71	-50.1	-70.9	3.8	7.48e-01	0	38	104	1137180672	71	40506
2026-01-25 11:59:30.04	343.34	5.50	-50.1	-71.0	3.8	7.42e-01	0	38	104	1137180672	71	40541
2026-01-25 11:59:33.32	343.37	5.26	-50.1	-71.0	3.8	7.46e-01	0	38	104	1137180672	71	40591
2026-01-25 11:59:36.03	343.40	5.05	-50.0	-71.0	3.8	7.45e-01	0	38	104	1137180672	71	40523

#Closed at: 2026-01-25 11:59:38
#Recorded file [1137 MB]: D:/Data/31040_260125_144813.dat