passes_logs/2026/01/25/T1/T1__20260125_014917_NOAA_20_JPSS-1_rec.log

#Pass ID: 20260125_014917_NOAA 20 (JPSS-1)
#Satellite: NOAA 20 (JPSS-1)
#Configuration: NOAA 20
#almurnet v.1.7.20251203
#Start time: 2026-01-25 01:49:18

#Version: 2.0.20230620
#Station: T1
#Location: 37.570604 lon 55.790049 lat
#TLE: 1 43013U 17073A   26024.42258823  .00000183  00000+0  10747-3 0  9990
#TLE: 2 43013  98.7646 325.2629 0001105  25.8644 334.2587 14.19539754424075

#Time	Az	El	Level	Level2	SNR	BER	BlckErr	Temp	State	Recorded	gain1	gain2
2026-01-25 01:49:18.40	3.88	5.06	-44.5	-63.5	3.7	1.49e+00	0	39	0	0	60	32342
2026-01-25 01:49:21.38	3.58	5.22	-43.1	-63.5	3.8	1.49e+00	0	39	104	0	56	40525
2026-01-25 01:49:24.36	3.28	5.38	-43.1	-63.4	3.8	1.49e+00	0	39	104	0	56	40345
2026-01-25 01:49:27.33	2.98	5.54	-43.1	-63.4	3.8	1.49e+00	0	39	104	0	56	40315
2026-01-25 01:49:30.31	2.67	5.70	-43.1	-63.4	3.8	1.49e+00	0	39	104	0	56	40241
2026-01-25 01:49:33.29	2.36	5.86	-43.1	-63.4	3.8	1.49e+00	0	39	104	0	56	40172
2026-01-25 01:49:36.27	2.05	6.02	-43.1	-63.4	3.8	1.49e+00	0	40	104	0	56	40392
2026-01-25 01:49:39.25	1.73	6.19	-43.1	-63.4	3.8	1.49e+00	0	40	104	0	56	40327
2026-01-25 01:49:42.23	1.41	6.35	-43.1	-63.4	3.8	1.49e+00	0	40	104	0	56	40369
2026-01-25 01:49:45.21	1.08	6.51	-43.2	-63.4	3.8	1.49e+00	0	40	104	0	56	40289
2026-01-25 01:49:48.19	0.75	6.67	-43.2	-63.4	3.8	1.49e+00	0	40	104	0	57	38051
2026-01-25 01:49:51.17	0.42	6.83	-43.1	-63.4	3.8	1.49e+00	0	40	104	0	57	38073
2026-01-25 01:49:54.15	0.09	7.00	-43.1	-63.4	3.8	1.49e+00	0	40	104	0	57	38048
2026-01-25 01:49:57.13	359.74	7.16	-43.1	-63.4	3.8	1.49e+00	0	40	104	0	57	37895
2026-01-25 01:50:00.11	359.40	7.32	-43.1	-63.4	3.8	1.49e+00	0	40	104	0	57	38059
2026-01-25 01:50:03.09	359.05	7.48	-43.1	-63.4	3.8	1.49e+00	0	40	104	0	57	38028
2026-01-25 01:50:06.07	358.70	7.65	-43.1	-63.4	3.8	1.49e+00	0	40	104	0	57	38125
2026-01-25 01:50:09.05	358.34	7.81	-43.1	-63.4	3.8	1.49e+00	0	40	104	0	57	37815
2026-01-25 01:50:12.02	357.98	7.97	-43.1	-63.3	3.8	1.49e+00	0	40	104	0	57	37807
2026-01-25 01:50:15.00	357.62	8.13	-43.1	-63.2	3.8	1.49e+00	0	40	104	0	57	37165
2026-01-25 01:50:17.99	357.25	8.30	-43.1	-62.6	3.8	1.49e+00	0	40	104	0	57	34583
2026-01-25 01:50:20.96	356.88	8.46	-43.1	-62.2	3.8	1.49e+00	0	41	104	0	57	33047
2026-01-25 01:50:23.94	356.50	8.62	-43.1	-60.6	4.0	1.49e+00	0	41	104	0	57	27643
2026-01-25 01:50:26.92	356.12	8.78	-42.8	-56.1	6.1	5.01e-01	0	41	0	3145728	57	16500
2026-01-25 01:50:29.90	355.73	8.94	-42.4	-52.0	10.0	1.32e-02	0	41	0	8388608	56	10893
2026-01-25 01:50:32.89	355.34	9.10	-44.6	-59.8	4.3	2.00e-01	0	41	0	14680064	59	22378
2026-01-25 01:50:35.87	354.94	9.27	-40.8	-47.1	14.9	1.50e-06	0	41	0	18874368	53	7323
2026-01-25 01:50:38.86	354.54	9.43	-40.7	-46.6	15.3	0.00e+00	0	41	0	24117248	53	6958
2026-01-25 01:50:41.84	354.14	9.59	-40.9	-46.7	15.3	0.00e+00	0	41	0	29360128	53	6962
2026-01-25 01:50:44.82	353.73	9.75	-41.3	-46.6	15.5	0.00e+00	0	41	0	35651584	53	6888
2026-01-25 01:50:47.81	353.32	9.91	-41.5	-46.4	15.7	0.00e+00	0	41	0	40894464	53	6725
2026-01-25 01:50:50.80	352.90	10.07	-42.0	-46.6	15.4	0.00e+00	0	41	0	46137344	54	6560
2026-01-25 01:50:53.78	352.47	10.23	-42.0	-46.7	15.4	0.00e+00	0	41	0	52428800	54	6632
2026-01-25 01:50:56.77	352.04	10.39	-41.4	-46.8	15.4	0.00e+00	0	41	0	57671680	54	6672
2026-01-25 01:50:59.76	351.61	10.55	-41.0	-46.6	15.5	0.00e+00	0	41	0	62914560	54	6553
2026-01-25 01:51:02.74	351.17	10.70	-40.9	-46.6	15.5	0.00e+00	0	41	0	69206016	53	6939
2026-01-25 01:51:05.72	350.73	10.86	-41.3	-46.9	15.2	0.00e+00	0	41	0	74448896	53	7175
2026-01-25 01:51:08.71	350.28	11.02	-41.9	-46.7	15.4	0.00e+00	0	41	0	79691776	54	6646
2026-01-25 01:51:11.69	349.83	11.17	-42.4	-46.8	15.4	0.00e+00	0	41	0	85983232	55	6333
2026-01-25 01:51:14.68	349.37	11.33	-42.4	-46.7	15.5	0.00e+00	0	41	0	91226112	55	6211
2026-01-25 01:51:17.66	348.91	11.48	-42.5	-46.9	15.3	0.00e+00	0	41	0	96468992	55	6358
2026-01-25 01:51:20.65	348.44	11.63	-42.4	-46.7	15.5	0.00e+00	0	41	0	102760448	55	6220
2026-01-25 01:51:23.63	347.97	11.78	-42.1	-46.4	15.7	0.00e+00	0	41	0	108003328	55	6044
2026-01-25 01:51:26.61	347.50	11.94	-42.0	-46.1	16.1	0.00e+00	0	41	0	113246208	55	5842
2026-01-25 01:51:29.60	347.01	12.09	-42.4	-46.0	16.2	0.00e+00	0	41	0	119537664	55	5757
2026-01-25 01:51:32.58	346.53	12.23	-42.8	-46.0	16.3	0.00e+00	0	41	0	124780544	56	5460
2026-01-25 01:51:35.57	346.03	12.38	-42.6	-45.8	16.6	0.00e+00	0	41	0	130023424	56	5294
2026-01-25 01:51:38.55	345.54	12.53	-42.4	-45.6	16.8	0.00e+00	0	41	0	136314880	56	5193
2026-01-25 01:51:41.53	345.04	12.67	-41.8	-45.0	17.3	0.00e+00	0	41	0	141557760	55	5132
2026-01-25 01:51:44.52	344.53	12.82	-41.8	-44.9	17.3	0.00e+00	0	41	0	146800640	55	5088
2026-01-25 01:51:47.50	344.02	12.96	-41.9	-45.0	17.2	0.00e+00	0	41	0	153092096	55	5141
2026-01-25 01:51:50.48	343.50	13.10	-41.8	-44.9	17.4	0.00e+00	0	41	0	158334976	55	5067
2026-01-25 01:51:53.47	342.98	13.24	-41.6	-44.8	17.4	0.00e+00	0	41	0	163577856	55	5017
2026-01-25 01:51:56.45	342.45	13.38	-41.5	-44.6	17.7	0.00e+00	0	41	0	169869312	55	4872
2026-01-25 01:51:59.44	341.92	13.52	-41.3	-44.3	18.0	0.00e+00	0	41	0	175112192	54	4984
2026-01-25 01:52:02.42	341.38	13.65	-41.2	-44.2	18.1	0.00e+00	0	41	0	180355072	54	4932
2026-01-25 01:52:05.40	340.84	13.78	-41.4	-44.1	18.2	0.00e+00	0	41	0	186646528	54	4889
2026-01-25 01:52:08.39	340.29	13.91	-41.3	-43.9	18.4	0.00e+00	0	41	0	191889408	54	4787
2026-01-25 01:52:11.37	339.74	14.04	-40.9	-43.8	18.4	0.00e+00	0	41	0	197132288	53	5036
2026-01-25 01:52:14.35	339.18	14.17	-41.0	-43.9	18.3	0.00e+00	0	41	0	203423744	53	5075
2026-01-25 01:52:17.33	338.62	14.29	-41.2	-44.1	18.2	0.00e+00	0	41	0	208666624	53	5170
2026-01-25 01:52:20.32	338.05	14.42	-41.4	-44.4	17.9	0.00e+00	0	41	0	213909504	53	5350
2026-01-25 01:52:23.30	337.48	14.54	-41.5	-44.5	17.7	0.00e+00	0	41	0	220200960	53	5456
2026-01-25 01:52:26.29	336.91	14.66	-41.6	-44.3	18.0	0.00e+00	0	41	0	225443840	53	5289
2026-01-25 01:52:29.27	336.33	14.77	-41.6	-44.2	18.0	0.00e+00	0	41	0	230686720	54	4952
2026-01-25 01:52:32.26	335.74	14.88	-41.5	-44.2	18.1	0.00e+00	0	41	0	236978176	54	4927
2026-01-25 01:52:35.25	335.15	15.00	-41.3	-43.9	18.4	0.00e+00	0	41	0	242221056	54	4793
2026-01-25 01:52:38.24	334.55	15.10	-41.2	-43.8	18.5	0.00e+00	0	41	0	247463936	54	4731
2026-01-25 01:52:41.22	333.95	15.21	-41.2	-43.6	18.6	0.00e+00	0	41	0	253755392	54	4641
2026-01-25 01:52:44.20	333.35	15.31	-40.9	-43.4	18.9	0.00e+00	0	41	0	258998272	53	4782
2026-01-25 01:52:47.19	332.74	15.41	-40.8	-43.3	18.9	0.00e+00	0	41	0	264241152	53	4738
2026-01-25 01:52:50.17	332.13	15.51	-40.9	-43.4	18.8	0.00e+00	0	41	0	270532608	53	4765
2026-01-25 01:52:53.15	331.52	15.60	-40.8	-43.2	19.0	0.00e+00	0	41	0	275775488	53	4702
2026-01-25 01:52:56.13	330.90	15.70	-40.9	-43.4	18.9	0.00e+00	0	41	0	281018368	53	4767
2026-01-25 01:52:59.11	330.28	15.78	-40.8	-43.2	19.0	0.00e+00	0	41	0	287309824	53	4685
2026-01-25 01:53:02.10	329.65	15.87	-40.9	-43.2	19.0	0.00e+00	0	41	0	292552704	53	4693
2026-01-25 01:53:05.08	329.02	15.95	-41.1	-43.5	18.6	0.00e+00	0	41	0	297795584	53	4816
2026-01-25 01:53:08.07	328.39	16.03	-41.2	-43.7	18.5	0.00e+00	0	41	0	304087040	53	4962
2026-01-25 01:53:11.05	327.75	16.11	-40.9	-43.5	18.8	0.00e+00	0	41	0	309329920	53	4837
2026-01-25 01:53:14.04	327.11	16.18	-41.0	-43.6	18.7	0.00e+00	0	41	0	314572800	53	4876
2026-01-25 01:53:17.02	326.47	16.25	-41.1	-43.7	18.6	0.00e+00	0	41	0	320864256	53	4954
2026-01-25 01:53:20.00	325.82	16.31	-41.0	-43.7	18.5	0.00e+00	0	41	0	326107136	53	4956
2026-01-25 01:53:22.99	325.17	16.37	-41.0	-43.7	18.6	0.00e+00	0	41	0	331350016	53	4966
2026-01-25 01:53:25.97	324.52	16.43	-41.5	-44.1	18.2	0.00e+00	0	41	0	337641472	53	5204
2026-01-25 01:53:28.95	323.87	16.49	-41.8	-44.3	18.0	0.00e+00	0	41	0	342884352	54	5005
2026-01-25 01:53:31.94	323.21	16.54	-41.6	-44.2	18.1	0.00e+00	0	41	0	348127232	54	4943
2026-01-25 01:53:34.92	322.55	16.58	-41.3	-43.9	18.4	0.00e+00	0	41	0	354418688	54	4784
2026-01-25 01:53:37.91	321.89	16.63	-41.2	-43.8	18.5	0.00e+00	0	41	0	359661568	54	4716
2026-01-25 01:53:40.89	321.23	16.66	-41.4	-44.0	18.4	0.00e+00	0	41	0	364904448	54	4838
2026-01-25 01:53:43.88	320.56	16.70	-41.5	-44.1	18.2	0.00e+00	0	41	0	371195904	54	4898
2026-01-25 01:53:46.87	319.90	16.73	-41.7	-44.4	17.9	0.00e+00	0	41	0	376438784	54	5097
2026-01-25 01:53:49.85	319.23	16.76	-41.9	-44.6	17.7	0.00e+00	0	41	0	381681664	54	5174
2026-01-25 01:53:52.84	318.56	16.78	-41.9	-44.6	17.7	0.00e+00	0	41	0	387973120	54	5181
2026-01-25 01:53:55.82	317.89	16.80	-41.8	-44.5	17.9	0.00e+00	0	41	0	393216000	54	5129
2026-01-25 01:53:58.80	317.22	16.82	-41.5	-44.4	18.0	0.00e+00	0	41	0	398458880	54	5050
2026-01-25 01:54:01.78	316.55	16.83	-41.7	-44.4	18.0	0.00e+00	0	41	0	404750336	54	5053
2026-01-25 01:54:04.77	315.88	16.84	-41.8	-44.4	18.0	0.00e+00	0	42	0	409993216	54	5045
2026-01-25 01:54:07.75	315.21	16.84	-41.6	-44.2	18.1	0.00e+00	0	41	0	416284672	54	4968
2026-01-25 01:54:10.74	314.54	16.84	-41.7	-44.3	18.0	0.00e+00	0	41	0	421527552	54	5013
2026-01-25 01:54:13.72	313.87	16.84	-41.9	-44.6	17.7	0.00e+00	0	41	0	426770432	54	5164
2026-01-25 01:54:16.71	313.19	16.83	-42.2	-44.9	17.4	0.00e+00	0	42	0	433061888	55	5086
2026-01-25 01:54:19.69	312.52	16.82	-42.0	-44.6	17.7	0.00e+00	0	41	0	438304768	55	4892
2026-01-25 01:54:22.67	311.85	16.80	-41.9	-44.4	17.9	0.00e+00	0	41	0	443547648	55	4813
2026-01-25 01:54:25.66	311.18	16.78	-41.8	-44.3	18.0	0.00e+00	0	41	0	449839104	55	4741
2026-01-25 01:54:28.65	310.51	16.76	-41.7	-44.3	18.0	0.00e+00	0	42	0	455081984	55	4758
2026-01-25 01:54:31.63	309.85	16.73	-41.8	-44.3	17.9	0.00e+00	0	42	0	460324864	55	4759
2026-01-25 01:54:34.61	309.18	16.70	-41.8	-44.4	17.9	0.00e+00	0	41	0	466616320	55	4789
2026-01-25 01:54:37.60	308.51	16.66	-41.9	-44.5	17.9	0.00e+00	0	41	0	471859200	55	4824
2026-01-25 01:54:40.58	307.85	16.62	-41.6	-44.1	18.2	0.00e+00	0	42	0	477102080	55	4611
2026-01-25 01:54:43.57	307.19	16.58	-41.6	-44.1	18.2	0.00e+00	0	41	0	483393536	55	4621
2026-01-25 01:54:46.56	306.53	16.53	-41.7	-44.2	18.1	0.00e+00	0	42	0	488636416	55	4656
2026-01-25 01:54:49.54	305.87	16.48	-41.5	-44.0	18.4	0.00e+00	0	42	0	493879296	55	4557
2026-01-25 01:54:52.53	305.22	16.42	-41.5	-43.9	18.4	0.00e+00	0	42	0	500170752	54	4809
2026-01-25 01:54:55.51	304.57	16.36	-41.4	-43.9	18.5	0.00e+00	0	42	0	505413632	54	4762
2026-01-25 01:54:58.49	303.92	16.30	-41.4	-43.8	18.5	0.00e+00	0	42	0	510656512	54	4731
2026-01-25 01:55:01.48	303.27	16.24	-41.3	-43.7	18.6	0.00e+00	0	42	0	516947968	54	4654
2026-01-25 01:55:04.46	302.63	16.17	-41.4	-43.8	18.5	0.00e+00	0	42	0	522190848	54	4713
2026-01-25 01:55:07.45	301.98	16.09	-41.5	-43.9	18.4	0.00e+00	0	42	0	527433728	54	4782
2026-01-25 01:55:10.43	301.35	16.02	-41.5	-43.9	18.4	0.00e+00	0	41	0	533725184	54	4786
2026-01-25 01:55:13.42	300.71	15.94	-41.6	-44.1	18.2	0.00e+00	0	41	0	538968064	54	4911
2026-01-25 01:55:16.40	300.08	15.86	-41.9	-44.4	17.9	0.00e+00	0	42	0	544210944	54	5080
2026-01-25 01:55:19.38	299.45	15.77	-41.8	-44.3	18.0	0.00e+00	0	42	0	550502400	54	5017
2026-01-25 01:55:22.37	298.83	15.68	-41.8	-44.3	18.1	0.00e+00	0	41	0	555745280	54	5022
2026-01-25 01:55:25.36	298.21	15.59	-42.0	-44.5	17.8	0.00e+00	0	42	0	560988160	54	5139
2026-01-25 01:55:28.34	297.59	15.50	-42.0	-44.6	17.7	0.00e+00	0	42	0	567279616	54	5197
2026-01-25 01:55:31.33	296.98	15.40	-42.2	-44.8	17.6	0.00e+00	0	41	0	572522496	54	5291
2026-01-25 01:55:34.31	296.37	15.30	-42.2	-44.9	17.5	0.00e+00	0	41	0	577765376	55	5049
2026-01-25 01:55:37.29	295.77	15.19	-42.1	-44.7	17.6	0.00e+00	0	41	0	584056832	55	4940
2026-01-25 01:55:40.28	295.17	15.09	-41.9	-44.4	17.9	0.00e+00	0	42	0	589299712	55	4811
2026-01-25 01:55:43.26	294.57	14.98	-41.6	-44.0	18.3	0.00e+00	0	42	0	594542592	55	4596
2026-01-25 01:55:46.24	293.98	14.87	-41.8	-44.3	18.0	0.00e+00	0	41	0	600834048	55	4736
2026-01-25 01:55:49.23	293.39	14.75	-42.0	-44.5	17.8	0.00e+00	0	42	0	606076928	55	4854
2026-01-25 01:55:52.21	292.81	14.64	-41.7	-44.2	18.1	0.00e+00	0	42	0	611319808	55	4691
2026-01-25 01:55:55.20	292.23	14.52	-41.6	-44.1	18.3	0.00e+00	0	41	0	617611264	55	4606
2026-01-25 01:55:58.18	291.66	14.40	-41.7	-44.1	18.2	0.00e+00	0	41	0	622854144	55	4636
2026-01-25 01:56:01.17	291.09	14.27	-41.8	-44.3	18.0	0.00e+00	0	42	0	628097024	55	4737
2026-01-25 01:56:04.16	290.53	14.15	-41.8	-44.3	18.0	0.00e+00	0	42	0	634388480	55	4751
2026-01-25 01:56:07.14	289.97	14.02	-41.8	-44.3	18.0	0.00e+00	0	41	0	639631360	55	4722
2026-01-25 01:56:10.12	289.42	13.89	-41.7	-44.2	18.1	0.00e+00	0	42	0	644874240	55	4676
2026-01-25 01:56:13.11	288.87	13.76	-41.7	-44.2	18.1	0.00e+00	0	42	0	651165696	55	4665
2026-01-25 01:56:16.10	288.32	13.62	-41.9	-44.4	17.9	0.00e+00	0	42	0	656408576	55	4797
2026-01-25 01:56:19.08	287.79	13.49	-42.2	-44.7	17.6	0.00e+00	0	42	0	661651456	55	4980
2026-01-25 01:56:22.07	287.25	13.35	-42.3	-44.9	17.4	0.00e+00	0	42	0	667942912	55	5086
2026-01-25 01:56:25.05	286.72	13.21	-42.3	-45.0	17.4	0.00e+00	0	42	0	673185792	55	5110
2026-01-25 01:56:28.04	286.20	13.07	-42.5	-45.3	17.1	0.00e+00	0	42	0	678428672	55	5284
2026-01-25 01:56:31.02	285.68	12.93	-42.9	-45.8	16.7	0.00e+00	0	42	0	684720128	56	5309
2026-01-25 01:56:34.00	285.17	12.79	-43.1	-46.0	16.5	0.00e+00	0	42	0	689963008	56	5436
2026-01-25 01:56:36.99	284.66	12.64	-43.0	-45.9	16.6	0.00e+00	0	42	0	695205888	56	5381
2026-01-25 01:56:39.98	284.15	12.50	-43.2	-46.2	16.3	0.00e+00	0	42	0	701497344	57	5262
2026-01-25 01:56:42.96	283.65	12.35	-43.6	-46.7	15.7	0.00e+00	0	42	0	706740224	57	5592
2026-01-25 01:56:45.94	283.16	12.20	-43.7	-46.8	15.7	0.00e+00	0	42	0	711983104	58	5290
2026-01-25 01:56:48.93	282.67	12.05	-43.5	-46.6	15.8	0.00e+00	0	42	0	718274560	58	5208
2026-01-25 01:56:51.91	282.19	11.90	-43.6	-46.7	15.8	0.00e+00	0	42	0	723517440	58	5248
2026-01-25 01:56:54.90	281.71	11.75	-43.9	-47.2	15.3	0.00e+00	0	42	0	728760320	58	5532
2026-01-25 01:56:57.88	281.24	11.60	-44.1	-47.4	15.0	0.00e+00	0	42	0	735051776	58	5715
2026-01-25 01:57:00.87	280.77	11.45	-44.1	-47.4	15.0	7.00e-07	0	41	0	740294656	58	5707
2026-01-25 01:57:03.85	280.30	11.29	-43.9	-47.2	15.2	0.00e+00	0	42	0	745537536	58	5577
2026-01-25 01:57:06.83	279.84	11.14	-43.8	-47.1	15.3	0.00e+00	0	41	0	751828992	58	5485
2026-01-25 01:57:09.82	279.39	10.98	-43.9	-47.2	15.2	0.00e+00	0	42	0	757071872	58	5586
2026-01-25 01:57:12.81	278.94	10.82	-44.1	-47.4	15.0	0.00e+00	0	42	0	762314752	58	5720
2026-01-25 01:57:15.79	278.50	10.67	-44.0	-47.4	15.1	0.00e+00	0	42	0	768606208	58	5659
2026-01-25 01:57:18.78	278.06	10.51	-43.9	-47.2	15.2	0.00e+00	0	41	0	773849088	58	5579
2026-01-25 01:57:21.76	277.62	10.35	-43.8	-47.1	15.3	0.00e+00	0	42	0	779091968	58	5506
2026-01-25 01:57:24.75	277.19	10.19	-43.7	-47.0	15.4	0.00e+00	0	42	0	785383424	58	5451
2026-01-25 01:57:27.73	276.77	10.03	-43.6	-46.9	15.6	0.00e+00	0	42	0	790626304	58	5341
2026-01-25 01:57:30.71	276.35	9.87	-43.5	-46.7	15.7	0.00e+00	0	41	0	795869184	58	5223
2026-01-25 01:57:33.70	275.93	9.71	-43.4	-46.5	15.9	0.00e+00	0	42	0	802160640	58	5138
2026-01-25 01:57:36.68	275.52	9.55	-43.3	-46.5	15.9	0.00e+00	0	42	0	807403520	58	5131
2026-01-25 01:57:39.66	275.11	9.39	-43.4	-46.6	15.8	0.00e+00	0	42	0	812646400	58	5175
2026-01-25 01:57:42.64	274.71	9.23	-43.2	-46.3	16.0	0.00e+00	0	42	0	818937856	58	5040
2026-01-25 01:57:45.63	274.31	9.06	-43.0	-46.0	16.3	0.00e+00	0	42	0	824180736	58	4844
2026-01-25 01:57:48.61	273.92	8.90	-48.5	-63.8	3.8	1.49e+00	0	42	104	826277888	67	22321
2026-01-25 01:57:51.59	273.53	8.74	-48.9	-64.2	3.8	1.49e+00	0	42	104	826277888	68	22107
2026-01-25 01:57:54.57	273.15	8.58	-49.1	-64.3	3.8	1.49e+00	0	42	104	826277888	68	22314
2026-01-25 01:57:57.54	272.77	8.42	-49.1	-64.3	3.8	1.49e+00	0	42	104	826277888	68	22483
2026-01-25 01:58:00.52	272.39	8.25	-48.9	-64.3	3.8	1.49e+00	0	42	104	826277888	68	22485
2026-01-25 01:58:03.50	272.02	8.09	-49.0	-64.4	3.8	1.49e+00	0	42	104	826277888	68	22546
2026-01-25 01:58:06.48	271.66	7.93	-48.9	-64.3	3.8	1.49e+00	0	42	104	826277888	68	22372
2026-01-25 01:58:09.46	271.29	7.76	-48.8	-64.2	3.8	1.49e+00	0	42	104	826277888	68	22221
2026-01-25 01:58:12.44	270.93	7.60	-48.8	-64.2	3.8	1.49e+00	0	42	104	826277888	68	22244
2026-01-25 01:58:15.42	270.58	7.44	-48.8	-64.2	3.8	1.49e+00	0	42	104	826277888	68	22147
2026-01-25 01:58:18.40	270.23	7.28	-48.8	-64.2	3.8	1.49e+00	0	42	104	826277888	68	22172
2026-01-25 01:58:21.37	269.88	7.11	-48.8	-64.2	3.8	1.49e+00	0	42	104	826277888	68	22126
2026-01-25 01:58:24.35	269.54	6.95	-48.8	-64.2	3.8	1.49e+00	0	42	104	826277888	68	22159
2026-01-25 01:58:27.33	269.20	6.79	-48.8	-64.2	3.8	1.49e+00	0	42	104	826277888	68	22129
2026-01-25 01:58:30.31	268.87	6.62	-48.8	-64.2	3.8	1.49e+00	0	42	104	826277888	68	22076
2026-01-25 01:58:33.29	268.54	6.46	-48.8	-64.2	3.8	1.49e+00	0	42	104	826277888	68	22166
2026-01-25 01:58:36.27	268.21	6.30	-48.8	-64.2	3.8	1.49e+00	0	42	104	826277888	68	22076
2026-01-25 01:58:39.25	267.88	6.14	-48.8	-64.2	3.8	1.49e+00	0	42	104	826277888	68	22154
2026-01-25 01:58:42.23	267.56	5.98	-48.8	-64.2	3.8	1.49e+00	0	42	104	826277888	68	22187
2026-01-25 01:58:45.21	267.25	5.81	-48.8	-64.2	3.8	1.49e+00	0	42	104	826277888	68	22087
2026-01-25 01:58:48.18	266.94	5.65	-48.8	-64.2	3.8	1.49e+00	0	42	104	826277888	68	22084
2026-01-25 01:58:51.16	266.63	5.49	-48.8	-64.2	3.8	1.49e+00	0	42	104	826277888	68	22088
2026-01-25 01:58:54.14	266.32	5.33	-48.8	-64.2	3.8	1.49e+00	0	42	104	826277888	68	22073
2026-01-25 01:58:57.12	266.02	5.17	-48.7	-64.1	3.8	1.49e+00	0	42	104	826277888	68	21989
2026-01-25 01:59:00.10	265.72	5.01	-48.8	-64.2	3.8	1.49e+00	0	42	104	826277888	68	22143

#Closed at: 2026-01-25 01:59:02
#Recorded file [826 MB]: D:/Data/31040_260125_044918.dat