passes_logs/2026/01/25/T1/T1__20260125_080013_KHAYYAM_rec.log

#Pass ID: 20260125_080013_KHAYYAM
#Satellite: KHAYYAM
#Configuration: KHAYYAM_480M
#almurnet v.1.7.20251203
#Start time: 2026-01-25 08:00:14

#Version: 2.0.20230620
#Station: T1
#Location: 37.570604 lon 55.790049 lat
#TLE: 1 53370U 22096A   26024.53891351  .00009807  00000+0  39879-3 0  9998
#TLE: 2 53370  97.3549 291.3780 0001977 107.4992 252.6462 15.24736514192695

#Time	Az	El	Level	Level2	SNR	BER	BlckErr	Temp	State	Recorded	gain1	gain2
2026-01-25 08:00:14.78	169.47	5.08	-47.5	-52.8	3.3	0.00e+00	0	40	0	0	66	26818
2026-01-25 08:00:17.76	169.52	5.33	-45.0	-50.4	3.7	0.00e+00	0	41	104	0	60	28540
2026-01-25 08:00:20.74	169.58	5.58	-45.0	-50.2	3.7	0.00e+00	0	41	104	0	60	28107
2026-01-25 08:00:23.72	169.63	5.83	-45.0	-50.3	3.7	0.00e+00	0	41	104	0	60	28259
2026-01-25 08:00:26.70	169.69	6.08	-44.9	-50.2	3.7	0.00e+00	0	41	104	0	60	27977
2026-01-25 08:00:29.68	169.75	6.34	-44.9	-50.2	3.7	0.00e+00	0	41	104	0	60	27952
2026-01-25 08:00:32.66	169.81	6.60	-44.9	-50.1	3.8	0.00e+00	0	42	104	0	60	27675
2026-01-25 08:00:35.64	169.86	6.87	-44.8	-50.1	3.7	0.00e+00	0	42	104	0	60	27696
2026-01-25 08:00:38.62	169.93	7.14	-44.7	-50.0	3.7	0.00e+00	0	42	104	0	60	27365
2026-01-25 08:00:41.60	169.99	7.41	-44.7	-50.0	3.7	0.00e+00	0	42	104	0	60	27229
2026-01-25 08:00:44.58	170.05	7.69	-44.7	-49.9	3.7	0.00e+00	0	42	104	0	60	27072
2026-01-25 08:00:47.56	170.12	7.97	-44.4	-49.8	3.7	0.00e+00	0	42	104	0	60	26700
2026-01-25 08:00:50.54	170.18	8.25	-44.3	-49.7	3.7	0.00e+00	0	42	104	0	60	26537
2026-01-25 08:00:53.52	170.25	8.54	-44.3	-49.6	3.7	0.00e+00	0	43	104	0	60	26208
2026-01-25 08:00:56.50	170.32	8.84	-44.3	-49.6	3.7	0.00e+00	0	43	104	0	60	26211
2026-01-25 08:00:59.48	170.39	9.14	-44.1	-49.5	3.7	0.00e+00	0	43	104	0	60	25788
2026-01-25 08:01:02.46	170.46	9.44	-46.5	-51.5	3.7	0.00e+00	0	43	104	0	63	27456
2026-01-25 08:01:05.45	170.53	9.75	-45.0	-50.3	3.7	0.00e+00	0	43	104	0	60	28206
2026-01-25 08:01:08.48	170.61	10.07	-46.2	-51.4	3.7	0.00e+00	0	43	104	0	63	27187
2026-01-25 08:01:11.46	170.69	10.39	-46.3	-51.6	3.7	0.00e+00	0	43	104	0	63	27711
2026-01-25 08:01:14.44	170.77	10.72	-45.1	-50.3	3.7	0.00e+00	0	43	104	0	62	25355
2026-01-25 08:01:17.42	170.85	11.05	-45.1	-50.6	3.7	0.00e+00	0	44	104	0	61	27554
2026-01-25 08:01:20.41	170.93	11.39	-45.1	-50.5	3.7	0.00e+00	0	44	104	0	61	27295
2026-01-25 08:01:23.39	171.02	11.74	-44.9	-50.3	3.7	0.00e+00	0	44	104	0	61	26647
2026-01-25 08:01:26.34	171.11	12.08	-45.2	-50.6	3.7	0.00e+00	0	44	104	0	61	27525
2026-01-25 08:01:29.47	171.20	12.46	-46.0	-51.2	3.7	0.00e+00	0	44	104	0	62	28097
2026-01-25 08:01:32.31	171.29	12.81	-45.4	-50.7	3.7	0.00e+00	0	44	104	0	62	26366
2026-01-25 08:01:35.43	171.39	13.20	-46.6	-51.9	3.7	0.00e+00	0	44	104	0	63	28784
2026-01-25 08:01:38.28	171.48	13.56	-50.1	-54.9	3.7	0.00e+00	0	44	104	0	70	27072
2026-01-25 08:01:41.62	171.59	13.99	-50.5	-55.4	3.7	0.00e+00	0	44	104	0	71	26945
2026-01-25 08:01:44.35	171.69	14.36	-50.5	-55.4	3.7	0.00e+00	0	44	104	0	71	27132
2026-01-25 08:01:47.59	171.81	14.80	-50.4	-55.5	3.7	0.00e+00	0	44	104	0	72	25712
2026-01-25 08:01:50.88	171.93	15.26	-49.8	-54.8	3.7	0.00e+00	0	44	104	0	71	25343
2026-01-25 08:01:53.81	172.04	15.68	-50.0	-55.2	3.7	0.00e+00	0	44	104	0	71	26427
2026-01-25 08:01:57.08	172.17	16.15	-49.7	-54.9	3.7	0.00e+00	0	44	104	0	71	25433
2026-01-25 08:01:59.89	172.28	16.57	-50.2	-55.2	3.7	0.00e+00	0	44	104	0	71	26288
2026-01-25 08:02:03.01	172.41	17.05	-50.6	-55.5	3.7	0.00e+00	0	44	104	0	71	27352
2026-01-25 08:02:05.89	172.54	17.50	-50.4	-55.2	3.7	0.00e+00	0	44	104	0	72	24972
2026-01-25 08:02:09.01	172.68	18.01	-50.8	-55.6	3.7	0.00e+00	0	44	104	0	72	26091
2026-01-25 08:02:11.86	172.81	18.48	-50.8	-55.3	3.7	0.00e+00	0	45	104	0	72	25190
2026-01-25 08:02:14.98	172.96	19.01	-50.9	-55.7	3.7	0.00e+00	0	45	104	0	72	26438
2026-01-25 08:02:17.82	173.11	19.50	-50.8	-55.4	3.7	0.00e+00	0	45	104	0	72	25405
2026-01-25 08:02:20.97	173.27	20.06	-50.3	-54.2	3.7	0.00e+00	0	45	104	0	72	22211
2026-01-25 08:02:23.85	173.43	20.59	-49.5	-53.0	3.7	0.00e+00	0	44	104	0	71	20402
2026-01-25 08:02:27.14	173.61	21.21	-50.6	-55.1	3.7	0.00e+00	0	45	104	0	72	24717
2026-01-25 08:02:29.87	173.77	21.74	-49.6	-53.5	3.7	0.00e+00	0	45	104	0	71	21653
2026-01-25 08:02:33.18	173.97	22.41	-49.2	-52.4	3.7	0.00e+00	0	45	104	0	70	20300
2026-01-25 08:02:35.90	174.15	22.97	-49.9	-53.9	3.7	0.00e+00	0	45	104	0	71	22671
2026-01-25 08:02:39.09	174.36	23.64	-50.8	-55.6	3.7	0.00e+00	0	45	104	0	72	26057
2026-01-25 08:02:42.45	174.59	24.38	-51.4	-56.0	3.7	0.00e+00	0	45	104	0	73	25939
2026-01-25 08:02:45.17	174.79	25.00	-51.5	-56.3	3.7	0.00e+00	0	45	104	0	73	26600
2026-01-25 08:02:48.47	175.05	25.77	-50.2	-53.8	3.7	0.00e+00	0	45	104	0	72	21140
2026-01-25 08:02:51.18	175.26	26.42	-50.6	-54.3	3.7	0.00e+00	0	45	104	0	71	23782
2026-01-25 08:02:54.67	175.56	27.29	-50.9	-54.6	3.7	0.00e+00	0	45	104	0	72	23182
2026-01-25 08:02:57.43	175.80	28.01	-51.8	-56.2	3.7	0.00e+00	0	45	104	0	74	24848
2026-01-25 08:03:00.76	176.12	28.90	-51.7	-56.4	3.7	0.00e+00	0	45	104	0	74	25463
2026-01-25 08:03:03.47	176.38	29.65	-51.9	-56.3	3.7	0.00e+00	0	45	104	0	74	25296
2026-01-25 08:03:06.77	176.73	30.59	-51.4	-56.2	3.7	0.00e+00	0	45	104	0	74	24990
2026-01-25 08:03:09.49	177.03	31.40	-51.1	-55.9	3.7	0.00e+00	0	45	104	0	74	24196
2026-01-25 08:03:13.02	177.45	32.49	-51.4	-56.1	3.7	0.00e+00	0	45	104	0	74	24783
2026-01-25 08:03:15.92	177.81	33.41	-51.7	-56.4	3.7	0.00e+00	0	45	104	0	74	25636
2026-01-25 08:03:19.19	178.25	34.50	-52.1	-56.8	3.7	0.00e+00	0	45	104	0	74	26625
2026-01-25 08:03:21.93	178.64	35.44	-52.0	-56.7	3.7	0.00e+00	0	45	104	0	74	26502
2026-01-25 08:03:25.21	179.14	36.61	-52.1	-56.8	3.7	0.00e+00	0	45	104	0	74	26727
2026-01-25 08:03:27.95	179.59	37.63	-51.3	-56.2	3.7	0.00e+00	0	45	104	0	74	24893
2026-01-25 08:03:31.27	180.17	38.91	-51.7	-56.4	3.7	0.00e+00	0	45	104	0	74	25649
2026-01-25 08:03:34.00	180.69	40.00	-51.7	-56.6	3.7	0.00e+00	0	45	104	0	74	26271
2026-01-25 08:03:37.28	181.36	41.36	-51.8	-56.6	3.7	0.00e+00	0	45	104	0	74	26128
2026-01-25 08:03:40.01	181.97	42.53	-51.7	-56.6	3.7	0.00e+00	0	45	104	0	74	26073
2026-01-25 08:03:43.29	182.76	43.99	-51.8	-56.6	3.7	0.00e+00	0	45	104	0	74	26110
2026-01-25 08:03:46.14	183.51	45.31	-51.7	-56.5	3.7	0.00e+00	0	45	104	0	74	25868
2026-01-25 08:03:49.27	184.42	46.81	-52.3	-56.8	3.7	0.00e+00	0	45	104	0	75	25106
2026-01-25 08:03:52.16	185.34	48.24	-52.3	-56.8	3.7	0.00e+00	0	45	104	0	75	25216
2026-01-25 08:03:55.29	186.44	49.85	-51.9	-56.7	3.7	0.00e+00	0	45	104	0	75	24817
2026-01-25 08:03:58.13	187.55	51.35	-52.3	-56.8	3.7	0.00e+00	0	45	104	0	75	25157
2026-01-25 08:04:01.26	188.91	53.05	-51.5	-56.3	3.7	0.00e+00	0	45	104	0	74	25355
2026-01-25 08:04:04.10	190.29	54.64	-51.1	-56.3	3.7	0.00e+00	0	45	104	0	73	26740
2026-01-25 08:04:07.38	192.10	56.51	-52.3	-57.0	3.7	0.00e+00	0	45	104	0	75	25720
2026-01-25 08:04:10.28	193.92	58.21	-52.4	-56.9	3.7	0.00e+00	0	45	104	0	75	25395
2026-01-25 08:04:13.66	196.36	60.21	-52.2	-56.9	3.7	0.00e+00	0	45	104	0	75	25535
2026-01-25 08:04:16.71	198.92	62.03	-52.1	-56.9	3.7	0.00e+00	0	45	104	0	75	25387
2026-01-25 08:04:19.85	201.99	63.90	-52.4	-57.0	3.7	0.00e+00	0	45	104	0	75	25851
2026-01-25 08:04:22.70	205.24	65.58	-51.9	-56.7	3.7	0.00e+00	0	45	104	0	75	24916
2026-01-25 08:04:25.97	209.62	67.45	-52.5	-57.0	3.7	0.00e+00	0	45	104	0	75	25863
2026-01-25 08:04:28.87	214.22	69.03	-52.3	-56.9	3.7	0.00e+00	0	45	104	0	75	25439
2026-01-25 08:04:32.11	220.28	70.65	-51.7	-56.6	3.7	0.00e+00	0	45	104	0	74	26151
2026-01-25 08:04:34.95	226.49	71.89	-52.4	-57.0	3.7	0.00e+00	0	45	104	0	75	25809
2026-01-25 08:04:37.99	234.12	72.98	-52.4	-57.0	3.7	0.00e+00	0	45	104	0	75	25802
2026-01-25 08:04:40.98	242.53	73.75	-52.0	-56.8	3.7	0.00e+00	0	45	104	0	75	25335
2026-01-25 08:04:43.96	251.57	74.15	-51.8	-56.6	3.7	0.00e+00	0	45	104	0	75	24555
2026-01-25 08:04:46.95	260.90	74.17	-51.0	-56.2	3.7	0.00e+00	0	45	104	0	74	24921
2026-01-25 08:04:49.95	270.04	73.79	-51.9	-56.4	3.7	0.00e+00	0	45	104	0	74	25619
2026-01-25 08:04:52.99	278.64	73.03	-51.8	-56.5	3.7	0.00e+00	0	45	104	0	74	25713
2026-01-25 08:04:55.99	286.22	71.98	-51.8	-56.8	3.7	0.00e+00	0	45	104	0	74	26586
2026-01-25 08:04:58.98	292.80	70.68	-51.8	-56.5	3.7	0.00e+00	0	45	104	0	74	25708
2026-01-25 08:05:01.96	298.42	69.20	-51.7	-56.7	3.7	0.00e+00	0	45	104	0	74	26491
2026-01-25 08:05:04.94	303.21	67.60	-52.1	-56.9	3.7	0.00e+00	0	45	104	0	75	25518
2026-01-25 08:05:07.92	307.29	65.91	-52.2	-56.9	3.7	0.00e+00	0	45	104	0	75	25537
2026-01-25 08:05:10.97	310.84	64.12	-52.0	-56.6	3.7	0.00e+00	0	45	104	0	75	24724
2026-01-25 08:05:13.81	313.68	62.43	-51.4	-56.4	3.7	0.00e+00	0	45	104	0	74	25619
2026-01-25 08:05:16.94	316.38	60.57	-51.3	-56.2	3.7	0.00e+00	0	45	104	0	74	25078
2026-01-25 08:05:19.78	318.51	58.89	-51.8	-56.6	3.7	0.00e+00	0	45	104	0	74	26193
2026-01-25 08:05:23.08	320.66	56.96	-51.5	-56.3	3.7	0.00e+00	0	45	104	0	74	25247
2026-01-25 08:05:25.98	322.32	55.29	-51.9	-56.8	3.7	0.00e+00	0	45	104	0	74	26687
2026-01-25 08:05:29.25	323.97	53.46	-51.6	-56.4	3.7	0.00e+00	0	45	104	0	74	25587
2026-01-25 08:05:32.09	325.24	51.91	-51.9	-56.5	3.7	0.00e+00	0	45	104	0	74	25818
2026-01-25 08:05:35.52	326.61	50.09	-50.9	-56.1	3.7	0.00e+00	0	45	104	0	73	26104
2026-01-25 08:05:38.25	327.58	48.69	-50.3	-55.8	3.7	0.00e+00	0	45	104	0	72	26780
2026-01-25 08:05:41.54	328.65	47.05	-51.9	-56.5	3.7	0.00e+00	0	45	104	0	74	25965
2026-01-25 08:05:44.26	329.45	45.75	-52.2	-56.8	3.7	0.00e+00	0	45	104	0	75	25256
2026-01-25 08:05:47.53	330.33	44.23	-51.6	-56.6	3.7	0.00e+00	0	45	104	0	75	24763
2026-01-25 08:05:50.27	331.00	43.01	-51.9	-56.6	3.7	0.00e+00	0	45	104	0	74	26178
2026-01-25 08:05:53.68	331.77	41.54	-50.7	-56.0	3.7	0.00e+00	0	45	104	0	73	25769
2026-01-25 08:05:56.44	332.34	40.39	-50.3	-55.8	3.7	0.00e+00	0	45	104	0	72	26885
2026-01-25 08:05:59.77	332.98	39.06	-51.1	-56.2	3.7	0.00e+00	0	45	104	0	72	27968
2026-01-25 08:06:02.50	333.47	38.01	-51.0	-56.1	3.7	0.00e+00	0	46	104	0	73	26149
2026-01-25 08:06:05.78	334.01	36.79	-52.1	-56.8	3.7	0.00e+00	0	45	104	0	74	26873
2026-01-25 08:06:08.59	334.45	35.78	-52.2	-56.9	3.7	0.00e+00	0	45	104	0	75	25505
2026-01-25 08:06:11.72	334.90	34.70	-51.6	-56.5	3.7	0.00e+00	0	45	104	0	75	24364
2026-01-25 08:06:14.56	335.28	33.76	-50.0	-55.4	3.7	0.00e+00	0	45	104	0	71	26907
2026-01-25 08:06:17.69	335.68	32.75	-50.4	-55.8	3.7	0.00e+00	0	45	104	0	71	28282
2026-01-25 08:06:20.62	336.03	31.85	-51.2	-56.1	3.7	0.00e+00	0	45	104	0	72	27665
2026-01-25 08:06:23.70	336.38	30.93	-51.2	-56.0	3.7	0.00e+00	0	45	104	0	73	25928
2026-01-25 08:06:26.99	336.73	29.98	-48.6	-54.4	3.7	0.00e+00	0	46	104	0	69	27032
2026-01-25 08:06:29.69	337.00	29.23	-50.2	-55.2	3.7	0.00e+00	0	45	104	0	70	27929
2026-01-25 08:06:32.99	337.31	28.34	-50.8	-55.7	3.7	0.00e+00	0	45	104	0	72	26478
2026-01-25 08:06:35.71	337.56	27.64	-50.9	-55.7	3.7	0.00e+00	0	45	104	0	72	26479
2026-01-25 08:06:39.14	337.85	26.78	-50.0	-55.6	3.7	0.00e+00	0	45	104	0	71	27699
2026-01-25 08:06:42.16	338.10	26.04	-49.6	-55.2	3.7	0.00e+00	0	45	104	0	71	26551
2026-01-25 08:06:45.45	338.36	25.27	-50.0	-55.6	3.7	0.00e+00	0	45	104	0	71	27532
2026-01-25 08:06:48.18	338.56	24.65	-50.6	-55.9	3.7	0.00e+00	0	45	104	0	72	27132
2026-01-25 08:06:51.55	338.80	23.91	-49.5	-54.9	3.7	0.00e+00	0	45	104	0	71	25410
2026-01-25 08:06:54.26	338.98	23.33	-50.1	-55.4	3.7	0.00e+00	0	45	104	0	70	28681
2026-01-25 08:06:57.97	339.22	22.57	-50.7	-55.9	3.7	0.00e+00	0	45	104	0	72	27166
2026-01-25 08:07:00.69	339.39	22.02	-50.2	-55.6	3.7	0.00e+00	0	45	104	0	71	27634
2026-01-25 08:07:03.95	339.58	21.39	-50.4	-55.9	3.7	0.00e+00	0	45	104	0	72	26901
2026-01-25 08:07:06.68	339.74	20.87	-49.2	-55.2	3.7	0.00e+00	0	45	104	0	70	27899
2026-01-25 08:07:10.04	339.92	20.26	-51.1	-56.3	3.7	0.00e+00	0	45	104	0	72	28479
2026-01-25 08:07:12.76	340.06	19.77	-50.8	-56.1	3.7	0.00e+00	0	45	104	0	73	26082
2026-01-25 08:07:16.12	340.24	19.19	-50.6	-55.9	3.7	0.00e+00	0	46	104	0	71	28596
2026-01-25 08:07:19.52	340.40	18.61	-50.5	-55.8	3.7	0.00e+00	0	46	104	0	71	28399
2026-01-25 08:07:22.21	340.53	18.17	-51.6	-56.5	3.7	0.00e+00	0	45	104	0	73	27392
2026-01-25 08:07:25.50	340.68	17.64	-51.4	-56.3	3.7	0.00e+00	0	45	104	0	73	26739
2026-01-25 08:07:28.21	340.80	17.22	-50.0	-55.5	3.7	0.00e+00	0	45	104	0	71	27255
2026-01-25 08:07:31.56	340.94	16.71	-50.3	-55.7	3.7	0.00e+00	0	45	104	0	71	28132
2026-01-25 08:07:34.37	341.06	16.29	-49.9	-55.5	3.7	0.00e+00	0	45	104	0	71	27252
2026-01-25 08:07:37.94	341.20	15.77	-50.2	-55.7	3.7	0.00e+00	0	45	104	0	71	27930
2026-01-25 08:07:40.79	341.31	15.37	-49.9	-55.4	3.7	0.00e+00	0	45	104	0	71	26901
2026-01-25 08:07:43.91	341.43	14.93	-49.3	-55.1	3.7	0.00e+00	0	45	104	0	69	29335
2026-01-25 08:07:46.75	341.53	14.55	-49.6	-55.4	3.7	0.00e+00	0	45	104	0	69	30231
2026-01-25 08:07:49.90	341.64	14.13	-49.9	-55.5	3.7	0.00e+00	0	45	104	0	70	28986
2026-01-25 08:07:52.74	341.74	13.76	-49.2	-55.0	3.7	0.00e+00	0	45	104	0	69	28966
2026-01-25 08:07:55.87	341.84	13.36	-48.4	-54.6	3.7	0.00e+00	0	45	104	0	68	29242
2026-01-25 08:07:58.71	341.93	13.01	-48.8	-55.1	3.7	0.00e+00	0	45	104	0	69	29459
2026-01-25 08:08:01.90	342.04	12.62	-47.6	-53.8	3.7	0.00e+00	0	45	104	0	66	30116
2026-01-25 08:08:04.82	342.13	12.27	-47.4	-53.7	3.7	0.00e+00	0	46	104	0	66	29778
2026-01-25 08:08:08.11	342.22	11.88	-49.0	-55.0	3.7	0.00e+00	0	45	104	0	68	30770
2026-01-25 08:08:11.27	342.32	11.52	-49.5	-55.6	3.7	0.00e+00	0	45	104	0	69	30986
2026-01-25 08:08:14.25	342.40	11.18	-49.6	-55.6	3.7	0.00e+00	0	45	104	0	69	31191
2026-01-25 08:08:17.23	342.49	10.85	-49.0	-54.9	3.7	0.00e+00	0	46	104	0	69	28664
2026-01-25 08:08:20.28	342.57	10.52	-48.7	-54.7	3.7	0.00e+00	0	45	104	0	69	28125
2026-01-25 08:08:23.29	342.65	10.20	-47.7	-54.0	3.7	0.00e+00	0	45	104	0	67	28906
2026-01-25 08:08:26.17	342.72	9.90	-47.5	-54.0	3.7	0.00e+00	0	45	104	0	66	30565
2026-01-25 08:08:29.29	342.80	9.58	-48.0	-54.3	3.7	0.00e+00	0	45	104	0	66	31753
2026-01-25 08:08:32.13	342.87	9.29	-46.2	-53.2	3.7	0.00e+00	0	45	104	0	64	31346
2026-01-25 08:08:35.26	342.95	8.97	-49.5	-55.3	3.7	0.00e+00	0	45	104	0	69	29930
2026-01-25 08:08:38.10	343.02	8.69	-50.9	-56.0	3.7	0.00e+00	0	45	104	0	72	27381
2026-01-25 08:08:41.22	343.09	8.39	-50.5	-55.6	3.7	0.00e+00	0	45	104	0	73	24556
2026-01-25 08:08:44.18	343.16	8.11	-51.0	-56.2	3.7	0.00e+00	0	45	104	0	74	24967
2026-01-25 08:08:47.54	343.23	7.79	-52.4	-57.1	3.7	0.00e+00	0	45	104	0	75	26134
2026-01-25 08:08:50.45	343.30	7.53	-52.4	-57.1	3.7	0.00e+00	0	45	104	0	75	26202
2026-01-25 08:08:53.85	343.37	7.22	-52.6	-57.2	3.7	0.00e+00	0	45	104	0	75	26523
2026-01-25 08:08:56.56	343.43	6.97	-52.4	-57.0	3.7	0.00e+00	0	45	104	0	76	24489
2026-01-25 08:08:59.82	343.49	6.68	-51.3	-56.2	3.7	0.00e+00	0	45	104	0	74	24975
2026-01-25 08:09:02.53	343.55	6.45	-51.4	-56.2	3.7	0.00e+00	0	45	104	0	74	25029
2026-01-25 08:09:05.81	343.61	6.17	-51.4	-56.3	3.7	0.00e+00	0	45	104	0	74	25115
2026-01-25 08:09:08.52	343.67	5.94	-51.4	-56.2	3.7	0.00e+00	0	45	104	0	74	25074
2026-01-25 08:09:11.79	343.73	5.66	-51.4	-56.2	3.7	0.00e+00	0	45	104	0	74	24934
2026-01-25 08:09:14.50	343.78	5.44	-51.4	-56.2	3.7	0.00e+00	0	45	104	0	74	25055
2026-01-25 08:09:17.78	343.84	5.17	-51.4	-56.2	3.7	0.00e+00	0	45	104	0	74	25074
2026-01-25 08:09:20.47	343.89	4.95	-51.4	-56.2	3.7	0.00e+00	0	45	104	0	74	25035

#Closed at: 2026-01-25 08:09:21
#Recorded file [0 MB]: D:/Data/31040_260125_110014.dat