passes_logs/2026/01/25/T1/T1__20260125_222807_KHAYYAM_rec.log

#Pass ID: 20260125_222807_KHAYYAM
#Satellite: KHAYYAM
#Configuration: KHAYYAM_480M
#almurnet v.1.7.20251203
#Start time: 2026-01-25 22:28:08

#Version: 2.0.20230620
#Station: T1
#Location: 37.570604 lon 55.790049 lat
#TLE: 1 53370U 22096A   26025.52331655  .00008952  00000+0  36409-3 0  9990
#TLE: 2 53370  97.3548 292.3446 0002015 107.7466 252.3991 15.24754173192849

#Time	Az	El	Level	Level2	SNR	BER	BlckErr	Temp	State	Recorded	gain1	gain2
2026-01-25 22:28:08.60	358.31	5.04	-50.9	-55.9	3.6	0.00e+00	0	42	0	0	72	26994
2026-01-25 22:28:10.58	358.09	5.18	-42.8	-49.8	4.2	0.00e+00	0	43	104	0	57	31638
2026-01-25 22:28:12.57	357.87	5.32	-42.8	-49.7	4.2	0.00e+00	0	43	104	0	57	31243
2026-01-25 22:28:14.55	357.65	5.46	-42.9	-49.7	4.2	0.00e+00	0	43	104	0	57	31572
2026-01-25 22:28:16.54	357.43	5.60	-42.9	-49.8	4.2	0.00e+00	0	43	104	0	57	31676
2026-01-25 22:28:18.53	357.20	5.74	-42.9	-49.9	4.2	0.00e+00	0	43	104	0	57	32058
2026-01-25 22:28:20.51	356.97	5.88	-42.9	-49.8	4.2	0.00e+00	0	43	104	0	57	31776
2026-01-25 22:28:22.50	356.74	6.03	-42.9	-49.8	4.2	0.00e+00	0	44	104	0	57	31632
2026-01-25 22:28:24.49	356.50	6.17	-42.9	-49.8	4.2	0.00e+00	0	44	104	0	57	31632
2026-01-25 22:28:26.47	356.26	6.31	-42.9	-49.8	4.2	0.00e+00	0	44	104	0	57	31779
2026-01-25 22:28:28.46	356.02	6.46	-42.9	-49.9	4.2	0.00e+00	0	44	104	0	57	32032
2026-01-25 22:28:30.45	355.77	6.60	-42.9	-49.8	4.2	0.00e+00	0	44	104	0	57	31768
2026-01-25 22:28:32.43	355.53	6.75	-42.9	-49.8	4.2	0.00e+00	0	44	104	0	57	31876
2026-01-25 22:28:34.42	355.27	6.90	-43.0	-49.9	4.2	0.00e+00	0	45	104	0	57	32165
2026-01-25 22:28:36.41	355.02	7.04	-43.0	-49.9	4.2	0.00e+00	0	45	104	0	57	32109
2026-01-25 22:28:38.39	354.76	7.19	-43.0	-49.9	4.2	0.00e+00	0	45	104	0	57	32057
2026-01-25 22:28:40.38	354.50	7.34	-43.0	-49.9	4.2	0.00e+00	0	45	104	0	57	32082
2026-01-25 22:28:42.37	354.23	7.49	-43.0	-49.9	4.2	0.00e+00	0	45	104	0	57	32131
2026-01-25 22:28:44.35	353.96	7.64	-43.0	-49.8	4.2	0.00e+00	0	45	104	0	57	31890
2026-01-25 22:28:46.34	353.69	7.79	-43.0	-49.8	4.2	0.00e+00	0	45	104	0	57	31916
2026-01-25 22:28:48.33	353.41	7.95	-43.0	-49.9	4.2	0.00e+00	0	45	104	0	57	32181
2026-01-25 22:28:50.31	353.13	8.10	-43.0	-49.9	4.2	0.00e+00	0	46	104	0	57	32237
2026-01-25 22:28:52.30	352.85	8.25	-43.0	-49.9	4.2	0.00e+00	0	46	104	0	57	32070
2026-01-25 22:28:54.29	352.56	8.40	-43.0	-49.8	4.2	0.00e+00	0	46	104	0	57	31819
2026-01-25 22:28:56.27	352.27	8.56	-43.0	-49.8	4.2	0.00e+00	0	46	104	0	57	31885
2026-01-25 22:28:58.26	351.97	8.71	-43.0	-49.9	4.2	0.00e+00	0	46	104	0	57	32182
2026-01-25 22:29:00.25	351.67	8.87	-43.0	-49.8	4.2	0.00e+00	0	46	104	0	57	31932
2026-01-25 22:29:02.23	351.37	9.03	-43.0	-49.8	4.2	0.00e+00	0	46	104	0	57	31760
2026-01-25 22:29:04.25	351.05	9.19	-45.9	-52.4	3.8	0.00e+00	0	46	104	0	63	30280
2026-01-25 22:29:06.25	350.74	9.35	-46.9	-53.2	3.7	0.00e+00	0	46	104	0	64	31552
2026-01-25 22:29:08.31	350.41	9.51	-45.2	-52.0	3.9	0.00e+00	0	46	104	0	62	30707
2026-01-25 22:29:10.30	350.09	9.67	-43.1	-50.0	4.2	0.00e+00	0	46	104	0	58	30706
2026-01-25 22:29:12.29	349.76	9.83	-44.5	-51.0	3.9	0.00e+00	0	46	104	0	60	30698
2026-01-25 22:29:14.28	349.43	9.99	-44.0	-50.6	3.9	0.00e+00	0	47	104	0	59	30954
2026-01-25 22:29:16.27	349.09	10.15	-42.9	-49.7	4.2	0.00e+00	0	46	104	0	57	31367
2026-01-25 22:29:18.26	348.75	10.31	-43.5	-50.1	4.0	0.00e+00	0	47	104	0	57	32935
2026-01-25 22:29:20.24	348.41	10.48	-44.1	-50.7	4.0	0.00e+00	0	46	104	0	58	33308
2026-01-25 22:29:22.24	348.06	10.64	-44.2	-50.9	4.0	0.00e+00	0	46	104	0	59	32110
2026-01-25 22:29:24.25	347.70	10.81	-45.8	-52.5	3.8	0.00e+00	0	47	104	0	62	32333
2026-01-25 22:29:26.24	347.34	10.97	-44.6	-51.4	4.0	0.00e+00	0	47	104	0	59	34087
2026-01-25 22:29:28.24	346.97	11.14	-45.9	-52.6	3.8	0.00e+00	0	47	104	0	62	32753
2026-01-25 22:29:30.26	346.59	11.30	-46.1	-52.7	3.8	0.00e+00	0	47	104	0	63	31454
2026-01-25 22:29:32.26	346.22	11.47	-48.8	-54.8	3.7	0.00e+00	0	47	104	0	68	30165
2026-01-25 22:29:34.64	345.76	11.67	-47.7	-53.7	3.7	0.00e+00	0	47	104	0	66	29617
2026-01-25 22:29:36.63	345.37	11.84	-48.5	-54.3	3.7	0.00e+00	0	47	104	0	67	30102
2026-01-25 22:29:38.62	344.98	12.00	-48.1	-54.3	3.7	0.00e+00	0	47	104	0	67	30106
2026-01-25 22:29:40.61	344.58	12.17	-48.4	-54.6	3.7	0.00e+00	0	47	104	0	67	31020
2026-01-25 22:29:42.60	344.17	12.34	-48.5	-54.8	3.7	0.00e+00	0	47	104	0	68	29915
2026-01-25 22:29:44.59	343.76	12.51	-48.0	-54.4	3.7	0.00e+00	0	47	104	0	68	28702
2026-01-25 22:29:46.58	343.34	12.68	-47.4	-53.7	3.7	0.00e+00	0	47	104	0	66	29659
2026-01-25 22:29:48.58	342.92	12.85	-48.5	-54.6	3.7	0.00e+00	0	47	104	0	67	31083
2026-01-25 22:29:50.57	342.49	13.02	-48.7	-54.7	3.7	0.00e+00	0	47	104	0	68	29704
2026-01-25 22:29:52.56	342.06	13.19	-48.5	-54.6	3.7	0.00e+00	0	47	104	0	68	29208
2026-01-25 22:29:54.55	341.62	13.36	-47.0	-53.3	3.7	0.00e+00	0	47	104	0	66	28183
2026-01-25 22:29:56.54	341.17	13.53	-49.0	-54.6	3.7	0.00e+00	0	47	104	0	68	29397
2026-01-25 22:29:58.53	340.71	13.70	-49.4	-55.0	3.7	0.00e+00	0	47	104	0	70	27495
2026-01-25 22:30:00.52	340.25	13.87	-47.4	-53.6	3.7	0.00e+00	0	47	104	0	66	29286
2026-01-25 22:30:02.51	339.79	14.04	-47.5	-53.7	3.7	0.00e+00	0	47	104	0	66	29516
2026-01-25 22:30:04.50	339.32	14.21	-49.1	-54.7	3.7	0.00e+00	0	47	104	0	68	29689
2026-01-25 22:30:06.49	338.84	14.38	-49.2	-54.6	3.7	0.00e+00	0	47	104	0	69	27674
2026-01-25 22:30:08.48	338.35	14.55	-49.4	-54.7	3.7	0.00e+00	0	47	104	0	69	27893
2026-01-25 22:30:10.48	337.85	14.72	-50.2	-55.4	3.7	0.00e+00	0	47	104	0	71	27092
2026-01-25 22:30:12.46	337.36	14.88	-51.1	-55.9	3.7	0.00e+00	0	47	104	0	73	25428
2026-01-25 22:30:14.46	336.85	15.05	-49.8	-55.2	3.7	0.00e+00	0	47	104	0	71	26394
2026-01-25 22:30:16.45	336.33	15.22	-49.3	-54.8	3.7	0.00e+00	0	47	104	0	70	26652
2026-01-25 22:30:18.43	335.81	15.39	-49.7	-54.9	3.7	0.00e+00	0	48	104	0	70	27186
2026-01-25 22:30:20.42	335.29	15.55	-50.0	-55.4	3.7	0.00e+00	0	47	104	0	71	26901
2026-01-25 22:30:22.43	334.75	15.72	-49.4	-54.9	3.7	0.00e+00	0	48	104	0	70	27027
2026-01-25 22:30:24.48	334.19	15.89	-48.9	-54.5	3.7	0.00e+00	0	48	104	0	69	27477
2026-01-25 22:30:26.47	333.64	16.06	-49.3	-54.8	3.7	0.00e+00	0	48	104	0	69	28433
2026-01-25 22:30:28.46	333.08	16.22	-50.1	-55.4	3.7	0.00e+00	0	48	104	0	71	27072
2026-01-25 22:30:30.45	332.52	16.39	-49.7	-55.2	3.7	0.00e+00	0	48	104	0	71	26357
2026-01-25 22:30:32.44	331.94	16.55	-50.4	-55.5	3.7	0.00e+00	0	48	104	0	72	25753
2026-01-25 22:30:34.43	331.36	16.71	-51.1	-55.9	3.7	0.00e+00	0	48	104	0	72	27199
2026-01-25 22:30:36.41	330.78	16.87	-51.4	-56.2	3.7	0.00e+00	0	48	104	0	73	26505
2026-01-25 22:30:38.40	330.19	17.02	-51.5	-56.2	3.7	0.00e+00	0	48	104	0	73	26303
2026-01-25 22:30:40.46	329.56	17.19	-49.6	-55.0	3.7	0.00e+00	0	48	104	0	69	28949
2026-01-25 22:30:42.48	328.95	17.34	-48.2	-54.2	3.7	0.00e+00	0	48	104	0	68	28059
2026-01-25 22:30:44.41	328.35	17.49	-48.9	-54.6	3.7	0.00e+00	0	48	104	0	68	29406
2026-01-25 22:30:46.40	327.72	17.64	-49.4	-54.8	3.7	0.00e+00	0	48	104	0	69	28306
2026-01-25 22:30:48.39	327.09	17.79	-48.1	-54.0	3.7	0.00e+00	0	48	104	0	68	27422
2026-01-25 22:30:50.38	326.45	17.94	-50.2	-55.3	3.7	0.00e+00	0	48	104	0	71	26614
2026-01-25 22:30:52.37	325.81	18.09	-49.9	-55.2	3.7	0.00e+00	0	48	104	0	71	26522
2026-01-25 22:30:54.36	325.15	18.23	-51.4	-55.9	3.7	0.00e+00	0	48	104	0	73	25545
2026-01-25 22:30:56.35	324.49	18.37	-51.1	-55.8	3.7	0.00e+00	0	48	104	0	73	25285
2026-01-25 22:30:58.34	323.83	18.51	-49.5	-55.0	3.7	0.00e+00	0	48	104	0	71	25970
2026-01-25 22:31:00.33	323.15	18.65	-50.1	-55.4	3.7	0.00e+00	0	48	104	0	71	27098
2026-01-25 22:31:02.32	322.47	18.78	-50.6	-55.6	3.7	0.00e+00	0	48	104	0	72	26244
2026-01-25 22:31:04.31	321.78	18.91	-50.3	-55.3	3.7	0.00e+00	0	48	104	0	72	25310
2026-01-25 22:31:06.30	321.08	19.04	-50.1	-55.4	3.7	0.00e+00	0	48	104	0	72	25491
2026-01-25 22:31:08.29	320.38	19.16	-50.2	-55.5	3.7	0.00e+00	0	48	104	0	71	27494
2026-01-25 22:31:10.28	319.67	19.28	-48.2	-54.1	3.7	0.00e+00	0	48	104	0	68	27748
2026-01-25 22:31:12.33	318.93	19.40	-49.2	-54.8	3.7	0.00e+00	0	48	104	0	69	28325
2026-01-25 22:31:14.35	318.20	19.52	-50.7	-55.6	3.7	0.00e+00	0	48	104	0	72	26002
2026-01-25 22:31:16.34	317.47	19.63	-50.3	-55.2	3.7	0.00e+00	0	48	104	0	72	25042
2026-01-25 22:31:18.65	316.62	19.75	-50.7	-55.4	3.7	0.00e+00	0	48	104	0	72	25465
2026-01-25 22:31:20.84	315.80	19.87	-50.1	-55.4	3.7	0.00e+00	0	48	104	0	72	25502
2026-01-25 22:31:22.83	315.05	19.96	-50.0	-55.3	3.7	0.00e+00	0	48	104	0	72	25104
2026-01-25 22:31:24.84	314.29	20.06	-51.2	-55.9	3.7	0.00e+00	0	48	104	0	73	25665
2026-01-25 22:31:26.84	313.53	20.15	-51.2	-55.9	3.7	0.00e+00	0	48	104	0	73	25613
2026-01-25 22:31:28.86	312.75	20.23	-51.1	-55.8	3.7	0.00e+00	0	48	104	0	73	25266
2026-01-25 22:31:30.86	311.98	20.32	-50.6	-55.3	3.7	0.00e+00	0	48	104	0	73	23925
2026-01-25 22:31:33.12	311.10	20.40	-50.4	-55.0	3.7	0.00e+00	0	48	104	0	72	24423
2026-01-25 22:31:35.11	310.32	20.47	-50.8	-55.5	3.7	0.00e+00	0	48	104	0	72	25892
2026-01-25 22:31:37.10	309.54	20.54	-51.2	-55.5	3.7	0.00e+00	0	48	104	0	73	24398
2026-01-25 22:31:39.04	308.77	20.60	-51.6	-56.2	3.7	0.00e+00	0	48	104	0	73	26459
2026-01-25 22:31:41.03	307.99	20.66	-51.4	-56.0	3.7	0.00e+00	0	48	104	0	73	25764
2026-01-25 22:31:43.02	307.19	20.71	-51.3	-55.8	3.7	0.00e+00	0	48	104	0	73	25157
2026-01-25 22:31:45.01	306.40	20.76	-51.1	-55.2	3.7	0.00e+00	0	48	104	0	73	23631
2026-01-25 22:31:47.00	305.60	20.80	-51.2	-55.6	3.7	0.00e+00	0	48	104	0	73	24659
2026-01-25 22:31:49.10	304.75	20.84	-51.4	-55.8	3.7	0.00e+00	0	48	104	0	73	25150
2026-01-25 22:31:51.09	303.95	20.87	-51.2	-55.2	3.7	0.00e+00	0	48	104	0	73	23426
2026-01-25 22:31:53.08	303.14	20.89	-51.4	-55.5	3.7	0.00e+00	0	48	104	0	73	24344
2026-01-25 22:31:55.00	302.36	20.91	-51.8	-56.0	3.7	0.00e+00	0	48	104	0	74	24513
2026-01-25 22:31:56.98	301.56	20.93	-51.7	-56.3	3.7	0.00e+00	0	48	104	0	74	25111
2026-01-25 22:31:58.97	300.75	20.94	-51.4	-55.9	3.7	0.00e+00	0	48	104	0	74	24240
2026-01-25 22:32:00.96	299.94	20.94	-51.5	-56.0	3.7	0.00e+00	0	48	104	0	74	24394
2026-01-25 22:32:02.98	299.12	20.94	-51.5	-56.0	3.7	0.00e+00	0	48	104	0	74	24372
2026-01-25 22:32:04.97	298.31	20.94	-51.4	-55.9	3.7	0.00e+00	0	48	104	0	74	24141
2026-01-25 22:32:06.96	297.50	20.92	-51.7	-56.2	3.7	0.00e+00	0	48	104	0	74	24972
2026-01-25 22:32:08.95	296.70	20.91	-51.9	-56.4	3.7	0.00e+00	0	48	104	0	74	25565
2026-01-25 22:32:10.93	295.89	20.88	-51.9	-56.4	3.7	0.00e+00	0	48	104	0	74	25464
2026-01-25 22:32:12.92	295.09	20.86	-51.6	-56.0	3.7	0.00e+00	0	48	104	0	74	24364
2026-01-25 22:32:14.93	294.28	20.82	-51.3	-55.1	3.7	0.00e+00	0	48	104	0	74	21915
2026-01-25 22:32:16.98	293.45	20.79	-51.2	-55.0	3.7	0.00e+00	0	48	104	0	74	21645
2026-01-25 22:32:18.98	292.65	20.74	-51.4	-55.2	3.7	0.00e+00	0	48	104	0	74	22162
2026-01-25 22:32:20.97	291.85	20.69	-51.6	-56.0	3.7	0.00e+00	0	48	104	0	74	24452
2026-01-25 22:32:22.96	291.06	20.64	-51.7	-56.0	3.7	0.00e+00	0	48	104	0	74	24298
2026-01-25 22:32:24.95	290.27	20.58	-51.6	-56.1	3.7	0.00e+00	0	48	104	0	74	24545
2026-01-25 22:32:26.94	289.48	20.52	-51.7	-55.9	3.7	0.00e+00	0	48	104	0	74	24230
2026-01-25 22:32:28.93	288.70	20.45	-51.9	-56.3	3.7	0.00e+00	0	48	104	0	74	25147
2026-01-25 22:32:30.92	287.92	20.38	-51.7	-56.1	3.7	0.00e+00	0	48	104	0	74	24617
2026-01-25 22:32:32.91	287.14	20.30	-51.7	-56.3	3.7	0.00e+00	0	48	104	0	74	25095
2026-01-25 22:32:34.93	286.36	20.22	-51.5	-56.1	3.7	0.00e+00	0	48	104	0	74	24731
2026-01-25 22:32:36.95	285.59	20.13	-51.5	-56.1	3.7	0.00e+00	0	48	104	0	74	24768
2026-01-25 22:32:38.94	284.83	20.04	-51.6	-56.2	3.7	0.00e+00	0	48	104	0	74	24880
2026-01-25 22:32:40.93	284.07	19.94	-51.7	-56.4	3.7	0.00e+00	0	48	104	0	74	25452
2026-01-25 22:32:42.92	283.32	19.84	-51.4	-56.3	3.7	0.00e+00	0	48	104	0	74	25380
2026-01-25 22:32:44.91	282.58	19.74	-51.6	-56.3	3.7	0.00e+00	0	48	104	0	74	25327
2026-01-25 22:32:46.90	281.84	19.63	-51.8	-56.5	3.7	0.00e+00	0	48	104	0	74	25767
2026-01-25 22:32:48.89	281.11	19.52	-51.4	-56.1	3.7	0.00e+00	0	48	104	0	74	24757
2026-01-25 22:32:50.88	280.38	19.41	-51.7	-56.3	3.7	0.00e+00	0	48	104	0	74	25329
2026-01-25 22:32:52.95	279.63	19.29	-51.8	-56.4	3.7	0.00e+00	0	48	104	0	74	25550
2026-01-25 22:32:54.97	278.91	19.16	-51.7	-56.3	3.7	0.00e+00	0	48	104	0	74	25296
2026-01-25 22:32:56.96	278.20	19.04	-51.2	-56.0	3.7	0.00e+00	0	48	104	0	74	24393
2026-01-25 22:32:58.95	277.51	18.91	-51.5	-56.2	3.7	0.00e+00	0	48	104	0	74	24811
2026-01-25 22:33:00.94	276.81	18.78	-51.9	-56.4	3.7	0.00e+00	0	48	104	0	74	25629
2026-01-25 22:33:02.94	276.12	18.65	-51.8	-56.4	3.7	0.00e+00	0	48	104	0	74	25397
2026-01-25 22:33:04.97	275.43	18.51	-51.5	-56.1	3.7	0.00e+00	0	48	104	0	74	24534
2026-01-25 22:33:06.97	274.76	18.37	-51.4	-55.8	3.7	0.00e+00	0	48	104	0	74	23813
2026-01-25 22:33:08.95	274.10	18.23	-51.1	-56.0	3.7	0.00e+00	0	48	104	0	73	25706
2026-01-25 22:33:10.94	273.44	18.08	-51.1	-56.2	3.7	0.00e+00	0	48	104	0	73	26330
2026-01-25 22:33:12.93	272.79	17.94	-51.6	-56.0	3.7	0.00e+00	0	48	104	0	74	24510
2026-01-25 22:33:14.92	272.15	17.79	-51.6	-56.0	3.7	0.00e+00	0	48	104	0	74	24246
2026-01-25 22:33:16.91	271.51	17.64	-51.5	-56.3	3.7	0.00e+00	0	48	104	0	74	25268
2026-01-25 22:33:18.90	270.89	17.48	-51.5	-56.1	3.7	0.00e+00	0	48	104	0	74	24788
2026-01-25 22:33:21.01	270.23	17.32	-51.5	-55.9	3.7	0.00e+00	0	48	104	0	74	24232
2026-01-25 22:33:23.18	269.56	17.15	-51.4	-56.0	3.7	0.00e+00	0	48	104	0	74	24394
2026-01-25 22:33:25.23	268.94	16.99	-51.1	-56.1	3.7	0.00e+00	0	48	104	0	74	24689
2026-01-25 22:33:27.28	268.32	16.82	-51.1	-56.1	3.7	0.00e+00	0	48	104	0	74	24599
2026-01-25 22:33:29.27	267.74	16.66	-51.1	-55.7	3.7	0.00e+00	0	48	104	0	74	23432
2026-01-25 22:33:31.26	267.15	16.50	-51.3	-55.9	3.7	0.00e+00	0	48	104	0	74	23968
2026-01-25 22:33:33.25	266.58	16.34	-51.2	-55.7	3.7	0.00e+00	0	48	104	0	74	23539
2026-01-25 22:33:35.27	266.00	16.17	-51.1	-55.9	3.7	0.00e+00	0	48	104	0	74	24232
2026-01-25 22:33:37.26	265.45	16.01	-51.5	-56.2	3.7	0.00e+00	0	48	104	0	74	24985
2026-01-25 22:33:39.27	264.89	15.84	-51.4	-56.3	3.7	0.00e+00	0	49	104	0	74	25356
2026-01-25 22:33:41.28	264.34	15.67	-50.9	-55.7	3.7	0.00e+00	0	48	104	0	73	24869
2026-01-25 22:33:43.27	263.80	15.50	-50.6	-55.4	3.7	0.00e+00	0	48	104	0	73	24242
2026-01-25 22:33:45.29	263.26	15.33	-51.0	-55.6	3.7	0.00e+00	0	48	104	0	72	26217
2026-01-25 22:33:47.31	262.73	15.16	-51.0	-55.3	3.7	0.00e+00	0	48	104	0	72	25353
2026-01-25 22:33:49.30	262.22	14.99	-51.2	-55.8	3.7	0.00e+00	0	48	104	0	73	25337
2026-01-25 22:33:51.29	261.71	14.82	-51.2	-55.8	3.7	0.00e+00	0	48	104	0	73	25340
2026-01-25 22:33:53.30	261.20	14.65	-50.7	-55.5	3.7	0.00e+00	0	48	104	0	73	24340
2026-01-25 22:33:55.29	260.70	14.48	-50.6	-55.4	3.7	0.00e+00	0	48	104	0	73	24069
2026-01-25 22:33:57.64	260.13	14.28	-50.8	-55.5	3.7	0.00e+00	0	48	104	0	73	24478
2026-01-25 22:33:59.71	259.63	14.10	-50.9	-55.9	3.7	0.00e+00	0	48	104	0	73	25400
2026-01-25 22:34:01.98	259.09	13.91	-51.2	-56.0	3.7	0.00e+00	0	48	104	0	73	25964
2026-01-25 22:34:03.97	258.62	13.74	-51.8	-56.3	3.7	0.00e+00	0	48	104	0	74	25264
2026-01-25 22:34:05.97	258.16	13.56	-51.6	-56.2	3.7	0.00e+00	0	48	104	0	74	24892
2026-01-25 22:34:07.96	257.71	13.39	-51.2	-55.9	3.7	0.00e+00	0	48	104	0	74	24127
2026-01-25 22:34:09.95	257.26	13.22	-51.1	-55.8	3.7	0.00e+00	0	48	104	0	74	23895
2026-01-25 22:34:11.96	256.82	13.05	-50.9	-55.9	3.7	0.00e+00	0	48	104	0	73	25544
2026-01-25 22:34:14.12	256.34	12.86	-50.9	-56.0	3.7	0.00e+00	0	48	104	0	73	25902
2026-01-25 22:34:16.18	255.90	12.69	-51.0	-56.0	3.7	0.00e+00	0	48	104	0	73	25828
2026-01-25 22:34:18.46	255.42	12.49	-50.8	-56.0	3.7	0.00e+00	0	48	104	0	73	25685
2026-01-25 22:34:20.49	255.00	12.32	-51.1	-56.1	3.7	0.00e+00	0	48	104	0	73	26092
2026-01-25 22:34:22.48	254.59	12.15	-50.9	-56.1	3.7	0.00e+00	0	48	104	0	73	26144
2026-01-25 22:34:24.47	254.18	11.98	-51.0	-56.0	3.7	0.00e+00	0	48	104	0	73	25721
2026-01-25 22:34:26.49	253.78	11.81	-51.0	-56.0	3.7	0.00e+00	0	48	104	0	73	25812
2026-01-25 22:34:28.53	253.38	11.64	-51.1	-55.9	3.7	0.00e+00	0	48	104	0	73	25466
2026-01-25 22:34:30.58	252.98	11.47	-51.0	-55.8	3.7	0.00e+00	0	48	104	0	73	25342
2026-01-25 22:34:32.65	252.58	11.29	-51.4	-56.1	3.7	0.00e+00	0	48	104	0	73	26049
2026-01-25 22:34:34.64	252.21	11.12	-51.3	-56.0	3.7	0.00e+00	0	48	104	0	73	25874
2026-01-25 22:34:36.94	251.78	10.93	-51.3	-56.1	3.7	0.00e+00	0	49	104	0	73	26020
2026-01-25 22:34:39.12	251.38	10.75	-51.4	-56.1	3.7	0.00e+00	0	48	104	0	73	26158
2026-01-25 22:34:41.11	251.03	10.59	-51.3	-56.0	3.7	0.00e+00	0	48	104	0	73	25932
2026-01-25 22:34:43.12	250.67	10.42	-51.5	-56.1	3.7	0.00e+00	0	49	104	0	73	26115
2026-01-25 22:34:45.13	250.32	10.26	-51.4	-56.0	3.7	0.00e+00	0	48	104	0	73	25830
2026-01-25 22:34:47.14	249.97	10.09	-51.3	-56.0	3.7	0.00e+00	0	49	104	0	73	25791
2026-01-25 22:34:49.15	249.63	9.93	-51.2	-56.0	3.7	0.00e+00	0	49	104	0	73	25957
2026-01-25 22:34:51.37	249.26	9.75	-51.2	-56.1	3.7	0.00e+00	0	48	104	0	73	26014
2026-01-25 22:34:53.58	248.89	9.57	-51.1	-56.0	3.7	0.00e+00	0	48	104	0	73	25922
2026-01-25 22:34:55.57	248.57	9.41	-50.6	-55.9	3.7	0.00e+00	0	48	104	0	73	25572
2026-01-25 22:34:57.58	248.24	9.25	-50.3	-55.9	3.7	0.00e+00	0	48	104	0	72	26900
2026-01-25 22:34:59.60	247.92	9.08	-50.4	-55.8	3.7	0.00e+00	0	48	104	0	72	26857
2026-01-25 22:35:01.60	247.61	8.92	-51.5	-56.1	3.7	0.00e+00	0	48	104	0	73	26248
2026-01-25 22:35:03.59	247.30	8.77	-51.7	-56.5	3.7	0.00e+00	0	48	104	0	74	25857
2026-01-25 22:35:05.58	247.00	8.61	-51.6	-56.4	3.7	0.00e+00	0	48	104	0	74	25399
2026-01-25 22:35:07.58	246.70	8.45	-52.1	-56.8	3.7	0.00e+00	0	48	104	0	75	25110
2026-01-25 22:35:09.63	246.40	8.29	-52.3	-56.9	3.7	0.
