passes_logs/2026/01/25/T1/T1__20260125_040831_FENGYUN_3E_rec.log

#Pass ID: 20260125_040831_FENGYUN 3E
#Satellite: FENGYUN 3E
#Configuration: FENGYUN 3E
#almurnet v.1.7.20251203
#Start time: 2026-01-25 04:08:33

#Version: 2.0.20230620
#Station: T1
#Location: 37.570604 lon 55.790049 lat
#TLE: 1 49008U 21062A   26024.51886291 -.00000133  00000+0 -41802-4 0  9993
#TLE: 2 49008  98.7494  29.5356 0002407 118.1139 242.0281 14.19886269236195

#Time	Az	El	Level	Level2	SNR	BER	BlckErr	Temp	State	Recorded	gain1	gain2
2026-01-25 04:08:33.04	15.20	5.08	-47.0	-59.0	3.8	8.47e-01	0	35	0	0	63	15177
2026-01-25 04:08:37.00	15.18	5.36	-47.1	-59.1	3.8	8.47e-01	0	35	104	0	63	15279
2026-01-25 04:08:40.98	15.15	5.65	-47.1	-59.2	3.8	8.46e-01	0	35	104	0	63	15483
2026-01-25 04:08:44.95	15.13	5.94	-47.1	-59.1	3.8	8.47e-01	0	36	104	0	63	15351
2026-01-25 04:08:48.92	15.11	6.24	-47.1	-59.1	3.8	8.46e-01	0	36	104	0	63	15374
2026-01-25 04:08:52.90	15.08	6.53	-47.1	-59.0	3.8	8.46e-01	0	36	104	0	63	15087
2026-01-25 04:08:56.87	15.06	6.84	-47.0	-58.4	3.8	8.47e-01	0	36	104	0	63	14159
2026-01-25 04:09:00.84	15.03	7.14	-46.9	-57.8	3.8	8.47e-01	0	36	104	0	63	13164
2026-01-25 04:09:04.82	15.00	7.45	-46.8	-56.5	4.0	8.44e-01	0	36	104	0	63	11337
2026-01-25 04:09:08.79	14.97	7.76	-46.4	-54.1	4.8	8.04e-01	0	36	0	0	63	8617
2026-01-25 04:09:12.76	14.94	8.08	-45.7	-51.3	6.8	2.01e-01	0	37	0	14680064	62	6578
2026-01-25 04:09:16.73	14.91	8.40	-44.6	-48.3	9.6	1.46e-02	0	36	0	42991616	59	5581
2026-01-25 04:09:20.70	14.88	8.72	-43.4	-46.3	11.8	7.30e-04	0	37	0	71303168	57	4941
2026-01-25 04:09:24.68	14.85	9.05	-43.3	-46.1	12.0	3.60e-04	0	37	0	99614720	57	4838
2026-01-25 04:09:28.66	14.81	9.38	-45.7	-52.0	6.2	6.73e-02	0	37	0	128974848	60	8049
2026-01-25 04:09:32.63	14.78	9.72	-37.5	-38.7	19.2	0.00e+00	0	37	0	154140672	45	4102
2026-01-25 04:09:36.61	14.74	10.06	-37.6	-38.8	19.1	0.00e+00	0	37	0	182452224	45	4160
2026-01-25 04:09:40.59	14.70	10.41	-37.3	-38.4	19.4	0.00e+00	0	37	0	211812352	44	4241
2026-01-25 04:09:44.57	14.66	10.76	-37.0	-38.1	19.8	0.00e+00	0	37	0	240123904	44	4077
2026-01-25 04:09:48.55	14.62	11.12	-36.9	-38.1	19.8	0.00e+00	0	37	0	269484032	44	4065
2026-01-25 04:09:52.53	14.58	11.48	-36.9	-38.1	19.9	0.00e+00	0	37	0	297795584	44	4059
2026-01-25 04:09:56.51	14.54	11.85	-36.7	-37.8	20.1	0.00e+00	0	37	0	326107136	44	3923
2026-01-25 04:10:00.48	14.49	12.23	-36.4	-37.5	20.3	0.00e+00	0	37	0	355467264	43	4031
2026-01-25 04:10:04.46	14.45	12.61	-36.3	-37.4	20.3	0.00e+00	0	37	0	383778816	43	4004
2026-01-25 04:10:08.45	14.40	12.99	-36.1	-37.2	20.6	0.00e+00	0	37	0	413138944	42	4116
2026-01-25 04:10:12.42	14.35	13.38	-36.1	-37.1	20.7	0.00e+00	0	37	0	441450496	42	4097
2026-01-25 04:10:16.40	14.30	13.78	-35.8	-36.8	21.0	0.00e+00	0	37	0	469762048	42	3942
2026-01-25 04:10:20.38	14.24	14.19	-35.5	-36.5	21.3	0.00e+00	0	37	0	499122176	41	4029
2026-01-25 04:10:24.36	14.19	14.60	-35.6	-36.6	21.2	0.00e+00	0	37	0	527433728	41	4073
2026-01-25 04:10:28.34	14.13	15.02	-35.4	-36.4	21.4	0.00e+00	0	37	0	556793856	41	3998
2026-01-25 04:10:32.32	14.07	15.44	-35.2	-36.2	21.6	0.00e+00	0	37	0	585105408	41	3885
2026-01-25 04:10:36.30	14.01	15.88	-35.2	-36.1	21.7	0.00e+00	0	37	0	613416960	40	4082
2026-01-25 04:10:40.28	13.95	16.32	-35.0	-35.9	21.8	0.00e+00	0	37	0	642777088	40	4003
2026-01-25 04:10:44.26	13.88	16.77	-34.9	-35.8	22.0	0.00e+00	0	37	0	671088640	40	3933
2026-01-25 04:10:48.23	13.81	17.23	-34.9	-35.8	22.0	0.00e+00	0	37	0	699400192	40	3936
2026-01-25 04:10:52.21	13.74	17.69	-34.8	-35.7	22.0	0.00e+00	0	37	0	728760320	40	3908
2026-01-25 04:10:56.19	13.66	18.17	-34.7	-35.6	22.2	0.00e+00	0	37	0	757071872	39	4091
2026-01-25 04:11:00.17	13.59	18.66	-34.7	-35.6	22.3	0.00e+00	0	37	0	786432000	39	4063
2026-01-25 04:11:04.15	13.51	19.15	-34.7	-35.6	22.3	0.00e+00	0	37	0	814743552	39	4071
2026-01-25 04:11:08.13	13.42	19.66	-34.6	-35.5	22.4	0.00e+00	0	37	0	843055104	39	4015
2026-01-25 04:11:12.11	13.34	20.17	-34.7	-35.5	22.3	0.00e+00	0	37	0	872415232	39	4048
2026-01-25 04:11:16.09	13.25	20.70	-34.6	-35.4	22.4	0.00e+00	0	37	0	900726784	39	3997
2026-01-25 04:11:20.07	13.15	21.24	-34.7	-35.6	22.3	0.00e+00	0	38	0	930086912	39	4058
2026-01-25 04:11:24.05	13.05	21.79	-34.5	-35.4	22.4	0.00e+00	0	38	0	958398464	39	3983
2026-01-25 04:11:28.02	12.95	22.35	-34.7	-35.6	22.3	0.00e+00	0	38	0	986710016	39	4055
2026-01-25 04:11:32.00	12.84	22.92	-34.4	-35.3	22.6	0.00e+00	0	38	0	1016070144	39	3916
2026-01-25 04:11:35.97	12.73	23.51	-34.0	-34.9	22.9	0.00e+00	0	38	0	1044381696	38	3980
2026-01-25 04:11:39.96	12.62	24.11	-34.0	-34.9	22.9	0.00e+00	0	38	0	1073741824	38	3967
2026-01-25 04:11:43.94	12.49	24.72	-33.8	-34.7	23.1	0.00e+00	0	38	0	1102053376	38	3872
2026-01-25 04:11:47.91	12.37	25.35	-33.7	-34.6	23.2	0.00e+00	0	38	0	1130364928	38	3833
2026-01-25 04:11:51.89	12.24	26.00	-33.7	-34.5	23.3	0.00e+00	0	38	0	1159725056	37	4024
2026-01-25 04:11:55.87	12.10	26.66	-33.6	-34.4	23.4	0.00e+00	0	38	0	1188036608	37	3979
2026-01-25 04:11:59.85	11.95	27.33	-33.5	-34.4	23.4	0.00e+00	0	38	0	1217396736	37	3963
2026-01-25 04:12:03.83	11.80	28.03	-33.6	-34.4	23.4	0.00e+00	0	38	0	1245708288	37	4002
2026-01-25 04:12:07.81	11.64	28.74	-33.5	-34.4	23.4	0.00e+00	0	37	0	1274019840	37	3978
2026-01-25 04:12:11.79	11.47	29.47	-33.4	-34.2	23.6	0.00e+00	0	37	0	1303379968	37	3884
2026-01-25 04:12:15.77	11.29	30.22	-33.3	-34.1	23.7	0.00e+00	0	38	0	1331691520	37	3842
2026-01-25 04:12:19.75	11.11	30.98	-33.4	-34.2	23.6	0.00e+00	0	38	0	1361051648	37	3908
2026-01-25 04:12:23.73	10.91	31.77	-33.7	-34.5	23.3	0.00e+00	0	38	0	1389363200	37	4050
2026-01-25 04:12:27.71	10.70	32.58	-33.7	-34.6	23.3	0.00e+00	0	38	0	1417674752	37	4066
2026-01-25 04:12:31.69	10.49	33.42	-33.6	-34.5	23.4	0.00e+00	0	38	0	1447034880	37	4021
2026-01-25 04:12:35.67	10.26	34.27	-33.4	-34.2	21.5	0.00e+00	0	38	0	1475346432	37	3885
2026-01-25 04:12:39.65	10.01	35.15	-33.3	-34.1	23.7	0.00e+00	0	38	0	1504706560	37	3862
2026-01-25 04:12:43.62	9.75	36.05	-33.6	-34.4	23.5	0.00e+00	0	38	0	1533018112	37	3992
2026-01-25 04:12:47.61	9.48	36.99	-33.6	-34.4	23.5	0.00e+00	0	38	0	1561329664	37	3974
2026-01-25 04:12:51.58	9.19	37.94	-33.3	-34.1	23.8	0.00e+00	0	38	0	1590689792	37	3859
2026-01-25 04:12:55.57	8.88	38.92	-33.1	-33.9	23.9	0.00e+00	0	38	0	1619001344	36	4002
2026-01-25 04:12:59.55	8.55	39.93	-33.6	-34.4	23.5	0.00e+00	0	38	0	1648361472	36	4222
2026-01-25 04:13:03.53	8.19	40.97	-33.6	-34.4	23.6	0.00e+00	0	38	0	1676673024	36	4203
2026-01-25 04:13:07.51	7.82	42.04	-33.5	-34.3	23.6	0.00e+00	0	38	0	1704984576	36	4177
2026-01-25 04:13:11.49	7.41	43.14	-33.6	-34.4	23.5	0.00e+00	0	38	0	1734344704	36	4241
2026-01-25 04:13:15.47	6.98	44.27	-34.3	-35.1	22.9	0.00e+00	0	38	0	1762656256	37	4332
2026-01-25 04:13:19.44	6.51	45.43	-34.1	-35.0	23.0	0.00e+00	0	38	0	1792016384	38	4007
2026-01-25 04:13:23.42	6.00	46.63	-34.3	-35.1	22.9	0.00e+00	0	38	0	1820327936	38	4074
2026-01-25 04:13:27.40	5.45	47.86	-34.6	-35.4	22.7	0.00e+00	0	38	0	1848639488	38	4225
2026-01-25 04:13:31.37	4.86	49.11	-35.0	-35.9	22.2	0.00e+00	0	38	0	1877999616	39	4214
2026-01-25 04:13:35.35	4.21	50.41	-34.9	-35.8	22.3	0.00e+00	0	38	0	1906311168	40	3941
2026-01-25 04:13:39.33	3.50	51.73	-34.5	-35.3	22.8	0.00e+00	0	38	0	1934622720	39	3943
2026-01-25 04:13:43.31	2.73	53.09	-35.1	-36.0	22.2	0.00e+00	0	38	0	1963982848	39	4255
2026-01-25 04:13:47.29	1.87	54.49	-34.8	-35.7	22.4	0.00e+00	0	38	0	1992294400	40	3871
2026-01-25 04:13:51.27	0.93	55.91	-34.9	-35.7	22.4	0.00e+00	0	38	0	2021654528	39	4125
2026-01-25 04:13:55.25	359.88	57.36	-35.8	-36.8	21.4	0.00e+00	0	38	0	2049966080	41	4155
2026-01-25 04:13:59.23	358.71	58.84	-35.0	-35.9	22.2	0.00e+00	0	38	0	2078277632	40	3997
2026-01-25 04:14:03.21	357.40	60.34	-35.0	-35.9	22.2	0.00e+00	0	38	0	2107637760	40	3961
2026-01-25 04:14:07.19	355.92	61.87	-34.6	-35.5	22.6	0.00e+00	0	38	0	2135949312	39	4032
2026-01-25 04:14:11.17	354.25	63.41	-34.4	-35.2	22.9	0.00e+00	0	38	0	2165309440	38	4130
2026-01-25 04:14:15.15	352.33	64.96	-33.8	-34.6	23.4	0.00e+00	0	38	0	2193620992	38	3826
2026-01-25 04:14:19.13	350.13	66.51	-33.6	-34.5	23.5	0.00e+00	0	38	0	2221932544	37	4005
2026-01-25 04:14:23.11	347.59	68.06	-33.3	-34.1	23.9	0.00e+00	0	38	0	2251292672	37	3842
2026-01-25 04:14:27.09	344.62	69.59	-33.8	-34.7	23.3	0.00e+00	0	38	0	2279604224	37	4109
2026-01-25 04:14:31.07	341.14	71.08	-34.2	-35.0	22.9	0.00e+00	0	38	0	2308964352	38	4045
2026-01-25 04:14:35.04	337.04	72.51	-33.9	-34.8	23.3	0.00e+00	0	38	0	2337275904	38	3916
2026-01-25 04:14:39.02	332.18	73.86	-33.1	-33.8	24.1	0.00e+00	0	38	0	2365587456	36	3958
2026-01-25 04:14:43.00	326.43	75.09	-33.0	-33.8	24.1	0.00e+00	0	38	0	2394947584	36	3943
2026-01-25 04:14:46.98	319.68	76.16	-32.8	-33.6	24.3	0.00e+00	0	38	0	2423259136	36	3835
2026-01-25 04:14:50.95	311.89	77.02	-31.8	-32.6	24.1	0.00e+00	0	38	0	2452619264	34	3835
2026-01-25 04:14:54.93	303.14	77.62	-31.9	-32.7	24.1	0.00e+00	0	38	0	2480930816	33	4102
2026-01-25 04:14:58.91	293.70	77.91	-31.8	-32.6	24.1	0.00e+00	0	38	0	2509242368	33	4085
2026-01-25 04:15:02.89	284.06	77.88	-31.3	-32.1	24.5	0.00e+00	0	38	0	2538602496	33	3844
2026-01-25 04:15:06.87	274.75	77.51	-31.7	-32.5	24.1	0.00e+00	0	38	0	2566914048	33	4025
2026-01-25 04:15:10.85	266.18	76.85	-31.3	-32.1	24.6	0.00e+00	0	38	0	2596274176	33	3833
2026-01-25 04:15:14.82	258.63	75.94	-31.7	-32.5	24.2	0.00e+00	0	38	0	2624585728	34	3809
2026-01-25 04:15:18.80	252.10	74.82	-32.4	-33.2	23.6	0.00e+00	0	38	0	2652897280	34	4111
2026-01-25 04:15:22.78	246.56	73.56	-32.2	-33.0	23.8	0.00e+00	0	38	0	2681208832	34	4024
2026-01-25 04:15:26.76	241.88	72.19	-32.9	-33.8	23.1	0.00e+00	0	38	0	2710568960	35	4149
2026-01-25 04:15:30.73	237.93	70.74	-33.1	-33.9	22.9	0.00e+00	0	38	0	2738880512	35	4217
2026-01-25 04:15:34.71	234.57	69.23	-32.6	-33.4	23.4	0.00e+00	0	38	0	2768240640	35	3992
2026-01-25 04:15:38.69	231.71	67.70	-33.0	-33.8	23.1	0.00e+00	0	38	0	2796552192	35	4182
2026-01-25 04:15:42.67	229.24	66.14	-34.1	-35.0	22.7	0.00e+00	0	38	0	2824863744	37	4265
2026-01-25 04:15:46.65	227.11	64.59	-34.1	-35.0	23.0	0.00e+00	0	38	0	2854223872	38	4011
2026-01-25 04:15:50.63	225.25	63.03	-34.8	-35.7	22.5	0.00e+00	0	38	0	2882535424	39	4124
2026-01-25 04:15:54.61	223.62	61.49	-34.7	-35.5	22.6	0.00e+00	0	38	0	2911895552	39	4024
2026-01-25 04:15:58.59	222.18	59.96	-34.7	-35.6	22.4	0.00e+00	0	38	0	2940207104	39	4065
2026-01-25 04:16:02.58	220.90	58.46	-35.3	-36.2	22.0	0.00e+00	0	38	0	2968518656	40	4125
2026-01-25 04:16:06.56	219.76	56.98	-34.8	-35.7	22.5	0.00e+00	0	38	0	2997878784	39	4133
2026-01-25 04:16:10.54	218.73	55.53	-35.2	-36.0	22.0	0.00e+00	0	38	0	3026190336	40	4051
2026-01-25 04:16:14.51	217.81	54.11	-35.0	-35.9	22.3	0.00e+00	0	38	0	3055550464	39	4213
2026-01-25 04:16:18.50	216.97	52.72	-35.2	-36.1	22.0	0.00e+00	0	38	0	3083862016	40	4070
2026-01-25 04:16:22.48	216.21	51.36	-35.1	-35.9	22.1	0.00e+00	0	38	0	3112173568	40	3999
2026-01-25 04:16:26.46	215.52	50.04	-34.6	-35.4	22.2	0.00e+00	0	38	0	3141533696	40	3765
2026-01-25 04:16:30.43	214.88	48.75	-34.8	-35.7	22.4	0.00e+00	0	38	0	3169845248	40	3886
2026-01-25 04:16:34.41	214.30	47.49	-34.5	-35.4	22.7	0.00e+00	0	38	0	3199205376	39	3969
2026-01-25 04:16:38.39	213.76	46.27	-34.6	-35.5	22.6	0.00e+00	0	38	0	3227516928	39	4025
2026-01-25 04:16:42.37	213.26	45.08	-34.2	-35.0	23.0	0.00e+00	0	38	0	3255828480	39	3814
2026-01-25 04:16:46.35	212.80	43.92	-33.9	-34.7	23.4	0.00e+00	0	38	0	3285188608	38	3886
2026-01-25 04:16:50.34	212.37	42.79	-33.6	-34.4	23.5	0.00e+00	0	38	0	3313500160	37	3984
2026-01-25 04:16:54.32	211.97	41.69	-33.8	-34.6	23.4	0.00e+00	0	38	0	3342860288	37	4074
2026-01-25 04:16:58.30	211.59	40.63	-34.0	-34.9	23.1	0.00e+00	0	38	0	3371171840	37	4211
2026-01-25 04:17:02.28	211.24	39.59	-34.1	-35.0	23.0	0.00e+00	0	38	0	3399483392	37	4245
2026-01-25 04:17:06.26	210.92	38.58	-34.0	-34.8	23.2	0.00e+00	0	38	0	3428843520	38	3935
2026-01-25 04:17:10.24	210.61	37.60	-33.6	-34.4	23.5	0.00e+00	0	38	0	3457155072	37	3983
2026-01-25 04:17:14.21	210.32	36.65	-33.5	-34.3	23.6	0.00e+00	0	38	0	3486515200	37	3924
2026-01-25 04:17:18.19	210.05	35.73	-33.4	-34.3	22.8	0.00e+00	0	38	0	3514826752	37	3920
2026-01-25 04:17:22.17	209.79	34.82	-32.9	-33.7	24.0	0.00e+00	0	38	0	3543138304	36	3901
2026-01-25 04:17:26.15	209.55	33.95	-33.2	-34.0	23.8	0.00e+00	0	38	0	3572498432	36	4009
2026-01-25 04:17:30.13	209.32	33.09	-33.3	-34.2	23.6	0.00e+00	0	38	0	3600809984	36	4110
2026-01-25 04:17:34.11	209.10	32.26	-33.3	-34.1	23.7	0.00e+00	0	38	0	3630170112	36	4091
2026-01-25 04:17:38.09	208.90	31.46	-33.3	-34.1	23.7	0.00e+00	0	38	0	3658481664	36	4088
2026-01-25 04:17:42.07	208.70	30.67	-33.5	-34.3	23.6	0.00e+00	0	38	0	3686793216	36	4166
2026-01-25 04:17:46.05	208.52	29.90	-33.7	-34.5	23.4	0.00e+00	0	38	0	3716153344	36	4263
2026-01-25 04:17:50.02	208.34	29.16	-33.7	-34.6	23.3	0.00e+00	0	38	0	3744464896	36	4301
2026-01-25 04:17:54.00	208.17	28.43	-33.7	-34.5	23.4	0.00e+00	0	38	0	3773825024	36	4284
2026-01-25 04:17:57.98	208.01	27.72	-33.8	-34.6	23.3	0.00e+00	0	38	0	3802136576	37	4069
2026-01-25 04:18:01.96	207.86	27.03	-33.9	-34.7	23.2	0.00e+00	0	38	0	3830448128	37	4112
2026-01-25 04:18:05.94	207.71	26.35	-34.1	-34.9	23.0	0.00e+00	0	38	0	3859808256	37	4219
2026-01-25 04:18:09.92	207.57	25.69	-34.2	-35.0	22.9	0.00e+00	0	38	0	3888119808	37	4264
2026-01-25 04:18:13.90	207.44	25.05	-34.1	-34.9	22.9	0.00e+00	0	38	0	3917479936	37	4235
2026-01-25 04:18:17.88	207.31	24.42	-34.1	-35.0	23.0	0.00e+00	0	38	0	3945791488	37	4243
2026-01-25 04:18:21.86	207.19	23.81	-34.2	-35.0	22.9	0.00e+00	0	38	0	3974103040	37	4290
2026-01-25 04:18:25.82	207.07	23.21	-34.3	-35.1	22.8	0.00e+00	0	38	0	4003463168	38	4071
2026-01-25 04:18:29.80	206.96	22.63	-34.4	-35.2	22.6	0.00e+00	0	38	0	4031774720	38	4119
2026-01-25 04:18:33.78	206.85	22.05	-34.5	-35.4	22.5	0.00e+00	0	38	0	4061134848	38	4218
2026-01-25 04:18:37.77	206.74	21.49	-34.5	-35.3	22.6	0.00e+00	0	38	0	4089446400	38	4179
2026-01-25 04:18:41.75	206.64	20.94	-34.7	-35.6	22.3	0.00e+00	0	38	0	4117757952	38	4309
2026-01-25 04:18:45.72	206.55	20.41	-34.5	-35.4	22.5	0.00e+00	0	38	0	4147118080	38	4203
2026-01-25 04:18:49.70	206.46	19.88	-34.5	-35.4	22.6	0.00e+00	0	38	0	4175429632	38	4202
2026-01-25 04:18:53.68	206.37	19.37	-34.7	-35.5	22.4	0.00e+00	0	38	0	4204789760	38	4288
2026-01-25 04:18:57.66	206.28	18.86	-34.8	-35.7	22.2	0.00e+00	0	38	0	4233101312	39	4107
2026-01-25 04:19:01.64	206.20	18.37	-35.0	-35.9	22.0	0.00e+00	0	38	0	4261412864	39	4207
2026-01-25 04:19:05.62	206.12	17.89	-35.2	-36.1	21.7	0.00e+00	0	38	0	4290772992	40	4079
2026-01-25 04:19:09.60	206.04	17.41	-35.3	-36.2	21.7	0.00e+00	0	38	0	4319084544	40	4122
2026-01-25 04:19:13.58	205.97	16.94	-35.5	-36.4	21.5	0.00e+00	0	38	0	4348444672	40	4224
2026-01-25 04:19:17.56	205.90	16.49	-35.6	-36.5	21.3	0.00e+00	0	38	0	4376756224	40	4267
2026-01-25 04:19:21.54	205.83	16.04	-35.7	-36.6	21.2	0.00e+00	0	38	0	4405067776	40	4327
2026-01-25 04:19:25.52	205.76	15.60	-35.8	-36.7	21.1	0.00e+00	0	38	0	4434427904	41	4109
2026-01-25 04:19:29.50	205.69	15.16	-35.8	-36.7	21.1	0.00e+00	0	38	0	4462739456	41	4131
2026-01-25 04:19:33.47	205.63	14.74	-35.8	-36.7	21.1	0.00e+00	0	38	0	4492099584	41	4136
2026-01-25 04:19:37.45	205.57	14.32	-35.9	-36.8	21.0	0.00e+00	0	38	0	4520411136	41	4164
2026-01-25 04:19:41.43	205.51	13.91	-35.9	-36.8	21.0	0.00e+00	0	38	0	4548722688	41	4180
2026-01-25 04:19:45.41	205.46	13.50	-36.0	-36.9	20.9	0.00e+00	0	38	0	4578082816	41	4227
2026-01-25 04:19:49.39	205.40	13.11	-36.0	-36.9	20.9	0.00e+00	0	38	0	4606394368	41	4220
2026-01-25 04:19:53.37	205.35	12.72	-36.2	-37.1	20.7	0.00e+00	0	38	0	4634705920	41	4334
2026-01-25 04:19:57.34	205.30	12.33	-36.1	-37.1	20.6	0.00e+00	0	38	0	4664066048	41	4317
2026-01-25 04:20:01.32	205.25	11.95	-36.2	-37.3	20.5	0.00e+00	0	38	0	4692377600	42	4146
2026-01-25 04:20:05.30	205.20	11.58	-36.5	-37.5	20.3	0.00e+00	0	38	0	4721737728	42	4251
2026-01-25 04:20:09.28	205.15	11.21	-36.5	-37.6	20.2	0.00e+00	0	38	0	4750049280	42	4303
2026-01-25 04:20:13.27	205.11	10.85	-36.7	-37.7	20.0	0.00e+00	0	38	0	4778360832	42	4380
2026-01-25 04:20:17.25	205.06	10.49	-36.7	-37.8	19.9	0.00e+00	0	38	0	4807720960	43	4149
2026-01-25 04:20:21.23	205.02	10.14	-37.0	-38.1	19.6	0.00e+00	0	38	0	4836032512	43	4299
2026-01-25 04:20:25.21	204.98	9.79	-37.1	-38.2	19.5	0.00e+00	0	38	0	4865392640	43	4354
2026-01-25 04:20:29.19	204.94	9.45	-37.1	-38.2	19.4	0.00e+00	0	38	0	4893704192	43	4388
2026-01-25 04:20:33.17	204.90	9.11	-37.4	-38.5	19.3	0.00e+00	0	38	0	4922015744	44	4275
2026-01-25 04:20:37.14	204.86	8.78	-48.9	-59.7	3.8	8.47e-01	0	38	104	4934598656	67	13036
2026-01-25 04:20:41.11	204.82	8.45	-49.2	-59.9	3.8	8.47e-01	0	38	104	4934598656	67	13401
2026-01-25 04:20:45.09	204.79	8.13	-49.5	-60.2	3.8	8.47e-01	0	38	104	4934598656	68	12968
2026-01-25 04:20:49.06	204.75	7.81	-49.5	-60.2	3.8	8.46e-01	0	38	104	4934598656	68	13092
2026-01-25 04:20:53.03	204.72	7.49	-49.5	-60.2	3.8	8.47e-01	0	38	104	4934598656	68	13071
2026-01-25 04:20:57.01	204.69	7.18	-49.0	-60.1	3.8	8.48e-01	0	38	104	4934598656	68	12898
2026-01-25 04:21:00.98	204.66	6.87	-49.0	-60.1	3.8	8.47e-01	0	38	104	4934598656	68	12877
2026-01-25 04:21:04.95	204.62	6.56	-49.0	-60.1	3.8	8.46e-01	0	38	104	4934598656	68	12842
2026-01-25 04:21:08.92	204.59	6.26	-49.0	-60.1	3.8	8.46e-01	0	38	104	4934598656	68	12888
2026-01-25 04:21:12.89	204.56	5.97	-49.0	-60.1	3.8	8.47e-01	0	38	104	4934598656	68	12910
2026-01-25 04:21:16.86	204.54	5.67	-49.0	-60.0	3.8	8.48e-01	0	38	104	4934598656	68	12793
2026-01-25 04:21:20.84	204.51	5.38	-49.0	-60.0	3.8	8.47e-01	0	38	104	4934598656	68	12764
2026-01-25 04:21:24.81	204.48	5.09	-49.0	-60.0	3.8	8.48e-01	0	38	104	4934598656	68	12745

#Closed at: 2026-01-25 04:21:27
#Recorded file [4934 MB]: D:/Data/31040_260125_070833.dat