passes_logs/2026/01/29/R4.6S_Anadyr/R4.6S_Anadyr__20260129_170239_SUOMI_NPP_rec.log

#Pass ID: 20260129_170239_SUOMI NPP
#Satellite: SUOMI NPP
#Configuration: NPP
#almurnet v.1.7.20251203
#Start time: 2026-01-29 17:02:40

#Version: 2.2.20231116
#Station: R4.6S_Anadyr
#Location: 177.4865 lon 64.73178 lat
#TLE: 1 37849U 11061A   26028.91916408  .00000155  00000+0  94467-4 0  9990
#TLE: 2 37849  98.7824 330.8488 0002045  39.4457 320.6868 14.19531289738686

#Time	Az	El	Level	Level2	SNR	BER	BlckErr	Temp	State	Recorded	gain1	gain2
2026-01-29 17:02:40.65	28.87	0.08	-48.8	-61.4	3.5	1.52e+00	0	27	0	0	60	41209
2026-01-29 17:02:44.69	28.67	0.30	-48.9	-64.0	3.6	1.51e+00	0	28	104	0	60	57580
2026-01-29 17:02:48.73	28.46	0.53	-48.9	-64.1	3.6	1.51e+00	0	28	104	0	60	58179
2026-01-29 17:02:52.77	28.25	0.75	-48.9	-64.1	3.6	1.51e+00	0	28	104	0	60	57663
2026-01-29 17:02:56.81	28.04	0.98	-48.7	-63.9	3.6	1.51e+00	0	29	104	0	60	56397
2026-01-29 17:03:00.85	27.82	1.21	-48.4	-63.6	3.6	1.51e+00	0	29	104	0	60	54890
2026-01-29 17:03:04.89	27.60	1.44	-47.6	-62.8	3.6	1.51e+00	0	29	104	0	60	49708
2026-01-29 17:03:08.93	27.37	1.67	-47.5	-62.6	3.6	1.51e+00	0	29	104	0	60	48818
2026-01-29 17:03:12.97	27.14	1.90	-47.4	-62.6	3.6	1.51e+00	0	29	104	0	60	48849
2026-01-29 17:03:17.01	26.91	2.13	-47.4	-62.5	3.6	1.51e+00	0	29	104	0	60	48446
2026-01-29 17:03:21.05	26.67	2.37	-47.5	-62.6	3.6	1.51e+00	0	29	104	0	60	48869
2026-01-29 17:03:25.09	26.43	2.61	-47.4	-62.6	3.6	1.51e+00	0	29	104	0	60	48894
2026-01-29 17:03:29.13	26.19	2.84	-47.4	-62.0	3.6	1.51e+00	0	29	104	0	60	45547
2026-01-29 17:03:33.17	25.94	3.08	-47.2	-58.7	4.2	1.46e+00	27	29	104	0	60	31107
2026-01-29 17:03:37.21	25.68	3.32	-44.9	-48.5	13.0	2.25e-04	0	29	0	6291456	60	9600
2026-01-29 17:03:41.26	25.42	3.57	-47.4	-62.4	3.6	1.35e+00	0	29	104	8388608	60	47548
2026-01-29 17:03:45.29	25.16	3.81	-43.7	-46.4	15.0	1.50e-06	0	29	0	12582912	60	7540
2026-01-29 17:03:49.33	24.89	4.06	-43.3	-45.8	15.9	0.00e+00	0	29	0	20971520	60	7041
2026-01-29 17:03:53.37	24.62	4.31	-43.1	-45.4	15.9	0.00e+00	0	29	0	28311552	60	6736
2026-01-29 17:03:57.41	24.34	4.56	-42.7	-44.8	16.8	0.00e+00	54	29	0	35651584	58	7086
2026-01-29 17:04:01.45	24.06	4.81	-42.2	-44.1	17.5	0.00e+00	0	29	0	42991616	56	7273
2026-01-29 17:04:05.49	23.77	5.06	-42.4	-44.3	17.5	0.00e+00	0	29	0	50331648	56	7467
2026-01-29 17:04:09.53	23.48	5.31	-41.2	-42.8	19.0	0.00e+00	0	29	0	58720256	56	6280
2026-01-29 17:04:13.57	23.18	5.57	-41.5	-43.1	18.7	0.00e+00	83	29	0	66060288	56	6518
2026-01-29 17:04:17.61	22.88	5.83	-41.7	-43.3	18.7	0.00e+00	0	29	0	73400320	56	6690
2026-01-29 17:04:21.65	22.57	6.09	-41.3	-42.9	18.9	0.00e+00	0	29	0	80740352	56	6349
2026-01-29 17:04:25.68	22.25	6.35	-40.9	-42.4	19.6	0.00e+00	56	29	0	89128960	56	5975
2026-01-29 17:04:29.72	21.93	6.61	-40.7	-42.1	19.7	0.00e+00	0	29	0	96468992	54	6512
2026-01-29 17:04:33.76	21.60	6.88	-40.5	-41.9	20.0	0.00e+00	0	29	0	103809024	54	6331
2026-01-29 17:04:37.80	21.27	7.14	-40.3	-41.6	20.2	0.00e+00	0	29	0	111149056	54	6104
2026-01-29 17:04:41.83	20.93	7.41	-40.0	-41.2	20.6	0.00e+00	92	29	0	118489088	54	5895
2026-01-29 17:04:45.87	20.58	7.68	-40.1	-41.4	20.4	0.00e+00	0	29	0	126877696	54	5991
2026-01-29 17:04:49.91	20.23	7.95	-40.2	-41.5	20.4	0.00e+00	0	29	0	134217728	54	6042
2026-01-29 17:04:53.95	19.87	8.23	-40.4	-41.7	20.2	0.00e+00	0	29	0	141557760	54	6198
2026-01-29 17:04:58.00	19.50	8.50	-40.1	-41.3	20.5	0.00e+00	81	29	0	148897792	54	5964
2026-01-29 17:05:02.04	19.12	8.78	-40.0	-41.3	20.7	0.00e+00	0	29	0	157286400	54	5898
2026-01-29 17:05:06.08	18.74	9.06	-40.2	-41.5	20.5	0.00e+00	0	29	0	164626432	52	6770
2026-01-29 17:05:10.12	18.35	9.34	-40.0	-41.2	20.9	0.00e+00	63	29	0	171966464	52	6563
2026-01-29 17:05:14.16	17.95	9.63	-40.2	-41.4	20.6	0.00e+00	92	29	0	179306496	52	6766
2026-01-29 17:05:18.20	17.55	9.91	-40.1	-41.4	20.7	0.00e+00	0	29	0	186646528	52	6708
2026-01-29 17:05:22.24	17.13	10.20	-40.3	-41.6	20.8	0.00e+00	0	29	0	195035136	52	6887
2026-01-29 17:05:26.28	16.71	10.49	-39.7	-40.9	21.1	0.00e+00	0	29	0	202375168	52	6374
2026-01-29 17:05:30.31	16.28	10.78	-39.6	-40.7	21.4	0.00e+00	0	29	0	209715200	52	6218
2026-01-29 17:05:34.35	15.83	11.07	-39.8	-41.0	21.1	0.00e+00	0	29	0	217055232	52	6416
2026-01-29 17:05:38.39	15.38	11.36	-39.5	-40.6	21.4	0.00e+00	0	29	0	225443840	52	6164
2026-01-29 17:05:42.43	14.92	11.66	-39.6	-40.7	21.3	0.00e+00	62	29	0	232783872	52	6215
2026-01-29 17:05:46.48	14.45	11.96	-39.3	-40.5	21.5	0.00e+00	0	29	0	240123904	52	6034
2026-01-29 17:05:50.52	13.97	12.26	-39.0	-40.1	22.0	0.00e+00	0	29	0	247463936	52	5771
2026-01-29 17:05:54.56	13.48	12.56	-39.1	-40.1	21.9	0.00e+00	0	29	0	254803968	52	5825
2026-01-29 17:05:58.59	12.98	12.86	-39.8	-41.0	21.0	0.00e+00	70	29	0	263192576	52	6427
2026-01-29 17:06:02.63	12.47	13.17	-39.7	-40.9	21.1	0.00e+00	33	29	0	270532608	52	6320
2026-01-29 17:06:06.67	11.95	13.47	-39.5	-40.6	21.5	0.00e+00	0	29	0	277872640	52	6131
2026-01-29 17:06:10.72	11.42	13.78	-39.2	-40.3	21.9	0.00e+00	84	29	0	285212672	52	5955
2026-01-29 17:06:14.75	10.87	14.09	-38.5	-39.5	22.4	0.00e+00	0	29	0	293601280	50	6075
2026-01-29 17:06:18.79	10.32	14.40	-38.2	-39.2	22.7	0.00e+00	0	29	0	300941312	50	5856
2026-01-29 17:06:22.83	9.75	14.71	-38.2	-39.2	22.6	0.00e+00	0	29	0	308281344	50	5831
2026-01-29 17:06:26.87	9.17	15.02	-37.9	-38.9	22.8	0.00e+00	79	29	0	315621376	50	5644
2026-01-29 17:06:30.91	8.58	15.33	-38.5	-39.6	22.4	0.00e+00	0	29	0	322961408	50	6124
2026-01-29 17:06:34.95	7.97	15.65	-38.4	-39.4	22.6	0.00e+00	0	29	0	331350016	50	5973
2026-01-29 17:06:38.99	7.35	15.96	-38.6	-39.6	22.3	0.00e+00	0	29	0	338690048	50	6171
2026-01-29 17:06:43.03	6.72	16.27	-38.5	-39.5	22.5	0.00e+00	18	29	0	346030080	50	6069
2026-01-29 17:06:47.07	6.07	16.59	-38.7	-39.7	22.3	0.00e+00	6	29	0	353370112	50	6225
2026-01-29 17:06:51.10	5.42	16.90	-39.1	-40.2	22.2	0.00e+00	0	29	0	361758720	50	6553
2026-01-29 17:06:55.15	4.74	17.22	-39.0	-40.0	22.1	0.00e+00	92	29	0	369098752	50	6451
2026-01-29 17:06:59.19	4.05	17.54	-39.2	-40.3	21.9	0.00e+00	90	29	0	376438784	50	6673
2026-01-29 17:07:03.20	3.35	17.85	-38.9	-39.9	22.1	0.00e+00	0	29	0	383778816	50	6348
2026-01-29 17:07:07.24	2.63	18.16	-38.9	-39.9	22.2	0.00e+00	0	29	0	391118848	50	6380
2026-01-29 17:07:11.28	1.90	18.48	-38.6	-39.6	22.4	0.00e+00	82	29	0	399507456	50	6116
2026-01-29 17:07:15.32	1.15	18.79	-38.9	-39.9	22.2	0.00e+00	0	29	0	406847488	50	6356
2026-01-29 17:07:19.37	0.38	19.10	-39.1	-40.1	21.8	0.00e+00	0	29	0	414187520	50	6539
2026-01-29 17:07:23.41	359.60	19.41	-38.5	-39.4	22.6	0.00e+00	0	29	0	421527552	50	6029
2026-01-29 17:07:27.45	358.81	19.72	-37.9	-38.8	23.0	0.00e+00	92	30	0	429916160	50	5614
2026-01-29 17:07:31.49	357.99	20.03	-38.9	-39.9	22.1	0.00e+00	0	29	0	437256192	50	6390
2026-01-29 17:07:35.53	357.16	20.33	-38.8	-39.8	22.1	0.00e+00	0	29	0	444596224	50	6293
2026-01-29 17:07:39.57	356.31	20.63	-38.4	-39.4	22.6	0.00e+00	0	30	0	451936256	50	6023
2026-01-29 17:07:43.61	355.45	20.93	-37.5	-38.4	23.3	0.00e+00	92	30	0	459276288	48	6006
2026-01-29 17:07:47.65	354.57	21.22	-37.7	-38.7	23.0	0.00e+00	0	30	0	467664896	48	6199
2026-01-29 17:07:51.69	353.67	21.51	-36.9	-37.8	23.8	0.00e+00	0	29	0	475004928	48	5596
2026-01-29 17:07:55.73	352.76	21.79	-36.6	-37.4	24.2	0.00e+00	6	30	0	482344960	46	6029
2026-01-29 17:07:59.77	351.82	22.07	-36.9	-37.8	23.8	0.00e+00	0	30	0	489684992	46	6281
2026-01-29 17:08:03.81	350.88	22.35	-36.8	-37.6	24.0	0.00e+00	0	30	0	498073600	46	6160
2026-01-29 17:08:07.85	349.91	22.62	-36.4	-37.2	24.4	0.00e+00	0	30	0	505413632	46	5889
2026-01-29 17:08:11.89	348.93	22.88	-36.4	-37.3	24.2	0.00e+00	89	29	0	512753664	46	5929
2026-01-29 17:08:15.93	347.93	23.14	-36.4	-37.2	24.3	0.00e+00	0	29	0	520093696	46	5874
2026-01-29 17:08:19.97	346.91	23.39	-36.6	-37.4	24.2	0.00e+00	0	30	0	527433728	46	6009
2026-01-29 17:08:24.00	345.88	23.63	-36.8	-37.7	24.0	0.00e+00	0	30	0	535822336	46	6245
2026-01-29 17:08:28.04	344.83	23.86	-36.2	-37.0	24.5	0.00e+00	29	29	0	543162368	46	5755
2026-01-29 17:08:32.08	343.77	24.09	-36.5	-37.4	24.2	0.00e+00	6	30	0	550502400	46	5972
2026-01-29 17:08:36.12	342.69	24.30	-37.0	-37.9	23.9	0.00e+00	24	30	0	557842432	46	6323
2026-01-29 17:08:40.17	341.59	24.51	-36.7	-37.6	24.2	0.00e+00	84	30	0	566231040	46	6129
2026-01-29 17:08:44.20	340.49	24.71	-36.7	-37.6	24.1	0.00e+00	66	30	0	573571072	46	6130
2026-01-29 17:08:48.24	339.37	24.89	-36.0	-36.8	24.7	0.00e+00	0	30	0	580911104	46	5618
2026-01-29 17:08:52.28	338.23	25.07	-36.4	-37.2	24.0	0.00e+00	0	30	0	588251136	46	5853
2026-01-29 17:08:56.32	337.08	25.23	-36.5	-37.3	24.2	0.00e+00	20	30	0	595591168	46	5947
2026-01-29 17:09:00.36	335.92	25.39	-37.8	-38.7	23.4	0.00e+00	0	30	0	603979776	48	6203
2026-01-29 17:09:04.40	334.75	25.53	-38.7	-39.8	22.4	0.00e+00	0	30	0	611319808	48	7021
2026-01-29 17:09:08.44	333.57	25.65	-37.7	-38.6	23.3	0.00e+00	0	30	0	618659840	50	5493
2026-01-29 17:09:12.48	332.38	25.77	-37.9	-38.8	23.2	0.00e+00	92	30	0	625999872	48	6279
2026-01-29 17:09:16.51	331.19	25.87	-38.5	-39.5	22.6	0.00e+00	0	30	0	634388480	50	6093
2026-01-29 17:09:20.55	329.98	25.96	-38.6	-39.6	22.5	0.00e+00	0	30	0	641728512	50	6132
2026-01-29 17:09:24.59	328.77	26.03	-39.1	-40.1	22.1	0.00e+00	5	30	0	649068544	50	6532
2026-01-29 17:09:28.63	327.56	26.09	-38.0	-39.0	23.0	0.00e+00	5	30	0	656408576	50	5711
2026-01-29 17:09:32.66	326.34	26.14	-38.5	-39.5	22.8	0.00e+00	0	30	0	663748608	50	6075
2026-01-29 17:09:36.70	325.11	26.17	-39.1	-40.1	22.3	0.00e+00	0	30	0	672137216	50	6533
2026-01-29 17:09:40.74	323.89	26.19	-38.7	-39.7	22.7	0.00e+00	90	30	0	679477248	50	6226
2026-01-29 17:09:44.78	322.66	26.19	-37.5	-38.3	23.5	0.00e+00	0	30	0	686817280	48	5957
2026-01-29 17:09:48.83	321.43	26.18	-39.4	-40.5	21.9	0.00e+00	0	30	0	694157312	50	6814
2026-01-29 17:09:52.87	320.21	26.15	-38.5	-39.5	22.7	0.00e+00	0	30	0	702545920	50	6095
2026-01-29 17:09:56.90	318.99	26.11	-37.7	-38.6	23.4	0.00e+00	92	30	0	709885952	50	5499
2026-01-29 17:10:00.94	317.77	26.06	-37.5	-38.4	23.6	0.00e+00	0	30	0	717225984	48	5985
2026-01-29 17:10:04.98	316.56	25.99	-36.7	-37.5	24.2	0.00e+00	0	30	0	724566016	48	5400
2026-01-29 17:10:09.02	315.35	25.91	-35.5	-36.2	25.1	0.00e+00	0	30	0	731906048	44	5875
2026-01-29 17:10:13.06	314.15	25.81	-35.5	-36.3	25.1	0.00e+00	54	29	0	740294656	44	5900
2026-01-29 17:10:17.10	312.95	25.70	-35.7	-36.5	24.9	0.00e+00	0	29	0	747634688	44	6054
2026-01-29 17:10:21.14	311.77	25.58	-36.7	-37.5	24.2	0.00e+00	0	30	0	754974720	46	6077
2026-01-29 17:10:25.18	310.59	25.45	-36.7	-37.5	24.3	0.00e+00	69	30	0	762314752	46	6083
2026-01-29 17:10:29.22	309.43	25.30	-36.8	-37.6	24.2	0.00e+00	0	30	0	770703360	46	6109
2026-01-29 17:10:33.26	308.27	25.14	-38.1	-39.1	23.0	0.00e+00	0	30	0	778043392	48	6466
2026-01-29 17:10:37.30	307.13	24.97	-37.5	-38.4	23.7	0.00e+00	0	30	0	785383424	48	5995
2026-01-29 17:10:41.34	306.00	24.79	-37.7	-38.6	23.4	0.00e+00	32	29	0	792723456	48	6164
2026-01-29 17:10:45.38	304.89	24.59	-38.3	-39.2	22.9	0.00e+00	0	30	0	800063488	48	6599
2026-01-29 17:10:49.41	303.79	24.39	-39.4	-40.5	22.0	0.00e+00	0	30	0	808452096	50	6792
2026-01-29 17:10:53.45	302.70	24.18	-38.7	-39.7	22.6	0.00e+00	0	30	0	815792128	50	6205
2026-01-29 17:10:57.49	301.63	23.96	-38.5	-39.4	22.7	0.00e+00	90	30	0	823132160	50	6003
2026-01-29 17:11:01.53	300.57	23.73	-38.5	-39.4	22.7	0.00e+00	0	30	0	830472192	50	5986
2026-01-29 17:11:05.57	299.53	23.49	-37.9	-38.8	23.3	0.00e+00	0	30	0	838860800	50	5604
2026-01-29 17:11:09.61	298.51	23.24	-38.9	-39.9	22.4	0.00e+00	41	30	0	846200832	50	6364
2026-01-29 17:11:13.65	297.50	22.99	-39.2	-40.2	22.1	0.00e+00	48	30	0	853540864	52	5896
2026-01-29 17:11:17.69	296.51	22.72	-38.4	-39.4	22.8	0.00e+00	0	30	0	860880896	50	5998
2026-01-29 17:11:21.74	295.53	22.46	-39.0	-40.0	22.4	0.00e+00	0	30	0	868220928	50	6440
2026-01-29 17:11:25.78	294.57	22.18	-37.8	-38.7	22.6	0.00e+00	90	30	0	876609536	50	5532
2026-01-29 17:11:29.82	293.63	21.90	-37.3	-38.2	23.8	0.00e+00	0	30	0	883949568	48	5852
2026-01-29 17:11:33.86	292.71	21.62	-38.8	-39.8	22.5	0.00e+00	0	30	0	891289600	48	7087
2026-01-29 17:11:37.89	291.80	21.33	-37.9	-38.9	23.2	0.00e+00	0	30	0	898629632	50	5644
2026-01-29 17:11:41.93	290.91	21.04	-36.2	-37.0	24.5	0.00e+00	72	30	0	907018240	46	5715
2026-01-29 17:11:45.97	290.04	20.74	-37.2	-38.0	23.8	0.00e+00	0	30	0	914358272	46	6436
2026-01-29 17:11:50.00	289.18	20.45	-37.2	-38.1	23.8	0.00e+00	0	30	0	921698304	46	6492
2026-01-29 17:11:54.04	288.35	20.14	-37.3	-38.2	23.7	0.00e+00	0	30	0	929038336	46	6570
2026-01-29 17:11:58.08	287.52	19.84	-37.4	-38.3	23.6	0.00e+00	81	30	0	936378368	46	6620
2026-01-29 17:12:02.12	286.72	19.53	-37.3	-38.3	23.6	0.00e+00	0	30	0	944766976	46	6616
2026-01-29 17:12:06.16	285.93	19.22	-38.0	-38.9	23.1	0.00e+00	0	30	0	952107008	48	6347
2026-01-29 17:12:10.20	285.15	18.91	-36.9	-37.7	24.0	0.00e+00	27	30	0	959447040	48	5524
2026-01-29 17:12:14.24	284.39	18.60	-37.7	-38.6	23.4	0.00e+00	0	30	0	966787072	48	6161
2026-01-29 17:12:18.28	283.65	18.28	-36.6	-37.4	24.1	0.00e+00	0	30	0	975175680	46	5998
2026-01-29 17:12:22.32	282.92	17.97	-36.4	-37.2	24.4	0.00e+00	0	30	0	982515712	46	5837
2026-01-29 17:12:26.35	282.21	17.65	-36.8	-37.7	24.0	0.00e+00	90	30	0	989855744	46	6210
2026-01-29 17:12:30.39	281.52	17.34	-36.9	-37.7	24.0	0.00e+00	0	30	0	997195776	46	6242
2026-01-29 17:12:34.44	280.83	17.02	-36.4	-37.3	24.4	0.00e+00	0	30	0	1004535808	46	5907
2026-01-29 17:12:38.48	280.16	16.70	-36.7	-37.6	24.0	0.00e+00	2	30	0	1012924416	46	6134
2026-01-29 17:12:42.52	279.51	16.39	-37.1	-38.0	23.7	0.00e+00	92	30	0	1020264448	46	6419
2026-01-29 17:12:46.55	278.87	16.07	-36.7	-37.5	24.2	0.00e+00	0	30	0	1027604480	46	6083
2026-01-29 17:12:50.59	278.24	15.76	-36.2	-37.0	24.5	0.00e+00	0	30	0	1034944512	46	5738
2026-01-29 17:12:54.63	277.63	15.44	-37.8	-38.7	23.1	0.00e+00	77	30	0	1043333120	46	6975
2026-01-29 17:12:58.67	277.03	15.13	-37.9	-38.8	23.1	0.00e+00	0	30	0	1050673152	48	6303
2026-01-29 17:13:02.71	276.44	14.82	-37.0	-37.9	23.7	0.00e+00	0	30	0	1058013184	48	5653
2026-01-29 17:13:06.75	275.87	14.50	-36.8	-37.6	23.9	0.00e+00	0	30	0	1065353216	48	5491
2026-01-29 17:13:10.79	275.30	14.19	-37.4	-38.2	23.5	0.00e+00	74	30	0	1072693248	46	6613
2026-01-29 17:13:14.83	274.75	13.88	-38.8	-39.9	22.3	0.00e+00	0	30	0	1081081856	50	6348
2026-01-29 17:13:18.88	274.21	13.57	-38.2	-39.2	22.7	0.00e+00	0	30	0	1088421888	50	5855
2026-01-29 17:13:22.92	273.68	13.27	-36.9	-37.7	23.8	0.00e+00	0	30	0	1095761920	46	6223
2026-01-29 17:13:26.96	273.17	12.96	-37.5	-38.3	23.3	0.00e+00	92	30	0	1103101952	46	6689
2026-01-29 17:13:31.00	272.66	12.66	-37.4	-38.2	23.4	0.00e+00	0	30	0	1111490560	48	5887
2026-01-29 17:13:35.04	272.16	12.36	-37.7	-38.5	23.3	0.00e+00	0	30	0	1118830592	48	6102
2026-01-29 17:13:39.08	271.68	12.05	-38.4	-39.4	22.5	0.00e+00	0	30	0	1126170624	48	6732
2026-01-29 17:13:43.12	271.20	11.76	-38.8	-39.8	22.2	0.00e+00	0	30	0	1133510656	50	6273
2026-01-29 17:13:47.16	270.73	11.46	-39.0	-40.1	22.0	0.00e+00	0	30	0	1141899264	50	6479
2026-01-29 17:13:51.21	270.28	11.16	-39.6	-40.7	21.3	0.00e+00	0	30	0	1149239296	52	6245
2026-01-29 17:13:55.25	269.83	10.87	-39.5	-40.6	21.4	0.00e+00	15	30	0	1156579328	52	6167
2026-01-29 17:13:59.29	269.39	10.58	-38.7	-39.7	22.4	0.00e+00	0	30	0	1163919360	50	6180
2026-01-29 17:14:03.33	268.96	10.29	-38.7	-39.7	22.2	0.00e+00	0	30	0	1171259392	50	6191
2026-01-29 17:14:07.37	268.54	10.00	-39.2	-40.3	21.6	0.00e+00	0	30	0	1179648000	50	6662
2026-01-29 17:14:11.41	268.13	9.71	-39.3	-40.4	21.6	0.00e+00	92	30	0	1186988032	50	6739
2026-01-29 17:14:15.44	267.73	9.43	-38.7	-39.7	22.0	0.00e+00	0	30	0	1194328064	50	6236
2026-01-29 17:14:19.48	267.33	9.14	-38.5	-39.5	22.2	0.00e+00	0	30	0	1201668096	50	6071
2026-01-29 17:14:23.52	266.94	8.86	-38.8	-39.9	22.0	0.00e+00	88	30	0	1210056704	50	6320
2026-01-29 17:14:27.56	266.56	8.58	-39.1	-40.2	21.6	0.00e+00	0	30	0	1217396736	50	6596
2026-01-29 17:14:31.61	266.19	8.31	-39.8	-41.0	21.0	0.00e+00	0	30	0	1224736768	52	6398
2026-01-29 17:14:35.64	265.82	8.03	-40.5	-41.8	20.3	0.00e+00	0	30	0	1232076800	52	7009
2026-01-29 17:14:39.69	265.46	7.76	-40.6	-42.0	20.1	0.00e+00	18	30	0	1239416832	54	6407
2026-01-29 17:14:43.73	265.11	7.49	-40.7	-42.1	19.9	0.00e+00	0	30	0	1247805440	54	6481
2026-01-29 17:14:47.77	264.76	7.22	-40.9	-42.3	19.7	0.00e+00	0	30	0	1255145472	54	6683
2026-01-29 17:14:51.80	264.42	6.95	-41.0	-42.4	19.7	0.00e+00	0	30	0	1262485504	58	5339
2026-01-29 17:14:55.84	264.09	6.68	-41.8	-43.4	18.8	0.00e+00	75	30	0	1269825536	56	6756
2026-01-29 17:14:59.88	263.77	6.42	-41.8	-43.4	18.7	0.00e+00	0	30	0	1278214144	56	6741
2026-01-29 17:15:03.92	263.45	6.16	-41.5	-43.0	19.1	0.00e+00	0	30	0	1285554176	56	6451
2026-01-29 17:15:07.96	263.13	5.90	-41.0	-42.4	19.6	0.00e+00	0	30	0	1292894208	56	6023
2026-01-29 17:15:12.00	262.82	5.64	-40.1	-41.4	20.4	0.00e+00	86	30	0	1300234240	54	5990
2026-01-29 17:15:16.04	262.52	5.38	-39.7	-40.9	20.8	0.00e+00	0	30	0	1307574272	52	6358
2026-01-29 17:15:20.08	262.22	5.12	-40.1	-41.4	20.3	0.00e+00	0	30	0	1315962880	52	6762
2026-01-29 17:15:24.13	261.93	4.87	-40.6	-41.9	19.7	0.00e+00	87	30	0	1323302912	52	7167
2026-01-29 17:15:28.16	261.64	4.62	-41.4	-42.9	18.9	0.00e+00	0	30	0	1330642944	54	7162
2026-01-29 17:15:32.20	261.36	4.37	-41.7	-43.4	18.4	0.00e+00	0	30	0	1337982976	56	6715
2026-01-29 17:15:36.25	261.08	4.12	-42.3	-44.2	17.6	0.00e+00	0	30	0	1346371584	56	7380
2026-01-29 17:15:40.29	260.81	3.87	-42.1	-43.9	17.8	0.00e+00	92	30	0	1353711616	56	7150
2026-01-29 17:15:44.33	260.54	3.63	-42.3	-44.3	17.4	0.00e+00	0	30	0	1361051648	56	7450
2026-01-29 17:15:48.37	260.28	3.38	-42.2	-44.1	17.7	0.00e+00	0	30	0	1368391680	56	7300
2026-01-29 17:15:52.41	260.02	3.14	-42.2	-44.1	17.4	0.00e+00	0	30	0	1375731712	56	7315
2026-01-29 17:15:56.45	259.77	2.90	-48.5	-63.7	3.6	1.51e+00	0	30	104	1379926016	60	55190
2026-01-29 17:16:00.49	259.52	2.66	-48.9	-64.1	3.6	1.51e+00	0	30	104	1379926016	60	57773
2026-01-29 17:16:04.53	259.27	2.42	-49.0	-64.2	3.6	1.51e+00	0	30	104	1379926016	60	58369
2026-01-29 17:16:08.57	259.03	2.19	-48.9	-64.1	3.6	1.51e+00	0	30	104	1379926016	60	58247
2026-01-29 17:16:12.61	258.79	1.95	-48.8	-64.0	3.6	1.51e+00	0	30	104	1379926016	60	57554
2026-01-29 17:16:16.65	258.56	1.72	-48.8	-64.0	3.6	1.51e+00	0	30	104	1379926016	60	57272
2026-01-29 17:16:20.70	258.33	1.49	-48.8	-64.0	3.6	1.51e+00	0	30	104	1379926016	60	57473
2026-01-29 17:16:24.74	258.10	1.26	-48.8	-64.0	3.6	1.51e+00	0	30	104	1379926016	60	57327
2026-01-29 17:16:28.78	257.88	1.03	-48.8	-64.0	3.6	1.51e+00	0	30	104	1379926016	60	57502
2026-01-29 17:16:32.82	257.66	0.80	-48.8	-64.0	3.6	1.51e+00	0	30	104	1379926016	60	57138
2026-01-29 17:16:36.86	257.45	0.57	-48.8	-64.0	3.6	1.51e+00	0	30	104	1379926016	60	57350
2026-01-29 17:16:40.90	257.24	0.35	-48.8	-64.0	3.6	1.51e+00	0	30	104	1379926016	60	57424
2026-01-29 17:16:44.94	257.03	0.12	-48.8	-64.0	3.6	1.51e+00	0	30	104	1379926016	60	57250

#Closed at: 2026-01-29 17:16:48
#Recorded file [1379 MB]: D:/lorett/data/35029_260130_050240.dat