passes_logs/2026/01/29/R4.6S_Anadyr/R4.6S_Anadyr__20260129_190218_NOAA_20_JPSS-1_rec.log

#Pass ID: 20260129_190218_NOAA 20 (JPSS-1)
#Satellite: NOAA 20 (JPSS-1)
#Configuration: NOAA 20
#almurnet v.1.7.20251203
#Start time: 2026-01-29 19:02:20

#Version: 2.2.20231116
#Station: R4.6S_Anadyr
#Location: 177.4865 lon 64.73178 lat
#TLE: 1 43013U 17073A   26028.86313978  .00000144  00000+0  89200-4 0  9993
#TLE: 2 43013  98.7648 329.6571 0000891  20.0014 340.1197 14.19541559424709

#Time	Az	El	Level	Level2	SNR	BER	BlckErr	Temp	State	Recorded	gain1	gain2
2026-01-29 19:02:20.85	47.60	0.10	-48.9	-63.9	3.5	1.51e+00	0	29	0	0	60	56319
2026-01-29 19:02:23.87	47.37	0.25	-49.0	-64.2	3.6	1.51e+00	0	30	104	0	60	58456
2026-01-29 19:02:26.90	47.14	0.39	-49.0	-64.2	3.6	1.51e+00	0	30	104	0	60	58785
2026-01-29 19:02:29.93	46.91	0.54	-49.1	-64.3	3.6	1.51e+00	0	30	104	0	60	59127
2026-01-29 19:02:32.96	46.68	0.69	-49.0	-64.2	3.6	1.51e+00	0	30	104	0	60	58826
2026-01-29 19:02:35.99	46.44	0.84	-48.9	-64.1	3.6	1.51e+00	0	31	104	0	60	58272
2026-01-29 19:02:39.02	46.20	0.99	-48.8	-64.0	3.6	1.51e+00	0	31	104	0	60	57406
2026-01-29 19:02:42.05	45.96	1.14	-48.6	-63.8	3.6	1.51e+00	0	31	104	0	60	56217
2026-01-29 19:02:45.08	45.72	1.29	-48.0	-63.1	3.6	1.51e+00	0	31	104	0	60	51911
2026-01-29 19:02:48.11	45.47	1.44	-47.4	-62.5	3.6	1.51e+00	0	31	104	0	60	48367
2026-01-29 19:02:51.14	45.22	1.59	-47.4	-62.6	3.6	1.51e+00	0	31	104	0	60	48673
2026-01-29 19:02:54.17	44.97	1.74	-47.4	-62.5	3.6	1.51e+00	0	31	104	0	60	48354
2026-01-29 19:02:57.20	44.71	1.89	-47.4	-62.5	3.6	1.51e+00	0	31	104	0	60	48414
2026-01-29 19:03:00.23	44.45	2.04	-47.4	-62.5	3.6	1.51e+00	0	31	104	0	60	48244
2026-01-29 19:03:03.26	44.19	2.19	-47.4	-62.5	3.6	1.51e+00	0	31	104	0	60	47980
2026-01-29 19:03:06.29	43.93	2.34	-47.4	-62.5	3.6	1.51e+00	0	31	104	0	60	47979
2026-01-29 19:03:09.33	43.66	2.50	-47.4	-62.4	3.6	1.51e+00	0	31	104	0	60	47848
2026-01-29 19:03:12.36	43.39	2.65	-47.4	-62.5	3.6	1.51e+00	0	31	104	0	60	48081
2026-01-29 19:03:15.39	43.12	2.80	-47.3	-62.1	3.6	1.51e+00	0	31	104	0	60	46211
2026-01-29 19:03:18.42	42.85	2.95	-46.9	-56.0	5.8	1.50e+00	48	31	104	0	60	22776
2026-01-29 19:03:21.45	42.57	3.11	-46.6	-53.2	7.5	3.29e-01	91	31	0	4194304	60	16500
2026-01-29 19:03:24.48	42.29	3.26	-47.2	-59.2	4.5	1.51e+00	0	31	104	6291456	60	33095
2026-01-29 19:03:27.51	42.01	3.41	-45.7	-50.7	10.7	7.62e-04	5	31	0	9437184	60	12435
2026-01-29 19:03:30.54	41.72	3.57	-44.1	-47.1	14.5	8.23e-05	92	31	0	14680064	60	8177
2026-01-29 19:03:33.57	41.43	3.72	-43.4	-45.8	15.9	0.00e+00	92	31	0	20971520	60	7071
2026-01-29 19:03:36.60	41.14	3.87	-43.9	-46.7	15.1	0.00e+00	0	31	0	26214400	60	7792
2026-01-29 19:03:39.63	40.84	4.03	-42.9	-45.1	16.8	0.00e+00	38	31	0	32505856	58	7267
2026-01-29 19:03:42.66	40.54	4.18	-42.4	-44.3	17.5	0.00e+00	92	31	0	37748736	58	6631
2026-01-29 19:03:45.69	40.24	4.34	-42.7	-44.7	17.3	0.00e+00	0	31	0	42991616	58	6998
2026-01-29 19:03:48.72	39.93	4.49	-42.0	-43.7	18.2	0.00e+00	7	31	0	49283072	58	6242
2026-01-29 19:03:51.75	39.62	4.64	-42.2	-44.0	17.9	0.00e+00	92	31	0	54525952	58	6442
2026-01-29 19:03:54.78	39.31	4.80	-42.0	-43.7	18.5	0.00e+00	0	31	0	60817408	58	6202
2026-01-29 19:03:57.81	38.99	4.95	-41.8	-43.5	18.5	0.00e+00	50	31	0	66060288	58	6063
2026-01-29 19:04:00.84	38.67	5.11	-41.7	-43.3	18.8	0.00e+00	92	31	0	71303168	56	6682
2026-01-29 19:04:03.87	38.35	5.26	-41.6	-43.1	18.9	0.00e+00	6	31	0	77594624	56	6528
2026-01-29 19:04:06.90	38.02	5.42	-41.7	-43.3	18.5	0.00e+00	30	31	0	82837504	56	6637
2026-01-29 19:04:09.92	37.69	5.57	-41.5	-43.1	18.9	0.00e+00	82	31	0	89128960	56	6469
2026-01-29 19:04:12.96	37.36	5.73	-41.3	-42.8	19.4	0.00e+00	92	31	0	94371840	56	6275
2026-01-29 19:04:15.98	37.02	5.88	-41.4	-42.9	19.3	0.00e+00	51	31	0	100663296	56	6372
2026-01-29 19:04:19.01	36.68	6.03	-41.4	-42.9	19.4	0.00e+00	5	31	0	105906176	56	6367
2026-01-29 19:04:22.04	36.34	6.19	-41.0	-42.5	19.8	0.00e+00	92	31	0	111149056	56	6042
2026-01-29 19:04:25.07	35.99	6.34	-41.0	-42.5	19.9	0.00e+00	0	31	0	117440512	56	6039
2026-01-29 19:04:28.10	35.64	6.50	-41.0	-42.4	19.9	0.00e+00	0	31	0	122683392	56	6009
2026-01-29 19:04:31.13	35.28	6.65	-41.2	-42.7	19.6	0.00e+00	91	31	0	128974848	56	6215
2026-01-29 19:04:34.16	34.92	6.81	-41.1	-42.5	19.8	0.00e+00	0	31	0	134217728	56	6071
2026-01-29 19:04:37.19	34.55	6.96	-41.1	-42.5	19.9	0.00e+00	0	31	0	139460608	56	6053
2026-01-29 19:04:40.22	34.19	7.11	-40.9	-42.3	20.0	0.00e+00	92	31	0	145752064	56	5902
2026-01-29 19:04:43.25	33.81	7.27	-40.9	-42.3	20.0	0.00e+00	92	31	0	150994944	56	5935
2026-01-29 19:04:46.28	33.44	7.42	-40.8	-42.2	20.2	0.00e+00	0	31	0	157286400	56	5848
2026-01-29 19:04:49.31	33.06	7.57	-40.9	-42.2	20.1	0.00e+00	72	31	0	162529280	56	5878
2026-01-29 19:04:52.33	32.67	7.73	-40.7	-42.0	20.4	0.00e+00	91	31	0	168820736	54	6404
2026-01-29 19:04:55.36	32.29	7.88	-40.7	-42.0	20.3	0.00e+00	51	31	0	174063616	54	6449
2026-01-29 19:04:58.39	31.89	8.03	-40.6	-41.9	20.4	0.00e+00	0	31	0	179306496	54	6383
2026-01-29 19:05:01.42	31.50	8.18	-40.7	-42.0	20.3	0.00e+00	92	31	0	185597952	54	6440
2026-01-29 19:05:04.45	31.09	8.33	-40.6	-42.0	20.5	0.00e+00	42	31	0	190840832	54	6392
2026-01-29 19:05:07.48	30.69	8.48	-40.4	-41.6	20.8	0.00e+00	0	31	0	197132288	54	6163
2026-01-29 19:05:10.51	30.28	8.63	-40.2	-41.5	20.8	0.00e+00	6	31	0	202375168	54	6044
2026-01-29 19:05:13.54	29.86	8.78	-40.4	-41.6	20.7	0.00e+00	90	31	0	207618048	54	6162
2026-01-29 19:05:16.57	29.45	8.93	-40.4	-41.6	20.7	0.00e+00	50	31	0	213909504	54	6139
2026-01-29 19:05:19.60	29.02	9.08	-39.9	-41.1	21.3	0.00e+00	0	32	0	219152384	54	5770
2026-01-29 19:05:22.63	28.60	9.23	-40.5	-41.8	20.7	0.00e+00	92	31	0	225443840	54	6258
2026-01-29 19:05:25.66	28.16	9.38	-40.5	-41.7	20.7	0.00e+00	34	32	0	230686720	54	6224
2026-01-29 19:05:28.69	27.73	9.52	-40.6	-41.9	20.6	0.00e+00	6	32	0	236978176	54	6321
2026-01-29 19:05:31.72	27.29	9.67	-40.4	-41.7	20.7	0.00e+00	90	32	0	242221056	54	6176
2026-01-29 19:05:34.74	26.84	9.81	-40.2	-41.4	21.1	0.00e+00	4	32	0	247463936	54	6002
2026-01-29 19:05:37.77	26.39	9.96	-40.0	-41.2	21.2	0.00e+00	52	32	0	253755392	54	5846
2026-01-29 19:05:40.80	25.94	10.10	-39.8	-41.0	21.5	0.00e+00	53	31	0	258998272	52	6413
2026-01-29 19:05:43.83	25.48	10.24	-39.6	-40.7	21.8	0.00e+00	31	32	0	265289728	52	6178
2026-01-29 19:05:46.86	25.02	10.38	-39.5	-40.5	21.9	0.00e+00	0	32	0	270532608	52	6095
2026-01-29 19:05:49.89	24.55	10.52	-39.2	-40.3	22.1	0.00e+00	28	31	0	275775488	52	5929
2026-01-29 19:05:52.92	24.08	10.66	-38.9	-39.9	22.5	0.00e+00	92	31	0	282066944	52	5674
2026-01-29 19:05:55.95	23.60	10.80	-38.9	-39.9	22.5	0.00e+00	0	32	0	287309824	52	5688
2026-01-29 19:05:58.97	23.12	10.94	-39.0	-40.0	22.4	0.00e+00	54	32	0	293601280	52	5723
2026-01-29 19:06:02.00	22.63	11.07	-38.7	-39.7	22.8	0.00e+00	92	31	0	298844160	50	6182
2026-01-29 19:06:05.03	22.14	11.21	-38.6	-39.6	22.9	0.00e+00	29	32	0	305135616	50	6105
2026-01-29 19:06:08.06	21.65	11.34	-38.7	-39.7	22.8	0.00e+00	0	32	0	310378496	50	6239
2026-01-29 19:06:11.09	21.15	11.47	-38.5	-39.4	23.0	0.00e+00	92	32	0	315621376	50	6005
2026-01-29 19:06:14.12	20.64	11.60	-38.3	-39.2	23.1	0.00e+00	0	32	0	321912832	50	5867
2026-01-29 19:06:17.15	20.13	11.73	-38.0	-38.9	23.3	0.00e+00	0	32	0	327155712	50	5659
2026-01-29 19:06:20.18	19.62	11.86	-38.1	-39.0	23.4	0.00e+00	53	31	0	333447168	50	5722
2026-01-29 19:06:23.21	19.10	11.98	-38.0	-39.0	23.4	0.00e+00	92	32	0	338690048	50	5699
2026-01-29 19:06:26.24	18.58	12.11	-38.0	-39.0	23.5	0.00e+00	0	32	0	343932928	50	5707
2026-01-29 19:06:29.27	18.05	12.23	-38.2	-39.1	23.3	0.00e+00	28	32	0	350224384	50	5794
2026-01-29 19:06:32.30	17.52	12.35	-38.2	-39.1	23.3	0.00e+00	90	32	0	355467264	50	5796
2026-01-29 19:06:35.33	16.99	12.47	-38.5	-39.4	23.0	0.00e+00	0	32	0	361758720	50	6008
2026-01-29 19:06:38.36	16.45	12.59	-38.4	-39.3	23.1	0.00e+00	52	32	0	367001600	50	5940
2026-01-29 19:06:41.39	15.90	12.70	-38.7	-39.6	22.8	0.00e+00	92	32	0	373293056	50	6172
2026-01-29 19:06:44.42	15.35	12.81	-38.5	-39.5	23.0	0.00e+00	31	31	0	378535936	50	6052
2026-01-29 19:06:47.45	14.80	12.92	-38.3	-39.2	23.1	0.00e+00	53	31	0	383778816	50	5879
2026-01-29 19:06:50.48	14.24	13.03	-38.2	-39.2	23.2	0.00e+00	0	32	0	390070272	50	5845
2026-01-29 19:06:53.51	13.68	13.14	-38.4	-39.3	23.2	0.00e+00	0	32	0	395313152	50	5939
2026-01-29 19:06:56.54	13.12	13.24	-38.3	-39.2	23.3	0.00e+00	5	32	0	401604608	50	5888
2026-01-29 19:06:59.57	12.55	13.34	-38.2	-39.1	23.2	0.00e+00	52	32	0	406847488	50	5819
2026-01-29 19:07:02.60	11.98	13.44	-38.3	-39.2	23.2	0.00e+00	92	32	0	412090368	50	5865
2026-01-29 19:07:05.63	11.40	13.54	-38.1	-39.0	23.5	0.00e+00	5	32	0	418381824	50	5729
2026-01-29 19:07:08.66	10.82	13.63	-38.2	-39.1	23.4	0.00e+00	6	32	0	423624704	50	5789
2026-01-29 19:07:11.69	10.23	13.72	-37.8	-38.7	23.6	0.00e+00	92	32	0	429916160	50	5565
2026-01-29 19:07:14.72	9.65	13.81	-38.0	-38.9	23.4	0.00e+00	0	32	0	435159040	50	5683
2026-01-29 19:07:17.75	9.05	13.90	-38.1	-39.0	23.4	0.00e+00	0	32	0	441450496	50	5748
2026-01-29 19:07:20.78	8.46	13.98	-38.0	-38.9	23.5	0.00e+00	84	32	0	446693376	50	5660
2026-01-29 19:07:23.81	7.86	14.06	-38.0	-38.9	23.5	0.00e+00	48	32	0	451936256	50	5673
2026-01-29 19:07:26.84	7.26	14.14	-37.9	-38.8	23.4	0.00e+00	54	32	0	458227712	50	5616
2026-01-29 19:07:29.87	6.66	14.21	-38.3	-39.2	23.2	0.00e+00	2	32	0	463470592	50	5861
2026-01-29 19:07:32.90	6.05	14.28	-38.0	-38.9	23.5	0.00e+00	45	32	0	469762048	50	5687
2026-01-29 19:07:35.93	5.44	14.35	-38.2	-39.2	23.3	0.00e+00	0	32	0	475004928	50	5835
2026-01-29 19:07:38.96	4.82	14.42	-38.3	-39.2	23.3	0.00e+00	0	32	0	481296384	50	5864
2026-01-29 19:07:41.99	4.21	14.48	-38.4	-39.3	23.1	0.00e+00	92	32	0	486539264	50	5949
2026-01-29 19:07:45.01	3.59	14.54	-38.9	-39.9	22.7	0.00e+00	35	32	0	491782144	50	6328
2026-01-29 19:07:48.04	2.97	14.59	-38.6	-39.6	22.9	0.00e+00	53	32	0	498073600	50	6125
2026-01-29 19:07:51.07	2.35	14.65	-38.6	-39.6	23.0	0.00e+00	92	32	0	503316480	50	6117
2026-01-29 19:07:54.10	1.72	14.69	-38.5	-39.5	23.1	0.00e+00	28	32	0	509607936	50	6055
2026-01-29 19:07:57.13	1.09	14.74	-38.2	-39.1	23.4	0.00e+00	0	32	0	514850816	50	5809
2026-01-29 19:08:00.15	0.47	14.78	-38.5	-39.4	23.2	0.00e+00	31	32	0	520093696	50	6008
2026-01-29 19:08:03.16	359.84	14.82	-38.4	-39.4	23.2	0.00e+00	54	32	0	526385152	50	5968
2026-01-29 19:08:06.19	359.21	14.86	-38.3	-39.3	23.2	0.00e+00	0	32	0	531628032	50	5902
2026-01-29 19:08:09.22	358.57	14.89	-38.6	-39.6	23.0	0.00e+00	34	32	0	537919488	50	6114
2026-01-29 19:08:12.25	357.94	14.92	-38.3	-39.2	23.2	0.00e+00	92	32	0	543162368	50	5887
2026-01-29 19:08:15.28	357.30	14.94	-38.3	-39.3	23.3	0.00e+00	32	32	0	548405248	50	5914
2026-01-29 19:08:18.31	356.66	14.96	-38.6	-39.5	23.0	0.00e+00	0	32	0	554696704	50	6086
2026-01-29 19:08:21.34	356.03	14.98	-38.4	-39.3	23.2	0.00e+00	92	32	0	559939584	50	5961
2026-01-29 19:08:24.38	355.38	15.00	-38.4	-39.3	23.2	0.00e+00	53	32	0	566231040	50	5940
2026-01-29 19:08:27.41	354.74	15.01	-38.5	-39.5	23.1	0.00e+00	0	32	0	571473920	50	6035
2026-01-29 19:08:30.44	354.10	15.02	-38.1	-39.1	23.5	0.00e+00	92	32	0	577765376	50	5771
2026-01-29 19:08:33.47	353.46	15.02	-38.2	-39.1	23.4	0.00e+00	30	32	0	583008256	50	5793
2026-01-29 19:08:36.50	352.82	15.02	-38.2	-39.1	23.4	0.00e+00	6	32	0	588251136	50	5827
2026-01-29 19:08:39.53	352.18	15.02	-38.2	-39.1	23.3	0.00e+00	0	32	0	594542592	50	5823
2026-01-29 19:08:42.56	351.54	15.01	-38.1	-39.0	23.5	0.00e+00	44	32	0	599785472	50	5704
2026-01-29 19:08:45.59	350.90	15.00	-38.2	-39.1	23.3	0.00e+00	0	32	0	606076928	50	5819
2026-01-29 19:08:48.62	350.26	14.98	-38.5	-39.4	23.2	0.00e+00	33	32	0	611319808	50	6023
2026-01-29 19:08:51.65	349.63	14.97	-38.3	-39.2	23.2	0.00e+00	92	32	0	616562688	50	5866
2026-01-29 19:08:54.68	348.99	14.95	-38.6	-39.6	23.1	0.00e+00	6	32	0	622854144	50	6148
2026-01-29 19:08:57.71	348.35	14.92	-38.8	-39.7	22.8	0.00e+00	0	32	0	628097024	50	6245
2026-01-29 19:09:00.73	347.72	14.89	-38.5	-39.4	23.2	0.00e+00	92	32	0	634388480	50	6028
2026-01-29 19:09:03.76	347.08	14.86	-38.3	-39.2	23.3	0.00e+00	44	32	0	639631360	50	5871
2026-01-29 19:09:06.79	346.45	14.83	-38.7	-39.7	22.9	0.00e+00	47	32	0	645922816	50	6210
2026-01-29 19:09:09.82	345.82	14.79	-38.8	-39.8	22.8	0.00e+00	33	32	0	651165696	50	6257
2026-01-29 19:09:12.85	345.19	14.74	-38.5	-39.5	22.9	0.00e+00	0	32	0	656408576	50	6071
2026-01-29 19:09:15.88	344.56	14.70	-38.3	-39.3	23.2	0.00e+00	30	32	0	662700032	50	5921
2026-01-29 19:09:18.91	343.94	14.65	-38.3	-39.3	23.2	0.00e+00	0	32	0	667942912	50	5904
2026-01-29 19:09:21.93	343.32	14.60	-38.4	-39.3	23.2	0.00e+00	90	32	0	674234368	50	5926
2026-01-29 19:09:24.96	342.69	14.54	-38.2	-39.1	23.4	0.00e+00	52	32	0	679477248	50	5778
2026-01-29 19:09:27.99	342.08	14.48	-38.2	-39.1	23.4	0.00e+00	53	32	0	684720128	50	5798
2026-01-29 19:09:31.02	341.46	14.42	-38.2	-39.2	23.3	0.00e+00	91	32	0	691011584	50	5835
2026-01-29 19:09:34.05	340.85	14.36	-38.4	-39.3	23.3	0.00e+00	53	32	0	696254464	50	5962
2026-01-29 19:09:37.08	340.23	14.29	-38.2	-39.2	23.3	0.00e+00	2	32	0	702545920	50	5833
2026-01-29 19:09:40.11	339.63	14.22	-38.4	-39.4	23.2	0.00e+00	91	32	0	707788800	50	5974
2026-01-29 19:09:43.14	339.02	14.14	-38.5	-39.4	23.1	0.00e+00	0	32	0	714080256	50	6015
2026-01-29 19:09:46.17	338.42	14.07	-38.6	-39.5	22.9	0.00e+00	0	32	0	719323136	50	6082
2026-01-29 19:09:49.19	337.82	13.99	-38.6	-39.6	22.9	0.00e+00	0	32	0	724566016	50	6123
2026-01-29 19:09:52.22	337.23	13.90	-38.6	-39.6	22.9	0.00e+00	91	32	0	730857472	50	6116
2026-01-29 19:09:55.26	336.63	13.82	-38.8	-39.7	22.8	0.00e+00	0	32	0	736100352	50	6231
2026-01-29 19:09:58.29	336.05	13.73	-38.7	-39.6	22.9	0.00e+00	29	32	0	742391808	50	6152
2026-01-29 19:10:01.31	335.46	13.64	-38.8	-39.8	22.7	0.00e+00	90	32	0	747634688	50	6257
2026-01-29 19:10:04.34	334.88	13.54	-38.7	-39.6	22.9	0.00e+00	0	32	0	752877568	50	6162
2026-01-29 19:10:07.37	334.30	13.45	-38.3	-39.2	23.2	0.00e+00	0	32	0	759169024	50	5860
2026-01-29 19:10:10.40	333.73	13.35	-38.3	-39.2	23.2	0.00e+00	92	32	0	764411904	50	5882
2026-01-29 19:10:13.43	333.16	13.25	-38.4	-39.3	23.2	0.00e+00	29	32	0	770703360	50	5940
2026-01-29 19:10:16.46	332.60	13.15	-38.2	-39.1	23.4	0.00e+00	35	32	0	775946240	50	5825
2026-01-29 19:10:19.49	332.03	13.04	-38.0	-38.9	23.5	0.00e+00	0	32	0	782237696	50	5681
2026-01-29 19:10:22.52	331.48	12.93	-38.4	-39.3	23.3	0.00e+00	0	32	0	787480576	50	5921
2026-01-29 19:10:25.55	330.92	12.82	-38.6	-39.5	23.0	0.00e+00	0	32	0	792723456	50	6073
2026-01-29 19:10:28.57	330.38	12.71	-38.3	-39.2	23.2	0.00e+00	0	32	0	799014912	50	5880
2026-01-29 19:10:31.61	329.83	12.60	-38.2	-39.1	23.3	0.00e+00	91	32	0	804257792	50	5770
2026-01-29 19:10:34.64	329.29	12.48	-38.2	-39.1	23.4	0.00e+00	39	32	0	810549248	50	5802
2026-01-29 19:10:37.67	328.75	12.36	-38.2	-39.1	23.4	0.00e+00	35	32	0	815792128	50	5796
2026-01-29 19:10:40.70	328.22	12.24	-38.2	-39.2	23.2	0.00e+00	92	32	0	821035008	50	5836
2026-01-29 19:10:43.73	327.69	12.12	-38.5	-39.5	23.0	0.00e+00	5	32	0	827326464	50	6035
2026-01-29 19:10:46.76	327.17	12.00	-39.0	-40.0	22.5	0.00e+00	50	32	0	832569344	50	6435
2026-01-29 19:10:49.79	326.65	11.87	-39.1	-40.1	22.5	0.00e+00	90	32	0	838860800	50	6491
2026-01-29 19:10:52.82	326.14	11.74	-39.2	-40.3	22.2	0.00e+00	31	32	0	844103680	50	6616
2026-01-29 19:10:55.85	325.63	11.61	-39.3	-40.3	22.2	0.00e+00	51	32	0	850395136	50	6680
2026-01-29 19:10:58.89	325.12	11.48	-39.6	-40.6	21.9	0.00e+00	32	32	0	855638016	50	6919
2026-01-29 19:11:01.92	324.62	11.35	-39.8	-40.9	21.7	0.00e+00	90	32	0	860880896	52	6353
2026-01-29 19:11:04.95	324.12	11.22	-40.1	-41.2	21.5	0.00e+00	0	32	0	867172352	52	6589
2026-01-29 19:11:07.98	323.63	11.09	-40.3	-41.4	21.3	0.00e+00	0	32	0	872415232	52	6736
2026-01-29 19:11:11.01	323.15	10.95	-40.5	-41.7	21.0	0.00e+00	92	32	0	878706688	52	6991
2026-01-29 19:11:14.04	322.66	10.81	-40.4	-41.6	20.9	0.00e+00	45	32	0	883949568	54	6163
2026-01-29 19:11:17.07	322.19	10.68	-40.7	-41.9	20.8	0.00e+00	0	32	0	890241024	54	6377
2026-01-29 19:11:20.10	321.71	10.54	-41.0	-42.3	20.3	0.00e+00	92	32	0	895483904	54	6650
2026-01-29 19:11:23.12	321.25	10.40	-41.2	-42.5	20.2	0.00e+00	0	32	0	900726784	54	6830
2026-01-29 19:11:26.15	320.78	10.26	-40.9	-42.2	20.4	0.00e+00	0	32	0	907018240	54	6572
2026-01-29 19:11:29.18	320.32	10.11	-41.1	-42.4	20.2	0.00e+00	55	32	0	912261120	54	6767
2026-01-29 19:11:32.21	319.87	9.97	-41.4	-42.8	19.8	0.00e+00	0	32	0	918552576	54	7080
2026-01-29 19:11:35.24	319.42	9.83	-41.4	-42.8	19.8	0.00e+00	48	32	0	923795456	54	7071
2026-01-29 19:11:38.27	318.97	9.68	-41.5	-42.9	19.7	0.00e+00	0	32	0	929038336	54	7135
2026-01-29 19:11:41.30	318.53	9.54	-41.3	-42.7	19.9	0.00e+00	92	32	0	935329792	54	6948
2026-01-29 19:11:44.32	318.09	9.39	-41.4	-42.8	19.7	0.00e+00	0	32	0	940572672	54	7065
2026-01-29 19:11:47.35	317.66	9.24	-41.2	-42.6	19.8	0.00e+00	0	32	0	946864128	54	6917
2026-01-29 19:11:50.38	317.23	9.09	-41.2	-42.6	20.0	0.00e+00	92	32	0	952107008	54	6918
2026-01-29 19:11:53.41	316.81	8.95	-40.9	-42.2	20.3	0.00e+00	43	32	0	958398464	54	6578
2026-01-29 19:11:56.44	316.39	8.80	-40.9	-42.2	20.3	0.00e+00	34	32	0	963641344	54	6562
2026-01-29 19:11:59.47	315.98	8.65	-40.8	-42.1	20.5	0.00e+00	92	32	0	968884224	54	6479
2026-01-29 19:12:02.50	315.57	8.50	-40.7	-42.0	20.5	0.00e+00	0	32	0	975175680	54	6440
2026-01-29 19:12:05.53	315.16	8.35	-40.6	-41.8	20.7	0.00e+00	5	32	0	980418560	54	6297
2026-01-29 19:12:08.56	314.76	8.19	-40.6	-41.8	20.7	0.00e+00	42	32	0	986710016	54	6299
2026-01-29 19:12:11.59	314.36	8.04	-40.5	-41.7	20.7	0.00e+00	86	32	0	991952896	54	6209
2026-01-29 19:12:14.62	313.97	7.89	-40.2	-41.4	21.1	0.00e+00	47	32	0	997195776	54	6011
2026-01-29 19:12:17.65	313.58	7.74	-40.2	-41.4	21.1	0.00e+00	0	32	0	1003487232	54	6019
2026-01-29 19:12:20.68	313.19	7.59	-39.7	-40.9	21.4	0.00e+00	92	32	0	1008730112	52	6325
2026-01-29 19:12:23.71	312.81	7.43	-39.7	-40.8	21.6	0.00e+00	4	32	0	1015021568	52	6307
2026-01-29 19:12:26.74	312.44	7.28	-39.4	-40.4	21.9	0.00e+00	0	32	0	1020264448	52	6031
2026-01-29 19:12:29.77	312.06	7.13	-39.3	-40.4	21.9	0.00e+00	92	32	0	1026555904	52	5969
2026-01-29 19:12:32.80	311.69	6.97	-39.5	-40.6	21.8	0.00e+00	47	32	0	1031798784	52	6118
2026-01-29 19:12:35.82	311.33	6.82	-39.1	-40.1	22.2	0.00e+00	35	32	0	1037041664	52	5808
2026-01-29 19:12:38.85	310.97	6.66	-39.0	-40.0	21.7	0.00e+00	91	32	0	1043333120	52	5725
2026-01-29 19:12:41.88	310.61	6.51	-39.2	-40.2	22.1	0.00e+00	41	32	0	1048576000	52	5886
2026-01-29 19:12:44.92	310.26	6.36	-39.2	-40.3	21.9	0.00e+00	0	32	0	1054867456	52	5932
2026-01-29 19:12:47.94	309.91	6.20	-39.3	-40.3	21.9	0.00e+00	0	32	0	1060110336	52	5963
2026-01-29 19:12:50.98	309.56	6.05	-39.4	-40.4	21.7	0.00e+00	90	32	0	1065353216	52	6030
2026-01-29 19:12:54.01	309.22	5.89	-39.3	-40.3	21.8	0.00e+00	34	32	0	1071644672	52	5964
2026-01-29 19:12:57.03	308.88	5.74	-39.4	-40.5	21.8	0.00e+00	36	32	0	1076887552	52	6049
2026-01-29 19:13:00.07	308.55	5.58	-39.5	-40.7	21.6	0.00e+00	90	32	0	1083179008	52	6190
2026-01-29 19:13:03.09	308.22	5.43	-39.5	-40.7	21.6	0.00e+00	2	32	0	1088421888	52	6179
2026-01-29 19:13:06.12	307.89	5.27	-39.9	-41.1	21.1	0.00e+00	0	32	0	1094713344	52	6490
2026-01-29 19:13:09.15	307.57	5.12	-39.7	-40.9	21.3	0.00e+00	90	32	0	1099956224	52	6357
2026-01-29 19:13:12.18	307.25	4.96	-39.9	-41.1	21.1	0.00e+00	0	32	0	1105199104	52	6518
2026-01-29 19:13:15.22	306.93	4.81	-39.8	-40.9	21.3	0.00e+00	0	32	0	1111490560	52	6377
2026-01-29 19:13:18.25	306.61	4.65	-39.6	-40.8	21.4	0.00e+00	35	32	0	1116733440	52	6275
2026-01-29 19:13:21.27	306.31	4.50	-39.7	-40.9	21.2	0.00e+00	90	32	0	1123024896	52	6357
2026-01-29 19:13:24.30	306.00	4.35	-40.5	-41.8	20.4	0.00e+00	36	32	0	1128267776	52	7031
2026-01-29 19:13:27.33	305.70	4.19	-40.5	-41.8	20.3	0.00e+00	0	32	0	1133510656	52	7026
2026-01-29 19:13:30.36	305.40	4.04	-41.0	-42.5	19.5	0.00e+00	92	32	0	1139802112	54	6804
2026-01-29 19:13:33.39	305.10	3.88	-41.1	-42.5	19.7	0.00e+00	45	32	0	1145044992	56	6087
2026-01-29 19:13:36.42	304.81	3.73	-41.0	-42.5	19.4	0.00e+00	40	32	0	1151336448	54	6816
2026-01-29 19:13:39.45	304.51	3.58	-40.3	-41.6	20.2	0.00e+00	91	32	0	1156579328	54	6120
2026-01-29 19:13:42.48	304.23	3.42	-41.1	-42.6	19.3	0.00e+00	7	32	0	1162870784	54	6893
2026-01-29 19:13:45.51	303.94	3.27	-41.5	-43.2	18.9	0.00e+00	0	32	0	1168113664	54	7347
2026-01-29 19:13:48.54	303.66	3.12	-41.6	-43.2	18.5	0.00e+00	37	32	0	1173356544	54	7410
2026-01-29 19:13:51.57	303.38	2.97	-48.4	-63.6	3.6	1.51e+00	0	32	104	1177550848	60	54425
2026-01-29 19:13:54.60	303.11	2.81	-48.9	-64.2	3.6	1.51e+00	0	32	104	1177550848	60	58301
2026-01-29 19:13:57.63	302.84	2.66	-49.1	-64.3	3.6	1.51e+00	0	32	104	1177550848	60	59192
2026-01-29 19:14:00.66	302.57	2.51	-49.1	-64.4	3.6	1.51e+00	0	32	104	1177550848	60	59754
2026-01-29 19:14:03.69	302.30	2.36	-49.1	-64.3	3.6	1.51e+00	0	32	104	1177550848	60	59600
2026-01-29 19:14:06.71	302.04	2.21	-48.5	-64.3	3.6	1.51e+00	0	32	104	1177550848	60	59119
2026-01-29 19:14:09.75	301.78	2.05	-49.0	-64.2	3.6	1.51e+00	0	32	104	1177550848	60	58445
2026-01-29 19:14:12.78	301.52	1.90	-48.9	-64.1	3.6	1.51e+00	0	32	104	1177550848	60	58202
2026-01-29 19:14:15.81	301.26	1.75	-49.0	-64.1	3.6	1.51e+00	0	32	104	1177550848	60	58162
2026-01-29 19:14:18.84	301.01	1.60	-49.0	-64.2	3.6	1.51e+00	0	32	104	1177550848	60	58654
2026-01-29 19:14:21.87	300.76	1.45	-48.9	-64.2	3.6	1.51e+00	0	32	104	1177550848	60	58310
2026-01-29 19:14:24.90	300.51	1.30	-48.9	-64.1	3.6	1.51e+00	0	32	104	1177550848	60	58234
2026-01-29 19:14:27.93	300.27	1.15	-48.9	-64.1	3.6	1.51e+00	0	32	104	1177550848	60	58026
2026-01-29 19:14:30.96	300.02	1.00	-48.9	-64.1	3.6	1.51e+00	0	32	104	1177550848	60	58178
2026-01-29 19:14:33.99	299.78	0.85	-48.9	-64.1	3.6	1.51e+00	0	32	104	1177550848	60	58201
2026-01-29 19:14:37.02	299.55	0.70	-48.9	-64.1	3.6	1.51e+00	0	32	104	1177550848	60	58197
2026-01-29 19:14:40.05	299.31	0.56	-49.0	-64.1	3.5	1.51e+00	0	32	104	1177550848	60	58279
2026-01-29 19:14:43.08	299.08	0.41	-49.0	-64.2	3.6	1.51e+00	0	32	104	1177550848	60	58400
2026-01-29 19:14:46.11	298.85	0.26	-49.0	-64.2	3.6	1.51e+00	0	32	104	1177550848	60	58480
2026-01-29 19:14:49.14	298.62	0.11	-48.9	-64.1	3.6	1.51e+00	0	32	104	1177550848	60	58226

#Closed at: 2026-01-29 19:14:51
#Recorded file [1177 MB]: D:/lorett/data/35029_260130_070220.dat