passes_logs/2026/01/29/R4.6S_Anadyr/R4.6S_Anadyr__20260129_043257_AQUA_rec.log

#Pass ID: 20260129_043257_AQUA
#Satellite: AQUA
#Configuration: AQUA
#almurnet v.1.7.20251203
#Start time: 2026-01-29 04:32:58

#Version: 2.2.20231116
#Station: R4.6S_Anadyr
#Location: 177.4865 lon 64.73178 lat
#TLE: 1 27424U 02022A   26027.96263068  .00001625  00000+0  33481-3 0  9997
#TLE: 2 27424  98.4102 354.6095 0001839  63.4368   7.7786 14.61867353262782

#Time	Az	El	Level	Level2	SNR	BER	BlckErr	Temp	State	Recorded	gain1	gain2
2026-01-29 04:32:58.11	228.20	0.04	-48.6	-60.3	3.5	8.45e-01	0	30	0	0	60	37523
2026-01-29 04:33:01.14	228.49	0.19	-49.2	-67.1	3.5	3.03e+01	0	31	104	0	60	87190
2026-01-29 04:33:04.17	228.77	0.33	-49.0	-67.1	3.5	3.03e+01	0	31	104	0	60	87319
2026-01-29 04:33:07.20	229.06	0.47	-49.0	-67.0	3.5	3.03e+01	0	31	104	0	60	85724
2026-01-29 04:33:10.22	229.35	0.61	-49.0	-66.9	3.5	3.03e+01	0	31	104	0	60	85497
2026-01-29 04:33:13.26	229.65	0.76	-49.1	-67.0	3.5	3.03e+01	0	31	104	0	60	85703
2026-01-29 04:33:16.29	229.95	0.90	-49.0	-66.8	3.5	3.03e+01	0	31	104	0	60	84301
2026-01-29 04:33:19.32	230.25	1.05	-48.7	-66.6	3.5	3.03e+01	0	31	104	0	60	81810
2026-01-29 04:33:22.35	230.55	1.19	-46.1	-65.4	3.5	3.03e+01	0	31	104	0	60	71463
2026-01-29 04:33:25.38	230.86	1.33	-46.2	-64.4	3.5	3.03e+01	0	31	104	0	60	63737
2026-01-29 04:33:28.41	231.17	1.48	-46.2	-64.4	3.5	3.03e+01	0	31	104	0	60	64220
2026-01-29 04:33:31.44	231.48	1.62	-46.2	-64.4	3.5	3.03e+01	0	31	104	0	60	63833
2026-01-29 04:33:34.47	231.80	1.77	-46.2	-64.4	3.5	3.03e+01	0	31	104	0	60	63843
2026-01-29 04:33:37.50	232.12	1.91	-46.2	-64.4	3.5	3.03e+01	0	31	104	0	60	63903
2026-01-29 04:33:40.53	232.44	2.06	-46.2	-64.4	3.5	3.03e+01	0	31	104	0	60	63761
2026-01-29 04:33:43.56	232.77	2.20	-46.2	-64.4	3.5	3.03e+01	0	31	104	0	60	63691
2026-01-29 04:33:46.59	233.10	2.35	-46.2	-64.4	3.5	3.03e+01	0	31	104	0	60	63800
2026-01-29 04:33:49.62	233.43	2.49	-46.2	-64.4	3.5	3.03e+01	0	31	104	0	60	63860
2026-01-29 04:33:52.65	233.77	2.64	-46.2	-64.3	3.5	3.03e+01	0	31	104	0	60	63431
2026-01-29 04:33:55.68	234.11	2.78	-46.2	-64.3	3.5	3.03e+01	0	31	104	0	60	63087
2026-01-29 04:33:58.71	234.46	2.93	-46.2	-64.1	3.5	3.03e+01	0	31	104	0	60	61981
2026-01-29 04:34:01.73	234.80	3.08	-45.5	-64.5	3.5	3.03e+01	0	31	104	0	60	64598
2026-01-29 04:34:04.76	235.15	3.22	-46.0	-64.2	3.5	3.03e+01	0	32	104	0	60	62484
2026-01-29 04:34:07.79	235.51	3.37	-45.9	-64.4	3.5	3.03e+01	0	31	104	0	60	63991
2026-01-29 04:34:10.82	235.87	3.51	-46.1	-63.5	3.5	3.03e+01	0	32	104	0	60	57299
2026-01-29 04:34:13.85	236.23	3.66	-47.1	-62.9	3.6	3.03e+01	0	31	104	0	60	53754
2026-01-29 04:34:16.87	236.60	3.80	-46.5	-63.5	3.5	3.03e+01	0	32	104	0	60	57910
2026-01-29 04:34:19.90	236.97	3.95	-46.6	-62.8	3.7	3.03e+01	0	32	104	0	60	53369
2026-01-29 04:34:22.94	237.34	4.10	-46.3	-61.8	3.9	3.03e+01	0	32	104	0	60	47593
2026-01-29 04:34:25.97	237.72	4.24	-46.6	-63.5	3.5	3.03e+01	0	32	104	0	60	57588
2026-01-29 04:34:28.99	238.10	4.39	-46.3	-62.2	3.9	3.03e+01	0	32	104	0	60	49630
2026-01-29 04:34:32.02	238.49	4.53	-45.9	-63.0	3.5	3.03e+01	0	32	104	0	60	54626
2026-01-29 04:34:35.05	238.88	4.68	-46.1	-54.7	9.8	3.03e+01	92	32	0	1048576	60	20822
2026-01-29 04:34:38.08	239.27	4.82	-45.8	-53.4	11.1	3.03e+01	91	32	0	6291456	60	17943
2026-01-29 04:34:41.11	239.67	4.97	-45.5	-52.3	12.4	3.03e+01	90	32	0	12058624	60	15879
2026-01-29 04:34:44.14	240.07	5.11	-45.0	-51.0	13.7	3.03e+01	90	32	0	17825792	60	13672
2026-01-29 04:34:47.17	240.48	5.26	-44.5	-49.9	15.0	3.03e+01	91	32	0	23592960	60	11962
2026-01-29 04:34:50.19	240.89	5.40	-44.4	-48.7	16.3	3.03e+01	92	31	0	29360128	60	10476
2026-01-29 04:34:53.22	241.30	5.54	-43.8	-47.7	17.3	3.03e+01	90	32	0	34603008	60	9344
2026-01-29 04:34:56.24	241.72	5.69	-43.6	-46.7	18.4	3.03e+01	92	32	0	40370176	60	8351
2026-01-29 04:34:59.28	242.15	5.83	-42.6	-45.3	19.9	3.03e+01	90	32	0	46137344	60	7069
2026-01-29 04:35:02.30	242.57	5.97	-42.2	-44.8	20.4	3.03e+01	92	31	0	51904512	60	6666
2026-01-29 04:35:05.33	243.01	6.12	-41.9	-44.2	20.9	3.03e+01	92	32	0	57671680	58	7022
2026-01-29 04:35:08.36	243.44	6.26	-41.1	-43.2	21.9	3.03e+01	90	32	0	63438848	58	6239
2026-01-29 04:35:11.39	243.89	6.40	-40.7	-42.6	22.7	3.03e+01	92	32	0	69206016	56	6535
2026-01-29 04:35:14.41	244.33	6.54	-39.9	-41.6	23.5	3.03e+01	90	31	0	74448896	54	6570
2026-01-29 04:35:17.44	244.78	6.68	-39.6	-41.3	23.9	3.03e+01	90	32	0	80216064	54	6330
2026-01-29 04:35:20.47	245.24	6.82	-39.2	-40.9	24.3	3.03e+01	92	32	0	85983232	54	6015
2026-01-29 04:35:23.50	245.70	6.96	-38.7	-40.3	25.0	3.03e+01	92	31	0	91750400	52	6300
2026-01-29 04:35:26.53	246.16	7.10	-38.7	-40.2	25.1	3.03e+01	90	31	0	97517568	52	6271
2026-01-29 04:35:29.55	246.63	7.24	-38.0	-39.5	25.7	3.03e+01	91	31	0	102760448	50	6465
2026-01-29 04:35:32.58	247.10	7.37	-37.5	-38.9	26.3	3.03e+01	92	31	0	108527616	50	6042
2026-01-29 04:35:35.61	247.58	7.51	-37.3	-38.7	26.6	3.03e+01	92	32	0	114294784	50	5913
2026-01-29 04:35:38.64	248.06	7.65	-37.4	-38.7	26.6	3.03e+01	92	31	0	120061952	50	5923
2026-01-29 04:35:41.67	248.55	7.78	-36.9	-38.2	27.1	3.03e+01	91	31	0	125829120	48	6240
2026-01-29 04:35:44.69	249.04	7.91	-36.8	-38.1	27.2	3.03e+01	91	31	0	131596288	48	6169
2026-01-29 04:35:47.72	249.54	8.05	-36.8	-38.1	27.2	3.03e+01	92	31	0	136839168	48	6188
2026-01-29 04:35:50.75	250.04	8.18	-36.4	-37.7	27.6	3.03e+01	92	31	0	142606336	48	5923
2026-01-29 04:35:53.78	250.55	8.31	-36.6	-38.0	27.3	3.03e+01	91	31	0	148373504	48	6071
2026-01-29 04:35:56.80	251.06	8.44	-36.6	-38.0	27.4	3.03e+01	90	31	0	154140672	48	6067
2026-01-29 04:35:59.83	251.58	8.57	-36.6	-37.9	27.4	3.03e+01	92	31	0	159907840	48	6048
2026-01-29 04:36:02.86	252.10	8.70	-36.5	-37.8	27.5	3.03e+01	92	31	0	165675008	48	5936
2026-01-29 04:36:05.89	252.63	8.82	-36.3	-37.6	27.7	3.03e+01	92	31	0	170917888	48	5831
2026-01-29 04:36:08.91	253.16	8.95	-36.3	-37.6	27.7	3.03e+01	90	31	0	176685056	48	5823
2026-01-29 04:36:11.94	253.69	9.07	-36.6	-37.9	27.6	3.03e+01	91	31	0	182452224	48	6048
2026-01-29 04:36:14.97	254.23	9.19	-36.3	-37.6	27.7	3.03e+01	91	31	0	188219392	48	5854
2026-01-29 04:36:18.00	254.78	9.32	-36.3	-37.6	27.8	3.03e+01	93	32	0	193986560	48	5799
2026-01-29 04:36:21.03	255.33	9.43	-36.1	-37.4	28.0	3.03e+01	92	32	0	199753728	48	5702
2026-01-29 04:36:24.05	255.88	9.55	-36.1	-37.4	28.0	3.03e+01	92	31	0	204996608	48	5681
2026-01-29 04:36:27.08	256.44	9.67	-36.3	-37.6	27.8	3.03e+01	92	32	0	210763776	48	5818
2026-01-29 04:36:30.11	257.00	9.78	-36.1	-37.4	28.0	3.03e+01	92	32	0	216530944	48	5661
2026-01-29 04:36:33.14	257.57	9.90	-36.2	-37.5	28.0	3.03e+01	92	32	0	222298112	46	6443
2026-01-29 04:36:36.16	258.14	10.01	-36.0	-37.3	28.1	3.03e+01	90	31	0	228065280	46	6294
2026-01-29 04:36:39.19	258.72	10.12	-36.2	-37.5	27.9	3.03e+01	92	32	0	233832448	46	6477
2026-01-29 04:36:42.22	259.30	10.22	-35.9	-37.1	28.3	3.03e+01	92	32	0	239075328	46	6175
2026-01-29 04:36:45.24	259.89	10.33	-36.0	-37.2	28.2	3.03e+01	92	31	0	244842496	46	6271
2026-01-29 04:36:48.28	260.48	10.43	-35.8	-37.0	28.4	3.03e+01	90	31	0	250609664	46	6113
2026-01-29 04:36:51.30	261.07	10.53	-35.8	-37.0	28.4	3.03e+01	92	32	0	256376832	46	6124
2026-01-29 04:36:54.33	261.67	10.63	-35.9	-37.2	28.3	3.03e+01	92	31	0	262144000	46	6226
2026-01-29 04:36:57.36	262.28	10.73	-36.0	-37.3	28.2	3.03e+01	92	31	0	267386880	46	6313
2026-01-29 04:37:00.39	262.88	10.82	-35.7	-37.0	28.5	3.03e+01	90	31	0	273154048	46	6072
2026-01-29 04:37:03.41	263.49	10.91	-35.7	-37.0	28.5	3.03e+01	92	31	0	278921216	46	6104
2026-01-29 04:37:06.44	264.11	11.00	-35.6	-36.9	28.6	3.03e+01	92	32	0	284688384	46	5996
2026-01-29 04:37:09.47	264.73	11.09	-35.7	-36.9	28.4	3.03e+01	92	32	0	290455552	46	6030
2026-01-29 04:37:12.49	265.35	11.17	-35.6	-36.9	28.6	3.03e+01	90	31	0	296222720	46	6010
2026-01-29 04:37:15.52	265.98	11.26	-35.6	-36.8	28.7	3.03e+01	92	32	0	301989888	46	5951
2026-01-29 04:37:18.55	266.61	11.34	-35.6	-36.8	28.7	3.03e+01	90	32	0	307232768	46	5964
2026-01-29 04:37:21.58	267.24	11.41	-35.4	-36.6	28.8	3.03e+01	91	32	0	312999936	46	5856
2026-01-29 04:37:24.61	267.88	11.49	-35.7	-36.9	28.6	3.03e+01	92	32	0	318767104	46	6023
2026-01-29 04:37:27.63	268.52	11.56	-35.5	-36.7	28.7	3.03e+01	91	32	0	324534272	46	5921
2026-01-29 04:37:30.66	269.16	11.63	-35.4	-36.6	28.9	3.03e+01	92	31	0	330301440	46	5823
2026-01-29 04:37:33.70	269.81	11.69	-35.5	-36.8	28.7	3.03e+01	91	32	0	335544320	46	5941
2026-01-29 04:37:36.72	270.46	11.76	-35.6	-36.8	28.7	3.03e+01	92	31	0	341311488	46	5975
2026-01-29 04:37:39.75	271.11	11.81	-35.4	-36.7	28.9	3.03e+01	92	31	0	347078656	46	5872
2026-01-29 04:37:42.78	271.77	11.87	-35.5	-36.7	28.8	3.03e+01	92	31	0	352845824	46	5896
2026-01-29 04:37:45.80	272.42	11.92	-35.4	-36.7	28.9	3.03e+01	92	32	0	358612992	46	5885
2026-01-29 04:37:48.83	273.09	11.98	-35.3	-36.5	28.9	3.03e+01	84	31	0	364380160	46	5772
2026-01-29 04:37:51.85	273.75	12.02	-35.5	-36.7	28.8	3.03e+01	90	31	0	369623040	46	5909
2026-01-29 04:37:54.88	274.41	12.07	-35.4	-36.6	28.8	3.03e+01	92	31	0	375390208	46	5854
2026-01-29 04:37:57.91	275.08	12.11	-35.3	-36.5	28.9	3.03e+01	92	32	0	381157376	46	5770
2026-01-29 04:38:00.93	275.74	12.14	-35.4	-36.7	28.9	3.03e+01	92	31	0	386924544	46	5864
2026-01-29 04:38:03.96	276.41	12.18	-35.4	-36.6	28.9	3.03e+01	89	31	0	392691712	46	5806
2026-01-29 04:38:06.99	277.09	12.21	-35.3	-36.5	29.0	3.03e+01	92	31	0	398458880	46	5787
2026-01-29 04:38:10.02	277.76	12.24	-35.3	-36.6	28.9	3.03e+01	91	31	0	403701760	46	5811
2026-01-29 04:38:13.05	278.43	12.26	-35.3	-36.6	29.0	3.03e+01	92	31	0	409468928	46	5802
2026-01-29 04:38:16.08	279.11	12.28	-35.4	-36.6	28.9	3.03e+01	90	31	0	415236096	46	5855
2026-01-29 04:38:19.11	279.78	12.30	-35.3	-36.6	29.0	3.03e+01	91	32	0	421003264	46	5806
2026-01-29 04:38:22.13	280.46	12.31	-35.4	-36.7	28.9	3.03e+01	92	31	0	426770432	46	5868
2026-01-29 04:38:25.16	281.14	12.32	-35.2	-36.4	29.1	3.03e+01	90	31	0	432013312	46	5693
2026-01-29 04:38:28.19	281.81	12.33	-35.2	-36.4	29.1	3.03e+01	92	32	0	437780480	46	5719
2026-01-29 04:38:31.21	282.49	12.34	-35.2	-36.4	29.0	3.03e+01	92	32	0	443547648	46	5693
2026-01-29 04:38:34.24	283.17	12.34	-35.4	-36.6	28.9	3.03e+01	91	31	0	449314816	46	5838
2026-01-29 04:38:37.27	283.85	12.33	-35.0	-36.3	29.2	3.03e+01	91	31	0	455081984	46	5597
2026-01-29 04:38:40.30	284.52	12.33	-35.3	-36.5	28.9	3.03e+01	92	32	0	460849152	46	5787
2026-01-29 04:38:43.33	285.20	12.32	-35.3	-36.5	28.9	3.03e+01	92	31	0	466616320	46	5765
2026-01-29 04:38:46.35	285.88	12.30	-35.3	-36.5	29.0	3.03e+01	90	31	0	471859200	46	5767
2026-01-29 04:38:49.38	286.55	12.29	-35.3	-36.5	29.0	3.03e+01	92	31	0	477626368	46	5782
2026-01-29 04:38:52.41	287.23	12.26	-35.2	-36.4	29.0	3.03e+01	92	32	0	483393536	46	5723
2026-01-29 04:38:55.43	287.90	12.24	-35.3	-36.6	29.0	3.03e+01	91	32	0	489160704	46	5792
2026-01-29 04:38:58.47	288.57	12.21	-35.2	-36.4	29.1	3.03e+01	90	32	0	494927872	46	5713
2026-01-29 04:39:01.49	289.24	12.18	-35.3	-36.5	29.0	3.03e+01	91	31	0	500170752	46	5776
2026-01-29 04:39:04.52	289.91	12.15	-35.2	-36.4	29.1	3.03e+01	91	31	0	505937920	46	5714
2026-01-29 04:39:07.54	290.58	12.11	-35.3	-36.5	29.0	3.03e+01	92	31	0	511705088	46	5747
2026-01-29 04:39:10.57	291.24	12.07	-35.4	-36.6	29.0	3.03e+01	91	31	0	517472256	46	5827
2026-01-29 04:39:13.59	291.90	12.03	-35.2	-36.4	29.1	3.03e+01	92	31	0	523239424	46	5708
2026-01-29 04:39:16.62	292.57	11.98	-35.2	-36.4	29.1	3.03e+01	91	31	0	528482304	46	5722
2026-01-29 04:39:19.65	293.22	11.93	-35.3	-36.5	29.1	3.03e+01	92	31	0	534249472	46	5755
2026-01-29 04:39:22.67	293.88	11.88	-35.2	-36.5	29.0	3.03e+01	92	31	0	540016640	46	5728
2026-01-29 04:39:25.70	294.53	11.82	-35.4	-36.7	28.8	3.03e+01	92	31	0	545783808	46	5876
2026-01-29 04:39:28.73	295.18	11.77	-35.2	-36.4	29.1	3.03e+01	91	31	0	551550976	46	5675
2026-01-29 04:39:31.76	295.83	11.70	-35.3	-36.5	29.0	3.03e+01	92	31	0	557318144	46	5749
2026-01-29 04:39:34.79	296.48	11.64	-35.1	-36.3	29.2	3.03e+01	92	31	0	563085312	46	5624
2026-01-29 04:39:37.81	297.12	11.57	-35.3	-36.5	28.9	3.03e+01	90	31	0	568328192	46	5759
2026-01-29 04:39:40.84	297.76	11.50	-35.5	-36.7	28.9	3.03e+01	92	31	0	574095360	46	5901
2026-01-29 04:39:43.87	298.40	11.43	-35.4	-36.6	28.9	3.03e+01	90	31	0	579862528	46	5838
2026-01-29 04:39:46.90	299.03	11.35	-35.2	-36.4	29.1	3.03e+01	92	31	0	585629696	46	5722
2026-01-29 04:39:49.93	299.66	11.27	-35.3	-36.6	28.8	3.03e+01	88	31	0	591396864	46	5807
2026-01-29 04:39:52.95	300.28	11.19	-35.3	-36.5	29.0	3.03e+01	92	31	0	596639744	46	5759
2026-01-29 04:39:55.98	300.90	11.11	-35.4	-36.6	28.8	3.03e+01	92	31	0	602406912	46	5835
2026-01-29 04:39:59.00	301.52	11.02	-35.3	-36.6	29.0	3.03e+01	91	31	0	608174080	46	5806
2026-01-29 04:40:02.03	302.13	10.93	-35.4	-36.6	28.8	3.03e+01	92	32	0	613941248	46	5855
2026-01-29 04:40:05.06	302.74	10.84	-35.4	-36.7	28.8	3.03e+01	90	31	0	619708416	46	5866
2026-01-29 04:40:08.09	303.35	10.75	-35.5	-36.8	28.6	3.03e+01	89	31	0	625475584	46	5968
2026-01-29 04:40:11.12	303.95	10.65	-35.4	-36.7	28.8	3.03e+01	91	31	0	630718464	46	5868
2026-01-29 04:40:14.15	304.55	10.55	-35.3	-36.6	28.8	3.03e+01	90	31	0	636485632	46	5792
2026-01-29 04:40:17.17	305.14	10.45	-35.5	-36.7	28.7	3.03e+01	92	31	0	642252800	46	5899
2026-01-29 04:40:20.20	305.73	10.35	-35.2	-36.5	28.9	3.03e+01	92	31	0	648019968	46	5734
2026-01-29 04:40:23.23	306.31	10.25	-35.4	-36.6	28.8	3.03e+01	92	31	0	653787136	46	5846
2026-01-29 04:40:26.26	306.89	10.14	-35.3	-36.6	28.8	3.03e+01	92	32	0	659554304	46	5826
2026-01-29 04:40:29.29	307.47	10.03	-35.7	-37.0	28.6	3.03e+01	92	31	0	664797184	46	6072
2026-01-29 04:40:32.32	308.04	9.92	-35.4	-36.7	28.7	3.03e+01	92	31	0	670564352	46	5864
2026-01-29 04:40:35.35	308.61	9.81	-35.5	-36.7	28.7	3.03e+01	92	31	0	676331520	46	5894
2026-01-29 04:40:38.37	309.17	9.70	-35.7	-36.9	28.4	3.03e+01	92	31	0	682098688	46	6051
2026-01-29 04:40:41.40	309.73	9.58	-35.8	-37.0	28.4	3.03e+01	91	32	0	687865856	46	6112
2026-01-29 04:40:44.43	310.28	9.47	-36.1	-37.4	28.1	3.03e+01	91	31	0	693633024	46	6357
2026-01-29 04:40:47.46	310.83	9.35	-35.7	-36.9	28.5	3.03e+01	92	31	0	698875904	46	6052
2026-01-29 04:40:50.49	311.37	9.23	-35.5	-36.8	28.5	3.03e+01	90	32	0	704643072	46	5955
2026-01-29 04:40:53.52	311.91	9.11	-36.0	-37.3	28.1	3.03e+01	92	32	0	710410240	46	6329
2026-01-29 04:40:56.55	312.44	8.99	-35.8	-37.1	28.2	3.03e+01	61	31	0	716177408	46	6151
2026-01-29 04:40:59.58	312.97	8.86	-35.6	-36.9	28.4	3.03e+01	46	32	0	721944576	46	6014
2026-01-29 04:41:02.60	313.49	8.74	-35.8	-37.1	28.3	3.03e+01	49	31	0	727711744	46	6179
2026-01-29 04:41:05.62	314.01	8.61	-35.9	-37.1	28.2	3.03e+01	60	31	0	732954624	46	6193
2026-01-29 04:41:08.65	314.53	8.48	-36.1	-37.5	28.0	3.03e+01	57	31	0	738721792	46	6439
2026-01-29 04:41:11.68	315.04	8.36	-35.9	-37.2	28.1	3.03e+01	57	32	0	744488960	46	6224
2026-01-29 04:41:14.71	315.54	8.23	-35.9	-37.2	28.1	3.03e+01	59	32	0	750256128	46	6270
2026-01-29 04:41:17.74	316.04	8.10	-35.9	-37.2	28.1	3.03e+01	59	32	0	756023296	46	6261
2026-01-29 04:41:20.77	316.54	7.96	-36.1	-37.4	27.9	3.03e+01	59	32	0	761266176	46	6400
2026-01-29 04:41:23.80	317.03	7.83	-36.0	-37.3	28.1	3.03e+01	42	32	0	767033344	46	6292
2026-01-29 04:41:26.83	317.52	7.70	-36.5	-37.8	27.6	3.03e+01	58	32	0	772800512	46	6689
2026-01-29 04:41:29.85	318.00	7.56	-36.1	-37.4	27.9	3.03e+01	60	31	0	778567680	46	6400
2026-01-29 04:41:32.88	318.48	7.43	-36.2	-37.6	27.8	3.03e+01	60	32	0	784334848	46	6510
2026-01-29 04:41:35.91	318.95	7.29	-36.4	-37.7	27.6	3.03e+01	59	31	0	790102016	46	6597
2026-01-29 04:41:38.93	319.41	7.16	-36.2	-37.5	27.8	3.03e+01	56	31	0	795869184	46	6481
2026-01-29 04:41:41.96	319.88	7.02	-36.4	-37.7	27.6	3.03e+01	58	31	0	801112064	46	6592
2026-01-29 04:41:44.99	320.34	6.88	-36.2	-37.5	27.7	3.03e+01	52	32	0	806879232	46	6488
2026-01-29 04:41:48.02	320.79	6.74	-36.6	-37.9	27.3	3.03e+01	44	31	0	812646400	46	6781
2026-01-29 04:41:51.05	321.24	6.60	-36.5	-37.8	27.4	3.03e+01	60	32	0	818413568	46	6692
2026-01-29 04:41:54.08	321.69	6.46	-36.5	-37.8	27.4	3.03e+01	58	31	0	824180736	46	6684
2026-01-29 04:41:57.11	322.13	6.32	-36.6	-38.0	27.2	3.03e+01	58	31	0	829423616	46	6824
2026-01-29 04:42:00.13	322.56	6.18	-36.6	-37.9	27.3	3.03e+01	59	31	0	835190784	46	6771
2026-01-29 04:42:03.16	322.99	6.04	-36.6	-37.9	27.2	3.03e+01	56	32	0	840957952	46	6783
2026-01-29 04:42:06.19	323.42	5.90	-36.6	-38.0	27.3	3.03e+01	47	31	0	846725120	46	6816
2026-01-29 04:42:09.22	323.84	5.76	-36.8	-38.2	26.9	3.03e+01	51	31	0	852492288	48	6259
2026-01-29 04:42:12.25	324.26	5.62	-36.6	-37.9	27.0	3.03e+01	57	31	0	858259456	48	6062
2026-01-29 04:42:15.27	324.67	5.47	-36.6	-38.0	27.2	3.03e+01	56	31	0	864026624	48	6072
2026-01-29 04:42:18.29	325.08	5.33	-36.7	-38.1	27.1	3.03e+01	56	31	0	869269504	48	6162
2026-01-29 04:42:21.32	325.49	5.19	-36.8	-38.1	26.9	3.03e+01	54	31	0	875036672	48	6203
2026-01-29 04:42:24.35	325.89	5.05	-36.5	-37.8	27.2	3.03e+01	60	31	0	880803840	48	5989
2026-01-29 04:42:27.38	326.29	4.90	-37.0	-47.3	3.5	3.03e+01	0	31	104	883949568	48	17810
2026-01-29 04:42:30.41	326.68	4.76	-36.7	-47.0	3.6	3.03e+01	0	31	104	883949568	48	17118
2026-01-29 04:42:33.43	327.07	4.61	-43.4	-54.9	3.5	3.03e+01	0	32	104	883949568	60	21468
2026-01-29 04:42:36.46	327.46	4.47	-41.2	-52.0	3.6	3.03e+01	0	31	104	883949568	56	19278
2026-01-29 04:42:39.49	327.84	4.33	-47.5	-64.6	3.6	3.03e+01	0	31	104	883949568	60	65307
2026-01-29 04:42:42.52	328.21	4.18	-39.5	-49.9	4.0	3.03e+01	0	31	104	883949568	52	19153
2026-01-29 04:42:45.55	328.59	4.04	-39.6	-50.3	3.5	3.03e+01	0	31	104	883949568	54	17746
2026-01-29 04:42:48.57	328.96	3.89	-40.9	-51.8	3.5	3.03e+01	0	31	104	883949568	60	14993
2026-01-29 04:42:51.60	329.32	3.75	-40.6	-51.4	3.5	3.03e+01	0	31	104	883949568	56	18065
2026-01-29 04:42:54.63	329.68	3.61	-41.1	-52.3	3.5	3.03e+01	0	31	104	883949568	56	19898
2026-01-29 04:42:57.65	330.04	3.46	-40.1	-50.9	3.5	3.03e+01	0	31	104	883949568	56	16961
2026-01-29 04:43:00.68	330.40	3.32	-42.5	-53.9	3.5	3.03e+01	0	31	104	883949568	56	24009
2026-01-29 04:43:03.71	330.75	3.17	-43.2	-57.0	3.5	3.03e+01	0	32	104	883949568	60	27307
2026-01-29 04:43:06.73	331.09	3.03	-43.1	-56.3	3.5	3.03e+01	0	31	104	883949568	60	25126
2026-01-29 04:43:09.76	331.44	2.89	-48.3	-66.2	3.5	3.03e+01	0	32	104	883949568	60	78514
2026-01-29 04:43:12.79	331.78	2.74	-48.8	-66.7	3.5	3.03e+01	0	32	104	883949568	60	83157
2026-01-29 04:43:15.82	332.12	2.60	-48.6	-66.9	3.5	3.03e+01	0	32	104	883949568	60	85073
2026-01-29 04:43:18.86	332.45	2.45	-48.8	-66.9	3.5	3.03e+01	0	31	104	883949568	60	85260
2026-01-29 04:43:21.88	332.78	2.31	-48.8	-66.9	3.5	3.03e+01	0	32	104	883949568	60	85628
2026-01-29 04:43:24.92	333.11	2.17	-48.8	-66.9	3.5	3.03e+01	0	32	104	883949568	60	85180
2026-01-29 04:43:27.95	333.43	2.02	-49.0	-66.9	3.5	3.03e+01	0	32	104	883949568	60	85102
2026-01-29 04:43:30.98	333.75	1.88	-49.0	-66.9	3.5	3.03e+01	0	32	104	883949568	60	85204
2026-01-29 04:43:34.01	334.07	1.74	-49.1	-66.9	3.5	3.03e+01	0	32	104	883949568	60	84908
2026-01-29 04:43:37.03	334.38	1.59	-49.0	-66.9	3.5	3.03e+01	0	32	104	883949568	60	84940
2026-01-29 04:43:40.06	334.69	1.45	-49.0	-66.8	3.5	3.03e+01	0	32	104	883949568	60	84471
2026-01-29 04:43:43.10	335.00	1.31	-49.0	-66.9	3.5	3.03e+01	0	32	104	883949568	60	84752
2026-01-29 04:43:46.12	335.31	1.16	-49.0	-66.8	3.5	3.03e+01	0	32	104	883949568	60	84680
2026-01-29 04:43:49.15	335.61	1.02	-49.0	-66.8	3.5	3.03e+01	0	32	104	883949568	60	84674
2026-01-29 04:43:52.18	335.91	0.88	-49.0	-66.9	3.5	3.03e+01	0	32	104	883949568	60	84772
2026-01-29 04:43:55.21	336.20	0.74	-49.0	-66.8	3.5	3.03e+01	0	32	104	883949568	60	84614
2026-01-29 04:43:58.24	336.49	0.60	-49.0	-66.9	3.5	3.03e+01	0	32	104	883949568	60	85308
2026-01-29 04:44:01.26	336.78	0.45	-49.0	-66.8	3.5	3.03e+01	0	32	104	883949568	60	84501
2026-01-29 04:44:04.30	337.07	0.31	-49.1	-66.9	3.5	3.03e+01	0	31	104	883949568	60	85339
2026-01-29 04:44:07.33	337.36	0.17	-49.0	-66.8	3.5	3.03e+01	0	32	104	883949568	60	84271
2026-01-29 04:44:10.35	337.64	0.03	-49.0	-66.9	3.5	3.03e+01	0	32	104	883949568	60	84861
2026-01-29 04:44:13.39	337.92	-0.11	-49.0	-66.8	3.5	3.03e+01	0	32	104	883949568	60	84655

#Closed at: 2026-01-29 04:44:13
#Recorded file [883 MB]: D:/lorett/data/35029_260129_163258.dat