passes_logs/2026/01/29/R4.6S_Anadyr/R4.6S_Anadyr__20260129_230801_NOAA_21_JPSS-2_rec.log

#Pass ID: 20260129_230801_NOAA 21 (JPSS-2)
#Satellite: NOAA 21 (JPSS-2)
#Configuration: NOAA-21
#almurnet v.1.7.20251203
#Start time: 2026-01-29 23:08:03

#Version: 2.2.20231116
#Station: R4.6S_Anadyr
#Location: 177.4865 lon 64.73178 lat
#TLE: 1 54234U 22150A   26029.46216196  .00000141  00000+0  87503-4 0  9994
#TLE: 2 54234  98.7512 330.1880 0000955 196.3413 163.7732 14.19540905166865

#Time	Az	El	Level	Level2	SNR	BER	BlckErr	Temp	State	Recorded	gain1	gain2
2026-01-29 23:08:03.80	129.66	0.12	-46.1	-60.5	3.5	1.51e+00	0	34	0	0	60	43168
2026-01-29 23:08:07.70	129.56	0.35	-49.3	-62.2	3.5	1.52e+00	0	35	104	0	60	45213
2026-01-29 23:08:11.61	129.46	0.58	-49.3	-62.2	3.5	1.52e+00	0	36	104	0	60	45449
2026-01-29 23:08:15.53	129.35	0.82	-49.3	-62.2	3.5	1.52e+00	0	36	104	0	60	45292
2026-01-29 23:08:19.44	129.24	1.06	-49.3	-62.2	3.5	1.52e+00	0	36	104	0	60	45337
2026-01-29 23:08:23.37	129.13	1.30	-49.3	-62.3	3.5	1.52e+00	0	36	104	0	60	45536
2026-01-29 23:08:27.28	129.02	1.54	-49.3	-62.2	3.5	1.52e+00	0	36	104	0	60	45267
2026-01-29 23:08:31.19	128.91	1.78	-49.3	-62.2	3.5	1.52e+00	0	36	104	0	60	45229
2026-01-29 23:08:35.11	128.79	2.02	-49.3	-62.2	3.5	1.52e+00	0	36	104	0	60	45303
2026-01-29 23:08:39.02	128.67	2.27	-49.3	-62.3	3.5	1.52e+00	0	36	104	0	60	45587
2026-01-29 23:08:42.94	128.55	2.52	-49.3	-62.3	3.5	1.52e+00	0	36	104	0	60	45668
2026-01-29 23:08:46.86	128.43	2.77	-49.3	-62.2	3.5	1.52e+00	0	36	104	0	60	45431
2026-01-29 23:08:50.76	128.30	3.02	-49.3	-62.2	3.5	1.52e+00	0	36	104	0	60	45410
2026-01-29 23:08:54.68	128.17	3.28	-49.3	-62.3	3.5	1.51e+00	0	36	104	0	60	45606
2026-01-29 23:08:58.61	128.04	3.53	-49.3	-62.3	3.5	1.52e+00	0	36	104	0	60	45581
2026-01-29 23:09:02.53	127.91	3.79	-49.3	-62.2	3.5	1.52e+00	0	36	104	0	60	45312
2026-01-29 23:09:06.45	127.78	4.06	-49.3	-62.3	3.5	1.52e+00	0	36	104	0	60	45481
2026-01-29 23:09:10.37	127.64	4.32	-49.3	-62.2	3.5	1.51e+00	0	36	104	0	60	45419
2026-01-29 23:09:14.28	127.50	4.59	-49.3	-62.3	3.5	1.52e+00	0	36	104	0	60	45808
2026-01-29 23:09:18.21	127.35	4.86	-49.3	-62.2	3.5	1.52e+00	0	36	104	0	60	45313
2026-01-29 23:09:22.13	127.21	5.13	-49.3	-62.3	3.5	1.52e+00	0	37	104	0	60	45623
2026-01-29 23:09:26.04	127.06	5.40	-49.3	-62.3	3.5	1.52e+00	0	37	104	0	60	45815
2026-01-29 23:09:29.96	126.91	5.68	-49.3	-62.3	3.5	1.52e+00	0	36	104	0	60	45586
2026-01-29 23:09:33.88	126.75	5.96	-49.3	-62.3	3.5	1.52e+00	0	37	104	0	60	45532
2026-01-29 23:09:37.80	126.59	6.24	-49.3	-62.3	3.5	1.52e+00	0	36	104	0	60	45579
2026-01-29 23:09:41.73	126.43	6.53	-49.3	-62.3	3.5	1.52e+00	0	37	104	0	60	45638
2026-01-29 23:09:45.65	126.26	6.82	-49.3	-62.3	3.5	1.52e+00	0	37	104	0	60	45477
2026-01-29 23:09:49.57	126.09	7.11	-49.3	-62.3	3.5	1.52e+00	0	37	104	0	60	45540
2026-01-29 23:09:53.48	125.92	7.40	-49.3	-62.2	3.5	1.51e+00	0	37	104	0	60	45403
2026-01-29 23:09:57.41	125.74	7.70	-49.3	-62.2	3.5	1.52e+00	0	37	104	0	60	45328
2026-01-29 23:10:01.32	125.56	8.00	-49.3	-62.3	3.5	1.52e+00	0	37	104	0	60	45570
2026-01-29 23:10:05.23	125.38	8.31	-49.3	-62.2	3.5	1.52e+00	0	37	104	0	60	45331
2026-01-29 23:10:09.14	125.19	8.61	-49.3	-62.3	3.5	1.52e+00	0	37	104	0	60	45697
2026-01-29 23:10:13.06	125.00	8.92	-49.3	-62.3	3.5	1.52e+00	0	37	104	0	60	45538
2026-01-29 23:10:16.98	124.80	9.24	-49.3	-62.3	3.5	1.52e+00	0	37	104	0	60	45643
2026-01-29 23:10:20.89	124.60	9.56	-49.3	-62.2	3.5	1.52e+00	0	37	104	0	60	45438
2026-01-29 23:10:24.81	124.39	9.88	-49.3	-62.3	3.5	1.52e+00	0	37	104	0	60	45596
2026-01-29 23:10:28.71	124.18	10.20	-49.3	-62.3	3.5	1.52e+00	0	37	104	0	60	45502
2026-01-29 23:10:32.62	123.97	10.53	-49.3	-62.3	3.5	1.52e+00	0	37	104	0	60	45498
2026-01-29 23:10:36.54	123.74	10.87	-49.3	-62.2	3.5	1.52e+00	0	37	104	0	60	45370
2026-01-29 23:10:40.45	123.52	11.21	-49.3	-62.2	3.5	1.52e+00	0	37	104	0	60	45427
2026-01-29 23:10:44.36	123.28	11.55	-49.3	-62.2	3.5	1.52e+00	0	37	104	0	60	45268
2026-01-29 23:10:48.28	123.05	11.89	-49.3	-62.3	3.5	1.52e+00	0	37	104	0	60	45666
2026-01-29 23:10:52.19	122.80	12.25	-49.3	-62.3	3.5	1.52e+00	0	37	104	0	60	45596
2026-01-29 23:10:56.12	122.55	12.60	-49.3	-62.3	3.5	1.52e+00	0	37	104	0	60	45534
2026-01-29 23:11:00.03	122.29	12.96	-49.3	-62.3	3.5	1.52e+00	0	37	104	0	60	45673
2026-01-29 23:11:03.96	122.03	13.33	-49.3	-62.3	3.5	1.52e+00	0	37	104	0	60	45650
2026-01-29 23:11:07.88	121.76	13.70	-49.3	-62.3	3.5	1.52e+00	0	37	104	0	60	45572
2026-01-29 23:11:11.80	121.48	14.07	-49.3	-62.3	3.5	1.52e+00	0	37	104	0	60	45532
2026-01-29 23:11:15.71	121.19	14.45	-49.3	-62.3	3.5	1.52e+00	0	37	104	0	60	45505
2026-01-29 23:11:19.63	120.90	14.84	-49.3	-62.2	3.5	1.52e+00	0	37	104	0	60	45114
2026-01-29 23:11:23.54	120.60	15.23	-49.3	-62.3	3.5	1.52e+00	0	37	104	0	60	45501
2026-01-29 23:11:27.45	120.29	15.63	-49.3	-62.3	3.5	1.52e+00	0	37	104	0	60	45663
2026-01-29 23:11:31.38	119.97	16.03	-49.3	-62.3	3.5	1.51e+00	0	37	104	0	60	45629
2026-01-29 23:11:35.29	119.65	16.44	-49.3	-62.3	3.5	1.52e+00	0	37	104	0	60	45552
2026-01-29 23:11:39.22	119.31	16.85	-49.3	-62.3	3.5	1.52e+00	0	37	104	0	60	45659
2026-01-29 23:11:43.13	118.96	17.27	-49.3	-62.2	3.5	1.52e+00	0	37	104	0	60	45272
2026-01-29 23:11:47.06	118.61	17.70	-49.3	-62.3	3.5	1.52e+00	0	37	104	0	60	45772
2026-01-29 23:11:50.97	118.24	18.13	-49.3	-62.3	3.5	1.51e+00	0	37	104	0	60	45524
2026-01-29 23:11:54.90	117.86	18.57	-49.3	-62.2	3.5	1.51e+00	0	37	104	0	60	45465
2026-01-29 23:11:58.81	117.47	19.01	-49.3	-62.3	3.5	1.52e+00	0	37	104	0	60	45558
2026-01-29 23:12:02.71	117.07	19.46	-49.3	-62.2	3.5	1.52e+00	0	37	104	0	60	45396
2026-01-29 23:12:06.63	116.66	19.92	-49.3	-62.2	3.5	1.52e+00	0	37	104	0	60	45429
2026-01-29 23:12:10.55	116.23	20.39	-49.3	-62.3	3.5	1.52e+00	0	37	104	0	60	45729
2026-01-29 23:12:14.46	115.79	20.86	-49.3	-62.3	3.5	1.51e+00	0	37	104	0	60	45708
2026-01-29 23:12:18.37	115.34	21.34	-49.3	-62.3	3.5	1.52e+00	0	37	104	0	60	45520
2026-01-29 23:12:22.29	114.87	21.82	-49.3	-62.3	3.5	1.52e+00	0	37	104	0	60	45575
2026-01-29 23:12:26.20	114.38	22.32	-49.3	-62.2	3.5	1.52e+00	0	37	104	0	60	45455
2026-01-29 23:12:30.12	113.88	22.82	-49.3	-62.3	3.5	1.51e+00	0	37	104	0	60	45594
2026-01-29 23:12:34.03	113.37	23.33	-49.3	-62.2	3.5	1.52e+00	0	37	104	0	60	45470
2026-01-29 23:12:37.94	112.83	23.84	-49.3	-62.2	3.5	1.52e+00	0	37	104	0	60	45311
2026-01-29 23:12:41.86	112.28	24.37	-49.3	-62.3	3.5	1.52e+00	0	37	104	0	60	45502
2026-01-29 23:12:45.78	111.71	24.90	-49.3	-62.3	3.5	1.52e+00	0	37	104	0	60	45606
2026-01-29 23:12:49.69	111.12	25.44	-49.3	-62.3	3.5	1.52e+00	0	37	104	0	60	45664
2026-01-29 23:12:53.61	110.50	25.98	-49.3	-62.3	3.5	1.52e+00	0	37	104	0	60	45584
2026-01-29 23:12:57.53	109.87	26.54	-49.3	-62.3	3.5	1.52e+00	0	37	104	0	60	45532
2026-01-29 23:13:01.44	109.21	27.10	-49.3	-62.3	3.5	1.52e+00	0	37	104	0	60	45539
2026-01-29 23:13:05.35	108.53	27.66	-49.3	-62.2	3.6	1.52e+00	0	37	104	0	60	45137
2026-01-29 23:13:09.27	107.82	28.24	-49.3	-62.2	3.5	1.52e+00	0	37	104	0	60	45370
2026-01-29 23:13:13.19	107.09	28.82	-49.3	-62.2	3.5	1.52e+00	0	37	104	0	60	45446
2026-01-29 23:13:17.10	106.33	29.41	-49.3	-62.3	3.5	1.52e+00	0	37	104	0	60	45569
2026-01-29 23:13:21.01	105.54	30.01	-49.3	-62.3	3.5	1.52e+00	0	37	104	0	60	45598
2026-01-29 23:13:24.92	104.72	30.61	-49.3	-62.3	3.5	1.52e+00	0	37	104	0	60	45478
2026-01-29 23:13:28.84	103.87	31.21	-49.3	-62.2	3.5	1.52e+00	0	37	104	0	60	45381
2026-01-29 23:13:32.76	102.98	31.83	-49.3	-62.3	3.5	1.52e+00	0	37	104	0	60	45562
2026-01-29 23:13:36.68	102.06	32.44	-49.3	-62.2	3.5	1.51e+00	0	37	104	0	60	45442
2026-01-29 23:13:40.60	101.10	33.07	-49.3	-62.2	3.5	1.52e+00	0	37	104	0	60	45458
2026-01-29 23:13:44.52	100.11	33.69	-49.3	-62.2	3.5	1.52e+00	0	37	104	0	60	45276
2026-01-29 23:13:48.44	99.08	34.32	-49.3	-62.2	3.5	1.52e+00	0	37	104	0	60	45418
2026-01-29 23:13:52.36	98.00	34.95	-49.3	-62.3	3.5	1.52e+00	0	37	104	0	60	45513
2026-01-29 23:13:56.28	96.89	35.58	-49.3	-62.3	3.5	1.52e+00	0	37	104	0	60	45687
2026-01-29 23:14:00.19	95.73	36.20	-49.3	-62.2	3.5	1.52e+00	0	37	104	0	60	45453
2026-01-29 23:14:04.10	94.52	36.83	-49.3	-62.2	3.5	1.51e+00	0	37	104	0	60	45298
2026-01-29 23:14:08.01	93.27	37.45	-49.3	-62.3	3.5	1.52e+00	0	37	104	0	60	45592
2026-01-29 23:14:11.91	91.98	38.07	-49.3	-62.3	3.5	1.51e+00	0	37	104	0	60	45604
2026-01-29 23:14:15.84	90.62	38.68	-49.3	-62.2	3.5	1.51e+00	0	37	104	0	60	45178
2026-01-29 23:14:19.75	89.22	39.29	-49.3	-62.2	3.5	1.52e+00	0	37	104	0	60	45425
2026-01-29 23:14:23.67	87.76	39.88	-49.3	-62.3	3.5	1.52e+00	0	37	104	0	60	45533
2026-01-29 23:14:27.58	86.25	40.46	-49.3	-62.2	3.5	1.52e+00	0	37	104	0	60	45431
2026-01-29 23:14:31.49	84.69	41.03	-49.3	-62.3	3.5	1.52e+00	0	37	104	0	60	45561
2026-01-29 23:14:35.40	83.07	41.58	-49.3	-62.3	3.5	1.52e+00	0	37	104	0	60	45572
2026-01-29 23:14:39.32	81.39	42.11	-49.3	-62.2	3.5	1.52e+00	0	37	104	0	60	45352
2026-01-29 23:14:43.24	79.66	42.62	-49.3	-62.3	3.5	1.52e+00	0	37	104	0	60	45498
2026-01-29 23:14:47.14	77.88	43.11	-49.3	-62.2	3.5	1.52e+00	0	37	104	0	60	45447
2026-01-29 23:14:51.06	76.04	43.57	-49.3	-62.3	3.5	1.52e+00	0	37	104	0	60	45553
2026-01-29 23:14:54.98	74.15	44.00	-49.3	-62.2	3.5	1.52e+00	0	37	104	0	60	45373
2026-01-29 23:14:58.91	72.20	44.40	-49.3	-62.2	3.5	1.52e+00	0	37	104	0	60	45456
2026-01-29 23:15:02.81	70.22	44.77	-49.3	-62.2	3.5	1.52e+00	0	37	104	0	60	45143
2026-01-29 23:15:06.72	68.19	45.10	-49.3	-62.3	3.5	1.52e+00	0	37	104	0	60	45610
2026-01-29 23:15:10.64	66.11	45.39	-49.3	-62.2	3.5	1.52e+00	0	37	104	0	60	45306
2026-01-29 23:15:14.57	63.99	45.64	-49.3	-62.2	3.5	1.52e+00	0	37	104	0	60	45353
2026-01-29 23:15:18.48	61.86	45.85	-49.3	-62.3	3.5	1.52e+00	0	37	104	0	60	45612
2026-01-29 23:15:22.39	59.69	46.01	-49.3	-62.2	3.5	1.52e+00	0	37	104	0	60	45194
2026-01-29 23:15:26.31	57.51	46.13	-49.3	-62.3	3.5	1.52e+00	0	37	104	0	60	45614
2026-01-29 23:15:30.23	55.31	46.20	-49.3	-62.3	3.5	1.52e+00	0	37	104	0	60	45651
2026-01-29 23:15:34.14	53.11	46.23	-49.3	-62.2	3.5	1.52e+00	0	37	104	0	60	45312
2026-01-29 23:15:38.05	50.90	46.21	-49.3	-62.2	3.5	1.52e+00	0	37	104	0	60	45439
2026-01-29 23:15:41.97	48.70	46.14	-49.3	-62.2	3.5	1.52e+00	0	37	104	0	60	45455
2026-01-29 23:15:45.88	46.52	46.03	-49.3	-62.3	3.5	1.52e+00	0	37	104	0	60	45511
2026-01-29 23:15:49.80	44.35	45.87	-49.3	-62.3	3.5	1.52e+00	0	37	104	0	60	45482
2026-01-29 23:15:53.72	42.20	45.67	-49.3	-62.2	3.5	1.52e+00	0	37	104	0	60	45417
2026-01-29 23:15:57.64	40.09	45.42	-49.3	-62.2	3.5	1.51e+00	0	37	104	0	60	45388
2026-01-29 23:16:01.56	38.01	45.14	-49.3	-62.2	3.5	1.52e+00	0	37	104	0	60	45433
2026-01-29 23:16:05.48	35.97	44.81	-49.3	-62.2	3.5	1.52e+00	0	37	104	0	60	45408
2026-01-29 23:16:09.39	33.98	44.45	-49.3	-62.2	3.5	1.52e+00	0	37	104	0	60	45448
2026-01-29 23:16:13.30	32.04	44.06	-49.3	-62.3	3.5	1.52e+00	0	37	104	0	60	45568
2026-01-29 23:16:17.22	30.15	43.63	-49.3	-62.3	3.5	1.52e+00	0	37	104	0	60	45511
2026-01-29 23:16:21.13	28.30	43.17	-49.3	-62.2	3.5	1.52e+00	0	37	104	0	60	45394
2026-01-29 23:16:25.04	26.52	42.69	-49.3	-62.2	3.5	1.52e+00	0	37	104	0	60	45371
2026-01-29 23:16:28.96	24.78	42.18	-49.3	-62.3	3.5	1.52e+00	0	37	104	0	60	45543
2026-01-29 23:16:32.88	23.10	41.66	-49.3	-62.3	3.5	1.51e+00	0	37	104	0	60	45552
2026-01-29 23:16:36.79	21.48	41.11	-49.3	-62.2	3.5	1.52e+00	0	37	104	0	60	45426
2026-01-29 23:16:40.71	19.91	40.54	-49.3	-62.3	3.5	1.52e+00	0	37	104	0	60	45556
2026-01-29 23:16:44.63	18.39	39.96	-49.3	-62.3	3.5	1.52e+00	0	37	104	0	60	45636
2026-01-29 23:16:48.54	16.93	39.37	-49.3	-62.3	3.5	1.52e+00	0	37	104	0	60	45883
2026-01-29 23:16:52.45	15.53	38.77	-49.3	-62.2	3.5	1.51e+00	0	37	104	0	60	45454
2026-01-29 23:16:56.36	14.17	38.17	-49.3	-62.3	3.5	1.52e+00	0	37	104	0	60	45556
2026-01-29 23:17:00.29	12.86	37.55	-49.3	-62.3	3.5	1.52e+00	0	37	104	0	60	45573
2026-01-29 23:17:04.20	11.61	36.93	-49.3	-62.2	3.5	1.52e+00	0	37	104	0	60	45121
2026-01-29 23:17:08.11	10.40	36.31	-49.3	-62.3	3.5	1.52e+00	0	37	104	0	60	45599
2026-01-29 23:17:12.02	9.24	35.68	-49.3	-62.3	3.5	1.52e+00	0	37	104	0	60	45656
2026-01-29 23:17:15.93	8.13	35.05	-49.3	-62.3	3.5	1.52e+00	0	37	104	0	60	45514
2026-01-29 23:17:19.84	7.05	34.43	-49.3	-62.3	3.5	1.52e+00	0	37	104	0	60	45481
2026-01-29 23:17:23.75	6.02	33.80	-49.3	-62.3	3.5	1.52e+00	0	37	104	0	60	45593
2026-01-29 23:17:27.67	5.02	33.18	-49.3	-62.2	3.5	1.52e+00	0	37	104	0	60	45361
2026-01-29 23:17:31.58	4.07	32.56	-49.3	-62.2	3.5	1.52e+00	0	38	104	0	60	45285
2026-01-29 23:17:35.49	3.15	31.95	-49.3	-62.2	3.5	1.52e+00	0	37	104	0	60	45384
2026-01-29 23:17:39.41	2.26	31.34	-49.3	-62.2	3.5	1.52e+00	0	37	104	0	60	45288
2026-01-29 23:17:43.36	1.40	30.73	-49.3	-62.3	3.5	1.52e+00	0	37	104	0	60	45604
2026-01-29 23:17:47.28	0.58	30.12	-49.3	-62.3	3.5	1.51e+00	0	37	104	0	60	45605
2026-01-29 23:17:51.21	359.78	29.53	-49.3	-62.2	3.5	1.52e+00	0	37	104	0	60	45231
2026-01-29 23:17:55.13	359.02	28.94	-49.3	-62.2	3.5	1.52e+00	0	37	104	0	60	45368
2026-01-29 23:17:59.07	358.28	28.35	-49.3	-62.2	3.5	1.52e+00	0	37	104	0	60	45220
2026-01-29 23:18:03.10	357.55	27.76	-49.3	-62.2	3.5	1.52e+00	0	37	104	0	60	45376
2026-01-29 23:18:07.11	356.86	27.18	-49.3	-62.2	3.5	1.52e+00	0	37	104	0	60	45383
2026-01-29 23:18:11.10	356.19	26.61	-49.3	-62.2	3.5	1.51e+00	0	37	104	0	60	45356
2026-01-29 23:18:15.09	355.54	26.05	-49.3	-62.2	3.5	1.52e+00	0	37	104	0	60	45418
2026-01-29 23:18:19.08	354.92	25.50	-49.3	-62.2	3.5	1.52e+00	0	37	104	0	60	45334
2026-01-29 23:18:23.08	354.32	24.95	-49.3	-62.3	3.5	1.52e+00	0	37	104	0	60	45480
2026-01-29 23:18:27.06	353.74	24.41	-49.3	-62.2	3.5	1.52e+00	0	37	104	0	60	45365
2026-01-29 23:18:31.07	353.18	23.88	-49.3	-62.2	3.5	1.52e+00	0	37	104	0	60	45299
2026-01-29 23:18:35.11	352.63	23.35	-49.3	-62.3	3.5	1.52e+00	0	37	104	0	60	45517
2026-01-29 23:18:39.15	352.10	22.82	-49.3	-62.3	3.5	1.52e+00	0	37	104	0	60	45499
2026-01-29 23:18:43.19	351.59	22.31	-49.3	-62.2	3.5	1.52e+00	0	37	104	0	60	45256
2026-01-29 23:18:47.23	351.09	21.80	-49.3	-62.3	3.5	1.52e+00	0	37	104	0	60	45541
2026-01-29 23:18:51.27	350.61	21.30	-49.3	-62.3	3.5	1.52e+00	0	37	104	0	60	45536
2026-01-29 23:18:55.31	350.15	20.81	-49.3	-62.3	3.5	1.52e+00	0	37	104	0	60	45498
2026-01-29 23:18:59.35	349.70	20.33	-49.3	-62.2	3.5	1.51e+00	0	37	104	0	60	45363
2026-01-29 23:19:03.39	349.27	19.85	-49.3	-62.3	3.5	1.52e+00	0	37	104	0	60	45631
2026-01-29 23:19:07.43	348.85	19.38	-49.3	-62.2	3.5	1.52e+00	0	37	104	0	60	45369
2026-01-29 23:19:11.47	348.44	18.92	-49.3	-62.3	3.5	1.52e+00	0	37	104	0	60	45693
2026-01-29 23:19:15.51	348.05	18.47	-49.3	-62.3	3.5	1.52e+00	0	37	104	0	60	45628
2026-01-29 23:19:19.55	347.67	18.02	-49.3	-62.2	3.5	1.52e+00	0	37	104	0	60	45382
2026-01-29 23:19:23.59	347.29	17.58	-49.3	-62.2	3.5	1.52e+00	0	37	104	0	60	45459
2026-01-29 23:19:27.63	346.93	17.14	-49.3	-62.3	3.5	1.52e+00	0	37	104	0	60	45494
2026-01-29 23:19:31.67	346.58	16.71	-49.3	-62.3	3.5	1.52e+00	0	37	104	0	60	45487
2026-01-29 23:19:35.71	346.25	16.29	-49.3	-62.3	3.5	1.52e+00	0	37	104	0	60	45617
2026-01-29 23:19:39.76	345.92	15.87	-49.3	-62.2	3.5	1.52e+00	0	37	104	0	60	45360
2026-01-29 23:19:43.80	345.60	15.46	-49.3	-62.3	3.5	1.52e+00	0	37	104	0	60	45576
2026-01-29 23:19:47.84	345.28	15.06	-49.3	-62.2	3.5	1.52e+00	0	37	104	0	60	45437
2026-01-29 23:19:51.88	344.98	14.66	-49.3	-62.3	3.5	1.52e+00	0	37	104	0	60	45703
2026-01-29 23:19:55.92	344.69	14.27	-49.3	-62.2	3.5	1.52e+00	0	37	104	0	60	45300
2026-01-29 23:19:59.95	344.40	13.88	-49.3	-62.2	3.5	1.52e+00	0	37	104	0	60	45473
2026-01-29 23:20:03.99	344.12	13.50	-49.3	-62.2	3.5	1.51e+00	0	37	104	0	60	45073
2026-01-29 23:20:08.03	343.85	13.12	-49.3	-62.3	3.5	1.52e+00	0	37	104	0	60	45593
2026-01-29 23:20:12.07	343.59	12.75	-49.3	-62.3	3.5	1.52e+00	0	37	104	0	60	45500
2026-01-29 23:20:16.11	343.33	12.38	-49.3	-62.3	3.5	1.52e+00	0	37	104	0	60	45646
2026-01-29 23:20:20.15	343.08	12.02	-49.3	-62.2	3.5	1.52e+00	0	37	104	0	60	45317
2026-01-29 23:20:24.19	342.84	11.67	-49.3	-62.3	3.5	1.51e+00	0	37	104	0	60	45505
2026-01-29 23:20:28.23	342.60	11.31	-49.3	-62.3	3.5	1.52e+00	0	37	104	0	60	45599
2026-01-29 23:20:32.27	342.37	10.96	-49.3	-62.2	3.5	1.51e+00	0	37	104	0	60	45460
2026-01-29 23:20:36.31	342.14	10.62	-49.3	-62.2	3.5	1.52e+00	0	37	104	0	60	45377
2026-01-29 23:20:40.35	341.92	10.28	-49.3	-62.2	3.5	1.52e+00	0	37	104	0	60	45431
2026-01-29 23:20:44.39	341.71	9.95	-49.3	-62.2	3.5	1.52e+00	0	37	104	0	60	45430
2026-01-29 23:20:48.43	341.50	9.61	-49.3	-62.2	3.5	1.52e+00	0	37	104	0	60	45391
2026-01-29 23:20:52.48	341.29	9.29	-49.3	-62.2	3.5	1.52e+00	0	37	104	0	60	45409
2026-01-29 23:20:56.52	341.09	8.96	-49.3	-62.3	3.5	1.52e+00	0	37	104	0	60	45516
2026-01-29 23:21:00.55	340.90	8.64	-49.3	-62.3	3.5	1.52e+00	0	38	104	0	60	45638
2026-01-29 23:21:04.59	340.71	8.33	-49.3	-62.3	3.5	1.52e+00	0	37	104	0	60	45642
2026-01-29 23:21:08.63	340.52	8.02	-49.3	-62.3	3.5	1.51e+00	0	38	104	0	60	45508
2026-01-29 23:21:12.67	340.34	7.71	-49.3	-62.3	3.5	1.51e+00	0	37	104	0	60	45510
2026-01-29 23:21:16.71	340.16	7.40	-49.3	-62.3	3.5	1.52e+00	0	37	104	0	60	45532
2026-01-29 23:21:20.75	339.99	7.10	-49.3	-62.3	3.5	1.52e+00	0	37	104	0	60	45686
2026-01-29 23:21:24.79	339.82	6.80	-49.3	-62.3	3.5	1.52e+00	0	37	104	0	60	45612
2026-01-29 23:21:28.83	339.65	6.51	-49.3	-62.3	3.5	1.52e+00	0	37	104	0	60	45497
2026-01-29 23:21:32.88	339.49	6.21	-49.3	-62.3	3.5	1.52e+00	0	37	104	0	60	45553
2026-01-29 23:21:36.92	339.33	5.92	-49.3	-62.3	3.5	1.52e+00	0	37	104	0	60	45526
2026-01-29 23:21:40.96	339.17	5.64	-49.3	-62.2	3.5	1.52e+00	0	37	104	0	60	45377
2026-01-29 23:21:45.00	339.02	5.35	-49.3	-62.2	3.5	1.51e+00	0	37	104	0	60	45435
2026-01-29 23:21:49.04	338.87	5.07	-49.3	-62.3	3.5	1.52e+00	0	37	104	0	60	45488
2026-01-29 23:21:53.08	338.73	4.79	-49.3	-62.2	3.5	1.52e+00	0	37	104	0	60	45333
2026-01-29 23:21:57.12	338.58	4.52	-49.3	-62.2	3.5	1.52e+00	0	37	104	0	60	45337
2026-01-29 23:22:01.16	338.44	4.25	-49.3	-62.2	3.5	1.52e+00	0	37	104	0	60	45402
2026-01-29 23:22:05.20	338.31	3.97	-49.3	-62.3	3.5	1.51e+00	0	37	104	0	60	45526
2026-01-29 23:22:09.24	338.17	3.71	-49.3	-62.2	3.5	1.52e+00	0	37	104	0	60	45469
2026-01-29 23:22:13.28	338.04	3.44	-49.3	-62.2	3.5	1.52e+00	0	37	104	0	60	45468
2026-01-29 23:22:17.32	337.91	3.18	-49.3	-62.2	3.5	1.52e+00	0	37	104	0	60	45471
2026-01-29 23:22:21.36	337.79	2.92	-49.3	-62.3	3.5	1.52e+00	0	37	104	0	60	45764
2026-01-29 23:22:25.40	337.66	2.66	-49.3	-62.2	3.5	1.52e+00	0	37	104	0	60	45295
2026-01-29 23:22:29.45	337.54	2.40	-49.3	-62.3	3.5	1.52e+00	0	37	104	0	60	45534
2026-01-29 23:22:33.48	337.42	2.15	-49.3	-62.3	3.5	1.52e+00	0	37	104	0	60	45644
2026-01-29 23:22:37.53	337.31	1.90	-49.3	-62.3	3.5	1.52e+00	0	37	104	0	60	45564
2026-01-29 23:22:41.57	337.19	1.65	-49.3	-62.3	3.5	1.52e+00	0	37	104	0	60	45502
2026-01-29 23:22:45.61	337.08	1.40	-49.3	-62.3	3.5	1.52e+00	0	37	104	0	60	45502
2026-01-29 23:22:49.65	336.97	1.15	-49.3	-62.3	3.5	1.51e+00	0	37	104	0	60	45615
2026-01-29 23:22:53.69	336.86	0.91	-49.3	-62.2	3.5	1.52e+00	0	37	104	0	60	45429
2026-01-29 23:22:57.73	336.76	0.67	-49.3	-62.3	3.5	1.52e+00	0	38	104	0	60	45664
2026-01-29 23:23:01.77	336.65	0.43	-49.3	-62.3	3.5	1.52e+00	0	38	104	0	60	45494
2026-01-29 23:23:05.81	336.55	0.19	-49.3	-62.3	3.5	1.52e+00	0	38	104	0	60	45608
2026-01-29 23:23:09.85	336.45	-0.05	-49.3	-62.3	3.5	1.52e+00	0	37	104	0	60	45556

#Closed at: 2026-01-29 23:23:10
#Recorded file [0 MB]: D:/lorett/data/35029_260130_110803.dat