passes_logs/2026/01/29/R4.6S_Anadyr/R4.6S_Anadyr__20260129_152229_SUOMI_NPP_rec.log

#Pass ID: 20260129_152229_SUOMI NPP
#Satellite: SUOMI NPP
#Configuration: NPP
#almurnet v.1.7.20251203
#Start time: 2026-01-29 15:22:31

#Version: 2.2.20231116
#Station: R4.6S_Anadyr
#Location: 177.4865 lon 64.73178 lat
#TLE: 1 37849U 11061A   26028.91916408  .00000155  00000+0  94467-4 0  9990
#TLE: 2 37849  98.7824 330.8488 0002045  39.4457 320.6868 14.19531289738686

#Time	Az	El	Level	Level2	SNR	BER	BlckErr	Temp	State	Recorded	gain1	gain2
2026-01-29 15:22:31.20	21.91	0.13	-48.7	-61.3	3.5	1.52e+00	0	27	0	0	60	40733
2026-01-29 15:22:35.23	21.87	0.37	-48.8	-64.0	3.6	1.51e+00	0	28	104	0	60	57444
2026-01-29 15:22:39.27	21.82	0.61	-48.9	-64.1	3.6	1.51e+00	0	28	104	0	60	57777
2026-01-29 15:22:43.31	21.77	0.86	-48.8	-64.0	3.6	1.51e+00	0	28	104	0	60	57319
2026-01-29 15:22:47.36	21.72	1.11	-48.6	-63.8	3.6	1.51e+00	0	28	104	0	60	55952
2026-01-29 15:22:51.40	21.67	1.36	-48.1	-63.3	3.6	1.51e+00	0	28	104	0	60	52834
2026-01-29 15:22:55.44	21.62	1.61	-47.5	-62.4	3.6	1.51e+00	0	28	104	0	60	47912
2026-01-29 15:22:59.48	21.57	1.86	-47.4	-62.3	3.6	1.51e+00	0	28	104	0	60	47063
2026-01-29 15:23:03.52	21.51	2.12	-47.5	-62.5	3.6	1.51e+00	0	28	104	0	60	48075
2026-01-29 15:23:07.56	21.46	2.38	-47.4	-62.6	3.6	1.51e+00	0	28	104	0	60	48735
2026-01-29 15:23:11.60	21.40	2.64	-47.4	-61.2	3.6	1.51e+00	0	28	104	0	60	41422
2026-01-29 15:23:15.64	21.34	2.90	-47.4	-60.6	3.6	1.50e+00	0	28	104	0	60	38830
2026-01-29 15:23:19.68	21.29	3.17	-47.1	-57.0	4.7	9.95e-01	0	29	0	0	60	25635
2026-01-29 15:23:23.72	21.22	3.44	-45.0	-48.9	12.6	3.50e-05	0	29	0	7340032	60	10066
2026-01-29 15:23:27.76	21.16	3.71	-43.3	-45.8	15.7	0.00e+00	0	29	0	14680064	60	7071
2026-01-29 15:23:31.80	21.10	3.98	-47.3	-59.5	3.4	0.00e+00	27	29	0	22020096	60	34304
2026-01-29 15:23:35.84	21.03	4.26	-40.4	-41.8	19.7	0.00e+00	0	29	0	25165824	54	6259
2026-01-29 15:23:39.88	20.97	4.54	-40.1	-41.5	19.9	0.00e+00	40	29	0	33554432	52	6818
2026-01-29 15:23:43.91	20.90	4.82	-40.1	-41.4	20.1	0.00e+00	0	29	0	40894464	52	6756
2026-01-29 15:23:47.95	20.83	5.10	-39.9	-41.2	20.2	0.00e+00	0	29	0	48234496	52	6596
2026-01-29 15:23:51.99	20.76	5.39	-39.7	-40.9	20.4	0.00e+00	0	29	0	55574528	52	6380
2026-01-29 15:23:56.03	20.68	5.68	-39.9	-41.2	20.3	0.00e+00	33	29	0	62914560	52	6540
2026-01-29 15:24:00.06	20.61	5.98	-39.6	-40.9	20.7	0.00e+00	0	29	0	71303168	52	6340
2026-01-29 15:24:04.10	20.53	6.27	-39.6	-40.8	20.8	0.00e+00	0	29	0	78643200	52	6283
2026-01-29 15:24:08.14	20.45	6.57	-39.1	-40.3	21.2	0.00e+00	16	29	0	85983232	52	5923
2026-01-29 15:24:12.17	20.37	6.88	-39.2	-40.3	21.4	0.00e+00	92	29	0	93323264	52	5960
2026-01-29 15:24:16.21	20.29	7.19	-39.1	-40.3	21.3	0.00e+00	0	29	0	101711872	52	5920
2026-01-29 15:24:20.25	20.20	7.50	-39.0	-40.2	21.5	0.00e+00	0	29	0	109051904	52	5842
2026-01-29 15:24:24.29	20.11	7.81	-39.2	-40.4	21.3	0.00e+00	23	29	0	116391936	52	5967
2026-01-29 15:24:28.33	20.02	8.13	-38.9	-40.0	21.8	0.00e+00	0	29	0	123731968	50	6413
2026-01-29 15:24:32.37	19.93	8.46	-38.9	-40.0	21.7	0.00e+00	0	29	0	131072000	50	6450
2026-01-29 15:24:36.41	19.84	8.79	-38.5	-39.6	22.1	0.00e+00	0	29	0	139460608	50	6104
2026-01-29 15:24:40.44	19.74	9.12	-38.5	-39.6	22.1	0.00e+00	84	29	0	146800640	50	6116
2026-01-29 15:24:44.48	19.64	9.45	-38.3	-39.3	22.4	0.00e+00	0	29	0	154140672	50	5934
2026-01-29 15:24:48.52	19.53	9.79	-38.0	-39.0	22.6	0.00e+00	0	29	0	161480704	50	5696
2026-01-29 15:24:52.56	19.43	10.14	-37.8	-38.7	22.9	0.00e+00	0	29	0	168820736	50	5555
2026-01-29 15:24:56.60	19.32	10.49	-37.9	-38.9	22.7	0.00e+00	91	29	0	177209344	48	6374
2026-01-29 15:25:00.64	19.21	10.84	-37.6	-38.6	23.0	0.00e+00	0	29	0	184549376	48	6123
2026-01-29 15:25:04.68	19.09	11.20	-37.3	-38.2	23.3	0.00e+00	0	29	0	191889408	48	5890
2026-01-29 15:25:08.72	18.98	11.57	-37.1	-38.1	23.5	0.00e+00	67	29	0	199229440	48	5763
2026-01-29 15:25:12.76	18.85	11.94	-36.8	-37.7	23.7	0.00e+00	0	29	0	207618048	48	5535
2026-01-29 15:25:16.80	18.73	12.32	-36.8	-37.7	23.7	0.00e+00	33	29	0	214958080	46	6212
2026-01-29 15:25:20.83	18.60	12.70	-36.7	-37.5	23.9	0.00e+00	0	29	0	222298112	46	6078
2026-01-29 15:25:24.87	18.47	13.09	-36.7	-37.6	23.6	0.00e+00	76	29	0	229638144	46	6107
2026-01-29 15:25:28.91	18.33	13.48	-36.7	-37.5	23.6	0.00e+00	0	29	0	238026752	46	6067
2026-01-29 15:25:32.95	18.19	13.88	-36.7	-37.5	23.9	0.00e+00	0	29	0	245366784	46	6066
2026-01-29 15:25:36.99	18.04	14.29	-36.8	-37.7	23.8	0.00e+00	0	29	0	252706816	46	6200
2026-01-29 15:25:41.03	17.89	14.70	-37.0	-37.9	23.6	0.00e+00	86	29	0	260046848	46	6343
2026-01-29 15:25:45.07	17.74	15.12	-36.8	-37.7	23.9	0.00e+00	0	29	0	267386880	46	6181
2026-01-29 15:25:49.11	17.58	15.55	-37.1	-38.0	23.5	0.00e+00	0	29	0	275775488	46	6414
2026-01-29 15:25:53.14	17.42	15.98	-36.9	-37.8	23.7	0.00e+00	0	29	0	283115520	46	6303
2026-01-29 15:25:57.18	17.25	16.43	-37.1	-38.0	23.6	0.00e+00	49	29	0	290455552	46	6409
2026-01-29 15:26:01.22	17.07	16.88	-36.9	-37.8	23.8	0.00e+00	0	29	0	297795584	46	6270
2026-01-29 15:26:05.26	16.89	17.34	-37.0	-37.9	23.8	0.00e+00	0	29	0	306184192	46	6387
2026-01-29 15:26:09.30	16.70	17.80	-36.8	-37.7	23.9	0.00e+00	68	29	0	313524224	46	6230
2026-01-29 15:26:13.33	16.51	18.28	-36.8	-37.7	24.0	0.00e+00	0	29	0	320864256	46	6208
2026-01-29 15:26:17.37	16.31	18.76	-36.6	-37.5	24.1	0.00e+00	0	29	0	328204288	46	6071
2026-01-29 15:26:21.41	16.10	19.26	-36.6	-37.5	24.1	0.00e+00	0	29	0	335544320	46	6044
2026-01-29 15:26:25.45	15.88	19.76	-36.5	-37.4	24.2	0.00e+00	92	29	0	343932928	46	5983
2026-01-29 15:26:29.48	15.66	20.27	-36.4	-37.3	24.2	0.00e+00	0	29	0	351272960	46	5904
2026-01-29 15:26:33.52	15.43	20.80	-36.4	-37.3	24.3	0.00e+00	0	29	0	358612992	46	5919
2026-01-29 15:26:37.56	15.19	21.33	-36.4	-37.2	24.2	0.00e+00	0	29	0	365953024	46	5864
2026-01-29 15:26:41.59	14.94	21.87	-36.9	-37.8	23.9	0.00e+00	90	29	0	373293056	46	6295
2026-01-29 15:26:45.63	14.68	22.43	-37.0	-37.9	23.8	0.00e+00	0	29	0	381681664	46	6351
2026-01-29 15:26:49.66	14.42	23.00	-37.0	-37.9	23.9	0.00e+00	0	29	0	389021696	46	6331
2026-01-29 15:26:53.70	14.14	23.58	-36.9	-37.8	23.9	0.00e+00	69	29	0	396361728	46	6280
2026-01-29 15:26:57.74	13.85	24.17	-37.1	-38.0	23.8	0.00e+00	0	29	0	403701760	46	6393
2026-01-29 15:27:01.78	13.54	24.78	-38.1	-39.1	22.9	0.00e+00	0	29	0	412090368	48	6537
2026-01-29 15:27:05.82	13.23	25.40	-38.3	-39.4	22.7	0.00e+00	0	29	0	419430400	48	6695
2026-01-29 15:27:09.85	12.90	26.03	-38.0	-39.0	23.2	0.00e+00	52	29	0	426770432	48	6433
2026-01-29 15:27:13.89	12.56	26.67	-37.8	-38.7	23.3	0.00e+00	0	29	0	434110464	48	6175
2026-01-29 15:27:17.93	12.20	27.34	-38.2	-39.1	23.0	0.00e+00	0	29	0	441450496	48	6495
2026-01-29 15:27:21.96	11.83	28.01	-38.4	-39.4	22.8	0.00e+00	0	29	0	449839104	48	6727
2026-01-29 15:27:26.00	11.44	28.70	-38.5	-39.5	22.6	0.00e+00	68	29	0	457179136	50	6071
2026-01-29 15:27:30.05	11.03	29.41	-38.9	-39.9	22.2	0.00e+00	0	29	0	464519168	50	6375
2026-01-29 15:27:34.08	10.61	30.14	-39.4	-40.5	22.1	0.00e+00	0	29	0	471859200	50	6780
2026-01-29 15:27:38.11	10.16	30.87	-39.0	-40.1	22.4	0.00e+00	68	29	0	480247808	50	6511
2026-01-29 15:27:42.15	9.69	31.63	-40.0	-41.2	21.3	0.00e+00	92	29	0	487587840	52	6548
2026-01-29 15:27:46.19	9.20	32.41	-41.2	-42.5	20.2	0.00e+00	0	29	0	494927872	54	6834
2026-01-29 15:27:50.23	8.68	33.20	-42.2	-43.9	18.8	0.00e+00	0	29	0	502267904	56	7099
2026-01-29 15:27:54.27	8.13	34.02	-43.6	-45.6	17.5	0.00e+00	24	29	0	509607936	60	6876
2026-01-29 15:27:58.30	7.56	34.84	-43.6	-45.7	17.2	0.00e+00	0	29	0	517996544	60	6999
2026-01-29 15:28:02.34	6.95	35.69	-42.6	-44.3	18.6	0.00e+00	0	29	0	525336576	58	6620
2026-01-29 15:28:06.38	6.32	36.56	-42.1	-43.7	19.1	0.00e+00	0	29	0	532676608	58	6184
2026-01-29 15:28:10.41	5.64	37.45	-40.6	-41.8	20.7	0.00e+00	81	29	0	540016640	54	6269
2026-01-29 15:28:14.45	4.93	38.36	-40.1	-41.3	21.3	0.00e+00	0	29	0	547356672	54	5904
2026-01-29 15:28:18.49	4.17	39.29	-40.2	-41.5	20.9	0.00e+00	0	29	0	555745280	52	6791
2026-01-29 15:28:22.53	3.37	40.23	-39.4	-40.6	22.0	0.00e+00	0	29	0	563085312	52	6104
2026-01-29 15:28:26.57	2.52	41.20	-38.5	-39.5	22.7	0.00e+00	69	29	0	570425344	50	6036
2026-01-29 15:28:30.60	1.62	42.18	-38.2	-39.2	22.9	0.00e+00	0	29	0	577765376	50	5830
2026-01-29 15:28:34.64	0.65	43.18	-37.9	-38.8	23.0	0.00e+00	0	29	0	586153984	50	5579
2026-01-29 15:28:38.68	359.62	44.20	-38.3	-39.2	23.0	0.00e+00	64	29	0	593494016	50	5888
2026-01-29 15:28:42.72	358.53	45.24	-38.5	-39.4	22.9	0.00e+00	32	29	0	600834048	50	6031
2026-01-29 15:28:46.76	357.36	46.29	-37.5	-38.4	23.7	0.00e+00	0	29	0	608174080	48	5976
2026-01-29 15:28:50.80	356.10	47.35	-38.4	-39.4	23.0	0.00e+00	0	29	0	615514112	50	5965
2026-01-29 15:28:54.83	354.76	48.42	-37.9	-38.9	23.2	0.00e+00	70	29	0	623902720	48	6327
2026-01-29 15:28:58.87	353.32	49.50	-37.1	-37.9	23.9	0.00e+00	0	29	0	631242752	48	5673
2026-01-29 15:29:02.91	351.77	50.59	-37.4	-38.2	23.8	0.00e+00	0	29	0	638582784	46	6596
2026-01-29 15:29:06.94	350.10	51.67	-36.1	-36.9	24.6	0.00e+00	0	29	0	645922816	46	5640
2026-01-29 15:29:10.98	348.31	52.76	-37.0	-37.9	23.9	0.00e+00	72	29	0	654311424	46	6361
2026-01-29 15:29:15.01	346.38	53.84	-37.6	-38.5	23.5	0.00e+00	0	29	0	661651456	46	6775
2026-01-29 15:29:19.04	344.31	54.90	-37.8	-38.8	23.1	0.00e+00	0	29	0	668991488	48	6267
2026-01-29 15:29:23.09	342.06	55.95	-38.1	-39.1	22.9	0.00e+00	0	29	0	676331520	48	6506
2026-01-29 15:29:27.12	339.64	56.96	-37.0	-37.9	23.8	0.00e+00	92	29	0	683671552	48	5637
2026-01-29 15:29:31.16	337.04	57.94	-39.3	-40.5	21.9	0.00e+00	29	29	0	692060160	50	6775
2026-01-29 15:29:35.19	334.26	58.88	-38.3	-39.2	22.9	0.00e+00	0	29	0	699400192	48	6594
2026-01-29 15:29:39.23	331.26	59.77	-38.4	-39.3	22.8	0.00e+00	12	29	0	706740224	50	5956
2026-01-29 15:29:43.27	328.06	60.59	-36.7	-37.6	24.3	0.00e+00	0	29	0	714080256	46	6112
2026-01-29 15:29:47.31	324.65	61.33	-35.7	-36.5	24.9	0.00e+00	0	29	0	722468864	44	6067
2026-01-29 15:29:51.34	321.06	61.99	-35.6	-36.4	25.0	0.00e+00	0	29	0	729808896	44	6001
2026-01-29 15:29:55.38	317.27	62.55	-35.3	-36.1	25.1	0.00e+00	59	29	0	737148928	44	5783
2026-01-29 15:29:59.42	313.31	63.01	-35.1	-35.9	25.1	0.00e+00	0	29	0	744488960	42	6330
2026-01-29 15:30:03.46	309.22	63.35	-37.1	-38.0	24.0	0.00e+00	0	29	0	751828992	46	6391
2026-01-29 15:30:07.49	305.05	63.56	-34.6	-35.3	25.6	0.00e+00	0	29	0	760217600	42	5959
2026-01-29 15:30:11.53	300.81	63.65	-33.7	-34.3	26.2	0.00e+00	69	29	0	767557632	40	5961
2026-01-29 15:30:15.57	296.55	63.61	-35.0	-35.8	25.3	0.00e+00	0	29	0	774897664	42	6249
2026-01-29 15:30:19.60	292.35	63.44	-35.8	-36.6	24.2	0.00e+00	0	29	0	782237696	44	6132
2026-01-29 15:30:23.64	288.22	63.15	-35.4	-36.2	25.1	0.00e+00	75	29	0	790626304	42	6547
2026-01-29 15:30:27.68	284.21	62.74	-36.4	-37.3	24.4	0.00e+00	12	29	0	797966336	44	6620
2026-01-29 15:30:31.71	280.36	62.22	-34.7	-35.4	25.6	0.00e+00	0	29	0	805306368	44	5353
2026-01-29 15:30:35.75	276.68	61.59	-34.9	-35.7	25.3	0.00e+00	0	29	0	812646400	42	6199
2026-01-29 15:30:39.79	273.20	60.88	-35.6	-36.4	25.0	0.00e+00	73	29	0	819986432	42	6739
2026-01-29 15:30:43.83	269.91	60.08	-36.7	-37.5	24.2	0.00e+00	0	29	0	828375040	44	6791
2026-01-29 15:30:47.86	266.84	59.22	-39.8	-40.9	21.5	0.00e+00	0	30	0	835715072	52	6370
2026-01-29 15:30:51.90	263.97	58.30	-39.5	-40.6	22.0	0.00e+00	0	29	0	843055104	52	6136
2026-01-29 15:30:55.94	261.29	57.33	-39.9	-41.1	21.1	0.00e+00	92	29	0	850395136	52	6521
2026-01-29 15:30:59.98	258.80	56.32	-37.3	-38.2	23.7	0.00e+00	0	29	0	858783744	48	5834
2026-01-29 15:31:04.02	256.49	55.28	-37.2	-38.0	23.6	0.00e+00	0	29	0	866123776	46	6464
2026-01-29 15:31:08.06	254.35	54.22	-38.7	-39.7	22.6	0.00e+00	0	29	0	873463808	50	6217
2026-01-29 15:31:12.09	252.36	53.15	-37.9	-38.9	23.0	0.00e+00	39	29	0	880803840	48	6342
2026-01-29 15:31:16.13	250.52	52.06	-37.8	-38.7	23.4	0.00e+00	0	29	0	888143872	50	5514
2026-01-29 15:31:20.16	248.81	50.97	-37.2	-38.0	23.9	0.00e+00	0	29	0	896532480	48	5712
2026-01-29 15:31:24.20	247.21	49.88	-37.8	-38.7	23.4	0.00e+00	47	29	0	903872512	50	5556
2026-01-29 15:31:28.24	245.73	48.80	-38.1	-39.0	23.1	0.00e+00	73	29	0	911212544	48	6412
2026-01-29 15:31:32.28	244.34	47.72	-39.4	-40.5	22.1	0.00e+00	0	30	0	918552576	52	6053
2026-01-29 15:31:36.32	243.05	46.65	-39.4	-40.4	22.0	0.00e+00	0	29	0	926941184	52	6028
2026-01-29 15:31:40.36	241.85	45.59	-38.3	-39.2	23.1	0.00e+00	42	29	0	934281216	50	5864
2026-01-29 15:31:44.40	240.72	44.55	-39.4	-40.5	21.8	0.00e+00	0	29	0	941621248	50	6847
2026-01-29 15:31:48.44	239.67	43.52	-39.1	-40.2	22.2	0.00e+00	0	29	0	948961280	52	5839
2026-01-29 15:31:52.47	238.68	42.51	-39.6	-40.7	21.8	0.00e+00	0	29	0	956301312	52	6191
2026-01-29 15:31:56.51	237.75	41.52	-41.1	-42.4	20.2	0.00e+00	91	30	0	964689920	54	6728
2026-01-29 15:32:00.54	236.88	40.54	-41.6	-43.1	19.6	0.00e+00	0	29	0	972029952	54	7263
2026-01-29 15:32:04.58	236.06	39.59	-44.9	-47.8	15.1	0.00e+00	2	29	0	979369984	60	8864
2026-01-29 15:32:08.62	235.29	38.65	-41.4	-42.7	20.1	0.00e+00	0	30	0	986710016	56	6221
2026-01-29 15:32:12.66	234.56	37.73	-43.4	-45.4	17.4	0.00e+00	78	30	0	995098624	58	7587
2026-01-29 15:32:16.70	233.87	36.83	-42.0	-43.5	19.5	0.00e+00	0	29	0	1002438656	56	6825
2026-01-29 15:32:20.73	233.21	35.96	-42.1	-43.7	19.7	0.00e+00	0	30	0	1009778688	56	6947
2026-01-29 15:32:24.77	232.59	35.10	-42.9	-44.9	18.0	0.00e+00	67	30	0	1017118720	58	7136
2026-01-29 15:32:28.81	232.01	34.26	-41.5	-43.1	19.9	0.00e+00	0	30	0	1024458752	56	6477
2026-01-29 15:32:32.85	231.45	33.43	-41.2	-42.7	20.1	0.00e+00	0	30	0	1032847360	56	6212
2026-01-29 15:32:36.89	230.92	32.63	-39.8	-41.0	21.9	0.00e+00	0	30	0	1040187392	52	6391
2026-01-29 15:32:40.92	230.42	31.85	-39.6	-40.7	21.9	0.00e+00	89	30	0	1047527424	52	6186
2026-01-29 15:32:44.96	229.94	31.08	-40.9	-42.3	20.5	0.00e+00	0	29	0	1054867456	54	6632
2026-01-29 15:32:49.00	229.48	30.33	-38.5	-39.5	22.7	0.00e+00	0	30	0	1062207488	50	6049
2026-01-29 15:32:53.04	229.04	29.60	-38.4	-39.3	22.8	0.00e+00	0	30	0	1070596096	48	6677
2026-01-29 15:32:57.08	228.63	28.88	-38.6	-39.6	22.7	0.00e+00	90	30	0	1077936128	50	6117
2026-01-29 15:33:01.11	228.23	28.19	-39.4	-40.5	22.0	0.00e+00	0	30	0	1085276160	50	6817
2026-01-29 15:33:05.15	227.85	27.50	-41.7	-43.2	19.5	0.00e+00	30	30	0	1092616192	54	7376
2026-01-29 15:33:09.19	227.48	26.83	-40.0	-41.2	21.4	0.00e+00	64	30	0	1101004800	54	5842
2026-01-29 15:33:13.22	227.13	26.18	-39.2	-40.3	22.1	0.00e+00	0	30	0	1108344832	52	5915
2026-01-29 15:33:17.26	226.80	25.54	-38.0	-38.9	23.1	0.00e+00	0	30	0	1115684864	50	5678
2026-01-29 15:33:21.30	226.48	24.91	-38.9	-39.9	22.3	0.00e+00	0	30	0	1123024896	50	6358
2026-01-29 15:33:25.34	226.17	24.30	-39.2	-40.3	22.0	0.00e+00	60	30	0	1130364928	50	6617
2026-01-29 15:33:29.38	225.87	23.70	-38.1	-39.0	23.1	0.00e+00	0	30	0	1138753536	50	5739
2026-01-29 15:33:33.42	225.59	23.12	-38.6	-39.6	22.5	0.00e+00	0	29	0	1146093568	48	6884
2026-01-29 15:33:37.46	225.31	22.54	-41.3	-42.8	19.6	0.00e+00	0	30	0	1153433600	54	7034
2026-01-29 15:33:41.49	225.05	21.98	-40.5	-41.7	20.8	0.00e+00	92	30	0	1160773632	54	6223
2026-01-29 15:33:45.53	224.80	21.43	-38.3	-39.3	22.9	0.00e+00	0	30	0	1169162240	50	5903
2026-01-29 15:33:49.56	224.55	20.89	-37.9	-38.8	23.1	0.00e+00	0	30	0	1176502272	50	5618
2026-01-29 15:33:53.60	224.31	20.36	-38.1	-38.9	23.1	0.00e+00	32	30	0	1183842304	50	5691
2026-01-29 15:33:57.63	224.09	19.85	-37.4	-38.3	23.6	0.00e+00	30	30	0	1191182336	48	5901
2026-01-29 15:34:01.67	223.87	19.34	-37.3	-38.1	23.7	0.00e+00	0	30	0	1198522368	48	5825
2026-01-29 15:34:05.71	223.65	18.84	-37.7	-38.6	23.4	0.00e+00	0	30	0	1206910976	48	6151
2026-01-29 15:34:09.75	223.45	18.35	-37.6	-38.5	23.4	0.00e+00	63	30	0	1214251008	48	6086
2026-01-29 15:34:13.78	223.25	17.87	-38.3	-39.2	22.9	0.00e+00	0	30	0	1221591040	48	6583
2026-01-29 15:34:17.82	223.06	17.40	-39.1	-40.1	22.1	0.00e+00	0	30	0	1228931072	50	6538
2026-01-29 15:34:21.85	222.87	16.94	-39.8	-40.9	21.4	0.00e+00	0	30	0	1236271104	50	7160
2026-01-29 15:34:25.89	222.69	16.48	-40.1	-41.3	21.1	0.00e+00	62	30	0	1244659712	52	6641
2026-01-29 15:34:29.93	222.52	16.04	-40.1	-41.2	21.3	0.00e+00	0	30	0	1251999744	52	6603
2026-01-29 15:34:33.97	222.35	15.60	-39.0	-40.0	22.0	0.00e+00	0	30	0	1259339776	52	5722
2026-01-29 15:34:38.00	222.19	15.17	-38.0	-38.9	23.1	0.00e+00	0	30	0	1266679808	50	5656
2026-01-29 15:34:42.05	222.03	14.74	-37.8	-38.7	23.1	0.00e+00	92	30	0	1275068416	48	6233
2026-01-29 15:34:46.09	221.87	14.33	-38.4	-39.4	22.5	0.00e+00	0	30	0	1282408448	48	6726
2026-01-29 15:34:50.12	221.72	13.92	-38.9	-40.0	22.0	0.00e+00	0	30	0	1289748480	50	6397
2026-01-29 15:34:54.16	221.58	13.51	-39.2	-40.3	21.7	0.00e+00	59	30	0	1297088512	50	6669
2026-01-29 15:34:58.20	221.44	13.12	-39.3	-40.4	21.6	0.00e+00	42	30	0	1304428544	50	6723
2026-01-29 15:35:02.23	221.30	12.73	-39.4	-40.5	21.6	0.00e+00	0	30	0	1312817152	52	6094
2026-01-29 15:35:06.27	221.17	12.34	-39.4	-40.5	21.6	0.00e+00	0	30	0	1320157184	52	6075
2026-01-29 15:35:10.30	221.04	11.96	-39.1	-40.2	21.9	0.00e+00	59	30	0	1327497216	52	5858
2026-01-29 15:35:14.34	220.91	11.59	-39.2	-40.3	21.8	0.00e+00	0	30	0	1334837248	52	5923
2026-01-29 15:35:18.38	220.79	11.22	-38.9	-39.9	22.1	0.00e+00	0	30	0	1343225856	52	5684
2026-01-29 15:35:22.41	220.67	10.86	-39.5	-40.6	21.5	0.00e+00	0	30	0	1350565888	52	6167
2026-01-29 15:35:26.45	220.56	10.50	-39.4	-40.5	21.6	0.00e+00	92	30	0	1357905920	52	6050
2026-01-29 15:35:30.48	220.45	10.15	-40.2	-41.4	20.7	0.00e+00	0	30	0	1365245952	52	6733
2026-01-29 15:35:34.52	220.34	9.80	-40.3	-41.6	20.7	0.00e+00	0	30	0	1372585984	52	6863
2026-01-29 15:35:38.56	220.23	9.46	-40.3	-41.6	20.5	0.00e+00	0	30	0	1380974592	52	6865
2026-01-29 15:35:42.59	220.13	9.12	-40.5	-41.8	20.4	0.00e+00	35	30	0	1388314624	52	7074
2026-01-29 15:35:46.63	220.02	8.79	-40.7	-42.0	20.2	0.00e+00	0	30	0	1395654656	52	7223
2026-01-29 15:35:50.67	219.92	8.46	-40.6	-41.9	20.3	0.00e+00	0	30	0	1402994688	54	6355
2026-01-29 15:35:54.71	219.83	8.13	-40.5	-41.8	20.3	0.00e+00	14	30	0	1411383296	54	6269
2026-01-29 15:35:58.74	219.73	7.81	-40.6	-41.9	20.2	0.00e+00	33	30	0	1418723328	54	6360
2026-01-29 15:36:02.78	219.64	7.49	-40.7	-42.0	20.1	0.00e+00	0	30	0	1426063360	54	6410
2026-01-29 15:36:06.82	219.55	7.18	-41.2	-42.7	19.4	0.00e+00	0	30	0	1433403392	54	6968
2026-01-29 15:36:10.86	219.47	6.87	-41.4	-42.8	19.2	0.00e+00	72	30	0	1440743424	54	7086
2026-01-29 15:36:14.89	219.38	6.57	-41.0	-42.4	19.6	0.00e+00	0	30	0	1449132032	54	6720
2026-01-29 15:36:18.93	219.30	6.26	-41.1	-42.5	19.4	0.00e+00	0	30	0	1456472064	54	6804
2026-01-29 15:36:22.97	219.22	5.96	-41.1	-42.6	19.3	0.00e+00	0	30	0	1463812096	54	6866
2026-01-29 15:36:27.01	219.14	5.67	-41.2	-42.6	19.2	0.00e+00	56	30	0	1471152128	54	6927
2026-01-29 15:36:31.04	219.06	5.37	-41.0	-42.5	19.4	0.00e+00	0	30	0	1478492160	54	6815
2026-01-29 15:36:35.08	218.98	5.08	-41.4	-43.0	18.8	0.00e+00	0	30	0	1486880768	54	7233
2026-01-29 15:36:39.11	218.91	4.80	-41.0	-42.5	19.3	0.00e+00	52	30	0	1494220800	54	6775
2026-01-29 15:36:43.15	218.84	4.52	-41.4	-43.1	18.8	0.00e+00	0	30	0	1501560832	54	7258
2026-01-29 15:36:47.19	218.77	4.23	-41.1	-42.6	19.0	0.00e+00	0	30	0	1508900864	56	6156
2026-01-29 15:36:51.23	218.70	3.96	-41.4	-43.0	18.6	0.00e+00	0	30	0	1517289472	56	6430
2026-01-29 15:36:55.26	218.63	3.68	-41.7	-43.4	18.2	0.00e+00	90	30	0	1524629504	56	6767
2026-01-29 15:36:59.30	218.56	3.41	-41.3	-42.9	18.6	0.00e+00	0	30	0	1531969536	56	6331
2026-01-29 15:37:03.32	218.50	3.14	-42.1	-44.1	17.4	0.00e+00	0	30	0	1539309568	56	7291
2026-01-29 15:37:07.35	218.43	2.87	-48.2	-63.4	3.6	1.51e+00	0	30	104	1543503872	60	53618
2026-01-29 15:37:11.39	218.37	2.61	-48.9	-64.0	3.6	1.51e+00	0	30	104	1543503872	60	57512
2026-01-29 15:37:15.43	218.31	2.35	-49.0	-64.2	3.6	1.51e+00	0	30	104	1543503872	60	58438
2026-01-29 15:37:19.47	218.25	2.09	-48.9	-64.2	3.6	1.51e+00	0	30	104	1543503872	60	58475
2026-01-29 15:37:23.51	218.19	1.83	-48.9	-64.0	3.6	1.51e+00	0	30	104	1543503872	60	57373
2026-01-29 15:37:27.55	218.14	1.57	-48.8	-64.0	3.6	1.51e+00	0	30	104	1543503872	60	56964
2026-01-29 15:37:31.60	218.08	1.32	-48.8	-64.1	3.6	1.51e+00	0	30	104	1543503872	60	57631
2026-01-29 15:37:35.63	218.03	1.07	-48.7	-64.0	3.6	1.51e+00	0	30	104	1543503872	60	57122
2026-01-29 15:37:39.68	217.97	0.82	-48.7	-64.0	3.6	1.51e+00	0	30	104	1543503872	60	57210
2026-01-29 15:37:43.72	217.92	0.57	-48.8	-64.0	3.6	1.51e+00	0	30	104	1543503872	60	57289
2026-01-29 15:37:47.76	217.87	0.33	-48.7	-64.0	3.6	1.51e+00	0	30	104	1543503872	60	57184
2026-01-29 15:37:51.80	217.82	0.09	-48.7	-64.0	3.6	1.51e+00	0	30	104	1543503872	60	57084
2026-01-29 15:37:55.83	217.77	-0.15	-48.7	-64.0	3.6	1.51e+00	0	30	104	1543503872	60	57089

#Closed at: 2026-01-29 15:37:56
#Recorded file [1543 MB]: D:/lorett/data/35029_260130_032231.dat