passes_logs/2026/01/29/R4.6S_Anadyr/R4.6S_Anadyr__20260129_120141_SUOMI_NPP_rec.log

#Pass ID: 20260129_120141_SUOMI NPP
#Satellite: SUOMI NPP
#Configuration: NPP
#almurnet v.1.7.20251203
#Start time: 2026-01-29 12:01:44

#Version: 2.2.20231116
#Station: R4.6S_Anadyr
#Location: 177.4865 lon 64.73178 lat
#TLE: 1 37849U 11061A   26028.91916408  .00000155  00000+0  94467-4 0  9990
#TLE: 2 37849  98.7824 330.8488 0002045  39.4457 320.6868 14.19531289738686

#Time	Az	El	Level	Level2	SNR	BER	BlckErr	Temp	State	Recorded	gain1	gain2
2026-01-29 12:01:44.44	19.98	0.14	-48.9	-62.6	3.3	1.54e+00	0	30	0	0	60	48813
2026-01-29 12:01:47.46	20.25	0.28	-48.9	-64.1	3.6	1.51e+00	0	30	104	0	60	58013
2026-01-29 12:01:50.49	20.51	0.41	-48.9	-64.1	3.6	1.51e+00	0	30	104	0	60	58145
2026-01-29 12:01:53.52	20.78	0.55	-48.9	-64.1	3.6	1.51e+00	0	30	104	0	60	58199
2026-01-29 12:01:56.55	21.04	0.68	-48.8	-63.9	3.6	1.51e+00	0	30	104	0	60	56930
2026-01-29 12:01:59.58	21.32	0.82	-48.6	-63.8	3.6	1.51e+00	0	30	104	0	60	55868
2026-01-29 12:02:02.61	21.59	0.95	-48.3	-63.5	3.6	1.51e+00	0	30	104	0	60	53962
2026-01-29 12:02:05.63	21.86	1.09	-47.7	-62.9	3.6	1.51e+00	0	30	104	0	60	50423
2026-01-29 12:02:08.66	22.14	1.22	-47.4	-62.5	3.6	1.51e+00	0	30	104	0	60	48121
2026-01-29 12:02:11.69	22.42	1.36	-47.4	-62.5	3.6	1.51e+00	0	30	104	0	60	48182
2026-01-29 12:02:14.71	22.70	1.49	-47.4	-62.5	3.6	1.51e+00	0	30	104	0	60	48374
2026-01-29 12:02:17.75	22.99	1.63	-47.4	-62.5	3.6	1.51e+00	0	30	104	0	60	48089
2026-01-29 12:02:20.77	23.28	1.76	-47.4	-62.5	3.6	1.51e+00	0	30	104	0	60	48057
2026-01-29 12:02:23.80	23.57	1.90	-47.4	-62.5	3.6	1.51e+00	0	30	104	0	60	48408
2026-01-29 12:02:26.83	23.86	2.04	-47.4	-62.5	3.6	1.51e+00	0	30	104	0	60	48047
2026-01-29 12:02:29.86	24.15	2.17	-47.4	-62.4	3.6	1.51e+00	0	30	104	0	60	47584
2026-01-29 12:02:32.89	24.45	2.31	-47.4	-62.4	3.6	1.51e+00	0	30	104	0	60	47924
2026-01-29 12:02:35.92	24.75	2.44	-47.3	-62.0	3.6	1.51e+00	0	30	104	0	60	45450
2026-01-29 12:02:38.94	25.05	2.58	-47.3	-61.8	3.6	1.51e+00	0	30	104	0	60	44594
2026-01-29 12:02:41.97	25.36	2.71	-45.1	-49.1	12.6	3.98e-03	69	31	0	2097152	60	10278
2026-01-29 12:02:45.00	25.67	2.85	-40.3	-41.8	19.5	0.00e+00	0	30	0	7340032	54	6257
2026-01-29 12:02:48.03	25.98	2.99	-41.2	-42.9	18.3	0.00e+00	0	30	0	12582912	54	7107
2026-01-29 12:02:51.06	26.29	3.12	-40.7	-42.2	19.2	0.00e+00	0	30	0	18874368	52	7411
2026-01-29 12:02:54.09	26.61	3.26	-46.4	-52.3	9.0	2.37e-03	0	31	0	19922944	60	14963
2026-01-29 12:02:57.11	26.93	3.39	-41.4	-43.1	18.2	0.00e+00	0	30	0	25165824	56	6534
2026-01-29 12:03:00.14	27.25	3.53	-41.7	-43.5	18.3	0.00e+00	0	31	0	31457280	56	6814
2026-01-29 12:03:03.17	27.58	3.67	-41.5	-43.2	18.3	0.00e+00	65	31	0	36700160	56	6606
2026-01-29 12:03:06.19	27.90	3.80	-41.7	-43.5	18.1	0.00e+00	0	31	0	42991616	56	6817
2026-01-29 12:03:09.22	28.23	3.94	-41.5	-43.2	18.4	0.00e+00	0	30	0	48234496	56	6551
2026-01-29 12:03:12.24	28.57	4.07	-41.0	-42.5	19.1	0.00e+00	76	31	0	53477376	56	6096
2026-01-29 12:03:15.27	28.90	4.21	-40.8	-42.3	19.2	0.00e+00	0	30	0	59768832	54	6621
2026-01-29 12:03:18.30	29.24	4.34	-40.5	-41.9	19.7	0.00e+00	0	31	0	65011712	54	6340
2026-01-29 12:03:21.32	29.58	4.48	-40.4	-41.8	19.7	0.00e+00	30	31	0	71303168	54	6310
2026-01-29 12:03:24.35	29.93	4.62	-40.3	-41.7	19.8	0.00e+00	0	31	0	76546048	54	6207
2026-01-29 12:03:27.38	30.28	4.75	-40.3	-41.7	20.0	0.00e+00	0	30	0	82837504	54	6179
2026-01-29 12:03:30.41	30.63	4.89	-39.9	-41.2	20.4	0.00e+00	0	31	0	88080384	54	5888
2026-01-29 12:03:33.44	30.99	5.02	-39.9	-41.2	20.7	0.00e+00	60	31	0	93323264	52	6546
2026-01-29 12:03:36.46	31.34	5.15	-39.4	-40.6	20.8	0.00e+00	0	31	0	99614720	52	6134
2026-01-29 12:03:39.49	31.70	5.29	-39.6	-40.8	21.0	0.00e+00	0	31	0	104857600	52	6280
2026-01-29 12:03:42.52	32.07	5.42	-39.5	-40.7	20.9	0.00e+00	90	31	0	111149056	52	6201
2026-01-29 12:03:45.55	32.44	5.56	-39.3	-40.5	21.2	0.00e+00	0	31	0	116391936	52	6060
2026-01-29 12:03:48.57	32.81	5.69	-39.6	-40.8	21.0	0.00e+00	0	31	0	121634816	52	6266
2026-01-29 12:03:51.60	33.18	5.82	-38.8	-40.0	21.6	0.00e+00	0	31	0	127926272	52	5699
2026-01-29 12:03:54.63	33.56	5.96	-39.0	-40.1	21.5	0.00e+00	64	31	0	133169152	52	5812
2026-01-29 12:03:57.66	33.94	6.09	-39.5	-40.7	20.9	0.00e+00	0	31	0	139460608	52	6179
2026-01-29 12:04:00.69	34.32	6.22	-39.5	-40.7	21.0	0.00e+00	0	31	0	144703488	52	6189
2026-01-29 12:04:03.71	34.71	6.35	-39.3	-40.5	21.1	0.00e+00	65	31	0	150994944	52	6035
2026-01-29 12:04:06.74	35.10	6.48	-39.4	-40.6	21.1	0.00e+00	0	31	0	156237824	52	6119
2026-01-29 12:04:09.77	35.49	6.61	-39.8	-41.1	20.7	0.00e+00	0	31	0	161480704	52	6475
2026-01-29 12:04:12.80	35.89	6.74	-39.5	-40.7	21.0	0.00e+00	92	31	0	167772160	52	6201
2026-01-29 12:04:15.83	36.29	6.87	-39.8	-41.0	20.8	0.00e+00	0	31	0	173015040	52	6451
2026-01-29 12:04:18.85	36.70	7.00	-39.7	-41.0	20.8	0.00e+00	0	31	0	179306496	52	6399
2026-01-29 12:04:21.88	37.10	7.13	-39.5	-40.7	21.0	0.00e+00	0	31	0	184549376	52	6187
2026-01-29 12:04:24.90	37.51	7.26	-39.4	-40.6	21.1	0.00e+00	26	31	0	189792256	52	6129
2026-01-29 12:04:27.93	37.93	7.39	-39.6	-40.8	20.8	0.00e+00	0	31	0	196083712	52	6253
2026-01-29 12:04:30.96	38.35	7.52	-39.8	-41.1	20.8	0.00e+00	0	31	0	201326592	52	6478
2026-01-29 12:04:33.99	38.77	7.64	-39.3	-40.5	21.2	0.00e+00	71	31	0	207618048	52	6057
2026-01-29 12:04:37.02	39.20	7.77	-39.5	-40.7	21.1	0.00e+00	0	31	0	212860928	52	6201
2026-01-29 12:04:40.04	39.62	7.89	-39.6	-40.8	21.1	0.00e+00	0	31	0	218103808	52	6307
2026-01-29 12:04:43.07	40.06	8.02	-39.7	-40.9	21.0	0.00e+00	53	31	0	224395264	52	6364
2026-01-29 12:04:46.10	40.49	8.14	-39.3	-40.5	21.2	0.00e+00	0	31	0	229638144	52	6047
2026-01-29 12:04:49.13	40.93	8.26	-39.3	-40.4	21.4	0.00e+00	0	31	0	235929600	52	6010
2026-01-29 12:04:52.16	41.38	8.39	-39.8	-41.0	20.8	0.00e+00	0	31	0	241172480	52	6445
2026-01-29 12:04:55.19	41.82	8.51	-40.1	-41.3	20.6	0.00e+00	12	31	0	247463936	52	6687
2026-01-29 12:04:58.21	42.27	8.63	-39.9	-41.2	20.8	0.00e+00	0	31	0	252706816	52	6544
2026-01-29 12:05:01.24	42.73	8.75	-39.8	-41.0	20.9	0.00e+00	0	31	0	257949696	52	6403
2026-01-29 12:05:04.27	43.19	8.86	-39.7	-40.9	21.1	0.00e+00	92	31	0	264241152	52	6355
2026-01-29 12:05:07.30	43.65	8.98	-39.8	-41.1	20.9	0.00e+00	0	31	0	269484032	52	6468
2026-01-29 12:05:10.32	44.11	9.10	-39.9	-41.2	20.8	0.00e+00	0	31	0	275775488	52	6542
2026-01-29 12:05:13.35	44.58	9.21	-40.1	-41.4	20.6	0.00e+00	72	31	0	281018368	52	6735
2026-01-29 12:05:16.37	45.05	9.33	-40.4	-41.7	20.3	0.00e+00	16	31	0	286261248	52	6944
2026-01-29 12:05:19.40	45.52	9.44	-40.5	-41.8	20.4	0.00e+00	0	31	0	292552704	52	7031
2026-01-29 12:05:22.43	46.00	9.55	-40.2	-41.5	20.4	0.00e+00	0	31	0	297795584	52	6832
2026-01-29 12:05:25.46	46.49	9.66	-40.1	-41.3	20.7	0.00e+00	17	31	0	304087040	52	6680
2026-01-29 12:05:28.49	46.97	9.77	-39.9	-41.1	20.9	0.00e+00	0	31	0	309329920	52	6532
2026-01-29 12:05:31.52	47.46	9.88	-39.8	-41.0	20.9	0.00e+00	0	31	0	315621376	52	6452
2026-01-29 12:05:34.55	47.96	9.98	-39.6	-40.8	21.2	0.00e+00	74	31	0	320864256	52	6290
2026-01-29 12:05:37.57	48.45	10.09	-40.0	-41.2	20.8	0.00e+00	0	31	0	326107136	52	6589
2026-01-29 12:05:40.60	48.95	10.19	-39.8	-41.0	21.0	0.00e+00	0	31	0	332398592	52	6446
2026-01-29 12:05:43.63	49.46	10.29	-39.5	-40.6	21.3	0.00e+00	87	31	0	337641472	52	6172
2026-01-29 12:05:46.66	49.96	10.39	-39.2	-40.3	21.6	0.00e+00	0	31	0	343932928	52	5917
2026-01-29 12:05:49.68	50.47	10.49	-39.4	-40.6	21.3	0.00e+00	0	31	0	349175808	52	6127
2026-01-29 12:05:52.71	50.99	10.59	-39.6	-40.7	21.2	0.00e+00	0	31	0	354418688	52	6231
2026-01-29 12:05:55.73	51.50	10.68	-39.6	-40.8	21.1	0.00e+00	69	31	0	360710144	52	6289
2026-01-29 12:05:58.76	52.02	10.78	-39.7	-40.9	21.2	0.00e+00	0	31	0	365953024	52	6334
2026-01-29 12:06:01.76	52.54	10.87	-39.7	-40.9	21.1	0.00e+00	0	31	0	372244480	52	6374
2026-01-29 12:06:04.79	53.07	10.96	-39.6	-40.8	21.2	0.00e+00	90	31	0	377487360	52	6273
2026-01-29 12:06:07.82	53.60	11.05	-39.3	-40.4	21.6	0.00e+00	0	31	0	382730240	52	6014
2026-01-29 12:06:10.84	54.13	11.14	-38.8	-39.9	22.0	0.00e+00	0	31	0	389021696	52	5655
2026-01-29 12:06:13.87	54.66	11.22	-39.6	-40.8	21.2	0.00e+00	0	31	0	394264576	52	6291
2026-01-29 12:06:16.90	55.20	11.30	-40.2	-41.4	20.7	0.00e+00	0	31	0	400556032	52	6744
2026-01-29 12:06:19.93	55.75	11.38	-39.5	-40.7	21.2	0.00e+00	0	31	0	405798912	52	6188
2026-01-29 12:06:22.95	56.29	11.46	-39.0	-40.1	21.8	0.00e+00	0	31	0	412090368	52	5778
2026-01-29 12:06:25.98	56.84	11.54	-39.7	-40.9	21.1	0.00e+00	7	31	0	417333248	52	6323
2026-01-29 12:06:29.01	57.39	11.61	-39.3	-40.4	21.6	0.00e+00	0	31	0	422576128	52	5978
2026-01-29 12:06:32.03	57.94	11.69	-38.5	-39.5	22.4	0.00e+00	0	31	0	428867584	50	6053
2026-01-29 12:06:35.06	58.49	11.76	-38.7	-39.8	22.1	0.00e+00	53	31	0	434110464	50	6252
2026-01-29 12:06:38.09	59.05	11.83	-39.4	-40.6	21.4	0.00e+00	0	31	0	440401920	50	6886
2026-01-29 12:06:41.12	59.61	11.89	-39.1	-40.2	21.7	0.00e+00	0	31	0	445644800	52	5876
2026-01-29 12:06:44.15	60.18	11.96	-39.6	-40.8	21.2	0.00e+00	18	31	0	450887680	52	6257
2026-01-29 12:06:47.17	60.74	12.02	-41.0	-42.4	19.8	0.00e+00	70	31	0	457179136	54	6749
2026-01-29 12:06:50.19	61.31	12.08	-40.4	-41.7	20.3	0.00e+00	0	31	0	462422016	54	6230
2026-01-29 12:06:53.22	61.88	12.13	-39.6	-40.7	21.3	0.00e+00	0	31	0	468713472	52	6239
2026-01-29 12:06:56.24	62.45	12.19	-40.4	-41.7	20.5	0.00e+00	70	31	0	473956352	52	6969
2026-01-29 12:06:59.27	63.02	12.24	-40.4	-41.7	20.6	0.00e+00	0	31	0	479199232	52	6956
2026-01-29 12:07:02.30	63.60	12.29	-40.4	-41.7	20.5	0.00e+00	0	31	0	485490688	52	6954
2026-01-29 12:07:05.32	64.17	12.33	-41.1	-42.6	19.5	0.00e+00	87	31	0	490733568	54	6899
2026-01-29 12:07:08.36	64.76	12.38	-41.0	-42.4	19.9	0.00e+00	0	31	0	497025024	54	6716
2026-01-29 12:07:11.38	65.34	12.42	-39.7	-40.9	21.1	0.00e+00	0	31	0	502267904	52	6359
2026-01-29 12:07:14.41	65.92	12.46	-39.7	-40.9	21.3	0.00e+00	33	31	0	508559360	52	6342
2026-01-29 12:07:17.43	66.50	12.50	-39.6	-40.8	21.2	0.00e+00	25	31	0	513802240	52	6282
2026-01-29 12:07:20.46	67.09	12.53	-38.9	-39.9	21.9	0.00e+00	0	31	0	519045120	52	5680
2026-01-29 12:07:23.49	67.68	12.56	-38.4	-39.4	22.4	0.00e+00	0	31	0	525336576	50	5997
2026-01-29 12:07:26.52	68.26	12.59	-38.4	-39.4	22.5	0.00e+00	92	31	0	530579456	50	5992
2026-01-29 12:07:29.55	68.85	12.61	-38.3	-39.4	22.4	0.00e+00	0	31	0	536870912	50	5969
2026-01-29 12:07:32.57	69.44	12.64	-38.5	-39.5	22.3	0.00e+00	0	31	0	542113792	50	6092
2026-01-29 12:07:35.60	70.03	12.66	-38.8	-39.9	21.9	0.00e+00	70	31	0	547356672	50	6380
2026-01-29 12:07:38.63	70.63	12.68	-38.5	-39.6	22.3	0.00e+00	0	31	0	553648128	50	6149
2026-01-29 12:07:41.66	71.22	12.69	-38.5	-39.7	22.3	0.00e+00	0	31	0	558891008	50	6179
2026-01-29 12:07:44.69	71.81	12.70	-38.6	-39.7	22.2	0.00e+00	21	31	0	565182464	50	6208
2026-01-29 12:07:47.72	72.41	12.71	-38.5	-39.6	22.2	0.00e+00	0	31	0	570425344	50	6115
2026-01-29 12:07:50.74	73.00	12.72	-38.7	-39.7	22.2	0.00e+00	0	31	0	575668224	50	6224
2026-01-29 12:07:53.77	73.59	12.72	-38.6	-39.7	22.2	0.00e+00	0	31	0	581959680	50	6205
2026-01-29 12:07:56.80	74.19	12.72	-38.4	-39.4	22.4	0.00e+00	32	31	0	587202560	50	6025
2026-01-29 12:07:59.83	74.78	12.72	-38.5	-39.6	22.2	0.00e+00	0	31	0	593494016	50	6124
2026-01-29 12:08:02.85	75.38	12.72	-38.5	-39.6	22.2	0.00e+00	0	31	0	598736896	50	6131
2026-01-29 12:08:05.88	75.97	12.71	-37.8	-38.8	22.9	0.00e+00	75	31	0	605028352	50	5597
2026-01-29 12:08:08.91	76.56	12.70	-37.5	-38.5	23.1	0.00e+00	0	31	0	610271232	48	6038
2026-01-29 12:08:11.94	77.16	12.69	-37.9	-38.9	22.8	0.00e+00	0	31	0	615514112	48	6323
2026-01-29 12:08:14.97	77.75	12.67	-37.5	-38.5	22.8	0.00e+00	0	31	0	621805568	48	6059
2026-01-29 12:08:17.99	78.34	12.65	-37.3	-38.2	23.2	0.00e+00	0	31	0	627048448	48	5880
2026-01-29 12:08:21.02	78.93	12.63	-37.9	-38.8	22.7	0.00e+00	0	31	0	633339904	48	6316
2026-01-29 12:08:24.05	79.52	12.61	-38.1	-39.1	22.7	0.00e+00	0	31	0	638582784	48	6467
2026-01-29 12:08:27.07	80.11	12.58	-37.8	-38.8	22.8	0.00e+00	57	31	0	643825664	48	6257
2026-01-29 12:08:30.10	80.70	12.55	-37.7	-38.7	23.0	0.00e+00	0	31	0	650117120	48	6179
2026-01-29 12:08:33.13	81.29	12.52	-38.0	-39.0	22.5	0.00e+00	0	31	0	655360000	48	6459
2026-01-29 12:08:36.16	81.87	12.48	-37.9	-38.8	22.9	0.00e+00	92	31	0	661651456	48	6300
2026-01-29 12:08:39.19	82.46	12.45	-37.4	-38.4	23.2	0.00e+00	33	31	0	666894336	48	5984
2026-01-29 12:08:42.21	83.04	12.41	-37.4	-38.4	23.2	0.00e+00	0	31	0	673185792	48	5977
2026-01-29 12:08:45.24	83.62	12.36	-37.4	-38.4	23.1	0.00e+00	27	31	0	678428672	48	5989
2026-01-29 12:08:48.27	84.20	12.32	-37.5	-38.4	23.1	0.00e+00	37	31	0	683671552	48	6005
2026-01-29 12:08:51.30	84.78	12.27	-37.5	-38.4	23.1	0.00e+00	0	31	0	689963008	48	6026
2026-01-29 12:08:54.32	85.36	12.22	-37.5	-38.5	23.0	0.00e+00	0	31	0	695205888	48	6055
2026-01-29 12:08:57.35	85.93	12.17	-37.4	-38.3	23.2	0.00e+00	92	31	0	701497344	48	5951
2026-01-29 12:09:00.37	86.50	12.11	-37.0	-38.0	23.5	0.00e+00	0	31	0	706740224	48	5746
2026-01-29 12:09:03.39	87.07	12.05	-37.1	-38.0	23.4	0.00e+00	0	31	0	711983104	48	5729
2026-01-29 12:09:06.42	87.64	11.99	-37.3	-38.3	23.3	0.00e+00	72	31	0	718274560	48	5903
2026-01-29 12:09:09.45	88.20	11.93	-37.0	-38.0	23.6	0.00e+00	0	31	0	723517440	48	5698
2026-01-29 12:09:12.47	88.77	11.87	-36.8	-37.7	23.5	0.00e+00	0	31	0	729808896	48	5547
2026-01-29 12:09:15.50	89.33	11.80	-36.9	-37.9	23.5	0.00e+00	0	31	0	735051776	48	5681
2026-01-29 12:09:18.53	89.89	11.73	-36.7	-37.6	23.8	0.00e+00	17	31	0	740294656	48	5461
2026-01-29 12:09:21.56	90.44	11.66	-36.5	-37.3	24.0	0.00e+00	0	31	0	746586112	46	5947
2026-01-29 12:09:24.59	91.00	11.59	-36.8	-37.7	23.7	0.00e+00	0	31	0	751828992	46	6180
2026-01-29 12:09:27.62	91.55	11.51	-36.6	-37.5	23.7	0.00e+00	92	31	0	758120448	46	6069
2026-01-29 12:09:30.64	92.10	11.43	-36.8	-37.7	23.6	0.00e+00	0	31	0	763363328	46	6219
2026-01-29 12:09:33.67	92.64	11.35	-37.1	-38.0	23.7	0.00e+00	0	31	0	769654784	46	6395
2026-01-29 12:09:36.70	93.18	11.27	-36.8	-37.7	23.6	0.00e+00	92	31	0	774897664	46	6203
2026-01-29 12:09:39.73	93.72	11.19	-37.2	-38.1	23.4	0.00e+00	0	31	0	780140544	46	6499
2026-01-29 12:09:42.75	94.26	11.10	-37.4	-38.3	23.2	0.00e+00	0	31	0	786432000	46	6654
2026-01-29 12:09:45.77	94.79	11.01	-37.5	-38.5	23.1	0.00e+00	0	31	0	791674880	46	6835
2026-01-29 12:09:48.80	95.32	10.92	-37.8	-38.8	22.8	0.00e+00	0	31	0	797966336	48	6289
2026-01-29 12:09:51.83	95.85	10.83	-38.6	-39.7	22.0	0.00e+00	0	31	0	803209216	48	6937
2026-01-29 12:09:54.86	96.37	10.74	-38.6	-39.7	22.1	0.00e+00	0	31	0	808452096	50	6206
2026-01-29 12:09:57.89	96.89	10.64	-38.5	-39.5	22.2	0.00e+00	90	31	0	814743552	50	6063
2026-01-29 12:10:00.91	97.41	10.55	-38.1	-39.1	22.3	0.00e+00	0	31	0	819986432	50	5824
2026-01-29 12:10:03.94	97.92	10.45	-38.4	-39.5	22.0	0.00e+00	0	31	0	826277888	50	6097
2026-01-29 12:10:06.96	98.43	10.35	-39.4	-40.6	21.1	0.00e+00	92	31	0	831520768	50	6873
2026-01-29 12:10:09.99	98.94	10.25	-39.4	-40.6	21.2	0.00e+00	24	31	0	836763648	52	6127
2026-01-29 12:10:13.02	99.44	10.14	-38.9	-40.1	21.5	0.00e+00	0	31	0	843055104	52	5822
2026-01-29 12:10:16.05	99.94	10.04	-39.6	-40.9	20.8	0.00e+00	0	31	0	848297984	52	6318
2026-01-29 12:10:19.07	100.44	9.93	-39.8	-41.1	20.8	0.00e+00	10	31	0	854589440	52	6486
2026-01-29 12:10:22.10	100.93	9.82	-39.4	-40.6	21.0	0.00e+00	0	31	0	859832320	52	6105
2026-01-29 12:10:25.13	101.42	9.72	-39.4	-40.6	21.2	0.00e+00	0	31	0	866123776	52	6144
2026-01-29 12:10:28.16	101.91	9.61	-39.7	-41.0	20.9	0.00e+00	92	31	0	871366656	52	6405
2026-01-29 12:10:31.19	102.39	9.49	-39.5	-41.0	20.9	0.00e+00	0	31	0	876609536	52	6453
2026-01-29 12:10:34.21	102.87	9.38	-39.6	-41.2	20.7	0.00e+00	0	31	0	882900992	52	6600
2026-01-29 12:10:37.24	103.35	9.27	-39.8	-41.2	20.5	0.00e+00	92	31	0	888143872	52	6603
2026-01-29 12:10:40.27	103.82	9.15	-39.6	-41.2	20.6	0.00e+00	0	31	0	894435328	52	6545
2026-01-29 12:10:43.30	104.29	9.04	-39.9	-41.3	20.5	0.00e+00	0	31	0	899678208	52	6622
2026-01-29 12:10:46.32	104.75	8.92	-40.2	-41.6	20.2	0.00e+00	0	31	0	904921088	52	6900
2026-01-29 12:10:49.35	105.21	8.80	-39.7	-40.9	20.9	0.00e+00	68	31	0	911212544	52	6379
2026-01-29 12:10:52.38	105.67	8.68	-39.0	-40.1	21.7	0.00e+00	0	31	0	916455424	52	5796
2026-01-29 12:10:55.41	106.13	8.56	-38.6	-39.6	22.0	0.00e+00	0	31	0	922746880	50	6165
2026-01-29 12:10:58.43	106.58	8.44	-39.4	-40.6	21.1	0.00e+00	92	31	0	927989760	50	6866
2026-01-29 12:11:01.46	107.02	8.32	-39.9	-41.2	20.4	0.00e+00	0	31	0	934281216	52	6565
2026-01-29 12:11:04.50	107.47	8.19	-39.8	-41.2	20.6	0.00e+00	0	31	0	939524096	52	6555
2026-01-29 12:11:07.52	107.91	8.07	-39.5	-40.8	21.0	0.00e+00	0	31	0	944766976	52	6302
2026-01-29 12:11:10.55	108.34	7.94	-39.3	-40.4	21.3	0.00e+00	0	31	0	951058432	52	6017
2026-01-29 12:11:13.57	108.78	7.82	-38.9	-40.5	21.1	0.00e+00	0	31	0	956301312	52	6070
2026-01-29 12:11:16.60	109.20	7.69	-39.0	-40.3	21.4	0.00e+00	0	31	0	962592768	52	5915
2026-01-29 12:11:19.63	109.63	7.57	-39.1	-40.3	21.3	0.00e+00	91	31	0	967835648	52	5931
2026-01-29 12:11:22.66	110.05	7.44	-38.9	-40.0	21.5	0.00e+00	0	31	0	973078528	50	6429
2026-01-29 12:11:25.68	110.47	7.31	-38.9	-40.1	21.4	0.00e+00	0	31	0	979369984	50	6481
2026-01-29 12:11:28.71	110.88	7.18	-38.8	-40.0	21.5	0.00e+00	82	31	0	984612864	50	6420
2026-01-29 12:11:31.74	111.30	7.05	-38.8	-40.0	21.6	0.00e+00	0	31	0	990904320	50	6412
2026-01-29 12:11:34.77	111.70	6.92	-38.3	-39.4	22.0	0.00e+00	0	31	0	996147200	50	6009
2026-01-29 12:11:37.79	112.11	6.79	-38.6	-39.7	21.7	0.00e+00	4	31	0	1001390080	50	6235
2026-01-29 12:11:40.82	112.51	6.66	-39.1	-40.3	21.2	0.00e+00	17	31	0	1007681536	50	6667
2026-01-29 12:11:43.84	112.90	6.53	-39.1	-40.3	21.2	0.00e+00	0	31	0	1012924416	50	6643
2026-01-29 12:11:46.87	113.30	6.39	-39.2	-40.4	21.0	0.00e+00	0	31	0	1019215872	50	6737
2026-01-29 12:11:49.90	113.69	6.26	-39.2	-40.4	21.0	0.00e+00	56	31	0	1024458752	50	6750
2026-01-29 12:11:52.93	114.08	6.13	-39.4	-40.7	20.9	0.00e+00	0	31	0	1030750208	50	6955
2026-01-29 12:11:55.96	114.46	6.00	-39.4	-40.6	20.9	0.00e+00	0	31	0	1035993088	50	6910
2026-01-29 12:11:58.99	114.84	5.86	-38.9	-40.2	21.2	0.00e+00	92	31	0	1041235968	50	6584
2026-01-29 12:12:02.01	115.22	5.73	-38.8	-40.0	21.5	0.00e+00	0	31	0	1047527424	50	6399
2026-01-29 12:12:05.04	115.59	5.59	-39.1	-40.4	21.0	0.00e+00	0	31	0	1052770304	50	6711
2026-01-29 12:12:08.07	115.96	5.46	-39.5	-40.7	20.7	0.00e+00	0	31	0	1059061760	50	6988
2026-01-29 12:12:11.09	116.33	5.32	-39.7	-41.0	20.4	0.00e+00	45	31	0	1064304640	52	6441
2026-01-29 12:12:14.12	116.69	5.19	-39.7	-41.0	20.2	0.00e+00	0	31	0	1069547520	52	6452
2026-01-29 12:12:17.15	117.05	5.05	-39.8	-41.2	20.2	0.00e+00	0	31	0	1075838976	52	6564
2026-01-29 12:12:20.18	117.41	4.92	-39.5	-40.8	20.5	0.00e+00	90	31	0	1081081856	52	6306
2026-01-29 12:12:23.20	117.76	4.78	-39.4	-40.9	20.4	0.00e+00	0	31	0	1087373312	52	6332
2026-01-29 12:12:26.23	118.11	4.64	-39.5	-40.8	20.4	0.00e+00	28	31	0	1092616192	52	6300
2026-01-29 12:12:29.26	118.46	4.51	-39.7	-41.1	20.2	0.00e+00	92	31	0	1098907648	52	6483
2026-01-29 12:12:32.29	118.81	4.37	-40.0	-41.5	19.8	0.00e+00	0	31	0	1104150528	52	6831
2026-01-29 12:12:35.31	119.15	4.23	-39.9	-41.3	20.0	0.00e+00	0	31	0	1109393408	52	6647
2026-01-29 12:12:38.34	119.49	4.10	-40.1	-41.5	19.8	0.00e+00	0	31	0	1115684864	52	6839
2026-01-29 12:12:41.37	119.82	3.96	-40.2	-41.8	19.5	0.00e+00	13	31	0	1120927744	52	7074
2026-01-29 12:12:44.40	120.16	3.82	-40.1	-41.8	19.4	0.00e+00	0	31	0	1127219200	52	7072
2026-01-29 12:12:47.43	120.49	3.69	-40.6	-42.3	19.0	0.00e+00	0	31	0	1132462080	52	7435
2026-01-29 12:12:50.46	120.81	3.55	-41.3	-43.1	18.3	0.00e+00	92	31	0	1137704960	54	7311
2026-01-29 12:12:53.49	121.14	3.41	-40.9	-42.5	18.6	0.00e+00	0	31	0	1143996416	54	6832
2026-01-29 12:12:56.51	121.46	3.27	-40.8	-42.4	18.7	0.00e+00	0	31	0	1149239296	54	6754
2026-01-29 12:12:59.54	121.78	3.14	-40.7	-42.4	18.7	0.00e+00	91	31	0	1155530752	54	6699
2026-01-29 12:13:02.57	122.09	3.00	-46.8	-61.9	3.6	0.00e+00	7	31	104	1160773632	60	44911
2026-01-29 12:13:05.60	122.40	2.86	-48.0	-63.5	3.6	1.51e+00	0	31	104	1160773632	60	54254
2026-01-29 12:13:08.63	122.71	2.72	-48.7	-63.9	3.6	1.51e+00	0	31	104	1160773632	60	56943
2026-01-29 12:13:11.66	123.02	2.59	-48.8	-64.0	3.6	1.51e+00	0	31	104	1160773632	60	57520
2026-01-29 12:13:14.68	123.32	2.45	-48.9	-64.1	3.6	1.51e+00	0	31	104	1160773632	60	57810
2026-01-29 12:13:17.71	123.63	2.31	-48.9	-64.1	3.6	1.51e+00	0	31	104	1160773632	60	57689
2026-01-29 12:13:20.74	123.92	2.18	-48.8	-64.1	3.6	1.51e+00	0	31	104	1160773632	60	57868
2026-01-29 12:13:23.77	124.22	2.04	-48.8	-64.0	3.6	1.51e+00	0	31	104	1160773632	60	57504
2026-01-29 12:13:26.80	124.52	1.90	-48.8	-64.1	3.6	1.51e+00	0	31	104	1160773632	60	57837
2026-01-29 12:13:29.83	124.81	1.76	-48.8	-64.1	3.6	1.51e+00	0	31	104	1160773632	60	57754
2026-01-29 12:13:32.86	125.10	1.63	-48.8	-64.0	3.6	1.51e+00	0	31	104	1160773632	60	57146
2026-01-29 12:13:35.89	125.38	1.49	-48.8	-64.0	3.6	1.51e+00	0	31	104	1160773632	60	57498
2026-01-29 12:13:38.92	125.66	1.35	-48.8	-64.1	3.6	1.51e+00	0	31	104	1160773632	60	57661
2026-01-29 12:13:41.95	125.95	1.22	-48.8	-64.1	3.6	1.51e+00	0	31	104	1160773632	60	57911
2026-01-29 12:13:44.98	126.22	1.08	-48.8	-64.0	3.6	1.51e+00	0	31	104	1160773632	60	57368
2026-01-29 12:13:48.01	126.50	0.94	-48.8	-64.0	3.6	1.51e+00	0	31	104	1160773632	60	57357
2026-01-29 12:13:51.04	126.77	0.81	-48.9	-64.2	3.6	1.51e+00	0	31	104	1160773632	60	58302
2026-01-29 12:13:54.07	127.05	0.67	-48.8	-64.0	3.6	1.51e+00	0	31	104	1160773632	60	57527
2026-01-29 12:13:57.10	127.32	0.53	-48.8	-64.0	3.6	1.51e+00	0	31	104	1160773632	60	57527
2026-01-29 12:14:00.13	127.58	0.40	-48.8	-64.0	3.6	1.51e+00	0	31	104	1160773632	60	57607
2026-01-29 12:14:03.16	127.85	0.26	-48.8	-64.1	3.6	1.51e+00	0	31	104	1160773632	60	57877
2026-01-29 12:14:06.19	128.11	0.13	-48.8	-64.0	3.6	1.51e+00	0	31	104	1160773632	60	57520
2026-01-29 12:14:09.21	128.37	-0.01	-48.8	-64.0	3.6	1.51e+00	0	31	104	1160773632	60	57305

#Closed at: 2026-01-29 12:14:09
#Recorded file [1160 MB]: D:/lorett/data/35029_260130_000144.dat