passes_logs/2026/01/29/R4.6S_Anadyr/R4.6S_Anadyr__20260129_163257_NOAA_21_JPSS-2_rec.log

#Pass ID: 20260129_163257_NOAA 21 (JPSS-2)
#Satellite: NOAA 21 (JPSS-2)
#Configuration: NOAA-21
#almurnet v.1.7.20251203
#Start time: 2026-01-29 16:33:00

#Version: 2.2.20231116
#Station: R4.6S_Anadyr
#Location: 177.4865 lon 64.73178 lat
#TLE: 1 54234U 22150A   26028.89828222  .00000145  00000+0  89569-4 0  9997
#TLE: 2 54234  98.7511 329.6308 0000927 198.8651 161.2491 14.19540676166783

#Time	Az	El	Level	Level2	SNR	BER	BlckErr	Temp	State	Recorded	gain1	gain2
2026-01-29 16:33:00.66	26.53	0.16	-49.1	-66.8	3.4	3.02e+01	0	27	0	0	60	84425
2026-01-29 16:33:04.70	26.36	0.39	-48.9	-61.8	3.5	1.52e+00	0	29	104	0	60	43003
2026-01-29 16:33:08.74	26.19	0.62	-48.9	-61.8	3.5	1.52e+00	0	29	104	0	60	43080
2026-01-29 16:33:12.77	26.01	0.85	-48.9	-61.8	3.5	1.52e+00	0	29	104	0	60	43059
2026-01-29 16:33:16.82	25.83	1.09	-48.7	-61.6	3.5	1.52e+00	0	29	104	0	60	41980
2026-01-29 16:33:20.86	25.65	1.32	-48.3	-61.2	3.5	1.52e+00	0	29	104	0	60	40298
2026-01-29 16:33:24.89	25.46	1.56	-47.5	-60.4	3.5	1.51e+00	0	29	104	0	60	36641
2026-01-29 16:33:28.93	25.27	1.80	-47.5	-60.3	3.5	1.52e+00	0	29	104	0	60	36523
2026-01-29 16:33:32.97	25.07	2.04	-47.5	-60.3	3.5	1.52e+00	0	29	104	0	60	36267
2026-01-29 16:33:37.02	24.88	2.28	-47.5	-60.2	3.5	1.52e+00	0	29	104	0	60	35915
2026-01-29 16:33:41.05	24.68	2.53	-47.5	-60.2	3.5	1.52e+00	0	30	104	0	60	35977
2026-01-29 16:33:45.09	24.47	2.77	-47.5	-60.0	3.5	1.52e+00	0	29	104	0	60	35014
2026-01-29 16:33:49.13	24.26	3.02	-47.4	-59.7	3.5	1.52e+00	0	29	104	0	60	33906
2026-01-29 16:33:53.17	24.05	3.27	-46.4	-52.0	6.9	2.89e-01	122	30	0	1048576	60	13931
2026-01-29 16:33:57.21	23.84	3.52	-42.4	-44.5	15.3	0.00e+00	121	30	0	13631488	58	6578
2026-01-29 16:34:01.25	23.62	3.77	-44.0	-47.1	13.4	5.26e-03	122	30	0	16777216	60	7961
2026-01-29 16:34:05.29	23.39	4.03	-39.1	-40.5	18.9	0.00e+00	122	30	0	23068672	52	5860
2026-01-29 16:34:09.33	23.17	4.28	-38.2	-39.4	20.0	0.00e+00	122	30	0	35651584	50	5842
2026-01-29 16:34:13.37	22.93	4.54	-38.1	-39.3	20.0	0.00e+00	120	30	0	48234496	48	6489
2026-01-29 16:34:17.41	22.70	4.80	-38.2	-39.4	20.3	0.00e+00	123	29	0	60817408	48	6544
2026-01-29 16:34:21.45	22.46	5.07	-37.3	-38.4	21.1	0.00e+00	122	30	0	73400320	48	5847
2026-01-29 16:34:25.49	22.21	5.33	-37.2	-38.3	21.2	0.00e+00	122	30	0	85983232	48	5784
2026-01-29 16:34:29.52	21.96	5.60	-37.8	-38.9	20.8	0.00e+00	120	30	0	98566144	48	6174
2026-01-29 16:34:33.57	21.70	5.87	-38.0	-39.2	20.4	0.00e+00	123	30	0	111149056	48	6360
2026-01-29 16:34:37.61	21.44	6.14	-38.4	-39.7	20.2	0.00e+00	123	30	0	123731968	48	6738
2026-01-29 16:34:41.65	21.18	6.41	-37.7	-38.8	21.1	0.00e+00	123	30	0	136314880	48	6097
2026-01-29 16:34:45.70	20.90	6.69	-36.9	-37.9	21.7	0.00e+00	123	30	0	148897792	46	6196
2026-01-29 16:34:49.73	20.63	6.97	-36.6	-37.7	21.9	0.00e+00	123	30	0	161480704	46	6015
2026-01-29 16:34:53.78	20.34	7.25	-36.7	-37.7	21.8	0.00e+00	122	30	0	174063616	46	6064
2026-01-29 16:34:57.82	20.06	7.53	-36.4	-37.5	22.1	0.00e+00	122	30	0	186646528	46	5882
2026-01-29 16:35:01.86	19.76	7.82	-36.2	-37.2	22.4	0.00e+00	122	30	0	199229440	46	5696
2026-01-29 16:35:05.90	19.46	8.11	-36.1	-37.1	22.4	0.00e+00	123	30	0	211812352	46	5659
2026-01-29 16:35:09.94	19.15	8.40	-36.1	-37.1	22.7	0.00e+00	122	30	0	224395264	46	5613
2026-01-29 16:35:13.98	18.84	8.69	-36.0	-37.0	22.7	0.00e+00	120	30	0	236978176	46	5562
2026-01-29 16:35:18.02	18.52	8.99	-35.6	-36.6	23.0	0.00e+00	120	30	0	249561088	44	5952
2026-01-29 16:35:22.07	18.19	9.28	-35.3	-36.3	23.3	0.00e+00	122	30	0	262144000	44	5764
2026-01-29 16:35:26.10	17.86	9.58	-35.5	-36.4	23.3	0.00e+00	123	30	0	274726912	44	5828
2026-01-29 16:35:30.15	17.52	9.89	-35.2	-36.1	23.4	0.00e+00	122	30	0	288358400	44	5628
2026-01-29 16:35:34.19	17.17	10.20	-35.3	-36.2	23.4	0.00e+00	120	30	0	300941312	44	5697
2026-01-29 16:35:38.23	16.81	10.50	-35.1	-36.0	23.6	0.00e+00	121	30	0	313524224	44	5590
2026-01-29 16:35:42.28	16.44	10.82	-35.0	-36.0	23.6	0.00e+00	123	30	0	326107136	44	5533
2026-01-29 16:35:46.32	16.07	11.13	-35.0	-35.9	23.6	0.00e+00	121	30	0	338690048	44	5496
2026-01-29 16:35:50.36	15.69	11.45	-35.0	-35.9	23.5	0.00e+00	122	30	0	351272960	44	5505
2026-01-29 16:35:54.40	15.30	11.77	-34.9	-35.8	23.8	0.00e+00	123	30	0	363855872	44	5467
2026-01-29 16:35:58.45	14.90	12.09	-35.0	-35.9	23.8	0.00e+00	123	30	0	376438784	42	6189
2026-01-29 16:36:02.49	14.49	12.42	-34.7	-35.6	23.9	0.00e+00	122	30	0	389021696	42	5969
2026-01-29 16:36:06.53	14.07	12.75	-34.8	-35.7	24.0	0.00e+00	123	30	0	401604608	42	6009
2026-01-29 16:36:10.57	13.65	13.08	-34.8	-35.7	24.0	0.00e+00	123	30	0	414187520	42	6021
2026-01-29 16:36:14.61	13.21	13.41	-34.6	-35.5	24.1	0.00e+00	123	30	0	426770432	42	5883
2026-01-29 16:36:18.65	12.76	13.75	-34.7	-35.7	23.9	0.00e+00	120	30	0	439353344	42	6000
2026-01-29 16:36:22.69	12.30	14.09	-34.6	-35.6	24.1	0.00e+00	120	30	0	451936256	42	5929
2026-01-29 16:36:26.73	11.83	14.44	-34.7	-35.6	24.1	0.00e+00	122	30	0	464519168	42	5946
2026-01-29 16:36:30.77	11.35	14.78	-34.6	-35.5	24.1	0.00e+00	122	30	0	477102080	42	5905
2026-01-29 16:36:34.81	10.86	15.13	-34.8	-35.8	23.8	0.00e+00	122	30	0	489684992	42	6072
2026-01-29 16:36:38.86	10.35	15.48	-34.7	-35.7	23.9	0.00e+00	122	30	0	502267904	42	6010
2026-01-29 16:36:42.90	9.83	15.84	-34.9	-35.9	23.8	0.00e+00	123	30	0	514850816	42	6135
2026-01-29 16:36:46.94	9.30	16.20	-35.3	-36.2	23.7	0.00e+00	122	30	0	527433728	42	6398
2026-01-29 16:36:50.98	8.76	16.56	-34.9	-35.8	23.9	0.00e+00	122	30	0	541065216	42	6105
2026-01-29 16:36:55.03	8.20	16.92	-35.5	-36.4	23.4	0.00e+00	123	30	0	553648128	42	6554
2026-01-29 16:36:59.07	7.63	17.29	-35.3	-36.3	23.6	0.00e+00	122	30	0	565182464	42	6444
2026-01-29 16:37:03.09	7.05	17.65	-35.1	-36.1	23.8	0.00e+00	123	30	0	578813952	42	6278
2026-01-29 16:37:07.13	6.45	18.02	-34.6	-35.5	24.1	0.00e+00	123	30	0	591396864	42	5914
2026-01-29 16:37:11.17	5.83	18.39	-34.7	-35.6	24.1	0.00e+00	120	30	0	603979776	42	5986
2026-01-29 16:37:15.21	5.20	18.77	-34.7	-35.6	24.2	0.00e+00	123	30	0	616562688	42	5958
2026-01-29 16:37:19.25	4.55	19.14	-34.4	-35.3	24.5	0.00e+00	120	30	0	629145600	42	5739
2026-01-29 16:37:23.29	3.89	19.52	-33.9	-34.7	24.8	0.00e+00	123	30	0	641728512	42	5387
2026-01-29 16:37:27.34	3.21	19.90	-33.7	-34.5	24.9	0.00e+00	122	30	0	654311424	40	5923
2026-01-29 16:37:31.37	2.51	20.28	-33.8	-34.7	24.8	0.00e+00	123	30	0	666894336	40	6006
2026-01-29 16:37:35.42	1.80	20.67	-33.7	-34.6	24.9	0.00e+00	122	30	0	679477248	40	5929
2026-01-29 16:37:39.45	1.06	21.05	-33.6	-34.5	25.0	0.00e+00	123	30	0	692060160	40	5878
2026-01-29 16:37:43.49	0.31	21.43	-33.6	-34.5	25.0	0.00e+00	123	30	0	704643072	40	5860
2026-01-29 16:37:47.54	359.54	21.82	-33.5	-34.4	25.0	0.00e+00	122	30	0	717225984	40	5830
2026-01-29 16:37:51.58	358.74	22.20	-33.6	-34.5	24.9	0.00e+00	122	30	0	729808896	40	5874
2026-01-29 16:37:55.62	357.93	22.58	-33.5	-34.3	25.0	0.00e+00	122	30	0	742391808	40	5777
2026-01-29 16:37:59.67	357.10	22.97	-33.8	-34.7	24.7	0.00e+00	122	30	0	754974720	40	6003
2026-01-29 16:38:03.71	356.24	23.35	-33.6	-34.5	25.0	0.00e+00	123	30	0	767557632	40	5892
2026-01-29 16:38:07.74	355.37	23.73	-33.3	-34.2	25.1	0.00e+00	123	30	0	780140544	40	5698
2026-01-29 16:38:11.78	354.48	24.11	-33.7	-34.6	25.0	0.00e+00	123	30	0	792723456	40	5936
2026-01-29 16:38:15.82	353.56	24.49	-33.5	-34.4	25.1	0.00e+00	123	30	0	805306368	40	5822
2026-01-29 16:38:19.86	352.62	24.86	-33.6	-34.4	25.0	0.00e+00	122	30	0	817889280	40	5848
2026-01-29 16:38:23.90	351.65	25.23	-33.7	-34.6	24.9	0.00e+00	122	30	0	831520768	40	5934
2026-01-29 16:38:27.94	350.66	25.60	-34.3	-35.2	24.4	0.00e+00	123	30	0	843055104	40	6401
2026-01-29 16:38:31.98	349.65	25.96	-34.7	-35.6	24.3	0.00e+00	120	30	0	856686592	40	6705
2026-01-29 16:38:36.02	348.62	26.31	-34.5	-35.4	24.4	0.00e+00	123	30	0	869269504	42	5813
2026-01-29 16:38:40.06	347.56	26.66	-33.9	-34.8	24.8	0.00e+00	120	30	0	881852416	42	5441
2026-01-29 16:38:44.11	346.48	27.01	-34.3	-35.3	24.4	0.00e+00	123	30	0	894435328	42	5730
2026-01-29 16:38:48.15	345.37	27.34	-34.1	-35.0	24.7	0.00e+00	122	30	0	907018240	42	5548
2026-01-29 16:38:52.19	344.25	27.67	-34.3	-35.2	24.4	0.00e+00	120	30	0	919601152	42	5685
2026-01-29 16:38:56.23	343.09	27.99	-33.9	-34.8	24.9	0.00e+00	122	30	0	932184064	42	5415
2026-01-29 16:39:00.27	341.92	28.30	-34.4	-35.3	24.4	0.00e+00	121	30	0	944766976	42	5755
2026-01-29 16:39:04.31	340.72	28.60	-34.6	-35.5	24.3	0.00e+00	123	30	0	957349888	42	5914
2026-01-29 16:39:08.35	339.50	28.89	-34.6	-35.5	24.3	0.00e+00	122	30	0	969932800	42	5905
2026-01-29 16:39:12.39	338.26	29.17	-34.2	-35.1	24.5	0.00e+00	123	30	0	982515712	42	5596
2026-01-29 16:39:16.43	337.00	29.43	-34.2	-35.0	24.7	0.00e+00	122	30	0	995098624	42	5587
2026-01-29 16:39:20.48	335.71	29.68	-34.5	-35.4	24.3	0.00e+00	123	30	0	1007681536	42	5815
2026-01-29 16:39:24.52	334.41	29.92	-34.7	-35.6	24.2	0.00e+00	122	30	0	1020264448	42	5939
2026-01-29 16:39:28.56	333.09	30.14	-35.0	-35.9	24.1	0.00e+00	123	30	0	1032847360	42	6181
2026-01-29 16:39:32.61	331.74	30.34	-35.0	-35.9	24.1	0.00e+00	123	30	0	1045430272	42	6161
2026-01-29 16:39:36.65	330.38	30.53	-34.9	-35.9	24.1	0.00e+00	120	30	0	1058013184	42	6138
2026-01-29 16:39:40.69	329.01	30.70	-35.0	-35.9	24.1	0.00e+00	122	30	0	1070596096	42	6179
2026-01-29 16:39:44.73	327.63	30.86	-35.3	-36.2	23.8	0.00e+00	123	30	0	1083179008	42	6393
2026-01-29 16:39:48.77	326.23	30.99	-35.5	-36.4	23.8	0.00e+00	123	30	0	1095761920	42	6543
2026-01-29 16:39:52.81	324.82	31.11	-35.1	-36.1	24.0	0.00e+00	122	30	0	1108344832	42	6281
2026-01-29 16:39:56.86	323.40	31.21	-34.7	-35.6	24.2	0.00e+00	122	30	0	1121976320	42	5962
2026-01-29 16:40:00.90	321.97	31.28	-34.6	-35.5	24.4	0.00e+00	122	30	0	1133510656	42	5891
2026-01-29 16:40:04.94	320.53	31.34	-34.8	-35.7	24.2	0.00e+00	123	30	0	1147142144	42	6032
2026-01-29 16:40:08.98	319.10	31.38	-35.0	-36.0	24.1	0.00e+00	122	30	0	1159725056	42	6207
2026-01-29 16:40:13.02	317.66	31.39	-35.5	-36.4	23.7	0.00e+00	123	30	0	1172307968	42	6561
2026-01-29 16:40:17.06	316.22	31.39	-34.7	-35.6	24.3	0.00e+00	120	30	0	1184890880	42	5961
2026-01-29 16:40:21.10	314.78	31.37	-35.3	-36.2	24.0	0.00e+00	122	30	0	1197473792	42	6392
2026-01-29 16:40:25.15	313.34	31.32	-35.2	-36.2	23.8	0.00e+00	122	30	0	1210056704	42	6367
2026-01-29 16:40:29.19	311.90	31.26	-34.7	-35.6	24.4	0.00e+00	122	30	0	1222639616	42	5973
2026-01-29 16:40:33.23	310.48	31.17	-34.6	-35.5	24.2	0.00e+00	123	30	0	1235222528	42	5904
2026-01-29 16:40:37.27	309.06	31.07	-34.9	-35.9	24.1	0.00e+00	123	30	0	1247805440	42	6150
2026-01-29 16:40:41.31	307.66	30.94	-35.0	-36.0	23.8	0.00e+00	123	30	0	1260388352	42	6222
2026-01-29 16:40:45.35	306.26	30.80	-35.1	-36.0	24.1	0.00e+00	120	30	0	1272971264	42	6214
2026-01-29 16:40:49.39	304.88	30.64	-34.7	-35.6	24.3	0.00e+00	123	30	0	1285554176	42	5962
2026-01-29 16:40:53.43	303.51	30.46	-35.2	-36.1	24.0	0.00e+00	122	30	0	1298137088	42	6336
2026-01-29 16:40:57.47	302.16	30.27	-35.1	-36.0	24.2	0.00e+00	122	30	0	1310720000	42	6261
2026-01-29 16:41:01.51	300.82	30.06	-34.8	-35.7	24.1	0.00e+00	123	30	0	1323302912	42	6043
2026-01-29 16:41:05.55	299.50	29.83	-34.9	-35.8	24.2	0.00e+00	120	30	0	1335885824	42	6111
2026-01-29 16:41:09.59	298.20	29.59	-35.2	-36.2	23.9	0.00e+00	123	30	0	1348468736	42	6357
2026-01-29 16:41:13.63	296.93	29.33	-34.8	-35.7	24.3	0.00e+00	122	30	0	1361051648	42	6012
2026-01-29 16:41:17.67	295.67	29.06	-34.7	-35.6	24.5	0.00e+00	123	30	0	1373634560	42	5934
2026-01-29 16:41:21.71	294.43	28.78	-34.6	-35.5	24.5	0.00e+00	122	30	0	1386217472	42	5888
2026-01-29 16:41:25.76	293.21	28.48	-34.4	-35.3	24.7	0.00e+00	123	30	0	1398800384	42	5755
2026-01-29 16:41:29.80	292.02	28.18	-34.6	-35.5	24.4	0.00e+00	120	30	0	1411383296	42	5899
2026-01-29 16:41:33.84	290.85	27.87	-34.1	-35.0	24.6	0.00e+00	122	30	0	1423966208	42	5584
2026-01-29 16:41:37.89	289.71	27.54	-34.6	-35.5	24.3	0.00e+00	123	30	0	1437597696	42	5879
2026-01-29 16:41:41.93	288.58	27.21	-33.9	-34.8	25.0	0.00e+00	122	30	0	1450180608	42	5411
2026-01-29 16:41:45.96	287.49	26.87	-34.0	-34.9	24.8	0.00e+00	123	30	0	1462763520	40	6148
2026-01-29 16:41:50.00	286.41	26.52	-34.1	-35.0	24.5	0.00e+00	123	30	0	1475346432	40	6230
2026-01-29 16:41:54.04	285.36	26.17	-33.5	-34.4	25.1	0.00e+00	123	30	0	1487929344	40	5809
2026-01-29 16:41:58.08	284.33	25.81	-34.2	-35.1	24.6	0.00e+00	122	30	0	1500512256	40	6321
2026-01-29 16:42:02.12	283.33	25.44	-34.2	-35.1	24.7	0.00e+00	120	30	0	1513095168	40	6321
2026-01-29 16:42:06.17	282.34	25.07	-34.6	-35.5	24.4	0.00e+00	122	30	0	1525678080	40	6584
2026-01-29 16:42:10.21	281.39	24.70	-34.8	-35.7	24.3	0.00e+00	123	30	0	1538260992	42	6023
2026-01-29 16:42:14.24	280.45	24.32	-34.2	-35.1	24.7	0.00e+00	123	30	0	1550843904	42	5635
2026-01-29 16:42:18.28	279.54	23.95	-34.5	-35.4	24.4	0.00e+00	123	30	0	1563426816	42	5849
2026-01-29 16:42:22.33	278.65	23.56	-34.2	-35.1	24.6	0.00e+00	123	30	0	1576009728	42	5624
2026-01-29 16:42:26.37	277.78	23.18	-34.4	-35.3	24.7	0.00e+00	123	30	0	1588592640	42	5726
2026-01-29 16:42:30.41	276.93	22.80	-34.1	-34.9	24.9	0.00e+00	123	30	0	1601175552	42	5516
2026-01-29 16:42:34.44	276.10	22.41	-34.1	-35.0	24.7	0.00e+00	122	30	0	1613758464	42	5580
2026-01-29 16:42:38.48	275.29	22.03	-34.0	-34.9	24.8	0.00e+00	122	30	0	1626341376	42	5486
2026-01-29 16:42:42.52	274.51	21.64	-33.9	-34.8	24.9	0.00e+00	122	30	0	1638924288	42	5430
2026-01-29 16:42:46.55	273.74	21.26	-34.3	-35.2	24.5	0.00e+00	121	30	0	1651507200	42	5672
2026-01-29 16:42:50.59	272.99	20.87	-34.4	-35.2	24.6	0.00e+00	123	30	0	1664090112	42	5718
2026-01-29 16:42:54.63	272.26	20.49	-34.6	-35.6	24.3	0.00e+00	120	30	0	1676673024	42	5936
2026-01-29 16:42:58.67	271.55	20.11	-34.3	-35.2	24.4	0.00e+00	123	30	0	1689255936	42	5696
2026-01-29 16:43:02.72	270.85	19.72	-33.8	-34.7	24.9	0.00e+00	123	30	0	1701838848	42	5362
2026-01-29 16:43:06.76	270.18	19.34	-33.7	-34.6	25.0	0.00e+00	123	30	0	1714421760	40	5959
2026-01-29 16:43:10.80	269.52	18.96	-34.3	-35.2	24.6	0.00e+00	123	30	0	1728053248	40	6377
2026-01-29 16:43:14.84	268.87	18.59	-34.6	-35.6	24.3	0.00e+00	123	30	0	1739587584	40	6651
2026-01-29 16:43:18.88	268.25	18.21	-34.6	-35.5	24.3	0.00e+00	123	30	0	1753219072	40	6589
2026-01-29 16:43:22.92	267.63	17.84	-34.6	-35.5	24.4	0.00e+00	123	30	0	1765801984	40	6603
2026-01-29 16:43:26.96	267.04	17.47	-34.9	-35.8	24.0	0.00e+00	123	30	0	1778384896	42	6115
2026-01-29 16:43:30.99	266.46	17.10	-34.5	-35.4	24.2	0.00e+00	122	30	0	1790967808	42	5801
2026-01-29 16:43:35.03	265.89	16.74	-34.3	-35.2	24.5	0.00e+00	120	30	0	1803550720	42	5681
2026-01-29 16:43:39.07	265.33	16.37	-34.8	-35.7	24.1	0.00e+00	122	30	0	1816133632	42	6026
2026-01-29 16:43:43.11	264.79	16.01	-34.9	-35.9	23.9	0.00e+00	123	30	0	1828716544	42	6147
2026-01-29 16:43:47.15	264.26	15.66	-35.0	-36.0	23.8	0.00e+00	123	30	0	1841299456	42	6228
2026-01-29 16:43:51.19	263.75	15.30	-34.9	-35.8	24.0	0.00e+00	123	30	0	1853882368	42	6127
2026-01-29 16:43:55.23	263.24	14.95	-34.8	-35.7	24.1	0.00e+00	120	30	0	1866465280	42	6054
2026-01-29 16:43:59.27	262.75	14.60	-35.1	-36.0	23.8	0.00e+00	122	30	0	1879048192	42	6271
2026-01-29 16:44:03.31	262.27	14.25	-35.2	-36.1	23.7	0.00e+00	123	30	0	1891631104	42	6347
2026-01-29 16:44:07.35	261.81	13.91	-34.9	-35.8	23.8	0.00e+00	123	30	0	1904214016	42	6128
2026-01-29 16:44:11.39	261.35	13.57	-34.6	-35.5	24.2	0.00e+00	123	30	0	1916796928	42	5872
2026-01-29 16:44:15.43	260.90	13.23	-35.0	-36.0	23.9	0.00e+00	122	30	0	1929379840	42	6216
2026-01-29 16:44:19.47	260.46	12.90	-35.6	-36.5	23.4	0.00e+00	123	30	0	1941962752	42	6618
2026-01-29 16:44:23.51	260.04	12.57	-35.9	-36.9	23.0	0.00e+00	122	30	0	1954545664	44	6148
2026-01-29 16:44:27.55	259.62	12.24	-35.8	-36.7	23.1	0.00e+00	122	30	0	1967128576	44	6055
2026-01-29 16:44:31.59	259.21	11.91	-35.6	-36.5	23.4	0.00e+00	127	30	0	1979711488	44	5907
2026-01-29 16:44:35.62	258.82	11.59	-35.4	-36.3	23.4	0.00e+00	123	30	0	1992294400	44	5766
2026-01-29 16:44:39.66	258.43	11.27	-35.7	-36.7	23.2	0.00e+00	122	30	0	2004877312	44	6008
2026-01-29 16:44:43.70	258.04	10.95	-36.8	-37.9	22.2	0.00e+00	122	30	0	2017460224	46	6157
2026-01-29 16:44:47.74	257.67	10.64	-36.6	-37.7	22.4	0.00e+00	122	30	0	2030043136	46	6018
2026-01-29 16:44:51.78	257.31	10.32	-36.4	-37.4	22.5	0.00e+00	120	30	0	2042626048	46	5842
2026-01-29 16:44:55.82	256.95	10.02	-36.2	-37.2	22.7	0.00e+00	120	30	0	2055208960	46	5693
2026-01-29 16:44:59.86	256.60	9.71	-36.1	-37.1	22.8	0.00e+00	122	30	0	2068840448	46	5607
2026-01-29 16:45:03.90	256.26	9.41	-36.3	-37.3	22.7	0.00e+00	122	30	0	2080374784	46	5740
2026-01-29 16:45:07.94	255.93	9.10	-36.4	-37.4	22.5	0.00e+00	122	30	0	2094006272	46	5830
2026-01-29 16:45:11.98	255.60	8.81	-36.8	-37.9	22.1	0.00e+00	122	30	0	2106589184	46	6157
2026-01-29 16:45:16.02	255.28	8.51	-37.1	-38.2	21.8	0.00e+00	123	30	0	2119172096	46	6394
2026-01-29 16:45:20.06	254.96	8.22	-37.0	-38.1	21.7	0.00e+00	122	30	0	2131755008	46	6319
2026-01-29 16:45:24.10	254.66	7.93	-36.8	-37.8	22.1	0.00e+00	122	30	0	2144337920	46	6084
2026-01-29 16:45:28.14	254.36	7.64	-36.5	-37.5	22.3	0.00e+00	123	30	0	2156920832	46	5876
2026-01-29 16:45:32.18	254.06	7.35	-36.5	-37.5	22.4	0.00e+00	123	30	0	2169503744	46	5908
2026-01-29 16:45:36.21	253.77	7.07	-36.7	-37.7	22.1	0.00e+00	120	30	0	2182086656	46	6055
2026-01-29 16:45:40.26	253.49	6.79	-36.7	-37.8	22.1	0.00e+00	123	30	0	2194669568	46	6066
2026-01-29 16:45:44.30	253.21	6.51	-37.2	-38.3	21.6	0.00e+00	122	30	0	2207252480	46	6437
2026-01-29 16:45:48.34	252.94	6.24	-37.4	-38.6	21.3	0.00e+00	123	30	0	2219835392	46	6650
2026-01-29 16:45:52.38	252.67	5.96	-37.7	-38.8	21.0	0.00e+00	122	30	0	2232418304	48	6130
2026-01-29 16:45:56.42	252.41	5.69	-37.6	-38.7	21.1	0.00e+00	123	30	0	2245001216	48	6031
2026-01-29 16:46:00.46	252.15	5.42	-37.6	-38.7	21.0	0.00e+00	120	30	0	2257584128	48	6040
2026-01-29 16:46:04.50	251.90	5.15	-37.6	-38.8	20.9	0.00e+00	123	30	0	2270167040	48	6085
2026-01-29 16:46:08.54	251.65	4.89	-37.5	-38.6	20.9	0.00e+00	123	30	0	2282749952	48	5955
2026-01-29 16:46:12.58	251.41	4.63	-37.5	-38.6	21.0	0.00e+00	123	30	0	2295332864	48	5960
2026-01-29 16:46:16.62	251.17	4.37	-37.3	-38.3	21.2	0.00e+00	122	30	0	2307915776	48	5791
2026-01-29 16:46:20.66	250.94	4.11	-37.6	-38.8	20.9	0.00e+00	122	30	0	2320498688	48	6075
2026-01-29 16:46:24.70	250.71	3.85	-37.8	-39.0	20.5	0.00e+00	123	30	0	2333081600	48	6217
2026-01-29 16:46:28.75	250.48	3.60	-38.3	-39.6	19.9	0.00e+00	122	30	0	2345664512	48	6675
2026-01-29 16:46:32.79	250.26	3.34	-38.9	-40.2	19.3	0.00e+00	123	30	0	2358247424	48	7190
2026-01-29 16:46:36.83	250.04	3.09	-39.3	-40.7	19.1	0.00e+00	123	30	0	2370830336	50	6727
2026-01-29 16:46:40.86	249.83	2.84	-48.6	-61.4	3.5	1.52e+00	0	30	104	2376073216	60	41468
2026-01-29 16:46:44.91	249.62	2.60	-48.9	-61.7	3.5	1.52e+00	0	30	104	2376073216	60	42689
2026-01-29 16:46:48.95	249.41	2.35	-49.0	-61.9	3.5	1.52e+00	0	30	104	2376073216	60	43497
2026-01-29 16:46:52.98	249.21	2.11	-48.9	-61.8	3.5	1.52e+00	0	30	104	2376073216	60	43269
2026-01-29 16:46:57.02	249.01	1.87	-48.9	-61.7	3.5	1.52e+00	0	30	104	2376073216	60	42759
2026-01-29 16:47:01.06	248.82	1.63	-48.8	-61.7	3.5	1.52e+00	0	30	104	2376073216	60	42452
2026-01-29 16:47:05.10	248.63	1.39	-48.8	-61.7	3.5	1.52e+00	0	30	104	2376073216	60	42789
2026-01-29 16:47:09.14	248.44	1.15	-48.8	-61.7	3.5	1.52e+00	0	30	104	2376073216	60	42744
2026-01-29 16:47:13.17	248.25	0.92	-48.8	-61.7	3.5	1.52e+00	0	30	104	2376073216	60	42672
2026-01-29 16:47:17.21	248.07	0.68	-48.8	-61.7	3.5	1.51e+00	0	30	104	2376073216	60	42905
2026-01-29 16:47:21.25	247.89	0.45	-48.8	-61.7	3.5	1.52e+00	0	30	104	2376073216	60	42834
2026-01-29 16:47:25.29	247.71	0.22	-48.8	-61.8	3.5	1.52e+00	0	30	104	2376073216	60	42961
2026-01-29 16:47:29.33	247.54	-0.01	-48.8	-61.7	3.6	1.52e+00	0	30	104	2376073216	60	42706

#Closed at: 2026-01-29 16:47:31
#Recorded file [2376 MB]: D:/lorett/data/35029_260130_043300.dat