passes_logs/2026/01/29/R4.6S_Anadyr/R4.6S_Anadyr__20260129_204037_NOAA_20_JPSS-1_rec.log

#Pass ID: 20260129_204037_NOAA 20 (JPSS-1)
#Satellite: NOAA 20 (JPSS-1)
#Configuration: NOAA 20
#almurnet v.1.7.20251203
#Start time: 2026-01-29 20:40:39

#Version: 2.2.20231116
#Station: R4.6S_Anadyr
#Location: 177.4865 lon 64.73178 lat
#TLE: 1 43013U 17073A   26028.86313978  .00000144  00000+0  89200-4 0  9993
#TLE: 2 43013  98.7648 329.6571 0000891  20.0014 340.1197 14.19541559424709

#Time	Az	El	Level	Level2	SNR	BER	BlckErr	Temp	State	Recorded	gain1	gain2
2026-01-29 20:40:39.12	74.60	0.06	-49.1	-64.0	3.6	1.51e+00	0	31	0	0	60	57309
2026-01-29 20:40:43.17	74.31	0.27	-49.1	-64.3	3.6	1.51e+00	0	33	104	0	60	59521
2026-01-29 20:40:47.21	74.02	0.47	-49.0	-64.3	3.6	1.51e+00	0	33	104	0	60	59382
2026-01-29 20:40:51.25	73.73	0.68	-49.2	-64.4	3.6	1.51e+00	0	33	104	0	60	59745
2026-01-29 20:40:55.29	73.43	0.88	-49.1	-64.4	3.6	1.51e+00	0	33	104	0	60	60008
2026-01-29 20:40:59.33	73.13	1.09	-48.8	-64.1	3.6	1.51e+00	0	33	104	0	60	58093
2026-01-29 20:41:03.37	72.83	1.30	-48.2	-63.4	3.6	1.51e+00	0	33	104	0	60	53514
2026-01-29 20:41:07.41	72.52	1.50	-47.5	-62.8	3.6	1.51e+00	0	33	104	0	60	49645
2026-01-29 20:41:11.45	72.20	1.71	-47.5	-62.7	3.6	1.51e+00	0	33	104	0	60	49298
2026-01-29 20:41:15.49	71.88	1.92	-47.5	-62.7	3.6	1.51e+00	0	33	104	0	60	49311
2026-01-29 20:41:19.52	71.56	2.13	-47.5	-62.7	3.6	1.51e+00	0	33	104	0	60	49374
2026-01-29 20:41:23.57	71.23	2.34	-47.5	-62.7	3.6	1.51e+00	0	33	104	0	60	49146
2026-01-29 20:41:27.61	70.89	2.55	-47.5	-62.7	3.6	1.51e+00	0	33	104	0	60	49091
2026-01-29 20:41:31.65	70.55	2.76	-47.5	-62.0	3.6	1.51e+00	0	33	104	0	60	45662
2026-01-29 20:41:35.69	70.21	2.98	-47.0	-55.6	6.1	4.39e-01	92	33	104	0	60	21825
2026-01-29 20:41:39.73	69.86	3.19	-44.0	-46.9	15.2	1.32e+00	11	33	104	4194304	60	7992
2026-01-29 20:41:43.77	69.51	3.40	-44.2	-47.3	14.4	8.44e-02	0	34	104	6291456	60	8417
2026-01-29 20:41:47.81	69.15	3.62	-44.7	-48.0	13.7	2.20e-06	92	33	0	13631488	60	9101
2026-01-29 20:41:51.85	68.78	3.83	-44.4	-47.5	14.6	0.00e+00	92	33	0	20971520	60	8556
2026-01-29 20:41:55.89	68.41	4.05	-42.4	-44.3	17.5	0.00e+00	6	33	0	28311552	58	6690
2026-01-29 20:41:59.93	68.03	4.26	-42.4	-44.2	17.8	0.00e+00	6	33	0	35651584	58	6613
2026-01-29 20:42:03.96	67.65	4.48	-42.5	-44.4	17.4	0.00e+00	92	33	0	42991616	58	6764
2026-01-29 20:42:08.00	67.26	4.70	-42.4	-44.2	17.8	0.00e+00	90	33	0	51380224	58	6609
2026-01-29 20:42:12.05	66.87	4.91	-42.5	-44.4	17.7	0.00e+00	7	34	0	58720256	58	6728
2026-01-29 20:42:16.08	66.47	5.13	-42.3	-44.1	18.0	0.00e+00	92	33	0	66060288	58	6518
2026-01-29 20:42:20.12	66.06	5.35	-42.4	-44.2	17.9	0.00e+00	92	33	0	73400320	58	6592
2026-01-29 20:42:24.16	65.65	5.57	-42.1	-43.8	18.3	0.00e+00	92	34	0	81788928	58	6311
2026-01-29 20:42:28.20	65.23	5.79	-42.1	-43.8	18.4	0.00e+00	58	34	0	89128960	58	6271
2026-01-29 20:42:32.24	64.80	6.01	-41.6	-43.2	18.9	0.00e+00	92	34	0	96468992	56	6540
2026-01-29 20:42:36.28	64.37	6.23	-41.9	-43.5	18.7	0.00e+00	92	34	0	103809024	56	6836
2026-01-29 20:42:40.32	63.93	6.45	-41.6	-43.1	19.3	0.00e+00	92	34	0	111149056	56	6488
2026-01-29 20:42:44.35	63.49	6.67	-41.7	-43.2	19.1	0.00e+00	26	34	0	119537664	56	6612
2026-01-29 20:42:48.40	63.03	6.89	-41.0	-42.4	19.9	0.00e+00	92	34	0	126877696	56	6004
2026-01-29 20:42:52.43	62.57	7.11	-41.4	-42.8	19.5	0.00e+00	91	34	0	134217728	56	6291
2026-01-29 20:42:56.47	62.11	7.33	-41.1	-42.5	19.9	0.00e+00	88	34	0	141557760	56	6065
2026-01-29 20:43:00.51	61.63	7.55	-40.8	-42.1	20.3	0.00e+00	0	34	0	149946368	56	5787
2026-01-29 20:43:04.55	61.15	7.77	-40.8	-42.1	20.2	0.00e+00	92	34	0	157286400	54	6493
2026-01-29 20:43:08.59	60.66	7.99	-41.1	-42.4	19.9	0.00e+00	91	34	0	164626432	54	6766
2026-01-29 20:43:12.63	60.16	8.21	-40.9	-42.2	20.3	0.00e+00	67	34	0	171966464	54	6594
2026-01-29 20:43:16.67	59.66	8.44	-40.9	-42.3	20.1	0.00e+00	66	34	0	179306496	54	6629
2026-01-29 20:43:20.71	59.14	8.66	-40.7	-42.0	20.4	0.00e+00	90	34	0	187695104	54	6394
2026-01-29 20:43:24.75	58.62	8.88	-40.5	-41.7	20.7	0.00e+00	91	34	0	195035136	54	6242
2026-01-29 20:43:28.79	58.09	9.10	-40.5	-41.8	20.6	0.00e+00	47	34	0	202375168	54	6251
2026-01-29 20:43:32.83	57.56	9.32	-40.4	-41.6	20.8	0.00e+00	24	34	0	209715200	54	6157
2026-01-29 20:43:36.87	57.01	9.53	-40.4	-41.6	20.9	0.00e+00	92	34	0	218103808	54	6150
2026-01-29 20:43:40.91	56.46	9.75	-40.4	-41.6	20.9	0.00e+00	92	34	0	225443840	54	6154
2026-01-29 20:43:44.95	55.90	9.97	-40.7	-41.9	20.6	0.00e+00	0	34	0	232783872	54	6387
2026-01-29 20:43:48.99	55.32	10.19	-40.5	-41.7	20.8	0.00e+00	92	34	0	240123904	54	6200
2026-01-29 20:43:53.03	54.75	10.40	-40.3	-41.5	21.0	0.00e+00	92	34	0	247463936	54	6084
2026-01-29 20:43:57.07	54.16	10.62	-40.5	-41.7	20.8	0.00e+00	92	34	0	255852544	54	6221
2026-01-29 20:44:01.11	53.56	10.83	-40.6	-41.9	20.7	0.00e+00	0	34	0	263192576	54	6325
2026-01-29 20:44:05.15	52.95	11.04	-40.5	-41.8	20.8	0.00e+00	92	34	0	270532608	54	6256
2026-01-29 20:44:09.19	52.34	11.26	-40.2	-41.4	21.3	0.00e+00	92	34	0	277872640	54	5983
2026-01-29 20:44:13.23	51.71	11.46	-40.0	-41.2	21.5	0.00e+00	80	34	0	286261248	54	5834
2026-01-29 20:44:17.27	51.08	11.67	-39.9	-41.1	21.6	0.00e+00	59	34	0	293601280	54	5774
2026-01-29 20:44:21.31	50.44	11.88	-39.3	-40.3	22.3	0.00e+00	92	34	0	300941312	52	5937
2026-01-29 20:44:25.35	49.79	12.08	-38.9	-39.9	22.7	0.00e+00	92	34	0	308281344	52	5666
2026-01-29 20:44:29.39	49.13	12.29	-38.8	-39.8	22.7	0.00e+00	33	34	0	316669952	52	5611
2026-01-29 20:44:33.43	48.46	12.49	-38.8	-39.7	22.8	0.00e+00	55	34	0	324009984	52	5563
2026-01-29 20:44:37.47	47.78	12.68	-38.8	-39.7	22.7	0.00e+00	90	34	0	331350016	50	6241
2026-01-29 20:44:41.51	47.09	12.88	-38.5	-39.4	23.0	0.00e+00	90	34	0	338690048	50	6008
2026-01-29 20:44:45.55	46.39	13.07	-38.1	-39.0	23.5	0.00e+00	34	34	0	346030080	50	5745
2026-01-29 20:44:49.59	45.69	13.26	-38.2	-39.1	23.4	0.00e+00	0	34	0	354418688	50	5811
2026-01-29 20:44:53.63	44.97	13.45	-38.0	-38.9	23.6	0.00e+00	90	34	0	361758720	50	5634
2026-01-29 20:44:57.67	44.24	13.63	-37.9	-38.8	23.7	0.00e+00	90	34	0	369098752	50	5572
2026-01-29 20:45:01.71	43.51	13.82	-38.2	-39.1	23.4	0.00e+00	6	34	0	376438784	50	5802
2026-01-29 20:45:05.75	42.77	13.99	-38.4	-39.3	23.2	0.00e+00	92	34	0	384827392	50	5928
2026-01-29 20:45:09.79	42.01	14.17	-38.3	-39.3	23.2	0.00e+00	90	34	0	392167424	50	5900
2026-01-29 20:45:13.83	41.25	14.34	-38.3	-39.2	23.3	0.00e+00	46	34	0	399507456	50	5878
2026-01-29 20:45:17.87	40.48	14.50	-38.3	-39.3	23.3	0.00e+00	47	34	0	406847488	50	5897
2026-01-29 20:45:21.90	39.71	14.66	-38.0	-38.9	23.7	0.00e+00	92	34	0	414187520	50	5694
2026-01-29 20:45:25.94	38.92	14.82	-38.2	-39.1	23.4	0.00e+00	92	34	0	422576128	50	5813
2026-01-29 20:45:29.98	38.13	14.98	-38.0	-38.9	23.6	0.00e+00	34	34	0	429916160	50	5644
2026-01-29 20:45:34.02	37.32	15.12	-37.9	-38.8	23.8	0.00e+00	34	34	0	437256192	48	6271
2026-01-29 20:45:38.05	36.51	15.27	-37.7	-38.6	23.8	0.00e+00	92	34	0	444596224	48	6124
2026-01-29 20:45:42.09	35.69	15.41	-37.7	-38.5	23.9	0.00e+00	92	34	0	452984832	48	6083
2026-01-29 20:45:46.13	34.87	15.54	-37.6	-38.4	24.0	0.00e+00	0	34	0	460324864	48	6022
2026-01-29 20:45:50.17	34.03	15.67	-37.8	-38.7	23.8	0.00e+00	35	34	0	467664896	48	6181
2026-01-29 20:45:54.21	33.19	15.79	-37.9	-38.8	23.7	0.00e+00	92	34	0	475004928	48	6260
2026-01-29 20:45:58.25	32.34	15.91	-37.8	-38.6	23.8	0.00e+00	92	34	0	482344960	48	6163
2026-01-29 20:46:02.29	31.49	16.02	-37.9	-38.8	23.6	0.00e+00	0	34	0	490733568	48	6296
2026-01-29 20:46:06.33	30.63	16.12	-38.2	-39.1	23.6	0.00e+00	0	34	0	498073600	48	6473
2026-01-29 20:46:10.37	29.76	16.22	-38.1	-39.0	23.4	0.00e+00	91	34	0	505413632	48	6457
2026-01-29 20:46:14.40	28.89	16.31	-38.7	-39.6	23.1	0.00e+00	91	34	0	512753664	48	6909
2026-01-29 20:46:18.44	28.02	16.40	-38.5	-39.4	23.2	0.00e+00	0	34	0	521142272	48	6749
2026-01-29 20:46:22.48	27.13	16.48	-38.2	-39.1	23.5	0.00e+00	0	34	0	528482304	48	6526
2026-01-29 20:46:26.52	26.25	16.55	-38.3	-39.2	23.4	0.00e+00	0	34	0	535822336	48	6576
2026-01-29 20:46:30.56	25.36	16.62	-38.4	-39.3	23.4	0.00e+00	33	34	0	543162368	48	6631
2026-01-29 20:46:34.60	24.46	16.67	-38.6	-39.5	23.1	0.00e+00	52	34	0	550502400	48	6837
2026-01-29 20:46:38.64	23.56	16.73	-38.6	-39.5	23.1	0.00e+00	90	34	0	558891008	48	6825
2026-01-29 20:46:42.68	22.66	16.77	-38.9	-39.9	22.8	0.00e+00	6	34	0	566231040	50	6333
2026-01-29 20:46:46.72	21.76	16.81	-39.0	-40.0	22.8	0.00e+00	0	34	0	573571072	50	6430
2026-01-29 20:46:50.76	20.86	16.84	-38.6	-39.6	23.1	0.00e+00	0	34	0	580911104	50	6107
2026-01-29 20:46:54.80	19.95	16.86	-38.6	-39.5	23.1	0.00e+00	92	34	0	589299712	50	6093
2026-01-29 20:46:58.85	19.04	16.88	-38.6	-39.5	23.0	0.00e+00	46	34	0	596639744	50	6075
2026-01-29 20:47:02.89	18.13	16.88	-39.1	-40.1	22.6	0.00e+00	0	34	0	603979776	50	6523
2026-01-29 20:47:06.93	17.22	16.88	-38.8	-39.8	23.0	0.00e+00	0	34	0	611319808	50	6284
2026-01-29 20:47:10.97	16.31	16.88	-38.5	-39.4	23.2	0.00e+00	90	34	0	618659840	50	5999
2026-01-29 20:47:15.01	15.41	16.86	-38.5	-39.4	23.2	0.00e+00	0	34	0	627048448	50	6005
2026-01-29 20:47:19.05	14.50	16.84	-38.8	-39.7	23.1	0.00e+00	48	34	0	634388480	50	6209
2026-01-29 20:47:23.09	13.59	16.81	-38.4	-39.3	23.3	0.00e+00	0	34	0	641728512	50	5955
2026-01-29 20:47:27.13	12.69	16.78	-38.1	-39.0	23.5	0.00e+00	91	34	0	649068544	50	5756
2026-01-29 20:47:31.17	11.79	16.74	-38.2	-39.1	23.4	0.00e+00	0	34	0	657457152	50	5804
2026-01-29 20:47:35.21	10.89	16.69	-38.1	-39.0	23.6	0.00e+00	47	34	0	664797184	50	5755
2026-01-29 20:47:39.25	10.00	16.63	-37.9	-38.8	23.9	0.00e+00	0	34	0	672137216	50	5589
2026-01-29 20:47:43.29	9.11	16.56	-37.7	-38.6	23.9	0.00e+00	55	34	0	679477248	48	6127
2026-01-29 20:47:47.33	8.22	16.49	-37.5	-38.3	24.1	0.00e+00	0	34	0	686817280	48	5946
2026-01-29 20:47:51.37	7.34	16.42	-38.0	-38.9	23.7	0.00e+00	0	34	0	695205888	48	6349
2026-01-29 20:47:55.41	6.46	16.33	-38.0	-38.9	23.8	0.00e+00	27	34	0	702545920	48	6340
2026-01-29 20:47:59.45	5.59	16.24	-38.0	-38.9	23.7	0.00e+00	30	34	0	709885952	48	6333
2026-01-29 20:48:03.49	4.72	16.14	-38.2	-39.1	23.6	0.00e+00	0	34	0	717225984	48	6519
2026-01-29 20:48:07.53	3.86	16.04	-38.3	-39.2	23.6	0.00e+00	6	34	0	725614592	48	6548
2026-01-29 20:48:11.57	3.00	15.93	-38.5	-39.5	23.1	0.00e+00	92	34	0	732954624	50	6055
2026-01-29 20:48:15.61	2.15	15.81	-38.6	-39.5	23.3	0.00e+00	54	34	0	740294656	50	6068
2026-01-29 20:48:19.65	1.31	15.69	-38.6	-39.5	23.2	0.00e+00	7	34	0	747634688	50	6087
2026-01-29 20:48:23.68	0.48	15.57	-38.6	-39.6	23.1	0.00e+00	51	34	0	754974720	50	6127
2026-01-29 20:48:27.72	359.65	15.43	-38.2	-39.1	23.5	0.00e+00	90	34	0	763363328	50	5783
2026-01-29 20:48:31.76	358.83	15.30	-38.2	-39.1	23.5	0.00e+00	32	34	0	770703360	50	5778
2026-01-29 20:48:35.80	358.02	15.16	-38.4	-39.3	23.0	0.00e+00	33	34	0	778043392	50	5936
2026-01-29 20:48:39.84	357.22	15.01	-38.4	-39.3	23.4	0.00e+00	53	34	0	785383424	50	5919
2026-01-29 20:48:43.87	356.42	14.86	-38.5	-39.4	23.3	0.00e+00	91	34	0	793772032	50	6015
2026-01-29 20:48:47.91	355.64	14.70	-38.1	-39.0	23.6	0.00e+00	0	34	0	801112064	50	5723
2026-01-29 20:48:51.95	354.86	14.54	-38.3	-39.3	23.3	0.00e+00	33	34	0	808452096	50	5902
2026-01-29 20:48:56.00	354.09	14.37	-38.7	-39.6	23.1	0.00e+00	30	34	0	815792128	50	6172
2026-01-29 20:49:00.04	353.32	14.20	-38.3	-39.2	23.3	0.00e+00	92	34	0	823132160	50	5874
2026-01-29 20:49:04.08	352.57	14.03	-38.7	-39.6	23.1	0.00e+00	51	34	0	831520768	50	6143
2026-01-29 20:49:08.11	351.83	13.86	-38.9	-39.9	22.9	0.00e+00	2	34	0	838860800	50	6318
2026-01-29 20:49:12.15	351.09	13.68	-39.1	-40.1	22.7	0.00e+00	0	34	0	846200832	50	6488
2026-01-29 20:49:16.19	350.37	13.49	-39.3	-40.3	22.4	0.00e+00	92	34	0	853540864	50	6687
2026-01-29 20:49:20.22	349.65	13.31	-39.5	-40.5	22.1	0.00e+00	34	34	0	861929472	50	6822
2026-01-29 20:49:24.27	348.94	13.12	-39.9	-41.0	21.7	0.00e+00	48	34	0	869269504	52	6464
2026-01-29 20:49:28.31	348.25	12.92	-40.2	-41.4	21.4	0.00e+00	21	34	0	876609536	52	6740
2026-01-29 20:49:32.34	347.56	12.73	-39.9	-41.0	21.6	0.00e+00	44	34	0	883949568	52	6430
2026-01-29 20:49:36.38	346.88	12.53	-40.4	-41.6	21.2	0.00e+00	0	34	0	891289600	52	6913
2026-01-29 20:49:40.42	346.21	12.33	-40.4	-41.6	21.1	0.00e+00	26	34	0	899678208	52	6907
2026-01-29 20:49:44.46	345.55	12.13	-40.5	-41.7	21.0	0.00e+00	92	34	0	907018240	52	6991
2026-01-29 20:49:48.49	344.90	11.93	-40.7	-42.0	20.7	0.00e+00	0	34	0	914358272	54	6456
2026-01-29 20:49:52.53	344.25	11.72	-40.9	-42.2	20.5	0.00e+00	0	34	0	921698304	54	6602
2026-01-29 20:49:56.57	343.62	11.52	-40.7	-42.0	20.7	0.00e+00	30	34	0	930086912	54	6451
2026-01-29 20:50:00.60	343.00	11.31	-40.9	-42.2	20.6	0.00e+00	92	34	0	937426944	54	6563
2026-01-29 20:50:04.64	342.38	11.10	-40.9	-42.2	20.5	0.00e+00	56	34	0	944766976	54	6585
2026-01-29 20:50:08.68	341.78	10.88	-40.5	-41.7	21.2	0.00e+00	6	34	0	952107008	54	6216
2026-01-29 20:50:12.72	341.18	10.67	-40.3	-41.5	21.2	0.00e+00	7	34	0	959447040	54	6058
2026-01-29 20:50:16.75	340.59	10.46	-40.0	-41.2	21.4	0.00e+00	92	34	0	967835648	54	5845
2026-01-29 20:50:20.79	340.01	10.24	-39.9	-41.0	21.6	0.00e+00	30	34	0	975175680	54	5745
2026-01-29 20:50:24.83	339.44	10.03	-39.7	-40.8	21.8	0.00e+00	32	34	0	982515712	52	6305
2026-01-29 20:50:28.87	338.88	9.81	-39.6	-40.7	21.9	0.00e+00	0	34	0	989855744	52	6186
2026-01-29 20:50:32.91	338.32	9.59	-39.0	-40.0	22.4	0.00e+00	92	34	0	998244352	52	5747
2026-01-29 20:50:36.94	337.78	9.37	-39.0	-40.1	22.5	0.00e+00	29	34	0	1005584384	52	5779
2026-01-29 20:50:40.98	337.24	9.15	-38.8	-39.8	22.6	0.00e+00	0	34	0	1012924416	50	6267
2026-01-29 20:50:45.02	336.71	8.94	-38.6	-39.6	22.9	0.00e+00	64	34	0	1020264448	50	6128
2026-01-29 20:50:49.06	336.19	8.72	-38.7	-39.6	22.9	0.00e+00	92	34	0	1027604480	50	6171
2026-01-29 20:50:53.10	335.68	8.50	-38.8	-39.8	22.2	0.00e+00	0	34	0	1035993088	50	6268
2026-01-29 20:50:57.13	335.17	8.28	-38.9	-39.9	22.4	0.00e+00	0	34	0	1043333120	50	6370
2026-01-29 20:51:01.17	334.68	8.05	-38.9	-39.9	22.4	0.00e+00	0	34	0	1050673152	50	6351
2026-01-29 20:51:05.21	334.19	7.83	-39.2	-40.2	22.1	0.00e+00	92	34	0	1058013184	50	6596
2026-01-29 20:51:09.25	333.70	7.61	-39.4	-40.5	21.8	0.00e+00	56	34	0	1066401792	50	6809
2026-01-29 20:51:13.28	333.23	7.39	-39.3	-40.4	21.7	0.00e+00	0	34	0	1073741824	50	6757
2026-01-29 20:51:17.32	332.76	7.17	-39.2	-40.3	21.9	0.00e+00	90	34	0	1081081856	50	6634
2026-01-29 20:51:21.37	332.30	6.95	-39.2	-40.3	21.9	0.00e+00	61	34	0	1088421888	50	6644
2026-01-29 20:51:25.40	331.85	6.73	-39.4	-40.5	21.7	0.00e+00	24	34	0	1095761920	50	6796
2026-01-29 20:51:29.44	331.40	6.51	-39.7	-40.8	21.4	0.00e+00	55	34	0	1104150528	50	7086
2026-01-29 20:51:33.48	330.96	6.29	-40.0	-41.2	21.1	0.00e+00	92	34	0	1111490560	52	6577
2026-01-29 20:51:37.53	330.53	6.07	-40.2	-41.4	20.7	0.00e+00	0	34	0	1118830592	52	6752
2026-01-29 20:51:41.56	330.10	5.85	-40.4	-41.7	20.5	0.00e+00	0	34	0	1126170624	52	6965
2026-01-29 20:51:45.60	329.69	5.63	-40.6	-41.8	20.6	0.00e+00	4	34	0	1134559232	52	7078
2026-01-29 20:51:49.64	329.27	5.41	-40.8	-42.1	20.2	0.00e+00	92	34	0	1141899264	54	6507
2026-01-29 20:51:53.67	328.87	5.20	-41.3	-42.7	19.6	0.00e+00	7	34	0	1149239296	54	6974
2026-01-29 20:51:57.71	328.47	4.98	-41.0	-42.4	19.9	0.00e+00	2	34	0	1156579328	54	6762
2026-01-29 20:52:01.75	328.07	4.76	-41.3	-42.8	19.5	0.00e+00	27	34	0	1163919360	54	7015
2026-01-29 20:52:05.79	327.68	4.54	-41.3	-42.8	19.3	0.00e+00	92	34	0	1172307968	54	7042
2026-01-29 20:52:09.82	327.30	4.33	-41.7	-43.3	18.6	0.00e+00	55	34	0	1179648000	54	7471
2026-01-29 20:52:13.86	326.93	4.11	-41.6	-43.2	18.8	0.00e+00	0	34	0	1186988032	56	6578
2026-01-29 20:52:17.89	326.56	3.90	-41.5	-43.1	18.9	0.00e+00	0	34	0	1194328064	56	6519
2026-01-29 20:52:21.93	326.19	3.68	-41.8	-43.5	18.4	0.00e+00	92	34	0	1201668096	56	6831
2026-01-29 20:52:25.97	325.83	3.47	-41.9	-43.6	18.3	0.00e+00	26	34	0	1210056704	56	6918
2026-01-29 20:52:30.01	325.48	3.26	-42.5	-44.4	17.7	0.00e+00	57	35	0	1217396736	56	7542
2026-01-29 20:52:34.05	325.13	3.04	-42.4	-44.3	17.6	0.00e+00	76	35	0	1224736768	56	7490
2026-01-29 20:52:38.10	324.78	2.83	-48.9	-64.0	3.6	1.51e+00	0	35	104	1225785344	60	57590
2026-01-29 20:52:42.14	324.45	2.62	-49.3	-64.4	3.6	1.51e+00	0	34	104	1225785344	60	60010
2026-01-29 20:52:46.18	324.11	2.41	-49.3	-64.5	3.6	1.51e+00	0	35	104	1225785344	60	60671
2026-01-29 20:52:50.22	323.78	2.20	-48.7	-64.4	3.6	1.51e+00	0	35	104	1225785344	60	59900
2026-01-29 20:52:54.26	323.46	1.99	-49.1	-64.3	3.6	1.51e+00	0	35	104	1225785344	60	59203
2026-01-29 20:52:58.30	323.14	1.78	-49.2	-64.3	3.6	1.51e+00	0	35	104	1225785344	60	59429
2026-01-29 20:53:02.34	322.83	1.57	-49.2	-64.4	3.6	1.51e+00	0	35	104	1225785344	60	60129
2026-01-29 20:53:06.38	322.52	1.36	-49.2	-64.4	3.6	1.51e+00	0	35	104	1225785344	60	59753
2026-01-29 20:53:10.42	322.21	1.16	-49.1	-64.4	3.6	1.51e+00	0	34	104	1225785344	60	59707
2026-01-29 20:53:14.46	321.91	0.95	-49.1	-64.3	3.6	1.51e+00	0	35	104	1225785344	60	59563
2026-01-29 20:53:18.50	321.61	0.74	-49.1	-64.3	3.6	1.51e+00	0	35	104	1225785344	60	59299
2026-01-29 20:53:22.54	321.32	0.54	-49.1	-64.3	3.6	1.51e+00	0	35	104	1225785344	60	59463
2026-01-29 20:53:26.59	321.03	0.34	-49.1	-64.3	3.6	1.51e+00	0	35	104	1225785344	60	59527
2026-01-29 20:53:30.63	320.75	0.13	-49.1	-64.3	3.6	1.51e+00	0	35	104	1225785344	60	59427

#Closed at: 2026-01-29 20:53:33
#Recorded file [1225 MB]: D:/lorett/data/35029_260130_084039.dat