passes_logs/2026/01/29/R4.6S_Anadyr/R4.6S_Anadyr__20260129_154300_NOAA_20_JPSS-1_rec.log

#Pass ID: 20260129_154300_NOAA 20 (JPSS-1)
#Satellite: NOAA 20 (JPSS-1)
#Configuration: NOAA 20
#almurnet v.1.7.20251203
#Start time: 2026-01-29 15:43:03

#Version: 2.2.20231116
#Station: R4.6S_Anadyr
#Location: 177.4865 lon 64.73178 lat
#TLE: 1 43013U 17073A   26028.86313978  .00000144  00000+0  89200-4 0  9993
#TLE: 2 43013  98.7648 329.6571 0000891  20.0014 340.1197 14.19541559424709

#Time	Az	El	Level	Level2	SNR	BER	BlckErr	Temp	State	Recorded	gain1	gain2
2026-01-29 15:43:03.16	23.15	0.15	-48.7	-63.7	3.5	1.51e+00	0	27	0	0	60	55321
2026-01-29 15:43:07.20	23.06	0.39	-48.8	-64.0	3.6	1.51e+00	0	28	104	0	60	57547
2026-01-29 15:43:11.24	22.97	0.63	-48.9	-64.1	3.6	1.51e+00	0	29	104	0	60	57880
2026-01-29 15:43:15.28	22.87	0.87	-48.8	-64.0	3.6	1.51e+00	0	29	104	0	60	57068
2026-01-29 15:43:19.32	22.77	1.12	-48.6	-63.8	3.6	1.51e+00	0	29	104	0	60	55989
2026-01-29 15:43:23.35	22.68	1.36	-48.2	-63.4	3.6	1.51e+00	0	29	104	0	60	53175
2026-01-29 15:43:27.39	22.58	1.61	-47.5	-62.6	3.5	1.51e+00	0	29	104	0	60	48667
2026-01-29 15:43:31.44	22.47	1.86	-47.5	-62.4	3.6	1.51e+00	0	29	104	0	60	47872
2026-01-29 15:43:35.47	22.37	2.11	-47.5	-62.4	3.6	1.51e+00	0	29	104	0	60	47826
2026-01-29 15:43:39.51	22.26	2.37	-47.5	-62.6	3.6	1.51e+00	0	29	104	0	60	48482
2026-01-29 15:43:43.55	22.15	2.63	-47.5	-62.5	3.6	1.51e+00	0	29	104	0	60	48312
2026-01-29 15:43:47.59	22.04	2.89	-47.4	-60.6	3.6	1.51e+00	0	29	104	0	60	38920
2026-01-29 15:43:51.63	21.93	3.15	-47.4	-62.1	3.6	1.51e+00	0	29	104	0	60	46178
2026-01-29 15:43:55.67	21.81	3.41	-46.3	-52.1	9.2	3.79e-02	6	29	0	2097152	60	14619
2026-01-29 15:43:59.71	21.70	3.68	-43.4	-45.9	16.0	0.00e+00	92	29	0	10485760	60	7091
2026-01-29 15:44:03.75	21.57	3.95	-47.3	-59.1	3.4	0.00e+00	27	29	0	17825792	60	32459
2026-01-29 15:44:07.79	21.45	4.22	-41.4	-43.0	18.8	0.00e+00	2	29	0	20971520	56	6463
2026-01-29 15:44:11.83	21.33	4.49	-40.3	-41.6	20.0	0.00e+00	0	29	0	29360128	54	6171
2026-01-29 15:44:15.86	21.20	4.77	-39.2	-40.3	21.2	0.00e+00	92	29	0	36700160	52	5953
2026-01-29 15:44:19.90	21.07	5.05	-38.7	-39.8	21.8	0.00e+00	0	29	0	44040192	52	5610
2026-01-29 15:44:23.93	20.93	5.33	-38.9	-40.0	21.7	0.00e+00	57	29	0	51380224	50	6454
2026-01-29 15:44:27.97	20.80	5.62	-39.0	-40.1	21.7	0.00e+00	23	29	0	58720256	50	6484
2026-01-29 15:44:32.00	20.66	5.90	-39.0	-40.1	21.6	0.00e+00	92	29	0	67108864	50	6466
2026-01-29 15:44:36.04	20.51	6.19	-39.0	-40.0	21.8	0.00e+00	2	29	0	74448896	50	6464
2026-01-29 15:44:40.08	20.37	6.49	-38.5	-39.6	22.1	0.00e+00	52	29	0	81788928	50	6118
2026-01-29 15:44:44.12	20.22	6.79	-38.5	-39.6	22.2	0.00e+00	0	29	0	89128960	50	6116
2026-01-29 15:44:48.15	20.06	7.09	-38.4	-39.5	22.4	0.00e+00	92	29	0	96468992	50	6034
2026-01-29 15:44:52.19	19.91	7.39	-38.5	-39.5	22.4	0.00e+00	2	29	0	104857600	50	6074
2026-01-29 15:44:56.23	19.75	7.70	-38.4	-39.4	22.5	0.00e+00	0	29	0	112197632	50	5982
2026-01-29 15:45:00.27	19.58	8.01	-38.3	-39.3	22.7	0.00e+00	0	29	0	119537664	50	5957
2026-01-29 15:45:04.31	19.41	8.32	-38.4	-39.3	22.6	0.00e+00	92	29	0	126877696	50	5964
2026-01-29 15:45:08.35	19.24	8.64	-38.1	-39.1	22.9	0.00e+00	51	29	0	135266304	50	5763
2026-01-29 15:45:12.38	19.06	8.96	-38.3	-39.3	22.8	0.00e+00	29	29	0	142606336	50	5938
2026-01-29 15:45:16.42	18.88	9.29	-38.1	-39.1	23.0	0.00e+00	0	29	0	149946368	50	5771
2026-01-29 15:45:20.45	18.70	9.62	-38.0	-39.0	23.1	0.00e+00	92	29	0	157286400	50	5723
2026-01-29 15:45:24.49	18.51	9.95	-37.9	-38.9	23.1	0.00e+00	57	29	0	164626432	50	5636
2026-01-29 15:45:28.53	18.31	10.29	-37.8	-38.7	23.3	0.00e+00	26	30	0	173015040	50	5553
2026-01-29 15:45:32.58	18.11	10.63	-37.9	-38.8	23.2	0.00e+00	49	29	0	180355072	48	6308
2026-01-29 15:45:36.61	17.91	10.98	-38.0	-38.9	23.2	0.00e+00	83	29	0	187695104	48	6354
2026-01-29 15:45:40.65	17.70	11.33	-38.0	-38.9	23.2	0.00e+00	7	29	0	195035136	48	6348
2026-01-29 15:45:44.69	17.48	11.69	-37.7	-38.6	23.5	0.00e+00	0	29	0	203423744	48	6173
2026-01-29 15:45:48.73	17.26	12.05	-37.9	-38.8	23.3	0.00e+00	92	30	0	210763776	48	6271
2026-01-29 15:45:52.77	17.03	12.42	-37.7	-38.6	23.6	0.00e+00	60	29	0	218103808	48	6134
2026-01-29 15:45:56.81	16.80	12.79	-37.9	-38.8	23.4	0.00e+00	22	29	0	225443840	48	6284
2026-01-29 15:46:00.85	16.56	13.16	-37.7	-38.5	23.7	0.00e+00	0	30	0	232783872	48	6103
2026-01-29 15:46:04.88	16.31	13.54	-37.6	-38.5	23.6	0.00e+00	90	29	0	241172480	48	6081
2026-01-29 15:46:08.92	16.06	13.93	-37.6	-38.5	23.7	0.00e+00	54	29	0	248512512	48	6044
2026-01-29 15:46:12.96	15.80	14.32	-37.5	-38.4	23.8	0.00e+00	27	30	0	255852544	48	5968
2026-01-29 15:46:16.99	15.53	14.72	-37.4	-38.3	23.9	0.00e+00	2	30	0	263192576	48	5924
2026-01-29 15:46:21.03	15.26	15.13	-37.4	-38.3	23.9	0.00e+00	92	30	0	271581184	48	5944
2026-01-29 15:46:25.07	14.97	15.54	-37.5	-38.3	23.9	0.00e+00	0	30	0	278921216	48	5946
2026-01-29 15:46:29.10	14.68	15.95	-37.3	-38.1	24.0	0.00e+00	62	30	0	286261248	48	5814
2026-01-29 15:46:33.14	14.38	16.38	-37.4	-38.2	23.9	0.00e+00	60	30	0	293601280	48	5893
2026-01-29 15:46:37.18	14.07	16.81	-37.5	-38.4	23.8	0.00e+00	92	30	0	300941312	48	6004
2026-01-29 15:46:41.22	13.75	17.24	-37.4	-38.3	24.0	0.00e+00	21	30	0	309329920	48	5911
2026-01-29 15:46:45.26	13.42	17.69	-37.5	-38.4	23.9	0.00e+00	0	30	0	316669952	48	5975
2026-01-29 15:46:49.30	13.08	18.14	-37.3	-38.1	24.2	0.00e+00	0	30	0	324009984	48	5815
2026-01-29 15:46:53.34	12.73	18.60	-37.3	-38.1	24.1	0.00e+00	91	30	0	331350016	48	5826
2026-01-29 15:46:57.37	12.37	19.06	-37.3	-38.1	24.2	0.00e+00	5	30	0	339738624	48	5816
2026-01-29 15:47:01.41	12.00	19.53	-37.6	-38.5	23.7	0.00e+00	26	30	0	347078656	48	6045
2026-01-29 15:47:05.45	11.61	20.01	-37.7	-38.6	23.7	0.00e+00	82	30	0	354418688	48	6166
2026-01-29 15:47:09.49	11.21	20.50	-38.0	-38.9	23.5	0.00e+00	56	30	0	361758720	48	6337
2026-01-29 15:47:13.53	10.80	21.00	-38.1	-39.0	23.4	0.00e+00	0	30	0	369098752	48	6444
2026-01-29 15:47:17.56	10.38	21.50	-38.3	-39.3	23.2	0.00e+00	30	30	0	377487360	48	6628
2026-01-29 15:47:21.60	9.93	22.02	-38.2	-39.2	23.2	0.00e+00	92	30	0	384827392	48	6551
2026-01-29 15:47:25.64	9.48	22.54	-38.2	-39.2	23.3	0.00e+00	0	30	0	392167424	48	6557
2026-01-29 15:47:29.68	9.01	23.07	-38.4	-39.4	23.1	0.00e+00	60	30	0	399507456	48	6706
2026-01-29 15:47:33.72	8.52	23.61	-38.6	-39.6	22.9	0.00e+00	0	30	0	406847488	48	6874
2026-01-29 15:47:37.75	8.01	24.16	-39.0	-40.0	22.6	0.00e+00	90	30	0	415236096	50	6400
2026-01-29 15:47:41.79	7.48	24.71	-38.7	-39.7	23.0	0.00e+00	22	30	0	422576128	50	6198
2026-01-29 15:47:45.83	6.94	25.28	-39.1	-40.1	22.5	0.00e+00	0	30	0	429916160	50	6513
2026-01-29 15:47:49.87	6.37	25.86	-39.2	-40.3	22.4	0.00e+00	0	30	0	437256192	50	6629
2026-01-29 15:47:53.91	5.78	26.44	-39.5	-40.5	22.1	0.00e+00	90	30	0	445644800	50	6820
2026-01-29 15:47:57.94	5.17	27.04	-39.5	-40.6	22.0	0.00e+00	23	30	0	452984832	50	6876
2026-01-29 15:48:01.98	4.54	27.64	-39.3	-40.4	22.4	0.00e+00	0	30	0	460324864	52	5974
2026-01-29 15:48:06.02	3.88	28.26	-39.1	-40.1	22.6	0.00e+00	0	30	0	467664896	52	5777
2026-01-29 15:48:10.06	3.19	28.88	-39.2	-40.2	22.5	0.00e+00	92	30	0	475004928	52	5859
2026-01-29 15:48:14.09	2.48	29.51	-39.2	-40.2	22.5	0.00e+00	0	30	0	483393536	52	5832
2026-01-29 15:48:18.13	1.74	30.15	-39.1	-40.1	22.5	0.00e+00	0	30	0	490733568	52	5814
2026-01-29 15:48:22.17	0.96	30.80	-39.5	-40.5	22.2	0.00e+00	31	30	0	498073600	52	6088
2026-01-29 15:48:26.21	0.16	31.46	-39.8	-40.8	21.7	0.00e+00	48	30	0	505413632	52	6298
2026-01-29 15:48:30.25	359.32	32.13	-40.0	-41.2	21.6	0.00e+00	0	29	0	513802240	52	6546
2026-01-29 15:48:34.29	358.44	32.80	-40.1	-41.2	21.6	0.00e+00	0	30	0	521142272	52	6574
2026-01-29 15:48:38.33	357.52	33.49	-40.1	-41.2	21.6	0.00e+00	0	29	0	528482304	52	6585
2026-01-29 15:48:42.37	356.57	34.17	-39.9	-40.9	21.8	0.00e+00	30	30	0	535822336	52	6388
2026-01-29 15:48:46.41	355.57	34.87	-39.5	-40.6	22.1	0.00e+00	24	30	0	543162368	52	6113
2026-01-29 15:48:50.45	354.53	35.57	-39.6	-40.7	22.1	0.00e+00	0	30	0	551550976	52	6185
2026-01-29 15:48:54.48	353.44	36.27	-39.7	-40.8	22.0	0.00e+00	92	30	0	558891008	52	6261
2026-01-29 15:48:58.52	352.31	36.98	-39.6	-40.6	22.1	0.00e+00	64	30	0	566231040	52	6148
2026-01-29 15:49:02.57	351.12	37.69	-40.0	-41.1	21.5	0.00e+00	30	30	0	573571072	52	6505
2026-01-29 15:49:06.61	349.88	38.40	-39.5	-40.5	22.2	0.00e+00	26	30	0	581959680	52	6088
2026-01-29 15:49:10.64	348.58	39.10	-39.3	-40.4	22.4	0.00e+00	92	30	0	589299712	52	5971
2026-01-29 15:49:14.68	347.23	39.81	-39.6	-40.6	22.2	0.00e+00	65	30	0	596639744	52	6158
2026-01-29 15:49:18.72	345.81	40.51	-39.6	-40.6	22.1	0.00e+00	64	30	0	603979776	52	6141
2026-01-29 15:49:22.76	344.33	41.20	-39.8	-40.9	21.7	0.00e+00	64	29	0	611319808	52	6377
2026-01-29 15:49:26.80	342.79	41.88	-40.5	-41.7	21.1	0.00e+00	92	30	0	619708416	52	6993
2026-01-29 15:49:30.84	341.18	42.55	-40.1	-41.3	21.5	0.00e+00	0	30	0	627048448	52	6628
2026-01-29 15:49:34.88	339.50	43.21	-39.6	-40.6	22.2	0.00e+00	0	30	0	634388480	52	6161
2026-01-29 15:49:38.92	337.76	43.85	-39.2	-40.2	22.5	0.00e+00	0	30	0	641728512	52	5890
2026-01-29 15:49:42.95	335.94	44.46	-38.2	-39.2	23.4	0.00e+00	90	30	0	650117120	50	5848
2026-01-29 15:49:46.99	334.05	45.05	-38.0	-38.9	23.6	0.00e+00	0	30	0	657457152	50	5673
2026-01-29 15:49:51.03	332.09	45.62	-38.2	-39.1	22.5	0.00e+00	0	30	0	664797184	50	5777
2026-01-29 15:49:55.07	330.06	46.15	-37.9	-38.7	23.8	0.00e+00	0	30	0	672137216	50	5565
2026-01-29 15:49:59.11	327.97	46.65	-38.7	-39.7	22.2	0.00e+00	92	30	0	679477248	48	6971
2026-01-29 15:50:03.15	325.80	47.12	-40.2	-41.4	21.5	0.00e+00	0	30	0	687865856	52	6736
2026-01-29 15:50:07.19	323.58	47.54	-40.3	-41.5	21.2	0.00e+00	0	30	0	695205888	52	6835
2026-01-29 15:50:11.23	321.29	47.91	-41.0	-42.4	20.4	0.00e+00	54	30	0	702545920	54	6712
2026-01-29 15:50:15.27	318.96	48.24	-41.3	-42.7	20.2	0.00e+00	33	30	0	709885952	54	6956
2026-01-29 15:50:19.31	316.57	48.51	-41.6	-43.1	20.0	0.00e+00	0	30	0	718274560	56	6466
2026-01-29 15:50:23.34	314.15	48.74	-40.5	-41.7	21.1	0.00e+00	17	30	0	725614592	54	6185
2026-01-29 15:50:27.38	311.70	48.91	-40.1	-41.3	21.5	0.00e+00	92	30	0	732954624	54	5935
2026-01-29 15:50:31.42	309.22	49.02	-39.5	-40.5	22.4	0.00e+00	90	30	0	740294656	52	6072
2026-01-29 15:50:35.46	306.73	49.07	-39.5	-40.6	22.2	0.00e+00	5	30	0	747634688	52	6123
2026-01-29 15:50:39.49	304.24	49.07	-39.2	-40.2	22.5	0.00e+00	0	30	0	756023296	52	5870
2026-01-29 15:50:43.53	301.75	49.01	-39.0	-39.9	22.8	0.00e+00	92	30	0	763363328	52	5682
2026-01-29 15:50:47.57	299.28	48.89	-39.7	-40.7	22.1	0.00e+00	63	30	0	770703360	52	6241
2026-01-29 15:50:51.61	296.83	48.71	-39.7	-40.7	22.2	0.00e+00	7	30	0	778043392	52	6234
2026-01-29 15:50:55.65	294.41	48.48	-39.6	-40.6	22.1	0.00e+00	0	30	0	786432000	52	6149
2026-01-29 15:50:59.68	292.03	48.19	-40.3	-41.5	21.5	0.00e+00	91	30	0	793772032	52	6771
2026-01-29 15:51:03.72	289.70	47.86	-39.7	-40.8	22.1	0.00e+00	63	30	0	801112064	52	6276
2026-01-29 15:51:07.76	287.42	47.47	-40.1	-41.2	21.7	0.00e+00	58	30	0	808452096	52	6603
2026-01-29 15:51:11.79	285.21	47.05	-40.1	-41.2	21.7	0.00e+00	21	30	0	815792128	52	6565
2026-01-29 15:51:15.83	283.05	46.58	-39.8	-40.9	22.0	0.00e+00	92	30	0	824180736	52	6355
2026-01-29 15:51:19.86	280.97	46.07	-39.6	-40.6	22.2	0.00e+00	0	30	0	831520768	52	6167
2026-01-29 15:51:23.90	278.94	45.53	-38.7	-39.6	23.2	0.00e+00	64	30	0	838860800	50	6138
2026-01-29 15:51:27.94	276.99	44.96	-38.3	-39.2	23.4	0.00e+00	57	30	0	846200832	50	5886
2026-01-29 15:51:31.98	275.11	44.36	-38.0	-38.9	23.6	0.00e+00	92	30	0	854589440	50	5695
2026-01-29 15:51:36.02	273.30	43.74	-37.1	-38.0	24.5	0.00e+00	2	30	0	861929472	48	5705
2026-01-29 15:51:40.05	271.56	43.10	-37.3	-38.1	24.5	0.00e+00	0	30	0	869269504	48	5789
2026-01-29 15:51:44.10	269.89	42.44	-36.9	-37.6	24.8	0.00e+00	0	30	0	876609536	46	6173
2026-01-29 15:51:48.13	268.29	41.77	-37.8	-38.7	23.9	0.00e+00	92	30	0	883949568	46	6941
2026-01-29 15:51:52.17	266.75	41.08	-37.7	-38.6	24.0	0.00e+00	16	30	0	892338176	48	6143
2026-01-29 15:51:56.21	265.28	40.39	-37.6	-38.5	24.0	0.00e+00	18	30	0	899678208	48	6064
2026-01-29 15:52:00.24	263.87	39.69	-38.2	-39.1	23.6	0.00e+00	92	30	0	907018240	48	6523
2026-01-29 15:52:04.28	262.53	38.98	-37.7	-38.6	24.1	0.00e+00	84	30	0	914358272	48	6107
2026-01-29 15:52:08.32	261.23	38.27	-38.5	-39.4	23.2	0.00e+00	56	30	0	922746880	48	6714
2026-01-29 15:52:12.36	260.00	37.56	-38.7	-39.7	22.9	0.00e+00	55	30	0	930086912	50	6208
2026-01-29 15:52:16.39	258.82	36.85	-39.2	-40.2	22.5	0.00e+00	90	30	0	937426944	50	6575
2026-01-29 15:52:20.44	257.68	36.14	-40.1	-41.2	21.7	0.00e+00	0	30	0	944766976	52	6550
2026-01-29 15:52:24.47	256.60	35.43	-40.7	-41.9	21.0	0.00e+00	5	30	0	952107008	52	7134
2026-01-29 15:52:28.51	255.56	34.73	-40.8	-42.0	20.9	0.00e+00	0	30	0	960495616	54	6431
2026-01-29 15:52:32.54	254.57	34.04	-41.3	-42.6	20.3	0.00e+00	92	30	0	967835648	54	6914
2026-01-29 15:52:36.58	253.62	33.35	-41.1	-42.4	20.4	0.00e+00	34	30	0	975175680	54	6735
2026-01-29 15:52:40.62	252.71	32.66	-40.8	-42.0	20.9	0.00e+00	7	30	0	982515712	54	6454
2026-01-29 15:52:44.66	251.83	31.99	-40.4	-41.5	21.4	0.00e+00	8	30	0	990904320	54	6083
2026-01-29 15:52:48.70	250.99	31.32	-40.1	-41.2	21.7	0.00e+00	91	30	0	998244352	54	5864
2026-01-29 15:52:52.74	250.19	30.66	-39.8	-40.9	22.0	0.00e+00	21	30	0	1005584384	52	6318
2026-01-29 15:52:56.77	249.42	30.01	-39.8	-40.9	21.9	0.00e+00	60	30	0	1012924416	52	6367
2026-01-29 15:53:00.81	248.68	29.37	-40.0	-41.1	21.7	0.00e+00	2	30	0	1020264448	52	6532
2026-01-29 15:53:04.85	247.97	28.73	-39.5	-40.5	22.4	0.00e+00	91	30	0	1028653056	52	6061
2026-01-29 15:53:08.88	247.28	28.11	-39.4	-40.4	22.4	0.00e+00	0	30	0	1035993088	52	5984
2026-01-29 15:53:12.92	246.62	27.50	-40.1	-41.2	21.5	0.00e+00	53	30	0	1043333120	52	6593
2026-01-29 15:53:16.96	245.99	26.89	-39.6	-40.7	22.0	0.00e+00	43	30	0	1050673152	52	6195
2026-01-29 15:53:21.00	245.38	26.30	-39.1	-40.1	22.6	0.00e+00	92	30	0	1059061760	52	5815
2026-01-29 15:53:25.03	244.79	25.71	-39.2	-40.2	22.4	0.00e+00	0	30	0	1066401792	52	5849
2026-01-29 15:53:29.07	244.23	25.13	-39.5	-40.6	22.1	0.00e+00	0	30	0	1073741824	52	6144
2026-01-29 15:53:33.11	243.68	24.57	-39.4	-40.4	22.4	0.00e+00	0	30	0	1081081856	52	5995
2026-01-29 15:53:37.15	243.16	24.01	-39.1	-40.1	22.6	0.00e+00	92	30	0	1088421888	52	5791
2026-01-29 15:53:41.19	242.65	23.46	-39.0	-39.9	22.7	0.00e+00	0	30	0	1096810496	52	5679
2026-01-29 15:53:45.23	242.16	22.92	-38.7	-39.7	23.0	0.00e+00	0	30	0	1104150528	50	6199
2026-01-29 15:53:49.27	241.69	22.39	-38.7	-39.6	23.0	0.00e+00	91	30	0	1111490560	50	6164
2026-01-29 15:53:53.30	241.23	21.87	-38.7	-39.7	22.9	0.00e+00	56	30	0	1118830592	50	6190
2026-01-29 15:53:57.34	240.79	21.35	-38.9	-39.8	22.8	0.00e+00	24	30	0	1127219200	50	6310
2026-01-29 15:54:01.38	240.37	20.85	-38.8	-39.8	22.9	0.00e+00	26	30	0	1134559232	50	6256
2026-01-29 15:54:05.42	239.95	20.35	-38.8	-39.8	22.8	0.00e+00	89	30	0	1141899264	50	6278
2026-01-29 15:54:09.46	239.55	19.86	-39.1	-40.1	22.5	0.00e+00	29	30	0	1149239296	50	6508
2026-01-29 15:54:13.50	239.17	19.38	-39.1	-40.2	22.4	0.00e+00	51	30	0	1156579328	50	6551
2026-01-29 15:54:17.54	238.79	18.91	-38.9	-39.9	22.5	0.00e+00	0	30	0	1164967936	50	6371
2026-01-29 15:54:21.57	238.43	18.44	-38.9	-39.9	22.7	0.00e+00	92	30	0	1172307968	50	6324
2026-01-29 15:54:25.61	238.08	17.99	-38.9	-40.0	22.6	0.00e+00	0	30	0	1179648000	50	6391
2026-01-29 15:54:29.65	237.74	17.53	-39.4	-40.4	22.2	0.00e+00	0	30	0	1186988032	50	6759
2026-01-29 15:54:33.69	237.41	17.09	-39.7	-40.8	21.8	0.00e+00	54	30	0	1195376640	52	6293
2026-01-29 15:54:37.73	237.09	16.65	-39.7	-40.8	21.9	0.00e+00	92	30	0	1202716672	52	6258
2026-01-29 15:54:41.76	236.78	16.23	-39.7	-40.8	21.8	0.00e+00	50	30	0	1210056704	52	6261
2026-01-29 15:54:45.80	236.48	15.80	-39.7	-40.8	21.7	0.00e+00	26	30	0	1217396736	52	6277
2026-01-29 15:54:49.84	236.18	15.38	-39.8	-40.9	21.7	0.00e+00	2	30	0	1224736768	52	6358
2026-01-29 15:54:53.88	235.90	14.97	-39.5	-40.6	21.9	0.00e+00	90	30	0	1233125376	52	6151
2026-01-29 15:54:57.91	235.62	14.57	-39.5	-40.6	21.9	0.00e+00	0	30	0	1240465408	52	6124
2026-01-29 15:55:01.95	235.35	14.17	-40.0	-41.1	21.3	0.00e+00	27	30	0	1247805440	52	6515
2026-01-29 15:55:05.99	235.09	13.78	-40.6	-41.8	20.7	0.00e+00	86	30	0	1255145472	52	7075
2026-01-29 15:55:10.03	234.84	13.39	-40.9	-42.3	20.2	0.00e+00	77	30	0	1263534080	54	6648
2026-01-29 15:55:14.07	234.59	13.01	-41.4	-42.8	19.7	0.00e+00	0	30	0	1270874112	54	7049
2026-01-29 15:55:18.11	234.35	12.63	-41.6	-43.1	19.4	0.00e+00	54	30	0	1278214144	54	7293
2026-01-29 15:55:22.14	234.11	12.26	-41.6	-43.1	19.2	0.00e+00	92	30	0	1285554176	54	7282
2026-01-29 15:55:26.18	233.88	11.90	-42.0	-43.6	18.8	0.00e+00	92	30	0	1292894208	56	6924
2026-01-29 15:55:30.22	233.66	11.54	-42.2	-43.9	18.5	0.00e+00	2	30	0	1301282816	56	7140
2026-01-29 15:55:34.26	233.44	11.18	-42.6	-44.4	18.1	0.00e+00	0	30	0	1308622848	56	7566
2026-01-29 15:55:38.30	233.23	10.83	-42.9	-44.8	17.7	0.00e+00	90	30	0	1315962880	58	7036
2026-01-29 15:55:42.34	233.02	10.48	-43.1	-45.1	17.3	0.00e+00	46	30	0	1323302912	58	7259
2026-01-29 15:55:46.38	232.82	10.14	-43.4	-45.6	16.7	0.00e+00	5	30	0	1331691520	58	7731
2026-01-29 15:55:50.42	232.62	9.80	-43.6	-45.8	16.4	0.00e+00	30	30	0	1339031552	58	7946
2026-01-29 15:55:54.45	232.43	9.47	-43.8	-46.2	16.2	0.00e+00	91	30	0	1346371584	60	7362
2026-01-29 15:55:58.49	232.25	9.14	-44.1	-46.6	15.7	0.00e+00	50	30	0	1353711616	60	7742
2026-01-29 15:56:02.53	232.06	8.81	-44.4	-47.2	15.1	0.00e+00	51	30	0	1361051648	60	8279
2026-01-29 15:56:06.57	231.88	8.49	-44.8	-47.8	14.4	1.50e-06	42	30	0	1369440256	60	8869
2026-01-29 15:56:10.60	231.71	8.17	-45.0	-48.3	13.8	3.80e-06	92	30	0	1376780288	60	9377
2026-01-29 15:56:14.64	231.54	7.85	-45.3	-48.9	13.1	1.67e-05	0	30	0	1384120320	60	10063
2026-01-29 15:56:18.68	231.37	7.54	-45.5	-49.4	12.5	1.07e-04	50	30	0	1391460352	60	10620
2026-01-29 15:56:22.72	231.21	7.24	-45.7	-49.9	11.9	3.75e-04	0	30	0	1398800384	60	11276
2026-01-29 15:56:26.76	231.05	6.93	-45.8	-50.3	11.4	7.28e-04	92	30	0	1407188992	60	11816
2026-01-29 15:56:30.79	230.89	6.63	-45.9	-50.6	11.0	1.49e-03	2	30	0	1414529024	60	12246
2026-01-29 15:56:34.83	230.74	6.33	-46.1	-51.1	10.4	4.57e-03	0	30	0	1421869056	60	12927
2026-01-29 15:56:38.87	230.59	6.04	-46.0	-51.2	10.0	6.31e-03	1	30	0	1429209088	60	13097
2026-01-29 15:56:42.91	230.45	5.75	-45.9	-51.3	9.7	8.93e-03	92	30	0	1437597696	60	13347
2026-01-29 15:56:46.94	230.30	5.46	-46.0	-51.7	9.3	1.70e-02	32	30	0	1444937728	60	13849
2026-01-29 15:56:50.98	230.16	5.18	-46.1	-52.1	8.7	2.90e-02	0	30	0	1452277760	60	14561
2026-01-29 15:56:55.02	230.03	4.89	-46.1	-52.4	8.2	6.00e-02	80	30	0	1459617792	60	15154
2026-01-29 15:56:59.06	229.89	4.61	-46.1	-52.9	7.4	9.99e-02	92	30	0	1466957824	60	15976
2026-01-29 15:57:03.09	229.76	4.34	-46.1	-53.2	6.9	1.29e-01	0	30	0	1475346432	60	16600
2026-01-29 15:57:07.13	229.63	4.06	-46.0	-53.2	6.8	1.74e-01	0	30	0	1482686464	60	16559
2026-01-29 15:57:11.17	229.51	3.79	-46.0	-53.5	6.3	2.47e-01	44	30	0	1490026496	60	17157
2026-01-29 15:57:15.21	229.38	3.52	-46.0	-53.9	5.8	2.88e-01	0	30	0	1497366528	60	17861
2026-01-29 15:57:19.25	229.26	3.26	-46.0	-53.9	5.7	3.62e-01	0	30	0	1505755136	60	18012
2026-01-29 15:57:23.29	229.14	2.99	-46.0	-54.4	3.5	4.77e-01	0	30	0	1513095168	60	18991
2026-01-29 15:57:27.33	229.03	2.73	-48.7	-63.9	3.6	1.51e+00	0	30	104	1513095168	60	56428
2026-01-29 15:57:31.37	228.91	2.47	-48.9	-64.1	3.6	1.51e+00	0	30	104	1513095168	60	57898
2026-01-29 15:57:35.41	228.80	2.21	-48.9	-64.1	3.6	1.51e+00	0	30	104	1513095168	60	58272
2026-01-29 15:57:39.45	228.69	1.96	-48.8	-64.0	3.5	1.51e+00	0	30	104	1513095168	60	57474
2026-01-29 15:57:43.49	228.58	1.71	-48.8	-64.0	3.6	1.51e+00	0	30	104	1513095168	60	57342
2026-01-29 15:57:47.53	228.48	1.45	-48.7	-64.0	3.6	1.51e+00	0	30	104	1513095168	60	56974
2026-01-29 15:57:51.57	228.37	1.21	-48.7	-64.0	3.6	1.51e+00	0	30	104	1513095168	60	57398
2026-01-29 15:57:55.61	228.27	0.96	-48.7	-64.0	3.6	1.51e+00	0	30	104	1513095168	60	57095
2026-01-29 15:57:59.65	228.17	0.71	-48.7	-63.9	3.6	1.51e+00	0	30	104	1513095168	60	56950
2026-01-29 15:58:03.69	228.07	0.47	-48.7	-64.0	3.6	1.51e+00	0	30	104	1513095168	60	57118
2026-01-29 15:58:07.73	227.98	0.23	-48.7	-64.0	3.6	1.51e+00	0	30	104	1513095168	60	57142
2026-01-29 15:58:11.77	227.88	-0.01	-48.7	-63.9	3.6	1.51e+00	0	30	104	1513095168	60	56830

#Closed at: 2026-01-29 15:58:13
#Recorded file [1513 MB]: D:/lorett/data/35029_260130_034303.dat