passes_logs/2026/01/29/R4.6S_Anadyr/R4.6S_Anadyr__20260129_172303_NOAA_20_JPSS-1_rec.log

#Pass ID: 20260129_172303_NOAA 20 (JPSS-1)
#Satellite: NOAA 20 (JPSS-1)
#Configuration: NOAA 20
#almurnet v.1.7.20251203
#Start time: 2026-01-29 17:23:03

#Version: 2.2.20231116
#Station: R4.6S_Anadyr
#Location: 177.4865 lon 64.73178 lat
#TLE: 1 43013U 17073A   26028.86313978  .00000144  00000+0  89200-4 0  9993
#TLE: 2 43013  98.7648 329.6571 0000891  20.0014 340.1197 14.19541559424709

#Time	Az	El	Level	Level2	SNR	BER	BlckErr	Temp	State	Recorded	gain1	gain2
2026-01-29 17:23:03.92	31.54	0.04	-48.8	-63.7	3.5	1.51e+00	0	27	0	0	60	55560
2026-01-29 17:23:07.96	31.31	0.26	-48.9	-64.1	3.6	1.51e+00	0	29	104	0	60	57768
2026-01-29 17:23:12.00	31.07	0.47	-48.9	-64.1	3.6	1.51e+00	0	29	104	0	60	58171
2026-01-29 17:23:16.03	30.83	0.69	-48.9	-64.1	3.6	1.51e+00	0	29	104	0	60	58191
2026-01-29 17:23:20.07	30.58	0.91	-48.7	-63.9	3.6	1.51e+00	0	29	104	0	60	56896
2026-01-29 17:23:24.11	30.34	1.13	-48.5	-63.6	3.6	1.51e+00	0	29	104	0	60	55010
2026-01-29 17:23:28.15	30.08	1.35	-47.9	-63.1	3.6	1.51e+00	0	29	104	0	60	51589
2026-01-29 17:23:32.19	29.83	1.58	-47.4	-62.5	3.6	1.51e+00	0	29	104	0	60	48284
2026-01-29 17:23:36.23	29.57	1.80	-47.4	-62.6	3.6	1.51e+00	0	29	104	0	60	48773
2026-01-29 17:23:40.28	29.30	2.03	-47.4	-62.6	3.6	1.51e+00	0	29	104	0	60	48827
2026-01-29 17:23:44.32	29.03	2.25	-47.4	-62.5	3.6	1.51e+00	0	29	104	0	60	48045
2026-01-29 17:23:48.36	28.76	2.48	-47.4	-62.6	3.6	1.51e+00	0	29	104	0	60	48484
2026-01-29 17:23:52.40	28.48	2.71	-47.4	-62.5	3.6	1.51e+00	0	29	104	0	60	48378
2026-01-29 17:23:56.44	28.20	2.94	-47.4	-62.4	3.6	1.51e+00	0	29	104	0	60	47648
2026-01-29 17:24:00.48	27.91	3.17	-46.3	-52.3	8.6	6.20e-02	41	30	0	1048576	60	14976
2026-01-29 17:24:04.52	27.62	3.40	-45.1	-49.1	10.8	1.02e-03	92	29	0	8388608	60	10283
2026-01-29 17:24:08.57	27.32	3.64	-43.5	-46.1	15.5	0.00e+00	46	29	0	10485760	60	7259
2026-01-29 17:24:12.61	27.02	3.87	-41.4	-43.0	18.8	0.00e+00	7	29	0	18874368	56	6434
2026-01-29 17:24:16.64	26.71	4.11	-41.7	-43.4	18.5	0.00e+00	6	29	0	26214400	56	6698
2026-01-29 17:24:20.68	26.40	4.34	-41.6	-43.2	18.8	0.00e+00	92	30	0	33554432	56	6580
2026-01-29 17:24:24.72	26.08	4.58	-41.3	-42.9	19.0	0.00e+00	42	30	0	40894464	56	6346
2026-01-29 17:24:28.76	25.76	4.82	-41.6	-43.2	18.7	0.00e+00	42	30	0	49283072	56	6560
2026-01-29 17:24:32.79	25.43	5.06	-41.5	-43.1	19.0	0.00e+00	39	30	0	56623104	56	6465
2026-01-29 17:24:36.83	25.10	5.30	-41.4	-43.0	19.0	0.00e+00	92	29	0	63963136	56	6400
2026-01-29 17:24:40.87	24.76	5.55	-41.1	-42.6	19.4	0.00e+00	0	30	0	71303168	56	6135
2026-01-29 17:24:44.91	24.41	5.79	-41.3	-42.8	19.3	0.00e+00	0	29	0	78643200	56	6250
2026-01-29 17:24:48.95	24.06	6.04	-41.0	-42.5	19.6	0.00e+00	31	30	0	87031808	56	6044
2026-01-29 17:24:52.99	23.70	6.29	-41.2	-42.7	19.4	0.00e+00	91	29	0	94371840	56	6210
2026-01-29 17:24:57.02	23.33	6.54	-41.2	-42.6	19.5	0.00e+00	42	30	0	101711872	56	6163
2026-01-29 17:25:01.05	22.96	6.79	-41.2	-42.7	19.5	0.00e+00	0	29	0	109051904	56	6222
2026-01-29 17:25:05.09	22.58	7.04	-41.4	-42.9	19.4	0.00e+00	2	30	0	117440512	56	6345
2026-01-29 17:25:09.13	22.20	7.29	-41.1	-42.6	19.7	0.00e+00	81	30	0	124780544	56	6131
2026-01-29 17:25:13.17	21.81	7.54	-40.8	-42.1	20.1	0.00e+00	42	30	0	132120576	56	5828
2026-01-29 17:25:17.21	21.41	7.80	-40.5	-41.8	20.4	0.00e+00	40	30	0	139460608	54	6301
2026-01-29 17:25:21.24	21.00	8.05	-40.4	-41.7	20.5	0.00e+00	90	30	0	146800640	54	6203
2026-01-29 17:25:25.29	20.58	8.31	-40.3	-41.5	20.7	0.00e+00	42	30	0	155189248	54	6070
2026-01-29 17:25:29.32	20.16	8.57	-40.3	-41.6	20.7	0.00e+00	41	30	0	162529280	54	6115
2026-01-29 17:25:33.36	19.73	8.83	-40.2	-41.5	20.8	0.00e+00	39	30	0	169869312	54	6045
2026-01-29 17:25:37.40	19.30	9.09	-40.3	-41.6	20.6	0.00e+00	92	30	0	177209344	54	6105
2026-01-29 17:25:41.43	18.85	9.35	-40.4	-41.6	20.7	0.00e+00	0	30	0	185597952	54	6148
2026-01-29 17:25:45.47	18.40	9.61	-40.5	-41.8	20.6	0.00e+00	6	30	0	192937984	54	6287
2026-01-29 17:25:49.51	17.93	9.88	-40.4	-41.7	20.6	0.00e+00	0	30	0	200278016	54	6193
2026-01-29 17:25:53.55	17.46	10.14	-40.3	-41.5	20.8	0.00e+00	92	30	0	207618048	54	6084
2026-01-29 17:25:57.59	16.98	10.41	-40.1	-41.3	21.1	0.00e+00	6	30	0	214958080	54	5908
2026-01-29 17:26:01.63	16.49	10.67	-40.0	-41.2	21.2	0.00e+00	9	30	0	223346688	54	5847
2026-01-29 17:26:05.67	15.99	10.94	-40.0	-41.2	21.2	0.00e+00	0	30	0	230686720	54	5855
2026-01-29 17:26:09.71	15.49	11.21	-40.0	-41.2	21.2	0.00e+00	90	30	0	238026752	52	6562
2026-01-29 17:26:13.75	14.97	11.48	-40.1	-41.2	21.2	0.00e+00	39	30	0	245366784	52	6609
2026-01-29 17:26:17.79	14.44	11.75	-40.3	-41.5	20.8	0.00e+00	39	30	0	253755392	52	6812
2026-01-29 17:26:21.83	13.90	12.02	-39.6	-40.7	21.7	0.00e+00	0	30	0	261095424	52	6232
2026-01-29 17:26:25.87	13.35	12.29	-39.3	-40.4	22.1	0.00e+00	91	30	0	268435456	52	5991
2026-01-29 17:26:29.91	12.80	12.56	-39.1	-40.1	22.2	0.00e+00	45	30	0	275775488	52	5817
2026-01-29 17:26:33.95	12.23	12.83	-39.2	-40.2	22.2	0.00e+00	36	30	0	283115520	52	5876
2026-01-29 17:26:37.99	11.65	13.10	-39.2	-40.2	22.2	0.00e+00	76	30	0	291504128	52	5859
2026-01-29 17:26:42.04	11.06	13.37	-39.3	-40.3	22.1	0.00e+00	30	30	0	298844160	52	5943
2026-01-29 17:26:46.08	10.45	13.64	-39.3	-40.4	22.0	0.00e+00	0	30	0	306184192	52	5974
2026-01-29 17:26:50.12	9.84	13.91	-39.4	-40.5	22.0	0.00e+00	0	30	0	313524224	52	6076
2026-01-29 17:26:54.16	9.22	14.18	-39.4	-40.5	22.0	0.00e+00	57	30	0	321912832	52	6081
2026-01-29 17:26:58.20	8.58	14.45	-39.6	-40.8	21.8	0.00e+00	0	30	0	329252864	52	6246
2026-01-29 17:27:02.24	7.93	14.72	-39.8	-41.0	21.5	0.00e+00	0	30	0	336592896	52	6405
2026-01-29 17:27:06.28	7.27	14.99	-39.7	-40.8	21.8	0.00e+00	0	30	0	343932928	52	6280
2026-01-29 17:27:10.32	6.60	15.26	-39.4	-40.5	22.0	0.00e+00	90	30	0	351272960	52	6044
2026-01-29 17:27:14.36	5.91	15.52	-39.7	-40.8	21.7	0.00e+00	0	30	0	359661568	52	6260
2026-01-29 17:27:18.40	5.22	15.79	-40.0	-41.1	21.3	0.00e+00	7	30	0	367001600	52	6505
2026-01-29 17:27:22.44	4.51	16.05	-39.9	-41.0	21.6	0.00e+00	5	30	0	374341632	52	6436
2026-01-29 17:27:26.48	3.78	16.31	-39.7	-40.8	21.7	0.00e+00	92	30	0	381681664	52	6264
2026-01-29 17:27:30.51	3.05	16.57	-40.1	-41.3	21.6	0.00e+00	0	30	0	390070272	52	6630
2026-01-29 17:27:34.55	2.30	16.83	-39.3	-40.4	22.1	0.00e+00	45	30	0	397410304	52	5966
2026-01-29 17:27:38.59	1.54	17.08	-38.9	-39.9	22.7	0.00e+00	5	30	0	404750336	52	5652
2026-01-29 17:27:42.62	0.77	17.34	-38.8	-39.7	22.8	0.00e+00	92	30	0	412090368	50	6232
2026-01-29 17:27:46.67	359.98	17.59	-38.1	-39.0	23.5	0.00e+00	7	30	0	419430400	50	5708
2026-01-29 17:27:50.70	359.18	17.83	-37.6	-38.5	23.9	0.00e+00	45	30	0	427819008	48	6062
2026-01-29 17:27:54.74	358.36	18.07	-37.6	-38.4	23.9	0.00e+00	0	30	0	435159040	48	6023
2026-01-29 17:27:58.79	357.53	18.31	-37.1	-38.0	24.3	0.00e+00	92	30	0	442499072	48	5724
2026-01-29 17:28:02.83	356.69	18.55	-37.1	-38.0	23.4	0.00e+00	36	30	0	449839104	48	5710
2026-01-29 17:28:06.87	355.84	18.78	-37.0	-37.8	24.4	0.00e+00	2	30	0	458227712	48	5620
2026-01-29 17:28:10.91	354.97	19.00	-36.8	-37.6	24.6	0.00e+00	45	30	0	465567744	48	5472
2026-01-29 17:28:14.95	354.09	19.23	-37.0	-37.8	24.4	0.00e+00	92	30	0	472907776	48	5622
2026-01-29 17:28:18.99	353.20	19.44	-37.2	-38.0	24.3	0.00e+00	0	30	0	480247808	48	5755
2026-01-29 17:28:23.03	352.30	19.65	-37.4	-38.2	24.1	0.00e+00	42	30	0	487587840	48	5868
2026-01-29 17:28:27.07	351.38	19.86	-37.4	-38.3	24.2	0.00e+00	46	30	0	495976448	48	5911
2026-01-29 17:28:31.11	350.45	20.05	-37.1	-37.9	24.5	0.00e+00	61	30	0	503316480	48	5660
2026-01-29 17:28:35.15	349.50	20.24	-37.1	-37.9	24.4	0.00e+00	0	30	0	510656512	48	5692
2026-01-29 17:28:39.19	348.55	20.43	-36.7	-37.4	23.5	0.00e+00	0	30	0	517996544	46	6032
2026-01-29 17:28:43.23	347.59	20.61	-36.6	-37.4	24.8	0.00e+00	92	30	0	526385152	46	6008
2026-01-29 17:28:47.27	346.61	20.78	-36.5	-37.3	24.9	0.00e+00	0	30	0	533725184	46	5943
2026-01-29 17:28:51.31	345.62	20.94	-36.3	-37.1	25.1	0.00e+00	2	30	0	541065216	46	5801
2026-01-29 17:28:55.36	344.62	21.09	-36.3	-37.1	25.0	0.00e+00	41	30	0	548405248	46	5807
2026-01-29 17:28:59.39	343.62	21.24	-36.6	-37.4	24.8	0.00e+00	92	30	0	556793856	46	6012
2026-01-29 17:29:03.43	342.60	21.37	-36.7	-37.5	24.8	0.00e+00	5	30	0	564133888	46	6088
2026-01-29 17:29:07.47	341.57	21.50	-36.9	-37.7	24.7	0.00e+00	0	30	0	571473920	46	6186
2026-01-29 17:29:11.50	340.54	21.62	-37.4	-38.2	24.1	0.00e+00	0	30	0	578813952	46	6609
2026-01-29 17:29:15.54	339.50	21.73	-37.7	-38.6	23.7	0.00e+00	92	30	0	586153984	48	6112
2026-01-29 17:29:19.59	338.45	21.83	-38.3	-39.2	23.2	0.00e+00	48	30	0	594542592	48	6594
2026-01-29 17:29:23.62	337.40	21.92	-38.1	-39.0	23.6	0.00e+00	44	30	0	601882624	48	6449
2026-01-29 17:29:27.67	336.33	22.00	-38.5	-39.4	23.2	0.00e+00	6	30	0	609222656	48	6732
2026-01-29 17:29:31.71	335.27	22.06	-38.8	-39.8	22.8	0.00e+00	92	30	0	616562688	50	6262
2026-01-29 17:29:35.75	334.20	22.12	-38.8	-39.7	22.9	0.00e+00	42	30	0	624951296	50	6237
2026-01-29 17:29:39.79	333.12	22.17	-38.5	-39.4	23.2	0.00e+00	35	30	0	632291328	50	6004
2026-01-29 17:29:43.83	332.04	22.21	-38.7	-39.7	22.9	0.00e+00	80	30	0	639631360	50	6194
2026-01-29 17:29:47.86	330.97	22.23	-38.5	-39.5	23.1	0.00e+00	92	30	0	646971392	50	6046
2026-01-29 17:29:51.90	329.89	22.25	-38.8	-39.8	22.9	0.00e+00	0	30	0	654311424	50	6304
2026-01-29 17:29:55.94	328.80	22.25	-38.4	-39.3	23.2	0.00e+00	46	30	0	662700032	50	5939
2026-01-29 17:29:59.98	327.72	22.25	-38.4	-39.4	23.3	0.00e+00	92	30	0	670040064	50	5969
2026-01-29 17:30:04.02	326.64	22.23	-38.2	-39.1	23.5	0.00e+00	2	30	0	677380096	50	5826
2026-01-29 17:30:08.06	325.56	22.20	-37.7	-38.6	24.0	0.00e+00	0	30	0	684720128	48	6104
2026-01-29 17:30:12.09	324.49	22.16	-37.6	-38.4	24.0	0.00e+00	0	30	0	693108736	48	6023
2026-01-29 17:30:16.13	323.41	22.11	-37.2	-38.0	24.4	0.00e+00	92	30	0	700448768	48	5752
2026-01-29 17:30:20.17	322.34	22.05	-36.8	-37.6	24.5	0.00e+00	35	30	0	707788800	46	6133
2026-01-29 17:30:24.21	321.28	21.98	-36.7	-37.5	24.8	0.00e+00	0	30	0	715128832	46	6095
2026-01-29 17:30:28.24	320.22	21.90	-36.2	-37.0	25.3	0.00e+00	2	30	0	722468864	46	5710
2026-01-29 17:30:32.28	319.17	21.81	-36.0	-36.7	25.5	0.00e+00	91	30	0	730857472	46	5553
2026-01-29 17:30:36.32	318.12	21.70	-35.9	-36.7	25.4	0.00e+00	44	30	0	738197504	46	5532
2026-01-29 17:30:40.36	317.08	21.59	-36.2	-37.0	24.9	0.00e+00	43	30	0	745537536	46	5700
2026-01-29 17:30:44.40	316.04	21.47	-36.3	-37.0	25.2	0.00e+00	7	30	0	752877568	46	5757
2026-01-29 17:30:48.44	315.02	21.34	-36.5	-37.3	25.1	0.00e+00	92	30	0	761266176	46	5903
2026-01-29 17:30:52.48	314.00	21.20	-37.0	-37.8	24.6	0.00e+00	6	30	0	768606208	46	6296
2026-01-29 17:30:56.51	313.00	21.06	-37.4	-38.3	24.2	0.00e+00	0	30	0	775946240	46	6627
2026-01-29 17:31:00.55	312.00	20.90	-37.6	-38.5	23.9	0.00e+00	0	30	0	783286272	48	6055
2026-01-29 17:31:04.59	311.02	20.74	-37.8	-38.6	23.9	0.00e+00	92	30	0	790626304	48	6161
2026-01-29 17:31:08.63	310.04	20.57	-38.2	-39.1	23.6	0.00e+00	6	30	0	799014912	48	6538
2026-01-29 17:31:12.66	309.08	20.39	-38.3	-39.2	23.2	0.00e+00	7	30	0	806354944	48	6552
2026-01-29 17:31:16.70	308.13	20.20	-38.5	-39.4	23.2	0.00e+00	6	30	0	813694976	48	6724
2026-01-29 17:31:20.74	307.18	20.01	-38.4	-39.3	23.2	0.00e+00	91	30	0	821035008	50	5961
2026-01-29 17:31:24.78	306.25	19.81	-38.6	-39.6	23.0	0.00e+00	45	30	0	828375040	50	6132
2026-01-29 17:31:28.82	305.34	19.60	-38.3	-39.2	23.4	0.00e+00	37	30	0	836763648	50	5855
2026-01-29 17:31:32.85	304.44	19.39	-38.6	-39.6	23.1	0.00e+00	88	30	0	844103680	50	6104
2026-01-29 17:31:36.89	303.54	19.17	-38.5	-39.4	23.3	0.00e+00	34	30	0	851443712	50	6010
2026-01-29 17:31:40.93	302.67	18.95	-38.3	-39.2	23.4	0.00e+00	38	30	0	858783744	50	5894
2026-01-29 17:31:44.97	301.80	18.72	-38.6	-39.5	23.1	0.00e+00	39	30	0	867172352	50	6102
2026-01-29 17:31:49.01	300.95	18.49	-38.3	-39.2	23.4	0.00e+00	91	30	0	874512384	50	5895
2026-01-29 17:31:53.05	300.11	18.26	-38.4	-39.3	23.3	0.00e+00	0	30	0	881852416	50	5939
2026-01-29 17:31:57.09	299.28	18.02	-38.3	-39.2	23.3	0.00e+00	44	30	0	889192448	50	5885
2026-01-29 17:32:01.13	298.47	17.77	-38.3	-39.2	23.4	0.00e+00	44	30	0	897581056	50	5892
2026-01-29 17:32:05.17	297.67	17.53	-38.1	-39.1	23.6	0.00e+00	92	30	0	904921088	50	5765
2026-01-29 17:32:09.21	296.88	17.27	-38.1	-39.0	23.5	0.00e+00	44	30	0	912261120	50	5724
2026-01-29 17:32:13.25	296.11	17.02	-38.4	-39.3	23.3	0.00e+00	0	30	0	919601152	50	5957
2026-01-29 17:32:17.29	295.35	16.77	-38.7	-39.6	22.9	0.00e+00	0	30	0	926941184	50	6146
2026-01-29 17:32:21.33	294.60	16.51	-38.8	-39.8	22.9	0.00e+00	90	30	0	935329792	50	6271
2026-01-29 17:32:25.37	293.86	16.25	-38.8	-39.7	22.9	0.00e+00	42	30	0	942669824	50	6219
2026-01-29 17:32:29.41	293.14	15.98	-38.6	-39.6	23.0	0.00e+00	6	30	0	950009856	50	6135
2026-01-29 17:32:33.45	292.43	15.72	-38.7	-39.7	22.8	0.00e+00	0	30	0	957349888	50	6203
2026-01-29 17:32:37.49	291.74	15.45	-38.8	-39.8	22.9	0.00e+00	91	30	0	965738496	50	6264
2026-01-29 17:32:41.53	291.05	15.19	-38.4	-39.3	23.3	0.00e+00	0	30	0	973078528	50	5953
2026-01-29 17:32:45.57	290.38	14.92	-38.3	-39.2	23.4	0.00e+00	40	30	0	980418560	50	5876
2026-01-29 17:32:49.61	289.72	14.65	-38.3	-39.2	23.2	0.00e+00	7	30	0	987758592	50	5867
2026-01-29 17:32:53.65	289.07	14.38	-38.2	-39.2	23.3	0.00e+00	92	30	0	995098624	50	5842
2026-01-29 17:32:57.69	288.44	14.11	-37.7	-38.6	23.7	0.00e+00	42	30	0	1003487232	48	6138
2026-01-29 17:33:01.73	287.81	13.84	-37.6	-38.5	23.8	0.00e+00	41	30	0	1010827264	48	6041
2026-01-29 17:33:05.76	287.20	13.57	-37.5	-38.3	23.9	0.00e+00	47	30	0	1018167296	48	5961
2026-01-29 17:33:09.81	286.60	13.30	-37.3	-38.2	24.0	0.00e+00	92	30	0	1025507328	48	5840
2026-01-29 17:33:13.85	286.01	13.03	-37.3	-38.1	23.5	0.00e+00	0	30	0	1033895936	48	5817
2026-01-29 17:33:17.89	285.43	12.75	-37.4	-38.2	24.0	0.00e+00	42	30	0	1041235968	48	5882
2026-01-29 17:33:21.92	284.86	12.48	-37.5	-38.4	24.0	0.00e+00	91	30	0	1048576000	48	5974
2026-01-29 17:33:25.96	284.30	12.21	-37.7	-38.5	23.8	0.00e+00	68	30	0	1055916032	48	6095
2026-01-29 17:33:30.00	283.76	11.94	-37.7	-38.6	23.7	0.00e+00	41	30	0	1063256064	48	6124
2026-01-29 17:33:34.05	283.22	11.67	-38.1	-39.0	23.4	0.00e+00	0	30	0	1071644672	48	6406
2026-01-29 17:33:38.09	282.69	11.40	-38.1	-39.0	23.3	0.00e+00	92	30	0	1078984704	48	6421
2026-01-29 17:33:42.13	282.17	11.13	-38.0	-38.9	23.4	0.00e+00	0	30	0	1086324736	48	6383
2026-01-29 17:33:46.16	281.66	10.86	-38.0	-38.9	23.5	0.00e+00	0	30	0	1093664768	48	6347
2026-01-29 17:33:50.20	281.17	10.60	-38.2	-39.1	23.2	0.00e+00	40	30	0	1102053376	48	6531
2026-01-29 17:33:54.24	280.68	10.33	-38.6	-39.6	22.8	0.00e+00	92	30	0	1109393408	48	6911
2026-01-29 17:33:58.28	280.20	10.06	-38.7	-39.7	22.6	0.00e+00	0	30	0	1116733440	48	6987
2026-01-29 17:34:02.31	279.73	9.80	-38.7	-39.7	22.6	0.00e+00	0	30	0	1124073472	48	6941
2026-01-29 17:34:06.35	279.26	9.53	-39.0	-40.1	22.4	0.00e+00	4	30	0	1131413504	50	6484
2026-01-29 17:34:10.39	278.81	9.27	-39.1	-40.2	22.2	0.00e+00	6	30	0	1139802112	50	6564
2026-01-29 17:34:14.43	278.36	9.01	-39.4	-40.5	21.8	0.00e+00	6	30	0	1147142144	50	6798
2026-01-29 17:34:18.47	277.92	8.75	-39.3	-40.4	21.9	0.00e+00	0	30	0	1154482176	50	6743
2026-01-29 17:34:22.51	277.49	8.49	-39.6	-40.8	21.6	0.00e+00	37	30	0	1161822208	50	7012
2026-01-29 17:34:26.55	277.07	8.23	-39.8	-41.0	21.4	0.00e+00	35	30	0	1170210816	52	6392
2026-01-29 17:34:30.59	276.66	7.97	-39.6	-40.8	21.6	0.00e+00	50	30	0	1177550848	52	6249
2026-01-29 17:34:34.63	276.25	7.72	-39.8	-40.9	21.3	0.00e+00	6	30	0	1184890880	52	6351
2026-01-29 17:34:38.67	275.85	7.46	-40.0	-41.2	21.1	0.00e+00	88	30	0	1192230912	52	6584
2026-01-29 17:34:42.71	275.45	7.21	-40.4	-41.7	20.6	0.00e+00	0	30	0	1199570944	52	6949
2026-01-29 17:34:46.75	275.07	6.95	-40.5	-41.8	20.6	0.00e+00	45	30	0	1207959552	52	7011
2026-01-29 17:34:50.79	274.69	6.70	-40.3	-41.6	20.7	0.00e+00	45	30	0	1215299584	52	6857
2026-01-29 17:34:54.82	274.32	6.45	-40.6	-41.9	20.4	0.00e+00	92	30	0	1222639616	52	7095
2026-01-29 17:34:58.86	273.95	6.20	-40.7	-42.1	20.2	0.00e+00	0	30	0	1229979648	54	6470
2026-01-29 17:35:02.90	273.59	5.96	-41.0	-42.4	19.7	0.00e+00	36	30	0	1238368256	54	6714
2026-01-29 17:35:06.94	273.24	5.71	-40.9	-42.3	19.9	0.00e+00	0	30	0	1245708288	54	6624
2026-01-29 17:35:10.98	272.89	5.47	-41.1	-42.6	19.5	0.00e+00	92	30	0	1253048320	54	6876
2026-01-29 17:35:15.02	272.55	5.22	-41.3	-42.7	19.2	0.00e+00	0	30	0	1260388352	54	7007
2026-01-29 17:35:19.06	272.21	4.98	-41.2	-42.7	19.2	0.00e+00	0	30	0	1267728384	54	6973
2026-01-29 17:35:23.10	271.88	4.74	-41.3	-42.9	19.2	0.00e+00	0	30	0	1276116992	54	7098
2026-01-29 17:35:27.14	271.56	4.50	-41.8	-43.4	18.5	0.00e+00	92	30	0	1283457024	56	6757
2026-01-29 17:35:31.18	271.24	4.26	-41.8	-43.5	18.4	0.00e+00	0	30	0	1290797056	56	6770
2026-01-29 17:35:35.21	270.93	4.02	-41.8	-43.4	18.5	0.00e+00	0	30	0	1298137088	56	6758
2026-01-29 17:35:39.25	270.62	3.79	-41.7	-43.4	18.5	0.00e+00	0	30	0	1306525696	56	6712
2026-01-29 17:35:43.30	270.32	3.55	-42.1	-43.9	17.9	0.00e+00	90	30	0	1313865728	56	7157
2026-01-29 17:35:47.34	270.02	3.32	-42.4	-44.3	17.4	0.00e+00	0	30	0	1321205760	56	7480
2026-01-29 17:35:51.37	269.72	3.08	-42.1	-44.0	17.7	0.00e+00	33	31	0	1328545792	58	6426
2026-01-29 17:35:55.41	269.44	2.85	-48.7	-63.9	3.6	1.51e+00	0	31	104	1330642944	60	56387
2026-01-29 17:35:59.45	269.15	2.62	-49.0	-64.1	3.6	1.51e+00	0	30	104	1330642944	60	58103
2026-01-29 17:36:03.50	268.87	2.39	-49.0	-64.2	3.6	1.51e+00	0	31	104	1330642944	60	58616
2026-01-29 17:36:07.54	268.60	2.17	-48.9	-64.2	3.6	1.51e+00	0	31	104	1330642944	60	58542
2026-01-29 17:36:11.58	268.33	1.94	-48.9	-64.1	3.6	1.51e+00	0	31	104	1330642944	60	57632
2026-01-29 17:36:15.62	268.06	1.72	-48.8	-64.0	3.6	1.51e+00	0	31	104	1330642944	60	57489
2026-01-29 17:36:19.66	267.80	1.49	-48.8	-64.0	3.6	1.51e+00	0	31	104	1330642944	60	57500
2026-01-29 17:36:23.70	267.54	1.27	-48.8	-64.1	3.6	1.51e+00	0	31	104	1330642944	60	57768
2026-01-29 17:36:27.74	267.29	1.05	-48.8	-64.1	3.6	1.51e+00	0	31	104	1330642944	60	58002
2026-01-29 17:36:31.78	267.04	0.83	-48.8	-64.0	3.6	1.51e+00	0	31	104	1330642944	60	57451
2026-01-29 17:36:35.83	266.79	0.61	-48.9	-64.1	3.6	1.51e+00	0	31	104	1330642944	60	57899
2026-01-29 17:36:39.87	266.55	0.39	-48.8	-64.1	3.6	1.51e+00	0	31	104	1330642944	60	57709
2026-01-29 17:36:43.91	266.31	0.17	-48.8	-64.0	3.6	1.51e+00	0	31	104	1330642944	60	57568
2026-01-29 17:36:47.95	266.07	-0.04	-48.8	-64.0	3.6	1.51e+00	0	31	104	1330642944	60	57376

#Closed at: 2026-01-29 17:36:49
#Recorded file [1330 MB]: D:/lorett/data/35029_260130_052303.dat