passes_logs/2026/01/29/R4.6S_Anadyr/R4.6S_Anadyr__20260129_143731_AQUA_rec.log

#Pass ID: 20260129_143731_AQUA
#Satellite: AQUA
#Configuration: AQUA
#almurnet v.1.7.20251203
#Start time: 2026-01-29 14:37:33

#Version: 2.2.20231116
#Station: R4.6S_Anadyr
#Location: 177.4865 lon 64.73178 lat
#TLE: 1 27424U 02022A   26028.91948147  .00001781  00000+0  36607-3 0  9997
#TLE: 2 27424  98.4103 355.5827 0001815  62.4290   1.4641 14.61871847262923

#Time	Az	El	Level	Level2	SNR	BER	BlckErr	Temp	State	Recorded	gain1	gain2
2026-01-29 14:37:33.88	20.58	0.10	-48.7	-63.7	3.5	1.51e+00	0	26	0	0	60	55382
2026-01-29 14:37:36.90	20.79	0.27	-49.1	-67.0	3.5	3.02e+01	0	27	104	0	60	86221
2026-01-29 14:37:39.93	21.00	0.43	-49.1	-66.9	3.5	3.02e+01	0	27	104	0	60	84997
2026-01-29 14:37:42.96	21.22	0.60	-49.1	-66.9	3.5	3.02e+01	0	27	104	0	60	85284
2026-01-29 14:37:45.99	21.43	0.76	-48.8	-66.8	3.5	3.02e+01	0	27	104	0	60	84670
2026-01-29 14:37:49.02	21.65	0.93	-48.9	-66.7	3.5	3.02e+01	0	27	104	0	60	83476
2026-01-29 14:37:52.05	21.87	1.10	-48.6	-66.5	3.5	3.02e+01	0	28	104	0	60	81481
2026-01-29 14:37:55.08	22.09	1.27	-48.3	-66.2	3.5	3.02e+01	0	28	104	0	60	78785
2026-01-29 14:37:58.11	22.32	1.43	-47.6	-65.3	3.5	3.02e+01	0	27	104	0	60	71190
2026-01-29 14:38:01.14	22.55	1.60	-47.5	-65.1	3.5	3.02e+01	0	28	104	0	60	69495
2026-01-29 14:38:04.17	22.78	1.77	-47.5	-65.3	3.5	3.02e+01	0	28	104	0	60	71149
2026-01-29 14:38:07.20	23.01	1.95	-47.5	-65.4	3.5	3.02e+01	0	28	104	0	60	71755
2026-01-29 14:38:10.23	23.25	2.12	-47.5	-65.0	3.5	3.02e+01	0	28	104	0	60	68054
2026-01-29 14:38:13.26	23.49	2.29	-47.5	-65.1	3.5	3.02e+01	0	28	104	0	60	68866
2026-01-29 14:38:16.30	23.73	2.46	-47.5	-65.1	3.5	3.02e+01	0	28	104	0	60	69273
2026-01-29 14:38:19.33	23.98	2.64	-47.4	-63.0	3.5	3.02e+01	0	28	104	0	60	54506
2026-01-29 14:38:22.36	24.23	2.81	-47.2	-60.0	5.5	3.02e+01	0	28	104	0	60	38355
2026-01-29 14:38:25.39	24.48	2.99	-42.6	-45.3	20.0	3.02e+01	45	28	0	4718592	60	7059
2026-01-29 14:38:28.42	24.73	3.17	-38.2	-39.7	25.0	3.02e+01	57	28	0	10485760	52	5918
2026-01-29 14:38:31.44	24.99	3.35	-41.4	-43.6	21.2	3.02e+01	61	28	0	16252928	54	8229
2026-01-29 14:38:34.47	25.25	3.52	-40.2	-42.2	21.4	3.02e+01	58	28	0	22020096	52	7835
2026-01-29 14:38:37.50	25.52	3.70	-45.0	-49.1	17.6	3.02e+01	62	28	0	23592960	60	11020
2026-01-29 14:38:40.53	25.78	3.88	-42.6	-45.2	19.9	3.02e+01	61	28	0	29360128	58	7852
2026-01-29 14:38:43.56	26.05	4.07	-39.3	-41.0	24.0	3.02e+01	51	28	0	35127296	54	6092
2026-01-29 14:38:46.59	26.33	4.25	-38.0	-39.5	24.7	3.02e+01	38	28	0	40894464	52	5734
2026-01-29 14:38:49.61	26.61	4.43	-38.0	-39.5	25.5	3.02e+01	60	28	0	46661632	50	6485
2026-01-29 14:38:52.64	26.89	4.61	-38.5	-40.1	25.0	3.02e+01	59	28	0	52428800	50	6922
2026-01-29 14:38:55.67	27.17	4.80	-37.6	-39.1	26.1	3.02e+01	59	28	0	57671680	50	6163
2026-01-29 14:38:58.70	27.46	4.98	-37.7	-39.2	25.9	3.02e+01	62	28	0	63438848	50	6224
2026-01-29 14:39:01.73	27.76	5.17	-37.5	-38.9	26.1	3.02e+01	57	28	0	69206016	50	6038
2026-01-29 14:39:04.75	28.05	5.36	-37.5	-38.9	26.2	3.02e+01	51	28	0	74973184	50	6037
2026-01-29 14:39:07.78	28.36	5.55	-37.6	-39.0	26.2	3.02e+01	53	28	0	80740352	50	6133
2026-01-29 14:39:10.80	28.66	5.74	-37.4	-38.9	26.3	3.02e+01	60	28	0	86507520	50	6008
2026-01-29 14:39:13.82	28.97	5.93	-37.3	-38.7	26.5	3.02e+01	55	28	0	91750400	50	5902
2026-01-29 14:39:16.85	29.28	6.12	-37.3	-38.8	26.4	3.02e+01	58	28	0	97517568	50	5927
2026-01-29 14:39:19.88	29.60	6.31	-37.1	-38.4	26.8	3.02e+01	57	28	0	103284736	50	5721
2026-01-29 14:39:22.91	29.92	6.50	-37.0	-38.4	26.7	3.02e+01	54	28	0	109051904	48	6405
2026-01-29 14:39:25.93	30.25	6.69	-37.1	-38.5	26.6	3.02e+01	61	28	0	114819072	48	6498
2026-01-29 14:39:28.96	30.58	6.89	-36.8	-38.2	26.9	3.02e+01	52	28	0	120061952	48	6241
2026-01-29 14:39:32.00	30.92	7.09	-37.1	-38.5	26.8	3.02e+01	46	28	0	125829120	48	6450
2026-01-29 14:39:35.03	31.26	7.28	-37.0	-38.3	26.9	3.02e+01	61	28	0	131596288	48	6340
2026-01-29 14:39:38.06	31.60	7.48	-37.0	-38.3	26.9	3.02e+01	61	28	0	137363456	48	6346
2026-01-29 14:39:41.08	31.95	7.68	-36.8	-38.1	27.2	3.02e+01	60	28	0	143130624	48	6174
2026-01-29 14:39:44.11	32.31	7.88	-36.4	-37.8	27.5	3.02e+01	52	28	0	148897792	48	5931
2026-01-29 14:39:47.14	32.67	8.08	-36.9	-38.2	27.1	3.02e+01	59	28	0	154664960	48	6269
2026-01-29 14:39:50.17	33.04	8.28	-36.6	-38.0	27.3	3.02e+01	48	28	0	159907840	48	6073
2026-01-29 14:39:53.20	33.41	8.48	-36.6	-37.9	27.4	3.02e+01	46	28	0	165675008	48	6027
2026-01-29 14:39:56.23	33.78	8.68	-36.6	-37.9	27.5	3.02e+01	56	28	0	171442176	48	6012
2026-01-29 14:39:59.26	34.17	8.89	-36.2	-37.6	27.7	3.02e+01	59	28	0	177209344	48	5816
2026-01-29 14:40:02.28	34.55	9.09	-36.4	-37.8	27.5	3.02e+01	58	28	0	182976512	48	5969
2026-01-29 14:40:05.31	34.95	9.30	-36.3	-37.7	27.6	3.02e+01	58	28	0	188219392	48	5905
2026-01-29 14:40:08.34	35.34	9.50	-36.3	-37.7	27.7	3.02e+01	62	28	0	193986560	48	5860
2026-01-29 14:40:11.37	35.75	9.71	-36.3	-37.6	27.7	3.02e+01	57	28	0	199753728	48	5852
2026-01-29 14:40:14.39	36.16	9.92	-36.1	-37.4	27.9	3.02e+01	51	28	0	205520896	48	5696
2026-01-29 14:40:17.43	36.58	10.12	-36.1	-37.4	28.0	3.02e+01	48	28	0	211288064	48	5700
2026-01-29 14:40:20.45	37.00	10.33	-36.1	-37.4	27.9	3.02e+01	59	28	0	217055232	48	5701
2026-01-29 14:40:23.48	37.43	10.54	-36.0	-37.3	28.1	3.02e+01	61	28	0	222298112	46	6282
2026-01-29 14:40:26.51	37.87	10.75	-36.0	-37.2	28.2	3.02e+01	61	28	0	228065280	46	6260
2026-01-29 14:40:29.54	38.31	10.96	-35.8	-37.0	28.3	3.02e+01	59	28	0	233832448	46	6118
2026-01-29 14:40:32.57	38.76	11.18	-35.8	-37.1	28.4	3.02e+01	55	28	0	239599616	46	6150
2026-01-29 14:40:35.60	39.22	11.39	-35.7	-37.0	28.5	3.02e+01	56	28	0	245366784	46	6076
2026-01-29 14:40:38.63	39.68	11.60	-35.6	-36.8	28.6	3.02e+01	46	28	0	251133952	46	5989
2026-01-29 14:40:41.66	40.15	11.81	-35.6	-36.9	28.5	3.02e+01	61	28	0	256376832	46	6042
2026-01-29 14:40:44.68	40.63	12.03	-35.5	-36.8	28.7	3.02e+01	57	28	0	262144000	46	5931
2026-01-29 14:40:47.71	41.11	12.24	-35.6	-37.0	28.5	3.02e+01	62	28	0	267911168	46	6071
2026-01-29 14:40:50.74	41.61	12.45	-35.6	-36.8	28.6	3.02e+01	60	28	0	273678336	46	5984
2026-01-29 14:40:53.77	42.11	12.67	-35.5	-36.7	28.7	3.02e+01	58	28	0	279445504	46	5901
2026-01-29 14:40:56.80	42.61	12.88	-35.7	-37.0	28.5	3.02e+01	44	28	0	285212672	46	6071
2026-01-29 14:40:59.83	43.13	13.10	-35.4	-36.6	28.8	3.02e+01	55	28	0	290455552	46	5833
2026-01-29 14:41:02.85	43.65	13.31	-35.4	-36.6	28.8	3.02e+01	60	28	0	296222720	46	5832
2026-01-29 14:41:05.88	44.18	13.53	-35.4	-36.7	28.9	3.02e+01	58	28	0	301989888	46	5867
2026-01-29 14:41:08.91	44.72	13.74	-35.3	-36.6	28.9	3.02e+01	60	28	0	307757056	46	5798
2026-01-29 14:41:11.94	45.27	13.96	-35.2	-36.4	29.1	3.02e+01	60	28	0	313524224	46	5699
2026-01-29 14:41:14.97	45.83	14.17	-35.2	-36.5	29.0	3.02e+01	63	28	0	319291392	46	5787
2026-01-29 14:41:17.99	46.39	14.39	-34.9	-36.1	29.3	3.02e+01	62	28	0	324534272	44	6199
2026-01-29 14:41:21.02	46.96	14.60	-34.9	-36.2	29.3	3.02e+01	51	28	0	330301440	44	6219
2026-01-29 14:41:24.05	47.54	14.81	-35.0	-36.3	29.2	3.02e+01	46	28	0	336068608	44	6286
2026-01-29 14:41:27.08	48.14	15.03	-35.0	-36.2	29.3	3.02e+01	60	28	0	341835776	44	6236
2026-01-29 14:41:30.11	48.73	15.24	-34.9	-36.2	29.3	3.02e+01	61	28	0	347602944	44	6211
2026-01-29 14:41:33.14	49.34	15.45	-35.0	-36.2	29.2	3.02e+01	59	28	0	352845824	44	6249
2026-01-29 14:41:36.16	49.96	15.66	-34.8	-36.0	29.3	3.02e+01	61	28	0	358612992	44	6121
2026-01-29 14:41:39.19	50.58	15.87	-34.9	-36.1	29.4	3.02e+01	57	28	0	364380160	44	6158
2026-01-29 14:41:42.22	51.22	16.08	-34.8	-36.0	29.5	3.02e+01	44	28	0	370147328	44	6113
2026-01-29 14:41:45.25	51.87	16.29	-34.9	-36.1	29.3	3.02e+01	43	28	0	375914496	44	6173
2026-01-29 14:41:48.28	52.52	16.49	-34.8	-36.0	29.4	3.02e+01	52	28	0	381681664	44	6103
2026-01-29 14:41:51.31	53.18	16.70	-34.8	-36.0	29.5	3.02e+01	60	28	0	387448832	44	6127
2026-01-29 14:41:54.33	53.85	16.90	-34.9	-36.1	29.4	3.02e+01	60	28	0	392691712	44	6183
2026-01-29 14:41:57.37	54.54	17.10	-34.9	-36.1	29.4	3.02e+01	59	28	0	398458880	44	6179
2026-01-29 14:42:00.39	55.23	17.30	-34.8	-36.0	29.5	3.02e+01	62	28	0	404226048	44	6073
2026-01-29 14:42:03.42	55.93	17.50	-34.7	-36.0	29.5	3.02e+01	58	28	0	409993216	44	6106
2026-01-29 14:42:06.45	56.64	17.69	-34.8	-36.1	29.4	3.02e+01	52	28	0	415760384	44	6137
2026-01-29 14:42:09.48	57.36	17.88	-34.7	-36.0	29.5	3.02e+01	59	28	0	421003264	44	6100
2026-01-29 14:42:12.50	58.09	18.07	-34.8	-36.0	29.5	3.02e+01	61	28	0	426770432	44	6121
2026-01-29 14:42:15.53	58.83	18.26	-35.0	-36.2	29.4	3.02e+01	61	28	0	432537600	44	6220
2026-01-29 14:42:18.56	59.58	18.44	-34.9	-36.1	29.5	3.02e+01	59	28	0	438304768	44	6161
2026-01-29 14:42:21.59	60.34	18.62	-34.6	-36.0	29.5	3.02e+01	60	28	0	444071936	44	6096
2026-01-29 14:42:24.61	61.10	18.80	-34.7	-36.0	29.5	3.02e+01	60	28	0	449839104	44	6070
2026-01-29 14:42:27.64	61.88	18.98	-34.9	-36.1	29.3	3.02e+01	44	28	0	455606272	44	6193
2026-01-29 14:42:30.67	62.66	19.15	-34.9	-36.1	29.4	3.02e+01	44	28	0	460849152	44	6188
2026-01-29 14:42:33.69	63.46	19.31	-34.9	-36.1	29.4	3.02e+01	62	28	0	466616320	44	6152
2026-01-29 14:42:36.72	64.26	19.48	-34.8	-36.0	29.4	3.02e+01	61	28	0	472383488	44	6110
2026-01-29 14:42:39.75	65.07	19.63	-34.9	-36.1	29.4	3.02e+01	59	28	0	478150656	44	6203
2026-01-29 14:42:42.78	65.89	19.79	-34.9	-36.2	29.4	3.02e+01	63	28	0	483917824	44	6260
2026-01-29 14:42:45.80	66.72	19.94	-34.9	-36.2	29.4	3.02e+01	51	28	0	489160704	44	6261
2026-01-29 14:42:48.83	67.56	20.08	-35.0	-36.2	29.4	3.02e+01	48	28	0	494927872	44	6229
2026-01-29 14:42:51.86	68.41	20.22	-35.1	-36.3	29.3	3.02e+01	45	28	0	500695040	44	6304
2026-01-29 14:42:54.89	69.26	20.35	-35.0	-36.2	29.4	3.02e+01	61	28	0	506462208	44	6263
2026-01-29 14:42:57.92	70.12	20.48	-34.9	-36.1	29.4	3.02e+01	58	28	0	512229376	44	6202
2026-01-29 14:43:00.94	70.99	20.61	-35.0	-36.2	29.3	3.02e+01	63	28	0	517996544	44	6256
2026-01-29 14:43:03.97	71.87	20.72	-35.1	-36.3	29.3	3.02e+01	61	28	0	523239424	44	6338
2026-01-29 14:43:07.00	72.75	20.84	-34.9	-36.4	29.2	3.02e+01	60	28	0	529006592	44	6375
2026-01-29 14:43:10.03	73.64	20.94	-34.8	-36.1	29.5	3.02e+01	61	28	0	534773760	44	6179
2026-01-29 14:43:13.06	74.54	21.04	-35.1	-36.3	29.2	3.02e+01	52	28	0	540540928	44	6329
2026-01-29 14:43:16.08	75.44	21.13	-35.1	-36.3	29.3	3.02e+01	48	28	0	546308096	44	6299
2026-01-29 14:43:19.11	76.34	21.22	-35.0	-36.2	29.2	3.02e+01	59	28	0	552075264	44	6275
2026-01-29 14:43:22.14	77.26	21.30	-35.2	-36.4	29.3	3.02e+01	59	28	0	557318144	44	6414
2026-01-29 14:43:25.17	78.17	21.37	-35.0	-36.3	29.4	3.02e+01	58	28	0	563085312	44	6284
2026-01-29 14:43:28.20	79.09	21.44	-35.0	-36.3	29.4	3.02e+01	58	28	0	568852480	44	6293
2026-01-29 14:43:31.22	80.02	21.50	-35.0	-36.3	29.3	3.02e+01	59	28	0	574619648	44	6328
2026-01-29 14:43:34.25	80.95	21.55	-34.9	-36.2	29.3	3.02e+01	60	28	0	580386816	44	6255
2026-01-29 14:43:37.28	81.88	21.60	-35.1	-36.3	29.2	3.02e+01	45	28	0	585629696	44	6322
2026-01-29 14:43:40.30	82.81	21.63	-35.1	-36.3	29.3	3.02e+01	60	28	0	591396864	44	6335
2026-01-29 14:43:43.33	83.75	21.66	-34.9	-36.1	29.5	3.02e+01	58	28	0	597164032	44	6139
2026-01-29 14:43:46.36	84.69	21.69	-34.9	-36.2	29.4	3.02e+01	58	28	0	602931200	44	6206
2026-01-29 14:43:49.38	85.62	21.70	-34.9	-36.1	29.4	3.02e+01	54	28	0	608698368	44	6175
2026-01-29 14:43:52.41	86.56	21.71	-34.8	-36.0	29.5	3.02e+01	57	28	0	614465536	44	6128
2026-01-29 14:43:55.44	87.51	21.71	-34.7	-36.0	29.5	3.02e+01	55	28	0	619708416	44	6110
2026-01-29 14:43:58.47	88.45	21.70	-34.8	-36.0	29.5	3.02e+01	49	28	0	625475584	44	6124
2026-01-29 14:44:01.49	89.38	21.69	-34.7	-35.9	29.6	3.02e+01	57	28	0	631242752	44	6041
2026-01-29 14:44:04.52	90.32	21.67	-34.8	-36.0	29.5	3.02e+01	59	28	0	637009920	44	6121
2026-01-29 14:44:07.55	91.26	21.64	-34.7	-35.9	29.7	3.02e+01	65	28	0	642777088	44	6035
2026-01-29 14:44:10.58	92.20	21.60	-34.6	-35.8	29.6	3.02e+01	59	28	0	648544256	44	5974
2026-01-29 14:44:13.61	93.13	21.56	-34.8	-36.0	29.5	3.02e+01	60	28	0	653787136	44	6099
2026-01-29 14:44:16.64	94.06	21.51	-34.9	-36.1	29.6	3.02e+01	59	28	0	659554304	44	6164
2026-01-29 14:44:19.67	94.99	21.45	-34.8	-36.0	29.5	3.02e+01	45	28	0	665321472	44	6100
2026-01-29 14:44:22.70	95.91	21.38	-34.7	-35.9	29.5	3.02e+01	46	28	0	671088640	44	6055
2026-01-29 14:44:25.73	96.83	21.31	-34.5	-35.7	29.7	3.02e+01	58	28	0	676855808	44	5888
2026-01-29 14:44:28.76	97.75	21.23	-34.7	-35.9	29.6	3.02e+01	61	28	0	682622976	44	6004
2026-01-29 14:44:31.79	98.66	21.14	-34.7	-36.0	29.5	3.02e+01	61	28	0	687865856	44	6071
2026-01-29 14:44:34.82	99.56	21.05	-34.5	-35.7	29.6	3.02e+01	63	28	0	693633024	44	5922
2026-01-29 14:44:37.85	100.46	20.95	-34.6	-35.8	29.7	3.02e+01	57	28	0	699400192	44	5958
2026-01-29 14:44:40.87	101.35	20.85	-34.6	-35.8	29.6	3.02e+01	45	28	0	705167360	44	5989
2026-01-29 14:44:43.90	102.23	20.73	-34.4	-35.6	29.9	3.02e+01	51	28	0	710934528	44	5816
2026-01-29 14:44:46.93	103.11	20.62	-34.4	-35.6	29.7	3.02e+01	53	28	0	716701696	44	5848
2026-01-29 14:44:49.96	103.99	20.49	-34.3	-35.5	29.9	3.02e+01	64	28	0	721944576	44	5743
2026-01-29 14:44:52.98	104.85	20.36	-34.7	-35.9	29.5	3.02e+01	60	28	0	727711744	44	6008
2026-01-29 14:44:56.01	105.71	20.23	-34.3	-35.4	29.9	3.02e+01	63	28	0	733478912	44	5722
2026-01-29 14:44:59.04	106.56	20.09	-34.2	-35.3	30.0	3.02e+01	60	28	0	739246080	44	5659
2026-01-29 14:45:02.07	107.40	19.94	-34.5	-35.7	29.7	3.02e+01	59	28	0	745013248	44	5867
2026-01-29 14:45:05.09	108.23	19.80	-34.3	-35.5	29.9	3.02e+01	53	28	0	750780416	44	5750
2026-01-29 14:45:08.13	109.06	19.64	-34.3	-35.4	30.0	3.02e+01	58	28	0	756023296	44	5721
2026-01-29 14:45:11.16	109.87	19.48	-34.3	-35.5	29.9	3.02e+01	60	28	0	761790464	44	5733
2026-01-29 14:45:14.19	110.68	19.32	-34.4	-35.6	29.8	3.02e+01	59	28	0	767557632	44	5793
2026-01-29 14:45:17.21	111.48	19.15	-34.2	-35.4	30.0	3.02e+01	59	28	0	773324800	44	5700
2026-01-29 14:45:20.24	112.27	18.98	-34.1	-35.2	30.1	3.02e+01	58	28	0	779091968	44	5594
2026-01-29 14:45:23.27	113.05	18.81	-34.4	-35.6	29.8	3.02e+01	59	28	0	784859136	44	5827
2026-01-29 14:45:26.30	113.82	18.63	-34.2	-35.4	29.9	3.02e+01	45	28	0	790102016	44	5669
2026-01-29 14:45:29.33	114.58	18.45	-34.1	-35.3	30.0	3.02e+01	53	28	0	795869184	44	5611
2026-01-29 14:45:32.36	115.33	18.26	-34.2	-35.4	30.0	3.02e+01	61	28	0	801636352	44	5674
2026-01-29 14:45:35.39	116.07	18.07	-34.1	-35.3	30.1	3.02e+01	59	28	0	807403520	44	5600
2026-01-29 14:45:38.42	116.81	17.88	-34.1	-35.3	30.0	3.02e+01	59	28	0	813170688	44	5637
2026-01-29 14:45:41.45	117.53	17.69	-34.1	-35.3	29.9	3.02e+01	60	28	0	818937856	44	5620
2026-01-29 14:45:44.48	118.25	17.49	-34.2	-35.4	29.9	3.02e+01	58	28	0	824180736	44	5673
2026-01-29 14:45:47.51	118.95	17.29	-34.0	-35.2	30.1	3.02e+01	42	28	0	829947904	42	6216
2026-01-29 14:45:50.54	119.65	17.09	-34.1	-35.3	30.0	3.02e+01	44	28	0	835715072	42	6317
2026-01-29 14:45:53.56	120.33	16.89	-34.2	-35.4	29.9	3.02e+01	60	28	0	841482240	42	6385
2026-01-29 14:45:56.59	121.01	16.69	-34.1	-35.3	30.0	3.02e+01	60	28	0	847249408	42	6295
2026-01-29 14:45:59.62	121.67	16.48	-33.9	-35.1	30.1	3.02e+01	59	28	0	853016576	42	6162
2026-01-29 14:46:02.65	122.33	16.28	-34.1	-35.3	30.0	3.02e+01	59	28	0	858259456	42	6326
2026-01-29 14:46:05.67	122.98	16.07	-34.1	-35.3	30.0	3.02e+01	58	28	0	864026624	42	6310
2026-01-29 14:46:08.70	123.62	15.86	-34.2	-35.4	29.9	3.02e+01	57	28	0	869793792	42	6355
2026-01-29 14:46:11.73	124.25	15.65	-34.1	-35.2	30.0	3.02e+01	55	28	0	875560960	42	6262
2026-01-29 14:46:14.76	124.87	15.43	-34.0	-35.2	30.0	3.02e+01	60	28	0	881328128	42	6250
2026-01-29 14:46:17.79	125.48	15.22	-34.1	-35.3	30.0	3.02e+01	58	28	0	887095296	42	6305
2026-01-29 14:46:20.83	126.08	15.01	-34.1	-35.3	29.9	3.02e+01	60	28	0	892338176	42	6311
2026-01-29 14:46:23.86	126.67	14.79	-34.0	-35.2	30.0	3.02e+01	58	28	0	898105344	42	6256
2026-01-29 14:46:26.89	127.26	14.58	-34.2	-35.4	29.8	3.02e+01	58	28	0	903872512	42	6355
2026-01-29 14:46:29.92	127.83	14.36	-34.1	-35.3	29.8	3.02e+01	58	28	0	909639680	42	6314
2026-01-29 14:46:32.95	128.40	14.15	-34.2	-35.4	29.9	3.02e+01	52	28	0	915406848	42	6359
2026-01-29 14:46:35.98	128.96	13.93	-34.2	-35.4	29.7	3.02e+01	47	28	0	921174016	42	6417
2026-01-29 14:46:39.01	129.51	13.71	-34.3	-35.4	29.7	3.02e+01	55	28	0	926416896	42	6412
2026-01-29 14:46:42.04	130.05	13.50	-34.3	-35.5	29.8	3.02e+01	59	29	0	932184064	42	6465
2026-01-29 14:46:45.07	130.59	13.28	-34.3	-35.5	29.7	3.02e+01	58	29	0	937951232	42	6436
2026-01-29 14:46:48.10	131.11	13.06	-34.4	-35.6	29.6	3.02e+01	55	28	0	943718400	42	6535
2026-01-29 14:46:51.13	131.63	12.85	-34.3	-35.4	29.7	3.02e+01	57	29	0	949485568	42	6419
2026-01-29 14:46:54.15	132.14	12.63	-34.4	-35.6	29.5	3.02e+01	49	28	0	955252736	42	6565
2026-01-29 14:46:57.18	132.64	12.41	-34.4	-35.6	29.6	3.02e+01	55	28	0	960495616	42	6507
2026-01-29 14:47:00.21	133.14	12.20	-34.4	-35.6	29.5	3.02e+01	57	28	0	966262784	42	6571
2026-01-29 14:47:03.24	133.62	11.98	-34.5	-35.7	29.5	3.02e+01	62	28	0	972029952	42	6604
2026-01-29 14:47:06.27	134.10	11.77	-34.4	-35.5	29.6	3.02e+01	60	28	0	977797120	42	6498
2026-01-29 14:47:09.30	134.57	11.55	-34.5	-35.7	29.4	3.02e+01	59	28	0	983564288	42	6647
2026-01-29 14:47:12.33	135.04	11.34	-34.6	-35.8	29.4	3.02e+01	59	28	0	989331456	42	6672
2026-01-29 14:47:15.36	135.50	11.12	-34.8	-36.0	29.3	3.02e+01	58	28	0	994574336	42	6829
2026-01-29 14:47:18.38	135.95	10.91	-34.9	-36.2	29.1	3.02e+01	52	28	0	1000341504	42	6980
2026-01-29 14:47:21.41	136.39	10.70	-34.8	-36.0	29.1	3.02e+01	49	29	0	1006108672	44	6129
2026-01-29 14:47:24.44	136.83	10.49	-34.8	-36.0	29.1	3.02e+01	54	29	0	1011875840	44	6097
2026-01-29 14:47:27.46	137.26	10.28	-34.9	-36.1	28.9	3.02e+01	59	28	0	1017643008	44	6189
2026-01-29 14:47:30.50	137.69	10.06	-35.1	-36.3	28.8	3.02e+01	59	28	0	1023410176	44	6332
2026-01-29 14:47:33.52	138.10	9.85	-34.8	-36.0	29.0	3.02e+01	60	28	0	1028653056	44	6094
2026-01-29 14:47:36.55	138.52	9.65	-34.9	-36.1	28.9	3.02e+01	57	28	0	1034420224	44	6200
2026-01-29 14:47:39.58	138.92	9.44	-35.1	-36.4	28.7	3.02e+01	45	29	0	1040187392	44	6378
2026-01-29 14:47:42.61	139.32	9.23	-35.5	-36.8	28.3	3.02e+01	49	28	0	1045954560	44	6678
2026-01-29 14:47:45.64	139.72	9.02	-36.2	-37.5	27.6	3.02e+01	59	28	0	1051721728	46	6445
2026-01-29 14:47:48.67	140.11	8.82	-37.0	-38.4	26.5	3.02e+01	52	28	0	1057488896	48	6377
2026-01-29 14:47:51.70	140.49	8.61	-37.6	-39.1	25.7	3.02e+01	63	28	0	1062731776	48	6895
2026-01-29 14:47:54.73	140.87	8.41	-38.2	-39.8	24.9	3.02e+01	56	28	0	1068498944	50	6655
2026-01-29 14:47:57.76	141.24	8.20	-38.6	-40.2	24.4	3.02e+01	60	29	0	1074266112	50	7002
2026-01-29 14:48:00.78	141.60	8.00	-38.5	-40.1	24.6	3.02e+01	51	28	0	1080033280	50	6915
2026-01-29 14:48:03.81	141.96	7.80	-38.3	-39.9	24.8	3.02e+01	53	28	0	1085800448	50	6783
2026-01-29 14:48:06.84	142.32	7.60	-38.1	-39.6	25.2	3.02e+01	59	28	0	1091567616	50	6548
2026-01-29 14:48:09.87	142.67	7.40	-37.8	-39.3	25.6	3.02e+01	60	28	0	1096810496	50	6281
2026-01-29 14:48:12.90	143.02	7.20	-37.3	-38.8	26.0	3.02e+01	58	28	0	1102577664	50	5973
2026-01-29 14:48:15.93	143.36	7.00	-37.2	-38.7	26.2	3.02e+01	60	28	0	1108344832	50	5868
2026-01-29 14:48:18.96	143.69	6.80	-37.4	-38.9	26.1	3.02e+01	59	28	0	1114112000	50	6003
2026-01-29 14:48:21.99	144.02	6.61	-37.3	-38.7	26.2	3.02e+01	60	28	0	1119879168	50	5897
2026-01-29 14:48:25.02	144.35	6.41	-37.1	-38.6	26.2	3.02e+01	51	29	0	1125646336	50	5803
2026-01-29 14:48:28.04	144.67	6.22	-37.1	-38.5	26.2	3.02e+01	47	28	0	1130889216	48	6459
2026-01-29 14:48:31.07	144.99	6.02	-37.1	-38.5	26.3	3.02e+01	58	28	0	1136656384	48	6466
2026-01-29 14:48:34.10	145.30	5.83	-37.1	-38.6	26.4	3.02e+01	56	28	0	1142423552	48	6506
2026-01-29 14:48:37.13	145.61	5.64	-37.1	-38.5	26.4	3.02e+01	58	28	0	1148190720	48	6486
2026-01-29 14:48:40.16	145.92	5.45	-37.1	-38.6	26.3	3.02e+01	57	29	0	1153957888	48	6507
2026-01-29 14:48:43.18	146.22	5.26	-37.0	-38.4	26.3	3.02e+01	58	28	0	1159200768	48	6419
2026-01-29 14:48:46.21	146.51	5.07	-36.9	-38.3	26.5	3.02e+01	49	28	0	1164967936	48	6314
2026-01-29 14:48:49.24	146.81	4.88	-36.9	-38.3	26.4	3.02e+01	37	29	0	1170735104	48	6327
2026-01-29 14:48:52.27	147.10	4.70	-37.1	-38.5	26.4	3.02e+01	60	28	0	1176502272	48	6449
2026-01-29 14:48:55.29	147.38	4.51	-37.2	-38.7	26.0	3.02e+01	58	28	0	1182269440	48	6619
2026-01-29 14:48:58.33	147.66	4.32	-37.5	-39.0	25.7	3.02e+01	59	28	0	1188036608	48	6811
2026-01-29 14:49:01.35	147.94	4.14	-37.3	-38.7	25.9	3.02e+01	62	28	0	1193803776	48	6623
2026-01-29 14:49:04.38	148.21	3.96	-37.7	-39.2	25.5	3.02e+01	61	28	0	1199046656	48	6980
2026-01-29 14:49:07.41	148.48	3.77	-37.3	-38.8	25.6	3.02e+01	59	28	0	1204813824	48	6670
2026-01-29 14:49:10.44	148.75	3.59	-37.6	-39.1	25.4	3.02e+01	52	28	0	1210580992	48	6942
2026-01-29 14:49:13.47	149.01	3.41	-38.2	-39.8	24.7	3.02e+01	51	29	0	1216348160	50	6690
2026-01-29 14:49:16.49	149.27	3.23	-38.3	-39.9	24.7	3.02e+01	62	29	0	1222115328	50	6776
2026-01-29 14:49:19.52	149.53	3.05	-39.3	-41.1	23.4	3.02e+01	61	28	0	1227358208	52	6943
2026-01-29 14:49:22.55	149.78	2.87	-47.5	-65.6	3.5	3.02e+01	0	29	104	1229455360	60	73444
2026-01-29 14:49:25.58	150.03	2.70	-48.7	-66.5	3.5	3.02e+01	0	28	104	1229455360	60	81589
2026-01-29 14:49:28.61	150.28	2.52	-48.8	-66.8	3.5	3.02e+01	0	29	104	1229455360	60	84166
2026-01-29 14:49:31.64	150.53	2.34	-48.7	-66.9	3.5	3.02e+01	0	29	104	1229455360	60	85097
2026-01-29 14:49:34.67	150.77	2.17	-49.0	-66.9	3.5	3.02e+01	0	29	104	1229455360	60	84916
2026-01-29 14:49:37.70	151.01	1.99	-49.0	-66.9	3.5	3.02e+01	0	29	104	1229455360	60	85126
2026-01-29 14:49:40.72	151.24	1.82	-49.0	-66.9	3.5	3.02e+01	0	29	104	1229455360	60	85181
2026-01-29 14:49:43.75	151.47	1.65	-49.0	-66.9	3.5	3.02e+01	0	29	104	1229455360	60	84698
2026-01-29 14:49:46.78	151.70	1.48	-49.0	-66.9	3.5	3.02e+01	0	29	104	1229455360	60	84951
2026-01-29 14:49:49.81	151.93	1.31	-49.0	-66.9	3.5	3.02e+01	0	29	104	1229455360	60	84813
2026-01-29 14:49:52.84	152.15	1.14	-49.1	-66.9	3.5	3.02e+01	0	29	104	1229455360	60	85101
2026-01-29 14:49:55.88	152.38	0.97	-49.0	-66.9	3.5	3.02e+01	0	29	104	1229455360	60	84895
2026-01-29 14:49:58.91	152.59	0.80	-49.0	-66.8	3.5	3.02e+01	0	29	104	1229455360	60	84489
2026-01-29 14:50:01.93	152.81	0.63	-49.0	-66.9	3.5	3.02e+01	0	29	104	1229455360	60	84891
2026-01-29 14:50:04.96	153.02	0.46	-49.0	-66.9	3.5	3.02e+01	0	29	104	1229455360	60	85262
2026-01-29 14:50:08.00	153.24	0.30	-49.0	-66.8	3.5	3.02e+01	0	29	104	1229455360	60	84513
2026-01-29 14:50:11.03	153.44	0.13	-49.0	-66.8	3.5	3.02e+01	0	29	104	1229455360	60	84232

#Closed at: 2026-01-29 14:50:13
#Recorded file [1229 MB]: D:/lorett/data/35029_260130_023733.dat