passes_logs/2026/01/29/R4.6S_Anadyr/R4.6S_Anadyr__20260129_175917_FENGYUN_3D_rec.log

#Pass ID: 20260129_175917_FENGYUN 3D
#Satellite: FENGYUN 3D
#Configuration: FENGYUN 3D
#almurnet v.1.7.20251203
#Start time: 2026-01-29 17:59:20

#Version: 2.2.20231116
#Station: R4.6S_Anadyr
#Location: 177.4865 lon 64.73178 lat
#TLE: 1 43010U 17072A   26028.95797775  .00000451  00000+0  23492-3 0  9991
#TLE: 2 43010  98.9958   0.9922 0002505  85.7480 274.3981 14.19703224425237

#Time	Az	El	Level	Level2	SNR	BER	BlckErr	Temp	State	Recorded	gain1	gain2
2026-01-29 17:59:20.45	24.29	0.16	-48.8	-63.8	3.5	1.51e+00	0	28	0	0	60	55668
2026-01-29 17:59:24.49	24.18	0.40	-48.9	-61.0	3.6	8.46e-01	0	29	104	0	60	40630
2026-01-29 17:59:28.53	24.08	0.64	-48.9	-61.1	3.6	8.46e-01	0	29	104	0	60	40969
2026-01-29 17:59:32.57	23.97	0.88	-48.9	-61.0	3.6	8.45e-01	0	30	104	0	60	40671
2026-01-29 17:59:36.61	23.85	1.12	-48.7	-60.8	3.6	8.46e-01	0	29	104	0	60	39849
2026-01-29 17:59:40.65	23.74	1.37	-48.3	-60.4	3.6	8.45e-01	0	30	104	0	60	37979
2026-01-29 17:59:44.69	23.62	1.62	-47.6	-59.6	3.6	8.46e-01	0	30	104	0	60	34718
2026-01-29 17:59:48.73	23.50	1.86	-47.5	-59.5	3.6	8.45e-01	0	30	104	0	60	34024
2026-01-29 17:59:52.77	23.38	2.12	-47.5	-59.4	3.6	8.46e-01	0	30	104	0	60	33818
2026-01-29 17:59:56.81	23.26	2.37	-47.6	-59.6	3.6	8.45e-01	0	30	104	0	60	34620
2026-01-29 18:00:00.85	23.13	2.63	-47.5	-59.5	3.6	8.45e-01	0	30	104	0	60	33945
2026-01-29 18:00:04.89	23.00	2.88	-47.3	-57.3	3.6	8.44e-01	0	30	104	0	60	26461
2026-01-29 18:00:08.94	22.87	3.14	-47.5	-59.3	3.6	8.46e-01	0	30	104	0	60	33317
2026-01-29 18:00:12.98	22.73	3.41	-44.7	-47.8	10.6	6.31e-03	0	30	0	9437184	60	8838
2026-01-29 18:00:17.02	22.60	3.67	-40.6	-42.0	16.8	0.00e+00	0	30	0	31457280	54	6400
2026-01-29 18:00:21.07	22.46	3.94	-44.3	-47.2	8.5	0.00e+00	0	30	0	53477376	56	10454
2026-01-29 18:00:25.11	22.31	4.21	-35.6	-36.4	22.4	0.00e+00	0	30	0	63963136	44	5985
2026-01-29 18:00:29.15	22.17	4.48	-35.1	-35.9	22.8	0.00e+00	0	30	0	87031808	44	5666
2026-01-29 18:00:33.19	22.02	4.76	-35.4	-36.2	22.4	0.00e+00	0	30	0	110100480	44	5844
2026-01-29 18:00:37.23	21.87	5.03	-35.1	-35.8	22.7	0.00e+00	0	30	0	133169152	44	5627
2026-01-29 18:00:41.28	21.71	5.31	-35.3	-36.1	22.7	0.00e+00	0	30	0	155189248	44	5815
2026-01-29 18:00:45.32	21.55	5.60	-36.0	-36.8	22.3	0.00e+00	0	30	0	178257920	44	6281
2026-01-29 18:00:49.36	21.39	5.88	-35.0	-35.7	23.1	0.00e+00	0	30	0	201326592	44	5537
2026-01-29 18:00:53.40	21.23	6.17	-35.1	-35.9	23.1	0.00e+00	0	30	0	223346688	44	5645
2026-01-29 18:00:57.44	21.06	6.46	-34.9	-35.7	23.3	0.00e+00	0	30	0	246415360	44	5529
2026-01-29 18:01:01.47	20.88	6.76	-35.0	-35.8	23.2	0.00e+00	0	30	0	269484032	44	5602
2026-01-29 18:01:05.51	20.71	7.05	-34.7	-35.4	23.6	0.00e+00	0	30	0	291504128	42	6015
2026-01-29 18:01:09.55	20.53	7.36	-35.0	-35.8	23.3	0.00e+00	0	30	0	314572800	42	6252
2026-01-29 18:01:13.60	20.34	7.66	-34.7	-35.4	23.5	0.00e+00	0	30	0	337641472	42	6013
2026-01-29 18:01:17.64	20.15	7.97	-34.5	-35.3	23.8	0.00e+00	0	30	0	359661568	42	5902
2026-01-29 18:01:21.68	19.96	8.28	-34.4	-35.1	23.9	0.00e+00	0	30	0	382730240	42	5828
2026-01-29 18:01:25.71	19.76	8.59	-34.3	-35.1	24.1	0.00e+00	0	30	0	405798912	42	5771
2026-01-29 18:01:29.75	19.56	8.91	-34.4	-35.1	24.1	0.00e+00	0	30	0	427819008	42	5773
2026-01-29 18:01:33.79	19.35	9.23	-34.4	-35.1	24.1	0.00e+00	0	30	0	450887680	42	5790
2026-01-29 18:01:37.83	19.14	9.56	-34.0	-34.7	24.4	0.00e+00	0	30	0	473956352	42	5530
2026-01-29 18:01:41.87	18.92	9.89	-33.9	-34.6	24.5	0.00e+00	0	30	0	495976448	42	5463
2026-01-29 18:01:45.91	18.69	10.22	-33.9	-34.6	24.5	0.00e+00	0	30	0	519045120	42	5495
2026-01-29 18:01:49.94	18.46	10.56	-33.7	-34.4	24.7	0.00e+00	0	30	0	542113792	40	5989
2026-01-29 18:01:53.98	18.23	10.90	-33.8	-34.5	24.6	0.00e+00	0	30	0	564133888	40	6072
2026-01-29 18:01:58.02	17.99	11.25	-33.7	-34.4	24.8	0.00e+00	0	30	0	587202560	40	5978
2026-01-29 18:02:02.06	17.74	11.60	-33.6	-34.3	24.9	0.00e+00	0	30	0	610271232	40	5942
2026-01-29 18:02:06.10	17.49	11.95	-33.6	-34.3	24.9	0.00e+00	0	30	0	632291328	40	5952
2026-01-29 18:02:10.14	17.23	12.31	-33.6	-34.3	24.9	0.00e+00	0	30	0	655360000	40	5951
2026-01-29 18:02:14.17	16.96	12.68	-33.7	-34.4	24.9	0.00e+00	0	30	0	678428672	40	5997
2026-01-29 18:02:18.21	16.69	13.05	-33.1	-33.8	25.4	0.00e+00	0	30	0	700448768	40	5568
2026-01-29 18:02:22.25	16.41	13.42	-33.1	-33.8	25.3	0.00e+00	0	30	0	723517440	40	5603
2026-01-29 18:02:26.29	16.12	13.80	-33.0	-33.6	25.6	0.00e+00	0	30	0	746586112	40	5483
2026-01-29 18:02:30.33	15.82	14.18	-32.9	-33.5	25.6	0.00e+00	0	30	0	768606208	38	6083
2026-01-29 18:02:34.37	15.52	14.57	-32.9	-33.5	25.7	0.00e+00	0	30	0	791674880	38	6082
2026-01-29 18:02:38.41	15.20	14.97	-32.6	-33.3	25.9	0.00e+00	0	30	0	814743552	38	5922
2026-01-29 18:02:42.45	14.88	15.37	-32.6	-33.2	26.0	0.00e+00	0	30	0	836763648	38	5886
2026-01-29 18:02:46.49	14.55	15.78	-32.4	-33.1	26.1	0.00e+00	0	30	0	859832320	38	5790
2026-01-29 18:02:50.54	14.21	16.19	-32.4	-33.1	26.1	0.00e+00	0	30	0	882900992	38	5771
2026-01-29 18:02:54.58	13.85	16.61	-32.4	-33.1	26.1	0.00e+00	0	30	0	904921088	38	5814
2026-01-29 18:02:58.63	13.49	17.04	-32.2	-32.9	26.2	0.00e+00	0	30	0	927989760	38	5662
2026-01-29 18:03:02.66	13.12	17.47	-31.9	-32.6	26.6	0.00e+00	0	30	0	951058432	38	5450
2026-01-29 18:03:06.70	12.73	17.90	-31.8	-32.5	26.6	0.00e+00	0	30	0	973078528	38	5401
2026-01-29 18:03:10.74	12.34	18.35	-31.7	-32.4	26.7	0.00e+00	0	30	0	996147200	36	5976
2026-01-29 18:03:14.78	11.93	18.80	-31.9	-32.5	26.7	0.00e+00	0	30	0	1019215872	36	6058
2026-01-29 18:03:18.82	11.51	19.26	-31.7	-32.3	26.8	0.00e+00	0	30	0	1042284544	36	5950
2026-01-29 18:03:22.87	11.07	19.72	-31.3	-31.9	27.2	0.00e+00	0	30	0	1064304640	36	5674
2026-01-29 18:03:26.90	10.63	20.19	-31.2	-31.8	27.3	0.00e+00	0	30	0	1087373312	36	5579
2026-01-29 18:03:30.94	10.16	20.67	-31.2	-31.8	27.1	0.00e+00	0	30	0	1109393408	36	5624
2026-01-29 18:03:34.98	9.68	21.15	-31.3	-31.9	27.2	0.00e+00	0	31	0	1132462080	36	5665
2026-01-29 18:03:39.02	9.19	21.65	-31.0	-31.6	27.4	0.00e+00	0	31	0	1155530752	36	5502
2026-01-29 18:03:43.06	8.68	22.15	-30.7	-31.4	27.7	0.00e+00	0	31	0	1177550848	34	5968
2026-01-29 18:03:47.10	8.15	22.65	-30.7	-31.4	27.6	0.00e+00	0	31	0	1200619520	34	5965
2026-01-29 18:03:51.14	7.61	23.17	-30.7	-31.4	27.7	0.00e+00	0	31	0	1223688192	34	5994
2026-01-29 18:03:55.18	7.04	23.69	-30.6	-31.2	27.7	0.00e+00	0	31	0	1246756864	34	5869
2026-01-29 18:03:59.22	6.46	24.22	-30.4	-31.0	27.9	0.00e+00	0	30	0	1268776960	34	5720
2026-01-29 18:04:03.26	5.85	24.76	-30.5	-31.2	27.9	0.00e+00	0	31	0	1291845632	34	5835
2026-01-29 18:04:07.30	5.22	25.30	-30.5	-31.2	27.8	0.00e+00	0	31	0	1313865728	34	5830
2026-01-29 18:04:11.35	4.57	25.86	-30.1	-30.7	28.2	0.00e+00	0	31	0	1336934400	34	5530
2026-01-29 18:04:15.39	3.90	26.41	-29.8	-30.4	28.4	0.00e+00	0	31	0	1360003072	34	5341
2026-01-29 18:04:19.43	3.20	26.98	-30.1	-30.7	28.2	0.00e+00	0	31	0	1383071744	34	5524
2026-01-29 18:04:23.47	2.48	27.55	-30.2	-30.8	28.1	0.00e+00	0	31	0	1405091840	34	5573
2026-01-29 18:04:27.51	1.73	28.13	-30.1	-30.7	28.2	0.00e+00	0	31	0	1428160512	34	5513
2026-01-29 18:04:31.55	0.95	28.72	-30.3	-30.9	27.9	0.00e+00	0	31	0	1451229184	34	5669
2026-01-29 18:04:35.59	0.14	29.31	-29.8	-30.5	28.4	0.00e+00	0	31	0	1473249280	34	5380
2026-01-29 18:04:39.63	359.30	29.91	-29.7	-30.3	28.5	0.00e+00	0	31	0	1496317952	32	5904
2026-01-29 18:04:43.67	358.43	30.52	-29.7	-30.2	28.5	0.00e+00	0	31	0	1519386624	32	5879
2026-01-29 18:04:47.71	357.52	31.13	-29.4	-30.0	28.7	0.00e+00	0	31	0	1541406720	32	5725
2026-01-29 18:04:51.75	356.58	31.74	-29.6	-30.2	28.5	0.00e+00	0	31	0	1564475392	32	5871
2026-01-29 18:04:55.79	355.60	32.36	-29.8	-30.4	28.5	0.00e+00	0	31	0	1587544064	32	5971
2026-01-29 18:04:59.83	354.58	32.98	-29.8	-30.5	28.3	0.00e+00	0	31	0	1609564160	32	6037
2026-01-29 18:05:03.87	353.52	33.60	-29.5	-30.1	28.7	0.00e+00	0	31	0	1632632832	32	5777
2026-01-29 18:05:07.91	352.42	34.22	-29.8	-30.5	28.3	0.00e+00	0	31	0	1655701504	32	6058
2026-01-29 18:05:11.95	351.28	34.85	-29.6	-30.3	28.6	0.00e+00	0	31	0	1677721600	32	5909
2026-01-29 18:05:15.99	350.09	35.47	-29.6	-30.3	28.6	0.00e+00	0	31	0	1700790272	32	5897
2026-01-29 18:05:20.03	348.86	36.09	-29.6	-30.2	28.6	0.00e+00	0	31	0	1723858944	32	5855
2026-01-29 18:05:24.07	347.57	36.71	-29.5	-30.1	28.5	0.00e+00	0	31	0	1745879040	32	5801
2026-01-29 18:05:28.12	346.24	37.32	-29.5	-30.1	28.7	0.00e+00	0	31	0	1768947712	32	5826
2026-01-29 18:05:32.15	344.86	37.92	-29.7	-30.4	28.4	0.00e+00	0	31	0	1792016384	32	5973
2026-01-29 18:05:36.19	343.42	38.51	-30.0	-30.7	28.1	0.00e+00	0	31	0	1814036480	32	6184
2026-01-29 18:05:40.24	341.93	39.10	-30.0	-30.6	28.2	0.00e+00	0	31	0	1837105152	32	6170
2026-01-29 18:05:44.28	340.39	39.67	-29.8	-30.4	28.5	0.00e+00	0	31	0	1860173824	32	5991
2026-01-29 18:05:48.32	338.79	40.22	-30.0	-30.6	28.2	0.00e+00	0	31	0	1883242496	32	6169
2026-01-29 18:05:52.37	337.13	40.76	-29.6	-30.2	28.4	0.00e+00	0	31	0	1905262592	32	5879
2026-01-29 18:05:56.41	335.42	41.27	-29.5	-30.2	28.6	0.00e+00	0	31	0	1928331264	32	5835
2026-01-29 18:06:00.45	333.66	41.76	-29.8	-30.5	28.4	0.00e+00	0	31	0	1950351360	32	6040
2026-01-29 18:06:04.49	331.84	42.23	-29.6	-30.3	28.6	0.00e+00	0	31	0	1973420032	32	5906
2026-01-29 18:06:08.53	329.97	42.67	-29.1	-29.7	28.9	0.00e+00	0	31	0	1996488704	32	5539
2026-01-29 18:06:12.57	328.05	43.08	-29.1	-29.7	28.9	0.00e+00	0	30	0	2019557376	32	5557
2026-01-29 18:06:16.61	326.08	43.46	-29.7	-30.3	28.5	0.00e+00	0	31	0	2041577472	32	5910
2026-01-29 18:06:20.65	324.07	43.80	-29.3	-29.9	28.7	0.00e+00	0	31	0	2064646144	32	5674
2026-01-29 18:06:24.69	322.02	44.10	-29.5	-30.1	28.7	0.00e+00	0	31	0	2087714816	32	5772
2026-01-29 18:06:28.73	319.93	44.36	-29.6	-30.3	28.5	0.00e+00	0	31	0	2109734912	32	5908
2026-01-29 18:06:32.78	317.80	44.58	-29.5	-30.1	28.6	0.00e+00	0	31	0	2132803584	32	5805
2026-01-29 18:06:36.82	315.65	44.76	-29.5	-30.1	28.6	0.00e+00	0	31	0	2155872256	32	5827
2026-01-29 18:06:40.86	313.48	44.89	-29.6	-30.2	28.5	0.00e+00	0	31	0	2177892352	32	5871
2026-01-29 18:06:44.90	311.29	44.98	-29.5	-30.1	28.5	0.00e+00	0	31	0	2200961024	32	5798
2026-01-29 18:06:48.93	309.10	45.02	-29.4	-30.0	28.7	0.00e+00	0	31	0	2224029696	32	5736
2026-01-29 18:06:52.98	306.90	45.01	-29.4	-30.0	28.7	0.00e+00	0	31	0	2246049792	32	5754
2026-01-29 18:06:57.01	304.71	44.96	-29.2	-29.8	28.5	0.00e+00	0	31	0	2269118464	32	5613
2026-01-29 18:07:01.05	302.52	44.86	-29.5	-30.0	28.5	0.00e+00	0	31	0	2292187136	32	5757
2026-01-29 18:07:05.10	300.35	44.72	-29.4	-30.1	28.7	0.00e+00	0	31	0	2314207232	32	5777
2026-01-29 18:07:09.13	298.21	44.53	-29.5	-30.1	28.7	0.00e+00	0	31	0	2337275904	32	5788
2026-01-29 18:07:13.18	296.09	44.29	-29.6	-30.2	28.5	0.00e+00	0	31	0	2360344576	32	5883
2026-01-29 18:07:17.21	294.01	44.02	-29.2	-29.9	28.8	0.00e+00	0	31	0	2382364672	32	5671
2026-01-29 18:07:21.25	291.97	43.70	-29.3	-29.8	28.8	0.00e+00	0	31	0	2405433344	32	5607
2026-01-29 18:07:25.30	289.96	43.35	-29.1	-29.7	28.9	0.00e+00	0	31	0	2428502016	32	5550
2026-01-29 18:07:29.34	288.00	42.97	-29.3	-29.8	28.8	0.00e+00	0	31	0	2450522112	32	5620
2026-01-29 18:07:33.38	286.09	42.55	-29.5	-30.0	28.6	0.00e+00	0	31	0	2473590784	32	5735
2026-01-29 18:07:37.42	284.24	42.10	-29.4	-30.1	28.7	0.00e+00	0	31	0	2496659456	32	5791
2026-01-29 18:07:41.46	282.43	41.62	-29.3	-29.8	28.8	0.00e+00	0	31	0	2518679552	32	5587
2026-01-29 18:07:45.51	280.68	41.12	-29.5	-30.1	28.7	0.00e+00	0	31	0	2541748224	32	5805
2026-01-29 18:07:49.55	278.98	40.60	-29.3	-30.0	28.8	0.00e+00	0	31	0	2564816896	32	5733
2026-01-29 18:07:53.59	277.34	40.05	-29.3	-30.0	28.8	0.00e+00	0	31	0	2586836992	32	5713
2026-01-29 18:07:57.63	275.75	39.49	-29.0	-29.7	29.0	0.00e+00	0	31	0	2609905664	32	5535
2026-01-29 18:08:01.65	274.23	38.92	-29.2	-29.7	28.8	0.00e+00	0	31	0	2632974336	32	5558
2026-01-29 18:08:05.69	272.75	38.34	-29.5	-30.2	28.5	0.00e+00	0	30	0	2654994432	32	5887
2026-01-29 18:08:09.73	271.33	37.74	-29.6	-30.2	28.6	0.00e+00	0	31	0	2678063104	32	5869
2026-01-29 18:08:13.77	269.96	37.13	-29.4	-30.0	28.6	0.00e+00	0	31	0	2701131776	32	5713
2026-01-29 18:08:17.81	268.63	36.52	-29.1	-29.8	28.8	0.00e+00	0	31	0	2723151872	32	5591
2026-01-29 18:08:21.85	267.36	35.90	-29.4	-29.9	28.7	0.00e+00	0	31	0	2746220544	32	5691
2026-01-29 18:08:25.89	266.14	35.28	-29.1	-29.7	28.6	0.00e+00	0	31	0	2769289216	32	5527
2026-01-29 18:08:29.93	264.96	34.65	-29.0	-29.7	28.7	0.00e+00	0	31	0	2791309312	32	5518
2026-01-29 18:08:33.97	263.83	34.03	-29.0	-29.7	28.7	0.00e+00	0	31	0	2814377984	32	5528
2026-01-29 18:08:38.01	262.73	33.40	-29.4	-30.0	28.7	0.00e+00	0	31	0	2837446656	32	5728
2026-01-29 18:08:42.05	261.69	32.78	-29.2	-29.9	28.7	0.00e+00	0	31	0	2859466752	32	5656
2026-01-29 18:08:46.10	260.67	32.15	-29.5	-30.1	28.6	0.00e+00	0	31	0	2882535424	32	5764
2026-01-29 18:08:50.14	259.70	31.54	-29.5	-30.2	28.3	0.00e+00	0	31	0	2905604096	32	5836
2026-01-29 18:08:54.18	258.77	30.92	-29.9	-30.5	28.1	0.00e+00	0	31	0	2928672768	32	6069
2026-01-29 18:08:58.22	257.87	30.31	-29.8	-30.4	28.1	0.00e+00	0	31	0	2950692864	32	5967
2026-01-29 18:09:02.25	257.00	29.71	-29.6	-30.3	28.3	0.00e+00	0	31	0	2973761536	32	5929
2026-01-29 18:09:06.29	256.17	29.11	-29.6	-30.2	28.2	0.00e+00	0	31	0	2995781632	32	5880
2026-01-29 18:09:10.33	255.37	28.51	-30.0	-30.5	27.9	0.00e+00	0	31	0	3018850304	32	6091
2026-01-29 18:09:14.38	254.59	27.93	-29.9	-30.5	28.0	0.00e+00	0	31	0	3041918976	32	6054
2026-01-29 18:09:18.42	253.85	27.35	-30.3	-31.0	27.7	0.00e+00	0	31	0	3063939072	32	6423
2026-01-29 18:09:22.46	253.13	26.77	-30.4	-31.0	27.7	0.00e+00	0	31	0	3087007744	32	6415
2026-01-29 18:09:26.50	252.43	26.21	-30.1	-30.6	27.8	0.00e+00	0	31	0	3110076416	32	6140
2026-01-29 18:09:30.54	251.76	25.65	-30.1	-30.8	27.8	0.00e+00	0	31	0	3133145088	32	6276
2026-01-29 18:09:34.58	251.12	25.10	-30.2	-30.8	27.7	0.00e+00	0	31	0	3155165184	32	6264
2026-01-29 18:09:38.62	250.50	24.55	-30.2	-30.8	27.8	0.00e+00	0	31	0	3178233856	32	6316
2026-01-29 18:09:42.66	249.89	24.01	-30.0	-30.7	28.0	0.00e+00	0	31	0	3200253952	32	6200
2026-01-29 18:09:46.71	249.31	23.48	-30.1	-30.7	27.8	0.00e+00	0	31	0	3223322624	32	6175
2026-01-29 18:09:50.75	248.75	22.96	-30.4	-31.0	27.6	0.00e+00	0	31	0	3246391296	32	6406
2026-01-29 18:09:54.79	248.21	22.45	-30.5	-31.1	27.6	0.00e+00	0	31	0	3269459968	32	6476
2026-01-29 18:09:58.83	247.68	21.94	-30.5	-31.1	27.6	0.00e+00	0	31	0	3291480064	32	6489
2026-01-29 18:10:02.87	247.17	21.44	-30.7	-31.4	27.5	0.00e+00	0	31	0	3314548736	32	6703
2026-01-29 18:10:06.91	246.68	20.95	-30.4	-30.9	27.6	0.00e+00	0	31	0	3336568832	32	6375
2026-01-29 18:10:10.95	246.20	20.47	-30.7	-31.3	27.3	0.00e+00	0	31	0	3359637504	34	5912
2026-01-29 18:10:14.99	245.74	19.99	-31.1	-31.7	27.1	0.00e+00	0	31	0	3382706176	34	6187
2026-01-29 18:10:19.03	245.30	19.52	-31.3	-31.9	26.9	0.00e+00	0	31	0	3405774848	34	6350
2026-01-29 18:10:23.06	244.86	19.06	-31.4	-31.9	26.9	0.00e+00	0	31	0	3427794944	34	6385
2026-01-29 18:10:27.10	244.44	18.60	-31.6	-32.3	26.7	0.00e+00	0	31	0	3450863616	34	6645
2026-01-29 18:10:31.14	244.04	18.15	-31.8	-32.4	26.5	0.00e+00	0	31	0	3473932288	36	6012
2026-01-29 18:10:35.19	243.64	17.71	-31.8	-32.6	26.5	0.00e+00	0	31	0	3495952384	36	6112
2026-01-29 18:10:39.23	243.26	17.27	-31.7	-32.4	26.7	0.00e+00	0	31	0	3519021056	36	5987
2026-01-29 18:10:43.27	242.89	16.84	-31.7	-32.3	26.6	0.00e+00	0	31	0	3542089728	36	5942
2026-01-29 18:10:47.31	242.52	16.41	-31.9	-32.6	26.5	0.00e+00	0	31	0	3564109824	36	6120
2026-01-29 18:10:51.35	242.17	16.00	-32.3	-32.9	26.1	0.00e+00	0	31	0	3587178496	36	6335
2026-01-29 18:10:55.39	241.83	15.58	-32.2	-32.8	26.2	0.00e+00	0	31	0	3610247168	36	6255
2026-01-29 18:10:59.43	241.50	15.18	-32.5	-33.3	25.8	0.00e+00	0	31	0	3632267264	36	6628
2026-01-29 18:11:03.47	241.18	14.78	-32.9	-33.5	25.5	0.00e+00	0	31	0	3655335936	38	6097
2026-01-29 18:11:07.51	240.86	14.38	-33.0	-33.6	25.4	0.00e+00	0	31	0	3678404608	38	6132
2026-01-29 18:11:11.55	240.56	13.99	-33.1	-33.7	25.3	0.00e+00	0	31	0	3700424704	38	6231
2026-01-29 18:11:15.59	240.26	13.61	-33.4	-34.0	25.1	0.00e+00	0	31	0	3723493376	38	6428
2026-01-29 18:11:19.63	239.97	13.23	-33.8	-34.4	24.7	0.00e+00	0	31	0	3746562048	38	6715
2026-01-29 18:11:23.68	239.69	12.85	-33.9	-34.5	24.5	0.00e+00	0	31	0	3768582144	40	6080
2026-01-29 18:11:27.72	239.42	12.49	-34.5	-35.3	23.9	0.00e+00	0	31	0	3791650816	40	6617
2026-01-29 18:11:31.76	239.15	12.12	-34.7	-35.4	23.6	0.00e+00	0	31	0	3814719488	42	6016
2026-01-29 18:11:35.80	238.89	11.76	-35.3	-36.0	23.0	0.00e+00	0	31	0	3836739584	42	6418
2026-01-29 18:11:39.84	238.63	11.41	-35.6	-36.5	22.7	0.00e+00	0	31	0	3859808256	42	6799
2026-01-29 18:11:43.88	238.38	11.06	-36.1	-36.8	22.2	0.00e+00	0	31	0	3882876928	44	6312
2026-01-29 18:11:47.92	238.14	10.71	-36.6	-37.4	21.7	0.00e+00	0	31	0	3905945600	44	6725
2026-01-29 18:11:51.96	237.91	10.37	-37.3	-38.2	21.0	0.00e+00	0	31	0	3927965696	46	6591
2026-01-29 18:11:56.01	237.68	10.03	-37.8	-38.8	20.4	0.00e+00	0	31	0	3951034368	48	6248
2026-01-29 18:12:00.05	237.45	9.70	-38.4	-39.3	19.7	0.00e+00	0	31	0	3973054464	48	6692
2026-01-29 18:12:04.09	237.23	9.37	-38.9	-39.9	19.2	0.00e+00	0	31	0	3996123136	50	6364
2026-01-29 18:12:08.13	237.02	9.04	-39.5	-40.6	18.4	0.00e+00	0	31	0	4019191808	50	6878
2026-01-29 18:12:12.17	236.81	8.72	-40.2	-41.4	17.7	0.00e+00	0	31	0	4042260480	52	6704
2026-01-29 18:12:16.21	236.60	8.41	-40.8	-42.1	16.8	0.00e+00	0	31	0	4064280576	54	6514
2026-01-29 18:12:20.25	236.40	8.09	-41.4	-42.9	16.2	0.00e+00	0	31	0	4087349248	54	7124
2026-01-29 18:12:24.30	236.21	7.78	-42.1	-43.7	15.2	0.00e+00	0	31	0	4110417920	56	6978
2026-01-29 18:12:28.34	236.02	7.47	-42.8	-44.7	14.1	0.00e+00	0	31	0	4132438016	58	6938
2026-01-29 18:12:32.38	235.83	7.17	-43.4	-45.6	13.2	5.70e-06	0	31	0	4155506688	58	7702
2026-01-29 18:12:36.42	235.65	6.87	-44.0	-46.5	12.2	1.21e-04	0	31	0	4178575360	60	7631
2026-01-29 18:12:40.46	235.47	6.57	-44.5	-47.4	11.0	1.20e-03	0	31	0	4200595456	60	8435
2026-01-29 18:12:44.51	235.29	6.28	-45.0	-48.3	9.9	5.58e-03	0	31	0	4223664128	60	9379
2026-01-29 18:12:48.55	235.12	5.98	-45.5	-49.1	8.9	2.01e-02	0	31	0	4246732800	60	10308
2026-01-29 18:12:52.59	234.96	5.70	-45.8	-50.0	7.8	6.26e-02	0	31	0	4268752896	60	11426
2026-01-29 18:12:56.63	234.79	5.41	-46.1	-50.7	6.8	1.45e-01	0	31	0	4291821568	60	12408
2026-01-29 18:13:00.67	234.63	5.13	-46.3	-51.6	5.8	2.49e-01	0	31	0	4314890240	60	13676
2026-01-29 18:13:04.71	234.47	4.85	-46.3	-51.9	5.3	4.90e-01	0	31	0	4334813184	60	14160
2026-01-29 18:13:08.75	234.32	4.57	-46.4	-52.6	4.6	7.87e-01	0	31	0	4339007488	60	15497
2026-01-29 18:13:12.79	234.17	4.30	-46.4	-53.3	4.2	8.17e-01	0	31	0	4339007488	60	16656
2026-01-29 18:13:16.83	234.02	4.03	-46.4	-55.2	3.9	8.39e-01	0	31	0	4339007488	60	20770
2026-01-29 18:13:20.86	233.88	3.76	-46.4	-56.1	3.8	8.44e-01	0	31	104	4339007488	60	22958
2026-01-29 18:13:24.91	233.73	3.49	-46.4	-56.7	3.6	8.44e-01	0	31	104	4339007488	60	24760
2026-01-29 18:13:28.95	233.59	3.22	-46.2	-58.0	3.6	8.45e-01	0	31	104	4339007488	60	28623
2026-01-29 18:13:32.99	233.46	2.96	-46.8	-58.9	3.6	8.45e-01	0	31	104	4339007488	60	32006
2026-01-29 18:13:37.03	233.32	2.70	-48.8	-61.0	3.6	8.45e-01	0	31	104	4339007488	60	40379
2026-01-29 18:13:41.07	233.19	2.45	-49.0	-61.1	3.6	8.45e-01	0	31	104	4339007488	60	41061
2026-01-29 18:13:45.11	233.06	2.19	-49.0	-61.2	3.6	8.46e-01	0	31	104	4339007488	60	41315
2026-01-29 18:13:49.15	232.93	1.94	-48.5	-61.1	3.6	8.46e-01	0	31	104	4339007488	60	41023
2026-01-29 18:13:53.19	232.81	1.69	-48.9	-61.0	3.6	8.46e-01	0	31	104	4339007488	60	40604
2026-01-29 18:13:57.23	232.69	1.44	-48.8	-60.9	3.6	8.45e-01	0	31	104	4339007488	60	40260
2026-01-29 18:14:01.27	232.57	1.19	-48.8	-61.0	3.6	8.47e-01	0	31	104	4339007488	60	40484
2026-01-29 18:14:05.31	232.45	0.94	-48.8	-61.0	3.6	8.46e-01	0	31	104	4339007488	60	40436
2026-01-29 18:14:09.35	232.33	0.70	-48.8	-61.0	3.6	8.45e-01	0	31	104	4339007488	60	40442
2026-01-29 18:14:13.39	232.22	0.46	-48.8	-61.0	3.6	8.45e-01	0	31	104	4339007488	60	40343
2026-01-29 18:14:17.42	232.11	0.22	-48.8	-60.9	3.6	8.46e-01	0	31	104	4339007488	60	40259
2026-01-29 18:14:21.47	232.00	-0.02	-48.8	-61.0	3.6	8.45e-01	0	31	104	4339007488	60	40517

#Closed at: 2026-01-29 18:14:22
#Recorded file [4339 MB]: D:/lorett/data/35029_260130_055920.dat