passes_logs/2026/01/29/R4.6S_Anadyr/R4.6S_Anadyr__20260129_134202_SUOMI_NPP_rec.log

#Pass ID: 20260129_134202_SUOMI NPP
#Satellite: SUOMI NPP
#Configuration: NPP
#almurnet v.1.7.20251203
#Start time: 2026-01-29 13:42:04

#Version: 2.2.20231116
#Station: R4.6S_Anadyr
#Location: 177.4865 lon 64.73178 lat
#TLE: 1 37849U 11061A   26028.91916408  .00000155  00000+0  94467-4 0  9990
#TLE: 2 37849  98.7824 330.8488 0002045  39.4457 320.6868 14.19531289738686

#Time	Az	El	Level	Level2	SNR	BER	BlckErr	Temp	State	Recorded	gain1	gain2
2026-01-29 13:42:04.33	19.05	0.10	-48.8	-61.4	3.4	1.52e+00	0	26	0	0	60	41238
2026-01-29 13:42:08.36	19.20	0.34	-49.0	-64.2	3.6	1.51e+00	0	27	104	0	60	58542
2026-01-29 13:42:12.40	19.35	0.57	-48.8	-64.0	3.6	1.51e+00	0	28	104	0	60	57114
2026-01-29 13:42:16.44	19.51	0.80	-48.7	-63.9	3.6	1.51e+00	0	28	104	0	60	56852
2026-01-29 13:42:20.47	19.67	1.04	-48.5	-63.7	3.6	1.51e+00	0	28	104	0	60	55178
2026-01-29 13:42:24.51	19.83	1.28	-48.0	-63.2	3.6	1.51e+00	0	28	104	0	60	52479
2026-01-29 13:42:28.55	19.99	1.52	-47.4	-62.5	3.6	1.51e+00	0	28	104	0	60	48383
2026-01-29 13:42:32.59	20.15	1.76	-47.4	-62.4	3.6	1.51e+00	0	28	104	0	60	47457
2026-01-29 13:42:36.63	20.32	2.01	-47.3	-62.5	3.6	1.51e+00	0	28	104	0	60	48123
2026-01-29 13:42:40.66	20.49	2.25	-47.4	-62.5	3.6	1.51e+00	0	28	104	0	60	48360
2026-01-29 13:42:44.70	20.66	2.50	-47.3	-61.7	3.6	1.51e+00	0	28	104	0	60	44174
2026-01-29 13:42:48.74	20.84	2.75	-47.3	-61.3	3.6	1.51e+00	0	28	104	0	60	42207
2026-01-29 13:42:52.78	21.01	3.00	-45.1	-49.2	12.3	3.88e-03	0	28	0	5242880	60	10399
2026-01-29 13:42:56.82	21.19	3.26	-42.5	-44.6	16.9	0.00e+00	0	28	0	12582912	58	6925
2026-01-29 13:43:00.86	21.38	3.52	-43.3	-45.8	15.7	0.00e+00	48	28	0	19922944	58	7935
2026-01-29 13:43:04.90	21.56	3.77	-47.0	-55.7	4.9	1.53e-03	32	28	0	27262976	60	22004
2026-01-29 13:43:08.94	21.75	4.04	-43.8	-46.6	15.3	0.00e+00	0	28	0	30408704	60	7723
2026-01-29 13:43:12.97	21.94	4.30	-43.0	-45.3	16.4	0.00e+00	0	28	0	37748736	58	7432
2026-01-29 13:43:17.01	22.14	4.56	-42.9	-45.2	16.8	0.00e+00	8	28	0	45088768	58	7394
2026-01-29 13:43:21.05	22.33	4.83	-42.6	-44.7	17.0	0.00e+00	0	28	0	53477376	58	6953
2026-01-29 13:43:25.08	22.53	5.10	-41.5	-43.2	18.4	0.00e+00	0	28	0	60817408	56	6603
2026-01-29 13:43:29.12	22.74	5.38	-41.0	-42.6	19.2	0.00e+00	0	28	0	68157440	56	6106
2026-01-29 13:43:33.16	22.95	5.65	-41.7	-43.4	18.4	0.00e+00	81	28	0	75497472	56	6696
2026-01-29 13:43:37.19	23.16	5.93	-41.2	-42.8	19.0	0.00e+00	0	28	0	83886080	56	6255
2026-01-29 13:43:41.23	23.37	6.21	-41.1	-42.7	19.0	0.00e+00	0	28	0	91226112	56	6208
2026-01-29 13:43:45.27	23.59	6.50	-40.9	-42.4	19.3	0.00e+00	0	28	0	98566144	54	6700
2026-01-29 13:43:49.31	23.82	6.78	-40.6	-42.0	19.6	0.00e+00	84	28	0	105906176	54	6429
2026-01-29 13:43:53.34	24.04	7.07	-40.7	-42.2	19.7	0.00e+00	0	28	0	113246208	54	6566
2026-01-29 13:43:57.38	24.28	7.36	-40.3	-41.7	19.9	0.00e+00	0	28	0	121634816	54	6228
2026-01-29 13:44:01.41	24.51	7.66	-40.2	-41.5	20.2	0.00e+00	0	28	0	128974848	54	6059
2026-01-29 13:44:05.45	24.75	7.96	-39.9	-41.2	20.4	0.00e+00	37	28	0	136314880	54	5880
2026-01-29 13:44:09.49	25.00	8.26	-39.9	-41.2	20.6	0.00e+00	0	28	0	143654912	52	6559
2026-01-29 13:44:13.53	25.25	8.57	-39.7	-40.9	20.7	0.00e+00	0	28	0	150994944	52	6367
2026-01-29 13:44:17.56	25.50	8.87	-39.3	-40.4	21.2	0.00e+00	77	28	0	159383552	52	6029
2026-01-29 13:44:21.60	25.76	9.19	-39.0	-40.1	21.5	0.00e+00	0	28	0	166723584	52	5821
2026-01-29 13:44:25.64	26.03	9.50	-38.9	-40.0	21.7	0.00e+00	0	28	0	174063616	52	5737
2026-01-29 13:44:29.68	26.30	9.82	-38.6	-39.7	21.9	0.00e+00	0	28	0	181403648	50	6178
2026-01-29 13:44:33.71	26.57	10.14	-38.6	-39.6	22.1	0.00e+00	78	29	0	189792256	50	6131
2026-01-29 13:44:37.75	26.85	10.47	-38.6	-39.6	22.1	0.00e+00	0	28	0	197132288	50	6125
2026-01-29 13:44:41.78	27.14	10.80	-38.4	-39.5	22.2	0.00e+00	0	28	0	204472320	50	6046
2026-01-29 13:44:45.82	27.43	11.13	-38.4	-39.4	22.2	0.00e+00	0	28	0	211812352	50	6009
2026-01-29 13:44:49.85	27.73	11.47	-38.3	-39.3	22.3	0.00e+00	85	28	0	219152384	50	5930
2026-01-29 13:44:53.89	28.04	11.81	-38.5	-39.5	22.2	0.00e+00	0	28	0	227540992	50	6098
2026-01-29 13:44:57.93	28.35	12.16	-38.5	-39.5	22.2	0.00e+00	0	28	0	234881024	50	6095
2026-01-29 13:45:01.97	28.68	12.51	-38.5	-39.5	22.2	0.00e+00	0	29	0	242221056	50	6097
2026-01-29 13:45:06.00	29.00	12.86	-38.3	-39.3	22.4	0.00e+00	0	28	0	249561088	50	5947
2026-01-29 13:45:10.04	29.34	13.22	-38.3	-39.3	22.3	0.00e+00	0	28	0	256901120	50	5950
2026-01-29 13:45:14.07	29.68	13.58	-38.3	-39.3	22.5	0.00e+00	0	28	0	265289728	50	5923
2026-01-29 13:45:18.11	30.03	13.95	-38.0	-39.0	22.6	0.00e+00	91	28	0	272629760	50	5727
2026-01-29 13:45:22.14	30.39	14.32	-38.3	-39.3	22.5	0.00e+00	0	28	0	279969792	50	5927
2026-01-29 13:45:26.18	30.76	14.70	-38.1	-39.1	22.6	0.00e+00	0	29	0	287309824	50	5768
2026-01-29 13:45:30.22	31.14	15.09	-38.2	-39.2	22.7	0.00e+00	0	28	0	295698432	50	5880
2026-01-29 13:45:34.26	31.52	15.47	-38.1	-39.1	22.7	0.00e+00	90	29	0	303038464	50	5769
2026-01-29 13:45:38.29	31.92	15.87	-37.9	-38.9	22.9	0.00e+00	0	28	0	310378496	48	6340
2026-01-29 13:45:42.32	32.33	16.26	-37.7	-38.6	23.1	0.00e+00	0	28	0	317718528	48	6165
2026-01-29 13:45:46.36	32.74	16.67	-38.1	-39.1	22.7	0.00e+00	0	29	0	325058560	48	6504
2026-01-29 13:45:50.40	33.17	17.07	-38.1	-39.1	22.7	0.00e+00	92	29	0	333447168	48	6501
2026-01-29 13:45:54.44	33.61	17.49	-38.5	-39.5	22.4	0.00e+00	0	29	0	340787200	48	6799
2026-01-29 13:45:58.48	34.06	17.91	-38.6	-39.7	22.0	0.00e+00	0	28	0	348127232	48	6970
2026-01-29 13:46:02.51	34.52	18.33	-38.9	-40.0	22.1	0.00e+00	0	29	0	355467264	50	6418
2026-01-29 13:46:06.55	35.00	18.76	-39.3	-40.4	21.7	0.00e+00	0	29	0	363855872	52	6011
2026-01-29 13:46:10.59	35.49	19.20	-38.9	-40.0	22.0	0.00e+00	0	28	0	371195904	52	5738
2026-01-29 13:46:14.63	35.99	19.64	-38.7	-39.8	22.2	0.00e+00	0	29	0	378535936	50	6257
2026-01-29 13:46:18.67	36.51	20.09	-38.8	-39.8	22.2	0.00e+00	78	29	0	385875968	50	6313
2026-01-29 13:46:22.70	37.04	20.54	-38.5	-39.5	22.3	0.00e+00	0	29	0	393216000	50	6057
2026-01-29 13:46:26.74	37.59	21.00	-39.1	-40.2	21.8	0.00e+00	0	29	0	401604608	50	6550
2026-01-29 13:46:30.77	38.15	21.47	-39.1	-40.1	22.1	0.00e+00	0	29	0	408944640	50	6525
2026-01-29 13:46:34.81	38.73	21.94	-38.2	-39.2	22.8	0.00e+00	83	29	0	416284672	50	5840
2026-01-29 13:46:38.85	39.33	22.42	-37.6	-38.5	23.3	0.00e+00	0	29	0	423624704	48	6083
2026-01-29 13:46:42.88	39.94	22.90	-37.2	-38.0	23.7	0.00e+00	0	29	0	430964736	48	5756
2026-01-29 13:46:46.92	40.58	23.39	-37.8	-38.8	23.0	0.00e+00	0	29	0	439353344	48	6266
2026-01-29 13:46:50.96	41.23	23.89	-38.3	-39.2	22.6	0.00e+00	0	29	0	446693376	48	6597
2026-01-29 13:46:55.00	41.91	24.39	-37.5	-38.4	23.5	0.00e+00	0	29	0	454033408	48	5965
2026-01-29 13:46:59.03	42.60	24.89	-37.8	-38.7	23.2	0.00e+00	0	29	0	461373440	48	6242
2026-01-29 13:47:03.07	43.32	25.41	-38.4	-39.4	22.6	0.00e+00	60	29	0	469762048	48	6694
2026-01-29 13:47:07.11	44.06	25.92	-38.1	-39.1	22.9	0.00e+00	0	29	0	477102080	50	5777
2026-01-29 13:47:11.15	44.83	26.45	-37.9	-38.9	23.1	0.00e+00	0	29	0	484442112	48	6320
2026-01-29 13:47:15.18	45.62	26.97	-38.7	-39.7	22.5	0.00e+00	0	29	0	491782144	48	6990
2026-01-29 13:47:19.22	46.44	27.50	-38.6	-39.5	22.5	0.00e+00	82	29	0	499122176	50	6090
2026-01-29 13:47:23.26	47.28	28.04	-37.4	-38.3	23.1	0.00e+00	0	29	0	507510784	48	5917
2026-01-29 13:47:27.29	48.15	28.58	-38.4	-39.3	22.7	0.00e+00	0	28	0	514850816	48	6684
2026-01-29 13:47:31.33	49.05	29.12	-38.6	-39.6	22.6	0.00e+00	0	29	0	522190848	50	6109
2026-01-29 13:47:35.37	49.99	29.67	-38.7	-39.7	22.4	0.00e+00	80	28	0	529530880	50	6237
2026-01-29 13:47:39.40	50.95	30.21	-39.0	-40.0	22.2	0.00e+00	0	29	0	537919488	50	6458
2026-01-29 13:47:43.44	51.94	30.76	-38.5	-39.5	22.8	0.00e+00	0	29	0	545259520	50	6076
2026-01-29 13:47:47.47	52.97	31.31	-38.7	-39.6	22.5	0.00e+00	87	29	0	552599552	50	6149
2026-01-29 13:47:51.51	54.04	31.87	-40.9	-42.2	20.1	0.00e+00	0	29	0	559939584	54	6585
2026-01-29 13:47:55.55	55.14	32.42	-42.2	-43.8	18.9	0.00e+00	0	29	0	567279616	58	6258
2026-01-29 13:47:59.58	56.27	32.96	-40.6	-41.8	20.6	0.00e+00	0	29	0	575668224	54	6312
2026-01-29 13:48:03.61	57.45	33.51	-41.8	-43.3	19.5	0.00e+00	80	29	0	583008256	56	6637
2026-01-29 13:48:07.65	58.66	34.05	-41.8	-43.3	19.5	0.00e+00	0	29	0	590348288	56	6678
2026-01-29 13:48:11.68	59.92	34.59	-41.5	-43.0	19.5	0.00e+00	0	29	0	597688320	56	6396
2026-01-29 13:48:15.72	61.21	35.12	-42.4	-44.0	18.9	0.00e+00	0	29	0	606076928	58	6445
2026-01-29 13:48:19.76	62.55	35.64	-41.3	-42.6	20.0	0.00e+00	85	29	0	613416960	56	6113
2026-01-29 13:48:23.80	63.94	36.15	-41.9	-43.3	19.2	0.00e+00	0	29	0	620756992	56	6684
2026-01-29 13:48:27.83	65.36	36.66	-40.4	-41.6	20.8	0.00e+00	0	29	0	628097024	54	6125
2026-01-29 13:48:31.87	66.83	37.15	-41.5	-42.9	19.5	0.00e+00	80	29	0	635437056	54	7115
2026-01-29 13:48:35.90	68.34	37.62	-39.7	-40.8	21.6	0.00e+00	3	29	0	643825664	52	6270
2026-01-29 13:48:39.94	69.89	38.08	-40.2	-41.3	21.1	0.00e+00	0	29	0	651165696	52	6670
2026-01-29 13:48:43.98	71.49	38.53	-39.8	-40.9	21.5	0.00e+00	0	29	0	658505728	54	5673
2026-01-29 13:48:48.02	73.14	38.95	-39.6	-40.7	21.7	0.00e+00	23	28	0	665845760	52	6228
2026-01-29 13:48:52.06	74.82	39.35	-39.4	-40.4	21.9	0.00e+00	0	29	0	674234368	52	6004
2026-01-29 13:48:56.09	76.54	39.73	-38.7	-39.7	22.5	0.00e+00	0	29	0	681574400	50	6193
2026-01-29 13:49:00.12	78.30	40.08	-41.5	-42.9	19.8	0.00e+00	0	29	0	688914432	56	6351
2026-01-29 13:49:04.16	80.10	40.41	-40.0	-41.1	21.2	0.00e+00	92	28	0	696254464	54	5800
2026-01-29 13:49:08.20	81.94	40.71	-41.2	-42.6	19.8	0.00e+00	0	29	0	703594496	54	6867
2026-01-29 13:49:12.24	83.81	40.97	-41.6	-43.0	19.7	0.00e+00	0	29	0	711983104	56	6434
2026-01-29 13:49:16.27	85.70	41.21	-41.5	-42.8	19.7	0.00e+00	0	29	0	719323136	56	6310
2026-01-29 13:49:20.31	87.62	41.41	-43.9	-46.2	16.6	0.00e+00	90	29	0	726663168	60	7377
2026-01-29 13:49:24.34	89.56	41.57	-43.5	-45.5	17.3	0.00e+00	0	29	0	734003200	60	6776
2026-01-29 13:49:28.38	91.52	41.70	-44.4	-46.9	16.0	0.00e+00	0	29	0	741343232	60	7973
2026-01-29 13:49:32.42	93.50	41.80	-41.4	-42.7	20.1	0.00e+00	87	29	0	749731840	56	6238
2026-01-29 13:49:36.46	95.48	41.85	-42.1	-43.7	18.9	0.00e+00	0	29	0	757071872	56	6936
2026-01-29 13:49:40.50	97.47	41.87	-41.2	-42.6	19.7	0.00e+00	0	29	0	764411904	54	6924
2026-01-29 13:49:44.54	99.46	41.85	-40.8	-42.1	20.3	0.00e+00	0	29	0	771751936	54	6511
2026-01-29 13:49:48.58	101.44	41.79	-40.4	-41.5	21.0	0.00e+00	83	29	0	780140544	54	6100
2026-01-29 13:49:52.61	103.42	41.70	-43.6	-45.8	17.0	0.00e+00	0	28	0	787480576	60	7055
2026-01-29 13:49:56.65	105.38	41.57	-41.8	-43.4	19.3	0.00e+00	0	29	0	794820608	54	7513
2026-01-29 13:50:00.68	107.32	41.40	-40.4	-41.6	21.0	0.00e+00	0	29	0	802160640	54	6124
2026-01-29 13:50:04.71	109.24	41.20	-39.9	-41.0	21.3	0.00e+00	72	29	0	809500672	54	5731
2026-01-29 13:50:08.75	111.14	40.97	-41.7	-43.1	19.5	0.00e+00	0	29	0	817889280	56	6521
2026-01-29 13:50:12.78	113.00	40.70	-39.7	-40.9	21.4	0.00e+00	0	29	0	825229312	52	6318
2026-01-29 13:50:16.82	114.84	40.40	-38.6	-39.6	22.5	0.00e+00	0	29	0	832569344	50	6111
2026-01-29 13:50:20.86	116.64	40.07	-39.0	-40.1	22.1	0.00e+00	92	29	0	839909376	50	6481
2026-01-29 13:50:24.90	118.41	39.72	-37.3	-38.2	23.4	0.00e+00	0	29	0	848297984	48	5868
2026-01-29 13:50:28.93	120.13	39.34	-35.2	-36.0	25.1	0.00e+00	0	29	0	855638016	44	5724
2026-01-29 13:50:32.97	121.82	38.93	-36.2	-37.0	24.5	0.00e+00	85	29	0	862978048	46	5705
2026-01-29 13:50:37.01	123.46	38.51	-36.3	-37.1	24.4	0.00e+00	0	29	0	870318080	44	6525
2026-01-29 13:50:41.04	125.06	38.06	-33.9	-34.6	25.6	0.00e+00	0	29	0	877658112	42	5499
2026-01-29 13:50:45.08	126.62	37.60	-34.1	-34.8	25.9	0.00e+00	0	29	0	886046720	42	5583
2026-01-29 13:50:49.11	128.13	37.12	-35.2	-36.0	25.2	0.00e+00	92	29	0	893386752	42	6428
2026-01-29 13:50:53.14	129.60	36.63	-35.1	-35.8	25.3	0.00e+00	0	29	0	900726784	42	6291
2026-01-29 13:50:57.18	131.02	36.13	-35.8	-36.5	24.9	0.00e+00	0	28	0	908066816	42	6848
2026-01-29 13:51:01.21	132.41	35.61	-36.6	-37.5	24.2	0.00e+00	0	29	0	915406848	46	6064
2026-01-29 13:51:05.25	133.75	35.08	-37.0	-37.9	23.9	0.00e+00	92	29	0	923795456	46	6345
2026-01-29 13:51:09.29	135.05	34.55	-35.8	-36.6	24.7	0.00e+00	0	29	0	931135488	44	6131
2026-01-29 13:51:13.33	136.31	34.01	-37.6	-38.5	23.5	0.00e+00	0	29	0	938475520	50	5401
2026-01-29 13:51:17.36	137.52	33.47	-40.7	-42.1	20.2	0.00e+00	73	29	0	945815552	52	7260
2026-01-29 13:51:21.40	138.70	32.92	-38.6	-39.6	22.6	0.00e+00	0	28	0	954204160	52	5444
2026-01-29 13:51:25.44	139.84	32.37	-42.7	-44.6	17.9	0.00e+00	0	29	0	961544192	56	7688
2026-01-29 13:51:29.47	140.94	31.82	-40.7	-41.9	20.6	0.00e+00	0	29	0	968884224	54	6362
2026-01-29 13:51:33.51	142.01	31.26	-43.4	-45.5	16.8	0.00e+00	82	29	0	976224256	58	7619
2026-01-29 13:51:37.55	143.04	30.71	-39.7	-40.8	21.6	0.00e+00	0	29	0	983564288	54	5582
2026-01-29 13:51:41.59	144.03	30.15	-41.6	-43.1	19.5	0.00e+00	0	29	0	991952896	54	7295
2026-01-29 13:51:45.62	145.00	29.61	-37.5	-38.4	23.5	0.00e+00	0	29	0	999292928	48	5985
2026-01-29 13:51:49.66	145.93	29.06	-40.8	-42.2	20.2	0.00e+00	90	29	0	1006632960	52	7355
2026-01-29 13:51:53.70	146.83	28.51	-37.6	-38.5	23.2	0.00e+00	0	29	0	1013972992	48	6051
2026-01-29 13:51:57.74	147.70	27.97	-38.5	-39.5	22.5	0.00e+00	0	29	0	1022361600	48	6839
2026-01-29 13:52:01.78	148.55	27.43	-38.5	-39.5	22.6	0.00e+00	40	29	0	1029701632	50	6099
2026-01-29 13:52:05.81	149.36	26.90	-37.4	-38.3	23.4	0.00e+00	92	29	0	1037041664	48	5927
2026-01-29 13:52:09.85	150.16	26.37	-38.1	-39.1	22.9	0.00e+00	0	29	0	1044381696	48	6491
2026-01-29 13:52:13.89	150.92	25.84	-37.3	-38.2	23.5	0.00e+00	0	29	0	1051721728	48	5879
2026-01-29 13:52:17.92	151.66	25.32	-36.9	-37.7	23.9	0.00e+00	13	29	0	1060110336	46	6235
2026-01-29 13:52:21.96	152.38	24.81	-37.0	-37.8	23.8	0.00e+00	0	29	0	1067450368	46	6296
2026-01-29 13:52:25.99	153.08	24.30	-37.1	-38.0	23.7	0.00e+00	0	29	0	1074790400	46	6398
2026-01-29 13:52:30.02	153.75	23.80	-36.9	-37.8	23.8	0.00e+00	0	28	0	1082130432	46	6271
2026-01-29 13:52:34.06	154.40	23.30	-37.2	-38.0	23.7	0.00e+00	58	29	0	1089470464	46	6436
2026-01-29 13:52:38.10	155.04	22.81	-38.5	-39.5	22.5	0.00e+00	0	29	0	1097859072	50	6072
2026-01-29 13:52:42.13	155.65	22.32	-38.1	-39.0	23.0	0.00e+00	0	29	0	1105199104	50	5742
2026-01-29 13:52:46.16	156.25	21.84	-37.9	-38.8	23.1	0.00e+00	0	29	0	1112539136	48	6309
2026-01-29 13:52:50.20	156.83	21.37	-38.7	-39.8	22.2	0.00e+00	92	29	0	1119879168	48	7009
2026-01-29 13:52:54.23	157.39	20.90	-38.4	-39.4	22.6	0.00e+00	0	29	0	1128267776	50	5975
2026-01-29 13:52:58.27	157.94	20.44	-37.0	-37.8	23.9	0.00e+00	0	29	0	1135607808	48	5597
2026-01-29 13:53:02.31	158.47	19.98	-36.9	-37.7	23.9	0.00e+00	24	29	0	1142947840	46	6206
2026-01-29 13:53:06.35	158.98	19.53	-37.5	-38.4	23.2	0.00e+00	58	29	0	1150287872	48	5975
2026-01-29 13:53:10.39	159.49	19.09	-38.1	-39.0	22.9	0.00e+00	0	29	0	1157627904	48	6451
2026-01-29 13:53:14.43	159.97	18.65	-37.0	-37.9	23.6	0.00e+00	0	29	0	1166016512	48	5655
2026-01-29 13:53:18.46	160.45	18.22	-36.8	-37.7	23.7	0.00e+00	81	28	0	1173356544	46	6181
2026-01-29 13:53:22.50	160.91	17.79	-37.2	-38.1	23.5	0.00e+00	0	29	0	1180696576	46	6526
2026-01-29 13:53:26.54	161.36	17.37	-38.0	-39.0	22.8	0.00e+00	0	29	0	1188036608	48	6398
2026-01-29 13:53:30.58	161.80	16.95	-38.1	-39.1	22.7	0.00e+00	0	28	0	1196425216	48	6493
2026-01-29 13:53:34.61	162.22	16.54	-39.1	-40.2	21.7	0.00e+00	92	29	0	1203765248	50	6589
2026-01-29 13:53:38.65	162.64	16.14	-39.7	-40.9	21.2	0.00e+00	0	28	0	1211105280	50	7096
2026-01-29 13:53:42.69	163.04	15.74	-40.2	-41.4	20.7	0.00e+00	0	28	0	1218445312	52	6733
2026-01-29 13:53:46.73	163.44	15.34	-39.7	-40.9	21.1	0.00e+00	0	29	0	1225785344	52	6345
2026-01-29 13:53:50.77	163.82	14.95	-38.8	-39.8	21.7	0.00e+00	74	29	0	1234173952	52	5588
2026-01-29 13:53:54.80	164.20	14.57	-37.6	-38.5	23.1	0.00e+00	0	29	0	1241513984	48	6057
2026-01-29 13:53:58.83	164.56	14.19	-37.2	-38.0	23.5	0.00e+00	0	29	0	1248854016	48	5748
2026-01-29 13:54:02.87	164.92	13.82	-37.0	-37.8	23.6	0.00e+00	78	29	0	1256194048	48	5616
2026-01-29 13:54:06.91	165.27	13.45	-37.4	-38.3	23.2	0.00e+00	0	29	0	1264582656	48	5954
2026-01-29 13:54:10.94	165.61	13.08	-37.8	-38.8	22.9	0.00e+00	0	29	0	1271922688	48	6259
2026-01-29 13:54:14.98	165.94	12.72	-38.4	-39.4	22.3	0.00e+00	0	28	0	1279262720	48	6766
2026-01-29 13:54:19.02	166.27	12.36	-38.8	-39.8	22.0	0.00e+00	92	29	0	1286602752	50	6312
2026-01-29 13:54:23.05	166.59	12.01	-38.9	-40.0	21.8	0.00e+00	0	28	0	1293942784	50	6398
2026-01-29 13:54:27.09	166.90	11.67	-39.0	-40.1	21.7	0.00e+00	0	29	0	1302331392	50	6481
2026-01-29 13:54:31.13	167.20	11.32	-39.0	-40.1	21.7	0.00e+00	0	29	0	1309671424	50	6467
2026-01-29 13:54:35.16	167.50	10.98	-39.0	-40.1	21.6	0.00e+00	92	29	0	1317011456	50	6511
2026-01-29 13:54:39.20	167.79	10.65	-39.7	-40.9	21.0	0.00e+00	58	29	0	1324351488	52	6337
2026-01-29 13:54:43.24	168.08	10.32	-39.5	-40.7	21.1	0.00e+00	0	28	0	1331691520	52	6202
2026-01-29 13:54:47.28	168.36	9.99	-39.7	-40.9	20.9	0.00e+00	0	29	0	1340080128	52	6338
2026-01-29 13:54:51.32	168.63	9.66	-39.8	-41.0	20.8	0.00e+00	92	29	0	1347420160	52	6448
2026-01-29 13:54:55.35	168.90	9.34	-39.5	-40.6	21.2	0.00e+00	0	29	0	1354760192	52	6170
2026-01-29 13:54:59.39	169.16	9.03	-39.3	-40.4	21.3	0.00e+00	0	29	0	1362100224	52	6006
2026-01-29 13:55:03.42	169.42	8.72	-39.0	-40.2	21.6	0.00e+00	63	28	0	1370488832	52	5838
2026-01-29 13:55:07.46	169.67	8.41	-39.0	-40.1	21.6	0.00e+00	0	29	0	1377828864	52	5804
2026-01-29 13:55:11.50	169.91	8.10	-39.0	-40.1	21.5	0.00e+00	0	29	0	1385168896	52	5781
2026-01-29 13:55:15.54	170.16	7.80	-39.1	-40.2	21.4	0.00e+00	0	29	0	1392508928	52	5894
2026-01-29 13:55:19.58	170.39	7.50	-39.3	-40.5	21.0	0.00e+00	87	29	0	1399848960	52	6053
2026-01-29 13:55:23.61	170.63	7.20	-39.6	-40.8	20.9	0.00e+00	0	29	0	1408237568	52	6285
2026-01-29 13:55:27.65	170.85	6.91	-39.9	-41.1	20.5	0.00e+00	0	29	0	1415577600	52	6537
2026-01-29 13:55:31.68	171.08	6.62	-40.2	-41.5	20.1	0.00e+00	0	29	0	1422917632	52	6819
2026-01-29 13:55:35.72	171.30	6.33	-40.6	-42.0	19.7	0.00e+00	92	28	0	1430257664	52	7248
2026-01-29 13:55:39.76	171.51	6.04	-40.7	-42.1	19.7	0.00e+00	0	29	0	1438646272	52	7277
2026-01-29 13:55:43.80	171.73	5.76	-40.9	-42.4	19.2	0.00e+00	0	28	0	1445986304	54	6744
2026-01-29 13:55:47.83	171.93	5.48	-41.2	-42.8	18.9	0.00e+00	0	28	0	1453326336	54	7009
2026-01-29 13:55:51.87	172.14	5.20	-41.4	-43.1	18.7	0.00e+00	52	29	0	1460666368	54	7287
2026-01-29 13:55:55.90	172.34	4.93	-41.3	-42.9	18.6	0.00e+00	0	28	0	1468006400	54	7168
2026-01-29 13:55:59.93	172.54	4.66	-41.2	-42.8	18.7	0.00e+00	0	28	0	1476395008	54	7068
2026-01-29 13:56:03.97	172.73	4.39	-41.1	-42.6	18.8	0.00e+00	71	28	0	1483735040	54	6900
2026-01-29 13:56:08.01	172.92	4.12	-41.5	-43.2	18.1	0.00e+00	0	29	0	1491075072	54	7348
2026-01-29 13:56:12.05	173.11	3.86	-41.3	-42.9	18.6	0.00e+00	0	29	0	1498415104	54	7112
2026-01-29 13:56:16.08	173.29	3.60	-41.2	-42.8	18.5	0.00e+00	0	29	0	1505755136	54	7063
2026-01-29 13:56:20.12	173.48	3.34	-41.1	-42.8	18.4	0.00e+00	76	29	0	1514143744	54	7026
2026-01-29 13:56:24.15	173.65	3.08	-41.3	-43.0	18.2	0.00e+00	0	29	0	1521483776	54	7251
2026-01-29 13:56:28.19	173.83	2.82	-48.3	-63.5	3.6	1.51e+00	0	29	104	1523580928	60	54261
2026-01-29 13:56:32.22	174.00	2.57	-48.6	-63.8	3.6	1.51e+00	0	29	104	1523580928	60	56212
2026-01-29 13:56:36.26	174.17	2.32	-48.7	-64.0	3.6	1.51e+00	0	29	104	1523580928	60	56976
2026-01-29 13:56:40.30	174.34	2.07	-48.8	-64.0	3.6	1.51e+00	0	29	104	1523580928	60	57062
2026-01-29 13:56:44.34	174.51	1.82	-48.7	-63.9	3.6	1.51e+00	0	29	104	1523580928	60	56559
2026-01-29 13:56:48.37	174.67	1.58	-48.7	-63.9	3.6	1.51e+00	0	29	104	1523580928	60	56645
2026-01-29 13:56:52.41	174.83	1.33	-48.7	-64.0	3.6	1.51e+00	0	29	104	1523580928	60	57132
2026-01-29 13:56:56.45	174.99	1.09	-48.8	-64.0	3.6	1.51e+00	0	29	104	1523580928	60	57599
2026-01-29 13:57:00.49	175.14	0.85	-48.9	-64.1	3.6	1.51e+00	0	29	104	1523580928	60	58192
2026-01-29 13:57:04.53	175.30	0.62	-48.7	-64.0	3.6	1.51e+00	0	29	104	1523580928	60	57012
2026-01-29 13:57:08.57	175.45	0.38	-49.0	-64.2	3.6	1.51e+00	0	29	104	1523580928	60	58372
2026-01-29 13:57:12.61	175.60	0.14	-48.8	-64.0	3.6	1.51e+00	0	29	104	1523580928	60	57407
2026-01-29 13:57:16.65	175.74	-0.09	-48.8	-64.1	3.6	1.51e+00	0	29	104	1523580928	60	57811

#Closed at: 2026-01-29 13:57:17
#Recorded file [1523 MB]: D:/lorett/data/35029_260130_014204.dat