passes_logs/2026/01/29/R4.6S_Anadyr/R4.6S_Anadyr__20260129_220818_TY-39_rec.log

#Pass ID: 20260129_220818_TY-39
#Satellite: TY-39
#Configuration: TY-39
#almurnet v.1.7.20251203
#Start time: 2026-01-29 22:08:24

#Version: 2.2.20231116
#Station: R4.6S_Anadyr
#Location: 177.4865 lon 64.73178 lat
#TLE: 1 51832U 22019J   26028.98355140  .00004481  00000-0  21254-3 0  9990
#TLE: 2 51832  97.3627  95.3313 0008690   7.4089 352.7273 15.19745294216656

#Time	Az	El	Level	Level2	SNR	BER	BlckErr	Temp	State	Recorded	gain1	gain2
2026-01-29 22:08:24.62	19.33	0.37	-49.2	-61.7	3.5	1.52e+00	0	33	0	0	60	42655
2026-01-29 22:08:27.64	19.47	0.56	-49.5	-51.9	3.6	0.00e+00	0	34	104	0	60	48402
2026-01-29 22:08:30.68	19.60	0.75	-49.5	-52.0	3.6	0.00e+00	0	35	104	0	60	48803
2026-01-29 22:08:33.71	19.73	0.94	-49.4	-51.9	3.6	0.00e+00	0	35	104	0	60	48078
2026-01-29 22:08:36.74	19.87	1.14	-49.3	-51.8	3.6	0.00e+00	0	35	104	0	60	47556
2026-01-29 22:08:39.77	20.01	1.34	-49.0	-51.5	3.6	0.00e+00	0	35	104	0	60	45894
2026-01-29 22:08:42.80	20.15	1.53	-48.7	-51.2	3.6	0.00e+00	0	35	104	0	60	44247
2026-01-29 22:08:45.83	20.30	1.73	-48.0	-50.5	3.6	0.00e+00	0	35	104	0	60	41142
2026-01-29 22:08:48.86	20.44	1.93	-48.0	-50.5	3.6	0.00e+00	0	35	104	0	60	41028
2026-01-29 22:08:51.89	20.59	2.14	-48.0	-50.5	3.6	0.00e+00	0	35	104	0	60	40878
2026-01-29 22:08:54.92	20.74	2.34	-48.0	-50.5	3.6	0.00e+00	0	35	104	0	60	41016
2026-01-29 22:08:57.95	20.90	2.55	-48.0	-50.5	3.6	0.00e+00	0	35	104	0	60	40948
2026-01-29 22:09:00.98	21.05	2.76	-48.0	-50.5	3.6	0.00e+00	0	36	104	0	60	41022
2026-01-29 22:09:04.01	21.21	2.97	-48.0	-50.5	3.6	0.00e+00	0	36	104	0	60	40865
2026-01-29 22:09:07.04	21.37	3.18	-48.0	-50.5	3.6	0.00e+00	0	36	104	0	60	40951
2026-01-29 22:09:10.07	21.54	3.40	-48.0	-50.5	3.6	0.00e+00	0	36	104	0	60	40837
2026-01-29 22:09:13.10	21.70	3.61	-48.0	-50.5	3.6	0.00e+00	0	36	104	0	60	41109
2026-01-29 22:09:16.13	21.87	3.83	-48.0	-50.5	3.6	0.00e+00	0	36	104	0	60	41071
2026-01-29 22:09:19.16	22.05	4.05	-48.0	-50.5	3.6	0.00e+00	0	36	104	0	60	40983
2026-01-29 22:09:22.19	22.22	4.28	-48.2	-50.8	3.6	0.00e+00	0	36	104	0	60	42284
2026-01-29 22:09:25.21	22.40	4.50	-48.1	-50.6	3.6	0.00e+00	0	36	104	0	60	41518
2026-01-29 22:09:28.24	22.58	4.73	-47.6	-49.8	3.6	4.64e-02	0	36	104	41943040	60	37671
2026-01-29 22:09:31.27	22.77	4.96	-33.7	-34.1	13.3	0.00e+00	0	36	0	176160768	42	17458
2026-01-29 22:09:34.30	22.96	5.19	-31.9	-32.3	14.4	0.00e+00	0	36	0	402653184	38	17843
2026-01-29 22:09:37.32	23.15	5.43	-30.1	-30.5	15.2	0.00e+00	0	37	0	629145600	36	16417
2026-01-29 22:09:40.35	23.34	5.67	-29.9	-30.4	15.3	0.00e+00	0	37	0	855638016	34	18039
2026-01-29 22:09:43.39	23.54	5.91	-29.6	-30.1	15.4	0.00e+00	0	37	0	1082130432	34	17442
2026-01-29 22:09:46.42	23.75	6.15	-29.5	-29.9	15.5	0.00e+00	0	37	0	1308622848	34	17184
2026-01-29 22:09:49.45	23.96	6.40	-29.5	-30.0	15.4	0.00e+00	0	37	0	1543503872	34	17241
2026-01-29 22:09:52.48	24.17	6.65	-29.3	-29.8	15.6	0.00e+00	0	37	0	1761607680	34	16844
2026-01-29 22:09:55.50	24.38	6.90	-29.3	-29.7	15.6	0.00e+00	0	37	0	1996488704	34	16708
2026-01-29 22:09:58.53	24.60	7.15	-29.0	-29.5	15.7	0.00e+00	0	37	0	2222981120	34	16299
2026-01-29 22:10:01.55	24.83	7.41	-29.1	-29.5	15.7	0.00e+00	0	37	0	2449473536	34	16373
2026-01-29 22:10:04.57	25.06	7.67	-28.9	-29.4	15.8	0.00e+00	0	37	0	2675965952	34	16139
2026-01-29 22:10:07.60	25.29	7.94	-28.9	-29.3	15.8	0.00e+00	0	37	0	2902458368	34	15950
2026-01-29 22:10:10.63	25.53	8.20	-28.7	-29.1	15.8	0.00e+00	0	37	0	3128950784	32	17580
2026-01-29 22:10:13.66	25.78	8.48	-28.6	-29.1	15.9	0.00e+00	0	37	0	3355443200	32	17465
2026-01-29 22:10:16.68	26.03	8.75	-28.6	-29.0	15.9	0.00e+00	0	37	0	3581935616	32	17315
2026-01-29 22:10:19.71	26.28	9.03	-28.5	-28.9	15.9	0.00e+00	0	37	0	3808428032	32	17183
2026-01-29 22:10:22.74	26.55	9.31	-28.3	-28.8	15.9	0.00e+00	0	37	0	4034920448	32	16904
2026-01-29 22:10:25.77	26.81	9.60	-28.5	-28.9	16.0	0.00e+00	0	37	0	4261412864	32	17107
2026-01-29 22:10:28.80	27.09	9.89	-28.2	-28.6	16.0	0.00e+00	0	37	0	4487905280	32	16535
2026-01-29 22:10:31.82	27.37	10.18	-28.1	-28.6	16.0	0.00e+00	0	37	0	4714397696	32	16493
2026-01-29 22:10:34.85	27.65	10.48	-28.5	-28.9	15.7	0.00e+00	0	37	0	4940890112	32	17116
2026-01-29 22:10:37.88	27.95	10.78	-28.3	-28.7	16.0	0.00e+00	0	37	0	5167382528	32	16777
2026-01-29 22:10:40.91	28.25	11.09	-27.7	-28.1	16.2	0.00e+00	0	37	0	5402263552	30	17542
2026-01-29 22:10:43.93	28.56	11.40	-27.6	-28.1	16.1	0.00e+00	0	37	0	5628755968	30	17439
2026-01-29 22:10:46.96	28.87	11.72	-27.4	-27.9	16.0	0.00e+00	0	37	0	5855248384	30	17084
2026-01-29 22:10:49.99	29.20	12.04	-27.5	-27.9	15.9	0.00e+00	0	37	0	6081740800	30	17139
2026-01-29 22:10:53.02	29.53	12.37	-27.2	-27.6	16.1	0.00e+00	0	38	0	6308233216	30	16609
2026-01-29 22:10:56.04	29.87	12.70	-27.2	-27.7	16.1	0.00e+00	0	38	0	6534725632	30	16636
2026-01-29 22:10:59.07	30.22	13.03	-27.1	-27.6	16.3	0.00e+00	0	38	0	6761218048	30	16517
2026-01-29 22:11:02.10	30.58	13.38	-26.8	-27.3	16.4	0.00e+00	0	38	0	6987710464	30	15927
2026-01-29 22:11:05.13	30.95	13.72	-27.1	-27.5	16.4	0.00e+00	0	38	0	7214202880	30	16385
2026-01-29 22:11:08.16	31.33	14.08	-26.7	-27.2	16.4	0.00e+00	0	38	0	7440695296	30	15689
2026-01-29 22:11:11.18	31.72	14.43	-26.7	-27.2	16.4	0.00e+00	0	38	0	7667187712	28	17693
2026-01-29 22:11:14.21	32.12	14.80	-26.6	-27.0	16.4	0.00e+00	0	38	0	7893680128	28	17374
2026-01-29 22:11:17.24	32.54	15.17	-26.7	-27.1	16.4	0.00e+00	0	38	0	8128561152	28	17597
2026-01-29 22:11:20.27	32.96	15.54	-26.3	-26.8	16.5	0.00e+00	0	38	0	8346664960	28	16817
2026-01-29 22:11:23.30	33.40	15.93	-26.2	-26.6	16.5	0.00e+00	0	38	0	8581545984	28	16590
2026-01-29 22:11:26.33	33.85	16.32	-26.1	-26.5	16.3	0.00e+00	0	38	0	8799649792	28	16405
2026-01-29 22:11:29.35	34.31	16.71	-25.9	-26.3	16.5	0.00e+00	0	38	0	9034530816	28	15975
2026-01-29 22:11:32.38	34.79	17.11	-25.8	-26.2	16.5	0.00e+00	0	38	0	9261023232	28	15837
2026-01-29 22:11:35.41	35.28	17.52	-25.8	-26.2	16.6	0.00e+00	0	38	0	9487515648	26	17681
2026-01-29 22:11:38.44	35.79	17.94	-25.5	-26.0	16.5	0.00e+00	0	38	0	9714008064	26	17227
2026-01-29 22:11:41.47	36.31	18.37	-25.6	-26.1	16.5	0.00e+00	0	38	0	9940500480	26	17408
2026-01-29 22:11:44.50	36.85	18.80	-25.4	-25.9	16.5	0.00e+00	0	38	0	10166992896	26	17049
2026-01-29 22:11:47.53	37.41	19.23	-25.2	-25.6	16.5	0.00e+00	0	38	0	10393485312	26	16570
2026-01-29 22:11:50.56	37.99	19.68	-25.2	-25.7	16.8	0.00e+00	0	38	0	10619977728	26	16706
2026-01-29 22:11:53.59	38.58	20.13	-24.9	-25.4	16.8	0.00e+00	0	38	0	10854858752	26	16136
2026-01-29 22:11:56.62	39.20	20.60	-25.0	-25.5	16.6	0.00e+00	0	38	0	11072962560	26	16283
2026-01-29 22:11:59.65	39.84	21.06	-24.7	-25.2	16.7	0.00e+00	0	38	0	11307843584	24	17637
2026-01-29 22:12:02.68	40.49	21.54	-24.6	-25.1	16.7	0.00e+00	0	38	0	11525947392	24	17479
2026-01-29 22:12:05.71	41.18	22.03	-24.6	-25.0	16.7	0.00e+00	0	38	0	11760828416	24	17335
2026-01-29 22:12:08.74	41.88	22.52	-24.3	-24.8	16.8	0.00e+00	0	38	0	11987320832	24	16864
2026-01-29 22:12:11.76	42.61	23.02	-24.3	-24.7	16.9	0.00e+00	0	38	0	12213813248	24	16737
2026-01-29 22:12:14.79	43.37	23.53	-24.1	-24.6	16.9	0.00e+00	0	38	0	12440305664	24	16434
2026-01-29 22:12:17.82	44.15	24.04	-23.9	-24.4	16.9	0.00e+00	0	38	0	12666798080	24	16156
2026-01-29 22:12:20.84	44.96	24.56	-23.9	-24.4	16.9	0.00e+00	0	38	0	12893290496	24	16080
2026-01-29 22:12:23.87	45.81	25.09	-23.7	-24.2	16.8	0.00e+00	0	38	0	13119782912	22	17714
2026-01-29 22:12:26.90	46.68	25.63	-23.6	-24.0	16.9	0.00e+00	0	38	0	13346275328	22	17307
2026-01-29 22:12:29.93	47.59	26.17	-23.6	-24.1	16.8	0.00e+00	0	38	0	13581156352	22	17475
2026-01-29 22:12:32.96	48.53	26.72	-23.4	-23.9	16.9	0.00e+00	0	38	0	13799260160	22	17005
2026-01-29 22:12:35.99	49.51	27.28	-23.2	-23.7	16.9	0.00e+00	0	38	0	14034141184	22	16674
2026-01-29 22:12:39.01	50.53	27.84	-23.2	-23.7	17.0	0.00e+00	0	38	0	14252244992	22	16709
2026-01-29 22:12:42.04	51.58	28.40	-23.0	-23.5	16.9	0.00e+00	0	38	0	14487126016	22	16362
2026-01-29 22:12:45.07	52.68	28.97	-23.0	-23.5	17.0	0.00e+00	0	38	0	14713618432	22	16296
2026-01-29 22:12:48.10	53.82	29.54	-22.7	-23.2	16.9	0.00e+00	0	38	0	14940110848	20	17692
2026-01-29 22:12:51.13	55.00	30.11	-22.7	-23.2	16.9	0.00e+00	0	38	0	15166603264	20	17687
2026-01-29 22:12:54.16	56.23	30.69	-22.8	-23.2	17.0	0.00e+00	0	38	0	15393095680	20	17804
2026-01-29 22:12:57.19	57.51	31.26	-22.5	-22.9	17.1	0.00e+00	0	38	0	15619588096	20	17140
2026-01-29 22:13:00.22	58.84	31.83	-22.4	-22.8	16.8	0.00e+00	0	38	0	15846080512	20	16913
2026-01-29 22:13:03.25	60.21	32.40	-22.2	-22.6	17.0	0.00e+00	0	38	0	16072572928	20	16586
2026-01-29 22:13:06.28	61.64	32.97	-22.1	-22.6	17.1	0.00e+00	0	38	0	16299065344	20	16505
2026-01-29 22:13:09.31	63.12	33.52	-22.1	-22.6	17.1	0.00e+00	0	38	0	16525557760	20	16498
2026-01-29 22:13:12.33	64.65	34.07	-21.8	-22.3	17.1	0.00e+00	0	38	0	16760438784	20	15914
2026-01-29 22:13:15.37	66.25	34.60	-21.7	-22.1	17.1	0.00e+00	0	38	0	16978542592	18	17583
2026-01-29 22:13:18.39	67.89	35.13	-21.7	-22.2	17.0	0.00e+00	0	38	0	17213423616	18	17726
2026-01-29 22:13:21.42	69.59	35.63	-21.6	-22.1	17.0	0.00e+00	0	38	0	17439916032	18	17440
2026-01-29 22:13:24.45	71.35	36.12	-21.5	-21.9	17.1	0.00e+00	0	38	0	17666408448	18	17168
2026-01-29 22:13:27.47	73.15	36.59	-21.5	-21.9	17.1	0.00e+00	0	38	0	17892900864	18	17175
2026-01-29 22:13:30.49	75.01	37.03	-21.3	-21.8	17.1	0.00e+00	0	38	0	18119393280	18	16832
2026-01-29 22:13:33.52	76.93	37.44	-21.2	-21.7	17.1	0.00e+00	0	38	0	18345885696	18	16669
2026-01-29 22:13:36.55	78.89	37.83	-21.2	-21.7	17.1	0.00e+00	0	38	0	18572378112	18	16647
2026-01-29 22:13:39.58	80.91	38.19	-21.1	-21.6	17.1	0.00e+00	0	38	0	18798870528	18	16466
2026-01-29 22:13:42.61	82.97	38.51	-21.1	-21.6	17.1	0.00e+00	0	38	0	19025362944	18	16506
2026-01-29 22:13:45.64	85.07	38.79	-21.0	-21.5	17.1	0.00e+00	0	38	0	19251855360	18	16293
2026-01-29 22:13:48.67	87.20	39.03	-21.0	-21.4	17.1	0.00e+00	0	38	0	19478347776	18	16175
2026-01-29 22:13:51.70	89.37	39.24	-21.2	-21.6	17.1	0.00e+00	0	38	0	19704840192	18	16551
2026-01-29 22:13:54.73	91.56	39.40	-21.1	-21.5	17.1	0.00e+00	0	38	0	19931332608	18	16390
2026-01-29 22:13:57.75	93.76	39.51	-21.1	-21.6	17.1	0.00e+00	0	38	0	20166213632	18	16493
2026-01-29 22:14:00.78	95.99	39.58	-21.0	-21.5	17.1	0.00e+00	0	38	0	20384317440	18	16263
2026-01-29 22:14:03.81	98.22	39.61	-21.0	-21.5	17.1	0.00e+00	0	38	0	20619198464	18	16313
2026-01-29 22:14:06.84	100.45	39.58	-20.9	-21.4	17.1	0.00e+00	0	38	0	20845690880	18	16076
2026-01-29 22:14:09.86	102.67	39.52	-20.9	-21.3	17.2	0.00e+00	0	38	0	21072183296	18	16032
2026-01-29 22:14:12.89	104.88	39.40	-20.9	-21.4	17.1	0.00e+00	0	38	0	21298675712	18	16097
2026-01-29 22:14:15.92	107.07	39.24	-21.0	-21.5	17.1	0.00e+00	0	38	0	21525168128	18	16269
2026-01-29 22:14:18.95	109.24	39.04	-20.9	-21.4	17.2	0.00e+00	0	38	0	21751660544	18	16153
2026-01-29 22:14:21.98	111.38	38.80	-21.1	-21.6	17.1	0.00e+00	0	38	0	21978152960	18	16453
2026-01-29 22:14:25.00	113.47	38.52	-21.0	-21.5	17.2	0.00e+00	0	38	0	22204645376	18	16295
2026-01-29 22:14:28.03	115.54	38.20	-21.2	-21.6	17.1	0.00e+00	0	38	0	22431137792	18	16581
2026-01-29 22:14:31.06	117.55	37.84	-21.2	-21.6	17.2	0.00e+00	0	38	0	22657630208	18	16572
2026-01-29 22:14:34.09	119.53	37.45	-21.2	-21.7	17.2	0.00e+00	0	38	0	22892511232	18	16646
2026-01-29 22:14:37.12	121.45	37.04	-21.4	-21.9	17.1	0.00e+00	0	38	0	23110615040	18	17115
2026-01-29 22:14:40.15	123.32	36.60	-21.3	-21.8	17.1	0.00e+00	0	38	0	23345496064	18	16915
2026-01-29 22:14:43.17	125.12	36.13	-21.5	-21.9	17.1	0.00e+00	0	38	0	23563599872	18	17164
2026-01-29 22:14:46.20	126.89	35.64	-21.5	-21.9	17.1	0.00e+00	0	38	0	23798480896	18	17173
2026-01-29 22:14:49.23	128.59	35.13	-21.6	-22.0	17.0	0.00e+00	0	39	0	24024973312	18	17325
2026-01-29 22:14:52.26	130.24	34.61	-21.6	-22.1	17.0	0.00e+00	0	38	0	24251465728	18	17495
2026-01-29 22:14:55.28	131.83	34.08	-21.9	-22.4	17.1	0.00e+00	0	39	0	24477958144	18	18057
2026-01-29 22:14:58.31	133.37	33.53	-22.0	-22.4	17.1	0.00e+00	0	39	0	24704450560	18	18154
2026-01-29 22:15:01.34	134.85	32.97	-22.1	-22.6	17.1	0.00e+00	0	38	0	24930942976	18	18495
2026-01-29 22:15:04.37	136.29	32.41	-22.1	-22.5	17.1	0.00e+00	0	38	0	25157435392	18	18360
2026-01-29 22:15:07.39	137.66	31.84	-22.3	-22.7	17.1	0.00e+00	0	39	0	25383927808	18	18831
2026-01-29 22:15:10.42	138.99	31.26	-22.3	-22.8	17.0	0.00e+00	0	39	0	25610420224	18	18939
2026-01-29 22:15:13.45	140.27	30.69	-22.6	-23.0	17.0	0.00e+00	0	38	0	25836912640	18	19486
2026-01-29 22:15:16.48	141.50	30.11	-22.6	-23.0	17.1	0.00e+00	0	38	0	26063405056	18	19485
2026-01-29 22:15:19.51	142.69	29.54	-22.6	-23.1	17.1	0.00e+00	0	39	0	26289897472	18	19653
2026-01-29 22:15:22.53	143.83	28.97	-22.8	-23.3	17.0	0.00e+00	0	38	0	26524778496	20	17838
2026-01-29 22:15:25.57	144.93	28.39	-22.9	-23.3	17.0	0.00e+00	0	38	0	26751270912	20	17985
2026-01-29 22:15:28.60	145.99	27.83	-23.0	-23.4	17.0	0.00e+00	0	38	0	26977763328	20	18177
2026-01-29 22:15:31.63	147.01	27.26	-23.1	-23.6	17.1	0.00e+00	0	38	0	27204255744	20	18462
2026-01-29 22:15:34.66	147.99	26.71	-23.4	-23.9	17.0	0.00e+00	0	38	0	27430748160	20	19107
2026-01-29 22:15:37.69	148.94	26.15	-23.4	-23.8	17.0	0.00e+00	0	38	0	27657240576	20	19058
2026-01-29 22:15:40.72	149.85	25.61	-23.5	-23.9	17.0	0.00e+00	0	38	0	27883732992	20	19245
2026-01-29 22:15:43.75	150.73	25.07	-23.7	-24.1	17.0	0.00e+00	0	38	0	28110225408	20	19731
2026-01-29 22:15:46.77	151.57	24.54	-23.8	-24.3	16.9	0.00e+00	0	38	0	28336717824	22	17957
2026-01-29 22:15:49.80	152.38	24.02	-23.9	-24.4	16.9	0.00e+00	0	39	0	28563210240	22	18119
2026-01-29 22:15:52.84	153.17	23.50	-24.0	-24.5	16.9	0.00e+00	0	39	0	28798091264	22	18230
2026-01-29 22:15:55.86	153.93	22.99	-24.1	-24.6	16.9	0.00e+00	0	39	0	29016195072	22	18443
2026-01-29 22:15:58.89	154.66	22.49	-24.3	-24.8	16.8	0.00e+00	0	39	0	29251076096	22	18907
2026-01-29 22:16:01.93	155.37	21.99	-24.4	-24.9	16.9	0.00e+00	0	39	0	29477568512	22	19084
2026-01-29 22:16:04.95	156.05	21.51	-24.6	-25.0	16.9	0.00e+00	0	39	0	29704060928	22	19471
2026-01-29 22:16:07.98	156.71	21.03	-24.7	-25.2	16.9	0.00e+00	0	39	0	29930553344	24	17716
2026-01-29 22:16:11.01	157.35	20.56	-24.7	-25.2	16.8	0.00e+00	0	39	0	30157045760	24	17699
2026-01-29 22:16:14.04	157.96	20.09	-25.0	-25.4	16.8	0.00e+00	0	39	0	30383538176	24	18182
2026-01-29 22:16:17.07	158.56	19.64	-25.0	-25.5	16.8	0.00e+00	0	38	0	30610030592	24	18305
2026-01-29 22:16:20.10	159.14	19.19	-25.1	-25.6	16.8	0.00e+00	0	39	0	30836523008	24	18563
2026-01-29 22:16:23.12	159.69	18.75	-25.3	-25.8	16.7	0.00e+00	0	39	0	31063015424	24	18899
2026-01-29 22:16:26.15	160.24	18.32	-25.3	-25.8	16.7	0.00e+00	0	38	0	31289507840	24	18993
2026-01-29 22:16:29.18	160.76	17.90	-25.6	-26.0	16.7	0.00e+00	0	39	0	31516000256	24	19506
2026-01-29 22:16:32.21	161.27	17.48	-25.7	-26.1	16.7	0.00e+00	0	38	0	31742492672	24	19687
2026-01-29 22:16:35.23	161.76	17.07	-25.8	-26.3	16.6	0.00e+00	0	39	0	31977373696	26	17847
2026-01-29 22:16:38.26	162.24	16.66	-25.9	-26.4	16.6	0.00e+00	0	39	0	32203866112	26	18054
2026-01-29 22:16:41.29	162.70	16.27	-25.9	-26.4	16.6	0.00e+00	0	39	0	32430358528	26	18092
2026-01-29 22:16:44.32	163.15	15.88	-26.2	-26.7	16.6	0.00e+00	0	39	0	32656850944	26	18652
2026-01-29 22:16:47.35	163.59	15.49	-26.1	-26.6	16.6	0.00e+00	0	39	0	32883343360	26	18570
2026-01-29 22:16:50.37	164.01	15.11	-26.3	-26.8	16.5	0.00e+00	0	39	0	33109835776	26	18907
2026-01-29 22:16:53.40	164.42	14.74	-26.4	-26.9	16.5	0.00e+00	0	39	0	33336328192	26	19173
2026-01-29 22:16:56.44	164.82	14.38	-26.6	-27.1	16.4	0.00e+00	0	39	0	33562820608	26	19690
2026-01-29 22:16:59.47	165.21	14.02	-26.6	-27.1	16.5	0.00e+00	0	38	0	33789313024	28	17470
2026-01-29 22:17:02.50	165.59	13.66	-26.8	-27.2	16.5	0.00e+00	0	38	0	34015805440	28	17780
2026-01-29 22:17:05.53	165.96	13.31	-26.9	-27.3	16.4	0.00e+00	0	39	0	34242297856	28	17990
2026-01-29 22:17:08.55	166.32	12.97	-26.9	-27.4	16.5	0.00e+00	0	38	0	34468790272	28	18100
2026-01-29 22:17:11.58	166.67	12.63	-27.0	-27.4	16.4	0.00e+00	0	38	0	34703671296	28	18190
2026-01-29 22:17:14.61	167.01	12.30	-27.1	-27.6	16.4	0.00e+00	0	38	0	34930163712	28	18566
2026-01-29 22:17:17.64	167.34	11.97	-27.3	-27.7	16.3	0.00e+00	0	39	0	35156656128	28	18834
2026-01-29 22:17:20.67	167.67	11.65	-27.4	-27.9	16.3	0.00e+00	0	39	0	35383148544	28	19146
2026-01-29 22:17:23.70	167.98	11.33	-27.6	-28.0	16.2	0.00e+00	0	39	0	35609640960	28	19502
2026-01-29 22:17:26.73	168.29	11.02	-27.8	-28.2	16.3	0.00e+00	0	39	0	35836133376	30	17783
2026-01-29 22:17:29.76	168.59	10.71	-27.7	-28.2	16.1	0.00e+00	0	39	0	36062625792	30	17678
2026-01-29 22:17:32.79	168.88	10.41	-27.8	-28.2	15.3	0.00e+00	0	38	0	36289118208	30	17611
2026-01-29 22:17:35.82	169.17	10.11	-27.9	-28.4	15.9	0.00e+00	0	39	0	36515610624	30	18125
2026-01-29 22:17:38.85	169.45	9.81	-28.0	-28.5	16.0	0.00e+00	0	39	0	36742103040	30	18357
2026-01-29 22:17:41.88	169.72	9.52	-28.1	-28.6	16.0	0.00e+00	0	39	0	36976984064	30	18443
2026-01-29 22:17:44.91	169.99	9.24	-28.2	-28.7	16.0	0.00e+00	0	39	0	37195087872	30	18720
2026-01-29 22:17:47.94	170.25	8.95	-28.3	-28.8	16.0	0.00e+00	0	39	0	37429968896	30	18943
2026-01-29 22:17:50.97	170.50	8.67	-28.4	-28.9	15.9	0.00e+00	0	39	0	37656461312	30	19094
2026-01-29 22:17:54.00	170.75	8.40	-28.5	-28.9	15.9	0.00e+00	0	39	0	37882953728	30	19276
2026-01-29 22:17:57.03	171.00	8.13	-28.7	-29.1	15.9	0.00e+00	0	39	0	38109446144	30	19698
2026-01-29 22:18:00.05	171.23	7.86	-28.7	-29.2	15.8	0.00e+00	0	39	0	38335938560	32	17665
2026-01-29 22:18:03.08	171.47	7.59	-29.0	-29.5	15.7	0.00e+00	0	39	0	38562430976	32	18338
2026-01-29 22:18:06.11	171.69	7.33	-29.1	-29.6	15.7	0.00e+00	0	39	0	38788923392	32	18441
2026-01-29 22:18:09.14	171.92	7.07	-29.6	-30.0	15.5	0.00e+00	0	39	0	39015415808	32	19458
2026-01-29 22:18:12.17	172.14	6.81	-29.2	-29.7	15.6	0.00e+00	0	39	0	39241908224	32	18721
2026-01-29 22:18:15.19	172.35	6.56	-29.2	-29.7	15.5	0.00e+00	0	39	0	39468400640	32	18738
2026-01-29 22:18:18.22	172.56	6.31	-29.4	-29.9	3.6	0.00e+00	0	39	104	39694893056	32	19098
2026-01-29 22:18:21.25	172.77	6.07	-48.3	-50.8	3.6	0.00e+00	0	38	104	39694893056	60	42373
2026-01-29 22:18:24.28	172.97	5.82	-48.3	-50.8	3.6	0.00e+00	0	38	104	39694893056	60	42392
2026-01-29 22:18:27.32	173.17	5.58	-48.4	-50.9	3.6	0.00e+00	0	38	104	39694893056	60	42805
2026-01-29 22:18:30.34	173.36	5.34	-48.3	-50.8	3.6	0.00e+00	0	38	104	39694893056	60	42274
2026-01-29 22:18:33.38	173.55	5.11	-48.6	-51.1	3.6	0.00e+00	0	38	104	39694893056	60	43821
2026-01-29 22:18:36.40	173.74	4.87	-48.3	-50.8	3.6	0.00e+00	0	38	104	39694893056	60	42424
2026-01-29 22:18:39.43	173.92	4.64	-48.4	-50.9	3.5	0.00e+00	0	38	104	39694893056	60	42968
2026-01-29 22:18:42.45	174.10	4.41	-48.4	-50.9	3.6	0.00e+00	0	38	104	39694893056	60	43019
2026-01-29 22:18:45.48	174.28	4.19	-48.3	-50.8	3.6	0.00e+00	0	38	104	39694893056	60	42600
2026-01-29 22:18:48.51	174.45	3.96	-48.3	-50.8	3.6	0.00e+00	0	38	104	39694893056	60	42490
2026-01-29 22:18:51.54	174.62	3.74	-48.3	-50.8	3.6	0.00e+00	0	38	104	39694893056	60	42249
2026-01-29 22:18:54.57	174.79	3.52	-48.2	-50.7	3.6	0.00e+00	0	38	104	39694893056	60	41936
2026-01-29 22:18:57.60	174.96	3.31	-48.2	-50.7	3.6	0.00e+00	0	38	104	39694893056	60	42160
2026-01-29 22:19:00.63	175.12	3.09	-48.3	-50.7	3.6	0.00e+00	0	38	104	39694893056	60	42194
2026-01-29 22:19:03.66	175.28	2.88	-48.9	-51.3	3.6	0.00e+00	0	38	104	39694893056	60	45217
2026-01-29 22:19:06.68	175.43	2.67	-49.3	-51.8	3.6	0.00e+00	0	38	104	39694893056	60	47604
2026-01-29 22:19:09.71	175.59	2.46	-49.1	-51.6	3.6	0.00e+00	0	38	104	39694893056	60	46785
2026-01-29 22:19:12.74	175.74	2.25	-49.3	-51.8	3.6	0.00e+00	0	38	104	39694893056	60	47682
2026-01-29 22:19:15.77	175.89	2.04	-49.5	-52.0	3.6	0.00e+00	0	38	104	39694893056	60	48636
2026-01-29 22:19:18.80	176.03	1.84	-49.5	-51.9	3.6	0.00e+00	0	38	104	39694893056	60	48342
2026-01-29 22:19:21.84	176.18	1.64	-49.4	-51.9	3.6	0.00e+00	0	38	104	39694893056	60	48398
2026-01-29 22:19:24.87	176.32	1.44	-49.3	-51.8	3.6	0.00e+00	0	38	104	39694893056	60	47482
2026-01-29 22:19:27.89	176.46	1.24	-49.5	-51.9	3.6	0.00e+00	0	38	104	39694893056	60	48136
2026-01-29 22:19:30.92	176.59	1.04	-49.4	-51.9	3.6	0.00e+00	0	38	104	39694893056	60	48160
2026-01-29 22:19:33.95	176.73	0.85	-49.4	-51.9	3.6	0.00e+00	0	38	104	39694893056	60	48422
2026-01-29 22:19:36.98	176.86	0.65	-49.4	-51.9	3.6	0.00e+00	0	38	104	39694893056	60	48272
2026-01-29 22:19:40.01	176.99	0.46	-49.4	-51.9	3.6	0.00e+00	0	38	104	39694893056	60	48102
2026-01-29 22:19:43.04	177.12	0.27	-49.4	-51.9	3.5	0.00e+00	0	38	104	39694893056	60	48284
2026-01-29 22:19:46.07	177.25	0.08	-49.5	-51.9	3.6	0.00e+00	0	38	104	39694893056	60	48335
2026-01-29 22:19:49.10	177.37	-0.11	-49.4	-51.9	3.6	0.00e+00	0	38	104	39694893056	60	48185

#Closed at: 2026-01-29 22:19:49
#Recorded file [39694 MB]: D:/lorett/data/35029_260130_100824.dat