passes_logs/2026/01/29/R4.6S_Anadyr/R4.6S_Anadyr__20260129_235758_NOAA_20_JPSS-1_rec.log

#Pass ID: 20260129_235758_NOAA 20 (JPSS-1)
#Satellite: NOAA 20 (JPSS-1)
#Configuration: NOAA 20
#almurnet v.1.7.20251203
#Start time: 2026-01-29 23:57:59

#Version: 2.2.20231116
#Station: R4.6S_Anadyr
#Location: 177.4865 lon 64.73178 lat
#TLE: 1 43013U 17073A   26029.42702672  .00000137  00000+0  85918-4 0  9993
#TLE: 2 43013  98.7646 330.2153 0000804  19.9045 340.2162 14.19525092424781

#Time	Az	El	Level	Level2	SNR	BER	BlckErr	Temp	State	Recorded	gain1	gain2
2026-01-29 23:57:59.74	149.90	0.10	-49.3	-64.4	3.5	1.51e+00	0	34	0	0	60	59700
2026-01-29 23:58:03.77	149.89	0.34	-49.3	-64.5	3.6	1.51e+00	0	35	104	0	60	60896
2026-01-29 23:58:07.81	149.87	0.59	-49.3	-64.6	3.6	1.51e+00	0	36	104	0	60	61447
2026-01-29 23:58:11.86	149.85	0.84	-49.3	-64.6	3.6	1.51e+00	0	36	104	0	60	61395
2026-01-29 23:58:15.90	149.84	1.09	-49.3	-64.6	3.6	1.51e+00	0	36	104	0	60	61330
2026-01-29 23:58:19.94	149.82	1.34	-49.3	-64.6	3.6	1.51e+00	0	36	104	0	60	61530
2026-01-29 23:58:23.98	149.80	1.59	-49.3	-64.6	3.6	1.51e+00	0	36	104	0	60	61358
2026-01-29 23:58:28.02	149.78	1.85	-49.3	-64.6	3.6	1.51e+00	0	36	104	0	60	61126
2026-01-29 23:58:32.06	149.77	2.11	-49.3	-64.6	3.6	1.51e+00	0	36	104	0	60	61476
2026-01-29 23:58:36.10	149.75	2.37	-49.3	-64.6	3.6	1.51e+00	0	36	104	0	60	61492
2026-01-29 23:58:40.14	149.73	2.64	-49.3	-64.5	3.6	1.51e+00	0	36	104	0	60	61008
2026-01-29 23:58:44.18	149.71	2.90	-49.3	-64.6	3.6	1.51e+00	0	36	104	0	60	61609
2026-01-29 23:58:48.22	149.68	3.17	-49.3	-64.6	3.6	1.51e+00	0	36	104	0	60	61203
2026-01-29 23:58:52.26	149.66	3.44	-49.3	-64.6	3.6	1.51e+00	0	36	104	0	60	61539
2026-01-29 23:58:56.30	149.64	3.72	-49.3	-64.6	3.6	1.51e+00	0	36	104	0	60	61386
2026-01-29 23:59:00.34	149.62	4.00	-49.3	-64.5	3.6	1.51e+00	0	36	104	0	60	60996
2026-01-29 23:59:04.38	149.59	4.28	-49.3	-64.6	3.6	1.51e+00	0	36	104	0	60	61492
2026-01-29 23:59:08.42	149.57	4.56	-49.3	-64.6	3.6	1.51e+00	0	36	104	0	60	61626
2026-01-29 23:59:12.46	149.54	4.85	-49.3	-64.6	3.6	1.51e+00	0	36	104	0	60	61633
2026-01-29 23:59:16.50	149.52	5.13	-49.3	-64.6	3.6	1.51e+00	0	36	104	0	60	61488
2026-01-29 23:59:20.54	149.49	5.43	-49.3	-64.6	3.6	1.51e+00	0	36	104	0	60	61618
2026-01-29 23:59:24.59	149.46	5.72	-49.3	-64.6	3.6	1.51e+00	0	36	104	0	60	61605
2026-01-29 23:59:28.63	149.44	6.02	-49.3	-64.7	3.6	1.51e+00	0	36	104	0	60	61766
2026-01-29 23:59:32.67	149.41	6.33	-49.3	-64.6	3.6	1.51e+00	0	36	104	0	60	61727
2026-01-29 23:59:36.71	149.38	6.63	-49.3	-64.6	3.6	1.51e+00	0	36	104	0	60	61453
2026-01-29 23:59:40.75	149.35	6.94	-49.3	-64.6	3.6	1.51e+00	0	36	104	0	60	61487
2026-01-29 23:59:44.79	149.32	7.26	-49.3	-64.6	3.6	1.51e+00	0	36	104	0	60	61237
2026-01-29 23:59:48.83	149.28	7.57	-49.3	-64.6	3.5	1.51e+00	0	36	104	0	60	61642
2026-01-29 23:59:52.87	149.25	7.89	-49.3	-64.6	3.6	1.51e+00	0	36	104	0	60	61350
2026-01-29 23:59:56.91	149.21	8.22	-49.3	-64.6	3.6	1.51e+00	0	36	104	0	60	61536
2026-01-30 00:00:00.95	149.18	8.55	-49.3	-64.6	3.6	1.51e+00	0	36	104	0	60	61303
2026-01-30 00:00:04.99	149.14	8.88	-49.3	-64.6	3.6	1.51e+00	0	36	104	0	60	61265
2026-01-30 00:00:09.03	149.10	9.22	-49.3	-64.6	3.6	1.51e+00	0	36	104	0	60	61328
2026-01-30 00:00:13.07	149.06	9.57	-49.3	-64.6	3.6	1.51e+00	0	36	104	0	60	61415
2026-01-30 00:00:17.11	149.02	9.92	-49.3	-64.6	3.6	1.51e+00	0	36	104	0	60	61402
2026-01-30 00:00:21.16	148.98	10.27	-49.3	-64.6	3.6	1.51e+00	0	37	104	0	60	61285
2026-01-30 00:00:25.20	148.94	10.63	-49.3	-64.6	3.6	1.51e+00	0	37	104	0	60	61298
2026-01-30 00:00:29.24	148.89	10.99	-49.3	-64.6	3.6	1.51e+00	0	37	104	0	60	61118
2026-01-30 00:00:33.28	148.85	11.36	-49.3	-64.7	3.6	1.51e+00	0	37	104	0	60	61815
2026-01-30 00:00:37.32	148.80	11.74	-49.3	-64.6	3.6	1.51e+00	0	37	104	0	60	61461
2026-01-30 00:00:41.36	148.75	12.12	-49.3	-64.6	3.6	1.51e+00	0	37	104	0	60	61588
2026-01-30 00:00:45.40	148.70	12.50	-49.3	-64.6	3.6	1.51e+00	0	37	104	0	60	61332
2026-01-30 00:00:49.44	148.65	12.89	-49.3	-64.6	3.6	1.51e+00	0	36	104	0	60	61608
2026-01-30 00:00:53.48	148.59	13.29	-49.3	-64.6	3.6	1.51e+00	0	37	104	0	60	61236
2026-01-30 00:00:57.52	148.54	13.70	-49.3	-64.7	3.6	1.51e+00	0	37	104	0	60	61841
2026-01-30 00:01:01.56	148.48	14.11	-49.3	-64.6	3.6	1.51e+00	0	37	104	0	60	61111
2026-01-30 00:01:05.60	148.42	14.53	-49.3	-64.7	3.6	1.51e+00	0	37	104	0	60	61745
2026-01-30 00:01:09.64	148.36	14.96	-49.3	-64.6	3.6	1.51e+00	0	37	104	0	60	61389
2026-01-30 00:01:13.68	148.29	15.39	-49.3	-64.6	3.6	1.51e+00	0	37	104	0	60	61635
2026-01-30 00:01:17.72	148.23	15.84	-49.3	-64.6	3.6	1.51e+00	0	37	104	0	60	61276
2026-01-30 00:01:21.76	148.16	16.29	-49.3	-64.6	3.6	1.51e+00	0	37	104	0	60	61211
2026-01-30 00:01:25.80	148.09	16.75	-49.3	-64.6	3.6	1.51e+00	0	37	104	0	60	61200
2026-01-30 00:01:29.84	148.01	17.21	-49.3	-64.6	3.6	1.51e+00	0	37	104	0	60	61354
2026-01-30 00:01:33.88	147.94	17.69	-49.3	-64.6	3.6	1.51e+00	0	37	104	0	60	61642
2026-01-30 00:01:37.93	147.86	18.18	-49.3	-64.6	3.6	1.51e+00	0	37	104	0	60	61486
2026-01-30 00:01:41.97	147.77	18.67	-49.3	-64.6	3.6	1.51e+00	0	37	104	0	60	61731
2026-01-30 00:01:46.01	147.69	19.18	-49.3	-64.6	3.6	1.51e+00	0	37	104	0	60	61238
2026-01-30 00:01:50.05	147.60	19.70	-49.3	-64.6	3.6	1.51e+00	0	37	104	0	60	61574
2026-01-30 00:01:54.09	147.51	20.22	-49.3	-64.6	3.6	1.51e+00	0	37	104	0	60	61431
2026-01-30 00:01:58.13	147.41	20.76	-49.3	-64.6	3.6	1.51e+00	0	37	104	0	60	61405
2026-01-30 00:02:02.17	147.31	21.31	-49.3	-64.6	3.6	1.51e+00	0	37	104	0	60	61608
2026-01-30 00:02:06.21	147.20	21.87	-49.3	-64.7	3.6	1.51e+00	0	37	104	0	60	61751
2026-01-30 00:02:10.25	147.09	22.45	-49.3	-64.6	3.6	1.51e+00	0	37	104	0	60	61311
2026-01-30 00:02:14.29	146.98	23.04	-49.3	-64.6	3.6	1.51e+00	0	37	104	0	60	61124
2026-01-30 00:02:18.33	146.86	23.64	-49.3	-64.6	3.6	1.51e+00	0	37	104	0	60	61582
2026-01-30 00:02:22.38	146.74	24.26	-49.3	-64.6	3.6	1.51e+00	0	37	104	0	60	61308
2026-01-30 00:02:26.42	146.61	24.89	-49.3	-64.6	3.6	1.51e+00	0	37	104	0	60	61206
2026-01-30 00:02:30.46	146.47	25.53	-49.3	-64.6	3.6	1.51e+00	0	37	104	0	60	61393
2026-01-30 00:02:34.49	146.33	26.19	-49.3	-64.6	3.6	1.51e+00	0	37	104	0	60	61559
2026-01-30 00:02:38.53	146.18	26.87	-49.3	-64.6	3.6	1.51e+00	0	37	104	0	60	61361
2026-01-30 00:02:42.57	146.03	27.56	-49.3	-64.6	3.6	1.51e+00	0	37	104	0	60	61643
2026-01-30 00:02:46.62	145.87	28.28	-49.3	-64.6	3.6	1.51e+00	0	37	104	0	60	61546
2026-01-30 00:02:50.66	145.69	29.01	-49.3	-64.6	3.6	1.51e+00	0	37	104	0	60	61627
2026-01-30 00:02:54.70	145.51	29.76	-49.3	-64.6	3.6	1.51e+00	0	37	104	0	60	61678
2026-01-30 00:02:58.74	145.33	30.53	-49.3	-64.6	3.6	1.51e+00	0	37	104	0	60	61564
2026-01-30 00:03:02.77	145.13	31.32	-49.3	-64.6	3.6	1.51e+00	0	37	104	0	60	61450
2026-01-30 00:03:06.81	144.92	32.13	-49.3	-64.6	3.6	1.51e+00	0	37	104	0	60	61422
2026-01-30 00:03:10.86	144.70	32.97	-49.3	-64.6	3.6	1.51e+00	0	37	104	0	60	61293
2026-01-30 00:03:14.90	144.46	33.83	-49.3	-64.6	3.6	1.51e+00	0	37	104	0	60	61447
2026-01-30 00:03:18.94	144.22	34.71	-49.3	-64.6	3.6	1.51e+00	0	37	104	0	60	61439
2026-01-30 00:03:22.98	143.95	35.62	-49.3	-64.6	3.6	1.51e+00	0	37	104	0	60	61494
2026-01-30 00:03:27.02	143.68	36.55	-49.3	-64.6	3.6	1.51e+00	0	37	104	0	60	61592
2026-01-30 00:03:31.06	143.38	37.51	-49.3	-64.6	3.6	1.51e+00	0	37	104	0	60	61433
2026-01-30 00:03:35.10	143.07	38.49	-49.3	-64.6	3.6	1.51e+00	0	37	104	0	60	61318
2026-01-30 00:03:39.14	142.73	39.51	-49.3	-64.6	3.6	1.51e+00	0	37	104	0	60	61234
2026-01-30 00:03:43.18	142.37	40.55	-49.3	-64.6	3.6	1.51e+00	0	37	104	0	60	61413
2026-01-30 00:03:47.22	141.99	41.62	-49.3	-64.6	3.6	1.51e+00	0	37	104	0	60	61561
2026-01-30 00:03:51.26	141.58	42.73	-49.3	-64.5	3.6	1.51e+00	0	37	104	0	60	60963
2026-01-30 00:03:55.30	141.14	43.86	-49.3	-64.6	3.6	1.51e+00	0	37	104	0	60	61496
2026-01-30 00:03:59.34	140.67	45.03	-49.3	-64.6	3.6	1.51e+00	0	37	104	0	60	61114
2026-01-30 00:04:03.38	140.15	46.23	-49.3	-64.6	3.6	1.51e+00	0	37	104	0	60	61183
2026-01-30 00:04:07.43	139.60	47.47	-49.3	-64.7	3.6	1.51e+00	0	37	104	0	60	61786
2026-01-30 00:04:11.47	139.00	48.73	-49.3	-64.7	3.6	1.51e+00	0	37	104	0	60	61752
2026-01-30 00:04:15.51	138.34	50.03	-49.3	-64.6	3.6	1.51e+00	0	37	104	0	60	61274
2026-01-30 00:04:19.55	137.62	51.37	-49.3	-64.6	3.6	1.51e+00	0	37	104	0	60	61432
2026-01-30 00:04:23.59	136.84	52.74	-49.3	-64.6	3.6	1.51e+00	0	37	104	0	60	61481
2026-01-30 00:04:27.63	135.98	54.13	-49.3	-64.6	3.6	1.51e+00	0	37	104	0	60	61294
2026-01-30 00:04:31.67	135.02	55.57	-49.3	-64.6	3.6	1.51e+00	0	37	104	0	60	61609
2026-01-30 00:04:35.71	133.96	57.03	-49.3	-64.6	3.6	1.51e+00	0	37	104	0	60	61256
2026-01-30 00:04:39.75	132.78	58.51	-49.3	-64.6	3.6	1.51e+00	0	37	104	0	60	61465
2026-01-30 00:04:43.79	131.46	60.03	-49.3	-64.6	3.6	1.51e+00	0	37	104	0	60	61516
2026-01-30 00:04:47.84	129.96	61.56	-49.3	-64.6	3.6	1.51e+00	0	37	104	0	60	61381
2026-01-30 00:04:51.88	128.27	63.11	-49.3	-64.6	3.6	1.51e+00	0	37	104	0	60	61241
2026-01-30 00:04:55.92	126.34	64.67	-49.3	-64.6	3.6	1.51e+00	0	37	104	0	60	61591
2026-01-30 00:04:59.96	124.12	66.24	-49.3	-64.6	3.6	1.51e+00	0	37	104	0	60	61166
2026-01-30 00:05:04.00	121.55	67.79	-49.3	-64.6	3.6	1.51e+00	0	37	104	0	60	61177
2026-01-30 00:05:08.05	118.56	69.33	-49.3	-64.6	3.6	1.51e+00	0	37	104	0	60	61206
2026-01-30 00:05:12.08	115.07	70.82	-49.3	-64.6	3.6	1.51e+00	0	37	104	0	60	61426
2026-01-30 00:05:16.12	110.95	72.26	-49.3	-64.6	3.6	1.51e+00	0	37	104	0	60	61189
2026-01-30 00:05:20.16	106.08	73.61	-49.3	-64.6	3.6	1.51e+00	0	37	104	0	60	61702
2026-01-30 00:05:24.20	100.34	74.84	-49.3	-64.5	3.6	1.51e+00	0	37	104	0	60	60891
2026-01-30 00:05:28.25	93.59	75.91	-49.3	-64.6	3.6	1.51e+00	0	37	104	0	60	61235
2026-01-30 00:05:32.29	85.84	76.77	-49.3	-64.6	3.6	1.51e+00	0	37	104	0	60	61350
2026-01-30 00:05:36.33	77.16	77.36	-49.3	-64.6	3.6	1.51e+00	0	37	104	0	60	61360
2026-01-30 00:05:40.37	67.84	77.65	-49.3	-64.6	3.6	1.51e+00	0	37	104	0	60	61126
2026-01-30 00:05:44.41	58.33	77.61	-49.3	-64.6	3.6	1.51e+00	0	37	104	0	60	61162
2026-01-30 00:05:48.45	49.14	77.24	-49.3	-64.6	3.6	1.51e+00	0	37	104	0	60	61114
2026-01-30 00:05:52.49	40.68	76.57	-49.3	-64.6	3.6	1.51e+00	0	37	104	0	60	61608
2026-01-30 00:05:56.54	33.17	75.66	-49.3	-64.6	3.6	1.51e+00	0	37	104	0	60	61379
2026-01-30 00:06:00.58	26.70	74.55	-49.3	-64.6	3.6	1.51e+00	0	37	104	0	60	61367
2026-01-30 00:06:04.61	21.21	73.29	-49.3	-64.6	3.6	1.51e+00	0	37	104	0	60	61310
2026-01-30 00:06:08.65	16.54	71.91	-49.3	-64.6	3.6	1.51e+00	0	37	104	0	60	61442
2026-01-30 00:06:12.69	12.59	70.46	-49.3	-64.5	3.6	1.51e+00	0	37	104	0	60	61024
2026-01-30 00:06:16.74	9.22	68.95	-49.3	-64.6	3.6	1.51e+00	0	37	104	0	60	61378
2026-01-30 00:06:20.78	6.35	67.41	-49.3	-64.6	3.6	1.51e+00	0	37	104	0	60	61379
2026-01-30 00:06:24.82	3.88	65.86	-49.3	-64.6	3.6	1.51e+00	0	37	104	0	60	61305
2026-01-30 00:06:28.86	1.74	64.30	-49.3	-64.6	3.6	1.51e+00	0	37	104	0	60	61442
2026-01-30 00:06:32.90	359.88	62.75	-49.3	-64.5	3.6	1.51e+00	0	37	104	0	60	61000
2026-01-30 00:06:36.94	358.24	61.20	-49.3	-64.6	3.6	1.51e+00	0	37	104	0	60	61574
2026-01-30 00:06:40.98	356.79	59.68	-49.3	-64.6	3.6	1.51e+00	0	37	104	0	60	61602
2026-01-30 00:06:45.02	355.51	58.18	-49.3	-64.6	3.6	1.51e+00	0	37	104	0	60	61324
2026-01-30 00:06:49.06	354.36	56.70	-49.3	-64.6	3.6	1.51e+00	0	37	104	0	60	61425
2026-01-30 00:06:53.11	353.33	55.25	-49.3	-64.6	3.6	1.51e+00	0	37	104	0	60	61311
2026-01-30 00:06:57.15	352.40	53.83	-49.3	-64.6	3.6	1.51e+00	0	37	104	0	60	61251
2026-01-30 00:07:01.19	351.56	52.44	-49.3	-64.6	3.6	1.51e+00	0	37	104	0	60	61560
2026-01-30 00:07:05.23	350.79	51.09	-49.3	-64.6	3.6	1.51e+00	0	37	104	0	60	61617
2026-01-30 00:07:09.27	350.09	49.77	-49.3	-64.5	3.6	1.51e+00	0	37	104	0	60	61002
2026-01-30 00:07:13.32	349.45	48.47	-49.3	-64.6	3.6	1.51e+00	0	37	104	0	60	61478
2026-01-30 00:07:17.35	348.86	47.22	-49.3	-64.6	3.6	1.51e+00	0	37	104	0	60	61419
2026-01-30 00:07:21.40	348.32	46.00	-49.3	-64.7	3.6	1.51e+00	0	37	104	0	60	61760
2026-01-30 00:07:25.44	347.82	44.81	-49.3	-64.6	3.6	1.51e+00	0	37	104	0	60	61468
2026-01-30 00:07:29.48	347.35	43.65	-49.3	-64.6	3.6	1.51e+00	0	37	104	0	60	61340
2026-01-30 00:07:33.52	346.92	42.53	-49.3	-64.6	3.6	1.51e+00	0	37	104	0	60	61365
2026-01-30 00:07:37.56	346.52	41.44	-49.3	-64.6	3.6	1.51e+00	0	37	104	0	60	61284
2026-01-30 00:07:41.60	346.14	40.37	-49.3	-64.6	3.6	1.51e+00	0	37	104	0	60	61473
2026-01-30 00:07:45.64	345.79	39.34	-49.3	-64.7	3.6	1.51e+00	0	37	104	0	60	61876
2026-01-30 00:07:49.68	345.47	38.34	-49.3	-64.6	3.5	1.51e+00	0	37	104	0	60	61541
2026-01-30 00:07:53.72	345.16	37.36	-49.3	-64.6	3.6	1.51e+00	0	37	104	0	60	61341
2026-01-30 00:07:57.76	344.87	36.41	-49.3	-64.6	3.6	1.51e+00	0	37	104	0	60	61555
2026-01-30 00:08:01.77	344.60	35.50	-49.3	-64.6	3.6	1.51e+00	0	37	104	0	60	61136
2026-01-30 00:08:05.80	344.34	34.60	-49.3	-64.6	3.6	1.51e+00	0	37	104	0	60	61563
2026-01-30 00:08:09.84	344.10	33.73	-49.3	-64.6	3.6	1.51e+00	0	37	104	0	60	61520
2026-01-30 00:08:13.89	343.87	32.88	-49.3	-64.6	3.6	1.51e+00	0	37	104	0	60	61558
2026-01-30 00:08:17.93	343.65	32.05	-49.3	-64.6	3.6	1.51e+00	0	37	104	0	60	61383
2026-01-30 00:08:21.97	343.45	31.24	-49.3	-64.6	3.6	1.51e+00	0	37	104	0	60	61423
2026-01-30 00:08:26.01	343.25	30.46	-49.3	-64.7	3.6	1.51e+00	0	37	104	0	60	61750
2026-01-30 00:08:30.05	343.07	29.70	-49.3	-64.6	3.6	1.51e+00	0	37	104	0	60	61316
2026-01-30 00:08:34.09	342.89	28.95	-49.3	-64.6	3.6	1.51e+00	0	37	104	0	60	61490
2026-01-30 00:08:38.13	342.72	28.23	-49.3	-64.6	3.6	1.51e+00	0	37	104	0	60	61421
2026-01-30 00:08:42.17	342.57	27.52	-49.3	-64.6	3.6	1.51e+00	0	37	104	0	60	61363
2026-01-30 00:08:46.21	342.41	26.83	-49.3	-64.6	3.6	1.51e+00	0	37	104	0	60	61284
2026-01-30 00:08:50.25	342.27	26.16	-49.3	-64.7	3.6	1.51e+00	0	37	104	0	60	61844
2026-01-30 00:08:54.29	342.13	25.51	-49.3	-64.6	3.6	1.51e+00	0	37	104	0	60	61599
2026-01-30 00:08:58.34	342.00	24.86	-49.3	-64.6	3.6	1.51e+00	0	37	104	0	60	61524
2026-01-30 00:09:02.38	341.87	24.24	-49.3	-64.6	3.6	1.51e+00	0	37	104	0	60	61311
2026-01-30 00:09:06.41	341.75	23.63	-49.3	-64.6	3.6	1.51e+00	0	37	104	0	60	61271
2026-01-30 00:09:10.45	341.64	23.03	-49.3	-64.6	3.6	1.51e+00	0	37	104	0	60	61239
2026-01-30 00:09:14.49	341.53	22.45	-49.3	-64.6	3.6	1.51e+00	0	37	104	0	60	61356
2026-01-30 00:09:18.54	341.42	21.88	-49.3	-64.6	3.6	1.51e+00	0	37	104	0	60	61366
2026-01-30 00:09:22.58	341.32	21.32	-49.3	-64.6	3.6	1.51e+00	0	37	104	0	60	61417
2026-01-30 00:09:26.62	341.22	20.77	-49.3	-64.6	3.6	1.51e+00	0	37	104	0	60	61513
2026-01-30 00:09:30.66	341.13	20.24	-49.3	-64.6	3.6	1.51e+00	0	37	104	0	60	61407
2026-01-30 00:09:34.70	341.04	19.72	-49.3	-64.6	3.6	1.51e+00	0	37	104	0	60	61494
2026-01-30 00:09:38.74	340.95	19.20	-49.3	-64.6	3.6	1.51e+00	0	37	104	0	60	61563
2026-01-30 00:09:42.78	340.87	18.70	-49.3	-64.6	3.6	1.51e+00	0	37	104	0	60	61380
2026-01-30 00:09:46.82	340.79	18.21	-49.3	-64.6	3.6	1.51e+00	0	37	104	0	60	61303
2026-01-30 00:09:50.86	340.71	17.73	-49.3	-64.6	3.6	1.51e+00	0	37	104	0	60	61299
2026-01-30 00:09:54.90	340.64	17.25	-49.3	-64.6	3.6	1.51e+00	0	37	104	0	60	61424
2026-01-30 00:09:58.94	340.57	16.79	-49.3	-64.6	3.6	1.51e+00	0	37	104	0	60	61340
2026-01-30 00:10:02.98	340.50	16.33	-49.3	-64.6	3.6	1.51e+00	0	37	104	0	60	61341
2026-01-30 00:10:07.02	340.43	15.88	-49.3	-64.7	3.6	1.51e+00	0	37	104	0	60	61772
2026-01-30 00:10:11.06	340.37	15.45	-49.3	-64.7	3.6	1.51e+00	0	37	104	0	60	61765
2026-01-30 00:10:15.10	340.31	15.01	-49.3	-64.6	3.6	1.51e+00	0	37	104	0	60	61383
2026-01-30 00:10:19.14	340.25	14.59	-49.3	-64.6	3.6	1.51e+00	0	37	104	0	60	61390
2026-01-30 00:10:23.18	340.19	14.17	-49.3	-64.6	3.6	1.51e+00	0	37	104	0	60	61293
2026-01-30 00:10:27.22	340.14	13.76	-49.3	-64.6	3.6	1.51e+00	0	37	104	0	60	61664
2026-01-30 00:10:31.26	340.08	13.36	-49.3	-64.6	3.6	1.51e+00	0	37	104	0	60	61495
2026-01-30 00:10:35.30	340.03	12.96	-49.3	-64.6	3.6	1.51e+00	0	37	104	0	60	61360
2026-01-30 00:10:39.34	339.98	12.57	-49.3	-64.6	3.6	1.51e+00	0	37	104	0	60	61313
2026-01-30 00:10:43.38	339.93	12.19	-49.3	-64.6	3.6	1.51e+00	0	37	104	0	60	61411
2026-01-30 00:10:47.42	339.89	11.81	-49.3	-64.6	3.6	1.51e+00	0	37	104	0	60	61426
2026-01-30 00:10:51.46	339.84	11.44	-49.3	-64.6	3.6	1.51e+00	0	37	104	0	60	61522
2026-01-30 00:10:55.50	339.80	11.07	-49.3	-64.6	3.6	1.51e+00	0	37	104	0	60	61662
2026-01-30 00:10:59.54	339.76	10.71	-49.3	-64.6	3.6	1.51e+00	0	37	104	0	60	61574
2026-01-30 00:11:03.58	339.72	10.35	-49.3	-64.6	3.6	1.51e+00	0	37	104	0	60	61510
2026-01-30 00:11:07.62	339.68	10.00	-49.3	-64.6	3.6	1.51e+00	0	37	104	0	60	61241
2026-01-30 00:11:11.66	339.64	9.65	-49.3	-64.6	3.6	1.51e+00	0	37	104	0	60	61305
2026-01-30 00:11:15.70	339.61	9.31	-49.3	-64.6	3.6	1.51e+00	0	37	104	0	60	61733
2026-01-30 00:11:19.74	339.57	8.97	-49.3	-64.6	3.6	1.51e+00	0	37	104	0	60	61529
2026-01-30 00:11:23.78	339.54	8.64	-49.3	-64.6	3.6	1.51e+00	0	37	104	0	60	61724
2026-01-30 00:11:27.82	339.51	8.31	-49.3	-64.6	3.6	1.51e+00	0	37	104	0	60	61175
2026-01-30 00:11:31.87	339.48	7.99	-49.3	-64.6	3.6	1.51e+00	0	37	104	0	60	61286
2026-01-30 00:11:35.91	339.45	7.67	-49.3	-64.6	3.6	1.51e+00	0	37	104	0	60	61724
2026-01-30 00:11:39.95	339.42	7.35	-49.3	-64.6	3.6	1.51e+00	0	37	104	0	60	61444
2026-01-30 00:11:43.99	339.39	7.04	-49.3	-64.6	3.6	1.51e+00	0	37	104	0	60	61453
2026-01-30 00:11:48.03	339.36	6.73	-49.3	-64.6	3.6	1.51e+00	0	37	104	0	60	61271
2026-01-30 00:11:52.07	339.34	6.43	-49.3	-64.6	3.6	1.51e+00	0	37	104	0	60	61427
2026-01-30 00:11:56.11	339.31	6.13	-49.3	-64.7	3.6	1.51e+00	0	37	104	0	60	61762
2026-01-30 00:12:00.15	339.29	5.83	-49.3	-64.6	3.6	1.51e+00	0	37	104	0	60	61466
2026-01-30 00:12:04.19	339.26	5.53	-49.3	-64.6	3.6	1.51e+00	0	37	104	0	60	61660
2026-01-30 00:12:08.23	339.24	5.24	-49.3	-64.6	3.6	1.51e+00	0	37	104	0	60	61447
2026-01-30 00:12:12.27	339.22	4.95	-49.3	-64.6	3.6	1.51e+00	0	37	104	0	60	61372
2026-01-30 00:12:16.31	339.20	4.67	-49.3	-64.6	3.6	1.51e+00	0	37	104	0	60	61378
2026-01-30 00:12:20.35	339.17	4.39	-49.3	-64.6	3.6	1.51e+00	0	37	104	0	60	61568
2026-01-30 00:12:24.39	339.15	4.11	-49.3	-64.6	3.6	1.51e+00	0	37	104	0	60	61253
2026-01-30 00:12:28.43	339.14	3.83	-49.3	-64.6	3.6	1.51e+00	0	37	104	0	60	61460
2026-01-30 00:12:32.47	339.12	3.56	-49.3	-64.6	3.6	1.51e+00	0	37	104	0	60	61460
2026-01-30 00:12:36.51	339.10	3.29	-49.3	-64.6	3.6	1.51e+00	0	37	104	0	60	61355
2026-01-30 00:12:40.55	339.08	3.02	-49.3	-64.6	3.6	1.51e+00	0	37	104	0	60	61346
2026-01-30 00:12:44.59	339.07	2.75	-49.3	-64.6	3.6	1.51e+00	0	37	104	0	60	61071
2026-01-30 00:12:48.63	339.05	2.49	-49.3	-64.6	3.6	1.51e+00	0	37	104	0	60	61672
2026-01-30 00:12:52.67	339.03	2.23	-49.3	-64.6	3.6	1.51e+00	0	37	104	0	60	61449
2026-01-30 00:12:56.71	339.02	1.97	-49.3	-64.6	3.6	1.51e+00	0	37	104	0	60	61529
2026-01-30 00:13:00.75	339.01	1.72	-49.3	-64.7	3.6	1.51e+00	0	37	104	0	60	61769
2026-01-30 00:13:04.79	338.99	1.46	-49.3	-64.6	3.6	1.51e+00	0	37	104	0	60	61586
2026-01-30 00:13:08.83	338.98	1.21	-49.3	-64.6	3.6	1.51e+00	0	37	104	0	60	61474
2026-01-30 00:13:12.87	338.97	0.96	-49.3	-64.6	3.6	1.51e+00	0	37	104	0	60	61274
2026-01-30 00:13:16.91	338.96	0.71	-49.3	-64.6	3.6	1.51e+00	0	37	104	0	60	61647
2026-01-30 00:13:20.95	338.94	0.47	-49.3	-64.6	3.6	1.51e+00	0	37	104	0	60	61239
2026-01-30 00:13:24.99	338.93	0.22	-49.3	-64.6	3.6	1.51e+00	0	37	104	0	60	61396
2026-01-30 00:13:29.03	338.92	-0.02	-49.3	-64.6	3.6	1.51e+00	0	37	104	0	60	61575

#Closed at: 2026-01-30 00:13:29
#Recorded file [0 MB]: D:/lorett/data/35029_260130_115759.dat