passes_logs/2026/01/29/R4.6S_Anadyr/R4.6S_Anadyr__20260129_212930_NOAA_21_JPSS-2_rec.log

#Pass ID: 20260129_212930_NOAA 21 (JPSS-2)
#Satellite: NOAA 21 (JPSS-2)
#Configuration: NOAA-21
#almurnet v.1.7.20251203
#Start time: 2026-01-29 21:29:33

#Version: 2.2.20231116
#Station: R4.6S_Anadyr
#Location: 177.4865 lon 64.73178 lat
#TLE: 1 54234U 22150A   26029.46216196  .00000141  00000+0  87503-4 0  9994
#TLE: 2 54234  98.7512 330.1880 0000955 196.3413 163.7732 14.19540905166865

#Time	Az	El	Level	Level2	SNR	BER	BlckErr	Temp	State	Recorded	gain1	gain2
2026-01-29 21:29:33.09	91.54	0.15	-49.1	-60.5	3.3	1.54e+00	0	34	0	0	60	37333
2026-01-29 21:29:37.12	91.29	0.37	-49.1	-62.0	3.5	1.52e+00	0	34	104	0	60	44333
2026-01-29 21:29:41.16	91.05	0.59	-49.2	-62.1	3.5	1.52e+00	0	34	104	0	60	44446
2026-01-29 21:29:45.20	90.79	0.80	-49.1	-62.0	3.5	1.52e+00	0	34	104	0	60	44197
2026-01-29 21:29:49.24	90.54	1.02	-49.0	-61.9	3.5	1.52e+00	0	34	104	0	60	43836
2026-01-29 21:29:53.28	90.28	1.24	-48.6	-61.6	3.5	1.51e+00	0	34	104	0	60	41984
2026-01-29 21:29:57.32	90.01	1.46	-47.5	-60.3	3.5	1.52e+00	0	34	104	0	60	36139
2026-01-29 21:30:01.37	89.74	1.68	-47.5	-60.2	3.5	1.52e+00	0	35	104	0	60	35999
2026-01-29 21:30:05.40	89.47	1.91	-47.5	-60.3	3.5	1.51e+00	0	34	104	0	60	36341
2026-01-29 21:30:09.45	89.19	2.13	-47.5	-60.2	3.5	1.51e+00	0	35	104	0	60	36009
2026-01-29 21:30:13.49	88.91	2.36	-47.5	-60.3	3.5	1.52e+00	0	35	104	0	60	36451
2026-01-29 21:30:17.52	88.63	2.58	-47.5	-60.3	3.5	1.52e+00	0	35	104	0	60	36388
2026-01-29 21:30:21.57	88.33	2.81	-47.4	-59.4	3.5	1.51e+00	0	35	104	0	60	32652
2026-01-29 21:30:25.61	88.04	3.04	-45.9	-50.5	8.5	1.21e-01	0	35	0	1048576	60	11796
2026-01-29 21:30:29.64	87.74	3.27	-47.6	-59.2	3.5	1.52e+00	0	35	104	9437184	60	32079
2026-01-29 21:30:33.68	87.43	3.50	-41.6	-43.9	16.3	3.43e-02	0	35	104	13631488	60	5488
2026-01-29 21:30:37.73	87.12	3.73	-38.7	-40.0	19.6	0.00e+00	0	35	0	25165824	50	6221
2026-01-29 21:30:41.77	86.81	3.97	-38.8	-40.1	19.5	0.00e+00	0	35	0	37748736	50	6322
2026-01-29 21:30:45.81	86.49	4.20	-38.3	-39.6	20.0	0.00e+00	0	35	0	50331648	50	5928
2026-01-29 21:30:49.85	86.16	4.44	-38.3	-39.5	20.2	0.00e+00	0	35	0	62914560	48	6615
2026-01-29 21:30:53.89	85.83	4.67	-38.0	-39.2	20.5	0.00e+00	0	35	0	75497472	48	6394
2026-01-29 21:30:57.94	85.49	4.91	-38.3	-39.5	20.2	0.00e+00	0	35	0	88080384	48	6625
2026-01-29 21:31:01.98	85.15	5.15	-37.6	-38.7	20.9	0.00e+00	0	35	0	100663296	48	6052
2026-01-29 21:31:06.02	84.80	5.39	-37.5	-38.6	21.0	0.00e+00	0	35	0	113246208	48	5943
2026-01-29 21:31:10.06	84.45	5.63	-37.1	-38.2	21.4	0.00e+00	0	35	0	125829120	48	5698
2026-01-29 21:31:14.10	84.09	5.88	-37.1	-38.2	21.2	0.00e+00	0	35	0	138412032	48	5680
2026-01-29 21:31:18.15	83.72	6.12	-37.7	-38.9	21.0	0.00e+00	0	35	0	150994944	48	6139
2026-01-29 21:31:22.19	83.34	6.37	-37.0	-38.1	21.7	0.00e+00	0	35	0	163577856	48	5615
2026-01-29 21:31:26.23	82.96	6.61	-36.9	-38.0	21.8	0.00e+00	0	35	0	176160768	46	6262
2026-01-29 21:31:30.28	82.58	6.86	-36.9	-38.0	21.8	0.00e+00	0	35	0	188743680	46	6243
2026-01-29 21:31:34.32	82.18	7.11	-36.7	-37.8	22.0	0.00e+00	0	35	0	201326592	46	6101
2026-01-29 21:31:38.36	81.78	7.36	-36.6	-37.6	22.2	0.00e+00	0	35	0	213909504	46	5970
2026-01-29 21:31:42.40	81.37	7.61	-36.4	-37.4	22.4	0.00e+00	0	35	0	226492416	46	5816
2026-01-29 21:31:46.44	80.96	7.86	-36.4	-37.5	22.3	0.00e+00	0	35	0	239075328	46	5880
2026-01-29 21:31:50.48	80.54	8.11	-36.4	-37.4	22.4	0.00e+00	0	35	0	251658240	46	5835
2026-01-29 21:31:54.52	80.11	8.37	-36.4	-37.5	22.4	0.00e+00	0	35	0	264241152	46	5876
2026-01-29 21:31:58.56	79.67	8.62	-36.2	-37.2	22.4	0.00e+00	0	35	0	277872640	46	5720
2026-01-29 21:32:02.60	79.22	8.88	-36.3	-37.4	22.4	0.00e+00	0	35	0	290455552	46	5812
2026-01-29 21:32:06.65	78.77	9.13	-36.5	-37.5	22.4	0.00e+00	0	35	0	303038464	46	5897
2026-01-29 21:32:10.69	78.31	9.39	-35.8	-36.8	22.9	0.00e+00	0	35	0	315621376	46	5422
2026-01-29 21:32:14.74	77.83	9.65	-35.7	-36.7	22.9	0.00e+00	0	35	0	328204288	44	6035
2026-01-29 21:32:18.77	77.36	9.91	-36.0	-37.0	22.7	0.00e+00	0	35	0	340787200	44	6271
2026-01-29 21:32:22.81	76.87	10.17	-36.1	-37.2	22.8	0.00e+00	0	35	0	353370112	44	6367
2026-01-29 21:32:26.85	76.37	10.43	-35.5	-36.5	23.1	0.00e+00	0	35	0	365953024	44	5900
2026-01-29 21:32:30.90	75.86	10.69	-35.6	-36.6	23.0	0.00e+00	0	35	0	378535936	44	5973
2026-01-29 21:32:34.94	75.35	10.95	-35.7	-36.6	23.2	0.00e+00	0	35	0	391118848	44	5994
2026-01-29 21:32:38.98	74.82	11.22	-35.2	-36.2	23.6	0.00e+00	0	35	0	403701760	44	5666
2026-01-29 21:32:43.02	74.29	11.48	-35.3	-36.3	23.4	0.00e+00	0	35	0	416284672	44	5748
2026-01-29 21:32:47.06	73.75	11.74	-35.1	-36.1	23.6	0.00e+00	0	35	0	428867584	44	5618
2026-01-29 21:32:51.10	73.19	12.00	-35.1	-36.0	23.8	0.00e+00	0	35	0	441450496	44	5562
2026-01-29 21:32:55.14	72.63	12.27	-34.8	-35.7	23.9	0.00e+00	0	35	0	454033408	44	5399
2026-01-29 21:32:59.18	72.05	12.53	-35.1	-36.0	23.6	0.00e+00	0	35	0	466616320	44	5556
2026-01-29 21:33:03.23	71.47	12.79	-35.3	-36.2	23.5	0.00e+00	0	35	0	479199232	44	5707
2026-01-29 21:33:07.27	70.87	13.06	-35.0	-36.0	23.8	0.00e+00	0	35	0	491782144	44	5545
2026-01-29 21:33:11.31	70.26	13.32	-35.0	-36.0	23.8	0.00e+00	0	35	0	504365056	44	5537
2026-01-29 21:33:15.35	69.65	13.58	-35.3	-36.3	23.6	0.00e+00	0	35	0	516947968	44	5743
2026-01-29 21:33:19.39	69.02	13.84	-35.3	-36.2	23.6	0.00e+00	0	35	0	529530880	44	5684
2026-01-29 21:33:23.43	68.38	14.11	-35.4	-36.4	23.4	0.00e+00	0	35	0	542113792	44	5804
2026-01-29 21:33:27.47	67.72	14.37	-35.2	-36.1	23.7	0.00e+00	0	35	0	555745280	44	5637
2026-01-29 21:33:31.51	67.06	14.62	-35.2	-36.1	23.7	0.00e+00	0	35	0	568328192	44	5647
2026-01-29 21:33:35.55	66.38	14.88	-35.1	-36.0	23.8	0.00e+00	0	35	0	580911104	44	5582
2026-01-29 21:33:39.59	65.70	15.14	-34.9	-35.8	24.0	0.00e+00	0	35	0	593494016	44	5420
2026-01-29 21:33:43.64	65.00	15.39	-34.8	-35.7	24.0	0.00e+00	0	35	0	606076928	44	5401
2026-01-29 21:33:47.68	64.28	15.65	-35.0	-35.9	23.8	0.00e+00	0	35	0	618659840	44	5521
2026-01-29 21:33:51.72	63.56	15.90	-35.1	-36.1	23.7	0.00e+00	0	36	0	631242752	44	5613
2026-01-29 21:33:55.76	62.83	16.15	-35.4	-36.3	23.6	0.00e+00	0	36	0	643825664	44	5762
2026-01-29 21:33:59.80	62.08	16.39	-35.3	-36.2	23.6	0.00e+00	0	36	0	656408576	44	5693
2026-01-29 21:34:03.84	61.32	16.64	-35.6	-36.6	23.4	0.00e+00	0	35	0	668991488	44	5944
2026-01-29 21:34:07.88	60.54	16.88	-35.3	-36.2	23.7	0.00e+00	0	36	0	681574400	44	5710
2026-01-29 21:34:11.92	59.76	17.12	-35.4	-36.3	23.6	0.00e+00	0	36	0	694157312	44	5764
2026-01-29 21:34:15.96	58.96	17.35	-35.4	-36.4	23.6	0.00e+00	0	35	0	706740224	44	5809
2026-01-29 21:34:20.00	58.15	17.58	-35.3	-36.2	23.7	0.00e+00	0	36	0	719323136	44	5724
2026-01-29 21:34:24.04	57.32	17.81	-35.0	-35.9	23.9	0.00e+00	0	35	0	731906048	44	5479
2026-01-29 21:34:28.08	56.49	18.03	-34.8	-35.7	24.0	0.00e+00	0	35	0	744488960	44	5378
2026-01-29 21:34:32.12	55.64	18.25	-34.6	-35.5	24.3	0.00e+00	0	36	0	757071872	42	5905
2026-01-29 21:34:36.16	54.78	18.46	-34.4	-35.3	24.3	0.00e+00	0	35	0	769654784	42	5784
2026-01-29 21:34:40.20	53.91	18.67	-34.5	-35.4	24.3	0.00e+00	0	35	0	782237696	42	5850
2026-01-29 21:34:44.25	53.02	18.88	-34.5	-35.4	24.2	0.00e+00	0	36	0	794820608	42	5858
2026-01-29 21:34:48.29	52.12	19.08	-34.6	-35.5	24.3	0.00e+00	0	35	0	807403520	42	5921
2026-01-29 21:34:52.33	51.22	19.27	-34.3	-35.2	24.4	0.00e+00	0	36	0	819986432	42	5672
2026-01-29 21:34:56.37	50.30	19.45	-34.1	-35.0	24.7	0.00e+00	0	36	0	832569344	42	5552
2026-01-29 21:35:00.41	49.37	19.63	-33.9	-34.8	24.7	0.00e+00	0	35	0	846200832	42	5449
2026-01-29 21:35:04.45	48.42	19.81	-34.2	-35.1	24.5	0.00e+00	0	35	0	858783744	42	5609
2026-01-29 21:35:08.49	47.47	19.97	-34.2	-35.1	24.6	0.00e+00	0	36	0	871366656	42	5609
2026-01-29 21:35:12.53	46.51	20.13	-33.9	-34.8	24.9	0.00e+00	0	36	0	883949568	42	5438
2026-01-29 21:35:16.58	45.54	20.28	-34.1	-35.0	24.8	0.00e+00	0	35	0	896532480	42	5547
2026-01-29 21:35:20.62	44.56	20.42	-34.2	-35.1	24.7	0.00e+00	0	36	0	909115392	42	5616
2026-01-29 21:35:24.66	43.57	20.56	-34.2	-35.0	24.6	0.00e+00	0	36	0	921698304	42	5592
2026-01-29 21:35:28.70	42.57	20.68	-34.2	-35.0	24.6	0.00e+00	0	36	0	934281216	42	5593
2026-01-29 21:35:32.74	41.56	20.80	-34.3	-35.1	24.6	0.00e+00	0	36	0	946864128	42	5652
2026-01-29 21:35:36.78	40.55	20.91	-34.2	-35.1	24.7	0.00e+00	0	36	0	959447040	42	5612
2026-01-29 21:35:40.82	39.53	21.01	-34.0	-34.9	24.8	0.00e+00	0	36	0	972029952	42	5512
2026-01-29 21:35:44.86	38.50	21.10	-34.1	-35.0	24.6	0.00e+00	0	36	0	984612864	42	5574
2026-01-29 21:35:48.90	37.47	21.18	-34.2	-35.0	24.7	0.00e+00	0	35	0	997195776	42	5592
2026-01-29 21:35:52.94	36.43	21.25	-34.2	-35.1	24.7	0.00e+00	0	36	0	1009778688	42	5627
2026-01-29 21:35:56.99	35.38	21.31	-34.2	-35.1	24.7	0.00e+00	0	36	0	1022361600	42	5630
2026-01-29 21:36:01.03	34.34	21.36	-34.2	-35.1	24.7	0.00e+00	0	36	0	1034944512	42	5613
2026-01-29 21:36:05.07	33.29	21.40	-34.0	-34.9	24.9	0.00e+00	0	35	0	1047527424	42	5475
2026-01-29 21:36:09.11	32.24	21.43	-34.3	-35.2	24.5	0.00e+00	0	36	0	1060110336	42	5681
2026-01-29 21:36:13.15	31.18	21.45	-34.1	-35.0	24.7	0.00e+00	0	36	0	1072693248	42	5553
2026-01-29 21:36:17.19	30.13	21.46	-34.0	-34.9	24.8	0.00e+00	0	35	0	1085276160	42	5479
2026-01-29 21:36:21.23	29.08	21.46	-34.2	-35.1	24.6	0.00e+00	0	36	0	1097859072	42	5651
2026-01-29 21:36:25.27	28.02	21.45	-34.3	-35.2	24.5	0.00e+00	0	36	0	1110441984	42	5662
2026-01-29 21:36:29.32	26.97	21.43	-34.5	-35.4	24.5	0.00e+00	0	36	0	1123024896	42	5831
2026-01-29 21:36:33.36	25.92	21.40	-34.4	-35.3	24.6	0.00e+00	0	36	0	1136656384	42	5757
2026-01-29 21:36:37.40	24.87	21.35	-34.2	-35.0	24.7	0.00e+00	0	36	0	1149239296	42	5590
2026-01-29 21:36:41.44	23.82	21.30	-34.1	-35.0	24.8	0.00e+00	0	35	0	1161822208	42	5537
2026-01-29 21:36:45.48	22.78	21.24	-34.2	-35.1	24.7	0.00e+00	0	36	0	1174405120	42	5604
2026-01-29 21:36:49.51	21.75	21.17	-34.5	-35.3	24.6	0.00e+00	0	36	0	1186988032	42	5783
2026-01-29 21:36:53.54	20.72	21.09	-34.3	-35.2	24.5	0.00e+00	0	36	0	1199570944	42	5687
2026-01-29 21:36:57.58	19.69	21.00	-34.2	-35.1	24.6	0.00e+00	0	36	0	1212153856	42	5625
2026-01-29 21:37:01.62	18.67	20.90	-34.1	-35.0	24.6	0.00e+00	0	36	0	1224736768	42	5539
2026-01-29 21:37:05.58	17.68	20.79	-34.3	-35.2	24.6	0.00e+00	0	36	0	1237319680	42	5666
2026-01-29 21:37:09.62	16.68	20.67	-34.5	-35.4	24.4	0.00e+00	0	36	0	1249902592	42	5818
2026-01-29 21:37:13.66	15.68	20.55	-34.8	-35.8	24.0	0.00e+00	0	36	0	1262485504	42	6083
2026-01-29 21:37:17.69	14.69	20.41	-34.4	-35.3	24.4	0.00e+00	0	36	0	1275068416	42	5748
2026-01-29 21:37:21.73	13.71	20.27	-34.3	-35.2	24.5	0.00e+00	0	36	0	1287651328	42	5705
2026-01-29 21:37:25.78	12.74	20.12	-34.3	-35.2	24.5	0.00e+00	0	36	0	1300234240	42	5705
2026-01-29 21:37:29.82	11.78	19.96	-34.5	-35.4	24.5	0.00e+00	0	36	0	1312817152	42	5802
2026-01-29 21:37:33.86	10.83	19.80	-34.3	-35.3	24.6	0.00e+00	0	36	0	1325400064	42	5727
2026-01-29 21:37:37.90	9.89	19.62	-33.9	-34.8	24.9	0.00e+00	0	36	0	1337982976	42	5414
2026-01-29 21:37:41.93	8.97	19.44	-34.3	-35.2	24.6	0.00e+00	0	36	0	1350565888	42	5663
2026-01-29 21:37:45.97	8.05	19.26	-34.6	-35.5	24.4	0.00e+00	0	36	0	1363148800	42	5880
2026-01-29 21:37:50.01	7.14	19.07	-34.8	-35.7	24.3	0.00e+00	0	36	0	1375731712	42	6029
2026-01-29 21:37:54.05	6.25	18.87	-34.7	-35.7	24.2	0.00e+00	0	36	0	1388314624	42	5999
2026-01-29 21:37:58.09	5.37	18.66	-34.5	-35.4	24.4	0.00e+00	0	36	0	1400897536	42	5829
2026-01-29 21:38:02.13	4.50	18.46	-34.7	-35.6	24.5	0.00e+00	0	36	0	1413480448	42	5958
2026-01-29 21:38:06.17	3.64	18.24	-34.9	-35.9	24.2	0.00e+00	0	36	0	1426063360	42	6144
2026-01-29 21:38:10.21	2.79	18.02	-34.7	-35.7	24.2	0.00e+00	0	36	0	1438646272	42	6005
2026-01-29 21:38:14.25	1.96	17.80	-34.6	-35.5	24.4	0.00e+00	0	36	0	1451229184	42	5893
2026-01-29 21:38:18.29	1.14	17.57	-34.4	-35.3	24.5	0.00e+00	0	36	0	1463812096	42	5756
2026-01-29 21:38:22.32	0.33	17.34	-34.8	-35.7	24.3	0.00e+00	0	36	0	1477443584	42	6031
2026-01-29 21:38:26.36	359.54	17.11	-34.9	-35.8	24.0	0.00e+00	0	36	0	1488977920	42	6132
2026-01-29 21:38:30.40	358.75	16.87	-34.8	-35.7	24.1	0.00e+00	0	36	0	1502609408	42	6054
2026-01-29 21:38:34.44	357.98	16.63	-35.0	-35.9	24.0	0.00e+00	0	36	0	1515192320	42	6202
2026-01-29 21:38:38.47	357.23	16.39	-35.0	-35.9	24.0	0.00e+00	0	36	0	1527775232	42	6201
2026-01-29 21:38:42.51	356.48	16.14	-35.0	-36.0	24.0	0.00e+00	0	36	0	1540358144	42	6206
2026-01-29 21:38:46.55	355.75	15.89	-35.2	-36.1	24.0	0.00e+00	0	36	0	1552941056	42	6321
2026-01-29 21:38:50.59	355.03	15.64	-35.1	-36.0	24.0	0.00e+00	0	36	0	1565523968	42	6212
2026-01-29 21:38:54.62	354.32	15.39	-34.9	-35.8	24.1	0.00e+00	0	36	0	1578106880	42	6123
2026-01-29 21:38:58.67	353.62	15.13	-35.2	-36.1	23.9	0.00e+00	0	36	0	1590689792	42	6341
2026-01-29 21:39:02.70	352.94	14.88	-35.2	-36.1	23.8	0.00e+00	0	36	0	1603272704	42	6331
2026-01-29 21:39:06.74	352.26	14.62	-35.0	-35.9	24.0	0.00e+00	0	36	0	1615855616	42	6196
2026-01-29 21:39:10.78	351.60	14.36	-35.2	-36.1	23.9	0.00e+00	0	36	0	1628438528	42	6344
2026-01-29 21:39:14.82	350.95	14.10	-35.5	-36.4	23.6	0.00e+00	0	36	0	1641021440	42	6557
2026-01-29 21:39:18.85	350.32	13.84	-35.2	-36.2	23.8	0.00e+00	0	36	0	1653604352	42	6375
2026-01-29 21:39:22.89	349.69	13.58	-35.1	-36.0	23.8	0.00e+00	0	36	0	1666187264	42	6267
2026-01-29 21:39:26.93	349.08	13.32	-35.1	-36.0	23.8	0.00e+00	0	36	0	1678770176	42	6274
2026-01-29 21:39:30.97	348.47	13.06	-35.2	-36.1	23.8	0.00e+00	0	36	0	1691353088	42	6331
2026-01-29 21:39:35.01	347.88	12.80	-35.6	-36.5	23.4	0.00e+00	0	36	0	1703936000	42	6619
2026-01-29 21:39:39.05	347.30	12.53	-35.9	-36.9	23.0	0.00e+00	0	36	0	1716518912	44	6136
2026-01-29 21:39:43.10	346.72	12.27	-35.5	-36.5	23.4	0.00e+00	0	36	0	1729101824	44	5873
2026-01-29 21:39:47.13	346.16	12.01	-36.1	-37.1	23.1	0.00e+00	0	36	0	1741684736	44	6322
2026-01-29 21:39:51.18	345.61	11.74	-36.3	-37.3	22.8	0.00e+00	0	36	0	1754267648	44	6478
2026-01-29 21:39:55.22	345.07	11.48	-36.5	-37.6	22.5	0.00e+00	0	36	0	1766850560	44	6657
2026-01-29 21:39:59.26	344.53	11.22	-36.1	-37.1	22.8	0.00e+00	0	36	0	1779433472	44	6345
2026-01-29 21:40:03.29	344.01	10.96	-36.3	-37.2	22.9	0.00e+00	0	36	0	1792016384	44	6415
2026-01-29 21:40:07.33	343.50	10.70	-36.7	-37.7	22.5	0.00e+00	0	36	0	1804599296	44	6734
2026-01-29 21:40:11.37	343.00	10.44	-36.8	-37.8	22.2	0.00e+00	0	36	0	1818230784	46	6126
2026-01-29 21:40:15.41	342.50	10.18	-36.4	-37.4	22.5	0.00e+00	0	36	0	1829765120	46	5834
2026-01-29 21:40:19.45	342.02	9.92	-36.6	-37.6	22.5	0.00e+00	0	36	0	1843396608	46	5980
2026-01-29 21:40:23.48	341.54	9.66	-36.8	-37.8	22.3	0.00e+00	0	36	0	1855979520	46	6093
2026-01-29 21:40:27.52	341.07	9.40	-37.1	-38.1	22.0	0.00e+00	0	36	0	1868562432	46	6350
2026-01-29 21:40:31.56	340.61	9.14	-36.9	-37.9	22.1	0.00e+00	0	36	0	1881145344	46	6182
2026-01-29 21:40:35.59	340.16	8.89	-36.5	-37.5	22.5	0.00e+00	0	36	0	1893728256	46	5914
2026-01-29 21:40:39.64	339.72	8.63	-36.8	-37.8	22.3	0.00e+00	0	36	0	1906311168	46	6123
2026-01-29 21:40:43.68	339.28	8.38	-37.3	-38.3	21.9	0.00e+00	0	36	0	1918894080	46	6463
2026-01-29 21:40:47.71	338.86	8.13	-37.8	-38.9	21.4	0.00e+00	0	36	0	1931476992	48	6155
2026-01-29 21:40:51.76	338.44	7.87	-37.2	-38.2	21.7	0.00e+00	0	36	0	1944059904	48	5717
2026-01-29 21:40:55.80	338.02	7.62	-37.0	-38.0	22.0	0.00e+00	0	36	0	1956642816	48	5592
2026-01-29 21:40:59.84	337.62	7.37	-36.8	-37.8	22.3	0.00e+00	0	36	0	1969225728	46	6112
2026-01-29 21:41:03.88	337.22	7.12	-37.4	-38.5	21.7	0.00e+00	0	36	0	1981808640	46	6583
2026-01-29 21:41:07.92	336.83	6.87	-37.8	-38.9	21.2	0.00e+00	0	36	0	1994391552	48	6200
2026-01-29 21:41:11.96	336.44	6.63	-38.0	-39.2	20.8	0.00e+00	0	36	0	2006974464	48	6377
2026-01-29 21:41:15.99	336.07	6.38	-37.3	-38.4	21.2	0.00e+00	0	36	0	2019557376	48	5797
2026-01-29 21:41:20.03	335.70	6.14	-37.5	-38.7	20.9	0.00e+00	0	36	0	2032140288	48	6006
2026-01-29 21:41:24.07	335.33	5.89	-38.2	-39.4	19.7	0.00e+00	0	36	0	2044723200	48	6562
2026-01-29 21:41:28.11	334.97	5.65	-39.9	-41.5	16.8	0.00e+00	0	36	0	2057306112	52	6631
2026-01-29 21:41:32.15	334.62	5.41	-41.4	-43.8	13.7	7.00e-07	0	36	0	2069889024	54	7717
2026-01-29 21:41:36.19	334.27	5.17	-42.7	-46.1	11.0	1.18e-03	0	36	0	2082471936	56	8893
2026-01-29 21:41:40.23	333.93	4.93	-43.2	-47.5	9.0	1.82e-02	0	36	0	2095054848	58	9349
2026-01-29 21:41:44.27	333.60	4.69	-43.4	-47.8	9.0	2.98e-02	0	36	0	2107637760	58	9638
2026-01-29 21:41:48.31	333.27	4.46	-43.5	-48.5	7.7	6.85e-02	0	36	0	2120220672	58	10451
2026-01-29 21:41:52.35	332.95	4.22	-43.5	-48.1	8.4	5.60e-02	0	36	0	2132803584	58	9993
2026-01-29 21:41:56.40	332.63	3.99	-43.3	-47.3	9.7	1.22e-02	0	36	0	2145386496	58	9088
2026-01-29 21:42:00.44	332.31	3.75	-43.7	-47.5	10.2	5.29e-03	0	36	0	2159017984	60	8340
2026-01-29 21:42:04.47	332.01	3.52	-43.8	-47.6	10.3	3.35e-03	0	36	0	2171600896	60	8386
2026-01-29 21:42:08.51	331.70	3.29	-43.4	-47.0	10.8	5.95e-03	0	36	0	2184183808	60	7820
2026-01-29 21:42:12.55	331.41	3.06	-43.7	-47.9	9.6	1.80e-02	0	36	0	2196766720	60	8670
2026-01-29 21:42:16.59	331.11	2.83	-48.9	-61.7	3.5	1.52e+00	0	36	104	2198863872	60	42670
2026-01-29 21:42:20.63	330.83	2.61	-49.2	-62.1	3.5	1.52e+00	0	36	104	2198863872	60	44674
2026-01-29 21:42:24.67	330.54	2.38	-49.3	-62.2	3.5	1.52e+00	0	36	104	2198863872	60	45001
2026-01-29 21:42:28.71	330.26	2.16	-49.0	-62.1	3.5	1.52e+00	0	36	104	2198863872	60	44918
2026-01-29 21:42:32.75	329.99	1.93	-49.0	-62.0	3.5	1.52e+00	0	36	104	2198863872	60	44419
2026-01-29 21:42:36.80	329.72	1.71	-49.2	-62.1	3.5	1.52e+00	0	36	104	2198863872	60	44496
2026-01-29 21:42:40.84	329.45	1.49	-49.2	-62.1	3.5	1.51e+00	0	36	104	2198863872	60	44503
2026-01-29 21:42:44.88	329.19	1.27	-49.2	-62.0	3.5	1.52e+00	0	36	104	2198863872	60	44338
2026-01-29 21:42:48.92	328.93	1.05	-49.2	-62.0	3.5	1.52e+00	0	36	104	2198863872	60	44321
2026-01-29 21:42:52.96	328.68	0.83	-49.2	-62.0	3.5	1.52e+00	0	36	104	2198863872	60	44289
2026-01-29 21:42:57.00	328.43	0.61	-49.2	-62.1	3.5	1.52e+00	0	36	104	2198863872	60	44480
2026-01-29 21:43:01.04	328.18	0.40	-49.2	-62.0	3.5	1.52e+00	0	36	104	2198863872	60	44314
2026-01-29 21:43:05.08	327.94	0.18	-49.2	-62.0	3.5	1.52e+00	0	36	104	2198863872	60	44340

#Closed at: 2026-01-29 21:43:09
#Recorded file [2198 MB]: D:/lorett/data/35029_260130_092933.dat