passes_logs/2026/01/29/R4.6S_Anadyr/R4.6S_Anadyr__20260129_010701_NOAA_21_JPSS-2_rec.log

#Pass ID: 20260129_010701_NOAA 21 (JPSS-2)
#Satellite: NOAA 21 (JPSS-2)
#Configuration: NOAA-21
#almurnet v.1.7.20251203
#Start time: 2026-01-29 01:07:02

#Version: 2.2.20231116
#Station: R4.6S_Anadyr
#Location: 177.4865 lon 64.73178 lat
#TLE: 1 54234U 22150A   26027.91149249  .00000141  00000+0  87546-4 0  9993
#TLE: 2 54234  98.7510 328.6558 0000880 202.8718 157.2419 14.19540177166642

#Time	Az	El	Level	Level2	SNR	BER	BlckErr	Temp	State	Recorded	gain1	gain2
2026-01-29 01:07:02.14	178.95	0.05	-45.5	-59.9	3.5	1.51e+00	0	28	0	0	60	40134
2026-01-29 01:07:06.17	179.07	0.29	-48.6	-61.5	3.5	1.52e+00	0	30	104	0	60	41841
2026-01-29 01:07:10.21	179.20	0.53	-48.7	-61.6	3.5	1.52e+00	0	30	104	0	60	42087
2026-01-29 01:07:14.25	179.32	0.77	-48.6	-61.5	3.5	1.52e+00	0	30	104	0	60	41941
2026-01-29 01:07:18.29	179.45	1.01	-48.3	-61.5	3.5	1.52e+00	0	30	104	0	60	41615
2026-01-29 01:07:22.33	179.58	1.26	-48.1	-60.9	3.5	1.52e+00	0	30	104	0	60	39064
2026-01-29 01:07:26.37	179.71	1.50	-47.3	-60.1	3.5	1.52e+00	0	30	104	0	60	35622
2026-01-29 01:07:30.41	179.85	1.75	-47.3	-60.0	3.5	1.52e+00	0	30	104	0	60	34981
2026-01-29 01:07:34.45	179.98	2.00	-47.3	-60.0	3.5	1.51e+00	0	30	104	0	60	35268
2026-01-29 01:07:38.49	180.12	2.26	-47.3	-60.1	3.5	1.52e+00	0	30	104	0	60	35302
2026-01-29 01:07:42.53	180.26	2.51	-47.2	-59.1	3.5	1.52e+00	0	30	104	0	60	31728
2026-01-29 01:07:46.57	180.40	2.77	-47.2	-59.7	3.5	1.52e+00	0	30	104	0	60	33783
2026-01-29 01:07:50.61	180.55	3.03	-44.9	-48.7	10.7	1.72e-02	0	31	0	4194304	60	9503
2026-01-29 01:07:54.65	180.69	3.29	-39.4	-40.8	18.5	0.00e+00	0	30	0	16777216	52	6115
2026-01-29 01:07:58.69	180.84	3.55	-38.1	-39.4	19.7	0.00e+00	0	31	0	29360128	50	5823
2026-01-29 01:08:02.72	180.99	3.82	-39.1	-40.8	18.1	0.00e+00	0	31	104	38797312	50	6862
2026-01-29 01:08:06.76	181.15	4.09	-39.7	-41.1	18.4	0.00e+00	0	31	0	50331648	52	6347
2026-01-29 01:08:10.80	181.31	4.36	-38.5	-39.7	19.6	0.00e+00	0	31	0	62914560	50	6056
2026-01-29 01:08:14.84	181.47	4.63	-38.8	-40.1	19.7	0.00e+00	0	31	0	75497472	50	6280
2026-01-29 01:08:18.88	181.63	4.91	-37.6	-38.7	20.8	0.00e+00	0	31	0	88080384	48	6051
2026-01-29 01:08:22.91	181.79	5.19	-37.2	-38.3	21.1	0.00e+00	0	30	0	100663296	48	5776
2026-01-29 01:08:26.95	181.96	5.47	-36.9	-38.0	21.3	0.00e+00	0	31	0	113246208	48	5567
2026-01-29 01:08:30.99	182.13	5.76	-36.3	-37.3	21.9	0.00e+00	0	31	0	125829120	46	5787
2026-01-29 01:08:35.03	182.31	6.05	-36.8	-37.8	21.7	0.00e+00	0	31	0	138412032	46	6113
2026-01-29 01:08:39.07	182.48	6.34	-36.8	-37.9	21.5	0.00e+00	0	31	0	150994944	46	6164
2026-01-29 01:08:43.11	182.66	6.63	-36.7	-37.7	21.9	0.00e+00	0	31	0	164626432	46	6039
2026-01-29 01:08:47.15	182.85	6.93	-36.5	-37.5	21.9	0.00e+00	0	31	0	176160768	46	5880
2026-01-29 01:08:51.18	183.04	7.23	-36.2	-37.2	22.1	0.00e+00	0	31	0	189792256	46	5696
2026-01-29 01:08:55.22	183.23	7.53	-35.8	-36.8	22.6	0.00e+00	0	31	0	202375168	46	5418
2026-01-29 01:08:59.26	183.42	7.84	-35.9	-36.9	22.6	0.00e+00	0	31	0	214958080	46	5475
2026-01-29 01:09:03.29	183.62	8.15	-35.8	-36.8	22.6	0.00e+00	0	31	0	227540992	44	6084
2026-01-29 01:09:07.33	183.82	8.47	-35.7	-36.7	22.7	0.00e+00	0	31	0	240123904	44	6049
2026-01-29 01:09:11.36	184.03	8.78	-35.5	-36.5	22.9	0.00e+00	0	31	0	252706816	44	5893
2026-01-29 01:09:15.40	184.24	9.11	-35.5	-36.5	22.9	0.00e+00	0	31	0	265289728	44	5883
2026-01-29 01:09:19.44	184.46	9.43	-35.5	-36.5	22.9	0.00e+00	0	31	0	277872640	44	5874
2026-01-29 01:09:23.48	184.68	9.76	-35.3	-36.2	23.1	0.00e+00	0	31	0	290455552	44	5701
2026-01-29 01:09:27.52	184.90	10.10	-35.1	-36.1	23.3	0.00e+00	0	31	0	303038464	44	5605
2026-01-29 01:09:31.55	185.13	10.43	-35.1	-36.0	23.3	0.00e+00	0	31	0	315621376	44	5566
2026-01-29 01:09:35.59	185.37	10.78	-35.2	-36.1	23.3	0.00e+00	0	31	0	328204288	44	5646
2026-01-29 01:09:39.63	185.61	11.12	-34.8	-35.7	23.6	0.00e+00	0	31	0	340787200	44	5380
2026-01-29 01:09:43.67	185.85	11.47	-35.0	-35.9	23.4	0.00e+00	0	31	0	353370112	44	5519
2026-01-29 01:09:47.71	186.10	11.83	-34.8	-35.7	23.8	0.00e+00	0	31	0	365953024	42	6022
2026-01-29 01:09:51.75	186.36	12.19	-34.6	-35.5	23.8	0.00e+00	0	31	0	378535936	42	5912
2026-01-29 01:09:55.79	186.63	12.56	-34.6	-35.5	23.8	0.00e+00	0	31	0	391118848	42	5917
2026-01-29 01:09:59.83	186.89	12.93	-34.5	-35.5	23.9	0.00e+00	0	31	0	403701760	42	5866
2026-01-29 01:10:03.87	187.17	13.30	-34.5	-35.4	23.9	0.00e+00	0	31	0	416284672	42	5825
2026-01-29 01:10:07.91	187.45	13.69	-34.8	-35.7	23.9	0.00e+00	0	31	0	428867584	42	6030
2026-01-29 01:10:11.94	187.74	14.07	-34.5	-35.4	23.9	0.00e+00	0	31	0	441450496	42	5828
2026-01-29 01:10:15.98	188.04	14.46	-34.5	-35.5	23.9	0.00e+00	0	31	0	454033408	42	5859
2026-01-29 01:10:20.01	188.34	14.86	-34.7	-35.6	23.9	0.00e+00	0	31	0	466616320	42	5968
2026-01-29 01:10:24.05	188.66	15.27	-34.7	-35.6	23.9	0.00e+00	0	31	0	479199232	42	5944
2026-01-29 01:10:28.09	188.98	15.68	-35.0	-36.0	23.6	0.00e+00	0	31	0	491782144	42	6232
2026-01-29 01:10:32.13	189.31	16.09	-34.7	-35.7	23.8	0.00e+00	0	31	0	504365056	42	6000
2026-01-29 01:10:36.16	189.64	16.51	-34.8	-35.7	23.8	0.00e+00	0	31	0	516947968	42	6063
2026-01-29 01:10:40.20	189.99	16.94	-34.7	-35.6	23.9	0.00e+00	0	31	0	529530880	42	5965
2026-01-29 01:10:44.24	190.35	17.38	-34.6	-35.5	23.9	0.00e+00	0	31	0	542113792	42	5895
2026-01-29 01:10:48.27	190.71	17.82	-34.6	-35.5	24.0	0.00e+00	0	31	0	555745280	42	5916
2026-01-29 01:10:52.31	191.09	18.27	-34.3	-35.2	24.2	0.00e+00	0	31	0	568328192	42	5708
2026-01-29 01:10:56.35	191.48	18.73	-34.2	-35.1	24.4	0.00e+00	0	31	0	580911104	42	5611
2026-01-29 01:11:00.39	191.88	19.19	-34.1	-35.0	24.5	0.00e+00	0	31	0	593494016	42	5550
2026-01-29 01:11:04.43	192.29	19.66	-34.0	-34.9	24.5	0.00e+00	0	31	0	606076928	42	5503
2026-01-29 01:11:08.46	192.71	20.14	-33.8	-34.7	24.7	0.00e+00	0	31	0	618659840	42	5384
2026-01-29 01:11:12.50	193.15	20.63	-33.6	-34.5	24.8	0.00e+00	0	31	0	631242752	40	5880
2026-01-29 01:11:16.54	193.60	21.12	-33.3	-34.2	25.1	0.00e+00	0	31	0	643825664	40	5698
2026-01-29 01:11:20.58	194.07	21.62	-33.2	-34.0	25.1	0.00e+00	0	31	0	656408576	40	5585
2026-01-29 01:11:24.61	194.54	22.13	-33.1	-34.0	25.1	0.00e+00	0	31	0	668991488	40	5560
2026-01-29 01:11:28.65	195.04	22.65	-32.8	-33.7	25.4	0.00e+00	0	31	0	681574400	40	5370
2026-01-29 01:11:32.69	195.55	23.18	-33.0	-33.9	25.3	0.00e+00	0	31	0	694157312	40	5478
2026-01-29 01:11:36.73	196.08	23.72	-33.1	-34.0	25.2	0.00e+00	0	31	0	706740224	40	5551
2026-01-29 01:11:40.77	196.63	24.26	-33.1	-34.0	25.2	0.00e+00	0	31	0	719323136	40	5569
2026-01-29 01:11:44.81	197.19	24.82	-33.2	-34.0	25.1	0.00e+00	0	31	0	731906048	40	5574
2026-01-29 01:11:48.85	197.78	25.38	-33.6	-34.5	24.9	0.00e+00	0	31	0	744488960	40	5882
2026-01-29 01:11:52.88	198.38	25.95	-33.8	-34.6	24.7	0.00e+00	0	31	0	757071872	40	5981
2026-01-29 01:11:56.93	199.01	26.53	-33.8	-34.6	24.8	0.00e+00	0	31	0	769654784	40	5985
2026-01-29 01:12:00.97	199.66	27.13	-34.1	-34.9	24.6	0.00e+00	0	31	0	782237696	40	6200
2026-01-29 01:12:05.00	200.34	27.72	-34.2	-35.1	24.4	0.00e+00	0	31	0	794820608	40	6320
2026-01-29 01:12:09.04	201.03	28.33	-34.1	-35.0	24.5	0.00e+00	0	31	0	807403520	40	6241
2026-01-29 01:12:13.08	201.76	28.95	-34.2	-35.1	24.5	0.00e+00	0	31	0	819986432	40	6299
2026-01-29 01:12:17.12	202.52	29.57	-34.3	-35.2	24.3	0.00e+00	0	31	0	832569344	40	6369
2026-01-29 01:12:21.15	203.30	30.21	-34.3	-35.2	24.5	0.00e+00	0	31	0	845152256	40	6404
2026-01-29 01:12:25.19	204.11	30.85	-34.3	-35.2	24.4	0.00e+00	0	31	0	857735168	40	6400
2026-01-29 01:12:29.23	204.96	31.50	-33.9	-34.8	24.5	0.00e+00	0	31	0	870318080	40	6122
2026-01-29 01:12:33.26	205.84	32.16	-34.0	-34.9	24.6	0.00e+00	0	31	0	882900992	40	6135
2026-01-29 01:12:37.30	206.75	32.82	-34.3	-35.2	24.4	0.00e+00	0	31	0	896532480	40	6361
2026-01-29 01:12:41.34	207.71	33.49	-33.8	-34.7	24.8	0.00e+00	0	31	0	908066816	40	6024
2026-01-29 01:12:45.38	208.70	34.17	-34.4	-35.4	24.2	0.00e+00	0	31	0	921698304	40	6506
2026-01-29 01:12:49.42	209.73	34.85	-34.6	-35.5	24.2	0.00e+00	0	31	0	934281216	40	6616
2026-01-29 01:12:53.45	210.81	35.54	-35.1	-36.0	23.9	0.00e+00	0	31	0	946864128	42	6237
2026-01-29 01:12:57.50	211.94	36.23	-35.3	-36.3	23.6	0.00e+00	0	31	0	959447040	42	6463
2026-01-29 01:13:01.53	213.10	36.92	-35.8	-36.8	23.1	0.00e+00	0	31	0	972029952	44	6076
2026-01-29 01:13:05.56	214.32	37.61	-36.2	-37.2	22.9	0.00e+00	0	31	0	984612864	44	6358
2026-01-29 01:13:09.59	215.59	38.30	-36.0	-36.9	23.1	0.00e+00	0	31	0	997195776	44	6201
2026-01-29 01:13:13.63	216.92	39.00	-36.1	-37.0	23.0	0.00e+00	0	31	0	1009778688	44	6274
2026-01-29 01:13:17.68	218.31	39.68	-36.3	-37.3	22.7	0.00e+00	0	31	0	1022361600	44	6488
2026-01-29 01:13:21.71	219.75	40.36	-36.6	-37.6	22.5	0.00e+00	0	31	0	1034944512	44	6672
2026-01-29 01:13:25.75	221.25	41.04	-36.9	-37.9	22.0	0.00e+00	0	31	0	1047527424	46	6190
2026-01-29 01:13:29.79	222.82	41.70	-36.8	-37.8	22.2	0.00e+00	0	31	0	1060110336	46	6127
2026-01-29 01:13:33.83	224.45	42.35	-36.8	-37.8	22.4	0.00e+00	0	31	0	1072693248	46	6121
2026-01-29 01:13:37.86	226.14	42.99	-36.3	-37.3	22.7	0.00e+00	0	31	0	1085276160	46	5739
2026-01-29 01:13:41.90	227.90	43.60	-36.8	-37.8	22.3	0.00e+00	0	31	0	1097859072	46	6130
2026-01-29 01:13:45.93	229.72	44.20	-36.9	-38.0	22.0	0.00e+00	0	31	0	1110441984	46	6218
2026-01-29 01:13:49.97	231.62	44.77	-37.1	-38.1	22.1	0.00e+00	0	31	0	1123024896	46	6334
2026-01-29 01:13:54.01	233.58	45.32	-36.0	-37.0	22.6	0.00e+00	0	31	0	1135607808	46	5587
2026-01-29 01:13:58.05	235.61	45.83	-35.7	-36.6	23.3	0.00e+00	0	31	0	1148190720	44	5986
2026-01-29 01:14:02.09	237.71	46.31	-36.4	-37.5	22.6	0.00e+00	0	31	0	1160773632	44	6589
2026-01-29 01:14:06.12	239.86	46.75	-36.2	-37.1	23.0	0.00e+00	0	31	0	1173356544	44	6348
2026-01-29 01:14:10.16	242.07	47.16	-37.2	-38.3	22.0	0.00e+00	0	31	0	1185939456	46	6434
2026-01-29 01:14:14.20	244.34	47.52	-36.1	-37.1	23.0	0.00e+00	0	31	0	1198522368	46	5609
2026-01-29 01:14:18.24	246.65	47.83	-36.5	-37.5	22.6	0.00e+00	0	31	0	1211105280	46	5870
2026-01-29 01:14:22.27	249.01	48.10	-36.0	-36.9	23.1	0.00e+00	0	31	0	1223688192	44	6198
2026-01-29 01:14:26.31	251.40	48.31	-36.1	-37.1	22.6	0.00e+00	0	31	0	1236271104	44	6315
2026-01-29 01:14:30.34	253.82	48.47	-36.3	-37.2	22.9	0.00e+00	0	31	0	1248854016	44	6409
2026-01-29 01:14:34.38	256.27	48.58	-36.1	-37.1	23.1	0.00e+00	0	31	0	1261436928	44	6281
2026-01-29 01:14:38.42	258.72	48.63	-36.1	-37.0	23.2	0.00e+00	0	31	0	1274019840	44	6258
2026-01-29 01:14:42.46	261.18	48.63	-36.2	-37.1	23.0	0.00e+00	0	31	0	1287651328	44	6322
2026-01-29 01:14:46.50	263.64	48.57	-35.8	-36.7	23.3	0.00e+00	0	31	0	1299185664	44	6033
2026-01-29 01:14:50.54	266.08	48.46	-36.4	-37.3	22.7	0.00e+00	0	31	0	1311768576	44	6493
2026-01-29 01:14:54.58	268.50	48.29	-36.6	-37.6	22.6	0.00e+00	0	31	0	1325400064	44	6695
2026-01-29 01:14:58.62	270.89	48.07	-36.9	-38.0	22.3	0.00e+00	0	31	0	1337982976	46	6224
2026-01-29 01:15:02.65	273.24	47.80	-36.9	-37.9	22.2	0.00e+00	0	31	0	1350565888	46	6202
2026-01-29 01:15:06.69	275.54	47.48	-36.6	-37.6	22.6	0.00e+00	0	31	0	1363148800	46	5993
2026-01-29 01:15:10.73	277.80	47.11	-36.3	-37.2	22.9	0.00e+00	0	31	0	1375731712	44	6418
2026-01-29 01:15:14.76	280.00	46.71	-36.3	-37.3	22.6	0.00e+00	0	31	0	1388314624	44	6431
2026-01-29 01:15:18.80	282.15	46.26	-36.8	-37.8	22.5	0.00e+00	0	31	0	1400897536	46	6103
2026-01-29 01:15:22.84	284.23	45.78	-36.6	-37.6	22.5	0.00e+00	0	31	0	1413480448	46	5949
2026-01-29 01:15:26.88	286.24	45.26	-35.8	-36.8	23.2	0.00e+00	0	31	0	1426063360	44	6075
2026-01-29 01:15:30.92	288.20	44.71	-35.7	-36.7	23.2	0.00e+00	0	31	0	1438646272	44	6001
2026-01-29 01:15:34.96	290.08	44.14	-36.4	-37.4	22.7	0.00e+00	0	31	0	1451229184	44	6500
2026-01-29 01:15:39.00	291.90	43.54	-36.5	-37.5	22.4	0.00e+00	0	31	0	1463812096	44	6575
2026-01-29 01:15:43.04	293.65	42.92	-37.4	-38.5	21.8	0.00e+00	0	31	0	1476395008	46	6580
2026-01-29 01:15:47.08	295.33	42.29	-37.2	-38.2	21.8	0.00e+00	0	31	0	1488977920	46	6423
2026-01-29 01:15:51.11	296.95	41.64	-36.5	-37.4	22.8	0.00e+00	0	31	0	1501560832	46	5838
2026-01-29 01:15:55.15	298.50	40.98	-36.1	-37.0	22.9	0.00e+00	0	31	0	1514143744	46	5585
2026-01-29 01:15:59.19	299.99	40.31	-35.7	-36.7	23.3	0.00e+00	0	31	0	1526726656	44	6022
2026-01-29 01:16:03.23	301.43	39.63	-36.5	-37.5	22.4	0.00e+00	0	31	0	1539309568	44	6638
2026-01-29 01:16:07.27	302.80	38.94	-36.5	-37.5	22.7	0.00e+00	0	31	0	1551892480	44	6577
2026-01-29 01:16:11.30	304.12	38.26	-36.5	-37.5	22.7	0.00e+00	0	31	0	1564475392	44	6614
2026-01-29 01:16:15.34	305.38	37.57	-35.1	-36.0	23.9	0.00e+00	0	31	0	1577058304	44	5574
2026-01-29 01:16:19.38	306.59	36.88	-34.9	-35.8	24.0	0.00e+00	0	31	0	1589641216	42	6114
2026-01-29 01:16:23.42	307.76	36.19	-34.9	-35.9	24.0	0.00e+00	0	31	0	1602224128	42	6145
2026-01-29 01:16:27.45	308.87	35.50	-35.1	-36.1	23.9	0.00e+00	0	31	0	1614807040	42	6287
2026-01-29 01:16:31.49	309.94	34.82	-34.9	-35.9	24.0	0.00e+00	0	31	0	1627389952	42	6136
2026-01-29 01:16:35.53	310.97	34.14	-35.6	-36.6	23.5	0.00e+00	0	31	0	1639972864	42	6664
2026-01-29 01:16:39.57	311.96	33.47	-34.9	-35.8	24.0	0.00e+00	0	31	0	1652555776	42	6097
2026-01-29 01:16:43.61	312.90	32.80	-35.3	-36.3	23.6	0.00e+00	0	31	0	1666187264	42	6435
2026-01-29 01:16:47.66	313.82	32.14	-34.7	-35.6	24.2	0.00e+00	0	31	0	1678770176	42	5962
2026-01-29 01:16:51.69	314.69	31.49	-34.2	-35.1	24.4	0.00e+00	0	31	0	1691353088	42	5656
2026-01-29 01:16:55.73	315.53	30.84	-34.0	-34.9	24.6	0.00e+00	0	31	0	1703936000	42	5508
2026-01-29 01:16:59.77	316.34	30.20	-34.1	-35.0	24.5	0.00e+00	0	31	0	1716518912	42	5569
2026-01-29 01:17:03.81	317.12	29.57	-34.3	-35.2	24.4	0.00e+00	0	31	0	1729101824	42	5673
2026-01-29 01:17:07.84	317.87	28.95	-34.2	-35.0	24.2	0.00e+00	0	31	0	1741684736	42	5584
2026-01-29 01:17:11.88	318.59	28.34	-33.9	-34.8	24.4	0.00e+00	0	31	0	1754267648	42	5447
2026-01-29 01:17:15.92	319.29	27.73	-34.1	-35.0	24.4	0.00e+00	0	31	0	1766850560	42	5566
2026-01-29 01:17:19.95	319.96	27.14	-33.8	-34.6	24.8	0.00e+00	0	31	0	1779433472	42	5317
2026-01-29 01:17:23.99	320.60	26.55	-33.8	-34.7	24.7	0.00e+00	0	31	0	1792016384	40	6041
2026-01-29 01:17:28.03	321.23	25.98	-33.9	-34.8	24.5	0.00e+00	0	31	0	1804599296	40	6123
2026-01-29 01:17:32.07	321.83	25.41	-33.4	-34.2	24.9	0.00e+00	0	31	0	1817182208	40	5719
2026-01-29 01:17:36.11	322.42	24.85	-33.1	-33.9	25.0	0.00e+00	0	31	0	1829765120	40	5527
2026-01-29 01:17:40.14	322.98	24.30	-33.2	-34.1	24.9	0.00e+00	0	31	0	1842348032	40	5617
2026-01-29 01:17:44.18	323.52	23.76	-33.5	-34.3	24.9	0.00e+00	0	31	0	1854930944	40	5788
2026-01-29 01:17:48.22	324.05	23.23	-33.5	-34.4	24.7	0.00e+00	0	31	0	1867513856	40	5839
2026-01-29 01:17:52.26	324.56	22.70	-33.6	-34.5	24.5	0.00e+00	0	31	0	1880096768	40	5893
2026-01-29 01:17:56.30	325.06	22.19	-33.9	-34.8	24.3	0.00e+00	0	31	0	1892679680	40	6102
2026-01-29 01:18:00.34	325.53	21.68	-33.8	-34.7	24.6	0.00e+00	0	31	0	1905262592	40	6007
2026-01-29 01:18:04.37	326.00	21.18	-34.3	-35.2	24.2	0.00e+00	0	31	0	1917845504	40	6351
2026-01-29 01:18:08.41	326.45	20.69	-34.5	-35.4	24.2	0.00e+00	0	31	0	1930428416	40	6525
2026-01-29 01:18:12.45	326.88	20.20	-34.4	-35.3	24.2	0.00e+00	0	31	0	1943011328	40	6489
2026-01-29 01:18:16.49	327.31	19.73	-34.2	-35.1	24.4	0.00e+00	0	31	0	1955594240	40	6290
2026-01-29 01:18:20.53	327.72	19.26	-33.9	-34.8	24.4	0.00e+00	0	31	0	1968177152	40	6077
2026-01-29 01:18:24.58	328.12	18.80	-33.6	-34.5	24.6	0.00e+00	0	31	0	1980760064	40	5911
2026-01-29 01:18:28.62	328.51	18.34	-33.5	-34.4	24.7	0.00e+00	0	31	0	1993342976	40	5800
2026-01-29 01:18:32.65	328.89	17.90	-33.4	-34.3	24.9	0.00e+00	0	31	0	2006974464	40	5746
2026-01-29 01:18:36.69	329.25	17.46	-33.9	-34.7	24.6	0.00e+00	0	31	0	2018508800	40	6051
2026-01-29 01:18:40.73	329.61	17.02	-34.4	-35.3	24.1	0.00e+00	0	31	0	2032140288	40	6489
2026-01-29 01:18:44.77	329.96	16.60	-34.8	-35.7	23.8	0.00e+00	0	31	0	2044723200	42	6044
2026-01-29 01:18:48.81	330.30	16.18	-35.2	-36.1	23.5	0.00e+00	0	31	0	2057306112	42	6325
2026-01-29 01:18:52.85	330.63	15.76	-35.1	-36.1	23.5	0.00e+00	0	31	0	2069889024	42	6283
2026-01-29 01:18:56.89	330.95	15.36	-34.9	-35.9	23.5	0.00e+00	0	31	0	2082471936	42	6168
2026-01-29 01:19:00.92	331.26	14.96	-34.8	-35.8	23.5	0.00e+00	0	31	0	2095054848	42	6078
2026-01-29 01:19:04.96	331.57	14.56	-35.0	-35.9	23.6	0.00e+00	0	31	0	2107637760	42	6188
2026-01-29 01:19:09.00	331.87	14.17	-34.8	-35.7	23.7	0.00e+00	0	31	0	2120220672	42	6052
2026-01-29 01:19:13.04	332.16	13.79	-34.9	-35.8	23.7	0.00e+00	0	31	0	2132803584	42	6101
2026-01-29 01:19:17.08	332.44	13.41	-34.8	-35.7	23.7	0.00e+00	0	31	0	2145386496	42	6064
2026-01-29 01:19:21.12	332.72	13.03	-34.9	-35.9	23.6	0.00e+00	0	31	0	2157969408	42	6157
2026-01-29 01:19:25.15	332.99	12.67	-35.2	-36.2	23.4	0.00e+00	0	31	0	2170552320	42	6379
2026-01-29 01:19:29.19	333.25	12.30	-35.4	-36.3	23.2	0.00e+00	0	31	0	2183135232	42	6490
2026-01-29 01:19:33.22	333.51	11.94	-35.5	-36.5	23.1	0.00e+00	0	31	0	2195718144	42	6604
2026-01-29 01:19:37.27	333.77	11.59	-35.5	-36.5	23.0	0.00e+00	0	31	0	2208301056	42	6620
2026-01-29 01:19:41.30	334.01	11.24	-35.7	-36.6	22.9	0.00e+00	0	31	0	2220883968	44	5991
2026-01-29 01:19:45.34	334.25	10.89	-35.7	-36.7	22.8	0.00e+00	0	31	0	2233466880	44	6000
2026-01-29 01:19:49.38	334.49	10.55	-35.5	-36.5	22.9	0.00e+00	0	31	0	2246049792	44	5903
2026-01-29 01:19:53.42	334.72	10.22	-35.8	-36.8	22.7	0.00e+00	0	31	0	2258632704	44	6086
2026-01-29 01:19:57.46	334.95	9.88	-35.9	-36.9	22.6	0.00e+00	0	31	0	2271215616	44	6203
2026-01-29 01:20:01.49	335.17	9.56	-35.9	-36.9	22.6	0.00e+00	0	31	0	2283798528	44	6173
2026-01-29 01:20:05.54	335.39	9.23	-35.9	-36.9	22.6	0.00e+00	0	31	0	2296381440	44	6158
2026-01-29 01:20:09.58	335.61	8.91	-36.2	-37.2	22.3	0.00e+00	0	31	0	2308964352	44	6381
2026-01-29 01:20:13.62	335.82	8.60	-36.1	-37.1	22.1	0.00e+00	0	31	0	2321547264	44	6341
2026-01-29 01:20:17.66	336.02	8.28	-36.3	-37.3	22.1	0.00e+00	0	31	0	2334130176	44	6454
2026-01-29 01:20:21.70	336.22	7.97	-36.4	-37.5	21.9	0.00e+00	0	31	0	2346713088	44	6593
2026-01-29 01:20:25.74	336.42	7.67	-36.4	-37.5	21.9	0.00e+00	0	31	0	2359296000	44	6583
2026-01-29 01:20:29.78	336.61	7.37	-36.6	-37.6	21.8	0.00e+00	0	31	0	2372927488	46	5973
2026-01-29 01:20:33.81	336.80	7.07	-36.9	-38.0	21.4	0.00e+00	0	31	0	2385510400	46	6264
2026-01-29 01:20:37.85	336.99	6.77	-36.5	-37.6	21.7	0.00e+00	0	31	0	2398093312	46	5933
2026-01-29 01:20:41.89	337.17	6.48	-36.7	-37.7	21.4	0.00e+00	0	31	0	2410676224	46	6063
2026-01-29 01:20:45.93	337.36	6.19	-36.7	-37.8	21.5	0.00e+00	0	31	0	2423259136	46	6110
2026-01-29 01:20:49.97	337.53	5.90	-37.2	-38.4	20.8	0.00e+00	0	31	0	2435842048	46	6500
2026-01-29 01:20:54.01	337.71	5.62	-37.7	-38.9	20.0	0.00e+00	0	31	0	2448424960	48	6172
2026-01-29 01:20:58.05	337.88	5.34	-38.7	-40.2	18.1	0.00e+00	0	31	0	2461007872	50	6370
2026-01-29 01:21:02.08	338.05	5.06	-39.9	-41.7	16.0	0.00e+00	0	31	0	2473590784	50	7613
2026-01-29 01:21:06.13	338.21	4.78	-41.2	-43.7	13.4	9.10e-06	0	31	0	2486173696	54	7582
2026-01-29 01:21:10.17	338.38	4.51	-42.2	-45.8	10.5	2.53e-03	0	31	0	2498756608	56	8602
2026-01-29 01:21:14.21	338.54	4.24	-43.2	-48.7	6.7	1.63e-01	0	31	0	2511339520	58	10729
2026-01-29 01:21:18.25	338.69	3.97	-43.7	-53.2	4.2	9.71e-01	0	31	104	2514485248	58	17969
2026-01-29 01:21:22.29	338.85	3.71	-43.8	-56.3	3.5	1.52e+00	0	31	104	2514485248	60	23045
2026-01-29 01:21:26.32	339.00	3.45	-43.9	-56.0	3.5	1.52e+00	0	31	104	2514485248	60	22189
2026-01-29 01:21:30.36	339.15	3.18	-43.8	-56.6	3.5	1.52e+00	0	31	104	2514485248	60	23827
2026-01-29 01:21:34.40	339.30	2.93	-43.7	-56.5	3.5	1.52e+00	0	31	104	2514485248	60	23495
2026-01-29 01:21:38.44	339.44	2.67	-48.4	-61.2	3.5	1.52e+00	0	31	104	2514485248	60	40455
2026-01-29 01:21:42.48	339.59	2.42	-48.7	-61.5	3.5	1.52e+00	0	31	104	2514485248	60	41758
2026-01-29 01:21:46.52	339.73	2.17	-48.7	-61.6	3.5	1.51e+00	0	32	104	2514485248	60	42217
2026-01-29 01:21:50.54	339.87	1.92	-48.5	-61.5	3.5	1.51e+00	0	31	104	2514485248	60	41657
2026-01-29 01:21:54.58	340.01	1.67	-48.6	-61.5	3.5	1.52e+00	0	31	104	2514485248	60	41574
2026-01-29 01:21:58.63	340.14	1.42	-48.6	-61.5	3.5	1.52e+00	0	31	104	2514485248	60	41791
2026-01-29 01:22:02.67	340.28	1.18	-48.6	-61.5	3.5	1.52e+00	0	31	104	2514485248	60	41572
2026-01-29 01:22:06.71	340.41	0.94	-48.6	-61.4	3.5	1.52e+00	0	31	104	2514485248	60	41433
2026-01-29 01:22:10.75	340.54	0.70	-48.6	-61.5	3.5	1.52e+00	0	31	104	2514485248	60	41702
2026-01-29 01:22:14.79	340.67	0.46	-48.6	-61.4	3.5	1.52e+00	0	31	104	2514485248	60	41429
2026-01-29 01:22:18.83	340.79	0.23	-48.6	-61.4	3.5	1.52e+00	0	31	104	2514485248	60	41341
2026-01-29 01:22:22.87	340.92	-0.01	-48.6	-61.5	3.5	1.52e+00	0	31	104	2514485248	60	41559

#Closed at: 2026-01-29 01:22:25
#Recorded file [2514 MB]: D:/lorett/data/35029_260129_130702.dat