passes_logs/2026/01/29/R4.6S_Anadyr/R4.6S_Anadyr__20260129_140236_NOAA_20_JPSS-1_rec.log

#Pass ID: 20260129_140236_NOAA 20 (JPSS-1)
#Satellite: NOAA 20 (JPSS-1)
#Configuration: NOAA 20
#almurnet v.1.7.20251203
#Start time: 2026-01-29 14:02:39

#Version: 2.2.20231116
#Station: R4.6S_Anadyr
#Location: 177.4865 lon 64.73178 lat
#TLE: 1 43013U 17073A   26028.86313978  .00000144  00000+0  89200-4 0  9993
#TLE: 2 43013  98.7648 329.6571 0000891  20.0014 340.1197 14.19541559424709

#Time	Az	El	Level	Level2	SNR	BER	BlckErr	Temp	State	Recorded	gain1	gain2
2026-01-29 14:02:39.26	19.44	0.18	-48.9	-62.7	3.3	1.54e+00	0	27	0	0	60	49341
2026-01-29 14:02:43.30	19.54	0.42	-48.8	-64.0	3.6	1.51e+00	0	27	104	0	60	57165
2026-01-29 14:02:47.34	19.64	0.66	-48.7	-63.9	3.6	1.51e+00	0	27	104	0	60	56811
2026-01-29 14:02:51.38	19.75	0.90	-48.6	-63.7	3.6	1.51e+00	0	27	104	0	60	55647
2026-01-29 14:02:55.42	19.85	1.14	-48.1	-63.3	3.6	1.51e+00	0	27	104	0	60	53058
2026-01-29 14:02:59.46	19.96	1.39	-47.4	-62.6	3.6	1.51e+00	0	28	104	0	60	48682
2026-01-29 14:03:03.50	20.06	1.64	-47.3	-62.4	3.6	1.51e+00	0	27	104	0	60	47598
2026-01-29 14:03:07.53	20.17	1.89	-47.3	-62.4	3.6	1.51e+00	0	28	104	0	60	47902
2026-01-29 14:03:11.57	20.28	2.14	-47.3	-62.5	3.6	1.51e+00	0	28	104	0	60	47935
2026-01-29 14:03:15.62	20.40	2.40	-47.2	-61.2	3.6	1.51e+00	0	28	104	0	60	41543
2026-01-29 14:03:19.66	20.51	2.65	-47.2	-61.4	3.6	1.51e+00	0	28	104	0	60	42256
2026-01-29 14:03:23.69	20.62	2.91	-46.0	-51.4	9.6	5.98e-02	0	28	0	4194304	60	13378
2026-01-29 14:03:27.73	20.74	3.17	-42.3	-44.4	17.0	0.00e+00	0	28	0	11534336	58	6716
2026-01-29 14:03:31.77	20.86	3.44	-41.5	-43.3	18.1	0.00e+00	15	28	0	18874368	56	6629
2026-01-29 14:03:35.81	20.98	3.70	-43.7	-46.5	14.6	0.00e+00	17	28	0	26214400	58	8558
2026-01-29 14:03:39.85	21.10	3.97	-44.0	-46.9	14.8	1.07e-01	23	28	0	30408704	60	7989
2026-01-29 14:03:43.89	21.23	4.24	-43.0	-45.4	16.2	0.00e+00	0	28	0	37748736	60	6697
2026-01-29 14:03:47.92	21.35	4.52	-41.4	-43.1	18.6	0.00e+00	91	28	0	45088768	56	6513
2026-01-29 14:03:51.96	21.48	4.79	-41.3	-42.9	18.6	0.00e+00	64	28	0	52428800	56	6388
2026-01-29 14:03:56.00	21.61	5.07	-40.7	-42.2	19.5	0.00e+00	17	28	0	59768832	54	6591
2026-01-29 14:04:00.03	21.74	5.36	-40.4	-41.7	20.0	0.00e+00	0	28	0	68157440	54	6240
2026-01-29 14:04:04.06	21.88	5.64	-40.5	-41.9	19.8	0.00e+00	92	28	0	75497472	54	6387
2026-01-29 14:04:08.10	22.02	5.93	-40.2	-41.5	20.5	0.00e+00	0	28	0	82837504	54	6058
2026-01-29 14:04:12.13	22.15	6.22	-40.2	-41.5	20.3	0.00e+00	60	28	0	90177536	54	6064
2026-01-29 14:04:16.17	22.30	6.52	-40.1	-41.4	20.4	0.00e+00	0	28	0	97517568	54	6005
2026-01-29 14:04:20.20	22.44	6.81	-39.9	-41.1	20.8	0.00e+00	92	28	0	105906176	52	6518
2026-01-29 14:04:24.23	22.59	7.11	-39.9	-41.1	20.8	0.00e+00	0	28	0	113246208	52	6492
2026-01-29 14:04:28.27	22.74	7.42	-39.7	-40.9	21.1	0.00e+00	16	28	0	120586240	52	6345
2026-01-29 14:04:32.30	22.89	7.73	-39.7	-40.9	20.9	0.00e+00	0	28	0	127926272	52	6357
2026-01-29 14:04:36.33	23.04	8.04	-39.6	-40.7	21.1	0.00e+00	92	28	0	136314880	52	6236
2026-01-29 14:04:40.37	23.20	8.35	-39.4	-40.6	21.3	0.00e+00	60	28	0	143654912	52	6129
2026-01-29 14:04:44.40	23.36	8.67	-39.4	-40.6	21.4	0.00e+00	59	28	0	150994944	52	6122
2026-01-29 14:04:48.43	23.53	9.00	-39.2	-40.3	21.7	0.00e+00	16	28	0	158334976	52	5908
2026-01-29 14:04:52.46	23.70	9.32	-39.1	-40.1	21.8	0.00e+00	92	28	0	165675008	52	5825
2026-01-29 14:04:56.50	23.87	9.66	-39.1	-40.1	21.9	0.00e+00	5	28	0	174063616	52	5818
2026-01-29 14:05:00.53	24.04	9.99	-38.9	-40.0	22.1	0.00e+00	65	28	0	181403648	50	6392
2026-01-29 14:05:04.57	24.22	10.33	-38.7	-39.8	22.3	0.00e+00	0	28	0	188743680	50	6252
2026-01-29 14:05:08.60	24.40	10.68	-38.7	-39.7	22.4	0.00e+00	92	28	0	196083712	50	6221
2026-01-29 14:05:12.63	24.59	11.03	-38.7	-39.7	22.4	0.00e+00	21	28	0	203423744	50	6229
2026-01-29 14:05:16.66	24.78	11.38	-38.9	-40.0	22.3	0.00e+00	25	28	0	211812352	50	6408
2026-01-29 14:05:20.70	24.97	11.74	-38.4	-39.4	22.7	0.00e+00	24	28	0	219152384	50	6024
2026-01-29 14:05:24.73	25.17	12.10	-38.5	-39.5	22.6	0.00e+00	92	28	0	226492416	50	6060
2026-01-29 14:05:28.77	25.38	12.47	-38.5	-39.5	22.7	0.00e+00	68	28	0	233832448	50	6043
2026-01-29 14:05:32.81	25.58	12.85	-38.1	-39.0	23.1	0.00e+00	20	28	0	241172480	50	5753
2026-01-29 14:05:36.84	25.80	13.23	-38.0	-38.9	23.2	0.00e+00	60	28	0	249561088	50	5687
2026-01-29 14:05:40.87	26.01	13.62	-38.0	-38.9	23.3	0.00e+00	0	28	0	256901120	50	5664
2026-01-29 14:05:44.91	26.24	14.01	-38.0	-38.9	23.2	0.00e+00	0	28	0	264241152	50	5675
2026-01-29 14:05:48.94	26.47	14.41	-37.7	-38.6	23.6	0.00e+00	0	28	0	271581184	48	6112
2026-01-29 14:05:52.98	26.70	14.81	-37.7	-38.6	23.5	0.00e+00	91	28	0	279969792	48	6118
2026-01-29 14:05:57.02	26.94	15.22	-37.5	-38.4	23.7	0.00e+00	19	28	0	287309824	48	5996
2026-01-29 14:06:01.05	27.19	15.64	-37.5	-38.3	23.8	0.00e+00	2	28	0	294649856	48	5961
2026-01-29 14:06:05.09	27.44	16.07	-37.3	-38.2	24.0	0.00e+00	2	28	0	301989888	48	5856
2026-01-29 14:06:09.13	27.70	16.50	-37.2	-38.1	24.0	0.00e+00	92	28	0	309329920	48	5801
2026-01-29 14:06:13.16	27.97	16.94	-37.3	-38.1	24.0	0.00e+00	0	28	0	317718528	48	5817
2026-01-29 14:06:17.20	28.25	17.39	-37.0	-37.8	24.2	0.00e+00	69	28	0	325058560	48	5620
2026-01-29 14:06:21.23	28.53	17.84	-36.8	-37.7	24.4	0.00e+00	12	28	0	332398592	48	5523
2026-01-29 14:06:25.27	28.82	18.30	-36.6	-37.4	24.6	0.00e+00	92	28	0	339738624	46	6002
2026-01-29 14:06:29.30	29.12	18.77	-36.6	-37.4	24.7	0.00e+00	0	28	0	348127232	46	5999
2026-01-29 14:06:33.34	29.43	19.25	-36.5	-37.3	24.8	0.00e+00	69	28	0	355467264	46	5932
2026-01-29 14:06:37.38	29.74	19.74	-36.5	-37.3	24.7	0.00e+00	69	28	0	362807296	46	5942
2026-01-29 14:06:41.41	30.07	20.23	-36.3	-37.1	25.0	0.00e+00	92	28	0	370147328	46	5768
2026-01-29 14:06:45.45	30.41	20.74	-36.5	-37.3	24.9	0.00e+00	13	28	0	377487360	46	5932
2026-01-29 14:06:49.49	30.76	21.26	-36.3	-37.1	25.0	0.00e+00	0	28	0	385875968	46	5795
2026-01-29 14:06:53.52	31.12	21.78	-36.3	-37.1	25.0	0.00e+00	0	28	0	393216000	46	5770
2026-01-29 14:06:57.56	31.49	22.32	-36.3	-37.1	25.0	0.00e+00	92	28	0	400556032	46	5814
2026-01-29 14:07:01.55	31.87	22.86	-36.2	-37.0	25.1	0.00e+00	0	28	0	407896064	46	5704
2026-01-29 14:07:05.59	32.27	23.41	-36.2	-37.0	25.1	0.00e+00	0	28	0	415236096	46	5711
2026-01-29 14:07:09.63	32.68	23.98	-36.1	-36.9	25.3	0.00e+00	31	28	0	423624704	46	5655
2026-01-29 14:07:13.66	33.10	24.55	-36.2	-37.0	25.1	0.00e+00	90	28	0	430964736	46	5738
2026-01-29 14:07:17.70	33.54	25.14	-36.3	-37.1	25.0	0.00e+00	6	28	0	438304768	46	5788
2026-01-29 14:07:21.73	34.00	25.74	-36.6	-37.4	24.8	0.00e+00	71	28	0	445644800	46	6000
2026-01-29 14:07:25.77	34.47	26.36	-36.9	-37.7	24.5	0.00e+00	6	28	0	452984832	46	6200
2026-01-29 14:07:29.80	34.97	26.98	-37.4	-38.2	24.1	0.00e+00	90	28	0	461373440	46	6599
2026-01-29 14:07:33.84	35.48	27.62	-37.6	-38.5	23.9	0.00e+00	0	28	0	468713472	46	6825
2026-01-29 14:07:37.87	36.01	28.27	-37.9	-38.8	23.6	0.00e+00	0	28	0	476053504	48	6267
2026-01-29 14:07:41.91	36.56	28.93	-38.2	-39.2	23.3	0.00e+00	92	28	0	483393536	48	6543
2026-01-29 14:07:45.95	37.14	29.61	-38.9	-39.8	22.6	0.00e+00	0	28	0	491782144	50	6317
2026-01-29 14:07:49.99	37.74	30.30	-39.8	-40.9	21.6	0.00e+00	71	28	0	499122176	52	6376
2026-01-29 14:07:54.02	38.36	31.00	-40.1	-41.3	21.4	0.00e+00	71	28	0	506462208	52	6652
2026-01-29 14:07:58.06	39.02	31.72	-39.4	-40.5	22.1	0.00e+00	91	28	0	513802240	52	6040
2026-01-29 14:08:02.09	39.70	32.45	-39.4	-40.5	22.2	0.00e+00	0	28	0	521142272	52	6065
2026-01-29 14:08:06.13	40.41	33.19	-39.0	-40.0	22.6	0.00e+00	72	28	0	529530880	52	5760
2026-01-29 14:08:10.16	41.15	33.95	-38.9	-39.9	22.7	0.00e+00	0	28	0	536870912	52	5665
2026-01-29 14:08:14.19	41.93	34.72	-38.6	-39.5	23.1	0.00e+00	90	28	0	544210944	50	6065
2026-01-29 14:08:18.23	42.75	35.50	-38.6	-39.6	22.5	0.00e+00	0	28	0	551550976	50	6107
2026-01-29 14:08:22.26	43.61	36.30	-38.1	-39.0	23.6	0.00e+00	10	28	0	559939584	50	5739
2026-01-29 14:08:26.30	44.51	37.11	-37.4	-38.3	24.1	0.00e+00	0	28	0	567279616	48	5934
2026-01-29 14:08:30.34	45.45	37.93	-37.1	-38.0	24.4	0.00e+00	92	28	0	574619648	48	5723
2026-01-29 14:08:34.37	46.45	38.77	-37.2	-38.0	24.2	0.00e+00	0	28	0	581959680	48	5747
2026-01-29 14:08:38.41	47.49	39.61	-36.9	-37.7	24.6	0.00e+00	17	28	0	589299712	48	5519
2026-01-29 14:08:42.44	48.59	40.47	-36.7	-37.5	24.7	0.00e+00	0	28	0	597688320	46	6086
2026-01-29 14:08:46.48	49.75	41.33	-37.1	-38.0	24.4	0.00e+00	91	28	0	605028352	46	6405
2026-01-29 14:08:50.51	50.97	42.20	-37.4	-38.2	24.1	0.00e+00	0	28	0	612368384	46	6592
2026-01-29 14:08:54.55	52.26	43.08	-38.1	-39.0	23.4	0.00e+00	0	28	0	619708416	48	6424
2026-01-29 14:08:58.59	53.62	43.96	-37.6	-38.5	23.9	0.00e+00	0	28	0	628097024	48	6080
2026-01-29 14:09:02.61	55.06	44.84	-39.3	-40.4	22.3	0.00e+00	92	28	0	635437056	50	6695
2026-01-29 14:09:06.65	56.58	45.73	-39.0	-40.0	22.6	0.00e+00	6	28	0	642777088	50	6431
2026-01-29 14:09:10.69	58.18	46.61	-40.5	-41.7	21.1	0.00e+00	0	28	0	650117120	52	6960
2026-01-29 14:09:14.73	59.88	47.48	-40.6	-41.8	20.8	0.00e+00	69	28	0	657457152	54	6300
2026-01-29 14:09:18.76	61.67	48.34	-41.2	-42.6	20.2	0.00e+00	93	28	0	665845760	54	6853
2026-01-29 14:09:22.80	63.56	49.19	-40.4	-41.6	21.2	0.00e+00	72	28	0	673185792	54	6127
2026-01-29 14:09:26.84	65.56	50.02	-40.1	-41.2	21.4	0.00e+00	9	28	0	680525824	54	5885
2026-01-29 14:09:30.87	67.67	50.82	-38.8	-39.8	22.7	0.00e+00	88	28	0	687865856	52	5614
2026-01-29 14:09:34.90	69.89	51.60	-38.5	-39.4	23.3	0.00e+00	91	28	0	695205888	50	6008
2026-01-29 14:09:38.93	72.22	52.34	-36.2	-37.0	24.8	0.00e+00	4	28	0	703594496	46	5738
2026-01-29 14:09:42.96	74.67	53.04	-36.5	-37.3	24.9	0.00e+00	67	28	0	710934528	46	5909
2026-01-29 14:09:47.00	77.24	53.70	-36.6	-37.4	24.7	0.00e+00	92	28	0	718274560	46	6022
2026-01-29 14:09:51.03	79.92	54.30	-36.6	-37.4	24.4	0.00e+00	0	28	0	725614592	46	5974
2026-01-29 14:09:55.07	82.71	54.85	-36.3	-37.1	25.1	0.00e+00	0	28	0	732954624	46	5799
2026-01-29 14:09:59.10	85.60	55.33	-37.0	-37.8	24.5	0.00e+00	2	28	0	741343232	46	6313
2026-01-29 14:10:03.14	88.59	55.75	-38.0	-38.9	23.5	0.00e+00	91	28	0	748683264	48	6343
2026-01-29 14:10:07.17	91.66	56.09	-39.5	-40.6	21.9	0.00e+00	16	28	0	756023296	50	6908
2026-01-29 14:10:11.21	94.80	56.35	-40.2	-41.3	21.3	0.00e+00	0	28	0	763363328	52	6666
2026-01-29 14:10:15.25	97.98	56.53	-40.3	-41.5	21.3	0.00e+00	9	28	0	771751936	54	6072
2026-01-29 14:10:19.29	101.21	56.62	-38.7	-39.7	22.8	0.00e+00	92	28	0	779091968	50	6182
2026-01-29 14:10:23.32	104.43	56.63	-38.6	-39.6	23.0	0.00e+00	0	28	0	786432000	50	6144
2026-01-29 14:10:27.36	107.65	56.55	-39.9	-41.0	21.7	0.00e+00	0	28	0	793772032	52	6438
2026-01-29 14:10:31.40	110.85	56.38	-39.2	-40.2	22.3	0.00e+00	70	28	0	801112064	50	6575
2026-01-29 14:10:35.43	113.99	56.14	-40.5	-41.7	20.9	0.00e+00	92	28	0	809500672	52	6982
2026-01-29 14:10:39.47	117.08	55.81	-40.1	-41.2	21.2	0.00e+00	17	28	0	816840704	52	6605
2026-01-29 14:10:43.50	120.08	55.41	-38.7	-39.7	22.8	0.00e+00	5	28	0	824180736	50	6199
2026-01-29 14:10:47.54	123.00	54.93	-38.1	-39.0	23.5	0.00e+00	0	28	0	831520768	50	5718
2026-01-29 14:10:51.58	125.81	54.39	-36.1	-36.9	25.4	0.00e+00	92	28	0	839909376	46	5642
2026-01-29 14:10:55.61	128.51	53.80	-34.9	-35.6	26.3	0.00e+00	16	28	0	847249408	42	6131
2026-01-29 14:10:59.65	131.11	53.15	-34.1	-34.8	26.8	0.00e+00	7	28	0	854589440	42	5610
2026-01-29 14:11:03.68	133.58	52.45	-34.4	-35.0	26.8	0.00e+00	8	28	0	861929472	42	5761
2026-01-29 14:11:07.71	135.94	51.71	-37.1	-37.9	24.5	0.00e+00	92	28	0	869269504	46	6363
2026-01-29 14:11:11.75	138.18	50.94	-40.6	-41.9	20.9	0.00e+00	0	28	0	877658112	52	7096
2026-01-29 14:11:15.78	140.31	50.14	-40.0	-41.2	21.5	0.00e+00	71	28	0	884998144	52	6559
2026-01-29 14:11:19.81	142.32	49.31	-40.1	-41.2	21.5	0.00e+00	45	28	0	892338176	54	5852
2026-01-29 14:11:23.84	144.23	48.46	-41.3	-42.6	20.2	0.00e+00	90	28	0	899678208	54	6894
2026-01-29 14:11:27.88	146.05	47.60	-40.5	-41.6	21.2	0.00e+00	2	28	0	907018240	54	6144
2026-01-29 14:11:31.91	147.76	46.73	-39.3	-40.3	22.4	0.00e+00	2	28	0	915406848	52	5935
2026-01-29 14:11:35.94	149.38	45.85	-41.0	-42.3	20.5	0.00e+00	23	28	0	922746880	54	6678
2026-01-29 14:11:39.98	150.92	44.96	-39.1	-40.1	22.7	0.00e+00	87	28	0	930086912	52	5780
2026-01-29 14:11:44.02	152.37	44.07	-39.6	-40.7	22.1	0.00e+00	66	28	0	937426944	52	6177
2026-01-29 14:11:48.05	153.74	43.19	-39.9	-40.9	21.8	0.00e+00	13	28	0	945815552	52	6374
2026-01-29 14:11:52.09	155.05	42.31	-42.3	-43.9	19.2	0.00e+00	89	28	0	953155584	56	7117
2026-01-29 14:11:56.13	156.28	41.43	-38.4	-39.3	23.3	0.00e+00	70	28	0	960495616	50	5943
2026-01-29 14:12:00.17	157.45	40.56	-40.9	-42.2	20.6	0.00e+00	69	28	0	967835648	54	6605
2026-01-29 14:12:04.20	158.56	39.70	-38.8	-39.8	22.7	0.00e+00	70	28	0	975175680	50	6273
2026-01-29 14:12:08.24	159.62	38.85	-39.9	-41.0	21.9	0.00e+00	90	28	0	983564288	54	5741
2026-01-29 14:12:12.27	160.62	38.01	-38.5	-39.5	22.6	0.00e+00	18	28	0	990904320	48	6804
2026-01-29 14:12:16.30	161.57	37.18	-39.0	-40.0	22.5	0.00e+00	0	28	0	998244352	52	5746
2026-01-29 14:12:20.34	162.48	36.37	-37.1	-37.9	24.4	0.00e+00	68	28	0	1005584384	48	5665
2026-01-29 14:12:24.38	163.35	35.56	-38.2	-39.2	23.4	0.00e+00	91	28	0	1013972992	48	6546
2026-01-29 14:12:28.42	164.17	34.77	-37.8	-38.7	23.7	0.00e+00	67	28	0	1021313024	48	6206
2026-01-29 14:12:32.45	164.96	33.99	-38.1	-39.0	23.5	0.00e+00	13	28	0	1028653056	48	6411
2026-01-29 14:12:36.49	165.71	33.23	-40.0	-41.1	21.6	0.00e+00	7	28	0	1035993088	52	6491
2026-01-29 14:12:40.52	166.42	32.48	-39.4	-40.4	22.3	0.00e+00	92	28	0	1043333120	52	6012
2026-01-29 14:12:44.56	167.11	31.75	-38.9	-39.9	22.6	0.00e+00	65	28	0	1051721728	50	6351
2026-01-29 14:12:48.59	167.77	31.03	-39.9	-41.0	21.7	0.00e+00	18	28	0	1059061760	52	6409
2026-01-29 14:12:52.62	168.39	30.32	-40.1	-41.2	21.5	0.00e+00	62	28	0	1066401792	52	6560
2026-01-29 14:12:56.66	169.00	29.62	-39.8	-40.9	21.7	0.00e+00	92	28	0	1073741824	52	6361
2026-01-29 14:13:00.70	169.58	28.94	-39.3	-40.3	22.2	0.00e+00	0	28	0	1081081856	52	5924
2026-01-29 14:13:04.73	170.13	28.27	-38.8	-39.8	22.7	0.00e+00	67	28	0	1089470464	50	6268
2026-01-29 14:13:08.77	170.67	27.62	-39.6	-40.6	22.0	0.00e+00	0	28	0	1096810496	50	6926
2026-01-29 14:13:12.81	171.18	26.98	-39.7	-40.8	21.9	0.00e+00	92	28	0	1104150528	52	6262
2026-01-29 14:13:16.85	171.68	26.35	-39.5	-40.5	22.0	0.00e+00	0	28	0	1111490560	52	6083
2026-01-29 14:13:20.89	172.15	25.73	-38.8	-39.8	22.7	0.00e+00	2	28	0	1119879168	50	6257
2026-01-29 14:13:24.92	172.61	25.12	-39.0	-40.0	22.4	0.00e+00	0	28	0	1127219200	50	6439
2026-01-29 14:13:28.96	173.05	24.53	-38.5	-39.5	22.9	0.00e+00	90	28	0	1134559232	50	6087
2026-01-29 14:13:32.99	173.48	23.95	-37.8	-38.7	23.7	0.00e+00	15	28	0	1141899264	50	5531
2026-01-29 14:13:37.03	173.89	23.38	-37.4	-38.2	24.1	0.00e+00	23	28	0	1149239296	48	5868
2026-01-29 14:13:41.07	174.29	22.82	-37.2	-38.1	24.1	0.00e+00	89	28	0	1157627904	48	5782
2026-01-29 14:13:45.10	174.67	22.27	-37.5	-38.4	23.9	0.00e+00	32	28	0	1164967936	48	6006
2026-01-29 14:13:49.14	175.05	21.73	-37.7	-38.7	23.6	0.00e+00	66	28	0	1172307968	48	6184
2026-01-29 14:13:53.18	175.41	21.20	-37.2	-38.1	24.1	0.00e+00	66	28	0	1179648000	48	5797
2026-01-29 14:13:57.22	175.75	20.68	-36.6	-37.4	24.7	0.00e+00	92	28	0	1186988032	46	6023
2026-01-29 14:14:01.26	176.09	20.18	-36.2	-37.0	25.1	0.00e+00	54	28	0	1195376640	46	5717
2026-01-29 14:14:05.29	176.42	19.68	-36.0	-36.8	25.1	0.00e+00	0	28	0	1202716672	46	5612
2026-01-29 14:14:09.33	176.74	19.19	-36.4	-37.2	24.8	0.00e+00	0	28	0	1210056704	46	5860
2026-01-29 14:14:13.37	177.04	18.70	-36.6	-37.4	24.6	0.00e+00	92	28	0	1217396736	46	6017
2026-01-29 14:14:17.41	177.34	18.23	-36.7	-37.5	24.6	0.00e+00	19	28	0	1225785344	46	6059
2026-01-29 14:14:21.44	177.63	17.76	-36.5	-37.3	24.6	0.00e+00	17	28	0	1233125376	46	5952
2026-01-29 14:14:25.48	177.91	17.31	-36.5	-37.4	24.6	0.00e+00	0	28	0	1240465408	46	5971
2026-01-29 14:14:29.52	178.19	16.86	-36.8	-37.6	24.4	0.00e+00	92	28	0	1247805440	46	6162
2026-01-29 14:14:33.56	178.46	16.41	-37.0	-37.8	23.9	0.00e+00	0	28	0	1255145472	46	6301
2026-01-29 14:14:37.59	178.71	15.98	-37.3	-38.1	24.0	0.00e+00	28	28	0	1263534080	46	6531
2026-01-29 14:14:41.63	178.97	15.55	-37.4	-38.3	23.8	0.00e+00	0	28	0	1270874112	46	6663
2026-01-29 14:14:45.67	179.21	15.13	-37.6	-38.5	23.6	0.00e+00	92	28	0	1278214144	46	6770
2026-01-29 14:14:49.71	179.45	14.72	-37.4	-38.2	23.9	0.00e+00	7	28	0	1285554176	48	5892
2026-01-29 14:14:53.75	179.69	14.31	-37.2	-38.1	24.0	0.00e+00	64	28	0	1293942784	48	5776
2026-01-29 14:14:57.78	179.91	13.91	-37.3	-38.1	23.9	0.00e+00	0	28	0	1301282816	48	5808
2026-01-29 14:15:01.82	180.13	13.52	-37.2	-38.1	23.9	0.00e+00	92	28	0	1308622848	48	5794
2026-01-29 14:15:05.86	180.35	13.13	-37.4	-38.3	23.8	0.00e+00	20	28	0	1315962880	48	5910
2026-01-29 14:15:09.89	180.56	12.74	-37.8	-38.7	23.4	0.00e+00	0	28	0	1323302912	48	6239
2026-01-29 14:15:13.93	180.77	12.37	-38.2	-39.2	23.0	0.00e+00	92	28	0	1331691520	48	6574
2026-01-29 14:15:17.96	180.97	11.99	-38.3	-39.3	22.9	0.00e+00	92	28	0	1339031552	48	6630
2026-01-29 14:15:22.00	181.17	11.63	-38.7	-39.7	22.4	0.00e+00	20	28	0	1346371584	48	6940
2026-01-29 14:15:26.04	181.36	11.27	-38.7	-39.7	22.4	0.00e+00	19	29	0	1353711616	48	6958
2026-01-29 14:15:30.08	181.55	10.91	-38.8	-39.8	22.3	0.00e+00	92	28	0	1362100224	50	6283
2026-01-29 14:15:34.12	181.73	10.56	-38.9	-39.9	22.2	0.00e+00	89	28	0	1369440256	50	6380
2026-01-29 14:15:38.16	181.91	10.21	-38.8	-39.8	22.4	0.00e+00	0	28	0	1376780288	50	6275
2026-01-29 14:15:42.19	182.09	9.87	-38.8	-39.9	22.2	0.00e+00	27	28	0	1384120320	50	6326
2026-01-29 14:15:46.23	182.26	9.53	-38.7	-39.7	22.4	0.00e+00	91	28	0	1391460352	50	6191
2026-01-29 14:15:50.27	182.43	9.20	-38.6	-39.6	22.3	0.00e+00	73	28	0	1399848960	50	6162
2026-01-29 14:15:54.30	182.59	8.87	-38.5	-39.5	22.5	0.00e+00	0	28	0	1407188992	50	6082
2026-01-29 14:15:58.34	182.75	8.54	-38.5	-39.5	22.6	0.00e+00	0	28	0	1414529024	50	6039
2026-01-29 14:16:02.38	182.91	8.22	-38.5	-39.5	22.6	0.00e+00	92	28	0	1421869056	50	6092
2026-01-29 14:16:06.42	183.07	7.90	-38.5	-39.4	22.6	0.00e+00	23	28	0	1429209088	50	6030
2026-01-29 14:16:10.46	183.22	7.59	-38.7	-39.7	22.3	0.00e+00	5	28	0	1437597696	50	6188
2026-01-29 14:16:14.50	183.37	7.28	-38.5	-39.5	22.5	0.00e+00	6	28	0	1444937728	50	6041
2026-01-29 14:16:18.53	183.52	6.97	-38.5	-39.5	22.4	0.00e+00	92	28	0	1452277760	50	6100
2026-01-29 14:16:22.57	183.66	6.67	-38.7	-39.7	22.3	0.00e+00	56	28	0	1459617792	50	6203
2026-01-29 14:16:26.61	183.80	6.37	-38.9	-40.0	22.0	0.00e+00	56	28	0	1468006400	50	6408
2026-01-29 14:16:30.65	183.94	6.08	-38.9	-39.9	22.0	0.00e+00	0	28	0	1475346432	50	6369
2026-01-29 14:16:34.68	184.08	5.78	-39.3	-40.4	21.6	0.00e+00	90	28	0	1482686464	50	6724
2026-01-29 14:16:38.72	184.21	5.49	-39.2	-40.3	21.6	0.00e+00	8	28	0	1490026496	50	6644
2026-01-29 14:16:42.76	184.34	5.21	-39.4	-40.5	21.4	0.00e+00	0	28	0	1497366528	50	6808
2026-01-29 14:16:46.80	184.47	4.92	-39.4	-40.6	21.3	0.00e+00	90	28	0	1505755136	50	6863
2026-01-29 14:16:50.84	184.60	4.64	-39.4	-40.6	21.2	0.00e+00	92	28	0	1513095168	50	6855
2026-01-29 14:16:54.87	184.72	4.36	-39.6	-40.8	21.1	0.00e+00	0	28	0	1520435200	52	6273
2026-01-29 14:16:58.91	184.85	4.09	-40.0	-41.2	20.5	0.00e+00	0	28	0	1527775232	52	6610
2026-01-29 14:17:02.95	184.97	3.82	-39.9	-41.2	20.4	0.00e+00	92	28	0	1536163840	52	6546
2026-01-29 14:17:06.99	185.09	3.55	-40.2	-41.5	20.2	0.00e+00	0	28	0	1543503872	52	6840
2026-01-29 14:17:11.02	185.20	3.28	-40.3	-41.7	19.9	0.00e+00	33	28	0	1550843904	52	6965
2026-01-29 14:17:15.06	185.32	3.01	-40.6	-42.1	19.4	0.00e+00	0	29	0	1558183936	52	7291
2026-01-29 14:17:19.10	185.43	2.75	-48.4	-63.6	3.6	1.51e+00	0	29	104	1559232512	60	54615
2026-01-29 14:17:23.14	185.54	2.49	-48.7	-63.9	3.5	1.51e+00	0	29	104	1559232512	60	56791
2026-01-29 14:17:27.18	185.65	2.23	-48.8	-64.0	3.6	1.51e+00	0	29	104	1559232512	60	57062
2026-01-29 14:17:31.22	185.76	1.98	-48.8	-64.0	3.6	1.51e+00	0	28	104	1559232512	60	57061
2026-01-29 14:17:35.26	185.87	1.72	-48.6	-63.9	3.5	1.51e+00	0	29	104	1559232512	60	56634
2026-01-29 14:17:39.30	185.97	1.47	-48.7	-64.0	3.6	1.51e+00	0	29	104	1559232512	60	56991
2026-01-29 14:17:43.34	186.07	1.22	-48.7	-63.9	3.6	1.51e+00	0	29	104	1559232512	60	56727
2026-01-29 14:17:47.38	186.18	0.98	-48.7	-63.9	3.6	1.51e+00	0	29	104	1559232512	60	56751
2026-01-29 14:17:51.42	186.28	0.73	-48.7	-64.0	3.6	1.51e+00	0	28	104	1559232512	60	57179
2026-01-29 14:17:55.46	186.37	0.49	-48.7	-64.0	3.6	1.51e+00	0	29	104	1559232512	60	57160
2026-01-29 14:17:59.50	186.47	0.25	-48.7	-63.9	3.6	1.51e+00	0	29	104	1559232512	60	56767
2026-01-29 14:18:03.54	186.57	0.01	-48.7	-64.0	3.6	1.51e+00	0	29	104	1559232512	60	57102

#Closed at: 2026-01-29 14:18:05
#Recorded file [1559 MB]: D:/lorett/data/35029_260130_020239.dat