passes_logs/2026/01/29/R4.6S_Anadyr/R4.6S_Anadyr__20260129_032038_SUOMI_NPP_rec.log

#Pass ID: 20260129_032038_SUOMI NPP
#Satellite: SUOMI NPP
#Configuration: NPP
#almurnet v.1.7.20251203
#Start time: 2026-01-29 03:20:39

#Version: 2.2.20231116
#Station: R4.6S_Anadyr
#Location: 177.4865 lon 64.73178 lat
#TLE: 1 37849U 11061A   26027.93236865  .00000148  00000+0  91411-4 0  9991
#TLE: 2 37849  98.7823 329.8704 0002085  41.3231 318.8102 14.19530777738546

#Time	Az	El	Level	Level2	SNR	BER	BlckErr	Temp	State	Recorded	gain1	gain2
2026-01-29 03:20:39.38	238.49	0.04	-49.2	-66.9	3.4	3.03e+01	0	30	0	0	60	85013
2026-01-29 03:20:42.41	238.76	0.17	-48.8	-64.0	3.6	1.51e+00	0	31	104	0	60	57169
2026-01-29 03:20:45.44	239.05	0.30	-48.9	-64.0	3.6	1.51e+00	0	31	104	0	60	57587
2026-01-29 03:20:48.47	239.33	0.42	-48.8	-64.1	3.6	1.51e+00	0	31	104	0	60	57652
2026-01-29 03:20:51.50	239.61	0.55	-48.7	-64.0	3.6	1.51e+00	0	31	104	0	60	57392
2026-01-29 03:20:54.53	239.90	0.68	-49.0	-64.2	3.6	1.51e+00	0	31	104	0	60	58530
2026-01-29 03:20:57.56	240.19	0.81	-48.9	-64.1	3.6	1.51e+00	0	31	104	0	60	57697
2026-01-29 03:21:00.59	240.49	0.94	-48.8	-64.0	3.6	1.51e+00	0	31	104	0	60	57232
2026-01-29 03:21:03.62	240.78	1.06	-48.2	-63.3	3.6	1.51e+00	0	32	104	0	60	53019
2026-01-29 03:21:06.65	241.08	1.19	-46.8	-61.9	3.6	1.51e+00	0	32	104	0	60	45172
2026-01-29 03:21:09.68	241.38	1.32	-46.8	-61.9	3.6	1.51e+00	0	32	104	0	60	44954
2026-01-29 03:21:12.71	241.68	1.45	-46.8	-61.9	3.6	1.51e+00	0	32	104	0	60	44928
2026-01-29 03:21:15.74	241.99	1.57	-46.8	-61.9	3.6	1.51e+00	0	32	104	0	60	45188
2026-01-29 03:21:18.77	242.29	1.70	-46.8	-61.9	3.6	1.51e+00	0	32	104	0	60	44839
2026-01-29 03:21:21.80	242.60	1.83	-46.8	-61.9	3.6	1.51e+00	0	32	104	0	60	44798
2026-01-29 03:21:24.83	242.92	1.96	-46.8	-61.9	3.6	1.51e+00	0	32	104	0	60	44757
2026-01-29 03:21:27.86	243.23	2.08	-46.8	-61.6	3.6	1.51e+00	0	32	104	0	60	43645
2026-01-29 03:21:30.89	243.55	2.21	-46.8	-61.5	3.6	1.51e+00	0	32	104	0	60	43165
2026-01-29 03:21:33.92	243.87	2.34	-46.7	-60.9	3.6	1.51e+00	0	32	104	0	60	39937
2026-01-29 03:21:36.95	244.19	2.46	-46.7	-60.8	3.6	1.51e+00	0	32	104	0	60	39716
2026-01-29 03:21:39.98	244.52	2.59	-46.8	-61.5	3.6	1.51e+00	0	32	104	0	60	42762
2026-01-29 03:21:43.01	244.85	2.72	-46.6	-59.4	3.8	1.51e+00	0	32	104	0	60	33816
2026-01-29 03:21:46.04	245.18	2.84	-46.6	-56.7	3.9	1.21e+00	3	32	0	1048576	60	24653
2026-01-29 03:21:49.06	245.51	2.97	-46.6	-58.8	3.7	1.42e+00	0	32	104	4194304	60	31336
2026-01-29 03:21:52.09	245.85	3.09	-45.4	-50.9	8.1	1.50e+00	6	32	104	4194304	60	12632
2026-01-29 03:21:55.12	246.19	3.22	-43.8	-46.9	13.9	1.23e+00	91	32	104	4194304	60	8010
2026-01-29 03:21:58.15	246.53	3.34	-43.4	-46.1	15.2	0.00e+00	91	32	0	8388608	60	7295
2026-01-29 03:22:01.18	246.88	3.47	-42.4	-44.6	16.7	0.00e+00	0	32	0	13631488	58	6861
2026-01-29 03:22:04.21	247.22	3.59	-42.1	-44.1	17.2	0.00e+00	92	32	0	19922944	58	6468
2026-01-29 03:22:07.23	247.57	3.72	-41.6	-43.4	17.9	0.00e+00	92	32	0	25165824	56	6749
2026-01-29 03:22:10.26	247.93	3.84	-41.4	-43.2	18.3	0.00e+00	0	32	0	31457280	56	6549
2026-01-29 03:22:13.29	248.28	3.97	-41.5	-43.2	18.3	0.00e+00	92	32	0	36700160	56	6608
2026-01-29 03:22:16.32	248.64	4.09	-40.6	-42.1	19.5	0.00e+00	38	32	0	42991616	56	5765
2026-01-29 03:22:19.35	249.00	4.21	-40.1	-41.5	19.8	0.00e+00	38	32	0	48234496	54	6039
2026-01-29 03:22:22.38	249.37	4.34	-39.9	-41.2	20.0	0.00e+00	0	32	0	53477376	54	5887
2026-01-29 03:22:25.40	249.74	4.46	-40.2	-41.5	19.9	0.00e+00	92	32	0	59768832	52	6814
2026-01-29 03:22:28.43	250.11	4.58	-40.2	-41.6	19.9	0.00e+00	92	32	0	65011712	52	6900
2026-01-29 03:22:31.45	250.48	4.70	-40.1	-41.4	20.1	0.00e+00	0	32	0	71303168	52	6722
2026-01-29 03:22:34.48	250.86	4.82	-39.7	-41.0	20.5	0.00e+00	92	32	0	76546048	52	6402
2026-01-29 03:22:37.51	251.24	4.94	-39.4	-40.6	20.7	0.00e+00	64	32	0	81788928	52	6136
2026-01-29 03:22:40.54	251.62	5.06	-39.8	-41.1	20.5	0.00e+00	0	32	0	88080384	52	6487
2026-01-29 03:22:43.57	252.00	5.18	-40.1	-41.4	20.2	0.00e+00	0	32	0	93323264	52	6696
2026-01-29 03:22:46.59	252.39	5.30	-40.0	-41.3	20.4	0.00e+00	91	32	0	99614720	52	6679
2026-01-29 03:22:49.62	252.78	5.42	-39.9	-41.1	20.5	0.00e+00	0	32	0	104857600	52	6497
2026-01-29 03:22:52.64	253.18	5.54	-40.0	-41.2	20.5	0.00e+00	0	32	0	111149056	52	6579
2026-01-29 03:22:55.67	253.58	5.65	-39.6	-40.8	20.8	0.00e+00	91	32	0	116391936	52	6259
2026-01-29 03:22:58.70	253.98	5.77	-39.6	-40.8	21.0	0.00e+00	92	32	0	121634816	52	6246
2026-01-29 03:23:01.72	254.38	5.89	-39.9	-41.1	20.6	0.00e+00	0	32	0	127926272	52	6517
2026-01-29 03:23:04.75	254.79	6.00	-39.7	-40.9	20.7	0.00e+00	92	32	0	133169152	52	6364
2026-01-29 03:23:07.78	255.20	6.12	-39.4	-40.6	21.1	0.00e+00	92	32	0	139460608	52	6104
2026-01-29 03:23:10.81	255.61	6.23	-39.5	-40.7	20.9	0.00e+00	0	32	0	144703488	52	6184
2026-01-29 03:23:13.83	256.03	6.34	-39.5	-40.7	21.0	0.00e+00	19	32	0	149946368	52	6206
2026-01-29 03:23:16.86	256.45	6.46	-39.8	-41.0	20.8	0.00e+00	90	32	0	156237824	52	6401
2026-01-29 03:23:19.90	256.87	6.57	-39.8	-41.0	20.8	0.00e+00	59	32	0	161480704	52	6403
2026-01-29 03:23:22.92	257.30	6.68	-39.8	-41.1	20.7	0.00e+00	0	32	0	167772160	52	6467
2026-01-29 03:23:25.95	257.73	6.79	-40.1	-41.4	20.5	0.00e+00	92	32	0	173015040	52	6724
2026-01-29 03:23:28.98	258.16	6.90	-39.9	-41.2	20.6	0.00e+00	92	32	0	178257920	52	6564
2026-01-29 03:23:32.01	258.59	7.01	-39.9	-41.1	20.6	0.00e+00	0	32	0	184549376	52	6514
2026-01-29 03:23:35.03	259.03	7.11	-39.8	-41.0	20.8	0.00e+00	90	32	0	189792256	52	6410
2026-01-29 03:23:38.06	259.47	7.22	-40.2	-41.5	20.4	0.00e+00	58	32	0	196083712	52	6844
2026-01-29 03:23:41.09	259.92	7.32	-40.4	-41.7	20.1	0.00e+00	0	32	0	201326592	52	6963
2026-01-29 03:23:44.12	260.36	7.43	-40.1	-41.4	20.6	0.00e+00	0	32	0	207618048	52	6714
2026-01-29 03:23:47.14	260.81	7.53	-40.1	-41.4	20.6	0.00e+00	87	32	0	212860928	52	6693
2026-01-29 03:23:50.17	261.27	7.63	-39.9	-41.1	20.7	0.00e+00	90	32	0	218103808	52	6523
2026-01-29 03:23:53.20	261.72	7.73	-40.1	-41.3	20.5	0.00e+00	0	32	0	224395264	52	6657
2026-01-29 03:23:56.23	262.18	7.83	-40.2	-41.5	20.4	0.00e+00	92	32	0	229638144	52	6825
2026-01-29 03:23:59.25	262.64	7.93	-40.3	-41.6	20.3	0.00e+00	92	32	0	235929600	52	6874
2026-01-29 03:24:02.28	263.11	8.03	-40.5	-41.8	20.1	0.00e+00	0	32	0	241172480	52	7067
2026-01-29 03:24:05.31	263.58	8.12	-40.3	-41.6	20.3	0.00e+00	90	32	0	246415360	54	6130
2026-01-29 03:24:08.34	264.05	8.22	-40.5	-41.8	20.2	0.00e+00	89	32	0	252706816	54	6295
2026-01-29 03:24:11.36	264.52	8.31	-40.1	-41.3	20.5	0.00e+00	0	32	0	257949696	54	5962
2026-01-29 03:24:14.38	265.00	8.40	-40.2	-41.4	20.5	0.00e+00	0	32	0	264241152	54	6027
2026-01-29 03:24:17.41	265.48	8.49	-39.8	-41.0	20.9	0.00e+00	92	32	0	269484032	54	5733
2026-01-29 03:24:20.44	265.96	8.58	-40.1	-41.3	20.8	0.00e+00	79	32	0	274726912	54	5935
2026-01-29 03:24:23.46	266.45	8.67	-40.2	-41.5	20.5	0.00e+00	0	32	0	281018368	54	6055
2026-01-29 03:24:26.49	266.94	8.76	-40.3	-41.6	20.4	0.00e+00	92	32	0	286261248	54	6134
2026-01-29 03:24:29.52	267.43	8.84	-40.0	-41.2	20.8	0.00e+00	90	32	0	292552704	54	5849
2026-01-29 03:24:32.54	267.92	8.93	-39.4	-40.6	21.3	0.00e+00	0	32	0	297795584	52	6117
2026-01-29 03:24:35.57	268.42	9.01	-39.5	-40.7	21.3	0.00e+00	90	32	0	304087040	52	6183
2026-01-29 03:24:38.60	268.92	9.09	-40.3	-41.5	20.5	0.00e+00	64	32	0	309329920	52	6842
2026-01-29 03:24:41.63	269.42	9.17	-40.1	-41.3	20.7	0.00e+00	0	32	0	314572800	52	6653
2026-01-29 03:24:44.66	269.93	9.24	-40.4	-41.6	20.4	0.00e+00	0	32	0	320864256	52	6920
2026-01-29 03:24:47.68	270.43	9.32	-40.2	-41.4	20.7	0.00e+00	90	32	0	326107136	52	6742
2026-01-29 03:24:50.71	270.94	9.39	-40.0	-41.3	20.8	0.00e+00	92	32	0	332398592	52	6616
2026-01-29 03:24:53.74	271.45	9.46	-39.5	-40.6	21.4	0.00e+00	0	32	0	337641472	52	6118
2026-01-29 03:24:56.77	271.97	9.53	-39.6	-40.7	21.2	0.00e+00	92	32	0	342884352	52	6207
2026-01-29 03:24:59.80	272.49	9.60	-40.5	-41.8	20.4	0.00e+00	92	33	0	349175808	52	7048
2026-01-29 03:25:02.83	273.01	9.67	-41.1	-42.5	19.6	0.00e+00	0	32	0	354418688	54	6831
2026-01-29 03:25:05.86	273.53	9.73	-40.8	-42.1	20.0	0.00e+00	91	32	0	360710144	54	6498
2026-01-29 03:25:08.89	274.05	9.79	-40.0	-41.2	20.9	0.00e+00	91	33	0	365953024	54	5895
2026-01-29 03:25:11.91	274.57	9.85	-39.9	-41.1	20.9	0.00e+00	0	33	0	372244480	52	6511
2026-01-29 03:25:14.94	275.10	9.91	-40.0	-41.2	20.8	0.00e+00	0	32	0	377487360	52	6604
2026-01-29 03:25:17.97	275.63	9.97	-39.7	-40.9	21.1	0.00e+00	92	32	0	382730240	52	6343
2026-01-29 03:25:21.00	276.16	10.02	-39.4	-40.5	21.5	0.00e+00	90	32	0	389021696	52	6069
2026-01-29 03:25:24.03	276.70	10.07	-40.0	-41.2	20.8	0.00e+00	0	33	0	394264576	52	6571
2026-01-29 03:25:27.05	277.23	10.12	-39.9	-41.1	21.0	0.00e+00	91	33	0	400556032	52	6514
2026-01-29 03:25:30.08	277.77	10.17	-39.4	-40.5	21.4	0.00e+00	92	33	0	405798912	52	6037
2026-01-29 03:25:33.11	278.31	10.22	-40.3	-41.6	20.6	0.00e+00	0	33	0	411041792	52	6856
2026-01-29 03:25:36.13	278.85	10.26	-40.3	-41.5	20.6	0.00e+00	92	33	0	417333248	54	6078
2026-01-29 03:25:39.16	279.39	10.30	-39.4	-40.5	21.5	0.00e+00	92	33	0	422576128	52	6044
2026-01-29 03:25:42.19	279.93	10.34	-39.4	-40.6	21.4	0.00e+00	9	33	0	428867584	52	6104
2026-01-29 03:25:45.22	280.48	10.38	-40.1	-41.3	20.8	0.00e+00	0	32	0	434110464	52	6651
2026-01-29 03:25:48.24	281.02	10.41	-40.3	-41.5	20.7	0.00e+00	90	32	0	440401920	52	6791
2026-01-29 03:25:51.27	281.57	10.45	-40.9	-42.3	19.9	0.00e+00	92	33	0	445644800	54	6616
2026-01-29 03:25:54.30	282.11	10.48	-42.0	-43.6	18.7	0.00e+00	0	32	0	450887680	56	6902
2026-01-29 03:25:57.33	282.66	10.50	-42.0	-43.6	18.6	0.00e+00	91	32	0	457179136	56	6918
2026-01-29 03:26:00.36	283.21	10.53	-41.1	-42.5	19.8	0.00e+00	92	32	0	462422016	56	6054
2026-01-29 03:26:03.39	283.77	10.55	-41.0	-42.3	20.0	0.00e+00	0	32	0	468713472	56	5939
2026-01-29 03:26:06.42	284.32	10.58	-41.0	-42.3	19.9	0.00e+00	0	32	0	473956352	56	5945
2026-01-29 03:26:09.44	284.87	10.59	-40.5	-41.7	20.3	0.00e+00	92	32	0	479199232	54	6245
2026-01-29 03:26:12.47	285.42	10.61	-40.5	-41.8	20.4	0.00e+00	57	32	0	485490688	54	6268
2026-01-29 03:26:15.50	285.97	10.63	-40.4	-41.7	20.4	0.00e+00	0	33	0	490733568	54	6197
2026-01-29 03:26:18.53	286.53	10.64	-39.9	-41.1	21.0	0.00e+00	92	32	0	497025024	54	5766
2026-01-29 03:26:21.56	287.08	10.65	-39.8	-40.9	21.1	0.00e+00	91	32	0	502267904	52	6377
2026-01-29 03:26:24.59	287.64	10.65	-40.0	-41.1	21.0	0.00e+00	0	32	0	507510784	52	6527
2026-01-29 03:26:27.62	288.19	10.66	-39.9	-41.1	21.0	0.00e+00	90	32	0	513802240	52	6483
2026-01-29 03:26:30.64	288.75	10.66	-39.5	-40.7	21.3	0.00e+00	92	32	0	519045120	52	6178
2026-01-29 03:26:33.67	289.30	10.66	-39.7	-40.8	21.2	0.00e+00	0	32	0	525336576	52	6297
2026-01-29 03:26:36.69	289.85	10.66	-39.7	-40.8	21.2	0.00e+00	0	33	0	530579456	52	6286
2026-01-29 03:26:39.72	290.41	10.65	-39.4	-40.5	21.6	0.00e+00	92	33	0	536870912	52	6068
2026-01-29 03:26:42.75	290.96	10.65	-39.0	-40.1	21.8	0.00e+00	92	32	0	542113792	52	5798
2026-01-29 03:26:45.78	291.52	10.64	-39.0	-40.0	21.9	0.00e+00	0	33	0	547356672	52	5753
2026-01-29 03:26:48.81	292.07	10.63	-38.4	-39.4	22.4	0.00e+00	90	33	0	553648128	50	5988
2026-01-29 03:26:51.84	292.63	10.61	-38.8	-39.8	22.0	0.00e+00	92	33	0	558891008	50	6283
2026-01-29 03:26:54.87	293.18	10.60	-39.5	-40.6	21.4	0.00e+00	0	33	0	565182464	50	6904
2026-01-29 03:26:57.89	293.73	10.58	-39.0	-40.0	21.8	0.00e+00	92	33	0	570425344	50	6430
2026-01-29 03:27:00.92	294.28	10.56	-39.0	-40.1	21.8	0.00e+00	81	33	0	575668224	50	6477
2026-01-29 03:27:03.95	294.83	10.53	-38.9	-40.0	21.8	0.00e+00	0	33	0	581959680	50	6437
2026-01-29 03:27:06.98	295.38	10.51	-38.9	-39.9	21.9	0.00e+00	0	33	0	587202560	50	6375
2026-01-29 03:27:10.01	295.93	10.48	-38.4	-39.4	22.5	0.00e+00	91	32	0	593494016	50	5996
2026-01-29 03:27:13.04	296.48	10.45	-38.5	-39.5	22.3	0.00e+00	90	32	0	598736896	50	6098
2026-01-29 03:27:16.06	297.02	10.42	-38.6	-39.6	22.2	0.00e+00	0	33	0	605028352	50	6133
2026-01-29 03:27:19.09	297.57	10.38	-38.2	-39.1	22.5	0.00e+00	92	33	0	610271232	50	5825
2026-01-29 03:27:22.12	298.11	10.35	-37.7	-38.6	23.0	0.00e+00	93	33	0	615514112	48	6119
2026-01-29 03:27:25.15	298.65	10.31	-37.7	-38.6	23.0	0.00e+00	0	32	0	621805568	48	6168
2026-01-29 03:27:28.18	299.19	10.27	-38.3	-39.3	22.4	0.00e+00	26	32	0	627048448	48	6676
2026-01-29 03:27:31.20	299.73	10.22	-38.2	-39.2	22.5	0.00e+00	70	32	0	633339904	48	6580
2026-01-29 03:27:34.23	300.27	10.18	-38.1	-39.0	22.6	0.00e+00	0	33	0	638582784	48	6434
2026-01-29 03:27:37.26	300.80	10.13	-38.2	-39.2	22.4	0.00e+00	0	32	0	643825664	48	6569
2026-01-29 03:27:40.29	301.34	10.08	-38.3	-39.3	22.4	0.00e+00	92	33	0	650117120	48	6645
2026-01-29 03:27:43.32	301.87	10.03	-38.2	-39.2	22.6	0.00e+00	90	32	0	655360000	48	6559
2026-01-29 03:27:46.35	302.40	9.97	-38.4	-39.4	22.4	0.00e+00	0	33	0	661651456	48	6725
2026-01-29 03:27:49.37	302.93	9.92	-38.8	-39.8	22.0	0.00e+00	87	33	0	666894336	50	6288
2026-01-29 03:27:52.40	303.45	9.86	-39.2	-40.3	21.6	0.00e+00	55	33	0	673185792	50	6677
2026-01-29 03:27:55.43	303.98	9.80	-38.9	-39.9	21.9	0.00e+00	58	33	0	678428672	50	6385
2026-01-29 03:27:58.45	304.50	9.74	-38.4	-39.4	22.3	0.00e+00	0	33	0	683671552	50	6006
2026-01-29 03:28:01.48	305.02	9.68	-38.1	-39.0	22.5	0.00e+00	56	33	0	689963008	50	5756
2026-01-29 03:28:04.51	305.54	9.61	-37.5	-38.4	23.1	0.00e+00	59	33	0	695205888	48	5983
2026-01-29 03:28:07.54	306.05	9.54	-37.0	-37.9	23.5	0.00e+00	0	33	0	701497344	48	5644
2026-01-29 03:28:10.57	306.57	9.47	-37.2	-38.1	23.2	0.00e+00	92	33	0	706740224	48	5808
2026-01-29 03:28:13.60	307.08	9.40	-37.8	-38.7	22.8	0.00e+00	92	33	0	711983104	48	6211
2026-01-29 03:28:16.63	307.59	9.33	-37.9	-38.9	22.7	0.00e+00	0	33	0	718274560	48	6332
2026-01-29 03:28:19.66	308.09	9.26	-37.8	-38.8	22.9	0.00e+00	0	33	0	723517440	48	6248
2026-01-29 03:28:22.68	308.59	9.18	-37.6	-38.6	22.8	0.00e+00	52	33	0	729808896	48	6116
2026-01-29 03:28:25.71	309.09	9.10	-38.2	-39.2	22.4	0.00e+00	0	33	0	735051776	48	6551
2026-01-29 03:28:28.74	309.59	9.02	-38.6	-39.7	22.0	0.00e+00	0	32	0	740294656	50	6186
2026-01-29 03:28:31.77	310.09	8.94	-37.5	-38.4	22.9	0.00e+00	85	32	0	746586112	48	6020
2026-01-29 03:28:34.80	310.58	8.86	-37.1	-38.0	23.3	0.00e+00	44	32	0	751828992	48	5736
2026-01-29 03:28:37.82	311.07	8.78	-37.4	-38.3	23.1	0.00e+00	0	32	0	758120448	48	5938
2026-01-29 03:28:40.85	311.56	8.69	-37.9	-38.9	22.6	0.00e+00	92	33	0	763363328	48	6341
2026-01-29 03:28:43.88	312.04	8.60	-37.9	-38.9	22.6	0.00e+00	92	32	0	769654784	48	6367
2026-01-29 03:28:46.91	312.52	8.52	-37.9	-38.9	22.6	0.00e+00	0	33	0	774897664	48	6345
2026-01-29 03:28:49.94	313.00	8.43	-38.2	-39.2	22.2	0.00e+00	0	33	0	780140544	48	6594
2026-01-29 03:28:52.97	313.48	8.33	-38.7	-39.8	21.8	0.00e+00	56	33	0	786432000	50	6296
2026-01-29 03:28:56.00	313.95	8.24	-39.4	-40.5	21.3	0.00e+00	25	33	0	791674880	50	6835
2026-01-29 03:28:59.03	314.42	8.15	-39.6	-40.7	21.1	0.00e+00	0	33	0	797966336	50	6984
2026-01-29 03:29:02.06	314.89	8.05	-39.6	-40.8	21.0	0.00e+00	92	33	0	803209216	52	6289
2026-01-29 03:29:05.08	315.35	7.96	-39.8	-41.1	20.9	0.00e+00	56	33	0	808452096	52	6484
2026-01-29 03:29:08.11	315.81	7.86	-40.0	-41.2	20.5	0.00e+00	0	33	0	814743552	52	6589
2026-01-29 03:29:11.14	316.27	7.76	-40.0	-41.2	20.7	0.00e+00	4	33	0	819986432	52	6601
2026-01-29 03:29:14.17	316.73	7.66	-39.8	-41.0	20.8	0.00e+00	2	33	0	826277888	52	6410
2026-01-29 03:29:17.20	317.18	7.56	-40.2	-41.5	20.4	0.00e+00	0	33	0	831520768	52	6808
2026-01-29 03:29:20.22	317.63	7.46	-40.2	-41.5	20.5	0.00e+00	0	32	0	837812224	52	6789
2026-01-29 03:29:23.25	318.07	7.36	-40.2	-41.4	20.4	0.00e+00	61	33	0	843055104	52	6763
2026-01-29 03:29:26.28	318.51	7.25	-41.0	-42.4	19.4	0.00e+00	0	33	0	848297984	54	6745
2026-01-29 03:29:29.31	318.95	7.15	-42.0	-43.7	18.3	0.00e+00	0	33	0	854589440	56	6946
2026-01-29 03:29:32.34	319.39	7.04	-41.8	-43.5	18.5	0.00e+00	75	33	0	859832320	56	6831
2026-01-29 03:29:35.37	319.83	6.93	-41.2	-42.8	19.1	0.00e+00	38	33	0	866123776	56	6252
2026-01-29 03:29:38.40	320.26	6.83	-41.1	-42.6	19.2	0.00e+00	0	33	0	871366656	56	6166
2026-01-29 03:29:41.42	320.68	6.72	-40.7	-42.1	19.7	0.00e+00	92	33	0	876609536	54	6501
2026-01-29 03:29:44.45	321.11	6.61	-41.1	-42.6	19.2	0.00e+00	54	33	0	882900992	54	6868
2026-01-29 03:29:47.48	321.53	6.50	-41.3	-42.9	19.0	0.00e+00	0	32	0	888143872	54	7110
2026-01-29 03:29:50.51	321.95	6.39	-41.8	-43.6	18.2	0.00e+00	0	33	0	894435328	56	6855
2026-01-29 03:29:53.54	322.36	6.27	-41.3	-42.9	18.9	0.00e+00	92	33	0	899678208	56	6355
2026-01-29 03:29:56.57	322.77	6.16	-41.2	-42.7	19.2	0.00e+00	17	33	0	905969664	56	6212
2026-01-29 03:29:59.59	323.18	6.05	-40.7	-42.1	19.6	0.00e+00	0	33	0	911212544	54	6512
2026-01-29 03:30:02.62	323.59	5.93	-41.2	-42.8	18.9	0.00e+00	62	33	0	916455424	54	7020
2026-01-29 03:30:05.65	323.99	5.82	-40.9	-42.3	19.3	0.00e+00	91	33	0	922746880	54	6674
2026-01-29 03:30:08.68	324.39	5.70	-40.9	-42.4	19.3	0.00e+00	0	33	0	927989760	54	6725
2026-01-29 03:30:11.71	324.79	5.59	-40.6	-42.1	19.6	0.00e+00	0	33	0	934281216	54	6477
2026-01-29 03:30:14.73	325.18	5.47	-40.1	-41.5	19.9	0.00e+00	64	33	0	939524096	54	6046
2026-01-29 03:30:17.76	325.57	5.35	-40.6	-42.0	19.8	0.00e+00	0	33	0	944766976	54	6403
2026-01-29 03:30:20.79	325.96	5.24	-40.0	-41.4	20.2	0.00e+00	0	33	0	951058432	54	5965
2026-01-29 03:30:23.82	326.34	5.12	-40.5	-42.0	19.7	0.00e+00	91	33	0	956301312	54	6405
2026-01-29 03:30:26.85	326.73	5.00	-40.5	-41.9	19.5	0.00e+00	53	33	0	962592768	54	6339
2026-01-29 03:30:29.88	327.10	4.88	-40.9	-42.4	19.3	0.00e+00	0	33	0	967835648	54	6702
2026-01-29 03:30:32.91	327.48	4.76	-40.8	-42.2	19.2	0.00e+00	65	33	0	974127104	54	6610
2026-01-29 03:30:35.93	327.85	4.64	-40.7	-42.2	19.2	0.00e+00	64	33	0	979369984	54	6554
2026-01-29 03:30:38.95	328.22	4.52	-40.2	-41.6	19.8	0.00e+00	0	33	0	984612864	54	6146
2026-01-29 03:30:41.98	328.59	4.40	-39.8	-41.2	20.1	0.00e+00	0	33	0	990904320	54	5838
2026-01-29 03:30:45.01	328.95	4.28	-40.0	-41.4	20.2	0.00e+00	90	33	0	996147200	52	6709
2026-01-29 03:30:48.04	329.31	4.16	-40.2	-41.6	19.7	0.00e+00	0	33	0	1002438656	52	6907
2026-01-29 03:30:51.07	329.67	4.03	-39.5	-40.8	20.5	0.00e+00	0	33	0	1007681536	52	6271
2026-01-29 03:30:54.10	330.03	3.91	-39.1	-40.3	20.5	0.00e+00	0	33	0	1012924416	52	5960
2026-01-29 03:30:57.12	330.38	3.79	-39.5	-40.8	20.2	0.00e+00	55	33	0	1019215872	52	6265
2026-01-29 03:31:00.15	330.73	3.66	-40.0	-41.4	19.3	0.00e+00	0	33	0	1024458752	52	6755
2026-01-29 03:31:03.18	331.08	3.54	-40.6	-42.5	17.6	0.00e+00	0	33	0	1030750208	52	7614
2026-01-29 03:31:06.20	331.42	3.42	-42.2	-45.2	14.3	7.00e-07	91	33	0	1035993088	56	8254
2026-01-29 03:31:09.23	331.76	3.29	-42.9	-47.8	10.5	2.28e-03	0	33	0	1041235968	58	9911
2026-01-29 03:31:12.26	332.10	3.17	-43.5	-51.9	5.0	4.12e-01	0	33	0	1047527424	58	15978
2026-01-29 03:31:15.29	332.44	3.05	-43.6	-57.0	3.6	1.50e+00	0	33	104	1049624576	58	28858
2026-01-29 03:31:18.32	332.77	2.92	-48.0	-63.1	3.6	1.51e+00	0	33	104	1049624576	60	51939
2026-01-29 03:31:21.35	333.10	2.80	-48.5	-63.7	3.6	1.51e+00	0	33	104	1049624576	60	55530
2026-01-29 03:31:24.38	333.43	2.67	-48.8	-64.0	3.6	1.51e+00	0	33	104	1049624576	60	57081
2026-01-29 03:31:27.41	333.75	2.55	-48.9	-64.1	3.6	1.51e+00	0	33	104	1049624576	60	57809
2026-01-29 03:31:30.43	334.08	2.42	-48.9	-64.1	3.6	1.51e+00	0	33	104	1049624576	60	57967
2026-01-29 03:31:33.46	334.40	2.30	-48.8	-63.9	3.6	1.51e+00	0	33	104	1049624576	60	56849
2026-01-29 03:31:36.50	334.71	2.17	-48.7	-64.0	3.6	1.51e+00	0	33	104	1049624576	60	57400
2026-01-29 03:31:39.53	335.03	2.04	-48.7	-63.9	3.6	1.51e+00	0	33	104	1049624576	60	56619
2026-01-29 03:31:42.56	335.34	1.92	-48.7	-63.9	3.6	1.51e+00	0	33	104	1049624576	60	56782
2026-01-29 03:31:45.59	335.65	1.79	-48.7	-64.0	3.6	1.51e+00	0	33	104	1049624576	60	56982
2026-01-29 03:31:48.62	335.96	1.67	-48.7	-63.9	3.6	1.51e+00	0	33	104	1049624576	60	56570
2026-01-29 03:31:51.65	336.27	1.54	-48.7	-63.9	3.6	1.51e+00	0	33	104	1049624576	60	56376
2026-01-29 03:31:54.68	336.57	1.41	-48.7	-63.9	3.6	1.51e+00	0	33	104	1049624576	60	56650
2026-01-29 03:31:57.71	336.87	1.29	-48.7	-63.9	3.6	1.51e+00	0	33	104	1049624576	60	56954
2026-01-29 03:32:00.74	337.17	1.16	-48.7	-64.0	3.6	1.51e+00	0	33	104	1049624576	60	57083
2026-01-29 03:32:03.77	337.46	1.04	-48.7	-64.0	3.5	1.51e+00	0	33	104	1049624576	60	57046
2026-01-29 03:32:06.80	337.75	0.91	-48.7	-63.9	3.6	1.51e+00	0	33	104	1049624576	60	56859
2026-01-29 03:32:09.83	338.04	0.78	-48.7	-63.9	3.6	1.51e+00	0	33	104	1049624576	60	56880
2026-01-29 03:32:12.86	338.33	0.66	-48.7	-63.9	3.6	1.51e+00	0	33	104	1049624576	60	56737
2026-01-29 03:32:15.89	338.62	0.53	-48.7	-64.0	3.6	1.51e+00	0	33	104	1049624576	60	57080
2026-01-29 03:32:18.92	338.90	0.40	-48.7	-64.0	3.6	1.51e+00	0	33	104	1049624576	60	57071
2026-01-29 03:32:21.95	339.18	0.28	-48.7	-63.9	3.6	1.51e+00	0	33	104	1049624576	60	56337
2026-01-29 03:32:24.98	339.46	0.15	-48.7	-64.0	3.6	1.51e+00	0	33	104	1049624576	60	56985
2026-01-29 03:32:28.00	339.74	0.03	-48.7	-64.0	3.6	1.51e+00	0	33	104	1049624576	60	57030
2026-01-29 03:32:31.04	340.02	-0.10	-48.7	-63.9	3.6	1.51e+00	0	33	104	1049624576	60	56784

#Closed at: 2026-01-29 03:32:31
#Recorded file [1049 MB]: D:/lorett/data/35029_260129_152039.dat