passes_logs/2026/01/29/R4.6S_Anadyr/R4.6S_Anadyr__20260129_001643_NOAA_20_JPSS-1_rec.log

#Pass ID: 20260129_001643_NOAA 20 (JPSS-1)
#Satellite: NOAA 20 (JPSS-1)
#Configuration: NOAA 20
#almurnet v.1.7.20251203
#Start time: 2026-01-29 00:16:45

#Version: 2.2.20231116
#Station: R4.6S_Anadyr
#Location: 177.4865 lon 64.73178 lat
#TLE: 1 43013U 17073A   26027.94683596  .00000137  00000+0  85741-4 0  9995
#TLE: 2 43013  98.7648 328.7503 0000940  21.3928 338.7287 14.19541154424576

#Time	Az	El	Level	Level2	SNR	BER	BlckErr	Temp	State	Recorded	gain1	gain2
2026-01-29 00:16:45.93	157.67	0.15	-48.7	-63.7	3.5	1.51e+00	0	30	0	0	60	55075
2026-01-29 00:16:49.96	157.70	0.39	-48.8	-64.0	3.6	1.51e+00	0	31	104	0	60	56964
2026-01-29 00:16:54.00	157.72	0.64	-48.8	-64.0	3.6	1.51e+00	0	31	104	0	60	57322
2026-01-29 00:16:58.03	157.74	0.89	-48.8	-63.9	3.6	1.51e+00	0	31	104	0	60	56850
2026-01-29 00:17:02.07	157.76	1.14	-48.2	-63.7	3.6	1.51e+00	0	31	104	0	60	55061
2026-01-29 00:17:06.12	157.78	1.39	-46.7	-62.0	3.6	1.51e+00	0	31	104	0	60	45263
2026-01-29 00:17:10.15	157.80	1.65	-47.2	-62.3	3.6	1.51e+00	0	31	104	0	60	47361
2026-01-29 00:17:14.20	157.83	1.90	-47.2	-62.4	3.6	1.51e+00	0	31	104	0	60	47383
2026-01-29 00:17:18.24	157.85	2.16	-47.2	-62.4	3.6	1.51e+00	0	31	104	0	60	47378
2026-01-29 00:17:22.28	157.87	2.43	-47.2	-62.2	3.6	1.51e+00	0	32	104	0	60	46741
2026-01-29 00:17:26.32	157.89	2.69	-47.1	-61.3	3.6	1.51e+00	0	32	104	0	60	42201
2026-01-29 00:17:30.36	157.92	2.96	-47.1	-61.5	3.6	1.51e+00	0	32	104	0	60	42978
2026-01-29 00:17:34.39	157.94	3.23	-46.8	-55.8	4.7	1.14e+00	92	32	0	1048576	60	22342
2026-01-29 00:17:38.42	157.96	3.50	-44.8	-48.7	12.6	1.72e-04	92	32	0	8388608	60	9859
2026-01-29 00:17:42.46	157.99	3.78	-42.7	-44.9	16.3	0.00e+00	0	32	0	15728640	58	7167
2026-01-29 00:17:46.50	158.01	4.05	-42.8	-45.1	15.6	0.00e+00	90	32	0	23068672	58	7329
2026-01-29 00:17:50.54	158.03	4.33	-43.2	-45.6	15.9	0.00e+00	92	32	0	28311552	60	6877
2026-01-29 00:17:54.58	158.06	4.62	-41.9	-43.7	18.0	0.00e+00	46	32	0	35651584	56	6955
2026-01-29 00:17:58.62	158.08	4.91	-41.7	-43.4	18.3	0.00e+00	91	32	0	42991616	56	6761
2026-01-29 00:18:02.66	158.11	5.20	-41.8	-43.6	18.2	0.00e+00	90	32	0	50331648	56	6858
2026-01-29 00:18:06.70	158.13	5.49	-41.3	-43.0	18.7	0.00e+00	91	32	0	57671680	56	6392
2026-01-29 00:18:10.73	158.16	5.78	-41.5	-43.1	18.6	0.00e+00	0	32	0	66060288	56	6518
2026-01-29 00:18:14.77	158.18	6.08	-41.2	-42.7	19.1	0.00e+00	92	32	0	73400320	56	6218
2026-01-29 00:18:18.81	158.21	6.39	-41.5	-43.1	18.7	0.00e+00	90	32	0	80740352	56	6496
2026-01-29 00:18:22.84	158.23	6.69	-41.0	-42.5	19.4	0.00e+00	92	32	0	88080384	56	6091
2026-01-29 00:18:26.88	158.26	7.01	-41.1	-42.6	19.3	0.00e+00	7	32	0	95420416	56	6120
2026-01-29 00:18:30.91	158.29	7.32	-40.9	-42.4	19.4	0.00e+00	92	32	0	103809024	54	6723
2026-01-29 00:18:34.95	158.31	7.64	-41.0	-42.5	19.4	0.00e+00	92	32	0	111149056	54	6808
2026-01-29 00:18:38.99	158.34	7.96	-40.7	-42.1	19.8	0.00e+00	92	32	0	118489088	54	6526
2026-01-29 00:18:43.03	158.37	8.29	-40.6	-41.9	20.0	0.00e+00	0	32	0	125829120	54	6387
2026-01-29 00:18:47.06	158.40	8.62	-40.5	-41.9	20.1	0.00e+00	92	32	0	134217728	54	6329
2026-01-29 00:18:51.10	158.42	8.95	-40.4	-41.7	20.2	0.00e+00	90	32	0	141557760	54	6184
2026-01-29 00:18:55.14	158.45	9.29	-40.5	-41.8	20.2	0.00e+00	91	32	0	148897792	54	6274
2026-01-29 00:18:59.18	158.48	9.64	-40.4	-41.6	20.4	0.00e+00	7	32	0	156237824	54	6172
2026-01-29 00:19:03.22	158.51	9.99	-40.1	-41.4	20.8	0.00e+00	92	32	0	163577856	54	5967
2026-01-29 00:19:07.25	158.54	10.34	-40.2	-41.4	20.7	0.00e+00	92	32	0	171966464	54	6012
2026-01-29 00:19:11.28	158.57	10.70	-40.0	-41.2	20.8	0.00e+00	90	32	0	179306496	54	5878
2026-01-29 00:19:15.31	158.60	11.06	-39.9	-41.1	21.0	0.00e+00	0	32	0	186646528	54	5807
2026-01-29 00:19:19.35	158.63	11.44	-39.7	-40.9	21.2	0.00e+00	90	32	0	193986560	52	6345
2026-01-29 00:19:23.38	158.66	11.81	-39.8	-41.0	21.1	0.00e+00	92	32	0	201326592	52	6447
2026-01-29 00:19:27.43	158.70	12.19	-39.4	-40.5	21.6	0.00e+00	92	32	0	209715200	52	6050
2026-01-29 00:19:31.46	158.73	12.58	-39.2	-40.3	21.8	0.00e+00	16	32	0	217055232	52	5928
2026-01-29 00:19:35.50	158.76	12.98	-38.9	-40.0	22.1	0.00e+00	90	32	0	224395264	52	5718
2026-01-29 00:19:39.54	158.79	13.38	-38.7	-39.7	22.3	0.00e+00	92	32	0	231735296	50	6223
2026-01-29 00:19:43.58	158.83	13.79	-38.8	-39.8	22.4	0.00e+00	92	32	0	240123904	50	6264
2026-01-29 00:19:47.61	158.86	14.20	-38.7	-39.7	22.5	0.00e+00	27	32	0	247463936	50	6220
2026-01-29 00:19:51.65	158.90	14.62	-38.4	-39.4	22.7	0.00e+00	92	32	0	254803968	50	6008
2026-01-29 00:19:55.69	158.93	15.05	-38.2	-39.2	23.0	0.00e+00	91	32	0	262144000	50	5851
2026-01-29 00:19:59.73	158.97	15.49	-38.2	-39.2	22.9	0.00e+00	92	32	0	269484032	50	5871
2026-01-29 00:20:03.77	159.01	15.93	-38.0	-38.9	23.1	0.00e+00	92	32	0	277872640	50	5681
2026-01-29 00:20:07.80	159.04	16.39	-37.8	-38.7	23.4	0.00e+00	92	32	0	285212672	50	5521
2026-01-29 00:20:11.84	159.08	16.85	-37.7	-38.6	23.5	0.00e+00	92	32	0	292552704	48	6127
2026-01-29 00:20:15.88	159.12	17.32	-37.6	-38.5	23.7	0.00e+00	28	32	0	299892736	48	6049
2026-01-29 00:20:19.92	159.16	17.80	-37.4	-38.3	23.7	0.00e+00	92	32	0	308281344	48	5940
2026-01-29 00:20:23.95	159.20	18.29	-37.4	-38.3	23.8	0.00e+00	90	32	0	315621376	48	5932
2026-01-29 00:20:27.99	159.25	18.79	-37.3	-38.1	23.9	0.00e+00	92	32	0	322961408	48	5826
2026-01-29 00:20:32.03	159.29	19.30	-37.2	-38.1	24.0	0.00e+00	76	32	0	330301440	48	5771
2026-01-29 00:20:36.07	159.33	19.82	-37.0	-37.9	24.2	0.00e+00	92	32	0	337641472	48	5652
2026-01-29 00:20:40.11	159.38	20.35	-37.0	-37.8	24.2	0.00e+00	92	32	0	346030080	48	5614
2026-01-29 00:20:44.15	159.42	20.89	-37.0	-37.8	24.2	0.00e+00	92	32	0	353370112	48	5617
2026-01-29 00:20:48.19	159.47	21.45	-36.9	-37.7	24.3	0.00e+00	30	32	0	360710144	48	5563
2026-01-29 00:20:52.22	159.52	22.01	-37.0	-37.8	24.3	0.00e+00	92	32	0	368050176	48	5624
2026-01-29 00:20:56.26	159.57	22.60	-37.0	-37.8	24.3	0.00e+00	92	32	0	376438784	48	5615
2026-01-29 00:21:00.29	159.62	23.19	-37.1	-37.9	24.3	0.00e+00	92	32	0	383778816	48	5663
2026-01-29 00:21:04.33	159.67	23.80	-37.2	-38.0	24.1	0.00e+00	0	32	0	391118848	48	5732
2026-01-29 00:21:08.37	159.73	24.42	-37.1	-37.9	24.2	0.00e+00	92	32	0	398458880	48	5687
2026-01-29 00:21:12.41	159.78	25.06	-37.3	-38.1	24.1	0.00e+00	91	32	0	405798912	48	5823
2026-01-29 00:21:16.44	159.84	25.71	-37.4	-38.3	24.0	0.00e+00	92	32	0	414187520	48	5902
2026-01-29 00:21:20.48	159.90	26.38	-37.7	-38.6	23.8	0.00e+00	30	32	0	421527552	48	6120
2026-01-29 00:21:24.52	159.96	27.07	-38.1	-39.0	23.4	0.00e+00	92	32	0	428867584	48	6436
2026-01-29 00:21:28.55	160.02	27.77	-38.7	-39.7	22.8	0.00e+00	90	32	0	436207616	48	6996
2026-01-29 00:21:32.59	160.09	28.49	-39.4	-40.5	22.1	0.00e+00	70	32	0	444596224	50	6784
2026-01-29 00:21:36.63	160.16	29.24	-40.0	-41.1	21.4	0.00e+00	42	32	0	451936256	52	6539
2026-01-29 00:21:40.66	160.23	30.00	-40.2	-41.4	21.2	0.00e+00	90	32	0	459276288	52	6741
2026-01-29 00:21:44.71	160.30	30.78	-40.4	-41.5	21.2	0.00e+00	90	32	0	466616320	52	6847
2026-01-29 00:21:48.74	160.38	31.58	-40.6	-41.8	21.0	0.00e+00	57	32	0	473956352	52	7039
2026-01-29 00:21:52.78	160.46	32.41	-40.5	-41.7	21.1	0.00e+00	91	32	0	482344960	52	6956
2026-01-29 00:21:56.82	160.54	33.26	-40.0	-41.1	21.6	0.00e+00	91	32	0	489684992	52	6483
2026-01-29 00:22:00.86	160.63	34.14	-38.7	-39.6	22.9	0.00e+00	92	32	0	497025024	50	6162
2026-01-29 00:22:04.90	160.72	35.04	-37.7	-38.5	23.9	0.00e+00	56	32	0	504365056	48	6093
2026-01-29 00:22:08.93	160.81	35.96	-37.5	-38.3	24.0	0.00e+00	91	32	0	512753664	48	5947
2026-01-29 00:22:12.98	160.91	36.92	-36.7	-37.6	24.7	0.00e+00	91	32	0	520093696	46	6117
2026-01-29 00:22:17.01	161.02	37.90	-36.1	-36.9	25.3	0.00e+00	92	32	0	527433728	46	5641
2026-01-29 00:22:21.05	161.13	38.91	-36.1	-36.8	25.3	0.00e+00	0	32	0	534773760	46	5615
2026-01-29 00:22:25.08	161.24	39.95	-36.1	-36.9	25.3	0.00e+00	92	32	0	542113792	46	5637
2026-01-29 00:22:29.12	161.37	41.03	-35.5	-36.2	25.8	0.00e+00	92	32	0	550502400	44	5887
2026-01-29 00:22:33.16	161.50	42.14	-37.0	-37.9	24.4	0.00e+00	92	32	0	557842432	46	6338
2026-01-29 00:22:37.19	161.64	43.28	-37.1	-37.9	24.6	0.00e+00	0	32	0	565182464	46	6343
2026-01-29 00:22:41.24	161.79	44.46	-37.5	-38.4	24.0	0.00e+00	92	32	0	572522496	46	6694
2026-01-29 00:22:45.28	161.95	45.67	-39.0	-40.0	22.6	0.00e+00	92	32	0	579862528	50	6420
2026-01-29 00:22:49.32	162.12	46.92	-39.4	-40.4	22.2	0.00e+00	91	32	0	588251136	50	6742
2026-01-29 00:22:53.36	162.30	48.21	-39.6	-40.7	21.9	0.00e+00	51	32	0	595591168	50	6978
2026-01-29 00:22:57.39	162.50	49.53	-40.5	-41.7	21.2	0.00e+00	90	32	0	602931200	52	6971
2026-01-29 00:23:01.43	162.72	50.90	-38.4	-39.3	23.2	0.00e+00	92	32	0	610271232	50	5947
2026-01-29 00:23:05.47	162.96	52.31	-36.5	-37.3	24.8	0.00e+00	92	32	0	618659840	46	5940
2026-01-29 00:23:09.51	163.22	53.76	-35.3	-36.0	25.9	0.00e+00	92	32	0	625999872	44	5751
2026-01-29 00:23:13.55	163.50	55.25	-35.8	-36.6	25.4	0.00e+00	92	32	0	633339904	44	6126
2026-01-29 00:23:17.58	163.81	56.78	-36.6	-37.5	24.8	0.00e+00	90	32	0	640679936	44	6770
2026-01-29 00:23:21.62	164.17	58.35	-38.5	-39.4	23.0	0.00e+00	92	32	0	649068544	48	6761
2026-01-29 00:23:25.66	164.56	59.97	-36.8	-37.6	24.6	0.00e+00	92	32	0	656408576	48	5478
2026-01-29 00:23:29.70	165.00	61.62	-34.8	-35.5	26.2	0.00e+00	90	32	0	663748608	44	5399
2026-01-29 00:23:33.74	165.51	63.32	-34.3	-35.0	26.7	0.00e+00	92	32	0	671088640	42	5723
2026-01-29 00:23:37.78	166.10	65.06	-37.3	-38.1	24.3	0.00e+00	22	32	0	678428672	46	6509
2026-01-29 00:23:41.81	166.78	66.83	-37.9	-38.8	23.6	0.00e+00	92	32	0	686817280	48	6285
2026-01-29 00:23:45.85	167.58	68.64	-38.6	-39.5	23.0	0.00e+00	92	32	0	694157312	50	6102
2026-01-29 00:23:49.88	168.54	70.48	-37.3	-38.1	24.2	0.00e+00	92	32	0	701497344	48	5799
2026-01-29 00:23:53.92	169.72	72.35	-38.4	-39.3	23.2	0.00e+00	55	32	0	708837376	48	6690
2026-01-29 00:23:57.96	171.19	74.24	-39.4	-40.5	22.3	0.00e+00	91	32	0	717225984	50	6793
2026-01-29 00:24:01.99	173.08	76.15	-39.0	-40.0	22.6	0.00e+00	91	32	0	724566016	50	6413
2026-01-29 00:24:06.03	175.60	78.07	-38.0	-38.9	23.5	0.00e+00	92	32	0	731906048	48	6351
2026-01-29 00:24:10.06	179.08	79.97	-36.3	-37.1	25.1	0.00e+00	2	32	0	739246080	46	5798
2026-01-29 00:24:14.10	184.23	81.84	-40.5	-41.7	20.9	0.00e+00	92	32	0	746586112	52	7001
2026-01-29 00:24:18.14	192.37	83.63	-38.8	-39.8	22.9	0.00e+00	92	32	0	754974720	52	5605
2026-01-29 00:24:22.18	206.33	85.20	-36.4	-37.2	24.9	0.00e+00	92	32	0	762314752	46	5886
2026-01-29 00:24:26.21	230.54	86.25	-37.9	-38.8	23.4	0.00e+00	0	32	0	769654784	48	6298
2026-01-29 00:24:30.24	262.93	86.32	-37.9	-38.8	23.6	0.00e+00	92	32	0	776994816	50	5584
2026-01-29 00:24:34.28	288.55	85.35	-37.5	-38.4	24.0	0.00e+00	91	32	0	784334848	48	5973
2026-01-29 00:24:38.32	303.43	83.82	-38.3	-39.3	23.2	0.00e+00	53	32	0	792723456	48	6628
2026-01-29 00:24:42.36	312.05	82.05	-41.0	-42.3	20.7	0.00e+00	92	32	0	800063488	56	5904
2026-01-29 00:24:46.39	317.43	80.19	-38.2	-39.1	23.3	0.00e+00	92	32	0	807403520	50	5799
2026-01-29 00:24:50.42	321.06	78.29	-39.2	-40.2	22.3	0.00e+00	92	32	0	814743552	50	6604
2026-01-29 00:24:54.46	323.67	76.38	-42.9	-44.8	17.9	0.00e+00	0	32	0	823132160	58	7052
2026-01-29 00:24:58.49	325.62	74.47	-41.5	-42.9	19.8	0.00e+00	90	32	0	830472192	56	6326
2026-01-29 00:25:02.53	327.13	72.58	-38.2	-39.1	23.2	0.00e+00	92	32	0	837812224	50	5795
2026-01-29 00:25:06.56	328.34	70.71	-37.1	-38.0	24.1	0.00e+00	92	32	0	845152256	48	5711
2026-01-29 00:25:10.59	329.32	68.88	-37.5	-38.3	23.9	0.00e+00	14	32	0	852492288	48	5918
2026-01-29 00:25:14.63	330.14	67.07	-41.3	-42.7	19.9	0.00e+00	92	32	0	860880896	56	6174
2026-01-29 00:25:18.67	330.83	65.29	-40.6	-41.8	20.7	0.00e+00	91	32	0	868220928	54	6286
2026-01-29 00:25:22.71	331.43	63.55	-35.9	-36.6	25.5	0.00e+00	91	32	0	875560960	46	5487
2026-01-29 00:25:26.75	331.95	61.86	-35.0	-35.8	26.2	0.00e+00	61	32	0	882900992	44	5568
2026-01-29 00:25:30.78	332.40	60.20	-38.7	-39.7	22.8	0.00e+00	92	32	0	890241024	48	6976
2026-01-29 00:25:34.82	332.80	58.58	-40.0	-41.2	21.6	0.00e+00	92	32	0	898629632	52	6546
2026-01-29 00:25:38.86	333.15	57.01	-40.4	-41.6	21.4	0.00e+00	75	32	0	905969664	52	6873
2026-01-29 00:25:42.89	333.47	55.48	-37.2	-38.0	24.3	0.00e+00	47	32	0	913309696	48	5737
2026-01-29 00:25:46.93	333.76	53.99	-37.7	-38.6	23.8	0.00e+00	92	32	0	920649728	46	6926
2026-01-29 00:25:50.97	334.02	52.54	-36.2	-37.0	25.2	0.00e+00	92	32	0	929038336	46	5718
2026-01-29 00:25:55.00	334.26	51.13	-41.8	-43.4	19.4	0.00e+00	0	32	0	936378368	56	6714
2026-01-29 00:25:59.04	334.48	49.77	-41.2	-42.5	20.3	0.00e+00	7	32	0	943718400	56	6102
2026-01-29 00:26:03.08	334.68	48.44	-46.0	-50.0	12.4	1.50e-06	92	32	0	951058432	60	11493
2026-01-29 00:26:07.12	334.87	47.15	-39.4	-40.5	22.4	0.00e+00	91	32	0	958398464	52	6061
2026-01-29 00:26:11.15	335.04	45.90	-39.2	-40.3	22.3	0.00e+00	0	32	0	966787072	52	5927
2026-01-29 00:26:15.19	335.21	44.69	-39.3	-40.4	22.3	0.00e+00	0	32	0	974127104	52	6005
2026-01-29 00:26:19.22	335.36	43.51	-35.7	-36.4	25.6	0.00e+00	92	32	0	981467136	46	5365
2026-01-29 00:26:23.26	335.50	42.37	-37.7	-38.6	23.7	0.00e+00	91	32	0	988807168	46	6920
2026-01-29 00:26:27.30	335.63	41.26	-38.9	-39.9	22.7	0.00e+00	0	32	0	997195776	52	5695
2026-01-29 00:26:31.34	335.76	40.19	-36.7	-37.4	24.8	0.00e+00	92	32	0	1004535808	46	6030
2026-01-29 00:26:35.38	335.88	39.14	-39.3	-40.3	22.1	0.00e+00	91	32	0	1011875840	50	6670
2026-01-29 00:26:39.41	335.99	38.13	-42.5	-44.3	18.6	0.00e+00	92	32	0	1019215872	56	7461
2026-01-29 00:26:43.44	336.10	37.15	-39.8	-40.9	21.7	0.00e+00	5	32	0	1026555904	54	5668
2026-01-29 00:26:47.48	336.20	36.20	-39.0	-40.0	22.6	0.00e+00	91	32	0	1034944512	52	5696
2026-01-29 00:26:51.51	336.30	35.27	-39.7	-40.8	21.8	0.00e+00	91	32	0	1042284544	52	6314
2026-01-29 00:26:55.55	336.39	34.37	-43.3	-45.3	17.5	0.00e+00	56	32	0	1049624576	58	7493
2026-01-29 00:26:59.58	336.48	33.50	-43.6	-45.8	17.1	0.00e+00	55	32	0	1056964608	60	7034
2026-01-29 00:27:03.62	336.56	32.64	-41.6	-43.1	19.8	0.00e+00	92	32	0	1064304640	56	6494
2026-01-29 00:27:07.65	336.64	31.82	-40.5	-41.8	20.9	0.00e+00	91	32	0	1072693248	54	6274
2026-01-29 00:27:11.69	336.72	31.01	-41.0	-42.3	20.3	0.00e+00	0	32	0	1080033280	54	6676
2026-01-29 00:27:15.73	336.80	30.23	-40.8	-42.1	20.5	0.00e+00	0	32	0	1087373312	54	6489
2026-01-29 00:27:19.77	336.87	29.47	-40.7	-42.0	20.8	0.00e+00	90	32	0	1094713344	54	6400
2026-01-29 00:27:23.81	336.94	28.72	-39.9	-41.0	21.6	0.00e+00	92	32	0	1103101952	54	5756
2026-01-29 00:27:27.85	337.01	28.00	-39.0	-40.1	22.5	0.00e+00	0	32	0	1110441984	52	5768
2026-01-29 00:27:31.89	337.07	27.29	-37.9	-38.7	23.6	0.00e+00	0	32	0	1117782016	50	5563
2026-01-29 00:27:35.93	337.13	26.61	-37.7	-38.6	23.7	0.00e+00	92	32	0	1125122048	50	5478
2026-01-29 00:27:39.97	337.20	25.94	-37.7	-38.6	23.7	0.00e+00	89	32	0	1132462080	48	6169
2026-01-29 00:27:44.01	337.26	25.28	-37.8	-38.7	23.6	0.00e+00	27	32	0	1140850688	48	6208
2026-01-29 00:27:48.05	337.31	24.64	-37.3	-38.2	23.9	0.00e+00	0	32	0	1148190720	48	5872
2026-01-29 00:27:52.09	337.37	24.02	-36.8	-37.6	24.6	0.00e+00	92	32	0	1155530752	48	5498
2026-01-29 00:27:56.11	337.42	23.42	-36.5	-37.3	24.8	0.00e+00	49	32	0	1162870784	46	5963
2026-01-29 00:28:00.14	337.48	22.82	-36.4	-37.2	24.9	0.00e+00	55	32	0	1171259392	46	5859
2026-01-29 00:28:04.18	337.53	22.24	-36.5	-37.3	24.8	0.00e+00	30	32	0	1178599424	46	5932
2026-01-29 00:28:08.22	337.58	21.67	-36.6	-37.4	24.7	0.00e+00	91	32	0	1185939456	46	6015
2026-01-29 00:28:12.25	337.63	21.12	-36.7	-37.5	24.5	0.00e+00	0	32	0	1193279488	46	6074
2026-01-29 00:28:16.29	337.68	20.58	-37.0	-37.8	24.3	0.00e+00	0	32	0	1200619520	46	6299
2026-01-29 00:28:20.33	337.72	20.04	-36.8	-37.6	24.4	0.00e+00	26	32	0	1209008128	46	6147
2026-01-29 00:28:24.36	337.77	19.53	-36.9	-37.7	24.3	0.00e+00	33	32	0	1216348160	46	6223
2026-01-29 00:28:28.40	337.82	19.02	-37.0	-37.8	24.2	0.00e+00	5	32	0	1223688192	46	6303
2026-01-29 00:28:32.44	337.86	18.52	-37.2	-38.1	23.9	0.00e+00	0	32	0	1231028224	46	6502
2026-01-29 00:28:36.48	337.90	18.03	-37.7	-38.7	23.5	0.00e+00	92	32	0	1239416832	46	6942
2026-01-29 00:28:40.51	337.95	17.55	-37.5	-38.5	23.6	0.00e+00	0	32	0	1246756864	46	6791
2026-01-29 00:28:44.55	337.99	17.08	-37.6	-38.5	23.6	0.00e+00	36	32	0	1254096896	46	6821
2026-01-29 00:28:48.58	338.03	16.61	-37.5	-38.5	23.6	0.00e+00	35	32	0	1261436928	48	6036
2026-01-29 00:28:52.62	338.07	16.16	-37.6	-38.6	23.5	0.00e+00	92	32	0	1268776960	48	6115
2026-01-29 00:28:56.66	338.11	15.72	-37.4	-38.3	23.7	0.00e+00	6	32	0	1277165568	48	5921
2026-01-29 00:29:00.70	338.15	15.28	-37.5	-38.4	23.6	0.00e+00	0	32	0	1284505600	48	5996
2026-01-29 00:29:04.74	338.19	14.85	-37.4	-38.3	23.7	0.00e+00	30	32	0	1291845632	48	5917
2026-01-29 00:29:08.78	338.22	14.43	-37.4	-38.4	23.7	0.00e+00	92	32	0	1299185664	48	5988
2026-01-29 00:29:12.82	338.26	14.01	-37.5	-38.4	23.6	0.00e+00	30	32	0	1307574272	48	6020
2026-01-29 00:29:16.85	338.30	13.60	-37.5	-38.5	23.5	0.00e+00	0	32	0	1314914304	48	6044
2026-01-29 00:29:20.89	338.33	13.20	-37.7	-38.6	23.5	0.00e+00	0	32	0	1322254336	48	6173
2026-01-29 00:29:24.93	338.37	12.81	-37.6	-38.6	23.3	0.00e+00	92	32	0	1329594368	48	6148
2026-01-29 00:29:28.96	338.41	12.42	-37.8	-38.8	23.2	0.00e+00	49	32	0	1336934400	48	6311
2026-01-29 00:29:33.01	338.44	12.04	-37.9	-39.0	23.1	0.00e+00	0	32	0	1345323008	48	6420
2026-01-29 00:29:37.05	338.47	11.66	-38.0	-39.1	22.9	0.00e+00	0	32	0	1352663040	48	6488
2026-01-29 00:29:41.08	338.51	11.29	-38.1	-39.2	22.7	0.00e+00	92	32	0	1360003072	48	6608
2026-01-29 00:29:45.12	338.54	10.93	-38.2	-39.3	22.6	0.00e+00	0	32	0	1367343104	48	6660
2026-01-29 00:29:49.16	338.57	10.57	-38.7	-39.9	22.1	0.00e+00	32	32	0	1375731712	48	7155
2026-01-29 00:29:53.20	338.61	10.21	-39.9	-41.3	20.9	0.00e+00	89	32	0	1383071744	50	7431
2026-01-29 00:29:57.24	338.64	9.86	-40.1	-41.5	20.6	0.00e+00	92	32	0	1390411776	52	6796
2026-01-29 00:30:01.27	338.67	9.52	-39.2	-40.4	21.4	0.00e+00	2	32	0	1397751808	52	6018
2026-01-29 00:30:05.31	338.70	9.18	-38.5	-39.6	22.2	0.00e+00	48	32	0	1405091840	50	6140
2026-01-29 00:30:09.34	338.74	8.84	-38.8	-39.9	22.0	0.00e+00	92	32	0	1413480448	50	6389
2026-01-29 00:30:13.38	338.77	8.51	-38.7	-39.8	22.1	0.00e+00	34	32	0	1420820480	50	6290
2026-01-29 00:30:17.42	338.80	8.19	-38.5	-39.6	22.2	0.00e+00	6	32	0	1428160512	50	6113
2026-01-29 00:30:21.45	338.83	7.87	-38.7	-39.9	21.8	0.00e+00	6	32	0	1435500544	50	6328
2026-01-29 00:30:25.49	338.86	7.55	-38.9	-40.1	21.7	0.00e+00	90	32	0	1443889152	50	6497
2026-01-29 00:30:29.52	338.89	7.23	-38.8	-40.0	21.7	0.00e+00	0	32	0	1451229184	50	6393
2026-01-29 00:30:33.56	338.92	6.92	-39.2	-40.5	21.2	0.00e+00	5	32	0	1458569216	50	6776
2026-01-29 00:30:37.60	338.95	6.62	-38.9	-40.0	21.4	0.00e+00	43	32	0	1465909248	50	6454
2026-01-29 00:30:41.64	338.98	6.31	-38.9	-40.0	21.7	0.00e+00	90	32	0	1473249280	50	6464
2026-01-29 00:30:45.68	339.00	6.01	-39.1	-40.3	21.0	0.00e+00	0	32	0	1481637888	50	6692
2026-01-29 00:30:49.72	339.03	5.72	-39.3	-40.5	20.8	0.00e+00	46	32	0	1488977920	50	6813
2026-01-29 00:30:53.75	339.06	5.42	-39.5	-40.8	20.1	0.00e+00	36	32	0	1496317952	52	6299
2026-01-29 00:30:57.79	339.09	5.13	-40.7	-42.6	17.6	0.00e+00	92	32	0	1503657984	54	6918
2026-01-29 00:31:01.83	339.12	4.85	-41.9	-44.6	15.1	0.00e+00	36	32	0	1510998016	56	7765
2026-01-29 00:31:05.87	339.15	4.56	-43.1	-47.7	10.8	1.40e-03	0	32	0	1519386624	58	9875
2026-01-29 00:31:09.91	339.17	4.28	-43.7	-51.2	6.1	1.25e-01	0	32	0	1526726656	58	14805
2026-01-29 00:31:13.94	339.20	4.01	-43.9	-54.0	3.9	1.14e+00	41	32	0	1534066688	60	18151
2026-01-29 00:31:17.98	339.23	3.73	-43.8	-57.7	3.6	1.51e+00	0	32	104	1534066688	60	27636
2026-01-29 00:31:22.02	339.26	3.46	-43.8	-58.6	3.6	1.51e+00	0	32	104	1534066688	60	30806
2026-01-29 00:31:26.06	339.28	3.19	-43.7	-58.7	3.6	1.51e+00	0	32	104	1534066688	60	31162
2026-01-29 00:31:30.10	339.31	2.92	-47.8	-63.0	3.6	1.51e+00	0	32	104	1534066688	60	51107
2026-01-29 00:31:34.14	339.34	2.66	-48.5	-63.7	3.6	1.51e+00	0	32	104	1534066688	60	55209
2026-01-29 00:31:38.17	339.36	2.40	-48.7	-63.9	3.6	1.51e+00	0	32	104	1534066688	60	56475
2026-01-29 00:31:42.21	339.39	2.14	-48.6	-63.9	3.6	1.51e+00	0	32	104	1534066688	60	56705
2026-01-29 00:31:46.24	339.42	1.88	-48.6	-63.8	3.6	1.51e+00	0	32	104	1534066688	60	55959
2026-01-29 00:31:50.28	339.44	1.62	-48.7	-63.9	3.6	1.51e+00	0	32	104	1534066688	60	56331
2026-01-29 00:31:54.33	339.47	1.37	-48.6	-63.8	3.6	1.51e+00	0	32	104	1534066688	60	56009
2026-01-29 00:31:58.37	339.50	1.12	-48.6	-63.8	3.6	1.51e+00	0	32	104	1534066688	60	56136
2026-01-29 00:32:02.41	339.52	0.87	-48.6	-63.9	3.6	1.51e+00	0	32	104	1534066688	60	56509
2026-01-29 00:32:06.45	339.55	0.63	-48.7	-63.9	3.6	1.51e+00	0	32	104	1534066688	60	56398
2026-01-29 00:32:10.49	339.57	0.38	-48.6	-63.8	3.6	1.51e+00	0	32	104	1534066688	60	55975
2026-01-29 00:32:14.53	339.60	0.14	-48.7	-63.9	3.6	1.51e+00	0	32	104	1534066688	60	56497

#Closed at: 2026-01-29 00:32:18
#Recorded file [1534 MB]: D:/lorett/data/35029_260129_121645.dat