passes_logs/2026/01/29/R4.6S_Anadyr/R4.6S_Anadyr__20260129_184208_SUOMI_NPP_rec.log

#Pass ID: 20260129_184208_SUOMI NPP
#Satellite: SUOMI NPP
#Configuration: NPP
#almurnet v.1.7.20251203
#Start time: 2026-01-29 18:42:10

#Version: 2.2.20231116
#Station: R4.6S_Anadyr
#Location: 177.4865 lon 64.73178 lat
#TLE: 1 37849U 11061A   26028.91916408  .00000155  00000+0  94467-4 0  9990
#TLE: 2 37849  98.7824 330.8488 0002045  39.4457 320.6868 14.19531289738686

#Time	Az	El	Level	Level2	SNR	BER	BlckErr	Temp	State	Recorded	gain1	gain2
2026-01-29 18:42:10.55	42.67	0.08	-48.8	-60.5	3.5	8.45e-01	0	29	0	0	60	38227
2026-01-29 18:42:13.58	42.45	0.23	-49.0	-64.2	3.6	1.51e+00	0	30	104	0	60	58625
2026-01-29 18:42:16.61	42.22	0.38	-48.9	-64.2	3.6	1.51e+00	0	30	104	0	60	58749
2026-01-29 18:42:19.64	42.00	0.53	-49.0	-64.2	3.6	1.51e+00	0	30	104	0	60	58792
2026-01-29 18:42:22.67	41.77	0.68	-49.0	-64.2	3.6	1.51e+00	0	30	104	0	60	58918
2026-01-29 18:42:25.70	41.54	0.83	-48.9	-64.2	3.6	1.51e+00	0	30	104	0	60	58377
2026-01-29 18:42:28.73	41.31	0.99	-48.8	-64.0	3.6	1.51e+00	0	30	104	0	60	57198
2026-01-29 18:42:31.76	41.08	1.14	-48.6	-63.8	3.6	1.51e+00	0	30	104	0	60	56139
2026-01-29 18:42:34.80	40.84	1.29	-48.1	-63.2	3.6	1.51e+00	0	30	104	0	60	52230
2026-01-29 18:42:37.82	40.60	1.44	-47.4	-62.6	3.6	1.51e+00	0	30	104	0	60	48531
2026-01-29 18:42:40.85	40.36	1.60	-47.4	-62.6	3.6	1.51e+00	0	30	104	0	60	48902
2026-01-29 18:42:43.88	40.11	1.75	-47.4	-62.5	3.6	1.51e+00	0	31	104	0	60	48395
2026-01-29 18:42:46.91	39.87	1.90	-47.4	-62.6	3.6	1.51e+00	0	31	104	0	60	48608
2026-01-29 18:42:49.94	39.62	2.06	-47.4	-62.5	3.6	1.51e+00	0	31	104	0	60	48063
2026-01-29 18:42:52.97	39.36	2.21	-47.4	-62.5	3.6	1.51e+00	0	31	104	0	60	48415
2026-01-29 18:42:56.00	39.11	2.37	-47.4	-62.5	3.6	1.51e+00	0	31	104	0	60	48337
2026-01-29 18:42:59.03	38.85	2.52	-47.4	-62.5	3.6	1.51e+00	0	31	104	0	60	48456
2026-01-29 18:43:02.06	38.59	2.68	-47.4	-61.8	3.6	1.51e+00	0	31	104	0	60	44439
2026-01-29 18:43:05.09	38.32	2.83	-47.3	-60.7	3.6	1.51e+00	0	31	104	0	60	39363
2026-01-29 18:43:08.12	38.06	2.99	-45.3	-49.4	12.0	3.96e-03	0	31	0	3145728	60	10677
2026-01-29 18:43:11.15	37.79	3.14	-46.2	-52.0	10.6	1.06e+00	91	31	104	6291456	60	14389
2026-01-29 18:43:14.18	37.51	3.30	-44.1	-47.2	14.2	9.08e-01	0	31	104	6291456	60	8279
2026-01-29 18:43:17.21	37.24	3.46	-43.1	-45.4	16.2	0.00e+00	0	31	0	10485760	60	6730
2026-01-29 18:43:20.24	36.96	3.61	-41.9	-43.7	17.8	0.00e+00	92	31	0	16777216	58	6225
2026-01-29 18:43:23.27	36.68	3.77	-41.9	-43.6	18.1	0.00e+00	56	31	0	22020096	56	6897
2026-01-29 18:43:26.30	36.39	3.93	-41.8	-43.5	18.1	0.00e+00	0	31	0	27262976	56	6830
2026-01-29 18:43:29.33	36.10	4.09	-41.7	-43.4	18.3	0.00e+00	92	31	0	33554432	56	6730
2026-01-29 18:43:32.36	35.81	4.24	-41.5	-43.2	18.6	0.00e+00	75	31	0	38797312	56	6552
2026-01-29 18:43:35.38	35.52	4.40	-42.2	-44.0	17.5	0.00e+00	0	31	0	45088768	56	7246
2026-01-29 18:43:38.41	35.22	4.56	-42.0	-43.8	18.1	0.00e+00	0	31	0	50331648	56	7028
2026-01-29 18:43:41.44	34.92	4.72	-42.1	-44.0	17.9	0.00e+00	92	31	0	55574528	56	7192
2026-01-29 18:43:44.47	34.61	4.88	-41.9	-43.7	18.2	0.00e+00	0	31	0	61865984	56	6966
2026-01-29 18:43:47.50	34.30	5.04	-42.1	-43.9	18.1	0.00e+00	0	31	0	67108864	56	7097
2026-01-29 18:43:50.53	33.99	5.19	-41.8	-43.5	18.3	0.00e+00	90	31	0	73400320	56	6819
2026-01-29 18:43:53.56	33.68	5.35	-41.7	-43.4	18.6	0.00e+00	90	31	0	78643200	56	6722
2026-01-29 18:43:56.60	33.36	5.51	-41.6	-43.3	18.8	0.00e+00	0	31	0	84934656	56	6619
2026-01-29 18:43:59.62	33.03	5.67	-41.9	-43.7	18.3	0.00e+00	61	31	0	90177536	56	6991
2026-01-29 18:44:02.65	32.71	5.83	-41.8	-43.6	18.5	0.00e+00	55	31	0	95420416	56	6872
2026-01-29 18:44:05.68	32.38	5.99	-41.9	-43.6	18.3	0.00e+00	0	31	0	101711872	56	6886
2026-01-29 18:44:08.71	32.04	6.15	-41.9	-43.6	18.5	0.00e+00	0	31	0	106954752	56	6904
2026-01-29 18:44:11.74	31.71	6.31	-42.0	-43.7	18.3	0.00e+00	35	31	0	113246208	56	6991
2026-01-29 18:44:14.77	31.37	6.47	-41.6	-43.2	18.9	0.00e+00	0	31	0	118489088	56	6603
2026-01-29 18:44:17.80	31.02	6.63	-41.4	-43.0	19.2	0.00e+00	0	31	0	123731968	56	6403
2026-01-29 18:44:20.83	30.67	6.79	-41.4	-43.0	19.2	0.00e+00	0	31	0	130023424	56	6402
2026-01-29 18:44:23.86	30.32	6.95	-41.0	-42.5	19.7	0.00e+00	92	31	0	135266304	56	6068
2026-01-29 18:44:26.89	29.96	7.11	-40.5	-41.9	20.1	0.00e+00	0	31	0	141557760	54	6327
2026-01-29 18:44:29.92	29.60	7.27	-40.3	-41.6	20.3	0.00e+00	0	31	0	146800640	54	6126
2026-01-29 18:44:32.94	29.24	7.43	-40.4	-41.7	20.2	0.00e+00	72	31	0	153092096	54	6203
2026-01-29 18:44:35.97	28.87	7.59	-40.5	-41.8	20.1	0.00e+00	0	31	0	158334976	54	6293
2026-01-29 18:44:39.01	28.49	7.75	-40.4	-41.8	20.2	0.00e+00	0	31	0	163577856	54	6249
2026-01-29 18:44:42.03	28.11	7.90	-40.4	-41.7	20.2	0.00e+00	0	31	0	169869312	54	6195
2026-01-29 18:44:45.07	27.73	8.06	-40.6	-42.0	20.1	0.00e+00	17	31	0	175112192	54	6408
2026-01-29 18:44:48.10	27.35	8.22	-40.7	-42.1	20.0	0.00e+00	0	31	0	181403648	54	6493
2026-01-29 18:44:51.13	26.95	8.38	-40.6	-42.0	20.0	0.00e+00	0	31	0	186646528	54	6418
2026-01-29 18:44:54.16	26.56	8.54	-40.4	-41.7	20.3	0.00e+00	18	31	0	191889408	54	6232
2026-01-29 18:44:57.18	26.16	8.70	-40.7	-42.0	20.0	0.00e+00	0	31	0	198180864	54	6464
2026-01-29 18:45:00.21	25.76	8.85	-40.8	-42.1	20.0	0.00e+00	0	31	0	203423744	54	6533
2026-01-29 18:45:03.25	25.35	9.01	-40.4	-41.7	20.4	0.00e+00	75	31	0	209715200	54	6178
2026-01-29 18:45:06.27	24.94	9.17	-40.4	-41.6	20.3	0.00e+00	8	31	0	214958080	54	6166
2026-01-29 18:45:09.30	24.52	9.32	-40.3	-41.6	20.5	0.00e+00	0	31	0	221249536	54	6125
2026-01-29 18:45:12.33	24.10	9.48	-40.3	-41.5	20.5	0.00e+00	0	31	0	226492416	54	6080
2026-01-29 18:45:15.36	23.67	9.63	-40.5	-41.8	20.2	0.00e+00	38	31	0	231735296	54	6284
2026-01-29 18:45:18.40	23.24	9.79	-40.9	-42.4	19.8	0.00e+00	0	31	0	238026752	54	6708
2026-01-29 18:45:21.42	22.80	9.94	-40.9	-42.4	19.8	0.00e+00	0	31	0	243269632	54	6700
2026-01-29 18:45:24.45	22.36	10.09	-40.6	-42.0	20.2	0.00e+00	92	31	0	249561088	54	6412
2026-01-29 18:45:27.48	21.92	10.25	-40.6	-41.9	20.3	0.00e+00	0	31	0	254803968	54	6357
2026-01-29 18:45:30.51	21.47	10.40	-40.3	-41.5	20.6	0.00e+00	0	31	0	260046848	54	6095
2026-01-29 18:45:33.54	21.01	10.55	-39.9	-41.1	21.1	0.00e+00	80	31	0	266338304	52	6488
2026-01-29 18:45:36.57	20.55	10.70	-39.4	-40.5	21.5	0.00e+00	50	31	0	271581184	52	6067
2026-01-29 18:45:39.60	20.09	10.85	-39.3	-40.4	21.4	0.00e+00	0	31	0	277872640	52	5992
2026-01-29 18:45:42.63	19.62	10.99	-39.1	-40.2	21.9	0.00e+00	0	31	0	283115520	52	5864
2026-01-29 18:45:45.66	19.15	11.14	-38.7	-39.7	22.3	0.00e+00	60	31	0	289406976	50	6233
2026-01-29 18:45:48.69	18.67	11.29	-38.5	-39.5	22.5	0.00e+00	0	31	0	294649856	50	6037
2026-01-29 18:45:51.72	18.18	11.43	-38.7	-39.7	22.1	0.00e+00	0	31	0	299892736	50	6207
2026-01-29 18:45:54.75	17.70	11.58	-38.9	-39.9	22.1	0.00e+00	61	31	0	306184192	50	6372
2026-01-29 18:45:57.78	17.20	11.72	-38.9	-40.0	22.1	0.00e+00	0	31	0	311427072	50	6455
2026-01-29 18:46:00.80	16.71	11.86	-38.6	-39.6	22.2	0.00e+00	0	31	0	317718528	50	6138
2026-01-29 18:46:03.83	16.20	12.00	-38.0	-39.0	22.8	0.00e+00	0	31	0	322961408	50	5732
2026-01-29 18:46:06.86	15.69	12.14	-38.3	-39.2	22.6	0.00e+00	24	31	0	328204288	50	5895
2026-01-29 18:46:09.89	15.18	12.27	-38.2	-39.2	22.6	0.00e+00	0	31	0	334495744	50	5864
2026-01-29 18:46:12.92	14.66	12.41	-38.8	-39.9	22.1	0.00e+00	0	31	0	339738624	50	6335
2026-01-29 18:46:15.95	14.14	12.54	-38.5	-39.6	22.3	0.00e+00	56	31	0	346030080	50	6135
2026-01-29 18:46:18.98	13.61	12.67	-37.7	-38.6	23.2	0.00e+00	0	31	0	351272960	50	5464
2026-01-29 18:46:22.01	13.08	12.81	-37.4	-38.3	23.4	0.00e+00	0	31	0	357564416	48	5913
2026-01-29 18:46:25.04	12.54	12.93	-37.3	-38.3	23.5	0.00e+00	58	31	0	362807296	48	5900
2026-01-29 18:46:28.07	12.00	13.06	-37.6	-38.6	22.9	0.00e+00	0	31	0	368050176	48	6118
2026-01-29 18:46:31.10	11.46	13.19	-38.2	-39.2	22.7	0.00e+00	0	31	0	374341632	48	6591
2026-01-29 18:46:34.13	10.91	13.31	-38.3	-39.3	22.6	0.00e+00	0	31	0	379584512	48	6666
2026-01-29 18:46:37.16	10.35	13.43	-38.3	-39.3	22.6	0.00e+00	32	31	0	385875968	48	6651
2026-01-29 18:46:40.19	9.79	13.55	-38.6	-39.7	22.3	0.00e+00	0	31	0	391118848	48	6959
2026-01-29 18:46:43.22	9.23	13.66	-39.1	-40.2	21.8	0.00e+00	0	31	0	397410304	50	6555
2026-01-29 18:46:46.25	8.66	13.78	-38.6	-39.6	22.3	0.00e+00	51	31	0	402653184	50	6149
2026-01-29 18:46:49.28	8.08	13.89	-38.1	-39.0	22.9	0.00e+00	0	31	0	407896064	50	5744
2026-01-29 18:46:52.31	7.50	14.00	-38.2	-39.2	22.9	0.00e+00	0	31	0	414187520	50	5874
2026-01-29 18:46:55.33	6.92	14.11	-37.9	-38.8	23.1	0.00e+00	92	31	0	419430400	50	5593
2026-01-29 18:46:58.36	6.34	14.21	-37.8	-38.8	23.1	0.00e+00	16	31	0	425721856	50	5570
2026-01-29 18:47:01.39	5.75	14.31	-37.7	-38.6	23.2	0.00e+00	0	31	0	430964736	48	6165
2026-01-29 18:47:04.42	5.15	14.41	-38.4	-39.5	22.6	0.00e+00	0	31	0	436207616	48	6790
2026-01-29 18:47:07.45	4.55	14.51	-38.2	-39.2	22.9	0.00e+00	59	31	0	442499072	48	6607
2026-01-29 18:47:10.48	3.95	14.60	-37.6	-38.5	22.6	0.00e+00	0	31	0	447741952	48	6050
2026-01-29 18:47:13.51	3.34	14.69	-37.1	-37.9	23.8	0.00e+00	0	31	0	454033408	48	5675
2026-01-29 18:47:16.54	2.73	14.78	-37.4	-38.3	23.4	0.00e+00	88	31	0	459276288	48	5911
2026-01-29 18:47:19.57	2.12	14.87	-37.8	-38.7	23.3	0.00e+00	0	31	0	465567744	48	6224
2026-01-29 18:47:22.60	1.50	14.95	-37.5	-38.4	23.3	0.00e+00	0	31	0	470810624	48	6029
2026-01-29 18:47:25.63	0.88	15.03	-37.4	-38.3	23.5	0.00e+00	2	31	0	476053504	48	5923
2026-01-29 18:47:28.66	0.26	15.10	-38.0	-39.0	23.0	0.00e+00	0	31	0	482344960	48	6420
2026-01-29 18:47:31.69	359.63	15.18	-38.1	-39.0	23.0	0.00e+00	0	31	0	487587840	48	6450
2026-01-29 18:47:34.72	359.00	15.25	-38.3	-39.3	22.7	0.00e+00	0	31	0	493879296	48	6619
2026-01-29 18:47:37.75	358.37	15.31	-38.1	-39.1	22.9	0.00e+00	64	31	0	499122176	48	6487
2026-01-29 18:47:40.78	357.73	15.38	-38.2	-39.2	22.9	0.00e+00	0	31	0	504365056	48	6568
2026-01-29 18:47:43.81	357.09	15.43	-38.3	-39.3	22.7	0.00e+00	0	31	0	510656512	48	6635
2026-01-29 18:47:46.84	356.45	15.49	-37.6	-38.5	23.2	0.00e+00	92	31	0	515899392	48	6099
2026-01-29 18:47:49.87	355.81	15.54	-37.7	-38.6	23.3	0.00e+00	0	31	0	522190848	48	6128
2026-01-29 18:47:52.89	355.17	15.59	-37.4	-38.2	23.6	0.00e+00	0	31	0	527433728	48	5896
2026-01-29 18:47:55.92	354.52	15.64	-37.7	-38.6	23.2	0.00e+00	0	31	0	533725184	48	6172
2026-01-29 18:47:58.95	353.87	15.68	-38.0	-39.0	22.9	0.00e+00	24	31	0	538968064	48	6404
2026-01-29 18:48:01.98	353.22	15.72	-37.8	-38.7	23.2	0.00e+00	0	31	0	544210944	48	6241
2026-01-29 18:48:05.01	352.57	15.75	-38.2	-39.2	22.8	0.00e+00	0	31	0	550502400	48	6540
2026-01-29 18:48:08.04	351.91	15.78	-38.5	-39.5	22.5	0.00e+00	92	31	0	555745280	48	6837
2026-01-29 18:48:11.07	351.26	15.81	-38.4	-39.4	22.6	0.00e+00	0	31	0	562036736	50	6032
2026-01-29 18:48:14.10	350.60	15.83	-38.2	-39.1	22.9	0.00e+00	0	31	0	567279616	50	5813
2026-01-29 18:48:17.14	349.94	15.85	-38.2	-39.2	22.1	9.30e-05	26	31	0	572522496	50	5861
2026-01-29 18:48:20.17	349.28	15.86	-38.2	-39.3	22.4	0.00e+00	31	31	0	578813952	50	5911
2026-01-29 18:48:23.20	348.62	15.88	-37.9	-38.9	23.0	0.00e+00	0	31	0	584056832	50	5632
2026-01-29 18:48:26.23	347.96	15.88	-38.2	-39.2	22.6	7.00e-07	0	31	0	590348288	50	5887
2026-01-29 18:48:29.26	347.30	15.89	-38.4	-39.4	22.7	0.00e+00	43	31	0	595591168	50	6028
2026-01-29 18:48:32.29	346.64	15.89	-38.1	-39.1	22.9	0.00e+00	0	31	0	601882624	50	5764
2026-01-29 18:48:35.31	345.99	15.88	-37.7	-38.6	23.3	0.00e+00	0	31	0	607125504	48	6145
2026-01-29 18:48:38.34	345.33	15.87	-37.4	-38.3	23.5	0.00e+00	54	31	0	612368384	48	5925
2026-01-29 18:48:41.37	344.67	15.86	-37.8	-38.8	23.1	0.00e+00	0	31	0	618659840	48	6246
2026-01-29 18:48:44.40	344.01	15.85	-38.2	-39.2	22.9	0.00e+00	0	31	0	623902720	48	6546
2026-01-29 18:48:47.43	343.35	15.83	-38.6	-39.6	22.4	0.00e+00	90	31	0	630194176	48	6867
2026-01-29 18:48:50.46	342.70	15.81	-38.8	-39.9	22.3	0.00e+00	0	31	0	635437056	50	6326
2026-01-29 18:48:53.49	342.04	15.78	-38.7	-39.8	22.5	0.00e+00	0	31	0	640679936	50	6247
2026-01-29 18:48:56.52	341.39	15.75	-38.3	-39.3	22.7	0.00e+00	0	31	0	646971392	50	5945
2026-01-29 18:48:59.55	340.73	15.71	-38.0	-39.0	23.0	0.00e+00	46	31	0	652214272	50	5720
2026-01-29 18:49:02.58	340.08	15.68	-38.1	-39.1	23.0	0.00e+00	0	31	0	658505728	50	5795
2026-01-29 18:49:05.61	339.43	15.63	-38.2	-39.2	22.9	0.00e+00	0	31	0	663748608	50	5829
2026-01-29 18:49:08.64	338.79	15.59	-37.8	-38.7	23.3	0.00e+00	80	31	0	670040064	50	5548
2026-01-29 18:49:11.67	338.14	15.54	-37.5	-38.4	23.5	0.00e+00	0	31	0	675282944	48	6017
2026-01-29 18:49:14.70	337.50	15.49	-37.6	-38.5	23.3	0.00e+00	0	31	0	680525824	48	6095
2026-01-29 18:49:17.73	336.86	15.43	-37.6	-38.6	23.3	0.00e+00	92	31	0	686817280	48	6114
2026-01-29 18:49:20.76	336.22	15.37	-37.9	-38.9	22.9	0.00e+00	0	31	0	692060160	48	6353
2026-01-29 18:49:23.79	335.58	15.31	-38.1	-39.1	22.8	0.00e+00	0	31	0	698351616	48	6518
2026-01-29 18:49:26.82	334.95	15.24	-38.5	-39.6	22.5	0.00e+00	0	31	0	703594496	48	6860
2026-01-29 18:49:29.85	334.32	15.17	-38.7	-39.7	22.4	0.00e+00	50	31	0	708837376	50	6235
2026-01-29 18:49:32.88	333.69	15.10	-38.0	-39.0	23.0	0.00e+00	0	31	0	715128832	50	5718
2026-01-29 18:49:35.91	333.07	15.02	-37.6	-38.5	23.3	0.00e+00	0	31	0	720371712	48	6090
2026-01-29 18:49:38.94	332.45	14.94	-37.5	-38.4	23.4	0.00e+00	92	31	0	726663168	48	6007
2026-01-29 18:49:41.97	331.83	14.86	-37.8	-38.7	23.3	0.00e+00	0	31	0	731906048	48	6205
2026-01-29 18:49:45.00	331.22	14.78	-38.1	-39.1	23.0	0.00e+00	0	31	0	738197504	48	6477
2026-01-29 18:49:48.03	330.61	14.69	-38.4	-39.4	22.7	0.00e+00	0	31	0	743440384	48	6721
2026-01-29 18:49:51.06	330.00	14.60	-38.4	-39.4	22.6	0.00e+00	31	31	0	748683264	48	6769
2026-01-29 18:49:54.09	329.40	14.50	-38.7	-39.8	22.5	0.00e+00	0	31	0	754974720	50	6253
2026-01-29 18:49:57.12	328.80	14.41	-38.5	-39.5	22.7	0.00e+00	0	31	0	760217600	50	6051
2026-01-29 18:50:00.15	328.20	14.31	-38.2	-39.2	22.9	0.00e+00	26	31	0	766509056	50	5841
2026-01-29 18:50:03.17	327.61	14.20	-38.0	-38.9	23.0	0.00e+00	0	31	0	771751936	50	5694
2026-01-29 18:50:06.20	327.03	14.10	-38.1	-39.0	22.9	0.00e+00	0	31	0	776994816	50	5735
2026-01-29 18:50:09.23	326.45	13.99	-37.7	-38.6	23.3	0.00e+00	61	31	0	783286272	48	6163
2026-01-29 18:50:12.26	325.87	13.88	-37.4	-38.3	23.5	0.00e+00	0	31	0	788529152	48	5939
2026-01-29 18:50:15.29	325.29	13.77	-37.3	-38.2	23.6	0.00e+00	0	31	0	794820608	48	5866
2026-01-29 18:50:18.32	324.72	13.66	-37.7	-38.6	23.3	0.00e+00	0	31	0	800063488	48	6108
2026-01-29 18:50:21.35	324.16	13.54	-38.1	-39.1	22.9	0.00e+00	53	31	0	806354944	48	6498
2026-01-29 18:50:24.38	323.60	13.42	-38.6	-39.6	22.5	0.00e+00	0	31	0	811597824	48	6927
2026-01-29 18:50:27.41	323.04	13.30	-39.1	-40.2	21.8	0.00e+00	0	31	0	816840704	50	6579
2026-01-29 18:50:30.43	322.49	13.18	-38.9	-39.9	22.2	0.00e+00	52	31	0	823132160	50	6384
2026-01-29 18:50:33.47	321.95	13.05	-38.9	-39.9	22.3	0.00e+00	0	31	0	828375040	50	6370
2026-01-29 18:50:36.50	321.40	12.92	-38.9	-40.0	22.0	0.00e+00	0	31	0	834666496	50	6429
2026-01-29 18:50:39.53	320.87	12.80	-39.0	-40.1	22.1	0.00e+00	92	31	0	839909376	50	6508
2026-01-29 18:50:42.56	320.34	12.66	-39.0	-40.1	22.2	0.00e+00	0	32	0	846200832	50	6506
2026-01-29 18:50:45.59	319.81	12.53	-39.0	-40.1	22.2	0.00e+00	0	32	0	851443712	50	6465
2026-01-29 18:50:48.62	319.29	12.40	-38.8	-39.9	22.3	0.00e+00	0	32	0	856686592	50	6319
2026-01-29 18:50:51.65	318.77	12.26	-38.4	-39.3	22.7	0.00e+00	51	31	0	862978048	50	5963
2026-01-29 18:50:54.68	318.26	12.13	-38.4	-39.4	22.8	0.00e+00	0	31	0	868220928	50	6005
2026-01-29 18:50:57.71	317.75	11.99	-39.3	-40.3	21.9	0.00e+00	0	31	0	874512384	50	6679
2026-01-29 18:51:00.74	317.24	11.85	-39.9	-41.1	21.2	0.00e+00	92	32	0	879755264	52	6524
2026-01-29 18:51:03.77	316.75	11.71	-39.7	-40.8	21.5	0.00e+00	0	32	0	884998144	52	6302
2026-01-29 18:51:06.79	316.25	11.56	-39.3	-40.4	21.7	0.00e+00	0	32	0	891289600	52	5978
2026-01-29 18:51:09.83	315.76	11.42	-39.8	-40.9	21.4	0.00e+00	79	31	0	896532480	52	6377
2026-01-29 18:51:12.86	315.28	11.28	-41.5	-43.0	19.5	0.00e+00	0	32	0	902823936	54	7236
2026-01-29 18:51:15.89	314.80	11.13	-42.3	-44.0	18.5	0.00e+00	0	31	0	908066816	56	7240
2026-01-29 18:51:18.92	314.33	10.98	-41.7	-43.3	19.3	0.00e+00	0	32	0	914358272	56	6624
2026-01-29 18:51:21.95	313.86	10.83	-41.3	-42.8	19.8	0.00e+00	60	31	0	919601152	56	6247
2026-01-29 18:51:24.98	313.39	10.69	-41.0	-42.4	20.0	0.00e+00	0	31	0	924844032	56	5978
2026-01-29 18:51:28.01	312.93	10.54	-40.2	-41.4	20.9	0.00e+00	0	32	0	931135488	54	6029
2026-01-29 18:51:31.04	312.48	10.38	-39.9	-41.0	21.2	0.00e+00	81	31	0	936378368	52	6430
2026-01-29 18:51:34.07	312.03	10.23	-40.0	-41.2	21.1	0.00e+00	0	31	0	942669824	52	6541
2026-01-29 18:51:37.10	311.58	10.08	-40.2	-41.3	21.1	0.00e+00	0	31	0	947912704	52	6676
2026-01-29 18:51:40.13	311.14	9.93	-39.6	-40.7	21.5	0.00e+00	0	31	0	953155584	52	6223
2026-01-29 18:51:43.16	310.71	9.77	-39.3	-40.4	21.8	0.00e+00	0	32	0	959447040	52	6026
2026-01-29 18:51:46.19	310.28	9.62	-39.2	-40.2	21.9	0.00e+00	0	31	0	964689920	52	5878
2026-01-29 18:51:49.22	309.85	9.46	-39.6	-40.7	21.5	0.00e+00	0	32	0	970981376	52	6213
2026-01-29 18:51:52.25	309.43	9.31	-39.7	-40.9	21.3	0.00e+00	92	32	0	976224256	52	6351
2026-01-29 18:51:55.28	309.01	9.15	-40.2	-41.4	20.7	0.00e+00	0	31	0	982515712	52	6757
2026-01-29 18:51:58.30	308.60	9.00	-39.7	-40.9	21.3	0.00e+00	0	31	0	987758592	52	6338
2026-01-29 18:52:01.33	308.19	8.84	-39.7	-40.9	21.3	0.00e+00	59	31	0	993001472	52	6324
2026-01-29 18:52:04.36	307.79	8.68	-39.8	-41.0	21.3	0.00e+00	0	31	0	999292928	52	6404
2026-01-29 18:52:07.39	307.39	8.53	-39.5	-40.6	21.6	0.00e+00	0	31	0	1004535808	52	6170
2026-01-29 18:52:10.42	306.99	8.37	-38.9	-39.9	22.1	0.00e+00	0	32	0	1010827264	52	5685
2026-01-29 18:52:13.45	306.60	8.21	-38.3	-39.3	22.6	0.00e+00	47	32	0	1016070144	50	5935
2026-01-29 18:52:16.48	306.21	8.05	-38.6	-39.6	22.4	0.00e+00	0	31	0	1021313024	50	6169
2026-01-29 18:52:19.51	305.83	7.89	-38.5	-39.5	22.3	0.00e+00	0	31	0	1027604480	50	6072
2026-01-29 18:52:22.54	305.45	7.73	-38.7	-39.8	22.2	0.00e+00	92	31	0	1032847360	50	6251
2026-01-29 18:52:25.57	305.08	7.57	-38.3	-39.3	22.6	0.00e+00	0	31	0	1039138816	50	5911
2026-01-29 18:52:28.60	304.71	7.41	-38.5	-39.6	22.4	0.00e+00	0	31	0	1044381696	50	6106
2026-01-29 18:52:31.63	304.34	7.25	-38.7	-39.7	22.2	0.00e+00	65	31	0	1050673152	50	6187
2026-01-29 18:52:34.66	303.98	7.10	-39.3	-40.5	21.5	0.00e+00	0	31	0	1055916032	50	6789
2026-01-29 18:52:37.69	303.63	6.94	-39.4	-40.5	21.5	0.00e+00	0	31	0	1061158912	50	6843
2026-01-29 18:52:40.72	303.27	6.78	-39.5	-40.7	21.3	0.00e+00	0	31	0	1067450368	50	6944
2026-01-29 18:52:43.75	302.92	6.62	-39.5	-40.6	21.3	0.00e+00	51	31	0	1072693248	52	6137
2026-01-29 18:52:46.78	302.58	6.46	-39.6	-40.7	21.3	0.00e+00	0	31	0	1078984704	52	6244
2026-01-29 18:52:49.81	302.24	6.30	-39.6	-40.8	21.2	0.00e+00	0	31	0	1084227584	52	6253
2026-01-29 18:52:52.83	301.90	6.14	-39.5	-40.6	21.1	0.00e+00	81	31	0	1089470464	52	6139
2026-01-29 18:52:55.86	301.57	5.98	-39.3	-40.5	21.5	0.00e+00	0	32	0	1095761920	52	6040
2026-01-29 18:52:58.89	301.23	5.82	-39.5	-40.7	21.3	0.00e+00	0	31	0	1101004800	52	6180
2026-01-29 18:53:01.92	300.91	5.66	-39.4	-40.5	21.4	0.00e+00	87	32	0	1107296256	52	6084
2026-01-29 18:53:04.95	300.58	5.50	-39.4	-40.5	21.4	0.00e+00	0	32	0	1112539136	52	6073
2026-01-29 18:53:07.98	300.27	5.34	-39.9	-41.2	20.7	0.00e+00	0	31	0	1118830592	52	6550
2026-01-29 18:53:11.01	299.95	5.18	-40.5	-41.8	20.2	0.00e+00	0	31	0	1124073472	52	7067
2026-01-29 18:53:14.04	299.64	5.02	-40.2	-41.5	20.4	0.00e+00	52	31	0	1129316352	52	6803
2026-01-29 18:53:17.07	299.33	4.86	-39.7	-41.0	20.9	0.00e+00	0	32	0	1135607808	52	6405
2026-01-29 18:53:20.10	299.02	4.70	-39.5	-40.7	21.2	0.00e+00	0	31	0	1140850688	52	6195
2026-01-29 18:53:23.13	298.72	4.55	-39.8	-41.0	20.6	0.00e+00	91	31	0	1147142144	52	6436
2026-01-29 18:53:26.16	298.42	4.39	-40.0	-41.2	20.4	0.00e+00	0	32	0	1152385024	52	6609
2026-01-29 18:53:29.19	298.13	4.23	-39.5	-40.7	20.9	0.00e+00	0	31	0	1157627904	52	6216
2026-01-29 18:53:32.22	297.84	4.07	-40.2	-41.5	20.4	0.00e+00	0	32	0	1163919360	52	6810
2026-01-29 18:53:35.25	297.55	3.91	-40.7	-42.1	19.7	0.00e+00	41	31	0	1169162240	54	6480
2026-01-29 18:53:38.28	297.26	3.76	-41.3	-42.9	18.8	0.00e+00	0	31	0	1175453696	54	7144
2026-01-29 18:53:41.30	296.98	3.60	-41.3	-43.0	18.7	0.00e+00	0	32	0	1180696576	54	7180
2026-01-29 18:53:44.33	296.70	3.44	-41.2	-42.7	18.8	0.00e+00	92	32	0	1186988032	56	6232
2026-01-29 18:53:47.36	296.42	3.29	-42.0	-43.7	18.0	0.00e+00	0	31	0	1192230912	56	7004
2026-01-29 18:53:50.39	296.15	3.13	-41.6	-43.3	18.4	0.00e+00	0	32	0	1197473792	56	6643
2026-01-29 18:53:53.42	295.88	2.97	-48.3	-63.5	3.6	1.51e+00	0	32	104	1201668096	60	53937
2026-01-29 18:53:56.45	295.61	2.82	-48.9	-64.1	3.6	1.51e+00	0	32	104	1201668096	60	58062
2026-01-29 18:53:59.48	295.35	2.66	-49.1	-64.3	3.6	1.51e+00	0	32	104	1201668096	60	59177
2026-01-29 18:54:02.51	295.09	2.51	-49.1	-64.3	3.6	1.51e+00	0	32	104	1201668096	60	59295
2026-01-29 18:54:05.54	294.83	2.35	-49.1	-64.3	3.6	1.51e+00	0	32	104	1201668096	60	59381
2026-01-29 18:54:08.57	294.57	2.20	-48.6	-64.2	3.6	1.51e+00	0	32	104	1201668096	60	58831
2026-01-29 18:54:11.60	294.32	2.04	-49.0	-64.2	3.6	1.51e+00	0	32	104	1201668096	60	58452
2026-01-29 18:54:14.63	294.07	1.89	-48.9	-64.2	3.6	1.51e+00	0	32	104	1201668096	60	58378
2026-01-29 18:54:17.66	293.82	1.74	-48.9	-64.1	3.6	1.51e+00	0	32	104	1201668096	60	58143
2026-01-29 18:54:20.69	293.57	1.58	-49.0	-64.2	3.6	1.51e+00	0	32	104	1201668096	60	58407
2026-01-29 18:54:23.72	293.33	1.43	-48.9	-64.2	3.6	1.51e+00	0	32	104	1201668096	60	58356
2026-01-29 18:54:26.75	293.09	1.28	-48.9	-64.1	3.6	1.51e+00	0	32	104	1201668096	60	58256
2026-01-29 18:54:29.78	292.86	1.12	-49.0	-64.1	3.6	1.51e+00	0	32	104	1201668096	60	58264
2026-01-29 18:54:32.81	292.62	0.97	-48.9	-64.2	3.6	1.51e+00	0	32	104	1201668096	60	58334
2026-01-29 18:54:35.84	292.39	0.82	-48.9	-64.1	3.6	1.51e+00	0	32	104	1201668096	60	58090
2026-01-29 18:54:38.88	292.16	0.67	-48.9	-64.2	3.6	1.51e+00	0	32	104	1201668096	60	58491
2026-01-29 18:54:41.91	291.93	0.52	-48.9	-64.1	3.6	1.51e+00	0	32	104	1201668096	60	58056
2026-01-29 18:54:44.94	291.70	0.37	-48.9	-64.2	3.6	1.51e+00	0	32	104	1201668096	60	58318
2026-01-29 18:54:47.97	291.48	0.22	-48.9	-64.2	3.6	1.51e+00	0	32	104	1201668096	60	58404
2026-01-29 18:54:51.00	291.26	0.07	-48.9	-64.1	3.6	1.51e+00	0	32	104	1201668096	60	57852
2026-01-29 18:54:54.03	291.04	-0.08	-48.9	-64.1	3.6	1.51e+00	0	32	104	1201668096	60	58113

#Closed at: 2026-01-29 18:54:54
#Recorded file [1201 MB]: D:/lorett/data/35029_260130_064210.dat