passes_logs/2026/01/29/R4.6S_Anadyr/R4.6S_Anadyr__20260129_222804_TY-42_rec.log

#Pass ID: 20260129_222804_TY-42
#Satellite: TY-42
#Configuration: TY-42_900M
#almurnet v.1.7.20251203
#Start time: 2026-01-29 22:28:36

#Version: 2.2.20231116
#Station: R4.6S_Anadyr
#Location: 177.4865 lon 64.73178 lat
#TLE: 1 64048U 25103A   26029.59629630  .00008015  00000-0  38191-3 0 09991
#TLE: 2 64048 097.4120 104.7398 0001761 095.4017 301.3163 15.19189348 39031

#Time	Az	El	Level	Level2	SNR	BER	BlckErr	Temp	State	Recorded	gain1	gain2
2026-01-29 22:28:36.29	21.84	2.00	-49.4	-50.8	3.4	0.00e+00	0	34	0	0	60	42555
2026-01-29 22:28:39.22	22.02	2.19	-48.3	-50.8	6.1	0.00e+00	0	35	104	0	60	42538
2026-01-29 22:28:42.16	22.22	2.38	-48.3	-50.8	6.1	0.00e+00	0	35	104	0	60	42441
2026-01-29 22:28:45.10	22.41	2.58	-48.4	-50.8	6.1	0.00e+00	0	36	104	0	60	42682
2026-01-29 22:28:48.03	22.61	2.77	-48.3	-50.8	6.1	0.00e+00	0	36	104	0	60	42530
2026-01-29 22:28:50.96	22.81	2.97	-48.3	-50.9	6.1	0.00e+00	0	36	104	0	60	42855
2026-01-29 22:28:53.89	23.02	3.17	-48.4	-50.9	6.1	0.00e+00	0	36	104	0	60	42879
2026-01-29 22:28:56.83	23.23	3.37	-48.4	-50.9	6.1	0.00e+00	0	36	104	0	60	42853
2026-01-29 22:28:59.75	23.44	3.57	-48.3	-50.9	6.1	0.00e+00	0	36	104	0	60	42741
2026-01-29 22:29:02.68	23.65	3.78	-48.4	-50.9	6.1	0.00e+00	0	36	104	0	60	42742
2026-01-29 22:29:05.61	23.87	3.98	-48.6	-51.1	6.1	0.00e+00	0	36	104	0	60	43826
2026-01-29 22:29:08.54	24.09	4.19	-48.5	-50.9	6.1	0.00e+00	0	36	104	0	60	43085
2026-01-29 22:29:11.47	24.32	4.40	-48.6	-51.1	6.1	0.00e+00	0	36	104	0	60	43856
2026-01-29 22:29:14.40	24.55	4.61	-48.4	-50.9	6.1	0.00e+00	0	36	104	0	60	43037
2026-01-29 22:29:17.33	24.78	4.82	-48.4	-50.9	6.1	0.00e+00	0	36	104	0	60	42862
2026-01-29 22:29:20.26	25.02	5.04	-48.6	-51.1	6.1	0.00e+00	0	37	104	0	60	43802
2026-01-29 22:29:23.19	25.26	5.26	-48.7	-51.2	6.1	0.00e+00	0	37	104	0	60	44606
2026-01-29 22:29:26.13	25.51	5.48	-48.5	-51.0	6.1	0.00e+00	0	37	104	0	60	43387
2026-01-29 22:29:29.07	25.76	5.70	-48.6	-51.1	6.1	0.00e+00	0	37	104	0	60	44054
2026-01-29 22:29:32.00	26.01	5.92	-33.0	-33.3	11.4	0.00e+00	75	37	104	0	42	16024
2026-01-29 22:29:34.94	26.28	6.15	-31.7	-32.1	15.0	0.00e+00	0	37	0	50331648	38	17442
2026-01-29 22:29:37.88	26.54	6.38	-30.7	-31.2	15.3	9.16e-03	0	37	0	377487360	38	15688
2026-01-29 22:29:40.81	26.81	6.61	-28.5	-28.9	16.1	3.12e-03	0	37	0	713031680	32	17113
2026-01-29 22:29:43.74	27.09	6.84	-27.8	-28.1	16.2	6.37e-04	0	37	0	1040187392	30	17601
2026-01-29 22:29:46.68	27.37	7.07	-27.2	-27.6	16.4	3.43e-04	0	37	0	1367343104	30	16516
2026-01-29 22:29:49.61	27.65	7.31	-27.1	-27.5	16.4	1.20e-04	0	37	0	1702887424	30	16419
2026-01-29 22:29:52.55	27.95	7.55	-26.7	-27.1	16.5	4.35e-05	0	37	0	2030043136	28	17576
2026-01-29 22:29:55.49	28.25	7.79	-26.7	-27.1	16.5	4.35e-05	0	37	0	2365587456	28	17562
2026-01-29 22:29:58.43	28.55	8.04	-26.5	-26.9	16.6	8.71e-05	0	38	0	2692743168	28	17088
2026-01-29 22:30:01.36	28.86	8.29	-26.6	-27.0	16.5	6.53e-05	0	38	0	3028287488	28	17358
2026-01-29 22:30:04.30	29.18	8.54	-26.4	-26.9	16.6	3.26e-05	0	38	0	3355443200	28	17042
2026-01-29 22:30:07.24	29.50	8.79	-26.4	-26.8	16.6	3.26e-05	0	38	0	3682598912	28	16923
2026-01-29 22:30:10.17	29.83	9.04	-26.4	-26.8	16.6	1.63e-05	0	38	0	4018143232	28	16918
2026-01-29 22:30:13.11	30.17	9.30	-26.0	-26.4	16.7	2.72e-05	0	38	0	4345298944	28	16185
2026-01-29 22:30:16.04	30.51	9.56	-26.0	-26.4	16.7	5.40e-06	0	38	0	4672454656	28	16163
2026-01-29 22:30:18.99	30.86	9.83	-25.8	-26.2	16.5	2.72e-05	0	38	0	5007998976	28	15815
2026-01-29 22:30:21.92	31.22	10.10	-25.9	-26.3	16.5	3.81e-05	0	38	0	5335154688	28	15995
2026-01-29 22:30:24.86	31.59	10.37	-25.7	-26.1	16.7	3.81e-05	0	38	0	5670699008	26	17461
2026-01-29 22:30:27.80	31.96	10.64	-25.8	-26.2	16.8	0.00e+00	0	38	0	5997854720	26	17753
2026-01-29 22:30:30.74	32.34	10.92	-25.5	-25.9	16.8	0.00e+00	0	38	0	6325010432	26	17155
2026-01-29 22:30:33.68	32.74	11.20	-25.3	-25.7	16.8	0.00e+00	0	38	0	6660554752	26	16718
2026-01-29 22:30:36.62	33.14	11.48	-25.4	-25.8	16.8	0.00e+00	0	38	0	6987710464	26	16937
2026-01-29 22:30:39.56	33.55	11.77	-25.1	-25.6	16.9	0.00e+00	0	38	0	7323254784	26	16457
2026-01-29 22:30:42.50	33.97	12.06	-25.1	-25.6	16.9	0.00e+00	0	38	0	7650410496	26	16454
2026-01-29 22:30:45.43	34.40	12.35	-25.0	-25.5	16.8	1.08e-05	0	38	0	7977566208	26	16282
2026-01-29 22:30:48.37	34.84	12.65	-25.0	-25.4	16.8	0.00e+00	0	38	0	8313110528	26	16210
2026-01-29 22:30:51.30	35.28	12.95	-25.1	-25.5	16.9	0.00e+00	0	38	0	8640266240	26	16304
2026-01-29 22:30:54.23	35.74	13.25	-24.8	-25.2	17.0	0.00e+00	0	38	0	8967421952	26	15838
2026-01-29 22:30:57.15	36.21	13.56	-24.8	-25.3	17.0	0.00e+00	0	38	0	9294577664	24	17837
2026-01-29 22:31:00.09	36.70	13.87	-24.7	-25.1	17.0	0.00e+00	0	38	0	9630121984	24	17539
2026-01-29 22:31:03.02	37.19	14.18	-24.7	-25.1	17.1	0.00e+00	0	39	0	9957277696	24	17497
2026-01-29 22:31:05.96	37.70	14.50	-24.2	-24.7	17.0	5.40e-06	0	38	0	10284433408	24	16668
2026-01-29 22:31:08.90	38.22	14.82	-24.0	-24.5	17.1	0.00e+00	0	38	0	10619977728	24	16287
2026-01-29 22:31:11.83	38.75	15.14	-24.1	-24.5	17.1	0.00e+00	0	39	0	10947133440	24	16351
2026-01-29 22:31:14.76	39.30	15.47	-23.8	-24.3	17.2	0.00e+00	0	39	0	11282677760	24	15932
2026-01-29 22:31:17.70	39.86	15.80	-23.7	-24.1	17.0	0.00e+00	0	39	0	11609833472	22	17558
2026-01-29 22:31:20.62	40.43	16.14	-23.5	-23.9	17.0	0.00e+00	0	39	0	11936989184	22	17181
2026-01-29 22:31:23.56	41.02	16.47	-23.5	-23.9	17.2	0.00e+00	0	39	0	12272533504	22	17193
2026-01-29 22:31:26.50	41.63	16.82	-23.3	-23.7	17.2	0.00e+00	0	39	0	12599689216	22	16744
2026-01-29 22:31:29.45	42.25	17.17	-23.1	-23.5	17.2	0.00e+00	0	39	0	12926844928	22	16379
2026-01-29 22:31:32.37	42.89	17.51	-23.0	-23.5	17.2	0.00e+00	0	39	0	13262389248	22	16293
2026-01-29 22:31:35.31	43.54	17.87	-22.8	-23.3	17.3	0.00e+00	0	39	0	13597933568	22	15942
2026-01-29 22:31:38.24	44.22	18.22	-22.4	-22.9	17.4	0.00e+00	0	39	0	13925089280	20	17169
2026-01-29 22:31:41.17	44.90	18.58	-22.5	-23.0	17.2	0.00e+00	0	39	0	14252244992	20	17243
2026-01-29 22:31:44.10	45.61	18.94	-22.2	-22.7	17.4	0.00e+00	0	39	0	14579400704	20	16730
2026-01-29 22:31:47.03	46.34	19.30	-22.1	-22.6	17.4	0.00e+00	0	39	0	14914945024	20	16485
2026-01-29 22:31:49.96	47.09	19.67	-21.9	-22.4	17.4	0.00e+00	0	39	0	15242100736	20	16132
2026-01-29 22:31:52.90	47.86	20.04	-21.7	-22.2	17.5	0.00e+00	0	39	0	15569256448	18	17763
2026-01-29 22:31:55.81	48.64	20.41	-21.7	-22.2	17.4	0.00e+00	0	39	0	15904800768	18	17738
2026-01-29 22:31:58.75	49.45	20.78	-21.7	-22.1	17.5	0.00e+00	0	39	0	16223567872	18	17558
2026-01-29 22:32:01.69	50.29	21.16	-21.4	-21.9	17.5	0.00e+00	0	39	0	16559112192	18	17165
2026-01-29 22:32:04.63	51.15	21.54	-21.1	-21.6	17.5	0.00e+00	0	39	0	16894656512	18	16570
2026-01-29 22:32:07.56	52.03	21.91	-21.0	-21.5	17.5	0.00e+00	0	39	0	17221812224	18	16396
2026-01-29 22:32:10.50	52.93	22.29	-21.0	-21.5	17.5	0.00e+00	0	39	0	17548967936	18	16363
2026-01-29 22:32:13.42	53.86	22.67	-20.8	-21.3	17.4	0.00e+00	0	39	0	17884512256	18	15938
2026-01-29 22:32:16.36	54.82	23.05	-20.9	-21.4	17.5	0.00e+00	0	39	0	18211667968	18	16104
2026-01-29 22:32:19.28	55.79	23.42	-20.5	-21.0	17.5	0.00e+00	0	39	0	18538823680	16	17305
2026-01-29 22:32:22.21	56.80	23.80	-20.5	-21.0	17.4	0.00e+00	0	39	0	18874368000	16	17290
2026-01-29 22:32:25.14	57.83	24.17	-20.2	-20.7	17.3	0.00e+00	0	39	0	19193135104	16	16701
2026-01-29 22:32:28.07	58.89	24.54	-20.2	-20.7	17.5	0.00e+00	0	39	0	19528679424	16	16719
2026-01-29 22:32:31.00	59.98	24.91	-20.0	-20.5	17.6	0.00e+00	0	39	0	19855835136	16	16358
2026-01-29 22:32:33.94	61.10	25.27	-19.9	-20.4	17.6	0.00e+00	0	39	0	20191379456	16	16079
2026-01-29 22:32:36.87	62.24	25.63	-19.7	-20.2	17.6	0.00e+00	0	39	0	20518535168	14	17612
2026-01-29 22:32:39.81	63.42	25.99	-19.6	-20.1	17.5	0.00e+00	0	39	0	20854079488	14	17479
2026-01-29 22:32:42.74	64.62	26.34	-19.6	-20.1	17.6	0.00e+00	0	39	0	21181235200	14	17458
2026-01-29 22:32:45.67	65.85	26.68	-19.4	-19.9	17.6	0.00e+00	0	39	0	21508390912	14	17024
2026-01-29 22:32:48.60	67.10	27.01	-19.3	-19.8	17.7	0.00e+00	0	39	0	21835546624	14	16965
2026-01-29 22:32:51.54	68.40	27.33	-19.4	-19.9	17.7	0.00e+00	0	39	0	22171090944	14	17005
2026-01-29 22:32:54.48	69.72	27.64	-19.3	-19.8	17.7	0.00e+00	0	39	0	22498246656	14	16911
2026-01-29 22:32:57.40	71.05	27.94	-19.3	-19.7	17.7	0.00e+00	0	39	0	22825402368	14	16749
2026-01-29 22:33:00.33	72.42	28.23	-19.0	-19.5	17.6	0.00e+00	0	39	0	23160946688	14	16278
2026-01-29 22:33:03.27	73.82	28.51	-18.7	-19.2	17.7	0.00e+00	0	39	0	23488102400	14	15863
2026-01-29 22:33:06.20	75.25	28.77	-18.7	-19.1	17.6	0.00e+00	0	39	0	23815258112	12	17575
2026-01-29 22:33:09.13	76.69	29.02	-18.7	-19.2	17.5	0.00e+00	0	39	0	24150802432	12	17648
2026-01-29 22:33:12.07	78.17	29.25	-18.6	-19.1	17.4	0.00e+00	0	39	0	24477958144	12	17410
2026-01-29 22:33:15.00	79.66	29.46	-18.5	-19.0	17.5	0.00e+00	0	39	0	24805113856	12	17361
2026-01-29 22:33:17.92	81.17	29.66	-18.6	-19.1	17.5	0.00e+00	0	39	0	25140658176	12	17564
2026-01-29 22:33:20.86	82.70	29.83	-18.5	-18.9	17.5	0.00e+00	0	39	0	25459425280	12	17145
2026-01-29 22:33:23.79	84.25	29.99	-18.4	-18.9	17.4	0.00e+00	0	39	0	25794969600	12	17133
2026-01-29 22:33:26.73	85.82	30.12	-18.5	-19.0	17.3	0.00e+00	0	39	0	26130513920	12	17272
2026-01-29 22:33:29.66	87.40	30.24	-18.4	-18.9	17.4	0.00e+00	0	39	0	26457669632	12	17067
2026-01-29 22:33:32.60	88.99	30.33	-18.4	-18.8	17.4	0.00e+00	0	39	0	26784825344	12	16933
2026-01-29 22:33:35.54	90.59	30.40	-18.3	-18.7	17.4	0.00e+00	0	39	0	27120369664	12	16780
2026-01-29 22:33:38.48	92.20	30.45	-18.3	-18.8	17.3	0.00e+00	0	39	0	27447525376	12	16846
2026-01-29 22:33:41.42	93.81	30.47	-18.3	-18.7	17.3	0.00e+00	0	39	0	27783069696	12	16749
2026-01-29 22:33:44.36	95.43	30.47	-18.4	-18.8	17.2	0.00e+00	0	39	0	28110225408	12	16952
2026-01-29 22:33:47.30	97.04	30.45	-18.3	-18.7	17.3	0.00e+00	0	39	0	28437381120	12	16780
2026-01-29 22:33:50.23	98.65	30.41	-18.3	-18.8	17.3	0.00e+00	0	39	0	28772925440	12	16852
2026-01-29 22:33:53.16	100.25	30.34	-18.3	-18.8	17.2	0.00e+00	0	39	0	29100081152	12	16836
2026-01-29 22:33:56.10	101.84	30.25	-18.4	-18.9	17.2	0.00e+00	0	39	0	29427236864	12	17018
2026-01-29 22:33:59.03	103.42	30.14	-18.6	-19.0	17.3	0.00e+00	0	39	0	29762781184	12	17264
2026-01-29 22:34:01.96	104.99	30.00	-18.6	-19.0	17.3	0.00e+00	0	39	0	30089936896	12	17329
2026-01-29 22:34:04.89	106.54	29.85	-18.8	-19.2	17.2	0.00e+00	0	39	0	30417092608	12	17706
2026-01-29 22:34:07.83	108.09	29.68	-18.6	-19.0	17.3	0.00e+00	0	39	0	30752636928	12	17347
2026-01-29 22:34:10.76	109.60	29.48	-18.6	-19.1	17.4	0.00e+00	0	39	0	31079792640	12	17416
2026-01-29 22:34:13.69	111.10	29.27	-18.7	-19.1	17.4	0.00e+00	0	39	0	31406948352	12	17578
2026-01-29 22:34:16.62	112.58	29.04	-18.8	-19.3	17.4	0.00e+00	0	39	0	31742492672	12	17843
2026-01-29 22:34:19.55	114.03	28.80	-19.0	-19.4	17.5	0.00e+00	0	39	0	32069648384	12	18076
2026-01-29 22:34:22.49	115.46	28.53	-19.0	-19.5	17.5	0.00e+00	0	39	0	32396804096	12	18240
2026-01-29 22:34:25.41	116.86	28.26	-19.2	-19.6	17.5	0.00e+00	0	39	0	32732348416	12	18548
2026-01-29 22:34:28.34	118.24	27.97	-19.0	-19.4	17.6	0.00e+00	0	39	0	33059504128	12	18215
2026-01-29 22:34:31.27	119.59	27.67	-19.2	-19.6	17.7	0.00e+00	0	39	0	33386659840	12	18629
2026-01-29 22:34:34.20	120.91	27.36	-19.2	-19.6	17.7	0.00e+00	0	39	0	33713815552	12	18498
2026-01-29 22:34:37.13	122.21	27.03	-19.3	-19.8	17.7	0.00e+00	0	39	0	34049359872	12	18867
2026-01-29 22:34:40.07	123.48	26.70	-19.3	-19.7	17.8	0.00e+00	0	39	0	34376515584	12	18764
2026-01-29 22:34:43.00	124.71	26.36	-19.4	-19.8	17.8	0.00e+00	0	39	0	34703671296	12	18959
2026-01-29 22:34:45.93	125.92	26.01	-19.4	-19.9	17.9	0.00e+00	0	39	0	35039215616	12	19126
2026-01-29 22:34:48.86	127.10	25.66	-19.5	-19.9	17.9	0.00e+00	0	39	0	35366371328	12	19237
2026-01-29 22:34:51.80	128.26	25.29	-19.7	-20.2	17.9	0.00e+00	0	39	0	35693527040	14	17619
2026-01-29 22:34:54.73	129.38	24.93	-19.7	-20.2	17.9	0.00e+00	0	39	0	36029071360	14	17625
2026-01-29 22:34:57.66	130.47	24.56	-19.9	-20.4	17.9	0.00e+00	0	39	0	36356227072	14	18016
2026-01-29 22:35:00.60	131.55	24.19	-20.0	-20.4	17.9	0.00e+00	0	39	0	36683382784	14	18216
2026-01-29 22:35:03.54	132.59	23.81	-20.3	-20.8	17.9	0.00e+00	0	39	0	37018927104	14	18893
2026-01-29 22:35:06.47	133.60	23.43	-20.5	-20.9	17.9	0.00e+00	0	39	0	37346082816	14	19225
2026-01-29 22:35:09.41	134.59	23.05	-20.2	-20.7	17.9	0.00e+00	0	39	0	37681627136	14	18785
2026-01-29 22:35:12.35	135.55	22.67	-20.4	-20.9	17.9	0.00e+00	0	39	0	38008782848	14	19131
2026-01-29 22:35:15.33	136.50	22.28	-20.6	-21.0	17.8	0.00e+00	0	39	0	38344327168	14	19497
2026-01-29 22:35:18.28	137.42	21.90	-20.7	-21.2	17.8	0.00e+00	0	39	0	38679871488	14	19770
2026-01-29 22:35:21.22	138.31	21.52	-20.9	-21.4	17.7	0.00e+00	0	39	0	39007027200	16	18035
2026-01-29 22:35:24.14	139.16	21.14	-20.9	-21.4	17.7	0.00e+00	0	39	0	39334182912	16	18071
2026-01-29 22:35:27.06	140.00	20.77	-21.0	-21.5	17.7	0.00e+00	0	39	0	39669727232	16	18252
2026-01-29 22:35:29.99	140.81	20.39	-21.1	-21.6	17.7	0.00e+00	0	39	0	39996882944	16	18620
2026-01-29 22:35:32.91	141.61	20.02	-21.3	-21.8	17.6	0.00e+00	0	39	0	40324038656	16	18907
2026-01-29 22:35:35.83	142.38	19.65	-21.6	-22.0	17.5	0.00e+00	0	39	0	40651194368	16	19488
2026-01-29 22:35:38.75	143.13	19.28	-21.8	-22.3	17.6	0.00e+00	0	39	0	40978350080	18	17807
2026-01-29 22:35:41.68	143.86	18.91	-21.9	-22.3	17.5	0.00e+00	0	39	0	41305505792	18	17990
2026-01-29 22:35:44.60	144.57	18.55	-21.9	-22.3	17.5	0.00e+00	0	39	0	41632661504	18	17950
2026-01-29 22:35:47.54	145.26	18.19	-49.3	-51.8	6.1	0.00e+00	0	39	104	41917874176	60	47664
2026-01-29 22:35:50.47	145.94	17.83	-49.4	-51.9	6.1	0.00e+00	0	39	104	41917874176	60	48195
2026-01-29 22:35:53.40	146.60	17.47	-49.4	-51.9	6.1	0.00e+00	0	39	104	41917874176	60	48258
2026-01-29 22:35:56.34	147.24	17.12	-48.9	-51.5	6.1	0.00e+00	0	39	104	41917874176	60	45797
2026-01-29 22:35:59.27	147.86	16.77	-49.5	-51.9	6.1	0.00e+00	0	39	104	41917874176	60	48385
2026-01-29 22:36:02.20	148.47	16.43	-49.4	-51.9	6.1	0.00e+00	0	39	104	41917874176	60	48040
2026-01-29 22:36:05.12	149.06	16.09	-49.3	-51.8	6.1	0.00e+00	0	39	104	41917874176	60	47658
2026-01-29 22:36:08.06	149.64	15.75	-49.3	-51.8	6.1	0.00e+00	0	39	104	41917874176	60	47650
2026-01-29 22:36:10.98	150.20	15.42	-49.2	-51.7	6.1	0.00e+00	0	39	104	41917874176	60	47223
2026-01-29 22:36:13.92	150.75	15.09	-48.8	-51.3	6.1	0.00e+00	0	39	104	41917874176	60	45150
2026-01-29 22:36:16.85	151.29	14.76	-49.0	-51.5	6.1	0.00e+00	0	39	104	41917874176	60	46267
2026-01-29 22:36:19.78	151.81	14.44	-48.8	-51.3	6.1	0.00e+00	0	39	104	41917874176	60	45091
2026-01-29 22:36:22.71	152.32	14.12	-49.2	-51.7	6.1	0.00e+00	0	39	104	41917874176	60	47030
2026-01-29 22:36:25.64	152.81	13.80	-49.0	-51.5	6.1	0.00e+00	0	39	104	41917874176	60	46207
2026-01-29 22:36:28.57	153.30	13.49	-48.7	-51.2	6.1	0.00e+00	0	39	104	41917874176	60	44349
2026-01-29 22:36:31.51	153.77	13.18	-48.5	-51.0	6.1	0.00e+00	0	39	104	41917874176	60	43588
2026-01-29 22:36:34.44	154.23	12.88	-48.0	-50.5	6.1	0.00e+00	0	39	104	41917874176	60	40879
2026-01-29 22:36:37.37	154.68	12.58	-48.2	-50.7	6.1	0.00e+00	0	39	104	41917874176	60	41813
2026-01-29 22:36:40.30	155.12	12.28	-48.1	-50.6	6.1	0.00e+00	0	39	104	41917874176	60	41273
2026-01-29 22:36:43.24	155.55	11.98	-48.4	-50.9	6.1	0.00e+00	0	39	104	41917874176	60	43136
2026-01-29 22:36:46.17	155.97	11.69	-48.8	-51.3	6.1	0.00e+00	0	39	104	41917874176	60	44742
2026-01-29 22:36:49.10	156.38	11.40	-48.7	-51.2	6.1	0.00e+00	0	39	104	41917874176	60	44534
2026-01-29 22:36:52.03	156.78	11.12	-48.9	-51.4	6.1	0.00e+00	0	39	104	41917874176	60	45351
2026-01-29 22:36:54.96	157.18	10.84	-48.7	-51.3	6.1	0.00e+00	0	39	104	41917874176	60	45058
2026-01-29 22:36:57.89	157.56	10.56	-48.9	-51.5	6.1	0.00e+00	0	39	104	41917874176	60	45828
2026-01-29 22:37:00.84	157.94	10.28	-49.0	-51.5	6.1	0.00e+00	0	39	104	41917874176	60	46122
2026-01-29 22:37:03.75	158.30	10.01	-49.0	-51.5	6.1	0.00e+00	0	39	104	41917874176	60	45912
2026-01-29 22:37:06.68	158.66	9.74	-49.1	-51.6	6.1	0.00e+00	0	39	104	41917874176	60	46708
2026-01-29 22:37:09.61	159.01	9.48	-49.1	-51.6	6.1	0.00e+00	0	39	104	41917874176	60	46609
2026-01-29 22:37:12.54	159.35	9.21	-49.0	-51.5	6.1	0.00e+00	0	39	104	41917874176	60	45861
2026-01-29 22:37:15.48	159.69	8.95	-48.8	-51.4	6.1	0.00e+00	0	39	104	41917874176	60	45366
2026-01-29 22:37:18.42	160.02	8.70	-49.0	-51.5	6.1	0.00e+00	0	39	104	41917874176	60	46112
2026-01-29 22:37:21.36	160.35	8.44	-49.0	-51.5	6.1	0.00e+00	0	39	104	41917874176	60	46029
2026-01-29 22:37:24.30	160.66	8.19	-49.0	-51.5	6.0	0.00e+00	0	39	104	41917874176	60	45842
2026-01-29 22:37:27.23	160.97	7.94	-48.6	-51.2	6.1	0.00e+00	0	39	104	41917874176	60	44345
2026-01-29 22:37:30.16	161.28	7.69	-48.9	-51.4	6.1	0.00e+00	0	39	104	41917874176	60	45655
2026-01-29 22:37:33.09	161.57	7.45	-48.9	-51.4	6.1	0.00e+00	0	39	104	41917874176	60	45304
2026-01-29 22:37:36.02	161.87	7.21	-48.6	-51.1	6.1	0.00e+00	0	39	104	41917874176	60	44006
2026-01-29 22:37:38.95	162.15	6.97	-48.8	-51.3	6.1	0.00e+00	0	39	104	41917874176	60	44929
2026-01-29 22:37:41.90	162.43	6.73	-49.0	-51.4	6.1	0.00e+00	0	39	104	41917874176	60	45676
2026-01-29 22:37:44.84	162.71	6.50	-48.8	-51.3	6.1	0.00e+00	0	39	104	41917874176	60	45122
2026-01-29 22:37:47.78	162.98	6.27	-48.8	-51.3	6.1	0.00e+00	0	39	104	41917874176	60	45157
2026-01-29 22:37:50.72	163.25	6.04	-48.9	-51.3	6.1	0.00e+00	0	39	104	41917874176	60	45207
2026-01-29 22:37:53.65	163.51	5.81	-48.9	-51.4	6.1	0.00e+00	0	39	104	41917874176	60	45433
2026-01-29 22:37:56.58	163.76	5.58	-48.8	-51.3	6.1	0.00e+00	0	39	104	41917874176	60	44859
2026-01-29 22:37:59.52	164.01	5.36	-48.8	-51.3	6.1	0.00e+00	0	39	104	41917874176	60	44906
2026-01-29 22:38:02.46	164.26	5.14	-48.8	-51.3	6.1	0.00e+00	0	39	104	41917874176	60	44997
2026-01-29 22:38:05.40	164.50	4.92	-48.8	-51.2	6.1	0.00e+00	0	39	104	41917874176	60	44597
2026-01-29 22:38:08.34	164.74	4.70	-48.7	-51.2	6.1	0.00e+00	0	39	104	41917874176	60	44412
2026-01-29 22:38:11.28	164.97	4.49	-48.6	-51.1	6.1	0.00e+00	0	39	104	41917874176	60	44142
2026-01-29 22:38:14.21	165.20	4.27	-48.7	-51.2	6.1	0.00e+00	0	39	104	41917874176	60	44280
2026-01-29 22:38:17.14	165.43	4.06	-48.5	-51.0	6.1	0.00e+00	0	39	104	41917874176	60	43348
2026-01-29 22:38:20.06	165.65	3.86	-48.5	-51.0	6.1	0.00e+00	0	39	104	41917874176	60	43454
2026-01-29 22:38:22.99	165.86	3.65	-48.3	-50.9	6.1	0.00e+00	0	39	104	41917874176	60	42720
2026-01-29 22:38:25.93	166.08	3.44	-48.6	-51.1	6.1	0.00e+00	0	39	104	41917874176	60	43898
2026-01-29 22:38:28.86	166.29	3.24	-48.2	-50.7	6.1	0.00e+00	0	39	104	41917874176	60	41974
2026-01-29 22:38:31.80	166.50	3.04	-48.3	-50.8	6.1	0.00e+00	0	39	104	41917874176	60	42484
2026-01-29 22:38:34.73	166.70	2.84	-48.9	-51.4	6.1	0.00e+00	0	39	104	41917874176	60	45489
2026-01-29 22:38:37.66	166.90	2.64	-49.3	-51.8	6.1	0.00e+00	0	39	104	41917874176	60	47468
2026-01-29 22:38:40.58	167.10	2.44	-49.6	-52.1	6.1	0.00e+00	0	39	104	41917874176	60	49168
2026-01-29 22:38:43.52	167.29	2.25	-49.7	-52.2	6.1	0.00e+00	0	39	104	41917874176	60	49960
2026-01-29 22:38:46.45	167.48	2.05	-49.8	-52.3	6.1	0.00e+00	0	39	104	41917874176	60	50421
2026-01-29 22:38:49.38	167.67	1.86	-49.7	-52.2	6.1	0.00e+00	0	39	104	41917874176	60	49938
2026-01-29 22:38:52.33	167.85	1.67	-49.7	-52.1	6.1	0.00e+00	0	39	104	41917874176	60	49500
2026-01-29 22:38:55.26	168.04	1.48	-49.7	-52.2	6.1	0.00e+00	0	39	104	41917874176	60	49942
2026-01-29 22:38:58.19	168.22	1.29	-49.7	-52.2	6.1	0.00e+00	0	39	104	41917874176	60	49805
2026-01-29 22:39:01.13	168.39	1.11	-49.7	-52.2	6.1	0.00e+00	0	39	104	41917874176	60	49990
2026-01-29 22:39:04.06	168.57	0.92	-49.7	-52.2	6.1	0.00e+00	0	39	104	41917874176	60	49997
2026-01-29 22:39:06.99	168.74	0.74	-49.7	-52.2	6.1	0.00e+00	0	39	104	41917874176	60	49866
2026-01-29 22:39:09.92	168.91	0.55	-49.7	-52.2	6.1	0.00e+00	0	39	104	41917874176	60	49959
2026-01-29 22:39:12.86	169.07	0.37	-49.7	-52.2	6.1	0.00e+00	0	39	104	41917874176	60	49860
2026-01-29 22:39:15.80	169.24	0.19	-49.7	-52.2	6.1	0.00e+00	0	39	104	41917874176	60	49851
2026-01-29 22:39:18.73	169.40	0.01	-49.7	-52.1	6.1	0.00e+00	0	39	104	41917874176	60	49468

#Closed at: 2026-01-29 22:39:20
#Recorded file [41917 MB]: D:/lorett/data/35029_260130_102836.dat