passes_logs/2026/01/29/R4.6S_Anadyr/R4.6S_Anadyr__20260129_041454_FENGYUN_3D_rec.log

#Pass ID: 20260129_041454_FENGYUN 3D
#Satellite: FENGYUN 3D
#Configuration: FENGYUN 3D
#almurnet v.1.7.20251203
#Start time: 2026-01-29 04:14:57

#Version: 2.2.20231116
#Station: R4.6S_Anadyr
#Location: 177.4865 lon 64.73178 lat
#TLE: 1 43010U 17072A   26027.97130493  .00000326  00000+0  17586-3 0  9998
#TLE: 2 43010  98.9960 359.9900 0002514  87.8428 272.3036 14.19701925425097

#Time	Az	El	Level	Level2	SNR	BER	BlckErr	Temp	State	Recorded	gain1	gain2
2026-01-29 04:14:57.54	207.13	0.17	-48.8	-59.4	3.3	8.41e-01	0	31	0	0	60	33916
2026-01-29 04:15:01.57	207.39	0.39	-48.8	-60.9	3.6	8.45e-01	0	31	104	0	60	39940
2026-01-29 04:15:05.61	207.65	0.60	-48.7	-60.8	3.6	8.44e-01	0	31	104	0	60	39746
2026-01-29 04:15:09.65	207.91	0.82	-48.6	-60.7	3.6	8.46e-01	0	31	104	0	60	39349
2026-01-29 04:15:13.69	208.17	1.04	-48.4	-60.6	3.6	8.45e-01	0	31	104	0	60	38588
2026-01-29 04:15:17.73	208.44	1.25	-47.8	-60.1	3.6	8.45e-01	0	31	104	0	60	36437
2026-01-29 04:15:21.77	208.72	1.47	-47.2	-59.2	3.6	8.45e-01	0	31	104	0	60	33091
2026-01-29 04:15:25.81	208.99	1.70	-47.2	-59.2	3.6	8.45e-01	0	32	104	0	60	33096
2026-01-29 04:15:29.85	209.28	1.92	-47.1	-59.0	3.6	8.46e-01	0	32	104	0	60	32350
2026-01-29 04:15:33.89	209.56	2.14	-47.1	-58.8	3.5	8.45e-01	0	32	104	0	60	31558
2026-01-29 04:15:37.93	209.85	2.37	-47.1	-58.9	3.6	8.46e-01	0	32	104	0	60	32004
2026-01-29 04:15:41.97	210.14	2.59	-46.9	-57.1	3.6	8.44e-01	0	32	104	0	60	25864
2026-01-29 04:15:46.01	210.44	2.82	-43.3	-45.7	12.4	1.74e-03	0	32	0	9437184	60	7002
2026-01-29 04:15:50.05	210.74	3.05	-40.3	-41.7	16.5	0.00e+00	0	32	0	32505856	54	6179
2026-01-29 04:15:54.09	211.05	3.28	-40.9	-42.5	15.6	0.00e+00	0	32	0	55574528	54	6791
2026-01-29 04:15:58.13	211.36	3.51	-36.2	-37.0	21.5	0.00e+00	0	32	0	66060288	46	5737
2026-01-29 04:16:02.17	211.68	3.74	-35.9	-36.7	21.6	0.00e+00	0	32	0	89128960	44	6238
2026-01-29 04:16:06.21	212.00	3.97	-35.2	-36.0	22.4	0.00e+00	0	32	0	111149056	44	5711
2026-01-29 04:16:10.24	212.32	4.21	-35.0	-35.8	22.4	0.00e+00	0	32	0	134217728	44	5592
2026-01-29 04:16:14.28	212.66	4.44	-34.7	-35.5	23.0	0.00e+00	0	32	0	157286400	42	6051
2026-01-29 04:16:18.32	212.99	4.68	-35.0	-35.8	22.8	0.00e+00	0	32	0	179306496	42	6270
2026-01-29 04:16:22.36	213.33	4.92	-35.2	-36.0	22.6	0.00e+00	0	32	0	202375168	42	6423
2026-01-29 04:16:26.40	213.68	5.16	-35.1	-35.9	22.7	0.00e+00	0	32	0	225443840	42	6321
2026-01-29 04:16:30.44	214.03	5.40	-34.8	-35.6	23.0	0.00e+00	0	32	0	247463936	42	6120
2026-01-29 04:16:34.48	214.39	5.64	-34.8	-35.5	23.1	0.00e+00	0	32	0	270532608	42	6066
2026-01-29 04:16:38.52	214.75	5.88	-34.5	-35.3	23.3	0.00e+00	0	32	0	293601280	42	5902
2026-01-29 04:16:42.57	215.12	6.13	-34.6	-35.4	23.4	0.00e+00	0	32	0	315621376	42	5984
2026-01-29 04:16:46.61	215.50	6.38	-34.5	-35.3	23.4	0.00e+00	0	32	0	338690048	42	5912
2026-01-29 04:16:50.65	215.88	6.63	-34.4	-35.1	23.5	0.00e+00	0	32	0	361758720	42	5820
2026-01-29 04:16:54.68	216.27	6.87	-34.2	-34.9	23.7	0.00e+00	0	32	0	383778816	42	5650
2026-01-29 04:16:58.72	216.66	7.12	-34.0	-34.7	24.0	0.00e+00	0	32	0	406847488	42	5542
2026-01-29 04:17:02.76	217.06	7.38	-34.1	-34.8	23.9	0.00e+00	0	32	0	429916160	42	5583
2026-01-29 04:17:06.80	217.47	7.63	-33.9	-34.6	24.1	0.00e+00	0	32	0	451936256	42	5465
2026-01-29 04:17:10.84	217.88	7.88	-34.0	-34.7	24.0	0.00e+00	0	32	0	475004928	42	5544
2026-01-29 04:17:14.87	218.30	8.14	-33.9	-34.7	24.2	0.00e+00	0	32	0	498073600	42	5503
2026-01-29 04:17:18.91	218.73	8.40	-34.0	-34.7	24.1	0.00e+00	0	32	0	520093696	42	5539
2026-01-29 04:17:22.95	219.17	8.65	-33.9	-34.6	24.2	0.00e+00	0	32	0	543162368	42	5490
2026-01-29 04:17:26.99	219.61	8.91	-33.7	-34.4	24.4	0.00e+00	0	32	0	566231040	42	5348
2026-01-29 04:17:31.03	220.06	9.18	-33.5	-34.2	24.6	0.00e+00	0	32	0	588251136	40	5875
2026-01-29 04:17:35.07	220.52	9.44	-33.8	-34.5	24.3	0.00e+00	0	32	0	611319808	40	6059
2026-01-29 04:17:39.11	220.99	9.70	-33.6	-34.3	24.5	0.00e+00	0	32	0	634388480	40	5949
2026-01-29 04:17:43.15	221.46	9.96	-33.3	-34.0	24.8	0.00e+00	0	32	0	656408576	40	5697
2026-01-29 04:17:47.18	221.95	10.23	-33.1	-33.8	25.0	0.00e+00	0	32	0	679477248	40	5580
2026-01-29 04:17:51.22	222.44	10.50	-33.2	-33.8	24.9	0.00e+00	0	32	0	702545920	40	5613
2026-01-29 04:17:55.26	222.94	10.76	-33.0	-33.7	25.1	0.00e+00	0	32	0	724566016	40	5548
2026-01-29 04:17:59.30	223.45	11.03	-33.0	-33.7	25.1	0.00e+00	0	32	0	747634688	40	5515
2026-01-29 04:18:03.34	223.97	11.30	-33.1	-33.8	25.0	0.00e+00	0	32	0	770703360	40	5582
2026-01-29 04:18:07.38	224.50	11.57	-33.1	-33.8	25.0	0.00e+00	0	32	0	792723456	40	5592
2026-01-29 04:18:11.43	225.03	11.84	-33.1	-33.8	25.1	0.00e+00	0	32	0	815792128	40	5567
2026-01-29 04:18:15.46	225.58	12.12	-33.2	-33.8	25.0	0.00e+00	0	32	0	838860800	40	5626
2026-01-29 04:18:19.50	226.14	12.39	-33.0	-33.7	25.1	0.00e+00	0	32	0	860880896	40	5508
2026-01-29 04:18:23.54	226.70	12.66	-33.1	-33.8	24.9	0.00e+00	0	32	0	883949568	40	5627
2026-01-29 04:18:27.58	227.28	12.94	-33.1	-33.8	25.0	0.00e+00	0	32	0	907018240	40	5567
2026-01-29 04:18:31.62	227.87	13.21	-32.7	-33.4	25.3	0.00e+00	0	32	0	929038336	40	5371
2026-01-29 04:18:35.66	228.47	13.48	-32.5	-33.1	25.6	0.00e+00	0	32	0	952107008	38	5824
2026-01-29 04:18:39.70	229.08	13.76	-32.4	-33.0	25.7	0.00e+00	0	32	0	975175680	38	5743
2026-01-29 04:18:43.73	229.70	14.03	-32.4	-33.0	25.7	0.00e+00	0	32	0	997195776	38	5753
2026-01-29 04:18:47.77	230.33	14.31	-32.5	-33.1	25.7	0.00e+00	0	32	0	1020264448	38	5814
2026-01-29 04:18:51.80	230.97	14.58	-32.5	-33.1	25.7	0.00e+00	0	32	0	1043333120	38	5824
2026-01-29 04:18:55.84	231.62	14.86	-32.4	-33.1	25.7	0.00e+00	0	32	0	1065353216	38	5797
2026-01-29 04:18:59.88	232.29	15.13	-32.2	-32.8	25.9	0.00e+00	0	32	0	1088421888	38	5601
2026-01-29 04:19:03.91	232.97	15.40	-32.1	-32.8	26.0	0.00e+00	0	32	0	1111490560	38	5591
2026-01-29 04:19:07.95	233.66	15.68	-31.8	-32.5	26.2	0.00e+00	0	32	0	1133510656	38	5409
2026-01-29 04:19:11.99	234.36	15.95	-32.0	-32.7	26.1	0.00e+00	0	32	0	1156579328	36	6199
2026-01-29 04:19:16.03	235.08	16.22	-31.7	-32.4	26.3	0.00e+00	0	32	0	1179648000	36	5977
2026-01-29 04:19:20.07	235.80	16.49	-31.7	-32.4	26.3	0.00e+00	0	32	0	1201668096	36	5998
2026-01-29 04:19:24.10	236.54	16.75	-31.5	-32.1	26.6	0.00e+00	0	32	0	1224736768	36	5827
2026-01-29 04:19:28.14	237.29	17.02	-31.6	-32.2	26.5	0.00e+00	0	32	0	1246756864	36	5863
2026-01-29 04:19:32.18	238.06	17.29	-31.4	-32.0	26.7	0.00e+00	0	32	0	1269825536	36	5759
2026-01-29 04:19:36.21	238.84	17.55	-31.3	-31.9	26.8	0.00e+00	0	32	0	1292894208	36	5657
2026-01-29 04:19:40.25	239.63	17.81	-31.1	-31.8	26.9	0.00e+00	0	32	0	1315962880	36	5578
2026-01-29 04:19:44.30	240.44	18.06	-31.1	-31.7	27.0	0.00e+00	0	32	0	1337982976	36	5564
2026-01-29 04:19:48.33	241.26	18.32	-31.3	-31.9	26.8	0.00e+00	0	32	0	1361051648	36	5680
2026-01-29 04:19:52.36	242.09	18.57	-31.3	-32.0	26.7	0.00e+00	0	32	0	1384120320	36	5700
2026-01-29 04:19:56.40	242.93	18.82	-30.9	-31.6	27.0	0.00e+00	0	32	0	1406140416	36	5451
2026-01-29 04:20:00.44	243.79	19.06	-31.0	-31.6	27.0	0.00e+00	0	32	0	1429209088	36	5491
2026-01-29 04:20:04.48	244.66	19.30	-30.8	-31.4	27.2	0.00e+00	0	32	0	1451229184	36	5343
2026-01-29 04:20:08.52	245.55	19.54	-30.8	-31.4	27.1	0.00e+00	0	32	0	1474297856	34	5992
2026-01-29 04:20:12.55	246.45	19.77	-31.0	-31.6	27.0	0.00e+00	0	32	0	1497366528	34	6169
2026-01-29 04:20:16.59	247.36	19.99	-30.5	-31.2	27.3	0.00e+00	0	32	0	1519386624	34	5845
2026-01-29 04:20:20.63	248.28	20.21	-30.8	-31.4	27.1	0.00e+00	0	32	0	1542455296	34	6028
2026-01-29 04:20:24.66	249.22	20.43	-30.7	-31.4	27.2	0.00e+00	0	32	0	1565523968	34	5980
2026-01-29 04:20:28.70	250.17	20.64	-30.5	-31.1	27.5	0.00e+00	0	32	0	1588592640	34	5779
2026-01-29 04:20:32.74	251.13	20.84	-30.4	-31.0	27.5	0.00e+00	0	32	0	1610612736	34	5732
2026-01-29 04:20:36.77	252.11	21.04	-30.4	-31.0	27.4	0.00e+00	0	32	0	1633681408	34	5730
2026-01-29 04:20:40.81	253.09	21.23	-30.3	-30.9	27.4	0.00e+00	0	32	0	1655701504	34	5679
2026-01-29 04:20:44.85	254.09	21.41	-30.5	-31.1	27.4	0.00e+00	0	32	0	1678770176	34	5805
2026-01-29 04:20:48.88	255.10	21.58	-30.3	-30.9	27.5	0.00e+00	0	32	0	1701838848	34	5662
2026-01-29 04:20:52.92	256.12	21.75	-30.3	-30.9	27.5	0.00e+00	0	32	0	1723858944	34	5680
2026-01-29 04:20:56.96	257.15	21.91	-30.4	-31.1	27.4	0.00e+00	0	32	0	1746927616	34	5776
2026-01-29 04:21:01.00	258.20	22.06	-30.1	-30.7	27.7	0.00e+00	0	32	0	1769996288	34	5563
2026-01-29 04:21:05.04	259.25	22.20	-29.9	-30.5	27.8	0.00e+00	0	32	0	1792016384	34	5427
2026-01-29 04:21:09.08	260.31	22.34	-30.1	-30.7	27.6	0.00e+00	0	32	0	1815085056	34	5525
2026-01-29 04:21:13.12	261.38	22.46	-30.1	-30.8	27.6	0.00e+00	0	32	0	1838153728	34	5588
2026-01-29 04:21:17.16	262.45	22.57	-30.2	-30.8	27.5	0.00e+00	0	32	0	1860173824	34	5614
2026-01-29 04:21:21.19	263.53	22.68	-30.1	-30.7	27.7	0.00e+00	0	32	0	1883242496	34	5531
2026-01-29 04:21:25.23	264.63	22.77	-30.1	-30.7	27.6	0.00e+00	0	32	0	1906311168	34	5536
2026-01-29 04:21:29.27	265.72	22.85	-29.7	-30.3	28.0	0.00e+00	0	32	0	1928331264	32	5939
2026-01-29 04:21:33.31	266.82	22.93	-29.9	-30.5	27.9	0.00e+00	0	32	0	1951399936	32	6092
2026-01-29 04:21:37.34	267.93	22.99	-29.7	-30.3	28.0	0.00e+00	0	32	0	1974468608	32	5951
2026-01-29 04:21:41.38	269.04	23.04	-30.3	-30.9	27.5	0.00e+00	0	32	0	1996488704	32	6349
2026-01-29 04:21:45.43	270.15	23.08	-29.9	-30.6	27.8	0.00e+00	0	32	0	2019557376	32	6118
2026-01-29 04:21:49.46	271.27	23.11	-30.0	-30.6	27.7	0.00e+00	0	32	0	2042626048	32	6135
2026-01-29 04:21:53.51	272.39	23.13	-29.8	-30.4	27.8	0.00e+00	0	32	0	2064646144	32	6010
2026-01-29 04:21:57.55	273.51	23.14	-30.1	-30.7	27.6	0.00e+00	0	32	0	2087714816	32	6234
2026-01-29 04:22:01.58	274.62	23.14	-30.1	-30.7	27.7	0.00e+00	0	32	0	2110783488	32	6218
2026-01-29 04:22:05.62	275.74	23.12	-29.9	-30.5	27.8	0.00e+00	0	32	0	2132803584	32	6053
2026-01-29 04:22:09.66	276.86	23.10	-29.9	-30.5	27.7	0.00e+00	0	32	0	2155872256	32	6049
2026-01-29 04:22:13.70	277.97	23.06	-29.8	-30.5	27.6	0.00e+00	0	32	0	2178940928	32	6044
2026-01-29 04:22:17.73	279.08	23.01	-29.9	-30.6	27.8	0.00e+00	0	32	0	2200961024	32	6143
2026-01-29 04:22:21.77	280.19	22.95	-30.0	-30.6	27.7	0.00e+00	0	32	0	2224029696	32	6162
2026-01-29 04:22:25.81	281.29	22.88	-30.1	-30.7	27.6	0.00e+00	0	32	0	2247098368	32	6224
2026-01-29 04:22:29.84	282.38	22.81	-30.2	-30.8	27.6	0.00e+00	0	32	0	2269118464	32	6249
2026-01-29 04:22:33.88	283.48	22.72	-29.9	-30.5	27.8	0.00e+00	0	32	0	2292187136	32	6072
2026-01-29 04:22:37.92	284.56	22.62	-30.1	-30.8	27.6	0.00e+00	0	32	0	2315255808	32	6315
2026-01-29 04:22:41.96	285.64	22.51	-30.1	-30.7	27.7	0.00e+00	0	32	0	2337275904	32	6235
2026-01-29 04:22:46.00	286.71	22.39	-30.2	-30.8	27.5	0.00e+00	0	32	0	2360344576	32	6287
2026-01-29 04:22:50.03	287.77	22.26	-30.2	-30.8	27.6	0.00e+00	0	32	0	2383413248	32	6263
2026-01-29 04:22:54.07	288.82	22.12	-30.3	-30.8	27.6	0.00e+00	0	32	0	2405433344	32	6312
2026-01-29 04:22:58.11	289.86	21.97	-30.2	-30.9	27.6	0.00e+00	0	32	0	2428502016	32	6357
2026-01-29 04:23:02.15	290.90	21.82	-30.2	-30.7	27.6	0.00e+00	0	32	0	2451570688	32	6230
2026-01-29 04:23:06.19	291.92	21.66	-30.3	-30.9	27.5	0.00e+00	0	32	0	2473590784	32	6361
2026-01-29 04:23:10.23	292.93	21.48	-30.8	-31.4	27.1	0.00e+00	0	32	0	2496659456	34	5982
2026-01-29 04:23:14.26	293.93	21.31	-30.8	-31.5	27.0	0.00e+00	0	32	0	2519728128	34	6051
2026-01-29 04:23:18.30	294.92	21.12	-30.5	-31.1	27.2	0.00e+00	0	32	0	2541748224	34	5828
2026-01-29 04:23:22.33	295.89	20.93	-31.1	-31.8	27.2	0.00e+00	0	32	0	2564816896	34	6273
2026-01-29 04:23:26.37	296.86	20.73	-30.7	-31.4	27.3	0.00e+00	0	32	0	2587885568	34	5981
2026-01-29 04:23:30.41	297.81	20.52	-30.8	-31.4	27.3	0.00e+00	0	32	0	2609905664	34	6009
2026-01-29 04:23:34.45	298.75	20.31	-30.8	-31.4	27.4	0.00e+00	0	32	0	2632974336	34	6020
2026-01-29 04:23:38.49	299.68	20.09	-30.9	-31.6	27.1	0.00e+00	0	32	0	2654994432	34	6134
2026-01-29 04:23:42.52	300.59	19.87	-30.8	-31.5	27.3	0.00e+00	0	32	0	2678063104	34	6092
2026-01-29 04:23:46.56	301.49	19.64	-31.0	-31.6	27.0	0.00e+00	0	32	0	2701131776	34	6142
2026-01-29 04:23:50.60	302.38	19.41	-31.1	-31.7	26.9	0.00e+00	0	32	0	2724200448	34	6181
2026-01-29 04:23:54.64	303.25	19.17	-31.0	-31.6	27.0	0.00e+00	0	32	0	2746220544	34	6124
2026-01-29 04:23:58.68	304.12	18.93	-31.4	-32.0	26.7	0.00e+00	0	32	0	2769289216	34	6444
2026-01-29 04:24:02.72	304.96	18.69	-31.3	-32.0	26.8	0.00e+00	0	32	0	2792357888	34	6400
2026-01-29 04:24:06.76	305.80	18.44	-31.1	-31.8	27.0	0.00e+00	0	32	0	2814377984	34	6263
2026-01-29 04:24:10.80	306.62	18.19	-31.5	-32.2	26.7	0.00e+00	0	32	0	2837446656	34	6560
2026-01-29 04:24:14.84	307.43	17.93	-31.3	-31.9	26.7	0.00e+00	0	32	0	2859466752	34	6333
2026-01-29 04:24:18.88	308.22	17.68	-31.9	-32.6	26.4	0.00e+00	0	32	0	2882535424	36	6146
2026-01-29 04:24:22.92	309.00	17.42	-31.9	-32.6	26.4	0.00e+00	0	32	0	2905604096	36	6168
2026-01-29 04:24:26.95	309.77	17.16	-32.1	-32.9	26.2	0.00e+00	0	32	0	2928672768	36	6343
2026-01-29 04:24:30.99	310.53	16.89	-31.9	-32.6	26.3	0.00e+00	0	32	0	2950692864	36	6133
2026-01-29 04:24:35.03	311.27	16.63	-31.8	-32.4	26.2	0.00e+00	0	32	0	2973761536	36	5986
2026-01-29 04:24:39.07	312.00	16.36	-31.7	-32.3	26.3	0.00e+00	0	32	0	2996830208	36	5900
2026-01-29 04:24:43.11	312.72	16.09	-31.8	-32.4	26.1	0.00e+00	0	32	0	3018850304	36	5980
2026-01-29 04:24:47.14	313.42	15.82	-32.1	-32.8	26.1	0.00e+00	0	32	0	3041918976	36	6297
2026-01-29 04:24:51.18	314.11	15.55	-32.1	-32.7	26.1	0.00e+00	0	32	0	3063939072	36	6192
2026-01-29 04:24:55.22	314.80	15.28	-32.3	-33.1	25.9	0.00e+00	0	32	0	3087007744	36	6475
2026-01-29 04:24:59.26	315.46	15.01	-32.6	-33.3	25.8	0.00e+00	0	32	0	3110076416	38	5922
2026-01-29 04:25:03.29	316.12	14.74	-32.5	-33.1	25.7	0.00e+00	0	32	0	3132096512	38	5823
2026-01-29 04:25:07.33	316.77	14.47	-32.4	-33.1	25.8	0.00e+00	0	32	0	3155165184	38	5824
2026-01-29 04:25:11.37	317.40	14.20	-32.6	-33.4	25.6	0.00e+00	0	32	0	3178233856	38	5972
2026-01-29 04:25:15.40	318.02	13.92	-32.4	-33.0	25.8	0.00e+00	0	32	0	3201302528	38	5707
2026-01-29 04:25:19.44	318.63	13.65	-32.6	-33.2	25.6	0.00e+00	0	32	0	3223322624	38	5863
2026-01-29 04:25:23.48	319.24	13.38	-32.6	-33.3	25.6	0.00e+00	0	32	0	3246391296	38	5928
2026-01-29 04:25:27.52	319.83	13.11	-32.7	-33.3	25.5	0.00e+00	0	32	0	3268411392	38	5933
2026-01-29 04:25:31.56	320.41	12.83	-32.9	-33.6	25.3	0.00e+00	0	32	0	3291480064	38	6165
2026-01-29 04:25:35.59	320.98	12.56	-32.8	-33.4	25.4	0.00e+00	0	32	0	3314548736	38	5995
2026-01-29 04:25:39.63	321.54	12.29	-33.0	-33.5	25.2	0.00e+00	0	32	0	3336568832	38	6102
2026-01-29 04:25:43.67	322.09	12.02	-33.0	-33.8	25.2	0.00e+00	0	32	0	3359637504	38	6282
2026-01-29 04:25:47.71	322.63	11.75	-33.3	-34.1	24.9	0.00e+00	0	32	0	3382706176	38	6476
2026-01-29 04:25:51.75	323.16	11.49	-33.9	-34.6	24.4	0.00e+00	0	32	0	3404726272	40	6160
2026-01-29 04:25:55.78	323.68	11.22	-34.6	-35.4	23.9	0.00e+00	0	32	0	3427794944	40	6714
2026-01-29 04:25:59.82	324.19	10.95	-34.1	-34.8	24.0	0.00e+00	0	32	0	3450863616	40	6283
2026-01-29 04:26:03.86	324.69	10.69	-33.8	-34.6	24.4	0.00e+00	0	32	0	3472883712	40	6115
2026-01-29 04:26:07.90	325.19	10.42	-33.9	-34.7	24.2	0.00e+00	0	32	0	3495952384	40	6183
2026-01-29 04:26:11.94	325.68	10.16	-33.6	-34.3	24.6	0.00e+00	0	32	0	3519021056	40	5949
2026-01-29 04:26:15.97	326.15	9.90	-33.5	-34.3	24.6	0.00e+00	0	32	0	3541041152	40	5912
2026-01-29 04:26:20.01	326.62	9.63	-33.8	-34.5	24.4	0.00e+00	0	32	0	3564109824	40	6076
2026-01-29 04:26:24.05	327.09	9.37	-34.0	-34.8	24.0	0.00e+00	0	32	0	3587178496	40	6278
2026-01-29 04:26:28.09	327.54	9.11	-34.5	-35.1	23.6	0.00e+00	0	32	0	3609198592	40	6535
2026-01-29 04:26:32.13	327.99	8.86	-34.3	-34.9	23.5	0.00e+00	0	32	0	3632267264	40	6383
2026-01-29 04:26:36.17	328.43	8.60	-33.7	-34.5	24.4	0.00e+00	0	32	0	3655335936	40	6074
2026-01-29 04:26:40.21	328.86	8.34	-33.7	-34.3	24.2	0.00e+00	0	32	0	3677356032	40	5958
2026-01-29 04:26:44.25	329.28	8.09	-34.1	-34.8	23.9	0.00e+00	0	32	0	3700424704	40	6313
2026-01-29 04:26:48.29	329.70	7.84	-34.1	-34.9	23.8	0.00e+00	0	32	0	3723493376	40	6382
2026-01-29 04:26:52.32	330.11	7.59	-34.5	-35.3	23.4	0.00e+00	0	32	0	3745513472	40	6661
2026-01-29 04:26:56.37	330.52	7.33	-34.9	-35.6	23.0	0.00e+00	0	32	0	3768582144	42	6133
2026-01-29 04:27:00.41	330.91	7.08	-35.2	-36.0	22.7	0.00e+00	0	32	0	3791650816	42	6440
2026-01-29 04:27:04.45	331.31	6.84	-35.3	-36.0	22.4	0.00e+00	0	32	0	3813670912	42	6460
2026-01-29 04:27:08.49	331.69	6.59	-35.3	-36.0	22.5	0.00e+00	0	32	0	3836739584	44	5720
2026-01-29 04:27:12.53	332.07	6.35	-34.8	-35.5	23.0	0.00e+00	0	32	0	3859808256	42	6065
2026-01-29 04:27:16.56	332.44	6.10	-35.1	-35.8	22.7	0.00e+00	0	32	0	3881828352	42	6279
2026-01-29 04:27:20.60	332.81	5.86	-35.2	-35.9	22.3	0.00e+00	0	32	0	3904897024	42	6390
2026-01-29 04:27:24.64	333.17	5.62	-36.2	-37.0	20.8	0.00e+00	0	32	0	3927965696	44	6441
2026-01-29 04:27:28.67	333.53	5.38	-37.9	-39.0	17.9	0.00e+00	0	32	0	3949985792	48	6435
2026-01-29 04:27:32.71	333.88	5.14	-40.3	-42.3	13.7	8.00e-06	0	32	0	3973054464	52	7476
2026-01-29 04:27:36.75	334.22	4.90	-42.1	-45.9	8.7	2.84e-02	0	32	0	3996123136	56	8932
2026-01-29 04:27:40.79	334.56	4.67	-42.9	-48.4	5.2	3.43e-01	0	32	0	4018143232	58	10643
2026-01-29 04:27:44.83	334.90	4.43	-43.2	-50.7	3.7	8.30e-01	0	32	0	4020240384	58	13836
2026-01-29 04:27:48.87	335.23	4.20	-43.3	-54.0	3.6	8.44e-01	0	32	104	4020240384	58	20271
2026-01-29 04:27:52.91	335.55	3.97	-43.5	-55.4	3.6	8.45e-01	0	32	104	4020240384	58	23865
2026-01-29 04:27:56.95	335.87	3.74	-43.5	-55.1	3.6	8.45e-01	0	32	104	4020240384	58	23178
2026-01-29 04:28:00.98	336.19	3.51	-43.4	-55.4	3.6	8.45e-01	0	32	104	4020240384	58	23915
2026-01-29 04:28:05.02	336.50	3.28	-43.5	-55.5	3.6	8.45e-01	0	32	104	4020240384	58	24065
2026-01-29 04:28:09.06	336.80	3.05	-43.6	-55.6	3.6	8.45e-01	0	32	104	4020240384	58	24420
2026-01-29 04:28:13.10	337.11	2.83	-48.0	-60.1	3.6	8.45e-01	0	32	104	4020240384	60	36478
2026-01-29 04:28:17.14	337.40	2.60	-48.5	-60.6	3.6	8.46e-01	0	32	104	4020240384	60	38888
2026-01-29 04:28:21.18	337.70	2.38	-48.7	-60.8	3.6	8.46e-01	0	32	104	4020240384	60	39558
2026-01-29 04:28:25.22	337.99	2.16	-48.7	-60.8	3.6	8.44e-01	0	32	104	4020240384	60	39851
2026-01-29 04:28:29.26	338.27	1.94	-48.6	-60.8	3.6	8.46e-01	0	32	104	4020240384	60	39559
2026-01-29 04:28:33.30	338.55	1.72	-48.6	-60.8	3.6	8.47e-01	0	32	104	4020240384	60	39440
2026-01-29 04:28:37.34	338.83	1.50	-48.6	-60.8	3.6	8.44e-01	0	32	104	4020240384	60	39476
2026-01-29 04:28:41.38	339.11	1.28	-48.7	-60.8	3.6	8.46e-01	0	32	104	4020240384	60	39715
2026-01-29 04:28:45.43	339.38	1.06	-48.5	-60.7	3.6	8.45e-01	0	32	104	4020240384	60	39146
2026-01-29 04:28:49.47	339.64	0.85	-48.6	-60.7	3.6	8.47e-01	0	32	104	4020240384	60	39113
2026-01-29 04:28:53.51	339.91	0.64	-48.6	-60.8	3.6	8.45e-01	0	32	104	4020240384	60	39448
2026-01-29 04:28:57.54	340.17	0.42	-48.5	-60.7	3.6	8.45e-01	0	32	104	4020240384	60	39004
2026-01-29 04:29:01.58	340.42	0.21	-48.6	-60.8	3.6	8.44e-01	0	32	104	4020240384	60	39613
2026-01-29 04:29:05.62	340.67	0.00	-48.6	-60.7	3.6	8.46e-01	0	32	104	4020240384	60	39388

#Closed at: 2026-01-29 04:29:08
#Recorded file [4020 MB]: D:/lorett/data/35029_260129_161457.dat