passes_logs/2026/01/29/R4.6S_Anadyr/R4.6S_Anadyr__20260129_004058_KOSAR1-5_rec.log

#Pass ID: 20260129_004058_KOSAR1-5
#Satellite: KOSAR1-5
#Configuration: KOSAR1-5
#almurnet v.1.7.20251203
#Start time: 2026-01-29 00:41:02

#Version: 2.2.20231116
#Station: R4.6S_Anadyr
#Location: 177.4865 lon 64.73178 lat
#TLE: 1 67264U 25313S   26027.76143924  .00010916  00000+0  50329-3 0  9990
#TLE: 2 67264  97.4176 104.7207 0016474 138.6036 221.6451 15.20309833  4594

#Time	Az	El	Level	Level2	SNR	BER	BlckErr	Temp	State	Recorded	gain1	gain2
2026-01-29 00:41:02.29	16.59	0.22	-46.0	-59.2	3.3	1.54e+00	0	30	0	0	60	37147
2026-01-29 00:41:05.31	16.46	0.41	-45.5	-60.2	3.6	1.51e+00	0	30	104	0	60	41715
2026-01-29 00:41:08.34	16.32	0.60	-45.5	-60.3	3.6	1.51e+00	0	30	104	0	60	41840
2026-01-29 00:41:11.37	16.18	0.79	-45.6	-60.3	3.6	1.51e+00	0	30	104	0	60	41786
2026-01-29 00:41:14.40	16.04	0.98	-45.5	-60.2	3.6	1.51e+00	0	30	104	0	60	41430
2026-01-29 00:41:17.43	15.90	1.17	-45.3	-60.0	3.6	1.51e+00	0	31	104	0	60	40626
2026-01-29 00:41:20.46	15.75	1.37	-44.8	-59.5	3.6	1.51e+00	0	31	104	0	60	38174
2026-01-29 00:41:23.49	15.60	1.57	-44.3	-59.1	3.6	1.51e+00	0	31	104	0	60	36369
2026-01-29 00:41:26.52	15.45	1.77	-44.3	-59.0	3.6	1.51e+00	0	31	104	0	60	36186
2026-01-29 00:41:29.55	15.29	1.97	-44.3	-59.0	3.6	1.51e+00	0	31	104	0	60	35955
2026-01-29 00:41:32.58	15.13	2.17	-44.3	-59.0	3.6	1.51e+00	0	31	104	0	60	35994
2026-01-29 00:41:35.61	14.97	2.38	-44.3	-59.0	3.6	1.51e+00	0	31	104	0	60	36155
2026-01-29 00:41:38.64	14.81	2.58	-44.3	-59.0	3.6	1.51e+00	0	31	104	0	60	36121
2026-01-29 00:41:41.67	14.64	2.79	-44.3	-59.0	3.6	1.51e+00	0	31	104	0	60	36083
2026-01-29 00:41:44.70	14.47	3.00	-44.3	-59.0	3.6	1.51e+00	0	31	104	0	60	35991
2026-01-29 00:41:47.73	14.29	3.21	-44.3	-59.0	3.6	1.51e+00	0	31	104	0	60	35983
2026-01-29 00:41:50.76	14.12	3.42	-44.3	-59.0	3.6	1.51e+00	0	31	104	0	60	35976
2026-01-29 00:41:53.79	13.93	3.64	-44.3	-58.9	3.6	1.51e+00	0	31	104	0	60	35914
2026-01-29 00:41:56.82	13.75	3.86	-44.3	-59.0	3.6	1.51e+00	0	31	104	0	60	36016
2026-01-29 00:41:59.85	13.56	4.08	-44.3	-59.1	3.6	1.51e+00	0	31	104	0	60	36440
2026-01-29 00:42:02.88	13.37	4.30	-44.5	-59.2	3.6	1.51e+00	0	31	104	0	60	36962
2026-01-29 00:42:05.91	13.17	4.52	-44.4	-59.0	3.5	1.51e+00	0	31	104	0	60	36264
2026-01-29 00:42:08.94	12.97	4.75	-44.5	-59.2	3.6	1.51e+00	0	31	104	0	60	37130
2026-01-29 00:42:11.97	12.76	4.98	-44.5	-59.2	3.6	1.51e+00	0	31	104	0	60	36843
2026-01-29 00:42:15.00	12.55	5.21	-44.5	-59.2	3.6	1.51e+00	0	31	104	0	60	37181
2026-01-29 00:42:18.02	12.34	5.44	-44.5	-59.2	3.6	1.51e+00	0	31	104	0	60	36849
2026-01-29 00:42:21.05	12.12	5.68	-44.6	-59.3	3.6	1.51e+00	0	31	104	0	60	37578
2026-01-29 00:42:24.08	11.89	5.92	-44.5	-59.3	3.6	1.51e+00	0	31	104	0	60	37208
2026-01-29 00:42:27.11	11.66	6.16	-44.7	-59.5	3.6	1.51e+00	0	31	104	0	60	38079
2026-01-29 00:42:30.13	11.43	6.40	-44.6	-59.3	3.6	1.51e+00	0	31	104	0	60	37561
2026-01-29 00:42:33.16	11.19	6.65	-44.7	-59.5	3.6	1.51e+00	0	31	104	0	60	38145
2026-01-29 00:42:36.19	10.95	6.90	-44.7	-59.4	3.6	1.51e+00	0	31	104	0	60	37954
2026-01-29 00:42:39.22	10.69	7.15	-44.7	-59.5	3.6	1.51e+00	0	31	104	0	60	38276
2026-01-29 00:42:42.25	10.44	7.41	-44.7	-59.4	3.6	1.51e+00	0	31	104	0	60	38002
2026-01-29 00:42:45.27	10.18	7.66	-44.8	-59.6	3.6	1.51e+00	0	31	104	0	60	38600
2026-01-29 00:42:48.30	9.91	7.92	-44.8	-59.6	3.6	1.51e+00	0	31	104	0	60	38534
2026-01-29 00:42:51.33	9.63	8.19	-44.8	-59.5	3.6	1.51e+00	0	31	104	0	60	38493
2026-01-29 00:42:54.36	9.35	8.46	-44.8	-59.5	3.6	1.51e+00	0	31	104	0	60	38410
2026-01-29 00:42:57.39	9.06	8.73	-44.7	-59.6	3.6	1.51e+00	0	31	104	0	60	38603
2026-01-29 00:43:00.42	8.77	9.00	-44.8	-59.6	3.6	1.51e+00	0	31	104	0	60	38634
2026-01-29 00:43:03.44	8.46	9.28	-44.7	-59.6	3.6	1.51e+00	0	31	104	0	60	38687
2026-01-29 00:43:06.47	8.15	9.56	-44.8	-59.6	3.6	1.51e+00	0	31	104	0	60	38804
2026-01-29 00:43:09.49	7.84	9.84	-45.0	-59.6	3.6	1.51e+00	0	31	104	0	60	38789
2026-01-29 00:43:12.52	7.51	10.13	-45.0	-59.6	3.6	1.51e+00	0	31	104	0	60	38930
2026-01-29 00:43:15.54	7.17	10.42	-45.0	-59.7	3.6	1.51e+00	0	31	104	0	60	39009
2026-01-29 00:43:18.57	6.83	10.72	-45.0	-59.6	3.6	1.51e+00	0	31	104	0	60	38809
2026-01-29 00:43:21.60	6.48	11.02	-44.9	-59.6	3.6	1.51e+00	0	31	104	0	60	38907
2026-01-29 00:43:24.63	6.12	11.32	-45.0	-59.7	3.6	1.51e+00	0	31	104	0	60	39195
2026-01-29 00:43:27.66	5.75	11.63	-45.0	-59.7	3.6	1.51e+00	0	31	104	0	60	39096
2026-01-29 00:43:30.69	5.36	11.94	-45.0	-59.8	3.6	1.51e+00	0	31	104	0	60	39512
2026-01-29 00:43:33.71	4.97	12.26	-45.0	-59.7	3.6	1.51e+00	0	31	104	0	60	39217
2026-01-29 00:43:36.74	4.57	12.58	-45.1	-59.8	3.6	1.51e+00	0	31	104	0	60	39584
2026-01-29 00:43:39.77	4.16	12.90	-45.0	-59.7	3.6	1.51e+00	0	31	104	0	60	39276
2026-01-29 00:43:42.80	3.73	13.23	-45.1	-59.8	3.6	1.51e+00	0	31	104	0	60	39591
2026-01-29 00:43:45.83	3.29	13.57	-45.1	-59.7	3.5	1.51e+00	0	31	104	0	60	39372
2026-01-29 00:43:48.85	2.85	13.91	-45.1	-59.8	3.6	1.51e+00	0	31	104	0	60	39781
2026-01-29 00:43:51.88	2.38	14.25	-45.2	-59.9	3.6	1.51e+00	0	32	104	0	60	39921
2026-01-29 00:43:54.91	1.91	14.60	-45.2	-60.0	3.6	1.51e+00	0	32	104	0	60	40375
2026-01-29 00:43:57.94	1.42	14.95	-45.0	-59.8	3.6	1.51e+00	0	31	104	0	60	39760
2026-01-29 00:44:00.97	0.91	15.31	-45.1	-59.9	3.6	1.51e+00	0	32	104	0	60	40162
2026-01-29 00:44:04.00	0.39	15.67	-45.1	-59.8	3.5	1.51e+00	0	31	104	0	60	39720
2026-01-29 00:44:07.02	359.86	16.04	-45.0	-59.8	3.6	1.51e+00	0	32	104	0	60	39611
2026-01-29 00:44:10.05	359.31	16.41	-45.1	-59.9	3.6	1.51e+00	0	31	104	0	60	39987
2026-01-29 00:44:13.08	358.74	16.79	-45.2	-59.9	3.6	1.51e+00	0	32	104	0	60	39928
2026-01-29 00:44:16.11	358.15	17.18	-45.1	-59.9	3.6	1.51e+00	0	31	104	0	60	39974
2026-01-29 00:44:19.14	357.55	17.56	-45.1	-59.9	3.6	1.51e+00	0	32	104	0	60	39951
2026-01-29 00:44:22.17	356.93	17.96	-45.1	-59.9	3.6	1.51e+00	0	32	104	0	60	40073
2026-01-29 00:44:25.20	356.29	18.36	-45.2	-59.9	3.6	1.51e+00	0	32	104	0	60	40272
2026-01-29 00:44:28.22	355.63	18.76	-45.2	-59.9	3.6	1.51e+00	0	32	104	0	60	39949
2026-01-29 00:44:31.25	354.94	19.17	-45.2	-59.9	3.6	1.51e+00	0	32	104	0	60	40114
2026-01-29 00:44:34.28	354.24	19.58	-45.3	-59.9	3.6	1.51e+00	0	32	104	0	60	40220
2026-01-29 00:44:37.31	353.51	20.00	-45.3	-60.0	3.6	1.51e+00	0	31	104	0	60	40476
2026-01-29 00:44:40.34	352.76	20.42	-45.3	-60.1	3.6	1.51e+00	0	32	104	0	60	40810
2026-01-29 00:44:43.37	351.98	20.85	-45.5	-60.2	3.6	1.51e+00	0	32	104	0	60	41661
2026-01-29 00:44:46.39	351.18	21.28	-45.5	-60.2	3.6	1.51e+00	0	32	104	0	60	41608
2026-01-29 00:44:49.42	350.35	21.71	-45.3	-60.2	3.6	1.51e+00	0	31	104	0	60	41275
2026-01-29 00:44:52.45	349.50	22.15	-45.4	-60.1	3.6	1.51e+00	0	32	104	0	60	41068
2026-01-29 00:44:55.48	348.61	22.59	-45.4	-60.1	3.6	1.51e+00	0	32	104	0	60	40970
2026-01-29 00:44:58.51	347.70	23.03	-45.3	-60.1	3.6	1.51e+00	0	32	104	0	60	41215
2026-01-29 00:45:01.54	346.76	23.48	-45.4	-60.1	3.6	1.51e+00	0	31	104	0	60	41075
2026-01-29 00:45:04.57	345.78	23.93	-45.4	-60.1	3.6	1.51e+00	0	32	104	0	60	40955
2026-01-29 00:45:07.59	344.78	24.38	-45.4	-60.1	3.6	1.51e+00	0	31	104	0	60	40962
2026-01-29 00:45:10.62	343.74	24.83	-45.3	-60.0	3.6	1.51e+00	0	31	104	0	60	40774
2026-01-29 00:45:13.65	342.67	25.28	-45.4	-60.1	3.6	1.51e+00	0	32	104	0	60	41035
2026-01-29 00:45:16.68	341.56	25.72	-45.3	-60.1	3.6	1.51e+00	0	31	104	0	60	40832
2026-01-29 00:45:19.70	340.42	26.17	-45.4	-60.1	3.6	1.51e+00	0	31	104	0	60	41059
2026-01-29 00:45:22.73	339.24	26.61	-45.3	-60.1	3.5	1.51e+00	0	31	104	0	60	40930
2026-01-29 00:45:25.76	338.02	27.05	-45.4	-60.1	3.6	1.51e+00	0	32	104	0	60	41197
2026-01-29 00:45:28.78	336.77	27.48	-45.4	-60.1	3.6	1.51e+00	0	32	104	0	60	40952
2026-01-29 00:45:31.81	335.48	27.91	-45.4	-60.1	3.6	1.51e+00	0	32	104	0	60	41134
2026-01-29 00:45:34.83	334.15	28.33	-45.3	-60.1	3.6	1.51e+00	0	32	104	0	60	41104
2026-01-29 00:45:37.86	332.78	28.74	-45.2	-60.2	3.6	1.51e+00	0	31	104	0	60	41420
2026-01-29 00:45:40.89	331.37	29.15	-45.3	-60.1	3.6	1.51e+00	0	32	104	0	60	41224
2026-01-29 00:45:43.92	329.92	29.54	-45.1	-60.2	3.6	1.51e+00	0	32	104	0	60	41277
2026-01-29 00:45:46.95	328.44	29.91	-45.0	-60.2	3.6	1.51e+00	0	32	104	0	60	41572
2026-01-29 00:45:49.98	326.91	30.28	-45.5	-60.2	3.6	1.51e+00	0	31	104	0	60	41589
2026-01-29 00:45:53.00	325.36	30.62	-45.3	-60.1	3.6	1.51e+00	0	31	104	0	60	41236
2026-01-29 00:45:56.02	323.76	30.95	-45.3	-60.2	3.6	1.51e+00	0	32	104	0	60	41691
2026-01-29 00:45:59.05	322.13	31.25	-45.3	-60.2	3.6	1.51e+00	0	32	104	0	60	41662
2026-01-29 00:46:02.08	320.47	31.54	-45.5	-60.3	3.6	1.51e+00	0	32	104	0	60	41877
2026-01-29 00:46:05.11	318.77	31.80	-45.3	-60.2	3.6	1.51e+00	0	31	104	0	60	41553
2026-01-29 00:46:08.14	317.04	32.04	-45.5	-60.2	3.5	1.51e+00	0	32	104	0	60	41386
2026-01-29 00:46:11.17	315.29	32.26	-45.2	-60.2	3.6	1.51e+00	0	32	104	0	60	41689
2026-01-29 00:46:14.20	313.52	32.44	-45.5	-60.4	3.6	1.51e+00	0	32	104	0	60	42319
2026-01-29 00:46:17.23	311.72	32.60	-45.5	-60.3	3.6	1.51e+00	0	31	104	0	60	41926
2026-01-29 00:46:20.26	309.91	32.73	-45.3	-60.2	3.6	1.51e+00	0	31	104	0	60	41589
2026-01-29 00:46:23.29	308.08	32.83	-45.3	-60.3	3.6	1.51e+00	0	31	104	0	60	41802
2026-01-29 00:46:26.31	306.25	32.89	-45.3	-60.3	3.6	1.51e+00	0	31	104	0	60	41848
2026-01-29 00:46:29.34	304.40	32.93	-45.2	-60.3	3.6	1.51e+00	0	32	104	0	60	41890
2026-01-29 00:46:32.37	302.56	32.94	-44.8	-60.2	3.6	1.51e+00	0	32	104	0	60	41599
2026-01-29 00:46:35.39	300.72	32.91	-44.5	-60.2	3.6	1.51e+00	0	32	104	0	60	41500
2026-01-29 00:46:38.42	298.87	32.85	-44.9	-60.3	3.6	1.51e+00	0	32	104	0	60	41866
2026-01-29 00:46:41.45	297.04	32.76	-45.0	-60.2	3.6	1.51e+00	0	32	104	0	60	41431
2026-01-29 00:46:44.48	295.22	32.64	-45.2	-60.1	3.6	1.51e+00	0	32	104	0	60	41240
2026-01-29 00:46:47.51	293.42	32.49	-45.3	-60.1	3.6	1.51e+00	0	32	104	0	60	41203
2026-01-29 00:46:50.54	291.63	32.31	-45.5	-60.2	3.6	1.51e+00	0	32	104	0	60	41719
2026-01-29 00:46:53.57	289.87	32.11	-45.4	-60.2	3.6	1.51e+00	0	32	104	0	60	41354
2026-01-29 00:46:56.60	288.13	31.87	-45.4	-60.2	3.6	1.51e+00	0	32	104	0	60	41392
2026-01-29 00:46:59.63	286.42	31.62	-45.4	-60.1	3.6	1.51e+00	0	32	104	0	60	41180
2026-01-29 00:47:02.66	284.74	31.34	-45.5	-60.2	3.6	1.51e+00	0	32	104	0	60	41492
2026-01-29 00:47:05.68	283.10	31.03	-45.5	-60.2	3.6	1.51e+00	0	32	104	0	60	41422
2026-01-29 00:47:08.71	281.49	30.71	-45.5	-60.1	3.6	1.51e+00	0	32	104	0	60	41102
2026-01-29 00:47:11.73	279.91	30.37	-45.4	-60.1	3.6	1.51e+00	0	32	104	0	60	41208
2026-01-29 00:47:14.76	278.37	30.01	-45.4	-60.1	3.6	1.51e+00	0	31	104	0	60	41031
2026-01-29 00:47:17.79	276.87	29.63	-45.5	-60.2	3.6	1.51e+00	0	32	104	0	60	41446
2026-01-29 00:47:20.82	275.40	29.25	-45.4	-60.1	3.6	1.51e+00	0	32	104	0	60	40977
2026-01-29 00:47:23.85	273.98	28.84	-45.5	-60.1	3.6	1.51e+00	0	31	104	0	60	41156
2026-01-29 00:47:26.88	272.59	28.43	-45.4	-60.1	3.6	1.51e+00	0	32	104	0	60	40981
2026-01-29 00:47:29.90	271.24	28.01	-45.5	-60.1	3.6	1.51e+00	0	32	104	0	60	41194
2026-01-29 00:47:32.93	269.93	27.58	-45.4	-60.1	3.6	1.51e+00	0	31	104	0	60	41109
2026-01-29 00:47:35.96	268.66	27.15	-45.4	-60.1	3.6	1.51e+00	0	31	104	0	60	40811
2026-01-29 00:47:38.99	267.43	26.71	-45.4	-60.1	3.6	1.51e+00	0	32	104	0	60	40960
2026-01-29 00:47:42.02	266.23	26.26	-45.4	-60.1	3.6	1.51e+00	0	32	104	0	60	41172
2026-01-29 00:47:45.04	265.07	25.81	-45.4	-60.1	3.6	1.51e+00	0	32	104	0	60	40871
2026-01-29 00:47:48.07	263.95	25.36	-45.4	-60.0	3.6	1.51e+00	0	32	104	0	60	40773
2026-01-29 00:47:51.10	262.86	24.91	-45.4	-60.1	3.6	1.51e+00	0	32	104	0	60	40850
2026-01-29 00:47:54.12	261.81	24.46	-45.4	-60.0	3.6	1.51e+00	0	32	104	0	60	40789
2026-01-29 00:47:57.14	260.79	24.01	-45.3	-60.0	3.6	1.51e+00	0	32	104	0	60	40740
2026-01-29 00:48:00.17	259.80	23.56	-45.3	-60.0	3.6	1.51e+00	0	32	104	0	60	40468
2026-01-29 00:48:03.20	258.84	23.11	-45.3	-60.0	3.6	1.51e+00	0	32	104	0	60	40698
2026-01-29 00:48:06.23	257.91	22.66	-45.3	-60.0	3.6	1.51e+00	0	32	104	0	60	40652
2026-01-29 00:48:09.26	257.02	22.21	-45.3	-60.0	3.6	1.51e+00	0	32	104	0	60	40568
2026-01-29 00:48:12.28	256.15	21.77	-45.3	-60.0	3.6	1.51e+00	0	32	104	0	60	40547
2026-01-29 00:48:15.31	255.31	21.33	-45.3	-60.0	3.6	1.51e+00	0	32	104	0	60	40501
2026-01-29 00:48:18.34	254.50	20.90	-45.3	-60.0	3.6	1.51e+00	0	32	104	0	60	40446
2026-01-29 00:48:21.37	253.71	20.47	-45.3	-60.0	3.6	1.51e+00	0	32	104	0	60	40328
2026-01-29 00:48:24.40	252.94	20.04	-45.2	-60.0	3.6	1.51e+00	0	32	104	0	60	40395
2026-01-29 00:48:27.42	252.21	19.62	-45.3	-59.9	3.6	1.51e+00	0	32	104	0	60	40034
2026-01-29 00:48:30.45	251.49	19.20	-45.2	-59.9	3.6	1.51e+00	0	32	104	0	60	40093
2026-01-29 00:48:33.48	250.80	18.79	-45.2	-59.9	3.6	1.51e+00	0	32	104	0	60	40258
2026-01-29 00:48:36.50	250.12	18.38	-45.3	-60.0	3.6	1.51e+00	0	32	104	0	60	40421
2026-01-29 00:48:39.53	249.47	17.98	-45.2	-59.9	3.6	1.51e+00	0	32	104	0	60	40094
2026-01-29 00:48:42.56	248.84	17.58	-45.2	-59.9	3.6	1.51e+00	0	32	104	0	60	40107
2026-01-29 00:48:45.59	248.23	17.19	-45.2	-59.8	3.6	1.51e+00	0	32	104	0	60	39819
2026-01-29 00:48:48.62	247.63	16.80	-45.2	-59.9	3.6	1.51e+00	0	32	104	0	60	40065
2026-01-29 00:48:51.64	247.06	16.42	-45.1	-59.8	3.6	1.51e+00	0	32	104	0	60	39586
2026-01-29 00:48:54.67	246.50	16.04	-45.1	-59.8	3.6	1.51e+00	0	32	104	0	60	39793
2026-01-29 00:48:57.70	245.95	15.67	-45.1	-59.8	3.6	1.51e+00	0	32	104	0	60	39627
2026-01-29 00:49:00.73	245.43	15.30	-45.1	-59.8	3.6	1.51e+00	0	32	104	0	60	39637
2026-01-29 00:49:03.75	244.92	14.94	-45.1	-59.8	3.5	1.51e+00	0	32	104	0	60	39414
2026-01-29 00:49:06.78	244.42	14.58	-45.1	-59.7	3.6	1.51e+00	0	32	104	0	60	39358
2026-01-29 00:49:09.81	243.94	14.23	-45.0	-59.7	3.6	1.51e+00	0	32	104	0	60	39236
2026-01-29 00:49:12.84	243.47	13.88	-44.9	-59.7	3.6	1.51e+00	0	32	104	0	60	39351
2026-01-29 00:49:15.87	243.01	13.54	-44.9	-59.6	3.6	1.51e+00	0	31	104	0	60	38697
2026-01-29 00:49:18.90	242.56	13.20	-44.8	-59.5	3.5	1.51e+00	0	31	104	0	60	38427
2026-01-29 00:49:21.92	242.13	12.87	-44.8	-59.4	3.6	1.51e+00	0	32	104	0	60	37992
2026-01-29 00:49:24.95	241.71	12.54	-44.8	-59.5	3.6	1.51e+00	0	32	104	0	60	38379
2026-01-29 00:49:27.98	241.31	12.22	-44.7	-59.4	3.6	1.51e+00	0	32	104	0	60	37876
2026-01-29 00:49:31.00	240.91	11.90	-44.5	-59.3	3.6	1.51e+00	0	32	104	0	60	37381
2026-01-29 00:49:34.03	240.52	11.58	-44.4	-59.2	3.6	1.51e+00	0	32	104	0	60	36783
2026-01-29 00:49:37.06	240.14	11.27	-44.5	-59.3	3.6	1.51e+00	0	32	104	0	60	37263
2026-01-29 00:49:40.09	239.78	10.97	-44.5	-59.2	3.6	1.51e+00	0	32	104	0	60	37109
2026-01-29 00:49:43.12	239.42	10.66	-44.2	-59.0	3.6	1.51e+00	0	32	104	0	60	36350
2026-01-29 00:49:46.15	239.07	10.36	-44.2	-59.1	3.6	1.51e+00	0	32	104	0	60	36426
2026-01-29 00:49:49.17	238.73	10.07	-44.4	-59.1	3.6	1.51e+00	0	32	104	0	60	36402
2026-01-29 00:49:52.19	238.40	9.78	-44.0	-59.0	3.6	1.51e+00	0	32	104	0	60	36287
2026-01-29 00:49:55.22	238.08	9.49	-44.6	-59.3	3.6	1.51e+00	0	31	104	0	60	37611
2026-01-29 00:49:58.25	237.76	9.21	-44.1	-59.2	3.6	1.51e+00	0	31	104	0	60	36864
2026-01-29 00:50:01.28	237.45	8.93	-44.7	-59.7	3.6	1.51e+00	0	32	104	0	60	39007
2026-01-29 00:50:04.32	237.15	8.65	-44.8	-59.5	3.6	1.51e+00	0	31	104	0	60	38165
2026-01-29 00:50:07.34	236.86	8.38	-44.3	-59.3	3.6	1.51e+00	0	31	104	0	60	37375
2026-01-29 00:50:10.37	236.57	8.11	-44.2	-59.3	3.6	1.51e+00	0	32	104	0	60	37383
2026-01-29 00:50:13.41	236.29	7.84	-44.9	-60.6	3.6	1.51e+00	0	32	104	0	60	43667
2026-01-29 00:50:16.43	236.02	7.58	-44.1	-59.7	3.6	1.51e+00	0	32	104	0	60	39186
2026-01-29 00:50:19.46	235.75	7.32	-47.3	-62.4	3.6	1.51e+00	0	32	104	0	60	53495
2026-01-29 00:50:22.50	235.49	7.06	-47.7	-63.2	3.6	1.51e+00	0	32	104	0	60	58911
2026-01-29 00:50:25.52	235.24	6.81	-45.9	-61.8	3.6	1.51e+00	0	31	104	0	60	49724
2026-01-29 00:50:28.55	234.99	6.56	-41.6	-58.7	3.6	1.51e+00	0	32	104	0	60	35012
2026-01-29 00:50:31.58	234.74	6.31	-41.6	-58.6	3.6	1.51e+00	0	32	104	0	58	38842
2026-01-29 00:50:34.61	234.51	6.06	-42.4	-59.5	3.6	1.51e+00	0	31	104	0	60	38495
2026-01-29 00:50:37.64	234.27	5.82	-42.2	-58.5	3.6	1.51e+00	0	31	104	0	60	34159
2026-01-29 00:50:40.66	234.04	5.58	-42.2	-58.6	3.6	1.51e+00	0	31	104	0	60	34442
2026-01-29 00:50:43.68	233.82	5.34	-44.7	-59.8	3.6	1.51e+00	0	32	104	0	60	39639
2026-01-29 00:50:46.71	233.60	5.11	-44.3	-59.5	3.6	1.51e+00	0	32	104	0	60	38372
2026-01-29 00:50:49.74	233.39	4.87	-43.8	-59.6	3.6	1.51e+00	0	32	104	0	60	38525
2026-01-29 00:50:52.76	233.18	4.64	-44.1	-59.7	3.6	1.51e+00	0	31	104	0	60	39209
2026-01-29 00:50:55.79	232.98	4.42	-43.7	-59.5	3.6	1.51e+00	0	32	104	0	60	38486
2026-01-29 00:50:58.82	232.77	4.19	-45.0	-60.5	3.6	1.51e+00	0	31	104	0	60	42802
2026-01-29 00:51:01.85	232.58	3.97	-44.4	-60.0	3.6	1.51e+00	0	31	104	0	60	40582
2026-01-29 00:51:04.88	232.38	3.74	-43.9	-58.8	3.6	1.51e+00	0	32	104	0	60	35470
2026-01-29 00:51:07.91	232.20	3.53	-44.6	-59.8	3.6	1.51e+00	0	32	104	0	60	39661
2026-01-29 00:51:10.94	232.01	3.31	-44.0	-59.5	3.6	1.51e+00	0	31	104	0	60	38271
2026-01-29 00:51:13.96	231.83	3.09	-43.7	-59.7	3.6	1.51e+00	0	32	104	0	60	39097
2026-01-29 00:51:16.99	231.65	2.88	-43.8	-60.2	3.6	1.51e+00	0	32	104	0	60	41454
2026-01-29 00:51:20.02	231.48	2.67	-45.4	-60.1	3.6	1.51e+00	0	32	104	0	60	41222
2026-01-29 00:51:23.05	231.30	2.46	-45.6	-60.3	3.6	1.51e+00	0	31	104	0	60	42137
2026-01-29 00:51:26.09	231.14	2.25	-45.7	-60.4	3.6	1.51e+00	0	31	104	0	60	42418
2026-01-29 00:51:29.12	230.97	2.05	-45.7	-60.5	3.6	1.51e+00	0	32	104	0	60	42749
2026-01-29 00:51:32.15	230.81	1.84	-45.5	-60.4	3.6	1.51e+00	0	31	104	0	60	42378
2026-01-29 00:51:35.18	230.65	1.64	-45.4	-60.1	3.6	1.51e+00	0	31	104	0	60	40965
2026-01-29 00:51:38.21	230.49	1.44	-45.3	-60.1	3.6	1.51e+00	0	31	104	0	60	40953
2026-01-29 00:51:41.24	230.34	1.24	-45.3	-60.0	3.6	1.51e+00	0	31	104	0	60	40767
2026-01-29 00:51:44.27	230.19	1.04	-45.3	-60.0	3.6	1.51e+00	0	31	104	0	60	40672
2026-01-29 00:51:47.30	230.04	0.85	-45.3	-60.0	3.6	1.51e+00	0	31	104	0	60	40626
2026-01-29 00:51:50.32	229.90	0.65	-45.3	-60.0	3.6	1.51e+00	0	32	104	0	60	40716
2026-01-29 00:51:53.35	229.76	0.46	-45.4	-60.1	3.6	1.51e+00	0	31	104	0	60	40975
2026-01-29 00:51:56.38	229.62	0.27	-45.4	-60.1	3.6	1.51e+00	0	31	104	0	60	41152
2026-01-29 00:51:59.42	229.48	0.08	-45.4	-60.1	3.6	1.51e+00	0	31	104	0	60	41176

#Closed at: 2026-01-29 00:52:02
#Recorded file [0 MB]: D:/lorett/data/35029_260129_124102.dat