passes_logs/2026/01/29/R4.6S_Anadyr/R4.6S_Anadyr__20260129_023309_FENGYUN_3D_rec.log

#Pass ID: 20260129_023309_FENGYUN 3D
#Satellite: FENGYUN 3D
#Configuration: FENGYUN 3D
#almurnet v.1.7.20251203
#Start time: 2026-01-29 02:33:11

#Version: 2.2.20231116
#Station: R4.6S_Anadyr
#Location: 177.4865 lon 64.73178 lat
#TLE: 1 43010U 17072A   26027.97130493  .00000326  00000+0  17586-3 0  9998
#TLE: 2 43010  98.9960 359.9900 0002514  87.8428 272.3036 14.19701925425097

#Time	Az	El	Level	Level2	SNR	BER	BlckErr	Temp	State	Recorded	gain1	gain2
2026-01-29 02:33:11.70	162.76	0.14	-45.6	-60.0	3.5	1.51e+00	0	29	0	0	60	40535
2026-01-29 02:33:15.74	162.81	0.39	-48.8	-60.9	3.6	8.46e-01	0	31	104	0	60	40198
2026-01-29 02:33:19.78	162.86	0.63	-48.8	-60.9	3.6	8.44e-01	0	31	104	0	60	40296
2026-01-29 02:33:23.82	162.91	0.88	-48.8	-60.9	3.6	8.44e-01	0	31	104	0	60	40152
2026-01-29 02:33:27.86	162.96	1.13	-48.4	-60.7	3.6	8.46e-01	0	31	104	0	60	38963
2026-01-29 02:33:31.90	163.01	1.38	-46.8	-58.9	3.6	8.45e-01	0	31	104	0	60	31964
2026-01-29 02:33:35.94	163.06	1.64	-47.4	-59.2	3.6	8.46e-01	0	31	104	0	60	32888
2026-01-29 02:33:39.98	163.11	1.89	-47.4	-59.3	3.6	8.46e-01	0	31	104	0	60	33375
2026-01-29 02:33:44.02	163.16	2.15	-47.5	-59.6	3.6	8.45e-01	0	31	104	0	60	34427
2026-01-29 02:33:48.06	163.22	2.41	-47.4	-58.9	3.6	8.44e-01	0	31	104	0	60	31779
2026-01-29 02:33:52.09	163.27	2.68	-47.2	-56.6	3.8	8.41e-01	0	31	104	0	60	24360
2026-01-29 02:33:56.13	163.33	2.94	-47.3	-57.5	3.7	8.45e-01	0	31	104	0	60	26996
2026-01-29 02:34:00.17	163.38	3.21	-43.0	-45.0	13.4	8.81e-05	0	31	0	14680064	60	6454
2026-01-29 02:34:04.22	163.44	3.48	-37.4	-38.3	20.2	0.00e+00	0	31	0	37748736	48	5931
2026-01-29 02:34:08.25	163.50	3.76	-37.0	-37.9	20.6	0.00e+00	0	31	0	59768832	46	6371
2026-01-29 02:34:12.28	163.55	4.03	-44.7	-47.4	12.1	1.89e-01	0	31	0	82837504	60	8443
2026-01-29 02:34:16.32	163.61	4.31	-36.9	-37.8	20.7	0.00e+00	0	31	0	97517568	46	6256
2026-01-29 02:34:20.36	163.67	4.60	-36.4	-37.2	21.5	0.00e+00	0	31	0	120586240	46	5893
2026-01-29 02:34:24.39	163.73	4.88	-35.6	-36.4	22.3	0.00e+00	0	31	0	142606336	44	6014
2026-01-29 02:34:28.42	163.80	5.17	-35.4	-36.2	22.5	0.00e+00	0	31	0	165675008	44	5845
2026-01-29 02:34:32.46	163.86	5.46	-35.5	-36.2	22.4	0.00e+00	0	31	0	187695104	44	5878
2026-01-29 02:34:36.50	163.92	5.76	-34.8	-35.5	23.1	0.00e+00	0	31	0	210763776	42	6076
2026-01-29 02:34:40.54	163.99	6.05	-34.7	-35.4	23.2	0.00e+00	0	31	0	233832448	42	6026
2026-01-29 02:34:44.57	164.05	6.35	-34.6	-35.3	23.3	0.00e+00	0	32	0	256901120	42	5958
2026-01-29 02:34:48.61	164.12	6.66	-34.6	-35.4	23.4	0.00e+00	0	32	0	278921216	42	5985
2026-01-29 02:34:52.65	164.19	6.97	-34.4	-35.1	23.7	0.00e+00	0	32	0	301989888	42	5827
2026-01-29 02:34:56.69	164.26	7.28	-34.3	-35.0	23.6	0.00e+00	0	32	0	325058560	42	5735
2026-01-29 02:35:00.73	164.33	7.60	-34.2	-34.9	23.9	0.00e+00	0	32	0	347078656	42	5680
2026-01-29 02:35:04.77	164.40	7.92	-34.2	-34.9	24.0	0.00e+00	0	32	0	370147328	42	5652
2026-01-29 02:35:08.80	164.47	8.24	-34.0	-34.7	24.2	0.00e+00	0	32	0	392167424	42	5548
2026-01-29 02:35:12.84	164.55	8.57	-34.0	-34.7	24.2	0.00e+00	0	32	0	415236096	42	5540
2026-01-29 02:35:16.88	164.62	8.91	-33.9	-34.6	24.2	0.00e+00	0	32	0	438304768	42	5502
2026-01-29 02:35:20.92	164.70	9.24	-33.9	-34.6	24.3	0.00e+00	0	32	0	461373440	40	6121
2026-01-29 02:35:24.96	164.78	9.59	-33.7	-34.4	24.5	0.00e+00	0	32	0	483393536	40	5988
2026-01-29 02:35:29.00	164.86	9.93	-33.5	-34.2	24.7	0.00e+00	0	32	0	506462208	40	5850
2026-01-29 02:35:33.04	164.94	10.29	-33.5	-34.2	24.6	0.00e+00	0	32	0	529530880	40	5881
2026-01-29 02:35:37.08	165.03	10.64	-33.3	-34.0	24.9	0.00e+00	0	32	0	551550976	40	5719
2026-01-29 02:35:41.12	165.11	11.01	-33.4	-34.1	24.9	0.00e+00	0	32	0	574619648	40	5799
2026-01-29 02:35:45.16	165.20	11.37	-33.4	-34.1	24.9	0.00e+00	0	32	0	596639744	40	5798
2026-01-29 02:35:49.19	165.29	11.75	-33.2	-33.9	25.0	0.00e+00	0	32	0	619708416	40	5653
2026-01-29 02:35:53.23	165.38	12.13	-33.3	-34.0	24.9	0.00e+00	0	32	0	642777088	40	5706
2026-01-29 02:35:57.27	165.47	12.51	-33.4	-34.1	25.0	0.00e+00	0	32	0	665845760	40	5768
2026-01-29 02:36:01.30	165.57	12.90	-32.9	-33.6	25.3	0.00e+00	0	32	0	687865856	40	5447
2026-01-29 02:36:05.34	165.67	13.30	-32.7	-33.4	25.5	0.00e+00	0	32	0	710934528	38	6006
2026-01-29 02:36:09.38	165.77	13.70	-32.5	-33.2	25.8	0.00e+00	0	32	0	734003200	38	5840
2026-01-29 02:36:13.41	165.87	14.11	-32.2	-32.8	26.1	0.00e+00	0	32	0	756023296	38	5615
2026-01-29 02:36:17.45	165.97	14.53	-32.1	-32.8	26.2	0.00e+00	0	32	0	779091968	38	5567
2026-01-29 02:36:21.49	166.08	14.96	-32.1	-32.8	26.1	0.00e+00	0	32	0	801112064	38	5572
2026-01-29 02:36:25.53	166.19	15.39	-31.9	-32.5	26.3	0.00e+00	0	32	0	824180736	38	5398
2026-01-29 02:36:29.57	166.30	15.83	-32.0	-32.6	26.2	0.00e+00	0	32	0	847249408	38	5484
2026-01-29 02:36:33.61	166.42	16.28	-31.4	-32.1	26.7	0.00e+00	0	32	0	869269504	36	5764
2026-01-29 02:36:37.65	166.54	16.74	-31.5	-32.2	26.6	0.00e+00	0	32	0	892338176	36	5829
2026-01-29 02:36:41.69	166.66	17.20	-31.5	-32.1	26.7	0.00e+00	0	32	0	915406848	36	5805
2026-01-29 02:36:45.72	166.79	17.67	-31.3	-31.9	27.0	0.00e+00	0	32	0	938475520	36	5670
2026-01-29 02:36:49.76	166.92	18.16	-31.4	-32.0	26.9	0.00e+00	0	32	0	960495616	36	5736
2026-01-29 02:36:53.80	167.05	18.65	-31.0	-31.7	27.2	0.00e+00	0	32	0	983564288	36	5519
2026-01-29 02:36:57.84	167.19	19.16	-31.1	-31.7	27.2	0.00e+00	0	32	0	1005584384	36	5528
2026-01-29 02:37:01.86	167.33	19.67	-30.8	-31.4	27.3	0.00e+00	0	32	0	1027604480	36	5367
2026-01-29 02:37:05.90	167.47	20.19	-30.6	-31.2	27.5	0.00e+00	0	32	0	1049624576	34	5840
2026-01-29 02:37:09.94	167.63	20.73	-30.4	-31.0	27.7	0.00e+00	0	32	0	1072693248	34	5738
2026-01-29 02:37:13.98	167.78	21.27	-30.3	-30.9	27.8	0.00e+00	0	32	0	1094713344	34	5656
2026-01-29 02:37:18.02	167.94	21.83	-30.2	-30.9	27.8	0.00e+00	0	32	0	1117782016	34	5634
2026-01-29 02:37:22.06	168.11	22.40	-30.4	-31.0	27.6	0.00e+00	0	32	0	1140850688	34	5744
2026-01-29 02:37:26.10	168.28	22.99	-30.5	-31.1	27.7	0.00e+00	0	32	0	1163919360	34	5798
2026-01-29 02:37:30.14	168.46	23.58	-29.9	-30.5	28.0	0.00e+00	0	32	0	1185939456	34	5432
2026-01-29 02:37:34.17	168.64	24.19	-29.9	-30.5	28.2	0.00e+00	0	32	0	1209008128	32	6069
2026-01-29 02:37:38.21	168.83	24.82	-29.7	-30.3	28.2	0.00e+00	0	32	0	1232076800	32	5928
2026-01-29 02:37:42.25	169.03	25.46	-29.7	-30.3	28.3	0.00e+00	0	32	0	1254096896	32	5912
2026-01-29 02:37:46.29	169.23	26.12	-29.6	-30.2	28.4	0.00e+00	0	32	0	1277165568	32	5835
2026-01-29 02:37:50.33	169.45	26.79	-29.8	-30.4	28.2	0.00e+00	0	32	0	1299185664	32	6002
2026-01-29 02:37:54.37	169.67	27.48	-29.8	-30.4	28.2	0.00e+00	0	32	0	1322254336	32	6032
2026-01-29 02:37:58.41	169.90	28.18	-29.8	-30.4	28.2	0.00e+00	0	32	0	1345323008	32	5990
2026-01-29 02:38:02.44	170.14	28.90	-29.5	-30.1	28.3	0.00e+00	0	32	0	1368391680	32	5801
2026-01-29 02:38:06.48	170.39	29.65	-29.5	-30.1	28.3	0.00e+00	0	32	0	1390411776	32	5816
2026-01-29 02:38:10.52	170.66	30.41	-29.6	-30.2	28.4	0.00e+00	0	32	0	1413480448	32	5848
2026-01-29 02:38:14.55	170.93	31.19	-29.3	-29.9	28.6	0.00e+00	0	32	0	1436549120	32	5684
2026-01-29 02:38:18.59	171.22	31.99	-29.1	-29.7	28.6	0.00e+00	0	32	0	1458569216	32	5527
2026-01-29 02:38:22.63	171.52	32.82	-29.4	-30.0	28.5	0.00e+00	0	32	0	1481637888	32	5755
2026-01-29 02:38:26.67	171.84	33.66	-29.4	-30.0	28.5	0.00e+00	0	32	0	1503657984	32	5744
2026-01-29 02:38:30.71	172.17	34.53	-28.8	-29.4	28.9	0.00e+00	0	32	0	1526726656	30	5990
2026-01-29 02:38:34.74	172.52	35.42	-29.0	-29.6	28.9	0.00e+00	0	32	0	1549795328	30	6112
2026-01-29 02:38:38.78	172.89	36.34	-29.3	-29.9	28.6	0.00e+00	0	32	0	1571815424	30	6327
2026-01-29 02:38:42.82	173.28	37.29	-28.8	-29.4	29.0	0.00e+00	0	32	0	1594884096	30	5990
2026-01-29 02:38:46.86	173.70	38.26	-29.0	-29.5	28.8	0.00e+00	0	32	0	1617952768	30	6095
2026-01-29 02:38:50.90	174.14	39.25	-29.0	-29.6	28.8	0.00e+00	0	32	0	1641021440	30	6170
2026-01-29 02:38:54.93	174.60	40.27	-29.0	-29.5	28.9	0.00e+00	0	32	0	1663041536	30	6091
2026-01-29 02:38:58.97	175.10	41.33	-29.3	-29.9	28.7	0.00e+00	0	32	0	1686110208	30	6368
2026-01-29 02:39:03.01	175.63	42.41	-29.3	-29.9	28.6	0.00e+00	0	32	0	1708130304	30	6342
2026-01-29 02:39:07.06	176.19	43.52	-29.4	-30.0	28.6	0.00e+00	0	32	0	1731198976	30	6427
2026-01-29 02:39:11.09	176.79	44.66	-29.6	-30.1	28.5	0.00e+00	0	32	0	1754267648	30	6537
2026-01-29 02:39:15.13	177.44	45.83	-29.6	-30.2	28.4	0.00e+00	0	32	0	1776287744	30	6581
2026-01-29 02:39:19.17	178.14	47.03	-29.6	-30.2	28.4	0.00e+00	0	32	0	1799356416	30	6559
2026-01-29 02:39:23.21	178.89	48.27	-29.5	-30.1	28.5	0.00e+00	0	32	0	1822425088	32	5776
2026-01-29 02:39:27.25	179.71	49.53	-29.6	-30.2	28.4	0.00e+00	0	32	0	1845493760	32	5893
2026-01-29 02:39:31.29	180.59	50.82	-30.1	-30.7	28.0	0.00e+00	0	32	0	1867513856	32	6243
2026-01-29 02:39:35.32	181.55	52.14	-30.2	-30.9	27.9	0.00e+00	0	32	0	1890582528	32	6320
2026-01-29 02:39:39.36	182.61	53.49	-30.4	-31.1	27.8	0.00e+00	0	32	0	1912602624	32	6487
2026-01-29 02:39:43.40	183.76	54.86	-30.9	-31.5	27.3	0.00e+00	0	32	0	1935671296	34	6100
2026-01-29 02:39:47.44	185.03	56.26	-30.6	-31.2	27.6	0.00e+00	0	32	0	1958739968	34	5877
2026-01-29 02:39:51.47	186.43	57.68	-30.1	-30.7	28.0	0.00e+00	0	32	0	1980760064	34	5524
2026-01-29 02:39:55.51	187.99	59.11	-30.1	-30.7	28.0	0.00e+00	0	32	0	2003828736	34	5556
2026-01-29 02:39:59.54	189.72	60.56	-29.3	-29.9	28.6	0.00e+00	0	32	0	2026897408	32	5652
2026-01-29 02:40:03.58	191.67	62.02	-29.3	-29.8	28.6	0.00e+00	0	32	0	2048917504	32	5628
2026-01-29 02:40:07.62	193.86	63.48	-28.7	-29.3	29.0	0.00e+00	0	32	0	2071986176	30	5955
2026-01-29 02:40:11.65	196.33	64.92	-29.1	-29.7	28.6	0.00e+00	0	32	0	2095054848	30	6240
2026-01-29 02:40:15.69	199.15	66.35	-28.9	-29.4	28.9	0.00e+00	0	32	0	2117074944	30	6027
2026-01-29 02:40:19.73	202.35	67.75	-29.1	-29.7	28.8	0.00e+00	0	32	0	2140143616	30	6179
2026-01-29 02:40:23.76	206.01	69.09	-28.6	-29.3	29.2	0.00e+00	0	32	0	2163212288	30	5898
2026-01-29 02:40:27.80	210.19	70.36	-28.6	-29.2	29.0	0.00e+00	0	32	0	2185232384	30	5858
2026-01-29 02:40:31.84	214.97	71.54	-28.0	-28.5	29.5	0.00e+00	0	32	0	2208301056	30	5419
2026-01-29 02:40:35.88	220.41	72.59	-28.0	-28.5	29.3	0.00e+00	0	32	0	2231369728	28	6083
2026-01-29 02:40:39.92	226.51	73.48	-27.7	-28.3	29.5	0.00e+00	0	32	0	2253389824	28	5911
2026-01-29 02:40:43.96	233.26	74.18	-27.7	-28.3	29.7	0.00e+00	0	32	0	2276458496	28	5945
2026-01-29 02:40:48.00	240.56	74.66	-27.6	-28.2	29.6	0.00e+00	0	32	0	2299527168	28	5856
2026-01-29 02:40:52.03	248.18	74.88	-27.8	-28.4	29.5	0.00e+00	0	32	0	2321547264	28	6000
2026-01-29 02:40:56.05	255.89	74.85	-28.0	-28.6	29.3	0.00e+00	0	32	0	2344615936	28	6153
2026-01-29 02:41:00.09	263.46	74.55	-27.5	-28.2	29.5	0.00e+00	0	32	0	2367684608	28	5849
2026-01-29 02:41:04.12	270.60	74.01	-27.8	-28.4	29.5	0.00e+00	0	32	0	2389704704	28	6000
2026-01-29 02:41:08.16	277.18	73.25	-27.6	-28.2	29.6	0.00e+00	0	32	0	2412773376	28	5859
2026-01-29 02:41:12.20	283.09	72.32	-28.0	-28.6	29.4	0.00e+00	0	32	0	2435842048	28	6170
2026-01-29 02:41:16.23	288.33	71.23	-28.3	-28.9	29.2	0.00e+00	0	32	0	2457862144	28	6337
2026-01-29 02:41:20.27	292.94	70.03	-28.4	-29.1	29.1	0.00e+00	0	32	0	2480930816	28	6493
2026-01-29 02:41:24.31	296.97	68.74	-28.4	-29.1	29.0	0.00e+00	0	32	0	2502950912	28	6508
2026-01-29 02:41:28.35	300.50	67.38	-28.9	-29.4	28.8	0.00e+00	0	32	0	2526019584	30	5995
2026-01-29 02:41:32.38	303.58	65.98	-28.8	-29.3	28.9	0.00e+00	0	32	0	2549088256	30	5957
2026-01-29 02:41:36.42	306.30	64.55	-28.7	-29.4	28.9	0.00e+00	0	32	0	2571108352	30	5980
2026-01-29 02:41:40.46	308.69	63.10	-28.9	-29.5	28.7	0.00e+00	0	32	0	2594177024	30	6050
2026-01-29 02:41:44.50	310.81	61.64	-28.9	-29.5	28.8	0.00e+00	0	32	0	2617245696	30	6067
2026-01-29 02:41:48.54	312.69	60.19	-29.6	-30.1	28.3	0.00e+00	0	32	0	2640314368	30	6495
2026-01-29 02:41:52.57	314.38	58.75	-29.7	-30.4	28.2	0.00e+00	0	32	0	2662334464	32	5996
2026-01-29 02:41:56.61	315.89	57.32	-29.9	-30.6	28.1	0.00e+00	0	32	0	2685403136	32	6112
2026-01-29 02:42:00.65	317.26	55.91	-30.4	-31.0	27.6	0.00e+00	0	32	0	2707423232	32	6430
2026-01-29 02:42:04.69	318.49	54.52	-30.4	-30.9	27.7	0.00e+00	0	32	0	2730491904	32	6366
2026-01-29 02:42:08.72	319.62	53.16	-30.4	-31.0	27.4	0.00e+00	0	32	0	2753560576	32	6404
2026-01-29 02:42:12.76	320.64	51.82	-30.2	-30.7	27.8	0.00e+00	0	32	0	2775580672	32	6228
2026-01-29 02:42:16.80	321.58	50.51	-29.7	-30.3	28.3	0.00e+00	0	32	0	2798649344	32	5900
2026-01-29 02:42:20.84	322.45	49.23	-29.1	-29.8	28.7	0.00e+00	0	32	0	2821718016	32	5578
2026-01-29 02:42:24.88	323.24	47.98	-29.4	-30.0	28.6	0.00e+00	0	32	0	2843738112	32	5725
2026-01-29 02:42:28.92	323.98	46.76	-29.1	-29.6	28.7	0.00e+00	0	32	0	2866806784	32	5484
2026-01-29 02:42:32.96	324.67	45.57	-29.5	-30.1	28.4	0.00e+00	0	32	0	2889875456	32	5784
2026-01-29 02:42:36.99	325.30	44.42	-29.6	-30.1	28.4	0.00e+00	0	32	0	2911895552	32	5819
2026-01-29 02:42:41.03	325.90	43.29	-29.7	-30.2	28.3	0.00e+00	0	32	0	2934964224	32	5871
2026-01-29 02:42:45.07	326.45	42.19	-29.4	-30.0	28.4	0.00e+00	0	32	0	2958032896	32	5702
2026-01-29 02:42:49.11	326.97	41.12	-28.8	-29.3	28.9	0.00e+00	0	32	0	2980052992	32	5271
2026-01-29 02:42:53.15	327.46	40.08	-28.5	-29.2	29.1	0.00e+00	0	32	0	3003121664	30	5850
2026-01-29 02:42:57.19	327.92	39.07	-28.9	-29.6	28.8	0.00e+00	0	32	0	3026190336	30	6120
2026-01-29 02:43:01.22	328.35	38.08	-29.2	-29.7	28.5	0.00e+00	0	32	0	3048210432	30	6213
2026-01-29 02:43:05.26	328.76	37.12	-29.2	-29.9	28.6	0.00e+00	0	32	0	3071279104	30	6345
2026-01-29 02:43:09.30	329.14	36.19	-29.0	-29.5	28.7	0.00e+00	0	32	0	3094347776	30	6094
2026-01-29 02:43:13.34	329.51	35.28	-29.0	-29.6	28.8	0.00e+00	0	32	0	3116367872	30	6161
2026-01-29 02:43:17.38	329.86	34.40	-28.9	-29.4	28.8	0.00e+00	0	32	0	3139436544	30	5997
2026-01-29 02:43:21.41	330.19	33.54	-29.0	-29.6	28.8	0.00e+00	0	32	0	3162505216	30	6164
2026-01-29 02:43:25.45	330.50	32.70	-29.3	-30.0	28.5	0.00e+00	0	32	0	3184525312	30	6432
2026-01-29 02:43:29.49	330.80	31.88	-29.7	-30.3	28.2	0.00e+00	0	32	0	3207593984	30	6633
2026-01-29 02:43:33.52	331.09	31.09	-29.8	-30.5	28.1	0.00e+00	0	32	0	3230662656	32	6084
2026-01-29 02:43:37.56	331.36	30.32	-29.3	-30.0	28.5	0.00e+00	0	32	0	3252682752	32	5718
2026-01-29 02:43:41.59	331.62	29.56	-29.3	-29.8	28.4	0.00e+00	0	32	0	3275751424	32	5615
2026-01-29 02:43:45.63	331.87	28.83	-29.4	-29.9	28.4	0.00e+00	0	32	0	3297771520	32	5670
2026-01-29 02:43:49.67	332.11	28.11	-29.2	-29.7	28.5	0.00e+00	0	32	0	3320840192	32	5557
2026-01-29 02:43:53.71	332.34	27.41	-29.3	-30.0	28.5	0.00e+00	0	32	0	3343908864	32	5731
2026-01-29 02:43:57.74	332.56	26.73	-29.5	-30.0	28.3	0.00e+00	0	32	0	3366977536	32	5739
2026-01-29 02:44:01.78	332.78	26.07	-29.7	-30.2	28.2	0.00e+00	0	32	0	3388997632	32	5863
2026-01-29 02:44:05.82	332.98	25.42	-29.9	-30.4	28.0	0.00e+00	0	32	0	3412066304	32	6025
2026-01-29 02:44:09.85	333.18	24.78	-30.1	-30.7	27.9	0.00e+00	0	32	0	3435134976	32	6210
2026-01-29 02:44:13.89	333.37	24.16	-30.2	-30.7	27.8	0.00e+00	0	32	0	3457155072	32	6238
2026-01-29 02:44:17.93	333.55	23.56	-30.1	-30.7	27.8	0.00e+00	0	32	0	3480223744	32	6174
2026-01-29 02:44:21.96	333.73	22.97	-30.3	-30.8	27.7	0.00e+00	0	32	0	3502243840	32	6286
2026-01-29 02:44:26.00	333.90	22.39	-30.1	-30.6	27.9	0.00e+00	0	32	0	3525312512	32	6119
2026-01-29 02:44:30.04	334.07	21.82	-30.4	-30.9	27.5	0.00e+00	0	32	0	3548381184	32	6366
2026-01-29 02:44:34.08	334.23	21.27	-30.2	-30.8	27.7	0.00e+00	0	32	0	3570401280	32	6261
2026-01-29 02:44:38.12	334.39	20.73	-30.6	-31.2	27.5	0.00e+00	0	32	0	3593469952	32	6556
2026-01-29 02:44:42.16	334.54	20.19	-30.9	-31.4	27.1	0.00e+00	0	32	0	3616538624	34	6019
2026-01-29 02:44:46.20	334.68	19.67	-31.0	-31.5	27.1	0.00e+00	0	32	0	3639607296	34	6086
2026-01-29 02:44:50.24	334.83	19.16	-31.3	-31.9	26.9	0.00e+00	0	32	0	3661627392	34	6335
2026-01-29 02:44:54.27	334.96	18.67	-31.3	-31.9	26.9	0.00e+00	0	32	0	3684696064	34	6318
2026-01-29 02:44:58.31	335.10	18.18	-31.4	-32.2	26.7	0.00e+00	0	32	0	3706716160	34	6555
2026-01-29 02:45:02.35	335.23	17.70	-31.5	-32.1	26.6	0.00e+00	0	32	0	3729784832	34	6485
2026-01-29 02:45:06.39	335.36	17.23	-31.7	-32.2	26.5	0.00e+00	0	32	0	3752853504	34	6597
2026-01-29 02:45:10.42	335.48	16.77	-31.6	-32.1	26.7	0.00e+00	0	32	0	3774873600	36	5801
2026-01-29 02:45:14.45	335.60	16.31	-31.7	-32.4	26.5	0.00e+00	0	32	0	3797942272	36	5970
2026-01-29 02:45:18.49	335.72	15.87	-31.7	-32.3	26.5	0.00e+00	0	32	0	3821010944	36	5904
2026-01-29 02:45:22.53	335.83	15.43	-31.8	-32.3	26.4	0.00e+00	0	32	0	3843031040	36	5956
2026-01-29 02:45:26.57	335.94	15.00	-31.8	-32.4	26.3	0.00e+00	0	32	0	3866099712	36	5987
2026-01-29 02:45:30.61	336.05	14.58	-32.3	-32.9	25.9	0.00e+00	0	32	0	3889168384	36	6327
2026-01-29 02:45:34.65	336.16	14.16	-32.1	-32.7	26.0	0.00e+00	0	32	0	3911188480	36	6204
2026-01-29 02:45:38.69	336.27	13.75	-32.4	-32.9	25.8	0.00e+00	0	32	0	3934257152	36	6370
2026-01-29 02:45:42.73	336.37	13.35	-32.5	-33.1	25.7	0.00e+00	0	32	0	3957325824	36	6510
2026-01-29 02:45:46.76	336.47	12.96	-32.7	-33.3	25.5	0.00e+00	0	32	0	3979345920	36	6633
2026-01-29 02:45:50.80	336.56	12.57	-32.8	-33.4	25.4	0.00e+00	0	32	0	4002414592	38	6017
2026-01-29 02:45:54.83	336.66	12.19	-33.1	-33.8	25.1	0.00e+00	0	32	0	4025483264	38	6249
2026-01-29 02:45:58.87	336.75	11.81	-33.2	-34.0	25.0	0.00e+00	0	32	0	4047503360	38	6425
2026-01-29 02:46:02.91	336.85	11.44	-33.3	-34.1	24.9	0.00e+00	0	32	0	4070572032	38	6467
2026-01-29 02:46:06.95	336.94	11.07	-33.3	-34.1	24.9	0.00e+00	0	32	0	4093640704	38	6519
2026-01-29 02:46:10.98	337.02	10.72	-33.4	-34.0	24.7	0.00e+00	0	32	0	4115660800	38	6442
2026-01-29 02:46:15.02	337.11	10.36	-33.5	-34.1	24.5	0.00e+00	0	32	0	4138729472	40	5818
2026-01-29 02:46:19.06	337.19	10.01	-33.5	-34.3	24.6	0.00e+00	0	32	0	4161798144	40	5937
2026-01-29 02:46:23.10	337.28	9.66	-33.6	-34.4	24.4	0.00e+00	0	32	0	4183818240	40	5989
2026-01-29 02:46:27.14	337.36	9.32	-33.7	-34.5	24.4	0.00e+00	0	32	0	4206886912	40	6069
2026-01-29 02:46:31.18	337.44	8.99	-33.9	-34.7	24.2	0.00e+00	0	32	0	4229955584	40	6236
2026-01-29 02:46:35.21	337.52	8.66	-34.1	-34.8	24.0	0.00e+00	0	32	0	4251975680	40	6278
2026-01-29 02:46:39.25	337.60	8.33	-33.9	-34.6	24.3	0.00e+00	0	32	0	4275044352	40	6124
2026-01-29 02:46:43.28	337.67	8.01	-33.9	-34.7	24.1	0.00e+00	0	32	0	4297064448	40	6214
2026-01-29 02:46:47.32	337.75	7.69	-34.1	-34.8	23.8	0.00e+00	0	32	0	4320133120	40	6271
2026-01-29 02:46:51.36	337.82	7.37	-34.1	-35.0	23.8	0.00e+00	0	32	0	4343201792	40	6396
2026-01-29 02:46:55.40	337.89	7.06	-34.6	-35.4	23.4	0.00e+00	0	32	0	4366270464	42	5983
2026-01-29 02:46:59.45	337.97	6.75	-34.7	-35.6	23.3	0.00e+00	0	32	0	4388290560	42	6131
2026-01-29 02:47:03.48	338.04	6.45	-34.2	-34.9	23.8	0.00e+00	0	32	0	4411359232	42	5656
2026-01-29 02:47:07.52	338.10	6.15	-34.7	-35.4	23.2	0.00e+00	0	32	0	4434427904	42	6006
2026-01-29 02:47:11.56	338.17	5.85	-34.8	-35.7	22.9	0.00e+00	0	32	0	4456448000	42	6212
2026-01-29 02:47:15.59	338.24	5.56	-35.4	-36.3	22.1	0.00e+00	0	32	0	4479516672	42	6630
2026-01-29 02:47:19.63	338.31	5.27	-36.2	-37.1	20.6	0.00e+00	0	32	0	4501536768	44	6497
2026-01-29 02:47:23.68	338.37	4.98	-38.7	-40.0	17.2	0.00e+00	0	32	0	4524605440	48	7220
2026-01-29 02:47:27.71	338.44	4.70	-39.6	-41.2	15.3	0.00e+00	0	32	0	4547674112	50	7398
2026-01-29 02:47:31.75	338.50	4.42	-41.3	-43.8	11.8	3.29e-04	0	32	0	4570742784	54	7920
2026-01-29 02:47:35.79	338.56	4.14	-42.8	-47.3	7.1	8.55e-02	0	32	0	4592762880	58	9446
2026-01-29 02:47:39.82	338.62	3.87	-43.5	-50.8	4.0	8.28e-01	0	32	0	4603248640	58	14056
2026-01-29 02:47:43.87	338.68	3.59	-43.7	-54.6	3.6	8.44e-01	0	32	104	4603248640	58	21708
2026-01-29 02:47:47.91	338.74	3.32	-43.8	-55.4	3.6	8.46e-01	0	32	104	4603248640	60	21324
2026-01-29 02:47:51.95	338.80	3.05	-43.8	-55.9	3.6	8.45e-01	0	33	104	4603248640	60	22639
2026-01-29 02:47:55.99	338.86	2.79	-48.3	-60.5	3.6	8.46e-01	0	32	104	4603248640	60	38077
2026-01-29 02:48:00.02	338.92	2.53	-48.7	-60.9	3.6	8.44e-01	0	33	104	4603248640	60	39957
2026-01-29 02:48:04.06	338.98	2.27	-48.9	-61.0	3.6	8.47e-01	0	33	104	4603248640	60	40361
2026-01-29 02:48:08.10	339.04	2.01	-48.4	-60.9	3.6	8.45e-01	0	33	104	4603248640	60	40114
2026-01-29 02:48:12.14	339.09	1.75	-48.7	-60.8	3.6	8.45e-01	0	33	104	4603248640	60	39743
2026-01-29 02:48:16.18	339.15	1.50	-48.8	-61.0	3.6	8.44e-01	0	33	104	4603248640	60	40474
2026-01-29 02:48:20.22	339.20	1.25	-48.8	-60.9	3.6	8.45e-01	0	33	104	4603248640	60	40235
2026-01-29 02:48:24.26	339.26	1.00	-48.7	-60.9	3.6	8.45e-01	0	33	104	4603248640	60	40068
2026-01-29 02:48:28.30	339.31	0.75	-48.7	-60.9	3.6	8.47e-01	0	33	104	4603248640	60	40026
2026-01-29 02:48:32.34	339.36	0.51	-48.7	-60.9	3.6	8.46e-01	0	32	104	4603248640	60	39914
2026-01-29 02:48:36.38	339.41	0.27	-48.7	-60.9	3.6	8.45e-01	0	33	104	4603248640	60	40085
2026-01-29 02:48:40.42	339.47	0.03	-48.7	-60.9	3.6	8.45e-01	0	32	104	4603248640	60	40100

#Closed at: 2026-01-29 02:48:43
#Recorded file [4603 MB]: D:/lorett/data/35029_260129_143311.dat