passes_logs/2026/01/29/R4.6S_Anadyr/R4.6S_Anadyr__20260129_015312_TY-42_rec.log

#Pass ID: 20260129_015312_TY-42
#Satellite: TY-42
#Configuration: TY-42_900M
#almurnet v.1.7.20251203
#Start time: 2026-01-29 01:53:43

#Version: 2.2.20231116
#Station: R4.6S_Anadyr
#Location: 177.4865 lon 64.73178 lat
#TLE: 1 64048U 25103A   26028.60844907  .00008011  00000-0  38191-3 0 09994
#TLE: 2 64048 097.4119 103.7705 0001778 092.6266 304.9547 15.19172955 38886

#Time	Az	El	Level	Level2	SNR	BER	BlckErr	Temp	State	Recorded	gain1	gain2
2026-01-29 01:53:43.28	15.13	1.69	-48.6	-61.1	3.4	1.52e+00	0	29	0	0	60	39845
2026-01-29 01:53:46.30	14.81	1.85	-47.6	-50.0	6.0	0.00e+00	0	30	104	0	60	38920
2026-01-29 01:53:49.33	14.48	2.02	-47.6	-50.0	6.1	0.00e+00	0	30	104	0	60	38747
2026-01-29 01:53:52.36	14.15	2.19	-47.6	-50.0	6.0	0.00e+00	0	31	104	0	60	38933
2026-01-29 01:53:55.39	13.81	2.36	-47.6	-50.1	6.1	0.00e+00	0	31	104	0	60	39028
2026-01-29 01:53:58.42	13.47	2.53	-47.6	-50.1	6.1	0.00e+00	0	31	104	0	60	38976
2026-01-29 01:54:01.44	13.13	2.70	-47.6	-50.0	6.1	0.00e+00	0	31	104	0	60	38805
2026-01-29 01:54:04.47	12.77	2.88	-47.6	-50.1	6.1	0.00e+00	0	31	104	0	60	38963
2026-01-29 01:54:07.50	12.42	3.05	-47.5	-50.0	6.1	0.00e+00	0	31	104	0	60	38673
2026-01-29 01:54:10.53	12.05	3.22	-47.3	-49.7	6.1	0.00e+00	0	31	104	0	60	37385
2026-01-29 01:54:13.56	11.68	3.39	-47.4	-49.8	6.1	0.00e+00	0	31	104	0	60	38027
2026-01-29 01:54:16.59	11.31	3.57	-47.2	-49.6	6.1	0.00e+00	0	31	104	0	60	36885
2026-01-29 01:54:19.62	10.93	3.74	-47.6	-50.0	6.1	0.00e+00	0	31	104	0	60	38542
2026-01-29 01:54:22.64	10.54	3.92	-47.8	-50.2	6.1	0.00e+00	0	31	104	0	60	39841
2026-01-29 01:54:25.67	10.15	4.09	-47.7	-50.2	6.1	0.00e+00	0	31	104	0	60	39741
2026-01-29 01:54:28.70	9.75	4.27	-47.7	-50.2	6.1	0.00e+00	0	31	104	0	60	39462
2026-01-29 01:54:31.73	9.35	4.44	-47.8	-50.3	6.1	0.00e+00	0	31	104	0	60	40292
2026-01-29 01:54:34.75	8.94	4.62	-47.9	-50.4	6.1	0.00e+00	0	32	104	0	60	40519
2026-01-29 01:54:37.78	8.52	4.79	-48.0	-50.5	6.1	0.00e+00	0	31	104	0	60	40809
2026-01-29 01:54:40.81	8.09	4.97	-48.1	-50.6	6.1	0.00e+00	0	32	104	0	60	41463
2026-01-29 01:54:43.84	7.66	5.15	-48.0	-50.5	6.1	0.00e+00	0	32	104	0	60	41011
2026-01-29 01:54:46.86	7.23	5.32	-48.1	-50.5	6.1	0.00e+00	0	32	104	0	60	41249
2026-01-29 01:54:49.89	6.78	5.50	-48.1	-50.5	6.1	0.00e+00	0	32	104	0	60	41260
2026-01-29 01:54:52.91	6.33	5.68	-33.6	-34.1	13.6	8.14e-02	0	32	0	50331648	42	17401
2026-01-29 01:54:55.94	5.87	5.86	-28.2	-28.7	16.2	2.00e-02	0	32	0	394264576	32	16772
2026-01-29 01:54:58.97	5.40	6.04	-27.8	-28.3	16.3	1.25e-04	0	32	0	729808896	30	17834
2026-01-29 01:55:02.00	4.93	6.21	-27.6	-28.1	16.4	1.69e-04	0	32	0	1073741824	30	17468
2026-01-29 01:55:05.03	4.45	6.39	-27.8	-28.3	16.3	1.69e-04	0	32	0	1409286144	30	17962
2026-01-29 01:55:08.05	3.96	6.57	-27.6	-28.0	16.4	1.85e-04	0	32	0	1753219072	30	17320
2026-01-29 01:55:11.08	3.47	6.75	-27.5	-28.0	16.3	2.34e-04	0	32	0	2088763392	30	17277
2026-01-29 01:55:14.10	2.96	6.93	-27.3	-27.7	16.5	1.85e-04	0	33	0	2432696320	30	16688
2026-01-29 01:55:17.13	2.45	7.11	-27.0	-27.5	16.5	4.35e-05	0	33	0	2768240640	30	16302
2026-01-29 01:55:20.16	1.93	7.28	-27.1	-27.5	16.6	9.80e-05	0	33	0	3112173568	30	16396
2026-01-29 01:55:23.18	1.40	7.46	-26.6	-27.1	16.6	2.72e-05	0	33	0	3456106496	28	17442
2026-01-29 01:55:26.21	0.87	7.64	-26.9	-27.4	16.6	2.17e-05	0	33	0	3791650816	28	18066
2026-01-29 01:55:29.24	0.32	7.81	-26.5	-27.0	16.6	4.90e-05	0	33	0	4135583744	28	17329
2026-01-29 01:55:32.27	359.77	7.99	-26.6	-27.0	16.7	1.08e-05	0	33	0	4479516672	28	17267
2026-01-29 01:55:35.30	359.21	8.17	-26.2	-26.6	16.7	1.08e-05	0	33	0	4823449600	28	16543
2026-01-29 01:55:38.33	358.64	8.34	-26.0	-26.5	16.8	1.63e-05	0	33	0	5158993920	28	16291
2026-01-29 01:55:41.35	358.06	8.52	-26.0	-26.4	16.8	5.40e-06	0	33	0	5502926848	28	16121
2026-01-29 01:55:44.38	357.47	8.69	-26.3	-26.7	16.7	1.08e-05	0	33	0	5838471168	28	16728
2026-01-29 01:55:47.41	356.88	8.86	-25.8	-26.3	16.9	3.81e-05	0	33	0	6182404096	28	15914
2026-01-29 01:55:50.43	356.27	9.03	-26.1	-26.5	16.8	1.63e-05	0	33	0	6517948416	26	18382
2026-01-29 01:55:53.46	355.66	9.21	-26.1	-26.6	16.8	3.81e-05	0	33	0	6861881344	26	18457
2026-01-29 01:55:56.49	355.04	9.38	-25.9	-26.4	16.8	1.08e-05	0	33	0	7197425664	26	18078
2026-01-29 01:55:59.52	354.40	9.54	-25.8	-26.2	16.8	0.00e+00	0	33	0	7541358592	26	17761
2026-01-29 01:56:02.54	353.76	9.71	-25.9	-26.3	16.9	2.17e-05	0	33	0	7885291520	26	17890
2026-01-29 01:56:05.57	353.11	9.88	-25.9	-26.4	16.8	1.63e-05	0	33	0	8220835840	26	18014
2026-01-29 01:56:08.60	352.45	10.04	-26.3	-26.8	16.8	2.17e-05	0	33	0	8564768768	26	18960
2026-01-29 01:56:11.63	351.78	10.20	-26.7	-27.2	16.7	2.17e-05	0	33	0	8900313088	26	19791
2026-01-29 01:56:14.65	351.11	10.36	-25.9	-26.3	16.8	3.26e-05	0	33	0	9244246016	28	15943
2026-01-29 01:56:17.67	350.42	10.52	-25.6	-26.0	16.8	2.17e-05	0	33	0	9588178944	26	17347
2026-01-29 01:56:20.69	349.73	10.68	-25.4	-25.9	16.9	0.00e+00	0	33	0	9923723264	26	17019
2026-01-29 01:56:23.72	349.02	10.83	-25.4	-25.8	16.9	0.00e+00	0	33	0	10267656192	26	17003
2026-01-29 01:56:26.74	348.31	10.98	-25.4	-25.9	16.8	0.00e+00	0	34	0	10611589120	26	17046
2026-01-29 01:56:29.77	347.59	11.13	-25.3	-25.7	16.9	0.00e+00	0	34	0	10947133440	26	16765
2026-01-29 01:56:32.79	346.86	11.27	-25.2	-25.6	16.9	1.08e-05	0	34	0	11291066368	26	16541
2026-01-29 01:56:35.82	346.11	11.42	-25.2	-25.7	16.8	1.08e-05	0	34	0	11626610688	26	16699
2026-01-29 01:56:38.84	345.37	11.56	-25.2	-25.6	16.9	0.00e+00	0	33	0	11970543616	26	16596
2026-01-29 01:56:41.86	344.61	11.70	-24.9	-25.4	16.9	0.00e+00	0	34	0	12306087936	26	16127
2026-01-29 01:56:44.89	343.84	11.83	-25.0	-25.4	16.8	0.00e+00	0	34	0	12641632256	26	16169
2026-01-29 01:56:47.92	343.06	11.96	-24.9	-25.4	16.7	0.00e+00	0	34	0	12985565184	26	16160
2026-01-29 01:56:50.94	342.28	12.09	-25.1	-25.6	16.7	0.00e+00	0	34	0	13329498112	26	16442
2026-01-29 01:56:53.97	341.49	12.21	-25.0	-25.5	16.8	0.00e+00	0	34	0	13665042432	26	16263
2026-01-29 01:56:57.00	340.69	12.33	-25.1	-25.6	16.8	0.00e+00	0	34	0	14008975360	26	16449
2026-01-29 01:57:00.03	339.88	12.45	-25.3	-25.7	16.8	0.00e+00	0	34	0	14344519680	26	16759
2026-01-29 01:57:03.05	339.06	12.56	-25.0	-25.4	16.8	5.40e-06	0	34	0	14688452608	26	16187
2026-01-29 01:57:06.07	338.24	12.66	-24.9	-25.3	16.7	0.00e+00	0	34	0	15032385536	26	15929
2026-01-29 01:57:09.09	337.41	12.77	-24.9	-25.3	16.7	0.00e+00	0	34	0	15376318464	26	15924
2026-01-29 01:57:12.12	336.57	12.86	-25.0	-25.4	16.7	5.40e-06	0	34	0	15711862784	26	16102
2026-01-29 01:57:15.14	335.73	12.96	-25.0	-25.5	16.7	5.40e-06	0	34	0	16055795712	26	16281
2026-01-29 01:57:18.17	334.88	13.05	-25.2	-25.6	16.5	5.40e-06	0	34	0	16391340032	26	16515
2026-01-29 01:57:21.20	334.02	13.13	-25.0	-25.4	16.5	0.00e+00	0	34	0	16735272960	26	16230
2026-01-29 01:57:24.23	333.16	13.21	-25.0	-25.4	16.5	1.08e-05	0	34	0	17070817280	26	16115
2026-01-29 01:57:27.25	332.29	13.28	-25.0	-25.4	16.5	0.00e+00	0	34	0	17414750208	26	16076
2026-01-29 01:57:30.28	331.42	13.35	-24.9	-25.3	16.5	0.00e+00	0	34	0	17750294528	26	16031
2026-01-29 01:57:33.31	330.54	13.41	-25.1	-25.5	16.4	5.40e-06	0	34	0	18094227456	26	16373
2026-01-29 01:57:36.33	329.66	13.47	-25.2	-25.6	16.4	0.00e+00	0	34	0	18429771776	26	16506
2026-01-29 01:57:39.36	328.78	13.52	-25.2	-25.6	16.3	0.00e+00	0	34	0	18773704704	26	16601
2026-01-29 01:57:42.38	327.89	13.56	-25.3	-25.7	16.3	5.40e-06	0	34	0	19109249024	26	16691
2026-01-29 01:57:45.41	327.00	13.60	-25.5	-25.9	16.3	5.40e-06	0	34	0	19453181952	26	17147
2026-01-29 01:57:48.44	326.10	13.64	-25.4	-25.8	16.3	2.72e-05	0	34	0	19797114880	26	16957
2026-01-29 01:57:51.47	325.20	13.66	-25.6	-26.0	16.3	0.00e+00	0	34	0	20132659200	26	17302
2026-01-29 01:57:54.50	324.30	13.69	-25.3	-25.7	16.4	1.08e-05	0	34	0	20476592128	26	16664
2026-01-29 01:57:57.52	323.41	13.70	-25.4	-25.8	16.4	0.00e+00	0	34	0	20820525056	26	16845
2026-01-29 01:58:00.55	322.50	13.71	-25.3	-25.7	16.5	1.08e-05	0	34	0	21156069376	26	16629
2026-01-29 01:58:03.57	321.60	13.71	-25.2	-25.6	16.6	5.40e-06	0	34	0	21500002304	26	16610
2026-01-29 01:58:06.59	320.70	13.71	-25.2	-25.6	16.6	5.40e-06	0	34	0	21843935232	26	16605
2026-01-29 01:58:09.62	319.80	13.70	-25.2	-25.6	16.7	1.08e-05	0	34	0	22179479552	26	16480
2026-01-29 01:58:12.65	318.90	13.69	-25.1	-25.5	16.7	5.40e-06	0	34	0	22523412480	26	16390
2026-01-29 01:58:15.68	318.00	13.67	-25.1	-25.5	16.7	0.00e+00	0	34	0	22858956800	26	16390
2026-01-29 01:58:18.70	317.10	13.64	-25.4	-25.9	16.7	0.00e+00	0	34	0	23202889728	26	17015
2026-01-29 01:58:21.73	316.21	13.61	-48.8	-51.3	6.1	0.00e+00	0	34	104	23362273280	60	45199
2026-01-29 01:58:24.75	315.32	13.57	-48.7	-51.2	6.1	0.00e+00	0	34	104	23362273280	60	44462
2026-01-29 01:58:27.78	314.42	13.52	-48.7	-51.2	6.1	0.00e+00	0	34	104	23362273280	60	44461
2026-01-29 01:58:30.81	313.54	13.47	-48.8	-51.3	6.1	0.00e+00	0	34	104	23362273280	60	45011
2026-01-29 01:58:33.83	312.66	13.42	-48.7	-51.2	6.1	0.00e+00	0	34	104	23362273280	60	44327
2026-01-29 01:58:36.87	311.77	13.36	-48.5	-51.1	6.1	0.00e+00	0	34	104	23362273280	60	43870
2026-01-29 01:58:39.89	310.90	13.29	-48.6	-51.1	6.1	0.00e+00	0	34	104	23362273280	60	44132
2026-01-29 01:58:42.92	310.03	13.22	-48.6	-51.1	6.1	0.00e+00	0	34	104	23362273280	60	43998
2026-01-29 01:58:45.95	309.16	13.14	-48.7	-51.2	6.1	0.00e+00	0	34	104	23362273280	60	44571
2026-01-29 01:58:48.97	308.31	13.05	-48.5	-51.0	6.1	0.00e+00	0	34	104	23362273280	60	43549
2026-01-29 01:58:51.99	307.46	12.97	-48.5	-51.1	6.1	0.00e+00	0	34	104	23362273280	60	43767
2026-01-29 01:58:55.02	306.61	12.87	-48.4	-51.0	6.1	0.00e+00	0	34	104	23362273280	60	43507
2026-01-29 01:58:58.04	305.77	12.78	-48.2	-50.9	6.1	0.00e+00	0	34	104	23362273280	60	42740
2026-01-29 01:59:01.07	304.94	12.67	-48.3	-50.9	6.1	0.00e+00	0	34	104	23362273280	60	42993
2026-01-29 01:59:04.10	304.11	12.57	-48.5	-51.1	6.1	0.00e+00	0	34	104	23362273280	60	43745
2026-01-29 01:59:07.12	303.29	12.46	-48.4	-51.0	6.1	0.00e+00	0	34	104	23362273280	60	43298
2026-01-29 01:59:10.15	302.48	12.34	-48.5	-51.0	6.1	0.00e+00	0	34	104	23362273280	60	43604
2026-01-29 01:59:13.18	301.68	12.22	-48.6	-51.1	6.1	0.00e+00	0	34	104	23362273280	60	44066
2026-01-29 01:59:16.20	300.88	12.10	-48.7	-51.2	6.1	0.00e+00	0	34	104	23362273280	60	44522
2026-01-29 01:59:19.22	300.10	11.97	-48.7	-51.2	6.1	0.00e+00	0	34	104	23362273280	60	44710
2026-01-29 01:59:22.25	299.32	11.84	-48.8	-51.3	6.1	0.00e+00	0	34	104	23362273280	60	44833
2026-01-29 01:59:25.28	298.55	11.71	-48.8	-51.3	6.1	0.00e+00	0	34	104	23362273280	60	45014
2026-01-29 01:59:28.30	297.79	11.57	-48.9	-51.3	6.1	0.00e+00	0	34	104	23362273280	60	45194
2026-01-29 01:59:31.33	297.03	11.43	-48.8	-51.3	6.1	0.00e+00	0	34	104	23362273280	60	44870
2026-01-29 01:59:34.35	296.29	11.28	-48.9	-51.4	6.1	0.00e+00	0	34	104	23362273280	60	45270
2026-01-29 01:59:37.38	295.55	11.14	-48.7	-51.2	6.1	0.00e+00	0	34	104	23362273280	60	44527
2026-01-29 01:59:40.41	294.83	10.99	-48.8	-51.3	6.1	0.00e+00	0	34	104	23362273280	60	44803
2026-01-29 01:59:43.43	294.11	10.84	-48.8	-51.3	6.1	0.00e+00	0	34	104	23362273280	60	45120
2026-01-29 01:59:46.46	293.40	10.68	-48.8	-51.3	6.1	0.00e+00	0	34	104	23362273280	60	44887
2026-01-29 01:59:49.49	292.70	10.53	-48.8	-51.2	6.1	0.00e+00	0	34	104	23362273280	60	44575
2026-01-29 01:59:52.51	292.01	10.37	-48.7	-51.2	6.1	0.00e+00	0	34	104	23362273280	60	44271
2026-01-29 01:59:55.54	291.33	10.21	-48.7	-51.2	6.1	0.00e+00	0	34	104	23362273280	60	44472
2026-01-29 01:59:58.56	290.66	10.05	-48.7	-51.2	6.1	0.00e+00	0	34	104	23362273280	60	44417
2026-01-29 02:00:01.58	290.00	9.88	-48.7	-51.2	6.1	0.00e+00	0	34	104	23362273280	60	44228
2026-01-29 02:00:04.61	289.34	9.72	-48.7	-51.2	6.1	0.00e+00	0	34	104	23362273280	60	44225
2026-01-29 02:00:07.64	288.70	9.55	-48.6	-51.1	6.1	0.00e+00	0	34	104	23362273280	60	44141
2026-01-29 02:00:10.66	288.06	9.38	-48.7	-51.2	6.1	0.00e+00	0	34	104	23362273280	60	44417
2026-01-29 02:00:13.69	287.44	9.21	-48.7	-51.1	6.1	0.00e+00	0	34	104	23362273280	60	44170
2026-01-29 02:00:16.72	286.82	9.04	-48.6	-51.1	6.1	0.00e+00	0	34	104	23362273280	60	44077
2026-01-29 02:00:19.74	286.21	8.87	-48.7	-51.2	6.1	0.00e+00	0	34	104	23362273280	60	44241
2026-01-29 02:00:22.77	285.61	8.69	-48.6	-51.1	6.1	0.00e+00	0	34	104	23362273280	60	43723
2026-01-29 02:00:25.80	285.02	8.52	-48.6	-51.1	6.1	0.00e+00	0	34	104	23362273280	60	43716
2026-01-29 02:00:28.82	284.44	8.34	-48.6	-51.0	6.1	0.00e+00	0	34	104	23362273280	60	43632
2026-01-29 02:00:31.85	283.87	8.17	-48.6	-51.1	6.1	0.00e+00	0	34	104	23362273280	60	44060
2026-01-29 02:00:34.88	283.30	7.99	-48.6	-51.0	6.1	0.00e+00	0	34	104	23362273280	60	43670
2026-01-29 02:00:37.90	282.75	7.82	-48.5	-51.0	6.1	0.00e+00	0	34	104	23362273280	60	43541
2026-01-29 02:00:40.93	282.20	7.64	-48.5	-51.0	6.1	0.00e+00	0	34	104	23362273280	60	43299
2026-01-29 02:00:43.96	281.66	7.46	-48.6	-51.1	6.1	0.00e+00	0	34	104	23362273280	60	43725
2026-01-29 02:00:46.98	281.13	7.28	-48.5	-51.0	6.1	0.00e+00	0	34	104	23362273280	60	43520
2026-01-29 02:00:50.00	280.60	7.10	-48.5	-50.9	6.0	0.00e+00	0	34	104	23362273280	60	43207
2026-01-29 02:00:53.02	280.09	6.93	-48.4	-50.8	6.1	0.00e+00	0	34	104	23362273280	60	42680
2026-01-29 02:00:56.05	279.58	6.75	-48.5	-51.0	6.1	0.00e+00	0	34	104	23362273280	60	43297
2026-01-29 02:00:59.08	279.08	6.57	-48.3	-50.8	6.1	0.00e+00	0	34	104	23362273280	60	42711
2026-01-29 02:01:02.11	278.59	6.39	-48.4	-50.8	6.1	0.00e+00	0	34	104	23362273280	60	42539
2026-01-29 02:01:05.13	278.11	6.21	-48.3	-50.8	6.1	0.00e+00	0	34	104	23362273280	60	42260
2026-01-29 02:01:08.16	277.63	6.03	-48.4	-50.9	6.1	0.00e+00	0	34	104	23362273280	60	42775
2026-01-29 02:01:11.19	277.16	5.85	-48.3	-50.8	6.1	0.00e+00	0	34	104	23362273280	60	42406
2026-01-29 02:01:14.22	276.70	5.67	-48.3	-50.7	6.1	0.00e+00	0	34	104	23362273280	60	42100
2026-01-29 02:01:17.25	276.24	5.50	-48.1	-50.6	6.1	0.00e+00	0	34	104	23362273280	60	41720
2026-01-29 02:01:20.27	275.80	5.32	-48.3	-50.7	6.1	0.00e+00	0	34	104	23362273280	60	42078
2026-01-29 02:01:23.30	275.35	5.14	-48.2	-50.7	6.1	0.00e+00	0	34	104	23362273280	60	41800
2026-01-29 02:01:26.33	274.92	4.96	-48.1	-50.6	6.1	0.00e+00	0	34	104	23362273280	60	41414
2026-01-29 02:01:29.36	274.49	4.78	-48.0	-50.5	6.1	0.00e+00	0	34	104	23362273280	60	40951
2026-01-29 02:01:32.38	274.07	4.61	-48.1	-50.6	6.1	0.00e+00	0	33	104	23362273280	60	41509
2026-01-29 02:01:35.41	273.66	4.43	-48.1	-50.5	6.1	0.00e+00	0	34	104	23362273280	60	41157
2026-01-29 02:01:38.44	273.25	4.25	-48.0	-50.5	6.1	0.00e+00	0	33	104	23362273280	60	40960
2026-01-29 02:01:41.47	272.85	4.08	-47.8	-50.3	6.1	0.00e+00	0	34	104	23362273280	60	40138
2026-01-29 02:01:44.50	272.45	3.90	-47.9	-50.3	6.1	0.00e+00	0	34	104	23362273280	60	40299
2026-01-29 02:01:47.52	272.06	3.73	-47.9	-50.4	6.1	0.00e+00	0	34	104	23362273280	60	40630
2026-01-29 02:01:50.55	271.68	3.55	-47.8	-50.3	6.1	0.00e+00	0	34	104	23362273280	60	39903
2026-01-29 02:01:53.57	271.30	3.38	-47.6	-50.1	6.1	0.00e+00	0	34	104	23362273280	60	39319
2026-01-29 02:01:56.60	270.93	3.21	-47.6	-50.1	6.1	0.00e+00	0	34	104	23362273280	60	39378
2026-01-29 02:01:59.63	270.56	3.03	-47.8	-50.3	6.1	0.00e+00	0	34	104	23362273280	60	39918
2026-01-29 02:02:02.65	270.20	2.86	-48.8	-51.3	6.1	0.00e+00	0	34	104	23362273280	60	44953
2026-01-29 02:02:05.68	269.85	2.69	-49.1	-51.6	6.1	0.00e+00	0	34	104	23362273280	60	46586
2026-01-29 02:02:08.71	269.50	2.52	-49.2	-51.7	6.1	0.00e+00	0	34	104	23362273280	60	46940
2026-01-29 02:02:11.74	269.15	2.35	-49.2	-51.7	6.1	0.00e+00	0	34	104	23362273280	60	47040
2026-01-29 02:02:14.77	268.81	2.17	-49.1	-51.6	6.1	0.00e+00	0	34	104	23362273280	60	46596
2026-01-29 02:02:17.80	268.48	2.00	-49.0	-51.5	6.1	0.00e+00	0	34	104	23362273280	60	46007
2026-01-29 02:02:20.83	268.15	1.84	-49.0	-51.5	6.1	0.00e+00	0	34	104	23362273280	60	46102
2026-01-29 02:02:23.86	267.82	1.67	-49.0	-51.5	6.1	0.00e+00	0	34	104	23362273280	60	46065
2026-01-29 02:02:26.89	267.50	1.50	-49.1	-51.6	6.0	0.00e+00	0	34	104	23362273280	60	46312
2026-01-29 02:02:29.92	267.19	1.33	-49.1	-51.5	6.1	0.00e+00	0	34	104	23362273280	60	46137
2026-01-29 02:02:32.95	266.88	1.16	-49.1	-51.5	6.1	0.00e+00	0	34	104	23362273280	60	46294
2026-01-29 02:02:35.98	266.57	1.00	-49.1	-51.6	6.1	0.00e+00	0	34	104	23362273280	60	46448
2026-01-29 02:02:39.01	266.27	0.83	-49.1	-51.6	6.1	0.00e+00	0	34	104	23362273280	60	46386
2026-01-29 02:02:42.04	265.97	0.67	-49.1	-51.6	6.1	0.00e+00	0	34	104	23362273280	60	46365
2026-01-29 02:02:45.07	265.68	0.50	-49.1	-51.5	6.1	0.00e+00	0	34	104	23362273280	60	46246
2026-01-29 02:02:48.09	265.39	0.34	-49.1	-51.5	6.1	0.00e+00	0	34	104	23362273280	60	46290
2026-01-29 02:02:51.12	265.11	0.18	-49.1	-51.6	6.1	0.00e+00	0	34	104	23362273280	60	46370
2026-01-29 02:02:54.14	264.83	0.01	-49.1	-51.6	6.1	0.00e+00	0	34	104	23362273280	60	46303

#Closed at: 2026-01-29 02:02:55
#Recorded file [23362 MB]: D:/lorett/data/35029_260129_135343.dat