passes_logs/2026/01/29/R4.6S_Anadyr/R4.6S_Anadyr__20260129_113246_KOSAR1-5_rec.log

#Pass ID: 20260129_113246_KOSAR1-5
#Satellite: KOSAR1-5
#Configuration: KOSAR1-5
#almurnet v.1.7.20251203
#Start time: 2026-01-29 11:32:48

#Version: 2.2.20231116
#Station: R4.6S_Anadyr
#Location: 177.4865 lon 64.73178 lat
#TLE: 1 67264U 25313S   26027.89307552  .00010412  00000+0  48021-3 0  9990
#TLE: 2 67264  97.4176 104.8503 0016482 138.1720 222.0778 15.20312014  4613

#Time	Az	El	Level	Level2	SNR	BER	BlckErr	Temp	State	Recorded	gain1	gain2
2026-01-29 11:32:48.37	220.87	0.10	-45.4	-59.8	3.6	1.51e+00	0	28	0	0	60	39750
2026-01-29 11:32:51.39	221.18	0.25	-45.9	-60.7	3.6	1.51e+00	0	29	104	0	60	43840
2026-01-29 11:32:54.42	221.49	0.41	-45.7	-60.5	3.6	1.51e+00	0	29	104	0	60	43055
2026-01-29 11:32:57.45	221.81	0.57	-45.9	-60.7	3.6	1.51e+00	0	29	104	0	60	43841
2026-01-29 11:33:00.48	222.14	0.72	-46.0	-60.6	3.6	1.51e+00	0	30	104	0	60	43652
2026-01-29 11:33:03.51	222.46	0.88	-45.9	-60.7	3.6	1.51e+00	0	30	104	0	60	43867
2026-01-29 11:33:06.54	222.79	1.04	-45.8	-60.5	3.6	1.51e+00	0	30	104	0	60	42990
2026-01-29 11:33:09.57	223.13	1.20	-45.2	-60.1	3.6	1.51e+00	0	30	104	0	60	41099
2026-01-29 11:33:12.59	223.47	1.36	-42.5	-58.6	3.6	1.51e+00	0	30	104	0	60	34490
2026-01-29 11:33:15.63	223.81	1.52	-41.3	-58.0	3.6	1.51e+00	0	30	104	0	56	40680
2026-01-29 11:33:18.65	224.16	1.68	-41.3	-58.0	3.6	1.51e+00	0	30	104	0	56	40705
2026-01-29 11:33:21.69	224.52	1.84	-41.3	-58.0	3.6	1.51e+00	0	30	104	0	56	40562
2026-01-29 11:33:24.72	224.87	2.00	-41.2	-58.0	3.6	1.51e+00	0	30	104	0	56	40376
2026-01-29 11:33:27.75	225.24	2.16	-41.2	-58.0	3.6	1.51e+00	0	30	104	0	56	40356
2026-01-29 11:33:30.78	225.61	2.33	-41.3	-57.9	3.6	1.51e+00	0	30	104	0	56	40276
2026-01-29 11:33:33.81	225.98	2.49	-41.2	-58.0	3.6	1.51e+00	0	30	104	0	56	40363
2026-01-29 11:33:36.84	226.36	2.65	-41.2	-58.0	3.6	1.51e+00	0	30	104	0	56	40386
2026-01-29 11:33:39.87	226.74	2.81	-41.3	-58.0	3.5	1.51e+00	0	30	104	0	56	40560
2026-01-29 11:33:42.90	227.13	2.98	-41.3	-58.0	3.6	1.51e+00	0	30	104	0	56	40551
2026-01-29 11:33:45.93	227.53	3.14	-41.3	-58.0	3.6	1.51e+00	0	30	104	0	56	40582
2026-01-29 11:33:48.96	227.93	3.31	-41.8	-58.1	3.6	1.51e+00	0	30	104	0	58	36394
2026-01-29 11:33:51.99	228.33	3.47	-42.8	-58.2	3.6	1.51e+00	0	30	104	0	58	36992
2026-01-29 11:33:55.02	228.75	3.64	-43.3	-58.4	3.6	1.51e+00	0	30	104	0	60	33746
2026-01-29 11:33:58.04	229.16	3.80	-42.7	-58.4	3.6	1.51e+00	0	30	104	0	60	33848
2026-01-29 11:34:01.07	229.58	3.97	-43.8	-58.6	3.6	1.51e+00	0	30	104	0	60	34401
2026-01-29 11:34:04.11	230.01	4.13	-44.4	-59.3	3.6	1.51e+00	0	30	104	0	60	37371
2026-01-29 11:34:07.13	230.45	4.30	-44.4	-59.4	3.6	1.51e+00	0	31	104	0	60	37779
2026-01-29 11:34:10.16	230.89	4.47	-44.6	-59.9	3.6	1.51e+00	0	30	104	0	60	39973
2026-01-29 11:34:13.19	231.34	4.63	-45.2	-60.2	3.6	1.51e+00	0	31	104	0	60	41684
2026-01-29 11:34:16.22	231.79	4.80	-45.4	-60.6	3.6	1.51e+00	0	31	104	0	60	43232
2026-01-29 11:34:19.25	232.25	4.97	-45.3	-60.9	3.6	1.51e+00	0	30	104	0	60	45022
2026-01-29 11:34:22.28	232.72	5.13	-44.4	-60.2	3.6	1.51e+00	0	30	104	0	60	41595
2026-01-29 11:34:25.30	233.19	5.30	-45.1	-60.7	3.6	1.51e+00	0	31	104	0	60	43912
2026-01-29 11:34:28.33	233.67	5.47	-44.3	-59.7	3.6	1.51e+00	0	31	104	0	60	39262
2026-01-29 11:34:31.36	234.16	5.63	-44.4	-59.3	3.6	1.51e+00	0	31	104	0	60	37205
2026-01-29 11:34:34.40	234.65	5.80	-43.2	-58.9	3.6	1.51e+00	0	31	104	0	60	35912
2026-01-29 11:34:37.43	235.15	5.97	-42.8	-59.3	3.6	1.51e+00	0	31	104	0	60	37429
2026-01-29 11:34:40.45	235.66	6.13	-42.6	-59.1	3.6	1.51e+00	0	31	104	0	60	36432
2026-01-29 11:34:43.47	236.17	6.30	-44.8	-59.8	3.6	1.51e+00	0	31	104	0	60	39756
2026-01-29 11:34:46.51	236.70	6.47	-43.0	-60.5	3.6	1.51e+00	0	31	104	0	60	42929
2026-01-29 11:34:49.53	237.22	6.63	-43.3	-60.0	3.6	1.51e+00	0	31	104	0	60	40553
2026-01-29 11:34:52.56	237.76	6.80	-44.1	-59.9	3.6	1.51e+00	0	31	104	0	60	40184
2026-01-29 11:34:55.59	238.31	6.96	-44.6	-60.3	3.6	1.51e+00	0	31	104	0	60	42131
2026-01-29 11:34:58.62	238.86	7.13	-45.1	-60.2	3.6	1.51e+00	0	31	104	0	60	41729
2026-01-29 11:35:01.64	239.42	7.29	-45.1	-60.0	3.6	1.51e+00	0	31	104	0	60	40414
2026-01-29 11:35:04.67	239.98	7.45	-43.5	-59.3	3.6	1.51e+00	0	31	104	0	60	37270
2026-01-29 11:35:07.70	240.56	7.62	-45.0	-60.7	3.6	1.51e+00	0	31	104	0	60	44013
2026-01-29 11:35:10.73	241.14	7.78	-44.1	-59.0	3.6	1.51e+00	0	31	104	0	60	36284
2026-01-29 11:35:13.76	241.73	7.94	-44.2	-59.1	3.6	1.51e+00	0	31	104	0	60	36616
2026-01-29 11:35:16.78	242.33	8.10	-44.2	-59.0	3.6	1.51e+00	0	31	104	0	60	36184
2026-01-29 11:35:19.81	242.94	8.26	-44.2	-59.2	3.6	1.51e+00	0	31	104	0	60	36779
2026-01-29 11:35:22.84	243.55	8.42	-44.3	-59.2	3.6	1.51e+00	0	31	104	0	60	36811
2026-01-29 11:35:25.87	244.17	8.57	-44.2	-59.1	3.6	1.51e+00	0	31	104	0	60	36727
2026-01-29 11:35:28.90	244.81	8.73	-44.4	-59.3	3.6	1.51e+00	0	31	104	0	60	37502
2026-01-29 11:35:31.93	245.44	8.88	-44.8	-59.5	3.6	1.51e+00	0	31	104	0	60	38144
2026-01-29 11:35:34.95	246.09	9.03	-44.8	-59.5	3.6	1.51e+00	0	31	104	0	60	38116
2026-01-29 11:35:37.98	246.75	9.19	-44.8	-59.5	3.6	1.51e+00	0	31	104	0	60	38273
2026-01-29 11:35:41.00	247.41	9.34	-44.9	-59.6	3.6	1.51e+00	0	31	104	0	60	38855
2026-01-29 11:35:44.03	248.08	9.48	-45.1	-59.8	3.6	1.51e+00	0	31	104	0	60	39522
2026-01-29 11:35:47.06	248.76	9.63	-45.0	-59.7	3.6	1.51e+00	0	31	104	0	60	39294
2026-01-29 11:35:50.08	249.45	9.77	-45.0	-59.7	3.6	1.51e+00	0	31	104	0	60	39116
2026-01-29 11:35:53.11	250.14	9.92	-45.0	-59.7	3.6	1.51e+00	0	31	104	0	60	39087
2026-01-29 11:35:56.14	250.85	10.06	-45.0	-59.7	3.6	1.51e+00	0	31	104	0	60	39288
2026-01-29 11:35:59.17	251.56	10.19	-45.1	-59.8	3.6	1.51e+00	0	31	104	0	60	39678
2026-01-29 11:36:02.20	252.28	10.33	-45.0	-59.7	3.5	1.51e+00	0	31	104	0	60	39135
2026-01-29 11:36:05.23	253.01	10.46	-45.0	-59.7	3.6	1.51e+00	0	31	104	0	60	39223
2026-01-29 11:36:08.25	253.75	10.59	-45.1	-59.8	3.6	1.51e+00	0	31	104	0	60	39586
2026-01-29 11:36:11.28	254.49	10.72	-45.1	-59.8	3.6	1.51e+00	0	31	104	0	60	39611
2026-01-29 11:36:14.31	255.24	10.84	-45.0	-59.7	3.6	1.51e+00	0	31	104	0	60	39122
2026-01-29 11:36:17.34	256.00	10.96	-45.1	-59.8	3.6	1.51e+00	0	31	104	0	60	39663
2026-01-29 11:36:20.36	256.77	11.08	-45.2	-59.9	3.6	1.51e+00	0	31	104	0	60	40032
2026-01-29 11:36:23.39	257.54	11.20	-45.1	-59.9	3.6	1.51e+00	0	31	104	0	60	39921
2026-01-29 11:36:26.42	258.33	11.31	-45.1	-59.8	3.6	1.51e+00	0	31	104	0	60	39463
2026-01-29 11:36:29.45	259.11	11.42	-45.2	-59.9	3.6	1.51e+00	0	31	104	0	60	40175
2026-01-29 11:36:32.48	259.91	11.52	-45.2	-59.8	3.6	1.51e+00	0	31	104	0	60	39834
2026-01-29 11:36:35.51	260.71	11.62	-45.2	-59.8	3.6	1.51e+00	0	31	104	0	60	39831
2026-01-29 11:36:38.53	261.52	11.72	-45.1	-59.9	3.6	1.51e+00	0	31	104	0	60	39894
2026-01-29 11:36:41.56	262.33	11.81	-45.1	-59.9	3.6	1.51e+00	0	31	104	0	60	39870
2026-01-29 11:36:44.59	263.16	11.90	-45.1	-59.8	3.6	1.51e+00	0	31	104	0	60	39859
2026-01-29 11:36:47.62	263.98	11.98	-45.2	-59.9	3.5	1.51e+00	0	31	104	0	60	40142
2026-01-29 11:36:50.65	264.81	12.06	-45.2	-59.8	3.6	1.51e+00	0	31	104	0	60	39833
2026-01-29 11:36:53.68	265.65	12.14	-45.2	-59.8	3.6	1.51e+00	0	31	104	0	60	39859
2026-01-29 11:36:56.70	266.49	12.21	-45.2	-59.9	3.6	1.51e+00	0	31	104	0	60	39873
2026-01-29 11:36:59.73	267.34	12.28	-45.2	-59.9	3.6	1.51e+00	0	31	104	0	60	40190
2026-01-29 11:37:02.77	268.19	12.34	-45.2	-59.9	3.6	1.51e+00	0	31	104	0	60	40011
2026-01-29 11:37:05.51	268.97	12.39	-45.1	-59.9	3.6	1.51e+00	0	31	104	0	60	39986
2026-01-29 11:37:08.82	269.91	12.45	-45.2	-59.9	3.6	1.51e+00	0	31	104	0	60	40213
2026-01-29 11:37:11.57	270.69	12.49	-45.2	-59.9	3.6	1.51e+00	0	31	104	0	60	40297
2026-01-29 11:37:14.89	271.64	12.53	-45.2	-59.9	3.6	1.51e+00	0	31	104	0	60	40103
2026-01-29 11:37:17.62	272.42	12.57	-45.2	-59.8	3.6	1.51e+00	0	31	104	0	60	39841
2026-01-29 11:37:20.94	273.37	12.60	-45.2	-59.9	3.6	1.51e+00	0	31	104	0	60	40155
2026-01-29 11:37:23.68	274.16	12.63	-45.2	-59.9	3.5	1.51e+00	0	31	104	0	60	40155
2026-01-29 11:37:27.00	275.12	12.65	-45.3	-59.9	3.6	1.51e+00	0	31	104	0	60	40132
2026-01-29 11:37:29.73	275.91	12.66	-45.1	-59.8	3.6	1.51e+00	0	31	104	0	60	39798
2026-01-29 11:37:33.05	276.87	12.67	-45.2	-59.9	3.6	1.51e+00	0	31	104	0	60	40156
2026-01-29 11:37:35.79	277.66	12.68	-45.2	-59.9	3.6	1.51e+00	0	31	104	0	60	40276
2026-01-29 11:37:39.11	278.62	12.68	-45.3	-59.9	3.6	1.51e+00	0	31	104	0	60	40186
2026-01-29 11:37:41.85	279.42	12.67	-45.2	-59.9	3.6	1.51e+00	0	31	104	0	60	40106
2026-01-29 11:37:45.17	280.38	12.66	-45.2	-59.9	3.6	1.51e+00	0	31	104	0	60	40116
2026-01-29 11:37:47.91	281.17	12.65	-45.2	-59.9	3.6	1.51e+00	0	31	104	0	60	40064
2026-01-29 11:37:51.22	282.13	12.62	-45.3	-60.0	3.6	1.51e+00	0	31	104	0	60	40330
2026-01-29 11:37:53.96	282.91	12.60	-45.2	-59.9	3.6	1.51e+00	0	31	104	0	60	40074
2026-01-29 11:37:57.28	283.87	12.56	-45.2	-59.9	3.6	1.51e+00	0	31	104	0	60	39877
2026-01-29 11:38:00.02	284.65	12.53	-45.2	-59.9	3.6	1.51e+00	0	31	104	0	60	39868
2026-01-29 11:38:03.33	285.60	12.48	-45.2	-59.9	3.6	1.51e+00	0	31	104	0	60	40030
2026-01-29 11:38:06.07	286.38	12.44	-45.2	-59.9	3.6	1.51e+00	0	31	104	0	60	40187
2026-01-29 11:38:09.39	287.32	12.38	-45.2	-59.8	3.6	1.51e+00	0	31	104	0	60	39843
2026-01-29 11:38:12.13	288.09	12.33	-45.2	-59.9	3.6	1.51e+00	0	31	104	0	60	40242
2026-01-29 11:38:15.45	289.02	12.27	-45.3	-60.0	3.6	1.51e+00	0	31	104	0	60	40446
2026-01-29 11:38:18.19	289.79	12.20	-45.2	-59.9	3.6	1.51e+00	0	31	104	0	60	40088
2026-01-29 11:38:21.51	290.71	12.13	-45.2	-59.9	3.6	1.51e+00	0	31	104	0	60	40153
2026-01-29 11:38:24.25	291.47	12.06	-45.3	-59.9	3.6	1.51e+00	0	31	104	0	60	40206
2026-01-29 11:38:27.57	292.38	11.97	-45.3	-60.0	3.6	1.51e+00	0	31	104	0	60	40380
2026-01-29 11:38:30.31	293.13	11.89	-45.2	-59.9	3.6	1.51e+00	0	31	104	0	60	40102
2026-01-29 11:38:33.63	294.03	11.80	-45.2	-59.9	3.6	1.51e+00	0	31	104	0	60	40185
2026-01-29 11:38:36.37	294.76	11.71	-45.2	-59.9	3.6	1.51e+00	0	31	104	0	60	40140
2026-01-29 11:38:39.68	295.65	11.61	-45.2	-59.9	3.6	1.51e+00	0	31	104	0	60	40202
2026-01-29 11:38:42.42	296.37	11.51	-45.2	-59.9	3.6	1.51e+00	0	31	104	0	60	40310
2026-01-29 11:38:45.74	297.24	11.40	-45.1	-59.9	3.6	1.51e+00	0	31	104	0	60	40002
2026-01-29 11:38:48.48	297.95	11.30	-45.2	-59.9	3.6	1.51e+00	0	31	104	0	60	40023
2026-01-29 11:38:51.80	298.81	11.18	-45.2	-59.9	3.6	1.51e+00	0	31	104	0	60	40066
2026-01-29 11:38:54.54	299.51	11.07	-45.2	-59.9	3.6	1.51e+00	0	31	104	0	60	40177
2026-01-29 11:38:57.85	300.35	10.95	-45.2	-59.9	3.6	1.51e+00	0	31	104	0	60	40003
2026-01-29 11:39:00.59	301.03	10.84	-45.1	-59.9	3.6	1.51e+00	0	31	104	0	60	40082
2026-01-29 11:39:03.91	301.86	10.70	-45.0	-59.9	3.6	1.51e+00	0	31	104	0	60	40021
2026-01-29 11:39:06.65	302.53	10.58	-45.1	-59.9	3.6	1.51e+00	0	31	104	0	60	40126
2026-01-29 11:39:09.97	303.34	10.44	-44.9	-59.9	3.6	1.51e+00	0	31	104	0	60	40028
2026-01-29 11:39:12.71	303.99	10.32	-45.0	-59.9	3.6	1.51e+00	0	31	104	0	60	40107
2026-01-29 11:39:16.02	304.78	10.17	-44.8	-59.9	3.6	1.51e+00	0	31	104	0	60	40001
2026-01-29 11:39:18.76	305.43	10.05	-44.9	-59.9	3.5	1.51e+00	0	31	104	0	60	40034
2026-01-29 11:39:22.08	306.20	9.89	-44.7	-59.8	3.6	1.51e+00	0	31	104	0	60	39717
2026-01-29 11:39:24.82	306.83	9.77	-44.6	-59.8	3.6	1.51e+00	0	31	104	0	60	39696
2026-01-29 11:39:28.14	307.58	9.61	-44.4	-59.9	3.6	1.51e+00	0	31	104	0	60	39975
2026-01-29 11:39:30.88	308.19	9.48	-44.7	-59.8	3.6	1.51e+00	0	31	104	0	60	39821
2026-01-29 11:39:34.20	308.93	9.31	-44.6	-59.8	3.6	1.51e+00	0	31	104	0	60	39454
2026-01-29 11:39:36.94	309.53	9.18	-44.6	-59.8	3.6	1.51e+00	0	31	104	0	60	39545
2026-01-29 11:39:40.26	310.25	9.01	-44.6	-59.8	3.5	1.51e+00	0	31	104	0	60	39629
2026-01-29 11:39:43.00	310.83	8.87	-43.9	-59.8	3.6	1.51e+00	0	31	104	0	60	39572
2026-01-29 11:39:46.32	311.53	8.70	-43.9	-59.7	3.6	1.51e+00	0	31	104	0	60	38999
2026-01-29 11:39:49.06	312.10	8.56	-44.7	-59.7	3.6	1.51e+00	0	31	104	0	60	39229
2026-01-29 11:39:52.37	312.78	8.39	-44.8	-59.7	3.6	1.51e+00	0	31	104	0	60	39279
2026-01-29 11:39:55.11	313.34	8.25	-44.8	-59.8	3.6	1.51e+00	0	31	104	0	60	39480
2026-01-29 11:39:58.42	314.00	8.08	-44.4	-59.7	3.6	1.51e+00	0	31	104	0	60	39041
2026-01-29 11:40:01.16	314.54	7.93	-44.8	-59.7	3.6	1.51e+00	0	31	104	0	60	39124
2026-01-29 11:40:04.48	315.19	7.76	-44.5	-59.7	3.6	1.51e+00	0	31	104	0	60	39194
2026-01-29 11:40:07.21	315.71	7.61	-44.9	-59.7	3.6	1.51e+00	0	31	104	0	60	39351
2026-01-29 11:40:10.52	316.34	7.43	-44.7	-59.6	3.6	1.51e+00	0	31	104	0	60	38844
2026-01-29 11:40:13.26	316.85	7.28	-44.6	-59.6	3.6	1.51e+00	0	31	104	0	60	38756
2026-01-29 11:40:16.58	317.47	7.11	-44.9	-59.6	3.5	1.51e+00	0	31	104	0	60	38777
2026-01-29 11:40:19.32	317.97	6.96	-44.7	-59.7	3.6	1.51e+00	0	31	104	0	60	38990
2026-01-29 11:40:22.64	318.56	6.78	-44.6	-59.6	3.6	1.51e+00	0	31	104	0	60	38545
2026-01-29 11:40:25.39	319.05	6.63	-44.6	-59.5	3.6	1.51e+00	0	31	104	0	60	38136
2026-01-29 11:40:28.70	319.63	6.45	-44.7	-59.5	3.6	1.51e+00	0	31	104	0	60	38203
2026-01-29 11:40:31.44	320.10	6.30	-44.7	-59.5	3.6	1.51e+00	0	31	104	0	60	38363
2026-01-29 11:40:34.75	320.66	6.11	-44.7	-59.5	3.6	1.51e+00	0	31	104	0	60	38224
2026-01-29 11:40:37.49	321.12	5.96	-44.6	-59.4	3.6	1.51e+00	0	31	104	0	60	37916
2026-01-29 11:40:40.80	321.67	5.78	-44.5	-59.5	3.6	1.51e+00	0	31	104	0	60	38110
2026-01-29 11:40:43.54	322.11	5.63	-44.8	-59.4	3.6	1.51e+00	0	31	104	0	60	38030
2026-01-29 11:40:46.86	322.65	5.45	-44.8	-59.4	3.6	1.51e+00	0	31	104	0	60	38065
2026-01-29 11:40:49.59	323.08	5.30	-44.6	-59.3	3.6	1.51e+00	0	31	104	0	60	37583
2026-01-29 11:40:52.91	323.60	5.12	-44.6	-59.4	3.6	1.51e+00	0	31	104	0	60	37760
2026-01-29 11:40:55.65	324.02	4.97	-44.4	-59.3	3.6	1.51e+00	0	31	104	0	60	37570
2026-01-29 11:40:58.96	324.52	4.78	-44.2	-59.4	3.6	1.51e+00	0	31	104	0	60	38014
2026-01-29 11:41:01.71	324.94	4.63	-44.3	-59.2	3.6	1.51e+00	0	31	104	0	60	37046
2026-01-29 11:41:05.02	325.43	4.45	-44.4	-59.3	3.6	1.51e+00	0	31	104	0	60	37213
2026-01-29 11:41:07.76	325.83	4.30	-44.5	-59.2	3.6	1.51e+00	0	31	104	0	60	37171
2026-01-29 11:41:11.08	326.30	4.12	-44.6	-59.3	3.6	1.51e+00	0	31	104	0	60	37515
2026-01-29 11:41:13.82	326.69	3.97	-44.2	-58.9	3.6	1.51e+00	0	31	104	0	60	35834
2026-01-29 11:41:17.13	327.15	3.79	-44.4	-59.1	3.6	1.51e+00	0	31	104	0	60	36691
2026-01-29 11:41:19.87	327.53	3.64	-44.1	-58.9	3.6	1.51e+00	0	31	104	0	60	35848
2026-01-29 11:41:23.19	327.98	3.46	-44.4	-59.1	3.6	1.51e+00	0	31	104	0	60	36383
2026-01-29 11:41:25.93	328.35	3.31	-42.5	-57.2	3.6	1.51e+00	0	31	104	0	60	29544
2026-01-29 11:41:29.24	328.79	3.13	-44.0	-58.8	3.6	1.51e+00	0	31	104	0	60	35245
2026-01-29 11:41:31.97	329.15	2.99	-44.4	-59.1	3.6	1.51e+00	0	31	104	0	60	36685
2026-01-29 11:41:35.29	329.57	2.81	-45.3	-60.0	3.6	1.51e+00	0	31	104	0	60	40770
2026-01-29 11:41:38.04	329.92	2.66	-45.5	-60.5	3.6	1.51e+00	0	31	104	0	60	42874
2026-01-29 11:41:41.35	330.34	2.48	-45.0	-60.6	3.6	1.51e+00	0	31	104	0	60	43554
2026-01-29 11:41:44.09	330.68	2.34	-45.4	-60.7	3.6	1.51e+00	0	31	104	0	60	43998
2026-01-29 11:41:47.41	331.08	2.16	-45.7	-60.6	3.5	1.51e+00	0	31	104	0	60	43528
2026-01-29 11:41:50.15	331.41	2.01	-45.6	-60.4	3.6	1.51e+00	0	31	104	0	60	42344
2026-01-29 11:41:53.47	331.80	1.84	-45.6	-60.3	3.6	1.51e+00	0	31	104	0	60	42147
2026-01-29 11:41:56.21	332.13	1.69	-45.6	-60.3	3.6	1.51e+00	0	31	104	0	60	41860
2026-01-29 11:41:59.53	332.51	1.52	-45.6	-60.4	3.6	1.51e+00	0	31	104	0	60	42430
2026-01-29 11:42:02.27	332.82	1.37	-45.6	-60.3	3.6	1.51e+00	0	31	104	0	60	41838
2026-01-29 11:42:05.59	333.20	1.20	-45.5	-60.2	3.6	1.51e+00	0	31	104	0	60	41624
2026-01-29 11:42:08.33	333.50	1.05	-45.6	-60.3	3.6	1.51e+00	0	31	104	0	60	42171
2026-01-29 11:42:11.65	333.87	0.88	-45.6	-60.3	3.6	1.51e+00	0	31	104	0	60	41827
2026-01-29 11:42:14.39	334.16	0.74	-45.5	-60.2	3.6	1.51e+00	0	31	104	0	60	41725
2026-01-29 11:42:17.71	334.52	0.57	-45.5	-60.2	3.6	1.51e+00	0	31	104	0	60	41675
2026-01-29 11:42:20.45	334.81	0.43	-45.5	-60.2	3.6	1.51e+00	0	31	104	0	60	41689
2026-01-29 11:42:23.77	335.15	0.25	-45.6	-60.3	3.6	1.51e+00	0	31	104	0	60	41762
2026-01-29 11:42:26.51	335.43	0.11	-45.6	-60.3	3.6	1.51e+00	0	31	104	0	60	42142
2026-01-29 11:42:29.83	335.77	-0.06	-45.5	-60.3	3.6	1.51e+00	0	31	104	0	60	41841

#Closed at: 2026-01-29 11:42:31
#Recorded file [0 MB]: D:/lorett/data/35029_260129_233248.dat