passes_logs/2026/01/29/R4.6S_Anadyr/R4.6S_Anadyr__20260129_202040_SUOMI_NPP_rec.log

#Pass ID: 20260129_202040_SUOMI NPP
#Satellite: SUOMI NPP
#Configuration: NPP
#almurnet v.1.7.20251203
#Start time: 2026-01-29 20:20:42

#Version: 2.2.20231116
#Station: R4.6S_Anadyr
#Location: 177.4865 lon 64.73178 lat
#TLE: 1 37849U 11061A   26028.91916408  .00000155  00000+0  94467-4 0  9990
#TLE: 2 37849  98.7824 330.8488 0002045  39.4457 320.6868 14.19531289738686

#Time	Az	El	Level	Level2	SNR	BER	BlckErr	Temp	State	Recorded	gain1	gain2
2026-01-29 20:20:42.00	66.86	0.08	-49.0	-60.6	3.5	8.45e-01	0	31	0	0	60	38832
2026-01-29 20:20:45.03	66.64	0.23	-49.0	-64.3	3.6	1.51e+00	0	32	104	0	60	59101
2026-01-29 20:20:48.06	66.42	0.38	-49.1	-64.3	3.6	1.51e+00	0	32	104	0	60	59404
2026-01-29 20:20:51.09	66.19	0.53	-49.1	-64.3	3.6	1.51e+00	0	32	104	0	60	59281
2026-01-29 20:20:54.12	65.96	0.68	-49.1	-64.3	3.6	1.51e+00	0	32	104	0	60	59446
2026-01-29 20:20:57.15	65.73	0.83	-49.1	-64.3	3.6	1.51e+00	0	32	104	0	60	59029
2026-01-29 20:21:00.18	65.49	0.99	-49.0	-64.2	3.6	1.51e+00	0	32	104	0	60	58481
2026-01-29 20:21:03.21	65.25	1.14	-48.7	-63.9	3.6	1.51e+00	0	32	104	0	60	56695
2026-01-29 20:21:06.24	65.01	1.29	-48.1	-63.4	3.6	1.51e+00	0	33	104	0	60	53246
2026-01-29 20:21:09.27	64.77	1.44	-47.5	-62.7	3.6	1.51e+00	0	33	104	0	60	49116
2026-01-29 20:21:12.30	64.53	1.59	-47.5	-62.6	3.6	1.51e+00	0	33	104	0	60	48940
2026-01-29 20:21:15.33	64.28	1.75	-47.4	-62.6	3.6	1.51e+00	0	32	104	0	60	48800
2026-01-29 20:21:18.36	64.03	1.90	-47.5	-62.6	3.6	1.51e+00	0	33	104	0	60	49005
2026-01-29 20:21:21.39	63.77	2.05	-47.4	-62.6	3.6	1.51e+00	0	33	104	0	60	48694
2026-01-29 20:21:24.42	63.52	2.21	-47.4	-62.5	3.6	1.51e+00	0	33	104	0	60	48292
2026-01-29 20:21:27.46	63.26	2.36	-47.4	-62.6	3.6	1.51e+00	0	33	104	0	60	48862
2026-01-29 20:21:30.49	63.00	2.51	-47.4	-62.6	3.6	1.51e+00	0	33	104	0	60	48900
2026-01-29 20:21:33.52	62.73	2.67	-47.4	-62.2	3.6	1.51e+00	0	33	104	0	60	46371
2026-01-29 20:21:36.55	62.46	2.82	-47.3	-60.0	3.6	1.51e+00	0	33	104	0	60	36135
2026-01-29 20:21:39.58	62.19	2.98	-44.6	-48.0	13.5	4.31e-04	0	33	0	3145728	60	9059
2026-01-29 20:21:42.61	61.92	3.13	-44.3	-47.2	11.8	2.81e-01	0	33	0	9437184	60	8303
2026-01-29 20:21:45.64	61.65	3.29	-44.4	-47.7	13.6	5.62e-02	90	33	104	9437184	60	8821
2026-01-29 20:21:48.67	61.37	3.45	-43.3	-45.8	15.8	0.00e+00	27	33	0	14680064	60	7023
2026-01-29 20:21:51.70	61.08	3.60	-42.8	-44.9	16.7	0.00e+00	0	33	0	19922944	58	7160
2026-01-29 20:21:54.73	60.80	3.76	-42.7	-44.8	16.9	0.00e+00	92	33	0	26214400	58	7075
2026-01-29 20:21:57.76	60.51	3.91	-42.4	-44.4	17.3	0.00e+00	92	33	0	31457280	58	6727
2026-01-29 20:22:00.78	60.22	4.07	-42.0	-43.8	17.6	0.00e+00	0	33	0	37748736	58	6286
2026-01-29 20:22:03.81	59.92	4.23	-43.0	-45.3	16.5	0.00e+00	53	33	0	42991616	58	7470
2026-01-29 20:22:06.84	59.63	4.38	-42.0	-43.8	18.0	0.00e+00	92	33	0	48234496	58	6308
2026-01-29 20:22:09.87	59.32	4.54	-41.9	-43.7	18.2	0.00e+00	0	33	0	54525952	58	6178
2026-01-29 20:22:12.90	59.02	4.70	-42.0	-43.8	18.0	0.00e+00	3	33	0	59768832	58	6289
2026-01-29 20:22:15.93	58.71	4.86	-41.9	-43.7	18.2	0.00e+00	92	33	0	66060288	58	6235
2026-01-29 20:22:18.96	58.40	5.01	-41.8	-43.6	18.3	0.00e+00	30	33	0	71303168	56	6871
2026-01-29 20:22:21.99	58.08	5.17	-41.9	-43.6	18.3	0.00e+00	30	33	0	76546048	56	6896
2026-01-29 20:22:25.02	57.76	5.33	-41.9	-43.7	18.3	0.00e+00	92	33	0	82837504	56	6946
2026-01-29 20:22:28.05	57.44	5.49	-42.0	-43.7	18.3	0.00e+00	90	33	0	88080384	56	6983
2026-01-29 20:22:31.07	57.12	5.65	-41.8	-43.6	18.6	0.00e+00	0	33	0	94371840	56	6854
2026-01-29 20:22:34.10	56.79	5.80	-41.6	-43.2	18.9	0.00e+00	1	33	0	99614720	56	6589
2026-01-29 20:22:37.13	56.45	5.96	-42.0	-43.8	18.3	0.00e+00	91	33	0	105906176	56	7025
2026-01-29 20:22:40.16	56.12	6.12	-41.8	-43.5	18.7	0.00e+00	0	33	0	111149056	56	6809
2026-01-29 20:22:43.19	55.78	6.28	-41.3	-42.8	19.3	0.00e+00	0	33	0	116391936	56	6263
2026-01-29 20:22:46.22	55.43	6.44	-41.0	-42.5	19.7	0.00e+00	86	33	0	122683392	56	6052
2026-01-29 20:22:49.25	55.08	6.59	-40.6	-42.0	20.0	0.00e+00	92	33	0	127926272	54	6407
2026-01-29 20:22:52.27	54.73	6.75	-40.7	-42.1	20.0	0.00e+00	0	33	0	134217728	54	6504
2026-01-29 20:22:55.30	54.38	6.91	-40.9	-42.4	19.7	0.00e+00	92	33	0	139460608	54	6715
2026-01-29 20:22:58.33	54.02	7.07	-40.5	-41.8	20.2	0.00e+00	90	33	0	144703488	54	6288
2026-01-29 20:23:01.35	53.65	7.23	-40.4	-41.7	19.8	0.00e+00	0	33	0	150994944	54	6233
2026-01-29 20:23:04.38	53.28	7.38	-40.4	-41.7	20.2	0.00e+00	0	33	0	156237824	54	6225
2026-01-29 20:23:07.41	52.91	7.54	-40.6	-41.9	20.1	0.00e+00	40	33	0	162529280	54	6356
2026-01-29 20:23:10.44	52.53	7.70	-40.9	-42.3	19.8	0.00e+00	0	33	0	167772160	54	6631
2026-01-29 20:23:13.47	52.15	7.86	-40.8	-42.1	19.9	0.00e+00	0	33	0	174063616	54	6537
2026-01-29 20:23:16.50	51.77	8.01	-40.5	-41.9	20.1	0.00e+00	92	33	0	179306496	54	6335
2026-01-29 20:23:19.53	51.38	8.17	-40.7	-42.1	20.0	0.00e+00	91	33	0	184549376	54	6507
2026-01-29 20:23:22.56	50.99	8.33	-40.6	-41.9	20.3	0.00e+00	0	33	0	190840832	54	6375
2026-01-29 20:23:25.59	50.59	8.48	-40.4	-41.7	20.3	0.00e+00	63	33	0	196083712	54	6238
2026-01-29 20:23:28.62	50.19	8.64	-40.6	-41.9	20.3	0.00e+00	26	33	0	202375168	54	6352
2026-01-29 20:23:31.64	49.78	8.79	-40.3	-41.5	20.5	0.00e+00	0	33	0	207618048	54	6084
2026-01-29 20:23:34.67	49.37	8.95	-40.3	-41.6	20.5	0.00e+00	0	33	0	212860928	54	6126
2026-01-29 20:23:37.70	48.95	9.10	-40.8	-42.2	20.0	0.00e+00	90	33	0	219152384	54	6565
2026-01-29 20:23:40.73	48.53	9.26	-40.8	-42.2	20.0	0.00e+00	30	33	0	224395264	54	6559
2026-01-29 20:23:43.76	48.11	9.41	-41.3	-42.8	19.6	0.00e+00	0	33	0	230686720	54	7031
2026-01-29 20:23:46.78	47.68	9.56	-40.7	-42.0	20.1	0.00e+00	85	33	0	235929600	54	6455
2026-01-29 20:23:49.81	47.25	9.71	-40.6	-41.9	20.3	0.00e+00	76	33	0	242221056	54	6390
2026-01-29 20:23:52.84	46.81	9.87	-40.3	-41.6	20.6	0.00e+00	0	33	0	247463936	54	6107
2026-01-29 20:23:55.87	46.37	10.02	-40.0	-41.2	21.1	0.00e+00	9	33	0	252706816	52	6547
2026-01-29 20:23:58.90	45.92	10.17	-39.9	-41.1	21.0	0.00e+00	67	33	0	258998272	52	6515
2026-01-29 20:24:01.93	45.47	10.32	-39.4	-40.5	21.5	0.00e+00	0	33	0	264241152	52	6087
2026-01-29 20:24:04.95	45.01	10.46	-39.3	-40.5	21.7	0.00e+00	0	33	0	270532608	52	6053
2026-01-29 20:24:07.98	44.55	10.61	-38.8	-39.9	22.1	0.00e+00	92	33	0	275775488	50	6358
2026-01-29 20:24:11.01	44.08	10.76	-38.9	-40.0	22.0	0.00e+00	33	33	0	281018368	50	6413
2026-01-29 20:24:14.04	43.61	10.90	-38.8	-39.9	22.1	0.00e+00	0	33	0	287309824	50	6319
2026-01-29 20:24:17.07	43.13	11.05	-39.3	-40.5	21.8	0.00e+00	84	33	0	292552704	50	6775
2026-01-29 20:24:20.09	42.66	11.19	-38.9	-39.9	22.1	0.00e+00	92	33	0	298844160	50	6386
2026-01-29 20:24:23.12	42.17	11.33	-38.6	-39.6	22.5	0.00e+00	0	33	0	304087040	50	6131
2026-01-29 20:24:26.15	41.68	11.47	-38.4	-39.4	22.5	0.00e+00	0	33	0	309329920	50	5973
2026-01-29 20:24:29.18	41.18	11.61	-38.0	-38.9	22.9	0.00e+00	92	33	0	315621376	50	5671
2026-01-29 20:24:32.21	40.68	11.75	-38.1	-39.1	22.8	0.00e+00	0	33	0	320864256	50	5773
2026-01-29 20:24:35.24	40.18	11.89	-38.4	-39.4	22.6	0.00e+00	0	33	0	327155712	50	6005
2026-01-29 20:24:38.27	39.67	12.02	-38.4	-39.4	22.5	0.00e+00	91	33	0	332398592	50	6030
2026-01-29 20:24:41.30	39.16	12.16	-38.6	-39.6	22.5	0.00e+00	90	33	0	338690048	50	6155
2026-01-29 20:24:44.34	38.64	12.29	-37.9	-38.8	23.1	0.00e+00	0	33	0	343932928	50	5604
2026-01-29 20:24:47.37	38.11	12.42	-37.4	-38.3	23.4	0.00e+00	0	33	0	349175808	48	5919
2026-01-29 20:24:50.40	37.58	12.55	-37.8	-38.8	23.1	0.00e+00	47	33	0	355467264	48	6270
2026-01-29 20:24:53.42	37.05	12.68	-38.2	-39.2	22.8	0.00e+00	0	33	0	360710144	48	6586
2026-01-29 20:24:56.45	36.52	12.80	-38.6	-39.6	22.3	0.00e+00	0	34	0	367001600	48	6891
2026-01-29 20:24:59.48	35.97	12.93	-38.3	-39.2	22.7	0.00e+00	64	33	0	372244480	48	6613
2026-01-29 20:25:02.51	35.43	13.05	-38.6	-39.6	22.5	0.00e+00	38	34	0	378535936	48	6868
2026-01-29 20:25:05.54	34.87	13.17	-38.8	-39.8	22.3	0.00e+00	0	33	0	383778816	50	6298
2026-01-29 20:25:08.58	34.32	13.28	-39.0	-40.1	22.3	0.00e+00	92	33	0	389021696	50	6484
2026-01-29 20:25:11.61	33.76	13.40	-38.2	-39.2	22.8	0.00e+00	92	33	0	395313152	50	5859
2026-01-29 20:25:14.64	33.19	13.51	-38.0	-39.0	23.0	0.00e+00	0	33	0	400556032	50	5702
2026-01-29 20:25:17.67	32.62	13.62	-38.2	-39.1	23.0	0.00e+00	0	33	0	406847488	50	5820
2026-01-29 20:25:20.70	32.05	13.73	-38.1	-39.0	22.9	0.00e+00	46	34	0	412090368	50	5756
2026-01-29 20:25:23.73	31.47	13.84	-37.7	-38.6	23.3	0.00e+00	0	33	0	417333248	48	6148
2026-01-29 20:25:26.76	30.89	13.94	-38.0	-39.0	23.0	0.00e+00	0	33	0	423624704	48	6394
2026-01-29 20:25:29.79	30.30	14.04	-38.6	-39.7	22.4	0.00e+00	91	33	0	428867584	48	6934
2026-01-29 20:25:32.82	29.71	14.14	-38.4	-39.4	22.6	0.00e+00	90	33	0	435159040	48	6704
2026-01-29 20:25:35.85	29.12	14.24	-38.1	-39.1	22.9	0.00e+00	0	34	0	440401920	48	6484
2026-01-29 20:25:38.88	28.52	14.33	-37.5	-38.4	22.7	0.00e+00	0	34	0	446693376	48	5984
2026-01-29 20:25:41.91	27.92	14.42	-37.6	-38.5	23.3	0.00e+00	92	33	0	451936256	48	6097
2026-01-29 20:25:44.94	27.32	14.51	-37.7	-38.6	23.1	0.00e+00	0	33	0	457179136	48	6173
2026-01-29 20:25:47.97	26.71	14.59	-37.7	-38.6	23.3	0.00e+00	0	33	0	463470592	48	6137
2026-01-29 20:25:50.99	26.10	14.68	-37.6	-38.5	23.5	0.00e+00	92	34	0	468713472	48	6040
2026-01-29 20:25:54.02	25.48	14.76	-38.2	-39.1	22.9	0.00e+00	0	34	0	475004928	48	6529
2026-01-29 20:25:57.05	24.87	14.83	-38.6	-39.6	22.5	0.00e+00	0	34	0	480247808	48	6917
2026-01-29 20:26:00.08	24.24	14.90	-38.5	-39.4	22.6	0.00e+00	0	33	0	485490688	48	6764
2026-01-29 20:26:03.11	23.62	14.97	-38.6	-39.6	22.5	0.00e+00	14	33	0	491782144	50	6149
2026-01-29 20:26:06.14	22.99	15.04	-38.6	-39.6	22.5	0.00e+00	0	33	0	497025024	50	6143
2026-01-29 20:26:09.17	22.36	15.10	-38.4	-39.4	22.8	0.00e+00	0	34	0	503316480	50	5984
2026-01-29 20:26:12.20	21.73	15.16	-38.1	-39.0	22.9	0.00e+00	92	34	0	508559360	50	5735
2026-01-29 20:26:15.23	21.09	15.22	-37.8	-38.7	23.1	0.00e+00	0	34	0	514850816	50	5521
2026-01-29 20:26:18.26	20.46	15.27	-37.8	-38.8	23.2	0.00e+00	0	34	0	520093696	48	6250
2026-01-29 20:26:21.29	19.82	15.32	-38.1	-39.1	22.9	0.00e+00	22	34	0	525336576	48	6492
2026-01-29 20:26:24.32	19.17	15.36	-38.2	-39.2	22.8	0.00e+00	9	33	0	531628032	48	6543
2026-01-29 20:26:27.35	18.53	15.41	-38.4	-39.4	22.7	0.00e+00	0	34	0	536870912	48	6714
2026-01-29 20:26:30.38	17.89	15.44	-38.5	-39.5	22.5	0.00e+00	0	34	0	543162368	48	6777
2026-01-29 20:26:33.41	17.24	15.48	-38.6	-39.6	22.5	0.00e+00	33	34	0	548405248	48	6897
2026-01-29 20:26:36.44	16.59	15.51	-38.7	-39.7	22.5	0.00e+00	33	33	0	553648128	50	6226
2026-01-29 20:26:39.47	15.94	15.54	-38.3	-39.2	22.7	0.00e+00	0	33	0	559939584	50	5896
2026-01-29 20:26:42.50	15.29	15.56	-38.5	-39.5	22.6	0.00e+00	42	33	0	565182464	50	6067
2026-01-29 20:26:45.53	14.64	15.58	-38.3	-39.3	22.8	0.00e+00	0	34	0	571473920	50	5937
2026-01-29 20:26:48.55	13.99	15.60	-37.9	-38.9	23.0	0.00e+00	0	33	0	576716800	50	5658
2026-01-29 20:26:51.58	13.33	15.61	-38.1	-39.1	22.9	0.00e+00	0	34	0	583008256	50	5809
2026-01-29 20:26:54.61	12.68	15.62	-38.5	-39.5	22.6	0.00e+00	53	33	0	588251136	50	6063
2026-01-29 20:26:57.64	12.03	15.62	-38.4	-39.4	22.7	0.00e+00	0	34	0	593494016	50	6003
2026-01-29 20:27:00.67	11.37	15.62	-38.2	-39.1	22.9	0.00e+00	0	34	0	599785472	50	5828
2026-01-29 20:27:03.71	10.72	15.62	-37.4	-38.3	23.5	0.00e+00	33	34	0	605028352	48	5949
2026-01-29 20:27:06.74	10.06	15.62	-38.0	-38.9	23.0	0.00e+00	0	33	0	611319808	48	6357
2026-01-29 20:27:09.77	9.41	15.61	-38.4	-39.4	22.8	0.00e+00	0	34	0	616562688	48	6737
2026-01-29 20:27:12.80	8.76	15.59	-38.6	-39.6	22.5	0.00e+00	92	33	0	621805568	48	6919
2026-01-29 20:27:15.83	8.10	15.57	-39.2	-40.3	21.7	0.00e+00	0	33	0	628097024	50	6661
2026-01-29 20:27:18.86	7.45	15.55	-39.3	-40.4	21.9	0.00e+00	0	33	0	633339904	50	6727
2026-01-29 20:27:21.88	6.80	15.53	-38.5	-39.6	22.6	0.00e+00	0	34	0	639631360	50	6116
2026-01-29 20:27:24.92	6.15	15.50	-38.2	-39.2	22.8	0.00e+00	55	34	0	644874240	50	5843
2026-01-29 20:27:27.95	5.51	15.47	-38.6	-39.6	22.5	0.00e+00	0	34	0	651165696	50	6144
2026-01-29 20:27:30.98	4.86	15.43	-38.5	-39.6	22.5	0.00e+00	0	34	0	656408576	50	6107
2026-01-29 20:27:34.01	4.21	15.39	-38.1	-39.1	23.0	0.00e+00	87	34	0	661651456	50	5775
2026-01-29 20:27:37.04	3.57	15.35	-37.3	-38.2	23.7	0.00e+00	0	34	0	667942912	48	5876
2026-01-29 20:27:40.06	2.93	15.30	-37.7	-38.6	23.4	0.00e+00	0	34	0	673185792	48	6151
2026-01-29 20:27:43.09	2.29	15.25	-38.1	-39.0	23.1	0.00e+00	68	34	0	679477248	48	6454
2026-01-29 20:27:46.12	1.66	15.20	-38.1	-39.0	23.1	0.00e+00	0	34	0	684720128	48	6455
2026-01-29 20:27:49.15	1.02	15.14	-38.3	-39.3	22.9	0.00e+00	0	34	0	689963008	48	6687
2026-01-29 20:27:52.18	0.39	15.08	-38.3	-39.3	22.9	0.00e+00	0	34	0	696254464	48	6683
2026-01-29 20:27:55.21	359.76	15.02	-38.6	-39.6	22.6	0.00e+00	31	34	0	701497344	48	6873
2026-01-29 20:27:58.24	359.14	14.95	-37.8	-38.7	23.3	0.00e+00	0	34	0	707788800	48	6233
2026-01-29 20:28:01.26	358.52	14.88	-37.6	-38.5	23.5	0.00e+00	0	34	0	713031680	48	6094
2026-01-29 20:28:04.30	357.89	14.80	-37.5	-38.4	23.5	0.00e+00	92	34	0	719323136	48	6012
2026-01-29 20:28:07.32	357.28	14.73	-37.4	-38.3	23.6	0.00e+00	0	34	0	724566016	48	5921
2026-01-29 20:28:10.35	356.67	14.65	-37.9	-38.8	23.1	0.00e+00	0	34	0	729808896	48	6265
2026-01-29 20:28:13.38	356.06	14.57	-38.3	-39.3	22.8	0.00e+00	32	34	0	736100352	48	6658
2026-01-29 20:28:16.41	355.45	14.48	-38.2	-39.2	22.8	0.00e+00	14	34	0	741343232	48	6609
2026-01-29 20:28:19.44	354.85	14.39	-38.4	-39.4	22.6	0.00e+00	0	34	0	747634688	48	6740
2026-01-29 20:28:22.47	354.25	14.30	-38.9	-40.0	22.2	0.00e+00	0	34	0	752877568	50	6394
2026-01-29 20:28:25.50	353.65	14.21	-38.8	-39.8	22.5	0.00e+00	26	34	0	758120448	50	6311
2026-01-29 20:28:28.52	353.06	14.11	-38.5	-39.4	22.7	0.00e+00	0	34	0	764411904	50	6022
2026-01-29 20:28:31.55	352.47	14.01	-38.0	-39.0	23.1	0.00e+00	0	34	0	769654784	50	5705
2026-01-29 20:28:34.58	351.89	13.91	-38.1	-39.1	23.0	0.00e+00	55	34	0	775946240	50	5784
2026-01-29 20:28:37.61	351.31	13.80	-37.3	-38.2	23.6	0.00e+00	0	33	0	781189120	48	5839
2026-01-29 20:28:40.64	350.74	13.70	-37.3	-38.1	23.7	0.00e+00	0	34	0	787480576	48	5808
2026-01-29 20:28:43.67	350.16	13.59	-37.5	-38.4	23.3	0.00e+00	0	34	0	792723456	48	5999
2026-01-29 20:28:46.70	349.60	13.48	-37.9	-38.9	23.0	0.00e+00	0	34	0	797966336	48	6329
2026-01-29 20:28:49.73	349.03	13.36	-38.6	-39.6	22.4	0.00e+00	0	34	0	804257792	48	6906
2026-01-29 20:28:52.76	348.48	13.25	-39.4	-40.6	21.7	0.00e+00	0	34	0	809500672	50	6881
2026-01-29 20:28:55.79	347.92	13.13	-38.9	-40.0	22.0	0.00e+00	87	34	0	815792128	50	6429
2026-01-29 20:28:58.82	347.37	13.01	-39.0	-40.1	22.1	0.00e+00	0	33	0	821035008	50	6483
2026-01-29 20:29:01.85	346.83	12.88	-38.9	-40.0	22.1	0.00e+00	0	34	0	826277888	50	6435
2026-01-29 20:29:04.88	346.29	12.76	-39.1	-40.2	21.9	0.00e+00	69	34	0	832569344	50	6588
2026-01-29 20:29:07.91	345.75	12.63	-39.0	-40.1	22.1	0.00e+00	0	34	0	837812224	50	6480
2026-01-29 20:29:10.94	345.22	12.51	-39.2	-40.3	21.9	0.00e+00	0	34	0	844103680	50	6650
2026-01-29 20:29:13.97	344.70	12.38	-39.5	-40.7	21.7	0.00e+00	0	34	0	849346560	50	6955
2026-01-29 20:29:17.00	344.18	12.25	-38.6	-39.6	22.3	0.00e+00	30	34	0	855638016	50	6112
2026-01-29 20:29:20.03	343.66	12.11	-38.5	-39.5	22.5	0.00e+00	0	34	0	860880896	50	6073
2026-01-29 20:29:23.06	343.15	11.98	-38.9	-39.9	22.0	0.00e+00	0	34	0	866123776	50	6389
2026-01-29 20:29:26.09	342.64	11.84	-39.7	-40.9	21.5	0.00e+00	45	34	0	872415232	52	6365
2026-01-29 20:29:29.12	342.14	11.71	-39.9	-41.1	21.3	0.00e+00	0	34	0	877658112	52	6466
2026-01-29 20:29:32.15	341.64	11.57	-39.4	-40.5	21.7	0.00e+00	0	34	0	883949568	52	6063
2026-01-29 20:29:35.18	341.15	11.43	-39.7	-40.9	21.4	0.00e+00	92	34	0	889192448	52	6341
2026-01-29 20:29:38.20	340.66	11.29	-41.2	-42.7	19.8	0.00e+00	0	33	0	894435328	54	6954
2026-01-29 20:29:41.23	340.18	11.14	-42.2	-43.9	18.8	0.00e+00	4	34	0	900726784	56	7128
2026-01-29 20:29:44.26	339.70	11.00	-42.0	-43.7	19.1	0.00e+00	0	34	0	905969664	56	6942
2026-01-29 20:29:47.29	339.23	10.86	-41.4	-42.9	19.7	0.00e+00	46	34	0	912261120	56	6348
2026-01-29 20:29:50.32	338.76	10.71	-41.3	-42.7	19.7	0.00e+00	0	34	0	917504000	56	6210
2026-01-29 20:29:53.36	338.29	10.56	-40.7	-42.0	20.7	0.00e+00	0	34	0	923795456	54	6408
2026-01-29 20:29:56.38	337.84	10.42	-40.1	-41.3	21.0	0.00e+00	92	34	0	929038336	54	5943
2026-01-29 20:29:59.41	337.38	10.27	-40.3	-41.6	20.6	0.00e+00	0	34	0	934281216	54	6118
2026-01-29 20:30:02.44	336.93	10.12	-40.5	-41.8	20.6	0.00e+00	0	34	0	940572672	54	6252
2026-01-29 20:30:05.46	336.49	9.97	-40.1	-41.3	21.1	0.00e+00	3	34	0	945815552	54	5901
2026-01-29 20:30:08.50	336.05	9.82	-39.9	-41.1	21.3	0.00e+00	0	34	0	952107008	52	6486
2026-01-29 20:30:11.53	335.61	9.67	-40.2	-41.4	21.0	0.00e+00	0	34	0	957349888	52	6707
2026-01-29 20:30:14.55	335.18	9.52	-40.0	-41.1	21.2	0.00e+00	0	34	0	962592768	52	6532
2026-01-29 20:30:17.58	334.75	9.36	-40.4	-41.6	20.6	0.00e+00	22	34	0	968884224	52	6906
2026-01-29 20:30:20.61	334.33	9.21	-40.7	-42.0	20.5	0.00e+00	0	34	0	974127104	54	6409
2026-01-29 20:30:23.65	333.91	9.05	-40.6	-41.9	20.5	0.00e+00	0	34	0	980418560	54	6334
2026-01-29 20:30:26.67	333.50	8.90	-40.2	-41.5	20.8	0.00e+00	90	34	0	985661440	54	6048
2026-01-29 20:30:29.71	333.09	8.75	-40.2	-41.4	20.8	0.00e+00	0	34	0	991952896	54	5987
2026-01-29 20:30:32.74	332.69	8.59	-39.9	-41.0	21.3	0.00e+00	0	34	0	997195776	52	6457
2026-01-29 20:30:35.77	332.29	8.43	-39.0	-40.1	21.9	0.00e+00	0	34	0	1002438656	52	5783
2026-01-29 20:30:38.80	331.89	8.28	-38.9	-39.9	22.1	0.00e+00	26	34	0	1008730112	50	6371
2026-01-29 20:30:41.82	331.50	8.12	-38.7	-39.8	22.1	0.00e+00	0	34	0	1013972992	50	6273
2026-01-29 20:30:44.85	331.12	7.97	-39.1	-40.2	21.8	0.00e+00	0	34	0	1020264448	50	6540
2026-01-29 20:30:47.89	330.73	7.81	-39.1	-40.2	21.9	0.00e+00	92	34	0	1025507328	50	6556
2026-01-29 20:30:50.92	330.35	7.65	-38.6	-39.6	22.5	0.00e+00	0	34	0	1031798784	50	6146
2026-01-29 20:30:53.95	329.98	7.49	-38.8	-39.8	22.1	0.00e+00	0	34	0	1037041664	50	6278
2026-01-29 20:30:56.98	329.61	7.34	-39.0	-40.0	21.9	0.00e+00	90	34	0	1042284544	50	6439
2026-01-29 20:31:00.01	329.24	7.18	-39.2	-40.3	21.7	0.00e+00	0	34	0	1048576000	50	6685
2026-01-29 20:31:03.04	328.88	7.02	-39.3	-40.4	21.7	0.00e+00	0	34	0	1053818880	50	6754
2026-01-29 20:31:06.06	328.52	6.86	-39.6	-40.8	21.2	0.00e+00	0	34	0	1060110336	50	7009
2026-01-29 20:31:09.09	328.17	6.71	-39.7	-40.9	21.2	0.00e+00	5	34	0	1065353216	52	6344
2026-01-29 20:31:12.12	327.82	6.55	-39.5	-40.7	21.4	0.00e+00	0	34	0	1070596096	52	6179
2026-01-29 20:31:15.15	327.47	6.39	-39.5	-40.6	21.1	0.00e+00	0	34	0	1076887552	52	6158
2026-01-29 20:31:18.17	327.13	6.23	-39.3	-40.4	21.6	0.00e+00	92	34	0	1082130432	52	5986
2026-01-29 20:31:21.20	326.79	6.07	-38.7	-39.7	21.8	0.00e+00	0	34	0	1088421888	50	6214
2026-01-29 20:31:24.23	326.46	5.92	-38.5	-39.5	22.1	0.00e+00	0	34	0	1093664768	50	6083
2026-01-29 20:31:27.26	326.13	5.76	-39.1	-40.3	21.4	0.00e+00	92	34	0	1099956224	50	6627
2026-01-29 20:31:30.29	325.80	5.60	-39.6	-40.8	21.0	0.00e+00	0	34	0	1105199104	50	7085
2026-01-29 20:31:33.32	325.48	5.44	-39.9	-41.2	20.5	0.00e+00	0	34	0	1110441984	52	6569
2026-01-29 20:31:36.35	325.16	5.28	-40.5	-41.9	20.1	0.00e+00	0	34	0	1116733440	52	7100
2026-01-29 20:31:39.38	324.84	5.13	-40.0	-41.3	20.4	0.00e+00	56	34	0	1121976320	52	6657
2026-01-29 20:31:42.42	324.52	4.97	-39.8	-41.0	20.9	0.00e+00	0	34	0	1128267776	52	6460
2026-01-29 20:31:45.45	324.22	4.81	-39.1	-40.2	21.4	0.00e+00	0	34	0	1133510656	52	5864
2026-01-29 20:31:48.48	323.91	4.65	-39.1	-40.2	21.5	0.00e+00	92	34	0	1138753536	52	5860
2026-01-29 20:31:51.50	323.61	4.50	-39.6	-40.7	20.9	0.00e+00	0	34	0	1145044992	52	6234
2026-01-29 20:31:54.53	323.31	4.34	-39.6	-40.7	20.9	0.00e+00	0	34	0	1150287872	52	6239
2026-01-29 20:31:57.57	323.01	4.18	-40.6	-41.9	19.8	0.00e+00	92	34	0	1156579328	52	7166
2026-01-29 20:32:00.59	322.72	4.03	-41.3	-42.8	19.1	0.00e+00	21	34	0	1161822208	54	7059
2026-01-29 20:32:03.62	322.43	3.87	-41.4	-43.0	18.8	0.00e+00	0	34	0	1168113664	54	7199
2026-01-29 20:32:06.65	322.14	3.71	-41.4	-42.9	18.9	0.00e+00	0	34	0	1173356544	54	7166
2026-01-29 20:32:09.68	321.86	3.56	-41.2	-42.7	19.1	0.00e+00	19	34	0	1178599424	56	6195
2026-01-29 20:32:12.71	321.58	3.40	-40.9	-42.4	19.2	0.00e+00	0	34	0	1184890880	56	5999
2026-01-29 20:32:15.74	321.30	3.25	-41.4	-43.0	18.8	0.00e+00	0	34	0	1190133760	54	7212
2026-01-29 20:32:18.77	321.03	3.09	-41.0	-42.6	19.0	0.00e+00	84	34	0	1196425216	56	6132
2026-01-29 20:32:21.80	320.76	2.94	-48.4	-63.5	3.6	1.51e+00	0	34	104	1199570944	60	54109
2026-01-29 20:32:24.83	320.49	2.78	-49.0	-64.2	3.6	1.51e+00	0	34	104	1199570944	60	58750
2026-01-29 20:32:27.86	320.22	2.63	-49.2	-64.4	3.6	1.51e+00	0	34	104	1199570944	60	59744
2026-01-29 20:32:30.89	319.96	2.47	-49.3	-64.5	3.6	1.51e+00	0	34	104	1199570944	60	60717
2026-01-29 20:32:33.92	319.70	2.32	-49.2	-64.5	3.6	1.51e+00	0	34	104	1199570944	60	60513
2026-01-29 20:32:36.95	319.44	2.17	-48.6	-64.4	3.5	1.51e+00	0	34	104	1199570944	60	59793
2026-01-29 20:32:39.98	319.19	2.01	-49.0	-64.3	3.6	1.51e+00	0	34	104	1199570944	60	59572
2026-01-29 20:32:43.01	318.94	1.86	-49.0	-64.3	3.6	1.51e+00	0	34	104	1199570944	60	59118
2026-01-29 20:32:46.04	318.69	1.71	-49.2	-64.3	3.6	1.51e+00	0	34	104	1199570944	60	59559
2026-01-29 20:32:49.07	318.44	1.55	-49.1	-64.3	3.6	1.51e+00	0	34	104	1199570944	60	59591
2026-01-29 20:32:52.10	318.20	1.40	-49.1	-64.3	3.6	1.51e+00	0	34	104	1199570944	60	59226
2026-01-29 20:32:55.13	317.96	1.25	-49.1	-64.3	3.6	1.51e+00	0	34	104	1199570944	60	59504
2026-01-29 20:32:58.17	317.72	1.10	-49.1	-64.3	3.6	1.51e+00	0	34	104	1199570944	60	59291
2026-01-29 20:33:01.20	317.48	0.95	-49.1	-64.3	3.6	1.51e+00	0	34	104	1199570944	60	59491
2026-01-29 20:33:04.23	317.25	0.80	-49.1	-64.3	3.6	1.51e+00	0	34	104	1199570944	60	59266
2026-01-29 20:33:07.26	317.02	0.65	-49.1	-64.3	3.6	1.51e+00	0	34	104	1199570944	60	59099
2026-01-29 20:33:10.29	316.79	0.50	-49.1	-64.3	3.6	1.51e+00	0	34	104	1199570944	60	59142
2026-01-29 20:33:13.32	316.57	0.35	-49.1	-64.3	3.6	1.51e+00	0	34	104	1199570944	60	58974
2026-01-29 20:33:16.35	316.34	0.20	-49.1	-64.3	3.6	1.51e+00	0	34	104	1199570944	60	59099
2026-01-29 20:33:19.38	316.12	0.05	-49.1	-64.3	3.6	1.51e+00	0	34	104	1199570944	60	59365

#Closed at: 2026-01-29 20:33:21
#Recorded file [1199 MB]: D:/lorett/data/35029_260130_082041.dat