passes_logs/2026/01/29/R4.6S_Anadyr/R4.6S_Anadyr__20260129_224848_KOSAR1-5_rec.log

#Pass ID: 20260129_224848_KOSAR1-5
#Satellite: KOSAR1-5
#Configuration: KOSAR1-5
#almurnet v.1.7.20251203
#Start time: 2026-01-29 22:48:54

#Version: 2.2.20231116
#Station: R4.6S_Anadyr
#Location: 177.4865 lon 64.73178 lat
#TLE: 1 67264U 25313S   26028.94615568  .00012050  00000+0  55467-3 0  9998
#TLE: 2 67264  97.4180 105.8864 0016576 134.5684 225.6907 15.20338860  4779

#Time	Az	El	Level	Level2	SNR	BER	BlckErr	Temp	State	Recorded	gain1	gain2
2026-01-29 22:48:54.61	19.75	0.38	-49.7	-51.2	5.7	0.00e+00	0	34	0	0	60	44683
2026-01-29 22:48:57.55	19.89	0.56	-46.4	-61.1	3.6	1.51e+00	0	35	104	0	60	46204
2026-01-29 22:49:00.48	20.03	0.75	-46.5	-61.2	3.6	1.51e+00	0	35	104	0	60	46607
2026-01-29 22:49:03.42	20.17	0.93	-46.4	-61.2	3.6	1.51e+00	0	35	104	0	60	46385
2026-01-29 22:49:06.34	20.31	1.12	-46.4	-61.1	3.6	1.51e+00	0	35	104	0	60	45972
2026-01-29 22:49:09.28	20.46	1.31	-45.9	-60.8	3.6	1.51e+00	0	35	104	0	60	44400
2026-01-29 22:49:12.20	20.60	1.50	-45.7	-60.5	3.6	1.51e+00	0	35	104	0	60	42945
2026-01-29 22:49:15.14	20.75	1.69	-45.1	-59.8	3.6	1.51e+00	0	35	104	0	60	39470
2026-01-29 22:49:18.08	20.90	1.88	-45.1	-59.8	3.6	1.51e+00	0	36	104	0	60	39412
2026-01-29 22:49:21.01	21.06	2.08	-45.1	-59.8	3.6	1.51e+00	0	35	104	0	60	39482
2026-01-29 22:49:23.94	21.21	2.28	-45.0	-59.7	3.6	1.51e+00	0	35	104	0	60	39378
2026-01-29 22:49:26.88	21.37	2.48	-45.0	-59.7	3.6	1.51e+00	0	36	104	0	60	39272
2026-01-29 22:49:29.81	21.53	2.68	-45.0	-59.7	3.6	1.51e+00	0	35	104	0	60	39142
2026-01-29 22:49:32.73	21.69	2.88	-45.0	-59.7	3.6	1.51e+00	0	36	104	0	60	39149
2026-01-29 22:49:35.67	21.86	3.08	-45.0	-59.7	3.6	1.51e+00	0	36	104	0	60	39340
2026-01-29 22:49:38.59	22.03	3.29	-45.0	-59.7	3.6	1.51e+00	0	36	104	0	60	39185
2026-01-29 22:49:41.53	22.20	3.50	-45.0	-59.7	3.6	1.51e+00	0	36	104	0	60	39162
2026-01-29 22:49:44.47	22.38	3.71	-45.0	-59.7	3.6	1.51e+00	0	36	104	0	60	39338
2026-01-29 22:49:47.42	22.56	3.92	-45.0	-59.8	3.6	1.51e+00	0	36	104	0	60	39416
2026-01-29 22:49:50.35	22.74	4.13	-45.1	-59.9	3.6	1.51e+00	0	36	104	0	60	40119
2026-01-29 22:49:53.29	22.92	4.35	-45.0	-59.7	3.6	1.51e+00	0	36	104	0	60	39226
2026-01-29 22:49:56.23	23.11	4.57	-45.0	-59.8	3.6	1.51e+00	0	36	104	0	60	39484
2026-01-29 22:49:59.17	23.30	4.79	-45.0	-60.0	3.6	1.51e+00	0	36	104	0	60	40350
2026-01-29 22:50:02.10	23.49	5.01	-45.3	-60.1	3.6	1.51e+00	0	36	104	0	60	40937
2026-01-29 22:50:05.02	23.69	5.24	-45.1	-59.8	3.6	1.51e+00	0	36	104	0	60	39576
2026-01-29 22:50:07.95	23.89	5.46	-45.0	-59.9	3.6	1.51e+00	0	36	104	0	60	40222
2026-01-29 22:50:10.89	24.10	5.69	-45.3	-60.1	3.6	1.51e+00	0	36	104	0	60	40963
2026-01-29 22:50:13.83	24.31	5.93	-45.4	-60.1	3.6	1.51e+00	0	36	104	0	60	41166
2026-01-29 22:50:16.76	24.52	6.16	-45.3	-60.0	3.6	1.51e+00	0	36	104	0	60	40652
2026-01-29 22:50:19.70	24.74	6.40	-45.3	-60.1	3.6	1.51e+00	0	36	104	0	60	41129
2026-01-29 22:50:22.63	24.96	6.64	-45.2	-60.2	3.6	1.51e+00	0	36	104	0	60	41291
2026-01-29 22:50:25.57	25.19	6.88	-45.2	-60.2	3.6	1.51e+00	0	36	104	0	60	41279
2026-01-29 22:50:28.51	25.42	7.13	-45.4	-60.1	3.6	1.51e+00	0	36	104	0	60	41067
2026-01-29 22:50:31.44	25.65	7.38	-45.4	-60.3	3.6	1.51e+00	0	36	104	0	60	41758
2026-01-29 22:50:34.37	25.89	7.63	-45.3	-60.3	3.6	1.51e+00	0	36	104	0	60	41982
2026-01-29 22:50:37.31	26.14	7.88	-45.4	-60.2	3.6	1.51e+00	0	36	104	0	60	41497
2026-01-29 22:50:40.24	26.39	8.14	-45.5	-60.2	3.6	1.51e+00	0	36	104	0	60	41719
2026-01-29 22:50:43.18	26.65	8.40	-45.6	-60.3	3.6	1.51e+00	0	36	104	0	60	42181
2026-01-29 22:50:46.10	26.91	8.67	-45.6	-60.4	3.6	1.51e+00	0	36	104	0	60	42448
2026-01-29 22:50:49.04	27.17	8.93	-45.6	-60.3	3.6	1.51e+00	0	36	104	0	60	42071
2026-01-29 22:50:51.98	27.45	9.21	-45.6	-60.4	3.6	1.51e+00	0	36	104	0	60	42326
2026-01-29 22:50:54.91	27.73	9.48	-45.6	-60.4	3.6	1.51e+00	0	36	104	0	60	42534
2026-01-29 22:50:57.84	28.01	9.76	-45.6	-60.5	3.6	1.51e+00	0	36	104	0	60	42778
2026-01-29 22:51:00.77	28.30	10.04	-45.5	-60.4	3.6	1.51e+00	0	36	104	0	60	42558
2026-01-29 22:51:03.70	28.60	10.33	-45.3	-60.4	3.6	1.51e+00	0	36	104	0	60	42678
2026-01-29 22:51:06.64	28.91	10.62	-45.4	-60.5	3.6	1.51e+00	0	36	104	0	60	42849
2026-01-29 22:51:09.58	29.22	10.91	-45.5	-60.5	3.6	1.51e+00	0	36	104	0	60	42733
2026-01-29 22:51:12.51	29.54	11.21	-45.6	-60.4	3.6	1.51e+00	0	36	104	0	60	42590
2026-01-29 22:51:15.45	29.87	11.51	-45.8	-60.5	3.6	1.51e+00	0	36	104	0	60	42931
2026-01-29 22:51:18.38	30.21	11.82	-44.4	-60.5	3.6	1.51e+00	0	36	104	0	60	42969
2026-01-29 22:51:21.32	30.55	12.13	-45.6	-60.5	3.6	1.51e+00	0	36	104	0	60	43134
2026-01-29 22:51:24.26	30.91	12.45	-45.5	-60.5	3.6	1.51e+00	0	36	104	0	60	42868
2026-01-29 22:51:27.19	31.27	12.77	-45.7	-60.5	3.6	1.51e+00	0	36	104	0	60	43071
2026-01-29 22:51:30.12	31.64	13.09	-45.8	-60.6	3.6	1.51e+00	0	36	104	0	60	43218
2026-01-29 22:51:33.06	32.02	13.42	-45.8	-60.5	3.6	1.51e+00	0	36	104	0	60	42944
2026-01-29 22:51:36.00	32.42	13.76	-45.8	-60.5	3.6	1.51e+00	0	36	104	0	60	43193
2026-01-29 22:51:38.92	32.82	14.10	-45.4	-60.6	3.6	1.51e+00	0	36	104	0	60	43552
2026-01-29 22:51:41.85	33.23	14.44	-45.8	-60.6	3.6	1.51e+00	0	36	104	0	60	43582
2026-01-29 22:51:44.79	33.66	14.80	-45.8	-60.6	3.6	1.51e+00	0	36	104	0	60	43351
2026-01-29 22:51:47.73	34.09	15.15	-45.9	-60.6	3.6	1.51e+00	0	36	104	0	60	43533
2026-01-29 22:51:50.66	34.54	15.52	-45.9	-60.6	3.6	1.51e+00	0	36	104	0	60	43703
2026-01-29 22:51:53.60	35.00	15.88	-45.9	-60.6	3.6	1.51e+00	0	36	104	0	60	43593
2026-01-29 22:51:56.54	35.48	16.26	-45.9	-60.6	3.6	1.51e+00	0	36	104	0	60	43487
2026-01-29 22:51:59.48	35.97	16.64	-45.6	-60.7	3.6	1.51e+00	0	36	104	0	60	43942
2026-01-29 22:52:02.41	36.47	17.02	-44.7	-60.7	3.6	1.51e+00	0	36	104	0	60	43957
2026-01-29 22:52:05.35	36.99	17.42	-45.0	-60.7	3.6	1.51e+00	0	36	104	0	60	43776
2026-01-29 22:52:08.28	37.53	17.81	-45.3	-60.7	3.6	1.51e+00	0	36	104	0	60	43916
2026-01-29 22:52:11.22	38.08	18.22	-45.9	-60.7	3.6	1.51e+00	0	36	104	0	60	44093
2026-01-29 22:52:14.15	38.65	18.63	-46.0	-60.7	3.6	1.51e+00	0	36	104	0	60	44072
2026-01-29 22:52:17.09	39.23	19.05	-45.6	-60.8	3.6	1.51e+00	0	36	104	0	60	44228
2026-01-29 22:52:20.03	39.84	19.47	-45.8	-60.8	3.6	1.51e+00	0	36	104	0	60	44353
2026-01-29 22:52:22.96	40.46	19.90	-45.8	-60.7	3.6	1.51e+00	0	36	104	0	60	44140
2026-01-29 22:52:25.90	41.11	20.34	-46.1	-60.8	3.6	1.51e+00	0	36	104	0	60	44555
2026-01-29 22:52:28.83	41.77	20.78	-45.4	-60.7	3.6	1.51e+00	0	36	104	0	60	44181
2026-01-29 22:52:31.78	42.46	21.23	-46.1	-60.7	3.6	1.51e+00	0	36	104	0	60	44096
2026-01-29 22:52:34.71	43.17	21.69	-46.1	-60.8	3.6	1.51e+00	0	36	104	0	60	44440
2026-01-29 22:52:37.64	43.91	22.15	-45.9	-60.8	3.6	1.51e+00	0	36	104	0	60	44393
2026-01-29 22:52:40.59	44.67	22.62	-46.0	-60.8	3.6	1.51e+00	0	36	104	0	60	44392
2026-01-29 22:52:43.52	45.45	23.09	-46.1	-60.8	3.6	1.51e+00	0	36	104	0	60	44541
2026-01-29 22:52:46.46	46.27	23.58	-45.9	-60.9	3.6	1.51e+00	0	36	104	0	60	44757
2026-01-29 22:52:49.41	47.11	24.07	-45.8	-60.8	3.6	1.51e+00	0	37	104	0	60	44427
2026-01-29 22:52:52.35	47.98	24.56	-45.5	-60.8	3.6	1.51e+00	0	36	104	0	60	44464
2026-01-29 22:52:55.28	48.88	25.05	-45.6	-60.9	3.6	1.51e+00	0	36	104	0	60	44911
2026-01-29 22:52:58.21	49.81	25.56	-45.2	-60.9	3.6	1.51e+00	0	36	104	0	60	44861
2026-01-29 22:53:01.15	50.78	26.06	-45.3	-60.8	3.6	1.51e+00	0	36	104	0	60	44703
2026-01-29 22:53:04.08	51.78	26.57	-45.6	-60.9	3.6	1.51e+00	0	37	104	0	60	44994
2026-01-29 22:53:07.01	52.81	27.08	-46.0	-60.9	3.6	1.51e+00	0	36	104	0	60	44901
2026-01-29 22:53:09.95	53.89	27.60	-45.6	-60.9	3.6	1.51e+00	0	36	104	0	60	44901
2026-01-29 22:53:12.89	55.00	28.12	-43.4	-60.8	3.6	1.51e+00	0	36	104	0	60	44651
2026-01-29 22:53:15.82	56.15	28.63	-45.2	-60.8	3.6	1.51e+00	0	36	104	0	60	44644
2026-01-29 22:53:18.76	57.35	29.15	-46.1	-60.9	3.6	1.51e+00	0	36	104	0	60	45002
2026-01-29 22:53:21.70	58.58	29.66	-46.0	-60.9	3.6	1.51e+00	0	36	104	0	60	44868
2026-01-29 22:53:24.64	59.86	30.18	-45.9	-60.9	3.6	1.51e+00	0	36	104	0	60	44877
2026-01-29 22:53:27.56	61.18	30.68	-45.8	-60.9	3.6	1.51e+00	0	36	104	0	60	44728
2026-01-29 22:53:30.49	62.54	31.19	-46.0	-60.9	3.6	1.51e+00	0	36	104	0	60	45040
2026-01-29 22:53:33.43	63.96	31.68	-45.5	-60.8	3.6	1.51e+00	0	36	104	0	60	44457
2026-01-29 22:53:36.37	65.42	32.17	-46.1	-60.8	3.6	1.51e+00	0	36	104	0	60	44701
2026-01-29 22:53:39.30	66.92	32.65	-46.1	-60.9	3.6	1.51e+00	0	36	104	0	60	45093
2026-01-29 22:53:42.24	68.48	33.11	-46.0	-60.9	3.6	1.51e+00	0	36	104	0	60	45114
2026-01-29 22:53:45.18	70.08	33.57	-46.2	-60.9	3.6	1.51e+00	0	36	104	0	60	45176
2026-01-29 22:53:48.12	71.73	34.00	-46.0	-60.9	3.6	1.51e+00	0	36	104	0	60	44883
2026-01-29 22:53:51.05	73.43	34.41	-46.0	-60.9	3.6	1.51e+00	0	36	104	0	60	44803
2026-01-29 22:53:53.98	75.16	34.81	-46.0	-60.9	3.6	1.51e+00	0	36	104	0	60	44791
2026-01-29 22:53:56.92	76.95	35.18	-46.2	-60.9	3.6	1.51e+00	0	36	104	0	60	44973
2026-01-29 22:53:59.85	78.78	35.53	-46.0	-60.9	3.6	1.51e+00	0	36	104	0	60	44784
2026-01-29 22:54:02.79	80.65	35.85	-46.2	-60.9	3.6	1.51e+00	0	36	104	0	60	45116
2026-01-29 22:54:05.72	82.55	36.14	-45.9	-60.9	3.6	1.51e+00	0	36	104	0	60	44961
2026-01-29 22:54:08.66	84.49	36.40	-45.4	-60.9	3.6	1.51e+00	0	36	104	0	60	44999
2026-01-29 22:54:11.60	86.46	36.62	-45.9	-60.8	3.6	1.51e+00	0	36	104	0	60	44711
2026-01-29 22:54:14.53	88.46	36.82	-46.1	-60.9	3.6	1.51e+00	0	37	104	0	60	44878
2026-01-29 22:54:17.47	90.48	36.97	-45.3	-60.9	3.6	1.51e+00	0	36	104	0	60	44914
2026-01-29 22:54:20.41	92.52	37.09	-46.1	-60.9	3.5	1.51e+00	0	36	104	0	60	44951
2026-01-29 22:54:23.35	94.58	37.17	-46.0	-60.9	3.6	1.51e+00	0	36	104	0	60	44822
2026-01-29 22:54:26.28	96.63	37.21	-45.8	-60.9	3.6	1.51e+00	0	37	104	0	60	45016
2026-01-29 22:54:29.22	98.70	37.21	-46.1	-60.9	3.6	1.51e+00	0	37	104	0	60	44802
2026-01-29 22:54:32.15	100.75	37.17	-46.1	-60.9	3.6	1.51e+00	0	37	104	0	60	44893
2026-01-29 22:54:35.08	102.80	37.10	-46.0	-60.9	3.6	1.51e+00	0	37	104	0	60	44944
2026-01-29 22:54:38.02	104.85	36.98	-46.2	-60.9	3.6	1.51e+00	0	36	104	0	60	45061
2026-01-29 22:54:40.95	106.87	36.83	-46.1	-60.9	3.6	1.51e+00	0	36	104	0	60	44813
2026-01-29 22:54:43.88	108.87	36.64	-45.9	-60.8	3.6	1.51e+00	0	36	104	0	60	44506
2026-01-29 22:54:46.81	110.84	36.42	-46.1	-60.8	3.6	1.51e+00	0	36	104	0	60	44610
2026-01-29 22:54:49.74	112.78	36.16	-46.0	-60.8	3.6	1.51e+00	0	36	104	0	60	44637
2026-01-29 22:54:52.68	114.70	35.87	-46.1	-60.8	3.6	1.51e+00	0	37	104	0	60	44442
2026-01-29 22:54:55.61	116.57	35.55	-46.0	-60.8	3.6	1.51e+00	0	37	104	0	60	44357
2026-01-29 22:54:58.55	118.41	35.21	-46.1	-60.8	3.6	1.51e+00	0	37	104	0	60	44417
2026-01-29 22:55:01.49	120.21	34.83	-46.0	-60.8	3.6	1.51e+00	0	36	104	0	60	44427
2026-01-29 22:55:04.43	121.96	34.44	-46.0	-60.8	3.6	1.51e+00	0	36	104	0	60	44426
2026-01-29 22:55:07.36	123.66	34.02	-46.1	-60.8	3.6	1.51e+00	0	36	104	0	60	44719
2026-01-29 22:55:10.30	125.33	33.59	-46.1	-60.9	3.6	1.51e+00	0	36	104	0	60	44891
2026-01-29 22:55:13.24	126.94	33.13	-46.1	-60.8	3.6	1.51e+00	0	36	104	0	60	44407
2026-01-29 22:55:16.17	128.50	32.67	-46.0	-60.8	3.6	1.51e+00	0	36	104	0	60	44616
2026-01-29 22:55:19.11	130.02	32.19	-46.1	-60.8	3.6	1.51e+00	0	36	104	0	60	44554
2026-01-29 22:55:22.05	131.49	31.70	-46.0	-60.8	3.6	1.51e+00	0	36	104	0	60	44360
2026-01-29 22:55:24.98	132.91	31.20	-46.0	-60.7	3.6	1.51e+00	0	36	104	0	60	44119
2026-01-29 22:55:27.91	134.29	30.69	-45.8	-60.8	3.6	1.51e+00	0	36	104	0	60	44269
2026-01-29 22:55:30.84	135.62	30.18	-45.8	-60.7	3.6	1.51e+00	0	37	104	0	60	44031
2026-01-29 22:55:33.78	136.90	29.66	-46.0	-60.7	3.6	1.51e+00	0	37	104	0	60	43844
2026-01-29 22:55:36.71	138.15	29.15	-45.7	-60.7	3.6	1.51e+00	0	36	104	0	60	43744
2026-01-29 22:55:39.65	139.35	28.62	-45.9	-60.8	3.6	1.51e+00	0	36	104	0	60	44283
2026-01-29 22:55:42.59	140.51	28.10	-46.0	-60.7	3.6	1.51e+00	0	37	104	0	60	43980
2026-01-29 22:55:45.53	141.63	27.58	-46.0	-60.7	3.6	1.51e+00	0	36	104	0	60	44175
2026-01-29 22:55:48.46	142.71	27.06	-46.0	-60.6	3.6	1.51e+00	0	36	104	0	60	43636
2026-01-29 22:55:51.41	143.76	26.54	-46.0	-60.7	3.6	1.51e+00	0	37	104	0	60	43720
2026-01-29 22:55:54.34	144.76	26.03	-46.0	-60.7	3.6	1.51e+00	0	36	104	0	60	44068
2026-01-29 22:55:57.26	145.73	25.52	-46.0	-60.7	3.6	1.51e+00	0	37	104	0	60	43994
2026-01-29 22:56:00.19	146.67	25.02	-46.0	-60.6	3.6	1.51e+00	0	37	104	0	60	43652
2026-01-29 22:56:03.12	147.58	24.52	-45.9	-60.6	3.6	1.51e+00	0	37	104	0	60	43670
2026-01-29 22:56:06.06	148.45	24.02	-46.0	-60.7	3.6	1.51e+00	0	37	104	0	60	43780
2026-01-29 22:56:08.99	149.30	23.53	-45.9	-60.7	3.6	1.51e+00	0	36	104	0	60	43769
2026-01-29 22:56:11.92	150.12	23.05	-45.9	-60.6	3.6	1.51e+00	0	37	104	0	60	43543
2026-01-29 22:56:14.86	150.91	22.57	-45.9	-60.6	3.6	1.51e+00	0	37	104	0	60	43641
2026-01-29 22:56:17.80	151.67	22.09	-45.9	-60.7	3.6	1.51e+00	0	37	104	0	60	43753
2026-01-29 22:56:20.73	152.41	21.63	-46.0	-60.6	3.6	1.51e+00	0	36	104	0	60	43578
2026-01-29 22:56:23.66	153.12	21.17	-45.9	-60.6	3.6	1.51e+00	0	37	104	0	60	43373
2026-01-29 22:56:26.61	153.82	20.71	-45.9	-60.6	3.6	1.51e+00	0	37	104	0	60	43633
2026-01-29 22:56:29.54	154.49	20.26	-45.9	-60.6	3.6	1.51e+00	0	37	104	0	60	43568
2026-01-29 22:56:32.47	155.14	19.82	-45.9	-60.6	3.6	1.51e+00	0	37	104	0	60	43309
2026-01-29 22:56:35.41	155.76	19.39	-45.8	-60.5	3.6	1.51e+00	0	37	104	0	60	43178
2026-01-29 22:56:38.36	156.38	18.96	-45.9	-60.6	3.6	1.51e+00	0	37	104	0	60	43437
2026-01-29 22:56:41.29	156.96	18.54	-45.8	-60.5	3.6	1.51e+00	0	37	104	0	60	43022
2026-01-29 22:56:44.22	157.53	18.12	-45.8	-60.5	3.6	1.51e+00	0	37	104	0	60	43176
2026-01-29 22:56:47.15	158.09	17.72	-45.8	-60.6	3.6	1.51e+00	0	37	104	0	60	43507
2026-01-29 22:56:50.10	158.63	17.31	-45.9	-60.6	3.6	1.51e+00	0	37	104	0	60	43373
2026-01-29 22:56:53.04	159.15	16.92	-45.6	-60.5	3.6	1.51e+00	0	37	104	0	60	43016
2026-01-29 22:56:55.96	159.65	16.53	-45.8	-60.6	3.6	1.51e+00	0	37	104	0	60	43358
2026-01-29 22:56:58.90	160.15	16.15	-45.8	-60.5	3.6	1.51e+00	0	37	104	0	60	43049
2026-01-29 22:57:01.83	160.62	15.77	-45.7	-60.6	3.6	1.51e+00	0	37	104	0	60	43394
2026-01-29 22:57:04.77	161.09	15.40	-45.8	-60.5	3.6	1.51e+00	0	37	104	0	60	42966
2026-01-29 22:57:07.70	161.54	15.03	-45.8	-60.5	3.6	1.51e+00	0	37	104	0	60	42998
2026-01-29 22:57:10.63	161.98	14.68	-45.7	-60.6	3.5	1.51e+00	0	37	104	0	60	43315
2026-01-29 22:57:13.57	162.40	14.32	-45.5	-60.5	3.6	1.51e+00	0	37	104	0	60	43155
2026-01-29 22:57:16.50	162.82	13.97	-45.6	-60.5	3.6	1.51e+00	0	37	104	0	60	43059
2026-01-29 22:57:19.44	163.22	13.63	-45.7	-60.5	3.6	1.51e+00	0	37	104	0	60	42855
2026-01-29 22:57:22.37	163.62	13.29	-45.7	-60.5	3.6	1.51e+00	0	37	104	0	60	42868
2026-01-29 22:57:25.30	164.00	12.96	-45.3	-60.4	3.6	1.51e+00	0	37	104	0	60	42620
2026-01-29 22:57:28.23	164.37	12.63	-45.4	-60.4	3.6	1.51e+00	0	37	104	0	60	42500
2026-01-29 22:57:31.17	164.73	12.31	-45.1	-60.4	3.6	1.51e+00	0	37	104	0	60	42563
2026-01-29 22:57:34.11	165.09	11.99	-45.3	-60.4	3.6	1.51e+00	0	37	104	0	60	42697
2026-01-29 22:57:37.04	165.44	11.67	-45.1	-60.4	3.6	1.51e+00	0	37	104	0	60	42250
2026-01-29 22:57:39.97	165.77	11.37	-45.0	-60.4	3.6	1.51e+00	0	37	104	0	60	42466
2026-01-29 22:57:42.90	166.10	11.06	-45.2	-60.4	3.6	1.51e+00	0	37	104	0	60	42399
2026-01-29 22:57:45.83	166.42	10.76	-45.1	-60.4	3.6	1.51e+00	0	37	104	0	60	42340
2026-01-29 22:57:48.76	166.73	10.47	-45.6	-60.3	3.6	1.51e+00	0	37	104	0	60	41774
2026-01-29 22:57:51.69	167.04	10.17	-45.4	-60.3	3.5	1.51e+00	0	37	104	0	60	42069
2026-01-29 22:57:54.62	167.34	9.89	-45.1	-60.3	3.6	1.51e+00	0	37	104	0	60	41938
2026-01-29 22:57:57.55	167.63	9.60	-45.2	-60.3	3.6	1.51e+00	0	37	104	0	60	41894
2026-01-29 22:58:00.48	167.92	9.32	-45.4	-60.2	3.6	1.51e+00	0	37	104	0	60	41578
2026-01-29 22:58:03.40	168.19	9.05	-45.5	-60.2	3.6	1.51e+00	0	37	104	0	60	41609
2026-01-29 22:58:06.33	168.47	8.77	-45.2	-60.3	3.6	1.51e+00	0	37	104	0	60	42153
2026-01-29 22:58:09.27	168.73	8.50	-45.5	-60.2	3.6	1.51e+00	0	37	104	0	60	41631
2026-01-29 22:58:12.20	168.99	8.24	-45.4	-60.2	3.6	1.51e+00	0	37	104	0	60	41321
2026-01-29 22:58:15.13	169.25	7.97	-45.2	-60.2	3.6	1.51e+00	0	37	104	0	60	41462
2026-01-29 22:58:18.06	169.50	7.72	-45.1	-60.2	3.6	1.51e+00	0	37	104	0	60	41603
2026-01-29 22:58:21.00	169.74	7.46	-45.1	-60.1	3.6	1.51e+00	0	37	104	0	60	40854
2026-01-29 22:58:23.93	169.98	7.20	-45.3	-60.1	3.6	1.51e+00	0	37	104	0	60	41252
2026-01-29 22:58:26.86	170.22	6.95	-45.4	-60.1	3.6	1.51e+00	0	37	104	0	60	40947
2026-01-29 22:58:29.79	170.45	6.71	-45.3	-60.2	3.6	1.51e+00	0	37	104	0	60	41691
2026-01-29 22:58:32.73	170.67	6.46	-45.3	-60.0	3.6	1.51e+00	0	37	104	0	60	40730
2026-01-29 22:58:35.65	170.89	6.22	-45.4	-60.2	3.6	1.51e+00	0	37	104	0	60	41439
2026-01-29 22:58:38.59	171.11	5.98	-45.4	-60.2	3.6	1.51e+00	0	37	104	0	60	41539
2026-01-29 22:58:41.51	171.32	5.75	-45.3	-60.2	3.6	1.51e+00	0	37	104	0	60	41416
2026-01-29 22:58:44.45	171.53	5.51	-45.1	-60.0	3.6	1.51e+00	0	37	104	0	60	40560
2026-01-29 22:58:47.38	171.74	5.28	-45.3	-60.1	3.6	1.51e+00	0	37	104	0	60	41219
2026-01-29 22:58:50.32	171.94	5.05	-45.2	-60.0	3.6	1.51e+00	0	37	104	0	60	40659
2026-01-29 22:58:53.26	172.13	4.83	-45.2	-60.0	3.6	1.51e+00	0	37	104	0	60	40591
2026-01-29 22:58:56.19	172.33	4.60	-45.0	-59.8	3.6	1.51e+00	0	37	104	0	60	39844
2026-01-29 22:58:59.13	172.52	4.38	-45.0	-59.8	3.6	1.51e+00	0	37	104	0	60	39750
2026-01-29 22:59:02.07	172.70	4.16	-45.0	-60.0	3.6	1.51e+00	0	37	104	0	60	40353
2026-01-29 22:59:05.01	172.89	3.94	-45.1	-59.8	3.6	1.51e+00	0	37	104	0	60	39598
2026-01-29 22:59:07.94	173.07	3.73	-45.1	-59.9	3.6	1.51e+00	0	37	104	0	60	40006
2026-01-29 22:59:10.88	173.24	3.51	-44.8	-59.6	3.6	1.51e+00	0	37	104	0	60	38559
2026-01-29 22:59:13.82	173.42	3.30	-45.0	-59.8	3.6	1.51e+00	0	37	104	0	60	39502
2026-01-29 22:59:16.75	173.59	3.09	-44.8	-59.5	3.6	1.51e+00	0	37	104	0	60	38213
2026-01-29 22:59:19.69	173.75	2.88	-45.2	-60.2	3.6	1.51e+00	0	37	104	0	60	41272
2026-01-29 22:59:22.63	173.92	2.68	-45.9	-60.6	3.6	1.51e+00	0	37	104	0	60	43268
2026-01-29 22:59:25.56	174.08	2.48	-46.1	-60.8	3.6	1.51e+00	0	37	104	0	60	44324
2026-01-29 22:59:28.49	174.24	2.27	-46.0	-60.8	3.6	1.51e+00	0	37	104	0	60	44409
2026-01-29 22:59:31.42	174.40	2.07	-46.2	-60.9	3.6	1.51e+00	0	37	104	0	60	44847
2026-01-29 22:59:34.36	174.55	1.88	-46.3	-60.9	3.6	1.51e+00	0	37	104	0	60	45233
2026-01-29 22:59:37.30	174.70	1.68	-45.9	-60.9	3.6	1.51e+00	0	37	104	0	60	44882
2026-01-29 22:59:40.24	174.85	1.48	-46.2	-60.9	3.6	1.51e+00	0	37	104	0	60	44868
2026-01-29 22:59:43.19	175.00	1.29	-46.2	-60.9	3.6	1.51e+00	0	37	104	0	60	45171
2026-01-29 22:59:46.12	175.15	1.10	-46.2	-60.9	3.6	1.51e+00	0	37	104	0	60	44877
2026-01-29 22:59:49.05	175.29	0.91	-46.1	-60.8	3.6	1.51e+00	0	37	104	0	60	44603
2026-01-29 22:59:51.98	175.43	0.72	-46.1	-60.8	3.6	1.51e+00	0	37	104	0	60	44624
2026-01-29 22:59:54.92	175.57	0.53	-46.1	-60.9	3.6	1.51e+00	0	37	104	0	60	44746
2026-01-29 22:59:57.86	175.70	0.35	-46.1	-60.8	3.6	1.51e+00	0	37	104	0	60	44706
2026-01-29 23:00:00.80	175.84	0.16	-46.1	-60.8	3.6	1.51e+00	0	37	104	0	60	44581

#Closed at: 2026-01-29 23:00:03
#Recorded file [0 MB]: D:/lorett/data/35029_260130_104854.dat