passes_logs/2026/01/29/R4.6S_Anadyr/R4.6S_Anadyr__20260129_021452_KOSAR1-5_rec.log

#Pass ID: 20260129_021452_KOSAR1-5
#Satellite: KOSAR1-5
#Configuration: KOSAR1-5
#almurnet v.1.7.20251203
#Start time: 2026-01-29 02:14:56

#Version: 2.2.20231116
#Station: R4.6S_Anadyr
#Location: 177.4865 lon 64.73178 lat
#TLE: 1 67264U 25313S   26027.76143924  .00010916  00000+0  50329-3 0  9990
#TLE: 2 67264  97.4176 104.7207 0016474 138.6036 221.6451 15.20309833  4594

#Time	Az	El	Level	Level2	SNR	BER	BlckErr	Temp	State	Recorded	gain1	gain2
2026-01-29 02:14:56.21	18.02	0.19	-49.1	-50.6	5.7	0.00e+00	0	29	0	0	60	41567
2026-01-29 02:14:59.14	17.72	0.34	-45.7	-60.4	3.6	1.51e+00	0	31	104	0	60	42481
2026-01-29 02:15:02.08	17.42	0.49	-45.8	-60.6	3.6	1.51e+00	0	31	104	0	60	43395
2026-01-29 02:15:05.01	17.11	0.64	-45.5	-60.6	3.6	1.51e+00	0	31	104	0	60	43275
2026-01-29 02:15:07.95	16.79	0.80	-45.7	-60.5	3.6	1.51e+00	0	31	104	0	60	42997
2026-01-29 02:15:10.88	16.48	0.95	-45.4	-60.3	3.6	1.51e+00	0	31	104	0	60	42087
2026-01-29 02:15:13.81	16.16	1.10	-44.8	-59.7	3.6	1.51e+00	0	31	104	0	60	39056
2026-01-29 02:15:16.73	15.83	1.25	-44.3	-59.0	3.6	1.51e+00	0	31	104	0	60	36087
2026-01-29 02:15:19.65	15.50	1.41	-44.3	-59.0	3.6	1.51e+00	0	31	104	0	60	36131
2026-01-29 02:15:22.59	15.17	1.56	-44.3	-59.0	3.6	1.51e+00	0	31	104	0	60	36219
2026-01-29 02:15:25.51	14.83	1.71	-44.3	-59.0	3.6	1.51e+00	0	31	104	0	60	36342
2026-01-29 02:15:28.43	14.49	1.87	-44.3	-59.0	3.5	1.51e+00	0	31	104	0	60	36102
2026-01-29 02:15:31.37	14.14	2.02	-44.3	-59.0	3.6	1.51e+00	0	31	104	0	60	36163
2026-01-29 02:15:34.30	13.78	2.18	-44.3	-59.0	3.6	1.51e+00	0	31	104	0	60	36008
2026-01-29 02:15:37.23	13.42	2.33	-44.3	-58.9	3.6	1.51e+00	0	31	104	0	60	35913
2026-01-29 02:15:40.16	13.06	2.49	-44.2	-59.0	3.6	1.51e+00	0	31	104	0	60	35997
2026-01-29 02:15:43.09	12.69	2.64	-44.2	-59.0	3.6	1.51e+00	0	31	104	0	60	36200
2026-01-29 02:15:46.03	12.31	2.80	-44.2	-58.9	3.6	1.51e+00	0	31	104	0	60	35842
2026-01-29 02:15:48.95	11.94	2.96	-44.2	-59.0	3.6	1.51e+00	0	31	104	0	60	35989
2026-01-29 02:15:51.88	11.55	3.11	-44.3	-58.9	3.6	1.51e+00	0	31	104	0	60	35689
2026-01-29 02:15:54.82	11.16	3.27	-44.3	-59.0	3.6	1.51e+00	0	31	104	0	60	36156
2026-01-29 02:15:57.76	10.76	3.43	-44.4	-59.1	3.6	1.51e+00	0	31	104	0	60	36373
2026-01-29 02:16:00.69	10.36	3.58	-44.5	-59.2	3.6	1.51e+00	0	31	104	0	60	37175
2026-01-29 02:16:03.63	9.95	3.74	-44.3	-59.3	3.6	1.51e+00	0	31	104	0	60	37230
2026-01-29 02:16:06.56	9.54	3.90	-44.5	-59.2	3.5	1.51e+00	0	31	104	0	60	37182
2026-01-29 02:16:09.50	9.12	4.06	-44.7	-59.4	3.6	1.51e+00	0	31	104	0	60	37731
2026-01-29 02:16:12.43	8.69	4.21	-44.7	-59.4	3.6	1.51e+00	0	31	104	0	60	37765
2026-01-29 02:16:15.36	8.26	4.37	-44.5	-59.3	3.6	1.51e+00	0	31	104	0	60	37614
2026-01-29 02:16:18.29	7.83	4.53	-44.7	-59.4	3.6	1.51e+00	0	31	104	0	60	37903
2026-01-29 02:16:21.22	7.38	4.68	-44.8	-59.5	3.6	1.51e+00	0	31	104	0	60	38300
2026-01-29 02:16:24.14	6.94	4.84	-44.7	-59.5	3.6	1.51e+00	0	31	104	0	60	38187
2026-01-29 02:16:27.08	6.48	5.00	-44.5	-59.4	3.6	1.51e+00	0	31	104	0	60	37834
2026-01-29 02:16:30.02	6.01	5.16	-44.8	-59.5	3.6	1.51e+00	0	31	104	0	60	38203
2026-01-29 02:16:32.94	5.55	5.31	-44.9	-59.6	3.6	1.51e+00	0	31	104	0	60	38909
2026-01-29 02:16:35.87	5.07	5.47	-44.8	-59.5	3.6	1.51e+00	0	31	104	0	60	38420
2026-01-29 02:16:38.81	4.59	5.62	-44.9	-59.6	3.6	1.51e+00	0	31	104	0	60	38527
2026-01-29 02:16:41.75	4.10	5.78	-44.9	-59.6	3.6	1.51e+00	0	31	104	0	60	38794
2026-01-29 02:16:44.68	3.60	5.93	-45.0	-59.7	3.6	1.51e+00	0	31	104	0	60	39027
2026-01-29 02:16:47.61	3.10	6.09	-45.0	-59.7	3.6	1.51e+00	0	32	104	0	60	39038
2026-01-29 02:16:50.53	2.59	6.24	-44.9	-59.7	3.6	1.51e+00	0	32	104	0	60	39174
2026-01-29 02:16:53.48	2.07	6.40	-44.9	-59.7	3.6	1.51e+00	0	32	104	0	60	39225
2026-01-29 02:16:56.40	1.55	6.55	-45.0	-59.7	3.6	1.51e+00	0	32	104	0	60	39047
2026-01-29 02:16:59.33	1.02	6.70	-44.9	-59.7	3.6	1.51e+00	0	32	104	0	60	39005
2026-01-29 02:17:02.26	0.48	6.85	-44.9	-59.6	3.6	1.51e+00	0	32	104	0	60	38857
2026-01-29 02:17:05.20	359.93	7.00	-45.1	-59.8	3.6	1.51e+00	0	32	104	0	60	39447
2026-01-29 02:17:08.13	359.38	7.15	-45.0	-59.7	3.6	1.51e+00	0	32	104	0	60	39188
2026-01-29 02:17:11.07	358.82	7.30	-45.2	-59.9	3.6	1.51e+00	0	32	104	0	60	40072
2026-01-29 02:17:14.01	358.25	7.45	-45.0	-59.8	3.6	1.51e+00	0	32	104	0	60	39701
2026-01-29 02:17:16.94	357.68	7.60	-44.9	-60.0	3.5	1.51e+00	0	32	104	0	60	40368
2026-01-29 02:17:19.88	357.09	7.74	-45.0	-59.8	3.6	1.51e+00	0	32	104	0	60	39515
2026-01-29 02:17:22.81	356.50	7.89	-45.0	-59.8	3.6	1.51e+00	0	32	104	0	60	39708
2026-01-29 02:17:25.75	355.91	8.03	-45.1	-59.7	3.6	1.51e+00	0	32	104	0	60	39394
2026-01-29 02:17:28.67	355.30	8.17	-45.1	-59.9	3.6	1.51e+00	0	32	104	0	60	39903
2026-01-29 02:17:31.61	354.69	8.31	-45.1	-59.8	3.6	1.51e+00	0	32	104	0	60	39742
2026-01-29 02:17:34.54	354.07	8.45	-45.2	-59.9	3.6	1.51e+00	0	32	104	0	60	40191
2026-01-29 02:17:37.48	353.44	8.59	-45.4	-60.1	3.6	1.51e+00	0	32	104	0	60	40910
2026-01-29 02:17:40.41	352.81	8.72	-45.3	-60.0	3.6	1.51e+00	0	32	104	0	60	40662
2026-01-29 02:17:43.34	352.17	8.85	-45.3	-60.1	3.6	1.51e+00	0	32	104	0	60	41107
2026-01-29 02:17:46.27	351.52	8.99	-45.3	-60.0	3.6	1.51e+00	0	32	104	0	60	40509
2026-01-29 02:17:49.20	350.86	9.11	-45.2	-60.0	3.6	1.51e+00	0	32	104	0	60	40411
2026-01-29 02:17:52.13	350.20	9.24	-45.2	-59.9	3.6	1.51e+00	0	32	104	0	60	40233
2026-01-29 02:17:55.07	349.52	9.37	-45.2	-59.9	3.6	1.51e+00	0	32	104	0	60	40046
2026-01-29 02:17:58.00	348.84	9.49	-45.3	-60.0	3.6	1.51e+00	0	32	104	0	60	40354
2026-01-29 02:18:00.92	348.16	9.61	-45.1	-59.9	3.6	1.51e+00	0	32	104	0	60	40173
2026-01-29 02:18:03.85	347.47	9.73	-45.2	-60.0	3.6	1.51e+00	0	32	104	0	60	40528
2026-01-29 02:18:06.78	346.77	9.84	-45.2	-59.9	3.6	1.51e+00	0	32	104	0	60	40155
2026-01-29 02:18:09.72	346.06	9.95	-45.3	-60.0	3.6	1.51e+00	0	32	104	0	60	40608
2026-01-29 02:18:12.64	345.35	10.06	-45.2	-59.9	3.6	1.51e+00	0	32	104	0	60	40095
2026-01-29 02:18:15.57	344.63	10.17	-45.3	-60.1	3.6	1.51e+00	0	32	104	0	60	40816
2026-01-29 02:18:18.50	343.90	10.27	-45.3	-60.1	3.6	1.51e+00	0	32	104	0	60	40874
2026-01-29 02:18:21.43	343.17	10.37	-45.4	-60.1	3.6	1.51e+00	0	32	104	0	60	41176
2026-01-29 02:18:24.36	342.43	10.46	-45.3	-60.1	3.6	1.51e+00	0	32	104	0	60	40828
2026-01-29 02:18:27.29	341.69	10.56	-45.4	-60.2	3.6	1.51e+00	0	32	104	0	60	41281
2026-01-29 02:18:30.22	340.94	10.65	-45.3	-60.1	3.6	1.51e+00	0	32	104	0	60	40927
2026-01-29 02:18:33.16	340.18	10.73	-45.4	-60.2	3.6	1.51e+00	0	32	104	0	60	41371
2026-01-29 02:18:36.09	339.42	10.81	-45.2	-60.1	3.6	1.51e+00	0	32	104	0	60	40880
2026-01-29 02:18:39.02	338.65	10.89	-45.3	-60.1	3.6	1.51e+00	0	32	104	0	60	41076
2026-01-29 02:18:41.95	337.88	10.97	-45.3	-60.1	3.6	1.51e+00	0	32	104	0	60	41041
2026-01-29 02:18:44.88	337.10	11.04	-45.3	-60.1	3.6	1.51e+00	0	32	104	0	60	40983
2026-01-29 02:18:47.81	336.32	11.10	-45.3	-60.2	3.6	1.51e+00	0	32	104	0	60	41277
2026-01-29 02:18:50.74	335.53	11.16	-45.4	-60.2	3.6	1.51e+00	0	32	104	0	60	41476
2026-01-29 02:18:53.69	334.74	11.22	-45.4	-60.1	3.6	1.51e+00	0	32	104	0	60	41230
2026-01-29 02:18:56.62	333.95	11.27	-45.3	-60.1	3.6	1.51e+00	0	32	104	0	60	40976
2026-01-29 02:18:59.55	333.15	11.32	-45.3	-60.1	3.6	1.51e+00	0	32	104	0	60	41047
2026-01-29 02:19:02.49	332.35	11.37	-45.2	-60.1	3.6	1.51e+00	0	32	104	0	60	40999
2026-01-29 02:19:05.42	331.54	11.41	-45.4	-60.1	3.6	1.51e+00	0	32	104	0	60	41052
2026-01-29 02:19:08.35	330.74	11.44	-45.4	-60.1	3.6	1.51e+00	0	32	104	0	60	40791
2026-01-29 02:19:11.29	329.93	11.47	-45.2	-60.1	3.6	1.51e+00	0	32	104	0	60	40811
2026-01-29 02:19:14.23	329.11	11.50	-45.3	-60.1	3.6	1.51e+00	0	32	104	0	60	40843
2026-01-29 02:19:17.17	328.30	11.52	-45.4	-60.1	3.6	1.51e+00	0	32	104	0	60	41041
2026-01-29 02:19:20.10	327.48	11.54	-45.3	-60.1	3.6	1.51e+00	0	32	104	0	60	40818
2026-01-29 02:19:23.03	326.67	11.55	-45.4	-60.1	3.6	1.51e+00	0	32	104	0	60	40877
2026-01-29 02:19:25.96	325.86	11.56	-45.4	-60.1	3.6	1.51e+00	0	32	104	0	60	40924
2026-01-29 02:19:28.89	325.04	11.56	-45.3	-60.1	3.6	1.51e+00	0	32	104	0	60	40796
2026-01-29 02:19:31.81	324.23	11.55	-45.1	-60.1	3.6	1.51e+00	0	32	104	0	60	40884
2026-01-29 02:19:34.74	323.41	11.55	-45.4	-60.0	3.5	1.51e+00	0	32	104	0	60	40770
2026-01-29 02:19:37.67	322.60	11.54	-45.4	-60.0	3.6	1.51e+00	0	32	104	0	60	40668
2026-01-29 02:19:40.60	321.78	11.52	-45.3	-60.1	3.6	1.51e+00	0	32	104	0	60	40905
2026-01-29 02:19:43.52	320.97	11.50	-45.0	-60.0	3.6	1.51e+00	0	32	104	0	60	40742
2026-01-29 02:19:46.45	320.16	11.47	-45.4	-60.1	3.6	1.51e+00	0	32	104	0	60	40946
2026-01-29 02:19:49.38	319.35	11.44	-45.4	-60.1	3.6	1.51e+00	0	32	104	0	60	40908
2026-01-29 02:19:52.30	318.55	11.40	-45.3	-60.1	3.6	1.51e+00	0	32	104	0	60	40895
2026-01-29 02:19:55.22	317.75	11.36	-45.2	-60.0	3.6	1.51e+00	0	32	104	0	60	40740
2026-01-29 02:19:58.15	316.95	11.32	-45.2	-60.0	3.6	1.51e+00	0	32	104	0	60	40636
2026-01-29 02:20:01.09	316.15	11.27	-45.4	-60.1	3.6	1.51e+00	0	32	104	0	60	41176
2026-01-29 02:20:04.02	315.35	11.22	-45.3	-60.0	3.6	1.51e+00	0	32	104	0	60	40604
2026-01-29 02:20:06.96	314.56	11.16	-45.2	-60.1	3.6	1.51e+00	0	32	104	0	60	40904
2026-01-29 02:20:09.89	313.77	11.10	-45.0	-60.1	3.6	1.51e+00	0	32	104	0	60	40808
2026-01-29 02:20:12.83	312.98	11.03	-45.2	-60.1	3.6	1.51e+00	0	32	104	0	60	40942
2026-01-29 02:20:15.75	312.21	10.96	-45.3	-60.0	3.6	1.51e+00	0	32	104	0	60	40721
2026-01-29 02:20:18.69	311.43	10.88	-45.3	-60.0	3.6	1.51e+00	0	32	104	0	60	40722
2026-01-29 02:20:21.63	310.66	10.80	-45.3	-60.0	3.6	1.51e+00	0	32	104	0	60	40561
2026-01-29 02:20:24.55	309.89	10.72	-45.3	-60.0	3.6	1.51e+00	0	32	104	0	60	40764
2026-01-29 02:20:27.49	309.13	10.64	-45.2	-60.0	3.6	1.51e+00	0	32	104	0	60	40718
2026-01-29 02:20:30.41	308.38	10.55	-44.9	-60.0	3.6	1.51e+00	0	32	104	0	60	40613
2026-01-29 02:20:33.34	307.63	10.45	-44.9	-60.0	3.6	1.51e+00	0	32	104	0	60	40726
2026-01-29 02:20:36.27	306.89	10.36	-44.9	-60.0	3.6	1.51e+00	0	32	104	0	60	40606
2026-01-29 02:20:39.21	306.15	10.26	-44.8	-60.0	3.6	1.51e+00	0	32	104	0	60	40518
2026-01-29 02:20:42.14	305.43	10.15	-44.9	-60.0	3.6	1.51e+00	0	32	104	0	60	40355
2026-01-29 02:20:45.09	304.70	10.04	-45.1	-60.0	3.6	1.51e+00	0	32	104	0	60	40621
2026-01-29 02:20:48.02	303.98	9.94	-45.1	-59.9	3.6	1.51e+00	0	32	104	0	60	40310
2026-01-29 02:20:50.95	303.27	9.82	-45.1	-60.0	3.6	1.51e+00	0	32	104	0	60	40515
2026-01-29 02:20:53.88	302.57	9.71	-45.1	-59.9	3.6	1.51e+00	0	32	104	0	60	40204
2026-01-29 02:20:56.81	301.87	9.59	-45.2	-60.0	3.6	1.51e+00	0	32	104	0	60	40394
2026-01-29 02:20:59.74	301.18	9.47	-45.2	-60.0	3.6	1.51e+00	0	32	104	0	60	40380
2026-01-29 02:21:02.67	300.50	9.35	-45.2	-59.9	3.6	1.51e+00	0	32	104	0	60	40137
2026-01-29 02:21:05.60	299.83	9.22	-45.1	-59.9	3.6	1.51e+00	0	32	104	0	60	39972
2026-01-29 02:21:08.53	299.16	9.09	-45.2	-59.9	3.6	1.51e+00	0	32	104	0	60	39910
2026-01-29 02:21:11.46	298.50	8.96	-45.2	-59.9	3.6	1.51e+00	0	32	104	0	60	39933
2026-01-29 02:21:14.39	297.85	8.83	-45.1	-59.9	3.6	1.51e+00	0	32	104	0	60	39920
2026-01-29 02:21:17.32	297.20	8.70	-45.2	-59.8	3.6	1.51e+00	0	32	104	0	60	39738
2026-01-29 02:21:20.26	296.56	8.56	-45.1	-59.8	3.6	1.51e+00	0	32	104	0	60	39646
2026-01-29 02:21:23.18	295.93	8.42	-45.1	-59.8	3.6	1.51e+00	0	32	104	0	60	39829
2026-01-29 02:21:26.12	295.31	8.28	-45.1	-59.7	3.6	1.51e+00	0	32	104	0	60	39338
2026-01-29 02:21:29.06	294.69	8.14	-45.1	-59.8	3.6	1.51e+00	0	32	104	0	60	39679
2026-01-29 02:21:31.99	294.08	8.00	-45.1	-59.8	3.6	1.51e+00	0	32	104	0	60	39605
2026-01-29 02:21:34.93	293.48	7.85	-45.1	-59.7	3.6	1.51e+00	0	32	104	0	60	39153
2026-01-29 02:21:37.86	292.88	7.71	-45.0	-59.7	3.6	1.51e+00	0	32	104	0	60	39025
2026-01-29 02:21:40.79	292.30	7.56	-45.0	-59.7	3.6	1.51e+00	0	32	104	0	60	39380
2026-01-29 02:21:43.72	291.72	7.41	-45.0	-59.7	3.6	1.51e+00	0	32	104	0	60	39204
2026-01-29 02:21:46.64	291.15	7.27	-45.0	-59.6	3.6	1.51e+00	0	32	104	0	60	38747
2026-01-29 02:21:49.57	290.59	7.12	-44.9	-59.6	3.6	1.51e+00	0	32	104	0	60	38772
2026-01-29 02:21:52.50	290.03	6.97	-45.0	-59.7	3.6	1.51e+00	0	32	104	0	60	38993
2026-01-29 02:21:55.44	289.48	6.81	-44.9	-59.6	3.6	1.51e+00	0	32	104	0	60	38782
2026-01-29 02:21:58.36	288.94	6.66	-44.9	-59.6	3.6	1.51e+00	0	32	104	0	60	38677
2026-01-29 02:22:01.29	288.41	6.51	-45.0	-59.6	3.6	1.51e+00	0	32	104	0	60	38921
2026-01-29 02:22:04.22	287.88	6.35	-44.9	-59.6	3.6	1.51e+00	0	32	104	0	60	38676
2026-01-29 02:22:07.15	287.36	6.20	-44.8	-59.5	3.6	1.51e+00	0	32	104	0	60	38278
2026-01-29 02:22:10.08	286.85	6.04	-44.7	-59.4	3.6	1.51e+00	0	32	104	0	60	37880
2026-01-29 02:22:13.00	286.34	5.89	-44.9	-59.5	3.6	1.51e+00	0	32	104	0	60	38413
2026-01-29 02:22:15.93	285.84	5.73	-44.8	-59.5	3.6	1.51e+00	0	32	104	0	60	38145
2026-01-29 02:22:18.86	285.35	5.58	-44.7	-59.4	3.6	1.51e+00	0	32	104	0	60	37880
2026-01-29 02:22:21.79	284.86	5.42	-44.6	-59.3	3.6	1.51e+00	0	32	104	0	60	37501
2026-01-29 02:22:24.72	284.38	5.26	-44.7	-59.4	3.6	1.51e+00	0	32	104	0	60	37860
2026-01-29 02:22:27.65	283.91	5.11	-44.6	-59.4	3.6	1.51e+00	0	32	104	0	60	37725
2026-01-29 02:22:30.58	283.44	4.95	-44.6	-59.3	3.6	1.51e+00	0	32	104	0	60	37311
2026-01-29 02:22:33.51	282.99	4.79	-44.6	-59.3	3.6	1.51e+00	0	32	104	0	60	37399
2026-01-29 02:22:36.44	282.53	4.63	-44.6	-59.3	3.6	1.51e+00	0	32	104	0	60	37442
2026-01-29 02:22:39.38	282.08	4.47	-44.6	-59.2	3.6	1.51e+00	0	32	104	0	60	37102
2026-01-29 02:22:42.31	281.64	4.31	-44.4	-59.1	3.6	1.51e+00	0	32	104	0	60	36501
2026-01-29 02:22:45.23	281.21	4.16	-44.6	-59.3	3.6	1.51e+00	0	32	104	0	60	37217
2026-01-29 02:22:48.16	280.78	4.00	-44.5	-59.2	3.6	1.51e+00	0	32	104	0	60	36848
2026-01-29 02:22:51.09	280.36	3.84	-44.3	-59.0	3.6	1.51e+00	0	32	104	0	60	36296
2026-01-29 02:22:54.02	279.94	3.68	-44.2	-58.8	3.6	1.51e+00	0	32	104	0	60	35521
2026-01-29 02:22:56.94	279.53	3.53	-44.4	-59.1	3.6	1.51e+00	0	32	104	0	60	36636
2026-01-29 02:22:59.87	279.13	3.37	-44.3	-59.0	3.6	1.51e+00	0	32	104	0	60	36121
2026-01-29 02:23:02.80	278.73	3.21	-44.1	-58.9	3.6	1.51e+00	0	32	104	0	60	35580
2026-01-29 02:23:05.73	278.33	3.05	-44.0	-58.7	3.6	1.51e+00	0	32	104	0	60	34878
2026-01-29 02:23:08.67	277.94	2.89	-45.3	-60.0	3.6	1.51e+00	0	32	104	0	60	40654
2026-01-29 02:23:11.60	277.56	2.74	-45.8	-60.4	3.5	1.51e+00	0	32	104	0	60	42483
2026-01-29 02:23:14.53	277.18	2.58	-45.9	-60.6	3.6	1.51e+00	0	32	104	0	60	43282
2026-01-29 02:23:17.45	276.81	2.42	-46.0	-60.6	3.6	1.51e+00	0	32	104	0	60	43701
2026-01-29 02:23:20.38	276.44	2.27	-45.9	-60.6	3.6	1.51e+00	0	32	104	0	60	43362
2026-01-29 02:23:23.32	276.08	2.11	-45.9	-60.9	3.6	1.51e+00	0	32	104	0	60	44889
2026-01-29 02:23:26.25	275.72	1.95	-45.8	-60.5	3.6	1.51e+00	0	32	104	0	60	43071
2026-01-29 02:23:29.18	275.37	1.80	-45.6	-60.5	3.6	1.51e+00	0	32	104	0	60	42781
2026-01-29 02:23:32.11	275.02	1.64	-45.6	-60.3	3.6	1.51e+00	0	32	104	0	60	42050
2026-01-29 02:23:35.04	274.68	1.49	-45.7	-60.4	3.6	1.51e+00	0	32	104	0	60	42574
2026-01-29 02:23:37.97	274.34	1.33	-45.7	-60.4	3.5	1.51e+00	0	32	104	0	60	42467
2026-01-29 02:23:40.90	274.01	1.18	-45.6	-60.3	3.6	1.51e+00	0	32	104	0	60	42105
2026-01-29 02:23:43.83	273.68	1.03	-45.6	-60.4	3.6	1.51e+00	0	32	104	0	60	42258
2026-01-29 02:23:46.77	273.36	0.87	-45.6	-60.3	3.6	1.51e+00	0	32	104	0	60	42200
2026-01-29 02:23:49.71	273.03	0.72	-45.6	-60.3	3.6	1.51e+00	0	32	104	0	60	41810
2026-01-29 02:23:52.64	272.72	0.56	-45.6	-60.2	3.6	1.51e+00	0	32	104	0	60	41725
2026-01-29 02:23:55.57	272.41	0.41	-45.6	-60.3	3.6	1.51e+00	0	32	104	0	60	41914
2026-01-29 02:23:58.51	272.10	0.26	-45.6	-60.3	3.6	1.51e+00	0	32	104	0	60	41926
2026-01-29 02:24:01.45	271.79	0.11	-45.6	-60.3	3.6	1.51e+00	0	32	104	0	60	41848

#Closed at: 2026-01-29 02:24:04
#Recorded file [0 MB]: D:/lorett/data/35029_260129_141456.dat