passes_logs/2026/01/29/R4.6S_Anadyr/R4.6S_Anadyr__20260129_122210_NOAA_20_JPSS-1_rec.log

#Pass ID: 20260129_122210_NOAA 20 (JPSS-1)
#Satellite: NOAA 20 (JPSS-1)
#Configuration: NOAA 20
#almurnet v.1.7.20251203
#Start time: 2026-01-29 12:22:12

#Version: 2.2.20231116
#Station: R4.6S_Anadyr
#Location: 177.4865 lon 64.73178 lat
#TLE: 1 43013U 17073A   26028.86313978  .00000144  00000+0  89200-4 0  9993
#TLE: 2 43013  98.7648 329.6571 0000891  20.0014 340.1197 14.19541559424709

#Time	Az	El	Level	Level2	SNR	BER	BlckErr	Temp	State	Recorded	gain1	gain2
2026-01-29 12:22:12.98	19.17	0.10	-48.8	-63.7	3.5	1.51e+00	0	28	0	0	60	55541
2026-01-29 12:22:17.02	19.47	0.30	-48.9	-64.1	3.6	1.51e+00	0	30	104	0	60	58188
2026-01-29 12:22:21.05	19.77	0.50	-48.9	-64.1	3.6	1.51e+00	0	30	104	0	60	58235
2026-01-29 12:22:25.09	20.08	0.70	-48.9	-64.2	3.6	1.51e+00	0	30	104	0	60	58373
2026-01-29 12:22:29.13	20.40	0.90	-48.7	-63.9	3.6	1.51e+00	0	30	104	0	60	56847
2026-01-29 12:22:33.17	20.71	1.10	-48.3	-63.6	3.6	1.51e+00	0	30	104	0	60	54523
2026-01-29 12:22:37.21	21.03	1.30	-47.7	-62.9	3.6	1.51e+00	0	30	104	0	60	50366
2026-01-29 12:22:41.25	21.36	1.50	-47.3	-62.5	3.6	1.51e+00	0	30	104	0	60	48024
2026-01-29 12:22:45.28	21.68	1.70	-47.3	-62.5	3.6	1.51e+00	0	30	104	0	60	48094
2026-01-29 12:22:49.32	22.02	1.90	-47.3	-62.4	3.6	1.51e+00	0	30	104	0	60	47681
2026-01-29 12:22:53.36	22.35	2.11	-47.3	-62.4	3.6	1.51e+00	0	30	104	0	60	47812
2026-01-29 12:22:57.40	22.70	2.31	-47.3	-62.1	3.6	1.51e+00	0	30	104	0	60	46060
2026-01-29 12:23:01.44	23.04	2.51	-47.2	-61.2	3.6	1.51e+00	0	30	104	0	60	41704
2026-01-29 12:23:05.48	23.39	2.72	-43.8	-46.7	14.9	3.80e-06	0	30	0	5242880	60	7830
2026-01-29 12:23:09.52	23.75	2.93	-42.4	-44.5	16.9	0.00e+00	92	30	0	12582912	56	7669
2026-01-29 12:23:13.56	24.11	3.13	-43.3	-45.9	15.6	1.38e+00	0	31	104	18874368	60	7107
2026-01-29 12:23:17.59	24.47	3.34	-42.3	-44.2	17.4	0.00e+00	64	30	0	23068672	58	6596
2026-01-29 12:23:21.63	24.84	3.55	-41.9	-43.7	17.9	0.00e+00	7	31	0	30408704	56	6956
2026-01-29 12:23:25.67	25.21	3.76	-41.6	-43.3	18.4	0.00e+00	92	31	0	37748736	56	6638
2026-01-29 12:23:29.70	25.59	3.97	-41.6	-43.2	18.6	0.00e+00	0	31	0	45088768	56	6580
2026-01-29 12:23:33.74	25.98	4.18	-41.5	-43.1	18.7	0.00e+00	0	31	0	52428800	56	6520
2026-01-29 12:23:37.78	26.37	4.39	-41.8	-43.5	18.4	0.00e+00	60	31	0	60817408	56	6808
2026-01-29 12:23:41.81	26.76	4.60	-41.6	-43.2	18.8	0.00e+00	91	31	0	68157440	56	6596
2026-01-29 12:23:45.85	27.16	4.81	-41.3	-42.8	19.0	0.00e+00	0	31	0	75497472	56	6292
2026-01-29 12:23:49.89	27.57	5.02	-40.6	-42.0	19.9	0.00e+00	17	31	0	82837504	54	6439
2026-01-29 12:23:53.93	27.98	5.23	-40.5	-41.9	20.1	0.00e+00	91	31	0	90177536	54	6319
2026-01-29 12:23:57.96	28.40	5.45	-40.5	-41.9	20.0	0.00e+00	64	31	0	98566144	54	6377
2026-01-29 12:24:01.99	28.82	5.66	-40.3	-41.6	20.3	0.00e+00	23	31	0	105906176	54	6173
2026-01-29 12:24:06.03	29.25	5.88	-40.2	-41.5	20.5	0.00e+00	16	31	0	113246208	52	6819
2026-01-29 12:24:10.06	29.69	6.09	-39.8	-41.1	21.0	0.00e+00	90	31	0	120586240	52	6471
2026-01-29 12:24:14.09	30.13	6.30	-39.8	-41.0	21.0	0.00e+00	0	31	0	127926272	52	6455
2026-01-29 12:24:18.12	30.57	6.52	-40.0	-41.2	20.8	0.00e+00	2	31	0	136314880	52	6580
2026-01-29 12:24:22.16	31.03	6.74	-39.9	-41.1	20.9	0.00e+00	0	31	0	143654912	52	6490
2026-01-29 12:24:26.20	31.49	6.95	-39.7	-40.9	21.2	0.00e+00	90	31	0	150994944	52	6380
2026-01-29 12:24:30.23	31.96	7.17	-39.5	-40.7	21.4	0.00e+00	66	31	0	158334976	52	6205
2026-01-29 12:24:34.27	32.43	7.39	-39.5	-40.6	21.4	0.00e+00	0	31	0	166723584	52	6140
2026-01-29 12:24:38.31	32.91	7.60	-39.3	-40.4	21.7	0.00e+00	0	31	0	174063616	52	5976
2026-01-29 12:24:42.35	33.40	7.82	-39.3	-40.4	21.8	0.00e+00	92	31	0	181403648	52	5966
2026-01-29 12:24:46.39	33.89	8.04	-39.2	-40.3	21.9	0.00e+00	63	31	0	188743680	52	5907
2026-01-29 12:24:50.42	34.40	8.25	-39.1	-40.2	22.0	0.00e+00	0	31	0	196083712	52	5864
2026-01-29 12:24:54.46	34.91	8.47	-39.0	-40.1	22.1	0.00e+00	18	31	0	204472320	52	5780
2026-01-29 12:24:58.49	35.42	8.69	-39.1	-40.2	22.0	0.00e+00	92	31	0	211812352	52	5855
2026-01-29 12:25:02.52	35.94	8.91	-39.2	-40.3	21.9	0.00e+00	0	31	0	219152384	52	5918
2026-01-29 12:25:06.55	36.47	9.12	-39.1	-40.2	22.0	0.00e+00	0	31	0	226492416	52	5876
2026-01-29 12:25:10.59	37.01	9.34	-39.1	-40.1	22.1	0.00e+00	0	31	0	234881024	52	5811
2026-01-29 12:25:14.63	37.56	9.56	-38.9	-39.9	22.3	0.00e+00	91	31	0	242221056	50	6348
2026-01-29 12:25:18.67	38.12	9.77	-38.8	-39.8	22.4	0.00e+00	5	31	0	249561088	50	6316
2026-01-29 12:25:22.70	38.68	9.99	-38.6	-39.6	22.6	0.00e+00	6	31	0	256901120	50	6165
2026-01-29 12:25:26.73	39.25	10.20	-38.2	-39.2	22.9	0.00e+00	0	31	0	264241152	50	5841
2026-01-29 12:25:30.76	39.82	10.42	-38.0	-39.0	23.2	0.00e+00	66	31	0	272629760	50	5709
2026-01-29 12:25:34.80	40.41	10.63	-37.9	-38.8	23.3	0.00e+00	15	31	0	279969792	50	5628
2026-01-29 12:25:38.83	41.01	10.84	-37.7	-38.6	23.5	0.00e+00	67	31	0	287309824	48	6144
2026-01-29 12:25:42.87	41.61	11.06	-37.7	-38.6	23.5	0.00e+00	89	31	0	294649856	48	6138
2026-01-29 12:25:46.90	42.22	11.27	-37.9	-38.9	23.2	0.00e+00	0	31	0	303038464	48	6321
2026-01-29 12:25:50.94	42.84	11.48	-37.7	-38.6	23.6	0.00e+00	0	31	0	310378496	48	6124
2026-01-29 12:25:54.98	43.47	11.69	-37.8	-38.7	23.4	0.00e+00	0	31	0	317718528	48	6234
2026-01-29 12:25:59.02	44.11	11.89	-37.8	-38.7	23.4	0.00e+00	92	31	0	325058560	48	6239
2026-01-29 12:26:03.05	44.76	12.10	-37.7	-38.6	23.4	0.00e+00	0	31	0	332398592	48	6158
2026-01-29 12:26:07.09	45.41	12.30	-37.7	-38.6	23.6	0.00e+00	0	31	0	340787200	48	6112
2026-01-29 12:26:11.13	46.08	12.51	-37.9	-38.9	23.3	0.00e+00	0	31	0	348127232	48	6325
2026-01-29 12:26:15.17	46.75	12.71	-38.0	-38.9	23.3	0.00e+00	91	31	0	355467264	48	6383
2026-01-29 12:26:19.20	47.43	12.91	-38.1	-39.0	23.2	0.00e+00	0	31	0	362807296	48	6438
2026-01-29 12:26:23.24	48.13	13.10	-38.3	-39.3	23.0	0.00e+00	14	31	0	370147328	48	6658
2026-01-29 12:26:27.27	48.83	13.30	-38.5	-39.5	22.8	0.00e+00	0	31	0	378535936	48	6796
2026-01-29 12:26:31.31	49.54	13.49	-39.0	-40.1	22.3	0.00e+00	92	31	0	385875968	50	6479
2026-01-29 12:26:35.35	50.25	13.68	-39.2	-40.3	22.0	0.00e+00	0	31	0	393216000	50	6632
2026-01-29 12:26:39.38	50.98	13.87	-39.6	-40.6	21.8	0.00e+00	0	31	0	400556032	50	6926
2026-01-29 12:26:43.42	51.72	14.05	-39.7	-40.8	21.7	0.00e+00	0	31	0	408944640	50	7031
2026-01-29 12:26:47.46	52.46	14.23	-39.8	-40.9	21.6	0.00e+00	92	31	0	416284672	52	6390
2026-01-29 12:26:51.49	53.22	14.41	-40.1	-41.3	21.3	0.00e+00	7	31	0	423624704	52	6675
2026-01-29 12:26:55.53	53.98	14.59	-40.2	-41.4	21.1	0.00e+00	0	31	0	430964736	52	6697
2026-01-29 12:26:59.57	54.75	14.76	-40.2	-41.4	21.1	0.00e+00	0	31	0	438304768	52	6747
2026-01-29 12:27:03.60	55.53	14.93	-40.4	-41.6	20.9	0.00e+00	90	31	0	446693376	52	6926
2026-01-29 12:27:07.63	56.32	15.09	-40.1	-41.2	21.3	0.00e+00	60	31	0	454033408	52	6596
2026-01-29 12:27:11.67	57.11	15.25	-39.4	-40.5	22.0	0.00e+00	25	31	0	461373440	52	6066
2026-01-29 12:27:15.71	57.92	15.41	-39.3	-40.3	22.2	0.00e+00	0	31	0	468713472	52	5949
2026-01-29 12:27:19.75	58.74	15.56	-38.9	-40.0	22.5	0.00e+00	66	31	0	477102080	52	5702
2026-01-29 12:27:23.78	59.56	15.70	-38.7	-39.7	22.4	0.00e+00	0	31	0	484442112	50	6216
2026-01-29 12:27:27.82	60.39	15.85	-37.8	-38.7	23.6	0.00e+00	67	31	0	491782144	50	5563
2026-01-29 12:27:31.86	61.22	15.98	-37.9	-38.8	23.4	0.00e+00	60	31	0	499122176	50	5587
2026-01-29 12:27:35.90	62.07	16.12	-38.1	-39.0	23.3	0.00e+00	48	31	0	506462208	50	5758
2026-01-29 12:27:39.93	62.92	16.24	-38.4	-39.4	23.0	0.00e+00	0	31	0	514850816	50	5988
2026-01-29 12:27:43.97	63.78	16.36	-38.4	-39.4	23.0	0.00e+00	66	31	0	522190848	50	5988
2026-01-29 12:27:48.00	64.64	16.48	-38.4	-39.4	23.0	0.00e+00	91	31	0	529530880	50	6008
2026-01-29 12:27:52.04	65.51	16.59	-38.6	-39.6	22.8	0.00e+00	16	31	0	536870912	50	6148
2026-01-29 12:27:56.07	66.39	16.70	-38.8	-39.8	22.6	0.00e+00	2	31	0	544210944	50	6260
2026-01-29 12:28:00.11	67.27	16.79	-38.7	-39.6	22.7	0.00e+00	0	31	0	552599552	50	6160
2026-01-29 12:28:04.15	68.17	16.89	-38.7	-39.7	22.7	0.00e+00	92	31	0	559939584	50	6219
2026-01-29 12:28:08.19	69.06	16.97	-38.7	-39.7	22.7	0.00e+00	0	31	0	567279616	50	6220
2026-01-29 12:28:12.23	69.96	17.05	-38.8	-39.8	22.7	0.00e+00	19	31	0	574619648	50	6266
2026-01-29 12:28:16.27	70.87	17.13	-38.4	-39.4	23.0	0.00e+00	18	31	0	583008256	50	5969
2026-01-29 12:28:20.30	71.77	17.19	-38.4	-39.3	23.0	0.00e+00	91	31	0	590348288	50	5942
2026-01-29 12:28:24.33	72.68	17.25	-38.8	-39.8	22.6	0.00e+00	0	31	0	597688320	50	6275
2026-01-29 12:28:28.37	73.60	17.31	-39.4	-40.4	22.1	0.00e+00	66	31	0	605028352	50	6759
2026-01-29 12:28:32.41	74.52	17.35	-39.0	-40.0	22.4	0.00e+00	21	31	0	612368384	50	6418
2026-01-29 12:28:36.44	75.44	17.39	-38.7	-39.7	22.8	0.00e+00	92	31	0	620756992	50	6177
2026-01-29 12:28:40.48	76.36	17.42	-38.7	-39.7	22.7	0.00e+00	6	31	0	628097024	50	6180
2026-01-29 12:28:44.52	77.29	17.45	-38.8	-39.9	22.5	0.00e+00	0	31	0	635437056	50	6364
2026-01-29 12:28:48.55	78.21	17.47	-38.7	-39.7	22.8	0.00e+00	0	31	0	642777088	50	6205
2026-01-29 12:28:52.59	79.14	17.48	-38.6	-39.6	22.8	0.00e+00	90	31	0	650117120	50	6145
2026-01-29 12:28:56.62	80.07	17.48	-38.7	-39.7	22.8	0.00e+00	66	31	0	658505728	50	6184
2026-01-29 12:29:00.66	81.00	17.48	-38.8	-39.8	22.6	0.00e+00	20	31	0	665845760	50	6246
2026-01-29 12:29:04.70	81.92	17.47	-38.5	-39.6	22.8	0.00e+00	0	31	0	673185792	50	6104
2026-01-29 12:29:08.73	82.85	17.45	-38.2	-39.2	23.1	0.00e+00	92	31	0	680525824	50	5863
2026-01-29 12:29:12.77	83.78	17.42	-38.5	-39.5	23.0	0.00e+00	0	31	0	688914432	50	6050
2026-01-29 12:29:16.81	84.70	17.39	-38.7	-39.7	22.8	0.00e+00	15	31	0	696254464	50	6194
2026-01-29 12:29:20.84	85.62	17.35	-37.9	-38.8	23.5	0.00e+00	92	31	0	703594496	50	5592
2026-01-29 12:29:24.87	86.54	17.31	-38.1	-39.0	23.4	0.00e+00	91	31	0	710934528	50	5755
2026-01-29 12:29:28.91	87.46	17.25	-38.1	-39.0	23.3	0.00e+00	0	31	0	718274560	50	5733
2026-01-29 12:29:32.95	88.37	17.19	-37.9	-38.8	23.4	0.00e+00	67	31	0	726663168	50	5619
2026-01-29 12:29:36.98	89.28	17.13	-37.7	-38.6	23.7	0.00e+00	91	31	0	734003200	48	6104
2026-01-29 12:29:41.02	90.18	17.05	-37.5	-38.4	23.9	0.00e+00	23	31	0	741343232	48	5970
2026-01-29 12:29:45.06	91.09	16.97	-37.4	-38.3	24.0	0.00e+00	17	31	0	748683264	48	5943
2026-01-29 12:29:49.09	91.98	16.89	-37.4	-38.3	23.9	0.00e+00	2	31	0	757071872	48	5943
2026-01-29 12:29:53.13	92.87	16.79	-37.7	-38.6	23.6	0.00e+00	91	31	0	764411904	48	6170
2026-01-29 12:29:57.17	93.76	16.70	-37.2	-38.1	24.0	0.00e+00	65	31	0	771751936	48	5820
2026-01-29 12:30:01.21	94.64	16.59	-36.8	-37.6	24.5	0.00e+00	17	31	0	779091968	48	5477
2026-01-29 12:30:05.24	95.51	16.48	-36.6	-37.4	24.6	0.00e+00	17	31	0	786432000	46	5999
2026-01-29 12:30:09.28	96.38	16.36	-36.9	-37.8	24.2	0.00e+00	92	31	0	794820608	46	6305
2026-01-29 12:30:13.32	97.24	16.24	-37.2	-38.2	24.0	0.00e+00	0	31	0	802160640	46	6543
2026-01-29 12:30:17.35	98.10	16.11	-36.5	-37.3	24.8	0.00e+00	63	31	0	809500672	46	5908
2026-01-29 12:30:21.39	98.94	15.98	-36.6	-37.4	24.6	0.00e+00	49	31	0	816840704	46	6027
2026-01-29 12:30:25.43	99.78	15.84	-37.1	-37.9	24.2	0.00e+00	92	31	0	825229312	46	6375
2026-01-29 12:30:29.46	100.61	15.70	-37.1	-38.0	24.2	0.00e+00	5	31	0	832569344	46	6403
2026-01-29 12:30:33.50	101.44	15.55	-37.1	-38.0	24.0	0.00e+00	7	31	0	839909376	46	6434
2026-01-29 12:30:37.53	102.25	15.40	-37.0	-37.8	24.1	0.00e+00	6	31	0	847249408	46	6309
2026-01-29 12:30:41.57	103.06	15.24	-37.6	-38.5	23.6	0.00e+00	92	31	0	854589440	46	6807
2026-01-29 12:30:45.60	103.86	15.08	-38.5	-39.6	22.6	0.00e+00	20	31	0	862978048	48	6879
2026-01-29 12:30:49.63	104.65	14.92	-38.8	-40.0	22.3	0.00e+00	0	31	0	870318080	50	6432
2026-01-29 12:30:53.66	105.43	14.75	-38.9	-40.0	22.3	0.00e+00	51	31	0	877658112	50	6400
2026-01-29 12:30:57.70	106.21	14.58	-38.6	-39.6	22.7	0.00e+00	92	31	0	884998144	50	6154
2026-01-29 12:31:01.73	106.97	14.40	-38.6	-39.8	22.5	0.00e+00	6	31	0	892338176	50	6274
2026-01-29 12:31:05.76	107.73	14.22	-39.0	-40.1	22.2	0.00e+00	0	31	0	900726784	50	6492
2026-01-29 12:31:09.80	108.48	14.04	-39.4	-40.5	21.7	0.00e+00	59	31	0	908066816	50	6808
2026-01-29 12:31:13.84	109.22	13.85	-39.3	-40.3	21.9	0.00e+00	92	31	0	915406848	50	6688
2026-01-29 12:31:17.88	109.95	13.66	-39.0	-40.0	22.2	0.00e+00	17	31	0	922746880	50	6459
2026-01-29 12:31:21.92	110.67	13.47	-38.8	-39.8	22.4	0.00e+00	2	31	0	931135488	50	6287
2026-01-29 12:31:25.96	111.38	13.28	-38.1	-39.1	23.0	0.00e+00	92	31	0	938475520	50	5770
2026-01-29 12:31:29.99	112.08	13.08	-38.1	-39.1	23.0	0.00e+00	19	31	0	945815552	50	5790
2026-01-29 12:31:34.03	112.78	12.88	-38.6	-39.6	22.6	0.00e+00	17	31	0	953155584	50	6160
2026-01-29 12:31:38.06	113.46	12.68	-39.0	-40.1	22.0	0.00e+00	23	31	0	960495616	50	6474
2026-01-29 12:31:42.10	114.14	12.48	-38.6	-39.6	22.4	0.00e+00	92	31	0	968884224	50	6168
2026-01-29 12:31:46.14	114.81	12.28	-37.7	-38.7	23.3	0.00e+00	0	31	0	976224256	48	6237
2026-01-29 12:31:50.18	115.47	12.07	-37.9	-38.9	23.1	0.00e+00	65	31	0	983564288	48	6320
2026-01-29 12:31:54.22	116.12	11.86	-38.0	-39.0	23.0	0.00e+00	0	31	0	990904320	48	6440
2026-01-29 12:31:58.25	116.75	11.65	-37.9	-38.9	23.2	0.00e+00	92	31	0	999292928	48	6320
2026-01-29 12:32:02.29	117.39	11.44	-38.2	-39.1	23.0	0.00e+00	0	31	0	1006632960	48	6527
2026-01-29 12:32:06.33	118.01	11.23	-38.0	-38.9	23.1	0.00e+00	2	31	0	1013972992	48	6367
2026-01-29 12:32:10.37	118.63	11.02	-37.7	-38.7	23.2	0.00e+00	0	31	0	1021313024	48	6185
2026-01-29 12:32:14.41	119.23	10.80	-38.6	-39.6	22.4	0.00e+00	92	31	0	1028653056	48	6885
2026-01-29 12:32:18.45	119.83	10.59	-38.1	-39.0	23.0	0.00e+00	0	31	0	1037041664	48	6448
2026-01-29 12:32:22.49	120.42	10.37	-37.9	-38.9	23.1	0.00e+00	20	31	0	1044381696	48	6339
2026-01-29 12:32:26.53	121.00	10.16	-38.5	-39.6	22.5	0.00e+00	0	31	0	1051721728	48	6858
2026-01-29 12:32:30.56	121.57	9.94	-38.5	-39.5	22.5	0.00e+00	92	31	0	1059061760	48	6772
2026-01-29 12:32:34.60	122.14	9.72	-38.0	-39.0	23.0	0.00e+00	25	31	0	1067450368	48	6432
2026-01-29 12:32:38.64	122.69	9.50	-38.5	-39.5	22.4	0.00e+00	54	31	0	1074790400	48	6800
2026-01-29 12:32:42.68	123.24	9.28	-38.6	-39.6	22.3	0.00e+00	41	31	0	1082130432	50	6173
2026-01-29 12:32:46.72	123.78	9.07	-38.7	-39.7	22.2	0.00e+00	92	31	0	1089470464	50	6227
2026-01-29 12:32:50.76	124.31	8.85	-39.0	-40.1	21.8	0.00e+00	61	31	0	1096810496	50	6517
2026-01-29 12:32:54.80	124.84	8.63	-39.4	-40.6	21.4	0.00e+00	20	31	0	1105199104	50	6867
2026-01-29 12:32:58.84	125.36	8.41	-39.3	-40.4	21.6	0.00e+00	88	31	0	1112539136	50	6759
2026-01-29 12:33:02.88	125.87	8.19	-39.2	-40.4	21.5	0.00e+00	91	31	0	1119879168	50	6742
2026-01-29 12:33:06.92	126.37	7.97	-39.5	-40.6	21.3	0.00e+00	0	31	0	1127219200	50	6921
2026-01-29 12:33:10.95	126.86	7.75	-39.6	-40.8	21.2	0.00e+00	0	31	0	1135607808	52	6309
2026-01-29 12:33:14.99	127.35	7.53	-39.6	-40.7	21.1	0.00e+00	92	31	0	1142947840	52	6242
2026-01-29 12:33:19.02	127.83	7.31	-39.7	-40.9	21.0	0.00e+00	24	31	0	1150287872	52	6376
2026-01-29 12:33:23.06	128.31	7.09	-40.3	-41.7	20.3	0.00e+00	0	31	0	1157627904	52	6941
2026-01-29 12:33:27.09	128.78	6.87	-40.0	-41.3	20.7	0.00e+00	0	31	0	1164967936	52	6623
2026-01-29 12:33:31.14	129.24	6.66	-39.9	-41.2	20.7	0.00e+00	92	31	0	1173356544	52	6558
2026-01-29 12:33:35.17	129.69	6.44	-40.0	-41.4	20.4	0.00e+00	0	31	0	1180696576	52	6717
2026-01-29 12:33:39.22	130.14	6.22	-40.0	-41.3	20.6	0.00e+00	0	31	0	1188036608	52	6659
2026-01-29 12:33:43.26	130.58	6.00	-40.0	-41.3	20.6	0.00e+00	2	31	0	1195376640	52	6629
2026-01-29 12:33:47.29	131.02	5.79	-40.0	-41.4	20.5	0.00e+00	91	31	0	1202716672	52	6694
2026-01-29 12:33:51.33	131.45	5.57	-40.6	-42.0	19.8	0.00e+00	0	31	0	1211105280	52	7202
2026-01-29 12:33:55.37	131.87	5.35	-41.0	-42.5	19.2	0.00e+00	0	31	0	1218445312	54	6814
2026-01-29 12:33:59.40	132.29	5.14	-41.0	-42.6	19.2	0.00e+00	52	31	0	1225785344	54	6861
2026-01-29 12:34:03.44	132.70	4.92	-40.7	-42.1	19.5	0.00e+00	92	31	0	1233125376	54	6536
2026-01-29 12:34:07.47	133.10	4.71	-41.2	-42.8	18.9	0.00e+00	6	31	0	1241513984	54	7014
2026-01-29 12:34:11.50	133.50	4.50	-41.2	-42.8	18.8	0.00e+00	6	31	0	1248854016	54	7053
2026-01-29 12:34:15.54	133.90	4.28	-41.7	-43.4	18.2	0.00e+00	57	31	0	1256194048	54	7558
2026-01-29 12:34:19.58	134.29	4.07	-42.1	-44.1	17.5	0.00e+00	92	31	0	1263534080	56	7276
2026-01-29 12:34:23.62	134.67	3.86	-42.0	-44.0	17.6	0.00e+00	57	31	0	1270874112	56	7243
2026-01-29 12:34:27.65	135.05	3.65	-42.0	-44.0	17.6	0.00e+00	8	31	0	1279262720	56	7191
2026-01-29 12:34:31.69	135.42	3.44	-42.3	-44.4	17.0	0.00e+00	17	31	0	1286602752	56	7520
2026-01-29 12:34:35.73	135.79	3.23	-42.1	-44.1	17.3	0.00e+00	31	31	0	1293942784	56	7274
2026-01-29 12:34:39.76	136.15	3.02	-42.0	-43.9	17.5	0.00e+00	0	31	0	1301282816	56	7160
2026-01-29 12:34:43.80	136.51	2.81	-48.3	-63.5	3.6	1.51e+00	0	31	104	1303379968	60	53970
2026-01-29 12:34:47.84	136.86	2.60	-48.7	-63.9	3.6	1.51e+00	0	31	104	1303379968	60	56666
2026-01-29 12:34:51.89	137.21	2.39	-48.8	-64.0	3.6	1.51e+00	0	31	104	1303379968	60	57481
2026-01-29 12:34:55.93	137.56	2.19	-48.9	-64.1	3.6	1.51e+00	0	31	104	1303379968	60	57619
2026-01-29 12:34:59.96	137.90	1.98	-48.8	-64.0	3.6	1.51e+00	0	31	104	1303379968	60	57471
2026-01-29 12:35:04.00	138.23	1.78	-48.9	-64.0	3.6	1.51e+00	0	31	104	1303379968	60	57577
2026-01-29 12:35:08.04	138.56	1.57	-48.8	-64.0	3.6	1.51e+00	0	31	104	1303379968	60	57454
2026-01-29 12:35:12.08	138.89	1.37	-48.8	-64.0	3.6	1.51e+00	0	31	104	1303379968	60	57583
2026-01-29 12:35:16.12	139.21	1.16	-48.8	-64.1	3.6	1.51e+00	0	31	104	1303379968	60	57789
2026-01-29 12:35:20.16	139.53	0.96	-48.9	-64.1	3.6	1.51e+00	0	31	104	1303379968	60	57731
2026-01-29 12:35:24.20	139.85	0.76	-48.8	-64.0	3.6	1.51e+00	0	31	104	1303379968	60	57168
2026-01-29 12:35:28.24	140.16	0.56	-48.9	-64.1	3.6	1.51e+00	0	31	104	1303379968	60	57660
2026-01-29 12:35:32.28	140.46	0.36	-48.8	-64.0	3.6	1.51e+00	0	31	104	1303379968	60	57463
2026-01-29 12:35:36.32	140.77	0.16	-48.8	-64.1	3.6	1.51e+00	0	31	104	1303379968	60	57679
2026-01-29 12:35:40.35	141.06	-0.04	-48.8	-64.0	3.6	1.51e+00	0	31	104	1303379968	60	57490

#Closed at: 2026-01-29 12:35:41
#Recorded file [1303 MB]: D:/lorett/data/35029_260130_002212.dat