passes_logs/2026/01/29/R4.6S_Anadyr/R4.6S_Anadyr__20260129_093550_TY-42_rec.log

#Pass ID: 20260129_093550_TY-42
#Satellite: TY-42
#Configuration: TY-42_900M
#almurnet v.1.7.20251203
#Start time: 2026-01-29 09:36:22

#Version: 2.2.20231116
#Station: R4.6S_Anadyr
#Location: 177.4865 lon 64.73178 lat
#TLE: 1 64048U 25103A   26028.87012731  .00008010  00000-0  38191-3 0 09994
#TLE: 2 64048 097.4122 104.0273 0001827 094.4790 293.3217 15.19170538 38926

#Time	Az	El	Level	Level2	SNR	BER	BlckErr	Temp	State	Recorded	gain1	gain2
2026-01-29 09:36:22.67	165.70	2.15	-45.4	-59.8	3.5	1.51e+00	0	27	0	0	60	39707
2026-01-29 09:36:25.69	165.74	2.37	-47.6	-50.1	6.1	0.00e+00	0	29	104	0	60	39025
2026-01-29 09:36:28.72	165.79	2.58	-47.6	-50.1	6.1	0.00e+00	0	29	104	0	60	39082
2026-01-29 09:36:31.75	165.83	2.80	-47.6	-50.1	6.1	0.00e+00	0	29	104	0	60	38989
2026-01-29 09:36:34.78	165.88	3.02	-47.6	-50.1	6.1	0.00e+00	0	29	104	0	60	38963
2026-01-29 09:36:37.82	165.92	3.25	-47.6	-50.1	6.0	0.00e+00	0	29	104	0	60	38970
2026-01-29 09:36:40.85	165.97	3.47	-47.6	-50.1	6.1	0.00e+00	0	29	104	0	60	38987
2026-01-29 09:36:43.88	166.02	3.70	-47.6	-50.1	6.1	0.00e+00	0	29	104	0	60	39050
2026-01-29 09:36:46.91	166.07	3.93	-47.6	-50.0	6.1	0.00e+00	0	29	104	0	60	38937
2026-01-29 09:36:49.93	166.12	4.16	-47.6	-50.1	6.1	0.00e+00	0	29	104	0	60	39118
2026-01-29 09:36:52.96	166.17	4.40	-47.7	-50.2	6.1	0.00e+00	0	30	104	0	60	39435
2026-01-29 09:36:55.98	166.22	4.64	-47.6	-50.1	6.1	0.00e+00	0	30	104	0	60	39302
2026-01-29 09:36:59.01	166.28	4.88	-47.6	-50.1	6.1	0.00e+00	0	30	104	0	60	39246
2026-01-29 09:37:02.01	166.33	5.12	-48.0	-50.4	6.1	0.00e+00	0	30	104	0	60	40618
2026-01-29 09:37:05.03	166.38	5.37	-47.9	-50.4	6.1	0.00e+00	0	30	104	0	60	40353
2026-01-29 09:37:08.06	166.44	5.62	-31.7	-32.0	13.8	0.00e+00	1965	30	104	0	40	15500
2026-01-29 09:37:11.08	166.49	5.87	-28.9	-29.3	15.2	1.24e-02	0	30	0	335544320	34	15982
2026-01-29 09:37:14.11	166.55	6.13	-28.0	-28.4	15.6	2.32e-03	0	30	0	679477248	32	16107
2026-01-29 09:37:17.14	166.61	6.39	-27.5	-27.9	15.8	1.55e-03	0	30	0	1015021568	30	17084
2026-01-29 09:37:20.17	166.67	6.65	-27.4	-27.8	15.8	7.63e-04	0	30	0	1358954496	30	16940
2026-01-29 09:37:23.20	166.73	6.92	-27.7	-28.2	15.7	8.06e-04	0	30	0	1694498816	30	17604
2026-01-29 09:37:26.23	166.79	7.19	-27.1	-27.5	15.8	8.55e-04	0	31	0	2038431744	30	16416
2026-01-29 09:37:29.26	166.86	7.47	-27.1	-27.5	15.9	6.21e-04	0	31	0	2382364672	30	16390
2026-01-29 09:37:32.29	166.92	7.75	-27.0	-27.4	15.9	4.36e-04	0	31	0	2717908992	30	16218
2026-01-29 09:37:35.31	166.98	8.03	-26.9	-27.3	15.9	5.29e-04	0	31	0	3061841920	28	17895
2026-01-29 09:37:38.34	167.05	8.32	-26.5	-26.9	16.0	3.38e-04	0	31	0	3405774848	28	17192
2026-01-29 09:37:41.30	167.12	8.60	-26.5	-26.9	16.0	2.94e-04	0	31	0	3732930560	28	17111
2026-01-29 09:37:44.33	167.19	8.90	-26.3	-26.7	16.0	2.67e-04	0	31	0	4076863488	28	16726
2026-01-29 09:37:47.35	167.26	9.20	-26.3	-26.7	16.1	3.43e-04	0	31	0	4412407808	28	16766
2026-01-29 09:37:50.37	167.33	9.50	-26.3	-26.7	16.1	1.69e-04	0	31	0	4756340736	28	16767
2026-01-29 09:37:53.40	167.41	9.81	-25.9	-26.3	16.1	1.42e-04	0	31	0	5091885056	26	17960
2026-01-29 09:37:56.43	167.48	10.13	-25.9	-26.3	16.0	3.05e-04	0	31	0	5435817984	26	17874
2026-01-29 09:37:59.45	167.56	10.45	-25.5	-26.0	16.1	2.67e-04	0	31	0	5779750912	26	17212
2026-01-29 09:38:02.48	167.64	10.78	-25.3	-25.8	16.2	1.20e-04	0	31	0	6115295232	26	16857
2026-01-29 09:38:05.51	167.72	11.11	-25.3	-25.7	16.3	1.36e-04	0	31	0	6459228160	26	16759
2026-01-29 09:38:08.54	167.81	11.45	-25.1	-25.6	16.3	3.81e-05	0	31	0	6803161088	26	16455
2026-01-29 09:38:11.57	167.89	11.79	-25.0	-25.4	16.3	2.72e-05	0	31	0	7138705408	26	16227
2026-01-29 09:38:14.59	167.98	12.14	-24.8	-25.2	16.4	2.17e-05	0	31	0	7482638336	26	15848
2026-01-29 09:38:17.62	168.07	12.50	-24.6	-25.1	16.4	1.63e-05	0	31	0	7826571264	24	17495
2026-01-29 09:38:20.65	168.16	12.87	-24.7	-25.2	16.4	2.17e-05	0	31	0	8162115584	24	17675
2026-01-29 09:38:23.67	168.26	13.24	-24.6	-25.0	16.4	4.35e-05	0	32	0	8506048512	24	17383
2026-01-29 09:38:26.70	168.36	13.62	-24.4	-24.9	16.4	5.40e-06	0	31	0	8841592832	24	17043
2026-01-29 09:38:29.73	168.46	14.01	-24.4	-24.9	16.4	1.08e-05	0	32	0	9185525760	24	17008
2026-01-29 09:38:32.76	168.56	14.40	-24.1	-24.6	16.4	1.63e-05	0	32	0	9521070080	24	16510
2026-01-29 09:38:35.78	168.67	14.81	-23.9	-24.4	16.5	5.40e-06	0	32	0	9865003008	24	16131
2026-01-29 09:38:38.81	168.78	15.22	-23.7	-24.1	16.6	1.08e-05	0	32	0	10200547328	22	17586
2026-01-29 09:38:41.83	168.89	15.64	-23.6	-24.0	16.5	0.00e+00	0	32	0	10544480256	22	17332
2026-01-29 09:38:44.86	169.00	16.07	-23.6	-24.0	16.6	0.00e+00	0	32	0	10880024576	22	17345
2026-01-29 09:38:47.88	169.12	16.51	-23.4	-23.8	16.6	0.00e+00	0	32	0	11223957504	22	16998
2026-01-29 09:38:50.90	169.25	16.97	-23.1	-23.5	16.6	0.00e+00	0	32	0	11567890432	22	16388
2026-01-29 09:38:53.93	169.37	17.43	-23.0	-23.5	16.6	0.00e+00	0	32	0	11903434752	22	16346
2026-01-29 09:38:56.96	169.51	17.90	-22.7	-23.2	16.6	5.40e-06	0	32	0	12247367680	20	17654
2026-01-29 09:38:59.99	169.64	18.39	-22.5	-23.0	16.6	0.00e+00	0	32	0	12591300608	20	17306
2026-01-29 09:39:03.01	169.78	18.89	-22.3	-22.8	16.6	0.00e+00	0	32	0	12935233536	20	16855
2026-01-29 09:39:06.04	169.93	19.40	-21.9	-22.4	16.7	0.00e+00	0	32	0	13270777856	20	16195
2026-01-29 09:39:09.07	170.08	19.92	-22.2	-22.6	16.7	0.00e+00	0	32	0	13614710784	20	16573
2026-01-29 09:39:12.10	170.24	20.46	-21.7	-22.2	16.8	0.00e+00	0	32	0	13950255104	18	17661
2026-01-29 09:39:15.12	170.40	21.01	-21.5	-22.0	16.8	0.00e+00	0	32	0	14294188032	18	17222
2026-01-29 09:39:18.15	170.57	21.58	-21.4	-21.9	16.8	0.00e+00	0	32	0	14629732352	18	17087
2026-01-29 09:39:21.18	170.75	22.17	-21.1	-21.5	16.8	0.00e+00	0	32	0	14973665280	18	16405
2026-01-29 09:39:24.20	170.93	22.77	-20.9	-21.4	16.8	0.00e+00	0	32	0	15309209600	18	16083
2026-01-29 09:39:27.23	171.12	23.39	-20.6	-21.0	16.8	0.00e+00	0	32	0	15653142528	16	17329
2026-01-29 09:39:30.25	171.32	24.02	-20.3	-20.8	16.9	0.00e+00	0	32	0	15988686848	16	16816
2026-01-29 09:39:33.28	171.53	24.68	-19.9	-20.4	16.9	0.00e+00	0	32	0	16332619776	16	16089
2026-01-29 09:39:36.30	171.75	25.36	-19.5	-19.9	17.0	0.00e+00	0	32	0	16668164096	14	17164
2026-01-29 09:39:39.33	171.98	26.05	-19.4	-19.9	16.9	0.00e+00	0	32	0	17012097024	14	17046
2026-01-29 09:39:42.36	172.22	26.78	-19.1	-19.6	17.0	0.00e+00	0	32	0	17356029952	14	16548
2026-01-29 09:39:45.38	172.47	27.52	-18.7	-19.2	17.0	0.00e+00	0	32	0	17691574272	12	17610
2026-01-29 09:39:48.41	172.73	28.29	-18.5	-18.9	17.0	0.00e+00	0	32	0	18035507200	12	17098
2026-01-29 09:39:51.43	173.01	29.08	-18.3	-18.7	17.1	0.00e+00	0	32	0	18379440128	12	16705
2026-01-29 09:39:54.46	173.30	29.90	-18.0	-18.5	17.0	0.00e+00	0	32	0	18714984448	12	16294
2026-01-29 09:39:57.48	173.61	30.74	-17.6	-18.1	17.1	0.00e+00	0	32	0	19058917376	10	17401
2026-01-29 09:40:00.51	173.93	31.62	-17.3	-17.7	17.1	0.00e+00	0	32	0	19402850304	10	16763
2026-01-29 09:40:03.54	174.28	32.53	-17.1	-17.5	17.2	0.00e+00	0	32	0	19738394624	10	16419
2026-01-29 09:40:06.57	174.64	33.47	-16.6	-17.1	17.2	0.00e+00	0	32	0	20082327552	8	17427
2026-01-29 09:40:09.60	175.03	34.45	-16.5	-16.9	17.2	0.00e+00	0	32	0	20417871872	8	17101
2026-01-29 09:40:12.63	175.44	35.45	-16.4	-16.8	17.2	0.00e+00	0	32	0	20761804800	8	16860
2026-01-29 09:40:15.66	175.88	36.50	-15.7	-16.1	17.4	0.00e+00	0	32	0	21097349120	6	17491
2026-01-29 09:40:18.68	176.36	37.58	-15.3	-15.8	17.4	0.00e+00	0	32	0	21441282048	6	16817
2026-01-29 09:40:21.70	176.86	38.70	-15.1	-15.5	17.4	0.00e+00	0	32	0	21776826368	6	16269
2026-01-29 09:40:24.74	177.40	39.87	-14.7	-15.1	17.4	0.00e+00	0	32	0	22120759296	4	17516
2026-01-29 09:40:27.76	177.99	41.07	-14.5	-14.9	17.5	0.00e+00	0	32	0	22464692224	4	17067
2026-01-29 09:40:30.79	178.62	42.33	-14.3	-14.7	17.6	0.00e+00	0	32	0	22800236544	4	16691
2026-01-29 09:40:33.82	179.31	43.62	-13.8	-14.2	17.6	0.00e+00	0	32	0	23144169472	2	17777
2026-01-29 09:40:36.84	180.05	44.96	-13.7	-14.1	17.7	0.00e+00	0	32	0	23479713792	2	17488
2026-01-29 09:40:39.87	180.87	46.35	-13.3	-13.7	17.7	0.00e+00	0	32	0	23823646720	2	16758
2026-01-29 09:40:42.90	181.76	47.79	-13.0	-13.4	17.7	0.00e+00	0	32	0	24167579648	2	16224
2026-01-29 09:40:45.93	182.74	49.27	-11.9	-12.3	17.9	0.00e+00	0	32	0	24511512576	46	17036
2026-01-29 09:40:48.96	183.82	50.80	-11.7	-12.1	17.9	0.00e+00	0	32	0	24847056896	46	16717
2026-01-29 09:40:51.99	185.03	52.38	-11.3	-11.7	17.9	0.00e+00	0	32	0	25190989824	46	15894
2026-01-29 09:40:55.02	186.37	54.00	-11.1	-11.5	18.0	0.00e+00	0	32	0	25534922752	44	17471
2026-01-29 09:40:58.04	187.87	55.65	-10.9	-11.3	18.0	0.00e+00	0	32	0	25870467072	44	17114
2026-01-29 09:41:01.07	189.57	57.34	-10.6	-11.0	18.0	0.00e+00	0	32	0	26214400000	44	16491
2026-01-29 09:41:04.10	191.50	59.07	-10.4	-10.8	18.0	0.00e+00	0	32	0	26549944320	44	16143
2026-01-29 09:41:07.13	193.70	60.81	-10.2	-10.6	18.0	0.00e+00	0	32	0	26893877248	44	15801
2026-01-29 09:41:10.15	196.23	62.56	-10.1	-10.5	18.0	0.00e+00	0	32	0	27229421568	42	17405
2026-01-29 09:41:13.18	199.16	64.31	-10.0	-10.4	18.1	0.00e+00	0	32	0	27573354496	42	17298
2026-01-29 09:41:16.21	202.57	66.03	-10.0	-10.3	18.1	0.00e+00	0	32	0	27917287424	42	17153
2026-01-29 09:41:19.24	206.56	67.71	-9.8	-10.1	18.1	0.00e+00	0	33	0	28252831744	42	16750
2026-01-29 09:41:22.27	211.25	69.30	-48.7	-51.2	6.1	0.00e+00	0	32	104	28261220352	60	44332
2026-01-29 09:41:25.29	216.73	70.76	-48.8	-51.3	6.1	0.00e+00	0	32	104	28261220352	60	44823
2026-01-29 09:41:28.32	223.13	72.05	-48.7	-51.2	6.1	0.00e+00	0	32	104	28261220352	60	44385
2026-01-29 09:41:31.34	230.46	73.12	-48.7	-51.1	6.1	0.00e+00	0	32	104	28261220352	60	44154
2026-01-29 09:41:34.37	238.72	73.90	-48.8	-51.3	6.1	0.00e+00	0	32	104	28261220352	60	44771
2026-01-29 09:41:37.40	247.64	74.33	-48.7	-51.2	6.1	0.00e+00	0	32	104	28261220352	60	44410
2026-01-29 09:41:40.43	256.86	74.39	-48.5	-51.0	6.1	0.00e+00	0	32	104	28261220352	60	43599
2026-01-29 09:41:43.46	265.91	74.06	-48.5	-51.1	6.1	0.00e+00	0	32	104	28261220352	60	43819
2026-01-29 09:41:46.49	274.39	73.38	-48.5	-51.1	6.1	0.00e+00	0	32	104	28261220352	60	43825
2026-01-29 09:41:49.51	281.99	72.39	-48.4	-50.9	6.1	0.00e+00	0	32	104	28261220352	60	42925
2026-01-29 09:41:52.54	288.67	71.16	-48.4	-51.0	6.1	0.00e+00	0	32	104	28261220352	60	43303
2026-01-29 09:41:55.56	294.40	69.74	-48.5	-51.0	6.1	0.00e+00	0	32	104	28261220352	60	43335
2026-01-29 09:41:58.59	299.30	68.19	-48.4	-51.0	6.1	0.00e+00	0	32	104	28261220352	60	43280
2026-01-29 09:42:01.61	303.47	66.54	-48.8	-51.3	6.1	0.00e+00	0	32	104	28261220352	60	44911
2026-01-29 09:42:04.63	307.03	64.84	-48.8	-51.3	6.1	0.00e+00	0	32	104	28261220352	60	45021
2026-01-29 09:42:07.66	310.09	63.10	-48.8	-51.3	6.1	0.00e+00	0	32	104	28261220352	60	45005
2026-01-29 09:42:10.68	312.73	61.36	-48.8	-51.2	6.1	0.00e+00	0	32	104	28261220352	60	44634
2026-01-29 09:42:13.71	315.02	59.62	-48.8	-51.3	6.1	0.00e+00	0	32	104	28261220352	60	44849
2026-01-29 09:42:16.74	317.03	57.89	-48.7	-51.2	6.1	0.00e+00	0	32	104	28261220352	60	44606
2026-01-29 09:42:19.77	318.79	56.19	-48.8	-51.3	6.1	0.00e+00	0	32	104	28261220352	60	44889
2026-01-29 09:42:22.80	320.35	54.53	-48.9	-51.3	6.1	0.00e+00	0	32	104	28261220352	60	45202
2026-01-29 09:42:25.82	321.73	52.90	-48.9	-51.4	6.1	0.00e+00	0	32	104	28261220352	60	45263
2026-01-29 09:42:28.85	322.98	51.32	-48.9	-51.4	6.1	0.00e+00	0	32	104	28261220352	60	45521
2026-01-29 09:42:31.88	324.09	49.78	-48.9	-51.4	6.1	0.00e+00	0	32	104	28261220352	60	45371
2026-01-29 09:42:34.90	325.10	48.29	-48.9	-51.4	6.1	0.00e+00	0	32	104	28261220352	60	45752
2026-01-29 09:42:37.93	326.02	46.85	-49.0	-51.4	6.1	0.00e+00	0	32	104	28261220352	60	45661
2026-01-29 09:42:40.96	326.86	45.45	-48.9	-51.4	6.1	0.00e+00	0	32	104	28261220352	60	45460
2026-01-29 09:42:43.99	327.62	44.09	-48.9	-51.4	6.1	0.00e+00	0	32	104	28261220352	60	45429
2026-01-29 09:42:47.01	328.32	42.79	-48.9	-51.4	6.1	0.00e+00	0	32	104	28261220352	60	45262
2026-01-29 09:42:50.04	328.97	41.53	-48.8	-51.4	6.1	0.00e+00	0	32	104	28261220352	60	45250
2026-01-29 09:42:53.07	329.57	40.32	-48.9	-51.5	6.1	0.00e+00	0	32	104	28261220352	60	45783
2026-01-29 09:42:56.10	330.13	39.14	-48.9	-51.4	6.1	0.00e+00	0	32	104	28261220352	60	45350
2026-01-29 09:42:59.12	330.64	38.01	-49.0	-51.5	6.1	0.00e+00	0	32	104	28261220352	60	45786
2026-01-29 09:43:02.15	331.12	36.92	-48.9	-51.4	6.1	0.00e+00	0	32	104	28261220352	60	45419
2026-01-29 09:43:05.18	331.58	35.87	-48.9	-51.4	6.1	0.00e+00	0	32	104	28261220352	60	45508
2026-01-29 09:43:08.21	332.00	34.85	-48.9	-51.4	6.1	0.00e+00	0	32	104	28261220352	60	45612
2026-01-29 09:43:11.23	332.39	33.87	-48.9	-51.3	6.1	0.00e+00	0	32	104	28261220352	60	45155
2026-01-29 09:43:14.26	332.77	32.92	-48.9	-51.4	6.1	0.00e+00	0	32	104	28261220352	60	45329
2026-01-29 09:43:17.29	333.12	32.01	-48.9	-51.4	6.1	0.00e+00	0	32	104	28261220352	60	45336
2026-01-29 09:43:20.32	333.45	31.12	-48.9	-51.3	6.1	0.00e+00	0	32	104	28261220352	60	45196
2026-01-29 09:43:23.35	333.76	30.27	-48.8	-51.3	6.1	0.00e+00	0	32	104	28261220352	60	44991
2026-01-29 09:43:26.38	334.06	29.44	-48.9	-51.3	6.1	0.00e+00	0	32	104	28261220352	60	45141
2026-01-29 09:43:29.41	334.34	28.64	-48.8	-51.3	6.1	0.00e+00	0	32	104	28261220352	60	44826
2026-01-29 09:43:32.43	334.61	27.87	-48.8	-51.3	6.1	0.00e+00	0	32	104	28261220352	60	45047
2026-01-29 09:43:35.46	334.86	27.12	-48.9	-51.3	6.1	0.00e+00	0	32	104	28261220352	60	45021
2026-01-29 09:43:38.49	335.11	26.40	-48.8	-51.3	6.1	0.00e+00	0	32	104	28261220352	60	44886
2026-01-29 09:43:41.52	335.34	25.69	-48.8	-51.3	6.1	0.00e+00	0	32	104	28261220352	60	44927
2026-01-29 09:43:44.55	335.56	25.01	-48.9	-51.3	6.1	0.00e+00	0	32	104	28261220352	60	45135
2026-01-29 09:43:47.58	335.77	24.35	-48.8	-51.3	6.1	0.00e+00	0	32	104	28261220352	60	45105
2026-01-29 09:43:50.60	335.98	23.71	-48.8	-51.2	6.1	0.00e+00	0	32	104	28261220352	60	44662
2026-01-29 09:43:53.63	336.17	23.09	-48.8	-51.3	6.1	0.00e+00	0	32	104	28261220352	60	44941
2026-01-29 09:43:56.66	336.36	22.48	-48.7	-51.3	6.1	0.00e+00	0	32	104	28261220352	60	44913
2026-01-29 09:43:59.69	336.54	21.89	-48.7	-51.2	6.1	0.00e+00	0	32	104	28261220352	60	44338
2026-01-29 09:44:02.72	336.71	21.32	-48.7	-51.2	6.1	0.00e+00	0	32	104	28261220352	60	44682
2026-01-29 09:44:05.74	336.88	20.77	-48.7	-51.2	6.1	0.00e+00	0	32	104	28261220352	60	44324
2026-01-29 09:44:08.77	337.04	20.22	-48.6	-51.1	6.1	0.00e+00	0	32	104	28261220352	60	44203
2026-01-29 09:44:11.80	337.19	19.70	-48.6	-51.2	6.1	0.00e+00	0	32	104	28261220352	60	44324
2026-01-29 09:44:14.83	337.34	19.18	-48.6	-51.1	6.1	0.00e+00	0	32	104	28261220352	60	44074
2026-01-29 09:44:17.86	337.48	18.68	-48.5	-51.0	6.1	0.00e+00	0	32	104	28261220352	60	43501
2026-01-29 09:44:20.88	337.62	18.19	-48.5	-51.1	6.1	0.00e+00	0	32	104	28261220352	60	43756
2026-01-29 09:44:23.91	337.76	17.72	-48.6	-51.1	6.1	0.00e+00	0	32	104	28261220352	60	43887
2026-01-29 09:44:26.93	337.89	17.25	-48.6	-51.1	6.1	0.00e+00	0	32	104	28261220352	60	43936
2026-01-29 09:44:29.96	338.01	16.80	-48.6	-51.1	6.1	0.00e+00	0	32	104	28261220352	60	43904
2026-01-29 09:44:32.99	338.14	16.35	-48.5	-51.1	6.1	0.00e+00	0	32	104	28261220352	60	43809
2026-01-29 09:44:36.01	338.25	15.92	-48.6	-51.0	6.1	0.00e+00	0	32	104	28261220352	60	43574
2026-01-29 09:44:39.03	338.37	15.50	-48.5	-51.0	6.1	0.00e+00	0	32	104	28261220352	60	43501
2026-01-29 09:44:42.06	338.48	15.08	-48.5	-51.1	6.1	0.00e+00	0	32	104	28261220352	60	43786
2026-01-29 09:44:45.09	338.59	14.68	-48.6	-51.1	6.1	0.00e+00	0	32	104	28261220352	60	43820
2026-01-29 09:44:48.12	338.70	14.28	-48.5	-51.0	6.1	0.00e+00	0	32	104	28261220352	60	43352
2026-01-29 09:44:51.15	338.80	13.89	-48.5	-51.0	6.1	0.00e+00	0	32	104	28261220352	60	43589
2026-01-29 09:44:54.18	338.90	13.51	-48.6	-51.1	6.1	0.00e+00	0	32	104	28261220352	60	43717
2026-01-29 09:44:57.21	339.00	13.13	-48.5	-51.0	6.1	0.00e+00	0	32	104	28261220352	60	43546
2026-01-29 09:45:00.24	339.09	12.77	-48.5	-51.0	6.1	0.00e+00	0	32	104	28261220352	60	43554
2026-01-29 09:45:03.27	339.18	12.41	-48.5	-51.0	6.1	0.00e+00	0	32	104	28261220352	60	43433
2026-01-29 09:45:06.29	339.27	12.06	-48.5	-51.0	6.1	0.00e+00	0	32	104	28261220352	60	43361
2026-01-29 09:45:09.31	339.36	11.71	-48.4	-50.9	6.1	0.00e+00	0	32	104	28261220352	60	43121
2026-01-29 09:45:12.34	339.45	11.37	-48.4	-50.9	6.1	0.00e+00	0	32	104	28261220352	60	43157
2026-01-29 09:45:15.36	339.53	11.04	-48.1	-50.6	6.1	0.00e+00	0	32	104	28261220352	60	41614
2026-01-29 09:45:18.38	339.61	10.71	-48.1	-50.6	6.1	0.00e+00	0	32	104	28261220352	60	41566
2026-01-29 09:45:21.40	339.69	10.39	-48.2	-50.8	6.1	0.00e+00	0	32	104	28261220352	60	42236
2026-01-29 09:45:24.43	339.77	10.07	-47.8	-50.4	6.1	0.00e+00	0	32	104	28261220352	60	40664
2026-01-29 09:45:27.45	339.85	9.76	-48.3	-50.8	6.1	0.00e+00	0	32	104	28261220352	60	42627
2026-01-29 09:45:30.48	339.92	9.45	-48.2	-50.7	6.1	0.00e+00	0	32	104	28261220352	60	42005
2026-01-29 09:45:33.51	340.00	9.15	-47.7	-50.4	6.1	0.00e+00	0	32	104	28261220352	60	40345
2026-01-29 09:45:36.53	340.07	8.86	-48.3	-50.7	6.1	0.00e+00	0	32	104	28261220352	60	42186
2026-01-29 09:45:39.56	340.14	8.56	-48.3	-50.8	6.1	0.00e+00	0	32	104	28261220352	60	42249
2026-01-29 09:45:42.59	340.21	8.27	-48.3	-50.8	6.1	0.00e+00	0	32	104	28261220352	60	42302
2026-01-29 09:45:45.62	340.28	7.99	-48.3	-50.8	6.1	0.00e+00	0	32	104	28261220352	60	42264
2026-01-29 09:45:48.65	340.34	7.71	-48.3	-50.8	6.1	0.00e+00	0	32	104	28261220352	60	42237
2026-01-29 09:45:51.67	340.41	7.44	-48.2	-50.7	6.1	0.00e+00	0	32	104	28261220352	60	42061
2026-01-29 09:45:54.70	340.47	7.16	-48.0	-50.5	6.1	0.00e+00	0	32	104	28261220352	60	41166
2026-01-29 09:45:57.72	340.53	6.90	-48.1	-50.6	6.1	0.00e+00	0	32	104	28261220352	60	41344
2026-01-29 09:46:00.75	340.60	6.63	-48.0	-50.6	6.1	0.00e+00	0	32	104	28261220352	60	41293
2026-01-29 09:46:03.77	340.66	6.37	-48.0	-50.6	6.1	0.00e+00	0	32	104	28261220352	60	41265
2026-01-29 09:46:06.80	340.72	6.12	-46.8	-49.3	6.1	0.00e+00	0	32	104	28261220352	60	35739
2026-01-29 09:46:09.83	340.78	5.86	-45.2	-47.7	6.1	0.00e+00	0	32	104	28261220352	60	29773
2026-01-29 09:46:12.86	340.83	5.61	-45.3	-47.8	6.1	0.00e+00	0	32	104	28261220352	60	30111
2026-01-29 09:46:15.89	340.89	5.36	-45.0	-47.5	6.1	0.00e+00	0	32	104	28261220352	60	29062
2026-01-29 09:46:18.92	340.95	5.12	-44.6	-47.1	6.1	0.00e+00	0	32	104	28261220352	60	27795
2026-01-29 09:46:21.94	341.00	4.88	-44.7	-47.2	6.1	0.00e+00	0	32	104	28261220352	60	28142
2026-01-29 09:46:24.97	341.06	4.64	-44.4	-46.9	6.1	0.00e+00	0	32	104	28261220352	60	26960
2026-01-29 09:46:28.00	341.11	4.40	-45.1	-47.7	6.1	0.00e+00	0	32	104	28261220352	60	29590
2026-01-29 09:46:31.02	341.16	4.17	-44.4	-46.9	6.1	0.00e+00	0	32	104	28261220352	60	27019
2026-01-29 09:46:34.06	341.21	3.94	-44.3	-46.8	6.1	0.00e+00	0	32	104	28261220352	60	26743
2026-01-29 09:46:37.08	341.26	3.71	-44.4	-46.8	6.1	0.00e+00	0	32	104	28261220352	60	26940
2026-01-29 09:46:40.10	341.31	3.48	-44.4	-47.0	6.1	0.00e+00	0	32	104	28261220352	60	27292
2026-01-29 09:46:43.12	341.36	3.26	-44.2	-46.7	6.1	0.00e+00	0	32	104	28261220352	60	26480
2026-01-29 09:46:46.15	341.41	3.04	-44.2	-46.7	6.1	0.00e+00	0	32	104	28261220352	60	26449
2026-01-29 09:46:49.18	341.46	2.82	-48.3	-50.7	6.1	0.00e+00	0	32	104	28261220352	60	42128
2026-01-29 09:46:52.20	341.51	2.61	-48.8	-51.3	6.1	0.00e+00	0	32	104	28261220352	60	44729
2026-01-29 09:46:55.23	341.55	2.39	-49.0	-51.4	6.1	0.00e+00	0	32	104	28261220352	60	45728
2026-01-29 09:46:58.26	341.60	2.18	-48.9	-51.4	6.1	0.00e+00	0	32	104	28261220352	60	45361
2026-01-29 09:47:01.29	341.65	1.97	-48.2	-50.9	6.1	0.00e+00	0	32	104	28261220352	60	42974
2026-01-29 09:47:04.31	341.69	1.76	-48.9	-51.4	6.1	0.00e+00	0	32	104	28261220352	60	45406
2026-01-29 09:47:07.34	341.74	1.55	-48.6	-51.2	6.1	0.00e+00	0	32	104	28261220352	60	44308
2026-01-29 09:47:10.37	341.78	1.35	-48.9	-51.3	6.1	0.00e+00	0	32	104	28261220352	60	45203
2026-01-29 09:47:13.40	341.82	1.15	-48.9	-51.3	6.1	0.00e+00	0	32	104	28261220352	60	45212
2026-01-29 09:47:16.42	341.87	0.95	-48.9	-51.3	6.1	0.00e+00	0	32	104	28261220352	60	45123
2026-01-29 09:47:19.45	341.91	0.75	-48.9	-51.3	6.1	0.00e+00	0	32	104	28261220352	60	45144
2026-01-29 09:47:22.48	341.95	0.55	-48.9	-51.4	6.1	0.00e+00	0	32	104	28261220352	60	45318
2026-01-29 09:47:25.51	341.99	0.35	-48.9	-51.3	6.1	0.00e+00	0	32	104	28261220352	60	45148
2026-01-29 09:47:28.54	342.03	0.16	-48.9	-51.3	6.1	0.00e+00	0	32	104	28261220352	60	44903
2026-01-29 09:47:31.57	342.07	-0.03	-48.8	-51.3	6.1	0.00e+00	0	32	104	28261220352	60	44933

#Closed at: 2026-01-29 09:47:32
#Recorded file [28261 MB]: D:/lorett/data/35029_260129_213622.dat