passes_logs/2026/01/29/R4.6S_Anadyr/R4.6S_Anadyr__20260129_211515_KOSAR1-5_rec.log

#Pass ID: 20260129_211515_KOSAR1-5
#Satellite: KOSAR1-5
#Configuration: KOSAR1-5
#almurnet v.1.7.20251203
#Start time: 2026-01-29 21:15:15

#Version: 2.2.20231116
#Station: R4.6S_Anadyr
#Location: 177.4865 lon 64.73178 lat
#TLE: 1 67264U 25313S   26027.89307552  .00010412  00000+0  48021-3 0  9990
#TLE: 2 67264  97.4176 104.8503 0016482 138.1720 222.0778 15.20312014  4613

#Time	Az	El	Level	Level2	SNR	BER	BlckErr	Temp	State	Recorded	gain1	gain2
2026-01-29 21:15:15.99	27.40	0.04	-49.1	-64.1	3.5	1.51e+00	0	32	0	0	60	57714
2026-01-29 21:15:18.00	27.64	0.13	-45.8	-60.5	3.6	1.51e+00	0	33	104	0	60	42947
2026-01-29 21:15:20.02	27.89	0.22	-45.9	-60.6	3.6	1.51e+00	0	33	104	0	60	43655
2026-01-29 21:15:22.04	28.14	0.31	-46.0	-60.7	3.6	1.51e+00	0	33	104	0	60	43770
2026-01-29 21:15:24.06	28.39	0.40	-46.0	-60.8	3.6	1.51e+00	0	33	104	0	60	44525
2026-01-29 21:15:26.08	28.64	0.49	-46.1	-60.8	3.6	1.51e+00	0	33	104	0	60	44438
2026-01-29 21:15:28.10	28.89	0.58	-45.7	-60.8	3.6	1.51e+00	0	33	104	0	60	44569
2026-01-29 21:15:30.13	29.15	0.67	-46.0	-60.7	3.6	1.51e+00	0	34	104	0	60	44067
2026-01-29 21:15:32.15	29.41	0.76	-45.9	-60.7	3.6	1.51e+00	0	33	104	0	60	43794
2026-01-29 21:15:34.17	29.67	0.85	-45.7	-60.6	3.6	1.51e+00	0	34	104	0	60	43666
2026-01-29 21:15:36.19	29.93	0.94	-45.7	-60.4	3.6	1.51e+00	0	34	104	0	60	42659
2026-01-29 21:15:38.21	30.20	1.03	-44.4	-60.2	3.6	1.51e+00	0	34	104	0	60	41593
2026-01-29 21:15:40.24	30.46	1.12	-44.8	-59.7	3.6	1.51e+00	0	34	104	0	60	39083
2026-01-29 21:15:42.25	30.73	1.21	-44.5	-59.2	3.6	1.51e+00	0	34	104	0	60	37181
2026-01-29 21:15:44.28	31.00	1.30	-44.5	-59.2	3.6	1.51e+00	0	34	104	0	60	37040
2026-01-29 21:15:46.30	31.27	1.39	-44.5	-59.2	3.6	1.51e+00	0	34	104	0	60	37144
2026-01-29 21:15:48.32	31.55	1.48	-44.5	-59.2	3.6	1.51e+00	0	34	104	0	60	36952
2026-01-29 21:15:50.34	31.82	1.57	-44.5	-59.2	3.6	1.51e+00	0	34	104	0	60	37147
2026-01-29 21:15:52.36	32.10	1.66	-44.5	-59.2	3.6	1.51e+00	0	34	104	0	60	36870
2026-01-29 21:15:54.38	32.38	1.75	-44.5	-59.2	3.6	1.51e+00	0	34	104	0	60	36811
2026-01-29 21:15:56.40	32.67	1.83	-44.5	-59.2	3.6	1.51e+00	0	34	104	0	60	36816
2026-01-29 21:15:58.42	32.95	1.92	-44.5	-59.2	3.6	1.51e+00	0	34	104	0	60	36955
2026-01-29 21:16:00.44	33.24	2.01	-44.5	-59.2	3.6	1.51e+00	0	34	104	0	60	36991
2026-01-29 21:16:02.46	33.53	2.10	-44.5	-59.2	3.6	1.51e+00	0	34	104	0	60	37089
2026-01-29 21:16:04.48	33.82	2.19	-44.5	-59.2	3.6	1.51e+00	0	34	104	0	60	36980
2026-01-29 21:16:06.50	34.11	2.28	-44.5	-59.2	3.6	1.51e+00	0	34	104	0	60	36991
2026-01-29 21:16:08.52	34.41	2.37	-44.5	-59.2	3.6	1.51e+00	0	34	104	0	60	36999
2026-01-29 21:16:10.54	34.71	2.46	-44.5	-59.2	3.6	1.51e+00	0	34	104	0	60	37029
2026-01-29 21:16:12.56	35.01	2.55	-44.5	-59.2	3.6	1.51e+00	0	34	104	0	60	36967
2026-01-29 21:16:14.59	35.31	2.63	-44.4	-59.1	3.6	1.51e+00	0	34	104	0	60	36757
2026-01-29 21:16:16.60	35.62	2.72	-44.4	-59.2	3.6	1.51e+00	0	34	104	0	60	36878
2026-01-29 21:16:18.62	35.92	2.81	-44.4	-59.2	3.6	1.51e+00	0	34	104	0	60	36915
2026-01-29 21:16:20.65	36.23	2.90	-44.4	-59.2	3.6	1.51e+00	0	34	104	0	60	37148
2026-01-29 21:16:22.67	36.55	2.99	-44.4	-59.2	3.6	1.51e+00	0	34	104	0	60	36818
2026-01-29 21:16:24.69	36.86	3.07	-44.5	-59.2	3.6	1.51e+00	0	34	104	0	60	37196
2026-01-29 21:16:26.71	37.18	3.16	-44.4	-59.2	3.6	1.51e+00	0	34	104	0	60	36982
2026-01-29 21:16:28.73	37.50	3.25	-44.6	-59.4	3.6	1.51e+00	0	34	104	0	60	37725
2026-01-29 21:16:30.75	37.82	3.33	-44.5	-59.2	3.6	1.51e+00	0	34	104	0	60	37067
2026-01-29 21:16:32.77	38.14	3.42	-44.6	-59.4	3.6	1.51e+00	0	34	104	0	60	37814
2026-01-29 21:16:34.79	38.47	3.51	-44.5	-59.3	3.6	1.51e+00	0	34	104	0	60	37290
2026-01-29 21:16:36.81	38.80	3.59	-44.6	-59.4	3.6	1.51e+00	0	34	104	0	60	37954
2026-01-29 21:16:38.83	39.13	3.68	-44.4	-59.4	3.6	1.51e+00	0	34	104	0	60	37703
2026-01-29 21:16:40.85	39.46	3.76	-44.5	-59.5	3.6	1.51e+00	0	34	104	0	60	38212
2026-01-29 21:16:42.87	39.80	3.85	-44.6	-59.4	3.6	1.51e+00	0	34	104	0	60	37660
2026-01-29 21:16:44.89	40.13	3.93	-44.0	-59.5	3.6	1.51e+00	0	34	104	0	60	38419
2026-01-29 21:16:46.91	40.47	4.02	-44.7	-59.4	3.6	1.51e+00	0	34	104	0	60	37859
2026-01-29 21:16:48.93	40.82	4.10	-44.2	-59.5	3.6	1.51e+00	0	34	104	0	60	38386
2026-01-29 21:16:50.95	41.16	4.18	-44.4	-59.4	3.6	1.51e+00	0	34	104	0	60	37832
2026-01-29 21:16:52.97	41.51	4.27	-44.7	-59.5	3.6	1.51e+00	0	34	104	0	60	38368
2026-01-29 21:16:54.99	41.86	4.35	-44.4	-59.5	3.6	1.51e+00	0	34	104	0	60	38136
2026-01-29 21:16:57.01	42.21	4.43	-44.8	-59.6	3.6	1.51e+00	0	34	104	0	60	38524
2026-01-29 21:16:59.03	42.57	4.51	-44.5	-59.5	3.6	1.51e+00	0	34	104	0	60	38125
2026-01-29 21:17:01.05	42.93	4.59	-44.8	-59.5	3.6	1.51e+00	0	34	104	0	60	38290
2026-01-29 21:17:03.07	43.29	4.68	-44.6	-59.5	3.6	1.51e+00	0	34	104	0	60	38344
2026-01-29 21:17:05.09	43.65	4.76	-44.7	-59.6	3.6	1.51e+00	0	34	104	0	60	38528
2026-01-29 21:17:07.11	44.02	4.84	-44.6	-59.5	3.6	1.51e+00	0	35	104	0	60	38222
2026-01-29 21:17:09.12	44.38	4.92	-44.9	-59.6	3.6	1.51e+00	0	34	104	0	60	38694
2026-01-29 21:17:11.14	44.75	4.99	-44.7	-59.4	3.6	1.51e+00	0	34	104	0	60	38051
2026-01-29 21:17:13.16	45.13	5.07	-44.9	-59.7	3.6	1.51e+00	0	34	104	0	60	39024
2026-01-29 21:17:15.18	45.50	5.15	-44.8	-59.5	3.6	1.51e+00	0	35	104	0	60	38212
2026-01-29 21:17:17.20	45.88	5.23	-44.7	-59.6	3.6	1.51e+00	0	35	104	0	60	38771
2026-01-29 21:17:19.22	46.26	5.30	-44.7	-59.5	3.6	1.51e+00	0	34	104	0	60	38358
2026-01-29 21:17:21.24	46.64	5.38	-43.8	-59.7	3.6	1.51e+00	0	35	104	0	60	39251
2026-01-29 21:17:23.26	47.03	5.46	-43.9	-59.5	3.6	1.51e+00	0	35	104	0	60	38391
2026-01-29 21:17:25.28	47.42	5.53	-44.5	-59.7	3.6	1.51e+00	0	35	104	0	60	39138
2026-01-29 21:17:27.30	47.81	5.61	-44.1	-59.6	3.6	1.51e+00	0	35	104	0	60	38647
2026-01-29 21:17:29.32	48.20	5.68	-44.9	-59.7	3.6	1.51e+00	0	35	104	0	60	39220
2026-01-29 21:17:31.34	48.60	5.75	-44.1	-59.6	3.6	1.51e+00	0	35	104	0	60	38560
2026-01-29 21:17:33.35	48.99	5.83	-44.9	-59.7	3.6	1.51e+00	0	35	104	0	60	39217
2026-01-29 21:17:35.37	49.39	5.90	-44.7	-59.6	3.6	1.51e+00	0	35	104	0	60	38837
2026-01-29 21:17:37.39	49.80	5.97	-44.8	-59.7	3.6	1.51e+00	0	35	104	0	60	39296
2026-01-29 21:17:39.41	50.20	6.04	-44.5	-59.6	3.6	1.51e+00	0	35	104	0	60	38712
2026-01-29 21:17:41.43	50.61	6.11	-44.9	-59.7	3.6	1.51e+00	0	35	104	0	60	39251
2026-01-29 21:17:43.45	51.02	6.18	-44.6	-59.6	3.6	1.51e+00	0	35	104	0	60	38866
2026-01-29 21:17:45.47	51.43	6.24	-44.4	-59.7	3.6	1.51e+00	0	35	104	0	60	39253
2026-01-29 21:17:47.49	51.85	6.31	-44.4	-59.7	3.6	1.51e+00	0	35	104	0	60	39041
2026-01-29 21:17:49.51	52.26	6.38	-44.2	-59.8	3.6	1.51e+00	0	35	104	0	60	39627
2026-01-29 21:17:51.53	52.68	6.44	-44.9	-59.7	3.6	1.51e+00	0	35	104	0	60	38957
2026-01-29 21:17:53.55	53.10	6.51	-44.3	-59.7	3.6	1.51e+00	0	35	104	0	60	39373
2026-01-29 21:17:55.57	53.53	6.57	-45.0	-59.7	3.6	1.51e+00	0	35	104	0	60	39206
2026-01-29 21:17:57.59	53.96	6.63	-44.8	-59.7	3.6	1.51e+00	0	35	104	0	60	39294
2026-01-29 21:17:59.61	54.38	6.69	-44.9	-59.7	3.6	1.51e+00	0	35	104	0	60	38980
2026-01-29 21:18:01.63	54.82	6.75	-42.7	-59.8	3.6	1.51e+00	0	35	104	0	60	39554
2026-01-29 21:18:03.65	55.25	6.81	-44.6	-59.7	3.6	1.51e+00	0	35	104	0	60	39375
2026-01-29 21:18:05.67	55.68	6.87	-43.7	-59.8	3.6	1.51e+00	0	35	104	0	60	39468
2026-01-29 21:18:07.69	56.12	6.93	-43.7	-59.7	3.6	1.51e+00	0	35	104	0	60	39059
2026-01-29 21:18:09.71	56.56	6.99	-44.1	-59.7	3.6	1.51e+00	0	35	104	0	60	39204
2026-01-29 21:18:11.73	57.00	7.04	-41.9	-59.7	3.6	1.51e+00	0	35	104	0	60	39030
2026-01-29 21:18:13.75	57.45	7.10	-44.5	-59.8	3.6	1.51e+00	0	35	104	0	60	39508
2026-01-29 21:18:15.77	57.89	7.15	-42.6	-59.7	3.6	1.51e+00	0	35	104	0	60	39039
2026-01-29 21:18:17.79	58.34	7.20	-44.4	-59.7	3.6	1.51e+00	0	35	104	0	60	39383
2026-01-29 21:18:19.81	58.79	7.25	-43.1	-59.7	3.6	1.51e+00	0	35	104	0	60	39182
2026-01-29 21:18:21.83	59.25	7.30	-45.0	-59.8	3.6	1.51e+00	0	35	104	0	60	39458
2026-01-29 21:18:23.85	59.70	7.35	-44.4	-59.7	3.6	1.51e+00	0	35	104	0	60	38980
2026-01-29 21:18:25.87	60.16	7.40	-44.9	-59.8	3.6	1.51e+00	0	35	104	0	60	39430
2026-01-29 21:18:27.89	60.61	7.45	-44.4	-59.7	3.6	1.51e+00	0	35	104	0	60	39102
2026-01-29 21:18:29.91	61.07	7.49	-43.5	-59.7	3.6	1.51e+00	0	35	104	0	60	39333
2026-01-29 21:18:31.93	61.53	7.54	-41.8	-59.7	3.6	1.51e+00	0	35	104	0	60	39136
2026-01-29 21:18:33.95	62.00	7.58	-42.5	-59.7	3.6	1.51e+00	0	35	104	0	60	39358
2026-01-29 21:18:35.97	62.46	7.62	-43.0	-59.7	3.6	1.51e+00	0	35	104	0	60	39401
2026-01-29 21:18:37.99	62.93	7.66	-41.3	-59.7	3.6	1.51e+00	0	35	104	0	58	44144
2026-01-29 21:18:40.01	63.40	7.70	-42.2	-59.7	3.6	1.51e+00	0	35	104	0	60	39219
2026-01-29 21:18:42.03	63.87	7.74	-41.1	-59.6	3.6	1.51e+00	0	35	104	0	54	54895
2026-01-29 21:18:44.05	64.34	7.77	-40.1	-59.7	3.6	1.51e+00	0	35	104	0	56	49168
2026-01-29 21:18:46.07	64.81	7.81	-44.2	-59.7	3.6	1.51e+00	0	35	104	0	60	39330
2026-01-29 21:18:48.10	65.29	7.84	-43.8	-59.7	3.6	1.51e+00	0	35	104	0	60	39094
2026-01-29 21:18:50.12	65.76	7.87	-44.9	-59.8	3.6	1.51e+00	0	35	104	0	60	39410
2026-01-29 21:18:52.14	66.24	7.90	-44.8	-59.7	3.6	1.51e+00	0	35	104	0	60	39147
2026-01-29 21:18:54.15	66.71	7.93	-44.7	-59.7	3.6	1.51e+00	0	35	104	0	60	39330
2026-01-29 21:18:56.17	67.19	7.96	-44.7	-59.7	3.6	1.51e+00	0	35	104	0	60	39246
2026-01-29 21:18:58.19	67.67	7.99	-41.6	-59.7	3.6	1.51e+00	0	35	104	0	58	43849
2026-01-29 21:19:00.22	68.16	8.01	-41.0	-59.6	3.6	1.51e+00	0	35	104	0	58	43637
2026-01-29 21:19:02.24	68.64	8.04	-41.1	-59.8	3.6	1.51e+00	0	35	104	0	56	49706
2026-01-29 21:19:04.26	69.12	8.06	-43.8	-59.7	3.6	1.51e+00	0	35	104	0	60	39328
2026-01-29 21:19:06.27	69.60	8.08	-44.8	-59.8	3.6	1.51e+00	0	35	104	0	60	39465
2026-01-29 21:19:08.30	70.09	8.10	-43.5	-59.7	3.6	1.51e+00	0	35	104	0	60	39325
2026-01-29 21:19:10.32	70.58	8.11	-44.7	-59.7	3.6	1.51e+00	0	35	104	0	60	39297
2026-01-29 21:19:12.34	71.06	8.13	-45.0	-59.8	3.6	1.51e+00	0	35	104	0	60	39565
2026-01-29 21:19:14.36	71.55	8.14	-44.5	-59.7	3.6	1.51e+00	0	35	104	0	60	39275
2026-01-29 21:19:16.38	72.04	8.16	-44.4	-59.7	3.6	1.51e+00	0	35	104	0	60	39203
2026-01-29 21:19:18.40	72.52	8.17	-42.7	-59.8	3.6	1.51e+00	0	35	104	0	60	39475
2026-01-29 21:19:20.42	73.01	8.18	-44.0	-59.8	3.6	1.51e+00	0	35	104	0	60	39462
2026-01-29 21:19:22.44	73.50	8.19	-44.1	-59.8	3.6	1.51e+00	0	35	104	0	60	39530
2026-01-29 21:19:24.46	73.99	8.19	-42.8	-59.8	3.6	1.51e+00	0	35	104	0	60	39477
2026-01-29 21:19:26.48	74.48	8.20	-43.8	-59.8	3.6	1.51e+00	0	35	104	0	60	39669
2026-01-29 21:19:28.50	74.97	8.20	-44.0	-59.8	3.6	1.51e+00	0	35	104	0	60	39580
2026-01-29 21:19:30.52	75.46	8.21	-43.8	-59.8	3.6	1.51e+00	0	35	104	0	60	39667
2026-01-29 21:19:32.54	75.95	8.21	-43.7	-59.8	3.6	1.51e+00	0	35	104	0	60	39610
2026-01-29 21:19:34.56	76.44	8.21	-44.3	-59.8	3.6	1.51e+00	0	35	104	0	60	39686
2026-01-29 21:19:36.58	76.93	8.20	-44.8	-59.8	3.6	1.51e+00	0	35	104	0	60	39474
2026-01-29 21:19:38.60	77.42	8.20	-44.9	-59.8	3.6	1.51e+00	0	35	104	0	60	39823
2026-01-29 21:19:40.62	77.91	8.19	-44.2	-59.8	3.5	1.51e+00	0	35	104	0	60	39769
2026-01-29 21:19:42.64	78.40	8.19	-44.8	-59.8	3.5	1.51e+00	0	35	104	0	60	39840
2026-01-29 21:19:44.66	78.89	8.18	-44.8	-59.8	3.6	1.51e+00	0	35	104	0	60	39729
2026-01-29 21:19:46.68	79.38	8.17	-43.5	-59.8	3.6	1.51e+00	0	35	104	0	60	39600
2026-01-29 21:19:48.70	79.87	8.16	-43.0	-59.8	3.6	1.51e+00	0	35	104	0	60	39770
2026-01-29 21:19:50.72	80.36	8.14	-44.5	-59.8	3.6	1.51e+00	0	35	104	0	60	39779
2026-01-29 21:19:52.74	80.85	8.13	-44.4	-59.9	3.6	1.51e+00	0	35	104	0	60	39961
2026-01-29 21:19:54.76	81.33	8.11	-44.6	-59.8	3.6	1.51e+00	0	35	104	0	60	39667
2026-01-29 21:19:56.78	81.82	8.10	-44.4	-59.9	3.6	1.51e+00	0	35	104	0	60	39950
2026-01-29 21:19:58.80	82.31	8.08	-44.6	-59.8	3.6	1.51e+00	0	35	104	0	60	39717
2026-01-29 21:20:00.82	82.79	8.06	-44.9	-59.8	3.6	1.51e+00	0	35	104	0	60	39854
2026-01-29 21:20:02.84	83.28	8.03	-44.7	-59.8	3.6	1.51e+00	0	35	104	0	60	39752
2026-01-29 21:20:04.85	83.76	8.01	-43.8	-59.8	3.6	1.51e+00	0	35	104	0	60	39563
2026-01-29 21:20:06.87	84.24	7.99	-44.4	-59.8	3.6	1.51e+00	0	35	104	0	60	39608
2026-01-29 21:20:08.89	84.72	7.96	-44.4	-59.9	3.6	1.51e+00	0	35	104	0	60	39880
2026-01-29 21:20:10.91	85.20	7.93	-44.7	-59.8	3.6	1.51e+00	0	35	104	0	60	39793
2026-01-29 21:20:12.93	85.68	7.90	-44.7	-59.9	3.6	1.51e+00	0	35	104	0	60	40046
2026-01-29 21:20:14.95	86.16	7.87	-44.8	-59.8	3.6	1.51e+00	0	35	104	0	60	39517
2026-01-29 21:20:16.98	86.64	7.84	-44.8	-59.8	3.6	1.51e+00	0	35	104	0	60	39637
2026-01-29 21:20:19.00	87.11	7.81	-44.8	-59.8	3.6	1.51e+00	0	35	104	0	60	39539
2026-01-29 21:20:21.01	87.59	7.77	-45.1	-59.8	3.6	1.51e+00	0	35	104	0	60	39806
2026-01-29 21:20:23.04	88.06	7.73	-45.0	-59.8	3.6	1.51e+00	0	35	104	0	60	39726
2026-01-29 21:20:25.05	88.53	7.70	-45.0	-59.8	3.6	1.51e+00	0	35	104	0	60	39651
2026-01-29 21:20:27.07	89.00	7.66	-44.4	-59.8	3.6	1.51e+00	0	35	104	0	60	39507
2026-01-29 21:20:29.09	89.47	7.62	-44.6	-59.9	3.6	1.51e+00	0	35	104	0	60	39867
2026-01-29 21:20:31.11	89.94	7.58	-44.7	-59.8	3.6	1.51e+00	0	35	104	0	60	39858
2026-01-29 21:20:33.13	90.40	7.53	-44.5	-59.8	3.6	1.51e+00	0	35	104	0	60	39747
2026-01-29 21:20:35.15	90.86	7.49	-44.4	-59.8	3.5	1.51e+00	0	35	104	0	60	39631
2026-01-29 21:20:37.17	91.33	7.44	-43.8	-59.8	3.6	1.51e+00	0	35	104	0	60	39818
2026-01-29 21:20:39.20	91.79	7.40	-44.5	-59.8	3.6	1.51e+00	0	35	104	0	60	39485
2026-01-29 21:20:41.22	92.25	7.35	-44.3	-59.8	3.6	1.51e+00	0	35	104	0	60	39861
2026-01-29 21:20:43.24	92.70	7.30	-44.8	-59.8	3.6	1.51e+00	0	35	104	0	60	39562
2026-01-29 21:20:45.26	93.16	7.25	-44.5	-59.8	3.6	1.51e+00	0	35	104	0	60	39607
2026-01-29 21:20:47.28	93.61	7.20	-44.6	-59.7	3.6	1.51e+00	0	35	104	0	60	39380
2026-01-29 21:20:49.30	94.06	7.14	-44.6	-59.8	3.6	1.51e+00	0	35	104	0	60	39609
2026-01-29 21:20:51.32	94.51	7.09	-44.7	-59.7	3.6	1.51e+00	0	35	104	0	60	39308
2026-01-29 21:20:53.34	94.96	7.04	-44.9	-59.8	3.6	1.51e+00	0	35	104	0	60	39651
2026-01-29 21:20:55.36	95.40	6.98	-44.7	-59.7	3.6	1.51e+00	0	35	104	0	60	39382
2026-01-29 21:20:57.38	95.84	6.92	-44.9	-59.8	3.6	1.51e+00	0	35	104	0	60	39518
2026-01-29 21:20:59.40	96.28	6.86	-44.8	-59.7	3.6	1.51e+00	0	35	104	0	60	39335
2026-01-29 21:21:01.42	96.72	6.81	-44.9	-59.8	3.6	1.51e+00	0	35	104	0	60	39467
2026-01-29 21:21:03.43	97.16	6.75	-44.9	-59.7	3.6	1.51e+00	0	35	104	0	60	39063
2026-01-29 21:21:05.45	97.59	6.68	-44.6	-59.7	3.6	1.51e+00	0	35	104	0	60	39353
2026-01-29 21:21:07.47	98.02	6.62	-44.0	-59.7	3.6	1.51e+00	0	35	104	0	60	39232
2026-01-29 21:21:09.49	98.45	6.56	-44.8	-59.7	3.6	1.51e+00	0	35	104	0	60	39315
2026-01-29 21:21:11.51	98.88	6.50	-44.8	-59.7	3.6	1.51e+00	0	35	104	0	60	39045
2026-01-29 21:21:13.53	99.30	6.43	-44.8	-59.7	3.6	1.51e+00	0	35	104	0	60	39285
2026-01-29 21:21:15.55	99.73	6.36	-44.6	-59.6	3.6	1.51e+00	0	35	104	0	60	38886
2026-01-29 21:21:17.56	100.14	6.30	-44.8	-59.7	3.6	1.51e+00	0	35	104	0	60	39197
2026-01-29 21:21:19.58	100.56	6.23	-44.2	-59.6	3.6	1.51e+00	0	35	104	0	60	38792
2026-01-29 21:21:21.60	100.98	6.16	-43.9	-59.7	3.6	1.51e+00	0	35	104	0	60	39001
2026-01-29 21:21:23.62	101.39	6.09	-43.8	-59.6	3.6	1.51e+00	0	35	104	0	60	38601
2026-01-29 21:21:25.64	101.80	6.02	-44.4	-59.7	3.6	1.51e+00	0	35	104	0	60	38967
2026-01-29 21:21:27.66	102.21	5.95	-44.5	-59.6	3.6	1.51e+00	0	35	104	0	60	38591
2026-01-29 21:21:29.68	102.61	5.88	-44.5	-59.6	3.6	1.51e+00	0	35	104	0	60	38772
2026-01-29 21:21:31.70	103.02	5.81	-44.5	-59.5	3.6	1.51e+00	0	35	104	0	60	38396
2026-01-29 21:21:33.72	103.42	5.74	-44.8	-59.6	3.6	1.51e+00	0	35	104	0	60	38818
2026-01-29 21:21:35.74	103.82	5.66	-44.4	-59.5	3.6	1.51e+00	0	35	104	0	60	38173
2026-01-29 21:21:37.77	104.22	5.59	-44.7	-59.6	3.5	1.51e+00	0	35	104	0	60	38627
2026-01-29 21:21:39.79	104.61	5.51	-44.6	-59.4	3.6	1.51e+00	0	35	104	0	60	37761
2026-01-29 21:21:41.81	105.00	5.44	-44.5	-59.5	3.6	1.51e+00	0	35	104	0	60	38438
2026-01-29 21:21:43.83	105.39	5.36	-44.3	-59.3	3.6	1.51e+00	0	35	104	0	60	37607
2026-01-29 21:21:45.85	105.77	5.28	-44.5	-59.5	3.6	1.51e+00	0	35	104	0	60	38298
2026-01-29 21:21:47.87	106.16	5.20	-44.4	-59.3	3.6	1.51e+00	0	35	104	0	60	37333
2026-01-29 21:21:49.89	106.54	5.13	-44.1	-59.4	3.6	1.51e+00	0	35	104	0	60	37797
2026-01-29 21:21:51.91	106.92	5.05	-44.2	-59.2	3.6	1.51e+00	0	35	104	0	60	36886
2026-01-29 21:21:53.92	107.29	4.97	-44.5	-59.3	3.6	1.51e+00	0	35	104	0	60	37452
2026-01-29 21:21:55.94	107.66	4.89	-44.1	-59.1	3.6	1.51e+00	0	35	104	0	60	36566
2026-01-29 21:21:57.96	108.04	4.81	-44.3	-59.2	3.6	1.51e+00	0	35	104	0	60	37184
2026-01-29 21:21:59.98	108.40	4.73	-43.6	-59.0	3.6	1.51e+00	0	35	104	0	60	36158
2026-01-29 21:22:02.00	108.77	4.65	-44.3	-59.2	3.6	1.51e+00	0	35	104	0	60	36977
2026-01-29 21:22:04.02	109.13	4.56	-43.8	-58.9	3.6	1.51e+00	0	35	104	0	60	35880
2026-01-29 21:22:06.04	109.49	4.48	-44.0	-59.1	3.6	1.51e+00	0	35	104	0	60	36746
2026-01-29 21:22:08.07	109.85	4.40	-43.9	-59.0	3.6	1.51e+00	0	35	104	0	60	35997
2026-01-29 21:22:10.09	110.21	4.31	-44.0	-59.1	3.6	1.51e+00	0	35	104	0	60	36645
2026-01-29 21:22:12.11	110.56	4.23	-43.9	-58.9	3.6	1.51e+00	0	35	104	0	60	35538
2026-01-29 21:22:14.13	110.91	4.15	-43.5	-59.1	3.6	1.51e+00	0	35	104	0	60	36429
2026-01-29 21:22:16.15	111.26	4.06	-43.3	-58.9	3.6	1.51e+00	0	35	104	0	60	35530
2026-01-29 21:22:18.17	111.61	3.98	-43.8	-59.0	3.6	1.51e+00	0	35	104	0	60	36233
2026-01-29 21:22:20.19	111.95	3.89	-42.7	-58.7	3.6	1.51e+00	0	35	104	0	60	34935
2026-01-29 21:22:22.21	112.29	3.81	-43.0	-59.0	3.6	1.51e+00	0	35	104	0	60	36180
2026-01-29 21:22:24.23	112.63	3.72	-42.8	-58.7	3.6	1.51e+00	0	35	104	0	60	34861
2026-01-29 21:22:26.25	112.97	3.63	-42.6	-58.6	3.6	1.51e+00	0	35	104	0	60	34555
2026-01-29 21:22:28.27	113.30	3.55	-42.8	-58.2	3.6	1.51e+00	0	35	104	0	60	33037
2026-01-29 21:22:30.29	113.63	3.46	-43.4	-58.5	3.6	1.51e+00	0	35	104	0	60	34116
2026-01-29 21:22:32.31	113.96	3.37	-43.0	-58.6	3.6	1.51e+00	0	35	104	0	60	34404
2026-01-29 21:22:34.33	114.29	3.29	-43.0	-58.6	3.6	1.51e+00	0	35	104	0	60	34412
2026-01-29 21:22:36.35	114.61	3.20	-43.4	-58.5	3.6	1.51e+00	0	35	104	0	60	34141
2026-01-29 21:22:38.37	114.93	3.11	-43.3	-58.4	3.6	1.51e+00	0	35	104	0	60	33885
2026-01-29 21:22:40.39	115.25	3.02	-43.1	-58.3	3.6	1.51e+00	0	35	104	0	60	33386
2026-01-29 21:22:42.41	115.57	2.93	-44.6	-59.9	3.6	1.51e+00	0	35	104	0	60	39933
2026-01-29 21:22:44.43	115.88	2.85	-45.1	-60.3	3.6	1.51e+00	0	35	104	0	60	41783
2026-01-29 21:22:46.45	116.19	2.76	-45.2	-60.5	3.6	1.51e+00	0	35	104	0	60	42850
2026-01-29 21:22:48.48	116.50	2.67	-45.2	-60.7	3.6	1.51e+00	0	35	104	0	60	43774
2026-01-29 21:22:50.50	116.81	2.58	-45.9	-60.7	3.6	1.51e+00	0	35	104	0	60	43831
2026-01-29 21:22:52.52	117.12	2.49	-46.0	-60.7	3.6	1.51e+00	0	35	104	0	60	44074
2026-01-29 21:22:54.54	117.42	2.40	-46.0	-60.7	3.6	1.51e+00	0	35	104	0	60	43858
2026-01-29 21:22:56.56	117.72	2.31	-45.9	-60.6	3.6	1.51e+00	0	35	104	0	60	43700
2026-01-29 21:22:58.58	118.02	2.22	-46.0	-60.7	3.6	1.51e+00	0	35	104	0	60	44061
2026-01-29 21:23:00.60	118.31	2.13	-46.2	-60.9	3.6	1.51e+00	0	35	104	0	60	45180
2026-01-29 21:23:02.62	118.61	2.04	-45.9	-60.6	3.6	1.51e+00	0	35	104	0	60	43521
2026-01-29 21:23:04.64	118.90	1.95	-46.0	-60.7	3.6	1.51e+00	0	35	104	0	60	43956
2026-01-29 21:23:06.66	119.19	1.86	-45.9	-60.7	3.6	1.51e+00	0	35	104	0	60	43719
2026-01-29 21:23:08.68	119.48	1.77	-45.8	-60.6	3.6	1.51e+00	0	35	104	0	60	43217
2026-01-29 21:23:10.70	119.76	1.68	-45.8	-60.5	3.6	1.51e+00	0	35	104	0	60	43143
2026-01-29 21:23:12.73	120.04	1.59	-45.8	-60.6	3.6	1.51e+00	0	35	104	0	60	43260
2026-01-29 21:23:14.75	120.32	1.50	-45.8	-60.5	3.6	1.51e+00	0	35	104	0	60	43157
2026-01-29 21:23:16.76	120.60	1.41	-45.8	-60.5	3.6	1.51e+00	0	35	104	0	60	43105
2026-01-29 21:23:18.78	120.88	1.32	-45.8	-60.5	3.6	1.51e+00	0	35	104	0	60	43146
2026-01-29 21:23:20.80	121.15	1.23	-45.8	-60.6	3.6	1.51e+00	0	35	104	0	60	43313
2026-01-29 21:23:22.82	121.42	1.13	-45.8	-60.6	3.6	1.51e+00	0	35	104	0	60	43386
2026-01-29 21:23:24.85	121.70	1.04	-45.8	-60.6	3.6	1.51e+00	0	35	104	0	60	43255
2026-01-29 21:23:26.87	121.96	0.95	-45.8	-60.5	3.6	1.51e+00	0	35	104	0	60	42872
2026-01-29 21:23:28.89	122.23	0.86	-45.8	-60.5	3.6	1.51e+00	0	35	104	0	60	42943
2026-01-29 21:23:30.91	122.49	0.77	-45.8	-60.5	3.6	1.51e+00	0	35	104	0	60	43075
2026-01-29 21:23:32.93	122.76	0.68	-45.8	-60.5	3.6	1.51e+00	0	35	104	0	60	43135
2026-01-29 21:23:34.95	123.02	0.59	-45.8	-60.5	3.5	1.51e+00	0	35	104	0	60	42949
2026-01-29 21:23:36.97	123.27	0.50	-45.8	-60.5	3.6	1.51e+00	0	35	104	0	60	43047
2026-01-29 21:23:38.99	123.53	0.40	-45.8	-60.5	3.6	1.51e+00	0	35	104	0	60	42873
2026-01-29 21:23:41.01	123.78	0.31	-45.8	-60.5	3.6	1.51e+00	0	35	104	0	60	43022
2026-01-29 21:23:43.03	124.04	0.22	-45.8	-60.5	3.6	1.51e+00	0	35	104	0	60	43188
2026-01-29 21:23:45.05	124.29	0.13	-45.8	-60.5	3.6	1.51e+00	0	35	104	0	60	42978
2026-01-29 21:23:47.07	124.53	0.04	-45.8	-60.5	3.6	1.51e+00	0	35	104	0	60	42933
2026-01-29 21:23:49.09	124.78	-0.05	-45.8	-60.5	3.6	1.51e+00	0	35	104	0	60	43180

#Closed at: 2026-01-29 21:23:50
#Recorded file [0 MB]: D:/lorett/data/35029_260130_091515.dat