passes_logs/2026/01/29/R4.6S_Anadyr/R4.6S_Anadyr__20260129_193914_FENGYUN_3D_rec.log

#Pass ID: 20260129_193914_FENGYUN 3D
#Satellite: FENGYUN 3D
#Configuration: FENGYUN 3D
#almurnet v.1.7.20251203
#Start time: 2026-01-29 19:39:17

#Version: 2.2.20231116
#Station: R4.6S_Anadyr
#Location: 177.4865 lon 64.73178 lat
#TLE: 1 43010U 17072A   26028.95797775  .00000451  00000+0  23492-3 0  9991
#TLE: 2 43010  98.9958   0.9922 0002505  85.7480 274.3981 14.19703224425237

#Time	Az	El	Level	Level2	SNR	BER	BlckErr	Temp	State	Recorded	gain1	gain2
2026-01-29 19:39:17.58	33.25	0.16	-49.0	-59.6	3.3	8.39e-01	0	31	0	0	60	34572
2026-01-29 19:39:21.61	33.01	0.38	-48.9	-61.2	3.6	8.44e-01	0	31	104	0	60	41294
2026-01-29 19:39:25.65	32.76	0.59	-49.0	-61.1	3.6	8.44e-01	0	31	104	0	60	41173
2026-01-29 19:39:29.69	32.51	0.81	-48.8	-60.9	3.6	8.46e-01	0	31	104	0	60	40209
2026-01-29 19:39:33.73	32.26	1.03	-48.6	-60.8	3.6	8.46e-01	0	31	104	0	60	39545
2026-01-29 19:39:37.78	32.00	1.25	-48.1	-60.2	3.6	8.46e-01	0	31	104	0	60	36999
2026-01-29 19:39:41.82	31.73	1.47	-47.4	-59.4	3.6	8.46e-01	0	31	104	0	60	33645
2026-01-29 19:39:45.86	31.47	1.69	-47.4	-59.5	3.6	8.46e-01	0	32	104	0	60	34070
2026-01-29 19:39:49.90	31.19	1.91	-47.4	-59.4	3.6	8.44e-01	0	32	104	0	60	33764
2026-01-29 19:39:53.94	30.92	2.14	-47.4	-59.3	3.6	8.45e-01	0	31	104	0	60	33271
2026-01-29 19:39:57.99	30.64	2.36	-47.4	-59.3	3.6	8.45e-01	0	32	104	0	60	33498
2026-01-29 19:40:02.02	30.35	2.59	-47.4	-59.1	3.6	8.45e-01	0	32	104	0	60	32636
2026-01-29 19:40:06.06	30.06	2.81	-47.4	-59.3	3.6	8.45e-01	0	32	104	0	60	33471
2026-01-29 19:40:10.10	29.77	3.04	-42.8	-44.9	13.5	4.20e-04	0	32	0	10485760	60	6356
2026-01-29 19:40:14.14	29.47	3.27	-41.3	-42.8	16.9	0.00e+00	0	32	0	33554432	54	7048
2026-01-29 19:40:18.18	29.16	3.50	-39.4	-40.5	18.1	0.00e+00	0	32	0	44040192	52	6083
2026-01-29 19:40:22.22	28.85	3.73	-36.8	-37.7	20.9	0.00e+00	0	32	0	67108864	44	6984
2026-01-29 19:40:26.26	28.54	3.97	-35.7	-36.5	22.2	0.00e+00	0	32	0	90177536	44	6075
2026-01-29 19:40:30.31	28.22	4.20	-36.4	-37.2	21.5	0.00e+00	0	32	0	112197632	44	6600
2026-01-29 19:40:34.35	27.89	4.44	-36.4	-37.3	21.6	0.00e+00	0	32	0	135266304	46	5919
2026-01-29 19:40:38.39	27.56	4.67	-36.6	-37.4	21.5	0.00e+00	0	32	0	158334976	46	5999
2026-01-29 19:40:42.43	27.23	4.91	-36.0	-36.8	22.0	0.00e+00	0	32	0	180355072	44	6291
2026-01-29 19:40:46.46	26.88	5.15	-35.9	-36.7	22.1	0.00e+00	0	32	0	203423744	44	6207
2026-01-29 19:40:50.51	26.54	5.39	-36.0	-36.8	22.0	0.00e+00	0	32	0	226492416	44	6291
2026-01-29 19:40:54.54	26.18	5.63	-35.8	-36.6	22.4	0.00e+00	0	32	0	248512512	44	6133
2026-01-29 19:40:58.58	25.82	5.87	-35.8	-36.6	22.3	0.00e+00	0	32	0	271581184	44	6143
2026-01-29 19:41:02.62	25.45	6.11	-35.5	-36.3	22.7	0.00e+00	0	32	0	294649856	44	5904
2026-01-29 19:41:06.66	25.08	6.36	-35.2	-36.0	22.9	0.00e+00	0	32	0	316669952	44	5745
2026-01-29 19:41:10.71	24.70	6.60	-35.2	-36.0	22.9	0.00e+00	0	32	0	339738624	44	5709
2026-01-29 19:41:14.75	24.31	6.85	-35.3	-36.1	22.9	0.00e+00	0	32	0	362807296	44	5779
2026-01-29 19:41:18.79	23.92	7.10	-35.3	-36.1	22.8	0.00e+00	0	32	0	385875968	44	5800
2026-01-29 19:41:22.83	23.52	7.35	-35.0	-35.7	23.3	0.00e+00	0	32	0	407896064	44	5559
2026-01-29 19:41:26.87	23.11	7.60	-34.9	-35.6	23.4	0.00e+00	0	32	0	430964736	44	5480
2026-01-29 19:41:30.91	22.70	7.85	-34.8	-35.5	23.5	0.00e+00	0	32	0	452984832	42	6076
2026-01-29 19:41:34.96	22.27	8.10	-34.8	-35.5	23.6	0.00e+00	0	32	0	476053504	42	6048
2026-01-29 19:41:39.00	21.84	8.35	-34.8	-35.5	23.6	0.00e+00	0	32	0	499122176	42	6076
2026-01-29 19:41:43.04	21.41	8.61	-34.5	-35.3	23.8	0.00e+00	0	32	0	522190848	42	5911
2026-01-29 19:41:47.08	20.96	8.86	-34.3	-35.0	24.2	0.00e+00	0	32	0	544210944	42	5741
2026-01-29 19:41:51.12	20.51	9.12	-34.5	-35.2	24.0	0.00e+00	0	32	0	567279616	42	5860
2026-01-29 19:41:55.16	20.04	9.37	-34.5	-35.3	24.0	0.00e+00	0	32	0	590348288	42	5916
2026-01-29 19:41:59.20	19.57	9.63	-34.3	-35.0	24.2	0.00e+00	0	32	0	612368384	42	5744
2026-01-29 19:42:03.24	19.09	9.89	-34.0	-34.7	24.5	0.00e+00	0	32	0	635437056	42	5516
2026-01-29 19:42:07.28	18.61	10.15	-33.7	-34.4	24.7	0.00e+00	0	32	0	657457152	40	6002
2026-01-29 19:42:11.32	18.11	10.41	-33.7	-34.4	24.7	0.00e+00	0	32	0	680525824	40	5973
2026-01-29 19:42:15.36	17.60	10.67	-33.7	-34.4	24.7	0.00e+00	0	32	0	703594496	40	6019
2026-01-29 19:42:19.40	17.09	10.93	-33.8	-34.5	24.8	0.00e+00	0	32	0	726663168	40	6050
2026-01-29 19:42:23.44	16.56	11.19	-33.6	-34.3	24.9	0.00e+00	0	32	0	748683264	40	5948
2026-01-29 19:42:27.48	16.03	11.45	-33.5	-34.2	25.0	0.00e+00	0	32	0	771751936	40	5880
2026-01-29 19:42:31.52	15.48	11.71	-33.2	-33.8	25.3	0.00e+00	0	32	0	794820608	40	5617
2026-01-29 19:42:35.57	14.93	11.97	-33.2	-33.9	25.3	0.00e+00	0	32	0	816840704	40	5654
2026-01-29 19:42:39.61	14.36	12.23	-33.4	-34.1	25.2	0.00e+00	0	32	0	839909376	40	5793
2026-01-29 19:42:43.65	13.79	12.50	-33.4	-34.1	25.1	0.00e+00	0	32	0	862978048	40	5811
2026-01-29 19:42:47.69	13.20	12.76	-33.4	-34.1	25.3	0.00e+00	0	32	0	884998144	40	5771
2026-01-29 19:42:51.73	12.61	13.02	-33.1	-33.7	25.5	0.00e+00	0	32	0	908066816	40	5561
2026-01-29 19:42:55.77	12.00	13.28	-32.9	-33.5	25.7	0.00e+00	0	32	0	931135488	40	5435
2026-01-29 19:42:59.80	11.38	13.54	-32.6	-33.3	25.9	0.00e+00	0	32	0	953155584	38	5929
2026-01-29 19:43:03.85	10.75	13.80	-32.9	-33.5	25.7	0.00e+00	0	32	0	976224256	38	6099
2026-01-29 19:43:07.89	10.11	14.06	-32.6	-33.3	25.8	0.00e+00	0	32	0	999292928	38	5932
2026-01-29 19:43:11.93	9.46	14.32	-32.7	-33.4	25.8	0.00e+00	0	32	0	1021313024	38	5965
2026-01-29 19:43:15.97	8.79	14.57	-32.9	-33.6	25.6	0.00e+00	0	32	0	1044381696	38	6106
2026-01-29 19:43:20.01	8.12	14.83	-33.0	-33.7	25.7	0.00e+00	0	32	0	1067450368	38	6192
2026-01-29 19:43:24.05	7.43	15.08	-32.5	-33.2	26.0	0.00e+00	0	32	0	1089470464	38	5854
2026-01-29 19:43:28.09	6.73	15.34	-32.5	-33.1	26.1	0.00e+00	0	32	0	1112539136	38	5828
2026-01-29 19:43:32.13	6.02	15.59	-32.3	-32.9	26.2	0.00e+00	0	32	0	1135607808	38	5675
2026-01-29 19:43:36.17	5.29	15.84	-32.5	-33.2	26.1	0.00e+00	0	32	0	1157627904	38	5852
2026-01-29 19:43:40.21	4.56	16.08	-32.4	-33.0	26.2	0.00e+00	0	32	0	1180696576	38	5758
2026-01-29 19:43:44.25	3.81	16.33	-32.3	-32.9	26.4	0.00e+00	0	32	0	1203765248	38	5678
2026-01-29 19:43:48.29	3.05	16.57	-32.3	-32.9	26.4	0.00e+00	0	32	0	1226833920	38	5654
2026-01-29 19:43:52.33	2.27	16.81	-32.2	-32.8	26.4	0.00e+00	0	32	0	1248854016	38	5615
2026-01-29 19:43:56.37	1.49	17.05	-32.5	-33.1	26.1	0.00e+00	0	32	0	1271922688	38	5819
2026-01-29 19:44:00.41	0.69	17.28	-31.7	-32.4	26.8	0.00e+00	0	32	0	1293942784	36	5972
2026-01-29 19:44:04.45	359.88	17.51	-31.8	-32.5	26.6	0.00e+00	0	32	0	1317011456	36	6056
2026-01-29 19:44:08.49	359.05	17.73	-31.9	-32.6	26.7	0.00e+00	0	33	0	1340080128	36	6107
2026-01-29 19:44:12.53	358.22	17.95	-31.9	-32.5	26.6	0.00e+00	0	33	0	1362100224	36	6076
2026-01-29 19:44:16.57	357.37	18.17	-31.6	-32.2	26.9	0.00e+00	0	32	0	1385168896	36	5890
2026-01-29 19:44:20.61	356.51	18.38	-31.3	-31.9	27.1	0.00e+00	0	32	0	1408237568	36	5655
2026-01-29 19:44:24.65	355.64	18.59	-31.3	-32.0	27.2	0.00e+00	0	32	0	1431306240	36	5696
2026-01-29 19:44:28.70	354.75	18.79	-31.5	-32.1	27.0	0.00e+00	0	32	0	1453326336	36	5810
2026-01-29 19:44:32.74	353.85	18.98	-31.2	-31.8	27.3	0.00e+00	0	33	0	1476395008	36	5615
2026-01-29 19:44:36.78	352.95	19.17	-31.2	-31.8	27.3	0.00e+00	0	32	0	1498415104	36	5628
2026-01-29 19:44:40.82	352.03	19.35	-31.2	-31.9	27.3	0.00e+00	0	32	0	1521483776	36	5640
2026-01-29 19:44:44.86	351.10	19.53	-31.3	-32.0	27.2	0.00e+00	0	32	0	1544552448	36	5714
2026-01-29 19:44:48.90	350.15	19.70	-31.3	-31.9	27.2	0.00e+00	0	32	0	1567621120	36	5650
2026-01-29 19:44:52.94	349.20	19.86	-31.5	-32.1	27.1	0.00e+00	0	32	0	1589641216	36	5798
2026-01-29 19:44:56.98	348.24	20.02	-31.5	-32.1	27.1	0.00e+00	0	32	0	1612709888	36	5817
2026-01-29 19:45:01.02	347.27	20.17	-31.0	-31.6	27.5	0.00e+00	0	32	0	1635778560	36	5486
2026-01-29 19:45:05.06	346.29	20.31	-30.8	-31.4	27.5	0.00e+00	0	32	0	1657798656	36	5368
2026-01-29 19:45:09.10	345.30	20.44	-30.6	-31.3	27.8	0.00e+00	0	33	0	1680867328	34	5904
2026-01-29 19:45:13.14	344.30	20.56	-30.6	-31.3	27.7	0.00e+00	0	32	0	1703936000	34	5908
2026-01-29 19:45:17.18	343.30	20.68	-30.6	-31.2	27.7	0.00e+00	0	33	0	1725956096	34	5888
2026-01-29 19:45:21.22	342.28	20.78	-30.9	-31.6	27.4	0.00e+00	0	33	0	1749024768	34	6123
2026-01-29 19:45:25.27	341.26	20.88	-30.7	-31.4	27.7	0.00e+00	0	32	0	1772093440	34	5984
2026-01-29 19:45:29.31	340.24	20.97	-31.1	-31.7	27.3	0.00e+00	0	32	0	1794113536	34	6236
2026-01-29 19:45:33.35	339.20	21.04	-30.9	-31.5	27.5	0.00e+00	0	32	0	1817182208	34	6064
2026-01-29 19:45:37.39	338.17	21.11	-30.8	-31.4	27.5	0.00e+00	0	33	0	1840250880	34	5987
2026-01-29 19:45:41.43	337.13	21.17	-30.8	-31.5	27.6	0.00e+00	0	32	0	1862270976	34	6045
2026-01-29 19:45:45.47	336.08	21.22	-30.7	-31.4	27.8	0.00e+00	0	33	0	1885339648	34	5970
2026-01-29 19:45:49.51	335.03	21.26	-30.7	-31.4	27.7	0.00e+00	0	33	0	1908408320	34	5985
2026-01-29 19:45:53.56	333.98	21.28	-31.0	-31.7	27.4	0.00e+00	0	33	0	1930428416	34	6182
2026-01-29 19:45:57.60	332.93	21.30	-31.1	-31.7	27.4	0.00e+00	0	32	0	1953497088	34	6225
2026-01-29 19:46:01.64	331.88	21.31	-30.8	-31.4	27.6	0.00e+00	0	33	0	1976565760	34	6004
2026-01-29 19:46:05.68	330.83	21.31	-30.8	-31.4	27.7	0.00e+00	0	33	0	1998585856	34	6019
2026-01-29 19:46:09.71	329.78	21.29	-30.8	-31.5	27.6	0.00e+00	0	32	0	2021654528	34	6066
2026-01-29 19:46:13.76	328.72	21.27	-31.0	-31.6	27.4	0.00e+00	0	33	0	2044723200	34	6172
2026-01-29 19:46:17.80	327.67	21.24	-31.1	-31.7	27.4	0.00e+00	0	33	0	2067791872	34	6199
2026-01-29 19:46:21.83	326.63	21.19	-31.1	-31.7	27.4	0.00e+00	0	32	0	2089811968	34	6183
2026-01-29 19:46:25.87	325.59	21.14	-30.9	-31.4	27.6	0.00e+00	0	33	0	2112880640	34	6025
2026-01-29 19:46:29.91	324.55	21.08	-30.8	-31.4	27.6	0.00e+00	0	32	0	2134900736	34	6021
2026-01-29 19:46:33.96	323.51	21.00	-30.8	-31.4	27.7	0.00e+00	0	32	0	2157969408	34	6023
2026-01-29 19:46:37.99	322.49	20.92	-30.7	-31.4	27.7	0.00e+00	0	32	0	2181038080	34	5994
2026-01-29 19:46:42.03	321.46	20.83	-30.6	-31.2	27.8	0.00e+00	0	32	0	2203058176	34	5865
2026-01-29 19:46:46.08	320.44	20.73	-30.7	-31.3	27.7	0.00e+00	0	32	0	2226126848	34	5940
2026-01-29 19:46:50.11	319.43	20.62	-30.7	-31.4	27.7	0.00e+00	0	32	0	2249195520	34	5986
2026-01-29 19:46:54.15	318.43	20.50	-30.9	-31.5	27.6	0.00e+00	0	32	0	2271215616	34	6040
2026-01-29 19:46:58.20	317.44	20.37	-30.5	-31.2	27.8	0.00e+00	0	33	0	2294284288	34	5842
2026-01-29 19:47:02.24	316.45	20.23	-30.9	-31.5	27.6	0.00e+00	0	33	0	2317352960	34	6082
2026-01-29 19:47:06.28	315.47	20.09	-31.1	-31.8	27.5	0.00e+00	0	32	0	2339373056	34	6273
2026-01-29 19:47:10.32	314.51	19.93	-31.4	-32.1	27.0	0.00e+00	0	32	0	2362441728	34	6486
2026-01-29 19:47:14.36	313.55	19.78	-31.4	-32.1	27.2	0.00e+00	0	33	0	2385510400	34	6494
2026-01-29 19:47:18.40	312.60	19.61	-30.9	-31.6	27.6	0.00e+00	0	33	0	2408579072	34	6132
2026-01-29 19:47:22.44	311.66	19.43	-31.0	-31.6	27.5	0.00e+00	0	33	0	2430599168	34	6148
2026-01-29 19:47:26.49	310.74	19.25	-31.3	-31.9	27.2	0.00e+00	0	32	0	2453667840	34	6359
2026-01-29 19:47:30.53	309.82	19.07	-31.2	-31.9	27.2	0.00e+00	0	32	0	2475687936	34	6371
2026-01-29 19:47:34.57	308.92	18.87	-31.5	-32.1	27.2	0.00e+00	0	33	0	2498756608	34	6472
2026-01-29 19:47:38.61	308.03	18.68	-31.4	-32.0	27.1	0.00e+00	0	32	0	2521825280	34	6439
2026-01-29 19:47:42.65	307.15	18.47	-31.5	-32.1	27.1	0.00e+00	0	32	0	2544893952	34	6534
2026-01-29 19:47:46.68	306.28	18.26	-31.7	-32.3	26.9	0.00e+00	0	33	0	2566914048	34	6669
2026-01-29 19:47:50.72	305.43	18.05	-31.9	-32.6	26.8	0.00e+00	0	33	0	2589982720	36	6127
2026-01-29 19:47:54.76	304.58	17.83	-31.8	-32.4	26.7	0.00e+00	0	33	0	2613051392	36	5996
2026-01-29 19:47:58.80	303.75	17.61	-32.0	-32.6	26.7	0.00e+00	0	33	0	2635071488	36	6110
2026-01-29 19:48:02.84	302.93	17.38	-31.7	-32.4	26.9	0.00e+00	0	33	0	2658140160	36	5985
2026-01-29 19:48:06.88	302.13	17.15	-31.7	-32.2	26.9	0.00e+00	0	33	0	2680160256	36	5886
2026-01-29 19:48:10.92	301.33	16.91	-31.9	-32.6	26.8	0.00e+00	0	32	0	2703228928	36	6120
2026-01-29 19:48:14.96	300.55	16.68	-32.1	-32.6	26.6	0.00e+00	0	32	0	2726297600	36	6152
2026-01-29 19:48:19.00	299.78	16.43	-32.1	-32.7	26.4	0.00e+00	0	33	0	2749366272	36	6206
2026-01-29 19:48:23.04	299.03	16.19	-32.2	-32.9	26.6	0.00e+00	0	33	0	2771386368	36	6359
2026-01-29 19:48:27.08	298.28	15.94	-32.2	-32.9	26.4	0.00e+00	0	33	0	2794455040	36	6350
2026-01-29 19:48:31.12	297.55	15.70	-32.3	-33.0	26.2	0.00e+00	0	33	0	2817523712	36	6396
2026-01-29 19:48:35.16	296.83	15.45	-32.3	-32.9	26.2	0.00e+00	0	33	0	2839543808	36	6341
2026-01-29 19:48:39.20	296.12	15.19	-32.1	-32.8	26.2	0.00e+00	0	33	0	2862612480	36	6284
2026-01-29 19:48:43.24	295.43	14.94	-32.3	-32.9	25.9	0.00e+00	0	33	0	2885681152	36	6332
2026-01-29 19:48:47.28	294.75	14.68	-32.5	-33.1	26.0	0.00e+00	0	33	0	2907701248	36	6536
2026-01-29 19:48:51.32	294.07	14.43	-32.5	-33.3	26.0	0.00e+00	0	33	0	2930769920	36	6617
2026-01-29 19:48:55.36	293.41	14.17	-32.7	-33.3	26.0	0.00e+00	0	33	0	2953838592	36	6624
2026-01-29 19:48:59.40	292.77	13.91	-32.7	-33.3	25.9	0.00e+00	0	33	0	2975858688	36	6674
2026-01-29 19:49:03.44	292.13	13.65	-32.7	-33.4	25.8	0.00e+00	0	33	0	2998927360	38	6028
2026-01-29 19:49:07.48	291.50	13.39	-33.0	-33.6	25.7	0.00e+00	0	33	0	3021996032	38	6152
2026-01-29 19:49:11.52	290.89	13.13	-33.5	-34.2	25.2	0.00e+00	0	33	0	3044016128	38	6561
2026-01-29 19:49:15.56	290.29	12.86	-33.0	-33.6	25.6	0.00e+00	0	33	0	3067084800	38	6165
2026-01-29 19:49:19.60	289.69	12.60	-33.1	-33.7	25.4	0.00e+00	0	33	0	3090153472	38	6231
2026-01-29 19:49:23.64	289.11	12.34	-33.1	-33.7	25.5	0.00e+00	0	33	0	3112173568	38	6227
2026-01-29 19:49:27.68	288.54	12.08	-33.2	-33.8	25.4	0.00e+00	0	33	0	3135242240	38	6291
2026-01-29 19:49:31.72	287.98	11.82	-33.4	-34.0	25.2	0.00e+00	0	33	0	3158310912	38	6462
2026-01-29 19:49:35.76	287.43	11.55	-33.6	-34.2	25.1	0.00e+00	0	33	0	3180331008	38	6580
2026-01-29 19:49:39.80	286.89	11.29	-33.5	-34.2	25.0	0.00e+00	0	33	0	3203399680	38	6614
2026-01-29 19:49:43.84	286.36	11.03	-33.8	-34.4	24.9	0.00e+00	0	33	0	3226468352	40	6004
2026-01-29 19:49:47.88	285.83	10.77	-33.7	-34.5	24.8	0.00e+00	0	33	0	3249537024	40	6051
2026-01-29 19:49:51.93	285.32	10.51	-34.0	-34.6	24.6	0.00e+00	0	33	0	3271557120	40	6140
2026-01-29 19:49:55.97	284.82	10.25	-33.9	-34.5	24.7	0.00e+00	0	33	0	3294625792	40	6048
2026-01-29 19:50:00.00	284.32	9.99	-34.0	-34.8	24.6	0.00e+00	0	33	0	3316645888	40	6282
2026-01-29 19:50:04.04	283.84	9.73	-34.1	-34.8	24.6	0.00e+00	0	33	0	3339714560	40	6316
2026-01-29 19:50:08.08	283.36	9.47	-34.5	-35.1	24.1	0.00e+00	0	33	0	3362783232	40	6491
2026-01-29 19:50:12.11	282.90	9.22	-34.5	-35.3	24.1	0.00e+00	0	33	0	3384803328	42	5952
2026-01-29 19:50:16.15	282.44	8.96	-34.5	-35.3	24.0	0.00e+00	0	33	0	3407872000	42	5945
2026-01-29 19:50:20.19	281.98	8.70	-34.6	-35.3	23.9	0.00e+00	0	33	0	3430940672	42	5898
2026-01-29 19:50:24.23	281.54	8.45	-34.7	-35.4	23.9	0.00e+00	0	33	0	3452960768	42	6003
2026-01-29 19:50:28.27	281.11	8.20	-34.5	-35.3	23.9	0.00e+00	0	33	0	3476029440	42	5898
2026-01-29 19:50:32.31	280.68	7.94	-34.8	-35.4	23.7	0.00e+00	0	33	0	3499098112	42	6025
2026-01-29 19:50:36.36	280.26	7.69	-34.9	-35.5	23.5	0.00e+00	0	33	0	3521118208	42	6094
2026-01-29 19:50:40.39	279.84	7.44	-34.9	-35.6	23.7	0.00e+00	0	33	0	3544186880	42	6133
2026-01-29 19:50:44.44	279.44	7.19	-35.1	-35.7	23.4	0.00e+00	0	33	0	3567255552	42	6234
2026-01-29 19:50:48.48	279.04	6.94	-35.1	-35.7	23.4	0.00e+00	0	33	0	3589275648	42	6236
2026-01-29 19:50:52.52	278.65	6.69	-34.9	-35.6	23.4	0.00e+00	0	33	0	3612344320	42	6173
2026-01-29 19:50:56.56	278.26	6.45	-35.0	-35.7	23.3	0.00e+00	0	33	0	3635412992	42	6221
2026-01-29 19:51:00.60	277.88	6.20	-35.4	-36.1	22.9	0.00e+00	0	33	0	3658481664	42	6517
2026-01-29 19:51:04.64	277.51	5.96	-35.4	-36.3	23.1	0.00e+00	0	33	0	3680501760	42	6622
2026-01-29 19:51:08.68	277.15	5.72	-35.2	-35.9	23.2	0.00e+00	0	33	0	3703570432	42	6386
2026-01-29 19:51:12.72	276.79	5.47	-35.8	-36.6	22.2	0.00e+00	0	33	0	3725590528	42	6857
2026-01-29 19:51:16.76	276.43	5.23	-35.3	-36.1	22.9	0.00e+00	0	33	0	3748659200	44	5825
2026-01-29 19:51:20.80	276.09	4.99	-35.9	-36.6	22.1	0.00e+00	0	33	0	3771727872	44	6134
2026-01-29 19:51:24.84	275.75	4.76	-35.4	-36.3	22.7	0.00e+00	0	33	0	3794796544	44	5907
2026-01-29 19:51:28.88	275.41	4.52	-35.8	-36.5	22.3	0.00e+00	0	33	0	3816816640	44	6098
2026-01-29 19:51:32.92	275.08	4.28	-35.7	-36.6	22.4	0.00e+00	0	33	0	3839885312	44	6129
2026-01-29 19:51:36.96	274.76	4.05	-34.8	-35.5	23.2	0.00e+00	0	33	0	3862953984	44	5435
2026-01-29 19:51:41.00	274.44	3.81	-35.9	-36.7	22.1	0.00e+00	0	33	0	3884974080	44	6205
2026-01-29 19:51:45.05	274.12	3.58	-35.9	-36.7	22.1	0.00e+00	0	33	0	3908042752	44	6238
2026-01-29 19:51:49.08	273.81	3.35	-36.4	-37.2	21.5	0.00e+00	0	33	0	3930062848	44	6556
2026-01-29 19:51:53.13	273.51	3.12	-36.4	-37.4	21.1	0.00e+00	0	33	0	3953131520	44	6694
2026-01-29 19:51:57.17	273.21	2.89	-48.6	-60.6	3.6	8.45e-01	0	33	104	3966763008	60	38766
2026-01-29 19:52:01.21	272.92	2.66	-49.0	-61.2	3.6	8.46e-01	0	33	104	3966763008	60	41395
2026-01-29 19:52:05.25	272.63	2.44	-49.1	-61.2	3.5	8.45e-01	0	33	104	3966763008	60	41643
2026-01-29 19:52:09.29	272.34	2.21	-49.1	-61.3	3.6	8.45e-01	0	33	104	3966763008	60	41824
2026-01-29 19:52:13.34	272.06	1.99	-48.9	-61.1	3.6	8.45e-01	0	33	104	3966763008	60	41087
2026-01-29 19:52:17.38	271.78	1.76	-49.0	-61.1	3.6	8.46e-01	0	33	104	3966763008	60	41054
2026-01-29 19:52:21.42	271.51	1.54	-49.0	-61.1	3.6	8.46e-01	0	33	104	3966763008	60	40892
2026-01-29 19:52:25.46	271.24	1.32	-49.0	-61.1	3.6	8.45e-01	0	33	104	3966763008	60	41115
2026-01-29 19:52:29.49	270.98	1.10	-48.9	-61.1	3.6	8.45e-01	0	33	104	3966763008	60	40834
2026-01-29 19:52:33.54	270.72	0.88	-49.0	-61.1	3.6	8.45e-01	0	33	104	3966763008	60	40808
2026-01-29 19:52:37.58	270.47	0.66	-49.0	-61.1	3.6	8.44e-01	0	33	104	3966763008	60	41126
2026-01-29 19:52:41.62	270.21	0.45	-49.0	-61.1	3.6	8.44e-01	0	33	104	3966763008	60	40815
2026-01-29 19:52:45.66	269.97	0.23	-49.0	-61.1	3.6	8.45e-01	0	33	104	3966763008	60	40990
2026-01-29 19:52:49.70	269.72	0.02	-49.0	-61.1	3.6	8.44e-01	0	33	104	3966763008	60	40961

#Closed at: 2026-01-29 19:52:51
#Recorded file [3966 MB]: D:/lorett/data/35029_260130_073917.dat