passes_logs/2026/01/29/R4.6S_Anadyr/R4.6S_Anadyr__20260129_161504_AQUA_rec.log

#Pass ID: 20260129_161504_AQUA
#Satellite: AQUA
#Configuration: AQUA
#almurnet v.1.7.20251203
#Start time: 2026-01-29 16:15:06

#Version: 2.2.20231116
#Station: R4.6S_Anadyr
#Location: 177.4865 lon 64.73178 lat
#TLE: 1 27424U 02022A   26028.91948147  .00001781  00000+0  36607-3 0  9997
#TLE: 2 27424  98.4103 355.5827 0001815  62.4290   1.4641 14.61871847262923

#Time	Az	El	Level	Level2	SNR	BER	BlckErr	Temp	State	Recorded	gain1	gain2
2026-01-29 16:15:06.29	19.71	0.10	-48.7	-63.7	3.5	1.51e+00	0	27	0	0	60	55307
2026-01-29 16:15:10.33	19.75	0.35	-49.1	-67.0	3.5	3.02e+01	0	28	104	0	60	85969
2026-01-29 16:15:14.37	19.79	0.60	-49.1	-67.0	3.5	3.02e+01	0	28	104	0	60	86443
2026-01-29 16:15:18.41	19.84	0.85	-49.1	-67.0	3.5	3.02e+01	0	29	104	0	60	85840
2026-01-29 16:15:22.45	19.88	1.11	-48.9	-66.8	3.5	3.02e+01	0	28	104	0	60	83727
2026-01-29 16:15:26.49	19.92	1.37	-48.5	-66.4	3.5	3.02e+01	0	29	104	0	60	80537
2026-01-29 16:15:30.53	19.97	1.63	-47.9	-65.7	3.5	3.02e+01	0	29	104	0	60	74275
2026-01-29 16:15:34.57	20.01	1.89	-47.8	-65.6	3.5	3.02e+01	0	29	104	0	60	73467
2026-01-29 16:15:38.62	20.06	2.16	-47.9	-65.7	3.5	3.02e+01	0	29	104	0	60	73896
2026-01-29 16:15:42.66	20.10	2.43	-47.9	-65.7	3.5	3.02e+01	0	29	104	0	60	74085
2026-01-29 16:15:46.70	20.15	2.70	-47.7	-64.7	3.5	3.02e+01	0	29	104	0	60	66173
2026-01-29 16:15:50.74	20.20	2.97	-47.6	-64.2	3.5	3.02e+01	0	29	104	0	60	62564
2026-01-29 16:15:54.78	20.24	3.25	-45.2	-57.9	3.5	3.02e+01	0	29	104	0	60	30085
2026-01-29 16:15:58.82	20.29	3.53	-40.9	-51.7	3.5	3.02e+01	0	29	104	0	56	18590
2026-01-29 16:16:02.86	20.34	3.82	-41.3	-52.2	3.5	3.02e+01	0	29	104	0	56	19736
2026-01-29 16:16:06.90	20.39	4.11	-47.6	-65.5	3.5	3.02e+01	0	29	104	0	60	72113
2026-01-29 16:16:10.93	20.44	4.40	-41.0	-51.8	3.5	3.02e+01	0	29	104	0	58	16878
2026-01-29 16:16:14.97	20.49	4.69	-47.9	-65.6	3.5	3.02e+01	0	29	104	0	60	73113
2026-01-29 16:16:19.01	20.54	4.99	-40.2	-50.9	3.5	3.02e+01	0	29	104	0	54	19122
2026-01-29 16:16:23.04	20.59	5.29	-48.0	-65.8	3.5	3.02e+01	0	29	104	0	60	74673
2026-01-29 16:16:27.08	20.64	5.60	-43.6	-55.1	3.5	3.02e+01	0	29	104	0	60	21792
2026-01-29 16:16:31.12	20.70	5.91	-44.0	-55.7	3.5	3.02e+01	0	29	104	0	60	23452
2026-01-29 16:16:35.16	20.75	6.22	-37.3	-47.6	3.5	3.02e+01	0	29	104	0	50	16482
2026-01-29 16:16:39.20	20.81	6.54	-48.0	-64.9	3.5	3.02e+01	0	29	104	0	60	67394
2026-01-29 16:16:43.23	20.86	6.86	-37.7	-48.1	3.5	3.02e+01	0	29	104	0	50	17358
2026-01-29 16:16:47.27	20.92	7.19	-48.2	-65.6	3.5	3.02e+01	0	29	104	0	60	72983
2026-01-29 16:16:51.31	20.98	7.52	-42.5	-53.5	3.5	3.02e+01	0	29	104	0	60	18201
2026-01-29 16:16:55.35	21.04	7.86	-42.5	-53.6	3.5	3.02e+01	0	29	104	0	60	18465
2026-01-29 16:16:59.39	21.10	8.20	-39.7	-50.3	3.5	3.02e+01	0	29	104	0	54	17840
2026-01-29 16:17:03.42	21.16	8.55	-48.1	-64.5	3.6	3.02e+01	0	29	104	0	60	64848
2026-01-29 16:17:07.46	21.22	8.90	-42.0	-52.9	3.5	3.02e+01	0	29	104	0	60	16943
2026-01-29 16:17:11.48	21.28	9.26	-39.4	-49.9	3.3	3.02e+01	0	29	104	0	56	15186
2026-01-29 16:17:15.53	21.35	9.62	-36.8	-47.0	3.5	3.02e+01	0	29	104	0	48	17252
2026-01-29 16:17:19.57	21.42	10.00	-43.7	-55.2	3.5	3.02e+01	0	29	104	0	60	22162
2026-01-29 16:17:23.60	21.48	10.37	-41.1	-51.8	3.5	3.02e+01	0	29	104	0	56	18809
2026-01-29 16:17:27.64	21.55	10.75	-43.0	-54.4	3.5	3.02e+01	0	29	104	0	60	20120
2026-01-29 16:17:31.68	21.62	11.14	-37.2	-47.5	3.5	3.02e+01	0	29	104	0	50	16157
2026-01-29 16:17:35.72	21.69	11.54	-42.4	-53.5	3.5	3.02e+01	0	29	104	0	60	18137
2026-01-29 16:17:39.75	21.77	11.94	-36.2	-46.4	3.5	3.02e+01	0	29	104	0	48	16117
2026-01-29 16:17:43.78	21.84	12.36	-45.2	-57.4	3.5	3.02e+01	0	29	104	0	60	28676
2026-01-29 16:17:47.82	21.92	12.78	-41.7	-52.5	3.5	3.02e+01	0	29	104	0	58	18196
2026-01-29 16:17:51.86	22.00	13.20	-36.7	-47.0	3.5	3.02e+01	0	29	104	0	48	17150
2026-01-29 16:17:55.90	22.08	13.64	-36.5	-46.8	3.5	3.02e+01	0	29	104	0	48	16724
2026-01-29 16:17:59.93	22.16	14.08	-43.2	-54.3	3.5	3.02e+01	0	29	104	0	60	20078
2026-01-29 16:18:03.97	22.25	14.54	-36.1	-46.3	3.5	3.02e+01	0	29	104	0	48	15825
2026-01-29 16:18:08.01	22.34	15.00	-42.9	-54.0	3.5	3.02e+01	0	30	104	0	60	19356
2026-01-29 16:18:12.05	22.42	15.48	-36.4	-46.7	3.6	3.02e+01	0	29	104	0	48	16540
2026-01-29 16:18:16.09	22.52	15.96	-45.8	-58.2	3.6	3.02e+01	0	30	104	0	60	31321
2026-01-29 16:18:20.13	22.61	16.46	-39.1	-49.6	3.5	3.02e+01	0	29	104	0	54	16326
2026-01-29 16:18:24.17	22.71	16.96	-40.3	-50.9	3.6	3.02e+01	0	30	104	0	60	13505
2026-01-29 16:18:28.21	22.81	17.48	-37.8	-48.0	3.6	3.02e+01	0	29	104	0	52	15380
2026-01-29 16:18:32.24	22.91	18.01	-39.9	-50.4	3.5	3.02e+01	0	30	104	0	60	12807
2026-01-29 16:18:36.28	23.02	18.55	-35.8	-46.0	3.5	3.02e+01	0	29	104	0	46	17258
2026-01-29 16:18:40.32	23.13	19.11	-40.0	-50.6	3.5	3.02e+01	0	29	104	0	60	13034
2026-01-29 16:18:44.36	23.25	19.68	-38.5	-48.8	3.5	3.02e+01	0	29	104	0	52	16886
2026-01-29 16:18:48.39	23.36	20.27	-37.1	-47.4	3.5	3.02e+01	0	29	104	0	52	14220
2026-01-29 16:18:52.43	23.49	20.87	-36.0	-46.1	3.5	3.02e+01	0	29	104	0	48	15581
2026-01-29 16:18:56.47	23.61	21.48	-36.3	-46.5	3.5	3.02e+01	0	29	104	0	46	18217
2026-01-29 16:19:00.51	23.75	22.12	-36.9	-47.3	3.5	3.02e+01	0	29	104	0	48	17704
2026-01-29 16:19:04.54	23.88	22.77	-37.2	-47.5	3.5	3.02e+01	0	30	104	0	48	18187
2026-01-29 16:19:08.58	24.03	23.44	-37.3	-47.6	3.5	3.02e+01	0	29	104	0	48	18438
2026-01-29 16:19:12.62	24.17	24.13	-41.3	-51.9	3.5	3.02e+01	0	30	104	0	50	27032
2026-01-29 16:19:16.66	24.33	24.84	-39.5	-49.9	3.5	3.02e+01	0	30	104	0	50	21450
2026-01-29 16:19:20.70	24.49	25.57	-43.0	-53.9	3.5	3.02e+01	0	30	104	0	52	30299
2026-01-29 16:19:24.73	24.66	26.32	-39.8	-50.3	3.5	3.02e+01	0	29	104	0	50	22293
2026-01-29 16:19:28.77	24.83	27.09	-47.5	-61.6	3.4	3.02e+01	0	30	104	0	60	46499
2026-01-29 16:19:32.81	25.02	27.89	-45.4	-57.6	3.5	3.02e+01	0	30	104	0	60	29121
2026-01-29 16:19:36.84	25.21	28.72	-48.5	-65.2	3.5	3.02e+01	0	30	104	0	60	70349
2026-01-29 16:19:40.88	25.41	29.57	-38.3	-48.6	3.5	3.02e+01	0	30	104	0	50	18458
2026-01-29 16:19:44.92	25.63	30.45	-48.0	-62.8	3.5	3.02e+01	0	29	104	0	60	52988
2026-01-29 16:19:48.95	25.85	31.36	-48.1	-63.3	3.5	3.02e+01	0	30	104	0	60	56208
2026-01-29 16:19:52.98	26.09	32.30	-48.8	-65.2	3.5	3.02e+01	0	30	104	0	60	70192
2026-01-29 16:19:57.02	26.34	33.27	-44.5	-56.2	3.5	3.02e+01	0	29	104	0	60	24921
2026-01-29 16:20:01.05	26.61	34.28	-48.9	-66.3	3.5	3.02e+01	0	29	104	0	60	79520
2026-01-29 16:20:05.09	26.89	35.32	-44.8	-56.5	3.5	3.02e+01	0	29	104	0	60	25858
2026-01-29 16:20:09.13	27.20	36.40	-48.8	-66.3	3.5	3.02e+01	0	29	104	0	60	79688
2026-01-29 16:20:13.17	27.52	37.52	-43.9	-55.4	3.6	3.02e+01	0	30	104	0	60	22537
2026-01-29 16:20:17.20	27.86	38.67	-49.0	-66.4	3.5	3.02e+01	0	30	104	0	60	80272
2026-01-29 16:20:21.24	28.23	39.87	-43.6	-54.8	3.5	3.02e+01	0	30	104	0	60	21082
2026-01-29 16:20:25.27	28.63	41.11	-49.0	-66.4	3.5	3.02e+01	0	29	104	0	60	80390
2026-01-29 16:20:29.30	29.06	42.40	-45.3	-57.2	3.5	3.02e+01	0	29	104	0	60	27818
2026-01-29 16:20:33.33	29.53	43.73	-48.6	-65.4	3.6	3.02e+01	0	30	104	0	60	72034
2026-01-29 16:20:37.37	30.03	45.12	-35.0	-45.1	3.5	3.02e+01	0	30	104	0	46	15570
2026-01-29 16:20:41.40	30.58	46.55	-48.4	-64.0	3.5	3.02e+01	0	30	104	0	60	60646
2026-01-29 16:20:45.44	31.19	48.04	-38.4	-48.8	3.5	3.02e+01	0	30	104	0	56	13344
2026-01-29 16:20:49.48	31.86	49.57	-45.1	-57.0	3.5	3.02e+01	0	30	104	0	60	27364
2026-01-29 16:20:53.51	32.59	51.16	-35.0	-45.1	3.5	3.02e+01	0	29	104	0	46	15483
2026-01-29 16:20:57.54	33.41	52.80	-43.1	-54.1	3.5	3.02e+01	0	30	104	0	60	19489
2026-01-29 16:21:01.58	34.33	54.49	-34.3	-44.4	3.5	3.02e+01	0	30	104	0	44	16108
2026-01-29 16:21:05.62	35.37	56.24	-42.9	-53.8	3.7	3.02e+01	0	30	104	0	60	18785
2026-01-29 16:21:09.65	36.54	58.03	-36.4	-46.6	3.5	3.02e+01	0	30	104	0	48	16379
2026-01-29 16:21:13.69	37.89	59.87	-40.9	-51.5	3.5	3.02e+01	0	30	104	0	60	14498
2026-01-29 16:21:17.73	39.44	61.76	-38.0	-48.4	3.5	3.02e+01	0	29	104	0	50	18058
2026-01-29 16:21:21.76	41.25	63.67	-42.0	-52.9	3.5	3.02e+01	0	30	104	0	60	16932
2026-01-29 16:21:25.80	43.38	65.62	-40.8	-51.6	3.5	3.02e+01	0	30	104	0	58	16452
2026-01-29 16:21:29.84	45.93	67.58	-43.0	-53.9	3.5	3.02e+01	0	30	104	0	60	19000
2026-01-29 16:21:33.87	49.01	69.53	-42.0	-53.3	3.5	3.02e+01	0	30	104	0	60	17752
2026-01-29 16:21:37.91	52.79	71.47	-41.9	-52.8	3.5	3.02e+01	0	30	104	0	60	16833
2026-01-29 16:21:41.94	57.48	73.34	-39.2	-49.5	3.5	3.02e+01	0	30	104	0	52	18168
2026-01-29 16:21:45.97	63.39	75.11	-42.2	-53.0	3.5	3.02e+01	0	30	104	0	60	17174
2026-01-29 16:21:50.01	70.88	76.71	-39.0	-49.4	3.5	3.02e+01	0	30	104	0	52	18098
2026-01-29 16:21:54.04	80.26	78.04	-42.6	-53.6	3.5	3.02e+01	0	30	104	0	58	20764
2026-01-29 16:21:58.08	91.71	79.00	-49.0	-66.3	3.5	3.02e+01	0	30	104	0	60	79512
2026-01-29 16:22:02.12	104.77	79.47	-40.6	-51.1	3.4	3.02e+01	0	30	104	0	58	15576
2026-01-29 16:22:06.16	118.31	79.37	-47.4	-53.6	13.8	3.02e+01	53	30	104	524288	60	18394
2026-01-29 16:22:10.19	130.88	78.72	-37.7	-39.1	27.1	3.02e+01	58	30	0	3145728	50	6139
2026-01-29 16:22:14.24	141.66	77.61	-37.8	-39.2	26.9	3.02e+01	60	30	0	11010048	48	6974
2026-01-29 16:22:18.28	150.36	76.17	-37.6	-38.9	27.1	3.02e+01	58	30	0	18350080	50	6029
2026-01-29 16:22:22.31	157.24	74.50	-37.6	-39.0	27.1	3.02e+01	61	30	0	26214400	50	6074
2026-01-29 16:22:26.35	162.70	72.68	-37.7	-39.0	27.1	3.02e+01	60	30	0	33554432	50	6098
2026-01-29 16:22:30.39	167.05	70.78	-38.1	-39.4	26.7	3.02e+01	58	30	0	40894464	50	6411
2026-01-29 16:22:34.43	170.56	68.83	-38.6	-40.0	26.1	3.02e+01	60	30	0	48758784	50	6881
2026-01-29 16:22:38.46	173.44	66.87	-38.2	-39.6	26.6	3.02e+01	50	30	0	56098816	50	6517
2026-01-29 16:22:42.50	175.83	64.91	-38.7	-40.1	26.3	3.02e+01	61	30	0	63963136	50	6940
2026-01-29 16:22:46.54	177.84	62.96	-36.4	-37.6	28.3	3.02e+01	46	30	0	71303168	48	5850
2026-01-29 16:22:50.58	179.55	61.05	-36.5	-37.8	28.1	3.02e+01	58	30	0	79167488	46	6699
2026-01-29 16:22:54.62	181.03	59.18	-35.8	-37.1	28.7	3.02e+01	50	30	0	86507520	46	6151
2026-01-29 16:22:58.65	182.30	57.35	-35.3	-36.6	29.3	3.02e+01	57	30	0	93847552	46	5795
2026-01-29 16:23:02.69	183.43	55.57	-34.5	-35.7	30.0	3.02e+01	45	30	0	101711872	44	5866
2026-01-29 16:23:06.73	184.42	53.83	-34.2	-35.4	30.2	3.02e+01	60	30	0	109051904	42	6401
2026-01-29 16:23:10.77	185.30	52.15	-34.3	-35.5	30.2	3.02e+01	48	29	0	116916224	42	6462
2026-01-29 16:23:14.80	186.09	50.53	-34.6	-35.7	30.0	3.02e+01	61	30	0	124256256	42	6646
2026-01-29 16:23:18.85	186.80	48.95	-35.1	-36.3	29.5	3.02e+01	63	30	0	132120576	44	6337
2026-01-29 16:23:22.88	187.44	47.43	-35.0	-36.2	29.6	3.02e+01	62	29	0	139460608	44	6262
2026-01-29 16:23:26.92	188.03	45.96	-35.3	-36.5	29.3	3.02e+01	58	30	0	147324928	44	6472
2026-01-29 16:23:30.96	188.56	44.54	-35.0	-36.2	29.6	3.02e+01	61	29	0	154664960	44	6254
2026-01-29 16:23:35.00	189.05	43.17	-35.1	-36.2	29.5	3.02e+01	60	29	0	162004992	44	6263
2026-01-29 16:23:39.04	189.50	41.84	-35.5	-36.8	29.1	3.02e+01	53	29	0	169869312	44	6657
2026-01-29 16:23:43.08	189.92	40.57	-36.2	-37.4	28.5	3.02e+01	58	30	0	177209344	46	6391
2026-01-29 16:23:47.12	190.31	39.33	-35.9	-37.2	28.8	3.02e+01	63	29	0	185073664	46	6214
2026-01-29 16:23:51.16	190.67	38.15	-36.1	-37.4	28.6	3.02e+01	59	30	0	192413696	46	6383
2026-01-29 16:23:55.20	191.00	37.00	-35.6	-36.8	29.1	3.02e+01	60	30	0	200278016	46	5987
2026-01-29 16:23:59.24	191.32	35.89	-35.1	-36.3	29.5	3.02e+01	57	29	0	207618048	46	5625
2026-01-29 16:24:03.28	191.61	34.82	-34.7	-35.9	29.8	3.02e+01	56	29	0	215482368	44	6064
2026-01-29 16:24:07.32	191.89	33.79	-34.8	-36.0	29.7	3.02e+01	62	29	0	222822400	44	6100
2026-01-29 16:24:11.35	192.15	32.80	-34.1	-35.3	30.3	3.02e+01	61	30	0	230162432	44	5620
2026-01-29 16:24:15.39	192.39	31.83	-33.9	-35.1	30.5	3.02e+01	60	30	0	238026752	42	6174
2026-01-29 16:24:19.43	192.63	30.90	-34.2	-35.4	30.2	3.02e+01	57	29	0	245366784	42	6411
2026-01-29 16:24:23.47	192.85	30.00	-34.0	-35.2	30.4	3.02e+01	58	30	0	253231104	42	6207
2026-01-29 16:24:27.51	193.05	29.13	-34.3	-35.5	30.1	3.02e+01	45	30	0	260571136	42	6432
2026-01-29 16:24:31.55	193.25	28.28	-34.3	-35.4	30.0	3.02e+01	60	29	0	268435456	42	6412
2026-01-29 16:24:35.59	193.44	27.47	-34.3	-35.5	30.2	3.02e+01	49	30	0	275775488	42	6430
2026-01-29 16:24:39.62	193.62	26.67	-34.5	-35.7	30.0	3.02e+01	49	30	0	283639808	42	6603
2026-01-29 16:24:43.66	193.79	25.91	-34.8	-36.0	29.7	3.02e+01	45	29	0	290979840	42	6844
2026-01-29 16:24:47.70	193.96	25.16	-35.1	-36.3	29.4	3.02e+01	59	30	0	298319872	44	6331
2026-01-29 16:24:51.74	194.11	24.44	-35.2	-36.4	29.3	3.02e+01	46	30	0	306184192	44	6410
2026-01-29 16:24:55.77	194.26	23.73	-35.2	-36.5	29.3	3.02e+01	59	30	0	313524224	44	6426
2026-01-29 16:24:59.81	194.41	23.05	-35.2	-36.4	29.2	3.02e+01	53	30	0	321388544	44	6387
2026-01-29 16:25:03.85	194.55	22.39	-35.1	-36.3	29.3	3.02e+01	59	30	0	328728576	44	6291
2026-01-29 16:25:07.89	194.68	21.74	-34.9	-36.1	29.6	3.02e+01	47	30	0	336592896	44	6143
2026-01-29 16:25:11.93	194.81	21.11	-35.0	-36.2	29.4	3.02e+01	62	30	0	343932928	44	6213
2026-01-29 16:25:15.97	194.93	20.50	-34.8	-36.0	29.6	3.02e+01	48	30	0	351797248	44	6102
2026-01-29 16:25:20.01	195.05	19.90	-34.8	-35.9	29.7	3.02e+01	58	30	0	359137280	44	6063
2026-01-29 16:25:24.06	195.16	19.32	-34.9	-36.1	29.6	3.02e+01	47	30	0	367001600	44	6140
2026-01-29 16:25:28.10	195.28	18.75	-34.8	-36.0	29.6	3.02e+01	59	30	0	374341632	44	6123
2026-01-29 16:25:32.13	195.38	18.20	-35.0	-36.2	29.4	3.02e+01	50	30	0	381681664	44	6257
2026-01-29 16:25:36.17	195.49	17.66	-35.1	-36.3	29.4	3.02e+01	59	30	0	389545984	44	6344
2026-01-29 16:25:40.21	195.59	17.14	-35.0	-36.2	29.3	3.02e+01	60	30	0	396886016	44	6244
2026-01-29 16:25:44.25	195.68	16.62	-35.1	-36.3	29.1	3.02e+01	59	30	0	404750336	44	6307
2026-01-29 16:25:48.29	195.78	16.12	-34.8	-36.0	29.4	3.02e+01	60	30	0	412090368	44	6074
2026-01-29 16:25:52.33	195.87	15.63	-34.9	-36.1	29.4	3.02e+01	59	30	0	419954688	44	6159
2026-01-29 16:25:56.37	195.96	15.14	-34.7	-35.9	29.3	3.02e+01	56	30	0	427294720	44	6043
2026-01-29 16:26:00.41	196.05	14.67	-34.8	-35.9	29.5	3.02e+01	56	30	0	435159040	44	6064
2026-01-29 16:26:04.45	196.13	14.21	-34.7	-35.9	29.5	3.02e+01	58	30	0	442499072	44	6042
2026-01-29 16:26:08.49	196.21	13.76	-34.7	-35.9	29.5	3.02e+01	61	30	0	449839104	44	6042
2026-01-29 16:26:12.53	196.29	13.32	-34.7	-35.9	29.5	3.02e+01	62	30	0	457703424	44	6004
2026-01-29 16:26:16.57	196.37	12.88	-34.9	-36.1	29.4	3.02e+01	60	30	0	465043456	44	6147
2026-01-29 16:26:20.61	196.45	12.46	-34.9	-36.1	29.3	3.02e+01	57	30	0	472907776	44	6167
2026-01-29 16:26:24.64	196.52	12.04	-35.2	-36.4	29.1	3.02e+01	59	30	0	480247808	44	6370
2026-01-29 16:26:28.68	196.59	11.63	-35.2	-36.4	29.1	3.02e+01	60	30	0	488112128	44	6357
2026-01-29 16:26:32.72	196.66	11.23	-35.0	-36.1	29.2	3.02e+01	59	30	0	495452160	44	6204
2026-01-29 16:26:36.76	196.73	10.83	-35.2	-36.4	29.1	3.02e+01	64	30	0	503316480	44	6410
2026-01-29 16:26:40.79	196.80	10.45	-35.2	-36.4	29.1	3.02e+01	51	30	0	510656512	44	6385
2026-01-29 16:26:44.84	196.86	10.06	-35.2	-36.4	29.1	3.02e+01	57	30	0	517996544	44	6395
2026-01-29 16:26:48.87	196.93	9.69	-35.5	-36.7	28.8	3.02e+01	45	30	0	525860864	44	6596
2026-01-29 16:26:52.91	196.99	9.32	-35.7	-36.9	28.6	3.02e+01	60	30	0	533200896	44	6786
2026-01-29 16:26:56.95	197.05	8.96	-35.6	-36.8	28.7	3.02e+01	60	30	0	541065216	44	6673
2026-01-29 16:27:00.99	197.11	8.60	-35.7	-36.9	28.7	3.02e+01	61	30	0	548405248	44	6773
2026-01-29 16:27:05.02	197.17	8.25	-35.8	-37.1	28.4	3.02e+01	51	30	0	556269568	44	6935
2026-01-29 16:27:09.06	197.23	7.90	-36.0	-37.3	28.2	3.02e+01	60	30	0	563609600	46	6301
2026-01-29 16:27:13.10	197.29	7.56	-36.2	-37.4	28.0	3.02e+01	52	30	0	570949632	46	6419
2026-01-29 16:27:17.14	197.34	7.23	-36.5	-37.8	27.8	3.02e+01	58	30	0	578813952	46	6659
2026-01-29 16:27:21.18	197.40	6.90	-36.7	-38.0	27.6	3.02e+01	54	30	0	586153984	46	6825
2026-01-29 16:27:25.21	197.45	6.57	-36.5	-37.8	27.7	3.02e+01	56	30	0	594018304	46	6659
2026-01-29 16:27:29.25	197.50	6.25	-36.6	-37.9	27.6	3.02e+01	45	30	0	601358336	46	6753
2026-01-29 16:27:33.28	197.55	5.93	-36.7	-38.0	27.5	3.02e+01	58	30	0	609222656	46	6845
2026-01-29 16:27:37.33	197.60	5.62	-36.8	-38.2	27.3	3.02e+01	45	30	0	616562688	46	6992
2026-01-29 16:27:41.36	197.65	5.31	-37.1	-38.5	26.9	3.02e+01	59	30	0	624427008	48	6469
2026-01-29 16:27:45.40	197.70	5.01	-37.1	-38.5	27.0	3.02e+01	44	30	0	631767040	48	6470
2026-01-29 16:27:49.44	197.75	4.70	-37.0	-38.4	27.0	3.02e+01	59	30	0	639107072	48	6372
2026-01-29 16:27:53.48	197.80	4.41	-37.4	-38.9	26.5	3.02e+01	54	30	0	646971392	48	6730
2026-01-29 16:27:57.51	197.85	4.11	-37.4	-38.8	26.5	3.02e+01	55	30	0	654311424	48	6694
2026-01-29 16:28:01.55	197.89	3.82	-37.3	-38.7	26.4	3.02e+01	59	30	0	662175744	48	6591
2026-01-29 16:28:05.60	197.94	3.53	-37.7	-39.2	26.0	3.02e+01	60	30	0	669515776	48	6974
2026-01-29 16:28:09.64	197.98	3.25	-37.8	-39.2	25.9	3.02e+01	61	30	0	677380096	50	6264
2026-01-29 16:28:13.68	198.03	2.97	-48.1	-65.4	3.5	3.02e+01	0	30	104	684195840	60	71584
2026-01-29 16:28:17.72	198.07	2.69	-48.9	-66.6	3.5	3.02e+01	0	30	104	684195840	60	82468
2026-01-29 16:28:21.76	198.11	2.42	-49.1	-67.0	3.5	3.02e+01	0	30	104	684195840	60	85812
2026-01-29 16:28:25.80	198.15	2.15	-49.1	-67.1	3.5	3.02e+01	0	30	104	684195840	60	86883
2026-01-29 16:28:29.84	198.20	1.88	-48.9	-67.0	3.5	3.02e+01	0	30	104	684195840	60	86437
2026-01-29 16:28:33.88	198.24	1.61	-49.1	-66.9	3.5	3.02e+01	0	30	104	684195840	60	85549
2026-01-29 16:28:37.93	198.28	1.35	-49.1	-67.0	3.5	3.02e+01	0	30	104	684195840	60	86375
2026-01-29 16:28:41.97	198.32	1.09	-49.1	-67.0	3.5	3.02e+01	0	30	104	684195840	60	86024
2026-01-29 16:28:46.00	198.36	0.83	-49.1	-67.0	3.5	3.02e+01	0	30	104	684195840	60	86053
2026-01-29 16:28:50.04	198.39	0.57	-49.1	-67.0	3.5	3.02e+01	0	30	104	684195840	60	85811
2026-01-29 16:28:54.08	198.43	0.32	-49.1	-67.0	3.5	3.02e+01	0	30	104	684195840	60	85825
2026-01-29 16:28:58.12	198.47	0.07	-49.1	-67.0	3.5	3.02e+01	0	30	104	684195840	60	85854

#Closed at: 2026-01-29 16:29:01
#Recorded file [684 MB]: D:/lorett/data/35029_260130_041506.dat