passes_logs/2026/01/29/R4.6S_Anadyr/R4.6S_Anadyr__20260129_025305_AQUA_rec.log

#Pass ID: 20260129_025305_AQUA
#Satellite: AQUA
#Configuration: AQUA
#almurnet v.1.7.20251203
#Start time: 2026-01-29 02:53:07

#Version: 2.2.20231116
#Station: R4.6S_Anadyr
#Location: 177.4865 lon 64.73178 lat
#TLE: 1 27424U 02022A   26027.96263068  .00001625  00000+0  33481-3 0  9997
#TLE: 2 27424  98.4102 354.6095 0001839  63.4368   7.7786 14.61867353262782

#Time	Az	El	Level	Level2	SNR	BER	BlckErr	Temp	State	Recorded	gain1	gain2
2026-01-29 02:53:07.51	180.49	0.13	-48.7	-60.4	3.5	8.45e-01	0	31	0	0	60	37764
2026-01-29 02:53:11.55	180.63	0.37	-49.2	-67.1	3.5	3.03e+01	0	33	104	0	60	87108
2026-01-29 02:53:15.59	180.77	0.62	-49.1	-67.1	3.5	3.03e+01	0	33	104	0	60	87600
2026-01-29 02:53:19.63	180.92	0.87	-49.2	-67.0	3.5	3.03e+01	0	33	104	0	60	86584
2026-01-29 02:53:23.67	181.07	1.12	-49.1	-66.9	3.5	3.03e+01	0	33	104	0	60	85536
2026-01-29 02:53:27.71	181.22	1.37	-48.6	-66.6	3.5	3.03e+01	0	33	104	0	60	82207
2026-01-29 02:53:31.75	181.38	1.63	-48.0	-65.9	3.5	3.03e+01	0	33	104	0	60	75497
2026-01-29 02:53:35.78	181.53	1.88	-48.0	-65.8	3.5	3.03e+01	0	33	104	0	60	75198
2026-01-29 02:53:39.82	181.69	2.15	-48.0	-65.7	3.5	3.03e+01	0	33	104	0	60	73859
2026-01-29 02:53:43.86	181.86	2.41	-48.0	-65.2	3.5	3.03e+01	0	33	104	0	60	70005
2026-01-29 02:53:47.89	182.02	2.67	-48.0	-65.7	3.5	3.03e+01	0	33	104	0	60	74199
2026-01-29 02:53:51.93	182.19	2.94	-47.8	-61.7	4.5	3.03e+01	0	33	104	0	60	46635
2026-01-29 02:53:55.96	182.36	3.21	-46.8	-53.5	11.5	3.03e+01	92	33	0	524288	60	18204
2026-01-29 02:54:00.00	182.54	3.49	-40.2	-42.0	23.2	3.03e+01	91	33	0	8388608	56	6103
2026-01-29 02:54:04.04	182.72	3.76	-38.8	-40.4	24.8	3.03e+01	92	33	0	15728640	50	7182
2026-01-29 02:54:08.08	182.90	4.04	-47.3	-55.9	6.7	3.03e+01	92	33	0	23592960	60	24029
2026-01-29 02:54:12.11	183.09	4.32	-38.6	-40.2	25.2	3.03e+01	92	33	0	28835840	52	6250
2026-01-29 02:54:16.15	183.28	4.61	-37.5	-39.0	26.3	3.03e+01	91	33	0	36175872	50	6084
2026-01-29 02:54:20.19	183.47	4.90	-37.6	-39.1	26.2	3.03e+01	89	33	0	44040192	50	6147
2026-01-29 02:54:24.23	183.67	5.19	-37.4	-38.8	26.6	3.03e+01	92	34	0	51380224	50	5963
2026-01-29 02:54:28.26	183.87	5.48	-37.2	-38.7	26.7	3.03e+01	90	33	0	58720256	48	6588
2026-01-29 02:54:32.30	184.07	5.78	-36.9	-38.3	27.0	3.03e+01	90	34	0	66584576	48	6347
2026-01-29 02:54:36.34	184.28	6.09	-37.0	-38.5	26.9	3.03e+01	90	33	0	73924608	48	6427
2026-01-29 02:54:40.38	184.50	6.39	-36.9	-38.3	27.1	3.03e+01	92	33	0	81788928	48	6347
2026-01-29 02:54:44.42	184.72	6.70	-36.8	-38.2	27.3	3.03e+01	92	34	0	89128960	48	6230
2026-01-29 02:54:48.46	184.94	7.02	-36.6	-38.0	27.5	3.03e+01	92	34	0	96993280	48	6075
2026-01-29 02:54:52.50	185.17	7.34	-36.7	-38.1	27.3	3.03e+01	92	33	0	104333312	48	6155
2026-01-29 02:54:56.53	185.41	7.66	-36.6	-37.9	27.6	3.03e+01	92	34	0	112197632	48	6053
2026-01-29 02:55:00.57	185.65	7.98	-36.4	-37.7	27.8	3.03e+01	90	34	0	119537664	48	5879
2026-01-29 02:55:04.61	185.89	8.31	-36.3	-37.6	27.8	3.03e+01	90	34	0	126877696	48	5839
2026-01-29 02:55:08.65	186.14	8.65	-36.1	-37.5	28.0	3.03e+01	90	34	0	134742016	48	5734
2026-01-29 02:55:12.69	186.40	8.99	-36.1	-37.4	28.1	3.03e+01	92	34	0	142082048	48	5713
2026-01-29 02:55:16.73	186.66	9.33	-36.0	-37.3	28.3	3.03e+01	92	34	0	149946368	46	6338
2026-01-29 02:55:20.77	186.93	9.68	-35.9	-37.2	28.4	3.03e+01	90	34	0	157286400	46	6259
2026-01-29 02:55:24.81	187.21	10.04	-35.7	-37.0	28.6	3.03e+01	91	34	0	165150720	46	6079
2026-01-29 02:55:28.84	187.49	10.40	-35.8	-37.2	28.5	3.03e+01	92	34	0	172490752	46	6211
2026-01-29 02:55:32.89	187.78	10.76	-36.0	-37.2	28.3	3.03e+01	92	34	0	180355072	46	6271
2026-01-29 02:55:36.92	188.08	11.13	-35.8	-37.1	28.4	3.03e+01	92	34	0	187695104	46	6195
2026-01-29 02:55:40.96	188.39	11.51	-36.0	-37.3	28.4	3.03e+01	92	34	0	195035136	46	6284
2026-01-29 02:55:44.99	188.70	11.89	-35.6	-36.8	28.7	3.03e+01	92	34	0	202899456	46	5981
2026-01-29 02:55:49.03	189.02	12.28	-35.7	-37.0	28.6	3.03e+01	92	34	0	210239488	46	6078
2026-01-29 02:55:53.07	189.35	12.68	-35.4	-36.7	28.9	3.03e+01	92	34	0	218103808	46	5866
2026-01-29 02:55:57.11	189.70	13.08	-35.1	-36.4	29.2	3.03e+01	92	34	0	225443840	46	5688
2026-01-29 02:56:01.15	190.05	13.49	-35.4	-36.7	29.0	3.03e+01	92	34	0	233308160	46	5867
2026-01-29 02:56:05.19	190.41	13.90	-35.3	-36.6	29.0	3.03e+01	92	34	0	240648192	46	5812
2026-01-29 02:56:09.23	190.78	14.32	-35.2	-36.4	29.2	3.03e+01	92	34	0	248512512	46	5685
2026-01-29 02:56:13.27	191.16	14.75	-35.1	-36.4	29.2	3.03e+01	92	34	0	255852544	46	5677
2026-01-29 02:56:17.31	191.56	15.19	-35.0	-36.2	29.4	3.03e+01	92	34	0	263192576	44	6252
2026-01-29 02:56:21.34	191.96	15.63	-34.9	-36.1	29.5	3.03e+01	92	34	0	271056896	44	6163
2026-01-29 02:56:25.38	192.38	16.08	-34.7	-35.9	29.5	3.03e+01	92	34	0	278396928	44	6058
2026-01-29 02:56:29.42	192.81	16.54	-35.0	-36.2	29.4	3.03e+01	92	34	0	286261248	44	6250
2026-01-29 02:56:33.46	193.26	17.01	-34.8	-36.0	29.4	3.03e+01	90	34	0	293601280	44	6133
2026-01-29 02:56:37.50	193.72	17.48	-34.8	-36.0	29.6	3.03e+01	90	34	0	301465600	44	6098
2026-01-29 02:56:41.53	194.19	17.97	-34.9	-36.1	29.5	3.03e+01	92	34	0	308805632	44	6172
2026-01-29 02:56:45.57	194.68	18.46	-34.7	-35.8	29.7	3.03e+01	92	34	0	316669952	44	5994
2026-01-29 02:56:49.61	195.19	18.97	-34.9	-36.0	29.5	3.03e+01	92	34	0	324009984	44	6134
2026-01-29 02:56:53.65	195.72	19.48	-34.6	-35.8	29.7	3.03e+01	90	34	0	331350016	44	5968
2026-01-29 02:56:57.69	196.26	20.00	-35.1	-36.3	29.4	3.03e+01	91	34	0	339214336	44	6307
2026-01-29 02:57:01.72	196.82	20.53	-34.7	-35.9	29.7	3.03e+01	88	34	0	346554368	44	6006
2026-01-29 02:57:05.76	197.41	21.07	-35.1	-36.3	29.4	3.03e+01	92	34	0	354418688	44	6329
2026-01-29 02:57:09.79	198.01	21.62	-35.1	-36.3	29.4	3.03e+01	92	34	0	361758720	44	6320
2026-01-29 02:57:13.83	198.64	22.18	-35.3	-36.5	29.2	3.03e+01	91	34	0	369623040	44	6474
2026-01-29 02:57:17.87	199.29	22.75	-35.1	-36.3	29.4	3.03e+01	92	34	0	376963072	44	6338
2026-01-29 02:57:21.92	199.97	23.34	-35.1	-36.3	29.5	3.03e+01	91	34	0	384303104	44	6280
2026-01-29 02:57:25.95	200.67	23.93	-35.2	-36.4	29.4	3.03e+01	92	34	0	392167424	44	6357
2026-01-29 02:57:29.99	201.40	24.53	-35.1	-36.3	29.4	3.03e+01	90	34	0	399507456	44	6330
2026-01-29 02:57:34.03	202.16	25.14	-35.1	-36.3	29.4	3.03e+01	91	34	0	407371776	44	6340
2026-01-29 02:57:38.07	202.95	25.77	-35.1	-36.3	29.5	3.03e+01	90	34	0	414711808	44	6309
2026-01-29 02:57:42.10	203.77	26.40	-34.8	-36.0	29.6	3.03e+01	90	34	0	422576128	44	6118
2026-01-29 02:57:46.14	204.63	27.04	-35.0	-36.2	29.5	3.03e+01	92	34	0	429916160	44	6241
2026-01-29 02:57:50.18	205.52	27.70	-35.0	-36.2	29.5	3.03e+01	92	34	0	437780480	44	6253
2026-01-29 02:57:54.22	206.45	28.36	-35.0	-36.2	29.4	3.03e+01	89	34	0	445120512	44	6251
2026-01-29 02:57:58.26	207.43	29.04	-35.1	-36.3	29.4	3.03e+01	92	34	0	452460544	44	6330
2026-01-29 02:58:02.29	208.44	29.72	-35.0	-36.2	29.5	3.03e+01	87	34	0	460324864	44	6248
2026-01-29 02:58:06.33	209.50	30.40	-35.2	-36.4	29.4	3.03e+01	91	34	0	467664896	44	6352
2026-01-29 02:58:10.37	210.60	31.10	-35.1	-36.3	29.4	3.03e+01	91	34	0	475529216	44	6345
2026-01-29 02:58:14.41	211.76	31.80	-35.4	-36.6	29.2	3.03e+01	92	34	0	482869248	44	6564
2026-01-29 02:58:18.45	212.96	32.51	-35.3	-36.5	29.3	3.03e+01	92	34	0	490733568	44	6451
2026-01-29 02:58:22.48	214.22	33.22	-35.4	-36.6	29.1	3.03e+01	92	34	0	498073600	44	6556
2026-01-29 02:58:26.52	215.54	33.94	-35.6	-36.8	29.0	3.03e+01	92	34	0	505937920	44	6704
2026-01-29 02:58:30.56	216.92	34.65	-35.6	-36.9	29.0	3.03e+01	92	34	0	513277952	44	6748
2026-01-29 02:58:34.59	218.36	35.36	-35.8	-37.1	28.7	3.03e+01	92	34	0	520617984	46	6147
2026-01-29 02:58:38.63	219.86	36.07	-36.0	-37.3	28.7	3.03e+01	92	34	0	528482304	46	6311
2026-01-29 02:58:42.67	221.43	36.78	-36.0	-37.2	28.7	3.03e+01	92	34	0	535822336	46	6275
2026-01-29 02:58:46.71	223.08	37.47	-35.8	-37.0	28.9	3.03e+01	92	34	0	543686656	46	6119
2026-01-29 02:58:50.75	224.79	38.16	-35.7	-37.0	28.8	3.03e+01	92	34	0	551026688	46	6088
2026-01-29 02:58:54.78	226.57	38.82	-35.6	-36.8	29.1	3.03e+01	92	34	0	558891008	46	5956
2026-01-29 02:58:58.82	228.43	39.47	-35.4	-36.6	29.2	3.03e+01	91	34	0	566231040	46	5820
2026-01-29 02:59:02.86	230.37	40.10	-35.2	-36.4	29.4	3.03e+01	87	34	0	573571072	46	5686
2026-01-29 02:59:06.90	232.38	40.71	-35.2	-36.4	29.4	3.03e+01	91	34	0	581435392	46	5705
2026-01-29 02:59:10.93	234.46	41.28	-34.8	-35.9	29.8	3.03e+01	90	34	0	588775424	44	6056
2026-01-29 02:59:14.97	236.62	41.82	-34.6	-35.7	30.0	3.03e+01	92	34	0	596639744	44	5925
2026-01-29 02:59:19.01	238.85	42.32	-34.6	-35.8	30.0	3.03e+01	90	34	0	603979776	44	5953
2026-01-29 02:59:23.05	241.15	42.79	-34.4	-35.5	30.2	3.03e+01	92	34	0	611844096	44	5767
2026-01-29 02:59:27.09	243.52	43.20	-34.6	-35.8	29.9	3.03e+01	90	34	0	619184128	44	5939
2026-01-29 02:59:31.13	245.94	43.57	-34.2	-35.4	30.4	3.03e+01	90	34	0	627048448	44	5667
2026-01-29 02:59:35.16	248.41	43.88	-34.5	-35.7	30.0	3.03e+01	91	34	0	634388480	44	5888
2026-01-29 02:59:39.20	250.92	44.13	-34.4	-35.5	30.1	3.03e+01	90	34	0	641728512	44	5775
2026-01-29 02:59:43.24	253.48	44.33	-34.4	-35.6	30.1	3.03e+01	92	34	0	649592832	44	5814
2026-01-29 02:59:47.28	256.06	44.47	-34.5	-35.7	30.0	3.03e+01	91	34	0	656932864	44	5889
2026-01-29 02:59:51.31	258.65	44.54	-34.6	-35.8	30.0	3.03e+01	92	34	0	664797184	44	5951
2026-01-29 02:59:55.35	261.25	44.55	-34.5	-35.7	30.1	3.03e+01	92	34	0	672137216	44	5903
2026-01-29 02:59:59.39	263.85	44.50	-34.7	-35.9	29.9	3.03e+01	92	34	0	680001536	44	6016
2026-01-29 03:00:03.43	266.44	44.38	-35.1	-36.3	29.8	3.03e+01	86	34	0	687341568	44	6304
2026-01-29 03:00:07.46	268.99	44.20	-35.0	-36.2	29.5	3.03e+01	92	34	0	694681600	44	6217
2026-01-29 03:00:11.50	271.52	43.96	-35.2	-36.4	29.5	3.03e+01	91	34	0	702545920	44	6365
2026-01-29 03:00:15.54	274.00	43.67	-34.7	-35.9	29.8	3.03e+01	90	34	0	709885952	44	6036
2026-01-29 03:00:19.58	276.44	43.32	-34.9	-36.1	29.7	3.03e+01	90	34	0	717750272	44	6182
2026-01-29 03:00:23.61	278.81	42.92	-34.9	-36.1	29.7	3.03e+01	92	34	0	725090304	44	6177
2026-01-29 03:00:27.65	281.12	42.48	-34.9	-36.1	29.7	3.03e+01	91	34	0	732954624	44	6156
2026-01-29 03:00:31.69	283.37	41.99	-35.2	-36.4	29.4	3.03e+01	91	34	0	740294656	44	6408
2026-01-29 03:00:35.73	285.55	41.46	-35.2	-36.4	29.6	3.03e+01	92	34	0	748158976	44	6416
2026-01-29 03:00:39.76	287.65	40.90	-35.5	-36.7	29.3	3.03e+01	92	34	0	755499008	44	6605
2026-01-29 03:00:43.80	289.68	40.30	-35.4	-36.6	29.3	3.03e+01	92	34	0	762839040	44	6522
2026-01-29 03:00:47.84	291.63	39.68	-35.4	-36.6	29.3	3.03e+01	91	34	0	770703360	44	6507
2026-01-29 03:00:51.88	293.51	39.04	-35.1	-36.3	29.6	3.03e+01	92	34	0	778043392	44	6325
2026-01-29 03:00:55.92	295.32	38.38	-35.1	-36.3	29.6	3.03e+01	92	34	0	785907712	44	6307
2026-01-29 03:00:59.96	297.05	37.71	-35.0	-36.2	29.7	3.03e+01	92	34	0	793247744	44	6248
2026-01-29 03:01:04.00	298.71	37.02	-34.7	-35.9	29.9	3.03e+01	88	34	0	801112064	44	6046
2026-01-29 03:01:08.03	300.29	36.32	-34.6	-35.8	30.1	3.03e+01	90	34	0	808452096	44	5943
2026-01-29 03:01:12.07	301.82	35.62	-34.2	-35.4	30.3	3.03e+01	92	34	0	815792128	44	5711
2026-01-29 03:01:16.11	303.27	34.91	-34.2	-35.4	30.3	3.03e+01	90	34	0	823656448	44	5699
2026-01-29 03:01:20.14	304.66	34.20	-34.0	-35.1	30.6	3.03e+01	91	34	0	830996480	42	6185
2026-01-29 03:01:24.18	306.00	33.49	-33.6	-34.8	30.8	3.03e+01	91	34	0	838860800	42	5951
2026-01-29 03:01:28.22	307.27	32.78	-33.4	-34.5	31.1	3.03e+01	92	34	0	846200832	42	5762
2026-01-29 03:01:32.26	308.49	32.07	-33.4	-34.5	30.9	3.03e+01	92	34	0	854065152	42	5777
2026-01-29 03:01:36.29	309.66	31.37	-33.4	-34.6	31.0	3.03e+01	91	34	0	861405184	42	5812
2026-01-29 03:01:40.33	310.78	30.68	-33.6	-34.7	30.8	3.03e+01	91	34	0	869269504	42	5908
2026-01-29 03:01:44.36	311.84	29.99	-33.3	-34.4	31.1	3.03e+01	90	34	0	876609536	42	5723
2026-01-29 03:01:48.40	312.87	29.31	-33.7	-34.9	30.6	3.03e+01	92	34	0	883949568	42	6022
2026-01-29 03:01:52.44	313.85	28.64	-33.8	-35.0	30.6	3.03e+01	92	34	0	891813888	42	6098
2026-01-29 03:01:56.47	314.79	27.98	-34.0	-35.1	30.6	3.03e+01	92	34	0	899153920	42	6191
2026-01-29 03:02:00.51	315.70	27.33	-34.2	-35.4	30.2	3.03e+01	90	34	0	907018240	42	6362
2026-01-29 03:02:04.54	316.56	26.68	-34.0	-35.1	30.4	3.03e+01	92	34	0	914358272	42	6176
2026-01-29 03:02:08.58	317.39	26.05	-34.2	-35.4	30.4	3.03e+01	92	34	0	922222592	42	6354
2026-01-29 03:02:12.62	318.19	25.43	-34.6	-35.8	29.9	3.03e+01	92	34	0	929562624	42	6680
2026-01-29 03:02:16.66	318.96	24.81	-34.3	-35.4	30.2	3.03e+01	92	34	0	936902656	42	6410
2026-01-29 03:02:20.69	319.70	24.21	-34.3	-35.5	30.1	3.03e+01	92	34	0	944766976	42	6471
2026-01-29 03:02:24.73	320.41	23.62	-34.1	-35.2	30.4	3.03e+01	60	34	0	952107008	42	6242
2026-01-29 03:02:28.77	321.09	23.04	-34.4	-35.6	30.1	3.03e+01	60	34	0	959971328	42	6500
2026-01-29 03:02:32.80	321.75	22.47	-34.4	-35.6	30.1	3.03e+01	60	34	0	967311360	42	6543
2026-01-29 03:02:36.84	322.39	21.91	-34.3	-35.5	30.1	3.03e+01	59	34	0	975175680	42	6430
2026-01-29 03:02:40.88	323.00	21.35	-34.3	-35.5	30.2	3.03e+01	61	34	0	982515712	42	6439
2026-01-29 03:02:44.91	323.59	20.81	-34.3	-35.4	30.1	3.03e+01	58	34	0	989855744	42	6407
2026-01-29 03:02:48.95	324.16	20.28	-34.3	-35.4	30.1	3.03e+01	59	34	0	997720064	42	6415
2026-01-29 03:02:52.99	324.71	19.76	-34.1	-35.2	30.3	3.03e+01	59	34	0	1005060096	42	6275
2026-01-29 03:02:57.02	325.24	19.25	-34.1	-35.2	30.4	3.03e+01	59	34	0	1012924416	42	6251
2026-01-29 03:03:01.05	325.75	18.75	-34.2	-35.4	30.2	3.03e+01	58	34	0	1020264448	42	6353
2026-01-29 03:03:05.09	326.25	18.25	-34.0	-35.2	30.3	3.03e+01	48	34	0	1028128768	42	6241
2026-01-29 03:03:09.13	326.73	17.77	-34.2	-35.3	30.2	3.03e+01	59	34	0	1035468800	42	6346
2026-01-29 03:03:13.17	327.20	17.29	-34.1	-35.3	30.3	3.03e+01	44	34	0	1043333120	42	6307
2026-01-29 03:03:17.20	327.65	16.82	-34.0	-35.2	30.4	3.03e+01	60	34	0	1050673152	42	6210
2026-01-29 03:03:21.24	328.09	16.36	-34.0	-35.2	30.2	3.03e+01	57	34	0	1058013184	42	6221
2026-01-29 03:03:25.28	328.51	15.91	-33.9	-35.1	30.4	3.03e+01	59	34	0	1065877504	42	6146
2026-01-29 03:03:29.31	328.92	15.47	-34.0	-35.2	30.3	3.03e+01	46	34	0	1073217536	42	6224
2026-01-29 03:03:33.35	329.32	15.03	-34.2	-35.4	30.0	3.03e+01	57	34	0	1081081856	42	6351
2026-01-29 03:03:37.39	329.71	14.60	-34.2	-35.4	30.0	3.03e+01	51	34	0	1088421888	42	6403
2026-01-29 03:03:41.43	330.08	14.18	-34.2	-35.4	30.0	3.03e+01	60	34	0	1096286208	42	6407
2026-01-29 03:03:45.46	330.45	13.77	-34.4	-35.6	29.9	3.03e+01	50	34	0	1103626240	42	6541
2026-01-29 03:03:49.50	330.80	13.36	-34.3	-35.5	29.9	3.03e+01	58	34	0	1111490560	42	6443
2026-01-29 03:03:53.53	331.15	12.96	-34.6	-35.8	29.6	3.03e+01	44	34	0	1118830592	42	6718
2026-01-29 03:03:57.57	331.49	12.56	-34.6	-35.7	29.7	3.03e+01	55	34	0	1126170624	42	6648
2026-01-29 03:04:01.60	331.81	12.18	-34.9	-36.1	29.4	3.03e+01	47	34	0	1134034944	42	6961
2026-01-29 03:04:05.63	332.13	11.79	-34.8	-36.0	29.5	3.03e+01	61	34	0	1141374976	42	6834
2026-01-29 03:04:09.67	332.44	11.42	-34.8	-36.0	29.3	3.03e+01	44	34	0	1149239296	44	6106
2026-01-29 03:04:13.70	332.74	11.05	-34.9	-36.1	29.3	3.03e+01	58	34	0	1156579328	44	6178
2026-01-29 03:04:17.74	333.04	10.68	-34.9	-36.2	29.2	3.03e+01	53	34	0	1164443648	44	6208
2026-01-29 03:04:21.78	333.33	10.32	-35.0	-36.3	29.1	3.03e+01	61	33	0	1171783680	44	6284
2026-01-29 03:04:25.81	333.61	9.97	-35.2	-36.5	29.0	3.03e+01	58	34	0	1179123712	44	6435
2026-01-29 03:04:29.85	333.88	9.62	-35.7	-45.8	3.6	3.03e+01	0	34	104	1185939456	44	18878
2026-01-29 03:04:33.89	334.15	9.27	-41.4	-52.1	3.4	3.03e+01	0	34	104	1185939456	48	31038
2026-01-29 03:04:37.93	334.41	8.93	-37.3	-47.5	3.6	3.03e+01	0	33	104	1185939456	50	16220
2026-01-29 03:04:41.97	334.67	8.60	-42.2	-53.2	3.5	3.03e+01	0	33	104	1185939456	50	31238
2026-01-29 03:04:46.00	334.92	8.26	-36.3	-46.6	3.6	3.03e+01	0	33	104	1185939456	48	16374
2026-01-29 03:04:50.04	335.16	7.94	-47.0	-61.1	3.4	3.03e+01	0	33	104	1185939456	60	43710
2026-01-29 03:04:54.08	335.40	7.62	-37.7	-48.0	3.6	3.03e+01	0	33	104	1185939456	50	17216
2026-01-29 03:04:58.11	335.63	7.30	-47.1	-62.1	3.5	3.03e+01	0	33	104	1185939456	60	49182
2026-01-29 03:05:02.15	335.86	6.98	-38.3	-48.8	3.5	3.03e+01	0	33	104	1185939456	50	18851
2026-01-29 03:05:06.19	336.08	6.67	-47.4	-63.7	3.5	3.03e+01	0	33	104	1185939456	60	58983
2026-01-29 03:05:10.23	336.30	6.37	-37.4	-47.8	3.5	3.03e+01	0	33	104	1185939456	50	16753
2026-01-29 03:05:14.27	336.52	6.06	-46.6	-63.6	3.5	3.03e+01	0	33	104	1185939456	60	58209
2026-01-29 03:05:18.31	336.73	5.77	-39.8	-50.6	3.5	3.03e+01	0	33	104	1185939456	54	18441
2026-01-29 03:05:22.34	336.93	5.47	-44.2	-59.0	3.5	3.03e+01	0	33	104	1185939456	60	34212
2026-01-29 03:05:26.38	337.13	5.18	-40.8	-52.1	3.5	3.03e+01	0	33	104	1185939456	56	19528
2026-01-29 03:05:30.42	337.33	4.89	-44.2	-60.5	3.5	3.03e+01	0	33	104	1185939456	60	40800
2026-01-29 03:05:34.45	337.53	4.60	-43.0	-55.4	3.5	3.03e+01	0	33	104	1185939456	60	22768
2026-01-29 03:05:38.49	337.72	4.32	-44.2	-61.5	3.5	3.03e+01	0	33	104	1185939456	60	45615
2026-01-29 03:05:42.53	337.90	4.04	-44.4	-60.4	3.5	3.03e+01	0	33	104	1185939456	60	40334
2026-01-29 03:05:46.57	338.09	3.77	-44.3	-62.0	3.5	3.03e+01	0	33	104	1185939456	60	48559
2026-01-29 03:05:50.60	338.27	3.49	-44.3	-62.1	3.5	3.03e+01	0	33	104	1185939456	60	49000
2026-01-29 03:05:54.64	338.44	3.22	-44.3	-62.2	3.5	3.03e+01	0	33	104	1185939456	60	49313
2026-01-29 03:05:58.68	338.62	2.95	-44.3	-62.2	3.5	3.03e+01	0	33	104	1185939456	60	49587
2026-01-29 03:06:02.71	338.79	2.69	-49.0	-66.5	3.5	3.03e+01	0	33	104	1185939456	60	81165
2026-01-29 03:06:06.74	338.95	2.43	-48.8	-67.0	3.5	3.03e+01	0	33	104	1185939456	60	86351
2026-01-29 03:06:10.78	339.12	2.17	-49.1	-67.1	3.5	3.03e+01	0	33	104	1185939456	60	87332
2026-01-29 03:06:14.82	339.28	1.91	-49.1	-67.0	3.5	3.03e+01	0	33	104	1185939456	60	86560
2026-01-29 03:06:18.86	339.44	1.65	-49.1	-67.0	3.5	3.03e+01	0	33	104	1185939456	60	86574
2026-01-29 03:06:22.90	339.60	1.40	-49.2	-67.1	3.5	3.03e+01	0	33	104	1185939456	60	87050
2026-01-29 03:06:26.94	339.75	1.15	-49.2	-67.0	3.5	3.03e+01	0	33	104	1185939456	60	86541
2026-01-29 03:06:30.99	339.90	0.90	-49.2	-67.0	3.5	3.03e+01	0	33	104	1185939456	60	86490
2026-01-29 03:06:35.03	340.05	0.65	-49.2	-67.0	3.5	3.03e+01	0	33	104	1185939456	60	86366
2026-01-29 03:06:39.07	340.20	0.41	-49.2	-67.1	3.5	3.03e+01	0	33	104	1185939456	60	86690
2026-01-29 03:06:43.10	340.35	0.17	-49.2	-67.1	3.5	3.03e+01	0	33	104	1185939456	60	86736
2026-01-29 03:06:47.14	340.49	-0.07	-49.2	-67.0	3.5	3.03e+01	0	33	104	1185939456	60	85961

#Closed at: 2026-01-29 03:06:47
#Recorded file [1185 MB]: D:/lorett/data/35029_260129_145307.dat