passes_logs/2026/01/29/R4.6S_Anadyr/R4.6S_Anadyr__20260129_145241_NOAA_21_JPSS-2_rec.log

#Pass ID: 20260129_145241_NOAA 21 (JPSS-2)
#Satellite: NOAA 21 (JPSS-2)
#Configuration: NOAA-21
#almurnet v.1.7.20251203
#Start time: 2026-01-29 14:52:43

#Version: 2.2.20231116
#Station: R4.6S_Anadyr
#Location: 177.4865 lon 64.73178 lat
#TLE: 1 54234U 22150A   26028.89828222  .00000145  00000+0  89569-4 0  9997
#TLE: 2 54234  98.7511 329.6308 0000927 198.8651 161.2491 14.19540676166783

#Time	Az	El	Level	Level2	SNR	BER	BlckErr	Temp	State	Recorded	gain1	gain2
2026-01-29 14:52:43.63	20.82	0.13	-49.0	-66.7	3.5	3.02e+01	0	26	0	0	60	83402
2026-01-29 14:52:47.65	20.82	0.37	-48.8	-61.6	3.5	1.52e+00	0	28	104	0	60	42278
2026-01-29 14:52:51.70	20.82	0.61	-48.8	-61.7	3.5	1.52e+00	0	28	104	0	60	42618
2026-01-29 14:52:55.74	20.82	0.86	-48.8	-61.6	3.5	1.52e+00	0	28	104	0	60	42340
2026-01-29 14:52:59.78	20.82	1.11	-48.6	-61.4	3.5	1.52e+00	0	28	104	0	60	41458
2026-01-29 14:53:03.82	20.81	1.36	-48.0	-61.0	3.5	1.52e+00	0	28	104	0	60	39274
2026-01-29 14:53:07.86	20.81	1.61	-47.3	-59.9	3.5	1.52e+00	0	28	104	0	60	34839
2026-01-29 14:53:11.90	20.81	1.87	-47.3	-59.9	3.5	1.52e+00	0	28	104	0	60	34566
2026-01-29 14:53:15.94	20.81	2.13	-47.3	-60.1	3.5	1.52e+00	0	28	104	0	60	35435
2026-01-29 14:53:19.97	20.81	2.38	-47.2	-59.5	3.5	1.52e+00	0	28	104	0	60	33084
2026-01-29 14:53:24.01	20.81	2.65	-47.0	-57.2	3.6	1.48e+00	0	28	104	0	60	25414
2026-01-29 14:53:28.06	20.80	2.91	-47.1	-58.3	3.6	1.51e+00	0	28	104	0	60	28704
2026-01-29 14:53:32.10	20.80	3.18	-44.6	-48.1	11.3	3.20e-03	122	28	0	6291456	60	8899
2026-01-29 14:53:36.14	20.80	3.45	-41.5	-43.4	16.0	0.00e+00	123	28	0	18874368	56	6563
2026-01-29 14:53:40.18	20.79	3.72	-41.0	-42.8	16.5	0.00e+00	123	28	0	31457280	54	6838
2026-01-29 14:53:44.21	20.79	4.00	-47.1	-57.9	3.7	1.51e+00	0	28	104	42991616	60	27485
2026-01-29 14:53:48.25	20.78	4.27	-38.5	-39.8	19.7	0.00e+00	122	28	0	44040192	50	6071
2026-01-29 14:53:52.29	20.78	4.56	-38.5	-39.7	19.7	0.00e+00	122	28	0	56623104	50	6057
2026-01-29 14:53:56.32	20.77	4.84	-37.6	-38.8	20.6	0.00e+00	120	29	0	69206016	48	6093
2026-01-29 14:54:00.35	20.76	5.12	-37.7	-38.9	20.6	0.00e+00	123	28	0	81788928	48	6159
2026-01-29 14:54:04.39	20.76	5.41	-37.3	-38.4	20.9	0.00e+00	123	29	0	94371840	48	5846
2026-01-29 14:54:08.43	20.75	5.71	-37.3	-38.4	21.0	0.00e+00	123	29	0	106954752	48	5837
2026-01-29 14:54:12.46	20.74	6.00	-36.9	-38.0	21.4	0.00e+00	123	29	0	119537664	48	5589
2026-01-29 14:54:16.50	20.73	6.30	-37.0	-38.1	21.3	0.00e+00	122	29	0	132120576	48	5600
2026-01-29 14:54:20.54	20.72	6.61	-36.9	-37.9	21.5	0.00e+00	122	29	0	144703488	46	6202
2026-01-29 14:54:24.58	20.72	6.91	-36.7	-37.8	21.6	0.00e+00	121	29	0	158334976	46	6111
2026-01-29 14:54:28.62	20.71	7.23	-37.2	-38.3	21.2	0.00e+00	122	29	0	169869312	46	6454
2026-01-29 14:54:32.66	20.69	7.54	-37.0	-38.1	21.5	0.00e+00	123	29	0	183500800	46	6302
2026-01-29 14:54:36.70	20.68	7.86	-37.0	-38.1	21.6	0.00e+00	122	29	0	196083712	46	6308
2026-01-29 14:54:40.74	20.67	8.18	-36.3	-37.4	22.2	0.00e+00	120	29	0	208666624	46	5803
2026-01-29 14:54:44.77	20.66	8.51	-36.2	-37.2	22.3	0.00e+00	123	29	0	221249536	46	5701
2026-01-29 14:54:48.81	20.65	8.84	-36.1	-37.2	22.4	0.00e+00	122	29	0	233832448	46	5671
2026-01-29 14:54:52.84	20.63	9.17	-36.1	-37.1	22.3	0.00e+00	122	29	0	246415360	46	5640
2026-01-29 14:54:56.88	20.62	9.51	-36.2	-37.3	22.3	0.00e+00	122	29	0	258998272	46	5729
2026-01-29 14:55:00.92	20.60	9.86	-35.9	-36.9	22.6	0.00e+00	122	29	0	271581184	46	5493
2026-01-29 14:55:04.96	20.58	10.21	-35.5	-36.5	22.9	0.00e+00	122	29	0	284164096	44	5902
2026-01-29 14:55:09.00	20.57	10.56	-35.6	-36.6	22.9	0.00e+00	123	29	0	296747008	44	5944
2026-01-29 14:55:13.04	20.55	10.92	-35.4	-36.4	23.1	0.00e+00	122	29	0	309329920	44	5835
2026-01-29 14:55:17.07	20.53	11.29	-35.3	-36.3	23.1	0.00e+00	123	29	0	321912832	44	5760
2026-01-29 14:55:21.11	20.51	11.66	-35.1	-36.1	23.3	0.00e+00	120	29	0	334495744	44	5605
2026-01-29 14:55:25.15	20.49	12.03	-35.1	-36.1	23.4	0.00e+00	120	29	0	347078656	44	5618
2026-01-29 14:55:29.18	20.47	12.42	-35.0	-35.9	23.6	0.00e+00	122	29	0	359661568	44	5504
2026-01-29 14:55:33.22	20.45	12.80	-35.0	-35.9	23.6	0.00e+00	123	29	0	372244480	44	5512
2026-01-29 14:55:37.26	20.42	13.20	-34.6	-35.5	23.9	0.00e+00	120	29	0	384827392	42	5919
2026-01-29 14:55:41.30	20.40	13.60	-34.6	-35.5	24.0	0.00e+00	123	29	0	397410304	42	5866
2026-01-29 14:55:45.33	20.37	14.01	-34.6	-35.5	24.0	0.00e+00	123	29	0	409993216	42	5910
2026-01-29 14:55:49.37	20.34	14.42	-34.6	-35.5	24.0	0.00e+00	122	29	0	422576128	42	5878
2026-01-29 14:55:53.41	20.32	14.84	-34.4	-35.4	24.2	0.00e+00	122	29	0	435159040	42	5798
2026-01-29 14:55:57.45	20.29	15.27	-34.5	-35.4	24.1	0.00e+00	120	29	0	447741952	42	5796
2026-01-29 14:56:01.49	20.25	15.71	-34.4	-35.3	24.2	0.00e+00	123	29	0	460324864	42	5782
2026-01-29 14:56:05.53	20.22	16.15	-34.5	-35.4	24.1	0.00e+00	122	29	0	472907776	42	5833
2026-01-29 14:56:09.57	20.19	16.61	-34.6	-35.5	23.9	0.00e+00	120	29	0	485490688	42	5921
2026-01-29 14:56:13.61	20.15	17.07	-34.7	-35.6	24.1	0.00e+00	120	29	0	498073600	42	5943
2026-01-29 14:56:17.65	20.11	17.54	-34.6	-35.5	24.1	0.00e+00	120	29	0	510656512	42	5906
2026-01-29 14:56:21.69	20.08	18.02	-34.5	-35.4	24.1	0.00e+00	123	29	0	524288000	42	5852
2026-01-29 14:56:25.73	20.03	18.51	-34.5	-35.4	24.1	0.00e+00	123	29	0	535822336	42	5834
2026-01-29 14:56:29.77	19.99	19.01	-34.4	-35.3	24.3	0.00e+00	122	29	0	549453824	42	5751
2026-01-29 14:56:33.80	19.95	19.52	-34.4	-35.3	24.2	0.00e+00	123	29	0	562036736	42	5758
2026-01-29 14:56:37.84	19.90	20.04	-34.3	-35.2	24.3	0.00e+00	123	29	0	574619648	42	5669
2026-01-29 14:56:41.87	19.85	20.57	-34.2	-35.1	24.5	0.00e+00	123	29	0	587202560	42	5609
2026-01-29 14:56:45.91	19.80	21.11	-34.0	-34.9	24.6	0.00e+00	121	29	0	599785472	42	5501
2026-01-29 14:56:49.95	19.74	21.67	-33.6	-34.4	24.9	0.00e+00	120	29	0	612368384	40	5858
2026-01-29 14:56:53.99	19.69	22.24	-33.3	-34.2	25.1	0.00e+00	123	29	0	624951296	40	5681
2026-01-29 14:56:58.04	19.63	22.82	-33.0	-33.8	25.3	0.00e+00	123	29	0	637534208	40	5465
2026-01-29 14:57:02.08	19.57	23.41	-32.8	-33.6	25.5	0.00e+00	123	29	0	650117120	40	5315
2026-01-29 14:57:06.12	19.50	24.02	-32.6	-33.5	25.7	0.00e+00	122	29	0	662700032	38	5875
2026-01-29 14:57:10.16	19.43	24.64	-32.8	-33.6	25.5	0.00e+00	120	29	0	675282944	38	5982
2026-01-29 14:57:14.19	19.36	25.28	-33.0	-33.8	25.3	0.00e+00	121	29	0	687865856	38	6107
2026-01-29 14:57:18.23	19.29	25.93	-33.4	-34.3	25.0	0.00e+00	123	29	0	700448768	38	6455
2026-01-29 14:57:22.27	19.21	26.60	-33.9	-34.7	24.7	0.00e+00	123	29	0	713031680	40	6055
2026-01-29 14:57:26.31	19.12	27.29	-34.2	-35.1	24.5	0.00e+00	123	29	0	725614592	40	6326
2026-01-29 14:57:30.35	19.03	27.99	-34.7	-35.6	24.2	0.00e+00	120	29	0	738197504	40	6668
2026-01-29 14:57:34.39	18.94	28.71	-35.0	-36.0	23.9	0.00e+00	122	29	0	750780416	42	6212
2026-01-29 14:57:38.43	18.84	29.45	-34.7	-35.6	24.3	0.00e+00	122	29	0	763363328	42	5953
2026-01-29 14:57:42.47	18.74	30.21	-34.2	-35.1	24.6	0.00e+00	123	29	0	775946240	42	5637
2026-01-29 14:57:46.51	18.63	31.00	-33.9	-34.7	24.9	0.00e+00	123	29	0	788529152	42	5388
2026-01-29 14:57:50.56	18.51	31.80	-33.8	-34.7	24.8	0.00e+00	123	29	0	801112064	40	6024
2026-01-29 14:57:54.59	18.39	32.62	-34.1	-35.0	24.6	0.00e+00	121	29	0	813694976	40	6207
2026-01-29 14:57:58.63	18.26	33.47	-34.6	-35.5	24.3	0.00e+00	123	29	0	826277888	40	6641
2026-01-29 14:58:02.67	18.12	34.35	-35.7	-36.7	23.3	0.00e+00	123	29	0	838860800	42	6727
2026-01-29 14:58:06.70	17.98	35.24	-35.9	-36.8	23.1	0.00e+00	123	29	0	851443712	44	6109
2026-01-29 14:58:10.74	17.82	36.17	-36.2	-37.2	22.9	0.00e+00	122	29	0	865075200	44	6382
2026-01-29 14:58:14.78	17.66	37.12	-36.1	-37.0	22.9	0.00e+00	123	29	0	876609536	44	6270
2026-01-29 14:58:18.82	17.48	38.10	-36.4	-37.3	22.4	0.00e+00	123	29	0	890241024	44	6498
2026-01-29 14:58:22.86	17.29	39.10	-36.2	-37.1	22.9	0.00e+00	123	29	0	902823936	44	6338
2026-01-29 14:58:26.90	17.09	40.14	-36.4	-37.4	22.9	0.00e+00	123	29	0	915406848	44	6541
2026-01-29 14:58:30.94	16.87	41.21	-36.1	-37.0	23.2	0.00e+00	123	29	0	927989760	44	6268
2026-01-29 14:58:34.98	16.64	42.31	-36.7	-37.7	22.6	0.00e+00	120	29	0	940572672	44	6777
2026-01-29 14:58:39.02	16.39	43.44	-37.1	-38.1	22.3	0.00e+00	122	29	0	953155584	46	6336
2026-01-29 14:58:43.06	16.12	44.61	-36.9	-37.9	22.5	0.00e+00	123	29	0	965738496	46	6153
2026-01-29 14:58:47.10	15.83	45.82	-37.1	-38.1	22.2	0.00e+00	123	29	0	978321408	46	6279
2026-01-29 14:58:51.15	15.51	47.06	-36.9	-38.0	22.2	0.00e+00	123	29	0	990904320	46	6206
2026-01-29 14:58:55.19	15.16	48.33	-36.3	-37.2	23.0	0.00e+00	121	29	0	1003487232	46	5710
2026-01-29 14:58:59.23	14.78	49.65	-36.2	-37.2	22.8	0.00e+00	120	29	0	1016070144	46	5713
2026-01-29 14:59:03.27	14.37	51.00	-36.2	-37.2	23.1	0.00e+00	122	29	0	1028653056	46	5660
2026-01-29 14:59:07.31	13.92	52.39	-35.6	-36.6	23.3	0.00e+00	122	29	0	1041235968	44	5941
2026-01-29 14:59:11.35	13.42	53.81	-35.2	-36.2	23.7	0.00e+00	122	29	0	1053818880	44	5667
2026-01-29 14:59:15.39	12.86	55.28	-34.0	-34.9	24.6	0.00e+00	122	29	0	1066401792	42	5486
2026-01-29 14:59:19.42	12.24	56.78	-33.7	-34.6	25.0	0.00e+00	123	29	0	1078984704	40	5964
2026-01-29 14:59:23.46	11.55	58.32	-33.2	-34.1	25.3	0.00e+00	123	29	0	1091567616	40	5608
2026-01-29 14:59:27.50	10.77	59.90	-33.3	-34.2	25.2	0.00e+00	123	29	0	1104150528	40	5684
2026-01-29 14:59:31.54	9.89	61.51	-33.1	-33.9	25.1	0.00e+00	122	29	0	1116733440	40	5503
2026-01-29 14:59:35.58	8.87	63.16	-32.7	-33.5	25.5	0.00e+00	123	29	0	1129316352	38	5912
2026-01-29 14:59:39.62	7.71	64.84	-32.5	-33.3	25.8	0.00e+00	122	29	0	1141899264	38	5767
2026-01-29 14:59:43.66	6.35	66.54	-32.3	-33.1	25.9	0.00e+00	122	29	0	1154482176	38	5650
2026-01-29 14:59:47.70	4.75	68.27	-32.2	-33.0	26.1	0.00e+00	120	29	0	1167065088	38	5552
2026-01-29 14:59:51.75	2.84	70.02	-33.2	-34.1	25.3	0.00e+00	122	29	0	1180696576	38	6320
2026-01-29 14:59:55.79	0.54	71.76	-33.2	-34.1	25.3	0.00e+00	123	29	0	1193279488	38	6312
2026-01-29 14:59:59.82	357.72	73.50	-32.8	-33.6	25.6	0.00e+00	120	29	0	1205862400	38	5957
2026-01-29 15:00:03.86	354.20	75.22	-32.9	-33.8	25.3	0.00e+00	123	29	0	1218445312	38	6088
2026-01-29 15:00:07.90	349.72	76.89	-32.7	-33.5	25.2	0.00e+00	122	29	0	1231028224	38	5920
2026-01-29 15:00:11.94	343.92	78.48	-32.8	-33.7	25.4	0.00e+00	120	29	0	1243611136	38	6005
2026-01-29 15:00:15.98	336.31	79.93	-33.1	-34.0	25.3	0.00e+00	122	29	0	1256194048	38	6250
2026-01-29 15:00:20.02	326.32	81.16	-33.0	-33.9	25.2	0.00e+00	122	29	0	1268776960	38	6156
2026-01-29 15:00:24.06	313.59	82.05	-33.4	-34.3	24.7	0.00e+00	122	29	0	1281359872	38	6481
2026-01-29 15:00:28.10	298.56	82.47	-33.3	-34.2	25.1	0.00e+00	123	29	0	1293942784	38	6417
2026-01-29 15:00:32.14	282.95	82.34	-33.4	-34.3	25.0	0.00e+00	122	29	0	1306525696	38	6467
2026-01-29 15:00:36.18	268.86	81.68	-33.7	-34.6	24.9	0.00e+00	122	29	0	1319108608	40	5974
2026-01-29 15:00:40.22	257.42	80.62	-32.9	-33.8	24.9	0.00e+00	123	29	0	1331691520	40	5430
2026-01-29 15:00:44.26	248.60	79.27	-34.0	-35.0	24.5	0.00e+00	122	29	0	1344274432	40	6209
2026-01-29 15:00:48.30	241.91	77.75	-33.0	-33.8	25.4	0.00e+00	120	29	0	1356857344	40	5439
2026-01-29 15:00:52.34	236.78	76.11	-32.8	-33.6	25.6	0.00e+00	123	29	0	1369440256	38	5973
2026-01-29 15:00:56.38	232.78	74.41	-33.0	-33.9	25.4	0.00e+00	123	29	0	1382023168	38	6185
2026-01-29 15:01:00.41	229.62	72.68	-32.2	-33.0	25.5	0.00e+00	122	29	0	1394606080	38	5570
2026-01-29 15:01:04.45	227.05	70.93	-33.3	-34.2	24.6	0.00e+00	123	29	0	1407188992	38	6370
2026-01-29 15:01:08.49	224.95	69.18	-32.4	-33.3	25.7	0.00e+00	123	29	0	1419771904	38	5740
2026-01-29 15:01:12.53	223.20	67.44	-34.2	-35.1	24.5	0.00e+00	123	29	0	1432354816	40	6295
2026-01-29 15:01:16.56	221.72	65.73	-31.4	-32.2	26.0	0.00e+00	123	29	0	1444937728	36	5697
2026-01-29 15:01:20.60	220.45	64.03	-32.7	-33.5	25.1	0.00e+00	122	29	0	1457520640	36	6642
2026-01-29 15:01:24.63	219.36	62.37	-32.4	-33.2	25.8	0.00e+00	122	29	0	1470103552	36	6373
2026-01-29 15:01:28.67	218.41	60.73	-33.8	-34.7	24.3	0.00e+00	122	29	0	1482686464	40	6048
2026-01-29 15:01:32.71	217.57	59.13	-32.6	-33.4	25.7	0.00e+00	122	29	0	1495269376	38	5837
2026-01-29 15:01:36.75	216.83	57.56	-35.1	-36.0	24.0	0.00e+00	123	29	0	1507852288	42	6275
2026-01-29 15:01:40.79	216.18	56.03	-33.5	-34.3	25.2	0.00e+00	122	29	0	1521483776	40	5755
2026-01-29 15:01:44.83	215.59	54.54	-35.2	-36.2	23.4	0.00e+00	122	29	0	1533018112	42	6377
2026-01-29 15:01:48.87	215.06	53.09	-36.1	-37.1	22.9	0.00e+00	123	29	0	1546649600	44	6326
2026-01-29 15:01:52.91	214.58	51.68	-35.3	-36.3	23.8	0.00e+00	123	29	0	1559232512	44	5741
2026-01-29 15:01:56.95	214.14	50.30	-35.4	-36.3	23.6	0.00e+00	123	29	0	1571815424	44	5740
2026-01-29 15:02:00.99	213.75	48.96	-37.1	-38.1	22.3	0.00e+00	123	29	0	1584398336	46	6293
2026-01-29 15:02:05.03	213.38	47.66	-36.0	-37.0	22.8	0.00e+00	123	29	0	1596981248	46	5544
2026-01-29 15:02:09.06	213.05	46.40	-36.6	-37.6	22.6	0.00e+00	122	29	0	1609564160	46	5972
2026-01-29 15:02:13.10	212.75	45.18	-37.1	-38.1	22.2	0.00e+00	120	29	0	1622147072	46	6331
2026-01-29 15:02:17.14	212.46	43.99	-36.8	-37.7	22.6	0.00e+00	123	29	0	1634729984	46	6062
2026-01-29 15:02:21.18	212.20	42.83	-37.7	-38.8	21.7	0.00e+00	120	29	0	1647312896	48	6099
2026-01-29 15:02:25.22	211.96	41.71	-36.1	-37.0	23.2	0.00e+00	123	29	0	1659895808	46	5576
2026-01-29 15:02:29.26	211.73	40.62	-36.3	-37.3	22.7	0.00e+00	123	29	0	1672478720	46	5780
2026-01-29 15:02:33.29	211.52	39.56	-36.5	-37.5	22.8	0.00e+00	123	29	0	1685061632	46	5864
2026-01-29 15:02:37.33	211.32	38.54	-36.9	-37.9	22.3	0.00e+00	123	29	0	1697644544	46	6181
2026-01-29 15:02:41.37	211.14	37.54	-36.0	-37.0	23.3	0.00e+00	123	29	0	1710227456	46	5531
2026-01-29 15:02:45.41	210.97	36.57	-35.5	-36.4	23.5	0.00e+00	123	29	0	1722810368	44	5837
2026-01-29 15:02:49.45	210.80	35.63	-35.7	-36.6	23.6	0.00e+00	120	29	0	1735393280	44	5985
2026-01-29 15:02:53.49	210.65	34.72	-35.1	-36.0	23.9	0.00e+00	122	29	0	1747976192	44	5589
2026-01-29 15:02:57.53	210.51	33.83	-34.7	-35.6	24.2	0.00e+00	123	29	0	1760559104	42	5971
2026-01-29 15:03:01.57	210.37	32.96	-34.5	-35.4	24.2	0.00e+00	122	29	0	1773142016	42	5840
2026-01-29 15:03:05.61	210.24	32.12	-34.8	-35.7	24.2	0.00e+00	122	29	0	1785724928	42	6031
2026-01-29 15:03:09.65	210.12	31.30	-34.5	-35.4	24.4	0.00e+00	123	29	0	1798307840	42	5810
2026-01-29 15:03:13.68	210.01	30.51	-34.6	-35.4	24.5	0.00e+00	122	29	0	1810890752	42	5856
2026-01-29 15:03:17.72	209.90	29.74	-34.2	-35.1	24.6	0.00e+00	123	29	0	1823473664	42	5641
2026-01-29 15:03:21.76	209.80	28.98	-34.7	-35.6	24.3	0.00e+00	122	29	0	1836056576	42	5969
2026-01-29 15:03:25.80	209.70	28.25	-34.9	-35.8	24.1	0.00e+00	123	29	0	1848639488	42	6118
2026-01-29 15:03:29.84	209.61	27.53	-34.2	-35.1	24.6	0.00e+00	123	29	0	1862270976	42	5642
2026-01-29 15:03:33.88	209.52	26.83	-33.6	-34.4	25.0	0.00e+00	123	29	0	1873805312	40	5856
2026-01-29 15:03:37.92	209.44	26.15	-33.5	-34.4	25.0	0.00e+00	123	29	0	1887436800	40	5816
2026-01-29 15:03:41.95	209.36	25.49	-33.6	-34.5	24.9	0.00e+00	123	29	0	1900019712	40	5859
2026-01-29 15:03:45.99	209.28	24.84	-33.5	-34.4	24.8	0.00e+00	123	29	0	1912602624	40	5812
2026-01-29 15:03:50.02	209.21	24.21	-33.8	-34.7	24.5	0.00e+00	122	29	0	1925185536	40	6034
2026-01-29 15:03:54.06	209.14	23.60	-34.0	-34.9	24.5	0.00e+00	123	29	0	1937768448	40	6146
2026-01-29 15:03:58.10	209.08	22.99	-33.6	-34.4	25.0	0.00e+00	122	29	0	1950351360	40	5835
2026-01-29 15:04:02.14	209.01	22.40	-33.4	-34.3	25.1	0.00e+00	122	29	0	1962934272	40	5729
2026-01-29 15:04:06.18	208.95	21.83	-33.4	-34.3	25.0	0.00e+00	123	29	0	1975517184	40	5736
2026-01-29 15:04:10.22	208.90	21.27	-33.4	-34.3	25.1	0.00e+00	120	29	0	1988100096	40	5746
2026-01-29 15:04:14.26	208.84	20.71	-33.4	-34.2	25.1	0.00e+00	120	29	0	2000683008	40	5725
2026-01-29 15:04:18.30	208.79	20.18	-33.7	-34.6	24.9	0.00e+00	120	29	0	2013265920	40	5948
2026-01-29 15:04:22.34	208.74	19.65	-33.9	-34.8	24.8	0.00e+00	121	29	0	2025848832	40	6079
2026-01-29 15:04:26.38	208.69	19.13	-34.1	-35.0	24.6	0.00e+00	120	29	0	2038431744	40	6247
2026-01-29 15:04:30.42	208.64	18.62	-34.4	-35.3	24.4	0.00e+00	122	29	0	2051014656	40	6432
2026-01-29 15:04:34.46	208.60	18.13	-34.5	-35.4	24.2	0.00e+00	120	29	0	2063597568	40	6542
2026-01-29 15:04:38.50	208.56	17.64	-34.8	-35.7	24.0	0.00e+00	120	29	0	2076180480	42	6014
2026-01-29 15:04:42.54	208.52	17.16	-34.9	-35.8	23.9	0.00e+00	123	29	0	2088763392	42	6134
2026-01-29 15:04:46.58	208.48	16.70	-34.9	-35.8	24.0	0.00e+00	122	29	0	2101346304	42	6112
2026-01-29 15:04:50.63	208.44	16.24	-35.1	-36.0	23.8	0.00e+00	122	29	0	2113929216	42	6237
2026-01-29 15:04:54.67	208.40	15.79	-35.1	-36.0	23.8	0.00e+00	122	29	0	2126512128	42	6263
2026-01-29 15:04:58.71	208.37	15.34	-35.3	-36.2	23.7	0.00e+00	122	29	0	2139095040	42	6393
2026-01-29 15:05:02.75	208.34	14.91	-35.3	-36.3	23.6	0.00e+00	123	29	0	2151677952	42	6446
2026-01-29 15:05:06.79	208.30	14.48	-35.3	-36.2	23.6	0.00e+00	122	29	0	2164260864	42	6407
2026-01-29 15:05:10.83	208.27	14.06	-35.2	-36.1	23.7	0.00e+00	122	29	0	2176843776	42	6340
2026-01-29 15:05:14.87	208.24	13.65	-35.3	-36.2	23.5	0.00e+00	122	29	0	2189426688	42	6408
2026-01-29 15:05:18.91	208.22	13.24	-35.2	-36.2	23.6	0.00e+00	120	29	0	2203058176	42	6352
2026-01-29 15:05:22.95	208.19	12.85	-35.2	-36.2	23.6	0.00e+00	123	29	0	2215641088	42	6363
2026-01-29 15:05:26.99	208.16	12.45	-35.3	-36.2	23.6	0.00e+00	123	29	0	2228224000	42	6417
2026-01-29 15:05:31.03	208.14	12.07	-35.3	-36.2	23.5	0.00e+00	120	29	0	2240806912	42	6395
2026-01-29 15:05:35.07	208.11	11.69	-35.4	-36.3	23.5	0.00e+00	122	29	0	2253389824	42	6485
2026-01-29 15:05:39.10	208.09	11.31	-35.4	-36.3	23.5	0.00e+00	123	29	0	2265972736	42	6459
2026-01-29 15:05:43.14	208.07	10.94	-35.5	-36.4	23.4	0.00e+00	122	29	0	2278555648	42	6545
2026-01-29 15:05:47.18	208.05	10.58	-35.4	-36.4	23.3	0.00e+00	123	29	0	2291138560	44	5809
2026-01-29 15:05:51.22	208.03	10.22	-35.4	-36.4	23.4	0.00e+00	122	29	0	2303721472	44	5802
2026-01-29 15:05:55.26	208.01	9.87	-35.6	-36.6	23.1	0.00e+00	123	29	0	2316304384	44	5952
2026-01-29 15:05:59.29	207.99	9.52	-35.6	-36.6	23.2	0.00e+00	122	29	0	2328887296	44	5960
2026-01-29 15:06:03.33	207.97	9.18	-35.8	-36.8	23.0	0.00e+00	122	29	0	2341470208	44	6088
2026-01-29 15:06:07.36	207.95	8.84	-36.1	-37.1	22.8	0.00e+00	123	29	0	2354053120	44	6295
2026-01-29 15:06:11.40	207.94	8.51	-36.0	-36.9	22.8	0.00e+00	123	29	0	2366636032	44	6203
2026-01-29 15:06:15.43	207.92	8.18	-36.3	-37.3	22.5	0.00e+00	122	29	0	2379218944	44	6491
2026-01-29 15:06:19.47	207.90	7.85	-36.8	-37.9	21.9	0.00e+00	122	29	0	2391801856	46	6151
2026-01-29 15:06:23.51	207.89	7.53	-36.6	-37.7	22.2	0.00e+00	123	29	0	2404384768	46	5999
2026-01-29 15:06:27.55	207.87	7.21	-36.7	-37.7	22.0	0.00e+00	123	29	0	2416967680	46	6057
2026-01-29 15:06:31.58	207.86	6.90	-37.0	-38.1	21.7	0.00e+00	123	29	0	2429550592	46	6298
2026-01-29 15:06:35.62	207.85	6.59	-37.5	-38.6	21.3	0.00e+00	122	29	0	2442133504	46	6665
2026-01-29 15:06:39.66	207.83	6.28	-37.5	-38.7	21.2	0.00e+00	122	29	0	2454716416	46	6729
2026-01-29 15:06:43.70	207.82	5.98	-37.5	-38.6	21.2	0.00e+00	123	29	0	2467299328	46	6656
2026-01-29 15:06:47.73	207.81	5.68	-38.1	-39.3	20.5	0.00e+00	122	29	0	2479882240	48	6454
2026-01-29 15:06:51.77	207.80	5.39	-37.8	-39.0	20.8	0.00e+00	123	29	0	2492465152	48	6234
2026-01-29 15:06:55.81	207.79	5.10	-37.9	-39.1	20.6	1.50e-06	122	29	0	2505048064	48	6310
2026-01-29 15:06:59.85	207.78	4.81	-38.2	-39.4	20.2	0.00e+00	122	29	0	2517630976	48	6508
2026-01-29 15:07:03.87	207.77	4.52	-38.6	-39.8	19.8	0.00e+00	122	29	0	2530213888	48	6863
2026-01-29 15:07:07.91	207.76	4.24	-38.5	-39.7	19.9	0.00e+00	123	29	0	2542796800	50	6025
2026-01-29 15:07:11.95	207.75	3.96	-38.6	-39.9	19.8	0.00e+00	122	29	0	2555379712	50	6165
2026-01-29 15:07:15.98	207.74	3.68	-38.9	-40.2	19.5	0.00e+00	123	29	0	2569011200	50	6363
2026-01-29 15:07:20.02	207.73	3.41	-39.2	-40.5	19.1	0.00e+00	122	29	0	2580545536	50	6604
2026-01-29 15:07:24.06	207.73	3.14	-39.3	-40.6	18.9	0.00e+00	123	29	0	2593128448	50	6709
2026-01-29 15:07:28.11	207.72	2.87	-48.1	-61.1	3.5	1.52e+00	0	29	104	2601517056	60	39781
2026-01-29 15:07:32.15	207.71	2.60	-48.8	-61.6	3.5	1.52e+00	0	29	104	2601517056	60	42367
2026-01-29 15:07:36.19	207.71	2.34	-48.9	-61.8	3.5	1.52e+00	0	29	104	2601517056	60	43037
2026-01-29 15:07:40.23	207.70	2.07	-48.8	-61.8	3.5	1.52e+00	0	30	104	2601517056	60	43039
2026-01-29 15:07:44.27	207.69	1.82	-48.8	-61.7	3.5	1.52e+00	0	30	104	2601517056	60	42617
2026-01-29 15:07:48.31	207.69	1.56	-48.7	-61.6	3.5	1.52e+00	0	29	104	2601517056	60	42302
2026-01-29 15:07:52.35	207.68	1.30	-48.8	-61.7	3.5	1.52e+00	0	30	104	2601517056	60	42552
2026-01-29 15:07:56.39	207.68	1.05	-48.7	-61.7	3.5	1.52e+00	0	30	104	2601517056	60	42484
2026-01-29 15:08:00.43	207.67	0.80	-48.7	-61.6	3.5	1.52e+00	0	30	104	2601517056	60	42415
2026-01-29 15:08:04.47	207.67	0.55	-48.7	-61.6	3.5	1.52e+00	0	29	104	2601517056	60	42233
2026-01-29 15:08:08.51	207.66	0.31	-48.7	-61.6	3.5	1.52e+00	0	30	104	2601517056	60	42195
2026-01-29 15:08:12.55	207.66	0.06	-48.7	-61.6	3.5	1.52e+00	0	30	104	2601517056	60	42305

#Closed at: 2026-01-29 15:08:14
#Recorded file [2601 MB]: D:/lorett/data/35029_260130_025243.dat