passes_logs/2026/01/29/R4.6S_Anadyr/R4.6S_Anadyr__20260129_131213_NOAA_21_JPSS-2_rec.log

#Pass ID: 20260129_131213_NOAA 21 (JPSS-2)
#Satellite: NOAA 21 (JPSS-2)
#Configuration: NOAA-21
#almurnet v.1.7.20251203
#Start time: 2026-01-29 13:12:15

#Version: 2.2.20231116
#Station: R4.6S_Anadyr
#Location: 177.4865 lon 64.73178 lat
#TLE: 1 54234U 22150A   26028.89828222  .00000145  00000+0  89569-4 0  9997
#TLE: 2 54234  98.7511 329.6308 0000927 198.8651 161.2491 14.19540676166783

#Time	Az	El	Level	Level2	SNR	BER	BlckErr	Temp	State	Recorded	gain1	gain2
2026-01-29 13:12:15.06	18.74	0.07	-48.9	-63.8	3.5	1.51e+00	0	27	0	0	60	55844
2026-01-29 13:12:19.09	18.94	0.29	-49.1	-61.9	3.5	1.52e+00	0	28	104	0	60	43921
2026-01-29 13:12:23.13	19.15	0.52	-48.8	-61.6	3.5	1.52e+00	0	29	104	0	60	42288
2026-01-29 13:12:27.18	19.35	0.74	-48.8	-61.7	3.5	1.52e+00	0	29	104	0	60	42535
2026-01-29 13:12:31.21	19.56	0.97	-48.6	-61.5	3.5	1.52e+00	0	29	104	0	60	41487
2026-01-29 13:12:35.25	19.77	1.20	-48.1	-61.1	3.5	1.51e+00	0	29	104	0	60	39692
2026-01-29 13:12:39.29	19.99	1.43	-47.6	-60.4	3.5	1.52e+00	0	29	104	0	60	36898
2026-01-29 13:12:43.33	20.21	1.66	-47.4	-60.1	3.5	1.52e+00	0	29	104	0	60	35476
2026-01-29 13:12:47.37	20.43	1.89	-47.3	-60.0	3.5	1.52e+00	0	29	104	0	60	35008
2026-01-29 13:12:51.41	20.65	2.13	-47.3	-60.1	3.5	1.52e+00	0	29	104	0	60	35467
2026-01-29 13:12:55.45	20.88	2.37	-47.3	-59.8	3.5	1.52e+00	0	29	104	0	60	34122
2026-01-29 13:12:59.49	21.11	2.60	-47.3	-60.1	3.5	1.52e+00	0	29	104	0	60	35460
2026-01-29 13:13:03.53	21.35	2.84	-44.7	-48.2	11.4	2.05e-03	123	29	0	4194304	60	8973
2026-01-29 13:13:07.57	21.58	3.09	-38.8	-40.2	19.3	0.00e+00	123	29	0	16777216	52	5663
2026-01-29 13:13:11.61	21.83	3.33	-39.5	-41.0	18.0	0.00e+00	120	29	0	29360128	50	6998
2026-01-29 13:13:15.65	22.07	3.57	-43.3	-46.0	11.2	0.00e+00	123	29	0	41943040	54	9836
2026-01-29 13:13:19.69	22.32	3.82	-39.6	-41.1	18.5	0.00e+00	122	29	0	47185920	54	5610
2026-01-29 13:13:23.73	22.57	4.07	-38.7	-40.0	19.4	0.00e+00	121	29	0	59768832	50	6236
2026-01-29 13:13:27.76	22.83	4.32	-38.9	-40.2	19.4	0.00e+00	123	29	0	72351744	50	6392
2026-01-29 13:13:31.80	23.09	4.57	-38.7	-39.9	19.6	0.00e+00	122	29	0	84934656	50	6191
2026-01-29 13:13:35.84	23.36	4.83	-37.5	-38.7	20.7	0.00e+00	123	29	0	98566144	48	5998
2026-01-29 13:13:39.87	23.63	5.08	-37.5	-38.6	20.8	0.00e+00	123	29	0	111149056	48	5971
2026-01-29 13:13:43.91	23.90	5.34	-37.4	-38.6	21.0	0.00e+00	122	29	0	123731968	48	5931
2026-01-29 13:13:47.95	24.18	5.60	-37.2	-38.3	21.2	0.00e+00	122	29	0	136314880	48	5748
2026-01-29 13:13:51.99	24.46	5.87	-37.1	-38.2	21.3	0.00e+00	123	29	0	148897792	48	5697
2026-01-29 13:13:56.02	24.75	6.13	-37.1	-38.2	21.5	0.00e+00	120	29	0	161480704	46	6358
2026-01-29 13:14:00.07	25.05	6.40	-36.7	-37.8	21.7	0.00e+00	123	30	0	174063616	46	6086
2026-01-29 13:14:04.10	25.34	6.67	-36.7	-37.7	21.8	0.00e+00	123	29	0	186646528	46	6055
2026-01-29 13:14:08.14	25.65	6.94	-36.3	-37.4	22.1	0.00e+00	123	30	0	199229440	46	5809
2026-01-29 13:14:12.18	25.96	7.21	-36.4	-37.5	22.1	0.00e+00	120	29	0	211812352	46	5892
2026-01-29 13:14:16.22	26.27	7.49	-36.4	-37.4	22.1	0.00e+00	123	30	0	224395264	46	5847
2026-01-29 13:14:20.26	26.59	7.77	-36.3	-37.4	22.2	0.00e+00	122	30	0	236978176	46	5818
2026-01-29 13:14:24.29	26.92	8.05	-36.4	-37.4	22.1	0.00e+00	121	30	0	249561088	46	5844
2026-01-29 13:14:28.33	27.25	8.33	-36.3	-37.3	22.2	0.00e+00	122	30	0	262144000	46	5790
2026-01-29 13:14:32.37	27.59	8.62	-36.4	-37.5	22.1	0.00e+00	122	30	0	274726912	46	5870
2026-01-29 13:14:36.41	27.93	8.90	-36.2	-37.2	22.3	0.00e+00	123	30	0	287309824	46	5695
2026-01-29 13:14:40.44	28.28	9.19	-36.1	-37.1	22.4	0.00e+00	120	30	0	299892736	46	5604
2026-01-29 13:14:44.48	28.64	9.49	-36.2	-37.2	22.4	0.00e+00	122	30	0	312475648	46	5705
2026-01-29 13:14:48.52	29.00	9.78	-35.9	-36.9	22.7	0.00e+00	123	30	0	325058560	46	5524
2026-01-29 13:14:52.56	29.37	10.08	-35.6	-36.6	22.9	0.00e+00	122	30	0	337641472	44	5980
2026-01-29 13:14:56.59	29.75	10.38	-35.5	-36.4	23.0	0.00e+00	122	30	0	350224384	44	5842
2026-01-29 13:15:00.63	30.14	10.68	-35.2	-36.1	23.4	0.00e+00	122	30	0	362807296	44	5636
2026-01-29 13:15:04.67	30.53	10.99	-35.2	-36.2	23.3	0.00e+00	123	30	0	375390208	44	5672
2026-01-29 13:15:08.71	30.94	11.30	-35.2	-36.2	23.2	0.00e+00	123	30	0	387973120	44	5700
2026-01-29 13:15:12.74	31.34	11.61	-35.2	-36.2	23.3	0.00e+00	123	30	0	400556032	44	5673
2026-01-29 13:15:16.78	31.76	11.92	-35.0	-35.9	23.5	0.00e+00	120	30	0	413138944	44	5503
2026-01-29 13:15:20.82	32.19	12.24	-34.9	-35.8	23.7	0.00e+00	123	30	0	425721856	44	5426
2026-01-29 13:15:24.86	32.63	12.56	-34.8	-35.7	23.8	0.00e+00	120	30	0	438304768	42	6031
2026-01-29 13:15:28.90	33.07	12.88	-34.8	-35.7	23.7	0.00e+00	122	30	0	450887680	42	6035
2026-01-29 13:15:32.93	33.53	13.21	-34.6	-35.6	23.9	0.00e+00	123	30	0	464519168	42	5932
2026-01-29 13:15:36.97	33.99	13.53	-34.8	-35.7	23.8	0.00e+00	123	30	0	477102080	42	6019
2026-01-29 13:15:41.01	34.46	13.86	-35.0	-35.9	23.6	0.00e+00	123	30	0	489684992	42	6201
2026-01-29 13:15:45.05	34.95	14.20	-34.8	-35.8	23.7	0.00e+00	120	30	0	502267904	42	6078
2026-01-29 13:15:49.09	35.44	14.53	-34.8	-35.7	23.7	0.00e+00	120	30	0	514850816	42	6048
2026-01-29 13:15:53.13	35.95	14.87	-34.9	-35.8	23.8	0.00e+00	120	30	0	527433728	42	6099
2026-01-29 13:15:57.16	36.47	15.21	-35.1	-36.0	23.6	0.00e+00	122	30	0	540016640	42	6274
2026-01-29 13:16:01.20	37.00	15.56	-35.3	-36.3	23.4	0.00e+00	122	30	0	552599552	42	6428
2026-01-29 13:16:05.24	37.54	15.91	-35.4	-36.3	23.4	0.00e+00	123	30	0	565182464	42	6482
2026-01-29 13:16:09.27	38.09	16.25	-35.4	-36.3	23.4	0.00e+00	120	30	0	577765376	42	6493
2026-01-29 13:16:13.30	38.65	16.61	-35.1	-36.1	23.6	0.00e+00	123	30	0	590348288	42	6308
2026-01-29 13:16:17.34	39.23	16.96	-34.9	-35.9	23.8	0.00e+00	123	30	0	602931200	42	6141
2026-01-29 13:16:21.37	39.82	17.32	-34.8	-35.8	23.9	0.00e+00	123	30	0	615514112	42	6076
2026-01-29 13:16:25.41	40.43	17.68	-34.9	-35.8	23.9	0.00e+00	122	30	0	628097024	42	6074
2026-01-29 13:16:29.45	41.05	18.04	-34.6	-35.5	24.0	0.00e+00	123	30	0	640679936	42	5906
2026-01-29 13:16:33.48	41.68	18.40	-34.6	-35.5	24.0	0.00e+00	122	30	0	653262848	42	5874
2026-01-29 13:16:37.52	42.33	18.77	-34.7	-35.6	23.9	0.00e+00	123	30	0	665845760	42	5991
2026-01-29 13:16:41.56	43.00	19.13	-34.7	-35.6	23.9	0.00e+00	120	30	0	678428672	42	5945
2026-01-29 13:16:45.60	43.68	19.50	-34.7	-35.6	24.0	0.00e+00	123	30	0	691011584	42	5962
2026-01-29 13:16:49.64	44.37	19.87	-34.3	-35.2	24.3	0.00e+00	123	30	0	703594496	42	5718
2026-01-29 13:16:53.67	45.09	20.25	-34.2	-35.1	24.3	0.00e+00	123	30	0	716177408	42	5622
2026-01-29 13:16:57.71	45.82	20.62	-33.8	-34.7	24.7	0.00e+00	122	30	0	728760320	40	6024
2026-01-29 13:17:01.75	46.57	20.99	-33.8	-34.7	24.6	0.00e+00	122	30	0	741343232	40	6005
2026-01-29 13:17:05.78	47.33	21.37	-33.7	-34.5	24.6	0.00e+00	122	30	0	753926144	40	5926
2026-01-29 13:17:09.82	48.11	21.74	-33.6	-34.5	24.8	0.00e+00	122	30	0	766509056	40	5899
2026-01-29 13:17:13.86	48.92	22.12	-33.8	-34.7	24.7	0.00e+00	122	30	0	779091968	40	5999
2026-01-29 13:17:17.89	49.74	22.49	-33.4	-34.3	24.9	0.00e+00	123	30	0	791674880	40	5736
2026-01-29 13:17:21.94	50.58	22.87	-33.4	-34.3	24.9	0.00e+00	123	30	0	804257792	40	5726
2026-01-29 13:17:25.98	51.44	23.24	-33.6	-34.5	24.9	0.00e+00	120	30	0	816840704	40	5875
2026-01-29 13:17:30.02	52.33	23.61	-33.9	-34.8	24.6	0.00e+00	123	30	0	829423616	40	6072
2026-01-29 13:17:34.05	53.23	23.98	-34.0	-34.9	24.6	0.00e+00	120	30	0	842006528	40	6173
2026-01-29 13:17:38.09	54.15	24.35	-33.7	-34.6	24.8	0.00e+00	123	30	0	855638016	40	5950
2026-01-29 13:17:42.13	55.10	24.72	-33.9	-34.7	24.7	0.00e+00	123	30	0	868220928	40	6061
2026-01-29 13:17:46.16	56.06	25.08	-34.2	-35.1	24.5	0.00e+00	123	30	0	879755264	40	6321
2026-01-29 13:17:50.20	57.05	25.44	-34.1	-35.0	24.6	0.00e+00	123	30	0	893386752	40	6248
2026-01-29 13:17:54.24	58.06	25.80	-34.1	-35.0	24.5	0.00e+00	123	30	0	905969664	40	6233
2026-01-29 13:17:58.29	59.10	26.15	-34.1	-34.9	24.7	0.00e+00	123	30	0	918552576	40	6197
2026-01-29 13:18:02.33	60.15	26.49	-34.0	-34.9	24.5	0.00e+00	123	30	0	931135488	40	6177
2026-01-29 13:18:06.35	61.23	26.83	-33.8	-34.7	24.5	0.00e+00	122	30	0	943718400	40	5995
2026-01-29 13:18:10.39	62.33	27.16	-33.9	-34.7	24.6	0.00e+00	122	30	0	956301312	40	6062
2026-01-29 13:18:14.43	63.45	27.49	-33.9	-34.8	24.2	0.00e+00	122	30	0	968884224	40	6122
2026-01-29 13:18:18.46	64.60	27.81	-33.9	-34.8	24.6	0.00e+00	122	30	0	981467136	40	6093
2026-01-29 13:18:22.49	65.76	28.11	-33.9	-34.8	24.7	0.00e+00	123	30	0	994050048	40	6065
2026-01-29 13:18:26.53	66.95	28.41	-34.2	-35.1	24.4	0.00e+00	122	30	0	1006632960	40	6298
2026-01-29 13:18:30.57	68.17	28.70	-33.8	-34.7	24.8	0.00e+00	120	30	0	1019215872	40	6027
2026-01-29 13:18:34.61	69.40	28.98	-34.2	-35.1	24.4	0.00e+00	122	30	0	1031798784	40	6282
2026-01-29 13:18:38.65	70.66	29.25	-34.1	-35.0	24.5	0.00e+00	123	30	0	1044381696	40	6250
2026-01-29 13:18:42.69	71.93	29.50	-33.8	-34.7	24.8	0.00e+00	123	30	0	1056964608	40	6039
2026-01-29 13:18:46.73	73.23	29.74	-34.2	-35.1	24.5	0.00e+00	123	30	0	1069547520	40	6292
2026-01-29 13:18:50.76	74.54	29.97	-34.1	-35.0	24.5	0.00e+00	122	30	0	1082130432	40	6225
2026-01-29 13:18:54.80	75.87	30.18	-34.4	-35.3	24.3	0.00e+00	120	30	0	1094713344	40	6453
2026-01-29 13:18:58.83	77.21	30.38	-34.5	-35.4	24.3	0.00e+00	123	30	0	1107296256	40	6526
2026-01-29 13:19:02.87	78.58	30.56	-34.5	-35.4	24.3	0.00e+00	120	30	0	1119879168	40	6555
2026-01-29 13:19:06.91	79.95	30.72	-34.6	-35.5	23.9	0.00e+00	123	30	0	1132462080	40	6599
2026-01-29 13:19:10.95	81.34	30.87	-34.3	-35.2	24.5	0.00e+00	122	30	0	1145044992	42	5698
2026-01-29 13:19:14.99	82.75	31.00	-34.6	-35.6	24.2	0.00e+00	123	30	0	1157627904	42	5932
2026-01-29 13:19:19.03	84.16	31.11	-34.4	-35.3	24.2	0.00e+00	122	30	0	1170210816	42	5730
2026-01-29 13:19:23.06	85.58	31.20	-34.4	-35.3	24.5	0.00e+00	122	30	0	1182793728	42	5738
2026-01-29 13:19:27.10	87.01	31.27	-34.8	-35.7	24.1	0.00e+00	123	30	0	1195376640	42	6031
2026-01-29 13:19:31.14	88.45	31.33	-34.7	-35.7	24.0	0.00e+00	123	30	0	1207959552	42	6003
2026-01-29 13:19:35.18	89.89	31.36	-34.8	-35.7	24.2	0.00e+00	121	30	0	1220542464	42	6000
2026-01-29 13:19:39.22	91.33	31.38	-34.7	-35.6	24.1	0.00e+00	122	30	0	1233125376	42	5980
2026-01-29 13:19:43.25	92.77	31.37	-34.6	-35.5	24.3	0.00e+00	123	30	0	1245708288	42	5912
2026-01-29 13:19:47.29	94.21	31.35	-34.5	-35.4	24.2	0.00e+00	123	30	0	1259339776	42	5831
2026-01-29 13:19:51.33	95.65	31.31	-34.3	-35.2	24.4	0.00e+00	122	30	0	1271922688	42	5667
2026-01-29 13:19:55.37	97.08	31.24	-34.4	-35.3	24.4	0.00e+00	123	30	0	1284505600	42	5748
2026-01-29 13:19:59.40	98.51	31.16	-34.2	-35.1	24.3	0.00e+00	120	30	0	1297088512	42	5657
2026-01-29 13:20:03.44	99.93	31.06	-34.1	-35.0	24.4	0.00e+00	123	30	0	1309671424	42	5556
2026-01-29 13:20:07.48	101.34	30.94	-34.7	-35.7	24.1	0.00e+00	123	30	0	1322254336	42	6001
2026-01-29 13:20:11.52	102.74	30.80	-34.1	-35.0	24.5	0.00e+00	121	30	0	1334837248	42	5568
2026-01-29 13:20:15.56	104.13	30.65	-34.6	-35.5	24.2	0.00e+00	122	30	0	1347420160	42	5906
2026-01-29 13:20:19.60	105.50	30.48	-34.7	-35.7	24.2	0.00e+00	123	30	0	1360003072	42	6002
2026-01-29 13:20:23.63	106.86	30.29	-34.7	-35.6	24.2	0.00e+00	122	30	0	1372585984	42	5948
2026-01-29 13:20:27.67	108.20	30.09	-34.4	-35.3	24.5	0.00e+00	122	30	0	1385168896	42	5747
2026-01-29 13:20:31.71	109.53	29.87	-34.2	-35.1	24.5	0.00e+00	120	30	0	1397751808	42	5644
2026-01-29 13:20:35.75	110.84	29.63	-34.3	-35.1	24.5	0.00e+00	123	30	0	1410334720	42	5657
2026-01-29 13:20:39.79	112.13	29.39	-33.9	-34.8	24.7	0.00e+00	123	30	0	1422917632	42	5414
2026-01-29 13:20:43.82	113.39	29.13	-34.5	-35.4	24.4	0.00e+00	120	30	0	1435500544	42	5807
2026-01-29 13:20:47.86	114.64	28.85	-34.3	-35.2	24.4	0.00e+00	120	30	0	1448083456	42	5704
2026-01-29 13:20:51.90	115.87	28.57	-34.1	-35.0	24.7	0.00e+00	123	30	0	1460666368	42	5583
2026-01-29 13:20:55.94	117.08	28.27	-34.3	-35.2	24.4	0.00e+00	120	30	0	1473249280	42	5709
2026-01-29 13:20:59.97	118.26	27.97	-34.0	-34.9	24.6	0.00e+00	123	30	0	1485832192	42	5479
2026-01-29 13:21:04.01	119.42	27.65	-33.9	-34.8	24.8	0.00e+00	123	30	0	1498415104	42	5425
2026-01-29 13:21:08.05	120.56	27.33	-34.0	-34.8	24.8	0.00e+00	122	30	0	1510998016	42	5467
2026-01-29 13:21:12.09	121.68	27.00	-33.4	-34.3	25.0	0.00e+00	122	30	0	1523580928	40	5736
2026-01-29 13:21:16.13	122.78	26.66	-33.0	-33.8	25.3	0.00e+00	120	30	0	1536163840	40	5438
2026-01-29 13:21:20.17	123.85	26.32	-33.3	-34.1	24.8	0.00e+00	120	30	0	1548746752	40	5649
2026-01-29 13:21:24.20	124.90	25.97	-33.3	-34.2	24.9	0.00e+00	122	30	0	1561329664	40	5698
2026-01-29 13:21:28.23	125.92	25.62	-33.7	-34.6	24.5	0.00e+00	122	30	0	1573912576	40	5971
2026-01-29 13:21:32.27	126.93	25.26	-33.8	-34.7	24.6	0.00e+00	123	30	0	1586495488	40	6054
2026-01-29 13:21:36.31	127.91	24.89	-33.5	-34.4	24.9	0.00e+00	123	30	0	1599078400	40	5842
2026-01-29 13:21:40.35	128.87	24.53	-33.2	-34.1	25.1	0.00e+00	120	30	0	1611661312	40	5630
2026-01-29 13:21:44.38	129.81	24.16	-33.3	-34.2	25.0	0.00e+00	123	30	0	1625292800	40	5689
2026-01-29 13:21:48.42	130.73	23.78	-33.5	-34.3	24.9	0.00e+00	120	30	0	1637875712	40	5773
2026-01-29 13:21:52.46	131.62	23.41	-33.9	-34.8	24.4	0.00e+00	123	30	0	1650458624	40	6132
2026-01-29 13:21:56.50	132.50	23.03	-33.9	-34.8	24.6	0.00e+00	123	30	0	1663041536	40	6079
2026-01-29 13:22:00.54	133.36	22.66	-33.7	-34.6	24.7	0.00e+00	122	30	0	1675624448	40	5934
2026-01-29 13:22:04.58	134.19	22.28	-33.7	-34.6	24.7	0.00e+00	120	30	0	1688207360	40	5931
2026-01-29 13:22:08.61	135.01	21.90	-33.5	-34.4	24.7	0.00e+00	122	30	0	1700790272	40	5830
2026-01-29 13:22:12.65	135.80	21.52	-33.4	-34.3	24.9	0.00e+00	123	30	0	1713373184	40	5734
2026-01-29 13:22:16.69	136.58	21.14	-33.6	-34.4	24.9	0.00e+00	121	30	0	1725956096	40	5841
2026-01-29 13:22:20.73	137.34	20.77	-33.8	-34.6	24.7	0.00e+00	123	30	0	1738539008	40	5984
2026-01-29 13:22:24.77	138.08	20.39	-34.0	-34.8	24.6	0.00e+00	122	30	0	1751121920	40	6134
2026-01-29 13:22:28.81	138.81	20.01	-33.7	-34.6	24.7	0.00e+00	120	30	0	1763704832	40	5970
2026-01-29 13:22:32.84	139.52	19.64	-33.7	-34.6	24.7	0.00e+00	123	30	0	1776287744	40	5963
2026-01-29 13:22:36.88	140.21	19.27	-33.6	-34.5	24.8	0.00e+00	122	30	0	1788870656	40	5903
2026-01-29 13:22:40.91	140.88	18.90	-33.6	-34.5	24.7	0.00e+00	123	30	0	1801453568	40	5899
2026-01-29 13:22:44.95	141.54	18.53	-33.4	-34.3	24.9	0.00e+00	122	30	0	1814036480	40	5741
2026-01-29 13:22:48.99	142.18	18.16	-33.6	-34.5	24.6	0.00e+00	120	30	0	1826619392	40	5877
2026-01-29 13:22:53.03	142.81	17.79	-33.7	-34.6	24.5	0.00e+00	122	30	0	1839202304	40	5938
2026-01-29 13:22:57.06	143.43	17.43	-33.9	-34.8	24.4	0.00e+00	123	30	0	1851785216	40	6126
2026-01-29 13:23:01.11	144.03	17.07	-34.1	-35.0	24.3	0.00e+00	120	30	0	1864368128	40	6251
2026-01-29 13:23:05.15	144.62	16.71	-34.3	-35.2	24.3	0.00e+00	120	30	0	1876951040	40	6377
2026-01-29 13:23:09.18	145.19	16.36	-34.4	-35.3	24.1	0.00e+00	123	30	0	1889533952	40	6487
2026-01-29 13:23:13.22	145.75	16.00	-34.8	-35.7	23.8	0.00e+00	122	30	0	1902116864	42	6062
2026-01-29 13:23:17.25	146.30	15.65	-34.9	-35.8	23.8	0.00e+00	122	30	0	1914699776	42	6097
2026-01-29 13:23:21.29	146.83	15.30	-35.0	-35.9	23.5	0.00e+00	122	30	0	1927282688	42	6203
2026-01-29 13:23:25.33	147.36	14.96	-35.3	-36.2	23.5	0.00e+00	123	30	0	1939865600	42	6410
2026-01-29 13:23:29.37	147.87	14.61	-35.2	-36.1	23.5	0.00e+00	123	30	0	1952448512	42	6337
2026-01-29 13:23:33.41	148.37	14.27	-35.0	-36.0	23.7	0.00e+00	120	30	0	1965031424	42	6208
2026-01-29 13:23:37.45	148.86	13.94	-35.3	-36.3	23.3	0.00e+00	123	30	0	1977614336	42	6426
2026-01-29 13:23:41.49	149.34	13.60	-35.6	-36.5	23.1	0.00e+00	122	30	0	1991245824	42	6627
2026-01-29 13:23:45.52	149.81	13.27	-35.3	-36.3	23.3	0.00e+00	122	30	0	2003828736	42	6455
2026-01-29 13:23:49.55	150.27	12.94	-35.1	-36.1	23.4	0.00e+00	123	30	0	2016411648	42	6300
2026-01-29 13:23:53.58	150.72	12.62	-35.1	-36.1	23.4	0.00e+00	123	30	0	2028994560	42	6287
2026-01-29 13:23:57.62	151.16	12.29	-35.3	-36.2	23.4	0.00e+00	123	30	0	2041577472	42	6408
2026-01-29 13:24:01.66	151.59	11.97	-35.4	-36.3	23.3	0.00e+00	122	30	0	2054160384	42	6464
2026-01-29 13:24:05.70	152.01	11.65	-35.4	-36.4	23.2	0.00e+00	123	30	0	2066743296	42	6527
2026-01-29 13:24:09.73	152.42	11.34	-35.5	-36.5	23.0	0.00e+00	123	30	0	2079326208	44	5903
2026-01-29 13:24:13.77	152.83	11.03	-35.9	-36.9	22.6	0.00e+00	120	30	0	2091909120	44	6196
2026-01-29 13:24:17.81	153.23	10.72	-36.5	-37.5	21.8	0.00e+00	120	30	0	2104492032	44	6640
2026-01-29 13:24:21.85	153.62	10.41	-37.4	-38.5	20.8	0.00e+00	123	30	0	2117074944	46	6617
2026-01-29 13:24:25.88	154.00	10.11	-38.3	-39.6	19.6	0.00e+00	122	30	0	2129657856	48	6671
2026-01-29 13:24:29.92	154.37	9.81	-39.5	-41.0	17.9	0.00e+00	123	30	0	2142240768	50	6987
2026-01-29 13:24:33.96	154.74	9.51	-40.7	-42.5	16.3	0.00e+00	123	30	0	2154823680	52	7425
2026-01-29 13:24:38.00	155.10	9.21	-40.8	-42.6	16.1	0.00e+00	122	30	0	2167406592	54	6708
2026-01-29 13:24:42.04	155.45	8.92	-40.1	-41.8	17.1	0.00e+00	123	30	0	2179989504	54	6066
2026-01-29 13:24:46.07	155.80	8.63	-39.1	-40.5	18.7	0.00e+00	123	30	0	2192572416	52	5908
2026-01-29 13:24:50.11	156.14	8.34	-37.8	-39.0	20.2	0.00e+00	122	30	0	2205155328	50	5576
2026-01-29 13:24:54.15	156.47	8.05	-37.3	-38.4	20.9	0.00e+00	122	30	0	2217738240	48	5821
2026-01-29 13:24:58.19	156.80	7.77	-36.7	-37.8	21.5	0.00e+00	123	30	0	2230321152	46	6109
2026-01-29 13:25:02.22	157.12	7.49	-36.8	-37.8	21.6	0.00e+00	123	30	0	2242904064	46	6117
2026-01-29 13:25:06.26	157.43	7.21	-36.7	-37.7	21.8	0.00e+00	123	30	0	2255486976	46	6057
2026-01-29 13:25:10.30	157.74	6.93	-36.7	-37.8	21.8	0.00e+00	122	30	0	2268069888	46	6094
2026-01-29 13:25:14.34	158.05	6.66	-37.0	-38.0	21.5	0.00e+00	120	30	0	2280652800	46	6269
2026-01-29 13:25:18.37	158.35	6.38	-37.2	-38.3	21.3	0.00e+00	122	30	0	2293235712	46	6443
2026-01-29 13:25:22.41	158.64	6.11	-37.4	-38.5	21.1	0.00e+00	123	30	0	2305818624	46	6625
2026-01-29 13:25:26.45	158.93	5.85	-37.5	-38.7	20.8	0.00e+00	123	30	0	2318401536	48	6024
2026-01-29 13:25:30.49	159.21	5.58	-37.6	-38.8	20.7	0.00e+00	120	30	0	2330984448	48	6073
2026-01-29 13:25:34.52	159.49	5.32	-37.3	-38.5	21.0	0.00e+00	123	30	0	2343567360	48	5860
2026-01-29 13:25:38.56	159.77	5.06	-37.4	-38.6	20.8	0.00e+00	121	30	0	2356150272	48	5941
2026-01-29 13:25:42.59	160.03	4.80	-37.3	-38.5	20.8	0.00e+00	123	30	0	2368733184	48	5882
2026-01-29 13:25:46.63	160.30	4.54	-37.4	-38.5	20.8	0.00e+00	122	30	0	2381316096	48	5887
2026-01-29 13:25:50.67	160.56	4.28	-37.5	-38.7	20.6	0.00e+00	123	30	0	2393899008	48	6015
2026-01-29 13:25:54.70	160.82	4.03	-37.8	-39.0	20.4	0.00e+00	123	30	0	2406481920	48	6246
2026-01-29 13:25:58.74	161.07	3.78	-37.9	-39.1	20.2	0.00e+00	123	30	0	2420113408	48	6286
2026-01-29 13:26:02.78	161.32	3.53	-37.7	-38.8	20.4	0.00e+00	122	30	0	2432696320	48	6121
2026-01-29 13:26:06.82	161.56	3.28	-38.4	-39.6	19.7	0.00e+00	123	30	0	2445279232	48	6683
2026-01-29 13:26:10.86	161.80	3.04	-38.2	-39.4	19.6	0.00e+00	123	30	0	2457862144	48	6560
2026-01-29 13:26:14.90	162.04	2.79	-48.1	-61.0	3.5	1.52e+00	0	30	104	2459959296	60	39311
2026-01-29 13:26:18.93	162.27	2.55	-48.5	-61.5	3.5	1.52e+00	0	30	104	2459959296	60	41515
2026-01-29 13:26:22.97	162.50	2.31	-48.8	-61.7	3.5	1.52e+00	0	30	104	2459959296	60	42541
2026-01-29 13:26:27.01	162.73	2.07	-48.8	-61.7	3.5	1.52e+00	0	30	104	2459959296	60	42600
2026-01-29 13:26:31.05	162.95	1.83	-48.8	-61.6	3.5	1.52e+00	0	30	104	2459959296	60	42398
2026-01-29 13:26:35.09	163.17	1.60	-48.8	-61.7	3.5	1.52e+00	0	30	104	2459959296	60	42544
2026-01-29 13:26:39.13	163.39	1.36	-48.8	-61.7	3.5	1.52e+00	0	30	104	2459959296	60	42789
2026-01-29 13:26:43.17	163.60	1.13	-48.7	-61.6	3.5	1.52e+00	0	30	104	2459959296	60	42252
2026-01-29 13:26:47.21	163.81	0.90	-48.9	-61.8	3.5	1.52e+00	0	30	104	2459959296	60	42955
2026-01-29 13:26:51.25	164.02	0.67	-48.7	-61.6	3.5	1.52e+00	0	30	104	2459959296	60	42285
2026-01-29 13:26:55.29	164.22	0.44	-48.8	-61.7	3.5	1.52e+00	0	30	104	2459959296	60	42930
2026-01-29 13:26:59.33	164.42	0.21	-48.9	-61.7	3.5	1.52e+00	0	30	104	2459959296	60	42834
2026-01-29 13:27:03.37	164.62	-0.01	-48.9	-61.8	3.5	1.51e+00	0	30	104	2459959296	60	42990

#Closed at: 2026-01-29 13:27:03
#Recorded file [2459 MB]: D:/lorett/data/35029_260130_011215.dat