passes_logs/2026/01/29/R4.6S_Anadyr/R4.6S_Anadyr__20260129_082343_KOSAR1-5_rec.log

#Pass ID: 20260129_082343_KOSAR1-5
#Satellite: KOSAR1-5
#Configuration: KOSAR1-5
#almurnet v.1.7.20251203
#Start time: 2026-01-29 08:23:45

#Version: 2.2.20231116
#Station: R4.6S_Anadyr
#Location: 177.4865 lon 64.73178 lat
#TLE: 1 67264U 25313S   26027.89307552  .00010412  00000+0  48021-3 0  9990
#TLE: 2 67264  97.4176 104.8503 0016482 138.1720 222.0778 15.20312014  4613

#Time	Az	El	Level	Level2	SNR	BER	BlckErr	Temp	State	Recorded	gain1	gain2
2026-01-29 08:23:45.24	128.01	0.08	-45.8	-60.2	3.5	1.51e+00	0	26	0	0	60	41575
2026-01-29 08:23:48.26	127.86	0.27	-45.7	-60.5	3.6	1.51e+00	0	27	104	0	60	42760
2026-01-29 08:23:51.29	127.71	0.45	-45.4	-60.2	3.6	1.51e+00	0	27	104	0	60	41330
2026-01-29 08:23:54.32	127.56	0.64	-45.5	-60.2	3.6	1.51e+00	0	27	104	0	60	41309
2026-01-29 08:23:57.35	127.40	0.83	-45.4	-60.1	3.6	1.51e+00	0	27	104	0	60	41030
2026-01-29 08:24:00.38	127.25	1.03	-45.4	-60.1	3.6	1.51e+00	0	27	104	0	60	41094
2026-01-29 08:24:03.41	127.09	1.22	-45.3	-60.0	3.6	1.51e+00	0	27	104	0	60	40682
2026-01-29 08:24:06.44	126.92	1.42	-45.1	-59.9	3.6	1.51e+00	0	27	104	0	60	39944
2026-01-29 08:24:09.47	126.76	1.61	-44.4	-59.5	3.6	1.51e+00	0	27	104	0	60	38369
2026-01-29 08:24:12.50	126.59	1.81	-44.2	-58.9	3.6	1.51e+00	0	27	104	0	60	35839
2026-01-29 08:24:15.53	126.42	2.01	-44.2	-59.0	3.6	1.51e+00	0	27	104	0	60	35941
2026-01-29 08:24:18.56	126.24	2.22	-44.2	-59.0	3.6	1.51e+00	0	27	104	0	60	35994
2026-01-29 08:24:21.59	126.06	2.42	-44.2	-58.9	3.6	1.51e+00	0	27	104	0	60	35868
2026-01-29 08:24:24.62	125.88	2.62	-44.2	-59.0	3.6	1.51e+00	0	27	104	0	60	35945
2026-01-29 08:24:27.65	125.70	2.83	-44.2	-58.9	3.6	1.51e+00	0	28	104	0	60	35679
2026-01-29 08:24:30.68	125.51	3.04	-44.2	-58.9	3.6	1.51e+00	0	28	104	0	60	35608
2026-01-29 08:24:33.71	125.31	3.25	-44.2	-58.9	3.6	1.51e+00	0	27	104	0	60	35849
2026-01-29 08:24:36.74	125.12	3.46	-44.2	-58.9	3.6	1.51e+00	0	28	104	0	60	35808
2026-01-29 08:24:39.77	124.92	3.68	-44.2	-58.9	3.6	1.51e+00	0	28	104	0	60	35734
2026-01-29 08:24:42.81	124.71	3.90	-44.2	-58.9	3.6	1.51e+00	0	28	104	0	60	35684
2026-01-29 08:24:45.84	124.50	4.12	-44.2	-58.9	3.6	1.51e+00	0	28	104	0	60	35762
2026-01-29 08:24:48.87	124.29	4.34	-44.3	-59.1	3.6	1.51e+00	0	28	104	0	60	36522
2026-01-29 08:24:51.90	124.07	4.56	-44.2	-59.0	3.6	1.51e+00	0	28	104	0	60	36172
2026-01-29 08:24:54.93	123.85	4.78	-44.3	-59.1	3.6	1.51e+00	0	28	104	0	60	36598
2026-01-29 08:24:57.96	123.63	5.01	-44.3	-59.1	3.6	1.51e+00	0	28	104	0	60	36392
2026-01-29 08:25:00.99	123.40	5.24	-44.5	-59.2	3.6	1.51e+00	0	28	104	0	60	37020
2026-01-29 08:25:04.02	123.16	5.47	-44.3	-59.2	3.6	1.51e+00	0	28	104	0	60	36989
2026-01-29 08:25:07.04	122.92	5.71	-44.1	-59.3	3.6	1.51e+00	0	28	104	0	60	37255
2026-01-29 08:25:10.07	122.68	5.94	-44.4	-59.2	3.6	1.51e+00	0	28	104	0	60	37063
2026-01-29 08:25:13.10	122.42	6.18	-44.3	-59.3	3.6	1.51e+00	0	28	104	0	60	37471
2026-01-29 08:25:16.12	122.17	6.42	-44.1	-59.3	3.6	1.51e+00	0	28	104	0	60	37217
2026-01-29 08:25:19.15	121.91	6.67	-44.1	-59.4	3.6	1.51e+00	0	28	104	0	60	37836
2026-01-29 08:25:22.18	121.64	6.91	-43.7	-59.3	3.6	1.51e+00	0	28	104	0	60	37386
2026-01-29 08:25:25.21	121.37	7.16	-44.6	-59.4	3.6	1.51e+00	0	28	104	0	60	37867
2026-01-29 08:25:28.24	121.09	7.42	-44.2	-59.4	3.6	1.51e+00	0	28	104	0	60	37757
2026-01-29 08:25:31.26	120.80	7.67	-44.7	-59.5	3.6	1.51e+00	0	28	104	0	60	38148
2026-01-29 08:25:34.29	120.51	7.93	-44.6	-59.4	3.6	1.51e+00	0	28	104	0	60	37970
2026-01-29 08:25:37.32	120.21	8.19	-44.7	-59.4	3.6	1.51e+00	0	28	104	0	60	37883
2026-01-29 08:25:40.35	119.90	8.45	-44.7	-59.4	3.6	1.51e+00	0	28	104	0	60	37818
2026-01-29 08:25:43.38	119.59	8.72	-44.7	-59.5	3.6	1.51e+00	0	28	104	0	60	38198
2026-01-29 08:25:46.39	119.27	8.99	-44.8	-59.5	3.6	1.51e+00	0	28	104	0	60	38251
2026-01-29 08:25:49.42	118.94	9.26	-44.8	-59.5	3.6	1.51e+00	0	28	104	0	60	38311
2026-01-29 08:25:52.45	118.60	9.54	-44.8	-59.5	3.6	1.51e+00	0	28	104	0	60	38114
2026-01-29 08:25:55.48	118.26	9.82	-44.7	-59.5	3.6	1.51e+00	0	28	104	0	60	38370
2026-01-29 08:25:58.51	117.91	10.10	-44.8	-59.5	3.6	1.51e+00	0	28	104	0	60	38397
2026-01-29 08:26:01.54	117.54	10.39	-44.8	-59.5	3.6	1.51e+00	0	28	104	0	60	38399
2026-01-29 08:26:04.56	117.17	10.68	-44.7	-59.5	3.6	1.51e+00	0	28	104	0	60	38508
2026-01-29 08:26:07.59	116.79	10.97	-44.8	-59.6	3.6	1.51e+00	0	28	104	0	60	38562
2026-01-29 08:26:10.62	116.40	11.27	-44.7	-59.6	3.6	1.51e+00	0	28	104	0	60	38587
2026-01-29 08:26:13.65	116.00	11.57	-44.8	-59.6	3.5	1.51e+00	0	28	104	0	60	38720
2026-01-29 08:26:16.67	115.59	11.87	-44.9	-59.6	3.6	1.51e+00	0	28	104	0	60	38852
2026-01-29 08:26:19.70	115.17	12.18	-44.7	-59.6	3.6	1.51e+00	0	28	104	0	60	38685
2026-01-29 08:26:22.73	114.74	12.49	-44.9	-59.7	3.6	1.51e+00	0	28	104	0	60	39098
2026-01-29 08:26:25.76	114.29	12.81	-44.9	-59.6	3.6	1.51e+00	0	28	104	0	60	38716
2026-01-29 08:26:28.79	113.84	13.13	-44.9	-59.7	3.6	1.51e+00	0	28	104	0	60	39045
2026-01-29 08:26:31.82	113.37	13.45	-44.9	-59.7	3.6	1.51e+00	0	28	104	0	60	38964
2026-01-29 08:26:34.84	112.89	13.78	-44.9	-59.7	3.6	1.51e+00	0	28	104	0	60	39241
2026-01-29 08:26:37.87	112.40	14.11	-44.8	-59.7	3.6	1.51e+00	0	28	104	0	60	39177
2026-01-29 08:26:40.90	111.89	14.45	-44.8	-59.7	3.6	1.51e+00	0	28	104	0	60	39381
2026-01-29 08:26:43.93	111.37	14.79	-44.4	-59.7	3.6	1.51e+00	0	28	104	0	60	39357
2026-01-29 08:26:46.96	110.83	15.14	-44.5	-59.7	3.6	1.51e+00	0	28	104	0	60	39366
2026-01-29 08:26:49.98	110.28	15.48	-44.7	-59.8	3.6	1.51e+00	0	28	104	0	60	39429
2026-01-29 08:26:53.01	109.71	15.84	-44.9	-59.8	3.6	1.51e+00	0	28	104	0	60	39476
2026-01-29 08:26:56.04	109.13	16.19	-44.7	-59.7	3.6	1.51e+00	0	28	104	0	60	39360
2026-01-29 08:26:59.07	108.53	16.56	-44.8	-59.8	3.6	1.51e+00	0	28	104	0	60	39564
2026-01-29 08:27:02.09	107.91	16.92	-44.9	-59.8	3.6	1.51e+00	0	28	104	0	60	39542
2026-01-29 08:27:05.12	107.27	17.29	-45.0	-59.8	3.6	1.51e+00	0	28	104	0	60	39579
2026-01-29 08:27:08.15	106.62	17.66	-45.0	-59.8	3.6	1.51e+00	0	28	104	0	60	39546
2026-01-29 08:27:11.18	105.94	18.04	-45.0	-59.9	3.6	1.51e+00	0	28	104	0	60	39867
2026-01-29 08:27:14.20	105.25	18.42	-44.9	-59.8	3.6	1.51e+00	0	28	104	0	60	39733
2026-01-29 08:27:17.22	104.54	18.80	-45.0	-59.9	3.6	1.51e+00	0	28	104	0	60	40006
2026-01-29 08:27:20.25	103.80	19.19	-45.1	-59.9	3.6	1.51e+00	0	28	104	0	60	39871
2026-01-29 08:27:23.27	103.04	19.58	-45.0	-59.9	3.6	1.51e+00	0	28	104	0	60	40108
2026-01-29 08:27:26.30	102.26	19.97	-45.0	-59.9	3.6	1.51e+00	0	28	104	0	60	39997
2026-01-29 08:27:29.33	101.46	20.37	-45.1	-59.9	3.6	1.51e+00	0	28	104	0	60	40248
2026-01-29 08:27:32.35	100.63	20.77	-45.1	-59.9	3.6	1.51e+00	0	28	104	0	60	40034
2026-01-29 08:27:35.38	99.78	21.17	-44.8	-59.9	3.6	1.51e+00	0	28	104	0	60	40156
2026-01-29 08:27:38.41	98.89	21.57	-44.9	-59.9	3.6	1.51e+00	0	28	104	0	60	40291
2026-01-29 08:27:41.44	97.99	21.98	-44.9	-59.9	3.6	1.51e+00	0	28	104	0	60	40095
2026-01-29 08:27:44.46	97.06	22.38	-45.1	-59.9	3.6	1.51e+00	0	29	104	0	60	40216
2026-01-29 08:27:47.49	96.09	22.78	-44.7	-59.9	3.6	1.51e+00	0	28	104	0	60	39865
2026-01-29 08:27:50.52	95.10	23.19	-45.1	-60.0	3.6	1.51e+00	0	28	104	0	60	40370
2026-01-29 08:27:53.54	94.08	23.59	-44.9	-59.9	3.6	1.51e+00	0	29	104	0	60	40117
2026-01-29 08:27:56.57	93.03	24.00	-44.3	-59.9	3.6	1.51e+00	0	29	104	0	60	40109
2026-01-29 08:27:59.59	91.95	24.40	-43.7	-59.9	3.6	1.51e+00	0	29	104	0	60	40210
2026-01-29 08:28:02.62	90.84	24.79	-45.1	-59.9	3.6	1.51e+00	0	29	104	0	60	40255
2026-01-29 08:28:05.65	89.70	25.19	-45.0	-60.0	3.6	1.51e+00	0	29	104	0	60	40410
2026-01-29 08:28:08.67	88.52	25.58	-45.0	-59.9	3.5	1.51e+00	0	29	104	0	60	40104
2026-01-29 08:28:11.70	87.31	25.96	-45.1	-60.0	3.6	1.51e+00	0	29	104	0	60	40388
2026-01-29 08:28:14.73	86.07	26.34	-45.2	-60.0	3.6	1.51e+00	0	29	104	0	60	40436
2026-01-29 08:28:17.76	84.80	26.71	-44.7	-59.9	3.6	1.51e+00	0	28	104	0	60	40257
2026-01-29 08:28:20.79	83.49	27.07	-43.1	-60.0	3.6	1.51e+00	0	29	104	0	60	40428
2026-01-29 08:28:23.82	82.15	27.42	-44.7	-59.9	3.6	1.51e+00	0	29	104	0	60	40139
2026-01-29 08:28:26.84	80.78	27.76	-45.2	-60.0	3.6	1.51e+00	0	29	104	0	60	40542
2026-01-29 08:28:29.87	79.38	28.09	-45.3	-60.0	3.6	1.51e+00	0	29	104	0	60	40484
2026-01-29 08:28:32.90	77.94	28.40	-43.7	-60.0	3.6	1.51e+00	0	29	104	0	60	40644
2026-01-29 08:28:35.93	76.47	28.70	-44.4	-60.0	3.6	1.51e+00	0	29	104	0	60	40416
2026-01-29 08:28:38.96	74.98	28.98	-45.0	-60.0	3.6	1.51e+00	0	29	104	0	60	40712
2026-01-29 08:28:41.98	73.46	29.25	-45.3	-60.0	3.6	1.51e+00	0	29	104	0	60	40541
2026-01-29 08:28:45.01	71.91	29.50	-45.3	-60.0	3.6	1.51e+00	0	29	104	0	60	40691
2026-01-29 08:28:48.04	70.33	29.72	-45.0	-60.0	3.6	1.51e+00	0	29	104	0	60	40356
2026-01-29 08:28:51.07	68.74	29.93	-44.8	-60.0	3.6	1.51e+00	0	29	104	0	60	40585
2026-01-29 08:28:54.09	67.12	30.11	-45.2	-60.0	3.6	1.51e+00	0	29	104	0	60	40744
2026-01-29 08:28:57.12	65.48	30.27	-45.3	-60.0	3.6	1.51e+00	0	29	104	0	60	40621
2026-01-29 08:29:00.15	63.83	30.41	-45.3	-60.0	3.6	1.51e+00	0	29	104	0	60	40495
2026-01-29 08:29:03.17	62.16	30.53	-45.2	-60.0	3.6	1.51e+00	0	29	104	0	60	40718
2026-01-29 08:29:06.19	60.49	30.61	-43.4	-60.1	3.6	1.51e+00	0	29	104	0	60	40878
2026-01-29 08:29:09.22	58.80	30.68	-44.5	-60.0	3.6	1.51e+00	0	29	104	0	60	40590
2026-01-29 08:29:12.25	57.10	30.71	-45.3	-60.0	3.6	1.51e+00	0	29	104	0	60	40620
2026-01-29 08:29:15.28	55.40	30.72	-45.1	-60.0	3.6	1.51e+00	0	29	104	0	60	40754
2026-01-29 08:29:18.30	53.71	30.70	-43.4	-60.1	3.6	1.51e+00	0	29	104	0	60	40795
2026-01-29 08:29:21.33	52.02	30.66	-43.8	-60.0	3.6	1.51e+00	0	29	104	0	60	40714
2026-01-29 08:29:24.36	50.33	30.59	-44.8	-60.0	3.6	1.51e+00	0	29	104	0	60	40633
2026-01-29 08:29:27.39	48.65	30.50	-45.0	-60.0	3.6	1.51e+00	0	29	104	0	60	40786
2026-01-29 08:29:30.41	46.99	30.38	-45.4	-60.1	3.6	1.51e+00	0	29	104	0	60	40816
2026-01-29 08:29:33.44	45.34	30.24	-45.4	-60.1	3.6	1.51e+00	0	29	104	0	60	41039
2026-01-29 08:29:36.47	43.70	30.07	-45.3	-60.1	3.6	1.51e+00	0	29	104	0	60	40834
2026-01-29 08:29:39.50	42.09	29.88	-45.1	-60.1	3.6	1.51e+00	0	29	104	0	60	40910
2026-01-29 08:29:42.53	40.49	29.67	-44.2	-60.1	3.6	1.51e+00	0	29	104	0	60	41008
2026-01-29 08:29:45.55	38.93	29.43	-44.9	-60.1	3.6	1.51e+00	0	29	104	0	60	40943
2026-01-29 08:29:48.58	37.38	29.18	-43.8	-60.1	3.6	1.51e+00	0	29	104	0	60	40801
2026-01-29 08:29:51.61	35.87	28.91	-45.1	-60.0	3.6	1.51e+00	0	29	104	0	60	40585
2026-01-29 08:29:54.64	34.38	28.62	-45.3	-60.0	3.6	1.51e+00	0	29	104	0	60	40713
2026-01-29 08:29:57.67	32.92	28.32	-45.4	-60.1	3.6	1.51e+00	0	29	104	0	60	40963
2026-01-29 08:30:00.69	31.49	28.00	-45.2	-60.1	3.6	1.51e+00	0	29	104	0	60	41003
2026-01-29 08:30:03.72	30.10	27.67	-45.2	-60.0	3.6	1.51e+00	0	29	104	0	60	40672
2026-01-29 08:30:06.75	28.73	27.33	-45.3	-60.0	3.5	1.51e+00	0	29	104	0	60	40777
2026-01-29 08:30:09.78	27.40	26.98	-45.3	-60.0	3.6	1.51e+00	0	29	104	0	60	40654
2026-01-29 08:30:12.81	26.10	26.61	-45.1	-60.0	3.6	1.51e+00	0	29	104	0	60	40665
2026-01-29 08:30:15.84	24.83	26.24	-45.3	-60.0	3.6	1.51e+00	0	29	104	0	60	40663
2026-01-29 08:30:18.87	23.60	25.86	-45.3	-60.0	3.6	1.51e+00	0	29	104	0	60	40696
2026-01-29 08:30:21.89	22.40	25.48	-45.3	-60.0	3.5	1.51e+00	0	29	104	0	60	40459
2026-01-29 08:30:24.92	21.23	25.08	-45.3	-60.0	3.6	1.51e+00	0	28	104	0	60	40632
2026-01-29 08:30:27.95	20.10	24.69	-45.3	-60.0	3.6	1.51e+00	0	29	104	0	60	40574
2026-01-29 08:30:30.98	18.99	24.29	-45.2	-60.0	3.6	1.51e+00	0	29	104	0	60	40512
2026-01-29 08:30:34.01	17.92	23.89	-45.3	-60.0	3.6	1.51e+00	0	29	104	0	60	40413
2026-01-29 08:30:37.04	16.87	23.48	-45.3	-60.0	3.6	1.51e+00	0	29	104	0	60	40637
2026-01-29 08:30:40.06	15.86	23.08	-45.2	-60.0	3.6	1.51e+00	0	29	104	0	60	40562
2026-01-29 08:30:43.09	14.88	22.67	-45.2	-60.0	3.6	1.51e+00	0	29	104	0	60	40445
2026-01-29 08:30:46.11	13.93	22.27	-45.1	-60.0	3.6	1.51e+00	0	29	104	0	60	40347
2026-01-29 08:30:49.14	13.00	21.86	-45.2	-59.9	3.6	1.51e+00	0	29	104	0	60	40241
2026-01-29 08:30:52.17	12.10	21.46	-45.2	-59.9	3.6	1.51e+00	0	29	104	0	60	40136
2026-01-29 08:30:55.20	11.23	21.06	-45.2	-60.0	3.6	1.51e+00	0	29	104	0	60	40426
2026-01-29 08:30:58.22	10.38	20.66	-45.2	-59.9	3.6	1.51e+00	0	29	104	0	60	40089
2026-01-29 08:31:01.25	9.56	20.26	-45.1	-60.0	3.6	1.51e+00	0	29	104	0	60	40333
2026-01-29 08:31:04.28	8.76	19.86	-45.1	-59.9	3.6	1.51e+00	0	29	104	0	60	40037
2026-01-29 08:31:07.31	7.98	19.47	-45.2	-59.9	3.6	1.51e+00	0	29	104	0	60	40109
2026-01-29 08:31:10.34	7.23	19.08	-45.1	-59.9	3.6	1.51e+00	0	29	104	0	60	40030
2026-01-29 08:31:13.36	6.50	18.69	-45.0	-59.8	3.6	1.51e+00	0	29	104	0	60	39857
2026-01-29 08:31:16.39	5.79	18.31	-45.0	-59.9	3.6	1.51e+00	0	29	104	0	60	40022
2026-01-29 08:31:19.42	5.10	17.93	-45.1	-59.9	3.6	1.51e+00	0	29	104	0	60	40032
2026-01-29 08:31:22.44	4.44	17.55	-45.1	-59.9	3.6	1.51e+00	0	29	104	0	60	40133
2026-01-29 08:31:25.47	3.79	17.18	-45.3	-60.0	3.6	1.51e+00	0	29	104	0	60	40416
2026-01-29 08:31:28.50	3.16	16.81	-45.2	-59.9	3.6	1.51e+00	0	29	104	0	60	40154
2026-01-29 08:31:31.53	2.54	16.45	-45.1	-59.9	3.6	1.51e+00	0	29	104	0	60	39885
2026-01-29 08:31:34.56	1.95	16.09	-45.0	-59.8	3.6	1.51e+00	0	29	104	0	60	39807
2026-01-29 08:31:37.58	1.37	15.73	-44.7	-59.8	3.6	1.51e+00	0	29	104	0	60	39678
2026-01-29 08:31:40.61	0.81	15.38	-45.1	-59.9	3.6	1.51e+00	0	29	104	0	60	39975
2026-01-29 08:31:43.64	0.26	15.03	-45.1	-59.8	3.6	1.51e+00	0	29	104	0	60	39550
2026-01-29 08:31:46.67	359.73	14.69	-45.1	-59.7	3.6	1.51e+00	0	29	104	0	60	39403
2026-01-29 08:31:49.69	359.21	14.35	-45.1	-59.7	3.6	1.51e+00	0	29	104	0	60	39285
2026-01-29 08:31:52.73	358.71	14.01	-45.0	-59.8	3.6	1.51e+00	0	29	104	0	60	39558
2026-01-29 08:31:55.75	358.22	13.68	-45.0	-59.7	3.6	1.51e+00	0	29	104	0	60	39214
2026-01-29 08:31:58.78	357.74	13.35	-44.9	-59.7	3.6	1.51e+00	0	29	104	0	60	39131
2026-01-29 08:32:01.81	357.28	13.03	-45.0	-59.7	3.6	1.51e+00	0	29	104	0	60	39013
2026-01-29 08:32:04.84	356.82	12.71	-45.0	-59.6	3.6	1.51e+00	0	29	104	0	60	38849
2026-01-29 08:32:07.87	356.38	12.39	-44.9	-59.6	3.6	1.51e+00	0	29	104	0	60	38936
2026-01-29 08:32:10.90	355.96	12.08	-44.9	-59.7	3.6	1.51e+00	0	29	104	0	60	38957
2026-01-29 08:32:13.92	355.54	11.78	-44.9	-59.6	3.6	1.51e+00	0	29	104	0	60	38738
2026-01-29 08:32:16.95	355.13	11.47	-44.9	-59.6	3.6	1.51e+00	0	29	104	0	60	38923
2026-01-29 08:32:19.98	354.74	11.17	-44.9	-59.7	3.6	1.51e+00	0	29	104	0	60	38986
2026-01-29 08:32:23.01	354.35	10.88	-44.9	-59.6	3.6	1.51e+00	0	29	104	0	60	38950
2026-01-29 08:32:26.04	353.97	10.58	-44.9	-59.6	3.6	1.51e+00	0	29	104	0	60	38746
2026-01-29 08:32:29.06	353.60	10.29	-45.1	-59.8	3.6	1.51e+00	0	29	104	0	60	39527
2026-01-29 08:32:32.09	353.25	10.01	-45.0	-59.7	3.6	1.51e+00	0	29	104	0	60	38983
2026-01-29 08:32:35.12	352.90	9.73	-45.0	-59.6	3.6	1.51e+00	0	29	104	0	60	38922
2026-01-29 08:32:38.15	352.55	9.45	-44.9	-59.6	3.6	1.51e+00	0	29	104	0	60	38841
2026-01-29 08:32:41.18	352.22	9.17	-45.0	-59.7	3.6	1.51e+00	0	29	104	0	60	39285
2026-01-29 08:32:44.20	351.90	8.90	-45.0	-59.8	3.6	1.51e+00	0	29	104	0	60	39651
2026-01-29 08:32:47.23	351.58	8.63	-44.9	-59.6	3.6	1.51e+00	0	29	104	0	60	38887
2026-01-29 08:32:50.26	351.27	8.36	-44.8	-59.6	3.6	1.51e+00	0	29	104	0	60	38703
2026-01-29 08:32:53.29	350.96	8.10	-44.9	-59.7	3.6	1.51e+00	0	29	104	0	60	39089
2026-01-29 08:32:56.32	350.67	7.84	-45.1	-59.8	3.6	1.51e+00	0	29	104	0	60	39650
2026-01-29 08:32:59.34	350.38	7.58	-44.9	-59.7	3.6	1.51e+00	0	29	104	0	60	39050
2026-01-29 08:33:02.37	350.10	7.33	-44.7	-59.6	3.6	1.51e+00	0	29	104	0	60	38526
2026-01-29 08:33:05.40	349.82	7.08	-44.9	-59.6	3.6	1.51e+00	0	29	104	0	60	38780
2026-01-29 08:33:08.43	349.55	6.83	-45.0	-59.8	3.6	1.51e+00	0	29	104	0	60	39561
2026-01-29 08:33:11.46	349.28	6.58	-44.9	-59.7	3.6	1.51e+00	0	29	104	0	60	39023
2026-01-29 08:33:14.49	349.03	6.34	-44.8	-59.5	3.6	1.51e+00	0	29	104	0	60	38137
2026-01-29 08:33:17.52	348.77	6.10	-44.8	-59.6	3.6	1.51e+00	0	29	104	0	60	38579
2026-01-29 08:33:20.54	348.53	5.86	-45.2	-59.9	3.6	1.51e+00	0	29	104	0	60	39997
2026-01-29 08:33:23.57	348.28	5.62	-43.8	-58.5	3.6	1.51e+00	0	29	104	0	60	34132
2026-01-29 08:33:26.61	348.04	5.39	-44.9	-59.6	3.6	1.51e+00	0	29	104	0	60	38795
2026-01-29 08:33:29.64	347.81	5.16	-44.7	-59.4	3.6	1.51e+00	0	29	104	0	60	37876
2026-01-29 08:33:32.67	347.58	4.93	-42.7	-57.4	3.6	1.51e+00	0	29	104	0	60	30081
2026-01-29 08:33:35.69	347.36	4.70	-41.5	-56.3	3.6	1.51e+00	0	29	104	0	58	29801
2026-01-29 08:33:38.72	347.14	4.48	-42.1	-56.8	3.6	1.51e+00	0	29	104	0	60	27978
2026-01-29 08:33:41.75	346.93	4.25	-41.0	-55.8	3.6	1.51e+00	0	29	104	0	58	27931
2026-01-29 08:33:44.78	346.72	4.03	-41.0	-55.7	3.6	1.51e+00	0	29	104	0	56	31238
2026-01-29 08:33:47.81	346.51	3.81	-40.8	-55.6	3.6	1.51e+00	0	29	104	0	58	27321
2026-01-29 08:33:50.84	346.31	3.60	-40.5	-55.2	3.6	1.51e+00	0	29	104	0	56	29358
2026-01-29 08:33:53.87	346.11	3.38	-41.3	-56.0	3.6	1.51e+00	0	29	104	0	56	32150
2026-01-29 08:33:56.89	345.92	3.17	-40.8	-55.4	3.6	1.51e+00	0	29	104	0	56	30230
2026-01-29 08:33:59.92	345.73	2.96	-40.8	-55.5	3.6	1.51e+00	0	29	104	0	56	30384
2026-01-29 08:34:02.95	345.55	2.75	-45.1	-60.0	3.6	1.51e+00	0	29	104	0	60	40561
2026-01-29 08:34:05.97	345.36	2.55	-45.4	-60.3	3.6	1.51e+00	0	29	104	0	60	42043
2026-01-29 08:34:09.00	345.18	2.34	-45.6	-60.5	3.6	1.51e+00	0	29	104	0	60	43021
2026-01-29 08:34:12.04	345.01	2.14	-45.6	-60.6	3.6	1.51e+00	0	29	104	0	60	43417
2026-01-29 08:34:15.07	344.84	1.94	-45.8	-60.6	3.6	1.51e+00	0	29	104	0	60	43305
2026-01-29 08:34:18.09	344.67	1.74	-45.3	-60.2	3.6	1.51e+00	0	29	104	0	60	41282
2026-01-29 08:34:21.12	344.50	1.54	-45.5	-60.2	3.6	1.51e+00	0	29	104	0	60	41714
2026-01-29 08:34:24.15	344.34	1.34	-45.5	-60.2	3.6	1.51e+00	0	29	104	0	60	41463
2026-01-29 08:34:27.18	344.18	1.15	-45.5	-60.2	3.6	1.51e+00	0	29	104	0	60	41330
2026-01-29 08:34:30.21	344.02	0.95	-45.4	-60.1	3.6	1.51e+00	0	29	104	0	60	40981
2026-01-29 08:34:33.24	343.86	0.76	-45.4	-60.1	3.6	1.51e+00	0	29	104	0	60	41132
2026-01-29 08:34:36.27	343.71	0.57	-45.5	-60.2	3.6	1.51e+00	0	29	104	0	60	41572
2026-01-29 08:34:39.30	343.56	0.38	-45.5	-60.3	3.6	1.51e+00	0	29	104	0	60	41883
2026-01-29 08:34:42.33	343.42	0.19	-45.6	-60.3	3.6	1.51e+00	0	29	104	0	60	42032
2026-01-29 08:34:45.36	343.27	0.00	-45.4	-60.1	3.6	1.51e+00	0	29	104	0	60	41263

#Closed at: 2026-01-29 08:34:46
#Recorded file [0 MB]: D:/lorett/data/35029_260129_202345.dat