passes_logs/2026/01/29/R4.6S_Anadyr/R4.6S_Anadyr__20260129_095711_KOSAR1-5_rec.log

#Pass ID: 20260129_095711_KOSAR1-5
#Satellite: KOSAR1-5
#Configuration: KOSAR1-5
#almurnet v.1.7.20251203
#Start time: 2026-01-29 09:57:17

#Version: 2.2.20231116
#Station: R4.6S_Anadyr
#Location: 177.4865 lon 64.73178 lat
#TLE: 1 67264U 25313S   26027.89307552  .00010412  00000+0  48021-3 0  9990
#TLE: 2 67264  97.4176 104.8503 0016482 138.1720 222.0778 15.20312014  4613

#Time	Az	El	Level	Level2	SNR	BER	BlckErr	Temp	State	Recorded	gain1	gain2
2026-01-29 09:57:17.26	172.22	0.34	-48.9	-50.4	5.7	0.00e+00	0	27	0	0	60	40731
2026-01-29 09:57:20.19	172.30	0.53	-45.3	-60.2	3.6	1.51e+00	0	29	104	0	60	41594
2026-01-29 09:57:23.13	172.37	0.72	-45.4	-60.2	3.6	1.51e+00	0	29	104	0	60	41592
2026-01-29 09:57:26.06	172.45	0.91	-45.5	-60.1	3.6	1.51e+00	0	29	104	0	60	41206
2026-01-29 09:57:28.99	172.52	1.10	-45.5	-60.2	3.6	1.51e+00	0	29	104	0	60	41336
2026-01-29 09:57:31.92	172.60	1.30	-45.1	-60.1	3.6	1.51e+00	0	29	104	0	60	40916
2026-01-29 09:57:34.85	172.68	1.50	-45.1	-59.9	3.5	1.51e+00	0	29	104	0	60	40065
2026-01-29 09:57:37.77	172.76	1.69	-44.3	-59.4	3.6	1.51e+00	0	29	104	0	60	37960
2026-01-29 09:57:40.71	172.84	1.90	-44.1	-58.8	3.6	1.51e+00	0	29	104	0	60	35352
2026-01-29 09:57:43.64	172.92	2.10	-44.1	-58.9	3.6	1.51e+00	0	29	104	0	60	35546
2026-01-29 09:57:46.57	173.01	2.30	-44.1	-58.8	3.6	1.51e+00	0	29	104	0	60	35384
2026-01-29 09:57:49.50	173.09	2.51	-44.0	-58.8	3.5	1.51e+00	0	29	104	0	60	35425
2026-01-29 09:57:52.44	173.18	2.72	-44.0	-58.8	3.6	1.51e+00	0	29	104	0	60	35360
2026-01-29 09:57:55.38	173.27	2.93	-44.0	-58.9	3.6	1.51e+00	0	29	104	0	60	35528
2026-01-29 09:57:58.31	173.35	3.14	-44.0	-58.8	3.6	1.51e+00	0	29	104	0	60	35352
2026-01-29 09:58:01.24	173.45	3.36	-44.0	-58.8	3.6	1.51e+00	0	29	104	0	60	35301
2026-01-29 09:58:04.18	173.54	3.57	-44.0	-58.8	3.6	1.51e+00	0	30	104	0	60	35407
2026-01-29 09:58:07.12	173.63	3.79	-44.0	-58.8	3.6	1.51e+00	0	30	104	0	60	35221
2026-01-29 09:58:10.05	173.73	4.01	-44.0	-58.8	3.6	1.51e+00	0	29	104	0	60	35201
2026-01-29 09:58:12.99	173.82	4.24	-44.3	-59.0	3.6	1.51e+00	0	30	104	0	60	35946
2026-01-29 09:58:15.93	173.92	4.46	-44.5	-59.2	3.6	1.51e+00	0	29	104	0	60	36870
2026-01-29 09:58:18.87	174.02	4.69	-44.6	-59.3	3.6	1.51e+00	0	30	104	0	60	37545
2026-01-29 09:58:21.81	174.13	4.93	-44.4	-59.1	3.6	1.51e+00	0	30	104	0	60	36771
2026-01-29 09:58:24.75	174.23	5.16	-44.5	-59.2	3.6	1.51e+00	0	30	104	0	60	37160
2026-01-29 09:58:27.69	174.34	5.40	-44.7	-59.4	3.5	1.51e+00	0	30	104	0	60	37941
2026-01-29 09:58:30.63	174.45	5.64	-44.6	-59.4	3.6	1.51e+00	0	30	104	0	60	37775
2026-01-29 09:58:33.56	174.56	5.88	-44.7	-59.5	3.6	1.51e+00	0	30	104	0	60	38172
2026-01-29 09:58:36.50	174.67	6.13	-44.6	-59.5	3.6	1.51e+00	0	30	104	0	60	38346
2026-01-29 09:58:39.45	174.79	6.38	-44.8	-59.7	3.6	1.51e+00	0	30	104	0	60	39028
2026-01-29 09:58:42.39	174.90	6.63	-44.7	-59.6	3.6	1.51e+00	0	30	104	0	60	38716
2026-01-29 09:58:45.33	175.02	6.88	-44.7	-59.6	3.6	1.51e+00	0	30	104	0	60	38755
2026-01-29 09:58:48.26	175.15	7.14	-44.9	-59.7	3.6	1.51e+00	0	30	104	0	60	39123
2026-01-29 09:58:51.20	175.27	7.41	-45.5	-60.4	3.6	1.51e+00	0	30	104	0	60	42480
2026-01-29 09:58:54.14	175.40	7.67	-44.9	-59.8	3.6	1.51e+00	0	30	104	0	60	39634
2026-01-29 09:58:57.07	175.53	7.94	-44.8	-59.7	3.6	1.51e+00	0	30	104	0	60	39037
2026-01-29 09:59:00.01	175.66	8.21	-44.9	-59.9	3.6	1.51e+00	0	30	104	0	60	39940
2026-01-29 09:59:02.96	175.80	8.49	-44.9	-59.8	3.6	1.51e+00	0	30	104	0	60	39695
2026-01-29 09:59:05.91	175.94	8.77	-44.8	-59.6	3.6	1.51e+00	0	30	104	0	60	38900
2026-01-29 09:59:08.86	176.08	9.06	-44.7	-59.7	3.6	1.51e+00	0	30	104	0	60	39126
2026-01-29 09:59:11.79	176.22	9.35	-44.8	-59.8	3.6	1.51e+00	0	30	104	0	60	39594
2026-01-29 09:59:14.73	176.37	9.65	-44.9	-59.8	3.6	1.51e+00	0	30	104	0	60	39558
2026-01-29 09:59:17.67	176.52	9.94	-44.6	-59.7	3.6	1.51e+00	0	30	104	0	60	39243
2026-01-29 09:59:20.61	176.68	10.25	-44.7	-59.7	3.6	1.51e+00	0	30	104	0	60	39321
2026-01-29 09:59:23.55	176.84	10.56	-44.9	-59.8	3.6	1.51e+00	0	30	104	0	60	39749
2026-01-29 09:59:26.50	177.00	10.87	-44.7	-59.8	3.6	1.51e+00	0	30	104	0	60	39727
2026-01-29 09:59:29.44	177.17	11.19	-44.6	-59.8	3.6	1.51e+00	0	30	104	0	60	39530
2026-01-29 09:59:32.38	177.34	11.52	-44.8	-59.9	3.6	1.51e+00	0	30	104	0	60	40053
2026-01-29 09:59:35.31	177.52	11.84	-44.7	-60.0	3.6	1.51e+00	0	30	104	0	60	40391
2026-01-29 09:59:38.25	177.70	12.18	-44.9	-59.8	3.6	1.51e+00	0	30	104	0	60	39839
2026-01-29 09:59:41.18	177.88	12.52	-44.7	-59.9	3.6	1.51e+00	0	30	104	0	60	39864
2026-01-29 09:59:44.12	178.07	12.87	-44.9	-59.9	3.6	1.51e+00	0	30	104	0	60	40314
2026-01-29 09:59:47.05	178.27	13.22	-45.1	-60.0	3.6	1.51e+00	0	30	104	0	60	40332
2026-01-29 09:59:49.99	178.47	13.58	-45.1	-59.9	3.6	1.51e+00	0	30	104	0	60	40097
2026-01-29 09:59:52.93	178.68	13.95	-44.7	-59.9	3.6	1.51e+00	0	30	104	0	60	40235
2026-01-29 09:59:55.86	178.89	14.33	-45.1	-60.0	3.6	1.51e+00	0	30	104	0	60	40380
2026-01-29 09:59:58.80	179.11	14.71	-45.0	-60.0	3.6	1.51e+00	0	30	104	0	60	40512
2026-01-29 10:00:01.74	179.33	15.10	-45.2	-59.9	3.6	1.51e+00	0	30	104	0	60	40287
2026-01-29 10:00:04.67	179.57	15.50	-45.2	-59.9	3.6	1.51e+00	0	30	104	0	60	40179
2026-01-29 10:00:07.60	179.80	15.90	-45.1	-59.9	3.6	1.51e+00	0	30	104	0	60	40319
2026-01-29 10:00:10.53	180.05	16.31	-45.2	-60.0	3.6	1.51e+00	0	30	104	0	60	40396
2026-01-29 10:00:13.47	180.31	16.74	-45.2	-60.0	3.6	1.51e+00	0	30	104	0	60	40450
2026-01-29 10:00:16.40	180.57	17.17	-45.2	-60.0	3.6	1.51e+00	0	30	104	0	60	40608
2026-01-29 10:00:19.34	180.84	17.61	-45.1	-60.1	3.6	1.51e+00	0	30	104	0	60	40963
2026-01-29 10:00:22.27	181.12	18.06	-45.2	-60.0	3.6	1.51e+00	0	30	104	0	60	40454
2026-01-29 10:00:25.22	181.41	18.53	-45.2	-59.9	3.6	1.51e+00	0	30	104	0	60	40214
2026-01-29 10:00:28.16	181.71	19.00	-45.2	-60.1	3.6	1.51e+00	0	30	104	0	60	40888
2026-01-29 10:00:31.10	182.02	19.49	-45.0	-60.1	3.6	1.51e+00	0	30	104	0	60	40925
2026-01-29 10:00:34.04	182.35	19.98	-45.2	-60.0	3.6	1.51e+00	0	30	104	0	60	40653
2026-01-29 10:00:36.98	182.68	20.49	-45.1	-60.0	3.6	1.51e+00	0	30	104	0	60	40749
2026-01-29 10:00:39.91	183.03	21.01	-45.3	-60.1	3.6	1.51e+00	0	30	104	0	60	41042
2026-01-29 10:00:42.84	183.38	21.54	-45.2	-60.1	3.6	1.51e+00	0	30	104	0	60	40943
2026-01-29 10:00:45.77	183.76	22.08	-45.3	-60.0	3.6	1.51e+00	0	30	104	0	60	40670
2026-01-29 10:00:48.71	184.15	22.64	-45.3	-60.1	3.5	1.51e+00	0	30	104	0	60	41060
2026-01-29 10:00:51.65	184.55	23.22	-45.2	-60.1	3.6	1.51e+00	0	30	104	0	60	41177
2026-01-29 10:00:54.58	184.97	23.81	-45.2	-60.1	3.6	1.51e+00	0	30	104	0	60	41178
2026-01-29 10:00:57.53	185.41	24.41	-45.1	-60.0	3.6	1.51e+00	0	30	104	0	60	40780
2026-01-29 10:01:00.47	185.87	25.03	-45.1	-60.1	3.6	1.51e+00	0	30	104	0	60	40944
2026-01-29 10:01:03.40	186.35	25.67	-45.2	-60.1	3.6	1.51e+00	0	30	104	0	60	41252
2026-01-29 10:01:06.32	186.84	26.32	-45.1	-60.1	3.6	1.51e+00	0	30	104	0	60	41025
2026-01-29 10:01:09.25	187.36	26.99	-45.0	-60.1	3.6	1.51e+00	0	30	104	0	60	40980
2026-01-29 10:01:12.19	187.91	27.68	-45.0	-60.1	3.6	1.51e+00	0	30	104	0	60	41238
2026-01-29 10:01:15.12	188.48	28.38	-45.0	-60.2	3.6	1.51e+00	0	30	104	0	60	41423
2026-01-29 10:01:18.06	189.08	29.11	-44.9	-60.1	3.6	1.51e+00	0	30	104	0	60	41124
2026-01-29 10:01:21.00	189.71	29.86	-44.8	-60.1	3.6	1.51e+00	0	30	104	0	60	41100
2026-01-29 10:01:23.94	190.38	30.63	-44.8	-60.2	3.6	1.51e+00	0	30	104	0	60	41306
2026-01-29 10:01:26.88	191.07	31.41	-44.8	-60.2	3.6	1.51e+00	0	30	104	0	60	41461
2026-01-29 10:01:29.82	191.81	32.22	-44.8	-60.1	3.6	1.51e+00	0	30	104	0	60	41154
2026-01-29 10:01:32.76	192.59	33.06	-44.9	-60.1	3.6	1.51e+00	0	30	104	0	60	41235
2026-01-29 10:01:35.69	193.40	33.91	-44.8	-60.2	3.6	1.51e+00	0	30	104	0	60	41312
2026-01-29 10:01:38.63	194.27	34.78	-44.8	-60.1	3.6	1.51e+00	0	30	104	0	60	41170
2026-01-29 10:01:41.56	195.18	35.67	-44.9	-60.1	3.6	1.51e+00	0	30	104	0	60	41055
2026-01-29 10:01:44.50	196.16	36.59	-45.0	-60.2	3.6	1.51e+00	0	30	104	0	60	41379
2026-01-29 10:01:47.43	197.18	37.53	-45.1	-60.2	3.6	1.51e+00	0	30	104	0	60	41718
2026-01-29 10:01:50.37	198.28	38.49	-45.1	-60.2	3.6	1.51e+00	0	30	104	0	60	41555
2026-01-29 10:01:53.31	199.44	39.47	-45.1	-60.2	3.6	1.51e+00	0	30	104	0	60	41611
2026-01-29 10:01:56.25	200.69	40.47	-45.2	-60.2	3.6	1.51e+00	0	30	104	0	60	41495
2026-01-29 10:01:59.19	202.01	41.48	-45.2	-60.2	3.6	1.51e+00	0	31	104	0	60	41546
2026-01-29 10:02:02.13	203.43	42.51	-45.3	-60.2	3.6	1.51e+00	0	30	104	0	60	41565
2026-01-29 10:02:05.07	204.94	43.56	-45.2	-60.2	3.6	1.51e+00	0	30	104	0	60	41269
2026-01-29 10:02:08.01	206.55	44.61	-45.2	-60.2	3.6	1.51e+00	0	30	104	0	60	41568
2026-01-29 10:02:10.94	208.28	45.67	-45.2	-60.1	3.6	1.51e+00	0	31	104	0	60	41195
2026-01-29 10:02:13.87	210.13	46.73	-45.4	-60.2	3.6	1.51e+00	0	30	104	0	60	41550
2026-01-29 10:02:16.80	212.11	47.78	-45.3	-60.2	3.6	1.51e+00	0	30	104	0	60	41332
2026-01-29 10:02:19.73	214.23	48.82	-45.3	-60.2	3.6	1.51e+00	0	31	104	0	60	41471
2026-01-29 10:02:22.67	216.51	49.86	-45.4	-60.2	3.6	1.51e+00	0	30	104	0	60	41532
2026-01-29 10:02:25.60	218.94	50.86	-45.4	-60.2	3.6	1.51e+00	0	30	104	0	60	41520
2026-01-29 10:02:28.54	221.56	51.84	-45.4	-60.2	3.6	1.51e+00	0	31	104	0	60	41390
2026-01-29 10:02:31.48	224.34	52.77	-45.4	-60.2	3.6	1.51e+00	0	31	104	0	60	41548
2026-01-29 10:02:34.42	227.31	53.65	-45.4	-60.2	3.6	1.51e+00	0	31	104	0	60	41346
2026-01-29 10:02:37.36	230.46	54.46	-45.4	-60.2	3.6	1.51e+00	0	30	104	0	60	41434
2026-01-29 10:02:40.30	233.79	55.20	-45.5	-60.2	3.6	1.51e+00	0	30	104	0	60	41430
2026-01-29 10:02:43.23	237.28	55.85	-45.5	-60.2	3.6	1.51e+00	0	30	104	0	60	41639
2026-01-29 10:02:46.17	240.93	56.40	-45.4	-60.2	3.6	1.51e+00	0	31	104	0	60	41401
2026-01-29 10:02:49.10	244.71	56.84	-45.4	-60.2	3.6	1.51e+00	0	31	104	0	60	41420
2026-01-29 10:02:52.03	248.59	57.16	-45.4	-60.2	3.6	1.51e+00	0	30	104	0	60	41585
2026-01-29 10:02:54.97	252.56	57.36	-45.4	-60.2	3.6	1.51e+00	0	31	104	0	60	41522
2026-01-29 10:02:57.91	256.57	57.43	-45.3	-60.2	3.6	1.51e+00	0	31	104	0	60	41558
2026-01-29 10:03:00.84	260.57	57.37	-45.3	-60.2	3.6	1.51e+00	0	31	104	0	60	41297
2026-01-29 10:03:03.77	264.54	57.18	-45.2	-60.2	3.6	1.51e+00	0	31	104	0	60	41558
2026-01-29 10:03:06.70	268.43	56.87	-45.2	-60.2	3.6	1.51e+00	0	30	104	0	60	41472
2026-01-29 10:03:09.64	272.23	56.44	-45.0	-60.2	3.6	1.51e+00	0	30	104	0	60	41394
2026-01-29 10:03:12.57	275.88	55.90	-45.1	-60.2	3.6	1.51e+00	0	31	104	0	60	41345
2026-01-29 10:03:15.50	279.38	55.26	-45.3	-60.2	3.6	1.51e+00	0	31	104	0	60	41512
2026-01-29 10:03:18.43	282.71	54.53	-45.2	-60.2	3.6	1.51e+00	0	30	104	0	60	41350
2026-01-29 10:03:21.36	285.87	53.73	-45.3	-60.2	3.6	1.51e+00	0	30	104	0	60	41421
2026-01-29 10:03:24.30	288.86	52.86	-45.3	-60.2	3.6	1.51e+00	0	30	104	0	60	41576
2026-01-29 10:03:27.23	291.65	51.93	-45.2	-60.2	3.6	1.51e+00	0	31	104	0	60	41648
2026-01-29 10:03:30.15	294.26	50.97	-45.2	-60.2	3.6	1.51e+00	0	31	104	0	60	41433
2026-01-29 10:03:33.08	296.72	49.97	-45.1	-60.3	3.6	1.51e+00	0	31	104	0	60	41835
2026-01-29 10:03:36.02	299.01	48.94	-45.1	-60.2	3.6	1.51e+00	0	31	104	0	60	41735
2026-01-29 10:03:38.95	301.15	47.89	-45.4	-60.2	3.6	1.51e+00	0	31	104	0	60	41514
2026-01-29 10:03:41.89	303.15	46.84	-45.3	-60.3	3.6	1.51e+00	0	31	104	0	60	41919
2026-01-29 10:03:44.82	305.01	45.78	-45.4	-60.2	3.6	1.51e+00	0	31	104	0	60	41640
2026-01-29 10:03:47.75	306.75	44.72	-45.3	-60.3	3.6	1.51e+00	0	31	104	0	60	42031
2026-01-29 10:03:50.68	308.37	43.67	-45.4	-60.2	3.6	1.51e+00	0	31	104	0	60	41598
2026-01-29 10:03:53.61	309.89	42.63	-45.4	-60.3	3.6	1.51e+00	0	31	104	0	60	41758
2026-01-29 10:03:56.54	311.31	41.60	-45.5	-60.3	3.6	1.51e+00	0	31	104	0	60	41928
2026-01-29 10:03:59.48	312.65	40.58	-45.5	-60.2	3.6	1.51e+00	0	31	104	0	60	41657
2026-01-29 10:04:02.41	313.89	39.59	-45.4	-60.2	3.6	1.51e+00	0	30	104	0	60	41663
2026-01-29 10:04:05.34	315.07	38.61	-45.4	-60.3	3.6	1.51e+00	0	31	104	0	60	42038
2026-01-29 10:04:08.26	316.16	37.65	-45.5	-60.3	3.6	1.51e+00	0	31	104	0	60	41860
2026-01-29 10:04:11.20	317.20	36.71	-45.4	-60.3	3.6	1.51e+00	0	31	104	0	60	41802
2026-01-29 10:04:14.14	318.18	35.79	-45.5	-60.3	3.6	1.51e+00	0	30	104	0	60	41840
2026-01-29 10:04:17.07	319.10	34.89	-45.5	-60.3	3.6	1.51e+00	0	31	104	0	60	41801
2026-01-29 10:04:20.00	319.97	34.02	-45.4	-60.2	3.6	1.51e+00	0	31	104	0	60	41698
2026-01-29 10:04:22.93	320.80	33.17	-45.3	-60.3	3.6	1.51e+00	0	31	104	0	60	41783
2026-01-29 10:04:25.86	321.57	32.34	-45.4	-60.3	3.6	1.51e+00	0	31	104	0	60	41779
2026-01-29 10:04:28.79	322.31	31.53	-45.4	-60.2	3.6	1.51e+00	0	31	104	0	60	41627
2026-01-29 10:04:31.72	323.02	30.74	-45.6	-60.3	3.6	1.51e+00	0	31	104	0	60	41848
2026-01-29 10:04:34.64	323.68	29.97	-45.5	-60.2	3.6	1.51e+00	0	31	104	0	60	41674
2026-01-29 10:04:37.58	324.32	29.22	-45.5	-60.3	3.6	1.51e+00	0	31	104	0	60	41875
2026-01-29 10:04:40.51	324.92	28.49	-45.5	-60.2	3.6	1.51e+00	0	31	104	0	60	41612
2026-01-29 10:04:43.44	325.50	27.79	-45.5	-60.2	3.6	1.51e+00	0	31	104	0	60	41734
2026-01-29 10:04:46.37	326.05	27.10	-45.5	-60.3	3.6	1.51e+00	0	31	104	0	60	41763
2026-01-29 10:04:49.30	326.57	26.42	-45.5	-60.2	3.6	1.51e+00	0	31	104	0	60	41455
2026-01-29 10:04:52.24	327.07	25.77	-45.4	-60.2	3.6	1.51e+00	0	31	104	0	60	41573
2026-01-29 10:04:55.17	327.55	25.13	-45.5	-60.2	3.6	1.51e+00	0	31	104	0	60	41582
2026-01-29 10:04:58.11	328.02	24.51	-45.6	-60.3	3.6	1.51e+00	0	30	104	0	60	41892
2026-01-29 10:05:01.04	328.46	23.90	-45.5	-60.2	3.6	1.51e+00	0	31	104	0	60	41499
2026-01-29 10:05:03.97	328.88	23.31	-45.5	-60.2	3.6	1.51e+00	0	30	104	0	60	41550
2026-01-29 10:05:06.91	329.29	22.74	-45.5	-60.2	3.6	1.51e+00	0	31	104	0	60	41458
2026-01-29 10:05:09.84	329.68	22.18	-45.5	-60.2	3.6	1.51e+00	0	31	104	0	60	41408
2026-01-29 10:05:12.77	330.06	21.63	-45.4	-60.2	3.6	1.51e+00	0	31	104	0	60	41305
2026-01-29 10:05:15.70	330.42	21.10	-45.4	-60.2	3.6	1.51e+00	0	31	104	0	60	41403
2026-01-29 10:05:18.64	330.77	20.57	-45.4	-60.2	3.6	1.51e+00	0	31	104	0	60	41316
2026-01-29 10:05:21.58	331.10	20.06	-45.3	-60.2	3.6	1.51e+00	0	31	104	0	60	41303
2026-01-29 10:05:24.51	331.43	19.57	-45.3	-60.1	3.6	1.51e+00	0	31	104	0	60	40947
2026-01-29 10:05:27.44	331.74	19.08	-45.3	-60.2	3.6	1.51e+00	0	31	104	0	60	41345
2026-01-29 10:05:30.37	332.04	18.61	-45.3	-60.1	3.6	1.51e+00	0	31	104	0	60	40864
2026-01-29 10:05:33.30	332.34	18.15	-45.2	-60.0	3.6	1.51e+00	0	31	104	0	60	40575
2026-01-29 10:05:36.22	332.62	17.70	-45.2	-60.0	3.6	1.51e+00	0	31	104	0	60	40649
2026-01-29 10:05:39.16	332.89	17.25	-45.3	-60.1	3.6	1.51e+00	0	31	104	0	60	40862
2026-01-29 10:05:42.09	333.16	16.82	-45.2	-60.1	3.6	1.51e+00	0	31	104	0	60	40852
2026-01-29 10:05:45.03	333.41	16.39	-45.2	-60.0	3.6	1.51e+00	0	31	104	0	60	40489
2026-01-29 10:05:47.97	333.66	15.98	-45.3	-60.1	3.6	1.51e+00	0	30	104	0	60	40826
2026-01-29 10:05:50.90	333.91	15.57	-45.1	-60.0	3.6	1.51e+00	0	31	104	0	60	40710
2026-01-29 10:05:53.83	334.14	15.17	-45.2	-60.0	3.6	1.51e+00	0	31	104	0	60	40403
2026-01-29 10:05:56.76	334.37	14.78	-45.2	-59.9	3.6	1.51e+00	0	31	104	0	60	40284
2026-01-29 10:05:59.69	334.59	14.40	-45.0	-60.0	3.6	1.51e+00	0	31	104	0	60	40521
2026-01-29 10:06:02.62	334.80	14.03	-45.0	-60.0	3.6	1.51e+00	0	30	104	0	60	40347
2026-01-29 10:06:05.56	335.01	13.66	-45.0	-60.0	3.6	1.51e+00	0	31	104	0	60	40395
2026-01-29 10:06:08.50	335.22	13.29	-45.0	-59.9	3.6	1.51e+00	0	31	104	0	60	40082
2026-01-29 10:06:11.42	335.41	12.94	-45.1	-59.9	3.6	1.51e+00	0	31	104	0	60	40118
2026-01-29 10:06:14.36	335.61	12.59	-44.9	-59.9	3.6	1.51e+00	0	31	104	0	60	40205
2026-01-29 10:06:17.31	335.79	12.25	-44.8	-59.8	3.6	1.51e+00	0	31	104	0	60	39831
2026-01-29 10:06:20.24	335.98	11.91	-45.0	-59.9	3.6	1.51e+00	0	31	104	0	60	40159
2026-01-29 10:06:23.18	336.15	11.58	-45.1	-59.9	3.6	1.51e+00	0	31	104	0	60	40133
2026-01-29 10:06:26.12	336.33	11.26	-45.1	-59.8	3.6	1.51e+00	0	31	104	0	60	39830
2026-01-29 10:06:29.06	336.50	10.94	-45.1	-59.9	3.6	1.51e+00	0	31	104	0	60	39974
2026-01-29 10:06:32.00	336.66	10.62	-45.0	-59.8	3.6	1.51e+00	0	31	104	0	60	39746
2026-01-29 10:06:34.94	336.83	10.31	-45.2	-59.9	3.6	1.51e+00	0	31	104	0	60	40115
2026-01-29 10:06:37.87	336.98	10.01	-45.0	-59.9	3.6	1.51e+00	0	31	104	0	60	39975
2026-01-29 10:06:40.80	337.14	9.71	-45.0	-59.8	3.6	1.51e+00	0	31	104	0	60	39741
2026-01-29 10:06:43.74	337.29	9.41	-45.0	-59.8	3.6	1.51e+00	0	31	104	0	60	39574
2026-01-29 10:06:46.68	337.44	9.12	-45.1	-59.8	3.6	1.51e+00	0	31	104	0	60	39624
2026-01-29 10:06:49.61	337.58	8.84	-45.0	-59.8	3.6	1.51e+00	0	31	104	0	60	39462
2026-01-29 10:06:52.54	337.72	8.56	-45.0	-59.7	3.6	1.51e+00	0	31	104	0	60	39167
2026-01-29 10:06:55.48	337.86	8.28	-45.0	-59.8	3.6	1.51e+00	0	31	104	0	60	39434
2026-01-29 10:06:58.42	337.99	8.00	-44.9	-59.7	3.6	1.51e+00	0	31	104	0	60	39217
2026-01-29 10:07:01.35	338.13	7.73	-44.9	-59.7	3.6	1.51e+00	0	31	104	0	60	39378
2026-01-29 10:07:04.29	338.26	7.47	-44.8	-59.6	3.6	1.51e+00	0	31	104	0	60	38606
2026-01-29 10:07:07.22	338.38	7.21	-44.9	-59.7	3.6	1.51e+00	0	31	104	0	60	39085
2026-01-29 10:07:10.15	338.51	6.95	-44.7	-59.4	3.6	1.51e+00	0	31	104	0	60	38046
2026-01-29 10:07:13.09	338.63	6.69	-44.8	-59.6	3.6	1.51e+00	0	31	104	0	60	38633
2026-01-29 10:07:16.02	338.75	6.44	-44.5	-59.2	3.6	1.51e+00	0	31	104	0	60	37113
2026-01-29 10:07:18.95	338.87	6.19	-44.7	-59.4	3.6	1.51e+00	0	31	104	0	60	37962
2026-01-29 10:07:21.88	338.98	5.94	-43.8	-58.7	3.6	1.51e+00	0	31	104	0	60	34754
2026-01-29 10:07:24.81	339.09	5.70	-41.2	-55.9	3.6	1.51e+00	0	31	104	0	58	28525
2026-01-29 10:07:27.75	339.20	5.46	-42.4	-57.1	3.6	1.51e+00	0	31	104	0	60	28966
2026-01-29 10:07:30.68	339.31	5.22	-41.5	-56.3	3.6	1.51e+00	0	31	104	0	58	29598
2026-01-29 10:07:33.61	339.42	4.99	-41.2	-55.9	3.6	1.51e+00	0	31	104	0	58	28441
2026-01-29 10:07:36.55	339.53	4.76	-41.6	-56.3	3.6	1.51e+00	0	31	104	0	58	29875
2026-01-29 10:07:39.48	339.63	4.53	-41.2	-55.9	3.6	1.51e+00	0	31	104	0	58	28346
2026-01-29 10:07:42.43	339.73	4.30	-41.2	-55.9	3.6	1.51e+00	0	31	104	0	58	28264
2026-01-29 10:07:45.36	339.83	4.08	-41.3	-56.0	3.6	1.51e+00	0	31	104	0	58	28863
2026-01-29 10:07:48.30	339.93	3.85	-41.0	-55.8	3.6	1.51e+00	0	31	104	0	58	28109
2026-01-29 10:07:51.23	340.03	3.63	-41.2	-55.9	3.6	1.51e+00	0	31	104	0	58	28286
2026-01-29 10:07:54.16	340.12	3.42	-41.2	-55.9	3.6	1.51e+00	0	31	104	0	58	28415
2026-01-29 10:07:57.10	340.21	3.20	-41.3	-56.0	3.6	1.51e+00	0	31	104	0	58	28751
2026-01-29 10:08:00.03	340.31	2.99	-42.2	-56.9	3.6	1.51e+00	0	31	104	0	58	31793
2026-01-29 10:08:02.96	340.40	2.78	-45.2	-60.0	3.6	1.51e+00	0	31	104	0	60	40643
2026-01-29 10:08:05.91	340.49	2.57	-45.5	-60.4	3.6	1.51e+00	0	31	104	0	60	42435
2026-01-29 10:08:08.83	340.57	2.36	-45.8	-60.5	3.6	1.51e+00	0	31	104	0	60	42891
2026-01-29 10:08:11.76	340.66	2.16	-45.9	-60.7	3.6	1.51e+00	0	31	104	0	60	43827
2026-01-29 10:08:14.69	340.74	1.96	-45.5	-60.4	3.6	1.51e+00	0	31	104	0	60	42420
2026-01-29 10:08:17.63	340.83	1.75	-45.5	-60.3	3.6	1.51e+00	0	31	104	0	60	41782
2026-01-29 10:08:20.56	340.91	1.55	-45.4	-60.2	3.6	1.51e+00	0	31	104	0	60	41723
2026-01-29 10:08:23.49	340.99	1.36	-45.6	-60.3	3.6	1.51e+00	0	31	104	0	60	41844
2026-01-29 10:08:26.42	341.07	1.16	-45.5	-60.2	3.5	1.51e+00	0	31	104	0	60	41555
2026-01-29 10:08:29.35	341.15	0.97	-45.5	-60.2	3.6	1.51e+00	0	31	104	0	60	41296
2026-01-29 10:08:32.29	341.23	0.78	-45.4	-60.1	3.6	1.51e+00	0	31	104	0	60	41217
2026-01-29 10:08:35.22	341.31	0.58	-45.4	-60.2	3.6	1.51e+00	0	31	104	0	60	41367
2026-01-29 10:08:38.14	341.38	0.40	-45.4	-60.1	3.6	1.51e+00	0	31	104	0	60	41138
2026-01-29 10:08:41.08	341.46	0.21	-45.5	-60.2	3.6	1.51e+00	0	31	104	0	60	41451
2026-01-29 10:08:44.01	341.53	0.02	-45.5	-60.2	3.6	1.51e+00	0	31	104	0	60	41498

#Closed at: 2026-01-29 10:08:44
#Recorded file [0 MB]: D:/lorett/data/35029_260129_215717.dat