passes_logs/2025/01/05/X_MFTI_01/X_MFTI_01__20250105_101630_NOAA_20_rec.log

#Pass ID: 20250105_101630_NOAA 20
#Satellite: NOAA 20
#Configuration: NOAA 20
#Start time: 2025-01-05 10:16:26

#Version: 1.5.20200625
#Station: X_MFTI_01
#Location: 37.5186 lon 55.9291 lat
#TLE: 1 43013U 17073A   23362.44808611  .00000160  00000+0  96626-4 0  9996
#TLE: 2 43013  98.7331 297.9536 0000783  57.5916 302.5335 14.19555620316533

#Time	Az	El	Level	Level2	SNR	BER	Gain	Gain2
2025-01-05 10:16:26.64	210.68	68.86	-71.4	-95.5	3.8	14942085	99	58001
2025-01-05 10:16:26.86	210.90	68.93	-71.4	-95.3	3.8	14904388	99	56588
2025-01-05 10:16:27.07	211.10	68.99	-71.4	-95.3	3.8	14904388	99	56512
2025-01-05 10:16:27.27	211.30	69.06	-71.4	-95.3	3.8	14895088	99	56527
2025-01-05 10:16:27.47	211.50	69.12	-71.4	-95.3	3.8	14895088	99	56649
2025-01-05 10:16:27.68	211.71	69.19	-71.4	-95.3	3.8	14901687	99	56582
2025-01-05 10:16:27.88	211.91	69.25	-71.4	-95.3	3.8	14901687	99	56601
2025-01-05 10:16:28.09	212.12	69.32	-71.4	-95.3	3.8	14901687	99	56496
2025-01-05 10:16:28.29	212.33	69.38	-71.4	-95.3	3.8	14906890	99	56688
2025-01-05 10:16:28.50	212.54	69.44	-71.4	-95.4	3.8	14906890	99	56715
2025-01-05 10:16:28.70	212.75	69.51	-71.4	-95.4	3.8	14899894	99	56533
2025-01-05 10:16:28.90	212.96	69.57	-71.4	-95.4	3.8	14899894	99	56606
2025-01-05 10:16:29.11	213.18	69.63	-71.4	-95.3	3.8	14910568	99	56555
2025-01-05 10:16:29.32	213.40	69.70	-71.4	-95.3	3.8	14910568	99	56364
2025-01-05 10:16:29.52	213.61	69.76	-71.4	-95.3	3.8	14899139	99	56389
2025-01-05 10:16:29.72	213.83	69.82	-71.4	-95.3	3.8	14899139	99	56398
2025-01-05 10:16:29.92	214.04	69.88	-71.4	-95.4	3.8	14917678	99	56520
2025-01-05 10:16:30.12	214.26	69.94	-71.4	-95.3	3.8	14917678	99	56652
2025-01-05 10:16:30.32	214.47	70.00	-71.4	-95.3	3.9	14898139	99	56441
2025-01-05 10:16:30.52	214.69	70.06	-71.4	-95.3	3.8	14898139	99	56294
2025-01-05 10:16:30.72	214.91	70.12	-71.1	-94.9	3.8	14898139	99	55528
2025-01-05 10:16:30.94	215.16	70.19	-71.4	-95.3	3.8	14900093	99	56483
2025-01-05 10:16:31.14	215.38	70.25	-71.4	-95.3	3.8	14900093	99	56462
2025-01-05 10:16:31.34	215.61	70.31	-71.4	-95.3	3.8	14908805	99	56570
2025-01-05 10:16:31.54	215.83	70.37	-71.4	-95.4	3.8	14908805	99	56511
2025-01-05 10:16:31.74	216.06	70.42	-71.4	-95.4	3.8	14910820	99	56513
2025-01-05 10:16:31.96	216.31	70.49	-71.4	-95.3	3.9	14910820	99	56491
2025-01-05 10:16:32.17	216.56	70.55	-71.4	-95.3	3.8	14912872	99	56238
2025-01-05 10:16:32.37	216.79	70.61	-71.4	-95.2	3.8	14912872	99	56107
2025-01-05 10:16:32.58	217.03	70.67	-71.3	-95.3	3.8	14909194	99	56547
2025-01-05 10:16:32.78	217.27	70.72	-71.4	-95.3	3.8	14909194	99	56508
2025-01-05 10:16:32.98	217.51	70.78	-71.4	-95.3	3.8	14911567	99	56667
2025-01-05 10:16:33.18	217.74	70.84	-71.4	-95.3	3.8	14911567	99	56653
2025-01-05 10:16:33.38	217.98	70.90	-71.4	-95.4	3.8	14915069	99	56782
2025-01-05 10:16:33.58	218.23	70.95	-71.4	-95.3	3.9	14915069	99	56317
2025-01-05 10:16:33.80	218.49	71.01	-71.4	-95.2	3.8	14913444	99	56162
2025-01-05 10:16:34.00	218.74	71.07	-71.4	-95.3	3.8	14913444	99	56677
2025-01-05 10:16:34.20	218.98	71.12	-71.4	-95.3	3.8	14913444	99	56611
2025-01-05 10:16:34.40	219.23	71.18	-71.4	-95.6	3.8	14913734	99	57986
2025-01-05 10:16:34.60	219.48	71.23	-71.5	-95.6	3.8	14913734	99	57965
2025-01-05 10:16:34.80	219.73	71.29	-71.4	-95.6	3.8	14908737	99	58079
2025-01-05 10:16:35.00	219.98	71.34	-71.4	-95.5	3.8	14908737	99	57979
2025-01-05 10:16:35.21	220.25	71.40	-71.4	-95.6	3.8	14909774	99	58047
2025-01-05 10:16:35.41	220.51	71.45	-71.5	-95.6	3.8	14909774	99	57935
2025-01-05 10:16:35.61	220.76	71.51	-71.4	-95.5	3.8	14904235	99	57799
2025-01-05 10:16:35.81	221.02	71.56	-71.4	-95.5	3.8	14904235	99	57984
2025-01-05 10:16:36.03	221.31	71.62	-71.4	-95.6	3.8	14913558	99	58098
2025-01-05 10:16:36.23	221.57	71.67	-71.5	-95.6	3.8	14913558	99	58047
2025-01-05 10:16:36.43	221.83	71.72	-71.5	-95.6	3.9	14903083	99	57797
2025-01-05 10:16:36.63	222.10	71.77	-71.4	-95.5	3.8	14903083	99	57458
2025-01-05 10:16:36.83	222.36	71.82	-71.5	-95.6	3.8	14903083	99	57816
2025-01-05 10:16:37.05	222.66	71.88	-71.4	-95.5	3.8	14904968	99	57368
2025-01-05 10:16:37.25	222.93	71.93	-71.4	-95.5	3.8	14904968	99	57522
2025-01-05 10:16:37.45	223.20	71.98	-71.4	-95.5	3.8	14913291	99	57566
2025-01-05 10:16:37.65	223.47	72.03	-71.4	-95.5	3.9	14913291	99	57712
2025-01-05 10:16:37.85	223.75	72.08	-71.4	-95.5	3.8	14910438	99	57764
2025-01-05 10:16:38.05	224.02	72.13	-71.5	-95.6	3.9	14910438	99	57835
2025-01-05 10:16:38.25	224.30	72.17	-71.4	-95.6	3.9	14899063	99	57829
2025-01-05 10:16:38.45	224.58	72.22	-71.4	-95.6	3.8	14899063	99	57760
2025-01-05 10:16:38.66	224.88	72.27	-71.4	-95.4	3.8	14911994	99	57242
2025-01-05 10:16:38.86	225.16	72.32	-71.4	-95.5	3.8	14911994	99	57714
2025-01-05 10:16:39.06	225.44	72.37	-71.4	-95.5	3.8	14914245	99	57737
2025-01-05 10:16:39.26	225.73	72.41	-71.4	-95.6	3.8	14914245	99	58050
2025-01-05 10:16:39.48	226.05	72.46	-71.4	-95.4	3.8	14899787	99	57305
2025-01-05 10:16:39.68	226.34	72.51	-71.4	-95.4	3.8	14899787	99	57276
2025-01-05 10:16:39.88	226.63	72.56	-71.4	-95.5	3.8	14899787	99	57326
2025-01-05 10:16:40.08	226.92	72.60	-71.4	-95.4	3.8	14905776	99	57224
2025-01-05 10:16:40.28	227.21	72.65	-71.4	-95.3	3.8	14905776	99	56655
2025-01-05 10:16:40.48	227.51	72.69	-71.4	-95.3	3.8	14911621	99	56788
2025-01-05 10:16:40.70	227.83	72.74	-71.4	-95.3	3.8	14911621	99	56876
2025-01-05 10:16:40.91	228.15	72.78	-71.4	-95.4	3.8	14907554	99	57234
2025-01-05 10:16:41.11	228.45	72.83	-71.4	-95.5	3.8	14907554	99	57226
2025-01-05 10:16:41.33	228.78	72.87	-71.5	-95.5	3.8	14906860	99	57329
2025-01-05 10:16:41.53	229.09	72.91	-71.4	-95.5	3.8	14906860	99	57243
2025-01-05 10:16:41.73	229.39	72.96	-71.4	-95.4	3.8	14915748	99	57087
2025-01-05 10:16:41.93	229.70	73.00	-71.4	-95.4	3.8	14915748	99	57261
2025-01-05 10:16:42.13	230.01	73.04	-71.4	-95.4	3.8	14904319	99	57081
2025-01-05 10:16:42.35	230.35	73.08	-71.4	-95.5	3.8	14904319	99	57290
2025-01-05 10:16:42.56	230.67	73.12	-71.4	-95.5	3.8	14907150	99	57275
2025-01-05 10:16:42.77	231.00	73.16	-71.4	-95.5	3.8	14907150	99	57247
2025-01-05 10:16:42.97	231.32	73.20	-71.4	-95.4	3.8	14899208	99	57322
2025-01-05 10:16:43.17	231.63	73.24	-71.4	-95.4	3.8	14899208	99	57284
2025-01-05 10:16:43.37	231.95	73.28	-71.3	-95.4	3.8	14899208	99	57248
2025-01-05 10:16:43.57	232.27	73.31	-71.4	-95.4	3.8	14907661	99	57300
2025-01-05 10:16:43.77	232.59	73.35	-71.3	-95.4	3.8	14907661	99	57235
2025-01-05 10:16:43.97	232.91	73.39	-71.4	-95.4	3.8	14919372	99	57106
2025-01-05 10:16:44.17	233.24	73.42	-71.4	-95.4	3.9	14919372	99	57135
2025-01-05 10:16:44.37	233.56	73.46	-71.5	-95.6	3.9	14907806	99	57817
2025-01-05 10:16:44.57	233.89	73.49	-71.5	-95.5	3.9	14907806	99	57644
2025-01-05 10:16:44.78	234.23	73.53	-71.4	-95.5	3.8	14899780	99	57379
2025-01-05 10:16:44.98	234.56	73.56	-71.4	-95.6	3.8	14899780	99	58070
2025-01-05 10:16:45.18	234.89	73.60	-71.4	-95.5	3.8	14903999	99	58032
2025-01-05 10:16:45.38	235.23	73.63	-71.4	-95.6	3.8	14903999	99	58099
2025-01-05 10:16:45.58	235.56	73.66	-71.4	-95.6	3.8	14903999	99	58108
2025-01-05 10:16:45.78	235.90	73.69	-71.5	-95.6	3.8	14918151	99	58045
2025-01-05 10:16:45.98	236.23	73.72	-71.4	-95.6	3.8	14918151	99	57947
2025-01-05 10:16:46.18	236.57	73.75	-71.4	-95.6	3.8	14905609	99	58096
2025-01-05 10:16:46.38	236.91	73.78	-71.4	-95.5	3.8	14905609	99	58031
2025-01-05 10:16:46.58	237.25	73.81	-71.4	-95.6	3.8	14906341	99	58097
2025-01-05 10:16:46.79	237.61	73.84	-71.4	-95.5	3.8	14906341	99	58118
2025-01-05 10:16:46.99	237.95	73.87	-71.4	-95.4	3.8	14912879	99	57219
2025-01-05 10:16:47.20	238.31	73.90	-71.4	-95.5	3.8	14912879	99	57287
2025-01-05 10:16:47.42	238.69	73.93	-71.4	-95.4	3.8	14895553	99	57372
2025-01-05 10:16:47.62	239.04	73.96	-71.4	-95.4	3.8	14895553	99	57437
2025-01-05 10:16:47.82	239.39	73.98	-71.4	-95.4	3.8	14907844	99	57314
2025-01-05 10:16:48.02	239.74	74.01	-71.4	-95.4	3.8	14907844	99	57395
2025-01-05 10:16:48.22	240.09	74.04	-71.4	-95.4	3.8	14912254	99	57261
2025-01-05 10:16:48.42	240.44	74.06	-71.4	-95.3	3.8	14912254	99	56674
2025-01-05 10:16:48.63	240.81	74.08	-71.4	-95.3	3.9	14912254	99	56607
2025-01-05 10:16:48.83	241.16	74.11	-71.4	-95.3	3.9	14906707	99	56493
2025-01-05 10:16:49.03	241.52	74.13	-71.4	-95.3	3.9	14906707	99	56299
2025-01-05 10:16:49.23	241.87	74.15	-71.4	-95.3	3.9	14900062	99	56144
2025-01-05 10:16:49.43	242.23	74.17	-71.3	-95.3	3.8	14900062	99	57318
2025-01-05 10:16:49.63	242.59	74.20	-71.4	-95.6	3.8	14915405	99	58204
2025-01-05 10:16:49.83	242.94	74.22	-71.4	-95.6	3.8	14915405	99	58169
2025-01-05 10:16:50.04	243.32	74.24	-71.4	-95.6	3.8	14912406	99	58136
2025-01-05 10:16:50.25	243.70	74.26	-71.4	-95.6	3.8	14912406	99	58100
2025-01-05 10:16:50.45	244.06	74.27	-71.5	-95.6	3.8	14908226	99	58110
2025-01-05 10:16:50.65	244.43	74.29	-71.4	-95.6	3.8	14908226	99	58220
2025-01-05 10:16:50.86	244.81	74.31	-71.4	-95.6	3.8	14908470	99	58113
2025-01-05 10:16:51.06	245.17	74.33	-71.4	-95.5	3.8	14908470	99	57584
2025-01-05 10:16:51.26	245.54	74.34	-71.4	-95.5	3.8	14908782	99	57541
2025-01-05 10:16:51.46	245.90	74.36	-71.4	-95.5	3.8	14908782	99	57639
2025-01-05 10:16:51.66	246.27	74.37	-71.4	-95.6	3.8	14908782	99	58036
2025-01-05 10:16:51.86	246.64	74.39	-71.4	-95.6	3.9	14916770	99	58119
2025-01-05 10:16:52.06	247.00	74.40	-71.4	-95.5	3.9	14916770	99	57788
2025-01-05 10:16:52.26	247.37	74.42	-71.4	-95.5	3.9	14912635	99	57809
2025-01-05 10:16:52.48	247.78	74.43	-71.4	-95.5	3.8	14912635	99	57635
2025-01-05 10:16:52.68	248.15	74.44	-71.4	-95.6	3.8	14907905	99	58172
2025-01-05 10:16:52.88	248.52	74.45	-71.4	-95.6	3.8	14907905	99	58115
2025-01-05 10:16:53.08	248.89	74.46	-71.4	-95.5	3.8	14909934	99	57918
2025-01-05 10:16:53.28	249.26	74.47	-71.4	-95.6	3.8	14909934	99	58069
2025-01-05 10:16:53.48	249.63	74.48	-71.4	-95.5	3.8	14911369	99	58037
2025-01-05 10:16:53.69	250.02	74.49	-71.4	-95.6	3.8	14911369	99	58035
2025-01-05 10:16:53.89	250.40	74.50	-71.4	-95.6	3.8	14911369	99	58246
2025-01-05 10:16:54.09	250.77	74.51	-71.4	-95.5	3.8	14900512	99	57778
2025-01-05 10:16:54.29	251.14	74.51	-71.5	-95.6	3.8	14900512	99	58037
2025-01-05 10:16:54.49	251.52	74.52	-71.4	-95.4	3.8	14911247	99	57357
2025-01-05 10:16:54.69	251.89	74.52	-71.4	-95.4	3.8	14911247	99	57292
2025-01-05 10:16:54.89	252.26	74.53	-71.3	-95.3	3.8	14915756	99	57182
2025-01-05 10:16:55.09	252.64	74.53	-71.4	-95.4	3.8	14915756	99	57365
2025-01-05 10:16:55.29	253.01	74.54	-71.4	-95.4	3.8	14907417	99	57297
2025-01-05 10:16:55.51	253.43	74.54	-71.4	-95.4	3.8	14907417	99	57347
2025-01-05 10:16:55.71	253.80	74.54	-71.4	-95.4	3.8	14906188	99	57065
2025-01-05 10:16:55.91	254.18	74.54	-71.4	-95.4	3.8	14906188	99	57239
2025-01-05 10:16:56.11	254.55	74.54	-71.4	-95.3	3.8	14908554	99	56772
2025-01-05 10:16:56.33	254.96	74.54	-71.4	-95.4	3.8	14908554	99	57149
2025-01-05 10:16:56.53	255.34	74.54	-71.4	-95.4	3.8	14905525	99	57285
2025-01-05 10:16:56.73	255.71	74.54	-71.4	-95.4	3.9	14905525	99	57095
2025-01-05 10:16:56.93	256.09	74.54	-71.4	-95.4	3.8	14905525	99	57200
2025-01-05 10:16:57.13	256.46	74.54	-71.3	-95.3	3.8	14906661	99	56654
2025-01-05 10:16:57.34	256.86	74.54	-71.4	-95.4	3.8	14906661	99	57213
2025-01-05 10:16:57.54	257.23	74.53	-71.3	-95.4	3.8	14898262	99	57266
2025-01-05 10:16:57.74	257.61	74.53	-71.4	-95.4	3.8	14898262	99	57220
2025-01-05 10:16:57.94	257.98	74.52	-71.4	-95.5	3.8	14913131	99	57183
2025-01-05 10:16:58.15	258.37	74.52	-71.4	-95.4	3.8	14913131	99	56728
2025-01-05 10:16:58.36	258.77	74.51	-71.4	-95.4	3.8	14916770	99	57157
2025-01-05 10:16:58.56	259.14	74.50	-71.4	-95.5	3.8	14916770	99	57357
2025-01-05 10:16:58.76	259.51	74.50	-71.4	-95.5	3.8	14908004	99	57347
2025-01-05 10:16:58.96	259.89	74.49	-71.4	-95.4	3.8	14908004	99	57456
2025-01-05 10:16:59.16	260.26	74.48	-71.4	-95.4	3.8	14917106	99	57396
2025-01-05 10:16:59.36	260.63	74.47	-71.4	-95.4	3.8	14917106	99	57175
2025-01-05 10:16:59.56	261.00	74.46	-71.4	-95.4	3.8	14909744	99	57053
2025-01-05 10:16:59.76	261.37	74.45	-71.4	-95.4	3.9	14909744	99	57092
2025-01-05 10:16:59.96	261.74	74.44	-71.4	-95.4	3.9	14909744	99	57194
2025-01-05 10:17:00.16	262.11	74.43	-71.5	-95.4	3.8	14905586	99	56932
2025-01-05 10:17:00.38	262.52	74.41	-71.4	-95.3	3.8	14905586	99	56645
2025-01-05 10:17:00.58	262.89	74.40	-71.4	-95.4	3.8	14900962	99	56799
2025-01-05 10:17:00.78	263.25	74.39	-71.4	-95.4	3.8	14900962	99	56842
2025-01-05 10:17:00.98	263.62	74.37	-71.5	-95.5	3.8	14910446	99	57245
2025-01-05 10:17:01.19	264.01	74.36	-71.4	-95.5	3.8	14910446	99	57328
2025-01-05 10:17:01.39	264.37	74.34	-71.4	-95.5	3.8	14901588	99	57293
2025-01-05 10:17:01.60	264.75	74.33	-71.5	-95.5	3.9	14901588	99	57026
2025-01-05 10:17:01.80	265.12	74.31	-71.4	-95.4	3.8	14911186	99	56866
2025-01-05 10:17:02.00	265.48	74.29	-71.4	-95.4	3.8	14911186	99	56909
2025-01-05 10:17:02.20	265.84	74.27	-71.4	-95.4	3.8	14893783	99	57017
2025-01-05 10:17:02.41	266.22	74.25	-71.4	-95.4	3.8	14893783	99	56916
2025-01-05 10:17:02.61	266.58	74.23	-71.5	-95.5	3.8	14893783	99	57218
2025-01-05 10:17:02.81	266.94	74.21	-71.4	-95.4	3.9	14925415	99	57089
2025-01-05 10:17:03.01	267.30	74.19	-71.4	-95.4	3.9	14925415	99	56996
2025-01-05 10:17:03.21	267.66	74.17	-71.4	-95.4	3.9	14889343	99	57006
2025-01-05 10:17:03.41	268.02	74.15	-71.5	-95.6	3.8	14889343	99	57773
2025-01-05 10:17:03.61	268.37	74.13	-71.4	-95.6	3.8	14917198	99	58238
2025-01-05 10:17:03.81	268.73	74.11	-71.4	-95.6	3.8	14917198	99	58202
2025-01-05 10:17:04.01	269.08	74.08	-71.4	-95.6	3.8	14900535	99	58012
2025-01-05 10:17:04.21	269.43	74.06	-71.4	-95.6	3.8	14900535	99	58101
2025-01-05 10:17:04.42	269.80	74.03	-71.4	-95.4	3.8	14908416	99	57086
2025-01-05 10:17:04.62	270.15	74.01	-71.4	-95.4	3.8	14908416	99	57189
2025-01-05 10:17:04.82	270.50	73.98	-71.4	-95.4	3.8	14894073	99	57114
2025-01-05 10:17:05.02	270.85	73.96	-71.4	-95.4	3.8	14894073	99	57133
2025-01-05 10:17:05.22	271.19	73.93	-71.4	-95.4	3.8	14894073	99	57253
2025-01-05 10:17:05.42	271.54	73.90	-71.4	-95.4	3.8	14904418	99	57209
2025-01-05 10:17:05.62	271.88	73.88	-71.4	-95.4	3.8	14904418	99	57200
2025-01-05 10:17:05.82	272.23	73.85	-71.4	-95.4	3.8	14902534	99	56895
2025-01-05 10:17:06.03	272.58	73.82	-71.4	-95.4	3.9	14902534	99	56961
2025-01-05 10:17:06.23	272.92	73.79	-71.4	-95.4	3.9	14909164	99	56913
2025-01-05 10:17:06.44	273.28	73.76	-71.4	-95.4	3.8	14909164	99	56708
2025-01-05 10:17:06.64	273.62	73.73	-71.3	-95.2	3.8	14899810	99	56506
2025-01-05 10:17:06.85	273.97	73.69	-71.4	-95.4	3.8	14899810	99	57036
2025-01-05 10:17:07.05	274.31	73.66	-71.4	-95.4	3.8	14920326	99	57084
2025-01-05 10:17:07.25	274.64	73.63	-71.4	-95.5	3.8	14920326	99	57234
2025-01-05 10:17:07.45	274.97	73.60	-71.4	-95.5	3.8	14915573	99	57156
2025-01-05 10:17:07.65	275.30	73.56	-71.4	-95.4	3.8	14915573	99	57123
2025-01-05 10:17:07.87	275.66	73.53	-71.5	-95.5	3.8	14896255	99	57207
2025-01-05 10:17:08.07	275.99	73.49	-71.4	-95.4	3.8	14896255	99	57140
2025-01-05 10:17:08.27	276.32	73.46	-71.4	-95.4	3.8	14896255	99	57044
2025-01-05 10:17:08.47	276.64	73.42	-71.4	-95.4	3.8	14909568	99	56916
2025-01-05 10:17:08.67	276.97	73.39	-71.4	-95.4	3.8	14909568	99	57002
2025-01-05 10:17:08.87	277.29	73.35	-71.4	-95.4	3.8	14915664	99	56955
2025-01-05 10:17:09.07	277.61	73.31	-71.4	-95.3	3.8	14915664	99	56848
2025-01-05 10:17:09.27	277.93	73.28	-71.4	-95.4	3.9	14916297	99	56902
2025-01-05 10:17:09.48	278.26	73.24	-71.4	-95.5	3.9	14916297	99	57557
2025-01-05 10:17:09.69	278.59	73.20	-71.5	-95.6	3.8	14902153	99	57671
2025-01-05 10:17:09.89	278.91	73.16	-71.4	-95.6	3.8	14902153	99	58324
2025-01-05 10:17:10.09	279.22	73.12	-71.4	-95.6	3.8	14904937	99	58256
2025-01-05 10:17:10.29	279.53	73.08	-71.4	-95.6	3.8	14904937	99	58367
2025-01-05 10:17:10.50	279.86	73.04	-71.4	-95.5	3.9	14910842	99	57822
2025-01-05 10:17:10.70	280.16	73.00	-71.4	-95.5	3.9	14910842	99	57900
2025-01-05 10:17:10.90	280.47	72.96	-71.4	-95.5	3.9	14910842	99	57805
2025-01-05 10:17:11.10	280.78	72.92	-71.4	-95.5	3.9	14899505	99	57707
2025-01-05 10:17:11.30	281.08	72.87	-71.4	-95.5	3.8	14899505	99	57475
2025-01-05 10:17:11.50	281.38	72.83	-71.4	-95.4	3.9	14901733	99	57605
2025-01-05 10:17:11.70	281.68	72.79	-71.4	-95.5	3.8	14901733	99	57958
2025-01-05 10:17:11.90	281.98	72.75	-71.4	-95.6	3.8	14900596	99	58298
2025-01-05 10:17:12.10	282.28	72.70	-71.4	-95.6	3.8	14900596	99	58096
2025-01-05 10:17:12.31	282.59	72.66	-71.4	-95.6	3.8	14913352	99	58234
2025-01-05 10:17:12.51	282.88	72.61	-71.4	-95.5	3.8	14913352	99	57758
2025-01-05 10:17:12.72	283.19	72.56	-71.4	-95.6	3.8	14901847	99	58115
2025-01-05 10:17:12.92	283.48	72.52	-71.4	-95.5	3.8	14901847	99	58018
2025-01-05 10:17:13.12	283.77	72.47	-71.4	-95.6	3.8	14908607	99	58151
2025-01-05 10:17:13.32	284.06	72.43	-71.4	-95.5	3.8	14908607	99	58086
2025-01-05 10:17:13.53	284.36	72.38	-71.4	-95.6	3.8	14908607	99	58132
2025-01-05 10:17:13.74	284.66	72.33	-71.4	-95.6	3.9	14906875	99	57957
2025-01-05 10:17:13.94	284.94	72.28	-71.4	-95.6	3.9	14906875	99	57972
2025-01-05 10:17:14.14	285.22	72.23	-71.4	-95.5	3.9	14905113	99	57801
2025-01-05 10:17:14.34	285.50	72.19	-71.4	-95.5	3.8	14905113	99	57601
2025-01-05 10:17:14.56	285.80	72.13	-71.4	-95.4	3.8	14905067	99	56717
2025-01-05 10:17:14.76	286.08	72.08	-71.4	-95.4	3.8	14905067	99	56862
2025-01-05 10:17:14.96	286.36	72.04	-71.4	-95.3	3.8	14908233	99	56872
2025-01-05 10:17:15.16	286.63	71.99	-71.4	-95.4	3.8	14908233	99	57046
2025-01-05 10:17:15.36	286.90	71.94	-71.5	-95.5	3.9	14911079	99	57089
2025-01-05 10:17:15.56	287.17	71.89	-71.5	-95.5	3.9	14911079	99	57068
2025-01-05 10:17:15.77	287.45	71.83	-71.5	-95.5	3.8	14905540	99	56919
2025-01-05 10:17:15.97	287.72	71.78	-73.3	-97.2	3.8	14905540	99	56359
2025-01-05 10:17:16.17	287.98	71.73	-71.4	-95.4	3.8	14921722	99	57027
2025-01-05 10:17:16.37	288.25	71.68	-71.4	-95.4	3.8	14921722	99	57003
2025-01-05 10:17:16.57	288.51	71.63	-71.4	-95.4	3.8	14921722	99	57067
2025-01-05 10:17:16.77	288.77	71.57	-71.4	-95.4	3.9	14908287	99	57172
2025-01-05 10:17:16.97	289.03	71.52	-71.4	-95.5	3.9	14908287	99	57248
2025-01-05 10:17:17.19	289.31	71.46	-71.4	-95.4	3.9	14900207	99	57052
2025-01-05 10:17:17.39	289.57	71.41	-71.4	-95.4	3.9	14900207	99	56853
2025-01-05 10:17:17.60	289.83	71.35	-71.4	-95.4	3.8	14905754	99	57341
2025-01-05 10:17:17.81	290.10	71.30	-71.4	-95.5	3.8	14905754	99	57414
2025-01-05 10:17:18.01	290.35	71.24	-71.4	-95.4	3.8	14908599	99	57182
2025-01-05 10:17:18.22	290.61	71.19	-71.4	-95.5	3.8	14908599	99	57341
2025-01-05 10:17:18.42	290.86	71.13	-71.4	-95.5	3.8	14904129	99	57240
2025-01-05 10:17:18.63	291.11	71.07	-71.4	-95.5	3.8	14904129	99	57429
2025-01-05 10:17:18.83	291.36	71.02	-71.4	-95.5	3.8	14915412	99	57331
2025-01-05 10:17:19.03	291.60	70.96	-71.4	-95.4	3.8	14915412	99	57270
2025-01-05 10:17:19.23	291.84	70.91	-71.4	-95.4	3.8	14915412	99	57081
2025-01-05 10:17:19.43	292.08	70.85	-71.3	-95.3	3.8	14905738	99	57111
2025-01-05 10:17:19.63	292.32	70.79	-71.4	-95.4	3.8	14905738	99	57126
2025-01-05 10:17:19.83	292.56	70.74	-71.4	-95.4	3.8	14909500	99	57104
2025-01-05 10:17:20.03	292.79	70.68	-71.4	-95.4	3.8	14909500	99	57157
2025-01-05 10:17:20.23	293.03	70.62	-71.4	-95.4	3.9	14915443	99	57038
2025-01-05 10:17:20.45	293.28	70.56	-71.5	-95.5	3.8	14915443	99	57406
2025-01-05 10:17:20.65	293.51	70.50	-71.4	-95.5	3.8	14912803	99	57257
2025-01-05 10:17:20.85	293.74	70.44	-71.4	-95.4	3.8	14912803	99	57348
2025-01-05 10:17:21.05	293.97	70.38	-71.3	-95.4	3.8	14902832	99	57221
2025-01-05 10:17:21.26	294.21	70.32	-71.4	-95.5	3.8	14902832	99	57293

#Closed at: 2025-01-05 10:17:21