passes_logs/2026/01/16/R3.2S_Murmansk/R3.2S_Murmansk__20260116_211252_SUOMI_NPP_rec.log

#Pass ID: 20260116_211252_SUOMI NPP
#Satellite: SUOMI NPP
#Configuration: NPP
#almurnet v.1.7.20251203
#Start time: 2026-01-16 21:12:53

#Version: 2.2.20231116
#Station: R3.2S_Murmansk
#Location: 33.079688 lon 68.888172 lat
#TLE: 1 37849U 11061A   26015.94982489  .00000054  00000+0  46705-4 0  9991
#TLE: 2 37849  98.7812 317.9902 0002438  62.0366 298.1057 14.19525452736847

#Time	Az	El	Level	Level2	SNR	BER	BlckErr	Temp	State	Recorded	gain1	gain2
2026-01-16 21:12:53.06	18.66	2.01	-50.9	-65.8	3.8	1.49e+00	0	31	0	0	73	20010
2026-01-16 21:12:56.08	18.97	2.14	-50.9	-65.8	3.8	1.49e+00	0	31	104	0	72	21212
2026-01-16 21:12:59.11	19.28	2.27	-50.9	-65.8	3.8	1.49e+00	0	31	104	0	72	21161
2026-01-16 21:13:02.13	19.59	2.39	-50.9	-65.8	3.8	1.49e+00	0	32	104	0	72	21226
2026-01-16 21:13:05.16	19.91	2.52	-50.9	-65.8	3.8	1.49e+00	0	32	104	0	72	21141
2026-01-16 21:13:08.18	20.23	2.65	-50.9	-65.8	3.8	1.49e+00	0	32	104	0	72	21209
2026-01-16 21:13:11.21	20.55	2.78	-50.9	-65.8	3.8	1.49e+00	0	32	104	0	72	21234
2026-01-16 21:13:14.24	20.88	2.91	-50.9	-65.8	3.8	1.49e+00	0	32	104	0	72	21245
2026-01-16 21:13:17.26	21.20	3.03	-50.9	-65.8	3.8	1.49e+00	0	32	104	0	72	21260
2026-01-16 21:13:20.29	21.53	3.16	-50.9	-65.8	3.8	1.49e+00	0	32	104	0	72	21034
2026-01-16 21:13:23.31	21.87	3.29	-50.9	-65.8	3.8	1.49e+00	0	32	104	0	72	21105
2026-01-16 21:13:26.34	22.20	3.42	-50.9	-65.8	3.8	1.49e+00	0	32	104	0	72	21078
2026-01-16 21:13:29.37	22.54	3.54	-50.9	-65.8	3.8	1.49e+00	0	32	104	0	72	21073
2026-01-16 21:13:32.39	22.88	3.67	-50.9	-65.8	3.8	1.49e+00	0	32	104	0	72	21124
2026-01-16 21:13:35.41	23.22	3.80	-50.9	-65.8	3.8	1.49e+00	0	33	104	0	72	21045
2026-01-16 21:13:38.44	23.57	3.92	-50.9	-65.7	3.8	1.49e+00	0	32	104	0	72	20875
2026-01-16 21:13:41.46	23.92	4.05	-50.9	-65.8	3.8	1.49e+00	0	33	104	0	72	21144
2026-01-16 21:13:44.49	24.27	4.18	-50.9	-65.7	3.8	1.49e+00	0	32	104	0	72	20908
2026-01-16 21:13:47.52	24.63	4.30	-50.9	-65.8	3.8	1.49e+00	0	33	104	0	72	21209
2026-01-16 21:13:50.54	24.99	4.43	-50.9	-65.5	3.8	1.49e+00	0	33	104	0	72	20406
2026-01-16 21:13:53.57	25.35	4.55	-50.8	-64.9	3.8	1.49e+00	0	33	104	0	72	19071
2026-01-16 21:13:56.59	25.71	4.68	-50.8	-65.1	3.8	1.49e+00	0	33	104	0	72	19390
2026-01-16 21:13:59.62	26.08	4.80	-50.7	-62.3	4.2	1.47e+00	0	33	0	0	72	14124
2026-01-16 21:14:02.64	26.45	4.92	-50.1	-57.8	6.8	2.79e-01	0	33	0	4194304	72	8376
2026-01-16 21:14:05.66	26.82	5.05	-50.3	-58.7	6.1	3.54e-01	0	33	0	10485760	72	9318
2026-01-16 21:14:08.69	27.20	5.17	-48.3	-51.4	14.0	6.65e-04	0	33	0	12582912	68	5058
2026-01-16 21:14:11.72	27.58	5.29	-48.1	-51.0	14.5	7.00e-07	0	33	0	17825792	68	4865
2026-01-16 21:14:14.74	27.96	5.41	-47.6	-50.2	15.4	0.00e+00	0	33	0	24117248	67	4681
2026-01-16 21:14:17.77	28.35	5.54	-47.8	-50.4	15.3	0.00e+00	0	33	0	29360128	67	4771
2026-01-16 21:14:20.79	28.74	5.66	-47.5	-49.9	15.8	0.00e+00	0	33	0	34603008	66	4777
2026-01-16 21:14:23.82	29.13	5.78	-47.3	-49.6	16.0	0.00e+00	0	33	0	40894464	66	4648
2026-01-16 21:14:26.84	29.52	5.90	-47.5	-49.9	15.8	0.00e+00	0	33	0	46137344	66	4809
2026-01-16 21:14:29.87	29.92	6.02	-47.4	-49.8	16.0	0.00e+00	0	33	0	52428800	66	4710
2026-01-16 21:14:32.90	30.32	6.14	-47.4	-49.8	15.9	0.00e+00	0	33	0	57671680	66	4730
2026-01-16 21:14:35.92	30.72	6.25	-47.5	-49.8	15.9	0.00e+00	0	33	0	62914560	66	4755
2026-01-16 21:14:38.94	31.13	6.37	-47.6	-50.0	15.8	0.00e+00	0	33	0	69206016	66	4847
2026-01-16 21:14:41.97	31.54	6.49	-47.7	-50.2	15.6	0.00e+00	0	33	0	74448896	66	4946
2026-01-16 21:14:44.99	31.96	6.61	-47.6	-50.1	15.7	0.00e+00	0	33	0	80740352	66	4871
2026-01-16 21:14:48.01	32.37	6.72	-47.5	-49.8	16.0	0.00e+00	0	33	0	85983232	66	4757
2026-01-16 21:14:51.04	32.79	6.84	-47.4	-49.7	16.2	0.00e+00	0	33	0	91226112	66	4676
2026-01-16 21:14:54.06	33.21	6.95	-47.7	-50.1	15.7	0.00e+00	0	33	0	97517568	66	4889
2026-01-16 21:14:57.09	33.64	7.06	-47.8	-50.3	15.6	0.00e+00	0	33	0	102760448	66	5004
2026-01-16 21:15:00.12	34.07	7.18	-47.7	-50.1	15.7	0.00e+00	0	33	0	109051904	66	4917
2026-01-16 21:15:03.14	34.50	7.29	-47.7	-50.1	15.8	0.00e+00	0	33	0	114294784	66	4895
2026-01-16 21:15:06.16	34.94	7.40	-47.4	-49.6	16.2	0.00e+00	0	34	0	120586240	66	4648
2026-01-16 21:15:09.19	35.38	7.51	-47.6	-50.0	15.9	0.00e+00	0	33	0	125829120	66	4826
2026-01-16 21:15:12.21	35.82	7.62	-47.8	-50.3	15.7	0.00e+00	0	33	0	131072000	66	5004
2026-01-16 21:15:15.24	36.27	7.72	-47.8	-50.2	15.8	0.00e+00	0	33	0	137363456	66	4965
2026-01-16 21:15:18.26	36.71	7.83	-47.8	-50.2	15.8	0.00e+00	0	34	0	142606336	66	4961
2026-01-16 21:15:21.29	37.17	7.94	-47.9	-50.4	15.6	0.00e+00	0	33	0	148897792	66	5095
2026-01-16 21:15:24.32	37.62	8.04	-48.0	-50.6	15.5	0.00e+00	0	33	0	154140672	66	5178
2026-01-16 21:15:27.34	38.08	8.14	-48.0	-50.5	15.5	0.00e+00	0	33	0	159383552	66	5151
2026-01-16 21:15:30.36	38.54	8.25	-47.8	-50.2	15.8	0.00e+00	0	33	0	165675008	66	4947
2026-01-16 21:15:33.39	39.01	8.35	-47.5	-49.8	16.3	0.00e+00	0	34	0	170917888	66	4717
2026-01-16 21:15:36.41	39.47	8.45	-47.8	-50.2	15.9	0.00e+00	0	33	0	177209344	66	4928
2026-01-16 21:15:39.44	39.94	8.55	-47.6	-49.9	16.2	0.00e+00	0	34	0	182452224	66	4784
2026-01-16 21:15:42.46	40.42	8.64	-47.8	-50.1	15.9	0.00e+00	0	33	0	188743680	66	4920
2026-01-16 21:15:45.49	40.89	8.74	-47.9	-50.3	15.7	0.00e+00	0	34	0	193986560	66	5035
2026-01-16 21:15:48.51	41.37	8.83	-47.6	-49.8	16.2	0.00e+00	0	33	0	199229440	66	4752
2026-01-16 21:15:51.54	41.86	8.93	-47.3	-49.4	16.7	0.00e+00	0	34	0	205520896	66	4520
2026-01-16 21:15:54.56	42.34	9.02	-47.5	-49.7	16.4	0.00e+00	0	34	0	210763776	66	4675
2026-01-16 21:15:57.58	42.83	9.11	-47.7	-50.1	16.0	0.00e+00	0	34	0	217055232	66	4880
2026-01-16 21:16:00.61	43.32	9.20	-48.0	-50.5	15.6	0.00e+00	0	34	0	222298112	66	5147
2026-01-16 21:16:03.63	43.81	9.29	-47.7	-50.1	16.0	0.00e+00	0	33	0	227540992	66	4897
2026-01-16 21:16:06.66	44.31	9.37	-47.8	-50.1	15.9	0.00e+00	0	34	0	233832448	66	4920
2026-01-16 21:16:09.69	44.81	9.46	-47.5	-49.8	16.3	0.00e+00	0	34	0	239075328	66	4722
2026-01-16 21:16:12.71	45.32	9.54	-47.4	-49.6	16.4	0.00e+00	0	34	0	245366784	66	4645
2026-01-16 21:16:15.74	45.82	9.62	-47.3	-49.5	16.6	0.00e+00	0	34	0	250609664	66	4562
2026-01-16 21:16:18.76	46.33	9.70	-47.9	-50.3	15.7	0.00e+00	0	34	0	255852544	66	5040
2026-01-16 21:16:21.79	46.84	9.78	-48.6	-51.4	14.7	0.00e+00	0	34	0	262144000	67	5392
2026-01-16 21:16:24.82	47.36	9.86	-48.4	-51.2	14.9	0.00e+00	0	34	0	267386880	67	5237
2026-01-16 21:16:27.84	47.87	9.93	-47.9	-50.3	15.8	0.00e+00	0	34	0	273678336	67	4719
2026-01-16 21:16:30.86	48.39	10.00	-47.9	-50.2	15.9	0.00e+00	0	34	0	278921216	67	4697
2026-01-16 21:16:33.88	48.91	10.07	-47.9	-50.4	15.8	0.00e+00	0	34	0	284164096	67	4787
2026-01-16 21:16:36.91	49.44	10.14	-47.4	-49.5	16.5	0.00e+00	0	34	0	290455552	66	4585
2026-01-16 21:16:39.94	49.96	10.21	-47.0	-49.0	17.1	0.00e+00	0	34	0	295698432	65	4574
2026-01-16 21:16:42.96	50.49	10.27	-47.5	-49.8	16.3	0.00e+00	0	34	0	301989888	65	5011
2026-01-16 21:16:45.98	51.02	10.34	-47.9	-50.3	15.9	0.00e+00	0	34	0	307232768	66	4995
2026-01-16 21:16:49.01	51.55	10.40	-47.3	-49.4	16.8	0.00e+00	0	34	0	312475648	66	4511
2026-01-16 21:16:52.03	52.09	10.46	-47.7	-50.0	16.1	0.00e+00	0	34	0	318767104	66	4865
2026-01-16 21:16:55.06	52.63	10.51	-48.2	-50.9	15.3	7.00e-07	0	34	0	324009984	67	5043
2026-01-16 21:16:58.09	53.17	10.57	-47.6	-49.8	16.4	0.00e+00	0	34	0	330301440	67	4463
2026-01-16 21:17:01.11	53.71	10.62	-47.3	-49.4	16.9	0.00e+00	0	34	0	335544320	66	4511
2026-01-16 21:17:04.14	54.25	10.67	-47.8	-50.1	16.1	0.00e+00	0	34	0	340787200	66	4890
2026-01-16 21:17:07.16	54.80	10.72	-47.8	-50.1	16.0	0.00e+00	0	34	0	347078656	66	4920
2026-01-16 21:17:10.19	55.34	10.77	-48.2	-50.8	15.5	0.00e+00	0	34	0	352321536	66	5283
2026-01-16 21:17:13.21	55.89	10.81	-49.1	-52.2	14.1	7.00e-07	0	34	0	358612992	68	5574
2026-01-16 21:17:16.24	56.44	10.85	-49.4	-52.8	13.5	8.30e-06	0	34	0	363855872	69	5627
2026-01-16 21:17:19.26	56.99	10.89	-48.7	-51.5	14.8	7.00e-07	0	34	0	370147328	69	4829
2026-01-16 21:17:22.29	57.54	10.93	-48.5	-51.1	15.3	0.00e+00	0	34	0	375390208	68	4905
2026-01-16 21:17:25.31	58.10	10.96	-48.4	-51.0	15.4	0.00e+00	0	34	0	380633088	68	4833
2026-01-16 21:17:28.34	58.65	11.00	-48.2	-50.7	15.7	0.00e+00	0	34	0	386924544	68	4655
2026-01-16 21:17:31.36	59.21	11.03	-47.8	-50.1	16.1	0.00e+00	0	34	0	392167424	67	4620
2026-01-16 21:17:34.39	59.77	11.05	-47.7	-50.0	16.2	0.00e+00	0	34	0	398458880	67	4557
2026-01-16 21:17:37.41	60.33	11.08	-47.4	-49.6	16.6	0.00e+00	0	34	0	403701760	66	4635
2026-01-16 21:17:40.44	60.89	11.10	-47.2	-49.2	16.9	0.00e+00	0	34	0	408944640	66	4441
2026-01-16 21:17:43.46	61.45	11.12	-47.3	-49.3	16.9	0.00e+00	0	34	0	415236096	66	4479
2026-01-16 21:17:46.49	62.01	11.14	-47.3	-49.4	16.8	0.00e+00	0	34	0	420478976	66	4539
2026-01-16 21:17:49.51	62.57	11.16	-47.2	-49.2	17.1	0.00e+00	0	34	0	426770432	66	4409
2026-01-16 21:17:52.54	63.13	11.17	-47.2	-49.2	17.0	0.00e+00	0	34	0	432013312	66	4426
2026-01-16 21:17:55.56	63.69	11.18	-47.3	-49.3	16.9	0.00e+00	0	34	0	438304768	66	4480
2026-01-16 21:17:58.58	64.26	11.19	-46.9	-48.8	17.3	0.00e+00	0	34	0	443547648	65	4482
2026-01-16 21:18:01.61	64.82	11.20	-46.6	-48.4	17.8	0.00e+00	0	34	0	448790528	65	4274
2026-01-16 21:18:04.63	65.38	11.20	-46.8	-48.7	17.5	0.00e+00	0	34	0	455081984	65	4415
2026-01-16 21:18:07.66	65.95	11.20	-46.4	-48.2	18.0	0.00e+00	0	34	0	460324864	64	4407
2026-01-16 21:18:10.68	66.51	11.20	-46.4	-48.2	18.0	0.00e+00	0	34	0	466616320	64	4417
2026-01-16 21:18:13.70	67.07	11.20	-47.0	-49.0	17.2	0.00e+00	0	34	0	471859200	64	4864
2026-01-16 21:18:16.73	67.64	11.19	-47.0	-49.0	17.2	0.00e+00	0	34	0	477102080	64	4828
2026-01-16 21:18:19.75	68.20	11.18	-46.4	-48.2	18.0	0.00e+00	0	34	0	483393536	64	4402
2026-01-16 21:18:22.78	68.76	11.17	-46.4	-48.2	18.0	0.00e+00	0	34	0	488636416	64	4401
2026-01-16 21:18:25.81	69.33	11.16	-46.7	-48.6	17.5	0.00e+00	0	34	0	494927872	64	4646
2026-01-16 21:18:28.83	69.89	11.14	-46.2	-47.9	18.2	0.00e+00	0	34	0	500170752	64	4282
2026-01-16 21:18:31.85	70.45	11.12	-46.1	-47.8	18.4	0.00e+00	0	34	0	505413632	64	4201
2026-01-16 21:18:34.88	71.01	11.10	-46.4	-48.2	18.0	0.00e+00	0	34	0	511705088	64	4429
2026-01-16 21:18:37.91	71.57	11.08	-46.1	-47.8	18.3	0.00e+00	0	34	0	516947968	64	4232
2026-01-16 21:18:40.93	72.13	11.05	-45.8	-47.4	18.8	0.00e+00	0	34	0	523239424	63	4259
2026-01-16 21:18:43.96	72.69	11.02	-46.1	-47.7	18.5	0.00e+00	0	34	0	528482304	63	4439
2026-01-16 21:18:46.98	73.24	10.99	-46.4	-48.1	18.2	0.00e+00	0	34	0	533725184	63	4623
2026-01-16 21:18:50.00	73.80	10.96	-46.3	-47.9	18.3	0.00e+00	0	34	0	540016640	63	4540
2026-01-16 21:18:53.03	74.35	10.93	-46.2	-47.9	18.3	0.00e+00	0	34	0	545259520	63	4510
2026-01-16 21:18:56.05	74.91	10.89	-46.2	-48.0	18.3	0.00e+00	0	34	0	551550976	63	4546
2026-01-16 21:18:59.08	75.46	10.85	-46.4	-48.2	18.1	0.00e+00	0	34	0	556793856	63	4665
2026-01-16 21:19:02.11	76.01	10.81	-46.4	-48.2	18.0	0.00e+00	0	34	0	562036736	63	4678
2026-01-16 21:19:05.13	76.56	10.76	-46.4	-48.2	18.0	0.00e+00	0	34	0	568328192	63	4672
2026-01-16 21:19:08.16	77.11	10.72	-46.7	-48.6	17.6	0.00e+00	0	34	0	573571072	64	4604
2026-01-16 21:19:11.18	77.65	10.67	-46.6	-48.5	17.6	0.00e+00	0	34	0	579862528	64	4584
2026-01-16 21:19:14.20	78.19	10.62	-46.3	-48.1	18.1	0.00e+00	0	33	0	585105408	64	4343
2026-01-16 21:19:17.23	78.74	10.56	-45.8	-47.4	18.8	0.00e+00	0	34	0	590348288	63	4269
2026-01-16 21:19:20.25	79.28	10.51	-45.7	-47.3	18.9	0.00e+00	0	34	0	596639744	63	4220
2026-01-16 21:19:23.28	79.82	10.45	-45.3	-46.7	19.4	0.00e+00	0	34	0	601882624	62	4184
2026-01-16 21:19:26.31	80.35	10.39	-45.2	-46.6	19.5	0.00e+00	0	34	0	608174080	62	4117
2026-01-16 21:19:29.33	80.89	10.33	-45.6	-47.2	19.0	0.00e+00	0	34	0	613416960	62	4395
2026-01-16 21:19:32.36	81.42	10.27	-45.9	-47.5	18.7	0.00e+00	0	34	0	619708416	62	4553
2026-01-16 21:19:35.38	81.95	10.20	-45.9	-47.5	18.6	0.00e+00	0	34	0	624951296	62	4583
2026-01-16 21:19:38.41	82.47	10.14	-45.7	-47.2	19.0	0.00e+00	0	34	0	630194176	62	4415
2026-01-16 21:19:41.43	83.00	10.07	-45.8	-47.4	18.7	0.00e+00	0	34	0	636485632	62	4517
2026-01-16 21:19:44.46	83.52	10.00	-46.0	-47.7	18.4	0.00e+00	0	34	0	641728512	62	4671
2026-01-16 21:19:47.48	84.04	9.92	-45.7	-47.3	18.8	0.00e+00	0	34	0	648019968	62	4464
2026-01-16 21:19:50.51	84.56	9.85	-45.6	-47.2	18.9	0.00e+00	0	33	0	653262848	62	4402
2026-01-16 21:19:53.52	85.07	9.77	-45.7	-47.3	18.8	0.00e+00	0	34	0	658505728	62	4469
2026-01-16 21:19:56.55	85.58	9.69	-46.0	-47.7	18.5	0.00e+00	0	34	0	664797184	62	4672
2026-01-16 21:19:59.57	86.09	9.61	-46.0	-47.7	18.5	0.00e+00	0	34	0	670040064	62	4654
2026-01-16 21:20:02.60	86.60	9.53	-46.1	-47.8	18.3	0.00e+00	0	34	0	676331520	63	4475
2026-01-16 21:20:05.62	87.10	9.45	-46.7	-48.5	17.6	0.00e+00	0	34	0	681574400	63	4868
2026-01-16 21:20:08.64	87.60	9.36	-46.8	-48.7	17.3	0.00e+00	0	34	0	686817280	64	4702
2026-01-16 21:20:11.67	88.10	9.28	-47.2	-49.3	16.7	0.00e+00	0	34	0	693108736	64	5018
2026-01-16 21:20:14.69	88.60	9.19	-47.1	-49.2	16.8	0.00e+00	0	34	0	698351616	65	4687
2026-01-16 21:20:17.71	89.09	9.10	-47.1	-49.2	16.8	0.00e+00	0	34	0	704643072	65	4690
2026-01-16 21:20:20.74	89.58	9.01	-47.1	-49.1	16.9	0.00e+00	0	34	0	709885952	65	4637
2026-01-16 21:20:23.76	90.07	8.91	-47.1	-49.2	16.7	0.00e+00	0	34	0	716177408	65	4705
2026-01-16 21:20:26.79	90.55	8.82	-47.4	-49.6	16.4	0.00e+00	0	34	0	721420288	65	4881
2026-01-16 21:20:29.81	91.03	8.73	-47.7	-50.1	15.9	0.00e+00	0	34	0	726663168	65	5209
2026-01-16 21:20:32.83	91.51	8.63	-47.4	-49.6	16.4	0.00e+00	0	34	0	732954624	66	4612
2026-01-16 21:20:35.86	91.99	8.53	-47.6	-50.0	16.0	0.00e+00	0	34	0	738197504	66	4831
2026-01-16 21:20:38.88	92.46	8.43	-48.1	-50.8	15.2	0.00e+00	0	34	0	744488960	66	5327
2026-01-16 21:20:41.91	92.93	8.33	-48.4	-51.3	14.6	0.00e+00	0	34	0	749731840	67	5316
2026-01-16 21:20:44.93	93.39	8.23	-48.3	-51.0	14.9	0.00e+00	0	34	0	754974720	67	5135
2026-01-16 21:20:47.96	93.85	8.13	-48.2	-50.9	15.1	0.00e+00	0	34	0	761266176	67	5048
2026-01-16 21:20:50.98	94.31	8.02	-48.2	-51.0	14.9	0.00e+00	0	34	0	766509056	67	5121
2026-01-16 21:20:54.00	94.77	7.92	-48.1	-50.8	15.1	0.00e+00	0	34	0	772800512	67	5014
2026-01-16 21:20:57.02	95.22	7.81	-48.1	-50.7	15.2	0.00e+00	0	34	0	778043392	67	4949
2026-01-16 21:21:00.05	95.67	7.70	-48.3	-51.0	14.9	0.00e+00	0	34	0	783286272	67	5138
2026-01-16 21:21:03.07	96.12	7.59	-48.4	-51.2	14.7	0.00e+00	0	34	0	789577728	67	5262
2026-01-16 21:21:06.10	96.56	7.48	-48.2	-50.9	15.0	0.00e+00	0	34	0	794820608	67	5081
2026-01-16 21:21:09.12	97.00	7.37	-48.0	-50.7	15.2	0.00e+00	0	34	0	801112064	67	4929
2026-01-16 21:21:12.14	97.44	7.26	-47.9	-50.5	15.4	0.00e+00	0	34	0	806354944	67	4862
2026-01-16 21:21:15.17	97.87	7.15	-47.7	-50.2	15.6	0.00e+00	0	34	0	811597824	67	4681
2026-01-16 21:21:18.20	98.30	7.04	-47.6	-50.0	15.8	0.00e+00	0	34	0	817889280	66	4840
2026-01-16 21:21:21.22	98.73	6.92	-47.5	-49.8	16.0	0.00e+00	0	34	0	823132160	66	4748
2026-01-16 21:21:24.24	99.15	6.81	-47.6	-49.9	15.9	0.00e+00	0	34	0	829423616	66	4809
2026-01-16 21:21:27.27	99.57	6.69	-47.8	-50.3	15.5	0.00e+00	0	34	0	834666496	66	5009
2026-01-16 21:21:30.29	99.99	6.58	-47.8	-50.4	15.4	0.00e+00	0	33	0	839909376	66	5071
2026-01-16 21:21:33.32	100.40	6.46	-47.8	-50.3	15.5	0.00e+00	0	34	0	846200832	66	5015
2026-01-16 21:21:36.34	100.81	6.34	-47.9	-50.5	15.3	0.00e+00	0	34	0	851443712	66	5155
2026-01-16 21:21:39.36	101.22	6.22	-47.7	-50.3	15.4	0.00e+00	0	34	0	857735168	66	5007
2026-01-16 21:21:42.39	101.63	6.10	-47.7	-50.2	15.6	0.00e+00	0	34	0	862978048	66	4943
2026-01-16 21:21:45.41	102.03	5.98	-47.5	-49.9	15.9	0.00e+00	0	34	0	868220928	66	4763
2026-01-16 21:21:48.44	102.43	5.86	-47.0	-49.2	16.5	0.00e+00	0	34	0	874512384	65	4699
2026-01-16 21:21:51.46	102.82	5.74	-47.3	-49.7	16.0	0.00e+00	0	34	0	879755264	65	4961
2026-01-16 21:21:54.48	103.21	5.62	-47.2	-49.5	16.2	0.00e+00	0	34	0	886046720	65	4817
2026-01-16 21:21:57.51	103.60	5.50	-46.8	-49.0	16.6	0.00e+00	0	33	0	891289600	65	4556
2026-01-16 21:22:00.53	103.99	5.38	-46.8	-49.0	16.6	0.00e+00	0	34	0	896532480	65	4574
2026-01-16 21:22:03.56	104.37	5.25	-46.6	-48.7	16.9	0.00e+00	0	34	0	902823936	65	4392
2026-01-16 21:22:06.58	104.75	5.13	-47.0	-49.2	16.2	0.00e+00	0	34	0	908066816	65	4704
2026-01-16 21:22:09.60	105.13	5.01	-48.5	-51.6	14.3	0.00e+00	0	34	0	914358272	67	5515
2026-01-16 21:22:12.63	105.50	4.88	-52.5	-67.6	3.8	1.49e+00	0	34	104	914358272	75	21773
2026-01-16 21:22:15.66	105.87	4.76	-52.8	-67.8	3.8	1.49e+00	0	34	104	914358272	76	21239
2026-01-16 21:22:18.68	106.24	4.63	-53.0	-68.0	3.8	1.49e+00	0	34	104	914358272	76	21704
2026-01-16 21:22:21.71	106.61	4.51	-53.2	-68.2	3.8	1.49e+00	0	34	104	914358272	76	22130
2026-01-16 21:22:24.74	106.97	4.38	-53.2	-68.3	3.8	1.49e+00	0	34	104	914358272	77	21065
2026-01-16 21:22:27.76	107.33	4.25	-53.3	-68.3	3.8	1.49e+00	0	34	104	914358272	77	21187
2026-01-16 21:22:30.79	107.68	4.13	-53.3	-68.4	3.8	1.49e+00	0	34	104	914358272	77	21298
2026-01-16 21:22:33.82	108.04	4.00	-53.4	-68.4	3.8	1.49e+00	0	34	104	914358272	77	21338
2026-01-16 21:22:36.85	108.39	3.87	-53.4	-68.4	3.8	1.49e+00	0	34	104	914358272	77	21401
2026-01-16 21:22:39.87	108.73	3.75	-53.3	-68.4	3.8	1.49e+00	0	34	104	914358272	77	21332
2026-01-16 21:22:42.90	109.08	3.62	-53.3	-68.3	3.8	1.49e+00	0	34	104	914358272	77	21184
2026-01-16 21:22:45.92	109.42	3.49	-53.3	-68.3	3.8	1.49e+00	0	34	104	914358272	77	21222
2026-01-16 21:22:48.95	109.76	3.36	-53.3	-68.3	3.8	1.49e+00	0	34	104	914358272	77	21184
2026-01-16 21:22:51.97	110.09	3.23	-53.3	-68.3	3.8	1.49e+00	0	34	104	914358272	77	21154
2026-01-16 21:22:55.00	110.43	3.11	-53.3	-68.3	3.8	1.49e+00	0	34	104	914358272	77	21140
2026-01-16 21:22:58.02	110.76	2.98	-53.3	-68.3	3.8	1.49e+00	0	34	104	914358272	77	21158
2026-01-16 21:23:01.06	111.08	2.85	-53.3	-68.3	3.8	1.49e+00	0	34	104	914358272	77	21146
2026-01-16 21:23:04.08	111.41	2.72	-53.3	-68.3	3.8	1.49e+00	0	34	104	914358272	77	21131
2026-01-16 21:23:07.11	111.73	2.59	-53.2	-68.3	3.8	1.49e+00	0	34	104	914358272	77	21129
2026-01-16 21:23:10.13	112.05	2.46	-53.2	-68.3	3.8	1.49e+00	0	34	104	914358272	77	21051
2026-01-16 21:23:13.16	112.37	2.33	-53.2	-68.3	3.8	1.49e+00	0	34	104	914358272	77	21085
2026-01-16 21:23:16.19	112.68	2.20	-53.2	-68.2	3.8	1.49e+00	0	34	104	914358272	77	21013
2026-01-16 21:23:19.21	112.99	2.07	-53.2	-68.3	3.8	1.49e+00	0	34	104	914358272	77	21024

#Closed at: 2026-01-16 21:23:22
#Recorded file [914 MB]: D:/lorett/data/31041_260117_001252.dat