passes_logs/2026/01/16/R3.2S_Murmansk/R3.2S_Murmansk__20260116_011322_NOAA_20_JPSS-1_rec.log

#Pass ID: 20260116_011322_NOAA 20 (JPSS-1)
#Satellite: NOAA 20 (JPSS-1)
#Configuration: NOAA 20
#almurnet v.1.7.20251203
#Start time: 2026-01-16 01:13:23

#Version: 2.2.20231116
#Station: R3.2S_Murmansk
#Location: 33.079688 lon 68.888172 lat
#TLE: 1 43013U 17073A   26015.47098083  .00000029  00000+0  34851-4 0  9997
#TLE: 2 43013  98.7636 316.4053 0001479  38.6686 321.4595 14.19536048422808

#Time	Az	El	Level	Level2	SNR	BER	BlckErr	Temp	State	Recorded	gain1	gain2
2026-01-16 01:13:23.01	26.72	2.05	-55.7	-70.6	3.8	1.49e+00	0	42	0	0	83	19558
2026-01-16 01:13:27.04	26.68	2.31	-55.7	-70.6	3.8	1.49e+00	0	42	104	0	81	21854
2026-01-16 01:13:31.08	26.64	2.57	-55.7	-70.6	3.8	1.49e+00	0	42	104	0	81	21892
2026-01-16 01:13:35.12	26.60	2.83	-55.7	-70.4	3.8	1.49e+00	0	43	104	0	81	21457
2026-01-16 01:13:39.16	26.55	3.10	-55.7	-70.6	3.8	1.49e+00	0	43	104	0	81	21814
2026-01-16 01:13:43.20	26.51	3.37	-55.6	-69.0	3.8	1.49e+00	0	43	104	0	81	18116
2026-01-16 01:13:47.24	26.46	3.64	-55.1	-63.5	5.9	3.68e-01	0	43	0	3145728	81	9714
2026-01-16 01:13:51.28	26.41	3.91	-54.1	-59.3	10.2	2.97e-03	0	43	0	10485760	79	6652
2026-01-16 01:13:55.32	26.36	4.19	-54.3	-60.0	9.4	8.21e-03	0	44	0	17825792	79	7241
2026-01-16 01:13:59.36	26.31	4.47	-54.6	-60.7	8.7	3.74e-02	0	44	0	26214400	79	7846
2026-01-16 01:14:03.40	26.26	4.75	-55.2	-64.2	5.5	2.99e-01	0	44	0	33554432	80	11037
2026-01-16 01:14:07.44	26.21	5.04	-55.3	-63.2	6.3	7.20e-01	0	44	0	40894464	81	9308
2026-01-16 01:14:11.48	26.15	5.33	-54.7	-59.6	10.8	1.06e-03	0	44	0	45088768	80	6549
2026-01-16 01:14:15.51	26.10	5.62	-54.0	-57.6	13.0	2.67e-05	0	45	0	53477376	79	5523
2026-01-16 01:14:19.55	26.04	5.91	-53.5	-56.6	14.1	0.00e+00	0	44	0	60817408	78	5214
2026-01-16 01:14:23.59	25.98	6.21	-53.0	-55.7	15.2	7.00e-07	0	45	0	68157440	77	4938
2026-01-16 01:14:27.63	25.92	6.51	-53.1	-55.8	15.1	0.00e+00	0	45	0	75497472	77	5000
2026-01-16 01:14:31.67	25.86	6.82	-53.3	-56.2	14.8	0.00e+00	0	45	0	83886080	77	5221
2026-01-16 01:14:35.71	25.79	7.12	-52.4	-54.7	16.2	0.00e+00	0	45	0	91226112	76	4702
2026-01-16 01:14:39.74	25.73	7.44	-52.4	-54.6	16.4	0.00e+00	0	45	0	98566144	76	4637
2026-01-16 01:14:43.78	25.66	7.75	-52.5	-54.8	16.3	0.00e+00	0	45	0	105906176	76	4724
2026-01-16 01:14:47.82	25.59	8.07	-52.3	-54.5	16.6	0.00e+00	0	45	0	114294784	76	4586
2026-01-16 01:14:51.86	25.52	8.40	-52.1	-54.2	16.9	0.00e+00	0	45	0	121634816	76	4420
2026-01-16 01:14:55.90	25.45	8.72	-52.2	-54.4	16.8	0.00e+00	0	45	0	128974848	76	4504
2026-01-16 01:14:59.94	25.37	9.06	-51.9	-53.9	17.3	0.00e+00	0	46	0	136314880	75	4498
2026-01-16 01:15:03.98	25.29	9.39	-52.2	-54.3	16.9	0.00e+00	0	46	0	143654912	75	4741
2026-01-16 01:15:08.01	25.21	9.73	-51.9	-53.8	17.5	0.00e+00	0	46	0	152043520	75	4458
2026-01-16 01:15:12.05	25.13	10.08	-51.8	-53.8	17.5	0.00e+00	0	46	0	159383552	75	4451
2026-01-16 01:15:16.09	25.05	10.43	-51.7	-53.6	17.7	0.00e+00	0	46	0	166723584	75	4376
2026-01-16 01:15:20.13	24.96	10.79	-51.7	-53.5	17.8	0.00e+00	0	46	0	174063616	75	4331
2026-01-16 01:15:24.18	24.87	11.15	-51.5	-53.2	18.1	0.00e+00	0	46	0	181403648	75	4189
2026-01-16 01:15:28.21	24.78	11.52	-51.6	-53.4	17.9	0.00e+00	0	46	0	189792256	74	4512
2026-01-16 01:15:32.25	24.68	11.89	-51.3	-53.0	18.4	0.00e+00	0	46	0	197132288	74	4309
2026-01-16 01:15:36.30	24.59	12.27	-51.4	-53.2	18.2	0.00e+00	0	46	0	204472320	74	4402
2026-01-16 01:15:40.33	24.49	12.65	-51.0	-52.7	18.7	0.00e+00	0	46	0	211812352	74	4151
2026-01-16 01:15:44.37	24.38	13.04	-51.0	-52.6	18.8	0.00e+00	0	47	0	220200960	73	4376
2026-01-16 01:15:48.41	24.27	13.43	-50.8	-52.4	19.1	0.00e+00	0	47	0	227540992	73	4253
2026-01-16 01:15:52.45	24.16	13.83	-50.7	-52.2	19.2	0.00e+00	0	47	0	234881024	73	4193
2026-01-16 01:15:56.49	24.05	14.24	-50.4	-51.9	19.5	0.00e+00	0	47	0	242221056	72	4268
2026-01-16 01:16:00.53	23.93	14.66	-50.3	-51.7	19.7	0.00e+00	0	47	0	250609664	72	4190
2026-01-16 01:16:04.57	23.81	15.08	-50.3	-51.7	19.8	0.00e+00	0	47	0	257949696	72	4159
2026-01-16 01:16:08.61	23.69	15.51	-50.1	-51.5	20.0	0.00e+00	0	47	0	265289728	72	4069
2026-01-16 01:16:12.65	23.56	15.95	-50.1	-51.5	20.0	0.00e+00	0	47	0	272629760	72	4078
2026-01-16 01:16:16.69	23.42	16.39	-50.0	-51.3	20.2	0.00e+00	0	47	0	279969792	71	4238
2026-01-16 01:16:20.73	23.28	16.85	-49.9	-51.2	20.4	0.00e+00	0	47	0	288358400	71	4191
2026-01-16 01:16:24.77	23.14	17.31	-49.8	-51.1	20.5	0.00e+00	0	47	0	295698432	71	4140
2026-01-16 01:16:28.81	22.99	17.78	-49.9	-51.2	20.4	0.00e+00	0	47	0	303038464	71	4183
2026-01-16 01:16:32.85	22.84	18.26	-49.7	-51.0	20.7	0.00e+00	0	47	0	310378496	71	4056
2026-01-16 01:16:36.89	22.68	18.75	-49.7	-51.0	20.6	0.00e+00	0	47	0	317718528	71	4085
2026-01-16 01:16:40.93	22.51	19.24	-49.8	-51.1	20.5	0.00e+00	0	47	0	326107136	71	4129
2026-01-16 01:16:44.97	22.34	19.75	-49.6	-50.9	20.8	0.00e+00	0	47	0	333447168	71	4006
2026-01-16 01:16:49.01	22.17	20.27	-49.4	-50.6	21.1	0.00e+00	0	47	0	340787200	70	4111
2026-01-16 01:16:53.04	21.98	20.80	-49.3	-50.5	21.2	0.00e+00	0	47	0	348127232	70	4062
2026-01-16 01:16:57.08	21.79	21.34	-49.4	-50.6	21.1	0.00e+00	0	47	0	356515840	70	4106
2026-01-16 01:17:01.12	21.59	21.89	-49.4	-50.6	21.1	0.00e+00	0	48	0	363855872	70	4108
2026-01-16 01:17:05.16	21.39	22.45	-49.2	-50.4	21.3	0.00e+00	0	47	0	371195904	70	4019
2026-01-16 01:17:09.20	21.17	23.03	-49.3	-50.5	21.3	0.00e+00	0	48	0	378535936	70	4057
2026-01-16 01:17:13.24	20.95	23.62	-49.3	-50.4	21.3	0.00e+00	0	47	0	386924544	70	4050
2026-01-16 01:17:17.27	20.72	24.22	-49.4	-50.6	21.1	0.00e+00	0	47	0	394264576	70	4145
2026-01-16 01:17:21.31	20.48	24.83	-49.8	-51.1	20.7	0.00e+00	0	47	0	401604608	70	4343
2026-01-16 01:17:25.35	20.22	25.46	-50.2	-51.6	20.3	0.00e+00	0	48	0	408944640	71	4350
2026-01-16 01:17:29.38	19.96	26.10	-50.6	-52.0	19.8	0.00e+00	0	48	0	416284672	71	4572
2026-01-16 01:17:33.42	19.69	26.76	-50.8	-52.2	19.6	0.00e+00	0	48	0	424673280	72	4426
2026-01-16 01:17:37.45	19.40	27.43	-51.1	-52.6	19.2	0.00e+00	0	48	0	432013312	72	4649
2026-01-16 01:17:41.49	19.10	28.12	-51.6	-53.3	18.6	0.00e+00	0	48	0	439353344	73	4706
2026-01-16 01:17:45.53	18.78	28.83	-52.3	-54.2	17.7	0.00e+00	0	48	0	446693376	75	4664
2026-01-16 01:17:49.57	18.45	29.55	-52.7	-54.7	17.3	0.00e+00	0	48	0	454033408	75	4943
2026-01-16 01:17:53.61	18.11	30.29	-52.9	-55.0	17.0	0.00e+00	0	48	0	462422016	76	4826
2026-01-16 01:17:57.64	17.74	31.05	-53.0	-55.1	16.8	0.00e+00	0	48	0	469762048	76	4917
2026-01-16 01:18:01.68	17.36	31.83	-53.3	-55.5	16.5	0.00e+00	0	48	0	477102080	77	4849
2026-01-16 01:18:05.71	16.96	32.63	-53.7	-56.2	15.8	0.00e+00	0	48	0	484442112	77	5232
2026-01-16 01:18:09.75	16.54	33.44	-53.7	-56.2	15.9	0.00e+00	0	48	0	492830720	78	4931
2026-01-16 01:18:13.79	16.10	34.28	-53.7	-56.2	15.8	0.00e+00	0	48	0	500170752	78	4941
2026-01-16 01:18:17.82	15.63	35.14	-53.3	-55.5	16.6	0.00e+00	0	48	0	507510784	78	4551
2026-01-16 01:18:21.86	15.13	36.02	-52.9	-54.9	17.0	0.00e+00	0	48	0	514850816	77	4535
2026-01-16 01:18:25.89	14.61	36.92	-53.5	-55.8	16.2	0.00e+00	0	48	0	522190848	77	5010
2026-01-16 01:18:29.93	14.05	37.85	-53.8	-56.2	15.8	0.00e+00	0	48	0	530579456	78	4962
2026-01-16 01:18:33.97	13.46	38.80	-53.9	-56.4	15.7	0.00e+00	0	48	0	537919488	78	5098
2026-01-16 01:18:38.00	12.83	39.77	-53.7	-56.2	16.0	0.00e+00	0	48	0	545259520	78	4931
2026-01-16 01:18:42.04	12.17	40.76	-53.4	-55.6	16.6	0.00e+00	0	48	0	552599552	78	4616
2026-01-16 01:18:46.08	11.46	41.78	-53.1	-55.1	17.0	0.00e+00	0	48	0	560988160	77	4651
2026-01-16 01:18:50.12	10.70	42.82	-52.3	-54.0	18.1	0.00e+00	0	48	0	568328192	76	4332
2026-01-16 01:18:54.16	9.89	43.89	-52.0	-53.7	18.5	0.00e+00	0	48	0	575668224	75	4404
2026-01-16 01:18:58.19	9.02	44.97	-51.6	-53.2	19.0	0.00e+00	0	48	0	583008256	75	4147
2026-01-16 01:19:02.23	8.09	46.08	-51.0	-52.4	19.7	0.00e+00	0	48	0	590348288	73	4289
2026-01-16 01:19:06.27	7.09	47.22	-51.0	-52.4	19.7	0.00e+00	0	48	0	598736896	73	4266
2026-01-16 01:19:10.30	6.01	48.37	-51.5	-53.1	19.0	0.00e+00	0	48	0	606076928	73	4623
2026-01-16 01:19:14.34	4.85	49.54	-51.6	-53.2	19.0	0.00e+00	0	48	0	613416960	74	4412
2026-01-16 01:19:18.38	3.59	50.73	-51.1	-52.6	19.6	0.00e+00	0	48	0	620756992	74	4102
2026-01-16 01:19:22.42	2.22	51.93	-49.8	-51.0	21.1	0.00e+00	0	48	0	629145600	71	4056
2026-01-16 01:19:26.45	0.75	53.15	-49.6	-50.7	21.4	0.00e+00	0	48	0	636485632	70	4181
2026-01-16 01:19:30.49	359.14	54.37	-49.9	-51.1	21.1	0.00e+00	0	48	0	643825664	70	4375
2026-01-16 01:19:34.53	357.38	55.60	-51.3	-52.8	19.4	0.00e+00	0	48	0	651165696	73	4464
2026-01-16 01:19:38.57	355.46	56.83	-54.8	-57.8	14.4	7.00e-07	0	48	0	658505728	80	5323
2026-01-16 01:19:42.61	353.36	58.05	-54.5	-57.3	14.9	0.00e+00	0	48	0	666894336	81	4713
2026-01-16 01:19:46.64	351.07	59.25	-52.4	-54.1	18.2	0.00e+00	0	48	0	674234368	76	4375
2026-01-16 01:19:50.68	348.55	60.43	-51.2	-52.7	19.5	0.00e+00	0	48	0	681574400	74	4158
2026-01-16 01:19:54.72	345.78	61.58	-49.4	-50.5	21.7	0.00e+00	0	48	0	688914432	70	4077
2026-01-16 01:19:58.75	342.76	62.68	-48.9	-49.9	22.2	0.00e+00	0	48	0	697303040	69	4044
2026-01-16 01:20:02.80	339.44	63.73	-49.1	-50.2	21.9	0.00e+00	0	48	0	704643072	69	4187
2026-01-16 01:20:06.83	335.84	64.70	-50.5	-51.7	20.5	0.00e+00	0	48	0	711983104	71	4441
2026-01-16 01:20:10.87	331.91	65.59	-50.8	-52.1	20.1	0.00e+00	0	48	0	719323136	72	4383
2026-01-16 01:20:14.91	327.68	66.37	-52.4	-54.1	18.2	0.00e+00	0	48	0	726663168	75	4645
2026-01-16 01:20:18.96	323.14	67.04	-52.1	-53.7	18.7	0.00e+00	0	48	0	735051776	76	4164
2026-01-16 01:20:22.99	318.35	67.57	-52.8	-54.6	17.6	0.00e+00	0	48	0	742391808	76	4650
2026-01-16 01:20:27.03	313.34	67.94	-52.8	-54.7	17.6	0.00e+00	0	48	0	749731840	77	4440
2026-01-16 01:20:31.07	308.17	68.16	-52.3	-54.0	18.3	0.00e+00	0	48	0	757071872	76	4303
2026-01-16 01:20:35.10	302.95	68.22	-53.1	-55.1	17.3	0.00e+00	0	48	0	764411904	76	4896
2026-01-16 01:20:39.14	297.73	68.10	-53.1	-55.1	17.3	0.00e+00	0	48	0	772800512	78	4345
2026-01-16 01:20:43.18	292.61	67.82	-52.5	-54.3	18.0	0.00e+00	0	48	0	780140544	76	4478
2026-01-16 01:20:47.21	287.69	67.38	-51.8	-53.4	18.9	0.00e+00	0	48	0	787480576	75	4260
2026-01-16 01:20:51.26	282.97	66.80	-52.2	-53.9	18.5	0.00e+00	0	48	0	794820608	75	4506
2026-01-16 01:20:55.29	278.56	66.09	-50.7	-52.1	20.2	0.00e+00	0	48	0	803209216	73	4115
2026-01-16 01:20:59.33	274.44	65.26	-50.5	-51.9	20.4	0.00e+00	0	48	0	810549248	72	4255
2026-01-16 01:21:03.37	270.63	64.34	-49.6	-50.7	21.5	0.00e+00	0	49	0	817889280	71	3952
2026-01-16 01:21:07.41	267.13	63.33	-50.4	-51.7	20.6	0.00e+00	0	48	0	825229312	71	4411
2026-01-16 01:21:11.44	263.94	62.26	-51.6	-53.2	19.1	0.00e+00	0	49	0	833617920	73	4664
2026-01-16 01:21:15.48	261.01	61.14	-52.6	-54.4	18.0	0.00e+00	0	48	0	840957952	75	4770
2026-01-16 01:21:19.52	258.34	59.97	-53.3	-55.5	16.8	0.00e+00	0	49	0	848297984	77	4820
2026-01-16 01:21:23.55	255.91	58.78	-53.5	-55.7	16.6	0.00e+00	0	49	0	855638016	77	4961
2026-01-16 01:21:27.60	253.68	57.57	-52.0	-53.6	18.6	0.00e+00	0	49	0	862978048	76	4136
2026-01-16 01:21:31.63	251.66	56.34	-51.5	-53.1	19.1	0.00e+00	0	48	0	871366656	75	4107
2026-01-16 01:21:35.67	249.80	55.11	-50.5	-51.9	20.3	0.00e+00	0	48	0	878706688	73	4018
2026-01-16 01:21:39.71	248.10	53.88	-50.6	-52.0	20.2	0.00e+00	0	49	0	886046720	72	4295
2026-01-16 01:21:43.75	246.53	52.66	-51.1	-52.5	19.7	0.00e+00	0	48	0	893386752	72	4576
2026-01-16 01:21:47.78	245.10	51.45	-51.3	-52.8	19.5	0.00e+00	0	49	0	900726784	73	4457
2026-01-16 01:21:51.83	243.77	50.24	-52.3	-54.1	18.2	0.00e+00	0	48	0	909115392	75	4645
2026-01-16 01:21:55.86	242.55	49.06	-52.0	-53.7	18.6	0.00e+00	0	48	0	916455424	75	4405
2026-01-16 01:21:59.90	241.42	47.89	-52.7	-54.6	17.6	0.00e+00	0	48	0	923795456	76	4622
2026-01-16 01:22:03.93	240.38	46.75	-52.4	-54.2	18.0	0.00e+00	0	49	0	931135488	76	4409
2026-01-16 01:22:07.97	239.40	45.62	-52.6	-54.5	17.8	0.00e+00	0	48	0	939524096	76	4564
2026-01-16 01:22:12.01	238.49	44.51	-52.3	-54.1	18.0	0.00e+00	0	49	0	946864128	76	4389
2026-01-16 01:22:16.05	237.64	43.43	-53.6	-55.8	16.4	0.00e+00	0	48	0	954204160	77	5039
2026-01-16 01:22:20.09	236.85	42.37	-53.5	-55.8	16.4	0.00e+00	0	49	0	961544192	78	4736
2026-01-16 01:22:24.12	236.11	41.34	-53.8	-56.2	16.1	0.00e+00	0	49	0	969932800	78	4941
2026-01-16 01:22:28.16	235.42	40.33	-54.5	-57.3	14.9	0.00e+00	0	49	0	977272832	79	5316
2026-01-16 01:22:32.20	234.77	39.34	-53.9	-56.3	15.9	0.00e+00	0	48	0	984612864	79	4754
2026-01-16 01:22:36.24	234.15	38.37	-53.2	-55.2	17.0	0.00e+00	0	48	0	991952896	78	4435
2026-01-16 01:22:40.27	233.58	37.43	-52.9	-54.9	17.2	0.00e+00	0	49	0	999292928	77	4537
2026-01-16 01:22:44.31	233.03	36.52	-52.9	-54.9	17.3	0.00e+00	0	49	0	1007681536	77	4494
2026-01-16 01:22:48.35	232.52	35.62	-53.1	-55.2	17.0	0.00e+00	0	49	0	1015021568	77	4661
2026-01-16 01:22:52.39	232.03	34.74	-53.0	-55.1	17.0	0.00e+00	0	49	0	1022361600	77	4644
2026-01-16 01:22:56.43	231.57	33.89	-53.0	-55.0	17.0	0.00e+00	0	49	0	1029701632	77	4583
2026-01-16 01:23:00.46	231.13	33.06	-53.5	-55.8	16.3	0.00e+00	0	49	0	1037041664	77	5010
2026-01-16 01:23:04.50	230.72	32.25	-53.7	-56.1	16.1	0.00e+00	0	48	0	1045430272	78	4874
2026-01-16 01:23:08.54	230.32	31.46	-53.3	-55.5	16.5	0.00e+00	0	48	0	1052770304	78	4585
2026-01-16 01:23:12.57	229.95	30.68	-54.0	-56.7	15.4	0.00e+00	0	49	0	1060110336	78	5222
2026-01-16 01:23:16.61	229.59	29.93	-54.5	-57.5	14.6	0.00e+00	0	48	0	1067450368	79	5418
2026-01-16 01:23:20.65	229.25	29.19	-54.3	-57.2	14.8	0.00e+00	0	49	0	1075838976	79	5220
2026-01-16 01:23:24.68	228.92	28.48	-53.8	-56.4	15.6	0.00e+00	0	49	0	1083179008	79	4764
2026-01-16 01:23:28.72	228.61	27.78	-53.5	-55.9	16.1	0.00e+00	0	49	0	1090519040	79	4499
2026-01-16 01:23:32.76	228.32	27.09	-53.6	-56.1	15.9	0.00e+00	0	49	0	1097859072	78	4877
2026-01-16 01:23:36.79	228.03	26.42	-53.5	-55.8	16.2	0.00e+00	0	49	0	1105199104	78	4740
2026-01-16 01:23:40.83	227.76	25.77	-52.7	-54.8	17.2	0.00e+00	0	49	0	1113587712	77	4444
2026-01-16 01:23:44.87	227.50	25.13	-52.7	-54.7	17.3	0.00e+00	0	49	0	1120927744	77	4405
2026-01-16 01:23:48.91	227.25	24.51	-52.7	-54.8	17.2	0.00e+00	0	49	0	1128267776	77	4446
2026-01-16 01:23:52.95	227.01	23.90	-52.5	-54.4	17.5	0.00e+00	0	49	0	1135607808	76	4520
2026-01-16 01:23:56.99	226.78	23.30	-51.7	-53.4	18.4	0.00e+00	0	49	0	1142947840	75	4274
2026-01-16 01:24:01.03	226.56	22.72	-51.6	-53.2	18.6	0.00e+00	0	48	0	1151336448	75	4178
2026-01-16 01:24:05.07	226.35	22.14	-51.4	-53.0	18.8	0.00e+00	0	48	0	1158676480	74	4307
2026-01-16 01:24:09.11	226.14	21.58	-51.6	-53.2	18.6	0.00e+00	0	48	0	1166016512	74	4429
2026-01-16 01:24:13.15	225.94	21.04	-51.6	-53.3	18.6	0.00e+00	0	49	0	1173356544	74	4444
2026-01-16 01:24:17.19	225.75	20.50	-51.4	-53.1	18.5	0.00e+00	0	49	0	1181745152	74	4348
2026-01-16 01:24:21.22	225.57	19.98	-51.4	-53.1	18.7	0.00e+00	0	49	0	1189085184	74	4344
2026-01-16 01:24:25.26	225.40	19.46	-51.7	-53.5	18.3	0.00e+00	0	49	0	1196425216	74	4549
2026-01-16 01:24:29.30	225.23	18.96	-51.6	-53.3	18.4	0.00e+00	0	49	0	1203765248	74	4484
2026-01-16 01:24:33.34	225.06	18.46	-51.6	-53.3	18.4	0.00e+00	0	49	0	1212153856	74	4455
2026-01-16 01:24:37.37	224.90	17.98	-51.5	-53.2	18.5	0.00e+00	0	49	0	1219493888	74	4429
2026-01-16 01:24:41.41	224.75	17.50	-51.6	-53.3	18.4	0.00e+00	0	49	0	1226833920	74	4456
2026-01-16 01:24:45.45	224.60	17.03	-51.5	-53.2	18.5	0.00e+00	0	49	0	1234173952	74	4392
2026-01-16 01:24:49.49	224.46	16.57	-51.6	-53.3	18.3	0.00e+00	0	49	0	1241513984	74	4469
2026-01-16 01:24:53.53	224.32	16.12	-51.7	-53.5	18.2	0.00e+00	0	48	0	1249902592	74	4546
2026-01-16 01:24:57.56	224.19	15.68	-51.9	-53.8	17.9	0.00e+00	0	48	0	1257242624	74	4707
2026-01-16 01:25:01.60	224.06	15.24	-52.0	-53.9	17.8	0.00e+00	0	49	0	1264582656	74	4773
2026-01-16 01:25:05.64	223.93	14.82	-52.1	-54.1	17.5	0.00e+00	0	49	0	1271922688	74	4888
2026-01-16 01:25:09.68	223.81	14.40	-52.2	-54.1	17.5	0.00e+00	0	49	0	1279262720	74	4916
2026-01-16 01:25:13.72	223.69	13.98	-52.2	-54.2	17.4	0.00e+00	0	49	0	1287651328	75	4668
2026-01-16 01:25:17.75	223.58	13.58	-52.2	-54.2	17.3	0.00e+00	0	49	0	1294991360	75	4670
2026-01-16 01:25:21.79	223.47	13.18	-52.3	-54.3	17.2	0.00e+00	0	49	0	1302331392	75	4729
2026-01-16 01:25:25.83	223.36	12.78	-52.4	-54.4	17.0	0.00e+00	0	49	0	1309671424	75	4807
2026-01-16 01:25:29.87	223.25	12.40	-52.5	-54.6	16.9	0.00e+00	0	49	0	1318060032	75	4878
2026-01-16 01:25:33.90	223.15	12.02	-52.6	-54.8	16.7	0.00e+00	0	49	0	1325400064	76	4714
2026-01-16 01:25:37.94	223.05	11.64	-52.6	-54.7	16.7	0.00e+00	0	49	0	1332740096	76	4696
2026-01-16 01:25:41.98	222.96	11.27	-52.6	-54.8	16.6	0.00e+00	0	49	0	1340080128	76	4756
2026-01-16 01:25:46.02	222.86	10.90	-52.7	-55.0	16.4	0.00e+00	0	49	0	1348468736	76	4818
2026-01-16 01:25:50.05	222.77	10.55	-52.6	-54.7	16.6	0.00e+00	0	49	0	1355808768	76	4693
2026-01-16 01:25:54.09	222.68	10.19	-52.5	-54.6	16.8	0.00e+00	0	49	0	1363148800	76	4626
2026-01-16 01:25:58.13	222.60	9.84	-52.6	-54.9	16.5	0.00e+00	0	49	0	1370488832	76	4762
2026-01-16 01:26:02.17	222.52	9.50	-52.4	-54.6	16.7	0.00e+00	0	49	0	1377828864	76	4601
2026-01-16 01:26:06.21	222.43	9.16	-52.8	-55.2	16.1	0.00e+00	0	49	0	1386217472	76	4934
2026-01-16 01:26:10.25	222.36	8.82	-52.6	-54.9	16.3	0.00e+00	0	49	0	1393557504	76	4798
2026-01-16 01:26:14.29	222.28	8.49	-52.8	-55.2	16.0	0.00e+00	0	49	0	1400897536	76	4954
2026-01-16 01:26:18.33	222.20	8.16	-52.9	-55.3	15.8	0.00e+00	0	49	0	1408237568	76	5030
2026-01-16 01:26:22.37	222.13	7.84	-52.9	-55.4	15.7	0.00e+00	0	49	0	1415577600	76	5083
2026-01-16 01:26:26.41	222.06	7.52	-53.2	-55.8	15.3	0.00e+00	0	49	0	1423966208	77	5027
2026-01-16 01:26:30.45	221.99	7.21	-53.1	-55.7	15.3	0.00e+00	0	49	0	1431306240	77	4968
2026-01-16 01:26:34.49	221.92	6.89	-53.2	-55.9	15.1	0.00e+00	0	49	0	1438646272	77	5063
2026-01-16 01:26:38.53	221.86	6.59	-53.1	-55.8	15.2	0.00e+00	0	49	0	1445986304	77	4993
2026-01-16 01:26:42.56	221.79	6.28	-53.4	-56.3	14.6	1.50e-06	0	49	0	1454374912	77	5287
2026-01-16 01:26:46.60	221.73	5.98	-53.6	-56.7	14.2	1.50e-06	0	49	0	1461714944	77	5532
2026-01-16 01:26:50.64	221.67	5.69	-53.5	-56.6	14.2	0.00e+00	0	49	0	1469054976	77	5508
2026-01-16 01:26:54.68	221.61	5.39	-53.4	-56.5	14.3	1.50e-06	0	49	0	1476395008	78	5106
2026-01-16 01:26:58.71	221.55	5.10	-53.5	-56.6	14.1	3.80e-06	0	49	0	1484783616	78	5205
2026-01-16 01:27:02.75	221.49	4.81	-57.7	-72.7	3.8	1.49e+00	0	49	104	1487929344	85	22050
2026-01-16 01:27:06.79	221.44	4.53	-58.1	-73.2	3.8	1.49e+00	0	49	104	1487929344	86	22009
2026-01-16 01:27:10.83	221.39	4.25	-58.3	-73.4	3.8	1.49e+00	0	49	104	1487929344	87	21347
2026-01-16 01:27:14.87	221.33	3.97	-58.4	-73.5	3.8	1.49e+00	0	49	104	1487929344	87	21508
2026-01-16 01:27:18.92	221.28	3.69	-58.5	-73.5	3.8	1.49e+00	0	49	104	1487929344	87	21578
2026-01-16 01:27:22.96	221.23	3.42	-58.5	-73.5	3.8	1.49e+00	0	49	104	1487929344	87	21666
2026-01-16 01:27:27.00	221.18	3.15	-58.4	-73.4	3.8	1.49e+00	0	49	104	1487929344	87	21478
2026-01-16 01:27:31.04	221.13	2.88	-58.4	-73.4	3.8	1.49e+00	0	49	104	1487929344	87	21469
2026-01-16 01:27:35.08	221.09	2.62	-58.4	-73.4	3.8	1.49e+00	0	49	104	1487929344	87	21389
2026-01-16 01:27:39.13	221.04	2.35	-58.4	-73.4	3.8	1.49e+00	0	49	104	1487929344	87	21344
2026-01-16 01:27:43.17	220.99	2.09	-58.4	-73.4	3.8	1.49e+00	0	49	104	1487929344	87	21324
2026-01-16 01:27:47.21	220.95	1.83	-58.4	-73.4	3.8	1.49e+00	0	49	104	1487929344	87	21363

#Closed at: 2026-01-16 01:27:47
#Recorded file [1487 MB]: D:/lorett/data/31041_260116_041322.dat