passes_logs/2026/01/16/R3.2S_Murmansk/R3.2S_Murmansk__20260116_180705_TY-42_rec.log

#Pass ID: 20260116_180705_TY-42
#Satellite: TY-42
#Configuration: TY-42_900M
#almurnet v.1.7.20251203
#Start time: 2026-01-16 18:07:05

#Version: 2.2.20231116
#Station: R3.2S_Murmansk
#Location: 33.079688 lon 68.888172 lat
#TLE: 1 64048U 25103A   26016.24410880  .00008011  00000-0  38191-3 0 09990
#TLE: 2 64048 097.4123 091.6382 0001701 090.6906 049.3125 15.19172310 37002

#Time	Az	El	Level	Level2	SNR	BER	BlckErr	Temp	State	Recorded	gain1	gain2
2026-01-16 18:07:05.15	138.21	2.01	-51.8	-53.9	6.2	0.00e+00	0	40	0	0	75	18117
2026-01-16 18:07:08.17	138.13	2.22	-51.8	-53.9	6.2	0.00e+00	0	40	104	0	75	18122
2026-01-16 18:07:11.20	138.04	2.43	-51.8	-53.9	6.2	0.00e+00	0	40	104	0	75	18088
2026-01-16 18:07:14.22	137.96	2.65	-51.8	-53.9	6.2	0.00e+00	0	40	104	0	75	18111
2026-01-16 18:07:17.25	137.87	2.87	-51.8	-53.9	6.2	0.00e+00	0	41	104	0	75	18100
2026-01-16 18:07:20.27	137.78	3.08	-51.8	-53.9	6.2	0.00e+00	0	41	104	0	75	18091
2026-01-16 18:07:23.30	137.69	3.31	-51.8	-53.9	6.2	0.00e+00	0	41	104	0	75	18167
2026-01-16 18:07:26.33	137.59	3.53	-51.8	-53.9	6.2	0.00e+00	0	41	104	0	75	18068
2026-01-16 18:07:29.35	137.50	3.75	-51.8	-53.9	6.2	0.00e+00	0	41	104	0	75	18133
2026-01-16 18:07:32.38	137.40	3.98	-51.8	-53.9	6.2	0.00e+00	0	42	104	0	75	18053
2026-01-16 18:07:35.40	137.30	4.21	-51.8	-53.9	6.2	0.00e+00	0	42	104	0	75	18116
2026-01-16 18:07:38.43	137.20	4.45	-51.8	-53.9	6.2	0.00e+00	0	42	104	0	75	18104
2026-01-16 18:07:41.45	137.10	4.68	-51.8	-53.9	6.2	0.00e+00	0	42	104	0	75	18139
2026-01-16 18:07:44.48	136.99	4.92	-51.8	-53.9	6.2	0.00e+00	0	42	104	0	75	18087
2026-01-16 18:07:47.50	136.88	5.16	-52.0	-54.1	6.2	0.00e+00	0	43	104	0	75	18459
2026-01-16 18:07:50.52	136.77	5.41	-52.0	-54.1	6.2	0.00e+00	0	43	104	0	75	18500
2026-01-16 18:07:53.55	136.66	5.65	-41.4	-41.4	11.3	0.00e+00	9069	46	0	167772160	54	14360
2026-01-16 18:07:56.57	136.54	5.90	-38.7	-38.6	13.0	3.74e-01	0	45	0	520093696	49	13935
2026-01-16 18:07:59.60	136.42	6.16	-38.5	-38.4	13.1	6.05e-02	0	45	0	855638016	48	14401
2026-01-16 18:08:02.62	136.30	6.41	-38.4	-38.4	13.2	5.63e-02	0	46	0	1191182336	48	14306
2026-01-16 18:08:05.64	136.17	6.67	-38.2	-38.2	13.3	5.62e-02	0	46	0	1526726656	48	13992
2026-01-16 18:08:08.66	136.05	6.94	-38.5	-38.5	13.2	4.93e-02	0	46	0	1879048192	48	14454
2026-01-16 18:08:11.69	135.91	7.20	-38.2	-38.1	13.4	4.57e-02	0	46	0	2214592512	48	13897
2026-01-16 18:08:14.71	135.78	7.47	-37.1	-37.1	13.1	4.27e-02	0	46	0	2550136832	46	13818
2026-01-16 18:08:17.74	135.64	7.75	-37.0	-36.9	13.3	5.68e-02	0	46	0	2894069760	46	13582
2026-01-16 18:08:20.77	135.50	8.03	-37.0	-37.0	13.2	4.98e-02	0	47	0	3238002688	45	14488
2026-01-16 18:08:23.79	135.36	8.31	-37.1	-37.0	13.2	5.08e-02	0	47	0	3581935616	45	14585
2026-01-16 18:08:26.82	135.21	8.59	-36.8	-36.8	13.4	4.42e-02	0	47	0	3917479936	45	14142
2026-01-16 18:08:29.85	135.05	8.88	-36.6	-36.6	13.5	4.15e-02	0	47	0	4253024256	45	13829
2026-01-16 18:08:32.87	134.90	9.18	-36.4	-36.3	13.7	3.47e-02	0	47	0	4605345792	44	14156
2026-01-16 18:08:35.90	134.74	9.48	-36.1	-36.0	13.9	3.08e-02	0	47	0	4940890112	44	13729
2026-01-16 18:08:38.92	134.57	9.78	-36.0	-36.0	14.0	2.68e-02	0	47	0	5276434432	43	14486
2026-01-16 18:08:41.95	134.40	10.09	-35.9	-35.8	14.1	2.37e-02	0	48	0	5611978752	43	14198
2026-01-16 18:08:44.97	134.23	10.40	-35.8	-35.7	14.1	2.15e-02	0	48	0	5964300288	43	14038
2026-01-16 18:08:48.00	134.05	10.72	-35.5	-35.4	14.3	1.92e-02	0	48	0	6299844608	42	14332
2026-01-16 18:08:51.02	133.86	11.04	-35.4	-35.4	14.3	1.47e-02	0	48	0	6635388928	42	14287
2026-01-16 18:08:54.05	133.67	11.37	-35.1	-35.0	14.5	1.58e-02	0	48	0	6979321856	42	13763
2026-01-16 18:08:57.07	133.48	11.71	-35.1	-35.0	14.5	1.32e-02	0	48	0	7323254784	42	13774
2026-01-16 18:09:00.10	133.28	12.05	-34.8	-34.7	14.7	1.20e-02	0	48	0	7658799104	41	14094
2026-01-16 18:09:03.12	133.07	12.39	-34.7	-34.6	14.7	9.96e-03	0	48	0	8002732032	40	14644
2026-01-16 18:09:06.15	132.85	12.75	-34.2	-34.2	14.9	8.44e-03	0	48	0	8338276352	40	13951
2026-01-16 18:09:09.18	132.63	13.11	-34.2	-34.1	15.0	6.07e-03	0	48	0	8682209280	40	13836
2026-01-16 18:09:12.20	132.41	13.47	-34.0	-33.9	15.1	5.22e-03	0	48	0	9026142208	39	14438
2026-01-16 18:09:15.23	132.17	13.84	-33.7	-33.7	15.2	4.70e-03	0	48	0	9361686528	39	13967
2026-01-16 18:09:18.26	131.93	14.22	-33.4	-33.4	15.3	3.53e-03	0	48	0	9705619456	38	14285
2026-01-16 18:09:21.28	131.68	14.61	-33.3	-33.2	15.3	3.40e-03	0	48	0	10049552384	38	14037
2026-01-16 18:09:24.31	131.42	15.01	-33.4	-33.3	15.3	3.10e-03	0	49	0	10385096704	38	14218
2026-01-16 18:09:27.33	131.16	15.41	-32.9	-32.8	15.5	2.56e-03	0	49	0	10720641024	37	14167
2026-01-16 18:09:30.35	130.88	15.82	-32.7	-32.6	15.5	2.01e-03	0	49	0	11072962560	37	13947
2026-01-16 18:09:33.38	130.60	16.24	-32.6	-32.5	15.6	1.99e-03	0	49	0	11408506880	37	13757
2026-01-16 18:09:36.41	130.30	16.67	-32.3	-32.2	15.7	1.85e-03	0	49	0	11744051200	36	14023
2026-01-16 18:09:39.44	130.00	17.10	-32.3	-32.2	15.8	1.42e-03	0	49	0	12079595520	36	14102
2026-01-16 18:09:42.46	129.69	17.55	-29.6	-29.5	15.5	7.06e-04	0	49	0	12431917056	31	13748
2026-01-16 18:09:45.49	129.36	18.00	-29.4	-29.3	15.5	2.05e-03	0	49	0	12767461376	30	14183
2026-01-16 18:09:48.51	129.02	18.47	-29.1	-29.0	15.7	1.53e-03	0	49	0	13103005696	30	13724
2026-01-16 18:09:51.53	128.67	18.94	-29.0	-28.9	15.7	1.22e-03	0	49	0	13446938624	30	13619
2026-01-16 18:09:54.56	128.30	19.43	-28.6	-28.5	15.8	1.26e-03	0	49	0	13790871552	29	13776
2026-01-16 18:09:57.59	127.92	19.93	-28.5	-28.4	15.8	9.73e-04	0	49	0	14134804480	28	14321
2026-01-16 18:10:00.62	127.53	20.44	-28.2	-28.2	16.0	7.87e-04	0	49	0	14470348800	28	13952
2026-01-16 18:10:03.64	127.12	20.96	-28.3	-28.2	16.0	5.53e-04	0	49	0	14805893120	28	14049
2026-01-16 18:10:06.66	126.70	21.49	-28.1	-28.0	16.1	5.34e-04	0	49	0	15158214656	28	13756
2026-01-16 18:10:09.69	126.25	22.04	-28.0	-27.9	16.1	3.53e-04	0	49	0	15493758976	27	14424
2026-01-16 18:10:12.72	125.79	22.60	-27.6	-27.5	16.2	3.19e-04	0	49	0	15829303296	27	13775
2026-01-16 18:10:15.75	125.31	23.18	-27.4	-27.3	16.2	2.43e-04	0	49	0	16164847616	26	14143
2026-01-16 18:10:18.77	124.81	23.76	-27.1	-27.0	16.3	1.72e-04	0	49	0	16517169152	26	13770
2026-01-16 18:10:21.80	124.28	24.36	-26.9	-26.8	16.4	6.67e-05	0	49	0	16852713472	25	14205
2026-01-16 18:10:24.82	123.74	24.98	-26.9	-26.8	16.4	6.67e-05	0	49	0	17188257792	25	14160
2026-01-16 18:10:27.85	123.16	25.61	-26.4	-26.3	16.5	5.24e-05	0	49	0	17532190720	24	14238
2026-01-16 18:10:30.87	122.57	26.25	-26.1	-26.0	16.6	3.33e-05	0	49	0	17876123648	24	13744
2026-01-16 18:10:33.90	121.94	26.92	-26.0	-25.9	16.6	4.70e-06	0	50	0	18211667968	23	14359
2026-01-16 18:10:36.93	121.28	27.60	-25.6	-25.5	16.7	4.70e-06	0	49	0	18555600896	23	13713
2026-01-16 18:10:39.95	120.59	28.29	-25.1	-25.0	16.7	1.43e-05	0	49	0	18899533824	22	13756
2026-01-16 18:10:42.98	119.87	29.00	-24.8	-24.7	16.9	0.00e+00	0	49	0	19235078144	21	14045
2026-01-16 18:10:46.01	119.11	29.73	-24.7	-24.6	16.9	0.00e+00	0	49	0	19579011072	21	13865
2026-01-16 18:10:49.03	118.31	30.47	-24.5	-24.3	16.9	0.00e+00	0	49	0	19914555392	20	14261
2026-01-16 18:10:52.06	117.47	31.24	-24.3	-24.1	17.0	0.00e+00	0	49	0	20258488320	20	13942
2026-01-16 18:10:55.08	116.59	32.01	-24.1	-24.0	17.1	4.70e-06	0	49	0	20602421248	20	13708
2026-01-16 18:10:58.10	115.66	32.81	-24.0	-23.8	17.1	0.00e+00	0	49	0	20937965568	19	14243
2026-01-16 18:11:01.13	114.68	33.62	-23.6	-23.5	17.2	0.00e+00	0	49	0	21273509888	19	13713
2026-01-16 18:11:04.15	113.64	34.44	-23.6	-23.4	17.2	0.00e+00	0	50	0	21609054208	19	13621
2026-01-16 18:11:07.18	112.54	35.29	-23.5	-23.4	17.2	0.00e+00	0	49	0	21961375744	18	14328
2026-01-16 18:11:10.20	111.39	36.14	-23.1	-23.0	17.3	0.00e+00	0	49	0	22296920064	18	13715
2026-01-16 18:11:13.23	110.16	37.01	-23.2	-23.1	17.2	0.00e+00	0	49	0	22632464384	18	13820
2026-01-16 18:11:16.26	108.86	37.90	-22.6	-22.5	17.2	0.00e+00	0	49	0	22984785920	17	13727
2026-01-16 18:11:19.28	107.49	38.78	-22.3	-22.2	17.2	0.00e+00	0	49	0	23320330240	16	13992
2026-01-16 18:11:22.30	106.04	39.68	-22.3	-22.1	17.2	0.00e+00	0	50	0	23655874560	16	13934
2026-01-16 18:11:25.33	104.49	40.59	-21.7	-21.6	17.3	0.00e+00	0	49	0	23999807488	15	13875
2026-01-16 18:11:28.36	102.86	41.49	-21.5	-21.4	17.3	0.00e+00	0	49	0	24343740416	15	13551
2026-01-16 18:11:31.38	101.12	42.39	-21.3	-21.2	17.3	0.00e+00	0	49	0	24679284736	14	14005
2026-01-16 18:11:34.40	99.29	43.29	-21.3	-21.1	17.3	0.00e+00	0	49	0	25023217664	14	13941
2026-01-16 18:11:37.43	97.34	44.18	-21.1	-20.9	17.3	0.00e+00	0	49	0	25358761984	14	13632
2026-01-16 18:11:40.45	95.28	45.04	-20.9	-20.7	17.3	0.00e+00	0	49	0	25694306304	13	14050
2026-01-16 18:11:43.48	93.09	45.89	-20.6	-20.5	17.3	0.00e+00	0	49	0	26046627840	13	13706
2026-01-16 18:11:46.50	90.79	46.71	-20.3	-20.2	17.2	0.00e+00	0	49	0	26382172160	12	14002
2026-01-16 18:11:49.53	88.36	47.50	-20.4	-20.3	17.2	0.00e+00	0	49	0	26717716480	12	14141
2026-01-16 18:11:52.56	85.80	48.24	-20.1	-20.0	17.3	0.00e+00	0	49	0	27070038016	12	13677
2026-01-16 18:11:55.58	83.12	48.94	-20.0	-19.9	17.3	0.00e+00	0	49	0	27405582336	12	13548
2026-01-16 18:11:58.61	80.32	49.57	-20.1	-19.9	17.3	0.00e+00	0	50	0	27741126656	12	13612
2026-01-16 18:12:01.63	77.40	50.14	-20.2	-20.1	17.2	0.00e+00	0	49	0	28076670976	11	14611
2026-01-16 18:12:04.66	74.37	50.64	-19.9	-19.8	17.3	0.00e+00	0	49	0	28428992512	11	14171
2026-01-16 18:12:07.68	71.25	51.05	-19.7	-19.6	17.3	0.00e+00	0	49	0	28764536832	11	13811
2026-01-16 18:12:10.70	68.06	51.38	-19.8	-19.6	17.4	0.00e+00	0	49	0	29108469760	11	13901
2026-01-16 18:12:13.74	64.78	51.62	-19.7	-19.5	17.4	0.00e+00	0	49	0	29444014080	11	13742
2026-01-16 18:12:16.76	61.48	51.76	-19.8	-19.7	17.5	0.00e+00	0	49	0	29787947008	11	13952
2026-01-16 18:12:19.78	58.16	51.81	-19.6	-19.4	17.6	0.00e+00	0	49	0	30131879936	11	13594
2026-01-16 18:12:22.81	54.82	51.75	-19.6	-19.5	17.7	0.00e+00	0	49	0	30467424256	11	13648
2026-01-16 18:12:25.83	51.53	51.60	-19.7	-19.6	17.7	0.00e+00	0	49	0	30802968576	11	13802
2026-01-16 18:12:28.86	48.27	51.35	-19.7	-19.6	17.7	0.00e+00	0	49	0	31155290112	11	13821
2026-01-16 18:12:31.88	45.08	51.01	-19.8	-19.7	17.7	0.00e+00	0	49	0	31490834432	11	14022
2026-01-16 18:12:34.90	41.98	50.59	-19.7	-19.6	17.7	0.00e+00	0	49	0	31826378752	11	13823
2026-01-16 18:12:37.93	38.96	50.09	-19.8	-19.7	17.6	0.00e+00	0	49	0	32161923072	11	14016
2026-01-16 18:12:40.95	36.06	49.51	-20.1	-19.9	17.5	0.00e+00	0	49	0	32514244608	11	14420
2026-01-16 18:12:43.98	33.27	48.87	-20.1	-20.0	17.4	0.00e+00	0	49	0	32849788928	11	14526
2026-01-16 18:12:47.00	30.61	48.17	-20.3	-20.1	17.4	0.00e+00	0	49	0	33185333248	11	14731
2026-01-16 18:12:50.02	28.08	47.43	-20.4	-20.3	17.4	0.00e+00	0	49	0	33529266176	11	14967
2026-01-16 18:12:53.05	25.66	46.64	-20.7	-20.5	17.4	0.00e+00	0	49	0	33864810496	11	15428
2026-01-16 18:12:56.07	23.37	45.82	-20.6	-20.4	17.4	0.00e+00	0	49	0	34208743424	12	14438
2026-01-16 18:12:59.10	21.21	44.97	-20.9	-20.7	17.4	0.00e+00	0	49	0	34552676352	12	14879
2026-01-16 18:13:02.12	19.16	44.10	-21.0	-20.8	17.4	0.00e+00	0	49	0	34888220672	12	15075
2026-01-16 18:13:05.14	17.23	43.22	-21.1	-20.9	17.5	0.00e+00	0	49	0	35223764992	12	15235
2026-01-16 18:13:08.16	15.41	42.32	-21.4	-21.3	17.5	0.00e+00	0	49	0	35576086528	13	15008
2026-01-16 18:13:11.19	13.69	41.42	-21.5	-21.4	17.5	0.00e+00	0	49	0	35911630848	13	15214
2026-01-16 18:13:14.22	12.06	40.52	-21.9	-21.8	17.4	0.00e+00	0	49	0	36247175168	14	15060
2026-01-16 18:13:17.24	10.54	39.62	-22.0	-21.8	17.5	0.00e+00	0	49	0	36582719488	14	15074
2026-01-16 18:13:20.26	9.09	38.73	-22.1	-21.9	17.4	0.00e+00	0	49	0	36935041024	14	15272
2026-01-16 18:13:23.29	7.73	37.84	-22.4	-22.3	17.4	0.00e+00	0	49	0	37270585344	15	15014
2026-01-16 18:13:26.31	6.44	36.96	-22.6	-22.5	17.4	0.00e+00	0	49	0	37606129664	15	15403
2026-01-16 18:13:29.34	5.23	36.10	-23.1	-22.9	17.2	4.70e-06	0	50	0	37950062592	16	15269
2026-01-16 18:13:32.36	4.08	35.25	-23.3	-23.2	17.2	0.00e+00	0	49	0	38293995520	17	14780
2026-01-16 18:13:35.38	2.99	34.41	-23.7	-23.5	17.1	0.00e+00	0	50	0	38629539840	17	15448
2026-01-16 18:13:38.41	1.96	33.59	-53.6	-55.8	6.2	0.00e+00	0	48	104	38738591744	77	20005
2026-01-16 18:13:41.43	0.99	32.78	-53.6	-55.7	6.2	0.00e+00	0	48	104	38738591744	77	19894
2026-01-16 18:13:44.45	0.07	31.99	-53.6	-55.7	6.2	0.00e+00	0	48	104	38738591744	77	19852
2026-01-16 18:13:47.47	359.19	31.22	-53.6	-55.7	6.2	0.00e+00	0	48	104	38738591744	77	19748
2026-01-16 18:13:50.50	358.36	30.46	-53.6	-55.7	6.2	0.00e+00	0	48	104	38738591744	77	19786
2026-01-16 18:13:53.52	357.57	29.72	-53.5	-55.7	6.2	0.00e+00	0	48	104	38738591744	77	19759
2026-01-16 18:13:56.55	356.81	29.00	-53.5	-55.7	6.2	0.00e+00	0	48	104	38738591744	77	19708
2026-01-16 18:13:59.57	356.09	28.29	-53.5	-55.6	6.2	0.00e+00	0	48	104	38738591744	77	19662
2026-01-16 18:14:02.60	355.41	27.60	-53.5	-55.6	6.2	0.00e+00	0	47	104	38738591744	77	19586
2026-01-16 18:14:05.62	354.76	26.93	-53.5	-55.6	6.2	0.00e+00	0	47	104	38738591744	77	19598
2026-01-16 18:14:08.65	354.13	26.27	-53.5	-55.6	6.2	0.00e+00	0	47	104	38738591744	77	19585
2026-01-16 18:14:11.67	353.54	25.63	-53.4	-55.6	6.2	0.00e+00	0	47	104	38738591744	77	19506
2026-01-16 18:14:14.70	352.97	25.00	-53.4	-55.5	6.2	0.00e+00	0	47	104	38738591744	77	19471
2026-01-16 18:14:17.73	352.43	24.38	-53.4	-55.6	6.2	0.00e+00	0	47	104	38738591744	77	19494
2026-01-16 18:14:20.75	351.91	23.79	-53.4	-55.5	6.2	0.00e+00	0	47	104	38738591744	77	19390
2026-01-16 18:14:23.77	351.41	23.20	-53.4	-55.5	6.2	0.00e+00	0	47	104	38738591744	77	19342
2026-01-16 18:14:26.80	350.93	22.63	-53.4	-55.5	6.2	0.00e+00	0	47	104	38738591744	77	19335
2026-01-16 18:14:29.82	350.47	22.08	-53.4	-55.5	6.2	0.00e+00	0	47	104	38738591744	77	19390
2026-01-16 18:14:32.85	350.03	21.53	-53.3	-55.5	6.2	0.00e+00	0	47	104	38738591744	77	19269
2026-01-16 18:14:35.87	349.61	21.00	-53.3	-55.4	6.2	0.00e+00	0	47	104	38738591744	77	19141
2026-01-16 18:14:38.90	349.20	20.48	-53.3	-55.5	6.2	0.00e+00	0	47	104	38738591744	77	19264
2026-01-16 18:14:41.92	348.81	19.98	-53.3	-55.4	6.2	0.00e+00	0	47	104	38738591744	77	19121
2026-01-16 18:14:44.94	348.44	19.48	-53.3	-55.4	6.2	0.00e+00	0	47	104	38738591744	77	19092
2026-01-16 18:14:47.97	348.07	19.00	-53.2	-55.4	6.2	0.00e+00	0	47	104	38738591744	77	19063
2026-01-16 18:14:51.00	347.73	18.52	-53.2	-55.3	6.2	0.00e+00	0	46	104	38738591744	77	19008
2026-01-16 18:14:54.02	347.39	18.06	-53.2	-55.3	6.2	0.00e+00	0	47	104	38738591744	77	18977
2026-01-16 18:14:57.04	347.07	17.61	-53.2	-55.3	6.2	0.00e+00	0	47	104	38738591744	77	18985
2026-01-16 18:15:00.07	346.75	17.16	-53.2	-55.3	6.2	0.00e+00	0	46	104	38738591744	77	18890
2026-01-16 18:15:03.09	346.45	16.73	-53.1	-55.2	6.2	0.00e+00	0	46	104	38738591744	77	18791
2026-01-16 18:15:06.12	346.16	16.30	-53.1	-55.3	6.2	0.00e+00	0	47	104	38738591744	77	18863
2026-01-16 18:15:09.14	345.88	15.88	-53.1	-55.3	6.2	0.00e+00	0	47	104	38738591744	77	18844
2026-01-16 18:15:12.16	345.60	15.48	-53.1	-55.2	6.2	0.00e+00	0	46	104	38738591744	77	18678
2026-01-16 18:15:15.19	345.34	15.07	-53.1	-55.1	6.2	0.00e+00	0	46	104	38738591744	77	18594
2026-01-16 18:15:18.21	345.08	14.68	-53.1	-55.2	6.2	0.00e+00	0	46	104	38738591744	77	18711
2026-01-16 18:15:21.23	344.84	14.30	-53.1	-55.2	6.2	0.00e+00	0	46	104	38738591744	77	18629
2026-01-16 18:15:24.26	344.60	13.92	-53.0	-55.1	6.2	0.00e+00	0	46	104	38738591744	77	18490
2026-01-16 18:15:27.28	344.36	13.55	-52.9	-55.1	6.2	0.00e+00	0	46	104	38738591744	77	18400
2026-01-16 18:15:30.31	344.14	13.18	-53.0	-55.1	6.2	0.00e+00	0	46	104	38738591744	77	18492
2026-01-16 18:15:33.33	343.92	12.83	-53.0	-55.1	6.2	0.00e+00	0	46	104	38738591744	77	18406
2026-01-16 18:15:36.36	343.71	12.47	-52.9	-55.0	6.2	0.00e+00	0	46	104	38738591744	77	18269
2026-01-16 18:15:39.39	343.50	12.13	-52.8	-54.9	6.2	0.00e+00	0	46	104	38738591744	77	18168
2026-01-16 18:15:42.41	343.30	11.79	-52.8	-54.9	6.2	0.00e+00	0	46	104	38738591744	77	18151
2026-01-16 18:15:45.44	343.11	11.46	-52.9	-55.0	6.2	0.00e+00	0	46	104	38738591744	77	18243
2026-01-16 18:15:48.46	342.92	11.13	-52.8	-54.9	6.2	0.00e+00	0	46	104	38738591744	77	18028
2026-01-16 18:15:51.49	342.74	10.81	-52.7	-54.8	6.2	0.00e+00	0	46	104	38738591744	77	17811
2026-01-16 18:15:54.51	342.56	10.49	-52.7	-54.8	6.2	0.00e+00	0	46	104	38738591744	77	17794
2026-01-16 18:15:57.53	342.39	10.18	-52.7	-54.8	6.2	0.00e+00	0	46	104	38738591744	77	17952
2026-01-16 18:16:00.56	342.22	9.87	-52.6	-54.7	6.2	0.00e+00	0	46	104	38738591744	77	17741
2026-01-16 18:16:03.58	342.06	9.57	-52.5	-54.6	6.2	0.00e+00	0	46	104	38738591744	77	17428
2026-01-16 18:16:06.61	341.90	9.27	-52.5	-54.6	6.2	0.00e+00	0	46	104	38738591744	77	17461
2026-01-16 18:16:09.63	341.74	8.98	-52.6	-54.6	6.2	0.00e+00	0	46	104	38738591744	76	18599
2026-01-16 18:16:12.66	341.59	8.69	-52.5	-54.6	6.2	0.00e+00	0	46	104	38738591744	76	18552
2026-01-16 18:16:15.68	341.45	8.40	-52.4	-54.5	6.2	0.00e+00	0	46	104	38738591744	76	18338
2026-01-16 18:16:18.70	341.30	8.12	-52.4	-54.5	6.2	0.00e+00	0	46	104	38738591744	76	18255
2026-01-16 18:16:21.73	341.16	7.84	-52.4	-54.6	6.2	0.00e+00	0	46	104	38738591744	76	18436
2026-01-16 18:16:24.75	341.03	7.57	-52.4	-54.5	6.2	0.00e+00	0	46	104	38738591744	76	18359
2026-01-16 18:16:27.78	340.89	7.30	-52.4	-54.5	6.2	0.00e+00	0	46	104	38738591744	76	18342
2026-01-16 18:16:30.80	340.76	7.04	-52.4	-54.5	6.2	0.00e+00	0	46	104	38738591744	76	18380
2026-01-16 18:16:33.83	340.64	6.77	-52.4	-54.5	6.2	0.00e+00	0	46	104	38738591744	76	18379
2026-01-16 18:16:36.85	340.51	6.51	-52.4	-54.5	6.2	0.00e+00	0	46	104	38738591744	76	18359
2026-01-16 18:16:39.88	340.39	6.26	-52.3	-54.4	6.2	0.00e+00	0	46	104	38738591744	76	18043
2026-01-16 18:16:42.90	340.28	6.01	-52.3	-54.4	6.2	0.00e+00	0	46	104	38738591744	76	18117
2026-01-16 18:16:45.92	340.16	5.76	-52.3	-54.4	6.2	0.00e+00	0	46	104	38738591744	76	18142
2026-01-16 18:16:48.95	340.05	5.51	-52.3	-54.4	6.2	0.00e+00	0	46	104	38738591744	76	18125
2026-01-16 18:16:51.97	339.94	5.27	-52.1	-54.2	6.2	0.00e+00	0	46	104	38738591744	76	17723
2026-01-16 18:16:55.00	339.83	5.02	-52.1	-54.2	6.2	0.00e+00	0	46	104	38738591744	76	17709
2026-01-16 18:16:58.02	339.73	4.79	-53.0	-55.1	6.2	0.00e+00	0	46	104	38738591744	76	19596
2026-01-16 18:17:01.04	339.63	4.55	-53.4	-55.5	6.2	0.00e+00	0	46	104	38738591744	77	19478
2026-01-16 18:17:04.07	339.53	4.32	-53.7	-55.8	6.2	0.00e+00	0	46	104	38738591744	77	20081
2026-01-16 18:17:07.10	339.43	4.09	-53.8	-56.0	6.2	0.00e+00	0	46	104	38738591744	78	19263
2026-01-16 18:17:10.13	339.33	3.86	-53.9	-56.0	6.2	0.00e+00	0	46	104	38738591744	78	19338
2026-01-16 18:17:13.16	339.24	3.64	-53.8	-56.0	6.2	0.00e+00	0	46	104	38738591744	78	19334
2026-01-16 18:17:16.18	339.15	3.41	-53.8	-55.9	6.2	0.00e+00	0	46	104	38738591744	78	19237
2026-01-16 18:17:19.21	339.06	3.19	-53.8	-55.9	6.2	0.00e+00	0	46	104	38738591744	78	19202
2026-01-16 18:17:22.24	338.97	2.97	-53.7	-55.9	6.2	0.00e+00	0	46	104	38738591744	78	19110
2026-01-16 18:17:25.26	338.89	2.76	-53.7	-55.9	6.2	0.00e+00	0	46	104	38738591744	78	19061
2026-01-16 18:17:28.29	338.80	2.54	-53.7	-55.8	6.2	0.00e+00	0	46	104	38738591744	78	19022
2026-01-16 18:17:31.32	338.72	2.33	-53.7	-55.8	6.2	0.00e+00	0	46	104	38738591744	78	18982
2026-01-16 18:17:34.34	338.64	2.12	-53.7	-55.8	6.2	0.00e+00	0	46	104	38738591744	78	18935

#Closed at: 2026-01-16 18:17:37
#Recorded file [38738 MB]: D:/lorett/data/31041_260116_210704.dat