passes_logs/2026/01/16/R3.2S_Murmansk/R3.2S_Murmansk__20260116_025815_AQUA_rec.log

#Pass ID: 20260116_025815_AQUA
#Satellite: AQUA
#Configuration: AQUA
#almurnet v.1.7.20251203
#Start time: 2026-01-16 02:58:17

#Version: 2.2.20231116
#Station: R3.2S_Murmansk
#Location: 33.079688 lon 68.888172 lat
#TLE: 1 27424U 02022A   26015.51279194  .00000651  00000+0  14022-3 0  9990
#TLE: 2 27424  98.4082 341.9487 0002034  77.6776  33.2672 14.61821775260965

#Time	Az	El	Level	Level2	SNR	BER	BlckErr	Temp	State	Recorded	gain1	gain2
2026-01-16 02:58:17.84	25.52	2.15	-57.7	-75.5	3.8	7.44e-01	0	41	0	0	87	27295
2026-01-16 02:58:20.87	25.47	2.35	-57.7	-75.5	3.8	7.45e-01	0	41	104	0	86	28890
2026-01-16 02:58:23.90	25.42	2.55	-57.7	-75.5	3.8	7.45e-01	0	42	104	0	86	28858
2026-01-16 02:58:26.93	25.36	2.76	-57.7	-75.5	3.8	7.46e-01	0	42	104	0	86	28751
2026-01-16 02:58:29.96	25.31	2.96	-57.7	-75.4	3.8	7.45e-01	0	42	104	0	86	28501
2026-01-16 02:58:32.99	25.26	3.17	-57.7	-75.4	3.8	7.44e-01	0	42	104	0	86	28597
2026-01-16 02:58:36.02	25.20	3.38	-57.7	-75.3	3.8	7.44e-01	0	42	104	0	86	28158
2026-01-16 02:58:39.05	25.14	3.59	-57.4	-73.9	3.8	7.46e-01	0	42	104	0	86	24130
2026-01-16 02:58:42.08	25.08	3.80	-56.6	-71.3	3.8	7.44e-01	0	42	104	0	85	18866
2026-01-16 02:58:45.12	25.02	4.02	-55.2	-68.2	3.8	7.49e-01	0	43	104	0	82	15630
2026-01-16 02:58:48.15	24.96	4.24	-55.1	-68.1	3.8	7.45e-01	0	43	104	0	81	16485
2026-01-16 02:58:51.18	24.90	4.45	-55.2	-68.2	3.8	7.44e-01	0	43	104	0	81	16675
2026-01-16 02:58:54.21	24.84	4.67	-55.5	-68.7	3.8	7.45e-01	0	43	104	0	81	17615
2026-01-16 02:58:57.24	24.78	4.90	-56.2	-70.3	3.8	7.46e-01	0	43	104	0	82	19977
2026-01-16 02:59:00.27	24.71	5.12	-56.0	-69.5	3.8	7.47e-01	0	43	104	0	83	17231
2026-01-16 02:59:03.30	24.64	5.35	-54.6	-66.8	3.8	7.46e-01	0	43	104	0	79	15815
2026-01-16 02:59:06.33	24.58	5.58	-53.8	-65.6	3.8	7.47e-01	0	43	104	0	79	13808
2026-01-16 02:59:09.36	24.51	5.81	-55.8	-69.1	3.8	7.43e-01	0	44	104	0	82	17424
2026-01-16 02:59:12.39	24.44	6.04	-56.0	-69.2	3.9	7.44e-01	0	44	104	0	84	15590
2026-01-16 02:59:15.41	24.36	6.28	-51.9	-63.1	3.8	7.44e-01	0	44	104	0	75	13080
2026-01-16 02:59:18.44	24.29	6.51	-56.5	-70.3	3.8	7.45e-01	0	44	104	0	85	16835
2026-01-16 02:59:21.48	24.21	6.75	-53.6	-65.2	3.8	7.44e-01	0	44	104	0	79	13249
2026-01-16 02:59:24.51	24.14	7.00	-56.4	-69.8	3.9	7.44e-01	0	44	104	0	84	16695
2026-01-16 02:59:27.53	24.06	7.24	-54.2	-66.0	3.8	7.43e-01	0	44	104	0	78	15300
2026-01-16 02:59:30.56	23.98	7.49	-51.6	-62.8	3.8	7.44e-01	0	44	104	0	74	13288
2026-01-16 02:59:33.59	23.89	7.74	-57.0	-71.2	3.8	7.43e-01	0	44	104	0	84	19753
2026-01-16 02:59:36.62	23.81	7.99	-54.2	-66.1	3.8	7.46e-01	0	45	104	0	80	13841
2026-01-16 02:59:39.65	23.73	8.25	-52.3	-63.8	3.8	7.43e-01	0	44	104	0	75	14082
2026-01-16 02:59:42.69	23.64	8.51	-53.6	-65.2	3.9	7.44e-01	0	45	104	0	79	13204
2026-01-16 02:59:45.72	23.55	8.77	-51.6	-62.7	3.9	7.43e-01	0	45	104	0	74	13147
2026-01-16 02:59:48.75	23.46	9.03	-53.8	-65.4	3.8	7.45e-01	0	45	104	0	79	13568
2026-01-16 02:59:51.78	23.36	9.30	-56.0	-68.9	3.8	7.48e-01	0	45	104	0	82	17034
2026-01-16 02:59:54.80	23.27	9.57	-50.3	-61.3	3.8	7.44e-01	0	45	104	0	72	12586
2026-01-16 02:59:57.83	23.17	9.85	-57.7	-72.6	3.8	7.47e-01	0	45	104	0	85	21945
2026-01-16 03:00:00.86	23.07	10.12	-51.5	-62.7	3.8	7.46e-01	0	45	104	0	75	12380
2026-01-16 03:00:03.89	22.96	10.40	-54.6	-66.6	3.8	7.42e-01	0	45	104	0	79	15440
2026-01-16 03:00:06.93	22.86	10.69	-51.4	-62.5	3.8	7.43e-01	0	45	104	0	75	12222
2026-01-16 03:00:09.95	22.75	10.98	-50.6	-61.6	3.8	7.46e-01	0	45	104	0	73	12309
2026-01-16 03:00:12.98	22.64	11.27	-55.2	-67.6	3.8	7.46e-01	0	45	104	0	80	16319
2026-01-16 03:00:16.01	22.53	11.56	-58.0	-73.3	3.8	7.44e-01	0	46	104	0	86	22392
2026-01-16 03:00:19.04	22.41	11.86	-50.6	-61.6	3.8	7.41e-01	0	46	104	0	73	12264
2026-01-16 03:00:22.07	22.29	12.17	-58.6	-75.6	3.8	7.46e-01	0	46	104	0	87	27413
2026-01-16 03:00:25.10	22.17	12.47	-50.7	-61.6	3.8	7.45e-01	0	46	104	0	73	12343
2026-01-16 03:00:28.13	22.05	12.78	-56.7	-70.2	3.8	7.43e-01	0	46	104	0	84	17533
2026-01-16 03:00:31.16	21.92	13.10	-51.1	-62.1	3.8	7.44e-01	0	46	104	0	73	13028
2026-01-16 03:00:34.19	21.79	13.42	-50.5	-61.4	3.8	7.43e-01	0	46	104	0	73	12074
2026-01-16 03:00:37.22	21.65	13.75	-54.3	-66.0	3.8	7.44e-01	0	46	104	0	79	14502
2026-01-16 03:00:40.25	21.52	14.08	-56.0	-68.7	3.8	7.44e-01	0	46	104	0	84	14860
2026-01-16 03:00:43.28	21.38	14.41	-50.1	-61.0	3.8	7.44e-01	0	46	104	0	71	12899
2026-01-16 03:00:46.31	21.23	14.75	-57.4	-71.3	3.9	7.43e-01	0	46	104	0	86	17838
2026-01-16 03:00:49.34	21.08	15.09	-50.2	-61.0	3.8	7.44e-01	0	46	104	0	72	12192
2026-01-16 03:00:52.37	20.93	15.45	-52.3	-63.4	3.8	7.47e-01	0	46	104	0	76	12767
2026-01-16 03:00:55.40	20.77	15.80	-51.9	-63.0	3.8	7.44e-01	0	47	104	0	74	13704
2026-01-16 03:00:58.43	20.61	16.16	-49.4	-60.2	3.8	7.43e-01	0	46	104	0	70	12433
2026-01-16 03:01:01.47	20.44	16.53	-55.6	-67.9	3.9	7.45e-01	0	46	104	0	81	15965
2026-01-16 03:01:04.49	20.27	16.90	-55.6	-68.1	3.8	7.41e-01	0	47	104	0	83	14562
2026-01-16 03:01:07.52	20.09	17.28	-53.6	-65.0	3.9	7.45e-01	0	47	104	0	77	14536
2026-01-16 03:01:10.56	19.91	17.67	-54.1	-65.8	3.9	7.43e-01	0	47	104	0	80	13292
2026-01-16 03:01:13.59	19.73	18.06	-50.1	-60.9	3.8	7.43e-01	0	47	104	0	72	12068
2026-01-16 03:01:16.62	19.53	18.46	-50.3	-61.1	3.8	7.47e-01	0	47	104	0	72	12273
2026-01-16 03:01:19.65	19.34	18.86	-57.2	-70.5	3.8	7.48e-01	0	47	104	0	84	18301
2026-01-16 03:01:22.68	19.13	19.27	-49.7	-60.5	3.8	7.46e-01	0	47	104	0	71	12138
2026-01-16 03:01:25.71	18.92	19.69	-57.0	-70.3	3.8	7.41e-01	0	47	104	0	84	17766
2026-01-16 03:01:28.74	18.71	20.12	-51.6	-62.7	3.8	7.44e-01	0	47	104	0	75	12384
2026-01-16 03:01:31.77	18.48	20.55	-58.2	-72.9	3.8	7.50e-01	0	47	104	0	86	21309
2026-01-16 03:01:34.80	18.25	21.00	-50.7	-61.6	3.9	7.46e-01	0	47	104	0	73	12345
2026-01-16 03:01:37.83	18.01	21.45	-50.0	-60.7	3.8	7.46e-01	0	47	104	0	71	12437
2026-01-16 03:01:40.87	17.77	21.91	-54.0	-65.5	3.8	7.45e-01	0	47	104	0	78	14463
2026-01-16 03:01:43.89	17.51	22.37	-58.1	-72.6	3.8	7.46e-01	0	47	104	0	86	20689
2026-01-16 03:01:46.92	17.25	22.85	-50.1	-61.0	3.8	7.46e-01	0	47	104	0	72	12139
2026-01-16 03:01:49.95	16.98	23.33	-58.7	-74.4	3.8	7.49e-01	0	47	104	0	87	24052
2026-01-16 03:01:52.98	16.70	23.83	-50.6	-61.4	3.8	7.40e-01	0	47	104	0	73	12055
2026-01-16 03:01:56.01	16.41	24.33	-59.0	-75.8	3.8	7.44e-01	0	47	104	0	88	26759
2026-01-16 03:01:59.04	16.10	24.85	-50.8	-61.7	3.8	7.44e-01	0	47	104	0	73	12436
2026-01-16 03:02:02.07	15.79	25.37	-50.6	-61.4	3.8	7.46e-01	0	47	104	0	73	12088
2026-01-16 03:02:05.10	15.47	25.91	-54.7	-66.6	3.8	7.42e-01	0	47	104	0	80	14667
2026-01-16 03:02:08.13	15.13	26.45	-58.3	-73.1	3.8	7.45e-01	0	47	104	0	87	20728
2026-01-16 03:02:11.16	14.78	27.01	-49.9	-60.8	3.8	7.44e-01	0	47	104	0	71	12538
2026-01-16 03:02:14.19	14.42	27.58	-58.0	-72.6	3.9	7.43e-01	0	47	104	0	87	19518
2026-01-16 03:02:17.22	14.04	28.16	-50.0	-60.8	3.8	7.45e-01	0	48	104	0	71	12630
2026-01-16 03:02:20.25	13.65	28.75	-58.8	-74.9	3.8	7.46e-01	0	47	104	0	88	24116
2026-01-16 03:02:23.28	13.25	29.35	-51.1	-62.0	3.8	7.41e-01	0	47	104	0	72	13574
2026-01-16 03:02:26.31	12.82	29.97	-49.9	-60.7	3.8	7.41e-01	0	47	104	0	71	12417
2026-01-16 03:02:29.34	12.38	30.60	-54.7	-66.6	3.8	7.43e-01	0	48	104	0	80	14577
2026-01-16 03:02:32.36	11.92	31.24	-57.0	-70.1	3.9	7.41e-01	0	47	104	0	86	15559
2026-01-16 03:02:35.39	11.44	31.89	-50.7	-62.0	3.8	7.45e-01	0	47	104	0	72	13680
2026-01-16 03:02:38.42	10.94	32.56	-57.2	-70.4	3.9	7.46e-01	0	47	104	0	86	16042
2026-01-16 03:02:41.45	10.42	33.24	-49.9	-60.7	3.8	7.45e-01	0	48	104	0	71	12485
2026-01-16 03:02:44.48	9.87	33.94	-50.0	-60.9	3.8	7.45e-01	0	48	104	0	72	12063
2026-01-16 03:02:47.51	9.30	34.65	-53.9	-65.6	3.8	7.42e-01	0	47	104	0	78	14607
2026-01-16 03:02:50.54	8.70	35.37	-50.6	-61.6	3.8	7.48e-01	0	47	104	0	72	12967
2026-01-16 03:02:53.57	8.07	36.11	-56.6	-69.3	3.8	7.47e-01	0	48	104	0	83	16866
2026-01-16 03:02:56.60	7.41	36.87	-53.3	-64.6	3.9	7.44e-01	0	48	104	0	78	13031
2026-01-16 03:02:59.63	6.72	37.63	-57.9	-71.9	3.8	7.48e-01	0	47	104	0	86	19156
2026-01-16 03:03:02.66	5.99	38.41	-53.5	-65.0	3.9	7.46e-01	0	48	104	0	79	12903
2026-01-16 03:03:05.69	5.23	39.21	-51.5	-62.5	3.8	7.43e-01	0	48	104	0	75	12146
2026-01-16 03:03:08.72	4.42	40.02	-52.3	-63.2	3.8	7.44e-01	0	48	104	0	75	13220
2026-01-16 03:03:11.75	3.58	40.84	-58.6	-73.4	3.8	7.47e-01	0	48	104	0	87	21357
2026-01-16 03:03:14.78	2.69	41.67	-51.4	-62.3	3.8	7.42e-01	0	48	104	0	74	12636
2026-01-16 03:03:17.80	1.75	42.52	-58.1	-72.0	3.8	7.48e-01	0	48	104	0	86	19251
2026-01-16 03:03:20.83	0.75	43.37	-51.6	-62.6	3.8	7.43e-01	0	48	104	0	75	12246
2026-01-16 03:03:23.86	359.70	44.24	-59.5	-76.7	3.8	7.44e-01	0	48	104	0	89	27788
2026-01-16 03:03:26.89	358.59	45.12	-50.7	-61.6	3.8	7.46e-01	0	48	104	0	73	12285
2026-01-16 03:03:29.92	357.42	46.00	-51.1	-62.1	3.8	7.44e-01	0	48	104	0	74	12313
2026-01-16 03:03:32.94	356.17	46.89	-54.4	-66.1	3.8	7.41e-01	0	48	104	0	79	14545
2026-01-16 03:03:35.97	354.85	47.79	-58.8	-73.9	3.8	7.42e-01	0	48	104	0	88	21505
2026-01-16 03:03:39.00	353.45	48.68	-51.0	-61.9	3.8	7.43e-01	0	48	104	0	73	12808
2026-01-16 03:03:42.03	351.97	49.58	-58.3	-72.4	3.8	7.43e-01	0	48	104	0	87	19046
2026-01-16 03:03:45.06	350.39	50.47	-50.6	-61.4	3.8	7.45e-01	0	48	104	0	73	12086
2026-01-16 03:03:48.09	348.71	51.36	-59.6	-76.7	3.8	7.45e-01	0	48	104	0	89	27955
2026-01-16 03:03:51.11	346.94	52.24	-50.1	-61.1	3.8	7.44e-01	0	48	104	0	72	12295
2026-01-16 03:03:54.14	345.05	53.10	-49.7	-60.5	3.8	7.46e-01	0	48	104	0	71	12114
2026-01-16 03:03:57.17	343.05	53.95	-54.2	-65.8	3.8	7.44e-01	0	48	104	0	78	14926
2026-01-16 03:04:00.19	340.93	54.76	-58.1	-71.8	3.8	7.49e-01	0	48	104	0	87	17798
2026-01-16 03:04:03.22	338.68	55.56	-51.2	-62.2	3.8	7.42e-01	0	48	104	0	72	13935
2026-01-16 03:04:06.25	336.30	56.32	-57.6	-62.2	14.0	6.03e-01	0	48	0	524288	86	6214
2026-01-16 03:04:09.28	333.79	57.04	-51.0	-52.3	24.1	6.02e-01	0	48	0	6291456	73	4240
2026-01-16 03:04:12.31	331.15	57.71	-51.0	-52.3	24.2	6.02e-01	0	48	0	12058624	73	4242
2026-01-16 03:04:15.34	328.37	58.33	-51.1	-52.5	24.0	6.01e-01	0	48	0	17301504	73	4328
2026-01-16 03:04:18.36	325.48	58.89	-51.2	-52.7	23.8	6.03e-01	0	48	0	23068672	73	4404
2026-01-16 03:04:21.39	322.46	59.38	-51.3	-52.7	23.8	6.05e-01	0	48	0	28835840	74	4166
2026-01-16 03:04:24.42	319.32	59.81	-51.4	-52.9	23.7	6.04e-01	0	48	0	34603008	74	4253
2026-01-16 03:04:27.45	316.10	60.15	-51.3	-52.8	23.7	6.05e-01	0	48	0	40370176	74	4203
2026-01-16 03:04:30.47	312.80	60.42	-51.0	-52.4	24.2	6.04e-01	0	48	0	46137344	73	4260
2026-01-16 03:04:33.50	309.44	60.60	-51.4	-52.8	23.7	6.01e-01	0	48	0	51380224	73	4478
2026-01-16 03:04:36.53	306.04	60.69	-51.7	-53.2	23.4	6.01e-01	0	48	0	57147392	74	4402
2026-01-16 03:04:39.56	302.62	60.69	-51.7	-53.2	23.4	6.03e-01	0	48	0	62914560	74	4403
2026-01-16 03:04:42.59	299.22	60.60	-51.1	-52.5	24.0	6.01e-01	0	48	0	68681728	74	4083
2026-01-16 03:04:45.61	295.87	60.42	-51.6	-53.1	23.5	6.04e-01	0	48	0	74448896	74	4347
2026-01-16 03:04:48.64	292.56	60.16	-51.6	-53.1	23.4	6.01e-01	0	48	0	79691776	74	4381
2026-01-16 03:04:51.67	289.33	59.82	-51.5	-52.9	23.7	6.03e-01	0	48	0	85458944	74	4265
2026-01-16 03:04:54.70	286.19	59.40	-51.9	-53.5	23.1	6.01e-01	0	48	0	91226112	74	4562
2026-01-16 03:04:57.73	283.16	58.90	-51.6	-53.1	23.5	6.03e-01	0	48	0	96993280	74	4365
2026-01-16 03:05:00.76	280.25	58.34	-51.0	-52.4	24.1	6.01e-01	0	48	0	102760448	73	4272
2026-01-16 03:05:03.79	277.47	57.73	-50.5	-51.7	24.6	6.03e-01	0	48	0	108527616	72	4186
2026-01-16 03:05:06.82	274.82	57.05	-50.9	-52.2	24.2	6.04e-01	0	48	0	113770496	73	4185
2026-01-16 03:05:09.85	272.30	56.33	-51.1	-52.5	23.9	6.05e-01	0	48	0	120061952	73	4328
2026-01-16 03:05:12.87	269.92	55.58	-51.1	-52.6	23.9	6.01e-01	0	48	0	125304832	73	4349
2026-01-16 03:05:15.90	267.67	54.78	-51.0	-52.4	24.1	6.02e-01	0	48	0	131072000	72	4542
2026-01-16 03:05:18.93	265.54	53.96	-50.3	-51.6	24.8	6.03e-01	0	48	0	136839168	71	4363
2026-01-16 03:05:21.96	263.53	53.11	-49.2	-50.3	26.0	6.02e-01	0	48	0	142606336	70	3983
2026-01-16 03:05:24.98	261.64	52.25	-49.9	-51.1	25.1	6.03e-01	0	48	0	148373504	70	4389
2026-01-16 03:05:28.01	259.85	51.37	-49.2	-50.3	26.0	6.03e-01	0	48	0	153616384	69	4237
2026-01-16 03:05:31.03	258.18	50.48	-49.6	-50.8	25.6	6.02e-01	0	48	0	159383552	70	4212
2026-01-16 03:05:34.06	256.60	49.59	-49.9	-51.2	25.2	6.02e-01	0	48	0	165150720	70	4413
2026-01-16 03:05:37.09	255.11	48.69	-49.4	-50.6	25.7	6.04e-01	0	48	0	170917888	70	4135
2026-01-16 03:05:40.12	253.70	47.79	-50.0	-51.3	25.1	6.02e-01	0	48	0	176685056	70	4453
2026-01-16 03:05:43.14	252.38	46.90	-49.3	-50.4	25.9	6.02e-01	0	48	0	182452224	70	4050
2026-01-16 03:05:46.18	251.13	46.00	-49.7	-50.9	25.5	6.01e-01	0	48	0	187695104	70	4257
2026-01-16 03:05:49.20	249.95	45.11	-49.4	-50.6	25.7	6.02e-01	0	48	0	193462272	70	4124
2026-01-16 03:05:52.23	248.84	44.24	-50.1	-51.4	25.0	6.02e-01	0	48	0	199229440	70	4515
2026-01-16 03:05:55.26	247.78	43.37	-50.0	-51.3	25.0	6.02e-01	0	48	0	204996608	70	4450
2026-01-16 03:05:58.29	246.79	42.50	-50.6	-52.0	24.4	6.02e-01	0	48	0	210763776	71	4574
2026-01-16 03:06:01.32	245.84	41.66	-50.4	-51.6	24.7	6.02e-01	0	48	0	216006656	71	4383
2026-01-16 03:06:04.35	244.95	40.82	-50.8	-52.2	24.1	6.03e-01	0	48	0	221773824	73	4169
2026-01-16 03:06:07.38	244.10	40.00	-51.3	-52.7	23.6	6.03e-01	0	48	0	227540992	73	4440
2026-01-16 03:06:10.41	243.29	39.18	-50.8	-52.1	24.1	6.03e-01	0	48	0	233308160	73	4119
2026-01-16 03:06:13.43	242.53	38.39	-51.5	-53.0	23.3	6.01e-01	0	48	0	239075328	73	4591
2026-01-16 03:06:16.46	241.80	37.61	-51.2	-52.6	23.7	6.05e-01	0	48	0	244842496	74	4111
2026-01-16 03:06:19.49	241.10	36.84	-51.9	-53.5	23.0	6.03e-01	0	48	0	250085376	74	4547
2026-01-16 03:06:22.52	240.44	36.08	-51.2	-52.6	23.7	6.04e-01	0	48	0	255852544	74	4110
2026-01-16 03:06:25.55	239.81	35.34	-51.1	-52.5	23.7	6.03e-01	0	48	0	261619712	74	4095
2026-01-16 03:06:28.58	239.21	34.62	-50.2	-51.4	24.7	6.05e-01	0	48	0	267386880	72	4051
2026-01-16 03:06:31.61	238.64	33.90	-50.1	-51.4	24.8	6.03e-01	0	48	0	273154048	72	4006
2026-01-16 03:06:34.63	238.09	33.21	-50.0	-51.2	25.0	6.02e-01	0	48	0	278396928	71	4180
2026-01-16 03:06:37.66	237.56	32.52	-49.8	-51.0	25.2	6.01e-01	0	48	0	284688384	71	4085
2026-01-16 03:06:40.70	237.06	31.85	-49.4	-50.6	25.5	6.01e-01	0	48	0	289931264	70	4131
2026-01-16 03:06:43.72	236.58	31.20	-49.4	-50.6	25.6	6.02e-01	0	48	0	295698432	70	4138
2026-01-16 03:06:46.75	236.12	30.55	-49.5	-50.8	25.3	6.04e-01	0	48	0	301465600	70	4196
2026-01-16 03:06:49.78	235.67	29.92	-49.3	-50.5	25.6	6.02e-01	0	48	0	307232768	70	4076
2026-01-16 03:06:52.81	235.25	29.30	-49.4	-50.7	25.5	6.03e-01	0	48	0	312999936	70	4146
2026-01-16 03:06:55.83	234.84	28.70	-49.5	-50.8	25.3	6.03e-01	0	48	0	318242816	70	4201
2026-01-16 03:06:58.86	234.45	28.10	-49.4	-50.7	25.4	6.00e-01	0	48	0	324009984	70	4154
2026-01-16 03:07:01.89	234.07	27.52	-49.5	-50.7	25.3	6.02e-01	0	48	0	329777152	70	4193
2026-01-16 03:07:04.92	233.71	26.95	-49.8	-51.1	25.0	6.01e-01	0	48	0	335544320	70	4357
2026-01-16 03:07:07.95	233.36	26.39	-50.0	-51.3	24.7	6.02e-01	0	48	0	341311488	70	4467
2026-01-16 03:07:10.97	233.02	25.85	-49.8	-51.1	25.0	6.01e-01	0	48	0	347078656	70	4363
2026-01-16 03:07:14.00	232.70	25.31	-49.8	-51.1	25.0	6.03e-01	0	48	0	352321536	70	4347
2026-01-16 03:07:17.02	232.38	24.79	-49.9	-51.2	24.9	6.02e-01	0	48	0	358088704	70	4402
2026-01-16 03:07:20.05	232.08	24.27	-49.9	-51.2	24.8	6.03e-01	0	49	0	363855872	70	4415
2026-01-16 03:07:23.08	231.79	23.77	-50.0	-51.2	24.8	6.03e-01	0	48	0	369623040	70	4440
2026-01-16 03:07:26.10	231.50	23.27	-50.0	-51.3	24.7	6.03e-01	0	48	0	375390208	70	4463
2026-01-16 03:07:29.13	231.23	22.78	-50.1	-51.4	24.5	6.03e-01	0	48	0	380633088	70	4513
2026-01-16 03:07:32.16	230.97	22.31	-50.0	-51.3	24.7	6.02e-01	0	48	0	386400256	70	4473
2026-01-16 03:07:35.19	230.71	21.84	-50.0	-51.3	24.7	6.04e-01	0	48	0	392167424	70	4464
2026-01-16 03:07:38.22	230.46	21.38	-50.0	-51.3	24.7	6.02e-01	0	48	0	397934592	70	4486
2026-01-16 03:07:41.25	230.22	20.93	-50.1	-51.4	24.6	6.01e-01	0	48	0	403701760	70	4538
2026-01-16 03:07:44.27	229.99	20.48	-50.1	-51.4	24.5	6.02e-01	0	48	0	409468928	70	4536
2026-01-16 03:07:47.30	229.77	20.05	-50.0	-51.3	24.6	6.03e-01	0	48	0	414711808	70	4480
2026-01-16 03:07:50.33	229.55	19.62	-50.0	-51.3	24.6	6.01e-01	0	48	0	420478976	70	4456
2026-01-16 03:07:53.35	229.34	19.20	-49.9	-51.2	24.7	6.04e-01	0	48	0	426246144	70	4419
2026-01-16 03:07:56.38	229.13	18.79	-50.0	-51.3	24.6	6.05e-01	0	48	0	432013312	70	4472
2026-01-16 03:07:59.41	228.93	18.38	-50.0	-51.4	24.5	6.04e-01	0	48	0	437780480	70	4513
2026-01-16 03:08:02.44	228.74	17.98	-49.9	-51.3	24.6	6.03e-01	0	49	0	443547648	70	4442
2026-01-16 03:08:05.46	228.55	17.59	-49.9	-51.2	24.6	6.04e-01	0	48	0	449314816	70	4420
2026-01-16 03:08:08.49	228.37	17.21	-49.8	-51.1	24.7	6.04e-01	0	48	0	454557696	70	4372
2026-01-16 03:08:11.52	228.19	16.83	-49.8	-51.1	24.7	6.02e-01	0	48	0	460324864	70	4347
2026-01-16 03:08:14.55	228.02	16.45	-49.7	-51.0	24.7	6.04e-01	0	48	0	466092032	70	4313
2026-01-16 03:08:17.58	227.85	16.08	-49.7	-51.0	24.7	6.02e-01	0	48	0	471859200	70	4322
2026-01-16 03:08:20.60	227.69	15.72	-49.7	-51.0	24.8	6.00e-01	0	48	0	477626368	70	4294
2026-01-16 03:08:23.63	227.53	15.37	-49.6	-50.9	24.8	6.04e-01	0	48	0	482869248	70	4280
2026-01-16 03:08:26.66	227.38	15.02	-49.8	-51.1	24.7	6.03e-01	0	49	0	488636416	70	4373
2026-01-16 03:08:29.69	227.23	14.67	-49.8	-51.1	24.7	6.02e-01	0	49	0	494403584	70	4354
2026-01-16 03:08:32.72	227.08	14.33	-49.8	-51.2	24.6	6.02e-01	0	48	0	500170752	70	4394
2026-01-16 03:08:35.74	226.94	14.00	-50.0	-51.4	24.4	6.04e-01	0	48	0	505937920	70	4515
2026-01-16 03:08:38.77	226.80	13.66	-50.1	-51.5	24.3	6.04e-01	0	49	0	511705088	70	4565
2026-01-16 03:08:41.80	226.66	13.34	-50.2	-51.6	24.2	6.01e-01	0	48	0	516947968	71	4341
2026-01-16 03:08:44.82	226.53	13.02	-50.1	-51.4	24.2	6.02e-01	0	48	0	522715136	71	4290
2026-01-16 03:08:47.85	226.40	12.70	-50.1	-51.5	24.2	6.03e-01	0	48	0	528482304	71	4308
2026-01-16 03:08:50.88	226.27	12.39	-50.0	-51.4	24.3	6.03e-01	0	48	0	534249472	71	4265
2026-01-16 03:08:53.91	226.15	12.08	-50.0	-51.4	24.2	6.04e-01	0	49	0	540016640	71	4258
2026-01-16 03:08:56.94	226.03	11.78	-50.2	-51.6	24.0	6.01e-01	0	48	0	545783808	71	4355
2026-01-16 03:08:59.97	225.91	11.48	-50.3	-51.7	23.8	6.01e-01	0	48	0	551026688	71	4426
2026-01-16 03:09:02.99	225.80	11.18	-50.5	-51.9	23.7	6.04e-01	0	49	0	556793856	71	4536
2026-01-16 03:09:06.02	225.69	10.89	-50.4	-51.9	23.6	6.03e-01	0	49	0	562561024	71	4525
2026-01-16 03:09:09.04	225.58	10.60	-50.4	-51.8	23.7	6.02e-01	0	48	0	568328192	71	4485
2026-01-16 03:09:12.07	225.47	10.32	-50.3	-51.7	23.7	6.03e-01	0	49	0	574095360	71	4435
2026-01-16 03:09:15.10	225.36	10.04	-50.4	-51.8	23.7	6.04e-01	0	48	0	579338240	71	4484
2026-01-16 03:09:18.13	225.26	9.76	-50.3	-51.7	23.7	6.02e-01	0	48	0	585105408	71	4441
2026-01-16 03:09:21.16	225.16	9.48	-50.5	-52.0	23.5	6.03e-01	0	48	0	590872576	71	4571
2026-01-16 03:09:24.19	225.06	9.21	-50.4	-51.8	23.6	6.01e-01	0	48	0	596639744	71	4476
2026-01-16 03:09:27.21	224.97	8.94	-50.6	-52.1	23.4	6.03e-01	0	48	0	602406912	71	4607
2026-01-16 03:09:30.24	224.88	8.68	-50.6	-52.1	23.2	6.04e-01	0	49	0	608174080	72	4359
2026-01-16 03:09:33.27	224.78	8.42	-50.6	-52.0	23.2	6.03e-01	0	48	0	613941248	72	4336
2026-01-16 03:09:36.30	224.70	8.16	-50.7	-52.2	23.1	6.05e-01	0	48	0	619184128	72	4426
2026-01-16 03:09:39.33	224.61	7.90	-50.6	-52.1	23.2	6.03e-01	0	49	0	624951296	72	4366
2026-01-16 03:09:42.36	224.52	7.65	-50.8	-52.4	22.9	6.03e-01	0	49	0	630718464	72	4505
2026-01-16 03:09:45.39	224.44	7.40	-50.8	-52.4	22.9	6.02e-01	0	48	0	636485632	72	4504
2026-01-16 03:09:48.41	224.36	7.15	-51.0	-52.7	22.6	6.01e-01	0	48	0	642252800	72	4665
2026-01-16 03:09:51.44	224.27	6.90	-50.8	-52.4	22.9	6.03e-01	0	48	0	648019968	73	4254
2026-01-16 03:09:54.48	224.20	6.66	-50.9	-52.5	22.7	6.04e-01	0	48	0	653262848	73	4313
2026-01-16 03:09:57.51	224.12	6.42	-50.8	-52.4	22.7	6.02e-01	0	48	0	659030016	73	4270
2026-01-16 03:10:00.53	224.04	6.18	-51.1	-52.8	22.4	6.03e-01	0	49	0	664797184	73	4454
2026-01-16 03:10:03.56	223.97	5.94	-51.2	-52.9	22.1	6.01e-01	0	49	0	670564352	73	4521
2026-01-16 03:10:06.58	223.90	5.71	-51.1	-52.8	22.3	6.02e-01	0	48	0	676331520	73	4484
2026-01-16 03:10:09.61	223.82	5.48	-51.0	-52.7	22.3	6.03e-01	0	49	0	681574400	73	4396
2026-01-16 03:10:12.64	223.75	5.25	-51.9	-53.8	21.3	6.04e-01	0	49	0	687341568	74	4717
2026-01-16 03:10:15.67	223.69	5.02	-52.4	-54.5	20.5	6.04e-01	0	48	0	693108736	75	4837
2026-01-16 03:10:18.70	223.62	4.80	-59.0	-76.8	3.8	7.44e-01	0	49	104	695205888	88	29874
2026-01-16 03:10:21.72	223.55	4.58	-59.4	-77.2	3.8	7.46e-01	0	48	104	695205888	89	29567
2026-01-16 03:10:24.76	223.49	4.36	-59.6	-77.4	3.8	7.47e-01	0	49	104	695205888	89	30246
2026-01-16 03:10:27.78	223.42	4.14	-59.7	-77.5	3.8	7.45e-01	0	49	104	695205888	89	30532
2026-01-16 03:10:30.82	223.36	3.92	-59.8	-77.6	3.8	7.45e-01	0	49	104	695205888	90	29113
2026-01-16 03:10:33.85	223.30	3.71	-59.8	-77.6	3.8	7.44e-01	0	49	104	695205888	90	29231
2026-01-16 03:10:36.88	223.24	3.49	-59.8	-77.6	3.8	7.42e-01	0	49	104	695205888	90	29223
2026-01-16 03:10:39.91	223.18	3.28	-59.9	-77.7	3.8	7.45e-01	0	49	104	695205888	90	29361
2026-01-16 03:10:42.93	223.12	3.07	-59.7	-77.5	3.8	7.46e-01	0	49	104	695205888	90	28927
2026-01-16 03:10:45.96	223.07	2.86	-59.7	-77.5	3.8	7.44e-01	0	49	104	695205888	90	28732
2026-01-16 03:10:49.00	223.01	2.66	-59.7	-77.5	3.8	7.43e-01	0	49	104	695205888	90	28720
2026-01-16 03:10:52.03	222.95	2.45	-59.6	-77.4	3.8	7.43e-01	0	49	104	695205888	90	28654
2026-01-16 03:10:55.06	222.90	2.25	-59.6	-77.4	3.8	7.45e-01	0	49	104	695205888	90	28600
2026-01-16 03:10:58.09	222.85	2.05	-59.6	-77.4	3.8	7.45e-01	0	49	104	695205888	90	28665

#Closed at: 2026-01-16 03:10:59
#Recorded file [695 MB]: D:/lorett/data/31041_260116_055817.dat