passes_logs/2026/01/16/R3.2S_Murmansk/R3.2S_Murmansk__20260116_133018_FENGYUN_3D_rec.log

#Pass ID: 20260116_133018_FENGYUN 3D
#Satellite: FENGYUN 3D
#Configuration: FENGYUN 3D
#almurnet v.1.7.20251203
#Start time: 2026-01-16 13:30:20

#Version: 2.2.20231116
#Station: R3.2S_Murmansk
#Location: 33.079688 lon 68.888172 lat
#TLE: 1 43010U 17072A   26015.99024095 -.00000189  00000+0 -67463-4 0  9996
#TLE: 2 43010  98.9932 347.8215 0002366 106.5594 253.5841 14.19694691423396

#Time	Az	El	Level	Level2	SNR	BER	BlckErr	Temp	State	Recorded	gain1	gain2
2026-01-16 13:30:20.62	200.13	2.10	-52.0	-63.9	3.8	8.47e-01	0	43	0	0	76	13455
2026-01-16 13:30:24.66	200.37	2.34	-51.9	-63.7	3.8	8.45e-01	0	44	104	0	74	14808
2026-01-16 13:30:28.69	200.61	2.58	-51.9	-63.7	3.8	8.46e-01	0	44	104	0	74	14741
2026-01-16 13:30:32.72	200.86	2.82	-51.9	-63.6	3.8	8.45e-01	0	44	104	0	74	14588
2026-01-16 13:30:36.75	201.11	3.06	-51.9	-63.6	3.8	8.46e-01	0	44	104	0	74	14650
2026-01-16 13:30:40.79	201.36	3.30	-51.9	-63.6	3.8	8.46e-01	0	44	104	0	74	14592
2026-01-16 13:30:44.82	201.62	3.54	-51.9	-63.5	3.8	8.45e-01	0	44	104	0	74	14508
2026-01-16 13:30:48.86	201.88	3.79	-51.8	-63.5	3.8	8.46e-01	0	45	104	0	74	14379
2026-01-16 13:30:52.89	202.15	4.04	-51.7	-62.2	3.8	8.46e-01	0	45	104	0	74	12389
2026-01-16 13:30:56.93	202.42	4.29	-50.6	-56.3	6.3	3.27e-01	0	45	0	7471104	73	6708
2026-01-16 13:31:00.97	202.69	4.54	-48.7	-51.8	10.9	4.26e-03	0	45	0	29491200	69	4985
2026-01-16 13:31:05.00	202.97	4.79	-45.8	-47.4	15.5	0.00e+00	0	45	0	52559872	63	4260
2026-01-16 13:31:09.03	203.25	5.05	-43.4	-44.5	18.7	0.00e+00	0	46	0	75628544	58	4062
2026-01-16 13:31:13.07	203.54	5.31	-47.1	-49.3	13.4	0.00e+00	0	46	0	97648640	64	5000
2026-01-16 13:31:17.10	203.83	5.57	-43.1	-44.2	19.1	0.00e+00	0	46	0	120717312	58	3941
2026-01-16 13:31:21.13	204.13	5.83	-43.2	-44.3	19.0	0.00e+00	0	46	0	143785984	58	3996
2026-01-16 13:31:25.17	204.43	6.09	-43.3	-44.4	19.0	0.00e+00	0	46	0	165806080	58	4039
2026-01-16 13:31:29.20	204.74	6.36	-43.6	-44.8	18.6	0.00e+00	0	46	0	188874752	57	4455
2026-01-16 13:31:33.24	205.06	6.62	-43.4	-44.5	18.9	0.00e+00	0	46	0	211943424	57	4337
2026-01-16 13:31:37.28	205.38	6.89	-43.3	-44.4	19.1	0.00e+00	0	47	0	233963520	57	4266
2026-01-16 13:31:41.31	205.70	7.17	-43.3	-44.4	19.1	0.00e+00	0	47	0	257032192	57	4245
2026-01-16 13:31:45.35	206.03	7.44	-43.2	-44.3	19.2	0.00e+00	0	47	0	280100864	57	4223
2026-01-16 13:31:49.39	206.37	7.72	-43.5	-44.6	19.0	0.00e+00	0	47	0	302120960	57	4362
2026-01-16 13:31:53.42	206.71	7.99	-43.0	-44.0	19.6	0.00e+00	0	47	0	325189632	57	4087
2026-01-16 13:31:57.46	207.06	8.27	-42.9	-43.9	19.7	0.00e+00	0	47	0	347209728	57	4028
2026-01-16 13:32:01.49	207.42	8.56	-42.9	-43.9	19.7	0.00e+00	0	47	0	370278400	57	4042
2026-01-16 13:32:05.52	207.78	8.84	-42.8	-43.8	19.9	0.00e+00	0	47	0	393347072	57	3973
2026-01-16 13:32:09.56	208.15	9.13	-42.4	-43.3	20.4	0.00e+00	0	48	0	415367168	56	3989
2026-01-16 13:32:13.59	208.52	9.42	-42.4	-43.3	20.4	0.00e+00	0	48	0	438435840	56	3994
2026-01-16 13:32:17.63	208.91	9.71	-42.4	-43.3	20.4	0.00e+00	0	48	0	461504512	56	3990
2026-01-16 13:32:21.67	209.30	10.01	-42.3	-43.3	20.5	0.00e+00	0	48	0	483524608	56	3964
2026-01-16 13:32:25.70	209.70	10.30	-42.3	-43.2	20.6	0.00e+00	0	48	0	506593280	56	3951
2026-01-16 13:32:29.74	210.11	10.60	-42.2	-43.1	20.7	0.00e+00	0	48	0	529661952	56	3893
2026-01-16 13:32:33.77	210.52	10.90	-42.1	-43.0	20.8	0.00e+00	0	48	0	551682048	56	3847
2026-01-16 13:32:37.81	210.94	11.21	-41.8	-42.7	21.0	0.00e+00	0	48	0	574750720	55	3943
2026-01-16 13:32:41.84	211.37	11.51	-41.8	-42.7	21.1	0.00e+00	0	48	0	597819392	55	3928
2026-01-16 13:32:45.88	211.81	11.82	-41.6	-42.5	21.2	0.00e+00	0	48	0	619839488	55	3861
2026-01-16 13:32:49.92	212.26	12.13	-41.7	-42.6	21.2	0.00e+00	0	48	0	642908160	55	3906
2026-01-16 13:32:53.96	212.72	12.45	-41.6	-42.5	21.3	0.00e+00	0	48	0	665976832	55	3845
2026-01-16 13:32:57.99	213.19	12.76	-41.6	-42.5	21.4	0.00e+00	0	48	0	687996928	55	3827
2026-01-16 13:33:02.02	213.67	13.08	-41.4	-42.3	21.5	0.00e+00	0	49	0	711065600	54	3970
2026-01-16 13:33:06.06	214.16	13.40	-41.2	-42.1	21.7	0.00e+00	0	49	0	733085696	54	3879
2026-01-16 13:33:10.09	214.65	13.73	-41.3	-42.2	21.7	0.00e+00	0	49	0	756154368	54	3921
2026-01-16 13:33:14.13	215.16	14.05	-41.2	-42.1	21.7	0.00e+00	0	49	0	779223040	54	3892
2026-01-16 13:33:18.17	215.68	14.38	-41.4	-42.3	21.6	0.00e+00	0	49	0	801243136	54	3973
2026-01-16 13:33:22.20	216.21	14.71	-41.1	-42.0	21.9	0.00e+00	0	49	0	824311808	54	3838
2026-01-16 13:33:26.24	216.76	15.04	-40.9	-41.7	22.1	0.00e+00	0	49	0	847380480	53	3946
2026-01-16 13:33:30.27	217.31	15.38	-40.7	-41.5	22.3	0.00e+00	0	49	0	869400576	53	3850
2026-01-16 13:33:34.30	217.87	15.71	-40.8	-41.6	22.2	0.00e+00	0	49	0	892469248	53	3901
2026-01-16 13:33:38.34	218.45	16.05	-40.5	-41.3	22.6	0.00e+00	0	49	0	915537920	53	3753
2026-01-16 13:33:42.38	219.05	16.39	-40.1	-40.9	22.9	0.00e+00	0	49	0	937558016	52	3807
2026-01-16 13:33:46.41	219.65	16.74	-40.2	-41.0	22.9	0.00e+00	0	49	0	960626688	52	3832
2026-01-16 13:33:50.45	220.27	17.08	-40.3	-41.0	22.8	0.00e+00	0	49	0	983695360	52	3868
2026-01-16 13:33:54.48	220.90	17.43	-40.4	-41.2	22.6	0.00e+00	0	49	0	1005715456	52	3955
2026-01-16 13:33:58.51	221.55	17.77	-40.3	-41.1	22.8	0.00e+00	0	49	0	1028784128	52	3907
2026-01-16 13:34:02.54	222.21	18.12	-40.2	-41.0	22.9	0.00e+00	0	50	0	1051852800	52	3857
2026-01-16 13:34:06.58	222.88	18.47	-40.0	-40.8	23.1	0.00e+00	0	49	0	1073872896	52	3743
2026-01-16 13:34:10.61	223.57	18.82	-40.1	-40.9	23.1	0.00e+00	0	49	0	1095892992	51	4018
2026-01-16 13:34:14.64	224.28	19.18	-39.8	-40.5	23.4	0.00e+00	0	49	0	1118961664	51	3867
2026-01-16 13:34:18.68	225.00	19.53	-39.9	-40.6	23.3	0.00e+00	0	50	0	1142030336	51	3897
2026-01-16 13:34:22.71	225.74	19.88	-39.9	-40.6	23.3	0.00e+00	0	50	0	1164050432	51	3902
2026-01-16 13:34:26.75	226.50	20.24	-40.0	-40.7	23.3	0.00e+00	0	50	0	1187119104	51	3953
2026-01-16 13:34:30.78	227.27	20.59	-39.7	-40.5	23.5	0.00e+00	0	50	0	1210187776	51	3831
2026-01-16 13:34:34.82	228.06	20.94	-39.7	-40.4	23.6	0.00e+00	0	50	0	1233256448	51	3824
2026-01-16 13:34:38.85	228.87	21.30	-39.6	-40.4	23.6	0.00e+00	0	50	0	1255276544	51	3797
2026-01-16 13:34:42.88	229.69	21.65	-39.7	-40.4	23.6	0.00e+00	0	50	0	1278345216	51	3812
2026-01-16 13:34:46.92	230.54	22.00	-39.4	-40.2	23.8	0.00e+00	0	50	0	1301413888	50	3926
2026-01-16 13:34:50.96	231.40	22.35	-39.5	-40.2	23.8	0.00e+00	0	50	0	1323433984	50	3937
2026-01-16 13:34:54.99	232.28	22.70	-39.4	-40.1	23.9	0.00e+00	0	50	0	1346502656	50	3883
2026-01-16 13:34:59.03	233.19	23.04	-39.5	-40.2	23.8	0.00e+00	0	50	0	1369571328	50	3945
2026-01-16 13:35:03.06	234.11	23.38	-39.2	-39.9	24.1	0.00e+00	0	50	0	1391591424	50	3822
2026-01-16 13:35:07.10	235.05	23.72	-39.2	-39.9	24.1	0.00e+00	0	50	0	1414660096	50	3795
2026-01-16 13:35:11.14	236.01	24.06	-39.2	-39.9	24.1	0.00e+00	0	50	0	1437728768	50	3815
2026-01-16 13:35:15.17	236.99	24.39	-38.6	-39.4	24.4	0.00e+00	0	50	0	1459748864	49	3800
2026-01-16 13:35:19.21	237.99	24.72	-39.2	-39.9	24.1	0.00e+00	0	50	0	1481768960	49	4032
2026-01-16 13:35:23.24	239.01	25.04	-38.6	-39.4	24.6	0.00e+00	0	50	0	1504837632	49	3787
2026-01-16 13:35:27.28	240.06	25.35	-38.9	-39.6	24.4	0.00e+00	0	50	0	1527906304	49	3900
2026-01-16 13:35:31.31	241.12	25.66	-38.6	-39.3	24.7	0.00e+00	0	50	0	1549926400	49	3751
2026-01-16 13:35:35.35	242.20	25.96	-38.7	-39.4	24.6	0.00e+00	0	50	0	1572995072	49	3804
2026-01-16 13:35:39.38	243.30	26.26	-38.3	-39.0	24.9	0.00e+00	0	50	0	1596063744	48	3849
2026-01-16 13:35:43.42	244.43	26.55	-38.4	-39.1	24.9	0.00e+00	0	50	0	1619132416	48	3890
2026-01-16 13:35:47.45	245.57	26.82	-38.7	-39.4	24.5	0.00e+00	0	50	0	1641152512	48	4040
2026-01-16 13:35:51.48	246.73	27.09	-38.5	-39.3	24.7	0.00e+00	0	50	0	1664221184	48	3961
2026-01-16 13:35:55.52	247.91	27.35	-38.5	-39.2	24.7	0.00e+00	0	50	0	1687289856	48	3956
2026-01-16 13:35:59.55	249.11	27.60	-38.5	-39.2	24.8	0.00e+00	0	50	0	1709309952	48	3933
2026-01-16 13:36:03.57	250.32	27.83	-38.5	-39.2	24.8	0.00e+00	0	50	0	1732378624	48	3946
2026-01-16 13:36:07.60	251.55	28.06	-38.6	-39.3	24.7	0.00e+00	0	50	0	1754398720	48	3970
2026-01-16 13:36:11.64	252.81	28.27	-38.1	-38.7	25.2	0.00e+00	0	50	0	1777467392	48	3733
2026-01-16 13:36:15.67	254.07	28.47	-38.3	-39.0	24.5	0.00e+00	0	50	0	1800536064	47	4084
2026-01-16 13:36:19.70	255.35	28.65	-38.3	-39.0	24.5	0.00e+00	0	50	0	1822556160	47	4085
2026-01-16 13:36:23.74	256.65	28.83	-38.1	-38.8	24.6	0.00e+00	0	50	0	1845624832	47	4004
2026-01-16 13:36:27.77	257.95	28.98	-38.1	-38.8	24.7	0.00e+00	0	50	0	1867644928	47	3992
2026-01-16 13:36:31.81	259.28	29.12	-38.1	-38.9	24.6	0.00e+00	0	50	0	1890713600	47	4005
2026-01-16 13:36:35.84	260.60	29.25	-38.4	-39.1	24.4	0.00e+00	0	50	0	1913782272	47	4142
2026-01-16 13:36:39.88	261.95	29.36	-38.3	-39.0	24.5	0.00e+00	0	50	0	1935802368	47	4098
2026-01-16 13:36:43.92	263.30	29.45	-38.6	-39.3	24.2	0.00e+00	0	50	0	1958871040	47	4224
2026-01-16 13:36:47.95	264.65	29.53	-38.4	-39.2	24.4	0.00e+00	0	50	0	1981939712	47	4158
2026-01-16 13:36:51.99	266.01	29.58	-38.3	-39.0	24.5	0.00e+00	0	50	0	2003959808	47	4098
2026-01-16 13:36:56.03	267.38	29.63	-38.3	-39.0	24.5	0.00e+00	0	50	0	2027028480	47	4084
2026-01-16 13:37:00.06	268.74	29.65	-38.3	-39.1	24.5	0.00e+00	0	50	0	2050097152	47	4099
2026-01-16 13:37:04.10	270.11	29.66	-38.2	-38.9	24.7	0.00e+00	0	50	0	2072117248	47	4027
2026-01-16 13:37:08.13	271.48	29.65	-38.4	-39.1	24.5	0.00e+00	0	50	0	2095185920	47	4124
2026-01-16 13:37:12.16	272.84	29.62	-38.2	-38.9	24.7	0.00e+00	0	50	0	2118254592	47	4039
2026-01-16 13:37:16.19	274.21	29.57	-38.6	-39.4	24.3	0.00e+00	0	50	0	2140274688	47	4248
2026-01-16 13:37:20.22	275.56	29.51	-38.5	-39.2	24.4	0.00e+00	0	50	0	2163343360	47	4182
2026-01-16 13:37:24.26	276.92	29.43	-38.4	-39.2	24.4	0.00e+00	0	50	0	2186412032	47	4165
2026-01-16 13:37:28.29	278.26	29.33	-38.6	-39.3	24.3	0.00e+00	0	50	0	2208432128	47	4232
2026-01-16 13:37:32.32	279.60	29.22	-38.6	-39.4	24.3	0.00e+00	0	50	0	2231500800	47	4243
2026-01-16 13:37:36.35	280.92	29.09	-38.5	-39.3	24.4	0.00e+00	0	50	0	2253520896	47	4199
2026-01-16 13:37:40.38	282.23	28.95	-38.5	-39.2	24.4	0.00e+00	0	50	0	2276589568	47	4174
2026-01-16 13:37:44.42	283.54	28.79	-38.5	-39.2	24.4	0.00e+00	0	50	0	2298609664	47	4181
2026-01-16 13:37:48.45	284.83	28.61	-38.4	-39.1	24.5	0.00e+00	0	50	0	2321678336	47	4124
2026-01-16 13:37:52.48	286.10	28.43	-38.6	-39.3	24.3	0.00e+00	0	51	0	2344747008	47	4230
2026-01-16 13:37:56.52	287.36	28.22	-39.1	-39.9	24.4	0.00e+00	0	51	0	2367815680	48	4244
2026-01-16 13:38:00.54	288.60	28.01	-39.2	-39.9	24.3	0.00e+00	0	51	0	2389835776	49	4039
2026-01-16 13:38:04.58	289.83	27.78	-39.1	-39.8	24.4	0.00e+00	0	50	0	2412904448	49	3995
2026-01-16 13:38:08.61	291.04	27.55	-39.0	-39.7	24.5	0.00e+00	0	50	0	2434924544	49	3947
2026-01-16 13:38:12.65	292.24	27.30	-39.2	-39.9	24.3	0.00e+00	0	51	0	2457993216	49	4040
2026-01-16 13:38:16.68	293.41	27.04	-39.1	-39.8	24.4	0.00e+00	0	51	0	2481061888	49	3993
2026-01-16 13:38:20.71	294.56	26.77	-39.1	-39.9	24.4	0.00e+00	0	51	0	2503081984	49	4009
2026-01-16 13:38:24.75	295.70	26.49	-39.2	-39.9	24.4	0.00e+00	0	51	0	2526150656	49	4017
2026-01-16 13:38:28.78	296.81	26.20	-39.1	-39.8	24.4	0.00e+00	0	51	0	2549219328	49	3990
2026-01-16 13:38:32.82	297.91	25.90	-39.5	-40.2	24.1	0.00e+00	0	50	0	2572288000	49	4174
2026-01-16 13:38:36.85	298.98	25.60	-39.4	-40.1	24.1	0.00e+00	0	51	0	2594308096	49	4134
2026-01-16 13:38:40.88	300.03	25.29	-39.4	-40.2	24.1	0.00e+00	0	50	0	2616328192	49	4159
2026-01-16 13:38:44.91	301.07	24.98	-39.6	-40.3	24.0	0.00e+00	0	51	0	2639396864	49	4222
2026-01-16 13:38:48.95	302.08	24.66	-39.7	-40.4	23.9	0.00e+00	0	51	0	2662465536	49	4290
2026-01-16 13:38:52.98	303.08	24.33	-39.6	-40.3	24.0	0.00e+00	0	51	0	2684485632	49	4212
2026-01-16 13:38:57.02	304.05	24.00	-39.8	-40.6	23.8	0.00e+00	0	51	0	2707554304	50	4107
2026-01-16 13:39:01.05	305.00	23.67	-39.5	-40.2	24.1	0.00e+00	0	51	0	2730622976	50	3956
2026-01-16 13:39:05.08	305.94	23.33	-39.5	-40.3	23.9	0.00e+00	0	50	0	2752643072	50	3963
2026-01-16 13:39:09.11	306.85	22.99	-39.7	-40.5	23.8	0.00e+00	0	51	0	2775711744	50	4057
2026-01-16 13:39:13.14	307.74	22.64	-39.6	-40.3	23.9	0.00e+00	0	51	0	2798780416	50	3970
2026-01-16 13:39:17.17	308.62	22.30	-40.2	-41.0	23.3	0.00e+00	0	51	0	2820800512	50	4301
2026-01-16 13:39:21.20	309.48	21.95	-40.0	-40.8	23.5	0.00e+00	0	51	0	2843869184	51	3962
2026-01-16 13:39:25.24	310.31	21.60	-40.0	-40.7	23.5	0.00e+00	0	51	0	2866937856	51	3941
2026-01-16 13:39:29.27	311.13	21.25	-40.2	-41.0	23.3	0.00e+00	0	51	0	2888957952	51	4066
2026-01-16 13:39:33.30	311.94	20.90	-40.2	-41.0	23.3	0.00e+00	0	51	0	2912026624	51	4054
2026-01-16 13:39:37.34	312.72	20.55	-40.2	-41.0	23.2	0.00e+00	0	51	0	2935095296	51	4075
2026-01-16 13:39:41.37	313.49	20.20	-40.3	-41.1	23.2	0.00e+00	0	51	0	2957115392	51	4116
2026-01-16 13:39:45.40	314.24	19.85	-40.6	-41.4	22.8	0.00e+00	0	51	0	2979135488	52	4008
2026-01-16 13:39:49.43	314.97	19.50	-40.6	-41.4	22.7	0.00e+00	0	50	0	3002204160	52	4040
2026-01-16 13:39:53.46	315.69	19.15	-40.6	-41.4	22.7	0.00e+00	0	51	0	3025272832	52	4030
2026-01-16 13:39:57.50	316.39	18.80	-40.6	-41.4	22.7	0.00e+00	0	50	0	3047292928	52	4033
2026-01-16 13:40:01.54	317.08	18.45	-40.8	-41.6	22.5	0.00e+00	0	50	0	3070361600	52	4114
2026-01-16 13:40:05.57	317.75	18.10	-40.9	-41.8	22.3	0.00e+00	0	51	0	3093430272	52	4207
2026-01-16 13:40:09.60	318.40	17.75	-40.7	-41.5	22.6	0.00e+00	0	51	0	3115450368	52	4056
2026-01-16 13:40:13.63	319.04	17.41	-40.8	-41.7	22.4	0.00e+00	0	51	0	3138519040	52	4148
2026-01-16 13:40:17.66	319.67	17.07	-40.8	-41.6	22.4	0.00e+00	0	51	0	3161587712	52	4138
2026-01-16 13:40:21.70	320.29	16.72	-40.9	-41.7	22.4	0.00e+00	0	50	0	3183607808	52	4148
2026-01-16 13:40:25.73	320.89	16.38	-41.1	-41.9	22.1	0.00e+00	0	51	0	3206676480	52	4271
2026-01-16 13:40:29.76	321.47	16.05	-41.2	-42.1	22.0	0.00e+00	0	51	0	3229745152	53	4116
2026-01-16 13:40:33.79	322.05	15.71	-41.3	-42.1	21.9	0.00e+00	0	50	0	3251765248	53	4141
2026-01-16 13:40:37.82	322.61	15.38	-41.4	-42.2	21.8	0.00e+00	0	51	0	3274833920	53	4164
2026-01-16 13:40:41.86	323.16	15.04	-41.5	-42.4	21.6	0.00e+00	0	50	0	3297902592	53	4270
2026-01-16 13:40:45.89	323.70	14.71	-41.8	-42.7	21.3	0.00e+00	0	50	0	3319922688	54	4175
2026-01-16 13:40:49.93	324.23	14.39	-41.5	-42.4	21.6	0.00e+00	0	51	0	3342991360	54	4024
2026-01-16 13:40:53.97	324.75	14.06	-41.4	-42.3	21.7	0.00e+00	0	50	0	3365011456	54	3986
2026-01-16 13:40:58.00	325.25	13.74	-41.6	-42.5	21.5	0.00e+00	0	50	0	3388080128	54	4080
2026-01-16 13:41:02.04	325.75	13.42	-41.7	-42.6	21.4	0.00e+00	0	50	0	3411148800	54	4108
2026-01-16 13:41:06.07	326.24	13.10	-41.6	-42.5	21.5	0.00e+00	0	51	0	3433168896	54	4070
2026-01-16 13:41:10.10	326.71	12.78	-41.5	-42.4	21.5	0.00e+00	0	50	0	3456237568	54	4027
2026-01-16 13:41:14.13	327.18	12.47	-41.8	-42.7	21.2	0.00e+00	0	51	0	3479306240	54	4185
2026-01-16 13:41:18.17	327.63	12.16	-42.1	-43.1	20.8	0.00e+00	0	50	0	3501326336	54	4346
2026-01-16 13:41:22.20	328.08	11.85	-42.2	-43.1	20.8	0.00e+00	0	50	0	3524395008	55	4129
2026-01-16 13:41:26.23	328.52	11.54	-42.2	-43.2	20.7	0.00e+00	0	50	0	3547463680	55	4150
2026-01-16 13:41:30.27	328.95	11.24	-42.2	-43.1	20.8	0.00e+00	0	50	0	3569483776	55	4105
2026-01-16 13:41:34.31	329.37	10.94	-42.4	-43.3	20.5	0.00e+00	0	51	0	3592552448	55	4232
2026-01-16 13:41:38.34	329.79	10.64	-42.4	-43.3	20.5	0.00e+00	0	50	0	3615621120	55	4238
2026-01-16 13:41:42.37	330.19	10.34	-42.6	-43.6	20.3	0.00e+00	0	50	0	3637641216	55	4341
2026-01-16 13:41:46.40	330.59	10.05	-42.8	-43.8	20.1	0.00e+00	0	51	0	3660709888	56	4236
2026-01-16 13:41:50.44	330.98	9.75	-43.0	-44.0	19.9	0.00e+00	0	50	0	3683778560	56	4312
2026-01-16 13:41:54.48	331.36	9.46	-43.0	-44.0	19.8	0.00e+00	0	51	0	3705798656	56	4336
2026-01-16 13:41:58.51	331.74	9.18	-43.0	-44.0	19.9	0.00e+00	0	50	0	3727818752	56	4324
2026-01-16 13:42:02.55	332.11	8.89	-43.2	-44.2	19.6	0.00e+00	0	50	0	3750887424	57	4184
2026-01-16 13:42:06.58	332.47	8.61	-43.0	-44.0	19.7	0.00e+00	0	50	0	3773956096	57	4098
2026-01-16 13:42:10.62	332.83	8.33	-43.2	-44.2	19.6	0.00e+00	0	50	0	3797024768	57	4159
2026-01-16 13:42:14.66	333.18	8.05	-43.1	-44.1	19.6	0.00e+00	0	50	0	3819044864	57	4136
2026-01-16 13:42:18.69	333.52	7.77	-43.3	-44.3	19.4	0.00e+00	0	50	0	3842113536	57	4214
2026-01-16 13:42:22.72	333.86	7.50	-43.4	-44.5	19.2	0.00e+00	0	50	0	3865182208	57	4305
2026-01-16 13:42:26.76	334.19	7.23	-43.4	-44.5	19.2	0.00e+00	0	50	0	3887202304	57	4314
2026-01-16 13:42:30.80	334.52	6.96	-43.5	-44.5	19.1	0.00e+00	0	50	0	3910270976	57	4339
2026-01-16 13:42:34.83	334.83	6.69	-43.5	-44.5	19.0	0.00e+00	0	50	0	3933339648	57	4336
2026-01-16 13:42:38.86	335.15	6.42	-43.7	-44.8	18.7	0.00e+00	0	50	0	3955359744	58	4230
2026-01-16 13:42:42.90	335.46	6.16	-43.8	-44.9	18.6	0.00e+00	0	50	0	3978428416	58	4270
2026-01-16 13:42:46.93	335.76	5.90	-43.7	-44.8	18.6	0.00e+00	0	50	0	4001497088	58	4230
2026-01-16 13:42:50.97	336.06	5.64	-43.9	-45.1	18.4	0.00e+00	0	50	0	4023517184	58	4346
2026-01-16 13:42:55.01	336.36	5.38	-43.9	-45.1	18.3	0.00e+00	0	50	0	4046585856	58	4375
2026-01-16 13:42:59.04	336.65	5.12	-44.1	-45.2	18.1	0.00e+00	0	50	0	4069654528	58	4439
2026-01-16 13:43:03.07	336.93	4.87	-52.7	-64.7	3.8	8.45e-01	0	50	104	4085383168	75	15601
2026-01-16 13:43:07.10	337.21	4.62	-53.3	-65.2	3.8	8.46e-01	0	50	104	4085383168	77	14843
2026-01-16 13:43:11.13	337.48	4.37	-53.6	-65.5	3.8	8.46e-01	0	50	104	4085383168	77	15378
2026-01-16 13:43:15.17	337.76	4.12	-53.7	-65.6	3.8	8.47e-01	0	50	104	4085383168	77	15562
2026-01-16 13:43:19.20	338.02	3.87	-53.7	-65.6	3.8	8.46e-01	0	50	104	4085383168	78	14681
2026-01-16 13:43:23.24	338.29	3.63	-53.7	-65.6	3.8	8.45e-01	0	50	104	4085383168	78	14638
2026-01-16 13:43:27.27	338.55	3.39	-53.6	-65.5	3.8	8.45e-01	0	51	104	4085383168	78	14516
2026-01-16 13:43:31.30	338.80	3.15	-53.6	-65.5	3.8	8.46e-01	0	50	104	4085383168	78	14463
2026-01-16 13:43:35.34	339.05	2.91	-53.5	-65.5	3.8	8.47e-01	0	50	104	4085383168	78	14423
2026-01-16 13:43:39.38	339.30	2.67	-53.5	-65.4	3.8	8.47e-01	0	50	104	4085383168	78	14339
2026-01-16 13:43:43.41	339.54	2.43	-53.5	-65.4	3.8	8.47e-01	0	50	104	4085383168	78	14362
2026-01-16 13:43:47.44	339.78	2.20	-53.5	-65.4	3.8	8.47e-01	0	50	104	4085383168	78	14300
2026-01-16 13:43:51.48	340.02	1.96	-53.5	-65.4	3.8	8.47e-01	0	50	104	4085383168	78	14327

#Closed at: 2026-01-16 13:43:53
#Recorded file [4085 MB]: D:/lorett/data/31041_260116_163020.dat