passes_logs/2026/01/16/R3.2S_Murmansk/R3.2S_Murmansk__20260116_023256_SUOMI_NPP_rec.log

#Pass ID: 20260116_023256_SUOMI NPP
#Satellite: SUOMI NPP
#Configuration: NPP
#almurnet v.1.7.20251203
#Start time: 2026-01-16 02:32:56

#Version: 2.2.20231116
#Station: R3.2S_Murmansk
#Location: 33.079688 lon 68.888172 lat
#TLE: 1 37849U 11061A   26015.52691075  .00000052  00000+0  45753-4 0  9993
#TLE: 2 37849  98.7811 317.5709 0002448  62.7632 297.3794 14.19525354736784

#Time	Az	El	Level	Level2	SNR	BER	BlckErr	Temp	State	Recorded	gain1	gain2
2026-01-16 02:32:56.02	33.79	1.98	-56.3	-71.3	3.8	1.49e+00	0	41	0	0	84	19922
2026-01-16 02:33:00.06	33.63	2.23	-56.2	-71.2	3.8	1.49e+00	0	41	104	0	83	20873
2026-01-16 02:33:04.09	33.48	2.48	-56.2	-71.2	3.8	1.49e+00	0	42	104	0	83	20845
2026-01-16 02:33:08.13	33.32	2.73	-56.2	-71.2	3.8	1.49e+00	0	42	104	0	83	20840
2026-01-16 02:33:12.17	33.16	2.99	-56.2	-71.1	3.8	1.49e+00	0	42	104	0	83	20715
2026-01-16 02:33:16.21	32.99	3.25	-56.2	-71.0	3.8	1.49e+00	0	42	104	0	83	20332
2026-01-16 02:33:20.25	32.83	3.51	-56.2	-70.5	3.8	1.49e+00	0	42	104	0	83	19360
2026-01-16 02:33:24.29	32.66	3.77	-56.2	-70.4	3.8	1.49e+00	0	43	104	0	83	19033
2026-01-16 02:33:28.33	32.48	4.03	-56.2	-70.5	3.8	1.49e+00	0	43	104	0	83	19253
2026-01-16 02:33:32.37	32.30	4.30	-55.8	-65.5	5.1	7.95e-01	0	43	0	1048576	83	10815
2026-01-16 02:33:36.41	32.12	4.56	-55.1	-61.6	8.3	1.77e-02	0	43	0	9437184	81	7787
2026-01-16 02:33:40.44	31.94	4.83	-54.5	-59.5	10.4	8.11e-03	0	43	0	16777216	80	6476
2026-01-16 02:33:44.48	31.75	5.11	-53.8	-57.5	12.7	4.30e-03	0	43	0	24117248	79	5449
2026-01-16 02:33:48.52	31.55	5.38	-54.6	-59.5	10.4	1.17e-01	0	44	0	31457280	81	6089
2026-01-16 02:33:52.55	31.36	5.66	-52.8	-55.6	14.9	0.00e+00	0	44	0	38797312	76	5202
2026-01-16 02:33:56.59	31.16	5.94	-52.9	-55.8	14.8	0.00e+00	0	44	0	47185920	77	5011
2026-01-16 02:34:00.63	30.95	6.23	-52.9	-55.7	14.9	0.00e+00	0	44	0	54525952	77	4933
2026-01-16 02:34:04.67	30.74	6.51	-52.6	-55.3	15.4	0.00e+00	0	44	0	61865984	77	4725
2026-01-16 02:34:08.71	30.53	6.80	-52.6	-55.2	15.5	0.00e+00	0	44	0	69206016	76	4953
2026-01-16 02:34:12.74	30.31	7.09	-52.3	-54.8	16.0	0.00e+00	0	44	0	77594624	76	4723
2026-01-16 02:34:16.78	30.09	7.39	-52.3	-54.7	16.0	0.00e+00	0	45	0	84934656	76	4660
2026-01-16 02:34:20.82	29.86	7.69	-52.6	-55.2	15.7	0.00e+00	0	45	0	92274688	76	4939
2026-01-16 02:34:24.86	29.62	7.99	-51.9	-54.2	16.7	0.00e+00	0	45	0	99614720	75	4656
2026-01-16 02:34:28.89	29.39	8.29	-52.1	-54.3	16.5	0.00e+00	0	45	0	106954752	75	4746
2026-01-16 02:34:32.94	29.14	8.60	-52.1	-54.3	16.6	0.00e+00	0	45	0	115343360	75	4748
2026-01-16 02:34:36.97	28.89	8.91	-51.9	-54.1	16.8	0.00e+00	0	45	0	122683392	75	4643
2026-01-16 02:34:41.01	28.64	9.22	-52.1	-54.4	16.6	0.00e+00	0	45	0	130023424	75	4763
2026-01-16 02:34:45.05	28.38	9.54	-52.0	-54.2	16.7	0.00e+00	0	46	0	137363456	75	4697
2026-01-16 02:34:49.08	28.11	9.86	-51.6	-53.7	17.3	0.00e+00	0	46	0	145752064	75	4401
2026-01-16 02:34:53.12	27.84	10.18	-51.7	-53.7	17.2	0.00e+00	0	46	0	153092096	75	4432
2026-01-16 02:34:57.16	27.56	10.51	-51.4	-53.3	17.7	0.00e+00	0	46	0	160432128	74	4480
2026-01-16 02:35:01.20	27.27	10.84	-51.5	-53.5	17.5	0.00e+00	0	46	0	167772160	74	4556
2026-01-16 02:35:05.23	26.98	11.18	-51.4	-53.4	17.7	0.00e+00	0	46	0	175112192	74	4495
2026-01-16 02:35:09.27	26.67	11.52	-51.5	-53.4	17.7	0.00e+00	0	46	0	183500800	74	4521
2026-01-16 02:35:13.30	26.37	11.86	-51.4	-53.4	17.8	0.00e+00	0	46	0	190840832	74	4494
2026-01-16 02:35:17.34	26.05	12.21	-51.4	-53.3	17.8	0.00e+00	0	46	0	198180864	74	4474
2026-01-16 02:35:21.38	25.73	12.56	-51.4	-53.2	17.9	0.00e+00	0	46	0	205520896	74	4441
2026-01-16 02:35:25.41	25.39	12.91	-51.3	-53.1	18.0	0.00e+00	0	46	0	212860928	74	4348
2026-01-16 02:35:29.45	25.05	13.27	-51.4	-53.3	17.9	0.00e+00	0	46	0	221249536	74	4466
2026-01-16 02:35:33.48	24.70	13.63	-51.4	-53.3	17.9	0.00e+00	0	46	0	228589568	74	4456
2026-01-16 02:35:37.52	24.35	14.00	-51.5	-53.4	17.7	0.00e+00	0	46	0	235929600	74	4519
2026-01-16 02:35:41.56	23.98	14.37	-51.6	-53.5	17.7	0.00e+00	0	46	0	243269632	74	4585
2026-01-16 02:35:45.60	23.60	14.75	-50.9	-52.6	18.6	0.00e+00	0	47	0	251658240	73	4362
2026-01-16 02:35:49.63	23.21	15.13	-51.0	-52.7	18.5	0.00e+00	0	47	0	258998272	73	4418
2026-01-16 02:35:53.67	22.81	15.52	-51.0	-52.7	18.5	0.00e+00	0	47	0	266338304	73	4405
2026-01-16 02:35:57.71	22.40	15.91	-51.4	-53.2	18.1	0.00e+00	0	47	0	273678336	73	4669
2026-01-16 02:36:01.74	21.98	16.30	-51.2	-53.0	18.3	0.00e+00	0	47	0	282066944	73	4573
2026-01-16 02:36:05.78	21.55	16.70	-51.4	-53.2	18.1	0.00e+00	0	47	0	289406976	73	4686
2026-01-16 02:36:09.82	21.11	17.11	-51.2	-52.9	18.5	0.00e+00	0	47	0	296747008	73	4525
2026-01-16 02:36:13.86	20.65	17.52	-51.1	-52.8	18.2	0.00e+00	0	47	0	304087040	73	4466
2026-01-16 02:36:17.89	20.18	17.93	-51.2	-52.9	18.4	0.00e+00	0	47	0	311427072	73	4545
2026-01-16 02:36:21.93	19.70	18.35	-51.3	-53.0	18.4	0.00e+00	0	47	0	319815680	73	4560
2026-01-16 02:36:25.96	19.20	18.78	-50.9	-52.5	18.8	0.00e+00	0	47	0	327155712	73	4315
2026-01-16 02:36:30.00	18.69	19.21	-51.0	-52.6	18.7	0.00e+00	0	47	0	334495744	73	4375
2026-01-16 02:36:34.04	18.16	19.64	-51.2	-52.8	18.6	0.00e+00	0	48	0	341835776	73	4489
2026-01-16 02:36:38.07	17.62	20.08	-51.2	-52.9	18.5	0.00e+00	0	47	0	349175808	73	4503
2026-01-16 02:36:42.12	17.06	20.53	-51.3	-53.0	18.4	0.00e+00	0	47	0	357564416	73	4582
2026-01-16 02:36:46.15	16.48	20.98	-51.2	-52.9	18.5	0.00e+00	0	47	0	364904448	73	4529
2026-01-16 02:36:50.19	15.89	21.43	-51.1	-52.9	18.6	0.00e+00	0	47	0	372244480	73	4497
2026-01-16 02:36:54.23	15.28	21.89	-51.6	-53.5	17.9	0.00e+00	0	48	0	379584512	73	4847
2026-01-16 02:36:58.27	14.65	22.36	-52.0	-54.0	17.4	0.00e+00	0	48	0	387973120	74	4846
2026-01-16 02:37:02.30	14.00	22.83	-51.9	-53.8	17.7	0.00e+00	0	48	0	395313152	74	4737
2026-01-16 02:37:06.35	13.33	23.30	-51.8	-53.6	17.8	0.00e+00	0	48	0	402653184	74	4637
2026-01-16 02:37:10.38	12.64	23.78	-51.3	-53.0	18.5	0.00e+00	0	48	0	409993216	74	4336
2026-01-16 02:37:14.42	11.92	24.26	-50.8	-52.3	19.1	0.00e+00	0	48	0	418381824	73	4213
2026-01-16 02:37:18.46	11.18	24.75	-50.9	-52.4	19.0	0.00e+00	0	48	0	425721856	73	4280
2026-01-16 02:37:22.50	10.42	25.24	-50.7	-52.2	19.2	0.00e+00	0	48	0	433061888	72	4440
2026-01-16 02:37:26.54	9.64	25.73	-51.9	-53.8	17.8	0.00e+00	0	48	0	440401920	74	4730
2026-01-16 02:37:30.57	8.83	26.23	-51.9	-53.9	17.8	0.00e+00	0	48	0	447741952	74	4762
2026-01-16 02:37:34.61	8.00	26.73	-52.7	-55.0	16.6	0.00e+00	0	48	0	455081984	76	4857
2026-01-16 02:37:38.65	7.13	27.23	-53.0	-55.4	16.3	0.00e+00	0	48	0	463470592	76	5042
2026-01-16 02:37:42.69	6.24	27.73	-53.6	-56.4	15.3	0.00e+00	0	48	0	470810624	77	5359
2026-01-16 02:37:46.73	5.32	28.23	-52.7	-55.0	16.6	0.00e+00	0	48	0	478150656	77	4589
2026-01-16 02:37:50.76	4.37	28.74	-52.5	-54.6	17.0	0.00e+00	0	48	0	485490688	76	4637
2026-01-16 02:37:54.80	3.39	29.24	-52.2	-54.2	17.3	0.00e+00	0	48	0	493879296	75	4699
2026-01-16 02:37:58.84	2.38	29.75	-52.1	-54.0	17.6	0.00e+00	0	48	0	501219328	75	4588
2026-01-16 02:38:02.88	1.33	30.25	-52.5	-54.7	17.1	0.00e+00	0	48	0	508559360	76	4652
2026-01-16 02:38:06.91	0.26	30.75	-52.9	-55.2	16.5	0.00e+00	0	48	0	515899392	76	4949
2026-01-16 02:38:10.95	359.15	31.24	-52.5	-54.6	17.1	0.00e+00	0	48	0	524288000	76	4606
2026-01-16 02:38:14.99	358.00	31.74	-52.4	-54.4	17.4	0.00e+00	0	48	0	531628032	76	4511
2026-01-16 02:38:19.03	356.82	32.22	-52.3	-54.3	17.4	0.00e+00	0	48	0	538968064	76	4491
2026-01-16 02:38:23.06	355.60	32.70	-52.8	-55.1	16.6	0.00e+00	0	48	0	546308096	76	4894
2026-01-16 02:38:27.10	354.34	33.18	-53.1	-55.7	15.9	0.00e+00	0	48	0	553648128	77	4966
2026-01-16 02:38:31.14	353.05	33.64	-54.0	-57.3	14.4	0.00e+00	0	48	0	562036736	78	5618
2026-01-16 02:38:35.18	351.72	34.09	-54.0	-57.3	14.4	7.00e-07	0	48	0	569376768	79	5290
2026-01-16 02:38:39.22	350.35	34.54	-55.0	-59.2	12.4	1.11e-04	0	48	0	576716800	80	6211
2026-01-16 02:38:43.26	348.95	34.97	-53.8	-56.7	15.0	0.00e+00	0	48	0	584056832	79	4981
2026-01-16 02:38:47.29	347.51	35.38	-52.6	-54.8	16.8	0.00e+00	0	48	0	591396864	76	4752
2026-01-16 02:38:51.33	346.03	35.78	-53.7	-56.6	15.1	0.00e+00	0	48	0	599785472	78	5189
2026-01-16 02:38:55.37	344.52	36.16	-52.9	-55.3	16.4	0.00e+00	0	48	0	607125504	77	4726
2026-01-16 02:38:59.41	342.97	36.52	-52.5	-54.7	17.0	0.00e+00	0	48	0	614465536	77	4429
2026-01-16 02:39:03.45	341.38	36.86	-51.4	-53.3	18.2	0.00e+00	0	48	0	621805568	74	4448
2026-01-16 02:39:07.49	339.77	37.18	-50.7	-52.3	19.3	0.00e+00	0	48	0	630194176	73	4196
2026-01-16 02:39:11.53	338.12	37.48	-50.7	-52.3	19.3	0.00e+00	0	48	0	637534208	73	4197
2026-01-16 02:39:15.57	336.44	37.75	-51.1	-52.8	18.9	0.00e+00	0	48	0	644874240	72	4730
2026-01-16 02:39:19.61	334.74	37.99	-51.6	-53.6	18.1	0.00e+00	0	48	0	652214272	73	4899
2026-01-16 02:39:23.65	333.01	38.20	-49.7	-51.1	20.4	0.00e+00	0	48	0	660602880	71	4113
2026-01-16 02:39:27.69	331.26	38.39	-49.3	-50.6	21.0	0.00e+00	0	48	0	667942912	70	4131
2026-01-16 02:39:31.73	329.49	38.55	-50.2	-51.6	20.1	0.00e+00	0	48	0	675282944	71	4370
2026-01-16 02:39:35.77	327.71	38.67	-50.0	-51.4	20.3	0.00e+00	0	48	0	682622976	71	4268
2026-01-16 02:39:39.80	325.91	38.77	-50.1	-51.5	20.2	0.00e+00	0	48	0	689963008	72	4079
2026-01-16 02:39:43.84	324.11	38.83	-50.7	-52.1	19.7	0.00e+00	0	48	0	698351616	71	4643
2026-01-16 02:39:47.88	322.30	38.86	-49.8	-51.1	20.6	0.00e+00	0	48	0	705691648	71	4116
2026-01-16 02:39:51.92	320.49	38.86	-52.0	-53.9	18.0	0.00e+00	0	48	0	713031680	74	4794
2026-01-16 02:39:55.96	318.68	38.82	-51.4	-53.1	18.8	0.00e+00	0	48	0	720371712	74	4380
2026-01-16 02:40:00.00	316.87	38.76	-52.2	-54.2	17.7	0.00e+00	0	48	0	727711744	75	4694
2026-01-16 02:40:04.04	315.08	38.66	-51.5	-53.2	18.6	0.00e+00	0	48	0	736100352	74	4440
2026-01-16 02:40:08.07	313.30	38.53	-53.8	-56.7	15.1	0.00e+00	0	48	0	743440384	78	5269
2026-01-16 02:40:12.11	311.53	38.36	-53.0	-55.5	16.3	0.00e+00	0	49	0	750780416	76	5109
2026-01-16 02:40:16.15	309.78	38.17	-53.8	-56.7	15.1	0.00e+00	0	49	0	758120448	79	4955
2026-01-16 02:40:20.18	308.06	37.95	-52.2	-54.2	17.5	0.00e+00	0	48	0	766509056	76	4439
2026-01-16 02:40:24.22	306.36	37.70	-54.1	-57.7	14.1	7.00e-07	0	49	0	773849088	78	5861
2026-01-16 02:40:28.26	304.69	37.43	-53.0	-55.7	15.9	7.00e-07	0	48	0	781189120	78	4675
2026-01-16 02:40:32.30	303.04	37.13	-51.9	-54.0	17.7	0.00e+00	0	49	0	788529152	75	4568
2026-01-16 02:40:36.34	301.43	36.81	-50.8	-52.4	19.3	0.00e+00	0	48	0	796917760	73	4256
2026-01-16 02:40:40.38	299.85	36.46	-49.8	-51.1	20.5	0.00e+00	0	48	0	804257792	70	4377
2026-01-16 02:40:44.41	298.31	36.10	-50.8	-52.4	19.2	0.00e+00	0	49	0	811597824	72	4545
2026-01-16 02:40:48.45	296.80	35.71	-50.6	-52.1	19.5	0.00e+00	0	48	0	818937856	73	4124
2026-01-16 02:40:52.49	295.32	35.31	-52.3	-54.5	17.3	0.00e+00	0	49	0	826277888	75	4834
2026-01-16 02:40:56.53	293.88	34.89	-52.3	-54.3	17.5	0.00e+00	0	49	0	834666496	76	4477
2026-01-16 02:41:00.57	292.48	34.46	-51.4	-53.1	18.7	0.00e+00	0	49	0	842006528	74	4362
2026-01-16 02:41:04.61	291.12	34.02	-52.0	-53.9	17.8	0.00e+00	0	49	0	849346560	74	4793
2026-01-16 02:41:08.64	289.80	33.56	-51.1	-52.7	19.0	0.00e+00	0	48	0	856686592	73	4433
2026-01-16 02:41:12.68	288.51	33.10	-51.8	-53.6	18.2	0.00e+00	0	48	0	864026624	75	4372
2026-01-16 02:41:16.72	287.26	32.62	-51.2	-52.9	18.9	0.00e+00	0	48	0	872415232	74	4255
2026-01-16 02:41:20.76	286.04	32.14	-52.4	-54.5	17.3	0.00e+00	0	49	0	879755264	75	4850
2026-01-16 02:41:24.80	284.86	31.65	-53.8	-56.6	15.3	0.00e+00	0	49	0	887095296	78	5197
2026-01-16 02:41:28.84	283.72	31.16	-53.4	-55.8	16.1	0.00e+00	0	49	0	894435328	77	5000
2026-01-16 02:41:32.88	282.61	30.66	-52.4	-54.3	17.4	0.00e+00	0	48	0	902823936	76	4472
2026-01-16 02:41:36.92	281.53	30.16	-50.8	-52.3	19.4	0.00e+00	0	49	0	910163968	73	4223
2026-01-16 02:41:40.96	280.49	29.65	-51.0	-52.5	19.2	0.00e+00	0	49	0	917504000	72	4576
2026-01-16 02:41:45.00	279.48	29.15	-53.0	-55.2	16.6	0.00e+00	0	49	0	924844032	76	4975
2026-01-16 02:41:49.04	278.50	28.64	-52.5	-54.6	17.2	0.00e+00	0	49	0	933232640	76	4617
2026-01-16 02:41:53.08	277.56	28.14	-51.8	-53.7	18.1	0.00e+00	0	49	0	940572672	74	4677
2026-01-16 02:41:57.12	276.64	27.63	-50.7	-52.2	19.5	0.00e+00	0	49	0	947912704	73	4171
2026-01-16 02:42:01.16	275.75	27.13	-50.4	-51.8	19.8	0.00e+00	0	48	0	955252736	72	4226
2026-01-16 02:42:05.19	274.89	26.63	-51.0	-52.6	19.1	0.00e+00	0	49	0	962592768	72	4611
2026-01-16 02:42:09.24	274.06	26.13	-52.0	-54.0	17.8	0.00e+00	0	49	0	970981376	74	4829
2026-01-16 02:42:13.27	273.25	25.63	-51.7	-53.5	18.1	0.00e+00	0	49	0	978321408	74	4579
2026-01-16 02:42:17.32	272.47	25.13	-51.3	-53.0	18.7	0.00e+00	0	49	0	985661440	74	4317
2026-01-16 02:42:21.36	271.71	24.64	-51.0	-52.6	19.0	0.00e+00	0	49	0	993001472	73	4360
2026-01-16 02:42:25.40	270.97	24.16	-51.2	-52.9	18.7	0.00e+00	0	48	0	1000341504	73	4524
2026-01-16 02:42:29.44	270.26	23.67	-51.5	-53.3	18.4	0.00e+00	0	49	0	1008730112	73	4722
2026-01-16 02:42:33.48	269.57	23.20	-51.8	-53.7	17.9	0.00e+00	0	49	0	1016070144	74	4668
2026-01-16 02:42:37.52	268.90	22.72	-52.1	-54.0	17.6	0.00e+00	0	48	0	1023410176	75	4595
2026-01-16 02:42:41.56	268.25	22.25	-51.5	-53.3	18.3	0.00e+00	0	48	0	1030750208	75	4217
2026-01-16 02:42:45.60	267.62	21.79	-50.7	-52.3	19.2	0.00e+00	0	49	0	1039138816	73	4211
2026-01-16 02:42:49.64	267.01	21.33	-51.4	-53.1	18.4	0.00e+00	0	48	0	1046478848	73	4637
2026-01-16 02:42:53.67	266.42	20.87	-50.9	-52.5	19.0	0.00e+00	0	49	0	1053818880	73	4298
2026-01-16 02:42:57.71	265.85	20.42	-50.2	-51.6	19.8	0.00e+00	0	49	0	1061158912	72	4118
2026-01-16 02:43:01.75	265.29	19.98	-51.9	-53.8	17.7	0.00e+00	0	48	0	1069547520	74	4747
2026-01-16 02:43:05.78	264.75	19.54	-53.4	-56.1	15.5	0.00e+00	0	49	0	1076887552	77	5186
2026-01-16 02:43:09.82	264.22	19.10	-53.1	-55.6	16.0	0.00e+00	0	49	0	1084227584	78	4604
2026-01-16 02:43:13.86	263.71	18.67	-51.7	-53.5	18.0	0.00e+00	0	49	0	1091567616	75	4339
2026-01-16 02:43:17.90	263.21	18.25	-52.1	-54.2	17.3	0.00e+00	0	49	0	1098907648	75	4673
2026-01-16 02:43:21.93	262.73	17.83	-52.6	-54.8	16.7	0.00e+00	0	49	0	1107296256	76	4722
2026-01-16 02:43:25.97	262.26	17.41	-51.3	-53.0	18.3	0.00e+00	0	49	0	1114636288	74	4340
2026-01-16 02:43:30.01	261.80	17.00	-50.9	-52.6	18.8	0.00e+00	0	49	0	1121976320	73	4352
2026-01-16 02:43:34.05	261.36	16.60	-51.6	-53.4	17.9	0.00e+00	0	49	0	1129316352	73	4814
2026-01-16 02:43:38.09	260.93	16.20	-51.8	-53.7	17.7	0.00e+00	0	49	0	1136656384	74	4687
2026-01-16 02:43:42.13	260.51	15.80	-51.8	-53.7	17.7	0.00e+00	0	49	0	1145044992	74	4683
2026-01-16 02:43:46.17	260.10	15.41	-51.9	-53.9	17.5	0.00e+00	0	49	0	1152385024	74	4772
2026-01-16 02:43:50.20	259.70	15.02	-51.6	-53.5	17.9	0.00e+00	0	49	0	1159725056	74	4549
2026-01-16 02:43:54.24	259.31	14.64	-51.7	-53.6	17.8	0.00e+00	0	49	0	1167065088	74	4631
2026-01-16 02:43:58.27	258.93	14.27	-52.2	-54.3	17.0	0.00e+00	0	49	0	1175453696	75	4751
2026-01-16 02:44:02.31	258.57	13.90	-52.9	-55.3	16.0	0.00e+00	0	49	0	1182793728	76	5004
2026-01-16 02:44:06.35	258.21	13.53	-52.6	-54.8	16.5	0.00e+00	0	49	0	1190133760	76	4757
2026-01-16 02:44:10.39	257.86	13.16	-51.7	-53.6	17.7	0.00e+00	0	49	0	1197473792	75	4362
2026-01-16 02:44:14.42	257.52	12.81	-51.5	-53.4	17.9	0.00e+00	0	49	0	1205862400	74	4502
2026-01-16 02:44:18.46	257.18	12.45	-51.6	-53.5	17.7	0.00e+00	0	49	0	1213202432	74	4577
2026-01-16 02:44:22.50	256.86	12.10	-51.6	-53.4	17.8	0.00e+00	0	49	0	1220542464	74	4536
2026-01-16 02:44:26.54	256.54	11.75	-51.6	-53.4	17.7	0.00e+00	0	49	0	1227882496	74	4535
2026-01-16 02:44:30.58	256.23	11.41	-51.8	-53.8	17.4	0.00e+00	0	49	0	1235222528	74	4728
2026-01-16 02:44:34.61	255.93	11.07	-51.9	-53.9	17.3	0.00e+00	0	49	0	1242562560	74	4767
2026-01-16 02:44:38.65	255.64	10.74	-52.1	-54.1	17.0	0.00e+00	0	49	0	1250951168	75	4639
2026-01-16 02:44:42.68	255.35	10.41	-52.3	-54.5	16.7	0.00e+00	0	49	0	1258291200	75	4845
2026-01-16 02:44:46.72	255.07	10.08	-52.0	-54.1	17.1	0.00e+00	0	49	0	1265631232	75	4608
2026-01-16 02:44:50.76	254.80	9.75	-52.6	-55.0	16.1	0.00e+00	0	49	0	1272971264	76	4841
2026-01-16 02:44:54.80	254.53	9.43	-52.9	-55.4	15.7	0.00e+00	0	49	0	1281359872	76	5057
2026-01-16 02:44:58.84	254.27	9.12	-53.4	-56.2	14.9	0.00e+00	0	49	0	1288699904	77	5253
2026-01-16 02:45:02.87	254.01	8.80	-53.3	-56.1	15.0	0.00e+00	0	49	0	1296039936	77	5188
2026-01-16 02:45:06.91	253.76	8.49	-52.9	-55.5	15.5	0.00e+00	0	48	0	1303379968	77	4817
2026-01-16 02:45:10.95	253.51	8.19	-52.3	-54.6	16.4	0.00e+00	0	49	0	1311768576	76	4629
2026-01-16 02:45:14.98	253.28	7.88	-52.1	-54.2	16.7	0.00e+00	0	49	0	1319108608	75	4697
2026-01-16 02:45:19.02	253.04	7.58	-51.8	-53.8	17.0	0.00e+00	0	49	0	1326448640	75	4486
2026-01-16 02:45:23.06	252.81	7.28	-52.0	-54.2	16.6	0.00e+00	0	49	0	1333788672	75	4684
2026-01-16 02:45:27.09	252.59	6.99	-52.3	-54.6	16.2	0.00e+00	0	49	0	1341128704	75	4900
2026-01-16 02:45:31.13	252.37	6.70	-52.6	-55.1	15.7	0.00e+00	0	49	0	1349517312	75	5194
2026-01-16 02:45:35.17	252.15	6.41	-53.0	-55.8	15.0	0.00e+00	0	49	0	1356857344	76	5294
2026-01-16 02:45:39.21	251.94	6.12	-53.2	-56.1	14.6	0.00e+00	0	49	0	1364197376	77	5214
2026-01-16 02:45:43.25	251.73	5.84	-53.6	-56.8	13.9	2.20e-06	0	49	0	1371537408	77	5604
2026-01-16 02:45:47.28	251.53	5.56	-53.6	-56.8	13.8	3.80e-06	0	49	0	1378877440	78	5328
2026-01-16 02:45:51.32	251.33	5.28	-53.3	-56.5	14.1	6.10e-06	0	49	0	1387266048	78	5125
2026-01-16 02:45:55.36	251.14	5.01	-54.1	-58.1	12.5	4.50e-05	0	49	0	1394606080	78	6160
2026-01-16 02:45:59.40	250.95	4.73	-57.9	-72.9	3.8	1.49e+00	0	49	104	1395654656	86	21271
2026-01-16 02:46:03.44	250.76	4.46	-58.2	-73.2	3.8	1.49e+00	0	49	104	1395654656	87	20984
2026-01-16 02:46:07.48	250.58	4.19	-58.4	-73.4	3.8	1.49e+00	0	49	104	1395654656	87	21312
2026-01-16 02:46:11.52	250.40	3.93	-58.4	-73.4	3.8	1.49e+00	0	49	104	1395654656	87	21506
2026-01-16 02:46:15.56	250.22	3.66	-58.4	-73.4	3.8	1.49e+00	0	49	104	1395654656	87	21432
2026-01-16 02:46:19.60	250.05	3.40	-58.4	-73.4	3.8	1.49e+00	0	49	104	1395654656	87	21355
2026-01-16 02:46:23.64	249.88	3.14	-58.3	-73.4	3.8	1.49e+00	0	49	104	1395654656	87	21297
2026-01-16 02:46:27.69	249.72	2.89	-58.3	-73.3	3.8	1.49e+00	0	49	104	1395654656	87	21198
2026-01-16 02:46:31.73	249.55	2.63	-58.3	-73.3	3.8	1.49e+00	0	49	104	1395654656	87	21183
2026-01-16 02:46:35.77	249.39	2.38	-58.3	-73.3	3.8	1.49e+00	0	49	104	1395654656	87	21064
2026-01-16 02:46:39.81	249.23	2.13	-58.3	-73.3	3.8	1.49e+00	0	49	104	1395654656	87	21086
2026-01-16 02:46:43.85	249.08	1.88	-58.3	-73.2	3.8	1.49e+00	0	49	104	1395654656	87	20985

#Closed at: 2026-01-16 02:46:44
#Recorded file [1395 MB]: D:/lorett/data/31041_260116_053255.dat