passes_logs/2026/01/16/R3.2S_Murmansk/R3.2S_Murmansk__20260116_073026_SUOMI_NPP_rec.log

#Pass ID: 20260116_073026_SUOMI NPP
#Satellite: SUOMI NPP
#Configuration: NPP
#almurnet v.1.7.20251203
#Start time: 2026-01-16 07:30:27

#Version: 2.2.20231116
#Station: R3.2S_Murmansk
#Location: 33.079688 lon 68.888172 lat
#TLE: 1 37849U 11061A   26015.94982489  .00000054  00000+0  46705-4 0  9991
#TLE: 2 37849  98.7812 317.9902 0002438  62.0366 298.1057 14.19525452736847

#Time	Az	El	Level	Level2	SNR	BER	BlckErr	Temp	State	Recorded	gain1	gain2
2026-01-16 07:30:27.22	103.99	2.02	-56.5	-71.4	3.8	1.49e+00	0	42	0	0	84	20237
2026-01-16 07:30:31.25	103.82	2.26	-56.4	-71.3	3.8	1.49e+00	0	42	104	0	83	21097
2026-01-16 07:30:35.29	103.63	2.51	-56.4	-71.3	3.8	1.49e+00	0	42	104	0	83	21061
2026-01-16 07:30:39.33	103.45	2.76	-56.3	-71.2	3.8	1.49e+00	0	42	104	0	83	20996
2026-01-16 07:30:43.37	103.26	3.01	-56.3	-71.3	3.8	1.49e+00	0	43	104	0	83	21058
2026-01-16 07:30:47.41	103.07	3.27	-56.3	-71.1	3.8	1.49e+00	0	43	104	0	83	20752
2026-01-16 07:30:51.45	102.87	3.52	-56.3	-71.2	3.8	1.49e+00	0	43	104	0	83	20902
2026-01-16 07:30:55.49	102.67	3.78	-56.3	-71.0	3.8	1.49e+00	0	43	104	0	83	20430
2026-01-16 07:30:59.53	102.47	4.04	-56.2	-68.7	3.9	1.49e+00	0	43	104	0	83	15600
2026-01-16 07:31:03.57	102.26	4.31	-55.9	-65.3	5.2	8.27e-01	0	44	0	3145728	83	10619
2026-01-16 07:31:07.61	102.05	4.57	-55.6	-63.1	6.9	2.30e-01	0	44	0	10485760	83	8220
2026-01-16 07:31:11.65	101.83	4.84	-55.5	-62.6	7.4	9.63e-02	0	44	0	18874368	82	8222
2026-01-16 07:31:15.70	101.61	5.11	-55.3	-61.6	8.5	2.13e-01	0	44	0	26214400	82	7301
2026-01-16 07:31:19.73	101.39	5.38	-56.0	-64.8	5.8	1.81e-04	0	44	0	32505856	82	10632
2026-01-16 07:31:23.77	101.16	5.65	-54.2	-57.9	12.7	4.27e-05	0	44	0	39845888	79	5721
2026-01-16 07:31:27.80	100.92	5.93	-53.9	-57.3	13.3	3.66e-05	0	44	0	47185920	79	5297
2026-01-16 07:31:31.84	100.69	6.21	-52.9	-55.6	15.1	0.00e+00	0	45	0	54525952	77	4883
2026-01-16 07:31:35.88	100.44	6.49	-52.7	-55.2	15.5	0.00e+00	0	45	0	61865984	77	4694
2026-01-16 07:31:39.92	100.19	6.77	-53.0	-55.7	14.9	7.00e-07	0	45	0	69206016	77	4983
2026-01-16 07:31:43.95	99.94	7.06	-52.7	-55.2	15.5	0.00e+00	0	45	0	77594624	77	4705
2026-01-16 07:31:47.99	99.68	7.35	-52.6	-55.1	15.7	0.00e+00	0	45	0	84934656	76	4888
2026-01-16 07:31:52.02	99.42	7.64	-52.8	-55.3	15.4	0.00e+00	0	45	0	92274688	76	5031
2026-01-16 07:31:56.06	99.15	7.94	-52.6	-55.1	15.6	0.00e+00	0	45	0	99614720	76	4922
2026-01-16 07:32:00.10	98.87	8.23	-52.4	-54.8	15.9	0.00e+00	0	46	0	108003328	76	4735
2026-01-16 07:32:04.13	98.59	8.53	-52.3	-54.8	15.9	0.00e+00	0	45	0	115343360	76	4724
2026-01-16 07:32:08.17	98.31	8.84	-52.3	-54.8	16.0	0.00e+00	0	45	0	122683392	76	4720
2026-01-16 07:32:12.21	98.01	9.14	-51.9	-54.1	16.6	0.00e+00	0	46	0	130023424	75	4644
2026-01-16 07:32:16.24	97.71	9.45	-51.8	-54.1	16.7	0.00e+00	0	46	0	138412032	75	4606
2026-01-16 07:32:20.28	97.41	9.76	-51.7	-53.8	17.0	0.00e+00	0	46	0	145752064	75	4478
2026-01-16 07:32:24.32	97.09	10.08	-51.3	-53.3	17.5	0.00e+00	0	46	0	153092096	74	4462
2026-01-16 07:32:28.36	96.77	10.40	-51.5	-53.5	17.3	0.00e+00	0	46	0	160432128	74	4584
2026-01-16 07:32:32.40	96.44	10.72	-51.5	-53.5	17.3	0.00e+00	0	46	0	167772160	74	4595
2026-01-16 07:32:36.43	96.11	11.05	-51.6	-53.6	17.3	0.00e+00	0	46	0	176160768	74	4628
2026-01-16 07:32:40.47	95.76	11.38	-51.5	-53.4	17.5	0.00e+00	0	46	0	183500800	74	4536
2026-01-16 07:32:44.51	95.41	11.71	-51.8	-53.9	17.0	0.00e+00	0	47	0	190840832	74	4784
2026-01-16 07:32:48.55	95.05	12.04	-51.6	-53.6	17.3	0.00e+00	0	47	0	198180864	74	4644
2026-01-16 07:32:52.59	94.68	12.38	-51.6	-53.6	17.4	0.00e+00	0	47	0	205520896	74	4604
2026-01-16 07:32:56.63	94.30	12.73	-51.3	-53.2	17.7	0.00e+00	0	47	0	213909504	74	4440
2026-01-16 07:33:00.66	93.91	13.07	-51.1	-53.0	18.0	0.00e+00	0	47	0	221249536	74	4302
2026-01-16 07:33:04.70	93.52	13.42	-51.2	-53.1	17.9	0.00e+00	0	47	0	228589568	74	4364
2026-01-16 07:33:08.74	93.11	13.77	-51.1	-52.9	18.1	0.00e+00	0	47	0	235929600	73	4504
2026-01-16 07:33:12.77	92.69	14.13	-50.8	-52.4	18.6	0.00e+00	0	47	0	244318208	73	4286
2026-01-16 07:33:16.81	92.27	14.49	-50.7	-52.4	18.6	0.00e+00	0	47	0	251658240	73	4244
2026-01-16 07:33:20.85	91.83	14.86	-50.8	-52.5	18.6	0.00e+00	0	47	0	258998272	73	4312
2026-01-16 07:33:24.89	91.38	15.22	-51.0	-52.8	18.4	0.00e+00	0	47	0	266338304	73	4461
2026-01-16 07:33:28.93	90.92	15.60	-50.9	-52.6	18.5	0.00e+00	0	47	0	274726912	73	4347
2026-01-16 07:33:32.96	90.45	15.97	-51.1	-52.8	18.3	0.00e+00	0	47	0	282066944	73	4476
2026-01-16 07:33:37.00	89.96	16.35	-51.2	-53.0	18.1	0.00e+00	0	47	0	289406976	73	4559
2026-01-16 07:33:41.04	89.46	16.73	-50.8	-52.5	18.6	0.00e+00	0	47	0	296747008	73	4325
2026-01-16 07:33:45.08	88.95	17.12	-51.1	-52.9	18.2	0.00e+00	0	47	0	304087040	73	4528
2026-01-16 07:33:49.12	88.43	17.51	-50.6	-52.1	19.0	0.00e+00	0	47	0	312475648	73	4139
2026-01-16 07:33:53.16	87.89	17.91	-51.1	-52.9	18.3	0.00e+00	0	47	0	319815680	73	4514
2026-01-16 07:33:57.19	87.34	18.30	-51.2	-52.9	18.3	0.00e+00	0	47	0	327155712	73	4533
2026-01-16 07:34:01.23	86.77	18.71	-51.9	-53.9	17.3	0.00e+00	0	47	0	334495744	74	4809
2026-01-16 07:34:05.27	86.18	19.11	-51.7	-53.6	17.6	0.00e+00	0	47	0	341835776	74	4620
2026-01-16 07:34:09.31	85.58	19.52	-51.5	-53.4	17.9	0.00e+00	0	48	0	350224384	74	4500
2026-01-16 07:34:13.35	84.96	19.93	-51.3	-53.1	18.2	0.00e+00	0	48	0	357564416	74	4345
2026-01-16 07:34:17.38	84.33	20.35	-51.2	-53.0	18.2	0.00e+00	0	48	0	364904448	74	4321
2026-01-16 07:34:21.42	83.68	20.76	-51.4	-53.2	18.0	0.00e+00	0	48	0	372244480	74	4432
2026-01-16 07:34:25.46	83.01	21.19	-51.3	-53.0	18.3	0.00e+00	0	48	0	380633088	74	4329
2026-01-16 07:34:29.49	82.32	21.61	-51.5	-53.4	18.0	0.00e+00	0	48	0	387973120	74	4495
2026-01-16 07:34:33.52	81.62	22.03	-51.5	-53.4	18.0	0.00e+00	0	48	0	395313152	74	4507
2026-01-16 07:34:37.56	80.89	22.46	-51.9	-53.8	17.5	0.00e+00	0	48	0	402653184	74	4758
2026-01-16 07:34:41.60	80.14	22.89	-52.1	-54.1	17.3	0.00e+00	0	48	0	409993216	75	4647
2026-01-16 07:34:45.64	79.37	23.33	-52.0	-54.1	17.3	0.00e+00	0	48	0	418381824	75	4628
2026-01-16 07:34:49.67	78.58	23.76	-51.4	-53.2	18.2	0.00e+00	0	48	0	425721856	74	4430
2026-01-16 07:34:53.71	77.76	24.19	-51.6	-53.4	18.0	0.00e+00	0	48	0	433061888	74	4524
2026-01-16 07:34:57.75	76.93	24.63	-51.3	-53.0	18.3	0.00e+00	0	48	0	440401920	74	4336
2026-01-16 07:35:01.75	76.07	25.06	-51.6	-53.4	18.0	0.00e+00	0	48	0	448790528	74	4541
2026-01-16 07:35:05.79	75.19	25.50	-51.4	-53.2	18.2	0.00e+00	0	48	0	456130560	74	4414
2026-01-16 07:35:09.82	74.28	25.93	-51.4	-53.2	18.3	0.00e+00	0	48	0	463470592	74	4416
2026-01-16 07:35:13.86	73.34	26.37	-51.2	-53.0	18.5	0.00e+00	0	48	0	470810624	74	4304
2026-01-16 07:35:17.90	72.38	26.80	-51.9	-53.9	17.6	0.00e+00	0	48	0	478150656	74	4772
2026-01-16 07:35:21.94	71.39	27.23	-51.9	-53.8	17.8	0.00e+00	0	48	0	486539264	75	4460
2026-01-16 07:35:25.97	70.38	27.66	-50.6	-52.1	19.3	0.00e+00	0	48	0	493879296	73	4125
2026-01-16 07:35:30.00	69.34	28.08	-50.8	-52.3	19.1	0.00e+00	0	48	0	501219328	72	4490
2026-01-16 07:35:34.03	68.27	28.50	-51.2	-52.9	18.6	0.00e+00	0	48	0	508559360	73	4520
2026-01-16 07:35:38.07	67.17	28.91	-52.0	-54.0	17.5	0.00e+00	0	48	0	515899392	74	4856
2026-01-16 07:35:42.10	66.04	29.32	-52.9	-55.3	16.2	0.00e+00	0	48	0	524288000	76	5012
2026-01-16 07:35:46.14	64.88	29.72	-52.3	-54.4	17.2	0.00e+00	0	48	0	531628032	76	4523
2026-01-16 07:35:50.18	63.70	30.11	-53.1	-55.7	15.8	0.00e+00	0	48	0	538968064	76	5236
2026-01-16 07:35:54.22	62.48	30.49	-53.4	-56.0	15.4	0.00e+00	0	48	0	546308096	77	5153
2026-01-16 07:35:58.26	61.24	30.87	-54.4	-57.8	13.8	4.50e-06	0	49	0	554696704	79	5605
2026-01-16 07:36:02.29	59.96	31.23	-53.4	-56.0	15.5	0.00e+00	0	48	0	562036736	78	4845
2026-01-16 07:36:06.33	58.66	31.58	-53.4	-56.0	15.6	0.00e+00	0	49	0	569376768	77	5136
2026-01-16 07:36:10.36	57.34	31.91	-53.8	-56.8	14.8	0.00e+00	0	49	0	576716800	78	5296
2026-01-16 07:36:14.39	55.98	32.24	-54.0	-57.1	14.5	7.00e-07	0	49	0	584056832	78	5518
2026-01-16 07:36:18.43	54.60	32.54	-53.4	-56.1	15.4	0.00e+00	0	48	0	592445440	78	4914
2026-01-16 07:36:22.46	53.19	32.84	-53.8	-56.8	14.8	0.00e+00	0	49	0	599785472	78	5303
2026-01-16 07:36:26.50	51.76	33.11	-52.2	-54.2	17.3	0.00e+00	0	49	0	607125504	76	4427
2026-01-16 07:36:30.53	50.30	33.36	-50.9	-52.5	18.9	0.00e+00	0	49	0	614465536	73	4328
2026-01-16 07:36:34.56	48.83	33.60	-50.8	-52.5	19.0	0.00e+00	0	49	0	621805568	73	4305
2026-01-16 07:36:38.60	47.32	33.82	-52.3	-54.5	17.1	0.00e+00	0	49	0	630194176	75	4861
2026-01-16 07:36:42.64	45.80	34.01	-50.4	-51.8	19.5	0.00e+00	0	49	0	637534208	72	4239
2026-01-16 07:36:46.67	44.27	34.18	-50.0	-51.4	19.9	0.00e+00	0	49	0	644874240	72	4026
2026-01-16 07:36:50.71	42.72	34.33	-51.5	-53.4	18.1	0.00e+00	0	49	0	652214272	73	4773
2026-01-16 07:36:54.75	41.15	34.46	-50.9	-52.5	19.0	0.00e+00	0	49	0	660602880	73	4312
2026-01-16 07:36:58.78	39.58	34.56	-51.7	-53.5	18.0	0.00e+00	0	49	0	667942912	74	4575
2026-01-16 07:37:02.81	38.00	34.64	-51.1	-52.7	18.9	0.00e+00	0	49	0	675282944	74	4150
2026-01-16 07:37:06.85	36.40	34.69	-51.5	-53.2	18.3	0.00e+00	0	49	0	682622976	73	4692
2026-01-16 07:37:10.88	34.81	34.72	-52.1	-54.1	17.5	0.00e+00	0	49	0	689963008	75	4618
2026-01-16 07:37:14.92	33.22	34.72	-52.3	-54.4	17.3	0.00e+00	0	49	0	698351616	75	4793
2026-01-16 07:37:18.96	31.62	34.69	-52.0	-54.0	17.7	0.00e+00	0	49	0	705691648	75	4559
2026-01-16 07:37:23.00	30.03	34.65	-51.6	-53.4	18.2	0.00e+00	0	49	0	713031680	75	4262
2026-01-16 07:37:27.04	28.44	34.57	-52.2	-54.2	17.3	0.00e+00	0	49	0	720371712	74	4978
2026-01-16 07:37:31.08	26.86	34.47	-52.3	-54.4	17.2	0.00e+00	0	49	0	727711744	76	4516
2026-01-16 07:37:35.11	25.30	34.35	-52.2	-54.3	17.3	0.00e+00	0	49	0	736100352	75	4724
2026-01-16 07:37:39.15	23.75	34.21	-52.7	-55.0	16.6	0.00e+00	0	49	0	743440384	76	4838
2026-01-16 07:37:43.19	22.21	34.04	-51.5	-53.4	18.1	0.00e+00	0	49	0	750780416	75	4261
2026-01-16 07:37:47.23	20.69	33.85	-51.8	-53.8	17.8	0.00e+00	0	49	0	758120448	74	4716
2026-01-16 07:37:51.27	19.18	33.63	-51.6	-53.4	18.1	0.00e+00	0	49	0	766509056	74	4532
2026-01-16 07:37:55.31	17.70	33.40	-50.9	-52.5	19.0	0.00e+00	0	49	0	773849088	73	4330
2026-01-16 07:37:59.34	16.25	33.15	-52.8	-55.3	16.3	0.00e+00	0	49	0	781189120	76	5001
2026-01-16 07:38:03.38	14.81	32.88	-51.0	-52.7	18.9	0.00e+00	0	49	0	788529152	73	4397
2026-01-16 07:38:07.42	13.40	32.59	-52.3	-54.4	17.3	0.00e+00	0	49	0	795869184	75	4761
2026-01-16 07:38:11.45	12.02	32.28	-53.8	-56.8	14.9	0.00e+00	0	49	0	804257792	78	5306
2026-01-16 07:38:15.49	10.66	31.96	-52.8	-55.2	16.4	0.00e+00	0	49	0	811597824	76	4972
2026-01-16 07:38:19.53	9.33	31.63	-52.5	-54.7	16.8	0.00e+00	0	49	0	818937856	76	4660
2026-01-16 07:38:23.57	8.02	31.28	-51.5	-53.3	18.2	0.00e+00	0	49	0	826277888	74	4452
2026-01-16 07:38:27.60	6.75	30.92	-51.6	-53.5	18.0	0.00e+00	0	49	0	834666496	73	4852
2026-01-16 07:38:31.64	5.50	30.55	-52.9	-55.2	16.4	0.00e+00	0	49	0	842006528	77	4665
2026-01-16 07:38:35.68	4.29	30.17	-51.3	-53.0	18.5	0.00e+00	0	49	0	849346560	74	4323
2026-01-16 07:38:39.71	3.10	29.78	-53.4	-56.1	15.5	7.00e-07	0	49	0	856686592	78	4877
2026-01-16 07:38:43.75	1.94	29.38	-52.3	-54.4	17.3	0.00e+00	0	49	0	864026624	76	4528
2026-01-16 07:38:47.79	0.81	28.97	-52.9	-55.3	16.5	0.00e+00	0	49	0	872415232	76	5007
2026-01-16 07:38:51.83	359.71	28.56	-52.4	-54.4	17.2	0.00e+00	0	49	0	879755264	76	4529
2026-01-16 07:38:55.88	358.63	28.14	-52.0	-53.9	17.7	0.00e+00	0	49	0	887095296	75	4529
2026-01-16 07:38:59.91	357.59	27.72	-52.5	-54.7	17.0	0.00e+00	0	49	0	894435328	75	4946
2026-01-16 07:39:03.95	356.57	27.30	-50.8	-52.3	19.2	0.00e+00	0	49	0	902823936	73	4219
2026-01-16 07:39:07.99	355.58	26.87	-51.2	-52.9	18.7	0.00e+00	0	49	0	910163968	73	4498
2026-01-16 07:39:12.03	354.62	26.44	-50.7	-52.3	19.3	0.00e+00	0	49	0	917504000	73	4197
2026-01-16 07:39:16.06	353.69	26.01	-50.1	-51.5	19.9	0.00e+00	0	49	0	924844032	72	4086
2026-01-16 07:39:20.11	352.77	25.57	-51.2	-53.0	18.5	0.00e+00	0	49	0	932184064	73	4550
2026-01-16 07:39:24.14	351.89	25.14	-50.0	-51.4	20.0	0.00e+00	0	49	0	940572672	72	4026
2026-01-16 07:39:28.18	351.02	24.70	-50.3	-51.8	19.7	0.00e+00	0	49	0	947912704	71	4463
2026-01-16 07:39:32.22	350.19	24.27	-50.3	-51.7	19.8	0.00e+00	0	49	0	955252736	71	4411
2026-01-16 07:39:36.25	349.37	23.83	-50.0	-51.3	20.0	0.00e+00	0	49	0	962592768	71	4238
2026-01-16 07:39:40.29	348.58	23.40	-50.3	-51.8	19.7	0.00e+00	0	49	0	970981376	71	4453
2026-01-16 07:39:44.33	347.81	22.97	-50.4	-51.9	19.5	0.00e+00	0	49	0	978321408	72	4261
2026-01-16 07:39:48.37	347.06	22.54	-50.9	-52.5	19.0	0.00e+00	0	49	0	985661440	72	4576
2026-01-16 07:39:52.41	346.33	22.11	-51.2	-52.9	18.6	0.00e+00	0	49	0	993001472	73	4509
2026-01-16 07:39:56.44	345.62	21.69	-51.2	-52.9	18.6	0.00e+00	0	49	0	1000341504	73	4510
2026-01-16 07:40:00.48	344.94	21.26	-51.7	-53.6	18.0	0.00e+00	0	49	0	1008730112	74	4633
2026-01-16 07:40:04.52	344.27	20.84	-51.3	-53.1	18.3	0.00e+00	0	49	0	1016070144	74	4348
2026-01-16 07:40:08.56	343.61	20.42	-51.4	-53.1	18.3	0.00e+00	0	49	0	1023410176	74	4368
2026-01-16 07:40:12.59	342.98	20.01	-50.6	-52.1	19.2	0.00e+00	0	49	0	1030750208	72	4381
2026-01-16 07:40:16.63	342.36	19.60	-50.2	-51.7	19.7	0.00e+00	0	49	0	1039138816	72	4151
2026-01-16 07:40:20.67	341.76	19.19	-50.3	-51.7	19.6	0.00e+00	0	49	0	1046478848	72	4168
2026-01-16 07:40:24.70	341.18	18.79	-50.2	-51.6	19.7	0.00e+00	0	49	0	1053818880	71	4376
2026-01-16 07:40:28.74	340.61	18.39	-50.3	-51.7	19.6	0.00e+00	0	49	0	1061158912	71	4418
2026-01-16 07:40:32.78	340.06	17.99	-51.3	-53.0	18.3	0.00e+00	0	49	0	1068498944	73	4589
2026-01-16 07:40:36.82	339.52	17.60	-53.2	-55.9	15.6	0.00e+00	0	49	0	1076887552	77	5047
2026-01-16 07:40:40.85	339.00	17.21	-52.7	-55.0	16.4	0.00e+00	0	49	0	1084227584	77	4576
2026-01-16 07:40:44.89	338.49	16.82	-51.1	-52.8	18.5	0.00e+00	0	49	0	1091567616	74	4212
2026-01-16 07:40:48.93	337.99	16.44	-51.4	-53.2	18.1	0.00e+00	0	49	0	1098907648	73	4695
2026-01-16 07:40:52.96	337.50	16.06	-52.3	-54.4	16.9	0.00e+00	0	49	0	1106247680	75	4800
2026-01-16 07:40:57.00	337.03	15.68	-51.3	-53.1	18.2	0.00e+00	0	49	0	1114636288	74	4364
2026-01-16 07:41:01.03	336.57	15.31	-51.1	-52.8	18.4	0.00e+00	0	49	0	1121976320	74	4238
2026-01-16 07:41:05.07	336.12	14.94	-51.4	-53.3	18.0	0.00e+00	0	49	0	1129316352	74	4449
2026-01-16 07:41:09.11	335.69	14.58	-51.5	-53.3	17.9	0.00e+00	0	49	0	1136656384	74	4467
2026-01-16 07:41:13.15	335.26	14.22	-51.7	-53.6	17.6	0.00e+00	0	49	0	1145044992	74	4650
2026-01-16 07:41:17.18	334.84	13.86	-51.9	-53.9	17.4	0.00e+00	0	49	0	1152385024	74	4773
2026-01-16 07:41:21.22	334.44	13.51	-51.2	-53.0	18.2	0.00e+00	0	49	0	1159725056	74	4305
2026-01-16 07:41:25.26	334.04	13.16	-51.3	-53.0	18.2	0.00e+00	0	49	0	1167065088	74	4328
2026-01-16 07:41:29.29	333.65	12.82	-52.1	-54.3	17.0	0.00e+00	0	49	0	1174405120	74	4989
2026-01-16 07:41:33.33	333.28	12.47	-53.3	-56.0	15.3	0.00e+00	0	49	0	1182793728	77	5127
2026-01-16 07:41:37.37	332.91	12.13	-53.2	-55.9	15.3	0.00e+00	0	49	0	1190133760	77	5066
2026-01-16 07:41:41.40	332.55	11.80	-52.5	-54.8	16.5	0.00e+00	0	49	0	1197473792	76	4712
2026-01-16 07:41:45.44	332.20	11.47	-51.9	-54.0	17.2	0.00e+00	0	49	0	1204813824	75	4569
2026-01-16 07:41:49.48	331.85	11.14	-51.5	-53.4	17.4	0.00e+00	0	49	0	1213202432	75	4244
2026-01-16 07:41:53.52	331.52	10.81	-51.4	-53.2	17.8	0.00e+00	0	49	0	1220542464	74	4421
2026-01-16 07:41:57.55	331.19	10.49	-51.4	-53.2	17.8	0.00e+00	0	49	0	1227882496	74	4436
2026-01-16 07:42:01.59	330.87	10.17	-51.5	-53.4	17.6	0.00e+00	0	49	0	1235222528	74	4520
2026-01-16 07:42:05.63	330.56	9.86	-51.7	-53.7	17.3	0.00e+00	0	49	0	1242562560	74	4673
2026-01-16 07:42:09.67	330.25	9.55	-52.4	-54.6	16.4	0.00e+00	0	49	0	1250951168	75	4922
2026-01-16 07:42:13.70	329.95	9.24	-52.3	-54.5	16.5	0.00e+00	0	49	0	1258291200	75	4862
2026-01-16 07:42:17.74	329.66	8.93	-52.6	-55.0	16.0	0.00e+00	0	49	0	1265631232	75	5111
2026-01-16 07:42:21.78	329.37	8.63	-52.9	-55.5	15.5	0.00e+00	0	49	0	1272971264	76	5114
2026-01-16 07:42:25.82	329.09	8.33	-53.1	-55.8	15.2	0.00e+00	0	49	0	1280311296	76	5318
2026-01-16 07:42:29.86	328.82	8.03	-53.5	-56.6	14.3	1.50e-06	0	49	0	1288699904	77	5468
2026-01-16 07:42:33.89	328.55	7.74	-53.5	-56.5	14.3	1.50e-06	0	49	0	1296039936	77	5462
2026-01-16 07:42:37.93	328.29	7.44	-53.1	-56.0	14.9	0.00e+00	0	49	0	1303379968	77	5103
2026-01-16 07:42:41.97	328.03	7.16	-52.7	-55.3	15.6	0.00e+00	0	49	0	1310720000	77	4713
2026-01-16 07:42:46.01	327.78	6.87	-52.4	-54.7	16.1	0.00e+00	0	49	0	1319108608	76	4698
2026-01-16 07:42:50.04	327.53	6.59	-52.2	-54.5	16.2	0.00e+00	0	49	0	1326448640	76	4588
2026-01-16 07:42:54.08	327.29	6.30	-52.1	-54.4	16.3	0.00e+00	0	49	0	1333788672	76	4497
2026-01-16 07:42:58.12	327.05	6.03	-52.5	-54.9	15.8	0.00e+00	0	49	0	1341128704	76	4810
2026-01-16 07:43:02.16	326.82	5.75	-52.9	-55.6	15.0	0.00e+00	0	49	0	1349517312	76	5196
2026-01-16 07:43:06.20	326.60	5.47	-53.4	-56.6	14.1	1.50e-06	0	49	0	1356857344	77	5476
2026-01-16 07:43:10.23	326.37	5.20	-53.7	-57.2	13.4	8.30e-06	0	50	0	1364197376	77	5877
2026-01-16 07:43:14.27	326.15	4.93	-57.1	-71.8	3.8	1.24e+00	0	49	104	1371537408	84	21148
2026-01-16 07:43:18.31	325.94	4.67	-57.9	-72.9	3.8	1.49e+00	0	49	104	1371537408	86	21390
2026-01-16 07:43:22.35	325.73	4.40	-58.3	-73.3	3.8	1.49e+00	0	49	104	1371537408	87	21068
2026-01-16 07:43:26.39	325.52	4.14	-58.4	-73.4	3.8	1.49e+00	0	49	104	1371537408	87	21465
2026-01-16 07:43:30.42	325.32	3.88	-58.5	-73.5	3.8	1.49e+00	0	49	104	1371537408	87	21606
2026-01-16 07:43:34.46	325.12	3.62	-58.4	-73.4	3.8	1.49e+00	0	50	104	1371537408	87	21402
2026-01-16 07:43:38.50	324.93	3.37	-58.3	-73.3	3.8	1.49e+00	0	49	104	1371537408	87	21239
2026-01-16 07:43:42.54	324.74	3.11	-58.2	-73.3	3.8	1.49e+00	0	49	104	1371537408	87	21053
2026-01-16 07:43:46.57	324.55	2.86	-58.2	-73.2	3.8	1.49e+00	0	50	104	1371537408	87	20976
2026-01-16 07:43:50.61	324.37	2.61	-58.3	-73.3	3.8	1.49e+00	0	50	104	1371537408	87	21027
2026-01-16 07:43:54.65	324.19	2.36	-58.2	-73.2	3.8	1.49e+00	0	50	104	1371537408	87	21005
2026-01-16 07:43:58.69	324.01	2.12	-58.2	-73.2	3.8	1.49e+00	0	50	104	1371537408	87	20889
2026-01-16 07:44:02.73	323.83	1.87	-58.2	-73.2	3.8	1.49e+00	0	50	104	1371537408	87	20866

#Closed at: 2026-01-16 07:44:03
#Recorded file [1371 MB]: D:/lorett/data/31041_260116_103027.dat