passes_logs/2026/01/16/R3.2S_Murmansk/R3.2S_Murmansk__20260116_040235_KANOPUS-V_5_rec.log

#Pass ID: 20260116_040235_KANOPUS-V 5
#Satellite: KANOPUS-V 5
#Configuration: KANOPUS-V_8320
#almurnet v.1.7.20251203
#Start time: 2026-01-16 04:02:36

#Version: 2.2.20231116
#Station: R3.2S_Murmansk
#Location: 33.079688 lon 68.888172 lat
#TLE: 1 43876U 18111A   26015.49905314  .00001973  00000+0  85765-4 0  9993
#TLE: 2 43876  97.3687 284.0041 0001787  87.7096 272.4345 15.23439440391543

#Time	Az	El	Level	Level2	SNR	BER	BlckErr	Temp	State	Recorded	gain1	gain2
2026-01-16 04:02:36.11	65.52	2.05	-57.2	-66.0	3.8	7.46e-01	0	42	0	0	86	9661
2026-01-16 04:02:38.12	65.28	2.16	-57.2	-66.0	3.8	7.44e-01	0	42	104	0	85	10292
2026-01-16 04:02:40.14	65.03	2.27	-57.2	-66.0	3.8	7.45e-01	0	42	104	0	85	10264
2026-01-16 04:02:42.16	64.79	2.38	-57.2	-66.0	3.8	7.46e-01	0	42	104	0	85	10253
2026-01-16 04:02:44.18	64.54	2.49	-57.2	-66.0	3.8	7.45e-01	0	42	104	0	85	10291
2026-01-16 04:02:46.20	64.29	2.60	-57.2	-66.0	3.8	7.45e-01	0	42	104	0	85	10272
2026-01-16 04:02:48.22	64.03	2.71	-57.2	-66.1	3.8	7.47e-01	0	42	104	0	85	10332
2026-01-16 04:02:50.24	63.78	2.82	-57.2	-66.0	3.8	7.46e-01	0	43	104	0	85	10288
2026-01-16 04:02:52.26	63.52	2.93	-57.2	-66.1	3.8	7.47e-01	0	43	104	0	85	10296
2026-01-16 04:02:54.28	63.26	3.04	-57.2	-66.0	3.8	7.46e-01	0	43	104	0	85	10273
2026-01-16 04:02:56.30	62.99	3.15	-57.2	-66.1	3.8	7.46e-01	0	43	104	0	85	10297
2026-01-16 04:02:58.32	62.73	3.26	-57.2	-66.1	3.8	7.44e-01	0	43	104	0	85	10297
2026-01-16 04:03:00.34	62.46	3.37	-57.1	-66.0	3.8	7.45e-01	0	43	104	0	85	10278
2026-01-16 04:03:02.36	62.19	3.48	-57.2	-66.0	3.8	7.46e-01	0	43	104	0	85	10288
2026-01-16 04:03:04.38	61.91	3.59	-57.2	-66.0	3.8	7.45e-01	0	43	104	0	85	10266
2026-01-16 04:03:06.40	61.63	3.70	-57.2	-66.0	3.8	7.45e-01	0	43	104	0	85	10261
2026-01-16 04:03:08.42	61.35	3.81	-57.2	-66.0	3.8	7.46e-01	0	44	104	0	85	10293
2026-01-16 04:03:10.44	61.07	3.92	-57.1	-66.0	3.8	7.46e-01	0	43	104	0	85	10284
2026-01-16 04:03:12.46	60.79	4.03	-57.2	-66.0	3.8	7.45e-01	0	44	104	0	85	10274
2026-01-16 04:03:14.48	60.50	4.15	-57.2	-66.0	3.8	7.46e-01	0	44	104	0	85	10247
2026-01-16 04:03:16.50	60.21	4.26	-57.2	-66.1	3.8	7.43e-01	0	44	104	0	85	10295
2026-01-16 04:03:18.53	59.91	4.37	-57.2	-66.0	3.8	7.45e-01	0	44	104	0	85	10280
2026-01-16 04:03:20.55	59.62	4.48	-57.2	-66.0	3.8	7.45e-01	0	44	104	0	85	10287
2026-01-16 04:03:22.57	59.32	4.59	-57.2	-66.1	3.8	7.45e-01	0	44	104	0	85	10295
2026-01-16 04:03:24.59	59.01	4.70	-57.2	-66.0	3.8	7.45e-01	0	44	104	0	85	10252
2026-01-16 04:03:26.61	58.71	4.81	-57.2	-66.0	3.8	7.45e-01	0	45	104	0	85	10259
2026-01-16 04:03:28.63	58.40	4.92	-57.2	-66.0	3.8	7.45e-01	0	45	104	0	85	10286
2026-01-16 04:03:30.64	58.09	5.03	-57.1	-66.0	3.8	7.45e-01	0	45	104	0	85	10289
2026-01-16 04:03:32.66	57.77	5.15	-57.3	-66.1	3.8	7.46e-01	0	45	104	0	85	10411
2026-01-16 04:03:34.68	57.45	5.26	-57.3	-66.2	3.8	7.43e-01	0	45	104	0	85	10435
2026-01-16 04:03:36.70	57.13	5.37	-57.2	-66.1	3.8	7.45e-01	0	45	104	0	85	10370
2026-01-16 04:03:38.72	56.81	5.48	-57.4	-66.3	3.8	7.46e-01	0	45	104	0	85	10556
2026-01-16 04:03:40.74	56.48	5.59	-57.3	-66.2	3.8	7.45e-01	0	45	104	0	85	10444
2026-01-16 04:03:42.76	56.15	5.70	-57.4	-66.3	3.8	7.44e-01	0	45	104	0	85	10595
2026-01-16 04:03:44.78	55.82	5.81	-57.3	-66.2	3.8	7.45e-01	0	45	104	0	85	10469
2026-01-16 04:03:46.80	55.48	5.92	-57.4	-66.3	3.8	7.46e-01	0	45	104	0	85	10652
2026-01-16 04:03:48.82	55.14	6.03	-57.4	-66.3	3.8	7.44e-01	0	45	104	0	85	10535
2026-01-16 04:03:50.83	54.79	6.14	-57.5	-66.4	3.8	7.45e-01	0	45	104	0	85	10698
2026-01-16 04:03:52.85	54.45	6.25	-57.4	-66.3	3.8	7.46e-01	0	46	104	0	85	10606
2026-01-16 04:03:54.87	54.10	6.36	-57.5	-66.4	3.8	7.46e-01	0	46	104	0	85	10718
2026-01-16 04:03:56.89	53.74	6.47	-57.5	-66.4	3.8	7.44e-01	0	46	104	0	85	10657
2026-01-16 04:03:58.91	53.38	6.58	-57.6	-66.4	3.8	7.45e-01	0	46	104	0	85	10761
2026-01-16 04:04:00.93	53.02	6.69	-57.5	-66.3	3.8	7.46e-01	0	46	104	0	85	10644
2026-01-16 04:04:02.95	52.66	6.80	-57.6	-66.5	3.8	7.45e-01	0	46	104	0	85	10830
2026-01-16 04:04:04.96	52.29	6.90	-57.5	-66.4	3.8	7.45e-01	0	46	104	0	85	10719
2026-01-16 04:04:06.99	51.92	7.01	-57.6	-66.5	3.8	7.44e-01	0	46	104	0	85	10841
2026-01-16 04:04:09.00	51.55	7.12	-57.6	-66.4	3.8	7.45e-01	0	46	104	0	85	10771
2026-01-16 04:04:11.02	51.17	7.23	-57.6	-66.5	3.8	7.46e-01	0	46	104	0	85	10882
2026-01-16 04:04:13.04	50.79	7.33	-57.6	-66.5	3.8	7.45e-01	0	46	104	0	85	10806
2026-01-16 04:04:15.06	50.40	7.44	-57.7	-66.6	3.8	7.45e-01	0	46	104	0	85	10909
2026-01-16 04:04:17.08	50.01	7.55	-57.6	-66.5	3.8	7.46e-01	0	46	104	0	85	10822
2026-01-16 04:04:19.10	49.62	7.65	-57.7	-66.6	3.8	7.45e-01	0	46	104	0	85	10946
2026-01-16 04:04:21.12	49.22	7.76	-57.6	-66.5	3.8	7.45e-01	0	46	104	0	85	10855
2026-01-16 04:04:23.14	48.82	7.86	-57.7	-66.6	3.8	7.46e-01	0	47	104	0	85	10930
2026-01-16 04:04:25.16	48.42	7.97	-57.6	-66.5	3.8	7.44e-01	0	47	104	0	85	10880
2026-01-16 04:04:27.18	48.01	8.07	-57.7	-66.6	3.8	7.46e-01	0	47	104	0	86	10405
2026-01-16 04:04:29.20	47.60	8.17	-57.7	-66.6	3.8	7.46e-01	0	46	104	0	86	10312
2026-01-16 04:04:31.22	47.18	8.28	-57.8	-66.6	3.8	7.45e-01	0	47	104	0	86	10374
2026-01-16 04:04:33.24	46.76	8.38	-57.7	-66.6	3.8	7.46e-01	0	47	104	0	86	10330
2026-01-16 04:04:35.26	46.34	8.48	-57.8	-66.7	3.8	7.44e-01	0	47	104	0	86	10414
2026-01-16 04:04:37.28	45.92	8.58	-57.7	-66.6	3.8	7.43e-01	0	47	104	0	86	10351
2026-01-16 04:04:39.30	45.49	8.68	-57.8	-66.7	3.8	7.45e-01	0	47	104	0	86	10445
2026-01-16 04:04:41.31	45.06	8.78	-57.8	-66.6	3.8	7.47e-01	0	47	104	0	86	10374
2026-01-16 04:04:43.33	44.62	8.88	-57.8	-66.7	3.8	7.44e-01	0	47	104	0	86	10413
2026-01-16 04:04:45.35	44.18	8.97	-57.8	-66.6	3.8	7.45e-01	0	47	104	0	86	10386
2026-01-16 04:04:47.37	43.73	9.07	-57.8	-66.7	3.8	7.44e-01	0	47	104	0	86	10466
2026-01-16 04:04:49.39	43.29	9.16	-57.8	-66.6	3.8	7.46e-01	0	47	104	0	86	10383
2026-01-16 04:04:51.41	42.83	9.26	-57.8	-66.6	3.8	7.45e-01	0	47	104	0	86	10411
2026-01-16 04:04:53.43	42.38	9.35	-57.8	-66.7	3.8	7.46e-01	0	47	104	0	86	10432
2026-01-16 04:04:55.45	41.92	9.44	-57.8	-66.7	3.8	7.46e-01	0	47	104	0	86	10489
2026-01-16 04:04:57.47	41.46	9.54	-57.8	-66.8	3.8	7.45e-01	0	47	104	0	86	10540
2026-01-16 04:04:59.49	40.99	9.63	-57.8	-66.7	3.8	7.45e-01	0	47	104	0	86	10503
2026-01-16 04:05:01.51	40.52	9.72	-57.8	-66.7	3.8	7.46e-01	0	47	104	0	86	10484
2026-01-16 04:05:03.53	40.05	9.80	-57.9	-66.7	3.8	7.45e-01	0	47	104	0	86	10505
2026-01-16 04:05:05.55	39.57	9.89	-57.9	-66.7	3.8	7.43e-01	0	47	104	0	86	10532
2026-01-16 04:05:07.56	39.09	9.98	-57.9	-66.7	3.8	7.45e-01	0	48	104	0	86	10521
2026-01-16 04:05:09.58	38.61	10.06	-57.9	-66.8	3.8	7.45e-01	0	48	104	0	86	10545
2026-01-16 04:05:11.60	38.12	10.14	-57.9	-66.8	3.8	7.45e-01	0	47	104	0	86	10546
2026-01-16 04:05:13.62	37.63	10.23	-57.9	-66.8	3.8	7.46e-01	0	47	104	0	86	10564
2026-01-16 04:05:15.64	37.14	10.31	-57.9	-66.8	3.8	7.44e-01	0	47	104	0	86	10561
2026-01-16 04:05:17.66	36.64	10.39	-57.9	-66.8	3.8	7.44e-01	0	48	104	0	86	10553
2026-01-16 04:05:19.68	36.14	10.46	-57.9	-66.8	3.8	7.46e-01	0	48	104	0	86	10568
2026-01-16 04:05:21.70	35.63	10.54	-57.9	-66.8	3.8	7.45e-01	0	48	104	0	86	10558
2026-01-16 04:05:23.72	35.13	10.61	-57.9	-66.7	3.8	7.46e-01	0	48	104	0	86	10522
2026-01-16 04:05:25.74	34.61	10.69	-57.9	-66.8	3.8	7.44e-01	0	48	104	0	86	10539
2026-01-16 04:05:27.76	34.10	10.76	-57.9	-66.8	3.8	7.43e-01	0	48	104	0	86	10571
2026-01-16 04:05:29.77	33.59	10.83	-57.9	-66.8	3.8	7.46e-01	0	48	104	0	86	10591
2026-01-16 04:05:31.79	33.07	10.90	-57.9	-66.8	3.8	7.46e-01	0	48	104	0	86	10572
2026-01-16 04:05:33.81	32.54	10.96	-57.9	-66.8	3.8	7.46e-01	0	48	104	0	86	10592
2026-01-16 04:05:35.83	32.02	11.03	-57.9	-66.8	3.8	7.46e-01	0	48	104	0	86	10591
2026-01-16 04:05:37.85	31.49	11.09	-57.9	-66.8	3.8	7.47e-01	0	48	104	0	86	10645
2026-01-16 04:05:39.87	30.96	11.15	-57.9	-66.8	3.8	7.46e-01	0	48	104	0	86	10610
2026-01-16 04:05:41.89	30.42	11.21	-57.9	-66.8	3.8	7.45e-01	0	48	104	0	86	10646
2026-01-16 04:05:43.91	29.89	11.27	-57.9	-66.8	3.8	7.45e-01	0	48	104	0	86	10597
2026-01-16 04:05:45.93	29.35	11.33	-58.0	-66.8	3.8	7.46e-01	0	48	104	0	86	10644
2026-01-16 04:05:47.95	28.81	11.38	-57.9	-66.8	3.8	7.45e-01	0	48	104	0	86	10636
2026-01-16 04:05:49.97	28.26	11.43	-58.0	-66.8	3.8	7.44e-01	0	48	104	0	86	10646
2026-01-16 04:05:51.98	27.72	11.48	-57.9	-66.8	3.8	7.45e-01	0	48	104	0	86	10617
2026-01-16 04:05:54.00	27.17	11.53	-58.0	-66.8	3.8	7.45e-01	0	48	104	0	86	10651
2026-01-16 04:05:56.02	26.62	11.57	-57.9	-66.9	3.8	7.44e-01	0	48	104	0	86	10672
2026-01-16 04:05:58.04	26.07	11.62	-58.0	-66.9	3.8	7.46e-01	0	48	104	0	86	10698
2026-01-16 04:06:00.06	25.51	11.66	-57.9	-66.9	3.8	7.45e-01	0	48	104	0	86	10660
2026-01-16 04:06:02.08	24.96	11.70	-58.0	-66.8	3.8	7.47e-01	0	48	104	0	86	10655
2026-01-16 04:06:04.10	24.40	11.74	-58.0	-66.8	3.8	7.45e-01	0	48	104	0	86	10649
2026-01-16 04:06:06.12	23.84	11.77	-58.0	-66.9	3.8	7.47e-01	0	48	104	0	86	10674
2026-01-16 04:06:08.14	23.28	11.80	-58.0	-66.8	3.8	7.45e-01	0	48	104	0	86	10641
2026-01-16 04:06:10.16	22.71	11.83	-58.0	-66.9	3.8	7.44e-01	0	48	104	0	86	10702
2026-01-16 04:06:12.18	22.15	11.86	-58.0	-66.9	3.8	7.45e-01	0	49	104	0	86	10701
2026-01-16 04:06:14.20	21.58	11.89	-58.0	-66.9	3.8	7.44e-01	0	48	104	0	86	10749
2026-01-16 04:06:16.22	21.02	11.91	-58.0	-66.9	3.8	7.46e-01	0	48	104	0	86	10693
2026-01-16 04:06:18.24	20.45	11.93	-58.0	-66.9	3.8	7.46e-01	0	48	104	0	86	10731
2026-01-16 04:06:20.25	19.88	11.95	-58.0	-66.9	3.8	7.45e-01	0	49	104	0	86	10700
2026-01-16 04:06:22.27	19.31	11.97	-58.0	-66.9	3.8	7.44e-01	0	48	104	0	86	10715
2026-01-16 04:06:24.29	18.74	11.98	-58.0	-66.9	3.8	7.45e-01	0	48	104	0	86	10723
2026-01-16 04:06:26.31	18.17	12.00	-58.0	-66.9	3.8	7.46e-01	0	48	104	0	86	10745
2026-01-16 04:06:28.33	17.60	12.01	-58.0	-66.9	3.8	7.43e-01	0	48	104	0	86	10725
2026-01-16 04:06:30.34	17.03	12.01	-58.0	-66.9	3.8	7.44e-01	0	48	104	0	86	10748
2026-01-16 04:06:32.36	16.46	12.02	-58.0	-66.9	3.8	7.48e-01	0	48	104	0	86	10724
2026-01-16 04:06:34.38	15.88	12.02	-58.0	-66.9	3.8	7.46e-01	0	48	104	0	86	10778
2026-01-16 04:06:36.40	15.31	12.02	-58.0	-66.9	3.8	7.47e-01	0	48	104	0	86	10708
2026-01-16 04:06:38.42	14.74	12.02	-58.1	-67.0	3.8	7.47e-01	0	49	104	0	86	10805
2026-01-16 04:06:40.44	14.17	12.01	-58.0	-66.9	3.8	7.46e-01	0	49	104	0	86	10724
2026-01-16 04:06:42.46	13.60	12.01	-58.1	-66.9	3.8	7.44e-01	0	49	104	0	86	10763
2026-01-16 04:06:44.47	13.03	12.00	-58.0	-66.9	3.8	7.47e-01	0	49	104	0	86	10720
2026-01-16 04:06:46.49	12.46	11.99	-58.1	-67.0	3.8	7.46e-01	0	49	104	0	86	10783
2026-01-16 04:06:48.51	11.89	11.97	-58.0	-66.9	3.8	7.45e-01	0	49	104	0	86	10712
2026-01-16 04:06:50.53	11.32	11.96	-58.1	-67.0	3.8	7.45e-01	0	49	104	0	86	10797
2026-01-16 04:06:52.55	10.75	11.94	-58.0	-66.9	3.8	7.44e-01	0	49	104	0	86	10705
2026-01-16 04:06:54.57	10.18	11.92	-58.1	-67.0	3.8	7.46e-01	0	49	104	0	86	10792
2026-01-16 04:06:56.59	9.61	11.89	-58.0	-66.9	3.8	7.48e-01	0	49	104	0	86	10731
2026-01-16 04:06:58.61	9.05	11.87	-58.1	-67.0	3.8	7.45e-01	0	49	104	0	86	10783
2026-01-16 04:07:00.63	8.48	11.84	-58.0	-66.9	3.8	7.47e-01	0	49	104	0	86	10735
2026-01-16 04:07:02.65	7.92	11.81	-58.1	-67.0	3.8	7.45e-01	0	49	104	0	86	10833
2026-01-16 04:07:04.67	7.36	11.78	-58.0	-66.9	3.8	7.46e-01	0	49	104	0	86	10724
2026-01-16 04:07:06.69	6.80	11.74	-58.1	-67.0	3.8	7.45e-01	0	49	104	0	86	10791
2026-01-16 04:07:08.71	6.24	11.71	-58.0	-66.9	3.8	7.44e-01	0	49	104	0	86	10728
2026-01-16 04:07:10.73	5.68	11.67	-58.1	-67.0	3.8	7.46e-01	0	49	104	0	86	10816
2026-01-16 04:07:12.75	5.13	11.63	-58.0	-66.9	3.8	7.46e-01	0	49	104	0	86	10750
2026-01-16 04:07:14.76	4.58	11.58	-58.1	-66.9	3.8	7.45e-01	0	49	104	0	86	10765
2026-01-16 04:07:16.78	4.03	11.54	-58.0	-66.9	3.8	7.45e-01	0	49	104	0	86	10691
2026-01-16 04:07:18.80	3.48	11.49	-58.1	-66.9	3.8	7.46e-01	0	49	104	0	86	10774
2026-01-16 04:07:20.82	2.93	11.44	-58.0	-66.9	3.8	7.45e-01	0	49	104	0	86	10720
2026-01-16 04:07:22.84	2.39	11.39	-58.1	-67.0	3.8	7.46e-01	0	49	104	0	86	10785
2026-01-16 04:07:24.86	1.84	11.34	-58.0	-66.9	3.8	7.45e-01	0	49	104	0	86	10687
2026-01-16 04:07:26.89	1.30	11.28	-58.0	-66.9	3.8	7.46e-01	0	49	104	0	86	10744
2026-01-16 04:07:28.90	0.77	11.22	-58.0	-66.9	3.8	7.44e-01	0	49	104	0	86	10666
2026-01-16 04:07:30.92	0.23	11.17	-58.0	-66.9	3.8	7.45e-01	0	49	104	0	86	10705
2026-01-16 04:07:32.94	359.70	11.10	-58.0	-66.9	3.8	7.48e-01	0	49	104	0	86	10671
2026-01-16 04:07:34.96	359.18	11.04	-58.0	-66.9	3.8	7.45e-01	0	49	104	0	86	10731
2026-01-16 04:07:36.98	358.65	10.98	-58.0	-66.8	3.8	7.44e-01	0	49	104	0	86	10650
2026-01-16 04:07:39.00	358.13	10.91	-58.0	-66.9	3.8	7.46e-01	0	49	104	0	86	10716
2026-01-16 04:07:41.02	357.61	10.84	-58.0	-66.8	3.8	7.45e-01	0	49	104	0	86	10623
2026-01-16 04:07:43.03	357.09	10.77	-58.0	-66.9	3.8	7.45e-01	0	49	104	0	86	10727
2026-01-16 04:07:45.05	356.58	10.70	-58.0	-66.9	3.8	7.46e-01	0	49	104	0	86	10660
2026-01-16 04:07:47.07	356.07	10.63	-58.0	-66.9	3.8	7.45e-01	0	49	104	0	86	10724
2026-01-16 04:07:49.09	355.56	10.56	-57.9	-66.8	3.8	7.46e-01	0	49	104	0	86	10632
2026-01-16 04:07:51.11	355.06	10.48	-58.0	-66.9	3.8	7.45e-01	0	49	104	0	86	10719
2026-01-16 04:07:53.13	354.56	10.40	-57.9	-66.8	3.8	7.44e-01	0	49	104	0	86	10609
2026-01-16 04:07:55.15	354.06	10.32	-58.0	-66.9	3.8	7.46e-01	0	49	104	0	86	10720
2026-01-16 04:07:57.17	353.56	10.24	-57.9	-66.8	3.8	7.45e-01	0	49	104	0	86	10584
2026-01-16 04:07:59.19	353.07	10.16	-58.0	-66.9	3.8	7.45e-01	0	49	104	0	86	10691
2026-01-16 04:08:01.21	352.58	10.08	-57.9	-66.8	3.8	7.46e-01	0	49	104	0	86	10611
2026-01-16 04:08:03.22	352.10	10.00	-58.0	-66.8	3.8	7.46e-01	0	49	104	0	86	10624
2026-01-16 04:08:05.24	351.62	9.91	-57.9	-66.8	3.8	7.46e-01	0	49	104	0	86	10571
2026-01-16 04:08:07.26	351.15	9.82	-57.9	-66.8	3.8	7.45e-01	0	49	104	0	86	10602
2026-01-16 04:08:09.28	350.67	9.74	-57.9	-66.8	3.8	7.46e-01	0	49	104	0	86	10586
2026-01-16 04:08:11.30	350.20	9.65	-57.9	-66.8	3.8	7.45e-01	0	49	104	0	86	10598
2026-01-16 04:08:13.32	349.74	9.56	-57.9	-66.8	3.8	7.44e-01	0	49	104	0	86	10568
2026-01-16 04:08:15.33	349.28	9.47	-57.9	-66.8	3.8	7.47e-01	0	49	104	0	86	10590
2026-01-16 04:08:17.36	348.81	9.37	-57.9	-66.7	3.8	7.47e-01	0	49	104	0	86	10533
2026-01-16 04:08:19.37	348.36	9.28	-57.9	-66.8	3.8	7.45e-01	0	49	104	0	86	10578
2026-01-16 04:08:21.39	347.91	9.19	-57.9	-66.7	3.8	7.46e-01	0	50	104	0	86	10520
2026-01-16 04:08:23.41	347.46	9.09	-57.9	-66.8	3.8	7.45e-01	0	49	104	0	86	10546
2026-01-16 04:08:25.43	347.02	8.99	-57.8	-66.7	3.8	7.43e-01	0	49	104	0	86	10505
2026-01-16 04:08:27.44	346.58	8.90	-57.8	-66.7	3.8	7.45e-01	0	50	104	0	86	10509
2026-01-16 04:08:29.46	346.14	8.80	-57.8	-66.7	3.8	7.44e-01	0	50	104	0	86	10486
2026-01-16 04:08:31.48	345.71	8.70	-57.8	-66.7	3.8	7.46e-01	0	49	104	0	86	10486
2026-01-16 04:08:33.50	345.28	8.60	-57.8	-66.7	3.8	7.45e-01	0	50	104	0	86	10433
2026-01-16 04:08:35.52	344.85	8.50	-57.8	-66.7	3.8	7.45e-01	0	50	104	0	86	10463
2026-01-16 04:08:37.53	344.43	8.40	-57.8	-66.7	3.8	7.46e-01	0	50	104	0	86	10432
2026-01-16 04:08:39.56	344.01	8.30	-57.8	-66.6	3.8	7.45e-01	0	50	104	0	86	10404
2026-01-16 04:08:41.58	343.60	8.20	-57.8	-66.6	3.8	7.44e-01	0	50	104	0	86	10405
2026-01-16 04:08:43.60	343.19	8.10	-57.8	-66.6	3.8	7.46e-01	0	50	104	0	86	10395
2026-01-16 04:08:45.62	342.78	7.99	-57.8	-66.6	3.8	7.44e-01	0	50	104	0	86	10362
2026-01-16 04:08:47.63	342.38	7.89	-57.7	-66.6	3.8	7.44e-01	0	50	104	0	86	10342
2026-01-16 04:08:49.65	341.98	7.78	-57.7	-66.6	3.8	7.45e-01	0	50	104	0	86	10387
2026-01-16 04:08:51.67	341.58	7.68	-57.7	-66.5	3.8	7.46e-01	0	49	104	0	86	10265
2026-01-16 04:08:53.69	341.19	7.57	-57.7	-66.6	3.8	7.45e-01	0	50	104	0	86	10344
2026-01-16 04:08:55.71	340.80	7.47	-57.6	-66.5	3.8	7.46e-01	0	50	104	0	86	10259
2026-01-16 04:08:57.73	340.41	7.36	-57.7	-66.6	3.8	7.44e-01	0	50	104	0	86	10324
2026-01-16 04:08:59.75	340.03	7.26	-57.6	-66.5	3.8	7.44e-01	0	50	104	0	86	10232
2026-01-16 04:09:01.77	339.65	7.15	-57.7	-66.5	3.8	7.44e-01	0	50	104	0	86	10276
2026-01-16 04:09:03.78	339.28	7.04	-57.6	-66.4	3.8	7.45e-01	0	50	104	0	86	10168
2026-01-16 04:09:05.80	338.91	6.93	-57.6	-66.5	3.8	7.44e-01	0	50	104	0	86	10257
2026-01-16 04:09:07.82	338.54	6.82	-57.5	-66.4	3.8	7.44e-01	0	50	104	0	86	10140
2026-01-16 04:09:09.84	338.17	6.72	-57.6	-66.5	3.8	7.45e-01	0	50	104	0	86	10224
2026-01-16 04:09:11.86	337.81	6.61	-57.5	-66.3	3.8	7.46e-01	0	50	104	0	86	10048
2026-01-16 04:09:13.88	337.45	6.50	-57.6	-66.5	3.8	7.44e-01	0	50	104	0	86	10183
2026-01-16 04:09:15.89	337.10	6.39	-57.4	-66.4	3.8	7.46e-01	0	50	104	0	86	10060
2026-01-16 04:09:17.91	336.75	6.28	-56.9	-66.4	3.8	7.45e-01	0	50	104	0	84	11329
2026-01-16 04:09:19.93	336.40	6.17	-56.3	-66.2	3.8	7.45e-01	0	50	104	0	84	11137
2026-01-16 04:09:21.95	336.06	6.06	-57.2	-66.3	3.8	7.43e-01	0	50	104	0	85	10654
2026-01-16 04:09:23.97	335.72	5.95	-57.2	-66.1	3.8	7.46e-01	0	50	104	0	85	10328
2026-01-16 04:09:25.99	335.38	5.84	-57.3	-66.2	3.8	7.44e-01	0	50	104	0	85	10473
2026-01-16 04:09:28.01	335.05	5.73	-56.5	-65.4	3.8	7.47e-01	0	50	104	0	85	9538
2026-01-16 04:09:30.03	334.72	5.62	-55.8	-64.7	3.8	7.45e-01	0	50	104	0	83	9915
2026-01-16 04:09:32.04	334.39	5.51	-55.9	-64.8	3.8	7.46e-01	0	50	104	0	83	9988
2026-01-16 04:09:34.06	334.07	5.40	-57.4	-66.3	3.8	7.46e-01	0	50	104	0	85	10623
2026-01-16 04:09:36.08	333.74	5.29	-56.7	-65.6	3.8	7.45e-01	0	50	104	0	85	9718
2026-01-16 04:09:38.10	333.43	5.18	-57.1	-66.0	3.8	7.48e-01	0	50	104	0	85	10256
2026-01-16 04:09:40.12	333.11	5.07	-57.2	-66.0	3.8	7.46e-01	0	50	104	0	85	10290
2026-01-16 04:09:42.14	332.80	4.96	-57.1	-66.0	3.8	7.46e-01	0	50	104	0	85	10252
2026-01-16 04:09:44.16	332.49	4.84	-58.2	-67.1	3.8	7.44e-01	0	50	104	0	86	10967
2026-01-16 04:09:46.18	332.19	4.73	-58.5	-67.4	3.8	7.45e-01	0	50	104	0	87	10748
2026-01-16 04:09:48.20	331.88	4.62	-58.7	-67.6	3.8	7.44e-01	0	50	104	0	88	10392
2026-01-16 04:09:50.22	331.58	4.51	-58.9	-67.9	3.8	7.46e-01	0	50	104	0	88	10668
2026-01-16 04:09:52.24	331.29	4.40	-59.0	-68.0	3.8	7.47e-01	0	50	104	0	88	10800
2026-01-16 04:09:54.26	330.99	4.29	-59.1	-68.0	3.8	7.46e-01	0	50	104	0	88	10867
2026-01-16 04:09:56.28	330.70	4.18	-59.2	-68.1	3.8	7.45e-01	0	50	104	0	88	10961
2026-01-16 04:09:58.30	330.41	4.07	-59.2	-68.1	3.8	7.46e-01	0	50	104	0	88	10937
2026-01-16 04:10:00.32	330.13	3.96	-59.2	-68.1	3.8	7.46e-01	0	50	104	0	88	10972
2026-01-16 04:10:02.34	329.84	3.85	-59.2	-68.1	3.8	7.46e-01	0	50	104	0	88	10958
2026-01-16 04:10:04.36	329.57	3.73	-59.1	-68.1	3.8	7.46e-01	0	50	104	0	88	10955
2026-01-16 04:10:06.38	329.29	3.62	-59.1	-68.0	3.8	7.44e-01	0	50	104	0	88	10874
2026-01-16 04:10:08.40	329.01	3.51	-59.1	-68.0	3.8	7.45e-01	0	50	104	0	88	10885
2026-01-16 04:10:10.42	328.74	3.40	-59.1	-68.0	3.8	7.45e-01	0	50	104	0	88	10840
2026-01-16 04:10:12.44	328.47	3.29	-59.1	-68.0	3.8	7.45e-01	0	50	104	0	88	10816
2026-01-16 04:10:14.46	328.21	3.18	-59.0	-68.0	3.8	7.45e-01	0	50	104	0	88	10821
2026-01-16 04:10:16.48	327.94	3.07	-59.0	-68.0	3.8	7.44e-01	0	50	104	0	88	10795
2026-01-16 04:10:18.50	327.68	2.96	-59.0	-67.9	3.8	7.46e-01	0	50	104	0	88	10778
2026-01-16 04:10:20.52	327.42	2.85	-59.0	-67.9	3.8	7.45e-01	0	50	104	0	88	10742
2026-01-16 04:10:22.54	327.17	2.74	-59.0	-67.9	3.8	7.46e-01	0	50	104	0	88	10768
2026-01-16 04:10:24.56	326.92	2.63	-59.0	-67.9	3.8	7.44e-01	0	50	104	0	88	10746
2026-01-16 04:10:26.58	326.66	2.52	-59.0	-67.9	3.8	7.43e-01	0	50	104	0	88	10659
2026-01-16 04:10:28.60	326.42	2.41	-59.0	-67.9	3.8	7.44e-01	0	50	104	0	88	10692
2026-01-16 04:10:30.62	326.17	2.31	-59.0	-67.9	3.8	7.45e-01	0	50	104	0	88	10690
2026-01-16 04:10:32.64	325.93	2.20	-59.0	-67.9	3.8	7.46e-01	0	50	104	0	88	10723
2026-01-16 04:10:34.66	325.69	2.09	-59.0	-67.9	3.8	7.46e-01	0	50	104	0	88	10714
2026-01-16 04:10:36.68	325.45	1.98	-59.0	-67.9	3.8	7.45e-01	0	50	104	0	88	10680

#Closed at: 2026-01-16 04:10:37
#Recorded file [0 MB]: D:/lorett/data/31041_260116_070235.dat