passes_logs/2026/01/16/R3.2S_Murmansk/R3.2S_Murmansk__20260116_015130_FENGYUN_3D_rec.log

#Pass ID: 20260116_015130_FENGYUN 3D
#Satellite: FENGYUN 3D
#Configuration: FENGYUN 3D
#almurnet v.1.7.20251203
#Start time: 2026-01-16 01:51:29

#Version: 2.2.20231116
#Station: R3.2S_Murmansk
#Location: 33.079688 lon 68.888172 lat
#TLE: 1 43010U 17072A   26015.49690188 -.00000192  00000+0 -69217-4 0  9996
#TLE: 2 43010  98.9932 347.3205 0002350 106.2275 253.9159 14.19694721423329

#Time	Az	El	Level	Level2	SNR	BER	BlckErr	Temp	State	Recorded	gain1	gain2
2026-01-16 01:51:29.85	22.15	1.96	-56.3	-67.1	3.8	8.42e-01	0	41	0	0	84	12374
2026-01-16 01:51:33.88	22.27	2.21	-56.1	-65.5	4.0	8.41e-01	0	41	104	0	83	10859
2026-01-16 01:51:37.92	22.39	2.46	-56.1	-65.8	4.0	8.39e-01	0	42	0	0	83	11230
2026-01-16 01:51:41.96	22.51	2.72	-55.4	-61.7	5.7	7.63e-01	0	42	0	0	82	7433
2026-01-16 01:51:46.00	22.64	2.98	-55.2	-61.0	6.1	2.20e-01	0	42	0	15728640	81	7274
2026-01-16 01:51:50.03	22.76	3.24	-54.4	-58.7	8.3	3.52e-02	0	42	0	37748736	79	6260
2026-01-16 01:51:54.08	22.89	3.51	-52.6	-55.2	12.0	4.22e-04	0	42	0	60817408	75	5260
2026-01-16 01:51:58.12	23.02	3.77	-50.1	-51.7	15.6	0.00e+00	0	43	0	83886080	72	4177
2026-01-16 01:52:02.16	23.16	4.04	-49.4	-50.9	16.5	0.00e+00	0	43	0	106954752	69	4502
2026-01-16 01:52:06.20	23.29	4.31	-48.8	-50.1	17.3	0.00e+00	0	43	0	128974848	69	4119
2026-01-16 01:52:10.25	23.43	4.59	-51.8	-54.0	13.3	2.74e-05	0	43	0	152043520	74	4862
2026-01-16 01:52:14.29	23.57	4.86	-53.8	-57.4	9.8	1.27e-02	0	43	0	175112192	78	5688
2026-01-16 01:52:18.33	23.71	5.14	-55.0	-60.4	6.7	1.47e-01	0	44	0	197132288	80	7182
2026-01-16 01:52:22.37	23.85	5.43	-55.0	-60.0	7.1	6.53e-01	0	44	0	213909504	82	6089
2026-01-16 01:52:26.41	24.00	5.71	-50.2	-51.7	16.2	0.00e+00	0	44	0	236978176	70	4659
2026-01-16 01:52:30.45	24.15	6.00	-49.4	-50.7	17.1	0.00e+00	0	44	0	258998272	70	4193
2026-01-16 01:52:34.49	24.30	6.29	-49.3	-50.6	17.3	0.00e+00	0	44	0	282066944	69	4369
2026-01-16 01:52:38.53	24.45	6.59	-48.1	-49.2	18.7	0.00e+00	0	44	0	305135616	68	3955
2026-01-16 01:52:42.57	24.61	6.88	-47.5	-48.5	19.3	0.00e+00	0	44	0	328204288	66	4081
2026-01-16 01:52:46.61	24.77	7.19	-47.5	-48.5	19.4	0.00e+00	0	45	0	350224384	66	4092
2026-01-16 01:52:50.66	24.94	7.49	-47.2	-48.2	19.7	0.00e+00	0	45	0	373293056	66	3935
2026-01-16 01:52:54.70	25.10	7.80	-46.9	-47.8	20.1	0.00e+00	0	45	0	396361728	65	3994
2026-01-16 01:52:58.74	25.27	8.11	-46.8	-47.7	20.3	0.00e+00	0	45	0	418381824	65	3937
2026-01-16 01:53:02.78	25.44	8.43	-46.8	-47.7	20.3	0.00e+00	0	45	0	441450496	65	3949
2026-01-16 01:53:06.81	25.62	8.75	-46.7	-47.6	20.4	0.00e+00	0	45	0	463470592	65	3894
2026-01-16 01:53:10.85	25.80	9.07	-46.8	-47.8	20.3	0.00e+00	0	45	0	486539264	65	3967
2026-01-16 01:53:14.89	25.98	9.40	-47.1	-48.0	20.1	0.00e+00	0	45	0	509607936	65	4087
2026-01-16 01:53:18.93	26.17	9.73	-46.8	-47.8	20.3	0.00e+00	0	46	0	531628032	65	3980
2026-01-16 01:53:22.97	26.36	10.07	-46.7	-47.6	20.5	0.00e+00	0	46	0	554696704	65	3893
2026-01-16 01:53:27.02	26.55	10.41	-46.5	-47.5	20.7	0.00e+00	0	46	0	577765376	64	4061
2026-01-16 01:53:31.05	26.75	10.75	-46.6	-47.5	20.6	0.00e+00	0	46	0	600834048	64	4078
2026-01-16 01:53:35.09	26.95	11.10	-46.2	-47.1	21.1	0.00e+00	0	46	0	622854144	64	3871
2026-01-16 01:53:39.13	27.16	11.45	-46.1	-47.0	21.2	0.00e+00	0	46	0	645922816	64	3832
2026-01-16 01:53:43.18	27.38	11.81	-46.1	-47.0	21.2	0.00e+00	0	46	0	668991488	64	3846
2026-01-16 01:53:47.21	27.59	12.18	-46.2	-47.1	21.2	0.00e+00	0	46	0	691011584	64	3883
2026-01-16 01:53:51.26	27.81	12.55	-46.2	-47.1	21.1	0.00e+00	0	46	0	714080256	64	3904
2026-01-16 01:53:55.30	28.04	12.92	-46.3	-47.2	21.0	0.00e+00	0	46	0	737148928	64	3950
2026-01-16 01:53:59.34	28.27	13.30	-46.1	-47.0	21.3	0.00e+00	0	47	0	759169024	64	3836
2026-01-16 01:54:03.38	28.51	13.69	-46.2	-47.0	21.3	0.00e+00	0	46	0	782237696	64	3862
2026-01-16 01:54:07.42	28.76	14.08	-46.0	-46.8	21.6	0.00e+00	0	47	0	805306368	63	3990
2026-01-16 01:54:11.46	29.01	14.48	-46.1	-47.0	21.4	0.00e+00	0	47	0	828375040	63	4071
2026-01-16 01:54:15.50	29.26	14.88	-46.0	-46.8	21.6	0.00e+00	0	47	0	850395136	63	4003
2026-01-16 01:54:19.54	29.53	15.29	-45.8	-46.6	21.8	0.00e+00	0	47	0	872415232	63	3905
2026-01-16 01:54:23.58	29.80	15.71	-45.5	-46.3	22.1	0.00e+00	0	47	0	895483904	63	3770
2026-01-16 01:54:27.62	30.07	16.13	-45.4	-46.2	22.2	0.00e+00	0	47	0	918552576	62	3948
2026-01-16 01:54:31.66	30.36	16.56	-45.3	-46.1	22.3	0.00e+00	0	47	0	941621248	62	3897
2026-01-16 01:54:35.69	30.65	17.00	-45.0	-45.8	22.7	0.00e+00	0	47	0	963641344	62	3745
2026-01-16 01:54:39.73	30.95	17.45	-44.8	-45.6	22.8	0.00e+00	0	47	0	986710016	61	3880
2026-01-16 01:54:43.77	31.26	17.90	-44.3	-45.1	23.3	0.00e+00	0	47	0	1009778688	60	3886
2026-01-16 01:54:47.81	31.58	18.36	-44.5	-45.3	23.2	0.00e+00	0	47	0	1031798784	60	3970
2026-01-16 01:54:51.85	31.91	18.83	-44.8	-45.6	22.9	0.00e+00	0	47	0	1054867456	60	4107
2026-01-16 01:54:55.89	32.24	19.30	-44.6	-45.4	23.1	0.00e+00	0	47	0	1077936128	60	4011
2026-01-16 01:54:59.92	32.59	19.79	-44.6	-45.4	23.1	0.00e+00	0	47	0	1099956224	60	4024
2026-01-16 01:55:03.96	32.95	20.28	-44.5	-45.3	23.2	0.00e+00	0	47	0	1123024896	60	3992
2026-01-16 01:55:08.00	33.32	20.78	-44.2	-45.0	23.5	0.00e+00	0	47	0	1146093568	60	3834
2026-01-16 01:55:12.04	33.70	21.29	-44.1	-44.8	23.7	0.00e+00	0	47	0	1168113664	60	3765
2026-01-16 01:55:16.08	34.09	21.81	-44.4	-45.2	23.5	0.00e+00	0	47	0	1191182336	59	4149
2026-01-16 01:55:20.12	34.50	22.34	-44.4	-45.2	23.5	0.00e+00	0	47	0	1214251008	59	4151
2026-01-16 01:55:24.16	34.92	22.88	-44.4	-45.2	23.5	0.00e+00	0	47	0	1237319680	59	4180
2026-01-16 01:55:28.19	35.35	23.43	-44.3	-45.1	23.6	0.00e+00	0	48	0	1259339776	59	4131
2026-01-16 01:55:32.24	35.80	23.99	-44.2	-45.0	23.7	0.00e+00	0	48	0	1281359872	59	4053
2026-01-16 01:55:36.28	36.26	24.57	-44.1	-44.9	23.8	0.00e+00	0	48	0	1304428544	59	4009
2026-01-16 01:55:40.32	36.74	25.15	-43.9	-44.7	24.0	0.00e+00	0	48	0	1327497216	59	3919
2026-01-16 01:55:44.36	37.24	25.74	-43.9	-44.7	24.0	0.00e+00	0	47	0	1350565888	59	3940
2026-01-16 01:55:48.40	37.76	26.34	-43.9	-44.6	24.1	0.00e+00	0	48	0	1372585984	59	3894
2026-01-16 01:55:52.44	38.30	26.96	-43.7	-44.4	24.3	0.00e+00	0	47	0	1395654656	59	3798
2026-01-16 01:55:56.49	38.85	27.59	-43.8	-44.5	24.2	0.00e+00	0	48	0	1418723328	59	3859
2026-01-16 01:56:00.52	39.43	28.23	-43.7	-44.4	24.3	0.00e+00	0	48	0	1440743424	59	3824
2026-01-16 01:56:04.57	40.04	28.88	-43.6	-44.3	24.4	0.00e+00	0	48	0	1463812096	58	3991
2026-01-16 01:56:08.61	40.66	29.54	-43.5	-44.2	24.5	0.00e+00	0	48	0	1486880768	58	3940
2026-01-16 01:56:12.64	41.31	30.21	-43.9	-44.6	24.1	0.00e+00	0	48	0	1508900864	58	4125
2026-01-16 01:56:16.68	41.99	30.90	-43.6	-44.4	24.4	0.00e+00	0	48	0	1531969536	58	4007
2026-01-16 01:56:20.72	42.70	31.60	-43.6	-44.3	24.4	0.00e+00	0	48	0	1555038208	58	3983
2026-01-16 01:56:24.76	43.44	32.31	-43.7	-44.4	24.3	0.00e+00	0	48	0	1578106880	58	4041
2026-01-16 01:56:28.80	44.21	33.04	-43.4	-44.1	24.6	0.00e+00	0	48	0	1600126976	58	3892
2026-01-16 01:56:32.84	45.02	33.77	-43.3	-44.0	24.8	0.00e+00	0	48	0	1623195648	58	3831
2026-01-16 01:56:36.88	45.86	34.52	-43.4	-44.1	24.7	0.00e+00	0	48	0	1646264320	58	3890
2026-01-16 01:56:40.92	46.74	35.28	-42.9	-43.6	25.1	0.00e+00	0	48	0	1668284416	57	3879
2026-01-16 01:56:44.96	47.66	36.05	-43.3	-44.0	24.7	0.00e+00	0	48	0	1691353088	57	4080
2026-01-16 01:56:49.00	48.63	36.82	-43.1	-43.8	24.9	0.00e+00	0	48	0	1713373184	57	3985
2026-01-16 01:56:53.05	49.65	37.62	-42.7	-43.4	25.3	0.00e+00	0	48	0	1736441856	57	3787
2026-01-16 01:56:57.09	50.71	38.41	-43.4	-44.1	24.7	0.00e+00	0	48	0	1759510528	57	4120
2026-01-16 01:57:01.12	51.83	39.22	-43.3	-44.0	24.7	0.00e+00	0	48	0	1781530624	57	4078
2026-01-16 01:57:05.16	53.00	40.03	-43.3	-44.0	24.8	0.00e+00	0	48	0	1804599296	57	4093
2026-01-16 01:57:09.20	54.23	40.85	-43.1	-43.8	25.0	0.00e+00	0	48	0	1827667968	57	3972
2026-01-16 01:57:13.24	55.53	41.67	-43.4	-44.1	24.7	0.00e+00	0	48	0	1849688064	57	4118
2026-01-16 01:57:17.28	56.89	42.49	-43.7	-44.4	24.4	0.00e+00	0	48	0	1872756736	58	4037
2026-01-16 01:57:21.32	58.32	43.31	-43.4	-44.2	24.7	0.00e+00	0	48	0	1895825408	58	3920
2026-01-16 01:57:25.36	59.83	44.13	-43.6	-44.3	24.5	0.00e+00	0	48	0	1918894080	58	3988
2026-01-16 01:57:29.40	61.41	44.95	-43.8	-44.5	24.4	0.00e+00	0	48	0	1940914176	58	4072
2026-01-16 01:57:33.44	63.08	45.75	-43.6	-44.3	24.5	0.00e+00	0	48	0	1963982848	58	4000
2026-01-16 01:57:37.48	64.83	46.55	-43.7	-44.4	24.5	0.00e+00	0	48	0	1987051520	58	4023
2026-01-16 01:57:41.52	66.67	47.33	-43.8	-44.6	24.3	0.00e+00	0	48	0	2009071616	58	4113
2026-01-16 01:57:45.56	68.61	48.09	-43.9	-44.6	24.3	0.00e+00	0	48	0	2032140288	58	4136
2026-01-16 01:57:49.60	70.64	48.83	-43.3	-44.0	24.9	0.00e+00	0	48	0	2055208960	58	3827
2026-01-16 01:57:53.64	72.76	49.54	-43.8	-44.5	24.4	0.00e+00	0	48	0	2077229056	58	4078
2026-01-16 01:57:57.68	74.99	50.22	-43.9	-44.7	24.3	0.00e+00	0	48	0	2100297728	58	4157
2026-01-16 01:58:01.71	77.31	50.85	-44.1	-44.8	24.2	0.00e+00	0	48	0	2122317824	58	4212
2026-01-16 01:58:05.75	79.73	51.45	-44.2	-44.9	24.0	0.00e+00	0	48	0	2145386496	58	4286
2026-01-16 01:58:09.80	82.25	52.01	-44.5	-45.2	23.7	0.00e+00	0	48	0	2168455168	59	4178
2026-01-16 01:58:13.84	84.85	52.51	-44.2	-44.9	24.1	0.00e+00	0	48	0	2190475264	59	4037
2026-01-16 01:58:17.87	87.54	52.95	-44.0	-44.7	24.2	0.00e+00	0	49	0	2213543936	59	3952
2026-01-16 01:58:21.92	90.31	53.33	-44.2	-44.9	24.1	0.00e+00	0	48	0	2236612608	59	4028
2026-01-16 01:58:25.95	93.13	53.64	-44.2	-45.0	24.0	0.00e+00	0	49	0	2259681280	59	4055
2026-01-16 01:58:29.99	96.02	53.88	-43.9	-44.6	24.4	0.00e+00	0	48	0	2281701376	59	3881
2026-01-16 01:58:34.03	98.95	54.06	-44.4	-45.1	23.8	0.00e+00	0	48	0	2304770048	60	3894
2026-01-16 01:58:38.07	101.91	54.15	-44.1	-44.8	24.0	0.00e+00	0	49	0	2327838720	60	3778
2026-01-16 01:58:42.11	104.88	54.18	-44.3	-45.0	23.8	0.00e+00	0	48	0	2349858816	60	3860
2026-01-16 01:58:46.15	107.84	54.12	-44.1	-44.8	24.0	0.00e+00	0	48	0	2372927488	60	3763
2026-01-16 01:58:50.19	110.79	53.99	-44.1	-44.8	24.1	0.00e+00	0	49	0	2395996160	59	4001
2026-01-16 01:58:54.23	113.70	53.79	-44.2	-44.9	24.0	0.00e+00	0	49	0	2418016256	59	4049
2026-01-16 01:58:58.27	116.57	53.52	-44.2	-44.9	24.0	0.00e+00	0	49	0	2441084928	59	4049
2026-01-16 01:59:02.31	119.38	53.17	-44.2	-45.0	23.9	0.00e+00	0	49	0	2464153600	60	3828
2026-01-16 01:59:06.35	122.12	52.77	-44.2	-45.0	24.0	0.00e+00	0	49	0	2487222272	59	4062
2026-01-16 01:59:10.40	124.78	52.30	-44.3	-45.0	23.9	0.00e+00	0	49	0	2509242368	59	4083
2026-01-16 01:59:14.44	127.35	51.77	-44.2	-44.9	24.0	0.00e+00	0	49	0	2531262464	59	4038
2026-01-16 01:59:18.48	129.83	51.20	-44.1	-44.8	24.1	0.00e+00	0	49	0	2554331136	59	3985
2026-01-16 01:59:22.52	132.21	50.58	-44.1	-44.9	24.1	0.00e+00	0	49	0	2577399808	59	4007
2026-01-16 01:59:26.56	134.50	49.92	-44.1	-44.9	24.0	0.00e+00	0	49	0	2600468480	59	4026
2026-01-16 01:59:30.61	136.69	49.23	-43.9	-44.7	24.2	0.00e+00	0	49	0	2622488576	59	3919
2026-01-16 01:59:34.65	138.78	48.50	-44.2	-44.9	24.0	0.00e+00	0	49	0	2645557248	59	4040
2026-01-16 01:59:38.69	140.77	47.75	-44.1	-44.9	24.1	0.00e+00	0	49	0	2668625920	59	4013
2026-01-16 01:59:42.73	142.67	46.98	-44.1	-44.8	24.1	0.00e+00	0	49	0	2690646016	59	3989
2026-01-16 01:59:46.77	144.47	46.19	-44.3	-45.1	23.9	0.00e+00	0	49	0	2713714688	59	4119
2026-01-16 01:59:50.82	146.19	45.38	-43.8	-44.6	24.4	0.00e+00	0	49	0	2736783360	59	3874
2026-01-16 01:59:54.86	147.83	44.57	-43.7	-44.4	24.5	0.00e+00	0	49	0	2759852032	59	3801
2026-01-16 01:59:58.90	149.38	43.75	-43.8	-44.6	24.3	0.00e+00	0	49	0	2781872128	58	4111
2026-01-16 02:00:02.94	150.86	42.93	-43.7	-44.4	24.5	0.00e+00	0	49	0	2804940800	58	4020
2026-01-16 02:00:06.98	152.26	42.10	-43.4	-44.2	24.6	0.00e+00	0	49	0	2828009472	58	3934
2026-01-16 02:00:11.02	153.59	41.27	-43.3	-44.0	24.8	0.00e+00	0	49	0	2850029568	58	3861
2026-01-16 02:00:15.06	154.86	40.45	-43.5	-44.3	24.6	0.00e+00	0	49	0	2873098240	58	3961
2026-01-16 02:00:19.10	156.07	39.63	-43.1	-43.8	24.9	0.00e+00	0	49	0	2896166912	58	3755
2026-01-16 02:00:23.13	157.22	38.82	-43.2	-43.9	24.8	0.00e+00	0	49	0	2918187008	58	3801
2026-01-16 02:00:27.17	158.31	38.02	-43.4	-44.2	24.6	0.00e+00	0	49	0	2941255680	58	3918
2026-01-16 02:00:31.21	159.35	37.22	-43.2	-43.9	24.9	0.00e+00	0	49	0	2963275776	58	3793
2026-01-16 02:00:35.25	160.35	36.43	-43.1	-43.8	25.0	0.00e+00	0	49	0	2986344448	58	3751
2026-01-16 02:00:39.29	161.30	35.65	-42.9	-43.7	24.7	0.00e+00	0	49	0	3009413120	57	3922
2026-01-16 02:00:43.34	162.21	34.88	-42.9	-43.6	24.6	0.00e+00	0	49	0	3031433216	57	3911
2026-01-16 02:00:47.38	163.07	34.13	-43.3	-44.0	24.3	0.00e+00	0	49	0	3054501888	57	4097
2026-01-16 02:00:51.42	163.90	33.38	-43.0	-43.7	24.6	0.00e+00	0	49	0	3077570560	57	3951
2026-01-16 02:00:55.45	164.69	32.65	-43.0	-43.7	24.5	0.00e+00	0	49	0	3100639232	57	3951
2026-01-16 02:00:59.49	165.44	31.93	-43.5	-44.3	24.0	0.00e+00	0	49	0	3122659328	57	4216
2026-01-16 02:01:03.53	166.17	31.22	-43.6	-44.4	23.9	0.00e+00	0	49	0	3145728000	57	4276
2026-01-16 02:01:07.58	166.87	30.52	-43.2	-44.0	24.3	0.00e+00	0	49	0	3168796672	57	4062
2026-01-16 02:01:11.62	167.53	29.84	-43.5	-44.2	24.1	0.00e+00	0	49	0	3190816768	57	4190
2026-01-16 02:01:15.66	168.18	29.17	-43.6	-44.4	23.9	0.00e+00	0	49	0	3213885440	57	4267
2026-01-16 02:01:19.70	168.79	28.51	-43.5	-44.3	24.0	0.00e+00	0	49	0	3236954112	57	4232
2026-01-16 02:01:23.74	169.38	27.86	-43.4	-44.2	24.1	0.00e+00	0	49	0	3258974208	57	4149
2026-01-16 02:01:27.78	169.95	27.22	-43.5	-44.2	24.1	0.00e+00	0	49	0	3282042880	57	4186
2026-01-16 02:01:31.82	170.50	26.60	-43.5	-44.3	24.0	0.00e+00	0	49	0	3305111552	57	4202
2026-01-16 02:01:35.86	171.03	25.98	-43.5	-44.2	24.0	0.00e+00	0	49	0	3328180224	57	4187
2026-01-16 02:01:39.91	171.54	25.38	-43.6	-44.4	23.9	0.00e+00	0	49	0	3350200320	57	4243
2026-01-16 02:01:43.95	172.03	24.79	-43.7	-44.5	23.8	0.00e+00	0	49	0	3372220416	58	4092
2026-01-16 02:01:47.98	172.50	24.21	-43.8	-44.6	23.7	0.00e+00	0	49	0	3395289088	58	4111
2026-01-16 02:01:52.02	172.95	23.64	-43.8	-44.6	23.7	0.00e+00	0	49	0	3418357760	58	4123
2026-01-16 02:01:56.06	173.40	23.09	-43.8	-44.6	23.7	0.00e+00	0	49	0	3441426432	58	4124
2026-01-16 02:02:00.10	173.82	22.54	-44.0	-44.8	23.5	0.00e+00	0	49	0	3463446528	58	4237
2026-01-16 02:02:04.14	174.23	22.00	-44.3	-45.2	23.2	0.00e+00	0	49	0	3486515200	59	4158
2026-01-16 02:02:08.18	174.63	21.47	-44.4	-45.2	23.1	0.00e+00	0	49	0	3509583872	59	4183
2026-01-16 02:02:12.22	175.02	20.95	-44.4	-45.2	23.1	0.00e+00	0	49	0	3531603968	59	4192
2026-01-16 02:02:16.26	175.39	20.45	-44.5	-45.3	23.0	0.00e+00	0	49	0	3554672640	59	4223
2026-01-16 02:02:20.30	175.76	19.95	-44.5	-45.3	23.0	0.00e+00	0	49	0	3577741312	59	4212
2026-01-16 02:02:24.34	176.11	19.45	-44.6	-45.4	22.9	0.00e+00	0	49	0	3599761408	59	4276
2026-01-16 02:02:28.38	176.45	18.97	-44.5	-45.3	22.8	0.00e+00	0	49	0	3622830080	60	3983
2026-01-16 02:02:32.43	176.78	18.50	-44.6	-45.4	22.7	0.00e+00	0	49	0	3645898752	60	4036
2026-01-16 02:02:36.47	177.10	18.03	-44.8	-45.7	22.5	0.00e+00	0	49	0	3668967424	60	4149
2026-01-16 02:02:40.51	177.42	17.57	-44.9	-45.8	22.4	0.00e+00	0	49	0	3690987520	60	4209
2026-01-16 02:02:44.55	177.72	17.12	-45.1	-46.0	22.2	0.00e+00	0	49	0	3714056192	60	4295
2026-01-16 02:02:48.59	178.01	16.68	-45.3	-46.2	22.0	0.00e+00	0	49	0	3737124864	61	4155
2026-01-16 02:02:52.63	178.30	16.24	-45.5	-46.4	21.8	0.00e+00	0	49	0	3759144960	61	4270
2026-01-16 02:02:56.67	178.58	15.81	-45.6	-46.5	21.7	0.00e+00	0	49	0	3782213632	61	4301
2026-01-16 02:03:00.70	178.85	15.39	-45.6	-46.5	21.7	0.00e+00	0	49	0	3804233728	61	4312
2026-01-16 02:03:04.74	179.12	14.98	-45.5	-46.4	21.7	0.00e+00	0	49	0	3827302400	61	4273
2026-01-16 02:03:08.78	179.38	14.57	-45.6	-46.5	21.7	0.00e+00	0	49	0	3850371072	61	4301
2026-01-16 02:03:12.82	179.63	14.17	-45.7	-46.6	21.5	0.00e+00	0	49	0	3872391168	62	4123
2026-01-16 02:03:16.86	179.87	13.77	-45.8	-46.7	21.4	0.00e+00	0	49	0	3895459840	62	4182
2026-01-16 02:03:20.89	180.11	13.38	-46.0	-46.9	21.2	0.00e+00	0	49	0	3918528512	62	4271
2026-01-16 02:03:24.93	180.35	13.00	-46.3	-47.3	20.9	0.00e+00	0	49	0	3940548608	63	4199
2026-01-16 02:03:28.97	180.57	12.62	-46.4	-47.4	20.8	0.00e+00	0	49	0	3963617280	63	4265
2026-01-16 02:03:33.00	180.80	12.24	-46.5	-47.5	20.6	0.00e+00	0	49	0	3986685952	63	4315
2026-01-16 02:03:37.04	181.01	11.88	-46.5	-47.5	20.7	0.00e+00	0	49	0	4008706048	63	4309
2026-01-16 02:03:41.09	181.23	11.51	-46.7	-47.7	20.4	0.00e+00	0	49	0	4031774720	64	4163
2026-01-16 02:03:45.12	181.44	11.15	-46.6	-47.6	20.5	0.00e+00	0	49	0	4054843392	64	4099
2026-01-16 02:03:49.17	181.64	10.80	-46.7	-47.7	20.3	0.00e+00	0	49	0	4077912064	64	4185
2026-01-16 02:03:53.21	181.84	10.45	-46.9	-47.9	20.1	0.00e+00	0	49	0	4099932160	64	4252
2026-01-16 02:03:57.24	182.03	10.11	-46.9	-48.0	20.0	0.00e+00	0	49	0	4123000832	64	4292
2026-01-16 02:04:01.28	182.22	9.77	-47.0	-48.0	19.9	0.00e+00	0	49	0	4146069504	64	4338
2026-01-16 02:04:05.32	182.41	9.43	-47.0	-48.0	19.9	0.00e+00	0	49	0	4168089600	64	4324
2026-01-16 02:04:09.36	182.59	9.10	-47.0	-48.0	19.9	0.00e+00	0	49	0	4191158272	64	4330
2026-01-16 02:04:13.40	182.77	8.78	-47.2	-48.3	19.6	0.00e+00	0	49	0	4213178368	64	4454
2026-01-16 02:04:17.44	182.95	8.45	-47.2	-48.3	19.6	0.00e+00	0	49	0	4236247040	65	4202
2026-01-16 02:04:21.48	183.12	8.13	-47.1	-48.1	19.8	0.00e+00	0	49	0	4259315712	65	4117
2026-01-16 02:04:25.52	183.29	7.82	-47.3	-48.4	19.4	0.00e+00	0	49	0	4281335808	65	4271
2026-01-16 02:04:29.55	183.45	7.51	-47.9	-49.0	18.8	0.00e+00	0	49	0	4304404480	66	4315
2026-01-16 02:04:33.59	183.61	7.20	-48.2	-49.4	18.4	0.00e+00	0	49	0	4327473152	66	4525
2026-01-16 02:04:37.63	183.77	6.90	-47.4	-48.5	19.3	0.00e+00	0	49	0	4349493248	66	4059
2026-01-16 02:04:41.68	183.93	6.59	-47.7	-48.8	18.9	0.00e+00	0	49	0	4372561920	66	4220
2026-01-16 02:04:45.71	184.08	6.30	-47.7	-48.9	18.8	0.00e+00	0	49	0	4395630592	67	4023
2026-01-16 02:04:49.75	184.23	6.00	-47.9	-49.0	18.6	0.00e+00	0	49	0	4417650688	67	4097
2026-01-16 02:04:53.79	184.38	5.71	-48.3	-49.5	18.1	0.00e+00	0	49	0	4440719360	67	4325
2026-01-16 02:04:57.83	184.52	5.42	-48.2	-49.4	18.2	0.00e+00	0	49	0	4463788032	67	4263
2026-01-16 02:05:01.87	184.66	5.14	-48.5	-49.7	17.8	0.00e+00	0	49	0	4486856704	67	4427
2026-01-16 02:05:05.91	184.80	4.86	-57.6	-69.6	3.8	8.46e-01	0	49	104	4497342464	85	15537
2026-01-16 02:05:09.96	184.94	4.58	-58.1	-70.1	3.8	8.45e-01	0	49	104	4497342464	86	15461
2026-01-16 02:05:14.00	185.08	4.30	-58.3	-70.3	3.8	8.47e-01	0	49	104	4497342464	87	14942
2026-01-16 02:05:18.03	185.21	4.03	-58.4	-70.4	3.8	8.47e-01	0	49	104	4497342464	87	15155
2026-01-16 02:05:22.08	185.34	3.76	-58.5	-70.5	3.8	8.44e-01	0	49	104	4497342464	87	15232
2026-01-16 02:05:26.11	185.47	3.49	-58.5	-70.5	3.8	8.47e-01	0	49	104	4497342464	87	15240
2026-01-16 02:05:30.15	185.60	3.22	-58.4	-70.4	3.8	8.46e-01	0	49	104	4497342464	87	15082
2026-01-16 02:05:34.19	185.72	2.96	-58.4	-70.3	3.8	8.46e-01	0	49	104	4497342464	87	15043
2026-01-16 02:05:38.23	185.84	2.70	-58.4	-70.3	3.8	8.45e-01	0	49	104	4497342464	87	15044
2026-01-16 02:05:42.27	185.96	2.44	-58.3	-70.3	3.8	8.46e-01	0	49	104	4497342464	87	15041
2026-01-16 02:05:46.31	186.08	2.18	-58.3	-70.3	3.8	8.47e-01	0	49	104	4497342464	87	15017
2026-01-16 02:05:50.35	186.20	1.93	-58.3	-70.3	3.8	8.47e-01	0	49	104	4497342464	87	15016

#Closed at: 2026-01-16 02:05:50
#Recorded file [4497 MB]: D:/lorett/data/31041_260116_045129.dat