passes_logs/2026/01/16/R3.2S_Murmansk/R3.2S_Murmansk__20260116_102216_TY-42_rec.log

#Pass ID: 20260116_102216_TY-42
#Satellite: TY-42
#Configuration: TY-42_900M
#almurnet v.1.7.20251203
#Start time: 2026-01-16 10:22:17

#Version: 2.2.20231116
#Station: R3.2S_Murmansk
#Location: 33.079688 lon 68.888172 lat
#TLE: 1 64048U 25103A   26016.24410880  .00008011  00000-0  38191-3 0 09990
#TLE: 2 64048 097.4123 091.6382 0001701 090.6906 049.3125 15.19172310 37002

#Time	Az	El	Level	Level2	SNR	BER	BlckErr	Temp	State	Recorded	gain1	gain2
2026-01-16 10:22:17.86	21.78	2.12	-53.9	-55.9	12.6	1.14e-04	0	44	0	0	78	4762
2026-01-16 10:22:20.88	21.66	2.32	-57.6	-59.3	6.2	0.00e+00	0	49	104	0	87	16882
2026-01-16 10:22:23.91	21.54	2.53	-57.7	-59.3	6.2	0.00e+00	0	50	104	0	87	16951
2026-01-16 10:22:26.93	21.42	2.74	-57.6	-59.3	6.2	0.00e+00	0	50	104	0	87	16878
2026-01-16 10:22:29.96	21.30	2.96	-57.6	-59.3	6.2	0.00e+00	0	50	104	0	87	16890
2026-01-16 10:22:32.99	21.17	3.17	-57.6	-59.4	6.2	0.00e+00	0	51	104	0	87	17000
2026-01-16 10:22:36.01	21.04	3.39	-57.6	-59.3	6.2	0.00e+00	0	51	104	0	87	16901
2026-01-16 10:22:39.04	20.91	3.61	-57.6	-59.3	6.2	0.00e+00	0	52	104	0	87	16847
2026-01-16 10:22:42.07	20.78	3.83	-57.6	-59.3	6.2	0.00e+00	0	52	104	0	87	16911
2026-01-16 10:22:45.09	20.64	4.06	-57.6	-59.3	6.2	0.00e+00	0	53	104	0	87	16843
2026-01-16 10:22:48.12	20.50	4.28	-57.6	-59.3	6.2	0.00e+00	0	53	104	0	87	16840
2026-01-16 10:22:51.15	20.36	4.51	-57.6	-59.3	6.2	0.00e+00	0	54	104	0	87	16832
2026-01-16 10:22:54.17	20.21	4.74	-57.6	-59.3	6.2	0.00e+00	0	54	104	0	87	16821
2026-01-16 10:22:57.20	20.06	4.98	-57.6	-59.3	6.2	0.00e+00	0	55	104	0	87	16837
2026-01-16 10:23:00.22	19.91	5.21	-57.7	-59.4	6.2	0.00e+00	0	55	104	0	87	17057
2026-01-16 10:23:03.25	19.75	5.45	-57.6	-59.3	6.2	0.00e+00	0	55	104	0	87	16849
2026-01-16 10:23:06.27	19.60	5.70	-57.8	-59.5	6.2	0.00e+00	0	56	104	0	87	17179
2026-01-16 10:23:09.30	19.43	5.94	-57.7	-59.3	6.2	0.00e+00	0	51	0	0	87	16889
2026-01-16 10:23:12.32	19.27	6.19	-57.7	-59.3	6.2	0.00e+00	0	51	0	0	87	16889
2026-01-16 10:23:15.34	19.09	6.44	-57.7	-59.3	6.2	0.00e+00	0	51	0	0	87	16889
2026-01-16 10:23:18.37	18.92	6.69	-57.7	-59.3	6.2	0.00e+00	0	50	0	0	87	16889
2026-01-16 10:23:21.39	18.74	6.95	-57.7	-59.3	6.2	0.00e+00	0	50	0	0	87	16889
2026-01-16 10:23:24.41	18.56	7.21	-57.7	-59.3	6.2	0.00e+00	0	50	0	0	87	16889
2026-01-16 10:23:27.44	18.37	7.47	-57.7	-59.3	6.2	0.00e+00	0	49	0	0	87	16889
2026-01-16 10:23:30.47	18.18	7.74	-57.7	-59.3	6.2	0.00e+00	0	49	0	0	87	16889
2026-01-16 10:23:33.49	17.98	8.01	-57.7	-59.3	6.2	0.00e+00	0	49	0	0	87	16889
2026-01-16 10:23:36.52	17.78	8.28	-57.7	-59.3	6.2	0.00e+00	0	48	0	0	87	16889
2026-01-16 10:23:39.54	17.57	8.56	-57.7	-59.3	6.2	0.00e+00	0	48	0	0	87	16889
2026-01-16 10:23:42.57	17.36	8.84	-57.7	-59.3	6.2	0.00e+00	0	48	0	0	87	16889
2026-01-16 10:23:45.59	17.15	9.12	-57.7	-59.3	6.2	0.00e+00	0	48	0	0	87	16889
2026-01-16 10:23:48.61	16.92	9.41	-57.7	-59.3	6.2	0.00e+00	0	47	0	0	87	16889
2026-01-16 10:23:51.64	16.69	9.70	-57.7	-59.3	6.2	0.00e+00	0	47	0	0	87	16889
2026-01-16 10:23:54.67	16.46	10.00	-57.7	-59.3	6.2	0.00e+00	0	47	0	0	87	16889
2026-01-16 10:23:57.69	16.22	10.30	-57.7	-59.3	6.2	0.00e+00	0	47	0	0	87	16889
2026-01-16 10:24:00.71	15.97	10.61	-57.7	-59.3	6.2	0.00e+00	0	46	0	0	87	16889
2026-01-16 10:24:03.74	15.72	10.92	-57.7	-59.3	6.2	0.00e+00	0	46	0	0	87	16889
2026-01-16 10:24:06.76	15.46	11.23	-57.7	-59.3	6.2	0.00e+00	0	46	0	0	87	16889
2026-01-16 10:24:09.79	15.19	11.55	-57.7	-59.3	6.2	0.00e+00	0	46	0	0	87	16889
2026-01-16 10:24:12.81	14.91	11.88	-57.7	-59.3	6.2	0.00e+00	0	45	0	0	87	16889
2026-01-16 10:24:15.84	14.63	12.21	-57.7	-59.3	6.2	0.00e+00	0	45	0	0	87	16889
2026-01-16 10:24:18.86	14.34	12.54	-57.7	-59.3	6.2	0.00e+00	0	45	0	0	87	16889
2026-01-16 10:24:21.89	14.04	12.89	-57.7	-59.3	6.2	0.00e+00	0	45	0	0	87	16889
2026-01-16 10:24:24.91	13.73	13.23	-57.7	-59.3	6.2	0.00e+00	0	45	0	0	87	16889
2026-01-16 10:24:27.94	13.41	13.59	-57.7	-59.3	6.2	0.00e+00	0	44	0	0	87	16889
2026-01-16 10:24:30.96	13.08	13.94	-57.7	-59.3	6.2	0.00e+00	0	44	0	0	87	16889
2026-01-16 10:24:33.98	12.75	14.31	-57.7	-59.3	6.2	0.00e+00	0	44	0	0	87	16889
2026-01-16 10:24:37.00	12.40	14.68	-57.7	-59.3	6.2	0.00e+00	0	44	0	0	87	16889
2026-01-16 10:24:40.03	12.04	15.06	-57.7	-59.3	6.2	0.00e+00	0	44	0	0	87	16889
2026-01-16 10:24:43.06	11.67	15.44	-57.7	-59.3	6.2	0.00e+00	0	44	0	0	87	16889
2026-01-16 10:24:46.09	11.28	15.83	-57.7	-59.3	6.2	0.00e+00	0	43	0	0	87	16889
2026-01-16 10:24:49.11	10.89	16.23	-57.7	-59.3	6.2	0.00e+00	0	43	0	0	87	16889
2026-01-16 10:24:52.14	10.48	16.63	-57.7	-59.3	6.2	0.00e+00	0	43	0	0	87	16889
2026-01-16 10:24:55.17	10.06	17.05	-57.7	-59.3	6.2	0.00e+00	0	43	0	0	87	16889
2026-01-16 10:24:58.19	9.63	17.47	-57.7	-59.3	6.2	0.00e+00	0	43	0	0	87	16889
2026-01-16 10:25:01.22	9.18	17.89	-57.7	-59.3	6.2	0.00e+00	0	43	0	0	87	16889
2026-01-16 10:25:04.24	8.71	18.33	-57.7	-59.3	6.2	0.00e+00	0	42	0	0	87	16889
2026-01-16 10:25:07.26	8.23	18.77	-57.7	-59.3	6.2	0.00e+00	0	42	0	0	87	16889
2026-01-16 10:25:10.29	7.73	19.22	-57.7	-59.3	6.2	0.00e+00	0	42	0	0	87	16889
2026-01-16 10:25:13.32	7.22	19.69	-57.7	-59.3	6.2	0.00e+00	0	42	0	0	87	16889
2026-01-16 10:25:16.35	6.68	20.16	-57.7	-59.3	6.2	0.00e+00	0	42	0	0	87	16889
2026-01-16 10:25:19.37	6.13	20.63	-57.7	-59.3	6.2	0.00e+00	0	42	0	0	87	16889
2026-01-16 10:25:22.40	5.55	21.12	-57.7	-59.3	6.2	0.00e+00	0	42	0	0	87	16889
2026-01-16 10:25:25.42	4.96	21.61	-57.7	-59.3	6.2	0.00e+00	0	42	0	0	87	16889
2026-01-16 10:25:28.44	4.34	22.12	-57.7	-59.3	6.2	0.00e+00	0	41	0	0	87	16889
2026-01-16 10:25:31.47	3.70	22.63	-57.7	-59.3	6.2	0.00e+00	0	41	0	0	87	16889
2026-01-16 10:25:34.49	3.03	23.15	-57.7	-59.3	6.2	0.00e+00	0	41	0	0	87	16889
2026-01-16 10:25:37.52	2.34	23.69	-57.7	-59.3	6.2	0.00e+00	0	41	0	0	87	16889
2026-01-16 10:25:40.54	1.62	24.23	-57.7	-59.3	6.2	0.00e+00	0	41	0	0	87	16889
2026-01-16 10:25:43.56	0.87	24.78	-57.7	-59.3	6.2	0.00e+00	0	41	0	0	87	16889
2026-01-16 10:25:46.59	0.09	25.34	-57.7	-59.3	6.2	0.00e+00	0	41	0	0	87	16889
2026-01-16 10:25:49.61	359.28	25.91	-57.7	-59.3	6.2	0.00e+00	0	41	0	0	87	16889
2026-01-16 10:25:52.64	358.44	26.49	-57.7	-59.3	6.2	0.00e+00	0	41	0	0	87	16889
2026-01-16 10:25:55.66	357.56	27.07	-57.7	-59.3	6.2	0.00e+00	0	41	0	0	87	16889
2026-01-16 10:25:58.68	356.65	27.67	-57.7	-59.3	6.2	0.00e+00	0	41	0	0	87	16889
2026-01-16 10:26:01.71	355.69	28.27	-57.7	-59.3	6.2	0.00e+00	0	40	0	0	87	16889
2026-01-16 10:26:04.74	354.69	28.88	-57.7	-59.3	6.2	0.00e+00	0	40	0	0	87	16889
2026-01-16 10:26:07.76	353.66	29.49	-57.7	-59.3	6.2	0.00e+00	0	40	0	0	87	16889
2026-01-16 10:26:10.79	352.57	30.12	-57.7	-59.3	6.2	0.00e+00	0	40	0	0	87	16889
2026-01-16 10:26:13.81	351.44	30.74	-57.7	-59.3	6.2	0.00e+00	0	40	0	0	87	16889
2026-01-16 10:26:16.84	350.26	31.37	-57.7	-59.3	6.2	0.00e+00	0	40	0	0	87	16889
2026-01-16 10:26:19.87	349.03	32.01	-57.7	-59.3	6.2	0.00e+00	0	40	0	0	87	16889
2026-01-16 10:26:22.89	347.75	32.64	-57.7	-59.3	6.2	0.00e+00	0	40	0	0	87	16889
2026-01-16 10:26:25.91	346.42	33.27	-57.7	-59.3	6.2	0.00e+00	0	40	0	0	87	16889
2026-01-16 10:26:28.94	345.02	33.91	-57.7	-59.3	6.2	0.00e+00	0	40	0	0	87	16889
2026-01-16 10:26:31.96	343.57	34.53	-57.7	-59.3	6.2	0.00e+00	0	40	0	0	87	16889
2026-01-16 10:26:34.99	342.05	35.15	-57.7	-59.3	6.2	0.00e+00	0	40	0	0	87	16889
2026-01-16 10:26:38.01	340.48	35.77	-57.7	-59.3	6.2	0.00e+00	0	40	0	0	87	16889
2026-01-16 10:26:41.04	338.83	36.37	-57.7	-59.3	6.2	0.00e+00	0	40	0	0	87	16889
2026-01-16 10:26:44.06	337.13	36.95	-57.7	-59.3	6.2	0.00e+00	0	40	0	0	87	16889
2026-01-16 10:26:47.08	335.36	37.52	-57.7	-59.3	6.2	0.00e+00	0	40	0	0	87	16889
2026-01-16 10:26:50.11	333.52	38.08	-57.7	-59.3	6.2	0.00e+00	0	39	0	0	87	16889
2026-01-16 10:26:53.14	331.62	38.60	-57.7	-59.3	6.2	0.00e+00	0	39	0	0	87	16889
2026-01-16 10:26:56.16	329.65	39.10	-57.7	-59.3	6.2	0.00e+00	0	39	0	0	87	16889
2026-01-16 10:26:59.19	327.62	39.57	-57.7	-59.3	6.2	0.00e+00	0	39	0	0	87	16889
2026-01-16 10:27:02.21	325.53	40.01	-57.7	-59.3	6.2	0.00e+00	0	39	0	0	87	16889
2026-01-16 10:27:05.23	323.39	40.41	-57.7	-59.3	6.2	0.00e+00	0	39	0	0	87	16889
2026-01-16 10:27:08.26	321.18	40.77	-57.7	-59.3	6.2	0.00e+00	0	39	0	0	87	16889
2026-01-16 10:27:11.28	318.93	41.08	-57.7	-59.3	6.2	0.00e+00	0	39	0	0	87	16889
2026-01-16 10:27:14.31	316.63	41.35	-57.7	-59.3	6.2	0.00e+00	0	39	0	0	87	16889
2026-01-16 10:27:17.33	314.31	41.57	-57.7	-59.3	6.2	0.00e+00	0	39	0	0	87	16889
2026-01-16 10:27:20.35	311.95	41.74	-57.7	-59.3	6.2	0.00e+00	0	39	0	0	87	16889
2026-01-16 10:27:23.38	309.56	41.86	-57.7	-59.3	6.2	0.00e+00	0	39	0	0	87	16889
2026-01-16 10:27:26.40	307.17	41.92	-57.7	-59.3	6.2	0.00e+00	0	39	0	0	87	16889
2026-01-16 10:27:29.43	304.76	41.93	-57.7	-59.3	6.2	0.00e+00	0	39	0	0	87	16889
2026-01-16 10:27:32.45	302.37	41.89	-57.7	-59.3	6.2	0.00e+00	0	39	0	0	87	16889
2026-01-16 10:27:35.47	299.98	41.78	-57.7	-59.3	6.2	0.00e+00	0	39	0	0	87	16889
2026-01-16 10:27:38.50	297.61	41.63	-57.7	-59.3	6.2	0.00e+00	0	39	0	0	87	16889
2026-01-16 10:27:41.52	295.27	41.42	-57.7	-59.3	6.2	0.00e+00	0	39	0	0	87	16889
2026-01-16 10:27:44.55	292.96	41.17	-57.7	-59.3	6.2	0.00e+00	0	39	0	0	87	16889
2026-01-16 10:27:47.57	290.69	40.87	-57.7	-59.3	6.2	0.00e+00	0	39	0	0	87	16889
2026-01-16 10:27:50.60	288.47	40.52	-57.7	-59.3	6.2	0.00e+00	0	39	0	0	87	16889
2026-01-16 10:27:53.62	286.31	40.13	-57.7	-59.3	6.2	0.00e+00	0	39	0	0	87	16889
2026-01-16 10:27:56.64	284.20	39.70	-57.7	-59.3	6.2	0.00e+00	0	38	0	0	87	16889
2026-01-16 10:27:59.67	282.14	39.24	-57.7	-59.3	6.2	0.00e+00	0	39	0	0	87	16889
2026-01-16 10:28:02.69	280.16	38.75	-57.7	-59.3	6.2	0.00e+00	0	38	0	0	87	16889
2026-01-16 10:28:05.72	278.23	38.23	-57.7	-59.3	6.2	0.00e+00	0	38	0	0	87	16889
2026-01-16 10:28:08.74	276.37	37.68	-57.7	-59.3	6.2	0.00e+00	0	38	0	0	87	16889
2026-01-16 10:28:11.77	274.57	37.12	-57.7	-59.3	6.2	0.00e+00	0	38	0	0	87	16889
2026-01-16 10:28:14.79	272.85	36.53	-57.7	-59.3	6.2	0.00e+00	0	38	0	0	87	16889
2026-01-16 10:28:17.82	271.18	35.93	-57.7	-59.3	6.2	0.00e+00	0	38	0	0	87	16889
2026-01-16 10:28:20.85	269.58	35.32	-57.7	-59.3	6.2	0.00e+00	0	38	0	0	87	16889
2026-01-16 10:28:23.87	268.04	34.70	-57.7	-59.3	6.2	0.00e+00	0	38	0	0	87	16889
2026-01-16 10:28:26.89	266.57	34.07	-57.7	-59.3	6.2	0.00e+00	0	38	0	0	87	16889
2026-01-16 10:28:29.92	265.15	33.44	-57.7	-59.3	6.2	0.00e+00	0	38	0	0	87	16889
2026-01-16 10:28:32.95	263.80	32.80	-57.7	-59.3	6.2	0.00e+00	0	38	0	0	87	16889
2026-01-16 10:28:35.97	262.50	32.17	-57.7	-59.3	6.2	0.00e+00	0	38	0	0	87	16889
2026-01-16 10:28:38.99	261.25	31.53	-57.7	-59.3	6.2	0.00e+00	0	38	0	0	87	16889
2026-01-16 10:28:42.02	260.05	30.90	-57.7	-59.3	6.2	0.00e+00	0	38	0	0	87	16889
2026-01-16 10:28:45.04	258.91	30.27	-57.7	-59.3	6.2	0.00e+00	0	38	0	0	87	16889
2026-01-16 10:28:48.98	257.49	29.45	-57.7	-59.3	6.2	0.00e+00	0	38	0	0	87	16889
2026-01-16 10:28:52.20	256.38	28.80	-57.7	-59.3	6.2	0.00e+00	0	38	0	0	87	16889
2026-01-16 10:28:55.08	255.43	28.21	-57.7	-59.3	6.2	0.00e+00	0	38	0	0	87	16889
2026-01-16 10:28:58.24	254.43	27.58	-57.7	-59.3	6.2	0.00e+00	0	38	0	0	87	16889
2026-01-16 10:29:01.12	253.56	27.02	-57.7	-59.3	6.2	0.00e+00	0	38	0	0	87	16889
2026-01-16 10:29:04.29	252.64	26.40	-57.7	-59.3	6.2	0.00e+00	0	38	0	0	87	16889
2026-01-16 10:29:07.17	251.83	25.85	-57.7	-59.3	6.2	0.00e+00	0	38	0	0	87	16889
2026-01-16 10:29:10.34	250.98	25.25	-57.7	-59.3	6.2	0.00e+00	0	38	0	0	87	16889
2026-01-16 10:29:13.22	250.24	24.71	-57.7	-59.3	6.2	0.00e+00	0	38	0	0	87	16889
2026-01-16 10:29:16.39	249.45	24.14	-57.7	-59.3	6.2	0.00e+00	0	38	0	0	87	16889
2026-01-16 10:29:19.28	248.76	23.62	-57.7	-59.3	6.2	0.00e+00	0	38	0	0	87	16889
2026-01-16 10:29:22.45	248.04	23.06	-57.7	-59.3	6.2	0.00e+00	0	37	0	0	87	16889
2026-01-16 10:29:25.33	247.40	22.56	-57.7	-59.3	6.2	0.00e+00	0	38	0	0	87	16889
2026-01-16 10:29:28.50	246.73	22.02	-57.7	-59.3	6.2	0.00e+00	0	38	0	0	87	16889
2026-01-16 10:29:31.38	246.14	21.54	-57.7	-59.3	6.2	0.00e+00	0	38	0	0	87	16889
2026-01-16 10:29:34.55	245.52	21.02	-57.7	-59.3	6.2	0.00e+00	0	38	0	0	87	16889
2026-01-16 10:29:37.43	244.97	20.55	-57.7	-59.3	6.2	0.00e+00	0	38	0	0	87	16889
2026-01-16 10:29:40.60	244.39	20.05	-57.7	-59.3	6.2	0.00e+00	0	38	0	0	87	16889
2026-01-16 10:29:43.48	243.88	19.60	-57.7	-59.3	6.2	0.00e+00	0	38	0	0	87	16889
2026-01-16 10:29:46.65	243.34	19.12	-57.7	-59.3	6.2	0.00e+00	0	38	0	0	87	16889
2026-01-16 10:29:49.53	242.86	18.69	-57.7	-59.3	6.2	0.00e+00	0	38	0	0	87	16889
2026-01-16 10:29:52.70	242.36	18.22	-57.7	-59.3	6.2	0.00e+00	0	38	0	0	87	16889
2026-01-16 10:29:55.58	241.91	17.81	-57.7	-59.3	6.2	0.00e+00	0	37	0	0	87	16889
2026-01-16 10:29:58.76	241.44	17.36	-57.7	-59.3	6.2	0.00e+00	0	38	0	0	87	16889
2026-01-16 10:30:01.64	241.03	16.96	-57.7	-59.3	6.2	0.00e+00	0	37	0	0	87	16889
2026-01-16 10:30:04.80	240.58	16.52	-57.7	-59.3	6.2	0.00e+00	0	38	0	0	87	16889
2026-01-16 10:30:07.69	240.19	16.14	-57.7	-59.3	6.2	0.00e+00	0	37	0	0	87	16889
2026-01-16 10:30:10.86	239.78	15.72	-57.7	-59.3	6.2	0.00e+00	0	37	0	0	87	16889
2026-01-16 10:30:13.74	239.42	15.35	-57.7	-59.3	6.2	0.00e+00	0	37	0	0	87	16889
2026-01-16 10:30:16.91	239.03	14.94	-57.7	-59.3	6.2	0.00e+00	0	37	0	0	87	16889
2026-01-16 10:30:19.79	238.68	14.58	-57.7	-59.3	6.2	0.00e+00	0	37	0	0	87	16889
2026-01-16 10:30:22.95	238.32	14.20	-57.7	-59.3	6.2	0.00e+00	0	37	0	0	87	16889
2026-01-16 10:30:25.83	238.00	13.85	-57.7	-59.3	6.2	0.00e+00	0	37	0	0	87	16889
2026-01-16 10:30:29.00	237.65	13.47	-57.7	-59.3	6.2	0.00e+00	0	38	0	0	87	16889
2026-01-16 10:30:31.88	237.35	13.14	-57.7	-59.3	6.2	0.00e+00	0	37	0	0	87	16889
2026-01-16 10:30:35.06	237.02	12.77	-57.7	-59.3	6.2	0.00e+00	0	38	0	0	87	16889
2026-01-16 10:30:37.93	236.74	12.45	-57.7	-59.3	6.2	0.00e+00	0	37	0	0	87	16889
2026-01-16 10:30:41.10	236.43	12.09	-57.7	-59.3	6.2	0.00e+00	0	37	0	0	87	16889
2026-01-16 10:30:43.98	236.16	11.78	-57.7	-59.3	6.2	0.00e+00	0	37	0	0	87	16889
2026-01-16 10:30:47.15	235.87	11.44	-57.7	-59.3	6.2	0.00e+00	0	37	0	0	87	16889
2026-01-16 10:30:50.03	235.61	11.13	-57.7	-59.3	6.2	0.00e+00	0	37	0	0	87	16889
2026-01-16 10:30:53.20	235.34	10.80	-57.7	-59.3	6.2	0.00e+00	0	37	0	0	87	16889
2026-01-16 10:30:56.08	235.10	10.51	-57.7	-59.3	6.2	0.00e+00	0	37	0	0	87	16889
2026-01-16 10:30:59.25	234.83	10.18	-57.7	-59.3	6.2	0.00e+00	0	38	0	0	87	16889
2026-01-16 10:31:02.13	234.60	9.90	-57.7	-59.3	6.2	0.00e+00	0	37	0	0	87	16889
2026-01-16 10:31:05.30	234.36	9.58	-57.7	-59.3	6.2	0.00e+00	0	37	0	0	87	16889
2026-01-16 10:31:08.17	234.14	9.31	-57.7	-59.3	6.2	0.00e+00	0	37	0	0	87	16889
2026-01-16 10:31:11.34	233.90	9.00	-57.7	-59.3	6.2	0.00e+00	0	37	0	0	87	16889
2026-01-16 10:31:14.23	233.70	8.73	-57.7	-59.3	6.2	0.00e+00	0	37	0	0	87	16889
2026-01-16 10:31:17.40	233.47	8.44	-57.7	-59.3	6.2	0.00e+00	0	38	0	0	87	16889
2026-01-16 10:31:20.27	233.28	8.17	-57.7	-59.3	6.2	0.00e+00	0	37	0	0	87	16889
2026-01-16 10:31:23.44	233.06	7.89	-57.7	-59.3	6.2	0.00e+00	0	37	0	0	87	16889
2026-01-16 10:31:26.32	232.87	7.63	-57.7	-59.3	6.2	0.00e+00	0	37	0	0	87	16889
2026-01-16 10:31:29.49	232.67	7.35	-57.7	-59.3	6.2	0.00e+00	0	37	0	0	87	16889
2026-01-16 10:31:32.37	232.49	7.10	-57.7	-59.3	6.2	0.00e+00	0	37	0	0	87	16889
2026-01-16 10:31:35.54	232.30	6.83	-57.7	-59.3	6.2	0.00e+00	0	37	0	0	87	16889
2026-01-16 10:31:38.42	232.13	6.58	-57.7	-59.3	6.2	0.00e+00	0	37	0	0	87	16889
2026-01-16 10:31:41.59	231.94	6.32	-57.7	-59.3	6.2	0.00e+00	0	37	0	0	87	16889
2026-01-16 10:31:44.47	231.78	6.08	-57.7	-59.3	6.2	0.00e+00	0	37	0	0	87	16889
2026-01-16 10:31:47.64	231.60	5.82	-57.7	-59.3	6.2	0.00e+00	0	37	0	0	87	16889
2026-01-16 10:31:50.52	231.45	5.58	-57.7	-59.3	6.2	0.00e+00	0	37	0	0	87	16889
2026-01-16 10:31:53.69	231.28	5.33	-57.7	-59.3	6.2	0.00e+00	0	37	0	0	87	16889
2026-01-16 10:31:56.57	231.13	5.10	-57.7	-59.3	6.2	0.00e+00	0	37	0	0	87	16889
2026-01-16 10:31:59.74	230.97	4.85	-57.7	-59.3	6.2	0.00e+00	0	37	0	0	87	16889
2026-01-16 10:32:02.62	230.82	4.63	-57.7	-59.3	6.2	0.00e+00	0	37	0	0	87	16889
2026-01-16 10:32:05.79	230.67	4.39	-57.7	-59.3	6.2	0.00e+00	0	37	0	0	87	16889
2026-01-16 10:32:08.67	230.53	4.17	-57.7	-59.3	6.2	0.00e+00	0	37	0	0	87	16889
2026-01-16 10:32:11.84	230.38	3.93	-57.7	-59.3	6.2	0.00e+00	0	37	0	0	87	16889
2026-01-16 10:32:14.72	230.25	3.72	-57.7	-59.3	6.2	0.00e+00	0	37	0	0	87	16889
2026-01-16 10:32:17.89	230.11	3.49	-57.7	-59.3	6.2	0.00e+00	0	37	0	0	87	16889
2026-01-16 10:32:20.77	229.98	3.28	-57.7	-59.3	6.2	0.00e+00	0	37	0	0	87	16889
2026-01-16 10:32:23.93	229.85	3.05	-57.7	-59.3	6.2	0.00e+00	0	37	0	0	87	16889
2026-01-16 10:32:26.82	229.72	2.84	-57.7	-59.3	6.2	0.00e+00	0	37	0	0	87	16889
2026-01-16 10:32:29.99	229.59	2.62	-57.7	-59.3	6.2	0.00e+00	0	37	0	0	87	16889
2026-01-16 10:32:32.87	229.48	2.42	-57.7	-59.3	6.2	0.00e+00	0	37	0	0	87	16889
2026-01-16 10:32:36.04	229.35	2.20	-57.7	-59.3	6.2	0.00e+00	0	37	0	0	87	16889
2026-01-16 10:32:38.92	229.24	2.00	-57.7	-59.3	6.2	0.00e+00	0	37	0	0	87	16889

#Closed at: 2026-01-16 10:32:40
#Recorded file [0 MB]: D:/lorett/data/31041_260116_132217.dat