passes_logs/2026/01/16/R3.2S_Murmansk/R3.2S_Murmansk__20260116_084108_KANOPUS-V_5_rec.log

#Pass ID: 20260116_084108_KANOPUS-V 5
#Satellite: KANOPUS-V 5
#Configuration: KANOPUS-V_8320
#almurnet v.1.7.20251203
#Start time: 2026-01-16 08:41:07

#Version: 2.2.20231116
#Station: R3.2S_Murmansk
#Location: 33.079688 lon 68.888172 lat
#TLE: 1 43876U 18111A   26015.95883530  .00002079  00000+0  90203-4 0  9990
#TLE: 2 43876  97.3685 284.4557 0001748  86.2315 273.9122 15.23440439391619

#Time	Az	El	Level	Level2	SNR	BER	BlckErr	Temp	State	Recorded	gain1	gain2
2026-01-16 08:41:07.44	185.28	1.96	-57.5	-66.3	3.8	7.45e-01	0	43	0	0	87	9488
2026-01-16 08:41:10.46	185.44	2.17	-57.5	-66.3	3.8	7.44e-01	0	44	104	0	86	10010
2026-01-16 08:41:13.49	185.61	2.37	-57.5	-66.3	3.8	7.45e-01	0	44	104	0	86	10019
2026-01-16 08:41:16.51	185.77	2.58	-57.5	-66.3	3.8	7.46e-01	0	44	104	0	86	10002
2026-01-16 08:41:19.54	185.94	2.79	-57.5	-66.3	3.8	7.44e-01	0	44	104	0	86	10027
2026-01-16 08:41:22.56	186.12	3.01	-57.5	-66.3	3.8	7.45e-01	0	44	104	0	86	10005
2026-01-16 08:41:25.59	186.29	3.22	-57.5	-66.3	3.8	7.45e-01	0	44	104	0	86	10056
2026-01-16 08:41:28.61	186.47	3.44	-57.5	-66.3	3.8	7.45e-01	0	45	104	0	86	10014
2026-01-16 08:41:31.64	186.65	3.65	-57.5	-66.2	3.8	7.45e-01	0	45	104	0	86	9899
2026-01-16 08:41:34.66	186.84	3.87	-57.4	-66.2	3.8	7.44e-01	0	45	104	0	86	9858
2026-01-16 08:41:37.69	187.02	4.10	-56.8	-63.7	4.0	7.40e-01	0	45	104	0	85	7821
2026-01-16 08:41:40.71	187.22	4.32	-55.8	-60.8	5.0	7.08e-01	0	45	0	16777216	83	6316
2026-01-16 08:41:43.74	187.41	4.55	-54.0	-57.4	7.8	6.49e-01	0	46	0	65011712	80	5069
2026-01-16 08:41:46.77	187.61	4.78	-52.2	-54.8	10.2	6.23e-01	0	46	0	106954752	76	4735
2026-01-16 08:41:49.80	187.81	5.01	-50.6	-52.8	12.0	6.13e-01	0	46	0	153092096	73	4460
2026-01-16 08:41:52.82	188.02	5.25	-50.9	-53.3	11.7	5.98e-01	0	46	0	174063616	72	5036
2026-01-16 08:41:55.85	188.23	5.48	-50.4	-52.7	12.3	5.97e-01	0	46	0	222298112	72	4695
2026-01-16 08:41:58.88	188.45	5.73	-50.1	-52.4	12.7	5.96e-01	0	46	0	268435456	71	4767
2026-01-16 08:42:01.90	188.67	5.97	-50.2	-52.6	12.6	5.97e-01	0	46	0	314572800	71	4881
2026-01-16 08:42:04.92	188.89	6.21	-49.7	-52.0	13.1	5.96e-01	0	46	0	360710144	71	4573
2026-01-16 08:42:07.95	189.12	6.46	-49.9	-52.2	13.0	5.95e-01	0	47	0	408944640	71	4671
2026-01-16 08:42:10.97	189.35	6.71	-49.6	-51.9	13.3	5.95e-01	0	47	0	452984832	71	4519
2026-01-16 08:42:14.00	189.59	6.97	-49.7	-52.0	13.2	5.95e-01	0	47	0	499122176	71	4577
2026-01-16 08:42:17.03	189.83	7.22	-49.6	-51.8	13.4	5.96e-01	0	47	0	545259520	70	4751
2026-01-16 08:42:20.05	190.08	7.49	-49.5	-51.8	13.5	5.94e-01	0	47	0	593494016	70	4708
2026-01-16 08:42:23.08	190.34	7.75	-49.5	-51.8	13.4	6.05e-01	0	47	0	639631360	70	4730
2026-01-16 08:42:26.11	190.60	8.02	-49.4	-51.7	13.5	6.03e-01	0	47	0	685768704	70	4681
2026-01-16 08:42:29.13	190.86	8.29	-49.3	-51.6	13.6	6.06e-01	0	47	0	731906048	70	4607
2026-01-16 08:42:32.16	191.13	8.56	-49.1	-51.3	13.9	6.01e-01	0	47	0	780140544	70	4455
2026-01-16 08:42:35.19	191.41	8.84	-48.9	-51.0	14.2	6.04e-01	0	47	0	826277888	69	4584
2026-01-16 08:42:38.21	191.69	9.12	-48.7	-50.8	14.4	6.00e-01	0	47	0	872415232	69	4475
2026-01-16 08:42:41.24	191.98	9.41	-48.6	-50.6	14.5	6.06e-01	0	47	0	918552576	69	4384
2026-01-16 08:42:44.27	192.28	9.70	-48.5	-50.6	14.6	5.99e-01	0	47	0	964689920	69	4364
2026-01-16 08:42:47.29	192.58	9.99	-48.5	-50.6	14.6	6.04e-01	0	48	0	1010827264	68	4601
2026-01-16 08:42:50.32	192.90	10.29	-48.4	-50.5	14.7	6.03e-01	0	47	0	1056964608	68	4571
2026-01-16 08:42:53.34	193.22	10.59	-48.4	-50.4	14.8	6.02e-01	0	48	0	1105199104	68	4534
2026-01-16 08:42:56.37	193.54	10.89	-48.3	-50.3	14.9	6.05e-01	0	48	0	1151336448	68	4461
2026-01-16 08:42:59.40	193.88	11.21	-48.2	-50.2	15.0	5.98e-01	0	48	0	1197473792	68	4421
2026-01-16 08:43:02.42	194.22	11.52	-48.1	-50.2	15.0	5.99e-01	0	48	0	1243611136	68	4393
2026-01-16 08:43:05.45	194.58	11.84	-48.1	-50.2	14.9	5.97e-01	0	48	0	1291845632	68	4418
2026-01-16 08:43:08.46	194.94	12.16	-48.2	-50.3	15.0	6.00e-01	0	48	0	1337982976	67	4734
2026-01-16 08:43:11.49	195.31	12.49	-48.2	-50.2	15.2	6.01e-01	0	48	0	1384120320	67	4697
2026-01-16 08:43:14.51	195.69	12.83	-48.1	-50.2	15.2	5.98e-01	0	48	0	1430257664	67	4673
2026-01-16 08:43:17.54	196.08	13.17	-47.8	-49.9	15.6	6.00e-01	0	48	0	1476395008	67	4494
2026-01-16 08:43:20.56	196.48	13.51	-47.7	-49.7	15.7	5.99e-01	0	48	0	1522532352	67	4431
2026-01-16 08:43:23.59	196.90	13.86	-47.5	-49.5	15.8	6.02e-01	0	49	0	1568669696	67	4336
2026-01-16 08:43:26.62	197.32	14.22	-47.4	-49.4	15.9	6.02e-01	0	48	0	1614807040	66	4530
2026-01-16 08:43:29.64	197.76	14.58	-47.3	-49.4	16.0	6.01e-01	0	48	0	1663041536	66	4511
2026-01-16 08:43:32.66	198.21	14.95	-47.2	-49.2	16.1	6.01e-01	0	48	0	1709178880	66	4432
2026-01-16 08:43:35.69	198.67	15.32	-47.2	-49.2	16.1	6.01e-01	0	48	0	1755316224	66	4409
2026-01-16 08:43:38.71	199.14	15.70	-47.0	-49.1	16.0	6.02e-01	0	49	0	1801453568	66	4347
2026-01-16 08:43:41.73	199.63	16.08	-47.1	-49.1	16.3	6.02e-01	0	49	0	1847590912	65	4606
2026-01-16 08:43:44.76	200.14	16.48	-46.8	-48.8	16.5	6.00e-01	0	49	0	1895825408	65	4481
2026-01-16 08:43:47.78	200.66	16.87	-46.8	-48.8	16.5	6.02e-01	0	49	0	1939865600	65	4460
2026-01-16 08:43:50.80	201.19	17.28	-46.8	-48.8	16.5	6.01e-01	0	49	0	1986002944	65	4456
2026-01-16 08:43:53.83	201.75	17.69	-46.7	-48.7	16.6	5.99e-01	0	49	0	2032140288	65	4415
2026-01-16 08:43:56.85	202.32	18.10	-46.8	-48.7	16.7	6.01e-01	0	49	0	2080374784	65	4410
2026-01-16 08:43:59.87	202.91	18.53	-46.9	-48.8	16.6	6.02e-01	0	49	0	2126512128	65	4464
2026-01-16 08:44:02.90	203.51	18.96	-46.9	-48.7	16.6	6.04e-01	0	49	0	2172649472	65	4440
2026-01-16 08:44:05.92	204.14	19.40	-46.9	-48.7	16.7	6.03e-01	0	49	0	2218786816	65	4393
2026-01-16 08:44:08.95	204.79	19.84	-46.9	-48.7	16.6	6.02e-01	0	49	0	2267021312	65	4398
2026-01-16 08:44:11.98	205.46	20.29	-46.9	-48.7	16.7	6.02e-01	0	49	0	2313158656	65	4419
2026-01-16 08:44:15.00	206.15	20.75	-46.9	-48.7	16.7	6.01e-01	0	49	0	2359296000	65	4402
2026-01-16 08:44:18.02	206.87	21.22	-47.0	-48.7	16.6	6.05e-01	0	49	0	2405433344	65	4426
2026-01-16 08:44:21.05	207.61	21.69	-47.2	-49.0	16.5	6.04e-01	0	49	0	2451570688	65	4558
2026-01-16 08:44:24.08	208.38	22.17	-47.3	-49.1	16.4	6.05e-01	0	49	0	2497708032	65	4600
2026-01-16 08:44:27.10	209.17	22.65	-47.2	-48.8	16.6	6.04e-01	0	49	0	2543845376	65	4485
2026-01-16 08:44:30.13	209.99	23.15	-47.3	-48.9	16.6	6.04e-01	0	49	0	2589982720	65	4539
2026-01-16 08:44:33.15	210.84	23.64	-47.1	-48.7	16.7	5.98e-01	0	49	0	2638217216	65	4437
2026-01-16 08:44:36.18	211.72	24.15	-47.0	-48.7	16.7	6.02e-01	0	49	0	2684354560	65	4437
2026-01-16 08:44:39.20	212.63	24.65	-47.2	-49.1	16.4	6.03e-01	0	49	0	2730491904	65	4599
2026-01-16 08:44:42.23	213.58	25.17	-47.3	-49.1	16.4	6.04e-01	0	49	0	2776629248	65	4618
2026-01-16 08:44:45.25	214.56	25.69	-47.2	-49.0	16.5	6.05e-01	0	50	0	2824863744	65	4596
2026-01-16 08:44:48.28	215.57	26.21	-46.7	-48.5	16.9	6.04e-01	0	50	0	2871001088	65	4336
2026-01-16 08:44:51.31	216.63	26.74	-46.7	-48.7	16.8	6.00e-01	0	50	0	2917138432	65	4405
2026-01-16 08:44:54.33	217.72	27.26	-46.7	-48.7	16.8	6.01e-01	0	50	0	2963275776	65	4427
2026-01-16 08:44:57.36	218.85	27.80	-46.7	-48.8	16.7	6.03e-01	0	50	0	3009413120	65	4467
2026-01-16 08:45:00.38	220.02	28.33	-46.5	-48.6	17.0	5.94e-01	0	50	0	3055550464	64	4609
2026-01-16 08:45:03.41	221.23	28.86	-46.1	-48.3	17.2	5.94e-01	0	50	0	3101687808	64	4491
2026-01-16 08:45:06.43	222.49	29.39	-45.9	-48.0	17.5	5.93e-01	0	50	0	3147825152	63	4553
2026-01-16 08:45:09.46	223.80	29.91	-45.7	-47.7	17.7	5.93e-01	0	50	0	3196059648	63	4402
2026-01-16 08:45:12.48	225.14	30.44	-45.7	-48.0	17.5	5.93e-01	0	50	0	3242196992	63	4571
2026-01-16 08:45:15.51	226.54	30.96	-45.6	-47.9	17.5	5.93e-01	0	50	0	3288334336	63	4524
2026-01-16 08:45:18.54	227.99	31.47	-45.1	-47.2	18.0	5.93e-01	0	50	0	3336568832	62	4414
2026-01-16 08:45:21.56	229.48	31.97	-45.2	-47.5	17.7	6.04e-01	0	50	0	3382706176	62	4557
2026-01-16 08:45:24.59	231.03	32.46	-44.8	-47.2	17.9	6.04e-01	0	50	0	3426746368	61	4661
2026-01-16 08:45:27.62	232.62	32.94	-45.0	-47.3	17.9	6.04e-01	0	50	0	3472883712	61	4743
2026-01-16 08:45:30.64	234.26	33.40	-44.6	-46.8	18.3	6.05e-01	0	50	0	3521118208	61	4456
2026-01-16 08:45:33.67	235.96	33.84	-44.3	-46.6	18.3	6.04e-01	0	50	0	3567255552	60	4632
2026-01-16 08:45:36.70	237.70	34.27	-44.4	-46.7	18.2	6.05e-01	0	50	0	3613392896	60	4702
2026-01-16 08:45:39.73	239.49	34.67	-44.4	-46.8	18.2	6.04e-01	0	50	0	3659530240	60	4720
2026-01-16 08:45:42.75	241.32	35.05	-44.2	-46.6	18.3	6.04e-01	0	50	0	3707764736	60	4628
2026-01-16 08:45:45.78	243.20	35.41	-44.3	-46.8	18.2	6.05e-01	0	50	0	3753902080	60	4724
2026-01-16 08:45:48.81	245.12	35.73	-44.6	-47.2	18.0	6.04e-01	0	50	0	3800039424	60	4956
2026-01-16 08:45:51.83	247.07	36.02	-44.5	-46.8	18.2	6.03e-01	0	50	0	3846176768	60	4758
2026-01-16 08:45:54.86	249.06	36.28	-44.2	-46.7	18.3	6.05e-01	0	50	0	3892314112	60	4669
2026-01-16 08:45:57.89	251.09	36.51	-44.4	-46.7	18.3	6.02e-01	0	50	0	3938451456	60	4661
2026-01-16 08:46:00.91	253.14	36.70	-44.2	-46.5	18.4	6.04e-01	0	50	0	3984588800	60	4589
2026-01-16 08:46:03.94	255.21	36.85	-44.3	-46.7	18.3	6.04e-01	0	50	0	4030726144	60	4672
2026-01-16 08:46:06.96	257.29	36.96	-44.3	-46.7	18.3	6.05e-01	0	50	0	4078960640	60	4654
2026-01-16 08:46:09.99	259.40	37.03	-44.3	-46.5	18.4	6.04e-01	0	50	0	4125097984	60	4569
2026-01-16 08:46:13.02	261.51	37.06	-44.3	-46.8	18.2	6.05e-01	0	50	0	4171235328	60	4718
2026-01-16 08:46:16.04	263.61	37.04	-44.3	-46.6	18.4	6.03e-01	0	50	0	4219469824	60	4613
2026-01-16 08:46:19.07	265.72	36.99	-44.2	-46.7	18.3	6.05e-01	0	50	0	4265607168	60	4677
2026-01-16 08:46:22.09	267.81	36.90	-44.3	-46.6	18.5	6.04e-01	0	50	0	4311744512	60	4634
2026-01-16 08:46:25.12	269.89	36.77	-44.3	-47.0	18.2	6.01e-01	0	50	0	4357881856	60	4826
2026-01-16 08:46:28.15	271.95	36.59	-44.5	-46.7	18.4	6.00e-01	0	50	0	4404019200	60	4692
2026-01-16 08:46:31.17	273.98	36.39	-44.1	-46.4	18.3	6.01e-01	0	50	0	4450156544	59	4813
2026-01-16 08:46:34.20	275.98	36.14	-44.1	-46.3	18.3	6.02e-01	0	50	0	4496293888	59	4754
2026-01-16 08:46:37.22	277.95	35.86	-44.1	-46.5	18.3	6.05e-01	0	51	0	4542431232	59	4816
2026-01-16 08:46:40.25	279.88	35.55	-44.2	-46.4	18.2	6.04e-01	0	50	0	4590665728	59	4807
2026-01-16 08:46:43.28	281.78	35.21	-44.2	-46.5	18.3	6.03e-01	0	50	0	4636803072	59	4843
2026-01-16 08:46:46.30	283.62	34.85	-44.6	-47.0	17.9	6.03e-01	0	50	0	4682940416	59	5118
2026-01-16 08:46:49.33	285.43	34.45	-44.6	-46.9	17.9	6.04e-01	0	50	0	4729077760	59	5089
2026-01-16 08:46:52.35	287.18	34.04	-44.5	-46.6	18.4	6.00e-01	0	50	0	4777312256	60	4621
2026-01-16 08:46:55.37	288.89	33.61	-44.5	-46.6	18.5	6.02e-01	0	50	0	4823449600	60	4604
2026-01-16 08:46:58.40	290.55	33.15	-44.7	-46.8	18.3	6.01e-01	0	50	0	4867489792	60	4737
2026-01-16 08:47:01.43	292.16	32.68	-44.8	-46.9	18.3	6.03e-01	0	50	0	4913627136	60	4796
2026-01-16 08:47:04.46	293.72	32.20	-45.0	-47.3	18.0	5.93e-01	0	50	0	4961861632	60	4991
2026-01-16 08:47:07.48	295.23	31.70	-45.2	-47.2	18.1	6.03e-01	0	50	0	5007998976	60	4976
2026-01-16 08:47:10.51	296.70	31.20	-45.3	-47.2	18.0	6.00e-01	0	51	0	5054136320	61	4690
2026-01-16 08:47:13.54	298.11	30.69	-45.4	-47.4	17.9	6.02e-01	0	51	0	5102370816	61	4812
2026-01-16 08:47:16.57	299.48	30.17	-45.9	-48.0	17.6	6.03e-01	0	50	0	5148508160	62	4816
2026-01-16 08:47:19.60	300.80	29.64	-46.0	-48.0	17.6	5.98e-01	0	51	0	5194645504	62	4855
2026-01-16 08:47:22.62	302.07	29.12	-46.3	-48.3	17.3	6.03e-01	0	50	0	5240782848	63	4729
2026-01-16 08:47:25.65	303.31	28.59	-46.5	-48.5	17.2	5.98e-01	0	51	0	5286920192	63	4870
2026-01-16 08:47:28.67	304.49	28.06	-46.6	-48.7	17.0	6.01e-01	0	50	0	5333057536	64	4685
2026-01-16 08:47:31.70	305.64	27.53	-46.7	-48.8	16.9	5.95e-01	0	50	0	5379194880	64	4731
2026-01-16 08:47:34.73	306.74	27.01	-47.1	-49.2	16.6	6.00e-01	0	50	0	5425332224	64	4977
2026-01-16 08:47:37.75	307.81	26.48	-47.3	-49.4	16.5	6.00e-01	0	50	0	5473566720	65	4767
2026-01-16 08:47:40.78	308.84	25.96	-47.2	-49.3	16.6	6.01e-01	0	51	0	5519704064	65	4711
2026-01-16 08:47:43.80	309.83	25.44	-47.3	-49.4	16.4	6.02e-01	0	51	0	5565841408	65	4774
2026-01-16 08:47:46.83	310.79	24.93	-47.2	-49.2	16.6	5.99e-01	0	51	0	5611978752	65	4665
2026-01-16 08:47:49.85	311.71	24.42	-47.3	-49.1	16.6	5.99e-01	0	51	0	5660213248	65	4644
2026-01-16 08:47:52.88	312.60	23.92	-47.4	-49.3	16.5	5.99e-01	0	51	0	5706350592	65	4748
2026-01-16 08:47:55.90	313.46	23.42	-47.4	-49.4	16.4	6.00e-01	0	51	0	5752487936	65	4775
2026-01-16 08:47:58.93	314.30	22.93	-47.4	-49.4	16.4	6.00e-01	0	50	0	5798625280	65	4793
2026-01-16 08:48:01.95	315.10	22.44	-47.5	-49.5	16.3	6.03e-01	0	51	0	5844762624	65	4820
2026-01-16 08:48:04.98	315.88	21.97	-47.5	-49.5	16.3	5.99e-01	0	51	0	5890899968	65	4860
2026-01-16 08:48:08.01	316.63	21.49	-47.5	-49.6	16.2	6.00e-01	0	51	0	5937037312	65	4881
2026-01-16 08:48:11.04	317.35	21.03	-47.3	-49.2	16.4	6.03e-01	0	50	0	5985271808	65	4702
2026-01-16 08:48:14.06	318.05	20.57	-47.2	-49.2	16.4	5.97e-01	0	51	0	6031409152	65	4688
2026-01-16 08:48:17.08	318.73	20.12	-47.2	-49.2	16.5	6.01e-01	0	51	0	6077546496	65	4666
2026-01-16 08:48:20.11	319.39	19.67	-47.2	-49.2	16.4	6.02e-01	0	50	0	6123683840	65	4693
2026-01-16 08:48:23.14	320.02	19.23	-47.1	-49.2	16.5	5.94e-01	0	51	0	6171918336	65	4668
2026-01-16 08:48:26.16	320.64	18.80	-47.2	-49.2	16.5	5.94e-01	0	50	0	6218055680	65	4687
2026-01-16 08:48:29.18	321.23	18.38	-47.1	-49.2	16.4	5.94e-01	0	51	0	6264193024	65	4660
2026-01-16 08:48:32.21	321.81	17.96	-48.3	-49.2	16.6	5.94e-01	0	50	0	6308233216	67	4171
2026-01-16 08:48:35.24	322.37	17.54	-58.7	-67.5	3.8	7.45e-01	0	50	104	6320816128	87	10902
2026-01-16 08:48:38.27	322.92	17.14	-58.6	-67.5	3.8	7.46e-01	0	51	104	6320816128	87	10847
2026-01-16 08:48:41.29	323.44	16.74	-58.6	-67.5	3.8	7.46e-01	0	51	104	6320816128	87	10793
2026-01-16 08:48:44.32	323.95	16.35	-58.6	-67.5	3.8	7.46e-01	0	50	104	6320816128	87	10821
2026-01-16 08:48:47.35	324.45	15.96	-58.6	-67.4	3.8	7.45e-01	0	51	104	6320816128	87	10766
2026-01-16 08:48:50.37	324.93	15.58	-58.6	-67.4	3.8	7.45e-01	0	51	104	6320816128	87	10729
2026-01-16 08:48:53.40	325.40	15.21	-58.5	-67.4	3.8	7.44e-01	0	51	104	6320816128	87	10660
2026-01-16 08:48:56.42	325.85	14.84	-58.5	-67.4	3.8	7.45e-01	0	51	104	6320816128	87	10656
2026-01-16 08:48:59.44	326.29	14.48	-58.5	-67.3	3.8	7.45e-01	0	51	104	6320816128	87	10632
2026-01-16 08:49:02.47	326.73	14.12	-58.5	-67.3	3.8	7.46e-01	0	51	104	6320816128	87	10625
2026-01-16 08:49:05.49	327.14	13.77	-58.4	-67.3	3.8	7.47e-01	0	51	104	6320816128	87	10590
2026-01-16 08:49:08.51	327.55	13.42	-58.4	-67.3	3.8	7.45e-01	0	51	104	6320816128	87	10543
2026-01-16 08:49:11.54	327.95	13.08	-58.4	-67.3	3.8	7.44e-01	0	51	104	6320816128	87	10539
2026-01-16 08:49:14.57	328.33	12.75	-58.4	-67.2	3.8	7.46e-01	0	51	104	6320816128	87	10494
2026-01-16 08:49:17.59	328.71	12.42	-58.4	-67.2	3.8	7.45e-01	0	51	104	6320816128	87	10432
2026-01-16 08:49:20.62	329.07	12.09	-58.3	-67.1	3.8	7.43e-01	0	51	104	6320816128	87	10375
2026-01-16 08:49:23.64	329.43	11.77	-58.3	-67.1	3.8	7.45e-01	0	51	104	6320816128	87	10388
2026-01-16 08:49:26.67	329.78	11.46	-58.2	-67.1	3.8	7.46e-01	0	51	104	6320816128	87	10314
2026-01-16 08:49:29.70	330.12	11.15	-58.2	-67.1	3.8	7.45e-01	0	51	104	6320816128	87	10351
2026-01-16 08:49:32.72	330.45	10.84	-58.2	-67.0	3.8	7.44e-01	0	51	104	6320816128	87	10208
2026-01-16 08:49:35.75	330.77	10.54	-58.1	-67.0	3.8	7.45e-01	0	51	104	6320816128	87	10256
2026-01-16 08:49:38.77	331.09	10.24	-58.1	-67.0	3.8	7.45e-01	0	51	104	6320816128	87	10177
2026-01-16 08:49:41.80	331.40	9.94	-58.2	-67.0	3.8	7.45e-01	0	51	104	6320816128	87	10192
2026-01-16 08:49:44.83	331.70	9.65	-58.0	-66.9	3.8	7.43e-01	0	51	104	6320816128	87	10108
2026-01-16 08:49:47.85	331.99	9.37	-58.1	-67.0	3.8	7.44e-01	0	51	104	6320816128	87	10186
2026-01-16 08:49:50.88	332.28	9.09	-58.0	-66.8	3.8	7.45e-01	0	51	104	6320816128	87	10039
2026-01-16 08:49:53.91	332.56	8.81	-58.0	-66.9	3.8	7.46e-01	0	51	104	6320816128	87	10102
2026-01-16 08:49:56.93	332.83	8.53	-57.9	-66.8	3.8	7.45e-01	0	51	104	6320816128	87	9967
2026-01-16 08:49:59.96	333.10	8.26	-58.0	-66.8	3.8	7.47e-01	0	51	104	6320816128	87	10033
2026-01-16 08:50:02.99	333.37	7.99	-57.9	-66.7	3.8	7.46e-01	0	51	104	6320816128	87	9938
2026-01-16 08:50:06.01	333.62	7.73	-57.9	-66.8	3.8	7.45e-01	0	50	104	6320816128	87	9995
2026-01-16 08:50:09.04	333.88	7.47	-57.8	-66.7	3.8	7.45e-01	0	51	104	6320816128	87	9848
2026-01-16 08:50:12.06	334.12	7.21	-57.9	-66.7	3.8	7.46e-01	0	51	104	6320816128	87	9905
2026-01-16 08:50:15.09	334.36	6.96	-57.7	-66.5	3.8	7.46e-01	0	51	104	6320816128	87	9703
2026-01-16 08:50:18.12	334.60	6.70	-57.8	-66.6	3.8	7.45e-01	0	51	104	6320816128	87	9812
2026-01-16 08:50:21.14	334.83	6.46	-57.5	-66.4	3.8	7.47e-01	0	51	104	6320816128	87	9527
2026-01-16 08:50:24.17	335.06	6.21	-57.7	-66.5	3.8	7.45e-01	0	51	104	6320816128	86	10211
2026-01-16 08:50:27.19	335.28	5.97	-56.8	-65.7	3.8	7.45e-01	0	51	104	6320816128	85	9835
2026-01-16 08:50:30.22	335.50	5.73	-56.8	-65.6	3.8	7.45e-01	0	51	104	6320816128	85	9755
2026-01-16 08:50:33.25	335.71	5.49	-57.2	-66.0	3.8	7.44e-01	0	51	104	6320816128	85	10259
2026-01-16 08:50:36.27	335.92	5.25	-57.0	-65.9	3.8	7.46e-01	0	51	104	6320816128	85	10099
2026-01-16 08:50:39.30	336.13	5.02	-57.2	-66.0	3.8	7.42e-01	0	51	104	6320816128	85	10287
2026-01-16 08:50:42.32	336.33	4.79	-58.4	-67.3	3.8	7.47e-01	0	51	104	6320816128	87	10587
2026-01-16 08:50:45.35	336.53	4.56	-58.8	-67.6	3.8	7.45e-01	0	51	104	6320816128	88	10382
2026-01-16 08:50:48.37	336.72	4.34	-59.0	-67.9	3.8	7.43e-01	0	51	104	6320816128	88	10714
2026-01-16 08:50:51.40	336.92	4.11	-59.2	-68.0	3.8	7.45e-01	0	51	104	6320816128	88	10874
2026-01-16 08:50:54.43	337.10	3.89	-59.2	-68.1	3.8	7.46e-01	0	51	104	6320816128	88	10905
2026-01-16 08:50:57.46	337.29	3.67	-59.2	-68.1	3.8	7.44e-01	0	51	104	6320816128	88	10925
2026-01-16 08:51:00.48	337.47	3.46	-59.2	-68.0	3.8	7.46e-01	0	51	104	6320816128	88	10882
2026-01-16 08:51:03.51	337.65	3.24	-59.1	-68.0	3.8	7.45e-01	0	51	104	6320816128	88	10833
2026-01-16 08:51:06.53	337.82	3.03	-59.1	-67.9	3.8	7.46e-01	0	51	104	6320816128	88	10774
2026-01-16 08:51:09.56	338.00	2.82	-59.1	-67.9	3.8	7.47e-01	0	51	104	6320816128	88	10768
2026-01-16 08:51:12.59	338.17	2.61	-59.0	-67.9	3.8	7.46e-01	0	51	104	6320816128	88	10696
2026-01-16 08:51:15.61	338.33	2.41	-59.1	-68.0	3.8	7.46e-01	0	51	104	6320816128	88	10781
2026-01-16 08:51:18.64	338.50	2.20	-59.0	-67.9	3.8	7.45e-01	0	51	104	6320816128	88	10724
2026-01-16 08:51:21.66	338.66	2.00	-59.0	-67.8	3.8	7.44e-01	0	51	104	6320816128	88	10639

#Closed at: 2026-01-16 08:51:24
#Recorded file [6320 MB]: D:/lorett/data/31041_260116_114107.dat