passes_logs/2026/01/16/R3.2S_Murmansk/R3.2S_Murmansk__20260116_125449_NOAA_20_JPSS-1_rec.log

#Pass ID: 20260116_125449_NOAA 20 (JPSS-1)
#Satellite: NOAA 20 (JPSS-1)
#Configuration: NOAA 20
#almurnet v.1.7.20251203
#Start time: 2026-01-16 12:54:50

#Version: 2.2.20231116
#Station: R3.2S_Murmansk
#Location: 33.079688 lon 68.888172 lat
#TLE: 1 43013U 17073A   26015.89389188  .00000026  00000+0  33113-4 0  9999
#TLE: 2 43013  98.7636 316.8238 0001460  37.8997 322.2282 14.19536128422860

#Time	Az	El	Level	Level2	SNR	BER	BlckErr	Temp	State	Recorded	gain1	gain2
2026-01-16 12:54:50.64	240.25	2.06	-57.6	-72.1	3.8	1.49e+00	0	45	0	0	87	18380
2026-01-16 12:54:53.67	240.55	2.20	-57.5	-72.0	3.8	1.49e+00	0	45	104	0	85	20497
2026-01-16 12:54:56.70	240.85	2.34	-57.5	-72.0	3.8	1.49e+00	0	45	104	0	85	20388
2026-01-16 12:54:59.72	241.14	2.48	-57.5	-72.0	3.8	1.49e+00	0	45	104	0	85	20470
2026-01-16 12:55:02.75	241.45	2.62	-57.5	-72.1	3.8	1.49e+00	0	46	104	0	85	20552
2026-01-16 12:55:05.77	241.75	2.75	-57.5	-72.0	3.8	1.49e+00	0	46	104	0	85	20507
2026-01-16 12:55:08.80	242.06	2.89	-57.5	-71.9	3.8	1.49e+00	0	46	104	0	85	20300
2026-01-16 12:55:11.82	242.37	3.03	-57.5	-72.0	3.8	1.49e+00	0	46	104	0	85	20322
2026-01-16 12:55:14.84	242.68	3.17	-57.5	-72.0	3.8	1.49e+00	0	46	104	0	85	20333
2026-01-16 12:55:17.86	243.00	3.31	-57.5	-71.9	3.8	1.49e+00	0	46	104	0	85	20149
2026-01-16 12:55:20.89	243.32	3.44	-57.5	-72.0	3.8	1.49e+00	0	46	104	0	85	20333
2026-01-16 12:55:23.91	243.64	3.58	-57.5	-71.9	3.8	1.49e+00	0	46	104	0	85	20245
2026-01-16 12:55:26.93	243.97	3.72	-57.5	-72.0	3.8	1.49e+00	0	46	104	0	85	20331
2026-01-16 12:55:29.96	244.29	3.86	-57.5	-72.0	3.8	1.49e+00	0	46	104	0	85	20484
2026-01-16 12:55:32.99	244.63	4.00	-57.5	-72.0	3.8	1.49e+00	0	47	104	0	85	20364
2026-01-16 12:55:36.01	244.96	4.13	-57.5	-71.9	3.8	1.49e+00	0	47	104	0	85	20075
2026-01-16 12:55:39.04	245.30	4.27	-57.5	-71.8	3.8	1.49e+00	0	47	104	0	85	20002
2026-01-16 12:55:42.06	245.64	4.41	-57.5	-71.7	3.8	1.49e+00	0	47	104	0	85	19735
2026-01-16 12:55:45.09	245.98	4.55	-57.5	-71.2	3.8	1.49e+00	0	47	104	0	85	18529
2026-01-16 12:55:48.12	246.33	4.69	-57.2	-66.8	4.8	8.56e-01	0	47	0	2097152	85	11221
2026-01-16 12:55:51.14	246.68	4.82	-56.5	-62.6	8.1	1.06e-01	0	47	0	7340032	85	6885
2026-01-16 12:55:54.16	247.03	4.96	-54.2	-57.0	13.9	1.22e-05	0	47	0	12582912	80	4815
2026-01-16 12:55:57.19	247.38	5.10	-54.8	-58.0	12.9	1.60e-05	0	47	0	18874368	80	5455
2026-01-16 12:56:00.21	247.74	5.23	-55.0	-58.5	12.0	8.16e-05	0	47	0	24117248	81	5416
2026-01-16 12:56:03.24	248.10	5.37	-53.3	-55.3	15.6	0.00e+00	0	47	0	30408704	77	4758
2026-01-16 12:56:06.26	248.47	5.51	-53.0	-54.8	16.2	0.00e+00	0	47	0	35651584	77	4479
2026-01-16 12:56:09.29	248.84	5.64	-53.4	-55.4	15.7	0.00e+00	0	47	0	40894464	77	4784
2026-01-16 12:56:12.31	249.21	5.78	-53.1	-55.0	16.1	0.00e+00	0	48	0	47185920	77	4578
2026-01-16 12:56:15.34	249.59	5.92	-53.2	-55.1	16.0	0.00e+00	0	48	0	52428800	77	4615
2026-01-16 12:56:18.36	249.96	6.05	-53.1	-55.0	16.2	0.00e+00	0	48	0	58720256	77	4569
2026-01-16 12:56:21.39	250.35	6.19	-53.1	-54.9	16.2	0.00e+00	0	48	0	63963136	77	4544
2026-01-16 12:56:24.42	250.73	6.32	-53.1	-54.9	16.2	0.00e+00	0	48	0	69206016	77	4541
2026-01-16 12:56:27.44	251.12	6.45	-52.9	-54.7	16.5	0.00e+00	0	48	0	75497472	77	4408
2026-01-16 12:56:30.46	251.51	6.59	-52.6	-54.3	16.9	0.00e+00	0	48	0	80740352	77	4207
2026-01-16 12:56:33.49	251.91	6.72	-52.5	-54.1	17.1	0.00e+00	0	48	0	87031808	76	4377
2026-01-16 12:56:36.52	252.31	6.85	-52.6	-54.1	17.1	0.00e+00	0	48	0	92274688	76	4382
2026-01-16 12:56:39.54	252.71	6.99	-52.6	-54.2	17.0	0.00e+00	0	48	0	98566144	76	4426
2026-01-16 12:56:42.56	253.11	7.12	-52.4	-53.9	17.3	0.00e+00	0	48	0	103809024	76	4275
2026-01-16 12:56:45.59	253.53	7.25	-52.5	-54.0	17.3	0.00e+00	0	48	0	109051904	76	4316
2026-01-16 12:56:48.61	253.94	7.38	-52.3	-53.8	17.5	0.00e+00	0	48	0	115343360	76	4219
2026-01-16 12:56:51.64	254.36	7.51	-52.4	-53.8	17.5	0.00e+00	0	48	0	120586240	76	4236
2026-01-16 12:56:54.66	254.77	7.64	-52.4	-53.8	17.5	0.00e+00	0	48	0	126877696	76	4234
2026-01-16 12:56:57.69	255.20	7.77	-52.4	-53.9	17.4	0.00e+00	0	48	0	132120576	76	4247
2026-01-16 12:57:00.72	255.63	7.90	-52.3	-53.7	17.6	0.00e+00	0	48	0	137363456	76	4168
2026-01-16 12:57:03.74	256.06	8.02	-52.3	-53.8	17.6	0.00e+00	0	48	0	143654912	76	4212
2026-01-16 12:57:06.76	256.49	8.15	-52.3	-53.7	17.7	0.00e+00	0	48	0	148897792	76	4177
2026-01-16 12:57:09.79	256.93	8.28	-52.3	-53.8	17.6	0.00e+00	0	48	0	155189248	76	4208
2026-01-16 12:57:12.81	257.37	8.40	-52.4	-53.8	17.6	0.00e+00	0	48	0	160432128	76	4219
2026-01-16 12:57:15.83	257.82	8.53	-52.4	-53.8	17.6	0.00e+00	0	48	0	165675008	76	4239
2026-01-16 12:57:18.86	258.27	8.65	-52.4	-53.9	17.5	0.00e+00	0	48	0	171966464	76	4262
2026-01-16 12:57:21.88	258.72	8.77	-52.6	-54.1	17.3	0.00e+00	0	48	0	177209344	76	4388
2026-01-16 12:57:24.91	259.18	8.89	-52.6	-54.1	17.3	0.00e+00	0	48	0	183500800	76	4373
2026-01-16 12:57:27.93	259.64	9.01	-52.6	-54.1	17.3	0.00e+00	0	48	0	188743680	76	4384
2026-01-16 12:57:30.96	260.10	9.13	-52.5	-54.0	17.4	0.00e+00	0	48	0	195035136	76	4318
2026-01-16 12:57:33.98	260.57	9.25	-52.5	-54.0	17.4	0.00e+00	0	49	0	200278016	76	4326
2026-01-16 12:57:37.01	261.04	9.37	-52.7	-54.2	17.2	0.00e+00	0	48	0	205520896	76	4423
2026-01-16 12:57:40.03	261.52	9.48	-52.7	-54.2	17.2	0.00e+00	0	49	0	211812352	76	4433
2026-01-16 12:57:43.05	261.99	9.60	-52.6	-54.1	17.3	0.00e+00	0	49	0	217055232	76	4372
2026-01-16 12:57:46.08	262.48	9.71	-52.6	-54.1	17.4	0.00e+00	0	49	0	223346688	76	4366
2026-01-16 12:57:49.10	262.96	9.83	-52.7	-54.2	17.2	0.00e+00	0	49	0	228589568	76	4432
2026-01-16 12:57:52.12	263.45	9.94	-52.8	-54.4	17.1	0.00e+00	0	49	0	233832448	76	4497
2026-01-16 12:57:55.15	263.94	10.05	-52.8	-54.4	17.1	0.00e+00	0	49	0	240123904	76	4525
2026-01-16 12:57:58.17	264.44	10.16	-52.8	-54.3	17.1	0.00e+00	0	49	0	245366784	76	4484
2026-01-16 12:58:01.20	264.94	10.26	-52.8	-54.3	17.1	0.00e+00	0	49	0	251658240	76	4474
2026-01-16 12:58:04.22	265.44	10.37	-53.0	-54.7	16.8	0.00e+00	0	49	0	256901120	76	4665
2026-01-16 12:58:07.24	265.95	10.47	-52.9	-54.5	16.9	0.00e+00	0	49	0	263192576	76	4597
2026-01-16 12:58:10.27	266.46	10.57	-52.8	-54.3	17.1	0.00e+00	0	49	0	268435456	76	4479
2026-01-16 12:58:13.29	266.97	10.68	-52.8	-54.4	17.1	0.00e+00	0	49	0	273678336	76	4522
2026-01-16 12:58:16.32	267.49	10.77	-53.0	-54.6	16.7	0.00e+00	0	49	0	279969792	76	4646
2026-01-16 12:58:19.34	268.01	10.87	-53.1	-54.9	16.4	0.00e+00	0	49	0	285212672	76	4801
2026-01-16 12:58:22.36	268.53	10.97	-53.1	-54.9	16.4	0.00e+00	0	49	0	291504128	77	4538
2026-01-16 12:58:25.38	269.06	11.06	-53.1	-54.9	16.5	0.00e+00	0	49	0	296747008	77	4510
2026-01-16 12:58:28.41	269.59	11.15	-53.0	-54.6	16.8	0.00e+00	0	49	0	301989888	77	4381
2026-01-16 12:58:31.43	270.13	11.24	-53.0	-54.6	16.8	0.00e+00	0	49	0	308281344	77	4381
2026-01-16 12:58:34.46	270.66	11.33	-52.9	-54.5	17.0	0.00e+00	0	49	0	313524224	77	4323
2026-01-16 12:58:37.48	271.20	11.42	-52.8	-54.3	17.2	0.00e+00	0	49	0	319815680	77	4235
2026-01-16 12:58:40.51	271.75	11.50	-52.9	-54.5	17.1	0.00e+00	0	49	0	325058560	77	4327
2026-01-16 12:58:43.53	272.29	11.59	-53.0	-54.7	16.8	0.00e+00	0	49	0	330301440	77	4414
2026-01-16 12:58:46.56	272.84	11.67	-53.1	-54.8	16.8	0.00e+00	0	49	0	336592896	77	4446
2026-01-16 12:58:49.58	273.39	11.75	-53.0	-54.6	17.0	0.00e+00	0	49	0	341835776	77	4388
2026-01-16 12:58:52.61	273.95	11.82	-52.6	-54.1	17.5	0.00e+00	0	49	0	348127232	77	4126
2026-01-16 12:58:55.64	274.50	11.90	-52.6	-54.0	17.6	0.00e+00	0	49	0	353370112	77	4088
2026-01-16 12:58:58.66	275.06	11.97	-52.7	-54.2	17.4	0.00e+00	0	49	0	358612992	77	4176
2026-01-16 12:59:01.68	275.63	12.04	-52.6	-54.1	17.5	0.00e+00	0	49	0	364904448	77	4127
2026-01-16 12:59:04.71	276.19	12.11	-52.6	-54.1	17.5	0.00e+00	0	49	0	370147328	77	4128
2026-01-16 12:59:07.73	276.76	12.17	-52.3	-53.7	17.9	0.00e+00	0	49	0	376438784	76	4162
2026-01-16 12:59:10.75	277.33	12.23	-52.3	-53.6	18.0	0.00e+00	0	49	0	381681664	76	4107
2026-01-16 12:59:13.78	277.90	12.29	-52.3	-53.7	18.0	0.00e+00	0	49	0	386924544	76	4163
2026-01-16 12:59:16.81	278.47	12.35	-52.7	-54.2	17.4	0.00e+00	0	49	0	393216000	76	4402
2026-01-16 12:59:19.84	279.05	12.41	-53.0	-54.5	17.1	0.00e+00	0	49	0	398458880	76	4581
2026-01-16 12:59:22.86	279.63	12.46	-53.0	-54.6	17.1	0.00e+00	0	49	0	404750336	76	4599
2026-01-16 12:59:25.89	280.21	12.51	-53.0	-54.6	17.1	0.00e+00	0	49	0	409993216	76	4619
2026-01-16 12:59:28.91	280.79	12.56	-53.1	-54.6	17.0	0.00e+00	0	49	0	415236096	76	4647
2026-01-16 12:59:31.93	281.38	12.60	-53.3	-55.0	16.7	0.00e+00	0	49	0	421527552	77	4595
2026-01-16 12:59:34.96	281.96	12.65	-53.4	-55.2	16.5	0.00e+00	0	49	0	426770432	77	4666
2026-01-16 12:59:37.98	282.55	12.69	-53.3	-55.0	16.8	0.00e+00	0	49	0	433061888	77	4576
2026-01-16 12:59:41.01	283.14	12.72	-53.3	-55.0	16.7	0.00e+00	0	49	0	438304768	77	4587
2026-01-16 12:59:44.04	283.73	12.76	-53.3	-55.0	16.7	0.00e+00	0	49	0	443547648	77	4589
2026-01-16 12:59:47.06	284.32	12.79	-53.3	-54.9	16.9	0.00e+00	0	50	0	449839104	77	4516
2026-01-16 12:59:50.08	284.91	12.82	-53.1	-54.7	17.1	0.00e+00	0	49	0	455081984	77	4421
2026-01-16 12:59:53.11	285.51	12.85	-53.2	-54.8	17.0	0.00e+00	0	49	0	461373440	77	4456
2026-01-16 12:59:56.14	286.10	12.87	-53.1	-54.7	17.1	0.00e+00	0	49	0	466616320	77	4429
2026-01-16 12:59:59.16	286.69	12.89	-53.1	-54.7	17.1	0.00e+00	0	50	0	472907776	77	4418
2026-01-16 13:00:02.18	287.29	12.91	-53.1	-54.7	17.2	0.00e+00	0	50	0	478150656	77	4424
2026-01-16 13:00:05.21	287.89	12.92	-53.1	-54.6	17.3	0.00e+00	0	49	0	483393536	77	4370
2026-01-16 13:00:08.23	288.48	12.94	-52.9	-54.4	17.4	0.00e+00	0	49	0	489684992	77	4283
2026-01-16 13:00:11.26	289.08	12.95	-53.0	-54.5	17.4	0.00e+00	0	49	0	494927872	77	4314
2026-01-16 13:00:14.28	289.68	12.95	-52.9	-54.4	17.5	0.00e+00	0	49	0	501219328	77	4246
2026-01-16 13:00:17.30	290.28	12.96	-52.6	-53.9	18.0	0.00e+00	0	49	0	506462208	77	4045
2026-01-16 13:00:20.33	290.88	12.96	-52.6	-54.0	17.9	0.00e+00	0	49	0	511705088	77	4070
2026-01-16 13:00:23.35	291.47	12.96	-52.5	-53.8	18.0	0.00e+00	0	50	0	517996544	77	3992
2026-01-16 13:00:26.37	292.07	12.95	-52.5	-53.8	18.1	0.00e+00	0	49	0	523239424	76	4202
2026-01-16 13:00:29.40	292.67	12.94	-52.4	-53.7	18.2	0.00e+00	0	49	0	529530880	76	4163
2026-01-16 13:00:32.42	293.26	12.93	-52.0	-53.2	18.7	0.00e+00	0	49	0	534773760	76	3942
2026-01-16 13:00:35.45	293.86	12.92	-52.2	-53.4	18.5	0.00e+00	0	49	0	541065216	76	4048
2026-01-16 13:00:38.47	294.46	12.91	-52.1	-53.3	18.6	0.00e+00	0	49	0	546308096	76	3997
2026-01-16 13:00:41.50	295.05	12.89	-52.0	-53.2	18.7	0.00e+00	0	49	0	551550976	76	3931
2026-01-16 13:00:44.52	295.65	12.87	-51.9	-53.1	18.8	0.00e+00	0	49	0	557842432	75	4109
2026-01-16 13:00:47.55	296.24	12.84	-51.8	-52.9	19.0	0.00e+00	0	50	0	563085312	75	4036
2026-01-16 13:00:50.57	296.83	12.82	-51.7	-52.8	19.1	0.00e+00	0	49	0	569376768	75	3983
2026-01-16 13:00:53.60	297.43	12.79	-51.7	-52.8	19.1	0.00e+00	0	49	0	574619648	75	3971
2026-01-16 13:00:56.62	298.02	12.75	-51.7	-52.8	19.1	0.00e+00	0	49	0	579862528	75	3973
2026-01-16 13:00:59.65	298.61	12.72	-51.9	-53.0	18.9	0.00e+00	0	49	0	586153984	75	4085
2026-01-16 13:01:02.67	299.19	12.68	-51.9	-53.1	18.8	0.00e+00	0	49	0	591396864	75	4121
2026-01-16 13:01:05.69	299.78	12.64	-52.0	-53.2	18.7	0.00e+00	0	49	0	597688320	75	4163
2026-01-16 13:01:08.72	300.36	12.60	-52.0	-53.2	18.7	0.00e+00	0	49	0	602931200	75	4170
2026-01-16 13:01:11.74	300.95	12.55	-51.9	-53.0	18.9	0.00e+00	0	50	0	608174080	75	4066
2026-01-16 13:01:14.77	301.53	12.50	-51.8	-52.9	18.9	0.00e+00	0	49	0	614465536	75	4042
2026-01-16 13:01:17.79	302.11	12.45	-52.0	-53.2	18.7	0.00e+00	0	50	0	619708416	75	4157
2026-01-16 13:01:20.82	302.68	12.40	-52.3	-53.6	18.3	0.00e+00	0	49	0	625999872	75	4363
2026-01-16 13:01:23.84	303.26	12.34	-52.3	-53.6	18.3	0.00e+00	0	50	0	631242752	75	4347
2026-01-16 13:01:26.86	303.83	12.29	-52.0	-53.2	18.7	0.00e+00	0	50	0	636485632	75	4159
2026-01-16 13:01:29.89	304.40	12.23	-51.8	-52.9	18.9	0.00e+00	0	49	0	642777088	75	4027
2026-01-16 13:01:32.91	304.97	12.16	-51.8	-53.0	18.8	0.00e+00	0	49	0	648019968	75	4060
2026-01-16 13:01:35.94	305.53	12.10	-51.7	-52.8	19.0	0.00e+00	0	50	0	654311424	75	3992
2026-01-16 13:01:38.96	306.10	12.03	-51.6	-52.7	19.1	0.00e+00	0	50	0	659554304	75	3936
2026-01-16 13:01:41.98	306.66	11.96	-51.8	-52.9	18.8	0.00e+00	0	50	0	664797184	75	4048
2026-01-16 13:01:45.01	307.22	11.89	-51.7	-52.9	18.9	0.00e+00	0	50	0	671088640	75	4005
2026-01-16 13:01:48.03	307.77	11.82	-51.6	-52.7	19.1	0.00e+00	0	50	0	676331520	75	3923
2026-01-16 13:01:51.06	308.32	11.74	-51.6	-52.7	19.0	0.00e+00	0	50	0	682622976	75	3941
2026-01-16 13:01:54.08	308.87	11.66	-51.5	-52.6	19.1	0.00e+00	0	49	0	687865856	75	3892
2026-01-16 13:01:57.11	309.42	11.58	-51.7	-52.8	19.0	0.00e+00	0	50	0	693108736	75	3974
2026-01-16 13:02:00.14	309.96	11.50	-51.7	-52.8	18.9	0.00e+00	0	50	0	699400192	75	3982
2026-01-16 13:02:03.16	310.50	11.41	-51.8	-53.0	18.7	0.00e+00	0	50	0	704643072	75	4063
2026-01-16 13:02:06.19	311.04	11.33	-51.7	-52.8	18.6	0.00e+00	0	50	0	710934528	75	3994
2026-01-16 13:02:09.21	311.58	11.24	-51.5	-52.6	19.0	0.00e+00	0	50	0	716177408	74	4134
2026-01-16 13:02:12.24	312.11	11.15	-51.6	-52.8	18.6	0.00e+00	0	50	0	721420288	74	4208
2026-01-16 13:02:15.26	312.64	11.06	-51.8	-52.9	18.6	0.00e+00	0	50	0	727711744	74	4284
2026-01-16 13:02:18.29	313.16	10.96	-51.8	-53.0	18.3	0.00e+00	0	50	0	732954624	74	4297
2026-01-16 13:02:21.31	313.68	10.87	-51.8	-53.0	18.4	0.00e+00	0	50	0	739246080	74	4312
2026-01-16 13:02:24.34	314.20	10.77	-52.0	-53.2	18.1	0.00e+00	0	50	0	744488960	74	4416
2026-01-16 13:02:27.36	314.72	10.67	-52.1	-53.3	18.2	0.00e+00	0	50	0	750780416	74	4490
2026-01-16 13:02:30.39	315.23	10.57	-52.3	-53.6	17.9	0.00e+00	0	50	0	756023296	75	4389
2026-01-16 13:02:33.42	315.74	10.47	-52.7	-54.2	17.5	0.00e+00	0	50	0	761266176	76	4415
2026-01-16 13:02:36.44	316.24	10.36	-53.1	-54.8	16.8	0.00e+00	0	50	0	767557632	76	4713
2026-01-16 13:02:39.47	316.74	10.26	-53.2	-54.9	16.7	0.00e+00	0	50	0	772800512	77	4542
2026-01-16 13:02:42.49	317.24	10.15	-53.1	-54.7	16.9	0.00e+00	0	50	0	779091968	77	4421
2026-01-16 13:02:45.51	317.73	10.05	-53.2	-55.0	16.6	0.00e+00	0	50	0	784334848	77	4553
2026-01-16 13:02:48.54	318.23	9.94	-53.4	-55.2	16.4	0.00e+00	0	50	0	790626304	77	4684
2026-01-16 13:02:51.57	318.71	9.83	-53.6	-55.5	16.0	0.00e+00	0	50	0	795869184	77	4864
2026-01-16 13:02:54.59	319.20	9.71	-54.1	-56.3	15.3	0.00e+00	0	50	0	801112064	78	4987
2026-01-16 13:02:57.62	319.68	9.60	-54.5	-57.0	14.6	0.00e+00	0	50	0	807403520	79	5119
2026-01-16 13:03:00.64	320.15	9.49	-54.7	-57.2	14.3	0.00e+00	0	50	0	812646400	79	5277
2026-01-16 13:03:03.67	320.63	9.37	-54.4	-56.8	14.8	7.00e-07	0	50	0	818937856	79	5016
2026-01-16 13:03:06.69	321.10	9.25	-54.1	-56.3	15.2	0.00e+00	0	50	0	824180736	79	4743
2026-01-16 13:03:09.72	321.56	9.14	-54.0	-56.1	15.4	0.00e+00	0	50	0	829423616	79	4639
2026-01-16 13:03:12.75	322.02	9.02	-53.9	-56.0	15.5	0.00e+00	0	50	0	835715072	79	4589
2026-01-16 13:03:15.77	322.48	8.90	-54.0	-56.2	15.3	0.00e+00	0	50	0	840957952	79	4682
2026-01-16 13:03:18.80	322.94	8.78	-54.2	-56.6	14.9	0.00e+00	0	50	0	847249408	79	4877
2026-01-16 13:03:21.82	323.39	8.66	-54.3	-56.7	14.8	0.00e+00	0	50	0	852492288	79	4931
2026-01-16 13:03:24.85	323.83	8.53	-54.0	-56.1	15.3	0.00e+00	0	50	0	857735168	79	4649
2026-01-16 13:03:27.87	324.28	8.41	-53.8	-55.8	15.7	0.00e+00	0	50	0	864026624	79	4470
2026-01-16 13:03:30.90	324.72	8.29	-54.0	-56.2	15.2	0.00e+00	0	50	0	869269504	79	4699
2026-01-16 13:03:33.93	325.16	8.16	-54.2	-56.5	15.0	0.00e+00	0	50	0	875560960	79	4829
2026-01-16 13:03:36.95	325.59	8.03	-53.7	-55.7	15.7	0.00e+00	0	50	0	880803840	79	4437
2026-01-16 13:03:39.98	326.02	7.91	-53.3	-55.1	16.3	0.00e+00	0	50	0	886046720	78	4363
2026-01-16 13:03:43.00	326.44	7.78	-53.4	-55.2	16.2	0.00e+00	0	50	0	892338176	78	4428
2026-01-16 13:03:46.02	326.86	7.65	-53.5	-55.4	16.0	0.00e+00	0	50	0	897581056	78	4520
2026-01-16 13:03:49.05	327.28	7.52	-53.5	-55.4	15.9	0.00e+00	0	50	0	903872512	78	4543
2026-01-16 13:03:52.07	327.70	7.40	-53.6	-55.7	15.7	0.00e+00	0	50	0	909115392	78	4665
2026-01-16 13:03:55.10	328.11	7.27	-53.5	-55.5	15.8	0.00e+00	0	50	0	914358272	78	4576
2026-01-16 13:03:58.12	328.52	7.14	-53.6	-55.7	15.7	0.00e+00	0	50	0	920649728	78	4652
2026-01-16 13:04:01.15	328.92	7.00	-53.2	-55.0	16.3	0.00e+00	0	50	0	925892608	78	4335
2026-01-16 13:04:04.17	329.32	6.87	-52.8	-54.5	16.8	0.00e+00	0	50	0	932184064	77	4308
2026-01-16 13:04:07.20	329.72	6.74	-52.7	-54.4	17.0	0.00e+00	0	50	0	937426944	77	4248
2026-01-16 13:04:10.23	330.11	6.61	-52.8	-54.5	16.9	0.00e+00	0	50	0	942669824	77	4292
2026-01-16 13:04:13.25	330.50	6.48	-52.9	-54.6	16.7	0.00e+00	0	50	0	948961280	77	4347
2026-01-16 13:04:16.27	330.89	6.34	-52.9	-54.6	16.7	0.00e+00	0	50	0	954204160	77	4352
2026-01-16 13:04:19.30	331.27	6.21	-52.5	-54.1	17.1	0.00e+00	0	50	0	960495616	77	4120
2026-01-16 13:04:22.32	331.65	6.08	-52.7	-54.4	16.8	0.00e+00	0	50	0	965738496	76	4509
2026-01-16 13:04:25.34	332.03	5.94	-53.1	-54.9	16.3	0.00e+00	0	50	0	972029952	76	4772
2026-01-16 13:04:28.37	332.40	5.81	-52.9	-54.7	16.4	0.00e+00	0	50	0	977272832	77	4414
2026-01-16 13:04:31.39	332.77	5.67	-52.9	-54.7	16.4	0.00e+00	0	50	0	982515712	77	4398
2026-01-16 13:04:34.42	333.14	5.54	-52.7	-54.3	16.9	0.00e+00	0	50	0	988807168	77	4227
2026-01-16 13:04:37.44	333.51	5.40	-52.6	-54.3	16.8	0.00e+00	0	50	0	994050048	77	4198
2026-01-16 13:04:40.46	333.87	5.27	-52.7	-54.4	16.6	0.00e+00	0	50	0	1000341504	77	4274
2026-01-16 13:04:43.49	334.22	5.13	-52.4	-54.2	16.5	0.00e+00	0	50	0	1005584384	76	4406
2026-01-16 13:04:46.52	334.58	5.00	-54.7	-58.1	12.6	2.67e-05	0	50	0	1010827264	79	5848
2026-01-16 13:04:49.54	334.93	4.86	-58.5	-73.0	3.8	1.49e+00	0	50	104	1011875840	87	20371
2026-01-16 13:04:52.56	335.28	4.72	-58.7	-73.3	3.8	1.49e+00	0	50	104	1011875840	88	19913
2026-01-16 13:04:55.59	335.62	4.59	-59.0	-73.5	3.8	1.49e+00	0	50	104	1011875840	88	20392
2026-01-16 13:04:58.62	335.97	4.45	-59.0	-73.6	3.8	1.49e+00	0	50	104	1011875840	88	20614
2026-01-16 13:05:01.64	336.30	4.31	-59.1	-73.6	3.8	1.49e+00	0	50	104	1011875840	88	20658
2026-01-16 13:05:04.67	336.64	4.18	-59.0	-73.6	3.8	1.49e+00	0	50	104	1011875840	88	20633
2026-01-16 13:05:07.70	336.97	4.04	-59.0	-73.6	3.8	1.49e+00	0	50	104	1011875840	88	20703
2026-01-16 13:05:10.72	337.30	3.90	-59.0	-73.5	3.8	1.49e+00	0	50	104	1011875840	88	20492
2026-01-16 13:05:13.75	337.63	3.77	-59.0	-73.5	3.8	1.49e+00	0	50	104	1011875840	88	20452
2026-01-16 13:05:16.78	337.96	3.63	-59.0	-73.5	3.8	1.49e+00	0	50	104	1011875840	88	20379
2026-01-16 13:05:19.80	338.28	3.49	-58.9	-73.5	3.8	1.49e+00	0	50	104	1011875840	88	20444
2026-01-16 13:05:22.83	338.60	3.36	-58.9	-73.5	3.8	1.49e+00	0	50	104	1011875840	88	20317
2026-01-16 13:05:25.85	338.91	3.22	-58.9	-73.5	3.8	1.49e+00	0	50	104	1011875840	88	20335
2026-01-16 13:05:28.88	339.22	3.08	-58.9	-73.4	3.8	1.49e+00	0	50	104	1011875840	88	20254
2026-01-16 13:05:31.90	339.53	2.95	-58.9	-73.4	3.8	1.49e+00	0	50	104	1011875840	88	20300
2026-01-16 13:05:34.93	339.84	2.81	-58.9	-73.4	3.8	1.49e+00	0	50	104	1011875840	88	20257
2026-01-16 13:05:37.95	340.15	2.67	-58.9	-73.4	3.8	1.49e+00	0	50	104	1011875840	88	20242
2026-01-16 13:05:40.97	340.45	2.53	-58.9	-73.4	3.8	1.49e+00	0	50	104	1011875840	88	20223
2026-01-16 13:05:44.00	340.75	2.40	-58.9	-73.4	3.8	1.49e+00	0	50	104	1011875840	88	20193
2026-01-16 13:05:47.03	341.04	2.26	-58.9	-73.4	3.8	1.49e+00	0	50	104	1011875840	88	20222
2026-01-16 13:05:50.05	341.34	2.12	-58.9	-73.4	3.8	1.49e+00	0	50	104	1011875840	88	20214
2026-01-16 13:05:53.08	341.63	1.99	-58.9	-73.4	3.8	1.49e+00	0	50	104	1011875840	88	20200

#Closed at: 2026-01-16 13:05:55
#Recorded file [1011 MB]: D:/lorett/data/31041_260116_155450.dat