passes_logs/2026/01/16/R3.2S_Murmansk/R3.2S_Murmansk__20260116_055141_SUOMI_NPP_rec.log

#Pass ID: 20260116_055141_SUOMI NPP
#Satellite: SUOMI NPP
#Configuration: NPP
#almurnet v.1.7.20251203
#Start time: 2026-01-16 05:51:40

#Version: 2.2.20231116
#Station: R3.2S_Murmansk
#Location: 33.079688 lon 68.888172 lat
#TLE: 1 37849U 11061A   26015.52691075  .00000052  00000+0  45753-4 0  9993
#TLE: 2 37849  98.7811 317.5709 0002448  62.7632 297.3794 14.19525354736784

#Time	Az	El	Level	Level2	SNR	BER	BlckErr	Temp	State	Recorded	gain1	gain2
2026-01-16 05:51:40.86	72.19	1.97	-56.5	-71.4	3.8	1.49e+00	0	41	0	0	84	20246
2026-01-16 05:51:43.89	72.00	2.14	-56.4	-71.3	3.8	1.49e+00	0	41	104	0	83	21211
2026-01-16 05:51:46.92	71.80	2.31	-56.4	-71.3	3.8	1.49e+00	0	42	104	0	83	21158
2026-01-16 05:51:49.95	71.61	2.49	-56.4	-71.3	3.8	1.49e+00	0	42	104	0	83	21168
2026-01-16 05:51:52.98	71.41	2.66	-56.4	-71.3	3.8	1.49e+00	0	42	104	0	83	21187
2026-01-16 05:51:56.01	71.22	2.84	-56.3	-71.3	3.8	1.49e+00	0	42	104	0	83	21180
2026-01-16 05:51:59.04	71.02	3.02	-56.4	-71.3	3.8	1.49e+00	0	42	104	0	83	21181
2026-01-16 05:52:02.07	70.81	3.19	-56.3	-71.3	3.8	1.49e+00	0	43	104	0	83	21091
2026-01-16 05:52:05.10	70.60	3.37	-56.3	-71.3	3.8	1.49e+00	0	43	104	0	83	21106
2026-01-16 05:52:08.13	70.40	3.55	-56.3	-71.3	3.8	1.49e+00	0	43	104	0	83	21165
2026-01-16 05:52:11.16	70.18	3.73	-56.3	-71.2	3.8	1.49e+00	0	43	104	0	83	20998
2026-01-16 05:52:14.19	69.97	3.91	-56.3	-71.3	3.8	1.49e+00	0	43	104	0	83	21073
2026-01-16 05:52:17.22	69.75	4.09	-56.3	-70.8	3.8	1.49e+00	0	43	104	0	83	20035
2026-01-16 05:52:20.25	69.53	4.28	-56.2	-69.4	3.8	1.49e+00	0	43	104	0	83	17014
2026-01-16 05:52:23.28	69.31	4.46	-56.1	-67.3	4.3	1.39e+00	1	43	0	0	83	13394
2026-01-16 05:52:26.31	69.08	4.64	-55.8	-64.3	5.9	4.22e-01	0	44	0	4194304	83	9496
2026-01-16 05:52:29.34	68.85	4.83	-55.4	-62.6	7.4	1.45e-01	0	44	0	10485760	82	8265
2026-01-16 05:52:32.37	68.62	5.02	-55.5	-62.9	7.1	3.28e-02	0	44	0	15728640	81	9043
2026-01-16 05:52:35.40	68.39	5.20	-55.2	-61.5	8.5	5.15e-02	0	44	0	22020096	81	7678
2026-01-16 05:52:38.43	68.15	5.39	-55.6	-63.4	6.4	9.11e-01	0	44	0	27262976	82	9045
2026-01-16 05:52:41.46	67.91	5.58	-52.6	-55.2	15.2	0.00e+00	0	44	0	32505856	77	4696
2026-01-16 05:52:44.48	67.66	5.77	-53.0	-55.9	14.6	7.00e-07	0	44	0	38797312	77	5083
2026-01-16 05:52:47.51	67.42	5.96	-52.9	-55.7	14.9	0.00e+00	0	45	0	44040192	77	4953
2026-01-16 05:52:50.54	67.16	6.15	-52.8	-55.6	15.0	0.00e+00	0	45	0	50331648	76	5192
2026-01-16 05:52:53.57	66.91	6.34	-52.9	-55.8	14.7	7.00e-07	0	44	0	55574528	76	5323
2026-01-16 05:52:56.60	66.65	6.53	-52.9	-55.8	14.9	0.00e+00	0	45	0	60817408	76	5283
2026-01-16 05:52:59.63	66.39	6.73	-52.7	-55.4	15.3	0.00e+00	0	45	0	67108864	76	5063
2026-01-16 05:53:02.66	66.12	6.92	-53.0	-55.9	14.8	0.00e+00	0	45	0	72351744	76	5341
2026-01-16 05:53:05.68	65.85	7.12	-53.3	-56.4	14.2	7.00e-07	0	45	0	78643200	77	5388
2026-01-16 05:53:08.71	65.58	7.31	-52.8	-55.7	15.0	0.00e+00	0	45	0	83886080	77	4936
2026-01-16 05:53:11.74	65.30	7.51	-52.7	-55.5	15.2	0.00e+00	0	45	0	89128960	77	4830
2026-01-16 05:53:14.77	65.02	7.71	-52.9	-55.7	15.1	0.00e+00	0	46	0	95420416	77	4947
2026-01-16 05:53:17.79	64.74	7.90	-52.6	-55.2	15.6	0.00e+00	0	45	0	100663296	77	4668
2026-01-16 05:53:20.82	64.45	8.10	-52.5	-55.0	15.8	0.00e+00	0	46	0	106954752	76	4836
2026-01-16 05:53:23.85	64.16	8.31	-52.2	-54.6	16.2	0.00e+00	0	45	0	112197632	76	4635
2026-01-16 05:53:26.88	63.86	8.51	-52.2	-54.5	16.3	0.00e+00	0	46	0	118489088	76	4577
2026-01-16 05:53:29.91	63.56	8.71	-52.1	-54.4	16.5	0.00e+00	0	46	0	123731968	75	4766
2026-01-16 05:53:32.94	63.25	8.91	-52.1	-54.4	16.4	0.00e+00	0	46	0	128974848	75	4805
2026-01-16 05:53:35.97	62.94	9.12	-52.1	-54.4	16.4	0.00e+00	0	46	0	135266304	75	4805
2026-01-16 05:53:39.00	62.63	9.32	-52.1	-54.4	16.5	0.00e+00	0	46	0	140509184	75	4805
2026-01-16 05:53:42.02	62.31	9.53	-52.4	-54.7	16.2	0.00e+00	0	46	0	146800640	75	4983
2026-01-16 05:53:45.05	61.98	9.73	-52.1	-54.3	16.6	0.00e+00	0	46	0	152043520	75	4731
2026-01-16 05:53:48.09	61.65	9.94	-52.3	-54.7	16.3	0.00e+00	0	46	0	158334976	75	4944
2026-01-16 05:53:51.12	61.32	10.15	-52.3	-54.6	16.3	0.00e+00	0	46	0	163577856	75	4906
2026-01-16 05:53:54.14	60.98	10.36	-52.2	-54.5	16.5	0.00e+00	0	46	0	168820736	75	4820
2026-01-16 05:53:57.17	60.64	10.57	-52.6	-55.0	16.0	0.00e+00	0	46	0	175112192	75	5125
2026-01-16 05:54:00.20	60.29	10.78	-52.5	-54.9	16.1	0.00e+00	0	46	0	180355072	75	5049
2026-01-16 05:54:03.23	59.94	10.99	-52.3	-54.6	16.4	0.00e+00	0	47	0	186646528	75	4875
2026-01-16 05:54:06.26	59.58	11.20	-52.1	-54.4	16.6	0.00e+00	0	46	0	191889408	75	4761
2026-01-16 05:54:09.29	59.21	11.41	-52.1	-54.3	16.7	0.00e+00	0	47	0	197132288	75	4708
2026-01-16 05:54:12.31	58.84	11.62	-52.1	-54.2	16.8	0.00e+00	0	47	0	203423744	75	4698
2026-01-16 05:54:15.34	58.47	11.84	-51.9	-53.9	17.1	0.00e+00	0	47	0	208666624	75	4533
2026-01-16 05:54:18.37	58.09	12.05	-51.7	-53.7	17.4	0.00e+00	0	47	0	214958080	75	4399
2026-01-16 05:54:21.40	57.70	12.27	-51.5	-53.5	17.5	0.00e+00	0	47	0	220200960	75	4323
2026-01-16 05:54:24.43	57.31	12.48	-51.5	-53.4	17.6	0.00e+00	0	47	0	225443840	74	4542
2026-01-16 05:54:27.46	56.91	12.70	-51.6	-53.6	17.5	0.00e+00	0	47	0	231735296	74	4608
2026-01-16 05:54:30.49	56.50	12.92	-51.3	-53.2	17.8	0.00e+00	0	47	0	236978176	74	4423
2026-01-16 05:54:33.52	56.09	13.13	-51.3	-53.2	17.9	0.00e+00	0	47	0	243269632	74	4406
2026-01-16 05:54:36.55	55.68	13.35	-51.4	-53.3	17.8	0.00e+00	0	47	0	248512512	74	4444
2026-01-16 05:54:39.57	55.25	13.57	-51.2	-53.1	17.9	0.00e+00	0	47	0	254803968	74	4350
2026-01-16 05:54:42.60	54.82	13.79	-51.3	-53.2	17.8	0.00e+00	0	47	0	260046848	74	4427
2026-01-16 05:54:45.63	54.39	14.01	-51.3	-53.2	17.8	0.00e+00	0	47	0	265289728	74	4435
2026-01-16 05:54:48.66	53.95	14.23	-51.4	-53.3	17.7	0.00e+00	0	47	0	271581184	74	4480
2026-01-16 05:54:51.69	53.50	14.45	-51.6	-53.7	17.4	0.00e+00	0	47	0	276824064	74	4693
2026-01-16 05:54:54.72	53.04	14.66	-51.6	-53.7	17.4	0.00e+00	0	47	0	283115520	74	4671
2026-01-16 05:54:57.74	52.58	14.88	-51.7	-53.7	17.4	0.00e+00	0	47	0	288358400	74	4687
2026-01-16 05:55:00.77	52.11	15.10	-51.6	-53.6	17.5	0.00e+00	0	47	0	294649856	74	4622
2026-01-16 05:55:03.80	51.63	15.32	-51.5	-53.5	17.5	0.00e+00	0	47	0	299892736	74	4587
2026-01-16 05:55:06.83	51.15	15.54	-52.1	-54.3	16.9	0.00e+00	0	47	0	305135616	75	4731
2026-01-16 05:55:09.86	50.65	15.76	-52.1	-54.3	16.8	0.00e+00	0	47	0	311427072	75	4752
2026-01-16 05:55:12.88	50.16	15.98	-52.2	-54.5	16.7	0.00e+00	0	47	0	316669952	75	4844
2026-01-16 05:55:15.91	49.65	16.20	-51.7	-53.7	17.5	0.00e+00	0	48	0	322961408	75	4417
2026-01-16 05:55:18.94	49.13	16.42	-51.5	-53.5	17.6	0.00e+00	0	48	0	328204288	75	4320
2026-01-16 05:55:21.97	48.61	16.64	-51.7	-53.8	17.4	0.00e+00	0	48	0	333447168	75	4470
2026-01-16 05:55:25.00	48.08	16.85	-51.6	-53.6	17.6	0.00e+00	0	48	0	339738624	74	4600
2026-01-16 05:55:28.02	47.55	17.07	-51.8	-53.9	17.3	0.00e+00	0	47	0	344981504	74	4805
2026-01-16 05:55:31.05	47.00	17.29	-51.7	-53.7	17.5	0.00e+00	0	48	0	351272960	74	4678
2026-01-16 05:55:34.08	46.45	17.50	-52.3	-54.5	16.7	0.00e+00	0	48	0	356515840	75	4866
2026-01-16 05:55:37.11	45.89	17.71	-51.8	-53.8	17.3	0.00e+00	0	48	0	361758720	75	4491
2026-01-16 05:55:40.14	45.32	17.93	-51.6	-53.6	17.6	0.00e+00	0	48	0	368050176	75	4352
2026-01-16 05:55:43.17	44.74	18.14	-51.0	-52.8	18.4	0.00e+00	0	48	0	373293056	73	4457
2026-01-16 05:55:46.20	44.15	18.35	-51.0	-52.8	18.4	0.00e+00	0	48	0	379584512	73	4442
2026-01-16 05:55:49.23	43.56	18.56	-51.0	-52.8	18.3	0.00e+00	0	48	0	384827392	73	4470
2026-01-16 05:55:52.26	42.96	18.77	-50.7	-52.5	18.7	0.00e+00	0	48	0	391118848	73	4295
2026-01-16 05:55:55.29	42.35	18.98	-50.5	-52.2	19.0	0.00e+00	0	48	0	396361728	72	4396
2026-01-16 05:55:58.32	41.73	19.18	-50.1	-51.6	19.6	0.00e+00	0	48	0	401604608	71	4369
2026-01-16 05:56:01.35	41.10	19.38	-50.4	-51.9	19.2	0.00e+00	0	48	0	407896064	71	4544
2026-01-16 05:56:04.38	40.46	19.58	-50.2	-51.8	19.4	0.00e+00	0	48	0	413138944	71	4442
2026-01-16 05:56:07.41	39.82	19.78	-50.0	-51.4	19.7	0.00e+00	0	48	0	419430400	71	4279
2026-01-16 05:56:10.44	39.17	19.98	-49.9	-51.4	19.8	0.00e+00	0	48	0	424673280	71	4243
2026-01-16 05:56:13.46	38.51	20.17	-50.0	-51.5	19.6	0.00e+00	0	48	0	430964736	71	4327
2026-01-16 05:56:16.49	37.84	20.36	-50.0	-51.5	19.7	0.00e+00	0	48	0	436207616	71	4293
2026-01-16 05:56:19.52	37.16	20.55	-50.0	-51.5	19.6	0.00e+00	0	48	0	441450496	71	4335
2026-01-16 05:56:22.55	36.47	20.74	-49.6	-51.0	20.2	0.00e+00	0	48	0	447741952	71	4056
2026-01-16 05:56:25.58	35.78	20.92	-49.7	-51.1	20.0	0.00e+00	0	48	0	452984832	71	4131
2026-01-16 05:56:28.61	35.08	21.10	-49.5	-50.9	20.3	0.00e+00	0	48	0	459276288	70	4259
2026-01-16 05:56:31.64	34.36	21.27	-49.5	-50.9	20.3	0.00e+00	0	48	0	464519168	70	4245
2026-01-16 05:56:34.67	33.64	21.45	-49.1	-50.4	20.8	0.00e+00	0	48	0	469762048	70	4015
2026-01-16 05:56:37.70	32.92	21.62	-49.6	-50.9	20.3	0.00e+00	0	48	0	476053504	70	4291
2026-01-16 05:56:40.73	32.18	21.78	-49.2	-50.4	20.7	0.00e+00	0	48	0	481296384	70	4049
2026-01-16 05:56:43.76	31.44	21.94	-49.7	-51.1	20.1	0.00e+00	0	48	0	487587840	70	4387
2026-01-16 05:56:46.79	30.69	22.10	-49.6	-50.9	20.3	0.00e+00	0	48	0	492830720	70	4284
2026-01-16 05:56:49.82	29.93	22.25	-49.7	-51.1	20.1	0.00e+00	0	48	0	498073600	70	4366
2026-01-16 05:56:52.85	29.16	22.40	-49.7	-51.1	20.1	0.00e+00	0	48	0	504365056	70	4374
2026-01-16 05:56:55.88	28.39	22.54	-49.6	-50.9	20.3	0.00e+00	0	48	0	509607936	70	4267
2026-01-16 05:56:58.91	27.61	22.68	-49.3	-50.6	20.6	0.00e+00	0	48	0	515899392	70	4137
2026-01-16 05:57:01.94	26.82	22.81	-49.4	-50.7	20.6	0.00e+00	0	48	0	521142272	70	4147
2026-01-16 05:57:04.97	26.03	22.94	-49.0	-50.2	21.0	0.00e+00	0	48	0	527433728	70	3919
2026-01-16 05:57:08.00	25.23	23.06	-49.4	-50.7	20.5	0.00e+00	0	48	0	532676608	69	4430
2026-01-16 05:57:11.03	24.42	23.18	-49.7	-51.0	20.3	0.00e+00	0	48	0	537919488	70	4334
2026-01-16 05:57:14.06	23.61	23.29	-50.6	-52.2	19.1	0.00e+00	0	48	0	544210944	72	4417
2026-01-16 05:57:17.09	22.79	23.39	-51.0	-52.7	18.7	0.00e+00	0	48	0	549453824	73	4421
2026-01-16 05:57:20.12	21.97	23.49	-51.0	-52.7	18.7	0.00e+00	0	48	0	555745280	73	4396
2026-01-16 05:57:23.15	21.14	23.58	-50.4	-51.9	19.4	0.00e+00	0	48	0	560988160	72	4260
2026-01-16 05:57:26.18	20.31	23.67	-50.6	-52.2	19.2	0.00e+00	0	48	0	567279616	72	4394
2026-01-16 05:57:29.21	19.47	23.75	-50.5	-52.1	19.2	0.00e+00	0	48	0	572522496	72	4364
2026-01-16 05:57:32.24	18.63	23.83	-50.9	-52.6	18.7	0.00e+00	0	48	0	577765376	72	4621
2026-01-16 05:57:35.27	17.78	23.89	-51.2	-52.9	18.4	0.00e+00	0	49	0	584056832	73	4518
2026-01-16 05:57:38.30	16.93	23.95	-51.5	-53.3	18.1	0.00e+00	0	48	0	589299712	73	4743
2026-01-16 05:57:41.33	16.08	24.01	-51.7	-53.6	17.7	0.00e+00	0	48	0	595591168	74	4643
2026-01-16 05:57:44.36	15.22	24.06	-51.4	-53.3	18.1	0.00e+00	0	48	0	600834048	74	4448
2026-01-16 05:57:47.39	14.37	24.10	-51.5	-53.3	18.1	0.00e+00	0	48	0	606076928	74	4482
2026-01-16 05:57:50.42	13.51	24.13	-51.8	-53.7	17.6	0.00e+00	0	48	0	612368384	74	4701
2026-01-16 05:57:53.45	12.65	24.16	-51.6	-53.5	17.9	0.00e+00	0	48	0	617611264	74	4575
2026-01-16 05:57:56.48	11.78	24.18	-50.8	-52.4	18.9	0.00e+00	0	48	0	623902720	73	4279
2026-01-16 05:57:59.51	10.92	24.19	-50.2	-51.7	19.5	0.00e+00	0	48	0	629145600	72	4182
2026-01-16 05:58:02.54	10.06	24.19	-50.8	-52.5	18.8	0.00e+00	0	48	0	634388480	72	4579
2026-01-16 05:58:05.57	9.19	24.19	-50.9	-52.6	18.7	0.00e+00	0	48	0	640679936	72	4626
2026-01-16 05:58:08.60	8.33	24.18	-50.8	-52.5	18.8	0.00e+00	0	48	0	645922816	72	4584
2026-01-16 05:58:11.62	7.47	24.17	-50.4	-52.0	19.3	0.00e+00	0	48	0	652214272	72	4316
2026-01-16 05:58:14.66	6.60	24.15	-50.1	-51.6	19.6	0.00e+00	0	48	0	657457152	72	4138
2026-01-16 05:58:17.69	5.74	24.12	-50.2	-51.7	19.6	0.00e+00	0	48	0	663748608	72	4165
2026-01-16 05:58:20.72	4.89	24.08	-50.3	-51.8	19.5	0.00e+00	0	48	0	668991488	72	4232
2026-01-16 05:58:23.75	4.03	24.04	-49.8	-51.2	20.2	0.00e+00	0	48	0	674234368	71	4146
2026-01-16 05:58:26.78	3.18	23.98	-49.7	-51.0	20.3	0.00e+00	0	49	0	680525824	71	4071
2026-01-16 05:58:29.81	2.32	23.93	-49.2	-50.4	20.9	0.00e+00	0	48	0	685768704	70	4029
2026-01-16 05:58:32.84	1.48	23.86	-49.0	-50.2	21.1	0.00e+00	0	49	0	692060160	69	4149
2026-01-16 05:58:35.87	0.63	23.79	-49.4	-50.7	20.6	0.00e+00	0	48	0	697303040	69	4403
2026-01-16 05:58:38.89	359.80	23.72	-49.3	-50.6	20.7	0.00e+00	0	49	0	703594496	69	4358
2026-01-16 05:58:41.92	358.96	23.63	-49.5	-50.7	20.6	0.00e+00	0	48	0	708837376	69	4435
2026-01-16 05:58:44.95	358.13	23.54	-49.9	-51.3	20.1	0.00e+00	0	49	0	714080256	70	4477
2026-01-16 05:58:47.98	357.30	23.45	-49.5	-50.7	20.6	0.00e+00	0	48	0	720371712	70	4183
2026-01-16 05:58:51.00	356.49	23.35	-50.2	-51.6	19.8	0.00e+00	0	49	0	725614592	71	4361
2026-01-16 05:58:54.03	355.67	23.24	-49.6	-50.9	20.4	0.00e+00	0	48	0	731906048	71	4035
2026-01-16 05:58:57.06	354.86	23.12	-49.9	-51.2	20.1	0.00e+00	0	48	0	737148928	71	4187
2026-01-16 05:59:00.09	354.06	23.01	-50.3	-51.7	19.7	0.00e+00	0	48	0	742391808	71	4423
2026-01-16 05:59:03.12	353.26	22.88	-50.3	-51.8	19.6	0.00e+00	0	49	0	748683264	71	4448
2026-01-16 05:59:06.15	352.47	22.75	-50.9	-52.6	18.7	0.00e+00	0	49	0	753926144	72	4614
2026-01-16 05:59:09.17	351.69	22.62	-51.3	-53.1	18.3	0.00e+00	0	49	0	760217600	73	4603
2026-01-16 05:59:12.20	350.91	22.48	-51.0	-52.7	18.6	0.00e+00	0	49	0	765460480	73	4430
2026-01-16 05:59:15.23	350.14	22.33	-51.0	-52.7	18.6	0.00e+00	0	49	0	770703360	73	4410
2026-01-16 05:59:18.26	349.38	22.18	-51.1	-52.8	18.5	0.00e+00	0	49	0	776994816	73	4479
2026-01-16 05:59:21.28	348.63	22.03	-50.7	-52.3	19.0	0.00e+00	0	49	0	782237696	73	4225
2026-01-16 05:59:24.31	347.88	21.87	-51.0	-52.6	18.7	0.00e+00	0	49	0	788529152	73	4391
2026-01-16 05:59:27.34	347.14	21.71	-51.3	-53.1	18.3	0.00e+00	0	49	0	793772032	73	4605
2026-01-16 05:59:30.36	346.42	21.54	-51.6	-53.5	17.8	0.00e+00	0	49	0	800063488	74	4572
2026-01-16 05:59:33.39	345.69	21.37	-51.3	-53.1	18.3	0.00e+00	0	48	0	805306368	74	4388
2026-01-16 05:59:36.41	344.98	21.20	-51.1	-52.8	18.5	0.00e+00	0	49	0	810549248	73	4490
2026-01-16 05:59:39.44	344.27	21.02	-52.1	-54.3	17.2	0.00e+00	0	49	0	816840704	74	4985
2026-01-16 05:59:42.47	343.57	20.84	-52.5	-54.9	16.5	0.00e+00	0	49	0	822083584	75	5055
2026-01-16 05:59:45.50	342.88	20.66	-51.3	-53.2	18.2	0.00e+00	0	49	0	828375040	74	4400
2026-01-16 05:59:48.52	342.20	20.47	-50.7	-52.3	19.1	0.00e+00	0	49	0	833617920	73	4236
2026-01-16 05:59:51.55	341.53	20.28	-50.5	-52.1	19.2	0.00e+00	0	49	0	838860800	72	4379
2026-01-16 05:59:54.58	340.86	20.09	-50.0	-51.5	19.7	0.00e+00	0	49	0	845152256	71	4315
2026-01-16 05:59:57.60	340.21	19.90	-49.6	-51.0	20.2	0.00e+00	0	49	0	850395136	71	4076
2026-01-16 06:00:00.63	339.56	19.70	-49.3	-50.5	20.6	0.00e+00	0	49	0	856686592	70	4092
2026-01-16 06:00:03.66	338.92	19.50	-49.9	-51.3	19.9	0.00e+00	0	49	0	861929472	70	4458
2026-01-16 06:00:06.69	338.29	19.30	-50.7	-52.3	18.9	0.00e+00	0	49	0	868220928	72	4483
2026-01-16 06:00:09.72	337.66	19.10	-51.2	-53.1	18.2	0.00e+00	0	49	0	873463808	73	4599
2026-01-16 06:00:12.75	337.05	18.89	-51.0	-52.8	18.5	0.00e+00	0	49	0	878706688	73	4460
2026-01-16 06:00:15.77	336.45	18.68	-50.6	-52.2	19.0	0.00e+00	0	49	0	884998144	73	4167
2026-01-16 06:00:18.80	335.85	18.48	-50.0	-51.5	19.7	0.00e+00	0	49	0	890241024	71	4310
2026-01-16 06:00:21.83	335.26	18.27	-49.4	-50.7	20.4	0.00e+00	0	49	0	896532480	70	4191
2026-01-16 06:00:24.86	334.68	18.05	-50.4	-52.0	19.3	0.00e+00	0	49	0	901775360	71	4577
2026-01-16 06:00:27.89	334.10	17.84	-50.3	-51.8	19.4	0.00e+00	0	49	0	907018240	71	4480
2026-01-16 06:00:30.91	333.54	17.63	-50.3	-51.9	19.4	0.00e+00	0	49	0	913309696	71	4500
2026-01-16 06:00:33.94	332.98	17.41	-50.8	-52.5	18.8	0.00e+00	0	49	0	918552576	72	4553
2026-01-16 06:00:36.97	332.43	17.20	-50.5	-52.1	19.0	0.00e+00	0	49	0	924844032	72	4344
2026-01-16 06:00:40.00	331.89	16.98	-50.4	-52.0	19.2	0.00e+00	0	49	0	930086912	72	4317
2026-01-16 06:00:43.03	331.36	16.77	-49.9	-51.4	19.8	0.00e+00	0	49	0	935329792	71	4246
2026-01-16 06:00:46.05	330.83	16.55	-49.9	-51.3	19.8	0.00e+00	0	49	0	941621248	71	4242
2026-01-16 06:00:49.08	330.32	16.33	-50.3	-51.8	19.4	0.00e+00	0	49	0	946864128	71	4456
2026-01-16 06:00:52.11	329.80	16.11	-49.9	-51.3	19.9	0.00e+00	0	49	0	953155584	71	4195
2026-01-16 06:00:55.14	329.30	15.89	-49.3	-50.6	20.6	0.00e+00	0	49	0	958398464	70	4100
2026-01-16 06:00:58.17	328.81	15.68	-49.5	-50.8	20.3	0.00e+00	0	49	0	964689920	70	4241
2026-01-16 06:01:01.20	328.32	15.46	-49.9	-51.3	19.9	0.00e+00	0	49	0	969932800	70	4469
2026-01-16 06:01:04.23	327.84	15.24	-50.2	-51.7	19.6	0.00e+00	0	49	0	975175680	70	4665
2026-01-16 06:01:07.26	327.36	15.02	-49.8	-51.2	20.0	0.00e+00	0	49	0	981467136	70	4396
2026-01-16 06:01:10.28	326.90	14.80	-49.3	-50.6	20.5	0.00e+00	0	49	0	986710016	70	4126
2026-01-16 06:01:13.31	326.44	14.58	-49.8	-51.2	19.9	0.00e+00	0	49	0	993001472	70	4437
2026-01-16 06:01:16.34	325.99	14.36	-50.6	-52.2	19.0	0.00e+00	0	49	0	998244352	71	4681
2026-01-16 06:01:19.37	325.54	14.14	-50.5	-52.1	19.0	0.00e+00	0	49	0	1004535808	72	4349
2026-01-16 06:01:22.40	325.10	13.92	-50.3	-51.9	19.2	0.00e+00	0	49	0	1009778688	72	4262
2026-01-16 06:01:25.42	324.67	13.71	-50.1	-51.6	19.5	0.00e+00	0	49	0	1015021568	72	4136
2026-01-16 06:01:28.45	324.24	13.49	-49.9	-51.3	19.9	0.00e+00	0	49	0	1021313024	71	4201
2026-01-16 06:01:31.48	323.82	13.27	-50.2	-51.6	19.5	0.00e+00	0	49	0	1026555904	71	4385
2026-01-16 06:01:34.51	323.41	13.05	-50.8	-52.5	18.6	0.00e+00	0	49	0	1032847360	72	4584
2026-01-16 06:01:37.54	323.00	12.84	-51.4	-53.3	17.9	0.00e+00	0	49	0	1038090240	73	4726
2026-01-16 06:01:40.56	322.60	12.62	-51.0	-52.7	18.4	0.00e+00	0	49	0	1043333120	73	4403
2026-01-16 06:01:43.59	322.20	12.40	-50.7	-52.3	18.8	0.00e+00	0	49	0	1049624576	73	4234
2026-01-16 06:01:46.62	321.82	12.19	-50.4	-51.9	19.2	0.00e+00	0	49	0	1054867456	72	4270
2026-01-16 06:01:49.65	321.43	11.97	-50.5	-52.1	18.9	0.00e+00	0	49	0	1061158912	72	4386
2026-01-16 06:01:52.68	321.05	11.76	-50.4	-52.0	19.0	0.00e+00	0	49	0	1066401792	72	4305
2026-01-16 06:01:55.71	320.68	11.55	-50.4	-52.0	19.0	0.00e+00	0	49	0	1071644672	72	4313
2026-01-16 06:01:58.74	320.31	11.33	-50.8	-52.5	18.5	0.00e+00	0	49	0	1077936128	72	4578
2026-01-16 06:02:01.77	319.95	11.12	-51.1	-52.9	18.1	0.00e+00	0	49	0	1083179008	72	4788
2026-01-16 06:02:04.79	319.60	10.91	-51.2	-53.0	18.1	0.00e+00	0	49	0	1089470464	73	4562
2026-01-16 06:02:07.82	319.25	10.70	-51.2	-53.0	18.0	0.00e+00	0	49	0	1094713344	73	4582
2026-01-16 06:02:10.85	318.90	10.49	-51.8	-53.8	17.2	0.00e+00	0	49	0	1099956224	74	4746
2026-01-16 06:02:13.88	318.56	10.28	-52.0	-54.1	16.9	0.00e+00	0	49	0	1106247680	74	4908
2026-01-16 06:02:16.91	318.22	10.07	-51.7	-53.7	17.3	0.00e+00	0	49	0	1111490560	74	4700
2026-01-16 06:02:19.94	317.89	9.87	-51.3	-53.1	17.8	0.00e+00	0	49	0	1117782016	74	4387
2026-01-16 06:02:22.97	317.57	9.66	-51.2	-53.0	18.0	0.00e+00	0	49	0	1123024896	73	4551
2026-01-16 06:02:26.00	317.24	9.45	-51.2	-53.0	18.0	0.00e+00	0	49	0	1129316352	73	4549
2026-01-16 06:02:29.03	316.93	9.25	-51.5	-53.5	17.5	0.00e+00	0	49	0	1134559232	73	4826
2026-01-16 06:02:32.05	316.62	9.04	-51.9	-54.0	17.0	0.00e+00	0	49	0	1139802112	74	4819
2026-01-16 06:02:35.08	316.31	8.84	-51.7	-53.7	17.3	0.00e+00	0	49	0	1146093568	74	4672
2026-01-16 06:02:38.11	316.00	8.64	-51.7	-53.7	17.2	0.00e+00	0	49	0	1151336448	74	4690
2026-01-16 06:02:41.14	315.70	8.44	-51.5	-53.4	17.5	0.00e+00	0	49	0	1157627904	74	4522
2026-01-16 06:02:44.17	315.41	8.24	-51.7	-53.7	17.2	0.00e+00	0	49	0	1162870784	74	4677
2026-01-16 06:02:47.19	315.12	8.04	-52.0	-54.1	16.8	0.00e+00	0	49	0	1169162240	74	4917
2026-01-16 06:02:50.22	314.83	7.84	-52.2	-54.5	16.3	0.00e+00	0	49	0	1174405120	74	5129
2026-01-16 06:02:53.25	314.55	7.64	-52.6	-55.1	15.7	0.00e+00	0	49	0	1179648000	75	5218
2026-01-16 06:02:56.28	314.27	7.44	-52.7	-55.3	15.6	0.00e+00	0	49	0	1185939456	76	4985
2026-01-16 06:02:59.31	314.00	7.24	-53.0	-55.8	15.0	0.00e+00	0	49	0	1191182336	76	5291
2026-01-16 06:03:02.34	313.73	7.05	-53.1	-55.9	14.9	0.00e+00	0	49	0	1197473792	76	5368
2026-01-16 06:03:05.37	313.46	6.85	-53.0	-55.7	15.0	0.00e+00	0	49	0	1202716672	76	5267
2026-01-16 06:03:08.39	313.20	6.66	-52.9	-55.5	15.2	0.00e+00	0	49	0	1207959552	76	5122
2026-01-16 06:03:11.42	312.94	6.47	-52.8	-55.4	15.3	0.00e+00	0	49	0	1214251008	76	5092
2026-01-16 06:03:14.45	312.68	6.28	-53.0	-55.7	15.0	0.00e+00	0	49	0	1219493888	76	5257
2026-01-16 06:03:17.48	312.43	6.08	-53.1	-55.9	14.8	0.00e+00	0	49	0	1225785344	76	5375
2026-01-16 06:03:20.51	312.18	5.89	-53.2	-56.1	14.6	7.00e-07	0	49	0	1231028224	77	5197
2026-01-16 06:03:23.54	311.93	5.70	-53.2	-56.2	14.5	7.00e-07	0	49	0	1236271104	77	5227
2026-01-16 06:03:26.57	311.69	5.52	-53.0	-55.8	14.8	2.20e-06	0	49	0	1242562560	77	5016
2026-01-16 06:03:29.59	311.45	5.33	-52.7	-55.4	15.2	0.00e+00	0	49	0	1247805440	77	4772
2026-01-16 06:03:32.62	311.21	5.14	-52.2	-54.6	15.9	0.00e+00	0	49	0	1254096896	76	4624
2026-01-16 06:03:35.65	310.98	4.95	-57.1	-72.1	3.8	1.47e+00	0	49	104	1258291200	84	21778
2026-01-16 06:03:38.68	310.75	4.77	-57.8	-72.8	3.8	1.49e+00	0	49	104	1258291200	86	21126
2026-01-16 06:03:41.70	310.52	4.59	-58.2	-73.2	3.8	1.49e+00	0	49	104	1258291200	86	22033
2026-01-16 06:03:44.73	310.30	4.40	-58.4	-73.4	3.8	1.49e+00	0	49	104	1258291200	87	21339
2026-01-16 06:03:47.76	310.08	4.22	-58.5	-73.6	3.8	1.49e+00	0	49	104	1258291200	87	21764
2026-01-16 06:03:50.79	309.86	4.04	-58.6	-73.6	3.8	1.49e+00	0	49	104	1258291200	87	21889
2026-01-16 06:03:53.83	309.64	3.86	-58.6	-73.6	3.8	1.49e+00	0	49	104	1258291200	87	21889
2026-01-16 06:03:56.86	309.43	3.68	-58.5	-73.6	3.8	1.49e+00	0	49	104	1258291200	87	21765
2026-01-16 06:03:59.89	309.22	3.50	-58.4	-73.5	3.8	1.49e+00	0	49	104	1258291200	87	21528
2026-01-16 06:04:02.92	309.01	3.32	-58.4	-73.4	3.8	1.49e+00	0	49	104	1258291200	87	21428
2026-01-16 06:04:05.95	308.81	3.14	-58.4	-73.4	3.8	1.49e+00	0	49	104	1258291200	87	21302
2026-01-16 06:04:08.98	308.61	2.96	-58.4	-73.4	3.8	1.49e+00	0	49	104	1258291200	87	21424
2026-01-16 06:04:12.02	308.41	2.78	-58.3	-73.3	3.8	1.49e+00	0	49	104	1258291200	87	21252
2026-01-16 06:04:15.04	308.21	2.61	-58.3	-73.3	3.8	1.49e+00	0	49	104	1258291200	87	21187
2026-01-16 06:04:18.07	308.02	2.43	-58.3	-73.3	3.8	1.49e+00	0	49	104	1258291200	87	21144
2026-01-16 06:04:21.10	307.82	2.26	-58.3	-73.3	3.8	1.49e+00	0	50	104	1258291200	87	21172
2026-01-16 06:04:24.13	307.63	2.09	-58.3	-73.3	3.8	1.49e+00	0	49	104	1258291200	87	21050
2026-01-16 06:04:27.16	307.45	1.91	-58.3	-73.3	3.8	1.49e+00	0	49	104	1258291200	87	21094

#Closed at: 2026-01-16 06:04:27
#Recorded file [1258 MB]: D:/lorett/data/31041_260116_085140.dat