passes_logs/2026/01/16/R3.2S_Murmansk/R3.2S_Murmansk__20260116_090947_SUOMI_NPP_rec.log

#Pass ID: 20260116_090947_SUOMI NPP
#Satellite: SUOMI NPP
#Configuration: NPP
#almurnet v.1.7.20251203
#Start time: 2026-01-16 09:09:48

#Version: 2.2.20231116
#Station: R3.2S_Murmansk
#Location: 33.079688 lon 68.888172 lat
#TLE: 1 37849U 11061A   26015.94982489  .00000054  00000+0  46705-4 0  9991
#TLE: 2 37849  98.7812 317.9902 0002438  62.0366 298.1057 14.19525452736847

#Time	Az	El	Level	Level2	SNR	BER	BlckErr	Temp	State	Recorded	gain1	gain2
2026-01-16 09:09:48.04	141.32	2.06	-57.0	-71.5	3.8	1.49e+00	0	42	0	0	86	18285
2026-01-16 09:09:52.08	141.29	2.32	-57.0	-71.5	3.8	1.49e+00	0	42	104	0	84	20497
2026-01-16 09:09:56.12	141.25	2.59	-57.0	-71.5	3.8	1.49e+00	0	42	104	0	84	20510
2026-01-16 09:10:00.15	141.22	2.85	-57.0	-71.5	3.8	1.49e+00	0	42	104	0	84	20432
2026-01-16 09:10:04.19	141.18	3.12	-57.0	-71.5	3.8	1.49e+00	0	43	104	0	84	20345
2026-01-16 09:10:08.22	141.14	3.39	-57.0	-71.1	3.8	1.49e+00	0	43	104	0	84	19482
2026-01-16 09:10:12.26	141.10	3.66	-56.9	-69.8	3.8	1.49e+00	0	43	104	0	84	16884
2026-01-16 09:10:16.29	141.06	3.94	-56.9	-68.3	4.1	1.48e+00	0	43	104	0	84	14188
2026-01-16 09:10:20.32	141.02	4.22	-56.7	-66.2	4.8	9.40e-01	0	44	0	6291456	84	11132
2026-01-16 09:10:24.35	140.98	4.50	-55.7	-61.3	8.8	4.35e-02	0	44	0	13631488	83	6670
2026-01-16 09:10:28.39	140.94	4.78	-54.1	-57.2	13.1	1.28e-04	0	44	0	20971520	80	4957
2026-01-16 09:10:32.42	140.89	5.07	-53.3	-55.7	14.8	0.00e+00	0	44	0	28311552	77	4942
2026-01-16 09:10:36.46	140.85	5.36	-52.8	-54.7	15.8	0.00e+00	0	44	0	36700160	77	4440
2026-01-16 09:10:40.49	140.80	5.65	-52.8	-54.9	15.6	0.00e+00	0	44	0	44040192	77	4526
2026-01-16 09:10:44.52	140.75	5.95	-52.9	-54.9	15.7	0.00e+00	0	45	0	51380224	77	4525
2026-01-16 09:10:48.56	140.71	6.25	-52.5	-54.3	16.3	0.00e+00	0	45	0	58720256	76	4454
2026-01-16 09:10:52.59	140.66	6.56	-52.5	-54.3	16.4	0.00e+00	0	45	0	66060288	76	4469
2026-01-16 09:10:56.62	140.60	6.86	-52.4	-54.1	16.6	0.00e+00	0	45	0	74448896	76	4369
2026-01-16 09:11:00.66	140.55	7.18	-52.4	-54.1	16.6	0.00e+00	0	45	0	81788928	76	4364
2026-01-16 09:11:04.69	140.50	7.49	-52.2	-53.9	16.9	0.00e+00	0	45	0	89128960	76	4249
2026-01-16 09:11:08.72	140.44	7.81	-52.3	-53.9	16.9	0.00e+00	0	45	0	96468992	76	4267
2026-01-16 09:11:12.75	140.38	8.13	-52.3	-53.9	17.0	0.00e+00	0	45	0	104857600	76	4279
2026-01-16 09:11:16.78	140.32	8.46	-51.9	-53.4	17.5	0.00e+00	0	45	0	112197632	75	4243
2026-01-16 09:11:20.81	140.26	8.79	-51.8	-53.2	17.7	0.00e+00	0	46	0	119537664	75	4191
2026-01-16 09:11:24.85	140.20	9.13	-52.0	-53.4	17.6	0.00e+00	0	46	0	126877696	75	4277
2026-01-16 09:11:28.88	140.14	9.47	-51.9	-53.3	17.7	0.00e+00	0	46	0	134217728	75	4217
2026-01-16 09:11:32.91	140.07	9.81	-51.8	-53.2	17.8	0.00e+00	0	46	0	141557760	75	4172
2026-01-16 09:11:36.94	140.00	10.16	-51.7	-53.0	18.0	0.00e+00	0	46	0	149946368	74	4333
2026-01-16 09:11:40.98	139.93	10.52	-51.7	-53.0	18.1	0.00e+00	0	46	0	157286400	74	4303
2026-01-16 09:11:45.01	139.86	10.88	-51.4	-52.6	18.4	0.00e+00	0	46	0	164626432	74	4114
2026-01-16 09:11:49.04	139.79	11.24	-51.2	-52.4	18.7	0.00e+00	0	46	0	171966464	74	4028
2026-01-16 09:11:53.08	139.71	11.61	-51.1	-52.2	18.9	0.00e+00	0	46	0	180355072	74	3937
2026-01-16 09:11:57.11	139.63	11.99	-50.9	-52.0	19.1	0.00e+00	0	46	0	187695104	73	4076
2026-01-16 09:12:01.15	139.55	12.37	-50.6	-51.6	19.4	0.00e+00	0	47	0	195035136	73	3907
2026-01-16 09:12:05.18	139.47	12.76	-50.5	-51.5	19.6	0.00e+00	0	47	0	202375168	72	4069
2026-01-16 09:12:09.22	139.38	13.16	-50.4	-51.3	19.8	0.00e+00	0	47	0	209715200	72	4002
2026-01-16 09:12:13.25	139.29	13.56	-50.3	-51.2	19.9	0.00e+00	0	47	0	218103808	72	3943
2026-01-16 09:12:17.27	139.20	13.96	-50.2	-51.1	20.1	0.00e+00	0	47	0	225443840	72	3872
2026-01-16 09:12:21.31	139.10	14.38	-50.1	-51.1	19.9	0.00e+00	0	47	0	232783872	72	3881
2026-01-16 09:12:25.34	139.01	14.80	-50.2	-51.2	19.9	0.00e+00	0	47	0	240123904	72	3924
2026-01-16 09:12:29.38	138.90	15.23	-50.2	-51.2	19.9	0.00e+00	0	47	0	247463936	72	3916
2026-01-16 09:12:33.41	138.80	15.67	-50.0	-50.9	20.2	0.00e+00	0	47	0	255852544	71	4024
2026-01-16 09:12:37.45	138.69	16.11	-49.9	-50.8	20.4	0.00e+00	0	47	0	263192576	71	3980
2026-01-16 09:12:41.48	138.58	16.56	-49.9	-50.8	20.3	0.00e+00	0	47	0	270532608	71	3991
2026-01-16 09:12:45.51	138.46	17.02	-50.0	-50.9	20.3	0.00e+00	0	47	0	277872640	71	4022
2026-01-16 09:12:49.54	138.35	17.49	-50.1	-51.0	20.2	0.00e+00	0	47	0	286261248	71	4058
2026-01-16 09:12:53.58	138.22	17.97	-50.2	-51.2	20.1	0.00e+00	0	47	0	293601280	71	4147
2026-01-16 09:12:57.61	138.09	18.46	-50.2	-51.1	20.2	0.00e+00	0	47	0	300941312	71	4122
2026-01-16 09:13:01.65	137.96	18.96	-50.2	-51.1	20.2	0.00e+00	0	47	0	308281344	71	4117
2026-01-16 09:13:05.67	137.82	19.46	-50.1	-50.9	20.4	0.00e+00	0	47	0	315621376	71	4043
2026-01-16 09:13:09.71	137.68	19.98	-50.1	-51.0	20.3	0.00e+00	0	48	0	324009984	71	4053
2026-01-16 09:13:13.74	137.53	20.51	-50.0	-50.8	20.5	0.00e+00	0	47	0	331350016	71	3990
2026-01-16 09:13:17.78	137.38	21.05	-50.0	-50.8	20.5	0.00e+00	0	48	0	338690048	71	3982
2026-01-16 09:13:21.81	137.22	21.60	-49.9	-50.8	20.6	0.00e+00	0	48	0	346030080	71	3978
2026-01-16 09:13:25.84	137.05	22.17	-50.1	-51.0	20.3	0.00e+00	0	48	0	354418688	71	4082
2026-01-16 09:13:29.88	136.88	22.74	-50.1	-51.0	20.4	0.00e+00	0	48	0	361758720	71	4081
2026-01-16 09:13:33.91	136.70	23.33	-50.1	-50.9	20.4	0.00e+00	0	48	0	369098752	71	4047
2026-01-16 09:13:37.94	136.51	23.93	-49.9	-50.8	20.6	0.00e+00	0	48	0	376438784	71	3961
2026-01-16 09:13:41.98	136.31	24.55	-50.3	-51.2	20.2	0.00e+00	0	48	0	383778816	71	4188
2026-01-16 09:13:46.01	136.11	25.18	-51.2	-52.3	19.2	0.00e+00	0	48	0	391118848	72	4455
2026-01-16 09:13:50.04	135.90	25.83	-51.3	-52.5	19.1	0.00e+00	0	48	0	399507456	73	4295
2026-01-16 09:13:54.07	135.67	26.49	-51.3	-52.5	19.1	0.00e+00	0	48	0	406847488	73	4310
2026-01-16 09:13:58.10	135.44	27.16	-51.9	-53.2	18.4	0.00e+00	0	48	0	414187520	74	4413
2026-01-16 09:14:02.13	135.20	27.85	-52.4	-53.8	17.8	0.00e+00	0	48	0	421527552	75	4477
2026-01-16 09:14:06.17	134.94	28.57	-51.7	-53.0	18.7	0.00e+00	0	48	0	429916160	75	4063
2026-01-16 09:14:10.20	134.67	29.29	-51.9	-53.2	18.4	0.00e+00	0	48	0	437256192	74	4440
2026-01-16 09:14:14.23	134.39	30.04	-52.5	-54.0	17.6	0.00e+00	0	48	0	444596224	75	4596
2026-01-16 09:14:18.26	134.10	30.81	-52.4	-53.9	17.8	0.00e+00	0	48	0	451936256	76	4263
2026-01-16 09:14:22.30	133.79	31.59	-52.8	-54.5	17.2	0.00e+00	0	48	0	459276288	76	4548
2026-01-16 09:14:26.33	133.46	32.40	-53.6	-55.5	16.3	0.00e+00	0	48	0	467664896	77	4824
2026-01-16 09:14:30.36	133.12	33.23	-53.1	-54.8	16.8	0.00e+00	0	48	0	475004928	77	4471
2026-01-16 09:14:34.40	132.76	34.08	-53.8	-55.9	15.8	0.00e+00	0	48	0	482344960	78	4786
2026-01-16 09:14:38.43	132.37	34.95	-53.6	-55.6	16.1	0.00e+00	0	48	0	489684992	78	4647
2026-01-16 09:14:42.46	131.97	35.84	-52.7	-54.4	17.3	0.00e+00	0	48	0	497025024	77	4250
2026-01-16 09:14:46.49	131.54	36.76	-54.2	-56.5	15.3	0.00e+00	0	49	0	505413632	79	4870
2026-01-16 09:14:50.53	131.09	37.70	-52.9	-54.5	17.3	0.00e+00	0	48	0	512753664	77	4296
2026-01-16 09:14:54.56	130.60	38.67	-52.8	-54.4	17.4	0.00e+00	0	48	0	520093696	76	4506
2026-01-16 09:14:58.60	130.09	39.67	-53.7	-55.9	16.0	0.00e+00	0	49	0	527433728	78	4772
2026-01-16 09:15:02.63	129.54	40.69	-53.8	-56.0	15.7	0.00e+00	0	48	0	534773760	78	4862
2026-01-16 09:15:06.67	128.96	41.73	-53.2	-54.9	16.8	0.00e+00	0	49	0	543162368	78	4291
2026-01-16 09:15:10.70	128.33	42.81	-53.1	-55.0	16.8	0.00e+00	0	49	0	550502400	77	4567
2026-01-16 09:15:14.73	127.66	43.91	-52.9	-54.7	17.0	0.00e+00	0	49	0	557842432	77	4400
2026-01-16 09:15:18.77	126.94	45.03	-52.0	-53.5	18.1	0.00e+00	0	49	0	565182464	76	4073
2026-01-16 09:15:22.80	126.17	46.19	-52.2	-53.7	17.9	0.00e+00	0	49	0	573571072	74	4701
2026-01-16 09:15:26.84	125.34	47.37	-51.4	-52.6	19.0	0.00e+00	0	49	0	580911104	74	4145
2026-01-16 09:15:30.87	124.44	48.58	-52.6	-54.1	17.6	0.00e+00	0	49	0	588251136	76	4390
2026-01-16 09:15:34.90	123.46	49.81	-51.2	-52.3	19.4	0.00e+00	0	49	0	595591168	74	3985
2026-01-16 09:15:38.94	122.40	51.07	-50.4	-51.4	20.3	0.00e+00	0	49	0	602931200	72	4013
2026-01-16 09:15:42.97	121.24	52.35	-52.2	-53.6	18.1	0.00e+00	0	49	0	611319808	75	4384
2026-01-16 09:15:47.01	119.98	53.65	-50.4	-51.2	20.4	0.00e+00	0	49	0	618659840	72	3946
2026-01-16 09:15:51.04	118.60	54.97	-51.3	-52.4	19.3	0.00e+00	0	49	0	625999872	74	4042
2026-01-16 09:15:55.07	117.08	56.30	-51.7	-53.0	18.8	0.00e+00	0	49	0	633339904	74	4295
2026-01-16 09:15:59.11	115.40	57.65	-51.6	-52.8	18.9	0.00e+00	0	49	0	640679936	74	4204
2026-01-16 09:16:03.14	113.55	59.00	-52.9	-54.6	17.2	0.00e+00	0	49	0	649068544	77	4371
2026-01-16 09:16:07.17	111.50	60.35	-52.3	-53.7	18.1	0.00e+00	0	49	0	656408576	75	4422
2026-01-16 09:16:11.20	109.22	61.68	-51.3	-52.4	19.4	0.00e+00	0	49	0	663748608	74	4036
2026-01-16 09:16:15.24	106.67	63.01	-49.6	-50.4	21.2	0.00e+00	0	49	0	671088640	71	3785
2026-01-16 09:16:19.27	103.83	64.30	-50.8	-51.8	19.9	0.00e+00	0	49	0	679477248	73	3973
2026-01-16 09:16:23.30	100.66	65.55	-51.6	-52.8	18.9	0.00e+00	0	49	0	686817280	73	4473
2026-01-16 09:16:27.33	97.11	66.75	-53.3	-55.0	17.0	0.00e+00	0	49	0	694157312	77	4549
2026-01-16 09:16:31.36	93.15	67.86	-51.6	-52.6	19.2	0.00e+00	0	49	0	701497344	75	3891
2026-01-16 09:16:35.39	88.76	68.89	-51.9	-53.0	19.0	0.00e+00	0	49	0	708837376	75	4058
2026-01-16 09:16:39.43	83.90	69.79	-52.5	-53.8	18.2	0.00e+00	0	49	0	717225984	77	3991
2026-01-16 09:16:43.46	78.59	70.55	-53.4	-54.9	17.1	0.00e+00	0	49	0	724566016	78	4272
2026-01-16 09:16:47.49	72.88	71.15	-54.5	-56.8	15.4	0.00e+00	0	49	0	731906048	80	4734
2026-01-16 09:16:51.53	66.82	71.56	-54.0	-55.8	16.2	2.20e-06	0	49	0	739246080	79	4486
2026-01-16 09:16:55.56	60.55	71.77	-53.8	-55.6	16.5	0.00e+00	0	49	0	746586112	78	4643
2026-01-16 09:16:59.60	54.19	71.77	-51.8	-52.9	19.0	0.00e+00	0	49	0	754974720	75	4039
2026-01-16 09:17:03.63	47.93	71.56	-51.9	-53.0	18.8	0.00e+00	0	49	0	762314752	75	4078
2026-01-16 09:17:07.66	41.88	71.15	-53.7	-55.5	16.6	0.00e+00	0	49	0	769654784	78	4547
2026-01-16 09:17:11.69	36.18	70.55	-54.3	-56.4	16.2	0.00e+00	0	49	0	776994816	79	4774
2026-01-16 09:17:15.73	30.87	69.78	-54.9	-57.5	14.7	0.00e+00	0	49	0	784334848	81	4847
2026-01-16 09:17:19.76	26.02	68.88	-53.3	-54.9	17.3	0.00e+00	0	49	0	792723456	78	4254
2026-01-16 09:17:23.79	21.64	67.86	-53.2	-54.7	17.4	0.00e+00	0	49	0	800063488	78	4184
2026-01-16 09:17:27.82	17.69	66.74	-52.8	-54.2	17.9	0.00e+00	0	49	0	807403520	76	4416
2026-01-16 09:17:31.86	14.14	65.55	-51.7	-52.8	19.2	0.00e+00	0	49	0	814743552	75	3986
2026-01-16 09:17:35.89	10.97	64.30	-49.6	-50.3	21.4	0.00e+00	0	49	0	823132160	71	3762
2026-01-16 09:17:39.92	8.14	63.01	-49.9	-50.6	21.2	0.00e+00	0	49	0	830472192	71	3902
2026-01-16 09:17:43.96	5.60	61.68	-50.8	-51.8	20.0	0.00e+00	0	49	0	837812224	72	4220
2026-01-16 09:17:47.99	3.32	60.35	-52.0	-53.4	18.5	0.00e+00	0	49	0	845152256	75	4243
2026-01-16 09:17:52.03	1.27	59.00	-52.5	-54.0	18.1	0.00e+00	0	49	0	852492288	76	4322
2026-01-16 09:17:56.06	359.42	57.65	-52.0	-53.2	18.8	0.00e+00	0	49	0	860880896	74	4414
2026-01-16 09:18:00.10	357.75	56.31	-49.9	-50.7	21.0	0.00e+00	0	49	0	868220928	71	3936
2026-01-16 09:18:04.13	356.23	54.98	-50.1	-50.9	20.8	0.00e+00	0	49	0	875560960	71	4026
2026-01-16 09:18:08.17	354.85	53.66	-52.2	-53.6	18.4	0.00e+00	0	49	0	882900992	75	4386
2026-01-16 09:18:12.20	353.59	52.37	-51.4	-52.5	19.3	0.00e+00	0	49	0	890241024	74	4079
2026-01-16 09:18:16.24	352.44	51.09	-51.2	-52.2	19.7	0.00e+00	0	49	0	898629632	72	4439
2026-01-16 09:18:20.27	351.38	49.84	-50.9	-51.9	20.0	0.00e+00	0	49	0	905969664	72	4245
2026-01-16 09:18:24.30	350.40	48.61	-52.0	-53.2	18.7	0.00e+00	0	49	0	913309696	74	4408
2026-01-16 09:18:28.33	349.51	47.40	-53.2	-54.8	17.3	0.00e+00	0	49	0	920649728	77	4460
2026-01-16 09:18:32.37	348.67	46.22	-53.2	-54.8	17.3	0.00e+00	0	49	0	929038336	77	4468
2026-01-16 09:18:36.40	347.90	45.07	-52.9	-54.5	17.5	0.00e+00	0	49	0	936378368	77	4303
2026-01-16 09:18:40.44	347.18	43.95	-54.6	-57.1	15.1	0.00e+00	0	49	0	943718400	79	5182
2026-01-16 09:18:44.48	346.52	42.85	-52.8	-54.2	17.9	0.00e+00	0	49	0	951058432	77	4168
2026-01-16 09:18:48.52	345.89	41.78	-53.2	-54.8	17.2	0.00e+00	0	49	0	958398464	77	4460
2026-01-16 09:18:52.55	345.31	40.74	-53.0	-54.6	17.5	0.00e+00	0	49	0	966787072	77	4351
2026-01-16 09:18:56.58	344.76	39.72	-55.3	-58.4	13.6	8.30e-06	0	49	0	974127104	81	5354
2026-01-16 09:19:00.61	344.25	38.73	-53.9	-55.9	16.2	0.00e+00	0	49	0	981467136	79	4516
2026-01-16 09:19:04.64	343.77	37.77	-50.8	-51.8	20.0	0.00e+00	0	49	0	988807168	73	3971
2026-01-16 09:19:08.68	343.32	36.82	-52.4	-53.7	18.2	0.00e+00	0	49	0	996147200	75	4440
2026-01-16 09:19:12.71	342.89	35.91	-54.2	-56.4	15.5	0.00e+00	0	49	0	1004535808	79	4774
2026-01-16 09:19:16.74	342.49	35.02	-53.6	-55.4	16.6	0.00e+00	0	49	0	1011875840	79	4266
2026-01-16 09:19:20.77	342.11	34.15	-54.1	-56.2	15.7	0.00e+00	0	49	0	1019215872	79	4705
2026-01-16 09:19:24.81	341.75	33.30	-52.4	-53.7	18.1	0.00e+00	0	49	0	1026555904	76	4191
2026-01-16 09:19:28.84	341.40	32.48	-52.3	-53.6	18.3	0.00e+00	0	49	0	1034944512	75	4379
2026-01-16 09:19:32.88	341.08	31.67	-53.0	-54.6	17.4	0.00e+00	0	49	0	1042284544	76	4614
2026-01-16 09:19:36.91	340.77	30.89	-55.4	-58.5	13.3	6.10e-06	0	49	0	1049624576	81	5420
2026-01-16 09:19:40.95	340.48	30.12	-53.8	-55.6	16.1	0.00e+00	0	49	0	1056964608	79	4379
2026-01-16 09:19:44.98	340.20	29.38	-53.1	-54.6	17.3	0.00e+00	0	49	0	1064304640	77	4378
2026-01-16 09:19:49.02	339.93	28.65	-52.6	-54.0	18.0	0.00e+00	0	49	0	1072693248	77	4061
2026-01-16 09:19:53.05	339.68	27.94	-51.1	-52.0	19.7	0.00e+00	0	49	0	1080033280	74	3866
2026-01-16 09:19:57.09	339.43	27.25	-51.8	-52.9	18.7	0.00e+00	0	49	0	1087373312	74	4267
2026-01-16 09:20:01.12	339.20	26.58	-54.0	-56.1	15.8	0.00e+00	0	49	0	1094713344	78	4904
2026-01-16 09:20:05.15	338.98	25.92	-53.5	-55.3	16.5	0.00e+00	0	49	0	1103101952	78	4489
2026-01-16 09:20:09.18	338.77	25.27	-52.1	-53.4	18.4	0.00e+00	0	49	0	1110441984	76	4028
2026-01-16 09:20:13.21	338.57	24.65	-51.7	-52.8	19.0	0.00e+00	0	49	0	1117782016	75	3985
2026-01-16 09:20:17.25	338.37	24.03	-51.3	-52.3	19.4	0.00e+00	0	49	0	1125122048	74	3978
2026-01-16 09:20:21.28	338.19	23.43	-51.3	-52.4	19.2	0.00e+00	0	49	0	1132462080	74	4024
2026-01-16 09:20:25.31	338.01	22.84	-51.2	-52.3	19.3	0.00e+00	0	49	0	1139802112	74	3970
2026-01-16 09:20:29.35	337.84	22.27	-51.4	-52.5	19.0	0.00e+00	0	49	0	1148190720	73	4336
2026-01-16 09:20:33.38	337.67	21.71	-51.7	-52.9	18.7	0.00e+00	0	49	0	1155530752	74	4286
2026-01-16 09:20:37.41	337.51	21.16	-52.3	-53.7	17.9	0.00e+00	0	50	0	1162870784	75	4435
2026-01-16 09:20:41.45	337.36	20.62	-53.1	-54.9	16.8	0.00e+00	0	49	0	1170210816	77	4529
2026-01-16 09:20:45.48	337.22	20.09	-53.4	-55.3	16.4	0.00e+00	0	50	0	1178599424	77	4713
2026-01-16 09:20:49.52	337.07	19.57	-52.7	-54.3	17.3	0.00e+00	0	49	0	1185939456	77	4209
2026-01-16 09:20:53.55	336.94	19.07	-52.4	-53.8	17.8	0.00e+00	0	49	0	1193279488	76	4223
2026-01-16 09:20:57.58	336.81	18.57	-52.2	-53.6	18.0	0.00e+00	0	49	0	1200619520	75	4363
2026-01-16 09:21:01.62	336.68	18.08	-52.3	-53.7	17.9	0.00e+00	0	49	0	1207959552	75	4399
2026-01-16 09:21:05.65	336.56	17.60	-52.4	-53.8	17.7	0.00e+00	0	49	0	1216348160	75	4478
2026-01-16 09:21:09.68	336.44	17.14	-52.8	-54.5	17.1	0.00e+00	0	49	0	1223688192	76	4565
2026-01-16 09:21:13.72	336.33	16.68	-53.2	-55.0	16.5	0.00e+00	0	49	0	1231028224	77	4557
2026-01-16 09:21:17.74	336.22	16.23	-53.5	-55.5	16.0	0.00e+00	0	49	0	1238368256	77	4848
2026-01-16 09:21:21.78	336.11	15.78	-53.3	-55.3	16.2	0.00e+00	0	49	0	1245708288	77	4717
2026-01-16 09:21:25.81	336.01	15.35	-53.4	-55.4	16.1	0.00e+00	0	49	0	1254096896	77	4793
2026-01-16 09:21:29.84	335.91	14.92	-53.7	-55.8	15.6	0.00e+00	0	49	0	1261436928	77	5021
2026-01-16 09:21:33.88	335.81	14.50	-53.5	-55.5	16.0	0.00e+00	0	49	0	1268776960	78	4558
2026-01-16 09:21:37.91	335.72	14.08	-53.5	-55.6	15.8	0.00e+00	0	49	0	1276116992	78	4627
2026-01-16 09:21:41.95	335.63	13.68	-53.4	-55.5	16.0	0.00e+00	0	49	0	1284505600	78	4560
2026-01-16 09:21:45.98	335.54	13.28	-53.2	-55.2	16.1	0.00e+00	0	49	0	1291845632	78	4431
2026-01-16 09:21:50.01	335.46	12.88	-53.0	-54.8	16.5	0.00e+00	0	49	0	1299185664	77	4489
2026-01-16 09:21:54.04	335.38	12.50	-52.7	-54.5	16.8	0.00e+00	0	49	0	1306525696	77	4295
2026-01-16 09:21:58.08	335.30	12.11	-52.8	-54.6	16.6	0.00e+00	0	49	0	1313865728	77	4376
2026-01-16 09:22:02.11	335.22	11.74	-52.7	-54.4	16.9	0.00e+00	0	49	0	1322254336	77	4252
2026-01-16 09:22:06.14	335.15	11.37	-52.8	-54.6	16.6	0.00e+00	0	49	0	1329594368	77	4384
2026-01-16 09:22:10.17	335.08	11.00	-52.7	-54.4	16.8	0.00e+00	0	50	0	1336934400	77	4275
2026-01-16 09:22:14.20	335.01	10.64	-52.7	-54.5	16.8	0.00e+00	0	49	0	1344274432	77	4298
2026-01-16 09:22:18.24	334.94	10.29	-52.8	-54.6	16.6	0.00e+00	0	50	0	1351614464	77	4374
2026-01-16 09:22:22.27	334.87	9.94	-52.6	-54.3	16.9	0.00e+00	0	49	0	1360003072	77	4194
2026-01-16 09:22:26.31	334.81	9.60	-52.6	-54.3	16.8	0.00e+00	0	49	0	1367343104	76	4487
2026-01-16 09:22:30.34	334.75	9.26	-52.6	-54.3	16.9	0.00e+00	0	49	0	1374683136	76	4447
2026-01-16 09:22:34.37	334.69	8.92	-52.5	-54.1	17.0	0.00e+00	0	49	0	1382023168	76	4372
2026-01-16 09:22:38.41	334.63	8.59	-52.7	-54.4	16.7	0.00e+00	0	49	0	1389363200	76	4543
2026-01-16 09:22:42.44	334.57	8.26	-52.5	-54.1	16.9	0.00e+00	0	49	0	1397751808	76	4380
2026-01-16 09:22:46.48	334.52	7.94	-52.7	-54.4	16.6	0.00e+00	0	49	0	1405091840	76	4525
2026-01-16 09:22:50.52	334.47	7.62	-52.6	-54.3	16.7	0.00e+00	0	49	0	1412431872	76	4482
2026-01-16 09:22:54.55	334.41	7.31	-52.6	-54.4	16.5	0.00e+00	0	49	0	1419771904	76	4527
2026-01-16 09:22:58.58	334.36	7.00	-52.7	-54.5	16.4	0.00e+00	0	49	0	1428160512	76	4575
2026-01-16 09:23:02.62	334.31	6.69	-53.0	-55.0	15.9	0.00e+00	0	49	0	1435500544	76	4820
2026-01-16 09:23:06.65	334.27	6.39	-53.0	-55.1	15.8	0.00e+00	0	49	0	1442840576	76	4874
2026-01-16 09:23:10.68	334.22	6.09	-53.2	-55.3	15.5	0.00e+00	0	50	0	1450180608	77	4729
2026-01-16 09:23:14.72	334.18	5.79	-53.2	-55.4	15.4	0.00e+00	0	49	0	1457520640	77	4786
2026-01-16 09:23:18.75	334.13	5.50	-53.1	-55.2	15.5	0.00e+00	0	49	0	1465909248	78	4414
2026-01-16 09:23:22.78	334.09	5.21	-53.1	-55.5	15.0	0.00e+00	0	50	0	1473249280	78	4561
2026-01-16 09:23:26.81	334.05	4.92	-57.9	-72.4	3.8	1.49e+00	0	50	104	1479540736	86	20217
2026-01-16 09:23:30.85	334.01	4.63	-58.6	-73.1	3.8	1.49e+00	0	50	104	1479540736	87	20743
2026-01-16 09:23:34.88	333.97	4.35	-58.8	-73.4	3.8	1.49e+00	0	50	104	1479540736	88	20141
2026-01-16 09:23:38.91	333.93	4.08	-58.9	-73.5	3.8	1.49e+00	0	49	104	1479540736	88	20380
2026-01-16 09:23:42.95	333.89	3.80	-59.0	-73.5	3.8	1.49e+00	0	50	104	1479540736	88	20405
2026-01-16 09:23:46.98	333.86	3.53	-58.9	-73.5	3.8	1.49e+00	0	50	104	1479540736	88	20342
2026-01-16 09:23:51.02	333.82	3.26	-58.8	-73.4	3.8	1.49e+00	0	50	104	1479540736	88	20190
2026-01-16 09:23:55.06	333.79	2.99	-58.8	-73.4	3.8	1.49e+00	0	50	104	1479540736	88	20166
2026-01-16 09:23:59.10	333.75	2.72	-58.8	-73.4	3.8	1.49e+00	0	50	104	1479540736	88	20100
2026-01-16 09:24:03.13	333.72	2.46	-58.8	-73.3	3.8	1.49e+00	0	50	104	1479540736	88	20031
2026-01-16 09:24:07.17	333.69	2.20	-58.8	-73.3	3.8	1.49e+00	0	50	104	1479540736	88	20051
2026-01-16 09:24:11.20	333.66	1.94	-58.8	-73.3	3.8	1.49e+00	0	50	104	1479540736	88	19946

#Closed at: 2026-01-16 09:24:11
#Recorded file [1479 MB]: D:/lorett/data/31041_260116_120947.dat