passes_logs/2026/01/16/R3.2S_Murmansk/R3.2S_Murmansk__20260116_230238_KANOPUS-V_5_rec.log

#Pass ID: 20260116_230238_KANOPUS-V 5
#Satellite: KANOPUS-V 5
#Configuration: KANOPUS-V_8320
#almurnet v.1.7.20251203
#Start time: 2026-01-16 23:02:37

#Version: 2.2.20231116
#Station: R3.2S_Murmansk
#Location: 33.079688 lon 68.888172 lat
#TLE: 1 43876U 18111A   26015.95883530  .00002079  00000+0  90203-4 0  9990
#TLE: 2 43876  97.3685 284.4557 0001748  86.2315 273.9122 15.23440439391619

#Time	Az	El	Level	Level2	SNR	BER	BlckErr	Temp	State	Recorded	gain1	gain2
2026-01-16 23:02:37.92	21.28	1.96	-52.5	-61.3	3.8	7.45e-01	0	32	0	0	76	10022
2026-01-16 23:02:40.94	21.19	2.17	-52.5	-61.3	3.8	7.46e-01	0	32	104	0	76	10022
2026-01-16 23:02:43.96	21.10	2.38	-52.5	-61.3	3.8	7.45e-01	0	32	104	0	76	10000
2026-01-16 23:02:46.99	21.00	2.59	-52.5	-61.3	3.8	7.44e-01	0	32	104	0	76	10001
2026-01-16 23:02:50.02	20.90	2.80	-52.5	-61.3	3.8	7.45e-01	0	32	104	0	76	10015
2026-01-16 23:02:53.04	20.80	3.02	-52.5	-61.3	3.8	7.45e-01	0	33	104	0	76	9976
2026-01-16 23:02:56.07	20.69	3.24	-52.5	-61.3	3.8	7.45e-01	0	33	104	0	76	10033
2026-01-16 23:02:59.09	20.59	3.46	-52.5	-61.3	3.8	7.46e-01	0	33	104	0	76	9993
2026-01-16 23:03:02.12	20.48	3.68	-52.5	-61.3	3.8	7.45e-01	0	33	104	0	76	10020
2026-01-16 23:03:05.14	20.37	3.91	-52.5	-61.3	3.8	7.45e-01	0	33	104	0	76	10005
2026-01-16 23:03:08.17	20.26	4.14	-52.5	-61.3	3.8	7.44e-01	0	33	104	0	76	9970
2026-01-16 23:03:11.19	20.14	4.37	-52.5	-61.3	3.8	7.45e-01	0	33	104	0	76	9999
2026-01-16 23:03:14.22	20.02	4.60	-52.5	-61.3	3.8	7.46e-01	0	33	104	0	76	10023
2026-01-16 23:03:17.24	19.90	4.84	-52.5	-61.3	3.8	7.44e-01	0	33	104	0	76	10007
2026-01-16 23:03:20.27	19.78	5.08	-52.5	-61.3	3.8	7.45e-01	0	33	104	0	76	10023
2026-01-16 23:03:23.30	19.65	5.32	-52.4	-61.3	3.8	7.46e-01	0	33	104	0	76	9978
2026-01-16 23:03:26.32	19.52	5.56	-52.7	-61.5	3.8	7.48e-01	0	33	104	0	76	10228
2026-01-16 23:03:29.35	19.39	5.81	-52.6	-61.4	3.8	7.46e-01	0	33	104	0	76	10144
2026-01-16 23:03:32.37	19.25	6.06	-52.7	-61.5	3.8	7.44e-01	0	34	104	0	76	10254
2026-01-16 23:03:35.40	19.11	6.32	-52.7	-61.5	3.8	7.47e-01	0	33	104	0	76	10214
2026-01-16 23:03:38.42	18.97	6.57	-52.8	-61.6	3.8	7.45e-01	0	33	104	0	76	10349
2026-01-16 23:03:41.45	18.83	6.83	-52.8	-61.6	3.8	7.46e-01	0	34	104	0	76	10348
2026-01-16 23:03:44.47	18.68	7.10	-52.8	-61.7	3.8	7.46e-01	0	34	104	0	76	10434
2026-01-16 23:03:47.49	18.52	7.36	-52.8	-61.7	3.8	7.44e-01	0	34	104	0	76	10429
2026-01-16 23:03:50.52	18.37	7.63	-52.9	-61.7	3.8	7.45e-01	0	34	104	0	76	10520
2026-01-16 23:03:53.54	18.20	7.91	-52.9	-61.8	3.8	7.45e-01	0	34	104	0	76	10551
2026-01-16 23:03:56.57	18.04	8.19	-52.9	-61.7	3.8	7.45e-01	0	34	104	0	76	10528
2026-01-16 23:03:59.59	17.87	8.47	-53.0	-61.8	3.8	7.44e-01	0	34	104	0	76	10590
2026-01-16 23:04:02.62	17.69	8.76	-53.0	-61.8	3.8	7.45e-01	0	34	104	0	76	10613
2026-01-16 23:04:05.64	17.52	9.05	-53.0	-61.9	3.8	7.47e-01	0	34	104	0	76	10695
2026-01-16 23:04:08.67	17.33	9.34	-53.0	-61.8	3.8	7.45e-01	0	34	104	0	76	10649
2026-01-16 23:04:11.69	17.14	9.64	-53.1	-61.9	3.8	7.46e-01	0	34	104	0	76	10725
2026-01-16 23:04:14.71	16.95	9.95	-53.1	-61.9	3.8	7.45e-01	0	34	104	0	76	10707
2026-01-16 23:04:17.74	16.75	10.25	-53.1	-62.0	3.8	7.45e-01	0	34	104	0	76	10784
2026-01-16 23:04:20.76	16.55	10.57	-53.1	-62.0	3.8	7.44e-01	0	34	104	0	76	10787
2026-01-16 23:04:23.78	16.34	10.89	-53.2	-62.0	3.8	7.45e-01	0	34	104	0	76	10796
2026-01-16 23:04:26.81	16.12	11.21	-53.1	-62.0	3.8	7.47e-01	0	34	104	0	76	10795
2026-01-16 23:04:29.83	15.90	11.54	-53.2	-62.0	3.8	7.44e-01	0	34	104	0	76	10899
2026-01-16 23:04:32.86	15.67	11.88	-53.2	-62.0	3.8	7.46e-01	0	34	104	0	76	10877
2026-01-16 23:04:35.88	15.43	12.22	-53.2	-62.1	3.8	7.46e-01	0	34	104	0	77	10336
2026-01-16 23:04:38.90	15.19	12.56	-53.2	-62.1	3.8	7.45e-01	0	34	104	0	77	10328
2026-01-16 23:04:41.93	14.93	12.92	-53.3	-62.1	3.8	7.45e-01	0	34	104	0	77	10370
2026-01-16 23:04:44.95	14.68	13.28	-53.2	-62.1	3.8	7.45e-01	0	34	104	0	77	10297
2026-01-16 23:04:47.98	14.41	13.64	-53.3	-62.1	3.8	7.46e-01	0	34	104	0	77	10404
2026-01-16 23:04:51.00	14.13	14.02	-53.3	-62.1	3.8	7.46e-01	0	34	104	0	77	10334
2026-01-16 23:04:54.02	13.85	14.40	-53.3	-62.2	3.8	7.45e-01	0	35	104	0	77	10448
2026-01-16 23:04:57.05	13.56	14.78	-53.3	-62.2	3.8	7.46e-01	0	34	104	0	77	10436
2026-01-16 23:05:00.07	13.25	15.18	-53.4	-62.2	3.8	7.48e-01	0	34	104	0	77	10507
2026-01-16 23:05:03.10	12.94	15.58	-53.4	-62.2	3.8	7.45e-01	0	34	104	0	77	10458
2026-01-16 23:05:06.12	12.61	15.99	-53.4	-62.3	3.8	7.46e-01	0	34	104	0	77	10540
2026-01-16 23:05:09.14	12.28	16.41	-53.4	-62.2	3.8	7.45e-01	0	34	104	0	77	10474
2026-01-16 23:05:12.17	11.93	16.84	-53.5	-62.3	3.8	7.46e-01	0	34	104	0	77	10563
2026-01-16 23:05:15.19	11.57	17.27	-53.5	-62.3	3.8	7.45e-01	0	34	104	0	77	10563
2026-01-16 23:05:18.22	11.20	17.72	-53.5	-62.4	3.8	7.45e-01	0	35	104	0	77	10658
2026-01-16 23:05:21.24	10.82	18.18	-53.5	-62.3	3.8	7.45e-01	0	35	104	0	77	10655
2026-01-16 23:05:24.26	10.42	18.64	-53.5	-62.4	3.8	7.44e-01	0	34	104	0	77	10706
2026-01-16 23:05:27.29	10.00	19.12	-53.5	-62.4	3.8	7.45e-01	0	35	104	0	77	10721
2026-01-16 23:05:30.31	9.57	19.60	-53.6	-62.4	3.8	7.46e-01	0	34	104	0	77	10707
2026-01-16 23:05:33.34	9.12	20.10	-53.6	-62.4	3.8	7.45e-01	0	34	104	0	77	10730
2026-01-16 23:05:36.36	8.66	20.60	-53.6	-62.4	3.8	7.46e-01	0	34	104	0	77	10765
2026-01-16 23:05:39.38	8.18	21.12	-53.6	-62.4	3.8	7.46e-01	0	35	104	0	77	10743
2026-01-16 23:05:42.41	7.67	21.65	-53.6	-62.5	3.8	7.46e-01	0	34	104	0	77	10794
2026-01-16 23:05:45.43	7.15	22.19	-53.7	-62.5	3.8	7.46e-01	0	35	104	0	77	10822
2026-01-16 23:05:48.46	6.61	22.75	-53.7	-62.5	3.8	7.46e-01	0	35	104	0	77	10839
2026-01-16 23:05:51.48	6.04	23.31	-53.7	-62.5	3.8	7.44e-01	0	35	104	0	77	10873
2026-01-16 23:05:54.50	5.45	23.89	-53.7	-62.5	3.8	7.46e-01	0	35	104	0	78	10256
2026-01-16 23:05:57.53	4.83	24.49	-53.7	-62.6	3.8	7.46e-01	0	35	104	0	78	10299
2026-01-16 23:06:00.55	4.19	25.09	-53.8	-62.6	3.8	7.46e-01	0	34	104	0	78	10349
2026-01-16 23:06:03.58	3.51	25.71	-53.8	-62.6	3.8	7.45e-01	0	34	104	0	78	10368
2026-01-16 23:06:06.60	2.81	26.35	-53.8	-62.6	3.8	7.45e-01	0	34	104	0	78	10367
2026-01-16 23:06:09.62	2.07	26.99	-53.8	-62.6	3.8	7.45e-01	0	34	104	0	78	10407
2026-01-16 23:06:12.65	1.30	27.65	-53.8	-62.6	3.8	7.45e-01	0	34	104	0	78	10397
2026-01-16 23:06:15.67	0.49	28.33	-53.8	-62.7	3.8	7.44e-01	0	34	104	0	78	10424
2026-01-16 23:06:18.69	359.64	29.02	-53.8	-62.7	3.8	7.45e-01	0	35	104	0	78	10445
2026-01-16 23:06:21.72	358.75	29.72	-53.9	-62.7	3.8	7.46e-01	0	34	104	0	78	10464
2026-01-16 23:06:24.74	357.82	30.44	-53.9	-62.7	3.8	7.44e-01	0	35	104	0	78	10533
2026-01-16 23:06:27.76	356.84	31.17	-53.9	-62.7	3.8	7.44e-01	0	35	104	0	78	10525
2026-01-16 23:06:30.79	355.81	31.91	-53.9	-62.8	3.8	7.46e-01	0	35	104	0	78	10535
2026-01-16 23:06:33.82	354.73	32.67	-53.9	-62.8	3.8	7.45e-01	0	35	104	0	78	10541
2026-01-16 23:06:36.84	353.59	33.43	-53.9	-62.8	3.8	7.45e-01	0	34	104	0	78	10600
2026-01-16 23:06:39.87	352.39	34.21	-54.0	-62.8	3.8	7.43e-01	0	34	104	0	78	10594
2026-01-16 23:06:42.90	351.12	34.99	-54.0	-62.8	3.8	7.46e-01	0	34	104	0	78	10600
2026-01-16 23:06:45.92	349.79	35.78	-54.0	-62.9	3.8	7.46e-01	0	34	104	0	78	10663
2026-01-16 23:06:48.94	348.39	36.58	-54.0	-62.8	3.8	7.46e-01	0	34	104	0	78	10632
2026-01-16 23:06:51.97	346.91	37.38	-54.1	-62.9	3.8	7.44e-01	0	35	104	0	78	10689
2026-01-16 23:06:55.00	345.36	38.18	-54.0	-62.9	3.8	7.45e-01	0	35	104	0	78	10679
2026-01-16 23:06:58.02	343.72	38.98	-54.1	-62.9	3.8	7.44e-01	0	35	104	0	78	10719
2026-01-16 23:07:01.05	341.99	39.77	-54.1	-62.9	3.8	7.45e-01	0	35	104	0	78	10729
2026-01-16 23:07:04.07	340.18	40.55	-54.1	-62.9	3.8	7.46e-01	0	34	104	0	78	10759
2026-01-16 23:07:07.10	338.26	41.32	-54.1	-62.9	3.8	7.45e-01	0	35	104	0	78	10717
2026-01-16 23:07:10.12	336.26	42.07	-54.1	-62.9	3.8	7.45e-01	0	35	104	0	78	10766
2026-01-16 23:07:13.15	334.15	42.80	-54.1	-62.9	3.8	7.44e-01	0	35	104	0	78	10768
2026-01-16 23:07:16.18	331.94	43.50	-54.1	-63.0	3.8	7.44e-01	0	34	104	0	78	10822
2026-01-16 23:07:19.20	329.63	44.16	-54.2	-63.0	3.8	7.45e-01	0	35	104	0	78	10797
2026-01-16 23:07:22.23	327.22	44.79	-54.2	-63.0	3.8	7.45e-01	0	34	104	0	78	10782
2026-01-16 23:07:25.25	324.72	45.36	-54.2	-63.0	3.8	7.43e-01	0	35	104	0	78	10877
2026-01-16 23:07:28.29	322.11	45.89	-54.2	-63.0	3.8	7.44e-01	0	35	104	0	78	10848
2026-01-16 23:07:31.32	319.43	46.36	-54.2	-63.0	3.8	7.44e-01	0	35	104	0	78	10845
2026-01-16 23:07:34.34	316.67	46.76	-54.2	-63.0	3.8	7.44e-01	0	35	104	0	78	10853
2026-01-16 23:07:37.37	313.84	47.09	-54.2	-63.1	3.8	7.46e-01	0	35	104	0	78	10918
2026-01-16 23:07:40.39	310.96	47.35	-54.2	-63.0	3.8	7.46e-01	0	35	104	0	78	10856
2026-01-16 23:07:43.42	308.02	47.54	-54.2	-63.0	3.8	7.45e-01	0	35	104	0	79	10291
2026-01-16 23:07:46.45	305.06	47.64	-54.2	-63.1	3.8	7.44e-01	0	35	104	0	79	10308
2026-01-16 23:07:49.48	302.09	47.66	-54.3	-63.1	3.8	7.45e-01	0	34	104	0	79	10388
2026-01-16 23:07:52.50	299.13	47.60	-54.3	-63.1	3.8	7.47e-01	0	35	104	0	79	10355
2026-01-16 23:07:55.52	296.18	47.46	-54.3	-63.1	3.8	7.44e-01	0	34	104	0	79	10338
2026-01-16 23:07:58.55	293.27	47.24	-54.3	-63.1	3.8	7.45e-01	0	35	104	0	79	10373
2026-01-16 23:08:01.57	290.41	46.95	-54.3	-63.1	3.8	7.45e-01	0	35	104	0	79	10337
2026-01-16 23:08:04.60	287.60	46.58	-54.3	-63.1	3.8	7.46e-01	0	35	104	0	79	10374
2026-01-16 23:08:07.62	284.88	46.15	-54.3	-63.1	3.8	7.46e-01	0	35	104	0	79	10345
2026-01-16 23:08:10.64	282.23	45.66	-54.2	-63.1	3.8	7.44e-01	0	35	104	0	79	10318
2026-01-16 23:08:13.67	279.67	45.11	-54.3	-63.1	3.8	7.46e-01	0	35	104	0	79	10322
2026-01-16 23:08:16.70	277.20	44.51	-54.2	-63.1	3.8	7.45e-01	0	35	104	0	79	10296
2026-01-16 23:08:19.73	274.83	43.86	-54.2	-63.1	3.8	7.46e-01	0	35	104	0	79	10299
2026-01-16 23:08:22.75	272.57	43.18	-54.2	-63.1	3.8	7.45e-01	0	35	104	0	79	10294
2026-01-16 23:08:25.78	270.40	42.47	-54.2	-63.1	3.8	7.45e-01	0	35	104	0	79	10332
2026-01-16 23:08:28.80	268.34	41.73	-54.2	-63.1	3.8	7.45e-01	0	35	104	0	79	10336
2026-01-16 23:08:31.83	266.37	40.96	-54.2	-63.1	3.8	7.45e-01	0	35	104	0	79	10308
2026-01-16 23:08:34.85	264.50	40.19	-54.2	-63.0	3.8	7.45e-01	0	35	104	0	79	10289
2026-01-16 23:08:37.88	262.72	39.40	-54.2	-63.1	3.8	7.45e-01	0	35	104	0	79	10317
2026-01-16 23:08:40.90	261.03	38.60	-54.2	-63.0	3.8	7.45e-01	0	35	104	0	79	10269
2026-01-16 23:08:43.93	259.42	37.80	-54.2	-63.0	3.8	7.46e-01	0	35	104	0	79	10266
2026-01-16 23:08:46.95	257.90	36.99	-54.2	-63.0	3.8	7.45e-01	0	35	104	0	79	10255
2026-01-16 23:08:49.98	256.45	36.19	-54.2	-63.0	3.8	7.45e-01	0	34	104	0	79	10221
2026-01-16 23:08:53.00	255.08	35.40	-54.1	-63.0	3.8	7.46e-01	0	35	104	0	79	10227
2026-01-16 23:08:56.02	253.78	34.61	-54.1	-63.0	3.8	7.44e-01	0	35	104	0	79	10193
2026-01-16 23:08:59.04	252.55	33.82	-54.1	-63.0	3.8	7.46e-01	0	35	104	0	79	10192
2026-01-16 23:09:02.07	251.37	33.05	-54.1	-62.9	3.8	7.45e-01	0	35	104	0	79	10154
2026-01-16 23:09:05.09	250.26	32.29	-54.1	-62.9	3.8	7.44e-01	0	35	104	0	79	10106
2026-01-16 23:09:08.12	249.19	31.53	-54.1	-62.9	3.8	7.46e-01	0	35	104	0	79	10124
2026-01-16 23:09:11.14	248.19	30.79	-54.0	-62.9	3.8	7.45e-01	0	35	104	0	79	10085
2026-01-16 23:09:14.17	247.22	30.07	-54.0	-62.8	3.8	7.45e-01	0	35	104	0	79	10052
2026-01-16 23:09:17.19	246.31	29.35	-54.0	-62.8	3.8	7.46e-01	0	35	104	0	79	10031
2026-01-16 23:09:20.22	245.43	28.65	-54.0	-62.8	3.8	7.45e-01	0	35	104	0	79	10023
2026-01-16 23:09:23.24	244.60	27.97	-54.0	-62.8	3.8	7.46e-01	0	35	104	0	79	9996
2026-01-16 23:09:26.26	243.81	27.30	-54.0	-62.8	3.8	7.45e-01	0	35	104	0	79	10007
2026-01-16 23:09:29.29	243.05	26.64	-53.9	-62.8	3.8	7.45e-01	0	35	104	0	79	9977
2026-01-16 23:09:32.31	242.33	26.00	-53.9	-62.8	3.8	7.45e-01	0	35	104	0	79	10000
2026-01-16 23:09:35.33	241.64	25.37	-53.9	-62.7	3.8	7.46e-01	0	35	104	0	79	9935
2026-01-16 23:09:38.36	240.97	24.75	-53.9	-62.7	3.8	7.46e-01	0	34	104	0	79	9885
2026-01-16 23:09:41.38	240.34	24.15	-53.9	-62.7	3.8	7.45e-01	0	34	104	0	79	9867
2026-01-16 23:09:44.40	239.73	23.56	-53.9	-62.7	3.8	7.45e-01	0	35	104	0	79	9901
2026-01-16 23:09:47.43	239.15	22.99	-53.8	-62.7	3.8	7.45e-01	0	35	104	0	79	9876
2026-01-16 23:09:50.45	238.59	22.42	-53.8	-62.7	3.8	7.45e-01	0	35	104	0	79	9840
2026-01-16 23:09:53.47	238.06	21.88	-53.8	-62.6	3.8	7.46e-01	0	35	104	0	79	9812
2026-01-16 23:09:56.50	237.54	21.34	-53.8	-62.6	3.8	7.45e-01	0	35	104	0	79	9796
2026-01-16 23:09:59.52	237.04	20.81	-53.8	-62.6	3.8	7.45e-01	0	35	104	0	79	9768
2026-01-16 23:10:02.55	236.57	20.29	-53.8	-62.6	3.8	7.47e-01	0	35	104	0	79	9738
2026-01-16 23:10:05.57	236.11	19.79	-53.7	-62.6	3.8	7.46e-01	0	35	104	0	79	9732
2026-01-16 23:10:08.60	235.67	19.30	-53.7	-62.5	3.8	7.45e-01	0	35	104	0	79	9689
2026-01-16 23:10:11.62	235.24	18.82	-53.7	-62.5	3.8	7.45e-01	0	35	104	0	79	9707
2026-01-16 23:10:14.65	234.83	18.34	-53.7	-62.5	3.8	7.46e-01	0	35	104	0	79	9665
2026-01-16 23:10:17.68	234.44	17.88	-53.6	-62.5	3.8	7.45e-01	0	35	104	0	79	9623
2026-01-16 23:10:20.70	234.06	17.43	-53.6	-62.5	3.8	7.45e-01	0	35	104	0	79	9616
2026-01-16 23:10:23.73	233.69	16.99	-53.6	-62.4	3.8	7.46e-01	0	35	104	0	79	9600
2026-01-16 23:10:26.75	233.34	16.55	-53.6	-62.4	3.8	7.45e-01	0	35	104	0	79	9602
2026-01-16 23:10:29.78	232.99	16.13	-53.5	-62.4	3.8	7.45e-01	0	35	104	0	79	9498
2026-01-16 23:10:32.80	232.66	15.71	-53.5	-62.3	3.8	7.45e-01	0	35	104	0	79	9496
2026-01-16 23:10:35.83	232.34	15.30	-53.5	-62.4	3.8	7.44e-01	0	35	104	0	79	9516
2026-01-16 23:10:38.86	232.03	14.90	-53.5	-62.4	3.8	7.45e-01	0	35	104	0	79	9529
2026-01-16 23:10:41.88	231.73	14.51	-53.4	-62.3	3.8	7.45e-01	0	35	104	0	78	10035
2026-01-16 23:10:44.91	231.44	14.13	-53.4	-62.3	3.8	7.46e-01	0	35	104	0	78	9973
2026-01-16 23:10:47.94	231.16	13.75	-53.4	-62.3	3.8	7.45e-01	0	35	104	0	78	9998
2026-01-16 23:10:50.96	230.88	13.38	-53.4	-62.3	3.8	7.46e-01	0	35	104	0	78	9980
2026-01-16 23:10:53.99	230.62	13.01	-53.4	-62.2	3.8	7.46e-01	0	35	104	0	78	9937
2026-01-16 23:10:57.02	230.36	12.65	-53.4	-62.2	3.8	7.46e-01	0	35	104	0	78	9880
2026-01-16 23:11:00.04	230.11	12.30	-53.4	-62.2	3.8	7.46e-01	0	35	104	0	78	9906
2026-01-16 23:11:03.07	229.87	11.96	-53.4	-62.2	3.8	7.45e-01	0	35	104	0	78	9914
2026-01-16 23:11:06.09	229.64	11.62	-53.3	-62.2	3.8	7.44e-01	0	35	104	0	78	9853
2026-01-16 23:11:09.12	229.41	11.29	-53.3	-62.1	3.8	7.45e-01	0	35	104	0	78	9821
2026-01-16 23:11:12.14	229.19	10.96	-53.3	-62.2	3.8	7.47e-01	0	35	104	0	78	9832
2026-01-16 23:11:15.17	228.97	10.63	-53.3	-62.2	3.8	7.45e-01	0	35	104	0	78	9840
2026-01-16 23:11:18.19	228.76	10.32	-53.2	-62.1	3.8	7.45e-01	0	35	104	0	78	9748
2026-01-16 23:11:21.22	228.56	10.01	-53.2	-62.0	3.8	7.46e-01	0	35	104	0	78	9700
2026-01-16 23:11:24.24	228.36	9.70	-53.2	-62.1	3.8	7.45e-01	0	35	104	0	78	9737
2026-01-16 23:11:27.27	228.17	9.40	-53.2	-62.1	3.8	7.45e-01	0	35	104	0	78	9736
2026-01-16 23:11:30.30	227.98	9.10	-53.1	-62.0	3.8	7.45e-01	0	35	104	0	78	9646
2026-01-16 23:11:33.32	227.80	8.80	-53.1	-61.9	3.8	7.46e-01	0	35	104	0	78	9576
2026-01-16 23:11:36.35	227.62	8.51	-53.1	-62.0	3.8	7.46e-01	0	35	104	0	78	9614
2026-01-16 23:11:39.38	227.44	8.23	-53.1	-61.9	3.8	7.45e-01	0	35	104	0	78	9540
2026-01-16 23:11:42.40	227.28	7.95	-53.0	-61.9	3.8	7.46e-01	0	35	104	0	78	9542
2026-01-16 23:11:45.43	227.11	7.67	-53.0	-61.8	3.8	7.44e-01	0	35	104	0	78	9466
2026-01-16 23:11:48.45	226.95	7.40	-53.0	-61.9	3.8	7.46e-01	0	35	104	0	78	9497
2026-01-16 23:11:51.48	226.79	7.13	-53.0	-61.8	3.8	7.46e-01	0	34	104	0	77	10036
2026-01-16 23:11:54.50	226.64	6.86	-52.9	-61.8	3.8	7.44e-01	0	35	104	0	77	9971
2026-01-16 23:11:57.53	226.49	6.60	-52.8	-61.7	3.8	7.47e-01	0	35	104	0	77	9835
2026-01-16 23:12:00.55	226.34	6.34	-52.8	-61.6	3.8	7.45e-01	0	35	104	0	77	9808
2026-01-16 23:12:03.58	226.20	6.08	-52.8	-61.7	3.8	7.44e-01	0	35	104	0	77	9888
2026-01-16 23:12:06.60	226.06	5.83	-52.8	-61.6	3.8	7.46e-01	0	35	104	0	77	9783
2026-01-16 23:12:09.63	225.93	5.58	-52.6	-61.5	3.8	7.44e-01	0	35	104	0	77	9611
2026-01-16 23:12:12.66	225.79	5.34	-52.6	-61.5	3.8	7.44e-01	0	35	104	0	77	9616
2026-01-16 23:12:15.69	225.66	5.09	-52.7	-61.5	3.8	7.47e-01	0	35	104	0	77	9674
2026-01-16 23:12:18.71	225.54	4.85	-53.5	-62.3	3.8	7.45e-01	0	35	104	0	77	10592
2026-01-16 23:12:21.74	225.41	4.61	-53.9	-62.7	3.8	7.45e-01	0	35	104	0	78	10493
2026-01-16 23:12:24.77	225.29	4.38	-54.1	-62.9	3.8	7.43e-01	0	35	104	0	78	10723
2026-01-16 23:12:27.79	225.17	4.15	-54.2	-63.0	3.8	7.46e-01	0	35	104	0	78	10891
2026-01-16 23:12:30.82	225.06	3.91	-54.2	-63.1	3.8	7.46e-01	0	35	104	0	79	10337
2026-01-16 23:12:33.85	224.94	3.69	-54.3	-63.1	3.8	7.47e-01	0	35	104	0	79	10350
2026-01-16 23:12:36.87	224.83	3.46	-54.2	-63.1	3.8	7.44e-01	0	35	104	0	79	10306
2026-01-16 23:12:39.90	224.72	3.24	-54.2	-63.0	3.8	7.45e-01	0	35	104	0	79	10275
2026-01-16 23:12:42.92	224.62	3.02	-54.2	-63.0	3.8	7.47e-01	0	35	104	0	79	10228
2026-01-16 23:12:45.95	224.51	2.80	-54.1	-63.0	3.8	7.45e-01	0	35	104	0	79	10223
2026-01-16 23:12:48.97	224.41	2.58	-54.1	-62.9	3.8	7.46e-01	0	35	104	0	79	10141
2026-01-16 23:12:52.00	224.31	2.37	-54.1	-63.0	3.8	7.45e-01	0	35	104	0	79	10187
2026-01-16 23:12:55.02	224.21	2.16	-54.1	-62.9	3.8	7.46e-01	0	35	104	0	79	10148

#Closed at: 2026-01-16 23:12:57
#Recorded file [0 MB]: D:/lorett/data/31041_260117_020237.dat