passes_logs/2026/01/16/R3.2S_Murmansk/R3.2S_Murmansk__20260116_114852_FENGYUN_3D_rec.log

#Pass ID: 20260116_114852_FENGYUN 3D
#Satellite: FENGYUN 3D
#Configuration: FENGYUN 3D
#almurnet v.1.7.20251203
#Start time: 2026-01-16 11:48:54

#Version: 2.2.20231116
#Station: R3.2S_Murmansk
#Location: 33.079688 lon 68.888172 lat
#TLE: 1 43010U 17072A   26015.99024095 -.00000189  00000+0 -67463-4 0  9996
#TLE: 2 43010  98.9932 347.8215 0002366 106.5594 253.5841 14.19694691423396

#Time	Az	El	Level	Level2	SNR	BER	BlckErr	Temp	State	Recorded	gain1	gain2
2026-01-16 11:48:54.23	157.56	2.08	-58.5	-70.1	3.8	8.46e-01	0	42	0	0	87	14606
2026-01-16 11:48:58.27	157.60	2.34	-58.6	-70.1	3.8	8.47e-01	0	42	104	0	87	14569
2026-01-16 11:49:02.30	157.65	2.61	-58.6	-70.1	3.8	8.47e-01	0	42	104	0	87	14577
2026-01-16 11:49:06.33	157.69	2.87	-58.6	-70.1	3.8	8.46e-01	0	43	104	0	87	14621
2026-01-16 11:49:10.36	157.73	3.14	-58.6	-70.1	3.8	8.46e-01	0	43	104	0	87	14587
2026-01-16 11:49:14.40	157.78	3.41	-58.5	-70.1	3.8	8.47e-01	0	43	104	0	87	14620
2026-01-16 11:49:18.43	157.82	3.68	-58.6	-70.1	3.8	8.45e-01	0	44	104	0	87	14592
2026-01-16 11:49:22.46	157.87	3.96	-58.6	-70.1	3.8	8.45e-01	0	44	104	0	87	14588
2026-01-16 11:49:26.49	157.91	4.24	-58.6	-70.1	3.8	8.46e-01	0	44	104	0	87	14602
2026-01-16 11:49:30.53	157.96	4.52	-58.6	-70.1	3.8	8.47e-01	0	44	104	0	87	14570
2026-01-16 11:49:34.56	158.01	4.80	-58.6	-70.1	3.8	8.46e-01	0	44	104	0	87	14630
2026-01-16 11:49:38.59	158.05	5.09	-58.6	-70.1	3.8	8.45e-01	0	44	104	0	87	14618
2026-01-16 11:49:42.63	158.10	5.38	-58.6	-70.1	3.8	8.47e-01	0	44	104	0	87	14569
2026-01-16 11:49:46.66	158.15	5.67	-58.5	-70.1	3.8	8.48e-01	0	45	104	0	87	14563
2026-01-16 11:49:50.70	158.20	5.97	-58.5	-70.1	3.8	8.47e-01	0	45	104	0	87	14615
2026-01-16 11:49:54.74	158.25	6.27	-58.6	-70.1	3.8	8.46e-01	0	45	104	0	87	14604
2026-01-16 11:49:58.77	158.30	6.58	-58.5	-70.1	3.8	8.46e-01	0	45	104	0	87	14609
2026-01-16 11:50:02.81	158.35	6.89	-58.6	-70.1	3.8	8.46e-01	0	45	104	0	87	14572
2026-01-16 11:50:06.84	158.41	7.20	-58.6	-70.1	3.8	8.46e-01	0	46	104	0	87	14594
2026-01-16 11:50:10.87	158.46	7.51	-58.6	-70.1	3.8	8.45e-01	0	46	104	0	87	14637
2026-01-16 11:50:14.91	158.52	7.83	-58.6	-70.1	3.8	8.47e-01	0	46	104	0	87	14606
2026-01-16 11:50:18.94	158.57	8.16	-58.5	-70.1	3.8	8.46e-01	0	46	104	0	87	14606
2026-01-16 11:50:22.98	158.63	8.48	-58.6	-70.1	3.8	8.46e-01	0	46	104	0	87	14577
2026-01-16 11:50:27.01	158.68	8.82	-58.6	-70.1	3.8	8.45e-01	0	46	104	0	87	14615
2026-01-16 11:50:31.04	158.74	9.15	-58.6	-70.1	3.8	8.46e-01	0	46	104	0	87	14584
2026-01-16 11:50:35.07	158.80	9.49	-58.6	-70.1	3.8	8.47e-01	0	46	104	0	87	14565
2026-01-16 11:50:39.11	158.86	9.84	-58.6	-70.1	3.8	8.46e-01	0	46	104	0	87	14583
2026-01-16 11:50:43.15	158.93	10.19	-58.5	-70.1	3.8	8.46e-01	0	47	104	0	87	14587
2026-01-16 11:50:47.18	158.99	10.55	-58.6	-70.1	3.8	8.46e-01	0	47	104	0	87	14607
2026-01-16 11:50:51.22	159.05	10.91	-58.6	-70.1	3.8	8.46e-01	0	47	104	0	87	14606
2026-01-16 11:50:55.26	159.12	11.28	-58.6	-70.1	3.8	8.46e-01	0	47	104	0	87	14596
2026-01-16 11:50:59.29	159.18	11.65	-58.6	-70.1	3.8	8.46e-01	0	47	104	0	87	14581
2026-01-16 11:51:03.33	159.25	12.03	-58.6	-70.1	3.8	8.46e-01	0	47	104	0	87	14596
2026-01-16 11:51:07.36	159.32	12.41	-58.6	-70.1	3.8	8.46e-01	0	47	104	0	87	14617
2026-01-16 11:51:11.40	159.39	12.80	-58.6	-70.1	3.8	8.45e-01	0	47	104	0	87	14606
2026-01-16 11:51:15.43	159.46	13.19	-58.6	-70.1	3.8	8.46e-01	0	47	104	0	87	14579
2026-01-16 11:51:19.47	159.54	13.60	-58.6	-70.1	3.8	8.47e-01	0	47	104	0	87	14618
2026-01-16 11:51:23.50	159.61	14.01	-58.6	-70.1	3.8	8.45e-01	0	48	104	0	87	14611
2026-01-16 11:51:27.54	159.69	14.42	-58.6	-70.1	3.8	8.47e-01	0	47	104	0	87	14580
2026-01-16 11:51:31.57	159.77	14.85	-58.6	-70.1	3.8	8.46e-01	0	48	104	0	87	14561
2026-01-16 11:51:35.60	159.85	15.28	-58.6	-70.1	3.8	8.47e-01	0	48	104	0	87	14605
2026-01-16 11:51:39.64	159.94	15.72	-58.6	-70.1	3.8	8.45e-01	0	48	104	0	87	14588
2026-01-16 11:51:43.67	160.02	16.16	-58.6	-70.1	3.8	8.46e-01	0	48	104	0	87	14601
2026-01-16 11:51:47.71	160.11	16.62	-58.6	-70.1	3.8	8.46e-01	0	48	104	0	87	14595
2026-01-16 11:51:51.74	160.20	17.08	-58.6	-70.1	3.8	8.46e-01	0	48	104	0	87	14562
2026-01-16 11:51:55.77	160.29	17.56	-58.6	-70.1	3.8	8.45e-01	0	48	104	0	87	14577
2026-01-16 11:51:59.81	160.38	18.04	-58.6	-70.1	3.8	8.46e-01	0	48	104	0	87	14619
2026-01-16 11:52:03.85	160.48	18.53	-58.6	-70.1	3.8	8.46e-01	0	48	104	0	87	14626
2026-01-16 11:52:07.88	160.58	19.03	-58.6	-70.1	3.8	8.46e-01	0	48	104	0	87	14588
2026-01-16 11:52:11.92	160.68	19.54	-58.6	-70.1	3.8	8.46e-01	0	48	104	0	87	14593
2026-01-16 11:52:15.95	160.79	20.07	-58.6	-70.1	3.8	8.45e-01	0	48	104	0	87	14614
2026-01-16 11:52:19.98	160.90	20.60	-58.6	-70.1	3.8	8.46e-01	0	48	104	0	87	14557
2026-01-16 11:52:24.02	161.01	21.15	-58.6	-70.1	3.8	8.46e-01	0	48	104	0	87	14630
2026-01-16 11:52:28.05	161.12	21.70	-58.6	-70.1	3.8	8.46e-01	0	49	104	0	87	14605
2026-01-16 11:52:32.08	161.24	22.27	-58.6	-70.1	3.8	8.46e-01	0	48	104	0	87	14614
2026-01-16 11:52:36.12	161.37	22.85	-58.6	-70.1	3.8	8.46e-01	0	49	104	0	87	14617
2026-01-16 11:52:40.15	161.49	23.45	-58.6	-70.1	3.8	8.45e-01	0	49	104	0	87	14655
2026-01-16 11:52:44.19	161.62	24.06	-58.6	-70.1	3.8	8.45e-01	0	49	104	0	87	14639
2026-01-16 11:52:48.22	161.76	24.68	-58.6	-70.1	3.8	8.46e-01	0	49	104	0	87	14601
2026-01-16 11:52:52.26	161.90	25.32	-58.6	-70.1	3.8	8.47e-01	0	49	104	0	87	14608
2026-01-16 11:52:56.29	162.05	25.98	-58.6	-70.1	3.8	8.45e-01	0	49	104	0	87	14610
2026-01-16 11:53:00.32	162.20	26.65	-58.6	-70.1	3.8	8.46e-01	0	49	104	0	87	14628
2026-01-16 11:53:04.35	162.36	27.34	-58.6	-70.1	3.8	8.45e-01	0	49	104	0	87	14612
2026-01-16 11:53:08.39	162.52	28.04	-58.6	-70.1	3.8	8.46e-01	0	49	104	0	87	14626
2026-01-16 11:53:12.42	162.69	28.77	-58.6	-70.1	3.8	8.46e-01	0	49	104	0	87	14623
2026-01-16 11:53:16.45	162.87	29.51	-58.6	-70.1	3.8	8.46e-01	0	49	104	0	87	14584
2026-01-16 11:53:20.48	163.06	30.27	-58.6	-70.1	3.8	8.46e-01	0	49	104	0	87	14605
2026-01-16 11:53:24.51	163.25	31.05	-58.6	-70.1	3.8	8.46e-01	0	49	104	0	87	14618
2026-01-16 11:53:28.56	163.46	31.86	-58.6	-70.1	3.8	8.47e-01	0	49	104	0	87	14599
2026-01-16 11:53:32.59	163.67	32.69	-58.6	-70.1	3.8	8.47e-01	0	49	104	0	87	14619
2026-01-16 11:53:36.62	163.89	33.54	-58.6	-70.1	3.8	8.46e-01	0	49	104	0	87	14602
2026-01-16 11:53:40.65	164.13	34.41	-58.6	-70.1	3.8	8.46e-01	0	49	104	0	87	14586
2026-01-16 11:53:44.69	164.38	35.31	-58.6	-70.1	3.8	8.46e-01	0	49	104	0	87	14621
2026-01-16 11:53:48.72	164.64	36.23	-58.6	-70.1	3.8	8.45e-01	0	49	104	0	87	14588
2026-01-16 11:53:52.76	164.91	37.18	-58.6	-70.1	3.8	8.46e-01	0	49	104	0	87	14619
2026-01-16 11:53:56.79	165.20	38.16	-58.6	-70.1	3.8	8.46e-01	0	49	104	0	87	14569
2026-01-16 11:54:00.83	165.51	39.17	-58.6	-70.1	3.8	8.46e-01	0	49	104	0	87	14617
2026-01-16 11:54:04.86	165.84	40.20	-58.6	-70.1	3.8	8.45e-01	0	49	104	0	87	14621
2026-01-16 11:54:08.90	166.19	41.27	-58.6	-70.1	3.8	8.45e-01	0	49	104	0	87	14589
2026-01-16 11:54:12.93	166.56	42.36	-58.6	-70.1	3.8	8.47e-01	0	49	104	0	87	14589
2026-01-16 11:54:16.96	166.95	43.49	-58.6	-70.1	3.8	8.46e-01	0	49	104	0	87	14608
2026-01-16 11:54:21.00	167.38	44.65	-58.6	-70.1	3.8	8.45e-01	0	49	104	0	87	14622
2026-01-16 11:54:25.03	167.83	45.85	-58.6	-70.1	3.8	8.46e-01	0	49	104	0	87	14617
2026-01-16 11:54:29.07	168.32	47.08	-58.6	-70.1	3.8	8.46e-01	0	50	104	0	87	14612
2026-01-16 11:54:33.10	168.85	48.34	-58.6	-70.1	3.8	8.46e-01	0	49	104	0	87	14546
2026-01-16 11:54:37.13	169.43	49.64	-58.6	-70.1	3.8	8.46e-01	0	50	104	0	87	14612
2026-01-16 11:54:41.16	170.05	50.97	-58.6	-70.1	3.8	8.46e-01	0	50	104	0	87	14675
2026-01-16 11:54:45.20	170.73	52.34	-58.6	-70.1	3.8	8.47e-01	0	50	104	0	87	14615
2026-01-16 11:54:49.23	171.48	53.74	-58.6	-70.1	3.8	8.47e-01	0	49	104	0	87	14581
2026-01-16 11:54:53.26	172.30	55.18	-58.6	-70.1	3.8	8.45e-01	0	49	104	0	87	14597
2026-01-16 11:54:57.29	173.21	56.65	-58.6	-70.1	3.8	8.46e-01	0	50	104	0	87	14584
2026-01-16 11:55:01.33	174.22	58.15	-58.6	-70.1	3.8	8.46e-01	0	50	104	0	87	14628
2026-01-16 11:55:05.36	175.36	59.68	-58.6	-70.1	3.8	8.46e-01	0	50	104	0	87	14582
2026-01-16 11:55:09.40	176.63	61.25	-58.6	-70.1	3.8	8.46e-01	0	49	104	0	87	14561
2026-01-16 11:55:13.44	178.07	62.83	-58.6	-70.1	3.8	8.46e-01	0	50	104	0	87	14609
2026-01-16 11:55:17.47	179.72	64.43	-58.6	-70.1	3.8	8.46e-01	0	50	104	0	87	14589
2026-01-16 11:55:21.51	181.61	66.05	-58.6	-70.0	3.8	8.46e-01	0	50	104	0	87	14540
2026-01-16 11:55:25.55	183.81	67.68	-58.6	-70.1	3.8	8.46e-01	0	49	104	0	87	14606
2026-01-16 11:55:29.58	186.37	69.30	-58.6	-70.1	3.8	8.47e-01	0	50	104	0	87	14593
2026-01-16 11:55:33.62	189.41	70.90	-58.6	-70.1	3.8	8.47e-01	0	50	104	0	87	14546
2026-01-16 11:55:37.65	193.02	72.46	-58.6	-70.0	3.8	8.46e-01	0	50	104	0	87	14510
2026-01-16 11:55:41.68	197.36	73.97	-58.5	-69.7	3.8	8.47e-01	0	50	104	0	87	13926
2026-01-16 11:55:45.71	202.62	75.39	-58.6	-69.9	3.8	8.46e-01	0	50	104	0	87	14367
2026-01-16 11:55:49.75	209.00	76.68	-58.6	-70.1	3.8	8.46e-01	0	50	104	0	87	14560
2026-01-16 11:55:53.78	216.66	77.79	-58.5	-69.7	3.8	8.47e-01	0	50	104	0	87	13934
2026-01-16 11:55:57.82	225.72	78.65	-58.6	-70.0	3.8	8.47e-01	0	50	104	0	87	14524
2026-01-16 11:56:01.86	236.00	79.20	-58.6	-69.9	3.8	8.46e-01	0	50	104	0	87	14283
2026-01-16 11:56:05.90	247.00	79.38	-58.6	-70.0	3.8	8.44e-01	0	50	104	0	87	14404
2026-01-16 11:56:09.93	257.94	79.17	-58.6	-69.9	3.8	8.46e-01	0	50	104	0	87	14293
2026-01-16 11:56:13.97	268.14	78.60	-58.6	-69.9	3.8	8.45e-01	0	50	104	0	87	14299
2026-01-16 11:56:18.00	277.08	77.72	-58.6	-70.0	3.8	8.46e-01	0	50	104	0	87	14455
2026-01-16 11:56:22.04	284.66	76.60	-58.6	-69.8	3.8	8.45e-01	0	50	104	0	87	14104
2026-01-16 11:56:26.07	290.94	75.30	-58.5	-69.5	3.8	8.48e-01	0	50	104	0	87	13701
2026-01-16 11:56:30.11	296.13	73.87	-58.6	-70.0	3.8	8.46e-01	0	50	104	0	87	14508
2026-01-16 11:56:34.14	300.41	72.36	-58.6	-70.1	3.9	8.48e-01	0	50	104	0	87	14583
2026-01-16 11:56:38.17	303.98	70.79	-58.6	-70.1	3.8	8.46e-01	0	50	104	0	87	14547
2026-01-16 11:56:42.21	306.98	69.19	-58.6	-69.8	3.8	8.47e-01	0	50	104	0	87	14049
2026-01-16 11:56:46.24	309.51	67.57	-58.6	-70.1	3.8	8.45e-01	0	50	104	0	87	14541
2026-01-16 11:56:50.27	311.68	65.96	-58.6	-70.1	3.8	8.46e-01	0	50	104	0	87	14619
2026-01-16 11:56:54.30	313.55	64.34	-58.6	-70.1	3.8	8.46e-01	0	50	104	0	87	14555
2026-01-16 11:56:58.34	315.18	62.74	-58.6	-70.1	3.8	8.45e-01	0	50	104	0	87	14585
2026-01-16 11:57:02.37	316.61	61.16	-58.6	-70.1	3.8	8.47e-01	0	50	104	0	87	14564
2026-01-16 11:57:06.41	317.87	59.61	-58.6	-70.1	3.8	8.45e-01	0	50	104	0	87	14585
2026-01-16 11:57:10.44	318.99	58.08	-58.6	-70.1	3.8	8.47e-01	0	50	104	0	87	14604
2026-01-16 11:57:14.48	320.00	56.58	-58.6	-70.1	3.8	8.46e-01	0	50	104	0	87	14578
2026-01-16 11:57:18.51	320.90	55.12	-58.6	-70.1	3.8	8.45e-01	0	50	104	0	87	14595
2026-01-16 11:57:22.55	321.72	53.68	-58.6	-70.1	3.8	8.45e-01	0	50	104	0	87	14623
2026-01-16 11:57:26.58	322.46	52.29	-58.6	-70.1	3.8	8.47e-01	0	50	104	0	87	14642
2026-01-16 11:57:30.61	323.14	50.92	-58.6	-70.1	3.8	8.45e-01	0	50	104	0	87	14566
2026-01-16 11:57:34.65	323.76	49.60	-58.6	-70.1	3.8	8.47e-01	0	50	104	0	87	14601
2026-01-16 11:57:38.68	324.33	48.30	-58.6	-70.1	3.8	8.46e-01	0	50	104	0	87	14616
2026-01-16 11:57:42.71	324.86	47.05	-58.6	-70.1	3.8	8.46e-01	0	50	104	0	87	14652
2026-01-16 11:57:46.75	325.35	45.82	-58.6	-70.1	3.8	8.45e-01	0	50	104	0	87	14595
2026-01-16 11:57:50.78	325.80	44.63	-58.6	-70.1	3.8	8.46e-01	0	50	104	0	87	14622
2026-01-16 11:57:54.82	326.23	43.48	-58.6	-70.1	3.8	8.47e-01	0	50	104	0	87	14657
2026-01-16 11:57:58.85	326.62	42.35	-58.6	-70.1	3.8	8.46e-01	0	50	104	0	87	14595
2026-01-16 11:58:02.89	326.99	41.26	-58.6	-70.1	3.8	8.45e-01	0	50	104	0	87	14608
2026-01-16 11:58:06.92	327.34	40.20	-58.6	-70.1	3.8	8.46e-01	0	50	104	0	87	14617
2026-01-16 11:58:10.96	327.67	39.17	-58.6	-70.1	3.8	8.46e-01	0	50	104	0	87	14608
2026-01-16 11:58:14.99	327.97	38.17	-58.6	-70.1	3.8	8.45e-01	0	50	104	0	87	14632
2026-01-16 11:58:19.02	328.26	37.20	-58.6	-70.1	3.8	8.47e-01	0	50	104	0	87	14632
2026-01-16 11:58:23.05	328.54	36.25	-58.6	-70.1	3.8	8.46e-01	0	50	104	0	87	14695
2026-01-16 11:58:27.09	328.80	35.33	-58.6	-70.1	3.8	8.47e-01	0	50	104	0	87	14599
2026-01-16 11:58:31.12	329.05	34.44	-58.6	-70.1	3.8	8.46e-01	0	50	104	0	87	14657
2026-01-16 11:58:35.16	329.28	33.57	-58.6	-70.1	3.8	8.47e-01	0	50	104	0	87	14637
2026-01-16 11:58:39.19	329.51	32.72	-58.6	-70.1	3.9	8.46e-01	0	50	104	0	87	14598
2026-01-16 11:58:43.23	329.72	31.90	-58.6	-70.1	3.9	8.47e-01	0	50	104	0	87	14642
2026-01-16 11:58:47.26	329.92	31.10	-58.6	-70.1	3.8	8.47e-01	0	50	104	0	87	14620
2026-01-16 11:58:51.29	330.12	30.32	-58.6	-70.1	3.8	8.46e-01	0	50	104	0	87	14608
2026-01-16 11:58:55.33	330.31	29.56	-58.6	-70.1	3.8	8.46e-01	0	50	104	0	87	14603
2026-01-16 11:58:59.37	330.49	28.82	-58.6	-70.1	3.8	8.46e-01	0	50	104	0	87	14612
2026-01-16 11:59:03.40	330.66	28.09	-58.6	-70.1	3.8	8.47e-01	0	50	104	0	87	14617
2026-01-16 11:59:07.43	330.82	27.39	-58.6	-70.1	3.8	8.46e-01	0	50	104	0	87	14653
2026-01-16 11:59:11.47	330.98	26.71	-58.6	-70.1	3.8	8.47e-01	0	50	104	0	87	14616
2026-01-16 11:59:15.50	331.14	26.04	-58.6	-70.1	3.8	8.47e-01	0	50	104	0	87	14619
2026-01-16 11:59:19.53	331.28	25.39	-58.6	-70.1	3.8	8.45e-01	0	50	104	0	87	14600
2026-01-16 11:59:23.57	331.43	24.75	-58.6	-70.1	3.8	8.45e-01	0	50	104	0	87	14658
2026-01-16 11:59:27.60	331.56	24.13	-58.6	-70.1	3.8	8.47e-01	0	50	104	0	87	14637
2026-01-16 11:59:31.63	331.70	23.52	-58.6	-70.1	3.8	8.46e-01	0	50	104	0	87	14630
2026-01-16 11:59:35.66	331.83	22.93	-58.6	-70.1	3.8	8.46e-01	0	50	104	0	87	14636
2026-01-16 11:59:39.70	331.95	22.35	-58.6	-70.1	3.8	8.46e-01	0	50	104	0	87	14621
2026-01-16 11:59:43.73	332.07	21.78	-58.6	-70.1	3.8	8.47e-01	0	50	104	0	87	14625
2026-01-16 11:59:47.77	332.19	21.22	-58.6	-70.1	3.8	8.47e-01	0	50	104	0	87	14587
2026-01-16 11:59:51.81	332.30	20.68	-58.6	-70.1	3.8	8.46e-01	0	50	104	0	87	14626
2026-01-16 11:59:55.84	332.41	20.15	-58.6	-70.1	3.8	8.46e-01	0	50	104	0	87	14627
2026-01-16 11:59:59.87	332.52	19.63	-58.6	-70.1	3.8	8.45e-01	0	50	104	0	87	14629
2026-01-16 12:00:03.90	332.62	19.12	-58.6	-70.1	3.8	8.47e-01	0	50	104	0	87	14591
2026-01-16 12:00:07.94	332.72	18.62	-58.6	-70.1	3.8	8.47e-01	0	50	104	0	87	14633
2026-01-16 12:00:11.97	332.82	18.13	-58.6	-70.1	3.8	8.46e-01	0	50	104	0	87	14572
2026-01-16 12:00:16.00	332.92	17.65	-58.6	-70.1	3.8	8.47e-01	0	50	104	0	87	14616
2026-01-16 12:00:20.04	333.01	17.17	-58.6	-70.1	3.8	8.46e-01	0	50	104	0	87	14681
2026-01-16 12:00:24.08	333.10	16.71	-58.6	-70.1	3.8	8.44e-01	0	50	104	0	87	14625
2026-01-16 12:00:28.11	333.19	16.26	-58.6	-70.1	3.8	8.47e-01	0	50	104	0	87	14582
2026-01-16 12:00:32.14	333.28	15.81	-58.6	-70.1	3.8	8.45e-01	0	50	104	0	87	14616
2026-01-16 12:00:36.17	333.36	15.38	-58.6	-70.1	3.8	8.46e-01	0	50	104	0	87	14595
2026-01-16 12:00:40.21	333.45	14.95	-58.6	-70.1	3.8	8.46e-01	0	50	104	0	87	14646
2026-01-16 12:00:44.24	333.53	14.52	-58.6	-70.1	3.8	8.46e-01	0	50	104	0	87	14608
2026-01-16 12:00:48.28	333.61	14.11	-58.6	-70.1	3.8	8.46e-01	0	50	104	0	87	14620
2026-01-16 12:00:52.31	333.68	13.70	-58.6	-70.1	3.8	8.45e-01	0	50	104	0	87	14612
2026-01-16 12:00:56.35	333.76	13.30	-58.6	-70.1	3.8	8.46e-01	0	50	104	0	87	14620
2026-01-16 12:01:00.38	333.84	12.90	-58.6	-70.1	3.8	8.46e-01	0	50	104	0	87	14645
2026-01-16 12:01:04.41	333.91	12.51	-58.6	-70.1	3.8	8.46e-01	0	50	104	0	87	14633
2026-01-16 12:01:08.45	333.98	12.13	-58.6	-70.1	3.8	8.46e-01	0	50	104	0	87	14604
2026-01-16 12:01:12.48	334.05	11.76	-58.6	-70.1	3.8	8.46e-01	0	50	104	0	87	14613
2026-01-16 12:01:16.51	334.12	11.38	-58.6	-70.1	3.8	8.46e-01	0	50	104	0	87	14586
2026-01-16 12:01:20.55	334.19	11.02	-58.6	-70.1	3.8	8.47e-01	0	50	104	0	87	14577
2026-01-16 12:01:24.59	334.25	10.66	-58.6	-70.1	3.8	8.45e-01	0	50	104	0	87	14612
2026-01-16 12:01:28.62	334.32	10.30	-58.6	-70.1	3.8	8.48e-01	0	50	104	0	87	14632
2026-01-16 12:01:32.65	334.38	9.95	-58.6	-70.1	3.8	8.48e-01	0	50	104	0	87	14604
2026-01-16 12:01:36.69	334.45	9.61	-58.6	-70.1	3.8	8.46e-01	0	50	104	0	87	14633
2026-01-16 12:01:40.72	334.51	9.27	-58.6	-70.1	3.8	8.48e-01	0	50	104	0	87	14684
2026-01-16 12:01:44.76	334.57	8.93	-58.6	-70.1	3.8	8.46e-01	0	50	104	0	87	14671
2026-01-16 12:01:48.79	334.63	8.60	-58.6	-70.1	3.8	8.45e-01	0	50	104	0	87	14626
2026-01-16 12:01:52.82	334.69	8.27	-58.6	-70.1	3.8	8.45e-01	0	50	104	0	87	14605
2026-01-16 12:01:56.86	334.75	7.95	-58.6	-70.1	3.8	8.47e-01	0	50	104	0	87	14665
2026-01-16 12:02:00.89	334.80	7.63	-58.6	-70.1	3.8	8.46e-01	0	50	104	0	87	14602
2026-01-16 12:02:04.92	334.86	7.32	-58.6	-70.1	3.8	8.46e-01	0	50	104	0	87	14643
2026-01-16 12:02:08.96	334.92	7.01	-58.6	-70.1	3.8	8.46e-01	0	50	104	0	87	14655
2026-01-16 12:02:12.99	334.97	6.70	-58.6	-70.1	3.8	8.45e-01	0	50	104	0	87	14621
2026-01-16 12:02:17.03	335.02	6.40	-58.6	-70.1	3.8	8.47e-01	0	50	104	0	87	14637
2026-01-16 12:02:21.06	335.08	6.10	-58.6	-70.1	3.8	8.45e-01	0	50	104	0	87	14606
2026-01-16 12:02:25.10	335.13	5.80	-58.6	-70.1	3.8	8.46e-01	0	50	104	0	87	14644
2026-01-16 12:02:29.13	335.18	5.51	-58.6	-70.1	3.8	8.46e-01	0	50	104	0	87	14643
2026-01-16 12:02:33.17	335.23	5.22	-58.6	-70.1	3.8	8.47e-01	0	50	104	0	87	14658
2026-01-16 12:02:37.20	335.28	4.93	-58.6	-70.1	3.8	8.45e-01	0	50	104	0	87	14599
2026-01-16 12:02:41.24	335.34	4.64	-58.6	-70.1	3.8	8.45e-01	0	50	104	0	87	14573
2026-01-16 12:02:45.27	335.38	4.36	-58.6	-70.1	3.8	8.45e-01	0	50	104	0	87	14634
2026-01-16 12:02:49.31	335.43	4.08	-58.6	-70.1	3.8	8.46e-01	0	50	104	0	87	14620
2026-01-16 12:02:53.34	335.48	3.81	-58.6	-70.1	3.8	8.47e-01	0	50	104	0	87	14630
2026-01-16 12:02:57.38	335.53	3.54	-58.6	-70.1	3.8	8.46e-01	0	50	104	0	87	14583
2026-01-16 12:03:01.41	335.58	3.27	-58.6	-70.1	3.8	8.46e-01	0	50	104	0	87	14677
2026-01-16 12:03:05.44	335.62	3.00	-58.6	-70.1	3.8	8.46e-01	0	50	104	0	87	14617
2026-01-16 12:03:09.48	335.67	2.74	-58.6	-70.1	3.8	8.47e-01	0	50	104	0	87	14629
2026-01-16 12:03:13.52	335.72	2.47	-58.6	-70.1	3.8	8.46e-01	0	50	104	0	87	14639
2026-01-16 12:03:17.55	335.76	2.21	-58.6	-70.1	3.8	8.46e-01	0	50	104	0	87	14618

#Closed at: 2026-01-16 12:03:21
#Recorded file [0 MB]: D:/lorett/data/31041_260116_144854.dat