passes_logs/2026/01/16/R3.2S_Murmansk/R3.2S_Murmansk__20260116_070710_KANOPUS-V_5_rec.log

#Pass ID: 20260116_070710_KANOPUS-V 5
#Satellite: KANOPUS-V 5
#Configuration: KANOPUS-V_8320
#almurnet v.1.7.20251203
#Start time: 2026-01-16 07:07:11

#Version: 2.2.20231116
#Station: R3.2S_Murmansk
#Location: 33.079688 lon 68.888172 lat
#TLE: 1 43876U 18111A   26015.95883530  .00002079  00000+0  90203-4 0  9990
#TLE: 2 43876  97.3685 284.4557 0001748  86.2315 273.9122 15.23440439391619

#Time	Az	El	Level	Level2	SNR	BER	BlckErr	Temp	State	Recorded	gain1	gain2
2026-01-16 07:07:11.83	141.41	2.07	-57.2	-66.0	3.8	7.44e-01	0	42	0	0	86	9705
2026-01-16 07:07:14.85	141.35	2.29	-57.2	-66.1	3.8	7.45e-01	0	42	104	0	85	10322
2026-01-16 07:07:17.88	141.27	2.50	-57.2	-66.0	3.8	7.46e-01	0	42	104	0	85	10281
2026-01-16 07:07:20.91	141.20	2.72	-57.2	-66.1	3.8	7.45e-01	0	43	104	0	85	10314
2026-01-16 07:07:23.94	141.13	2.94	-57.2	-66.0	3.8	7.47e-01	0	43	104	0	85	10269
2026-01-16 07:07:26.97	141.05	3.16	-57.2	-66.1	3.8	7.46e-01	0	43	104	0	85	10306
2026-01-16 07:07:30.00	140.98	3.39	-57.2	-66.1	3.8	7.44e-01	0	43	104	0	85	10336
2026-01-16 07:07:33.03	140.90	3.61	-57.2	-66.0	3.8	7.44e-01	0	43	104	0	85	10249
2026-01-16 07:07:36.06	140.82	3.84	-57.2	-66.0	3.8	7.45e-01	0	44	104	0	85	10272
2026-01-16 07:07:39.09	140.73	4.07	-57.2	-66.0	3.8	7.44e-01	0	44	104	0	85	10284
2026-01-16 07:07:42.12	140.65	4.31	-57.2	-66.0	3.8	7.44e-01	0	44	104	0	85	10285
2026-01-16 07:07:45.15	140.56	4.54	-57.2	-66.0	3.8	7.45e-01	0	44	104	0	85	10289
2026-01-16 07:07:48.18	140.47	4.78	-57.2	-66.0	3.8	7.45e-01	0	44	104	0	85	10277
2026-01-16 07:07:51.21	140.38	5.03	-57.2	-66.0	3.8	7.44e-01	0	44	104	0	85	10249
2026-01-16 07:07:54.24	140.29	5.27	-57.2	-66.1	3.8	7.46e-01	0	44	104	0	85	10319
2026-01-16 07:07:57.26	140.20	5.52	-57.4	-66.2	3.8	7.44e-01	0	45	104	0	85	10507
2026-01-16 07:08:00.29	140.10	5.77	-57.3	-66.1	3.8	7.44e-01	0	45	104	0	85	10348
2026-01-16 07:08:03.32	140.00	6.03	-54.8	-66.2	3.8	7.44e-01	0	45	104	0	81	13163
2026-01-16 07:08:06.35	139.90	6.29	-50.4	-52.6	12.1	6.14e-01	0	45	0	29360128	72	4635
2026-01-16 07:08:09.38	139.79	6.55	-49.6	-51.7	13.2	6.11e-01	0	45	0	75497472	71	4393
2026-01-16 07:08:12.40	139.68	6.81	-49.5	-51.5	13.3	6.11e-01	0	45	0	121634816	70	4588
2026-01-16 07:08:15.43	139.57	7.08	-49.4	-51.5	13.4	6.11e-01	0	45	0	167772160	70	4565
2026-01-16 07:08:18.46	139.46	7.35	-49.1	-51.1	13.8	6.10e-01	0	45	0	216006656	70	4357
2026-01-16 07:08:21.49	139.35	7.63	-49.3	-51.3	13.6	6.10e-01	0	46	0	262144000	70	4472
2026-01-16 07:08:24.51	139.23	7.91	-49.1	-51.3	13.8	5.80e-01	0	46	0	308281344	70	4475
2026-01-16 07:08:27.54	139.10	8.20	-49.2	-51.3	13.8	5.79e-01	0	46	0	356515840	70	4493
2026-01-16 07:08:30.57	138.98	8.48	-48.9	-51.0	14.1	5.80e-01	0	46	0	402653184	69	4579
2026-01-16 07:08:33.60	138.85	8.78	-48.9	-50.9	14.2	5.80e-01	0	46	0	448790528	69	4539
2026-01-16 07:08:36.63	138.72	9.08	-48.8	-50.9	14.3	5.78e-01	0	46	0	494927872	69	4502
2026-01-16 07:08:39.66	138.58	9.38	-48.7	-50.7	14.4	5.79e-01	0	46	0	541065216	69	4441
2026-01-16 07:08:42.69	138.44	9.69	-48.7	-50.7	14.5	5.79e-01	0	46	0	587202560	69	4439
2026-01-16 07:08:45.72	138.30	10.00	-48.7	-50.7	14.5	5.79e-01	0	46	0	633339904	69	4439
2026-01-16 07:08:48.75	138.15	10.32	-48.5	-50.6	14.7	5.79e-01	0	46	0	681574400	69	4347
2026-01-16 07:08:51.78	138.00	10.64	-48.3	-50.4	14.8	5.79e-01	0	46	0	727711744	68	4508
2026-01-16 07:08:54.81	137.84	10.97	-48.4	-50.5	14.6	6.03e-01	0	47	0	773849088	68	4575
2026-01-16 07:08:57.84	137.68	11.30	-48.3	-50.4	14.7	6.06e-01	0	47	0	822083584	68	4534
2026-01-16 07:09:00.87	137.51	11.64	-48.3	-50.4	14.8	6.00e-01	0	47	0	868220928	68	4524
2026-01-16 07:09:03.89	137.34	11.99	-48.0	-50.2	14.9	6.04e-01	0	47	0	914358272	68	4417
2026-01-16 07:09:06.92	137.16	12.34	-48.1	-50.4	14.9	6.03e-01	0	47	0	960495616	68	4496
2026-01-16 07:09:09.95	136.98	12.70	-48.0	-50.3	15.1	6.01e-01	0	47	0	1006632960	67	4720
2026-01-16 07:09:12.98	136.79	13.07	-47.9	-50.1	15.3	6.01e-01	0	47	0	1052770304	67	4607
2026-01-16 07:09:16.01	136.60	13.44	-48.0	-50.2	15.2	5.97e-01	0	47	0	1098907648	67	4693
2026-01-16 07:09:19.03	136.40	13.82	-47.7	-49.9	15.5	6.02e-01	0	47	0	1147142144	67	4494
2026-01-16 07:09:22.06	136.19	14.21	-47.5	-49.5	15.8	5.96e-01	0	47	0	1193279488	66	4564
2026-01-16 07:09:25.09	135.98	14.61	-47.0	-49.0	16.3	6.00e-01	0	48	0	1239416832	66	4317
2026-01-16 07:09:28.12	135.76	15.02	-47.0	-48.9	16.3	6.05e-01	0	48	0	1285554176	65	4499
2026-01-16 07:09:31.15	135.53	15.43	-46.7	-48.5	16.6	5.99e-01	0	48	0	1333788672	65	4333
2026-01-16 07:09:34.17	135.29	15.85	-46.7	-48.5	16.7	6.02e-01	0	48	0	1379926016	65	4319
2026-01-16 07:09:37.20	135.04	16.28	-46.3	-48.0	17.0	6.04e-01	0	48	0	1426063360	64	4334
2026-01-16 07:09:40.22	134.79	16.72	-46.2	-48.0	17.0	5.97e-01	0	48	0	1470103552	64	4314
2026-01-16 07:09:43.25	134.53	17.18	-46.1	-47.9	17.2	6.02e-01	0	48	0	1518338048	63	4517
2026-01-16 07:09:46.28	134.25	17.64	-46.0	-47.8	17.2	6.01e-01	0	48	0	1564475392	63	4493
2026-01-16 07:09:49.30	133.97	18.11	-45.9	-47.8	17.3	6.03e-01	0	48	0	1610612736	63	4442
2026-01-16 07:09:52.33	133.67	18.59	-46.1	-48.0	17.2	6.02e-01	0	48	0	1656750080	63	4576
2026-01-16 07:09:55.36	133.37	19.09	-46.1	-47.9	17.2	6.00e-01	0	48	0	1704984576	63	4523
2026-01-16 07:09:58.39	133.05	19.60	-46.1	-48.0	17.2	6.00e-01	0	48	0	1751121920	63	4571
2026-01-16 07:10:01.42	132.72	20.12	-46.2	-48.1	17.2	5.98e-01	0	48	0	1797259264	63	4602
2026-01-16 07:10:04.45	132.37	20.65	-46.1	-48.0	17.2	6.02e-01	0	48	0	1843396608	63	4547
2026-01-16 07:10:07.48	132.01	21.20	-46.0	-47.9	17.3	6.04e-01	0	48	0	1889533952	63	4505
2026-01-16 07:10:10.50	131.64	21.76	-45.8	-47.7	17.5	6.03e-01	0	48	0	1935671296	63	4421
2026-01-16 07:10:13.53	131.24	22.33	-45.7	-47.6	17.5	6.02e-01	0	48	0	1981808640	63	4380
2026-01-16 07:10:16.56	130.84	22.92	-45.4	-47.4	17.7	6.00e-01	0	48	0	2030043136	62	4513
2026-01-16 07:10:19.59	130.41	23.53	-45.5	-47.4	17.6	6.04e-01	0	48	0	2076180480	62	4515
2026-01-16 07:10:22.62	129.96	24.15	-45.4	-47.1	17.9	6.01e-01	0	48	0	2122317824	62	4377
2026-01-16 07:10:25.65	129.49	24.79	-45.5	-47.2	17.9	6.01e-01	0	48	0	2170552320	62	4401
2026-01-16 07:10:28.68	129.00	25.45	-45.5	-47.3	17.8	6.01e-01	0	48	0	2216689664	62	4458
2026-01-16 07:10:31.70	128.49	26.12	-45.6	-47.5	17.7	6.00e-01	0	48	0	2262827008	62	4548
2026-01-16 07:10:34.73	127.95	26.82	-45.5	-47.4	17.7	6.02e-01	0	48	0	2308964352	62	4541
2026-01-16 07:10:37.76	127.38	27.53	-45.6	-47.5	17.6	6.03e-01	0	49	0	2355101696	62	4592
2026-01-16 07:10:40.79	126.79	28.27	-45.6	-47.4	17.7	6.03e-01	0	49	0	2401239040	62	4529
2026-01-16 07:10:43.81	126.16	29.02	-45.5	-47.3	17.8	6.04e-01	0	49	0	2447376384	62	4474
2026-01-16 07:10:46.84	125.50	29.79	-45.7	-47.6	17.7	6.01e-01	0	49	0	2495610880	62	4645
2026-01-16 07:10:49.86	124.80	30.59	-45.6	-47.6	17.6	6.04e-01	0	49	0	2541748224	62	4620
2026-01-16 07:10:52.89	124.06	31.40	-45.7	-47.6	17.7	6.03e-01	0	49	0	2587885568	62	4637
2026-01-16 07:10:55.92	123.29	32.24	-45.7	-47.7	17.6	6.02e-01	0	49	0	2634022912	62	4674
2026-01-16 07:10:58.96	122.46	33.11	-45.5	-47.4	17.8	6.05e-01	0	49	0	2682257408	62	4537
2026-01-16 07:11:01.99	121.58	34.00	-45.5	-47.6	17.7	6.01e-01	0	49	0	2728394752	62	4607
2026-01-16 07:11:05.01	120.66	34.90	-45.5	-47.9	17.4	6.02e-01	0	49	0	2774532096	62	4776
2026-01-16 07:11:08.04	119.67	35.83	-45.4	-47.6	17.7	5.99e-01	0	49	0	2820669440	62	4606
2026-01-16 07:11:11.07	118.62	36.79	-44.9	-47.0	18.0	6.01e-01	0	49	0	2866806784	61	4581
2026-01-16 07:11:14.10	117.50	37.76	-44.6	-46.9	18.2	5.99e-01	0	49	0	2912944128	61	4494
2026-01-16 07:11:17.13	116.31	38.76	-44.0	-46.3	18.5	6.01e-01	0	49	0	2959081472	60	4469
2026-01-16 07:11:20.16	115.04	39.77	-43.9	-46.0	18.5	6.00e-01	0	49	0	3007315968	59	4560
2026-01-16 07:11:23.19	113.68	40.80	-43.3	-45.4	18.9	5.99e-01	0	49	0	3053453312	58	4531
2026-01-16 07:11:26.21	112.23	41.85	-43.2	-45.5	18.8	6.04e-01	0	49	0	3099590656	58	4598
2026-01-16 07:11:29.24	110.67	42.91	-42.8	-45.1	19.0	6.01e-01	0	49	0	3147825152	57	4631
2026-01-16 07:11:32.27	109.01	43.98	-43.0	-45.4	18.8	6.00e-01	0	49	0	3193962496	57	4770
2026-01-16 07:11:35.30	107.22	45.05	-43.0	-45.2	18.9	5.98e-01	0	49	0	3240099840	57	4703
2026-01-16 07:11:38.33	105.30	46.13	-42.8	-45.1	19.1	5.79e-01	0	49	0	3284140032	57	4600
2026-01-16 07:11:41.35	103.24	47.19	-43.0	-45.4	18.9	5.79e-01	0	49	0	3332374528	57	4801
2026-01-16 07:11:44.38	101.03	48.25	-43.0	-45.3	19.0	5.79e-01	0	49	0	3378511872	57	4752
2026-01-16 07:11:47.41	98.66	49.29	-42.8	-45.0	19.2	5.80e-01	0	49	0	3424649216	57	4586
2026-01-16 07:11:50.44	96.12	50.29	-58.9	-67.8	3.8	7.46e-01	0	49	104	3462397952	88	10597
2026-01-16 07:11:53.46	93.41	51.26	-58.9	-67.7	3.8	7.43e-01	0	49	104	3462397952	88	10527
2026-01-16 07:11:56.49	90.52	52.18	-58.9	-67.7	3.8	7.45e-01	0	49	104	3462397952	88	10529
2026-01-16 07:11:59.53	87.43	53.04	-58.9	-67.8	3.8	7.45e-01	0	49	104	3462397952	88	10618
2026-01-16 07:12:02.56	84.17	53.82	-58.9	-67.8	3.8	7.48e-01	0	49	104	3462397952	88	10569
2026-01-16 07:12:05.58	80.74	54.51	-58.9	-67.8	3.8	7.44e-01	0	49	104	3462397952	88	10562
2026-01-16 07:12:08.61	77.14	55.12	-58.9	-67.8	3.8	7.46e-01	0	49	104	3462397952	88	10590
2026-01-16 07:12:11.64	73.39	55.61	-59.0	-67.8	3.8	7.46e-01	0	49	104	3462397952	88	10628
2026-01-16 07:12:14.67	69.53	55.98	-59.0	-67.8	3.8	7.46e-01	0	49	104	3462397952	88	10618
2026-01-16 07:12:17.70	65.58	56.23	-59.0	-67.9	3.8	7.45e-01	0	49	104	3462397952	88	10669
2026-01-16 07:12:20.72	61.59	56.34	-59.0	-67.9	3.8	7.45e-01	0	50	104	3462397952	88	10670
2026-01-16 07:12:23.75	57.57	56.32	-59.0	-67.9	3.8	7.45e-01	0	49	104	3462397952	88	10713
2026-01-16 07:12:26.78	53.57	56.17	-59.0	-67.9	3.8	7.46e-01	0	49	104	3462397952	88	10753
2026-01-16 07:12:29.81	49.64	55.89	-59.0	-67.9	3.8	7.44e-01	0	50	104	3462397952	88	10690
2026-01-16 07:12:32.84	45.81	55.48	-59.0	-67.9	3.8	7.45e-01	0	49	104	3462397952	88	10725
2026-01-16 07:12:35.86	42.12	54.96	-59.0	-67.9	3.8	7.45e-01	0	50	104	3462397952	88	10675
2026-01-16 07:12:38.89	38.57	54.33	-59.0	-67.9	3.8	7.46e-01	0	50	104	3462397952	88	10657
2026-01-16 07:12:41.92	35.18	53.61	-59.0	-67.9	3.8	7.45e-01	0	50	104	3462397952	88	10672
2026-01-16 07:12:44.95	31.98	52.81	-59.0	-67.9	3.8	7.46e-01	0	50	104	3462397952	88	10695
2026-01-16 07:12:47.98	28.95	51.93	-59.0	-67.9	3.8	7.44e-01	0	49	104	3462397952	88	10706
2026-01-16 07:12:51.01	26.11	51.00	-59.0	-67.9	3.8	7.45e-01	0	50	104	3462397952	88	10661
2026-01-16 07:12:54.04	23.45	50.02	-59.0	-67.9	3.8	7.46e-01	0	50	104	3462397952	88	10681
2026-01-16 07:12:57.07	20.96	49.01	-59.0	-67.9	3.8	7.46e-01	0	50	104	3462397952	88	10674
2026-01-16 07:13:00.10	18.64	47.97	-59.0	-67.8	3.8	7.44e-01	0	50	104	3462397952	88	10650
2026-01-16 07:13:03.12	16.48	46.92	-59.0	-67.8	3.8	7.44e-01	0	50	104	3462397952	88	10653
2026-01-16 07:13:06.15	14.46	45.85	-59.0	-67.8	3.8	7.48e-01	0	50	104	3462397952	88	10635
2026-01-16 07:13:09.18	12.59	44.78	-59.0	-67.9	3.8	7.45e-01	0	50	104	3462397952	88	10701
2026-01-16 07:13:12.21	10.83	43.71	-59.0	-67.9	3.8	7.46e-01	0	50	104	3462397952	88	10660
2026-01-16 07:13:15.24	9.20	42.64	-59.0	-67.9	3.8	7.46e-01	0	50	104	3462397952	88	10666
2026-01-16 07:13:18.27	7.67	41.59	-58.9	-67.8	3.8	7.45e-01	0	50	104	3462397952	88	10617
2026-01-16 07:13:21.30	6.25	40.55	-58.9	-67.8	3.8	7.46e-01	0	50	104	3462397952	88	10606
2026-01-16 07:13:24.33	4.92	39.52	-58.9	-67.8	3.8	7.44e-01	0	50	104	3462397952	88	10623
2026-01-16 07:13:27.35	3.68	38.52	-58.9	-67.8	3.8	7.45e-01	0	50	104	3462397952	88	10626
2026-01-16 07:13:30.38	2.51	37.53	-58.9	-67.7	3.8	7.45e-01	0	50	104	3462397952	88	10525
2026-01-16 07:13:33.41	1.41	36.57	-58.9	-67.8	3.8	7.44e-01	0	50	104	3462397952	88	10552
2026-01-16 07:13:36.44	0.38	35.62	-58.9	-67.8	3.8	7.43e-01	0	50	104	3462397952	88	10543
2026-01-16 07:13:39.47	359.42	34.70	-58.9	-67.8	3.8	7.45e-01	0	50	104	3462397952	88	10568
2026-01-16 07:13:42.50	358.51	33.80	-58.8	-67.7	3.8	7.46e-01	0	50	104	3462397952	88	10471
2026-01-16 07:13:45.52	357.65	32.93	-58.8	-67.7	3.8	7.46e-01	0	50	104	3462397952	88	10498
2026-01-16 07:13:48.55	356.84	32.08	-58.8	-67.7	3.8	7.44e-01	0	50	104	3462397952	88	10496
2026-01-16 07:13:51.57	356.07	31.25	-58.8	-67.7	3.8	7.45e-01	0	50	104	3462397952	88	10508
2026-01-16 07:13:54.61	355.35	30.43	-58.8	-67.7	3.8	7.45e-01	0	50	104	3462397952	88	10462
2026-01-16 07:13:57.63	354.66	29.65	-58.8	-67.7	3.8	7.45e-01	0	50	104	3462397952	88	10414
2026-01-16 07:14:00.66	354.01	28.88	-58.8	-67.6	3.8	7.46e-01	0	50	104	3462397952	88	10392
2026-01-16 07:14:03.69	353.39	28.14	-58.8	-67.6	3.8	7.44e-01	0	50	104	3462397952	88	10397
2026-01-16 07:14:06.72	352.81	27.41	-58.7	-67.6	3.8	7.45e-01	0	50	104	3462397952	88	10358
2026-01-16 07:14:09.75	352.25	26.70	-58.7	-67.6	3.8	7.45e-01	0	50	104	3462397952	88	10378
2026-01-16 07:14:12.77	351.72	26.02	-58.7	-67.5	3.8	7.45e-01	0	50	104	3462397952	88	10285
2026-01-16 07:14:15.80	351.21	25.35	-58.7	-67.6	3.8	7.46e-01	0	50	104	3462397952	88	10299
2026-01-16 07:14:18.82	350.73	24.70	-58.7	-67.5	3.8	7.43e-01	0	50	104	3462397952	88	10262
2026-01-16 07:14:21.85	350.27	24.07	-58.7	-67.5	3.8	7.45e-01	0	50	104	3462397952	88	10223
2026-01-16 07:14:24.88	349.83	23.45	-58.6	-67.5	3.8	7.46e-01	0	50	104	3462397952	88	10228
2026-01-16 07:14:27.91	349.41	22.85	-58.6	-67.5	3.8	7.45e-01	0	50	104	3462397952	88	10221
2026-01-16 07:14:30.94	349.01	22.27	-58.6	-67.5	3.8	7.45e-01	0	50	104	3462397952	88	10177
2026-01-16 07:14:33.96	348.62	21.70	-58.6	-67.5	3.8	7.45e-01	0	50	104	3462397952	88	10189
2026-01-16 07:14:36.99	348.25	21.14	-58.5	-67.4	3.8	7.45e-01	0	50	104	3462397952	88	10144
2026-01-16 07:14:40.02	347.90	20.60	-58.5	-67.4	3.8	7.46e-01	0	50	104	3462397952	88	10132
2026-01-16 07:14:43.05	347.56	20.07	-58.5	-67.4	3.8	7.46e-01	0	50	104	3462397952	88	10086
2026-01-16 07:14:46.07	347.23	19.56	-58.5	-67.4	3.8	7.45e-01	0	50	104	3462397952	88	10119
2026-01-16 07:14:49.10	346.92	19.05	-58.5	-67.4	3.8	7.45e-01	0	50	104	3462397952	88	10070
2026-01-16 07:14:52.12	346.61	18.57	-58.5	-67.4	3.8	7.43e-01	0	50	104	3462397952	88	10065
2026-01-16 07:14:55.16	346.32	18.08	-58.4	-67.3	3.8	7.45e-01	0	50	104	3462397952	88	10056
2026-01-16 07:14:58.19	346.04	17.62	-58.5	-67.3	3.8	7.45e-01	0	50	104	3462397952	88	9995
2026-01-16 07:15:01.22	345.77	17.16	-58.4	-67.3	3.8	7.44e-01	0	50	104	3462397952	88	9967
2026-01-16 07:15:04.25	345.51	16.71	-58.4	-67.3	3.8	7.45e-01	0	50	104	3462397952	88	9950
2026-01-16 07:15:07.28	345.26	16.27	-58.4	-67.2	3.8	7.45e-01	0	50	104	3462397952	88	9928
2026-01-16 07:15:10.31	345.02	15.84	-58.4	-67.2	3.8	7.44e-01	0	50	104	3462397952	88	9916
2026-01-16 07:15:13.34	344.78	15.42	-58.3	-67.2	3.8	7.46e-01	0	50	104	3462397952	88	9887
2026-01-16 07:15:16.36	344.56	15.01	-58.3	-67.1	3.8	7.46e-01	0	50	104	3462397952	88	9809
2026-01-16 07:15:19.39	344.34	14.61	-58.3	-67.2	3.8	7.45e-01	0	50	104	3462397952	88	9870
2026-01-16 07:15:22.42	344.13	14.22	-58.3	-67.2	3.8	7.45e-01	0	50	104	3462397952	88	9849
2026-01-16 07:15:25.45	343.93	13.83	-58.3	-67.1	3.8	7.46e-01	0	50	104	3462397952	88	9791
2026-01-16 07:15:28.48	343.73	13.45	-58.2	-67.1	3.8	7.46e-01	0	50	104	3462397952	88	9729
2026-01-16 07:15:31.51	343.54	13.08	-58.2	-67.1	3.8	7.45e-01	0	50	104	3462397952	88	9766
2026-01-16 07:15:34.54	343.35	12.72	-58.2	-67.1	3.8	7.44e-01	0	50	104	3462397952	88	9733
2026-01-16 07:15:37.57	343.17	12.36	-58.2	-67.0	3.8	7.44e-01	0	50	104	3462397952	88	9711
2026-01-16 07:15:40.61	343.00	12.01	-58.1	-67.0	3.8	7.46e-01	0	50	104	3462397952	88	9642
2026-01-16 07:15:43.64	342.83	11.66	-58.1	-67.0	3.8	7.45e-01	0	50	104	3462397952	88	9628
2026-01-16 07:15:46.67	342.66	11.33	-58.1	-67.0	3.8	7.47e-01	0	50	104	3462397952	88	9627
2026-01-16 07:15:49.70	342.51	10.99	-58.1	-67.0	3.8	7.47e-01	0	50	104	3462397952	88	9618
2026-01-16 07:15:52.72	342.35	10.67	-58.0	-66.9	3.8	7.44e-01	0	50	104	3462397952	88	9522
2026-01-16 07:15:55.75	342.20	10.35	-58.0	-66.9	3.8	7.45e-01	0	50	104	3462397952	88	9541
2026-01-16 07:15:58.78	342.06	10.03	-58.0	-66.9	3.8	7.46e-01	0	50	104	3462397952	88	9551
2026-01-16 07:16:01.81	341.92	9.72	-58.1	-66.9	3.8	7.45e-01	0	50	104	3462397952	87	10073
2026-01-16 07:16:04.84	341.78	9.41	-58.0	-66.8	3.8	7.45e-01	0	51	104	3462397952	87	9999
2026-01-16 07:16:07.86	341.64	9.11	-58.0	-66.8	3.8	7.44e-01	0	51	104	3462397952	87	10054
2026-01-16 07:16:10.89	341.51	8.82	-58.0	-66.9	3.8	7.46e-01	0	50	104	3462397952	87	10064
2026-01-16 07:16:13.92	341.39	8.53	-58.0	-66.8	3.8	7.45e-01	0	50	104	3462397952	87	10046
2026-01-16 07:16:16.95	341.27	8.24	-57.8	-66.7	3.8	7.49e-01	0	50	104	3462397952	87	9863
2026-01-16 07:16:19.98	341.15	7.96	-57.8	-66.7	3.8	7.46e-01	0	50	104	3462397952	87	9891
2026-01-16 07:16:23.00	341.03	7.68	-57.9	-66.7	3.8	7.45e-01	0	50	104	3462397952	87	9942
2026-01-16 07:16:26.04	340.92	7.40	-57.9	-66.7	3.8	7.46e-01	0	50	104	3462397952	87	9904
2026-01-16 07:16:29.06	340.80	7.13	-57.7	-66.6	3.8	7.45e-01	0	50	104	3462397952	87	9767
2026-01-16 07:16:32.10	340.70	6.86	-57.7	-66.6	3.8	7.45e-01	0	50	104	3462397952	87	9729
2026-01-16 07:16:35.13	340.59	6.60	-57.7	-66.6	3.8	7.47e-01	0	50	104	3462397952	87	9771
2026-01-16 07:16:38.15	340.49	6.34	-57.7	-66.6	3.8	7.45e-01	0	50	104	3462397952	87	9788
2026-01-16 07:16:41.18	340.39	6.08	-57.6	-66.4	3.8	7.45e-01	0	50	104	3462397952	87	9582
2026-01-16 07:16:44.21	340.29	5.83	-57.5	-66.4	3.8	7.45e-01	0	50	104	3462397952	87	9547
2026-01-16 07:16:47.24	340.20	5.58	-57.6	-66.4	3.8	7.45e-01	0	50	104	3462397952	87	9583
2026-01-16 07:16:50.27	340.10	5.33	-57.6	-66.4	3.8	7.44e-01	0	50	104	3462397952	86	10174
2026-01-16 07:16:53.30	340.01	5.09	-57.4	-66.3	3.8	7.45e-01	0	50	104	3462397952	86	9953
2026-01-16 07:16:56.33	339.93	4.84	-58.2	-67.0	3.8	7.44e-01	0	50	104	3462397952	86	10880
2026-01-16 07:16:59.36	339.84	4.60	-58.7	-67.6	3.8	7.46e-01	0	50	104	3462397952	87	10914
2026-01-16 07:17:02.39	339.75	4.37	-59.0	-67.8	3.8	7.45e-01	0	50	104	3462397952	88	10588
2026-01-16 07:17:05.41	339.67	4.14	-59.1	-68.0	3.8	7.45e-01	0	50	104	3462397952	88	10799
2026-01-16 07:17:08.44	339.59	3.91	-59.1	-68.0	3.8	7.46e-01	0	50	104	3462397952	88	10873
2026-01-16 07:17:11.47	339.51	3.68	-59.2	-68.0	3.8	7.46e-01	0	50	104	3462397952	88	10863
2026-01-16 07:17:14.50	339.44	3.45	-59.1	-68.0	3.8	7.45e-01	0	50	104	3462397952	88	10849
2026-01-16 07:17:17.53	339.36	3.23	-59.1	-68.0	3.8	7.45e-01	0	50	104	3462397952	88	10808
2026-01-16 07:17:20.55	339.29	3.01	-59.1	-67.9	3.8	7.45e-01	0	51	104	3462397952	88	10735
2026-01-16 07:17:23.58	339.22	2.79	-59.0	-67.9	3.8	7.45e-01	0	50	104	3462397952	88	10699
2026-01-16 07:17:26.61	339.15	2.57	-59.0	-67.9	3.8	7.45e-01	0	50	104	3462397952	88	10665
2026-01-16 07:17:29.64	339.08	2.36	-58.9	-67.8	3.8	7.47e-01	0	50	104	3462397952	88	10605
2026-01-16 07:17:32.67	339.01	2.15	-58.9	-67.8	3.8	7.45e-01	0	50	104	3462397952	88	10542

#Closed at: 2026-01-16 07:17:35
#Recorded file [3462 MB]: D:/lorett/data/31041_260116_100711.dat