passes_logs/2026/01/16/R3.2S_Murmansk/R3.2S_Murmansk__20260116_195515_KANOPUS-V_5_rec.log

#Pass ID: 20260116_195515_KANOPUS-V 5
#Satellite: KANOPUS-V 5
#Configuration: KANOPUS-V_8320
#almurnet v.1.7.20251203
#Start time: 2026-01-16 19:55:15

#Version: 2.2.20231116
#Station: R3.2S_Murmansk
#Location: 33.079688 lon 68.888172 lat
#TLE: 1 43876U 18111A   26015.95883530  .00002079  00000+0  90203-4 0  9990
#TLE: 2 43876  97.3685 284.4557 0001748  86.2315 273.9122 15.23440439391619

#Time	Az	El	Level	Level2	SNR	BER	BlckErr	Temp	State	Recorded	gain1	gain2
2026-01-16 19:55:15.43	25.34	2.02	-52.2	-61.0	3.8	7.44e-01	0	32	0	0	76	9717
2026-01-16 19:55:17.45	25.58	2.13	-52.2	-61.0	3.8	7.44e-01	0	32	104	0	75	10239
2026-01-16 19:55:19.47	25.83	2.24	-52.1	-61.0	3.8	7.45e-01	0	32	104	0	75	10224
2026-01-16 19:55:21.49	26.07	2.34	-52.2	-61.0	3.8	7.44e-01	0	32	104	0	75	10191
2026-01-16 19:55:23.50	26.32	2.45	-52.2	-61.0	3.8	7.45e-01	0	32	104	0	75	10216
2026-01-16 19:55:25.52	26.57	2.56	-52.2	-61.0	3.8	7.46e-01	0	32	104	0	75	10212
2026-01-16 19:55:27.54	26.83	2.67	-52.2	-61.0	3.8	7.46e-01	0	32	104	0	75	10248
2026-01-16 19:55:29.56	27.08	2.78	-52.2	-61.0	3.8	7.45e-01	0	33	104	0	75	10223
2026-01-16 19:55:31.58	27.34	2.89	-52.2	-61.0	3.8	7.46e-01	0	32	104	0	75	10208
2026-01-16 19:55:33.60	27.60	3.00	-52.2	-61.0	3.8	7.47e-01	0	33	104	0	75	10202
2026-01-16 19:55:35.61	27.86	3.10	-52.2	-61.0	3.8	7.45e-01	0	33	104	0	75	10211
2026-01-16 19:55:37.63	28.13	3.21	-52.1	-61.0	3.8	7.45e-01	0	33	104	0	75	10214
2026-01-16 19:55:39.65	28.40	3.32	-52.2	-61.0	3.8	7.46e-01	0	33	104	0	75	10259
2026-01-16 19:55:41.67	28.67	3.43	-52.2	-61.0	3.8	7.45e-01	0	33	104	0	75	10217
2026-01-16 19:55:43.69	28.94	3.54	-52.1	-61.0	3.8	7.46e-01	0	33	104	0	75	10208
2026-01-16 19:55:45.70	29.21	3.65	-52.2	-61.0	3.8	7.46e-01	0	33	104	0	75	10220
2026-01-16 19:55:47.72	29.49	3.76	-52.1	-61.0	3.8	7.45e-01	0	33	104	0	75	10193
2026-01-16 19:55:49.73	29.77	3.87	-52.1	-60.9	3.8	7.46e-01	0	33	104	0	75	10169
2026-01-16 19:55:51.75	30.05	3.98	-52.1	-61.0	3.8	7.45e-01	0	33	104	0	75	10197
2026-01-16 19:55:53.77	30.34	4.09	-52.2	-61.0	3.8	7.44e-01	0	33	104	0	75	10181
2026-01-16 19:55:55.79	30.63	4.20	-52.1	-61.0	3.8	7.46e-01	0	33	104	0	75	10193
2026-01-16 19:55:57.81	30.92	4.31	-52.1	-61.0	3.8	7.45e-01	0	33	104	0	75	10182
2026-01-16 19:55:59.82	31.21	4.42	-52.2	-61.0	3.8	7.45e-01	0	33	104	0	75	10251
2026-01-16 19:56:01.84	31.51	4.54	-52.1	-61.0	3.8	7.45e-01	0	33	104	0	75	10183
2026-01-16 19:56:03.86	31.81	4.65	-52.1	-61.0	3.8	7.45e-01	0	33	104	0	75	10186
2026-01-16 19:56:05.87	32.11	4.76	-52.1	-61.0	3.8	7.44e-01	0	33	104	0	75	10193
2026-01-16 19:56:07.89	32.41	4.87	-52.1	-61.0	3.8	7.46e-01	0	33	104	0	75	10197
2026-01-16 19:56:09.91	32.72	4.98	-52.1	-61.0	3.8	7.46e-01	0	33	104	0	75	10213
2026-01-16 19:56:11.92	33.03	5.09	-52.5	-61.3	3.8	7.45e-01	0	34	104	0	75	10606
2026-01-16 19:56:13.94	33.35	5.20	-52.5	-61.3	3.8	7.45e-01	0	33	104	0	75	10617
2026-01-16 19:56:15.96	33.66	5.31	-52.2	-61.1	3.8	7.45e-01	0	34	104	0	75	10297
2026-01-16 19:56:17.98	33.98	5.42	-52.5	-61.4	3.8	7.45e-01	0	34	104	0	75	10664
2026-01-16 19:56:20.00	34.31	5.54	-52.1	-60.9	3.8	7.45e-01	0	33	104	0	75	10145
2026-01-16 19:56:22.01	34.63	5.65	-52.1	-61.0	3.8	7.46e-01	0	34	104	0	75	10197
2026-01-16 19:56:24.03	34.96	5.76	-52.3	-61.1	3.8	7.46e-01	0	34	104	0	75	10381
2026-01-16 19:56:26.05	35.29	5.87	-52.7	-61.5	3.8	7.45e-01	0	34	104	0	75	10815
2026-01-16 19:56:28.07	35.63	5.98	-52.5	-61.3	3.8	7.45e-01	0	34	104	0	75	10616
2026-01-16 19:56:30.08	35.96	6.09	-52.7	-61.5	3.8	7.46e-01	0	34	104	0	75	10892
2026-01-16 19:56:32.10	36.30	6.20	-52.6	-61.4	3.8	7.47e-01	0	34	104	0	75	10707
2026-01-16 19:56:34.12	36.65	6.31	-52.8	-61.6	3.8	7.44e-01	0	34	104	0	76	10339
2026-01-16 19:56:36.13	37.00	6.42	-52.7	-61.5	3.8	7.45e-01	0	34	104	0	76	10237
2026-01-16 19:56:38.15	37.35	6.53	-52.8	-61.6	3.8	7.46e-01	0	34	104	0	76	10384
2026-01-16 19:56:40.16	37.70	6.64	-52.7	-61.5	3.8	7.46e-01	0	34	104	0	76	10249
2026-01-16 19:56:42.18	38.06	6.76	-52.8	-61.7	3.8	7.47e-01	0	34	104	0	76	10466
2026-01-16 19:56:44.20	38.42	6.87	-52.7	-61.6	3.8	7.45e-01	0	34	104	0	76	10303
2026-01-16 19:56:46.21	38.78	6.98	-52.9	-61.7	3.8	7.46e-01	0	34	104	0	76	10474
2026-01-16 19:56:48.23	39.15	7.09	-52.8	-61.6	3.8	7.48e-01	0	34	104	0	76	10390
2026-01-16 19:56:50.25	39.52	7.19	-52.9	-61.7	3.8	7.45e-01	0	34	104	0	76	10492
2026-01-16 19:56:52.26	39.90	7.30	-52.8	-61.6	3.8	7.44e-01	0	34	104	0	76	10390
2026-01-16 19:56:54.28	40.27	7.41	-52.9	-61.7	3.8	7.46e-01	0	34	104	0	76	10497
2026-01-16 19:56:56.30	40.66	7.52	-52.8	-61.6	3.8	7.46e-01	0	34	104	0	76	10401
2026-01-16 19:56:58.32	41.04	7.63	-52.9	-61.7	3.8	7.43e-01	0	34	104	0	76	10511
2026-01-16 19:57:00.34	41.43	7.74	-52.8	-61.7	3.8	7.45e-01	0	34	104	0	76	10441
2026-01-16 19:57:02.35	41.82	7.85	-52.9	-61.8	3.8	7.44e-01	0	34	104	0	76	10548
2026-01-16 19:57:04.37	42.22	7.95	-52.9	-61.7	3.8	7.44e-01	0	34	104	0	76	10464
2026-01-16 19:57:06.39	42.62	8.06	-53.0	-61.8	3.8	7.45e-01	0	34	104	0	76	10607
2026-01-16 19:57:08.40	43.02	8.17	-52.9	-61.7	3.8	7.45e-01	0	34	104	0	76	10496
2026-01-16 19:57:10.42	43.42	8.27	-53.0	-61.8	3.8	7.46e-01	0	34	104	0	76	10628
2026-01-16 19:57:12.44	43.83	8.38	-52.9	-61.8	3.8	7.46e-01	0	34	104	0	76	10539
2026-01-16 19:57:14.45	44.25	8.49	-53.0	-61.9	3.8	7.45e-01	0	34	104	0	76	10671
2026-01-16 19:57:16.47	44.66	8.59	-52.9	-61.8	3.8	7.45e-01	0	34	104	0	76	10543
2026-01-16 19:57:18.48	45.08	8.69	-53.0	-61.8	3.8	7.46e-01	0	34	104	0	76	10652
2026-01-16 19:57:20.50	45.51	8.80	-52.9	-61.8	3.8	7.46e-01	0	34	104	0	76	10569
2026-01-16 19:57:22.52	45.94	8.90	-53.0	-61.8	3.8	7.44e-01	0	34	104	0	76	10637
2026-01-16 19:57:24.53	46.37	9.00	-52.9	-61.8	3.8	7.44e-01	0	34	104	0	76	10543
2026-01-16 19:57:26.55	46.80	9.11	-53.0	-61.9	3.8	7.46e-01	0	34	104	0	76	10679
2026-01-16 19:57:28.57	47.24	9.21	-53.0	-61.8	3.8	7.47e-01	0	34	104	0	76	10613
2026-01-16 19:57:30.58	47.69	9.31	-53.1	-61.9	3.8	7.46e-01	0	34	104	0	76	10676
2026-01-16 19:57:32.60	48.13	9.41	-53.0	-61.8	3.8	7.45e-01	0	34	104	0	76	10593
2026-01-16 19:57:34.62	48.58	9.51	-53.1	-61.9	3.8	7.47e-01	0	34	104	0	76	10712
2026-01-16 19:57:36.64	49.04	9.60	-53.0	-61.8	3.8	7.44e-01	0	34	104	0	76	10641
2026-01-16 19:57:38.65	49.49	9.70	-53.1	-61.9	3.8	7.45e-01	0	35	104	0	76	10759
2026-01-16 19:57:40.67	49.96	9.80	-53.0	-61.9	3.8	7.45e-01	0	34	104	0	76	10729
2026-01-16 19:57:42.69	50.42	9.89	-53.1	-61.9	3.8	7.46e-01	0	34	104	0	76	10761
2026-01-16 19:57:44.71	50.89	9.99	-53.1	-61.9	3.8	7.46e-01	0	34	104	0	76	10698
2026-01-16 19:57:46.73	51.37	10.08	-53.1	-62.0	3.8	7.44e-01	0	34	104	0	76	10796
2026-01-16 19:57:48.74	51.84	10.17	-53.1	-61.9	3.8	7.45e-01	0	34	104	0	76	10694
2026-01-16 19:57:50.76	52.32	10.27	-53.1	-62.0	3.8	7.45e-01	0	34	104	0	76	10802
2026-01-16 19:57:52.78	52.80	10.36	-53.1	-61.9	3.8	7.44e-01	0	34	104	0	76	10725
2026-01-16 19:57:54.80	53.29	10.45	-53.2	-62.0	3.8	7.45e-01	0	34	104	0	76	10827
2026-01-16 19:57:56.82	53.78	10.53	-53.1	-62.0	3.8	7.46e-01	0	34	104	0	76	10791
2026-01-16 19:57:58.83	54.28	10.62	-53.2	-62.0	3.8	7.44e-01	0	34	104	0	76	10830
2026-01-16 19:58:00.85	54.77	10.71	-53.1	-62.0	3.8	7.45e-01	0	35	104	0	76	10783
2026-01-16 19:58:02.86	55.27	10.79	-53.2	-62.0	3.8	7.45e-01	0	34	104	0	76	10841
2026-01-16 19:58:04.88	55.78	10.87	-53.1	-61.9	3.8	7.45e-01	0	35	104	0	76	10772
2026-01-16 19:58:06.90	56.29	10.96	-53.2	-62.0	3.8	7.45e-01	0	34	104	0	76	10854
2026-01-16 19:58:08.92	56.80	11.04	-53.1	-62.0	3.8	7.45e-01	0	35	104	0	76	10801
2026-01-16 19:58:10.94	57.32	11.12	-53.2	-62.0	3.8	7.47e-01	0	35	104	0	76	10856
2026-01-16 19:58:12.95	57.83	11.19	-53.1	-62.0	3.8	7.45e-01	0	34	104	0	76	10802
2026-01-16 19:58:14.97	58.36	11.27	-53.2	-62.0	3.8	7.45e-01	0	34	104	0	76	10879
2026-01-16 19:58:16.98	58.88	11.34	-53.2	-62.0	3.8	7.45e-01	0	35	104	0	76	10855
2026-01-16 19:58:19.00	59.41	11.42	-53.2	-62.0	3.8	7.46e-01	0	34	104	0	77	10289
2026-01-16 19:58:21.02	59.94	11.49	-53.2	-62.0	3.8	7.45e-01	0	35	104	0	77	10267
2026-01-16 19:58:23.03	60.47	11.56	-53.2	-62.1	3.8	7.46e-01	0	35	104	0	77	10319
2026-01-16 19:58:25.05	61.01	11.62	-53.2	-62.0	3.8	7.45e-01	0	34	104	0	77	10262
2026-01-16 19:58:27.06	61.55	11.69	-53.2	-62.0	3.8	7.45e-01	0	35	104	0	77	10293
2026-01-16 19:58:29.08	62.09	11.76	-53.2	-62.0	3.8	7.44e-01	0	34	104	0	77	10257
2026-01-16 19:58:31.10	62.64	11.82	-53.2	-62.0	3.8	7.45e-01	0	34	104	0	77	10288
2026-01-16 19:58:33.12	63.19	11.88	-53.2	-62.0	3.8	7.44e-01	0	34	104	0	77	10267
2026-01-16 19:58:35.13	63.74	11.94	-53.2	-62.1	3.8	7.46e-01	0	34	104	0	77	10296
2026-01-16 19:58:37.15	64.29	11.99	-53.2	-62.0	3.8	7.45e-01	0	35	104	0	77	10259
2026-01-16 19:58:39.16	64.85	12.05	-53.2	-62.1	3.8	7.46e-01	0	35	104	0	77	10318
2026-01-16 19:58:41.18	65.41	12.10	-53.2	-62.1	3.8	7.48e-01	0	35	104	0	77	10309
2026-01-16 19:58:43.20	65.97	12.15	-53.2	-62.0	3.8	7.43e-01	0	35	104	0	77	10273
2026-01-16 19:58:45.21	66.53	12.20	-53.2	-62.0	3.8	7.45e-01	0	34	104	0	77	10249
2026-01-16 19:58:47.23	67.10	12.25	-53.2	-62.0	3.8	7.45e-01	0	35	104	0	77	10286
2026-01-16 19:58:49.25	67.67	12.30	-53.2	-62.0	3.8	7.45e-01	0	35	104	0	77	10264
2026-01-16 19:58:51.26	68.24	12.34	-53.3	-62.1	3.8	7.46e-01	0	35	104	0	77	10342
2026-01-16 19:58:53.28	68.81	12.38	-53.2	-62.0	3.8	7.45e-01	0	35	104	0	77	10263
2026-01-16 19:58:55.30	69.38	12.42	-53.2	-62.1	3.8	7.46e-01	0	35	104	0	77	10308
2026-01-16 19:58:57.31	69.96	12.45	-53.2	-62.1	3.8	7.45e-01	0	35	104	0	77	10321
2026-01-16 19:58:59.33	70.54	12.49	-53.3	-62.1	3.8	7.44e-01	0	35	104	0	77	10350
2026-01-16 19:59:01.35	71.12	12.52	-53.2	-62.1	3.8	7.45e-01	0	35	104	0	77	10294
2026-01-16 19:59:03.36	71.69	12.55	-53.3	-62.1	3.8	7.45e-01	0	35	104	0	77	10345
2026-01-16 19:59:05.38	72.28	12.58	-53.2	-62.0	3.8	7.44e-01	0	35	104	0	77	10274
2026-01-16 19:59:07.40	72.86	12.60	-53.3	-62.1	3.8	7.45e-01	0	34	104	0	77	10329
2026-01-16 19:59:09.41	73.44	12.62	-53.2	-62.1	3.8	7.46e-01	0	34	104	0	77	10366
2026-01-16 19:59:11.43	74.03	12.64	-53.2	-62.1	3.8	7.45e-01	0	34	104	0	77	10334
2026-01-16 19:59:13.44	74.61	12.66	-53.2	-62.1	3.8	7.46e-01	0	35	104	0	77	10326
2026-01-16 19:59:15.46	75.20	12.68	-53.3	-62.1	3.8	7.46e-01	0	35	104	0	77	10326
2026-01-16 19:59:17.48	75.79	12.69	-53.2	-62.0	3.8	7.46e-01	0	35	104	0	77	10248
2026-01-16 19:59:19.49	76.38	12.70	-53.2	-62.1	3.8	7.46e-01	0	34	104	0	77	10319
2026-01-16 19:59:21.51	76.97	12.71	-53.3	-62.0	3.8	7.43e-01	0	35	104	0	77	10288
2026-01-16 19:59:23.52	77.55	12.72	-53.2	-62.1	3.8	7.46e-01	0	35	104	0	77	10322
2026-01-16 19:59:25.54	78.14	12.72	-53.3	-62.1	3.8	7.45e-01	0	35	104	0	77	10349
2026-01-16 19:59:27.56	78.74	12.72	-53.3	-62.1	3.8	7.44e-01	0	35	104	0	77	10311
2026-01-16 19:59:29.57	79.32	12.72	-53.3	-62.1	3.8	7.45e-01	0	34	104	0	77	10337
2026-01-16 19:59:31.59	79.91	12.72	-53.2	-62.1	3.8	7.45e-01	0	35	104	0	77	10329
2026-01-16 19:59:33.60	80.50	12.71	-53.3	-62.1	3.8	7.46e-01	0	35	104	0	77	10352
2026-01-16 19:59:35.62	81.09	12.70	-53.3	-62.1	3.8	7.47e-01	0	35	104	0	77	10349
2026-01-16 19:59:37.64	81.68	12.69	-53.3	-62.1	3.8	7.44e-01	0	35	104	0	77	10358
2026-01-16 19:59:39.66	82.27	12.68	-53.3	-62.1	3.8	7.44e-01	0	35	104	0	77	10325
2026-01-16 19:59:41.67	82.86	12.66	-53.3	-62.1	3.8	7.46e-01	0	35	104	0	77	10379
2026-01-16 19:59:43.69	83.44	12.65	-53.2	-62.0	3.8	7.45e-01	0	35	104	0	77	10288
2026-01-16 19:59:45.70	84.03	12.63	-53.3	-62.1	3.8	7.44e-01	0	35	104	0	77	10386
2026-01-16 19:59:47.72	84.61	12.60	-53.2	-62.1	3.8	7.45e-01	0	35	104	0	77	10307
2026-01-16 19:59:49.73	85.20	12.58	-53.3	-62.1	3.8	7.44e-01	0	35	104	0	77	10369
2026-01-16 19:59:51.75	85.78	12.55	-53.3	-62.1	3.8	7.44e-01	0	35	104	0	77	10336
2026-01-16 19:59:53.77	86.36	12.52	-53.3	-62.1	3.8	7.44e-01	0	35	104	0	77	10383
2026-01-16 19:59:55.78	86.94	12.49	-53.3	-62.1	3.8	7.45e-01	0	35	104	0	77	10331
2026-01-16 19:59:57.80	87.52	12.46	-47.9	-62.2	3.8	7.45e-01	0	35	104	0	67	18612
2026-01-16 19:59:59.82	88.10	12.42	-48.9	-52.5	5.1	7.24e-01	0	35	104	0	68	5746
2026-01-16 20:00:01.83	88.67	12.38	-48.5	-51.9	8.9	6.34e-01	0	35	0	25165824	69	5087
2026-01-16 20:00:03.85	89.24	12.34	-47.5	-50.6	10.3	6.21e-01	0	35	0	54525952	67	4883
2026-01-16 20:00:05.87	89.82	12.30	-47.3	-50.2	10.7	6.20e-01	0	34	0	85983232	66	4932
2026-01-16 20:00:07.89	90.39	12.25	-47.1	-50.0	10.9	6.18e-01	0	35	0	115343360	65	5124
2026-01-16 20:00:09.90	90.95	12.21	-47.2	-50.2	10.7	6.19e-01	0	35	0	146800640	65	5236
2026-01-16 20:00:11.92	91.52	12.16	-46.9	-49.8	11.0	6.17e-01	0	34	0	178257920	65	5038
2026-01-16 20:00:13.93	92.08	12.11	-46.8	-49.6	11.2	6.17e-01	0	35	0	209715200	65	4898
2026-01-16 20:00:15.95	92.64	12.05	-46.5	-49.3	11.5	6.15e-01	0	35	0	241172480	64	5022
2026-01-16 20:00:17.97	93.20	12.00	-46.4	-49.2	11.6	6.15e-01	0	35	0	270532608	64	4930
2026-01-16 20:00:19.99	93.76	11.94	-46.3	-49.0	11.9	6.15e-01	0	35	0	301989888	63	5104
2026-01-16 20:00:22.00	94.31	11.88	-46.3	-49.3	11.6	5.94e-01	0	35	0	333447168	63	5338
2026-01-16 20:00:24.02	94.86	11.82	-46.0	-49.0	11.9	5.94e-01	0	35	0	362807296	63	5120
2026-01-16 20:00:26.04	95.41	11.76	-45.9	-48.9	12.0	5.92e-01	0	35	0	396361728	63	5067
2026-01-16 20:00:28.05	95.95	11.69	-45.9	-48.8	12.1	5.93e-01	0	35	0	425721856	63	5037
2026-01-16 20:00:30.07	96.49	11.63	-45.7	-48.6	12.3	5.92e-01	0	35	0	457179136	63	4898
2026-01-16 20:00:32.08	97.03	11.56	-45.6	-48.4	12.4	5.92e-01	0	35	0	488636416	62	5096
2026-01-16 20:00:34.10	97.57	11.49	-45.3	-48.2	12.6	5.91e-01	0	35	0	517996544	62	4967
2026-01-16 20:00:36.12	98.10	11.42	-45.4	-48.3	12.5	5.91e-01	0	35	0	549453824	62	5029
2026-01-16 20:00:38.14	98.63	11.34	-44.9	-47.8	13.0	5.90e-01	0	35	0	580911104	61	5001
2026-01-16 20:00:40.15	99.16	11.27	-44.2	-46.9	13.7	5.88e-01	0	35	0	612368384	60	4813
2026-01-16 20:00:42.17	99.68	11.19	-43.9	-46.6	14.0	5.88e-01	0	35	0	643825664	59	4923
2026-01-16 20:00:44.19	100.21	11.11	-43.8	-46.5	14.1	5.88e-01	0	35	0	673185792	59	4817
2026-01-16 20:00:46.21	100.72	11.03	-43.3	-45.9	14.6	5.88e-01	0	34	0	704643072	58	4784
2026-01-16 20:00:48.22	101.24	10.95	-43.3	-45.9	14.5	6.04e-01	0	35	0	736100352	58	4761
2026-01-16 20:00:50.24	101.75	10.87	-43.6	-46.1	14.4	5.98e-01	0	34	0	767557632	58	4893
2026-01-16 20:00:52.26	102.25	10.79	-43.9	-46.5	14.0	5.94e-01	0	35	0	799014912	58	5116
2026-01-16 20:00:54.28	102.76	10.70	-43.8	-46.2	14.2	6.00e-01	0	35	0	828375040	58	4956
2026-01-16 20:00:56.29	103.26	10.62	-43.9	-46.3	14.1	5.99e-01	0	35	0	859832320	58	5039
2026-01-16 20:00:58.31	103.75	10.53	-43.8	-46.3	14.1	6.02e-01	0	35	0	891289600	58	5018
2026-01-16 20:01:00.33	104.25	10.44	-44.0	-46.5	13.9	6.04e-01	0	35	0	922746880	58	5120
2026-01-16 20:01:02.34	104.74	10.35	-44.1	-46.6	13.9	6.03e-01	0	35	0	954204160	59	4897
2026-01-16 20:01:04.36	105.22	10.26	-44.2	-46.7	13.7	6.05e-01	0	35	0	983564288	59	4967
2026-01-16 20:01:06.38	105.71	10.17	-44.0	-46.7	13.8	6.06e-01	0	35	0	1015021568	59	4949
2026-01-16 20:01:08.40	106.18	10.08	-44.3	-47.1	13.3	6.06e-01	0	35	0	1046478848	59	5211
2026-01-16 20:01:10.42	106.66	9.98	-44.4	-47.3	13.2	6.06e-01	0	35	0	1075838976	59	5296
2026-01-16 20:01:12.43	107.13	9.89	-44.3	-47.3	13.2	6.04e-01	0	35	0	1109393408	59	5281
2026-01-16 20:01:14.45	107.60	9.79	-44.3	-47.3	13.2	5.99e-01	0	35	0	1138753536	59	5295
2026-01-16 20:01:16.47	108.06	9.69	-44.6	-47.5	13.1	5.99e-01	0	35	0	1170210816	60	5125
2026-01-16 20:01:18.49	108.52	9.60	-44.3	-47.0	13.4	6.06e-01	0	35	0	1201668096	60	4844
2026-01-16 20:01:20.51	108.98	9.50	-44.4	-47.0	13.5	6.06e-01	0	35	0	1231028224	60	4846
2026-01-16 20:01:22.53	109.43	9.40	-44.2	-46.7	13.7	6.05e-01	0	35	0	1264582656	60	4685
2026-01-16 20:01:24.55	109.88	9.30	-44.3	-46.8	13.7	6.06e-01	0	35	0	1293942784	60	4716
2026-01-16 20:01:26.56	110.33	9.20	-44.5	-47.0	13.5	6.05e-01	0	35	0	1325400064	60	4842
2026-01-16 20:01:28.58	110.77	9.09	-44.3	-46.7	13.7	6.08e-01	0	35	0	1356857344	60	4695
2026-01-16 20:01:30.60	111.21	8.99	-44.6	-47.2	13.3	6.04e-01	0	35	0	1386217472	60	4930
2026-01-16 20:01:32.62	111.64	8.89	-44.4	-47.0	13.5	6.05e-01	0	34	0	1417674752	60	4830
2026-01-16 20:01:34.64	112.07	8.78	-44.7	-47.3	13.2	6.03e-01	0	35	0	1449132032	60	4999
2026-01-16 20:01:36.65	112.50	8.68	-44.9	-47.6	12.9	6.04e-01	0	35	0	1480589312	60	5203
2026-01-16 20:01:38.67	112.92	8.57	-44.8	-47.6	12.9	6.07e-01	0	35	0	1512046592	60	5161
2026-01-16 20:01:40.69	113.34	8.47	-44.7	-47.4	12.9	6.08e-01	0	35	0	1541406720	60	5094
2026-01-16 20:01:42.71	113.76	8.36	-45.1	-47.8	12.6	6.02e-01	0	35	0	1572864000	60	5335
2026-01-16 20:01:44.72	114.17	8.26	-45.0	-47.7	12.7	6.06e-01	0	35	0	1604321280	60	5246
2026-01-16 20:01:46.74	114.58	8.15	-45.1	-47.8	12.7	6.04e-01	0	35	0	1635778560	61	4988
2026-01-16 20:01:48.76	114.98	8.04	-45.1	-47.8	12.5	6.10e-01	0	35	0	1665138688	61	5025
2026-01-16 20:01:50.77	115.38	7.93	-44.9	-47.5	12.9	6.07e-01	0	35	0	1696595968	61	4817
2026-01-16 20:01:52.79	115.78	7.82	-45.0	-47.6	12.7	6.07e-01	0	35	0	1728053248	61	4893
2026-01-16 20:01:54.81	116.18	7.72	-44.8	-47.4	12.9	6.06e-01	0	35	0	1757413376	61	4771
2026-01-16 20:01:56.83	116.57	7.61	-44.9	-47.4	12.8	6.08e-01	0	35	0	1790967808	61	4787
2026-01-16 20:01:58.85	116.95	7.50	-45.1	-47.6	12.5	6.06e-01	0	35	0	1820327936	61	4923
2026-01-16 20:02:00.86	117.34	7.39	-44.9	-47.4	12.8	6.09e-01	0	35	0	1851785216	61	4765
2026-01-16 20:02:02.88	117.72	7.28	-45.3	-47.7	12.5	6.06e-01	0	35	0	1883242496	61	4978
2026-01-16 20:02:04.90	118.09	7.17	-45.5	-48.0	12.1	6.09e-01	0	35	0	1912602624	61	5146
2026-01-16 20:02:06.91	118.46	7.06	-45.4	-47.9	12.2	6.12e-01	0	35	0	1944059904	61	5053
2026-01-16 20:02:08.93	118.83	6.95	-45.5	-48.0	12.1	6.10e-01	0	35	0	1975517184	61	5145
2026-01-16 20:02:10.95	119.20	6.84	-45.5	-48.2	11.9	6.11e-01	0	35	0	2006974464	61	5222
2026-01-16 20:02:12.96	119.56	6.72	-45.3	-47.9	12.2	6.08e-01	0	34	0	2038431744	62	4787
2026-01-16 20:02:14.99	119.92	6.61	-45.5	-48.2	11.9	6.12e-01	0	35	0	2067791872	62	4978
2026-01-16 20:02:17.00	120.28	6.50	-45.4	-48.1	11.9	6.10e-01	0	35	0	2099249152	62	4921
2026-01-16 20:02:19.02	120.63	6.39	-45.4	-48.1	11.9	6.12e-01	0	35	0	2130706432	62	4896
2026-01-16 20:02:21.04	120.98	6.28	-45.4	-48.1	11.9	6.11e-01	0	35	0	2162163712	62	4885
2026-01-16 20:02:23.06	121.33	6.17	-45.3	-48.0	12.0	6.10e-01	0	35	0	2193620992	62	4828
2026-01-16 20:02:25.07	121.67	6.05	-45.3	-47.8	12.1	6.08e-01	0	35	0	2222981120	62	4725
2026-01-16 20:02:27.09	122.01	5.94	-45.6	-48.2	11.7	6.11e-01	0	35	0	2254438400	62	4930
2026-01-16 20:02:29.11	122.35	5.83	-45.5	-48.1	11.8	6.10e-01	0	35	0	2285895680	62	4901
2026-01-16 20:02:31.12	122.68	5.72	-45.4	-48.0	11.9	6.10e-01	0	35	0	2315255808	62	4817
2026-01-16 20:02:33.14	123.01	5.61	-45.4	-48.0	11.9	6.07e-01	0	35	0	2348810240	62	4818
2026-01-16 20:02:35.15	123.33	5.49	-45.6	-48.3	11.6	6.08e-01	0	35	0	2378170368	62	4988
2026-01-16 20:02:37.17	123.66	5.38	-46.0	-48.6	11.1	6.11e-01	0	35	0	2409627648	62	5215
2026-01-16 20:02:39.19	123.98	5.27	-45.9	-48.5	11.2	6.10e-01	0	35	0	2441084928	62	5157
2026-01-16 20:02:41.20	124.30	5.16	-45.8	-48.5	11.2	6.12e-01	0	35	0	2470445056	62	5124
2026-01-16 20:02:43.22	124.61	5.05	-45.4	-48.0	11.6	6.11e-01	0	35	0	2501902336	62	4837
2026-01-16 20:02:45.23	124.92	4.93	-52.4	-61.2	3.8	7.47e-01	0	35	104	2531262464	75	10424
2026-01-16 20:02:47.25	125.23	4.82	-53.1	-61.9	3.8	7.45e-01	0	35	104	2531262464	76	10716
2026-01-16 20:02:49.27	125.54	4.71	-53.5	-62.4	3.8	7.45e-01	0	35	104	2531262464	77	10657
2026-01-16 20:02:51.29	125.84	4.60	-53.8	-62.6	3.8	7.46e-01	0	35	104	2531262464	78	10352
2026-01-16 20:02:53.31	126.14	4.49	-53.9	-62.7	3.8	7.46e-01	0	35	104	2531262464	78	10515
2026-01-16 20:02:55.32	126.44	4.38	-54.0	-62.9	3.8	7.46e-01	0	35	104	2531262464	78	10698
2026-01-16 20:02:57.34	126.74	4.26	-54.1	-63.0	3.8	7.45e-01	0	35	104	2531262464	78	10814
2026-01-16 20:02:59.36	127.03	4.15	-54.2	-63.0	3.8	7.45e-01	0	35	104	2531262464	78	10839
2026-01-16 20:03:01.37	127.32	4.04	-54.2	-63.0	3.8	7.47e-01	0	35	104	2531262464	78	10850
2026-01-16 20:03:03.39	127.60	3.93	-54.2	-63.1	3.8	7.45e-01	0	35	104	2531262464	78	10912
2026-01-16 20:03:05.41	127.89	3.82	-54.2	-63.1	3.8	7.44e-01	0	35	104	2531262464	78	10916
2026-01-16 20:03:07.43	128.17	3.71	-54.2	-63.1	3.8	7.46e-01	0	35	104	2531262464	78	10918
2026-01-16 20:03:09.44	128.45	3.60	-54.2	-63.1	3.8	7.45e-01	0	35	104	2531262464	79	10328
2026-01-16 20:03:11.46	128.72	3.49	-54.2	-63.1	3.8	7.45e-01	0	35	104	2531262464	79	10355
2026-01-16 20:03:13.48	129.00	3.37	-54.2	-63.1	3.8	7.44e-01	0	35	104	2531262464	79	10299
2026-01-16 20:03:15.50	129.27	3.26	-54.2	-63.0	3.8	7.46e-01	0	35	104	2531262464	79	10276
2026-01-16 20:03:17.51	129.54	3.15	-54.2	-63.0	3.8	7.45e-01	0	35	104	2531262464	79	10246
2026-01-16 20:03:19.53	129.80	3.04	-54.2	-63.0	3.8	7.46e-01	0	35	104	2531262464	79	10241
2026-01-16 20:03:21.55	130.07	2.93	-54.2	-63.0	3.8	7.46e-01	0	35	104	2531262464	79	10243
2026-01-16 20:03:23.56	130.33	2.82	-54.1	-63.0	3.8	7.45e-01	0	35	104	2531262464	79	10195
2026-01-16 20:03:25.58	130.58	2.71	-54.1	-63.0	3.8	7.45e-01	0	35	104	2531262464	79	10230
2026-01-16 20:03:27.60	130.84	2.61	-54.1	-62.9	3.8	7.45e-01	0	35	104	2531262464	79	10129
2026-01-16 20:03:29.62	131.10	2.50	-54.1	-62.9	3.8	7.45e-01	0	35	104	2531262464	79	10166
2026-01-16 20:03:31.63	131.35	2.39	-54.1	-63.0	3.8	7.44e-01	0	35	104	2531262464	79	10193
2026-01-16 20:03:33.65	131.60	2.28	-54.1	-63.0	3.8	7.45e-01	0	35	104	2531262464	79	10209
2026-01-16 20:03:35.67	131.84	2.17	-54.1	-63.0	3.8	7.46e-01	0	35	104	2531262464	79	10215
2026-01-16 20:03:37.69	132.09	2.06	-54.1	-63.0	3.8	7.45e-01	0	35	104	2531262464	79	10188
2026-01-16 20:03:39.70	132.33	1.95	-54.1	-62.9	3.8	7.44e-01	0	35	104	2531262464	79	10140

#Closed at: 2026-01-16 20:03:41
#Recorded file [2531 MB]: D:/lorett/data/31041_260116_225515.dat