passes_logs/2026/01/16/R3.2S_Murmansk/R3.2S_Murmansk__20260116_075046_NOAA_20_JPSS-1_rec.log

#Pass ID: 20260116_075046_NOAA 20 (JPSS-1)
#Satellite: NOAA 20 (JPSS-1)
#Configuration: NOAA 20
#almurnet v.1.7.20251203
#Start time: 2026-01-16 07:50:48

#Version: 2.2.20231116
#Station: R3.2S_Murmansk
#Location: 33.079688 lon 68.888172 lat
#TLE: 1 43013U 17073A   26015.89389188  .00000026  00000+0  33113-4 0  9999
#TLE: 2 43013  98.7636 316.8238 0001460  37.8997 322.2282 14.19536128422860

#Time	Az	El	Level	Level2	SNR	BER	BlckErr	Temp	State	Recorded	gain1	gain2
2026-01-16 07:50:48.06	112.85	2.12	-56.6	-71.5	3.8	1.49e+00	0	42	0	0	85	19349
2026-01-16 07:50:52.11	112.70	2.37	-56.5	-71.4	3.8	1.49e+00	0	43	104	0	83	21274
2026-01-16 07:50:56.14	112.55	2.62	-56.4	-71.3	3.8	1.49e+00	0	43	104	0	83	21036
2026-01-16 07:51:00.18	112.39	2.88	-56.4	-71.0	3.8	1.49e+00	0	43	104	0	83	20361
2026-01-16 07:51:04.22	112.24	3.14	-56.4	-71.1	3.8	1.49e+00	0	43	104	0	83	20597
2026-01-16 07:51:08.26	112.07	3.40	-56.4	-71.0	3.8	1.49e+00	0	43	104	0	83	20468
2026-01-16 07:51:12.31	111.91	3.66	-56.4	-71.3	3.8	1.49e+00	0	44	104	0	83	21259
2026-01-16 07:51:16.34	111.74	3.93	-56.4	-69.7	3.8	1.49e+00	0	44	104	0	83	17502
2026-01-16 07:51:20.38	111.57	4.19	-56.0	-65.4	5.2	8.16e-01	0	44	0	3145728	83	10758
2026-01-16 07:51:24.42	111.39	4.46	-55.7	-63.5	6.7	2.43e-01	0	44	0	10485760	83	8615
2026-01-16 07:51:28.46	111.22	4.73	-55.4	-62.1	8.0	6.16e-02	0	44	0	17825792	82	7724
2026-01-16 07:51:32.50	111.03	5.01	-55.0	-60.5	9.7	1.08e-02	0	44	0	26214400	81	6830
2026-01-16 07:51:36.54	110.85	5.29	-54.0	-57.5	12.9	1.19e-01	0	45	0	33554432	79	5404
2026-01-16 07:51:40.58	110.66	5.57	-53.2	-56.0	14.7	1.50e-06	0	45	0	37748736	78	4833
2026-01-16 07:51:44.62	110.47	5.85	-52.9	-55.6	15.1	0.00e+00	0	45	0	46137344	77	4910
2026-01-16 07:51:48.66	110.27	6.13	-53.1	-55.9	14.9	7.00e-07	0	45	0	53477376	77	5063
2026-01-16 07:51:52.69	110.07	6.42	-53.1	-55.9	14.9	0.00e+00	0	45	0	60817408	77	5052
2026-01-16 07:51:56.73	109.86	6.71	-52.7	-55.2	15.6	0.00e+00	0	45	0	68157440	77	4699
2026-01-16 07:52:00.77	109.65	7.01	-52.7	-55.2	15.7	0.00e+00	0	45	0	76546048	76	4938
2026-01-16 07:52:04.81	109.43	7.30	-52.4	-54.7	16.2	0.00e+00	0	45	0	83886080	76	4687
2026-01-16 07:52:08.84	109.22	7.60	-52.4	-54.7	16.3	0.00e+00	0	46	0	91226112	76	4654
2026-01-16 07:52:12.88	108.99	7.91	-52.1	-54.3	16.7	0.00e+00	0	46	0	98566144	76	4453
2026-01-16 07:52:16.92	108.76	8.21	-52.1	-54.2	16.8	0.00e+00	0	46	0	105906176	76	4437
2026-01-16 07:52:20.95	108.53	8.52	-52.1	-54.2	16.8	0.00e+00	0	46	0	113246208	75	4678
2026-01-16 07:52:24.99	108.29	8.83	-51.8	-53.8	17.2	0.00e+00	0	46	0	121634816	75	4484
2026-01-16 07:52:29.03	108.04	9.15	-51.6	-53.6	17.5	0.00e+00	0	46	0	128974848	75	4351
2026-01-16 07:52:33.06	107.79	9.47	-51.8	-53.8	17.4	0.00e+00	0	46	0	136314880	75	4466
2026-01-16 07:52:37.10	107.53	9.79	-51.6	-53.5	17.6	0.00e+00	0	46	0	143654912	75	4326
2026-01-16 07:52:41.14	107.27	10.12	-51.6	-53.5	17.6	0.00e+00	0	47	0	152043520	74	4593
2026-01-16 07:52:45.18	107.00	10.45	-51.6	-53.5	17.6	0.00e+00	0	47	0	159383552	74	4595
2026-01-16 07:52:49.22	106.73	10.78	-51.8	-53.8	17.4	0.00e+00	0	47	0	166723584	74	4725
2026-01-16 07:52:53.26	106.44	11.12	-51.9	-53.9	17.3	0.00e+00	0	46	0	174063616	74	4800
2026-01-16 07:52:57.29	106.15	11.46	-51.6	-53.5	17.7	0.00e+00	0	47	0	182452224	74	4575
2026-01-16 07:53:01.33	105.86	11.81	-51.6	-53.4	17.8	0.00e+00	0	47	0	189792256	74	4537
2026-01-16 07:53:05.37	105.55	12.16	-51.6	-53.5	17.7	0.00e+00	0	47	0	197132288	74	4581
2026-01-16 07:53:09.41	105.24	12.52	-51.5	-53.3	18.0	0.00e+00	0	47	0	204472320	74	4445
2026-01-16 07:53:13.45	104.92	12.88	-51.5	-53.3	17.9	0.00e+00	0	47	0	211812352	74	4456
2026-01-16 07:53:17.49	104.59	13.24	-51.3	-53.1	18.2	0.00e+00	0	47	0	220200960	74	4367
2026-01-16 07:53:21.52	104.26	13.61	-51.5	-53.3	18.0	0.00e+00	0	47	0	227540992	74	4449
2026-01-16 07:53:25.56	103.91	13.98	-51.5	-53.2	18.1	0.00e+00	0	47	0	234881024	74	4439
2026-01-16 07:53:29.60	103.56	14.36	-51.5	-53.3	18.1	0.00e+00	0	47	0	242221056	74	4444
2026-01-16 07:53:33.64	103.19	14.74	-51.5	-53.2	18.1	0.00e+00	0	47	0	250609664	74	4428
2026-01-16 07:53:37.68	102.82	15.13	-51.3	-53.0	18.3	0.00e+00	0	47	0	257949696	74	4330
2026-01-16 07:53:41.71	102.44	15.52	-51.1	-52.8	18.6	0.00e+00	0	47	0	265289728	74	4218
2026-01-16 07:53:45.75	102.04	15.92	-51.2	-52.9	18.5	0.00e+00	0	47	0	272629760	74	4247
2026-01-16 07:53:49.79	101.64	16.32	-51.0	-52.6	18.7	0.00e+00	0	48	0	279969792	74	4134
2026-01-16 07:53:53.83	101.22	16.73	-51.3	-53.0	18.4	0.00e+00	0	48	0	288358400	74	4317
2026-01-16 07:53:57.88	100.79	17.14	-51.1	-52.7	18.6	0.00e+00	0	48	0	295698432	74	4185
2026-01-16 07:54:01.91	100.35	17.56	-51.1	-52.7	18.7	0.00e+00	0	48	0	303038464	74	4169
2026-01-16 07:54:05.96	99.90	17.98	-51.1	-52.7	18.8	0.00e+00	0	48	0	310378496	74	4153
2026-01-16 07:54:10.00	99.43	18.41	-51.2	-52.8	18.7	0.00e+00	0	48	0	318767104	74	4217
2026-01-16 07:54:14.03	98.95	18.84	-51.2	-52.8	18.7	0.00e+00	0	48	0	326107136	74	4217
2026-01-16 07:54:18.07	98.45	19.28	-51.1	-52.7	18.8	0.00e+00	0	48	0	333447168	74	4147
2026-01-16 07:54:22.11	97.94	19.73	-51.1	-52.7	18.8	0.00e+00	0	48	0	340787200	73	4411
2026-01-16 07:54:26.15	97.42	20.18	-51.1	-52.6	18.8	0.00e+00	0	48	0	348127232	73	4386
2026-01-16 07:54:30.19	96.88	20.63	-51.1	-52.7	18.8	0.00e+00	0	48	0	356515840	73	4411
2026-01-16 07:54:34.23	96.32	21.09	-51.3	-52.9	18.6	0.00e+00	0	48	0	363855872	73	4535
2026-01-16 07:54:38.27	95.74	21.56	-51.3	-53.0	18.5	0.00e+00	0	48	0	371195904	73	4575
2026-01-16 07:54:42.31	95.15	22.03	-51.6	-53.3	18.2	0.00e+00	0	48	0	378535936	73	4755
2026-01-16 07:54:46.34	94.54	22.51	-51.6	-53.4	18.2	0.00e+00	0	48	0	386924544	73	4786
2026-01-16 07:54:50.38	93.91	23.00	-51.7	-53.5	18.1	0.00e+00	0	48	0	394264576	73	4849
2026-01-16 07:54:54.42	93.25	23.48	-51.7	-53.5	18.1	0.00e+00	0	48	0	401604608	74	4566
2026-01-16 07:54:58.46	92.58	23.98	-51.5	-53.2	18.4	0.00e+00	0	48	0	408944640	74	4428
2026-01-16 07:55:02.49	91.89	24.48	-51.4	-53.1	18.5	0.00e+00	0	48	0	416284672	74	4368
2026-01-16 07:55:06.53	91.17	24.98	-51.6	-53.3	18.3	0.00e+00	0	48	0	424673280	74	4484
2026-01-16 07:55:10.57	90.43	25.49	-51.7	-53.5	18.2	0.00e+00	0	48	0	432013312	74	4572
2026-01-16 07:55:14.61	89.66	26.00	-51.8	-53.6	18.1	0.00e+00	0	48	0	439353344	74	4620
2026-01-16 07:55:18.64	88.87	26.51	-51.9	-53.7	17.9	0.00e+00	0	48	0	446693376	74	4700
2026-01-16 07:55:22.68	88.05	27.03	-52.4	-54.4	17.3	0.00e+00	0	48	0	455081984	75	4811
2026-01-16 07:55:26.72	87.21	27.56	-52.9	-55.1	16.7	0.00e+00	0	48	0	462422016	76	4894
2026-01-16 07:55:30.76	86.33	28.08	-53.2	-55.4	16.3	0.00e+00	0	48	0	469762048	76	5097
2026-01-16 07:55:34.79	85.43	28.61	-53.2	-55.5	16.3	0.00e+00	0	48	0	477102080	77	4865
2026-01-16 07:55:38.83	84.50	29.14	-53.3	-55.7	16.1	0.00e+00	0	48	0	484442112	77	4959
2026-01-16 07:55:42.87	83.53	29.67	-53.2	-55.4	16.3	0.00e+00	0	49	0	492830720	77	4806
2026-01-16 07:55:46.90	82.53	30.20	-53.4	-55.8	16.0	0.00e+00	0	48	0	500170752	77	5013
2026-01-16 07:55:50.94	81.50	30.73	-53.9	-56.5	15.3	0.00e+00	0	48	0	507510784	78	5156
2026-01-16 07:55:54.98	80.43	31.26	-53.5	-55.9	15.9	0.00e+00	0	49	0	514850816	78	4804
2026-01-16 07:55:59.01	79.33	31.79	-53.2	-55.4	16.4	0.00e+00	0	49	0	523239424	78	4524
2026-01-16 07:56:03.05	78.19	32.31	-53.0	-55.2	16.6	0.00e+00	0	49	0	530579456	77	4660
2026-01-16 07:56:07.09	77.02	32.83	-52.9	-55.1	16.7	0.00e+00	0	49	0	537919488	77	4624
2026-01-16 07:56:11.13	75.80	33.35	-53.0	-55.2	16.6	0.00e+00	0	48	0	545259520	77	4677
2026-01-16 07:56:15.17	74.55	33.85	-53.3	-55.5	16.4	0.00e+00	0	48	0	552599552	77	4848
2026-01-16 07:56:19.20	73.26	34.35	-53.8	-56.4	15.5	0.00e+00	0	49	0	560988160	78	5056
2026-01-16 07:56:23.24	71.92	34.84	-53.9	-56.4	15.5	0.00e+00	0	48	0	568328192	78	5093
2026-01-16 07:56:27.27	70.55	35.32	-54.3	-57.1	14.8	0.00e+00	0	49	0	575668224	79	5181
2026-01-16 07:56:31.31	69.14	35.79	-54.0	-56.6	15.3	0.00e+00	0	48	0	583008256	79	4888
2026-01-16 07:56:35.35	67.68	36.24	-53.5	-55.9	16.0	0.00e+00	0	49	0	590348288	79	4510
2026-01-16 07:56:39.39	66.18	36.68	-53.7	-56.1	15.8	0.00e+00	0	49	0	598736896	78	4905
2026-01-16 07:56:43.43	64.65	37.10	-53.4	-55.7	16.2	0.00e+00	0	49	0	606076928	78	4696
2026-01-16 07:56:47.47	63.07	37.50	-52.5	-54.4	17.5	0.00e+00	0	49	0	613416960	76	4513
2026-01-16 07:56:51.51	61.46	37.88	-51.7	-53.3	18.6	0.00e+00	0	49	0	620756992	75	4242
2026-01-16 07:56:55.55	59.81	38.24	-51.6	-53.2	18.8	0.00e+00	0	49	0	629145600	74	4397
2026-01-16 07:56:59.59	58.12	38.58	-51.0	-52.5	19.4	0.00e+00	0	49	0	636485632	74	4063
2026-01-16 07:57:03.63	56.40	38.89	-51.1	-52.6	19.3	0.00e+00	0	49	0	643825664	73	4366
2026-01-16 07:57:07.67	54.64	39.17	-50.9	-52.4	19.6	0.00e+00	0	49	0	651165696	73	4258
2026-01-16 07:57:11.71	52.86	39.42	-50.5	-51.8	20.1	0.00e+00	0	49	0	659554304	72	4231
2026-01-16 07:57:15.75	51.06	39.64	-50.4	-51.7	20.2	0.00e+00	0	49	0	666894336	72	4167
2026-01-16 07:57:19.79	49.23	39.83	-50.4	-51.8	20.1	0.00e+00	0	49	0	674234368	72	4231
2026-01-16 07:57:23.83	47.38	39.98	-50.2	-51.5	20.4	0.00e+00	0	49	0	681574400	72	4059
2026-01-16 07:57:27.87	45.51	40.11	-50.6	-51.9	20.0	0.00e+00	0	49	0	688914432	72	4287
2026-01-16 07:57:31.91	43.63	40.20	-50.4	-51.8	20.1	0.00e+00	0	49	0	697303040	72	4214
2026-01-16 07:57:35.95	41.75	40.25	-51.3	-52.9	19.1	0.00e+00	0	49	0	704643072	73	4494
2026-01-16 07:57:39.99	39.85	40.27	-52.2	-54.0	18.0	0.00e+00	0	49	0	711983104	74	4855
2026-01-16 07:57:44.03	37.96	40.25	-51.8	-53.5	18.4	0.00e+00	0	49	0	719323136	74	4576
2026-01-16 07:57:48.07	36.08	40.20	-53.3	-55.5	16.4	0.00e+00	0	49	0	727711744	77	4848
2026-01-16 07:57:52.11	34.20	40.11	-53.0	-55.1	16.9	0.00e+00	0	49	0	735051776	77	4641
2026-01-16 07:57:56.15	32.34	39.99	-54.4	-57.3	14.7	0.00e+00	0	49	0	742391808	79	5286
2026-01-16 07:58:00.19	30.49	39.83	-54.1	-56.7	15.3	0.00e+00	0	49	0	749731840	79	4953
2026-01-16 07:58:04.23	28.66	39.64	-54.3	-57.1	14.9	0.00e+00	0	49	0	757071872	79	5203
2026-01-16 07:58:08.26	26.85	39.42	-53.6	-55.9	16.1	0.00e+00	0	49	0	765460480	79	4527
2026-01-16 07:58:12.31	25.07	39.17	-52.4	-54.3	17.7	0.00e+00	0	49	0	772800512	76	4449
2026-01-16 07:58:16.35	23.32	38.89	-51.4	-53.0	19.0	0.00e+00	0	49	0	780140544	74	4298
2026-01-16 07:58:20.39	21.60	38.59	-50.6	-52.0	20.0	0.00e+00	0	49	0	787480576	73	4068
2026-01-16 07:58:24.43	19.91	38.25	-50.0	-51.3	20.6	0.00e+00	0	49	0	795869184	72	3973
2026-01-16 07:58:28.47	18.26	37.90	-50.3	-51.6	20.4	0.00e+00	0	49	0	803209216	71	4353
2026-01-16 07:58:32.51	16.65	37.52	-49.8	-51.1	20.9	0.00e+00	0	49	0	810549248	71	4104
2026-01-16 07:58:36.55	15.08	37.12	-50.1	-51.4	20.5	0.00e+00	0	49	0	817889280	71	4273
2026-01-16 07:58:40.58	13.55	36.70	-50.5	-51.8	20.1	0.00e+00	0	49	0	825229312	71	4465
2026-01-16 07:58:44.62	12.05	36.26	-50.7	-52.1	19.8	0.00e+00	0	49	0	833617920	72	4388
2026-01-16 07:58:48.66	10.60	35.81	-51.2	-52.7	19.2	0.00e+00	0	49	0	840957952	73	4424
2026-01-16 07:58:52.70	9.18	35.34	-51.0	-52.4	19.5	0.00e+00	0	49	0	848297984	73	4279
2026-01-16 07:58:56.73	7.81	34.86	-51.0	-52.4	19.5	0.00e+00	0	49	0	855638016	73	4280
2026-01-16 07:59:00.77	6.48	34.37	-51.4	-53.0	19.0	0.00e+00	0	49	0	864026624	73	4551
2026-01-16 07:59:04.81	5.19	33.88	-51.7	-53.3	18.6	0.00e+00	0	49	0	871366656	73	4740
2026-01-16 07:59:08.85	3.94	33.37	-52.5	-54.4	17.6	0.00e+00	0	49	0	878706688	75	4778
2026-01-16 07:59:12.89	2.72	32.86	-52.5	-54.4	17.5	0.00e+00	0	49	0	886046720	75	4793
2026-01-16 07:59:16.92	1.55	32.34	-53.1	-55.2	16.8	0.00e+00	0	49	0	893386752	76	4963
2026-01-16 07:59:20.96	0.41	31.82	-53.4	-55.7	16.3	0.00e+00	0	49	0	901775360	77	4940
2026-01-16 07:59:24.99	359.31	31.29	-53.0	-55.2	16.8	0.00e+00	0	49	0	909115392	77	4653
2026-01-16 07:59:29.03	358.25	30.76	-53.3	-55.6	16.4	0.00e+00	0	49	0	916455424	77	4878
2026-01-16 07:59:33.06	357.22	30.24	-52.7	-54.7	17.2	0.00e+00	0	49	0	923795456	77	4428
2026-01-16 07:59:37.10	356.22	29.71	-52.3	-54.1	17.8	0.00e+00	0	49	0	931135488	76	4378
2026-01-16 07:59:41.13	355.26	29.18	-52.4	-54.3	17.6	0.00e+00	0	49	0	939524096	76	4457
2026-01-16 07:59:45.17	354.33	28.65	-51.8	-53.5	18.4	0.00e+00	0	49	0	946864128	75	4320
2026-01-16 07:59:49.20	353.43	28.13	-51.8	-53.5	18.4	0.00e+00	0	49	0	954204160	75	4331
2026-01-16 07:59:53.24	352.55	27.60	-51.6	-53.2	18.6	0.00e+00	0	49	0	961544192	75	4180
2026-01-16 07:59:57.28	351.71	27.08	-51.5	-53.1	18.7	0.00e+00	0	49	0	969932800	75	4134
2026-01-16 08:00:01.32	350.89	26.56	-51.3	-52.9	18.9	0.00e+00	0	49	0	977272832	74	4274
2026-01-16 08:00:05.36	350.10	26.05	-51.3	-52.9	19.0	0.00e+00	0	49	0	984612864	74	4246
2026-01-16 08:00:09.40	349.34	25.54	-51.6	-53.3	18.6	0.00e+00	0	49	0	991952896	74	4463
2026-01-16 08:00:13.44	348.60	25.03	-51.7	-53.3	18.5	0.00e+00	0	49	0	999292928	74	4491
2026-01-16 08:00:17.48	347.88	24.53	-51.4	-53.1	18.7	0.00e+00	0	49	0	1007681536	74	4344
2026-01-16 08:00:21.52	347.19	24.03	-51.4	-53.1	18.7	0.00e+00	0	49	0	1015021568	74	4352
2026-01-16 08:00:25.56	346.52	23.54	-51.7	-53.5	18.3	0.00e+00	0	49	0	1022361600	74	4547
2026-01-16 08:00:29.60	345.87	23.05	-51.9	-53.7	18.1	0.00e+00	0	49	0	1029701632	74	4685
2026-01-16 08:00:33.64	345.24	22.57	-51.7	-53.3	18.4	0.00e+00	0	49	0	1038090240	74	4491
2026-01-16 08:00:37.68	344.62	22.09	-51.5	-53.1	18.6	0.00e+00	0	49	0	1045430272	74	4374
2026-01-16 08:00:41.72	344.03	21.62	-51.7	-53.4	18.4	0.00e+00	0	49	0	1052770304	74	4514
2026-01-16 08:00:45.76	343.46	21.15	-52.1	-53.9	17.8	0.00e+00	0	49	0	1060110336	74	4792
2026-01-16 08:00:49.80	342.90	20.69	-51.8	-53.6	18.1	0.00e+00	0	49	0	1067450368	74	4606
2026-01-16 08:00:53.84	342.36	20.24	-51.7	-53.4	18.3	0.00e+00	0	49	0	1075838976	74	4516
2026-01-16 08:00:57.88	341.84	19.79	-51.6	-53.3	18.4	0.00e+00	0	49	0	1083179008	74	4458
2026-01-16 08:01:01.92	341.33	19.34	-51.6	-53.3	18.3	0.00e+00	0	49	0	1090519040	74	4488
2026-01-16 08:01:05.96	340.84	18.91	-51.7	-53.5	18.1	0.00e+00	0	49	0	1097859072	74	4578
2026-01-16 08:01:10.00	340.36	18.47	-51.7	-53.5	18.1	0.00e+00	0	49	0	1106247680	74	4586
2026-01-16 08:01:14.03	339.89	18.05	-51.5	-53.3	18.4	0.00e+00	0	49	0	1113587712	74	4454
2026-01-16 08:01:18.07	339.44	17.62	-51.4	-53.0	18.5	0.00e+00	0	49	0	1120927744	74	4329
2026-01-16 08:01:22.10	339.00	17.21	-51.4	-53.1	18.6	0.00e+00	0	49	0	1128267776	74	4346
2026-01-16 08:01:26.14	338.58	16.80	-51.6	-53.3	18.3	0.00e+00	0	49	0	1135607808	74	4483
2026-01-16 08:01:30.18	338.16	16.39	-52.0	-53.9	17.8	0.00e+00	0	49	0	1143996416	74	4769
2026-01-16 08:01:34.21	337.76	15.99	-52.1	-54.0	17.6	0.00e+00	0	49	0	1151336448	74	4816
2026-01-16 08:01:38.25	337.36	15.59	-51.9	-53.8	17.8	0.00e+00	0	49	0	1158676480	74	4715
2026-01-16 08:01:42.29	336.98	15.20	-51.9	-53.8	17.8	0.00e+00	0	49	0	1166016512	74	4713
2026-01-16 08:01:46.33	336.61	14.82	-52.1	-54.1	17.5	0.00e+00	0	49	0	1174405120	74	4873
2026-01-16 08:01:50.37	336.25	14.43	-52.1	-54.1	17.4	0.00e+00	0	49	0	1181745152	74	4906
2026-01-16 08:01:54.41	335.89	14.06	-52.2	-54.3	17.2	0.00e+00	0	49	0	1189085184	75	4750
2026-01-16 08:01:58.45	335.55	13.68	-52.2	-54.3	17.2	0.00e+00	0	49	0	1196425216	75	4729
2026-01-16 08:02:02.48	335.22	13.32	-52.4	-54.5	17.0	0.00e+00	0	49	0	1203765248	75	4820
2026-01-16 08:02:06.52	334.89	12.95	-52.5	-54.6	16.8	0.00e+00	0	49	0	1212153856	75	4920
2026-01-16 08:02:10.56	334.57	12.60	-52.5	-54.7	16.7	0.00e+00	0	49	0	1219493888	75	4932
2026-01-16 08:02:14.60	334.26	12.24	-52.7	-54.9	16.5	0.00e+00	0	49	0	1226833920	76	4793
2026-01-16 08:02:18.64	333.96	11.89	-52.8	-55.1	16.3	0.00e+00	0	49	0	1234173952	76	4885
2026-01-16 08:02:22.68	333.67	11.55	-52.7	-55.0	16.3	4.50e-06	0	50	0	1242562560	76	4856
2026-01-16 08:02:26.72	333.38	11.20	-52.7	-55.0	16.4	0.00e+00	0	49	0	1249902592	76	4839
2026-01-16 08:02:30.75	333.10	10.87	-52.7	-55.1	16.3	0.00e+00	0	49	0	1257242624	76	4872
2026-01-16 08:02:34.79	332.82	10.53	-52.8	-55.2	16.1	0.00e+00	0	49	0	1264582656	76	4932
2026-01-16 08:02:38.82	332.56	10.20	-53.0	-55.5	15.8	0.00e+00	0	49	0	1271922688	76	5110
2026-01-16 08:02:42.86	332.29	9.88	-53.0	-55.4	15.8	0.00e+00	0	49	0	1280311296	76	5094
2026-01-16 08:02:46.90	332.04	9.55	-53.2	-55.7	15.5	0.00e+00	0	49	0	1287651328	77	4961
2026-01-16 08:02:50.94	331.79	9.23	-53.1	-55.7	15.5	0.00e+00	0	49	0	1294991360	77	4940
2026-01-16 08:02:54.98	331.55	8.92	-53.2	-55.8	15.4	0.00e+00	0	49	0	1302331392	77	5006
2026-01-16 08:02:59.01	331.31	8.61	-53.2	-55.8	15.3	0.00e+00	0	49	0	1310720000	77	5012
2026-01-16 08:03:03.05	331.08	8.30	-53.1	-55.7	15.4	0.00e+00	0	49	0	1318060032	77	4980
2026-01-16 08:03:07.09	330.85	7.99	-53.2	-55.9	15.1	0.00e+00	0	49	0	1325400064	77	5082
2026-01-16 08:03:11.13	330.63	7.69	-52.9	-55.4	15.6	0.00e+00	0	49	0	1332740096	77	4785
2026-01-16 08:03:15.16	330.41	7.39	-53.0	-55.5	15.4	0.00e+00	0	49	0	1340080128	77	4851
2026-01-16 08:03:19.20	330.20	7.09	-53.2	-55.9	15.0	0.00e+00	0	49	0	1348468736	77	5099
2026-01-16 08:03:23.24	329.99	6.80	-53.3	-56.2	14.8	0.00e+00	0	49	0	1355808768	77	5220
2026-01-16 08:03:27.28	329.78	6.51	-53.3	-56.2	14.6	0.00e+00	0	49	0	1363148800	77	5250
2026-01-16 08:03:31.31	329.58	6.22	-53.4	-56.3	14.6	0.00e+00	0	49	0	1370488832	77	5295
2026-01-16 08:03:35.35	329.39	5.94	-53.3	-56.2	14.5	1.50e-06	0	49	0	1377828864	77	5278
2026-01-16 08:03:39.39	329.20	5.66	-53.3	-56.2	14.5	7.00e-07	0	49	0	1386217472	77	5256
2026-01-16 08:03:43.43	329.01	5.38	-53.5	-56.6	14.1	3.00e-06	0	49	0	1393557504	77	5525
2026-01-16 08:03:47.47	328.83	5.10	-53.5	-56.6	14.1	1.50e-06	0	49	0	1400897536	77	5488
2026-01-16 08:03:51.51	328.65	4.83	-57.7	-72.7	3.8	1.49e+00	0	49	104	1404043264	85	22031
2026-01-16 08:03:55.55	328.47	4.55	-58.2	-73.2	3.8	1.49e+00	0	49	104	1404043264	86	22083
2026-01-16 08:03:59.59	328.30	4.29	-58.4	-73.4	3.8	1.49e+00	0	50	104	1404043264	87	21447
2026-01-16 08:04:03.62	328.13	4.02	-58.5	-73.5	3.8	1.49e+00	0	50	104	1404043264	87	21534
2026-01-16 08:04:07.66	327.96	3.75	-58.4	-73.5	3.8	1.49e+00	0	50	104	1404043264	87	21518
2026-01-16 08:04:11.70	327.80	3.49	-58.4	-73.4	3.8	1.49e+00	0	50	104	1404043264	87	21307
2026-01-16 08:04:15.74	327.64	3.23	-58.3	-73.3	3.8	1.49e+00	0	50	104	1404043264	87	21242
2026-01-16 08:04:19.79	327.48	2.97	-58.3	-73.3	3.8	1.49e+00	0	49	104	1404043264	87	21220
2026-01-16 08:04:23.83	327.33	2.72	-58.3	-73.3	3.8	1.49e+00	0	50	104	1404043264	87	21105
2026-01-16 08:04:27.87	327.18	2.46	-58.3	-73.3	3.8	1.49e+00	0	50	104	1404043264	87	21057
2026-01-16 08:04:31.90	327.03	2.21	-58.3	-73.3	3.8	1.49e+00	0	50	104	1404043264	87	21105
2026-01-16 08:04:35.94	326.89	1.96	-58.2	-73.2	3.8	1.49e+00	0	50	104	1404043264	87	21017

#Closed at: 2026-01-16 08:04:36
#Recorded file [1404 MB]: D:/lorett/data/31041_260116_105047.dat