passes_logs/2026/01/16/R3.2S_Murmansk/R3.2S_Murmansk__20260116_041239_SUOMI_NPP_rec.log

#Pass ID: 20260116_041239_SUOMI NPP
#Satellite: SUOMI NPP
#Configuration: NPP
#almurnet v.1.7.20251203
#Start time: 2026-01-16 04:12:39

#Version: 2.2.20231116
#Station: R3.2S_Murmansk
#Location: 33.079688 lon 68.888172 lat
#TLE: 1 37849U 11061A   26015.52691075  .00000052  00000+0  45753-4 0  9993
#TLE: 2 37849  98.7811 317.5709 0002448  62.7632 297.3794 14.19525354736784

#Time	Az	El	Level	Level2	SNR	BER	BlckErr	Temp	State	Recorded	gain1	gain2
2026-01-16 04:12:39.91	48.61	2.05	-56.4	-71.4	3.8	1.49e+00	0	47	0	0	84	20090
2026-01-16 04:12:43.95	48.36	2.28	-56.3	-71.2	3.8	1.49e+00	0	47	104	0	83	20972
2026-01-16 04:12:47.99	48.11	2.52	-56.3	-71.3	3.8	1.49e+00	0	47	104	0	83	21040
2026-01-16 04:12:52.04	47.86	2.75	-56.3	-71.3	3.8	1.49e+00	0	47	104	0	83	21054
2026-01-16 04:12:56.08	47.60	2.99	-56.3	-71.2	3.8	1.49e+00	0	47	104	0	83	20995
2026-01-16 04:13:00.12	47.34	3.23	-56.3	-71.2	3.8	1.49e+00	0	47	104	0	83	20984
2026-01-16 04:13:04.16	47.08	3.47	-56.3	-71.3	3.8	1.49e+00	0	47	104	0	83	21031
2026-01-16 04:13:08.20	46.80	3.71	-56.3	-71.2	3.8	1.49e+00	0	47	104	0	83	20856
2026-01-16 04:13:12.24	46.53	3.96	-56.3	-71.2	3.8	1.49e+00	0	47	104	0	83	20841
2026-01-16 04:13:16.29	46.25	4.20	-56.3	-70.2	3.8	1.49e+00	0	47	104	0	83	18614
2026-01-16 04:13:20.33	45.96	4.45	-56.2	-68.6	3.9	1.47e+00	0	47	104	0	83	15579
2026-01-16 04:13:24.37	45.67	4.70	-55.6	-63.8	6.3	3.52e-01	0	47	0	5242880	83	8879
2026-01-16 04:13:28.41	45.37	4.95	-55.5	-63.1	6.9	1.56e-01	0	47	0	12582912	82	8694
2026-01-16 04:13:32.45	45.07	5.20	-55.2	-61.3	9.1	6.79e-05	0	47	0	19922944	80	7972
2026-01-16 04:13:36.49	44.77	5.45	-53.8	-57.6	12.9	5.11e-05	0	48	0	27262976	79	5472
2026-01-16 04:13:40.53	44.45	5.70	-53.3	-56.5	14.0	5.30e-06	0	48	0	34603008	78	5109
2026-01-16 04:13:44.57	44.13	5.96	-52.8	-55.6	15.0	0.00e+00	0	48	0	41943040	77	4885
2026-01-16 04:13:48.61	43.81	6.22	-52.6	-55.3	15.3	0.00e+00	0	48	0	49283072	77	4739
2026-01-16 04:13:52.65	43.48	6.48	-53.2	-56.3	14.5	7.00e-07	0	47	0	57671680	77	5300
2026-01-16 04:13:56.68	43.14	6.74	-52.8	-55.6	15.1	0.00e+00	0	48	0	65011712	76	5169
2026-01-16 04:14:00.72	42.80	7.00	-52.9	-55.6	15.2	0.00e+00	0	48	0	72351744	76	5179
2026-01-16 04:14:04.76	42.45	7.27	-53.0	-55.8	15.0	0.00e+00	0	48	0	79691776	76	5299
2026-01-16 04:14:08.80	42.10	7.53	-53.2	-56.1	14.8	0.00e+00	0	48	0	88080384	77	5189
2026-01-16 04:14:12.84	41.73	7.80	-52.9	-55.6	15.2	0.00e+00	0	48	0	95420416	77	4898
2026-01-16 04:14:16.87	41.36	8.07	-52.9	-55.5	15.4	0.00e+00	0	48	0	102760448	77	4854
2026-01-16 04:14:20.91	40.99	8.34	-53.5	-56.6	14.2	0.00e+00	0	48	0	110100480	77	5511
2026-01-16 04:14:24.95	40.60	8.61	-53.1	-55.9	14.9	0.00e+00	0	48	0	118489088	77	5098
2026-01-16 04:14:28.99	40.21	8.89	-52.6	-55.1	15.8	0.00e+00	0	48	0	125829120	77	4617
2026-01-16 04:14:33.02	39.81	9.16	-52.7	-55.3	15.7	0.00e+00	0	48	0	133169152	77	4727
2026-01-16 04:14:37.06	39.40	9.44	-52.2	-54.5	16.4	0.00e+00	0	48	0	140509184	76	4597
2026-01-16 04:14:41.10	38.99	9.72	-52.2	-54.5	16.5	0.00e+00	0	48	0	147849216	76	4553
2026-01-16 04:14:45.14	38.56	10.00	-52.0	-54.3	16.7	0.00e+00	0	48	0	156237824	76	4443
2026-01-16 04:14:49.17	38.13	10.28	-51.9	-54.1	17.0	0.00e+00	0	48	0	163577856	75	4604
2026-01-16 04:14:53.22	37.69	10.57	-52.2	-54.4	16.6	0.00e+00	0	48	0	170917888	75	4806
2026-01-16 04:14:57.25	37.24	10.86	-51.9	-54.0	17.0	0.00e+00	0	48	0	178257920	75	4571
2026-01-16 04:15:01.29	36.78	11.14	-52.3	-54.6	16.5	0.00e+00	0	48	0	185597952	75	4881
2026-01-16 04:15:05.33	36.31	11.43	-52.1	-54.2	16.9	0.00e+00	0	48	0	193986560	75	4695
2026-01-16 04:15:09.37	35.83	11.72	-52.2	-54.4	16.7	0.00e+00	0	48	0	201326592	75	4763
2026-01-16 04:15:13.41	35.34	12.02	-52.6	-55.0	16.1	0.00e+00	0	48	0	208666624	75	5142
2026-01-16 04:15:17.45	34.84	12.31	-52.3	-54.6	16.6	0.00e+00	0	48	0	216006656	75	4878
2026-01-16 04:15:21.49	34.34	12.60	-51.8	-53.8	17.3	0.00e+00	0	48	0	224395264	75	4467
2026-01-16 04:15:25.52	33.82	12.90	-51.5	-53.3	17.8	0.00e+00	0	48	0	231735296	74	4486
2026-01-16 04:15:29.56	33.29	13.20	-51.1	-52.8	18.3	0.00e+00	0	48	0	239075328	74	4234
2026-01-16 04:15:33.60	32.75	13.49	-51.1	-52.9	18.2	0.00e+00	0	48	0	246415360	74	4253
2026-01-16 04:15:37.64	32.19	13.79	-51.3	-53.1	18.1	0.00e+00	0	48	0	254803968	74	4353
2026-01-16 04:15:41.68	31.63	14.09	-51.4	-53.2	18.0	0.00e+00	0	49	0	262144000	74	4427
2026-01-16 04:15:45.72	31.05	14.40	-51.1	-52.9	18.3	0.00e+00	0	49	0	269484032	74	4253
2026-01-16 04:15:49.76	30.46	14.70	-51.2	-53.0	18.2	0.00e+00	0	48	0	276824064	73	4554
2026-01-16 04:15:53.80	29.86	15.00	-51.1	-52.8	18.3	0.00e+00	0	49	0	284164096	73	4478
2026-01-16 04:15:57.84	29.25	15.30	-51.3	-53.1	18.0	0.00e+00	0	48	0	292552704	73	4646
2026-01-16 04:16:01.88	28.63	15.61	-51.6	-53.6	17.5	0.00e+00	0	48	0	299892736	73	4921
2026-01-16 04:16:05.91	27.99	15.91	-51.9	-54.0	17.3	0.00e+00	0	48	0	307232768	74	4817
2026-01-16 04:16:09.95	27.34	16.21	-51.8	-53.8	17.5	0.00e+00	0	49	0	314572800	74	4728
2026-01-16 04:16:13.99	26.67	16.52	-51.9	-54.0	17.3	0.00e+00	0	49	0	321912832	74	4824
2026-01-16 04:16:18.03	25.99	16.82	-51.8	-53.7	17.5	0.00e+00	0	49	0	330301440	74	4686
2026-01-16 04:16:22.07	25.30	17.12	-51.7	-53.7	17.5	0.00e+00	0	49	0	337641472	74	4692
2026-01-16 04:16:26.11	24.59	17.43	-51.4	-53.2	17.9	0.00e+00	0	49	0	344981504	74	4439
2026-01-16 04:16:30.15	23.87	17.73	-51.8	-53.8	17.5	0.00e+00	0	49	0	352321536	74	4729
2026-01-16 04:16:34.18	23.13	18.03	-51.6	-53.5	17.7	0.00e+00	0	49	0	360710144	74	4589
2026-01-16 04:16:38.22	22.38	18.33	-51.4	-53.2	18.1	0.00e+00	0	48	0	368050176	74	4413
2026-01-16 04:16:42.26	21.61	18.62	-51.3	-53.2	18.2	0.00e+00	0	49	0	375390208	74	4393
2026-01-16 04:16:46.30	20.83	18.92	-51.8	-53.9	17.5	0.00e+00	0	48	0	382730240	74	4764
2026-01-16 04:16:50.34	20.03	19.21	-51.6	-53.5	17.9	0.00e+00	0	49	0	391118848	74	4562
2026-01-16 04:16:54.38	19.22	19.50	-51.1	-52.8	18.5	0.00e+00	0	48	0	398458880	74	4240
2026-01-16 04:16:58.41	18.39	19.79	-50.8	-52.5	18.7	0.00e+00	0	49	0	405798912	73	4336
2026-01-16 04:17:02.45	17.55	20.07	-50.1	-51.6	19.6	0.00e+00	0	49	0	413138944	72	4099
2026-01-16 04:17:06.49	16.68	20.35	-50.2	-51.7	19.6	0.00e+00	0	49	0	420478976	71	4410
2026-01-16 04:17:10.52	15.81	20.63	-50.1	-51.6	19.7	0.00e+00	0	48	0	428867584	71	4355
2026-01-16 04:17:14.56	14.92	20.90	-50.3	-51.9	19.4	0.00e+00	0	49	0	436207616	71	4511
2026-01-16 04:17:18.59	14.01	21.17	-50.0	-51.5	19.8	0.00e+00	0	48	0	443547648	71	4304
2026-01-16 04:17:22.62	13.09	21.43	-49.9	-51.3	19.9	0.00e+00	0	49	0	450887680	71	4239
2026-01-16 04:17:26.66	12.15	21.69	-49.8	-51.2	20.1	0.00e+00	0	49	0	458227712	71	4168
2026-01-16 04:17:30.69	11.19	21.94	-49.4	-50.8	20.5	0.00e+00	0	49	0	466616320	70	4204
2026-01-16 04:17:34.73	10.22	22.18	-49.7	-51.0	20.3	0.00e+00	0	49	0	473956352	70	4327
2026-01-16 04:17:38.76	9.24	22.42	-49.4	-50.7	20.6	0.00e+00	0	49	0	481296384	70	4184
2026-01-16 04:17:42.80	8.23	22.65	-49.6	-50.9	20.4	0.00e+00	0	49	0	488636416	70	4260
2026-01-16 04:17:46.83	7.22	22.88	-49.5	-50.8	20.5	0.00e+00	0	49	0	497025024	70	4208
2026-01-16 04:17:50.87	6.19	23.09	-49.6	-50.9	20.4	0.00e+00	0	49	0	504365056	70	4279
2026-01-16 04:17:54.90	5.14	23.30	-49.8	-51.2	20.1	0.00e+00	0	49	0	511705088	70	4425
2026-01-16 04:17:58.94	4.08	23.50	-49.6	-50.9	20.4	0.00e+00	0	49	0	519045120	70	4279
2026-01-16 04:18:02.98	3.01	23.69	-49.3	-50.5	20.8	0.00e+00	0	49	0	526385152	70	4085
2026-01-16 04:18:07.01	1.92	23.87	-49.4	-50.7	20.6	0.00e+00	0	49	0	534773760	70	4165
2026-01-16 04:18:11.05	0.82	24.04	-48.9	-50.0	21.2	0.00e+00	0	49	0	542113792	69	4090
2026-01-16 04:18:15.09	359.71	24.20	-49.6	-50.9	20.5	0.00e+00	0	49	0	549453824	69	4517
2026-01-16 04:18:19.12	358.60	24.35	-50.8	-52.5	19.0	0.00e+00	0	49	0	556793856	72	4557
2026-01-16 04:18:23.16	357.46	24.48	-51.4	-53.1	18.4	0.00e+00	0	49	0	564133888	73	4632
2026-01-16 04:18:27.19	356.33	24.61	-50.8	-52.4	19.0	0.00e+00	0	49	0	572522496	73	4266
2026-01-16 04:18:31.23	355.18	24.72	-50.6	-52.1	19.3	0.00e+00	0	49	0	579862528	72	4375
2026-01-16 04:18:35.27	354.02	24.82	-50.8	-52.5	19.0	0.00e+00	0	49	0	587202560	72	4552
2026-01-16 04:18:39.30	352.85	24.91	-51.7	-53.6	17.9	0.00e+00	0	49	0	594542592	73	4890
2026-01-16 04:18:43.34	351.68	24.99	-51.2	-52.9	18.5	0.00e+00	0	49	0	602931200	74	4270
2026-01-16 04:18:47.38	350.51	25.05	-51.5	-53.3	18.1	0.00e+00	0	49	0	610271232	74	4485
2026-01-16 04:18:51.42	349.33	25.10	-51.2	-53.0	18.5	0.00e+00	0	49	0	617611264	73	4554
2026-01-16 04:18:55.46	348.14	25.14	-52.0	-54.0	17.5	0.00e+00	0	49	0	624951296	74	4835
2026-01-16 04:18:59.50	346.96	25.16	-50.8	-52.4	19.1	0.00e+00	0	49	0	632291328	73	4274
2026-01-16 04:19:03.54	345.77	25.17	-51.0	-52.6	19.0	0.00e+00	0	49	0	640679936	73	4385
2026-01-16 04:19:07.58	344.58	25.17	-51.3	-53.1	18.4	0.00e+00	0	49	0	648019968	73	4605
2026-01-16 04:19:11.62	343.39	25.15	-51.6	-53.6	18.0	0.00e+00	0	49	0	655360000	73	4884
2026-01-16 04:19:15.66	342.21	25.12	-50.0	-51.4	19.9	0.00e+00	0	48	0	662700032	72	4014
2026-01-16 04:19:19.70	341.03	25.07	-50.4	-51.8	19.8	0.00e+00	0	49	0	670040064	71	4488
2026-01-16 04:19:23.74	339.85	25.02	-50.2	-51.6	19.9	0.00e+00	0	49	0	678428672	71	4361
2026-01-16 04:19:27.77	338.68	24.95	-49.6	-50.9	20.6	0.00e+00	0	49	0	685768704	71	4011
2026-01-16 04:19:31.81	337.51	24.86	-49.6	-50.9	20.6	0.00e+00	0	49	0	693108736	70	4248
2026-01-16 04:19:35.85	336.35	24.77	-48.8	-49.9	21.4	0.00e+00	0	49	0	700448768	69	4051
2026-01-16 04:19:39.89	335.19	24.66	-49.3	-50.5	20.9	0.00e+00	0	49	0	708837376	69	4321
2026-01-16 04:19:43.93	334.05	24.54	-49.6	-50.9	20.6	0.00e+00	0	49	0	716177408	70	4248
2026-01-16 04:19:47.97	332.91	24.41	-49.8	-51.1	20.3	0.00e+00	0	49	0	723517440	70	4391
2026-01-16 04:19:52.00	331.79	24.26	-50.3	-51.7	19.8	0.00e+00	0	49	0	730857472	71	4439
2026-01-16 04:19:56.05	330.67	24.11	-49.9	-51.2	20.3	0.00e+00	0	49	0	739246080	71	4189
2026-01-16 04:20:00.08	329.57	23.95	-50.1	-51.4	20.1	0.00e+00	0	49	0	746586112	71	4289
2026-01-16 04:20:04.12	328.47	23.77	-50.9	-52.4	19.1	0.00e+00	0	49	0	753926144	72	4540
2026-01-16 04:20:08.15	327.40	23.58	-51.2	-52.9	18.6	0.00e+00	0	49	0	761266176	72	4797
2026-01-16 04:20:12.19	326.33	23.39	-51.0	-52.7	18.8	1.50e-06	0	49	0	768606208	74	4176
2026-01-16 04:20:16.23	325.28	23.19	-50.8	-52.4	19.1	0.00e+00	0	49	0	776994816	73	4266
2026-01-16 04:20:20.27	324.24	22.97	-51.9	-53.9	17.7	0.00e+00	0	49	0	784334848	74	4777
2026-01-16 04:20:24.31	323.21	22.75	-51.3	-53.1	18.4	0.00e+00	0	49	0	791674880	74	4363
2026-01-16 04:20:28.35	322.20	22.52	-51.3	-53.1	18.4	0.00e+00	0	49	0	799014912	74	4369
2026-01-16 04:20:32.39	321.21	22.29	-51.7	-53.6	17.9	0.00e+00	0	49	0	806354944	74	4637
2026-01-16 04:20:36.43	320.23	22.05	-50.7	-52.4	19.0	0.00e+00	0	49	0	814743552	73	4249
2026-01-16 04:20:40.47	319.27	21.80	-52.1	-54.3	17.2	0.00e+00	0	49	0	822083584	74	5005
2026-01-16 04:20:44.51	318.32	21.54	-52.0	-54.2	17.3	0.00e+00	0	49	0	829423616	75	4658
2026-01-16 04:20:48.55	317.39	21.28	-50.8	-52.5	18.9	0.00e+00	0	49	0	836763648	73	4317
2026-01-16 04:20:52.59	316.47	21.01	-51.0	-52.7	18.7	0.00e+00	0	49	0	845152256	73	4407
2026-01-16 04:20:56.63	315.57	20.74	-50.4	-52.0	19.3	0.00e+00	0	49	0	852492288	72	4305
2026-01-16 04:21:00.67	314.69	20.47	-49.6	-50.9	20.4	0.00e+00	0	49	0	859832320	71	4007
2026-01-16 04:21:04.71	313.82	20.19	-49.7	-51.0	20.3	0.00e+00	0	49	0	867172352	70	4338
2026-01-16 04:21:08.75	312.96	19.91	-50.6	-52.2	19.2	0.00e+00	0	49	0	875560960	71	4701
2026-01-16 04:21:12.79	312.13	19.62	-50.9	-52.7	18.7	0.00e+00	0	49	0	882900992	72	4668
2026-01-16 04:21:16.83	311.31	19.33	-50.7	-52.4	19.0	0.00e+00	0	48	0	890241024	72	4498
2026-01-16 04:21:20.87	310.50	19.04	-50.1	-51.6	19.7	0.00e+00	0	49	0	897581056	72	4129
2026-01-16 04:21:24.91	309.71	18.74	-50.8	-52.5	18.9	0.00e+00	0	49	0	905969664	72	4557
2026-01-16 04:21:28.95	308.94	18.45	-50.3	-51.8	19.5	0.00e+00	0	49	0	913309696	72	4229
2026-01-16 04:21:32.99	308.18	18.15	-50.3	-51.8	19.4	0.00e+00	0	49	0	920649728	72	4216
2026-01-16 04:21:37.03	307.43	17.85	-50.2	-51.7	19.6	0.00e+00	0	49	0	927989760	72	4173
2026-01-16 04:21:41.06	306.71	17.55	-49.9	-51.3	20.0	0.00e+00	0	49	0	935329792	71	4219
2026-01-16 04:21:45.10	305.99	17.25	-49.6	-51.0	20.3	0.00e+00	0	49	0	942669824	71	4070
2026-01-16 04:21:49.14	305.29	16.94	-50.2	-51.7	19.5	0.00e+00	0	49	0	951058432	71	4393
2026-01-16 04:21:53.17	304.61	16.64	-49.5	-50.8	20.5	0.00e+00	0	49	0	958398464	71	3960
2026-01-16 04:21:57.21	303.94	16.34	-49.3	-50.6	20.7	0.00e+00	0	49	0	965738496	70	4121
2026-01-16 04:22:01.25	303.28	16.03	-49.7	-51.1	20.2	0.00e+00	0	49	0	973078528	70	4353
2026-01-16 04:22:05.29	302.63	15.73	-50.0	-51.4	20.0	0.00e+00	0	49	0	981467136	70	4507
2026-01-16 04:22:09.33	302.00	15.43	-49.5	-50.8	20.5	0.00e+00	0	49	0	988807168	70	4209
2026-01-16 04:22:13.37	301.38	15.12	-49.8	-51.2	20.0	0.00e+00	0	49	0	996147200	70	4422
2026-01-16 04:22:17.40	300.78	14.82	-50.9	-52.6	18.8	0.00e+00	0	49	0	1003487232	72	4626
2026-01-16 04:22:21.44	300.18	14.52	-50.6	-52.1	19.2	0.00e+00	0	49	0	1011875840	72	4382
2026-01-16 04:22:25.48	299.60	14.22	-50.1	-51.6	19.6	0.00e+00	0	49	0	1019215872	72	4128
2026-01-16 04:22:29.52	299.03	13.92	-49.9	-51.2	20.0	0.00e+00	0	49	0	1026555904	71	4184
2026-01-16 04:22:33.56	298.47	13.62	-50.7	-52.2	19.1	0.00e+00	0	49	0	1033895936	71	4692
2026-01-16 04:22:37.59	297.93	13.32	-51.7	-53.6	17.8	0.00e+00	0	49	0	1041235968	73	4881
2026-01-16 04:22:41.63	297.39	13.02	-50.9	-52.5	18.8	0.00e+00	0	49	0	1049624576	73	4309
2026-01-16 04:22:45.67	296.87	12.72	-50.2	-51.6	19.6	0.00e+00	0	49	0	1056964608	72	4131
2026-01-16 04:22:49.71	296.35	12.43	-50.6	-52.2	19.1	0.00e+00	0	49	0	1064304640	72	4413
2026-01-16 04:22:53.74	295.85	12.13	-50.6	-52.1	19.1	0.00e+00	0	49	0	1071644672	72	4382
2026-01-16 04:22:57.78	295.36	11.84	-50.8	-52.5	18.8	0.00e+00	0	49	0	1078984704	72	4557
2026-01-16 04:23:01.82	294.87	11.55	-51.5	-53.4	17.9	0.00e+00	0	49	0	1087373312	73	4784
2026-01-16 04:23:05.86	294.40	11.26	-51.6	-53.4	17.8	0.00e+00	0	49	0	1094713344	74	4533
2026-01-16 04:23:09.89	293.94	10.97	-52.0	-54.0	17.3	0.00e+00	0	49	0	1102053376	74	4853
2026-01-16 04:23:13.93	293.48	10.69	-52.1	-54.2	17.0	0.00e+00	0	49	0	1109393408	75	4685
2026-01-16 04:23:17.97	293.03	10.40	-51.8	-53.7	17.5	0.00e+00	0	49	0	1117782016	75	4430
2026-01-16 04:23:22.00	292.60	10.12	-51.2	-52.9	18.3	0.00e+00	0	49	0	1125122048	74	4256
2026-01-16 04:23:26.04	292.17	9.83	-51.2	-52.9	18.3	0.00e+00	0	49	0	1132462080	73	4514
2026-01-16 04:23:30.08	291.75	9.55	-51.9	-53.8	17.4	0.00e+00	0	49	0	1139802112	74	4749
2026-01-16 04:23:34.12	291.34	9.27	-51.9	-53.9	17.3	0.00e+00	0	49	0	1148190720	74	4772
2026-01-16 04:23:38.16	290.93	9.00	-51.5	-53.4	17.8	0.00e+00	0	49	0	1155530752	74	4516
2026-01-16 04:23:42.20	290.54	8.72	-51.6	-53.4	17.7	0.00e+00	0	49	0	1162870784	74	4543
2026-01-16 04:23:46.24	290.15	8.45	-51.9	-53.9	17.3	0.00e+00	0	49	0	1170210816	74	4766
2026-01-16 04:23:50.28	289.77	8.18	-52.1	-54.3	16.9	0.00e+00	0	49	0	1177550848	74	4996
2026-01-16 04:23:54.32	289.39	7.91	-52.8	-55.2	16.0	0.00e+00	0	49	0	1185939456	76	4951
2026-01-16 04:23:58.36	289.03	7.64	-53.1	-55.7	15.4	0.00e+00	0	49	0	1193279488	76	5274
2026-01-16 04:24:02.40	288.67	7.37	-53.3	-56.0	15.0	0.00e+00	0	49	0	1200619520	77	5153
2026-01-16 04:24:06.44	288.31	7.10	-52.9	-55.5	15.7	0.00e+00	0	49	0	1207959552	77	4837
2026-01-16 04:24:10.48	287.97	6.84	-53.1	-55.7	15.3	0.00e+00	0	49	0	1215299584	77	4952
2026-01-16 04:24:14.52	287.63	6.58	-53.3	-56.1	14.8	0.00e+00	0	49	0	1223688192	77	5202
2026-01-16 04:24:18.56	287.29	6.32	-53.7	-56.8	14.1	2.20e-06	0	49	0	1231028224	78	5326
2026-01-16 04:24:22.60	286.97	6.06	-53.8	-57.0	13.9	6.10e-06	0	49	0	1238368256	78	5440
2026-01-16 04:24:26.64	286.64	5.80	-53.6	-56.7	14.1	1.50e-06	0	49	0	1245708288	78	5261
2026-01-16 04:24:30.67	286.33	5.55	-53.2	-56.1	14.8	0.00e+00	0	49	0	1254096896	78	4876
2026-01-16 04:24:34.71	286.02	5.30	-52.3	-54.7	16.0	0.00e+00	0	49	0	1261436928	76	4672
2026-01-16 04:24:38.75	285.71	5.04	-52.2	-54.6	16.1	0.00e+00	0	49	0	1268776960	76	4608
2026-01-16 04:24:42.80	285.41	4.79	-57.8	-72.8	3.8	1.49e+00	0	49	104	1270874112	86	21083
2026-01-16 04:24:46.83	285.12	4.54	-58.2	-73.2	3.8	1.49e+00	0	49	104	1270874112	86	22193
2026-01-16 04:24:50.87	284.83	4.30	-58.4	-73.4	3.8	1.49e+00	0	49	104	1270874112	87	21440
2026-01-16 04:24:54.91	284.55	4.05	-58.5	-73.5	3.8	1.49e+00	0	49	104	1270874112	87	21620
2026-01-16 04:24:58.94	284.27	3.81	-58.5	-73.5	3.8	1.49e+00	0	49	104	1270874112	87	21733
2026-01-16 04:25:02.98	284.00	3.57	-58.5	-73.5	3.8	1.49e+00	0	49	104	1270874112	87	21723
2026-01-16 04:25:07.02	283.73	3.32	-58.5	-73.5	3.8	1.49e+00	0	49	104	1270874112	87	21543
2026-01-16 04:25:11.06	283.46	3.08	-58.4	-73.4	3.8	1.49e+00	0	49	104	1270874112	87	21379
2026-01-16 04:25:15.10	283.20	2.85	-58.3	-73.3	3.8	1.49e+00	0	49	104	1270874112	87	21110
2026-01-16 04:25:19.14	282.95	2.61	-58.3	-73.3	3.8	1.49e+00	0	49	104	1270874112	87	21123
2026-01-16 04:25:23.19	282.69	2.37	-58.3	-73.3	3.8	1.49e+00	0	49	104	1270874112	87	21116
2026-01-16 04:25:27.22	282.45	2.14	-58.3	-73.3	3.8	1.49e+00	0	49	104	1270874112	87	21146

#Closed at: 2026-01-16 04:25:30
#Recorded file [1270 MB]: D:/lorett/data/31041_260116_071239.dat