passes_logs/2026/01/16/R3.2S_Murmansk/R3.2S_Murmansk__20260116_212851_KANOPUS-V_5_rec.log

#Pass ID: 20260116_212851_KANOPUS-V 5
#Satellite: KANOPUS-V 5
#Configuration: KANOPUS-V_8320
#almurnet v.1.7.20251203
#Start time: 2026-01-16 21:28:52

#Version: 2.2.20231116
#Station: R3.2S_Murmansk
#Location: 33.079688 lon 68.888172 lat
#TLE: 1 43876U 18111A   26015.95883530  .00002079  00000+0  90203-4 0  9990
#TLE: 2 43876  97.3685 284.4557 0001748  86.2315 273.9122 15.23440439391619

#Time	Az	El	Level	Level2	SNR	BER	BlckErr	Temp	State	Recorded	gain1	gain2
2026-01-16 21:28:52.14	21.12	2.04	-52.2	-61.0	3.8	7.44e-01	0	32	0	0	76	9643
2026-01-16 21:28:55.17	21.25	2.25	-52.1	-61.0	3.8	7.45e-01	0	32	104	0	75	10186
2026-01-16 21:28:58.20	21.38	2.46	-52.1	-60.9	3.8	7.44e-01	0	32	104	0	75	10165
2026-01-16 21:29:01.22	21.51	2.67	-52.1	-60.9	3.8	7.46e-01	0	32	104	0	75	10165
2026-01-16 21:29:04.24	21.65	2.88	-52.1	-60.9	3.8	7.45e-01	0	32	104	0	75	10165
2026-01-16 21:29:07.27	21.79	3.10	-52.1	-60.9	3.8	7.44e-01	0	32	104	0	75	10144
2026-01-16 21:29:10.30	21.93	3.31	-52.1	-60.9	3.8	7.46e-01	0	32	104	0	75	10161
2026-01-16 21:29:13.32	22.08	3.53	-52.1	-61.0	3.8	7.46e-01	0	32	104	0	75	10191
2026-01-16 21:29:16.35	22.22	3.75	-52.1	-60.9	3.8	7.45e-01	0	32	104	0	75	10141
2026-01-16 21:29:19.37	22.37	3.98	-52.1	-60.9	3.8	7.45e-01	0	32	104	0	75	10161
2026-01-16 21:29:22.40	22.52	4.20	-52.1	-60.9	3.8	7.46e-01	0	33	104	0	75	10168
2026-01-16 21:29:25.42	22.68	4.43	-52.1	-60.9	3.8	7.47e-01	0	33	104	0	75	10168
2026-01-16 21:29:28.45	22.84	4.66	-52.1	-60.9	3.8	7.48e-01	0	33	104	0	75	10130
2026-01-16 21:29:31.48	23.00	4.90	-52.1	-60.9	3.8	7.44e-01	0	33	104	0	75	10168
2026-01-16 21:29:34.50	23.16	5.13	-52.2	-61.0	3.8	7.44e-01	0	33	104	0	75	10240
2026-01-16 21:29:37.52	23.33	5.37	-52.2	-61.0	3.8	7.45e-01	0	33	104	0	75	10218
2026-01-16 21:29:40.55	23.50	5.61	-52.1	-61.0	3.8	7.44e-01	0	33	104	0	75	10194
2026-01-16 21:29:43.57	23.67	5.85	-52.3	-61.1	3.8	7.45e-01	0	33	104	0	75	10391
2026-01-16 21:29:46.60	23.85	6.10	-52.4	-61.2	3.8	7.46e-01	0	33	104	0	75	10494
2026-01-16 21:29:49.63	24.03	6.35	-52.4	-61.2	3.8	7.45e-01	0	33	104	0	75	10529
2026-01-16 21:29:52.65	24.21	6.61	-52.3	-61.2	3.8	7.45e-01	0	33	104	0	75	10460
2026-01-16 21:29:55.68	24.40	6.86	-52.4	-61.3	3.8	7.45e-01	0	33	104	0	75	10534
2026-01-16 21:29:58.71	24.59	7.12	-52.5	-61.4	3.8	7.46e-01	0	33	104	0	75	10664
2026-01-16 21:30:01.73	24.78	7.39	-52.6	-61.4	3.8	7.45e-01	0	33	104	0	75	10753
2026-01-16 21:30:04.76	24.98	7.65	-52.5	-61.3	3.8	7.45e-01	0	33	104	0	75	10607
2026-01-16 21:30:07.78	25.19	7.92	-52.6	-61.4	3.8	7.45e-01	0	33	104	0	75	10759
2026-01-16 21:30:10.81	25.40	8.20	-52.8	-61.6	3.8	7.46e-01	0	33	104	0	76	10389
2026-01-16 21:30:13.83	25.61	8.47	-52.8	-61.6	3.8	7.45e-01	0	33	104	0	76	10400
2026-01-16 21:30:16.85	25.83	8.76	-52.7	-61.6	3.8	7.46e-01	0	33	104	0	76	10325
2026-01-16 21:30:19.88	26.05	9.04	-52.8	-61.6	3.8	7.45e-01	0	34	104	0	76	10364
2026-01-16 21:30:22.90	26.28	9.33	-52.9	-61.7	3.8	7.45e-01	0	33	104	0	76	10489
2026-01-16 21:30:25.93	26.51	9.63	-52.9	-61.7	3.8	7.46e-01	0	34	104	0	76	10519
2026-01-16 21:30:28.96	26.75	9.92	-52.9	-61.7	3.8	7.45e-01	0	33	104	0	76	10471
2026-01-16 21:30:31.98	27.00	10.23	-52.9	-61.7	3.8	7.46e-01	0	34	104	0	76	10525
2026-01-16 21:30:35.01	27.25	10.53	-53.0	-61.9	3.8	7.43e-01	0	34	104	0	76	10676
2026-01-16 21:30:38.03	27.51	10.85	-53.1	-61.9	3.8	7.44e-01	0	34	104	0	76	10663
2026-01-16 21:30:41.05	27.77	11.16	-53.0	-61.8	3.8	7.47e-01	0	34	104	0	76	10621
2026-01-16 21:30:44.08	28.04	11.49	-53.0	-61.8	3.8	7.45e-01	0	34	104	0	76	10645
2026-01-16 21:30:47.10	28.32	11.81	-53.1	-61.9	3.8	7.45e-01	0	34	104	0	76	10754
2026-01-16 21:30:50.13	28.60	12.15	-53.1	-62.0	3.8	7.46e-01	0	34	104	0	76	10816
2026-01-16 21:30:53.15	28.90	12.49	-53.1	-61.9	3.8	7.46e-01	0	34	104	0	76	10763
2026-01-16 21:30:56.18	29.20	12.83	-53.1	-62.0	3.8	7.45e-01	0	33	104	0	76	10812
2026-01-16 21:30:59.20	29.51	13.18	-53.2	-62.1	3.8	7.44e-01	0	34	104	0	76	10907
2026-01-16 21:31:02.23	29.82	13.54	-53.2	-62.0	3.8	7.46e-01	0	34	104	0	77	10270
2026-01-16 21:31:05.25	30.15	13.90	-53.2	-62.0	3.8	7.47e-01	0	34	104	0	77	10250
2026-01-16 21:31:08.28	30.49	14.27	-53.2	-62.0	3.8	7.44e-01	0	34	104	0	77	10284
2026-01-16 21:31:11.31	30.83	14.65	-53.3	-62.1	3.8	7.45e-01	0	34	104	0	77	10357
2026-01-16 21:31:14.33	31.19	15.03	-53.3	-62.1	3.8	7.44e-01	0	34	104	0	77	10392
2026-01-16 21:31:17.36	31.56	15.42	-53.3	-62.1	3.8	7.45e-01	0	34	104	0	77	10360
2026-01-16 21:31:20.39	31.94	15.82	-53.3	-62.1	3.8	7.45e-01	0	34	104	0	77	10407
2026-01-16 21:31:23.41	32.33	16.23	-53.3	-62.2	3.8	7.45e-01	0	34	104	0	77	10448
2026-01-16 21:31:26.43	32.73	16.64	-53.4	-62.2	3.8	7.44e-01	0	34	104	0	77	10495
2026-01-16 21:31:29.46	33.14	17.06	-53.4	-62.2	3.8	7.46e-01	0	34	104	0	77	10470
2026-01-16 21:31:32.49	33.57	17.49	-53.4	-62.2	3.8	7.46e-01	0	34	104	0	77	10460
2026-01-16 21:31:35.51	34.01	17.93	-53.4	-62.2	3.8	7.44e-01	0	34	104	0	77	10524
2026-01-16 21:31:38.54	34.47	18.38	-53.5	-62.3	3.8	7.43e-01	0	34	104	0	77	10608
2026-01-16 21:31:41.56	34.94	18.83	-53.5	-62.3	3.8	7.45e-01	0	34	104	0	77	10585
2026-01-16 21:31:44.59	35.43	19.30	-53.4	-62.3	3.8	7.47e-01	0	34	104	0	77	10577
2026-01-16 21:31:47.61	35.94	19.77	-53.5	-62.3	3.8	7.45e-01	0	34	104	0	77	10598
2026-01-16 21:31:50.64	36.47	20.26	-53.5	-62.3	3.8	7.46e-01	0	34	104	0	77	10648
2026-01-16 21:31:53.66	37.01	20.75	-53.5	-62.4	3.8	7.46e-01	0	34	104	0	77	10687
2026-01-16 21:31:56.69	37.57	21.26	-53.5	-62.3	3.8	7.46e-01	0	34	104	0	77	10637
2026-01-16 21:31:59.72	38.16	21.77	-53.5	-62.4	3.8	7.47e-01	0	34	104	0	77	10681
2026-01-16 21:32:02.74	38.76	22.30	-53.6	-62.4	3.8	7.44e-01	0	34	104	0	77	10729
2026-01-16 21:32:05.76	39.39	22.84	-53.6	-62.4	3.8	7.44e-01	0	34	104	0	77	10778
2026-01-16 21:32:08.79	40.05	23.38	-53.6	-62.4	3.8	7.45e-01	0	34	104	0	77	10748
2026-01-16 21:32:11.81	40.73	23.94	-53.6	-62.4	3.8	7.45e-01	0	34	104	0	77	10741
2026-01-16 21:32:14.84	41.44	24.51	-53.6	-62.5	3.8	7.45e-01	0	34	104	0	77	10783
2026-01-16 21:32:17.86	42.17	25.09	-53.6	-62.5	3.8	7.45e-01	0	34	104	0	77	10790
2026-01-16 21:32:20.88	42.94	25.68	-53.6	-62.5	3.8	7.46e-01	0	34	104	0	77	10787
2026-01-16 21:32:23.91	43.74	26.29	-53.7	-62.5	3.8	7.46e-01	0	34	104	0	77	10791
2026-01-16 21:32:26.94	44.58	26.90	-53.7	-62.5	3.8	7.46e-01	0	34	104	0	77	10862
2026-01-16 21:32:29.96	45.45	27.53	-53.7	-62.5	3.8	7.45e-01	0	34	104	0	77	10892
2026-01-16 21:32:32.99	46.36	28.17	-53.7	-62.5	3.8	7.46e-01	0	34	104	0	77	10862
2026-01-16 21:32:36.01	47.30	28.81	-53.7	-62.5	3.8	7.45e-01	0	34	104	0	78	10278
2026-01-16 21:32:39.04	48.29	29.47	-53.8	-62.6	3.8	7.46e-01	0	34	104	0	78	10349
2026-01-16 21:32:42.06	49.33	30.14	-53.8	-62.6	3.8	7.45e-01	0	34	104	0	78	10382
2026-01-16 21:32:45.09	50.41	30.82	-53.8	-62.6	3.8	7.47e-01	0	34	104	0	78	10363
2026-01-16 21:32:48.11	51.54	31.50	-53.8	-62.6	3.8	7.45e-01	0	34	104	0	78	10395
2026-01-16 21:32:51.14	52.73	32.19	-53.8	-62.7	3.8	7.45e-01	0	34	104	0	78	10419
2026-01-16 21:32:54.16	53.97	32.89	-53.8	-62.6	3.8	7.46e-01	0	34	104	0	78	10380
2026-01-16 21:32:57.18	55.26	33.59	-53.8	-62.7	3.8	7.45e-01	0	34	104	0	78	10424
2026-01-16 21:33:00.21	56.62	34.30	-53.8	-62.6	3.8	7.46e-01	0	34	104	0	78	10408
2026-01-16 21:33:03.23	58.04	35.00	-53.8	-62.6	3.8	7.45e-01	0	34	104	0	78	10403
2026-01-16 21:33:06.26	59.54	35.71	-53.9	-62.8	3.8	7.45e-01	0	34	104	0	78	10541
2026-01-16 21:33:09.28	61.09	36.41	-53.9	-62.7	3.8	7.46e-01	0	34	104	0	78	10487
2026-01-16 21:33:12.30	62.72	37.11	-53.9	-62.7	3.8	7.45e-01	0	34	104	0	78	10485
2026-01-16 21:33:15.33	64.43	37.80	-53.9	-62.7	3.8	7.45e-01	0	34	104	0	78	10487
2026-01-16 21:33:18.35	66.20	38.47	-53.9	-62.7	3.8	7.45e-01	0	34	104	0	78	10507
2026-01-16 21:33:21.38	68.07	39.13	-53.9	-62.7	3.8	7.46e-01	0	34	104	0	78	10529
2026-01-16 21:33:24.40	70.00	39.77	-53.9	-62.7	3.8	7.45e-01	0	34	104	0	78	10520
2026-01-16 21:33:27.42	72.02	40.39	-53.9	-62.7	3.8	7.46e-01	0	34	104	0	78	10531
2026-01-16 21:33:30.45	74.12	40.98	-53.9	-62.8	3.8	7.45e-01	0	34	104	0	78	10544
2026-01-16 21:33:33.47	76.29	41.54	-53.9	-62.8	3.8	7.43e-01	0	34	104	0	78	10606
2026-01-16 21:33:36.50	78.55	42.06	-53.9	-62.8	3.8	7.46e-01	0	34	104	0	78	10567
2026-01-16 21:33:39.52	80.87	42.54	-53.9	-62.8	3.8	7.47e-01	0	34	104	0	78	10613
2026-01-16 21:33:42.55	83.28	42.98	-53.9	-62.7	3.8	7.44e-01	0	34	104	0	78	10526
2026-01-16 21:33:45.57	85.74	43.37	-46.4	-62.8	3.8	7.44e-01	0	34	104	0	65	22324
2026-01-16 21:33:48.60	88.26	43.70	-49.2	-52.4	9.1	6.33e-01	0	34	0	16777216	68	5698
2026-01-16 21:33:51.62	90.83	43.97	-38.0	-40.0	19.3	6.09e-01	0	34	0	62914560	48	4329
2026-01-16 21:33:54.64	93.44	44.19	-38.1	-40.3	19.2	6.08e-01	0	34	0	111149056	48	4449
2026-01-16 21:33:57.67	96.09	44.34	-37.0	-39.0	19.0	6.08e-01	0	34	0	157286400	45	4546
2026-01-16 21:34:00.70	98.76	44.43	-37.3	-39.1	18.9	6.08e-01	0	34	0	201326592	45	4628
2026-01-16 21:34:03.73	101.44	44.45	-36.9	-38.8	19.1	6.09e-01	0	34	0	247463936	45	4482
2026-01-16 21:34:06.75	104.11	44.40	-37.1	-39.2	18.2	5.98e-01	0	34	0	295698432	45	4703
2026-01-16 21:34:09.78	106.77	44.29	-37.0	-39.0	19.1	5.81e-01	0	34	0	341835776	45	4597
2026-01-16 21:34:12.80	109.40	44.12	-37.1	-39.1	19.1	5.79e-01	0	34	0	387973120	45	4650
2026-01-16 21:34:15.83	112.01	43.88	-37.2	-39.2	19.0	5.79e-01	0	34	0	434110464	45	4691
2026-01-16 21:34:18.85	114.56	43.58	-37.1	-39.2	19.0	5.80e-01	0	34	0	482344960	45	4684
2026-01-16 21:34:21.87	117.06	43.23	-37.4	-39.6	18.8	5.81e-01	0	34	0	528482304	45	4891
2026-01-16 21:34:24.90	119.51	42.83	-37.2	-39.2	19.0	5.78e-01	0	34	0	574619648	45	4657
2026-01-16 21:34:27.92	121.88	42.37	-37.1	-39.0	19.1	5.79e-01	0	34	0	620756992	45	4595
2026-01-16 21:34:30.95	124.19	41.88	-37.2	-39.3	18.9	5.80e-01	0	34	0	666894336	45	4722
2026-01-16 21:34:33.97	126.42	41.34	-37.4	-39.4	18.8	5.81e-01	0	34	0	713031680	45	4803
2026-01-16 21:34:37.00	128.58	40.77	-37.6	-39.7	18.6	5.99e-01	0	34	0	759169024	45	4970
2026-01-16 21:34:40.02	130.65	40.16	-37.6	-39.7	18.6	5.97e-01	0	34	0	805306368	46	4660
2026-01-16 21:34:43.04	132.64	39.54	-37.9	-39.8	18.5	6.04e-01	0	34	0	851443712	46	4751
2026-01-16 21:34:46.06	134.55	38.89	-38.4	-40.3	18.2	6.01e-01	0	34	0	899678208	47	4737
2026-01-16 21:34:49.09	136.39	38.22	-38.6	-40.6	18.1	6.02e-01	0	34	0	945815552	47	4884
2026-01-16 21:34:52.11	138.14	37.53	-38.6	-40.5	18.0	6.02e-01	0	34	0	991952896	47	4861
2026-01-16 21:34:55.14	139.83	36.84	-39.7	-41.7	18.4	5.99e-01	0	34	0	1038090240	50	4672
2026-01-16 21:34:58.16	141.43	36.14	-39.9	-41.8	18.3	6.00e-01	0	34	0	1086324736	50	4726
2026-01-16 21:35:01.19	142.97	35.43	-40.3	-42.2	18.1	5.99e-01	0	34	0	1132462080	51	4678
2026-01-16 21:35:04.21	144.44	34.72	-40.6	-42.4	17.9	6.00e-01	0	34	0	1178599424	51	4808
2026-01-16 21:35:07.23	145.84	34.01	-40.7	-42.5	17.9	5.99e-01	0	34	0	1224736768	52	4547
2026-01-16 21:35:10.26	147.18	33.30	-40.7	-42.6	17.7	6.05e-01	0	34	0	1270874112	52	4637
2026-01-16 21:35:13.28	148.46	32.60	-41.0	-43.0	17.4	6.01e-01	0	34	0	1317011456	52	4869
2026-01-16 21:35:16.31	149.68	31.90	-41.3	-43.2	17.2	6.04e-01	0	34	0	1363148800	53	4701
2026-01-16 21:35:19.33	150.85	31.21	-41.2	-43.2	17.3	6.01e-01	0	34	0	1409286144	53	4665
2026-01-16 21:35:22.37	151.97	30.52	-40.9	-42.8	17.6	6.01e-01	0	34	0	1457520640	53	4454
2026-01-16 21:35:25.39	153.04	29.85	-40.8	-42.7	17.7	6.04e-01	0	34	0	1503657984	53	4392
2026-01-16 21:35:28.42	154.06	29.18	-40.9	-42.7	17.6	6.06e-01	0	34	0	1549795328	53	4433
2026-01-16 21:35:31.44	155.04	28.52	-40.9	-42.7	17.6	6.03e-01	0	34	0	1598029824	53	4416
2026-01-16 21:35:34.47	155.97	27.87	-40.8	-42.7	17.6	6.05e-01	0	34	0	1642070016	53	4433
2026-01-16 21:35:37.50	156.87	27.24	-40.8	-42.8	17.5	6.02e-01	0	34	0	1688207360	53	4488
2026-01-16 21:35:40.52	157.73	26.61	-40.8	-42.8	17.5	6.02e-01	0	34	0	1734344704	53	4471
2026-01-16 21:35:43.55	158.55	26.00	-40.7	-42.7	17.6	6.03e-01	0	34	0	1782579200	53	4396
2026-01-16 21:35:46.57	159.34	25.40	-40.6	-42.6	17.6	6.05e-01	0	34	0	1828716544	53	4380
2026-01-16 21:35:49.60	160.10	24.80	-40.6	-42.6	17.6	6.03e-01	0	34	0	1874853888	53	4377
2026-01-16 21:35:52.63	160.83	24.22	-40.9	-42.9	17.4	6.05e-01	0	34	0	1920991232	53	4498
2026-01-16 21:35:55.65	161.52	23.66	-40.8	-42.7	17.5	6.03e-01	0	34	0	1969225728	53	4407
2026-01-16 21:35:58.68	162.20	23.10	-40.8	-42.7	17.6	6.04e-01	0	34	0	2015363072	53	4398
2026-01-16 21:36:01.71	162.84	22.55	-40.7	-42.6	17.6	6.01e-01	0	34	0	2061500416	53	4379
2026-01-16 21:36:04.73	163.47	22.02	-40.7	-42.7	17.5	6.04e-01	0	34	0	2107637760	53	4418
2026-01-16 21:36:07.76	164.07	21.49	-40.9	-42.9	17.3	6.07e-01	0	34	0	2153775104	53	4497
2026-01-16 21:36:10.78	164.64	20.98	-40.9	-42.8	17.3	6.02e-01	0	34	0	2199912448	53	4477
2026-01-16 21:36:13.80	165.20	20.48	-40.9	-42.8	17.3	6.04e-01	0	34	0	2246049792	53	4477
2026-01-16 21:36:16.83	165.74	19.98	-41.1	-43.0	17.2	6.05e-01	0	34	0	2292187136	53	4593
2026-01-16 21:36:19.85	166.25	19.50	-41.1	-43.1	17.1	6.04e-01	0	34	0	2340421632	53	4622
2026-01-16 21:36:22.88	166.75	19.03	-41.3	-43.3	16.9	6.02e-01	0	34	0	2386558976	53	4757
2026-01-16 21:36:25.91	167.24	18.56	-41.4	-43.6	16.7	6.02e-01	0	34	0	2432696320	53	4889
2026-01-16 21:36:28.93	167.70	18.11	-41.6	-43.7	16.6	6.04e-01	0	34	0	2478833664	53	4972
2026-01-16 21:36:31.96	168.16	17.66	-41.7	-43.9	16.5	5.99e-01	0	34	0	2527068160	54	4782
2026-01-16 21:36:34.98	168.59	17.23	-41.9	-44.0	16.4	6.02e-01	0	34	0	2573205504	54	4855
2026-01-16 21:36:38.01	169.02	16.80	-42.1	-44.2	16.3	6.05e-01	0	34	0	2619342848	54	4931
2026-01-16 21:36:41.03	169.43	16.38	-42.2	-44.3	16.2	6.02e-01	0	34	0	2665480192	55	4721
2026-01-16 21:36:44.06	169.82	15.97	-42.3	-44.4	16.1	6.03e-01	0	34	0	2711617536	55	4783
2026-01-16 21:36:47.08	170.21	15.56	-42.4	-44.6	15.9	6.02e-01	0	34	0	2757754880	55	4893
2026-01-16 21:36:50.11	170.58	15.16	-42.6	-44.9	15.6	6.05e-01	0	34	0	2803892224	55	5065
2026-01-16 21:36:53.13	170.94	14.78	-42.6	-44.9	15.5	6.03e-01	0	34	0	2850029568	56	4772
2026-01-16 21:36:56.16	171.30	14.39	-42.7	-44.9	15.4	6.03e-01	0	34	0	2898264064	56	4806
2026-01-16 21:36:59.18	171.64	14.02	-42.9	-45.1	15.2	6.04e-01	0	34	0	2944401408	56	4905
2026-01-16 21:37:02.20	171.97	13.65	-43.0	-45.2	15.1	6.01e-01	0	34	0	2990538752	56	4962
2026-01-16 21:37:05.23	172.29	13.29	-42.8	-45.0	15.3	6.04e-01	0	34	0	3036676096	56	4845
2026-01-16 21:37:08.25	172.61	12.93	-42.9	-45.1	15.2	6.03e-01	0	34	0	3082813440	56	4901
2026-01-16 21:37:11.27	172.91	12.58	-43.2	-45.4	14.9	6.02e-01	0	34	0	3128950784	56	5079
2026-01-16 21:37:14.30	173.21	12.24	-43.4	-45.6	14.8	6.02e-01	0	34	0	3175088128	57	4898
2026-01-16 21:37:17.33	173.50	11.90	-43.4	-45.5	14.8	6.01e-01	0	34	0	3221225472	57	4849
2026-01-16 21:37:20.35	173.78	11.57	-43.7	-46.0	14.5	5.80e-01	0	34	0	3269459968	58	4840
2026-01-16 21:37:23.37	174.05	11.24	-43.8	-46.1	14.4	5.78e-01	0	34	0	3315597312	58	4892
2026-01-16 21:37:26.40	174.32	10.92	-43.8	-46.0	14.4	5.80e-01	0	34	0	3361734656	58	4868
2026-01-16 21:37:29.42	174.58	10.60	-44.0	-46.3	14.2	5.81e-01	0	34	0	3407872000	58	5027
2026-01-16 21:37:32.45	174.84	10.29	-45.1	-46.2	14.3	5.79e-01	0	34	0	3456106496	60	4427
2026-01-16 21:37:35.48	175.08	9.98	-53.0	-61.9	3.8	7.44e-01	0	34	104	3474980864	76	10678
2026-01-16 21:37:38.50	175.33	9.68	-52.9	-61.8	3.8	7.45e-01	0	34	104	3474980864	76	10559
2026-01-16 21:37:41.53	175.56	9.38	-52.9	-61.7	3.8	7.45e-01	0	34	104	3474980864	76	10513
2026-01-16 21:37:44.55	175.79	9.09	-52.9	-61.7	3.8	7.45e-01	0	34	104	3474980864	76	10449
2026-01-16 21:37:47.58	176.02	8.80	-52.9	-61.7	3.8	7.46e-01	0	34	104	3474980864	76	10485
2026-01-16 21:37:50.61	176.24	8.52	-52.8	-61.7	3.8	7.45e-01	0	34	104	3474980864	76	10417
2026-01-16 21:37:53.63	176.45	8.24	-52.8	-61.7	3.8	7.45e-01	0	34	104	3474980864	76	10459
2026-01-16 21:37:56.65	176.66	7.96	-52.7	-61.6	3.8	7.45e-01	0	34	104	3474980864	76	10310
2026-01-16 21:37:59.68	176.87	7.69	-52.8	-61.6	3.8	7.46e-01	0	34	104	3474980864	76	10351
2026-01-16 21:38:02.71	177.07	7.42	-52.7	-61.5	3.8	7.46e-01	0	34	104	3474980864	76	10231
2026-01-16 21:38:05.73	177.27	7.15	-52.7	-61.5	3.8	7.47e-01	0	34	104	3474980864	76	10258
2026-01-16 21:38:08.76	177.46	6.89	-52.6	-61.4	3.8	7.46e-01	0	34	104	3474980864	76	10104
2026-01-16 21:38:11.78	177.65	6.63	-52.6	-61.5	3.8	7.44e-01	0	34	104	3474980864	76	10232
2026-01-16 21:38:14.80	177.83	6.37	-52.5	-61.3	3.8	7.46e-01	0	34	104	3474980864	76	10022
2026-01-16 21:38:17.83	178.01	6.12	-52.5	-61.4	3.8	7.44e-01	0	34	104	3474980864	76	10111
2026-01-16 21:38:20.85	178.19	5.87	-52.4	-61.2	3.8	7.45e-01	0	35	104	3474980864	76	9936
2026-01-16 21:38:23.88	178.37	5.62	-52.5	-61.3	3.8	7.47e-01	0	34	104	3474980864	76	10025
2026-01-16 21:38:26.91	178.54	5.38	-52.4	-61.2	3.8	7.44e-01	0	34	104	3474980864	76	9872
2026-01-16 21:38:29.93	178.70	5.14	-52.4	-61.3	3.8	7.45e-01	0	34	104	3474980864	76	9952
2026-01-16 21:38:32.96	178.87	4.90	-52.9	-61.8	3.8	7.44e-01	0	34	104	3474980864	76	10567
2026-01-16 21:38:35.98	179.03	4.66	-53.7	-62.5	3.8	7.46e-01	0	34	104	3474980864	77	10838
2026-01-16 21:38:39.01	179.19	4.43	-53.9	-62.7	3.8	7.47e-01	0	34	104	3474980864	78	10501
2026-01-16 21:38:42.04	179.34	4.20	-54.1	-62.9	3.8	7.45e-01	0	34	104	3474980864	78	10733
2026-01-16 21:38:45.06	179.49	3.97	-54.2	-63.0	3.8	7.46e-01	0	34	104	3474980864	78	10877
2026-01-16 21:38:48.09	179.64	3.75	-54.2	-63.1	3.8	7.46e-01	0	34	104	3474980864	79	10339
2026-01-16 21:38:51.12	179.79	3.52	-54.3	-63.1	3.8	7.45e-01	0	34	104	3474980864	79	10354
2026-01-16 21:38:54.14	179.93	3.30	-54.3	-63.1	3.8	7.45e-01	0	34	104	3474980864	79	10300
2026-01-16 21:38:57.17	180.07	3.08	-54.2	-63.0	3.8	7.44e-01	0	34	104	3474980864	79	10263
2026-01-16 21:39:00.19	180.21	2.87	-54.1	-63.0	3.8	7.45e-01	0	35	104	3474980864	79	10229
2026-01-16 21:39:03.22	180.35	2.65	-54.1	-63.0	3.8	7.46e-01	0	34	104	3474980864	79	10239
2026-01-16 21:39:06.25	180.48	2.44	-54.1	-62.9	3.8	7.44e-01	0	34	104	3474980864	79	10159
2026-01-16 21:39:09.27	180.62	2.23	-54.1	-63.0	3.8	7.44e-01	0	34	104	3474980864	79	10186
2026-01-16 21:39:12.30	180.74	2.02	-54.1	-63.0	3.8	7.44e-01	0	34	104	3474980864	79	10176

#Closed at: 2026-01-16 21:39:15
#Recorded file [3474 MB]: D:/lorett/data/31041_260117_002851.dat