passes_logs/2026/01/16/R3.2S_Murmansk/R3.2S_Murmansk__20260116_043536_AQUA_rec.log

#Pass ID: 20260116_043536_AQUA
#Satellite: AQUA
#Configuration: AQUA
#almurnet v.1.7.20251203
#Start time: 2026-01-16 04:35:37

#Version: 2.2.20231116
#Station: R3.2S_Murmansk
#Location: 33.079688 lon 68.888172 lat
#TLE: 1 27424U 02022A   26015.51279194  .00000651  00000+0  14022-3 0  9990
#TLE: 2 27424  98.4082 341.9487 0002034  77.6776  33.2672 14.61821775260965

#Time	Az	El	Level	Level2	SNR	BER	BlckErr	Temp	State	Recorded	gain1	gain2
2026-01-16 04:35:37.20	33.76	2.06	-57.5	-75.3	3.8	7.48e-01	0	41	0	0	87	26587
2026-01-16 04:35:40.23	33.59	2.25	-57.5	-75.3	3.8	7.45e-01	0	42	104	0	85	29803
2026-01-16 04:35:43.26	33.41	2.44	-57.5	-75.3	3.8	7.44e-01	0	42	104	0	85	29773
2026-01-16 04:35:46.29	33.23	2.63	-57.5	-75.3	3.8	7.49e-01	0	42	104	0	85	29770
2026-01-16 04:35:49.32	33.04	2.82	-57.5	-75.3	3.8	7.46e-01	0	42	104	0	85	29700
2026-01-16 04:35:52.35	32.86	3.01	-57.5	-75.2	3.8	7.49e-01	0	42	104	0	85	29626
2026-01-16 04:35:55.38	32.67	3.20	-57.5	-75.3	3.8	7.49e-01	0	43	104	0	85	29733
2026-01-16 04:35:58.41	32.47	3.40	-57.5	-75.2	3.8	7.44e-01	0	43	104	0	85	29668
2026-01-16 04:36:01.44	32.28	3.59	-57.4	-75.2	3.8	7.45e-01	0	43	104	0	85	29453
2026-01-16 04:36:04.47	32.08	3.79	-57.5	-75.3	3.8	7.47e-01	0	43	104	0	85	29710
2026-01-16 04:36:07.50	31.88	3.98	-57.4	-74.9	3.8	7.45e-01	0	43	104	0	85	28485
2026-01-16 04:36:10.53	31.67	4.18	-57.3	-74.2	3.8	7.47e-01	0	43	104	0	85	26165
2026-01-16 04:36:13.56	31.46	4.38	-56.6	-71.6	3.8	7.49e-01	0	43	104	0	85	19536
2026-01-16 04:36:16.59	31.25	4.58	-55.9	-69.9	3.8	7.43e-01	0	44	104	0	83	18045
2026-01-16 04:36:19.62	31.03	4.79	-55.8	-69.8	3.8	7.45e-01	0	44	104	0	83	17733
2026-01-16 04:36:22.65	30.82	4.99	-56.1	-70.4	3.8	7.43e-01	0	44	104	0	83	19080
2026-01-16 04:36:25.68	30.59	5.19	-56.3	-70.9	3.8	7.48e-01	0	44	104	0	83	20123
2026-01-16 04:36:28.70	30.37	5.40	-54.7	-67.2	3.8	7.43e-01	0	44	104	0	81	14728
2026-01-16 04:36:31.74	30.14	5.61	-56.9	-71.2	3.8	7.49e-01	0	44	104	0	84	19737
2026-01-16 04:36:34.77	29.90	5.82	-54.8	-67.1	3.9	7.46e-01	0	44	104	0	81	14631
2026-01-16 04:36:37.80	29.67	6.03	-53.5	-65.2	3.8	7.45e-01	0	44	104	0	79	13202
2026-01-16 04:36:40.83	29.42	6.24	-53.2	-64.7	3.8	7.47e-01	0	44	104	0	76	14848
2026-01-16 04:36:43.86	29.18	6.45	-56.2	-69.6	3.8	7.49e-01	0	44	104	0	82	18485
2026-01-16 04:36:46.89	28.93	6.67	-53.0	-64.5	3.8	7.45e-01	0	45	104	0	77	13610
2026-01-16 04:36:49.92	28.68	6.89	-58.1	-75.5	3.8	7.48e-01	0	45	104	0	86	28791
2026-01-16 04:36:52.94	28.42	7.10	-53.5	-65.2	3.8	7.43e-01	0	45	104	0	79	13143
2026-01-16 04:36:55.97	28.16	7.32	-53.1	-64.7	3.8	7.45e-01	0	45	104	0	76	14760
2026-01-16 04:36:59.00	27.89	7.54	-53.8	-65.5	3.8	7.46e-01	0	45	104	0	79	13634
2026-01-16 04:37:02.03	27.62	7.77	-52.5	-63.8	3.8	7.46e-01	0	45	104	0	77	12607
2026-01-16 04:37:05.05	27.34	7.99	-52.9	-64.4	3.9	7.46e-01	0	45	104	0	76	14211
2026-01-16 04:37:08.08	27.06	8.22	-57.0	-71.1	3.8	7.46e-01	0	45	104	0	84	19539
2026-01-16 04:37:11.11	26.77	8.45	-52.8	-64.2	3.8	7.42e-01	0	45	104	0	77	13135
2026-01-16 04:37:14.14	26.48	8.67	-58.4	-75.7	3.8	7.43e-01	0	45	104	0	87	28018
2026-01-16 04:37:17.17	26.19	8.91	-52.9	-64.3	3.8	7.44e-01	0	45	104	0	77	13345
2026-01-16 04:37:20.20	25.88	9.14	-52.0	-63.3	3.8	7.44e-01	0	46	104	0	75	13339
2026-01-16 04:37:23.23	25.58	9.37	-52.9	-64.0	3.8	7.45e-01	0	45	104	0	77	12838
2026-01-16 04:37:26.26	25.26	9.61	-52.1	-63.3	3.8	7.47e-01	0	46	104	0	76	12555
2026-01-16 04:37:29.29	24.94	9.85	-53.5	-65.0	3.8	7.43e-01	0	46	104	0	77	14402
2026-01-16 04:37:32.33	24.62	10.09	-56.0	-68.9	3.9	7.40e-01	0	46	104	0	84	15113
2026-01-16 04:37:35.36	24.29	10.33	-52.6	-63.9	3.8	7.47e-01	0	46	104	0	75	14247
2026-01-16 04:37:38.38	23.95	10.57	-57.5	-72.4	3.9	7.42e-01	0	46	104	0	87	19166
2026-01-16 04:37:41.42	23.61	10.82	-52.5	-63.7	3.8	7.44e-01	0	46	104	0	76	13186
2026-01-16 04:37:44.45	23.26	11.06	-51.5	-62.7	3.8	7.43e-01	0	46	104	0	75	12378
2026-01-16 04:37:47.48	22.90	11.31	-52.0	-63.1	3.8	7.44e-01	0	46	104	0	76	12275
2026-01-16 04:37:50.51	22.54	11.56	-51.7	-62.9	3.9	7.42e-01	0	46	104	0	75	12690
2026-01-16 04:37:53.53	22.17	11.81	-56.0	-68.8	3.8	7.45e-01	0	46	104	0	82	16729
2026-01-16 04:37:56.56	21.79	12.06	-53.4	-65.0	3.8	7.43e-01	0	46	104	0	79	12942
2026-01-16 04:37:59.59	21.41	12.32	-51.8	-62.8	3.9	7.47e-01	0	47	104	0	74	13297
2026-01-16 04:38:02.61	21.02	12.57	-54.2	-66.0	3.9	7.45e-01	0	46	104	0	80	13588
2026-01-16 04:38:05.64	20.62	12.83	-51.4	-62.4	3.8	7.47e-01	0	46	104	0	74	12681
2026-01-16 04:38:08.67	20.21	13.09	-51.0	-62.0	3.8	7.45e-01	0	47	104	0	74	12146
2026-01-16 04:38:11.69	19.80	13.35	-52.7	-63.9	3.8	7.48e-01	0	47	104	0	75	14333
2026-01-16 04:38:14.72	19.38	13.62	-50.8	-61.7	3.8	7.47e-01	0	47	104	0	73	12504
2026-01-16 04:38:17.75	18.94	13.88	-57.8	-72.7	3.8	7.47e-01	0	47	104	0	86	20785
2026-01-16 04:38:20.78	18.50	14.15	-51.8	-62.9	3.9	7.45e-01	0	46	104	0	75	12721
2026-01-16 04:38:23.80	18.06	14.42	-53.7	-65.2	3.9	7.47e-01	0	47	104	0	77	14813
2026-01-16 04:38:26.83	17.60	14.69	-53.6	-65.1	3.9	7.41e-01	0	47	104	0	79	12966
2026-01-16 04:38:29.86	17.13	14.96	-50.9	-61.8	3.8	7.44e-01	0	47	104	0	73	12639
2026-01-16 04:38:32.89	16.65	15.23	-50.8	-61.7	3.8	7.44e-01	0	47	104	0	73	12497
2026-01-16 04:38:35.91	16.17	15.51	-55.4	-67.7	3.9	7.46e-01	0	47	104	0	81	15669
2026-01-16 04:38:38.94	15.67	15.78	-50.7	-61.6	3.8	7.46e-01	0	47	104	0	73	12267
2026-01-16 04:38:41.97	15.17	16.06	-58.7	-75.2	3.7	7.47e-01	0	47	104	0	87	26309
2026-01-16 04:38:45.00	14.65	16.34	-51.3	-62.3	3.8	7.42e-01	0	47	104	0	74	12550
2026-01-16 04:38:48.03	14.13	16.62	-54.4	-66.2	3.8	7.45e-01	0	47	104	0	79	14709
2026-01-16 04:38:51.06	13.59	16.90	-53.7	-65.1	3.8	7.42e-01	0	47	104	0	79	13087
2026-01-16 04:38:54.08	13.04	17.18	-50.8	-61.7	3.8	7.49e-01	0	47	104	0	73	12507
2026-01-16 04:38:57.10	12.48	17.46	-51.3	-62.3	3.8	7.44e-01	0	47	104	0	73	13316
2026-01-16 04:39:00.13	11.91	17.75	-55.2	-67.4	3.8	7.45e-01	0	47	104	0	81	15109
2026-01-16 04:39:03.15	11.33	18.03	-50.5	-61.4	3.8	7.47e-01	0	47	104	0	73	12084
2026-01-16 04:39:06.18	10.74	18.31	-58.5	-74.7	3.9	7.45e-01	0	47	104	0	88	23472
2026-01-16 04:39:09.20	10.13	18.60	-51.2	-62.1	3.8	7.44e-01	0	47	104	0	74	12254
2026-01-16 04:39:12.22	9.52	18.88	-52.6	-63.9	3.8	7.40e-01	0	47	104	0	77	12695
2026-01-16 04:39:15.25	8.88	19.17	-52.2	-63.4	3.8	7.45e-01	0	47	104	0	76	12694
2026-01-16 04:39:18.28	8.24	19.46	-51.0	-62.1	3.8	7.48e-01	0	47	104	0	73	12973
2026-01-16 04:39:21.30	7.59	19.74	-53.4	-64.9	3.8	7.43e-01	0	47	104	0	77	14266
2026-01-16 04:39:24.33	6.91	20.03	-53.9	-65.5	3.9	7.47e-01	0	47	104	0	79	13574
2026-01-16 04:39:27.36	6.23	20.31	-50.1	-60.9	3.9	7.44e-01	0	47	104	0	71	12724
2026-01-16 04:39:30.39	5.53	20.60	-57.0	-70.4	3.8	7.44e-01	0	47	104	0	86	16021
2026-01-16 04:39:33.41	4.82	20.88	-51.0	-61.9	3.8	7.44e-01	0	48	104	0	73	12754
2026-01-16 04:39:36.44	4.10	21.16	-52.1	-63.2	3.8	7.46e-01	0	47	104	0	76	12448
2026-01-16 04:39:39.47	3.36	21.44	-51.2	-62.1	3.9	7.46e-01	0	47	104	0	74	12330
2026-01-16 04:39:42.50	2.60	21.72	-51.1	-62.1	3.8	7.50e-01	0	47	104	0	74	12289
2026-01-16 04:39:45.53	1.84	22.00	-55.7	-67.9	3.8	7.43e-01	0	48	104	0	81	15991
2026-01-16 04:39:48.56	1.05	22.28	-52.5	-63.7	3.8	7.45e-01	0	47	104	0	77	12392
2026-01-16 04:39:51.59	0.25	22.55	-50.7	-61.6	3.8	7.44e-01	0	48	104	0	73	12326
2026-01-16 04:39:54.62	359.44	22.82	-54.4	-66.0	3.9	7.44e-01	0	48	104	0	80	13613
2026-01-16 04:39:57.65	358.61	23.09	-50.9	-61.7	3.8	7.42e-01	0	47	104	0	73	12501
2026-01-16 04:40:00.68	357.77	23.35	-51.2	-62.2	3.9	7.47e-01	0	48	104	0	74	12469
2026-01-16 04:40:03.71	356.91	23.61	-52.5	-63.6	3.8	7.46e-01	0	48	104	0	75	13771
2026-01-16 04:40:06.74	356.04	23.87	-50.6	-61.5	3.8	7.44e-01	0	47	104	0	73	12152
2026-01-16 04:40:09.77	355.15	24.12	-57.6	-71.2	3.8	7.42e-01	0	48	104	0	85	18689
2026-01-16 04:40:12.79	354.25	24.37	-51.3	-62.2	3.8	7.44e-01	0	48	104	0	74	12498
2026-01-16 04:40:15.82	353.33	24.61	-51.4	-62.5	3.9	7.46e-01	0	48	104	0	73	13623
2026-01-16 04:40:18.85	352.40	24.84	-54.7	-66.5	3.8	7.47e-01	0	48	104	0	81	13714
2026-01-16 04:40:21.88	351.45	25.07	-50.7	-61.6	3.8	7.43e-01	0	48	104	0	73	12292
2026-01-16 04:40:24.91	350.49	25.30	-50.3	-61.1	3.8	7.43e-01	0	48	104	0	72	12341
2026-01-16 04:40:27.94	349.51	25.52	-54.0	-65.5	3.8	7.46e-01	0	48	104	0	78	14509
2026-01-16 04:40:30.97	348.52	25.73	-50.5	-61.4	3.8	7.45e-01	0	48	104	0	73	11993
2026-01-16 04:40:33.99	347.52	25.93	-58.5	-73.5	3.9	7.47e-01	0	48	104	0	87	21689
2026-01-16 04:40:37.02	346.50	26.12	-50.4	-61.3	3.8	7.45e-01	0	48	104	0	72	12614
2026-01-16 04:40:40.05	345.47	26.31	-53.9	-65.5	3.8	7.40e-01	0	48	104	0	78	14520
2026-01-16 04:40:43.08	344.43	26.49	-54.2	-65.8	3.8	7.44e-01	0	48	104	0	80	13377
2026-01-16 04:40:46.11	343.37	26.66	-50.2	-61.0	3.8	7.44e-01	0	48	104	0	72	12217
2026-01-16 04:40:49.14	342.31	26.82	-50.3	-61.1	3.8	7.42e-01	0	48	104	0	72	12304
2026-01-16 04:40:52.17	341.23	26.97	-54.2	-65.8	3.8	7.44e-01	0	48	104	0	78	15000
2026-01-16 04:40:55.20	340.14	27.11	-49.8	-60.6	3.8	7.43e-01	0	48	104	0	71	12307
2026-01-16 04:40:58.23	339.04	27.24	-57.2	-70.5	3.9	7.44e-01	0	48	104	0	86	16205
2026-01-16 04:41:01.26	337.94	27.36	-50.5	-61.3	3.8	7.44e-01	0	48	104	0	72	12655
2026-01-16 04:41:04.29	336.82	27.46	-51.9	-62.8	3.8	7.45e-01	0	48	104	0	75	12561
2026-01-16 04:41:07.31	335.70	27.56	-50.8	-61.7	3.8	7.45e-01	0	48	104	0	73	12386
2026-01-16 04:41:10.34	334.57	27.65	-50.0	-60.8	3.8	7.45e-01	0	48	104	0	71	12556
2026-01-16 04:41:13.37	333.44	27.72	-51.8	-63.1	3.8	7.44e-01	0	48	104	0	74	13800
2026-01-16 04:41:16.39	332.30	27.78	-52.9	-64.0	3.8	7.48e-01	0	48	104	0	77	12898
2026-01-16 04:41:19.42	331.16	27.83	-50.2	-61.0	3.8	7.45e-01	0	48	104	0	71	12859
2026-01-16 04:41:22.46	330.01	27.86	-55.1	-66.8	3.8	7.45e-01	0	48	104	0	82	13394
2026-01-16 04:41:25.48	328.86	27.89	-50.2	-61.0	3.8	7.46e-01	0	48	104	0	72	12154
2026-01-16 04:41:28.51	327.71	27.90	-50.8	-61.7	3.9	7.44e-01	0	48	104	0	73	12402
2026-01-16 04:41:31.55	326.56	27.90	-50.2	-61.0	3.8	7.40e-01	0	48	104	0	72	12183
2026-01-16 04:41:34.58	325.41	27.89	-50.0	-60.8	3.8	7.43e-01	0	48	104	0	72	11828
2026-01-16 04:41:37.61	324.26	27.86	-55.9	-68.1	3.8	7.46e-01	0	48	104	0	82	15463
2026-01-16 04:41:40.64	323.11	27.82	-50.8	-61.8	3.9	7.47e-01	0	48	104	0	73	12664
2026-01-16 04:41:43.66	321.97	27.77	-50.5	-61.3	3.8	7.46e-01	0	48	104	0	72	12625
2026-01-16 04:41:46.69	320.83	27.71	-54.7	-57.2	19.1	6.03e-01	0	48	0	2097152	81	4656
2026-01-16 04:41:49.72	319.69	27.64	-50.8	-52.1	24.0	6.05e-01	0	48	0	7864320	73	4145
2026-01-16 04:41:52.75	318.57	27.55	-50.5	-51.8	24.3	6.01e-01	0	48	0	13107200	72	4218
2026-01-16 04:41:55.78	317.44	27.45	-50.5	-51.9	24.1	6.03e-01	0	48	0	18874368	72	4249
2026-01-16 04:41:58.81	316.33	27.34	-49.6	-50.8	25.5	6.01e-01	0	48	0	24641536	70	4207
2026-01-16 04:42:01.84	315.22	27.22	-50.5	-51.9	24.1	6.02e-01	0	48	0	30408704	72	4244
2026-01-16 04:42:04.87	314.13	27.09	-49.4	-50.6	25.6	6.04e-01	0	48	0	36175872	70	4112
2026-01-16 04:42:07.89	313.04	26.95	-50.7	-52.2	23.9	6.05e-01	0	49	0	41418752	72	4396
2026-01-16 04:42:10.92	311.96	26.80	-49.7	-50.9	25.2	6.05e-01	0	48	0	47185920	71	4020
2026-01-16 04:42:13.95	310.90	26.64	-49.6	-50.8	25.5	6.05e-01	0	48	0	52953088	71	3992
2026-01-16 04:42:16.98	309.84	26.47	-50.4	-51.7	24.6	6.04e-01	0	49	0	58720256	71	4440
2026-01-16 04:42:20.01	308.80	26.29	-50.7	-52.1	24.1	6.02e-01	0	48	0	64487424	72	4371
2026-01-16 04:42:23.03	307.77	26.10	-50.3	-51.6	24.6	6.05e-01	0	49	0	70254592	71	4373
2026-01-16 04:42:26.07	306.75	25.91	-50.1	-51.4	24.9	6.03e-01	0	49	0	75497472	71	4259
2026-01-16 04:42:29.09	305.75	25.70	-50.4	-51.7	24.4	6.05e-01	0	48	0	81264640	71	4438
2026-01-16 04:42:32.12	304.76	25.49	-50.1	-51.4	24.8	6.02e-01	0	48	0	87031808	72	4013
2026-01-16 04:42:35.15	303.78	25.27	-50.4	-51.7	24.5	6.03e-01	0	48	0	92798976	72	4182
2026-01-16 04:42:38.18	302.82	25.05	-51.0	-52.5	23.7	6.04e-01	0	48	0	98566144	72	4564
2026-01-16 04:42:41.21	301.87	24.82	-50.5	-51.8	23.9	6.04e-01	0	48	0	104333312	73	3990
2026-01-16 04:42:44.23	300.94	24.58	-50.4	-51.8	24.1	6.02e-01	0	48	0	110100480	72	4202
2026-01-16 04:42:47.26	300.02	24.34	-50.4	-51.7	24.3	6.04e-01	0	48	0	115343360	72	4175
2026-01-16 04:42:50.29	299.12	24.09	-50.3	-51.6	24.5	6.03e-01	0	48	0	121110528	72	4127
2026-01-16 04:42:53.32	298.23	23.84	-50.1	-51.4	24.4	6.06e-01	0	49	0	126877696	72	4035
2026-01-16 04:42:56.34	297.36	23.58	-50.7	-52.1	24.2	6.02e-01	0	48	0	132644864	72	4363
2026-01-16 04:42:59.38	296.50	23.32	-50.5	-51.8	24.4	6.04e-01	0	49	0	138412032	72	4231
2026-01-16 04:43:02.41	295.66	23.05	-50.4	-51.7	24.5	6.03e-01	0	48	0	144179200	72	4159
2026-01-16 04:43:05.44	294.83	22.78	-50.4	-51.8	24.4	6.03e-01	0	48	0	149422080	72	4202
2026-01-16 04:43:08.46	294.02	22.51	-50.8	-52.2	23.9	6.05e-01	0	48	0	155189248	72	4439
2026-01-16 04:43:11.49	293.22	22.24	-50.4	-51.8	24.4	6.04e-01	0	49	0	160956416	72	4197
2026-01-16 04:43:14.52	292.44	21.96	-50.4	-51.8	24.3	6.04e-01	0	49	0	166723584	72	4201
2026-01-16 04:43:17.54	291.67	21.69	-50.8	-52.2	23.8	6.05e-01	0	48	0	172490752	72	4439
2026-01-16 04:43:20.58	290.91	21.40	-50.2	-51.4	24.6	6.03e-01	0	48	0	177733632	72	4037
2026-01-16 04:43:23.60	290.18	21.12	-50.2	-51.5	24.6	6.02e-01	0	49	0	183500800	71	4305
2026-01-16 04:43:26.63	289.45	20.84	-50.9	-52.3	23.8	6.04e-01	0	48	0	189267968	72	4489
2026-01-16 04:43:29.66	288.74	20.56	-50.6	-52.0	24.2	6.03e-01	0	49	0	195035136	72	4298
2026-01-16 04:43:32.69	288.04	20.27	-50.9	-52.4	23.7	6.04e-01	0	48	0	200802304	72	4529
2026-01-16 04:43:35.72	287.36	19.98	-50.7	-52.1	23.9	6.04e-01	0	49	0	206569472	72	4369
2026-01-16 04:43:38.75	286.68	19.70	-50.7	-52.1	23.8	6.03e-01	0	49	0	211812352	72	4366
2026-01-16 04:43:41.77	286.03	19.41	-51.0	-52.5	23.4	6.06e-01	0	49	0	217579520	73	4300
2026-01-16 04:43:44.80	285.38	19.13	-50.7	-52.2	23.9	6.01e-01	0	49	0	223346688	72	4393
2026-01-16 04:43:47.83	284.75	18.84	-51.1	-52.6	23.5	6.04e-01	0	49	0	229113856	72	4621
2026-01-16 04:43:50.86	284.13	18.55	-50.2	-51.5	24.4	6.02e-01	0	49	0	234881024	71	4295
2026-01-16 04:43:53.89	283.53	18.27	-50.2	-51.5	24.5	6.02e-01	0	49	0	240123904	72	4057
2026-01-16 04:43:56.91	282.93	17.98	-50.4	-51.8	24.2	6.05e-01	0	49	0	246415360	72	4198
2026-01-16 04:43:59.94	282.35	17.70	-51.0	-52.6	23.5	6.03e-01	0	49	0	251658240	72	4611
2026-01-16 04:44:02.97	281.78	17.41	-50.2	-51.5	24.5	6.04e-01	0	49	0	257425408	72	4072
2026-01-16 04:44:06.00	281.22	17.13	-50.4	-51.7	24.2	6.03e-01	0	49	0	263192576	72	4168
2026-01-16 04:44:09.03	280.67	16.85	-50.5	-52.0	24.1	6.04e-01	0	49	0	268959744	72	4299
2026-01-16 04:44:12.05	280.13	16.57	-50.2	-51.5	24.4	6.03e-01	0	49	0	274726912	72	4064
2026-01-16 04:44:15.08	279.61	16.29	-50.7	-52.1	24.0	6.05e-01	0	49	0	279969792	72	4357
2026-01-16 04:44:18.11	279.09	16.01	-50.3	-51.7	24.2	6.02e-01	0	49	0	285736960	72	4147
2026-01-16 04:44:21.14	278.58	15.73	-50.4	-51.7	24.2	6.05e-01	0	49	0	291504128	72	4188
2026-01-16 04:44:24.17	278.09	15.45	-50.5	-51.8	24.1	6.03e-01	0	49	0	297271296	72	4236
2026-01-16 04:44:27.20	277.60	15.18	-50.4	-51.8	24.1	6.04e-01	0	49	0	303038464	72	4222
2026-01-16 04:44:30.23	277.13	14.90	-50.7	-52.1	23.8	6.03e-01	0	49	0	308805632	72	4384
2026-01-16 04:44:33.26	276.66	14.63	-50.2	-51.5	24.3	6.03e-01	0	48	0	314048512	72	4094
2026-01-16 04:44:36.29	276.20	14.36	-50.1	-51.5	24.4	6.03e-01	0	49	0	319815680	72	4057
2026-01-16 04:44:39.31	275.75	14.09	-50.5	-51.9	23.9	6.04e-01	0	49	0	325582848	72	4265
2026-01-16 04:44:42.34	275.31	13.83	-50.4	-51.8	24.0	6.04e-01	0	49	0	331350016	72	4240
2026-01-16 04:44:45.37	274.88	13.56	-50.3	-51.6	24.2	6.03e-01	0	49	0	337117184	72	4132
2026-01-16 04:44:48.40	274.46	13.30	-50.4	-51.7	24.1	6.04e-01	0	49	0	342884352	72	4192
2026-01-16 04:44:51.42	274.04	13.04	-50.6	-52.1	23.7	6.02e-01	0	49	0	348127232	72	4356
2026-01-16 04:44:54.45	273.63	12.77	-50.5	-51.9	23.8	6.02e-01	0	49	0	353894400	72	4278
2026-01-16 04:44:57.48	273.23	12.52	-50.3	-51.6	24.1	6.02e-01	0	49	0	359661568	72	4126
2026-01-16 04:45:00.51	272.84	12.26	-50.3	-51.7	24.1	6.04e-01	0	49	0	365428736	72	4168
2026-01-16 04:45:03.53	272.46	12.00	-50.7	-52.2	23.5	6.05e-01	0	49	0	371195904	72	4397
2026-01-16 04:45:06.56	272.08	11.75	-50.6	-52.0	23.7	6.04e-01	0	49	0	376438784	72	4331
2026-01-16 04:45:09.59	271.71	11.50	-50.5	-51.9	23.7	6.05e-01	0	49	0	382205952	72	4273
2026-01-16 04:45:12.62	271.35	11.25	-50.8	-52.2	23.4	6.02e-01	0	49	0	387973120	72	4441
2026-01-16 04:45:15.65	270.99	11.00	-50.7	-52.2	23.4	6.02e-01	0	49	0	393740288	72	4425
2026-01-16 04:45:18.68	270.64	10.75	-50.8	-52.4	23.2	6.03e-01	0	49	0	399507456	72	4501
2026-01-16 04:45:21.70	270.30	10.51	-51.5	-53.1	22.3	6.04e-01	0	49	0	405274624	73	4640
2026-01-16 04:45:24.73	269.96	10.27	-51.9	-53.7	21.6	6.05e-01	0	49	0	411041792	74	4692
2026-01-16 04:45:27.76	269.63	10.02	-51.9	-53.8	21.4	6.04e-01	0	49	0	416284672	74	4728
2026-01-16 04:45:30.79	269.30	9.78	-52.8	-55.0	20.0	6.05e-01	0	49	0	422051840	76	4861
2026-01-16 04:45:33.83	268.98	9.55	-54.7	-58.3	16.4	6.03e-01	0	49	0	427819008	80	5620
2026-01-16 04:45:36.86	268.67	9.31	-56.0	-61.4	13.0	6.05e-01	0	49	0	433586176	82	7132
2026-01-16 04:45:39.89	268.36	9.08	-55.2	-59.4	15.0	6.03e-01	0	49	0	439353344	82	5706
2026-01-16 04:45:42.92	268.06	8.84	-53.7	-56.6	17.9	6.03e-01	0	48	0	445120512	79	4879
2026-01-16 04:45:45.95	267.76	8.61	-54.1	-57.2	17.5	6.05e-01	0	49	0	450363392	79	5220
2026-01-16 04:45:48.97	267.47	8.38	-53.6	-56.2	18.5	6.03e-01	0	48	0	456130560	79	4685
2026-01-16 04:45:52.00	267.18	8.15	-52.2	-54.3	20.5	6.03e-01	0	49	0	461897728	76	4466
2026-01-16 04:45:55.03	266.90	7.93	-51.7	-53.5	21.4	6.05e-01	0	49	0	467664896	75	4339
2026-01-16 04:45:58.06	266.62	7.70	-51.4	-53.2	21.3	6.04e-01	0	48	0	473432064	74	4418
2026-01-16 04:46:01.09	266.35	7.48	-51.2	-52.9	22.4	6.03e-01	0	49	0	478674944	74	4258
2026-01-16 04:46:04.12	266.08	7.26	-51.1	-52.7	22.6	6.02e-01	0	49	0	484442112	74	4158
2026-01-16 04:46:07.15	265.82	7.04	-51.6	-53.4	21.9	6.02e-01	0	49	0	490209280	74	4512
2026-01-16 04:46:10.18	265.56	6.82	-51.5	-53.2	22.1	6.03e-01	0	49	0	495976448	74	4433
2026-01-16 04:46:13.21	265.30	6.60	-51.2	-52.9	22.5	6.01e-01	0	49	0	501743616	74	4259
2026-01-16 04:46:16.24	265.05	6.39	-51.6	-53.3	22.0	6.03e-01	0	49	0	507510784	74	4477
2026-01-16 04:46:19.27	264.81	6.17	-51.7	-53.4	21.9	6.04e-01	0	49	0	512753664	74	4541
2026-01-16 04:46:22.31	264.56	5.96	-52.0	-53.8	21.4	6.03e-01	0	49	0	519045120	75	4489
2026-01-16 04:46:25.34	264.33	5.75	-51.9	-53.7	21.6	6.02e-01	0	49	0	524288000	75	4413
2026-01-16 04:46:28.36	264.09	5.54	-52.4	-54.4	20.8	6.02e-01	0	49	0	530055168	76	4502
2026-01-16 04:46:31.39	263.86	5.33	-52.3	-54.2	20.9	6.04e-01	0	49	0	535822336	75	4705
2026-01-16 04:46:34.42	263.63	5.13	-52.3	-54.2	20.8	6.04e-01	0	49	0	541589504	75	4702
2026-01-16 04:46:37.45	263.41	4.92	-58.7	-76.3	3.8	7.47e-01	0	49	104	545783808	87	29775
2026-01-16 04:46:40.48	263.19	4.72	-59.3	-77.0	3.8	7.46e-01	0	49	104	545783808	89	28979
2026-01-16 04:46:43.51	262.97	4.52	-59.6	-77.4	3.8	7.44e-01	0	49	104	545783808	89	30079
2026-01-16 04:46:46.54	262.76	4.31	-59.8	-77.5	3.8	7.44e-01	0	49	104	545783808	90	28975
2026-01-16 04:46:49.57	262.55	4.11	-59.9	-77.6	3.8	7.45e-01	0	49	104	545783808	90	29335
2026-01-16 04:46:52.60	262.35	3.92	-59.9	-77.7	3.8	7.45e-01	0	49	104	545783808	90	29553
2026-01-16 04:46:55.63	262.14	3.72	-60.0	-77.8	3.8	7.45e-01	0	49	104	545783808	90	29890
2026-01-16 04:46:58.66	261.94	3.52	-59.9	-77.7	3.8	7.45e-01	0	49	104	545783808	90	29676
2026-01-16 04:47:01.69	261.75	3.33	-59.9	-77.7	3.8	7.45e-01	0	49	104	545783808	90	29366
2026-01-16 04:47:04.72	261.55	3.13	-59.8	-77.6	3.8	7.48e-01	0	49	104	545783808	90	29267
2026-01-16 04:47:07.74	261.36	2.94	-59.8	-77.6	3.8	7.46e-01	0	49	104	545783808	90	29100
2026-01-16 04:47:10.77	261.17	2.75	-59.8	-77.6	3.8	7.47e-01	0	49	104	545783808	90	29253
2026-01-16 04:47:13.80	260.99	2.56	-59.8	-77.6	3.8	7.49e-01	0	49	104	545783808	90	29077
2026-01-16 04:47:16.83	260.80	2.37	-59.8	-77.6	3.8	7.47e-01	0	49	104	545783808	90	29103
2026-01-16 04:47:19.86	260.62	2.18	-59.7	-77.5	3.8	7.44e-01	0	49	104	545783808	90	28855
2026-01-16 04:47:22.89	260.45	2.00	-59.7	-77.5	3.8	7.46e-01	0	49	104	545783808	90	28792

#Closed at: 2026-01-16 04:47:25
#Recorded file [545 MB]: D:/lorett/data/31041_260116_073537.dat