passes_logs/2026/01/16/R3.2S_Murmansk/R3.2S_Murmansk__20260116_110104_AQUA_rec.log

#Pass ID: 20260116_110104_AQUA
#Satellite: AQUA
#Configuration: AQUA
#almurnet v.1.7.20251203
#Start time: 2026-01-16 11:01:06

#Version: 2.2.20231116
#Station: R3.2S_Murmansk
#Location: 33.079688 lon 68.888172 lat
#TLE: 1 27424U 02022A   26015.92015591  .00000664  00000+0  14289-3 0  9993
#TLE: 2 27424  98.4082 342.3630 0002020  77.1389  16.3168 14.61822470261023

#Time	Az	El	Level	Level2	SNR	BER	BlckErr	Temp	State	Recorded	gain1	gain2
2026-01-16 11:01:06.42	145.64	2.12	-60.0	-77.4	3.8	7.47e-01	0	42	0	0	90	28356
2026-01-16 11:01:09.45	145.62	2.32	-60.0	-77.4	3.8	7.44e-01	0	42	104	0	90	28390
2026-01-16 11:01:12.48	145.60	2.53	-60.0	-77.3	3.8	7.48e-01	0	42	104	0	90	28349
2026-01-16 11:01:15.50	145.58	2.73	-60.0	-77.4	3.8	7.44e-01	0	43	104	0	90	28382
2026-01-16 11:01:18.52	145.55	2.94	-60.0	-77.4	3.8	7.46e-01	0	43	104	0	90	28358
2026-01-16 11:01:21.55	145.53	3.15	-60.0	-77.4	3.8	7.44e-01	0	43	104	0	90	28426
2026-01-16 11:01:24.58	145.51	3.36	-60.0	-77.4	3.8	7.43e-01	0	43	104	0	90	28373
2026-01-16 11:01:27.60	145.48	3.58	-60.0	-77.4	3.8	7.45e-01	0	43	104	0	90	28418
2026-01-16 11:01:30.63	145.46	3.79	-60.0	-77.4	3.8	7.47e-01	0	43	104	0	90	28363
2026-01-16 11:01:33.66	145.44	4.01	-60.0	-77.4	3.8	7.45e-01	0	43	104	0	90	28360
2026-01-16 11:01:36.68	145.41	4.23	-60.0	-77.3	3.8	7.49e-01	0	44	104	0	90	28309
2026-01-16 11:01:39.71	145.39	4.45	-60.0	-77.4	3.8	7.47e-01	0	44	104	0	90	28370
2026-01-16 11:01:42.73	145.36	4.67	-60.0	-77.4	3.8	7.48e-01	0	44	104	0	90	28443
2026-01-16 11:01:45.76	145.33	4.90	-60.0	-77.4	3.8	7.45e-01	0	44	104	0	90	28366
2026-01-16 11:01:48.78	145.30	5.12	-60.0	-77.4	3.8	7.47e-01	0	44	104	0	90	28391
2026-01-16 11:01:51.81	145.28	5.35	-60.0	-77.4	3.8	7.43e-01	0	44	104	0	90	28422
2026-01-16 11:01:54.83	145.25	5.58	-60.0	-77.4	3.8	7.46e-01	0	45	104	0	90	28359
2026-01-16 11:01:57.86	145.22	5.82	-60.0	-77.4	3.8	7.48e-01	0	45	104	0	90	28392
2026-01-16 11:02:00.89	145.19	6.06	-60.0	-77.4	3.8	7.44e-01	0	44	104	0	90	28375
2026-01-16 11:02:03.91	145.16	6.29	-60.0	-77.4	3.8	7.44e-01	0	45	104	0	90	28500
2026-01-16 11:02:06.94	145.13	6.54	-60.0	-77.4	3.8	7.44e-01	0	45	104	0	90	28414
2026-01-16 11:02:09.96	145.09	6.78	-60.0	-77.3	3.8	7.44e-01	0	45	104	0	90	28336
2026-01-16 11:02:12.99	145.06	7.03	-60.0	-77.4	3.8	7.48e-01	0	45	104	0	90	28403
2026-01-16 11:02:16.02	145.03	7.27	-60.0	-77.4	3.8	7.47e-01	0	45	104	0	90	28467
2026-01-16 11:02:19.04	144.99	7.53	-60.0	-77.4	3.8	7.47e-01	0	45	104	0	90	28378
2026-01-16 11:02:22.07	144.96	7.78	-60.0	-77.4	3.8	7.50e-01	0	45	104	0	90	28360
2026-01-16 11:02:25.09	144.92	8.04	-60.0	-77.4	3.8	7.47e-01	0	45	104	0	90	28403
2026-01-16 11:02:28.12	144.88	8.30	-60.0	-77.4	3.8	7.46e-01	0	45	104	0	90	28383
2026-01-16 11:02:31.15	144.84	8.56	-60.0	-77.4	3.8	7.44e-01	0	46	104	0	90	28391
2026-01-16 11:02:34.17	144.80	8.83	-60.0	-77.4	3.8	7.44e-01	0	46	104	0	90	28486
2026-01-16 11:02:37.20	144.76	9.10	-60.0	-77.3	3.8	7.46e-01	0	46	104	0	90	28333
2026-01-16 11:02:40.22	144.72	9.37	-60.0	-77.3	3.8	7.41e-01	0	46	104	0	90	28304
2026-01-16 11:02:43.25	144.68	9.65	-60.0	-77.4	3.8	7.42e-01	0	46	104	0	90	28416
2026-01-16 11:02:46.27	144.64	9.93	-60.0	-77.4	3.8	7.43e-01	0	46	104	0	90	28447
2026-01-16 11:02:49.30	144.59	10.21	-60.0	-77.4	3.8	7.45e-01	0	46	104	0	90	28442
2026-01-16 11:02:52.32	144.55	10.50	-60.1	-77.4	3.8	7.47e-01	0	46	104	0	90	28448
2026-01-16 11:02:55.34	144.50	10.79	-60.1	-77.4	3.8	7.47e-01	0	46	104	0	90	28439
2026-01-16 11:02:58.37	144.45	11.08	-60.0	-77.4	3.8	7.45e-01	0	47	104	0	90	28387
2026-01-16 11:03:01.39	144.40	11.38	-60.0	-77.4	3.8	7.44e-01	0	46	104	0	90	28411
2026-01-16 11:03:04.41	144.35	11.68	-60.1	-77.3	3.8	7.48e-01	0	46	104	0	90	28340
2026-01-16 11:03:07.44	144.30	11.99	-60.1	-77.4	3.8	7.45e-01	0	46	104	0	90	28408
2026-01-16 11:03:10.46	144.24	12.30	-60.1	-77.4	3.8	7.40e-01	0	47	104	0	90	28455
2026-01-16 11:03:13.48	144.19	12.61	-60.1	-77.4	3.8	7.44e-01	0	47	104	0	90	28517
2026-01-16 11:03:16.51	144.13	12.93	-60.1	-77.4	3.8	7.46e-01	0	47	104	0	90	28402
2026-01-16 11:03:19.53	144.07	13.26	-60.1	-77.4	3.8	7.46e-01	0	47	104	0	90	28440
2026-01-16 11:03:22.56	144.01	13.59	-60.1	-77.4	3.8	7.45e-01	0	47	104	0	90	28482
2026-01-16 11:03:25.58	143.95	13.92	-60.1	-77.4	3.8	7.45e-01	0	47	104	0	90	28533
2026-01-16 11:03:28.61	143.89	14.26	-60.1	-77.4	3.8	7.45e-01	0	47	104	0	90	28507
2026-01-16 11:03:31.63	143.82	14.60	-60.1	-77.4	3.8	7.45e-01	0	47	104	0	90	28473
2026-01-16 11:03:34.66	143.76	14.96	-60.1	-77.4	3.8	7.44e-01	0	47	104	0	90	28419
2026-01-16 11:03:37.69	143.69	15.31	-60.1	-77.4	3.8	7.44e-01	0	47	104	0	90	28478
2026-01-16 11:03:40.72	143.61	15.67	-60.1	-77.4	3.8	7.47e-01	0	47	104	0	90	28498
2026-01-16 11:03:43.75	143.54	16.04	-60.1	-77.4	3.8	7.44e-01	0	47	104	0	90	28514
2026-01-16 11:03:46.77	143.47	16.42	-60.1	-77.4	3.8	7.46e-01	0	47	104	0	90	28511
2026-01-16 11:03:49.80	143.39	16.80	-60.1	-77.4	3.8	7.43e-01	0	47	104	0	90	28472
2026-01-16 11:03:52.82	143.31	17.18	-60.1	-77.4	3.8	7.47e-01	0	47	104	0	90	28459
2026-01-16 11:03:55.85	143.22	17.58	-60.1	-77.4	3.8	7.44e-01	0	47	104	0	90	28476
2026-01-16 11:03:58.88	143.14	17.98	-60.1	-77.4	3.8	7.41e-01	0	48	104	0	90	28475
2026-01-16 11:04:01.90	143.05	18.38	-60.1	-77.4	3.8	7.48e-01	0	48	104	0	90	28568
2026-01-16 11:04:04.92	142.96	18.80	-60.1	-77.4	3.8	7.47e-01	0	48	104	0	90	28548
2026-01-16 11:04:07.95	142.87	19.22	-60.1	-77.4	3.8	7.45e-01	0	48	104	0	90	28539
2026-01-16 11:04:10.97	142.77	19.65	-60.1	-77.4	3.8	7.47e-01	0	48	104	0	90	28480
2026-01-16 11:04:14.00	142.67	20.09	-60.1	-77.4	3.8	7.42e-01	0	48	104	0	90	28517
2026-01-16 11:04:17.03	142.56	20.54	-60.1	-77.4	3.8	7.49e-01	0	48	104	0	90	28435
2026-01-16 11:04:20.05	142.46	21.00	-60.1	-77.4	3.8	7.44e-01	0	48	104	0	90	28457
2026-01-16 11:04:23.08	142.35	21.46	-60.1	-77.4	3.8	7.44e-01	0	48	104	0	90	28471
2026-01-16 11:04:26.11	142.23	21.94	-60.1	-77.4	3.8	7.43e-01	0	48	104	0	90	28419
2026-01-16 11:04:29.13	142.11	22.42	-60.1	-77.4	3.8	7.42e-01	0	48	104	0	90	28487
2026-01-16 11:04:32.15	141.99	22.92	-60.1	-77.4	3.8	7.46e-01	0	48	104	0	90	28423
2026-01-16 11:04:35.18	141.86	23.42	-60.1	-77.4	3.8	7.46e-01	0	48	104	0	90	28562
2026-01-16 11:04:38.21	141.73	23.94	-60.1	-77.4	3.8	7.46e-01	0	48	104	0	90	28460
2026-01-16 11:04:41.23	141.59	24.47	-60.1	-77.4	3.8	7.46e-01	0	48	104	0	90	28485
2026-01-16 11:04:44.26	141.44	25.00	-60.1	-77.4	3.8	7.48e-01	0	48	104	0	90	28484
2026-01-16 11:04:47.29	141.29	25.56	-60.1	-77.4	3.8	7.45e-01	0	48	104	0	90	28464
2026-01-16 11:04:50.32	141.14	26.12	-60.1	-77.4	3.8	7.48e-01	0	48	104	0	90	28523
2026-01-16 11:04:53.34	140.98	26.69	-60.1	-77.4	3.8	7.44e-01	0	48	104	0	90	28556
2026-01-16 11:04:56.37	140.81	27.28	-60.1	-77.4	3.8	7.47e-01	0	48	104	0	90	28469
2026-01-16 11:04:59.39	140.64	27.89	-60.1	-77.4	3.8	7.47e-01	0	48	104	0	90	28519
2026-01-16 11:05:02.41	140.45	28.50	-60.1	-77.4	3.8	7.47e-01	0	48	104	0	90	28519
2026-01-16 11:05:05.44	140.26	29.13	-60.1	-77.4	3.8	7.44e-01	0	48	104	0	90	28497
2026-01-16 11:05:08.47	140.06	29.78	-60.1	-77.4	3.8	7.45e-01	0	48	104	0	90	28502
2026-01-16 11:05:11.49	139.86	30.44	-60.1	-77.4	3.8	7.47e-01	0	48	104	0	90	28502
2026-01-16 11:05:14.52	139.64	31.12	-60.1	-77.4	3.8	7.49e-01	0	48	104	0	90	28571
2026-01-16 11:05:17.55	139.41	31.82	-60.1	-77.4	3.8	7.42e-01	0	48	104	0	90	28516
2026-01-16 11:05:20.58	139.17	32.53	-60.1	-77.4	3.8	7.46e-01	0	48	104	0	90	28473
2026-01-16 11:05:23.60	138.92	33.26	-60.1	-77.4	3.8	7.43e-01	0	48	104	0	90	28496
2026-01-16 11:05:26.62	138.66	34.01	-60.1	-77.4	3.8	7.48e-01	0	48	104	0	90	28530
2026-01-16 11:05:29.65	138.39	34.78	-60.1	-77.4	3.8	7.45e-01	0	49	104	0	90	28512
2026-01-16 11:05:32.68	138.10	35.57	-60.1	-77.4	3.8	7.45e-01	0	49	104	0	90	28547
2026-01-16 11:05:35.70	137.79	36.37	-60.1	-77.4	3.8	7.45e-01	0	49	104	0	90	28522
2026-01-16 11:05:38.73	137.47	37.20	-60.1	-77.4	3.8	7.41e-01	0	48	104	0	90	28553
2026-01-16 11:05:41.75	137.13	38.05	-60.1	-77.4	3.8	7.46e-01	0	49	104	0	90	28535
2026-01-16 11:05:44.78	136.77	38.92	-60.1	-77.4	3.8	7.42e-01	0	49	104	0	90	28446
2026-01-16 11:05:47.81	136.39	39.82	-60.1	-77.4	3.8	7.44e-01	0	49	104	0	90	28499
2026-01-16 11:05:50.83	135.99	40.74	-60.1	-77.4	3.8	7.45e-01	0	49	104	0	90	28600
2026-01-16 11:05:53.86	135.56	41.68	-60.1	-77.4	3.8	7.47e-01	0	49	104	0	90	28520
2026-01-16 11:05:56.89	135.10	42.65	-60.1	-77.4	3.8	7.46e-01	0	49	104	0	90	28521
2026-01-16 11:05:59.91	134.62	43.63	-60.1	-77.4	3.8	7.42e-01	0	49	104	0	90	28563
2026-01-16 11:06:02.94	134.10	44.65	-60.1	-77.4	3.8	7.49e-01	0	49	104	0	90	28503
2026-01-16 11:06:05.96	133.55	45.69	-60.1	-77.4	3.8	7.45e-01	0	49	104	0	90	28552
2026-01-16 11:06:08.98	132.96	46.75	-60.1	-77.4	3.8	7.46e-01	0	49	104	0	90	28511
2026-01-16 11:06:12.01	132.32	47.85	-60.1	-77.4	3.8	7.44e-01	0	49	104	0	90	28567
2026-01-16 11:06:15.04	131.64	48.96	-60.1	-77.4	3.8	7.43e-01	0	49	104	0	90	28530
2026-01-16 11:06:18.06	130.90	50.10	-60.1	-77.4	3.8	7.44e-01	0	49	104	0	90	28499
2026-01-16 11:06:21.09	130.10	51.27	-60.1	-77.4	3.8	7.45e-01	0	49	104	0	90	28488
2026-01-16 11:06:24.12	129.24	52.46	-60.1	-77.4	3.8	7.48e-01	0	49	104	0	90	28526
2026-01-16 11:06:27.14	128.30	53.68	-60.1	-77.4	3.8	7.46e-01	0	49	104	0	90	28518
2026-01-16 11:06:30.17	127.27	54.91	-60.1	-77.4	3.8	7.47e-01	0	49	104	0	90	28547
2026-01-16 11:06:33.20	126.15	56.17	-60.1	-77.4	3.8	7.48e-01	0	49	104	0	90	28575
2026-01-16 11:06:36.23	124.92	57.45	-60.1	-77.4	3.8	7.43e-01	0	49	104	0	90	28561
2026-01-16 11:06:39.25	123.58	58.74	-60.1	-77.4	3.8	7.47e-01	0	49	104	0	90	28598
2026-01-16 11:06:42.27	122.09	60.04	-60.1	-77.4	3.8	7.45e-01	0	49	104	0	90	28621
2026-01-16 11:06:45.30	120.43	61.36	-60.1	-77.4	3.8	7.45e-01	0	49	104	0	90	28514
2026-01-16 11:06:48.33	118.59	62.67	-60.1	-77.4	3.8	7.43e-01	0	49	104	0	90	28608
2026-01-16 11:06:51.35	116.53	63.98	-60.1	-77.4	3.8	7.41e-01	0	49	104	0	90	28550
2026-01-16 11:06:54.38	114.23	65.29	-60.1	-77.4	3.8	7.48e-01	0	49	104	0	90	28590
2026-01-16 11:06:57.41	111.63	66.58	-60.1	-77.4	3.8	7.47e-01	0	49	104	0	90	28555
2026-01-16 11:07:00.43	108.72	67.83	-60.1	-77.4	3.8	7.44e-01	0	49	104	0	90	28511
2026-01-16 11:07:03.46	105.41	69.05	-60.1	-77.4	3.8	7.43e-01	0	49	104	0	90	28529
2026-01-16 11:07:06.48	101.69	70.21	-60.1	-77.4	3.8	7.48e-01	0	49	104	0	90	28540
2026-01-16 11:07:09.50	97.49	71.29	-60.1	-77.4	3.8	7.43e-01	0	49	104	0	90	28554
2026-01-16 11:07:12.53	92.74	72.27	-60.1	-77.4	3.8	7.44e-01	0	49	104	0	90	28551
2026-01-16 11:07:15.55	87.46	73.13	-60.1	-77.4	3.8	7.47e-01	0	49	104	0	90	28573
2026-01-16 11:07:18.57	81.63	73.85	-60.1	-77.4	3.8	7.47e-01	0	49	104	0	90	28540
2026-01-16 11:07:21.60	75.29	74.40	-60.1	-77.4	3.8	7.46e-01	0	49	104	0	90	28531
2026-01-16 11:07:24.62	68.57	74.75	-60.1	-77.4	3.8	7.46e-01	0	49	104	0	90	28577
2026-01-16 11:07:27.65	61.61	74.89	-60.1	-77.4	3.8	7.43e-01	0	49	104	0	90	28561
2026-01-16 11:07:30.68	54.61	74.81	-60.1	-77.4	3.8	7.48e-01	0	49	104	0	90	28567
2026-01-16 11:07:33.71	47.78	74.52	-60.1	-77.4	3.8	7.46e-01	0	49	104	0	90	28580
2026-01-16 11:07:36.73	41.33	74.04	-60.1	-77.4	3.8	7.45e-01	0	49	104	0	90	28589
2026-01-16 11:07:39.76	35.32	73.37	-60.1	-77.4	3.8	7.46e-01	0	49	104	0	90	28371
2026-01-16 11:07:42.78	29.88	72.55	-60.1	-77.4	3.8	7.47e-01	0	49	104	0	90	28588
2026-01-16 11:07:45.80	24.99	71.60	-60.1	-77.4	3.8	7.46e-01	0	49	104	0	90	28513
2026-01-16 11:07:48.83	20.62	70.55	-60.1	-77.4	3.8	7.44e-01	0	49	104	0	90	28522
2026-01-16 11:07:51.85	16.75	69.41	-60.1	-77.4	3.8	7.43e-01	0	49	104	0	90	28502
2026-01-16 11:07:54.88	13.33	68.21	-60.1	-77.4	3.8	7.47e-01	0	49	104	0	90	28596
2026-01-16 11:07:57.90	10.30	66.97	-60.1	-77.4	3.8	7.44e-01	0	49	104	0	90	28492
2026-01-16 11:08:00.92	7.63	65.70	-60.1	-77.4	3.8	7.47e-01	0	49	104	0	90	28582
2026-01-16 11:08:03.95	5.24	64.40	-60.1	-77.4	3.8	7.45e-01	0	49	104	0	90	28576
2026-01-16 11:08:06.97	3.12	63.09	-60.1	-77.4	3.8	7.44e-01	0	49	104	0	90	28586
2026-01-16 11:08:10.00	1.21	61.78	-60.1	-77.4	3.8	7.44e-01	0	49	104	0	90	28548
2026-01-16 11:08:13.02	359.51	60.47	-60.1	-77.4	3.8	7.48e-01	0	49	104	0	90	28528
2026-01-16 11:08:16.05	357.97	59.16	-60.1	-77.4	3.8	7.47e-01	0	49	104	0	90	28588
2026-01-16 11:08:19.08	356.57	57.87	-60.1	-77.4	3.8	7.46e-01	0	49	104	0	90	28611
2026-01-16 11:08:22.10	355.31	56.59	-60.1	-77.4	3.8	7.44e-01	0	49	104	0	90	28551
2026-01-16 11:08:25.13	354.16	55.33	-60.1	-77.4	3.8	7.46e-01	0	49	104	0	90	28571
2026-01-16 11:08:28.15	353.11	54.09	-60.1	-77.4	3.8	7.46e-01	0	49	104	0	90	28570
2026-01-16 11:08:31.18	352.15	52.87	-60.1	-77.4	3.8	7.44e-01	0	49	104	0	90	28587
2026-01-16 11:08:34.21	351.26	51.68	-60.1	-77.4	3.8	7.46e-01	0	49	104	0	90	28565
2026-01-16 11:08:37.23	350.45	50.51	-60.1	-77.4	3.8	7.44e-01	0	49	104	0	90	28586
2026-01-16 11:08:40.26	349.69	49.36	-60.1	-77.4	3.8	7.50e-01	0	49	104	0	90	28560
2026-01-16 11:08:43.29	348.99	48.23	-60.1	-77.4	3.8	7.45e-01	0	49	104	0	90	28618
2026-01-16 11:08:46.31	348.34	47.14	-60.1	-77.4	3.8	7.43e-01	0	49	104	0	90	28551
2026-01-16 11:08:49.34	347.74	46.07	-60.1	-77.4	3.8	7.44e-01	0	49	104	0	90	28606
2026-01-16 11:08:52.37	347.17	45.02	-60.1	-77.4	3.8	7.44e-01	0	49	104	0	90	28548
2026-01-16 11:08:55.40	346.65	44.00	-60.1	-77.4	3.8	7.45e-01	0	49	104	0	90	28584
2026-01-16 11:08:58.42	346.15	43.01	-60.1	-77.4	3.8	7.44e-01	0	49	104	0	90	28629
2026-01-16 11:09:01.44	345.69	42.04	-60.1	-77.4	3.8	7.42e-01	0	49	104	0	90	28556
2026-01-16 11:09:04.47	345.25	41.09	-60.1	-77.4	3.8	7.47e-01	0	49	104	0	90	28557
2026-01-16 11:09:07.50	344.84	40.17	-60.1	-77.4	3.8	7.47e-01	0	49	104	0	90	28571
2026-01-16 11:09:10.52	344.46	39.27	-60.1	-77.4	3.8	7.45e-01	0	49	104	0	90	28560
2026-01-16 11:09:13.55	344.09	38.39	-60.1	-77.4	3.8	7.46e-01	0	49	104	0	90	28616
2026-01-16 11:09:16.58	343.75	37.53	-60.1	-77.4	3.8	7.46e-01	0	49	104	0	90	28572
2026-01-16 11:09:19.60	343.42	36.70	-60.1	-77.4	3.8	7.44e-01	0	49	104	0	90	28553
2026-01-16 11:09:22.63	343.11	35.89	-60.1	-77.4	3.8	7.44e-01	0	49	104	0	90	28528
2026-01-16 11:09:25.66	342.82	35.10	-60.1	-77.4	3.8	7.45e-01	0	49	104	0	90	28565
2026-01-16 11:09:28.68	342.54	34.33	-60.1	-77.4	3.8	7.43e-01	0	49	104	0	90	28581
2026-01-16 11:09:31.70	342.27	33.58	-60.1	-77.4	3.8	7.48e-01	0	49	104	0	90	28593
2026-01-16 11:09:34.73	342.02	32.84	-60.1	-77.4	3.8	7.47e-01	0	49	104	0	90	28588
2026-01-16 11:09:37.75	341.78	32.13	-60.1	-77.4	3.8	7.50e-01	0	49	104	0	90	28498
2026-01-16 11:09:40.78	341.55	31.43	-60.1	-77.4	3.8	7.46e-01	0	49	104	0	90	28576
2026-01-16 11:09:43.80	341.33	30.74	-60.1	-77.4	3.8	7.43e-01	0	49	104	0	90	28546
2026-01-16 11:09:46.83	341.12	30.08	-60.1	-77.4	3.8	7.45e-01	0	49	104	0	90	28483
2026-01-16 11:09:49.85	340.92	29.43	-60.1	-77.4	3.8	7.44e-01	0	49	104	0	90	28595
2026-01-16 11:09:52.88	340.73	28.79	-60.1	-77.4	3.8	7.44e-01	0	49	104	0	90	28600
2026-01-16 11:09:55.90	340.55	28.18	-60.1	-77.4	3.8	7.45e-01	0	49	104	0	90	28554
2026-01-16 11:09:58.93	340.37	27.57	-60.1	-77.4	3.8	7.47e-01	0	49	104	0	90	28581
2026-01-16 11:10:01.95	340.20	26.98	-60.1	-77.4	3.8	7.45e-01	0	49	104	0	90	28600
2026-01-16 11:10:04.97	340.04	26.40	-60.1	-77.4	3.8	7.43e-01	0	49	104	0	90	28642
2026-01-16 11:10:08.00	339.88	25.83	-60.1	-77.4	3.8	7.46e-01	0	50	104	0	90	28566
2026-01-16 11:10:11.02	339.73	25.28	-60.1	-77.4	3.8	7.47e-01	0	49	104	0	90	28556
2026-01-16 11:10:14.05	339.59	24.74	-60.1	-77.4	3.8	7.44e-01	0	49	104	0	90	28577
2026-01-16 11:10:17.08	339.45	24.21	-60.1	-77.4	3.8	7.47e-01	0	49	104	0	90	28544
2026-01-16 11:10:20.10	339.32	23.69	-60.1	-77.4	3.8	7.45e-01	0	49	104	0	90	28556
2026-01-16 11:10:23.13	339.19	23.18	-60.1	-77.4	3.8	7.47e-01	0	49	104	0	90	28575
2026-01-16 11:10:26.16	339.06	22.69	-60.1	-77.4	3.8	7.47e-01	0	49	104	0	90	28533
2026-01-16 11:10:29.18	338.94	22.20	-60.1	-77.4	3.8	7.47e-01	0	49	104	0	90	28566
2026-01-16 11:10:32.20	338.83	21.72	-60.1	-77.4	3.8	7.45e-01	0	49	104	0	90	28571
2026-01-16 11:10:35.23	338.72	21.26	-60.1	-77.4	3.8	7.44e-01	0	49	104	0	90	28569
2026-01-16 11:10:38.25	338.61	20.80	-60.1	-77.4	3.8	7.47e-01	0	49	104	0	90	28580
2026-01-16 11:10:41.28	338.50	20.35	-60.1	-77.4	3.8	7.47e-01	0	49	104	0	90	28537
2026-01-16 11:10:44.31	338.40	19.91	-60.1	-77.4	3.8	7.47e-01	0	50	104	0	90	28602
2026-01-16 11:10:47.33	338.31	19.48	-60.1	-77.4	3.8	7.47e-01	0	50	104	0	90	28570
2026-01-16 11:10:50.36	338.21	19.05	-60.1	-77.4	3.8	7.45e-01	0	49	104	0	90	28544
2026-01-16 11:10:53.39	338.12	18.63	-60.1	-77.4	3.8	7.46e-01	0	50	104	0	90	28527
2026-01-16 11:10:56.41	338.03	18.22	-60.1	-77.4	3.8	7.46e-01	0	49	104	0	90	28545
2026-01-16 11:10:59.44	337.95	17.82	-60.1	-77.4	3.8	7.48e-01	0	49	104	0	90	28543
2026-01-16 11:11:02.47	337.87	17.43	-60.1	-77.4	3.8	7.43e-01	0	49	104	0	90	28490
2026-01-16 11:11:05.49	337.79	17.04	-60.1	-77.4	3.8	7.45e-01	0	49	104	0	90	28606
2026-01-16 11:11:08.52	337.71	16.66	-60.1	-77.4	3.8	7.47e-01	0	49	104	0	90	28607
2026-01-16 11:11:11.54	337.63	16.28	-60.1	-77.4	3.8	7.45e-01	0	49	104	0	90	28599
2026-01-16 11:11:14.57	337.56	15.91	-60.1	-77.4	3.8	7.44e-01	0	49	104	0	90	28524
2026-01-16 11:11:17.59	337.49	15.55	-60.1	-77.4	3.8	7.43e-01	0	49	104	0	90	28611
2026-01-16 11:11:20.62	337.42	15.19	-60.1	-77.4	3.8	7.44e-01	0	50	104	0	90	28606
2026-01-16 11:11:23.65	337.36	14.84	-60.1	-77.4	3.8	7.45e-01	0	50	104	0	90	28655
2026-01-16 11:11:26.67	337.29	14.49	-60.1	-77.4	3.8	7.46e-01	0	50	104	0	90	28560
2026-01-16 11:11:29.69	337.23	14.15	-60.1	-77.4	3.8	7.45e-01	0	49	104	0	90	28599
2026-01-16 11:11:32.72	337.17	13.82	-60.1	-77.4	3.8	7.44e-01	0	50	104	0	90	28583
2026-01-16 11:11:35.74	337.11	13.49	-60.1	-77.4	3.8	7.47e-01	0	49	104	0	90	28570
2026-01-16 11:11:38.77	337.05	13.16	-60.1	-77.4	3.8	7.40e-01	0	50	104	0	90	28650
2026-01-16 11:11:41.79	337.00	12.84	-60.1	-77.4	3.8	7.43e-01	0	50	104	0	90	28584
2026-01-16 11:11:44.81	336.94	12.53	-60.1	-77.4	3.8	7.45e-01	0	50	104	0	90	28591
2026-01-16 11:11:47.84	336.89	12.21	-60.1	-77.4	3.8	7.46e-01	0	50	104	0	90	28589
2026-01-16 11:11:50.86	336.84	11.91	-60.1	-77.4	3.8	7.46e-01	0	50	104	0	90	28588
2026-01-16 11:11:53.89	336.79	11.60	-60.1	-77.4	3.8	7.47e-01	0	49	104	0	90	28605
2026-01-16 11:11:56.92	336.74	11.30	-60.1	-77.4	3.8	7.43e-01	0	50	104	0	90	28599
2026-01-16 11:11:59.95	336.69	11.01	-60.1	-77.4	3.8	7.47e-01	0	49	104	0	90	28584
2026-01-16 11:12:02.98	336.65	10.72	-60.1	-77.4	3.8	7.47e-01	0	50	104	0	90	28565
2026-01-16 11:12:06.00	336.60	10.43	-60.1	-77.4	3.8	7.46e-01	0	50	104	0	90	28575
2026-01-16 11:12:09.02	336.56	10.15	-60.1	-77.4	3.8	7.45e-01	0	50	104	0	90	28537
2026-01-16 11:12:12.05	336.52	9.87	-60.1	-77.4	3.8	7.44e-01	0	50	104	0	90	28554
2026-01-16 11:12:15.08	336.47	9.59	-60.1	-77.4	3.8	7.46e-01	0	50	104	0	90	28582
2026-01-16 11:12:18.10	336.43	9.32	-60.1	-77.4	3.8	7.47e-01	0	49	104	0	90	28615
2026-01-16 11:12:21.13	336.40	9.05	-60.1	-77.4	3.8	7.45e-01	0	50	104	0	90	28590
2026-01-16 11:12:24.15	336.36	8.78	-60.1	-77.4	3.8	7.43e-01	0	50	104	0	90	28554
2026-01-16 11:12:27.17	336.32	8.52	-60.1	-77.4	3.8	7.47e-01	0	50	104	0	90	28619
2026-01-16 11:12:30.20	336.28	8.25	-60.1	-77.4	3.8	7.47e-01	0	50	104	0	90	28534
2026-01-16 11:12:33.23	336.25	8.00	-60.1	-77.4	3.8	7.45e-01	0	49	104	0	90	28517
2026-01-16 11:12:36.26	336.22	7.74	-60.1	-77.4	3.8	7.41e-01	0	50	104	0	90	28557
2026-01-16 11:12:39.29	336.18	7.49	-60.1	-77.4	3.8	7.50e-01	0	50	104	0	90	28579
2026-01-16 11:12:42.31	336.15	7.24	-60.1	-77.4	3.8	7.48e-01	0	50	104	0	90	28557
2026-01-16 11:12:45.34	336.12	6.99	-60.1	-77.4	3.8	7.42e-01	0	50	104	0	90	28538
2026-01-16 11:12:48.36	336.09	6.75	-60.1	-77.4	3.8	7.45e-01	0	50	104	0	90	28574
2026-01-16 11:12:51.39	336.06	6.51	-60.1	-77.4	3.8	7.44e-01	0	50	104	0	90	28559
2026-01-16 11:12:54.41	336.03	6.27	-60.1	-77.4	3.8	7.44e-01	0	50	104	0	90	28610
2026-01-16 11:12:57.44	336.00	6.03	-60.1	-77.4	3.8	7.46e-01	0	50	104	0	90	28558
2026-01-16 11:13:00.47	335.97	5.80	-60.1	-77.4	3.8	7.44e-01	0	50	104	0	90	28566
2026-01-16 11:13:03.49	335.94	5.56	-60.1	-77.4	3.8	7.43e-01	0	50	104	0	90	28588
2026-01-16 11:13:06.52	335.92	5.33	-60.1	-77.4	3.8	7.49e-01	0	50	104	0	90	28560
2026-01-16 11:13:09.55	335.89	5.11	-60.1	-77.4	3.8	7.42e-01	0	50	104	0	90	28586
2026-01-16 11:13:12.58	335.87	4.88	-60.1	-77.4	3.8	7.46e-01	0	50	104	0	90	28497
2026-01-16 11:13:15.60	335.84	4.66	-60.1	-77.4	3.8	7.49e-01	0	50	104	0	90	28560
2026-01-16 11:13:18.63	335.82	4.44	-60.1	-77.4	3.8	7.46e-01	0	50	104	0	90	28554
2026-01-16 11:13:21.65	335.80	4.22	-60.1	-77.4	3.8	7.46e-01	0	50	104	0	90	28476
2026-01-16 11:13:24.68	335.77	4.00	-60.1	-77.4	3.8	7.45e-01	0	50	104	0	90	28611
2026-01-16 11:13:27.70	335.75	3.78	-60.1	-77.4	3.8	7.48e-01	0	50	104	0	90	28571
2026-01-16 11:13:30.73	335.73	3.57	-60.1	-77.4	3.8	7.44e-01	0	50	104	0	90	28543
2026-01-16 11:13:33.76	335.71	3.36	-60.1	-77.4	3.8	7.46e-01	0	50	104	0	90	28573
2026-01-16 11:13:36.78	335.69	3.15	-60.1	-77.4	3.8	7.48e-01	0	50	104	0	90	28579
2026-01-16 11:13:39.80	335.67	2.94	-60.1	-77.4	3.8	7.44e-01	0	50	104	0	90	28589
2026-01-16 11:13:42.83	335.65	2.73	-60.1	-77.4	3.8	7.45e-01	0	50	104	0	90	28584
2026-01-16 11:13:45.86	335.63	2.53	-60.1	-77.4	3.8	7.45e-01	0	50	104	0	90	28582
2026-01-16 11:13:48.88	335.61	2.33	-60.1	-77.4	3.8	7.46e-01	0	50	104	0	90	28543
2026-01-16 11:13:51.91	335.59	2.12	-60.1	-77.4	3.8	7.46e-01	0	50	104	0	90	28548

#Closed at: 2026-01-16 11:13:54
#Recorded file [0 MB]: D:/lorett/data/31041_260116_140106.dat