passes_logs/2026/01/16/R3.2S_Murmansk/R3.2S_Murmansk__20260116_204314_NOAA_21_JPSS-2_rec.log

#Pass ID: 20260116_204314_NOAA 21 (JPSS-2)
#Satellite: NOAA 21 (JPSS-2)
#Configuration: NOAA-21
#almurnet v.1.7.20251203
#Start time: 2026-01-16 20:43:15

#Version: 2.2.20231116
#Station: R3.2S_Murmansk
#Location: 33.079688 lon 68.888172 lat
#TLE: 1 54234U 22150A   26015.92901934  .00000025  00000+0  32700-4 0  9991
#TLE: 2 54234  98.7499 316.8175 0000634 284.8145  75.2961 14.19534841164946

#Time	Az	El	Level	Level2	SNR	BER	BlckErr	Temp	State	Recorded	gain1	gain2
2026-01-16 20:43:15.09	19.21	2.04	-51.2	-64.0	3.8	1.49e+00	0	32	0	0	74	15236
2026-01-16 20:43:18.11	19.55	2.15	-51.2	-63.9	3.8	1.49e+00	0	32	104	0	72	17030
2026-01-16 20:43:21.13	19.89	2.26	-51.2	-63.9	3.8	1.49e+00	0	32	104	0	72	17022
2026-01-16 20:43:24.16	20.24	2.37	-51.2	-63.9	3.8	1.49e+00	0	32	104	0	72	16956
2026-01-16 20:43:27.19	20.58	2.48	-51.2	-63.9	3.8	1.49e+00	0	32	104	0	72	16982
2026-01-16 20:43:30.21	20.93	2.59	-51.2	-63.9	3.8	1.49e+00	0	32	104	0	72	16972
2026-01-16 20:43:33.24	21.28	2.70	-51.2	-63.9	3.8	1.49e+00	0	32	104	0	72	16917
2026-01-16 20:43:36.26	21.63	2.81	-51.2	-63.9	3.8	1.49e+00	0	32	104	0	72	16902
2026-01-16 20:43:39.29	21.99	2.92	-51.2	-63.9	3.8	1.49e+00	0	33	104	0	72	16917
2026-01-16 20:43:42.32	22.35	3.02	-51.2	-63.9	3.8	1.49e+00	0	33	104	0	72	16910
2026-01-16 20:43:45.34	22.71	3.13	-51.1	-63.8	3.8	1.49e+00	0	32	104	0	72	16813
2026-01-16 20:43:48.37	23.07	3.24	-51.1	-63.9	3.8	1.49e+00	0	32	104	0	72	16996
2026-01-16 20:43:51.40	23.44	3.34	-51.2	-63.9	3.8	1.49e+00	0	33	104	0	72	16898
2026-01-16 20:43:54.42	23.80	3.45	-51.1	-63.8	3.8	1.49e+00	0	33	104	0	72	16861
2026-01-16 20:43:57.45	24.17	3.56	-51.1	-63.8	3.8	1.49e+00	0	33	104	0	72	16872
2026-01-16 20:44:00.47	24.55	3.66	-51.1	-63.9	3.8	1.49e+00	0	33	104	0	72	16911
2026-01-16 20:44:03.50	24.92	3.76	-51.1	-63.9	3.8	1.49e+00	0	33	104	0	72	16920
2026-01-16 20:44:06.52	25.30	3.87	-51.1	-63.8	3.8	1.49e+00	0	33	104	0	72	16847
2026-01-16 20:44:09.55	25.68	3.97	-51.1	-63.8	3.8	1.49e+00	0	33	104	0	72	16794
2026-01-16 20:44:12.57	26.06	4.07	-51.1	-63.8	3.8	1.49e+00	0	33	104	0	72	16850
2026-01-16 20:44:15.60	26.45	4.17	-51.1	-63.8	3.8	1.49e+00	0	33	104	0	72	16805
2026-01-16 20:44:18.62	26.84	4.27	-51.2	-63.8	3.8	1.49e+00	0	33	104	0	72	16871
2026-01-16 20:44:21.65	27.23	4.37	-51.2	-63.9	3.8	1.49e+00	0	33	104	0	72	16909
2026-01-16 20:44:24.67	27.62	4.47	-51.2	-63.9	3.8	1.49e+00	0	33	104	0	72	16951
2026-01-16 20:44:27.70	28.02	4.57	-51.1	-63.7	3.8	1.49e+00	0	33	104	0	72	16691
2026-01-16 20:44:30.72	28.42	4.67	-51.1	-63.1	3.8	1.49e+00	0	33	104	0	72	15432
2026-01-16 20:44:33.75	28.82	4.77	-51.1	-63.6	3.8	1.49e+00	0	33	104	0	72	16388
2026-01-16 20:44:36.77	29.22	4.86	-50.8	-60.2	4.2	1.46e+00	0	33	104	0	72	11043
2026-01-16 20:44:39.80	29.63	4.96	-49.9	-55.3	7.4	1.55e-01	0	33	0	7340032	71	6654
2026-01-16 20:44:42.82	30.04	5.05	-48.9	-52.6	10.3	2.28e-02	0	33	0	16777216	69	5474
2026-01-16 20:44:45.85	30.45	5.15	-50.4	-61.4	3.9	1.48e+00	0	33	104	24117248	71	13459
2026-01-16 20:44:48.87	30.86	5.24	-48.5	-51.5	11.8	6.83e-04	0	34	0	29360128	68	5140
2026-01-16 20:44:51.90	31.28	5.33	-47.0	-49.1	14.1	7.00e-07	0	34	0	38797312	66	4379
2026-01-16 20:44:54.92	31.70	5.42	-46.4	-48.3	15.1	0.00e+00	0	34	0	48234496	64	4455
2026-01-16 20:44:57.94	32.12	5.51	-45.9	-47.6	16.0	0.00e+00	0	33	0	57671680	63	4356
2026-01-16 20:45:00.97	32.54	5.60	-46.0	-47.7	15.8	0.00e+00	0	34	0	67108864	63	4428
2026-01-16 20:45:04.00	32.97	5.69	-46.0	-47.7	15.9	0.00e+00	0	34	0	76546048	63	4422
2026-01-16 20:45:07.02	33.40	5.78	-46.2	-47.9	15.7	0.00e+00	0	34	0	85983232	63	4527
2026-01-16 20:45:10.05	33.83	5.86	-45.9	-47.5	16.1	0.00e+00	0	34	0	95420416	63	4311
2026-01-16 20:45:13.07	34.26	5.95	-45.3	-46.7	16.9	0.00e+00	0	33	0	104857600	62	4180
2026-01-16 20:45:16.10	34.70	6.03	-45.2	-46.6	17.1	0.00e+00	0	34	0	114294784	62	4116
2026-01-16 20:45:19.12	35.14	6.12	-45.5	-47.0	16.6	0.00e+00	0	34	0	123731968	62	4309
2026-01-16 20:45:22.14	35.58	6.20	-45.1	-46.5	17.1	0.00e+00	0	34	0	133169152	62	4098
2026-01-16 20:45:25.17	36.02	6.28	-45.8	-47.4	16.3	0.00e+00	0	34	0	142606336	62	4537
2026-01-16 20:45:28.19	36.46	6.36	-45.2	-46.6	17.0	0.00e+00	0	34	0	152043520	62	4144
2026-01-16 20:45:31.22	36.91	6.44	-45.2	-46.6	17.2	0.00e+00	0	34	0	161480704	62	4111
2026-01-16 20:45:34.24	37.36	6.51	-44.8	-46.1	17.5	0.00e+00	0	34	0	170917888	61	4144
2026-01-16 20:45:37.26	37.82	6.59	-44.9	-46.3	17.4	0.00e+00	0	34	0	180355072	61	4204
2026-01-16 20:45:40.29	38.27	6.66	-45.1	-46.5	17.2	0.00e+00	0	34	0	189792256	61	4314
2026-01-16 20:45:43.32	38.73	6.74	-45.2	-46.6	17.1	0.00e+00	0	34	0	199229440	61	4384
2026-01-16 20:45:46.34	39.19	6.81	-45.1	-46.5	17.2	0.00e+00	0	34	0	208666624	61	4332
2026-01-16 20:45:49.37	39.65	6.88	-45.2	-46.6	17.2	0.00e+00	0	34	0	218103808	61	4349
2026-01-16 20:45:52.39	40.11	6.95	-44.9	-46.2	17.5	0.00e+00	0	34	0	227540992	61	4175
2026-01-16 20:45:55.42	40.58	7.01	-45.0	-46.4	17.4	0.00e+00	0	34	0	236978176	61	4246
2026-01-16 20:45:58.44	41.05	7.08	-45.3	-46.8	17.0	0.00e+00	0	34	0	246415360	61	4443
2026-01-16 20:46:01.46	41.52	7.15	-45.0	-46.3	17.3	0.00e+00	0	34	0	255852544	61	4239
2026-01-16 20:46:04.49	41.99	7.21	-44.9	-46.3	17.4	0.00e+00	0	34	0	265289728	61	4197
2026-01-16 20:46:07.51	42.46	7.27	-45.2	-46.6	17.1	0.00e+00	0	34	0	275775488	61	4357
2026-01-16 20:46:10.54	42.94	7.33	-45.1	-46.5	17.2	0.00e+00	0	34	0	284164096	61	4308
2026-01-16 20:46:13.56	43.41	7.39	-44.9	-46.2	17.5	0.00e+00	0	34	0	293601280	61	4176
2026-01-16 20:46:16.58	43.89	7.45	-45.0	-46.4	17.3	0.00e+00	0	34	0	303038464	61	4274
2026-01-16 20:46:19.61	44.38	7.50	-44.9	-46.2	17.5	0.00e+00	0	34	0	313524224	61	4189
2026-01-16 20:46:22.64	44.86	7.56	-45.0	-46.4	17.4	0.00e+00	0	34	0	322961408	61	4246
2026-01-16 20:46:25.67	45.35	7.61	-45.1	-46.5	17.2	0.00e+00	0	34	0	331350016	61	4339
2026-01-16 20:46:28.70	45.83	7.66	-45.1	-46.4	17.4	0.00e+00	0	34	0	341835776	61	4291
2026-01-16 20:46:31.72	46.32	7.71	-45.0	-46.4	17.4	0.00e+00	0	34	0	351272960	61	4251
2026-01-16 20:46:34.75	46.81	7.76	-45.0	-46.3	17.4	0.00e+00	0	34	0	360710144	61	4241
2026-01-16 20:46:37.78	47.30	7.80	-45.0	-46.3	17.4	0.00e+00	0	34	0	370147328	61	4225
2026-01-16 20:46:40.80	47.80	7.85	-44.8	-46.1	17.7	0.00e+00	0	34	0	379584512	61	4134
2026-01-16 20:46:43.83	48.29	7.89	-44.9	-46.3	17.5	0.00e+00	0	34	0	389021696	61	4197
2026-01-16 20:46:46.85	48.79	7.93	-45.1	-46.5	17.3	0.00e+00	0	34	0	398458880	61	4330
2026-01-16 20:46:49.88	49.28	7.97	-45.1	-46.5	17.3	0.00e+00	0	34	0	407896064	61	4297
2026-01-16 20:46:52.91	49.78	8.01	-44.8	-46.1	17.7	0.00e+00	0	34	0	417333248	61	4122
2026-01-16 20:46:55.94	50.28	8.04	-44.9	-46.3	17.6	0.00e+00	0	34	0	426770432	61	4194
2026-01-16 20:46:58.96	50.78	8.08	-45.1	-46.5	17.4	0.00e+00	0	34	0	436207616	61	4300
2026-01-16 20:47:01.99	51.28	8.11	-44.9	-46.2	17.6	0.00e+00	0	34	0	445644800	61	4173
2026-01-16 20:47:05.02	51.79	8.14	-44.9	-46.2	17.6	0.00e+00	0	34	0	455081984	61	4171
2026-01-16 20:47:08.04	52.29	8.17	-44.7	-45.9	17.9	0.00e+00	0	34	0	464519168	61	4045
2026-01-16 20:47:11.07	52.80	8.19	-44.7	-46.0	17.8	0.00e+00	0	34	0	473956352	61	4072
2026-01-16 20:47:14.10	53.30	8.22	-45.0	-46.3	17.5	0.00e+00	0	34	0	483393536	61	4237
2026-01-16 20:47:17.12	53.81	8.24	-44.9	-46.3	17.6	0.00e+00	0	34	0	492830720	61	4206
2026-01-16 20:47:20.15	54.32	8.26	-45.0	-46.3	17.5	0.00e+00	0	34	0	502267904	61	4231
2026-01-16 20:47:23.17	54.82	8.28	-44.8	-46.1	17.7	0.00e+00	0	34	0	511705088	61	4122
2026-01-16 20:47:26.20	55.33	8.29	-44.8	-46.1	17.7	0.00e+00	0	34	0	521142272	61	4121
2026-01-16 20:47:29.23	55.84	8.31	-44.8	-46.1	17.7	0.00e+00	0	34	0	530579456	61	4120
2026-01-16 20:47:32.25	56.35	8.32	-44.8	-46.1	17.7	0.00e+00	0	34	0	540016640	61	4128
2026-01-16 20:47:35.28	56.86	8.33	-44.7	-46.0	17.8	0.00e+00	0	34	0	549453824	61	4069
2026-01-16 20:47:38.31	57.37	8.34	-45.0	-46.3	17.5	0.00e+00	0	34	0	558891008	61	4212
2026-01-16 20:47:41.33	57.88	8.35	-44.8	-46.1	17.7	0.00e+00	0	34	0	568328192	61	4143
2026-01-16 20:47:44.36	58.39	8.35	-44.8	-46.1	17.7	0.00e+00	0	34	0	577765376	61	4110
2026-01-16 20:47:47.38	58.90	8.36	-44.9	-46.2	17.6	0.00e+00	0	34	0	587202560	61	4168
2026-01-16 20:47:50.41	59.42	8.36	-44.9	-46.2	17.7	0.00e+00	0	34	0	596639744	61	4163
2026-01-16 20:47:53.44	59.93	8.36	-44.6	-45.9	17.9	0.00e+00	0	34	0	606076928	61	4029
2026-01-16 20:47:56.46	60.44	8.35	-44.6	-45.9	17.9	0.00e+00	0	34	0	615514112	60	4249
2026-01-16 20:47:59.49	60.95	8.35	-44.5	-45.7	18.1	0.00e+00	0	34	0	624951296	60	4171
2026-01-16 20:48:02.51	61.46	8.34	-44.6	-45.8	18.0	0.00e+00	0	34	0	634388480	60	4233
2026-01-16 20:48:05.54	61.97	8.33	-44.4	-45.6	18.2	0.00e+00	0	34	0	643825664	60	4126
2026-01-16 20:48:08.57	62.48	8.32	-44.7	-46.0	17.8	0.00e+00	0	34	0	653262848	60	4316
2026-01-16 20:48:11.60	62.99	8.31	-44.7	-46.0	17.8	0.00e+00	0	34	0	662700032	60	4333
2026-01-16 20:48:14.62	63.50	8.30	-44.5	-45.8	17.9	0.00e+00	0	34	0	672137216	60	4219
2026-01-16 20:48:17.65	64.01	8.28	-44.6	-45.9	17.9	0.00e+00	0	34	0	681574400	60	4261
2026-01-16 20:48:20.68	64.52	8.26	-44.7	-45.9	17.8	0.00e+00	0	34	0	691011584	60	4285
2026-01-16 20:48:23.70	65.03	8.24	-44.6	-45.9	17.9	0.00e+00	0	34	0	700448768	60	4255
2026-01-16 20:48:26.73	65.53	8.22	-44.5	-45.8	18.0	0.00e+00	0	34	0	709885952	60	4200
2026-01-16 20:48:29.75	66.04	8.20	-44.8	-46.1	17.7	0.00e+00	0	34	0	719323136	60	4357
2026-01-16 20:48:32.78	66.54	8.17	-44.4	-45.6	18.1	0.00e+00	0	34	0	728760320	60	4142
2026-01-16 20:48:35.81	67.05	8.14	-44.6	-45.9	17.9	0.00e+00	0	34	0	739246080	60	4266
2026-01-16 20:48:38.83	67.55	8.11	-44.7	-46.1	17.8	0.00e+00	0	34	0	747634688	60	4342
2026-01-16 20:48:41.86	68.06	8.08	-44.7	-46.0	17.7	0.00e+00	0	34	0	757071872	60	4329
2026-01-16 20:48:44.88	68.56	8.05	-44.9	-46.2	17.6	0.00e+00	0	34	0	766509056	60	4411
2026-01-16 20:48:47.91	69.06	8.01	-44.8	-46.2	17.5	0.00e+00	0	34	0	776994816	60	4410
2026-01-16 20:48:50.93	69.56	7.98	-45.0	-46.4	17.3	0.00e+00	0	34	0	786432000	60	4530
2026-01-16 20:48:53.96	70.06	7.94	-44.9	-46.3	17.5	0.00e+00	0	34	0	794820608	61	4198
2026-01-16 20:48:56.98	70.55	7.90	-45.1	-46.5	17.2	0.00e+00	0	34	0	804257792	61	4318
2026-01-16 20:49:00.00	71.05	7.85	-45.1	-46.5	17.2	0.00e+00	0	34	0	814743552	61	4320
2026-01-16 20:49:03.02	71.54	7.81	-45.0	-46.3	17.4	0.00e+00	0	34	0	824180736	61	4223
2026-01-16 20:49:06.05	72.03	7.76	-45.2	-46.6	17.1	0.00e+00	0	34	0	833617920	61	4365
2026-01-16 20:49:09.08	72.52	7.72	-45.0	-46.3	17.4	0.00e+00	0	34	0	842006528	61	4225
2026-01-16 20:49:12.10	73.01	7.67	-45.0	-46.3	17.3	0.00e+00	0	34	0	852492288	61	4235
2026-01-16 20:49:15.12	73.50	7.62	-44.9	-46.3	17.4	0.00e+00	0	34	0	861929472	61	4224
2026-01-16 20:49:18.15	73.99	7.57	-44.7	-46.0	17.7	0.00e+00	0	34	0	871366656	61	4085
2026-01-16 20:49:21.17	74.47	7.51	-44.7	-46.0	17.7	0.00e+00	0	34	0	880803840	61	4067
2026-01-16 20:49:24.19	74.95	7.46	-44.7	-46.1	17.6	0.00e+00	0	34	0	889192448	61	4102
2026-01-16 20:49:27.22	75.44	7.40	-45.1	-46.5	17.2	0.00e+00	0	34	0	899678208	61	4304
2026-01-16 20:49:30.24	75.91	7.34	-44.8	-46.2	17.5	0.00e+00	0	34	0	909115392	61	4154
2026-01-16 20:49:33.26	76.39	7.28	-44.9	-46.2	17.5	0.00e+00	0	34	0	918552576	61	4175
2026-01-16 20:49:36.29	76.87	7.22	-44.6	-45.9	17.8	0.00e+00	0	34	0	927989760	61	4043
2026-01-16 20:49:39.31	77.34	7.15	-44.6	-45.9	17.8	0.00e+00	0	34	0	937426944	61	4007
2026-01-16 20:49:42.34	77.81	7.09	-44.5	-45.8	17.8	0.00e+00	0	34	0	946864128	60	4232
2026-01-16 20:49:45.37	78.28	7.02	-44.7	-46.0	17.6	0.00e+00	0	34	0	956301312	60	4330
2026-01-16 20:49:48.39	78.75	6.95	-44.8	-46.1	17.6	0.00e+00	0	34	0	965738496	60	4379
2026-01-16 20:49:51.42	79.21	6.89	-45.0	-46.3	17.4	0.00e+00	0	34	0	975175680	60	4474
2026-01-16 20:49:54.44	79.68	6.82	-45.0	-46.4	17.3	0.00e+00	0	34	0	984612864	60	4504
2026-01-16 20:49:57.47	80.14	6.74	-45.0	-46.5	17.2	0.00e+00	0	34	0	994050048	60	4548
2026-01-16 20:50:00.49	80.60	6.67	-44.9	-46.3	17.4	0.00e+00	0	34	0	1003487232	61	4197
2026-01-16 20:50:03.52	81.05	6.60	-44.9	-46.3	17.4	0.00e+00	0	34	0	1012924416	61	4214
2026-01-16 20:50:06.54	81.51	6.52	-45.1	-46.5	17.1	0.00e+00	0	34	0	1022361600	61	4331
2026-01-16 20:50:09.57	81.96	6.44	-45.1	-46.5	17.2	0.00e+00	0	34	0	1031798784	61	4295
2026-01-16 20:50:12.59	82.41	6.36	-45.0	-46.4	17.2	0.00e+00	0	34	0	1041235968	61	4289
2026-01-16 20:50:15.62	82.86	6.28	-45.1	-46.5	17.1	0.00e+00	0	34	0	1050673152	61	4332
2026-01-16 20:50:18.64	83.30	6.20	-44.9	-46.2	17.4	0.00e+00	0	34	0	1060110336	61	4170
2026-01-16 20:50:21.67	83.75	6.12	-45.1	-46.6	17.0	0.00e+00	0	34	0	1069547520	61	4345
2026-01-16 20:50:24.69	84.19	6.04	-45.1	-46.5	17.2	0.00e+00	0	34	0	1078984704	61	4293
2026-01-16 20:50:27.72	84.62	5.95	-45.1	-46.5	17.1	0.00e+00	0	34	0	1088421888	61	4306
2026-01-16 20:50:30.74	85.06	5.87	-45.3	-46.8	16.8	0.00e+00	0	34	0	1097859072	61	4449
2026-01-16 20:50:33.77	85.49	5.78	-45.4	-46.8	16.7	0.00e+00	0	34	0	1107296256	61	4489
2026-01-16 20:50:36.80	85.92	5.69	-45.5	-47.0	16.6	0.00e+00	0	34	0	1116733440	61	4564
2026-01-16 20:50:39.82	86.35	5.61	-45.3	-46.8	16.7	0.00e+00	0	34	0	1126170624	61	4465
2026-01-16 20:50:42.85	86.78	5.52	-44.9	-46.3	17.2	0.00e+00	0	34	0	1135607808	61	4237
2026-01-16 20:50:45.88	87.20	5.43	-45.3	-46.7	16.8	0.00e+00	0	34	0	1145044992	61	4426
2026-01-16 20:50:48.90	87.62	5.33	-45.2	-46.6	16.9	0.00e+00	0	34	0	1154482176	61	4386
2026-01-16 20:50:51.93	88.04	5.24	-45.7	-47.3	16.3	0.00e+00	0	34	0	1163919360	62	4447
2026-01-16 20:50:54.96	88.46	5.15	-45.7	-47.3	16.2	0.00e+00	0	34	0	1173356544	62	4468
2026-01-16 20:50:57.99	88.87	5.05	-45.5	-47.0	16.4	0.00e+00	0	34	0	1182793728	62	4322
2026-01-16 20:51:01.02	89.28	4.96	-52.2	-65.0	3.8	1.49e+00	0	34	104	1188036608	74	17246
2026-01-16 20:51:04.04	89.69	4.86	-52.7	-65.5	3.8	1.49e+00	0	34	104	1188036608	76	16297
2026-01-16 20:51:07.06	90.09	4.76	-53.1	-65.9	3.8	1.49e+00	0	34	104	1188036608	76	16997
2026-01-16 20:51:10.09	90.50	4.67	-53.3	-66.1	3.8	1.49e+00	0	34	104	1188036608	77	16369
2026-01-16 20:51:13.11	90.90	4.57	-53.4	-66.2	3.8	1.49e+00	0	34	104	1188036608	77	16544
2026-01-16 20:51:16.14	91.30	4.47	-53.4	-66.2	3.8	1.49e+00	0	34	104	1188036608	77	16662
2026-01-16 20:51:19.16	91.69	4.37	-53.4	-66.2	3.8	1.49e+00	0	34	104	1188036608	77	16684
2026-01-16 20:51:22.19	92.08	4.27	-53.4	-66.2	3.8	1.49e+00	0	34	104	1188036608	77	16688
2026-01-16 20:51:25.22	92.47	4.17	-53.4	-66.2	3.8	1.49e+00	0	34	104	1188036608	77	16660
2026-01-16 20:51:28.24	92.86	4.06	-53.3	-66.2	3.8	1.49e+00	0	34	104	1188036608	77	16511
2026-01-16 20:51:31.27	93.25	3.96	-53.3	-66.1	3.8	1.49e+00	0	34	104	1188036608	77	16476
2026-01-16 20:51:34.29	93.63	3.86	-53.3	-66.1	3.8	1.49e+00	0	34	104	1188036608	77	16448
2026-01-16 20:51:37.32	94.01	3.75	-53.3	-66.1	3.8	1.49e+00	0	34	104	1188036608	77	16373
2026-01-16 20:51:40.34	94.38	3.65	-53.3	-66.1	3.8	1.49e+00	0	34	104	1188036608	77	16385
2026-01-16 20:51:43.36	94.76	3.54	-53.3	-66.1	3.8	1.49e+00	0	34	104	1188036608	77	16392
2026-01-16 20:51:46.39	95.13	3.44	-53.3	-66.1	3.8	1.49e+00	0	34	104	1188036608	77	16412
2026-01-16 20:51:49.41	95.50	3.33	-53.3	-66.1	3.8	1.49e+00	0	34	104	1188036608	77	16387
2026-01-16 20:51:52.44	95.87	3.23	-53.3	-66.1	3.8	1.49e+00	0	34	104	1188036608	77	16397
2026-01-16 20:51:55.47	96.23	3.12	-53.3	-66.1	3.8	1.49e+00	0	34	104	1188036608	77	16385
2026-01-16 20:51:58.49	96.59	3.01	-53.3	-66.0	3.8	1.49e+00	0	34	104	1188036608	77	16293
2026-01-16 20:52:01.52	96.95	2.90	-53.3	-66.1	3.8	1.49e+00	0	34	104	1188036608	77	16346
2026-01-16 20:52:04.55	97.31	2.79	-53.3	-66.1	3.8	1.49e+00	0	35	104	1188036608	77	16353
2026-01-16 20:52:07.57	97.66	2.68	-53.3	-66.1	3.8	1.49e+00	0	34	104	1188036608	77	16352
2026-01-16 20:52:10.60	98.01	2.57	-53.3	-66.1	3.8	1.49e+00	0	34	104	1188036608	77	16377
2026-01-16 20:52:13.62	98.36	2.46	-53.3	-66.1	3.8	1.49e+00	0	34	104	1188036608	77	16381
2026-01-16 20:52:16.65	98.71	2.35	-53.3	-66.1	3.8	1.49e+00	0	34	104	1188036608	77	16399
2026-01-16 20:52:19.68	99.06	2.24	-53.3	-66.1	3.8	1.49e+00	0	34	104	1188036608	77	16345
2026-01-16 20:52:22.70	99.40	2.13	-53.2	-66.0	3.8	1.49e+00	0	34	104	1188036608	77	16305
2026-01-16 20:52:25.73	99.74	2.02	-53.3	-66.1	3.8	1.49e+00	0	34	104	1188036608	77	16323
2026-01-16 20:52:28.76	100.07	1.91	-53.2	-66.0	3.8	1.49e+00	0	34	104	1188036608	77	16301

#Closed at: 2026-01-16 20:52:29
#Recorded file [1188 MB]: D:/lorett/data/31041_260116_234314.dat