passes_logs/2026/01/16/R3.2S_Murmansk/R3.2S_Murmansk__20260116_231403_NOAA_20_JPSS-1_rec.log

#Pass ID: 20260116_231403_NOAA 20 (JPSS-1)
#Satellite: NOAA 20 (JPSS-1)
#Configuration: NOAA 20
#almurnet v.1.7.20251203
#Start time: 2026-01-16 23:14:05

#Version: 2.2.20231116
#Station: R3.2S_Murmansk
#Location: 33.079688 lon 68.888172 lat
#TLE: 1 43013U 17073A   26015.89389188  .00000026  00000+0  33113-4 0  9999
#TLE: 2 43013  98.7636 316.8238 0001460  37.8997 322.2282 14.19536128422860

#Time	Az	El	Level	Level2	SNR	BER	BlckErr	Temp	State	Recorded	gain1	gain2
2026-01-16 23:14:05.70	20.36	2.13	-51.7	-66.6	3.8	1.49e+00	0	34	0	0	75	19522
2026-01-16 23:14:09.73	20.54	2.38	-51.7	-66.1	3.8	1.49e+00	0	34	104	0	73	20661
2026-01-16 23:14:13.76	20.72	2.62	-51.7	-65.7	3.8	1.49e+00	0	34	104	0	73	19762
2026-01-16 23:14:17.79	20.91	2.87	-51.6	-65.0	3.8	1.49e+00	0	34	104	0	73	18267
2026-01-16 23:14:21.82	21.10	3.12	-51.5	-63.2	4.1	1.42e+00	0	34	0	0	73	14878
2026-01-16 23:14:25.86	21.29	3.38	-51.4	-62.5	4.4	1.19e+00	131	34	0	4194304	73	13592
2026-01-16 23:14:29.90	21.49	3.63	-51.3	-60.9	5.1	8.76e-01	0	34	0	11534336	73	11367
2026-01-16 23:14:33.93	21.69	3.89	-50.7	-57.5	7.8	1.04e-01	0	34	0	19922944	73	7689
2026-01-16 23:14:37.96	21.89	4.15	-49.8	-54.3	11.3	2.49e-03	0	34	0	27262976	71	5925
2026-01-16 23:14:42.00	22.09	4.41	-49.9	-54.5	11.0	8.86e-04	0	34	0	34603008	71	6128
2026-01-16 23:14:46.03	22.30	4.68	-50.7	-57.2	8.3	1.30e-02	0	34	0	41943040	71	8281
2026-01-16 23:14:50.07	22.52	4.94	-51.1	-59.4	6.1	3.03e-01	0	34	0	49283072	72	10088
2026-01-16 23:14:54.10	22.73	5.21	-50.8	-57.3	8.2	1.42e-01	0	34	0	54525952	73	7494
2026-01-16 23:14:58.14	22.95	5.48	-49.3	-52.9	13.1	1.98e-05	0	34	0	61865984	70	5367
2026-01-16 23:15:02.17	23.17	5.76	-49.3	-52.8	13.2	1.22e-05	0	34	0	70254592	69	5616
2026-01-16 23:15:06.20	23.40	6.03	-49.1	-52.4	13.7	1.06e-05	0	34	0	77594624	69	5373
2026-01-16 23:15:10.23	23.63	6.31	-48.8	-51.8	14.3	7.00e-07	0	34	0	84934656	69	5018
2026-01-16 23:15:14.26	23.87	6.59	-48.8	-51.7	14.5	7.00e-07	0	34	0	92274688	69	4978
2026-01-16 23:15:18.29	24.11	6.88	-48.7	-51.6	14.6	7.00e-07	0	34	0	99614720	68	5170
2026-01-16 23:15:22.32	24.35	7.17	-48.3	-51.0	15.3	0.00e+00	0	34	0	108003328	68	4828
2026-01-16 23:15:26.36	24.60	7.46	-48.3	-50.9	15.4	0.00e+00	0	34	0	115343360	68	4799
2026-01-16 23:15:30.39	24.85	7.75	-48.3	-51.0	15.4	0.00e+00	0	34	0	122683392	68	4819
2026-01-16 23:15:34.42	25.11	8.05	-48.2	-50.7	15.7	0.00e+00	0	34	0	130023424	68	4659
2026-01-16 23:15:38.45	25.37	8.34	-47.8	-50.1	16.1	0.00e+00	0	34	0	138412032	67	4633
2026-01-16 23:15:42.49	25.64	8.65	-47.8	-50.1	16.2	0.00e+00	0	34	0	145752064	67	4648
2026-01-16 23:15:46.52	25.91	8.95	-47.4	-49.5	16.8	0.00e+00	0	34	0	153092096	66	4596
2026-01-16 23:15:50.55	26.19	9.26	-47.5	-49.7	16.7	0.00e+00	0	34	0	160432128	66	4663
2026-01-16 23:15:54.58	26.48	9.57	-47.3	-49.3	17.1	0.00e+00	0	34	0	167772160	66	4473
2026-01-16 23:15:58.61	26.77	9.89	-47.5	-49.6	16.8	0.00e+00	0	34	0	176160768	66	4601
2026-01-16 23:16:02.64	27.06	10.21	-47.1	-49.0	17.4	0.00e+00	0	34	0	183500800	66	4314
2026-01-16 23:16:06.67	27.36	10.53	-47.0	-49.0	17.5	0.00e+00	0	34	0	190840832	65	4547
2026-01-16 23:16:10.71	27.67	10.86	-46.9	-48.8	17.7	0.00e+00	0	34	0	198180864	65	4449
2026-01-16 23:16:14.74	27.99	11.19	-46.8	-48.6	17.9	0.00e+00	0	34	0	205520896	65	4376
2026-01-16 23:16:18.77	28.31	11.52	-46.8	-48.7	17.8	0.00e+00	0	34	0	213909504	65	4399
2026-01-16 23:16:22.80	28.63	11.86	-46.7	-48.4	18.1	0.00e+00	0	34	0	221249536	65	4286
2026-01-16 23:16:26.84	28.97	12.20	-46.6	-48.3	18.3	0.00e+00	0	34	0	228589568	65	4216
2026-01-16 23:16:30.87	29.31	12.54	-46.5	-48.1	18.4	0.00e+00	0	34	0	235929600	64	4391
2026-01-16 23:16:34.91	29.66	12.89	-46.3	-48.0	18.6	0.00e+00	0	34	0	244318208	64	4293
2026-01-16 23:16:38.94	30.02	13.25	-46.2	-47.8	18.8	0.00e+00	0	34	0	251658240	64	4213
2026-01-16 23:16:42.98	30.39	13.60	-46.1	-47.7	18.7	0.00e+00	0	34	0	258998272	64	4176
2026-01-16 23:16:47.01	30.77	13.97	-46.0	-47.6	19.0	0.00e+00	0	34	0	266338304	64	4122
2026-01-16 23:16:51.04	31.15	14.33	-46.1	-47.6	19.1	0.00e+00	0	34	0	273678336	63	4364
2026-01-16 23:16:55.08	31.54	14.70	-46.1	-47.7	19.0	0.00e+00	0	34	0	281018368	63	4392
2026-01-16 23:16:59.11	31.95	15.08	-46.1	-47.7	19.0	0.00e+00	0	34	0	289406976	63	4411
2026-01-16 23:17:03.14	32.36	15.46	-46.0	-47.5	19.2	0.00e+00	0	34	0	296747008	63	4332
2026-01-16 23:17:07.18	32.78	15.84	-46.0	-47.6	19.2	0.00e+00	0	34	0	304087040	63	4348
2026-01-16 23:17:11.21	33.22	16.23	-46.3	-47.8	18.9	0.00e+00	0	34	0	311427072	63	4481
2026-01-16 23:17:15.25	33.66	16.63	-46.4	-48.0	18.8	0.00e+00	0	34	0	319815680	63	4579
2026-01-16 23:17:19.29	34.12	17.03	-46.4	-47.9	18.9	0.00e+00	0	34	0	327155712	63	4540
2026-01-16 23:17:23.32	34.58	17.43	-46.6	-48.2	18.6	0.00e+00	0	34	0	334495744	63	4690
2026-01-16 23:17:27.36	35.07	17.84	-46.5	-48.1	18.7	0.00e+00	0	34	0	341835776	63	4639
2026-01-16 23:17:31.39	35.56	18.25	-46.7	-48.4	18.5	0.00e+00	0	34	0	349175808	63	4767
2026-01-16 23:17:35.42	36.06	18.67	-46.7	-48.4	18.3	0.00e+00	0	34	0	357564416	64	4540
2026-01-16 23:17:39.46	36.58	19.09	-46.9	-48.7	18.2	0.00e+00	0	34	0	364904448	64	4658
2026-01-16 23:17:43.50	37.12	19.52	-47.0	-48.7	18.1	0.00e+00	0	34	0	372244480	64	4693
2026-01-16 23:17:47.53	37.66	19.96	-47.2	-49.0	17.8	0.00e+00	0	34	0	379584512	64	4857
2026-01-16 23:17:51.57	38.23	20.40	-47.1	-48.9	17.9	0.00e+00	0	34	0	387973120	65	4530
2026-01-16 23:17:55.61	38.81	20.84	-46.8	-48.5	18.3	0.00e+00	0	34	0	395313152	65	4323
2026-01-16 23:17:59.64	39.40	21.29	-46.8	-48.5	18.3	0.00e+00	0	34	0	402653184	65	4338
2026-01-16 23:18:03.68	40.02	21.75	-46.7	-48.4	18.4	0.00e+00	0	34	0	409993216	65	4275
2026-01-16 23:18:07.71	40.65	22.20	-47.0	-48.8	18.1	0.00e+00	0	34	0	417333248	65	4445
2026-01-16 23:18:11.75	41.30	22.67	-46.7	-48.4	18.5	0.00e+00	0	34	0	425721856	65	4273
2026-01-16 23:18:15.78	41.97	23.14	-46.6	-48.3	18.6	0.00e+00	0	34	0	433061888	65	4207
2026-01-16 23:18:19.81	42.65	23.61	-46.9	-48.6	18.3	0.00e+00	0	34	0	440401920	65	4371
2026-01-16 23:18:23.85	43.36	24.09	-46.2	-47.7	19.1	0.00e+00	0	34	0	447741952	64	4189
2026-01-16 23:18:27.88	44.09	24.57	-46.2	-47.7	19.3	0.00e+00	0	34	0	455081984	63	4416
2026-01-16 23:18:31.91	44.84	25.06	-46.3	-47.9	19.1	0.00e+00	0	34	0	463470592	63	4507
2026-01-16 23:18:35.94	45.62	25.55	-46.0	-47.5	19.5	0.00e+00	0	34	0	470810624	63	4321
2026-01-16 23:18:39.97	46.42	26.04	-46.0	-47.5	19.5	0.00e+00	0	34	0	478150656	63	4295
2026-01-16 23:18:44.00	47.24	26.54	-46.5	-48.0	19.0	0.00e+00	0	34	0	485490688	63	4597
2026-01-16 23:18:48.04	48.09	27.04	-46.1	-47.5	19.5	0.00e+00	0	34	0	493879296	63	4335
2026-01-16 23:18:52.07	48.97	27.54	-46.7	-48.3	18.8	0.00e+00	0	34	0	501219328	63	4726
2026-01-16 23:18:56.10	49.87	28.04	-46.5	-48.1	18.9	0.00e+00	0	34	0	508559360	64	4343
2026-01-16 23:19:00.13	50.80	28.55	-46.7	-48.4	18.6	0.00e+00	0	34	0	515899392	64	4499
2026-01-16 23:19:04.16	51.76	29.06	-47.0	-48.7	18.3	0.00e+00	0	34	0	523239424	64	4703
2026-01-16 23:19:08.20	52.75	29.56	-47.2	-49.0	18.0	0.00e+00	0	34	0	530579456	64	4838
2026-01-16 23:19:12.23	53.77	30.07	-47.9	-49.9	17.2	0.00e+00	0	34	0	538968064	66	4781
2026-01-16 23:19:16.26	54.83	30.58	-47.7	-49.7	17.4	0.00e+00	0	34	0	546308096	66	4666
2026-01-16 23:19:20.30	55.92	31.08	-48.2	-50.4	16.6	0.00e+00	0	34	0	553648128	67	4800
2026-01-16 23:19:24.33	57.04	31.58	-49.4	-52.1	15.0	0.00e+00	0	34	0	560988160	69	5189
2026-01-16 23:19:28.36	58.19	32.08	-49.9	-53.1	14.2	2.20e-06	0	34	0	569376768	70	5468
2026-01-16 23:19:32.40	59.38	32.58	-49.9	-53.0	14.1	5.30e-06	0	34	0	576716800	70	5452
2026-01-16 23:19:36.43	60.61	33.06	-49.9	-53.0	14.1	7.00e-07	0	34	0	584056832	70	5439
2026-01-16 23:19:40.46	61.87	33.54	-50.5	-54.1	13.1	5.49e-05	0	34	0	591396864	71	5811
2026-01-16 23:19:44.50	63.17	34.02	-49.4	-52.1	15.1	0.00e+00	0	34	0	598736896	70	4889
2026-01-16 23:19:48.53	64.51	34.48	-49.4	-52.1	15.1	0.00e+00	0	34	0	607125504	70	4882
2026-01-16 23:19:52.56	65.88	34.93	-48.9	-51.4	15.9	0.00e+00	0	34	0	614465536	69	4767
2026-01-16 23:19:56.59	67.29	35.37	-48.7	-51.0	16.2	0.00e+00	0	34	0	621805568	69	4577
2026-01-16 23:20:00.62	68.74	35.80	-47.7	-49.6	17.6	0.00e+00	0	34	0	629145600	67	4358
2026-01-16 23:20:04.66	70.23	36.21	-47.6	-49.6	17.6	0.00e+00	0	34	0	637534208	67	4346
2026-01-16 23:20:08.68	71.75	36.61	-46.1	-47.6	19.5	0.00e+00	0	34	0	644874240	64	4114
2026-01-16 23:20:12.72	73.31	36.99	-47.3	-49.2	18.0	0.00e+00	0	34	0	652214272	65	4656
2026-01-16 23:20:16.75	74.91	37.34	-46.8	-48.4	18.7	0.00e+00	0	34	0	659554304	65	4264
2026-01-16 23:20:20.78	76.54	37.68	-48.0	-50.0	17.2	0.00e+00	0	34	0	666894336	66	4847
2026-01-16 23:20:24.81	78.20	37.99	-47.6	-49.5	17.6	0.00e+00	0	34	0	675282944	66	4584
2026-01-16 23:20:28.85	79.89	38.28	-47.5	-49.4	17.8	0.00e+00	0	34	0	682622976	66	4496
2026-01-16 23:20:32.88	81.61	38.55	-48.0	-50.0	17.1	0.00e+00	0	34	0	689963008	66	4847
2026-01-16 23:20:36.92	83.36	38.78	-47.9	-50.0	17.2	0.00e+00	0	34	0	697303040	66	4816
2026-01-16 23:20:40.95	85.13	38.99	-48.0	-50.1	17.0	0.00e+00	0	34	0	704643072	66	4905
2026-01-16 23:20:44.98	86.93	39.17	-48.1	-50.1	17.0	0.00e+00	0	34	0	713031680	67	4648
2026-01-16 23:20:49.02	88.74	39.32	-48.6	-50.8	16.3	0.00e+00	0	34	0	720371712	67	5037
2026-01-16 23:20:53.06	90.57	39.44	-49.2	-51.8	15.4	0.00e+00	0	34	0	727711744	69	5028
2026-01-16 23:20:57.09	92.41	39.52	-49.3	-51.9	15.3	0.00e+00	0	34	0	735051776	69	5059
2026-01-16 23:21:01.13	94.25	39.58	-49.9	-53.0	14.3	1.50e-06	0	34	0	743440384	70	5415
2026-01-16 23:21:05.16	96.10	39.60	-48.4	-50.5	16.7	0.00e+00	0	34	0	750780416	68	4586
2026-01-16 23:21:09.20	97.96	39.58	-48.3	-50.4	16.8	0.00e+00	0	34	0	758120448	68	4531
2026-01-16 23:21:13.23	99.80	39.54	-47.8	-49.7	17.4	0.00e+00	0	34	0	765460480	67	4420
2026-01-16 23:21:17.27	101.64	39.46	-48.5	-50.7	16.4	0.00e+00	0	34	0	772800512	67	4945
2026-01-16 23:21:21.30	103.47	39.35	-49.3	-52.0	15.2	0.00e+00	0	34	0	781189120	69	5121
2026-01-16 23:21:25.33	105.29	39.21	-49.4	-52.2	15.0	0.00e+00	0	34	0	788529152	69	5243
2026-01-16 23:21:29.36	107.09	39.04	-48.8	-51.2	16.1	0.00e+00	0	34	0	795869184	69	4654
2026-01-16 23:21:33.40	108.87	38.83	-48.9	-51.3	15.9	0.00e+00	0	34	0	803209216	68	5031
2026-01-16 23:21:37.43	110.62	38.60	-48.4	-50.7	16.4	0.00e+00	0	34	0	810549248	67	4960
2026-01-16 23:21:41.47	112.36	38.34	-46.8	-48.5	18.5	0.00e+00	0	34	0	818937856	65	4317
2026-01-16 23:21:45.50	114.06	38.06	-47.2	-48.9	18.1	0.00e+00	0	34	0	826277888	65	4532
2026-01-16 23:21:49.53	115.73	37.75	-46.8	-48.5	18.6	0.00e+00	0	34	0	833617920	64	4560
2026-01-16 23:21:53.56	117.37	37.42	-45.6	-46.9	20.2	0.00e+00	0	34	0	840957952	63	4025
2026-01-16 23:21:57.60	118.97	37.06	-46.3	-47.9	19.2	0.00e+00	0	34	0	849346560	64	4244
2026-01-16 23:22:01.63	120.54	36.69	-45.3	-46.5	20.5	0.00e+00	0	34	0	856686592	62	4092
2026-01-16 23:22:05.66	122.08	36.30	-44.5	-45.6	21.4	0.00e+00	0	34	0	864026624	60	4139
2026-01-16 23:22:09.70	123.58	35.89	-45.2	-46.4	20.6	0.00e+00	0	34	0	871366656	61	4282
2026-01-16 23:22:13.74	125.04	35.46	-46.6	-48.2	19.0	0.00e+00	0	34	0	878706688	63	4668
2026-01-16 23:22:17.77	126.47	35.02	-46.2	-47.7	19.5	0.00e+00	0	34	0	887095296	63	4393
2026-01-16 23:22:21.80	127.85	34.57	-46.0	-47.4	19.6	0.00e+00	0	34	0	894435328	63	4272
2026-01-16 23:22:25.84	129.20	34.11	-47.2	-49.0	18.0	0.00e+00	0	34	0	901775360	65	4596
2026-01-16 23:22:29.87	130.51	33.63	-47.2	-49.0	18.1	0.00e+00	0	34	0	909115392	65	4549
2026-01-16 23:22:33.90	131.78	33.15	-47.5	-49.4	17.6	0.00e+00	0	34	0	916455424	66	4537
2026-01-16 23:22:37.94	133.02	32.66	-49.0	-51.6	15.5	0.00e+00	0	34	0	924844032	68	5207
2026-01-16 23:22:41.97	134.22	32.17	-46.5	-48.1	18.8	0.00e+00	0	34	0	932184064	65	4125
2026-01-16 23:22:46.00	135.39	31.67	-49.0	-51.6	15.5	0.00e+00	0	34	0	939524096	68	5184
2026-01-16 23:22:50.04	136.52	31.17	-48.1	-50.2	16.7	0.00e+00	0	34	0	946864128	67	4702
2026-01-16 23:22:54.07	137.62	30.66	-48.1	-50.2	16.7	0.00e+00	0	34	0	954204160	68	4426
2026-01-16 23:22:58.10	138.68	30.15	-47.7	-49.7	17.2	0.00e+00	0	34	0	962592768	65	4967
2026-01-16 23:23:02.13	139.71	29.64	-47.1	-48.9	18.0	0.00e+00	0	34	0	969932800	66	4257
2026-01-16 23:23:06.16	140.71	29.13	-47.4	-49.3	17.7	0.00e+00	0	34	0	977272832	65	4715
2026-01-16 23:23:10.20	141.68	28.62	-47.1	-48.9	18.0	0.00e+00	0	34	0	984612864	66	4282
2026-01-16 23:23:14.23	142.62	28.11	-46.4	-47.9	19.0	0.00e+00	0	34	0	993001472	63	4545
2026-01-16 23:23:18.26	143.53	27.61	-45.9	-47.3	19.5	0.00e+00	0	34	0	1000341504	63	4238
2026-01-16 23:23:22.29	144.41	27.10	-44.8	-46.0	20.9	0.00e+00	0	34	0	1007681536	61	4071
2026-01-16 23:23:26.32	145.27	26.60	-46.5	-48.2	18.6	0.00e+00	0	34	0	1015021568	64	4415
2026-01-16 23:23:30.36	146.10	26.10	-44.7	-45.9	20.9	0.00e+00	0	34	0	1022361600	61	4011
2026-01-16 23:23:34.39	146.90	25.60	-45.3	-46.7	20.2	0.00e+00	0	34	0	1029701632	61	4401
2026-01-16 23:23:38.42	147.68	25.11	-44.4	-45.5	21.2	0.00e+00	0	34	0	1038090240	60	4094
2026-01-16 23:23:42.45	148.44	24.62	-44.4	-45.6	21.1	0.00e+00	0	34	0	1045430272	60	4122
2026-01-16 23:23:46.49	149.18	24.13	-45.0	-46.3	20.5	0.00e+00	0	34	0	1052770304	60	4469
2026-01-16 23:23:50.52	149.89	23.65	-44.6	-45.8	20.9	0.00e+00	0	34	0	1060110336	60	4213
2026-01-16 23:23:54.55	150.58	23.18	-45.2	-46.6	20.1	0.00e+00	0	34	0	1068498944	61	4345
2026-01-16 23:23:58.58	151.26	22.70	-45.0	-46.3	20.5	0.00e+00	0	34	0	1075838976	61	4205
2026-01-16 23:24:02.61	151.91	22.24	-45.4	-46.8	20.0	0.00e+00	0	34	0	1083179008	61	4460
2026-01-16 23:24:06.64	152.54	21.78	-45.5	-46.9	19.8	0.00e+00	0	34	0	1090519040	61	4515
2026-01-16 23:24:10.68	153.16	21.32	-45.3	-46.7	20.0	0.00e+00	0	34	0	1097859072	61	4418
2026-01-16 23:24:14.71	153.76	20.87	-46.3	-47.9	18.9	0.00e+00	0	34	0	1106247680	63	4540
2026-01-16 23:24:18.74	154.34	20.42	-46.5	-48.1	18.6	0.00e+00	0	34	0	1113587712	63	4644
2026-01-16 23:24:22.78	154.91	19.98	-46.0	-47.5	19.2	0.00e+00	0	34	0	1120927744	63	4324
2026-01-16 23:24:26.81	155.46	19.54	-46.1	-47.6	19.1	0.00e+00	0	34	0	1128267776	63	4362
2026-01-16 23:24:30.84	156.00	19.11	-46.4	-48.1	18.6	0.00e+00	0	34	0	1136656384	63	4617
2026-01-16 23:24:34.88	156.52	18.68	-46.2	-47.7	19.0	0.00e+00	0	34	0	1143996416	63	4430
2026-01-16 23:24:38.91	157.03	18.26	-45.8	-47.3	19.4	0.00e+00	0	34	0	1151336448	63	4225
2026-01-16 23:24:42.94	157.52	17.84	-45.7	-47.2	19.5	0.00e+00	0	34	0	1158676480	63	4147
2026-01-16 23:24:46.97	158.00	17.43	-46.1	-47.7	19.0	0.00e+00	0	34	0	1166016512	63	4393
2026-01-16 23:24:51.00	158.47	17.02	-46.1	-47.7	19.0	0.00e+00	0	34	0	1174405120	63	4404
2026-01-16 23:24:55.04	158.93	16.62	-46.2	-47.8	18.8	0.00e+00	0	34	0	1181745152	63	4478
2026-01-16 23:24:59.07	159.38	16.22	-46.2	-47.8	18.8	0.00e+00	0	34	0	1189085184	63	4449
2026-01-16 23:25:03.10	159.81	15.83	-46.7	-48.4	18.2	0.00e+00	0	34	0	1196425216	63	4807
2026-01-16 23:25:07.13	160.24	15.45	-46.7	-48.6	17.9	0.00e+00	0	34	0	1203765248	64	4607
2026-01-16 23:25:11.16	160.65	15.06	-46.5	-48.2	18.2	0.00e+00	0	34	0	1212153856	64	4440
2026-01-16 23:25:15.20	161.06	14.68	-46.2	-47.9	18.6	0.00e+00	0	34	0	1219493888	64	4271
2026-01-16 23:25:19.23	161.45	14.31	-46.1	-47.7	18.7	0.00e+00	0	34	0	1226833920	64	4168
2026-01-16 23:25:23.26	161.83	13.94	-46.3	-47.9	18.5	0.00e+00	0	34	0	1234173952	64	4277
2026-01-16 23:25:27.29	162.21	13.58	-46.4	-48.2	18.3	0.00e+00	0	34	0	1241513984	64	4397
2026-01-16 23:25:31.32	162.58	13.22	-46.6	-48.4	18.0	0.00e+00	0	34	0	1249902592	64	4542
2026-01-16 23:25:35.36	162.94	12.86	-46.8	-48.6	17.8	0.00e+00	0	34	0	1257242624	64	4647
2026-01-16 23:25:39.39	163.29	12.51	-46.8	-48.7	17.7	0.00e+00	0	34	0	1264582656	64	4685
2026-01-16 23:25:43.42	163.63	12.16	-46.8	-48.7	17.6	0.00e+00	0	34	0	1271922688	64	4687
2026-01-16 23:25:47.45	163.97	11.82	-47.1	-49.1	17.2	0.00e+00	0	34	0	1279262720	64	4900
2026-01-16 23:25:51.48	164.29	11.48	-47.2	-49.3	17.0	0.00e+00	0	34	0	1287651328	65	4740
2026-01-16 23:25:55.52	164.62	11.14	-47.4	-49.6	16.7	0.00e+00	0	34	0	1294991360	65	4886
2026-01-16 23:25:59.55	164.93	10.81	-47.6	-49.9	16.4	0.00e+00	0	34	0	1302331392	65	5076
2026-01-16 23:26:03.58	165.24	10.48	-47.4	-49.5	16.7	0.00e+00	0	34	0	1309671424	65	4846
2026-01-16 23:26:07.61	165.54	10.16	-47.4	-49.6	16.7	0.00e+00	0	34	0	1318060032	65	4882
2026-01-16 23:26:11.64	165.83	9.84	-47.4	-49.5	16.8	0.00e+00	0	34	0	1325400064	65	4840
2026-01-16 23:26:15.68	166.12	9.52	-47.0	-49.0	17.2	0.00e+00	0	34	0	1332740096	65	4563
2026-01-16 23:26:19.71	166.41	9.21	-47.1	-49.2	17.0	0.00e+00	0	34	0	1340080128	65	4670
2026-01-16 23:26:23.75	166.68	8.90	-47.5	-49.8	16.4	0.00e+00	0	34	0	1347420160	65	4996
2026-01-16 23:26:27.78	166.96	8.59	-47.8	-50.3	15.9	0.00e+00	0	34	0	1355808768	66	4991
2026-01-16 23:26:31.82	167.22	8.28	-48.3	-51.0	15.0	0.00e+00	0	34	0	1363148800	67	5134
2026-01-16 23:26:35.85	167.48	7.98	-48.4	-51.2	14.8	1.50e-06	0	34	0	1370488832	67	5246
2026-01-16 23:26:39.89	167.74	7.68	-48.4	-51.3	14.6	0.00e+00	0	34	0	1377828864	67	5340
2026-01-16 23:26:43.92	167.99	7.39	-48.5	-51.4	14.6	0.00e+00	0	34	0	1386217472	67	5367
2026-01-16 23:26:47.96	168.24	7.10	-48.3	-51.1	14.8	1.50e-06	0	34	0	1393557504	67	5202
2026-01-16 23:26:52.00	168.48	6.81	-48.2	-50.9	15.0	0.00e+00	0	34	0	1400897536	67	5078
2026-01-16 23:26:56.03	168.72	6.52	-48.0	-50.6	15.2	7.00e-07	0	34	0	1408237568	67	4922
2026-01-16 23:27:00.07	168.96	6.24	-48.0	-50.7	15.1	0.00e+00	0	34	0	1415577600	67	4948
2026-01-16 23:27:04.10	169.18	5.96	-47.8	-50.4	15.3	0.00e+00	0	34	0	1422917632	67	4795
2026-01-16 23:27:08.13	169.41	5.68	-48.2	-51.0	14.7	7.00e-07	0	34	0	1431306240	67	5139
2026-01-16 23:27:12.16	169.63	5.40	-48.1	-51.0	14.6	7.00e-07	0	34	0	1438646272	67	5131
2026-01-16 23:27:16.20	169.85	5.13	-48.4	-51.6	14.0	7.00e-07	0	34	0	1445986304	67	5478
2026-01-16 23:27:20.24	170.06	4.86	-52.4	-67.5	3.8	1.49e+00	0	34	104	1451229184	75	21512
2026-01-16 23:27:24.28	170.27	4.59	-53.0	-68.0	3.8	1.49e+00	0	34	104	1451229184	76	21706
2026-01-16 23:27:28.31	170.48	4.32	-53.4	-68.4	3.8	1.49e+00	0	34	104	1451229184	77	21315
2026-01-16 23:27:32.34	170.68	4.06	-53.5	-68.5	3.8	1.49e+00	0	34	104	1451229184	77	21686
2026-01-16 23:27:36.38	170.88	3.80	-53.6	-68.6	3.8	1.49e+00	0	34	104	1451229184	77	21803
2026-01-16 23:27:40.41	171.08	3.54	-53.5	-68.6	3.8	1.49e+00	0	34	104	1451229184	77	21780
2026-01-16 23:27:44.45	171.27	3.28	-53.5	-68.5	3.8	1.49e+00	0	34	104	1451229184	77	21592
2026-01-16 23:27:48.48	171.47	3.03	-53.4	-68.5	3.8	1.49e+00	0	34	104	1451229184	77	21538
2026-01-16 23:27:52.52	171.65	2.77	-53.4	-68.4	3.8	1.49e+00	0	34	104	1451229184	77	21506
2026-01-16 23:27:56.55	171.84	2.52	-53.4	-68.4	3.8	1.49e+00	0	34	104	1451229184	77	21408
2026-01-16 23:28:00.59	172.02	2.28	-53.4	-68.4	3.8	1.49e+00	0	34	104	1451229184	77	21282
2026-01-16 23:28:04.63	172.20	2.03	-53.3	-68.4	3.8	1.49e+00	0	34	104	1451229184	77	21287

#Closed at: 2026-01-16 23:28:05
#Recorded file [1451 MB]: D:/lorett/data/31041_260117_021405.dat