passes_logs/2026/01/16/R3.2S_Murmansk/R3.2S_Murmansk__20260116_061157_NOAA_20_JPSS-1_rec.log

#Pass ID: 20260116_061157_NOAA 20 (JPSS-1)
#Satellite: NOAA 20 (JPSS-1)
#Configuration: NOAA 20
#almurnet v.1.7.20251203
#Start time: 2026-01-16 06:11:57

#Version: 2.2.20231116
#Station: R3.2S_Murmansk
#Location: 33.079688 lon 68.888172 lat
#TLE: 1 43013U 17073A   26015.89389188  .00000026  00000+0  33113-4 0  9999
#TLE: 2 43013  98.7636 316.8238 0001460  37.8997 322.2282 14.19536128422860

#Time	Az	El	Level	Level2	SNR	BER	BlckErr	Temp	State	Recorded	gain1	gain2
2026-01-16 06:11:57.42	79.40	2.01	-56.5	-71.4	3.8	1.49e+00	0	42	0	0	84	20245
2026-01-16 06:12:01.45	79.15	2.24	-56.4	-71.3	3.8	1.49e+00	0	42	104	0	83	21225
2026-01-16 06:12:05.49	78.91	2.48	-56.4	-71.3	3.8	1.49e+00	0	43	104	0	83	21115
2026-01-16 06:12:09.53	78.66	2.71	-56.4	-71.3	3.8	1.49e+00	0	42	104	0	83	21141
2026-01-16 06:12:13.58	78.40	2.95	-56.4	-71.3	3.8	1.49e+00	0	43	104	0	83	21241
2026-01-16 06:12:17.62	78.14	3.19	-56.4	-71.3	3.8	1.49e+00	0	43	104	0	83	21179
2026-01-16 06:12:21.66	77.88	3.43	-56.4	-71.3	3.8	1.49e+00	0	43	104	0	83	21170
2026-01-16 06:12:25.71	77.61	3.68	-56.4	-71.2	3.8	1.49e+00	0	43	104	0	83	21001
2026-01-16 06:12:29.75	77.34	3.92	-56.3	-71.3	3.8	1.49e+00	0	44	104	0	83	21131
2026-01-16 06:12:33.79	77.06	4.17	-56.3	-70.5	3.8	1.49e+00	0	44	104	0	83	19337
2026-01-16 06:12:37.83	76.77	4.41	-56.2	-68.1	4.1	1.44e+00	0	44	0	0	83	14610
2026-01-16 06:12:41.87	76.49	4.66	-55.7	-63.5	6.6	2.61e-01	0	44	0	5242880	83	8585
2026-01-16 06:12:45.91	76.19	4.91	-55.3	-61.8	8.2	4.40e-02	0	44	0	13631488	82	7526
2026-01-16 06:12:49.94	75.90	5.17	-55.5	-62.2	8.0	1.19e-03	0	44	0	20971520	81	8351
2026-01-16 06:12:53.98	75.59	5.42	-53.7	-56.9	13.6	4.55e-01	0	45	0	28311552	79	5088
2026-01-16 06:12:58.03	75.28	5.68	-53.2	-56.1	14.6	0.00e+00	0	45	0	35651584	77	5163
2026-01-16 06:13:02.07	74.97	5.93	-53.1	-56.0	14.8	7.00e-07	0	45	0	44040192	77	5104
2026-01-16 06:13:06.11	74.64	6.19	-52.9	-55.6	15.1	0.00e+00	0	45	0	51380224	77	4926
2026-01-16 06:13:10.14	74.32	6.45	-53.0	-55.7	15.1	0.00e+00	0	45	0	58720256	77	4948
2026-01-16 06:13:14.18	73.98	6.71	-52.9	-55.5	15.4	7.00e-07	0	45	0	66060288	77	4823
2026-01-16 06:13:18.22	73.65	6.98	-53.3	-56.1	14.8	0.00e+00	0	46	0	73400320	77	5189
2026-01-16 06:13:22.26	73.30	7.24	-53.0	-55.6	15.3	0.00e+00	0	46	0	81788928	77	4913
2026-01-16 06:13:26.30	72.95	7.51	-52.9	-55.4	15.5	0.00e+00	0	46	0	89128960	77	4794
2026-01-16 06:13:30.33	72.59	7.78	-52.9	-55.5	15.4	0.00e+00	0	46	0	96468992	77	4848
2026-01-16 06:13:34.37	72.22	8.05	-52.8	-55.3	15.7	0.00e+00	0	46	0	103809024	77	4718
2026-01-16 06:13:38.41	71.85	8.32	-52.8	-55.3	15.8	0.00e+00	0	46	0	112197632	77	4706
2026-01-16 06:13:42.45	71.47	8.60	-52.8	-55.3	15.8	0.00e+00	0	46	0	119537664	77	4711
2026-01-16 06:13:46.50	71.08	8.88	-52.8	-55.3	15.8	0.00e+00	0	46	0	126877696	77	4712
2026-01-16 06:13:50.53	70.68	9.15	-52.8	-55.3	15.8	0.00e+00	0	46	0	134217728	77	4723
2026-01-16 06:13:54.56	70.28	9.43	-52.7	-55.0	16.1	0.00e+00	0	46	0	141557760	77	4591
2026-01-16 06:13:58.60	69.87	9.71	-52.5	-54.7	16.4	0.00e+00	0	47	0	149946368	77	4421
2026-01-16 06:14:02.64	69.45	10.00	-52.4	-54.6	16.6	0.00e+00	0	46	0	157286400	76	4608
2026-01-16 06:14:06.68	69.02	10.28	-52.3	-54.4	16.8	0.00e+00	0	47	0	164626432	76	4529
2026-01-16 06:14:10.72	68.58	10.57	-52.3	-54.4	16.8	0.00e+00	0	47	0	171966464	76	4531
2026-01-16 06:14:14.76	68.13	10.86	-52.4	-54.5	16.7	0.00e+00	0	47	0	180355072	76	4578
2026-01-16 06:14:18.79	67.68	11.15	-52.4	-54.6	16.6	0.00e+00	0	47	0	187695104	76	4635
2026-01-16 06:14:22.83	67.22	11.44	-52.5	-54.6	16.6	0.00e+00	0	47	0	195035136	76	4643
2026-01-16 06:14:26.87	66.74	11.73	-52.4	-54.5	16.8	0.00e+00	0	47	0	202375168	76	4574
2026-01-16 06:14:30.90	66.26	12.02	-52.3	-54.4	16.9	0.00e+00	0	47	0	209715200	76	4532
2026-01-16 06:14:34.94	65.76	12.32	-52.1	-54.1	17.2	0.00e+00	0	47	0	218103808	76	4389
2026-01-16 06:14:38.97	65.26	12.62	-52.1	-54.1	17.2	0.00e+00	0	47	0	225443840	76	4368
2026-01-16 06:14:43.01	64.74	12.92	-52.0	-54.0	17.4	0.00e+00	0	47	0	232783872	76	4301
2026-01-16 06:14:47.05	64.22	13.22	-51.9	-53.8	17.6	0.00e+00	0	47	0	240123904	75	4447
2026-01-16 06:14:51.08	63.68	13.52	-51.9	-53.9	17.5	0.00e+00	0	47	0	248512512	75	4514
2026-01-16 06:14:55.12	63.14	13.82	-52.0	-53.9	17.5	0.00e+00	0	47	0	255852544	75	4533
2026-01-16 06:14:59.16	62.58	14.12	-51.7	-53.5	17.9	0.00e+00	0	47	0	263192576	75	4337
2026-01-16 06:15:03.20	62.00	14.43	-51.7	-53.5	17.9	0.00e+00	0	47	0	270532608	75	4315
2026-01-16 06:15:07.23	61.42	14.73	-51.7	-53.5	17.9	0.00e+00	0	47	0	277872640	75	4310
2026-01-16 06:15:11.27	60.83	15.04	-51.4	-53.1	18.3	0.00e+00	0	48	0	286261248	74	4361
2026-01-16 06:15:15.31	60.22	15.35	-51.5	-53.2	18.2	0.00e+00	0	48	0	293601280	74	4424
2026-01-16 06:15:19.34	59.60	15.65	-51.7	-53.5	18.0	0.00e+00	0	48	0	300941312	74	4558
2026-01-16 06:15:23.38	58.96	15.96	-51.7	-53.6	17.9	0.00e+00	0	48	0	308281344	74	4601
2026-01-16 06:15:27.41	58.32	16.27	-51.8	-53.6	17.9	0.00e+00	0	48	0	315621376	74	4641
2026-01-16 06:15:31.45	57.65	16.58	-51.7	-53.6	17.9	0.00e+00	0	48	0	324009984	74	4600
2026-01-16 06:15:35.49	56.98	16.88	-51.9	-53.7	17.8	0.00e+00	0	48	0	331350016	74	4695
2026-01-16 06:15:39.52	56.29	17.19	-51.8	-53.7	17.8	0.00e+00	0	48	0	338690048	74	4661
2026-01-16 06:15:43.56	55.59	17.50	-52.0	-53.8	17.7	0.00e+00	0	48	0	346030080	74	4753
2026-01-16 06:15:47.60	54.87	17.80	-52.1	-54.1	17.5	0.00e+00	0	48	0	354418688	74	4874
2026-01-16 06:15:51.63	54.14	18.11	-51.9	-53.7	17.8	0.00e+00	0	48	0	361758720	74	4694
2026-01-16 06:15:55.67	53.39	18.41	-51.9	-53.7	17.9	0.00e+00	0	48	0	369098752	74	4672
2026-01-16 06:15:59.71	52.62	18.72	-51.6	-53.4	18.2	0.00e+00	0	48	0	376438784	74	4522
2026-01-16 06:16:03.75	51.84	19.02	-51.6	-53.4	18.2	0.00e+00	0	48	0	384827392	74	4512
2026-01-16 06:16:07.79	51.05	19.32	-51.4	-53.0	18.5	0.00e+00	0	48	0	392167424	74	4333
2026-01-16 06:16:11.82	50.24	19.61	-51.1	-52.7	18.9	0.00e+00	0	48	0	399507456	74	4146
2026-01-16 06:16:15.86	49.41	19.90	-50.5	-52.0	19.5	0.00e+00	0	48	0	406847488	73	4073
2026-01-16 06:16:19.90	48.57	20.20	-50.0	-51.3	20.2	0.00e+00	0	48	0	414187520	72	4001
2026-01-16 06:16:23.94	47.71	20.48	-50.0	-51.3	20.2	0.00e+00	0	48	0	422576128	71	4242
2026-01-16 06:16:27.97	46.84	20.77	-50.0	-51.3	20.3	0.00e+00	0	48	0	429916160	71	4239
2026-01-16 06:16:32.01	45.95	21.05	-49.9	-51.2	20.4	0.00e+00	0	48	0	437256192	71	4165
2026-01-16 06:16:36.04	45.04	21.32	-49.7	-51.0	20.6	0.00e+00	0	48	0	444596224	71	4083
2026-01-16 06:16:40.08	44.12	21.59	-49.7	-51.0	20.6	0.00e+00	0	48	0	451936256	71	4057
2026-01-16 06:16:44.11	43.18	21.85	-49.6	-50.9	20.7	0.00e+00	0	49	0	460324864	71	4010
2026-01-16 06:16:48.15	42.22	22.11	-49.8	-51.1	20.5	0.00e+00	0	48	0	467664896	71	4124
2026-01-16 06:16:52.19	41.25	22.37	-50.0	-51.3	20.3	0.00e+00	0	48	0	475004928	71	4228
2026-01-16 06:16:56.22	40.27	22.61	-50.0	-51.3	20.4	0.00e+00	0	48	0	482344960	71	4213
2026-01-16 06:17:00.27	39.26	22.85	-49.9	-51.2	20.4	0.00e+00	0	48	0	490733568	71	4162
2026-01-16 06:17:04.30	38.24	23.08	-49.7	-51.0	20.7	0.00e+00	0	48	0	498073600	71	4072
2026-01-16 06:17:08.34	37.21	23.31	-49.8	-51.1	20.6	0.00e+00	0	48	0	505413632	71	4131
2026-01-16 06:17:12.37	36.16	23.52	-49.6	-50.9	20.8	0.00e+00	0	48	0	512753664	71	4006
2026-01-16 06:17:16.41	35.10	23.73	-49.5	-50.7	20.9	0.00e+00	0	48	0	520093696	70	4193
2026-01-16 06:17:20.45	34.02	23.93	-49.4	-50.6	21.0	0.00e+00	0	49	0	528482304	70	4127
2026-01-16 06:17:24.48	32.93	24.12	-49.7	-51.0	20.7	0.00e+00	0	49	0	535822336	70	4309
2026-01-16 06:17:28.52	31.83	24.29	-49.8	-51.1	20.6	0.00e+00	0	48	0	543162368	70	4368
2026-01-16 06:17:32.56	30.71	24.46	-50.0	-51.3	20.4	0.00e+00	0	48	0	550502400	70	4466
2026-01-16 06:17:36.60	29.58	24.62	-50.4	-51.8	19.9	0.00e+00	0	49	0	557842432	71	4490
2026-01-16 06:17:40.64	28.44	24.76	-50.9	-52.3	19.4	0.00e+00	0	49	0	566231040	72	4489
2026-01-16 06:17:44.68	27.30	24.89	-50.8	-52.3	19.3	0.00e+00	0	49	0	573571072	72	4489
2026-01-16 06:17:48.71	26.14	25.02	-51.1	-52.7	19.0	0.00e+00	0	48	0	580911104	72	4686
2026-01-16 06:17:52.75	24.97	25.12	-51.3	-52.9	18.8	0.00e+00	0	49	0	588251136	73	4521
2026-01-16 06:17:56.79	23.80	25.22	-51.3	-52.9	18.9	0.00e+00	0	49	0	596639744	73	4509
2026-01-16 06:18:00.82	22.62	25.30	-51.7	-53.4	18.4	0.00e+00	0	49	0	603979776	73	4761
2026-01-16 06:18:04.86	21.44	25.37	-51.5	-53.1	18.7	0.00e+00	0	49	0	611319808	73	4625
2026-01-16 06:18:08.90	20.25	25.43	-51.4	-53.1	18.6	0.00e+00	0	49	0	618659840	73	4609
2026-01-16 06:18:12.94	19.05	25.47	-51.7	-53.3	18.4	0.00e+00	0	49	0	627048448	74	4491
2026-01-16 06:18:16.97	17.86	25.50	-51.4	-53.0	18.8	0.00e+00	0	49	0	634388480	74	4305
2026-01-16 06:18:21.01	16.66	25.52	-51.1	-52.6	19.1	0.00e+00	0	49	0	641728512	74	4142
2026-01-16 06:18:25.04	15.46	25.52	-50.9	-52.4	19.4	0.00e+00	0	49	0	649068544	73	4267
2026-01-16 06:18:29.08	14.26	25.51	-50.5	-51.9	19.9	0.00e+00	0	49	0	656408576	72	4252
2026-01-16 06:18:33.12	13.06	25.48	-50.2	-51.5	20.2	0.00e+00	0	49	0	663748608	72	4087
2026-01-16 06:18:37.15	11.87	25.44	-49.9	-51.1	20.6	0.00e+00	0	49	0	672137216	71	4139
2026-01-16 06:18:41.19	10.68	25.39	-49.7	-50.9	20.8	0.00e+00	0	49	0	679477248	71	4036
2026-01-16 06:18:45.23	9.49	25.32	-49.3	-50.5	21.2	0.00e+00	0	49	0	686817280	70	4064
2026-01-16 06:18:49.27	8.31	25.24	-49.3	-50.5	21.2	0.00e+00	0	49	0	694157312	70	4083
2026-01-16 06:18:53.31	7.13	25.15	-49.2	-50.4	21.4	0.00e+00	0	49	0	702545920	70	4023
2026-01-16 06:18:57.35	5.96	25.05	-49.5	-50.7	21.0	0.00e+00	0	49	0	709885952	70	4184
2026-01-16 06:19:01.38	4.81	24.93	-49.8	-51.1	20.7	0.00e+00	0	49	0	717225984	70	4341
2026-01-16 06:19:05.42	3.66	24.80	-49.8	-51.0	20.7	0.00e+00	0	49	0	724566016	70	4321
2026-01-16 06:19:09.46	2.52	24.66	-50.1	-51.4	20.4	0.00e+00	0	49	0	732954624	70	4518
2026-01-16 06:19:13.50	1.39	24.50	-50.2	-51.5	20.3	0.00e+00	0	49	0	740294656	71	4330
2026-01-16 06:19:17.54	0.27	24.34	-50.4	-51.8	20.0	0.00e+00	0	49	0	747634688	71	4463
2026-01-16 06:19:21.57	359.16	24.17	-50.8	-52.3	19.4	0.00e+00	0	49	0	754974720	72	4473
2026-01-16 06:19:25.61	358.07	23.98	-50.9	-52.5	19.3	0.00e+00	0	49	0	762314752	72	4552
2026-01-16 06:19:29.65	356.99	23.79	-51.0	-52.6	19.1	0.00e+00	0	49	0	770703360	72	4619
2026-01-16 06:19:33.68	355.93	23.58	-51.5	-53.1	18.6	0.00e+00	0	49	0	778043392	73	4632
2026-01-16 06:19:37.72	354.87	23.37	-51.3	-52.9	18.9	0.00e+00	0	49	0	785383424	73	4499
2026-01-16 06:19:41.76	353.84	23.15	-51.1	-52.7	19.1	0.00e+00	0	49	0	792723456	73	4398
2026-01-16 06:19:45.80	352.81	22.92	-51.6	-53.2	18.5	0.00e+00	0	49	0	800063488	73	4701
2026-01-16 06:19:49.84	351.81	22.68	-51.3	-53.0	18.8	0.00e+00	0	49	0	808452096	73	4552
2026-01-16 06:19:53.88	350.81	22.44	-51.2	-52.8	18.9	0.00e+00	0	49	0	815792128	73	4489
2026-01-16 06:19:57.91	349.84	22.19	-51.2	-52.8	19.0	0.00e+00	0	49	0	823132160	73	4448
2026-01-16 06:20:01.95	348.88	21.93	-50.8	-52.2	19.5	0.00e+00	0	49	0	830472192	73	4191
2026-01-16 06:20:05.98	347.94	21.67	-50.6	-52.0	19.7	0.00e+00	0	49	0	838860800	73	4092
2026-01-16 06:20:10.02	347.01	21.40	-50.5	-51.9	19.8	0.00e+00	0	49	0	846200832	72	4275
2026-01-16 06:20:14.06	346.10	21.12	-50.4	-51.7	19.9	0.00e+00	0	49	0	853540864	72	4193
2026-01-16 06:20:18.10	345.21	20.85	-50.4	-51.7	19.9	0.00e+00	0	49	0	860880896	72	4189
2026-01-16 06:20:22.13	344.33	20.57	-50.4	-51.8	19.9	0.00e+00	0	49	0	869269504	72	4206
2026-01-16 06:20:26.17	343.47	20.28	-50.5	-52.0	19.7	0.00e+00	0	49	0	876609536	72	4299
2026-01-16 06:20:30.21	342.62	19.99	-50.5	-51.9	19.8	0.00e+00	0	49	0	883949568	72	4259
2026-01-16 06:20:34.25	341.79	19.70	-50.3	-51.6	20.0	0.00e+00	0	49	0	891289600	72	4145
2026-01-16 06:20:38.28	340.98	19.40	-50.0	-51.4	20.2	0.00e+00	0	50	0	898629632	72	4015
2026-01-16 06:20:42.32	340.18	19.10	-50.1	-51.4	20.2	0.00e+00	0	49	0	907018240	71	4273
2026-01-16 06:20:46.36	339.40	18.81	-49.9	-51.2	20.4	0.00e+00	0	49	0	914358272	71	4167
2026-01-16 06:20:50.40	338.63	18.50	-49.7	-50.9	20.7	0.00e+00	0	49	0	921698304	71	4044
2026-01-16 06:20:54.44	337.88	18.20	-49.6	-50.8	20.8	0.00e+00	0	49	0	929038336	70	4225
2026-01-16 06:20:58.48	337.15	17.90	-49.7	-50.9	20.7	0.00e+00	0	49	0	936378368	70	4279
2026-01-16 06:21:02.52	336.43	17.59	-49.5	-50.7	20.9	0.00e+00	0	49	0	944766976	70	4175
2026-01-16 06:21:06.55	335.72	17.28	-49.4	-50.6	20.9	0.00e+00	0	49	0	952107008	70	4137
2026-01-16 06:21:10.59	335.03	16.98	-49.7	-51.0	20.6	0.00e+00	0	49	0	959447040	70	4308
2026-01-16 06:21:14.62	334.35	16.67	-49.6	-50.9	20.6	0.00e+00	0	49	0	966787072	70	4273
2026-01-16 06:21:18.66	333.69	16.36	-49.7	-51.0	20.6	0.00e+00	0	49	0	975175680	70	4319
2026-01-16 06:21:22.70	333.04	16.06	-49.8	-51.1	20.5	0.00e+00	0	49	0	982515712	70	4346
2026-01-16 06:21:26.73	332.40	15.75	-50.0	-51.3	20.2	0.00e+00	0	49	0	989855744	70	4491
2026-01-16 06:21:30.77	331.78	15.44	-50.3	-51.8	19.8	0.00e+00	0	49	0	997195776	71	4447
2026-01-16 06:21:34.81	331.17	15.14	-50.6	-52.1	19.5	0.00e+00	0	49	0	1004535808	71	4609
2026-01-16 06:21:38.85	330.57	14.83	-50.6	-52.0	19.5	0.00e+00	0	49	0	1012924416	71	4586
2026-01-16 06:21:42.89	329.98	14.52	-50.6	-52.0	19.5	0.00e+00	0	49	0	1020264448	71	4596
2026-01-16 06:21:46.93	329.41	14.22	-50.8	-52.3	19.2	0.00e+00	0	49	0	1027604480	72	4459
2026-01-16 06:21:50.96	328.85	13.92	-50.8	-52.3	19.2	0.00e+00	0	49	0	1034944512	72	4471
2026-01-16 06:21:55.00	328.30	13.61	-50.8	-52.3	19.1	0.00e+00	0	49	0	1043333120	72	4476
2026-01-16 06:21:59.04	327.76	13.31	-51.0	-52.6	18.8	0.00e+00	0	49	0	1050673152	72	4619
2026-01-16 06:22:03.08	327.23	13.01	-51.1	-52.7	18.7	0.00e+00	0	49	0	1058013184	72	4661
2026-01-16 06:22:07.11	326.72	12.72	-51.2	-52.8	18.6	0.00e+00	0	49	0	1065353216	72	4742
2026-01-16 06:22:11.15	326.21	12.42	-51.3	-53.0	18.4	0.00e+00	0	49	0	1072693248	73	4588
2026-01-16 06:22:15.19	325.72	12.12	-51.3	-53.0	18.4	0.00e+00	0	49	0	1081081856	73	4551
2026-01-16 06:22:19.23	325.23	11.83	-51.3	-53.0	18.4	0.00e+00	0	49	0	1088421888	73	4589
2026-01-16 06:22:23.26	324.76	11.53	-51.5	-53.3	18.1	0.00e+00	0	49	0	1095761920	73	4711
2026-01-16 06:22:27.30	324.29	11.24	-51.7	-53.5	17.9	0.00e+00	0	50	0	1103101952	74	4572
2026-01-16 06:22:31.34	323.83	10.95	-51.9	-53.8	17.5	0.00e+00	0	49	0	1111490560	74	4735
2026-01-16 06:22:35.38	323.38	10.66	-52.0	-54.0	17.4	0.00e+00	0	49	0	1118830592	74	4817
2026-01-16 06:22:39.42	322.95	10.38	-52.0	-54.0	17.3	0.00e+00	0	49	0	1126170624	74	4857
2026-01-16 06:22:43.46	322.52	10.09	-52.3	-54.4	16.9	0.00e+00	0	49	0	1133510656	75	4783
2026-01-16 06:22:47.50	322.09	9.81	-52.3	-54.4	16.8	0.00e+00	0	50	0	1140850688	75	4806
2026-01-16 06:22:51.53	321.68	9.53	-52.3	-54.4	16.8	0.00e+00	0	49	0	1149239296	75	4781
2026-01-16 06:22:55.57	321.28	9.25	-52.2	-54.3	16.9	0.00e+00	0	49	0	1156579328	75	4723
2026-01-16 06:22:59.61	320.88	8.97	-52.2	-54.3	16.9	0.00e+00	0	49	0	1163919360	75	4725
2026-01-16 06:23:03.65	320.49	8.69	-52.4	-54.6	16.6	0.00e+00	0	49	0	1171259392	75	4900
2026-01-16 06:23:07.68	320.11	8.42	-52.5	-54.7	16.4	0.00e+00	0	49	0	1179648000	75	4952
2026-01-16 06:23:11.71	319.74	8.15	-52.6	-54.8	16.3	0.00e+00	0	49	0	1186988032	75	5041
2026-01-16 06:23:15.75	319.37	7.88	-52.8	-55.3	15.9	0.00e+00	0	49	0	1194328064	76	4985
2026-01-16 06:23:19.79	319.01	7.61	-52.9	-55.3	15.7	0.00e+00	0	49	0	1201668096	76	5038
2026-01-16 06:23:23.82	318.66	7.34	-53.1	-55.8	15.3	0.00e+00	0	49	0	1209008128	76	5295
2026-01-16 06:23:27.86	318.31	7.07	-53.1	-55.7	15.3	0.00e+00	0	50	0	1217396736	77	4928
2026-01-16 06:23:31.90	317.97	6.81	-53.2	-56.0	15.0	0.00e+00	0	49	0	1224736768	77	5113
2026-01-16 06:23:35.93	317.64	6.55	-53.1	-55.7	15.2	0.00e+00	0	49	0	1232076800	77	4965
2026-01-16 06:23:39.97	317.31	6.29	-53.0	-55.6	15.3	0.00e+00	0	50	0	1239416832	77	4921
2026-01-16 06:23:44.01	316.99	6.03	-53.0	-55.7	15.2	0.00e+00	0	49	0	1246756864	77	4928
2026-01-16 06:23:48.05	316.67	5.77	-53.1	-55.8	15.1	0.00e+00	0	49	0	1255145472	77	5003
2026-01-16 06:23:52.08	316.36	5.52	-53.1	-55.8	15.0	0.00e+00	0	49	0	1262485504	77	5022
2026-01-16 06:23:56.12	316.06	5.26	-53.4	-56.4	14.3	0.00e+00	0	49	0	1269825536	77	5381
2026-01-16 06:24:00.16	315.76	5.01	-53.4	-56.5	14.2	3.80e-06	0	49	0	1277165568	77	5461
2026-01-16 06:24:04.20	315.47	4.76	-57.8	-72.8	3.8	1.49e+00	0	49	104	1279262720	86	21018
2026-01-16 06:24:08.24	315.18	4.51	-58.3	-73.3	3.8	1.49e+00	0	50	104	1279262720	87	21025
2026-01-16 06:24:12.28	314.89	4.26	-58.5	-73.5	3.8	1.49e+00	0	49	104	1279262720	87	21737
2026-01-16 06:24:16.32	314.62	4.02	-58.6	-73.6	3.8	1.49e+00	0	49	104	1279262720	87	21810
2026-01-16 06:24:20.35	314.34	3.77	-58.6	-73.6	3.8	1.49e+00	0	50	104	1279262720	87	21777
2026-01-16 06:24:24.39	314.07	3.53	-58.5	-73.5	3.8	1.49e+00	0	50	104	1279262720	87	21573
2026-01-16 06:24:28.42	313.81	3.29	-58.5	-73.5	3.8	1.49e+00	0	50	104	1279262720	87	21688
2026-01-16 06:24:32.46	313.55	3.05	-58.4	-73.4	3.8	1.49e+00	0	49	104	1279262720	87	21321
2026-01-16 06:24:36.50	313.30	2.81	-58.4	-73.4	3.8	1.49e+00	0	50	104	1279262720	87	21327
2026-01-16 06:24:40.54	313.05	2.57	-58.3	-73.3	3.8	1.49e+00	0	50	104	1279262720	87	21237
2026-01-16 06:24:44.58	312.80	2.34	-58.3	-73.3	3.8	1.49e+00	0	50	104	1279262720	87	21176
2026-01-16 06:24:48.62	312.56	2.11	-58.3	-73.3	3.8	1.49e+00	0	50	104	1279262720	87	21160

#Closed at: 2026-01-16 06:24:51
#Recorded file [1279 MB]: D:/lorett/data/31041_260116_091157.dat