passes_logs/2026/01/16/R3.2S_Murmansk/R3.2S_Murmansk__20260116_051156_FENGYUN_3D_rec.log

#Pass ID: 20260116_051156_FENGYUN 3D
#Satellite: FENGYUN 3D
#Configuration: FENGYUN 3D
#almurnet v.1.7.20251203
#Start time: 2026-01-16 05:11:57

#Version: 2.2.20231116
#Station: R3.2S_Murmansk
#Location: 33.079688 lon 68.888172 lat
#TLE: 1 43010U 17072A   26015.49690188 -.00000192  00000+0 -69217-4 0  9996
#TLE: 2 43010  98.9932 347.3205 0002350 106.2275 253.9159 14.19694721423329

#Time	Az	El	Level	Level2	SNR	BER	BlckErr	Temp	State	Recorded	gain1	gain2
2026-01-16 05:11:57.37	39.29	2.03	-56.3	-68.3	3.8	8.46e-01	0	41	0	0	84	14049
2026-01-16 05:12:01.40	39.10	2.27	-56.2	-68.2	3.8	8.47e-01	0	42	104	0	83	14750
2026-01-16 05:12:05.44	38.90	2.52	-56.2	-68.1	3.8	8.46e-01	0	42	104	0	83	14656
2026-01-16 05:12:09.48	38.70	2.76	-56.2	-68.0	3.8	8.47e-01	0	42	104	0	83	14518
2026-01-16 05:12:13.52	38.49	3.01	-56.2	-68.1	3.8	8.46e-01	0	42	104	0	83	14685
2026-01-16 05:12:17.56	38.28	3.26	-56.2	-68.0	3.8	8.46e-01	0	43	104	0	83	14526
2026-01-16 05:12:21.61	38.07	3.52	-56.2	-68.0	3.8	8.47e-01	0	43	104	0	83	14460
2026-01-16 05:12:25.65	37.85	3.77	-56.1	-67.3	3.8	8.46e-01	0	43	104	0	83	13384
2026-01-16 05:12:29.69	37.63	4.03	-55.9	-65.4	4.0	8.45e-01	0	43	104	0	83	10769
2026-01-16 05:12:33.73	37.41	4.28	-55.1	-61.1	6.0	4.14e-01	0	43	0	3145728	82	6909
2026-01-16 05:12:37.77	37.18	4.54	-53.9	-57.7	9.3	3.06e-02	0	44	0	26214400	79	5533
2026-01-16 05:12:41.82	36.95	4.81	-53.9	-57.8	9.2	2.44e-02	0	44	0	48234496	79	5613
2026-01-16 05:12:45.86	36.71	5.07	-53.7	-57.2	9.9	1.36e-02	0	44	0	71303168	79	5239
2026-01-16 05:12:49.90	36.47	5.34	-55.4	-62.2	5.3	2.18e-01	0	44	0	92274688	81	8351
2026-01-16 05:12:53.94	36.22	5.61	-50.9	-52.7	14.9	0.00e+00	0	44	0	113246208	73	4402
2026-01-16 05:12:57.97	35.97	5.88	-50.0	-51.4	16.3	0.00e+00	0	45	0	136314880	70	4539
2026-01-16 05:13:02.01	35.71	6.15	-48.9	-50.2	17.6	0.00e+00	0	45	0	158334976	69	4161
2026-01-16 05:13:06.05	35.45	6.43	-49.3	-50.6	17.1	0.00e+00	0	45	0	181403648	70	4145
2026-01-16 05:13:10.10	35.18	6.70	-48.6	-49.8	18.0	0.00e+00	0	45	0	204472320	68	4235
2026-01-16 05:13:14.14	34.90	6.98	-47.7	-48.7	19.1	0.00e+00	0	45	0	226492416	67	3958
2026-01-16 05:13:18.18	34.63	7.27	-47.9	-49.0	18.9	0.00e+00	0	45	0	249561088	67	4055
2026-01-16 05:13:22.22	34.34	7.55	-47.9	-49.0	18.9	0.00e+00	0	45	0	272629760	67	4059
2026-01-16 05:13:26.26	34.05	7.84	-47.8	-48.9	19.0	0.00e+00	0	45	0	294649856	67	4014
2026-01-16 05:13:30.30	33.75	8.13	-48.0	-49.1	18.9	0.00e+00	0	45	0	317718528	67	4104
2026-01-16 05:13:34.34	33.45	8.42	-47.5	-48.6	19.4	0.00e+00	0	45	0	339738624	66	4099
2026-01-16 05:13:38.37	33.14	8.72	-47.4	-48.4	19.5	0.00e+00	0	46	0	362807296	66	4046
2026-01-16 05:13:42.42	32.82	9.02	-47.2	-48.2	19.8	0.00e+00	0	46	0	385875968	66	3916
2026-01-16 05:13:46.46	32.50	9.32	-47.1	-48.0	20.0	0.00e+00	0	46	0	407896064	65	4088
2026-01-16 05:13:50.50	32.17	9.62	-47.1	-48.0	20.0	0.00e+00	0	46	0	430964736	65	4097
2026-01-16 05:13:54.54	31.83	9.93	-47.0	-47.9	20.2	0.00e+00	0	46	0	454033408	65	4036
2026-01-16 05:13:58.58	31.49	10.23	-47.0	-48.0	20.1	0.00e+00	0	46	0	477102080	65	4061
2026-01-16 05:14:02.61	31.14	10.55	-46.9	-47.8	20.3	0.00e+00	0	46	0	499122176	65	3994
2026-01-16 05:14:06.66	30.77	10.86	-46.8	-47.7	20.4	0.00e+00	0	46	0	522190848	65	3937
2026-01-16 05:14:10.70	30.41	11.18	-46.7	-47.6	20.5	0.00e+00	0	46	0	545259520	65	3905
2026-01-16 05:14:14.74	30.03	11.50	-46.8	-47.7	20.4	0.00e+00	0	46	0	567279616	65	3956
2026-01-16 05:14:18.78	29.64	11.82	-47.0	-48.0	20.2	0.00e+00	0	46	0	590348288	65	4068
2026-01-16 05:14:22.82	29.25	12.15	-46.5	-47.4	20.8	0.00e+00	0	47	0	613416960	64	4022
2026-01-16 05:14:26.86	28.84	12.48	-46.4	-47.3	20.8	0.00e+00	0	47	0	635437056	64	3996
2026-01-16 05:14:30.89	28.43	12.81	-46.4	-47.3	20.9	0.00e+00	0	47	0	658505728	64	3999
2026-01-16 05:14:34.93	28.01	13.15	-46.3	-47.2	21.0	0.00e+00	0	47	0	681574400	64	3933
2026-01-16 05:14:38.97	27.57	13.48	-46.2	-47.1	21.1	0.00e+00	0	47	0	704643072	64	3888
2026-01-16 05:14:43.01	27.13	13.83	-46.1	-47.0	21.3	0.00e+00	0	47	0	726663168	63	4070
2026-01-16 05:14:47.05	26.67	14.17	-46.1	-47.0	21.3	0.00e+00	0	47	0	748683264	63	4060
2026-01-16 05:14:51.09	26.21	14.52	-46.1	-46.9	21.4	0.00e+00	0	47	0	771751936	63	4046
2026-01-16 05:14:55.13	25.73	14.87	-46.2	-47.1	21.3	0.00e+00	0	47	0	794820608	63	4104
2026-01-16 05:14:59.17	25.24	15.22	-45.8	-46.7	21.7	0.00e+00	0	47	0	817889280	63	3916
2026-01-16 05:15:03.22	24.74	15.58	-45.7	-46.5	21.8	0.00e+00	0	47	0	839909376	63	3852
2026-01-16 05:15:07.26	24.23	15.94	-45.7	-46.6	21.8	0.00e+00	0	47	0	862978048	63	3877
2026-01-16 05:15:11.30	23.70	16.30	-45.6	-46.4	22.0	0.00e+00	0	47	0	886046720	63	3797
2026-01-16 05:15:15.34	23.16	16.67	-45.2	-46.0	22.4	0.00e+00	0	48	0	908066816	62	3832
2026-01-16 05:15:19.38	22.61	17.03	-45.3	-46.1	22.3	0.00e+00	0	48	0	931135488	62	3873
2026-01-16 05:15:23.42	22.04	17.41	-45.4	-46.3	22.1	0.00e+00	0	48	0	954204160	62	3962
2026-01-16 05:15:27.46	21.46	17.78	-45.1	-45.9	22.4	0.00e+00	0	48	0	976224256	62	3823
2026-01-16 05:15:31.50	20.86	18.15	-44.8	-45.6	22.8	0.00e+00	0	48	0	999292928	61	3879
2026-01-16 05:15:35.54	20.25	18.53	-44.8	-45.6	22.8	0.00e+00	0	48	0	1022361600	61	3886
2026-01-16 05:15:39.58	19.62	18.91	-44.9	-45.7	22.7	0.00e+00	0	48	0	1045430272	61	3941
2026-01-16 05:15:43.62	18.98	19.30	-44.8	-45.6	22.8	0.00e+00	0	48	0	1067450368	61	3890
2026-01-16 05:15:47.66	18.31	19.68	-44.3	-45.1	23.3	0.00e+00	0	48	0	1090519040	60	3889
2026-01-16 05:15:51.70	17.64	20.07	-44.4	-45.2	23.2	0.00e+00	0	48	0	1113587712	60	3941
2026-01-16 05:15:55.74	16.94	20.46	-44.6	-45.4	23.0	0.00e+00	0	48	0	1135607808	60	4030
2026-01-16 05:15:59.78	16.23	20.85	-44.5	-45.3	23.1	0.00e+00	0	48	0	1158676480	60	3977
2026-01-16 05:16:03.82	15.49	21.24	-44.3	-45.1	23.3	0.00e+00	0	48	0	1180696576	60	3883
2026-01-16 05:16:07.87	14.74	21.63	-44.2	-44.9	23.5	0.00e+00	0	48	0	1203765248	60	3816
2026-01-16 05:16:11.91	13.97	22.02	-44.3	-45.0	23.4	0.00e+00	0	48	0	1226833920	60	3866
2026-01-16 05:16:15.95	13.18	22.41	-44.4	-45.2	23.3	0.00e+00	0	48	0	1248854016	60	3930
2026-01-16 05:16:19.99	12.36	22.81	-44.4	-45.1	23.5	0.00e+00	0	48	0	1271922688	59	4145
2026-01-16 05:16:24.03	11.53	23.20	-44.5	-45.3	23.4	0.00e+00	0	48	0	1294991360	59	4227
2026-01-16 05:16:28.07	10.68	23.59	-44.5	-45.2	23.4	0.00e+00	0	48	0	1318060032	59	4189
2026-01-16 05:16:32.11	9.80	23.98	-44.0	-44.8	23.9	0.00e+00	0	48	0	1340080128	59	3959
2026-01-16 05:16:36.15	8.90	24.37	-44.0	-44.7	23.9	0.00e+00	0	48	0	1363148800	59	3953
2026-01-16 05:16:40.19	7.98	24.76	-44.0	-44.7	24.0	0.00e+00	0	48	0	1386217472	59	3942
2026-01-16 05:16:44.23	7.03	25.14	-43.9	-44.7	24.0	0.00e+00	0	48	0	1408237568	59	3918
2026-01-16 05:16:48.27	6.07	25.52	-43.9	-44.6	24.1	0.00e+00	0	48	0	1431306240	59	3887
2026-01-16 05:16:52.32	5.07	25.90	-43.7	-44.4	24.3	0.00e+00	0	49	0	1454374912	59	3804
2026-01-16 05:16:56.36	4.06	26.27	-43.8	-44.5	24.1	0.00e+00	0	48	0	1476395008	59	3851
2026-01-16 05:17:00.39	3.02	26.64	-43.8	-44.5	24.2	0.00e+00	0	49	0	1499463680	59	3846
2026-01-16 05:17:04.43	1.95	27.00	-43.6	-44.4	24.3	0.00e+00	0	49	0	1522532352	59	3796
2026-01-16 05:17:08.47	0.86	27.35	-43.8	-44.5	24.2	0.00e+00	0	49	0	1545601024	59	3850
2026-01-16 05:17:12.51	359.75	27.70	-43.6	-44.4	24.3	0.00e+00	0	49	0	1567621120	59	3788
2026-01-16 05:17:16.55	358.61	28.04	-43.4	-44.1	24.6	0.00e+00	0	49	0	1589641216	58	3897
2026-01-16 05:17:20.60	357.45	28.37	-43.3	-44.0	24.7	0.00e+00	0	48	0	1612709888	58	3854
2026-01-16 05:17:24.63	356.26	28.69	-43.4	-44.2	24.5	0.00e+00	0	48	0	1635778560	58	3925
2026-01-16 05:17:28.67	355.05	29.00	-43.6	-44.3	24.4	0.00e+00	0	49	0	1658847232	58	3978
2026-01-16 05:17:32.71	353.82	29.30	-43.5	-44.2	24.5	0.00e+00	0	49	0	1680867328	58	3949
2026-01-16 05:17:36.75	352.56	29.59	-43.5	-44.2	24.5	0.00e+00	0	49	0	1703936000	58	3937
2026-01-16 05:17:40.80	351.28	29.86	-43.4	-44.1	24.6	0.00e+00	0	49	0	1727004672	58	3901
2026-01-16 05:17:44.84	349.98	30.12	-43.1	-43.8	24.8	0.00e+00	0	48	0	1749024768	57	3998
2026-01-16 05:17:48.87	348.66	30.37	-43.1	-43.8	24.9	0.00e+00	0	49	0	1772093440	57	3997
2026-01-16 05:17:52.91	347.32	30.60	-43.2	-43.9	24.8	0.00e+00	0	49	0	1795162112	57	4039
2026-01-16 05:17:56.96	345.96	30.81	-43.2	-43.9	24.8	0.00e+00	0	49	0	1817182208	57	4026
2026-01-16 05:18:00.99	344.58	31.01	-43.3	-44.0	24.7	0.00e+00	0	48	0	1840250880	57	4071
2026-01-16 05:18:05.03	343.19	31.19	-43.3	-44.0	24.8	0.00e+00	0	48	0	1863319552	57	4069
2026-01-16 05:18:09.08	341.78	31.35	-43.0	-43.7	25.0	0.00e+00	0	49	0	1886388224	57	3942
2026-01-16 05:18:13.12	340.36	31.49	-43.1	-43.8	24.9	0.00e+00	0	49	0	1908408320	57	3995
2026-01-16 05:18:17.16	338.92	31.61	-43.0	-43.7	25.1	0.00e+00	0	49	0	1931476992	57	3925
2026-01-16 05:18:21.20	337.48	31.71	-43.0	-43.7	25.1	0.00e+00	0	49	0	1954545664	57	3935
2026-01-16 05:18:25.24	336.03	31.79	-42.8	-43.5	25.3	0.00e+00	0	49	0	1976565760	57	3835
2026-01-16 05:18:29.28	334.57	31.86	-43.2	-43.9	24.9	0.00e+00	0	49	0	1999634432	57	4032
2026-01-16 05:18:33.32	333.11	31.90	-43.3	-44.0	24.8	0.00e+00	0	49	0	2021654528	57	4059
2026-01-16 05:18:37.36	331.64	31.91	-42.9	-43.6	25.2	0.00e+00	0	49	0	2044723200	57	3883
2026-01-16 05:18:41.40	330.17	31.91	-43.0	-43.7	25.0	0.00e+00	0	49	0	2067791872	57	3947
2026-01-16 05:18:45.44	328.71	31.89	-42.9	-43.6	25.1	0.00e+00	0	49	0	2089811968	57	3910
2026-01-16 05:18:49.48	327.24	31.84	-43.3	-44.1	24.7	0.00e+00	0	49	0	2112880640	57	4104
2026-01-16 05:18:53.52	325.79	31.78	-43.0	-43.7	25.1	0.00e+00	0	49	0	2135949312	57	3945
2026-01-16 05:18:57.56	324.34	31.69	-42.7	-43.4	25.4	0.00e+00	0	49	0	2157969408	57	3796
2026-01-16 05:19:01.60	322.89	31.58	-43.1	-43.9	25.0	0.00e+00	0	49	0	2181038080	57	4007
2026-01-16 05:19:05.64	321.46	31.46	-43.6	-44.3	24.6	0.00e+00	0	49	0	2204106752	57	4221
2026-01-16 05:19:09.68	320.04	31.31	-43.4	-44.1	24.7	0.00e+00	0	49	0	2227175424	57	4121
2026-01-16 05:19:13.72	318.64	31.15	-42.8	-43.5	25.3	0.00e+00	0	49	0	2249195520	57	3841
2026-01-16 05:19:17.76	317.24	30.96	-42.9	-43.6	25.1	0.00e+00	0	49	0	2272264192	57	3912
2026-01-16 05:19:21.80	315.87	30.76	-43.2	-44.0	24.9	0.00e+00	0	49	0	2295332864	57	4057
2026-01-16 05:19:25.84	314.51	30.54	-43.4	-44.1	24.7	0.00e+00	0	49	0	2317352960	57	4114
2026-01-16 05:19:29.88	313.17	30.31	-43.0	-43.7	25.1	0.00e+00	0	49	0	2340421632	57	3920
2026-01-16 05:19:33.92	311.86	30.06	-43.3	-44.0	24.8	0.00e+00	0	49	0	2362441728	57	4076
2026-01-16 05:19:37.95	310.56	29.80	-43.2	-43.9	24.9	0.00e+00	0	49	0	2385510400	57	4049
2026-01-16 05:19:41.99	309.29	29.52	-43.7	-44.5	24.4	0.00e+00	0	49	0	2408579072	57	4292
2026-01-16 05:19:46.03	308.03	29.23	-43.5	-44.2	24.6	0.00e+00	0	49	0	2430599168	58	3949
2026-01-16 05:19:50.07	306.80	28.93	-43.3	-44.0	24.8	0.00e+00	0	49	0	2453667840	58	3854
2026-01-16 05:19:54.10	305.60	28.62	-43.5	-44.3	24.6	0.00e+00	0	49	0	2476736512	58	3965
2026-01-16 05:19:58.15	304.41	28.29	-43.4	-44.1	24.8	0.00e+00	0	49	0	2498756608	58	3884
2026-01-16 05:20:02.19	303.25	27.96	-43.5	-44.2	24.6	0.00e+00	0	49	0	2521825280	58	3939
2026-01-16 05:20:06.23	302.12	27.62	-43.5	-44.2	24.6	0.00e+00	0	49	0	2544893952	58	3953
2026-01-16 05:20:10.27	301.01	27.27	-43.7	-44.4	24.5	0.00e+00	0	49	0	2567962624	58	4021
2026-01-16 05:20:14.31	299.93	26.91	-43.9	-44.6	24.3	0.00e+00	0	49	0	2589982720	58	4120
2026-01-16 05:20:18.35	298.86	26.55	-43.9	-44.7	24.2	0.00e+00	0	49	0	2613051392	58	4153
2026-01-16 05:20:22.39	297.83	26.18	-44.0	-44.7	24.2	0.00e+00	0	49	0	2636120064	58	4172
2026-01-16 05:20:26.43	296.81	25.80	-44.0	-44.8	24.1	0.00e+00	0	49	0	2658140160	58	4203
2026-01-16 05:20:30.47	295.83	25.43	-43.9	-44.6	24.3	0.00e+00	0	49	0	2681208832	58	4124
2026-01-16 05:20:34.52	294.86	25.04	-44.0	-44.7	24.2	0.00e+00	0	49	0	2704277504	58	4162
2026-01-16 05:20:38.55	293.92	24.66	-44.1	-44.8	24.0	0.00e+00	0	49	0	2726297600	58	4242
2026-01-16 05:20:42.59	293.00	24.27	-44.0	-44.8	24.1	0.00e+00	0	49	0	2749366272	58	4205
2026-01-16 05:20:46.63	292.11	23.88	-44.3	-45.1	23.8	0.00e+00	0	49	0	2771386368	59	4115
2026-01-16 05:20:50.67	291.23	23.49	-44.3	-45.1	23.8	0.00e+00	0	49	0	2794455040	59	4126
2026-01-16 05:20:54.71	290.38	23.10	-44.2	-45.0	23.9	0.00e+00	0	49	0	2817523712	59	4071
2026-01-16 05:20:58.75	289.55	22.70	-44.5	-45.2	23.7	0.00e+00	0	49	0	2839543808	59	4178
2026-01-16 05:21:02.79	288.74	22.31	-44.5	-45.2	23.6	0.00e+00	0	49	0	2862612480	59	4190
2026-01-16 05:21:06.83	287.95	21.92	-44.5	-45.3	23.6	0.00e+00	0	49	0	2885681152	59	4215
2026-01-16 05:21:10.87	287.18	21.52	-44.6	-45.4	23.5	0.00e+00	0	49	0	2908749824	59	4250
2026-01-16 05:21:14.91	286.43	21.13	-44.4	-45.2	23.7	0.00e+00	0	49	0	2930769920	59	4161
2026-01-16 05:21:18.95	285.70	20.74	-44.4	-45.2	23.7	0.00e+00	0	49	0	2953838592	59	4153
2026-01-16 05:21:22.99	284.99	20.35	-44.4	-45.2	23.7	0.00e+00	0	49	0	2976907264	59	4149
2026-01-16 05:21:27.03	284.30	19.96	-44.6	-45.3	23.5	0.00e+00	0	49	0	2998927360	59	4232
2026-01-16 05:21:31.07	283.62	19.57	-44.7	-45.4	23.2	0.00e+00	0	49	0	3021996032	60	4044
2026-01-16 05:21:35.12	282.96	19.19	-44.5	-45.2	23.4	0.00e+00	0	49	0	3045064704	60	3949
2026-01-16 05:21:39.16	282.32	18.81	-44.6	-45.4	23.3	0.00e+00	0	49	0	3067084800	60	4008
2026-01-16 05:21:43.20	281.69	18.42	-44.8	-45.5	23.1	0.00e+00	0	49	0	3090153472	60	4092
2026-01-16 05:21:47.24	281.08	18.05	-44.9	-45.7	22.9	0.00e+00	0	49	0	3113222144	60	4152
2026-01-16 05:21:51.28	280.49	17.67	-45.1	-45.9	22.7	0.00e+00	0	49	0	3136290816	60	4289
2026-01-16 05:21:55.32	279.91	17.30	-45.0	-45.8	22.8	0.00e+00	0	49	0	3158310912	60	4196
2026-01-16 05:21:59.36	279.34	16.92	-45.2	-46.0	22.6	0.00e+00	0	49	0	3180331008	60	4294
2026-01-16 05:22:03.40	278.79	16.56	-45.3	-46.1	22.5	0.00e+00	0	49	0	3203399680	61	4130
2026-01-16 05:22:07.44	278.25	16.19	-45.4	-46.2	22.4	0.00e+00	0	49	0	3226468352	61	4156
2026-01-16 05:22:11.48	277.72	15.83	-45.5	-46.3	22.2	0.00e+00	0	49	0	3249537024	61	4240
2026-01-16 05:22:15.51	277.21	15.47	-45.9	-46.7	21.9	0.00e+00	0	49	0	3271557120	62	4189
2026-01-16 05:22:19.56	276.71	15.11	-45.7	-46.5	22.1	0.00e+00	0	49	0	3294625792	62	4087
2026-01-16 05:22:23.59	276.22	14.76	-45.9	-46.7	21.9	0.00e+00	0	49	0	3317694464	62	4172
2026-01-16 05:22:27.63	275.75	14.41	-46.0	-46.8	21.7	0.00e+00	0	49	0	3339714560	62	4225
2026-01-16 05:22:31.66	275.28	14.06	-45.9	-46.8	21.7	0.00e+00	0	49	0	3362783232	62	4211
2026-01-16 05:22:35.70	274.83	13.72	-46.0	-46.8	21.7	0.00e+00	0	49	0	3385851904	62	4214
2026-01-16 05:22:39.73	274.39	13.38	-46.3	-47.1	21.4	0.00e+00	0	49	0	3407872000	63	4139
2026-01-16 05:22:43.77	273.96	13.04	-46.2	-47.1	21.4	0.00e+00	0	49	0	3430940672	63	4105
2026-01-16 05:22:47.81	273.53	12.70	-46.2	-47.1	21.4	0.00e+00	0	49	0	3454009344	63	4116
2026-01-16 05:22:51.85	273.12	12.37	-46.3	-47.2	21.2	0.00e+00	0	49	0	3476029440	63	4185
2026-01-16 05:22:55.88	272.72	12.04	-46.5	-47.4	21.0	0.00e+00	0	50	0	3499098112	63	4263
2026-01-16 05:22:59.92	272.32	11.72	-46.4	-47.4	21.0	0.00e+00	0	49	0	3522166784	63	4243
2026-01-16 05:23:03.96	271.94	11.39	-46.5	-47.4	21.0	0.00e+00	0	49	0	3544186880	63	4248
2026-01-16 05:23:08.00	271.56	11.07	-46.6	-47.5	20.7	0.00e+00	0	49	0	3567255552	64	4087
2026-01-16 05:23:12.04	271.19	10.76	-46.4	-47.3	20.9	0.00e+00	0	49	0	3589275648	64	3969
2026-01-16 05:23:16.07	270.83	10.44	-46.6	-47.5	20.6	0.00e+00	0	49	0	3612344320	64	4097
2026-01-16 05:23:20.11	270.48	10.13	-47.8	-48.8	19.1	0.00e+00	0	49	0	3635412992	66	4230
2026-01-16 05:23:24.16	270.13	9.82	-48.3	-49.5	18.2	0.00e+00	0	49	0	3657433088	67	4317
2026-01-16 05:23:28.19	269.79	9.51	-49.0	-50.3	17.2	0.00e+00	0	49	0	3680501760	68	4457
2026-01-16 05:23:32.24	269.46	9.21	-50.8	-52.7	14.3	2.20e-06	0	49	0	3703570432	72	4683
2026-01-16 05:23:36.28	269.14	8.91	-53.1	-56.5	10.1	7.30e-03	0	49	0	3726639104	76	5729
2026-01-16 05:23:40.32	268.82	8.61	-53.6	-57.7	8.6	4.84e-02	0	49	0	3748659200	77	6262
2026-01-16 05:23:44.36	268.51	8.32	-53.1	-56.5	10.0	1.55e-02	0	49	0	3771727872	77	5446
2026-01-16 05:23:48.40	268.21	8.02	-51.2	-53.3	13.6	2.51e-05	0	49	0	3794796544	74	4488
2026-01-16 05:23:52.44	267.91	7.73	-50.7	-52.6	14.7	0.00e+00	0	49	0	3816816640	73	4343
2026-01-16 05:23:56.48	267.62	7.45	-49.0	-50.4	17.1	0.00e+00	0	49	0	3839885312	70	4016
2026-01-16 05:24:00.53	267.34	7.16	-47.2	-48.2	19.3	0.00e+00	0	49	0	3862953984	66	3955
2026-01-16 05:24:04.57	267.06	6.88	-47.1	-48.2	19.5	0.00e+00	0	49	0	3886022656	65	4149
2026-01-16 05:24:08.61	266.78	6.60	-47.8	-48.9	18.8	0.00e+00	0	49	0	3908042752	66	4271
2026-01-16 05:24:12.65	266.51	6.32	-47.8	-48.9	18.9	0.00e+00	0	49	0	3931111424	66	4251
2026-01-16 05:24:16.69	266.25	6.05	-47.5	-48.6	19.1	0.00e+00	0	49	0	3954180096	66	4126
2026-01-16 05:24:20.73	265.99	5.77	-47.8	-48.9	18.8	0.00e+00	0	49	0	3976200192	66	4269
2026-01-16 05:24:24.77	265.74	5.50	-48.1	-49.2	18.5	0.00e+00	0	49	0	3999268864	66	4415
2026-01-16 05:24:28.81	265.49	5.23	-47.9	-49.0	18.6	0.00e+00	0	49	0	4021288960	67	4095
2026-01-16 05:24:32.84	265.25	4.97	-56.6	-67.0	3.9	2.91e-02	0	49	0	4043309056	83	12943
2026-01-16 05:24:36.88	265.01	4.70	-57.9	-69.9	3.8	8.45e-01	0	50	104	4043309056	86	15063
2026-01-16 05:24:40.93	264.77	4.44	-58.2	-70.2	3.8	8.47e-01	0	49	104	4043309056	86	15620
2026-01-16 05:24:44.97	264.54	4.18	-58.4	-70.3	3.8	8.47e-01	0	49	104	4043309056	87	15016
2026-01-16 05:24:49.01	264.32	3.92	-58.5	-70.5	3.8	8.46e-01	0	49	104	4043309056	87	15284
2026-01-16 05:24:53.05	264.10	3.67	-58.5	-70.5	3.8	8.45e-01	0	50	104	4043309056	87	15297
2026-01-16 05:24:57.09	263.88	3.41	-58.4	-70.4	3.8	8.46e-01	0	50	104	4043309056	87	15058
2026-01-16 05:25:01.13	263.67	3.16	-58.3	-70.3	3.8	8.46e-01	0	50	104	4043309056	87	15000
2026-01-16 05:25:05.17	263.46	2.91	-58.3	-70.3	3.8	8.46e-01	0	49	104	4043309056	87	14929
2026-01-16 05:25:09.21	263.25	2.66	-58.3	-70.3	3.8	8.45e-01	0	49	104	4043309056	87	14892
2026-01-16 05:25:13.25	263.05	2.42	-58.3	-70.3	3.8	8.46e-01	0	50	104	4043309056	87	14895
2026-01-16 05:25:17.29	262.85	2.17	-58.3	-70.2	3.8	8.46e-01	0	50	104	4043309056	87	14849

#Closed at: 2026-01-16 05:25:20
#Recorded file [4043 MB]: D:/lorett/data/31041_260116_081157.dat