passes_logs/2026/01/16/R3.2S_Murmansk/R3.2S_Murmansk__20260116_151400_FENGYUN_3D_rec.log

#Pass ID: 20260116_151400_FENGYUN 3D
#Satellite: FENGYUN 3D
#Configuration: FENGYUN 3D
#almurnet v.1.7.20251203
#Start time: 2026-01-16 15:13:59

#Version: 2.2.20231116
#Station: R3.2S_Murmansk
#Location: 33.079688 lon 68.888172 lat
#TLE: 1 43010U 17072A   26015.99024095 -.00000189  00000+0 -67463-4 0  9996
#TLE: 2 43010  98.9932 347.8215 0002366 106.5594 253.5841 14.19694691423396

#Time	Az	El	Level	Level2	SNR	BER	BlckErr	Temp	State	Recorded	gain1	gain2
2026-01-16 15:13:59.90	248.35	1.97	-51.9	-63.9	3.8	8.47e-01	0	31	0	0	75	14321
2026-01-16 15:14:02.92	248.66	2.10	-51.9	-63.9	3.8	8.46e-01	0	31	104	0	74	15106
2026-01-16 15:14:05.95	248.98	2.23	-51.9	-63.9	3.8	8.47e-01	0	31	104	0	74	15128
2026-01-16 15:14:08.98	249.30	2.35	-51.9	-63.9	3.8	8.46e-01	0	31	104	0	74	15139
2026-01-16 15:14:12.00	249.62	2.48	-51.9	-63.9	3.8	8.46e-01	0	31	104	0	74	15122
2026-01-16 15:14:15.03	249.95	2.61	-51.9	-63.8	3.8	8.45e-01	0	32	104	0	74	14998
2026-01-16 15:14:18.05	250.28	2.73	-51.9	-63.8	3.8	8.46e-01	0	32	104	0	74	14969
2026-01-16 15:14:21.07	250.61	2.86	-51.9	-63.8	3.8	8.46e-01	0	32	104	0	74	14954
2026-01-16 15:14:24.10	250.94	2.98	-51.9	-63.9	3.8	8.47e-01	0	32	104	0	74	15060
2026-01-16 15:14:27.13	251.28	3.11	-51.9	-63.9	3.8	8.46e-01	0	32	104	0	74	15083
2026-01-16 15:14:30.16	251.62	3.23	-51.9	-63.8	3.8	8.46e-01	0	32	104	0	74	14887
2026-01-16 15:14:33.18	251.96	3.36	-51.9	-63.7	3.8	8.46e-01	0	32	104	0	74	14820
2026-01-16 15:14:36.21	252.31	3.48	-51.9	-63.6	3.8	8.46e-01	0	32	104	0	74	14646
2026-01-16 15:14:39.23	252.65	3.61	-51.9	-63.7	3.8	8.45e-01	0	32	104	0	74	14799
2026-01-16 15:14:42.26	253.00	3.73	-51.9	-63.8	3.8	8.47e-01	0	32	104	0	74	14954
2026-01-16 15:14:45.28	253.36	3.85	-51.9	-63.7	3.8	8.46e-01	0	32	104	0	74	14877
2026-01-16 15:14:48.31	253.71	3.98	-51.9	-63.8	3.8	8.47e-01	0	32	104	0	74	15051
2026-01-16 15:14:51.34	254.07	4.10	-51.9	-63.8	3.8	8.47e-01	0	32	104	0	74	14926
2026-01-16 15:14:54.36	254.43	4.22	-51.9	-63.6	3.9	8.45e-01	0	32	104	0	74	14578
2026-01-16 15:14:57.39	254.80	4.35	-51.9	-63.7	3.8	8.47e-01	0	32	104	0	74	14723
2026-01-16 15:15:00.42	255.17	4.47	-51.8	-63.3	3.8	8.45e-01	0	32	104	0	74	14081
2026-01-16 15:15:03.44	255.54	4.59	-51.9	-63.4	3.8	8.45e-01	0	33	104	0	74	14299
2026-01-16 15:15:06.47	255.91	4.71	-51.1	-58.0	5.2	7.66e-01	0	33	0	0	74	7672
2026-01-16 15:15:09.50	256.29	4.83	-49.9	-54.0	8.7	6.58e-02	0	33	0	14680064	71	5747
2026-01-16 15:15:12.53	256.67	4.95	-45.4	-46.9	16.0	0.00e+00	0	33	0	31457280	62	4268
2026-01-16 15:15:15.55	257.05	5.07	-46.5	-48.4	14.6	0.00e+00	0	33	0	49283072	63	4793
2026-01-16 15:15:18.57	257.43	5.19	-43.7	-44.9	18.4	1.10e-06	0	33	0	66060288	59	4050
2026-01-16 15:15:21.60	257.82	5.31	-44.4	-45.6	17.7	0.00e+00	0	33	0	82837504	59	4383
2026-01-16 15:15:24.62	258.21	5.43	-43.3	-44.4	18.9	0.00e+00	0	33	0	99614720	58	4024
2026-01-16 15:15:27.65	258.61	5.54	-43.4	-44.6	18.7	0.00e+00	0	33	0	116391936	58	4101
2026-01-16 15:15:30.67	259.00	5.66	-43.5	-44.7	18.6	0.00e+00	0	33	0	134217728	58	4150
2026-01-16 15:15:33.70	259.41	5.78	-43.5	-44.6	18.7	0.00e+00	0	33	0	150994944	58	4114
2026-01-16 15:15:36.72	259.81	5.89	-43.2	-44.3	19.0	0.00e+00	0	33	0	167772160	58	3980
2026-01-16 15:15:39.74	260.21	6.01	-43.2	-44.3	19.1	0.00e+00	0	33	0	184549376	58	3966
2026-01-16 15:15:42.77	260.63	6.12	-43.1	-44.2	19.1	0.00e+00	0	33	0	201326592	58	3942
2026-01-16 15:15:45.79	261.04	6.23	-43.0	-44.1	19.3	0.00e+00	0	33	0	219152384	57	4101
2026-01-16 15:15:48.82	261.45	6.35	-43.3	-44.4	19.0	0.00e+00	0	33	0	235929600	57	4252
2026-01-16 15:15:51.84	261.87	6.46	-43.1	-44.1	19.3	0.00e+00	0	33	0	252706816	57	4137
2026-01-16 15:15:54.87	262.30	6.57	-43.2	-44.3	19.2	0.00e+00	0	33	0	269484032	57	4202
2026-01-16 15:15:57.90	262.72	6.68	-43.1	-44.2	19.3	0.00e+00	0	33	0	287309824	57	4148
2026-01-16 15:16:00.92	263.15	6.79	-42.8	-43.8	19.7	0.00e+00	0	33	0	304087040	57	3975
2026-01-16 15:16:03.94	263.58	6.90	-43.0	-44.0	19.4	0.00e+00	0	33	0	320864256	57	4092
2026-01-16 15:16:06.97	264.01	7.01	-43.2	-44.2	19.2	0.00e+00	0	33	0	337641472	57	4192
2026-01-16 15:16:09.99	264.45	7.11	-43.1	-44.2	19.3	0.00e+00	0	33	0	355467264	57	4156
2026-01-16 15:16:13.02	264.89	7.22	-43.1	-44.2	19.4	0.00e+00	0	33	0	372244480	57	4154
2026-01-16 15:16:16.04	265.34	7.32	-42.9	-44.0	19.5	0.00e+00	0	33	0	389021696	57	4071
2026-01-16 15:16:19.07	265.78	7.43	-42.7	-43.7	19.8	0.00e+00	0	33	0	405798912	57	3950
2026-01-16 15:16:22.10	266.23	7.53	-42.5	-43.5	19.8	0.00e+00	0	33	0	423624704	56	4090
2026-01-16 15:16:25.12	266.69	7.63	-42.7	-43.8	19.5	0.00e+00	0	33	0	440401920	56	4208
2026-01-16 15:16:28.14	267.14	7.73	-42.9	-44.1	18.8	0.00e+00	0	33	0	457179136	56	4349
2026-01-16 15:16:31.17	267.60	7.83	-44.6	-46.0	16.7	0.00e+00	0	33	0	473956352	59	4597
2026-01-16 15:16:34.19	268.06	7.93	-46.2	-48.3	13.7	1.25e-05	0	33	0	491782144	63	4723
2026-01-16 15:16:37.22	268.53	8.03	-47.1	-49.9	11.8	4.94e-04	0	33	0	508559360	64	5346
2026-01-16 15:16:40.24	268.99	8.12	-48.3	-52.0	9.4	1.72e-02	0	33	0	525336576	67	5757
2026-01-16 15:16:43.26	269.46	8.21	-47.6	-50.5	11.2	3.00e-03	0	33	0	542113792	67	4855
2026-01-16 15:16:46.29	269.94	8.31	-45.5	-47.2	15.1	0.00e+00	0	33	0	558891008	62	4427
2026-01-16 15:16:49.31	270.41	8.40	-44.3	-45.6	17.5	0.00e+00	0	33	0	576716800	59	4369
2026-01-16 15:16:52.34	270.89	8.49	-43.4	-44.5	18.9	0.00e+00	0	33	0	593494016	58	4070
2026-01-16 15:16:55.36	271.38	8.58	-42.6	-43.6	19.9	0.00e+00	0	33	0	610271232	57	3902
2026-01-16 15:16:58.38	271.86	8.67	-42.4	-43.4	20.2	0.00e+00	0	33	0	627048448	56	4031
2026-01-16 15:17:01.41	272.35	8.75	-42.4	-43.4	20.2	0.00e+00	0	33	0	644874240	56	4009
2026-01-16 15:17:04.43	272.84	8.84	-42.2	-43.2	20.4	0.00e+00	0	33	0	661651456	56	3942
2026-01-16 15:17:07.46	273.33	8.92	-42.3	-43.3	20.4	0.00e+00	0	33	0	678428672	56	3960
2026-01-16 15:17:10.48	273.83	9.00	-42.4	-43.4	20.3	0.00e+00	0	33	0	695205888	56	4007
2026-01-16 15:17:13.50	274.33	9.08	-42.5	-43.5	20.1	0.00e+00	0	33	0	713031680	56	4097
2026-01-16 15:17:16.53	274.83	9.16	-42.3	-43.3	20.3	0.00e+00	0	33	0	729808896	56	3995
2026-01-16 15:17:19.55	275.33	9.23	-42.3	-43.3	20.4	0.00e+00	0	33	0	746586112	56	3960
2026-01-16 15:17:22.58	275.84	9.31	-42.6	-43.6	20.1	0.00e+00	0	33	0	763363328	56	4111
2026-01-16 15:17:25.60	276.35	9.38	-42.4	-43.4	20.2	0.00e+00	0	33	0	780140544	56	4034
2026-01-16 15:17:28.63	276.86	9.45	-42.4	-43.4	20.3	0.00e+00	0	33	0	797966336	56	4027
2026-01-16 15:17:31.65	277.37	9.52	-42.3	-43.3	20.4	0.00e+00	0	33	0	814743552	56	3987
2026-01-16 15:17:34.68	277.89	9.59	-42.5	-43.4	20.2	0.00e+00	0	33	0	831520768	56	4049
2026-01-16 15:17:37.70	278.40	9.66	-42.5	-43.5	20.3	0.00e+00	0	33	0	848297984	56	4059
2026-01-16 15:17:40.73	278.93	9.72	-42.5	-43.5	20.3	0.00e+00	0	33	0	865075200	56	4059
2026-01-16 15:17:43.75	279.45	9.78	-42.4	-43.4	20.3	0.00e+00	0	33	0	882900992	56	4021
2026-01-16 15:17:46.78	279.97	9.84	-42.3	-43.2	20.5	0.00e+00	0	33	0	899678208	56	3951
2026-01-16 15:17:49.80	280.50	9.90	-42.2	-43.1	20.7	0.00e+00	0	33	0	916455424	56	3886
2026-01-16 15:17:52.83	281.03	9.96	-42.2	-43.2	20.5	0.00e+00	0	33	0	933232640	56	3932
2026-01-16 15:17:55.85	281.56	10.01	-42.2	-43.1	20.6	0.00e+00	0	33	0	950009856	56	3903
2026-01-16 15:17:58.88	282.09	10.06	-42.0	-43.0	20.8	0.00e+00	0	33	0	967835648	56	3831
2026-01-16 15:18:01.91	282.63	10.11	-41.7	-42.6	21.1	0.00e+00	0	33	0	984612864	55	3902
2026-01-16 15:18:04.93	283.16	10.16	-41.9	-42.8	20.9	0.00e+00	0	33	0	1001390080	55	3962
2026-01-16 15:18:07.96	283.70	10.21	-42.1	-43.0	20.7	0.00e+00	0	33	0	1018167296	55	4082
2026-01-16 15:18:10.99	284.24	10.25	-42.3	-43.3	20.5	0.00e+00	0	33	0	1035993088	55	4209
2026-01-16 15:18:14.01	284.78	10.29	-42.1	-43.1	20.7	0.00e+00	0	33	0	1052770304	55	4100
2026-01-16 15:18:17.04	285.32	10.33	-42.1	-43.0	20.7	0.00e+00	0	33	0	1069547520	55	4089
2026-01-16 15:18:20.07	285.87	10.37	-42.2	-43.2	20.6	0.00e+00	0	33	0	1086324736	55	4159
2026-01-16 15:18:23.09	286.41	10.40	-42.4	-43.3	20.5	0.00e+00	0	33	0	1104150528	55	4234
2026-01-16 15:18:26.12	286.96	10.44	-42.6	-43.5	20.3	0.00e+00	0	33	0	1120927744	55	4340
2026-01-16 15:18:29.14	287.50	10.47	-42.4	-43.3	20.5	0.00e+00	0	34	0	1137704960	55	4230
2026-01-16 15:18:32.17	288.05	10.49	-42.5	-43.5	20.4	0.00e+00	0	33	0	1154482176	55	4305
2026-01-16 15:18:35.20	288.60	10.52	-42.3	-43.2	20.6	0.00e+00	0	34	0	1172307968	55	4191
2026-01-16 15:18:38.22	289.15	10.54	-42.4	-43.3	20.6	0.00e+00	0	33	0	1189085184	55	4230
2026-01-16 15:18:41.25	289.70	10.57	-42.2	-43.2	20.7	0.00e+00	0	34	0	1205862400	55	4156
2026-01-16 15:18:44.27	290.25	10.58	-42.2	-43.2	20.7	0.00e+00	0	34	0	1222639616	55	4148
2026-01-16 15:18:47.30	290.80	10.60	-42.3	-43.2	20.7	0.00e+00	0	33	0	1240465408	55	4159
2026-01-16 15:18:50.32	291.36	10.62	-42.5	-43.5	20.4	0.00e+00	0	34	0	1257242624	55	4313
2026-01-16 15:18:53.35	291.91	10.63	-42.5	-43.5	20.4	0.00e+00	0	33	0	1274019840	55	4314
2026-01-16 15:18:56.37	292.46	10.64	-42.5	-43.4	20.5	0.00e+00	0	33	0	1290797056	55	4278
2026-01-16 15:18:59.40	293.02	10.64	-42.2	-43.2	20.7	0.00e+00	0	33	0	1308622848	55	4149
2026-01-16 15:19:02.42	293.57	10.65	-42.2	-43.1	20.7	0.00e+00	0	33	0	1325400064	55	4131
2026-01-16 15:19:05.45	294.12	10.65	-42.3	-43.3	20.6	0.00e+00	0	34	0	1342177280	55	4196
2026-01-16 15:19:08.47	294.68	10.65	-42.4	-43.3	20.6	0.00e+00	0	34	0	1358954496	55	4236
2026-01-16 15:19:11.50	295.23	10.65	-42.4	-43.3	20.6	0.00e+00	0	34	0	1376780288	55	4234
2026-01-16 15:19:14.52	295.79	10.65	-42.3	-43.3	20.6	0.00e+00	0	34	0	1393557504	55	4194
2026-01-16 15:19:17.55	296.34	10.64	-42.5	-43.5	20.4	0.00e+00	0	33	0	1410334720	55	4311
2026-01-16 15:19:20.58	296.89	10.63	-42.6	-43.6	20.4	0.00e+00	0	34	0	1427111936	55	4346
2026-01-16 15:19:23.60	297.45	10.62	-42.4	-43.3	20.6	0.00e+00	0	33	0	1443889152	55	4226
2026-01-16 15:19:26.63	298.00	10.60	-42.5	-43.4	20.5	0.00e+00	0	34	0	1461714944	55	4279
2026-01-16 15:19:29.66	298.55	10.59	-42.4	-43.4	20.5	0.00e+00	0	33	0	1478492160	55	4251
2026-01-16 15:19:32.68	299.10	10.57	-42.4	-43.4	20.6	0.00e+00	0	33	0	1495269376	55	4258
2026-01-16 15:19:35.71	299.65	10.55	-42.5	-43.4	20.5	0.00e+00	0	33	0	1512046592	55	4282
2026-01-16 15:19:38.73	300.20	10.53	-42.4	-43.4	20.5	0.00e+00	0	33	0	1528823808	55	4258
2026-01-16 15:19:41.75	300.75	10.50	-42.8	-43.8	20.2	0.00e+00	0	33	0	1546649600	56	4212
2026-01-16 15:19:44.78	301.30	10.47	-42.8	-43.8	20.2	0.00e+00	0	34	0	1563426816	56	4223
2026-01-16 15:19:47.80	301.84	10.44	-42.8	-43.9	20.2	0.00e+00	0	33	0	1580204032	56	4243
2026-01-16 15:19:50.82	302.39	10.41	-42.6	-43.6	20.4	0.00e+00	0	33	0	1596981248	56	4103
2026-01-16 15:19:53.85	302.93	10.38	-42.6	-43.6	20.4	0.00e+00	0	33	0	1614807040	56	4101
2026-01-16 15:19:56.88	303.48	10.34	-42.5	-43.5	20.5	0.00e+00	0	34	0	1631584256	56	4070
2026-01-16 15:19:59.90	304.02	10.30	-42.4	-43.3	20.7	0.00e+00	0	34	0	1648361472	56	3977
2026-01-16 15:20:02.92	304.56	10.26	-42.5	-43.5	20.5	0.00e+00	0	34	0	1665138688	56	4063
2026-01-16 15:20:05.95	305.10	10.22	-42.8	-43.8	20.2	0.00e+00	0	34	0	1681915904	56	4208
2026-01-16 15:20:08.97	305.63	10.17	-42.6	-43.5	20.4	0.00e+00	0	33	0	1699741696	56	4086
2026-01-16 15:20:11.99	306.17	10.13	-42.3	-43.3	20.6	0.00e+00	0	34	0	1716518912	56	3968
2026-01-16 15:20:15.02	306.70	10.08	-42.5	-43.4	20.5	0.00e+00	0	34	0	1733296128	56	4034
2026-01-16 15:20:18.04	307.23	10.02	-42.6	-43.6	20.3	0.00e+00	0	34	0	1750073344	56	4121
2026-01-16 15:20:21.07	307.76	9.97	-42.7	-43.7	20.2	0.00e+00	0	34	0	1766850560	56	4184
2026-01-16 15:20:24.10	308.29	9.92	-42.7	-43.7	20.3	0.00e+00	0	34	0	1784676352	56	4159
2026-01-16 15:20:27.12	308.82	9.86	-42.8	-43.8	20.1	0.00e+00	0	34	0	1801453568	56	4225
2026-01-16 15:20:30.15	309.34	9.80	-42.6	-43.6	20.2	0.00e+00	0	33	0	1818230784	56	4125
2026-01-16 15:20:33.17	309.86	9.74	-42.8	-43.8	20.1	0.00e+00	0	33	0	1835008000	56	4214
2026-01-16 15:20:36.19	310.38	9.67	-42.5	-43.5	20.4	0.00e+00	0	34	0	1852833792	56	4066
2026-01-16 15:20:39.22	310.90	9.61	-42.7	-43.6	20.2	0.00e+00	0	33	0	1869611008	56	4145
2026-01-16 15:20:42.24	311.41	9.54	-42.6	-43.6	20.3	0.00e+00	0	33	0	1886388224	56	4102
2026-01-16 15:20:45.27	311.93	9.47	-42.6	-43.6	20.2	0.00e+00	0	34	0	1903165440	56	4117
2026-01-16 15:20:48.29	312.44	9.40	-42.7	-43.7	20.1	0.00e+00	0	33	0	1919942656	56	4175
2026-01-16 15:20:51.31	312.95	9.33	-42.8	-43.8	20.1	0.00e+00	0	33	0	1937768448	56	4229
2026-01-16 15:20:54.34	313.45	9.26	-42.8	-43.8	20.0	0.00e+00	0	34	0	1954545664	56	4221
2026-01-16 15:20:57.36	313.95	9.18	-42.9	-43.9	19.9	0.00e+00	0	34	0	1971322880	56	4266
2026-01-16 15:21:00.39	314.46	9.10	-43.0	-44.1	19.8	0.00e+00	0	33	0	1988100096	56	4344
2026-01-16 15:21:03.41	314.95	9.02	-43.0	-44.0	19.8	0.00e+00	0	34	0	2005925888	56	4316
2026-01-16 15:21:06.44	315.45	8.94	-43.0	-44.0	19.8	0.00e+00	0	33	0	2022703104	56	4320
2026-01-16 15:21:09.46	315.94	8.86	-43.0	-44.0	19.8	0.00e+00	0	33	0	2039480320	56	4323
2026-01-16 15:21:12.49	316.43	8.78	-42.9	-44.0	19.8	0.00e+00	0	33	0	2057306112	56	4297
2026-01-16 15:21:15.51	316.92	8.69	-42.8	-43.7	20.0	0.00e+00	0	33	0	2074083328	56	4193
2026-01-16 15:21:18.54	317.40	8.61	-42.8	-43.8	20.0	0.00e+00	0	34	0	2090860544	56	4217
2026-01-16 15:21:21.57	317.89	8.52	-42.9	-44.0	19.8	0.00e+00	0	33	0	2107637760	56	4294
2026-01-16 15:21:24.60	318.36	8.43	-43.0	-44.0	19.7	0.00e+00	0	34	0	2125463552	56	4332
2026-01-16 15:21:27.62	318.84	8.34	-43.2	-44.2	19.5	0.00e+00	0	33	0	2142240768	57	4186
2026-01-16 15:21:30.64	319.31	8.25	-43.1	-44.2	19.5	0.00e+00	0	33	0	2159017984	57	4167
2026-01-16 15:21:33.67	319.78	8.15	-43.2	-44.3	19.4	0.00e+00	0	34	0	2175795200	57	4226
2026-01-16 15:21:36.70	320.25	8.06	-43.2	-44.2	19.5	0.00e+00	0	33	0	2192572416	57	4181
2026-01-16 15:21:39.72	320.71	7.96	-43.0	-44.0	19.7	0.00e+00	0	34	0	2210398208	57	4060
2026-01-16 15:21:42.75	321.18	7.86	-43.0	-44.0	19.7	0.00e+00	0	34	0	2227175424	57	4071
2026-01-16 15:21:45.78	321.63	7.77	-43.2	-44.2	19.4	0.00e+00	0	34	0	2243952640	57	4184
2026-01-16 15:21:48.81	322.09	7.67	-43.5	-44.6	19.1	0.00e+00	0	34	0	2260729856	57	4364
2026-01-16 15:21:51.83	322.54	7.57	-43.5	-44.6	19.1	0.00e+00	0	34	0	2277507072	57	4358
2026-01-16 15:21:54.86	322.99	7.46	-43.5	-44.6	19.0	0.00e+00	0	34	0	2295332864	57	4366
2026-01-16 15:21:57.89	323.44	7.36	-43.3	-44.4	19.2	0.00e+00	0	33	0	2312110080	57	4260
2026-01-16 15:22:00.91	323.88	7.26	-43.5	-44.6	19.0	0.00e+00	0	34	0	2328887296	57	4370
2026-01-16 15:22:03.94	324.32	7.15	-43.4	-44.5	19.1	0.00e+00	0	34	0	2345664512	57	4306
2026-01-16 15:22:06.97	324.76	7.05	-43.4	-44.5	19.1	0.00e+00	0	33	0	2362441728	57	4322
2026-01-16 15:22:10.00	325.19	6.94	-43.3	-44.3	19.2	0.00e+00	0	34	0	2380267520	57	4236
2026-01-16 15:22:13.02	325.62	6.83	-43.4	-44.5	19.0	0.00e+00	0	34	0	2397044736	57	4334
2026-01-16 15:22:16.05	326.05	6.72	-43.4	-44.5	19.1	0.00e+00	0	33	0	2413821952	57	4293
2026-01-16 15:22:19.08	326.48	6.61	-43.6	-44.7	18.8	0.00e+00	0	33	0	2430599168	57	4432
2026-01-16 15:22:22.10	326.90	6.50	-43.7	-44.9	18.7	0.00e+00	0	34	0	2448424960	58	4258
2026-01-16 15:22:25.12	327.32	6.39	-43.8	-45.0	18.5	0.00e+00	0	34	0	2465202176	58	4315
2026-01-16 15:22:28.15	327.73	6.28	-43.8	-45.0	18.5	0.00e+00	0	34	0	2481979392	58	4301
2026-01-16 15:22:31.17	328.14	6.17	-43.7	-44.9	18.6	0.00e+00	0	33	0	2498756608	58	4243
2026-01-16 15:22:34.19	328.55	6.06	-43.7	-44.8	18.7	0.00e+00	0	34	0	2516582400	58	4213
2026-01-16 15:22:37.22	328.96	5.94	-43.7	-44.9	18.6	0.00e+00	0	34	0	2533359616	58	4265
2026-01-16 15:22:40.25	329.36	5.83	-44.2	-45.5	18.0	0.00e+00	0	34	0	2550136832	58	4548
2026-01-16 15:22:43.27	329.76	5.71	-44.2	-45.5	18.0	0.00e+00	0	34	0	2566914048	59	4316
2026-01-16 15:22:46.30	330.16	5.60	-43.8	-45.0	18.4	0.00e+00	0	33	0	2584739840	59	4070
2026-01-16 15:22:49.32	330.56	5.48	-43.7	-44.8	18.6	0.00e+00	0	34	0	2601517056	59	3993
2026-01-16 15:22:52.35	330.95	5.36	-43.7	-44.8	18.6	0.00e+00	0	34	0	2618294272	59	3984
2026-01-16 15:22:55.38	331.34	5.25	-43.8	-44.9	18.4	0.00e+00	0	34	0	2635071488	58	4290
2026-01-16 15:22:58.40	331.72	5.13	-43.9	-45.1	18.2	0.00e+00	0	34	0	2652897280	58	4349
2026-01-16 15:23:01.43	332.10	5.01	-44.4	-45.7	17.7	0.00e+00	0	34	0	2669674496	59	4401
2026-01-16 15:23:04.46	332.48	4.89	-52.9	-64.9	3.8	8.46e-01	0	34	104	2672820224	76	15124
2026-01-16 15:23:07.48	332.86	4.77	-53.3	-65.2	3.8	8.47e-01	0	34	104	2672820224	77	14823
2026-01-16 15:23:10.50	333.23	4.65	-53.5	-65.5	3.8	8.45e-01	0	33	104	2672820224	77	15278
2026-01-16 15:23:13.53	333.60	4.53	-53.6	-65.6	3.8	8.46e-01	0	34	104	2672820224	77	15476
2026-01-16 15:23:16.56	333.97	4.41	-53.6	-65.6	3.8	8.45e-01	0	34	104	2672820224	77	15463
2026-01-16 15:23:19.58	334.33	4.29	-53.5	-65.5	3.8	8.47e-01	0	33	104	2672820224	77	15396
2026-01-16 15:23:22.61	334.70	4.17	-53.5	-65.4	3.8	8.46e-01	0	34	104	2672820224	77	15216
2026-01-16 15:23:25.64	335.06	4.04	-53.4	-65.4	3.8	8.46e-01	0	34	104	2672820224	77	15134
2026-01-16 15:23:28.66	335.41	3.92	-53.3	-65.4	3.8	8.46e-01	0	34	104	2672820224	77	15086
2026-01-16 15:23:31.69	335.76	3.80	-53.3	-65.4	3.8	8.46e-01	0	34	104	2672820224	77	15078
2026-01-16 15:23:34.72	336.12	3.68	-53.3	-65.4	3.8	8.47e-01	0	34	104	2672820224	77	15074
2026-01-16 15:23:37.74	336.46	3.55	-53.3	-65.3	3.8	8.46e-01	0	34	104	2672820224	77	14980
2026-01-16 15:23:40.77	336.81	3.43	-53.3	-65.3	3.8	8.46e-01	0	34	104	2672820224	77	14967
2026-01-16 15:23:43.80	337.15	3.31	-53.3	-65.3	3.8	8.46e-01	0	34	104	2672820224	77	14961
2026-01-16 15:23:46.82	337.49	3.18	-53.3	-65.3	3.8	8.46e-01	0	34	104	2672820224	77	14985
2026-01-16 15:23:49.85	337.83	3.06	-53.3	-65.3	3.8	8.47e-01	0	34	104	2672820224	77	14954
2026-01-16 15:23:52.88	338.16	2.93	-53.3	-65.3	3.8	8.45e-01	0	34	104	2672820224	77	14982
2026-01-16 15:23:55.90	338.49	2.81	-53.2	-65.3	3.8	8.46e-01	0	34	104	2672820224	77	14884
2026-01-16 15:23:58.93	338.82	2.68	-53.2	-65.2	3.8	8.45e-01	0	34	104	2672820224	77	14829
2026-01-16 15:24:01.96	339.15	2.56	-53.2	-65.2	3.8	8.46e-01	0	34	104	2672820224	77	14816
2026-01-16 15:24:04.98	339.47	2.43	-53.2	-65.2	3.8	8.47e-01	0	34	104	2672820224	77	14829
2026-01-16 15:24:08.01	339.79	2.31	-53.2	-65.2	3.9	8.45e-01	0	34	104	2672820224	77	14844
2026-01-16 15:24:11.03	340.11	2.18	-53.2	-65.2	3.8	8.46e-01	0	34	104	2672820224	77	14796
2026-01-16 15:24:14.06	340.42	2.06	-53.2	-65.2	3.8	8.47e-01	0	34	104	2672820224	77	14821

#Closed at: 2026-01-16 15:24:17
#Recorded file [2672 MB]: D:/lorett/data/31041_260116_181359.dat