passes_logs/2026/01/16/R3.2S_Murmansk/R3.2S_Murmansk__20260116_123905_AQUA_rec.log

#Pass ID: 20260116_123905_AQUA
#Satellite: AQUA
#Configuration: AQUA
#almurnet v.1.7.20251203
#Start time: 2026-01-16 12:39:06

#Version: 2.2.20231116
#Station: R3.2S_Murmansk
#Location: 33.079688 lon 68.888172 lat
#TLE: 1 27424U 02022A   26015.92015591  .00000664  00000+0  14289-3 0  9993
#TLE: 2 27424  98.4082 342.3630 0002020  77.1389  16.3168 14.61822470261023

#Time	Az	El	Level	Level2	SNR	BER	BlckErr	Temp	State	Recorded	gain1	gain2
2026-01-16 12:39:06.37	187.77	2.06	-60.0	-77.3	3.8	7.46e-01	0	42	0	0	90	28239
2026-01-16 12:39:09.39	187.92	2.26	-60.0	-77.3	3.8	7.47e-01	0	42	104	0	90	28234
2026-01-16 12:39:12.42	188.07	2.45	-60.0	-77.3	3.8	7.45e-01	0	42	104	0	90	28319
2026-01-16 12:39:15.44	188.23	2.64	-60.0	-77.3	3.8	7.44e-01	0	42	104	0	90	28294
2026-01-16 12:39:18.47	188.38	2.84	-60.0	-77.3	3.8	7.47e-01	0	42	104	0	90	28243
2026-01-16 12:39:21.49	188.54	3.04	-60.0	-77.3	3.8	7.44e-01	0	43	104	0	90	28250
2026-01-16 12:39:24.52	188.70	3.24	-60.0	-77.4	3.8	7.45e-01	0	43	104	0	90	28359
2026-01-16 12:39:27.54	188.86	3.44	-60.0	-77.3	3.8	7.46e-01	0	43	104	0	90	28343
2026-01-16 12:39:30.57	189.03	3.64	-60.0	-77.3	3.8	7.46e-01	0	43	104	0	90	28274
2026-01-16 12:39:33.60	189.20	3.84	-60.0	-77.3	3.8	7.46e-01	0	43	104	0	90	28261
2026-01-16 12:39:36.63	189.37	4.05	-60.0	-77.3	3.8	7.45e-01	0	44	104	0	90	28323
2026-01-16 12:39:39.65	189.54	4.25	-60.0	-77.3	3.8	7.44e-01	0	44	104	0	90	28337
2026-01-16 12:39:42.68	189.71	4.46	-60.0	-77.3	3.8	7.46e-01	0	44	104	0	90	28281
2026-01-16 12:39:45.71	189.89	4.67	-60.0	-77.3	3.8	7.47e-01	0	44	104	0	90	28321
2026-01-16 12:39:48.73	190.07	4.88	-60.0	-77.3	3.8	7.47e-01	0	44	104	0	90	28317
2026-01-16 12:39:51.76	190.25	5.10	-60.0	-77.3	3.8	7.43e-01	0	44	104	0	90	28342
2026-01-16 12:39:54.79	190.44	5.31	-60.0	-77.3	3.8	7.49e-01	0	45	104	0	90	28287
2026-01-16 12:39:57.81	190.62	5.53	-60.0	-77.3	3.8	7.45e-01	0	45	104	0	90	28316
2026-01-16 12:40:00.84	190.81	5.75	-60.0	-77.4	3.8	7.47e-01	0	45	104	0	90	28367
2026-01-16 12:40:03.86	191.01	5.97	-60.0	-77.3	3.8	7.47e-01	0	45	104	0	90	28347
2026-01-16 12:40:06.89	191.20	6.19	-60.0	-77.3	3.8	7.45e-01	0	45	104	0	90	28331
2026-01-16 12:40:09.91	191.40	6.41	-60.0	-77.4	3.8	7.46e-01	0	45	104	0	90	28367
2026-01-16 12:40:12.94	191.61	6.64	-60.0	-77.3	3.8	7.46e-01	0	45	104	0	90	28322
2026-01-16 12:40:15.96	191.81	6.86	-60.0	-77.3	3.8	7.44e-01	0	45	104	0	90	28282
2026-01-16 12:40:18.99	192.02	7.09	-60.0	-77.4	3.8	7.42e-01	0	45	104	0	90	28364
2026-01-16 12:40:22.01	192.24	7.33	-60.0	-77.3	3.8	7.43e-01	0	45	104	0	90	28348
2026-01-16 12:40:25.04	192.45	7.56	-60.0	-77.4	3.8	7.48e-01	0	46	104	0	90	28432
2026-01-16 12:40:28.06	192.67	7.79	-60.0	-77.4	3.8	7.42e-01	0	46	104	0	90	28378
2026-01-16 12:40:31.09	192.90	8.03	-60.0	-77.3	3.8	7.44e-01	0	46	104	0	90	28345
2026-01-16 12:40:34.12	193.12	8.27	-60.0	-77.4	3.8	7.46e-01	0	46	104	0	90	28377
2026-01-16 12:40:37.14	193.36	8.52	-60.0	-77.4	3.8	7.46e-01	0	46	104	0	90	28402
2026-01-16 12:40:40.17	193.59	8.76	-60.0	-77.4	3.8	7.47e-01	0	46	104	0	90	28375
2026-01-16 12:40:43.20	193.83	9.01	-60.0	-77.4	3.8	7.43e-01	0	46	104	0	90	28373
2026-01-16 12:40:46.22	194.07	9.26	-60.0	-77.3	3.8	7.43e-01	0	46	104	0	90	28327
2026-01-16 12:40:49.25	194.32	9.51	-60.0	-77.3	3.8	7.47e-01	0	46	104	0	90	28331
2026-01-16 12:40:52.27	194.58	9.76	-60.0	-77.4	3.8	7.43e-01	0	46	104	0	90	28392
2026-01-16 12:40:55.30	194.83	10.02	-60.0	-77.4	3.8	7.46e-01	0	46	104	0	90	28393
2026-01-16 12:40:58.33	195.10	10.28	-60.0	-77.4	3.8	7.43e-01	0	46	104	0	90	28401
2026-01-16 12:41:01.35	195.36	10.54	-60.0	-77.4	3.8	7.44e-01	0	47	104	0	90	28380
2026-01-16 12:41:04.37	195.63	10.80	-60.0	-77.4	3.8	7.47e-01	0	46	104	0	90	28357
2026-01-16 12:41:07.40	195.91	11.07	-60.0	-77.3	3.8	7.45e-01	0	47	104	0	90	28334
2026-01-16 12:41:10.43	196.19	11.34	-60.0	-77.4	3.8	7.43e-01	0	47	104	0	90	28395
2026-01-16 12:41:13.46	196.48	11.61	-60.0	-77.3	3.8	7.48e-01	0	47	104	0	90	28349
2026-01-16 12:41:16.49	196.78	11.89	-60.0	-77.3	3.8	7.49e-01	0	47	104	0	90	28328
2026-01-16 12:41:19.51	197.07	12.17	-60.0	-77.4	3.8	7.43e-01	0	47	104	0	90	28392
2026-01-16 12:41:22.54	197.38	12.45	-60.0	-77.4	3.8	7.44e-01	0	47	104	0	90	28433
2026-01-16 12:41:25.56	197.69	12.73	-60.0	-77.3	3.8	7.44e-01	0	47	104	0	90	28320
2026-01-16 12:41:28.58	198.01	13.02	-60.0	-77.3	3.8	7.51e-01	0	47	104	0	90	28338
2026-01-16 12:41:31.61	198.33	13.31	-60.0	-77.4	3.8	7.46e-01	0	47	104	0	90	28415
2026-01-16 12:41:34.63	198.66	13.60	-60.0	-77.4	3.8	7.45e-01	0	47	104	0	90	28453
2026-01-16 12:41:37.66	199.00	13.90	-60.0	-77.4	3.8	7.45e-01	0	47	104	0	90	28396
2026-01-16 12:41:40.69	199.34	14.20	-60.0	-77.4	3.8	7.47e-01	0	47	104	0	90	28440
2026-01-16 12:41:43.72	199.69	14.50	-60.0	-77.4	3.8	7.47e-01	0	47	104	0	90	28426
2026-01-16 12:41:46.74	200.05	14.81	-60.0	-77.4	3.8	7.46e-01	0	47	104	0	90	28469
2026-01-16 12:41:49.77	200.42	15.12	-60.0	-77.4	3.8	7.40e-01	0	47	104	0	90	28401
2026-01-16 12:41:52.80	200.79	15.43	-60.0	-77.4	3.8	7.46e-01	0	47	104	0	90	28453
2026-01-16 12:41:55.82	201.18	15.74	-60.0	-77.4	3.8	7.46e-01	0	47	104	0	90	28417
2026-01-16 12:41:58.85	201.57	16.06	-60.0	-77.4	3.8	7.42e-01	0	48	104	0	90	28380
2026-01-16 12:42:01.87	201.97	16.39	-60.0	-77.4	3.8	7.43e-01	0	48	104	0	90	28402
2026-01-16 12:42:04.89	202.38	16.71	-60.0	-77.4	3.8	7.42e-01	0	48	104	0	90	28445
2026-01-16 12:42:07.92	202.79	17.04	-60.0	-77.4	3.8	7.44e-01	0	48	104	0	90	28415
2026-01-16 12:42:10.95	203.22	17.38	-60.0	-77.4	3.8	7.46e-01	0	48	104	0	90	28454
2026-01-16 12:42:13.98	203.66	17.71	-60.0	-77.4	3.8	7.44e-01	0	48	104	0	90	28449
2026-01-16 12:42:17.00	204.11	18.05	-60.0	-77.4	3.8	7.44e-01	0	48	104	0	90	28388
2026-01-16 12:42:20.03	204.57	18.40	-60.0	-77.3	3.8	7.47e-01	0	48	104	0	90	28342
2026-01-16 12:42:23.06	205.04	18.75	-60.0	-77.4	3.8	7.51e-01	0	48	104	0	90	28423
2026-01-16 12:42:26.09	205.52	19.10	-60.0	-77.4	3.8	7.43e-01	0	48	104	0	90	28476
2026-01-16 12:42:29.11	206.01	19.45	-60.0	-77.4	3.8	7.46e-01	0	48	104	0	90	28438
2026-01-16 12:42:32.14	206.51	19.81	-60.0	-77.4	3.8	7.45e-01	0	48	104	0	90	28383
2026-01-16 12:42:35.17	207.03	20.17	-60.0	-77.4	3.8	7.44e-01	0	48	104	0	90	28454
2026-01-16 12:42:38.19	207.56	20.54	-60.0	-77.4	3.8	7.45e-01	0	48	104	0	90	28426
2026-01-16 12:42:41.21	208.10	20.91	-60.0	-77.4	3.8	7.46e-01	0	48	104	0	90	28440
2026-01-16 12:42:44.24	208.65	21.28	-60.0	-77.4	3.8	7.47e-01	0	48	104	0	90	28426
2026-01-16 12:42:47.27	209.22	21.66	-60.0	-77.4	3.8	7.45e-01	0	48	104	0	90	28482
2026-01-16 12:42:50.29	209.80	22.04	-60.0	-77.4	3.8	7.44e-01	0	48	104	0	90	28406
2026-01-16 12:42:53.32	210.40	22.42	-60.0	-77.4	3.8	7.47e-01	0	48	104	0	90	28487
2026-01-16 12:42:56.34	211.01	22.81	-60.0	-77.4	3.8	7.47e-01	0	48	104	0	90	28465
2026-01-16 12:42:59.37	211.64	23.20	-60.0	-77.4	3.8	7.49e-01	0	49	104	0	90	28470
2026-01-16 12:43:02.40	212.29	23.59	-60.0	-77.4	3.8	7.47e-01	0	48	104	0	90	28481
2026-01-16 12:43:05.42	212.95	23.98	-60.0	-77.4	3.8	7.46e-01	0	48	104	0	90	28475
2026-01-16 12:43:08.45	213.63	24.38	-60.0	-77.4	3.8	7.44e-01	0	49	104	0	90	28511
2026-01-16 12:43:11.47	214.33	24.78	-60.0	-77.4	3.8	7.44e-01	0	48	104	0	90	28433
2026-01-16 12:43:14.50	215.04	25.18	-60.0	-77.4	3.8	7.47e-01	0	48	104	0	90	28481
2026-01-16 12:43:17.52	215.78	25.59	-60.0	-77.4	3.8	7.43e-01	0	48	104	0	90	28494
2026-01-16 12:43:20.55	216.53	25.99	-60.0	-77.4	3.8	7.47e-01	0	48	104	0	90	28438
2026-01-16 12:43:23.57	217.30	26.40	-60.0	-77.4	3.8	7.50e-01	0	48	104	0	90	28453
2026-01-16 12:43:26.60	218.10	26.81	-60.0	-77.4	3.8	7.45e-01	0	49	104	0	90	28472
2026-01-16 12:43:29.62	218.91	27.22	-60.0	-77.4	3.8	7.42e-01	0	49	104	0	90	28431
2026-01-16 12:43:32.64	219.75	27.63	-60.0	-77.4	3.8	7.45e-01	0	49	104	0	90	28508
2026-01-16 12:43:35.67	220.61	28.04	-60.0	-77.4	3.8	7.49e-01	0	48	104	0	90	28503
2026-01-16 12:43:38.70	221.49	28.45	-60.0	-77.4	3.8	7.46e-01	0	49	104	0	90	28428
2026-01-16 12:43:41.72	222.39	28.86	-60.0	-77.4	3.8	7.46e-01	0	49	104	0	90	28493
2026-01-16 12:43:44.74	223.32	29.27	-60.1	-77.4	3.8	7.46e-01	0	49	104	0	90	28471
2026-01-16 12:43:47.77	224.27	29.68	-60.0	-77.4	3.8	7.46e-01	0	49	104	0	90	28495
2026-01-16 12:43:50.80	225.25	30.08	-60.0	-77.4	3.8	7.47e-01	0	49	104	0	90	28461
2026-01-16 12:43:53.82	226.25	30.48	-60.0	-77.4	3.8	7.47e-01	0	49	104	0	90	28450
2026-01-16 12:43:56.85	227.28	30.88	-60.0	-77.4	3.8	7.43e-01	0	49	104	0	90	28531
2026-01-16 12:43:59.87	228.33	31.27	-60.0	-77.4	3.8	7.44e-01	0	49	104	0	90	28412
2026-01-16 12:44:02.90	229.42	31.66	-60.1	-77.4	3.8	7.48e-01	0	49	104	0	90	28495
2026-01-16 12:44:05.93	230.52	32.05	-60.0	-77.4	3.8	7.43e-01	0	49	104	0	90	28516
2026-01-16 12:44:08.95	231.65	32.42	-60.0	-77.4	3.8	7.46e-01	0	49	104	0	90	28429
2026-01-16 12:44:11.98	232.81	32.79	-60.0	-77.4	3.8	7.45e-01	0	49	104	0	90	28462
2026-01-16 12:44:15.00	234.00	33.16	-60.0	-77.4	3.8	7.43e-01	0	49	104	0	90	28482
2026-01-16 12:44:18.03	235.21	33.51	-60.0	-77.4	3.8	7.42e-01	0	49	104	0	90	28446
2026-01-16 12:44:21.06	236.45	33.85	-60.1	-77.4	3.8	7.43e-01	0	49	104	0	90	28533
2026-01-16 12:44:24.08	237.72	34.18	-60.0	-77.4	3.8	7.46e-01	0	49	104	0	90	28497
2026-01-16 12:44:27.11	239.01	34.50	-60.1	-77.4	3.8	7.47e-01	0	49	104	0	90	28442
2026-01-16 12:44:30.14	240.33	34.81	-60.0	-77.4	3.8	7.43e-01	0	49	104	0	90	28462
2026-01-16 12:44:33.17	241.67	35.11	-60.1	-77.4	3.8	7.46e-01	0	49	104	0	90	28509
2026-01-16 12:44:36.19	243.03	35.39	-60.1	-77.4	3.8	7.46e-01	0	49	104	0	90	28516
2026-01-16 12:44:39.22	244.42	35.65	-60.1	-77.4	3.8	7.43e-01	0	49	104	0	90	28430
2026-01-16 12:44:42.24	245.83	35.90	-60.1	-77.4	3.8	7.41e-01	0	49	104	0	90	28564
2026-01-16 12:44:45.27	247.26	36.13	-60.0	-77.4	3.8	7.44e-01	0	49	104	0	90	28541
2026-01-16 12:44:48.29	248.71	36.34	-60.1	-77.4	3.8	7.44e-01	0	49	104	0	90	28504
2026-01-16 12:44:51.32	250.18	36.54	-60.1	-77.4	3.8	7.47e-01	0	49	104	0	90	28467
2026-01-16 12:44:54.34	251.67	36.71	-60.0	-77.4	3.8	7.44e-01	0	49	104	0	90	28524
2026-01-16 12:44:57.37	253.17	36.87	-60.1	-77.4	3.8	7.45e-01	0	49	104	0	90	28508
2026-01-16 12:45:00.40	254.69	37.00	-60.1	-77.4	3.8	7.45e-01	0	49	104	0	90	28492
2026-01-16 12:45:03.42	256.21	37.11	-60.1	-77.4	3.8	7.48e-01	0	49	104	0	90	28510
2026-01-16 12:45:06.45	257.75	37.20	-60.1	-77.4	3.8	7.45e-01	0	49	104	0	90	28468
2026-01-16 12:45:09.47	259.29	37.27	-60.1	-77.4	3.8	7.45e-01	0	49	104	0	90	28431
2026-01-16 12:45:12.50	260.84	37.32	-60.1	-77.4	3.8	7.47e-01	0	49	104	0	90	28484
2026-01-16 12:45:15.53	262.40	37.34	-60.0	-77.4	3.8	7.43e-01	0	49	104	0	90	28561
2026-01-16 12:45:18.56	263.95	37.34	-60.1	-77.4	3.8	7.44e-01	0	49	104	0	90	28515
2026-01-16 12:45:21.58	265.50	37.32	-60.1	-77.4	3.8	7.43e-01	0	49	104	0	90	28554
2026-01-16 12:45:24.61	267.05	37.27	-60.1	-77.4	3.8	7.46e-01	0	49	104	0	90	28524
2026-01-16 12:45:27.63	268.59	37.21	-60.1	-77.4	3.8	7.45e-01	0	49	104	0	90	28486
2026-01-16 12:45:30.66	270.13	37.12	-60.1	-77.4	3.8	7.47e-01	0	49	104	0	90	28547
2026-01-16 12:45:33.68	271.65	37.00	-60.1	-77.4	3.8	7.44e-01	0	49	104	0	90	28529
2026-01-16 12:45:36.70	273.16	36.87	-60.1	-77.4	3.8	7.44e-01	0	49	104	0	90	28509
2026-01-16 12:45:39.73	274.66	36.72	-60.1	-77.4	3.8	7.46e-01	0	49	104	0	90	28544
2026-01-16 12:45:42.75	276.15	36.54	-60.1	-77.4	3.8	7.46e-01	0	49	104	0	90	28592
2026-01-16 12:45:45.78	277.62	36.35	-60.1	-77.4	3.8	7.48e-01	0	49	104	0	90	28463
2026-01-16 12:45:48.80	279.06	36.14	-60.1	-77.4	3.8	7.44e-01	0	49	104	0	90	28517
2026-01-16 12:45:51.82	280.49	35.91	-60.1	-77.4	3.8	7.46e-01	0	49	104	0	90	28478
2026-01-16 12:45:54.85	281.90	35.66	-60.1	-77.4	3.8	7.46e-01	0	49	104	0	90	28488
2026-01-16 12:45:57.88	283.29	35.40	-60.1	-77.4	3.8	7.45e-01	0	49	104	0	90	28464
2026-01-16 12:46:00.91	284.65	35.12	-60.1	-77.4	3.8	7.44e-01	0	49	104	0	90	28484
2026-01-16 12:46:03.93	285.99	34.82	-60.1	-77.4	3.8	7.43e-01	0	49	104	0	90	28483
2026-01-16 12:46:06.96	287.30	34.52	-60.1	-77.4	3.8	7.48e-01	0	49	104	0	90	28530
2026-01-16 12:46:09.98	288.59	34.20	-60.1	-77.4	3.8	7.46e-01	0	50	104	0	90	28525
2026-01-16 12:46:13.01	289.86	33.87	-60.1	-77.4	3.8	7.44e-01	0	49	104	0	90	28563
2026-01-16 12:46:16.04	291.09	33.53	-60.1	-77.4	3.8	7.43e-01	0	49	104	0	90	28513
2026-01-16 12:46:19.06	292.30	33.18	-60.1	-77.4	3.8	7.44e-01	0	50	104	0	90	28523
2026-01-16 12:46:22.09	293.49	32.82	-60.1	-77.4	3.8	7.44e-01	0	50	104	0	90	28486
2026-01-16 12:46:25.11	294.64	32.45	-60.1	-77.4	3.8	7.47e-01	0	50	104	0	90	28485
2026-01-16 12:46:28.14	295.77	32.07	-60.1	-77.4	3.8	7.44e-01	0	49	104	0	90	28464
2026-01-16 12:46:30.95	296.80	31.72	-60.1	-77.4	3.8	7.40e-01	0	50	104	0	90	28504
2026-01-16 12:46:34.13	297.93	31.31	-60.3	-77.6	3.8	7.44e-01	0	50	104	0	91	27623
2026-01-16 12:46:37.02	298.94	30.94	-60.5	-77.8	3.8	7.45e-01	0	50	104	0	91	28203
2026-01-16 12:46:40.19	300.01	30.52	-60.5	-77.9	3.8	7.48e-01	0	49	104	0	91	28438
2026-01-16 12:46:43.07	300.97	30.14	-60.6	-77.8	3.8	7.45e-01	0	49	104	0	91	28111
2026-01-16 12:46:46.24	301.99	29.72	-60.5	-77.8	3.8	7.43e-01	0	49	104	0	91	28288
2026-01-16 12:46:49.12	302.89	29.34	-60.5	-77.7	3.8	7.46e-01	0	50	104	0	91	27877
2026-01-16 12:46:52.29	303.87	28.91	-60.4	-76.4	3.9	7.43e-01	0	50	104	0	91	24070
2026-01-16 12:46:55.17	304.73	28.52	-54.3	-55.7	21.1	6.03e-01	0	50	0	3145728	80	4193
2026-01-16 12:46:58.34	305.65	28.09	-52.3	-53.3	22.6	6.04e-01	0	49	0	8912896	76	3978
2026-01-16 12:47:01.23	306.47	27.70	-49.8	-50.5	26.0	6.02e-01	0	49	0	14155776	71	3859
2026-01-16 12:47:04.40	307.34	27.28	-50.0	-50.7	25.8	6.03e-01	0	49	0	20447232	71	3927
2026-01-16 12:47:07.28	308.12	26.89	-50.1	-50.8	25.7	6.03e-01	0	49	0	25690112	71	3998
2026-01-16 12:47:10.45	308.95	26.46	-50.0	-50.8	25.8	6.02e-01	0	49	0	31457280	71	3962
2026-01-16 12:47:13.33	309.69	26.08	-50.4	-51.1	25.4	6.01e-01	0	49	0	36700160	71	4145
2026-01-16 12:47:16.50	310.48	25.65	-50.3	-51.1	25.4	6.04e-01	0	50	0	42991616	71	4112
2026-01-16 12:47:19.38	311.17	25.27	-50.3	-51.1	25.4	6.02e-01	0	49	0	48234496	71	4126
2026-01-16 12:47:22.55	311.92	24.85	-50.3	-51.1	25.4	6.02e-01	0	49	0	54525952	71	4109
2026-01-16 12:47:25.44	312.59	24.47	-50.3	-51.1	25.3	6.03e-01	0	49	0	59768832	71	4123
2026-01-16 12:47:28.60	313.30	24.06	-50.4	-51.2	25.3	6.01e-01	0	49	0	65536000	71	4160
2026-01-16 12:47:31.48	313.93	23.68	-50.4	-51.2	25.2	6.02e-01	0	49	0	71303168	71	4183
2026-01-16 12:47:34.65	314.60	23.27	-50.4	-51.2	25.3	6.02e-01	0	49	0	77070336	71	4185
2026-01-16 12:47:37.53	315.20	22.90	-50.5	-51.2	25.2	6.01e-01	0	49	0	82313216	71	4191
2026-01-16 12:47:40.70	315.85	22.50	-50.3	-51.0	25.4	6.02e-01	0	49	0	88080384	71	4089
2026-01-16 12:47:43.58	316.41	22.14	-50.2	-50.9	25.4	6.03e-01	0	50	0	93847552	71	4051
2026-01-16 12:47:46.75	317.03	21.74	-50.3	-51.1	25.2	6.02e-01	0	49	0	99614720	71	4134
2026-01-16 12:47:49.63	317.57	21.39	-50.2	-51.0	25.4	6.01e-01	0	49	0	104857600	71	4069
2026-01-16 12:47:52.80	318.15	21.00	-50.2	-51.0	25.4	6.02e-01	0	49	0	111149056	71	4056
2026-01-16 12:47:55.68	318.66	20.65	-50.2	-50.9	25.4	6.03e-01	0	49	0	116391936	71	4051
2026-01-16 12:47:58.85	319.22	20.27	-50.0	-50.8	25.5	6.02e-01	0	49	0	122683392	71	3960
2026-01-16 12:48:01.73	319.71	19.92	-50.1	-50.8	25.4	6.03e-01	0	49	0	127926272	71	3995
2026-01-16 12:48:04.90	320.24	19.55	-50.1	-50.8	25.4	6.05e-01	0	49	0	133693440	71	4001
2026-01-16 12:48:07.78	320.71	19.21	-50.2	-50.9	25.4	6.03e-01	0	49	0	138936320	71	4049
2026-01-16 12:48:10.95	321.21	18.85	-50.1	-50.9	25.4	6.01e-01	0	49	0	145227776	71	4013
2026-01-16 12:48:13.83	321.66	18.52	-50.0	-50.8	25.5	6.02e-01	0	49	0	150470656	71	3979
2026-01-16 12:48:17.00	322.14	18.16	-50.1	-50.8	25.4	6.04e-01	0	50	0	156237824	71	3991
2026-01-16 12:48:19.88	322.56	17.84	-50.2	-50.9	25.2	6.03e-01	0	49	0	162004992	71	4046
2026-01-16 12:48:23.05	323.02	17.48	-50.0	-50.8	25.3	6.02e-01	0	50	0	167772160	71	3981
2026-01-16 12:48:25.93	323.43	17.17	-50.0	-50.7	25.4	6.02e-01	0	49	0	173015040	71	3953
2026-01-16 12:48:29.10	323.87	16.82	-49.9	-50.6	25.5	6.01e-01	0	49	0	179306496	71	3897
2026-01-16 12:48:31.98	324.26	16.51	-49.9	-50.6	25.6	6.04e-01	0	49	0	184549376	71	3904
2026-01-16 12:48:35.15	324.68	16.18	-49.9	-50.7	25.5	6.02e-01	0	49	0	190316544	71	3931
2026-01-16 12:48:38.03	325.05	15.88	-50.0	-50.7	25.4	6.02e-01	0	49	0	195559424	71	3951
2026-01-16 12:48:41.20	325.45	15.55	-50.0	-50.8	25.3	6.04e-01	0	49	0	201850880	71	3999
2026-01-16 12:48:44.07	325.81	15.25	-49.9	-50.7	25.5	6.02e-01	0	49	0	207093760	71	3915
2026-01-16 12:48:47.24	326.19	14.93	-50.0	-50.7	25.3	6.02e-01	0	49	0	213385216	71	3947
2026-01-16 12:48:50.12	326.54	14.64	-50.1	-50.9	25.2	6.01e-01	0	49	0	218628096	71	4008
2026-01-16 12:48:53.29	326.90	14.32	-49.9	-50.7	25.3	6.01e-01	0	49	0	224395264	71	3935
2026-01-16 12:48:56.17	327.23	14.04	-50.0	-50.7	25.3	6.03e-01	0	49	0	229638144	71	3954
2026-01-16 12:48:59.34	327.59	13.73	-50.1	-50.9	25.1	6.02e-01	0	49	0	235929600	71	4031
2026-01-16 12:49:02.22	327.90	13.45	-50.3	-51.1	25.0	6.03e-01	0	49	0	241172480	71	4110
2026-01-16 12:49:05.39	328.24	13.15	-50.3	-51.1	25.0	6.03e-01	0	49	0	246939648	71	4121
2026-01-16 12:49:08.27	328.55	12.88	-50.3	-51.1	24.9	6.02e-01	0	50	0	252706816	71	4145
2026-01-16 12:49:11.44	328.87	12.58	-50.4	-51.3	24.8	6.02e-01	0	49	0	258473984	71	4198
2026-01-16 12:49:14.32	329.17	12.31	-50.4	-51.3	24.7	6.04e-01	0	49	0	263716864	71	4197
2026-01-16 12:49:17.48	329.48	12.02	-50.4	-51.2	24.8	6.03e-01	0	50	0	270008320	71	4184
2026-01-16 12:49:20.37	329.76	11.76	-50.5	-51.3	24.6	6.03e-01	0	49	0	275251200	71	4239
2026-01-16 12:49:23.54	330.06	11.48	-50.5	-51.4	24.5	6.04e-01	0	49	0	281018368	71	4252
2026-01-16 12:49:26.42	330.33	11.22	-50.5	-51.4	24.5	6.02e-01	0	49	0	286261248	71	4248
2026-01-16 12:49:29.58	330.62	10.95	-50.6	-51.5	24.4	6.04e-01	0	49	0	292552704	71	4321
2026-01-16 12:49:32.47	330.88	10.69	-50.5	-51.4	24.4	6.04e-01	0	49	0	297795584	72	4021
2026-01-16 12:49:35.64	331.17	10.42	-50.6	-51.5	24.3	6.02e-01	0	49	0	303562752	72	4061
2026-01-16 12:49:38.52	331.42	10.17	-50.7	-51.6	24.2	6.04e-01	0	50	0	309329920	72	4121
2026-01-16 12:49:41.68	331.69	9.91	-50.7	-51.6	24.2	6.02e-01	0	49	0	315097088	72	4139
2026-01-16 12:49:44.56	331.93	9.67	-50.7	-51.6	24.2	6.01e-01	0	49	0	320864256	72	4142
2026-01-16 12:49:47.73	332.19	9.40	-50.9	-51.8	24.0	6.04e-01	0	49	0	326631424	72	4222
2026-01-16 12:49:50.61	332.42	9.17	-50.8	-51.8	24.0	5.99e-01	0	49	0	331874304	72	4205
2026-01-16 12:49:53.78	332.68	8.91	-51.1	-52.1	23.7	6.05e-01	0	49	0	337641472	72	4371
2026-01-16 12:49:56.67	332.90	8.68	-51.2	-52.2	23.6	6.04e-01	0	50	0	343408640	73	4177
2026-01-16 12:49:59.83	333.15	8.42	-51.3	-52.3	23.4	6.03e-01	0	49	0	349175808	73	4230
2026-01-16 12:50:02.71	333.37	8.20	-51.3	-52.3	23.5	6.02e-01	0	49	0	354418688	73	4212
2026-01-16 12:50:05.88	333.60	7.95	-51.4	-52.4	23.3	6.03e-01	0	49	0	360710144	73	4284
2026-01-16 12:50:08.76	333.81	7.72	-51.5	-52.6	23.1	6.01e-01	0	49	0	365953024	73	4342
2026-01-16 12:50:11.93	334.04	7.48	-51.4	-52.5	23.2	6.01e-01	0	49	0	371720192	73	4324
2026-01-16 12:50:14.81	334.25	7.26	-51.8	-52.9	22.8	6.01e-01	0	49	0	377487360	74	4270
2026-01-16 12:50:17.97	334.47	7.02	-51.7	-52.9	22.8	6.02e-01	0	49	0	383254528	74	4243
2026-01-16 12:50:20.86	334.67	6.81	-51.7	-52.8	22.8	6.03e-01	0	49	0	388497408	74	4215
2026-01-16 12:50:24.02	334.88	6.57	-51.6	-52.8	22.8	6.02e-01	0	49	0	394264576	74	4208
2026-01-16 12:50:26.90	335.07	6.36	-51.8	-53.0	22.5	6.02e-01	0	49	0	400031744	74	4325
2026-01-16 12:50:30.07	335.28	6.13	-51.9	-53.1	21.7	6.03e-01	0	49	0	405798912	74	4362
2026-01-16 12:50:32.95	335.47	5.92	-52.0	-53.2	22.2	6.02e-01	0	49	0	411566080	74	4407
2026-01-16 12:50:36.12	335.67	5.69	-51.9	-53.1	22.2	6.02e-01	0	49	0	417333248	74	4383
2026-01-16 12:50:39.00	335.85	5.48	-51.9	-53.1	22.2	6.03e-01	0	49	0	422576128	74	4378
2026-01-16 12:50:42.17	336.05	5.26	-51.7	-52.9	22.5	6.03e-01	0	49	0	428867584	75	4040
2026-01-16 12:50:45.05	336.22	5.06	-52.1	-53.4	22.0	6.03e-01	0	49	0	434110464	75	4253
2026-01-16 12:50:48.22	336.41	4.84	-59.8	-77.1	3.8	7.44e-01	0	49	104	436207616	90	27553
2026-01-16 12:50:51.10	336.58	4.64	-60.2	-77.5	3.8	7.47e-01	0	49	104	436207616	90	28989
2026-01-16 12:50:54.27	336.77	4.42	-60.4	-77.8	3.8	7.47e-01	0	50	104	436207616	91	28179
2026-01-16 12:50:57.15	336.93	4.23	-60.5	-77.9	3.8	7.46e-01	0	49	104	436207616	91	28392
2026-01-16 12:51:00.32	337.11	4.01	-60.6	-77.9	3.8	7.43e-01	0	49	104	436207616	91	28509
2026-01-16 12:51:03.21	337.27	3.82	-60.5	-77.9	3.8	7.44e-01	0	50	104	436207616	91	28477
2026-01-16 12:51:06.38	337.45	3.61	-60.5	-77.9	3.8	7.46e-01	0	49	104	436207616	91	28446
2026-01-16 12:51:09.26	337.60	3.42	-60.5	-77.8	3.8	7.48e-01	0	49	104	436207616	91	28268
2026-01-16 12:51:12.43	337.77	3.21	-60.5	-77.8	3.8	7.44e-01	0	50	104	436207616	91	28151
2026-01-16 12:51:15.31	337.93	3.02	-60.4	-77.8	3.8	7.44e-01	0	50	104	436207616	91	28150
2026-01-16 12:51:18.47	338.09	2.82	-60.4	-77.8	3.8	7.44e-01	0	49	104	436207616	91	28111
2026-01-16 12:51:21.36	338.24	2.63	-60.4	-77.8	3.8	7.44e-01	0	50	104	436207616	91	28031
2026-01-16 12:51:24.53	338.40	2.43	-60.4	-77.8	3.8	7.45e-01	0	50	104	436207616	91	28028
2026-01-16 12:51:27.41	338.55	2.25	-60.4	-77.7	3.8	7.46e-01	0	50	104	436207616	91	27935
2026-01-16 12:51:30.58	338.71	2.05	-60.4	-77.7	3.8	7.46e-01	0	50	104	436207616	91	27990

#Closed at: 2026-01-16 12:51:32
#Recorded file [436 MB]: D:/lorett/data/31041_260116_153906.dat