passes_logs/2026/01/16/R3.2S_Murmansk/R3.2S_Murmansk__20260116_005241_SUOMI_NPP_rec.log

#Pass ID: 20260116_005241_SUOMI NPP
#Satellite: SUOMI NPP
#Configuration: NPP
#almurnet v.1.7.20251203
#Start time: 2026-01-16 00:52:41

#Version: 2.2.20231116
#Station: R3.2S_Murmansk
#Location: 33.079688 lon 68.888172 lat
#TLE: 1 37849U 11061A   26015.52691075  .00000052  00000+0  45753-4 0  9993
#TLE: 2 37849  98.7811 317.5709 0002448  62.7632 297.3794 14.19525354736784

#Time	Az	El	Level	Level2	SNR	BER	BlckErr	Temp	State	Recorded	gain1	gain2
2026-01-16 00:52:41.14	25.00	1.97	-56.2	-71.2	3.8	1.49e+00	0	41	0	0	84	19689
2026-01-16 00:52:45.17	25.00	2.22	-56.1	-71.1	3.8	1.49e+00	0	41	104	0	82	21809
2026-01-16 00:52:49.21	25.00	2.49	-56.1	-71.0	3.8	1.49e+00	0	41	104	0	82	21695
2026-01-16 00:52:53.25	25.01	2.75	-56.1	-71.1	3.8	1.49e+00	0	42	104	0	82	21780
2026-01-16 00:52:57.29	25.01	3.02	-56.1	-70.6	3.8	1.49e+00	0	42	104	0	82	20773
2026-01-16 00:53:01.32	25.01	3.28	-55.8	-66.3	4.6	1.14e+00	0	42	0	1048576	82	12558
2026-01-16 00:53:05.36	25.01	3.55	-55.2	-62.1	7.6	1.25e-01	0	42	0	8388608	82	7764
2026-01-16 00:53:09.40	25.01	3.83	-54.4	-59.3	10.4	1.19e-02	0	42	0	15728640	80	6311
2026-01-16 00:53:13.44	25.01	4.11	-54.5	-59.6	10.3	7.50e-03	0	43	0	23068672	79	6909
2026-01-16 00:53:17.48	25.01	4.38	-54.8	-60.5	9.4	2.97e-02	0	43	0	31457280	80	7209
2026-01-16 00:53:21.52	25.01	4.67	-55.5	-63.6	6.3	8.22e-02	0	43	0	38797312	81	9804
2026-01-16 00:53:25.56	25.01	4.95	-55.7	-65.5	5.0	5.42e-01	0	43	0	46137344	82	11492
2026-01-16 00:53:29.60	25.01	5.24	-56.0	-66.7	4.5	1.39e+00	36	43	0	52428800	82	13162
2026-01-16 00:53:33.63	25.01	5.53	-55.7	-62.5	7.7	8.14e-02	0	44	0	56623104	82	8162
2026-01-16 00:53:37.67	25.01	5.83	-55.5	-61.5	8.9	2.92e-02	0	44	0	63963136	82	7215
2026-01-16 00:53:41.71	25.01	6.13	-54.9	-59.6	11.0	2.10e-03	0	44	0	71303168	81	6151
2026-01-16 00:53:45.75	25.01	6.43	-54.4	-58.4	12.2	4.73e-04	0	44	0	79691776	80	5690
2026-01-16 00:53:49.79	25.01	6.73	-54.3	-58.1	12.7	2.21e-05	0	44	0	87031808	79	5800
2026-01-16 00:53:53.83	25.00	7.04	-54.1	-57.6	13.2	2.67e-05	0	44	0	94371840	79	5500
2026-01-16 00:53:57.87	25.00	7.36	-53.9	-57.2	13.7	3.00e-06	0	45	0	101711872	79	5232
2026-01-16 00:54:01.90	25.00	7.67	-53.5	-56.5	14.5	1.50e-06	0	45	0	109051904	79	4815
2026-01-16 00:54:05.94	24.99	7.99	-53.3	-56.1	14.9	7.00e-07	0	45	0	117440512	78	4877
2026-01-16 00:54:09.98	24.99	8.32	-53.4	-56.3	14.7	0.00e+00	0	45	0	124780544	78	4985
2026-01-16 00:54:14.02	24.98	8.65	-53.3	-56.0	15.1	0.00e+00	0	45	0	132120576	78	4822
2026-01-16 00:54:18.06	24.98	8.98	-53.2	-55.8	15.2	0.00e+00	0	45	0	139460608	78	4739
2026-01-16 00:54:22.10	24.97	9.32	-53.3	-55.9	15.2	0.00e+00	0	45	0	147849216	78	4795
2026-01-16 00:54:26.14	24.96	9.66	-53.0	-55.5	15.6	0.00e+00	0	45	0	155189248	78	4575
2026-01-16 00:54:30.17	24.95	10.01	-52.9	-55.4	15.8	0.00e+00	0	46	0	162529280	77	4762
2026-01-16 00:54:34.21	24.95	10.36	-52.8	-55.1	16.0	0.00e+00	0	46	0	169869312	77	4637
2026-01-16 00:54:38.25	24.94	10.72	-52.7	-55.0	16.1	0.00e+00	0	46	0	178257920	77	4594
2026-01-16 00:54:42.29	24.93	11.08	-52.6	-54.8	16.4	0.00e+00	0	46	0	185597952	77	4472
2026-01-16 00:54:46.33	24.92	11.45	-52.3	-54.4	16.8	0.00e+00	0	46	0	192937984	76	4536
2026-01-16 00:54:50.37	24.91	11.82	-52.4	-54.5	16.8	0.00e+00	0	46	0	200278016	76	4565
2026-01-16 00:54:54.41	24.90	12.20	-52.2	-54.2	17.1	0.00e+00	0	46	0	207618048	76	4408
2026-01-16 00:54:58.45	24.88	12.59	-52.0	-54.0	17.3	0.00e+00	0	46	0	216006656	75	4577
2026-01-16 00:55:02.49	24.87	12.98	-51.9	-53.8	17.5	0.00e+00	0	46	0	223346688	75	4458
2026-01-16 00:55:06.53	24.86	13.38	-51.5	-53.3	17.9	0.00e+00	0	46	0	230686720	75	4232
2026-01-16 00:55:10.57	24.84	13.78	-51.6	-53.4	17.9	0.00e+00	0	46	0	238026752	75	4287
2026-01-16 00:55:14.60	24.83	14.19	-51.5	-53.2	18.1	0.00e+00	0	46	0	245366784	74	4431
2026-01-16 00:55:18.64	24.81	14.61	-51.3	-52.9	18.4	0.00e+00	0	46	0	253755392	74	4288
2026-01-16 00:55:22.68	24.79	15.04	-51.0	-52.6	18.7	0.00e+00	0	47	0	261095424	74	4141
2026-01-16 00:55:26.72	24.77	15.47	-51.1	-52.7	18.6	0.00e+00	0	46	0	268435456	73	4402
2026-01-16 00:55:30.75	24.75	15.91	-50.9	-52.5	18.8	0.00e+00	0	47	0	275775488	73	4309
2026-01-16 00:55:34.79	24.73	16.36	-50.8	-52.4	19.0	0.00e+00	0	47	0	284164096	73	4248
2026-01-16 00:55:38.82	24.71	16.82	-50.7	-52.2	19.1	0.00e+00	0	47	0	291504128	73	4193
2026-01-16 00:55:42.87	24.69	17.29	-50.6	-52.1	19.2	0.00e+00	0	47	0	298844160	73	4145
2026-01-16 00:55:46.90	24.66	17.76	-50.6	-52.1	19.2	0.00e+00	0	47	0	306184192	73	4137
2026-01-16 00:55:50.94	24.64	18.25	-50.4	-51.8	19.5	0.00e+00	0	47	0	314572800	72	4219
2026-01-16 00:55:54.97	24.61	18.74	-50.2	-51.5	19.8	0.00e+00	0	47	0	321912832	72	4095
2026-01-16 00:55:59.01	24.58	19.25	-50.2	-51.6	19.7	0.00e+00	0	47	0	329252864	72	4126
2026-01-16 00:56:03.06	24.55	19.77	-50.2	-51.6	19.8	0.00e+00	0	47	0	336592896	72	4114
2026-01-16 00:56:07.09	24.52	20.29	-50.2	-51.6	19.8	0.00e+00	0	47	0	343932928	72	4115
2026-01-16 00:56:11.13	24.49	20.83	-50.0	-51.4	20.0	0.00e+00	0	47	0	351272960	72	4011
2026-01-16 00:56:15.17	24.45	21.38	-50.1	-51.5	19.9	0.00e+00	0	47	0	359661568	72	4082
2026-01-16 00:56:19.21	24.42	21.94	-50.3	-51.6	19.8	0.00e+00	0	47	0	367001600	72	4140
2026-01-16 00:56:23.25	24.38	22.52	-50.4	-51.8	19.7	0.00e+00	0	47	0	374341632	72	4223
2026-01-16 00:56:27.29	24.34	23.11	-50.3	-51.7	19.8	0.00e+00	0	47	0	381681664	72	4148
2026-01-16 00:56:31.32	24.29	23.71	-50.3	-51.8	19.7	0.00e+00	0	47	0	390070272	72	4198
2026-01-16 00:56:35.36	24.25	24.32	-50.6	-52.1	19.4	0.00e+00	0	47	0	397410304	72	4355
2026-01-16 00:56:39.39	24.20	24.95	-50.7	-52.1	19.4	0.00e+00	0	47	0	404750336	72	4379
2026-01-16 00:56:43.43	24.15	25.60	-50.4	-51.8	19.7	0.00e+00	0	47	0	412090368	72	4214
2026-01-16 00:56:47.47	24.09	26.26	-50.5	-52.0	19.7	0.00e+00	0	47	0	420478976	72	4294
2026-01-16 00:56:51.50	24.04	26.94	-51.7	-53.4	18.2	0.00e+00	0	48	0	427819008	73	4779
2026-01-16 00:56:55.54	23.98	27.64	-51.9	-53.7	18.0	0.00e+00	0	48	0	435159040	74	4652
2026-01-16 00:56:59.58	23.91	28.35	-52.0	-53.8	17.8	0.00e+00	0	48	0	442499072	75	4454
2026-01-16 00:57:03.62	23.85	29.08	-52.1	-53.9	17.8	0.00e+00	0	48	0	449839104	75	4530
2026-01-16 00:57:07.66	23.77	29.84	-52.5	-54.5	17.3	0.00e+00	0	48	0	458227712	76	4568
2026-01-16 00:57:11.70	23.70	30.61	-52.2	-54.0	17.8	0.00e+00	0	48	0	465567744	76	4321
2026-01-16 00:57:15.74	23.62	31.41	-52.9	-55.1	16.8	0.00e+00	0	48	0	472907776	76	4881
2026-01-16 00:57:19.78	23.53	32.22	-53.6	-56.1	15.8	0.00e+00	0	48	0	480247808	78	4877
2026-01-16 00:57:23.81	23.44	33.06	-53.6	-56.1	15.7	0.00e+00	0	48	0	487587840	78	4914
2026-01-16 00:57:27.86	23.35	33.93	-53.5	-55.9	15.9	0.00e+00	0	48	0	495976448	78	4795
2026-01-16 00:57:31.89	23.25	34.81	-52.5	-54.5	17.4	0.00e+00	0	48	0	503316480	76	4553
2026-01-16 00:57:35.93	23.14	35.73	-50.7	-52.1	19.5	0.00e+00	0	48	0	510656512	73	4144
2026-01-16 00:57:39.97	23.02	36.67	-50.3	-51.6	20.0	0.00e+00	0	48	0	517996544	72	4131
2026-01-16 00:57:44.00	22.90	37.64	-49.3	-50.5	21.0	0.00e+00	0	48	0	526385152	70	4091
2026-01-16 00:57:48.04	22.76	38.64	-50.0	-51.3	20.4	0.00e+00	0	48	0	533725184	70	4455
2026-01-16 00:57:52.08	22.62	39.66	-50.2	-51.5	20.2	0.00e+00	0	48	0	541065216	71	4322
2026-01-16 00:57:56.11	22.47	40.72	-49.6	-50.7	20.9	0.00e+00	0	48	0	548405248	71	3958
2026-01-16 00:58:00.16	22.30	41.81	-50.4	-51.8	20.1	0.00e+00	0	48	0	556793856	71	4442
2026-01-16 00:58:04.20	22.13	42.94	-51.3	-52.9	19.0	0.00e+00	0	48	0	564133888	73	4496
2026-01-16 00:58:08.23	21.93	44.09	-50.8	-52.2	19.6	0.00e+00	0	48	0	571473920	73	4165
2026-01-16 00:58:12.27	21.73	45.29	-51.2	-52.7	19.1	0.00e+00	0	48	0	578813952	73	4433
2026-01-16 00:58:16.30	21.50	46.52	-52.1	-53.8	18.1	0.00e+00	0	48	0	586153984	75	4468
2026-01-16 00:58:20.34	21.26	47.78	-52.8	-54.8	17.2	0.00e+00	0	48	0	594542592	77	4475
2026-01-16 00:58:24.38	20.99	49.09	-52.3	-54.1	17.9	0.00e+00	0	48	0	601882624	76	4346
2026-01-16 00:58:28.41	20.70	50.43	-51.1	-52.6	19.2	0.00e+00	0	48	0	609222656	74	4133
2026-01-16 00:58:32.44	20.37	51.81	-50.0	-51.3	20.5	0.00e+00	0	48	0	616562688	71	4219
2026-01-16 00:58:36.48	20.02	53.23	-49.7	-50.8	20.9	0.00e+00	0	48	0	623902720	71	4001
2026-01-16 00:58:40.52	19.62	54.69	-49.8	-51.0	20.8	0.00e+00	0	48	0	632291328	71	4066
2026-01-16 00:58:44.55	19.18	56.19	-49.8	-51.1	20.8	0.00e+00	0	48	0	639631360	70	4344
2026-01-16 00:58:48.58	18.69	57.73	-51.7	-53.3	18.7	0.00e+00	0	48	0	646971392	73	4733
2026-01-16 00:58:52.61	18.14	59.31	-52.6	-54.5	17.5	0.00e+00	0	48	0	654311424	75	4850
2026-01-16 00:58:56.65	17.51	60.94	-52.8	-54.8	17.2	0.00e+00	0	48	0	662700032	77	4445
2026-01-16 00:59:00.69	16.79	62.60	-50.6	-52.0	19.8	0.00e+00	0	48	0	670040064	73	4081
2026-01-16 00:59:04.72	15.96	64.29	-50.0	-51.3	20.6	0.00e+00	0	48	0	677380096	70	4473
2026-01-16 00:59:08.76	15.00	66.02	-52.3	-54.2	17.7	0.00e+00	0	48	0	684720128	75	4678
2026-01-16 00:59:12.79	13.86	67.78	-52.4	-54.2	18.0	0.00e+00	0	48	0	692060160	75	4685
2026-01-16 00:59:16.82	12.51	69.56	-54.2	-56.7	15.4	0.00e+00	0	49	0	700448768	78	5273
2026-01-16 00:59:20.86	10.87	71.37	-52.8	-54.7	17.2	0.00e+00	0	48	0	707788800	77	4436
2026-01-16 00:59:24.89	8.85	73.19	-50.1	-51.4	20.6	0.00e+00	0	49	0	715128832	71	4259
2026-01-16 00:59:28.93	6.31	75.02	-52.3	-54.2	17.9	0.00e+00	0	48	0	722468864	75	4672
2026-01-16 00:59:32.96	3.03	76.83	-54.5	-57.4	14.6	0.00e+00	0	48	0	729808896	80	5067
2026-01-16 00:59:37.00	358.67	78.61	-54.6	-57.5	14.5	0.00e+00	0	48	0	738197504	79	5458
2026-01-16 00:59:41.04	352.68	80.32	-53.1	-55.1	16.8	0.00e+00	0	48	0	745537536	78	4385
2026-01-16 00:59:45.07	344.22	81.89	-49.6	-50.8	20.9	0.00e+00	0	48	0	752877568	70	4216
2026-01-16 00:59:49.11	332.02	83.21	-49.8	-51.0	20.8	0.00e+00	0	48	0	760217600	70	4315
2026-01-16 00:59:53.14	315.10	84.11	-48.8	-49.9	21.7	0.00e+00	0	48	0	768606208	69	4024
2026-01-16 00:59:57.18	294.55	84.35	-50.1	-51.4	20.6	0.00e+00	0	48	0	775946240	70	4507
2026-01-16 01:00:01.21	274.90	83.87	-50.1	-51.4	20.5	0.00e+00	0	48	0	783286272	70	4535
2026-01-16 01:00:05.25	259.58	82.80	-49.9	-51.1	20.7	0.00e+00	0	48	0	790626304	71	4127
2026-01-16 01:00:09.30	248.78	81.37	-52.4	-54.3	17.8	0.00e+00	0	48	0	797966336	75	4713
2026-01-16 01:00:13.34	241.28	79.74	-53.1	-55.2	17.0	0.00e+00	0	48	0	806354944	78	4397
2026-01-16 01:00:17.38	235.93	78.00	-53.0	-55.1	17.0	0.00e+00	0	49	0	813694976	76	4924
2026-01-16 01:00:21.42	231.99	76.20	-51.6	-53.2	18.8	0.00e+00	0	49	0	821035008	74	4422
2026-01-16 01:00:25.45	229.00	74.38	-51.4	-52.9	19.2	0.00e+00	0	48	0	828375040	74	4251
2026-01-16 01:00:29.49	226.65	72.55	-52.6	-54.6	17.3	0.00e+00	0	48	0	836763648	76	4634
2026-01-16 01:00:33.53	224.77	70.73	-51.5	-53.1	18.9	0.00e+00	0	48	0	844103680	74	4351
2026-01-16 01:00:37.57	223.24	68.92	-51.1	-52.6	19.4	0.00e+00	0	49	0	851443712	74	4111
2026-01-16 01:00:41.61	221.97	67.14	-50.5	-51.8	20.1	0.00e+00	0	48	0	858783744	72	4228
2026-01-16 01:00:45.65	220.90	65.39	-49.9	-51.2	20.8	0.00e+00	0	49	0	866123776	70	4401
2026-01-16 01:00:49.68	219.98	63.67	-51.7	-53.3	18.6	0.00e+00	0	49	0	874512384	74	4492
2026-01-16 01:00:53.72	219.20	61.98	-50.3	-51.6	20.2	0.00e+00	0	48	0	881852416	72	4134
2026-01-16 01:00:57.76	218.51	60.33	-50.6	-52.0	20.0	0.00e+00	0	48	0	889192448	72	4310
2026-01-16 01:01:01.80	217.91	58.72	-48.6	-49.6	22.1	0.00e+00	0	48	0	896532480	69	3884
2026-01-16 01:01:05.84	217.38	57.15	-49.8	-51.0	20.8	0.00e+00	0	48	0	904921088	70	4328
2026-01-16 01:01:09.88	216.90	55.61	-49.4	-50.6	21.2	0.00e+00	0	48	0	912261120	70	4105
2026-01-16 01:01:13.92	216.48	54.12	-50.5	-51.8	20.1	0.00e+00	0	48	0	919601152	71	4486
2026-01-16 01:01:17.96	216.10	52.67	-51.3	-52.9	19.0	0.00e+00	0	48	0	926941184	74	4268
2026-01-16 01:01:22.00	215.75	51.26	-50.9	-52.3	19.6	0.00e+00	0	49	0	934281216	72	4482
2026-01-16 01:01:26.03	215.44	49.89	-52.0	-53.8	18.2	0.00e+00	0	48	0	942669824	74	4751
2026-01-16 01:01:30.07	215.16	48.56	-52.5	-54.3	17.7	0.00e+00	0	49	0	950009856	75	4750
2026-01-16 01:01:34.11	214.90	47.27	-52.4	-54.2	17.7	0.00e+00	0	48	0	957349888	76	4411
2026-01-16 01:01:38.16	214.66	46.01	-51.0	-52.4	19.3	0.00e+00	0	48	0	964689920	73	4283
2026-01-16 01:01:42.19	214.44	44.79	-55.1	-58.5	13.1	7.00e-07	0	49	0	973078528	81	5431
2026-01-16 01:01:46.23	214.24	43.61	-54.8	-58.0	13.4	4.88e-05	0	48	0	980418560	81	5126
2026-01-16 01:01:50.27	214.05	42.46	-52.3	-54.1	17.9	0.00e+00	0	48	0	987758592	75	4608
2026-01-16 01:01:54.31	213.88	41.34	-53.7	-56.2	15.7	0.00e+00	0	49	0	995098624	79	4699
2026-01-16 01:01:58.34	213.72	40.27	-51.7	-53.3	18.5	0.00e+00	0	49	0	1002438656	75	4211
2026-01-16 01:02:02.38	213.57	39.22	-51.9	-53.6	18.3	0.00e+00	0	49	0	1010827264	74	4637
2026-01-16 01:02:06.42	213.43	38.20	-53.3	-55.5	16.5	0.00e+00	0	49	0	1018167296	77	4842
2026-01-16 01:02:10.46	213.30	37.21	-52.2	-54.0	17.8	0.00e+00	0	49	0	1025507328	76	4332
2026-01-16 01:02:14.50	213.17	36.25	-52.4	-54.4	17.5	0.00e+00	0	49	0	1032847360	75	4771
2026-01-16 01:02:18.54	213.06	35.31	-51.8	-53.5	18.3	0.00e+00	0	49	0	1040187392	75	4321
2026-01-16 01:02:22.57	212.95	34.41	-51.3	-52.9	18.9	0.00e+00	0	48	0	1048576000	73	4515
2026-01-16 01:02:26.61	212.85	33.53	-54.6	-57.7	14.2	1.50e-06	0	49	0	1055916032	80	5221
2026-01-16 01:02:30.65	212.76	32.67	-53.7	-56.2	15.7	0.00e+00	0	49	0	1063256064	79	4698
2026-01-16 01:02:34.68	212.67	31.84	-52.0	-53.8	18.0	0.00e+00	0	49	0	1070596096	75	4443
2026-01-16 01:02:38.72	212.58	31.03	-51.8	-53.6	18.2	0.00e+00	0	49	0	1078984704	74	4605
2026-01-16 01:02:42.75	212.50	30.24	-51.9	-53.7	18.0	0.00e+00	0	49	0	1086324736	75	4426
2026-01-16 01:02:46.79	212.43	29.47	-52.3	-54.3	17.6	0.00e+00	0	48	0	1093664768	75	4706
2026-01-16 01:02:50.82	212.36	28.73	-53.4	-55.9	15.9	0.00e+00	0	49	0	1101004800	77	5052
2026-01-16 01:02:54.86	212.29	28.00	-53.1	-55.3	16.5	0.00e+00	0	48	0	1109393408	77	4733
2026-01-16 01:02:58.89	212.23	27.29	-51.5	-53.2	18.5	0.00e+00	0	49	0	1116733440	75	4162
2026-01-16 01:03:02.93	212.17	26.60	-50.5	-51.9	19.7	0.00e+00	0	49	0	1124073472	73	4041
2026-01-16 01:03:06.97	212.11	25.92	-50.6	-52.0	19.5	0.00e+00	0	49	0	1131413504	72	4336
2026-01-16 01:03:11.01	212.05	25.27	-52.8	-55.0	16.7	0.00e+00	0	49	0	1138753536	76	4860
2026-01-16 01:03:15.04	212.00	24.63	-52.8	-55.0	16.7	0.00e+00	0	49	0	1147142144	77	4546
2026-01-16 01:03:19.08	211.95	24.00	-51.4	-53.1	18.5	0.00e+00	0	49	0	1154482176	74	4355
2026-01-16 01:03:23.11	211.91	23.39	-50.5	-52.0	19.5	0.00e+00	0	49	0	1161822208	72	4304
2026-01-16 01:03:27.16	211.86	22.79	-50.5	-51.9	19.6	0.00e+00	0	49	0	1169162240	72	4286
2026-01-16 01:03:31.19	211.82	22.21	-50.7	-52.1	19.3	0.00e+00	0	49	0	1176502272	72	4385
2026-01-16 01:03:35.23	211.78	21.63	-50.6	-52.1	19.4	0.00e+00	0	49	0	1184890880	72	4353
2026-01-16 01:03:39.27	211.74	21.08	-50.7	-52.2	19.3	0.00e+00	0	49	0	1192230912	72	4412
2026-01-16 01:03:43.31	211.71	20.53	-51.1	-52.6	18.8	0.00e+00	0	49	0	1199570944	72	4647
2026-01-16 01:03:47.35	211.67	19.99	-51.3	-53.0	18.5	0.00e+00	0	49	0	1206910976	73	4575
2026-01-16 01:03:51.39	211.64	19.47	-51.2	-52.9	18.6	0.00e+00	0	49	0	1215299584	73	4520
2026-01-16 01:03:55.43	211.61	18.96	-51.8	-53.6	17.9	0.00e+00	0	49	0	1222639616	74	4647
2026-01-16 01:03:59.47	211.58	18.45	-52.8	-55.1	16.5	0.00e+00	0	49	0	1229979648	76	4905
2026-01-16 01:04:03.51	211.55	17.96	-53.6	-56.3	15.3	0.00e+00	0	49	0	1237319680	78	4984
2026-01-16 01:04:07.55	211.52	17.48	-54.0	-57.0	14.7	0.00e+00	0	49	0	1245708288	78	5416
2026-01-16 01:04:11.59	211.50	17.01	-53.6	-56.3	15.2	0.00e+00	0	49	0	1253048320	78	4993
2026-01-16 01:04:15.62	211.47	16.54	-53.1	-55.6	16.0	0.00e+00	0	49	0	1260388352	77	4879
2026-01-16 01:04:19.66	211.45	16.09	-52.7	-54.9	16.6	0.00e+00	0	49	0	1267728384	77	4500
2026-01-16 01:04:23.69	211.43	15.64	-52.4	-54.4	17.0	0.00e+00	0	49	0	1275068416	76	4542
2026-01-16 01:04:27.73	211.41	15.20	-52.4	-54.5	17.0	0.00e+00	0	49	0	1282408448	76	4547
2026-01-16 01:04:31.77	211.39	14.77	-52.0	-53.9	17.4	0.00e+00	0	49	0	1290797056	76	4285
2026-01-16 01:04:35.81	211.37	14.34	-52.2	-54.1	17.2	0.00e+00	0	49	0	1298137088	75	4648
2026-01-16 01:04:39.84	211.35	13.93	-51.8	-53.7	17.6	0.00e+00	0	49	0	1305477120	75	4416
2026-01-16 01:04:43.89	211.33	13.52	-51.9	-53.7	17.6	0.00e+00	0	49	0	1312817152	75	4439
2026-01-16 01:04:47.92	211.31	13.12	-51.8	-53.6	17.7	0.00e+00	0	49	0	1321205760	75	4362
2026-01-16 01:04:51.96	211.30	12.72	-51.8	-53.6	17.6	0.00e+00	0	49	0	1328545792	75	4391
2026-01-16 01:04:55.99	211.28	12.33	-51.7	-53.6	17.7	0.00e+00	0	49	0	1335885824	75	4343
2026-01-16 01:05:00.03	211.27	11.95	-51.9	-53.9	17.4	0.00e+00	0	49	0	1343225856	75	4519
2026-01-16 01:05:04.07	211.26	11.57	-51.9	-53.8	17.4	0.00e+00	0	49	0	1351614464	75	4481
2026-01-16 01:05:08.11	211.24	11.20	-52.0	-54.0	17.2	0.00e+00	0	49	0	1358954496	75	4554
2026-01-16 01:05:12.15	211.23	10.83	-51.9	-53.9	17.3	0.00e+00	0	49	0	1366294528	75	4526
2026-01-16 01:05:16.18	211.22	10.47	-51.7	-53.6	17.5	0.00e+00	0	49	0	1373634560	75	4389
2026-01-16 01:05:20.22	211.21	10.11	-51.8	-53.8	17.3	0.00e+00	0	49	0	1380974592	75	4447
2026-01-16 01:05:24.26	211.20	9.76	-51.7	-53.6	17.4	0.00e+00	0	49	0	1389363200	75	4381
2026-01-16 01:05:28.30	211.19	9.41	-52.1	-54.3	16.8	0.00e+00	0	49	0	1396703232	75	4713
2026-01-16 01:05:32.34	211.18	9.07	-52.0	-54.1	17.0	0.00e+00	0	49	0	1404043264	75	4630
2026-01-16 01:05:36.38	211.17	8.74	-51.8	-53.8	17.2	0.00e+00	0	49	0	1411383296	75	4453
2026-01-16 01:05:40.42	211.16	8.40	-52.1	-54.2	16.8	0.00e+00	0	49	0	1418723328	75	4675
2026-01-16 01:05:44.46	211.16	8.08	-52.1	-54.3	16.7	0.00e+00	0	49	0	1427111936	75	4723
2026-01-16 01:05:48.50	211.15	7.75	-52.4	-54.7	16.3	0.00e+00	0	49	0	1434451968	75	4942
2026-01-16 01:05:52.54	211.14	7.43	-52.8	-55.4	15.6	0.00e+00	0	49	0	1441792000	76	5050
2026-01-16 01:05:56.58	211.13	7.12	-52.6	-55.0	15.9	0.00e+00	0	49	0	1449132032	76	4826
2026-01-16 01:06:00.62	211.13	6.80	-52.9	-55.4	15.4	0.00e+00	0	49	0	1457520640	76	5080
2026-01-16 01:06:04.66	211.12	6.50	-52.8	-55.4	15.4	0.00e+00	0	49	0	1464860672	76	5079
2026-01-16 01:06:08.70	211.12	6.19	-52.7	-55.2	15.5	0.00e+00	0	49	0	1472200704	76	4968
2026-01-16 01:06:12.74	211.11	5.89	-53.2	-56.0	14.8	0.00e+00	0	49	0	1479540736	76	5456
2026-01-16 01:06:16.78	211.11	5.59	-52.6	-55.2	15.5	0.00e+00	0	49	0	1487929344	76	4931
2026-01-16 01:06:20.82	211.10	5.30	-52.9	-55.6	15.0	0.00e+00	0	49	0	1495269376	76	5173
2026-01-16 01:06:24.86	211.10	5.01	-56.9	-71.2	3.8	1.50e-06	0	49	104	1502609408	84	19822
2026-01-16 01:06:28.90	211.10	4.72	-57.9	-72.9	3.8	1.49e+00	0	49	104	1502609408	86	21480
2026-01-16 01:06:32.94	211.09	4.44	-58.2	-73.2	3.8	1.49e+00	0	49	104	1502609408	86	22062
2026-01-16 01:06:36.98	211.09	4.15	-58.3	-73.4	3.8	1.49e+00	0	49	104	1502609408	87	21262
2026-01-16 01:06:41.02	211.09	3.87	-58.4	-73.4	3.8	1.49e+00	0	49	104	1502609408	87	21359
2026-01-16 01:06:45.06	211.09	3.60	-58.4	-73.4	3.8	1.49e+00	0	49	104	1502609408	87	21439
2026-01-16 01:06:49.09	211.09	3.33	-58.4	-73.4	3.8	1.49e+00	0	49	104	1502609408	87	21309
2026-01-16 01:06:53.13	211.08	3.06	-58.3	-73.3	3.8	1.49e+00	0	49	104	1502609408	87	21252
2026-01-16 01:06:57.18	211.08	2.79	-58.3	-73.3	3.8	1.49e+00	0	49	104	1502609408	87	21187
2026-01-16 01:07:01.21	211.08	2.52	-58.3	-73.3	3.8	1.49e+00	0	49	104	1502609408	87	21233
2026-01-16 01:07:05.26	211.08	2.26	-58.3	-73.3	3.8	1.49e+00	0	49	104	1502609408	87	21075
2026-01-16 01:07:09.30	211.08	2.00	-58.3	-73.3	3.8	1.49e+00	0	49	104	1502609408	87	21076

#Closed at: 2026-01-16 01:07:11
#Recorded file [1502 MB]: D:/lorett/data/31041_260116_035240.dat