passes_logs/2026/01/16/R3.2S_Murmansk/R3.2S_Murmansk__20260116_033154_FENGYUN_3D_rec.log

#Pass ID: 20260116_033154_FENGYUN 3D
#Satellite: FENGYUN 3D
#Configuration: FENGYUN 3D
#almurnet v.1.7.20251203
#Start time: 2026-01-16 03:31:55

#Version: 2.2.20231116
#Station: R3.2S_Murmansk
#Location: 33.079688 lon 68.888172 lat
#TLE: 1 43010U 17072A   26015.49690188 -.00000192  00000+0 -69217-4 0  9996
#TLE: 2 43010  98.9932 347.3205 0002350 106.2275 253.9159 14.19694721423329

#Time	Az	El	Level	Level2	SNR	BER	BlckErr	Temp	State	Recorded	gain1	gain2
2026-01-16 03:31:55.89	28.40	2.08	-56.0	-67.9	3.8	8.46e-01	0	41	0	0	84	13545
2026-01-16 03:31:59.92	28.34	2.33	-55.9	-67.7	3.8	8.46e-01	0	41	104	0	82	14774
2026-01-16 03:32:03.94	28.28	2.59	-55.8	-66.9	3.8	8.47e-01	0	42	104	0	82	13504
2026-01-16 03:32:07.98	28.21	2.86	-55.7	-65.9	3.8	8.46e-01	0	42	104	0	82	12036
2026-01-16 03:32:12.02	28.15	3.12	-55.7	-65.9	3.8	8.46e-01	0	42	104	0	82	12028
2026-01-16 03:32:16.06	28.08	3.39	-55.8	-66.1	3.8	8.46e-01	0	42	104	0	82	12303
2026-01-16 03:32:20.10	28.01	3.66	-54.5	-59.7	6.9	3.35e-01	0	43	0	3145728	81	6231
2026-01-16 03:32:24.14	27.94	3.93	-52.7	-55.7	11.0	8.54e-03	0	43	0	25165824	77	4947
2026-01-16 03:32:28.18	27.87	4.21	-51.7	-54.0	12.8	3.52e-04	0	43	0	48234496	75	4577
2026-01-16 03:32:32.22	27.80	4.49	-52.5	-55.3	11.5	7.20e-04	0	43	0	71303168	75	5326
2026-01-16 03:32:36.27	27.72	4.77	-53.4	-56.9	9.8	8.35e-03	0	43	0	93323264	77	5721
2026-01-16 03:32:40.31	27.64	5.05	-54.2	-58.7	7.9	1.45e-01	0	44	0	116391936	79	6242
2026-01-16 03:32:44.35	27.56	5.34	-50.5	-52.1	15.5	0.00e+00	0	44	0	135266304	71	4630
2026-01-16 03:32:48.39	27.48	5.63	-49.3	-50.7	16.9	0.00e+00	0	44	0	154140672	69	4427
2026-01-16 03:32:52.43	27.40	5.93	-48.7	-50.0	17.7	0.00e+00	0	44	0	177209344	69	4052
2026-01-16 03:32:56.46	27.32	6.22	-48.2	-49.4	18.4	0.00e+00	0	44	0	200278016	68	4010
2026-01-16 03:33:00.50	27.23	6.52	-47.7	-48.8	18.9	0.00e+00	0	45	0	223346688	67	3977
2026-01-16 03:33:04.54	27.14	6.83	-47.8	-48.8	18.9	0.00e+00	0	45	0	245366784	67	4000
2026-01-16 03:33:08.57	27.05	7.13	-47.9	-49.0	18.9	0.00e+00	0	45	0	268435456	67	4061
2026-01-16 03:33:12.61	26.95	7.44	-47.5	-48.6	19.3	0.00e+00	0	45	0	291504128	66	4106
2026-01-16 03:33:16.65	26.86	7.76	-47.9	-49.0	19.0	0.00e+00	0	45	0	313524224	66	4299
2026-01-16 03:33:20.69	26.76	8.08	-47.6	-48.7	19.3	0.00e+00	0	45	0	336592896	66	4149
2026-01-16 03:33:24.73	26.66	8.40	-47.2	-48.2	19.7	0.00e+00	0	45	0	359661568	66	3947
2026-01-16 03:33:28.77	26.55	8.73	-47.1	-48.1	20.0	0.00e+00	0	45	0	381681664	66	3870
2026-01-16 03:33:32.81	26.45	9.06	-47.1	-48.1	19.9	0.00e+00	0	45	0	404750336	66	3907
2026-01-16 03:33:36.85	26.34	9.39	-47.3	-48.3	19.7	0.00e+00	0	45	0	427819008	65	4240
2026-01-16 03:33:40.89	26.22	9.73	-47.4	-48.4	19.7	0.00e+00	0	46	0	450887680	65	4254
2026-01-16 03:33:44.93	26.11	10.07	-46.9	-47.9	20.2	0.00e+00	0	46	0	472907776	65	4031
2026-01-16 03:33:48.97	25.99	10.42	-46.9	-47.8	20.3	0.00e+00	0	46	0	495976448	65	3984
2026-01-16 03:33:53.01	25.87	10.78	-46.5	-47.4	20.7	0.00e+00	0	46	0	519045120	64	4051
2026-01-16 03:33:57.05	25.74	11.14	-46.5	-47.4	20.8	0.00e+00	0	46	0	541065216	64	4016
2026-01-16 03:34:01.08	25.61	11.50	-46.3	-47.2	21.0	0.00e+00	0	46	0	563085312	64	3941
2026-01-16 03:34:05.12	25.48	11.87	-46.3	-47.2	21.0	0.00e+00	0	46	0	586153984	64	3933
2026-01-16 03:34:09.16	25.34	12.24	-46.1	-47.0	21.2	0.00e+00	0	46	0	609222656	64	3826
2026-01-16 03:34:13.20	25.20	12.62	-46.1	-47.0	21.3	0.00e+00	0	46	0	632291328	63	4062
2026-01-16 03:34:17.24	25.06	13.01	-46.2	-47.0	21.3	0.00e+00	0	47	0	654311424	63	4098
2026-01-16 03:34:21.28	24.91	13.40	-46.2	-47.1	21.3	0.00e+00	0	47	0	677380096	63	4114
2026-01-16 03:34:25.32	24.76	13.80	-46.1	-47.0	21.4	0.00e+00	0	47	0	700448768	63	4059
2026-01-16 03:34:29.36	24.60	14.20	-46.1	-46.9	21.5	0.00e+00	0	47	0	722468864	63	4037
2026-01-16 03:34:33.40	24.43	14.62	-45.9	-46.8	21.6	0.00e+00	0	47	0	745537536	63	3977
2026-01-16 03:34:37.45	24.27	15.03	-45.7	-46.6	21.8	0.00e+00	0	47	0	768606208	63	3884
2026-01-16 03:34:41.48	24.09	15.46	-45.6	-46.4	22.0	0.00e+00	0	47	0	790626304	63	3809
2026-01-16 03:34:45.52	23.91	15.89	-45.5	-46.3	22.1	0.00e+00	0	47	0	813694976	62	3973
2026-01-16 03:34:49.57	23.73	16.33	-45.3	-46.1	22.3	0.00e+00	0	47	0	836763648	62	3911
2026-01-16 03:34:53.61	23.54	16.78	-45.2	-46.0	22.4	0.00e+00	0	47	0	859832320	62	3838
2026-01-16 03:34:57.65	23.34	17.24	-44.9	-45.7	22.7	0.00e+00	0	47	0	881852416	61	3926
2026-01-16 03:35:01.70	23.14	17.70	-44.7	-45.4	22.9	0.00e+00	0	47	0	904921088	61	3821
2026-01-16 03:35:05.74	22.93	18.17	-44.6	-45.4	23.0	0.00e+00	0	47	0	927989760	61	3800
2026-01-16 03:35:09.78	22.71	18.65	-44.7	-45.5	22.9	0.00e+00	0	47	0	950009856	61	3840
2026-01-16 03:35:13.82	22.48	19.14	-44.5	-45.3	23.1	0.00e+00	0	47	0	973078528	60	3980
2026-01-16 03:35:17.86	22.25	19.64	-44.3	-45.0	23.4	0.00e+00	0	47	0	995098624	60	3848
2026-01-16 03:35:21.90	22.01	20.15	-44.3	-45.0	23.3	0.00e+00	0	48	0	1018167296	60	3848
2026-01-16 03:35:25.94	21.76	20.67	-44.3	-45.1	23.3	0.00e+00	0	47	0	1041235968	60	3885
2026-01-16 03:35:29.98	21.50	21.20	-44.2	-45.0	23.5	0.00e+00	0	48	0	1063256064	60	3826
2026-01-16 03:35:34.01	21.23	21.74	-44.3	-45.0	23.4	0.00e+00	0	47	0	1086324736	60	3856
2026-01-16 03:35:38.05	20.95	22.29	-44.1	-44.8	23.6	0.00e+00	0	48	0	1109393408	60	3780
2026-01-16 03:35:42.09	20.66	22.86	-44.1	-44.9	23.7	0.00e+00	0	48	0	1132462080	59	4022
2026-01-16 03:35:46.13	20.36	23.43	-43.9	-44.7	23.9	0.00e+00	0	47	0	1154482176	59	3936
2026-01-16 03:35:50.17	20.04	24.02	-44.1	-44.9	23.8	0.00e+00	0	48	0	1177550848	59	4009
2026-01-16 03:35:54.21	19.72	24.62	-44.0	-44.7	23.9	0.00e+00	0	48	0	1200619520	59	3956
2026-01-16 03:35:58.24	19.38	25.23	-43.8	-44.6	24.1	0.00e+00	0	48	0	1222639616	59	3883
2026-01-16 03:36:02.28	19.03	25.85	-43.7	-44.5	24.2	0.00e+00	0	48	0	1245708288	59	3825
2026-01-16 03:36:06.32	18.66	26.49	-43.7	-44.4	24.2	0.00e+00	0	48	0	1268776960	59	3813
2026-01-16 03:36:10.35	18.27	27.14	-43.9	-44.7	24.0	0.00e+00	0	48	0	1290797056	59	3934
2026-01-16 03:36:14.39	17.87	27.81	-44.0	-44.7	24.0	0.00e+00	0	48	0	1313865728	59	3940
2026-01-16 03:36:18.44	17.45	28.49	-43.7	-44.5	24.2	0.00e+00	0	48	0	1336934400	59	3841
2026-01-16 03:36:22.47	17.01	29.19	-43.6	-44.3	24.4	0.00e+00	0	48	0	1358954496	59	3780
2026-01-16 03:36:26.51	16.55	29.90	-43.6	-44.4	24.3	0.00e+00	0	48	0	1382023168	59	3794
2026-01-16 03:36:30.55	16.07	30.63	-43.6	-44.3	24.4	0.00e+00	0	48	0	1404043264	59	3765
2026-01-16 03:36:34.59	15.57	31.38	-43.4	-44.1	24.6	0.00e+00	0	48	0	1427111936	58	3880
2026-01-16 03:36:38.64	15.04	32.14	-43.3	-44.0	24.7	0.00e+00	0	48	0	1450180608	58	3852
2026-01-16 03:36:42.68	14.48	32.92	-43.2	-44.0	24.8	0.00e+00	0	48	0	1472200704	58	3826
2026-01-16 03:36:46.71	13.90	33.72	-43.2	-43.9	24.8	0.00e+00	0	48	0	1495269376	58	3790
2026-01-16 03:36:50.75	13.29	34.53	-43.3	-44.0	24.7	0.00e+00	0	48	0	1518338048	58	3855
2026-01-16 03:36:54.79	12.64	35.36	-43.4	-44.1	24.6	0.00e+00	0	48	0	1541406720	58	3896
2026-01-16 03:36:58.83	11.96	36.21	-43.3	-44.0	24.8	0.00e+00	0	48	0	1563426816	58	3831
2026-01-16 03:37:02.88	11.24	37.08	-43.2	-44.0	24.8	0.00e+00	0	48	0	1586495488	58	3826
2026-01-16 03:37:06.92	10.48	37.97	-43.2	-43.9	24.8	0.00e+00	0	48	0	1609564160	58	3816
2026-01-16 03:37:10.96	9.68	38.87	-43.3	-44.0	24.8	0.00e+00	0	48	0	1631584256	58	3863
2026-01-16 03:37:14.99	8.83	39.79	-43.5	-44.2	24.6	0.00e+00	0	48	0	1654652928	58	3944
2026-01-16 03:37:19.03	7.93	40.72	-43.5	-44.2	24.7	0.00e+00	0	49	0	1677721600	58	3929
2026-01-16 03:37:23.07	6.97	41.68	-43.7	-44.4	24.5	0.00e+00	0	49	0	1699741696	58	4027
2026-01-16 03:37:27.11	5.96	42.65	-43.8	-44.5	24.5	0.00e+00	0	48	0	1722810368	58	4059
2026-01-16 03:37:31.15	4.88	43.63	-43.7	-44.4	24.5	0.00e+00	0	48	0	1745879040	58	4018
2026-01-16 03:37:35.19	3.73	44.63	-44.1	-44.8	24.2	0.00e+00	0	48	0	1768947712	58	4223
2026-01-16 03:37:39.23	2.50	45.64	-44.0	-44.7	24.3	0.00e+00	0	49	0	1790967808	59	3935
2026-01-16 03:37:43.26	1.20	46.65	-44.2	-44.9	24.1	0.00e+00	0	48	0	1812987904	59	4051
2026-01-16 03:37:47.30	359.80	47.68	-44.4	-45.1	23.9	0.00e+00	0	48	0	1836056576	59	4145
2026-01-16 03:37:51.35	358.30	48.71	-44.3	-45.0	24.0	0.00e+00	0	48	0	1859125248	59	4093
2026-01-16 03:37:55.38	356.71	49.74	-44.6	-45.3	23.7	0.00e+00	0	48	0	1881145344	59	4230
2026-01-16 03:37:59.42	355.00	50.77	-44.2	-44.9	24.0	0.00e+00	0	48	0	1904214016	60	3809
2026-01-16 03:38:03.46	353.17	51.80	-44.5	-45.3	23.7	0.00e+00	0	48	0	1927282688	60	3966
2026-01-16 03:38:07.50	351.20	52.81	-44.6	-45.3	23.6	0.00e+00	0	48	0	1950351360	60	4001
2026-01-16 03:38:11.54	349.10	53.81	-44.3	-45.0	24.0	0.00e+00	0	48	0	1972371456	60	3844
2026-01-16 03:38:15.58	346.84	54.78	-44.4	-45.1	23.8	0.00e+00	0	48	0	1995440128	60	3913
2026-01-16 03:38:19.62	344.43	55.72	-44.3	-45.1	23.9	0.00e+00	0	48	0	2018508800	60	3891
2026-01-16 03:38:23.66	341.86	56.63	-44.0	-44.7	24.2	0.00e+00	0	48	0	2040528896	60	3718
2026-01-16 03:38:27.70	339.11	57.49	-44.2	-44.9	24.1	0.00e+00	0	48	0	2063597568	60	3804
2026-01-16 03:38:31.74	336.18	58.29	-44.3	-45.0	24.0	0.00e+00	0	48	0	2086666240	60	3854
2026-01-16 03:38:35.78	333.08	59.03	-44.2	-45.0	24.1	0.00e+00	0	49	0	2108686336	59	4059
2026-01-16 03:38:39.82	329.81	59.70	-44.4	-45.1	23.9	0.00e+00	0	49	0	2131755008	60	3903
2026-01-16 03:38:43.86	326.38	60.28	-44.0	-44.8	24.2	0.00e+00	0	48	0	2154823680	60	3739
2026-01-16 03:38:47.90	322.80	60.77	-43.9	-44.6	24.5	0.00e+00	0	49	0	2177892352	59	3903
2026-01-16 03:38:51.94	319.09	61.16	-44.4	-45.1	24.0	0.00e+00	0	49	0	2199912448	59	4138
2026-01-16 03:38:55.98	315.28	61.45	-43.7	-44.4	24.7	0.00e+00	0	49	0	2221932544	59	3814
2026-01-16 03:39:00.02	311.40	61.62	-44.0	-44.8	24.3	0.00e+00	0	49	0	2245001216	59	3983
2026-01-16 03:39:04.06	307.48	61.68	-43.7	-44.4	24.7	0.00e+00	0	49	0	2268069888	59	3816
2026-01-16 03:39:08.10	303.55	61.62	-43.3	-44.0	25.0	0.00e+00	0	49	0	2291138560	58	3839
2026-01-16 03:39:12.14	299.67	61.45	-43.8	-44.5	24.6	0.00e+00	0	49	0	2313158656	58	4081
2026-01-16 03:39:16.18	295.86	61.16	-43.8	-44.6	24.5	0.00e+00	0	49	0	2336227328	58	4107
2026-01-16 03:39:20.21	292.16	60.77	-43.7	-44.4	24.6	0.00e+00	0	49	0	2359296000	58	4047
2026-01-16 03:39:24.25	288.57	60.28	-44.1	-44.9	24.3	0.00e+00	0	49	0	2381316096	59	4009
2026-01-16 03:39:28.29	285.14	59.70	-43.9	-44.6	24.5	0.00e+00	0	49	0	2404384768	59	3908
2026-01-16 03:39:32.33	281.86	59.03	-43.9	-44.6	24.6	0.00e+00	0	49	0	2427453440	59	3886
2026-01-16 03:39:36.37	278.76	58.29	-43.8	-44.6	24.5	0.00e+00	0	49	0	2449473536	59	3883
2026-01-16 03:39:40.40	275.84	57.48	-44.1	-44.8	24.3	0.00e+00	0	49	0	2472542208	59	3974
2026-01-16 03:39:44.45	273.08	56.62	-44.0	-44.7	24.4	0.00e+00	0	49	0	2495610880	59	3955
2026-01-16 03:39:48.49	270.50	55.71	-44.0	-44.8	24.4	0.00e+00	0	49	0	2517630976	59	3965
2026-01-16 03:39:52.52	268.10	54.77	-44.3	-45.1	24.1	0.00e+00	0	49	0	2540699648	59	4100
2026-01-16 03:39:56.56	265.84	53.80	-44.3	-45.0	24.1	0.00e+00	0	49	0	2563768320	59	4094
2026-01-16 03:40:00.59	263.74	52.80	-44.1	-44.9	24.2	0.00e+00	0	49	0	2586836992	59	4011
2026-01-16 03:40:04.63	261.77	51.79	-44.3	-45.1	24.0	0.00e+00	0	49	0	2608857088	59	4099
2026-01-16 03:40:08.67	259.93	50.76	-44.5	-45.3	23.8	0.00e+00	0	49	0	2630877184	59	4233
2026-01-16 03:40:12.71	258.22	49.73	-44.2	-45.0	24.1	0.00e+00	0	49	0	2653945856	59	4069
2026-01-16 03:40:16.75	256.62	48.69	-44.1	-44.9	24.2	0.00e+00	0	49	0	2677014528	59	4020
2026-01-16 03:40:20.78	255.13	47.66	-44.1	-44.8	24.3	0.00e+00	0	49	0	2699034624	59	3997
2026-01-16 03:40:24.82	253.73	46.63	-43.4	-44.1	24.9	0.00e+00	0	49	0	2722103296	58	3871
2026-01-16 03:40:28.86	252.42	45.61	-43.3	-44.0	24.9	0.00e+00	0	49	0	2745171968	58	3865
2026-01-16 03:40:32.89	251.19	44.60	-43.4	-44.1	24.9	0.00e+00	0	49	0	2768240640	58	3906
2026-01-16 03:40:36.93	250.04	43.60	-43.2	-43.9	25.0	0.00e+00	0	49	0	2790260736	58	3789
2026-01-16 03:40:40.97	248.96	42.62	-43.6	-44.3	24.6	0.00e+00	0	49	0	2813329408	58	4000
2026-01-16 03:40:45.01	247.94	41.64	-43.4	-44.1	24.8	0.00e+00	0	49	0	2836398080	58	3912
2026-01-16 03:40:49.04	246.98	40.69	-43.2	-43.9	25.0	0.00e+00	0	49	0	2858418176	58	3806
2026-01-16 03:40:53.08	246.08	39.75	-43.5	-44.2	24.7	0.00e+00	0	49	0	2881486848	58	3937
2026-01-16 03:40:57.11	245.23	38.83	-43.4	-44.1	24.8	0.00e+00	0	49	0	2904555520	58	3898
2026-01-16 03:41:01.15	244.43	37.92	-43.2	-43.9	25.0	0.00e+00	0	49	0	2926575616	58	3809
2026-01-16 03:41:05.18	243.67	37.04	-43.0	-43.7	25.1	0.00e+00	0	49	0	2949644288	58	3721
2026-01-16 03:41:09.22	242.95	36.17	-43.0	-43.7	25.1	0.00e+00	0	49	0	2972712960	57	3943
2026-01-16 03:41:13.26	242.26	35.32	-43.3	-44.0	24.8	0.00e+00	0	49	0	2994733056	57	4095
2026-01-16 03:41:17.29	241.62	34.48	-43.3	-44.0	24.8	0.00e+00	0	49	0	3017801728	57	4067
2026-01-16 03:41:21.33	241.00	33.67	-43.2	-43.9	24.9	0.00e+00	0	49	0	3039821824	57	4028
2026-01-16 03:41:25.37	240.42	32.87	-43.0	-43.7	25.1	0.00e+00	0	49	0	3062890496	57	3937
2026-01-16 03:41:29.41	239.86	32.09	-43.2	-43.9	24.9	0.00e+00	0	49	0	3085959168	57	4024
2026-01-16 03:41:33.45	239.33	31.32	-43.2	-43.9	24.9	0.00e+00	0	49	0	3107979264	57	4030
2026-01-16 03:41:37.50	238.82	30.57	-43.1	-43.8	24.9	0.00e+00	0	49	0	3131047936	57	3998
2026-01-16 03:41:41.54	238.34	29.84	-43.5	-44.2	24.6	0.00e+00	0	49	0	3154116608	57	4163
2026-01-16 03:41:45.58	237.88	29.13	-43.5	-44.3	24.5	0.00e+00	0	49	0	3176136704	57	4201
2026-01-16 03:41:49.62	237.44	28.43	-43.6	-44.3	24.4	0.00e+00	0	49	0	3199205376	57	4227
2026-01-16 03:41:53.66	237.02	27.74	-43.8	-44.6	24.2	0.00e+00	0	49	0	3222274048	58	4116
2026-01-16 03:41:57.71	236.61	27.07	-43.8	-44.5	24.2	0.00e+00	0	49	0	3245342720	58	4098
2026-01-16 03:42:01.75	236.23	26.42	-43.7	-44.4	24.3	0.00e+00	0	49	0	3267362816	58	4048
2026-01-16 03:42:05.79	235.86	25.78	-43.7	-44.4	24.3	0.00e+00	0	49	0	3290431488	58	4028
2026-01-16 03:42:09.83	235.50	25.15	-43.7	-44.4	24.3	0.00e+00	0	49	0	3313500160	58	4030
2026-01-16 03:42:13.88	235.16	24.53	-43.8	-44.6	24.2	0.00e+00	0	49	0	3335520256	58	4104
2026-01-16 03:42:17.91	234.83	23.94	-43.8	-44.6	24.1	0.00e+00	0	49	0	3358588928	58	4111
2026-01-16 03:42:21.96	234.52	23.35	-43.7	-44.4	24.2	0.00e+00	0	49	0	3381657600	58	4049
2026-01-16 03:42:26.00	234.21	22.77	-43.7	-44.4	24.2	0.00e+00	0	49	0	3403677696	58	4039
2026-01-16 03:42:30.04	233.92	22.21	-43.8	-44.6	24.1	0.00e+00	0	49	0	3426746368	58	4106
2026-01-16 03:42:34.08	233.64	21.65	-44.0	-44.7	24.0	0.00e+00	0	49	0	3448766464	58	4191
2026-01-16 03:42:38.12	233.37	21.11	-44.1	-44.8	23.8	0.00e+00	0	49	0	3471835136	58	4234
2026-01-16 03:42:42.16	233.11	20.58	-44.2	-45.0	23.7	0.00e+00	0	49	0	3494903808	59	4060
2026-01-16 03:42:46.20	232.86	20.06	-44.5	-45.3	23.4	0.00e+00	0	49	0	3517972480	59	4209
2026-01-16 03:42:50.24	232.61	19.55	-44.7	-45.5	23.2	0.00e+00	0	49	0	3539992576	59	4301
2026-01-16 03:42:54.28	232.38	19.05	-44.6	-45.4	23.1	0.00e+00	0	49	0	3563061248	60	4012
2026-01-16 03:42:58.32	232.15	18.56	-44.7	-45.5	23.0	0.00e+00	0	49	0	3586129920	60	4085
2026-01-16 03:43:02.36	231.93	18.08	-44.7	-45.5	23.0	0.00e+00	0	49	0	3608150016	60	4063
2026-01-16 03:43:06.40	231.72	17.60	-44.7	-45.5	23.0	0.00e+00	0	49	0	3631218688	60	4057
2026-01-16 03:43:10.44	231.51	17.14	-44.6	-45.3	23.1	0.00e+00	0	49	0	3654287360	60	3992
2026-01-16 03:43:14.48	231.31	16.68	-44.9	-45.7	22.7	0.00e+00	0	49	0	3676307456	60	4171
2026-01-16 03:43:18.52	231.12	16.23	-44.7	-45.5	22.9	0.00e+00	0	49	0	3699376128	60	4067
2026-01-16 03:43:22.56	230.93	15.79	-44.9	-45.7	22.7	0.00e+00	0	49	0	3722444800	60	4173
2026-01-16 03:43:26.60	230.75	15.36	-45.1	-45.8	22.6	0.00e+00	0	49	0	3745513472	60	4239
2026-01-16 03:43:30.64	230.58	14.93	-45.3	-46.1	22.3	0.00e+00	0	49	0	3767533568	61	4129
2026-01-16 03:43:34.68	230.41	14.51	-45.6	-46.4	22.0	0.00e+00	0	49	0	3789553664	61	4257
2026-01-16 03:43:38.72	230.24	14.10	-45.9	-46.7	21.7	0.00e+00	0	49	0	3812622336	62	4168
2026-01-16 03:43:42.76	230.08	13.70	-46.0	-46.9	21.5	0.00e+00	0	49	0	3835691008	62	4259
2026-01-16 03:43:46.80	229.93	13.30	-46.0	-46.9	21.5	0.00e+00	0	49	0	3858759680	62	4258
2026-01-16 03:43:50.83	229.78	12.90	-46.2	-47.1	21.3	0.00e+00	0	49	0	3880779776	63	4111
2026-01-16 03:43:54.88	229.63	12.52	-46.3	-47.2	21.2	0.00e+00	0	49	0	3903848448	63	4190
2026-01-16 03:43:58.92	229.49	12.14	-46.4	-47.3	21.1	0.00e+00	0	49	0	3926917120	63	4234
2026-01-16 03:44:02.96	229.35	11.76	-46.6	-47.5	20.7	0.00e+00	0	49	0	3948937216	64	4091
2026-01-16 03:44:07.00	229.21	11.39	-46.7	-47.6	20.6	0.00e+00	0	49	0	3972005888	64	4136
2026-01-16 03:44:11.04	229.08	11.03	-46.6	-47.6	20.7	0.00e+00	0	49	0	3995074560	64	4107
2026-01-16 03:44:15.08	228.95	10.67	-46.9	-47.9	20.4	0.00e+00	0	49	0	4017094656	64	4253
2026-01-16 03:44:19.12	228.83	10.31	-47.0	-47.9	20.3	0.00e+00	0	49	0	4040163328	65	4045
2026-01-16 03:44:23.16	228.71	9.96	-46.8	-47.8	20.4	0.00e+00	0	49	0	4063232000	65	3970
2026-01-16 03:44:27.20	228.59	9.62	-46.9	-47.9	20.2	0.00e+00	0	49	0	4086300672	65	4033
2026-01-16 03:44:31.24	228.48	9.28	-47.0	-48.0	20.2	0.00e+00	0	49	0	4108320768	65	4061
2026-01-16 03:44:35.28	228.36	8.94	-47.2	-48.2	19.9	0.00e+00	0	49	0	4131389440	65	4188
2026-01-16 03:44:39.32	228.26	8.61	-47.0	-48.0	20.1	0.00e+00	0	49	0	4154458112	65	4061
2026-01-16 03:44:43.36	228.15	8.29	-47.1	-48.1	20.0	0.00e+00	0	49	0	4176478208	65	4111
2026-01-16 03:44:47.41	228.04	7.96	-47.1	-48.1	19.9	0.00e+00	0	49	0	4199546880	65	4130
2026-01-16 03:44:51.45	227.94	7.64	-47.2	-48.2	19.7	0.00e+00	0	49	0	4221566976	65	4190
2026-01-16 03:44:55.49	227.84	7.33	-47.3	-48.3	19.6	0.00e+00	0	49	0	4244635648	65	4242
2026-01-16 03:44:59.53	227.75	7.02	-47.4	-48.4	19.5	0.00e+00	0	49	0	4267704320	65	4284
2026-01-16 03:45:03.57	227.65	6.71	-47.3	-48.3	19.6	0.00e+00	0	49	0	4289724416	65	4215
2026-01-16 03:45:07.62	227.56	6.40	-47.6	-48.7	19.2	0.00e+00	0	49	0	4312793088	65	4409
2026-01-16 03:45:11.66	227.47	6.10	-47.6	-48.7	19.2	0.00e+00	0	49	0	4335861760	66	4156
2026-01-16 03:45:15.70	227.38	5.81	-47.5	-48.5	19.2	0.00e+00	0	49	0	4358930432	66	4091
2026-01-16 03:45:19.74	227.30	5.51	-47.5	-48.5	19.2	0.00e+00	0	49	0	4380950528	66	4092
2026-01-16 03:45:23.78	227.22	5.22	-47.7	-48.8	18.8	0.00e+00	0	49	0	4404019200	66	4222
2026-01-16 03:45:27.82	227.13	4.93	-57.4	-69.3	3.8	8.47e-01	0	49	104	4420796416	85	14982
2026-01-16 03:45:31.86	227.05	4.65	-58.1	-70.1	3.8	8.46e-01	0	49	104	4420796416	86	15422
2026-01-16 03:45:35.91	226.98	4.37	-58.3	-70.3	3.8	8.46e-01	0	49	104	4420796416	87	14935
2026-01-16 03:45:39.95	226.90	4.09	-58.4	-70.4	3.8	8.46e-01	0	49	104	4420796416	87	15070
2026-01-16 03:45:43.99	226.82	3.81	-58.4	-70.4	3.8	8.45e-01	0	49	104	4420796416	87	15205
2026-01-16 03:45:48.03	226.75	3.54	-58.5	-70.5	3.8	8.45e-01	0	49	104	4420796416	87	15239
2026-01-16 03:45:52.07	226.68	3.27	-58.4	-70.4	3.8	8.47e-01	0	49	104	4420796416	87	15095
2026-01-16 03:45:56.11	226.61	3.00	-58.4	-70.3	3.8	8.46e-01	0	49	104	4420796416	87	15040
2026-01-16 03:46:00.15	226.54	2.73	-58.4	-70.3	3.8	8.46e-01	0	49	104	4420796416	87	15000
2026-01-16 03:46:04.19	226.47	2.47	-58.3	-70.3	3.8	8.47e-01	0	49	104	4420796416	87	15013
2026-01-16 03:46:08.24	226.41	2.21	-58.3	-70.3	3.8	8.46e-01	0	49	104	4420796416	87	14953
2026-01-16 03:46:12.27	226.35	1.95	-58.3	-70.3	3.8	8.47e-01	0	49	104	4420796416	87	14995

#Closed at: 2026-01-16 03:46:13
#Recorded file [4420 MB]: D:/lorett/data/31041_260116_063155.dat