passes_logs/2026/01/16/R3.2S_Murmansk/R3.2S_Murmansk__20260116_222336_NOAA_21_JPSS-2_rec.log

#Pass ID: 20260116_222336_NOAA 21 (JPSS-2)
#Satellite: NOAA 21 (JPSS-2)
#Configuration: NOAA-21
#almurnet v.1.7.20251203
#Start time: 2026-01-16 22:23:37

#Version: 2.2.20231116
#Station: R3.2S_Murmansk
#Location: 33.079688 lon 68.888172 lat
#TLE: 1 54234U 22150A   26015.92901934  .00000025  00000+0  32700-4 0  9991
#TLE: 2 54234  98.7499 316.8175 0000634 284.8145  75.2961 14.19534841164946

#Time	Az	El	Level	Level2	SNR	BER	BlckErr	Temp	State	Recorded	gain1	gain2
2026-01-16 22:23:37.29	18.83	2.02	-51.6	-64.3	3.8	1.49e+00	0	31	0	0	75	14998
2026-01-16 22:23:41.31	19.11	2.24	-51.5	-64.2	3.8	1.49e+00	0	32	104	0	73	16674
2026-01-16 22:23:45.35	19.39	2.47	-51.5	-64.3	3.8	1.49e+00	0	32	104	0	73	16716
2026-01-16 22:23:49.38	19.67	2.69	-51.5	-64.2	3.8	1.49e+00	0	32	104	0	73	16559
2026-01-16 22:23:53.41	19.96	2.92	-51.5	-64.3	3.8	1.49e+00	0	32	104	0	73	16806
2026-01-16 22:23:57.45	20.26	3.15	-51.5	-63.9	3.8	1.49e+00	0	32	104	0	73	16099
2026-01-16 22:24:01.48	20.55	3.38	-51.5	-63.7	3.8	1.49e+00	0	32	104	0	73	15637
2026-01-16 22:24:05.52	20.85	3.61	-51.5	-63.7	3.8	1.49e+00	0	32	104	0	73	15644
2026-01-16 22:24:09.56	21.16	3.84	-51.3	-62.1	3.9	1.49e+00	0	32	104	0	73	13043
2026-01-16 22:24:13.60	21.47	4.08	-51.4	-62.6	3.8	1.49e+00	0	32	104	0	73	13875
2026-01-16 22:24:17.63	21.79	4.31	-50.6	-57.2	6.0	3.76e-01	0	32	0	2097152	73	7385
2026-01-16 22:24:21.67	22.11	4.55	-49.6	-54.0	9.1	2.20e-02	0	33	0	14680064	71	5750
2026-01-16 22:24:25.70	22.43	4.79	-49.7	-54.1	9.0	2.17e-02	0	33	0	27262976	70	6160
2026-01-16 22:24:29.73	22.76	5.03	-50.1	-55.3	7.8	7.37e-02	0	33	0	39845888	70	7080
2026-01-16 22:24:33.77	23.10	5.27	-45.9	-47.5	15.9	1.52e-05	0	33	0	50331648	63	4325
2026-01-16 22:24:37.81	23.44	5.51	-45.8	-47.4	16.2	0.00e+00	0	33	0	62914560	63	4279
2026-01-16 22:24:41.84	23.78	5.75	-45.3	-46.8	16.8	0.00e+00	0	33	0	75497472	62	4206
2026-01-16 22:24:45.87	24.13	6.00	-45.2	-46.6	17.0	0.00e+00	0	33	0	88080384	61	4369
2026-01-16 22:24:49.90	24.49	6.25	-44.9	-46.3	17.4	0.00e+00	0	33	0	100663296	61	4201
2026-01-16 22:24:53.94	24.85	6.49	-45.2	-46.6	17.1	0.00e+00	0	33	0	113246208	61	4367
2026-01-16 22:24:57.97	25.22	6.74	-45.6	-47.1	16.8	0.00e+00	0	33	0	125829120	61	4599
2026-01-16 22:25:02.00	25.59	6.99	-45.3	-46.8	17.0	0.00e+00	0	33	0	139460608	61	4453
2026-01-16 22:25:06.04	25.98	7.25	-44.8	-46.1	17.7	0.00e+00	0	33	0	150994944	61	4141
2026-01-16 22:25:10.07	26.36	7.50	-44.9	-46.2	17.7	0.00e+00	0	33	0	163577856	61	4162
2026-01-16 22:25:14.10	26.75	7.76	-44.9	-46.2	17.7	0.00e+00	0	33	0	177209344	61	4180
2026-01-16 22:25:18.13	27.15	8.01	-44.8	-46.0	17.9	0.00e+00	0	33	0	189792256	61	4097
2026-01-16 22:25:22.16	27.56	8.27	-44.5	-45.8	18.2	0.00e+00	0	33	0	201326592	60	4204
2026-01-16 22:25:26.20	27.97	8.53	-44.6	-45.8	18.2	0.00e+00	0	33	0	214958080	60	4213
2026-01-16 22:25:30.24	28.40	8.79	-44.7	-45.9	18.1	0.00e+00	0	33	0	227540992	60	4265
2026-01-16 22:25:34.28	28.82	9.06	-44.4	-45.6	18.4	0.00e+00	0	33	0	240123904	60	4116
2026-01-16 22:25:38.31	29.26	9.32	-44.4	-45.6	18.4	0.00e+00	0	33	0	252706816	60	4108
2026-01-16 22:25:42.34	29.70	9.59	-44.2	-45.4	18.7	0.00e+00	0	33	0	265289728	60	4009
2026-01-16 22:25:46.37	30.15	9.85	-44.2	-45.4	18.7	0.00e+00	0	33	0	277872640	60	4036
2026-01-16 22:25:50.41	30.61	10.12	-44.4	-45.5	18.8	0.00e+00	0	33	0	290455552	59	4332
2026-01-16 22:25:54.44	31.08	10.39	-44.2	-45.3	19.0	0.00e+00	0	33	0	303038464	59	4230
2026-01-16 22:25:58.48	31.55	10.66	-44.1	-45.2	19.2	0.00e+00	0	33	0	315621376	59	4157
2026-01-16 22:26:02.51	32.04	10.94	-44.2	-45.4	19.0	0.00e+00	0	34	0	328204288	59	4251
2026-01-16 22:26:06.54	32.53	11.21	-44.1	-45.3	19.1	0.00e+00	0	33	0	340787200	59	4198
2026-01-16 22:26:10.58	33.03	11.48	-43.8	-44.9	19.5	0.00e+00	0	33	0	353370112	59	4039
2026-01-16 22:26:14.62	33.54	11.76	-43.6	-44.7	19.7	0.00e+00	0	33	0	365953024	59	3922
2026-01-16 22:26:18.65	34.06	12.04	-43.5	-44.6	19.8	0.00e+00	0	33	0	378535936	59	3875
2026-01-16 22:26:22.69	34.59	12.32	-43.6	-44.7	19.7	0.00e+00	0	33	0	391118848	58	4161
2026-01-16 22:26:26.72	35.13	12.59	-43.5	-44.6	19.9	0.00e+00	0	33	0	403701760	58	4101
2026-01-16 22:26:30.76	35.68	12.88	-43.3	-44.3	20.1	0.00e+00	0	33	0	416284672	58	3988
2026-01-16 22:26:34.79	36.24	13.16	-43.4	-44.4	20.1	0.00e+00	0	34	0	428867584	58	4022
2026-01-16 22:26:38.82	36.81	13.44	-43.7	-44.7	19.8	0.00e+00	0	33	0	441450496	58	4178
2026-01-16 22:26:42.86	37.39	13.72	-43.5	-44.6	19.9	0.00e+00	0	34	0	454033408	58	4112
2026-01-16 22:26:46.89	37.98	14.00	-43.4	-44.4	20.1	0.00e+00	0	34	0	466616320	58	4013
2026-01-16 22:26:50.93	38.58	14.29	-43.5	-44.5	20.0	0.00e+00	0	33	0	479199232	58	4070
2026-01-16 22:26:54.97	39.19	14.57	-43.7	-44.8	19.7	0.00e+00	0	34	0	491782144	58	4197
2026-01-16 22:26:59.00	39.82	14.86	-43.6	-44.6	19.9	0.00e+00	0	34	0	504365056	58	4111
2026-01-16 22:27:03.04	40.45	15.14	-43.3	-44.3	20.1	0.00e+00	0	34	0	516947968	58	3987
2026-01-16 22:27:07.07	41.10	15.42	-43.5	-44.5	20.0	0.00e+00	0	34	0	529530880	58	4075
2026-01-16 22:27:11.10	41.76	15.71	-43.6	-44.6	20.0	0.00e+00	0	34	0	542113792	58	4105
2026-01-16 22:27:15.14	42.43	15.99	-43.3	-44.2	20.3	0.00e+00	0	34	0	554696704	58	3946
2026-01-16 22:27:19.17	43.12	16.28	-43.4	-44.3	20.2	0.00e+00	0	34	0	567279616	58	4000
2026-01-16 22:27:23.21	43.82	16.56	-43.2	-44.1	20.4	0.00e+00	0	34	0	579862528	58	3899
2026-01-16 22:27:27.24	44.53	16.84	-42.9	-43.8	20.6	0.00e+00	0	34	0	592445440	57	4002
2026-01-16 22:27:31.28	45.25	17.12	-43.0	-44.0	20.5	0.00e+00	0	34	0	605028352	57	4070
2026-01-16 22:27:35.32	45.99	17.40	-43.1	-44.0	20.5	0.00e+00	0	34	0	617611264	57	4089
2026-01-16 22:27:39.35	46.74	17.68	-43.0	-43.9	20.6	0.00e+00	0	34	0	630194176	57	4037
2026-01-16 22:27:43.39	47.50	17.96	-43.1	-44.0	20.5	0.00e+00	0	34	0	642777088	57	4068
2026-01-16 22:27:47.43	48.28	18.24	-43.2	-44.2	20.4	0.00e+00	0	34	0	655360000	57	4177
2026-01-16 22:27:51.46	49.07	18.51	-43.2	-44.2	20.4	0.00e+00	0	34	0	667942912	57	4168
2026-01-16 22:27:55.50	49.88	18.78	-43.0	-44.0	20.5	0.00e+00	0	34	0	681574400	57	4067
2026-01-16 22:27:59.53	50.69	19.05	-43.3	-44.3	20.3	0.00e+00	0	34	0	694157312	57	4203
2026-01-16 22:28:03.57	51.53	19.32	-43.6	-44.6	20.1	0.00e+00	0	34	0	705691648	57	4365
2026-01-16 22:28:07.60	52.37	19.58	-43.4	-44.4	20.3	0.00e+00	0	34	0	719323136	57	4251
2026-01-16 22:28:11.64	53.24	19.84	-43.2	-44.1	20.4	0.00e+00	0	34	0	731906048	57	4134
2026-01-16 22:28:15.67	54.11	20.09	-43.6	-44.6	20.1	0.00e+00	0	34	0	744488960	57	4348
2026-01-16 22:28:19.71	55.00	20.34	-43.3	-44.3	20.3	0.00e+00	0	34	0	757071872	58	3985
2026-01-16 22:28:23.74	55.91	20.59	-42.8	-43.7	20.8	0.00e+00	0	34	0	769654784	57	3955
2026-01-16 22:28:27.77	56.82	20.83	-43.3	-44.3	20.4	0.00e+00	0	34	0	782237696	57	4197
2026-01-16 22:28:31.81	57.76	21.07	-43.3	-44.2	20.4	0.00e+00	0	34	0	794820608	57	4184
2026-01-16 22:28:35.84	58.70	21.30	-42.8	-43.7	20.9	0.00e+00	0	34	0	807403520	57	3938
2026-01-16 22:28:39.87	59.66	21.53	-43.2	-44.1	20.6	0.00e+00	0	34	0	819986432	57	4128
2026-01-16 22:28:43.91	60.64	21.75	-42.8	-43.7	20.9	0.00e+00	0	34	0	832569344	57	3939
2026-01-16 22:28:47.94	61.62	21.96	-42.7	-43.6	21.0	0.00e+00	0	34	0	845152256	57	3888
2026-01-16 22:28:51.98	62.63	22.17	-42.7	-43.6	20.9	0.00e+00	0	34	0	857735168	57	3911
2026-01-16 22:28:56.01	63.64	22.36	-42.9	-43.8	20.7	0.00e+00	0	34	0	870318080	57	3989
2026-01-16 22:29:00.04	64.66	22.56	-42.9	-43.9	20.8	0.00e+00	0	34	0	882900992	57	4005
2026-01-16 22:29:04.08	65.70	22.74	-42.8	-43.7	20.9	0.00e+00	0	34	0	895483904	57	3945
2026-01-16 22:29:08.11	66.75	22.91	-43.1	-44.0	20.6	0.00e+00	0	34	0	908066816	57	4089
2026-01-16 22:29:12.15	67.82	23.08	-42.7	-43.6	21.0	0.00e+00	0	34	0	920649728	57	3895
2026-01-16 22:29:16.19	68.89	23.24	-42.7	-43.6	21.0	0.00e+00	0	34	0	933232640	57	3902
2026-01-16 22:29:20.22	69.97	23.39	-42.8	-43.7	20.9	0.00e+00	0	34	0	945815552	57	3941
2026-01-16 22:29:24.25	71.06	23.52	-42.6	-43.5	21.1	0.00e+00	0	34	0	958398464	57	3849
2026-01-16 22:29:28.29	72.17	23.65	-42.6	-43.5	21.1	0.00e+00	0	34	0	970981376	56	4070
2026-01-16 22:29:32.33	73.28	23.77	-42.8	-43.7	21.0	0.00e+00	0	34	0	983564288	56	4174
2026-01-16 22:29:36.36	74.40	23.88	-42.6	-43.4	21.2	0.00e+00	0	34	0	996147200	56	4045
2026-01-16 22:29:40.39	75.52	23.97	-42.5	-43.4	21.2	0.00e+00	0	34	0	1008730112	56	4007
2026-01-16 22:29:44.42	76.65	24.06	-42.5	-43.4	21.1	0.00e+00	0	34	0	1021313024	56	4038
2026-01-16 22:29:48.46	77.79	24.13	-42.4	-43.3	21.3	0.00e+00	0	34	0	1033895936	56	3961
2026-01-16 22:29:52.50	78.93	24.19	-42.7	-43.7	20.9	0.00e+00	0	34	0	1046478848	56	4153
2026-01-16 22:29:56.53	80.08	24.24	-42.8	-43.7	20.9	0.00e+00	0	34	0	1059061760	56	4185
2026-01-16 22:30:00.56	81.23	24.28	-42.8	-43.7	21.0	0.00e+00	0	34	0	1071644672	56	4163
2026-01-16 22:30:04.60	82.38	24.31	-42.6	-43.5	21.0	0.00e+00	0	34	0	1084227584	56	4079
2026-01-16 22:30:08.63	83.53	24.33	-42.5	-43.4	21.2	0.00e+00	0	34	0	1096810496	56	4042
2026-01-16 22:30:12.67	84.69	24.33	-42.6	-43.5	21.1	0.00e+00	0	34	0	1109393408	56	4052
2026-01-16 22:30:16.70	85.85	24.32	-42.7	-43.6	21.0	0.00e+00	0	33	0	1121976320	56	4102
2026-01-16 22:30:20.73	87.00	24.30	-42.6	-43.4	21.0	0.00e+00	0	34	0	1134559232	56	4050
2026-01-16 22:30:24.77	88.15	24.27	-42.3	-43.2	21.2	0.00e+00	0	34	0	1147142144	56	3941
2026-01-16 22:30:28.80	89.30	24.22	-42.4	-43.3	21.2	0.00e+00	0	34	0	1159725056	56	3974
2026-01-16 22:30:32.84	90.45	24.17	-42.4	-43.3	21.2	0.00e+00	0	34	0	1172307968	56	3977
2026-01-16 22:30:36.87	91.59	24.10	-42.2	-43.1	21.4	0.00e+00	0	34	0	1184890880	56	3880
2026-01-16 22:30:40.90	92.72	24.02	-42.3	-43.2	21.3	0.00e+00	0	34	0	1198522368	56	3924
2026-01-16 22:30:44.94	93.86	23.93	-42.5	-43.4	21.1	0.00e+00	0	34	0	1210056704	56	4030
2026-01-16 22:30:48.97	94.98	23.83	-42.6	-43.5	21.0	0.00e+00	0	34	0	1222639616	56	4065
2026-01-16 22:30:53.00	96.09	23.72	-42.7	-43.6	21.0	0.00e+00	0	34	0	1236271104	56	4109
2026-01-16 22:30:57.03	97.20	23.60	-42.6	-43.5	21.0	0.00e+00	0	34	0	1248854016	56	4062
2026-01-16 22:31:01.07	98.30	23.46	-42.5	-43.4	21.1	0.00e+00	0	34	0	1260388352	56	4009
2026-01-16 22:31:05.11	99.39	23.32	-42.5	-43.3	21.2	0.00e+00	0	33	0	1274019840	56	4000
2026-01-16 22:31:09.14	100.47	23.17	-42.7	-43.6	20.9	0.00e+00	0	34	0	1286602752	56	4118
2026-01-16 22:31:13.18	101.54	23.01	-42.6	-43.4	21.1	0.00e+00	0	34	0	1299185664	56	4049
2026-01-16 22:31:17.21	102.60	22.83	-42.6	-43.5	21.0	0.00e+00	0	34	0	1311768576	56	4086
2026-01-16 22:31:21.25	103.65	22.66	-42.8	-43.7	20.8	0.00e+00	0	34	0	1324351488	56	4187
2026-01-16 22:31:25.28	104.69	22.47	-42.8	-43.7	20.8	0.00e+00	0	34	0	1336934400	56	4191
2026-01-16 22:31:29.31	105.71	22.27	-43.0	-43.9	20.7	0.00e+00	0	34	0	1349517312	56	4285
2026-01-16 22:31:33.34	106.72	22.07	-42.7	-43.6	20.9	0.00e+00	0	34	0	1362100224	56	4120
2026-01-16 22:31:37.38	107.72	21.86	-43.0	-43.9	20.6	0.00e+00	0	34	0	1374683136	56	4271
2026-01-16 22:31:41.41	108.70	21.64	-42.8	-43.8	20.7	0.00e+00	0	34	0	1387266048	56	4194
2026-01-16 22:31:45.44	109.67	21.42	-42.7	-43.7	20.8	0.00e+00	0	34	0	1399848960	56	4146
2026-01-16 22:31:49.48	110.63	21.19	-42.9	-43.9	20.7	0.00e+00	0	34	0	1412431872	56	4246
2026-01-16 22:31:53.51	111.57	20.95	-42.8	-43.8	20.7	0.00e+00	0	34	0	1425014784	56	4195
2026-01-16 22:31:57.54	112.50	20.71	-42.6	-43.5	20.9	0.00e+00	0	34	0	1437597696	56	4080
2026-01-16 22:32:01.58	113.42	20.47	-42.9	-43.8	20.7	0.00e+00	0	34	0	1450180608	56	4219
2026-01-16 22:32:05.61	114.32	20.22	-43.1	-44.0	20.5	0.00e+00	0	34	0	1462763520	56	4339
2026-01-16 22:32:09.64	115.20	19.96	-42.9	-43.8	20.6	0.00e+00	0	34	0	1475346432	56	4198
2026-01-16 22:32:13.67	116.07	19.71	-42.7	-43.6	20.7	0.00e+00	0	34	0	1487929344	56	4135
2026-01-16 22:32:17.71	116.93	19.44	-42.8	-43.7	20.7	0.00e+00	0	34	0	1500512256	56	4190
2026-01-16 22:32:21.74	117.78	19.18	-42.9	-43.8	20.6	0.00e+00	0	34	0	1513095168	56	4236
2026-01-16 22:32:25.77	118.60	18.91	-42.9	-43.8	20.6	0.00e+00	0	34	0	1525678080	56	4241
2026-01-16 22:32:29.80	119.42	18.64	-42.9	-43.8	20.6	0.00e+00	0	34	0	1538260992	56	4231
2026-01-16 22:32:33.84	120.22	18.36	-43.0	-43.9	20.6	0.00e+00	0	34	0	1550843904	56	4277
2026-01-16 22:32:37.87	121.01	18.09	-43.1	-44.1	20.4	0.00e+00	0	34	0	1563426816	56	4347
2026-01-16 22:32:41.90	121.78	17.81	-43.1	-44.0	20.4	0.00e+00	0	34	0	1576009728	56	4339
2026-01-16 22:32:45.93	122.54	17.53	-43.1	-44.0	20.4	0.00e+00	0	34	0	1588592640	56	4332
2026-01-16 22:32:49.96	123.29	17.25	-43.2	-44.2	20.3	0.00e+00	0	34	0	1601175552	57	4160
2026-01-16 22:32:53.99	124.02	16.97	-43.3	-44.3	20.1	0.00e+00	0	34	0	1613758464	57	4219
2026-01-16 22:32:58.02	124.74	16.68	-43.3	-44.3	20.1	0.00e+00	0	34	0	1626341376	57	4210
2026-01-16 22:33:02.05	125.44	16.40	-43.3	-44.3	20.0	0.00e+00	0	34	0	1638924288	57	4240
2026-01-16 22:33:06.07	126.13	16.11	-43.6	-44.6	19.7	0.00e+00	0	34	0	1651507200	57	4391
2026-01-16 22:33:10.09	126.81	15.83	-43.8	-44.9	19.5	0.00e+00	0	34	0	1664090112	58	4260
2026-01-16 22:33:14.12	127.48	15.54	-43.7	-44.7	19.6	0.00e+00	0	34	0	1676673024	58	4179
2026-01-16 22:33:18.15	128.14	15.26	-43.9	-45.0	19.3	0.00e+00	0	34	0	1689255936	59	4088
2026-01-16 22:33:22.18	128.78	14.97	-43.9	-44.9	19.4	0.00e+00	0	34	0	1701838848	59	4039
2026-01-16 22:33:26.21	129.41	14.68	-43.9	-45.0	19.3	0.00e+00	0	34	0	1714421760	59	4076
2026-01-16 22:33:30.24	130.03	14.40	-44.0	-45.1	19.3	0.00e+00	0	34	0	1727004672	59	4106
2026-01-16 22:33:34.27	130.64	14.11	-44.2	-45.4	19.0	0.00e+00	0	34	0	1739587584	59	4250
2026-01-16 22:33:38.30	131.24	13.83	-44.1	-45.2	19.1	0.00e+00	0	34	0	1752170496	59	4183
2026-01-16 22:33:42.33	131.83	13.54	-44.2	-45.3	18.9	0.00e+00	0	34	0	1764753408	59	4237
2026-01-16 22:33:46.36	132.40	13.26	-44.0	-45.1	19.2	0.00e+00	0	34	0	1777336320	59	4110
2026-01-16 22:33:50.38	132.97	12.98	-44.2	-45.4	18.9	0.00e+00	0	34	0	1789919232	59	4245
2026-01-16 22:33:54.41	133.52	12.69	-44.4	-45.6	18.6	0.00e+00	0	34	0	1802502144	59	4375
2026-01-16 22:33:58.45	134.07	12.41	-44.4	-45.6	18.6	0.00e+00	0	34	0	1815085056	59	4383
2026-01-16 22:34:02.48	134.60	12.13	-44.3	-45.4	18.8	0.00e+00	0	34	0	1827667968	59	4280
2026-01-16 22:34:06.52	135.13	11.85	-44.3	-45.5	18.7	0.00e+00	0	34	0	1840250880	59	4296
2026-01-16 22:34:10.55	135.65	11.57	-44.4	-45.5	18.6	0.00e+00	0	34	0	1852833792	59	4339
2026-01-16 22:34:14.59	136.16	11.29	-44.4	-45.6	18.6	0.00e+00	0	34	0	1865416704	59	4371
2026-01-16 22:34:18.62	136.65	11.02	-44.3	-45.5	18.6	0.00e+00	0	34	0	1877999616	59	4331
2026-01-16 22:34:22.66	137.14	10.74	-44.6	-45.9	18.3	0.00e+00	0	34	0	1890582528	59	4496
2026-01-16 22:34:26.69	137.62	10.47	-44.4	-45.6	18.6	0.00e+00	0	34	0	1903165440	59	4360
2026-01-16 22:34:30.72	138.09	10.20	-44.4	-45.6	18.5	0.00e+00	0	34	0	1915748352	59	4390
2026-01-16 22:34:34.76	138.56	9.93	-44.4	-45.6	18.5	0.00e+00	0	34	0	1928331264	59	4366
2026-01-16 22:34:38.79	139.01	9.66	-44.5	-45.8	18.3	0.00e+00	0	34	0	1941962752	59	4453
2026-01-16 22:34:42.83	139.46	9.39	-44.4	-45.6	18.2	0.00e+00	0	34	0	1953497088	60	4127
2026-01-16 22:34:46.86	139.90	9.12	-44.6	-45.8	17.9	0.00e+00	0	34	0	1966080000	60	4242
2026-01-16 22:34:50.90	140.33	8.85	-44.5	-45.8	17.9	0.00e+00	0	34	0	1979711488	60	4196
2026-01-16 22:34:54.93	140.76	8.59	-44.6	-45.9	17.8	0.00e+00	0	34	0	1992294400	60	4268
2026-01-16 22:34:58.96	141.17	8.33	-44.7	-46.0	17.7	0.00e+00	0	34	0	2003828736	60	4304
2026-01-16 22:35:03.00	141.58	8.07	-44.7	-46.1	17.6	0.00e+00	0	34	0	2017460224	60	4341
2026-01-16 22:35:07.03	141.99	7.81	-45.0	-46.4	17.3	0.00e+00	0	34	0	2030043136	60	4502
2026-01-16 22:35:11.06	142.38	7.55	-45.1	-46.5	17.1	0.00e+00	0	34	0	2042626048	61	4334
2026-01-16 22:35:15.09	142.77	7.29	-45.3	-46.8	16.8	0.00e+00	0	34	0	2055208960	61	4452
2026-01-16 22:35:19.12	143.16	7.04	-45.5	-47.0	16.5	0.00e+00	0	34	0	2067791872	61	4587
2026-01-16 22:35:23.16	143.53	6.78	-45.1	-46.6	16.9	0.00e+00	0	34	0	2080374784	61	4342
2026-01-16 22:35:27.19	143.90	6.53	-45.4	-47.0	16.5	0.00e+00	0	34	0	2092957696	61	4557
2026-01-16 22:35:31.23	144.27	6.28	-45.9	-47.5	15.9	0.00e+00	0	34	0	2105540608	62	4594
2026-01-16 22:35:35.26	144.63	6.03	-45.5	-47.1	16.2	0.00e+00	0	34	0	2118123520	62	4386
2026-01-16 22:35:39.29	144.98	5.78	-45.4	-47.0	16.3	0.00e+00	0	34	0	2130706432	62	4324
2026-01-16 22:35:43.33	145.33	5.54	-45.5	-47.2	16.1	0.00e+00	0	34	0	2143289344	62	4401
2026-01-16 22:35:47.36	145.67	5.29	-45.8	-47.6	15.6	0.00e+00	0	34	0	2155872256	62	4625
2026-01-16 22:35:51.40	146.01	5.05	-45.9	-47.7	15.4	0.00e+00	0	34	0	2168455168	62	4665
2026-01-16 22:35:55.43	146.34	4.81	-52.5	-65.3	3.8	1.49e+00	0	34	104	2172649472	75	16827
2026-01-16 22:35:59.47	146.67	4.57	-53.0	-65.8	3.8	1.49e+00	0	34	104	2172649472	76	16855
2026-01-16 22:36:03.50	146.99	4.33	-53.3	-66.1	3.8	1.49e+00	0	34	104	2172649472	77	16419
2026-01-16 22:36:07.54	147.30	4.09	-53.4	-66.3	3.8	1.49e+00	0	34	104	2172649472	77	16698
2026-01-16 22:36:11.57	147.61	3.85	-53.5	-66.3	3.8	1.49e+00	0	34	104	2172649472	77	16813
2026-01-16 22:36:15.61	147.92	3.62	-53.4	-66.2	3.8	1.49e+00	0	34	104	2172649472	77	16645
2026-01-16 22:36:19.64	148.22	3.38	-53.4	-66.2	3.8	1.49e+00	0	34	104	2172649472	77	16564
2026-01-16 22:36:23.68	148.52	3.15	-53.4	-66.2	3.8	1.49e+00	0	34	104	2172649472	77	16556
2026-01-16 22:36:27.71	148.81	2.92	-53.3	-66.1	3.8	1.49e+00	0	34	104	2172649472	77	16471
2026-01-16 22:36:31.74	149.10	2.69	-53.3	-66.1	3.8	1.49e+00	0	34	104	2172649472	77	16483
2026-01-16 22:36:35.78	149.39	2.46	-53.3	-66.1	3.8	1.49e+00	0	34	104	2172649472	77	16430
2026-01-16 22:36:39.81	149.67	2.24	-53.3	-66.1	3.8	1.49e+00	0	34	104	2172649472	77	16419
2026-01-16 22:36:43.85	149.95	2.01	-53.3	-66.1	3.8	1.49e+00	0	34	104	2172649472	77	16461

#Closed at: 2026-01-16 22:36:46
#Recorded file [2172 MB]: D:/lorett/data/31041_260117_012337.dat