passes_logs/2026/01/16/R3.2S_Murmansk/R3.2S_Murmansk__20260116_093022_NOAA_20_JPSS-1_rec.log

#Pass ID: 20260116_093022_NOAA 20 (JPSS-1)
#Satellite: NOAA 20 (JPSS-1)
#Configuration: NOAA 20
#almurnet v.1.7.20251203
#Start time: 2026-01-16 09:30:23

#Version: 2.2.20231116
#Station: R3.2S_Murmansk
#Location: 33.079688 lon 68.888172 lat
#TLE: 1 43013U 17073A   26015.89389188  .00000026  00000+0  33113-4 0  9999
#TLE: 2 43013  98.7636 316.8238 0001460  37.8997 322.2282 14.19536128422860

#Time	Az	El	Level	Level2	SNR	BER	BlckErr	Temp	State	Recorded	gain1	gain2
2026-01-16 09:30:23.70	151.23	2.05	-57.1	-71.6	3.8	1.49e+00	0	43	0	0	86	18435
2026-01-16 09:30:27.73	151.24	2.31	-57.1	-71.6	3.8	1.49e+00	0	43	104	0	84	20613
2026-01-16 09:30:31.77	151.25	2.58	-57.1	-71.6	3.8	1.49e+00	0	43	104	0	84	20641
2026-01-16 09:30:35.80	151.25	2.84	-57.1	-71.6	3.8	1.49e+00	0	44	104	0	84	20611
2026-01-16 09:30:39.84	151.26	3.11	-57.1	-71.5	3.8	1.49e+00	0	44	104	0	84	20423
2026-01-16 09:30:43.88	151.27	3.38	-57.1	-70.9	3.8	1.49e+00	0	44	104	0	84	19004
2026-01-16 09:30:47.91	151.28	3.66	-56.9	-68.1	4.2	1.41e+00	0	44	0	0	84	13783
2026-01-16 09:30:51.95	151.29	3.93	-56.9	-67.3	4.4	1.05e+00	138	44	0	3145728	84	12620
2026-01-16 09:30:55.98	151.30	4.21	-56.5	-64.5	6.0	6.40e-01	0	44	0	9437184	84	9164
2026-01-16 09:31:00.01	151.31	4.49	-55.7	-61.0	9.2	5.64e-02	0	45	0	17825792	83	6426
2026-01-16 09:31:04.05	151.32	4.78	-54.8	-58.5	11.8	6.90e-04	0	45	0	25165824	81	5457
2026-01-16 09:31:08.08	151.33	5.07	-54.6	-58.1	12.3	1.57e-04	0	45	0	32505856	80	5513
2026-01-16 09:31:12.11	151.34	5.36	-55.5	-60.0	10.4	4.07e-03	0	45	0	39845888	82	6104
2026-01-16 09:31:16.15	151.35	5.65	-53.8	-56.4	14.3	5.30e-06	0	45	0	48234496	79	4795
2026-01-16 09:31:20.18	151.35	5.95	-54.1	-56.9	13.9	6.10e-06	0	45	0	55574528	79	5076
2026-01-16 09:31:24.21	151.36	6.25	-53.9	-56.5	14.3	0.00e+00	0	45	0	62914560	79	4844
2026-01-16 09:31:28.24	151.37	6.56	-53.9	-56.4	14.4	1.50e-06	0	46	0	70254592	79	4814
2026-01-16 09:31:32.27	151.38	6.86	-53.8	-56.2	14.7	0.00e+00	0	46	0	77594624	79	4704
2026-01-16 09:31:36.31	151.39	7.18	-53.7	-56.0	14.9	0.00e+00	0	46	0	85983232	79	4584
2026-01-16 09:31:40.34	151.40	7.49	-54.0	-56.5	14.5	1.50e-06	0	46	0	93323264	79	4836
2026-01-16 09:31:44.37	151.40	7.81	-53.7	-56.0	15.0	0.00e+00	0	46	0	100663296	79	4581
2026-01-16 09:31:48.40	151.41	8.14	-53.8	-56.1	15.0	0.00e+00	0	46	0	108003328	79	4609
2026-01-16 09:31:52.43	151.42	8.47	-53.9	-56.2	14.9	0.00e+00	0	46	0	115343360	79	4676
2026-01-16 09:31:56.47	151.43	8.80	-53.6	-55.8	15.4	0.00e+00	0	46	0	123731968	79	4470
2026-01-16 09:32:00.50	151.43	9.14	-53.6	-55.7	15.5	0.00e+00	0	46	0	131072000	79	4419
2026-01-16 09:32:04.53	151.44	9.48	-53.7	-55.8	15.4	0.00e+00	0	46	0	138412032	79	4487
2026-01-16 09:32:08.56	151.45	9.82	-53.5	-55.5	15.8	0.00e+00	0	47	0	145752064	78	4573
2026-01-16 09:32:12.59	151.46	10.18	-53.4	-55.3	16.0	0.00e+00	0	46	0	153092096	78	4488
2026-01-16 09:32:16.63	151.46	10.53	-53.4	-55.3	16.0	0.00e+00	0	47	0	161480704	78	4462
2026-01-16 09:32:20.66	151.47	10.90	-53.3	-55.2	16.2	0.00e+00	0	47	0	168820736	78	4398
2026-01-16 09:32:24.69	151.48	11.26	-53.1	-54.9	16.5	0.00e+00	0	47	0	176160768	78	4269
2026-01-16 09:32:28.72	151.48	11.64	-53.0	-54.8	16.6	0.00e+00	0	47	0	183500800	78	4195
2026-01-16 09:32:32.75	151.49	12.01	-52.8	-54.5	16.9	0.00e+00	0	47	0	191889408	77	4298
2026-01-16 09:32:36.79	151.49	12.40	-52.9	-54.5	16.9	0.00e+00	0	47	0	199229440	77	4321
2026-01-16 09:32:40.82	151.50	12.79	-52.8	-54.3	17.1	0.00e+00	0	47	0	206569472	77	4239
2026-01-16 09:32:44.85	151.50	13.19	-52.7	-54.3	17.1	0.00e+00	0	47	0	213909504	77	4229
2026-01-16 09:32:48.88	151.51	13.59	-52.7	-54.2	17.2	0.00e+00	0	47	0	221249536	77	4188
2026-01-16 09:32:52.91	151.51	14.00	-52.5	-54.0	17.5	0.00e+00	0	47	0	229638144	76	4310
2026-01-16 09:32:56.95	151.52	14.42	-52.4	-53.8	17.7	0.00e+00	0	47	0	236978176	76	4224
2026-01-16 09:33:00.98	151.52	14.84	-52.4	-53.8	17.7	0.00e+00	0	48	0	244318208	76	4205
2026-01-16 09:33:05.01	151.53	15.28	-52.3	-53.6	17.9	0.00e+00	0	48	0	251658240	76	4143
2026-01-16 09:33:09.04	151.53	15.72	-52.1	-53.4	18.1	0.00e+00	0	48	0	258998272	76	4038
2026-01-16 09:33:13.08	151.54	16.17	-52.1	-53.3	18.2	0.00e+00	0	48	0	267386880	76	3997
2026-01-16 09:33:17.11	151.54	16.62	-52.0	-53.2	18.4	0.00e+00	0	48	0	274726912	75	4173
2026-01-16 09:33:21.14	151.54	17.09	-51.7	-52.9	18.7	0.00e+00	0	48	0	282066944	75	4043
2026-01-16 09:33:25.17	151.54	17.56	-51.7	-52.8	18.8	0.00e+00	0	48	0	289406976	75	3988
2026-01-16 09:33:29.20	151.55	18.05	-51.6	-52.7	18.9	0.00e+00	0	48	0	297795584	75	3935
2026-01-16 09:33:33.24	151.55	18.54	-51.5	-52.6	19.0	0.00e+00	0	48	0	305135616	75	3910
2026-01-16 09:33:37.27	151.55	19.05	-51.5	-52.7	19.0	0.00e+00	0	48	0	312475648	75	3918
2026-01-16 09:33:41.30	151.55	19.56	-51.4	-52.5	19.2	0.00e+00	0	48	0	319815680	74	4077
2026-01-16 09:33:45.33	151.55	20.08	-51.4	-52.5	19.2	0.00e+00	0	48	0	327155712	74	4056
2026-01-16 09:33:49.36	151.55	20.62	-51.2	-52.2	19.5	0.00e+00	0	48	0	335544320	74	3947
2026-01-16 09:33:53.40	151.55	21.17	-51.2	-52.2	19.5	0.00e+00	0	48	0	342884352	74	3924
2026-01-16 09:33:57.42	151.55	21.73	-51.2	-52.2	19.6	0.00e+00	0	48	0	350224384	74	3915
2026-01-16 09:34:01.43	151.55	22.30	-51.1	-52.1	19.6	0.00e+00	0	48	0	357564416	74	3895
2026-01-16 09:34:05.46	151.54	22.89	-51.1	-52.0	19.7	0.00e+00	0	48	0	364904448	74	3859
2026-01-16 09:34:09.49	151.54	23.48	-51.2	-52.1	19.6	0.00e+00	0	48	0	372244480	74	3913
2026-01-16 09:34:13.52	151.54	24.10	-51.0	-51.9	19.8	0.00e+00	0	48	0	380633088	73	4046
2026-01-16 09:34:17.56	151.53	24.73	-51.3	-52.3	19.4	0.00e+00	0	48	0	387973120	73	4241
2026-01-16 09:34:21.58	151.53	25.37	-51.2	-52.2	19.6	0.00e+00	0	48	0	395313152	73	4167
2026-01-16 09:34:25.62	151.52	26.03	-51.3	-52.3	19.5	0.00e+00	0	48	0	402653184	73	4234
2026-01-16 09:34:29.65	151.51	26.71	-51.5	-52.6	19.3	0.00e+00	0	48	0	411041792	73	4347
2026-01-16 09:34:33.69	151.51	27.40	-51.9	-53.0	18.8	0.00e+00	0	48	0	418381824	74	4329
2026-01-16 09:34:37.72	151.50	28.12	-52.2	-53.4	18.5	0.00e+00	0	48	0	425721856	75	4275
2026-01-16 09:34:41.75	151.49	28.85	-53.0	-54.5	17.4	0.00e+00	0	48	0	433061888	76	4581
2026-01-16 09:34:45.79	151.48	29.60	-53.7	-55.5	16.5	0.00e+00	0	49	0	440401920	78	4563
2026-01-16 09:34:49.82	151.46	30.37	-54.1	-56.1	15.9	0.00e+00	0	48	0	448790528	78	4884
2026-01-16 09:34:53.86	151.45	31.16	-54.0	-56.0	16.0	0.00e+00	0	48	0	456130560	79	4562
2026-01-16 09:34:57.89	151.44	31.98	-54.0	-56.0	16.0	0.00e+00	0	49	0	463470592	79	4567
2026-01-16 09:35:01.92	151.42	32.82	-53.8	-55.6	16.4	0.00e+00	0	49	0	470810624	79	4341
2026-01-16 09:35:05.95	151.40	33.68	-53.2	-54.7	17.2	0.00e+00	0	49	0	479199232	78	4178
2026-01-16 09:35:09.98	151.38	34.56	-52.2	-53.4	18.6	0.00e+00	0	49	0	486539264	76	4029
2026-01-16 09:35:14.02	151.36	35.48	-51.1	-52.1	19.9	0.00e+00	0	49	0	493879296	74	3883
2026-01-16 09:35:18.05	151.33	36.41	-50.5	-51.3	20.6	0.00e+00	0	49	0	501219328	72	3989
2026-01-16 09:35:22.08	151.31	37.38	-50.4	-51.2	20.7	0.00e+00	0	49	0	508559360	72	3942
2026-01-16 09:35:26.12	151.28	38.38	-50.1	-50.8	21.1	0.00e+00	0	49	0	516947968	72	3765
2026-01-16 09:35:30.15	151.25	39.40	-50.2	-50.9	21.1	0.00e+00	0	49	0	524288000	71	4032
2026-01-16 09:35:34.18	151.21	40.46	-50.3	-51.1	20.9	0.00e+00	0	49	0	531628032	71	4110
2026-01-16 09:35:38.22	151.17	41.55	-50.7	-51.6	20.4	0.00e+00	0	49	0	538968064	72	4113
2026-01-16 09:35:42.25	151.13	42.67	-50.9	-51.8	20.1	0.00e+00	0	49	0	546308096	72	4239
2026-01-16 09:35:46.29	151.08	43.83	-50.8	-51.6	20.4	0.00e+00	0	49	0	554696704	72	4130
2026-01-16 09:35:50.32	151.03	45.03	-52.0	-53.2	18.9	0.00e+00	0	49	0	562036736	74	4393
2026-01-16 09:35:54.35	150.98	46.26	-53.4	-55.0	17.1	0.00e+00	0	49	0	569376768	77	4585
2026-01-16 09:35:58.38	150.91	47.52	-53.9	-55.7	16.5	0.00e+00	0	49	0	576716800	78	4653
2026-01-16 09:36:02.41	150.85	48.83	-53.3	-54.8	17.2	0.00e+00	0	49	0	585105408	78	4242
2026-01-16 09:36:06.44	150.77	50.17	-52.7	-54.1	18.1	0.00e+00	0	49	0	592445440	77	4101
2026-01-16 09:36:10.47	150.68	51.56	-50.5	-51.3	20.7	0.00e+00	0	49	0	599785472	73	3776
2026-01-16 09:36:14.51	150.59	52.99	-50.1	-50.8	21.1	0.00e+00	0	49	0	607125504	72	3778
2026-01-16 09:36:18.54	150.48	54.46	-49.9	-50.6	21.5	0.00e+00	0	49	0	614465536	71	3880
2026-01-16 09:36:22.57	150.36	55.97	-51.1	-52.0	20.1	0.00e+00	0	49	0	621805568	72	4311
2026-01-16 09:36:26.60	150.23	57.53	-53.1	-54.5	17.7	0.00e+00	0	49	0	630194176	76	4577
2026-01-16 09:36:30.63	150.07	59.12	-53.2	-54.6	17.5	0.00e+00	0	49	0	637534208	77	4383
2026-01-16 09:36:34.66	149.90	60.76	-51.1	-52.0	20.1	0.00e+00	0	49	0	644874240	74	3843
2026-01-16 09:36:38.69	149.69	62.45	-50.4	-51.2	20.8	0.00e+00	0	49	0	652214272	72	3944
2026-01-16 09:36:42.73	149.46	64.17	-49.7	-50.4	21.7	0.00e+00	0	49	0	660602880	71	3802
2026-01-16 09:36:46.76	149.18	65.94	-52.3	-53.5	18.7	0.00e+00	0	49	0	667942912	75	4325
2026-01-16 09:36:50.79	148.85	67.74	-53.1	-54.5	17.7	0.00e+00	0	49	0	675282944	76	4563
2026-01-16 09:36:54.83	148.45	69.59	-53.5	-55.1	17.1	0.00e+00	0	49	0	682622976	78	4377
2026-01-16 09:36:58.86	147.97	71.46	-52.8	-54.1	18.2	0.00e+00	0	49	0	689963008	77	4107
2026-01-16 09:37:02.90	147.36	73.38	-54.1	-55.9	16.4	0.00e+00	0	49	0	698351616	78	4774
2026-01-16 09:37:06.93	146.58	75.31	-54.7	-56.8	15.3	0.00e+00	0	49	0	705691648	80	4746
2026-01-16 09:37:10.97	145.54	77.28	-54.5	-56.5	15.8	0.00e+00	0	49	0	713031680	79	4852
2026-01-16 09:37:15.00	144.10	79.26	-53.3	-54.8	17.3	0.00e+00	0	49	0	720371712	78	4225
2026-01-16 09:37:19.04	141.99	81.26	-52.7	-54.0	18.2	0.00e+00	0	49	0	728760320	76	4313
2026-01-16 09:37:23.07	138.60	83.25	-51.9	-52.9	19.3	0.00e+00	0	49	0	736100352	75	4043
2026-01-16 09:37:27.10	132.36	85.22	-49.4	-50.0	22.1	0.00e+00	0	49	0	743440384	70	3839
2026-01-16 09:37:31.13	117.89	87.05	-50.5	-51.2	20.9	0.00e+00	0	49	0	750780416	71	4184
2026-01-16 09:37:35.17	74.09	88.26	-49.7	-50.3	21.5	0.00e+00	0	49	0	758120448	71	3767
2026-01-16 09:37:39.20	17.55	87.56	-51.4	-52.3	20.1	0.00e+00	0	49	0	766509056	73	4239
2026-01-16 09:37:43.24	357.28	85.82	-51.2	-52.1	20.2	0.00e+00	0	49	0	773849088	73	4104
2026-01-16 09:37:47.26	349.40	83.89	-50.5	-51.2	21.0	0.00e+00	0	49	0	781189120	71	4177
2026-01-16 09:37:51.30	345.36	81.89	-53.6	-55.2	17.2	0.00e+00	0	49	0	788529152	78	4428
2026-01-16 09:37:55.33	342.93	79.90	-49.7	-50.3	21.9	0.00e+00	0	49	0	795869184	71	3760
2026-01-16 09:37:59.37	341.32	77.91	-51.5	-52.5	19.8	0.00e+00	0	49	0	804257792	73	4299
2026-01-16 09:38:03.40	340.18	75.94	-52.9	-54.2	18.3	0.00e+00	0	49	0	811597824	76	4399
2026-01-16 09:38:07.44	339.33	74.00	-53.0	-54.3	18.0	0.00e+00	0	49	0	818937856	78	3984
2026-01-16 09:38:11.47	338.67	72.08	-52.5	-53.7	18.6	0.00e+00	0	49	0	826277888	76	4177
2026-01-16 09:38:15.50	338.15	70.20	-53.6	-55.1	17.3	0.00e+00	0	49	0	834666496	77	4626
2026-01-16 09:38:19.54	337.73	68.34	-55.5	-58.3	14.1	0.00e+00	0	49	0	842006528	81	5289
2026-01-16 09:38:23.57	337.38	66.53	-53.9	-55.5	16.9	0.00e+00	0	49	0	849346560	79	4332
2026-01-16 09:38:27.61	337.09	64.75	-50.5	-51.4	20.5	0.00e+00	0	49	0	856686592	73	3810
2026-01-16 09:38:31.64	336.84	63.02	-49.8	-50.4	21.9	0.00e+00	0	49	0	864026624	71	3804
2026-01-16 09:38:35.68	336.63	61.32	-49.7	-50.3	21.9	0.00e+00	0	49	0	871366656	69	4212
2026-01-16 09:38:39.71	336.44	59.67	-52.4	-53.5	18.9	0.00e+00	0	49	0	879755264	75	4331
2026-01-16 09:38:43.75	336.28	58.06	-54.3	-56.1	16.3	0.00e+00	0	49	0	887095296	79	4642
2026-01-16 09:38:47.78	336.14	56.50	-52.3	-53.4	19.0	0.00e+00	0	49	0	894435328	76	4032
2026-01-16 09:38:51.82	336.02	54.97	-51.3	-52.2	20.2	0.00e+00	0	49	0	901775360	74	3930
2026-01-16 09:38:55.85	335.91	53.50	-50.9	-51.7	20.5	0.00e+00	0	49	0	910163968	73	3951
2026-01-16 09:38:59.88	335.81	52.06	-52.5	-53.8	18.6	0.00e+00	0	49	0	917504000	75	4453
2026-01-16 09:39:03.91	335.72	50.66	-52.8	-54.0	18.4	0.00e+00	0	49	0	924844032	76	4317
2026-01-16 09:39:07.95	335.64	49.31	-53.7	-55.3	17.1	0.00e+00	0	49	0	932184064	77	4719
2026-01-16 09:39:11.98	335.57	47.99	-54.1	-56.0	16.2	7.00e-07	0	49	0	939524096	80	4325
2026-01-16 09:39:16.01	335.51	46.72	-52.6	-53.8	18.6	0.00e+00	0	49	0	947912704	76	4220
2026-01-16 09:39:20.05	335.45	45.47	-54.2	-56.1	16.3	0.00e+00	0	49	0	955252736	79	4634
2026-01-16 09:39:24.08	335.40	44.27	-51.3	-52.2	20.0	0.00e+00	0	49	0	962592768	74	3925
2026-01-16 09:39:28.11	335.35	43.11	-51.1	-51.9	20.4	0.00e+00	0	49	0	969932800	73	4025
2026-01-16 09:39:32.14	335.31	41.98	-54.1	-56.0	16.4	0.00e+00	0	49	0	978321408	78	4846
2026-01-16 09:39:36.18	335.27	40.88	-53.0	-54.4	17.8	0.00e+00	0	49	0	985661440	78	4015
2026-01-16 09:39:40.21	335.24	39.82	-52.9	-54.3	18.1	0.00e+00	0	49	0	993001472	76	4452
2026-01-16 09:39:44.24	335.21	38.79	-55.4	-58.1	13.7	2.20e-06	0	49	0	1000341504	81	5198
2026-01-16 09:39:48.27	335.18	37.78	-54.8	-57.0	15.2	0.00e+00	0	50	0	1007681536	81	4577
2026-01-16 09:39:52.31	335.15	36.81	-53.4	-54.9	17.4	0.00e+00	0	50	0	1016070144	78	4254
2026-01-16 09:39:56.34	335.13	35.86	-53.6	-55.2	17.1	0.00e+00	0	50	0	1023410176	78	4397
2026-01-16 09:40:00.38	335.10	34.94	-55.1	-57.5	14.6	0.00e+00	0	49	0	1030750208	80	5146
2026-01-16 09:40:04.41	335.09	34.05	-56.4	-60.2	11.9	2.59e-04	0	50	0	1038090240	83	5857
2026-01-16 09:40:08.44	335.07	33.19	-55.4	-58.0	14.1	3.80e-06	0	49	0	1045430272	82	4845
2026-01-16 09:40:12.48	335.05	32.34	-53.9	-55.6	16.7	0.00e+00	0	50	0	1053818880	79	4343
2026-01-16 09:40:16.51	335.04	31.52	-53.5	-55.0	17.2	0.00e+00	0	49	0	1061158912	78	4337
2026-01-16 09:40:20.54	335.02	30.73	-54.6	-56.8	15.4	0.00e+00	0	49	0	1068498944	79	4987
2026-01-16 09:40:24.57	335.01	29.95	-55.1	-57.6	14.5	2.20e-06	0	49	0	1075838976	80	5178
2026-01-16 09:40:28.60	335.00	29.20	-54.9	-57.3	14.8	0.00e+00	0	50	0	1084227584	80	5001
2026-01-16 09:40:32.64	334.99	28.46	-53.8	-55.6	16.5	0.00e+00	0	49	0	1091567616	79	4368
2026-01-16 09:40:36.67	334.99	27.74	-53.0	-54.4	17.7	0.00e+00	0	49	0	1098907648	78	4026
2026-01-16 09:40:40.70	334.98	27.05	-52.1	-53.2	18.9	0.00e+00	0	49	0	1106247680	76	3930
2026-01-16 09:40:44.73	334.97	26.36	-51.9	-53.0	19.1	0.00e+00	0	50	0	1113587712	75	4057
2026-01-16 09:40:48.76	334.97	25.70	-52.0	-53.1	18.9	0.00e+00	0	50	0	1120927744	75	4137
2026-01-16 09:40:52.80	334.96	25.05	-52.2	-53.4	18.6	0.00e+00	0	49	0	1129316352	75	4286
2026-01-16 09:40:56.83	334.96	24.42	-51.9	-53.0	19.0	0.00e+00	0	50	0	1136656384	75	4096
2026-01-16 09:41:00.86	334.96	23.80	-51.3	-52.3	19.7	0.00e+00	0	49	0	1143996416	74	3974
2026-01-16 09:41:04.89	334.96	23.20	-50.9	-51.8	20.1	0.00e+00	0	50	0	1151336448	73	3981
2026-01-16 09:41:08.92	334.96	22.61	-50.6	-51.4	20.5	0.00e+00	0	49	0	1159725056	72	4032
2026-01-16 09:41:12.95	334.96	22.04	-50.6	-51.4	20.4	0.00e+00	0	49	0	1167065088	72	4037
2026-01-16 09:41:16.99	334.96	21.47	-50.7	-51.5	20.3	0.00e+00	0	49	0	1174405120	72	4091
2026-01-16 09:41:21.02	334.96	20.92	-50.8	-51.7	20.2	0.00e+00	0	50	0	1181745152	72	4154
2026-01-16 09:41:25.05	334.96	20.38	-51.0	-51.9	19.9	0.00e+00	0	50	0	1189085184	72	4263
2026-01-16 09:41:29.08	334.96	19.86	-51.3	-52.3	19.5	0.00e+00	0	49	0	1197473792	73	4212
2026-01-16 09:41:33.11	334.96	19.34	-51.4	-52.5	19.3	0.00e+00	0	49	0	1204813824	73	4318
2026-01-16 09:41:37.15	334.97	18.83	-51.4	-52.5	19.3	0.00e+00	0	50	0	1212153856	73	4319
2026-01-16 09:41:41.18	334.97	18.34	-51.5	-52.6	19.2	0.00e+00	0	49	0	1219493888	73	4373
2026-01-16 09:41:45.21	334.97	17.85	-51.4	-52.4	19.3	0.00e+00	0	49	0	1227882496	73	4272
2026-01-16 09:41:49.24	334.98	17.37	-51.5	-52.6	19.2	0.00e+00	0	50	0	1235222528	73	4352
2026-01-16 09:41:53.27	334.98	16.91	-51.5	-52.6	19.1	0.00e+00	0	49	0	1242562560	73	4367
2026-01-16 09:41:57.31	334.99	16.45	-51.6	-52.7	19.0	0.00e+00	0	49	0	1249902592	73	4428
2026-01-16 09:42:01.34	334.99	16.00	-51.6	-52.7	19.0	0.00e+00	0	49	0	1257242624	73	4426
2026-01-16 09:42:05.37	335.00	15.56	-51.7	-52.8	18.9	0.00e+00	0	49	0	1264582656	74	4229
2026-01-16 09:42:09.40	335.00	15.12	-51.7	-52.9	18.8	0.00e+00	0	49	0	1272971264	74	4252
2026-01-16 09:42:13.44	335.01	14.69	-51.7	-52.9	18.8	0.00e+00	0	49	0	1280311296	74	4262
2026-01-16 09:42:17.47	335.02	14.28	-51.6	-52.8	18.9	0.00e+00	0	50	0	1287651328	74	4215
2026-01-16 09:42:21.50	335.02	13.86	-51.7	-52.9	18.8	0.00e+00	0	50	0	1294991360	74	4252
2026-01-16 09:42:25.53	335.03	13.46	-51.9	-53.2	18.5	0.00e+00	0	49	0	1303379968	74	4405
2026-01-16 09:42:29.56	335.04	13.06	-52.2	-53.5	18.2	0.00e+00	0	49	0	1310720000	74	4555
2026-01-16 09:42:33.59	335.05	12.67	-52.3	-53.6	18.0	0.00e+00	0	50	0	1318060032	75	4373
2026-01-16 09:42:37.62	335.05	12.28	-52.3	-53.7	17.9	0.00e+00	0	49	0	1325400064	75	4424
2026-01-16 09:42:41.66	335.06	11.90	-52.5	-53.9	17.6	0.00e+00	0	50	0	1332740096	75	4543
2026-01-16 09:42:45.69	335.07	11.53	-52.4	-53.9	17.6	0.00e+00	0	50	0	1341128704	75	4508
2026-01-16 09:42:49.72	335.08	11.16	-52.5	-54.0	17.5	0.00e+00	0	49	0	1348468736	75	4583
2026-01-16 09:42:53.75	335.09	10.80	-52.4	-53.8	17.6	0.00e+00	0	49	0	1355808768	75	4493
2026-01-16 09:42:57.78	335.10	10.44	-52.6	-54.1	17.3	0.00e+00	0	49	0	1363148800	75	4634
2026-01-16 09:43:01.81	335.11	10.09	-52.4	-53.9	17.5	7.00e-07	0	49	0	1370488832	75	4528
2026-01-16 09:43:05.85	335.12	9.74	-52.5	-53.9	17.5	0.00e+00	0	49	0	1378877440	75	4540
2026-01-16 09:43:09.88	335.13	9.40	-52.4	-53.8	17.6	0.00e+00	0	50	0	1386217472	75	4479
2026-01-16 09:43:13.91	335.14	9.06	-52.4	-53.9	17.4	0.00e+00	0	50	0	1393557504	75	4521
2026-01-16 09:43:17.94	335.15	8.73	-52.4	-53.9	17.4	0.00e+00	0	49	0	1400897536	75	4544
2026-01-16 09:43:21.98	335.16	8.40	-52.4	-54.0	17.3	0.00e+00	0	49	0	1408237568	75	4555
2026-01-16 09:43:26.01	335.17	8.07	-52.3	-53.8	17.4	0.00e+00	0	50	0	1416626176	75	4481
2026-01-16 09:43:30.04	335.18	7.75	-52.5	-54.0	17.2	0.00e+00	0	49	0	1423966208	75	4575
2026-01-16 09:43:34.07	335.19	7.43	-52.5	-54.1	17.0	0.00e+00	0	50	0	1431306240	75	4645
2026-01-16 09:43:38.11	335.20	7.12	-52.6	-54.3	16.8	0.00e+00	0	50	0	1438646272	75	4728
2026-01-16 09:43:42.15	335.21	6.81	-52.6	-54.3	16.8	0.00e+00	0	49	0	1447034880	76	4453
2026-01-16 09:43:46.18	335.22	6.50	-52.7	-54.5	16.6	0.00e+00	0	50	0	1454374912	76	4548
2026-01-16 09:43:50.21	335.23	6.20	-52.7	-54.5	16.5	0.00e+00	0	50	0	1461714944	76	4547
2026-01-16 09:43:54.24	335.25	5.90	-52.6	-54.4	16.5	0.00e+00	0	49	0	1469054976	76	4510
2026-01-16 09:43:58.28	335.26	5.61	-52.9	-54.9	15.9	0.00e+00	0	50	0	1476395008	76	4766
2026-01-16 09:44:02.31	335.27	5.32	-52.9	-54.8	15.9	0.00e+00	0	49	0	1484783616	76	4754
2026-01-16 09:44:06.34	335.28	5.03	-53.1	-55.2	15.7	0.00e+00	0	49	0	1492123648	76	4964
2026-01-16 09:44:10.38	335.29	4.74	-58.4	-73.0	3.8	1.49e+00	0	50	104	1493172224	87	20440
2026-01-16 09:44:14.42	335.30	4.46	-58.8	-73.3	3.8	1.49e+00	0	50	104	1493172224	88	19992
2026-01-16 09:44:18.46	335.32	4.18	-58.9	-73.5	3.8	1.49e+00	0	50	104	1493172224	88	20306
2026-01-16 09:44:22.49	335.33	3.90	-58.9	-73.5	3.8	1.49e+00	0	50	104	1493172224	88	20385
2026-01-16 09:44:26.53	335.34	3.63	-58.9	-73.5	3.8	1.49e+00	0	50	104	1493172224	88	20358
2026-01-16 09:44:30.56	335.35	3.36	-58.9	-73.4	3.8	1.49e+00	0	50	104	1493172224	88	20208
2026-01-16 09:44:34.59	335.37	3.09	-58.8	-73.4	3.8	1.49e+00	0	50	104	1493172224	88	20194
2026-01-16 09:44:38.63	335.38	2.82	-58.8	-73.4	3.8	1.49e+00	0	50	104	1493172224	88	20100
2026-01-16 09:44:42.67	335.39	2.56	-58.8	-73.4	3.8	1.49e+00	0	50	104	1493172224	88	20138
2026-01-16 09:44:46.70	335.40	2.30	-58.8	-73.4	3.8	1.49e+00	0	50	104	1493172224	88	20113
2026-01-16 09:44:50.73	335.42	2.04	-58.8	-73.3	3.8	1.49e+00	0	50	104	1493172224	88	20029

#Closed at: 2026-01-16 09:44:53
#Recorded file [1493 MB]: D:/lorett/data/31041_260116_123023.dat