passes_logs/2026/01/16/R3.2S_Murmansk/R3.2S_Murmansk__20260116_141905_AQUA_rec.log

#Pass ID: 20260116_141905_AQUA
#Satellite: AQUA
#Configuration: AQUA
#almurnet v.1.7.20251203
#Start time: 2026-01-16 14:19:05

#Version: 2.2.20231116
#Station: R3.2S_Murmansk
#Location: 33.079688 lon 68.888172 lat
#TLE: 1 27424U 02022A   26015.92015591  .00000664  00000+0  14289-3 0  9993
#TLE: 2 27424  98.4082 342.3630 0002020  77.1389  16.3168 14.61822470261023

#Time	Az	El	Level	Level2	SNR	BER	BlckErr	Temp	State	Recorded	gain1	gain2
2026-01-16 14:19:05.41	234.98	1.98	-53.5	-71.3	3.8	7.49e-01	0	31	0	0	79	26562
2026-01-16 14:19:08.44	235.30	2.12	-53.5	-71.3	3.8	7.43e-01	0	31	104	0	77	29755
2026-01-16 14:19:11.46	235.63	2.27	-53.5	-71.2	3.8	7.47e-01	0	31	104	0	77	29636
2026-01-16 14:19:14.49	235.95	2.42	-53.5	-71.2	3.8	7.44e-01	0	31	104	0	77	29559
2026-01-16 14:19:17.51	236.28	2.56	-53.5	-71.2	3.8	7.45e-01	0	31	104	0	77	29439
2026-01-16 14:19:20.54	236.61	2.71	-53.5	-71.2	3.8	7.46e-01	0	31	104	0	77	29571
2026-01-16 14:19:23.57	236.95	2.86	-53.4	-71.1	3.8	7.44e-01	0	32	104	0	77	29180
2026-01-16 14:19:26.59	237.29	3.01	-53.5	-71.2	3.8	7.47e-01	0	31	104	0	77	29507
2026-01-16 14:19:29.62	237.63	3.15	-53.4	-71.0	3.8	7.42e-01	0	32	104	0	77	28919
2026-01-16 14:19:32.64	237.98	3.30	-53.4	-70.8	3.8	7.45e-01	0	32	104	0	77	28275
2026-01-16 14:19:35.67	238.33	3.45	-53.4	-71.0	3.8	7.43e-01	0	32	104	0	77	28814
2026-01-16 14:19:38.70	238.69	3.60	-53.4	-71.0	3.8	7.45e-01	0	32	104	0	77	28700
2026-01-16 14:19:41.72	239.04	3.75	-53.4	-70.5	3.8	7.45e-01	0	32	104	0	77	27260
2026-01-16 14:19:44.75	239.41	3.89	-53.4	-71.2	3.8	7.43e-01	0	32	104	0	77	29354
2026-01-16 14:19:47.77	239.77	4.04	-53.4	-71.1	3.8	7.43e-01	0	32	104	0	77	29179
2026-01-16 14:19:50.80	240.14	4.19	-53.4	-70.8	3.8	7.45e-01	0	32	104	0	77	28289
2026-01-16 14:19:53.82	240.52	4.34	-53.4	-69.8	3.8	7.44e-01	0	32	104	0	77	25098
2026-01-16 14:19:56.85	240.89	4.49	-53.4	-71.1	3.8	7.46e-01	0	32	104	0	77	29035
2026-01-16 14:19:59.87	241.28	4.63	-53.0	-62.8	7.0	6.62e-01	184	32	0	524288	77	11273
2026-01-16 14:20:02.90	241.66	4.78	-52.0	-58.1	12.0	6.12e-01	0	32	0	6291456	76	6915
2026-01-16 14:20:05.92	242.05	4.93	-50.1	-53.5	16.6	6.04e-01	0	32	0	12058624	72	5114
2026-01-16 14:20:08.94	242.44	5.08	-48.0	-50.2	20.2	6.06e-01	0	32	0	17825792	66	4936
2026-01-16 14:20:11.96	242.84	5.22	-49.9	-53.2	17.2	6.07e-01	0	32	0	23068672	70	5566
2026-01-16 14:20:14.99	243.25	5.37	-48.1	-50.3	20.1	6.06e-01	0	33	0	28835840	67	4736
2026-01-16 14:20:18.01	243.65	5.52	-47.4	-49.3	21.2	6.07e-01	0	32	0	34603008	66	4483
2026-01-16 14:20:21.04	244.06	5.67	-47.0	-48.8	21.6	6.07e-01	0	33	0	40370176	66	4203
2026-01-16 14:20:24.06	244.48	5.81	-47.2	-49.1	21.4	6.05e-01	0	33	0	46137344	65	4599
2026-01-16 14:20:27.09	244.90	5.96	-47.1	-49.0	21.5	6.07e-01	0	33	0	51380224	65	4571
2026-01-16 14:20:30.11	245.32	6.10	-46.8	-48.6	21.9	6.06e-01	0	33	0	57147392	65	4362
2026-01-16 14:20:33.14	245.75	6.25	-47.6	-49.6	21.1	6.06e-01	0	33	0	62914560	67	4353
2026-01-16 14:20:36.16	246.19	6.40	-46.7	-48.4	22.1	6.04e-01	0	33	0	68681728	65	4268
2026-01-16 14:20:39.19	246.62	6.54	-46.8	-48.5	22.0	6.07e-01	0	33	0	74448896	65	4320
2026-01-16 14:20:42.22	247.07	6.69	-46.9	-48.6	22.0	6.07e-01	0	33	0	80216064	65	4362
2026-01-16 14:20:45.24	247.51	6.83	-46.5	-48.2	22.4	6.06e-01	0	33	0	85458944	64	4410
2026-01-16 14:20:48.27	247.97	6.97	-46.6	-48.3	22.3	6.06e-01	0	33	0	91226112	64	4458
2026-01-16 14:20:51.29	248.42	7.12	-46.5	-48.1	22.5	6.05e-01	0	33	0	96993280	64	4363
2026-01-16 14:20:54.32	248.88	7.26	-46.8	-48.5	22.1	6.06e-01	0	33	0	102760448	64	4587
2026-01-16 14:20:57.34	249.35	7.40	-46.6	-48.2	22.4	6.06e-01	0	33	0	108527616	64	4436
2026-01-16 14:21:00.36	249.82	7.54	-46.4	-48.0	22.7	6.06e-01	0	33	0	113770496	64	4304
2026-01-16 14:21:03.38	250.29	7.68	-46.4	-48.1	22.6	6.06e-01	0	33	0	119537664	64	4354
2026-01-16 14:21:06.41	250.77	7.82	-46.2	-47.7	22.9	6.04e-01	0	33	0	125304832	64	4188
2026-01-16 14:21:09.43	251.26	7.96	-46.2	-47.7	22.9	6.07e-01	0	33	0	131072000	64	4193
2026-01-16 14:21:12.45	251.75	8.10	-46.2	-47.8	22.9	6.06e-01	0	33	0	136839168	64	4196
2026-01-16 14:21:15.48	252.24	8.24	-46.3	-47.9	22.9	6.07e-01	0	33	0	142082048	64	4249
2026-01-16 14:21:18.50	252.74	8.37	-46.3	-47.8	23.0	6.06e-01	0	33	0	147849216	63	4477
2026-01-16 14:21:21.53	253.25	8.51	-46.3	-47.9	23.0	6.05e-01	0	33	0	153616384	63	4502
2026-01-16 14:21:24.55	253.76	8.64	-46.1	-47.6	23.2	6.05e-01	0	33	0	159383552	63	4361
2026-01-16 14:21:27.58	254.27	8.77	-46.0	-47.6	23.3	6.05e-01	0	33	0	165150720	63	4341
2026-01-16 14:21:30.60	254.79	8.91	-46.0	-47.5	23.3	6.07e-01	0	33	0	170393600	63	4336
2026-01-16 14:21:33.62	255.31	9.04	-45.9	-47.4	23.4	6.07e-01	0	33	0	176160768	63	4276
2026-01-16 14:21:36.65	255.84	9.17	-46.2	-47.7	23.2	6.07e-01	0	33	0	181927936	63	4402
2026-01-16 14:21:39.67	256.38	9.30	-45.9	-47.4	23.5	6.06e-01	0	33	0	187695104	63	4267
2026-01-16 14:21:42.70	256.92	9.42	-46.0	-47.5	23.4	6.04e-01	0	33	0	193462272	63	4325
2026-01-16 14:21:45.72	257.46	9.55	-46.1	-47.7	23.2	6.06e-01	0	33	0	199229440	63	4403
2026-01-16 14:21:48.75	258.01	9.67	-45.8	-47.2	23.7	6.07e-01	0	33	0	204472320	63	4183
2026-01-16 14:21:51.77	258.56	9.80	-45.8	-47.2	23.5	6.05e-01	0	33	0	210239488	63	4182
2026-01-16 14:21:54.80	259.12	9.92	-45.7	-47.3	22.1	6.07e-01	0	33	0	216006656	63	4227
2026-01-16 14:21:57.82	259.69	10.04	-45.8	-47.3	23.6	6.08e-01	0	33	0	221773824	63	4209
2026-01-16 14:22:00.84	260.25	10.15	-45.8	-47.3	23.6	6.05e-01	0	33	0	227540992	63	4216
2026-01-16 14:22:03.87	260.83	10.27	-45.7	-47.1	23.8	6.06e-01	0	33	0	233308160	63	4120
2026-01-16 14:22:06.89	261.40	10.38	-45.8	-47.2	23.7	6.06e-01	0	33	0	238551040	63	4193
2026-01-16 14:22:09.92	261.99	10.50	-45.7	-47.2	23.8	6.06e-01	0	33	0	244318208	63	4153
2026-01-16 14:22:12.94	262.57	10.61	-45.5	-46.9	24.0	6.07e-01	0	33	0	250085376	63	4048
2026-01-16 14:22:15.97	263.17	10.72	-45.7	-47.1	23.8	6.07e-01	0	33	0	255852544	63	4136
2026-01-16 14:22:18.99	263.76	10.82	-45.5	-46.8	24.1	6.07e-01	0	33	0	261619712	62	4242
2026-01-16 14:22:22.01	264.36	10.93	-45.6	-47.0	24.0	6.05e-01	0	33	0	267386880	62	4293
2026-01-16 14:22:25.04	264.97	11.03	-45.4	-46.8	24.1	6.07e-01	0	33	0	272629760	62	4227
2026-01-16 14:22:28.07	265.58	11.13	-45.4	-46.8	24.1	6.05e-01	0	33	0	278396928	62	4230
2026-01-16 14:22:31.10	266.19	11.23	-45.4	-46.8	24.1	6.05e-01	0	33	0	284164096	62	4212
2026-01-16 14:22:34.12	266.81	11.32	-45.4	-46.8	24.2	6.06e-01	0	33	0	289931264	62	4215
2026-01-16 14:22:37.15	267.43	11.41	-45.5	-46.9	24.0	6.05e-01	0	33	0	295698432	62	4283
2026-01-16 14:22:40.17	268.06	11.50	-45.5	-46.9	24.0	6.07e-01	0	33	0	300941312	62	4273
2026-01-16 14:22:43.20	268.69	11.59	-45.4	-46.8	24.1	6.06e-01	0	33	0	306708480	62	4222
2026-01-16 14:22:46.22	269.32	11.68	-45.4	-46.7	24.2	6.06e-01	0	33	0	312475648	62	4192
2026-01-16 14:22:49.25	269.96	11.76	-45.4	-46.7	24.2	6.06e-01	0	33	0	318242816	62	4183
2026-01-16 14:22:52.27	270.60	11.84	-45.4	-46.7	24.2	6.09e-01	0	33	0	324009984	62	4187
2026-01-16 14:22:55.30	271.25	11.91	-45.4	-46.8	24.1	6.07e-01	0	33	0	329252864	62	4227
2026-01-16 14:22:58.32	271.89	11.99	-45.4	-46.8	24.2	6.07e-01	0	33	0	335020032	62	4196
2026-01-16 14:23:01.35	272.55	12.06	-45.3	-46.7	24.1	6.07e-01	0	33	0	340787200	62	4155
2026-01-16 14:23:04.37	273.20	12.13	-45.6	-47.0	24.0	6.05e-01	0	33	0	346554368	62	4310
2026-01-16 14:23:07.40	273.86	12.19	-45.3	-46.6	24.3	6.05e-01	0	33	0	352321536	62	4141
2026-01-16 14:23:10.42	274.52	12.25	-45.4	-46.8	24.2	6.07e-01	0	33	0	358088704	62	4200
2026-01-16 14:23:13.45	275.18	12.31	-45.3	-46.6	24.4	6.05e-01	0	33	0	363331584	62	4137
2026-01-16 14:23:16.47	275.85	12.37	-45.2	-46.6	24.5	6.05e-01	0	33	0	369098752	62	4106
2026-01-16 14:23:19.50	276.52	12.42	-45.3	-46.6	24.3	6.07e-01	0	33	0	374865920	62	4140
2026-01-16 14:23:22.52	277.19	12.47	-45.3	-46.6	24.4	6.05e-01	0	33	0	380633088	62	4127
2026-01-16 14:23:25.55	277.86	12.52	-45.4	-46.8	24.2	6.06e-01	0	33	0	386400256	62	4225
2026-01-16 14:23:28.57	278.54	12.56	-45.4	-46.7	24.4	6.06e-01	0	33	0	391643136	62	4180
2026-01-16 14:23:31.60	279.22	12.60	-45.4	-46.8	24.3	6.07e-01	0	34	0	397410304	62	4196
2026-01-16 14:23:34.62	279.89	12.63	-45.3	-46.7	24.4	6.05e-01	0	33	0	403177472	62	4164
2026-01-16 14:23:37.65	280.58	12.67	-45.3	-46.7	24.4	6.05e-01	0	33	0	408944640	62	4154
2026-01-16 14:23:40.67	281.26	12.70	-45.3	-46.6	24.5	6.05e-01	0	33	0	414711808	62	4115
2026-01-16 14:23:43.70	281.94	12.72	-45.4	-46.7	24.4	6.06e-01	0	33	0	419954688	62	4180
2026-01-16 14:23:46.73	282.63	12.74	-45.4	-46.8	24.4	6.06e-01	0	33	0	426246144	62	4207
2026-01-16 14:23:49.75	283.31	12.76	-45.5	-46.8	24.3	6.07e-01	0	33	0	431489024	62	4225
2026-01-16 14:23:52.78	284.00	12.78	-45.7	-47.1	24.2	6.06e-01	0	33	0	437256192	62	4353
2026-01-16 14:23:55.81	284.69	12.79	-45.6	-46.9	24.2	6.07e-01	0	33	0	443023360	62	4287
2026-01-16 14:23:58.83	285.37	12.80	-45.6	-46.9	24.3	6.05e-01	0	33	0	448790528	62	4279
2026-01-16 14:24:01.85	286.06	12.80	-45.5	-46.8	24.4	6.07e-01	0	33	0	454557696	62	4230
2026-01-16 14:24:04.88	286.75	12.80	-45.6	-46.9	24.3	6.04e-01	0	33	0	459800576	62	4282
2026-01-16 14:24:07.91	287.44	12.80	-45.4	-46.8	24.5	6.05e-01	0	33	0	465567744	62	4207
2026-01-16 14:24:10.93	288.13	12.79	-45.7	-47.1	24.1	6.03e-01	0	33	0	471334912	62	4378
2026-01-16 14:24:13.96	288.81	12.78	-45.5	-46.9	24.4	6.02e-01	0	33	0	477102080	62	4252
2026-01-16 14:24:16.98	289.50	12.77	-45.6	-47.0	24.3	6.04e-01	0	33	0	482869248	62	4307
2026-01-16 14:24:20.01	290.18	12.75	-45.8	-47.1	24.1	6.03e-01	0	33	0	488112128	62	4383
2026-01-16 14:24:23.03	290.87	12.73	-45.6	-47.0	24.3	6.04e-01	0	33	0	493879296	62	4310
2026-01-16 14:24:26.06	291.55	12.70	-45.6	-46.9	24.4	6.02e-01	0	33	0	499646464	62	4267
2026-01-16 14:24:29.08	292.23	12.68	-45.9	-47.2	24.1	6.05e-01	0	33	0	505413632	62	4439
2026-01-16 14:24:32.10	292.91	12.65	-45.6	-47.0	24.3	6.07e-01	0	33	0	511180800	62	4318
2026-01-16 14:24:35.13	293.59	12.61	-45.7	-47.0	24.3	6.03e-01	0	33	0	516947968	62	4330
2026-01-16 14:24:38.15	294.27	12.57	-45.7	-47.0	24.3	6.03e-01	0	33	0	522190848	62	4335
2026-01-16 14:24:41.17	294.94	12.53	-45.6	-47.0	24.3	6.05e-01	0	33	0	527958016	62	4309
2026-01-16 14:24:44.20	295.62	12.49	-45.8	-47.2	24.2	6.01e-01	0	33	0	533725184	62	4404
2026-01-16 14:24:47.22	296.29	12.44	-45.7	-47.1	24.3	6.01e-01	0	33	0	539492352	62	4368
2026-01-16 14:24:50.25	296.96	12.39	-45.7	-47.1	24.3	6.03e-01	0	33	0	545259520	62	4377
2026-01-16 14:24:53.27	297.62	12.33	-45.7	-47.1	24.2	6.02e-01	0	33	0	550502400	62	4368
2026-01-16 14:24:56.30	298.29	12.28	-45.5	-46.8	24.4	6.03e-01	0	33	0	556269568	62	4223
2026-01-16 14:24:59.32	298.95	12.22	-45.7	-47.1	24.3	6.01e-01	0	33	0	562036736	62	4356
2026-01-16 14:25:02.35	299.60	12.15	-45.7	-47.1	24.1	6.03e-01	0	33	0	567803904	62	4365
2026-01-16 14:25:05.37	300.26	12.09	-45.9	-47.2	24.0	6.04e-01	0	33	0	573571072	62	4440
2026-01-16 14:25:08.39	300.91	12.02	-45.7	-47.0	24.3	6.04e-01	0	33	0	578813952	62	4333
2026-01-16 14:25:11.42	301.56	11.94	-45.9	-47.3	24.0	6.04e-01	0	33	0	584581120	62	4482
2026-01-16 14:25:14.44	302.20	11.87	-45.5	-46.8	24.4	6.03e-01	0	33	0	590348288	62	4231
2026-01-16 14:25:17.46	302.84	11.79	-45.8	-47.2	24.1	6.01e-01	0	33	0	596115456	62	4399
2026-01-16 14:25:20.49	303.48	11.71	-45.7	-47.0	24.2	6.04e-01	0	33	0	601882624	62	4338
2026-01-16 14:25:23.51	304.11	11.62	-45.8	-47.2	24.1	6.03e-01	0	33	0	607649792	62	4398
2026-01-16 14:25:26.53	304.74	11.54	-45.7	-47.1	24.2	6.03e-01	0	33	0	612892672	62	4360
2026-01-16 14:25:29.56	305.37	11.45	-46.0	-47.4	23.8	6.06e-01	0	33	0	618659840	62	4519
2026-01-16 14:25:32.58	305.99	11.36	-45.7	-47.0	24.2	6.01e-01	0	33	0	624427008	62	4340
2026-01-16 14:25:35.61	306.60	11.26	-45.7	-47.1	24.2	6.04e-01	0	33	0	630194176	62	4344
2026-01-16 14:25:38.63	307.22	11.17	-45.7	-47.0	24.1	6.01e-01	0	33	0	635961344	62	4335
2026-01-16 14:25:41.66	307.83	11.07	-45.8	-47.2	24.0	6.04e-01	0	33	0	641204224	62	4392
2026-01-16 14:25:44.69	308.43	10.97	-45.9	-47.3	24.0	6.04e-01	0	33	0	646971392	62	4463
2026-01-16 14:25:47.71	309.03	10.87	-45.7	-47.1	24.0	6.00e-01	0	33	0	652738560	62	4364
2026-01-16 14:25:50.74	309.63	10.76	-45.7	-47.1	24.1	6.03e-01	0	33	0	658505728	62	4351
2026-01-16 14:25:53.76	310.22	10.65	-45.7	-47.1	24.0	6.05e-01	0	33	0	664272896	62	4386
2026-01-16 14:25:56.78	310.80	10.55	-45.8	-47.2	24.0	6.00e-01	0	33	0	669515776	62	4424
2026-01-16 14:25:59.81	311.39	10.43	-45.7	-47.1	24.0	6.04e-01	0	33	0	675807232	62	4358
2026-01-16 14:26:02.83	311.96	10.32	-45.9	-47.3	23.8	6.06e-01	0	33	0	681050112	62	4455
2026-01-16 14:26:05.86	312.54	10.21	-45.9	-47.3	23.8	6.05e-01	0	33	0	686817280	62	4466
2026-01-16 14:26:08.88	313.10	10.09	-45.7	-47.1	23.9	6.02e-01	0	33	0	692584448	62	4362
2026-01-16 14:26:11.90	313.67	9.97	-45.9	-47.4	23.7	6.02e-01	0	33	0	697827328	62	4513
2026-01-16 14:26:14.93	314.23	9.85	-45.9	-47.3	23.7	6.02e-01	0	33	0	704118784	62	4478
2026-01-16 14:26:17.96	314.78	9.73	-45.9	-47.3	23.8	6.04e-01	0	33	0	709361664	62	4468
2026-01-16 14:26:20.99	315.33	9.61	-46.0	-47.5	23.6	6.07e-01	0	33	0	715128832	62	4546
2026-01-16 14:26:24.01	315.87	9.48	-45.8	-47.3	23.8	6.00e-01	0	33	0	720896000	62	4447
2026-01-16 14:26:27.04	316.41	9.36	-45.8	-47.3	23.8	6.04e-01	0	33	0	726663168	62	4449
2026-01-16 14:26:30.06	316.94	9.23	-45.9	-47.4	23.7	6.03e-01	0	33	0	732430336	62	4503
2026-01-16 14:26:33.08	317.47	9.10	-45.9	-47.3	23.7	6.03e-01	0	33	0	737673216	62	4475
2026-01-16 14:26:36.11	318.00	8.97	-46.1	-47.6	23.4	6.02e-01	0	33	0	743440384	62	4617
2026-01-16 14:26:39.13	318.52	8.84	-46.1	-47.6	23.3	6.03e-01	0	33	0	749207552	63	4380
2026-01-16 14:26:42.16	319.03	8.71	-46.0	-47.5	23.5	6.04e-01	0	33	0	754974720	63	4312
2026-01-16 14:26:45.18	319.54	8.58	-46.4	-48.0	23.0	6.03e-01	0	33	0	760741888	63	4549
2026-01-16 14:26:48.21	320.04	8.44	-46.2	-47.7	23.3	6.04e-01	0	33	0	765984768	63	4401
2026-01-16 14:26:51.23	320.54	8.31	-46.1	-47.6	23.3	6.04e-01	0	33	0	771751936	63	4379
2026-01-16 14:26:54.26	321.04	8.17	-46.2	-47.7	23.3	6.04e-01	0	33	0	777519104	63	4408
2026-01-16 14:26:57.28	321.53	8.04	-46.2	-47.7	23.2	6.03e-01	0	33	0	783286272	63	4433
2026-01-16 14:27:00.30	322.01	7.90	-46.3	-47.9	23.0	6.05e-01	0	33	0	789053440	63	4496
2026-01-16 14:27:03.32	322.49	7.76	-46.3	-47.8	23.1	6.06e-01	0	33	0	794820608	63	4472
2026-01-16 14:27:06.35	322.97	7.62	-46.5	-48.1	22.9	6.04e-01	0	33	0	800063488	63	4599
2026-01-16 14:27:09.37	323.44	7.48	-46.3	-47.8	23.1	6.01e-01	0	33	0	805830656	63	4459
2026-01-16 14:27:12.40	323.90	7.34	-46.3	-47.8	23.0	6.01e-01	0	33	0	811597824	63	4470
2026-01-16 14:27:15.42	324.36	7.20	-46.4	-48.0	22.9	6.03e-01	0	33	0	817364992	63	4560
2026-01-16 14:27:18.45	324.82	7.06	-46.6	-48.2	22.6	6.02e-01	0	33	0	823132160	63	4684
2026-01-16 14:27:21.47	325.27	6.92	-46.4	-48.0	22.7	6.02e-01	0	33	0	828375040	64	4326
2026-01-16 14:27:24.50	325.72	6.77	-46.5	-48.2	22.5	6.04e-01	0	33	0	834142208	64	4403
2026-01-16 14:27:27.53	326.16	6.63	-46.7	-48.4	21.9	6.03e-01	0	33	0	839909376	64	4539
2026-01-16 14:27:30.56	326.60	6.49	-46.8	-48.6	21.6	6.03e-01	0	33	0	845676544	64	4611
2026-01-16 14:27:33.58	327.04	6.34	-46.8	-48.5	21.4	6.03e-01	0	33	0	851443712	64	4578
2026-01-16 14:27:36.61	327.46	6.20	-46.4	-48.1	22.0	6.05e-01	0	33	0	857210880	64	4356
2026-01-16 14:27:39.63	327.89	6.05	-46.6	-48.4	21.5	6.02e-01	0	33	0	862453760	64	4505
2026-01-16 14:27:42.66	328.31	5.91	-46.7	-48.5	21.2	6.02e-01	0	33	0	868220928	64	4553
2026-01-16 14:27:45.68	328.72	5.76	-46.6	-48.3	21.4	6.04e-01	0	33	0	873988096	64	4492
2026-01-16 14:27:48.71	329.14	5.62	-46.9	-48.7	21.0	6.04e-01	0	33	0	879755264	64	4690
2026-01-16 14:27:51.73	329.54	5.47	-46.4	-48.1	21.5	6.04e-01	0	33	0	885522432	64	4372
2026-01-16 14:27:54.76	329.95	5.32	-46.7	-48.5	21.1	6.02e-01	0	33	0	890765312	64	4594
2026-01-16 14:27:57.78	330.34	5.18	-47.0	-48.8	20.7	6.03e-01	0	33	0	896532480	64	4759
2026-01-16 14:28:00.80	330.74	5.03	-46.8	-48.8	19.7	6.01e-01	0	33	0	902299648	64	4755
2026-01-16 14:28:03.83	331.13	4.89	-54.4	-72.2	3.8	7.46e-01	0	33	104	904921088	79	29433
2026-01-16 14:28:06.85	331.52	4.74	-54.7	-72.5	3.9	7.46e-01	0	33	104	904921088	80	28764
2026-01-16 14:28:09.88	331.90	4.59	-54.9	-72.7	3.8	7.47e-01	0	33	104	904921088	80	29585
2026-01-16 14:28:12.90	332.28	4.45	-55.1	-72.9	3.8	7.48e-01	0	33	104	904921088	80	30096
2026-01-16 14:28:15.93	332.65	4.30	-55.1	-72.9	3.8	7.45e-01	0	33	104	904921088	80	30154
2026-01-16 14:28:18.95	333.02	4.15	-55.1	-72.9	3.8	7.48e-01	0	34	104	904921088	80	30081
2026-01-16 14:28:21.98	333.39	4.01	-55.0	-72.8	3.8	7.46e-01	0	33	104	904921088	80	29810
2026-01-16 14:28:25.00	333.75	3.86	-54.9	-72.7	3.8	7.44e-01	0	34	104	904921088	80	29596
2026-01-16 14:28:28.03	334.11	3.71	-54.9	-72.7	3.8	7.46e-01	0	34	104	904921088	80	29549
2026-01-16 14:28:31.06	334.46	3.57	-54.9	-72.7	3.8	7.45e-01	0	33	104	904921088	80	29481
2026-01-16 14:28:34.08	334.82	3.42	-54.9	-72.7	3.8	7.44e-01	0	33	104	904921088	80	29414
2026-01-16 14:28:37.11	335.16	3.27	-54.9	-72.7	3.8	7.45e-01	0	34	104	904921088	80	29419
2026-01-16 14:28:40.14	335.51	3.13	-54.9	-72.7	3.8	7.44e-01	0	34	104	904921088	80	29373
2026-01-16 14:28:43.16	335.85	2.98	-54.8	-72.7	3.8	7.47e-01	0	34	104	904921088	80	29406
2026-01-16 14:28:46.18	336.19	2.83	-54.8	-72.6	3.8	7.49e-01	0	34	104	904921088	80	29285
2026-01-16 14:28:49.21	336.52	2.69	-54.8	-72.7	3.8	7.46e-01	0	34	104	904921088	80	29352
2026-01-16 14:28:52.24	336.85	2.54	-54.8	-72.6	3.8	7.45e-01	0	34	104	904921088	80	29323
2026-01-16 14:28:55.26	337.18	2.40	-54.8	-72.6	3.8	7.44e-01	0	34	104	904921088	80	29258
2026-01-16 14:28:58.28	337.50	2.25	-54.8	-72.6	3.8	7.46e-01	0	34	104	904921088	80	29228
2026-01-16 14:29:01.30	337.82	2.10	-54.8	-72.6	3.8	7.45e-01	0	33	104	904921088	80	29232

#Closed at: 2026-01-16 14:29:04
#Recorded file [904 MB]: D:/lorett/data/31041_260116_171905.dat