passes_logs/2025/01/13/X_MFTI_01/X_MFTI_01__20250113_181409_TERRA_rec.log

#Pass ID: 20250113_181409_TERRA
#Satellite: TERRA
#Configuration: TERRA
#Start time: 2025-01-13 18:14:04

#Version: 1.5.20200625
#Station: X_MFTI_01
#Location: 37.5186 lon 55.9291 lat
#TLE: 1 25994U 99068A   23362.45014226  .00000817  00000+0  18168-3 0  9993
#TLE: 2 25994  98.0729  65.8244 0002317 146.5078 343.6211 14.59509299278111

#Time	Az	El	Level	Level2	SNR	BER	Gain	Gain2
2025-01-13 18:14:04.53	145.51	67.32	-77.9	-103.0	3.3	14917846	99	64449
2025-01-13 18:14:04.96	145.33	67.54	-77.8	-102.7	3.3	14900650	99	63365
2025-01-13 18:14:05.39	145.14	67.77	-77.8	-102.7	3.2	14905494	99	63219
2025-01-13 18:14:05.80	144.95	67.98	-77.8	-102.7	3.3	14903305	99	63481
2025-01-13 18:14:06.22	144.76	68.20	-77.7	-102.6	3.3	14891326	99	63317
2025-01-13 18:14:06.65	144.55	68.43	-77.4	-102.3	3.2	14904037	99	63159
2025-01-13 18:14:07.08	144.34	68.65	-77.7	-102.6	3.3	14898811	99	63132
2025-01-13 18:14:07.51	144.13	68.88	-77.9	-102.8	3.3	14898811	99	63376
2025-01-13 18:14:07.92	143.92	69.09	-77.7	-102.6	3.3	14902229	99	63225
2025-01-13 18:14:08.35	143.70	69.32	-77.7	-102.6	3.3	14898498	99	63278
2025-01-13 18:14:08.78	143.47	69.55	-77.7	-102.6	3.3	14913528	99	62989
2025-01-13 18:14:09.20	143.24	69.77	-77.9	-102.7	3.2	14904014	99	62852
2025-01-13 18:14:09.63	143.00	70.00	-77.7	-102.6	3.3	14904129	99	63380
2025-01-13 18:14:10.06	142.76	70.22	-77.7	-102.7	3.3	14899101	99	63313
2025-01-13 18:14:10.49	142.50	70.45	-77.9	-102.8	3.3	14899101	99	63575
2025-01-13 18:14:10.91	142.25	70.67	-77.7	-102.6	3.2	14885993	99	63250
2025-01-13 18:14:11.34	141.99	70.90	-77.7	-102.7	3.4	14890922	99	63411
2025-01-13 18:14:11.76	141.72	71.12	-77.7	-102.7	3.3	14910377	99	63367
2025-01-13 18:14:12.19	141.44	71.35	-77.9	-102.8	3.3	14893539	99	63158
2025-01-13 18:14:12.60	141.17	71.57	-77.7	-102.7	3.3	14897277	99	63407
2025-01-13 18:14:13.03	140.88	71.80	-77.9	-102.8	3.3	14897277	99	63303
2025-01-13 18:14:13.46	140.58	72.02	-77.7	-102.7	3.3	14889808	99	63590
2025-01-13 18:14:13.89	140.27	72.25	-77.7	-102.6	3.2	14900001	99	63557
2025-01-13 18:14:14.32	139.95	72.48	-77.7	-102.6	3.3	14903907	99	63345
2025-01-13 18:14:14.76	139.61	72.71	-77.8	-102.7	3.2	14891189	99	63369
2025-01-13 18:14:15.17	139.29	72.93	-77.7	-102.7	3.3	14897796	99	63660
2025-01-13 18:14:15.59	138.96	73.15	-77.7	-102.6	3.2	14882759	99	63435
2025-01-13 18:14:16.02	138.60	73.38	-77.9	-102.8	3.3	14882759	99	63351
2025-01-13 18:14:16.43	138.25	73.60	-77.7	-102.5	3.3	14897285	99	62770
2025-01-13 18:14:16.85	137.89	73.82	-77.7	-102.6	3.3	14908119	99	63417
2025-01-13 18:14:17.28	137.50	74.05	-77.7	-102.6	3.3	14906364	99	63396
2025-01-13 18:14:17.70	137.11	74.27	-77.9	-102.8	3.2	14898735	99	63200
2025-01-13 18:14:18.13	136.70	74.50	-77.8	-102.6	3.2	14907241	99	62626
2025-01-13 18:14:18.56	136.28	74.72	-77.9	-102.7	3.3	14902061	99	62725
2025-01-13 18:14:18.99	135.84	74.95	-77.9	-102.8	3.3	14902061	99	63366
2025-01-13 18:14:19.42	135.39	75.17	-77.7	-102.6	3.3	14900085	99	63439
2025-01-13 18:14:19.84	134.93	75.39	-77.7	-102.6	3.3	14898788	99	63492
2025-01-13 18:14:20.27	134.45	75.62	-77.9	-102.8	3.3	14907379	99	63501
2025-01-13 18:14:20.68	133.98	75.83	-77.9	-102.8	3.2	14907165	99	63261
2025-01-13 18:14:21.10	133.48	76.05	-77.9	-102.6	3.2	14906440	99	61891
2025-01-13 18:14:21.53	132.96	76.27	-77.7	-102.5	3.3	14906440	99	62529
2025-01-13 18:14:21.95	132.42	76.49	-77.6	-102.5	3.2	14907752	99	63360
2025-01-13 18:14:22.36	131.89	76.70	-77.7	-102.6	3.2	14909614	99	63286
2025-01-13 18:14:22.79	131.30	76.92	-77.9	-102.8	3.3	14911743	99	63538
2025-01-13 18:14:23.21	130.71	77.13	-77.7	-102.7	3.3	14903701	99	63409
2025-01-13 18:14:23.63	130.10	77.34	-77.9	-102.8	3.2	14897827	99	63342
2025-01-13 18:14:24.06	129.46	77.56	-77.9	-102.8	3.3	14911071	99	63398
2025-01-13 18:14:24.47	128.82	77.76	-77.9	-102.8	3.3	14911071	99	63662
2025-01-13 18:14:24.90	128.13	77.98	-77.9	-102.8	3.3	14896766	99	63472
2025-01-13 18:14:25.32	127.42	78.18	-77.7	-102.6	3.2	14893821	99	63426
2025-01-13 18:14:25.75	126.68	78.39	-77.7	-102.6	3.4	14906845	99	63187
2025-01-13 18:14:26.18	125.91	78.60	-77.9	-102.9	3.3	14896499	99	63726
2025-01-13 18:14:26.60	125.12	78.80	-77.9	-102.8	3.3	14894340	99	63356
2025-01-13 18:14:27.03	124.29	79.01	-77.7	-102.6	3.2	14894340	99	63287
2025-01-13 18:14:27.44	123.47	79.20	-77.7	-102.7	3.3	14902229	99	63439
2025-01-13 18:14:27.87	122.57	79.40	-77.7	-102.7	3.3	14900382	99	63486
2025-01-13 18:14:28.30	121.64	79.60	-77.7	-102.7	3.3	14895339	99	63469
2025-01-13 18:14:28.73	120.67	79.80	-77.7	-102.6	3.2	14906936	99	63274
2025-01-13 18:14:29.17	119.64	79.99	-77.9	-102.8	3.2	14908081	99	63413
2025-01-13 18:14:29.60	118.59	80.18	-77.9	-102.8	3.2	14905014	99	63461
2025-01-13 18:14:30.02	117.53	80.37	-77.7	-102.7	3.2	14905014	99	63361
2025-01-13 18:14:30.45	116.39	80.55	-77.7	-102.6	3.2	14904258	99	63218
2025-01-13 18:14:30.87	115.25	80.73	-77.7	-102.6	3.2	14908706	99	63119
2025-01-13 18:14:31.29	114.05	80.90	-77.7	-102.7	3.3	14906211	99	63512
2025-01-13 18:14:31.72	112.78	81.07	-77.9	-102.8	3.2	14899780	99	63462
2025-01-13 18:14:32.15	111.46	81.24	-77.9	-102.8	3.3	14901298	99	63163
2025-01-13 18:14:32.58	110.09	81.40	-77.7	-102.6	3.2	14894973	99	63408
2025-01-13 18:14:33.01	108.67	81.56	-77.7	-102.6	3.3	14894973	99	63356
2025-01-13 18:14:33.44	107.19	81.71	-77.7	-102.7	3.2	14909065	99	63387
2025-01-13 18:14:33.86	105.69	81.85	-77.8	-102.7	3.3	14898841	99	63770
2025-01-13 18:14:34.27	104.18	81.99	-77.7	-102.6	3.3	14874694	99	63420
2025-01-13 18:14:34.69	102.58	82.12	-77.9	-102.8	3.3	14899673	99	63376
2025-01-13 18:14:35.12	100.88	82.25	-77.7	-102.6	3.3	14894203	99	62998
2025-01-13 18:14:35.53	99.21	82.37	-77.7	-102.6	3.3	14879898	99	62919
2025-01-13 18:14:35.96	97.40	82.48	-77.7	-102.7	3.3	14879898	99	63330
2025-01-13 18:14:36.40	95.50	82.59	-77.7	-102.7	3.2	14901741	99	63328
2025-01-13 18:14:36.81	93.67	82.69	-77.7	-102.7	3.4	14908538	99	63760
2025-01-13 18:14:37.24	91.70	82.78	-77.8	-102.7	3.3	14886772	99	63429
2025-01-13 18:14:37.67	89.69	82.86	-77.7	-102.6	3.3	14884925	99	63170
2025-01-13 18:14:38.10	87.63	82.93	-77.9	-102.8	3.3	14901062	99	63438
2025-01-13 18:14:38.53	85.53	83.00	-77.8	-102.7	3.3	14891410	99	63285
2025-01-13 18:14:38.95	83.45	83.05	-77.8	-102.8	3.2	14891410	99	63517
2025-01-13 18:14:39.38	81.28	83.10	-77.7	-102.6	3.3	14897888	99	63467
2025-01-13 18:14:39.80	79.14	83.13	-77.7	-102.8	3.2	14898506	99	64303
2025-01-13 18:14:40.23	76.93	83.16	-77.9	-102.9	3.4	14902946	99	64323
2025-01-13 18:14:40.64	74.80	83.18	-77.8	-102.7	3.3	14892143	99	63259
2025-01-13 18:14:41.06	72.62	83.18	-77.8	-102.7	3.2	14909393	99	63420
2025-01-13 18:14:41.49	70.39	83.18	-77.7	-102.7	3.3	14909393	99	63772
2025-01-13 18:14:41.92	68.16	83.16	-77.7	-102.7	3.3	14888389	99	63473
2025-01-13 18:14:42.35	65.95	83.14	-77.9	-102.8	3.3	14895202	99	63482
2025-01-13 18:14:42.78	63.75	83.10	-77.7	-102.6	3.3	14908241	99	63241
2025-01-13 18:14:43.21	61.58	83.06	-77.9	-102.9	3.3	14886260	99	63766
2025-01-13 18:14:43.64	59.44	83.01	-77.9	-102.8	3.3	14894134	99	63420
2025-01-13 18:14:44.07	57.34	82.94	-77.7	-102.7	3.2	14907302	99	63351
2025-01-13 18:14:44.50	55.28	82.87	-77.7	-102.6	3.3	14907302	99	63282
2025-01-13 18:14:44.92	53.31	82.79	-77.9	-102.8	3.3	14903900	99	63400
2025-01-13 18:14:45.35	51.34	82.70	-77.9	-102.8	3.3	14902938	99	63579
2025-01-13 18:14:45.78	49.42	82.60	-77.9	-102.8	3.3	14913681	99	63422
2025-01-13 18:14:46.21	47.55	82.49	-77.9	-102.8	3.3	14910125	99	63103
2025-01-13 18:14:46.64	45.74	82.38	-77.8	-102.7	3.3	14890083	99	63397
2025-01-13 18:14:47.07	43.98	82.26	-77.9	-102.8	3.3	14917839	99	63382
2025-01-13 18:14:47.50	42.29	82.13	-77.7	-102.6	3.3	14905410	99	63238
2025-01-13 18:14:47.92	40.68	82.00	-77.7	-102.6	3.2	14905410	99	63006
2025-01-13 18:14:48.34	39.13	81.86	-77.8	-102.7	3.3	14881477	99	63491
2025-01-13 18:14:48.75	37.67	81.72	-77.7	-102.7	3.2	14909790	99	63518
2025-01-13 18:14:49.17	36.22	81.57	-77.7	-102.6	3.2	14903045	99	63338
2025-01-13 18:14:49.58	34.86	81.42	-77.9	-102.8	3.2	14879234	99	63359
2025-01-13 18:14:50.01	33.48	81.26	-77.9	-102.8	3.2	14906906	99	63328
2025-01-13 18:14:50.43	32.19	81.09	-77.7	-102.6	3.3	14906906	99	63487
2025-01-13 18:14:50.85	30.94	80.93	-77.7	-102.7	3.2	14902542	99	63736
2025-01-13 18:14:51.26	29.77	80.76	-77.9	-102.8	3.2	14878379	99	63389
2025-01-13 18:14:51.69	28.58	80.58	-77.7	-102.6	3.2	14901260	99	63454
2025-01-13 18:14:52.12	27.44	80.40	-77.7	-102.5	3.4	14897445	99	62429
2025-01-13 18:14:52.52	26.42	80.23	-77.7	-102.6	3.4	14895057	99	63073
2025-01-13 18:14:52.94	25.39	80.04	-77.7	-102.7	3.3	14895057	99	63350
2025-01-13 18:14:53.36	24.40	79.85	-77.9	-102.8	3.2	14905609	99	63396
2025-01-13 18:14:53.79	23.42	79.66	-77.9	-102.8	3.2	14913055	99	63687
2025-01-13 18:14:54.22	22.48	79.46	-77.8	-102.8	3.3	14885757	99	63721
2025-01-13 18:14:54.63	21.61	79.27	-77.9	-102.8	3.3	14894859	99	63536
2025-01-13 18:14:55.06	20.74	79.07	-77.9	-102.8	3.3	14910354	99	63425
2025-01-13 18:14:55.48	19.92	78.87	-77.8	-102.8	3.3	14910354	99	63830
2025-01-13 18:14:55.91	19.11	78.67	-77.8	-102.7	3.3	14898406	99	63372
2025-01-13 18:14:56.34	18.32	78.46	-77.9	-102.8	3.2	14894790	99	63365
2025-01-13 18:14:56.77	17.57	78.25	-77.7	-102.6	3.3	14896095	99	63176
2025-01-13 18:14:57.19	16.86	78.04	-77.8	-102.7	3.3	14882637	99	63464
2025-01-13 18:14:57.60	16.20	77.84	-77.7	-102.7	3.3	14879234	99	63494
2025-01-13 18:14:58.03	15.52	77.62	-77.9	-102.8	3.2	14900451	99	63467
2025-01-13 18:14:58.45	14.88	77.41	-77.7	-102.7	3.3	14900451	99	63668
2025-01-13 18:14:58.88	14.25	77.20	-77.9	-102.9	3.3	14897361	99	63740
2025-01-13 18:14:59.30	13.66	76.98	-77.9	-102.8	3.3	14882843	99	63525
2025-01-13 18:14:59.73	13.07	76.76	-77.9	-102.8	3.3	14910491	99	63506
2025-01-13 18:15:00.14	12.53	76.56	-77.9	-102.8	3.3	14896972	99	63692
2025-01-13 18:15:00.56	11.99	76.34	-77.8	-102.7	3.3	14871864	99	63425
2025-01-13 18:15:00.99	11.46	76.12	-77.7	-102.7	3.3	14906402	99	63359
2025-01-13 18:15:01.42	10.94	75.90	-77.9	-102.7	3.4	14906402	99	62704
2025-01-13 18:15:01.85	10.44	75.67	-77.9	-102.8	3.3	14909011	99	63288
2025-01-13 18:15:02.28	9.96	75.45	-77.8	-102.7	3.2	14886100	99	63476
2025-01-13 18:15:02.70	9.50	75.23	-77.8	-102.8	3.3	14907653	99	63491
2025-01-13 18:15:03.13	9.05	75.01	-77.7	-102.7	3.2	14905929	99	63720
2025-01-13 18:15:03.56	8.61	74.78	-77.7	-102.7	3.3	14883811	99	63569
2025-01-13 18:15:03.99	8.18	74.55	-77.9	-102.8	3.3	14906913	99	63398
2025-01-13 18:15:04.41	7.78	74.33	-77.7	-102.6	3.3	14906913	99	62995
2025-01-13 18:15:04.84	7.38	74.11	-77.9	-102.7	3.2	14896926	99	62624
2025-01-13 18:15:05.27	6.99	73.88	-77.7	-102.7	3.2	14907325	99	63510
2025-01-13 18:15:05.69	6.62	73.66	-77.7	-102.7	3.3	14900283	99	63548
2025-01-13 18:15:06.12	6.25	73.43	-77.9	-102.9	3.3	14904609	99	63817
2025-01-13 18:15:06.52	5.92	73.22	-77.7	-102.7	3.3	14877922	99	63753
2025-01-13 18:15:06.93	5.59	73.00	-77.9	-102.8	3.3	14877922	99	63455
2025-01-13 18:15:07.36	5.25	72.78	-77.7	-102.6	3.3	14906608	99	63496
2025-01-13 18:15:07.78	4.93	72.55	-77.9	-102.9	3.3	14905212	99	63809
2025-01-13 18:15:08.21	4.61	72.33	-77.9	-102.8	3.3	14897026	99	63451
2025-01-13 18:15:08.63	4.31	72.10	-77.6	-102.6	3.3	14900009	99	63449
2025-01-13 18:15:09.06	4.00	71.88	-77.7	-102.7	3.2	14903823	99	63430
2025-01-13 18:15:09.49	3.71	71.65	-77.7	-102.6	3.5	14898956	99	63114
2025-01-13 18:15:09.92	3.42	71.42	-77.9	-102.8	3.2	14898956	99	63602
2025-01-13 18:15:10.33	3.15	71.20	-77.9	-102.9	3.3	14891891	99	63561
2025-01-13 18:15:10.76	2.88	70.98	-77.9	-102.8	3.3	14896903	99	63341
2025-01-13 18:15:11.19	2.61	70.75	-77.9	-102.8	3.3	14898078	99	63301
2025-01-13 18:15:11.61	2.36	70.53	-77.8	-102.8	3.3	14895004	99	63564

#Closed at: 2025-01-13 18:15:11