passes_logs/2025/01/13/X_MFTI_01/X_MFTI_01__20250113_010606_FENGYUN_3D_rec.log

#Pass ID: 20250113_010606_FENGYUN 3D
#Satellite: FENGYUN 3D
#Configuration: FENGYUN 3D
#Start time: 2025-01-13 01:06:01

#Version: 1.5.20200625
#Station: X_MFTI_01
#Location: 37.5186 lon 55.9291 lat
#TLE: 1 43010U 17072A   23362.50642187  .00000183  00000+0  10870-3 0  9994
#TLE: 2 43010  98.8887 311.3857 0002475  98.0400 262.1057 14.19259665317063

#Time	Az	El	Level	Level2	SNR	BER	Gain	Gain2
2025-01-13 01:06:01.72	22.17	67.82	-74.6	-95.6	3.8	8464199	99	40264
2025-01-13 01:06:02.14	22.22	68.01	-74.8	-95.8	3.8	8457721	99	40318
2025-01-13 01:06:02.55	22.26	68.20	-74.9	-95.9	3.8	8460845	99	40371
2025-01-13 01:06:02.97	22.31	68.39	-74.9	-95.9	3.8	8467403	99	40372
2025-01-13 01:06:03.39	22.35	68.58	-74.8	-95.8	3.8	8468215	99	40307
2025-01-13 01:06:03.80	22.40	68.77	-74.9	-95.8	3.8	8459667	99	40258
2025-01-13 01:06:04.22	22.45	68.96	-74.8	-95.8	3.8	8450260	99	40365
2025-01-13 01:06:04.64	22.50	69.15	-74.7	-95.7	3.8	8467369	99	40055
2025-01-13 01:06:05.06	22.55	69.35	-74.7	-95.8	3.8	8458992	99	40600
2025-01-13 01:06:05.48	22.60	69.54	-74.7	-95.7	3.7	8463283	99	40568
2025-01-13 01:06:05.89	22.65	69.73	-74.7	-95.6	3.8	8455821	99	39878
2025-01-13 01:06:06.31	22.70	69.92	-74.7	-95.6	3.8	8451210	99	40025
2025-01-13 01:06:06.72	22.76	70.11	-74.7	-95.7	3.8	8465515	99	40398
2025-01-13 01:06:07.14	22.81	70.31	-74.7	-95.6	3.7	8462699	99	40252
2025-01-13 01:06:07.56	22.87	70.51	-74.7	-95.4	3.8	8463420	99	39001
2025-01-13 01:06:07.97	22.93	70.70	-74.7	-95.4	3.8	8460330	99	39053
2025-01-13 01:06:08.38	22.99	70.89	-74.8	-95.8	3.8	8453819	99	40357
2025-01-13 01:06:08.80	23.05	71.08	-74.6	-95.4	3.7	8462139	99	39647
2025-01-13 01:06:09.22	23.11	71.28	-74.7	-95.4	3.8	8461486	99	38972
2025-01-13 01:06:09.64	23.17	71.48	-74.7	-95.6	3.8	8458740	99	40276
2025-01-13 01:06:10.06	23.24	71.68	-74.7	-95.7	3.8	8449916	99	40155
2025-01-13 01:06:10.47	23.30	71.87	-74.7	-95.6	3.7	8446483	99	40068
2025-01-13 01:06:10.89	23.37	72.07	-74.7	-95.6	3.8	8451885	99	39944
2025-01-13 01:06:11.31	23.44	72.27	-74.7	-95.7	3.8	8461372	99	40119
2025-01-13 01:06:11.72	23.51	72.46	-74.8	-95.8	3.8	8464668	99	40514
2025-01-13 01:06:12.14	23.58	72.66	-74.7	-95.5	3.8	8466007	99	39773
2025-01-13 01:06:12.56	23.65	72.86	-74.7	-95.5	3.8	8472381	99	39320
2025-01-13 01:06:12.98	23.73	73.06	-74.7	-95.6	3.8	8453590	99	40157
2025-01-13 01:06:13.39	23.81	73.26	-74.7	-95.7	3.8	8457355	99	40549
2025-01-13 01:06:13.81	23.89	73.46	-74.7	-95.6	3.8	8454654	99	39897
2025-01-13 01:06:14.23	23.97	73.66	-74.6	-95.6	3.8	8445327	99	40375
2025-01-13 01:06:14.64	24.05	73.85	-74.7	-95.6	3.8	8457344	99	40175
2025-01-13 01:06:15.06	24.14	74.06	-74.8	-95.8	3.8	8463912	99	40285
2025-01-13 01:06:15.48	24.22	74.26	-74.7	-95.7	3.8	8470504	99	40101
2025-01-13 01:06:15.89	24.31	74.46	-74.7	-95.7	3.8	8458202	99	40197
2025-01-13 01:06:16.31	24.41	74.66	-74.8	-95.7	3.8	8467700	99	40093
2025-01-13 01:06:16.73	24.50	74.86	-74.8	-95.4	3.8	8462196	99	38916
2025-01-13 01:06:17.15	24.60	75.06	-74.8	-95.5	3.8	8460800	99	38976
2025-01-13 01:06:17.56	24.70	75.26	-74.7	-95.7	3.8	8456462	99	40062
2025-01-13 01:06:17.98	24.80	75.47	-74.7	-95.6	3.7	8461784	99	40198
2025-01-13 01:06:18.40	24.91	75.67	-74.7	-95.6	3.8	8454860	99	39927
2025-01-13 01:06:18.82	25.02	75.87	-74.8	-95.7	3.8	8454551	99	39798
2025-01-13 01:06:19.23	25.13	76.07	-74.8	-95.8	3.8	8461669	99	40329
2025-01-13 01:06:19.65	25.25	76.28	-74.7	-95.7	3.8	8462997	99	40341
2025-01-13 01:06:20.07	25.37	76.48	-74.8	-95.6	3.8	8462265	99	39611
2025-01-13 01:06:20.49	25.49	76.69	-74.7	-95.7	3.8	8454185	99	40040
2025-01-13 01:06:20.91	25.62	76.89	-74.7	-95.7	3.8	8465126	99	40398
2025-01-13 01:06:21.32	25.75	77.09	-74.7	-95.7	3.7	8472290	99	40373
2025-01-13 01:06:21.74	25.89	77.30	-74.7	-95.8	3.8	8462779	99	40458
2025-01-13 01:06:22.16	26.03	77.51	-74.7	-95.5	3.8	8462677	99	39723
2025-01-13 01:06:22.58	26.17	77.71	-74.7	-95.7	3.8	8458099	99	40387
2025-01-13 01:06:22.99	26.32	77.91	-74.7	-95.7	3.8	8466350	99	40769
2025-01-13 01:06:23.41	26.48	78.12	-74.7	-95.8	3.8	8458374	99	40818
2025-01-13 01:06:23.82	26.64	78.32	-74.7	-95.7	3.8	8451782	99	40437
2025-01-13 01:06:24.24	26.80	78.53	-74.7	-95.7	3.8	8457859	99	40374
2025-01-13 01:06:24.66	26.98	78.74	-74.7	-95.6	3.8	8452411	99	39806
2025-01-13 01:06:25.08	27.16	78.94	-74.6	-95.6	3.8	8458614	99	40385
2025-01-13 01:06:25.49	27.34	79.15	-74.7	-95.7	3.7	8459426	99	40347
2025-01-13 01:06:25.91	27.53	79.35	-74.8	-95.7	3.8	8475185	99	40168
2025-01-13 01:06:26.33	27.74	79.56	-74.7	-95.7	3.8	8459220	99	40154
2025-01-13 01:06:26.75	27.95	79.77	-74.8	-95.7	3.8	8463661	99	40157
2025-01-13 01:06:27.16	28.16	79.97	-74.8	-95.7	3.8	8454757	99	40061
2025-01-13 01:06:27.58	28.39	80.18	-74.8	-95.7	3.8	8459724	99	39724
2025-01-13 01:06:28.00	28.63	80.39	-74.8	-95.7	3.8	8457675	99	39847
2025-01-13 01:06:28.42	28.88	80.59	-74.7	-95.7	3.8	8469234	99	40162
2025-01-13 01:06:28.84	29.14	80.80	-74.8	-95.7	3.7	8452033	99	40100
2025-01-13 01:06:29.25	29.41	81.01	-74.8	-95.7	3.8	8467529	99	39909
2025-01-13 01:06:29.67	29.69	81.21	-74.8	-95.7	3.8	8463352	99	39904
2025-01-13 01:06:30.09	29.99	81.42	-74.8	-95.7	3.8	8451999	99	40169
2025-01-13 01:06:30.50	30.30	81.62	-74.7	-95.7	3.7	8453704	99	40078
2025-01-13 01:06:30.92	30.63	81.83	-74.7	-95.4	3.8	8455993	99	38963
2025-01-13 01:06:31.34	30.98	82.04	-74.7	-95.7	3.8	8449493	99	40315
2025-01-13 01:06:31.76	31.35	82.25	-74.8	-95.7	3.8	8459850	99	40108
2025-01-13 01:06:32.18	31.73	82.46	-74.8	-95.8	3.8	8455627	99	40167
2025-01-13 01:06:32.59	32.13	82.66	-74.7	-95.4	3.8	8444664	99	38829
2025-01-13 01:06:33.01	32.56	82.86	-74.8	-95.8	3.8	8461463	99	40263
2025-01-13 01:06:33.43	33.02	83.07	-74.6	-95.5	3.8	8472267	99	39611
2025-01-13 01:06:33.85	33.51	83.28	-74.8	-95.6	3.8	8467048	99	39580
2025-01-13 01:06:34.26	34.01	83.48	-74.7	-95.5	3.8	8459896	99	39524
2025-01-13 01:06:34.68	34.57	83.68	-74.7	-95.7	3.8	8467071	99	40312
2025-01-13 01:06:35.10	35.15	83.89	-74.8	-95.8	3.8	8452537	99	40197
2025-01-13 01:06:35.51	35.77	84.09	-74.7	-95.2	3.8	8458717	99	38167
2025-01-13 01:06:35.93	36.44	84.29	-74.7	-95.7	3.8	8458648	99	40169
2025-01-13 01:06:36.35	37.16	84.50	-74.8	-95.8	3.8	8450077	99	40250
2025-01-13 01:06:36.77	37.94	84.70	-74.8	-95.8	3.8	8462448	99	40244
2025-01-13 01:06:37.18	38.76	84.90	-74.7	-95.4	3.8	8457366	99	39295
2025-01-13 01:06:37.60	39.67	85.10	-74.7	-95.7	3.8	8459278	99	40370
2025-01-13 01:06:38.02	40.65	85.30	-74.7	-95.7	3.8	8474613	99	40241
2025-01-13 01:06:38.43	41.70	85.49	-74.7	-95.4	3.8	8462368	99	39098
2025-01-13 01:06:38.85	42.87	85.69	-74.7	-95.4	3.8	8459197	99	39186
2025-01-13 01:06:39.27	44.15	85.88	-74.8	-95.8	3.8	8459083	99	40344
2025-01-13 01:06:39.68	45.52	86.07	-74.7	-95.7	3.7	8453166	99	40278
2025-01-13 01:06:40.10	47.06	86.26	-74.8	-95.7	3.8	8466259	99	39901
2025-01-13 01:06:40.52	48.77	86.44	-74.7	-95.6	3.8	8470825	99	39901
2025-01-13 01:06:40.94	50.67	86.63	-74.7	-95.7	3.8	8452400	99	40349
2025-01-13 01:06:41.35	52.73	86.80	-74.7	-95.6	3.7	8453819	99	40337
2025-01-13 01:06:41.77	55.09	86.98	-74.7	-95.5	3.8	8461990	99	39380
2025-01-13 01:06:42.19	57.73	87.15	-74.7	-95.7	3.8	8457778	99	40176
2025-01-13 01:06:42.60	60.62	87.31	-74.8	-95.8	3.8	8462402	99	40220
2025-01-13 01:06:43.02	63.95	87.46	-74.8	-95.8	3.7	8456508	99	40126
2025-01-13 01:06:43.44	67.69	87.60	-74.8	-95.5	3.9	8458889	99	39324
2025-01-13 01:06:43.85	71.79	87.73	-74.7	-95.7	3.8	8465240	99	40167
2025-01-13 01:06:44.27	76.49	87.85	-74.8	-95.8	3.7	8454391	99	40211
2025-01-13 01:06:44.69	81.70	87.96	-74.8	-95.7	3.8	8471820	99	39799
2025-01-13 01:06:45.11	87.41	88.04	-74.7	-95.6	3.8	8467128	99	39776
2025-01-13 01:06:45.52	93.43	88.11	-74.8	-95.7	3.8	8464336	99	40221
2025-01-13 01:06:45.94	99.95	88.15	-74.7	-95.7	3.8	8458969	99	40167
2025-01-13 01:06:46.36	106.68	88.17	-74.8	-95.5	3.8	8440429	99	39290
2025-01-13 01:06:46.77	113.28	88.16	-74.7	-95.5	3.8	8455123	99	39532
2025-01-13 01:06:47.19	119.89	88.13	-74.6	-95.6	3.8	8452686	99	40156
2025-01-13 01:06:47.60	126.05	88.07	-74.7	-95.7	3.8	8456142	99	40362
2025-01-13 01:06:48.02	131.93	87.99	-74.6	-95.4	3.8	8458854	99	39587
2025-01-13 01:06:48.44	137.32	87.89	-74.7	-95.7	3.8	8452125	99	40370
2025-01-13 01:06:48.86	142.19	87.78	-74.6	-95.5	3.9	8447959	99	39764
2025-01-13 01:06:49.27	146.46	87.65	-74.7	-95.7	3.8	8452022	99	40370
2025-01-13 01:06:49.69	150.36	87.51	-74.7	-95.6	3.8	8455432	99	39925
2025-01-13 01:06:50.11	153.83	87.36	-74.7	-95.7	3.8	8456130	99	40385
2025-01-13 01:06:50.52	156.84	87.20	-74.7	-95.7	3.8	8448589	99	40404
2025-01-13 01:06:50.94	159.59	87.04	-74.7	-95.5	3.8	8451438	99	39817
2025-01-13 01:06:51.36	162.05	86.86	-74.6	-95.6	3.8	8459140	99	40078
2025-01-13 01:06:51.77	164.19	86.69	-74.7	-95.7	3.8	8458889	99	40446
2025-01-13 01:06:52.19	166.16	86.51	-74.6	-95.6	3.7	8460205	99	40412
2025-01-13 01:06:52.61	167.93	86.32	-74.7	-95.7	3.8	8465423	99	40166
2025-01-13 01:06:53.03	169.53	86.13	-74.7	-95.7	3.8	8463466	99	40454
2025-01-13 01:06:53.44	170.95	85.95	-74.6	-95.6	3.8	8460376	99	40417
2025-01-13 01:06:53.86	172.27	85.75	-74.8	-95.8	3.8	8450752	99	40395
2025-01-13 01:06:54.28	173.48	85.56	-74.8	-95.7	3.8	8463020	99	40157
2025-01-13 01:06:54.69	174.56	85.36	-74.6	-95.7	3.8	8464839	99	40512
2025-01-13 01:06:55.11	175.57	85.17	-74.7	-95.7	3.8	8451095	99	40437
2025-01-13 01:06:55.53	176.51	84.97	-74.7	-95.6	3.8	8458728	99	39831
2025-01-13 01:06:55.95	177.37	84.76	-74.7	-95.6	3.8	8448440	99	39733
2025-01-13 01:06:56.36	178.15	84.57	-74.6	-95.6	3.8	8451370	99	40437
2025-01-13 01:06:56.78	178.89	84.36	-74.7	-95.7	3.8	8454105	99	40495
2025-01-13 01:06:57.19	179.56	84.16	-74.7	-95.4	3.8	8460216	99	38871
2025-01-13 01:06:57.61	180.21	83.96	-74.7	-95.4	3.8	8451187	99	38880
2025-01-13 01:06:58.03	180.81	83.75	-74.7	-95.7	3.8	8469211	99	40435
2025-01-13 01:06:58.45	181.37	83.55	-74.6	-95.6	3.8	8462081	99	40355
2025-01-13 01:06:58.86	181.89	83.35	-74.7	-95.6	3.9	8457733	99	39855
2025-01-13 01:06:59.28	182.39	83.14	-74.8	-95.8	3.8	8450374	99	40333
2025-01-13 01:06:59.70	182.85	82.93	-74.6	-95.6	3.8	8460193	99	40420
2025-01-13 01:07:00.12	183.30	82.73	-74.7	-95.7	3.8	8455638	99	40347
2025-01-13 01:07:00.53	183.70	82.52	-74.7	-95.5	3.8	8458797	99	39542
2025-01-13 01:07:00.95	184.10	82.32	-74.8	-95.7	3.8	8448051	99	40279
2025-01-13 01:07:01.36	184.46	82.11	-74.7	-95.7	3.8	8453521	99	40385
2025-01-13 01:07:01.78	184.82	81.91	-74.7	-95.5	3.8	8464244	99	39574
2025-01-13 01:07:02.19	185.15	81.70	-74.7	-95.5	3.8	8458030	99	39357
2025-01-13 01:07:02.61	185.47	81.50	-74.7	-95.6	3.8	8444068	99	40126
2025-01-13 01:07:03.03	185.77	81.29	-74.8	-95.8	3.7	8452251	99	40093
2025-01-13 01:07:03.44	186.06	81.08	-74.8	-95.5	3.8	8449859	99	38985
2025-01-13 01:07:03.86	186.33	80.88	-74.7	-95.7	3.8	8455959	99	40264
2025-01-13 01:07:04.28	186.60	80.67	-74.7	-95.7	3.8	8456165	99	40197
2025-01-13 01:07:04.69	186.85	80.46	-74.7	-95.7	3.7	8464519	99	40352
2025-01-13 01:07:05.11	187.09	80.26	-74.7	-95.6	3.8	8450099	99	39775
2025-01-13 01:07:05.53	187.32	80.05	-74.8	-95.8	3.8	8457801	99	40392
2025-01-13 01:07:05.95	187.55	79.84	-74.7	-95.7	3.7	8453224	99	40312
2025-01-13 01:07:06.36	187.76	79.64	-74.8	-95.6	3.7	8463123	99	39694
2025-01-13 01:07:06.78	187.96	79.43	-74.7	-95.6	3.8	8449905	99	39690
2025-01-13 01:07:07.19	188.15	79.23	-74.7	-95.7	3.8	8457653	99	40411
2025-01-13 01:07:07.61	188.34	79.02	-74.8	-95.8	3.7	8461807	99	40377
2025-01-13 01:07:08.03	188.53	78.81	-74.6	-95.5	3.8	8446861	99	40049
2025-01-13 01:07:08.44	188.70	78.61	-74.8	-95.7	3.8	8474109	99	40031
2025-01-13 01:07:08.86	188.87	78.40	-74.6	-95.6	3.8	8466556	99	40399
2025-01-13 01:07:09.28	189.03	78.20	-74.7	-95.7	3.8	8459896	99	40454
2025-01-13 01:07:09.70	189.19	77.99	-74.8	-95.7	3.8	8458053	99	40033
2025-01-13 01:07:10.11	189.34	77.79	-74.6	-95.6	3.8	8459014	99	40425
2025-01-13 01:07:10.53	189.49	77.58	-74.6	-95.6	3.8	8457035	99	40425
2025-01-13 01:07:10.95	189.63	77.37	-74.7	-95.7	3.8	8457836	99	40476
2025-01-13 01:07:11.36	189.77	77.17	-74.7	-95.5	3.8	8457103	99	39641
2025-01-13 01:07:11.78	189.90	76.97	-74.7	-95.7	3.8	8461029	99	40443
2025-01-13 01:07:12.20	190.03	76.76	-74.6	-95.6	3.8	8456851	99	40410
2025-01-13 01:07:12.62	190.16	76.56	-74.8	-95.5	3.8	8459289	99	39144
2025-01-13 01:07:13.03	190.28	76.35	-74.7	-95.4	3.8	8462253	99	39099
2025-01-13 01:07:13.45	190.40	76.15	-74.7	-95.7	3.8	8454654	99	40287
2025-01-13 01:07:13.87	190.51	75.95	-74.7	-95.7	3.8	8457355	99	40215
2025-01-13 01:07:14.29	190.62	75.74	-74.8	-95.5	3.8	8459987	99	39414
2025-01-13 01:07:14.70	190.73	75.54	-74.8	-95.8	3.8	8460708	99	40282
2025-01-13 01:07:15.12	190.83	75.34	-74.7	-95.7	3.8	8454437	99	40356
2025-01-13 01:07:15.53	190.93	75.14	-74.7	-95.6	3.7	8459770	99	40163
2025-01-13 01:07:15.95	191.03	74.93	-74.7	-95.4	3.8	8456645	99	39244
2025-01-13 01:07:16.37	191.13	74.73	-74.8	-95.7	3.8	8468124	99	40230
2025-01-13 01:07:16.79	191.22	74.53	-74.7	-95.7	3.8	8444263	99	40275
2025-01-13 01:07:17.20	191.31	74.33	-74.7	-95.6	3.7	8469898	99	39701
2025-01-13 01:07:17.62	191.40	74.13	-74.8	-95.7	3.8	8465950	99	39888
2025-01-13 01:07:18.04	191.49	73.93	-74.7	-95.7	3.8	8465137	99	40356
2025-01-13 01:07:18.45	191.57	73.73	-74.6	-95.6	3.8	8458236	99	40440
2025-01-13 01:07:18.87	191.65	73.53	-74.7	-95.7	3.8	8467128	99	40502
2025-01-13 01:07:19.29	191.74	73.33	-74.7	-95.7	3.8	8462539	99	40384
2025-01-13 01:07:19.70	191.81	73.13	-74.6	-95.6	3.8	8462734	99	40365
2025-01-13 01:07:20.12	191.89	72.93	-74.6	-95.6	3.7	8469818	99	40339
2025-01-13 01:07:20.54	191.96	72.73	-74.6	-95.3	3.8	8455810	99	38993
2025-01-13 01:07:20.96	192.04	72.53	-74.6	-95.6	3.8	8461315	99	40296
2025-01-13 01:07:21.37	192.11	72.33	-74.6	-95.6	3.8	8461761	99	40349
2025-01-13 01:07:21.79	192.18	72.14	-74.6	-95.6	3.8	8469440	99	40372
2025-01-13 01:07:22.21	192.25	71.94	-74.7	-95.4	3.8	8445075	99	39028
2025-01-13 01:07:22.63	192.31	71.74	-74.8	-95.7	3.8	8457733	99	40292
2025-01-13 01:07:23.04	192.38	71.54	-74.8	-95.7	3.8	8460708	99	40258
2025-01-13 01:07:23.46	192.44	71.35	-74.8	-95.6	3.8	8460491	99	39661
2025-01-13 01:07:23.87	192.50	71.15	-74.6	-95.5	3.8	8467643	99	39709
2025-01-13 01:07:24.29	192.56	70.96	-74.7	-95.7	3.8	8460937	99	40420
2025-01-13 01:07:24.71	192.62	70.76	-74.7	-95.7	3.8	8469921	99	40379
2025-01-13 01:07:25.13	192.68	70.56	-74.6	-95.3	3.8	8460960	99	39072
2025-01-13 01:07:25.54	192.74	70.37	-74.7	-95.7	3.8	8460777	99	40448

#Closed at: 2025-01-13 01:07:25