passes_logs/2026/01/05/R2.0S_Moscow/R2.0S_Moscow__20260105_152051_FENGYUN_3E_rec.log

#Pass ID: 20260105_152051_FENGYUN 3E
#Satellite: FENGYUN 3E
#Configuration: FENGYUN 3E
#almurnet v.1.7.20251203
#Start time: 2026-01-05 15:20:52

#Version: 2.2.20231116
#Station: R2.0S_Moscow
#Location: 37.707566 lon 55.798166 lat
#TLE: 1 49008U 21062A   26004.99925679  .00000018  00000+0  29282-4 0  9995
#TLE: 2 49008  98.7472  10.2448 0001540 159.6420 200.4818 14.19883565233423

#Time	Az	El	Level	Level2	SNR	BER	BlckErr	Temp	State	Recorded	gain1	gain2
2026-01-05 15:20:52.28	194.93	2.08	-44.1	-54.8	3.8	8.47e-01	0	47	0	0	59	11945
2026-01-05 15:20:56.32	195.16	2.32	-44.1	-54.8	3.8	8.46e-01	0	48	104	0	59	11910
2026-01-05 15:21:00.36	195.38	2.56	-44.1	-54.8	3.8	8.46e-01	0	48	104	0	59	11926
2026-01-05 15:21:04.40	195.61	2.80	-44.1	-54.8	3.8	8.46e-01	0	48	104	0	59	11909
2026-01-05 15:21:08.45	195.84	3.05	-44.1	-54.8	3.8	8.47e-01	0	48	104	0	59	11922
2026-01-05 15:21:12.49	196.08	3.30	-44.1	-54.8	3.8	8.46e-01	0	49	104	0	59	11920
2026-01-05 15:21:16.54	196.32	3.55	-44.1	-54.8	3.8	8.47e-01	0	49	104	0	59	11954
2026-01-05 15:21:20.58	196.56	3.80	-44.1	-54.8	3.8	8.46e-01	0	49	104	0	59	11952
2026-01-05 15:21:24.62	196.81	4.05	-44.1	-54.8	3.8	8.45e-01	0	49	104	0	59	11879
2026-01-05 15:21:28.66	197.06	4.31	-44.1	-54.7	3.8	8.46e-01	0	50	104	0	59	11818
2026-01-05 15:21:32.71	197.32	4.57	-44.1	-54.7	3.8	8.45e-01	0	50	104	0	59	11768
2026-01-05 15:21:36.75	197.58	4.83	-44.0	-54.6	3.8	8.46e-01	0	50	104	0	59	11607
2026-01-05 15:21:40.80	197.84	5.09	-43.9	-53.8	3.8	8.46e-01	0	50	104	0	58	11276
2026-01-05 15:21:44.84	198.11	5.35	-43.8	-52.9	3.8	8.46e-01	0	51	104	0	58	10175
2026-01-05 15:21:48.88	198.39	5.62	-43.7	-52.8	3.8	8.45e-01	0	51	104	0	58	9961
2026-01-05 15:21:52.93	198.66	5.89	-43.7	-52.7	3.8	8.43e-01	0	51	104	0	58	9892
2026-01-05 15:21:56.97	198.95	6.16	-43.8	-53.2	3.8	8.46e-01	0	51	104	0	58	10478
2026-01-05 15:22:01.02	199.24	6.43	-43.8	-52.9	3.8	8.45e-01	0	52	104	0	58	10142
2026-01-05 15:22:05.06	199.53	6.70	-43.7	-52.3	3.9	8.44e-01	0	52	104	0	58	9450
2026-01-05 15:22:09.10	199.83	6.98	-42.8	-48.6	5.4	7.36e-01	0	52	0	0	56	6883
2026-01-05 15:22:13.15	200.14	7.26	-40.2	-43.5	10.0	1.22e-02	0	52	0	25165824	51	5109
2026-01-05 15:22:17.19	200.45	7.54	-37.5	-40.3	12.8	8.46e-05	0	52	0	54525952	46	4708
2026-01-05 15:22:21.23	200.77	7.83	-36.8	-39.0	14.3	0.00e+00	0	52	0	82837504	44	4578
2026-01-05 15:22:25.28	201.09	8.11	-44.4	-53.7	3.9	8.41e-01	0	53	104	106954752	58	11150
2026-01-05 15:22:29.32	201.42	8.40	-39.8	-42.9	10.6	8.26e-03	0	53	0	131072000	50	5096
2026-01-05 15:22:33.36	201.75	8.69	-37.1	-39.4	14.2	0.00e+00	0	53	0	160432128	45	4506
2026-01-05 15:22:37.40	202.09	8.99	-36.8	-39.0	14.6	0.00e+00	0	53	0	189792256	44	4559
2026-01-05 15:22:41.44	202.44	9.29	-36.6	-38.7	14.9	0.00e+00	0	53	0	219152384	44	4412
2026-01-05 15:22:45.48	202.80	9.59	-36.7	-38.8	14.9	0.00e+00	0	53	0	247463936	44	4444
2026-01-05 15:22:49.52	203.16	9.89	-36.7	-38.7	15.0	0.00e+00	0	53	0	276824064	44	4412
2026-01-05 15:22:53.56	203.53	10.19	-36.3	-38.3	15.4	0.00e+00	0	53	0	306184192	43	4449
2026-01-05 15:22:57.60	203.91	10.50	-36.1	-38.0	15.6	0.00e+00	0	53	0	335544320	42	4589
2026-01-05 15:23:01.64	204.29	10.81	-36.1	-38.0	15.7	0.00e+00	0	54	0	364904448	42	4587
2026-01-05 15:23:05.68	204.69	11.12	-36.0	-37.9	15.9	0.00e+00	0	54	0	393216000	42	4506
2026-01-05 15:23:09.72	205.09	11.44	-35.8	-37.7	16.1	0.00e+00	0	54	0	422576128	42	4399
2026-01-05 15:23:13.77	205.50	11.76	-35.6	-37.5	16.3	0.00e+00	0	54	0	451936256	42	4309
2026-01-05 15:23:17.81	205.92	12.08	-35.5	-37.4	16.4	0.00e+00	0	54	0	481296384	41	4509
2026-01-05 15:23:21.85	206.34	12.41	-35.6	-37.5	16.4	0.00e+00	0	54	0	510656512	41	4551
2026-01-05 15:23:25.89	206.78	12.74	-35.4	-37.4	16.5	0.00e+00	0	54	0	540016640	41	4508
2026-01-05 15:23:29.93	207.23	13.07	-35.4	-37.4	16.5	0.00e+00	0	54	0	568328192	41	4513
2026-01-05 15:23:33.97	207.68	13.40	-35.3	-37.3	16.5	0.00e+00	0	54	0	597688320	41	4456
2026-01-05 15:23:38.00	208.15	13.74	-35.1	-37.1	16.7	0.00e+00	0	54	0	627048448	41	4363
2026-01-05 15:23:42.04	208.62	14.08	-35.0	-37.0	16.7	0.00e+00	0	54	0	656408576	41	4337
2026-01-05 15:23:46.08	209.11	14.42	-35.0	-37.0	16.8	0.00e+00	0	54	0	684720128	40	4548
2026-01-05 15:23:50.12	209.61	14.76	-34.8	-36.7	17.0	0.00e+00	0	55	0	714080256	40	4420
2026-01-05 15:23:54.16	210.12	15.11	-34.7	-36.5	17.3	0.00e+00	0	55	0	743440384	40	4325
2026-01-05 15:23:58.20	210.64	15.46	-34.6	-36.4	17.4	0.00e+00	0	55	0	772800512	40	4288
2026-01-05 15:24:02.24	211.17	15.82	-34.7	-36.5	17.3	0.00e+00	0	55	0	802160640	40	4325
2026-01-05 15:24:06.27	211.72	16.17	-34.7	-36.5	17.4	0.00e+00	0	55	0	831520768	40	4292
2026-01-05 15:24:10.31	212.27	16.53	-34.6	-36.3	17.6	0.00e+00	0	55	0	859832320	40	4232
2026-01-05 15:24:14.36	212.85	16.90	-34.6	-36.3	17.7	0.00e+00	0	55	0	889192448	39	4492
2026-01-05 15:24:18.40	213.43	17.26	-34.3	-35.9	18.2	0.00e+00	0	55	0	918552576	39	4246
2026-01-05 15:24:22.43	214.03	17.63	-34.2	-35.8	18.2	0.00e+00	0	55	0	947912704	39	4236
2026-01-05 15:24:26.47	214.64	18.00	-34.3	-36.0	18.1	1.10e-06	0	55	0	977272832	39	4302
2026-01-05 15:24:30.51	215.27	18.37	-34.1	-35.8	18.2	0.00e+00	0	55	0	1005584384	38	4486
2026-01-05 15:24:34.54	215.91	18.75	-33.9	-35.7	18.3	0.00e+00	0	55	0	1034944512	38	4407
2026-01-05 15:24:38.58	216.57	19.12	-33.8	-35.5	18.4	1.10e-06	0	55	0	1064304640	38	4315
2026-01-05 15:24:42.63	217.25	19.51	-33.5	-35.1	18.8	0.00e+00	0	55	0	1093664768	37	4379
2026-01-05 15:24:46.66	217.94	19.89	-33.7	-35.4	18.5	0.00e+00	0	55	0	1123024896	37	4522
2026-01-05 15:24:50.71	218.65	20.27	-33.8	-35.6	18.3	0.00e+00	0	55	0	1152385024	37	4616
2026-01-05 15:24:54.75	219.38	20.65	-33.7	-35.4	18.5	1.10e-06	0	56	0	1180696576	37	4514
2026-01-05 15:24:58.79	220.12	21.04	-33.7	-35.3	18.6	0.00e+00	0	56	0	1210056704	37	4485
2026-01-05 15:25:02.83	220.88	21.43	-33.7	-35.3	18.6	0.00e+00	0	56	0	1239416832	37	4484
2026-01-05 15:25:06.87	221.67	21.81	-33.7	-35.4	18.6	0.00e+00	0	56	0	1268776960	37	4496
2026-01-05 15:25:10.91	222.47	22.20	-33.7	-35.4	18.6	0.00e+00	0	56	0	1298137088	37	4527
2026-01-05 15:25:14.95	223.29	22.59	-33.6	-35.2	18.8	0.00e+00	0	56	0	1326448640	37	4429
2026-01-05 15:25:18.99	224.13	22.98	-33.6	-35.3	18.7	9.10e-06	0	56	0	1355808768	37	4490
2026-01-05 15:25:23.03	224.99	23.36	-33.5	-35.2	18.8	1.10e-06	0	56	0	1385168896	37	4405
2026-01-05 15:25:27.07	225.87	23.75	-33.2	-34.8	19.1	0.00e+00	0	56	0	1414529024	37	4241
2026-01-05 15:25:31.11	226.77	24.13	-33.2	-35.0	18.9	0.00e+00	0	56	0	1443889152	37	4294
2026-01-05 15:25:35.15	227.70	24.52	-33.4	-35.1	18.8	0.00e+00	0	56	0	1473249280	37	4359
2026-01-05 15:25:39.20	228.65	24.90	-33.3	-35.0	18.9	0.00e+00	0	56	0	1501560832	37	4317
2026-01-05 15:25:43.24	229.62	25.27	-33.3	-35.0	18.9	0.00e+00	0	56	0	1530920960	37	4324
2026-01-05 15:25:47.28	230.61	25.65	-33.1	-34.7	19.2	0.00e+00	0	56	0	1560281088	37	4174
2026-01-05 15:25:51.32	231.63	26.02	-33.2	-34.9	19.0	0.00e+00	0	56	0	1589641216	37	4245
2026-01-05 15:25:55.36	232.67	26.38	-32.9	-34.6	19.3	0.00e+00	0	56	0	1619001344	36	4352
2026-01-05 15:25:59.40	233.73	26.74	-33.0	-34.7	19.3	0.00e+00	0	56	0	1647312896	36	4394
2026-01-05 15:26:03.44	234.82	27.10	-33.0	-34.7	19.3	0.00e+00	0	56	0	1676673024	36	4402
2026-01-05 15:26:07.48	235.93	27.45	-32.9	-34.6	19.4	0.00e+00	0	56	0	1706033152	36	4348
2026-01-05 15:26:11.52	237.06	27.79	-32.9	-34.6	19.3	0.00e+00	0	56	0	1735393280	36	4352
2026-01-05 15:26:15.56	238.22	28.12	-32.8	-34.4	19.4	0.00e+00	0	56	0	1764753408	36	4265
2026-01-05 15:26:19.60	239.40	28.44	-33.0	-34.7	19.2	0.00e+00	0	56	0	1794113536	36	4407
2026-01-05 15:26:23.64	240.61	28.76	-32.9	-34.5	19.3	0.00e+00	0	56	0	1822425088	36	4328
2026-01-05 15:26:27.68	241.83	29.06	-32.8	-34.5	19.5	0.00e+00	0	56	0	1851785216	36	4296
2026-01-05 15:26:31.72	243.08	29.35	-32.8	-34.5	19.5	0.00e+00	0	56	0	1881145344	36	4299
2026-01-05 15:26:35.76	244.36	29.64	-32.9	-34.6	19.3	0.00e+00	0	56	0	1910505472	36	4348
2026-01-05 15:26:39.79	245.65	29.90	-32.9	-34.6	19.3	0.00e+00	0	56	0	1939865600	36	4353
2026-01-05 15:26:43.84	246.96	30.16	-32.8	-34.5	19.3	0.00e+00	0	57	0	1968177152	36	4313
2026-01-05 15:26:47.87	248.29	30.40	-32.9	-34.5	19.4	0.00e+00	0	56	0	1997537280	36	4329
2026-01-05 15:26:51.91	249.65	30.62	-32.6	-34.2	19.6	0.00e+00	0	56	0	2026897408	36	4183
2026-01-05 15:26:55.96	251.02	30.83	-32.7	-34.4	19.5	0.00e+00	0	57	0	2056257536	36	4265
2026-01-05 15:26:59.99	252.40	31.02	-32.8	-34.5	19.3	0.00e+00	0	56	0	2085617664	36	4318
2026-01-05 15:27:04.03	253.81	31.20	-33.3	-34.4	20.3	0.00e+00	0	56	0	2114977792	36	4246
2026-01-05 15:27:08.07	255.22	31.36	-33.3	-34.3	20.4	0.00e+00	0	56	0	2143289344	36	4220
2026-01-05 15:27:12.11	256.65	31.50	-33.2	-34.2	20.5	0.00e+00	0	56	0	2172649472	36	4163
2026-01-05 15:27:16.15	258.09	31.62	-33.1	-34.1	20.6	0.00e+00	0	56	0	2202009600	36	4101
2026-01-05 15:27:20.19	259.54	31.72	-33.4	-34.4	20.3	0.00e+00	0	56	0	2231369728	36	4283
2026-01-05 15:27:24.23	261.00	31.80	-33.2	-34.2	20.5	0.00e+00	0	56	0	2259681280	36	4171
2026-01-05 15:27:28.27	262.47	31.86	-33.5	-34.5	20.2	0.00e+00	0	56	0	2289041408	36	4307
2026-01-05 15:27:32.31	263.93	31.90	-33.3	-34.3	20.4	0.00e+00	0	56	0	2318401536	36	4239
2026-01-05 15:27:36.35	265.41	31.92	-33.2	-34.2	20.5	0.00e+00	0	56	0	2347761664	36	4178
2026-01-05 15:27:40.39	266.88	31.92	-33.1	-34.0	20.7	0.00e+00	0	56	0	2377121792	36	4089
2026-01-05 15:27:44.43	268.35	31.90	-32.9	-33.9	20.8	0.00e+00	0	56	0	2405433344	36	4014
2026-01-05 15:27:48.47	269.82	31.86	-33.2	-34.2	20.5	0.00e+00	0	57	0	2434793472	36	4186
2026-01-05 15:27:52.52	271.28	31.80	-33.4	-34.4	20.3	0.00e+00	0	56	0	2464153600	36	4280
2026-01-05 15:27:56.56	272.74	31.72	-33.3	-34.3	20.4	0.00e+00	0	57	0	2493513728	36	4220
2026-01-05 15:28:00.60	274.19	31.62	-33.4	-34.4	20.3	0.00e+00	0	57	0	2522873856	36	4291
2026-01-05 15:28:04.64	275.63	31.50	-33.1	-34.0	20.7	0.00e+00	0	56	0	2552233984	36	4091
2026-01-05 15:28:08.69	277.06	31.36	-33.3	-34.3	20.4	0.00e+00	0	57	0	2581594112	36	4235
2026-01-05 15:28:12.73	278.47	31.20	-33.2	-34.2	20.5	0.00e+00	0	57	0	2609905664	36	4180
2026-01-05 15:28:16.77	279.87	31.02	-33.5	-34.5	20.2	0.00e+00	0	57	0	2639265792	36	4300
2026-01-05 15:28:20.80	281.25	30.83	-33.5	-34.5	20.2	0.00e+00	0	57	0	2668625920	36	4333
2026-01-05 15:28:24.85	282.62	30.62	-33.4	-34.4	20.3	0.00e+00	0	57	0	2697986048	36	4275
2026-01-05 15:28:28.89	283.97	30.40	-33.4	-34.4	20.3	0.00e+00	0	57	0	2727346176	36	4268
2026-01-05 15:28:32.93	285.30	30.16	-33.5	-34.5	20.2	0.00e+00	0	57	0	2755657728	36	4337
2026-01-05 15:28:36.97	286.61	29.90	-33.4	-34.3	19.9	0.00e+00	0	57	0	2785017856	36	4241
2026-01-05 15:28:41.01	287.90	29.64	-33.4	-34.4	20.3	0.00e+00	0	57	0	2814377984	36	4260
2026-01-05 15:28:45.04	289.17	29.36	-33.5	-34.5	20.2	0.00e+00	0	57	0	2843738112	36	4321
2026-01-05 15:28:49.08	290.41	29.07	-33.5	-34.5	20.2	0.00e+00	0	57	0	2872049664	36	4307
2026-01-05 15:28:53.12	291.63	28.76	-33.5	-34.5	20.2	0.00e+00	0	57	0	2901409792	36	4299
2026-01-05 15:28:57.17	292.84	28.45	-33.5	-34.5	20.1	0.00e+00	0	57	0	2930769920	36	4332
2026-01-05 15:29:01.20	294.01	28.13	-33.5	-34.5	20.1	0.00e+00	0	57	0	2960130048	36	4337
2026-01-05 15:29:05.25	295.17	27.80	-33.5	-34.6	20.1	0.00e+00	0	57	0	2989490176	37	4101
2026-01-05 15:29:09.29	296.30	27.46	-33.5	-34.5	20.1	0.00e+00	0	57	0	3018850304	37	4097
2026-01-05 15:29:13.33	297.40	27.11	-33.8	-34.8	19.8	0.00e+00	0	57	0	3047161856	37	4237
2026-01-05 15:29:17.37	298.49	26.76	-33.6	-34.6	20.0	0.00e+00	0	57	0	3076521984	37	4143
2026-01-05 15:29:21.41	299.55	26.40	-33.7	-34.7	19.9	0.00e+00	0	57	0	3105882112	37	4174
2026-01-05 15:29:25.45	300.58	26.04	-33.7	-34.7	19.9	0.00e+00	0	57	0	3135242240	37	4168
2026-01-05 15:29:29.49	301.59	25.67	-33.7	-34.8	19.8	0.00e+00	0	57	0	3164602368	37	4201
2026-01-05 15:29:33.53	302.58	25.30	-34.0	-35.1	19.6	0.00e+00	0	57	0	3192913920	37	4341
2026-01-05 15:29:37.57	303.55	24.93	-34.1	-35.2	19.4	0.00e+00	0	57	0	3222274048	37	4410
2026-01-05 15:29:41.62	304.50	24.55	-33.8	-34.8	19.7	0.00e+00	0	57	0	3251634176	37	4235
2026-01-05 15:29:45.65	305.42	24.17	-33.9	-34.9	19.6	0.00e+00	0	57	0	3280994304	37	4286
2026-01-05 15:29:49.69	306.32	23.79	-34.2	-35.2	19.3	0.00e+00	0	57	0	3310354432	37	4429
2026-01-05 15:29:53.74	307.20	23.40	-34.2	-35.3	19.3	0.00e+00	0	57	0	3339714560	38	4207
2026-01-05 15:29:57.78	308.06	23.02	-34.2	-35.2	19.3	0.00e+00	0	57	0	3368026112	38	4190
2026-01-05 15:30:01.81	308.89	22.63	-34.0	-35.1	19.4	0.00e+00	0	57	0	3397386240	38	4118
2026-01-05 15:30:05.85	309.71	22.25	-34.3	-35.4	19.2	0.00e+00	0	57	0	3426746368	38	4260
2026-01-05 15:30:09.89	310.51	21.87	-34.6	-35.8	18.8	0.00e+00	0	57	0	3456106496	38	4445
2026-01-05 15:30:13.93	311.29	21.48	-34.6	-35.7	18.8	0.00e+00	0	57	0	3485466624	39	4167
2026-01-05 15:30:17.98	312.05	21.10	-34.4	-35.5	19.0	0.00e+00	0	57	0	3513778176	39	4075
2026-01-05 15:30:22.02	312.79	20.71	-34.6	-35.7	18.8	0.00e+00	0	57	0	3543138304	39	4181
2026-01-05 15:30:26.06	313.52	20.33	-35.0	-36.1	18.4	0.00e+00	0	57	0	3572498432	39	4382
2026-01-05 15:30:30.10	314.22	19.95	-35.0	-36.2	18.3	0.00e+00	0	57	0	3601858560	39	4411
2026-01-05 15:30:34.14	314.91	19.58	-34.7	-35.9	18.6	0.00e+00	0	57	0	3631218688	39	4257
2026-01-05 15:30:38.18	315.59	19.20	-34.6	-35.7	18.8	0.00e+00	0	57	0	3659530240	39	4151
2026-01-05 15:30:42.22	316.25	18.83	-34.7	-35.8	18.7	0.00e+00	0	57	0	3688890368	39	4218
2026-01-05 15:30:46.26	316.89	18.45	-35.2	-36.4	18.0	0.00e+00	0	57	0	3718250496	40	4253
2026-01-05 15:30:50.30	317.52	18.08	-35.6	-36.8	17.6	0.00e+00	0	57	0	3747610624	40	4467
2026-01-05 15:30:54.34	318.13	17.72	-35.4	-36.6	17.8	0.00e+00	0	57	0	3776970752	40	4370
2026-01-05 15:30:58.38	318.73	17.35	-35.1	-36.3	18.0	0.00e+00	0	57	0	3806330880	40	4229
2026-01-05 15:31:02.42	319.31	16.99	-35.1	-36.3	18.0	0.00e+00	0	57	0	3834642432	40	4233
2026-01-05 15:31:06.47	319.88	16.63	-35.4	-36.7	17.6	0.00e+00	0	57	0	3864002560	40	4408
2026-01-05 15:31:10.51	320.44	16.27	-35.4	-36.6	17.7	0.00e+00	0	57	0	3893362688	40	4380
2026-01-05 15:31:14.55	320.99	15.92	-35.8	-37.1	17.2	0.00e+00	0	57	0	3922722816	41	4341
2026-01-05 15:31:18.59	321.52	15.57	-36.1	-37.4	16.9	0.00e+00	0	57	0	3952082944	41	4510
2026-01-05 15:31:22.63	322.04	15.22	-35.9	-37.2	17.0	0.00e+00	0	57	0	3980394496	41	4428
2026-01-05 15:31:26.66	322.55	14.87	-35.4	-36.7	17.5	0.00e+00	0	57	0	4009754624	41	4166
2026-01-05 15:31:30.70	323.05	14.53	-35.5	-36.8	17.5	0.00e+00	0	57	0	4039114752	41	4195
2026-01-05 15:31:34.74	323.54	14.19	-35.6	-36.9	17.3	0.00e+00	0	57	0	4068474880	41	4246
2026-01-05 15:31:38.78	324.01	13.85	-35.8	-37.1	17.1	0.00e+00	0	57	0	4097835008	41	4357
2026-01-05 15:31:42.81	324.48	13.52	-36.1	-37.4	16.7	0.00e+00	0	57	0	4127195136	41	4532
2026-01-05 15:31:46.85	324.94	13.19	-36.1	-37.4	16.7	0.00e+00	0	57	0	4155506688	41	4532
2026-01-05 15:31:50.90	325.39	12.86	-36.0	-37.3	16.8	0.00e+00	0	57	0	4184866816	41	4480
2026-01-05 15:31:54.93	325.82	12.53	-36.2	-37.6	16.5	0.00e+00	0	57	0	4214226944	42	4364
2026-01-05 15:31:58.97	326.25	12.21	-36.4	-37.7	16.3	0.00e+00	0	57	0	4243587072	42	4436
2026-01-05 15:32:03.01	326.67	11.89	-36.4	-37.9	16.2	0.00e+00	0	57	0	4272947200	42	4494
2026-01-05 15:32:07.05	327.08	11.58	-36.4	-37.9	16.2	0.00e+00	0	57	0	4301258752	42	4497
2026-01-05 15:32:11.09	327.48	11.26	-36.5	-37.9	16.1	0.00e+00	0	57	0	4330618880	42	4513
2026-01-05 15:32:15.14	327.88	10.95	-36.4	-37.8	16.2	0.00e+00	0	57	0	4359979008	42	4445
2026-01-05 15:32:19.17	328.27	10.64	-36.4	-37.8	16.2	0.00e+00	0	57	0	4389339136	42	4485
2026-01-05 15:32:23.22	328.65	10.34	-36.6	-38.1	15.8	0.00e+00	0	57	0	4418699264	42	4622
2026-01-05 15:32:27.26	329.02	10.03	-36.8	-38.3	15.6	0.00e+00	0	57	0	4448059392	43	4444
2026-01-05 15:32:31.30	329.38	9.73	-36.9	-38.4	15.4	0.00e+00	0	57	0	4476370944	43	4522
2026-01-05 15:32:35.34	329.74	9.44	-36.9	-38.5	15.3	0.00e+00	0	57	0	4505731072	43	4562
2026-01-05 15:32:39.39	330.09	9.14	-37.0	-38.6	15.2	0.00e+00	0	57	0	4535091200	43	4620
2026-01-05 15:32:43.43	330.44	8.85	-37.0	-38.6	15.1	0.00e+00	0	57	0	4564451328	43	4625
2026-01-05 15:32:47.47	330.77	8.56	-37.1	-38.7	15.1	0.00e+00	0	57	0	4593811456	43	4663
2026-01-05 15:32:51.51	331.11	8.27	-37.4	-39.1	14.7	0.00e+00	0	57	0	4622123008	44	4623
2026-01-05 15:32:55.55	331.43	7.99	-39.0	-41.1	12.8	0.00e+00	0	57	0	4651483136	47	4904
2026-01-05 15:32:59.60	331.75	7.70	-45.3	-56.3	3.8	8.47e-01	0	57	104	4652531712	60	13409
2026-01-05 15:33:03.64	332.06	7.42	-45.5	-56.6	3.8	8.45e-01	0	57	104	4652531712	60	13779
2026-01-05 15:33:07.69	332.37	7.15	-45.4	-56.5	3.8	8.47e-01	0	57	104	4652531712	60	13586
2026-01-05 15:33:11.73	332.68	6.87	-45.4	-56.5	3.8	8.47e-01	0	57	104	4652531712	60	13588
2026-01-05 15:33:15.77	332.97	6.60	-45.4	-56.4	3.8	8.46e-01	0	57	104	4652531712	60	13529
2026-01-05 15:33:19.81	333.27	6.33	-45.4	-56.4	3.8	8.47e-01	0	57	104	4652531712	60	13470
2026-01-05 15:33:23.85	333.55	6.06	-45.4	-56.4	3.8	8.45e-01	0	57	104	4652531712	60	13531
2026-01-05 15:33:27.90	333.84	5.79	-45.3	-56.4	3.8	8.44e-01	0	57	104	4652531712	60	13527
2026-01-05 15:33:31.94	334.11	5.53	-45.3	-56.4	3.8	8.45e-01	0	57	104	4652531712	60	13490
2026-01-05 15:33:35.99	334.39	5.27	-45.3	-56.4	3.8	8.47e-01	0	57	104	4652531712	60	13522
2026-01-05 15:33:40.03	334.66	5.01	-45.3	-56.4	3.8	8.46e-01	0	57	104	4652531712	60	13475
2026-01-05 15:33:44.07	334.92	4.75	-45.3	-56.4	3.8	8.47e-01	0	58	104	4652531712	60	13471
2026-01-05 15:33:48.12	335.18	4.50	-45.3	-56.4	3.8	8.46e-01	0	57	104	4652531712	60	13472
2026-01-05 15:33:52.16	335.44	4.24	-45.3	-56.3	3.8	8.46e-01	0	57	104	4652531712	60	13376
2026-01-05 15:33:56.21	335.69	3.99	-45.3	-56.4	3.8	8.47e-01	0	57	104	4652531712	60	13464
2026-01-05 15:34:00.25	335.94	3.74	-45.0	-56.3	3.8	8.45e-01	0	57	104	4652531712	60	13361
2026-01-05 15:34:04.29	336.18	3.49	-45.3	-56.4	3.8	8.46e-01	0	57	104	4652531712	60	13462
2026-01-05 15:34:08.34	336.42	3.25	-45.3	-56.4	3.8	8.46e-01	0	57	104	4652531712	60	13443
2026-01-05 15:34:12.38	336.66	3.00	-45.3	-56.4	3.8	8.46e-01	0	58	104	4652531712	60	13462
2026-01-05 15:34:16.43	336.89	2.76	-45.3	-56.4	3.8	8.46e-01	0	57	104	4652531712	60	13436
2026-01-05 15:34:20.47	337.12	2.52	-45.3	-56.4	3.8	8.47e-01	0	57	104	4652531712	60	13417
2026-01-05 15:34:24.51	337.35	2.28	-45.3	-56.4	3.8	8.45e-01	0	57	104	4652531712	60	13467
2026-01-05 15:34:28.55	337.57	2.04	-45.3	-56.4	3.8	8.46e-01	0	57	104	4652531712	60	13461

#Closed at: 2026-01-05 15:34:30
#Recorded file [4652 MB]: D:/lorett/data/31039_260105_182052.dat