passes_logs/2026/01/05/R2.0S_Moscow/R2.0S_Moscow__20260105_084327_NOAA_21_JPSS-2_rec.log

#Pass ID: 20260105_084327_NOAA 21 (JPSS-2)
#Satellite: NOAA 21 (JPSS-2)
#Configuration: NOAA-21
#almurnet v.1.7.20251203
#Start time: 2026-01-05 08:43:51

#Version: 2.2.20231116
#Station: R2.0S_Moscow
#Location: 37.707566 lon 55.798166 lat
#TLE: 1 54234U 22150A   26004.22845673  .00000174  00000+0  10347-3 0  9996
#TLE: 2 54234  98.7489 305.2591 0001115 345.0884  15.0259 14.19531906163281

#Time	Az	El	Level	Level2	SNR	BER	BlckErr	Temp	State	Recorded	gain1	gain2
2026-01-05 08:43:51.63	124.53	3.50	-44.7	-57.3	3.8	1.49e+00	0	55	0	0	60	15917
2026-01-05 08:43:55.57	124.31	3.74	-45.1	-57.6	3.8	1.49e+00	0	55	104	0	61	15525
2026-01-05 08:43:59.61	124.09	4.00	-44.8	-57.2	3.8	1.49e+00	0	55	104	0	61	14860
2026-01-05 08:44:03.65	123.86	4.26	-15.9	-35.3	4.5	1.50e+00	0	56	104	0	12	19905
2026-01-05 08:44:07.70	123.63	4.52	-23.3	-44.0	4.1	1.50e+00	0	56	104	0	17	40755
2026-01-05 08:44:11.74	123.39	4.79	-22.2	-45.9	4.2	1.50e+00	0	56	104	0	18	47724
2026-01-05 08:44:15.78	123.15	5.05	-22.6	-45.2	4.2	1.50e+00	0	56	104	0	17	46783
2026-01-05 08:44:19.83	122.90	5.32	-24.8	-45.7	4.1	1.50e+00	0	56	104	0	18	47036
2026-01-05 08:44:23.87	122.65	5.59	-20.6	-37.7	3.6	1.50e+00	0	56	104	0	11	27765
2026-01-05 08:44:27.91	122.40	5.86	-8.7	-37.5	3.2	1.50e+00	0	56	104	0	2	45639
2026-01-05 08:44:31.96	122.13	6.14	-22.9	-43.0	3.4	1.50e+00	0	56	104	0	15	40808
2026-01-05 08:44:36.00	121.87	6.42	-10.2	-32.2	3.7	1.50e+00	0	56	104	0	10	15705
2026-01-05 08:44:40.04	121.60	6.69	-22.7	-44.9	4.8	1.50e+00	0	56	104	0	13	56990
2026-01-05 08:44:44.09	121.32	6.98	-24.0	-44.0	3.6	1.50e+00	0	56	104	0	16	43289
2026-01-05 08:44:48.13	121.04	7.26	-23.7	-41.4	3.8	1.50e+00	0	56	104	0	14	35828
2026-01-05 08:44:52.18	120.75	7.55	-10.1	-31.5	4.0	1.50e+00	0	56	104	0	11	13595
2026-01-05 08:44:56.22	120.46	7.84	-20.8	-41.0	4.3	1.48e+00	0	56	104	0	14	34442
2026-01-05 08:45:00.27	120.16	8.13	-23.9	-40.9	4.8	1.47e+00	0	56	104	0	15	31815
2026-01-05 08:45:04.31	119.85	8.43	-22.2	-39.1	4.1	1.50e+00	0	56	104	0	9	36611
2026-01-05 08:45:08.35	119.54	8.72	-23.1	-38.4	4.0	1.49e+00	0	56	104	0	12	28430
2026-01-05 08:45:12.39	119.22	9.02	-23.3	-41.0	4.1	1.50e+00	0	56	104	0	13	36478
2026-01-05 08:45:16.43	118.89	9.33	-24.5	-38.9	5.1	1.44e+00	0	56	104	0	17	22668
2026-01-05 08:45:20.47	118.56	9.63	-22.4	-40.0	4.8	1.46e+00	0	56	104	0	17	25667
2026-01-05 08:45:24.51	118.22	9.94	-16.6	-33.9	4.6	1.45e+00	0	56	104	0	18	12060
2026-01-05 08:45:28.55	117.87	10.25	-20.9	-35.7	4.0	1.46e+00	0	56	104	0	13	19786
2026-01-05 08:45:32.59	117.51	10.56	-36.2	-43.7	5.7	1.27e+00	17	56	104	0	36	13117
2026-01-05 08:45:36.63	117.15	10.88	-36.8	-48.8	4.2	1.45e+00	0	56	104	0	45	14205
2026-01-05 08:45:40.67	116.78	11.20	-36.7	-44.7	6.7	2.78e-01	12	56	0	3145728	45	8796
2026-01-05 08:45:44.71	116.40	11.52	-36.6	-45.1	7.9	3.36e-01	7	56	0	7340032	48	7733
2026-01-05 08:45:48.75	116.01	11.85	-37.5	-40.8	11.1	3.73e-02	0	56	0	18874368	43	6302
2026-01-05 08:45:52.79	115.61	12.18	-36.2	-39.6	12.7	1.56e-02	0	56	0	31457280	42	5801
2026-01-05 08:45:56.82	115.20	12.51	-31.2	-39.2	12.4	4.99e-02	0	56	0	44040192	41	5909
2026-01-05 08:46:00.86	114.79	12.85	-37.0	-39.5	15.1	3.80e-03	0	56	0	56623104	44	5108
2026-01-05 08:46:04.90	114.36	13.19	-37.1	-39.3	15.5	4.90e-03	0	56	0	69206016	45	4742
2026-01-05 08:46:08.94	113.92	13.53	-37.6	-39.4	15.7	3.90e-04	0	56	0	81788928	45	4798
2026-01-05 08:46:12.98	113.48	13.87	-37.6	-39.4	15.8	1.50e-06	0	56	0	94371840	45	4813
2026-01-05 08:46:17.01	113.02	14.22	-37.5	-39.2	16.1	0.00e+00	0	57	0	106954752	46	4441
2026-01-05 08:46:21.05	112.55	14.57	-37.4	-39.1	16.1	7.00e-07	0	56	0	119537664	45	4642
2026-01-05 08:46:25.09	112.07	14.92	-37.4	-39.1	16.2	0.00e+00	0	57	0	132120576	45	4645
2026-01-05 08:46:29.14	111.58	15.28	-37.4	-39.2	16.2	2.05e-04	0	56	0	144703488	45	4656
2026-01-05 08:46:33.17	111.07	15.64	-37.5	-39.2	16.1	0.00e+00	0	57	0	157286400	45	4695
2026-01-05 08:46:37.22	110.56	16.00	-37.6	-39.3	16.1	0.00e+00	0	56	0	169869312	45	4724
2026-01-05 08:46:41.25	110.03	16.37	-37.7	-39.4	16.1	0.00e+00	0	56	0	183500800	45	4770
2026-01-05 08:46:45.29	109.48	16.74	-37.7	-39.4	16.0	0.00e+00	0	57	0	196083712	46	4524
2026-01-05 08:46:49.33	108.93	17.11	-37.7	-39.4	16.1	0.00e+00	0	56	0	208666624	46	4520
2026-01-05 08:46:53.37	108.36	17.49	-37.5	-39.1	16.4	0.00e+00	0	56	0	221249536	46	4369
2026-01-05 08:46:57.41	107.77	17.86	-37.5	-39.2	16.3	0.00e+00	0	56	0	233832448	46	4403
2026-01-05 08:47:01.45	107.17	18.24	-37.4	-39.1	16.4	0.00e+00	0	56	0	246415360	46	4349
2026-01-05 08:47:05.49	106.55	18.63	-37.3	-38.9	16.6	0.00e+00	0	57	0	258998272	46	4260
2026-01-05 08:47:09.53	105.92	19.01	-37.3	-38.8	16.7	0.00e+00	0	57	0	271581184	46	4240
2026-01-05 08:47:13.57	105.27	19.40	-37.1	-38.7	16.8	0.00e+00	0	57	0	284164096	46	4150
2026-01-05 08:47:17.62	104.61	19.79	-37.0	-38.6	16.9	0.00e+00	0	56	0	296747008	46	4120
2026-01-05 08:47:21.66	103.92	20.18	-37.0	-38.6	16.9	0.00e+00	0	57	0	309329920	46	4108
2026-01-05 08:47:25.70	103.22	20.58	-36.8	-38.3	17.2	0.00e+00	0	57	0	321912832	45	4205
2026-01-05 08:47:29.74	102.50	20.97	-36.8	-38.3	17.2	0.00e+00	0	56	0	334495744	45	4199
2026-01-05 08:47:33.77	101.77	21.37	-36.9	-38.4	17.2	0.00e+00	0	57	0	347078656	45	4259
2026-01-05 08:47:37.81	101.01	21.76	-36.8	-38.3	17.3	0.00e+00	0	57	0	359661568	45	4221
2026-01-05 08:47:41.85	100.23	22.16	-36.9	-38.4	17.2	0.00e+00	0	56	0	372244480	45	4250
2026-01-05 08:47:45.89	99.44	22.56	-36.9	-38.5	17.1	0.00e+00	0	56	0	384827392	45	4300
2026-01-05 08:47:49.94	98.62	22.96	-36.7	-38.1	17.4	0.00e+00	0	57	0	397410304	45	4135
2026-01-05 08:47:53.98	97.78	23.36	-36.8	-38.4	17.2	0.00e+00	0	57	0	409993216	45	4245
2026-01-05 08:47:58.01	96.92	23.75	-36.5	-37.9	17.7	0.00e+00	0	56	0	422576128	44	4261
2026-01-05 08:48:02.05	96.04	24.15	-36.5	-37.9	17.6	0.00e+00	0	56	0	435159040	44	4278
2026-01-05 08:48:06.09	95.13	24.55	-36.5	-38.0	17.6	0.00e+00	0	57	0	447741952	44	4303
2026-01-05 08:48:10.13	94.20	24.94	-36.8	-38.2	17.3	0.00e+00	0	57	0	460324864	44	4438
2026-01-05 08:48:14.16	93.25	25.33	-37.2	-38.8	16.9	0.00e+00	0	57	0	472907776	44	4707
2026-01-05 08:48:18.20	92.27	25.71	-37.0	-38.5	17.1	0.00e+00	0	57	0	485490688	45	4337
2026-01-05 08:48:22.24	91.27	26.10	-37.0	-38.5	17.1	0.00e+00	0	57	0	499122176	45	4304
2026-01-05 08:48:26.28	90.25	26.48	-37.1	-38.6	17.0	0.00e+00	0	57	0	510656512	45	4366
2026-01-05 08:48:30.31	89.20	26.85	-37.3	-38.9	16.7	0.00e+00	0	57	0	524288000	45	4528
2026-01-05 08:48:34.36	88.13	27.22	-37.3	-38.9	16.8	0.00e+00	0	56	0	536870912	45	4500
2026-01-05 08:48:38.40	87.03	27.58	-37.3	-38.9	16.8	0.00e+00	0	57	0	549453824	45	4505
2026-01-05 08:48:42.44	85.90	27.93	-37.0	-38.5	17.2	0.00e+00	0	57	0	562036736	45	4332
2026-01-05 08:48:46.47	84.76	28.28	-37.3	-38.9	16.8	0.00e+00	0	57	0	574619648	45	4519
2026-01-05 08:48:50.51	83.58	28.61	-37.4	-38.9	16.8	0.00e+00	0	56	0	587202560	45	4539
2026-01-05 08:48:54.55	82.39	28.94	-37.4	-38.9	16.8	0.00e+00	0	57	0	599785472	45	4529
2026-01-05 08:48:58.59	81.16	29.26	-37.3	-38.8	17.0	0.00e+00	0	57	0	612368384	45	4468
2026-01-05 08:49:02.63	79.92	29.56	-37.2	-38.7	17.1	0.00e+00	0	57	0	624951296	45	4409
2026-01-05 08:49:06.66	78.65	29.85	-37.5	-39.1	16.7	0.00e+00	0	57	0	637534208	45	4644
2026-01-05 08:49:10.70	77.36	30.13	-37.6	-39.2	16.6	0.00e+00	0	57	0	650117120	45	4668
2026-01-05 08:49:14.74	76.04	30.40	-37.7	-39.3	16.5	0.00e+00	0	57	0	662700032	45	4741
2026-01-05 08:49:18.78	74.71	30.65	-37.5	-39.0	16.8	0.00e+00	0	57	0	675282944	45	4593
2026-01-05 08:49:22.82	73.35	30.88	-37.7	-39.3	16.5	0.00e+00	0	57	0	687865856	46	4486
2026-01-05 08:49:26.86	71.98	31.10	-37.9	-39.5	16.4	0.00e+00	0	57	0	700448768	46	4576
2026-01-05 08:49:30.89	70.59	31.30	-38.1	-39.9	16.1	0.00e+00	0	57	0	713031680	46	4760
2026-01-05 08:49:34.93	69.18	31.48	-38.2	-39.9	16.0	0.00e+00	0	57	0	725614592	47	4513
2026-01-05 08:49:38.97	67.76	31.65	-38.2	-39.9	16.0	0.00e+00	0	57	0	738197504	47	4531
2026-01-05 08:49:43.01	66.32	31.79	-37.7	-39.3	16.6	0.00e+00	0	57	0	750780416	47	4216
2026-01-05 08:49:47.04	64.88	31.92	-37.8	-39.4	16.5	0.00e+00	0	57	0	763363328	47	4260
2026-01-05 08:49:51.08	63.42	32.02	-38.2	-39.9	16.1	0.00e+00	0	57	0	775946240	47	4510
2026-01-05 08:49:55.13	61.94	32.10	-38.0	-39.7	16.3	0.00e+00	0	57	0	788529152	47	4413
2026-01-05 08:49:59.17	60.47	32.17	-38.1	-39.9	16.1	0.00e+00	0	57	0	801112064	47	4500
2026-01-05 08:50:03.21	58.99	32.21	-38.3	-40.1	15.9	0.00e+00	0	57	0	813694976	47	4629
2026-01-05 08:50:07.25	57.51	32.23	-38.3	-40.0	16.0	0.00e+00	0	57	0	826277888	47	4563
2026-01-05 08:50:11.29	56.03	32.22	-38.0	-39.7	16.3	0.00e+00	0	57	0	839909376	47	4406
2026-01-05 08:50:15.33	54.55	32.20	-38.2	-39.9	16.1	0.00e+00	0	57	0	852492288	47	4506
2026-01-05 08:50:19.37	53.07	32.15	-38.0	-39.6	16.4	0.00e+00	0	57	0	865075200	47	4371
2026-01-05 08:50:23.41	51.60	32.09	-38.1	-39.8	16.2	0.00e+00	0	57	0	877658112	47	4473
2026-01-05 08:50:27.45	50.13	32.00	-38.0	-39.7	16.3	0.00e+00	0	57	0	890241024	47	4398
2026-01-05 08:50:31.49	48.68	31.89	-38.2	-39.9	16.1	0.00e+00	0	57	0	902823936	47	4519
2026-01-05 08:50:35.52	47.24	31.76	-38.0	-39.7	16.4	0.00e+00	0	57	0	915406848	47	4395
2026-01-05 08:50:39.56	45.80	31.61	-37.9	-39.6	16.4	0.00e+00	0	57	0	927989760	47	4357
2026-01-05 08:50:43.60	44.39	31.44	-38.2	-39.9	16.0	0.00e+00	0	57	0	940572672	47	4539
2026-01-05 08:50:47.63	42.99	31.26	-37.7	-39.3	16.6	0.00e+00	0	57	0	953155584	47	4230
2026-01-05 08:50:51.67	41.60	31.06	-38.7	-40.5	15.5	0.00e+00	0	57	0	965738496	47	4857
2026-01-05 08:50:55.71	40.23	30.83	-37.7	-39.3	16.6	0.00e+00	0	57	0	978321408	47	4227
2026-01-05 08:50:59.75	38.89	30.60	-37.9	-39.6	16.4	0.00e+00	0	57	0	990904320	46	4626
2026-01-05 08:51:03.79	37.56	30.34	-37.9	-39.6	16.4	0.00e+00	0	57	0	1003487232	46	4621
2026-01-05 08:51:07.83	36.25	30.08	-37.7	-39.3	16.7	0.00e+00	0	57	0	1016070144	46	4455
2026-01-05 08:51:11.87	34.97	29.79	-37.5	-39.1	16.9	0.00e+00	0	57	0	1028653056	46	4365
2026-01-05 08:51:15.92	33.71	29.50	-38.1	-39.8	16.2	0.00e+00	0	57	0	1041235968	46	4728
2026-01-05 08:51:19.96	32.47	29.19	-38.0	-39.7	16.2	0.00e+00	0	57	0	1053818880	47	4418
2026-01-05 08:51:24.00	31.26	28.88	-37.8	-39.4	16.5	0.00e+00	0	57	0	1066401792	47	4274
2026-01-05 08:51:28.04	30.07	28.55	-38.5	-40.4	15.6	0.00e+00	0	57	0	1078984704	47	4764
2026-01-05 08:51:32.07	28.91	28.21	-37.8	-39.4	16.5	0.00e+00	0	57	0	1091567616	47	4288
2026-01-05 08:51:36.11	27.77	27.87	-37.9	-39.6	16.4	0.00e+00	0	57	0	1104150528	47	4358
2026-01-05 08:51:40.15	26.66	27.51	-37.1	-38.5	17.4	0.00e+00	0	57	0	1116733440	46	4088
2026-01-05 08:51:44.19	25.57	27.15	-37.2	-38.8	17.2	0.00e+00	0	57	0	1129316352	45	4442
2026-01-05 08:51:48.23	24.50	26.78	-37.3	-38.8	17.1	0.00e+00	0	57	0	1141899264	45	4491
2026-01-05 08:51:52.27	23.46	26.41	-37.4	-38.9	17.0	0.00e+00	0	57	0	1154482176	45	4540
2026-01-05 08:51:56.30	22.45	26.03	-37.1	-38.6	17.3	0.00e+00	0	57	0	1167065088	45	4364
2026-01-05 08:52:00.34	21.46	25.65	-37.6	-39.2	16.7	0.00e+00	0	57	0	1180696576	45	4678
2026-01-05 08:52:04.38	20.49	25.27	-37.5	-39.1	16.7	0.00e+00	0	57	0	1193279488	46	4382
2026-01-05 08:52:08.42	19.55	24.88	-37.3	-38.8	17.1	0.00e+00	0	57	0	1205862400	46	4216
2026-01-05 08:52:12.46	18.63	24.49	-37.3	-38.9	17.0	0.00e+00	0	57	0	1218445312	46	4257
2026-01-05 08:52:16.50	17.74	24.09	-37.0	-38.5	17.3	0.00e+00	0	57	0	1231028224	46	4084
2026-01-05 08:52:20.54	16.86	23.70	-37.1	-38.6	17.3	0.00e+00	0	57	0	1243611136	45	4341
2026-01-05 08:52:24.58	16.01	23.30	-37.6	-39.2	16.6	0.00e+00	0	57	0	1256194048	45	4704
2026-01-05 08:52:28.61	15.18	22.91	-37.7	-39.4	16.5	0.00e+00	0	57	0	1268776960	46	4529
2026-01-05 08:52:32.65	14.37	22.51	-38.1	-39.8	16.1	0.00e+00	0	57	0	1281359872	47	4467
2026-01-05 08:52:36.69	13.59	22.12	-37.4	-39.0	16.9	0.00e+00	0	57	0	1293942784	46	4313
2026-01-05 08:52:40.73	12.82	21.72	-37.6	-39.2	16.7	0.00e+00	0	57	0	1306525696	46	4405
2026-01-05 08:52:44.77	12.07	21.32	-37.5	-39.2	16.7	0.00e+00	0	57	0	1319108608	46	4396
2026-01-05 08:52:48.81	11.34	20.93	-37.0	-38.5	17.3	0.00e+00	0	57	0	1331691520	46	4065
2026-01-05 08:52:52.85	10.63	20.54	-36.9	-38.3	17.4	0.00e+00	0	57	0	1344274432	45	4235
2026-01-05 08:52:56.89	9.94	20.15	-37.0	-38.5	17.2	0.00e+00	0	57	0	1356857344	45	4339
2026-01-05 08:53:00.93	9.26	19.76	-36.8	-38.3	17.4	0.00e+00	0	57	0	1369440256	45	4212
2026-01-05 08:53:04.97	8.61	19.37	-36.9	-38.4	17.3	0.00e+00	0	57	0	1382023168	45	4247
2026-01-05 08:53:09.01	7.97	18.98	-37.5	-39.1	16.6	0.00e+00	0	57	0	1394606080	45	4616
2026-01-05 08:53:13.05	7.34	18.60	-37.4	-39.0	16.6	0.00e+00	0	57	0	1407188992	45	4587
2026-01-05 08:53:17.09	6.73	18.22	-37.1	-38.6	16.9	0.00e+00	0	57	0	1419771904	45	4384
2026-01-05 08:53:21.12	6.14	17.84	-37.3	-38.9	16.6	0.00e+00	0	57	0	1432354816	45	4523
2026-01-05 08:53:25.16	5.56	17.47	-37.6	-39.3	16.2	0.00e+00	0	57	0	1444937728	45	4745
2026-01-05 08:53:29.20	5.00	17.10	-37.7	-39.4	16.1	0.00e+00	0	57	0	1457520640	46	4532
2026-01-05 08:53:33.24	4.45	16.73	-37.4	-39.1	16.3	0.00e+00	0	57	0	1470103552	46	4367
2026-01-05 08:53:37.28	3.91	16.36	-37.6	-39.4	16.0	0.00e+00	0	57	0	1482686464	46	4495
2026-01-05 08:53:41.32	3.39	16.00	-38.0	-39.9	15.5	0.00e+00	0	57	0	1495269376	46	4770
2026-01-05 08:53:45.36	2.88	15.63	-38.1	-40.0	15.2	0.00e+00	0	57	0	1507852288	46	4840
2026-01-05 08:53:49.40	2.38	15.28	-38.0	-40.0	14.9	0.00e+00	0	57	0	1521483776	46	4860
2026-01-05 08:53:53.44	1.90	14.92	-37.8	-39.8	14.8	0.00e+00	0	57	0	1534066688	46	4732
2026-01-05 08:53:57.48	1.42	14.57	-37.6	-39.7	14.7	0.00e+00	0	57	0	1546649600	46	4678
2026-01-05 08:54:01.53	0.96	14.22	-37.9	-40.2	14.1	3.00e-06	0	57	0	1559232512	46	4951
2026-01-05 08:54:05.56	0.51	13.88	-37.2	-39.4	14.4	7.00e-07	0	57	0	1571815424	46	4512
2026-01-05 08:54:09.60	0.07	13.53	-38.4	-41.5	11.5	5.87e-04	0	57	0	1584398336	47	5405
2026-01-05 08:54:13.64	359.64	13.19	-39.9	-45.5	6.9	1.33e-01	0	57	0	1596981248	50	7206
2026-01-05 08:54:17.67	359.22	12.86	-40.3	-49.4	3.9	1.42e+00	0	57	104	1604321280	51	10755
2026-01-05 08:54:21.71	358.81	12.53	-40.3	-51.9	3.8	1.49e+00	0	57	104	1604321280	51	14287
2026-01-05 08:54:25.75	358.41	12.20	-41.1	-52.5	3.8	1.49e+00	0	57	104	1604321280	52	14533
2026-01-05 08:54:29.79	358.02	11.87	-40.0	-52.3	3.8	1.49e+00	0	57	104	1604321280	51	14903
2026-01-05 08:54:33.83	357.63	11.54	-39.9	-52.3	3.8	1.49e+00	0	57	104	1604321280	51	14930
2026-01-05 08:54:37.87	357.26	11.22	-39.9	-52.3	3.8	1.49e+00	0	57	104	1604321280	50	15834
2026-01-05 08:54:41.91	356.89	10.91	-39.2	-52.2	3.8	1.49e+00	0	57	104	1604321280	50	15631
2026-01-05 08:54:45.95	356.54	10.59	-39.7	-52.2	3.8	1.49e+00	0	57	104	1604321280	50	15625
2026-01-05 08:54:49.99	356.19	10.28	-39.3	-52.0	3.8	1.49e+00	0	57	104	1604321280	49	16310
2026-01-05 08:54:54.03	355.84	9.97	-39.0	-52.1	3.8	1.49e+00	0	57	104	1604321280	49	16348
2026-01-05 08:54:58.07	355.51	9.66	-39.7	-52.1	3.8	1.49e+00	0	57	104	1604321280	50	15550
2026-01-05 08:55:02.11	355.18	9.36	-39.3	-52.1	3.8	1.49e+00	0	57	104	1604321280	50	15509
2026-01-05 08:55:06.15	354.86	9.06	-39.9	-52.3	3.8	1.49e+00	0	57	104	1604321280	50	15902
2026-01-05 08:55:10.19	354.55	8.76	-39.7	-52.2	3.8	1.49e+00	0	57	104	1604321280	50	15598
2026-01-05 08:55:14.23	354.24	8.46	-40.0	-52.3	3.8	1.49e+00	0	57	104	1604321280	50	15779
2026-01-05 08:55:18.27	353.94	8.17	-39.9	-52.3	3.8	1.49e+00	0	57	104	1604321280	50	15805
2026-01-05 08:55:22.31	353.65	7.88	-43.6	-55.9	3.8	1.49e+00	0	57	104	1604321280	57	16097
2026-01-05 08:55:26.36	353.36	7.59	-45.1	-57.6	3.8	1.49e+00	0	57	104	1604321280	60	16363
2026-01-05 08:55:30.40	353.07	7.31	-44.1	-57.7	3.8	1.49e+00	0	57	104	1604321280	60	16610
2026-01-05 08:55:34.44	352.80	7.02	-45.0	-57.6	3.8	1.49e+00	0	57	104	1604321280	60	16358
2026-01-05 08:55:38.49	352.53	6.74	-44.9	-57.5	3.8	1.49e+00	0	57	104	1604321280	60	16298
2026-01-05 08:55:42.53	352.26	6.46	-44.9	-57.5	3.8	1.49e+00	0	57	104	1604321280	60	16301
2026-01-05 08:55:46.58	352.00	6.19	-44.9	-57.6	3.8	1.49e+00	0	57	104	1604321280	60	16332
2026-01-05 08:55:50.62	351.75	5.91	-44.9	-57.5	3.8	1.49e+00	0	57	104	1604321280	60	16301
2026-01-05 08:55:54.66	351.50	5.64	-44.9	-57.6	3.8	1.49e+00	0	57	104	1604321280	60	16323
2026-01-05 08:55:58.71	351.25	5.37	-44.9	-57.6	3.8	1.49e+00	0	57	104	1604321280	60	16329
2026-01-05 08:56:02.75	351.01	5.11	-44.9	-57.5	3.8	1.49e+00	0	57	104	1604321280	60	16289
2026-01-05 08:56:06.80	350.77	4.84	-44.9	-57.5	3.8	1.49e+00	0	57	104	1604321280	60	16235
2026-01-05 08:56:10.84	350.54	4.58	-44.9	-57.5	3.8	1.49e+00	0	57	104	1604321280	60	16259
2026-01-05 08:56:14.88	350.31	4.32	-44.9	-57.5	3.8	1.49e+00	0	57	104	1604321280	60	16286
2026-01-05 08:56:18.92	350.09	4.06	-44.9	-57.5	3.8	1.49e+00	0	57	104	1604321280	60	16246
2026-01-05 08:56:22.97	349.87	3.81	-44.9	-57.5	3.8	1.49e+00	0	57	104	1604321280	60	16285
2026-01-05 08:56:27.01	349.66	3.55	-44.9	-57.5	3.8	1.49e+00	0	57	104	1604321280	60	16278
2026-01-05 08:56:31.06	349.45	3.30	-44.8	-57.5	3.8	1.49e+00	0	57	104	1604321280	60	16176
2026-01-05 08:56:35.10	349.24	3.05	-44.9	-57.5	3.8	1.49e+00	0	57	104	1604321280	60	16214
2026-01-05 08:56:39.14	349.04	2.80	-44.9	-57.5	3.8	1.49e+00	0	57	104	1604321280	60	16268
2026-01-05 08:56:43.19	348.84	2.55	-44.9	-57.5	3.8	1.49e+00	0	57	104	1604321280	60	16275
2026-01-05 08:56:47.23	348.64	2.31	-44.9	-57.5	3.8	1.49e+00	0	57	104	1604321280	60	16262
2026-01-05 08:56:51.27	348.45	2.07	-44.9	-57.5	3.8	1.49e+00	0	57	104	1604321280	60	16211

#Closed at: 2026-01-05 08:56:54
#Recorded file [1604 MB]: D:/lorett/data/31039_260105_114351.dat