passes_logs/2026/01/05/R2.0S_Moscow/R2.0S_Moscow__20260105_093301_NOAA_20_JPSS-1_rec.log

#Pass ID: 20260105_093301_NOAA 20 (JPSS-1)
#Satellite: NOAA 20 (JPSS-1)
#Configuration: NOAA 20
#almurnet v.1.7.20251203
#Start time: 2026-01-05 09:33:01

#Version: 2.2.20231116
#Station: R2.0S_Moscow
#Location: 37.707566 lon 55.798166 lat
#TLE: 1 43013U 17073A   26004.47528369  .00000132  00000+0  83671-4 0  9999
#TLE: 2 43013  98.7626 305.5264 0001854  54.5883 305.5466 14.19533142421242

#Time	Az	El	Level	Level2	SNR	BER	BlckErr	Temp	State	Recorded	gain1	gain2
2026-01-05 09:33:01.75	149.87	2.02	-43.8	-58.3	3.8	1.49e+00	0	48	0	0	58	19904
2026-01-05 09:33:05.80	149.82	2.28	-43.8	-58.3	3.8	1.49e+00	0	48	104	0	59	18733
2026-01-05 09:33:09.84	149.76	2.54	-43.8	-58.2	3.8	1.49e+00	0	48	104	0	59	18673
2026-01-05 09:33:13.89	149.70	2.80	-43.8	-58.3	3.8	1.49e+00	0	48	104	0	59	18791
2026-01-05 09:33:17.93	149.64	3.07	-43.8	-58.2	3.8	1.49e+00	0	49	104	0	58	19822
2026-01-05 09:33:21.98	149.58	3.34	-43.8	-58.3	3.8	1.49e+00	0	49	104	0	58	19865
2026-01-05 09:33:26.02	149.51	3.62	-43.8	-58.2	3.8	1.49e+00	0	49	104	0	58	19810
2026-01-05 09:33:30.06	149.45	3.89	-43.8	-58.2	3.8	1.49e+00	0	50	104	0	58	19813
2026-01-05 09:33:34.11	149.38	4.17	-43.8	-58.3	3.8	1.49e+00	0	50	104	0	58	19866
2026-01-05 09:33:38.15	149.32	4.45	-43.8	-58.2	3.8	1.49e+00	0	50	104	0	58	19804
2026-01-05 09:33:42.20	149.25	4.74	-43.8	-58.2	3.8	1.49e+00	0	50	104	0	58	19805
2026-01-05 09:33:46.24	149.18	5.02	-43.8	-58.2	3.8	1.49e+00	0	50	104	0	58	19762
2026-01-05 09:33:50.29	149.10	5.31	-43.8	-58.2	3.8	1.49e+00	0	51	104	0	58	19736
2026-01-05 09:33:54.33	149.03	5.61	-43.8	-58.1	3.8	1.49e+00	0	51	104	0	58	19554
2026-01-05 09:33:58.37	148.96	5.90	-43.8	-57.8	3.8	1.49e+00	0	51	104	0	58	18930
2026-01-05 09:34:02.42	148.88	6.20	-43.8	-57.6	3.8	1.49e+00	0	51	104	0	58	18421
2026-01-05 09:34:06.46	148.80	6.51	-43.8	-57.8	3.8	1.49e+00	0	51	104	0	58	18925
2026-01-05 09:34:10.50	148.72	6.81	-43.8	-57.7	3.8	1.49e+00	0	52	104	0	58	18600
2026-01-05 09:34:14.55	148.64	7.12	-43.4	-53.2	4.7	1.09e+00	0	52	0	0	58	11097
2026-01-05 09:34:18.59	148.55	7.44	-42.5	-48.5	8.4	7.30e-02	0	52	0	8388608	56	7243
2026-01-05 09:34:22.63	148.46	7.76	-41.1	-45.1	11.8	1.07e-03	0	52	0	15728640	54	5510
2026-01-05 09:34:26.68	148.37	8.08	-44.0	-56.1	4.1	2.06e-01	31	53	0	23068672	58	15485
2026-01-05 09:34:30.72	148.28	8.41	-40.8	-44.6	12.5	1.28e-02	0	52	0	27262976	52	5810
2026-01-05 09:34:34.76	148.19	8.74	-40.1	-43.1	14.0	3.00e-06	0	52	0	34603008	51	5180
2026-01-05 09:34:38.80	148.09	9.07	-40.0	-42.8	14.3	1.50e-06	0	53	0	42991616	51	5037
2026-01-05 09:34:42.84	148.00	9.41	-39.8	-42.6	14.7	7.00e-07	0	53	0	50331648	51	4907
2026-01-05 09:34:46.88	147.89	9.75	-39.7	-42.4	15.0	0.00e+00	0	53	0	57671680	51	4770
2026-01-05 09:34:50.92	147.79	10.10	-39.6	-42.2	15.2	7.00e-07	0	53	0	65011712	50	4982
2026-01-05 09:34:54.96	147.68	10.46	-39.7	-42.3	15.2	7.00e-07	0	53	0	73400320	50	5005
2026-01-05 09:34:59.00	147.57	10.81	-39.5	-42.0	15.5	0.00e+00	0	53	0	80740352	50	4855
2026-01-05 09:35:03.04	147.46	11.18	-39.5	-42.0	15.6	0.00e+00	0	53	0	88080384	50	4820
2026-01-05 09:35:07.07	147.35	11.55	-39.6	-42.1	15.5	0.00e+00	0	53	0	95420416	50	4875
2026-01-05 09:35:11.11	147.23	11.92	-39.6	-42.1	15.6	0.00e+00	0	54	0	102760448	50	4895
2026-01-05 09:35:15.15	147.11	12.30	-39.6	-42.0	15.7	0.00e+00	0	54	0	111149056	50	4858
2026-01-05 09:35:19.19	146.98	12.69	-39.5	-42.0	15.7	0.00e+00	0	54	0	118489088	50	4820
2026-01-05 09:35:23.23	146.85	13.08	-39.5	-41.9	15.8	0.00e+00	0	54	0	125829120	50	4797
2026-01-05 09:35:27.26	146.72	13.48	-39.4	-41.8	16.0	0.00e+00	0	54	0	133169152	50	4744
2026-01-05 09:35:31.29	146.58	13.88	-39.5	-41.8	16.0	0.00e+00	0	54	0	141557760	50	4750
2026-01-05 09:35:35.34	146.44	14.29	-39.4	-41.8	16.0	0.00e+00	0	54	0	148897792	50	4733
2026-01-05 09:35:39.37	146.30	14.71	-39.5	-41.8	16.1	0.00e+00	0	54	0	156237824	50	4721
2026-01-05 09:35:43.41	146.15	15.14	-39.4	-41.7	16.2	0.00e+00	0	54	0	163577856	50	4652
2026-01-05 09:35:47.46	145.99	15.57	-39.4	-41.6	16.3	0.00e+00	0	54	0	170917888	50	4634
2026-01-05 09:35:51.50	145.83	16.01	-39.5	-41.8	16.2	0.00e+00	0	54	0	179306496	50	4723
2026-01-05 09:35:55.53	145.67	16.46	-39.5	-41.9	16.1	0.00e+00	0	54	0	186646528	50	4766
2026-01-05 09:35:59.58	145.50	16.92	-39.4	-41.7	16.2	0.00e+00	0	55	0	193986560	50	4694
2026-01-05 09:36:03.62	145.32	17.38	-39.4	-41.7	16.3	0.00e+00	0	54	0	201326592	50	4660
2026-01-05 09:36:07.65	145.14	17.86	-39.5	-41.7	16.3	0.00e+00	0	55	0	209715200	50	4701
2026-01-05 09:36:11.69	144.96	18.34	-39.3	-41.5	16.5	0.00e+00	0	55	0	217055232	50	4590
2026-01-05 09:36:15.73	144.76	18.83	-39.2	-41.4	16.7	0.00e+00	0	55	0	224395264	50	4504
2026-01-05 09:36:19.77	144.56	19.33	-39.4	-41.6	16.5	0.00e+00	0	55	0	231735296	50	4633
2026-01-05 09:36:23.81	144.35	19.85	-39.3	-41.5	16.6	0.00e+00	0	55	0	239075328	50	4597
2026-01-05 09:36:27.84	144.14	20.37	-39.1	-41.3	16.9	0.00e+00	0	55	0	247463936	50	4443
2026-01-05 09:36:31.87	143.92	20.90	-39.2	-41.4	16.7	0.00e+00	0	55	0	254803968	50	4512
2026-01-05 09:36:35.91	143.69	21.44	-39.2	-41.3	16.8	0.00e+00	0	55	0	262144000	50	4482
2026-01-05 09:36:39.95	143.45	22.00	-39.0	-41.1	17.1	0.00e+00	0	55	0	269484032	50	4360
2026-01-05 09:36:43.99	143.20	22.56	-39.3	-41.5	16.7	0.00e+00	0	55	0	277872640	50	4546
2026-01-05 09:36:48.03	142.94	23.14	-39.4	-41.7	16.6	0.00e+00	0	55	0	285212672	50	4658
2026-01-05 09:36:52.06	142.67	23.73	-39.6	-41.9	16.4	0.00e+00	0	55	0	292552704	50	4784
2026-01-05 09:36:56.10	142.39	24.34	-39.8	-42.1	16.2	0.00e+00	0	55	0	299892736	50	4885
2026-01-05 09:37:00.14	142.10	24.96	-39.9	-42.3	16.0	0.00e+00	0	55	0	307232768	50	5028
2026-01-05 09:37:04.17	141.80	25.59	-40.1	-42.5	15.8	0.00e+00	0	55	0	315621376	50	5151
2026-01-05 09:37:08.21	141.48	26.23	-40.4	-43.0	15.3	0.00e+00	0	55	0	322961408	51	5138
2026-01-05 09:37:12.25	141.15	26.89	-40.7	-43.5	14.7	7.00e-07	0	55	0	330301440	52	5139
2026-01-05 09:37:16.29	140.80	27.57	-41.2	-44.3	13.9	7.00e-07	0	55	0	337641472	52	5598
2026-01-05 09:37:20.33	140.44	28.26	-41.5	-44.8	13.4	6.10e-06	0	55	0	346030080	53	5616
2026-01-05 09:37:24.37	140.07	28.97	-41.6	-45.0	13.2	2.36e-05	0	55	0	353370112	53	5725
2026-01-05 09:37:28.41	139.67	29.70	-41.7	-45.2	13.0	3.43e-05	0	56	0	360710144	53	5883
2026-01-05 09:37:32.44	139.26	30.44	-41.7	-45.1	13.2	2.97e-05	0	56	0	368050176	54	5489
2026-01-05 09:37:36.48	138.83	31.20	-41.8	-45.3	13.0	3.28e-05	0	56	0	375390208	54	5613
2026-01-05 09:37:40.52	138.37	31.98	-42.1	-45.9	12.3	1.56e-04	0	55	0	383778816	54	6057
2026-01-05 09:37:44.56	137.89	32.78	-42.0	-45.7	12.6	1.15e-04	0	55	0	391118848	54	5869
2026-01-05 09:37:48.60	137.39	33.59	-42.0	-45.7	12.6	7.93e-05	0	56	0	398458880	54	5884
2026-01-05 09:37:52.64	136.86	34.43	-42.1	-45.9	12.4	1.85e-04	0	56	0	405798912	54	6037
2026-01-05 09:37:56.68	136.30	35.29	-42.2	-46.0	12.3	2.49e-04	0	56	0	414187520	55	5785
2026-01-05 09:38:00.72	135.71	36.16	-42.2	-46.1	12.2	3.58e-04	0	56	0	421527552	55	5821
2026-01-05 09:38:04.76	135.09	37.06	-42.3	-46.2	12.1	2.10e-04	0	56	0	428867584	55	5861
2026-01-05 09:38:08.80	134.43	37.98	-41.8	-45.3	13.1	3.58e-05	0	56	0	436207616	55	5286
2026-01-05 09:38:12.83	133.73	38.92	-41.8	-45.1	13.2	3.35e-05	0	56	0	443547648	55	5207
2026-01-05 09:38:16.87	132.99	39.88	-41.2	-44.2	14.1	3.00e-06	0	56	0	451936256	54	4980
2026-01-05 09:38:20.91	132.20	40.86	-41.2	-44.2	14.2	7.00e-07	0	56	0	459276288	54	4944
2026-01-05 09:38:24.95	131.36	41.86	-41.6	-44.8	13.6	5.30e-06	0	56	0	466616320	54	5340
2026-01-05 09:38:28.98	130.47	42.88	-41.4	-44.6	13.9	6.80e-06	0	56	0	473956352	54	5177
2026-01-05 09:38:33.02	129.52	43.92	-41.3	-44.4	14.1	3.00e-06	0	56	0	482344960	54	5054
2026-01-05 09:38:37.06	128.50	44.98	-40.8	-43.5	14.9	0.00e+00	0	56	0	489684992	53	4851
2026-01-05 09:38:41.10	127.41	46.06	-40.5	-43.1	15.4	0.00e+00	0	56	0	497025024	53	4630
2026-01-05 09:38:45.14	126.25	47.16	-41.1	-44.0	14.5	1.50e-06	0	56	0	504365056	53	5144
2026-01-05 09:38:49.18	124.99	48.26	-40.9	-43.7	14.7	0.00e+00	0	56	0	511705088	53	4961
2026-01-05 09:38:53.21	123.65	49.38	-40.6	-43.3	15.2	0.00e+00	0	56	0	520093696	53	4706
2026-01-05 09:38:57.26	122.19	50.52	-40.2	-42.7	15.8	0.00e+00	0	56	0	527433728	52	4659
2026-01-05 09:39:01.29	120.63	51.65	-40.3	-42.7	15.7	0.00e+00	0	56	0	534773760	52	4684
2026-01-05 09:39:05.33	118.94	52.80	-39.7	-41.8	16.6	0.00e+00	0	56	0	542113792	51	4491
2026-01-05 09:39:09.37	117.11	53.94	-39.7	-41.9	16.6	0.00e+00	0	56	0	550502400	51	4541
2026-01-05 09:39:13.41	115.13	55.07	-40.2	-42.6	15.9	0.00e+00	0	56	0	557842432	51	4899
2026-01-05 09:39:17.45	112.98	56.19	-40.3	-42.8	15.7	0.00e+00	0	56	0	565182464	51	5003
2026-01-05 09:39:21.49	110.66	57.29	-41.0	-43.9	14.5	0.00e+00	0	56	0	572522496	52	5342
2026-01-05 09:39:25.53	108.15	58.36	-41.6	-44.8	13.6	9.10e-06	0	56	0	579862528	53	5640
2026-01-05 09:39:29.57	105.42	59.39	-40.6	-43.2	15.1	0.00e+00	0	56	0	588251136	53	4687
2026-01-05 09:39:33.62	102.47	60.38	-40.5	-43.0	15.4	0.00e+00	0	56	0	595591168	52	4840
2026-01-05 09:39:37.65	99.30	61.30	-39.4	-41.5	16.9	0.00e+00	0	56	0	602931200	50	4589
2026-01-05 09:39:41.69	95.90	62.16	-38.5	-40.3	18.1	0.00e+00	0	56	0	610271232	49	4238
2026-01-05 09:39:45.73	92.25	62.93	-38.2	-40.0	18.5	0.00e+00	0	56	0	618659840	48	4303
2026-01-05 09:39:49.77	88.38	63.61	-39.0	-40.9	17.5	0.00e+00	0	56	0	625999872	48	4797
2026-01-05 09:39:53.81	84.29	64.18	-39.2	-41.2	17.3	0.00e+00	0	56	0	633339904	49	4702
2026-01-05 09:39:57.85	80.02	64.63	-39.3	-41.4	17.1	0.00e+00	0	56	0	640679936	49	4782
2026-01-05 09:40:01.89	75.61	64.95	-38.8	-40.7	17.8	0.00e+00	0	56	0	648019968	49	4424
2026-01-05 09:40:05.93	71.09	65.13	-39.1	-41.1	17.4	0.00e+00	0	56	0	656408576	49	4616
2026-01-05 09:40:09.98	66.52	65.17	-39.0	-41.0	17.5	0.00e+00	0	56	0	663748608	48	4831
2026-01-05 09:40:14.01	61.98	65.07	-39.8	-42.1	16.4	0.00e+00	0	56	0	671088640	50	4872
2026-01-05 09:40:18.05	57.51	64.83	-39.6	-41.8	16.7	0.00e+00	0	56	0	678428672	50	4748
2026-01-05 09:40:22.10	53.14	64.46	-39.6	-41.7	16.8	0.00e+00	0	56	0	686817280	50	4698
2026-01-05 09:40:26.14	48.95	63.96	-39.0	-41.0	17.6	0.00e+00	0	56	0	694157312	50	4300
2026-01-05 09:40:30.18	44.95	63.34	-38.1	-39.9	18.7	0.00e+00	0	56	0	701497344	48	4251
2026-01-05 09:40:34.22	41.18	62.62	-39.1	-41.2	17.5	0.00e+00	0	56	0	708837376	48	4932
2026-01-05 09:40:38.25	37.64	61.82	-40.5	-43.0	15.6	0.00e+00	0	56	0	716177408	51	5140
2026-01-05 09:40:42.29	34.34	60.93	-41.0	-43.9	14.6	7.00e-07	0	56	0	724566016	52	5376
2026-01-05 09:40:46.33	31.26	59.98	-41.8	-45.2	13.3	1.67e-05	0	56	0	731906048	54	5540
2026-01-05 09:40:50.37	28.42	58.98	-42.3	-46.3	12.2	1.29e-04	0	56	0	739246080	55	5925
2026-01-05 09:40:54.40	25.79	57.94	-41.8	-45.2	13.3	1.14e-05	0	56	0	746586112	55	5226
2026-01-05 09:40:58.44	23.36	56.85	-41.3	-44.4	14.2	4.50e-06	0	57	0	754974720	54	5044
2026-01-05 09:41:02.48	21.12	55.75	-40.1	-42.5	16.1	0.00e+00	0	56	0	762314752	52	4563
2026-01-05 09:41:06.52	19.05	54.63	-40.5	-43.0	15.6	0.00e+00	0	56	0	769654784	51	5122
2026-01-05 09:41:10.56	17.13	53.50	-40.3	-42.7	15.9	0.00e+00	0	56	0	776994816	51	4942
2026-01-05 09:41:14.60	15.37	52.36	-40.9	-43.7	14.9	0.00e+00	0	56	0	784334848	52	5219
2026-01-05 09:41:18.63	13.74	51.23	-40.9	-43.7	14.8	0.00e+00	0	56	0	792723456	52	5269
2026-01-05 09:41:22.67	12.22	50.09	-41.5	-44.8	13.7	6.10e-06	0	56	0	800063488	53	5608
2026-01-05 09:41:26.71	10.82	48.97	-41.2	-44.2	14.3	0.00e+00	0	56	0	807403520	53	5271
2026-01-05 09:41:30.75	9.51	47.86	-41.4	-44.6	13.9	3.00e-06	0	56	0	814743552	53	5491
2026-01-05 09:41:34.79	8.29	46.76	-41.4	-44.6	13.8	3.00e-06	0	56	0	823132160	53	5514
2026-01-05 09:41:38.83	7.16	45.67	-41.4	-44.6	13.8	2.20e-06	0	56	0	830472192	53	5477
2026-01-05 09:41:42.88	6.10	44.60	-41.9	-45.5	13.0	2.59e-05	0	56	0	837812224	54	5743
2026-01-05 09:41:46.92	5.12	43.55	-42.0	-45.6	12.8	3.05e-05	0	57	0	845152256	54	5824
2026-01-05 09:41:50.96	4.19	42.53	-42.5	-46.6	11.7	4.19e-04	0	56	0	852492288	55	6165
2026-01-05 09:41:54.99	3.33	41.52	-42.3	-46.2	12.1	2.68e-04	0	56	0	860880896	55	5900
2026-01-05 09:41:59.03	2.51	40.53	-42.8	-47.2	11.3	1.16e-03	0	57	0	868220928	56	6221
2026-01-05 09:42:03.07	1.75	39.56	-42.9	-47.5	10.9	3.33e-03	0	57	0	875560960	56	6459
2026-01-05 09:42:07.11	1.03	38.61	-42.2	-45.9	12.7	1.32e-04	0	56	0	882900992	56	5350
2026-01-05 09:42:11.15	0.35	37.69	-42.2	-45.9	12.6	1.34e-04	0	56	0	891289600	56	5373
2026-01-05 09:42:15.19	359.70	36.78	-42.1	-45.7	12.8	7.93e-05	0	56	0	898629632	56	5237
2026-01-05 09:42:19.22	359.10	35.90	-41.6	-44.9	13.4	2.67e-05	0	57	0	905969664	55	5077
2026-01-05 09:42:23.26	358.52	35.03	-41.7	-45.1	13.2	1.83e-05	0	56	0	913309696	55	5205
2026-01-05 09:42:27.30	357.98	34.19	-41.6	-45.0	13.3	1.29e-05	0	57	0	920649728	55	5143
2026-01-05 09:42:31.34	357.46	33.36	-42.1	-46.0	12.2	1.65e-04	0	57	0	929038336	55	5761
2026-01-05 09:42:35.38	356.97	32.56	-42.5	-46.8	11.4	7.13e-04	0	56	0	936378368	55	6302
2026-01-05 09:42:39.42	356.51	31.77	-42.9	-47.5	10.9	2.27e-03	0	57	0	943718400	56	6424
2026-01-05 09:42:43.45	356.06	31.00	-43.0	-47.9	10.5	4.98e-03	0	56	0	951058432	56	6727
2026-01-05 09:42:47.49	355.64	30.25	-42.8	-47.4	10.9	2.17e-03	0	56	0	958398464	56	6363
2026-01-05 09:42:51.53	355.24	29.52	-42.7	-47.1	11.2	1.37e-03	0	57	0	966787072	56	6158
2026-01-05 09:42:55.57	354.85	28.80	-42.7	-47.1	11.1	1.58e-03	0	57	0	974127104	56	6154
2026-01-05 09:42:59.60	354.49	28.11	-42.6	-46.9	11.4	1.08e-03	0	56	0	981467136	56	5998
2026-01-05 09:43:03.64	354.13	27.42	-42.6	-47.0	11.2	1.32e-03	0	57	0	988807168	56	6122
2026-01-05 09:43:07.68	353.80	26.75	-42.4	-46.6	11.6	8.88e-04	0	57	0	997195776	56	5832
2026-01-05 09:43:11.72	353.48	26.10	-42.2	-46.2	12.0	3.84e-04	0	57	0	1004535808	56	5568
2026-01-05 09:43:15.76	353.17	25.46	-41.7	-45.4	12.7	8.46e-05	0	57	0	1011875840	55	5354
2026-01-05 09:43:19.80	352.87	24.84	-41.3	-44.8	13.2	2.44e-05	0	57	0	1019215872	54	5297
2026-01-05 09:43:23.84	352.59	24.23	-41.2	-44.6	13.4	1.75e-05	0	57	0	1026555904	54	5190
2026-01-05 09:43:27.87	352.32	23.63	-40.9	-44.2	13.6	6.10e-06	0	56	0	1034944512	53	5252
2026-01-05 09:43:31.91	352.05	23.05	-40.5	-43.7	13.8	4.50e-06	0	57	0	1042284544	53	4945
2026-01-05 09:43:35.95	351.80	22.47	-40.5	-43.9	13.4	1.90e-05	0	56	0	1049624576	53	5069
2026-01-05 09:43:39.99	351.56	21.91	-40.1	-43.4	13.7	3.00e-06	0	57	0	1056964608	51	5349
2026-01-05 09:43:44.02	351.33	21.37	-40.5	-44.7	11.6	2.39e-04	0	57	0	1065353216	51	6236
2026-01-05 09:43:48.06	351.10	20.83	-41.1	-49.4	5.9	3.11e-01	0	57	0	1072693248	52	10130
2026-01-05 09:43:52.10	350.88	20.30	-40.8	-53.7	3.8	1.49e+00	0	57	104	1075838976	52	16637
2026-01-05 09:43:56.14	350.68	19.79	-40.6	-54.8	3.8	1.49e+00	0	57	104	1075838976	52	18845
2026-01-05 09:44:00.19	350.47	19.28	-40.5	-55.0	3.8	1.49e+00	0	57	104	1075838976	52	19317
2026-01-05 09:44:04.23	350.28	18.78	-40.6	-55.0	3.8	1.49e+00	0	57	104	1075838976	52	19364
2026-01-05 09:44:08.27	350.09	18.30	-40.7	-55.3	3.8	1.49e+00	0	57	104	1075838976	52	20045
2026-01-05 09:44:12.30	349.91	17.82	-40.6	-55.1	3.8	1.49e+00	0	57	104	1075838976	52	19613
2026-01-05 09:44:16.35	349.73	17.35	-40.6	-55.4	3.8	1.49e+00	0	57	104	1075838976	52	20094
2026-01-05 09:44:20.38	349.56	16.89	-40.7	-55.4	3.8	1.49e+00	0	57	104	1075838976	52	20132
2026-01-05 09:44:24.42	349.40	16.44	-40.5	-55.1	3.8	1.49e+00	0	57	104	1075838976	52	19525
2026-01-05 09:44:28.46	349.24	15.99	-40.3	-55.3	3.8	1.49e+00	0	57	104	1075838976	52	19973
2026-01-05 09:44:32.51	349.09	15.56	-40.3	-55.3	3.8	1.49e+00	0	57	104	1075838976	52	19919
2026-01-05 09:44:36.55	348.94	15.13	-40.5	-55.5	3.8	1.49e+00	0	57	104	1075838976	52	20376
2026-01-05 09:44:40.59	348.79	14.71	-40.5	-55.2	3.8	1.49e+00	0	57	104	1075838976	52	19766
2026-01-05 09:44:44.62	348.65	14.29	-40.7	-55.5	3.8	1.49e+00	0	57	104	1075838976	52	20311
2026-01-05 09:44:48.66	348.52	13.88	-41.1	-55.8	3.8	1.49e+00	0	57	104	1075838976	52	21130
2026-01-05 09:44:52.71	348.39	13.48	-41.0	-55.7	3.8	1.49e+00	0	57	104	1075838976	52	20878
2026-01-05 09:44:56.75	348.26	13.09	-41.2	-55.8	3.8	1.49e+00	0	57	104	1075838976	52	21064
2026-01-05 09:45:00.79	348.13	12.70	-40.8	-55.4	3.8	1.49e+00	0	57	104	1075838976	52	20285
2026-01-05 09:45:04.84	348.01	12.32	-41.0	-55.6	3.8	1.49e+00	0	57	104	1075838976	52	20668
2026-01-05 09:45:08.87	347.90	11.94	-40.8	-55.5	3.8	1.49e+00	0	57	104	1075838976	52	20332
2026-01-05 09:45:12.91	347.78	11.57	-40.9	-55.5	3.8	1.49e+00	0	57	104	1075838976	52	20326
2026-01-05 09:45:16.96	347.67	11.20	-40.9	-55.5	3.8	1.49e+00	0	57	104	1075838976	52	20440
2026-01-05 09:45:21.00	347.57	10.84	-40.9	-55.5	3.8	1.49e+00	0	57	104	1075838976	52	20456
2026-01-05 09:45:25.03	347.46	10.49	-41.0	-55.7	3.8	1.49e+00	0	57	104	1075838976	52	20848
2026-01-05 09:45:29.07	347.36	10.14	-40.9	-55.5	3.8	1.49e+00	0	57	104	1075838976	52	20460
2026-01-05 09:45:33.11	347.26	9.79	-41.0	-55.6	3.8	1.49e+00	0	57	104	1075838976	52	20759
2026-01-05 09:45:37.15	347.17	9.45	-40.9	-55.6	3.8	1.49e+00	0	57	104	1075838976	52	20677
2026-01-05 09:45:41.19	347.07	9.11	-40.9	-55.5	3.8	1.49e+00	0	57	104	1075838976	52	20345
2026-01-05 09:45:45.23	346.98	8.78	-40.9	-55.6	3.8	1.49e+00	0	57	104	1075838976	52	20709
2026-01-05 09:45:49.26	346.89	8.45	-40.9	-55.5	3.8	1.49e+00	0	57	104	1075838976	52	20315
2026-01-05 09:45:53.31	346.81	8.13	-40.9	-55.5	3.8	1.49e+00	0	57	104	1075838976	52	20327
2026-01-05 09:45:57.35	346.72	7.81	-43.5	-58.2	3.8	1.49e+00	0	57	104	1075838976	57	20858
2026-01-05 09:46:01.39	346.64	7.49	-45.0	-59.8	3.8	1.49e+00	0	57	104	1075838976	60	21065
2026-01-05 09:46:05.44	346.56	7.18	-45.1	-59.9	3.8	1.49e+00	0	57	104	1075838976	60	21299
2026-01-05 09:46:09.48	346.49	6.87	-45.0	-59.7	3.8	1.49e+00	0	57	104	1075838976	60	20997
2026-01-05 09:46:13.53	346.41	6.57	-44.9	-59.7	3.8	1.49e+00	0	57	104	1075838976	60	20968
2026-01-05 09:46:17.57	346.34	6.26	-44.9	-59.7	3.8	1.49e+00	0	57	104	1075838976	60	20997
2026-01-05 09:46:21.61	346.26	5.97	-44.9	-59.7	3.8	1.49e+00	0	57	104	1075838976	60	20979
2026-01-05 09:46:25.66	346.19	5.67	-44.9	-59.7	3.8	1.49e+00	0	57	104	1075838976	60	20961
2026-01-05 09:46:29.70	346.13	5.38	-44.9	-59.7	3.8	1.49e+00	0	57	104	1075838976	60	20949
2026-01-05 09:46:33.74	346.06	5.09	-44.9	-59.7	3.8	1.49e+00	0	57	104	1075838976	60	20898
2026-01-05 09:46:37.79	345.99	4.81	-44.9	-59.7	3.8	1.49e+00	0	57	104	1075838976	60	20933
2026-01-05 09:46:41.83	345.93	4.52	-44.9	-59.7	3.8	1.49e+00	0	57	104	1075838976	60	20913
2026-01-05 09:46:45.87	345.87	4.25	-44.9	-59.7	3.8	1.49e+00	0	57	104	1075838976	60	20921
2026-01-05 09:46:49.92	345.81	3.97	-44.9	-59.7	3.8	1.49e+00	0	57	104	1075838976	60	20881
2026-01-05 09:46:53.96	345.75	3.69	-44.9	-59.7	3.8	1.49e+00	0	57	104	1075838976	60	20935
2026-01-05 09:46:58.01	345.69	3.42	-44.9	-59.7	3.8	1.49e+00	0	57	104	1075838976	60	20835
2026-01-05 09:47:02.05	345.64	3.15	-44.9	-59.7	3.8	1.49e+00	0	57	104	1075838976	60	20852
2026-01-05 09:47:06.09	345.58	2.89	-44.9	-59.7	3.8	1.49e+00	0	57	104	1075838976	60	20861
2026-01-05 09:47:10.14	345.53	2.63	-44.9	-59.7	3.8	1.49e+00	0	57	104	1075838976	60	20842
2026-01-05 09:47:14.18	345.48	2.36	-44.9	-59.7	3.8	1.49e+00	0	57	104	1075838976	60	20815
2026-01-05 09:47:18.23	345.42	2.11	-44.9	-59.7	3.8	1.49e+00	0	57	104	1075838976	60	20851
2026-01-05 09:47:22.27	345.37	1.85	-44.9	-59.7	3.8	1.49e+00	0	57	104	1075838976	60	20863

#Closed at: 2026-01-05 09:47:22
#Recorded file [1075 MB]: D:/lorett/data/31039_260105_123301.dat