passes_logs/2026/01/05/R2.0S_Moscow/R2.0S_Moscow__20260105_101437_FENGYUN_3D_rec.log

#Pass ID: 20260105_101437_FENGYUN 3D
#Satellite: FENGYUN 3D
#Configuration: FENGYUN 3D
#almurnet v.1.7.20251203
#Start time: 2026-01-05 10:14:37

#Version: 2.2.20231116
#Station: R2.0S_Moscow
#Location: 37.707566 lon 55.798166 lat
#TLE: 1 43010U 17072A   26004.50247883 -.00000063  00000+0 -78815-5 0  9998
#TLE: 2 43010  98.9915 336.1565 0001968 126.3752 233.7605 14.19691805421760

#Time	Az	El	Level	Level2	SNR	BER	BlckErr	Temp	State	Recorded	gain1	gain2
2026-01-05 10:14:37.64	110.54	2.03	-34.9	-49.9	4.0	8.41e-01	0	46	0	0	46	15181
2026-01-05 10:14:40.68	110.33	2.21	-33.5	-50.2	4.1	8.40e-01	0	47	104	0	39	23360
2026-01-05 10:14:43.71	110.13	2.38	-34.2	-46.4	4.1	8.43e-01	0	47	104	0	35	18965
2026-01-05 10:14:46.74	109.92	2.55	-36.0	-51.2	4.3	8.43e-01	0	48	104	0	40	24823
2026-01-05 10:14:49.78	109.70	2.72	-36.5	-51.1	4.0	8.41e-01	0	48	104	0	44	19550
2026-01-05 10:14:52.81	109.48	2.89	-37.1	-51.4	4.1	8.39e-01	0	48	104	0	46	17904
2026-01-05 10:14:55.85	109.26	3.07	-37.2	-50.1	4.1	8.39e-01	0	48	104	0	41	20612
2026-01-05 10:14:58.88	109.04	3.24	-31.4	-47.4	4.0	8.41e-01	0	49	104	0	29	30207
2026-01-05 10:15:01.91	108.82	3.42	-32.5	-48.0	4.4	8.37e-01	0	49	104	0	43	14462
2026-01-05 10:15:04.94	108.59	3.59	-36.0	-50.7	4.1	8.39e-01	0	49	104	0	45	17655
2026-01-05 10:15:07.98	108.36	3.77	-31.1	-49.2	4.0	8.38e-01	0	49	104	0	40	19655
2026-01-05 10:15:11.01	108.13	3.95	-36.8	-50.9	4.1	8.37e-01	0	49	104	0	43	20162
2026-01-05 10:15:14.05	107.89	4.12	-37.7	-50.9	3.9	8.40e-01	0	49	104	0	42	21298
2026-01-05 10:15:17.08	107.65	4.30	-36.7	-50.5	4.1	8.38e-01	0	50	104	0	45	17234
2026-01-05 10:15:20.11	107.41	4.48	-28.6	-46.7	3.7	8.37e-01	0	50	104	0	33	22115
2026-01-05 10:15:23.14	107.17	4.66	-34.6	-49.5	4.1	8.39e-01	0	50	104	0	40	20494
2026-01-05 10:15:26.18	106.92	4.84	-36.2	-51.3	4.1	8.38e-01	0	50	104	0	43	21151
2026-01-05 10:15:29.21	106.67	5.02	-36.9	-51.7	3.9	8.42e-01	0	50	104	0	45	19615
2026-01-05 10:15:32.24	106.41	5.21	-38.0	-51.6	3.8	8.40e-01	0	50	104	0	46	18467
2026-01-05 10:15:35.27	106.15	5.39	-30.1	-48.1	4.0	8.41e-01	0	51	104	0	35	23120
2026-01-05 10:15:38.31	105.89	5.57	-36.2	-50.4	4.0	8.39e-01	0	51	104	0	40	22603
2026-01-05 10:15:41.34	105.63	5.76	-38.3	-51.2	3.8	8.39e-01	0	51	104	0	44	19776
2026-01-05 10:15:44.37	105.36	5.94	-37.0	-51.0	3.8	8.39e-01	0	51	104	0	45	18220
2026-01-05 10:15:47.41	105.09	6.13	-37.1	-51.0	3.7	8.41e-01	0	51	104	0	44	19348
2026-01-05 10:15:50.44	104.81	6.32	-37.2	-48.9	4.0	8.39e-01	0	51	104	0	40	18989
2026-01-05 10:15:53.47	104.53	6.50	-34.4	-49.8	3.8	8.41e-01	0	52	104	0	39	22420
2026-01-05 10:15:56.51	104.25	6.69	-37.5	-50.5	4.1	8.42e-01	0	51	104	0	41	21602
2026-01-05 10:15:59.54	103.97	6.88	-35.0	-50.2	3.9	8.40e-01	0	52	104	0	40	22096
2026-01-05 10:16:02.57	103.68	7.07	-32.9	-49.6	4.1	8.39e-01	0	52	104	0	43	17305
2026-01-05 10:16:05.61	103.38	7.26	-33.8	-46.4	3.8	8.40e-01	0	52	104	0	39	15081
2026-01-05 10:16:08.64	103.08	7.45	-37.1	-47.1	4.1	8.42e-01	0	52	104	0	39	16475
2026-01-05 10:16:11.67	102.78	7.64	-36.4	-43.6	6.5	6.52e-01	0	52	0	0	43	8710
2026-01-05 10:16:14.70	102.48	7.83	-32.7	-38.4	9.3	1.81e-01	0	52	0	10485760	34	8043
2026-01-05 10:16:17.73	102.17	8.03	-35.3	-39.1	9.7	1.84e-01	0	52	0	26214400	39	6524
2026-01-05 10:16:20.77	101.85	8.22	-36.2	-40.5	9.3	2.06e-01	0	52	0	31457280	40	7249
2026-01-05 10:16:23.80	101.53	8.42	-35.6	-43.0	6.3	7.24e-01	0	52	0	38797312	39	10200
2026-01-05 10:16:26.83	101.21	8.61	-36.5	-43.4	4.5	7.03e-01	0	53	104	42991616	42	9034
2026-01-05 10:16:29.86	100.88	8.81	-36.2	-47.6	4.2	8.40e-01	0	53	104	42991616	42	14621
2026-01-05 10:16:32.89	100.55	9.00	-35.0	-43.1	6.2	6.77e-01	0	53	0	42991616	38	10931
2026-01-05 10:16:35.92	100.21	9.20	-33.6	-39.3	8.3	4.45e-01	0	53	0	45088768	41	5935
2026-01-05 10:16:38.95	99.87	9.40	-31.9	-37.8	9.8	2.73e-01	0	53	0	57671680	33	7945
2026-01-05 10:16:41.98	99.53	9.59	-25.0	-35.8	4.9	7.32e-01	0	53	0	68157440	21	12612
2026-01-05 10:16:45.01	99.18	9.79	-34.0	-38.9	10.3	2.00e-01	0	53	0	79691776	38	6735
2026-01-05 10:16:48.03	98.82	9.99	-33.7	-37.7	7.2	3.93e-01	0	53	0	94371840	27	11156
2026-01-05 10:16:51.07	98.46	10.19	-32.7	-38.5	8.8	1.58e-01	0	53	0	109051904	37	6840
2026-01-05 10:16:54.10	98.09	10.39	-24.0	-35.6	4.9	5.85e-01	0	53	0	121634816	18	14547
2026-01-05 10:16:57.13	97.72	10.59	-33.9	-38.4	11.5	7.59e-02	0	53	0	135266304	37	6773
2026-01-05 10:17:00.16	97.35	10.79	-35.3	-38.0	12.6	4.03e-02	0	54	0	152043520	40	5449
2026-01-05 10:17:03.19	96.97	10.99	-34.9	-38.0	13.7	5.26e-03	0	54	0	168820736	40	5405
2026-01-05 10:17:06.21	96.58	11.19	-35.8	-37.9	14.4	7.16e-04	0	54	0	186646528	42	4790
2026-01-05 10:17:09.24	96.19	11.40	-35.9	-37.8	15.0	3.51e-04	0	54	0	203423744	42	4729
2026-01-05 10:17:12.27	95.79	11.60	-36.1	-38.0	15.0	8.81e-05	0	54	0	220200960	42	4860
2026-01-05 10:17:15.30	95.39	11.80	-36.2	-38.2	15.0	0.00e+00	0	54	0	238026752	43	4675
2026-01-05 10:17:18.33	94.98	12.00	-36.2	-38.1	15.1	0.00e+00	0	54	0	254803968	43	4613
2026-01-05 10:17:21.36	94.56	12.21	-36.2	-38.1	15.1	0.00e+00	0	54	0	271581184	43	4633
2026-01-05 10:17:24.39	94.14	12.41	-36.0	-37.8	15.4	0.00e+00	0	54	0	288358400	43	4479
2026-01-05 10:17:27.42	93.72	12.61	-35.9	-37.7	15.6	0.00e+00	0	54	0	306184192	43	4424
2026-01-05 10:17:30.45	93.29	12.82	-35.8	-37.5	15.7	0.00e+00	0	54	0	322961408	43	4338
2026-01-05 10:17:33.48	92.85	13.02	-35.8	-37.5	15.7	0.00e+00	0	54	0	339738624	43	4339
2026-01-05 10:17:36.51	92.40	13.23	-35.8	-37.6	15.6	0.00e+00	0	54	0	356515840	43	4366
2026-01-05 10:17:39.54	91.95	13.43	-35.8	-37.6	15.6	0.00e+00	0	54	0	373293056	43	4359
2026-01-05 10:17:42.57	91.49	13.63	-35.8	-37.7	15.5	0.00e+00	0	54	0	391118848	43	4404
2026-01-05 10:17:45.61	91.03	13.84	-35.3	-37.0	16.1	0.00e+00	0	54	0	407896064	42	4305
2026-01-05 10:17:48.64	90.56	14.04	-35.3	-37.0	16.1	0.00e+00	0	55	0	424673280	42	4324
2026-01-05 10:17:51.66	90.08	14.24	-35.0	-36.7	16.3	0.00e+00	0	55	0	442499072	42	4155
2026-01-05 10:17:54.70	89.60	14.45	-35.5	-37.4	15.6	0.00e+00	0	54	0	459276288	41	4760
2026-01-05 10:17:57.73	89.11	14.65	-36.2	-38.2	14.7	0.00e+00	0	55	0	476053504	43	4677
2026-01-05 10:18:00.76	88.61	14.85	-36.0	-38.0	14.8	1.10e-06	0	55	0	492830720	43	4561
2026-01-05 10:18:03.78	88.11	15.05	-36.1	-38.1	14.5	1.10e-06	0	55	0	510656512	43	4617
2026-01-05 10:18:06.81	87.60	15.25	-36.4	-38.5	13.8	5.70e-06	0	55	0	527433728	43	4868
2026-01-05 10:18:09.84	87.08	15.45	-36.6	-38.9	13.3	2.86e-05	0	55	0	544210944	43	5086
2026-01-05 10:18:12.87	86.56	15.65	-37.1	-39.6	12.5	1.36e-04	0	55	0	560988160	44	5196
2026-01-05 10:18:15.90	86.03	15.85	-37.3	-40.1	11.9	5.76e-04	0	55	0	578813952	45	5175
2026-01-05 10:18:18.93	85.49	16.05	-37.4	-40.2	11.7	9.13e-04	0	55	0	595591168	45	5251
2026-01-05 10:18:21.96	84.94	16.25	-37.2	-39.8	12.4	2.75e-04	0	55	0	612368384	45	4998
2026-01-05 10:18:24.99	84.39	16.44	-37.0	-39.4	13.1	6.29e-05	0	55	0	629145600	45	4776
2026-01-05 10:18:28.02	83.83	16.64	-37.1	-39.3	13.4	2.51e-05	0	55	0	646971392	45	4757
2026-01-05 10:18:31.06	83.26	16.83	-36.7	-38.8	14.0	6.80e-06	0	55	0	663748608	45	4463
2026-01-05 10:18:34.09	82.68	17.02	-36.4	-38.5	14.5	1.10e-06	0	55	0	680525824	44	4557
2026-01-05 10:18:37.12	82.10	17.21	-35.8	-37.7	15.2	0.00e+00	0	55	0	697303040	43	4396
2026-01-05 10:18:40.15	81.51	17.40	-36.2	-38.2	14.5	1.10e-06	0	55	0	715128832	43	4681
2026-01-05 10:18:43.18	80.91	17.59	-36.2	-38.2	14.2	1.10e-06	0	55	0	731906048	43	4703
2026-01-05 10:18:46.20	80.31	17.77	-36.3	-38.6	13.5	1.71e-05	0	55	0	748683264	43	4873
2026-01-05 10:18:49.23	79.70	17.95	-36.6	-39.0	12.9	6.63e-05	0	55	0	765460480	43	5137
2026-01-05 10:18:52.26	79.08	18.14	-36.6	-39.0	12.8	1.03e-04	0	55	0	783286272	43	5143
2026-01-05 10:18:55.29	78.45	18.31	-36.4	-38.7	13.3	2.74e-05	0	55	0	800063488	43	4972
2026-01-05 10:18:58.32	77.81	18.49	-36.1	-38.3	13.9	5.70e-06	0	56	0	816840704	43	4739
2026-01-05 10:19:01.35	77.17	18.67	-36.0	-38.1	14.2	2.20e-06	0	55	0	834666496	43	4629
2026-01-05 10:19:04.38	76.52	18.84	-35.9	-37.9	14.3	1.10e-06	0	56	0	851443712	43	4526
2026-01-05 10:19:07.41	75.87	19.01	-35.8	-37.8	14.4	0.00e+00	0	56	0	868220928	43	4473
2026-01-05 10:19:10.44	75.20	19.17	-35.5	-37.5	14.9	0.00e+00	0	56	0	884998144	43	4294
2026-01-05 10:19:13.47	74.53	19.34	-35.3	-37.2	15.3	0.00e+00	0	55	0	901775360	42	4392
2026-01-05 10:19:16.50	73.85	19.50	-35.4	-37.3	15.3	0.00e+00	0	56	0	919601152	42	4454
2026-01-05 10:19:19.54	73.16	19.65	-35.3	-37.0	15.7	0.00e+00	0	55	0	936378368	42	4333
2026-01-05 10:19:22.57	72.47	19.81	-35.4	-37.2	15.7	0.00e+00	0	56	0	953155584	42	4410
2026-01-05 10:19:25.59	71.77	19.96	-35.1	-36.9	16.1	0.00e+00	0	55	0	970981376	42	4254
2026-01-05 10:19:28.62	71.07	20.10	-35.1	-36.8	16.4	0.00e+00	0	56	0	987758592	42	4216
2026-01-05 10:19:31.65	70.35	20.24	-34.9	-36.5	17.0	0.00e+00	0	56	0	1004535808	41	4326
2026-01-05 10:19:34.69	69.63	20.38	-34.7	-36.2	17.6	0.00e+00	0	56	0	1021313024	41	4160
2026-01-05 10:19:37.71	68.91	20.52	-34.2	-35.7	18.3	0.00e+00	0	56	0	1039138816	40	4146
2026-01-05 10:19:40.75	68.17	20.65	-34.0	-35.4	18.7	0.00e+00	0	56	0	1055916032	39	4254
2026-01-05 10:19:43.78	67.43	20.77	-33.7	-35.1	19.1	0.00e+00	0	56	0	1072693248	39	4099
2026-01-05 10:19:46.80	66.69	20.89	-33.7	-35.0	19.2	0.00e+00	0	56	0	1089470464	39	4063
2026-01-05 10:19:49.83	65.94	21.01	-33.8	-35.1	19.1	0.00e+00	0	56	0	1106247680	39	4117
2026-01-05 10:19:52.86	65.19	21.12	-33.7	-35.0	19.2	0.00e+00	0	56	0	1124073472	39	4097
2026-01-05 10:19:55.89	64.42	21.23	-33.9	-35.2	19.0	0.00e+00	0	56	0	1140850688	39	4182
2026-01-05 10:19:58.92	63.66	21.33	-33.9	-35.3	19.0	0.00e+00	0	56	0	1157627904	39	4209
2026-01-05 10:20:01.95	62.89	21.43	-33.9	-35.3	19.0	0.00e+00	0	56	0	1175453696	39	4201
2026-01-05 10:20:04.98	62.11	21.52	-34.1	-35.5	18.8	0.00e+00	0	56	0	1192230912	39	4304
2026-01-05 10:20:08.01	61.33	21.61	-34.0	-35.4	18.9	0.00e+00	0	56	0	1209008128	39	4246
2026-01-05 10:20:11.04	60.55	21.69	-33.6	-34.9	19.4	0.00e+00	0	56	0	1225785344	39	4025
2026-01-05 10:20:14.06	59.76	21.77	-33.7	-35.0	19.3	0.00e+00	0	56	0	1243611136	39	4060
2026-01-05 10:20:17.10	58.96	21.84	-33.6	-35.0	19.3	0.00e+00	0	56	0	1260388352	39	4054
2026-01-05 10:20:20.13	58.17	21.90	-33.7	-35.0	19.3	0.00e+00	0	56	0	1277165568	39	4058
2026-01-05 10:20:23.16	57.37	21.96	-33.6	-34.9	19.4	0.00e+00	0	56	0	1293942784	39	4013
2026-01-05 10:20:26.19	56.57	22.01	-33.5	-34.8	19.5	0.00e+00	0	56	0	1310720000	38	4206
2026-01-05 10:20:29.21	55.76	22.06	-34.0	-35.1	19.6	0.00e+00	0	56	0	1328545792	38	4386
2026-01-05 10:20:32.25	54.95	22.10	-34.1	-35.3	19.5	0.00e+00	0	56	0	1345323008	38	4486
2026-01-05 10:20:35.28	54.15	22.14	-33.9	-35.1	19.7	0.00e+00	0	56	0	1362100224	38	4345
2026-01-05 10:20:38.31	53.34	22.17	-33.6	-34.7	20.1	0.00e+00	0	56	0	1379926016	38	4192
2026-01-05 10:20:41.33	52.53	22.19	-33.7	-34.8	20.0	0.00e+00	0	56	0	1396703232	38	4235
2026-01-05 10:20:44.36	51.71	22.21	-33.8	-34.9	19.9	0.00e+00	0	56	0	1413480448	38	4289
2026-01-05 10:20:47.39	50.90	22.22	-33.9	-35.0	19.8	0.00e+00	0	56	0	1430257664	38	4322
2026-01-05 10:20:50.42	50.09	22.22	-34.1	-35.3	19.6	0.00e+00	0	56	0	1448083456	38	4447
2026-01-05 10:20:53.45	49.27	22.22	-34.0	-35.2	19.6	0.00e+00	0	56	0	1464860672	38	4419
2026-01-05 10:20:56.48	48.46	22.21	-34.1	-35.2	19.6	0.00e+00	0	56	0	1481637888	38	4435
2026-01-05 10:20:59.50	47.65	22.20	-33.7	-34.8	20.0	0.00e+00	0	56	0	1498415104	38	4216
2026-01-05 10:21:02.53	46.84	22.18	-33.7	-34.8	20.0	0.00e+00	0	56	0	1515192320	38	4242
2026-01-05 10:21:05.57	46.02	22.15	-33.7	-34.8	20.1	0.00e+00	0	56	0	1533018112	38	4215
2026-01-05 10:21:08.60	45.21	22.12	-33.9	-35.0	19.8	0.00e+00	0	56	0	1549795328	38	4336
2026-01-05 10:21:11.62	44.41	22.08	-33.8	-34.9	19.9	0.00e+00	0	56	0	1566572544	38	4278
2026-01-05 10:21:14.65	43.60	22.04	-33.9	-35.1	19.7	0.00e+00	0	56	0	1584398336	38	4365
2026-01-05 10:21:17.68	42.80	21.99	-33.7	-34.8	20.0	0.00e+00	0	56	0	1601175552	38	4232
2026-01-05 10:21:20.71	42.00	21.93	-33.8	-34.9	19.9	0.00e+00	0	56	0	1617952768	38	4291
2026-01-05 10:21:23.74	41.20	21.87	-33.8	-35.0	19.8	0.00e+00	0	56	0	1634729984	38	4320
2026-01-05 10:21:26.77	40.41	21.81	-33.8	-34.9	19.9	0.00e+00	0	56	0	1652555776	38	4282
2026-01-05 10:21:29.80	39.62	21.73	-33.7	-34.9	20.0	0.00e+00	0	56	0	1669332992	38	4252
2026-01-05 10:21:32.84	38.83	21.65	-33.7	-34.9	20.0	0.00e+00	0	56	0	1686110208	38	4252
2026-01-05 10:21:35.86	38.05	21.57	-34.0	-35.2	19.7	0.00e+00	0	56	0	1702887424	38	4403
2026-01-05 10:21:38.89	37.27	21.48	-34.0	-35.2	19.7	0.00e+00	0	56	0	1720713216	38	4392
2026-01-05 10:21:41.93	36.50	21.39	-33.9	-35.1	19.7	0.00e+00	0	56	0	1737490432	38	4366
2026-01-05 10:21:44.96	35.73	21.29	-34.1	-35.3	19.5	0.00e+00	0	56	0	1754267648	38	4479
2026-01-05 10:21:47.99	34.97	21.18	-33.9	-35.0	19.8	0.00e+00	0	56	0	1771044864	38	4320
2026-01-05 10:21:51.02	34.21	21.07	-33.9	-35.0	19.8	0.00e+00	0	56	0	1788870656	38	4317
2026-01-05 10:21:54.05	33.46	20.96	-34.0	-35.1	19.7	0.00e+00	0	56	0	1805647872	38	4391
2026-01-05 10:21:57.08	32.72	20.84	-34.0	-35.1	19.7	0.00e+00	0	56	0	1822425088	38	4382
2026-01-05 10:22:00.11	31.98	20.71	-34.1	-35.2	19.6	0.00e+00	0	56	0	1839202304	38	4428
2026-01-05 10:22:03.14	31.24	20.59	-34.2	-35.4	19.4	0.00e+00	0	56	0	1857028096	38	4507
2026-01-05 10:22:06.17	30.51	20.45	-34.3	-35.5	19.4	0.00e+00	0	56	0	1873805312	39	4304
2026-01-05 10:22:09.20	29.79	20.32	-34.1	-35.2	19.6	0.00e+00	0	56	0	1890582528	39	4185
2026-01-05 10:22:12.23	29.08	20.18	-34.2	-35.4	19.4	0.00e+00	0	56	0	1907359744	39	4251
2026-01-05 10:22:15.26	28.37	20.03	-34.2	-35.3	19.5	0.00e+00	0	56	0	1925185536	39	4231
2026-01-05 10:22:18.29	27.67	19.89	-34.3	-35.5	19.4	0.00e+00	0	56	0	1941962752	39	4303
2026-01-05 10:22:21.32	26.98	19.74	-34.3	-35.6	19.3	0.00e+00	0	56	0	1958739968	39	4342
2026-01-05 10:22:24.35	26.29	19.58	-34.5	-35.7	19.1	0.00e+00	0	56	0	1976565760	39	4433
2026-01-05 10:22:27.38	25.61	19.42	-34.4	-35.6	19.2	0.00e+00	0	56	0	1993342976	39	4373
2026-01-05 10:22:30.41	24.94	19.26	-34.7	-35.9	18.9	0.00e+00	0	57	0	2010120192	39	4523
2026-01-05 10:22:33.44	24.27	19.10	-34.6	-35.8	18.9	0.00e+00	0	57	0	2026897408	40	4217
2026-01-05 10:22:36.47	23.61	18.93	-34.5	-35.7	19.1	0.00e+00	0	56	0	2043674624	40	4154
2026-01-05 10:22:39.50	22.96	18.76	-34.5	-35.8	19.0	0.00e+00	0	56	0	2061500416	40	4207
2026-01-05 10:22:42.53	22.32	18.59	-34.5	-35.7	19.0	0.00e+00	0	56	0	2078277632	40	4187
2026-01-05 10:22:45.56	21.68	18.41	-34.7	-36.0	18.8	0.00e+00	0	56	0	2095054848	40	4296
2026-01-05 10:22:48.59	21.05	18.24	-34.9	-36.2	18.5	0.00e+00	0	56	0	2111832064	40	4422
2026-01-05 10:22:51.61	20.43	18.06	-35.0	-36.3	18.4	0.00e+00	0	56	0	2129657856	40	4491
2026-01-05 10:22:54.64	19.82	17.88	-34.9	-36.2	18.5	0.00e+00	0	56	0	2146435072	40	4407
2026-01-05 10:22:57.67	19.21	17.69	-35.0	-36.3	18.4	0.00e+00	0	56	0	2163212288	40	4487
2026-01-05 10:23:00.70	18.61	17.51	-34.7	-36.0	18.7	0.00e+00	0	56	0	2181038080	40	4301
2026-01-05 10:23:03.73	18.02	17.32	-34.9	-36.1	18.5	0.00e+00	0	57	0	2197815296	40	4387
2026-01-05 10:23:06.77	17.44	17.13	-34.8	-36.1	18.6	0.00e+00	0	56	0	2214592512	40	4362
2026-01-05 10:23:09.79	16.86	16.94	-34.8	-36.0	18.6	0.00e+00	0	56	0	2231369728	40	4340
2026-01-05 10:23:12.82	16.29	16.75	-35.0	-36.3	18.4	0.00e+00	0	57	0	2248146944	40	4481
2026-01-05 10:23:15.85	15.73	16.56	-34.9	-36.1	18.5	0.00e+00	0	56	0	2265972736	40	4374
2026-01-05 10:23:18.88	15.18	16.36	-35.0	-36.3	18.4	0.00e+00	0	56	0	2282749952	40	4465
2026-01-05 10:23:21.91	14.63	16.17	-34.9	-36.2	18.4	0.00e+00	0	56	0	2299527168	40	4430
2026-01-05 10:23:24.94	14.09	15.97	-34.9	-36.2	18.4	0.00e+00	0	56	0	2316304384	40	4421
2026-01-05 10:23:27.97	13.56	15.77	-35.1	-36.4	18.2	3.40e-06	0	56	0	2334130176	40	4507
2026-01-05 10:23:31.00	13.03	15.57	-35.2	-36.6	18.0	0.00e+00	0	56	0	2350907392	41	4357
2026-01-05 10:23:34.02	12.52	15.38	-35.4	-36.8	17.8	0.00e+00	0	56	0	2367684608	41	4474
2026-01-05 10:23:37.05	12.00	15.18	-35.5	-36.9	17.7	0.00e+00	0	56	0	2384461824	41	4525
2026-01-05 10:23:40.08	11.50	14.98	-35.5	-36.9	17.6	0.00e+00	0	57	0	2402287616	41	4513
2026-01-05 10:23:43.11	11.00	14.77	-35.6	-37.0	17.5	0.00e+00	0	57	0	2419064832	41	4557
2026-01-05 10:23:46.14	10.51	14.57	-35.5	-36.9	17.6	0.00e+00	0	57	0	2435842048	41	4512
2026-01-05 10:23:49.17	10.03	14.37	-35.4	-36.8	17.5	0.00e+00	0	56	0	2452619264	41	4463
2026-01-05 10:23:52.20	9.55	14.17	-35.4	-36.8	17.4	0.00e+00	0	56	0	2470445056	41	4489
2026-01-05 10:23:55.23	9.08	13.97	-35.6	-37.1	17.0	0.00e+00	0	56	0	2487222272	42	4367
2026-01-05 10:23:58.25	8.62	13.76	-35.7	-37.2	16.8	0.00e+00	0	57	0	2503999488	42	4408
2026-01-05 10:24:01.29	8.16	13.56	-35.7	-37.3	16.6	0.00e+00	0	56	0	2520776704	42	4449
2026-01-05 10:24:04.32	7.71	13.36	-35.4	-36.9	16.8	0.00e+00	0	57	0	2538602496	42	4256
2026-01-05 10:24:07.35	7.26	13.15	-35.8	-37.5	16.1	0.00e+00	0	57	0	2555379712	42	4564
2026-01-05 10:24:10.38	6.82	12.95	-35.8	-37.4	15.9	0.00e+00	0	57	0	2572156928	42	4535
2026-01-05 10:24:13.40	6.39	12.75	-35.6	-37.2	16.1	0.00e+00	0	56	0	2588934144	42	4414
2026-01-05 10:24:16.43	5.96	12.54	-35.4	-37.0	16.0	0.00e+00	0	57	0	2606759936	42	4333
2026-01-05 10:24:19.46	5.54	12.34	-36.1	-38.1	14.6	1.10e-06	0	57	0	2623537152	42	4880
2026-01-05 10:24:22.50	5.13	12.14	-37.0	-39.3	13.1	2.17e-05	0	57	0	2640314368	44	5009
2026-01-05 10:24:25.53	4.72	11.94	-39.4	-44.0	7.6	8.57e-02	0	57	0	2657091584	49	6451
2026-01-05 10:24:28.55	4.32	11.73	-40.5	-49.8	3.8	8.41e-01	0	57	104	2664431616	51	11184
2026-01-05 10:24:31.58	3.92	11.53	-40.4	-51.6	3.8	8.47e-01	0	57	104	2664431616	51	13878
2026-01-05 10:24:34.61	3.53	11.33	-40.2	-51.8	3.8	8.46e-01	0	57	104	2664431616	51	14162
2026-01-05 10:24:37.64	3.14	11.13	-40.0	-51.6	3.8	8.46e-01	0	57	104	2664431616	51	13782
2026-01-05 10:24:40.66	2.76	10.93	-40.1	-51.6	3.8	8.46e-01	0	57	104	2664431616	51	13881
2026-01-05 10:24:43.69	2.38	10.73	-40.1	-51.6	3.8	8.45e-01	0	57	104	2664431616	51	13823
2026-01-05 10:24:46.72	2.01	10.53	-40.0	-51.5	3.8	8.46e-01	0	57	104	2664431616	51	13707
2026-01-05 10:24:49.76	1.65	10.33	-40.0	-51.6	3.8	8.46e-01	0	57	104	2664431616	51	13742
2026-01-05 10:24:52.78	1.29	10.13	-39.8	-51.5	3.8	8.47e-01	0	57	104	2664431616	51	13599
2026-01-05 10:24:55.81	0.93	9.93	-39.7	-51.4	3.8	8.47e-01	0	57	104	2664431616	51	13557
2026-01-05 10:24:58.84	0.58	9.73	-39.6	-51.5	3.8	8.46e-01	0	57	104	2664431616	51	13578
2026-01-05 10:25:01.87	0.24	9.54	-39.5	-51.5	3.8	8.47e-01	0	57	104	2664431616	51	13661
2026-01-05 10:25:04.90	359.90	9.34	-39.7	-51.5	3.8	8.46e-01	0	57	104	2664431616	50	14383
2026-01-05 10:25:07.93	359.56	9.14	-39.5	-51.4	3.8	8.46e-01	0	57	104	2664431616	50	14329
2026-01-05 10:25:10.96	359.23	8.95	-39.5	-51.5	3.8	8.46e-01	0	57	104	2664431616	50	14397
2026-01-05 10:25:14.00	358.90	8.75	-39.5	-51.4	3.8	8.46e-01	0	57	104	2664431616	49	15114
2026-01-05 10:25:17.03	358.58	8.56	-39.2	-51.3	3.8	8.47e-01	0	57	104	2664431616	49	15050
2026-01-05 10:25:20.05	358.26	8.36	-38.3	-51.2	3.8	8.46e-01	0	57	104	2664431616	48	15732
2026-01-05 10:25:23.08	357.95	8.17	-38.7	-51.3	3.8	8.46e-01	0	57	104	2664431616	48	15815
2026-01-05 10:25:26.12	357.64	7.98	-39.6	-51.5	3.8	8.45e-01	0	57	104	2664431616	49	15232
2026-01-05 10:25:29.15	357.33	7.78	-44.9	-56.6	3.8	8.46e-01	0	57	104	2664431616	60	14686
2026-01-05 10:25:32.19	357.03	7.59	-45.2	-56.9	3.8	8.46e-01	0	57	104	2664431616	60	15213
2026-01-05 10:25:35.22	356.73	7.40	-45.1	-57.0	3.8	8.46e-01	0	57	104	2664431616	60	15291
2026-01-05 10:25:38.25	356.44	7.21	-44.9	-56.9	3.8	8.46e-01	0	57	104	2664431616	60	15068
2026-01-05 10:25:41.28	356.15	7.02	-45.0	-56.9	3.8	8.46e-01	0	57	104	2664431616	60	15083
2026-01-05 10:25:44.32	355.87	6.83	-44.9	-56.8	3.8	8.45e-01	0	57	104	2664431616	60	15011
2026-01-05 10:25:47.35	355.59	6.65	-44.6	-56.8	3.8	8.46e-01	0	57	104	2664431616	60	15028
2026-01-05 10:25:50.38	355.31	6.46	-44.9	-56.8	3.8	8.45e-01	0	57	104	2664431616	60	14967
2026-01-05 10:25:53.41	355.03	6.27	-44.9	-56.8	3.8	8.45e-01	0	57	104	2664431616	60	15023
2026-01-05 10:25:56.45	354.76	6.09	-44.9	-56.8	3.8	8.46e-01	0	57	104	2664431616	60	15007
2026-01-05 10:25:59.48	354.50	5.90	-44.9	-56.8	3.8	8.46e-01	0	57	104	2664431616	60	15011
2026-01-05 10:26:02.51	354.23	5.72	-44.9	-56.8	3.8	8.46e-01	0	57	104	2664431616	60	14979
2026-01-05 10:26:05.55	353.97	5.53	-44.9	-56.8	3.8	8.46e-01	0	57	104	2664431616	60	14972
2026-01-05 10:26:08.58	353.72	5.35	-44.9	-56.8	3.8	8.46e-01	0	57	104	2664431616	60	14963
2026-01-05 10:26:11.61	353.46	5.17	-44.9	-56.8	3.8	8.46e-01	0	57	104	2664431616	60	14991
2026-01-05 10:26:14.64	353.21	4.99	-44.9	-56.8	3.8	8.46e-01	0	57	104	2664431616	60	14993
2026-01-05 10:26:17.68	352.97	4.81	-44.3	-56.8	3.8	8.47e-01	0	57	104	2664431616	60	14912
2026-01-05 10:26:20.71	352.72	4.63	-44.9	-56.8	3.8	8.46e-01	0	57	104	2664431616	60	14947
2026-01-05 10:26:23.75	352.48	4.45	-44.9	-56.8	3.8	8.47e-01	0	57	104	2664431616	60	14963
2026-01-05 10:26:26.78	352.25	4.27	-44.9	-56.8	3.8	8.46e-01	0	57	104	2664431616	60	14929
2026-01-05 10:26:29.81	352.01	4.09	-44.9	-56.8	3.8	8.45e-01	0	57	104	2664431616	60	14986
2026-01-05 10:26:32.85	351.78	3.91	-44.9	-56.8	3.8	8.47e-01	0	57	104	2664431616	60	14959
2026-01-05 10:26:35.88	351.55	3.74	-44.9	-56.8	3.8	8.46e-01	0	57	104	2664431616	60	14998
2026-01-05 10:26:38.91	351.33	3.56	-44.9	-56.8	3.8	8.46e-01	0	57	104	2664431616	60	14989
2026-01-05 10:26:41.94	351.10	3.38	-44.9	-56.8	3.8	8.45e-01	0	57	104	2664431616	60	14986
2026-01-05 10:26:44.98	350.88	3.21	-44.9	-56.8	3.8	8.47e-01	0	57	104	2664431616	60	14956
2026-01-05 10:26:48.01	350.67	3.04	-44.9	-56.8	3.8	8.46e-01	0	57	104	2664431616	60	14931
2026-01-05 10:26:51.04	350.45	2.86	-44.9	-56.8	3.8	8.46e-01	0	57	104	2664431616	60	14951
2026-01-05 10:26:54.07	350.24	2.69	-44.9	-56.8	3.8	8.46e-01	0	57	104	2664431616	60	14918
2026-01-05 10:26:57.11	350.03	2.52	-44.9	-56.7	3.8	8.45e-01	0	57	104	2664431616	60	14876
2026-01-05 10:27:00.14	349.82	2.35	-44.9	-56.8	3.8	8.46e-01	0	57	104	2664431616	60	14911
2026-01-05 10:27:03.17	349.62	2.18	-44.9	-56.8	3.8	8.46e-01	0	57	104	2664431616	60	14929
2026-01-05 10:27:06.21	349.42	2.01	-44.9	-56.8	3.8	8.46e-01	0	57	104	2664431616	60	14907

#Closed at: 2026-01-05 10:27:06
#Recorded file [2664 MB]: D:/lorett/data/31039_260105_131437.dat