passes_logs/2026/01/05/R2.0S_Moscow/R2.0S_Moscow__20260105_102258_NOAA_21_JPSS-2_rec.log

#Pass ID: 20260105_102258_NOAA 21 (JPSS-2)
#Satellite: NOAA 21 (JPSS-2)
#Configuration: NOAA-21
#almurnet v.1.7.20251203
#Start time: 2026-01-05 10:27:13

#Version: 2.2.20231116
#Station: R2.0S_Moscow
#Location: 37.707566 lon 55.798166 lat
#TLE: 1 54234U 22150A   26004.22845673  .00000174  00000+0  10347-3 0  9996
#TLE: 2 54234  98.7489 305.2591 0001115 345.0884  15.0259 14.19531906163281

#Time	Az	El	Level	Level2	SNR	BER	BlckErr	Temp	State	Recorded	gain1	gain2
2026-01-05 10:27:13.53	186.87	26.91	-44.9	-56.8	3.8	8.47e-01	0	57	0	0	60	14906
2026-01-05 10:27:16.56	187.21	27.40	-45.1	-57.6	3.8	1.49e+00	0	57	104	0	61	15571
2026-01-05 10:27:19.59	187.56	27.90	-45.1	-57.5	3.8	1.49e+00	0	57	104	0	61	15332
2026-01-05 10:27:22.63	187.92	28.41	-45.0	-57.4	3.8	1.49e+00	0	57	104	0	61	15204
2026-01-05 10:27:25.66	188.29	28.92	-45.0	-57.4	3.8	1.49e+00	0	57	104	0	61	15165
2026-01-05 10:27:28.69	188.67	29.45	-45.0	-57.5	3.8	1.49e+00	0	57	104	0	61	15272
2026-01-05 10:27:31.72	189.06	29.98	-45.0	-57.5	3.8	1.49e+00	0	57	104	0	61	15275
2026-01-05 10:27:34.76	189.47	30.52	-45.0	-57.5	3.8	1.49e+00	0	57	104	0	61	15285
2026-01-05 10:27:37.79	189.89	31.07	-45.0	-57.4	3.8	1.49e+00	0	57	104	0	61	15109
2026-01-05 10:27:40.82	190.33	31.63	-45.0	-57.3	3.8	1.49e+00	0	57	104	0	61	14983
2026-01-05 10:27:43.86	190.78	32.20	-44.9	-57.2	3.8	1.49e+00	0	57	104	0	61	14717
2026-01-05 10:27:46.89	191.25	32.78	-44.9	-57.2	3.8	1.49e+00	0	57	104	0	61	14824
2026-01-05 10:27:49.92	191.73	33.36	-44.9	-57.4	3.8	1.49e+00	0	57	104	0	61	15062
2026-01-05 10:27:52.96	192.23	33.96	-44.8	-56.4	3.8	1.49e+00	0	57	104	0	61	13458
2026-01-05 10:27:55.99	192.75	34.56	-44.8	-56.2	3.8	1.49e+00	0	57	104	0	61	13167
2026-01-05 10:27:59.02	193.29	35.18	-44.8	-56.2	3.8	1.49e+00	0	57	104	0	61	13229
2026-01-05 10:28:02.06	193.85	35.80	-44.6	-54.1	3.9	1.47e+00	0	57	104	0	61	10323
2026-01-05 10:28:05.09	194.43	36.44	-42.1	-45.6	10.5	8.47e-03	0	57	0	6291456	56	5177
2026-01-05 10:28:08.12	195.03	37.08	-39.5	-41.5	14.6	0.00e+00	0	57	0	15728640	50	4571
2026-01-05 10:28:11.16	195.65	37.73	-43.0	-47.4	8.7	5.94e-03	0	57	0	20971520	56	6411
2026-01-05 10:28:14.19	196.30	38.39	-39.8	-41.9	14.2	9.10e-06	0	57	0	28311552	51	4531
2026-01-05 10:28:17.21	196.98	39.05	-38.7	-40.6	15.6	0.00e+00	0	57	0	37748736	49	4343
2026-01-05 10:28:20.24	197.68	39.73	-38.5	-40.2	15.9	0.00e+00	0	57	0	47185920	48	4411
2026-01-05 10:28:23.27	198.42	40.42	-39.1	-41.0	15.1	0.00e+00	0	57	0	56623104	48	4859
2026-01-05 10:28:26.30	199.19	41.11	-39.2	-41.1	15.1	0.00e+00	0	57	0	66060288	49	4617
2026-01-05 10:28:29.33	199.98	41.81	-39.3	-41.3	14.8	0.00e+00	0	57	0	75497472	49	4732
2026-01-05 10:28:32.36	200.82	42.52	-39.9	-42.0	14.1	1.50e-06	0	57	0	84934656	50	4867
2026-01-05 10:28:35.39	201.69	43.23	-40.2	-42.6	13.6	4.50e-06	0	57	0	94371840	51	4880
2026-01-05 10:28:38.42	202.60	43.95	-40.1	-42.3	13.8	2.20e-06	0	57	0	103809024	51	4752
2026-01-05 10:28:41.45	203.55	44.68	-40.3	-42.7	13.5	1.75e-05	0	57	0	113246208	51	4970
2026-01-05 10:28:44.48	204.55	45.41	-39.8	-41.9	14.2	2.20e-06	0	57	0	122683392	51	4540
2026-01-05 10:28:47.50	205.59	46.14	-39.3	-41.8	14.3	1.79e-04	0	57	0	132120576	49	5040
2026-01-05 10:28:50.54	206.68	46.88	-39.4	-41.5	14.7	0.00e+00	0	57	0	142606336	50	4550
2026-01-05 10:28:53.57	207.83	47.61	-39.0	-40.9	15.3	0.00e+00	0	57	0	152043520	49	4500
2026-01-05 10:28:56.60	209.02	48.35	-39.6	-41.8	14.4	7.00e-07	0	57	0	161480704	49	4988
2026-01-05 10:28:59.63	210.28	49.09	-39.6	-41.6	14.6	0.00e+00	0	57	0	170917888	50	4629
2026-01-05 10:29:02.66	211.60	49.82	-38.9	-40.8	15.4	0.00e+00	0	57	0	180355072	49	4470
2026-01-05 10:29:05.69	212.98	50.55	-38.7	-40.5	15.7	0.00e+00	0	57	0	189792256	49	4292
2026-01-05 10:29:08.72	214.43	51.27	-39.0	-40.8	15.4	1.50e-06	0	57	0	199229440	49	4486
2026-01-05 10:29:11.75	215.95	51.98	-39.0	-40.8	15.4	0.00e+00	0	57	0	208666624	49	4488
2026-01-05 10:29:14.78	217.54	52.69	-38.6	-40.4	15.8	0.00e+00	0	57	0	218103808	49	4262
2026-01-05 10:29:17.81	219.21	53.37	-38.6	-40.4	15.7	0.00e+00	0	57	0	227540992	49	4269
2026-01-05 10:29:20.84	220.95	54.04	-38.3	-40.0	16.1	0.00e+00	0	57	0	236978176	48	4326
2026-01-05 10:29:23.87	222.78	54.70	-38.3	-40.1	16.1	0.00e+00	0	57	0	246415360	48	4341
2026-01-05 10:29:26.90	224.69	55.33	-38.2	-39.8	16.3	5.30e-06	0	57	0	255852544	48	4238
2026-01-05 10:29:29.93	226.69	55.93	-37.9	-39.5	16.5	0.00e+00	0	57	0	265289728	47	4329
2026-01-05 10:29:32.96	228.77	56.51	-37.4	-38.9	17.2	0.00e+00	0	57	0	274726912	46	4284
2026-01-05 10:29:35.99	230.94	57.05	-37.3	-38.8	17.2	0.00e+00	0	57	0	284164096	46	4215
2026-01-05 10:29:39.02	233.20	57.56	-37.8	-39.4	16.7	0.00e+00	0	57	0	293601280	46	4519
2026-01-05 10:29:42.05	235.53	58.03	-37.6	-39.2	16.7	0.00e+00	0	57	0	303038464	46	4440
2026-01-05 10:29:45.08	237.94	58.46	-36.9	-38.3	17.8	0.00e+00	0	57	0	312475648	45	4217
2026-01-05 10:29:48.11	240.43	58.85	-37.1	-38.6	17.4	0.00e+00	0	57	0	321912832	45	4359
2026-01-05 10:29:51.14	242.99	59.18	-37.1	-38.6	17.4	0.00e+00	0	57	0	331350016	45	4365
2026-01-05 10:29:54.17	245.61	59.46	-37.0	-38.5	17.5	0.00e+00	0	57	0	340787200	45	4303
2026-01-05 10:29:57.20	248.27	59.69	-36.9	-38.4	17.6	0.00e+00	0	57	0	350224384	45	4262
2026-01-05 10:30:00.23	250.98	59.87	-37.3	-38.9	17.2	0.00e+00	0	57	0	359661568	45	4505
2026-01-05 10:30:03.25	253.71	59.98	-37.2	-38.7	17.4	0.00e+00	0	57	0	369098752	45	4407
2026-01-05 10:30:06.29	256.48	60.04	-37.0	-38.4	17.6	0.00e+00	0	57	0	378535936	45	4272
2026-01-05 10:30:09.32	259.24	60.04	-36.8	-38.2	17.8	0.00e+00	0	57	0	387973120	45	4184
2026-01-05 10:30:12.35	262.00	59.98	-36.6	-37.9	18.1	0.00e+00	0	57	0	397410304	45	4050
2026-01-05 10:30:15.38	264.74	59.86	-36.5	-37.9	18.1	0.00e+00	0	57	0	406847488	44	4268
2026-01-05 10:30:18.41	267.45	59.69	-36.9	-38.4	17.6	0.00e+00	0	57	0	416284672	44	4518
2026-01-05 10:30:21.44	270.11	59.45	-37.1	-38.6	17.5	0.00e+00	0	57	0	425721856	44	4609
2026-01-05 10:30:24.47	272.72	59.17	-37.6	-39.1	16.9	0.00e+00	0	57	0	435159040	45	4636
2026-01-05 10:30:27.50	275.27	58.83	-36.9	-38.4	17.6	0.00e+00	0	57	0	445644800	45	4257
2026-01-05 10:30:30.54	277.76	58.45	-37.1	-38.6	17.3	0.00e+00	0	57	0	455081984	45	4375
2026-01-05 10:30:33.57	280.17	58.02	-37.2	-38.7	17.3	0.00e+00	0	57	0	464519168	45	4429
2026-01-05 10:30:36.60	282.50	57.55	-37.9	-39.6	16.5	0.00e+00	0	57	0	473956352	46	4611
2026-01-05 10:30:39.63	284.74	57.04	-37.6	-39.1	16.8	0.00e+00	0	57	0	483393536	46	4369
2026-01-05 10:30:42.66	286.90	56.49	-37.8	-39.5	16.6	0.00e+00	0	57	0	492830720	46	4549
2026-01-05 10:30:45.69	288.98	55.92	-38.2	-40.0	16.1	0.00e+00	0	57	0	502267904	47	4567
2026-01-05 10:30:48.72	290.97	55.31	-37.8	-39.4	16.6	0.00e+00	0	57	0	511705088	46	4522
2026-01-05 10:30:51.75	292.88	54.68	-38.2	-39.9	16.1	0.00e+00	0	57	0	521142272	47	4540
2026-01-05 10:30:54.78	294.70	54.03	-38.1	-39.8	16.3	0.00e+00	0	57	0	530579456	47	4457
2026-01-05 10:30:57.81	296.44	53.36	-37.8	-39.4	16.6	0.00e+00	0	57	0	540016640	47	4279
2026-01-05 10:31:00.84	298.10	52.68	-38.5	-40.4	15.7	0.00e+00	0	57	0	549453824	47	4774
2026-01-05 10:31:03.87	299.69	51.98	-38.4	-40.1	16.0	0.00e+00	0	57	0	558891008	48	4368
2026-01-05 10:31:06.90	301.20	51.27	-38.4	-40.1	16.1	0.00e+00	0	57	0	568328192	48	4366
2026-01-05 10:31:09.93	302.64	50.55	-39.1	-41.0	15.2	0.00e+00	0	57	0	577765376	48	4854
2026-01-05 10:31:12.96	304.02	49.82	-38.9	-40.7	15.3	0.00e+00	0	57	0	587202560	49	4438
2026-01-05 10:31:15.99	305.33	49.09	-39.0	-40.9	15.2	0.00e+00	0	57	0	596639744	49	4538
2026-01-05 10:31:19.01	306.58	48.36	-39.5	-41.5	14.7	7.00e-07	0	57	0	606076928	49	4861
2026-01-05 10:31:22.04	307.77	47.63	-40.1	-42.4	13.9	3.00e-06	0	57	0	615514112	50	5067
2026-01-05 10:31:25.07	308.91	46.90	-39.2	-41.1	15.1	0.00e+00	0	57	0	624951296	50	4381
2026-01-05 10:31:28.10	310.00	46.16	-39.4	-41.4	14.9	0.00e+00	0	57	0	634388480	49	4760
2026-01-05 10:31:31.13	311.04	45.44	-39.8	-42.0	14.2	0.00e+00	0	57	0	643825664	50	4861
2026-01-05 10:31:34.16	312.03	44.71	-39.2	-41.1	15.0	0.00e+00	0	57	0	653262848	50	4385
2026-01-05 10:31:37.19	312.98	43.99	-39.1	-41.0	15.2	0.00e+00	0	57	0	662700032	49	4596
2026-01-05 10:31:40.22	313.89	43.27	-39.8	-42.0	14.3	1.50e-06	0	57	0	672137216	50	4831
2026-01-05 10:31:43.25	314.76	42.56	-40.5	-42.9	13.2	1.90e-05	0	56	0	681574400	51	5072
2026-01-05 10:31:46.28	315.59	41.86	-40.3	-42.7	13.4	1.22e-05	0	57	0	691011584	51	4940
2026-01-05 10:31:49.32	316.39	41.16	-39.5	-41.6	14.6	0.00e+00	0	57	0	700448768	51	4342
2026-01-05 10:31:52.35	317.15	40.47	-40.0	-42.3	13.9	4.50e-06	0	57	0	709885952	50	4997
2026-01-05 10:31:55.38	317.89	39.79	-39.8	-42.0	14.2	7.00e-07	0	57	0	719323136	51	4579
2026-01-05 10:31:58.41	318.59	39.12	-39.0	-40.9	15.3	7.00e-07	0	57	0	728760320	50	4275
2026-01-05 10:32:01.44	319.26	38.45	-38.9	-40.7	15.5	0.00e+00	0	57	0	738197504	49	4418
2026-01-05 10:32:04.48	319.92	37.79	-38.8	-40.7	15.5	0.00e+00	0	57	0	747634688	49	4394
2026-01-05 10:32:07.51	320.54	37.15	-38.7	-40.5	15.7	0.00e+00	0	57	0	758120448	49	4294
2026-01-05 10:32:10.54	321.14	36.51	-38.7	-40.6	15.6	0.00e+00	0	57	0	767557632	49	4343
2026-01-05 10:32:13.57	321.72	35.88	-38.4	-40.1	16.1	0.00e+00	0	57	0	776994816	48	4366
2026-01-05 10:32:16.60	322.28	35.26	-38.0	-39.6	16.5	0.00e+00	0	57	0	786432000	48	4128
2026-01-05 10:32:19.63	322.81	34.65	-38.7	-40.4	15.6	0.00e+00	0	57	0	795869184	48	4545
2026-01-05 10:32:22.66	323.33	34.05	-39.1	-41.1	15.0	0.00e+00	0	57	0	805306368	48	4876
2026-01-05 10:32:25.69	323.83	33.46	-38.4	-40.2	15.9	0.00e+00	0	57	0	814743552	48	4403
2026-01-05 10:32:28.72	324.31	32.88	-38.4	-40.1	16.0	0.00e+00	0	57	0	824180736	48	4367
2026-01-05 10:32:31.75	324.78	32.30	-38.3	-40.1	16.0	0.00e+00	0	57	0	833617920	48	4342
2026-01-05 10:32:34.77	325.23	31.74	-38.6	-40.4	15.7	0.00e+00	0	57	0	843055104	48	4507
2026-01-05 10:32:37.81	325.66	31.18	-38.0	-39.7	16.4	0.00e+00	0	57	0	852492288	48	4154
2026-01-05 10:32:40.84	326.09	30.64	-37.7	-39.3	16.7	0.00e+00	0	57	0	861929472	47	4228
2026-01-05 10:32:43.86	326.49	30.10	-37.4	-39.0	17.0	0.00e+00	0	57	0	871366656	46	4298
2026-01-05 10:32:46.89	326.89	29.57	-37.5	-39.0	16.9	0.00e+00	0	56	0	880803840	46	4333
2026-01-05 10:32:49.92	327.27	29.05	-37.1	-38.6	17.2	0.00e+00	0	57	0	890241024	46	4112
2026-01-05 10:32:52.95	327.64	28.54	-37.1	-38.6	17.2	0.00e+00	0	57	0	899678208	46	4131
2026-01-05 10:32:55.98	328.00	28.03	-37.1	-38.6	17.2	0.00e+00	0	57	0	909115392	46	4137
2026-01-05 10:32:59.01	328.35	27.54	-37.4	-38.9	17.0	0.00e+00	0	57	0	918552576	46	4267
2026-01-05 10:33:02.04	328.69	27.05	-37.2	-38.7	17.2	0.00e+00	0	57	0	927989760	46	4160
2026-01-05 10:33:05.07	329.02	26.57	-36.9	-38.4	17.5	0.00e+00	0	57	0	937426944	45	4271
2026-01-05 10:33:08.10	329.34	26.09	-36.9	-38.4	17.5	0.00e+00	0	57	0	946864128	45	4266
2026-01-05 10:33:11.13	329.65	25.63	-36.9	-38.4	17.5	0.00e+00	0	57	0	956301312	45	4262
2026-01-05 10:33:14.16	329.95	25.17	-37.0	-38.5	17.3	0.00e+00	0	57	0	965738496	45	4328
2026-01-05 10:33:17.19	330.24	24.71	-37.0	-38.5	17.4	0.00e+00	0	57	0	975175680	45	4306
2026-01-05 10:33:20.22	330.53	24.27	-36.7	-38.1	17.7	0.00e+00	0	57	0	984612864	45	4138
2026-01-05 10:33:23.25	330.81	23.83	-36.8	-38.2	17.6	0.00e+00	0	57	0	994050048	45	4167
2026-01-05 10:33:26.28	331.08	23.40	-36.9	-38.4	17.5	0.00e+00	0	57	0	1003487232	45	4258
2026-01-05 10:33:29.32	331.34	22.97	-37.0	-38.5	17.3	0.00e+00	0	57	0	1012924416	45	4338
2026-01-05 10:33:32.35	331.60	22.56	-37.1	-38.7	17.2	0.00e+00	0	57	0	1022361600	45	4395
2026-01-05 10:33:35.38	331.85	22.14	-37.0	-38.4	17.3	0.00e+00	0	57	0	1031798784	45	4291
2026-01-05 10:33:38.41	332.10	21.74	-37.0	-38.5	17.3	0.00e+00	0	57	0	1041235968	45	4318
2026-01-05 10:33:41.44	332.34	21.34	-37.1	-38.6	17.2	0.00e+00	0	57	0	1051721728	45	4369
2026-01-05 10:33:44.47	332.57	20.94	-37.0	-38.5	17.2	0.00e+00	0	57	0	1060110336	45	4337
2026-01-05 10:33:47.50	332.80	20.55	-37.1	-38.6	17.1	0.00e+00	0	57	0	1070596096	45	4374
2026-01-05 10:33:50.53	333.02	20.17	-37.2	-38.8	17.0	0.00e+00	0	57	0	1078984704	45	4450
2026-01-05 10:33:53.56	333.24	19.79	-37.1	-38.7	17.0	0.00e+00	0	57	0	1089470464	45	4393
2026-01-05 10:33:56.59	333.45	19.42	-37.3	-38.9	16.8	0.00e+00	0	57	0	1098907648	45	4494
2026-01-05 10:33:59.62	333.66	19.05	-37.2	-38.8	16.8	0.00e+00	0	56	0	1108344832	45	4481
2026-01-05 10:34:02.65	333.86	18.69	-37.5	-39.2	16.5	0.00e+00	0	57	0	1117782016	45	4664
2026-01-05 10:34:05.68	334.06	18.33	-37.4	-39.0	16.5	0.00e+00	0	57	0	1127219200	45	4586
2026-01-05 10:34:08.71	334.25	17.98	-37.5	-39.2	16.3	0.00e+00	0	57	0	1136656384	45	4682
2026-01-05 10:34:11.75	334.44	17.63	-37.5	-39.1	16.3	0.00e+00	0	57	0	1146093568	45	4647
2026-01-05 10:34:14.77	334.63	17.29	-37.6	-39.3	16.2	0.00e+00	0	57	0	1155530752	45	4721
2026-01-05 10:34:17.81	334.81	16.95	-37.6	-39.3	16.0	0.00e+00	0	57	0	1164967936	45	4747
2026-01-05 10:34:20.84	334.99	16.62	-37.8	-39.6	15.9	0.00e+00	0	57	0	1174405120	46	4613
2026-01-05 10:34:23.87	335.16	16.29	-37.9	-39.7	15.7	0.00e+00	0	57	0	1183842304	46	4690
2026-01-05 10:34:26.90	335.33	15.96	-37.8	-39.6	15.8	0.00e+00	0	57	0	1193279488	46	4620
2026-01-05 10:34:29.93	335.50	15.64	-37.8	-39.7	15.7	0.00e+00	0	57	0	1202716672	46	4652
2026-01-05 10:34:32.96	335.67	15.32	-37.8	-39.6	15.7	0.00e+00	0	57	0	1212153856	46	4641
2026-01-05 10:34:35.99	335.83	15.01	-37.9	-39.7	15.6	0.00e+00	0	57	0	1221591040	46	4671
2026-01-05 10:34:39.02	335.99	14.70	-38.0	-39.9	15.4	0.00e+00	0	57	0	1231028224	46	4799
2026-01-05 10:34:42.05	336.14	14.39	-38.0	-39.9	15.4	0.00e+00	0	57	0	1240465408	46	4762
2026-01-05 10:34:45.08	336.30	14.09	-38.0	-39.9	15.3	0.00e+00	0	57	0	1249902592	46	4794
2026-01-05 10:34:48.11	336.44	13.79	-37.9	-39.7	15.4	0.00e+00	0	57	0	1259339776	46	4698
2026-01-05 10:34:51.15	336.59	13.50	-37.7	-39.5	15.5	0.00e+00	0	57	0	1268776960	46	4593
2026-01-05 10:34:54.18	336.74	13.21	-37.8	-39.7	15.3	0.00e+00	0	57	0	1278214144	46	4688
2026-01-05 10:34:57.21	336.88	12.92	-38.1	-40.1	14.8	0.00e+00	0	57	0	1287651328	46	4920
2026-01-05 10:35:00.24	337.02	12.63	-37.9	-40.0	14.9	0.00e+00	0	57	0	1297088512	46	4817
2026-01-05 10:35:03.27	337.15	12.35	-37.7	-39.6	15.2	0.00e+00	0	57	0	1306525696	46	4648
2026-01-05 10:35:06.30	337.29	12.07	-37.8	-39.8	15.0	7.00e-07	0	57	0	1315962880	46	4713
2026-01-05 10:35:09.33	337.42	11.79	-37.9	-40.0	14.6	7.00e-07	0	56	0	1325400064	46	4865
2026-01-05 10:35:12.36	337.55	11.52	-38.2	-40.4	14.1	0.00e+00	0	57	0	1334837248	47	4786
2026-01-05 10:35:15.39	337.68	11.25	-38.3	-40.6	13.9	3.00e-06	0	57	0	1345323008	47	4877
2026-01-05 10:35:18.43	337.81	10.98	-38.1	-40.4	14.0	1.50e-06	0	57	0	1353711616	47	4776
2026-01-05 10:35:21.46	337.93	10.72	-38.0	-40.2	14.1	2.20e-06	0	57	0	1364197376	47	4692
2026-01-05 10:35:24.49	338.05	10.46	-37.9	-40.1	14.2	0.00e+00	0	57	0	1373634560	47	4611
2026-01-05 10:35:27.52	338.17	10.20	-37.8	-40.1	14.1	7.00e-07	0	57	0	1383071744	47	4609
2026-01-05 10:35:30.55	338.29	9.94	-37.8	-40.0	14.1	3.00e-06	0	57	0	1392508928	47	4583
2026-01-05 10:35:33.58	338.41	9.69	-38.0	-40.3	13.8	3.00e-06	0	57	0	1401946112	47	4712
2026-01-05 10:35:36.61	338.52	9.44	-38.1	-40.5	13.5	9.90e-06	0	57	0	1411383296	47	4828
2026-01-05 10:35:39.64	338.63	9.19	-38.3	-40.8	13.0	2.21e-05	0	57	0	1420820480	47	5039
2026-01-05 10:35:42.67	338.75	8.94	-38.6	-41.4	12.4	1.18e-04	0	57	0	1430257664	47	5385
2026-01-05 10:35:45.70	338.85	8.70	-39.0	-42.0	11.7	5.12e-04	0	57	0	1439694848	48	5429
2026-01-05 10:35:48.73	338.96	8.46	-39.4	-42.8	10.7	2.00e-03	0	57	0	1449132032	49	5631
2026-01-05 10:35:51.76	339.07	8.22	-39.6	-43.5	9.7	1.06e-02	0	57	0	1458569216	49	6099
2026-01-05 10:35:54.79	339.17	7.98	-43.0	-54.5	3.8	7.15e-01	0	57	104	1466957824	56	14471
2026-01-05 10:35:57.82	339.28	7.74	-44.8	-57.4	3.8	1.49e+00	0	57	104	1466957824	60	15972
2026-01-05 10:36:00.85	339.38	7.51	-45.1	-57.7	3.8	1.49e+00	0	57	104	1466957824	60	16525
2026-01-05 10:36:03.88	339.48	7.28	-45.1	-57.8	3.8	1.49e+00	0	57	104	1466957824	60	16734
2026-01-05 10:36:06.92	339.58	7.05	-45.0	-57.7	3.8	1.49e+00	0	57	104	1466957824	60	16517
2026-01-05 10:36:09.95	339.68	6.82	-45.0	-57.6	3.8	1.49e+00	0	57	104	1466957824	60	16487
2026-01-05 10:36:12.98	339.77	6.60	-45.0	-57.6	3.8	1.49e+00	0	57	104	1466957824	60	16408
2026-01-05 10:36:16.01	339.87	6.37	-45.0	-57.6	3.8	1.49e+00	0	57	104	1466957824	60	16414
2026-01-05 10:36:19.05	339.96	6.15	-45.0	-57.6	3.8	1.49e+00	0	57	104	1466957824	60	16399
2026-01-05 10:36:22.08	340.06	5.93	-45.0	-57.6	3.8	1.49e+00	0	57	104	1466957824	60	16403
2026-01-05 10:36:25.11	340.15	5.71	-45.0	-57.6	3.8	1.49e+00	0	57	104	1466957824	60	16423
2026-01-05 10:36:28.13	340.24	5.50	-45.0	-57.6	3.8	1.49e+00	0	57	104	1466957824	60	16386
2026-01-05 10:36:31.17	340.33	5.28	-45.0	-57.6	3.8	1.49e+00	0	57	104	1466957824	60	16362
2026-01-05 10:36:34.20	340.42	5.07	-45.0	-57.6	3.8	1.49e+00	0	57	104	1466957824	60	16412
2026-01-05 10:36:37.23	340.50	4.86	-45.0	-57.6	3.8	1.49e+00	0	57	104	1466957824	60	16403
2026-01-05 10:36:40.27	340.59	4.65	-45.0	-57.6	3.8	1.49e+00	0	57	104	1466957824	60	16372
2026-01-05 10:36:43.30	340.68	4.44	-45.0	-57.6	3.8	1.49e+00	0	57	104	1466957824	60	16372
2026-01-05 10:36:46.33	340.76	4.23	-45.0	-57.6	3.8	1.49e+00	0	57	104	1466957824	60	16371
2026-01-05 10:36:49.37	340.84	4.03	-45.0	-57.6	3.8	1.49e+00	0	57	104	1466957824	60	16408
2026-01-05 10:36:52.40	340.93	3.83	-45.0	-57.6	3.8	1.49e+00	0	57	104	1466957824	60	16394
2026-01-05 10:36:55.43	341.01	3.62	-45.0	-57.6	3.8	1.49e+00	0	57	104	1466957824	60	16354
2026-01-05 10:36:58.47	341.09	3.42	-45.0	-57.6	3.8	1.49e+00	0	57	104	1466957824	60	16330
2026-01-05 10:37:01.50	341.17	3.22	-45.0	-57.6	3.8	1.49e+00	0	57	104	1466957824	60	16376
2026-01-05 10:37:04.53	341.25	3.03	-45.0	-57.6	3.8	1.49e+00	0	57	104	1466957824	60	16355
2026-01-05 10:37:07.57	341.32	2.83	-45.0	-57.6	3.8	1.49e+00	0	57	104	1466957824	60	16386
2026-01-05 10:37:10.60	341.40	2.64	-45.0	-57.6	3.8	1.49e+00	0	57	104	1466957824	60	16422
2026-01-05 10:37:13.63	341.48	2.44	-45.0	-57.6	3.8	1.49e+00	0	57	104	1466957824	60	16325
2026-01-05 10:37:16.67	341.55	2.25	-45.0	-57.6	3.8	1.49e+00	0	57	104	1466957824	60	16375
2026-01-05 10:37:19.70	341.63	2.06	-45.0	-57.6	3.8	1.49e+00	0	57	104	1466957824	60	16372

#Closed at: 2026-01-05 10:37:21
#Recorded file [1466 MB]: D:/lorett/data/31039_260105_132713.dat