passes_logs/2026/01/05/R2.0S_Moscow/R2.0S_Moscow__20260105_235555_AQUA_rec.log

#Pass ID: 20260105_235555_AQUA
#Satellite: AQUA
#Configuration: AQUA
#almurnet v.1.7.20251203
#Start time: 2026-01-05 23:55:56

#Version: 2.2.20231116
#Station: R2.0S_Moscow
#Location: 37.707566 lon 55.798166 lat
#TLE: 1 27424U 02022A   26004.96787593  .00001598  00000+0  32997-3 0  9996
#TLE: 2 27424  98.4069 331.2279 0002002  90.2377   0.6092 14.61798176259425

#Time	Az	El	Level	Level2	SNR	BER	BlckErr	Temp	State	Recorded	gain1	gain2
2026-01-05 23:55:56.10	26.90	2.03	-42.3	-62.0	3.8	7.46e-01	0	47	0	0	56	34122
2026-01-05 23:55:59.12	27.15	2.20	-42.1	-61.8	3.8	7.47e-01	0	48	104	0	54	37760
2026-01-05 23:56:02.16	27.40	2.38	-42.1	-61.9	3.8	7.46e-01	0	48	104	0	54	37854
2026-01-05 23:56:05.19	27.65	2.55	-42.1	-61.9	3.8	7.46e-01	0	48	104	0	54	37902
2026-01-05 23:56:08.22	27.90	2.72	-42.1	-61.8	3.8	7.45e-01	0	48	104	0	54	37769
2026-01-05 23:56:11.26	28.16	2.90	-42.1	-61.9	3.8	7.48e-01	0	48	104	0	54	37855
2026-01-05 23:56:14.29	28.42	3.07	-42.1	-61.8	3.8	7.46e-01	0	49	104	0	54	37801
2026-01-05 23:56:17.32	28.68	3.25	-42.1	-61.9	3.8	7.46e-01	0	49	104	0	54	37809
2026-01-05 23:56:20.35	28.95	3.42	-42.1	-61.9	3.8	7.45e-01	0	49	104	0	54	37828
2026-01-05 23:56:23.39	29.22	3.60	-42.1	-61.8	3.8	7.44e-01	0	49	104	0	54	37757
2026-01-05 23:56:26.42	29.49	3.78	-42.1	-61.9	3.8	7.46e-01	0	50	104	0	54	37833
2026-01-05 23:56:29.45	29.77	3.96	-42.1	-61.8	3.8	7.44e-01	0	50	104	0	54	37783
2026-01-05 23:56:32.49	30.05	4.14	-42.1	-61.8	3.8	7.45e-01	0	50	104	0	54	37728
2026-01-05 23:56:35.52	30.33	4.32	-42.1	-61.8	3.8	7.44e-01	0	50	104	0	54	37723
2026-01-05 23:56:38.55	30.62	4.50	-42.1	-61.8	3.8	7.42e-01	0	50	104	0	54	37749
2026-01-05 23:56:41.59	30.91	4.68	-42.1	-61.8	3.8	7.48e-01	0	51	104	0	54	37701
2026-01-05 23:56:44.62	31.21	4.86	-42.1	-61.8	3.8	7.47e-01	0	50	104	0	54	37765
2026-01-05 23:56:47.65	31.51	5.05	-42.1	-61.8	3.8	7.45e-01	0	51	104	0	54	37754
2026-01-05 23:56:50.69	31.81	5.23	-42.1	-61.8	3.8	7.43e-01	0	51	104	0	54	37764
2026-01-05 23:56:53.72	32.12	5.42	-42.1	-61.8	3.8	7.45e-01	0	51	104	0	54	37747
2026-01-05 23:56:56.75	32.43	5.60	-42.1	-61.8	3.8	7.48e-01	0	51	104	0	54	37707
2026-01-05 23:56:59.78	32.75	5.79	-42.1	-61.9	3.8	7.45e-01	0	51	104	0	54	37847
2026-01-05 23:57:02.82	33.07	5.98	-42.2	-61.9	3.8	7.46e-01	0	51	104	0	54	37816
2026-01-05 23:57:05.85	33.39	6.17	-42.1	-61.8	3.8	7.45e-01	0	52	104	0	54	37627
2026-01-05 23:57:08.88	33.72	6.36	-42.2	-61.8	3.8	7.46e-01	0	52	104	0	54	37408
2026-01-05 23:57:11.92	34.05	6.55	-42.2	-61.7	3.8	7.44e-01	0	52	104	0	54	37022
2026-01-05 23:57:14.95	34.39	6.74	-42.1	-61.8	3.8	7.45e-01	0	52	104	0	54	37463
2026-01-05 23:57:17.98	34.73	6.93	-42.1	-61.5	3.8	7.45e-01	0	52	104	0	54	36421
2026-01-05 23:57:21.02	35.08	7.12	-42.1	-61.7	3.8	7.43e-01	0	52	104	0	54	37270
2026-01-05 23:57:24.05	35.43	7.32	-42.1	-61.5	3.8	7.48e-01	0	52	104	0	54	36271
2026-01-05 23:57:27.08	35.79	7.51	-42.2	-61.2	3.8	7.44e-01	0	52	104	0	54	35108
2026-01-05 23:57:30.12	36.15	7.71	-42.0	-56.0	5.1	7.05e-01	15	52	0	0	54	19306
2026-01-05 23:57:33.15	36.52	7.90	-41.2	-49.1	11.6	6.10e-01	0	53	0	4718592	54	8686
2026-01-05 23:57:36.18	36.89	8.10	-39.9	-43.5	18.2	6.02e-01	0	53	0	10485760	51	5431
2026-01-05 23:57:39.20	37.27	8.30	-41.1	-45.1	17.0	6.00e-01	0	53	0	16252928	53	5854
2026-01-05 23:57:42.23	37.65	8.49	-40.2	-43.6	18.7	6.01e-01	0	53	0	21495808	52	5189
2026-01-05 23:57:45.26	38.04	8.69	-40.3	-43.5	18.9	6.01e-01	0	53	0	27262976	51	5456
2026-01-05 23:57:48.29	38.43	8.89	-40.2	-43.3	19.2	6.04e-01	0	53	0	33030144	51	5340
2026-01-05 23:57:51.32	38.83	9.09	-40.1	-43.2	19.4	6.03e-01	0	53	0	38797312	51	5270
2026-01-05 23:57:54.34	39.24	9.29	-40.2	-43.2	19.4	6.02e-01	0	53	0	44564480	51	5274
2026-01-05 23:57:57.37	39.65	9.49	-40.2	-43.1	19.7	6.02e-01	0	53	0	49807360	51	5217
2026-01-05 23:58:00.41	40.07	9.70	-40.1	-43.0	19.8	5.99e-01	0	54	0	55574528	51	5124
2026-01-05 23:58:03.43	40.49	9.90	-40.0	-42.8	19.9	6.00e-01	0	54	0	61341696	51	5018
2026-01-05 23:58:06.46	40.92	10.10	-40.1	-42.9	20.1	6.01e-01	0	54	0	67108864	51	5083
2026-01-05 23:58:09.49	41.36	10.31	-40.0	-42.8	20.2	6.02e-01	0	53	0	72876032	51	5002
2026-01-05 23:58:12.52	41.80	10.51	-39.9	-42.6	20.4	6.02e-01	0	54	0	78643200	51	4904
2026-01-05 23:58:15.55	42.25	10.71	-40.0	-42.7	20.4	6.02e-01	0	54	0	83886080	51	4973
2026-01-05 23:58:18.58	42.70	10.92	-39.8	-42.3	20.8	5.99e-01	0	54	0	89653248	51	4756
2026-01-05 23:58:21.61	43.16	11.13	-39.9	-42.4	20.8	6.01e-01	0	54	0	95420416	51	4783
2026-01-05 23:58:24.63	43.63	11.33	-39.9	-42.4	20.8	6.00e-01	0	54	0	101187584	51	4782
2026-01-05 23:58:27.66	44.11	11.54	-39.8	-42.3	21.0	6.02e-01	0	54	0	106954752	51	4728
2026-01-05 23:58:30.69	44.59	11.74	-39.8	-42.3	21.0	6.00e-01	0	54	0	112721920	51	4730
2026-01-05 23:58:33.72	45.08	11.95	-39.7	-42.1	21.2	6.03e-01	0	54	0	117964800	51	4644
2026-01-05 23:58:36.75	45.58	12.16	-39.8	-42.3	21.1	6.03e-01	0	54	0	123731968	51	4715
2026-01-05 23:58:39.78	46.08	12.36	-39.6	-42.0	21.4	6.00e-01	0	54	0	129499136	51	4554
2026-01-05 23:58:42.81	46.60	12.57	-39.8	-42.2	21.2	6.01e-01	0	54	0	135266304	51	4675
2026-01-05 23:58:45.84	47.12	12.78	-39.6	-41.9	21.5	6.01e-01	0	54	0	141033472	51	4502
2026-01-05 23:58:48.87	47.64	12.99	-39.7	-42.1	21.3	6.00e-01	0	55	0	146800640	51	4606
2026-01-05 23:58:51.90	48.18	13.19	-39.6	-41.9	21.5	6.00e-01	0	55	0	152567808	51	4521
2026-01-05 23:58:54.93	48.72	13.40	-39.6	-41.9	21.6	6.04e-01	0	55	0	157810688	51	4504
2026-01-05 23:58:57.96	49.27	13.61	-39.5	-41.8	21.6	6.01e-01	0	54	0	163577856	51	4477
2026-01-05 23:59:00.99	49.83	13.81	-39.5	-41.8	21.7	6.01e-01	0	55	0	169345024	50	4715
2026-01-05 23:59:04.02	50.40	14.02	-39.5	-41.8	21.7	5.99e-01	0	55	0	175112192	50	4713
2026-01-05 23:59:07.06	50.98	14.22	-39.5	-41.8	21.7	6.02e-01	0	54	0	180879360	50	4711
2026-01-05 23:59:10.09	51.56	14.43	-39.5	-41.8	21.7	6.00e-01	0	55	0	186122240	50	4721
2026-01-05 23:59:13.12	52.16	14.63	-39.4	-41.6	21.9	5.99e-01	0	55	0	191889408	50	4638
2026-01-05 23:59:16.15	52.76	14.83	-39.5	-41.7	21.8	6.01e-01	0	55	0	197656576	50	4693
2026-01-05 23:59:19.18	53.37	15.03	-39.3	-41.5	22.0	5.98e-01	0	55	0	203423744	50	4570
2026-01-05 23:59:22.21	53.99	15.23	-39.4	-41.6	21.8	6.00e-01	0	55	0	209190912	50	4648
2026-01-05 23:59:25.23	54.61	15.43	-39.3	-41.5	22.0	6.02e-01	0	55	0	214958080	50	4585
2026-01-05 23:59:28.26	55.25	15.63	-39.4	-41.6	21.9	6.01e-01	0	55	0	220725248	50	4610
2026-01-05 23:59:31.29	55.89	15.83	-39.4	-41.6	21.9	6.02e-01	0	55	0	225968128	50	4634
2026-01-05 23:59:34.32	56.55	16.02	-39.4	-41.5	22.0	6.02e-01	0	55	0	231735296	50	4582
2026-01-05 23:59:37.35	57.21	16.22	-39.5	-41.7	21.8	5.99e-01	0	55	0	237502464	50	4672
2026-01-05 23:59:40.38	57.88	16.41	-39.4	-41.6	22.0	6.01e-01	0	55	0	243269632	50	4599
2026-01-05 23:59:43.41	58.56	16.60	-39.4	-41.6	22.0	6.00e-01	0	55	0	249036800	50	4604
2026-01-05 23:59:46.44	59.25	16.79	-39.4	-41.7	21.9	6.01e-01	0	55	0	254279680	50	4655
2026-01-05 23:59:49.47	59.95	16.97	-39.4	-41.6	21.9	6.00e-01	0	55	0	260046848	50	4641
2026-01-05 23:59:52.49	60.66	17.15	-39.4	-41.6	21.9	6.02e-01	0	55	0	265814016	50	4611
2026-01-05 23:59:55.52	61.37	17.33	-39.3	-41.5	22.0	6.01e-01	0	55	0	271581184	50	4563
2026-01-05 23:59:58.55	62.10	17.51	-39.3	-41.5	22.0	5.99e-01	0	55	0	277348352	50	4583
2026-01-06 00:00:01.58	62.84	17.69	-39.4	-41.5	22.0	6.03e-01	0	56	0	283115520	50	4581
2026-01-06 00:00:04.61	63.58	17.86	-39.3	-41.5	22.0	6.01e-01	0	55	0	288882688	50	4571
2026-01-06 00:00:07.64	64.33	18.03	-39.3	-41.4	22.0	6.03e-01	0	55	0	294125568	50	4541
2026-01-06 00:00:10.67	65.09	18.19	-39.5	-41.7	21.7	6.02e-01	0	55	0	299892736	50	4686
2026-01-06 00:00:13.70	65.86	18.35	-39.5	-41.7	21.7	6.02e-01	0	55	0	305659904	50	4678
2026-01-06 00:00:16.73	66.64	18.51	-39.4	-41.7	21.6	6.00e-01	0	56	0	311427072	50	4682
2026-01-06 00:00:19.76	67.43	18.67	-39.4	-41.7	21.5	6.02e-01	0	55	0	317194240	50	4704
2026-01-06 00:00:22.79	68.22	18.82	-39.7	-42.2	20.9	6.01e-01	0	56	0	322437120	50	4929
2026-01-06 00:00:25.82	69.02	18.96	-39.9	-42.6	20.1	6.02e-01	0	56	0	328204288	50	5196
2026-01-06 00:00:28.85	69.83	19.10	-40.0	-42.9	19.4	6.02e-01	0	56	0	333971456	50	5382
2026-01-06 00:00:31.88	70.65	19.24	-40.0	-43.3	18.7	6.00e-01	0	56	0	339738624	50	5607
2026-01-06 00:00:34.91	71.48	19.37	-40.1	-43.6	18.3	6.00e-01	0	56	0	345505792	50	5793
2026-01-06 00:00:37.94	72.31	19.50	-40.2	-43.7	18.1	6.02e-01	0	56	0	351272960	51	5569
2026-01-06 00:00:40.97	73.15	19.62	-40.4	-44.0	17.8	6.01e-01	0	56	0	357040128	51	5777
2026-01-06 00:00:44.00	74.00	19.74	-40.1	-43.4	18.3	5.98e-01	0	56	0	362283008	51	5396
2026-01-06 00:00:47.02	74.85	19.85	-40.2	-43.7	18.1	6.00e-01	0	56	0	368050176	51	5551
2026-01-06 00:00:50.05	75.71	19.95	-40.0	-43.3	18.5	6.04e-01	0	56	0	373817344	51	5292
2026-01-06 00:00:53.08	76.58	20.06	-40.0	-43.1	18.9	6.00e-01	0	56	0	379584512	51	5188
2026-01-06 00:00:56.11	77.45	20.15	-40.0	-43.1	19.1	6.02e-01	0	56	0	385351680	51	5170
2026-01-06 00:00:59.14	78.33	20.24	-40.1	-43.3	18.9	6.02e-01	0	56	0	390594560	51	5280
2026-01-06 00:01:02.17	79.21	20.32	-40.0	-43.0	19.2	6.02e-01	0	56	0	396361728	51	5122
2026-01-06 00:01:05.20	80.10	20.40	-39.9	-42.8	19.4	5.99e-01	0	56	0	402128896	51	5019
2026-01-06 00:01:08.23	80.99	20.46	-39.9	-42.6	19.9	6.02e-01	0	56	0	407896064	51	4922
2026-01-06 00:01:11.25	81.89	20.53	-39.8	-42.5	20.2	6.00e-01	0	56	0	413663232	51	4842
2026-01-06 00:01:14.28	82.79	20.58	-39.8	-42.5	20.3	6.00e-01	0	56	0	419430400	51	4817
2026-01-06 00:01:17.31	83.69	20.63	-39.9	-42.6	20.1	6.02e-01	0	56	0	425197568	51	4894
2026-01-06 00:01:20.34	84.60	20.68	-39.9	-42.7	19.8	6.04e-01	0	56	0	430440448	51	4958
2026-01-06 00:01:23.37	85.51	20.71	-39.9	-42.9	19.4	6.02e-01	0	56	0	436207616	51	5050
2026-01-06 00:01:26.40	86.42	20.74	-40.1	-43.2	19.1	6.00e-01	0	56	0	441974784	51	5223
2026-01-06 00:01:29.43	87.33	20.76	-40.1	-43.1	19.1	5.99e-01	0	56	0	447741952	51	5190
2026-01-06 00:01:32.45	88.24	20.78	-40.0	-42.9	19.4	6.01e-01	0	56	0	453509120	51	5087
2026-01-06 00:01:35.48	89.16	20.79	-39.9	-42.6	20.0	6.02e-01	0	56	0	458752000	51	4890
2026-01-06 00:01:38.51	90.07	20.79	-39.9	-42.4	20.5	6.00e-01	0	56	0	464519168	51	4797
2026-01-06 00:01:41.54	90.99	20.78	-39.8	-42.3	20.9	6.02e-01	0	56	0	470286336	51	4713
2026-01-06 00:01:44.57	91.90	20.77	-39.8	-42.1	21.2	6.01e-01	0	56	0	476053504	51	4634
2026-01-06 00:01:47.60	92.81	20.75	-39.7	-42.0	21.4	5.99e-01	0	56	0	481820672	51	4578
2026-01-06 00:01:50.62	93.72	20.72	-39.6	-41.9	21.6	5.99e-01	0	56	0	487587840	51	4507
2026-01-06 00:01:53.66	94.64	20.69	-39.7	-42.0	21.5	6.01e-01	0	56	0	493355008	51	4584
2026-01-06 00:01:56.68	95.54	20.65	-39.6	-41.8	21.7	6.02e-01	0	56	0	498597888	51	4481
2026-01-06 00:01:59.71	96.45	20.60	-39.7	-42.0	21.6	5.99e-01	0	56	0	504365056	51	4568
2026-01-06 00:02:02.74	97.35	20.55	-39.7	-42.0	21.7	6.02e-01	0	56	0	510132224	51	4548
2026-01-06 00:02:05.77	98.25	20.49	-39.6	-41.8	21.8	6.02e-01	0	56	0	515899392	51	4463
2026-01-06 00:02:08.79	99.14	20.42	-39.8	-42.0	21.6	6.01e-01	0	56	0	521666560	51	4578
2026-01-06 00:02:11.83	100.04	20.35	-39.6	-41.8	21.8	6.03e-01	0	56	0	526909440	50	4758
2026-01-06 00:02:14.85	100.92	20.27	-39.6	-41.8	21.8	6.03e-01	0	56	0	532676608	50	4716
2026-01-06 00:02:17.88	101.80	20.18	-39.7	-41.9	21.7	6.00e-01	0	56	0	538443776	50	4811
2026-01-06 00:02:20.91	102.68	20.09	-39.7	-41.9	21.7	5.99e-01	0	56	0	544210944	50	4774
2026-01-06 00:02:23.94	103.55	19.99	-39.6	-41.8	21.7	6.01e-01	0	56	0	549978112	50	4730
2026-01-06 00:02:26.97	104.41	19.88	-39.6	-41.9	21.7	6.01e-01	0	56	0	555745280	50	4768
2026-01-06 00:02:30.00	105.27	19.77	-39.7	-41.9	21.3	5.99e-01	0	56	0	560988160	50	4798
2026-01-06 00:02:33.02	106.12	19.66	-39.7	-41.9	21.7	6.00e-01	0	56	0	566755328	50	4793
2026-01-06 00:02:36.05	106.97	19.54	-39.7	-41.9	21.7	6.00e-01	0	56	0	572522496	50	4790
2026-01-06 00:02:39.08	107.81	19.41	-39.6	-41.8	21.8	6.04e-01	0	56	0	578289664	50	4724
2026-01-06 00:02:42.11	108.64	19.28	-39.5	-41.7	21.9	6.03e-01	0	56	0	584056832	50	4666
2026-01-06 00:02:45.15	109.47	19.14	-39.6	-41.8	21.8	6.05e-01	0	56	0	589824000	50	4743
2026-01-06 00:02:48.17	110.28	19.00	-39.6	-41.8	21.8	6.01e-01	0	56	0	595066880	50	4717
2026-01-06 00:02:51.20	111.09	18.86	-39.6	-41.8	21.8	6.04e-01	0	56	0	600834048	50	4727
2026-01-06 00:02:54.23	111.89	18.71	-39.6	-41.8	21.8	6.00e-01	0	56	0	606601216	50	4735
2026-01-06 00:02:57.26	112.68	18.56	-39.6	-41.9	21.6	6.01e-01	0	56	0	612368384	50	4765
2026-01-06 00:03:00.29	113.47	18.40	-39.5	-41.7	21.6	6.01e-01	0	56	0	618135552	49	4935
2026-01-06 00:03:03.32	114.24	18.24	-39.5	-41.7	21.6	6.01e-01	0	56	0	623902720	49	4927
2026-01-06 00:03:06.35	115.01	18.07	-39.6	-41.9	19.2	6.05e-01	0	56	0	629669888	49	5050
2026-01-06 00:03:09.38	115.77	17.90	-39.1	-41.5	20.2	5.99e-01	0	56	0	634912768	49	4849
2026-01-06 00:03:12.41	116.52	17.73	-39.4	-41.6	18.7	6.02e-01	0	56	0	640679936	49	4915
2026-01-06 00:03:15.44	117.26	17.56	-39.2	-41.7	20.1	6.01e-01	0	56	0	646447104	49	4937
2026-01-06 00:03:18.47	117.99	17.38	-39.4	-41.7	20.3	6.01e-01	0	56	0	652214272	49	4962
2026-01-06 00:03:21.50	118.71	17.20	-38.6	-41.4	19.7	6.03e-01	0	56	0	657981440	49	4803
2026-01-06 00:03:24.53	119.43	17.01	-39.3	-41.6	20.6	6.02e-01	0	56	0	663224320	49	4910
2026-01-06 00:03:27.56	120.13	16.83	-39.4	-41.7	20.6	6.01e-01	0	56	0	668991488	49	4952
2026-01-06 00:03:30.59	120.83	16.64	-39.4	-41.6	20.0	5.99e-01	0	56	0	674758656	49	4917
2026-01-06 00:03:33.62	121.52	16.45	-39.3	-41.6	21.1	6.03e-01	0	56	0	680525824	49	4889
2026-01-06 00:03:36.64	122.19	16.26	-39.3	-41.7	20.8	6.01e-01	0	56	0	686292992	49	4946
2026-01-06 00:03:39.67	122.86	16.06	-39.3	-41.7	20.5	6.01e-01	0	56	0	692060160	49	4944
2026-01-06 00:03:42.70	123.52	15.86	-39.3	-41.6	21.7	6.01e-01	0	56	0	697303040	49	4884
2026-01-06 00:03:45.73	124.17	15.67	-39.4	-41.6	21.4	6.01e-01	0	56	0	703070208	49	4897
2026-01-06 00:03:48.76	124.81	15.47	-39.4	-41.6	21.6	6.02e-01	0	56	0	708837376	49	4904
2026-01-06 00:03:51.79	125.45	15.27	-39.5	-41.8	21.4	6.02e-01	0	57	0	714604544	49	5013
2026-01-06 00:03:54.82	126.07	15.06	-39.4	-41.7	21.4	6.02e-01	0	56	0	720371712	49	4961
2026-01-06 00:03:57.85	126.69	14.86	-39.5	-41.8	19.5	6.01e-01	0	56	0	726138880	49	5037
2026-01-06 00:04:00.88	127.30	14.66	-38.8	-41.8	20.6	5.99e-01	0	56	0	731381760	49	5034
2026-01-06 00:04:03.91	127.89	14.45	-37.3	-40.9	14.9	6.10e-01	13	56	0	737148928	46	5369
2026-01-06 00:04:06.94	128.48	14.25	-37.6	-41.3	17.2	6.09e-01	11	56	0	742391808	44	6318
2026-01-06 00:04:09.97	129.07	14.04	-34.9	-41.5	16.6	6.03e-01	5	57	0	748158976	43	6861
2026-01-06 00:04:13.00	129.64	13.83	-34.6	-41.1	12.5	6.09e-01	27	56	0	753926144	40	7758
2026-01-06 00:04:16.03	130.20	13.62	-35.4	-41.6	13.6	6.09e-01	14	57	0	759169024	40	8269
2026-01-06 00:04:19.06	130.76	13.42	-31.4	-40.2	11.1	6.16e-01	70	57	0	763363328	33	10432
2026-01-06 00:04:22.08	131.31	13.21	-32.3	-41.4	13.0	6.11e-01	38	56	0	768606208	37	9554
2026-01-06 00:04:25.11	131.85	13.00	-32.3	-40.6	11.4	6.21e-01	44	56	0	774373376	34	10325
2026-01-06 00:04:28.14	132.38	12.79	-30.4	-40.3	10.0	6.11e-01	26	57	0	779091968	30	12622
2026-01-06 00:04:31.17	132.90	12.58	-31.8	-41.0	11.8	6.24e-01	23	56	0	781713408	35	10219
2026-01-06 00:04:34.20	133.42	12.37	-32.2	-42.2	10.7	6.24e-01	36	57	0	786956288	39	9359
2026-01-06 00:04:37.23	133.93	12.16	-33.5	-42.1	10.2	6.23e-01	24	56	0	792199168	37	10325
2026-01-06 00:04:40.26	134.43	11.95	-33.6	-42.0	10.9	6.19e-01	45	56	0	797966336	41	8119
2026-01-06 00:04:43.28	134.92	11.75	-37.2	-42.1	16.6	6.04e-01	4	57	0	803209216	46	6194
2026-01-06 00:04:46.31	135.41	11.54	-38.2	-42.2	17.7	6.03e-01	1	57	0	808976384	46	6219
2026-01-06 00:04:49.34	135.89	11.33	-37.7	-42.4	13.5	6.03e-01	17	57	0	814219264	43	7605
2026-01-06 00:04:52.37	136.36	11.12	-39.5	-42.6	19.3	6.03e-01	0	56	0	819986432	49	5497
2026-01-06 00:04:55.40	136.83	10.91	-36.0	-41.4	15.2	6.07e-01	2	57	0	825753600	42	7175
2026-01-06 00:04:58.43	137.29	10.71	-38.6	-41.3	19.9	6.04e-01	0	56	0	831520768	47	5286
2026-01-06 00:05:01.45	137.74	10.50	-40.3	-45.6	15.2	6.05e-01	7	57	0	836763648	52	6546
2026-01-06 00:05:04.48	138.19	10.29	-42.2	-50.0	10.9	6.11e-01	2	57	0	842530816	55	9152
2026-01-06 00:05:07.51	138.62	10.09	-43.3	-59.8	3.4	7.39e-01	0	57	104	845676544	57	25068
2026-01-06 00:05:10.54	139.06	9.88	-39.7	-52.7	7.3	6.38e-01	46	57	0	848822272	56	11806
2026-01-06 00:05:13.57	139.48	9.68	-39.4	-42.3	18.7	6.05e-01	0	57	0	854065152	49	5281
2026-01-06 00:05:16.60	139.90	9.47	-40.0	-43.1	19.1	6.04e-01	0	57	0	859832320	52	4895
2026-01-06 00:05:19.63	140.32	9.27	-40.2	-43.1	19.5	6.03e-01	0	57	0	865599488	51	5189
2026-01-06 00:05:22.66	140.73	9.07	-40.0	-42.8	19.7	6.02e-01	0	57	0	871366656	51	5032
2026-01-06 00:05:25.69	141.13	8.86	-40.1	-42.9	19.8	6.03e-01	0	57	0	877133824	51	5060
2026-01-06 00:05:28.72	141.52	8.66	-40.0	-42.8	19.9	6.01e-01	0	57	0	882900992	51	5003
2026-01-06 00:05:31.75	141.91	8.46	-40.2	-43.0	19.8	6.01e-01	0	57	0	888143872	51	5144
2026-01-06 00:05:34.78	142.30	8.26	-40.4	-43.3	19.5	6.00e-01	0	57	0	893911040	51	5313
2026-01-06 00:05:37.81	142.68	8.06	-40.3	-43.2	19.5	6.00e-01	0	57	0	899678208	51	5260
2026-01-06 00:05:40.84	143.05	7.86	-45.6	-64.3	3.8	7.48e-01	0	57	104	901251072	61	33695
2026-01-06 00:05:43.87	143.42	7.66	-46.2	-65.0	3.8	7.45e-01	0	57	104	901251072	62	34111
2026-01-06 00:05:46.90	143.79	7.47	-46.3	-65.2	3.8	7.44e-01	0	57	104	901251072	63	32954
2026-01-06 00:05:49.93	144.14	7.27	-46.2	-65.0	3.8	7.46e-01	0	57	104	901251072	63	32417
2026-01-06 00:05:52.96	144.50	7.07	-46.1	-64.9	3.8	7.44e-01	0	57	104	901251072	63	32133
2026-01-06 00:05:56.00	144.85	6.88	-46.0	-64.9	3.8	7.42e-01	0	57	104	901251072	63	31819
2026-01-06 00:05:59.03	145.19	6.69	-46.0	-64.9	3.8	7.46e-01	0	57	104	901251072	63	31885
2026-01-06 00:06:02.06	145.53	6.49	-46.0	-64.9	3.8	7.45e-01	0	57	104	901251072	63	31908
2026-01-06 00:06:05.09	145.86	6.30	-46.0	-64.8	3.8	7.47e-01	0	57	104	901251072	63	31806
2026-01-06 00:06:08.13	146.19	6.11	-46.0	-64.8	3.8	7.45e-01	0	57	104	901251072	63	31749
2026-01-06 00:06:11.16	146.52	5.92	-46.0	-64.8	3.8	7.45e-01	0	57	104	901251072	63	31785
2026-01-06 00:06:14.19	146.84	5.73	-46.0	-64.9	3.8	7.42e-01	0	57	104	901251072	63	31818
2026-01-06 00:06:17.23	147.16	5.54	-46.0	-64.9	3.8	7.46e-01	0	57	104	901251072	63	31824
2026-01-06 00:06:20.26	147.47	5.35	-46.0	-64.8	3.8	7.45e-01	0	57	104	901251072	63	31724
2026-01-06 00:06:23.29	147.77	5.16	-46.0	-64.8	3.8	7.46e-01	0	57	104	901251072	63	31738
2026-01-06 00:06:26.33	148.08	4.98	-46.0	-64.8	3.8	7.48e-01	0	57	104	901251072	63	31731
2026-01-06 00:06:29.36	148.38	4.79	-46.0	-64.8	3.8	7.42e-01	0	57	104	901251072	63	31764
2026-01-06 00:06:32.39	148.67	4.60	-46.0	-64.8	3.8	7.42e-01	0	57	104	901251072	63	31789
2026-01-06 00:06:35.42	148.97	4.42	-46.0	-64.8	3.8	7.45e-01	0	57	104	901251072	63	31715
2026-01-06 00:06:38.45	149.25	4.24	-46.0	-64.8	3.8	7.46e-01	0	57	104	901251072	63	31721
2026-01-06 00:06:41.48	149.54	4.06	-46.0	-64.8	3.8	7.48e-01	0	57	104	901251072	63	31671
2026-01-06 00:06:44.51	149.82	3.87	-46.0	-64.8	3.8	7.42e-01	0	57	104	901251072	63	31604
2026-01-06 00:06:47.55	150.09	3.69	-46.0	-64.8	3.8	7.48e-01	0	57	104	901251072	63	31714
2026-01-06 00:06:50.58	150.37	3.51	-46.0	-64.8	3.8	7.43e-01	0	57	104	901251072	63	31634
2026-01-06 00:06:53.61	150.64	3.33	-46.0	-64.8	3.8	7.49e-01	0	57	104	901251072	63	31685
2026-01-06 00:06:56.65	150.90	3.16	-45.9	-64.8	3.8	7.43e-01	0	57	104	901251072	63	31645
2026-01-06 00:06:59.68	151.17	2.98	-45.9	-64.8	3.8	7.44e-01	0	57	104	901251072	63	31708
2026-01-06 00:07:02.71	151.43	2.80	-46.0	-64.8	3.8	7.46e-01	0	57	104	901251072	63	31670
2026-01-06 00:07:05.74	151.68	2.63	-46.0	-64.8	3.8	7.42e-01	0	57	104	901251072	63	31637
2026-01-06 00:07:08.78	151.94	2.45	-45.9	-64.8	3.8	7.46e-01	0	57	104	901251072	63	31657
2026-01-06 00:07:11.81	152.19	2.28	-46.0	-64.8	3.8	7.44e-01	0	57	104	901251072	63	31558
2026-01-06 00:07:14.84	152.43	2.10	-45.9	-64.8	3.8	7.46e-01	0	57	104	901251072	63	31685
2026-01-06 00:07:17.88	152.68	1.93	-46.0	-64.8	3.8	7.45e-01	0	57	104	901251072	63	31677

#Closed at: 2026-01-06 00:07:19
#Recorded file [901 MB]: D:/lorett/data/31039_260106_025555.dat