passes_logs/2026/01/05/R2.0S_Moscow/R2.0S_Moscow__20260105_223318_NOAA_21_JPSS-2_rec.log

#Pass ID: 20260105_223318_NOAA 21 (JPSS-2)
#Satellite: NOAA 21 (JPSS-2)
#Configuration: NOAA-21
#almurnet v.1.7.20251203
#Start time: 2026-01-05 22:33:18

#Version: 2.2.20231116
#Station: R2.0S_Moscow
#Location: 37.707566 lon 55.798166 lat
#TLE: 1 54234U 22150A   26005.21525222  .00000150  00000+0  91957-4 0  9992
#TLE: 2 54234  98.7490 306.2339 0001053 341.6032  18.5106 14.19532220163427

#Time	Az	El	Level	Level2	SNR	BER	BlckErr	Temp	State	Recorded	gain1	gain2
2026-01-05 22:33:18.80	22.24	2.01	-42.7	-55.5	3.8	1.49e+00	0	47	0	0	57	15340
2026-01-05 22:33:22.83	22.46	2.25	-42.5	-55.3	3.8	1.49e+00	0	47	104	0	55	16845
2026-01-05 22:33:26.88	22.68	2.49	-42.5	-55.3	3.8	1.49e+00	0	48	104	0	55	16860
2026-01-05 22:33:30.92	22.90	2.73	-42.5	-55.3	3.8	1.49e+00	0	48	104	0	55	16794
2026-01-05 22:33:34.96	23.13	2.97	-42.5	-55.3	3.8	1.49e+00	0	48	104	0	55	16785
2026-01-05 22:33:39.01	23.36	3.22	-42.5	-55.3	3.8	1.49e+00	0	49	104	0	55	16854
2026-01-05 22:33:43.05	23.60	3.46	-42.5	-55.3	3.8	1.49e+00	0	49	104	0	55	16768
2026-01-05 22:33:47.10	23.84	3.71	-42.5	-55.3	3.8	1.49e+00	0	49	104	0	55	16751
2026-01-05 22:33:51.14	24.08	3.96	-42.5	-55.3	3.8	1.49e+00	0	50	104	0	55	16737
2026-01-05 22:33:55.19	24.33	4.21	-42.5	-55.3	3.8	1.49e+00	0	50	104	0	55	16798
2026-01-05 22:33:59.23	24.58	4.47	-42.5	-55.3	3.8	1.49e+00	0	50	104	0	55	16810
2026-01-05 22:34:03.27	24.83	4.72	-42.5	-55.3	3.8	1.49e+00	0	50	104	0	55	16788
2026-01-05 22:34:07.32	25.09	4.98	-42.5	-55.3	3.8	1.49e+00	0	50	104	0	55	16785
2026-01-05 22:34:11.36	25.35	5.24	-42.4	-55.3	3.8	1.49e+00	0	50	104	0	55	16801
2026-01-05 22:34:15.41	25.62	5.51	-42.5	-55.3	3.8	1.49e+00	0	51	104	0	55	16764
2026-01-05 22:34:19.45	25.89	5.77	-42.4	-55.3	3.8	1.49e+00	0	51	104	0	55	16761
2026-01-05 22:34:23.49	26.17	6.04	-42.5	-55.3	3.8	1.49e+00	0	51	104	0	55	16706
2026-01-05 22:34:27.54	26.45	6.31	-42.5	-55.3	3.8	1.49e+00	0	51	104	0	55	16775
2026-01-05 22:34:31.58	26.74	6.58	-42.4	-55.3	3.8	1.49e+00	0	52	104	0	55	16769
2026-01-05 22:34:35.63	27.03	6.85	-42.5	-55.2	3.8	1.49e+00	0	52	104	0	55	16513
2026-01-05 22:34:39.67	27.33	7.13	-42.2	-52.4	3.9	1.49e+00	0	52	104	0	55	11980
2026-01-05 22:34:43.71	27.63	7.41	-40.2	-44.4	9.6	1.98e-02	0	52	0	9437184	52	5678
2026-01-05 22:34:47.75	27.94	7.69	-38.8	-41.6	12.5	1.52e-04	0	52	0	22020096	49	4924
2026-01-05 22:34:51.80	28.25	7.97	-38.6	-41.3	12.9	3.43e-05	0	52	0	34603008	48	5026
2026-01-05 22:34:55.84	28.57	8.26	-40.7	-46.2	7.9	2.45e-04	0	53	0	48234496	51	7385
2026-01-05 22:34:59.88	28.89	8.54	-38.9	-41.4	13.3	1.75e-05	0	53	0	58720256	49	4768
2026-01-05 22:35:03.92	29.22	8.84	-38.6	-40.9	13.9	8.30e-06	0	53	0	71303168	49	4524
2026-01-05 22:35:07.96	29.56	9.13	-38.8	-41.1	13.7	5.30e-06	0	53	0	83886080	49	4645
2026-01-05 22:35:12.00	29.91	9.43	-38.7	-41.0	13.9	3.80e-06	0	53	0	96468992	49	4552
2026-01-05 22:35:16.05	30.26	9.72	-38.6	-40.8	14.2	7.00e-07	0	53	0	109051904	49	4451
2026-01-05 22:35:20.09	30.61	10.03	-38.5	-40.6	14.5	0.00e+00	0	53	0	121634816	48	4612
2026-01-05 22:35:24.13	30.98	10.33	-38.5	-40.6	14.5	0.00e+00	0	53	0	134217728	48	4636
2026-01-05 22:35:28.17	31.35	10.64	-38.3	-40.3	14.9	0.00e+00	0	53	0	146800640	48	4460
2026-01-05 22:35:32.21	31.73	10.95	-38.3	-40.2	15.1	0.00e+00	0	54	0	159383552	48	4409
2026-01-05 22:35:36.24	32.11	11.26	-38.2	-40.1	15.2	0.00e+00	0	54	0	171966464	48	4380
2026-01-05 22:35:40.28	32.51	11.58	-38.0	-39.8	15.6	0.00e+00	0	54	0	184549376	48	4236
2026-01-05 22:35:44.32	32.91	11.89	-37.8	-39.6	15.7	0.00e+00	0	54	0	197132288	47	4383
2026-01-05 22:35:48.36	33.32	12.22	-37.8	-39.6	15.8	0.00e+00	0	54	0	209715200	47	4362
2026-01-05 22:35:52.40	33.74	12.54	-37.9	-39.7	15.7	7.00e-07	0	54	0	222298112	47	4393
2026-01-05 22:35:56.44	34.17	12.87	-37.9	-39.7	15.7	0.00e+00	0	54	0	234881024	47	4426
2026-01-05 22:36:00.48	34.61	13.20	-37.8	-39.6	15.8	0.00e+00	0	54	0	247463936	47	4354
2026-01-05 22:36:04.53	35.06	13.53	-37.9	-39.6	15.8	0.00e+00	0	54	0	260046848	46	4651
2026-01-05 22:36:08.57	35.52	13.87	-37.8	-39.6	15.9	0.00e+00	0	54	0	272629760	46	4616
2026-01-05 22:36:12.61	35.99	14.21	-38.0	-39.8	15.7	0.00e+00	0	54	0	285212672	46	4708
2026-01-05 22:36:16.65	36.47	14.55	-37.9	-39.6	15.9	0.00e+00	0	55	0	297795584	46	4634
2026-01-05 22:36:20.69	36.95	14.90	-37.9	-39.6	15.9	0.00e+00	0	54	0	310378496	46	4629
2026-01-05 22:36:24.73	37.46	15.25	-37.9	-39.7	15.8	0.00e+00	0	54	0	324009984	46	4694
2026-01-05 22:36:28.78	37.97	15.60	-38.0	-39.7	15.8	0.00e+00	0	55	0	336592896	46	4703
2026-01-05 22:36:32.81	38.49	15.95	-38.0	-39.8	15.8	0.00e+00	0	55	0	349175808	46	4711
2026-01-05 22:36:36.85	39.03	16.31	-38.1	-39.9	15.7	0.00e+00	0	55	0	361758720	46	4776
2026-01-05 22:36:40.89	39.58	16.67	-38.1	-39.9	15.8	0.00e+00	0	55	0	374341632	46	4770
2026-01-05 22:36:44.93	40.14	17.04	-38.0	-39.8	15.9	0.00e+00	0	55	0	386924544	46	4730
2026-01-05 22:36:48.97	40.71	17.40	-37.8	-39.5	16.2	0.00e+00	0	55	0	399507456	46	4573
2026-01-05 22:36:53.01	41.30	17.77	-37.7	-39.4	16.3	0.00e+00	0	55	0	412090368	46	4528
2026-01-05 22:36:57.05	41.90	18.15	-37.6	-39.2	16.5	0.00e+00	0	55	0	424673280	46	4412
2026-01-05 22:37:01.09	42.52	18.52	-37.3	-38.9	16.8	0.00e+00	0	55	0	437256192	46	4265
2026-01-05 22:37:05.13	43.15	18.90	-37.3	-38.9	16.8	0.00e+00	0	55	0	449839104	46	4260
2026-01-05 22:37:09.17	43.80	19.28	-37.4	-39.0	16.7	0.00e+00	0	55	0	462422016	46	4330
2026-01-05 22:37:13.20	44.46	19.66	-37.4	-39.0	16.7	0.00e+00	0	55	0	475004928	46	4335
2026-01-05 22:37:17.24	45.14	20.04	-37.4	-38.9	16.8	0.00e+00	0	55	0	487587840	46	4291
2026-01-05 22:37:21.28	45.84	20.43	-37.3	-38.9	16.9	0.00e+00	0	55	0	500170752	46	4263
2026-01-05 22:37:25.32	46.55	20.82	-37.1	-38.7	17.1	0.00e+00	0	56	0	512753664	46	4159
2026-01-05 22:37:29.36	47.28	21.21	-36.8	-38.3	17.5	0.00e+00	0	55	0	525336576	45	4207
2026-01-05 22:37:33.40	48.03	21.60	-36.8	-38.3	17.5	0.00e+00	0	55	0	537919488	45	4202
2026-01-05 22:37:37.44	48.80	21.99	-37.0	-38.5	17.3	0.00e+00	0	55	0	550502400	45	4294
2026-01-05 22:37:41.48	49.59	22.38	-36.9	-38.4	17.3	0.00e+00	0	55	0	563085312	45	4281
2026-01-05 22:37:45.53	50.40	22.78	-36.9	-38.3	17.5	0.00e+00	0	56	0	575668224	45	4239
2026-01-05 22:37:49.57	51.23	23.17	-36.8	-38.3	17.5	0.00e+00	0	56	0	588251136	45	4220
2026-01-05 22:37:53.61	52.08	23.57	-36.9	-38.4	17.4	0.00e+00	0	55	0	600834048	45	4264
2026-01-05 22:37:57.65	52.95	23.96	-37.0	-38.5	17.3	0.00e+00	0	55	0	614465536	45	4326
2026-01-05 22:38:01.69	53.84	24.35	-37.2	-38.8	17.1	0.00e+00	0	56	0	625999872	45	4443
2026-01-05 22:38:05.73	54.75	24.74	-37.1	-38.6	17.3	0.00e+00	0	56	0	639631360	45	4351
2026-01-05 22:38:09.77	55.69	25.13	-37.0	-38.5	17.3	0.00e+00	0	56	0	652214272	45	4331
2026-01-05 22:38:13.81	56.65	25.52	-37.2	-38.7	17.1	0.00e+00	0	56	0	664797184	45	4407
2026-01-05 22:38:17.84	57.63	25.90	-37.3	-38.9	17.0	0.00e+00	0	56	0	677380096	45	4498
2026-01-05 22:38:21.88	58.63	26.28	-37.0	-38.6	17.3	0.00e+00	0	56	0	689963008	45	4349
2026-01-05 22:38:25.92	59.66	26.66	-37.3	-38.8	17.1	0.00e+00	0	56	0	702545920	45	4474
2026-01-05 22:38:29.96	60.72	27.03	-37.3	-38.8	17.1	0.00e+00	0	56	0	715128832	45	4488
2026-01-05 22:38:34.00	61.79	27.39	-37.2	-38.7	17.1	0.00e+00	0	56	0	727711744	45	4432
2026-01-05 22:38:38.04	62.90	27.75	-37.0	-38.5	17.4	0.00e+00	0	56	0	740294656	45	4292
2026-01-05 22:38:42.08	64.02	28.11	-36.9	-38.3	17.6	0.00e+00	0	56	0	752877568	45	4218
2026-01-05 22:38:46.12	65.17	28.45	-37.1	-38.5	17.3	0.00e+00	0	56	0	765460480	45	4337
2026-01-05 22:38:50.16	66.35	28.79	-36.9	-38.3	17.6	0.00e+00	0	56	0	778043392	45	4237
2026-01-05 22:38:54.20	67.55	29.12	-37.2	-38.7	17.2	0.00e+00	0	56	0	790626304	45	4438
2026-01-05 22:38:58.24	68.77	29.44	-37.2	-38.7	17.2	0.00e+00	0	56	0	803209216	45	4438
2026-01-05 22:39:02.29	70.03	29.74	-37.2	-38.7	17.2	0.00e+00	0	56	0	815792128	45	4437
2026-01-05 22:39:06.32	71.29	30.04	-37.3	-38.8	17.1	0.00e+00	0	56	0	828375040	45	4477
2026-01-05 22:39:10.36	72.59	30.32	-37.3	-38.8	17.2	0.00e+00	0	56	0	840957952	45	4461
2026-01-05 22:39:14.40	73.90	30.59	-37.3	-38.8	17.1	0.00e+00	0	56	0	853540864	45	4487
2026-01-05 22:39:18.44	75.24	30.85	-37.8	-39.5	16.6	0.00e+00	0	56	0	866123776	46	4546
2026-01-05 22:39:22.48	76.60	31.09	-37.5	-39.0	17.0	0.00e+00	0	56	0	878706688	46	4324
2026-01-05 22:39:26.52	77.98	31.32	-37.9	-39.5	16.5	0.00e+00	0	56	0	891289600	46	4584
2026-01-05 22:39:30.56	79.37	31.52	-37.6	-39.2	16.8	0.00e+00	0	56	0	903872512	46	4432
2026-01-05 22:39:34.61	80.79	31.72	-37.7	-39.3	16.7	0.00e+00	0	56	0	916455424	46	4472
2026-01-05 22:39:38.65	82.22	31.89	-37.9	-39.5	16.5	0.00e+00	0	56	0	930086912	46	4584
2026-01-05 22:39:42.69	83.66	32.04	-37.5	-39.1	17.0	0.00e+00	0	56	0	941621248	46	4346
2026-01-05 22:39:46.73	85.12	32.18	-37.9	-39.5	16.5	0.00e+00	0	56	0	955252736	46	4591
2026-01-05 22:39:50.77	86.59	32.30	-37.9	-39.6	16.5	0.00e+00	0	56	0	967835648	46	4634
2026-01-05 22:39:54.81	88.07	32.39	-38.0	-39.7	16.4	0.00e+00	0	56	0	980418560	46	4652
2026-01-05 22:39:58.85	89.55	32.47	-38.0	-39.7	16.4	0.00e+00	0	56	0	993001472	46	4661
2026-01-05 22:40:02.89	91.05	32.52	-38.0	-39.6	16.4	0.00e+00	0	56	0	1005584384	46	4632
2026-01-05 22:40:06.93	92.54	32.56	-38.3	-40.0	16.0	0.00e+00	0	56	0	1018167296	47	4579
2026-01-05 22:40:10.97	94.04	32.57	-37.9	-39.6	16.5	0.00e+00	0	56	0	1030750208	47	4357
2026-01-05 22:40:15.00	95.53	32.56	-37.6	-39.2	16.8	0.00e+00	0	56	0	1043333120	47	4159
2026-01-05 22:40:19.04	97.03	32.53	-37.6	-39.2	16.9	0.00e+00	0	56	0	1055916032	47	4154
2026-01-05 22:40:23.08	98.52	32.47	-37.8	-39.4	16.6	0.00e+00	0	56	0	1068498944	46	4537
2026-01-05 22:40:27.12	100.01	32.40	-37.9	-39.5	16.5	0.00e+00	0	56	0	1081081856	46	4569
2026-01-05 22:40:31.16	101.49	32.31	-37.8	-39.4	16.7	0.00e+00	0	56	0	1093664768	46	4500
2026-01-05 22:40:35.20	102.96	32.19	-37.8	-39.3	16.7	0.00e+00	0	56	0	1106247680	46	4493
2026-01-05 22:40:39.24	104.42	32.06	-37.6	-39.2	16.8	0.00e+00	0	56	0	1118830592	46	4416
2026-01-05 22:40:43.29	105.88	31.91	-38.0	-39.6	16.4	0.00e+00	0	56	0	1131413504	46	4636
2026-01-05 22:40:47.33	107.31	31.73	-37.8	-39.4	16.6	0.00e+00	0	56	0	1143996416	46	4526
2026-01-05 22:40:51.36	108.72	31.54	-37.7	-39.3	16.7	0.00e+00	0	56	0	1156579328	46	4485
2026-01-05 22:40:55.41	110.13	31.34	-37.6	-39.2	16.8	0.00e+00	0	56	0	1169162240	46	4423
2026-01-05 22:40:59.45	111.51	31.11	-37.9	-39.5	16.5	0.00e+00	0	56	0	1181745152	46	4567
2026-01-05 22:41:03.49	112.88	30.87	-37.4	-38.9	17.0	0.00e+00	0	56	0	1194328064	46	4283
2026-01-05 22:41:07.53	114.22	30.62	-37.5	-39.0	17.0	0.00e+00	0	56	0	1206910976	46	4322
2026-01-05 22:41:11.57	115.54	30.35	-37.6	-39.1	16.8	0.00e+00	0	56	0	1219493888	46	4388
2026-01-05 22:41:15.61	116.84	30.06	-37.2	-38.7	17.2	0.00e+00	0	56	0	1232076800	46	4182
2026-01-05 22:41:19.64	118.12	29.77	-37.3	-38.8	17.2	0.00e+00	0	56	0	1244659712	46	4214
2026-01-05 22:41:23.68	119.37	29.46	-37.0	-38.5	17.5	0.00e+00	0	56	0	1257242624	46	4069
2026-01-05 22:41:27.72	120.60	29.14	-37.1	-38.6	17.3	0.00e+00	0	57	0	1270874112	45	4361
2026-01-05 22:41:31.76	121.81	28.81	-36.9	-38.4	17.5	0.00e+00	0	57	0	1283457024	45	4252
2026-01-05 22:41:35.80	122.99	28.47	-36.7	-38.1	17.8	0.00e+00	0	56	0	1296039936	45	4108
2026-01-05 22:41:39.85	124.15	28.12	-36.7	-38.1	17.8	0.00e+00	0	56	0	1308622848	45	4105
2026-01-05 22:41:43.89	125.29	27.77	-36.8	-38.2	17.7	0.00e+00	0	56	0	1321205760	45	4157
2026-01-05 22:41:47.93	126.39	27.41	-36.9	-38.4	17.5	0.00e+00	0	56	0	1333788672	45	4258
2026-01-05 22:41:51.97	127.48	27.04	-36.6	-38.0	17.9	0.00e+00	0	57	0	1346371584	45	4072
2026-01-05 22:41:56.00	128.54	26.67	-36.8	-38.2	17.7	0.00e+00	0	57	0	1358954496	45	4157
2026-01-05 22:42:00.04	129.57	26.29	-36.6	-38.0	17.8	0.00e+00	0	57	0	1371537408	45	4087
2026-01-05 22:42:04.08	130.58	25.91	-36.7	-38.1	17.8	0.00e+00	0	56	0	1384120320	45	4125
2026-01-05 22:42:08.13	131.57	25.52	-36.8	-38.2	17.7	0.00e+00	0	56	0	1396703232	45	4169
2026-01-05 22:42:12.17	132.54	25.13	-37.1	-38.5	17.3	0.00e+00	0	57	0	1409286144	45	4338
2026-01-05 22:42:16.21	133.48	24.74	-37.0	-38.5	17.4	0.00e+00	0	56	0	1421869056	45	4323
2026-01-05 22:42:20.25	134.40	24.34	-37.1	-38.6	17.3	0.00e+00	0	57	0	1434451968	45	4362
2026-01-05 22:42:24.30	135.30	23.95	-37.0	-38.5	17.4	0.00e+00	0	56	0	1447034880	45	4304
2026-01-05 22:42:28.34	136.17	23.55	-36.9	-38.4	17.5	0.00e+00	0	56	0	1459617792	45	4271
2026-01-05 22:42:32.38	137.03	23.16	-37.0	-38.5	17.4	0.00e+00	0	56	0	1472200704	45	4300
2026-01-05 22:42:36.42	137.86	22.76	-37.0	-38.5	17.3	0.00e+00	0	57	0	1484783616	45	4315
2026-01-05 22:42:40.46	138.67	22.36	-37.0	-38.5	17.4	0.00e+00	0	57	0	1497366528	45	4294
2026-01-05 22:42:44.50	139.46	21.97	-37.2	-38.8	17.1	0.00e+00	0	57	0	1509949440	45	4450
2026-01-05 22:42:48.54	140.24	21.57	-37.3	-38.8	17.0	0.00e+00	0	57	0	1522532352	45	4482
2026-01-05 22:42:52.58	140.99	21.18	-37.2	-38.7	17.1	0.00e+00	0	57	0	1535115264	45	4422
2026-01-05 22:42:56.62	141.73	20.78	-37.1	-38.6	17.2	0.00e+00	0	57	0	1547698176	45	4356
2026-01-05 22:43:00.66	142.44	20.39	-37.1	-38.5	17.3	0.00e+00	0	57	0	1561329664	45	4339
2026-01-05 22:43:04.70	143.14	20.00	-37.1	-38.6	17.1	0.00e+00	0	57	0	1573912576	45	4386
2026-01-05 22:43:08.74	143.83	19.62	-37.0	-38.5	17.3	0.00e+00	0	56	0	1586495488	45	4306
2026-01-05 22:43:12.79	144.49	19.23	-37.1	-38.6	17.2	0.00e+00	0	57	0	1599078400	45	4373
2026-01-05 22:43:16.83	145.14	18.85	-37.0	-38.5	17.3	0.00e+00	0	57	0	1611661312	45	4304
2026-01-05 22:43:20.86	145.78	18.47	-36.9	-38.3	17.4	0.00e+00	0	56	0	1624244224	45	4238
2026-01-05 22:43:24.91	146.40	18.09	-37.2	-38.7	17.0	0.00e+00	0	57	0	1636827136	45	4403
2026-01-05 22:43:28.95	147.00	17.71	-37.3	-38.9	16.9	0.00e+00	0	57	0	1649410048	45	4504
2026-01-05 22:43:32.99	147.59	17.34	-37.5	-39.0	16.7	0.00e+00	0	57	0	1661992960	45	4593
2026-01-05 22:43:37.02	148.17	16.97	-37.6	-39.2	16.5	0.00e+00	0	57	0	1674575872	45	4679
2026-01-05 22:43:41.07	148.73	16.60	-37.7	-39.4	16.3	0.00e+00	0	57	0	1687158784	45	4772
2026-01-05 22:43:45.11	149.28	16.24	-37.8	-39.5	16.3	0.00e+00	0	57	0	1699741696	46	4548
2026-01-05 22:43:49.15	149.82	15.88	-38.0	-39.8	15.9	0.00e+00	0	56	0	1712324608	46	4706
2026-01-05 22:43:53.19	150.34	15.52	-38.0	-39.8	15.9	0.00e+00	0	57	0	1724907520	46	4725
2026-01-05 22:43:57.23	150.85	15.16	-38.1	-39.9	15.7	0.00e+00	0	57	0	1737490432	46	4800
2026-01-05 22:44:01.27	151.36	14.81	-38.3	-40.1	15.5	0.00e+00	0	57	0	1750073344	47	4614
2026-01-05 22:44:05.32	151.85	14.46	-38.1	-39.9	15.7	0.00e+00	0	57	0	1762656256	47	4534
2026-01-05 22:44:09.36	152.33	14.11	-38.0	-39.8	15.8	0.00e+00	0	57	0	1775239168	47	4456
2026-01-05 22:44:13.40	152.79	13.77	-38.1	-39.9	15.6	0.00e+00	0	57	0	1787822080	47	4526
2026-01-05 22:44:17.44	153.25	13.43	-38.2	-40.0	15.6	0.00e+00	0	57	0	1800404992	47	4559
2026-01-05 22:44:21.48	153.70	13.09	-38.2	-40.1	15.4	0.00e+00	0	57	0	1812987904	47	4605
2026-01-05 22:44:25.52	154.14	12.76	-38.2	-40.0	15.5	0.00e+00	0	57	0	1825570816	47	4562
2026-01-05 22:44:29.56	154.57	12.43	-38.1	-39.9	15.5	0.00e+00	0	57	0	1838153728	47	4527
2026-01-05 22:44:33.60	154.98	12.10	-38.1	-39.9	15.5	0.00e+00	0	57	0	1851785216	47	4518
2026-01-05 22:44:37.64	155.40	11.78	-38.0	-39.9	15.5	0.00e+00	0	57	0	1863319552	47	4502
2026-01-05 22:44:41.68	155.80	11.46	-37.9	-39.7	15.7	0.00e+00	0	57	0	1876951040	47	4423
2026-01-05 22:44:45.72	156.19	11.14	-38.0	-39.9	15.5	0.00e+00	0	57	0	1889533952	47	4494
2026-01-05 22:44:49.76	156.58	10.82	-38.3	-40.2	15.1	0.00e+00	0	57	0	1902116864	47	4655
2026-01-05 22:44:53.80	156.95	10.51	-38.3	-40.2	15.1	0.00e+00	0	57	0	1914699776	47	4679
2026-01-05 22:44:57.84	157.32	10.20	-38.4	-40.4	14.8	0.00e+00	0	57	0	1927282688	47	4790
2026-01-05 22:45:01.88	157.69	9.89	-38.4	-40.4	14.8	7.00e-07	0	57	0	1939865600	47	4802
2026-01-05 22:45:05.91	158.04	9.59	-38.4	-40.5	14.7	0.00e+00	0	57	0	1952448512	47	4816
2026-01-05 22:45:09.96	158.39	9.29	-38.5	-40.6	14.5	0.00e+00	0	57	0	1965031424	47	4898
2026-01-05 22:45:13.99	158.73	8.99	-38.5	-40.5	14.6	0.00e+00	0	57	0	1977614336	47	4861
2026-01-05 22:45:18.04	159.07	8.69	-38.6	-40.7	14.3	7.00e-07	0	57	0	1990197248	47	4965
2026-01-05 22:45:22.08	159.40	8.40	-38.9	-41.1	13.9	4.50e-06	0	57	0	2002780160	48	4905
2026-01-05 22:45:26.12	159.72	8.11	-39.2	-41.5	13.5	4.50e-06	0	57	0	2015363072	48	5127
2026-01-05 22:45:30.16	160.04	7.82	-44.9	-57.3	3.8	1.49e+00	0	57	104	2020605952	60	15942
2026-01-05 22:45:34.20	160.35	7.54	-45.3	-57.8	3.8	1.49e+00	0	57	104	2020605952	61	15779
2026-01-05 22:45:38.25	160.65	7.25	-45.2	-57.8	3.8	1.49e+00	0	57	104	2020605952	61	15767
2026-01-05 22:45:42.29	160.95	6.97	-45.1	-57.7	3.8	1.49e+00	0	57	104	2020605952	61	15651
2026-01-05 22:45:46.33	161.24	6.69	-45.0	-57.6	3.8	1.49e+00	0	57	104	2020605952	61	15566
2026-01-05 22:45:50.37	161.53	6.42	-45.1	-57.7	3.8	1.49e+00	0	57	104	2020605952	61	15589
2026-01-05 22:45:54.42	161.82	6.14	-45.1	-57.7	3.8	1.49e+00	0	57	104	2020605952	61	15597
2026-01-05 22:45:58.46	162.09	5.87	-45.1	-57.6	3.8	1.49e+00	0	57	104	2020605952	61	15546
2026-01-05 22:46:02.51	162.37	5.60	-45.0	-57.6	3.8	1.49e+00	0	57	104	2020605952	61	15549
2026-01-05 22:46:06.55	162.64	5.34	-45.0	-57.7	3.8	1.49e+00	0	57	104	2020605952	61	15587
2026-01-05 22:46:10.59	162.90	5.07	-45.0	-57.6	3.8	1.49e+00	0	57	104	2020605952	61	15525
2026-01-05 22:46:14.64	163.16	4.81	-45.0	-57.7	3.8	1.49e+00	0	57	104	2020605952	61	15582
2026-01-05 22:46:18.68	163.42	4.55	-45.0	-57.6	3.8	1.49e+00	0	57	104	2020605952	61	15552
2026-01-05 22:46:22.73	163.67	4.29	-45.0	-57.7	3.8	1.49e+00	0	57	104	2020605952	61	15598
2026-01-05 22:46:26.77	163.91	4.03	-45.0	-57.6	3.8	1.49e+00	0	57	104	2020605952	61	15532
2026-01-05 22:46:30.81	164.16	3.78	-45.0	-57.6	3.8	1.49e+00	0	57	104	2020605952	61	15565
2026-01-05 22:46:34.86	164.40	3.53	-45.0	-57.6	3.8	1.49e+00	0	57	104	2020605952	61	15533
2026-01-05 22:46:38.90	164.63	3.28	-45.0	-57.6	3.8	1.49e+00	0	57	104	2020605952	61	15464
2026-01-05 22:46:42.95	164.86	3.03	-45.0	-57.6	3.8	1.49e+00	0	57	104	2020605952	61	15517
2026-01-05 22:46:46.99	165.09	2.78	-45.0	-57.6	3.8	1.49e+00	0	57	104	2020605952	61	15504
2026-01-05 22:46:51.03	165.31	2.54	-45.0	-57.6	3.8	1.49e+00	0	57	104	2020605952	61	15494
2026-01-05 22:46:55.08	165.54	2.29	-45.0	-57.6	3.8	1.49e+00	0	57	104	2020605952	61	15498
2026-01-05 22:46:59.12	165.75	2.05	-45.0	-57.6	3.8	1.49e+00	0	57	104	2020605952	61	15490

#Closed at: 2026-01-05 22:47:00
#Recorded file [2020 MB]: D:/lorett/data/31039_260106_013318.dat