passes_logs/2026/01/05/R2.0S_Moscow/R2.0S_Moscow__20260105_105251_SUOMI_NPP_rec.log

#Pass ID: 20260105_105251_SUOMI NPP
#Satellite: SUOMI NPP
#Configuration: NPP
#almurnet v.1.7.20251203
#Start time: 2026-01-05 10:52:51

#Version: 2.2.20231116
#Station: R2.0S_Moscow
#Location: 37.707566 lon 55.798166 lat
#TLE: 1 37849U 11061A   26003.96724563  .00000164  00000+0  98899-4 0  9990
#TLE: 2 37849  98.7800 306.1116 0002573  82.3190 277.8279 14.19522066735141

#Time	Az	El	Level	Level2	SNR	BER	BlckErr	Temp	State	Recorded	gain1	gain2
2026-01-05 10:52:51.38	186.94	1.98	-44.0	-58.5	3.8	1.49e+00	0	47	0	0	59	19385
2026-01-05 10:52:55.42	187.12	2.23	-44.0	-58.5	3.8	1.49e+00	0	47	104	0	59	19300
2026-01-05 10:52:59.47	187.29	2.48	-44.0	-58.5	3.8	1.49e+00	0	48	104	0	59	19326
2026-01-05 10:53:03.51	187.47	2.73	-44.0	-58.5	3.8	1.49e+00	0	48	104	0	59	19362
2026-01-05 10:53:07.55	187.65	2.99	-44.0	-58.5	3.8	1.49e+00	0	48	104	0	59	19384
2026-01-05 10:53:11.60	187.84	3.24	-44.0	-58.5	3.8	1.49e+00	0	48	104	0	59	19366
2026-01-05 10:53:15.64	188.03	3.50	-44.0	-58.6	3.8	1.49e+00	0	49	104	0	59	19425
2026-01-05 10:53:19.68	188.22	3.76	-44.0	-58.5	3.8	1.49e+00	0	49	104	0	59	19317
2026-01-05 10:53:23.73	188.41	4.03	-44.0	-58.5	3.8	1.49e+00	0	49	104	0	59	19327
2026-01-05 10:53:27.77	188.61	4.29	-44.0	-58.5	3.8	1.49e+00	0	49	104	0	59	19289
2026-01-05 10:53:31.82	188.81	4.56	-44.0	-58.2	3.8	1.49e+00	0	50	104	0	59	18620
2026-01-05 10:53:35.86	189.02	4.83	-44.0	-57.7	3.8	1.49e+00	0	50	104	0	59	17615
2026-01-05 10:53:39.90	189.23	5.10	-44.0	-57.6	3.8	1.49e+00	0	50	104	0	59	17466
2026-01-05 10:53:43.95	189.44	5.38	-44.0	-57.7	3.8	1.49e+00	0	50	104	0	59	17615
2026-01-05 10:53:47.99	189.65	5.66	-44.0	-58.0	3.8	1.49e+00	0	51	104	0	59	18298
2026-01-05 10:53:52.03	189.87	5.94	-44.0	-58.1	3.8	1.49e+00	0	51	104	0	59	18347
2026-01-05 10:53:56.08	190.10	6.22	-44.0	-58.0	3.8	1.49e+00	0	51	104	0	59	18148
2026-01-05 10:54:00.12	190.33	6.51	-44.0	-57.6	3.8	1.49e+00	0	51	104	0	59	17481
2026-01-05 10:54:04.16	190.56	6.80	-43.8	-55.1	4.2	1.43e+00	0	51	0	0	59	12979
2026-01-05 10:54:08.21	190.80	7.09	-43.2	-50.8	6.5	2.71e-01	0	51	0	6291456	58	8420
2026-01-05 10:54:12.25	191.04	7.38	-42.3	-47.7	9.6	2.00e-02	0	51	0	13631488	56	6588
2026-01-05 10:54:16.29	191.29	7.68	-41.3	-45.4	11.8	5.92e-04	0	52	0	20971520	54	5703
2026-01-05 10:54:20.33	191.54	7.98	-41.2	-45.1	12.1	2.04e-04	0	52	0	29360128	54	5502
2026-01-05 10:54:24.37	191.79	8.29	-42.2	-47.3	9.9	8.91e-03	0	52	0	36700160	55	6705
2026-01-05 10:54:28.41	192.05	8.59	-41.3	-45.3	12.0	2.98e-04	0	52	0	44040192	54	5619
2026-01-05 10:54:32.45	192.32	8.90	-41.2	-44.9	12.4	1.72e-04	0	52	0	51380224	54	5372
2026-01-05 10:54:36.49	192.59	9.22	-41.2	-44.9	12.6	8.46e-05	0	52	0	59768832	54	5347
2026-01-05 10:54:40.53	192.87	9.54	-41.1	-44.7	12.8	7.01e-05	0	52	0	67108864	54	5254
2026-01-05 10:54:44.57	193.15	9.86	-41.1	-44.8	12.7	6.48e-05	0	52	0	74448896	54	5298
2026-01-05 10:54:48.61	193.44	10.18	-40.9	-44.3	13.2	2.21e-05	0	53	0	81788928	53	5316
2026-01-05 10:54:52.65	193.74	10.51	-40.7	-43.9	13.6	1.06e-05	0	53	0	89128960	53	5070
2026-01-05 10:54:56.68	194.04	10.84	-40.4	-43.5	14.0	2.20e-06	0	53	0	97517568	52	5138
2026-01-05 10:55:00.72	194.35	11.18	-40.3	-43.3	14.2	2.20e-06	0	53	0	104857600	52	5030
2026-01-05 10:55:04.76	194.67	11.52	-40.3	-43.2	14.3	7.00e-07	0	53	0	112197632	52	4978
2026-01-05 10:55:08.80	194.99	11.86	-40.2	-43.1	14.5	0.00e+00	0	53	0	119537664	52	4894
2026-01-05 10:55:12.84	195.32	12.21	-40.1	-42.8	15.0	0.00e+00	0	53	0	127926272	51	4985
2026-01-05 10:55:16.88	195.66	12.56	-39.9	-42.4	15.4	0.00e+00	0	53	0	135266304	51	4812
2026-01-05 10:55:20.91	196.00	12.92	-39.8	-42.3	15.4	0.00e+00	0	54	0	142606336	51	4723
2026-01-05 10:55:24.95	196.36	13.28	-39.7	-42.1	15.7	0.00e+00	0	54	0	149946368	51	4628
2026-01-05 10:55:28.99	196.72	13.64	-39.9	-42.4	15.5	0.00e+00	0	54	0	157286400	51	4787
2026-01-05 10:55:33.02	197.09	14.01	-39.8	-42.5	15.3	0.00e+00	0	54	0	165675008	51	4817
2026-01-05 10:55:37.07	197.47	14.39	-39.8	-42.3	15.5	0.00e+00	0	54	0	173015040	51	4745
2026-01-05 10:55:41.11	197.86	14.77	-40.0	-42.6	15.3	0.00e+00	0	54	0	180355072	51	4882
2026-01-05 10:55:45.14	198.26	15.15	-40.0	-42.6	15.4	0.00e+00	0	54	0	187695104	51	4874
2026-01-05 10:55:49.18	198.67	15.54	-40.1	-42.8	15.2	0.00e+00	0	54	0	196083712	51	5002
2026-01-05 10:55:53.22	199.09	15.93	-40.2	-42.9	15.1	0.00e+00	0	54	0	203423744	51	5043
2026-01-05 10:55:57.27	199.52	16.33	-40.1	-42.7	15.3	0.00e+00	0	54	0	210763776	51	4927
2026-01-05 10:56:01.30	199.96	16.73	-40.4	-43.2	14.8	0.00e+00	0	54	0	218103808	51	5236
2026-01-05 10:56:05.35	200.42	17.14	-40.4	-43.1	14.9	7.00e-07	0	54	0	225443840	51	5203
2026-01-05 10:56:09.38	200.88	17.56	-40.2	-42.8	15.2	0.00e+00	0	54	0	233832448	51	4998
2026-01-05 10:56:13.42	201.36	17.98	-40.0	-42.6	15.5	0.00e+00	0	54	0	241172480	51	4874
2026-01-05 10:56:17.46	201.86	18.40	-39.9	-42.4	15.6	0.00e+00	0	55	0	248512512	51	4785
2026-01-05 10:56:21.50	202.36	18.83	-40.1	-42.7	15.4	0.00e+00	0	54	0	255852544	51	4935
2026-01-05 10:56:25.54	202.88	19.27	-40.3	-42.9	15.2	0.00e+00	0	55	0	264241152	51	5067
2026-01-05 10:56:29.57	203.41	19.70	-40.3	-42.9	15.2	0.00e+00	0	55	0	271581184	51	5079
2026-01-05 10:56:33.61	203.96	20.15	-40.3	-42.9	15.2	0.00e+00	0	55	0	278921216	51	5080
2026-01-05 10:56:37.65	204.53	20.60	-40.7	-43.5	14.7	0.00e+00	0	55	0	286261248	51	5403
2026-01-05 10:56:41.69	205.11	21.06	-40.5	-43.2	14.8	0.00e+00	0	55	0	293601280	52	4960
2026-01-05 10:56:45.73	205.71	21.52	-40.4	-43.1	15.0	0.00e+00	0	55	0	301989888	52	4896
2026-01-05 10:56:49.77	206.32	21.99	-40.8	-43.7	14.3	7.00e-07	0	55	0	309329920	52	5273
2026-01-05 10:56:53.81	206.96	22.46	-40.9	-43.9	14.3	2.20e-06	0	55	0	316669952	52	5371
2026-01-05 10:56:57.85	207.61	22.94	-40.7	-43.6	14.6	7.00e-07	0	55	0	324009984	52	5168
2026-01-05 10:57:01.89	208.29	23.42	-40.2	-42.7	15.4	0.00e+00	0	55	0	332398592	52	4682
2026-01-05 10:57:05.93	208.98	23.91	-39.6	-41.9	16.3	0.00e+00	0	55	0	339738624	51	4521
2026-01-05 10:57:09.97	209.70	24.41	-39.9	-42.2	16.0	0.00e+00	0	55	0	347078656	51	4679
2026-01-05 10:57:14.01	210.44	24.90	-40.5	-43.2	15.0	0.00e+00	0	55	0	354418688	51	5262
2026-01-05 10:57:18.05	211.20	25.41	-40.3	-42.9	15.2	0.00e+00	0	55	0	361758720	52	4786
2026-01-05 10:57:22.09	211.98	25.91	-40.4	-42.9	15.3	0.00e+00	0	55	0	370147328	51	5092
2026-01-05 10:57:26.12	212.79	26.42	-41.1	-44.2	14.0	3.80e-06	0	55	0	377487360	52	5561
2026-01-05 10:57:30.16	213.63	26.94	-40.9	-43.8	14.3	0.00e+00	0	55	0	384827392	52	5337
2026-01-05 10:57:34.20	214.49	27.45	-40.8	-43.6	14.6	0.00e+00	0	55	0	392167424	52	5185
2026-01-05 10:57:38.24	215.38	27.97	-41.4	-44.6	13.5	5.30e-06	0	55	0	400556032	53	5505
2026-01-05 10:57:42.27	216.30	28.49	-40.9	-43.8	14.4	3.00e-06	0	55	0	407896064	53	5026
2026-01-05 10:57:46.32	217.25	29.02	-40.6	-43.4	14.8	0.00e+00	0	55	0	415236096	52	5065
2026-01-05 10:57:50.36	218.24	29.54	-41.1	-44.1	14.1	1.50e-06	0	55	0	422576128	53	5181
2026-01-05 10:57:54.39	219.25	30.07	-40.5	-43.2	15.0	0.00e+00	0	55	0	429916160	53	4684
2026-01-05 10:57:58.43	220.29	30.59	-41.2	-44.4	13.8	3.00e-06	0	55	0	438304768	53	5375
2026-01-05 10:58:02.47	221.37	31.12	-40.8	-43.7	14.5	2.20e-06	0	56	0	445644800	53	4962
2026-01-05 10:58:06.51	222.49	31.64	-41.1	-44.1	14.2	7.00e-07	0	56	0	452984832	53	5169
2026-01-05 10:58:10.54	223.63	32.16	-42.5	-46.8	11.3	1.01e-03	0	56	0	460324864	55	6334
2026-01-05 10:58:14.58	224.82	32.67	-42.6	-46.9	11.6	2.62e-03	0	56	0	467664896	57	5678
2026-01-05 10:58:18.62	226.04	33.19	-42.5	-46.6	11.7	3.51e-04	0	56	0	476053504	56	5850
2026-01-05 10:58:22.66	227.31	33.69	-42.9	-47.5	10.8	5.42e-03	0	56	0	483393536	57	6103
2026-01-05 10:58:26.69	228.60	34.19	-42.8	-47.3	11.2	1.29e-03	0	56	0	490733568	57	5935
2026-01-05 10:58:30.73	229.94	34.67	-43.0	-47.6	10.7	2.17e-03	0	56	0	498073600	56	6540
2026-01-05 10:58:34.78	231.33	35.15	-42.9	-47.4	10.9	4.13e-03	0	56	0	506462208	57	6048
2026-01-05 10:58:38.82	232.75	35.62	-42.8	-47.2	11.2	9.02e-04	0	56	0	513802240	57	5901
2026-01-05 10:58:42.85	234.20	36.07	-42.8	-47.2	11.1	9.27e-04	0	56	0	521142272	57	5895
2026-01-05 10:58:46.89	235.70	36.51	-42.4	-46.2	12.1	3.00e-04	0	56	0	528482304	56	5590
2026-01-05 10:58:50.93	237.24	36.93	-42.4	-46.4	12.1	2.44e-04	0	56	0	535822336	56	5666
2026-01-05 10:58:54.97	238.82	37.33	-41.3	-44.4	13.8	9.10e-06	0	56	0	544210944	54	5086
2026-01-05 10:58:59.00	240.43	37.72	-41.4	-44.6	13.7	3.00e-06	0	56	0	551550976	54	5171
2026-01-05 10:59:03.04	242.08	38.08	-41.5	-44.7	13.6	5.30e-06	0	56	0	558891008	54	5235
2026-01-05 10:59:07.08	243.77	38.42	-41.6	-45.0	13.2	3.73e-05	0	56	0	566231040	54	5452
2026-01-05 10:59:11.11	245.48	38.73	-41.0	-44.0	14.2	2.20e-06	0	56	0	574619648	53	5121
2026-01-05 10:59:15.15	247.23	39.02	-42.9	-47.5	10.9	1.80e-03	0	56	0	581959680	56	6488
2026-01-05 10:59:19.19	249.02	39.28	-41.5	-44.8	13.4	1.60e-05	0	56	0	589299712	55	5021
2026-01-05 10:59:23.23	250.82	39.51	-42.3	-46.4	11.9	1.16e-04	0	56	0	596639744	55	6053
2026-01-05 10:59:27.27	252.66	39.71	-42.1	-45.9	12.4	9.84e-05	0	56	0	603979776	55	5695
2026-01-05 10:59:31.30	254.50	39.88	-40.9	-43.8	14.6	0.00e+00	0	56	0	612368384	53	5003
2026-01-05 10:59:35.34	256.37	40.01	-42.4	-46.6	11.7	9.68e-04	0	56	0	619708416	55	6147
2026-01-05 10:59:39.38	258.25	40.11	-41.5	-44.8	13.5	1.29e-05	0	56	0	627048448	55	5006
2026-01-05 10:59:43.41	260.14	40.18	-43.4	-48.5	9.9	3.39e-03	0	56	0	634388480	57	6871
2026-01-05 10:59:47.45	262.04	40.22	-42.5	-46.6	11.8	1.10e-03	0	56	0	642777088	57	5466
2026-01-05 10:59:51.49	263.94	40.22	-42.1	-45.9	12.6	3.20e-05	0	56	0	650117120	54	5993
2026-01-05 10:59:55.53	265.84	40.18	-42.6	-46.7	11.7	1.73e-03	0	56	0	657457152	57	5553
2026-01-05 10:59:59.57	267.73	40.11	-40.6	-43.2	15.1	0.00e+00	0	56	0	664797184	52	4953
2026-01-05 11:00:03.61	269.61	40.01	-40.3	-42.8	15.6	7.00e-07	0	56	0	672137216	52	4715
2026-01-05 11:00:07.64	271.47	39.87	-41.9	-45.6	12.8	6.63e-05	0	56	0	680525824	54	5800
2026-01-05 11:00:11.69	273.32	39.70	-41.5	-44.8	13.4	5.30e-06	0	56	0	687865856	54	5325
2026-01-05 11:00:15.73	275.15	39.50	-41.4	-44.7	13.7	6.10e-06	0	56	0	695205888	54	5235
2026-01-05 11:00:19.77	276.96	39.27	-40.2	-42.7	15.6	7.00e-07	0	56	0	702545920	52	4698
2026-01-05 11:00:23.80	278.73	39.01	-40.5	-43.2	15.2	0.00e+00	0	56	0	710934528	52	4932
2026-01-05 11:00:27.84	280.48	38.72	-40.1	-42.5	15.8	0.00e+00	0	56	0	718274560	52	4550
2026-01-05 11:00:31.88	282.19	38.41	-39.6	-41.8	16.6	0.00e+00	0	56	0	725614592	51	4480
2026-01-05 11:00:35.92	283.87	38.07	-40.1	-42.6	15.8	0.00e+00	0	56	0	732954624	50	5160
2026-01-05 11:00:39.96	285.52	37.71	-40.2	-42.7	15.6	0.00e+00	0	56	0	740294656	52	4673
2026-01-05 11:00:44.00	287.13	37.32	-38.9	-40.9	17.4	0.00e+00	0	56	0	748683264	49	4496
2026-01-05 11:00:48.03	288.70	36.92	-40.4	-42.9	15.5	0.00e+00	0	56	0	756023296	51	5068
2026-01-05 11:00:52.07	290.23	36.50	-39.4	-41.5	16.9	0.00e+00	0	56	0	763363328	50	4565
2026-01-05 11:00:56.11	291.72	36.07	-37.5	-39.1	19.0	0.00e+00	0	56	0	770703360	46	4386
2026-01-05 11:01:00.15	293.18	35.62	-39.9	-42.3	16.1	0.00e+00	0	56	0	779091968	50	4998
2026-01-05 11:01:04.18	294.59	35.15	-40.3	-42.8	15.5	0.00e+00	0	56	0	786432000	51	5028
2026-01-05 11:01:08.22	295.96	34.68	-41.2	-44.3	13.9	3.00e-06	0	56	0	793772032	53	5325
2026-01-05 11:01:12.26	297.30	34.19	-42.2	-46.2	12.0	1.54e-04	0	56	0	801112064	55	5893
2026-01-05 11:01:16.29	298.59	33.70	-42.2	-46.2	12.0	3.36e-04	0	56	0	808452096	55	5874
2026-01-05 11:01:20.33	299.85	33.20	-44.0	-50.8	7.5	7.18e-02	0	56	0	816840704	58	8446
2026-01-05 11:01:24.37	301.07	32.69	-41.6	-44.9	13.3	1.37e-05	0	56	0	824180736	55	5082
2026-01-05 11:01:28.41	302.25	32.18	-43.4	-49.0	9.3	2.28e-02	0	56	0	831520768	58	6845
2026-01-05 11:01:32.45	303.39	31.66	-41.4	-44.7	13.6	5.30e-06	0	56	0	838860800	54	5255
2026-01-05 11:01:36.49	304.50	31.14	-41.0	-43.9	14.3	2.20e-06	0	56	0	847249408	54	4792
2026-01-05 11:01:40.53	305.58	30.62	-41.7	-45.2	13.0	2.89e-05	0	56	0	854589440	53	5894
2026-01-05 11:01:44.57	306.62	30.10	-40.3	-42.9	15.3	0.00e+00	0	56	0	861929472	52	4799
2026-01-05 11:01:48.61	307.63	29.58	-41.6	-45.1	13.1	2.36e-05	0	56	0	869269504	53	5805
2026-01-05 11:01:52.65	308.61	29.05	-39.6	-41.8	16.4	0.00e+00	0	56	0	876609536	51	4485
2026-01-05 11:01:56.68	309.55	28.54	-40.4	-43.0	15.3	0.00e+00	0	56	0	884998144	51	5122
2026-01-05 11:02:00.72	310.47	28.02	-38.8	-40.8	17.4	0.00e+00	0	56	0	892338176	49	4453
2026-01-05 11:02:04.76	311.36	27.50	-40.9	-43.9	14.3	3.80e-06	0	56	0	899678208	52	5398
2026-01-05 11:02:08.79	312.21	26.99	-39.0	-41.0	17.2	0.00e+00	0	56	0	907018240	50	4314
2026-01-05 11:02:12.83	313.05	26.48	-39.1	-41.2	17.0	0.00e+00	0	56	0	915406848	48	4947
2026-01-05 11:02:16.88	313.86	25.97	-39.0	-41.1	17.0	0.00e+00	0	56	0	922746880	49	4639
2026-01-05 11:02:20.92	314.64	25.47	-39.2	-41.3	17.0	0.00e+00	0	56	0	930086912	49	4714
2026-01-05 11:02:24.96	315.40	24.97	-40.0	-42.5	15.7	0.00e+00	0	56	0	937426944	50	5143
2026-01-05 11:02:29.00	316.14	24.47	-38.5	-40.5	17.6	0.00e+00	0	56	0	944766976	49	4295
2026-01-05 11:02:33.03	316.85	23.99	-38.7	-40.7	17.4	0.00e+00	0	56	0	953155584	48	4702
2026-01-05 11:02:37.07	317.55	23.50	-39.1	-41.1	16.9	0.00e+00	0	56	0	960495616	48	4921
2026-01-05 11:02:41.11	318.22	23.02	-38.5	-40.4	17.7	0.00e+00	0	56	0	967835648	48	4529
2026-01-05 11:02:45.15	318.87	22.55	-38.9	-40.9	17.1	0.00e+00	0	56	0	975175680	48	4813
2026-01-05 11:02:49.19	319.51	22.08	-39.2	-41.4	16.7	0.00e+00	0	56	0	983564288	49	4778
2026-01-05 11:02:53.23	320.12	21.61	-39.2	-41.4	16.8	0.00e+00	0	56	0	990904320	49	4769
2026-01-05 11:02:57.27	320.72	21.15	-39.4	-41.6	16.5	0.00e+00	0	56	0	998244352	49	4914
2026-01-05 11:03:01.30	321.30	20.70	-39.3	-41.5	16.6	0.00e+00	0	56	0	1005584384	49	4838
2026-01-05 11:03:05.34	321.86	20.25	-39.5	-41.8	16.3	0.00e+00	0	56	0	1012924416	49	5002
2026-01-05 11:03:09.38	322.41	19.81	-39.9	-42.4	15.7	0.00e+00	0	56	0	1021313024	50	5066
2026-01-05 11:03:13.42	322.95	19.37	-40.1	-42.6	15.4	0.00e+00	0	56	0	1028653056	51	4904
2026-01-05 11:03:17.45	323.47	18.94	-41.2	-44.5	13.5	0.00e+00	0	56	0	1035993088	52	5743
2026-01-05 11:03:21.49	323.97	18.51	-41.5	-45.1	12.8	1.06e-04	0	56	0	1043333120	54	5496
2026-01-05 11:03:25.53	324.47	18.09	-40.7	-43.8	14.1	7.00e-07	0	56	0	1051721728	53	5020
2026-01-05 11:03:29.57	324.94	17.68	-40.1	-42.8	15.1	0.00e+00	0	56	0	1059061760	52	4732
2026-01-05 11:03:33.61	325.41	17.26	-40.4	-43.1	14.9	0.00e+00	0	56	0	1066401792	51	5199
2026-01-05 11:03:37.64	325.87	16.86	-40.4	-43.2	14.7	0.00e+00	0	57	0	1073741824	51	5278
2026-01-05 11:03:41.68	326.31	16.46	-40.4	-43.3	14.6	7.00e-07	0	57	0	1081081856	51	5296
2026-01-05 11:03:45.72	326.74	16.06	-40.1	-42.7	15.1	0.00e+00	0	56	0	1089470464	51	4969
2026-01-05 11:03:49.76	327.16	15.67	-40.2	-43.0	14.9	0.00e+00	0	56	0	1096810496	51	5106
2026-01-05 11:03:53.80	327.57	15.29	-40.3	-43.0	14.9	0.00e+00	0	56	0	1104150528	51	5148
2026-01-05 11:03:57.83	327.97	14.91	-40.3	-43.1	14.7	0.00e+00	0	56	0	1111490560	51	5196
2026-01-05 11:04:01.87	328.37	14.53	-40.1	-42.8	15.0	0.00e+00	0	56	0	1118830592	51	5039
2026-01-05 11:04:05.91	328.75	14.16	-40.0	-42.6	15.2	0.00e+00	0	56	0	1127219200	51	4913
2026-01-05 11:04:09.94	329.12	13.79	-40.4	-43.4	14.4	7.00e-07	0	57	0	1134559232	51	5342
2026-01-05 11:04:13.98	329.49	13.43	-40.9	-44.2	13.5	1.14e-05	0	57	0	1141899264	52	5536
2026-01-05 11:04:18.02	329.84	13.07	-41.3	-45.0	12.6	8.77e-05	0	56	0	1149239296	53	5748
2026-01-05 11:04:22.06	330.19	12.72	-41.3	-45.0	12.5	1.33e-04	0	56	0	1157627904	53	5784
2026-01-05 11:04:26.10	330.53	12.37	-41.1	-44.6	12.9	5.64e-05	0	56	0	1164967936	53	5520
2026-01-05 11:04:30.14	330.86	12.02	-40.6	-43.8	13.8	6.10e-06	0	56	0	1172307968	53	5011
2026-01-05 11:04:34.18	331.19	11.68	-40.3	-43.2	14.3	1.50e-06	0	56	0	1179648000	52	4966
2026-01-05 11:04:38.21	331.51	11.34	-40.1	-42.9	14.6	7.00e-07	0	56	0	1186988032	51	5099
2026-01-05 11:04:42.25	331.82	11.01	-40.0	-42.9	14.7	0.00e+00	0	56	0	1195376640	51	5042
2026-01-05 11:04:46.29	332.12	10.68	-40.2	-43.1	14.4	7.00e-07	0	56	0	1202716672	51	5188
2026-01-05 11:04:50.33	332.42	10.35	-40.3	-43.4	14.1	2.20e-06	0	56	0	1210056704	51	5364
2026-01-05 11:04:54.37	332.72	10.03	-40.5	-43.7	13.7	3.80e-06	0	56	0	1217396736	51	5562
2026-01-05 11:04:58.40	333.00	9.71	-40.5	-43.8	13.5	1.67e-05	0	57	0	1225785344	52	5304
2026-01-05 11:05:02.44	333.28	9.39	-40.7	-44.1	13.1	1.29e-05	0	57	0	1233125376	52	5520
2026-01-05 11:05:06.48	333.56	9.08	-40.8	-44.4	12.7	8.23e-05	0	56	0	1240465408	52	5711
2026-01-05 11:05:10.52	333.83	8.77	-41.1	-45.1	12.1	2.04e-04	0	57	0	1247805440	52	6156
2026-01-05 11:05:14.55	334.09	8.47	-41.1	-45.0	12.1	3.23e-04	0	57	0	1255145472	52	6111
2026-01-05 11:05:18.59	334.35	8.17	-41.2	-45.3	11.8	5.75e-04	0	57	0	1263534080	53	5943
2026-01-05 11:05:22.63	334.61	7.87	-44.7	-59.2	3.8	1.49e+00	0	57	104	1266679808	59	20920
2026-01-05 11:05:26.67	334.86	7.57	-45.1	-59.9	3.8	1.49e+00	0	57	104	1266679808	60	21414
2026-01-05 11:05:30.72	335.10	7.28	-45.1	-60.0	3.8	1.49e+00	0	57	104	1266679808	60	21534
2026-01-05 11:05:34.76	335.34	6.99	-45.0	-59.9	3.8	1.49e+00	0	57	104	1266679808	60	21285
2026-01-05 11:05:38.80	335.58	6.70	-45.0	-59.9	3.8	1.49e+00	0	57	104	1266679808	60	21277
2026-01-05 11:05:42.84	335.81	6.42	-45.0	-59.8	3.8	1.49e+00	0	57	104	1266679808	60	21180
2026-01-05 11:05:46.89	336.04	6.13	-45.0	-59.8	3.8	1.49e+00	0	57	104	1266679808	60	21212
2026-01-05 11:05:50.93	336.27	5.85	-45.0	-59.8	3.8	1.49e+00	0	56	104	1266679808	60	21237
2026-01-05 11:05:54.98	336.49	5.58	-45.0	-59.8	3.8	1.49e+00	0	57	104	1266679808	60	21183
2026-01-05 11:05:59.02	336.70	5.30	-45.0	-59.8	3.8	1.49e+00	0	57	104	1266679808	60	21228
2026-01-05 11:06:03.06	336.92	5.03	-45.0	-59.8	3.8	1.49e+00	0	57	104	1266679808	60	21212
2026-01-05 11:06:07.11	337.13	4.76	-45.0	-59.8	3.8	1.49e+00	0	57	104	1266679808	60	21236
2026-01-05 11:06:11.15	337.33	4.50	-45.0	-59.8	3.8	1.49e+00	0	57	104	1266679808	60	21184
2026-01-05 11:06:15.20	337.53	4.23	-45.0	-59.8	3.8	1.49e+00	0	57	104	1266679808	60	21176
2026-01-05 11:06:19.24	337.73	3.97	-45.0	-59.8	3.8	1.49e+00	0	57	104	1266679808	60	21180
2026-01-05 11:06:23.29	337.93	3.71	-45.0	-59.8	3.8	1.49e+00	0	57	104	1266679808	60	21191
2026-01-05 11:06:27.33	338.12	3.45	-45.0	-59.8	3.8	1.49e+00	0	57	104	1266679808	60	21193
2026-01-05 11:06:31.36	338.31	3.20	-45.0	-59.8	3.8	1.49e+00	0	57	104	1266679808	60	21157
2026-01-05 11:06:35.41	338.50	2.95	-44.9	-59.8	3.8	1.49e+00	0	57	104	1266679808	60	21200
2026-01-05 11:06:39.45	338.68	2.70	-45.0	-59.8	3.8	1.49e+00	0	57	104	1266679808	60	21126
2026-01-05 11:06:43.50	338.87	2.45	-45.0	-59.8	3.8	1.49e+00	0	57	104	1266679808	60	21138
2026-01-05 11:06:47.54	339.04	2.20	-45.0	-59.8	3.8	1.49e+00	0	57	104	1266679808	60	21075

#Closed at: 2026-01-05 11:06:51
#Recorded file [1266 MB]: D:/lorett/data/31039_260105_135251.dat