passes_logs/2026/01/05/R2.0S_Moscow/R2.0S_Moscow__20260105_091233_SUOMI_NPP_rec.log

#Pass ID: 20260105_091233_SUOMI NPP
#Satellite: SUOMI NPP
#Configuration: NPP
#almurnet v.1.7.20251203
#Start time: 2026-01-05 09:12:35

#Version: 2.2.20231116
#Station: R2.0S_Moscow
#Location: 37.707566 lon 55.798166 lat
#TLE: 1 37849U 11061A   26003.96724563  .00000164  00000+0  98899-4 0  9990
#TLE: 2 37849  98.7800 306.1116 0002573  82.3190 277.8279 14.19522066735141

#Time	Az	El	Level	Level2	SNR	BER	BlckErr	Temp	State	Recorded	gain1	gain2
2026-01-05 09:12:35.30	137.78	2.14	-27.3	-49.1	4.2	1.51e+00	0	47	0	0	33	29272
2026-01-05 09:12:39.35	137.65	2.40	-24.4	-40.5	3.7	1.51e+00	0	47	104	0	20	22883
2026-01-05 09:12:43.39	137.51	2.66	-32.5	-50.1	4.3	1.51e+00	0	48	104	0	31	36699
2026-01-05 09:12:47.43	137.38	2.92	-18.1	-41.9	3.6	1.51e+00	0	48	104	0	22	24107
2026-01-05 09:12:51.48	137.24	3.18	-31.2	-49.3	4.4	1.51e+00	0	48	104	0	34	28290
2026-01-05 09:12:55.52	137.10	3.44	-31.0	-46.7	4.2	1.51e+00	0	48	104	0	28	29539
2026-01-05 09:12:59.56	136.96	3.71	-22.3	-43.6	3.6	1.50e+00	0	49	104	0	19	34524
2026-01-05 09:13:03.61	136.81	3.98	-24.2	-41.6	3.8	1.51e+00	0	49	104	0	26	18325
2026-01-05 09:13:07.65	136.66	4.25	-23.5	-39.3	3.9	1.51e+00	0	49	104	0	24	15935
2026-01-05 09:13:11.70	136.51	4.53	-23.9	-43.0	4.2	1.51e+00	0	49	104	0	20	30482
2026-01-05 09:13:15.74	136.35	4.80	-32.3	-45.9	4.4	1.51e+00	0	50	104	0	26	30312
2026-01-05 09:13:19.79	136.19	5.09	-32.4	-48.3	4.3	1.51e+00	0	50	104	0	33	26691
2026-01-05 09:13:23.83	136.03	5.37	-28.3	-45.3	4.0	1.51e+00	0	50	104	0	25	29863
2026-01-05 09:13:27.88	135.87	5.65	-31.4	-48.8	4.1	1.51e+00	0	50	104	0	32	29974
2026-01-05 09:13:31.92	135.70	5.94	-30.0	-50.3	4.1	1.51e+00	0	50	104	0	31	37800
2026-01-05 09:13:35.97	135.53	6.23	-21.9	-44.7	4.0	1.51e+00	0	50	104	0	27	24921
2026-01-05 09:13:40.01	135.35	6.53	-32.9	-50.0	4.2	1.51e+00	0	51	104	0	33	32408
2026-01-05 09:13:44.06	135.17	6.83	-31.2	-49.6	4.1	1.51e+00	0	51	104	0	35	27630
2026-01-05 09:13:48.10	134.99	7.13	-29.8	-46.7	4.1	1.51e+00	0	51	104	0	27	31166
2026-01-05 09:13:52.14	134.80	7.43	-30.9	-48.8	4.4	1.51e+00	0	51	104	0	34	26612
2026-01-05 09:13:56.19	134.61	7.74	-30.1	-47.0	3.7	1.51e+00	0	52	104	0	24	38380
2026-01-05 09:14:00.23	134.41	8.05	-30.2	-46.2	4.1	1.51e+00	0	52	104	0	29	26413
2026-01-05 09:14:04.27	134.21	8.36	-24.1	-42.6	4.0	1.51e+00	0	52	104	0	27	19417
2026-01-05 09:14:08.31	134.01	8.68	-26.6	-44.7	3.9	1.50e+00	0	52	104	0	25	27771
2026-01-05 09:14:12.35	133.80	9.00	-27.9	-44.7	4.0	1.51e+00	0	52	104	0	26	26230
2026-01-05 09:14:16.39	133.58	9.33	-30.9	-46.9	3.8	1.51e+00	0	52	104	0	29	28495
2026-01-05 09:14:20.43	133.36	9.66	-21.4	-43.0	4.1	1.50e+00	0	52	0	0	26	21588
2026-01-05 09:14:24.47	133.14	9.99	-21.6	-39.9	3.7	1.51e+00	0	52	0	0	21	20109
2026-01-05 09:14:28.51	132.91	10.33	-27.8	-44.8	4.1	1.50e+00	0	53	0	0	26	26588
2026-01-05 09:14:32.55	132.67	10.67	-19.3	-37.1	3.7	1.50e+00	0	53	104	0	11	26019
2026-01-05 09:14:36.59	132.43	11.01	-19.4	-34.7	3.9	1.49e+00	0	53	0	0	11	19663
2026-01-05 09:14:40.63	132.18	11.36	-24.8	-41.0	4.7	1.43e+00	0	53	104	0	24	19378
2026-01-05 09:14:44.67	131.93	11.72	-27.6	-41.6	5.2	1.42e+00	0	53	104	0	25	19457
2026-01-05 09:14:48.71	131.67	12.08	-24.4	-41.1	5.1	1.43e+00	0	53	104	0	25	18358
2026-01-05 09:14:52.76	131.40	12.44	-26.3	-36.1	3.9	1.41e+00	0	53	104	0	18	15514
2026-01-05 09:14:56.80	131.13	12.81	-27.2	-42.3	4.9	1.37e+00	0	53	104	0	28	17841
2026-01-05 09:15:00.84	130.84	13.19	-27.4	-42.8	4.8	1.39e+00	0	53	104	0	26	21186
2026-01-05 09:15:04.87	130.56	13.56	-32.9	-42.5	8.3	3.73e-01	0	53	0	4194304	35	12121
2026-01-05 09:15:08.92	130.26	13.95	-34.3	-44.7	7.3	2.80e-01	0	54	0	11534336	37	14019
2026-01-05 09:15:12.95	129.95	14.34	-38.2	-45.1	9.4	1.24e-01	0	54	0	18874368	45	9247
2026-01-05 09:15:16.99	129.64	14.73	-39.1	-44.9	10.7	6.01e-02	0	54	0	26214400	50	6775
2026-01-05 09:15:21.03	129.32	15.13	-40.3	-45.1	11.3	1.58e-02	0	54	0	34603008	51	6529
2026-01-05 09:15:25.06	128.99	15.54	-40.5	-44.1	13.3	9.36e-04	0	54	0	41943040	52	5485
2026-01-05 09:15:29.10	128.65	15.95	-40.5	-43.6	14.0	2.51e-05	0	54	0	49283072	51	5478
2026-01-05 09:15:33.14	128.30	16.37	-40.1	-43.9	13.1	4.22e-04	0	54	0	56623104	51	5666
2026-01-05 09:15:37.18	127.94	16.80	-40.6	-43.6	14.0	8.30e-06	0	54	0	65011712	51	5521
2026-01-05 09:15:41.22	127.56	17.23	-40.8	-44.1	13.5	7.60e-06	0	54	0	72351744	52	5507
2026-01-05 09:15:45.25	127.18	17.66	-40.3	-43.1	14.6	7.00e-07	0	54	0	79691776	51	5181
2026-01-05 09:15:49.29	126.79	18.11	-40.4	-43.3	14.5	0.00e+00	0	54	0	87031808	51	5316
2026-01-05 09:15:53.33	126.38	18.56	-40.0	-42.6	15.2	0.00e+00	0	54	0	94371840	51	4896
2026-01-05 09:15:57.38	125.96	19.02	-40.5	-43.4	14.4	0.00e+00	0	54	0	102760448	51	5345
2026-01-05 09:16:01.41	125.53	19.48	-40.3	-43.0	14.9	0.00e+00	0	54	0	110100480	51	5105
2026-01-05 09:16:05.45	125.09	19.95	-40.3	-43.0	14.9	1.50e-06	0	55	0	117440512	51	5101
2026-01-05 09:16:09.49	124.63	20.43	-40.3	-43.0	14.9	0.00e+00	0	55	0	124780544	51	5125
2026-01-05 09:16:13.53	124.15	20.91	-40.2	-42.8	15.1	0.00e+00	0	55	0	133169152	51	4986
2026-01-05 09:16:17.57	123.66	21.41	-40.2	-42.7	15.2	0.00e+00	0	55	0	140509184	51	4975
2026-01-05 09:16:21.60	123.16	21.91	-40.7	-43.6	14.3	7.00e-07	0	55	0	147849216	51	5474
2026-01-05 09:16:25.64	122.63	22.41	-40.7	-43.6	14.3	3.80e-06	0	55	0	155189248	52	5190
2026-01-05 09:16:29.68	122.09	22.93	-40.6	-43.4	14.5	7.00e-07	0	55	0	162529280	52	5093
2026-01-05 09:16:33.72	121.53	23.45	-40.5	-43.3	14.6	7.00e-07	0	55	0	170917888	52	5041
2026-01-05 09:16:37.76	120.95	23.98	-41.2	-44.6	13.3	3.80e-06	0	55	0	178257920	53	5471
2026-01-05 09:16:41.80	120.35	24.52	-40.7	-43.6	14.3	1.50e-06	0	55	0	185597952	53	4901
2026-01-05 09:16:45.84	119.73	25.07	-40.7	-43.7	14.2	7.00e-07	0	55	0	192937984	52	5252
2026-01-05 09:16:49.88	119.09	25.62	-40.3	-43.0	15.0	0.00e+00	0	55	0	201326592	52	4836
2026-01-05 09:16:53.92	118.42	26.18	-40.7	-43.6	14.4	7.00e-07	0	55	0	208666624	52	5197
2026-01-05 09:16:57.96	117.73	26.75	-40.5	-43.2	14.8	7.00e-07	0	55	0	216006656	52	4975
2026-01-05 09:17:02.00	117.01	27.32	-41.0	-44.1	13.9	3.80e-06	0	55	0	223346688	52	5482
2026-01-05 09:17:06.03	116.27	27.90	-41.2	-44.5	13.5	1.37e-05	0	55	0	230686720	53	5427
2026-01-05 09:17:10.07	115.50	28.49	-41.0	-44.0	14.0	2.20e-06	0	55	0	239075328	53	5156
2026-01-05 09:17:14.11	114.70	29.09	-41.4	-44.8	13.2	1.67e-05	0	55	0	246415360	53	5613
2026-01-05 09:17:18.15	113.87	29.69	-41.6	-45.0	12.9	2.51e-05	0	55	0	253755392	54	5463
2026-01-05 09:17:22.19	113.00	30.30	-41.6	-45.0	12.9	5.03e-05	0	55	0	261095424	55	5157
2026-01-05 09:17:26.23	112.11	30.91	-42.4	-46.8	11.2	2.00e-03	0	55	0	269484032	55	6296
2026-01-05 09:17:30.27	111.18	31.53	-42.7	-47.3	10.8	1.32e-03	0	55	0	276824064	55	6682
2026-01-05 09:17:34.31	110.21	32.15	-42.5	-46.6	11.6	5.33e-04	0	55	0	284164096	56	5817
2026-01-05 09:17:38.35	109.20	32.78	-42.2	-46.1	12.1	1.75e-04	0	55	0	291504128	56	5470
2026-01-05 09:17:42.38	108.16	33.40	-43.1	-48.2	10.0	6.19e-03	0	55	0	298844160	56	6981
2026-01-05 09:17:46.42	107.07	34.03	-41.3	-44.4	13.7	3.58e-05	0	55	0	307232768	54	5066
2026-01-05 09:17:50.46	105.94	34.66	-40.8	-43.6	14.5	0.00e+00	0	55	0	314572800	53	4878
2026-01-05 09:17:54.50	104.76	35.29	-41.2	-44.3	13.9	3.00e-06	0	56	0	321912832	53	5299
2026-01-05 09:17:58.54	103.54	35.92	-41.6	-45.0	13.2	2.36e-05	0	56	0	329252864	54	5403
2026-01-05 09:18:02.58	102.27	36.55	-41.8	-45.3	12.7	7.78e-05	0	56	0	337641472	54	5624
2026-01-05 09:18:06.61	100.95	37.16	-41.5	-44.8	13.3	9.90e-06	0	56	0	344981504	54	5312
2026-01-05 09:18:10.65	99.58	37.78	-42.5	-46.8	11.3	1.11e-03	0	56	0	352321536	55	6338
2026-01-05 09:18:14.69	98.15	38.38	-42.0	-45.7	12.4	1.53e-04	0	56	0	359661568	55	5554
2026-01-05 09:18:18.73	96.68	38.97	-41.4	-45.2	12.6	4.27e-05	0	56	0	367001600	54	5577
2026-01-05 09:18:22.77	95.15	39.56	-40.7	-43.8	14.1	3.00e-06	0	56	0	375390208	53	5025
2026-01-05 09:18:26.81	93.56	40.12	-40.9	-44.3	13.7	1.50e-06	0	56	0	382730240	52	5618
2026-01-05 09:18:30.85	91.92	40.67	-40.6	-43.8	14.2	7.00e-07	0	56	0	390070272	53	4988
2026-01-05 09:18:34.90	90.21	41.20	-40.3	-43.2	14.9	0.00e+00	0	56	0	397410304	51	5237
2026-01-05 09:18:38.93	88.46	41.71	-39.9	-42.6	15.5	0.00e+00	0	56	0	405798912	51	4897
2026-01-05 09:18:42.97	86.65	42.20	-41.0	-44.8	13.2	3.80e-06	0	56	0	413138944	52	5957
2026-01-05 09:18:47.01	84.79	42.65	-40.3	-43.3	14.6	0.00e+00	0	56	0	420478976	52	5039
2026-01-05 09:18:51.05	82.88	43.08	-40.5	-43.6	14.5	0.00e+00	0	56	0	427819008	51	5468
2026-01-05 09:18:55.09	80.91	43.47	-40.9	-44.4	13.6	2.20e-06	0	56	0	435159040	52	5665
2026-01-05 09:18:59.13	78.90	43.83	-40.6	-43.7	14.3	1.50e-06	0	56	0	443547648	53	4950
2026-01-05 09:19:03.16	76.85	44.15	-41.1	-44.7	13.5	1.06e-05	0	56	0	450887680	52	5866
2026-01-05 09:19:07.20	74.76	44.43	-41.8	-46.1	11.9	6.17e-05	0	56	0	458227712	54	6173
2026-01-05 09:19:11.24	72.63	44.67	-40.7	-43.9	14.1	9.90e-06	0	56	0	465567744	53	5066
2026-01-05 09:19:15.28	70.47	44.87	-41.6	-45.7	12.4	9.68e-05	0	56	0	473956352	53	6222
2026-01-05 09:19:19.32	68.29	45.02	-42.1	-46.9	11.2	1.58e-03	0	56	0	481296384	55	6371
2026-01-05 09:19:23.36	66.09	45.13	-41.3	-45.4	12.7	1.20e-04	0	56	0	488636416	54	5657
2026-01-05 09:19:27.40	63.88	45.19	-41.6	-46.0	12.0	2.26e-04	0	56	0	495976448	53	6463
2026-01-05 09:19:31.43	61.67	45.20	-40.7	-44.0	14.1	7.00e-07	0	56	0	503316480	52	5443
2026-01-05 09:19:35.47	59.46	45.16	-41.7	-46.2	11.7	2.62e-04	0	56	0	511705088	54	6266
2026-01-05 09:19:39.51	57.26	45.08	-41.2	-45.0	13.1	5.87e-05	0	56	0	519045120	54	5451
2026-01-05 09:19:43.55	55.07	44.95	-41.7	-46.0	12.0	1.98e-04	0	56	0	526385152	54	6120
2026-01-05 09:19:47.59	52.90	44.78	-40.7	-44.1	14.0	9.10e-06	0	56	0	533725184	53	5160
2026-01-05 09:19:51.63	50.76	44.56	-41.0	-44.7	13.3	5.87e-05	0	56	0	542113792	53	5578
2026-01-05 09:19:55.67	48.65	44.30	-40.5	-43.9	14.1	6.80e-06	0	56	0	549453824	53	5073
2026-01-05 09:19:59.71	46.58	43.99	-40.8	-44.4	13.6	9.10e-06	0	56	0	556793856	53	5371
2026-01-05 09:20:03.75	44.55	43.65	-40.5	-43.9	14.2	0.00e+00	0	56	0	564133888	52	5360
2026-01-05 09:20:07.79	42.57	43.28	-39.4	-41.9	16.2	0.00e+00	0	56	0	571473920	50	4792
2026-01-05 09:20:11.83	40.63	42.87	-40.9	-44.5	13.6	6.10e-06	0	56	0	579862528	52	5756
2026-01-05 09:20:15.87	38.75	42.43	-40.0	-42.7	15.5	0.00e+00	0	56	0	587202560	51	4944
2026-01-05 09:20:19.91	36.91	41.96	-39.1	-41.3	16.9	0.00e+00	0	56	0	594542592	50	4487
2026-01-05 09:20:23.95	35.14	41.46	-38.4	-40.4	17.9	0.00e+00	0	56	0	601882624	48	4505
2026-01-05 09:20:27.98	33.42	40.94	-38.9	-41.0	17.2	0.00e+00	0	56	0	610271232	48	4868
2026-01-05 09:20:32.02	31.75	40.41	-38.7	-40.8	17.5	0.00e+00	0	56	0	617611264	48	4719
2026-01-05 09:20:36.05	30.15	39.85	-40.1	-42.7	15.6	0.00e+00	0	56	0	624951296	50	5276
2026-01-05 09:20:40.09	28.59	39.28	-39.8	-42.2	16.2	0.00e+00	0	56	0	632291328	51	4691
2026-01-05 09:20:44.13	27.09	38.69	-40.2	-42.9	15.4	0.00e+00	0	56	0	639631360	51	5066
2026-01-05 09:20:48.17	25.65	38.09	-40.0	-42.5	15.9	0.00e+00	0	56	0	648019968	51	4840
2026-01-05 09:20:52.20	24.26	37.49	-39.8	-42.2	16.2	0.00e+00	0	56	0	655360000	51	4663
2026-01-05 09:20:56.24	22.92	36.88	-40.0	-42.5	15.9	0.00e+00	0	56	0	662700032	50	5120
2026-01-05 09:21:00.28	21.63	36.26	-41.4	-44.8	13.4	2.59e-05	0	56	0	670040064	53	5644
2026-01-05 09:21:04.31	20.39	35.63	-41.9	-46.0	12.2	7.70e-05	0	56	0	678428672	54	6105
2026-01-05 09:21:08.35	19.19	35.01	-42.5	-47.3	10.8	8.71e-04	0	56	0	685768704	55	6689
2026-01-05 09:21:12.39	18.04	34.38	-41.4	-44.9	13.3	6.80e-06	0	56	0	693108736	54	5357
2026-01-05 09:21:16.43	16.94	33.75	-42.9	-47.8	10.3	1.57e-02	0	56	0	700448768	57	6342
2026-01-05 09:21:20.47	15.88	33.13	-42.5	-47.0	11.2	1.26e-03	0	56	0	707788800	56	6113
2026-01-05 09:21:24.51	14.85	32.50	-42.3	-46.5	11.8	1.23e-03	0	56	0	716177408	56	5756
2026-01-05 09:21:28.55	13.87	31.88	-40.9	-44.1	14.1	2.20e-06	0	56	0	723517440	53	5180
2026-01-05 09:21:32.59	12.92	31.26	-42.0	-46.3	11.8	5.05e-04	0	56	0	730857472	54	6278
2026-01-05 09:21:36.62	12.02	30.65	-41.8	-45.8	12.3	2.47e-04	0	56	0	738197504	54	5938
2026-01-05 09:21:40.66	11.14	30.05	-41.3	-44.6	13.5	2.51e-05	0	56	0	746586112	54	5201
2026-01-05 09:21:44.70	10.30	29.44	-41.0	-44.3	13.8	8.30e-06	0	56	0	753926144	53	5296
2026-01-05 09:21:48.74	9.48	28.85	-41.3	-44.9	13.2	3.58e-05	0	56	0	761266176	54	5342
2026-01-05 09:21:52.78	8.70	28.26	-40.3	-43.1	15.0	0.00e+00	0	56	0	768606208	52	4882
2026-01-05 09:21:56.82	7.95	27.67	-41.7	-45.6	12.5	2.67e-05	0	56	0	775946240	54	5818
2026-01-05 09:22:00.86	7.22	27.10	-42.3	-46.7	11.2	1.13e-03	0	56	0	784334848	55	6273
2026-01-05 09:22:04.89	6.52	26.53	-41.0	-44.3	13.7	6.10e-06	0	56	0	791674880	53	5320
2026-01-05 09:22:08.93	5.85	25.97	-41.1	-44.4	13.7	8.30e-06	0	56	0	799014912	53	5356
2026-01-05 09:22:12.97	5.20	25.41	-41.1	-44.4	13.6	1.60e-05	0	57	0	806354944	53	5384
2026-01-05 09:22:17.01	4.57	24.86	-41.7	-45.6	12.4	1.43e-04	0	56	0	814743552	53	6138
2026-01-05 09:22:21.05	3.96	24.33	-41.8	-45.9	11.9	3.46e-04	0	56	0	822083584	54	6054
2026-01-05 09:22:25.09	3.38	23.79	-40.7	-43.8	14.2	7.00e-07	0	56	0	829423616	53	5034
2026-01-05 09:22:29.13	2.81	23.27	-40.7	-43.8	14.2	1.50e-06	0	56	0	836763648	52	5292
2026-01-05 09:22:33.17	2.26	22.75	-40.8	-44.0	13.9	7.00e-07	0	56	0	844103680	52	5438
2026-01-05 09:22:37.20	1.73	22.24	-40.8	-44.1	13.8	5.30e-06	0	56	0	852492288	52	5474
2026-01-05 09:22:41.24	1.22	21.74	-40.3	-43.3	14.6	7.00e-07	0	56	0	859832320	52	4992
2026-01-05 09:22:45.28	0.73	21.25	-40.7	-43.9	13.9	0.00e+00	0	56	0	867172352	52	5381
2026-01-05 09:22:49.32	0.25	20.76	-42.0	-46.5	11.2	1.28e-03	0	56	0	874512384	54	6458
2026-01-05 09:22:53.36	359.78	20.28	-41.6	-45.6	12.1	3.91e-04	0	56	0	882900992	54	5842
2026-01-05 09:22:57.40	359.34	19.81	-41.1	-44.7	13.0	5.03e-05	0	57	0	890241024	54	5246
2026-01-05 09:23:01.44	358.90	19.34	-40.8	-44.3	13.4	2.21e-05	0	57	0	897581056	53	5284
2026-01-05 09:23:05.48	358.48	18.88	-40.6	-44.0	13.5	1.60e-05	0	56	0	904921088	53	5110
2026-01-05 09:23:09.51	358.07	18.43	-40.5	-43.8	13.6	6.10e-06	0	57	0	912261120	52	5312
2026-01-05 09:23:13.55	357.67	17.99	-40.4	-43.7	13.5	1.67e-05	0	56	0	920649728	52	5269
2026-01-05 09:23:17.59	357.29	17.55	-40.3	-43.8	13.3	1.83e-05	0	56	0	927989760	52	5307
2026-01-05 09:23:21.63	356.92	17.11	-40.3	-44.0	13.0	4.27e-05	0	57	0	935329792	52	5409
2026-01-05 09:23:25.67	356.55	16.69	-40.5	-44.6	11.9	4.34e-04	0	57	0	942669824	52	5829
2026-01-05 09:23:29.71	356.20	16.27	-40.7	-46.2	9.5	1.07e-02	0	56	0	951058432	52	7007
2026-01-05 09:23:33.75	355.86	15.85	-41.0	-48.9	6.2	2.03e-01	0	56	0	958398464	52	9530
2026-01-05 09:23:37.79	355.53	15.45	-40.8	-51.9	4.2	1.21e+00	0	57	0	964689920	52	13506
2026-01-05 09:23:41.83	355.20	15.04	-40.6	-54.0	3.8	1.49e+00	0	57	104	964689920	52	17182
2026-01-05 09:23:45.87	354.89	14.65	-40.4	-54.6	3.8	1.49e+00	0	56	104	964689920	52	18481
2026-01-05 09:23:49.91	354.58	14.26	-40.6	-54.9	3.8	1.49e+00	0	56	104	964689920	52	19039
2026-01-05 09:23:53.95	354.29	13.87	-40.2	-54.8	3.8	1.49e+00	0	57	104	964689920	52	18740
2026-01-05 09:23:57.99	354.00	13.49	-40.4	-54.9	3.8	1.49e+00	0	56	104	964689920	52	19005
2026-01-05 09:24:02.03	353.72	13.11	-40.1	-54.7	3.8	1.49e+00	0	57	104	964689920	52	18579
2026-01-05 09:24:06.06	353.44	12.75	-40.3	-54.8	3.8	1.49e+00	0	57	104	964689920	51	19928
2026-01-05 09:24:10.10	353.17	12.38	-39.9	-54.7	3.8	1.49e+00	0	56	104	964689920	51	19698
2026-01-05 09:24:14.15	352.91	12.02	-40.1	-54.8	3.8	1.49e+00	0	56	104	964689920	51	20047
2026-01-05 09:24:18.19	352.66	11.66	-39.9	-54.7	3.8	1.49e+00	0	57	104	964689920	51	19729
2026-01-05 09:24:22.22	352.41	11.31	-40.0	-55.0	3.8	1.49e+00	0	57	104	964689920	51	20487
2026-01-05 09:24:26.26	352.17	10.96	-40.3	-54.8	3.8	1.49e+00	0	57	104	964689920	51	19861
2026-01-05 09:24:30.30	351.94	10.62	-40.4	-55.0	3.8	1.49e+00	0	57	104	964689920	51	20330
2026-01-05 09:24:34.34	351.71	10.28	-40.3	-54.9	3.8	1.49e+00	0	57	104	964689920	51	20171
2026-01-05 09:24:38.38	351.49	9.95	-40.2	-54.7	3.8	1.49e+00	0	57	104	964689920	51	19772
2026-01-05 09:24:42.42	351.27	9.62	-40.4	-54.9	3.8	1.49e+00	0	57	104	964689920	51	20295
2026-01-05 09:24:46.45	351.05	9.29	-40.6	-55.0	3.8	1.49e+00	0	56	104	964689920	51	20530
2026-01-05 09:24:50.49	350.85	8.97	-40.5	-55.0	3.8	1.49e+00	0	57	104	964689920	52	19242
2026-01-05 09:24:54.54	350.64	8.65	-40.5	-55.0	3.8	1.49e+00	0	57	104	964689920	52	19304
2026-01-05 09:24:58.58	350.44	8.34	-40.5	-55.0	3.8	1.49e+00	0	57	104	964689920	52	19303
2026-01-05 09:25:02.62	350.25	8.02	-40.5	-55.1	3.8	1.49e+00	0	57	104	964689920	52	19536
2026-01-05 09:25:06.66	350.06	7.72	-44.8	-59.6	3.8	1.49e+00	0	57	104	964689920	60	20580
2026-01-05 09:25:10.71	349.88	7.41	-45.1	-59.8	3.8	1.49e+00	0	57	104	964689920	60	21165
2026-01-05 09:25:14.75	349.69	7.11	-45.0	-59.8	3.8	1.49e+00	0	57	104	964689920	60	21131
2026-01-05 09:25:18.79	349.52	6.81	-44.9	-59.7	3.8	1.49e+00	0	57	104	964689920	60	20994
2026-01-05 09:25:22.84	349.34	6.52	-44.9	-59.7	3.8	1.49e+00	0	57	104	964689920	60	20984
2026-01-05 09:25:26.88	349.17	6.22	-44.9	-59.7	3.8	1.49e+00	0	57	104	964689920	60	20965
2026-01-05 09:25:30.93	349.01	5.93	-44.9	-59.7	3.8	1.49e+00	0	57	104	964689920	60	20917
2026-01-05 09:25:34.97	348.85	5.65	-44.9	-59.7	3.8	1.49e+00	0	56	104	964689920	60	20903
2026-01-05 09:25:39.01	348.69	5.36	-44.9	-59.7	3.8	1.49e+00	0	57	104	964689920	60	20915
2026-01-05 09:25:43.06	348.53	5.08	-44.9	-59.7	3.8	1.49e+00	0	57	104	964689920	60	20908
2026-01-05 09:25:47.10	348.38	4.81	-44.9	-59.7	3.8	1.49e+00	0	57	104	964689920	60	20890
2026-01-05 09:25:51.15	348.23	4.53	-44.9	-59.7	3.8	1.49e+00	0	57	104	964689920	60	20910
2026-01-05 09:25:55.19	348.09	4.26	-44.8	-59.7	3.8	1.49e+00	0	57	104	964689920	60	21004
2026-01-05 09:25:59.23	347.94	3.99	-44.9	-59.7	3.8	1.49e+00	0	57	104	964689920	60	20943
2026-01-05 09:26:03.28	347.80	3.72	-44.9	-59.7	3.8	1.49e+00	0	57	104	964689920	60	20913
2026-01-05 09:26:07.32	347.67	3.45	-44.9	-59.7	3.8	1.49e+00	0	57	104	964689920	60	20943
2026-01-05 09:26:11.37	347.53	3.19	-44.9	-59.7	3.8	1.49e+00	0	57	104	964689920	60	20961
2026-01-05 09:26:15.41	347.40	2.93	-44.9	-59.7	3.8	1.49e+00	0	57	104	964689920	60	20923
2026-01-05 09:26:19.45	347.27	2.67	-44.9	-59.7	3.8	1.49e+00	0	57	104	964689920	60	20959
2026-01-05 09:26:23.50	347.14	2.42	-44.9	-59.7	3.8	1.49e+00	0	57	104	964689920	60	20881
2026-01-05 09:26:27.54	347.02	2.16	-44.9	-59.7	3.8	1.49e+00	0	57	104	964689920	60	20926

#Closed at: 2026-01-05 09:26:30
#Recorded file [964 MB]: D:/lorett/data/31039_260105_121235.dat