passes_logs/2026/01/05/R2.0S_Moscow/R2.0S_Moscow__20260105_134003_FENGYUN_3E_rec.log

#Pass ID: 20260105_134003_FENGYUN 3E
#Satellite: FENGYUN 3E
#Configuration: FENGYUN 3E
#almurnet v.1.7.20251203
#Start time: 2026-01-05 13:47:45

#Version: 2.2.20231116
#Station: R2.0S_Moscow
#Location: 37.707566 lon 55.798166 lat
#TLE: 1 49008U 21062A   26004.99925679  .00000018  00000+0  29282-4 0  9995
#TLE: 2 49008  98.7472  10.2448 0001540 159.6420 200.4818 14.19883565233423

#Time	Az	El	Level	Level2	SNR	BER	BlckErr	Temp	State	Recorded	gain1	gain2
2026-01-05 13:47:45.87	38.10	52.82	-44.9	-56.7	3.8	8.47e-01	0	56	0	0	60	14810
2026-01-05 13:47:47.89	36.85	52.48	-45.6	-56.3	3.8	8.46e-01	0	57	104	0	62	11868
2026-01-05 13:47:49.91	35.64	52.13	-45.5	-56.6	3.8	8.47e-01	0	57	104	0	62	12290
2026-01-05 13:47:51.93	34.46	51.77	-45.5	-56.6	3.8	8.46e-01	0	57	104	0	62	12285
2026-01-05 13:47:53.95	33.30	51.40	-45.5	-56.6	3.8	8.46e-01	0	57	104	0	62	12289
2026-01-05 13:47:55.97	32.18	51.01	-45.5	-56.5	3.8	8.46e-01	0	57	104	0	61	12930
2026-01-05 13:47:58.00	31.07	50.62	-45.5	-56.5	3.8	8.47e-01	0	57	104	0	61	12954
2026-01-05 13:48:00.02	30.00	50.23	-45.4	-56.5	3.8	8.46e-01	0	57	104	0	61	12891
2026-01-05 13:48:02.04	28.96	49.82	-45.4	-56.5	3.8	8.46e-01	0	57	104	0	61	12873
2026-01-05 13:48:04.06	27.95	49.41	-45.4	-56.5	3.8	8.47e-01	0	57	104	0	61	12889
2026-01-05 13:48:06.08	26.96	49.00	-45.4	-56.6	3.8	8.46e-01	0	57	104	0	61	12966
2026-01-05 13:48:08.11	26.00	48.58	-45.5	-56.5	3.8	8.46e-01	0	57	104	0	61	12926
2026-01-05 13:48:10.13	25.07	48.15	-45.4	-56.3	3.8	8.46e-01	0	57	104	0	61	12584
2026-01-05 13:48:12.15	24.16	47.73	-45.4	-56.2	3.8	8.46e-01	0	57	104	0	61	12516
2026-01-05 13:48:14.18	23.27	47.29	-45.4	-56.4	3.8	8.46e-01	0	57	104	0	61	12778
2026-01-05 13:48:16.20	22.41	46.86	-45.4	-56.4	3.8	8.46e-01	0	57	104	0	61	12686
2026-01-05 13:48:18.22	21.58	46.42	-45.4	-56.4	3.8	8.47e-01	0	57	104	0	61	12750
2026-01-05 13:48:20.24	20.77	45.98	-45.4	-56.5	3.8	8.46e-01	0	57	104	0	61	12842
2026-01-05 13:48:22.27	19.97	45.54	-45.4	-56.2	3.8	8.46e-01	0	57	104	0	61	12391
2026-01-05 13:48:24.29	19.21	45.10	-45.4	-56.3	3.8	8.46e-01	0	57	104	0	61	12660
2026-01-05 13:48:26.31	18.46	44.66	-45.4	-56.5	3.8	8.47e-01	0	57	104	0	61	12955
2026-01-05 13:48:28.33	17.74	44.22	-45.3	-55.5	3.8	8.46e-01	0	57	104	0	61	11458
2026-01-05 13:48:30.35	17.03	43.77	-45.1	-54.2	3.9	8.46e-01	0	57	104	0	61	9912
2026-01-05 13:48:32.38	16.34	43.33	-44.7	-51.6	4.7	8.14e-01	0	57	0	0	60	7767
2026-01-05 13:48:34.40	15.67	42.89	-44.5	-50.9	5.0	7.68e-01	0	57	0	0	60	7135
2026-01-05 13:48:36.42	15.03	42.45	-41.9	-44.9	10.1	2.77e-02	0	57	0	8388608	54	5069
2026-01-05 13:48:38.44	14.39	42.01	-36.7	-38.0	17.0	0.00e+00	0	57	0	23068672	44	4088
2026-01-05 13:48:40.46	13.78	41.57	-34.2	-35.3	19.7	0.00e+00	0	57	0	37748736	39	3965
2026-01-05 13:48:42.48	13.18	41.14	-34.5	-35.6	19.2	0.00e+00	0	57	0	52428800	40	3898
2026-01-05 13:48:44.50	12.60	40.70	-34.5	-35.6	19.3	0.00e+00	0	57	0	67108864	40	3888
2026-01-05 13:48:46.52	12.04	40.27	-34.8	-35.9	18.9	0.00e+00	0	57	0	81788928	40	4013
2026-01-05 13:48:48.54	11.49	39.84	-34.5	-35.6	19.4	0.00e+00	0	57	0	96468992	39	4102
2026-01-05 13:48:50.56	10.95	39.41	-33.8	-34.8	20.1	0.00e+00	0	57	0	110100480	38	3980
2026-01-05 13:48:52.59	10.43	38.98	-33.8	-34.8	20.0	0.00e+00	0	57	0	125829120	38	3988
2026-01-05 13:48:54.60	9.92	38.56	-33.9	-34.9	20.0	0.00e+00	0	57	0	139460608	38	4025
2026-01-05 13:48:56.62	9.42	38.14	-33.8	-34.9	20.0	0.00e+00	0	57	0	154140672	38	4011
2026-01-05 13:48:58.64	8.94	37.73	-33.9	-35.0	19.8	0.00e+00	0	57	0	168820736	38	4054
2026-01-05 13:49:00.66	8.47	37.31	-34.1	-35.2	19.5	0.00e+00	0	57	0	183500800	38	4163
2026-01-05 13:49:02.68	8.01	36.90	-34.1	-35.2	19.7	0.00e+00	0	57	0	198180864	38	4164
2026-01-05 13:49:04.70	7.57	36.49	-33.7	-34.8	20.1	0.00e+00	0	57	0	212860928	38	3963
2026-01-05 13:49:06.72	7.13	36.09	-33.6	-34.6	20.2	1.10e-06	0	57	0	227540992	38	3901
2026-01-05 13:49:08.74	6.71	35.69	-33.7	-34.7	20.1	0.00e+00	0	57	0	242221056	38	3935
2026-01-05 13:49:10.76	6.29	35.29	-33.7	-34.8	20.1	0.00e+00	0	57	0	255852544	38	3963
2026-01-05 13:49:12.78	5.89	34.89	-33.3	-34.3	20.5	0.00e+00	0	57	0	271581184	37	3998
2026-01-05 13:49:14.80	5.49	34.50	-33.2	-34.2	20.6	0.00e+00	0	57	0	285212672	37	3928
2026-01-05 13:49:16.82	5.11	34.11	-33.6	-34.6	20.2	0.00e+00	0	57	0	299892736	37	4112
2026-01-05 13:49:18.85	4.73	33.72	-33.9	-35.0	19.8	0.00e+00	0	57	0	314572800	37	4316
2026-01-05 13:49:20.87	4.36	33.34	-34.0	-35.1	19.6	1.10e-06	0	57	0	329252864	37	4374
2026-01-05 13:49:22.89	4.01	32.96	-33.9	-35.0	19.8	0.00e+00	0	57	0	343932928	37	4304
2026-01-05 13:49:24.91	3.66	32.59	-34.0	-35.0	19.7	6.80e-06	0	57	0	358612992	37	4317
2026-01-05 13:49:26.93	3.31	32.22	-33.8	-34.8	19.9	0.00e+00	0	57	0	373293056	37	4215
2026-01-05 13:49:28.96	2.98	31.85	-33.5	-34.5	20.1	0.00e+00	0	57	0	387973120	37	4096
2026-01-05 13:49:30.98	2.65	31.48	-33.4	-34.4	20.3	0.00e+00	0	57	0	402653184	37	4019
2026-01-05 13:49:33.00	2.33	31.12	-33.4	-34.4	20.3	0.00e+00	0	57	0	417333248	37	4030
2026-01-05 13:49:35.02	2.02	30.77	-33.5	-34.5	20.2	0.00e+00	0	57	0	430964736	37	4070
2026-01-05 13:49:37.04	1.72	30.41	-33.5	-34.6	20.1	0.00e+00	0	57	0	446693376	37	4102
2026-01-05 13:49:39.05	1.42	30.06	-33.6	-34.6	20.1	0.00e+00	0	57	0	460324864	37	4124
2026-01-05 13:49:41.07	1.13	29.71	-33.6	-34.7	20.0	0.00e+00	0	57	0	475004928	37	4148
2026-01-05 13:49:43.09	0.84	29.37	-33.8	-34.8	19.9	0.00e+00	0	57	0	489684992	37	4212
2026-01-05 13:49:45.12	0.56	29.03	-33.9	-34.9	19.8	0.00e+00	0	57	0	504365056	37	4274
2026-01-05 13:49:47.13	0.29	28.69	-34.0	-35.0	19.6	0.00e+00	0	57	0	519045120	37	4337
2026-01-05 13:49:49.16	0.02	28.36	-34.2	-35.2	19.3	0.00e+00	0	57	0	533725184	38	4186
2026-01-05 13:49:51.18	359.76	28.03	-34.3	-35.4	19.3	0.00e+00	0	57	0	548405248	38	4260
2026-01-05 13:49:53.20	359.51	27.70	-34.3	-35.4	19.3	0.00e+00	0	57	0	563085312	38	4255
2026-01-05 13:49:55.21	359.26	27.38	-34.2	-35.3	19.3	0.00e+00	0	57	0	576716800	38	4207
2026-01-05 13:49:57.23	359.01	27.06	-34.1	-35.1	19.5	0.00e+00	0	57	0	592445440	38	4141
2026-01-05 13:49:59.25	358.77	26.74	-34.0	-35.1	19.5	0.00e+00	0	57	0	606076928	38	4103
2026-01-05 13:50:01.27	358.53	26.42	-34.0	-35.0	19.6	0.00e+00	0	57	0	620756992	38	4087
2026-01-05 13:50:03.29	358.30	26.11	-34.1	-35.1	19.5	0.00e+00	0	57	0	635437056	38	4128
2026-01-05 13:50:05.31	358.08	25.80	-34.2	-35.3	19.3	0.00e+00	0	57	0	650117120	38	4207
2026-01-05 13:50:07.32	357.86	25.50	-34.2	-35.3	19.3	0.00e+00	0	57	0	664797184	38	4219
2026-01-05 13:50:09.35	357.64	25.20	-34.3	-35.4	19.2	0.00e+00	0	57	0	679477248	38	4277
2026-01-05 13:50:11.36	357.42	24.90	-34.3	-35.4	19.2	0.00e+00	0	57	0	694157312	38	4248
2026-01-05 13:50:13.38	357.22	24.60	-34.3	-35.4	19.2	0.00e+00	0	57	0	708837376	38	4248
2026-01-05 13:50:15.40	357.01	24.31	-34.3	-35.4	19.2	0.00e+00	0	57	0	723517440	38	4246
2026-01-05 13:50:17.42	356.81	24.02	-34.3	-35.4	19.2	0.00e+00	0	57	0	737148928	38	4249
2026-01-05 13:50:19.44	356.61	23.73	-34.4	-35.5	19.0	0.00e+00	0	57	0	751828992	38	4316
2026-01-05 13:50:21.46	356.42	23.44	-34.4	-35.5	18.9	0.00e+00	0	57	0	766509056	38	4319
2026-01-05 13:50:23.48	356.23	23.16	-34.2	-35.3	19.1	0.00e+00	0	57	0	781189120	38	4222
2026-01-05 13:50:25.51	356.04	22.88	-34.2	-35.3	19.1	0.00e+00	0	57	0	795869184	38	4201
2026-01-05 13:50:27.53	355.86	22.60	-34.3	-35.3	18.9	0.00e+00	0	57	0	810549248	38	4241
2026-01-05 13:50:29.55	355.68	22.33	-34.2	-35.3	18.8	0.00e+00	0	57	0	825229312	38	4229
2026-01-05 13:50:31.56	355.50	22.06	-34.2	-35.3	18.7	0.00e+00	0	57	0	839909376	38	4231
2026-01-05 13:50:33.59	355.33	21.79	-34.4	-35.6	18.3	0.00e+00	0	57	0	854589440	38	4361
2026-01-05 13:50:35.60	355.16	21.52	-34.1	-35.2	18.7	0.00e+00	0	57	0	869269504	38	4173
2026-01-05 13:50:37.62	354.99	21.26	-34.2	-35.4	18.4	0.00e+00	0	57	0	883949568	38	4259
2026-01-05 13:50:39.64	354.83	21.00	-34.6	-35.9	17.8	0.00e+00	0	57	0	897581056	38	4494
2026-01-05 13:50:41.66	354.66	20.74	-35.7	-37.1	16.2	0.00e+00	0	57	0	912261120	40	4646
2026-01-05 13:50:43.68	354.50	20.48	-37.7	-39.8	13.2	8.00e-06	0	57	0	926941184	44	4992
2026-01-05 13:50:45.70	354.35	20.23	-39.7	-43.1	9.3	1.20e-02	0	57	0	941621248	48	5794
2026-01-05 13:50:47.72	354.20	19.97	-40.9	-46.6	5.6	4.14e-01	0	57	0	956301312	51	7311
2026-01-05 13:50:49.74	354.04	19.72	-41.2	-49.6	4.1	8.40e-01	0	57	0	957349888	52	9795
2026-01-05 13:50:51.76	353.90	19.48	-41.2	-51.4	3.8	8.45e-01	0	57	104	957349888	52	12087
2026-01-05 13:50:53.78	353.75	19.23	-41.1	-51.9	3.8	8.46e-01	0	57	104	957349888	52	12743
2026-01-05 13:50:55.80	353.61	18.99	-41.0	-52.0	3.8	8.47e-01	0	57	104	957349888	52	12850
2026-01-05 13:50:57.83	353.47	18.75	-40.9	-52.0	3.8	8.46e-01	0	57	104	957349888	52	12870
2026-01-05 13:50:59.84	353.33	18.51	-41.0	-52.1	3.8	8.45e-01	0	57	104	957349888	52	13004
2026-01-05 13:51:01.86	353.19	18.27	-40.9	-52.0	3.8	8.45e-01	0	57	104	957349888	52	12877
2026-01-05 13:51:03.88	353.06	18.04	-40.8	-51.9	3.8	8.46e-01	0	57	104	957349888	52	12772
2026-01-05 13:51:05.90	352.93	17.81	-40.7	-51.8	3.8	8.47e-01	0	57	104	957349888	52	12653
2026-01-05 13:51:07.92	352.80	17.58	-41.0	-52.0	3.8	8.46e-01	0	57	104	957349888	51	13615
2026-01-05 13:51:09.94	352.67	17.35	-41.0	-52.0	3.8	8.46e-01	0	57	104	957349888	51	13711
2026-01-05 13:51:11.96	352.54	17.12	-40.2	-52.0	3.8	8.47e-01	0	57	104	957349888	51	13612
2026-01-05 13:51:13.98	352.42	16.90	-40.1	-52.0	3.8	8.46e-01	0	57	104	957349888	51	13679
2026-01-05 13:51:16.00	352.30	16.67	-40.8	-52.1	3.8	8.47e-01	0	57	104	957349888	51	13777
2026-01-05 13:51:18.02	352.18	16.45	-40.7	-52.1	3.8	8.46e-01	0	57	104	957349888	51	13779
2026-01-05 13:51:20.04	352.06	16.23	-40.5	-52.0	3.8	8.47e-01	0	57	104	957349888	51	13723
2026-01-05 13:51:22.06	351.94	16.02	-40.7	-52.1	3.8	8.45e-01	0	57	104	957349888	51	13749
2026-01-05 13:51:24.08	351.83	15.80	-40.5	-52.1	3.8	8.47e-01	0	57	104	957349888	51	13787
2026-01-05 13:51:26.10	351.72	15.59	-40.4	-52.1	3.8	8.46e-01	0	57	104	957349888	51	13776
2026-01-05 13:51:28.12	351.60	15.38	-41.0	-52.0	3.8	8.46e-01	0	57	104	957349888	51	13638
2026-01-05 13:51:30.15	351.49	15.17	-41.0	-52.0	3.8	8.45e-01	0	57	104	957349888	51	13634
2026-01-05 13:51:32.17	351.39	14.96	-40.8	-52.0	3.8	8.46e-01	0	57	104	957349888	51	13643
2026-01-05 13:51:34.19	351.28	14.75	-40.8	-52.0	3.8	8.47e-01	0	57	104	957349888	51	13596
2026-01-05 13:51:36.21	351.18	14.55	-40.9	-52.0	3.8	8.47e-01	0	57	104	957349888	51	13606
2026-01-05 13:51:38.23	351.07	14.34	-40.9	-51.9	3.8	8.47e-01	0	57	104	957349888	51	13562
2026-01-05 13:51:40.25	350.97	14.14	-40.9	-52.0	3.8	8.46e-01	0	57	104	957349888	51	13606
2026-01-05 13:51:42.27	350.87	13.94	-40.9	-52.0	3.8	8.46e-01	0	57	104	957349888	51	13640
2026-01-05 13:51:44.29	350.77	13.74	-41.0	-52.0	3.8	8.45e-01	0	57	104	957349888	51	13574
2026-01-05 13:51:46.31	350.68	13.54	-40.9	-52.0	3.8	8.44e-01	0	57	104	957349888	51	13574
2026-01-05 13:51:48.33	350.58	13.35	-41.1	-52.1	3.8	8.46e-01	0	57	104	957349888	51	13863
2026-01-05 13:51:50.35	350.49	13.15	-41.1	-52.1	3.8	8.46e-01	0	57	104	957349888	51	13864
2026-01-05 13:51:52.37	350.39	12.96	-40.9	-52.0	3.8	8.46e-01	0	57	104	957349888	51	13658
2026-01-05 13:51:54.39	350.30	12.77	-41.0	-52.0	3.8	8.46e-01	0	57	104	957349888	51	13719
2026-01-05 13:51:56.41	350.21	12.58	-40.9	-52.0	3.8	8.45e-01	0	57	104	957349888	51	13701
2026-01-05 13:51:58.43	350.12	12.39	-40.9	-52.1	3.8	8.46e-01	0	57	104	957349888	51	13750
2026-01-05 13:52:00.45	350.03	12.20	-40.9	-52.0	3.8	8.46e-01	0	57	104	957349888	51	13686
2026-01-05 13:52:02.46	349.95	12.02	-40.9	-52.1	3.8	8.47e-01	0	57	104	957349888	51	13735
2026-01-05 13:52:04.49	349.86	11.83	-40.9	-51.9	3.8	8.46e-01	0	57	104	957349888	51	13567
2026-01-05 13:52:06.50	349.78	11.65	-40.7	-51.9	3.8	8.46e-01	0	57	104	957349888	51	13430
2026-01-05 13:52:08.53	349.69	11.47	-41.0	-52.0	3.8	8.47e-01	0	57	104	957349888	51	13615
2026-01-05 13:52:10.55	349.61	11.29	-40.7	-51.8	3.8	8.46e-01	0	58	104	957349888	51	13277
2026-01-05 13:52:12.57	349.53	11.11	-40.9	-51.9	3.8	8.45e-01	0	57	104	957349888	51	13468
2026-01-05 13:52:14.59	349.45	10.93	-41.0	-52.0	3.8	8.46e-01	0	58	104	957349888	51	13632
2026-01-05 13:52:16.60	349.37	10.76	-40.9	-51.9	3.8	8.47e-01	0	58	104	957349888	51	13480
2026-01-05 13:52:18.62	349.29	10.58	-41.0	-51.9	3.8	8.46e-01	0	57	104	957349888	51	13543
2026-01-05 13:52:20.64	349.22	10.41	-41.1	-52.0	3.8	8.46e-01	0	57	104	957349888	51	13670
2026-01-05 13:52:22.66	349.14	10.23	-41.1	-52.0	3.8	8.45e-01	0	57	104	957349888	52	12950
2026-01-05 13:52:24.68	349.06	10.06	-41.1	-52.1	3.8	8.46e-01	0	57	104	957349888	52	12967
2026-01-05 13:52:26.70	348.99	9.89	-41.2	-52.1	3.8	8.46e-01	0	57	104	957349888	52	13072
2026-01-05 13:52:28.72	348.92	9.72	-40.8	-51.8	3.8	8.47e-01	0	57	104	957349888	52	12562
2026-01-05 13:52:30.75	348.85	9.55	-40.8	-51.8	3.8	8.47e-01	0	57	104	957349888	52	12592
2026-01-05 13:52:32.76	348.77	9.38	-40.9	-51.8	3.8	8.45e-01	0	57	104	957349888	52	12650
2026-01-05 13:52:34.78	348.70	9.22	-41.4	-52.3	3.8	8.46e-01	0	58	104	957349888	52	13351
2026-01-05 13:52:36.80	348.63	9.05	-41.4	-52.3	3.8	8.46e-01	0	57	104	957349888	52	13317
2026-01-05 13:52:38.83	348.57	8.89	-41.3	-52.2	3.8	8.46e-01	0	58	104	957349888	52	13195
2026-01-05 13:52:40.85	348.50	8.72	-41.3	-52.2	3.8	8.47e-01	0	57	104	957349888	52	13225
2026-01-05 13:52:42.87	348.43	8.56	-41.4	-52.3	3.8	8.46e-01	0	57	104	957349888	52	13321
2026-01-05 13:52:44.89	348.37	8.40	-41.3	-52.3	3.8	8.46e-01	0	58	104	957349888	52	13272
2026-01-05 13:52:46.91	348.30	8.24	-41.3	-52.2	3.8	8.47e-01	0	57	104	957349888	52	13196
2026-01-05 13:52:48.93	348.24	8.08	-41.3	-52.2	3.8	8.46e-01	0	58	104	957349888	52	13126
2026-01-05 13:52:50.95	348.17	7.92	-41.5	-52.5	3.8	8.46e-01	0	57	104	957349888	52	13700
2026-01-05 13:52:52.98	348.11	7.76	-45.0	-55.8	3.8	8.46e-01	0	57	104	957349888	59	13353
2026-01-05 13:52:55.00	348.05	7.61	-45.3	-56.4	3.8	8.46e-01	0	57	104	957349888	60	13524
2026-01-05 13:52:57.02	347.99	7.45	-45.4	-56.6	3.8	8.45e-01	0	58	104	957349888	60	13756
2026-01-05 13:52:59.04	347.93	7.29	-45.5	-56.6	3.8	8.46e-01	0	58	104	957349888	60	13825
2026-01-05 13:53:01.07	347.87	7.14	-45.5	-56.6	3.8	8.45e-01	0	57	104	957349888	60	13769
2026-01-05 13:53:03.09	347.81	6.99	-45.4	-56.5	3.8	8.46e-01	0	57	104	957349888	60	13581
2026-01-05 13:53:05.11	347.75	6.84	-45.3	-56.4	3.8	8.46e-01	0	57	104	957349888	60	13487
2026-01-05 13:53:07.13	347.69	6.68	-45.3	-56.3	3.8	8.46e-01	0	57	104	957349888	60	13409
2026-01-05 13:53:09.15	347.63	6.53	-45.3	-56.4	3.8	8.46e-01	0	57	104	957349888	60	13427
2026-01-05 13:53:11.17	347.58	6.38	-45.3	-56.3	3.8	8.47e-01	0	57	104	957349888	60	13384
2026-01-05 13:53:13.20	347.52	6.23	-45.3	-56.3	3.8	8.47e-01	0	58	104	957349888	60	13386
2026-01-05 13:53:15.22	347.47	6.09	-45.3	-56.3	3.8	8.46e-01	0	57	104	957349888	60	13349
2026-01-05 13:53:17.24	347.41	5.94	-45.3	-56.3	3.8	8.45e-01	0	57	104	957349888	60	13396
2026-01-05 13:53:19.26	347.36	5.79	-45.3	-56.3	3.8	8.47e-01	0	58	104	957349888	60	13352
2026-01-05 13:53:21.28	347.30	5.65	-45.3	-56.3	3.8	8.46e-01	0	57	104	957349888	60	13361
2026-01-05 13:53:23.31	347.25	5.50	-45.3	-56.3	3.8	8.47e-01	0	58	104	957349888	60	13318
2026-01-05 13:53:25.33	347.20	5.36	-45.3	-56.3	3.8	8.46e-01	0	57	104	957349888	60	13367
2026-01-05 13:53:27.35	347.15	5.22	-45.3	-56.3	3.8	8.47e-01	0	57	104	957349888	60	13341
2026-01-05 13:53:29.37	347.10	5.07	-45.3	-56.3	3.8	8.46e-01	0	57	104	957349888	60	13334
2026-01-05 13:53:31.39	347.05	4.93	-45.3	-56.3	3.8	8.45e-01	0	57	104	957349888	60	13370
2026-01-05 13:53:33.42	347.00	4.79	-45.3	-56.3	3.8	8.46e-01	0	57	104	957349888	60	13399
2026-01-05 13:53:35.44	346.95	4.65	-45.1	-56.1	3.8	8.46e-01	0	58	104	957349888	60	13100
2026-01-05 13:53:37.46	346.90	4.51	-45.3	-56.3	3.8	8.46e-01	0	57	104	957349888	60	13349
2026-01-05 13:53:39.48	346.85	4.37	-45.3	-56.3	3.8	8.46e-01	0	57	104	957349888	60	13329
2026-01-05 13:53:41.50	346.80	4.23	-45.3	-56.3	3.8	8.46e-01	0	57	104	957349888	60	13373
2026-01-05 13:53:43.53	346.76	4.09	-45.3	-56.3	3.8	8.47e-01	0	57	104	957349888	60	13351
2026-01-05 13:53:45.55	346.71	3.96	-45.1	-56.2	3.8	8.46e-01	0	58	104	957349888	60	13163
2026-01-05 13:53:47.57	346.67	3.82	-45.3	-56.3	3.8	8.47e-01	0	57	104	957349888	60	13322
2026-01-05 13:53:49.59	346.62	3.69	-45.3	-56.3	3.8	8.46e-01	0	58	104	957349888	60	13334
2026-01-05 13:53:51.61	346.58	3.55	-45.3	-56.3	3.8	8.46e-01	0	57	104	957349888	60	13265
2026-01-05 13:53:53.64	346.53	3.42	-45.3	-56.3	3.8	8.47e-01	0	58	104	957349888	60	13318
2026-01-05 13:53:55.66	346.49	3.28	-45.3	-56.3	3.8	8.46e-01	0	58	104	957349888	60	13326
2026-01-05 13:53:57.68	346.44	3.15	-45.3	-56.3	3.8	8.47e-01	0	58	104	957349888	60	13348
2026-01-05 13:53:59.70	346.40	3.02	-45.3	-56.3	3.8	8.48e-01	0	57	104	957349888	60	13346
2026-01-05 13:54:01.72	346.36	2.89	-45.3	-56.3	3.8	8.46e-01	0	58	104	957349888	60	13323
2026-01-05 13:54:03.74	346.32	2.75	-45.3	-56.3	3.8	8.47e-01	0	58	104	957349888	60	13325
2026-01-05 13:54:05.77	346.27	2.62	-45.3	-56.3	3.8	8.46e-01	0	57	104	957349888	60	13342
2026-01-05 13:54:07.79	346.23	2.49	-45.3	-56.3	3.8	8.46e-01	0	57	104	957349888	60	13381
2026-01-05 13:54:09.81	346.19	2.36	-45.3	-56.3	3.8	8.46e-01	0	58	104	957349888	60	13346
2026-01-05 13:54:11.83	346.15	2.23	-45.3	-56.3	3.8	8.46e-01	0	58	104	957349888	60	13361
2026-01-05 13:54:13.85	346.11	2.11	-45.3	-56.3	3.8	8.46e-01	0	57	104	957349888	60	13309
2026-01-05 13:54:15.87	346.07	1.98	-45.3	-56.3	3.8	8.46e-01	0	58	104	957349888	60	13309

#Closed at: 2026-01-05 13:54:16
#Recorded file [957 MB]: D:/lorett/data/31039_260105_164745.dat