passes_logs/2026/01/05/R2.0S_Moscow/R2.0S_Moscow__20260105_230248_SUOMI_NPP_rec.log

#Pass ID: 20260105_230248_SUOMI NPP
#Satellite: SUOMI NPP
#Configuration: NPP
#almurnet v.1.7.20251203
#Start time: 2026-01-05 23:02:50

#Version: 2.2.20231116
#Station: R2.0S_Moscow
#Location: 37.707566 lon 55.798166 lat
#TLE: 1 37849U 11061A   26004.95404768  .00000136  00000+0  85334-4 0  9991
#TLE: 2 37849  98.7801 307.0898 0002575  80.6707 279.4760 14.19522289735281

#Time	Az	El	Level	Level2	SNR	BER	BlckErr	Temp	State	Recorded	gain1	gain2
2026-01-05 23:02:50.04	19.77	2.10	-41.0	-56.1	3.8	1.49e+00	0	47	0	0	53	20726
2026-01-05 23:02:54.07	19.92	2.36	-41.0	-56.1	3.8	1.49e+00	0	48	104	0	53	20730
2026-01-05 23:02:58.12	20.06	2.61	-41.0	-56.1	3.8	1.49e+00	0	48	104	0	53	20732
2026-01-05 23:03:02.16	20.21	2.86	-41.0	-56.1	3.8	1.49e+00	0	48	104	0	53	20751
2026-01-05 23:03:06.21	20.36	3.12	-41.0	-56.2	3.8	1.49e+00	0	49	104	0	53	20790
2026-01-05 23:03:10.25	20.51	3.38	-41.0	-56.1	3.8	1.49e+00	0	49	104	0	53	20718
2026-01-05 23:03:14.29	20.67	3.64	-41.0	-56.1	3.8	1.49e+00	0	49	104	0	53	20728
2026-01-05 23:03:18.34	20.83	3.91	-41.0	-56.1	3.8	1.49e+00	0	49	104	0	53	20724
2026-01-05 23:03:22.38	20.99	4.18	-41.0	-56.1	3.8	1.49e+00	0	50	104	0	53	20713
2026-01-05 23:03:26.42	21.15	4.44	-41.0	-56.1	3.8	1.49e+00	0	50	104	0	53	20711
2026-01-05 23:03:30.47	21.32	4.72	-41.0	-56.1	3.8	1.49e+00	0	50	104	0	53	20702
2026-01-05 23:03:34.51	21.48	4.99	-41.0	-56.1	3.8	1.49e+00	0	50	104	0	53	20716
2026-01-05 23:03:38.55	21.65	5.27	-41.0	-56.1	3.8	1.49e+00	0	50	104	0	53	20661
2026-01-05 23:03:42.60	21.83	5.55	-41.0	-56.1	3.8	1.49e+00	0	51	104	0	53	20744
2026-01-05 23:03:46.64	22.01	5.83	-41.0	-56.1	3.8	1.49e+00	0	51	104	0	53	20675
2026-01-05 23:03:50.69	22.19	6.12	-41.0	-56.1	3.8	1.49e+00	0	51	104	0	53	20720
2026-01-05 23:03:54.73	22.37	6.41	-41.0	-56.1	3.8	1.49e+00	0	51	104	0	53	20651
2026-01-05 23:03:58.78	22.56	6.70	-41.0	-56.1	3.8	1.49e+00	0	52	104	0	53	20649
2026-01-05 23:04:02.82	22.75	7.00	-40.9	-55.9	3.8	1.49e+00	0	52	104	0	53	20189
2026-01-05 23:04:06.86	22.94	7.29	-40.9	-55.2	3.8	1.49e+00	0	52	104	0	53	18531
2026-01-05 23:04:10.91	23.14	7.60	-40.8	-53.9	3.9	1.49e+00	0	52	104	0	53	16093
2026-01-05 23:04:14.95	23.34	7.90	-40.6	-50.6	5.0	7.76e-01	0	52	0	2097152	53	10959
2026-01-05 23:04:18.99	23.54	8.21	-41.2	-46.7	9.6	8.09e-03	0	52	0	10485760	52	7433
2026-01-05 23:04:23.03	23.75	8.52	-40.1	-44.6	11.7	5.52e-04	0	53	0	16777216	52	5821
2026-01-05 23:04:27.07	23.97	8.84	-40.3	-44.3	12.3	2.33e-04	0	53	0	24117248	52	5613
2026-01-05 23:04:31.12	24.18	9.16	-40.5	-44.6	12.0	2.59e-04	0	53	0	32505856	52	5816
2026-01-05 23:04:35.15	24.40	9.48	-40.6	-44.7	12.1	4.21e-04	0	53	0	39845888	52	5871
2026-01-05 23:04:39.19	24.63	9.81	-40.6	-44.5	12.3	1.71e-04	0	53	0	47185920	52	5771
2026-01-05 23:04:43.23	24.86	10.14	-40.6	-44.4	12.6	1.28e-04	0	53	0	54525952	52	5690
2026-01-05 23:04:47.26	25.10	10.47	-40.7	-44.4	12.8	5.49e-05	0	53	0	62914560	52	5676
2026-01-05 23:04:51.30	25.34	10.81	-40.5	-44.0	13.3	9.10e-06	0	53	0	70254592	52	5406
2026-01-05 23:04:55.34	25.58	11.15	-40.3	-43.5	13.8	1.50e-06	0	53	0	77594624	52	5154
2026-01-05 23:04:59.38	25.84	11.50	-40.2	-43.3	14.1	7.00e-07	0	54	0	84934656	52	5023
2026-01-05 23:05:03.42	26.09	11.86	-40.0	-43.0	14.4	2.20e-06	0	54	0	92274688	52	4841
2026-01-05 23:05:07.45	26.36	12.21	-40.1	-43.1	14.3	0.00e+00	0	54	0	100663296	52	4903
2026-01-05 23:05:11.49	26.63	12.57	-40.0	-42.9	14.7	7.00e-07	0	54	0	108003328	51	5046
2026-01-05 23:05:15.54	26.90	12.94	-39.9	-42.7	14.9	0.00e+00	0	54	0	115343360	51	4943
2026-01-05 23:05:19.58	27.18	13.31	-39.6	-42.3	15.3	0.00e+00	0	54	0	122683392	51	4708
2026-01-05 23:05:23.61	27.47	13.69	-39.5	-42.1	15.6	0.00e+00	0	54	0	131072000	50	4873
2026-01-05 23:05:27.65	27.77	14.07	-39.6	-42.2	15.5	0.00e+00	0	54	0	138412032	50	4928
2026-01-05 23:05:31.69	28.07	14.46	-39.4	-41.9	15.9	0.00e+00	0	54	0	145752064	50	4778
2026-01-05 23:05:35.73	28.38	14.86	-39.4	-41.9	15.9	0.00e+00	0	54	0	153092096	50	4761
2026-01-05 23:05:39.77	28.70	15.26	-39.5	-42.1	15.7	0.00e+00	0	55	0	160432128	50	4892
2026-01-05 23:05:43.81	29.03	15.66	-39.5	-42.1	15.7	0.00e+00	0	54	0	168820736	50	4904
2026-01-05 23:05:47.84	29.36	16.07	-39.9	-42.7	15.1	0.00e+00	0	55	0	176160768	50	5254
2026-01-05 23:05:51.88	29.71	16.49	-39.9	-42.7	15.1	0.00e+00	0	55	0	183500800	50	5260
2026-01-05 23:05:55.92	30.06	16.91	-40.0	-42.8	15.0	7.00e-07	0	55	0	190840832	50	5321
2026-01-05 23:05:59.96	30.42	17.34	-39.9	-42.7	15.2	0.00e+00	0	54	0	199229440	50	5231
2026-01-05 23:06:03.99	30.80	17.78	-40.0	-42.7	15.2	7.00e-07	0	55	0	206569472	50	5264
2026-01-05 23:06:08.03	31.18	18.22	-40.1	-42.9	15.1	0.00e+00	0	55	0	213909504	50	5385
2026-01-05 23:06:12.07	31.58	18.68	-39.9	-42.6	15.3	0.00e+00	0	55	0	221249536	50	5192
2026-01-05 23:06:16.11	31.98	19.13	-40.2	-43.1	14.9	0.00e+00	0	55	0	228589568	50	5485
2026-01-05 23:06:20.15	32.40	19.60	-40.3	-43.3	14.7	7.00e-07	0	55	0	236978176	51	5304
2026-01-05 23:06:24.19	32.83	20.07	-40.1	-43.0	15.0	0.00e+00	0	55	0	244318208	51	5114
2026-01-05 23:06:28.23	33.28	20.55	-40.0	-42.7	15.3	0.00e+00	0	55	0	251658240	51	4971
2026-01-05 23:06:32.26	33.73	21.04	-40.0	-42.8	15.2	0.00e+00	0	55	0	258998272	51	5030
2026-01-05 23:06:36.29	34.20	21.53	-40.2	-43.0	14.9	0.00e+00	0	55	0	267386880	51	5119
2026-01-05 23:06:40.33	34.69	22.04	-40.2	-43.1	14.9	0.00e+00	0	55	0	274726912	51	5205
2026-01-05 23:06:44.37	35.19	22.55	-40.4	-43.3	14.7	0.00e+00	0	55	0	282066944	51	5310
2026-01-05 23:06:48.41	35.71	23.07	-40.1	-42.9	15.1	7.00e-07	0	55	0	289406976	51	5065
2026-01-05 23:06:52.45	36.25	23.60	-40.1	-42.8	15.3	0.00e+00	0	55	0	296747008	51	5023
2026-01-05 23:06:56.48	36.80	24.13	-40.1	-42.9	15.2	0.00e+00	0	55	0	305135616	51	5084
2026-01-05 23:07:00.52	37.37	24.68	-40.1	-42.8	15.3	0.00e+00	0	56	0	312475648	51	5025
2026-01-05 23:07:04.56	37.96	25.23	-39.9	-42.6	15.6	0.00e+00	0	56	0	319815680	51	4876
2026-01-05 23:07:08.60	38.58	25.80	-40.0	-42.7	15.5	0.00e+00	0	55	0	327155712	51	4931
2026-01-05 23:07:12.63	39.21	26.37	-40.1	-42.9	15.3	0.00e+00	0	55	0	335544320	51	5067
2026-01-05 23:07:16.67	39.87	26.95	-40.2	-42.9	15.2	0.00e+00	0	56	0	342884352	51	5087
2026-01-05 23:07:20.71	40.55	27.54	-40.0	-42.7	15.5	0.00e+00	0	56	0	350224384	51	4953
2026-01-05 23:07:24.75	41.25	28.13	-40.2	-43.0	15.3	0.00e+00	0	56	0	357564416	51	5110
2026-01-05 23:07:28.78	41.99	28.74	-40.8	-43.9	14.3	0.00e+00	0	56	0	364904448	52	5343
2026-01-05 23:07:32.82	42.75	29.35	-41.0	-44.2	14.0	7.00e-07	0	56	0	373293056	52	5563
2026-01-05 23:07:36.86	43.54	29.97	-41.1	-44.4	13.7	7.60e-06	0	56	0	380633088	53	5379
2026-01-05 23:07:40.90	44.36	30.60	-41.3	-44.9	13.2	2.28e-05	0	56	0	387973120	53	5718
2026-01-05 23:07:44.94	45.21	31.24	-40.9	-44.1	14.1	6.10e-06	0	56	0	395313152	53	5166
2026-01-05 23:07:48.98	46.09	31.89	-40.7	-43.8	14.4	0.00e+00	0	56	0	403701760	53	4998
2026-01-05 23:07:53.01	47.01	32.53	-41.3	-44.7	13.5	9.10e-06	0	56	0	411041792	53	5592
2026-01-05 23:07:57.05	47.97	33.19	-41.3	-44.9	13.3	2.82e-05	0	56	0	418381824	53	5699
2026-01-05 23:08:01.09	48.97	33.85	-40.7	-43.8	14.4	7.00e-07	0	56	0	425721856	53	5020
2026-01-05 23:08:05.13	50.01	34.52	-40.5	-43.4	14.7	7.00e-07	0	56	0	433061888	52	5091
2026-01-05 23:08:09.17	51.09	35.19	-40.9	-44.2	14.0	2.20e-06	0	56	0	441450496	52	5555
2026-01-05 23:08:13.20	52.21	35.87	-39.8	-42.4	15.7	0.00e+00	0	56	0	448790528	51	4808
2026-01-05 23:08:17.24	53.39	36.54	-40.0	-42.8	15.5	0.00e+00	0	56	0	456130560	50	5285
2026-01-05 23:08:21.28	54.61	37.22	-39.8	-42.5	15.6	0.00e+00	0	56	0	463470592	51	4847
2026-01-05 23:08:25.32	55.88	37.89	-39.3	-41.7	16.4	0.00e+00	0	56	0	471859200	50	4696
2026-01-05 23:08:29.36	57.21	38.57	-40.0	-42.9	15.3	0.00e+00	0	56	0	479199232	50	5368
2026-01-05 23:08:33.40	58.59	39.23	-40.1	-43.0	15.4	0.00e+00	0	56	0	486539264	50	5411
2026-01-05 23:08:37.43	60.02	39.89	-39.4	-41.8	16.4	0.00e+00	0	56	0	493879296	50	4752
2026-01-05 23:08:41.47	61.52	40.55	-39.8	-42.4	15.9	0.00e+00	0	56	0	501219328	50	5051
2026-01-05 23:08:45.51	63.08	41.19	-40.6	-43.6	14.7	0.00e+00	0	56	0	509607936	51	5482
2026-01-05 23:08:49.55	64.70	41.82	-39.9	-42.3	16.0	0.00e+00	0	56	0	516947968	51	4756
2026-01-05 23:08:53.59	66.38	42.44	-40.5	-43.4	14.9	0.00e+00	0	56	0	524288000	52	5069
2026-01-05 23:08:57.63	68.13	43.04	-40.5	-43.3	14.9	0.00e+00	0	56	0	531628032	52	5041
2026-01-05 23:09:01.68	69.94	43.62	-40.7	-43.6	14.7	7.00e-07	0	56	0	540016640	52	5200
2026-01-05 23:09:05.72	71.82	44.17	-41.4	-45.0	13.3	5.41e-05	0	56	0	547356672	53	5776
2026-01-05 23:09:09.76	73.76	44.69	-41.1	-44.6	13.7	1.50e-06	0	56	0	554696704	52	5824
2026-01-05 23:09:13.80	75.77	45.19	-41.7	-45.8	12.7	7.40e-05	0	56	0	562036736	54	5970
2026-01-05 23:09:17.83	77.82	45.65	-41.4	-45.1	13.0	1.39e-04	0	56	0	569376768	54	5508
2026-01-05 23:09:21.87	79.95	46.08	-42.2	-46.6	11.6	1.84e-03	0	56	0	577765376	55	6201
2026-01-05 23:09:25.91	82.13	46.46	-42.8	-48.4	9.9	1.17e-02	0	57	0	585105408	56	7145
2026-01-05 23:09:29.95	84.36	46.81	-41.3	-44.9	13.4	7.32e-05	0	57	0	592445440	54	5346
2026-01-05 23:09:33.99	86.63	47.11	-40.8	-44.1	14.1	0.00e+00	0	56	0	599785472	52	5485
2026-01-05 23:09:38.03	88.95	47.36	-41.4	-45.0	13.3	7.09e-05	0	57	0	608174080	54	5403
2026-01-05 23:09:42.07	91.30	47.56	-41.5	-45.2	13.0	1.14e-05	0	57	0	615514112	53	5893
2026-01-05 23:09:46.11	93.68	47.72	-42.1	-46.5	11.6	1.46e-03	0	57	0	622854144	55	6084
2026-01-05 23:09:50.15	96.07	47.82	-42.4	-47.3	11.0	1.09e-03	0	56	0	630194176	55	6651
2026-01-05 23:09:54.19	98.48	47.86	-41.7	-45.4	12.9	2.59e-05	0	57	0	637534208	54	5696
2026-01-05 23:09:58.22	100.89	47.85	-41.9	-46.0	12.3	9.30e-05	0	57	0	645922816	54	6069
2026-01-05 23:10:02.26	103.30	47.79	-40.8	-43.4	15.0	0.00e+00	0	57	0	653262848	53	4791
2026-01-05 23:10:06.30	105.69	47.68	-42.1	-45.7	12.6	4.88e-05	0	56	0	660602880	54	5912
2026-01-05 23:10:10.34	108.06	47.51	-42.3	-46.3	12.0	2.15e-04	0	56	0	667942912	55	5943
2026-01-05 23:10:14.38	110.40	47.29	-42.8	-46.9	11.5	1.16e-03	0	56	0	676331520	56	6059
2026-01-05 23:10:18.42	112.71	47.02	-40.4	-42.9	15.3	3.00e-06	0	57	0	683671552	52	4787
2026-01-05 23:10:22.46	114.98	46.71	-42.7	-46.9	11.7	1.09e-03	0	57	0	691011584	56	5999
2026-01-05 23:10:26.50	117.20	46.35	-41.3	-44.2	14.2	1.06e-05	0	56	0	698351616	53	5266
2026-01-05 23:10:30.54	119.36	45.95	-41.1	-44.0	14.4	0.00e+00	0	56	0	705691648	52	5435
2026-01-05 23:10:34.58	121.47	45.51	-40.6	-43.3	15.1	4.50e-06	0	56	0	714080256	53	4712
2026-01-05 23:10:38.62	123.52	45.04	-40.5	-43.1	15.3	0.00e+00	0	57	0	721420288	53	4617
2026-01-05 23:10:42.66	125.51	44.53	-41.1	-43.9	14.4	0.00e+00	0	56	0	728760320	52	5385
2026-01-05 23:10:46.70	127.44	44.00	-39.8	-42.1	16.4	0.00e+00	0	57	0	736100352	50	4888
2026-01-05 23:10:50.74	129.30	43.43	-39.0	-41.0	17.4	0.00e+00	0	57	0	744488960	49	4551
2026-01-05 23:10:54.78	131.10	42.85	-38.8	-40.7	17.7	0.00e+00	0	57	0	751828992	49	4424
2026-01-05 23:10:58.82	132.83	42.24	-39.1	-41.1	17.3	0.00e+00	0	57	0	759169024	49	4608
2026-01-05 23:11:02.85	134.49	41.62	-39.4	-41.5	16.8	0.00e+00	0	57	0	766509056	49	4848
2026-01-05 23:11:06.89	136.10	40.98	-37.5	-39.1	19.1	0.00e+00	0	56	0	773849088	46	4384
2026-01-05 23:11:10.93	137.64	40.33	-38.9	-40.9	17.5	0.00e+00	0	57	0	782237696	49	4508
2026-01-05 23:11:14.97	139.12	39.67	-41.7	-45.1	13.3	4.50e-06	0	57	0	789577728	53	5805
2026-01-05 23:11:19.01	140.55	39.00	-41.2	-44.1	14.3	0.00e+00	0	57	0	796917760	53	5196
2026-01-05 23:11:23.04	141.91	38.33	-41.9	-45.3	13.0	5.95e-05	0	57	0	804257792	55	5328
2026-01-05 23:11:27.08	143.22	37.65	-42.5	-46.6	11.6	4.14e-04	0	57	0	812646400	55	6186
2026-01-05 23:11:31.12	144.48	36.97	-42.3	-46.1	12.4	3.34e-04	0	57	0	819986432	56	5526
2026-01-05 23:11:35.16	145.69	36.29	-43.4	-48.6	9.7	1.01e-02	0	57	0	827326464	57	6907
2026-01-05 23:11:39.19	146.85	35.62	-43.2	-48.1	10.3	2.92e-03	0	57	0	834666496	57	6514
2026-01-05 23:11:43.23	147.97	34.94	-43.8	-49.8	8.6	2.67e-02	0	57	0	842006528	58	7471
2026-01-05 23:11:47.27	149.04	34.27	-41.0	-43.9	14.4	2.20e-06	0	57	0	850395136	54	4775
2026-01-05 23:11:51.30	150.06	33.60	-42.4	-46.4	12.0	4.95e-05	0	57	0	857735168	55	5997
2026-01-05 23:11:55.34	151.05	32.93	-42.4	-46.1	12.2	1.13e-03	0	57	0	865075200	56	5525
2026-01-05 23:11:59.38	152.00	32.27	-41.2	-44.1	14.2	0.00e+00	0	57	0	872415232	54	4895
2026-01-05 23:12:03.40	152.91	31.62	-41.5	-44.7	13.6	6.80e-06	0	57	0	879755264	54	5243
2026-01-05 23:12:07.44	153.78	30.98	-40.5	-43.2	15.2	0.00e+00	0	57	0	888143872	52	4935
2026-01-05 23:12:11.48	154.63	30.34	-41.7	-45.1	13.2	2.89e-05	0	57	0	895483904	54	5486
2026-01-05 23:12:15.52	155.44	29.71	-41.3	-44.4	13.9	1.50e-06	0	57	0	902823936	54	5093
2026-01-05 23:12:19.55	156.22	29.09	-40.8	-43.6	14.7	0.00e+00	0	57	0	910163968	53	4885
2026-01-05 23:12:23.60	156.97	28.47	-41.1	-44.1	14.1	3.00e-06	0	57	0	918552576	53	5174
2026-01-05 23:12:27.63	157.70	27.86	-40.8	-43.6	14.6	7.00e-07	0	57	0	925892608	53	4916
2026-01-05 23:12:31.67	158.39	27.27	-39.8	-42.1	16.2	0.00e+00	0	57	0	933232640	51	4606
2026-01-05 23:12:35.71	159.07	26.68	-39.9	-42.3	16.0	0.00e+00	0	57	0	940572672	51	4729
2026-01-05 23:12:39.75	159.72	26.10	-40.7	-43.5	14.6	0.00e+00	0	57	0	947912704	52	5157
2026-01-05 23:12:43.78	160.34	25.52	-40.0	-42.3	15.9	0.00e+00	0	57	0	956301312	51	4743
2026-01-05 23:12:47.82	160.95	24.96	-40.0	-42.3	15.9	0.00e+00	0	57	0	963641344	51	4740
2026-01-05 23:12:51.86	161.54	24.41	-40.5	-43.2	15.1	0.00e+00	0	57	0	970981376	51	5223
2026-01-05 23:12:55.90	162.10	23.86	-39.8	-42.1	16.1	0.00e+00	0	57	0	978321408	51	4610
2026-01-05 23:12:59.94	162.65	23.32	-40.1	-42.6	15.6	0.00e+00	0	57	0	986710016	51	4900
2026-01-05 23:13:03.98	163.18	22.79	-40.6	-43.3	14.9	0.00e+00	0	57	0	994050048	52	5033
2026-01-05 23:13:08.02	163.69	22.27	-40.9	-43.9	14.3	7.00e-07	0	57	0	1001390080	52	5361
2026-01-05 23:13:12.06	164.19	21.76	-40.1	-42.7	15.4	0.00e+00	0	57	0	1008730112	52	4675
2026-01-05 23:13:16.10	164.67	21.26	-40.0	-42.5	15.7	0.00e+00	0	57	0	1016070144	51	4832
2026-01-05 23:13:20.14	165.14	20.76	-40.3	-43.0	15.2	0.00e+00	0	57	0	1024458752	51	5116
2026-01-05 23:13:24.18	165.59	20.27	-41.2	-44.4	13.7	9.10e-06	0	57	0	1031798784	52	5666
2026-01-05 23:13:28.22	166.03	19.79	-41.2	-44.5	13.6	8.30e-06	0	57	0	1039138816	53	5432
2026-01-05 23:13:32.25	166.45	19.32	-40.6	-43.4	14.7	1.50e-06	0	57	0	1046478848	53	4780
2026-01-05 23:13:36.29	166.86	18.85	-40.0	-42.5	15.6	0.00e+00	0	57	0	1054867456	51	4838
2026-01-05 23:13:40.33	167.26	18.40	-40.2	-42.8	15.3	0.00e+00	0	57	0	1062207488	51	5010
2026-01-05 23:13:44.37	167.65	17.94	-40.6	-43.4	14.7	7.00e-07	0	57	0	1069547520	51	5354
2026-01-05 23:13:48.41	168.03	17.50	-40.4	-43.2	14.9	0.00e+00	0	57	0	1076887552	51	5235
2026-01-05 23:13:52.45	168.40	17.06	-40.2	-42.9	15.2	0.00e+00	0	57	0	1084227584	51	5063
2026-01-05 23:13:56.49	168.76	16.63	-39.7	-42.0	16.0	0.00e+00	0	57	0	1092616192	51	4594
2026-01-05 23:14:00.53	169.11	16.21	-39.6	-41.9	16.1	0.00e+00	0	57	0	1099956224	51	4515
2026-01-05 23:14:04.56	169.44	15.79	-39.5	-41.8	16.2	0.00e+00	0	57	0	1107296256	50	4739
2026-01-05 23:14:08.60	169.78	15.38	-39.8	-42.3	15.7	0.00e+00	0	57	0	1114636288	50	5000
2026-01-05 23:14:12.64	170.10	14.97	-40.2	-42.9	15.0	0.00e+00	0	57	0	1123024896	51	5093
2026-01-05 23:14:16.68	170.41	14.57	-40.7	-43.8	14.0	3.00e-06	0	57	0	1130364928	52	5327
2026-01-05 23:14:20.72	170.72	14.18	-41.1	-44.4	13.4	1.37e-05	0	57	0	1137704960	52	5715
2026-01-05 23:14:24.76	171.01	13.79	-41.1	-44.5	13.3	1.67e-05	0	57	0	1145044992	52	5732
2026-01-05 23:14:28.80	171.31	13.41	-40.8	-44.0	13.7	7.60e-06	0	57	0	1152385024	52	5461
2026-01-05 23:14:32.84	171.59	13.03	-40.2	-42.9	14.8	0.00e+00	0	57	0	1160773632	52	4797
2026-01-05 23:14:36.88	171.87	12.66	-39.8	-42.3	15.6	0.00e+00	0	57	0	1168113664	51	4720
2026-01-05 23:14:40.92	172.14	12.29	-39.8	-42.3	15.4	0.00e+00	0	57	0	1175453696	51	4759
2026-01-05 23:14:44.96	172.40	11.93	-39.6	-42.1	15.6	0.00e+00	0	57	0	1182793728	51	4615
2026-01-05 23:14:49.00	172.66	11.57	-39.9	-42.6	15.1	0.00e+00	0	57	0	1191182336	51	4878
2026-01-05 23:14:53.03	172.91	11.22	-40.2	-43.1	14.5	0.00e+00	0	57	0	1198522368	51	5203
2026-01-05 23:14:57.07	173.16	10.87	-40.3	-43.2	14.3	3.00e-06	0	57	0	1205862400	51	5274
2026-01-05 23:15:01.11	173.40	10.53	-40.4	-43.4	14.2	1.50e-06	0	57	0	1213202432	51	5402
2026-01-05 23:15:05.15	173.63	10.19	-40.4	-43.5	14.0	2.20e-06	0	57	0	1220542464	51	5409
2026-01-05 23:15:09.19	173.86	9.85	-40.3	-43.4	14.0	3.00e-06	0	57	0	1228931072	51	5351
2026-01-05 23:15:13.23	174.09	9.52	-40.3	-43.3	14.0	6.80e-06	0	57	0	1236271104	51	5324
2026-01-05 23:15:17.26	174.31	9.19	-40.5	-43.8	13.5	4.50e-06	0	57	0	1243611136	51	5603
2026-01-05 23:15:21.30	174.53	8.87	-40.5	-43.8	13.4	1.75e-05	0	57	0	1250951168	51	5613
2026-01-05 23:15:25.34	174.74	8.55	-40.5	-43.9	13.2	2.74e-05	0	57	0	1259339776	51	5673
2026-01-05 23:15:29.38	174.95	8.23	-40.5	-44.1	12.7	9.68e-05	0	57	0	1266679808	51	5849
2026-01-05 23:15:33.42	175.15	7.92	-44.5	-58.9	3.8	1.28e+00	0	57	104	1272971264	59	20171
2026-01-05 23:15:37.46	175.35	7.61	-45.0	-59.8	3.8	1.49e+00	0	57	104	1272971264	60	21148
2026-01-05 23:15:41.50	175.55	7.31	-45.1	-59.9	3.8	1.49e+00	0	57	104	1272971264	60	21470
2026-01-05 23:15:45.55	175.74	7.01	-45.1	-59.9	3.8	1.49e+00	0	57	104	1272971264	60	21370
2026-01-05 23:15:49.59	175.93	6.71	-45.0	-59.8	3.8	1.49e+00	0	57	104	1272971264	60	21243
2026-01-05 23:15:53.64	176.11	6.41	-45.0	-59.9	3.8	1.49e+00	0	57	104	1272971264	60	21365
2026-01-05 23:15:57.68	176.29	6.12	-45.0	-59.9	3.8	1.49e+00	0	57	104	1272971264	60	21329
2026-01-05 23:16:01.72	176.47	5.83	-44.7	-59.8	3.8	1.49e+00	0	57	104	1272971264	60	21227
2026-01-05 23:16:05.76	176.64	5.54	-45.0	-59.8	3.8	1.49e+00	0	57	104	1272971264	60	21245
2026-01-05 23:16:09.81	176.82	5.26	-45.0	-59.9	3.8	1.49e+00	0	57	104	1272971264	60	21272
2026-01-05 23:16:13.85	176.98	4.98	-45.0	-59.8	3.8	1.49e+00	0	57	104	1272971264	60	21199
2026-01-05 23:16:17.90	177.15	4.70	-45.0	-59.8	3.8	1.49e+00	0	57	104	1272971264	60	21205
2026-01-05 23:16:21.94	177.31	4.43	-45.0	-59.8	3.8	1.49e+00	0	57	104	1272971264	60	21184
2026-01-05 23:16:25.99	177.47	4.15	-45.0	-59.8	3.8	1.49e+00	0	57	104	1272971264	60	21189
2026-01-05 23:16:30.03	177.63	3.88	-45.0	-59.8	3.8	1.49e+00	0	57	104	1272971264	60	21157
2026-01-05 23:16:34.07	177.78	3.62	-45.0	-59.8	3.8	1.49e+00	0	57	104	1272971264	60	21140
2026-01-05 23:16:38.12	177.93	3.35	-45.0	-59.8	3.8	1.49e+00	0	57	104	1272971264	60	21145
2026-01-05 23:16:42.16	178.08	3.09	-45.0	-59.8	3.8	1.49e+00	0	57	104	1272971264	60	21203
2026-01-05 23:16:46.21	178.23	2.83	-45.0	-59.8	3.8	1.49e+00	0	57	104	1272971264	60	21156
2026-01-05 23:16:50.25	178.37	2.57	-45.0	-59.8	3.8	1.49e+00	0	57	104	1272971264	60	21176
2026-01-05 23:16:54.29	178.52	2.31	-45.0	-59.8	3.8	1.49e+00	0	57	104	1272971264	60	21146
2026-01-05 23:16:58.34	178.66	2.06	-45.0	-59.8	3.8	1.49e+00	0	57	104	1272971264	60	21116

#Closed at: 2026-01-05 23:17:01
#Recorded file [1272 MB]: D:/lorett/data/31039_260106_020249.dat