passes_logs/2026/01/05/R2.0S_Moscow/R2.0S_Moscow__20260105_133501_FENGYUN_3D_rec.log

#Pass ID: 20260105_133501_FENGYUN 3D
#Satellite: FENGYUN 3D
#Configuration: FENGYUN 3D
#almurnet v.1.7.20251203
#Start time: 2026-01-05 13:35:01

#Version: 2.2.20231116
#Station: R2.0S_Moscow
#Location: 37.707566 lon 55.798166 lat
#TLE: 1 43010U 17072A   26004.99581904 -.00000126  00000+0 -37613-4 0  9996
#TLE: 2 43010  98.9917 336.6574 0001994 126.4096 233.7264 14.19691690421839

#Time	Az	El	Level	Level2	SNR	BER	BlckErr	Temp	State	Recorded	gain1	gain2
2026-01-05 13:35:01.01	210.33	1.98	-43.9	-55.5	3.8	8.47e-01	0	47	0	0	59	13667
2026-01-05 13:35:04.03	210.56	2.14	-43.8	-55.5	3.8	8.47e-01	0	47	104	0	59	13629
2026-01-05 13:35:07.06	210.79	2.30	-43.8	-55.5	3.8	8.47e-01	0	47	104	0	59	13637
2026-01-05 13:35:10.10	211.03	2.47	-43.8	-55.5	3.8	8.46e-01	0	47	104	0	59	13648
2026-01-05 13:35:13.13	211.27	2.63	-43.8	-55.5	3.8	8.47e-01	0	48	104	0	59	13673
2026-01-05 13:35:16.17	211.51	2.80	-43.8	-55.5	3.8	8.47e-01	0	48	104	0	59	13623
2026-01-05 13:35:19.20	211.76	2.96	-43.8	-55.5	3.8	8.46e-01	0	48	104	0	59	13622
2026-01-05 13:35:22.23	212.00	3.13	-43.8	-55.5	3.8	8.47e-01	0	48	104	0	59	13652
2026-01-05 13:35:25.27	212.25	3.30	-43.8	-55.5	3.8	8.46e-01	0	48	104	0	59	13619
2026-01-05 13:35:28.30	212.50	3.46	-43.8	-55.5	3.8	8.47e-01	0	49	104	0	59	13642
2026-01-05 13:35:31.33	212.76	3.63	-43.8	-55.5	3.8	8.47e-01	0	49	104	0	59	13651
2026-01-05 13:35:34.37	213.02	3.80	-43.8	-55.5	3.8	8.45e-01	0	49	104	0	59	13615
2026-01-05 13:35:37.40	213.28	3.97	-43.9	-55.5	3.8	8.47e-01	0	49	104	0	59	13642
2026-01-05 13:35:40.43	213.54	4.14	-43.9	-55.5	3.8	8.46e-01	0	50	104	0	59	13661
2026-01-05 13:35:43.47	213.81	4.31	-43.8	-55.5	3.8	8.45e-01	0	50	104	0	59	13635
2026-01-05 13:35:46.50	214.08	4.48	-43.8	-55.5	3.8	8.47e-01	0	50	104	0	59	13643
2026-01-05 13:35:49.53	214.35	4.65	-43.9	-55.5	3.8	8.47e-01	0	50	104	0	59	13660
2026-01-05 13:35:52.56	214.63	4.82	-43.8	-55.4	3.8	8.47e-01	0	50	104	0	59	13542
2026-01-05 13:35:55.60	214.91	5.00	-43.8	-55.3	3.8	8.46e-01	0	50	104	0	59	13383
2026-01-05 13:35:58.63	215.19	5.17	-43.8	-55.2	3.8	8.46e-01	0	50	104	0	59	13142
2026-01-05 13:36:01.66	215.47	5.34	-43.8	-55.1	3.8	8.45e-01	0	50	104	0	59	13022
2026-01-05 13:36:04.70	215.76	5.52	-43.8	-55.3	3.8	8.46e-01	0	51	104	0	59	13326
2026-01-05 13:36:07.73	216.05	5.69	-43.8	-55.5	3.8	8.45e-01	0	51	104	0	59	13599
2026-01-05 13:36:10.76	216.35	5.87	-43.8	-54.9	3.8	8.46e-01	0	51	104	0	59	12801
2026-01-05 13:36:13.80	216.65	6.04	-43.7	-54.1	3.8	8.46e-01	0	51	104	0	59	11669
2026-01-05 13:36:16.83	216.95	6.22	-43.5	-52.9	3.9	8.44e-01	0	51	104	0	59	10104
2026-01-05 13:36:19.86	217.26	6.40	-43.6	-53.5	3.8	8.45e-01	0	51	104	0	59	10786
2026-01-05 13:36:22.89	217.57	6.58	-43.7	-54.2	3.8	8.46e-01	0	51	104	0	59	11804
2026-01-05 13:36:25.93	217.88	6.75	-43.7	-54.1	3.8	8.46e-01	0	52	104	0	59	11610
2026-01-05 13:36:28.95	218.20	6.93	-43.7	-54.1	3.8	8.46e-01	0	52	104	0	59	11594
2026-01-05 13:36:31.98	218.52	7.11	-43.5	-52.4	4.1	8.42e-01	0	52	0	0	58	10122
2026-01-05 13:36:35.01	218.84	7.29	-42.5	-48.2	6.1	5.01e-01	0	52	0	2097152	57	6616
2026-01-05 13:36:38.05	219.17	7.47	-40.7	-44.2	9.9	1.47e-02	0	52	0	18874368	53	5222
2026-01-05 13:36:41.08	219.50	7.65	-38.9	-41.2	13.1	9.95e-05	0	52	0	35651584	49	4666
2026-01-05 13:36:44.11	219.84	7.83	-37.6	-39.6	14.7	0.00e+00	0	52	0	52428800	47	4343
2026-01-05 13:36:47.15	220.18	8.02	-37.2	-39.1	15.2	0.00e+00	0	52	0	70254592	46	4342
2026-01-05 13:36:50.18	220.52	8.20	-40.9	-44.7	9.4	4.03e-03	0	53	0	87031808	52	5877
2026-01-05 13:36:53.21	220.87	8.38	-36.9	-38.6	15.8	0.00e+00	0	53	0	101711872	45	4344
2026-01-05 13:36:56.24	221.22	8.56	-36.9	-38.6	15.9	0.00e+00	0	53	0	118489088	45	4345
2026-01-05 13:36:59.27	221.58	8.75	-36.8	-38.5	16.0	0.00e+00	0	53	0	135266304	45	4297
2026-01-05 13:37:02.30	221.94	8.93	-36.6	-38.2	16.3	0.00e+00	0	53	0	153092096	45	4164
2026-01-05 13:37:05.33	222.31	9.11	-36.5	-38.1	16.4	0.00e+00	0	53	0	169869312	45	4124
2026-01-05 13:37:08.37	222.68	9.30	-36.5	-38.1	16.5	0.00e+00	0	53	0	186646528	44	4352
2026-01-05 13:37:11.40	223.05	9.48	-36.5	-38.0	16.5	0.00e+00	0	53	0	203423744	44	4329
2026-01-05 13:37:14.43	223.43	9.67	-36.6	-38.2	16.4	0.00e+00	0	53	0	221249536	44	4395
2026-01-05 13:37:17.46	223.82	9.85	-36.5	-38.0	16.6	0.00e+00	0	53	0	238026752	44	4328
2026-01-05 13:37:20.49	224.21	10.04	-36.6	-38.2	16.5	0.00e+00	0	53	0	254803968	44	4397
2026-01-05 13:37:23.52	224.60	10.22	-36.4	-37.9	16.7	0.00e+00	0	54	0	272629760	44	4273
2026-01-05 13:37:26.55	225.00	10.41	-36.1	-37.6	17.0	0.00e+00	0	53	0	289406976	44	4130
2026-01-05 13:37:29.59	225.40	10.59	-36.0	-37.5	17.2	0.00e+00	0	54	0	306184192	44	4055
2026-01-05 13:37:32.62	225.81	10.78	-36.2	-37.6	17.0	0.00e+00	0	54	0	322961408	44	4143
2026-01-05 13:37:35.65	226.23	10.97	-36.3	-37.8	16.8	0.00e+00	0	54	0	340787200	44	4238
2026-01-05 13:37:38.68	226.64	11.15	-36.3	-37.8	16.9	0.00e+00	0	54	0	357564416	44	4230
2026-01-05 13:37:41.71	227.07	11.34	-36.2	-37.6	17.0	0.00e+00	0	54	0	374341632	44	4140
2026-01-05 13:37:44.75	227.50	11.53	-36.1	-37.6	17.1	0.00e+00	0	54	0	391118848	44	4102
2026-01-05 13:37:47.77	227.93	11.71	-36.1	-37.5	17.2	0.00e+00	0	54	0	408944640	44	4083
2026-01-05 13:37:50.80	228.37	11.90	-35.8	-37.2	17.4	0.00e+00	0	54	0	425721856	43	4172
2026-01-05 13:37:53.83	228.82	12.08	-35.8	-37.3	17.3	0.00e+00	0	54	0	442499072	43	4196
2026-01-05 13:37:56.86	229.27	12.27	-35.8	-37.2	17.4	0.00e+00	0	54	0	459276288	43	4182
2026-01-05 13:37:59.89	229.72	12.46	-35.7	-37.2	17.4	0.00e+00	0	54	0	477102080	43	4152
2026-01-05 13:38:02.92	230.18	12.64	-35.5	-36.9	17.7	0.00e+00	0	54	0	493879296	43	4031
2026-01-05 13:38:05.95	230.65	12.83	-35.5	-36.8	17.8	0.00e+00	0	54	0	510656512	42	4238
2026-01-05 13:38:08.98	231.13	13.01	-35.6	-37.0	17.7	0.00e+00	0	54	0	527433728	42	4300
2026-01-05 13:38:12.01	231.60	13.20	-35.6	-36.9	17.7	0.00e+00	0	54	0	545259520	42	4285
2026-01-05 13:38:15.04	232.09	13.38	-35.3	-36.7	18.0	0.00e+00	0	54	0	562036736	42	4161
2026-01-05 13:38:18.07	232.58	13.56	-35.4	-36.8	17.9	0.00e+00	0	54	0	578813952	42	4196
2026-01-05 13:38:21.10	233.08	13.75	-35.5	-36.9	17.8	0.00e+00	0	54	0	595591168	42	4268
2026-01-05 13:38:24.13	233.58	13.93	-35.5	-36.9	17.8	0.00e+00	0	54	0	613416960	42	4259
2026-01-05 13:38:27.16	234.09	14.11	-35.6	-37.0	17.7	0.00e+00	0	54	0	630194176	42	4305
2026-01-05 13:38:30.19	234.60	14.29	-35.4	-36.8	17.9	0.00e+00	0	54	0	646971392	42	4219
2026-01-05 13:38:33.22	235.12	14.47	-35.2	-36.5	18.2	0.00e+00	0	55	0	663748608	42	4072
2026-01-05 13:38:36.25	235.65	14.65	-35.2	-36.5	18.2	0.00e+00	0	55	0	681574400	42	4098
2026-01-05 13:38:39.28	236.18	14.83	-35.4	-36.7	18.0	0.00e+00	0	55	0	698351616	42	4185
2026-01-05 13:38:42.31	236.72	15.01	-35.2	-36.4	18.2	0.00e+00	0	55	0	715128832	42	4049
2026-01-05 13:38:45.34	237.27	15.18	-35.1	-36.4	18.3	0.00e+00	0	55	0	731906048	42	4049
2026-01-05 13:38:48.37	237.82	15.36	-35.1	-36.4	18.4	0.00e+00	0	55	0	749731840	42	4011
2026-01-05 13:38:51.41	238.38	15.53	-34.9	-36.1	18.6	0.00e+00	0	55	0	766509056	41	4131
2026-01-05 13:38:54.44	238.95	15.70	-34.9	-36.2	18.5	0.00e+00	0	55	0	783286272	41	4168
2026-01-05 13:38:57.46	239.51	15.87	-34.9	-36.2	18.6	0.00e+00	0	55	0	801112064	41	4149
2026-01-05 13:39:00.50	240.09	16.04	-34.8	-36.1	18.6	0.00e+00	0	55	0	817889280	41	4118
2026-01-05 13:39:03.53	240.68	16.21	-34.8	-36.1	18.7	0.00e+00	0	55	0	834666496	41	4105
2026-01-05 13:39:06.56	241.27	16.38	-34.7	-35.9	18.8	0.00e+00	0	55	0	851443712	41	4048
2026-01-05 13:39:09.59	241.86	16.54	-34.6	-35.8	18.9	0.00e+00	0	55	0	868220928	41	3979
2026-01-05 13:39:12.62	242.47	16.70	-34.5	-35.8	19.0	0.00e+00	0	55	0	886046720	41	3965
2026-01-05 13:39:15.65	243.07	16.86	-34.7	-36.0	18.8	0.00e+00	0	55	0	902823936	41	4054
2026-01-05 13:39:18.68	243.69	17.02	-34.7	-35.9	18.8	0.00e+00	0	55	0	919601152	41	4048
2026-01-05 13:39:21.71	244.31	17.18	-34.6	-35.9	18.9	0.00e+00	0	55	0	937426944	41	4014
2026-01-05 13:39:24.74	244.94	17.33	-34.6	-35.8	19.0	0.00e+00	0	55	0	954204160	41	3978
2026-01-05 13:39:27.77	245.57	17.48	-34.6	-35.9	18.9	0.00e+00	0	55	0	970981376	41	4017
2026-01-05 13:39:30.80	246.21	17.63	-34.5	-35.8	19.0	0.00e+00	0	55	0	987758592	41	3972
2026-01-05 13:39:33.83	246.86	17.78	-34.5	-35.7	19.0	0.00e+00	0	55	0	1005584384	40	4175
2026-01-05 13:39:36.86	247.51	17.92	-34.4	-35.6	19.2	0.00e+00	0	55	0	1022361600	40	4119
2026-01-05 13:39:39.89	248.17	18.06	-34.4	-35.7	19.1	0.00e+00	0	55	0	1039138816	40	4153
2026-01-05 13:39:42.92	248.83	18.20	-34.4	-35.6	19.2	0.00e+00	0	55	0	1055916032	40	4110
2026-01-05 13:39:45.96	249.50	18.34	-34.2	-35.4	19.4	0.00e+00	0	55	0	1073741824	40	4008
2026-01-05 13:39:48.99	250.18	18.47	-34.2	-35.4	19.4	0.00e+00	0	55	0	1090519040	40	4010
2026-01-05 13:39:52.02	250.86	18.60	-34.4	-35.6	19.2	0.00e+00	0	56	0	1107296256	40	4117
2026-01-05 13:39:55.05	251.55	18.72	-34.4	-35.6	19.2	0.00e+00	0	55	0	1124073472	40	4115
2026-01-05 13:39:58.08	252.24	18.84	-34.1	-35.3	19.5	0.00e+00	0	55	0	1141899264	40	3968
2026-01-05 13:40:01.11	252.94	18.96	-34.4	-35.6	19.2	0.00e+00	0	55	0	1158676480	40	4106
2026-01-05 13:40:04.14	253.64	19.08	-34.2	-35.4	19.4	0.00e+00	0	56	0	1175453696	40	4023
2026-01-05 13:40:07.17	254.35	19.19	-34.2	-35.4	19.4	0.00e+00	0	56	0	1192230912	40	4016
2026-01-05 13:40:10.20	255.06	19.30	-34.1	-35.3	19.5	0.00e+00	0	55	0	1210056704	40	3977
2026-01-05 13:40:13.24	255.78	19.40	-34.0	-35.2	19.6	0.00e+00	0	55	0	1226833920	40	3941
2026-01-05 13:40:16.27	256.50	19.50	-34.2	-35.3	19.5	0.00e+00	0	55	0	1243611136	39	4232
2026-01-05 13:40:19.30	257.23	19.59	-34.1	-35.2	19.6	0.00e+00	0	55	0	1260388352	39	4180
2026-01-05 13:40:22.33	257.96	19.68	-33.9	-35.0	19.8	0.00e+00	0	56	0	1278214144	39	4082
2026-01-05 13:40:25.36	258.70	19.77	-33.9	-35.1	19.8	0.00e+00	0	56	0	1294991360	39	4121
2026-01-05 13:40:28.39	259.43	19.85	-33.9	-35.0	19.8	0.00e+00	0	56	0	1311768576	39	4077
2026-01-05 13:40:31.42	260.18	19.93	-34.1	-35.3	19.6	0.00e+00	0	55	0	1329594368	39	4211
2026-01-05 13:40:34.45	260.92	20.00	-34.1	-35.2	19.6	0.00e+00	0	56	0	1346371584	39	4189
2026-01-05 13:40:37.49	261.68	20.07	-34.0	-35.2	19.7	0.00e+00	0	56	0	1363148800	39	4172
2026-01-05 13:40:40.52	262.43	20.14	-33.9	-35.1	19.8	0.00e+00	0	56	0	1379926016	39	4118
2026-01-05 13:40:43.55	263.18	20.19	-34.1	-35.3	19.6	0.00e+00	0	56	0	1397751808	39	4195
2026-01-05 13:40:46.57	263.94	20.25	-34.1	-35.2	19.6	0.00e+00	0	56	0	1414529024	39	4185
2026-01-05 13:40:49.60	264.70	20.30	-33.9	-35.1	19.7	0.00e+00	0	55	0	1431306240	39	4127
2026-01-05 13:40:52.63	265.46	20.34	-33.9	-35.1	19.8	0.00e+00	0	56	0	1448083456	39	4115
2026-01-05 13:40:55.66	266.23	20.38	-34.0	-35.2	19.7	0.00e+00	0	56	0	1465909248	39	4189
2026-01-05 13:40:58.69	266.99	20.42	-33.9	-35.0	19.9	0.00e+00	0	56	0	1482686464	39	4075
2026-01-05 13:41:01.72	267.76	20.45	-33.9	-35.1	19.8	0.00e+00	0	56	0	1499463680	39	4126
2026-01-05 13:41:04.75	268.53	20.47	-33.8	-34.9	19.9	0.00e+00	0	56	0	1516240896	39	4051
2026-01-05 13:41:07.78	269.30	20.49	-33.9	-35.1	19.8	0.00e+00	0	56	0	1534066688	39	4105
2026-01-05 13:41:10.81	270.07	20.50	-33.8	-35.0	19.9	0.00e+00	0	56	0	1550843904	39	4062
2026-01-05 13:41:13.84	270.85	20.51	-33.9	-35.1	19.8	0.00e+00	0	56	0	1567621120	39	4125
2026-01-05 13:41:16.86	271.62	20.52	-34.0	-35.1	19.7	0.00e+00	0	56	0	1584398336	39	4134
2026-01-05 13:41:19.89	272.39	20.51	-34.0	-35.1	19.7	0.00e+00	0	56	0	1601175552	39	4138
2026-01-05 13:41:22.93	273.16	20.51	-33.9	-35.1	19.7	0.00e+00	0	56	0	1619001344	39	4119
2026-01-05 13:41:25.96	273.93	20.49	-33.9	-35.0	19.8	0.00e+00	0	56	0	1635778560	39	4097
2026-01-05 13:41:28.98	274.70	20.48	-33.9	-35.1	19.8	0.00e+00	0	56	0	1652555776	39	4099
2026-01-05 13:41:32.01	275.47	20.46	-33.9	-35.1	19.8	0.00e+00	0	56	0	1670381568	39	4118
2026-01-05 13:41:35.04	276.24	20.43	-34.0	-35.1	19.7	0.00e+00	0	56	0	1687158784	39	4136
2026-01-05 13:41:38.07	277.00	20.40	-34.1	-35.3	19.6	0.00e+00	0	56	0	1703936000	39	4214
2026-01-05 13:41:41.10	277.77	20.36	-34.1	-35.3	19.6	0.00e+00	0	56	0	1720713216	39	4224
2026-01-05 13:41:44.13	278.53	20.32	-33.9	-35.0	19.8	0.00e+00	0	56	0	1738539008	39	4082
2026-01-05 13:41:47.15	279.29	20.27	-33.7	-34.8	20.0	0.00e+00	0	56	0	1755316224	39	3979
2026-01-05 13:41:50.19	280.05	20.22	-33.8	-35.0	19.8	0.00e+00	0	56	0	1772093440	39	4066
2026-01-05 13:41:53.21	280.80	20.16	-34.2	-35.4	19.5	0.00e+00	0	56	0	1788870656	39	4263
2026-01-05 13:41:56.24	281.56	20.10	-34.2	-35.4	19.5	0.00e+00	0	56	0	1805647872	39	4258
2026-01-05 13:41:59.27	282.31	20.03	-34.5	-35.7	19.2	0.00e+00	0	56	0	1823473664	39	4416
2026-01-05 13:42:02.30	283.05	19.96	-34.5	-35.7	19.2	0.00e+00	0	56	0	1840250880	39	4411
2026-01-05 13:42:05.33	283.79	19.89	-34.3	-35.5	19.3	0.00e+00	0	56	0	1857028096	39	4333
2026-01-05 13:42:08.36	284.53	19.81	-34.3	-35.5	19.4	0.00e+00	0	56	0	1874853888	39	4301
2026-01-05 13:42:11.39	285.27	19.72	-34.4	-35.6	19.2	0.00e+00	0	56	0	1891631104	39	4384
2026-01-05 13:42:14.42	286.00	19.63	-34.3	-35.6	19.3	0.00e+00	0	56	0	1908408320	39	4344
2026-01-05 13:42:17.44	286.72	19.54	-34.2	-35.4	19.4	0.00e+00	0	56	0	1925185536	39	4262
2026-01-05 13:42:20.47	287.45	19.44	-34.2	-35.4	19.4	0.00e+00	0	56	0	1943011328	39	4283
2026-01-05 13:42:23.50	288.16	19.34	-34.3	-35.5	19.3	0.00e+00	0	56	0	1959788544	39	4316
2026-01-05 13:42:26.54	288.88	19.24	-34.2	-35.4	19.4	0.00e+00	0	56	0	1976565760	39	4259
2026-01-05 13:42:29.57	289.59	19.13	-34.3	-35.5	19.3	0.00e+00	0	56	0	1993342976	39	4336
2026-01-05 13:42:32.60	290.29	19.02	-34.4	-35.7	19.2	0.00e+00	0	56	0	2010120192	39	4393
2026-01-05 13:42:35.62	290.98	18.90	-34.5	-35.8	19.1	0.00e+00	0	56	0	2027945984	39	4448
2026-01-05 13:42:38.65	291.68	18.78	-34.6	-35.9	19.0	0.00e+00	0	56	0	2044723200	39	4498
2026-01-05 13:42:41.68	292.36	18.66	-34.5	-35.8	19.0	0.00e+00	0	56	0	2061500416	39	4446
2026-01-05 13:42:44.71	293.04	18.53	-34.7	-35.9	18.8	0.00e+00	0	56	0	2079326208	40	4270
2026-01-05 13:42:47.74	293.72	18.40	-34.7	-36.0	18.8	0.00e+00	0	56	0	2096103424	40	4296
2026-01-05 13:42:50.77	294.39	18.27	-34.7	-35.9	18.8	0.00e+00	0	56	0	2112880640	40	4291
2026-01-05 13:42:53.80	295.05	18.13	-34.8	-36.1	18.6	0.00e+00	0	56	0	2129657856	40	4370
2026-01-05 13:42:56.83	295.71	17.99	-34.8	-36.1	18.7	0.00e+00	0	56	0	2147483648	40	4348
2026-01-05 13:42:59.86	296.36	17.85	-34.8	-36.1	18.6	0.00e+00	0	56	0	2164260864	40	4358
2026-01-05 13:43:02.89	297.01	17.71	-34.8	-36.1	18.6	0.00e+00	0	56	0	2181038080	40	4361
2026-01-05 13:43:05.92	297.65	17.56	-34.8	-36.1	18.6	0.00e+00	0	56	0	2197815296	40	4368
2026-01-05 13:43:08.95	298.28	17.41	-34.8	-36.0	18.7	0.00e+00	0	56	0	2215641088	40	4325
2026-01-05 13:43:11.98	298.91	17.26	-34.9	-36.1	18.6	0.00e+00	0	56	0	2232418304	40	4379
2026-01-05 13:43:15.01	299.53	17.11	-34.9	-36.2	18.5	0.00e+00	0	56	0	2249195520	40	4431
2026-01-05 13:43:18.05	300.15	16.95	-34.8	-36.1	18.5	0.00e+00	0	57	0	2265972736	40	4383
2026-01-05 13:43:21.08	300.76	16.79	-34.8	-36.0	18.6	0.00e+00	0	56	0	2283798528	40	4336
2026-01-05 13:43:24.11	301.36	16.63	-34.8	-36.1	18.6	0.00e+00	0	56	0	2300575744	40	4357
2026-01-05 13:43:27.14	301.96	16.47	-35.1	-36.5	18.2	0.00e+00	0	56	0	2317352960	40	4561
2026-01-05 13:43:30.17	302.55	16.31	-35.3	-36.7	18.0	0.00e+00	0	56	0	2334130176	41	4393
2026-01-05 13:43:33.20	303.13	16.14	-35.3	-36.6	18.1	0.00e+00	0	56	0	2351955968	41	4371
2026-01-05 13:43:36.23	303.71	15.97	-35.2	-36.5	18.2	0.00e+00	0	57	0	2368733184	41	4305
2026-01-05 13:43:39.25	304.28	15.81	-35.2	-36.5	18.2	0.00e+00	0	56	0	2385510400	41	4314
2026-01-05 13:43:42.28	304.85	15.64	-35.1	-36.5	18.2	0.00e+00	0	56	0	2402287616	41	4299
2026-01-05 13:43:45.32	305.41	15.46	-35.2	-36.5	18.1	0.00e+00	0	56	0	2420113408	41	4325
2026-01-05 13:43:48.35	305.96	15.29	-35.4	-36.7	17.9	0.00e+00	0	56	0	2436890624	41	4422
2026-01-05 13:43:51.38	306.51	15.12	-35.5	-36.9	17.7	0.00e+00	0	56	0	2453667840	41	4531
2026-01-05 13:43:54.41	307.05	14.94	-35.6	-37.0	17.6	0.00e+00	0	56	0	2471493632	41	4573
2026-01-05 13:43:57.44	307.58	14.77	-35.8	-37.2	17.4	0.00e+00	0	56	0	2488270848	42	4418
2026-01-05 13:44:00.47	308.11	14.59	-36.0	-37.5	17.2	0.00e+00	0	56	0	2505048064	42	4548
2026-01-05 13:44:03.50	308.63	14.41	-35.8	-37.3	17.4	0.00e+00	0	56	0	2521825280	42	4445
2026-01-05 13:44:06.53	309.14	14.23	-35.5	-36.9	17.7	0.00e+00	0	56	0	2538602496	42	4263
2026-01-05 13:44:09.56	309.65	14.05	-35.5	-36.8	17.8	0.00e+00	0	56	0	2556428288	42	4235
2026-01-05 13:44:12.59	310.16	13.87	-35.6	-37.0	17.6	0.00e+00	0	56	0	2573205504	42	4305
2026-01-05 13:44:15.61	310.65	13.69	-35.6	-37.0	17.6	0.00e+00	0	56	0	2589982720	42	4308
2026-01-05 13:44:18.64	311.15	13.51	-35.6	-37.0	17.6	0.00e+00	0	56	0	2606759936	42	4310
2026-01-05 13:44:21.68	311.63	13.33	-35.7	-37.1	17.5	0.00e+00	0	56	0	2624585728	42	4358
2026-01-05 13:44:24.71	312.11	13.14	-35.9	-37.3	17.2	0.00e+00	0	56	0	2641362944	42	4478
2026-01-05 13:44:27.74	312.59	12.96	-36.0	-37.5	17.0	0.00e+00	0	57	0	2658140160	42	4588
2026-01-05 13:44:30.77	313.06	12.78	-36.1	-37.6	16.9	0.00e+00	0	56	0	2675965952	42	4637
2026-01-05 13:44:33.79	313.52	12.60	-36.1	-37.6	16.9	0.00e+00	0	56	0	2692743168	42	4646
2026-01-05 13:44:36.82	313.97	12.41	-36.1	-37.6	16.9	0.00e+00	0	56	0	2709520384	42	4650
2026-01-05 13:44:39.86	314.43	12.23	-36.1	-37.6	16.9	0.00e+00	0	56	0	2726297600	42	4642
2026-01-05 13:44:42.89	314.87	12.04	-36.2	-37.7	16.8	0.00e+00	0	56	0	2743074816	42	4681
2026-01-05 13:44:45.92	315.32	11.86	-36.1	-37.7	16.8	0.00e+00	0	56	0	2760900608	42	4653
2026-01-05 13:44:48.95	315.75	11.67	-36.1	-37.6	16.8	0.00e+00	0	56	0	2777677824	42	4650
2026-01-05 13:44:51.98	316.18	11.49	-36.1	-37.6	16.8	0.00e+00	0	56	0	2794455040	42	4633
2026-01-05 13:44:55.01	316.61	11.31	-36.2	-37.7	16.7	0.00e+00	0	57	0	2812280832	42	4696
2026-01-05 13:44:58.04	317.03	11.12	-36.3	-37.8	16.6	0.00e+00	0	56	0	2829058048	43	4485
2026-01-05 13:45:01.07	317.44	10.94	-36.2	-37.8	16.6	0.00e+00	0	57	0	2845835264	43	4446
2026-01-05 13:45:04.10	317.85	10.75	-36.3	-37.8	16.6	0.00e+00	0	57	0	2862612480	43	4481
2026-01-05 13:45:07.13	318.26	10.57	-36.6	-38.2	16.2	0.00e+00	0	56	0	2879389696	43	4654
2026-01-05 13:45:10.16	318.66	10.38	-37.1	-38.8	15.7	0.00e+00	0	56	0	2897215488	44	4729
2026-01-05 13:45:13.19	319.05	10.20	-37.0	-38.7	15.7	0.00e+00	0	56	0	2913992704	45	4440
2026-01-05 13:45:16.22	319.44	10.02	-37.1	-38.8	15.7	0.00e+00	0	56	0	2930769920	45	4449
2026-01-05 13:45:19.25	319.83	9.83	-36.9	-38.6	15.8	0.00e+00	0	57	0	2948595712	45	4373
2026-01-05 13:45:22.28	320.21	9.65	-36.9	-38.6	15.9	0.00e+00	0	56	0	2965372928	45	4346
2026-01-05 13:45:25.31	320.59	9.47	-37.0	-38.7	15.7	0.00e+00	0	57	0	2982150144	45	4429
2026-01-05 13:45:28.34	320.96	9.29	-37.2	-39.0	15.4	0.00e+00	0	56	0	2998927360	45	4564
2026-01-05 13:45:31.37	321.33	9.10	-37.3	-39.1	15.2	0.00e+00	0	56	0	3016753152	45	4640
2026-01-05 13:45:34.39	321.69	8.92	-37.3	-39.0	15.3	0.00e+00	0	56	0	3033530368	45	4590
2026-01-05 13:45:37.42	322.05	8.74	-37.3	-39.1	15.2	0.00e+00	0	56	0	3050307584	45	4641
2026-01-05 13:45:40.45	322.40	8.56	-37.4	-39.2	15.1	0.00e+00	0	57	0	3067084800	45	4658
2026-01-05 13:45:43.48	322.75	8.38	-37.2	-39.0	15.3	0.00e+00	0	57	0	3083862016	45	4560
2026-01-05 13:45:46.51	323.10	8.20	-37.4	-39.2	15.0	0.00e+00	0	56	0	3101687808	45	4702
2026-01-05 13:45:49.54	323.44	8.02	-40.4	-43.0	12.1	0.00e+00	0	56	0	3118465024	50	5435
2026-01-05 13:45:52.57	323.78	7.84	-44.7	-56.5	3.8	8.46e-01	0	56	104	3118465024	60	14445
2026-01-05 13:45:55.61	324.12	7.66	-45.0	-56.8	3.8	8.48e-01	0	57	104	3118465024	60	14996
2026-01-05 13:45:58.64	324.45	7.48	-44.9	-56.8	3.8	8.46e-01	0	57	104	3118465024	60	15038
2026-01-05 13:46:01.67	324.77	7.30	-45.0	-56.8	3.8	8.45e-01	0	56	104	3118465024	60	15000
2026-01-05 13:46:04.70	325.10	7.13	-44.9	-56.8	3.8	8.45e-01	0	56	104	3118465024	60	14993
2026-01-05 13:46:07.73	325.41	6.95	-44.9	-56.8	3.8	8.46e-01	0	57	104	3118465024	60	14989
2026-01-05 13:46:10.76	325.73	6.77	-44.9	-56.8	3.8	8.46e-01	0	57	104	3118465024	60	14910
2026-01-05 13:46:13.79	326.04	6.60	-44.9	-56.8	3.8	8.46e-01	0	56	104	3118465024	60	14901
2026-01-05 13:46:16.83	326.35	6.42	-44.9	-56.7	3.8	8.47e-01	0	57	104	3118465024	60	14869
2026-01-05 13:46:19.86	326.66	6.25	-44.9	-56.8	3.8	8.46e-01	0	57	104	3118465024	60	14937
2026-01-05 13:46:22.89	326.96	6.07	-44.9	-56.8	3.8	8.46e-01	0	57	104	3118465024	60	14885
2026-01-05 13:46:25.92	327.25	5.90	-44.9	-56.8	3.8	8.46e-01	0	57	104	3118465024	60	14924
2026-01-05 13:46:28.96	327.55	5.72	-44.9	-56.8	3.8	8.47e-01	0	57	104	3118465024	60	14934
2026-01-05 13:46:31.99	327.84	5.55	-44.9	-56.8	3.8	8.46e-01	0	57	104	3118465024	60	14902
2026-01-05 13:46:35.02	328.13	5.38	-44.9	-56.7	3.8	8.46e-01	0	56	104	3118465024	60	14843
2026-01-05 13:46:38.06	328.41	5.21	-44.9	-56.7	3.8	8.46e-01	0	57	104	3118465024	60	14872
2026-01-05 13:46:41.09	328.70	5.04	-44.9	-56.7	3.8	8.47e-01	0	57	104	3118465024	60	14863
2026-01-05 13:46:44.12	328.97	4.87	-44.9	-56.8	3.8	8.46e-01	0	57	104	3118465024	60	14924
2026-01-05 13:46:47.16	329.25	4.69	-44.9	-56.7	3.8	8.47e-01	0	57	104	3118465024	60	14857
2026-01-05 13:46:50.19	329.52	4.53	-44.9	-56.7	3.8	8.46e-01	0	57	104	3118465024	60	14836
2026-01-05 13:46:53.22	329.79	4.36	-44.9	-56.7	3.8	8.46e-01	0	57	104	3118465024	60	14879
2026-01-05 13:46:56.25	330.06	4.19	-44.9	-56.7	3.8	8.47e-01	0	57	104	3118465024	60	14856
2026-01-05 13:46:59.29	330.32	4.02	-44.9	-56.7	3.8	8.46e-01	0	57	104	3118465024	60	14836
2026-01-05 13:47:02.32	330.58	3.85	-44.9	-56.7	3.8	8.46e-01	0	57	104	3118465024	60	14828
2026-01-05 13:47:05.35	330.84	3.69	-44.9	-56.7	3.8	8.47e-01	0	57	104	3118465024	60	14869
2026-01-05 13:47:08.39	331.10	3.52	-44.9	-56.7	3.8	8.45e-01	0	57	104	3118465024	60	14865
2026-01-05 13:47:11.42	331.35	3.35	-44.8	-56.7	3.8	8.46e-01	0	57	104	3118465024	60	14823
2026-01-05 13:47:14.45	331.60	3.19	-44.9	-56.7	3.8	8.47e-01	0	57	104	3118465024	60	14812
2026-01-05 13:47:17.49	331.85	3.03	-44.9	-56.7	3.8	8.46e-01	0	57	104	3118465024	60	14833
2026-01-05 13:47:20.52	332.09	2.86	-44.9	-56.7	3.8	8.47e-01	0	57	104	3118465024	60	14845
2026-01-05 13:47:23.55	332.33	2.70	-44.9	-56.7	3.8	8.47e-01	0	57	104	3118465024	60	14827
2026-01-05 13:47:26.58	332.57	2.54	-44.9	-56.7	3.8	8.46e-01	0	57	104	3118465024	60	14856
2026-01-05 13:47:29.62	332.81	2.37	-44.9	-56.7	3.8	8.47e-01	0	57	104	3118465024	60	14830
2026-01-05 13:47:32.65	333.05	2.21	-44.9	-56.7	3.8	8.45e-01	0	57	104	3118465024	60	14787
2026-01-05 13:47:35.68	333.28	2.05	-44.9	-56.7	3.8	8.47e-01	0	57	104	3118465024	60	14851
2026-01-05 13:47:38.72	333.51	1.89	-44.9	-56.7	3.8	8.48e-01	0	57	104	3118465024	60	14807

#Closed at: 2026-01-05 13:47:38
#Recorded file [3118 MB]: D:/lorett/data/31039_260105_163500.dat