passes_logs/2026/01/05/R2.0S_Moscow/R2.0S_Moscow__20260105_102935_AQUA_rec.log

#Pass ID: 20260105_102935_AQUA
#Satellite: AQUA
#Configuration: AQUA
#almurnet v.1.7.20251203
#Start time: 2026-01-05 10:37:28

#Version: 2.2.20231116
#Station: R2.0S_Moscow
#Location: 37.707566 lon 55.798166 lat
#TLE: 1 27424U 02022A   26003.93831470  .00001925  00000+0  39553-3 0  9995
#TLE: 2 27424  98.4067 330.1809 0002003  92.1713 343.8415 14.61796291259276

#Time	Az	El	Level	Level2	SNR	BER	BlckErr	Temp	State	Recorded	gain1	gain2
2026-01-05 10:37:28.01	19.10	20.76	-45.0	-57.6	3.8	1.49e+00	0	57	0	0	60	16330
2026-01-05 10:37:29.03	18.86	20.67	-46.3	-65.1	3.8	7.46e-01	0	57	104	0	63	32771
2026-01-05 10:37:30.04	18.63	20.57	-46.3	-65.1	3.8	7.41e-01	0	57	104	0	63	32668
2026-01-05 10:37:31.05	18.40	20.47	-46.2	-65.0	3.8	7.46e-01	0	57	104	0	63	32343
2026-01-05 10:37:32.06	18.17	20.37	-46.1	-64.9	3.8	7.45e-01	0	57	104	0	63	32038
2026-01-05 10:37:33.07	17.94	20.28	-46.0	-64.8	3.8	7.48e-01	0	57	104	0	63	31508
2026-01-05 10:37:34.08	17.71	20.18	-45.0	-60.7	3.8	7.47e-01	0	57	104	0	61	22130
2026-01-05 10:37:35.09	17.49	20.08	-45.7	-64.5	3.8	7.50e-01	0	57	104	0	62	32278
2026-01-05 10:37:36.10	17.27	19.99	-45.4	-64.3	3.8	7.42e-01	0	57	104	0	62	31584
2026-01-05 10:37:37.12	17.04	19.89	-45.2	-64.1	3.8	7.47e-01	0	57	104	0	62	30878
2026-01-05 10:37:38.13	16.82	19.79	-45.3	-64.1	3.8	7.45e-01	0	57	104	0	62	30842
2026-01-05 10:37:39.14	16.60	19.69	-45.3	-64.1	3.8	7.44e-01	0	57	104	0	62	30833
2026-01-05 10:37:40.15	16.39	19.60	-45.3	-64.1	3.8	7.45e-01	0	57	104	0	62	30866
2026-01-05 10:37:41.16	16.17	19.50	-45.2	-64.1	3.8	7.44e-01	0	57	104	0	62	30869
2026-01-05 10:37:42.17	15.96	19.40	-45.2	-64.1	3.8	7.44e-01	0	57	104	0	62	30883
2026-01-05 10:37:43.18	15.74	19.31	-45.2	-64.1	3.8	7.44e-01	0	57	104	0	62	30903
2026-01-05 10:37:44.19	15.53	19.21	-45.2	-64.1	3.8	7.46e-01	0	57	104	0	62	30925
2026-01-05 10:37:45.21	15.32	19.11	-45.2	-64.1	3.8	7.49e-01	0	57	104	0	62	30875
2026-01-05 10:37:46.22	15.11	19.01	-45.2	-64.1	3.8	7.49e-01	0	57	104	0	62	30910
2026-01-05 10:37:47.23	14.90	18.92	-45.2	-64.1	3.8	7.44e-01	0	57	104	0	62	30871
2026-01-05 10:37:48.24	14.70	18.82	-45.2	-64.1	3.8	7.44e-01	0	57	104	0	62	30871
2026-01-05 10:37:49.25	14.49	18.72	-45.2	-64.1	3.8	7.42e-01	0	57	104	0	62	30862
2026-01-05 10:37:50.26	14.29	18.63	-45.2	-64.1	3.8	7.46e-01	0	57	104	0	62	30777
2026-01-05 10:37:51.27	14.09	18.53	-45.2	-64.1	3.8	7.48e-01	0	57	104	0	62	30811
2026-01-05 10:37:52.28	13.89	18.43	-45.2	-64.0	3.8	7.46e-01	0	57	104	0	62	30670
2026-01-05 10:37:53.29	13.69	18.34	-45.2	-64.0	3.8	7.43e-01	0	57	104	0	62	30705
2026-01-05 10:37:54.30	13.49	18.24	-45.2	-64.0	3.8	7.43e-01	0	57	104	0	62	30644
2026-01-05 10:37:55.31	13.30	18.14	-45.2	-64.0	3.8	7.48e-01	0	57	104	0	62	30630
2026-01-05 10:37:56.32	13.10	18.05	-45.2	-64.1	3.8	7.44e-01	0	56	104	0	62	30773
2026-01-05 10:37:57.33	12.91	17.95	-45.2	-64.1	3.8	7.48e-01	0	57	104	0	62	30818
2026-01-05 10:37:58.34	12.72	17.85	-45.2	-64.1	3.8	7.48e-01	0	57	104	0	62	30851
2026-01-05 10:37:59.36	12.52	17.76	-45.2	-64.1	3.8	7.44e-01	0	56	104	0	62	30827
2026-01-05 10:38:00.37	12.34	17.66	-45.2	-64.0	3.8	7.46e-01	0	57	104	0	62	30679
2026-01-05 10:38:01.38	12.15	17.57	-45.2	-63.9	3.8	7.45e-01	0	57	104	0	62	30334
2026-01-05 10:38:02.39	11.96	17.47	-45.2	-63.8	3.8	7.42e-01	0	57	104	0	62	29863
2026-01-05 10:38:03.40	11.77	17.37	-45.1	-63.6	3.8	7.45e-01	0	57	104	0	62	29311
2026-01-05 10:38:04.41	11.59	17.28	-45.1	-63.5	3.8	7.45e-01	0	57	104	0	62	28846
2026-01-05 10:38:05.42	11.41	17.18	-45.1	-63.4	3.8	7.42e-01	0	57	104	0	62	28660
2026-01-05 10:38:06.43	11.23	17.09	-45.1	-63.5	3.8	7.42e-01	0	57	104	0	62	28750
2026-01-05 10:38:07.44	11.04	16.99	-45.2	-63.6	3.8	7.46e-01	0	57	104	0	62	29208
2026-01-05 10:38:08.45	10.87	16.90	-45.2	-63.7	3.8	7.48e-01	0	57	104	0	62	29499
2026-01-05 10:38:09.47	10.69	16.80	-45.1	-63.5	3.8	7.43e-01	0	57	104	0	62	29001
2026-01-05 10:38:10.48	10.51	16.71	-45.1	-63.5	3.8	7.44e-01	0	57	104	0	62	28756
2026-01-05 10:38:11.49	10.33	16.61	-45.1	-63.3	3.8	7.46e-01	0	57	104	0	62	28035
2026-01-05 10:38:12.50	10.16	16.52	-45.1	-63.2	3.8	7.45e-01	0	57	104	0	62	27810
2026-01-05 10:38:13.51	9.99	16.42	-45.0	-62.7	3.8	7.45e-01	0	57	104	0	62	26385
2026-01-05 10:38:14.52	9.81	16.33	-44.8	-62.0	3.8	7.42e-01	0	57	104	0	61	25571
2026-01-05 10:38:15.53	9.64	16.24	-44.4	-60.4	3.8	7.46e-01	0	57	104	0	60	22759
2026-01-05 10:38:16.54	9.47	16.14	-44.2	-59.1	3.8	7.43e-01	0	57	104	0	59	20772
2026-01-05 10:38:17.55	9.30	16.05	-43.4	-57.1	3.8	7.47e-01	0	57	104	0	58	17473
2026-01-05 10:38:18.56	9.14	15.95	-42.6	-55.6	3.8	7.45e-01	0	57	104	0	57	15497
2026-01-05 10:38:19.58	8.97	15.86	-41.7	-54.1	3.8	7.42e-01	0	57	104	0	55	14589
2026-01-05 10:38:20.59	8.80	15.77	-41.1	-53.3	3.8	7.46e-01	0	57	104	0	54	14083
2026-01-05 10:38:21.60	8.64	15.67	-40.7	-52.7	3.8	7.42e-01	0	57	104	0	53	13919
2026-01-05 10:38:22.61	8.48	15.58	-40.3	-52.1	3.8	7.42e-01	0	57	104	0	52	13812
2026-01-05 10:38:23.62	8.31	15.49	-40.4	-52.2	3.8	7.44e-01	0	57	104	0	51	14846
2026-01-05 10:38:24.63	8.15	15.40	-42.2	-55.0	3.8	7.48e-01	0	57	104	0	54	17160
2026-01-05 10:38:25.64	7.99	15.30	-42.5	-55.7	3.9	7.45e-01	0	57	104	0	57	15668
2026-01-05 10:38:26.65	7.83	15.21	-40.1	-52.1	3.8	7.48e-01	0	57	104	0	51	14555
2026-01-05 10:38:27.66	7.68	15.12	-40.7	-52.9	3.8	7.43e-01	0	57	104	0	53	14290
2026-01-05 10:38:28.67	7.52	15.03	-40.1	-52.0	3.8	7.43e-01	0	57	104	0	52	13593
2026-01-05 10:38:29.68	7.36	14.94	-40.0	-51.7	3.8	7.41e-01	0	57	104	0	51	14042
2026-01-05 10:38:30.69	7.21	14.84	-40.0	-51.7	3.8	7.44e-01	0	57	104	0	51	13960
2026-01-05 10:38:31.70	7.06	14.75	-40.8	-52.8	3.8	7.43e-01	0	57	104	0	52	14892
2026-01-05 10:38:32.71	6.90	14.66	-43.2	-57.4	3.7	7.46e-01	0	57	104	0	56	20195
2026-01-05 10:38:33.72	6.75	14.57	-41.7	-54.7	3.8	7.47e-01	0	57	104	0	55	15585
2026-01-05 10:38:34.73	6.60	14.48	-40.6	-52.6	3.8	7.45e-01	0	57	104	0	51	15489
2026-01-05 10:38:35.74	6.45	14.39	-40.7	-52.9	3.9	7.44e-01	0	57	104	0	53	14301
2026-01-05 10:38:36.75	6.31	14.30	-40.0	-52.0	3.8	7.46e-01	0	56	104	0	51	14383
2026-01-05 10:38:37.76	6.16	14.21	-40.0	-51.9	3.9	7.43e-01	0	56	104	0	51	14289
2026-01-05 10:38:38.77	6.01	14.12	-40.2	-52.3	3.8	7.48e-01	0	57	104	0	51	14891
2026-01-05 10:38:39.78	5.87	14.03	-41.6	-54.3	3.8	7.47e-01	0	57	104	0	53	16805
2026-01-05 10:38:40.79	5.72	13.94	-41.5	-54.8	3.8	7.46e-01	0	57	104	0	53	17705
2026-01-05 10:38:41.80	5.58	13.85	-40.5	-52.8	3.8	7.44e-01	0	57	104	0	52	14908
2026-01-05 10:38:42.81	5.44	13.76	-42.5	-57.5	3.8	7.46e-01	0	57	104	0	55	21688
2026-01-05 10:38:43.81	5.29	13.67	-40.0	-52.2	3.9	7.50e-01	0	57	104	0	52	14012
2026-01-05 10:38:44.82	5.15	13.58	-39.6	-51.6	3.8	7.46e-01	0	57	104	0	51	13837
2026-01-05 10:38:45.83	5.01	13.50	-39.5	-51.5	3.8	7.46e-01	0	57	104	0	50	14451
2026-01-05 10:38:46.84	4.88	13.41	-42.3	-56.8	3.8	7.45e-01	0	56	104	0	55	19849
2026-01-05 10:38:47.85	4.74	13.32	-41.2	-54.3	3.8	7.41e-01	0	57	104	0	54	15816
2026-01-05 10:38:48.86	4.60	13.23	-42.1	-58.6	3.7	7.48e-01	0	57	104	0	54	26153
2026-01-05 10:38:49.87	4.46	13.14	-40.8	-56.3	3.8	7.41e-01	0	56	104	0	53	21176
2026-01-05 10:38:50.88	4.33	13.05	-41.8	-56.0	3.8	7.44e-01	0	57	104	0	54	19258
2026-01-05 10:38:51.89	4.19	12.97	-41.4	-55.4	3.8	7.45e-01	0	57	104	0	54	18013
2026-01-05 10:38:52.90	4.06	12.88	-41.4	-56.1	3.8	7.44e-01	0	57	104	0	54	19591
2026-01-05 10:38:53.91	3.93	12.79	-41.6	-57.1	3.8	7.47e-01	0	57	104	0	54	21909
2026-01-05 10:38:54.92	3.80	12.71	-41.2	-58.7	3.8	7.45e-01	0	57	104	0	54	26361
2026-01-05 10:38:55.93	3.67	12.62	-42.1	-59.3	3.8	7.43e-01	0	57	104	0	54	28323
2026-01-05 10:38:56.94	3.54	12.53	-41.1	-60.0	3.8	7.45e-01	0	57	104	0	54	30694
2026-01-05 10:38:57.95	3.41	12.45	-40.9	-60.0	3.8	7.44e-01	0	57	104	0	53	32434
2026-01-05 10:38:58.96	3.28	12.36	-42.4	-61.2	3.8	7.47e-01	0	57	104	0	55	33308
2026-01-05 10:38:59.97	3.15	12.27	-41.2	-60.1	3.8	7.45e-01	0	57	104	0	54	30972
2026-01-05 10:39:00.98	3.02	12.19	-40.9	-60.0	3.8	7.44e-01	0	57	104	0	53	32297
2026-01-05 10:39:01.99	2.90	12.10	-40.9	-60.0	3.8	7.46e-01	0	57	104	0	53	32280
2026-01-05 10:39:03.00	2.77	12.02	-40.9	-59.9	3.8	7.44e-01	0	57	104	0	53	32130
2026-01-05 10:39:04.01	2.65	11.93	-40.7	-59.8	3.8	7.42e-01	0	57	104	0	53	31650
2026-01-05 10:39:05.02	2.52	11.85	-40.8	-60.1	3.8	7.44e-01	0	57	104	0	53	32677
2026-01-05 10:39:06.03	2.40	11.76	-41.2	-60.1	3.8	7.44e-01	0	57	104	0	53	32826
2026-01-05 10:39:07.04	2.28	11.68	-40.8	-59.7	3.8	7.46e-01	0	57	104	0	53	31325
2026-01-05 10:39:08.05	2.16	11.60	-41.1	-60.0	3.8	7.47e-01	0	57	104	0	53	32539
2026-01-05 10:39:09.06	2.04	11.51	-40.7	-59.7	3.8	7.47e-01	0	57	104	0	53	31149
2026-01-05 10:39:10.07	1.92	11.43	-40.7	-59.7	3.8	7.49e-01	0	57	104	0	53	31167
2026-01-05 10:39:11.08	1.80	11.34	-40.7	-59.9	3.8	7.47e-01	0	57	104	0	53	32009
2026-01-05 10:39:12.09	1.68	11.26	-40.7	-59.7	3.8	7.44e-01	0	57	104	0	53	31111
2026-01-05 10:39:13.10	1.56	11.18	-40.7	-59.8	3.8	7.46e-01	0	57	104	0	53	31767
2026-01-05 10:39:14.11	1.45	11.09	-40.8	-59.9	3.8	7.46e-01	0	57	104	0	53	31901
2026-01-05 10:39:15.12	1.33	11.01	-40.6	-59.6	3.8	7.46e-01	0	57	104	0	53	30859
2026-01-05 10:39:16.13	1.21	10.93	-40.8	-59.8	3.8	7.45e-01	0	57	104	0	53	31792
2026-01-05 10:39:17.14	1.10	10.85	-40.5	-59.6	3.8	7.43e-01	0	57	104	0	53	30901
2026-01-05 10:39:18.15	0.99	10.76	-40.4	-59.7	3.8	7.47e-01	0	57	104	0	52	33010
2026-01-05 10:39:19.16	0.87	10.68	-40.7	-59.7	3.8	7.45e-01	0	57	104	0	52	33096
2026-01-05 10:39:20.17	0.76	10.60	-40.3	-59.6	3.8	7.44e-01	0	57	104	0	52	32877
2026-01-05 10:39:21.18	0.65	10.52	-40.7	-59.6	3.8	7.49e-01	0	57	104	0	52	32916
2026-01-05 10:39:22.19	0.54	10.44	-40.7	-59.8	3.8	7.43e-01	0	57	104	0	52	33585
2026-01-05 10:39:23.20	0.43	10.36	-40.3	-59.6	3.8	7.48e-01	0	57	104	0	52	32759
2026-01-05 10:39:24.20	0.32	10.28	-40.5	-59.8	3.8	7.46e-01	0	57	104	0	52	33456
2026-01-05 10:39:25.22	0.21	10.19	-40.1	-59.6	3.8	7.44e-01	0	57	104	0	52	32847
2026-01-05 10:39:26.22	0.10	10.11	-39.9	-59.7	3.8	7.47e-01	0	57	104	0	51	34952
2026-01-05 10:39:27.24	359.99	10.03	-40.5	-59.7	3.8	7.47e-01	0	57	104	0	51	35186
2026-01-05 10:39:28.24	359.89	9.95	-39.8	-59.6	3.8	7.48e-01	0	57	104	0	51	34865
2026-01-05 10:39:29.26	359.78	9.87	-40.5	-59.7	3.8	7.44e-01	0	57	104	0	51	35142
2026-01-05 10:39:30.27	359.67	9.79	-39.9	-59.7	3.8	7.49e-01	0	57	104	0	51	35030
2026-01-05 10:39:31.28	359.57	9.71	-39.8	-59.7	3.8	7.45e-01	0	57	104	0	51	35179
2026-01-05 10:39:32.29	359.46	9.63	-40.0	-59.6	3.8	7.48e-01	0	57	104	0	51	34837
2026-01-05 10:39:33.30	359.36	9.55	-39.6	-59.8	3.8	7.43e-01	0	57	104	0	51	35305
2026-01-05 10:39:34.31	359.26	9.48	-39.7	-59.6	3.8	7.44e-01	0	57	104	0	51	34722
2026-01-05 10:39:35.32	359.16	9.40	-39.8	-59.6	3.8	7.46e-01	0	57	104	0	51	34845
2026-01-05 10:39:36.33	359.05	9.32	-39.8	-59.6	3.8	7.41e-01	0	57	104	0	51	34617
2026-01-05 10:39:37.34	358.95	9.24	-39.8	-59.6	3.8	7.47e-01	0	57	104	0	51	34759
2026-01-05 10:39:38.35	358.85	9.16	-40.0	-59.6	3.8	7.48e-01	0	57	104	0	51	34618
2026-01-05 10:39:39.36	358.75	9.08	-39.8	-59.7	3.8	7.45e-01	0	57	104	0	51	34923
2026-01-05 10:39:40.37	358.65	9.01	-39.9	-59.6	3.8	7.44e-01	0	57	104	0	51	34608
2026-01-05 10:39:41.38	358.55	8.93	-39.4	-59.5	3.8	7.43e-01	0	57	104	0	50	36471
2026-01-05 10:39:42.39	358.45	8.85	-38.8	-59.5	3.8	7.42e-01	0	57	104	0	48	40799
2026-01-05 10:39:43.40	358.36	8.77	-39.8	-59.6	3.8	7.42e-01	0	57	104	0	50	36626
2026-01-05 10:39:44.41	358.26	8.70	-38.3	-59.2	3.8	7.46e-01	0	57	104	0	47	41462
2026-01-05 10:39:45.42	358.16	8.62	-39.8	-59.6	3.8	7.48e-01	0	57	104	0	50	36618
2026-01-05 10:39:46.43	358.07	8.54	-38.8	-59.5	3.8	7.49e-01	0	57	104	0	49	38348
2026-01-05 10:39:47.44	357.97	8.47	-37.8	-59.1	3.8	7.49e-01	0	57	104	0	47	41414
2026-01-05 10:39:48.45	357.88	8.39	-37.7	-59.2	3.8	7.46e-01	0	57	104	0	47	41490
2026-01-05 10:39:49.46	357.78	8.31	-37.5	-59.1	3.8	7.45e-01	0	57	104	0	47	41356
2026-01-05 10:39:50.47	357.69	8.24	-38.2	-59.1	3.8	7.48e-01	0	57	104	0	47	41429
2026-01-05 10:39:51.48	357.60	8.16	-39.3	-59.5	3.8	7.46e-01	0	57	104	0	49	38286
2026-01-05 10:39:52.49	357.50	8.08	-38.2	-59.4	3.7	7.45e-01	0	57	104	0	48	40395
2026-01-05 10:39:53.51	357.41	8.01	-39.5	-59.8	3.8	7.42e-01	0	57	104	0	49	39679
2026-01-05 10:39:54.52	357.32	7.93	-42.1	-61.1	3.8	7.50e-01	0	57	104	0	54	34737
2026-01-05 10:39:55.53	357.23	7.86	-45.4	-64.2	3.8	7.44e-01	0	57	104	0	61	33191
2026-01-05 10:39:56.54	357.14	7.78	-45.7	-64.6	3.8	7.45e-01	0	57	104	0	61	34518
2026-01-05 10:39:57.55	357.05	7.71	-45.9	-64.7	3.8	7.47e-01	0	57	104	0	62	33265
2026-01-05 10:39:58.56	356.96	7.63	-46.0	-64.8	3.8	7.44e-01	0	57	104	0	62	33686
2026-01-05 10:39:59.57	356.87	7.56	-46.1	-64.9	3.8	7.47e-01	0	57	104	0	62	34065
2026-01-05 10:40:00.58	356.78	7.49	-46.0	-65.0	3.8	7.43e-01	0	57	104	0	62	34223
2026-01-05 10:40:01.59	356.69	7.41	-46.2	-65.0	3.8	7.47e-01	0	57	104	0	62	34393
2026-01-05 10:40:02.61	356.60	7.34	-46.1	-65.0	3.8	7.45e-01	0	57	104	0	62	34340
2026-01-05 10:40:03.62	356.52	7.26	-46.1	-65.0	3.8	7.45e-01	0	57	104	0	62	34313
2026-01-05 10:40:04.63	356.43	7.19	-46.1	-64.9	3.8	7.44e-01	0	57	104	0	62	34009
2026-01-05 10:40:05.64	356.35	7.12	-46.1	-64.9	3.8	7.47e-01	0	57	104	0	62	33921
2026-01-05 10:40:06.65	356.26	7.04	-46.0	-64.9	3.8	7.44e-01	0	57	104	0	62	33835
2026-01-05 10:40:07.66	356.18	6.97	-46.0	-64.9	3.8	7.45e-01	0	57	104	0	62	33767
2026-01-05 10:40:08.67	356.09	6.90	-46.0	-64.9	3.8	7.46e-01	0	57	104	0	62	33752
2026-01-05 10:40:09.68	356.01	6.83	-45.9	-64.8	3.8	7.46e-01	0	57	104	0	62	33627
2026-01-05 10:40:10.69	355.92	6.75	-46.0	-64.8	3.8	7.44e-01	0	57	104	0	62	33561
2026-01-05 10:40:11.70	355.84	6.68	-46.0	-64.8	3.8	7.46e-01	0	57	104	0	62	33585
2026-01-05 10:40:12.71	355.76	6.61	-46.0	-64.8	3.8	7.44e-01	0	57	104	0	62	33623
2026-01-05 10:40:13.72	355.68	6.54	-45.7	-64.8	3.8	7.47e-01	0	57	104	0	62	33594
2026-01-05 10:40:14.73	355.59	6.46	-45.9	-64.8	3.8	7.48e-01	0	57	104	0	62	33603
2026-01-05 10:40:15.75	355.51	6.39	-46.0	-64.8	3.8	7.43e-01	0	57	104	0	62	33667
2026-01-05 10:40:16.76	355.43	6.32	-45.9	-64.8	3.8	7.44e-01	0	57	104	0	62	33603
2026-01-05 10:40:17.77	355.35	6.25	-45.9	-64.8	3.8	7.47e-01	0	57	104	0	62	33536
2026-01-05 10:40:18.78	355.27	6.18	-46.0	-64.8	3.8	7.45e-01	0	57	104	0	62	33542
2026-01-05 10:40:19.79	355.19	6.11	-45.9	-64.8	3.8	7.47e-01	0	57	104	0	62	33546
2026-01-05 10:40:20.80	355.11	6.04	-45.9	-64.8	3.8	7.47e-01	0	57	104	0	62	33524
2026-01-05 10:40:21.81	355.03	5.97	-45.9	-64.8	3.8	7.44e-01	0	57	104	0	62	33529
2026-01-05 10:40:22.82	354.96	5.90	-45.9	-64.8	3.8	7.44e-01	0	57	104	0	62	33542
2026-01-05 10:40:23.83	354.88	5.83	-45.7	-64.8	3.8	7.44e-01	0	57	104	0	62	33527
2026-01-05 10:40:24.84	354.80	5.76	-45.9	-64.8	3.8	7.45e-01	0	57	104	0	62	33501
2026-01-05 10:40:25.85	354.72	5.69	-45.9	-64.8	3.8	7.42e-01	0	57	104	0	62	33554
2026-01-05 10:40:26.87	354.65	5.62	-45.9	-64.8	3.8	7.44e-01	0	57	104	0	62	33555
2026-01-05 10:40:27.88	354.57	5.55	-45.9	-64.8	3.8	7.47e-01	0	57	104	0	62	33470
2026-01-05 10:40:28.89	354.50	5.48	-45.9	-64.8	3.8	7.45e-01	0	57	104	0	62	33563
2026-01-05 10:40:29.90	354.42	5.41	-45.9	-64.8	3.8	7.46e-01	0	57	104	0	62	33592
2026-01-05 10:40:30.91	354.35	5.34	-45.9	-64.8	3.8	7.46e-01	0	57	104	0	62	33545
2026-01-05 10:40:31.92	354.27	5.27	-45.9	-64.8	3.8	7.46e-01	0	57	104	0	62	33494
2026-01-05 10:40:32.93	354.20	5.20	-45.7	-64.8	3.8	7.48e-01	0	57	104	0	62	33509
2026-01-05 10:40:33.94	354.12	5.13	-45.9	-64.8	3.8	7.45e-01	0	57	104	0	62	33529
2026-01-05 10:40:34.95	354.05	5.06	-45.9	-64.8	3.8	7.44e-01	0	57	104	0	62	33538
2026-01-05 10:40:35.96	353.98	4.99	-45.9	-64.8	3.8	7.45e-01	0	57	104	0	62	33480
2026-01-05 10:40:36.98	353.91	4.93	-45.9	-64.8	3.8	7.44e-01	0	57	104	0	62	33543
2026-01-05 10:40:37.99	353.83	4.86	-45.9	-64.8	3.8	7.46e-01	0	57	104	0	62	33473
2026-01-05 10:40:39.00	353.76	4.79	-45.9	-64.8	3.8	7.45e-01	0	57	104	0	62	33493
2026-01-05 10:40:40.01	353.69	4.72	-45.9	-64.8	3.8	7.44e-01	0	57	104	0	62	33507
2026-01-05 10:40:41.02	353.62	4.65	-45.9	-64.8	3.8	7.47e-01	0	57	104	0	62	33560
2026-01-05 10:40:42.03	353.55	4.59	-45.9	-64.8	3.8	7.45e-01	0	57	104	0	62	33432
2026-01-05 10:40:43.04	353.48	4.52	-45.6	-64.8	3.8	7.45e-01	0	57	104	0	62	33496
2026-01-05 10:40:44.05	353.41	4.45	-45.7	-64.8	3.8	7.46e-01	0	57	104	0	62	33473
2026-01-05 10:40:45.06	353.34	4.38	-45.9	-64.8	3.8	7.47e-01	0	56	104	0	62	33505
2026-01-05 10:40:46.07	353.27	4.32	-45.9	-64.8	3.8	7.47e-01	0	57	104	0	62	33504
2026-01-05 10:40:47.09	353.20	4.25	-45.9	-64.8	3.8	7.45e-01	0	57	104	0	62	33465
2026-01-05 10:40:48.10	353.14	4.18	-45.9	-64.8	3.8	7.45e-01	0	57	104	0	62	33535
2026-01-05 10:40:49.11	353.07	4.12	-45.9	-64.8	3.8	7.46e-01	0	57	104	0	62	33398
2026-01-05 10:40:50.12	353.00	4.05	-45.9	-64.8	3.8	7.44e-01	0	57	104	0	62	33513
2026-01-05 10:40:51.13	352.93	3.99	-45.9	-64.8	3.8	7.45e-01	0	57	104	0	62	33466
2026-01-05 10:40:52.14	352.87	3.92	-45.9	-64.8	3.8	7.45e-01	0	57	104	0	62	33480
2026-01-05 10:40:53.15	352.80	3.85	-45.9	-64.8	3.8	7.43e-01	0	57	104	0	62	33534
2026-01-05 10:40:54.16	352.73	3.79	-45.9	-64.8	3.8	7.47e-01	0	57	104	0	62	33526
2026-01-05 10:40:55.17	352.67	3.72	-45.9	-64.8	3.8	7.45e-01	0	57	104	0	62	33506
2026-01-05 10:40:56.19	352.60	3.66	-45.9	-64.8	3.8	7.46e-01	0	56	104	0	62	33518
2026-01-05 10:40:57.20	352.54	3.59	-45.9	-64.8	3.8	7.46e-01	0	57	104	0	62	33540
2026-01-05 10:40:58.21	352.47	3.53	-45.9	-64.8	3.8	7.47e-01	0	57	104	0	62	33486
2026-01-05 10:40:59.22	352.41	3.46	-45.9	-64.8	3.8	7.47e-01	0	57	104	0	62	33536
2026-01-05 10:41:00.23	352.34	3.40	-45.9	-64.8	3.8	7.45e-01	0	57	104	0	62	33552
2026-01-05 10:41:01.24	352.28	3.33	-45.9	-64.8	3.8	7.48e-01	0	57	104	0	62	33533
2026-01-05 10:41:02.25	352.22	3.27	-45.9	-64.8	3.8	7.46e-01	0	57	104	0	62	33531
2026-01-05 10:41:03.26	352.15	3.20	-45.9	-64.8	3.8	7.49e-01	0	57	104	0	62	33467
2026-01-05 10:41:04.27	352.09	3.14	-45.9	-64.8	3.8	7.48e-01	0	57	104	0	62	33438
2026-01-05 10:41:05.29	352.03	3.07	-45.9	-64.8	3.8	7.48e-01	0	57	104	0	62	33483
2026-01-05 10:41:06.30	351.97	3.01	-45.8	-64.8	3.8	7.48e-01	0	57	104	0	62	33460
2026-01-05 10:41:07.31	351.90	2.94	-45.9	-64.8	3.8	7.45e-01	0	57	104	0	62	33549
2026-01-05 10:41:08.32	351.84	2.88	-45.9	-64.8	3.8	7.49e-01	0	57	104	0	62	33449
2026-01-05 10:41:09.33	351.78	2.82	-45.9	-64.8	3.8	7.45e-01	0	57	104	0	62	33489
2026-01-05 10:41:10.34	351.72	2.75	-45.9	-64.8	3.8	7.44e-01	0	57	104	0	62	33458
2026-01-05 10:41:11.35	351.66	2.69	-45.9	-64.8	3.8	7.44e-01	0	57	104	0	62	33463
2026-01-05 10:41:12.36	351.60	2.63	-45.9	-64.8	3.8	7.43e-01	0	57	104	0	62	33485
2026-01-05 10:41:13.37	351.54	2.56	-45.9	-64.8	3.8	7.42e-01	0	57	104	0	62	33464
2026-01-05 10:41:14.38	351.48	2.50	-45.9	-64.8	3.8	7.45e-01	0	57	104	0	62	33407
2026-01-05 10:41:15.39	351.42	2.44	-45.9	-64.8	3.8	7.43e-01	0	57	104	0	62	33486
2026-01-05 10:41:16.41	351.36	2.37	-45.9	-64.8	3.8	7.44e-01	0	57	104	0	62	33489
2026-01-05 10:41:17.42	351.30	2.31	-45.9	-64.8	3.8	7.49e-01	0	57	104	0	62	33528
2026-01-05 10:41:18.43	351.24	2.25	-45.9	-64.8	3.8	7.46e-01	0	57	104	0	62	33445
2026-01-05 10:41:19.44	351.19	2.19	-45.9	-64.8	3.8	7.45e-01	0	57	104	0	62	33510
2026-01-05 10:41:20.45	351.13	2.12	-45.9	-64.8	3.8	7.43e-01	0	57	104	0	62	33415
2026-01-05 10:41:21.46	351.07	2.06	-45.9	-64.8	3.8	7.44e-01	0	57	104	0	62	33463
2026-01-05 10:41:22.47	351.01	2.00	-45.9	-64.8	3.8	7.47e-01	0	57	104	0	62	33479

#Closed at: 2026-01-05 10:41:22
#Recorded file [0 MB]: D:/lorett/data/31039_260105_133727.dat