passes_logs/2026/01/05/R2.0S_Moscow/R2.0S_Moscow__20260105_111410_NOAA_20_JPSS-1_rec.log

#Pass ID: 20260105_111410_NOAA 20 (JPSS-1)
#Satellite: NOAA 20 (JPSS-1)
#Configuration: NOAA 20
#almurnet v.1.7.20251203
#Start time: 2026-01-05 11:14:10

#Version: 2.2.20231116
#Station: R2.0S_Moscow
#Location: 37.707566 lon 55.798166 lat
#TLE: 1 43013U 17073A   26004.47528369  .00000132  00000+0  83671-4 0  9999
#TLE: 2 43013  98.7626 305.5264 0001854  54.5883 305.5466 14.19533142421242

#Time	Az	El	Level	Level2	SNR	BER	BlckErr	Temp	State	Recorded	gain1	gain2
2026-01-05 11:14:10.96	200.20	2.02	-43.9	-58.4	3.8	1.49e+00	0	47	0	0	59	19098
2026-01-05 11:14:15.00	200.45	2.25	-43.9	-58.4	3.8	1.49e+00	0	48	104	0	59	19119
2026-01-05 11:14:19.04	200.71	2.48	-43.9	-58.4	3.8	1.49e+00	0	48	104	0	59	19076
2026-01-05 11:14:23.08	200.97	2.72	-43.9	-58.4	3.8	1.49e+00	0	48	104	0	59	19125
2026-01-05 11:14:27.13	201.23	2.96	-43.9	-58.4	3.8	1.49e+00	0	49	104	0	59	19120
2026-01-05 11:14:31.17	201.50	3.20	-43.9	-58.4	3.8	1.49e+00	0	49	104	0	59	19106
2026-01-05 11:14:35.21	201.77	3.44	-43.9	-58.4	3.8	1.49e+00	0	49	104	0	59	19077
2026-01-05 11:14:39.26	202.05	3.68	-43.9	-58.4	3.8	1.49e+00	0	49	104	0	59	19084
2026-01-05 11:14:43.30	202.33	3.93	-43.9	-58.4	3.8	1.49e+00	0	49	104	0	59	19065
2026-01-05 11:14:47.34	202.61	4.17	-43.9	-58.4	3.8	1.49e+00	0	50	104	0	59	19089
2026-01-05 11:14:51.39	202.90	4.42	-43.9	-58.4	3.8	1.49e+00	0	50	104	0	59	19116
2026-01-05 11:14:55.43	203.20	4.67	-43.9	-58.4	3.8	1.49e+00	0	50	104	0	59	19096
2026-01-05 11:14:59.48	203.50	4.92	-43.9	-58.4	3.8	1.49e+00	0	51	104	0	59	19054
2026-01-05 11:15:03.52	203.80	5.18	-43.9	-58.4	3.8	1.49e+00	0	51	104	0	59	19068
2026-01-05 11:15:07.57	204.11	5.43	-43.9	-58.3	3.8	1.49e+00	0	51	104	0	59	18870
2026-01-05 11:15:11.61	204.43	5.69	-43.8	-57.7	3.8	1.49e+00	0	51	104	0	59	17592
2026-01-05 11:15:15.66	204.75	5.95	-43.8	-57.2	3.8	1.49e+00	0	51	104	0	59	16644
2026-01-05 11:15:19.70	205.07	6.21	-43.9	-57.8	3.8	1.49e+00	0	51	104	0	59	17765
2026-01-05 11:15:23.74	205.40	6.47	-43.9	-57.8	3.8	1.49e+00	0	52	104	0	59	17788
2026-01-05 11:15:27.78	205.74	6.73	-43.8	-57.5	3.8	1.49e+00	0	52	104	0	59	17252
2026-01-05 11:15:31.83	206.08	7.00	-43.7	-55.0	4.1	1.46e+00	0	52	0	0	59	12937
2026-01-05 11:15:35.87	206.43	7.27	-43.0	-50.1	7.0	1.89e-01	0	52	0	6291456	58	7804
2026-01-05 11:15:39.92	206.79	7.54	-41.6	-46.1	10.9	3.21e-03	0	52	0	13631488	55	5826
2026-01-05 11:15:43.96	207.15	7.81	-40.7	-44.4	12.8	7.01e-05	0	52	0	20971520	53	5343
2026-01-05 11:15:48.00	207.52	8.08	-40.8	-44.3	12.9	3.58e-05	0	52	0	28311552	53	5308
2026-01-05 11:15:52.04	207.89	8.36	-42.0	-47.0	10.2	1.84e-01	0	53	0	35651584	54	6860
2026-01-05 11:15:56.07	208.28	8.64	-40.4	-43.6	13.7	9.90e-06	0	53	0	42991616	52	5190
2026-01-05 11:16:00.11	208.66	8.92	-40.4	-43.6	13.8	2.20e-06	0	53	0	50331648	52	5165
2026-01-05 11:16:04.15	209.06	9.20	-40.4	-43.5	13.8	1.50e-06	0	53	0	58720256	52	5150
2026-01-05 11:16:08.19	209.46	9.48	-40.4	-43.5	13.9	4.50e-06	0	53	0	66060288	52	5137
2026-01-05 11:16:12.22	209.87	9.77	-40.4	-43.6	13.9	3.00e-06	0	53	0	73400320	52	5182
2026-01-05 11:16:16.26	210.29	10.05	-40.4	-43.4	14.1	2.20e-06	0	53	0	80740352	52	5100
2026-01-05 11:16:20.30	210.72	10.34	-40.3	-43.3	14.2	7.00e-07	0	53	0	89128960	52	5014
2026-01-05 11:16:24.33	211.15	10.63	-40.1	-43.0	14.6	0.00e+00	0	54	0	96468992	52	4831
2026-01-05 11:16:28.37	211.60	10.93	-40.1	-43.0	14.7	0.00e+00	0	54	0	103809024	52	4823
2026-01-05 11:16:32.41	212.05	11.22	-40.1	-42.9	14.7	0.00e+00	0	54	0	111149056	52	4810
2026-01-05 11:16:36.45	212.51	11.52	-40.2	-43.1	14.6	0.00e+00	0	54	0	118489088	52	4890
2026-01-05 11:16:40.49	212.98	11.82	-40.4	-43.3	14.4	0.00e+00	0	54	0	126877696	52	4994
2026-01-05 11:16:44.53	213.46	12.12	-40.3	-43.2	14.5	2.20e-06	0	54	0	134217728	52	4968
2026-01-05 11:16:48.57	213.95	12.43	-40.2	-43.0	14.7	0.00e+00	0	54	0	141557760	52	4858
2026-01-05 11:16:52.60	214.45	12.73	-40.2	-42.9	14.9	0.00e+00	0	54	0	148897792	52	4797
2026-01-05 11:16:56.64	214.96	13.04	-40.2	-42.9	14.9	7.00e-07	0	54	0	157286400	52	4801
2026-01-05 11:17:00.68	215.48	13.35	-40.1	-42.8	15.0	0.00e+00	0	54	0	164626432	52	4726
2026-01-05 11:17:04.72	216.01	13.66	-40.1	-42.8	15.0	7.00e-07	0	54	0	171966464	52	4721
2026-01-05 11:17:08.75	216.55	13.97	-40.2	-43.0	14.9	0.00e+00	0	54	0	179306496	52	4818
2026-01-05 11:17:12.79	217.11	14.29	-40.3	-43.2	14.7	7.00e-07	0	54	0	186646528	52	4931
2026-01-05 11:17:16.83	217.67	14.60	-40.3	-43.1	14.8	0.00e+00	0	55	0	195035136	52	4879
2026-01-05 11:17:20.86	218.25	14.92	-40.2	-42.9	15.0	0.00e+00	0	54	0	202375168	52	4775
2026-01-05 11:17:24.90	218.84	15.24	-40.2	-43.0	15.0	0.00e+00	0	55	0	209715200	52	4823
2026-01-05 11:17:28.94	219.44	15.56	-40.2	-42.9	15.1	7.00e-07	0	55	0	217055232	52	4789
2026-01-05 11:17:32.98	220.05	15.88	-40.0	-42.6	15.4	0.00e+00	0	55	0	225443840	52	4622
2026-01-05 11:17:37.02	220.68	16.20	-40.0	-42.6	15.4	0.00e+00	0	55	0	232783872	52	4635
2026-01-05 11:17:41.06	221.32	16.53	-40.0	-42.5	15.5	0.00e+00	0	55	0	240123904	51	4860
2026-01-05 11:17:45.09	221.97	16.85	-39.9	-42.4	15.7	0.00e+00	0	55	0	247463936	51	4777
2026-01-05 11:17:49.13	222.63	17.18	-39.8	-42.2	15.9	0.00e+00	0	55	0	254803968	51	4659
2026-01-05 11:17:53.17	223.31	17.50	-39.8	-42.3	15.8	0.00e+00	0	55	0	263192576	51	4728
2026-01-05 11:17:57.21	224.01	17.83	-39.9	-42.3	15.8	0.00e+00	0	55	0	270532608	51	4736
2026-01-05 11:18:01.25	224.72	18.15	-39.7	-42.1	16.0	0.00e+00	0	55	0	277872640	51	4642
2026-01-05 11:18:05.29	225.45	18.48	-39.7	-42.1	16.0	0.00e+00	0	55	0	285212672	51	4623
2026-01-05 11:18:09.33	226.19	18.81	-39.5	-41.8	16.3	0.00e+00	0	55	0	293601280	51	4455
2026-01-05 11:18:13.37	226.94	19.13	-39.5	-41.7	16.4	0.00e+00	0	55	0	300941312	50	4701
2026-01-05 11:18:17.41	227.72	19.46	-39.4	-41.6	16.5	0.00e+00	0	55	0	308281344	50	4639
2026-01-05 11:18:21.45	228.50	19.78	-39.4	-41.6	16.5	0.00e+00	0	55	0	315621376	50	4639
2026-01-05 11:18:25.48	229.31	20.10	-39.3	-41.5	16.7	0.00e+00	0	55	0	322961408	50	4558
2026-01-05 11:18:29.52	230.13	20.42	-39.3	-41.4	16.8	0.00e+00	0	56	0	331350016	50	4539
2026-01-05 11:18:33.56	230.97	20.74	-39.2	-41.3	16.9	0.00e+00	0	55	0	338690048	50	4467
2026-01-05 11:18:37.60	231.82	21.06	-39.4	-41.6	16.7	0.00e+00	0	55	0	346030080	50	4610
2026-01-05 11:18:41.64	232.69	21.38	-39.2	-41.3	16.9	0.00e+00	0	55	0	353370112	50	4477
2026-01-05 11:18:45.68	233.58	21.69	-39.2	-41.3	16.9	0.00e+00	0	55	0	361758720	50	4491
2026-01-05 11:18:49.72	234.49	22.00	-39.2	-41.3	16.9	0.00e+00	0	55	0	369098752	50	4482
2026-01-05 11:18:53.76	235.42	22.30	-38.9	-41.0	17.2	0.00e+00	0	56	0	376438784	49	4559
2026-01-05 11:18:57.80	236.36	22.60	-39.1	-41.2	17.0	0.00e+00	0	55	0	383778816	49	4702
2026-01-05 11:19:01.83	237.32	22.90	-39.2	-41.3	16.9	0.00e+00	0	56	0	391118848	49	4759
2026-01-05 11:19:05.87	238.29	23.19	-39.4	-41.6	16.6	0.00e+00	0	56	0	399507456	49	4914
2026-01-05 11:19:09.91	239.29	23.47	-39.9	-42.3	16.0	0.00e+00	0	55	0	406847488	50	5002
2026-01-05 11:19:13.96	240.31	23.76	-39.9	-42.3	16.0	0.00e+00	0	56	0	414187520	50	4997
2026-01-05 11:19:17.99	241.34	24.03	-39.6	-41.9	16.4	0.00e+00	0	56	0	421527552	50	4800
2026-01-05 11:19:22.03	242.39	24.29	-39.8	-42.2	16.1	0.00e+00	0	56	0	429916160	50	4930
2026-01-05 11:19:26.07	243.45	24.55	-40.0	-42.5	15.8	0.00e+00	0	56	0	437256192	50	5120
2026-01-05 11:19:30.11	244.54	24.81	-40.0	-42.3	16.0	0.00e+00	0	56	0	444596224	50	5037
2026-01-05 11:19:34.15	245.64	25.05	-40.3	-42.9	15.4	0.00e+00	0	56	0	451936256	51	5070
2026-01-05 11:19:38.19	246.75	25.28	-40.6	-43.3	15.0	0.00e+00	0	56	0	459276288	51	5292
2026-01-05 11:19:42.22	247.88	25.51	-40.6	-43.3	15.0	0.00e+00	0	56	0	467664896	51	5335
2026-01-05 11:19:46.26	249.03	25.72	-41.0	-43.9	14.3	1.50e-06	0	56	0	475004928	52	5401
2026-01-05 11:19:50.30	250.19	25.92	-41.3	-44.5	13.7	3.80e-06	0	56	0	482344960	53	5437
2026-01-05 11:19:54.34	251.37	26.12	-41.5	-44.9	13.3	1.98e-05	0	56	0	489684992	53	5704
2026-01-05 11:19:58.37	252.55	26.30	-41.8	-45.4	12.8	5.56e-05	0	56	0	498073600	54	5700
2026-01-05 11:20:02.41	253.76	26.47	-41.7	-45.2	13.0	4.04e-05	0	56	0	505413632	54	5569
2026-01-05 11:20:06.45	254.97	26.62	-41.8	-45.4	12.8	6.33e-05	0	56	0	512753664	54	5707
2026-01-05 11:20:10.49	256.20	26.77	-41.7	-45.2	13.0	3.50e-05	0	56	0	520093696	54	5550
2026-01-05 11:20:14.53	257.44	26.90	-41.7	-45.3	12.8	5.56e-05	0	56	0	527433728	54	5636
2026-01-05 11:20:18.57	258.68	27.02	-41.6	-44.9	13.3	2.28e-05	0	56	0	535822336	54	5397
2026-01-05 11:20:22.60	259.93	27.12	-41.2	-44.4	13.8	5.30e-06	0	56	0	543162368	54	5062
2026-01-05 11:20:26.64	261.20	27.21	-41.3	-44.5	13.7	3.00e-06	0	56	0	550502400	54	5123
2026-01-05 11:20:30.68	262.46	27.28	-41.6	-45.0	13.1	1.83e-05	0	56	0	557842432	54	5453
2026-01-05 11:20:34.72	263.74	27.34	-41.4	-44.6	13.6	1.44e-05	0	56	0	566231040	54	5209
2026-01-05 11:20:38.76	265.01	27.39	-41.4	-44.6	13.6	7.60e-06	0	56	0	573571072	54	5218
2026-01-05 11:20:42.79	266.29	27.42	-40.9	-43.8	14.4	0.00e+00	0	56	0	580911104	53	5026
2026-01-05 11:20:46.83	267.57	27.43	-40.6	-43.4	14.9	7.00e-07	0	56	0	588251136	53	4777
2026-01-05 11:20:50.87	268.85	27.43	-40.8	-43.6	14.6	7.00e-07	0	56	0	595591168	53	4903
2026-01-05 11:20:54.90	270.13	27.42	-40.4	-43.1	15.1	0.00e+00	0	56	0	603979776	52	4897
2026-01-05 11:20:58.95	271.42	27.39	-40.2	-42.7	15.6	0.00e+00	0	56	0	611319808	51	4976
2026-01-05 11:21:02.98	272.69	27.34	-40.7	-43.5	14.8	0.00e+00	0	56	0	618659840	52	5134
2026-01-05 11:21:07.02	273.96	27.28	-40.6	-43.4	14.9	0.00e+00	0	56	0	625999872	52	5053
2026-01-05 11:21:11.06	275.23	27.21	-41.1	-44.1	14.2	1.50e-06	0	56	0	633339904	52	5488
2026-01-05 11:21:15.10	276.49	27.12	-41.2	-44.4	13.9	4.50e-06	0	56	0	641728512	53	5367
2026-01-05 11:21:19.13	277.74	27.01	-40.5	-43.2	15.0	0.00e+00	0	56	0	649068544	53	4703
2026-01-05 11:21:23.17	278.98	26.90	-40.9	-43.8	14.5	0.00e+00	0	56	0	656408576	52	5297
2026-01-05 11:21:27.21	280.21	26.76	-40.6	-43.4	14.8	0.00e+00	0	56	0	663748608	52	5064
2026-01-05 11:21:31.25	281.44	26.62	-40.5	-43.2	15.0	0.00e+00	0	56	0	672137216	52	4950
2026-01-05 11:21:35.28	282.65	26.46	-40.7	-43.5	14.8	0.00e+00	0	56	0	679477248	52	5125
2026-01-05 11:21:39.32	283.85	26.30	-40.6	-43.3	15.0	0.00e+00	0	56	0	686817280	52	5004
2026-01-05 11:21:43.36	285.03	26.11	-40.2	-42.8	15.5	0.00e+00	0	56	0	694157312	52	4706
2026-01-05 11:21:47.40	286.20	25.92	-39.8	-42.2	16.2	0.00e+00	0	56	0	701497344	51	4653
2026-01-05 11:21:51.44	287.36	25.72	-39.7	-41.9	16.4	0.00e+00	0	56	0	709885952	51	4544
2026-01-05 11:21:55.47	288.50	25.51	-39.5	-41.7	16.6	0.00e+00	0	56	0	717225984	51	4418
2026-01-05 11:21:59.51	289.63	25.28	-39.6	-41.9	16.4	0.00e+00	0	56	0	724566016	51	4509
2026-01-05 11:22:03.55	290.74	25.05	-39.1	-41.2	17.1	0.00e+00	0	56	0	731906048	50	4402
2026-01-05 11:22:07.59	291.84	24.81	-39.7	-42.0	16.3	0.00e+00	0	56	0	740294656	50	4846
2026-01-05 11:22:11.63	292.92	24.56	-39.3	-41.4	16.8	0.00e+00	0	56	0	747634688	50	4542
2026-01-05 11:22:15.67	293.98	24.30	-39.3	-41.4	16.9	0.00e+00	0	56	0	754974720	50	4521
2026-01-05 11:22:19.71	295.02	24.04	-39.8	-42.1	16.1	0.00e+00	0	56	0	762314752	50	4907
2026-01-05 11:22:23.75	296.05	23.76	-40.3	-42.9	15.4	0.00e+00	0	56	0	769654784	51	5056
2026-01-05 11:22:27.79	297.06	23.49	-39.9	-42.3	16.0	0.00e+00	0	56	0	778043392	51	4709
2026-01-05 11:22:31.82	298.05	23.20	-40.1	-42.6	15.7	0.00e+00	0	56	0	785383424	51	4874
2026-01-05 11:22:35.87	299.03	22.91	-40.2	-42.8	15.5	0.00e+00	0	56	0	792723456	51	4997
2026-01-05 11:22:39.91	299.98	22.62	-40.1	-42.6	15.6	0.00e+00	0	56	0	800063488	51	4921
2026-01-05 11:22:43.95	300.92	22.32	-40.2	-42.8	15.4	0.00e+00	0	56	0	808452096	51	5005
2026-01-05 11:22:47.99	301.84	22.02	-40.1	-42.6	15.6	0.00e+00	0	56	0	815792128	51	4888
2026-01-05 11:22:52.02	302.74	21.71	-40.2	-42.7	15.5	0.00e+00	0	56	0	823132160	51	4982
2026-01-05 11:22:56.06	303.63	21.40	-39.9	-42.3	15.8	0.00e+00	0	56	0	830472192	51	4744
2026-01-05 11:23:00.10	304.50	21.09	-40.0	-42.4	15.7	0.00e+00	0	56	0	837812224	51	4806
2026-01-05 11:23:04.14	305.35	20.78	-40.1	-42.7	15.5	0.00e+00	0	56	0	846200832	51	4943
2026-01-05 11:23:08.18	306.18	20.46	-40.7	-43.5	14.5	0.00e+00	0	56	0	853540864	52	5156
2026-01-05 11:23:12.22	307.00	20.14	-41.0	-44.2	13.9	6.10e-06	0	56	0	860880896	52	5536
2026-01-05 11:23:16.25	307.80	19.82	-40.5	-43.4	14.7	0.00e+00	0	56	0	868220928	52	5051
2026-01-05 11:23:20.29	308.58	19.50	-40.9	-44.0	14.0	2.20e-06	0	57	0	876609536	52	5461
2026-01-05 11:23:24.33	309.35	19.18	-40.3	-42.9	15.1	0.00e+00	0	56	0	883949568	52	4795
2026-01-05 11:23:28.37	310.11	18.86	-40.8	-43.8	14.3	7.00e-07	0	56	0	891289600	52	5297
2026-01-05 11:23:32.41	310.84	18.53	-40.5	-43.2	14.8	7.00e-07	0	56	0	898629632	52	4981
2026-01-05 11:23:36.45	311.57	18.21	-40.7	-43.7	14.4	7.00e-07	0	56	0	905969664	52	5229
2026-01-05 11:23:40.48	312.27	17.89	-40.7	-43.7	14.3	3.00e-06	0	56	0	914358272	52	5235
2026-01-05 11:23:44.52	312.97	17.56	-39.9	-42.3	15.8	0.00e+00	0	56	0	921698304	51	4749
2026-01-05 11:23:48.56	313.64	17.24	-41.0	-44.1	13.9	1.50e-06	0	56	0	929038336	52	5501
2026-01-05 11:23:52.60	314.31	16.92	-40.9	-44.0	13.9	6.80e-06	0	56	0	936378368	53	5133
2026-01-05 11:23:56.64	314.96	16.60	-40.4	-43.2	14.7	7.00e-07	0	56	0	944766976	52	4976
2026-01-05 11:24:00.68	315.60	16.28	-40.7	-43.6	14.3	1.50e-06	0	56	0	952107008	52	5205
2026-01-05 11:24:04.72	316.22	15.96	-40.3	-43.1	14.8	0.00e+00	0	56	0	959447040	52	4897
2026-01-05 11:24:08.75	316.83	15.64	-40.4	-43.3	14.6	0.00e+00	0	56	0	966787072	52	4995
2026-01-05 11:24:12.79	317.43	15.32	-40.7	-43.8	14.1	0.00e+00	0	56	0	974127104	52	5310
2026-01-05 11:24:16.83	318.02	15.01	-40.4	-43.2	14.7	0.00e+00	0	56	0	982515712	52	4939
2026-01-05 11:24:20.87	318.59	14.69	-40.4	-43.2	14.7	7.00e-07	0	56	0	989855744	52	4959
2026-01-05 11:24:24.90	319.16	14.38	-40.4	-43.3	14.6	7.00e-07	0	56	0	997195776	52	5010
2026-01-05 11:24:28.94	319.71	14.07	-40.4	-43.2	14.7	7.00e-07	0	56	0	1004535808	52	4953
2026-01-05 11:24:32.98	320.25	13.76	-40.3	-43.1	14.7	7.00e-07	0	56	0	1012924416	52	4924
2026-01-05 11:24:37.02	320.78	13.45	-40.4	-43.4	14.5	1.50e-06	0	56	0	1020264448	52	5043
2026-01-05 11:24:41.05	321.30	13.14	-40.5	-43.5	14.3	1.50e-06	0	56	0	1027604480	52	5147
2026-01-05 11:24:45.09	321.81	12.84	-40.7	-43.7	14.0	4.50e-06	0	57	0	1034944512	52	5277
2026-01-05 11:24:49.13	322.31	12.54	-40.6	-43.7	14.1	4.50e-06	0	56	0	1042284544	52	5247
2026-01-05 11:24:53.17	322.80	12.24	-40.8	-44.0	13.7	1.50e-06	0	56	0	1050673152	52	5446
2026-01-05 11:24:57.21	323.28	11.94	-40.8	-43.9	13.8	3.00e-06	0	56	0	1058013184	52	5398
2026-01-05 11:25:01.24	323.75	11.64	-40.7	-43.8	13.9	4.50e-06	0	57	0	1065353216	52	5314
2026-01-05 11:25:05.28	324.21	11.35	-40.8	-44.0	13.7	7.60e-06	0	57	0	1072693248	52	5463
2026-01-05 11:25:09.32	324.66	11.05	-41.1	-44.6	13.0	3.43e-05	0	57	0	1081081856	52	5853
2026-01-05 11:25:13.35	325.11	10.76	-41.3	-45.0	12.6	1.20e-04	0	56	0	1088421888	53	5762
2026-01-05 11:25:17.39	325.54	10.47	-41.5	-45.4	12.1	2.96e-04	0	56	0	1095761920	53	6049
2026-01-05 11:25:21.43	325.97	10.19	-41.6	-45.6	11.9	3.14e-04	0	56	0	1103101952	53	6178
2026-01-05 11:25:25.47	326.39	9.90	-41.4	-45.4	12.1	2.21e-04	0	57	0	1110441984	53	5993
2026-01-05 11:25:29.51	326.80	9.62	-41.5	-45.5	12.0	2.66e-04	0	56	0	1118830592	53	6080
2026-01-05 11:25:33.55	327.21	9.34	-41.3	-45.1	12.3	2.04e-04	0	57	0	1126170624	53	5855
2026-01-05 11:25:37.59	327.61	9.06	-41.1	-44.8	12.6	9.15e-05	0	56	0	1133510656	53	5604
2026-01-05 11:25:41.62	328.00	8.78	-41.1	-44.8	12.5	1.37e-04	0	57	0	1140850688	53	5643
2026-01-05 11:25:45.66	328.38	8.51	-41.3	-45.3	12.0	2.41e-04	0	56	0	1148190720	53	5953
2026-01-05 11:25:49.70	328.76	8.23	-41.3	-45.5	11.8	5.07e-04	0	56	0	1156579328	53	6062
2026-01-05 11:25:53.74	329.13	7.96	-44.1	-57.5	3.8	2.37e-01	0	57	104	1163919360	58	18133
2026-01-05 11:25:57.78	329.49	7.69	-45.0	-59.7	3.8	1.49e+00	0	56	104	1163919360	60	20988
2026-01-05 11:26:01.83	329.85	7.42	-45.1	-59.9	3.8	1.49e+00	0	57	104	1163919360	60	21479
2026-01-05 11:26:05.87	330.20	7.16	-45.0	-59.9	3.8	1.49e+00	0	57	104	1163919360	60	21310
2026-01-05 11:26:09.92	330.55	6.89	-45.0	-59.8	3.8	1.49e+00	0	57	104	1163919360	60	21123
2026-01-05 11:26:13.96	330.88	6.63	-45.0	-59.8	3.8	1.49e+00	0	57	104	1163919360	60	21165
2026-01-05 11:26:18.00	331.22	6.37	-45.0	-59.8	3.8	1.49e+00	0	56	104	1163919360	60	21066
2026-01-05 11:26:22.05	331.55	6.11	-45.0	-59.8	3.8	1.49e+00	0	57	104	1163919360	60	21107
2026-01-05 11:26:26.09	331.87	5.86	-45.0	-59.8	3.8	1.49e+00	0	57	104	1163919360	60	21034
2026-01-05 11:26:30.13	332.19	5.60	-45.0	-59.8	3.8	1.49e+00	0	57	104	1163919360	60	21037
2026-01-05 11:26:34.18	332.50	5.35	-45.0	-59.8	3.8	1.49e+00	0	57	104	1163919360	60	21046
2026-01-05 11:26:38.22	332.81	5.10	-45.0	-59.8	3.8	1.49e+00	0	57	104	1163919360	60	21053
2026-01-05 11:26:42.27	333.11	4.85	-44.9	-59.8	3.8	1.49e+00	0	57	104	1163919360	60	21049
2026-01-05 11:26:46.31	333.41	4.60	-45.0	-59.8	3.8	1.49e+00	0	57	104	1163919360	60	21057
2026-01-05 11:26:50.35	333.70	4.36	-44.7	-59.7	3.8	1.49e+00	0	57	104	1163919360	60	21010
2026-01-05 11:26:54.40	333.99	4.11	-45.0	-59.8	3.8	1.49e+00	0	57	104	1163919360	60	21064
2026-01-05 11:26:58.44	334.27	3.87	-45.0	-59.8	3.8	1.49e+00	0	57	104	1163919360	60	21052
2026-01-05 11:27:02.49	334.55	3.63	-44.9	-59.7	3.8	1.49e+00	0	57	104	1163919360	60	21006
2026-01-05 11:27:06.53	334.83	3.39	-45.0	-59.7	3.8	1.49e+00	0	57	104	1163919360	60	21005
2026-01-05 11:27:10.58	335.10	3.15	-44.9	-59.7	3.8	1.49e+00	0	57	104	1163919360	60	20996
2026-01-05 11:27:14.62	335.37	2.92	-44.9	-59.8	3.8	1.49e+00	0	57	104	1163919360	60	21043
2026-01-05 11:27:18.66	335.63	2.68	-44.9	-59.7	3.8	1.49e+00	0	57	104	1163919360	60	21000
2026-01-05 11:27:22.71	335.89	2.45	-44.9	-59.8	3.8	1.49e+00	0	57	104	1163919360	60	21036
2026-01-05 11:27:26.75	336.15	2.22	-45.0	-59.7	3.8	1.49e+00	0	57	104	1163919360	60	20987
2026-01-05 11:27:30.80	336.40	1.99	-44.9	-59.7	3.8	1.49e+00	0	57	104	1163919360	60	20957

#Closed at: 2026-01-05 11:27:31
#Recorded file [1163 MB]: D:/lorett/data/31039_260105_141410.dat