passes_logs/2026/01/05/R2.0S_Moscow/R2.0S_Moscow__20260105_232332_NOAA_20_JPSS-1_rec.log

#Pass ID: 20260105_232332_NOAA 20 (JPSS-1)
#Satellite: NOAA 20 (JPSS-1)
#Configuration: NOAA 20
#almurnet v.1.7.20251203
#Start time: 2026-01-05 23:23:33

#Version: 2.2.20231116
#Station: R2.0S_Moscow
#Location: 37.707566 lon 55.798166 lat
#TLE: 1 43013U 17073A   26005.46207808  .00000128  00000+0  81791-4 0  9997
#TLE: 2 43013  98.7627 306.5027 0001826  53.0458 307.0885 14.19533487421381

#Time	Az	El	Level	Level2	SNR	BER	BlckErr	Temp	State	Recorded	gain1	gain2
2026-01-05 23:23:33.22	17.47	2.05	-40.8	-56.0	3.8	1.49e+00	0	48	0	0	53	20468
2026-01-05 23:23:37.26	17.54	2.31	-40.9	-56.0	3.8	1.49e+00	0	49	104	0	53	20421
2026-01-05 23:23:41.30	17.60	2.57	-40.8	-56.0	3.8	1.49e+00	0	49	104	0	53	20409
2026-01-05 23:23:45.34	17.67	2.83	-40.9	-56.0	3.8	1.49e+00	0	49	104	0	53	20440
2026-01-05 23:23:49.39	17.74	3.10	-40.8	-56.0	3.8	1.49e+00	0	50	104	0	53	20349
2026-01-05 23:23:53.43	17.81	3.36	-40.9	-56.0	3.8	1.49e+00	0	50	104	0	53	20443
2026-01-05 23:23:57.48	17.88	3.63	-40.8	-56.0	3.8	1.49e+00	0	50	104	0	53	20399
2026-01-05 23:24:01.52	17.95	3.91	-40.8	-56.0	3.8	1.49e+00	0	50	104	0	53	20420
2026-01-05 23:24:05.56	18.02	4.18	-40.8	-56.0	3.8	1.49e+00	0	50	104	0	53	20442
2026-01-05 23:24:09.61	18.10	4.46	-40.8	-56.0	3.8	1.49e+00	0	51	104	0	53	20419
2026-01-05 23:24:13.65	18.17	4.74	-40.8	-56.0	3.8	1.49e+00	0	51	104	0	53	20335
2026-01-05 23:24:17.70	18.25	5.03	-40.8	-56.0	3.8	1.49e+00	0	51	104	0	53	20379
2026-01-05 23:24:21.74	18.32	5.31	-40.8	-56.0	3.8	1.49e+00	0	51	104	0	53	20381
2026-01-05 23:24:25.78	18.40	5.60	-40.8	-56.0	3.8	1.49e+00	0	51	104	0	53	20318
2026-01-05 23:24:29.83	18.48	5.90	-40.9	-56.0	3.8	1.49e+00	0	52	104	0	53	20371
2026-01-05 23:24:33.87	18.56	6.19	-40.9	-56.0	3.8	1.49e+00	0	52	104	0	53	20366
2026-01-05 23:24:37.92	18.64	6.49	-40.8	-56.0	3.8	1.49e+00	0	52	104	0	53	20309
2026-01-05 23:24:41.96	18.73	6.80	-40.8	-55.9	3.8	1.49e+00	0	52	104	0	53	20196
2026-01-05 23:24:46.00	18.81	7.10	-40.8	-55.4	3.8	1.49e+00	0	52	104	0	53	19041
2026-01-05 23:24:50.05	18.90	7.42	-40.8	-55.0	3.8	1.49e+00	0	53	104	0	53	18214
2026-01-05 23:24:54.09	18.98	7.73	-40.7	-53.5	4.0	1.49e+00	0	53	104	0	53	15389
2026-01-05 23:24:58.14	19.07	8.05	-40.4	-49.9	5.3	6.22e-01	0	53	0	3145728	52	10734
2026-01-05 23:25:02.18	19.16	8.37	-40.5	-47.4	7.5	2.59e-01	0	53	0	9437184	52	8006
2026-01-05 23:25:06.21	19.26	8.70	-39.6	-43.0	13.7	3.80e-06	0	53	0	16777216	50	5417
2026-01-05 23:25:10.25	19.35	9.03	-40.1	-43.7	13.2	2.36e-05	0	53	0	24117248	50	5883
2026-01-05 23:25:14.29	19.45	9.36	-40.1	-43.5	13.5	9.90e-06	0	53	0	31457280	50	5753
2026-01-05 23:25:18.33	19.54	9.70	-40.0	-43.3	13.8	3.80e-06	0	53	0	38797312	50	5617
2026-01-05 23:25:22.37	19.64	10.05	-40.1	-43.2	14.0	2.20e-06	0	53	0	47185920	50	5582
2026-01-05 23:25:26.41	19.74	10.40	-40.1	-43.1	14.2	4.50e-06	0	54	0	54525952	51	5213
2026-01-05 23:25:30.45	19.85	10.75	-40.3	-43.3	14.1	1.50e-06	0	54	0	61865984	51	5296
2026-01-05 23:25:34.49	19.95	11.11	-40.1	-43.1	14.4	7.00e-07	0	54	0	69206016	51	5170
2026-01-05 23:25:38.52	20.06	11.47	-40.0	-42.8	14.8	0.00e+00	0	54	0	77594624	51	4993
2026-01-05 23:25:42.56	20.17	11.84	-39.9	-42.6	15.0	0.00e+00	0	54	0	84934656	51	4874
2026-01-05 23:25:46.60	20.28	12.22	-40.0	-42.7	15.0	0.00e+00	0	54	0	92274688	51	4957
2026-01-05 23:25:50.64	20.40	12.60	-39.9	-42.6	15.1	0.00e+00	0	54	0	99614720	51	4896
2026-01-05 23:25:54.68	20.51	12.99	-40.0	-42.7	15.1	0.00e+00	0	54	0	106954752	51	4944
2026-01-05 23:25:58.72	20.63	13.38	-40.2	-42.9	14.8	0.00e+00	0	54	0	115343360	51	5097
2026-01-05 23:26:02.75	20.76	13.78	-40.0	-42.7	15.1	0.00e+00	0	54	0	122683392	51	4964
2026-01-05 23:26:06.79	20.88	14.19	-40.1	-42.9	14.9	0.00e+00	0	54	0	130023424	51	5049
2026-01-05 23:26:10.84	21.01	14.61	-40.2	-42.9	14.9	0.00e+00	0	55	0	137363456	51	5090
2026-01-05 23:26:14.87	21.14	15.02	-40.2	-42.9	15.0	0.00e+00	0	55	0	144703488	51	5087
2026-01-05 23:26:18.91	21.28	15.45	-40.1	-42.7	15.2	0.00e+00	0	55	0	153092096	51	4968
2026-01-05 23:26:22.95	21.42	15.89	-40.2	-42.8	15.2	0.00e+00	0	55	0	160432128	51	5014
2026-01-05 23:26:26.99	21.56	16.33	-40.2	-42.9	15.1	0.00e+00	0	55	0	167772160	51	5065
2026-01-05 23:26:31.03	21.70	16.78	-40.5	-43.3	14.8	0.00e+00	0	55	0	175112192	51	5296
2026-01-05 23:26:35.07	21.85	17.24	-40.4	-43.1	14.9	7.00e-07	0	55	0	183500800	51	5207
2026-01-05 23:26:39.11	22.01	17.71	-40.3	-43.0	15.1	0.00e+00	0	55	0	190840832	51	5115
2026-01-05 23:26:43.15	22.17	18.19	-40.3	-43.0	15.1	7.00e-07	0	55	0	198180864	51	5106
2026-01-05 23:26:47.19	22.33	18.68	-40.3	-43.0	15.2	0.00e+00	0	55	0	205520896	51	5131
2026-01-05 23:26:51.23	22.50	19.17	-40.4	-43.0	15.2	0.00e+00	0	55	0	213909504	51	5150
2026-01-05 23:26:55.27	22.67	19.68	-40.5	-43.2	15.0	0.00e+00	0	55	0	221249536	51	5269
2026-01-05 23:26:59.31	22.85	20.20	-40.7	-43.5	14.7	0.00e+00	0	55	0	228589568	51	5439
2026-01-05 23:27:03.34	23.03	20.72	-40.7	-43.6	14.5	0.00e+00	0	55	0	235929600	52	5204
2026-01-05 23:27:07.38	23.22	21.26	-40.7	-43.5	14.7	0.00e+00	0	55	0	243269632	52	5108
2026-01-05 23:27:11.42	23.42	21.81	-40.6	-43.3	14.9	0.00e+00	0	55	0	251658240	52	4999
2026-01-05 23:27:15.46	23.62	22.38	-40.6	-43.3	14.9	0.00e+00	0	55	0	258998272	52	5022
2026-01-05 23:27:19.50	23.83	22.95	-40.6	-43.3	15.0	7.00e-07	0	56	0	266338304	52	5003
2026-01-05 23:27:23.54	24.05	23.54	-40.6	-43.3	15.0	7.00e-07	0	56	0	273678336	52	5023
2026-01-05 23:27:27.58	24.27	24.14	-40.5	-43.1	15.2	0.00e+00	0	56	0	282066944	52	4905
2026-01-05 23:27:31.62	24.50	24.75	-40.6	-43.3	15.0	0.00e+00	0	56	0	289406976	52	4984
2026-01-05 23:27:35.65	24.74	25.38	-40.4	-43.1	15.2	0.00e+00	0	56	0	296747008	52	4887
2026-01-05 23:27:39.69	25.00	26.03	-40.5	-43.1	15.1	0.00e+00	0	55	0	304087040	52	4924
2026-01-05 23:27:43.73	25.26	26.68	-40.4	-43.0	15.3	0.00e+00	0	56	0	311427072	52	4850
2026-01-05 23:27:47.78	25.53	27.36	-40.5	-43.1	15.3	0.00e+00	0	56	0	319815680	52	4876
2026-01-05 23:27:51.81	25.81	28.05	-40.3	-42.9	15.5	0.00e+00	0	56	0	327155712	52	4778
2026-01-05 23:27:55.85	26.10	28.76	-40.5	-43.2	15.2	0.00e+00	0	56	0	334495744	52	4930
2026-01-05 23:27:59.89	26.41	29.49	-40.9	-43.7	14.7	0.00e+00	0	56	0	341835776	52	5227
2026-01-05 23:28:03.93	26.73	30.23	-41.2	-44.2	14.2	1.50e-06	0	56	0	350224384	52	5578
2026-01-05 23:28:07.97	27.06	30.99	-41.6	-44.9	13.5	5.30e-06	0	56	0	357564416	53	5687
2026-01-05 23:28:12.01	27.41	31.78	-41.9	-45.5	12.8	4.11e-05	0	56	0	364904448	54	5757
2026-01-05 23:28:16.04	27.78	32.58	-41.8	-45.2	13.2	2.67e-05	0	56	0	372244480	54	5564
2026-01-05 23:28:20.08	28.17	33.40	-41.5	-44.6	13.8	8.30e-06	0	56	0	379584512	54	5197
2026-01-05 23:28:24.12	28.57	34.25	-41.5	-44.7	13.7	4.50e-06	0	56	0	387973120	54	5271
2026-01-05 23:28:28.16	29.00	35.12	-41.6	-44.8	13.7	7.00e-07	0	56	0	395313152	54	5288
2026-01-05 23:28:32.20	29.44	36.01	-41.7	-45.0	13.5	8.30e-06	0	56	0	402653184	54	5421
2026-01-05 23:28:36.24	29.92	36.92	-41.9	-45.5	12.9	3.28e-05	0	56	0	409993216	54	5736
2026-01-05 23:28:40.28	30.42	37.86	-42.1	-45.8	12.7	1.01e-04	0	56	0	418381824	54	5937
2026-01-05 23:28:44.32	30.94	38.82	-42.4	-46.4	12.0	1.81e-04	0	56	0	425721856	55	5998
2026-01-05 23:28:48.36	31.50	39.81	-42.5	-46.6	11.8	4.71e-04	0	56	0	433061888	55	6164
2026-01-05 23:28:52.40	32.10	40.83	-42.5	-46.6	11.8	4.44e-04	0	56	0	440401920	55	6152
2026-01-05 23:28:56.44	32.73	41.87	-42.3	-46.2	12.2	2.77e-04	0	56	0	447741952	55	5911
2026-01-05 23:29:00.47	33.40	42.93	-42.0	-45.5	13.0	4.50e-05	0	56	0	456130560	55	5418
2026-01-05 23:29:04.51	34.12	44.02	-42.2	-45.9	12.5	7.70e-05	0	56	0	463470592	55	5681
2026-01-05 23:29:08.55	34.89	45.14	-42.2	-46.0	12.4	1.68e-04	0	56	0	470810624	55	5754
2026-01-05 23:29:12.59	35.72	46.29	-42.0	-45.5	12.9	3.12e-05	0	56	0	478150656	55	5421
2026-01-05 23:29:16.62	36.61	47.46	-42.4	-46.2	12.2	1.81e-04	0	56	0	485490688	55	5906
2026-01-05 23:29:20.66	37.56	48.66	-42.2	-45.9	12.6	8.54e-05	0	57	0	493879296	55	5673
2026-01-05 23:29:24.69	38.60	49.88	-40.9	-43.6	14.9	0.00e+00	0	56	0	501219328	53	4898
2026-01-05 23:29:28.73	39.72	51.12	-40.0	-42.3	16.4	0.00e+00	0	56	0	508559360	51	4714
2026-01-05 23:29:32.77	40.93	52.39	-38.7	-40.6	18.0	0.00e+00	0	56	0	515899392	49	4341
2026-01-05 23:29:36.81	42.26	53.67	-38.0	-39.6	19.0	0.00e+00	0	57	0	524288000	48	4137
2026-01-05 23:29:40.85	43.71	54.98	-38.6	-40.4	18.1	0.00e+00	0	56	0	531628032	47	4798
2026-01-05 23:29:44.89	45.30	56.29	-39.8	-42.1	16.6	0.00e+00	0	56	0	538968064	50	4871
2026-01-05 23:29:48.93	47.04	57.62	-40.0	-42.2	16.5	0.00e+00	0	56	0	546308096	50	4962
2026-01-05 23:29:52.97	48.96	58.95	-40.0	-42.2	16.4	0.00e+00	0	57	0	553648128	51	4703
2026-01-05 23:29:57.01	51.09	60.27	-39.2	-41.2	17.4	0.00e+00	0	57	0	562036736	50	4429
2026-01-05 23:30:01.04	53.44	61.58	-38.9	-40.9	17.8	0.00e+00	0	57	0	569376768	49	4494
2026-01-05 23:30:05.08	56.05	62.88	-38.9	-40.8	17.8	0.00e+00	0	56	0	576716800	49	4470
2026-01-05 23:30:09.12	58.96	64.14	-39.8	-42.0	16.6	0.00e+00	0	56	0	584056832	50	4835
2026-01-05 23:30:13.16	62.20	65.36	-39.8	-42.0	16.6	0.00e+00	0	56	0	592445440	50	4832
2026-01-05 23:30:17.19	65.79	66.52	-40.2	-42.6	16.0	0.00e+00	0	57	0	599785472	51	4874
2026-01-05 23:30:21.23	69.79	67.60	-40.6	-43.3	15.3	0.00e+00	0	57	0	607125504	52	4985
2026-01-05 23:30:25.26	74.20	68.58	-41.3	-44.4	14.1	1.50e-06	0	57	0	614465536	53	5393
2026-01-05 23:30:29.30	79.05	69.45	-41.3	-44.4	14.1	1.50e-06	0	56	0	621805568	53	5370
2026-01-05 23:30:33.34	84.32	70.17	-40.9	-43.7	14.8	0.00e+00	0	57	0	630194176	53	4955
2026-01-05 23:30:37.38	89.97	70.73	-40.6	-43.3	15.1	0.00e+00	0	56	0	637534208	53	4751
2026-01-05 23:30:41.41	95.90	71.11	-39.5	-41.7	16.9	0.00e+00	0	56	0	644874240	51	4403
2026-01-05 23:30:45.45	102.04	71.29	-39.5	-41.7	16.9	0.00e+00	0	56	0	652214272	50	4660
2026-01-05 23:30:49.49	108.24	71.27	-39.3	-41.3	17.2	0.00e+00	0	57	0	660602880	50	4468
2026-01-05 23:30:53.53	114.35	71.05	-40.6	-43.2	15.4	0.00e+00	0	57	0	667942912	51	5257
2026-01-05 23:30:57.57	120.25	70.63	-40.6	-43.2	15.3	0.00e+00	0	57	0	675282944	52	4927
2026-01-05 23:31:01.61	125.82	70.03	-41.2	-44.2	14.2	0.00e+00	0	57	0	682622976	53	5230
2026-01-05 23:31:05.65	131.01	69.27	-40.9	-43.8	14.7	0.00e+00	0	57	0	689963008	53	4992
2026-01-05 23:31:09.69	135.77	68.38	-40.4	-43.0	15.5	0.00e+00	0	57	0	698351616	52	4816
2026-01-05 23:31:13.72	140.09	67.37	-41.6	-44.8	13.5	2.59e-05	0	57	0	705691648	54	5337
2026-01-05 23:31:17.76	144.01	66.27	-42.5	-46.6	11.7	2.20e-04	0	57	0	713031680	55	6176
2026-01-05 23:31:21.80	147.53	65.09	-40.9	-43.6	14.8	0.00e+00	0	57	0	720371712	53	4913
2026-01-05 23:31:25.84	150.70	63.86	-38.5	-40.3	18.3	0.00e+00	0	57	0	728760320	49	4219
2026-01-05 23:31:29.88	153.54	62.58	-37.4	-39.0	19.5	0.00e+00	0	57	0	736100352	46	4330
2026-01-05 23:31:33.92	156.10	61.28	-38.3	-40.1	18.5	0.00e+00	0	57	0	743440384	47	4608
2026-01-05 23:31:37.96	158.40	59.96	-39.0	-41.0	17.7	0.00e+00	0	57	0	750780416	48	4816
2026-01-05 23:31:41.99	160.48	58.63	-39.4	-41.5	17.2	0.00e+00	0	57	0	758120448	50	4547
2026-01-05 23:31:46.03	162.36	57.30	-40.4	-42.9	15.6	7.00e-07	0	57	0	766509056	52	4773
2026-01-05 23:31:50.07	164.07	55.97	-39.8	-42.1	16.6	0.00e+00	0	57	0	773849088	50	4894
2026-01-05 23:31:54.11	165.63	54.65	-38.4	-40.2	18.4	0.00e+00	0	57	0	781189120	48	4404
2026-01-05 23:31:58.15	167.05	53.35	-39.4	-41.5	17.1	0.00e+00	0	57	0	788529152	49	4831
2026-01-05 23:32:02.19	168.35	52.06	-38.9	-40.8	17.9	0.00e+00	0	57	0	796917760	48	4712
2026-01-05 23:32:06.23	169.55	50.79	-40.7	-43.7	14.4	0.00e+00	0	57	0	804257792	52	5242
2026-01-05 23:32:10.27	170.65	49.55	-41.3	-44.5	13.6	3.00e-06	0	57	0	811597824	53	5462
2026-01-05 23:32:14.30	171.66	48.33	-41.4	-44.6	13.8	6.79e-05	0	57	0	818937856	54	5205
2026-01-05 23:32:18.34	172.60	47.13	-40.7	-43.4	15.1	0.00e+00	0	57	0	826277888	52	5082
2026-01-05 23:32:22.38	173.48	45.96	-41.1	-44.1	14.3	6.10e-06	0	57	0	834666496	54	4890
2026-01-05 23:32:26.42	174.29	44.82	-39.2	-41.3	17.3	0.00e+00	0	57	0	842006528	50	4446
2026-01-05 23:32:30.46	175.05	43.70	-40.5	-43.2	15.3	0.00e+00	0	57	0	849346560	52	4934
2026-01-05 23:32:34.50	175.76	42.61	-39.4	-41.5	17.1	0.00e+00	0	57	0	856686592	50	4573
2026-01-05 23:32:38.53	176.42	41.55	-40.2	-42.7	15.7	0.00e+00	0	57	0	865075200	51	4975
2026-01-05 23:32:42.57	177.04	40.51	-41.4	-44.7	13.7	2.13e-05	0	57	0	872415232	54	5258
2026-01-05 23:32:46.62	177.63	39.49	-40.1	-42.4	16.1	0.00e+00	0	57	0	879755264	51	4805
2026-01-05 23:32:50.65	178.18	38.51	-41.6	-45.1	13.3	3.80e-06	0	57	0	887095296	53	5792
2026-01-05 23:32:54.69	178.70	37.55	-41.0	-44.0	14.3	2.20e-06	0	57	0	894435328	54	4864
2026-01-05 23:32:58.72	179.19	36.61	-39.8	-42.0	16.4	0.00e+00	0	57	0	902823936	51	4575
2026-01-05 23:33:02.76	179.65	35.70	-40.2	-42.7	15.8	0.00e+00	0	57	0	910163968	51	4945
2026-01-05 23:33:06.80	180.10	34.81	-40.7	-43.4	14.9	7.00e-07	0	57	0	917504000	52	5100
2026-01-05 23:33:10.83	180.51	33.95	-41.1	-44.2	14.1	5.30e-06	0	57	0	924844032	52	5583
2026-01-05 23:33:14.87	180.91	33.10	-40.7	-43.6	14.8	0.00e+00	0	57	0	932184064	53	4874
2026-01-05 23:33:18.92	181.29	32.28	-40.7	-43.5	14.7	7.00e-07	0	57	0	940572672	53	4869
2026-01-05 23:33:22.96	181.65	31.47	-41.3	-44.4	13.8	2.20e-06	0	57	0	947912704	53	5392
2026-01-05 23:33:27.00	182.00	30.69	-41.3	-44.6	13.7	1.06e-05	0	57	0	955252736	53	5477
2026-01-05 23:33:31.03	182.33	29.93	-41.0	-44.1	14.2	1.50e-06	0	57	0	962592768	53	5172
2026-01-05 23:33:35.07	182.64	29.19	-40.3	-42.9	15.3	0.00e+00	0	57	0	970981376	52	4792
2026-01-05 23:33:39.10	182.94	28.47	-39.8	-42.1	16.2	0.00e+00	0	57	0	978321408	51	4624
2026-01-05 23:33:43.14	183.23	27.76	-39.6	-41.8	16.5	0.00e+00	0	57	0	985661440	51	4464
2026-01-05 23:33:47.18	183.51	27.07	-39.6	-41.8	16.5	0.00e+00	0	57	0	993001472	51	4482
2026-01-05 23:33:51.22	183.78	26.39	-39.8	-42.1	16.1	0.00e+00	0	57	0	1000341504	51	4643
2026-01-05 23:33:55.26	184.03	25.74	-40.0	-42.4	15.9	0.00e+00	0	57	0	1008730112	51	4783
2026-01-05 23:33:59.30	184.28	25.09	-39.6	-41.9	16.3	0.00e+00	0	57	0	1016070144	51	4521
2026-01-05 23:34:03.34	184.52	24.47	-39.3	-41.5	16.7	0.00e+00	0	57	0	1023410176	50	4561
2026-01-05 23:34:07.38	184.75	23.85	-39.3	-41.5	16.7	0.00e+00	0	57	0	1030750208	50	4569
2026-01-05 23:34:11.42	184.97	23.25	-39.1	-41.2	17.0	0.00e+00	0	57	0	1039138816	50	4416
2026-01-05 23:34:15.45	185.18	22.67	-39.0	-41.1	17.1	0.00e+00	0	57	0	1046478848	50	4341
2026-01-05 23:34:19.49	185.38	22.09	-38.8	-40.8	17.3	0.00e+00	0	57	0	1053818880	49	4485
2026-01-05 23:34:23.53	185.58	21.53	-38.9	-41.0	17.2	0.00e+00	0	57	0	1061158912	49	4555
2026-01-05 23:34:27.58	185.77	20.98	-39.0	-41.0	17.1	0.00e+00	0	57	0	1069547520	49	4582
2026-01-05 23:34:31.61	185.96	20.44	-39.1	-41.1	17.0	0.00e+00	0	57	0	1076887552	49	4647
2026-01-05 23:34:35.65	186.14	19.92	-39.2	-41.3	16.8	0.00e+00	0	57	0	1084227584	49	4742
2026-01-05 23:34:39.69	186.31	19.40	-39.3	-41.5	16.6	0.00e+00	0	57	0	1091567616	49	4869
2026-01-05 23:34:43.73	186.48	18.89	-39.5	-41.7	16.4	0.00e+00	0	57	0	1098907648	49	4970
2026-01-05 23:34:47.77	186.65	18.40	-39.4	-41.7	16.4	0.00e+00	0	57	0	1107296256	49	4934
2026-01-05 23:34:51.81	186.80	17.91	-39.6	-41.9	16.2	0.00e+00	0	57	0	1114636288	49	5053
2026-01-05 23:34:55.85	186.96	17.44	-39.6	-41.8	16.2	0.00e+00	0	57	0	1121976320	49	5030
2026-01-05 23:34:59.89	187.11	16.97	-39.8	-42.1	16.0	0.00e+00	0	57	0	1129316352	50	4909
2026-01-05 23:35:03.93	187.26	16.51	-39.8	-42.2	15.9	0.00e+00	0	57	0	1137704960	50	4929
2026-01-05 23:35:07.97	187.40	16.06	-39.9	-42.3	15.8	0.00e+00	0	57	0	1145044992	50	5011
2026-01-05 23:35:12.00	187.53	15.61	-39.9	-42.4	15.7	0.00e+00	0	57	0	1152385024	50	5056
2026-01-05 23:35:16.04	187.67	15.18	-39.9	-42.3	15.7	0.00e+00	0	57	0	1159725056	50	5025
2026-01-05 23:35:20.08	187.80	14.75	-39.9	-42.4	15.7	0.00e+00	0	57	0	1167065088	50	5058
2026-01-05 23:35:24.12	187.93	14.33	-39.9	-42.3	15.7	0.00e+00	0	57	0	1175453696	50	5023
2026-01-05 23:35:28.16	188.05	13.92	-39.9	-42.4	15.6	0.00e+00	0	57	0	1182793728	50	5045
2026-01-05 23:35:32.20	188.17	13.51	-39.8	-42.3	15.7	0.00e+00	0	57	0	1190133760	50	4990
2026-01-05 23:35:36.24	188.29	13.11	-39.7	-42.2	15.8	0.00e+00	0	57	0	1197473792	50	4932
2026-01-05 23:35:40.28	188.41	12.72	-39.8	-42.2	15.7	0.00e+00	0	57	0	1205862400	50	4974
2026-01-05 23:35:44.32	188.52	12.33	-39.9	-42.4	15.5	0.00e+00	0	57	0	1213202432	50	5064
2026-01-05 23:35:48.36	188.63	11.95	-40.0	-42.5	15.4	0.00e+00	0	57	0	1220542464	50	5149
2026-01-05 23:35:52.39	188.74	11.57	-40.0	-42.6	15.2	0.00e+00	0	57	0	1227882496	50	5213
2026-01-05 23:35:56.43	188.84	11.20	-40.3	-43.1	14.7	0.00e+00	0	57	0	1235222528	51	5195
2026-01-05 23:36:00.47	188.95	10.84	-40.6	-43.5	14.3	1.50e-06	0	57	0	1243611136	51	5464
2026-01-05 23:36:04.51	189.05	10.48	-40.5	-43.5	14.2	1.50e-06	0	57	0	1250951168	52	5138
2026-01-05 23:36:08.55	189.15	10.13	-40.4	-43.4	14.3	1.50e-06	0	57	0	1258291200	52	5051
2026-01-05 23:36:12.58	189.24	9.78	-40.6	-43.7	13.9	1.50e-06	0	57	0	1265631232	52	5261
2026-01-05 23:36:16.62	189.34	9.43	-40.7	-44.0	13.6	4.50e-06	0	57	0	1274019840	52	5411
2026-01-05 23:36:20.67	189.43	9.09	-40.6	-43.9	13.7	4.50e-06	0	57	0	1281359872	52	5345
2026-01-05 23:36:24.71	189.52	8.76	-40.6	-43.7	13.8	2.20e-06	0	57	0	1288699904	52	5274
2026-01-05 23:36:28.75	189.61	8.43	-40.6	-43.9	13.5	6.80e-06	0	57	0	1296039936	52	5389
2026-01-05 23:36:32.77	189.70	8.10	-40.5	-43.8	13.6	3.00e-06	0	57	0	1303379968	52	5286
2026-01-05 23:36:36.81	189.78	7.78	-44.8	-59.5	3.8	1.49e+00	0	57	104	1307574272	60	20366
2026-01-05 23:36:40.85	189.87	7.46	-45.1	-59.8	3.8	1.49e+00	0	57	104	1307574272	60	21232
2026-01-05 23:36:44.90	189.95	7.14	-45.2	-59.9	3.8	1.49e+00	0	57	104	1307574272	61	20236
2026-01-05 23:36:48.94	190.03	6.83	-45.1	-59.9	3.8	1.49e+00	0	57	104	1307574272	61	20216
2026-01-05 23:36:52.98	190.11	6.53	-45.1	-59.9	3.8	1.49e+00	0	57	104	1307574272	61	20151
2026-01-05 23:36:57.03	190.19	6.22	-45.1	-59.9	3.8	1.49e+00	0	57	104	1307574272	61	20150
2026-01-05 23:37:01.07	190.27	5.92	-45.1	-59.9	3.8	1.49e+00	0	57	104	1307574272	61	20122
2026-01-05 23:37:05.12	190.34	5.63	-45.1	-59.9	3.8	1.49e+00	0	57	104	1307574272	61	20106
2026-01-05 23:37:09.16	190.41	5.33	-45.1	-59.9	3.8	1.49e+00	0	57	104	1307574272	61	20088
2026-01-05 23:37:13.20	190.49	5.04	-45.0	-59.9	3.8	1.49e+00	0	57	104	1307574272	61	20173
2026-01-05 23:37:17.25	190.56	4.75	-45.0	-59.9	3.8	1.49e+00	0	57	104	1307574272	61	20079
2026-01-05 23:37:21.29	190.63	4.47	-45.0	-59.9	3.8	1.49e+00	0	57	104	1307574272	60	21317
2026-01-05 23:37:25.34	190.70	4.19	-45.0	-59.8	3.8	1.49e+00	0	57	104	1307574272	60	21215
2026-01-05 23:37:29.38	190.77	3.91	-45.0	-59.8	3.8	1.49e+00	0	57	104	1307574272	60	21217
2026-01-05 23:37:33.43	190.83	3.63	-45.0	-59.8	3.8	1.49e+00	0	57	104	1307574272	60	21225
2026-01-05 23:37:37.47	190.90	3.36	-45.0	-59.8	3.8	1.49e+00	0	57	104	1307574272	60	21229
2026-01-05 23:37:41.51	190.96	3.09	-45.0	-59.8	3.8	1.49e+00	0	57	104	1307574272	60	21183
2026-01-05 23:37:45.56	191.03	2.82	-45.0	-59.8	3.8	1.49e+00	0	57	104	1307574272	60	21198
2026-01-05 23:37:49.60	191.09	2.56	-45.0	-59.8	3.8	1.49e+00	0	57	104	1307574272	60	21206
2026-01-05 23:37:53.65	191.15	2.30	-45.0	-59.8	3.8	1.49e+00	0	57	104	1307574272	60	21184
2026-01-05 23:37:57.69	191.22	2.04	-45.0	-59.8	3.8	1.49e+00	0	57	104	1307574272	60	21144

#Closed at: 2026-01-05 23:37:59
#Recorded file [1307 MB]: D:/lorett/data/31039_260106_022333.dat