passes_logs/2026/01/05/R2.0S_Moscow/R2.0S_Moscow__20260105_115312_FENGYUN_3D_rec.log

#Pass ID: 20260105_115312_FENGYUN 3D
#Satellite: FENGYUN 3D
#Configuration: FENGYUN 3D
#almurnet v.1.7.20251203
#Start time: 2026-01-05 11:53:13

#Version: 2.2.20231116
#Station: R2.0S_Moscow
#Location: 37.707566 lon 55.798166 lat
#TLE: 1 43010U 17072A   26004.50247883 -.00000063  00000+0 -78815-5 0  9998
#TLE: 2 43010  98.9915 336.1565 0001968 126.3752 233.7605 14.19691805421760

#Time	Az	El	Level	Level2	SNR	BER	BlckErr	Temp	State	Recorded	gain1	gain2
2026-01-05 11:53:13.19	158.72	2.03	-44.0	-55.5	3.8	8.47e-01	0	47	0	0	59	13692
2026-01-05 11:53:17.23	158.72	2.29	-43.9	-55.5	3.8	8.46e-01	0	47	104	0	59	13604
2026-01-05 11:53:21.27	158.72	2.55	-43.9	-55.5	3.8	8.46e-01	0	47	104	0	59	13612
2026-01-05 11:53:25.32	158.72	2.82	-43.9	-55.5	3.8	8.46e-01	0	48	104	0	59	13576
2026-01-05 11:53:29.36	158.72	3.09	-43.9	-55.4	3.8	8.45e-01	0	48	104	0	59	13554
2026-01-05 11:53:33.41	158.72	3.36	-43.9	-55.5	3.8	8.46e-01	0	48	104	0	59	13595
2026-01-05 11:53:37.45	158.72	3.64	-43.9	-55.4	3.8	8.46e-01	0	49	104	0	59	13524
2026-01-05 11:53:41.50	158.72	3.91	-43.9	-55.4	3.8	8.45e-01	0	49	104	0	59	13550
2026-01-05 11:53:45.54	158.72	4.19	-43.9	-55.4	3.8	8.46e-01	0	49	104	0	59	13549
2026-01-05 11:53:49.58	158.72	4.48	-43.9	-55.4	3.8	8.46e-01	0	49	104	0	59	13563
2026-01-05 11:53:53.63	158.71	4.76	-43.9	-55.4	3.8	8.46e-01	0	49	104	0	59	13509
2026-01-05 11:53:57.67	158.71	5.05	-43.9	-55.3	3.8	8.47e-01	0	50	104	0	59	13293
2026-01-05 11:54:01.72	158.71	5.34	-43.8	-54.9	3.8	8.46e-01	0	50	104	0	59	12747
2026-01-05 11:54:05.76	158.71	5.64	-43.9	-55.2	3.8	8.46e-01	0	50	104	0	59	13156
2026-01-05 11:54:09.81	158.71	5.94	-43.9	-55.0	3.8	8.46e-01	0	51	104	0	59	12847
2026-01-05 11:54:13.85	158.71	6.24	-43.9	-55.1	3.8	8.47e-01	0	51	104	0	59	12971
2026-01-05 11:54:17.89	158.70	6.55	-43.9	-55.2	3.8	8.47e-01	0	51	104	0	59	13119
2026-01-05 11:54:21.94	158.70	6.86	-43.7	-53.5	3.8	8.46e-01	0	51	104	0	59	10871
2026-01-05 11:54:25.98	158.70	7.17	-42.7	-48.6	5.8	6.93e-01	0	51	0	0	57	6902
2026-01-05 11:54:30.02	158.69	7.49	-40.6	-44.0	10.0	1.46e-02	0	51	0	23068672	53	5110
2026-01-05 11:54:34.07	158.69	7.81	-38.8	-41.2	12.9	9.04e-05	0	51	0	46137344	49	4659
2026-01-05 11:54:38.11	158.69	8.14	-38.3	-40.6	13.6	1.48e-05	0	52	0	69206016	47	4885
2026-01-05 11:54:42.15	158.68	8.47	-38.1	-40.4	13.7	9.10e-06	0	52	0	90177536	47	4760
2026-01-05 11:54:46.19	158.68	8.80	-37.3	-39.2	14.8	0.00e+00	0	52	0	113246208	46	4428
2026-01-05 11:54:50.23	158.67	9.14	-37.1	-38.9	15.2	0.00e+00	0	52	0	136314880	46	4285
2026-01-05 11:54:54.27	158.67	9.48	-37.1	-38.9	15.3	0.00e+00	0	52	0	158334976	46	4263
2026-01-05 11:54:58.31	158.66	9.83	-36.9	-38.7	15.5	0.00e+00	0	53	0	181403648	45	4402
2026-01-05 11:55:02.35	158.65	10.19	-36.7	-38.5	15.8	0.00e+00	0	53	0	204472320	45	4311
2026-01-05 11:55:06.39	158.65	10.54	-36.6	-38.4	15.9	0.00e+00	0	53	0	227540992	45	4268
2026-01-05 11:55:10.44	158.64	10.91	-36.5	-38.2	16.1	0.00e+00	0	53	0	249561088	45	4180
2026-01-05 11:55:14.48	158.63	11.28	-36.5	-38.2	16.2	0.00e+00	0	53	0	272629760	44	4435
2026-01-05 11:55:18.52	158.63	11.65	-36.5	-38.2	16.2	0.00e+00	0	53	0	294649856	44	4412
2026-01-05 11:55:22.56	158.62	12.03	-36.4	-38.1	16.4	0.00e+00	0	53	0	317718528	44	4348
2026-01-05 11:55:26.60	158.61	12.42	-36.4	-38.0	16.5	0.00e+00	0	53	0	340787200	44	4327
2026-01-05 11:55:30.64	158.60	12.81	-36.3	-37.9	16.7	0.00e+00	0	53	0	362807296	44	4254
2026-01-05 11:55:34.68	158.59	13.21	-36.1	-37.6	16.9	0.00e+00	0	53	0	385875968	44	4137
2026-01-05 11:55:38.72	158.58	13.62	-35.7	-37.2	17.2	0.00e+00	0	53	0	408944640	43	4169
2026-01-05 11:55:42.76	158.57	14.03	-35.5	-37.0	17.4	0.00e+00	0	54	0	432013312	43	4089
2026-01-05 11:55:46.80	158.55	14.45	-35.4	-36.9	17.6	0.00e+00	0	54	0	454033408	42	4270
2026-01-05 11:55:50.84	158.54	14.88	-35.3	-36.8	17.7	0.00e+00	0	54	0	477102080	42	4205
2026-01-05 11:55:54.87	158.53	15.32	-35.2	-36.7	17.8	0.00e+00	0	54	0	499122176	42	4164
2026-01-05 11:55:58.91	158.52	15.76	-35.1	-36.6	17.9	0.00e+00	0	54	0	522190848	42	4112
2026-01-05 11:56:02.95	158.50	16.21	-35.1	-36.5	18.0	0.00e+00	0	54	0	545259520	42	4089
2026-01-05 11:56:06.99	158.48	16.67	-34.9	-36.4	18.2	0.00e+00	0	54	0	567279616	41	4243
2026-01-05 11:56:11.02	158.47	17.14	-34.7	-36.0	18.4	0.00e+00	0	54	0	590348288	41	4094
2026-01-05 11:56:15.06	158.45	17.62	-34.5	-35.9	18.6	0.00e+00	0	54	0	613416960	41	4028
2026-01-05 11:56:19.11	158.43	18.10	-34.4	-35.7	18.8	0.00e+00	0	54	0	636485632	40	4180
2026-01-05 11:56:23.15	158.41	18.60	-34.2	-35.5	19.0	0.00e+00	0	54	0	658505728	40	4065
2026-01-05 11:56:27.19	158.39	19.11	-34.1	-35.5	19.0	0.00e+00	0	55	0	681574400	40	4060
2026-01-05 11:56:31.23	158.37	19.63	-34.2	-35.6	18.9	0.00e+00	0	54	0	703594496	40	4099
2026-01-05 11:56:35.27	158.35	20.16	-34.3	-35.7	18.8	0.00e+00	0	55	0	726663168	40	4152
2026-01-05 11:56:39.32	158.33	20.70	-34.3	-35.7	18.8	0.00e+00	0	54	0	749731840	40	4162
2026-01-05 11:56:43.36	158.30	21.25	-34.2	-35.6	18.9	0.00e+00	0	55	0	772800512	40	4105
2026-01-05 11:56:47.40	158.27	21.82	-34.0	-35.4	19.1	0.00e+00	0	55	0	794820608	40	4005
2026-01-05 11:56:51.44	158.25	22.40	-33.9	-35.3	19.3	0.00e+00	0	55	0	817889280	39	4195
2026-01-05 11:56:55.48	158.22	22.99	-33.9	-35.2	19.3	0.00e+00	0	55	0	840957952	39	4163
2026-01-05 11:56:59.52	158.19	23.59	-33.8	-35.1	19.4	0.00e+00	0	55	0	862978048	39	4111
2026-01-05 11:57:03.56	158.15	24.21	-33.6	-34.9	19.6	0.00e+00	0	55	0	886046720	39	4020
2026-01-05 11:57:07.60	158.12	24.85	-33.6	-34.9	19.7	0.00e+00	0	55	0	909115392	39	4015
2026-01-05 11:57:11.64	158.08	25.50	-33.7	-34.9	19.6	0.00e+00	0	55	0	931135488	39	4048
2026-01-05 11:57:15.68	158.05	26.16	-33.6	-34.8	19.7	0.00e+00	0	55	0	954204160	39	3999
2026-01-05 11:57:19.72	158.01	26.85	-33.5	-34.8	19.8	0.00e+00	0	55	0	977272832	39	3962
2026-01-05 11:57:23.76	157.96	27.55	-33.6	-34.8	19.7	0.00e+00	0	55	0	999292928	39	4002
2026-01-05 11:57:27.80	157.92	28.27	-33.6	-34.9	19.6	0.00e+00	0	55	0	1022361600	39	4028
2026-01-05 11:57:31.85	157.87	29.01	-33.7	-35.0	19.5	0.00e+00	0	55	0	1045430272	39	4075
2026-01-05 11:57:35.89	157.82	29.77	-33.5	-34.8	19.7	0.00e+00	0	55	0	1067450368	39	3971
2026-01-05 11:57:39.93	157.76	30.55	-33.1	-34.3	20.2	0.00e+00	0	55	0	1090519040	38	3997
2026-01-05 11:57:43.97	157.71	31.35	-32.9	-34.1	20.4	0.00e+00	0	55	0	1113587712	37	4125
2026-01-05 11:57:48.01	157.65	32.18	-33.0	-34.3	20.3	0.00e+00	0	55	0	1135607808	37	4208
2026-01-05 11:57:52.04	157.58	33.02	-33.3	-34.5	20.0	0.00e+00	0	55	0	1158676480	37	4331
2026-01-05 11:57:56.08	157.51	33.89	-33.0	-34.2	20.3	0.00e+00	0	55	0	1181745152	37	4188
2026-01-05 11:58:00.12	157.44	34.79	-32.9	-34.2	20.4	0.00e+00	0	56	0	1203765248	37	4149
2026-01-05 11:58:04.16	157.36	35.71	-32.8	-34.0	20.5	0.00e+00	0	55	0	1226833920	37	4054
2026-01-05 11:58:08.20	157.28	36.66	-32.8	-34.0	20.5	0.00e+00	0	55	0	1249902592	37	4059
2026-01-05 11:58:12.24	157.19	37.64	-32.7	-33.9	20.7	0.00e+00	0	55	0	1272971264	37	4012
2026-01-05 11:58:16.28	157.09	38.65	-32.7	-33.9	20.7	0.00e+00	0	56	0	1294991360	37	4014
2026-01-05 11:58:20.32	156.99	39.69	-33.5	-34.8	19.9	0.00e+00	0	56	0	1318060032	37	4443
2026-01-05 11:58:24.36	156.88	40.76	-33.8	-35.1	19.6	0.00e+00	0	56	0	1340080128	38	4369
2026-01-05 11:58:28.40	156.76	41.86	-33.4	-34.7	20.1	0.00e+00	0	56	0	1363148800	38	4160
2026-01-05 11:58:32.44	156.63	43.00	-33.2	-34.4	20.4	0.00e+00	0	56	0	1386217472	38	4029
2026-01-05 11:58:36.48	156.50	44.17	-33.3	-34.4	20.4	0.00e+00	0	56	0	1408237568	38	4048
2026-01-05 11:58:40.52	156.35	45.38	-33.3	-34.5	20.3	0.00e+00	0	56	0	1431306240	38	4083
2026-01-05 11:58:44.56	156.18	46.63	-32.9	-34.1	20.7	0.00e+00	0	56	0	1454374912	37	4122
2026-01-05 11:58:48.61	156.00	47.91	-33.2	-34.4	20.4	0.00e+00	0	56	0	1477443584	37	4272
2026-01-05 11:58:52.64	155.81	49.23	-33.6	-34.8	20.1	0.00e+00	0	56	0	1499463680	37	4482
2026-01-05 11:58:56.68	155.59	50.60	-33.9	-35.1	19.9	0.00e+00	0	56	0	1522532352	39	4122
2026-01-05 11:59:00.72	155.36	52.00	-34.6	-35.9	19.1	0.00e+00	0	56	0	1544552448	39	4540
2026-01-05 11:59:04.76	155.10	53.45	-34.3	-35.6	19.3	0.00e+00	0	56	0	1567621120	39	4353
2026-01-05 11:59:08.80	154.81	54.93	-34.6	-35.9	18.9	0.00e+00	0	56	0	1590689792	40	4289
2026-01-05 11:59:12.84	154.48	56.46	-33.9	-35.1	19.8	0.00e+00	0	56	0	1612709888	39	4140
2026-01-05 11:59:16.88	154.12	58.03	-33.4	-34.6	20.4	0.00e+00	0	56	0	1635778560	38	4107
2026-01-05 11:59:20.91	153.71	59.64	-33.3	-34.5	20.4	0.00e+00	0	56	0	1658847232	38	4067
2026-01-05 11:59:24.95	153.24	61.29	-33.4	-34.7	20.2	0.00e+00	0	56	0	1681915904	38	4156
2026-01-05 11:59:29.00	152.70	62.99	-32.9	-34.1	20.7	0.00e+00	0	56	0	1703936000	37	4106
2026-01-05 11:59:33.04	152.08	64.72	-32.6	-33.7	21.1	0.00e+00	0	56	0	1727004672	36	4173
2026-01-05 11:59:37.08	151.35	66.50	-32.5	-33.7	21.0	0.00e+00	0	56	0	1749024768	36	4164
2026-01-05 11:59:41.12	150.49	68.30	-32.2	-33.3	21.3	0.00e+00	0	56	0	1772093440	36	4000
2026-01-05 11:59:45.16	149.45	70.14	-31.1	-32.2	21.5	0.00e+00	0	56	0	1795162112	33	4192
2026-01-05 11:59:49.20	148.17	72.00	-31.2	-32.3	21.5	0.00e+00	0	56	0	1818230784	33	4240
2026-01-05 11:59:53.24	146.58	73.89	-30.9	-32.0	21.7	0.00e+00	0	56	0	1840250880	33	4066
2026-01-05 11:59:57.29	144.54	75.79	-30.9	-32.1	21.5	0.00e+00	0	56	0	1863319552	33	4107
2026-01-05 12:00:01.33	141.84	77.69	-30.3	-31.4	22.2	0.00e+00	0	56	0	1886388224	32	4026
2026-01-05 12:00:05.37	138.12	79.58	-29.7	-30.8	22.4	0.00e+00	0	56	0	1908408320	31	3992
2026-01-05 12:00:09.41	132.74	81.43	-29.5	-30.5	22.7	0.00e+00	0	56	0	1931476992	30	4079
2026-01-05 12:00:13.45	124.47	83.17	-29.4	-30.5	22.7	0.00e+00	0	56	0	1954545664	30	4063
2026-01-05 12:00:17.50	110.95	84.69	-30.1	-31.3	22.1	0.00e+00	0	56	0	1976565760	30	4442
2026-01-05 12:00:21.54	89.08	85.71	-30.4	-31.5	21.7	0.00e+00	0	56	0	1999634432	31	4332
2026-01-05 12:00:25.58	60.54	85.85	-30.4	-31.6	21.7	0.00e+00	0	56	0	2022703104	31	4344
2026-01-05 12:00:29.62	36.19	85.03	-30.3	-31.4	21.9	0.00e+00	0	56	0	2044723200	31	4280
2026-01-05 12:00:33.65	20.71	83.62	-29.8	-30.9	22.4	0.00e+00	0	56	0	2067791872	31	4031
2026-01-05 12:00:37.69	11.28	81.93	-29.7	-30.8	22.5	0.00e+00	0	56	0	2090860544	31	3979
2026-01-05 12:00:41.73	5.25	80.11	-29.5	-30.6	22.6	0.00e+00	0	56	0	2112880640	30	4101
2026-01-05 12:00:45.77	1.15	78.23	-29.9	-30.9	22.5	0.00e+00	0	56	0	2135949312	30	4283
2026-01-05 12:00:49.81	358.22	76.33	-30.4	-31.5	22.0	0.00e+00	0	56	0	2159017984	31	4315
2026-01-05 12:00:53.85	356.02	74.43	-30.5	-31.6	21.9	0.00e+00	0	56	0	2181038080	31	4364
2026-01-05 12:00:57.89	354.32	72.55	-30.9	-32.0	21.7	0.00e+00	0	56	0	2204106752	33	4097
2026-01-05 12:01:01.93	352.97	70.68	-31.4	-32.6	21.3	0.00e+00	0	56	0	2227175424	33	4354
2026-01-05 12:01:05.97	351.87	68.84	-31.5	-32.7	21.2	0.00e+00	0	56	0	2249195520	34	4147
2026-01-05 12:01:10.01	350.96	67.03	-31.5	-32.6	21.2	0.00e+00	0	56	0	2272264192	34	4136
2026-01-05 12:01:14.05	350.20	65.25	-31.5	-32.6	21.3	0.00e+00	0	56	0	2295332864	34	4117
2026-01-05 12:01:18.09	349.55	63.51	-31.6	-32.8	21.3	0.00e+00	0	56	0	2317352960	34	4200
2026-01-05 12:01:22.13	348.99	61.81	-31.9	-33.1	21.0	0.00e+00	0	56	0	2340421632	34	4341
2026-01-05 12:01:26.17	348.50	60.15	-32.3	-33.5	20.6	0.00e+00	0	56	0	2363490304	35	4296
2026-01-05 12:01:30.22	348.08	58.53	-32.7	-33.9	20.2	0.00e+00	0	56	0	2385510400	35	4542
2026-01-05 12:01:34.26	347.70	56.95	-33.7	-34.9	20.1	0.00e+00	0	56	0	2408579072	38	4274
2026-01-05 12:01:38.30	347.37	55.41	-34.3	-35.6	19.4	0.00e+00	0	56	0	2431647744	39	4341
2026-01-05 12:01:42.34	347.07	53.92	-34.1	-35.4	19.5	0.00e+00	0	56	0	2454716416	39	4263
2026-01-05 12:01:46.38	346.80	52.47	-34.1	-35.3	20.1	0.00e+00	0	56	0	2476736512	39	4207
2026-01-05 12:01:50.42	346.56	51.06	-33.6	-34.7	20.6	0.00e+00	0	56	0	2499805184	39	3944
2026-01-05 12:01:54.46	346.34	49.69	-32.9	-33.9	21.3	0.00e+00	0	56	0	2521825280	37	4045
2026-01-05 12:01:58.49	346.14	48.36	-33.0	-34.0	21.2	0.00e+00	0	56	0	2544893952	37	4096
2026-01-05 12:02:02.53	345.96	47.07	-33.1	-34.2	21.1	0.00e+00	0	56	0	2567962624	37	4147
2026-01-05 12:02:06.57	345.79	45.82	-33.2	-34.2	21.1	0.00e+00	0	56	0	2589982720	37	4187
2026-01-05 12:02:10.61	345.64	44.60	-32.9	-33.9	21.3	0.00e+00	0	56	0	2613051392	37	4043
2026-01-05 12:02:14.65	345.50	43.42	-33.3	-34.4	20.9	0.00e+00	0	56	0	2636120064	37	4262
2026-01-05 12:02:18.69	345.37	42.28	-33.1	-34.1	21.2	0.00e+00	0	56	0	2659188736	37	4127
2026-01-05 12:02:22.74	345.25	41.17	-32.7	-33.8	21.4	0.00e+00	0	56	0	2681208832	37	3960
2026-01-05 12:02:26.78	345.14	40.09	-32.7	-33.7	21.5	0.00e+00	0	56	0	2704277504	37	3949
2026-01-05 12:02:30.81	345.04	39.05	-32.2	-33.3	21.9	0.00e+00	0	56	0	2726297600	36	3962
2026-01-05 12:02:34.85	344.94	38.03	-32.2	-33.2	21.9	0.00e+00	0	56	0	2749366272	36	3929
2026-01-05 12:02:38.89	344.85	37.05	-32.9	-34.0	21.2	0.00e+00	0	56	0	2772434944	36	4307
2026-01-05 12:02:42.94	344.77	36.09	-32.9	-34.0	21.2	0.00e+00	0	56	0	2794455040	36	4323
2026-01-05 12:02:46.98	344.69	35.16	-32.5	-33.6	21.6	0.00e+00	0	56	0	2817523712	36	4105
2026-01-05 12:02:51.02	344.62	34.26	-32.7	-33.7	21.4	0.00e+00	0	56	0	2840592384	36	4173
2026-01-05 12:02:55.06	344.55	33.39	-33.1	-34.2	20.9	0.00e+00	0	56	0	2863661056	36	4400
2026-01-05 12:02:59.10	344.49	32.53	-33.4	-34.5	20.6	0.00e+00	0	56	0	2885681152	37	4325
2026-01-05 12:03:03.14	344.43	31.71	-33.3	-34.4	20.7	0.00e+00	0	56	0	2908749824	37	4253
2026-01-05 12:03:07.18	344.37	30.90	-33.0	-34.1	20.9	0.00e+00	0	56	0	2930769920	37	4131
2026-01-05 12:03:11.22	344.32	30.12	-33.0	-34.1	21.0	0.00e+00	0	56	0	2953838592	37	4113
2026-01-05 12:03:15.25	344.27	29.36	-33.1	-34.2	20.9	0.00e+00	0	56	0	2976907264	37	4156
2026-01-05 12:03:19.30	344.22	28.61	-33.0	-34.1	20.9	0.00e+00	0	56	0	2999975936	37	4122
2026-01-05 12:03:23.33	344.18	27.89	-32.8	-33.9	21.1	0.00e+00	0	57	0	3021996032	37	4031
2026-01-05 12:03:27.38	344.14	27.19	-32.8	-33.9	21.0	0.00e+00	0	56	0	3045064704	37	4021
2026-01-05 12:03:31.41	344.10	26.50	-33.0	-34.1	20.8	0.00e+00	0	56	0	3068133376	37	4126
2026-01-05 12:03:35.45	344.06	25.83	-33.3	-34.4	20.5	0.00e+00	0	56	0	3090153472	37	4288
2026-01-05 12:03:39.50	344.03	25.18	-33.4	-34.6	20.3	0.00e+00	0	56	0	3113222144	37	4361
2026-01-05 12:03:43.54	343.99	24.54	-33.4	-34.6	20.2	0.00e+00	0	56	0	3135242240	37	4347
2026-01-05 12:03:47.58	343.96	23.92	-33.6	-34.7	20.0	0.00e+00	0	56	0	3158310912	37	4435
2026-01-05 12:03:51.62	343.93	23.31	-33.7	-34.9	19.7	0.00e+00	0	56	0	3181379584	38	4262
2026-01-05 12:03:55.65	343.91	22.72	-34.0	-35.2	19.0	0.00e+00	0	56	0	3204448256	38	4427
2026-01-05 12:03:59.69	343.88	22.14	-33.5	-34.8	19.2	0.00e+00	0	56	0	3226468352	38	4197
2026-01-05 12:04:03.73	343.86	21.57	-34.1	-35.4	18.2	0.00e+00	0	57	0	3249537024	38	4527
2026-01-05 12:04:07.77	343.84	21.01	-37.4	-39.8	12.8	5.26e-05	0	56	0	3272605696	45	5008
2026-01-05 12:04:11.82	343.81	20.47	-39.8	-45.8	5.9	2.65e-01	0	56	0	3294625792	50	7520
2026-01-05 12:04:15.86	343.79	19.94	-40.3	-50.7	3.8	8.45e-01	0	56	104	3296722944	51	12422
2026-01-05 12:04:19.90	343.78	19.42	-40.6	-52.2	3.8	8.46e-01	0	57	104	3296722944	51	14762
2026-01-05 12:04:23.94	343.76	18.91	-40.5	-52.3	3.8	8.46e-01	0	56	104	3296722944	51	15049
2026-01-05 12:04:27.98	343.74	18.41	-40.5	-52.2	3.8	8.46e-01	0	56	104	3296722944	51	14793
2026-01-05 12:04:32.02	343.73	17.92	-40.5	-52.3	3.8	8.47e-01	0	57	104	3296722944	52	14147
2026-01-05 12:04:36.05	343.71	17.44	-40.1	-52.3	3.8	8.44e-01	0	57	104	3296722944	52	14158
2026-01-05 12:04:40.09	343.70	16.97	-40.7	-52.3	3.8	8.46e-01	0	56	104	3296722944	52	14115
2026-01-05 12:04:44.13	343.69	16.51	-40.3	-52.3	3.8	8.46e-01	0	57	104	3296722944	52	14132
2026-01-05 12:04:48.17	343.67	16.06	-40.5	-52.3	3.8	8.46e-01	0	57	104	3296722944	52	14118
2026-01-05 12:04:52.20	343.66	15.61	-40.7	-52.3	3.8	8.46e-01	0	57	104	3296722944	52	14143
2026-01-05 12:04:56.24	343.65	15.18	-40.3	-52.2	3.8	8.46e-01	0	57	104	3296722944	52	14024
2026-01-05 12:05:00.28	343.64	14.75	-40.3	-52.2	3.8	8.48e-01	0	57	104	3296722944	52	14035
2026-01-05 12:05:04.32	343.64	14.33	-40.6	-52.3	3.8	8.46e-01	0	57	104	3296722944	52	14092
2026-01-05 12:05:08.36	343.63	13.91	-40.4	-52.2	3.8	8.45e-01	0	57	104	3296722944	52	14007
2026-01-05 12:05:12.40	343.62	13.50	-40.5	-52.2	3.8	8.46e-01	0	57	104	3296722944	52	13938
2026-01-05 12:05:16.44	343.61	13.10	-40.5	-52.1	3.8	8.46e-01	0	57	104	3296722944	52	13876
2026-01-05 12:05:20.48	343.61	12.71	-40.4	-52.1	3.8	8.46e-01	0	57	104	3296722944	52	13791
2026-01-05 12:05:24.52	343.60	12.32	-40.4	-52.1	3.8	8.47e-01	0	57	104	3296722944	52	13786
2026-01-05 12:05:28.56	343.60	11.94	-40.4	-52.1	3.8	8.45e-01	0	57	104	3296722944	52	13852
2026-01-05 12:05:32.60	343.59	11.56	-40.6	-52.2	3.8	8.47e-01	0	57	104	3296722944	52	13998
2026-01-05 12:05:36.64	343.59	11.19	-40.4	-52.1	3.8	8.46e-01	0	57	104	3296722944	52	13829
2026-01-05 12:05:40.68	343.59	10.83	-40.4	-52.0	3.8	8.45e-01	0	57	104	3296722944	52	13590
2026-01-05 12:05:44.72	343.58	10.47	-40.3	-51.9	3.8	8.46e-01	0	57	104	3296722944	52	13529
2026-01-05 12:05:48.77	343.58	10.12	-40.4	-52.0	3.8	8.46e-01	0	57	104	3296722944	52	13659
2026-01-05 12:05:52.81	343.58	9.77	-40.2	-51.8	3.8	8.46e-01	0	57	104	3296722944	52	13296
2026-01-05 12:05:56.84	343.58	9.42	-40.6	-52.2	3.8	8.46e-01	0	57	104	3296722944	52	13932
2026-01-05 12:06:00.88	343.58	9.08	-40.3	-51.9	3.8	8.46e-01	0	57	104	3296722944	52	13496
2026-01-05 12:06:04.92	343.58	8.75	-40.4	-52.0	3.8	8.45e-01	0	57	104	3296722944	52	13710
2026-01-05 12:06:08.96	343.58	8.42	-40.4	-52.0	3.8	8.46e-01	0	57	104	3296722944	52	13620
2026-01-05 12:06:13.00	343.58	8.09	-40.5	-52.1	3.8	8.46e-01	0	57	104	3296722944	52	13785
2026-01-05 12:06:17.04	343.58	7.77	-41.9	-53.5	3.8	8.46e-01	0	57	104	3296722944	54	14467
2026-01-05 12:06:21.08	343.58	7.45	-45.1	-56.9	3.8	8.45e-01	0	57	104	3296722944	60	15162
2026-01-05 12:06:25.12	343.58	7.14	-45.1	-56.9	3.8	8.46e-01	0	57	104	3296722944	60	15195
2026-01-05 12:06:29.16	343.58	6.83	-45.0	-56.8	3.8	8.46e-01	0	57	104	3296722944	60	15030
2026-01-05 12:06:33.20	343.58	6.52	-44.9	-56.8	3.8	8.46e-01	0	57	104	3296722944	60	14960
2026-01-05 12:06:37.25	343.59	6.22	-44.9	-56.8	3.8	8.47e-01	0	57	104	3296722944	60	14900
2026-01-05 12:06:41.29	343.59	5.92	-44.9	-56.8	3.8	8.47e-01	0	57	104	3296722944	60	15005
2026-01-05 12:06:45.34	343.59	5.62	-44.9	-56.8	3.8	8.46e-01	0	57	104	3296722944	60	14950
2026-01-05 12:06:49.38	343.59	5.33	-44.9	-56.8	3.8	8.47e-01	0	57	104	3296722944	60	14888
2026-01-05 12:06:53.42	343.60	5.04	-44.9	-56.8	3.8	8.47e-01	0	57	104	3296722944	60	14893
2026-01-05 12:06:57.47	343.60	4.75	-44.9	-56.8	3.8	8.46e-01	0	57	104	3296722944	60	14918
2026-01-05 12:07:01.51	343.61	4.47	-44.9	-56.7	3.8	8.46e-01	0	57	104	3296722944	60	14879
2026-01-05 12:07:05.56	343.61	4.19	-44.9	-56.8	3.8	8.47e-01	0	57	104	3296722944	60	14899
2026-01-05 12:07:09.60	343.62	3.91	-44.9	-56.7	3.8	8.46e-01	0	57	104	3296722944	60	14840
2026-01-05 12:07:13.64	343.62	3.64	-44.9	-56.7	3.8	8.46e-01	0	57	104	3296722944	60	14845
2026-01-05 12:07:17.69	343.63	3.36	-44.9	-56.7	3.8	8.45e-01	0	57	104	3296722944	60	14854
2026-01-05 12:07:21.73	343.63	3.09	-44.9	-56.8	3.8	8.46e-01	0	57	104	3296722944	60	14910
2026-01-05 12:07:25.78	343.64	2.83	-44.9	-56.7	3.8	8.46e-01	0	57	104	3296722944	60	14867
2026-01-05 12:07:29.82	343.64	2.56	-44.9	-56.8	3.8	8.46e-01	0	57	104	3296722944	60	14902
2026-01-05 12:07:33.86	343.65	2.30	-44.9	-56.7	3.8	8.46e-01	0	57	104	3296722944	60	14877
2026-01-05 12:07:37.91	343.65	2.04	-44.8	-56.7	3.8	8.47e-01	0	57	104	3296722944	60	14871

#Closed at: 2026-01-05 12:07:39
#Recorded file [3296 MB]: D:/lorett/data/31039_260105_145313.dat