passes_logs/2026/01/10/R4.6S_Anadyr/R4.6S_Anadyr__20260110_125742_SUOMI_NPP_rec.log

#Pass ID: 20260110_125742_SUOMI NPP
#Satellite: SUOMI NPP
#Configuration: NPP
#almurnet v.1.7.20251203
#Start time: 2026-01-10 12:57:45

#Version: 2.2.20231116
#Station: R4.6S_Anadyr
#Location: 177.4865 lon 64.73178 lat
#TLE: 1 37849U 11061A   26009.81756760  .00000113  00000+0  74747-4 0  9994
#TLE: 2 37849  98.7806 311.9110 0002525  72.5604 287.5848 14.19524046735974

#Time	Az	El	Level	Level2	SNR	BER	BlckErr	Temp	State	Recorded	gain1	gain2
2026-01-10 12:57:45.47	18.93	0.15	-48.2	-60.7	3.5	1.52e+00	0	28	0	0	60	37976
2026-01-10 12:57:49.51	19.17	0.36	-48.2	-63.5	3.6	1.51e+00	0	29	104	0	60	53875
2026-01-10 12:57:53.55	19.41	0.58	-48.3	-63.5	3.6	1.51e+00	0	29	104	0	60	54237
2026-01-10 12:57:57.59	19.66	0.80	-48.2	-63.4	3.6	1.51e+00	0	29	104	0	60	53173
2026-01-10 12:58:01.63	19.91	1.02	-47.7	-62.8	3.6	1.51e+00	0	29	104	0	60	50180
2026-01-10 12:58:05.66	20.17	1.24	-46.7	-61.7	3.6	1.51e+00	0	29	104	0	60	44151
2026-01-10 12:58:09.70	20.42	1.46	-46.6	-61.8	3.6	1.51e+00	0	29	104	0	60	44308
2026-01-10 12:58:13.74	20.68	1.68	-46.6	-61.8	3.6	1.51e+00	0	29	104	0	60	44250
2026-01-10 12:58:17.78	20.95	1.90	-46.6	-61.6	3.6	1.51e+00	0	29	104	0	60	43552
2026-01-10 12:58:21.81	21.22	2.13	-46.6	-61.7	3.6	1.51e+00	0	30	104	0	60	44045
2026-01-10 12:58:25.85	21.49	2.35	-46.6	-60.9	3.6	1.51e+00	0	30	104	0	60	39872
2026-01-10 12:58:29.90	21.77	2.58	-46.6	-60.5	3.6	1.51e+00	0	30	104	0	60	38346
2026-01-10 12:58:33.93	22.05	2.81	-43.5	-46.6	14.2	3.07e-04	0	30	0	4194304	60	7692
2026-01-10 12:58:37.97	22.33	3.04	-39.8	-41.4	19.1	0.00e+00	0	30	0	11534336	54	5972
2026-01-10 12:58:42.02	22.62	3.27	-42.9	-45.6	15.1	0.00e+00	92	30	0	18874368	58	7714
2026-01-10 12:58:46.05	22.91	3.51	-46.5	-60.3	3.6	7.08e-01	0	30	104	25165824	60	37317
2026-01-10 12:58:50.09	23.21	3.74	-41.6	-43.6	16.9	0.00e+00	27	30	0	29360128	56	6881
2026-01-10 12:58:54.13	23.51	3.98	-41.3	-43.2	17.4	0.00e+00	0	30	0	36700160	56	6581
2026-01-10 12:58:58.16	23.82	4.21	-40.3	-41.9	19.3	0.00e+00	92	30	0	44040192	54	6324
2026-01-10 12:59:02.20	24.13	4.45	-39.0	-40.3	20.5	0.00e+00	0	30	0	52428800	52	5934
2026-01-10 12:59:06.24	24.44	4.69	-38.9	-40.1	20.6	0.00e+00	0	30	0	59768832	52	5799
2026-01-10 12:59:10.28	24.76	4.94	-38.8	-40.0	20.7	0.00e+00	40	30	0	67108864	50	6411
2026-01-10 12:59:14.32	25.09	5.18	-38.8	-40.0	20.7	0.00e+00	46	30	0	74448896	50	6446
2026-01-10 12:59:18.36	25.42	5.42	-38.8	-40.1	20.7	0.00e+00	0	30	0	82837504	50	6487
2026-01-10 12:59:22.40	25.76	5.67	-38.8	-40.0	20.8	0.00e+00	0	30	0	90177536	50	6430
2026-01-10 12:59:26.44	26.10	5.92	-38.8	-40.0	20.9	0.00e+00	32	30	0	97517568	50	6416
2026-01-10 12:59:30.48	26.44	6.17	-38.6	-39.7	20.9	0.00e+00	0	30	0	104857600	50	6231
2026-01-10 12:59:34.51	26.80	6.42	-38.6	-39.8	21.1	0.00e+00	0	30	0	112197632	50	6285
2026-01-10 12:59:38.55	27.15	6.67	-38.7	-39.9	21.1	0.00e+00	0	30	0	120586240	50	6323
2026-01-10 12:59:42.59	27.52	6.93	-39.1	-40.3	20.7	0.00e+00	44	30	0	127926272	50	6653
2026-01-10 12:59:46.63	27.89	7.18	-39.0	-40.2	20.7	0.00e+00	0	30	0	135266304	50	6613
2026-01-10 12:59:50.67	28.27	7.44	-39.2	-40.4	20.6	0.00e+00	0	30	0	142606336	50	6748
2026-01-10 12:59:54.70	28.65	7.70	-38.4	-39.5	21.4	0.00e+00	35	30	0	150994944	50	6060
2026-01-10 12:59:58.74	29.04	7.96	-38.1	-39.2	21.8	0.00e+00	92	30	0	158334976	50	5886
2026-01-10 13:00:02.78	29.44	8.22	-37.8	-38.8	22.0	0.00e+00	0	30	0	165675008	50	5616
2026-01-10 13:00:06.82	29.84	8.49	-38.0	-39.0	21.9	0.00e+00	0	30	0	173015040	50	5749
2026-01-10 13:00:10.85	30.25	8.75	-38.1	-39.1	21.8	0.00e+00	62	30	0	180355072	50	5816
2026-01-10 13:00:14.90	30.67	9.02	-38.2	-39.3	21.7	0.00e+00	0	30	0	188743680	50	5914
2026-01-10 13:00:18.93	31.09	9.29	-38.6	-39.7	21.4	0.00e+00	0	30	0	196083712	50	6208
2026-01-10 13:00:22.97	31.52	9.56	-38.6	-39.7	21.4	0.00e+00	0	30	0	203423744	50	6235
2026-01-10 13:00:27.01	31.96	9.83	-38.6	-39.7	21.3	0.00e+00	48	30	0	210763776	50	6220
2026-01-10 13:00:31.05	32.41	10.10	-38.5	-39.7	21.5	0.00e+00	0	30	0	219152384	50	6184
2026-01-10 13:00:35.09	32.87	10.38	-38.6	-39.7	21.3	0.00e+00	0	30	0	226492416	50	6240
2026-01-10 13:00:39.12	33.33	10.65	-38.5	-39.6	21.6	0.00e+00	0	30	0	233832448	50	6160
2026-01-10 13:00:43.16	33.80	10.93	-37.9	-38.9	22.1	0.00e+00	65	30	0	241172480	50	5695
2026-01-10 13:00:47.20	34.29	11.21	-37.6	-38.6	22.4	0.00e+00	0	30	0	248512512	48	6127
2026-01-10 13:00:51.24	34.78	11.49	-37.6	-38.6	21.9	0.00e+00	0	30	0	256901120	48	6152
2026-01-10 13:00:55.28	35.28	11.78	-37.1	-38.1	22.8	0.00e+00	20	30	0	264241152	48	5762
2026-01-10 13:00:59.32	35.78	12.06	-37.1	-38.0	23.0	0.00e+00	0	30	0	271581184	48	5736
2026-01-10 13:01:03.36	36.30	12.34	-37.2	-38.2	22.9	0.00e+00	0	30	0	278921216	48	5859
2026-01-10 13:01:07.40	36.83	12.63	-37.1	-38.1	23.0	0.00e+00	0	30	0	287309824	48	5797
2026-01-10 13:01:11.44	37.37	12.92	-37.3	-38.3	22.7	0.00e+00	92	30	0	294649856	48	5904
2026-01-10 13:01:15.48	37.92	13.21	-37.5	-38.4	22.5	0.00e+00	0	30	0	301989888	48	6024
2026-01-10 13:01:19.52	38.48	13.50	-37.5	-38.5	22.5	0.00e+00	0	30	0	309329920	48	6098
2026-01-10 13:01:23.56	39.05	13.79	-37.3	-38.3	22.8	0.00e+00	0	30	0	316669952	48	5899
2026-01-10 13:01:27.60	39.63	14.08	-37.2	-38.1	23.0	0.00e+00	90	30	0	325058560	48	5816
2026-01-10 13:01:31.63	40.22	14.37	-36.8	-37.7	23.3	0.00e+00	0	30	0	332398592	46	6230
2026-01-10 13:01:35.67	40.82	14.66	-36.5	-37.4	23.5	0.00e+00	0	30	0	339738624	46	5994
2026-01-10 13:01:39.71	41.44	14.96	-36.5	-37.4	23.4	0.00e+00	42	30	0	347078656	46	5979
2026-01-10 13:01:43.75	42.06	15.25	-36.5	-37.4	23.5	0.00e+00	0	30	0	355467264	46	6005
2026-01-10 13:01:47.78	42.70	15.55	-36.9	-37.8	23.2	0.00e+00	0	30	0	362807296	46	6292
2026-01-10 13:01:51.82	43.35	15.84	-36.9	-37.9	23.2	0.00e+00	0	30	0	370147328	46	6323
2026-01-10 13:01:55.86	44.02	16.14	-37.1	-38.1	23.0	0.00e+00	44	30	0	377487360	46	6475
2026-01-10 13:01:59.90	44.69	16.43	-37.0	-37.9	23.2	0.00e+00	0	30	0	384827392	46	6352
2026-01-10 13:02:03.94	45.38	16.73	-36.3	-37.1	23.8	0.00e+00	0	30	0	393216000	46	5816
2026-01-10 13:02:07.97	46.08	17.02	-36.1	-37.0	23.8	0.00e+00	0	30	0	400556032	46	5706
2026-01-10 13:02:12.01	46.80	17.31	-35.9	-36.7	24.2	0.00e+00	90	31	0	407896064	46	5563
2026-01-10 13:02:16.05	47.53	17.61	-36.0	-36.8	24.0	0.00e+00	0	30	0	415236096	46	5624
2026-01-10 13:02:20.09	48.27	17.90	-36.1	-37.0	23.8	0.00e+00	0	30	0	423624704	46	5704
2026-01-10 13:02:24.13	49.03	18.19	-36.1	-36.9	24.0	0.00e+00	32	30	0	430964736	46	5678
2026-01-10 13:02:28.17	49.80	18.48	-36.5	-37.4	23.5	0.00e+00	87	31	0	438304768	46	6030
2026-01-10 13:02:32.20	50.59	18.77	-36.5	-37.4	23.6	0.00e+00	0	31	0	445644800	46	5994
2026-01-10 13:02:36.24	51.39	19.05	-36.5	-37.4	23.1	0.00e+00	0	30	0	452984832	46	6012
2026-01-10 13:02:40.28	52.21	19.34	-36.1	-36.9	24.0	0.00e+00	40	31	0	461373440	46	5683
2026-01-10 13:02:44.32	53.04	19.62	-36.2	-37.1	23.8	0.00e+00	0	30	0	468713472	46	5779
2026-01-10 13:02:48.35	53.88	19.89	-37.3	-38.2	23.1	0.00e+00	0	30	0	476053504	46	6598
2026-01-10 13:02:52.40	54.74	20.17	-37.1	-38.0	23.2	0.00e+00	0	30	0	483393536	46	6452
2026-01-10 13:02:56.43	55.62	20.44	-37.3	-38.3	22.9	0.00e+00	38	30	0	491782144	46	6636
2026-01-10 13:03:00.47	56.51	20.71	-36.6	-37.5	23.6	0.00e+00	0	31	0	499122176	46	6042
2026-01-10 13:03:04.51	57.42	20.97	-38.1	-39.2	22.2	0.00e+00	0	31	0	506462208	48	6609
2026-01-10 13:03:08.55	58.34	21.23	-37.1	-38.0	23.3	0.00e+00	0	31	0	513802240	48	5735
2026-01-10 13:03:12.59	59.27	21.49	-36.8	-37.7	23.4	0.00e+00	89	31	0	521142272	46	6219
2026-01-10 13:03:16.63	60.23	21.74	-36.5	-37.3	23.4	0.00e+00	0	30	0	529530880	46	5956
2026-01-10 13:03:20.67	61.19	21.98	-37.2	-38.2	23.1	0.00e+00	0	31	0	536870912	46	6554
2026-01-10 13:03:24.71	62.17	22.22	-35.9	-36.7	24.2	0.00e+00	45	31	0	544210944	46	5538
2026-01-10 13:03:28.76	63.17	22.45	-36.4	-37.3	23.6	0.00e+00	1	31	0	551550976	46	5945
2026-01-10 13:03:32.79	64.18	22.67	-37.8	-38.8	22.7	0.00e+00	0	31	0	559939584	46	7011
2026-01-10 13:03:36.83	65.21	22.89	-36.8	-37.7	23.4	0.00e+00	0	31	0	567279616	48	5530
2026-01-10 13:03:40.87	66.25	23.10	-37.5	-38.5	22.9	0.00e+00	41	31	0	574619648	46	6770
2026-01-10 13:03:44.91	67.30	23.30	-38.0	-39.1	22.5	0.00e+00	0	31	0	581959680	48	6466
2026-01-10 13:03:48.95	68.36	23.49	-37.7	-38.7	22.7	0.00e+00	0	31	0	589299712	48	6223
2026-01-10 13:03:52.98	69.44	23.68	-37.9	-38.9	22.6	0.00e+00	0	31	0	597688320	48	6348
2026-01-10 13:03:57.02	70.53	23.85	-40.7	-42.2	19.7	0.00e+00	91	31	0	605028352	52	7380
2026-01-10 13:04:01.04	71.63	24.02	-39.2	-40.4	21.3	0.00e+00	0	31	0	612368384	52	5999
2026-01-10 13:04:05.08	72.74	24.17	-39.4	-40.6	21.2	0.00e+00	0	31	0	619708416	52	6107
2026-01-10 13:04:09.12	73.86	24.32	-38.5	-39.5	21.9	0.00e+00	46	31	0	627048448	50	6102
2026-01-10 13:04:13.15	75.00	24.45	-39.4	-40.6	21.1	0.00e+00	92	31	0	635437056	50	6920
2026-01-10 13:04:17.19	76.14	24.58	-39.1	-40.3	21.3	0.00e+00	0	31	0	642777088	52	5961
2026-01-10 13:04:21.23	77.29	24.69	-37.6	-38.5	22.8	0.00e+00	0	31	0	650117120	48	6088
2026-01-10 13:04:25.27	78.45	24.79	-36.4	-37.3	23.7	0.00e+00	44	31	0	657457152	46	5925
2026-01-10 13:04:29.31	79.62	24.88	-37.3	-39.0	18.2	0.00e+00	0	31	0	665845760	48	6464
2026-01-10 13:04:33.35	80.79	24.96	-37.2	-38.1	23.1	0.00e+00	0	31	0	673185792	48	5820
2026-01-10 13:04:37.39	81.97	25.02	-37.7	-38.7	22.6	0.00e+00	0	31	0	680525824	48	6203
2026-01-10 13:04:41.43	83.15	25.07	-37.8	-38.8	22.5	0.00e+00	59	31	0	687865856	48	6288
2026-01-10 13:04:45.46	84.33	25.11	-35.9	-36.7	24.2	0.00e+00	0	31	0	695205888	46	5535
2026-01-10 13:04:49.50	85.52	25.14	-36.8	-37.7	23.4	0.00e+00	0	31	0	703594496	46	6237
2026-01-10 13:04:53.54	86.71	25.15	-36.5	-37.4	23.6	0.00e+00	0	31	0	710934528	46	6003
2026-01-10 13:04:57.58	87.90	25.15	-37.0	-37.9	23.2	0.00e+00	84	31	0	718274560	46	6366
2026-01-10 13:05:01.62	89.09	25.14	-37.8	-38.9	22.5	0.00e+00	0	31	0	725614592	48	6319
2026-01-10 13:05:05.65	90.28	25.12	-37.2	-38.2	23.0	0.00e+00	0	31	0	734003200	48	5848
2026-01-10 13:05:09.69	91.47	25.08	-36.6	-37.5	23.5	0.00e+00	43	31	0	741343232	46	6070
2026-01-10 13:05:13.73	92.65	25.03	-37.0	-37.9	23.2	0.00e+00	82	31	0	748683264	46	6378
2026-01-10 13:05:17.76	93.83	24.97	-36.8	-37.7	23.4	0.00e+00	0	31	0	756023296	46	6224
2026-01-10 13:05:21.80	95.00	24.90	-36.0	-36.8	24.0	0.00e+00	0	31	0	763363328	46	5620
2026-01-10 13:05:25.84	96.17	24.81	-35.6	-36.4	24.2	0.00e+00	91	31	0	771751936	44	6032
2026-01-10 13:05:29.88	97.33	24.71	-35.9	-36.8	24.0	0.00e+00	0	31	0	779091968	44	6249
2026-01-10 13:05:33.92	98.49	24.60	-35.9	-36.7	24.0	0.00e+00	0	31	0	786432000	44	6219
2026-01-10 13:05:37.96	99.64	24.48	-35.5	-36.3	24.5	0.00e+00	0	31	0	793772032	44	5919
2026-01-10 13:05:42.00	100.77	24.35	-35.5	-36.3	24.3	0.00e+00	92	31	0	802160640	44	5959
2026-01-10 13:05:46.04	101.90	24.20	-34.8	-35.6	25.0	0.00e+00	0	31	0	809500672	44	5456
2026-01-10 13:05:50.08	103.02	24.05	-34.8	-35.5	25.0	0.00e+00	0	31	0	816840704	42	6091
2026-01-10 13:05:54.11	104.12	23.88	-34.7	-35.5	24.9	0.00e+00	41	31	0	824180736	42	6083
2026-01-10 13:05:58.15	105.22	23.71	-34.6	-35.4	25.0	0.00e+00	92	31	0	831520768	42	5968
2026-01-10 13:06:02.19	106.30	23.53	-34.7	-35.5	25.1	0.00e+00	0	30	0	839909376	42	6084
2026-01-10 13:06:06.23	107.37	23.34	-34.2	-34.9	25.4	0.00e+00	0	31	0	847249408	42	5676
2026-01-10 13:06:10.26	108.43	23.13	-34.8	-35.6	25.0	0.00e+00	45	31	0	854589440	42	6136
2026-01-10 13:06:14.30	109.47	22.93	-34.4	-35.1	25.2	0.00e+00	0	30	0	861929472	42	5804
2026-01-10 13:06:18.34	110.50	22.71	-34.5	-35.2	25.1	0.00e+00	0	30	0	870318080	42	5892
2026-01-10 13:06:22.38	111.52	22.48	-35.0	-35.8	24.5	0.00e+00	0	30	0	877658112	42	6314
2026-01-10 13:06:26.42	112.52	22.25	-35.3	-36.1	24.6	0.00e+00	92	30	0	884998144	42	6492
2026-01-10 13:06:30.45	113.51	22.02	-35.6	-36.5	24.3	0.00e+00	0	30	0	892338176	42	6800
2026-01-10 13:06:34.49	114.48	21.77	-35.5	-36.4	24.2	0.00e+00	0	30	0	899678208	44	5967
2026-01-10 13:06:38.54	115.44	21.52	-35.3	-36.2	24.4	0.00e+00	0	30	0	908066816	44	5835
2026-01-10 13:06:42.57	116.38	21.27	-36.9	-37.9	23.3	0.00e+00	92	30	0	915406848	46	6330
2026-01-10 13:06:46.61	117.31	21.01	-34.9	-35.7	24.8	0.00e+00	0	30	0	922746880	44	5564
2026-01-10 13:06:50.65	118.22	20.74	-35.3	-36.1	24.5	0.00e+00	0	30	0	930086912	42	6529
2026-01-10 13:06:54.69	119.12	20.48	-36.4	-37.3	23.6	0.00e+00	17	30	0	938475520	44	6674
2026-01-10 13:06:58.72	120.00	20.20	-36.5	-37.4	23.5	0.00e+00	87	30	0	945815552	44	6707
2026-01-10 13:07:02.76	120.87	19.93	-36.1	-37.0	23.7	0.00e+00	0	30	0	953155584	44	6452
2026-01-10 13:07:06.80	121.72	19.65	-37.0	-38.0	23.1	0.00e+00	0	30	0	960495616	46	6408
2026-01-10 13:07:10.84	122.55	19.37	-36.6	-37.5	23.5	0.00e+00	92	30	0	967835648	46	6076
2026-01-10 13:07:14.88	123.38	19.08	-35.5	-36.3	24.2	0.00e+00	0	30	0	976224256	44	5963
2026-01-10 13:07:18.91	124.18	18.79	-37.1	-38.1	23.1	0.00e+00	0	30	0	983564288	46	6504
2026-01-10 13:07:22.95	124.97	18.50	-36.4	-37.2	23.6	0.00e+00	0	30	0	990904320	46	5884
2026-01-10 13:07:26.99	125.75	18.21	-36.9	-37.9	23.1	0.00e+00	31	30	0	998244352	46	6351
2026-01-10 13:07:31.03	126.51	17.92	-36.0	-36.9	23.9	0.00e+00	0	30	0	1005584384	46	5641
2026-01-10 13:07:35.07	127.26	17.63	-36.4	-37.3	23.6	0.00e+00	0	30	0	1013972992	46	5900
2026-01-10 13:07:39.11	128.00	17.33	-36.0	-36.9	23.9	0.00e+00	37	30	0	1021313024	46	5640
2026-01-10 13:07:43.15	128.72	17.04	-35.9	-36.8	23.8	0.00e+00	90	30	0	1028653056	44	6265
2026-01-10 13:07:47.19	129.42	16.74	-37.0	-37.9	23.0	0.00e+00	0	30	0	1035993088	46	6389
2026-01-10 13:07:51.23	130.12	16.44	-36.0	-36.8	23.8	0.00e+00	0	29	0	1044381696	46	5616
2026-01-10 13:07:55.27	130.80	16.15	-36.4	-37.3	23.6	0.00e+00	79	29	0	1051721728	46	5936
2026-01-10 13:07:59.31	131.47	15.85	-35.9	-36.7	24.0	0.00e+00	0	29	0	1059061760	46	5544
2026-01-10 13:08:03.35	132.12	15.55	-36.5	-37.4	23.5	0.00e+00	0	30	0	1066401792	46	6023
2026-01-10 13:08:07.39	132.76	15.25	-38.0	-39.1	22.2	0.00e+00	0	29	0	1074790400	48	6494
2026-01-10 13:08:11.43	133.40	14.96	-37.4	-38.4	22.6	0.00e+00	90	29	0	1082130432	48	6012
2026-01-10 13:08:15.47	134.01	14.66	-36.5	-37.4	23.4	0.00e+00	0	29	0	1089470464	46	6021
2026-01-10 13:08:19.51	134.62	14.37	-35.8	-36.6	24.0	0.00e+00	0	29	0	1096810496	46	5500
2026-01-10 13:08:23.55	135.21	14.07	-35.7	-36.6	24.1	0.00e+00	0	29	0	1104150528	44	6112
2026-01-10 13:08:27.59	135.80	13.78	-36.6	-37.5	22.8	0.00e+00	89	29	0	1112539136	44	6791
2026-01-10 13:08:31.63	136.37	13.48	-37.7	-38.7	22.3	0.00e+00	0	29	0	1119879168	48	6208
2026-01-10 13:08:35.67	136.93	13.19	-37.5	-38.5	22.3	0.00e+00	0	29	0	1127219200	48	6082
2026-01-10 13:08:39.71	137.48	12.90	-37.1	-38.1	22.8	0.00e+00	36	29	0	1134559232	48	5790
2026-01-10 13:08:43.75	138.03	12.61	-36.8	-37.7	23.1	0.00e+00	0	29	0	1142947840	46	6240
2026-01-10 13:08:47.79	138.56	12.32	-37.0	-37.9	23.0	0.00e+00	0	29	0	1150287872	46	6374
2026-01-10 13:08:51.83	139.08	12.03	-37.2	-38.2	22.7	0.00e+00	0	29	0	1157627904	46	6553
2026-01-10 13:08:55.86	139.59	11.75	-38.0	-39.1	21.8	0.00e+00	92	29	0	1164967936	48	6486
2026-01-10 13:08:59.91	140.09	11.46	-39.6	-41.1	19.7	0.00e+00	0	29	0	1172307968	50	7259
2026-01-10 13:09:03.94	140.58	11.18	-40.8	-42.6	18.0	0.00e+00	0	29	0	1180696576	54	6884
2026-01-10 13:09:07.98	141.06	10.90	-41.0	-43.0	17.4	0.00e+00	3	29	0	1188036608	54	7233
2026-01-10 13:09:12.02	141.54	10.62	-40.0	-41.6	18.9	0.00e+00	92	29	0	1195376640	54	6126
2026-01-10 13:09:16.07	142.00	10.34	-39.3	-40.7	19.9	0.00e+00	0	29	0	1202716672	52	6182
2026-01-10 13:09:20.11	142.46	10.06	-38.7	-39.9	20.9	0.00e+00	0	29	0	1211105280	50	6383
2026-01-10 13:09:24.15	142.91	9.78	-38.5	-39.7	21.0	0.00e+00	50	29	0	1218445312	50	6216
2026-01-10 13:09:28.18	143.35	9.51	-38.2	-39.4	21.4	0.00e+00	92	29	0	1225785344	50	5975
2026-01-10 13:09:32.22	143.78	9.24	-39.0	-40.2	20.6	0.00e+00	0	29	0	1233125376	50	6608
2026-01-10 13:09:36.26	144.21	8.97	-39.1	-40.4	20.3	0.00e+00	0	29	0	1240465408	50	6766
2026-01-10 13:09:40.30	144.63	8.70	-39.3	-40.6	20.4	0.00e+00	92	29	0	1248854016	50	6920
2026-01-10 13:09:44.34	145.04	8.43	-38.6	-39.7	21.1	0.00e+00	0	29	0	1256194048	50	6236
2026-01-10 13:09:48.38	145.44	8.16	-38.9	-40.1	20.8	0.00e+00	0	29	0	1263534080	50	6514
2026-01-10 13:09:52.42	145.84	7.90	-39.4	-40.8	20.2	0.00e+00	0	28	0	1270874112	50	7018
2026-01-10 13:09:56.46	146.23	7.64	-40.1	-41.6	19.4	0.00e+00	91	28	0	1279262720	52	6901
2026-01-10 13:10:00.50	146.61	7.37	-39.8	-41.2	19.8	0.00e+00	0	28	0	1286602752	52	6602
2026-01-10 13:10:04.54	146.99	7.11	-39.3	-40.6	20.4	0.00e+00	0	28	0	1293942784	52	6134
2026-01-10 13:10:08.58	147.36	6.86	-38.5	-39.7	21.1	0.00e+00	19	29	0	1301282816	50	6201
2026-01-10 13:10:12.62	147.72	6.60	-38.2	-39.3	21.4	0.00e+00	91	28	0	1308622848	50	5912
2026-01-10 13:10:16.66	148.08	6.34	-38.1	-39.2	21.5	0.00e+00	0	28	0	1317011456	50	5843
2026-01-10 13:10:20.69	148.43	6.09	-38.5	-39.7	20.9	0.00e+00	0	28	0	1324351488	50	6229
2026-01-10 13:10:24.73	148.78	5.84	-38.6	-39.8	20.8	0.00e+00	30	28	0	1331691520	50	6273
2026-01-10 13:10:28.77	149.12	5.59	-38.8	-40.0	20.7	0.00e+00	0	28	0	1339031552	50	6457
2026-01-10 13:10:32.82	149.45	5.34	-38.9	-40.1	20.5	0.00e+00	0	28	0	1347420160	50	6517
2026-01-10 13:10:36.85	149.78	5.09	-38.7	-39.9	20.8	0.00e+00	0	28	0	1354760192	50	6353
2026-01-10 13:10:40.89	150.11	4.85	-39.5	-40.8	19.8	0.00e+00	91	28	0	1362100224	50	7088
2026-01-10 13:10:44.93	150.43	4.60	-39.4	-40.8	20.0	0.00e+00	0	28	0	1369440256	52	6257
2026-01-10 13:10:48.97	150.74	4.36	-39.7	-41.1	19.5	0.00e+00	0	28	0	1376780288	52	6501
2026-01-10 13:10:53.01	151.05	4.12	-39.8	-41.3	19.3	0.00e+00	0	28	0	1385168896	52	6621
2026-01-10 13:10:57.05	151.36	3.88	-39.6	-41.0	19.5	0.00e+00	48	28	0	1392508928	52	6436
2026-01-10 13:11:01.09	151.66	3.64	-39.9	-41.4	19.1	0.00e+00	0	28	0	1399848960	52	6700
2026-01-10 13:11:05.12	151.95	3.41	-39.8	-41.3	19.1	0.00e+00	0	28	0	1407188992	52	6640
2026-01-10 13:11:09.16	152.24	3.17	-39.9	-41.5	18.8	0.00e+00	42	28	0	1415577600	52	6799
2026-01-10 13:11:13.20	152.53	2.94	-46.8	-62.1	3.6	1.50e+00	0	28	104	1420820480	60	46193
2026-01-10 13:11:17.24	152.81	2.71	-47.9	-63.2	3.6	1.51e+00	0	28	104	1420820480	60	52334
2026-01-10 13:11:21.28	153.09	2.48	-48.2	-63.4	3.6	1.51e+00	0	28	104	1420820480	60	53661
2026-01-10 13:11:25.32	153.36	2.25	-48.2	-63.3	3.6	1.51e+00	0	28	104	1420820480	60	53028
2026-01-10 13:11:29.36	153.63	2.02	-48.2	-63.4	3.6	1.51e+00	0	28	104	1420820480	60	53243
2026-01-10 13:11:33.40	153.90	1.79	-48.2	-63.4	3.6	1.51e+00	0	28	104	1420820480	60	53234
2026-01-10 13:11:37.43	154.16	1.57	-48.2	-63.3	3.6	1.51e+00	0	28	104	1420820480	60	52776
2026-01-10 13:11:41.47	154.42	1.34	-48.1	-63.3	3.6	1.51e+00	0	28	104	1420820480	60	53137
2026-01-10 13:11:45.51	154.67	1.12	-48.1	-63.3	3.6	1.51e+00	0	28	104	1420820480	60	52883
2026-01-10 13:11:49.55	154.93	0.90	-48.2	-63.4	3.6	1.51e+00	0	28	104	1420820480	60	53171
2026-01-10 13:11:53.59	155.17	0.68	-48.2	-63.4	3.6	1.51e+00	0	28	104	1420820480	60	53411
2026-01-10 13:11:57.63	155.42	0.46	-48.1	-63.3	3.6	1.51e+00	0	28	104	1420820480	60	52884
2026-01-10 13:12:01.67	155.66	0.24	-48.2	-63.4	3.6	1.51e+00	0	28	104	1420820480	60	53546
2026-01-10 13:12:05.70	155.90	0.02	-48.3	-63.5	3.6	1.51e+00	0	28	104	1420820480	60	53904

#Closed at: 2026-01-10 13:12:07
#Recorded file [1420 MB]: D:/lorett/data/35029_260111_005745.dat