passes_logs/2026/01/10/R4.6S_Anadyr/R4.6S_Anadyr__20260110_025623_2024-110A_rec.log

#Pass ID: 20260110_025623_2024-110A
#Satellite: 2024-110A
#Configuration: 01B_900M
#almurnet v.1.7.20251203
#Start time: 2026-01-10 02:56:28

#Version: 2.2.20231116
#Station: R4.6S_Anadyr
#Location: 177.4865 lon 64.73178 lat
#TLE: 1 60012U 24110A   26008.98058397  .00007481  00000+0  45382-3 0  9996
#TLE: 2 60012  97.5751 102.0471 0010606  85.2699 274.9742 15.10780355 87850

#Time	Az	El	Level	Level2	SNR	BER	BlckErr	Temp	State	Recorded	gain1	gain2
2026-01-10 02:56:28.07	18.66	0.23	-44.4	-45.8	5.7	0.00e+00	0	24	0	0	60	23996
2026-01-10 02:56:31.10	18.40	0.40	-48.2	-50.7	6.1	7.54e-01	0	25	104	0	60	41983
2026-01-10 02:56:34.13	18.14	0.57	-48.2	-50.7	6.1	7.54e-01	0	25	104	0	60	41860
2026-01-10 02:56:37.15	17.88	0.73	-47.3	-49.8	6.1	7.55e-01	0	25	104	0	60	37863
2026-01-10 02:56:40.19	17.61	0.90	-46.6	-49.1	6.1	7.54e-01	0	25	104	0	60	34825
2026-01-10 02:56:43.21	17.34	1.07	-46.6	-49.1	6.1	7.55e-01	0	25	104	0	60	34874
2026-01-10 02:56:46.24	17.06	1.24	-46.6	-49.1	6.1	7.54e-01	0	25	104	0	60	34997
2026-01-10 02:56:49.27	16.78	1.42	-46.6	-49.1	6.1	7.54e-01	0	25	104	0	60	34936
2026-01-10 02:56:52.30	16.49	1.59	-46.6	-49.1	6.1	7.55e-01	0	26	104	0	60	34787
2026-01-10 02:56:55.32	16.20	1.76	-46.6	-49.1	6.1	7.55e-01	0	26	104	0	60	34731
2026-01-10 02:56:58.35	15.91	1.93	-46.6	-49.0	6.1	7.53e-01	0	26	104	0	60	34705
2026-01-10 02:57:01.38	15.61	2.11	-46.6	-49.0	6.1	7.54e-01	0	25	104	0	60	34498
2026-01-10 02:57:04.41	15.31	2.28	-46.6	-49.0	6.1	7.54e-01	0	26	104	0	60	34649
2026-01-10 02:57:07.44	15.00	2.46	-46.6	-49.0	6.1	7.55e-01	0	26	104	0	60	34662
2026-01-10 02:57:10.47	14.69	2.64	-46.5	-49.0	6.1	7.55e-01	0	26	104	0	60	34633
2026-01-10 02:57:13.50	14.37	2.82	-46.5	-49.0	6.1	7.55e-01	0	26	104	0	60	34697
2026-01-10 02:57:16.52	14.05	2.99	-46.6	-49.1	6.1	7.54e-01	0	26	104	0	60	34746
2026-01-10 02:57:19.55	13.72	3.17	-46.5	-49.1	6.1	7.54e-01	0	26	104	0	60	34769
2026-01-10 02:57:22.57	13.39	3.35	-46.5	-49.0	6.1	7.55e-01	0	26	104	0	60	34332
2026-01-10 02:57:25.60	13.05	3.53	-46.3	-48.8	6.1	7.54e-01	0	26	104	0	60	33797
2026-01-10 02:57:28.63	12.70	3.71	-46.7	-49.2	6.1	7.54e-01	0	26	104	0	60	35209
2026-01-10 02:57:31.65	12.35	3.90	-46.8	-49.3	6.1	7.54e-01	0	26	104	0	60	35659
2026-01-10 02:57:34.68	12.00	4.08	-46.6	-49.1	6.1	7.54e-01	0	26	104	0	60	34999
2026-01-10 02:57:37.71	11.64	4.26	-46.8	-49.2	6.1	7.55e-01	0	26	104	0	60	35429
2026-01-10 02:57:40.74	11.27	4.45	-46.8	-49.3	6.1	7.53e-01	0	26	104	0	60	35558
2026-01-10 02:57:43.77	10.90	4.63	-46.8	-49.4	6.1	7.53e-01	0	26	104	0	60	35981
2026-01-10 02:57:46.79	10.52	4.82	-46.9	-49.3	6.1	7.52e-01	0	26	104	0	60	35933
2026-01-10 02:57:49.82	10.14	5.00	-47.0	-49.5	6.1	7.55e-01	0	26	104	0	60	36643
2026-01-10 02:57:52.85	9.75	5.19	-47.0	-49.5	6.1	7.54e-01	0	26	104	0	60	36379
2026-01-10 02:57:55.88	9.35	5.38	-47.1	-49.6	6.1	7.53e-01	0	26	104	0	60	37022
2026-01-10 02:57:58.91	8.95	5.56	-47.1	-49.6	6.1	7.54e-01	0	26	104	0	60	36847
2026-01-10 02:58:01.93	8.54	5.75	-47.0	-49.5	6.1	7.53e-01	0	26	104	0	60	36426
2026-01-10 02:58:04.96	8.12	5.94	-47.0	-49.5	6.1	7.55e-01	0	26	104	0	60	36631
2026-01-10 02:58:07.99	7.69	6.13	-47.0	-49.5	6.1	7.53e-01	0	26	104	0	60	36517
2026-01-10 02:58:11.02	7.26	6.32	-47.0	-49.5	6.1	7.54e-01	0	26	104	0	60	36664
2026-01-10 02:58:14.04	6.83	6.51	-47.1	-49.6	6.1	7.55e-01	0	26	104	0	60	37078
2026-01-10 02:58:17.06	6.38	6.70	-47.2	-49.7	6.1	7.54e-01	0	26	104	0	60	37343
2026-01-10 02:58:20.09	5.93	6.89	-47.3	-49.8	6.1	7.53e-01	0	26	104	0	60	37942
2026-01-10 02:58:23.12	5.47	7.09	-47.2	-49.7	6.1	7.54e-01	0	26	104	0	60	37331
2026-01-10 02:58:26.15	5.00	7.28	-47.0	-49.6	6.1	7.54e-01	0	26	104	0	60	36816
2026-01-10 02:58:29.18	4.52	7.47	-47.2	-49.7	6.0	7.55e-01	0	26	104	0	60	37371
2026-01-10 02:58:32.21	4.04	7.66	-47.3	-49.8	6.1	7.55e-01	0	26	104	0	60	37802
2026-01-10 02:58:35.23	3.55	7.86	-47.3	-49.8	6.1	7.54e-01	0	26	104	0	60	37961
2026-01-10 02:58:38.26	3.05	8.05	-47.4	-49.9	6.1	7.54e-01	0	26	104	0	60	38181
2026-01-10 02:58:41.29	2.54	8.24	-47.3	-49.8	6.1	7.55e-01	0	26	104	0	60	37873
2026-01-10 02:58:44.32	2.02	8.44	-47.4	-49.9	6.1	7.55e-01	0	26	104	0	60	38150
2026-01-10 02:58:47.35	1.50	8.63	-47.4	-49.9	6.1	7.53e-01	0	26	104	0	60	38179
2026-01-10 02:58:50.37	0.96	8.82	-47.4	-49.9	6.1	7.54e-01	0	26	104	0	60	38177
2026-01-10 02:58:53.40	0.42	9.02	-47.4	-49.9	6.1	7.55e-01	0	26	104	0	60	38420
2026-01-10 02:58:56.43	359.87	9.21	-47.3	-49.9	6.1	7.55e-01	0	26	104	0	60	38153
2026-01-10 02:58:59.46	359.31	9.40	-47.5	-50.0	6.1	7.54e-01	0	26	104	0	60	38893
2026-01-10 02:59:02.49	358.74	9.59	-47.5	-50.0	6.1	7.55e-01	0	26	104	0	60	38550
2026-01-10 02:59:05.51	358.16	9.79	-47.4	-49.9	6.1	7.54e-01	0	26	104	0	60	38284
2026-01-10 02:59:08.54	357.57	9.98	-47.5	-49.9	6.1	7.55e-01	0	26	104	0	60	38432
2026-01-10 02:59:11.58	356.97	10.17	-47.5	-50.0	6.1	7.54e-01	0	26	104	0	60	38628
2026-01-10 02:59:14.60	356.36	10.36	-47.5	-50.0	6.1	7.54e-01	0	26	104	0	60	38593
2026-01-10 02:59:17.63	355.75	10.55	-47.4	-49.9	6.1	7.54e-01	0	26	104	0	60	38408
2026-01-10 02:59:20.66	355.12	10.73	-47.1	-49.7	6.1	7.54e-01	0	26	104	0	60	37320
2026-01-10 02:59:23.69	354.48	10.92	-47.5	-50.0	6.1	7.54e-01	0	26	104	0	60	38845
2026-01-10 02:59:26.72	353.83	11.11	-47.4	-49.9	6.1	7.55e-01	0	26	104	0	60	38408
2026-01-10 02:59:29.75	353.18	11.29	-47.5	-50.0	6.1	7.54e-01	0	26	104	0	60	38864
2026-01-10 02:59:32.77	352.51	11.47	-47.6	-50.1	6.1	7.55e-01	0	26	104	0	60	38998
2026-01-10 02:59:35.80	351.83	11.66	-47.5	-50.1	6.1	7.54e-01	0	26	104	0	60	39040
2026-01-10 02:59:38.83	351.15	11.84	-47.3	-49.9	6.1	7.54e-01	0	26	104	0	60	38127
2026-01-10 02:59:41.86	350.45	12.01	-47.5	-50.0	6.1	7.54e-01	0	26	104	0	60	38620
2026-01-10 02:59:44.88	349.74	12.19	-47.5	-50.0	6.0	7.54e-01	0	26	104	0	60	38901
2026-01-10 02:59:47.91	349.02	12.36	-47.6	-50.1	6.1	7.53e-01	0	26	104	0	60	39214
2026-01-10 02:59:50.93	348.30	12.53	-47.6	-50.1	6.1	7.53e-01	0	26	104	0	60	39083
2026-01-10 02:59:53.96	347.56	12.70	-47.6	-50.0	6.1	7.54e-01	0	26	104	0	60	38870
2026-01-10 02:59:56.99	346.81	12.87	-47.6	-50.1	6.1	7.55e-01	0	26	104	0	60	39148
2026-01-10 03:00:00.02	346.05	13.03	-47.6	-50.1	6.1	7.54e-01	0	26	104	0	60	39053
2026-01-10 03:00:03.05	345.28	13.19	-47.6	-50.1	6.1	7.54e-01	0	26	104	0	60	39147
2026-01-10 03:00:06.08	344.51	13.35	-47.5	-50.0	6.1	7.55e-01	0	26	104	0	60	38805
2026-01-10 03:00:09.11	343.72	13.50	-47.6	-50.1	6.1	7.55e-01	0	26	104	0	60	39257
2026-01-10 03:00:12.13	342.92	13.65	-47.5	-50.1	6.1	7.55e-01	0	26	104	0	60	39004
2026-01-10 03:00:15.16	342.11	13.80	-47.5	-50.0	6.1	7.54e-01	0	26	104	0	60	38896
2026-01-10 03:00:18.19	341.30	13.94	-47.6	-50.1	6.1	7.53e-01	0	26	104	0	60	39177
2026-01-10 03:00:21.22	340.47	14.08	-47.5	-50.1	6.1	7.54e-01	0	26	104	0	60	38976
2026-01-10 03:00:24.25	339.64	14.21	-47.6	-50.1	6.1	7.55e-01	0	26	104	0	60	39209
2026-01-10 03:00:27.28	338.79	14.34	-47.7	-50.1	6.1	7.53e-01	0	26	104	0	60	39388
2026-01-10 03:00:30.31	337.94	14.47	-47.6	-50.1	6.1	7.54e-01	0	26	104	0	60	39279
2026-01-10 03:00:33.33	337.08	14.59	-47.6	-50.1	6.1	7.53e-01	0	26	104	0	60	39361
2026-01-10 03:00:36.36	336.21	14.70	-47.5	-50.0	6.1	7.55e-01	0	26	104	0	60	38786
2026-01-10 03:00:39.39	335.33	14.81	-47.5	-50.0	6.1	7.54e-01	0	26	104	0	60	38728
2026-01-10 03:00:42.42	334.45	14.92	-47.5	-50.0	6.1	7.54e-01	0	26	104	0	60	38728
2026-01-10 03:00:45.45	333.56	15.02	-47.6	-50.2	6.1	7.55e-01	0	26	104	0	60	39451
2026-01-10 03:00:48.47	332.66	15.11	-47.4	-50.0	6.1	7.55e-01	0	26	104	0	60	38778
2026-01-10 03:00:51.50	331.76	15.20	-47.7	-50.2	6.1	7.53e-01	0	26	104	0	60	39645
2026-01-10 03:00:54.52	330.85	15.28	-47.5	-50.1	6.1	7.55e-01	0	26	104	0	60	39128
2026-01-10 03:00:57.55	329.93	15.35	-47.6	-50.1	6.1	7.53e-01	0	26	104	0	60	39304
2026-01-10 03:01:00.58	329.01	15.42	-47.6	-50.1	6.1	7.53e-01	0	26	104	0	60	39335
2026-01-10 03:01:03.61	328.09	15.49	-47.7	-50.2	6.1	7.55e-01	0	26	104	0	60	39743
2026-01-10 03:01:06.64	327.15	15.54	-47.3	-49.9	6.1	7.54e-01	0	26	104	0	60	38217
2026-01-10 03:01:09.67	326.22	15.59	-47.3	-49.9	6.1	7.53e-01	0	26	104	0	60	38165
2026-01-10 03:01:12.70	325.28	15.64	-47.6	-50.1	6.1	7.54e-01	0	26	104	0	60	39280
2026-01-10 03:01:15.73	324.34	15.67	-47.7	-50.2	6.1	7.54e-01	0	26	104	0	60	39853
2026-01-10 03:01:18.75	323.40	15.70	-47.7	-50.2	6.1	7.54e-01	0	26	104	0	60	39732
2026-01-10 03:01:21.78	322.45	15.72	-47.8	-50.3	6.1	7.53e-01	0	26	104	0	60	40139
2026-01-10 03:01:24.81	321.51	15.74	-47.6	-50.2	6.1	7.55e-01	0	26	104	0	60	39719
2026-01-10 03:01:27.84	320.56	15.75	-47.8	-50.3	6.1	7.54e-01	0	26	104	0	60	40236
2026-01-10 03:01:30.87	319.61	15.75	-47.8	-50.2	6.1	7.54e-01	0	26	104	0	60	39845
2026-01-10 03:01:33.90	318.66	15.74	-47.7	-50.2	6.1	7.55e-01	0	26	104	0	60	39843
2026-01-10 03:01:36.93	317.71	15.73	-47.7	-50.2	6.1	7.54e-01	0	26	104	0	60	39845
2026-01-10 03:01:39.95	316.77	15.71	-47.8	-50.3	6.1	7.53e-01	0	26	104	0	60	39924
2026-01-10 03:01:42.99	315.82	15.69	-47.6	-50.1	6.1	7.53e-01	0	26	104	0	60	39379
2026-01-10 03:01:46.01	314.88	15.65	-47.4	-50.0	6.1	7.53e-01	0	26	104	0	60	38773
2026-01-10 03:01:49.04	313.94	15.61	-47.8	-50.2	6.1	7.54e-01	0	26	104	0	60	39817
2026-01-10 03:01:52.07	313.00	15.57	-47.8	-50.3	6.1	7.55e-01	0	26	104	0	60	40173
2026-01-10 03:01:55.10	312.07	15.51	-47.4	-50.0	6.1	7.54e-01	0	26	104	0	60	38571
2026-01-10 03:01:58.13	311.14	15.45	-47.3	-49.9	6.1	7.55e-01	0	26	104	0	60	38196
2026-01-10 03:02:01.15	310.22	15.39	-47.6	-50.2	6.1	7.53e-01	0	26	104	0	60	39480
2026-01-10 03:02:04.18	309.30	15.31	-47.5	-50.1	6.1	7.54e-01	0	26	104	0	60	38985
2026-01-10 03:02:07.21	308.39	15.23	-47.7	-50.2	6.1	7.55e-01	0	26	104	0	60	39699
2026-01-10 03:02:10.24	307.48	15.15	-47.3	-49.9	6.1	7.54e-01	0	26	104	0	60	38134
2026-01-10 03:02:13.27	306.58	15.06	-47.4	-49.9	6.1	7.54e-01	0	26	104	0	60	38412
2026-01-10 03:02:16.30	305.68	14.96	-47.1	-49.7	6.1	7.54e-01	0	26	104	0	60	37575
2026-01-10 03:02:19.32	304.79	14.86	-47.3	-49.9	6.1	7.55e-01	0	26	104	0	60	38462
2026-01-10 03:02:22.35	303.91	14.75	-47.3	-49.9	6.1	7.55e-01	0	26	104	0	60	38253
2026-01-10 03:02:25.38	303.04	14.64	-47.3	-49.9	6.1	7.55e-01	0	26	104	0	60	38174
2026-01-10 03:02:28.41	302.17	14.52	-47.4	-50.0	6.1	7.55e-01	0	26	104	0	60	38584
2026-01-10 03:02:31.44	301.31	14.40	-47.6	-50.1	6.1	7.55e-01	0	26	104	0	60	39344
2026-01-10 03:02:34.47	300.47	14.27	-47.5	-50.1	6.1	7.55e-01	0	26	104	0	60	39031
2026-01-10 03:02:37.50	299.62	14.14	-47.6	-50.2	6.1	7.53e-01	0	26	104	0	60	39461
2026-01-10 03:02:40.52	298.80	14.00	-47.7	-50.2	6.1	7.54e-01	0	26	104	0	60	39750
2026-01-10 03:02:43.55	297.97	13.86	-47.6	-50.2	6.1	7.55e-01	0	26	104	0	60	39599
2026-01-10 03:02:46.58	297.16	13.72	-47.8	-50.2	6.1	7.55e-01	0	26	104	0	60	39848
2026-01-10 03:02:49.61	296.36	13.57	-47.7	-50.3	6.1	7.55e-01	0	26	104	0	60	40158
2026-01-10 03:02:52.64	295.56	13.41	-47.7	-50.2	6.1	7.54e-01	0	26	104	0	60	39712
2026-01-10 03:02:55.66	294.78	13.26	-47.7	-50.2	6.1	7.54e-01	0	26	104	0	60	39661
2026-01-10 03:02:58.69	294.01	13.10	-47.7	-50.2	6.1	7.54e-01	0	26	104	0	60	39585
2026-01-10 03:03:01.70	293.25	12.94	-47.8	-50.3	6.1	7.54e-01	0	26	104	0	60	39953
2026-01-10 03:03:04.72	292.49	12.77	-47.7	-50.2	6.1	7.55e-01	0	26	104	0	60	39607
2026-01-10 03:03:07.75	291.75	12.61	-47.7	-50.2	6.1	7.56e-01	0	26	104	0	60	39495
2026-01-10 03:03:10.78	291.01	12.44	-47.7	-50.2	6.1	7.55e-01	0	26	104	0	60	39537
2026-01-10 03:03:13.80	290.29	12.26	-47.7	-50.2	6.1	7.54e-01	0	26	104	0	60	39606
2026-01-10 03:03:16.83	289.58	12.09	-47.7	-50.2	6.1	7.54e-01	0	26	104	0	60	39561
2026-01-10 03:03:19.86	288.87	11.91	-47.7	-50.2	6.1	7.54e-01	0	26	104	0	60	39427
2026-01-10 03:03:22.89	288.18	11.73	-47.7	-50.1	6.1	7.55e-01	0	26	104	0	60	39372
2026-01-10 03:03:25.91	287.50	11.55	-47.7	-50.2	6.1	7.53e-01	0	26	104	0	60	39464
2026-01-10 03:03:28.95	286.82	11.37	-47.6	-50.2	6.1	7.53e-01	0	26	104	0	60	39560
2026-01-10 03:03:31.97	286.16	11.18	-47.6	-50.1	6.1	7.55e-01	0	26	104	0	60	39123
2026-01-10 03:03:35.00	285.51	11.00	-47.6	-50.1	6.1	7.55e-01	0	26	104	0	60	38989
2026-01-10 03:03:38.02	284.87	10.81	-47.6	-50.1	6.1	7.53e-01	0	26	104	0	60	39034
2026-01-10 03:03:41.05	284.23	10.62	-47.6	-50.1	6.1	7.54e-01	0	26	104	0	60	39319
2026-01-10 03:03:44.07	283.61	10.44	-47.6	-50.0	6.1	7.54e-01	0	26	104	0	60	38913
2026-01-10 03:03:47.10	283.00	10.25	-47.6	-50.1	6.1	7.54e-01	0	26	104	0	60	38972
2026-01-10 03:03:50.12	282.39	10.06	-47.5	-49.9	6.1	7.54e-01	0	26	104	0	60	38480
2026-01-10 03:03:53.16	281.80	9.86	-47.6	-50.1	6.1	7.54e-01	0	26	104	0	60	39072
2026-01-10 03:03:56.19	281.21	9.67	-47.5	-50.0	6.1	7.54e-01	0	26	104	0	60	38701
2026-01-10 03:03:59.21	280.64	9.48	-47.5	-50.1	6.1	7.55e-01	0	26	104	0	60	38958
2026-01-10 03:04:02.24	280.07	9.29	-47.4	-49.9	6.1	7.55e-01	0	26	104	0	60	38378
2026-01-10 03:04:05.27	279.51	9.09	-47.5	-50.0	6.1	7.55e-01	0	26	104	0	60	38792
2026-01-10 03:04:08.29	278.96	8.90	-47.5	-50.0	6.1	7.54e-01	0	26	104	0	60	38746
2026-01-10 03:04:11.32	278.42	8.71	-47.4	-49.9	6.1	7.55e-01	0	26	104	0	60	38455
2026-01-10 03:04:14.35	277.89	8.51	-47.4	-49.9	6.1	7.55e-01	0	26	104	0	60	38247
2026-01-10 03:04:17.38	277.37	8.32	-47.4	-49.9	6.1	7.55e-01	0	26	104	0	60	38399
2026-01-10 03:04:20.40	276.85	8.13	-47.4	-49.9	6.1	7.54e-01	0	26	104	0	60	38300
2026-01-10 03:04:23.43	276.35	7.93	-47.3	-49.8	6.1	7.55e-01	0	26	104	0	60	37834
2026-01-10 03:04:26.46	275.85	7.74	-47.3	-49.8	6.1	7.55e-01	0	26	104	0	60	37911
2026-01-10 03:04:29.48	275.36	7.55	-47.3	-49.8	6.1	7.55e-01	0	26	104	0	60	37800
2026-01-10 03:04:32.51	274.88	7.35	-47.3	-49.8	6.1	7.54e-01	0	26	104	0	60	37766
2026-01-10 03:04:35.54	274.41	7.16	-47.2	-49.7	6.1	7.54e-01	0	26	104	0	60	37371
2026-01-10 03:04:38.57	273.94	6.97	-47.2	-49.6	6.1	7.53e-01	0	26	104	0	60	37193
2026-01-10 03:04:41.60	273.48	6.78	-47.2	-49.7	6.1	7.55e-01	0	26	104	0	60	37386
2026-01-10 03:04:44.63	273.03	6.58	-47.2	-49.7	6.1	7.55e-01	0	26	104	0	60	37236
2026-01-10 03:04:47.65	272.59	6.39	-47.2	-49.7	6.1	7.56e-01	0	26	104	0	60	37283
2026-01-10 03:04:50.68	272.15	6.20	-47.1	-49.6	6.1	7.55e-01	0	26	104	0	60	36776
2026-01-10 03:04:53.71	271.72	6.01	-47.1	-49.6	6.1	7.55e-01	0	26	104	0	60	36879
2026-01-10 03:04:56.74	271.30	5.82	-47.1	-49.6	6.1	7.55e-01	0	26	104	0	60	36865
2026-01-10 03:04:59.77	270.88	5.63	-47.0	-49.5	6.1	7.55e-01	0	26	104	0	60	36753
2026-01-10 03:05:02.79	270.48	5.44	-47.0	-49.5	6.1	7.54e-01	0	26	104	0	60	36570
2026-01-10 03:05:05.82	270.07	5.26	-46.9	-49.5	6.1	7.55e-01	0	26	104	0	60	36400
2026-01-10 03:05:08.85	269.68	5.07	-47.0	-49.5	6.1	7.53e-01	0	26	104	0	60	36694
2026-01-10 03:05:11.88	269.29	4.88	-46.9	-49.4	6.1	7.55e-01	0	26	104	0	60	36103
2026-01-10 03:05:14.91	268.91	4.70	-46.8	-49.3	6.1	7.55e-01	0	26	104	0	60	35580
2026-01-10 03:05:17.93	268.53	4.51	-46.7	-49.2	6.1	7.54e-01	0	26	104	0	60	35344
2026-01-10 03:05:20.96	268.16	4.33	-46.9	-49.4	6.1	7.55e-01	0	26	104	0	60	36084
2026-01-10 03:05:23.99	267.79	4.14	-46.8	-49.3	6.1	7.56e-01	0	26	104	0	60	35634
2026-01-10 03:05:27.02	267.43	3.96	-46.6	-49.1	6.1	7.53e-01	0	26	104	0	60	34784
2026-01-10 03:05:30.05	267.08	3.78	-46.5	-48.9	6.1	7.55e-01	0	26	104	0	60	34271
2026-01-10 03:05:33.07	266.73	3.60	-46.7	-49.2	6.1	7.55e-01	0	26	104	0	60	35370
2026-01-10 03:05:36.10	266.39	3.41	-46.6	-49.1	6.1	7.54e-01	0	26	104	0	60	34746
2026-01-10 03:05:39.13	266.05	3.23	-46.4	-48.9	6.1	7.55e-01	0	26	104	0	60	34135
2026-01-10 03:05:42.15	265.72	3.05	-46.2	-48.7	6.1	7.54e-01	0	26	104	0	60	33404
2026-01-10 03:05:45.18	265.39	2.88	-47.6	-50.1	6.1	7.54e-01	0	26	104	0	60	39038
2026-01-10 03:05:48.21	265.07	2.70	-48.0	-50.5	6.1	7.54e-01	0	26	104	0	60	41165
2026-01-10 03:05:51.24	264.76	2.52	-48.1	-50.6	6.1	7.54e-01	0	26	104	0	60	41665
2026-01-10 03:05:54.27	264.44	2.34	-47.8	-50.3	6.0	7.54e-01	0	26	104	0	60	40212
2026-01-10 03:05:57.29	264.14	2.17	-48.0	-50.5	6.1	7.54e-01	0	26	104	0	60	40854
2026-01-10 03:06:00.32	263.83	1.99	-47.8	-50.3	6.1	7.52e-01	0	26	104	0	60	40300
2026-01-10 03:06:03.35	263.54	1.82	-48.0	-50.5	6.1	7.53e-01	0	26	104	0	60	40982
2026-01-10 03:06:06.38	263.24	1.64	-48.0	-50.5	6.1	7.54e-01	0	26	104	0	60	41089
2026-01-10 03:06:09.41	262.95	1.47	-48.0	-50.5	6.1	7.55e-01	0	26	104	0	60	41096
2026-01-10 03:06:12.44	262.67	1.30	-48.0	-50.5	6.1	7.55e-01	0	26	104	0	60	40909
2026-01-10 03:06:15.47	262.39	1.13	-48.0	-50.4	6.1	7.54e-01	0	26	104	0	60	40756
2026-01-10 03:06:18.50	262.11	0.96	-48.0	-50.5	6.1	7.54e-01	0	26	104	0	60	40863
2026-01-10 03:06:21.52	261.84	0.79	-48.0	-50.5	6.1	7.54e-01	0	26	104	0	60	40893
2026-01-10 03:06:24.55	261.57	0.62	-48.0	-50.5	6.1	7.54e-01	0	26	104	0	60	40828
2026-01-10 03:06:27.58	261.30	0.45	-48.0	-50.4	6.1	7.54e-01	0	26	104	0	60	40784
2026-01-10 03:06:30.61	261.04	0.28	-48.0	-50.5	6.1	7.53e-01	0	26	104	0	60	40920
2026-01-10 03:06:33.63	260.79	0.12	-47.9	-50.5	6.1	7.55e-01	0	26	104	0	60	40833
2026-01-10 03:06:36.66	260.53	-0.05	-48.0	-50.5	6.1	7.55e-01	0	26	104	0	60	41010

#Closed at: 2026-01-10 03:06:37
#Recorded file [0 MB]: D:/lorett/data/35029_260110_145628.dat