passes_logs/2026/01/10/R4.6S_Anadyr/R4.6S_Anadyr__20260110_033305_FENGYUN_3D_rec.log

#Pass ID: 20260110_033305_FENGYUN 3D
#Satellite: FENGYUN 3D
#Configuration: FENGYUN 3D
#almurnet v.1.7.20251203
#Start time: 2026-01-10 03:33:06

#Version: 2.2.20231116
#Station: R4.6S_Anadyr
#Location: 177.4865 lon 64.73178 lat
#TLE: 1 43010U 17072A   26008.59015185 -.00000067  00000+0 -98204-5 0  9997
#TLE: 2 43010  98.9935 340.3069 0002117 119.1923 240.9464 14.19693468422340

#Time	Az	El	Level	Level2	SNR	BER	BlckErr	Temp	State	Recorded	gain1	gain2
2026-01-10 03:33:06.24	189.28	0.03	-48.0	-49.6	5.7	7.61e-01	0	23	0	0	60	36911
2026-01-10 03:33:10.28	189.46	0.26	-48.0	-60.1	3.6	8.46e-01	0	24	104	0	60	36531
2026-01-10 03:33:14.31	189.63	0.49	-47.9	-60.1	3.6	8.45e-01	0	25	104	0	60	36738
2026-01-10 03:33:18.35	189.81	0.73	-47.5	-59.6	3.6	8.45e-01	0	25	104	0	60	34590
2026-01-10 03:33:22.39	189.99	0.96	-46.6	-58.5	3.6	8.44e-01	0	25	104	0	60	30342
2026-01-10 03:33:26.42	190.17	1.20	-46.6	-58.6	3.6	8.45e-01	0	25	104	0	60	30750
2026-01-10 03:33:30.46	190.36	1.43	-46.6	-58.6	3.5	8.46e-01	0	25	104	0	60	30923
2026-01-10 03:33:34.50	190.55	1.67	-46.5	-58.5	3.6	8.45e-01	0	25	104	0	60	30554
2026-01-10 03:33:38.54	190.74	1.92	-46.6	-58.5	3.6	8.45e-01	0	25	104	0	60	30481
2026-01-10 03:33:42.58	190.94	2.16	-46.6	-58.6	3.6	8.45e-01	0	25	104	0	60	30803
2026-01-10 03:33:46.62	191.14	2.41	-46.5	-58.1	3.6	8.45e-01	0	25	104	0	60	28955
2026-01-10 03:33:50.66	191.34	2.65	-46.4	-57.2	3.6	8.46e-01	0	25	104	0	60	26155
2026-01-10 03:33:54.70	191.54	2.90	-44.3	-47.8	9.4	4.87e-02	0	25	0	5242880	60	8830
2026-01-10 03:33:58.74	191.75	3.15	-37.4	-38.4	19.2	0.00e+00	0	25	0	28311552	48	6010
2026-01-10 03:34:02.77	191.96	3.41	-36.0	-36.8	20.6	0.00e+00	0	25	0	51380224	44	6316
2026-01-10 03:34:06.81	192.18	3.66	-43.5	-46.7	8.1	0.00e+00	0	25	0	73400320	54	11003
2026-01-10 03:34:10.85	192.39	3.92	-36.4	-37.3	20.5	0.00e+00	0	25	0	84934656	46	5921
2026-01-10 03:34:14.89	192.62	4.18	-36.6	-37.5	20.1	0.00e+00	0	25	0	108003328	46	6099
2026-01-10 03:34:18.92	192.84	4.44	-34.9	-35.7	22.1	0.00e+00	0	25	0	130023424	44	5554
2026-01-10 03:34:22.97	193.07	4.70	-34.7	-35.6	22.3	0.00e+00	0	25	0	153092096	42	6105
2026-01-10 03:34:27.00	193.30	4.97	-34.1	-34.9	22.9	0.00e+00	0	25	0	175112192	42	5633
2026-01-10 03:34:31.04	193.54	5.24	-33.9	-34.7	23.2	0.00e+00	0	25	0	198180864	42	5522
2026-01-10 03:34:35.08	193.78	5.51	-33.7	-34.5	23.4	0.00e+00	0	25	0	221249536	40	6057
2026-01-10 03:34:39.12	194.03	5.78	-33.7	-34.4	23.5	0.00e+00	0	25	0	244318208	40	5982
2026-01-10 03:34:43.15	194.28	6.06	-33.4	-34.2	23.8	0.00e+00	0	25	0	266338304	40	5841
2026-01-10 03:34:47.19	194.53	6.34	-33.4	-34.1	23.8	0.00e+00	0	25	0	289406976	40	5780
2026-01-10 03:34:51.23	194.79	6.62	-33.3	-34.0	23.9	0.00e+00	0	25	0	312475648	40	5739
2026-01-10 03:34:55.27	195.06	6.90	-33.1	-33.8	24.1	0.00e+00	0	25	0	334495744	40	5629
2026-01-10 03:34:59.30	195.33	7.19	-33.2	-33.9	24.1	0.00e+00	0	25	0	357564416	40	5692
2026-01-10 03:35:03.34	195.60	7.47	-33.0	-33.7	24.3	0.00e+00	0	25	0	379584512	40	5532
2026-01-10 03:35:07.38	195.88	7.77	-33.2	-33.9	24.1	0.00e+00	0	25	0	402653184	40	5688
2026-01-10 03:35:11.42	196.16	8.06	-32.8	-33.5	24.5	0.00e+00	0	25	0	425721856	40	5394
2026-01-10 03:35:15.46	196.45	8.36	-32.8	-33.5	24.5	0.00e+00	0	25	0	448790528	38	6060
2026-01-10 03:35:19.49	196.75	8.66	-32.7	-33.4	24.7	0.00e+00	0	25	0	470810624	38	5991
2026-01-10 03:35:23.53	197.05	8.96	-32.9	-33.5	24.6	0.00e+00	0	25	0	493879296	38	6076
2026-01-10 03:35:27.57	197.36	9.27	-33.0	-33.7	24.4	0.00e+00	0	25	0	516947968	38	6210
2026-01-10 03:35:31.61	197.67	9.58	-32.8	-33.5	24.6	0.00e+00	0	25	0	538968064	38	6052
2026-01-10 03:35:35.64	197.99	9.89	-32.9	-33.6	24.5	0.00e+00	0	25	0	562036736	38	6168
2026-01-10 03:35:39.59	198.31	10.20	-32.6	-33.3	24.8	0.00e+00	0	25	0	584056832	38	5936
2026-01-10 03:35:43.63	198.65	10.52	-32.3	-33.0	25.2	0.00e+00	0	26	0	607125504	38	5698
2026-01-10 03:35:47.67	198.99	10.84	-32.1	-32.7	25.3	0.00e+00	0	26	0	630194176	38	5561
2026-01-10 03:35:51.70	199.33	11.16	-32.0	-32.7	25.5	0.00e+00	0	26	0	652214272	38	5512
2026-01-10 03:35:55.74	199.69	11.49	-31.8	-32.4	25.7	0.00e+00	0	25	0	675282944	38	5367
2026-01-10 03:35:59.78	200.05	11.82	-31.9	-32.6	25.6	0.00e+00	0	26	0	698351616	38	5456
2026-01-10 03:36:03.82	200.43	12.16	-32.0	-32.6	25.6	0.00e+00	0	26	0	720371712	38	5500
2026-01-10 03:36:07.85	200.80	12.50	-31.7	-32.3	25.8	0.00e+00	0	26	0	743440384	36	5951
2026-01-10 03:36:11.89	201.19	12.84	-31.5	-32.1	26.0	0.00e+00	0	25	0	766509056	36	5802
2026-01-10 03:36:15.93	201.59	13.19	-31.6	-32.3	25.9	0.00e+00	0	26	0	788529152	36	5911
2026-01-10 03:36:19.97	202.00	13.54	-31.6	-32.3	25.9	0.00e+00	0	25	0	811597824	36	5920
2026-01-10 03:36:24.01	202.41	13.90	-31.4	-32.0	26.1	0.00e+00	0	25	0	834666496	36	5761
2026-01-10 03:36:28.05	202.84	14.26	-31.4	-32.0	26.1	0.00e+00	0	26	0	856686592	36	5726
2026-01-10 03:36:32.09	203.27	14.62	-31.2	-31.8	26.2	0.00e+00	0	26	0	879755264	36	5611
2026-01-10 03:36:36.12	203.72	14.98	-31.3	-31.9	26.2	0.00e+00	0	26	0	902823936	36	5690
2026-01-10 03:36:40.16	204.17	15.35	-30.9	-31.5	26.6	0.00e+00	0	25	0	924844032	36	5422
2026-01-10 03:36:44.20	204.64	15.73	-30.7	-31.3	26.8	0.00e+00	0	26	0	947912704	34	5928
2026-01-10 03:36:48.24	205.12	16.11	-30.8	-31.4	26.7	0.00e+00	0	26	0	970981376	34	5973
2026-01-10 03:36:52.28	205.61	16.49	-30.8	-31.4	26.7	0.00e+00	0	26	0	993001472	34	6015
2026-01-10 03:36:56.32	206.11	16.88	-30.6	-31.3	26.8	0.00e+00	0	26	0	1016070144	34	5903
2026-01-10 03:37:00.35	206.63	17.27	-30.6	-31.2	26.9	0.00e+00	0	26	0	1039138816	34	5848
2026-01-10 03:37:04.39	207.15	17.66	-30.6	-31.2	26.8	0.00e+00	0	26	0	1061158912	34	5875
2026-01-10 03:37:08.43	207.70	18.06	-30.5	-31.1	26.9	0.00e+00	0	26	0	1084227584	34	5814
2026-01-10 03:37:12.47	208.25	18.46	-30.5	-31.2	26.9	0.00e+00	0	26	0	1107296256	34	5843
2026-01-10 03:37:16.50	208.82	18.87	-30.1	-30.7	27.3	0.00e+00	0	26	0	1129316352	34	5539
2026-01-10 03:37:20.55	209.41	19.28	-30.1	-30.8	27.2	0.00e+00	0	26	0	1152385024	34	5579
2026-01-10 03:37:24.59	210.01	19.70	-29.9	-30.5	27.4	0.00e+00	0	26	0	1175453696	34	5412
2026-01-10 03:37:28.63	210.63	20.12	-29.8	-30.4	27.5	0.00e+00	0	26	0	1197473792	32	5983
2026-01-10 03:37:32.67	211.26	20.54	-29.8	-30.4	27.5	0.00e+00	0	26	0	1220542464	32	6008
2026-01-10 03:37:36.71	211.91	20.96	-29.8	-30.5	27.5	0.00e+00	0	26	0	1243611136	32	6041
2026-01-10 03:37:40.74	212.58	21.39	-30.0	-30.7	27.3	0.00e+00	0	26	0	1265631232	32	6199
2026-01-10 03:37:44.78	213.27	21.83	-29.5	-30.1	27.7	0.00e+00	0	26	0	1288699904	32	5777
2026-01-10 03:37:48.82	213.97	22.26	-29.3	-29.9	27.9	0.00e+00	0	26	0	1311768576	32	5645
2026-01-10 03:37:52.86	214.70	22.70	-29.1	-29.7	28.1	0.00e+00	0	26	0	1333788672	32	5546
2026-01-10 03:37:56.89	215.44	23.14	-29.3	-29.9	27.9	0.00e+00	0	26	0	1356857344	32	5639
2026-01-10 03:38:00.93	216.21	23.59	-29.1	-29.7	28.1	0.00e+00	0	26	0	1379926016	32	5509
2026-01-10 03:38:04.97	217.00	24.03	-29.2	-29.8	28.0	0.00e+00	0	26	0	1401946112	32	5615
2026-01-10 03:38:09.01	217.81	24.48	-29.1	-29.7	28.1	0.00e+00	0	25	0	1425014784	32	5547
2026-01-10 03:38:13.05	218.65	24.93	-29.1	-29.7	28.1	0.00e+00	0	26	0	1448083456	32	5521
2026-01-10 03:38:17.09	219.50	25.39	-28.7	-29.2	28.4	0.00e+00	0	26	0	1470103552	30	5887
2026-01-10 03:38:21.13	220.38	25.84	-28.9	-29.5	28.1	0.00e+00	0	26	0	1493172224	30	6076
2026-01-10 03:38:25.17	221.29	26.29	-28.7	-29.2	28.5	0.00e+00	0	26	0	1516240896	30	5879
2026-01-10 03:38:29.20	222.22	26.75	-28.7	-29.3	28.4	0.00e+00	0	26	0	1538260992	30	5938
2026-01-10 03:38:33.24	223.18	27.20	-28.4	-29.0	28.6	0.00e+00	0	26	0	1561329664	30	5750
2026-01-10 03:38:37.28	224.17	27.65	-28.7	-29.3	28.4	0.00e+00	0	26	0	1584398336	30	5957
2026-01-10 03:38:41.31	225.18	28.10	-28.5	-29.1	28.5	0.00e+00	0	26	0	1606418432	30	5776
2026-01-10 03:38:45.35	226.22	28.55	-28.5	-29.1	28.6	0.00e+00	0	26	0	1629487104	30	5782
2026-01-10 03:38:49.40	227.29	28.99	-28.1	-28.8	28.8	0.00e+00	0	26	0	1652555776	30	5569
2026-01-10 03:38:53.44	228.39	29.43	-28.4	-29.0	28.5	0.00e+00	0	26	0	1674575872	30	5746
2026-01-10 03:38:57.48	229.52	29.87	-28.2	-28.8	28.8	0.00e+00	0	26	0	1697644544	30	5611
2026-01-10 03:39:01.52	230.68	30.30	-28.5	-29.1	28.6	0.00e+00	0	26	0	1720713216	30	5784
2026-01-10 03:39:05.56	231.87	30.72	-28.1	-28.7	28.7	0.00e+00	0	26	0	1742733312	30	5519
2026-01-10 03:39:09.60	233.09	31.14	-28.4	-29.0	28.5	0.00e+00	0	26	0	1765801984	30	5740
2026-01-10 03:39:13.63	234.33	31.54	-28.3	-28.8	28.7	0.00e+00	0	26	0	1788870656	30	5630
2026-01-10 03:39:17.67	235.61	31.94	-28.4	-29.0	28.5	0.00e+00	0	26	0	1810890752	30	5729
2026-01-10 03:39:21.70	236.92	32.33	-28.4	-29.0	28.7	0.00e+00	0	26	0	1833959424	30	5724
2026-01-10 03:39:25.74	238.27	32.70	-28.2	-28.8	28.8	0.00e+00	0	26	0	1857028096	30	5570
2026-01-10 03:39:29.78	239.64	33.07	-28.3	-28.9	28.5	0.00e+00	0	26	0	1879048192	30	5695
2026-01-10 03:39:33.82	241.04	33.41	-28.0	-28.5	29.0	0.00e+00	0	26	0	1902116864	30	5439
2026-01-10 03:39:37.86	242.47	33.75	-28.1	-28.7	28.8	0.00e+00	0	26	0	1925185536	30	5539
2026-01-10 03:39:41.89	243.93	34.06	-28.0	-28.5	28.9	0.00e+00	0	26	0	1947205632	30	5421
2026-01-10 03:39:45.93	245.42	34.36	-28.3	-28.9	28.7	0.00e+00	0	26	0	1970274304	30	5652
2026-01-10 03:39:49.97	246.93	34.64	-28.1	-28.7	28.8	0.00e+00	0	26	0	1992294400	30	5539
2026-01-10 03:39:54.01	248.47	34.90	-27.9	-28.6	28.9	0.00e+00	0	26	0	2015363072	30	5440
2026-01-10 03:39:58.04	250.03	35.14	-27.8	-28.3	29.1	0.00e+00	0	26	0	2038431744	28	5948
2026-01-10 03:40:02.08	251.61	35.36	-27.9	-28.4	29.0	0.00e+00	0	26	0	2061500416	28	6021
2026-01-10 03:40:06.12	253.21	35.55	-27.9	-28.4	29.0	0.00e+00	0	26	0	2083520512	28	6025
2026-01-10 03:40:10.16	254.83	35.72	-28.1	-28.7	28.8	0.00e+00	0	26	0	2106589184	28	6202
2026-01-10 03:40:14.20	256.47	35.86	-28.0	-28.6	28.8	0.00e+00	0	26	0	2129657856	28	6106
2026-01-10 03:40:18.24	258.12	35.98	-27.9	-28.5	29.0	0.00e+00	0	26	0	2151677952	28	6072
2026-01-10 03:40:22.27	259.77	36.08	-27.9	-28.5	28.9	0.00e+00	0	26	0	2174746624	28	6053
2026-01-10 03:40:26.30	261.43	36.15	-27.6	-28.2	29.1	0.00e+00	0	26	0	2196766720	28	5851
2026-01-10 03:40:30.35	263.11	36.19	-27.8	-28.4	29.0	0.00e+00	0	26	0	2219835392	28	5974
2026-01-10 03:40:34.38	264.78	36.20	-28.0	-28.5	29.0	0.00e+00	0	26	0	2242904064	28	6094
2026-01-10 03:40:38.42	266.46	36.19	-27.8	-28.4	28.9	0.00e+00	0	26	0	2264924160	28	5976
2026-01-10 03:40:42.46	268.13	36.15	-27.8	-28.5	28.7	0.00e+00	0	26	0	2287992832	28	6042
2026-01-10 03:40:46.50	269.80	36.09	-27.9	-28.5	28.8	0.00e+00	0	26	0	2311061504	28	6051
2026-01-10 03:40:50.53	271.45	35.99	-27.9	-28.4	29.0	0.00e+00	0	26	0	2334130176	28	6030
2026-01-10 03:40:54.57	273.10	35.88	-28.1	-28.6	28.8	0.00e+00	0	26	0	2356150272	28	6157
2026-01-10 03:40:58.61	274.73	35.73	-27.7	-28.3	29.1	0.00e+00	0	26	0	2379218944	28	5939
2026-01-10 03:41:02.64	276.35	35.56	-27.8	-28.4	29.1	0.00e+00	0	26	0	2401239040	28	6014
2026-01-10 03:41:06.68	277.95	35.37	-27.9	-28.5	28.9	0.00e+00	0	26	0	2424307712	28	6048
2026-01-10 03:41:10.72	279.53	35.16	-27.8	-28.5	29.0	0.00e+00	0	26	0	2447376384	28	6056
2026-01-10 03:41:14.76	281.10	34.92	-28.4	-29.0	28.6	0.00e+00	0	26	0	2469396480	28	6459
2026-01-10 03:41:18.80	282.63	34.66	-27.9	-28.6	28.9	0.00e+00	0	26	0	2492465152	28	6112
2026-01-10 03:41:22.84	284.15	34.39	-28.1	-28.7	28.6	0.00e+00	0	26	0	2515533824	28	6185
2026-01-10 03:41:26.88	285.63	34.09	-28.1	-28.7	28.7	0.00e+00	0	26	0	2538602496	28	6195
2026-01-10 03:41:30.92	287.09	33.78	-28.0	-28.7	28.8	0.00e+00	0	26	0	2560622592	28	6198
2026-01-10 03:41:34.95	288.52	33.45	-28.5	-29.2	28.5	0.00e+00	0	26	0	2583691264	28	6570
2026-01-10 03:41:38.98	289.92	33.10	-28.5	-29.0	28.5	0.00e+00	0	26	0	2605711360	28	6418
2026-01-10 03:41:43.02	291.29	32.74	-28.4	-29.0	28.6	0.00e+00	0	26	0	2628780032	28	6447
2026-01-10 03:41:47.06	292.63	32.37	-28.5	-29.1	28.5	0.00e+00	0	26	0	2651848704	28	6517
2026-01-10 03:41:51.10	293.94	31.99	-28.7	-29.3	28.3	0.00e+00	0	26	0	2673868800	28	6679
2026-01-10 03:41:55.14	295.22	31.59	-28.6	-29.1	28.5	0.00e+00	0	26	0	2696937472	30	5815
2026-01-10 03:41:59.17	296.47	31.19	-28.7	-29.3	28.4	0.00e+00	0	26	0	2720006144	30	5939
2026-01-10 03:42:03.21	297.69	30.78	-28.4	-28.9	28.5	0.00e+00	0	26	0	2742026240	30	5684
2026-01-10 03:42:07.25	298.88	30.35	-28.4	-29.1	28.4	0.00e+00	0	26	0	2765094912	30	5780
2026-01-10 03:42:11.29	300.04	29.93	-28.6	-29.3	28.4	0.00e+00	0	26	0	2788163584	30	5941
2026-01-10 03:42:15.32	301.16	29.50	-29.5	-30.1	27.7	0.00e+00	0	26	0	2810183680	30	6528
2026-01-10 03:42:19.36	302.26	29.06	-28.7	-29.3	28.2	0.00e+00	0	26	0	2833252352	30	5902
2026-01-10 03:42:23.40	303.33	28.62	-28.8	-29.3	28.2	0.00e+00	0	26	0	2856321024	30	5936
2026-01-10 03:42:27.43	304.37	28.17	-29.0	-29.6	27.8	0.00e+00	0	26	0	2878341120	30	6150
2026-01-10 03:42:31.47	305.38	27.73	-28.8	-29.5	27.9	0.00e+00	0	26	0	2901409792	30	6078
2026-01-10 03:42:35.51	306.37	27.28	-28.8	-29.5	28.2	0.00e+00	0	26	0	2924478464	30	6047
2026-01-10 03:42:39.55	307.33	26.83	-29.2	-29.8	27.7	0.00e+00	0	26	0	2946498560	30	6299
2026-01-10 03:42:43.58	308.26	26.38	-29.1	-29.6	28.0	0.00e+00	0	26	0	2969567232	30	6148
2026-01-10 03:42:47.62	309.16	25.93	-28.9	-29.4	28.1	0.00e+00	0	26	0	2992635904	30	6000
2026-01-10 03:42:51.66	310.04	25.47	-28.7	-29.4	28.2	0.00e+00	0	26	0	3014656000	30	6009
2026-01-10 03:42:55.70	310.90	25.03	-28.7	-29.2	28.2	0.00e+00	0	26	0	3037724672	30	5876
2026-01-10 03:42:59.74	311.74	24.58	-28.9	-29.6	28.1	0.00e+00	0	26	0	3060793344	30	6155
2026-01-10 03:43:03.77	312.55	24.13	-29.1	-29.8	27.9	0.00e+00	0	26	0	3082813440	30	6299
2026-01-10 03:43:07.81	313.34	23.69	-29.5	-30.2	27.6	0.00e+00	0	26	0	3105882112	30	6540
2026-01-10 03:43:11.85	314.10	23.24	-29.3	-30.0	27.7	0.00e+00	0	26	0	3128950784	30	6396
2026-01-10 03:43:15.89	314.85	22.80	-29.5	-30.2	27.6	0.00e+00	0	26	0	3150970880	30	6569
2026-01-10 03:43:19.93	315.58	22.37	-29.5	-30.2	27.6	0.00e+00	0	26	0	3174039552	32	5863
2026-01-10 03:43:23.97	316.28	21.93	-29.4	-29.9	27.7	0.00e+00	0	26	0	3196059648	32	5692
2026-01-10 03:43:28.01	316.97	21.50	-29.6	-30.1	27.4	0.00e+00	0	26	0	3219128320	32	5824
2026-01-10 03:43:32.04	317.64	21.08	-29.9	-30.6	27.3	0.00e+00	0	26	0	3242196992	32	6133
2026-01-10 03:43:36.08	318.29	20.65	-30.1	-30.8	27.1	0.00e+00	0	26	0	3265265664	32	6256
2026-01-10 03:43:40.11	318.93	20.23	-29.9	-30.5	27.3	0.00e+00	0	26	0	3287285760	32	6071
2026-01-10 03:43:44.15	319.55	19.82	-30.1	-30.8	27.0	0.00e+00	0	26	0	3310354432	32	6257
2026-01-10 03:43:48.19	320.15	19.40	-30.4	-31.0	26.7	0.00e+00	0	26	0	3333423104	32	6428
2026-01-10 03:43:52.23	320.74	19.00	-30.6	-31.2	26.7	0.00e+00	0	26	0	3355443200	32	6549
2026-01-10 03:43:56.27	321.31	18.59	-30.6	-31.2	26.7	0.00e+00	0	26	0	3378511872	32	6569
2026-01-10 03:44:00.31	321.87	18.19	-30.9	-31.4	26.4	0.00e+00	0	26	0	3400531968	34	6021
2026-01-10 03:44:04.35	322.41	17.79	-31.1	-31.6	26.3	0.00e+00	0	26	0	3423600640	34	6152
2026-01-10 03:44:08.39	322.94	17.40	-31.3	-31.9	26.0	0.00e+00	0	26	0	3446669312	34	6323
2026-01-10 03:44:12.42	323.46	17.01	-30.9	-31.4	26.4	0.00e+00	0	26	0	3469737984	34	6007
2026-01-10 03:44:16.46	323.96	16.63	-31.0	-31.8	26.3	0.00e+00	0	26	0	3491758080	34	6253
2026-01-10 03:44:20.49	324.45	16.25	-31.1	-31.7	26.2	0.00e+00	0	26	0	3514826752	34	6196
2026-01-10 03:44:24.53	324.93	15.87	-31.1	-31.7	26.1	0.00e+00	0	26	0	3537895424	34	6177
2026-01-10 03:44:28.57	325.40	15.50	-31.1	-31.7	26.2	0.00e+00	0	26	0	3559915520	34	6205
2026-01-10 03:44:32.61	325.86	15.13	-31.3	-32.0	25.9	0.00e+00	0	26	0	3582984192	34	6429
2026-01-10 03:44:36.64	326.31	14.76	-31.4	-32.0	25.9	0.00e+00	0	26	0	3605004288	34	6433
2026-01-10 03:44:40.68	326.74	14.40	-31.5	-32.1	25.8	0.00e+00	0	26	0	3628072960	34	6515
2026-01-10 03:44:44.72	327.17	14.05	-31.5	-32.3	25.7	0.00e+00	0	26	0	3651141632	34	6621
2026-01-10 03:44:48.76	327.59	13.69	-31.6	-32.1	25.7	0.00e+00	0	26	0	3673161728	34	6537
2026-01-10 03:44:52.80	328.00	13.34	-31.9	-32.6	25.5	0.00e+00	0	26	0	3696230400	36	6136
2026-01-10 03:44:56.83	328.39	13.00	-32.2	-32.9	25.2	0.00e+00	0	26	0	3719299072	36	6369
2026-01-10 03:45:00.87	328.78	12.66	-32.4	-33.1	25.0	0.00e+00	0	26	0	3741319168	36	6517
2026-01-10 03:45:04.91	329.17	12.32	-32.3	-33.0	25.1	0.00e+00	0	26	0	3764387840	36	6398
2026-01-10 03:45:08.95	329.54	11.98	-32.3	-32.9	25.1	0.00e+00	0	26	0	3787456512	36	6334
2026-01-10 03:45:12.99	329.91	11.65	-32.3	-33.1	25.0	0.00e+00	0	26	0	3809476608	36	6500
2026-01-10 03:45:17.02	330.26	11.32	-32.7	-33.3	24.6	0.00e+00	0	26	0	3832545280	36	6652
2026-01-10 03:45:21.06	330.61	11.00	-32.8	-33.4	24.6	0.00e+00	0	26	0	3855613952	36	6737
2026-01-10 03:45:25.10	330.96	10.68	-32.8	-33.6	24.4	0.00e+00	0	26	0	3877634048	38	6110
2026-01-10 03:45:29.14	331.29	10.36	-32.7	-33.5	24.6	0.00e+00	0	26	0	3900702720	38	6036
2026-01-10 03:45:33.17	331.62	10.05	-32.7	-33.4	24.6	0.00e+00	0	26	0	3923771392	38	6019
2026-01-10 03:45:37.21	331.95	9.74	-32.9	-33.5	24.3	0.00e+00	0	26	0	3945791488	38	6049
2026-01-10 03:45:41.25	332.26	9.43	-32.8	-33.6	24.4	0.00e+00	0	26	0	3968860160	38	6135
2026-01-10 03:45:45.29	332.57	9.12	-33.0	-33.6	24.2	0.00e+00	0	26	0	3991928832	38	6132
2026-01-10 03:45:49.33	332.88	8.82	-33.1	-33.7	24.1	0.00e+00	0	26	0	4013948928	38	6239
2026-01-10 03:45:53.37	333.18	8.52	-33.2	-34.0	24.0	0.00e+00	0	26	0	4037017600	38	6425
2026-01-10 03:45:57.40	333.47	8.23	-33.2	-33.8	23.9	0.00e+00	0	26	0	4060086272	38	6287
2026-01-10 03:46:01.44	333.76	7.93	-33.2	-34.0	23.9	0.00e+00	0	26	0	4082106368	38	6422
2026-01-10 03:46:05.48	334.04	7.64	-33.3	-34.0	23.8	0.00e+00	0	26	0	4105175040	38	6413
2026-01-10 03:46:09.52	334.32	7.36	-33.3	-34.1	23.7	0.00e+00	0	26	0	4128243712	38	6516
2026-01-10 03:46:13.56	334.59	7.07	-33.3	-34.1	23.7	0.00e+00	0	26	0	4150263808	38	6467
2026-01-10 03:46:17.60	334.86	6.79	-33.3	-34.0	23.6	0.00e+00	0	26	0	4173332480	38	6401
2026-01-10 03:46:21.63	335.12	6.51	-33.5	-34.3	23.2	0.00e+00	0	26	0	4196401152	40	5935
2026-01-10 03:46:25.67	335.38	6.23	-33.9	-34.8	22.6	0.00e+00	0	26	0	4218421248	40	6258
2026-01-10 03:46:29.71	335.63	5.96	-34.6	-35.4	21.7	0.00e+00	0	26	0	4241489920	40	6705
2026-01-10 03:46:33.74	335.88	5.69	-35.5	-36.5	20.1	0.00e+00	0	26	0	4264558592	42	6847
2026-01-10 03:46:37.78	336.12	5.42	-36.8	-37.9	17.9	0.00e+00	0	26	0	4286578688	44	7104
2026-01-10 03:46:41.81	336.36	5.15	-38.4	-40.0	15.2	0.00e+00	0	26	0	4309647360	48	7240
2026-01-10 03:46:45.85	336.60	4.89	-39.9	-42.3	12.2	1.34e-04	0	26	0	4332716032	52	7427
2026-01-10 03:46:49.89	336.83	4.62	-41.0	-44.2	9.6	1.23e-02	0	26	0	4354736128	54	8316
2026-01-10 03:46:53.93	337.06	4.36	-41.9	-46.6	6.7	1.77e-01	0	26	0	4377804800	56	9737
2026-01-10 03:46:57.97	337.29	4.10	-42.4	-48.6	4.6	7.75e-01	0	26	0	4392484864	56	12244
2026-01-10 03:47:02.01	337.51	3.85	-42.7	-51.8	3.9	8.41e-01	0	26	104	4393533440	56	17657
2026-01-10 03:47:06.04	337.73	3.59	-42.7	-53.6	3.6	8.46e-01	0	26	104	4393533440	56	21735
2026-01-10 03:47:10.08	337.94	3.34	-42.7	-54.8	3.6	8.47e-01	0	26	104	4393533440	58	22177
2026-01-10 03:47:14.12	338.16	3.09	-42.8	-54.7	3.6	8.45e-01	0	26	104	4393533440	58	22087
2026-01-10 03:47:18.15	338.36	2.84	-47.4	-59.5	3.6	8.45e-01	0	26	104	4393533440	60	34035
2026-01-10 03:47:22.19	338.57	2.60	-48.0	-60.1	3.6	8.45e-01	0	26	104	4393533440	60	36478
2026-01-10 03:47:26.23	338.77	2.35	-47.7	-60.1	3.6	8.46e-01	0	26	104	4393533440	60	36671
2026-01-10 03:47:30.27	338.97	2.11	-47.9	-60.0	3.6	8.45e-01	0	26	104	4393533440	60	36101
2026-01-10 03:47:34.31	339.17	1.87	-47.9	-60.0	3.6	8.46e-01	0	26	104	4393533440	60	36331
2026-01-10 03:47:38.35	339.36	1.63	-47.9	-60.0	3.6	8.44e-01	0	26	104	4393533440	60	36089
2026-01-10 03:47:42.39	339.55	1.40	-47.9	-60.0	3.6	8.46e-01	0	26	104	4393533440	60	36026
2026-01-10 03:47:46.42	339.74	1.16	-47.9	-60.0	3.5	8.44e-01	0	26	104	4393533440	60	36154
2026-01-10 03:47:50.46	339.92	0.93	-47.9	-60.0	3.6	8.45e-01	0	26	104	4393533440	60	36136
2026-01-10 03:47:54.50	340.11	0.69	-47.9	-60.0	3.6	8.46e-01	0	26	104	4393533440	60	36078
2026-01-10 03:47:58.55	340.29	0.46	-47.9	-60.0	3.6	8.45e-01	0	26	104	4393533440	60	36212
2026-01-10 03:48:02.59	340.47	0.23	-47.9	-59.9	3.6	8.46e-01	0	26	104	4393533440	60	35855
2026-01-10 03:48:06.62	340.64	0.01	-47.9	-59.9	3.6	8.46e-01	0	26	104	4393533440	60	35904

#Closed at: 2026-01-10 03:48:07
#Recorded file [4393 MB]: D:/lorett/data/35029_260110_153306.dat