passes_logs/2026/01/10/R4.6S_Anadyr/R4.6S_Anadyr__20260110_021221_AQUA_rec.log

#Pass ID: 20260110_021221_AQUA
#Satellite: AQUA
#Configuration: AQUA
#almurnet v.1.7.20251203
#Start time: 2026-01-10 02:12:23

#Version: 2.2.20231116
#Station: R4.6S_Anadyr
#Location: 177.4865 lon 64.73178 lat
#TLE: 1 27424U 02022A   26009.00333547  .00001046  00000+0  21942-3 0  9998
#TLE: 2 27424  98.4075 335.3304 0002026  85.7625 349.1392 14.61808998260012

#Time	Az	El	Level	Level2	SNR	BER	BlckErr	Temp	State	Recorded	gain1	gain2
2026-01-10 02:12:23.11	163.40	0.11	-47.9	-59.5	3.4	8.45e-01	0	23	0	0	60	34318
2026-01-10 02:12:27.15	163.45	0.36	-48.5	-66.3	3.5	3.02e+01	0	24	104	0	60	79792
2026-01-10 02:12:31.18	163.50	0.61	-48.5	-66.3	3.5	3.02e+01	0	24	104	0	60	79627
2026-01-10 02:12:35.22	163.55	0.87	-48.0	-65.9	3.5	3.02e+01	0	24	104	0	60	75772
2026-01-10 02:12:39.26	163.60	1.13	-47.0	-64.8	3.5	3.02e+01	0	25	104	0	60	66663
2026-01-10 02:12:43.30	163.65	1.39	-46.9	-64.8	3.5	3.02e+01	0	25	104	0	60	66703
2026-01-10 02:12:47.34	163.70	1.65	-46.9	-64.2	3.5	3.02e+01	0	25	104	0	60	62568
2026-01-10 02:12:51.38	163.76	1.92	-46.9	-63.7	3.5	3.02e+01	0	25	104	0	60	59178
2026-01-10 02:12:55.42	163.81	2.19	-46.9	-64.6	3.5	3.02e+01	0	25	104	0	60	65549
2026-01-10 02:12:59.46	163.86	2.46	-46.9	-63.8	3.5	3.02e+01	0	25	104	0	60	59803
2026-01-10 02:13:03.50	163.92	2.73	-46.7	-60.3	3.7	3.02e+01	0	25	104	0	60	39785
2026-01-10 02:13:07.54	163.97	3.01	-46.7	-60.2	4.6	3.02e+01	0	25	104	0	60	39315
2026-01-10 02:13:11.58	164.03	3.29	-44.2	-48.4	16.3	3.02e+01	0	25	0	5242880	60	10086
2026-01-10 02:13:15.62	164.09	3.58	-39.2	-41.0	23.3	3.02e+01	0	25	0	12582912	54	6093
2026-01-10 02:13:19.66	164.15	3.86	-38.5	-40.2	24.0	3.02e+01	0	25	0	20447232	52	6206
2026-01-10 02:13:23.70	164.21	4.15	-41.9	-44.6	18.4	3.02e+01	0	25	0	27787264	52	10411
2026-01-10 02:13:27.74	164.27	4.45	-37.8	-39.4	24.8	3.02e+01	0	25	0	33030144	52	5690
2026-01-10 02:13:31.77	164.33	4.74	-36.2	-37.5	26.6	3.02e+01	0	25	0	40370176	48	5784
2026-01-10 02:13:35.81	164.39	5.05	-35.6	-36.9	27.2	3.02e+01	0	25	0	48234496	46	6033
2026-01-10 02:13:39.85	164.46	5.35	-35.5	-36.8	27.3	3.02e+01	0	25	0	55574528	46	5988
2026-01-10 02:13:43.89	164.52	5.66	-35.4	-36.8	27.4	3.02e+01	0	25	0	63438848	46	5937
2026-01-10 02:13:47.92	164.59	5.97	-35.3	-36.6	27.6	3.02e+01	0	25	0	70778880	46	5805
2026-01-10 02:13:51.95	164.65	6.29	-35.4	-36.7	27.6	3.02e+01	0	25	0	78643200	46	5925
2026-01-10 02:13:55.98	164.72	6.61	-35.2	-36.5	27.8	3.02e+01	0	25	0	85983232	46	5770
2026-01-10 02:14:00.02	164.79	6.94	-35.3	-36.6	27.7	3.02e+01	0	25	0	93847552	46	5831
2026-01-10 02:14:04.06	164.87	7.27	-35.1	-36.4	27.9	3.02e+01	0	25	0	101187584	46	5692
2026-01-10 02:14:08.09	164.94	7.60	-35.1	-36.3	27.9	3.02e+01	0	25	0	108527616	46	5656
2026-01-10 02:14:12.13	165.01	7.95	-35.1	-36.4	28.0	3.02e+01	0	25	0	116391936	46	5681
2026-01-10 02:14:16.17	165.09	8.29	-34.9	-36.1	28.2	3.02e+01	0	25	0	123731968	44	6191
2026-01-10 02:14:20.20	165.17	8.64	-34.8	-36.1	28.3	3.02e+01	0	25	0	131596288	44	6153
2026-01-10 02:14:24.24	165.25	9.00	-34.5	-35.7	28.6	3.02e+01	0	25	0	138936320	44	5905
2026-01-10 02:14:28.27	165.33	9.36	-34.4	-35.7	28.7	3.02e+01	0	25	0	146800640	44	5865
2026-01-10 02:14:32.31	165.41	9.73	-34.4	-35.6	28.7	3.02e+01	0	25	0	154140672	44	5848
2026-01-10 02:14:36.35	165.50	10.11	-34.5	-35.8	28.6	3.02e+01	0	25	0	162004992	44	5946
2026-01-10 02:14:40.38	165.58	10.49	-34.3	-35.6	28.9	3.02e+01	0	25	0	169345024	44	5809
2026-01-10 02:14:44.42	165.67	10.87	-34.2	-35.4	29.0	3.02e+01	0	25	0	176685056	44	5712
2026-01-10 02:14:48.46	165.77	11.27	-34.2	-35.4	29.0	3.02e+01	0	25	0	184549376	44	5692
2026-01-10 02:14:52.50	165.86	11.67	-34.2	-35.4	29.0	3.02e+01	0	25	0	191889408	44	5725
2026-01-10 02:14:56.54	165.96	12.08	-34.1	-35.3	29.1	3.02e+01	0	25	0	199753728	44	5630
2026-01-10 02:15:00.58	166.06	12.50	-34.1	-35.3	29.2	3.02e+01	0	25	0	207093760	44	5618
2026-01-10 02:15:04.61	166.16	12.92	-33.9	-35.1	29.3	3.02e+01	0	25	0	214958080	42	6184
2026-01-10 02:15:08.66	166.26	13.36	-33.7	-34.9	29.5	3.02e+01	0	25	0	222298112	42	6048
2026-01-10 02:15:12.69	166.37	13.80	-33.5	-34.7	29.7	3.02e+01	0	25	0	230162432	42	5906
2026-01-10 02:15:16.73	166.48	14.25	-33.6	-34.8	29.6	3.02e+01	0	25	0	237502464	42	5944
2026-01-10 02:15:20.76	166.59	14.71	-33.6	-34.8	29.7	3.02e+01	0	25	0	244842496	42	5932
2026-01-10 02:15:24.80	166.71	15.18	-33.7	-34.8	29.7	3.02e+01	0	25	0	252706816	42	5993
2026-01-10 02:15:28.84	166.83	15.66	-33.7	-34.9	29.6	3.02e+01	0	25	0	260046848	42	6026
2026-01-10 02:15:32.88	166.95	16.15	-33.4	-34.5	30.0	3.02e+01	0	25	0	267911168	42	5785
2026-01-10 02:15:36.91	167.08	16.65	-33.4	-34.6	30.0	3.02e+01	0	25	0	275251200	42	5801
2026-01-10 02:15:40.95	167.21	17.17	-33.3	-34.5	30.0	3.02e+01	0	25	0	283115520	42	5778
2026-01-10 02:15:44.98	167.35	17.69	-33.7	-34.9	29.7	3.02e+01	0	25	0	290455552	42	6009
2026-01-10 02:15:49.01	167.49	18.23	-33.6	-34.8	29.8	3.02e+01	0	25	0	297795584	42	5964
2026-01-10 02:15:53.05	167.64	18.78	-33.6	-34.8	29.8	3.02e+01	0	25	0	305659904	42	5936
2026-01-10 02:15:57.09	167.79	19.35	-33.6	-34.8	29.8	3.02e+01	0	25	0	312999936	42	5951
2026-01-10 02:16:01.12	167.95	19.93	-33.4	-34.6	30.0	3.02e+01	0	25	0	320864256	42	5819
2026-01-10 02:16:05.16	168.11	20.52	-33.5	-34.7	29.9	3.02e+01	0	25	0	328204288	42	5916
2026-01-10 02:16:09.19	168.28	21.13	-33.6	-34.8	29.9	3.02e+01	0	26	0	336068608	42	5938
2026-01-10 02:16:13.23	168.45	21.76	-33.7	-34.8	29.7	3.02e+01	0	26	0	343408640	42	5988
2026-01-10 02:16:17.26	168.64	22.40	-33.8	-35.0	29.7	3.02e+01	0	25	0	350748672	42	6094
2026-01-10 02:16:21.30	168.83	23.06	-34.0	-35.2	29.5	3.02e+01	0	26	0	358612992	42	6242
2026-01-10 02:16:25.34	169.02	23.74	-34.0	-35.2	29.5	3.02e+01	0	25	0	365953024	42	6262
2026-01-10 02:16:29.38	169.23	24.44	-34.0	-35.2	29.6	3.02e+01	0	25	0	373817344	42	6208
2026-01-10 02:16:33.41	169.45	25.16	-33.9	-35.1	29.7	3.02e+01	0	26	0	381157376	42	6168
2026-01-10 02:16:37.45	169.67	25.90	-33.8	-35.0	29.7	3.02e+01	0	25	0	389021696	42	6074
2026-01-10 02:16:41.49	169.91	26.67	-33.6	-34.7	29.9	3.02e+01	0	25	0	396361728	42	5917
2026-01-10 02:16:45.52	170.16	27.45	-33.5	-34.7	30.0	3.02e+01	0	26	0	403701760	42	5900
2026-01-10 02:16:49.56	170.42	28.27	-33.3	-34.5	30.2	3.02e+01	0	26	0	411566080	42	5750
2026-01-10 02:16:53.60	170.69	29.10	-33.3	-34.4	30.2	3.02e+01	0	25	0	418906112	42	5707
2026-01-10 02:16:57.64	170.98	29.97	-33.2	-34.3	30.4	3.02e+01	0	25	0	426770432	42	5645
2026-01-10 02:17:01.67	171.28	30.86	-33.0	-34.2	30.5	3.02e+01	0	25	0	434110464	42	5556
2026-01-10 02:17:05.71	171.61	31.78	-33.6	-34.8	30.0	3.02e+01	0	25	0	441974784	42	5965
2026-01-10 02:17:09.75	171.95	32.74	-33.3	-34.5	30.3	3.02e+01	0	25	0	449314816	42	5743
2026-01-10 02:17:13.79	172.31	33.72	-34.1	-35.3	29.6	3.02e+01	0	25	0	457179136	42	6310
2026-01-10 02:17:17.82	172.69	34.74	-34.3	-35.5	29.5	3.02e+01	0	25	0	464519168	42	6432
2026-01-10 02:17:21.86	173.10	35.80	-34.7	-36.0	28.9	3.02e+01	0	25	0	471859200	42	6822
2026-01-10 02:17:25.90	173.53	36.89	-35.4	-36.7	28.4	3.02e+01	0	26	0	479723520	44	6589
2026-01-10 02:17:29.94	174.00	38.02	-35.6	-36.9	28.2	3.02e+01	0	26	0	487063552	44	6770
2026-01-10 02:17:33.98	174.50	39.18	-35.4	-36.6	28.4	3.02e+01	0	25	0	494927872	44	6554
2026-01-10 02:17:38.01	175.03	40.39	-35.3	-36.5	28.4	3.02e+01	0	25	0	502267904	44	6498
2026-01-10 02:17:42.04	175.61	41.64	-34.4	-35.6	29.2	3.02e+01	0	25	0	510132224	44	5848
2026-01-10 02:17:46.08	176.24	42.93	-33.9	-35.1	29.8	3.02e+01	0	25	0	517472256	42	6137
2026-01-10 02:17:50.12	176.91	44.27	-33.7	-34.9	29.9	3.02e+01	0	25	0	524812288	42	6017
2026-01-10 02:17:54.16	177.65	45.65	-33.3	-34.5	30.3	3.02e+01	0	26	0	532676608	42	5737
2026-01-10 02:17:58.20	178.46	47.08	-33.4	-34.6	30.1	3.02e+01	0	26	0	540016640	42	5826
2026-01-10 02:18:02.23	179.34	48.55	-33.3	-34.5	30.4	3.02e+01	0	26	0	547880960	42	5759
2026-01-10 02:18:06.27	180.31	50.07	-33.2	-34.4	30.3	3.02e+01	0	25	0	555220992	42	5695
2026-01-10 02:18:10.31	181.39	51.64	-32.8	-34.0	30.5	3.02e+01	0	25	0	563085312	40	6096
2026-01-10 02:18:14.35	182.59	53.25	-32.9	-34.0	30.6	3.02e+01	0	26	0	570425344	40	6098
2026-01-10 02:18:18.39	183.92	54.90	-33.2	-34.4	30.3	3.02e+01	0	26	0	578289664	40	6395
2026-01-10 02:18:22.42	185.42	56.58	-34.0	-35.2	29.7	3.02e+01	0	26	0	585629696	42	6223
2026-01-10 02:18:26.46	187.12	58.30	-34.7	-35.9	29.1	3.02e+01	0	26	0	592969728	42	6802
2026-01-10 02:18:30.50	189.06	60.05	-35.3	-36.5	28.5	3.02e+01	0	26	0	600834048	44	6469
2026-01-10 02:18:34.53	191.27	61.81	-36.7	-38.1	27.2	3.02e+01	0	26	0	608174080	46	6905
2026-01-10 02:18:38.56	193.82	63.58	-37.5	-38.9	26.4	3.02e+01	0	26	0	616038400	48	6745
2026-01-10 02:18:42.60	196.80	65.34	-38.4	-39.9	25.4	3.02e+01	0	25	0	623378432	50	6763
2026-01-10 02:18:46.64	200.28	67.08	-39.1	-40.7	24.7	3.02e+01	0	26	0	631242752	52	6604
2026-01-10 02:18:50.68	204.38	68.76	-39.3	-40.9	24.5	3.02e+01	0	26	0	638582784	52	6770
2026-01-10 02:18:54.71	209.20	70.35	-39.5	-41.2	24.4	3.02e+01	0	26	0	645922816	52	6998
2026-01-10 02:18:58.75	214.91	71.81	-37.0	-38.4	26.8	3.02e+01	0	26	0	653787136	50	5695
2026-01-10 02:19:02.79	221.61	73.09	-37.0	-38.5	26.8	3.02e+01	0	26	0	661127168	48	6425
2026-01-10 02:19:06.83	229.34	74.13	-37.1	-38.5	26.7	3.02e+01	0	26	0	668991488	48	6469
2026-01-10 02:19:10.86	238.01	74.86	-36.5	-37.8	27.4	3.02e+01	0	26	0	676331520	48	5980
2026-01-10 02:19:14.90	247.38	75.24	-36.9	-38.2	27.0	3.02e+01	0	26	0	684195840	48	6277
2026-01-10 02:19:18.94	256.99	75.22	-36.3	-37.7	27.5	3.02e+01	0	26	0	691535872	46	6579
2026-01-10 02:19:22.98	266.31	74.81	-36.8	-38.2	26.9	3.02e+01	0	26	0	699400192	46	7002
2026-01-10 02:19:27.02	274.92	74.05	-36.3	-37.6	27.5	3.02e+01	0	26	0	706740224	46	6505
2026-01-10 02:19:31.06	282.55	72.99	-36.7	-38.0	27.2	3.02e+01	0	26	0	714080256	46	6870
2026-01-10 02:19:35.10	289.15	71.69	-36.9	-38.3	27.0	3.02e+01	0	26	0	721944576	48	6304
2026-01-10 02:19:39.13	294.76	70.22	-36.5	-37.8	27.4	3.02e+01	0	26	0	729284608	48	5986
2026-01-10 02:19:43.17	299.53	68.62	-36.7	-38.1	27.0	3.02e+01	0	26	0	737148928	48	6152
2026-01-10 02:19:47.21	303.56	66.94	-36.7	-38.0	27.1	3.02e+01	0	26	0	744488960	48	6122
2026-01-10 02:19:51.25	306.99	65.20	-35.8	-37.0	28.1	3.02e+01	0	26	0	752353280	46	6121
2026-01-10 02:19:55.28	309.92	63.45	-34.9	-36.2	28.0	3.02e+01	0	26	0	759693312	46	5548
2026-01-10 02:19:59.32	312.44	61.68	-35.1	-36.4	28.5	3.02e+01	0	26	0	767033344	44	6374
2026-01-10 02:20:03.36	314.63	59.92	-34.7	-36.0	28.8	3.02e+01	0	26	0	774897664	44	6070
2026-01-10 02:20:07.39	316.54	58.18	-33.9	-35.1	29.8	3.02e+01	0	26	0	782237696	42	6148
2026-01-10 02:20:11.43	318.22	56.47	-33.6	-34.8	30.0	3.02e+01	0	26	0	790102016	42	5950
2026-01-10 02:20:15.47	319.70	54.79	-33.1	-34.3	30.5	3.02e+01	0	26	0	797442048	40	6290
2026-01-10 02:20:19.51	321.03	53.15	-33.2	-34.3	30.2	3.02e+01	0	26	0	805306368	40	6348
2026-01-10 02:20:23.55	322.21	51.55	-33.7	-34.9	29.8	3.02e+01	0	26	0	812646400	40	6772
2026-01-10 02:20:27.58	323.28	49.99	-34.1	-35.3	29.5	3.02e+01	0	26	0	820510720	42	6326
2026-01-10 02:20:31.62	324.24	48.48	-34.1	-35.3	29.4	3.02e+01	0	26	0	827850752	42	6307
2026-01-10 02:20:35.66	325.12	47.02	-34.0	-35.2	29.7	3.02e+01	0	26	0	835190784	42	6269
2026-01-10 02:20:39.70	325.92	45.60	-34.6	-35.8	29.2	3.02e+01	0	26	0	843055104	42	6700
2026-01-10 02:20:43.73	326.65	44.22	-33.9	-35.1	29.7	3.02e+01	0	25	0	850395136	42	6176
2026-01-10 02:20:47.77	327.32	42.90	-34.3	-35.4	29.4	3.02e+01	0	26	0	858259456	42	6421
2026-01-10 02:20:51.81	327.94	41.61	-35.1	-36.3	28.6	3.02e+01	0	26	0	865599488	44	6312
2026-01-10 02:20:55.84	328.52	40.37	-34.9	-36.2	28.8	3.02e+01	0	26	0	873463808	44	6212
2026-01-10 02:20:59.88	329.05	39.17	-34.9	-36.1	28.8	3.02e+01	0	26	0	880803840	44	6160
2026-01-10 02:21:03.92	329.55	38.01	-34.6	-35.8	29.1	3.02e+01	0	26	0	888668160	44	5970
2026-01-10 02:21:07.96	330.01	36.88	-34.2	-35.4	29.5	3.02e+01	0	25	0	896008192	44	5710
2026-01-10 02:21:11.99	330.44	35.80	-34.0	-35.1	29.7	3.02e+01	0	26	0	903348224	42	6200
2026-01-10 02:21:16.03	330.85	34.76	-33.2	-34.4	30.4	3.02e+01	0	26	0	911212544	42	5663
2026-01-10 02:21:20.07	331.23	33.74	-32.8	-33.9	30.7	3.02e+01	0	26	0	918552576	40	6048
2026-01-10 02:21:24.11	331.59	32.76	-32.9	-34.0	30.6	3.02e+01	0	25	0	926416896	40	6121
2026-01-10 02:21:28.14	331.93	31.82	-32.4	-33.6	30.8	3.02e+01	0	26	0	933756928	40	5796
2026-01-10 02:21:32.18	332.25	30.90	-32.5	-33.6	30.8	3.02e+01	0	25	0	941621248	40	5851
2026-01-10 02:21:36.22	332.56	30.01	-32.6	-33.7	30.8	3.02e+01	0	25	0	948961280	40	5891
2026-01-10 02:21:40.25	332.85	29.15	-32.8	-33.9	30.7	3.02e+01	0	26	0	956301312	40	6060
2026-01-10 02:21:44.29	333.12	28.32	-33.1	-34.3	30.4	3.02e+01	0	25	0	964165632	40	6299
2026-01-10 02:21:48.33	333.38	27.51	-33.3	-34.4	30.1	3.02e+01	0	26	0	971505664	40	6415
2026-01-10 02:21:52.36	333.63	26.73	-33.4	-34.6	30.0	3.02e+01	0	25	0	979369984	40	6548
2026-01-10 02:21:56.40	333.87	25.97	-33.7	-34.9	29.8	3.02e+01	0	25	0	986710016	40	6751
2026-01-10 02:22:00.44	334.09	25.23	-33.7	-34.9	29.7	3.02e+01	0	25	0	994574336	40	6792
2026-01-10 02:22:04.47	334.31	24.52	-33.5	-34.7	29.8	3.02e+01	0	25	0	1001914368	40	6604
2026-01-10 02:22:08.51	334.52	23.82	-33.8	-35.0	29.8	3.02e+01	0	25	0	1009778688	40	6833
2026-01-10 02:22:12.55	334.72	23.14	-33.7	-34.9	29.7	3.02e+01	0	25	0	1017118720	42	6023
2026-01-10 02:22:16.58	334.91	22.49	-34.0	-35.2	29.6	3.02e+01	0	25	0	1024458752	42	6225
2026-01-10 02:22:20.62	335.09	21.84	-33.6	-34.8	29.9	3.02e+01	0	25	0	1032323072	42	5931
2026-01-10 02:22:24.65	335.27	21.22	-33.7	-34.9	29.7	3.02e+01	0	25	0	1039663104	42	6030
2026-01-10 02:22:28.69	335.44	20.61	-33.6	-34.8	29.8	3.02e+01	0	25	0	1047527424	42	5967
2026-01-10 02:22:32.72	335.60	20.02	-33.4	-34.6	29.9	3.02e+01	0	25	0	1054867456	42	5823
2026-01-10 02:22:36.76	335.76	19.45	-33.2	-34.4	30.1	3.02e+01	0	25	0	1062731776	42	5673
2026-01-10 02:22:40.79	335.91	18.89	-33.2	-34.4	30.2	3.02e+01	0	25	0	1070071808	42	5665
2026-01-10 02:22:44.82	336.06	18.34	-33.3	-34.5	29.9	3.02e+01	0	25	0	1077411840	42	5734
2026-01-10 02:22:48.86	336.20	17.80	-33.3	-34.5	30.0	3.02e+01	0	25	0	1085276160	42	5743
2026-01-10 02:22:52.89	336.34	17.28	-33.2	-34.3	30.1	3.02e+01	0	25	0	1092616192	42	5641
2026-01-10 02:22:56.93	336.48	16.77	-33.1	-34.3	30.1	3.02e+01	0	25	0	1100480512	42	5628
2026-01-10 02:23:00.96	336.61	16.27	-33.3	-34.5	29.9	3.02e+01	0	25	0	1107820544	42	5750
2026-01-10 02:23:05.00	336.73	15.78	-33.3	-34.5	30.0	3.02e+01	0	25	0	1115684864	42	5745
2026-01-10 02:23:09.03	336.85	15.30	-33.4	-34.6	30.0	3.02e+01	0	25	0	1123024896	42	5810
2026-01-10 02:23:13.06	336.97	14.83	-33.4	-34.6	29.9	3.02e+01	0	25	0	1130364928	42	5851
2026-01-10 02:23:17.10	337.09	14.37	-33.7	-34.9	29.6	3.02e+01	0	25	0	1138229248	42	5995
2026-01-10 02:23:21.13	337.20	13.92	-33.6	-34.8	29.7	3.02e+01	0	25	0	1145569280	42	5962
2026-01-10 02:23:25.16	337.31	13.49	-33.6	-34.8	29.6	3.02e+01	0	25	0	1153433600	42	5985
2026-01-10 02:23:29.20	337.42	13.05	-33.9	-35.1	29.3	3.02e+01	0	25	0	1160773632	42	6169
2026-01-10 02:23:33.24	337.52	12.63	-33.8	-35.0	29.4	3.02e+01	0	25	0	1168637952	42	6082
2026-01-10 02:23:37.27	337.62	12.21	-33.8	-35.0	29.4	3.02e+01	0	25	0	1175977984	42	6123
2026-01-10 02:23:41.31	337.72	11.81	-34.2	-44.3	3.4	3.02e+01	0	25	104	1181220864	42	17888
2026-01-10 02:23:45.34	337.82	11.41	-35.9	-46.2	3.4	3.02e+01	0	25	104	1181220864	50	13937
2026-01-10 02:23:49.38	337.91	11.01	-36.3	-46.7	3.6	3.02e+01	0	25	104	1181220864	48	16517
2026-01-10 02:23:53.41	338.00	10.63	-36.2	-46.5	4.1	3.02e+01	0	25	104	1181220864	46	18272
2026-01-10 02:23:57.45	338.09	10.25	-38.7	-49.3	3.5	3.02e+01	0	25	104	1181220864	54	15866
2026-01-10 02:24:01.49	338.18	9.87	-35.0	-45.4	3.5	3.02e+01	0	25	104	1181220864	44	17898
2026-01-10 02:24:05.53	338.27	9.51	-39.9	-50.7	3.5	3.02e+01	0	25	104	1181220864	58	14719
2026-01-10 02:24:09.56	338.35	9.14	-37.3	-47.7	3.5	3.02e+01	0	25	104	1181220864	50	16566
2026-01-10 02:24:13.60	338.43	8.79	-45.7	-59.5	3.5	3.02e+01	0	25	104	1181220864	60	36223
2026-01-10 02:24:17.64	338.51	8.44	-36.2	-46.6	3.5	3.02e+01	0	26	104	1181220864	48	16431
2026-01-10 02:24:21.67	338.59	8.09	-36.6	-47.0	3.5	3.02e+01	0	25	104	1181220864	46	19258
2026-01-10 02:24:25.71	338.67	7.75	-36.1	-46.4	3.5	3.02e+01	0	25	104	1181220864	48	16019
2026-01-10 02:24:29.74	338.75	7.42	-36.3	-46.6	3.5	3.02e+01	0	25	104	1181220864	46	18358
2026-01-10 02:24:33.79	338.82	7.09	-40.9	-51.8	3.5	3.02e+01	0	25	104	1181220864	58	16818
2026-01-10 02:24:37.82	338.89	6.76	-37.8	-48.2	3.5	3.02e+01	0	25	104	1181220864	50	17551
2026-01-10 02:24:41.86	338.97	6.44	-37.6	-47.9	3.5	3.02e+01	0	25	104	1181220864	48	18964
2026-01-10 02:24:45.90	339.04	6.13	-36.4	-46.6	3.5	3.02e+01	0	25	104	1181220864	48	16454
2026-01-10 02:24:49.94	339.11	5.81	-43.5	-55.6	3.5	3.02e+01	0	25	104	1181220864	60	23303
2026-01-10 02:24:53.97	339.18	5.51	-36.7	-47.0	3.5	3.02e+01	0	25	104	1181220864	48	17158
2026-01-10 02:24:58.00	339.24	5.20	-42.2	-55.2	3.5	3.02e+01	0	25	104	1181220864	56	27997
2026-01-10 02:25:02.04	339.31	4.90	-41.4	-53.6	3.5	3.02e+01	0	25	104	1181220864	58	20740
2026-01-10 02:25:06.08	339.37	4.60	-43.5	-58.4	3.5	3.02e+01	0	25	104	1181220864	60	31842
2026-01-10 02:25:10.11	339.44	4.31	-43.1	-56.9	3.5	3.02e+01	0	25	104	1181220864	60	27044
2026-01-10 02:25:14.14	339.50	4.02	-43.5	-59.8	3.5	3.02e+01	0	25	104	1181220864	60	37748
2026-01-10 02:25:18.18	339.56	3.74	-43.8	-61.5	3.5	3.02e+01	0	25	104	1181220864	60	45582
2026-01-10 02:25:22.21	339.62	3.45	-43.5	-61.1	3.5	3.02e+01	0	25	104	1181220864	60	43862
2026-01-10 02:25:26.25	339.68	3.17	-43.5	-61.4	3.5	3.02e+01	0	25	104	1181220864	60	45421
2026-01-10 02:25:30.29	339.74	2.90	-47.4	-65.3	3.5	3.02e+01	0	25	104	1181220864	60	70937
2026-01-10 02:25:34.32	339.80	2.62	-48.3	-66.1	3.5	3.02e+01	0	25	104	1181220864	60	77938
2026-01-10 02:25:38.36	339.86	2.35	-48.3	-66.2	3.5	3.02e+01	0	25	104	1181220864	60	78972
2026-01-10 02:25:42.41	339.92	2.09	-48.2	-66.1	3.5	3.02e+01	0	25	104	1181220864	60	77954
2026-01-10 02:25:46.45	339.97	1.82	-48.2	-66.1	3.5	3.02e+01	0	25	104	1181220864	60	77893
2026-01-10 02:25:50.49	340.03	1.56	-48.2	-66.1	3.5	3.02e+01	0	25	104	1181220864	60	77942
2026-01-10 02:25:54.52	340.08	1.30	-48.2	-66.1	3.5	3.02e+01	0	26	104	1181220864	60	77856
2026-01-10 02:25:58.56	340.14	1.04	-48.1	-66.0	3.5	3.02e+01	0	26	104	1181220864	60	76789
2026-01-10 02:26:02.60	340.19	0.79	-48.3	-66.1	3.5	3.02e+01	0	26	104	1181220864	60	77802
2026-01-10 02:26:06.63	340.24	0.53	-48.3	-66.2	3.5	3.02e+01	0	26	104	1181220864	60	78193
2026-01-10 02:26:10.67	340.30	0.28	-48.3	-66.1	3.5	3.02e+01	0	25	104	1181220864	60	78103
2026-01-10 02:26:14.71	340.35	0.03	-48.3	-66.2	3.5	3.02e+01	0	25	104	1181220864	60	78492

#Closed at: 2026-01-10 02:26:17
#Recorded file [1181 MB]: D:/lorett/data/35029_260110_141223.dat