passes_logs/2026/01/10/R4.6S_Anadyr/R4.6S_Anadyr__20260110_202615_AQUA_rec.log

#Pass ID: 20260110_202615_AQUA
#Satellite: AQUA
#Configuration: AQUA
#almurnet v.1.7.20251203
#Start time: 2026-01-10 20:26:16

#Version: 2.2.20231116
#Station: R4.6S_Anadyr
#Location: 177.4865 lon 64.73178 lat
#TLE: 1 27424U 02022A   26009.89520876  .00001045  00000+0  21914-3 0  9996
#TLE: 2 27424  98.4076 336.2372 0002032  84.5955   1.0356 14.61811442260144

#Time	Az	El	Level	Level2	SNR	BER	BlckErr	Temp	State	Recorded	gain1	gain2
2026-01-10 20:26:16.05	39.28	0.03	-48.1	-63.1	3.6	1.51e+00	0	24	0	0	60	51668
2026-01-10 20:26:19.07	39.01	0.18	-48.5	-66.4	3.5	3.02e+01	0	25	104	0	60	80646
2026-01-10 20:26:22.10	38.73	0.32	-48.6	-66.5	3.5	3.02e+01	0	26	104	0	60	81045
2026-01-10 20:26:25.13	38.45	0.46	-48.4	-66.3	3.5	3.02e+01	0	26	104	0	60	79150
2026-01-10 20:26:28.16	38.17	0.61	-47.9	-66.0	3.5	3.02e+01	0	26	104	0	60	77068
2026-01-10 20:26:31.19	37.88	0.75	-47.4	-65.4	3.5	3.02e+01	0	26	104	0	60	71458
2026-01-10 20:26:34.22	37.59	0.90	-46.6	-64.7	3.5	3.02e+01	0	26	104	0	60	65951
2026-01-10 20:26:37.25	37.30	1.04	-46.5	-64.6	3.5	3.02e+01	0	26	104	0	60	65150
2026-01-10 20:26:40.28	37.00	1.19	-46.6	-64.6	3.5	3.02e+01	0	26	104	0	60	65546
2026-01-10 20:26:43.31	36.70	1.33	-46.5	-64.6	3.5	3.02e+01	0	26	104	0	60	65407
2026-01-10 20:26:46.34	36.40	1.48	-46.5	-64.6	3.5	3.02e+01	0	26	104	0	60	65206
2026-01-10 20:26:49.37	36.09	1.62	-46.5	-64.6	3.5	3.02e+01	0	26	104	0	60	65075
2026-01-10 20:26:52.40	35.78	1.77	-46.5	-64.6	3.5	3.02e+01	0	26	104	0	60	65101
2026-01-10 20:26:55.43	35.46	1.92	-46.5	-64.5	3.5	3.02e+01	0	26	104	0	60	64856
2026-01-10 20:26:58.46	35.15	2.06	-46.5	-64.6	3.5	3.02e+01	0	26	104	0	60	65020
2026-01-10 20:27:01.49	34.83	2.21	-46.5	-64.5	3.5	3.02e+01	0	26	104	0	60	64244
2026-01-10 20:27:04.52	34.50	2.35	-46.5	-64.2	3.5	3.02e+01	0	26	104	0	60	62654
2026-01-10 20:27:07.54	34.18	2.50	-46.5	-64.5	3.5	3.02e+01	0	26	104	0	60	64639
2026-01-10 20:27:10.57	33.84	2.64	-46.4	-64.5	3.5	3.02e+01	0	27	104	0	60	64434
2026-01-10 20:27:13.60	33.51	2.79	-46.3	-63.8	3.5	3.02e+01	0	27	104	0	60	59783
2026-01-10 20:27:16.63	33.17	2.94	-44.7	-58.3	3.5	3.02e+01	0	26	104	0	60	31555
2026-01-10 20:27:19.66	32.83	3.08	-46.5	-63.4	3.5	3.02e+01	0	26	104	0	60	56724
2026-01-10 20:27:22.69	32.48	3.23	-46.2	-62.4	3.5	3.02e+01	0	27	104	0	60	50450
2026-01-10 20:27:25.72	32.13	3.37	-37.4	-47.9	3.5	3.02e+01	0	27	104	0	48	19099
2026-01-10 20:27:28.75	31.77	3.52	-43.4	-55.7	3.5	3.02e+01	0	27	104	0	60	23348
2026-01-10 20:27:31.78	31.42	3.66	-41.0	-52.1	3.5	3.02e+01	0	27	104	0	56	19421
2026-01-10 20:27:34.81	31.05	3.81	-40.9	-52.0	3.5	3.02e+01	0	27	104	0	56	19339
2026-01-10 20:27:37.84	30.69	3.95	-41.9	-53.4	3.5	3.02e+01	0	27	104	0	56	22658
2026-01-10 20:27:40.87	30.31	4.10	-46.8	-64.5	3.5	3.02e+01	0	27	104	0	60	64760
2026-01-10 20:27:43.90	29.94	4.24	-37.5	-48.0	3.5	3.02e+01	0	27	104	0	50	17285
2026-01-10 20:27:46.93	29.56	4.39	-41.0	-52.0	3.5	3.02e+01	0	27	104	0	58	17108
2026-01-10 20:27:49.96	29.18	4.53	-38.1	-48.6	3.5	3.02e+01	0	27	104	0	50	18474
2026-01-10 20:27:52.99	28.79	4.68	-36.9	-47.3	3.5	3.02e+01	0	27	104	0	48	17813
2026-01-10 20:27:56.02	28.40	4.82	-41.6	-53.0	3.5	3.02e+01	0	27	104	0	56	21553
2026-01-10 20:27:59.04	28.00	4.96	-46.9	-64.4	3.5	3.02e+01	0	27	104	0	60	64022
2026-01-10 20:28:02.07	27.60	5.11	-39.9	-50.7	3.5	3.02e+01	0	27	104	0	56	16588
2026-01-10 20:28:05.10	27.20	5.25	-40.8	-51.7	3.4	3.02e+01	0	27	104	0	58	16686
2026-01-10 20:28:08.13	26.79	5.39	-40.9	-51.9	3.5	3.02e+01	0	27	104	0	54	21516
2026-01-10 20:28:11.15	26.37	5.53	-37.1	-47.5	3.6	3.02e+01	0	27	104	0	50	16250
2026-01-10 20:28:14.18	25.96	5.68	-41.1	-52.2	3.5	3.02e+01	0	27	104	0	58	17648
2026-01-10 20:28:17.21	25.53	5.82	-47.0	-64.8	3.5	3.02e+01	0	27	104	0	60	66693
2026-01-10 20:28:20.24	25.10	5.96	-36.6	-46.9	3.5	3.02e+01	0	27	104	0	48	17091
2026-01-10 20:28:23.27	24.67	6.10	-38.6	-49.1	3.6	3.02e+01	0	27	104	0	54	15467
2026-01-10 20:28:26.30	24.24	6.24	-40.2	-51.0	3.5	3.02e+01	0	27	104	0	54	19351
2026-01-10 20:28:29.33	23.79	6.37	-36.5	-46.9	3.5	3.02e+01	0	27	104	0	48	16944
2026-01-10 20:28:32.36	23.35	6.51	-39.3	-49.9	3.5	3.02e+01	0	27	104	0	54	16923
2026-01-10 20:28:35.39	22.90	6.65	-47.4	-65.2	3.5	3.02e+01	0	27	104	0	60	70021
2026-01-10 20:28:38.42	22.44	6.79	-37.5	-48.0	3.5	3.02e+01	0	28	104	0	50	17104
2026-01-10 20:28:41.45	21.98	6.92	-38.3	-48.8	3.5	3.02e+01	0	27	104	0	52	16777
2026-01-10 20:28:44.48	21.51	7.06	-36.8	-47.1	3.5	3.02e+01	0	28	104	0	48	17396
2026-01-10 20:28:47.51	21.04	7.19	-36.1	-46.4	3.5	3.02e+01	0	28	104	0	46	17904
2026-01-10 20:28:50.54	20.57	7.32	-39.2	-49.8	3.5	3.02e+01	0	28	104	0	52	18817
2026-01-10 20:28:53.57	20.09	7.45	-45.0	-57.8	3.5	3.02e+01	0	28	104	0	60	29951
2026-01-10 20:28:56.60	19.61	7.59	-38.7	-49.2	3.5	3.02e+01	0	28	104	0	52	17609
2026-01-10 20:28:59.63	19.12	7.71	-43.1	-54.7	3.5	3.02e+01	0	28	104	0	54	29394
2026-01-10 20:29:02.66	18.62	7.84	-44.3	-56.5	3.5	3.02e+01	0	28	104	0	60	25654
2026-01-10 20:29:05.68	18.13	7.97	-37.9	-48.4	3.5	3.02e+01	0	28	104	0	52	15981
2026-01-10 20:29:08.71	17.62	8.10	-47.3	-64.7	3.5	3.02e+01	0	28	104	0	60	66244
2026-01-10 20:29:11.74	17.11	8.22	-35.9	-46.2	3.5	3.02e+01	0	28	104	0	46	17494
2026-01-10 20:29:14.77	16.60	8.34	-35.8	-46.1	3.6	3.02e+01	0	28	104	0	46	17461
2026-01-10 20:29:17.80	16.08	8.47	-47.1	-63.0	3.5	3.02e+01	0	28	104	0	60	54297
2026-01-10 20:29:20.82	15.56	8.59	-41.6	-52.6	3.5	3.02e+01	0	28	104	0	60	16438
2026-01-10 20:29:23.85	15.03	8.71	-37.8	-48.2	3.5	3.02e+01	0	28	104	0	50	17649
2026-01-10 20:29:26.88	14.50	8.82	-47.4	-65.3	3.5	3.02e+01	0	28	104	0	60	70593
2026-01-10 20:29:29.91	13.96	8.94	-40.3	-51.0	3.5	3.02e+01	0	28	104	0	56	17279
2026-01-10 20:29:32.94	13.42	9.05	-37.4	-47.8	3.5	3.02e+01	0	28	104	0	50	16759
2026-01-10 20:29:35.97	12.88	9.17	-47.3	-64.3	3.5	3.02e+01	0	28	104	0	60	62941
2026-01-10 20:29:39.00	12.32	9.28	-35.7	-46.0	3.5	3.02e+01	0	28	104	0	46	17228
2026-01-10 20:29:42.03	11.77	9.38	-35.5	-45.8	3.5	3.02e+01	0	28	104	0	46	16758
2026-01-10 20:29:45.06	11.21	9.49	-47.6	-65.4	3.5	3.02e+01	0	28	104	0	60	71432
2026-01-10 20:29:48.08	10.65	9.60	-39.5	-50.1	3.5	3.02e+01	0	28	104	0	54	17425
2026-01-10 20:29:51.11	10.08	9.70	-37.2	-47.5	3.5	3.02e+01	0	28	104	0	50	16251
2026-01-10 20:29:54.14	9.50	9.80	-47.2	-63.9	3.5	3.02e+01	0	28	104	0	60	60259
2026-01-10 20:29:57.17	8.93	9.90	-38.0	-48.4	3.5	3.02e+01	0	28	104	0	50	18065
2026-01-10 20:30:00.19	8.35	9.99	-37.5	-47.9	3.5	3.02e+01	0	28	104	0	50	17013
2026-01-10 20:30:03.23	7.76	10.09	-47.0	-62.4	3.5	3.02e+01	0	28	104	0	60	50543
2026-01-10 20:30:06.25	7.17	10.18	-35.7	-46.0	3.5	3.02e+01	0	28	104	0	46	17099
2026-01-10 20:30:09.28	6.57	10.27	-35.6	-45.9	3.5	3.02e+01	0	28	104	0	46	16992
2026-01-10 20:30:12.31	5.98	10.36	-47.2	-63.1	3.5	3.02e+01	0	28	104	0	60	55283
2026-01-10 20:30:15.34	5.37	10.44	-38.4	-48.8	3.5	3.02e+01	0	28	104	0	52	16844
2026-01-10 20:30:18.37	4.77	10.52	-37.7	-48.0	3.4	3.02e+01	0	28	104	0	52	15329
2026-01-10 20:30:21.40	4.16	10.60	-43.8	-55.7	3.5	3.02e+01	0	28	104	0	60	23548
2026-01-10 20:30:24.43	3.55	10.68	-36.8	-47.2	3.5	3.02e+01	0	28	104	0	48	17521
2026-01-10 20:30:27.46	2.93	10.75	-39.2	-49.8	3.5	3.02e+01	0	28	104	0	48	23626
2026-01-10 20:30:30.49	2.31	10.82	-47.6	-64.9	3.5	3.02e+01	0	28	104	0	60	67777
2026-01-10 20:30:33.52	1.69	10.89	-36.1	-46.5	3.6	3.02e+01	0	28	104	0	48	16146
2026-01-10 20:30:36.54	1.06	10.95	-35.5	-45.8	3.5	3.02e+01	0	28	104	0	46	16733
2026-01-10 20:30:39.57	0.43	11.02	-39.6	-50.2	3.5	3.02e+01	0	28	104	0	58	14026
2026-01-10 20:30:42.60	359.80	11.08	-39.6	-50.2	3.5	3.02e+01	0	28	104	0	54	17567
2026-01-10 20:30:45.63	359.17	11.13	-39.5	-50.1	3.5	3.02e+01	0	28	104	0	48	24614
2026-01-10 20:30:48.66	358.53	11.18	-46.1	-59.7	3.5	3.02e+01	0	28	104	0	60	36997
2026-01-10 20:30:51.69	357.89	11.23	-35.7	-46.0	3.5	3.02e+01	0	29	104	0	46	17154
2026-01-10 20:30:54.72	357.25	11.28	-36.6	-46.9	3.5	3.02e+01	0	29	104	0	46	19070
2026-01-10 20:30:57.75	356.60	11.32	-45.3	-58.2	3.5	3.02e+01	0	28	104	0	60	31326
2026-01-10 20:31:00.78	355.96	11.36	-35.8	-46.1	3.5	3.02e+01	0	29	104	0	46	17298
2026-01-10 20:31:03.80	355.31	11.40	-35.8	-46.1	3.5	3.02e+01	0	29	104	0	46	17397
2026-01-10 20:31:06.83	354.66	11.43	-46.6	-61.1	3.5	3.02e+01	0	29	104	0	60	43809
2026-01-10 20:31:09.86	354.01	11.46	-39.6	-50.2	3.5	3.02e+01	0	29	104	0	52	19635
2026-01-10 20:31:12.89	353.36	11.49	-36.7	-47.0	3.5	3.02e+01	0	29	104	0	48	17280
2026-01-10 20:31:15.92	352.70	11.51	-39.4	-49.9	3.6	3.02e+01	0	29	104	0	52	19127
2026-01-10 20:31:18.95	352.05	11.53	-36.9	-47.3	3.4	3.02e+01	0	29	104	0	48	17721
2026-01-10 20:31:21.97	351.40	11.55	-43.5	-46.7	5.1	3.02e+01	0	29	104	0	60	8308
2026-01-10 20:31:25.00	350.74	11.56	-43.0	-45.7	19.9	3.02e+01	60	29	0	524288	60	7398
2026-01-10 20:31:28.03	350.08	11.57	-35.4	-36.7	28.0	3.02e+01	59	29	0	6291456	46	5886
2026-01-10 20:31:31.06	349.42	11.58	-35.0	-36.2	28.4	3.02e+01	60	29	0	12058624	46	5588
2026-01-10 20:31:34.09	348.77	11.58	-35.3	-36.5	28.2	3.02e+01	60	29	0	17825792	44	6493
2026-01-10 20:31:37.12	348.11	11.58	-35.0	-36.3	28.4	3.02e+01	51	29	0	23592960	44	6286
2026-01-10 20:31:40.15	347.45	11.58	-35.0	-36.3	28.4	3.02e+01	49	29	0	28835840	44	6300
2026-01-10 20:31:43.18	346.79	11.57	-35.0	-36.3	28.4	3.02e+01	56	29	0	34603008	44	6309
2026-01-10 20:31:46.21	346.14	11.56	-35.1	-36.3	28.2	3.02e+01	57	29	0	40370176	44	6339
2026-01-10 20:31:49.24	345.48	11.55	-35.0	-36.3	28.4	3.02e+01	60	29	0	46137344	44	6301
2026-01-10 20:31:52.27	344.83	11.53	-35.1	-36.4	28.2	3.02e+01	59	29	0	51904512	44	6395
2026-01-10 20:31:55.30	344.17	11.51	-35.0	-36.3	28.4	3.02e+01	59	29	0	57147392	44	6283
2026-01-10 20:31:58.33	343.52	11.48	-35.2	-36.4	28.2	3.02e+01	62	29	0	62914560	44	6423
2026-01-10 20:32:01.36	342.86	11.45	-35.3	-36.5	28.2	3.02e+01	44	29	0	68681728	44	6493
2026-01-10 20:32:04.39	342.21	11.42	-35.5	-36.8	27.9	3.02e+01	59	29	0	74448896	44	6695
2026-01-10 20:32:07.42	341.56	11.39	-35.1	-36.4	28.3	3.02e+01	52	29	0	80216064	44	6391
2026-01-10 20:32:10.45	340.92	11.35	-35.1	-36.4	28.3	3.02e+01	61	29	0	85983232	44	6398
2026-01-10 20:32:13.48	340.27	11.31	-35.2	-36.4	28.2	3.02e+01	57	29	0	91750400	44	6403
2026-01-10 20:32:16.51	339.63	11.26	-35.3	-36.5	28.2	3.02e+01	58	29	0	96993280	44	6492
2026-01-10 20:32:19.55	338.98	11.22	-35.1	-36.3	28.3	3.02e+01	46	29	0	102760448	44	6328
2026-01-10 20:32:22.57	338.35	11.16	-35.4	-36.7	28.0	3.02e+01	47	29	0	108527616	44	6610
2026-01-10 20:32:25.60	337.71	11.11	-35.4	-36.7	28.0	3.02e+01	57	29	0	114294784	44	6574
2026-01-10 20:32:28.63	337.08	11.05	-35.3	-36.6	28.1	3.02e+01	59	29	0	120061952	46	5814
2026-01-10 20:32:31.66	336.45	10.99	-35.6	-36.9	28.0	3.02e+01	57	29	0	125829120	46	6001
2026-01-10 20:32:34.69	335.82	10.93	-35.4	-36.7	28.1	3.02e+01	57	29	0	131072000	44	6580
2026-01-10 20:32:37.72	335.19	10.86	-35.2	-36.4	28.3	3.02e+01	56	29	0	136839168	44	6396
2026-01-10 20:32:40.75	334.57	10.79	-35.4	-36.7	28.0	3.02e+01	59	29	0	142606336	44	6612
2026-01-10 20:32:43.78	333.95	10.72	-35.6	-36.9	27.6	3.02e+01	63	29	0	148373504	44	6790
2026-01-10 20:32:46.81	333.34	10.65	-35.4	-36.6	28.0	3.02e+01	56	29	0	154140672	44	6549
2026-01-10 20:32:49.83	332.73	10.57	-35.5	-36.8	28.0	3.02e+01	56	29	0	159907840	44	6680
2026-01-10 20:32:52.86	332.12	10.49	-35.2	-36.4	28.3	3.02e+01	59	29	0	165150720	44	6412
2026-01-10 20:32:55.89	331.51	10.41	-35.9	-37.3	27.4	3.02e+01	59	29	0	170917888	44	7064
2026-01-10 20:32:58.92	330.91	10.32	-34.8	-36.1	28.5	3.02e+01	59	29	0	176685056	44	6155
2026-01-10 20:33:01.95	330.31	10.24	-35.8	-37.1	27.7	3.02e+01	59	29	0	182452224	44	6940
2026-01-10 20:33:04.98	329.72	10.14	-35.4	-36.7	28.0	3.02e+01	54	29	0	188219392	44	6627
2026-01-10 20:33:08.00	329.13	10.05	-35.0	-36.3	28.3	3.02e+01	52	29	0	193462272	44	6286
2026-01-10 20:33:11.03	328.55	9.96	-36.3	-37.7	27.1	3.02e+01	53	29	0	199229440	46	6585
2026-01-10 20:33:14.06	327.97	9.86	-35.8	-37.1	27.6	3.02e+01	61	29	0	204996608	46	6196
2026-01-10 20:33:17.09	327.39	9.76	-35.4	-36.6	27.8	3.02e+01	58	29	0	210763776	46	5852
2026-01-10 20:33:20.12	326.82	9.66	-36.6	-38.1	26.7	3.02e+01	55	29	0	216530944	46	6903
2026-01-10 20:33:23.15	326.25	9.56	-36.3	-37.6	27.2	3.02e+01	57	29	0	222298112	46	6541
2026-01-10 20:33:26.17	325.69	9.45	-35.4	-36.7	27.9	3.02e+01	46	29	0	228065280	46	5863
2026-01-10 20:33:29.20	325.13	9.34	-35.5	-36.8	27.8	3.02e+01	55	29	0	233308160	46	5959
2026-01-10 20:33:32.23	324.58	9.23	-35.8	-37.1	27.7	3.02e+01	57	29	0	239075328	46	6143
2026-01-10 20:33:35.26	324.03	9.12	-36.4	-37.8	26.9	3.02e+01	59	29	0	244842496	46	6693
2026-01-10 20:33:38.29	323.48	9.01	-35.7	-37.0	27.7	3.02e+01	63	29	0	250609664	46	6092
2026-01-10 20:33:41.32	322.94	8.89	-36.1	-37.4	27.3	3.02e+01	60	29	0	256376832	46	6388
2026-01-10 20:33:44.35	322.41	8.78	-36.2	-37.5	27.2	3.02e+01	58	29	0	261619712	46	6486
2026-01-10 20:33:47.38	321.87	8.66	-35.7	-37.0	27.7	3.02e+01	60	29	0	267386880	46	6091
2026-01-10 20:33:50.41	321.35	8.54	-35.9	-37.3	27.4	3.02e+01	53	29	0	273154048	46	6291
2026-01-10 20:33:53.43	320.83	8.42	-36.1	-37.4	27.2	3.02e+01	53	29	0	278921216	46	6401
2026-01-10 20:33:56.46	320.31	8.30	-35.9	-37.2	27.5	3.02e+01	57	29	0	284688384	46	6270
2026-01-10 20:33:59.49	319.80	8.17	-36.1	-37.4	27.3	3.02e+01	59	29	0	290455552	46	6373
2026-01-10 20:34:02.53	319.29	8.05	-36.2	-37.6	27.1	3.02e+01	59	29	0	296222720	46	6543
2026-01-10 20:34:05.55	318.79	7.92	-36.4	-37.8	26.9	3.02e+01	55	29	0	301465600	46	6722
2026-01-10 20:34:08.58	318.29	7.79	-36.4	-37.7	26.9	3.02e+01	56	29	0	307232768	46	6646
2026-01-10 20:34:11.61	317.80	7.66	-36.1	-37.4	27.2	3.02e+01	37	29	0	312999936	46	6389
2026-01-10 20:34:14.64	317.31	7.53	-36.0	-37.3	27.3	3.02e+01	45	29	0	318767104	46	6333
2026-01-10 20:34:17.66	316.83	7.40	-37.0	-38.3	26.4	3.02e+01	61	29	0	324534272	48	6336
2026-01-10 20:34:20.69	316.35	7.27	-36.7	-38.1	26.7	3.02e+01	58	29	0	329777152	48	6144
2026-01-10 20:34:23.72	315.88	7.14	-36.2	-37.5	27.2	3.02e+01	60	29	0	335544320	48	5778
2026-01-10 20:34:26.75	315.41	7.00	-35.8	-37.1	27.5	3.02e+01	56	29	0	341311488	46	6200
2026-01-10 20:34:29.78	314.94	6.87	-36.3	-37.7	27.0	3.02e+01	57	29	0	347078656	46	6594
2026-01-10 20:34:32.81	314.48	6.73	-36.4	-37.8	26.9	3.02e+01	45	29	0	352845824	46	6667
2026-01-10 20:34:35.84	314.03	6.60	-36.2	-37.5	27.2	3.02e+01	45	29	0	358612992	48	5770
2026-01-10 20:34:38.87	313.58	6.46	-36.5	-37.8	26.8	3.02e+01	59	29	0	364380160	48	5987
2026-01-10 20:34:41.90	313.14	6.32	-36.9	-38.3	26.5	3.02e+01	58	29	0	369623040	48	6303
2026-01-10 20:34:44.93	312.69	6.18	-36.8	-38.2	26.4	3.02e+01	58	29	0	375390208	48	6268
2026-01-10 20:34:47.96	312.26	6.04	-37.1	-38.6	26.0	3.02e+01	59	29	0	381157376	48	6529
2026-01-10 20:34:50.98	311.83	5.90	-36.9	-38.3	26.4	3.02e+01	58	29	0	386924544	48	6334
2026-01-10 20:34:54.01	311.40	5.76	-37.1	-38.6	25.9	3.02e+01	61	29	0	392691712	48	6558
2026-01-10 20:34:57.04	310.98	5.62	-36.9	-38.3	26.3	3.02e+01	53	29	0	397934592	48	6335
2026-01-10 20:35:00.07	310.56	5.48	-37.0	-38.5	26.0	3.02e+01	49	29	0	403701760	48	6454
2026-01-10 20:35:03.10	310.15	5.34	-37.8	-39.4	25.3	3.02e+01	56	29	0	409468928	48	7178
2026-01-10 20:35:06.13	309.74	5.19	-36.9	-38.3	26.2	3.02e+01	58	29	0	415236096	48	6342
2026-01-10 20:35:09.15	309.34	5.05	-37.1	-38.5	26.1	3.02e+01	53	29	0	421003264	48	6486
2026-01-10 20:35:12.18	308.94	4.91	-37.2	-38.7	25.8	3.02e+01	60	29	0	426770432	48	6632
2026-01-10 20:35:15.21	308.54	4.76	-37.0	-38.5	25.8	3.02e+01	61	29	0	432537600	48	6444
2026-01-10 20:35:18.24	308.15	4.62	-37.3	-38.8	25.5	3.02e+01	46	30	0	437780480	48	6658
2026-01-10 20:35:21.27	307.77	4.48	-37.2	-38.7	25.7	3.02e+01	53	30	0	443547648	48	6632
2026-01-10 20:35:24.30	307.38	4.33	-37.6	-39.1	25.4	3.02e+01	58	30	0	449314816	48	6959
2026-01-10 20:35:27.33	307.00	4.19	-37.1	-38.5	25.9	3.02e+01	62	30	0	455081984	48	6491
2026-01-10 20:35:30.35	306.63	4.04	-37.7	-39.3	25.2	3.02e+01	59	30	0	460849152	50	6344
2026-01-10 20:35:33.38	306.26	3.90	-37.4	-38.9	25.5	3.02e+01	58	30	0	466092032	50	6049
2026-01-10 20:35:36.41	305.90	3.75	-37.9	-39.5	24.9	3.02e+01	62	30	0	471859200	50	6482
2026-01-10 20:35:39.42	305.54	3.61	-37.5	-39.1	25.1	3.02e+01	59	30	0	477626368	50	6157
2026-01-10 20:35:42.45	305.18	3.46	-37.7	-39.2	25.1	3.02e+01	54	30	0	483393536	50	6256
2026-01-10 20:35:45.47	304.83	3.32	-38.1	-39.7	24.5	3.02e+01	61	30	0	489160704	50	6585
2026-01-10 20:35:48.50	304.48	3.17	-37.8	-39.4	24.6	3.02e+01	62	30	0	494927872	50	6393
2026-01-10 20:35:51.53	304.13	3.02	-38.2	-39.9	24.3	3.02e+01	57	30	0	500170752	50	6762
2026-01-10 20:35:54.56	303.79	2.88	-48.2	-66.0	3.5	3.02e+01	0	30	104	502267904	60	76815
2026-01-10 20:35:57.59	303.45	2.73	-48.6	-66.4	3.5	3.02e+01	0	30	104	502267904	60	80279
2026-01-10 20:36:00.62	303.11	2.59	-48.6	-66.5	3.5	3.02e+01	0	30	104	502267904	60	81434
2026-01-10 20:36:03.64	302.78	2.44	-48.1	-66.4	3.5	3.02e+01	0	30	104	502267904	60	80450
2026-01-10 20:36:06.68	302.46	2.29	-48.4	-66.3	3.5	3.02e+01	0	30	104	502267904	60	79339
2026-01-10 20:36:09.70	302.13	2.15	-48.5	-66.4	3.5	3.02e+01	0	30	104	502267904	60	80080
2026-01-10 20:36:12.73	301.81	2.00	-48.4	-66.3	3.5	3.02e+01	0	30	104	502267904	60	79100
2026-01-10 20:36:15.76	301.50	1.86	-48.4	-66.4	3.5	3.02e+01	0	30	104	502267904	60	80208
2026-01-10 20:36:18.79	301.18	1.71	-48.4	-66.4	3.5	3.02e+01	0	30	104	502267904	60	79980
2026-01-10 20:36:21.82	300.87	1.57	-48.4	-66.3	3.5	3.02e+01	0	30	104	502267904	60	79782
2026-01-10 20:36:24.85	300.57	1.42	-48.5	-66.3	3.5	3.02e+01	0	30	104	502267904	60	79751
2026-01-10 20:36:27.88	300.26	1.27	-48.5	-66.4	3.5	3.02e+01	0	30	104	502267904	60	80117
2026-01-10 20:36:30.90	299.97	1.13	-48.3	-66.2	3.5	3.02e+01	0	30	104	502267904	60	78987
2026-01-10 20:36:33.93	299.67	0.98	-48.4	-66.4	3.5	3.02e+01	0	30	104	502267904	60	80203
2026-01-10 20:36:36.96	299.38	0.84	-48.5	-66.4	3.5	3.02e+01	0	30	104	502267904	60	80783
2026-01-10 20:36:39.99	299.09	0.69	-48.4	-66.3	3.5	3.02e+01	0	30	104	502267904	60	79783
2026-01-10 20:36:43.02	298.80	0.55	-48.4	-66.3	3.5	3.02e+01	0	30	104	502267904	60	79213
2026-01-10 20:36:46.05	298.52	0.41	-48.5	-66.4	3.5	3.02e+01	0	30	104	502267904	60	80671
2026-01-10 20:36:49.07	298.24	0.26	-48.3	-66.3	3.5	3.02e+01	0	30	104	502267904	60	79073
2026-01-10 20:36:52.10	297.96	0.12	-48.4	-66.4	3.5	3.02e+01	0	30	104	502267904	60	80083

#Closed at: 2026-01-10 20:36:55
#Recorded file [502 MB]: D:/lorett/data/35029_260111_082616.dat