passes_logs/2026/01/10/R4.6S_Anadyr/R4.6S_Anadyr__20260110_023435_SUOMI_NPP_rec.log

#Pass ID: 20260110_023435_SUOMI NPP
#Satellite: SUOMI NPP
#Configuration: NPP
#almurnet v.1.7.20251203
#Start time: 2026-01-10 02:34:38

#Version: 2.2.20231116
#Station: R4.6S_Anadyr
#Location: 177.4865 lon 64.73178 lat
#TLE: 1 37849U 11061A   26008.05542337  .00000108  00000+0  71976-4 0  9997
#TLE: 2 37849  98.7805 310.1641 0002540  75.6410 284.5048 14.19523335735721

#Time	Az	El	Level	Level2	SNR	BER	BlckErr	Temp	State	Recorded	gain1	gain2
2026-01-10 02:34:38.24	216.30	0.13	-48.2	-66.0	3.5	3.02e+01	0	23	0	0	60	76384
2026-01-10 02:34:42.27	216.59	0.33	-48.0	-63.3	3.6	1.51e+00	0	24	104	0	60	52806
2026-01-10 02:34:46.31	216.88	0.53	-48.1	-63.3	3.6	1.51e+00	0	24	104	0	60	52719
2026-01-10 02:34:50.35	217.18	0.74	-47.8	-63.1	3.6	1.51e+00	0	24	104	0	60	51629
2026-01-10 02:34:54.39	217.48	0.94	-46.5	-61.5	3.6	1.51e+00	0	24	104	0	60	42756
2026-01-10 02:34:58.43	217.79	1.15	-46.3	-61.3	3.6	1.51e+00	0	24	104	0	60	42064
2026-01-10 02:35:02.47	218.10	1.36	-46.2	-61.4	3.6	1.51e+00	0	24	104	0	60	42227
2026-01-10 02:35:06.51	218.41	1.56	-46.2	-61.4	3.6	1.51e+00	0	24	104	0	60	42232
2026-01-10 02:35:10.55	218.73	1.77	-46.3	-61.4	3.6	1.51e+00	0	24	104	0	60	42375
2026-01-10 02:35:14.59	219.05	1.98	-46.2	-61.2	3.6	1.51e+00	0	24	104	0	60	41506
2026-01-10 02:35:18.63	219.38	2.19	-46.3	-61.4	3.6	1.51e+00	0	25	104	0	60	42495
2026-01-10 02:35:22.67	219.71	2.41	-46.2	-60.7	3.6	1.51e+00	0	25	104	0	60	39216
2026-01-10 02:35:26.71	220.05	2.62	-46.2	-60.3	3.6	1.51e+00	0	25	104	0	60	37579
2026-01-10 02:35:30.75	220.39	2.83	-44.1	-48.2	12.1	1.74e-03	0	25	0	3145728	60	9252
2026-01-10 02:35:34.78	220.74	3.04	-41.7	-44.0	16.1	0.00e+00	0	25	0	10485760	56	7175
2026-01-10 02:35:38.80	221.09	3.26	-45.6	-53.4	5.3	0.00e+00	0	25	0	14680064	60	16878
2026-01-10 02:35:42.83	221.44	3.47	-42.4	-44.9	15.6	0.00e+00	0	25	0	17825792	56	7997
2026-01-10 02:35:46.87	221.80	3.69	-41.4	-43.4	17.0	0.00e+00	0	25	0	25165824	56	6731
2026-01-10 02:35:50.91	222.17	3.91	-41.3	-43.3	17.2	0.00e+00	0	25	0	32505856	56	6619
2026-01-10 02:35:54.94	222.54	4.12	-40.8	-42.7	17.8	0.00e+00	0	25	0	40894464	56	6182
2026-01-10 02:35:58.98	222.91	4.34	-40.9	-42.8	17.7	0.00e+00	0	25	0	48234496	56	6275
2026-01-10 02:36:03.02	223.30	4.56	-41.0	-43.0	17.4	0.00e+00	0	25	0	55574528	54	7178
2026-01-10 02:36:07.06	223.68	4.78	-41.4	-43.4	17.1	0.00e+00	0	25	0	62914560	54	7578
2026-01-10 02:36:11.10	224.08	5.00	-41.7	-43.9	16.5	0.00e+00	0	25	0	71303168	54	7994
2026-01-10 02:36:15.14	224.48	5.23	-42.0	-44.2	16.5	0.00e+00	0	25	0	78643200	56	7349
2026-01-10 02:36:19.17	224.88	5.45	-42.1	-44.4	16.3	0.00e+00	0	25	0	85983232	56	7519
2026-01-10 02:36:23.21	225.29	5.67	-42.3	-44.6	16.0	0.00e+00	0	25	0	93323264	56	7731
2026-01-10 02:36:27.25	225.71	5.90	-42.1	-44.4	16.2	0.00e+00	0	25	0	100663296	56	7554
2026-01-10 02:36:31.28	226.13	6.12	-42.1	-44.3	16.5	0.00e+00	0	25	0	109051904	56	7447
2026-01-10 02:36:35.32	226.56	6.35	-42.4	-44.7	16.2	0.00e+00	0	25	0	116391936	56	7855
2026-01-10 02:36:39.36	226.99	6.57	-42.3	-44.5	16.3	0.00e+00	0	25	0	123731968	56	7673
2026-01-10 02:36:43.39	227.44	6.80	-42.1	-44.2	16.7	0.00e+00	0	25	0	131072000	56	7400
2026-01-10 02:36:47.43	227.88	7.02	-41.9	-44.0	16.9	0.00e+00	0	25	0	139460608	56	7194
2026-01-10 02:36:51.47	228.34	7.25	-42.1	-44.2	16.8	0.00e+00	0	25	0	146800640	56	7389
2026-01-10 02:36:55.50	228.80	7.48	-42.3	-44.5	16.6	0.00e+00	0	25	0	154140672	56	7623
2026-01-10 02:36:59.54	229.27	7.71	-42.5	-44.8	16.3	0.00e+00	0	25	0	161480704	56	7929
2026-01-10 02:37:03.58	229.75	7.94	-42.7	-45.0	16.0	0.00e+00	0	25	0	168820736	58	7234
2026-01-10 02:37:07.62	230.23	8.17	-42.4	-44.7	16.5	0.00e+00	0	25	0	177209344	58	6928
2026-01-10 02:37:11.66	230.72	8.40	-42.1	-44.3	16.8	0.00e+00	0	25	0	184549376	58	6626
2026-01-10 02:37:15.70	231.22	8.63	-42.0	-44.0	17.2	0.00e+00	0	25	0	191889408	58	6441
2026-01-10 02:37:19.74	231.73	8.86	-42.0	-44.1	17.0	0.00e+00	0	25	0	199229440	58	6513
2026-01-10 02:37:23.77	232.24	9.09	-42.1	-44.1	17.1	0.00e+00	0	25	0	206569472	58	6527
2026-01-10 02:37:27.81	232.76	9.32	-42.1	-44.1	17.0	0.00e+00	0	25	0	214958080	58	6530
2026-01-10 02:37:31.85	233.29	9.55	-41.8	-43.8	17.4	0.00e+00	0	25	0	222298112	58	6276
2026-01-10 02:37:35.88	233.83	9.78	-41.9	-43.9	17.4	0.00e+00	0	25	0	229638144	56	7127
2026-01-10 02:37:39.92	234.38	10.01	-41.8	-43.7	17.6	0.00e+00	0	25	0	236978176	56	6956
2026-01-10 02:37:43.96	234.93	10.24	-41.5	-43.4	17.8	0.00e+00	0	25	0	245366784	56	6698
2026-01-10 02:37:47.99	235.49	10.47	-41.3	-43.0	18.3	0.00e+00	0	25	0	252706816	56	6417
2026-01-10 02:37:52.03	236.06	10.70	-41.0	-42.6	18.7	0.00e+00	0	25	0	260046848	56	6143
2026-01-10 02:37:56.06	236.64	10.93	-40.6	-42.2	18.9	0.00e+00	0	25	0	267386880	54	6554
2026-01-10 02:38:00.10	237.23	11.16	-40.0	-41.4	19.6	0.00e+00	0	25	0	274726912	54	5992
2026-01-10 02:38:04.13	237.83	11.38	-39.7	-41.1	19.9	0.00e+00	0	25	0	283115520	52	6471
2026-01-10 02:38:08.16	238.44	11.61	-39.4	-40.7	20.3	0.00e+00	0	25	0	290455552	52	6232
2026-01-10 02:38:12.20	239.05	11.84	-39.4	-40.7	20.4	0.00e+00	0	25	0	297795584	52	6218
2026-01-10 02:38:16.24	239.68	12.06	-39.1	-40.4	20.6	0.00e+00	0	25	0	305135616	52	5991
2026-01-10 02:38:20.28	240.31	12.29	-38.6	-39.7	21.3	0.00e+00	0	25	0	313524224	50	6224
2026-01-10 02:38:24.32	240.96	12.51	-38.6	-39.7	21.3	0.00e+00	0	25	0	320864256	50	6216
2026-01-10 02:38:28.35	241.61	12.74	-37.8	-38.9	22.0	0.00e+00	0	25	0	328204288	50	5632
2026-01-10 02:38:32.39	242.27	12.96	-37.2	-38.1	22.6	0.00e+00	0	25	0	335544320	48	5822
2026-01-10 02:38:36.43	242.95	13.18	-37.1	-38.1	22.6	0.00e+00	0	25	0	342884352	48	5807
2026-01-10 02:38:40.46	243.63	13.39	-37.2	-38.2	22.7	0.00e+00	0	25	0	351272960	48	5855
2026-01-10 02:38:44.50	244.32	13.61	-37.2	-38.2	22.6	0.00e+00	0	25	0	358612992	48	5858
2026-01-10 02:38:48.54	245.02	13.82	-36.8	-37.8	23.0	0.00e+00	0	25	0	365953024	48	5581
2026-01-10 02:38:52.58	245.74	14.04	-36.6	-37.5	23.2	0.00e+00	0	25	0	373293056	46	6097
2026-01-10 02:38:56.62	246.46	14.25	-36.9	-37.8	23.1	0.00e+00	0	25	0	380633088	46	6287
2026-01-10 02:39:00.65	247.19	14.45	-36.8	-37.8	23.0	0.00e+00	0	25	0	389021696	46	6257
2026-01-10 02:39:04.69	247.93	14.66	-36.7	-37.6	23.1	0.00e+00	0	25	0	396361728	46	6115
2026-01-10 02:39:08.73	248.68	14.86	-37.2	-38.2	22.7	0.00e+00	0	25	0	403701760	46	6549
2026-01-10 02:39:12.76	249.44	15.06	-37.3	-38.2	22.8	0.00e+00	0	25	0	411041792	46	6586
2026-01-10 02:39:16.79	250.21	15.25	-37.9	-38.9	22.1	0.00e+00	0	25	0	419430400	48	6374
2026-01-10 02:39:20.83	250.99	15.45	-38.0	-39.0	22.1	0.00e+00	0	25	0	426770432	48	6439
2026-01-10 02:39:24.86	251.78	15.63	-37.6	-38.6	22.3	0.00e+00	0	25	0	434110464	48	6122
2026-01-10 02:39:28.90	252.58	15.82	-37.6	-38.5	22.4	0.00e+00	0	25	0	441450496	48	6102
2026-01-10 02:39:32.93	253.39	16.00	-38.3	-39.4	21.8	0.00e+00	0	25	0	448790528	48	6745
2026-01-10 02:39:36.96	254.21	16.18	-38.1	-39.1	21.9	0.00e+00	0	25	0	457179136	48	6531
2026-01-10 02:39:41.00	255.04	16.35	-38.0	-39.1	22.0	0.00e+00	0	25	0	464519168	48	6468
2026-01-10 02:39:45.04	255.88	16.52	-38.2	-39.3	21.7	0.00e+00	0	25	0	471859200	48	6657
2026-01-10 02:39:49.08	256.72	16.68	-38.0	-39.1	22.0	0.00e+00	0	25	0	479199232	48	6501
2026-01-10 02:39:53.12	257.58	16.84	-37.9	-39.0	22.2	0.00e+00	0	25	0	487587840	48	6401
2026-01-10 02:39:57.15	258.44	16.99	-37.4	-38.4	22.4	0.00e+00	0	25	0	494927872	48	5972
2026-01-10 02:40:01.19	259.31	17.14	-37.9	-39.0	22.1	0.00e+00	0	25	0	502267904	48	6393
2026-01-10 02:40:05.22	260.19	17.28	-36.8	-37.7	23.1	0.00e+00	0	25	0	509607936	48	5512
2026-01-10 02:40:09.26	261.08	17.42	-37.0	-37.9	23.0	0.00e+00	0	25	0	516947968	46	6343
2026-01-10 02:40:13.30	261.98	17.55	-37.3	-38.2	22.8	0.00e+00	0	25	0	525336576	46	6606
2026-01-10 02:40:17.34	262.88	17.68	-37.1	-38.0	22.9	0.00e+00	0	25	0	532676608	46	6430
2026-01-10 02:40:21.37	263.79	17.79	-36.4	-37.3	23.5	0.00e+00	0	25	0	540016640	46	5925
2026-01-10 02:40:25.41	264.71	17.91	-37.1	-38.1	23.2	0.00e+00	0	25	0	547356672	46	6504
2026-01-10 02:40:29.44	265.63	18.01	-36.9	-37.9	23.0	0.00e+00	0	25	0	555745280	46	6335
2026-01-10 02:40:33.48	266.56	18.11	-36.5	-37.3	23.5	0.00e+00	0	25	0	563085312	46	5956
2026-01-10 02:40:37.52	267.50	18.20	-36.0	-36.8	23.8	0.00e+00	0	26	0	570425344	46	5603
2026-01-10 02:40:41.56	268.44	18.28	-36.6	-37.5	23.3	0.00e+00	0	25	0	577765376	46	6097
2026-01-10 02:40:45.59	269.38	18.36	-36.2	-37.1	23.6	0.00e+00	0	25	0	585105408	46	5788
2026-01-10 02:40:49.62	270.33	18.43	-37.3	-38.3	22.7	0.00e+00	0	25	0	593494016	46	6632
2026-01-10 02:40:53.66	271.28	18.49	-37.0	-37.9	22.8	0.00e+00	0	25	0	600834048	46	6340
2026-01-10 02:40:57.70	272.24	18.55	-37.2	-38.2	22.7	0.00e+00	0	25	0	608174080	46	6544
2026-01-10 02:41:01.74	273.20	18.60	-37.3	-38.2	22.7	0.00e+00	0	25	0	615514112	46	6611
2026-01-10 02:41:05.77	274.16	18.64	-37.9	-38.9	22.2	0.00e+00	0	25	0	622854144	48	6368
2026-01-10 02:41:09.81	275.13	18.67	-37.6	-38.6	22.5	0.00e+00	0	25	0	631242752	48	6132
2026-01-10 02:41:13.85	276.10	18.69	-37.6	-38.6	22.5	0.00e+00	0	25	0	638582784	48	6132
2026-01-10 02:41:17.89	277.06	18.71	-37.2	-38.2	22.7	0.00e+00	0	25	0	645922816	48	5858
2026-01-10 02:41:21.92	278.03	18.71	-37.0	-38.0	22.9	0.00e+00	0	25	0	653262848	48	5703
2026-01-10 02:41:25.96	279.00	18.71	-37.6	-38.5	22.6	0.00e+00	0	25	0	661651456	48	6095
2026-01-10 02:41:30.00	279.97	18.71	-37.8	-38.8	22.3	0.00e+00	0	25	0	668991488	48	6250
2026-01-10 02:41:34.04	280.94	18.69	-38.1	-39.2	22.0	0.00e+00	0	25	0	676331520	48	6566
2026-01-10 02:41:38.07	281.90	18.67	-37.2	-38.1	22.8	0.00e+00	0	25	0	683671552	48	5807
2026-01-10 02:41:42.11	282.86	18.63	-37.4	-38.4	22.4	0.00e+00	0	25	0	691011584	48	6015
2026-01-10 02:41:46.14	283.82	18.59	-37.6	-38.6	22.4	0.00e+00	0	25	0	699400192	48	6141
2026-01-10 02:41:50.18	284.78	18.55	-38.1	-39.1	22.0	0.00e+00	0	25	0	706740224	48	6521
2026-01-10 02:41:54.22	285.74	18.49	-37.9	-39.0	22.0	0.00e+00	0	25	0	714080256	48	6414
2026-01-10 02:41:58.26	286.69	18.43	-37.7	-38.7	22.2	0.00e+00	0	25	0	721420288	48	6228
2026-01-10 02:42:02.29	287.64	18.36	-36.7	-37.6	23.2	0.00e+00	0	25	0	729808896	46	6150
2026-01-10 02:42:06.33	288.58	18.28	-36.7	-37.6	23.2	0.00e+00	0	25	0	737148928	46	6134
2026-01-10 02:42:10.37	289.52	18.20	-37.6	-38.6	22.5	0.00e+00	0	25	0	744488960	46	6887
2026-01-10 02:42:14.40	290.45	18.11	-37.9	-38.9	22.0	0.00e+00	0	25	0	751828992	48	6351
2026-01-10 02:42:18.44	291.38	18.01	-37.5	-38.4	22.6	0.00e+00	0	25	0	759169024	48	6032
2026-01-10 02:42:22.48	292.30	17.90	-36.6	-37.5	23.3	0.00e+00	0	25	0	767557632	46	6095
2026-01-10 02:42:26.52	293.22	17.79	-37.4	-38.4	22.4	0.00e+00	0	25	0	774897664	46	6728
2026-01-10 02:42:30.55	294.12	17.67	-36.8	-37.7	23.1	0.00e+00	0	25	0	782237696	46	6233
2026-01-10 02:42:34.59	295.03	17.55	-36.8	-37.7	23.2	0.00e+00	0	25	0	789577728	46	6230
2026-01-10 02:42:38.63	295.92	17.42	-36.6	-37.5	23.2	0.00e+00	0	25	0	797966336	46	6042
2026-01-10 02:42:42.66	296.80	17.28	-36.2	-37.1	23.6	0.00e+00	0	25	0	805306368	46	5819
2026-01-10 02:42:46.70	297.68	17.14	-36.3	-37.2	23.5	0.00e+00	0	25	0	812646400	46	5873
2026-01-10 02:42:50.74	298.55	16.99	-36.4	-37.3	23.4	0.00e+00	0	25	0	819986432	46	5915
2026-01-10 02:42:54.77	299.41	16.84	-36.3	-37.2	23.4	0.00e+00	0	25	0	827326464	46	5867
2026-01-10 02:42:58.81	300.26	16.68	-36.3	-37.2	23.5	0.00e+00	0	25	0	835715072	46	5834
2026-01-10 02:43:02.85	301.11	16.52	-36.9	-37.9	22.9	0.00e+00	0	25	0	843055104	46	6357
2026-01-10 02:43:06.89	301.94	16.35	-36.3	-37.1	23.6	0.00e+00	0	25	0	850395136	46	5813
2026-01-10 02:43:10.92	302.77	16.18	-36.5	-37.4	23.2	0.00e+00	0	25	0	857735168	46	6024
2026-01-10 02:43:14.96	303.58	16.01	-36.4	-37.3	23.4	0.00e+00	0	25	0	865075200	46	5908
2026-01-10 02:43:19.00	304.39	15.83	-36.7	-37.6	23.0	0.00e+00	0	25	0	873463808	46	6148
2026-01-10 02:43:23.03	305.18	15.64	-38.0	-39.1	21.8	0.00e+00	0	25	0	880803840	48	6475
2026-01-10 02:43:27.07	305.97	15.45	-36.8	-37.8	22.9	0.00e+00	0	25	0	888143872	48	5572
2026-01-10 02:43:31.11	306.75	15.26	-36.7	-37.6	23.2	0.00e+00	0	25	0	895483904	46	6116
2026-01-10 02:43:35.14	307.52	15.07	-37.0	-37.9	22.9	0.00e+00	0	25	0	903872512	46	6352
2026-01-10 02:43:39.18	308.28	14.87	-37.7	-38.7	22.1	0.00e+00	0	25	0	911212544	46	6979
2026-01-10 02:43:43.22	309.02	14.67	-38.5	-39.6	21.5	0.00e+00	0	25	0	918552576	50	6152
2026-01-10 02:43:47.26	309.76	14.47	-37.6	-38.7	22.2	0.00e+00	0	25	0	925892608	48	6177
2026-01-10 02:43:51.30	310.49	14.26	-37.8	-38.8	22.0	0.00e+00	0	25	0	933232640	48	6300
2026-01-10 02:43:55.33	311.21	14.05	-37.1	-38.1	22.6	0.00e+00	0	25	0	941621248	48	5787
2026-01-10 02:43:59.36	311.92	13.84	-37.4	-38.4	22.3	0.00e+00	0	25	0	948961280	48	6021
2026-01-10 02:44:03.40	312.62	13.63	-37.8	-38.9	22.0	0.00e+00	0	25	0	956301312	48	6340
2026-01-10 02:44:07.43	313.30	13.42	-37.9	-39.0	21.8	0.00e+00	0	25	0	963641344	48	6432
2026-01-10 02:44:11.47	313.98	13.20	-37.9	-39.0	21.8	0.00e+00	0	25	0	970981376	48	6413
2026-01-10 02:44:15.51	314.65	12.98	-37.5	-38.6	22.3	0.00e+00	0	25	0	979369984	48	6115
2026-01-10 02:44:19.54	315.31	12.76	-37.9	-38.9	21.9	0.00e+00	0	25	0	986710016	48	6380
2026-01-10 02:44:23.58	315.97	12.54	-37.3	-38.3	22.4	0.00e+00	0	25	0	994050048	48	5939
2026-01-10 02:44:27.63	316.61	12.32	-36.8	-37.7	22.8	0.00e+00	0	25	0	1001390080	48	5544
2026-01-10 02:44:31.66	317.24	12.10	-37.1	-38.1	22.7	0.00e+00	0	25	0	1009778688	46	6468
2026-01-10 02:44:35.71	317.86	11.87	-37.1	-38.1	22.7	0.00e+00	0	25	0	1017118720	46	6470
2026-01-10 02:44:39.74	318.48	11.65	-36.9	-37.9	22.7	0.00e+00	0	25	0	1024458752	46	6356
2026-01-10 02:44:43.78	319.08	11.42	-37.1	-38.1	22.6	0.00e+00	0	25	0	1031798784	46	6495
2026-01-10 02:44:47.81	319.68	11.20	-36.6	-37.5	23.0	0.00e+00	0	25	0	1039138816	46	6100
2026-01-10 02:44:51.85	320.26	10.97	-36.0	-36.9	23.5	0.00e+00	0	25	0	1047527424	46	5688
2026-01-10 02:44:55.89	320.84	10.74	-36.3	-37.2	23.2	0.00e+00	0	25	0	1054867456	46	5878
2026-01-10 02:44:59.92	321.41	10.52	-36.6	-37.5	23.0	0.00e+00	0	25	0	1062207488	46	6088
2026-01-10 02:45:03.96	321.97	10.29	-36.8	-37.8	22.8	0.00e+00	0	25	0	1069547520	46	6280
2026-01-10 02:45:08.00	322.53	10.06	-37.5	-38.6	22.1	0.00e+00	0	25	0	1077936128	46	6883
2026-01-10 02:45:12.03	323.07	9.83	-37.4	-38.5	22.1	0.00e+00	0	25	0	1085276160	48	6047
2026-01-10 02:45:16.07	323.61	9.60	-36.6	-37.5	23.0	0.00e+00	0	25	0	1092616192	46	6088
2026-01-10 02:45:20.11	324.13	9.38	-36.8	-37.8	22.6	0.00e+00	0	25	0	1099956224	46	6283
2026-01-10 02:45:24.15	324.66	9.15	-37.9	-39.0	21.7	0.00e+00	0	25	0	1107296256	48	6394
2026-01-10 02:45:28.19	325.17	8.92	-38.1	-39.2	21.4	0.00e+00	0	25	0	1115684864	48	6575
2026-01-10 02:45:32.22	325.67	8.69	-38.1	-39.2	21.4	0.00e+00	0	25	0	1123024896	48	6587
2026-01-10 02:45:36.26	326.17	8.46	-38.8	-40.0	20.8	0.00e+00	0	25	0	1130364928	50	6451
2026-01-10 02:45:40.29	326.66	8.24	-38.4	-39.6	21.1	0.00e+00	0	25	0	1137704960	50	6124
2026-01-10 02:45:44.33	327.14	8.01	-38.4	-39.6	21.1	0.00e+00	0	25	0	1146093568	50	6141
2026-01-10 02:45:48.36	327.62	7.78	-38.8	-40.0	20.6	0.00e+00	0	25	0	1153433600	50	6432
2026-01-10 02:45:52.40	328.09	7.56	-38.9	-40.2	20.4	0.00e+00	0	25	0	1160773632	50	6565
2026-01-10 02:45:56.44	328.55	7.33	-38.2	-39.4	21.2	0.00e+00	0	25	0	1168113664	50	5999
2026-01-10 02:46:00.48	329.00	7.10	-37.8	-38.9	21.7	0.00e+00	0	25	0	1175453696	48	6346
2026-01-10 02:46:04.51	329.45	6.88	-38.3	-39.5	21.1	0.00e+00	0	25	0	1183842304	48	6805
2026-01-10 02:46:08.55	329.89	6.66	-39.4	-40.7	20.0	0.00e+00	0	25	0	1191182336	50	6969
2026-01-10 02:46:12.59	330.33	6.43	-39.3	-40.7	19.9	0.00e+00	0	25	0	1198522368	50	6935
2026-01-10 02:46:16.62	330.76	6.21	-38.8	-40.1	20.4	0.00e+00	0	25	0	1205862400	50	6505
2026-01-10 02:46:20.66	331.18	5.99	-38.7	-40.0	20.5	0.00e+00	0	25	0	1214251008	50	6413
2026-01-10 02:46:24.70	331.60	5.76	-38.9	-40.2	20.2	0.00e+00	0	25	0	1221591040	50	6603
2026-01-10 02:46:28.74	332.01	5.54	-39.3	-40.6	19.7	0.00e+00	0	25	0	1228931072	50	6924
2026-01-10 02:46:32.78	332.41	5.32	-39.6	-41.1	19.0	0.00e+00	0	25	0	1236271104	50	7303
2026-01-10 02:46:36.82	332.81	5.10	-40.9	-43.3	15.9	0.00e+00	0	25	0	1243611136	54	7437
2026-01-10 02:46:40.85	333.20	4.88	-42.4	-47.2	10.8	1.46e-03	0	25	0	1251999744	56	10367
2026-01-10 02:46:44.89	333.59	4.67	-42.8	-50.9	5.3	3.33e-01	0	25	0	1259339776	58	14260
2026-01-10 02:46:48.92	333.97	4.45	-42.6	-55.4	3.7	1.48e+00	0	25	104	1263534080	58	23921
2026-01-10 02:46:52.96	334.35	4.23	-42.7	-56.7	3.6	1.51e+00	0	25	104	1263534080	58	27833
2026-01-10 02:46:57.00	334.72	4.02	-42.6	-57.2	3.6	1.51e+00	0	26	104	1263534080	58	29391
2026-01-10 02:47:01.04	335.09	3.80	-42.6	-57.6	3.6	1.51e+00	0	26	104	1263534080	58	30679
2026-01-10 02:47:05.07	335.45	3.59	-42.7	-57.7	3.6	1.51e+00	0	25	104	1263534080	58	31211
2026-01-10 02:47:09.11	335.81	3.37	-42.7	-57.7	3.6	1.51e+00	0	25	104	1263534080	58	31300
2026-01-10 02:47:13.15	336.16	3.16	-42.7	-57.7	3.6	1.51e+00	0	26	104	1263534080	58	31194
2026-01-10 02:47:17.18	336.51	2.95	-43.1	-58.2	3.6	1.51e+00	0	25	104	1263534080	58	32899
2026-01-10 02:47:21.22	336.85	2.74	-47.8	-63.0	3.6	1.51e+00	0	25	104	1263534080	60	51276
2026-01-10 02:47:25.26	337.19	2.53	-48.1	-63.3	3.6	1.51e+00	0	25	104	1263534080	60	52695
2026-01-10 02:47:29.30	337.52	2.32	-47.9	-63.1	3.6	1.51e+00	0	26	104	1263534080	60	51630
2026-01-10 02:47:33.34	337.85	2.11	-48.0	-63.1	3.6	1.51e+00	0	25	104	1263534080	60	51858
2026-01-10 02:47:37.37	338.17	1.90	-47.9	-63.1	3.6	1.51e+00	0	25	104	1263534080	60	51627
2026-01-10 02:47:41.41	338.49	1.69	-48.1	-63.2	3.6	1.51e+00	0	26	104	1263534080	60	52532
2026-01-10 02:47:45.45	338.81	1.49	-48.0	-63.2	3.6	1.51e+00	0	26	104	1263534080	60	52130
2026-01-10 02:47:49.49	339.12	1.28	-48.0	-63.1	3.6	1.51e+00	0	26	104	1263534080	60	51720
2026-01-10 02:47:53.53	339.43	1.08	-47.9	-63.1	3.6	1.51e+00	0	25	104	1263534080	60	51520
2026-01-10 02:47:57.57	339.74	0.87	-47.9	-63.1	3.6	1.51e+00	0	26	104	1263534080	60	51467
2026-01-10 02:48:01.61	340.04	0.67	-47.9	-63.1	3.6	1.51e+00	0	26	104	1263534080	60	51360
2026-01-10 02:48:05.65	340.33	0.47	-48.0	-63.2	3.6	1.51e+00	0	25	104	1263534080	60	52035
2026-01-10 02:48:09.69	340.63	0.27	-47.9	-63.1	3.6	1.51e+00	0	26	104	1263534080	60	51548
2026-01-10 02:48:13.73	340.92	0.07	-47.9	-63.1	3.6	1.51e+00	0	26	104	1263534080	60	51589

#Closed at: 2026-01-10 02:48:15
#Recorded file [1263 MB]: D:/lorett/data/35029_260110_143438.dat