passes_logs/2026/01/10/R4.6S_Anadyr/R4.6S_Anadyr__20260110_140830_NOAA_21_JPSS-2_rec.log

#Pass ID: 20260110_140830_NOAA 21 (JPSS-2)
#Satellite: NOAA 21 (JPSS-2)
#Configuration: NOAA-21
#almurnet v.1.7.20251203
#Start time: 2026-01-10 14:08:32

#Version: 2.2.20231116
#Station: R4.6S_Anadyr
#Location: 177.4865 lon 64.73178 lat
#TLE: 1 54234U 22150A   26009.79679979  .00000100  00000+0  68070-4 0  9993
#TLE: 2 54234  98.7494 310.7596 0000833 322.2782  37.8335 14.19533646164071

#Time	Az	El	Level	Level2	SNR	BER	BlckErr	Temp	State	Recorded	gain1	gain2
2026-01-10 14:08:32.68	19.51	0.11	-48.2	-63.1	3.5	1.51e+00	0	25	0	0	60	51887
2026-01-10 14:08:36.71	19.60	0.35	-48.3	-61.0	3.5	1.52e+00	0	26	104	0	60	39581
2026-01-10 14:08:40.75	19.68	0.59	-48.1	-61.1	3.5	1.52e+00	0	27	104	0	60	39724
2026-01-10 14:08:44.78	19.77	0.83	-47.7	-60.5	3.5	1.52e+00	0	27	104	0	60	37176
2026-01-10 14:08:48.82	19.86	1.07	-46.7	-59.5	3.5	1.52e+00	0	27	104	0	60	33103
2026-01-10 14:08:52.87	19.95	1.32	-46.7	-59.4	3.5	1.52e+00	0	27	104	0	60	32756
2026-01-10 14:08:56.91	20.05	1.57	-46.6	-59.5	3.5	1.52e+00	0	27	104	0	60	33026
2026-01-10 14:09:00.94	20.14	1.82	-46.6	-59.5	3.5	1.52e+00	0	27	104	0	60	32964
2026-01-10 14:09:04.98	20.24	2.07	-46.6	-59.5	3.5	1.52e+00	0	27	104	0	60	32975
2026-01-10 14:09:09.02	20.33	2.33	-46.5	-57.9	3.5	1.51e+00	0	27	104	0	60	27490
2026-01-10 14:09:13.06	20.43	2.59	-46.4	-57.5	3.6	1.50e+00	0	27	104	0	60	26280
2026-01-10 14:09:17.09	20.53	2.85	-44.6	-48.8	9.6	4.60e-02	122	27	0	1048576	60	9660
2026-01-10 14:09:21.13	20.63	3.11	-39.9	-41.6	17.0	0.00e+00	123	27	0	13631488	54	5965
2026-01-10 14:09:25.17	20.73	3.37	-38.2	-39.6	18.8	0.00e+00	123	27	0	26214400	50	5955
2026-01-10 14:09:29.21	20.84	3.64	-41.4	-43.4	15.0	0.00e+00	122	27	0	38797312	54	7370
2026-01-10 14:09:33.25	20.94	3.91	-46.5	-58.8	3.5	1.52e+00	0	27	104	49283072	60	30591
2026-01-10 14:09:37.29	21.05	4.18	-40.2	-41.9	17.0	0.00e+00	123	27	0	53477376	54	6167
2026-01-10 14:09:41.33	21.16	4.46	-40.5	-42.2	16.4	0.00e+00	123	27	0	66060288	54	6376
2026-01-10 14:09:45.37	21.27	4.74	-40.3	-42.0	17.0	0.00e+00	122	27	0	78643200	54	6233
2026-01-10 14:09:49.41	21.38	5.02	-39.5	-41.0	18.0	0.00e+00	122	27	0	91226112	52	6256
2026-01-10 14:09:53.44	21.49	5.30	-39.1	-40.5	18.4	0.00e+00	123	27	0	103809024	52	5908
2026-01-10 14:09:57.48	21.61	5.59	-37.1	-38.2	20.6	0.00e+00	122	27	0	116391936	48	5725
2026-01-10 14:10:01.52	21.73	5.88	-36.5	-37.5	21.3	0.00e+00	123	27	0	128974848	46	5926
2026-01-10 14:10:05.55	21.85	6.17	-36.4	-37.5	21.3	0.00e+00	122	27	0	142606336	46	5886
2026-01-10 14:10:09.60	21.97	6.47	-36.4	-37.5	21.4	0.00e+00	122	28	0	155189248	46	5892
2026-01-10 14:10:13.64	22.09	6.77	-36.1	-37.2	21.6	0.00e+00	123	28	0	166723584	46	5695
2026-01-10 14:10:17.68	22.22	7.07	-36.0	-37.0	21.8	0.00e+00	122	28	0	180355072	46	5577
2026-01-10 14:10:21.72	22.35	7.38	-35.7	-36.8	22.1	0.00e+00	123	28	0	192937984	44	6092
2026-01-10 14:10:25.76	22.48	7.69	-35.7	-36.8	22.1	0.00e+00	120	28	0	205520896	44	6068
2026-01-10 14:10:29.80	22.61	8.00	-35.7	-36.7	22.0	0.00e+00	123	28	0	218103808	44	6062
2026-01-10 14:10:33.83	22.75	8.32	-35.5	-36.5	22.4	0.00e+00	122	28	0	230686720	44	5875
2026-01-10 14:10:37.87	22.89	8.64	-35.3	-36.3	22.5	0.00e+00	123	28	0	243269632	44	5791
2026-01-10 14:10:41.91	23.03	8.96	-35.2	-36.2	22.7	0.00e+00	123	28	0	255852544	44	5683
2026-01-10 14:10:45.95	23.17	9.29	-35.1	-36.1	22.8	0.00e+00	122	28	0	268435456	44	5606
2026-01-10 14:10:49.99	23.32	9.63	-35.0	-36.0	22.9	0.00e+00	123	28	0	281018368	44	5550
2026-01-10 14:10:54.03	23.47	9.97	-34.8	-35.8	23.0	0.00e+00	123	28	0	293601280	44	5425
2026-01-10 14:10:58.07	23.62	10.31	-34.7	-35.7	23.2	0.00e+00	122	28	0	306184192	42	6001
2026-01-10 14:11:02.10	23.78	10.66	-34.6	-35.6	23.3	0.00e+00	120	28	0	318767104	42	5967
2026-01-10 14:11:06.14	23.93	11.01	-34.6	-35.5	23.4	0.00e+00	123	28	0	331350016	42	5903
2026-01-10 14:11:10.18	24.10	11.37	-34.5	-35.4	23.5	0.00e+00	123	28	0	343932928	42	5856
2026-01-10 14:11:14.22	24.26	11.73	-34.3	-35.3	23.6	0.00e+00	123	28	0	356515840	42	5730
2026-01-10 14:11:18.26	24.43	12.10	-34.2	-35.1	23.7	0.00e+00	122	28	0	369098752	42	5646
2026-01-10 14:11:22.29	24.61	12.47	-34.2	-35.1	23.7	0.00e+00	123	28	0	381681664	42	5647
2026-01-10 14:11:26.33	24.79	12.85	-34.0	-35.0	23.9	0.00e+00	123	28	0	394264576	42	5531
2026-01-10 14:11:30.37	24.97	13.24	-34.0	-34.9	23.9	0.00e+00	122	28	0	406847488	42	5511
2026-01-10 14:11:34.41	25.15	13.63	-33.9	-34.8	24.0	0.00e+00	122	28	0	419430400	42	5437
2026-01-10 14:11:38.44	25.34	14.02	-34.0	-34.9	23.9	0.00e+00	123	28	0	432013312	42	5509
2026-01-10 14:11:42.48	25.54	14.43	-33.8	-34.8	24.0	0.00e+00	123	28	0	444596224	42	5409
2026-01-10 14:11:46.52	25.74	14.84	-33.8	-34.7	24.0	0.00e+00	123	28	0	457179136	40	6032
2026-01-10 14:11:50.56	25.95	15.26	-34.1	-35.0	24.0	0.00e+00	122	29	0	469762048	40	6231
2026-01-10 14:11:54.60	26.16	15.68	-33.7	-34.6	24.1	0.00e+00	120	29	0	483393536	40	5993
2026-01-10 14:11:58.64	26.37	16.11	-33.7	-34.6	24.2	0.00e+00	123	29	0	494927872	40	5927
2026-01-10 14:12:02.68	26.60	16.55	-33.7	-34.6	24.3	0.00e+00	123	29	0	507510784	40	5927
2026-01-10 14:12:06.72	26.83	16.99	-33.6	-34.5	24.3	0.00e+00	122	29	0	521142272	40	5864
2026-01-10 14:12:10.76	27.06	17.45	-33.7	-34.6	24.3	0.00e+00	120	29	0	533725184	40	5928
2026-01-10 14:12:14.80	27.30	17.91	-33.9	-34.8	24.2	0.00e+00	123	29	0	546308096	40	6077
2026-01-10 14:12:18.84	27.55	18.38	-33.7	-34.6	24.2	0.00e+00	123	29	0	558891008	40	5991
2026-01-10 14:12:22.88	27.81	18.86	-33.9	-34.8	24.1	0.00e+00	123	29	0	571473920	40	6133
2026-01-10 14:12:26.93	28.07	19.35	-34.1	-35.0	24.0	0.00e+00	127	29	0	584056832	40	6260
2026-01-10 14:12:30.97	28.34	19.85	-34.1	-35.0	24.0	0.00e+00	123	29	0	596639744	40	6247
2026-01-10 14:12:35.01	28.62	20.35	-33.8	-34.7	24.2	0.00e+00	123	29	0	609222656	40	6016
2026-01-10 14:12:39.05	28.91	20.87	-33.6	-34.5	24.3	0.00e+00	123	29	0	621805568	40	5888
2026-01-10 14:12:43.09	29.21	21.40	-33.2	-34.1	24.7	0.00e+00	123	29	0	634388480	40	5598
2026-01-10 14:12:47.13	29.52	21.94	-32.8	-33.7	25.0	0.00e+00	123	29	0	646971392	40	5366
2026-01-10 14:12:51.17	29.84	22.48	-32.7	-33.6	25.0	0.00e+00	121	29	0	659554304	38	5969
2026-01-10 14:12:55.22	30.17	23.05	-32.7	-33.5	25.0	0.00e+00	123	29	0	672137216	38	5906
2026-01-10 14:12:59.25	30.51	23.62	-32.3	-33.2	25.4	0.00e+00	123	29	0	684720128	38	5689
2026-01-10 14:13:03.29	30.86	24.20	-32.3	-33.2	25.4	0.00e+00	123	29	0	697303040	38	5683
2026-01-10 14:13:07.34	31.23	24.80	-32.5	-33.4	25.2	0.00e+00	123	29	0	709885952	38	5797
2026-01-10 14:13:11.37	31.61	25.40	-32.7	-33.5	25.1	0.00e+00	122	29	0	722468864	38	5922
2026-01-10 14:13:15.42	32.00	26.02	-32.9	-33.8	24.9	0.00e+00	122	29	0	735051776	38	6099
2026-01-10 14:13:19.46	32.41	26.66	-33.5	-34.4	24.4	0.00e+00	123	29	0	747634688	38	6533
2026-01-10 14:13:23.49	32.83	27.30	-33.7	-34.6	24.2	0.00e+00	123	29	0	760217600	38	6706
2026-01-10 14:13:27.53	33.27	27.97	-33.9	-34.8	24.1	0.00e+00	123	29	0	772800512	40	6107
2026-01-10 14:13:31.57	33.73	28.64	-34.1	-35.0	23.9	0.00e+00	123	29	0	785383424	40	6271
2026-01-10 14:13:35.61	34.21	29.33	-33.9	-34.8	23.8	0.00e+00	123	29	0	799014912	40	6104
2026-01-10 14:13:39.65	34.71	30.04	-33.8	-34.8	23.9	0.00e+00	122	29	0	811597824	40	6067
2026-01-10 14:13:43.69	35.23	30.76	-33.5	-34.4	24.4	0.00e+00	122	29	0	824180736	40	5798
2026-01-10 14:13:47.73	35.78	31.50	-33.5	-34.5	24.3	0.00e+00	122	29	0	836763648	40	5859
2026-01-10 14:13:51.77	36.35	32.25	-33.3	-34.2	24.8	0.00e+00	123	29	0	849346560	40	5671
2026-01-10 14:13:55.81	36.94	33.03	-33.5	-34.4	24.6	0.00e+00	123	29	0	861929472	40	5828
2026-01-10 14:13:59.85	37.57	33.81	-33.9	-34.8	24.3	0.00e+00	122	29	0	874512384	40	6085
2026-01-10 14:14:03.89	38.22	34.62	-34.4	-35.3	23.9	0.00e+00	122	29	0	887095296	40	6467
2026-01-10 14:14:07.93	38.91	35.44	-34.7	-35.6	23.7	0.00e+00	123	29	0	899678208	42	5974
2026-01-10 14:14:11.97	39.63	36.28	-34.8	-35.7	23.6	0.00e+00	122	29	0	912261120	42	6048
2026-01-10 14:14:16.00	40.39	37.13	-35.0	-35.9	23.5	0.00e+00	120	30	0	924844032	42	6183
2026-01-10 14:14:20.04	41.19	38.00	-35.2	-36.2	23.3	0.00e+00	123	30	0	937426944	42	6367
2026-01-10 14:14:24.08	42.03	38.89	-35.6	-36.5	23.0	0.00e+00	123	30	0	950009856	42	6621
2026-01-10 14:14:28.12	42.93	39.80	-36.0	-37.0	22.6	0.00e+00	120	30	0	962592768	44	6249
2026-01-10 14:14:32.16	43.87	40.72	-36.0	-37.1	22.6	0.00e+00	123	30	0	975175680	44	6286
2026-01-10 14:14:36.20	44.86	41.65	-35.9	-36.9	22.6	0.00e+00	123	29	0	987758592	44	6153
2026-01-10 14:14:40.24	45.92	42.61	-36.2	-37.2	22.4	0.00e+00	122	30	0	1000341504	44	6403
2026-01-10 14:14:44.28	47.03	43.57	-36.3	-37.4	22.3	0.00e+00	122	30	0	1012924416	44	6499
2026-01-10 14:14:48.32	48.22	44.55	-36.1	-37.1	22.5	0.00e+00	122	29	0	1025507328	44	6305
2026-01-10 14:14:52.36	49.48	45.54	-36.1	-37.1	22.5	0.00e+00	120	29	0	1038090240	44	6319
2026-01-10 14:14:56.39	50.82	46.53	-35.7	-36.7	22.8	0.00e+00	120	30	0	1050673152	44	5996
2026-01-10 14:15:00.44	52.25	47.54	-36.2	-37.2	22.5	0.00e+00	123	30	0	1063256064	44	6369
2026-01-10 14:15:04.48	53.78	48.54	-36.2	-37.2	22.5	0.00e+00	122	30	0	1075838976	44	6357
2026-01-10 14:15:08.52	55.40	49.55	-35.1	-36.0	23.4	0.00e+00	122	30	0	1088421888	44	5564
2026-01-10 14:15:12.56	57.14	50.56	-35.2	-36.2	23.2	0.00e+00	123	30	0	1101004800	44	5683
2026-01-10 14:15:16.60	58.99	51.55	-35.5	-36.5	23.0	0.00e+00	122	30	0	1114636288	44	5905
2026-01-10 14:15:20.63	60.96	52.54	-34.8	-35.8	23.6	0.00e+00	122	30	0	1126170624	42	6097
2026-01-10 14:15:24.67	63.08	53.50	-34.6	-35.5	23.6	0.00e+00	122	30	0	1139802112	42	5910
2026-01-10 14:15:28.71	65.33	54.45	-34.4	-35.3	23.9	0.00e+00	123	30	0	1152385024	42	5773
2026-01-10 14:15:32.75	67.74	55.37	-34.3	-35.2	24.1	0.00e+00	123	30	0	1164967936	42	5679
2026-01-10 14:15:36.79	70.30	56.24	-34.2	-35.2	24.1	0.00e+00	123	30	0	1177550848	42	5672
2026-01-10 14:15:40.83	73.03	57.08	-33.1	-34.0	24.7	0.00e+00	122	30	0	1190133760	40	5547
2026-01-10 14:15:44.87	75.92	57.86	-33.5	-34.4	24.2	0.00e+00	120	30	0	1202716672	40	5818
2026-01-10 14:15:48.91	78.98	58.58	-33.2	-34.1	24.8	0.00e+00	122	30	0	1215299584	40	5632
2026-01-10 14:15:52.95	82.20	59.22	-33.2	-34.1	24.7	0.00e+00	122	30	0	1227882496	40	5649
2026-01-10 14:15:56.99	85.56	59.79	-33.0	-33.9	24.9	0.00e+00	123	30	0	1240465408	40	5494
2026-01-10 14:16:01.03	89.07	60.27	-32.7	-33.5	25.3	0.00e+00	123	30	0	1253048320	38	5912
2026-01-10 14:16:05.07	92.70	60.66	-33.1	-33.9	24.9	0.00e+00	123	30	0	1265631232	38	6198
2026-01-10 14:16:09.11	96.43	60.95	-33.1	-34.0	24.8	0.00e+00	122	30	0	1278214144	38	6272
2026-01-10 14:16:13.16	100.24	61.12	-32.7	-33.5	25.3	0.00e+00	123	30	0	1290797056	38	5912
2026-01-10 14:16:17.20	104.07	61.19	-32.7	-33.6	25.1	0.00e+00	123	30	0	1303379968	38	5940
2026-01-10 14:16:21.24	107.91	61.15	-32.7	-33.5	25.3	0.00e+00	123	30	0	1315962880	38	5908
2026-01-10 14:16:25.28	111.72	61.00	-32.1	-33.0	25.5	0.00e+00	120	30	0	1328545792	38	5537
2026-01-10 14:16:29.32	115.46	60.73	-33.1	-33.9	25.0	0.00e+00	122	30	0	1341128704	38	6202
2026-01-10 14:16:33.37	119.13	60.37	-32.6	-33.5	25.4	0.00e+00	123	30	0	1353711616	38	5880
2026-01-10 14:16:37.40	122.66	59.91	-32.7	-33.6	25.1	0.00e+00	123	30	0	1366294528	38	5940
2026-01-10 14:16:41.44	126.07	59.36	-33.0	-33.8	24.9	0.00e+00	122	30	0	1378877440	38	6131
2026-01-10 14:16:45.48	129.32	58.73	-32.8	-33.7	25.1	0.00e+00	123	30	0	1391460352	38	6047
2026-01-10 14:16:49.52	132.42	58.02	-33.2	-34.1	24.5	0.00e+00	123	30	0	1404043264	38	6335
2026-01-10 14:16:53.56	135.35	57.25	-33.5	-34.4	24.5	0.00e+00	122	30	0	1416626176	40	5847
2026-01-10 14:16:57.61	138.13	56.43	-33.6	-34.5	24.6	0.00e+00	123	30	0	1430257664	40	5869
2026-01-10 14:17:01.65	140.73	55.56	-33.5	-34.4	24.4	0.00e+00	122	30	0	1442840576	40	5839
2026-01-10 14:17:05.69	143.17	54.64	-34.9	-35.9	23.5	0.00e+00	122	30	0	1455423488	42	6192
2026-01-10 14:17:09.73	145.47	53.70	-34.7	-35.7	23.6	0.00e+00	122	30	0	1468006400	42	6035
2026-01-10 14:17:13.77	147.62	52.74	-35.5	-36.4	23.1	0.00e+00	122	30	0	1480589312	42	6563
2026-01-10 14:17:17.81	149.63	51.75	-34.3	-35.2	24.1	0.00e+00	123	30	0	1493172224	42	5711
2026-01-10 14:17:21.85	151.51	50.75	-36.6	-37.7	21.9	0.00e+00	123	30	0	1505755136	44	6784
2026-01-10 14:17:25.89	153.27	49.74	-35.2	-36.2	22.9	0.00e+00	123	30	0	1518338048	44	5686
2026-01-10 14:17:29.93	154.92	48.73	-36.5	-37.6	22.0	0.00e+00	123	30	0	1530920960	44	6714
2026-01-10 14:17:33.97	156.47	47.72	-35.5	-36.5	22.7	0.00e+00	122	30	0	1543503872	44	5909
2026-01-10 14:17:38.01	157.92	46.71	-35.3	-36.3	23.2	0.00e+00	123	30	0	1556086784	44	5758
2026-01-10 14:17:42.05	159.28	45.71	-37.1	-38.2	21.5	0.00e+00	122	30	0	1568669696	46	6407
2026-01-10 14:17:46.09	160.56	44.72	-36.6	-37.6	21.9	0.00e+00	120	30	0	1581252608	46	5990
2026-01-10 14:17:50.13	161.77	43.73	-36.6	-37.6	22.1	0.00e+00	122	30	0	1593835520	46	5946
2026-01-10 14:17:54.17	162.90	42.76	-35.6	-36.5	23.0	0.00e+00	123	30	0	1606418432	44	5920
2026-01-10 14:17:58.21	163.97	41.80	-35.1	-36.0	23.4	0.00e+00	122	30	0	1619001344	42	6247
2026-01-10 14:18:02.25	164.98	40.86	-35.6	-36.6	22.8	0.00e+00	122	30	0	1631584256	44	5980
2026-01-10 14:18:06.29	165.93	39.93	-35.7	-36.7	22.6	0.00e+00	122	30	0	1644167168	44	6058
2026-01-10 14:18:10.33	166.83	39.02	-35.5	-36.5	23.0	0.00e+00	121	30	0	1656750080	44	5871
2026-01-10 14:18:14.37	167.69	38.12	-36.3	-37.3	22.3	0.00e+00	122	30	0	1669332992	44	6471
2026-01-10 14:18:18.41	168.50	37.24	-35.5	-36.5	22.9	0.00e+00	123	30	0	1681915904	44	5905
2026-01-10 14:18:22.45	169.26	36.38	-34.4	-35.3	23.9	0.00e+00	122	30	0	1694498816	42	5765
2026-01-10 14:18:26.49	169.99	35.53	-35.0	-35.9	23.5	0.00e+00	123	30	0	1707081728	42	6179
2026-01-10 14:18:30.53	170.69	34.71	-35.6	-36.6	22.9	0.00e+00	122	30	0	1719664640	42	6689
2026-01-10 14:18:34.57	171.35	33.89	-34.5	-35.4	23.8	0.00e+00	122	30	0	1732247552	42	5848
2026-01-10 14:18:38.62	171.98	33.10	-33.9	-34.8	24.4	0.00e+00	123	30	0	1745879040	42	5422
2026-01-10 14:18:42.66	172.58	32.32	-33.3	-34.2	24.8	0.00e+00	123	30	0	1758461952	40	5671
2026-01-10 14:18:46.69	173.16	31.56	-33.2	-34.1	24.8	0.00e+00	122	30	0	1771044864	40	5621
2026-01-10 14:18:50.73	173.71	30.82	-33.6	-34.5	24.5	0.00e+00	122	30	0	1783627776	40	5869
2026-01-10 14:18:54.78	174.23	30.09	-33.6	-34.5	24.4	0.00e+00	123	30	0	1796210688	40	5926
2026-01-10 14:18:58.81	174.73	29.38	-33.0	-33.9	24.7	0.00e+00	122	30	0	1808793600	40	5479
2026-01-10 14:19:02.86	175.22	28.68	-33.0	-33.9	24.7	0.00e+00	120	30	0	1821376512	40	5486
2026-01-10 14:19:06.89	175.68	28.00	-33.2	-34.1	24.9	0.00e+00	122	30	0	1833959424	40	5631
2026-01-10 14:19:10.93	176.12	27.33	-33.0	-33.9	24.9	0.00e+00	123	30	0	1846542336	40	5497
2026-01-10 14:19:14.97	176.55	26.68	-33.0	-33.9	25.0	0.00e+00	122	30	0	1859125248	40	5484
2026-01-10 14:19:19.01	176.96	26.04	-33.3	-34.2	24.6	0.00e+00	123	30	0	1871708160	40	5708
2026-01-10 14:19:23.05	177.36	25.41	-33.4	-34.3	24.5	0.00e+00	122	30	0	1884291072	40	5782
2026-01-10 14:19:27.09	177.74	24.80	-33.3	-34.2	24.6	0.00e+00	123	30	0	1896873984	40	5678
2026-01-10 14:19:31.13	178.11	24.20	-33.1	-34.0	24.7	0.00e+00	122	30	0	1909456896	40	5534
2026-01-10 14:19:35.17	178.46	23.61	-33.1	-34.0	24.6	0.00e+00	122	30	0	1922039808	40	5546
2026-01-10 14:19:39.21	178.80	23.03	-32.8	-33.7	25.0	0.00e+00	121	30	0	1934622720	40	5379
2026-01-10 14:19:43.25	179.13	22.47	-32.9	-33.7	24.9	0.00e+00	122	30	0	1947205632	40	5399
2026-01-10 14:19:47.29	179.45	21.92	-33.1	-34.0	24.8	0.00e+00	123	30	0	1959788544	40	5554
2026-01-10 14:19:51.33	179.76	21.38	-33.3	-34.2	24.6	0.00e+00	123	30	0	1972371456	40	5720
2026-01-10 14:19:55.37	180.06	20.84	-33.6	-34.5	24.3	0.00e+00	122	30	0	1984954368	40	5908
2026-01-10 14:19:59.41	180.35	20.32	-33.3	-34.2	24.7	0.00e+00	123	30	0	1997537280	40	5703
2026-01-10 14:20:03.44	180.63	19.81	-33.2	-34.1	24.7	0.00e+00	120	31	0	2010120192	40	5642
2026-01-10 14:20:07.48	180.90	19.31	-33.3	-34.2	24.6	0.00e+00	123	30	0	2022703104	40	5664
2026-01-10 14:20:11.52	181.16	18.82	-33.6	-34.5	24.4	0.00e+00	123	30	0	2035286016	40	5886
2026-01-10 14:20:15.56	181.42	18.34	-33.7	-34.7	24.2	0.00e+00	120	30	0	2047868928	40	5996
2026-01-10 14:20:19.60	181.67	17.86	-33.8	-34.7	24.2	0.00e+00	123	30	0	2061500416	40	6045
2026-01-10 14:20:23.64	181.91	17.40	-33.8	-34.7	24.2	0.00e+00	122	30	0	2074083328	40	6026
2026-01-10 14:20:27.68	182.14	16.94	-33.9	-34.9	24.1	0.00e+00	122	30	0	2086666240	40	6136
2026-01-10 14:20:31.72	182.37	16.49	-34.0	-35.0	24.0	0.00e+00	122	30	0	2099249152	40	6219
2026-01-10 14:20:35.76	182.59	16.05	-33.9	-34.8	24.0	0.00e+00	120	30	0	2111832064	40	6129
2026-01-10 14:20:39.80	182.81	15.62	-34.0	-34.9	24.0	0.00e+00	122	31	0	2124414976	40	6156
2026-01-10 14:20:43.84	183.02	15.19	-34.1	-35.0	23.9	0.00e+00	122	30	0	2136997888	40	6218
2026-01-10 14:20:47.88	183.22	14.77	-34.1	-35.0	23.8	0.00e+00	123	31	0	2149580800	40	6269
2026-01-10 14:20:51.92	183.42	14.36	-34.2	-35.1	23.8	0.00e+00	123	31	0	2162163712	40	6328
2026-01-10 14:20:55.96	183.61	13.95	-34.4	-35.4	23.6	0.00e+00	123	31	0	2174746624	40	6521
2026-01-10 14:21:00.00	183.80	13.55	-34.4	-35.3	23.6	0.00e+00	122	31	0	2187329536	40	6445
2026-01-10 14:21:04.04	183.99	13.16	-34.1	-35.1	23.9	0.00e+00	120	31	0	2199912448	40	6279
2026-01-10 14:21:08.08	184.17	12.77	-34.1	-35.1	23.9	0.00e+00	122	31	0	2212495360	40	6279
2026-01-10 14:21:12.12	184.34	12.39	-34.1	-35.1	23.8	0.00e+00	123	31	0	2225078272	40	6279
2026-01-10 14:21:16.16	184.52	12.01	-34.3	-35.3	23.7	0.00e+00	122	31	0	2237661184	40	6431
2026-01-10 14:21:20.20	184.68	11.64	-34.4	-35.3	23.5	0.00e+00	123	31	0	2250244096	40	6498
2026-01-10 14:21:24.24	184.85	11.28	-34.5	-35.4	23.5	0.00e+00	123	30	0	2262827008	40	6531
2026-01-10 14:21:28.28	185.01	10.92	-34.7	-35.6	23.3	0.00e+00	123	31	0	2275409920	40	6683
2026-01-10 14:21:32.31	185.17	10.56	-34.8	-35.8	23.1	0.00e+00	120	30	0	2287992832	42	6104
2026-01-10 14:21:36.35	185.32	10.21	-35.1	-36.1	22.9	0.00e+00	122	31	0	2300575744	42	6283
2026-01-10 14:21:40.39	185.47	9.87	-35.2	-36.2	22.9	0.00e+00	123	30	0	2313158656	42	6373
2026-01-10 14:21:44.44	185.62	9.52	-35.4	-36.4	22.6	0.00e+00	122	31	0	2325741568	42	6522
2026-01-10 14:21:48.48	185.76	9.19	-35.6	-36.6	22.4	0.00e+00	122	31	0	2338324480	42	6724
2026-01-10 14:21:52.52	185.90	8.86	-35.6	-36.7	22.4	0.00e+00	123	30	0	2350907392	42	6729
2026-01-10 14:21:56.56	186.04	8.53	-35.7	-36.7	22.3	0.00e+00	122	31	0	2363490304	44	6041
2026-01-10 14:22:00.59	186.18	8.21	-35.5	-36.6	22.4	0.00e+00	123	31	0	2377121792	44	5935
2026-01-10 14:22:04.64	186.31	7.89	-35.5	-36.6	22.3	0.00e+00	123	31	0	2388656128	44	5928
2026-01-10 14:22:08.67	186.44	7.57	-35.8	-36.9	22.1	0.00e+00	122	31	0	2402287616	44	6146
2026-01-10 14:22:12.71	186.57	7.26	-35.8	-36.8	22.1	0.00e+00	122	31	0	2414870528	44	6133
2026-01-10 14:22:16.75	186.69	6.95	-36.1	-37.1	21.8	0.00e+00	123	31	0	2427453440	44	6339
2026-01-10 14:22:20.79	186.82	6.65	-36.5	-37.6	21.3	0.00e+00	123	31	0	2440036352	44	6694
2026-01-10 14:22:24.83	186.94	6.34	-36.3	-37.4	21.5	0.00e+00	123	31	0	2452619264	44	6505
2026-01-10 14:22:28.87	187.06	6.05	-36.4	-37.5	21.5	0.00e+00	123	31	0	2465202176	44	6580
2026-01-10 14:22:32.91	187.17	5.75	-36.3	-37.4	21.5	0.00e+00	123	31	0	2477785088	44	6537
2026-01-10 14:22:36.96	187.29	5.46	-36.5	-37.6	21.2	0.00e+00	120	31	0	2490368000	46	5991
2026-01-10 14:22:41.00	187.40	5.17	-36.7	-37.8	21.0	0.00e+00	123	31	0	2502950912	46	6124
2026-01-10 14:22:45.04	187.51	4.89	-36.8	-37.9	20.8	0.00e+00	120	31	0	2515533824	46	6161
2026-01-10 14:22:49.08	187.62	4.60	-37.4	-38.5	20.3	0.00e+00	122	31	0	2528116736	46	6639
2026-01-10 14:22:53.12	187.73	4.32	-37.0	-38.2	20.5	0.00e+00	123	31	0	2540699648	46	6369
2026-01-10 14:22:57.16	187.83	4.05	-36.8	-37.9	20.8	0.00e+00	122	31	0	2553282560	46	6148
2026-01-10 14:23:01.20	187.93	3.77	-38.0	-39.3	19.5	0.00e+00	123	31	0	2565865472	48	6439
2026-01-10 14:23:05.24	188.04	3.50	-37.5	-38.7	19.9	0.00e+00	122	31	0	2578448384	48	6064
2026-01-10 14:23:09.28	188.14	3.23	-37.5	-38.7	19.9	0.00e+00	123	31	0	2591031296	48	6002
2026-01-10 14:23:13.33	188.24	2.97	-47.3	-60.1	3.5	1.52e+00	0	31	104	2601517056	60	35417
2026-01-10 14:23:17.36	188.33	2.70	-48.0	-60.9	3.5	1.52e+00	0	31	104	2601517056	60	38890
2026-01-10 14:23:21.40	188.43	2.44	-48.2	-61.1	3.5	1.51e+00	0	31	104	2601517056	60	39961
2026-01-10 14:23:25.44	188.52	2.18	-47.9	-60.9	3.5	1.52e+00	0	31	104	2601517056	60	39080
2026-01-10 14:23:29.49	188.61	1.93	-48.2	-61.0	3.5	1.52e+00	0	31	104	2601517056	60	39443
2026-01-10 14:23:33.52	188.71	1.67	-48.2	-61.0	3.5	1.52e+00	0	31	104	2601517056	60	39232
2026-01-10 14:23:37.57	188.80	1.42	-48.1	-61.0	3.5	1.51e+00	0	31	104	2601517056	60	39331
2026-01-10 14:23:41.60	188.88	1.17	-48.1	-61.0	3.5	1.52e+00	0	31	104	2601517056	60	39223
2026-01-10 14:23:45.64	188.97	0.92	-48.1	-61.0	3.5	1.51e+00	0	31	104	2601517056	60	39321
2026-01-10 14:23:49.68	189.06	0.68	-48.1	-60.9	3.5	1.52e+00	0	31	104	2601517056	60	39133
2026-01-10 14:23:53.72	189.14	0.43	-48.1	-61.0	3.5	1.52e+00	0	31	104	2601517056	60	39181
2026-01-10 14:23:57.76	189.23	0.19	-48.1	-61.0	3.5	1.52e+00	0	31	104	2601517056	60	39159
2026-01-10 14:24:01.79	189.31	-0.05	-48.2	-61.0	3.5	1.52e+00	0	31	104	2601517056	60	39419

#Closed at: 2026-01-10 14:24:02
#Recorded file [2601 MB]: D:/lorett/data/35029_260111_020832.dat