passes_logs/2026/01/10/R4.6S_Anadyr/R4.6S_Anadyr__20260110_220157_AQUA_rec.log

#Pass ID: 20260110_220157_AQUA
#Satellite: AQUA
#Configuration: AQUA
#almurnet v.1.7.20251203
#Start time: 2026-01-10 22:02:02

#Version: 2.2.20231116
#Station: R4.6S_Anadyr
#Location: 177.4865 lon 64.73178 lat
#TLE: 1 27424U 02022A   26009.89520876  .00001045  00000+0  21914-3 0  9996
#TLE: 2 27424  98.4076 336.2372 0002032  84.5955   1.0356 14.61811442260144

#Time	Az	El	Level	Level2	SNR	BER	BlckErr	Temp	State	Recorded	gain1	gain2
2026-01-10 22:02:02.29	63.11	0.22	-48.1	-49.5	3.3	0.00e+00	0	26	0	0	60	36730
2026-01-10 22:02:05.22	62.84	0.36	-48.4	-66.3	3.5	7.71e-01	0	27	104	0	60	79236
2026-01-10 22:02:08.15	62.57	0.50	-48.3	-66.3	3.5	7.71e-01	0	27	104	0	60	79321
2026-01-10 22:02:11.09	62.29	0.64	-47.9	-66.2	3.5	7.71e-01	0	27	104	0	60	78207
2026-01-10 22:02:14.02	62.02	0.78	-47.6	-65.7	3.5	7.71e-01	0	27	104	0	60	73853
2026-01-10 22:02:16.95	61.73	0.93	-46.1	-64.6	3.5	7.71e-01	0	27	104	0	60	65564
2026-01-10 22:02:19.87	61.45	1.07	-46.1	-64.6	3.6	7.71e-01	0	27	104	0	60	65448
2026-01-10 22:02:22.80	61.17	1.21	-46.0	-64.6	3.5	7.71e-01	0	27	104	0	60	65255
2026-01-10 22:02:25.74	60.87	1.35	-46.0	-64.6	3.5	7.71e-01	0	27	104	0	60	65150
2026-01-10 22:02:28.67	60.58	1.49	-46.0	-64.5	3.5	7.71e-01	0	27	104	0	60	64978
2026-01-10 22:02:31.61	60.28	1.63	-46.0	-64.6	3.5	7.71e-01	0	27	104	0	60	65249
2026-01-10 22:02:34.54	59.99	1.77	-46.0	-64.6	3.5	7.71e-01	0	27	104	0	60	65130
2026-01-10 22:02:37.47	59.68	1.91	-46.0	-64.5	3.5	7.71e-01	0	27	104	0	60	64752
2026-01-10 22:02:40.40	59.38	2.06	-46.0	-64.5	3.5	7.71e-01	0	27	104	0	60	64657
2026-01-10 22:02:43.33	59.07	2.20	-46.0	-64.4	3.5	7.71e-01	0	27	104	0	60	64165
2026-01-10 22:02:46.26	58.76	2.34	-45.9	-64.1	3.5	7.71e-01	0	27	104	0	60	61717
2026-01-10 22:02:49.20	58.44	2.48	-46.0	-64.6	3.5	7.71e-01	0	27	104	0	60	64995
2026-01-10 22:02:52.13	58.12	2.62	-46.0	-64.5	3.5	7.71e-01	0	27	104	0	60	64521
2026-01-10 22:02:55.07	57.80	2.77	-45.8	-63.4	3.5	7.71e-01	0	27	104	0	60	56844
2026-01-10 22:02:57.99	57.47	2.91	-45.4	-61.4	3.6	7.71e-01	0	27	104	0	60	45325
2026-01-10 22:03:00.92	57.14	3.05	-46.9	-64.5	3.5	7.71e-01	0	27	104	0	60	64470
2026-01-10 22:03:03.85	56.81	3.19	-38.3	-49.1	3.6	7.71e-01	0	27	104	0	50	19442
2026-01-10 22:03:06.79	56.47	3.33	-38.0	-48.7	3.5	7.71e-01	0	27	104	0	52	16533
2026-01-10 22:03:09.72	56.13	3.48	-43.6	-55.7	3.5	7.71e-01	0	27	104	0	56	29425
2026-01-10 22:03:12.65	55.78	3.62	-41.6	-52.9	3.4	7.71e-01	0	27	104	0	60	16966
2026-01-10 22:03:15.58	55.43	3.76	-38.5	-49.1	3.5	7.71e-01	0	27	104	0	52	17417
2026-01-10 22:03:18.51	55.08	3.90	-39.0	-49.7	3.5	7.71e-01	0	27	104	0	52	18643
2026-01-10 22:03:21.43	54.73	4.04	-45.8	-64.6	3.5	7.71e-01	0	27	104	0	60	65533
2026-01-10 22:03:24.37	54.37	4.18	-39.8	-50.9	3.5	7.71e-01	0	27	104	0	54	18967
2026-01-10 22:03:27.30	54.00	4.33	-40.2	-51.4	3.5	7.71e-01	0	27	104	0	54	20158
2026-01-10 22:03:30.23	53.63	4.47	-46.7	-64.2	3.5	7.71e-01	0	27	104	0	60	62057
2026-01-10 22:03:33.16	53.26	4.61	-40.6	-51.5	3.5	7.71e-01	0	27	104	0	56	18279
2026-01-10 22:03:36.09	52.89	4.75	-39.6	-50.6	3.5	7.71e-01	0	27	104	0	54	18320
2026-01-10 22:03:39.02	52.51	4.89	-47.1	-64.7	3.5	7.71e-01	0	27	104	0	60	66406
2026-01-10 22:03:41.95	52.12	5.03	-45.6	-59.8	3.5	7.71e-01	0	27	104	0	60	37764
2026-01-10 22:03:44.88	51.74	5.17	-44.7	-57.6	3.5	7.71e-01	0	27	104	0	60	29359
2026-01-10 22:03:47.82	51.34	5.31	-40.1	-50.9	3.4	7.71e-01	0	27	104	0	54	18990
2026-01-10 22:03:50.75	50.95	5.45	-37.6	-48.1	3.5	7.71e-01	0	27	104	0	50	17306
2026-01-10 22:03:53.68	50.55	5.58	-37.6	-48.1	3.5	7.71e-01	0	27	104	0	50	17423
2026-01-10 22:03:56.62	50.14	5.72	-43.2	-55.0	3.5	7.71e-01	0	27	104	0	56	27199
2026-01-10 22:03:59.55	49.73	5.86	-45.8	-64.0	3.5	7.71e-01	0	27	104	0	60	60688
2026-01-10 22:04:02.47	49.32	6.00	-43.6	-55.8	3.5	7.71e-01	0	27	104	0	60	23727
2026-01-10 22:04:05.41	48.90	6.13	-42.7	-54.5	3.6	7.71e-01	0	27	104	0	60	20443
2026-01-10 22:04:08.33	48.48	6.27	-37.6	-48.0	3.5	7.71e-01	0	27	104	0	50	17115
2026-01-10 22:04:11.27	48.05	6.41	-36.9	-47.3	3.5	7.71e-01	0	27	104	0	48	17742
2026-01-10 22:04:14.20	47.62	6.54	-38.5	-49.1	3.5	7.71e-01	0	27	104	0	52	17328
2026-01-10 22:04:17.13	47.18	6.67	-46.5	-64.7	3.5	7.71e-01	0	27	104	0	60	66423
2026-01-10 22:04:20.06	46.74	6.81	-38.3	-48.9	3.5	7.71e-01	0	27	104	0	52	16945
2026-01-10 22:04:23.00	46.30	6.94	-43.4	-55.2	3.5	7.71e-01	0	27	104	0	60	22107
2026-01-10 22:04:25.93	45.85	7.07	-42.1	-53.5	3.6	7.71e-01	0	27	104	0	56	22913
2026-01-10 22:04:28.85	45.40	7.20	-42.2	-53.7	3.5	7.71e-01	0	27	104	0	58	20888
2026-01-10 22:04:31.78	44.94	7.33	-39.1	-49.9	3.5	7.71e-01	0	27	104	0	54	17015
2026-01-10 22:04:34.71	44.48	7.46	-45.1	-59.2	3.5	7.71e-01	0	27	104	0	56	44104
2026-01-10 22:04:37.64	44.01	7.59	-36.4	-46.7	3.5	7.71e-01	0	27	104	0	48	16654
2026-01-10 22:04:40.59	43.54	7.72	-35.6	-45.8	3.5	7.71e-01	0	27	104	0	48	14999
2026-01-10 22:04:43.52	43.06	7.85	-40.5	-51.4	3.8	7.71e-01	0	27	104	0	50	25533
2026-01-10 22:04:46.44	42.58	7.97	-38.1	-48.6	3.5	7.71e-01	0	27	104	0	52	16386
2026-01-10 22:04:49.37	42.10	8.10	-43.2	-54.9	3.5	7.71e-01	0	27	104	0	60	21433
2026-01-10 22:04:52.31	41.61	8.22	-45.7	-60.1	3.5	7.71e-01	0	27	104	0	60	39085
2026-01-10 22:04:55.24	41.11	8.34	-37.2	-47.6	3.5	7.71e-01	0	27	104	0	50	16429
2026-01-10 22:04:58.18	40.61	8.46	-35.7	-46.0	3.5	7.71e-01	0	27	104	0	46	17196
2026-01-10 22:05:01.12	40.11	8.58	-39.6	-50.2	3.5	7.71e-01	0	27	104	0	56	15635
2026-01-10 22:05:04.05	39.60	8.70	-38.8	-49.5	3.5	7.71e-01	0	27	104	0	52	18107
2026-01-10 22:05:06.98	39.09	8.82	-40.6	-51.5	3.5	7.71e-01	0	28	104	0	54	20435
2026-01-10 22:05:09.91	38.57	8.93	-42.7	-54.2	3.5	7.71e-01	0	27	104	0	60	19777
2026-01-10 22:05:12.84	38.05	9.04	-38.5	-49.0	3.5	7.71e-01	0	27	104	0	52	17240
2026-01-10 22:05:15.77	37.52	9.16	-37.8	-48.3	3.5	7.71e-01	0	27	104	0	48	19924
2026-01-10 22:05:18.70	36.99	9.27	-42.6	-54.0	3.5	7.71e-01	0	27	104	0	60	19392
2026-01-10 22:05:21.64	36.46	9.37	-41.0	-52.2	3.5	7.71e-01	0	27	104	0	58	17566
2026-01-10 22:05:24.57	35.92	9.48	-39.7	-50.4	3.5	7.71e-01	0	27	104	0	50	22751
2026-01-10 22:05:27.50	35.37	9.59	-45.5	-64.5	3.5	7.71e-01	0	27	104	0	60	64827
2026-01-10 22:05:30.43	34.83	9.69	-36.7	-47.1	3.5	7.71e-01	0	27	104	0	48	17358
2026-01-10 22:05:33.36	34.27	9.79	-36.2	-46.6	3.5	7.71e-01	0	27	104	0	48	16327
2026-01-10 22:05:36.29	33.72	9.89	-45.5	-61.0	3.5	7.71e-01	0	27	104	0	60	43151
2026-01-10 22:05:39.22	33.16	9.99	-40.1	-51.1	3.5	7.71e-01	0	27	104	0	54	19465
2026-01-10 22:05:42.16	32.59	10.08	-35.9	-46.2	3.5	7.71e-01	0	27	104	0	46	17687
2026-01-10 22:05:45.09	32.02	10.18	-46.3	-65.2	3.5	7.71e-01	0	27	104	0	60	70251
2026-01-10 22:05:48.02	31.45	10.27	-36.8	-47.3	3.5	7.71e-01	0	27	104	0	50	15923
2026-01-10 22:05:50.95	30.88	10.35	-36.1	-46.5	3.5	7.71e-01	0	27	104	0	46	18176
2026-01-10 22:05:53.89	30.30	10.44	-46.4	-65.2	3.5	7.71e-01	0	27	104	0	60	70060
2026-01-10 22:05:56.82	29.71	10.53	-37.9	-48.4	3.6	7.71e-01	0	27	104	0	52	16065
2026-01-10 22:05:59.75	29.13	10.61	-35.4	-45.7	3.5	7.71e-01	0	27	104	0	46	16596
2026-01-10 22:06:02.68	28.54	10.69	-43.8	-56.3	3.4	7.71e-01	0	27	104	0	54	35338
2026-01-10 22:06:05.61	27.94	10.76	-45.6	-59.7	3.5	7.71e-01	0	27	104	0	60	37238
2026-01-10 22:06:08.54	27.35	10.84	-38.0	-48.6	3.5	7.71e-01	0	27	104	0	52	16440
2026-01-10 22:06:11.47	26.75	10.91	-38.4	-48.9	3.5	7.71e-01	0	27	104	0	50	19084
2026-01-10 22:06:14.41	26.14	10.98	-36.9	-47.4	3.5	7.71e-01	0	27	104	0	48	17916
2026-01-10 22:06:17.34	25.53	11.04	-35.4	-45.6	3.6	7.71e-01	0	27	104	0	46	16477
2026-01-10 22:06:20.27	24.92	11.11	-36.7	-47.1	3.4	7.71e-01	0	27	104	0	48	17318
2026-01-10 22:06:23.20	24.31	11.17	-47.2	-62.9	3.6	7.71e-01	0	27	104	1048576	60	53468
2026-01-10 22:06:26.13	23.70	11.22	-35.3	-36.5	28.1	7.71e-01	58	27	0	5242880	46	5788
2026-01-10 22:06:29.06	23.08	11.28	-34.5	-35.8	28.7	7.71e-01	56	27	0	10485760	44	5933
2026-01-10 22:06:32.00	22.46	11.33	-34.6	-35.8	28.6	7.71e-01	59	27	0	16252928	44	5985
2026-01-10 22:06:34.93	21.84	11.38	-34.7	-36.0	28.5	7.71e-01	60	27	0	21495808	44	6125
2026-01-10 22:06:37.86	21.21	11.42	-34.5	-35.7	28.8	7.71e-01	57	27	0	27262976	44	5912
2026-01-10 22:06:40.79	20.59	11.47	-34.6	-35.9	28.6	7.71e-01	62	27	0	32505856	44	6012
2026-01-10 22:06:43.72	19.96	11.51	-34.5	-35.8	28.8	7.71e-01	57	27	0	38273024	44	5935
2026-01-10 22:06:46.66	19.33	11.54	-34.6	-35.8	28.6	7.71e-01	48	27	0	43515904	44	5980
2026-01-10 22:06:49.59	18.69	11.58	-34.4	-35.7	28.8	7.71e-01	58	27	0	49283072	44	5866
2026-01-10 22:06:52.52	18.06	11.61	-34.8	-36.0	28.5	7.71e-01	60	27	0	54525952	44	6111
2026-01-10 22:06:55.45	17.43	11.63	-34.4	-35.6	28.8	7.71e-01	59	27	0	59768832	44	5840
2026-01-10 22:06:58.38	16.79	11.66	-34.7	-35.9	28.6	7.71e-01	60	27	0	65536000	44	6041
2026-01-10 22:07:01.32	16.15	11.68	-34.7	-36.0	28.6	7.71e-01	62	27	0	71303168	44	6083
2026-01-10 22:07:04.25	15.51	11.70	-34.6	-35.8	28.7	7.71e-01	61	27	0	76546048	44	5982
2026-01-10 22:07:07.18	14.88	11.71	-34.5	-35.7	28.8	7.71e-01	59	27	0	81788928	44	5923
2026-01-10 22:07:10.11	14.24	11.72	-34.6	-35.9	28.6	7.71e-01	47	27	0	87556096	44	6014
2026-01-10 22:07:13.04	13.60	11.73	-34.7	-35.9	28.7	7.71e-01	53	27	0	92798976	44	6051
2026-01-10 22:07:15.97	12.96	11.73	-34.8	-36.0	28.5	7.71e-01	50	27	0	98566144	44	6122
2026-01-10 22:07:18.91	12.32	11.73	-34.5	-35.8	28.7	7.71e-01	62	27	0	103809024	44	5950
2026-01-10 22:07:21.84	11.68	11.73	-34.7	-35.9	28.6	7.71e-01	59	27	0	109576192	44	6052
2026-01-10 22:07:24.76	11.04	11.73	-34.6	-35.8	28.7	7.71e-01	63	27	0	114819072	44	5972
2026-01-10 22:07:27.70	10.40	11.72	-34.5	-35.8	28.8	7.71e-01	60	27	0	120586240	44	5930
2026-01-10 22:07:30.63	9.76	11.70	-34.7	-36.0	28.6	7.71e-01	60	27	0	125829120	44	6067
2026-01-10 22:07:33.56	9.12	11.69	-34.6	-35.8	28.7	7.71e-01	59	27	0	131596288	44	5993
2026-01-10 22:07:36.49	8.49	11.67	-34.7	-35.9	28.7	7.71e-01	60	27	0	136839168	44	6047
2026-01-10 22:07:39.43	7.85	11.65	-34.7	-35.9	28.6	7.71e-01	60	27	0	142606336	44	6059
2026-01-10 22:07:42.35	7.21	11.62	-34.6	-35.9	28.7	7.71e-01	56	27	0	147849216	44	6010
2026-01-10 22:07:45.28	6.58	11.60	-34.6	-35.9	28.7	7.71e-01	45	27	0	153616384	44	6001
2026-01-10 22:07:48.20	5.95	11.56	-34.7	-35.9	28.7	7.71e-01	60	27	0	158859264	44	6034
2026-01-10 22:07:51.14	5.32	11.53	-34.7	-36.0	28.6	7.71e-01	61	27	0	164626432	44	6092
2026-01-10 22:07:54.08	4.69	11.49	-34.5	-35.7	28.8	7.71e-01	56	27	0	169869312	44	5886
2026-01-10 22:07:57.01	4.06	11.45	-34.7	-35.9	28.7	7.71e-01	59	27	0	175636480	44	6038
2026-01-10 22:07:59.93	3.44	11.41	-34.7	-35.9	28.7	7.71e-01	63	27	0	180879360	44	6028
2026-01-10 22:08:02.86	2.81	11.36	-34.7	-35.9	28.7	7.71e-01	57	27	0	186646528	44	6057
2026-01-10 22:08:05.79	2.19	11.31	-34.7	-35.9	28.6	7.71e-01	62	27	0	191889408	44	6043
2026-01-10 22:08:08.73	1.57	11.26	-34.7	-36.0	28.6	7.71e-01	56	27	0	197656576	44	6085
2026-01-10 22:08:11.67	0.95	11.20	-34.8	-36.1	28.5	7.71e-01	55	27	0	202899456	44	6164
2026-01-10 22:08:14.60	0.34	11.14	-35.0	-36.3	28.3	7.71e-01	47	27	0	208666624	44	6285
2026-01-10 22:08:17.53	359.73	11.08	-34.9	-36.2	28.4	7.71e-01	58	27	0	213909504	44	6240
2026-01-10 22:08:20.47	359.12	11.02	-34.7	-35.9	28.6	7.71e-01	63	27	0	219676672	44	6050
2026-01-10 22:08:23.39	358.52	10.95	-34.8	-36.0	28.5	7.71e-01	62	27	0	224919552	44	6111
2026-01-10 22:08:26.32	357.92	10.88	-34.9	-36.1	28.4	7.71e-01	59	27	0	230686720	44	6184
2026-01-10 22:08:29.26	357.31	10.81	-34.8	-36.0	28.5	7.71e-01	60	27	0	235929600	44	6126
2026-01-10 22:08:32.19	356.72	10.73	-34.8	-36.1	28.5	7.71e-01	58	27	0	241172480	44	6139
2026-01-10 22:08:35.12	356.13	10.66	-35.0	-36.3	28.3	7.71e-01	60	27	0	246939648	44	6304
2026-01-10 22:08:38.05	355.54	10.58	-34.7	-36.0	28.5	7.71e-01	61	27	0	252182528	44	6079
2026-01-10 22:08:40.98	354.95	10.49	-35.1	-36.4	28.2	7.71e-01	55	27	0	257949696	44	6368
2026-01-10 22:08:43.91	354.37	10.41	-35.1	-36.4	28.2	7.71e-01	53	27	0	263192576	44	6368
2026-01-10 22:08:46.84	353.80	10.32	-35.0	-36.2	28.3	7.71e-01	57	27	0	268959744	44	6251
2026-01-10 22:08:49.77	353.22	10.23	-35.0	-36.3	28.4	7.71e-01	60	27	0	274202624	44	6308
2026-01-10 22:08:52.70	352.65	10.14	-35.3	-36.6	28.0	7.71e-01	63	27	0	279969792	44	6508
2026-01-10 22:08:55.64	352.09	10.05	-35.1	-36.4	28.2	7.71e-01	57	27	0	285212672	44	6361
2026-01-10 22:08:58.57	351.52	9.95	-35.2	-36.5	28.0	7.71e-01	63	27	0	290979840	44	6442
2026-01-10 22:09:01.50	350.97	9.85	-35.5	-36.9	27.7	7.71e-01	57	27	0	296222720	44	6742
2026-01-10 22:09:04.44	350.41	9.75	-34.9	-36.2	28.2	7.71e-01	59	27	0	301989888	46	5532
2026-01-10 22:09:07.38	349.86	9.65	-35.8	-37.2	27.3	7.71e-01	63	27	0	307232768	44	6978
2026-01-10 22:09:10.32	349.31	9.55	-34.9	-36.1	28.3	7.71e-01	63	27	0	312999936	46	5507
2026-01-10 22:09:13.25	348.77	9.44	-36.3	-37.7	27.0	7.71e-01	45	27	0	318242816	46	6599
2026-01-10 22:09:16.17	348.24	9.33	-35.8	-37.1	27.4	7.71e-01	57	27	0	324009984	46	6164
2026-01-10 22:09:19.11	347.70	9.22	-35.4	-36.7	27.7	7.71e-01	59	27	0	329252864	46	5915
2026-01-10 22:09:22.05	347.17	9.11	-35.7	-37.0	27.5	7.71e-01	59	27	0	335020032	44	6868
2026-01-10 22:09:24.97	346.65	9.00	-35.3	-36.6	27.9	7.71e-01	56	27	0	340262912	44	6534
2026-01-10 22:09:27.91	346.13	8.89	-36.0	-37.4	27.3	7.71e-01	57	28	0	346030080	46	6357
2026-01-10 22:09:30.84	345.62	8.77	-35.3	-36.5	27.9	7.71e-01	60	28	0	351272960	46	5759
2026-01-10 22:09:33.78	345.10	8.65	-35.7	-37.0	27.5	7.71e-01	60	28	0	357040128	46	6106
2026-01-10 22:09:36.72	344.60	8.54	-36.2	-37.6	27.0	7.71e-01	58	28	0	362283008	46	6548
2026-01-10 22:09:39.65	344.10	8.42	-35.9	-37.2	27.3	7.71e-01	54	28	0	368050176	46	6243
2026-01-10 22:09:42.59	343.60	8.29	-35.5	-36.8	27.7	7.71e-01	46	28	0	373293056	46	5930
2026-01-10 22:09:45.52	343.11	8.17	-36.1	-37.4	27.1	7.71e-01	57	28	0	379060224	46	6421
2026-01-10 22:09:48.45	342.62	8.05	-36.0	-37.4	27.2	7.71e-01	61	28	0	384303104	46	6367
2026-01-10 22:09:51.38	342.14	7.92	-35.7	-37.0	27.4	7.71e-01	60	28	0	390070272	46	6104
2026-01-10 22:09:54.32	341.66	7.80	-35.9	-37.3	27.2	7.71e-01	62	28	0	395313152	46	6279
2026-01-10 22:09:57.25	341.18	7.67	-36.4	-37.8	26.7	7.71e-01	57	28	0	401080320	46	6655
2026-01-10 22:10:00.19	340.71	7.54	-36.1	-37.5	27.1	7.71e-01	59	28	0	406323200	46	6450
2026-01-10 22:10:03.12	340.25	7.42	-36.5	-37.9	26.6	7.71e-01	57	28	0	412090368	46	6754
2026-01-10 22:10:06.05	339.79	7.29	-36.9	-38.3	26.0	7.71e-01	59	28	0	417333248	48	6315
2026-01-10 22:10:08.98	339.34	7.16	-37.3	-38.7	25.7	7.71e-01	50	28	0	423100416	48	6602
2026-01-10 22:10:11.91	338.88	7.02	-36.6	-38.0	26.3	7.71e-01	50	28	0	428343296	48	6084
2026-01-10 22:10:14.85	338.44	6.89	-36.7	-38.1	26.3	7.71e-01	58	28	0	434110464	46	6944
2026-01-10 22:10:17.78	337.99	6.76	-36.5	-37.9	26.5	7.71e-01	61	28	0	439353344	46	6735
2026-01-10 22:10:20.72	337.56	6.62	-36.5	-37.9	26.4	7.71e-01	58	28	0	445120512	46	6764
2026-01-10 22:10:23.67	337.12	6.49	-37.1	-38.7	25.7	7.71e-01	58	28	0	450363392	48	6581
2026-01-10 22:10:26.62	336.69	6.35	-37.3	-38.8	25.4	7.71e-01	59	28	0	456130560	48	6705
2026-01-10 22:10:29.57	336.26	6.22	-37.3	-38.8	25.2	7.71e-01	60	28	0	461373440	48	6708
2026-01-10 22:10:32.51	335.84	6.08	-37.3	-38.8	25.3	7.71e-01	57	28	0	467140608	48	6709
2026-01-10 22:10:35.45	335.43	5.94	-37.5	-39.1	24.5	7.71e-01	61	28	0	472383488	48	6951
2026-01-10 22:10:38.39	335.01	5.81	-38.2	-40.0	23.2	7.71e-01	45	28	0	478150656	50	6868
2026-01-10 22:10:41.34	334.60	5.67	-38.9	-41.0	21.7	7.71e-01	46	28	0	483393536	50	7718
2026-01-10 22:10:44.29	334.20	5.53	-39.2	-41.5	21.3	7.71e-01	59	28	0	489160704	52	7217
2026-01-10 22:10:47.26	333.80	5.39	-39.8	-42.2	20.5	7.71e-01	60	28	0	494927872	52	7874
2026-01-10 22:10:50.24	333.40	5.25	-39.6	-41.9	20.8	7.71e-01	59	28	0	500170752	54	6751
2026-01-10 22:10:53.21	333.00	5.10	-39.4	-41.7	20.8	7.71e-01	58	28	0	505937920	54	6647
2026-01-10 22:10:56.19	332.61	4.96	-38.5	-40.3	22.8	7.71e-01	58	28	0	511180800	52	6343
2026-01-10 22:10:59.22	332.22	4.82	-38.4	-40.3	23.0	7.71e-01	60	28	0	516947968	52	6287
2026-01-10 22:11:02.23	331.83	4.67	-37.7	-39.3	24.5	7.71e-01	56	28	0	522715136	50	6343
2026-01-10 22:11:05.22	331.45	4.53	-37.7	-39.3	24.6	7.71e-01	44	28	0	528482304	50	6350
2026-01-10 22:11:08.21	331.07	4.39	-37.1	-38.6	25.4	7.71e-01	61	28	0	534249472	50	5849
2026-01-10 22:11:11.19	330.70	4.24	-36.9	-38.4	25.7	7.71e-01	59	28	0	539492352	48	6404
2026-01-10 22:11:14.19	330.33	4.10	-37.3	-38.8	25.3	7.71e-01	60	28	0	545259520	48	6670
2026-01-10 22:11:17.22	329.96	3.95	-37.0	-38.5	25.4	7.71e-01	60	28	0	551026688	48	6448
2026-01-10 22:11:20.26	329.60	3.81	-37.4	-39.0	25.0	7.71e-01	58	28	0	556793856	48	6838
2026-01-10 22:11:23.29	329.24	3.66	-37.3	-38.8	24.9	7.71e-01	62	28	0	562036736	48	6684
2026-01-10 22:11:26.32	328.88	3.51	-37.5	-39.0	24.7	7.71e-01	61	28	0	567803904	50	6126
2026-01-10 22:11:29.34	328.53	3.37	-38.2	-39.9	24.0	7.71e-01	53	28	0	573571072	50	6760
2026-01-10 22:11:32.37	328.18	3.22	-37.8	-39.4	24.3	7.71e-01	60	28	0	579338240	50	6408
2026-01-10 22:11:35.41	327.84	3.07	-37.2	-38.7	25.0	7.71e-01	59	28	0	585105408	50	5914
2026-01-10 22:11:38.43	327.50	2.93	-47.8	-65.7	3.5	7.71e-01	0	29	104	586678272	60	74472
2026-01-10 22:11:41.46	327.16	2.78	-48.0	-66.3	3.5	7.71e-01	0	28	104	586678272	60	79086
2026-01-10 22:11:44.50	326.82	2.63	-47.8	-66.4	3.5	7.71e-01	0	29	104	586678272	60	80053
2026-01-10 22:11:47.53	326.49	2.49	-48.2	-66.3	3.5	7.71e-01	0	29	104	586678272	60	79361
2026-01-10 22:11:50.56	326.17	2.34	-48.2	-66.1	3.5	7.71e-01	0	29	104	586678272	60	77753
2026-01-10 22:11:53.59	325.85	2.19	-48.4	-66.3	3.5	7.71e-01	0	29	104	586678272	60	79821
2026-01-10 22:11:56.61	325.53	2.05	-48.4	-66.2	3.5	7.71e-01	0	29	104	586678272	60	78646
2026-01-10 22:11:59.64	325.21	1.90	-48.4	-66.3	3.5	7.71e-01	0	29	104	586678272	60	79232
2026-01-10 22:12:02.67	324.90	1.76	-48.3	-66.2	3.5	7.71e-01	0	29	104	586678272	60	78954
2026-01-10 22:12:05.70	324.60	1.61	-48.4	-66.2	3.5	7.71e-01	0	29	104	586678272	60	78588
2026-01-10 22:12:08.73	324.29	1.46	-48.3	-66.2	3.5	7.71e-01	0	29	104	586678272	60	78702
2026-01-10 22:12:11.76	323.99	1.32	-48.3	-66.2	3.5	7.71e-01	0	29	104	586678272	60	78676
2026-01-10 22:12:14.79	323.69	1.17	-48.3	-66.2	3.5	7.71e-01	0	29	104	586678272	60	78806
2026-01-10 22:12:17.81	323.40	1.03	-48.3	-66.2	3.5	7.71e-01	0	29	104	586678272	60	78162
2026-01-10 22:12:20.84	323.11	0.88	-48.3	-66.2	3.5	7.71e-01	0	29	104	586678272	60	78242
2026-01-10 22:12:23.88	322.82	0.73	-48.3	-66.2	3.5	7.71e-01	0	29	104	586678272	60	78499
2026-01-10 22:12:26.90	322.53	0.59	-48.3	-66.2	3.5	7.71e-01	0	29	104	586678272	60	78216
2026-01-10 22:12:29.93	322.25	0.44	-48.3	-66.2	3.5	7.71e-01	0	29	104	586678272	60	78571
2026-01-10 22:12:32.96	321.97	0.30	-48.3	-66.2	3.5	7.71e-01	0	29	104	586678272	60	78458
2026-01-10 22:12:35.99	321.70	0.15	-48.3	-66.2	3.5	7.71e-01	0	29	104	586678272	60	78456
2026-01-10 22:12:39.02	321.43	0.01	-48.3	-66.2	3.5	7.71e-01	0	29	104	586678272	60	78313

#Closed at: 2026-01-10 22:12:41
#Recorded file [586 MB]: D:/lorett/data/35029_260111_100202.dat