passes_logs/2026/01/10/R4.6S_Anadyr/R4.6S_Anadyr__20260110_005220_SUOMI_NPP_rec.log

#Pass ID: 20260110_005220_SUOMI NPP
#Satellite: SUOMI NPP
#Configuration: NPP
#almurnet v.1.7.20251203
#Start time: 2026-01-10 00:52:24

#Version: 2.2.20231116
#Station: R4.6S_Anadyr
#Location: 177.4865 lon 64.73178 lat
#TLE: 1 37849U 11061A   26008.05542337  .00000108  00000+0  71976-4 0  9997
#TLE: 2 37849  98.7805 310.1641 0002540  75.6410 284.5048 14.19523335735721

#Time	Az	El	Level	Level2	SNR	BER	BlckErr	Temp	State	Recorded	gain1	gain2
2026-01-10 00:52:24.03	170.95	0.18	-48.2	-61.9	3.3	1.54e+00	0	24	0	0	60	45121
2026-01-10 00:52:28.07	171.03	0.43	-48.0	-63.2	3.6	1.51e+00	0	24	104	0	60	52465
2026-01-10 00:52:32.11	171.12	0.67	-47.8	-63.0	3.6	1.51e+00	0	24	104	0	60	51073
2026-01-10 00:52:36.15	171.20	0.92	-47.2	-62.4	3.6	1.51e+00	0	24	104	0	60	47552
2026-01-10 00:52:40.19	171.29	1.16	-46.5	-61.6	3.6	1.51e+00	0	24	104	0	60	43442
2026-01-10 00:52:44.22	171.38	1.41	-46.4	-61.6	3.6	1.51e+00	0	24	104	0	60	43367
2026-01-10 00:52:48.26	171.47	1.67	-46.4	-61.3	3.6	1.51e+00	0	24	104	0	60	41995
2026-01-10 00:52:52.30	171.57	1.92	-46.4	-61.6	3.6	1.51e+00	0	24	104	0	60	43511
2026-01-10 00:52:56.34	171.66	2.18	-46.4	-61.3	3.6	1.51e+00	0	24	104	0	60	42183
2026-01-10 00:53:00.38	171.76	2.43	-46.4	-60.5	3.6	1.51e+00	0	24	104	0	60	38235
2026-01-10 00:53:04.42	171.85	2.70	-46.4	-61.4	3.6	1.51e+00	0	24	104	0	60	42387
2026-01-10 00:53:08.46	171.95	2.96	-45.3	-51.0	9.1	9.48e-02	13	24	0	2097152	60	12858
2026-01-10 00:53:12.49	172.05	3.22	-41.8	-44.0	16.5	0.00e+00	93	24	0	10485760	58	6404
2026-01-10 00:53:16.53	172.15	3.49	-40.4	-42.1	18.2	0.00e+00	91	24	0	17825792	54	6504
2026-01-10 00:53:20.57	172.26	3.76	-40.9	-42.8	17.6	0.00e+00	0	24	0	25165824	54	7030
2026-01-10 00:53:24.60	172.36	4.04	-43.8	-47.0	14.1	5.60e-02	91	24	0	29360128	60	8070
2026-01-10 00:53:28.64	172.47	4.31	-41.1	-43.0	17.6	0.00e+00	92	24	0	36700160	56	6423
2026-01-10 00:53:32.68	172.58	4.59	-39.9	-41.5	19.0	0.00e+00	92	24	0	45088768	54	6046
2026-01-10 00:53:36.71	172.69	4.88	-39.4	-40.8	19.8	0.00e+00	0	24	0	52428800	52	6276
2026-01-10 00:53:40.75	172.80	5.16	-39.1	-40.4	20.1	0.00e+00	91	24	0	59768832	52	5997
2026-01-10 00:53:44.79	172.92	5.45	-39.1	-40.4	20.1	0.00e+00	92	24	0	67108864	52	6027
2026-01-10 00:53:48.83	173.03	5.74	-38.8	-40.1	20.6	0.00e+00	90	25	0	75497472	52	5767
2026-01-10 00:53:52.87	173.15	6.03	-38.5	-39.7	20.9	0.00e+00	0	24	0	82837504	50	6231
2026-01-10 00:53:56.91	173.27	6.33	-38.2	-39.3	21.2	0.00e+00	90	24	0	90177536	50	5964
2026-01-10 00:54:00.95	173.39	6.63	-38.1	-39.3	21.3	0.00e+00	92	24	0	97517568	50	5897
2026-01-10 00:54:04.99	173.52	6.94	-38.0	-39.1	21.5	0.00e+00	0	24	0	104857600	50	5785
2026-01-10 00:54:09.02	173.65	7.25	-37.9	-38.9	21.6	0.00e+00	77	24	0	113246208	50	5692
2026-01-10 00:54:13.06	173.78	7.56	-37.8	-38.9	21.6	0.00e+00	58	24	0	120586240	48	6378
2026-01-10 00:54:17.10	173.91	7.87	-37.9	-39.0	21.6	0.00e+00	92	25	0	127926272	48	6422
2026-01-10 00:54:21.14	174.04	8.19	-37.7	-38.7	21.9	0.00e+00	0	25	0	135266304	48	6244
2026-01-10 00:54:25.17	174.18	8.52	-37.5	-38.6	22.0	0.00e+00	90	25	0	143654912	48	6105
2026-01-10 00:54:29.21	174.32	8.84	-37.3	-38.4	22.2	0.00e+00	90	24	0	150994944	48	5977
2026-01-10 00:54:33.25	174.47	9.18	-37.3	-38.4	22.3	0.00e+00	0	25	0	158334976	48	5979
2026-01-10 00:54:37.28	174.61	9.51	-37.2	-38.2	22.4	0.00e+00	0	24	0	165675008	48	5853
2026-01-10 00:54:41.32	174.76	9.85	-36.7	-37.7	22.8	0.00e+00	91	25	0	173015040	46	6187
2026-01-10 00:54:45.36	174.91	10.20	-36.5	-37.5	23.0	0.00e+00	91	24	0	181403648	46	6040
2026-01-10 00:54:49.40	175.07	10.55	-36.5	-37.5	23.0	0.00e+00	0	25	0	188743680	46	6044
2026-01-10 00:54:53.43	175.23	10.90	-36.7	-37.6	22.9	0.00e+00	0	25	0	196083712	46	6156
2026-01-10 00:54:57.47	175.39	11.26	-36.3	-37.2	23.3	0.00e+00	92	24	0	203423744	46	5865
2026-01-10 00:55:01.51	175.56	11.63	-36.1	-36.9	23.4	0.00e+00	92	25	0	211812352	46	5687
2026-01-10 00:55:05.54	175.73	12.00	-35.9	-36.8	23.0	0.00e+00	0	25	0	219152384	46	5596
2026-01-10 00:55:09.58	175.91	12.37	-35.9	-36.7	23.6	0.00e+00	12	25	0	226492416	46	5552
2026-01-10 00:55:13.61	176.08	12.75	-35.9	-36.8	23.6	0.00e+00	90	25	0	233832448	46	5591
2026-01-10 00:55:17.64	176.27	13.14	-35.9	-36.8	23.7	0.00e+00	92	25	0	241172480	46	5601
2026-01-10 00:55:21.67	176.46	13.53	-36.0	-36.9	23.6	0.00e+00	0	24	0	249561088	46	5653
2026-01-10 00:55:25.71	176.65	13.93	-35.9	-36.8	23.7	0.00e+00	90	25	0	256901120	46	5591
2026-01-10 00:55:29.75	176.85	14.34	-36.0	-36.9	23.6	0.00e+00	91	25	0	264241152	46	5633
2026-01-10 00:55:33.79	177.05	14.75	-36.2	-37.1	23.5	0.00e+00	49	25	0	271581184	46	5804
2026-01-10 00:55:37.82	177.26	15.17	-36.2	-37.1	23.4	0.00e+00	0	25	0	279969792	46	5801
2026-01-10 00:55:41.85	177.47	15.59	-36.6	-37.5	23.2	0.00e+00	92	25	0	287309824	46	6078
2026-01-10 00:55:45.89	177.69	16.03	-36.4	-37.3	23.4	0.00e+00	90	25	0	294649856	46	5920
2026-01-10 00:55:49.93	177.91	16.47	-36.7	-37.6	23.1	0.00e+00	0	25	0	301989888	46	6126
2026-01-10 00:55:53.97	178.15	16.92	-36.8	-37.8	23.0	0.00e+00	24	25	0	309329920	46	6255
2026-01-10 00:55:58.01	178.38	17.38	-36.7	-37.7	23.0	0.00e+00	92	25	0	317718528	46	6192
2026-01-10 00:56:02.05	178.63	17.84	-36.6	-37.5	23.2	0.00e+00	92	25	0	325058560	46	6064
2026-01-10 00:56:06.08	178.88	18.31	-36.7	-37.6	23.1	0.00e+00	0	25	0	332398592	46	6173
2026-01-10 00:56:10.12	179.14	18.80	-36.8	-37.7	23.1	0.00e+00	79	25	0	339738624	46	6217
2026-01-10 00:56:14.16	179.41	19.29	-36.7	-37.6	23.1	0.00e+00	81	25	0	348127232	46	6144
2026-01-10 00:56:18.20	179.69	19.79	-36.3	-37.2	23.6	0.00e+00	71	25	0	355467264	46	5848
2026-01-10 00:56:22.23	179.97	20.30	-36.3	-37.1	23.5	0.00e+00	0	25	0	362807296	46	5828
2026-01-10 00:56:26.26	180.26	20.82	-36.8	-37.7	23.1	0.00e+00	92	25	0	370147328	46	6199
2026-01-10 00:56:30.30	180.57	21.35	-36.8	-37.8	23.0	0.00e+00	92	25	0	377487360	46	6268
2026-01-10 00:56:34.34	180.88	21.89	-36.7	-37.6	23.2	0.00e+00	0	25	0	385875968	46	6138
2026-01-10 00:56:38.37	181.21	22.44	-35.9	-36.8	23.9	0.00e+00	9	25	0	393216000	46	5605
2026-01-10 00:56:42.41	181.54	23.00	-35.4	-36.3	24.3	0.00e+00	92	25	0	400556032	44	5902
2026-01-10 00:56:46.45	181.89	23.58	-34.8	-35.6	24.7	0.00e+00	92	25	0	407896064	44	5453
2026-01-10 00:56:50.49	182.25	24.17	-34.4	-35.2	25.0	0.00e+00	0	25	0	415236096	42	5841
2026-01-10 00:56:54.53	182.62	24.77	-34.5	-35.3	24.9	0.00e+00	17	25	0	423624704	42	5927
2026-01-10 00:56:58.57	183.01	25.38	-34.5	-35.3	24.9	0.00e+00	92	25	0	430964736	42	5952
2026-01-10 00:57:02.60	183.41	26.00	-34.7	-35.5	24.8	0.00e+00	92	25	0	438304768	42	6043
2026-01-10 00:57:06.64	183.83	26.64	-35.4	-36.3	24.3	0.00e+00	0	25	0	445644800	42	6644
2026-01-10 00:57:10.68	184.27	27.29	-35.4	-36.3	24.2	0.00e+00	92	25	0	454033408	44	5897
2026-01-10 00:57:14.71	184.72	27.96	-35.3	-36.1	24.4	0.00e+00	90	25	0	461373440	44	5816
2026-01-10 00:57:18.75	185.19	28.64	-35.2	-36.0	24.5	0.00e+00	0	25	0	468713472	44	5752
2026-01-10 00:57:22.79	185.68	29.34	-35.7	-36.5	24.1	0.00e+00	0	25	0	476053504	44	6067
2026-01-10 00:57:26.83	186.19	30.05	-36.7	-37.6	23.2	0.00e+00	91	25	0	483393536	44	6902
2026-01-10 00:57:30.87	186.73	30.77	-37.5	-38.5	22.8	0.00e+00	91	25	0	491782144	46	6810
2026-01-10 00:57:34.91	187.29	31.52	-38.8	-39.9	21.4	0.00e+00	0	25	0	499122176	48	7156
2026-01-10 00:57:38.94	187.87	32.28	-40.4	-41.9	19.6	0.00e+00	17	25	0	506462208	52	7105
2026-01-10 00:57:42.98	188.48	33.05	-39.2	-40.4	21.1	0.00e+00	77	25	0	513802240	52	6007
2026-01-10 00:57:47.02	189.12	33.84	-37.6	-38.6	22.4	0.00e+00	92	25	0	522190848	48	6127
2026-01-10 00:57:51.05	189.79	34.65	-37.2	-38.1	22.4	0.00e+00	0	25	0	529530880	48	5825
2026-01-10 00:57:55.09	190.50	35.48	-37.8	-38.8	22.4	0.00e+00	61	25	0	536870912	48	6313
2026-01-10 00:57:59.13	191.24	36.32	-38.6	-39.7	21.6	0.00e+00	82	25	0	544210944	50	6215
2026-01-10 00:58:03.17	192.02	37.18	-37.8	-38.8	22.4	0.00e+00	90	25	0	551550976	48	6269
2026-01-10 00:58:07.21	192.85	38.05	-39.1	-40.3	21.2	0.00e+00	0	25	0	559939584	50	6641
2026-01-10 00:58:11.25	193.72	38.95	-38.1	-39.1	22.1	0.00e+00	96	25	0	567279616	50	5807
2026-01-10 00:58:15.29	194.63	39.86	-38.9	-40.0	21.4	0.00e+00	92	25	0	574619648	50	6423
2026-01-10 00:58:19.33	195.60	40.78	-38.3	-39.4	21.6	0.00e+00	0	25	0	581959680	50	6007
2026-01-10 00:58:23.36	196.62	41.72	-37.1	-38.0	23.1	0.00e+00	0	25	0	590348288	46	6422
2026-01-10 00:58:27.40	197.71	42.67	-38.5	-39.7	21.6	0.00e+00	92	25	0	597688320	48	6957
2026-01-10 00:58:31.44	198.86	43.64	-37.7	-38.8	22.5	0.00e+00	92	25	0	605028352	48	6246
2026-01-10 00:58:35.47	200.08	44.61	-37.7	-38.7	22.5	0.00e+00	0	25	0	612368384	48	6232
2026-01-10 00:58:39.51	201.38	45.60	-37.6	-38.6	22.7	0.00e+00	19	25	0	619708416	48	6116
2026-01-10 00:58:43.55	202.76	46.59	-37.1	-38.1	23.0	0.00e+00	92	25	0	628097024	48	5778
2026-01-10 00:58:47.59	204.23	47.59	-37.6	-38.6	22.6	0.00e+00	90	25	0	635437056	48	6121
2026-01-10 00:58:51.63	205.79	48.59	-36.1	-36.9	23.9	0.00e+00	0	25	0	642777088	46	5682
2026-01-10 00:58:55.66	207.46	49.59	-38.2	-39.2	22.1	0.00e+00	92	25	0	650117120	48	6611
2026-01-10 00:58:59.70	209.24	50.59	-37.0	-37.9	23.2	0.00e+00	90	25	0	658505728	48	5667
2026-01-10 00:59:03.74	211.14	51.57	-37.3	-38.2	23.1	0.00e+00	34	25	0	665845760	46	6596
2026-01-10 00:59:07.78	213.17	52.54	-37.3	-38.4	22.2	0.00e+00	0	25	0	673185792	46	6701
2026-01-10 00:59:11.82	215.33	53.49	-36.0	-36.8	24.2	0.00e+00	92	25	0	680525824	46	5624
2026-01-10 00:59:15.86	217.64	54.42	-36.0	-36.9	23.9	0.00e+00	92	25	0	687865856	44	6348
2026-01-10 00:59:19.89	220.09	55.31	-36.0	-36.8	23.8	0.00e+00	0	25	0	696254464	44	6316
2026-01-10 00:59:23.93	222.70	56.16	-36.2	-37.0	23.9	0.00e+00	27	25	0	703594496	44	6457
2026-01-10 00:59:27.98	225.48	56.97	-37.5	-38.6	22.7	0.00e+00	92	25	0	710934528	46	6860
2026-01-10 00:59:32.02	228.41	57.72	-35.6	-36.4	24.0	0.00e+00	91	25	0	718274560	44	6028
2026-01-10 00:59:36.05	231.50	58.40	-35.7	-36.5	24.2	0.00e+00	0	25	0	726663168	44	6096
2026-01-10 00:59:40.08	234.73	59.01	-37.0	-37.9	23.1	0.00e+00	88	25	0	734003200	46	6388
2026-01-10 00:59:44.12	238.11	59.54	-35.0	-35.8	24.6	0.00e+00	77	25	0	741343232	42	6295
2026-01-10 00:59:48.16	241.63	59.98	-37.4	-38.4	22.5	0.00e+00	0	25	0	748683264	46	6745
2026-01-10 00:59:52.19	245.24	60.32	-36.5	-37.4	23.5	0.00e+00	0	25	0	756023296	46	5986
2026-01-10 00:59:56.23	248.94	60.57	-37.1	-38.1	23.0	0.00e+00	92	25	0	764411904	46	6466
2026-01-10 01:00:00.26	252.69	60.70	-38.4	-39.5	21.9	0.00e+00	92	25	0	771751936	48	6827
2026-01-10 01:00:04.30	256.47	60.73	-36.8	-37.8	23.4	0.00e+00	0	25	0	779091968	46	6254
2026-01-10 01:00:08.34	260.24	60.65	-36.1	-37.0	23.9	0.00e+00	0	25	0	786432000	44	6391
2026-01-10 01:00:12.37	263.97	60.46	-35.7	-36.5	24.1	0.00e+00	51	25	0	793772032	44	6077
2026-01-10 01:00:16.41	267.63	60.17	-37.5	-38.5	22.6	0.00e+00	90	25	0	802160640	46	6808
2026-01-10 01:00:20.44	271.19	59.78	-37.7	-38.7	22.5	0.00e+00	0	25	0	809500672	48	6224
2026-01-10 01:00:24.48	274.64	59.30	-39.0	-40.2	21.1	0.00e+00	22	25	0	816840704	50	6583
2026-01-10 01:00:28.51	277.95	58.73	-39.2	-40.4	21.1	0.00e+00	63	25	0	824180736	52	6028
2026-01-10 01:00:32.55	281.11	58.08	-37.0	-38.0	22.9	0.00e+00	35	25	0	832569344	48	5712
2026-01-10 01:00:36.59	284.12	57.37	-35.3	-36.1	24.4	0.00e+00	0	25	0	839909376	44	5817
2026-01-10 01:00:40.62	286.96	56.59	-34.5	-35.2	25.1	0.00e+00	90	25	0	847249408	42	5881
2026-01-10 01:00:44.65	289.65	55.77	-33.3	-34.0	25.7	0.00e+00	92	25	0	854589440	40	5713
2026-01-10 01:00:48.69	292.18	54.90	-33.3	-34.0	26.0	0.00e+00	0	25	0	861929472	40	5717
2026-01-10 01:00:52.73	294.56	53.99	-34.1	-34.8	25.0	0.00e+00	0	25	0	870318080	42	5617
2026-01-10 01:00:56.76	296.79	53.06	-33.9	-34.7	25.4	0.00e+00	23	25	0	877658112	42	5530
2026-01-10 01:01:00.80	298.88	52.10	-32.8	-33.5	26.0	0.00e+00	90	25	0	884998144	40	5380
2026-01-10 01:01:04.84	300.85	51.12	-37.4	-38.4	22.7	0.00e+00	0	25	0	892338176	46	6735
2026-01-10 01:01:08.88	302.69	50.13	-35.5	-36.3	24.1	0.00e+00	25	25	0	899678208	44	5927
2026-01-10 01:01:12.91	304.41	49.14	-39.5	-40.8	20.6	0.00e+00	39	25	0	908066816	50	7016
2026-01-10 01:01:16.95	306.02	48.15	-38.6	-39.7	21.8	0.00e+00	0	25	0	915406848	50	6227
2026-01-10 01:01:20.99	307.54	47.15	-38.0	-39.0	22.2	0.00e+00	0	25	0	922746880	50	5739
2026-01-10 01:01:25.03	308.97	46.16	-39.2	-40.4	21.1	0.00e+00	91	25	0	930086912	52	6026
2026-01-10 01:01:29.07	310.31	45.17	-35.9	-36.7	24.0	0.00e+00	92	25	0	938475520	46	5555
2026-01-10 01:01:33.11	311.56	44.19	-40.2	-41.6	20.1	0.00e+00	0	25	0	945815552	52	6916
2026-01-10 01:01:37.14	312.75	43.22	-36.4	-37.3	23.4	0.00e+00	0	25	0	953155584	44	6679
2026-01-10 01:01:41.18	313.87	42.27	-36.6	-37.5	23.4	0.00e+00	39	25	0	960495616	46	6048
2026-01-10 01:01:45.22	314.92	41.33	-36.8	-37.7	23.2	0.00e+00	92	25	0	967835648	46	6212
2026-01-10 01:01:49.26	315.92	40.40	-38.2	-39.3	22.0	0.00e+00	0	25	0	976224256	50	5902
2026-01-10 01:01:53.29	316.86	39.49	-36.4	-37.3	23.5	0.00e+00	0	25	0	983564288	44	6648
2026-01-10 01:01:57.33	317.75	38.59	-38.8	-39.9	21.6	0.00e+00	90	25	0	990904320	52	5688
2026-01-10 01:02:01.37	318.59	37.71	-35.8	-36.7	24.0	0.00e+00	0	25	0	998244352	44	6175
2026-01-10 01:02:05.41	319.40	36.84	-38.0	-39.0	22.1	0.00e+00	0	25	0	1006632960	48	6437
2026-01-10 01:02:09.44	320.16	36.00	-36.4	-37.3	23.6	0.00e+00	22	25	0	1013972992	46	5910
2026-01-10 01:02:13.48	320.88	35.17	-37.2	-38.0	23.0	0.00e+00	90	25	0	1021313024	46	6462
2026-01-10 01:02:17.51	321.57	34.35	-41.0	-42.6	19.2	0.00e+00	0	25	0	1028653056	54	6855
2026-01-10 01:02:21.55	322.23	33.56	-37.7	-38.8	22.5	0.00e+00	0	25	0	1035993088	48	6268
2026-01-10 01:02:25.58	322.86	32.78	-36.9	-37.8	23.1	0.00e+00	92	25	0	1044381696	46	6317
2026-01-10 01:02:29.62	323.45	32.01	-37.3	-38.2	22.9	0.00e+00	88	25	0	1051721728	46	6569
2026-01-10 01:02:33.66	324.03	31.26	-36.8	-37.7	23.1	0.00e+00	0	25	0	1059061760	46	6222
2026-01-10 01:02:37.69	324.57	30.53	-39.2	-40.4	21.1	0.00e+00	0	25	0	1066401792	50	6753
2026-01-10 01:02:41.73	325.10	29.82	-37.4	-38.4	22.6	0.00e+00	92	25	0	1073741824	48	6028
2026-01-10 01:02:45.77	325.60	29.12	-35.1	-35.9	24.5	0.00e+00	8	25	0	1082130432	44	5692
2026-01-10 01:02:49.81	326.09	28.43	-36.2	-37.1	23.5	0.00e+00	0	25	0	1089470464	44	6498
2026-01-10 01:02:53.84	326.55	27.76	-38.3	-39.5	21.6	0.00e+00	5	25	0	1096810496	48	6771
2026-01-10 01:02:57.88	326.99	27.10	-38.0	-39.1	22.1	0.00e+00	92	25	0	1104150528	50	5780
2026-01-10 01:03:01.90	327.42	26.46	-37.1	-38.1	22.8	0.00e+00	0	25	0	1112539136	48	5800
2026-01-10 01:03:05.94	327.83	25.83	-37.6	-38.6	22.3	0.00e+00	0	25	0	1119879168	48	6170
2026-01-10 01:03:09.98	328.23	25.21	-37.8	-38.8	22.3	0.00e+00	16	25	0	1127219200	48	6272
2026-01-10 01:03:14.01	328.61	24.61	-36.7	-37.7	23.1	0.00e+00	0	25	0	1134559232	46	6195
2026-01-10 01:03:18.05	328.98	24.02	-35.6	-36.5	24.0	0.00e+00	0	25	0	1141899264	46	5402
2026-01-10 01:03:22.09	329.33	23.44	-35.0	-35.8	24.5	0.00e+00	0	25	0	1150287872	44	5628
2026-01-10 01:03:26.12	329.68	22.87	-35.2	-36.0	24.3	0.00e+00	76	25	0	1157627904	44	5744
2026-01-10 01:03:30.16	330.01	22.32	-36.2	-37.1	23.5	0.00e+00	0	25	0	1164967936	44	6498
2026-01-10 01:03:34.20	330.33	21.77	-37.6	-38.7	22.3	0.00e+00	16	25	0	1172307968	46	6953
2026-01-10 01:03:38.24	330.64	21.24	-37.5	-38.6	22.4	0.00e+00	0	25	0	1180696576	48	6145
2026-01-10 01:03:42.28	330.94	20.71	-36.2	-37.1	23.5	0.00e+00	92	25	0	1188036608	46	5822
2026-01-10 01:03:46.31	331.23	20.20	-34.6	-35.4	24.7	0.00e+00	0	25	0	1195376640	42	6023
2026-01-10 01:03:50.35	331.52	19.70	-34.1	-34.9	25.1	0.00e+00	0	25	0	1202716672	42	5655
2026-01-10 01:03:54.39	331.79	19.20	-34.1	-34.9	25.0	0.00e+00	55	25	0	1210056704	42	5632
2026-01-10 01:03:58.42	332.06	18.72	-35.3	-36.2	24.2	0.00e+00	0	25	0	1218445312	42	6559
2026-01-10 01:04:02.46	332.32	18.24	-36.7	-37.6	22.9	0.00e+00	0	25	0	1225785344	44	6914
2026-01-10 01:04:06.49	332.57	17.77	-37.3	-38.3	22.6	0.00e+00	0	25	0	1233125376	46	6631
2026-01-10 01:04:10.53	332.81	17.31	-37.3	-38.3	22.5	0.00e+00	8	25	0	1240465408	46	6637
2026-01-10 01:04:14.56	333.05	16.86	-36.5	-37.4	23.2	0.00e+00	0	25	0	1248854016	46	6011
2026-01-10 01:04:18.60	333.28	16.42	-36.3	-37.2	23.4	0.00e+00	0	25	0	1256194048	46	5866
2026-01-10 01:04:22.64	333.50	15.98	-36.4	-37.3	23.3	0.00e+00	0	25	0	1263534080	46	5897
2026-01-10 01:04:26.67	333.72	15.56	-36.3	-37.2	23.4	0.00e+00	40	25	0	1270874112	46	5871
2026-01-10 01:04:30.71	333.94	15.13	-36.0	-36.9	23.5	0.00e+00	0	25	0	1278214144	46	5680
2026-01-10 01:04:34.74	334.14	14.72	-36.1	-37.0	23.4	0.00e+00	0	25	0	1286602752	46	5731
2026-01-10 01:04:38.78	334.35	14.31	-36.1	-37.0	23.4	0.00e+00	14	25	0	1293942784	46	5719
2026-01-10 01:04:42.82	334.54	13.91	-36.0	-36.9	23.5	0.00e+00	59	25	0	1301282816	46	5664
2026-01-10 01:04:46.85	334.74	13.51	-36.2	-37.1	23.2	0.00e+00	0	25	0	1308622848	46	5807
2026-01-10 01:04:50.89	334.93	13.13	-36.3	-37.3	23.1	0.00e+00	0	25	0	1315962880	46	5897
2026-01-10 01:04:54.93	335.11	12.74	-36.2	-37.1	23.2	0.00e+00	15	25	0	1324351488	46	5779
2026-01-10 01:04:58.96	335.29	12.36	-36.0	-36.9	23.4	0.00e+00	0	25	0	1331691520	46	5661
2026-01-10 01:05:03.00	335.46	11.99	-36.2	-37.1	23.3	0.00e+00	0	25	0	1339031552	46	5809
2026-01-10 01:05:07.04	335.64	11.63	-36.4	-37.4	23.1	0.00e+00	0	25	0	1346371584	46	5971
2026-01-10 01:05:11.07	335.80	11.26	-36.6	-37.6	22.8	0.00e+00	92	25	0	1354760192	46	6120
2026-01-10 01:05:15.10	335.97	10.91	-36.7	-37.7	22.4	0.00e+00	0	25	0	1362100224	46	6213
2026-01-10 01:05:19.14	336.13	10.56	-37.3	-38.4	22.0	0.00e+00	0	25	0	1369440256	46	6712
2026-01-10 01:05:23.18	336.29	10.21	-37.4	-38.5	22.0	0.00e+00	0	25	0	1376780288	46	6780
2026-01-10 01:05:27.21	336.44	9.87	-37.8	-39.0	21.6	0.00e+00	92	25	0	1384120320	48	6409
2026-01-10 01:05:31.25	336.59	9.53	-38.3	-39.5	21.2	0.00e+00	22	25	0	1392508928	48	6799
2026-01-10 01:05:35.28	336.74	9.20	-38.3	-39.6	21.1	0.00e+00	0	25	0	1399848960	48	6852
2026-01-10 01:05:39.32	336.89	8.87	-38.1	-39.4	21.2	0.00e+00	69	25	0	1407188992	48	6706
2026-01-10 01:05:43.36	337.03	8.55	-38.5	-39.8	20.9	0.00e+00	65	25	0	1414529024	48	7039
2026-01-10 01:05:47.40	337.17	8.23	-38.5	-39.8	20.8	0.00e+00	0	25	0	1421869056	48	7029
2026-01-10 01:05:51.43	337.31	7.91	-38.5	-39.8	20.9	0.00e+00	0	25	0	1430257664	50	6271
2026-01-10 01:05:55.47	337.44	7.60	-38.6	-39.9	20.7	0.00e+00	12	25	0	1437597696	50	6368
2026-01-10 01:05:59.51	337.57	7.29	-38.6	-40.0	20.7	0.00e+00	0	25	0	1444937728	50	6417
2026-01-10 01:06:03.54	337.70	6.98	-38.8	-40.2	20.4	0.00e+00	0	25	0	1452277760	50	6569
2026-01-10 01:06:07.58	337.83	6.68	-38.9	-40.3	20.4	0.00e+00	0	25	0	1460666368	50	6690
2026-01-10 01:06:11.62	337.95	6.38	-38.9	-40.4	20.2	0.00e+00	84	25	0	1468006400	50	6705
2026-01-10 01:06:15.65	338.08	6.09	-38.9	-40.3	20.0	0.00e+00	0	25	0	1475346432	50	6675
2026-01-10 01:06:19.69	338.20	5.79	-38.9	-40.4	19.9	0.00e+00	0	25	0	1482686464	50	6724
2026-01-10 01:06:23.72	338.32	5.51	-39.5	-41.2	18.8	0.00e+00	7	25	0	1490026496	50	7352
2026-01-10 01:06:27.76	338.43	5.22	-40.2	-42.2	17.5	0.00e+00	90	25	0	1498415104	52	7404
2026-01-10 01:06:31.80	338.55	4.94	-41.0	-43.9	14.9	0.00e+00	0	25	0	1505755136	54	7995
2026-01-10 01:06:35.83	338.66	4.66	-42.0	-46.5	11.5	4.61e-04	0	25	0	1513095168	56	9584
2026-01-10 01:06:39.87	338.78	4.38	-42.5	-49.0	7.8	5.15e-02	10	25	0	1520435200	56	12887
2026-01-10 01:06:43.90	338.88	4.11	-42.8	-52.0	4.4	6.60e-01	0	25	0	1528823808	56	18211
2026-01-10 01:06:47.94	338.99	3.83	-42.7	-56.0	3.7	1.50e+00	0	25	104	1529872384	58	25490
2026-01-10 01:06:51.98	339.10	3.57	-42.8	-56.9	3.6	1.51e+00	0	25	104	1529872384	58	28260
2026-01-10 01:06:56.01	339.20	3.30	-42.9	-57.9	3.6	1.51e+00	0	25	104	1529872384	58	31678
2026-01-10 01:07:00.05	339.31	3.04	-42.8	-57.9	3.6	1.51e+00	0	25	104	1529872384	58	31715
2026-01-10 01:07:04.09	339.41	2.77	-47.7	-62.9	3.6	1.51e+00	0	25	104	1529872384	60	50581
2026-01-10 01:07:08.13	339.51	2.51	-48.0	-63.2	3.6	1.51e+00	0	25	104	1529872384	60	52201
2026-01-10 01:07:12.16	339.61	2.26	-47.9	-63.0	3.6	1.51e+00	0	25	104	1529872384	60	51311
2026-01-10 01:07:16.20	339.71	2.00	-48.0	-63.1	3.6	1.51e+00	0	25	104	1529872384	60	51926
2026-01-10 01:07:20.24	339.80	1.75	-47.9	-63.1	3.6	1.51e+00	0	25	104	1529872384	60	51686
2026-01-10 01:07:24.27	339.90	1.50	-47.8	-63.0	3.6	1.51e+00	0	25	104	1529872384	60	51121
2026-01-10 01:07:28.31	339.99	1.25	-47.9	-63.1	3.6	1.51e+00	0	25	104	1529872384	60	51888
2026-01-10 01:07:32.35	340.08	1.01	-47.9	-63.1	3.6	1.51e+00	0	25	104	1529872384	60	51408
2026-01-10 01:07:36.39	340.18	0.76	-48.0	-63.2	3.6	1.51e+00	0	25	104	1529872384	60	52166
2026-01-10 01:07:40.43	340.27	0.52	-47.9	-63.1	3.6	1.51e+00	0	25	104	1529872384	60	51745
2026-01-10 01:07:44.47	340.36	0.28	-47.9	-63.1	3.6	1.51e+00	0	25	104	1529872384	60	51603
2026-01-10 01:07:48.51	340.44	0.04	-47.9	-63.1	3.6	1.51e+00	0	25	104	1529872384	60	51736

#Closed at: 2026-01-10 01:07:51
#Recorded file [1529 MB]: D:/lorett/data/35029_260110_125224.dat