passes_logs/2026/01/10/R4.6S_Anadyr/R4.6S_Anadyr__20260110_024629_JILIN-1_GAOFEN_03D18_rec.log

#Pass ID: 20260110_024629_JILIN-1 GAOFEN 03D18
#Satellite: JILIN-1 GAOFEN 03D18
#Configuration: 03D_900M
#almurnet v.1.7.20251203
#Start time: 2026-01-10 02:48:22

#Version: 2.2.20231116
#Station: R4.6S_Anadyr
#Location: 177.4865 lon 64.73178 lat
#TLE: 1 51844U 22019W   26008.94646942  .00071153  00000+0  80959-3 0  9996
#TLE: 2 51844  97.3768  98.1789 0006212 335.8554  24.2411 15.62042813214980

#Time	Az	El	Level	Level2	SNR	BER	BlckErr	Temp	State	Recorded	gain1	gain2
2026-01-10 02:48:22.56	354.33	5.95	-47.9	-62.7	3.5	1.51e+00	0	25	0	0	60	49571
2026-01-10 02:48:24.58	353.89	6.05	-44.5	-46.9	6.1	0.00e+00	0	26	104	0	60	27100
2026-01-10 02:48:26.60	353.45	6.15	-44.7	-47.1	6.1	0.00e+00	0	26	104	0	60	27771
2026-01-10 02:48:28.62	353.00	6.25	-44.8	-47.2	6.1	0.00e+00	0	26	104	0	60	28025
2026-01-10 02:48:30.63	352.55	6.35	-44.7	-47.1	6.1	0.00e+00	0	26	104	0	60	27642
2026-01-10 02:48:32.65	352.10	6.45	-44.3	-46.6	6.1	0.00e+00	0	26	104	0	60	26155
2026-01-10 02:48:34.67	351.64	6.55	-43.9	-46.3	6.1	0.00e+00	0	26	104	0	60	25167
2026-01-10 02:48:36.69	351.17	6.64	-43.8	-46.2	6.1	0.00e+00	0	26	104	0	60	25008
2026-01-10 02:48:38.71	350.71	6.74	-43.8	-46.2	6.1	0.00e+00	0	26	104	0	60	25004
2026-01-10 02:48:40.73	350.23	6.84	-43.8	-46.1	6.1	0.00e+00	0	26	104	0	60	24779
2026-01-10 02:48:42.75	349.76	6.93	-43.8	-46.1	6.1	0.00e+00	0	26	104	0	60	24811
2026-01-10 02:48:44.77	349.27	7.03	-43.7	-46.2	6.1	0.00e+00	0	26	104	0	60	24907
2026-01-10 02:48:46.79	348.79	7.12	-43.8	-46.1	6.1	0.00e+00	0	26	104	0	60	24769
2026-01-10 02:48:48.81	348.30	7.21	-43.7	-46.1	6.1	0.00e+00	0	26	104	0	60	24695
2026-01-10 02:48:50.83	347.80	7.30	-43.7	-46.1	6.0	0.00e+00	0	26	104	0	60	24798
2026-01-10 02:48:52.85	347.30	7.39	-43.7	-46.1	6.1	0.00e+00	0	26	104	0	60	24588
2026-01-10 02:48:54.87	346.80	7.48	-43.7	-46.1	6.1	0.00e+00	0	26	104	0	60	24661
2026-01-10 02:48:56.89	346.29	7.57	-43.7	-46.1	6.1	0.00e+00	0	26	104	0	60	24616
2026-01-10 02:48:58.91	345.78	7.66	-43.7	-46.0	6.1	0.00e+00	0	26	104	0	60	24373
2026-01-10 02:49:00.93	345.26	7.74	-43.7	-46.1	6.1	0.00e+00	0	26	104	0	60	24614
2026-01-10 02:49:02.95	344.74	7.83	-43.7	-46.1	6.1	0.00e+00	0	26	104	0	60	24586
2026-01-10 02:49:04.97	344.21	7.91	-43.7	-46.0	6.1	0.00e+00	0	26	104	0	60	24551
2026-01-10 02:49:06.99	343.68	7.99	-43.7	-46.0	6.1	0.00e+00	0	26	104	0	60	24551
2026-01-10 02:49:09.01	343.15	8.07	-43.7	-46.0	6.1	0.00e+00	0	26	104	0	60	24557
2026-01-10 02:49:11.03	342.61	8.15	-43.7	-46.0	6.1	0.00e+00	0	26	104	0	60	24560
2026-01-10 02:49:13.05	342.07	8.23	-43.7	-46.0	6.1	0.00e+00	0	27	104	0	60	24553
2026-01-10 02:49:15.07	341.53	8.30	-43.6	-46.0	6.1	0.00e+00	0	27	104	0	60	24451
2026-01-10 02:49:17.09	340.98	8.38	-43.6	-46.0	6.1	0.00e+00	0	27	104	0	60	24466
2026-01-10 02:49:19.10	340.42	8.45	-44.0	-46.4	6.1	0.00e+00	0	27	104	0	60	25549
2026-01-10 02:49:21.12	339.87	8.52	-43.9	-46.3	6.1	0.00e+00	0	27	104	0	60	25189
2026-01-10 02:49:23.14	339.31	8.59	-43.9	-46.3	6.1	0.00e+00	0	27	104	0	60	25207
2026-01-10 02:49:25.16	338.74	8.66	-43.9	-46.3	6.1	0.00e+00	0	27	104	0	60	25246
2026-01-10 02:49:27.17	338.17	8.72	-43.9	-46.3	6.1	0.00e+00	0	27	104	0	60	25384
2026-01-10 02:49:29.19	337.60	8.79	-43.8	-46.2	6.1	0.00e+00	0	27	104	0	60	25105
2026-01-10 02:49:31.21	337.03	8.85	-43.9	-46.3	6.1	0.00e+00	0	27	104	0	60	25249
2026-01-10 02:49:33.23	336.45	8.91	-43.8	-46.2	6.0	0.00e+00	0	27	104	0	60	24947
2026-01-10 02:49:35.25	335.87	8.97	-43.8	-46.2	6.1	0.00e+00	0	27	104	0	60	25132
2026-01-10 02:49:37.27	335.28	9.03	-43.8	-46.2	6.1	0.00e+00	0	27	104	0	60	25033
2026-01-10 02:49:39.29	334.69	9.08	-43.9	-46.2	6.1	0.00e+00	0	27	104	0	60	25137
2026-01-10 02:49:41.31	334.10	9.13	-43.8	-46.2	6.1	0.00e+00	0	27	104	0	60	24952
2026-01-10 02:49:43.32	333.51	9.18	-43.9	-46.3	6.1	0.00e+00	0	27	104	0	60	25164
2026-01-10 02:49:45.34	332.91	9.23	-43.9	-46.2	6.1	0.00e+00	0	27	104	0	60	25062
2026-01-10 02:49:47.36	332.31	9.28	-43.8	-46.2	6.1	0.00e+00	0	27	104	0	60	25058
2026-01-10 02:49:49.38	331.71	9.32	-43.9	-46.2	6.1	0.00e+00	0	27	104	0	60	25070
2026-01-10 02:49:51.40	331.10	9.36	-43.8	-46.2	6.1	0.00e+00	0	27	104	0	60	24949
2026-01-10 02:49:53.42	330.49	9.40	-43.8	-46.2	6.1	0.00e+00	0	27	104	0	60	24993
2026-01-10 02:49:55.44	329.88	9.44	-43.7	-46.1	6.1	0.00e+00	0	27	104	0	60	24602
2026-01-10 02:49:57.46	329.27	9.48	-43.7	-46.1	6.1	0.00e+00	0	27	104	0	60	24717
2026-01-10 02:49:59.48	328.66	9.51	-43.7	-46.1	6.1	0.00e+00	0	27	104	0	60	24710
2026-01-10 02:50:01.49	328.05	9.54	-43.7	-46.1	6.1	0.00e+00	0	27	104	0	60	24755
2026-01-10 02:50:03.51	327.43	9.57	-43.7	-46.1	6.1	0.00e+00	0	27	104	0	60	24620
2026-01-10 02:50:05.53	326.81	9.59	-43.7	-46.2	6.1	0.00e+00	0	27	104	0	60	24925
2026-01-10 02:50:07.55	326.19	9.61	-43.6	-46.1	6.1	0.00e+00	0	27	104	0	60	24681
2026-01-10 02:50:09.57	325.57	9.64	-43.4	-46.0	6.1	0.00e+00	0	27	104	0	60	24422
2026-01-10 02:50:11.58	324.95	9.65	-43.6	-46.1	6.1	0.00e+00	0	27	104	0	60	24758
2026-01-10 02:50:13.60	324.32	9.67	-43.4	-46.0	6.1	0.00e+00	0	27	104	0	60	24538
2026-01-10 02:50:15.62	323.70	9.68	-43.7	-46.1	6.1	0.00e+00	0	27	104	0	60	24862
2026-01-10 02:50:17.64	323.07	9.69	-43.7	-46.1	6.1	0.00e+00	0	27	104	0	60	24767
2026-01-10 02:50:19.66	322.45	9.70	-43.8	-46.2	6.1	0.00e+00	0	27	104	0	60	24871
2026-01-10 02:50:21.67	321.82	9.71	-43.7	-46.1	6.1	0.00e+00	0	27	104	0	60	24704
2026-01-10 02:50:23.69	321.20	9.71	-43.7	-46.2	6.1	0.00e+00	0	27	104	0	60	24911
2026-01-10 02:50:25.71	320.57	9.71	-43.8	-46.2	6.1	0.00e+00	0	27	104	0	60	24957
2026-01-10 02:50:27.73	319.94	9.71	-43.8	-46.2	6.1	0.00e+00	0	27	104	0	60	24902
2026-01-10 02:50:29.75	319.32	9.70	-43.7	-46.1	6.1	0.00e+00	0	27	104	0	60	24616
2026-01-10 02:50:31.77	318.69	9.70	-43.6	-46.0	6.1	0.00e+00	0	27	104	0	60	24565
2026-01-10 02:50:33.79	318.07	9.69	-43.7	-46.1	6.1	0.00e+00	0	27	104	0	60	24736
2026-01-10 02:50:35.81	317.44	9.67	-43.8	-46.1	6.1	0.00e+00	0	27	104	0	60	24800
2026-01-10 02:50:37.83	316.82	9.66	-43.8	-46.2	6.0	0.00e+00	0	27	104	0	60	24924
2026-01-10 02:50:39.84	316.20	9.64	-43.8	-46.2	6.1	0.00e+00	0	27	104	0	60	24882
2026-01-10 02:50:41.86	315.57	9.62	-43.8	-46.1	6.1	0.00e+00	0	27	104	0	60	24855
2026-01-10 02:50:43.87	314.95	9.60	-43.6	-46.1	6.1	0.00e+00	0	27	104	0	60	24583
2026-01-10 02:50:45.89	314.33	9.58	-43.6	-46.0	6.0	0.00e+00	0	27	104	0	60	24482
2026-01-10 02:50:47.91	313.72	9.55	-43.7	-46.0	6.1	0.00e+00	0	27	104	0	60	24542
2026-01-10 02:50:49.93	313.10	9.52	-43.7	-46.1	6.1	0.00e+00	0	27	104	0	60	24832
2026-01-10 02:50:51.95	312.48	9.49	-43.7	-46.1	6.1	0.00e+00	0	27	104	0	60	24666
2026-01-10 02:50:53.96	311.87	9.45	-43.8	-46.1	6.1	0.00e+00	0	27	104	0	60	24754
2026-01-10 02:50:55.98	311.26	9.42	-43.6	-46.0	6.1	0.00e+00	0	27	104	0	60	24451
2026-01-10 02:50:57.99	310.66	9.38	-43.8	-46.2	6.1	0.00e+00	0	27	104	0	60	24886
2026-01-10 02:51:00.01	310.05	9.34	-43.4	-45.8	6.1	0.00e+00	0	27	104	0	60	23926
2026-01-10 02:51:02.03	309.45	9.30	-43.6	-46.0	6.1	0.00e+00	0	27	104	0	60	24527
2026-01-10 02:51:04.05	308.84	9.25	-43.2	-45.7	6.1	0.00e+00	0	27	104	0	60	23498
2026-01-10 02:51:06.07	308.24	9.20	-43.2	-45.7	6.1	0.00e+00	0	27	104	0	60	23479
2026-01-10 02:51:08.09	307.65	9.15	-43.4	-45.8	6.1	0.00e+00	0	27	104	0	60	23908
2026-01-10 02:51:10.11	307.05	9.10	-43.1	-45.6	6.1	0.00e+00	0	27	104	0	60	23338
2026-01-10 02:51:12.13	306.46	9.05	-43.1	-45.6	6.1	0.00e+00	0	27	104	0	60	23345
2026-01-10 02:51:14.15	305.88	8.99	-43.4	-45.8	6.1	0.00e+00	0	27	104	0	60	23957
2026-01-10 02:51:16.16	305.29	8.93	-43.5	-46.0	6.1	0.00e+00	0	27	104	0	60	24305
2026-01-10 02:51:18.18	304.71	8.87	-43.3	-45.8	6.1	0.00e+00	0	27	104	0	60	23927
2026-01-10 02:51:20.20	304.13	8.81	-43.5	-45.9	6.1	0.00e+00	0	27	104	0	60	24124
2026-01-10 02:51:22.22	303.56	8.75	-43.5	-45.9	6.1	0.00e+00	0	27	104	0	60	24225
2026-01-10 02:51:24.24	302.99	8.68	-43.6	-46.1	6.1	0.00e+00	0	27	104	0	60	24599
2026-01-10 02:51:26.26	302.42	8.62	-43.6	-46.0	6.1	0.00e+00	0	27	104	0	60	24399
2026-01-10 02:51:28.27	301.86	8.55	-43.7	-46.1	6.1	0.00e+00	0	27	104	0	60	24611
2026-01-10 02:51:30.30	301.30	8.48	-43.7	-46.1	6.1	0.00e+00	0	27	104	0	60	24765
2026-01-10 02:51:32.31	300.74	8.41	-43.7	-46.1	6.0	0.00e+00	0	27	104	0	60	24604
2026-01-10 02:51:34.33	300.19	8.33	-43.7	-46.1	6.1	0.00e+00	0	27	104	0	60	24711
2026-01-10 02:51:36.35	299.64	8.26	-43.7	-46.0	6.1	0.00e+00	0	27	104	0	60	24526
2026-01-10 02:51:38.37	299.10	8.18	-43.7	-46.1	6.1	0.00e+00	0	27	104	0	60	24722
2026-01-10 02:51:40.39	298.56	8.10	-43.7	-46.1	6.1	0.00e+00	0	27	104	0	60	24579
2026-01-10 02:51:42.41	298.02	8.02	-43.7	-46.1	6.1	0.00e+00	0	27	104	0	60	24620
2026-01-10 02:51:44.43	297.49	7.94	-43.6	-46.0	6.1	0.00e+00	0	27	104	0	60	24468
2026-01-10 02:51:46.44	296.96	7.86	-43.7	-46.0	6.1	0.00e+00	0	27	104	0	60	24510
2026-01-10 02:51:48.46	296.44	7.77	-43.6	-46.0	6.1	0.00e+00	0	27	104	0	60	24349
2026-01-10 02:51:50.47	295.92	7.69	-43.7	-46.0	6.1	0.00e+00	0	27	104	0	60	24393
2026-01-10 02:51:52.49	295.40	7.60	-43.6	-46.0	6.1	0.00e+00	0	27	104	0	60	24413
2026-01-10 02:51:54.51	294.89	7.51	-43.6	-46.0	6.1	0.00e+00	0	27	104	0	60	24570
2026-01-10 02:51:56.53	294.39	7.43	-43.5	-45.9	6.1	0.00e+00	0	27	104	0	60	24191
2026-01-10 02:51:58.55	293.88	7.34	-43.6	-46.0	6.1	0.00e+00	0	27	104	0	60	24364
2026-01-10 02:52:00.56	293.39	7.25	-43.5	-45.9	6.1	0.00e+00	0	27	104	0	60	24228
2026-01-10 02:52:02.58	292.89	7.15	-43.6	-46.0	6.1	0.00e+00	0	27	104	0	60	24390
2026-01-10 02:52:04.60	292.40	7.06	-43.5	-45.9	6.1	0.00e+00	0	27	104	0	60	24031
2026-01-10 02:52:06.62	291.92	6.97	-43.6	-45.9	6.1	0.00e+00	0	27	104	0	60	24208
2026-01-10 02:52:08.64	291.44	6.87	-43.5	-45.9	6.1	0.00e+00	0	27	104	0	60	24106
2026-01-10 02:52:10.65	290.96	6.78	-43.5	-45.9	6.1	0.00e+00	0	27	104	0	60	24119
2026-01-10 02:52:12.67	290.49	6.68	-43.5	-45.9	6.1	0.00e+00	0	27	104	0	60	24270
2026-01-10 02:52:14.69	290.03	6.58	-43.5	-45.9	6.1	0.00e+00	0	28	104	0	60	24118
2026-01-10 02:52:16.71	289.56	6.49	-43.5	-45.9	6.0	0.00e+00	0	28	104	0	60	24159
2026-01-10 02:52:18.73	289.10	6.39	-43.5	-45.9	6.1	0.00e+00	0	27	104	0	60	24075
2026-01-10 02:52:20.74	288.65	6.29	-43.5	-45.8	6.0	0.00e+00	0	28	104	0	60	24017
2026-01-10 02:52:22.76	288.20	6.19	-43.6	-45.9	6.1	0.00e+00	0	27	104	0	60	24238
2026-01-10 02:52:24.78	287.76	6.09	-43.5	-45.8	6.1	0.00e+00	0	27	104	0	60	23963
2026-01-10 02:52:26.79	287.32	5.99	-43.5	-45.9	6.1	0.00e+00	0	28	104	0	60	24134
2026-01-10 02:52:28.81	286.88	5.88	-43.4	-45.8	6.1	0.00e+00	0	28	104	0	60	23816
2026-01-10 02:52:30.82	286.45	5.78	-43.5	-45.8	6.1	0.00e+00	0	28	104	0	60	23963
2026-01-10 02:52:32.84	286.02	5.68	-43.4	-45.8	6.1	0.00e+00	0	28	104	0	60	23791
2026-01-10 02:52:34.86	285.60	5.58	-43.4	-45.8	6.1	0.00e+00	0	28	104	0	60	23865
2026-01-10 02:52:36.88	285.18	5.47	-43.4	-45.7	6.1	0.00e+00	0	28	104	0	60	23707
2026-01-10 02:52:38.90	284.77	5.37	-43.4	-45.8	6.1	0.00e+00	0	27	104	0	60	23796
2026-01-10 02:52:40.92	284.36	5.26	-43.3	-45.7	6.1	0.00e+00	0	28	104	0	60	23513
2026-01-10 02:52:42.93	283.95	5.16	-43.4	-45.7	6.1	0.00e+00	0	28	104	0	60	23716
2026-01-10 02:52:44.95	283.55	5.05	-43.3	-45.6	6.1	0.00e+00	0	28	104	0	60	23416
2026-01-10 02:52:46.97	283.15	4.95	-43.4	-45.7	6.1	0.00e+00	0	28	104	0	60	23694
2026-01-10 02:52:48.98	282.76	4.84	-43.2	-45.6	6.1	0.00e+00	0	27	104	0	60	23286
2026-01-10 02:52:51.00	282.37	4.74	-43.4	-45.7	6.1	0.00e+00	0	27	104	0	60	23670
2026-01-10 02:52:53.02	281.98	4.63	-43.2	-45.6	6.1	0.00e+00	0	28	104	0	60	23388
2026-01-10 02:52:55.04	281.60	4.52	-43.3	-45.7	6.1	0.00e+00	0	27	104	0	60	23504
2026-01-10 02:52:57.05	281.23	4.42	-43.2	-45.6	6.1	0.00e+00	0	27	104	0	60	23255
2026-01-10 02:52:59.07	280.85	4.31	-43.3	-45.6	6.1	0.00e+00	0	27	104	0	60	23371
2026-01-10 02:53:01.09	280.48	4.20	-43.1	-45.5	6.1	0.00e+00	0	28	104	0	60	23011
2026-01-10 02:53:03.11	280.12	4.09	-43.2	-45.6	6.1	0.00e+00	0	28	104	0	60	23326
2026-01-10 02:53:05.12	279.76	3.99	-43.0	-45.4	6.1	0.00e+00	0	28	104	0	60	22896
2026-01-10 02:53:07.15	279.40	3.88	-43.2	-45.5	6.1	0.00e+00	0	28	104	0	60	23104
2026-01-10 02:53:09.17	279.04	3.77	-43.0	-45.4	6.1	0.00e+00	0	28	104	0	60	22758
2026-01-10 02:53:11.18	278.69	3.66	-43.1	-45.5	6.1	0.00e+00	0	28	104	0	60	22959
2026-01-10 02:53:13.20	278.35	3.55	-42.9	-45.3	6.1	0.00e+00	0	28	104	0	60	22577
2026-01-10 02:53:15.22	278.00	3.45	-43.0	-45.4	6.1	0.00e+00	0	28	104	0	60	22829
2026-01-10 02:53:17.24	277.66	3.34	-43.0	-45.3	6.1	0.00e+00	0	28	104	0	60	22627
2026-01-10 02:53:19.26	277.33	3.23	-43.0	-45.4	6.1	0.00e+00	0	28	104	0	60	22882
2026-01-10 02:53:21.28	277.00	3.12	-42.9	-45.2	6.1	0.00e+00	0	28	104	0	60	22235
2026-01-10 02:53:23.30	276.67	3.01	-43.0	-45.4	6.1	0.00e+00	0	28	104	0	60	22848
2026-01-10 02:53:25.32	276.34	2.91	-44.1	-46.4	6.1	0.00e+00	0	28	104	0	60	25679
2026-01-10 02:53:27.34	276.02	2.80	-44.5	-46.9	6.1	0.00e+00	0	28	104	0	60	26971
2026-01-10 02:53:29.36	275.70	2.69	-44.6	-47.0	6.1	0.00e+00	0	27	104	0	60	27496
2026-01-10 02:53:31.38	275.39	2.58	-44.7	-47.0	6.0	0.00e+00	0	27	104	0	60	27556
2026-01-10 02:53:33.40	275.08	2.47	-44.7	-47.1	6.1	0.00e+00	0	27	104	0	60	27805
2026-01-10 02:53:35.42	274.77	2.37	-44.8	-47.2	6.1	0.00e+00	0	28	104	0	60	27922
2026-01-10 02:53:37.43	274.47	2.26	-44.2	-46.6	6.1	0.00e+00	0	27	104	0	60	26276
2026-01-10 02:53:39.45	274.17	2.15	-44.3	-46.7	6.1	0.00e+00	0	28	104	0	60	26529
2026-01-10 02:53:41.47	273.87	2.04	-44.6	-46.9	6.1	0.00e+00	0	27	104	0	60	27234
2026-01-10 02:53:43.49	273.57	1.94	-44.5	-46.9	6.1	0.00e+00	0	27	104	0	60	26954
2026-01-10 02:53:45.51	273.28	1.83	-44.5	-46.8	6.1	0.00e+00	0	28	104	0	60	26872
2026-01-10 02:53:47.53	272.99	1.72	-44.4	-46.8	6.1	0.00e+00	0	27	104	0	60	26823
2026-01-10 02:53:49.55	272.71	1.61	-44.4	-46.7	6.1	0.00e+00	0	27	104	0	60	26615
2026-01-10 02:53:51.56	272.43	1.51	-44.4	-46.7	6.1	0.00e+00	0	27	104	0	60	26616
2026-01-10 02:53:53.58	272.15	1.40	-44.6	-47.0	6.1	0.00e+00	0	27	104	0	60	27483
2026-01-10 02:53:55.60	271.87	1.29	-44.5	-46.8	6.1	0.00e+00	0	27	104	0	60	26866
2026-01-10 02:53:57.62	271.60	1.19	-44.5	-46.8	6.1	0.00e+00	0	27	104	0	60	26917
2026-01-10 02:53:59.64	271.33	1.08	-44.5	-46.9	6.1	0.00e+00	0	27	104	0	60	27148
2026-01-10 02:54:01.66	271.06	0.97	-44.6	-46.9	6.1	0.00e+00	0	28	104	0	60	27213
2026-01-10 02:54:03.68	270.80	0.87	-44.7	-47.0	6.1	0.00e+00	0	27	104	0	60	27386
2026-01-10 02:54:05.70	270.53	0.76	-44.4	-46.8	6.1	0.00e+00	0	27	104	0	60	26721
2026-01-10 02:54:07.71	270.28	0.65	-44.5	-46.9	6.1	0.00e+00	0	27	104	0	60	27149
2026-01-10 02:54:09.73	270.02	0.55	-44.4	-46.8	6.1	0.00e+00	0	28	104	0	60	26665
2026-01-10 02:54:11.76	269.77	0.44	-44.7	-47.0	6.1	0.00e+00	0	27	104	0	60	27461
2026-01-10 02:54:13.77	269.52	0.34	-44.6	-46.9	6.1	0.00e+00	0	28	104	0	60	27106
2026-01-10 02:54:15.79	269.27	0.23	-44.5	-46.9	6.0	0.00e+00	0	28	104	0	60	26971
2026-01-10 02:54:17.80	269.02	0.13	-44.4	-46.7	6.1	0.00e+00	0	28	104	0	60	26403
2026-01-10 02:54:19.83	268.78	0.02	-44.5	-46.9	6.1	0.00e+00	0	28	104	0	60	27254

#Closed at: 2026-01-10 02:54:21
#Recorded file [0 MB]: D:/lorett/data/35029_260110_144822.dat