passes_logs/2026/01/10/R4.6S_Anadyr/R4.6S_Anadyr__20260110_011318_NOAA_20_JPSS-1_rec.log

#Pass ID: 20260110_011318_NOAA 20 (JPSS-1)
#Satellite: NOAA 20 (JPSS-1)
#Configuration: NOAA 20
#almurnet v.1.7.20251203
#Start time: 2026-01-10 01:13:21

#Version: 2.2.20231116
#Station: R4.6S_Anadyr
#Location: 177.4865 lon 64.73178 lat
#TLE: 1 43013U 17073A   26008.91585656  .00000107  00000+0  71497-4 0  9999
#TLE: 2 43013  98.7631 309.9196 0001713  47.9261 312.2060 14.19534561421870

#Time	Az	El	Level	Level2	SNR	BER	BlckErr	Temp	State	Recorded	gain1	gain2
2026-01-10 01:13:21.84	181.77	0.17	-47.7	-61.8	3.3	1.54e+00	0	23	0	0	60	44418
2026-01-10 01:13:25.87	181.91	0.41	-48.0	-63.1	3.6	1.51e+00	0	24	104	0	60	51829
2026-01-10 01:13:29.91	182.05	0.65	-47.8	-63.1	3.6	1.51e+00	0	24	104	0	60	51360
2026-01-10 01:13:33.95	182.19	0.89	-46.7	-61.9	3.5	1.51e+00	0	24	104	0	60	45110
2026-01-10 01:13:37.99	182.33	1.13	-46.5	-61.7	3.6	1.51e+00	0	24	104	0	60	44071
2026-01-10 01:13:42.03	182.48	1.37	-46.5	-61.6	3.6	1.51e+00	0	24	104	0	60	43512
2026-01-10 01:13:46.07	182.62	1.62	-46.5	-61.6	3.6	1.51e+00	0	24	104	0	60	43317
2026-01-10 01:13:50.11	182.77	1.87	-46.5	-61.6	3.6	1.51e+00	0	24	104	0	60	43386
2026-01-10 01:13:54.15	182.93	2.12	-46.5	-61.6	3.6	1.51e+00	0	24	104	0	60	43369
2026-01-10 01:13:58.19	183.08	2.37	-46.5	-61.4	3.6	1.51e+00	0	24	104	0	60	42685
2026-01-10 01:14:02.23	183.24	2.62	-46.4	-60.3	3.6	1.51e+00	0	24	104	0	60	37232
2026-01-10 01:14:06.27	183.40	2.88	-46.2	-56.9	4.0	1.46e+00	0	24	104	0	60	25355
2026-01-10 01:14:10.30	183.56	3.14	-42.8	-45.4	15.5	0.00e+00	91	24	0	5242880	60	6756
2026-01-10 01:14:14.34	183.72	3.40	-40.4	-42.0	18.6	0.00e+00	0	24	0	12582912	54	6453
2026-01-10 01:14:18.38	183.89	3.66	-40.4	-42.1	18.5	0.00e+00	90	24	0	19922944	54	6498
2026-01-10 01:14:22.41	184.06	3.93	-43.0	-45.8	15.6	0.00e+00	92	24	0	24117248	58	7890
2026-01-10 01:14:26.45	184.23	4.19	-41.6	-43.6	17.2	0.00e+00	91	24	0	31457280	56	6919
2026-01-10 01:14:30.49	184.41	4.46	-41.1	-42.9	17.9	0.00e+00	91	24	0	38797312	56	6351
2026-01-10 01:14:34.53	184.58	4.74	-40.0	-41.5	19.3	0.00e+00	92	24	0	46137344	54	6062
2026-01-10 01:14:38.57	184.77	5.01	-39.6	-40.9	19.9	0.00e+00	92	24	0	53477376	52	6390
2026-01-10 01:14:42.61	184.95	5.29	-39.7	-41.0	19.9	0.00e+00	49	24	0	61865984	52	6444
2026-01-10 01:14:46.65	185.14	5.57	-39.7	-41.1	19.9	0.00e+00	92	24	0	69206016	52	6503
2026-01-10 01:14:50.69	185.33	5.86	-39.4	-40.7	20.3	0.00e+00	90	24	0	76546048	52	6220
2026-01-10 01:14:54.72	185.53	6.14	-39.5	-40.8	20.3	0.00e+00	93	24	0	83886080	52	6279
2026-01-10 01:14:58.76	185.72	6.43	-39.1	-40.4	20.6	0.00e+00	0	24	0	92274688	52	5987
2026-01-10 01:15:02.79	185.93	6.72	-39.1	-40.3	20.8	0.00e+00	92	24	0	99614720	52	5945
2026-01-10 01:15:06.83	186.13	7.02	-39.0	-40.2	20.9	0.00e+00	90	24	0	106954752	52	5836
2026-01-10 01:15:10.87	186.34	7.32	-38.9	-40.1	21.1	0.00e+00	92	25	0	114294784	52	5784
2026-01-10 01:15:14.90	186.56	7.62	-38.9	-40.1	21.0	0.00e+00	61	24	0	121634816	52	5812
2026-01-10 01:15:18.94	186.78	7.92	-38.8	-40.0	21.2	0.00e+00	92	25	0	130023424	52	5714
2026-01-10 01:15:22.98	187.00	8.23	-38.7	-39.8	21.3	0.00e+00	92	25	0	137363456	50	6314
2026-01-10 01:15:27.02	187.23	8.54	-38.7	-39.9	21.3	0.00e+00	92	25	0	144703488	50	6351
2026-01-10 01:15:31.05	187.46	8.86	-38.3	-39.4	21.8	0.00e+00	0	25	0	152043520	50	6005
2026-01-10 01:15:35.09	187.69	9.18	-38.1	-39.2	22.0	0.00e+00	92	25	0	159383552	50	5868
2026-01-10 01:15:39.12	187.93	9.50	-38.0	-39.1	22.1	0.00e+00	90	25	0	167772160	50	5776
2026-01-10 01:15:43.16	188.18	9.83	-38.0	-39.1	22.1	0.00e+00	92	24	0	175112192	50	5798
2026-01-10 01:15:47.20	188.43	10.16	-38.0	-39.0	22.3	0.00e+00	4	25	0	182452224	50	5760
2026-01-10 01:15:51.23	188.69	10.49	-37.7	-38.8	22.4	0.00e+00	92	24	0	189792256	50	5574
2026-01-10 01:15:55.27	188.95	10.83	-37.4	-38.4	22.8	0.00e+00	92	25	0	198180864	48	5995
2026-01-10 01:15:59.31	189.22	11.18	-37.1	-38.0	23.1	0.00e+00	92	25	0	205520896	48	5738
2026-01-10 01:16:03.34	189.50	11.52	-37.0	-38.0	23.2	0.00e+00	33	25	0	212860928	48	5704
2026-01-10 01:16:07.38	189.78	11.87	-36.9	-37.8	23.4	0.00e+00	92	25	0	220200960	46	6291
2026-01-10 01:16:11.42	190.07	12.23	-36.9	-37.8	23.3	0.00e+00	92	24	0	227540992	46	6303
2026-01-10 01:16:15.46	190.36	12.59	-36.8	-37.7	23.5	0.00e+00	92	25	0	235929600	46	6228
2026-01-10 01:16:19.49	190.66	12.96	-36.9	-37.8	23.5	0.00e+00	92	25	0	243269632	46	6261
2026-01-10 01:16:23.53	190.97	13.33	-36.7	-37.6	23.7	0.00e+00	92	25	0	250609664	46	6105
2026-01-10 01:16:27.57	191.29	13.70	-36.6	-37.5	23.7	0.00e+00	92	25	0	257949696	46	6050
2026-01-10 01:16:31.60	191.61	14.08	-36.5	-37.4	23.9	0.00e+00	60	25	0	266338304	46	6013
2026-01-10 01:16:35.64	191.94	14.47	-36.4	-37.3	23.9	0.00e+00	92	25	0	273678336	46	5924
2026-01-10 01:16:39.68	192.28	14.86	-36.4	-37.3	24.0	0.00e+00	92	25	0	281018368	46	5915
2026-01-10 01:16:43.72	192.63	15.26	-36.2	-37.0	24.2	0.00e+00	92	25	0	288358400	46	5721
2026-01-10 01:16:47.76	192.99	15.66	-36.0	-36.9	24.4	0.00e+00	27	24	0	295698432	46	5644
2026-01-10 01:16:51.79	193.36	16.07	-35.9	-36.8	24.4	0.00e+00	92	25	0	304087040	46	5568
2026-01-10 01:16:55.83	193.73	16.48	-36.0	-36.9	24.3	0.00e+00	91	25	0	311427072	46	5655
2026-01-10 01:16:59.87	194.12	16.90	-36.2	-37.0	24.2	0.00e+00	91	25	0	318767104	46	5757
2026-01-10 01:17:03.91	194.52	17.33	-36.5	-37.3	23.9	0.00e+00	0	25	0	326107136	46	5955
2026-01-10 01:17:07.94	194.93	17.76	-36.3	-37.2	24.1	0.00e+00	90	25	0	333447168	46	5856
2026-01-10 01:17:11.98	195.35	18.20	-36.5	-37.3	24.0	0.00e+00	92	24	0	341835776	46	5957
2026-01-10 01:17:16.02	195.78	18.64	-36.7	-37.6	23.8	0.00e+00	90	25	0	349175808	46	6158
2026-01-10 01:17:20.05	196.22	19.10	-36.8	-37.7	23.7	0.00e+00	85	25	0	356515840	46	6213
2026-01-10 01:17:24.09	196.68	19.55	-36.7	-37.6	23.8	0.00e+00	90	25	0	363855872	46	6139
2026-01-10 01:17:28.13	197.15	20.02	-36.9	-37.8	23.6	0.00e+00	91	25	0	372244480	46	6258
2026-01-10 01:17:32.16	197.64	20.49	-36.9	-37.9	23.5	0.00e+00	30	25	0	379584512	46	6318
2026-01-10 01:17:36.19	198.14	20.97	-36.7	-37.6	23.8	0.00e+00	2	25	0	386924544	46	6163
2026-01-10 01:17:40.24	198.65	21.46	-36.6	-37.5	24.0	0.00e+00	92	25	0	394264576	46	6069
2026-01-10 01:17:44.28	199.18	21.95	-36.7	-37.6	23.8	0.00e+00	92	25	0	401604608	46	6133
2026-01-10 01:17:48.31	199.73	22.45	-36.6	-37.5	24.0	0.00e+00	0	25	0	409993216	46	6056
2026-01-10 01:17:52.35	200.30	22.96	-36.5	-37.4	24.0	0.00e+00	87	25	0	417333248	46	6000
2026-01-10 01:17:56.38	200.88	23.47	-36.7	-37.6	23.8	0.00e+00	90	25	0	424673280	46	6168
2026-01-10 01:18:00.42	201.48	23.99	-36.8	-37.8	23.8	0.00e+00	91	24	0	432013312	46	6249
2026-01-10 01:18:04.46	202.10	24.52	-36.4	-37.3	24.2	0.00e+00	12	25	0	440401920	46	5912
2026-01-10 01:18:08.50	202.75	25.06	-36.8	-37.7	23.9	0.00e+00	92	25	0	447741952	46	6179
2026-01-10 01:18:12.53	203.41	25.60	-36.9	-37.7	23.8	0.00e+00	92	25	0	455081984	46	6240
2026-01-10 01:18:16.57	204.10	26.15	-36.6	-37.5	24.0	0.00e+00	92	25	0	462422016	46	6088
2026-01-10 01:18:20.61	204.81	26.71	-37.1	-38.0	23.6	0.00e+00	33	25	0	469762048	46	6411
2026-01-10 01:18:24.65	205.54	27.28	-37.6	-38.6	23.1	0.00e+00	91	25	0	478150656	46	6865
2026-01-10 01:18:28.67	206.30	27.85	-38.1	-39.1	22.6	0.00e+00	92	25	0	485490688	48	6467
2026-01-10 01:18:32.71	207.09	28.43	-38.0	-39.0	22.7	0.00e+00	90	25	0	492830720	48	6442
2026-01-10 01:18:36.75	207.91	29.01	-38.4	-39.4	22.3	0.00e+00	0	25	0	500170752	48	6729
2026-01-10 01:18:40.79	208.76	29.60	-39.0	-40.1	21.7	0.00e+00	92	25	0	507510784	50	6493
2026-01-10 01:18:44.82	209.63	30.20	-38.9	-40.0	21.8	0.00e+00	90	25	0	515899392	50	6415
2026-01-10 01:18:48.86	210.55	30.80	-38.2	-39.2	22.5	0.00e+00	90	25	0	523239424	50	5863
2026-01-10 01:18:52.89	211.49	31.40	-38.1	-39.1	22.7	0.00e+00	51	25	0	530579456	50	5802
2026-01-10 01:18:56.92	212.47	32.01	-38.0	-39.0	22.6	0.00e+00	90	25	0	537919488	50	5758
2026-01-10 01:19:00.96	213.48	32.62	-37.8	-38.7	22.9	0.00e+00	90	25	0	546308096	48	6235
2026-01-10 01:19:05.00	214.54	33.24	-38.1	-39.1	22.5	0.00e+00	92	25	0	553648128	48	6499
2026-01-10 01:19:09.03	215.63	33.85	-37.9	-38.8	22.9	0.00e+00	35	25	0	560988160	48	6311
2026-01-10 01:19:13.07	216.77	34.47	-38.0	-39.0	22.7	0.00e+00	92	25	0	568328192	48	6400
2026-01-10 01:19:17.11	217.95	35.09	-38.1	-39.1	22.5	0.00e+00	91	25	0	576716800	48	6492
2026-01-10 01:19:21.14	219.17	35.70	-36.9	-37.8	23.6	0.00e+00	90	25	0	584056832	48	5607
2026-01-10 01:19:25.18	220.44	36.31	-36.6	-37.4	24.1	0.00e+00	8	25	0	591396864	46	6011
2026-01-10 01:19:29.21	221.75	36.92	-37.3	-38.2	23.4	0.00e+00	92	25	0	598736896	46	6580
2026-01-10 01:19:33.25	223.12	37.52	-36.6	-37.5	24.0	0.00e+00	90	25	0	606076928	46	6071
2026-01-10 01:19:37.29	224.53	38.12	-37.8	-38.8	22.9	0.00e+00	92	25	0	614465536	46	7071
2026-01-10 01:19:41.32	226.00	38.70	-38.2	-39.3	22.4	0.00e+00	92	25	0	621805568	48	6642
2026-01-10 01:19:45.35	227.51	39.27	-38.7	-39.8	21.9	0.00e+00	92	25	0	629145600	48	7053
2026-01-10 01:19:49.39	229.09	39.83	-38.8	-39.9	22.0	0.00e+00	92	25	0	636485632	50	6332
2026-01-10 01:19:53.43	230.71	40.37	-37.6	-38.6	23.1	0.00e+00	45	25	0	643825664	48	6113
2026-01-10 01:19:57.47	232.39	40.90	-38.5	-39.5	22.3	0.00e+00	92	25	0	652214272	48	6830
2026-01-10 01:20:01.51	234.12	41.40	-38.1	-39.1	22.7	0.00e+00	92	25	0	659554304	48	6487
2026-01-10 01:20:05.54	235.91	41.88	-39.6	-40.8	21.1	0.00e+00	92	25	0	666894336	52	6280
2026-01-10 01:20:09.58	237.74	42.34	-39.1	-40.3	21.6	0.00e+00	0	25	0	674234368	52	5912
2026-01-10 01:20:13.62	239.63	42.76	-40.1	-41.4	20.6	0.00e+00	92	25	0	682622976	52	6708
2026-01-10 01:20:17.65	241.56	43.16	-39.2	-40.4	21.5	0.00e+00	90	25	0	689963008	52	5997
2026-01-10 01:20:21.69	243.54	43.52	-39.3	-40.4	21.4	0.00e+00	92	25	0	697303040	52	6016
2026-01-10 01:20:25.73	245.57	43.85	-39.0	-40.1	21.7	0.00e+00	7	25	0	704643072	50	6520
2026-01-10 01:20:29.76	247.63	44.15	-37.6	-38.6	23.1	0.00e+00	91	25	0	711983104	48	6126
2026-01-10 01:20:33.80	249.73	44.40	-38.7	-39.7	21.9	0.00e+00	92	25	0	720371712	48	6982
2026-01-10 01:20:37.83	251.85	44.61	-38.9	-40.0	22.0	0.00e+00	92	25	0	727711744	50	6406
2026-01-10 01:20:41.87	254.01	44.78	-39.0	-40.1	21.8	0.00e+00	56	25	0	735051776	50	6528
2026-01-10 01:20:45.91	256.18	44.91	-37.8	-38.7	23.0	0.00e+00	92	25	0	742391808	50	5563
2026-01-10 01:20:49.95	258.37	44.99	-37.9	-38.9	22.8	0.00e+00	92	25	0	749731840	48	6337
2026-01-10 01:20:53.98	260.56	45.03	-37.7	-38.7	23.1	0.00e+00	43	25	0	758120448	48	6222
2026-01-10 01:20:58.02	262.76	45.02	-37.0	-37.9	23.7	0.00e+00	0	25	0	765460480	48	5663
2026-01-10 01:21:02.05	264.95	44.96	-37.5	-38.5	23.1	0.00e+00	90	25	0	772800512	46	6801
2026-01-10 01:21:06.09	267.13	44.86	-36.5	-37.4	24.2	0.00e+00	92	25	0	780140544	46	5967
2026-01-10 01:21:10.12	269.29	44.72	-37.7	-38.6	23.1	0.00e+00	7	25	0	788529152	48	6173
2026-01-10 01:21:14.16	271.43	44.53	-37.5	-38.4	23.3	0.00e+00	54	25	0	795869184	48	5978
2026-01-10 01:21:18.20	273.55	44.30	-38.6	-39.7	22.0	0.00e+00	91	25	0	803209216	48	6967
2026-01-10 01:21:22.23	275.63	44.04	-38.7	-39.8	22.1	0.00e+00	92	25	0	810549248	50	6295
2026-01-10 01:21:26.27	277.67	43.73	-38.6	-39.6	22.2	0.00e+00	49	25	0	817889280	50	6147
2026-01-10 01:21:30.31	279.68	43.39	-38.4	-39.5	22.3	0.00e+00	92	25	0	826277888	48	6775
2026-01-10 01:21:34.35	281.64	43.01	-37.5	-38.5	23.1	0.00e+00	95	25	0	833617920	48	6052
2026-01-10 01:21:38.38	283.55	42.60	-37.0	-37.9	23.6	0.00e+00	92	25	0	840957952	48	5664
2026-01-10 01:21:42.41	285.41	42.16	-37.9	-38.9	22.9	0.00e+00	52	25	0	848297984	48	6327
2026-01-10 01:21:46.45	287.22	41.70	-35.5	-36.3	24.9	0.00e+00	92	25	0	856686592	44	5912
2026-01-10 01:21:50.49	288.98	41.21	-35.3	-36.1	25.2	0.00e+00	92	25	0	864026624	44	5767
2026-01-10 01:21:54.52	290.69	40.70	-35.6	-36.4	24.9	0.00e+00	0	25	0	871366656	44	6012
2026-01-10 01:21:58.56	292.34	40.17	-35.3	-36.1	25.1	0.00e+00	36	25	0	878706688	44	5811
2026-01-10 01:22:02.60	293.94	39.62	-35.6	-36.4	24.9	0.00e+00	92	25	0	886046720	44	6032
2026-01-10 01:22:06.63	295.48	39.06	-36.4	-37.3	24.3	0.00e+00	92	25	0	894435328	44	6623
2026-01-10 01:22:10.67	296.98	38.49	-36.2	-37.0	24.5	0.00e+00	52	25	0	901775360	44	6448
2026-01-10 01:22:14.71	298.42	37.90	-36.4	-37.3	24.2	0.00e+00	5	25	0	909115392	44	6622
2026-01-10 01:22:18.74	299.81	37.31	-37.0	-37.9	23.7	0.00e+00	91	25	0	916455424	46	6375
2026-01-10 01:22:22.78	301.16	36.71	-35.8	-36.6	24.8	0.00e+00	92	25	0	923795456	46	5454
2026-01-10 01:22:26.81	302.45	36.11	-36.1	-36.9	24.5	0.00e+00	35	25	0	932184064	44	6353
2026-01-10 01:22:30.85	303.70	35.50	-35.7	-36.4	24.8	0.00e+00	48	25	0	939524096	44	6029
2026-01-10 01:22:34.89	304.90	34.88	-37.7	-38.7	22.9	0.00e+00	92	25	0	946864128	48	6181
2026-01-10 01:22:38.92	306.06	34.27	-36.3	-37.2	24.4	0.00e+00	92	25	0	954204160	46	5833
2026-01-10 01:22:42.95	307.17	33.66	-38.6	-39.7	22.2	0.00e+00	4	25	0	962592768	48	6936
2026-01-10 01:22:46.99	308.25	33.05	-36.3	-37.1	24.5	0.00e+00	0	25	0	969932800	46	5783
2026-01-10 01:22:51.03	309.28	32.43	-38.9	-40.0	21.9	0.00e+00	92	25	0	977272832	50	6448
2026-01-10 01:22:55.07	310.28	31.83	-36.1	-36.9	24.6	0.00e+00	92	25	0	984612864	46	5672
2026-01-10 01:22:59.10	311.25	31.22	-39.4	-40.6	21.2	0.00e+00	0	25	0	991952896	50	6897
2026-01-10 01:23:03.14	312.18	30.62	-36.3	-37.1	24.0	0.00e+00	0	25	0	1000341504	46	5801
2026-01-10 01:23:07.18	313.07	30.03	-38.2	-39.3	22.4	0.00e+00	90	25	0	1007681536	48	6637
2026-01-10 01:23:11.22	313.94	29.44	-37.1	-38.0	23.7	0.00e+00	33	25	0	1015021568	48	5737
2026-01-10 01:23:15.26	314.77	28.85	-36.1	-36.9	24.5	0.00e+00	2	25	0	1022361600	44	6347
2026-01-10 01:23:19.29	315.57	28.27	-37.7	-38.7	23.0	0.00e+00	85	25	0	1030750208	48	6184
2026-01-10 01:23:23.33	316.35	27.70	-35.8	-36.6	24.8	0.00e+00	92	25	0	1038090240	46	5445
2026-01-10 01:23:27.36	317.10	27.13	-37.3	-38.2	23.3	0.00e+00	0	25	0	1045430272	46	6603
2026-01-10 01:23:31.40	317.83	26.58	-36.8	-37.7	23.9	0.00e+00	0	25	0	1052770304	48	5503
2026-01-10 01:23:35.44	318.53	26.02	-35.4	-36.1	25.1	0.00e+00	91	25	0	1060110336	44	5819
2026-01-10 01:23:39.47	319.20	25.48	-36.5	-37.3	24.1	0.00e+00	91	25	0	1068498944	44	6674
2026-01-10 01:23:43.51	319.86	24.94	-37.1	-38.0	23.5	0.00e+00	0	25	0	1075838976	46	6431
2026-01-10 01:23:47.54	320.49	24.41	-36.3	-37.2	24.3	0.00e+00	6	25	0	1083179008	46	5839
2026-01-10 01:23:51.57	321.11	23.89	-35.9	-36.7	24.7	0.00e+00	91	25	0	1090519040	46	5524
2026-01-10 01:23:55.61	321.70	23.37	-36.4	-37.2	24.2	0.00e+00	56	25	0	1098907648	46	5865
2026-01-10 01:23:59.65	322.28	22.86	-36.6	-37.4	23.9	0.00e+00	56	25	0	1106247680	46	6016
2026-01-10 01:24:03.68	322.83	22.36	-36.6	-37.4	24.0	0.00e+00	5	25	0	1113587712	46	6024
2026-01-10 01:24:07.72	323.38	21.87	-36.5	-37.3	24.1	0.00e+00	92	25	0	1120927744	46	5951
2026-01-10 01:24:11.75	323.90	21.38	-37.0	-37.8	23.5	0.00e+00	31	25	0	1128267776	46	6315
2026-01-10 01:24:15.79	324.41	20.90	-37.5	-38.4	23.0	0.00e+00	0	25	0	1136656384	46	6744
2026-01-10 01:24:19.83	324.91	20.43	-37.2	-38.1	23.2	0.00e+00	67	25	0	1143996416	46	6484
2026-01-10 01:24:23.87	325.39	19.96	-36.9	-37.8	23.7	0.00e+00	92	25	0	1151336448	46	6262
2026-01-10 01:24:27.91	325.85	19.50	-37.0	-37.9	23.4	0.00e+00	0	25	0	1158676480	46	6385
2026-01-10 01:24:31.95	326.31	19.04	-37.1	-38.0	23.4	0.00e+00	0	25	0	1166016512	46	6423
2026-01-10 01:24:35.97	326.74	18.60	-37.1	-38.0	23.4	0.00e+00	0	25	0	1174405120	46	6451
2026-01-10 01:24:40.01	327.17	18.16	-36.8	-37.7	23.7	0.00e+00	92	25	0	1181745152	46	6218
2026-01-10 01:24:44.05	327.59	17.73	-36.7	-37.6	23.7	0.00e+00	30	25	0	1189085184	46	6116
2026-01-10 01:24:48.09	328.00	17.30	-37.2	-38.1	23.2	0.00e+00	0	25	0	1196425216	46	6525
2026-01-10 01:24:52.12	328.39	16.88	-37.9	-38.9	22.5	0.00e+00	84	25	0	1204813824	48	6355
2026-01-10 01:24:56.16	328.78	16.46	-38.0	-39.0	22.4	0.00e+00	91	25	0	1212153856	48	6441
2026-01-10 01:25:00.20	329.15	16.05	-37.7	-38.7	22.6	0.00e+00	30	25	0	1219493888	48	6200
2026-01-10 01:25:04.24	329.52	15.65	-37.5	-38.5	22.7	0.00e+00	53	25	0	1226833920	48	6061
2026-01-10 01:25:08.27	329.87	15.25	-37.3	-38.3	23.0	0.00e+00	92	25	0	1234173952	48	5914
2026-01-10 01:25:12.30	330.22	14.86	-37.0	-38.0	23.3	0.00e+00	0	25	0	1242562560	48	5711
2026-01-10 01:25:16.34	330.56	14.47	-37.3	-38.2	23.1	0.00e+00	0	25	0	1249902592	48	5883
2026-01-10 01:25:20.38	330.89	14.09	-37.5	-38.5	22.7	0.00e+00	27	25	0	1257242624	48	6083
2026-01-10 01:25:24.41	331.21	13.71	-37.9	-38.9	22.4	0.00e+00	92	25	0	1264582656	48	6383
2026-01-10 01:25:28.45	331.53	13.34	-38.1	-39.2	22.1	0.00e+00	55	25	0	1272971264	48	6572
2026-01-10 01:25:32.49	331.83	12.97	-38.0	-39.0	22.3	0.00e+00	55	25	0	1280311296	48	6438
2026-01-10 01:25:36.53	332.13	12.61	-38.1	-39.2	22.1	0.00e+00	0	25	0	1287651328	48	6543
2026-01-10 01:25:40.56	332.43	12.25	-38.3	-39.4	21.8	0.00e+00	92	25	0	1294991360	48	6715
2026-01-10 01:25:44.60	332.72	11.90	-38.7	-39.8	21.4	0.00e+00	26	25	0	1302331392	48	7072
2026-01-10 01:25:48.64	333.00	11.55	-38.6	-39.7	21.6	0.00e+00	62	25	0	1310720000	48	6978
2026-01-10 01:25:52.68	333.27	11.21	-38.6	-39.7	21.5	0.00e+00	61	25	0	1318060032	50	6212
2026-01-10 01:25:56.72	333.54	10.87	-38.2	-39.2	21.9	0.00e+00	92	25	0	1325400064	50	5879
2026-01-10 01:26:00.75	333.80	10.53	-38.0	-39.1	21.8	0.00e+00	0	25	0	1332740096	50	5783
2026-01-10 01:26:04.79	334.06	10.20	-37.9	-38.9	22.1	0.00e+00	0	25	0	1340080128	50	5689
2026-01-10 01:26:08.82	334.31	9.87	-38.1	-39.2	22.0	0.00e+00	7	25	0	1348468736	50	5850
2026-01-10 01:26:12.86	334.56	9.55	-38.5	-39.6	21.6	0.00e+00	90	25	0	1355808768	50	6152
2026-01-10 01:26:16.90	334.80	9.23	-38.7	-39.9	21.2	0.00e+00	60	25	0	1363148800	50	6353
2026-01-10 01:26:20.94	335.04	8.91	-39.0	-40.2	20.9	0.00e+00	0	25	0	1370488832	50	6599
2026-01-10 01:26:24.97	335.27	8.60	-39.4	-40.7	20.3	0.00e+00	0	25	0	1378877440	50	6976
2026-01-10 01:26:29.01	335.50	8.29	-39.7	-41.1	20.0	0.00e+00	92	25	0	1386217472	50	7255
2026-01-10 01:26:33.05	335.73	7.99	-39.8	-41.2	19.9	0.00e+00	58	25	0	1393557504	52	6576
2026-01-10 01:26:37.09	335.95	7.68	-39.9	-41.3	19.8	0.00e+00	0	25	0	1400897536	52	6619
2026-01-10 01:26:41.11	336.16	7.39	-39.9	-41.3	19.7	0.00e+00	87	25	0	1408237568	52	6674
2026-01-10 01:26:45.15	336.37	7.09	-39.8	-41.2	19.8	0.00e+00	90	25	0	1416626176	52	6544
2026-01-10 01:26:49.19	336.58	6.80	-39.7	-41.1	19.7	0.00e+00	0	25	0	1423966208	52	6484
2026-01-10 01:26:53.23	336.79	6.51	-39.4	-40.8	20.0	0.00e+00	23	25	0	1431306240	52	6270
2026-01-10 01:26:57.26	336.99	6.22	-39.2	-40.5	20.2	0.00e+00	92	25	0	1438646272	52	6082
2026-01-10 01:27:01.30	337.18	5.94	-39.5	-40.9	19.6	0.00e+00	0	25	0	1447034880	52	6340
2026-01-10 01:27:05.34	337.38	5.65	-39.9	-41.5	18.7	0.00e+00	2	25	0	1454374912	52	6841
2026-01-10 01:27:09.38	337.57	5.38	-40.5	-42.6	17.1	0.00e+00	0	25	0	1461714944	52	7691
2026-01-10 01:27:13.41	337.75	5.10	-41.4	-44.2	14.9	3.00e-06	92	25	0	1469054976	54	8252
2026-01-10 01:27:17.45	337.94	4.83	-42.1	-46.1	12.3	5.41e-05	65	25	0	1476395008	56	9205
2026-01-10 01:27:21.49	338.12	4.56	-42.7	-48.3	9.3	1.41e-02	67	25	0	1484783616	56	11864
2026-01-10 01:27:25.53	338.30	4.29	-42.8	-50.8	5.8	2.61e-01	5	25	0	1492123648	58	14065
2026-01-10 01:27:29.57	338.47	4.02	-42.9	-53.2	3.9	1.15e+00	0	25	0	1499463680	58	18572
2026-01-10 01:27:33.61	338.64	3.76	-42.7	-56.6	3.6	1.51e+00	0	25	104	1499463680	58	27296
2026-01-10 01:27:37.64	338.81	3.50	-42.7	-57.8	3.6	1.51e+00	0	25	104	1499463680	58	31543
2026-01-10 01:27:41.68	338.98	3.24	-42.6	-57.8	3.6	1.51e+00	0	25	104	1499463680	58	31478
2026-01-10 01:27:45.72	339.14	2.98	-42.7	-58.0	3.6	1.51e+00	0	25	104	1499463680	58	32120
2026-01-10 01:27:49.76	339.31	2.73	-47.8	-63.0	3.6	1.51e+00	0	25	104	1499463680	60	51014
2026-01-10 01:27:53.80	339.47	2.48	-48.1	-63.2	3.6	1.51e+00	0	25	104	1499463680	60	52507
2026-01-10 01:27:57.83	339.62	2.23	-47.6	-63.1	3.6	1.51e+00	0	25	104	1499463680	60	51706
2026-01-10 01:28:01.87	339.78	1.98	-47.9	-63.1	3.6	1.51e+00	0	25	104	1499463680	60	51492
2026-01-10 01:28:05.91	339.93	1.73	-47.9	-63.1	3.6	1.51e+00	0	25	104	1499463680	60	51489
2026-01-10 01:28:09.95	340.08	1.49	-47.9	-63.1	3.6	1.51e+00	0	25	104	1499463680	60	51408
2026-01-10 01:28:13.99	340.23	1.25	-47.9	-63.1	3.6	1.51e+00	0	25	104	1499463680	60	51654
2026-01-10 01:28:18.03	340.38	1.01	-48.0	-63.2	3.6	1.51e+00	0	25	104	1499463680	60	52162
2026-01-10 01:28:22.06	340.52	0.77	-47.9	-63.1	3.6	1.51e+00	0	25	104	1499463680	60	51593
2026-01-10 01:28:26.10	340.66	0.53	-47.9	-63.1	3.6	1.51e+00	0	25	104	1499463680	60	51561
2026-01-10 01:28:30.14	340.80	0.30	-47.9	-63.2	3.6	1.51e+00	0	25	104	1499463680	60	52066
2026-01-10 01:28:34.17	340.94	0.06	-47.9	-63.1	3.6	1.51e+00	0	25	104	1499463680	60	51814

#Closed at: 2026-01-10 01:28:36
#Recorded file [1499 MB]: D:/lorett/data/35029_260110_131321.dat