passes_logs/2026/01/10/R4.6S_Anadyr/R4.6S_Anadyr__20260110_002237_NOAA_21_JPSS-2_rec.log

#Pass ID: 20260110_002237_NOAA 21 (JPSS-2)
#Satellite: NOAA 21 (JPSS-2)
#Configuration: NOAA-21
#almurnet v.1.7.20251203
#Start time: 2026-01-10 00:22:40

#Version: 2.2.20231116
#Station: R4.6S_Anadyr
#Location: 177.4865 lon 64.73178 lat
#TLE: 1 54234U 22150A   26008.59854928  .00000127  00000+0  81204-4 0  9992
#TLE: 2 54234  98.7494 309.5759 0000887 327.7487  32.3634 14.19533414163905

#Time	Az	El	Level	Level2	SNR	BER	BlckErr	Temp	State	Recorded	gain1	gain2
2026-01-10 00:22:40.11	160.29	0.16	-48.0	-62.9	3.5	1.51e+00	0	22	0	0	60	50563
2026-01-10 00:22:44.14	160.32	0.40	-48.1	-61.0	3.5	1.51e+00	0	24	104	0	60	39266
2026-01-10 00:22:48.18	160.36	0.65	-48.0	-60.9	3.5	1.52e+00	0	24	104	0	60	38759
2026-01-10 00:22:52.22	160.39	0.89	-47.7	-60.5	3.5	1.52e+00	0	24	104	0	60	37205
2026-01-10 00:22:56.26	160.43	1.15	-46.5	-59.3	3.5	1.52e+00	0	24	104	0	60	32562
2026-01-10 00:23:00.29	160.46	1.40	-46.5	-59.2	3.5	1.51e+00	0	24	104	0	60	32123
2026-01-10 00:23:04.33	160.50	1.65	-46.5	-58.8	3.5	1.52e+00	0	24	104	0	60	30465
2026-01-10 00:23:08.37	160.53	1.91	-46.5	-59.0	3.5	1.52e+00	0	24	104	0	60	31180
2026-01-10 00:23:12.41	160.57	2.17	-46.5	-59.3	3.5	1.52e+00	0	24	104	0	60	32389
2026-01-10 00:23:16.45	160.60	2.43	-46.5	-58.8	3.5	1.51e+00	0	24	104	0	60	30708
2026-01-10 00:23:20.48	160.64	2.69	-46.3	-57.2	3.5	1.51e+00	0	24	104	0	60	25492
2026-01-10 00:23:24.52	160.68	2.96	-46.3	-57.2	3.5	1.51e+00	0	24	104	0	60	25409
2026-01-10 00:23:28.56	160.72	3.23	-43.8	-47.3	11.1	3.67e-03	122	24	0	3145728	60	8135
2026-01-10 00:23:32.60	160.76	3.50	-39.6	-41.2	17.4	0.00e+00	120	24	0	15728640	54	5707
2026-01-10 00:23:36.64	160.79	3.78	-38.9	-40.4	18.1	0.00e+00	122	24	0	28311552	50	6502
2026-01-10 00:23:40.68	160.83	4.06	-38.9	-40.4	17.7	0.00e+00	123	24	0	37748736	52	5809
2026-01-10 00:23:44.71	160.87	4.34	-41.6	-44.2	14.6	3.80e-06	123	24	104	40894464	56	7157
2026-01-10 00:23:48.75	160.91	4.62	-37.5	-38.8	19.6	0.00e+00	123	24	0	52428800	48	6091
2026-01-10 00:23:52.79	160.95	4.91	-37.4	-38.7	19.7	0.00e+00	120	25	0	65011712	48	6033
2026-01-10 00:23:56.82	161.00	5.19	-37.0	-38.2	20.3	0.00e+00	123	25	0	77594624	48	5669
2026-01-10 00:24:00.86	161.04	5.49	-36.2	-37.3	21.3	0.00e+00	123	25	0	90177536	46	5754
2026-01-10 00:24:04.90	161.08	5.78	-36.2	-37.3	21.2	0.00e+00	123	25	0	102760448	46	5788
2026-01-10 00:24:08.94	161.12	6.08	-36.0	-37.1	21.5	0.00e+00	123	25	0	115343360	46	5599
2026-01-10 00:24:12.97	161.17	6.39	-36.0	-37.0	21.6	0.00e+00	123	25	0	127926272	46	5572
2026-01-10 00:24:17.01	161.21	6.69	-35.7	-36.7	21.7	0.00e+00	122	25	0	140509184	44	6029
2026-01-10 00:24:21.05	161.26	7.00	-35.8	-36.8	21.8	0.00e+00	123	25	0	153092096	44	6122
2026-01-10 00:24:25.09	161.30	7.32	-35.4	-36.4	22.1	0.00e+00	122	25	0	165675008	44	5852
2026-01-10 00:24:29.13	161.35	7.63	-35.4	-36.4	22.2	0.00e+00	123	25	0	178257920	44	5821
2026-01-10 00:24:33.17	161.40	7.96	-35.1	-36.1	22.4	0.00e+00	120	25	0	190840832	44	5646
2026-01-10 00:24:37.20	161.45	8.28	-35.1	-36.1	22.5	0.00e+00	122	25	0	203423744	44	5609
2026-01-10 00:24:41.24	161.50	8.61	-35.0	-36.0	22.7	0.00e+00	123	25	0	216006656	44	5555
2026-01-10 00:24:45.28	161.55	8.95	-34.9	-35.9	22.7	0.00e+00	122	25	0	228589568	44	5508
2026-01-10 00:24:49.31	161.60	9.29	-34.6	-35.6	23.0	0.00e+00	123	25	0	241172480	42	5977
2026-01-10 00:24:53.35	161.65	9.63	-34.5	-35.5	23.1	0.00e+00	120	25	0	253755392	42	5900
2026-01-10 00:24:57.39	161.70	9.98	-34.5	-35.5	23.1	0.00e+00	123	25	0	267386880	42	5875
2026-01-10 00:25:01.44	161.76	10.33	-34.3	-35.3	23.4	0.00e+00	123	25	0	279969792	42	5727
2026-01-10 00:25:05.47	161.81	10.69	-34.4	-35.3	23.3	0.00e+00	122	25	0	292552704	42	5768
2026-01-10 00:25:09.51	161.87	11.06	-34.1	-35.0	23.5	0.00e+00	122	25	0	305135616	42	5593
2026-01-10 00:25:13.55	161.92	11.42	-33.9	-34.9	23.7	0.00e+00	123	25	0	317718528	42	5468
2026-01-10 00:25:17.58	161.98	11.80	-33.9	-34.9	23.7	0.00e+00	122	25	0	330301440	42	5492
2026-01-10 00:25:21.63	162.04	12.18	-33.8	-34.7	23.9	0.00e+00	123	25	0	342884352	42	5385
2026-01-10 00:25:25.67	162.10	12.57	-33.9	-34.8	23.7	0.00e+00	120	25	0	355467264	40	6082
2026-01-10 00:25:29.70	162.16	12.96	-33.9	-34.8	23.9	0.00e+00	122	25	0	368050176	40	6084
2026-01-10 00:25:33.74	162.22	13.36	-33.6	-34.5	24.0	0.00e+00	122	25	0	380633088	40	5925
2026-01-10 00:25:37.78	162.29	13.77	-33.7	-34.6	24.0	0.00e+00	121	25	0	393216000	40	5976
2026-01-10 00:25:41.81	162.35	14.18	-33.6	-34.5	24.0	0.00e+00	120	25	0	405798912	40	5890
2026-01-10 00:25:45.84	162.42	14.60	-33.7	-34.7	24.0	0.00e+00	123	25	0	418381824	40	6000
2026-01-10 00:25:49.88	162.49	15.03	-33.5	-34.4	24.1	0.00e+00	123	25	0	430964736	40	5833
2026-01-10 00:25:53.92	162.56	15.46	-33.7	-34.6	23.9	0.00e+00	123	25	0	443547648	40	5973
2026-01-10 00:25:57.96	162.63	15.91	-33.6	-34.5	24.0	0.00e+00	123	25	0	456130560	40	5912
2026-01-10 00:26:02.00	162.70	16.36	-33.6	-34.6	24.0	0.00e+00	122	25	0	468713472	40	5945
2026-01-10 00:26:06.04	162.78	16.82	-33.7	-34.6	23.9	0.00e+00	122	25	0	481296384	40	5951
2026-01-10 00:26:10.08	162.86	17.29	-33.8	-34.8	23.9	0.00e+00	123	25	0	493879296	40	6082
2026-01-10 00:26:14.12	162.94	17.77	-33.6	-34.6	24.0	0.00e+00	120	25	0	506462208	40	5929
2026-01-10 00:26:18.16	163.02	18.25	-33.6	-34.5	24.1	0.00e+00	123	25	0	519045120	40	5912
2026-01-10 00:26:22.19	163.10	18.75	-33.5	-34.4	24.2	0.00e+00	123	25	0	531628032	40	5823
2026-01-10 00:26:26.23	163.19	19.26	-33.4	-34.3	24.2	0.00e+00	123	25	0	544210944	40	5785
2026-01-10 00:26:30.27	163.28	19.78	-33.3	-34.2	24.4	0.00e+00	123	25	0	556793856	40	5675
2026-01-10 00:26:34.31	163.37	20.31	-33.0	-33.8	24.6	0.00e+00	122	25	0	569376768	40	5466
2026-01-10 00:26:38.34	163.46	20.84	-32.7	-33.6	24.8	0.00e+00	123	25	0	581959680	38	5958
2026-01-10 00:26:42.38	163.56	21.40	-32.4	-33.3	25.0	0.00e+00	123	25	0	594542592	38	5752
2026-01-10 00:26:46.42	163.66	21.96	-32.2	-33.0	25.2	0.00e+00	123	25	0	607125504	38	5564
2026-01-10 00:26:50.46	163.76	22.54	-32.0	-32.9	25.4	0.00e+00	123	25	0	619708416	38	5469
2026-01-10 00:26:54.50	163.87	23.13	-31.9	-32.7	25.4	0.00e+00	122	25	0	633339904	38	5399
2026-01-10 00:26:58.53	163.98	23.73	-31.8	-32.6	25.5	0.00e+00	123	25	0	645922816	36	5966
2026-01-10 00:27:02.57	164.09	24.35	-31.8	-32.7	25.6	0.00e+00	123	25	0	658505728	36	6012
2026-01-10 00:27:06.62	164.21	24.99	-31.9	-32.8	25.5	0.00e+00	122	25	0	671088640	36	6096
2026-01-10 00:27:10.66	164.33	25.63	-32.2	-33.1	25.3	0.00e+00	123	25	0	683671552	36	6283
2026-01-10 00:27:14.70	164.46	26.30	-32.6	-33.5	25.1	0.00e+00	122	25	0	696254464	36	6618
2026-01-10 00:27:18.73	164.59	26.98	-33.3	-34.2	24.5	0.00e+00	120	25	0	708837376	38	6407
2026-01-10 00:27:22.77	164.72	27.68	-33.9	-34.8	24.0	0.00e+00	120	25	0	721420288	40	6116
2026-01-10 00:27:26.81	164.86	28.40	-33.8	-34.8	24.0	0.00e+00	122	25	0	734003200	40	6078
2026-01-10 00:27:30.84	165.01	29.13	-33.5	-34.4	24.2	0.00e+00	120	25	0	746586112	40	5818
2026-01-10 00:27:34.88	165.17	29.88	-33.0	-33.9	24.7	0.00e+00	121	25	0	759169024	40	5528
2026-01-10 00:27:38.92	165.33	30.66	-32.8	-33.7	24.9	0.00e+00	122	25	0	771751936	40	5350
2026-01-10 00:27:42.96	165.50	31.46	-32.6	-33.5	25.1	0.00e+00	122	25	0	784334848	38	5884
2026-01-10 00:27:47.00	165.67	32.28	-32.6	-33.4	25.1	0.00e+00	123	25	0	796917760	38	5843
2026-01-10 00:27:51.04	165.86	33.12	-32.7	-33.6	25.0	0.00e+00	123	25	0	809500672	38	5956
2026-01-10 00:27:55.08	166.05	33.98	-33.2	-34.1	24.6	0.00e+00	123	25	0	822083584	38	6329
2026-01-10 00:27:59.11	166.25	34.87	-33.6	-34.5	24.3	0.00e+00	120	25	0	834666496	40	5888
2026-01-10 00:28:03.15	166.47	35.79	-34.2	-35.1	23.9	0.00e+00	122	25	0	847249408	40	6332
2026-01-10 00:28:07.18	166.69	36.72	-34.5	-35.4	23.6	0.00e+00	123	25	0	859832320	40	6563
2026-01-10 00:28:11.22	166.93	37.69	-34.9	-35.8	23.5	0.00e+00	120	25	0	872415232	42	6100
2026-01-10 00:28:15.26	167.18	38.69	-34.7	-35.6	23.6	0.00e+00	123	25	0	884998144	42	5966
2026-01-10 00:28:19.30	167.45	39.72	-34.7	-35.6	23.6	0.00e+00	120	25	0	897581056	42	5965
2026-01-10 00:28:23.34	167.73	40.77	-34.7	-35.7	23.5	0.00e+00	120	25	0	910163968	42	6017
2026-01-10 00:28:27.38	168.04	41.86	-35.3	-36.3	22.9	0.00e+00	121	25	0	922746880	42	6427
2026-01-10 00:28:31.42	168.36	42.98	-36.2	-37.2	22.1	0.00e+00	120	25	0	935329792	44	6386
2026-01-10 00:28:35.46	168.71	44.14	-36.4	-37.5	21.8	0.00e+00	122	25	0	947912704	44	6588
2026-01-10 00:28:39.49	169.08	45.32	-36.4	-37.4	22.0	0.00e+00	123	25	0	960495616	44	6548
2026-01-10 00:28:43.53	169.47	46.54	-36.5	-37.6	21.7	0.00e+00	123	25	0	974127104	44	6701
2026-01-10 00:28:47.57	169.90	47.80	-36.1	-37.2	22.1	0.00e+00	121	25	0	985661440	44	6394
2026-01-10 00:28:51.61	170.37	49.10	-35.1	-36.0	23.1	0.00e+00	122	25	0	998244352	44	5591
2026-01-10 00:28:55.65	170.87	50.43	-34.5	-35.5	23.7	0.00e+00	123	25	0	1011875840	42	5867
2026-01-10 00:28:59.68	171.42	51.79	-35.0	-35.9	23.2	0.00e+00	123	25	0	1024458752	42	6197
2026-01-10 00:29:03.72	172.03	53.20	-34.3	-35.2	23.7	0.00e+00	120	25	0	1037041664	42	5686
2026-01-10 00:29:07.76	172.69	54.64	-33.5	-34.4	24.6	0.00e+00	121	25	0	1049624576	40	5796
2026-01-10 00:29:11.80	173.43	56.12	-33.0	-33.9	24.7	0.00e+00	123	25	0	1062207488	40	5496
2026-01-10 00:29:15.83	174.24	57.63	-33.7	-34.6	24.3	0.00e+00	122	25	0	1074790400	40	5969
2026-01-10 00:29:19.87	175.15	59.17	-32.7	-33.5	24.7	0.00e+00	123	25	0	1087373312	38	5919
2026-01-10 00:29:23.91	176.17	60.75	-31.9	-32.7	25.6	0.00e+00	123	25	0	1099956224	38	5384
2026-01-10 00:29:27.95	177.33	62.37	-31.7	-32.6	25.5	0.00e+00	123	25	0	1112539136	36	5928
2026-01-10 00:29:31.99	178.66	64.00	-31.3	-32.1	25.9	0.00e+00	122	25	0	1125122048	36	5658
2026-01-10 00:29:36.02	180.18	65.66	-31.2	-32.0	26.0	0.00e+00	123	25	0	1137704960	36	5569
2026-01-10 00:29:40.06	181.95	67.34	-31.4	-32.3	25.6	0.00e+00	122	25	0	1150287872	36	5729
2026-01-10 00:29:44.10	184.03	69.03	-31.4	-32.3	25.0	0.00e+00	122	25	0	1162870784	36	5768
2026-01-10 00:29:48.14	186.50	70.72	-31.2	-32.0	26.0	0.00e+00	122	25	0	1175453696	36	5562
2026-01-10 00:29:52.18	189.48	72.40	-32.0	-32.9	25.3	0.00e+00	123	25	0	1188036608	36	6139
2026-01-10 00:29:56.21	193.11	74.05	-31.5	-32.3	26.0	0.00e+00	123	25	0	1200619520	36	5751
2026-01-10 00:30:00.25	197.59	75.64	-30.8	-31.6	26.2	0.00e+00	122	25	0	1213202432	36	5291
2026-01-10 00:30:04.29	203.21	77.15	-31.5	-32.3	25.9	0.00e+00	123	25	0	1225785344	36	5781
2026-01-10 00:30:08.33	210.27	78.52	-31.7	-32.5	25.7	0.00e+00	122	25	0	1238368256	36	5915
2026-01-10 00:30:12.37	219.13	79.68	-30.9	-31.8	25.8	0.00e+00	123	25	0	1250951168	36	5421
2026-01-10 00:30:16.41	229.94	80.55	-31.7	-32.6	25.4	0.00e+00	122	25	0	1263534080	36	5967
2026-01-10 00:30:20.44	242.41	81.04	-31.7	-32.5	25.5	0.00e+00	123	25	0	1276116992	36	5919
2026-01-10 00:30:24.48	255.65	81.07	-31.7	-32.5	25.8	0.00e+00	122	25	0	1288699904	36	5892
2026-01-10 00:30:28.51	268.28	80.64	-30.9	-31.7	26.1	0.00e+00	120	25	0	1301282816	36	5391
2026-01-10 00:30:32.55	279.36	79.82	-31.8	-32.6	25.7	0.00e+00	122	25	0	1313865728	36	5975
2026-01-10 00:30:36.59	288.47	78.69	-30.9	-31.7	26.1	0.00e+00	123	25	0	1326448640	36	5383
2026-01-10 00:30:40.62	295.74	77.35	-31.1	-31.9	26.0	0.00e+00	120	25	0	1339031552	36	5510
2026-01-10 00:30:44.66	301.54	75.86	-31.7	-32.5	25.7	0.00e+00	122	25	0	1351614464	36	5894
2026-01-10 00:30:48.69	306.16	74.28	-31.9	-32.7	25.3	0.00e+00	122	25	0	1364197376	36	6059
2026-01-10 00:30:52.72	309.88	72.65	-31.6	-32.4	25.8	0.00e+00	123	25	0	1376780288	36	5830
2026-01-10 00:30:56.76	312.95	70.98	-31.0	-31.8	26.1	0.00e+00	123	25	0	1389363200	36	5422
2026-01-10 00:31:00.79	315.48	69.29	-31.5	-32.4	25.2	0.00e+00	122	25	0	1402994688	36	5794
2026-01-10 00:31:04.83	317.61	67.61	-32.4	-33.3	25.2	0.00e+00	123	25	0	1415577600	36	6479
2026-01-10 00:31:08.87	319.42	65.93	-31.3	-32.1	25.2	0.00e+00	123	25	0	1428160512	36	5656
2026-01-10 00:31:12.90	320.97	64.27	-33.3	-34.3	24.0	0.00e+00	123	25	0	1440743424	38	6467
2026-01-10 00:31:16.94	322.32	62.63	-32.0	-32.8	25.6	0.00e+00	120	25	0	1453326336	38	5435
2026-01-10 00:31:20.98	323.51	61.02	-33.5	-34.4	24.2	0.00e+00	121	25	0	1465909248	38	6520
2026-01-10 00:31:25.02	324.55	59.44	-32.3	-33.2	24.6	0.00e+00	121	25	0	1478492160	38	5713
2026-01-10 00:31:29.06	325.48	57.89	-33.0	-33.9	24.6	0.00e+00	122	25	0	1491075072	38	6139
2026-01-10 00:31:33.10	326.30	56.38	-35.7	-37.0	21.3	0.00e+00	123	25	0	1503657984	44	6211
2026-01-10 00:31:37.13	327.05	54.90	-33.9	-34.7	24.1	0.00e+00	123	25	0	1516240896	40	6064
2026-01-10 00:31:41.17	327.72	53.46	-34.6	-35.5	23.4	0.00e+00	122	25	0	1528823808	42	5912
2026-01-10 00:31:45.21	328.33	52.06	-35.4	-36.4	22.7	0.00e+00	123	25	0	1541406720	44	5829
2026-01-10 00:31:49.24	328.89	50.69	-34.0	-34.9	23.9	0.00e+00	122	25	0	1553989632	40	6157
2026-01-10 00:31:53.28	329.40	49.36	-35.5	-36.6	22.2	0.00e+00	123	25	0	1566572544	42	6692
2026-01-10 00:31:57.32	329.88	48.06	-35.6	-36.5	22.6	0.00e+00	122	25	0	1579155456	42	6644
2026-01-10 00:32:01.35	330.31	46.81	-34.7	-35.6	23.1	0.00e+00	121	25	0	1591738368	42	5969
2026-01-10 00:32:05.39	330.71	45.59	-35.9	-36.9	22.4	0.00e+00	123	25	0	1604321280	44	6201
2026-01-10 00:32:09.43	331.09	44.40	-37.0	-38.2	21.3	0.00e+00	123	25	0	1616904192	46	6367
2026-01-10 00:32:13.46	331.44	43.24	-35.1	-36.1	23.0	0.00e+00	123	25	0	1629487104	44	5597
2026-01-10 00:32:17.50	331.77	42.12	-35.1	-36.0	22.9	0.00e+00	123	25	0	1642070016	44	5591
2026-01-10 00:32:21.54	332.07	41.03	-35.0	-35.9	23.0	0.00e+00	122	25	0	1654652928	44	5517
2026-01-10 00:32:25.58	332.36	39.98	-36.1	-37.2	22.2	0.00e+00	124	25	0	1667235840	44	6373
2026-01-10 00:32:29.62	332.63	38.95	-35.5	-36.5	22.5	0.00e+00	122	25	0	1679818752	44	5914
2026-01-10 00:32:33.66	332.89	37.95	-34.4	-35.3	23.7	0.00e+00	122	25	0	1692401664	42	5778
2026-01-10 00:32:37.70	333.13	36.98	-34.6	-35.6	23.6	0.00e+00	123	25	0	1704984576	42	5958
2026-01-10 00:32:41.73	333.36	36.04	-34.0	-35.0	23.8	0.00e+00	123	25	0	1717567488	42	5557
2026-01-10 00:32:45.77	333.57	35.12	-34.4	-35.3	23.5	0.00e+00	123	25	0	1730150400	42	5785
2026-01-10 00:32:49.81	333.78	34.23	-34.5	-35.5	23.4	0.00e+00	123	25	0	1742733312	42	5901
2026-01-10 00:32:53.85	333.98	33.37	-34.1	-35.1	23.7	0.00e+00	123	25	0	1755316224	42	5611
2026-01-10 00:32:57.89	334.16	32.52	-33.4	-34.3	24.1	0.00e+00	122	25	0	1768947712	40	5741
2026-01-10 00:33:01.93	334.34	31.70	-32.8	-33.6	24.8	0.00e+00	123	25	0	1781530624	40	5331
2026-01-10 00:33:05.96	334.51	30.91	-32.3	-33.1	25.0	0.00e+00	122	25	0	1794113536	38	5657
2026-01-10 00:33:10.00	334.68	30.13	-32.7	-33.6	24.9	0.00e+00	123	25	0	1806696448	38	5958
2026-01-10 00:33:14.04	334.83	29.38	-33.2	-34.1	24.5	0.00e+00	123	25	0	1819279360	38	6290
2026-01-10 00:33:18.08	334.98	28.64	-33.7	-34.6	24.2	0.00e+00	122	25	0	1831862272	40	5993
2026-01-10 00:33:22.11	335.13	27.92	-33.6	-34.5	24.2	0.00e+00	122	26	0	1844445184	40	5914
2026-01-10 00:33:26.16	335.27	27.22	-33.2	-34.1	24.5	0.00e+00	123	25	0	1857028096	40	5600
2026-01-10 00:33:30.19	335.40	26.54	-33.3	-34.2	24.3	0.00e+00	120	25	0	1869611008	40	5694
2026-01-10 00:33:34.23	335.53	25.88	-33.2	-34.1	24.4	0.00e+00	123	25	0	1882193920	40	5631
2026-01-10 00:33:38.27	335.65	25.23	-33.0	-33.9	24.6	0.00e+00	123	25	0	1894776832	40	5507
2026-01-10 00:33:42.31	335.77	24.59	-33.0	-33.9	24.6	0.00e+00	120	25	0	1907359744	40	5526
2026-01-10 00:33:46.34	335.89	23.98	-32.6	-33.5	24.9	0.00e+00	122	25	0	1919942656	38	5899
2026-01-10 00:33:50.37	336.00	23.37	-32.5	-33.4	24.9	0.00e+00	122	25	0	1932525568	38	5822
2026-01-10 00:33:54.41	336.11	22.78	-32.5	-33.3	24.8	0.00e+00	120	25	0	1945108480	38	5778
2026-01-10 00:33:58.45	336.22	22.20	-32.6	-33.4	24.9	0.00e+00	122	25	0	1957691392	38	5844
2026-01-10 00:34:02.49	336.32	21.64	-32.4	-33.3	25.1	0.00e+00	122	25	0	1970274304	38	5731
2026-01-10 00:34:06.53	336.42	21.09	-32.4	-33.2	25.0	0.00e+00	120	25	0	1982857216	38	5712
2026-01-10 00:34:10.56	336.51	20.55	-32.6	-33.5	24.9	0.00e+00	122	25	0	1995440128	38	5892
2026-01-10 00:34:14.60	336.61	20.02	-33.0	-33.9	24.7	0.00e+00	123	25	0	2008023040	38	6137
2026-01-10 00:34:18.63	336.70	19.50	-33.4	-34.3	24.3	0.00e+00	123	25	0	2020605952	38	6453
2026-01-10 00:34:22.67	336.79	18.99	-33.5	-34.5	24.2	0.00e+00	123	25	0	2033188864	38	6579
2026-01-10 00:34:26.71	336.87	18.50	-33.7	-34.6	24.1	0.00e+00	122	25	0	2045771776	38	6680
2026-01-10 00:34:30.75	336.96	18.01	-33.7	-34.6	24.0	0.00e+00	123	25	0	2058354688	40	5961
2026-01-10 00:34:34.79	337.04	17.53	-33.7	-34.6	23.9	0.00e+00	123	25	0	2070937600	40	5989
2026-01-10 00:34:38.83	337.12	17.06	-33.8	-34.7	23.9	0.00e+00	120	25	0	2083520512	40	6040
2026-01-10 00:34:42.87	337.20	16.60	-34.1	-35.0	23.5	0.00e+00	123	25	0	2096103424	40	6261
2026-01-10 00:34:46.90	337.27	16.15	-33.9	-34.8	23.7	0.00e+00	122	25	0	2108686336	40	6120
2026-01-10 00:34:50.93	337.35	15.71	-34.0	-34.9	23.6	0.00e+00	122	25	0	2121269248	40	6180
2026-01-10 00:34:54.97	337.42	15.27	-34.1	-35.0	23.5	0.00e+00	123	25	0	2133852160	40	6260
2026-01-10 00:34:59.01	337.49	14.84	-34.1	-35.1	23.5	0.00e+00	122	25	0	2146435072	40	6301
2026-01-10 00:35:03.05	337.56	14.42	-34.1	-35.1	23.5	0.00e+00	123	25	0	2159017984	40	6300
2026-01-10 00:35:07.08	337.63	14.01	-34.1	-35.0	23.5	0.00e+00	123	25	0	2172649472	40	6251
2026-01-10 00:35:11.11	337.70	13.60	-34.2	-35.2	23.4	0.00e+00	123	25	0	2184183808	40	6351
2026-01-10 00:35:15.14	337.76	13.20	-34.3	-35.3	23.3	0.00e+00	123	25	0	2197815296	40	6426
2026-01-10 00:35:19.18	337.83	12.81	-34.3	-35.3	23.3	0.00e+00	124	25	0	2210398208	40	6456
2026-01-10 00:35:23.22	337.89	12.42	-34.3	-35.2	23.3	0.00e+00	123	26	0	2222981120	40	6419
2026-01-10 00:35:27.26	337.95	12.04	-34.4	-35.4	23.2	0.00e+00	123	25	0	2235564032	40	6503
2026-01-10 00:35:31.30	338.01	11.67	-34.5	-35.4	23.1	0.00e+00	123	25	0	2248146944	40	6569
2026-01-10 00:35:35.34	338.07	11.30	-34.5	-35.4	23.1	0.00e+00	120	25	0	2260729856	40	6573
2026-01-10 00:35:39.17	338.13	10.95	-34.5	-35.4	23.1	0.00e+00	122	25	0	2273312768	40	6554
2026-01-10 00:35:43.21	338.19	10.59	-34.7	-35.7	22.9	0.00e+00	123	26	0	2285895680	40	6728
2026-01-10 00:35:47.25	338.24	10.24	-34.6	-35.6	23.0	0.00e+00	122	25	0	2298478592	40	6654
2026-01-10 00:35:51.28	338.30	9.89	-34.7	-35.7	22.8	0.00e+00	123	25	0	2311061504	40	6772
2026-01-10 00:35:55.31	338.35	9.55	-34.8	-35.8	22.8	0.00e+00	123	26	0	2323644416	42	6075
2026-01-10 00:35:59.35	338.41	9.21	-34.9	-35.9	22.7	0.00e+00	122	25	0	2336227328	42	6136
2026-01-10 00:36:03.39	338.46	8.87	-35.0	-36.0	22.6	0.00e+00	123	25	0	2348810240	42	6258
2026-01-10 00:36:07.42	338.51	8.54	-35.2	-36.2	22.4	0.00e+00	122	25	0	2361393152	42	6396
2026-01-10 00:36:11.45	338.57	8.22	-35.3	-36.3	22.3	0.00e+00	122	25	0	2373976064	42	6489
2026-01-10 00:36:15.49	338.62	7.89	-35.5	-36.5	22.0	0.00e+00	122	25	0	2386558976	42	6612
2026-01-10 00:36:19.53	338.67	7.58	-35.6	-36.7	21.9	0.00e+00	122	25	0	2399141888	44	6026
2026-01-10 00:36:23.57	338.72	7.26	-35.5	-36.5	21.9	0.00e+00	122	25	0	2411724800	44	5922
2026-01-10 00:36:27.61	338.77	6.95	-35.8	-36.9	21.7	0.00e+00	123	25	0	2424307712	44	6164
2026-01-10 00:36:31.65	338.81	6.64	-36.2	-37.3	21.2	0.00e+00	123	25	0	2436890624	44	6437
2026-01-10 00:36:35.69	338.86	6.34	-36.2	-37.3	21.1	0.00e+00	122	26	0	2449473536	44	6483
2026-01-10 00:36:39.72	338.91	6.04	-36.2	-37.4	21.0	0.00e+00	123	25	0	2462056448	44	6509
2026-01-10 00:36:43.76	338.95	5.75	-36.0	-37.2	21.0	0.00e+00	123	25	0	2474639360	44	6385
2026-01-10 00:36:47.79	339.00	5.45	-37.1	-38.5	19.6	0.00e+00	122	25	0	2487222272	46	6582
2026-01-10 00:36:51.82	339.05	5.17	-38.1	-39.8	17.7	0.00e+00	123	25	0	2499805184	48	6856
2026-01-10 00:36:55.86	339.09	4.88	-39.5	-41.9	14.6	0.00e+00	122	25	0	2512388096	50	7754
2026-01-10 00:36:59.90	339.14	4.60	-41.2	-45.5	9.9	6.38e-03	123	25	0	2524971008	54	9302
2026-01-10 00:37:03.94	339.18	4.31	-42.0	-48.3	6.1	2.06e-01	123	25	0	2537553920	56	11521
2026-01-10 00:37:07.98	339.22	4.04	-42.4	-52.9	3.9	1.47e+00	0	25	104	2538602496	56	19563
2026-01-10 00:37:12.01	339.27	3.76	-42.7	-55.0	3.5	1.52e+00	0	26	104	2538602496	56	24722
2026-01-10 00:37:16.05	339.31	3.49	-42.6	-55.2	3.5	1.52e+00	0	26	104	2538602496	58	22608
2026-01-10 00:37:20.09	339.35	3.22	-42.9	-55.8	3.5	1.52e+00	0	25	104	2538602496	58	24294
2026-01-10 00:37:24.13	339.39	2.95	-42.7	-55.6	3.5	1.52e+00	0	26	104	2538602496	58	23716
2026-01-10 00:37:28.17	339.43	2.69	-47.9	-60.7	3.5	1.52e+00	0	26	104	2538602496	60	38245
2026-01-10 00:37:32.21	339.47	2.43	-48.1	-60.9	3.5	1.51e+00	0	26	104	2538602496	60	39145
2026-01-10 00:37:36.25	339.51	2.17	-47.6	-60.8	3.5	1.52e+00	0	25	104	2538602496	60	38361
2026-01-10 00:37:40.29	339.55	1.91	-47.9	-60.8	3.5	1.52e+00	0	26	104	2538602496	60	38525
2026-01-10 00:37:44.33	339.59	1.66	-47.9	-60.7	3.5	1.52e+00	0	26	104	2538602496	60	38194
2026-01-10 00:37:48.37	339.63	1.40	-47.9	-60.8	3.5	1.52e+00	0	26	104	2538602496	60	38284
2026-01-10 00:37:52.41	339.67	1.15	-47.9	-60.8	3.5	1.52e+00	0	26	104	2538602496	60	38582
2026-01-10 00:37:56.45	339.71	0.91	-47.9	-60.8	3.5	1.52e+00	0	26	104	2538602496	60	38332
2026-01-10 00:38:00.49	339.75	0.66	-47.9	-60.8	3.5	1.52e+00	0	26	104	2538602496	60	38343
2026-01-10 00:38:04.52	339.79	0.42	-47.9	-60.8	3.5	1.52e+00	0	26	104	2538602496	60	38352
2026-01-10 00:38:08.56	339.82	0.17	-47.9	-60.8	3.5	1.52e+00	0	26	104	2538602496	60	38279

#Closed at: 2026-01-10 00:38:11
#Recorded file [2538 MB]: D:/lorett/data/35029_260110_122240.dat