passes_logs/2026/01/10/R4.6S_Anadyr/R4.6S_Anadyr__20260110_035113_AQUA_rec.log

#Pass ID: 20260110_035113_AQUA
#Satellite: AQUA
#Configuration: AQUA
#almurnet v.1.7.20251203
#Start time: 2026-01-10 03:51:16

#Version: 2.2.20231116
#Station: R4.6S_Anadyr
#Location: 177.4865 lon 64.73178 lat
#TLE: 1 27424U 02022A   26009.00333547  .00001046  00000+0  21942-3 0  9998
#TLE: 2 27424  98.4075 335.3304 0002026  85.7625 349.1392 14.61808998260012

#Time	Az	El	Level	Level2	SNR	BER	BlckErr	Temp	State	Recorded	gain1	gain2
2026-01-10 03:51:16.64	208.72	0.17	-48.3	-64.9	3.3	3.03e+01	0	25	0	0	60	67297
2026-01-10 03:51:19.67	208.93	0.33	-48.2	-66.3	3.5	3.03e+01	0	25	104	0	60	79598
2026-01-10 03:51:22.70	209.15	0.49	-48.4	-66.2	3.5	3.03e+01	0	25	104	0	60	78723
2026-01-10 03:51:25.73	209.38	0.66	-48.2	-66.1	3.5	3.03e+01	0	25	104	0	60	77604
2026-01-10 03:51:28.76	209.60	0.83	-47.8	-65.6	3.5	3.03e+01	0	25	104	0	60	73519
2026-01-10 03:51:31.79	209.83	0.99	-46.9	-64.7	3.5	3.03e+01	0	25	104	0	60	65872
2026-01-10 03:51:34.81	210.06	1.16	-46.9	-64.8	3.5	3.03e+01	0	25	104	0	60	66793
2026-01-10 03:51:37.85	210.29	1.33	-46.9	-64.7	3.5	3.03e+01	0	25	104	0	60	66173
2026-01-10 03:51:40.87	210.53	1.50	-46.9	-64.6	3.5	3.03e+01	0	26	104	0	60	65559
2026-01-10 03:51:43.90	210.77	1.67	-46.9	-64.9	3.5	3.03e+01	0	26	104	0	60	67313
2026-01-10 03:51:46.94	211.01	1.84	-46.9	-64.7	3.5	3.03e+01	0	26	104	0	60	66073
2026-01-10 03:51:49.96	211.25	2.01	-46.9	-64.8	3.5	3.03e+01	0	26	104	0	60	67187
2026-01-10 03:51:52.99	211.50	2.18	-46.9	-64.8	3.5	3.03e+01	0	26	104	0	60	66740
2026-01-10 03:51:56.02	211.75	2.35	-46.9	-64.2	3.5	3.03e+01	0	26	104	0	60	62076
2026-01-10 03:51:59.05	212.01	2.52	-46.8	-63.1	3.5	3.03e+01	0	26	104	0	60	55189
2026-01-10 03:52:02.08	212.26	2.70	-46.8	-61.3	3.7	3.03e+01	0	26	104	0	60	44661
2026-01-10 03:52:05.11	212.52	2.87	-45.3	-50.9	13.8	3.03e+01	92	26	0	2097152	60	13476
2026-01-10 03:52:08.14	212.79	3.05	-40.4	-42.5	21.9	3.03e+01	90	26	0	7864320	56	6477
2026-01-10 03:52:11.17	213.05	3.23	-39.9	-41.8	22.4	3.03e+01	92	26	0	13631488	56	5963
2026-01-10 03:52:14.20	213.32	3.40	-46.7	-62.4	3.6	3.03e+01	0	26	104	16252928	60	50733
2026-01-10 03:52:17.23	213.60	3.58	-38.4	-40.0	24.3	3.03e+01	92	26	0	19922944	52	6115
2026-01-10 03:52:20.25	213.87	3.76	-37.5	-39.0	25.3	3.03e+01	92	26	0	25165824	50	6118
2026-01-10 03:52:23.28	214.15	3.94	-37.1	-38.6	25.8	3.03e+01	92	26	0	30932992	50	5807
2026-01-10 03:52:26.31	214.44	4.12	-37.2	-38.6	25.7	3.03e+01	92	26	0	36700160	50	5836
2026-01-10 03:52:29.34	214.72	4.30	-37.0	-38.5	25.9	3.03e+01	92	26	0	42467328	50	5766
2026-01-10 03:52:32.36	215.02	4.48	-37.0	-38.5	25.9	3.03e+01	92	26	0	48234496	48	6468
2026-01-10 03:52:35.39	215.31	4.67	-37.0	-38.4	26.0	3.03e+01	92	26	0	53477376	48	6423
2026-01-10 03:52:38.42	215.61	4.85	-37.0	-38.5	26.1	3.03e+01	92	26	0	59244544	48	6429
2026-01-10 03:52:41.45	215.91	5.03	-36.9	-38.3	26.2	3.03e+01	92	26	0	65011712	48	6313
2026-01-10 03:52:44.48	216.22	5.22	-36.8	-38.2	26.3	3.03e+01	92	26	0	70778880	48	6233
2026-01-10 03:52:47.51	216.53	5.41	-36.7	-38.2	26.4	3.03e+01	92	26	0	76546048	48	6214
2026-01-10 03:52:50.54	216.85	5.59	-36.7	-38.2	26.4	3.03e+01	89	26	0	82313216	48	6215
2026-01-10 03:52:53.57	217.17	5.78	-36.4	-37.8	26.7	3.03e+01	92	26	0	88080384	48	5983
2026-01-10 03:52:56.60	217.49	5.97	-36.5	-37.9	26.7	3.03e+01	91	26	0	93323264	48	6023
2026-01-10 03:52:59.63	217.82	6.16	-36.5	-37.9	26.7	3.03e+01	90	26	0	99090432	48	6012
2026-01-10 03:53:02.65	218.15	6.35	-36.4	-37.8	26.7	3.03e+01	92	26	0	104857600	48	5978
2026-01-10 03:53:05.68	218.49	6.54	-36.4	-37.8	26.8	3.03e+01	92	26	0	110624768	48	5930
2026-01-10 03:53:08.71	218.83	6.73	-36.3	-37.6	27.0	3.03e+01	91	26	0	116391936	48	5856
2026-01-10 03:53:11.74	219.18	6.92	-36.4	-37.7	26.9	3.03e+01	92	26	0	121634816	48	5921
2026-01-10 03:53:14.77	219.53	7.12	-36.1	-37.4	27.2	3.03e+01	92	26	0	127401984	48	5710
2026-01-10 03:53:17.80	219.89	7.31	-36.1	-37.4	27.2	3.03e+01	92	26	0	133169152	48	5707
2026-01-10 03:53:20.83	220.25	7.51	-36.3	-37.7	27.0	3.03e+01	92	26	0	138936320	48	5868
2026-01-10 03:53:23.86	220.62	7.70	-36.1	-37.4	27.2	3.03e+01	92	26	0	144703488	48	5717
2026-01-10 03:53:26.89	220.99	7.90	-36.2	-37.6	27.0	3.03e+01	90	26	0	150470656	46	6550
2026-01-10 03:53:29.91	221.37	8.10	-36.2	-37.6	27.1	3.03e+01	90	26	0	156237824	46	6522
2026-01-10 03:53:32.94	221.75	8.29	-36.1	-37.5	27.2	3.03e+01	91	26	0	161480704	46	6454
2026-01-10 03:53:35.97	222.14	8.49	-36.1	-37.4	27.3	3.03e+01	92	26	0	167247872	46	6397
2026-01-10 03:53:39.00	222.54	8.69	-36.2	-37.6	27.3	3.03e+01	93	26	0	173015040	46	6520
2026-01-10 03:53:42.02	222.93	8.89	-35.9	-37.3	27.4	3.03e+01	90	26	0	178782208	46	6283
2026-01-10 03:53:45.05	223.34	9.09	-36.1	-37.4	27.3	3.03e+01	92	26	0	184549376	46	6383
2026-01-10 03:53:48.08	223.75	9.29	-36.3	-37.7	27.1	3.03e+01	91	26	0	189792256	46	6610
2026-01-10 03:53:51.11	224.17	9.49	-36.1	-37.5	27.3	3.03e+01	92	26	0	195559424	46	6441
2026-01-10 03:53:54.14	224.59	9.70	-36.1	-37.5	27.2	3.03e+01	90	26	0	201326592	46	6471
2026-01-10 03:53:57.16	225.02	9.90	-36.0	-37.4	27.3	3.03e+01	92	26	0	207093760	46	6392
2026-01-10 03:54:00.20	225.46	10.10	-36.1	-37.5	27.3	3.03e+01	92	26	0	212860928	46	6427
2026-01-10 03:54:03.22	225.90	10.31	-36.1	-37.5	27.3	3.03e+01	92	26	0	218628096	46	6457
2026-01-10 03:54:06.25	226.35	10.51	-36.1	-37.5	27.3	3.03e+01	90	26	0	223870976	46	6440
2026-01-10 03:54:09.28	226.80	10.71	-36.2	-37.5	27.3	3.03e+01	92	26	0	229638144	46	6468
2026-01-10 03:54:12.31	227.27	10.92	-36.0	-37.4	27.4	3.03e+01	90	27	0	235405312	46	6371
2026-01-10 03:54:15.34	227.74	11.13	-36.1	-37.4	27.4	3.03e+01	92	26	0	241172480	46	6404
2026-01-10 03:54:18.37	228.21	11.33	-36.1	-37.4	27.4	3.03e+01	92	27	0	246939648	46	6387
2026-01-10 03:54:21.40	228.70	11.54	-36.2	-37.5	27.3	3.03e+01	92	27	0	252706816	46	6453
2026-01-10 03:54:24.42	229.18	11.74	-36.0	-37.3	27.4	3.03e+01	92	27	0	257949696	46	6329
2026-01-10 03:54:27.45	229.68	11.95	-35.9	-37.3	27.5	3.03e+01	83	27	0	263716864	46	6289
2026-01-10 03:54:30.48	230.19	12.15	-36.0	-37.3	27.5	3.03e+01	88	27	0	269484032	46	6339
2026-01-10 03:54:33.51	230.70	12.36	-35.9	-37.2	27.6	3.03e+01	92	27	0	275251200	46	6250
2026-01-10 03:54:36.54	231.22	12.57	-36.0	-37.4	27.4	3.03e+01	92	27	0	281018368	46	6353
2026-01-10 03:54:39.57	231.75	12.77	-35.7	-37.0	27.8	3.03e+01	90	26	0	286785536	46	6112
2026-01-10 03:54:42.60	232.28	12.98	-35.7	-37.0	27.8	3.03e+01	92	27	0	292028416	46	6112
2026-01-10 03:54:45.63	232.82	13.19	-35.6	-36.9	27.9	3.03e+01	92	27	0	297795584	46	6026
2026-01-10 03:54:48.66	233.37	13.39	-35.6	-36.9	27.9	3.03e+01	92	27	0	303562752	46	6020
2026-01-10 03:54:51.68	233.93	13.59	-35.5	-36.8	28.0	3.03e+01	92	26	0	309329920	46	5953
2026-01-10 03:54:54.71	234.50	13.80	-35.4	-36.6	28.1	3.03e+01	91	27	0	315097088	46	5858
2026-01-10 03:54:57.74	235.07	14.00	-35.2	-36.5	28.3	3.03e+01	92	26	0	320864256	46	5760
2026-01-10 03:55:00.77	235.66	14.21	-35.0	-36.3	28.4	3.03e+01	92	26	0	326107136	46	5626
2026-01-10 03:55:03.80	236.25	14.41	-34.8	-36.1	28.6	3.03e+01	92	26	0	331874304	44	6145
2026-01-10 03:55:06.83	236.85	14.61	-34.9	-36.2	28.6	3.03e+01	92	26	0	337641472	44	6211
2026-01-10 03:55:09.86	237.46	14.81	-34.8	-36.0	28.7	3.03e+01	88	27	0	343408640	44	6104
2026-01-10 03:55:12.89	238.07	15.01	-34.6	-35.8	28.9	3.03e+01	91	26	0	349175808	44	5950
2026-01-10 03:55:15.91	238.70	15.21	-34.4	-35.6	29.1	3.03e+01	90	26	0	354942976	44	5833
2026-01-10 03:55:18.94	239.33	15.40	-34.4	-35.6	29.1	3.03e+01	92	26	0	360185856	44	5819
2026-01-10 03:55:21.97	239.97	15.60	-34.5	-35.7	29.1	3.03e+01	92	26	0	365953024	44	5869
2026-01-10 03:55:25.00	240.63	15.79	-34.1	-35.4	29.3	3.03e+01	90	27	0	371720192	44	5663
2026-01-10 03:55:28.03	241.29	15.99	-34.1	-35.3	29.4	3.03e+01	91	27	0	377487360	44	5616
2026-01-10 03:55:31.06	241.96	16.18	-34.3	-35.5	29.2	3.03e+01	90	26	0	383254528	44	5773
2026-01-10 03:55:34.09	242.63	16.37	-34.0	-35.2	29.4	3.03e+01	90	26	0	389021696	44	5581
2026-01-10 03:55:37.12	243.32	16.55	-34.1	-35.3	29.5	3.03e+01	92	27	0	394264576	42	6324
2026-01-10 03:55:40.15	244.02	16.74	-34.0	-35.2	29.5	3.03e+01	91	27	0	400031744	42	6259
2026-01-10 03:55:43.18	244.72	16.92	-34.3	-35.5	29.2	3.03e+01	92	27	0	405798912	42	6487
2026-01-10 03:55:46.20	245.43	17.10	-34.2	-35.4	29.3	3.03e+01	92	27	0	411566080	42	6404
2026-01-10 03:55:49.22	246.15	17.27	-34.3	-35.5	29.3	3.03e+01	91	27	0	417333248	42	6433
2026-01-10 03:55:52.25	246.88	17.45	-34.3	-35.5	29.3	3.03e+01	90	27	0	422576128	42	6470
2026-01-10 03:55:55.28	247.62	17.62	-34.2	-35.4	29.3	3.03e+01	92	27	0	428343296	42	6411
2026-01-10 03:55:58.30	248.37	17.78	-34.2	-35.4	29.4	3.03e+01	91	27	0	434110464	42	6395
2026-01-10 03:56:01.34	249.13	17.95	-34.1	-35.3	29.4	3.03e+01	92	27	0	439877632	42	6312
2026-01-10 03:56:04.37	249.89	18.11	-34.2	-35.4	29.4	3.03e+01	91	27	0	445644800	42	6383
2026-01-10 03:56:07.39	250.66	18.27	-34.2	-35.4	29.4	3.03e+01	91	27	0	451411968	42	6366
2026-01-10 03:56:10.42	251.44	18.42	-34.2	-35.4	29.4	3.03e+01	89	27	0	457179136	42	6359
2026-01-10 03:56:13.45	252.23	18.57	-34.3	-35.5	29.4	3.03e+01	92	27	0	462422016	42	6438
2026-01-10 03:56:16.47	253.03	18.71	-34.2	-35.4	29.3	3.03e+01	90	27	0	468189184	42	6399
2026-01-10 03:56:19.50	253.83	18.85	-34.4	-35.6	29.2	3.03e+01	92	27	0	473956352	42	6571
2026-01-10 03:56:22.53	254.64	18.99	-34.3	-35.5	29.3	3.03e+01	92	27	0	479723520	42	6435
2026-01-10 03:56:25.56	255.46	19.12	-34.3	-35.5	29.3	3.03e+01	90	26	0	485490688	42	6453
2026-01-10 03:56:28.59	256.29	19.25	-34.1	-35.3	29.5	3.03e+01	92	27	0	490733568	42	6309
2026-01-10 03:56:31.62	257.12	19.37	-34.3	-35.5	29.3	3.03e+01	92	27	0	496500736	42	6494
2026-01-10 03:56:34.64	257.96	19.49	-34.2	-35.4	29.4	3.03e+01	91	26	0	502267904	42	6355
2026-01-10 03:56:37.67	258.81	19.60	-34.2	-35.4	29.4	3.03e+01	92	27	0	508035072	42	6412
2026-01-10 03:56:40.70	259.66	19.70	-34.3	-35.5	29.4	3.03e+01	90	26	0	513802240	42	6441
2026-01-10 03:56:43.73	260.52	19.80	-34.3	-35.5	29.4	3.03e+01	92	27	0	519569408	42	6466
2026-01-10 03:56:46.75	261.38	19.90	-34.2	-35.4	29.5	3.03e+01	92	27	0	524812288	42	6373
2026-01-10 03:56:49.78	262.25	19.99	-34.3	-35.5	29.3	3.03e+01	92	27	0	530579456	42	6485
2026-01-10 03:56:52.81	263.13	20.07	-34.4	-35.6	29.3	3.03e+01	92	27	0	536346624	42	6568
2026-01-10 03:56:55.84	264.01	20.14	-34.2	-35.4	29.3	3.03e+01	90	27	0	542113792	42	6423
2026-01-10 03:56:58.86	264.89	20.21	-34.4	-35.6	29.3	3.03e+01	92	27	0	547880960	44	5853
2026-01-10 03:57:01.89	265.78	20.28	-34.2	-35.4	29.4	3.03e+01	92	27	0	553648128	44	5703
2026-01-10 03:57:04.92	266.67	20.34	-34.3	-35.5	29.3	3.03e+01	91	27	0	558891008	44	5757
2026-01-10 03:57:07.95	267.56	20.39	-34.3	-35.5	29.2	3.03e+01	92	27	0	564658176	44	5762
2026-01-10 03:57:10.98	268.46	20.43	-34.4	-35.6	29.2	3.03e+01	90	27	0	570425344	44	5846
2026-01-10 03:57:14.01	269.36	20.47	-34.0	-35.2	29.5	3.03e+01	92	27	0	576192512	44	5584
2026-01-10 03:57:17.03	270.26	20.50	-34.3	-35.5	29.3	3.03e+01	92	27	0	581959680	44	5770
2026-01-10 03:57:20.06	271.16	20.52	-34.2	-35.4	29.4	3.03e+01	92	27	0	587726848	44	5662
2026-01-10 03:57:23.09	272.07	20.54	-34.0	-35.1	29.6	3.03e+01	91	27	0	592969728	44	5523
2026-01-10 03:57:26.12	272.97	20.55	-34.2	-35.4	29.4	3.03e+01	92	27	0	598736896	44	5679
2026-01-10 03:57:29.14	273.87	20.56	-34.0	-35.2	29.5	3.03e+01	92	27	0	604504064	44	5586
2026-01-10 03:57:32.17	274.78	20.55	-34.1	-35.3	29.4	3.03e+01	90	27	0	610271232	44	5654
2026-01-10 03:57:35.19	275.68	20.54	-34.0	-35.2	29.5	3.03e+01	92	27	0	616038400	44	5581
2026-01-10 03:57:38.22	276.59	20.53	-34.1	-35.3	29.4	3.03e+01	90	27	0	621805568	44	5657
2026-01-10 03:57:41.25	277.49	20.50	-34.0	-35.2	29.6	3.03e+01	91	27	0	627048448	44	5549
2026-01-10 03:57:44.28	278.39	20.47	-34.1	-35.3	29.4	3.03e+01	92	27	0	632815616	44	5650
2026-01-10 03:57:47.30	279.29	20.43	-34.0	-35.1	29.6	3.03e+01	92	27	0	638582784	42	6203
2026-01-10 03:57:50.33	280.18	20.39	-34.2	-35.4	29.4	3.03e+01	90	27	0	644349952	42	6358
2026-01-10 03:57:53.36	281.08	20.34	-34.2	-35.4	29.4	3.03e+01	92	27	0	650117120	42	6397
2026-01-10 03:57:56.39	281.97	20.28	-34.0	-35.2	29.6	3.03e+01	92	27	0	655360000	42	6232
2026-01-10 03:57:59.42	282.85	20.22	-34.1	-35.3	29.5	3.03e+01	92	27	0	661127168	42	6294
2026-01-10 03:58:02.45	283.74	20.15	-33.9	-35.1	29.6	3.03e+01	90	27	0	666894336	42	6174
2026-01-10 03:58:05.48	284.61	20.08	-33.9	-35.1	29.7	3.03e+01	92	27	0	672661504	42	6160
2026-01-10 03:58:08.51	285.49	19.99	-34.0	-35.2	29.5	3.03e+01	92	27	0	678428672	42	6263
2026-01-10 03:58:11.54	286.36	19.91	-34.0	-35.2	29.5	3.03e+01	89	27	0	684195840	42	6249
2026-01-10 03:58:14.56	287.22	19.81	-34.2	-35.3	29.3	3.03e+01	92	27	0	689963008	42	6348
2026-01-10 03:58:17.59	288.07	19.71	-33.9	-35.1	29.7	3.03e+01	91	27	0	695205888	42	6194
2026-01-10 03:58:20.62	288.92	19.61	-33.7	-34.9	29.8	3.03e+01	90	27	0	700973056	42	6035
2026-01-10 03:58:23.65	289.77	19.50	-33.7	-34.8	29.8	3.03e+01	92	27	0	706740224	42	5989
2026-01-10 03:58:26.68	290.61	19.38	-33.8	-35.0	29.7	3.03e+01	59	27	0	712507392	42	6090
2026-01-10 03:58:29.70	291.44	19.26	-33.8	-34.9	29.8	3.03e+01	59	27	0	718274560	42	6056
2026-01-10 03:58:32.73	292.26	19.14	-33.8	-35.0	29.8	3.03e+01	62	27	0	723517440	42	6115
2026-01-10 03:58:35.76	293.08	19.01	-33.7	-34.9	29.7	3.03e+01	58	27	0	729284608	42	6035
2026-01-10 03:58:38.79	293.89	18.87	-33.7	-34.9	29.8	3.03e+01	58	27	0	735051776	42	6024
2026-01-10 03:58:41.82	294.69	18.73	-33.8	-34.9	29.8	3.03e+01	61	27	0	740818944	42	6060
2026-01-10 03:58:44.85	295.49	18.59	-33.8	-35.0	29.7	3.03e+01	60	27	0	746586112	42	6115
2026-01-10 03:58:47.88	296.28	18.44	-33.5	-34.6	30.0	3.03e+01	61	27	0	752353280	42	5855
2026-01-10 03:58:50.90	297.05	18.29	-33.5	-34.7	29.9	3.03e+01	61	27	0	757596160	42	5894
2026-01-10 03:58:53.93	297.82	18.13	-33.6	-34.7	29.9	3.03e+01	61	27	0	763363328	42	5919
2026-01-10 03:58:56.96	298.59	17.97	-33.7	-34.9	29.8	3.03e+01	58	27	0	769130496	42	6008
2026-01-10 03:58:59.98	299.34	17.81	-33.5	-34.7	29.9	3.03e+01	49	27	0	774897664	42	5896
2026-01-10 03:59:03.01	300.08	17.64	-33.5	-34.7	30.0	3.03e+01	57	27	0	780664832	42	5882
2026-01-10 03:59:06.04	300.82	17.47	-33.6	-34.8	29.9	3.03e+01	61	27	0	786432000	42	5934
2026-01-10 03:59:09.06	301.55	17.30	-33.4	-34.6	30.0	3.03e+01	61	27	0	791674880	42	5852
2026-01-10 03:59:12.09	302.27	17.13	-33.4	-34.6	29.9	3.03e+01	58	27	0	797442048	42	5842
2026-01-10 03:59:15.12	302.98	16.95	-33.4	-34.6	30.0	3.03e+01	58	27	0	803209216	42	5841
2026-01-10 03:59:18.15	303.68	16.77	-33.5	-34.7	29.9	3.03e+01	60	27	0	808976384	42	5888
2026-01-10 03:59:21.18	304.37	16.59	-33.4	-34.5	30.0	3.03e+01	53	27	0	814743552	42	5788
2026-01-10 03:59:24.20	305.06	16.40	-33.4	-34.6	29.9	3.03e+01	61	27	0	819986432	42	5846
2026-01-10 03:59:27.23	305.73	16.22	-33.5	-34.7	29.9	3.03e+01	58	27	0	825753600	42	5894
2026-01-10 03:59:30.26	306.40	16.03	-33.4	-34.6	30.0	3.03e+01	55	27	0	831520768	42	5801
2026-01-10 03:59:33.29	307.06	15.84	-33.5	-34.7	29.9	3.03e+01	62	27	0	837287936	42	5912
2026-01-10 03:59:36.31	307.71	15.64	-33.4	-34.6	29.9	3.03e+01	60	27	0	843055104	42	5839
2026-01-10 03:59:39.35	308.35	15.45	-33.5	-34.7	29.9	3.03e+01	59	27	0	848822272	42	5907
2026-01-10 03:59:42.38	308.98	15.25	-33.7	-34.9	29.7	3.03e+01	49	27	0	854589440	42	6011
2026-01-10 03:59:45.40	309.60	15.06	-33.5	-34.7	29.9	3.03e+01	46	27	0	859832320	42	5886
2026-01-10 03:59:48.43	310.22	14.86	-33.5	-34.7	29.8	3.03e+01	58	27	0	865599488	42	5924
2026-01-10 03:59:51.46	310.83	14.66	-33.6	-34.8	29.8	3.03e+01	59	27	0	871366656	42	5966
2026-01-10 03:59:54.49	311.42	14.46	-33.4	-34.6	29.9	3.03e+01	60	27	0	877133824	42	5840
2026-01-10 03:59:57.51	312.01	14.26	-33.7	-34.9	29.7	3.03e+01	56	27	0	882900992	42	6035
2026-01-10 04:00:00.54	312.59	14.06	-33.7	-34.9	29.7	3.03e+01	61	27	0	888143872	42	6002
2026-01-10 04:00:03.56	313.17	13.86	-33.6	-34.8	29.7	3.03e+01	47	27	0	893911040	42	5976
2026-01-10 04:00:06.59	313.73	13.66	-33.6	-34.8	29.8	3.03e+01	48	27	0	899678208	42	5942
2026-01-10 04:00:09.62	314.29	13.45	-33.7	-34.9	29.6	3.03e+01	57	27	0	905445376	42	6039
2026-01-10 04:00:12.65	314.84	13.25	-33.6	-34.8	29.7	3.03e+01	57	27	0	911212544	42	5990
2026-01-10 04:00:15.68	315.38	13.05	-33.8	-35.0	29.6	3.03e+01	60	27	0	916979712	42	6091
2026-01-10 04:00:18.70	315.91	12.84	-33.8	-35.0	29.5	3.03e+01	59	27	0	922222592	42	6092
2026-01-10 04:00:21.73	316.44	12.64	-33.9	-35.1	29.4	3.03e+01	61	27	0	927989760	42	6142
2026-01-10 04:00:24.76	316.96	12.43	-33.9	-35.1	29.5	3.03e+01	55	27	0	933756928	42	6155
2026-01-10 04:00:27.79	317.47	12.23	-33.9	-35.1	29.4	3.03e+01	60	27	0	939524096	42	6205
2026-01-10 04:00:30.82	317.97	12.02	-34.1	-35.3	29.2	3.03e+01	58	27	0	945291264	42	6317
2026-01-10 04:00:33.84	318.47	11.82	-33.9	-35.1	29.3	3.03e+01	61	27	0	951058432	42	6202
2026-01-10 04:00:36.87	318.96	11.62	-33.9	-35.1	29.4	3.03e+01	60	27	0	956301312	42	6170
2026-01-10 04:00:39.90	319.44	11.41	-34.2	-35.4	29.2	3.03e+01	57	27	0	962068480	42	6396
2026-01-10 04:00:42.92	319.91	11.21	-34.2	-35.4	29.1	3.03e+01	59	27	0	967835648	42	6412
2026-01-10 04:00:45.95	320.38	11.00	-34.2	-35.5	29.0	3.03e+01	60	27	0	973602816	42	6438
2026-01-10 04:00:48.98	320.84	10.80	-34.3	-35.5	29.0	3.03e+01	56	27	0	979369984	42	6460
2026-01-10 04:00:52.01	321.30	10.60	-34.3	-35.5	29.0	3.03e+01	50	27	0	984612864	42	6476
2026-01-10 04:00:55.03	321.74	10.40	-34.4	-35.7	28.8	3.03e+01	61	27	0	990380032	42	6586
2026-01-10 04:00:58.06	322.19	10.19	-34.3	-35.5	29.0	3.03e+01	59	27	0	996147200	42	6478
2026-01-10 04:01:01.09	322.62	9.99	-34.4	-35.7	28.9	3.03e+01	61	27	0	1001914368	42	6594
2026-01-10 04:01:04.12	323.05	9.79	-34.4	-35.6	28.8	3.03e+01	59	26	0	1007681536	42	6572
2026-01-10 04:01:07.14	323.47	9.59	-34.5	-35.8	28.7	3.03e+01	60	26	0	1013448704	42	6656
2026-01-10 04:01:10.17	323.89	9.39	-34.7	-35.9	28.5	3.03e+01	47	27	0	1019215872	42	6785
2026-01-10 04:01:13.20	324.30	9.19	-34.5	-35.8	28.6	3.03e+01	47	26	0	1024458752	42	6673
2026-01-10 04:01:16.23	324.71	8.99	-34.6	-35.9	28.5	3.03e+01	59	26	0	1030225920	42	6749
2026-01-10 04:01:19.25	325.11	8.79	-34.7	-36.0	28.5	3.03e+01	59	27	0	1035993088	42	6807
2026-01-10 04:01:22.28	325.50	8.60	-34.9	-36.2	28.3	3.03e+01	59	26	0	1041760256	42	6984
2026-01-10 04:01:25.31	325.89	8.40	-35.0	-36.2	28.2	3.03e+01	58	26	0	1047527424	44	6268
2026-01-10 04:01:28.34	326.27	8.20	-34.8	-36.1	28.2	3.03e+01	57	27	0	1052770304	44	6151
2026-01-10 04:01:31.37	326.65	8.01	-35.0	-36.3	28.2	3.03e+01	55	26	0	1058537472	44	6308
2026-01-10 04:01:34.39	327.02	7.81	-35.1	-36.4	28.0	3.03e+01	52	27	0	1064304640	44	6379
2026-01-10 04:01:37.42	327.39	7.62	-35.1	-36.4	27.9	3.03e+01	47	26	0	1070071808	44	6416
2026-01-10 04:01:40.44	327.75	7.43	-35.0	-36.3	28.0	3.03e+01	61	26	0	1075838976	44	6334
2026-01-10 04:01:43.47	328.11	7.23	-35.0	-36.3	28.0	3.03e+01	63	26	0	1081606144	44	6333
2026-01-10 04:01:46.50	328.46	7.04	-35.2	-36.5	27.8	3.03e+01	59	26	0	1086849024	44	6458
2026-01-10 04:01:49.53	328.81	6.85	-35.1	-36.5	27.9	3.03e+01	62	26	0	1092616192	44	6426
2026-01-10 04:01:52.56	329.15	6.66	-35.5	-36.8	27.5	3.03e+01	58	26	0	1098383360	44	6677
2026-01-10 04:01:55.59	329.49	6.47	-35.4	-36.8	27.5	3.03e+01	48	26	0	1104150528	44	6650
2026-01-10 04:01:58.61	329.82	6.28	-35.6	-37.0	27.4	3.03e+01	52	26	0	1109917696	44	6818
2026-01-10 04:02:01.64	330.15	6.09	-36.3	-46.5	3.6	3.03e+01	0	26	104	1114636288	46	18294
2026-01-10 04:02:04.67	330.48	5.91	-36.3	-46.6	3.6	3.03e+01	0	27	104	1114636288	46	18361
2026-01-10 04:02:07.69	330.80	5.72	-45.1	-58.5	3.6	3.03e+01	0	27	104	1114636288	60	32402
2026-01-10 04:02:10.71	331.11	5.54	-37.8	-48.1	3.4	3.03e+01	0	26	104	1114636288	50	17436
2026-01-10 04:02:13.74	331.43	5.35	-36.4	-46.7	3.4	3.03e+01	0	26	104	1114636288	48	16549
2026-01-10 04:02:16.77	331.74	5.17	-46.1	-62.3	3.4	3.03e+01	0	26	104	1114636288	60	50064
2026-01-10 04:02:19.80	332.04	4.98	-39.2	-49.7	4.0	3.03e+01	0	26	104	1114636288	52	18603
2026-01-10 04:02:22.83	332.34	4.80	-39.0	-49.8	3.5	3.03e+01	0	26	104	1114636288	54	16818
2026-01-10 04:02:25.86	332.64	4.62	-42.3	-56.6	3.5	3.03e+01	0	27	104	1114636288	60	25930
2026-01-10 04:02:28.89	332.93	4.44	-41.7	-54.5	3.5	3.03e+01	0	26	104	1114636288	58	23038
2026-01-10 04:02:31.92	333.22	4.26	-42.7	-58.3	3.5	3.03e+01	0	27	104	1114636288	58	35487
2026-01-10 04:02:34.94	333.50	4.08	-43.2	-61.0	3.5	3.03e+01	0	27	104	1114636288	60	43380
2026-01-10 04:02:37.97	333.78	3.90	-43.2	-60.4	3.5	3.03e+01	0	27	104	1114636288	60	40168
2026-01-10 04:02:41.00	334.06	3.73	-43.2	-60.9	3.5	3.03e+01	0	27	104	1114636288	60	42848
2026-01-10 04:02:44.02	334.34	3.55	-43.2	-61.1	3.5	3.03e+01	0	27	104	1114636288	60	43528
2026-01-10 04:02:47.05	334.61	3.37	-43.2	-61.1	3.5	3.03e+01	0	27	104	1114636288	60	43738
2026-01-10 04:02:50.08	334.88	3.20	-43.1	-61.0	3.5	3.03e+01	0	27	104	1114636288	60	43226
2026-01-10 04:02:53.11	335.14	3.02	-43.2	-61.1	3.5	3.03e+01	0	27	104	1114636288	60	43587
2026-01-10 04:02:56.14	335.40	2.85	-47.8	-65.8	3.5	3.03e+01	0	27	104	1114636288	60	75027
2026-01-10 04:02:59.17	335.66	2.68	-48.2	-66.2	3.5	3.03e+01	0	27	104	1114636288	60	78282
2026-01-10 04:03:02.18	335.91	2.51	-48.1	-66.3	3.5	3.03e+01	0	27	104	1114636288	60	79855
2026-01-10 04:03:05.22	336.17	2.33	-48.3	-66.2	3.5	3.03e+01	0	27	104	1114636288	60	78806
2026-01-10 04:03:08.24	336.42	2.16	-47.5	-66.2	3.5	3.03e+01	0	27	104	1114636288	60	78223
2026-01-10 04:03:11.27	336.66	1.99	-48.4	-66.2	3.5	3.03e+01	0	27	104	1114636288	60	78766
2026-01-10 04:03:14.30	336.91	1.82	-48.3	-66.1	3.5	3.03e+01	0	27	104	1114636288	60	77843
2026-01-10 04:03:17.32	337.15	1.66	-48.3	-66.2	3.5	3.03e+01	0	27	104	1114636288	60	78710
2026-01-10 04:03:20.35	337.38	1.49	-48.3	-66.2	3.5	3.03e+01	0	27	104	1114636288	60	78187
2026-01-10 04:03:23.38	337.62	1.32	-48.3	-66.2	3.5	3.03e+01	0	27	104	1114636288	60	78855
2026-01-10 04:03:26.41	337.85	1.16	-48.3	-66.2	3.5	3.03e+01	0	27	104	1114636288	60	78198
2026-01-10 04:03:29.43	338.08	0.99	-48.3	-66.2	3.5	3.03e+01	0	27	104	1114636288	60	78166
2026-01-10 04:03:32.46	338.31	0.83	-48.3	-66.2	3.5	3.03e+01	0	27	104	1114636288	60	78252
2026-01-10 04:03:35.49	338.53	0.66	-48.3	-66.1	3.5	3.03e+01	0	27	104	1114636288	60	78081
2026-01-10 04:03:38.52	338.75	0.50	-48.3	-66.1	3.5	3.03e+01	0	27	104	1114636288	60	77737
2026-01-10 04:03:41.55	338.97	0.34	-48.3	-66.2	3.5	3.03e+01	0	27	104	1114636288	60	78400
2026-01-10 04:03:44.58	339.19	0.17	-48.3	-66.1	3.5	3.03e+01	0	27	104	1114636288	60	78050
2026-01-10 04:03:47.61	339.41	0.01	-48.3	-66.2	3.5	3.03e+01	0	27	104	1114636288	60	78144

#Closed at: 2026-01-10 04:03:50
#Recorded file [1114 MB]: D:/lorett/data/35029_260110_155116.dat