passes_logs/2026/01/10/R4.6S_Anadyr/R4.6S_Anadyr__20260110_131827_NOAA_20_JPSS-1_rec.log

#Pass ID: 20260110_131827_NOAA 20 (JPSS-1)
#Satellite: NOAA 20 (JPSS-1)
#Configuration: NOAA 20
#almurnet v.1.7.20251203
#Start time: 2026-01-10 13:18:30

#Version: 2.2.20231116
#Station: R4.6S_Anadyr
#Location: 177.4865 lon 64.73178 lat
#TLE: 1 43013U 17073A   26009.69119415  .00000109  00000+0  72598-4 0  9996
#TLE: 2 43013  98.7631 310.6868 0001678  46.7442 313.3874 14.19534878421981

#Time	Az	El	Level	Level2	SNR	BER	BlckErr	Temp	State	Recorded	gain1	gain2
2026-01-10 13:18:30.12	18.89	0.17	-48.3	-62.1	3.3	1.54e+00	0	28	0	0	60	46117
2026-01-10 13:18:34.15	19.08	0.39	-48.2	-63.5	3.6	1.51e+00	0	28	104	0	60	53791
2026-01-10 13:18:38.19	19.28	0.62	-47.9	-63.1	3.6	1.51e+00	0	28	104	0	60	51544
2026-01-10 13:18:42.23	19.47	0.85	-46.9	-62.1	3.6	1.51e+00	0	28	104	0	60	46088
2026-01-10 13:18:46.27	19.67	1.08	-46.6	-61.8	3.6	1.51e+00	0	28	104	0	60	44373
2026-01-10 13:18:50.31	19.87	1.31	-46.6	-61.8	3.6	1.51e+00	0	28	104	0	60	44655
2026-01-10 13:18:54.35	20.07	1.55	-46.6	-61.7	3.6	1.51e+00	0	28	104	0	60	44084
2026-01-10 13:18:58.39	20.28	1.78	-46.6	-61.7	3.6	1.51e+00	0	29	104	0	60	43927
2026-01-10 13:19:02.43	20.49	2.02	-46.6	-61.8	3.6	1.51e+00	0	28	104	0	60	44319
2026-01-10 13:19:06.47	20.70	2.26	-46.6	-61.2	3.6	1.51e+00	0	29	104	0	60	41636
2026-01-10 13:19:10.51	20.92	2.50	-46.6	-61.7	3.6	1.51e+00	0	29	104	0	60	43885
2026-01-10 13:19:14.55	21.14	2.74	-45.0	-50.0	10.5	1.35e-02	38	29	0	2097152	60	11427
2026-01-10 13:19:18.59	21.36	2.99	-41.9	-44.1	16.8	0.00e+00	6	29	0	10485760	58	6471
2026-01-10 13:19:22.63	21.58	3.23	-42.4	-44.9	15.9	0.00e+00	5	29	0	17825792	56	7969
2026-01-10 13:19:26.67	21.81	3.48	-46.2	-56.3	4.3	0.00e+00	90	29	0	25165824	60	23518
2026-01-10 13:19:30.71	22.04	3.73	-44.7	-49.3	5.6	1.50e+00	0	29	104	26214400	60	10486
2026-01-10 13:19:34.75	22.28	3.98	-43.3	-46.1	15.0	0.00e+00	40	29	0	31457280	60	7318
2026-01-10 13:19:38.78	22.52	4.23	-41.2	-42.9	18.1	0.00e+00	0	29	0	38797312	56	6389
2026-01-10 13:19:42.82	22.76	4.49	-40.8	-42.5	18.5	0.00e+00	92	29	0	47185920	56	6060
2026-01-10 13:19:46.86	23.01	4.75	-40.6	-42.2	18.9	0.00e+00	0	29	0	54525952	54	6568
2026-01-10 13:19:50.90	23.26	5.01	-40.8	-42.4	18.7	0.00e+00	39	29	0	61865984	54	6755
2026-01-10 13:19:54.94	23.52	5.27	-40.4	-41.9	19.2	0.00e+00	4	29	0	69206016	54	6370
2026-01-10 13:19:58.97	23.78	5.53	-40.2	-41.7	19.5	0.00e+00	92	29	0	76546048	54	6220
2026-01-10 13:20:03.01	24.04	5.80	-40.1	-41.6	19.6	0.00e+00	2	29	0	84934656	54	6123
2026-01-10 13:20:07.05	24.31	6.07	-39.8	-41.2	20.0	0.00e+00	0	29	0	92274688	54	5848
2026-01-10 13:20:11.09	24.59	6.34	-39.8	-41.1	20.2	0.00e+00	0	29	0	99614720	52	6510
2026-01-10 13:20:15.12	24.86	6.61	-39.8	-41.2	20.1	0.00e+00	91	29	0	106954752	52	6556
2026-01-10 13:20:19.16	25.15	6.89	-39.7	-41.0	20.3	0.00e+00	0	29	0	115343360	52	6460
2026-01-10 13:20:23.20	25.44	7.17	-39.6	-40.9	20.4	0.00e+00	2	29	0	122683392	52	6364
2026-01-10 13:20:27.24	25.73	7.45	-39.1	-40.3	21.0	0.00e+00	0	29	0	130023424	52	5957
2026-01-10 13:20:31.28	26.03	7.73	-38.9	-40.0	21.3	0.00e+00	92	29	0	137363456	52	5731
2026-01-10 13:20:35.31	26.33	8.02	-38.6	-39.7	21.6	0.00e+00	0	29	0	144703488	50	6235
2026-01-10 13:20:39.35	26.65	8.31	-38.5	-39.6	21.7	0.00e+00	40	29	0	153092096	50	6136
2026-01-10 13:20:43.39	26.96	8.60	-38.3	-39.4	22.0	0.00e+00	18	29	0	160432128	50	5969
2026-01-10 13:20:47.42	27.28	8.89	-38.0	-39.1	22.2	0.00e+00	90	29	0	167772160	50	5776
2026-01-10 13:20:51.46	27.61	9.19	-37.8	-38.8	22.5	0.00e+00	5	29	0	175112192	50	5594
2026-01-10 13:20:55.50	27.95	9.49	-37.8	-38.8	22.6	0.00e+00	42	29	0	183500800	48	6252
2026-01-10 13:20:59.54	28.29	9.79	-37.9	-38.9	22.5	0.00e+00	83	29	0	190840832	48	6339
2026-01-10 13:21:03.58	28.64	10.10	-37.8	-38.8	22.6	0.00e+00	46	29	0	198180864	48	6256
2026-01-10 13:21:07.62	28.99	10.40	-37.6	-38.5	22.9	0.00e+00	53	29	0	205520896	48	6103
2026-01-10 13:21:11.65	29.35	10.71	-37.6	-38.5	22.9	0.00e+00	7	29	0	212860928	48	6087
2026-01-10 13:21:15.69	29.72	11.03	-37.5	-38.5	22.9	0.00e+00	92	29	0	221249536	48	6044
2026-01-10 13:21:19.73	30.10	11.34	-37.3	-38.2	23.2	0.00e+00	40	29	0	228589568	48	5866
2026-01-10 13:21:23.77	30.49	11.67	-37.2	-38.2	23.3	0.00e+00	46	29	0	235929600	48	5847
2026-01-10 13:21:27.81	30.88	11.99	-37.2	-38.1	23.3	0.00e+00	37	29	0	243269632	48	5819
2026-01-10 13:21:31.84	31.28	12.31	-36.9	-37.8	23.5	0.00e+00	90	29	0	251658240	48	5620
2026-01-10 13:21:35.88	31.69	12.64	-36.9	-37.8	23.6	0.00e+00	42	29	0	258998272	48	5570
2026-01-10 13:21:39.92	32.11	12.98	-36.9	-37.8	23.6	0.00e+00	37	30	0	266338304	48	5625
2026-01-10 13:21:43.96	32.54	13.31	-37.0	-37.9	23.5	0.00e+00	38	29	0	273678336	48	5686
2026-01-10 13:21:48.00	32.98	13.65	-37.1	-38.0	23.5	0.00e+00	92	29	0	281018368	48	5746
2026-01-10 13:21:52.04	33.42	13.99	-37.3	-38.2	23.4	0.00e+00	0	29	0	289406976	48	5856
2026-01-10 13:21:56.07	33.88	14.34	-37.4	-38.4	23.2	0.00e+00	0	29	0	296747008	48	5972
2026-01-10 13:22:00.11	34.35	14.69	-37.6	-38.5	23.1	0.00e+00	0	29	0	304087040	48	6098
2026-01-10 13:22:04.15	34.83	15.04	-37.5	-38.4	23.1	0.00e+00	90	29	0	311427072	48	6031
2026-01-10 13:22:08.19	35.32	15.40	-37.5	-38.4	23.2	0.00e+00	36	30	0	319815680	48	6024
2026-01-10 13:22:12.22	35.82	15.76	-37.6	-38.5	23.0	0.00e+00	38	29	0	327155712	48	6068
2026-01-10 13:22:16.26	36.33	16.12	-37.7	-38.7	22.9	0.00e+00	2	29	0	334495744	48	6207
2026-01-10 13:22:20.30	36.85	16.48	-37.9	-38.9	22.7	0.00e+00	81	30	0	341835776	48	6360
2026-01-10 13:22:24.34	37.39	16.85	-37.9	-38.8	22.8	0.00e+00	44	29	0	349175808	48	6317
2026-01-10 13:22:28.38	37.94	17.23	-38.0	-39.0	22.8	0.00e+00	38	29	0	357564416	48	6393
2026-01-10 13:22:32.42	38.50	17.60	-37.9	-38.8	22.9	0.00e+00	31	30	0	364904448	48	6317
2026-01-10 13:22:36.45	39.08	17.98	-37.6	-38.5	23.2	0.00e+00	13	30	0	372244480	48	6077
2026-01-10 13:22:40.49	39.67	18.36	-37.5	-38.5	23.3	0.00e+00	45	30	0	379584512	48	6047
2026-01-10 13:22:44.53	40.28	18.75	-37.6	-38.5	23.2	0.00e+00	43	30	0	386924544	48	6067
2026-01-10 13:22:48.57	40.90	19.13	-37.4	-38.3	23.3	0.00e+00	92	30	0	395313152	48	5931
2026-01-10 13:22:52.61	41.54	19.53	-37.4	-38.3	23.5	0.00e+00	47	29	0	402653184	48	5948
2026-01-10 13:22:56.65	42.19	19.92	-37.5	-38.4	23.4	0.00e+00	6	30	0	409993216	48	5998
2026-01-10 13:23:00.69	42.86	20.31	-36.9	-37.7	23.9	0.00e+00	45	29	0	417333248	48	5559
2026-01-10 13:23:04.73	43.54	20.71	-36.8	-37.7	24.0	0.00e+00	92	30	0	425721856	46	6180
2026-01-10 13:23:08.77	44.25	21.11	-36.8	-37.7	24.1	0.00e+00	36	30	0	433061888	46	6176
2026-01-10 13:23:12.80	44.97	21.52	-36.3	-37.1	24.5	0.00e+00	0	30	0	440401920	46	5828
2026-01-10 13:23:16.84	45.71	21.92	-36.1	-36.9	24.7	0.00e+00	0	30	0	447741952	46	5693
2026-01-10 13:23:20.88	46.47	22.33	-35.8	-36.6	25.1	0.00e+00	92	30	0	456130560	46	5477
2026-01-10 13:23:24.92	47.25	22.73	-35.1	-35.9	25.5	0.00e+00	46	30	0	463470592	44	5670
2026-01-10 13:23:28.96	48.05	23.14	-35.3	-36.0	25.3	0.00e+00	37	30	0	470810624	44	5748
2026-01-10 13:23:33.00	48.87	23.55	-35.6	-36.4	25.1	0.00e+00	0	30	0	478150656	44	6015
2026-01-10 13:23:37.04	49.71	23.96	-35.5	-36.3	25.2	0.00e+00	92	30	0	485490688	44	5904
2026-01-10 13:23:41.08	50.57	24.37	-36.0	-36.8	24.7	0.00e+00	0	30	0	493879296	44	6293
2026-01-10 13:23:45.12	51.46	24.78	-35.9	-36.7	24.9	0.00e+00	0	30	0	501219328	44	6187
2026-01-10 13:23:49.16	52.37	25.19	-36.2	-37.0	24.5	0.00e+00	23	30	0	508559360	44	6423
2026-01-10 13:23:53.20	53.30	25.60	-36.2	-37.1	24.5	0.00e+00	92	30	0	515899392	44	6475
2026-01-10 13:23:57.24	54.25	26.01	-36.5	-37.4	24.3	0.00e+00	0	30	0	524288000	44	6719
2026-01-10 13:24:01.28	55.23	26.41	-37.2	-38.1	23.6	0.00e+00	0	30	0	531628032	46	6501
2026-01-10 13:24:05.32	56.24	26.81	-37.3	-38.2	23.6	0.00e+00	4	30	0	538968064	46	6563
2026-01-10 13:24:09.36	57.27	27.21	-37.3	-38.2	23.7	0.00e+00	48	30	0	546308096	46	6569
2026-01-10 13:24:13.40	58.32	27.60	-37.7	-38.6	23.3	0.00e+00	6	30	0	553648128	46	6914
2026-01-10 13:24:17.43	59.40	27.99	-39.0	-40.0	22.1	0.00e+00	7	30	0	562036736	50	6433
2026-01-10 13:24:21.47	60.50	28.37	-39.5	-40.7	21.4	0.00e+00	90	30	0	569376768	50	6950
2026-01-10 13:24:25.51	61.64	28.75	-40.5	-41.8	20.2	0.00e+00	5	30	0	576716800	52	7075
2026-01-10 13:24:29.55	62.80	29.12	-40.3	-41.6	20.6	0.00e+00	45	30	0	584056832	52	6857
2026-01-10 13:24:33.59	63.98	29.48	-40.5	-41.8	20.4	0.00e+00	0	30	0	592445440	52	7024
2026-01-10 13:24:37.63	65.19	29.83	-40.4	-41.7	20.5	0.00e+00	92	30	0	599785472	54	6227
2026-01-10 13:24:41.67	66.43	30.17	-39.5	-40.6	21.6	0.00e+00	6	30	0	607125504	52	6170
2026-01-10 13:24:45.71	67.69	30.50	-39.4	-40.5	21.6	0.00e+00	39	30	0	614465536	52	6100
2026-01-10 13:24:49.75	68.98	30.82	-39.3	-40.4	21.7	0.00e+00	36	30	0	621805568	52	6033
2026-01-10 13:24:53.79	70.29	31.13	-38.6	-39.6	22.4	0.00e+00	91	30	0	630194176	50	6150
2026-01-10 13:24:57.83	71.63	31.43	-40.5	-41.8	20.4	0.00e+00	35	30	0	637534208	52	7016
2026-01-10 13:25:01.86	72.99	31.71	-40.2	-41.4	20.8	0.00e+00	0	30	0	644874240	54	6032
2026-01-10 13:25:05.90	74.37	31.97	-38.9	-40.0	22.1	0.00e+00	0	30	0	652214272	52	5710
2026-01-10 13:25:09.94	75.77	32.22	-39.4	-40.6	21.5	0.00e+00	91	30	0	660602880	52	6127
2026-01-10 13:25:13.98	77.20	32.45	-39.3	-40.4	21.6	0.00e+00	35	30	0	667942912	52	5991
2026-01-10 13:25:18.01	78.64	32.67	-39.7	-40.8	21.2	0.00e+00	41	30	0	675282944	52	6292
2026-01-10 13:25:22.05	80.11	32.86	-39.6	-40.7	21.4	0.00e+00	0	30	0	682622976	52	6236
2026-01-10 13:25:26.09	81.59	33.04	-38.9	-40.0	22.0	0.00e+00	92	30	0	689963008	52	5709
2026-01-10 13:25:30.13	83.08	33.20	-39.7	-40.9	21.3	0.00e+00	0	30	0	698351616	52	6323
2026-01-10 13:25:34.17	84.59	33.33	-39.6	-40.7	21.5	0.00e+00	48	30	0	705691648	52	6235
2026-01-10 13:25:38.21	86.11	33.45	-40.3	-41.6	20.5	0.00e+00	10	30	0	713031680	52	6882
2026-01-10 13:25:42.25	87.65	33.54	-39.4	-40.5	21.5	0.00e+00	58	30	0	720371712	52	6080
2026-01-10 13:25:46.29	89.18	33.61	-39.3	-40.5	21.6	0.00e+00	0	30	0	728760320	52	6048
2026-01-10 13:25:50.32	90.72	33.66	-39.7	-40.8	21.3	0.00e+00	0	30	0	736100352	52	6302
2026-01-10 13:25:54.36	92.27	33.68	-39.0	-40.1	21.9	0.00e+00	90	30	0	743440384	52	5789
2026-01-10 13:25:58.39	93.82	33.68	-39.1	-40.3	21.8	0.00e+00	6	30	0	750780416	52	5897
2026-01-10 13:26:02.43	95.36	33.66	-38.2	-39.2	22.7	0.00e+00	0	30	0	758120448	50	5874
2026-01-10 13:26:06.47	96.91	33.62	-39.3	-40.4	21.6	0.00e+00	0	30	0	766509056	50	6744
2026-01-10 13:26:10.51	98.45	33.55	-39.8	-41.0	21.0	0.00e+00	92	30	0	773849088	52	6403
2026-01-10 13:26:14.54	99.98	33.46	-40.1	-41.4	20.8	0.00e+00	42	30	0	781189120	52	6739
2026-01-10 13:26:18.58	101.50	33.35	-39.4	-40.6	21.4	0.00e+00	6	30	0	788529152	52	6135
2026-01-10 13:26:22.62	103.02	33.22	-39.9	-41.1	21.0	0.00e+00	4	30	0	795869184	52	6513
2026-01-10 13:26:26.66	104.52	33.07	-40.5	-41.8	20.4	0.00e+00	90	30	0	804257792	52	7037
2026-01-10 13:26:30.70	106.00	32.90	-40.4	-41.7	20.6	0.00e+00	45	30	0	811597824	54	6220
2026-01-10 13:26:34.74	107.47	32.70	-39.5	-40.8	21.2	0.00e+00	46	30	0	818937856	52	6263
2026-01-10 13:26:38.77	108.92	32.49	-39.7	-40.9	21.3	0.00e+00	36	30	0	826277888	52	6337
2026-01-10 13:26:42.81	110.35	32.26	-40.1	-41.3	20.8	0.00e+00	92	30	0	834666496	52	6680
2026-01-10 13:26:46.85	111.77	32.02	-39.0	-40.0	22.1	0.00e+00	0	30	0	842006528	52	5736
2026-01-10 13:26:50.89	113.16	31.75	-38.9	-40.0	22.0	0.00e+00	0	30	0	849346560	52	5732
2026-01-10 13:26:54.93	114.52	31.47	-39.9	-41.1	21.0	0.00e+00	0	30	0	856686592	52	6499
2026-01-10 13:26:58.97	115.87	31.18	-39.5	-40.6	21.5	0.00e+00	90	30	0	864026624	52	6146
2026-01-10 13:27:03.00	117.19	30.87	-39.4	-40.5	21.5	0.00e+00	0	30	0	872415232	52	6067
2026-01-10 13:27:07.04	118.48	30.55	-39.0	-40.1	21.9	0.00e+00	0	30	0	879755264	52	5786
2026-01-10 13:27:11.08	119.75	30.22	-39.7	-40.8	21.2	0.00e+00	2	30	0	887095296	52	6316
2026-01-10 13:27:15.12	121.00	29.88	-39.5	-40.7	21.4	0.00e+00	92	30	0	894435328	52	6204
2026-01-10 13:27:19.16	122.21	29.53	-38.3	-39.2	22.7	0.00e+00	43	30	0	902823936	50	5891
2026-01-10 13:27:23.20	123.41	29.17	-38.9	-39.9	22.2	0.00e+00	0	30	0	910163968	50	6382
2026-01-10 13:27:27.24	124.57	28.80	-39.4	-40.5	21.6	0.00e+00	90	30	0	917504000	50	6822
2026-01-10 13:27:31.27	125.71	28.42	-38.5	-39.5	22.5	0.00e+00	0	30	0	924844032	50	6051
2026-01-10 13:27:35.31	126.82	28.04	-39.4	-40.6	21.5	0.00e+00	0	30	0	932184064	52	6136
2026-01-10 13:27:39.35	127.91	27.65	-38.2	-39.2	22.8	0.00e+00	0	30	0	940572672	50	5840
2026-01-10 13:27:43.39	128.97	27.25	-39.2	-40.3	21.7	0.00e+00	92	30	0	947912704	52	5928
2026-01-10 13:27:47.42	130.01	26.85	-38.6	-39.6	22.3	0.00e+00	5	30	0	955252736	50	6171
2026-01-10 13:27:51.46	131.02	26.45	-38.8	-39.9	22.1	0.00e+00	0	30	0	962592768	50	6344
2026-01-10 13:27:55.50	132.01	26.05	-39.2	-40.3	21.6	0.00e+00	0	30	0	970981376	50	6629
2026-01-10 13:27:59.54	132.97	25.64	-37.2	-38.1	23.6	0.00e+00	92	30	0	978321408	48	5818
2026-01-10 13:28:03.58	133.91	25.23	-37.6	-38.5	23.0	0.00e+00	46	30	0	985661440	46	6845
2026-01-10 13:28:07.61	134.82	24.82	-37.2	-38.1	23.6	0.00e+00	7	30	0	993001472	48	5794
2026-01-10 13:28:11.65	135.71	24.41	-37.4	-38.3	23.5	0.00e+00	0	30	0	1000341504	46	6661
2026-01-10 13:28:15.69	136.58	23.99	-37.3	-38.3	23.5	0.00e+00	90	30	0	1008730112	48	5897
2026-01-10 13:28:19.73	137.43	23.58	-36.2	-37.0	24.6	0.00e+00	37	30	0	1016070144	46	5712
2026-01-10 13:28:23.77	138.25	23.17	-35.8	-36.6	24.9	0.00e+00	44	30	0	1023410176	46	5492
2026-01-10 13:28:27.81	139.06	22.76	-35.7	-36.5	25.0	0.00e+00	38	30	0	1030750208	44	6092
2026-01-10 13:28:31.85	139.84	22.35	-35.9	-36.7	24.8	0.00e+00	92	30	0	1039138816	44	6226
2026-01-10 13:28:35.89	140.61	21.94	-35.3	-36.0	25.3	0.00e+00	0	30	0	1046478848	44	5758
2026-01-10 13:28:39.94	141.35	21.53	-35.5	-36.3	25.0	0.00e+00	40	30	0	1053818880	44	5938
2026-01-10 13:28:43.97	142.08	21.12	-35.4	-36.2	25.2	0.00e+00	7	30	0	1061158912	44	5846
2026-01-10 13:28:48.00	142.79	20.72	-35.1	-35.8	25.4	0.00e+00	90	30	0	1068498944	44	5607
2026-01-10 13:28:52.04	143.48	20.32	-36.1	-36.9	24.6	0.00e+00	0	30	0	1076887552	44	6344
2026-01-10 13:28:56.08	144.15	19.92	-36.0	-36.9	24.5	0.00e+00	42	30	0	1084227584	44	6339
2026-01-10 13:29:00.12	144.81	19.52	-35.7	-36.5	24.9	0.00e+00	0	30	0	1091567616	44	6039
2026-01-10 13:29:04.16	145.45	19.13	-36.1	-36.9	24.6	0.00e+00	39	30	0	1098907648	44	6363
2026-01-10 13:29:08.20	146.07	18.74	-36.2	-37.0	24.4	0.00e+00	0	30	0	1107296256	44	6449
2026-01-10 13:29:12.24	146.68	18.35	-36.4	-37.2	24.1	0.00e+00	0	30	0	1114636288	44	6609
2026-01-10 13:29:16.28	147.28	17.97	-36.5	-37.3	24.1	0.00e+00	92	30	0	1121976320	44	6676
2026-01-10 13:29:20.32	147.86	17.58	-36.9	-37.8	23.8	0.00e+00	0	30	0	1129316352	46	6254
2026-01-10 13:29:24.36	148.42	17.21	-38.1	-39.1	22.6	0.00e+00	44	31	0	1136656384	48	6529
2026-01-10 13:29:28.40	148.97	16.83	-37.8	-38.8	22.9	0.00e+00	5	30	0	1145044992	48	6250
2026-01-10 13:29:32.44	149.51	16.46	-37.4	-38.3	23.3	0.00e+00	92	30	0	1152385024	48	5940
2026-01-10 13:29:36.48	150.04	16.09	-37.9	-38.8	22.8	0.00e+00	0	30	0	1159725056	48	6311
2026-01-10 13:29:40.52	150.56	15.72	-38.1	-39.1	22.5	0.00e+00	38	30	0	1167065088	48	6522
2026-01-10 13:29:44.56	151.06	15.36	-37.2	-38.2	23.2	0.00e+00	48	31	0	1175453696	48	5839
2026-01-10 13:29:48.60	151.55	15.00	-37.2	-38.1	23.4	0.00e+00	92	31	0	1182793728	48	5816
2026-01-10 13:29:52.64	152.03	14.65	-37.8	-38.8	22.7	0.00e+00	7	30	0	1190133760	48	6308
2026-01-10 13:29:56.67	152.50	14.30	-37.9	-38.9	22.7	0.00e+00	8	31	0	1197473792	48	6341
2026-01-10 13:30:00.71	152.96	13.95	-37.4	-38.4	23.1	0.00e+00	0	31	0	1204813824	48	5986
2026-01-10 13:30:04.75	153.40	13.60	-37.7	-38.7	22.5	0.00e+00	92	31	0	1213202432	48	6221
2026-01-10 13:30:08.79	153.84	13.26	-39.5	-40.8	19.9	0.00e+00	44	31	0	1220542464	50	7063
2026-01-10 13:30:12.83	154.27	12.92	-41.0	-43.0	17.6	0.00e+00	0	31	0	1227882496	54	7187
2026-01-10 13:30:16.87	154.69	12.59	-41.6	-43.7	16.9	0.00e+00	0	31	0	1235222528	54	7798
2026-01-10 13:30:20.91	155.10	12.25	-41.1	-43.0	17.7	0.00e+00	92	31	0	1243611136	54	7217
2026-01-10 13:30:24.94	155.50	11.93	-40.0	-41.5	19.5	0.00e+00	47	31	0	1250951168	54	6070
2026-01-10 13:30:28.98	155.90	11.60	-39.5	-40.8	20.5	0.00e+00	46	31	0	1258291200	52	6269
2026-01-10 13:30:33.02	156.28	11.28	-38.5	-39.6	21.7	0.00e+00	0	31	0	1265631232	50	6147
2026-01-10 13:30:37.06	156.66	10.96	-38.2	-39.3	22.2	0.00e+00	90	31	0	1272971264	50	5901
2026-01-10 13:30:41.09	157.03	10.64	-37.8	-38.8	22.5	0.00e+00	36	31	0	1281359872	48	6280
2026-01-10 13:30:45.14	157.39	10.33	-37.7	-38.6	22.7	0.00e+00	37	31	0	1288699904	48	6170
2026-01-10 13:30:49.17	157.74	10.02	-37.7	-38.7	22.7	0.00e+00	79	31	0	1296039936	48	6179
2026-01-10 13:30:53.21	158.09	9.71	-37.8	-38.8	22.5	0.00e+00	21	31	0	1303379968	48	6290
2026-01-10 13:30:57.25	158.43	9.41	-38.0	-39.0	22.3	0.00e+00	0	31	0	1311768576	48	6410
2026-01-10 13:31:01.28	158.76	9.11	-38.3	-39.4	21.9	0.00e+00	0	31	0	1319108608	48	6712
2026-01-10 13:31:05.32	159.09	8.81	-38.5	-39.6	21.7	0.00e+00	90	31	0	1326448640	48	6874
2026-01-10 13:31:09.36	159.41	8.51	-38.8	-39.9	21.5	0.00e+00	46	31	0	1333788672	48	7118
2026-01-10 13:31:13.40	159.73	8.22	-39.1	-40.2	21.1	0.00e+00	6	31	0	1341128704	50	6603
2026-01-10 13:31:17.44	160.04	7.93	-39.1	-40.3	21.1	0.00e+00	6	31	0	1349517312	50	6619
2026-01-10 13:31:21.47	160.34	7.64	-39.2	-40.4	20.9	0.00e+00	92	31	0	1356857344	50	6739
2026-01-10 13:31:25.51	160.64	7.35	-39.2	-40.4	20.9	0.00e+00	33	31	0	1364197376	50	6758
2026-01-10 13:31:29.56	160.93	7.07	-39.5	-40.8	20.5	0.00e+00	6	31	0	1371537408	50	7060
2026-01-10 13:31:33.60	161.22	6.79	-39.7	-41.0	20.2	0.00e+00	52	31	0	1379926016	52	6457
2026-01-10 13:31:37.64	161.50	6.51	-39.9	-41.2	20.0	0.00e+00	92	31	0	1387266048	52	6610
2026-01-10 13:31:41.68	161.78	6.24	-40.1	-41.5	19.7	0.00e+00	0	30	0	1394606080	52	6823
2026-01-10 13:31:45.72	162.05	5.96	-40.1	-41.5	19.7	0.00e+00	0	31	0	1401946112	52	6782
2026-01-10 13:31:49.76	162.32	5.69	-40.1	-41.6	19.6	0.00e+00	0	31	0	1409286144	52	6871
2026-01-10 13:31:53.79	162.58	5.43	-40.1	-41.6	19.5	0.00e+00	91	31	0	1417674752	52	6868
2026-01-10 13:31:57.83	162.84	5.16	-40.4	-41.9	19.2	0.00e+00	0	31	0	1425014784	52	7130
2026-01-10 13:32:01.88	163.09	4.89	-40.5	-42.1	19.0	0.00e+00	0	31	0	1432354816	52	7256
2026-01-10 13:32:05.91	163.34	4.63	-41.0	-42.7	18.3	0.00e+00	67	31	0	1439694848	54	6953
2026-01-10 13:32:09.95	163.59	4.37	-41.3	-43.1	18.0	0.00e+00	32	31	0	1448083456	54	7299
2026-01-10 13:32:13.99	163.83	4.12	-41.0	-42.8	18.1	0.00e+00	0	31	0	1455423488	54	7027
2026-01-10 13:32:18.04	164.06	3.86	-41.4	-43.3	17.5	0.00e+00	2	31	0	1462763520	54	7467
2026-01-10 13:32:22.07	164.30	3.61	-41.5	-43.5	17.4	0.00e+00	91	31	0	1470103552	56	6774
2026-01-10 13:32:26.11	164.53	3.35	-41.5	-43.5	17.2	0.00e+00	0	31	0	1477443584	56	6810
2026-01-10 13:32:30.15	164.75	3.10	-41.9	-44.1	16.7	0.00e+00	47	31	0	1485832192	56	7291
2026-01-10 13:32:34.19	164.98	2.86	-46.9	-62.2	3.6	1.51e+00	0	31	104	1487929344	60	46510
2026-01-10 13:32:38.22	165.19	2.61	-48.2	-63.4	3.6	1.51e+00	0	31	104	1487929344	60	53763
2026-01-10 13:32:42.26	165.41	2.37	-48.3	-63.5	3.6	1.51e+00	0	31	104	1487929344	60	53828
2026-01-10 13:32:46.30	165.62	2.13	-48.2	-63.4	3.6	1.51e+00	0	31	104	1487929344	60	53477
2026-01-10 13:32:50.34	165.83	1.88	-48.2	-63.4	3.6	1.51e+00	0	31	104	1487929344	60	53529
2026-01-10 13:32:54.38	166.04	1.65	-48.2	-63.4	3.6	1.51e+00	0	31	104	1487929344	60	53336
2026-01-10 13:32:58.42	166.24	1.41	-48.2	-63.4	3.6	1.51e+00	0	31	104	1487929344	60	53283
2026-01-10 13:33:02.46	166.44	1.17	-48.2	-63.3	3.5	1.51e+00	0	31	104	1487929344	60	53112
2026-01-10 13:33:06.50	166.64	0.94	-48.2	-63.4	3.6	1.51e+00	0	31	104	1487929344	60	53217
2026-01-10 13:33:10.54	166.83	0.71	-48.2	-63.4	3.6	1.51e+00	0	31	104	1487929344	60	53332
2026-01-10 13:33:14.58	167.02	0.48	-48.2	-63.4	3.5	1.51e+00	0	31	104	1487929344	60	53229
2026-01-10 13:33:18.62	167.21	0.25	-48.2	-63.4	3.6	1.51e+00	0	31	104	1487929344	60	53466
2026-01-10 13:33:22.66	167.40	0.02	-48.2	-63.3	3.6	1.51e+00	0	31	104	1487929344	60	53080

#Closed at: 2026-01-10 13:33:24
#Recorded file [1487 MB]: D:/lorett/data/35029_260111_011830.dat