passes_logs/2026/01/10/R4.6S_Anadyr/R4.6S_Anadyr__20260110_153436_AQUA_rec.log

#Pass ID: 20260110_153436_AQUA
#Satellite: AQUA
#Configuration: AQUA
#almurnet v.1.7.20251203
#Start time: 2026-01-10 15:34:37

#Version: 2.2.20231116
#Station: R4.6S_Anadyr
#Location: 177.4865 lon 64.73178 lat
#TLE: 1 27424U 02022A   26009.89520876  .00001045  00000+0  21914-3 0  9996
#TLE: 2 27424  98.4076 336.2372 0002032  84.5955   1.0356 14.61811442260144

#Time	Az	El	Level	Level2	SNR	BER	BlckErr	Temp	State	Recorded	gain1	gain2
2026-01-10 15:34:37.68	19.59	0.10	-48.1	-63.0	3.5	1.51e+00	0	27	0	0	60	51120
2026-01-10 15:34:41.72	19.72	0.34	-48.6	-66.5	3.5	3.02e+01	0	28	104	0	60	81492
2026-01-10 15:34:45.76	19.86	0.59	-48.7	-66.5	3.5	3.02e+01	0	28	104	0	60	81635
2026-01-10 15:34:49.80	19.99	0.83	-48.6	-66.4	3.5	3.02e+01	0	28	104	0	60	80500
2026-01-10 15:34:53.84	20.13	1.08	-48.0	-65.8	3.5	3.02e+01	0	28	104	0	60	75419
2026-01-10 15:34:57.88	20.28	1.33	-47.2	-65.0	3.5	3.02e+01	0	28	104	0	60	68095
2026-01-10 15:35:01.92	20.42	1.59	-47.2	-64.9	3.5	3.02e+01	0	28	104	0	60	67434
2026-01-10 15:35:05.96	20.57	1.84	-47.2	-64.8	3.5	3.02e+01	0	28	104	0	60	66968
2026-01-10 15:35:10.00	20.72	2.10	-47.1	-64.6	3.5	3.02e+01	0	28	104	0	60	65090
2026-01-10 15:35:14.04	20.87	2.36	-47.1	-64.8	3.5	3.02e+01	0	28	104	0	60	66942
2026-01-10 15:35:18.08	21.02	2.63	-47.0	-60.5	3.7	3.02e+01	0	28	104	0	60	40780
2026-01-10 15:35:22.12	21.18	2.89	-46.3	-54.1	10.0	3.02e+01	60	28	0	1048576	60	19419
2026-01-10 15:35:26.16	21.34	3.16	-40.5	-42.5	22.3	3.02e+01	49	28	0	8912896	56	6441
2026-01-10 15:35:30.20	21.50	3.43	-37.7	-39.3	25.0	3.02e+01	58	28	0	16252928	50	6304
2026-01-10 15:35:34.24	21.67	3.71	-41.7	-52.4	3.4	3.02e+01	0	28	104	23592960	56	20214
2026-01-10 15:35:38.57	21.85	4.01	-46.4	-61.4	3.5	3.02e+01	0	28	104	23592960	60	45137
2026-01-10 15:35:42.61	22.02	4.29	-42.9	-54.3	3.6	3.02e+01	0	28	104	23592960	60	19992
2026-01-10 15:35:46.65	22.20	4.57	-43.8	-55.8	3.5	3.02e+01	0	28	104	23592960	60	23766
2026-01-10 15:35:50.69	22.38	4.86	-37.8	-48.1	4.1	3.02e+01	0	28	104	23592960	50	17429
2026-01-10 15:35:54.73	22.56	5.15	-42.7	-54.2	3.5	3.02e+01	0	28	104	23592960	60	19738
2026-01-10 15:35:58.77	22.75	5.44	-42.8	-54.4	3.5	3.02e+01	0	28	104	23592960	60	20293
2026-01-10 15:36:02.81	22.94	5.74	-37.6	-47.9	3.4	3.02e+01	0	28	104	23592960	48	19173
2026-01-10 15:36:06.85	23.13	6.04	-38.7	-49.2	3.5	3.02e+01	0	28	104	23592960	52	17646
2026-01-10 15:36:10.89	23.33	6.35	-38.1	-48.5	3.5	3.02e+01	0	28	104	23592960	52	16315
2026-01-10 15:36:14.93	23.53	6.65	-45.5	-58.8	3.5	3.02e+01	0	28	104	23592960	60	33692
2026-01-10 15:36:18.97	23.74	6.97	-38.9	-49.5	3.5	3.02e+01	0	28	104	23592960	52	18155
2026-01-10 15:36:23.01	23.95	7.28	-47.4	-64.5	3.5	3.02e+01	0	28	104	23592960	60	64855
2026-01-10 15:36:27.04	24.16	7.60	-37.4	-47.8	3.5	3.02e+01	0	28	104	23592960	50	16768
2026-01-10 15:36:31.08	24.38	7.93	-38.9	-49.4	3.5	3.02e+01	0	28	104	23592960	52	17965
2026-01-10 15:36:35.12	24.61	8.26	-40.0	-50.7	3.5	3.02e+01	0	28	104	23592960	56	16526
2026-01-10 15:36:39.15	24.84	8.59	-36.7	-47.1	3.5	3.02e+01	0	28	104	23592960	48	17306
2026-01-10 15:36:43.19	25.07	8.93	-46.2	-60.0	3.5	3.02e+01	0	28	104	23592960	60	38625
2026-01-10 15:36:47.23	25.31	9.27	-37.0	-47.3	3.5	3.02e+01	0	28	104	23592960	50	15938
2026-01-10 15:36:51.27	25.56	9.62	-42.4	-53.8	3.5	3.02e+01	0	28	104	23592960	60	18824
2026-01-10 15:36:55.30	25.81	9.97	-36.0	-46.3	3.5	3.02e+01	0	28	104	23592960	48	15871
2026-01-10 15:36:59.35	26.07	10.33	-47.3	-63.9	3.5	3.02e+01	0	28	104	23592960	60	60465
2026-01-10 15:37:03.39	26.34	10.70	-40.0	-50.6	3.5	3.02e+01	0	28	104	23592960	56	16447
2026-01-10 15:37:07.43	26.61	11.07	-37.6	-48.0	3.5	3.02e+01	0	28	104	23592960	50	17234
2026-01-10 15:37:11.46	26.89	11.44	-38.6	-49.1	3.5	3.02e+01	0	28	104	23592960	52	17316
2026-01-10 15:37:15.50	27.18	11.82	-35.9	-46.1	3.5	3.02e+01	0	28	104	23592960	46	17454
2026-01-10 15:37:19.55	27.47	12.21	-45.9	-59.0	3.5	3.02e+01	0	28	104	23592960	60	34139
2026-01-10 15:37:23.59	27.77	12.61	-35.4	-45.6	3.5	3.02e+01	0	28	104	23592960	46	16326
2026-01-10 15:37:27.62	28.09	13.01	-38.7	-49.2	3.5	3.02e+01	0	28	104	23592960	56	13954
2026-01-10 15:37:31.67	28.41	13.41	-36.9	-47.2	3.4	3.02e+01	0	28	104	23592960	50	15752
2026-01-10 15:37:35.71	28.73	13.83	-47.7	-64.5	3.5	3.02e+01	0	28	104	23592960	60	64552
2026-01-10 15:37:39.75	29.07	14.25	-36.9	-47.2	3.5	3.02e+01	0	28	104	23592960	50	15635
2026-01-10 15:37:43.79	29.42	14.68	-36.5	-46.8	3.5	3.02e+01	0	28	104	23592960	46	18788
2026-01-10 15:37:47.83	29.78	15.12	-35.6	-45.7	3.5	3.02e+01	0	28	104	23592960	46	16660
2026-01-10 15:37:51.86	30.15	15.56	-37.6	-48.0	3.5	3.02e+01	0	28	104	23592960	50	17104
2026-01-10 15:37:55.91	30.53	16.01	-42.9	-54.2	3.5	3.02e+01	0	28	104	23592960	60	19773
2026-01-10 15:37:59.94	30.92	16.47	-39.9	-50.6	3.6	3.02e+01	0	28	104	23592960	52	20620
2026-01-10 15:38:03.98	31.33	16.94	-38.0	-48.4	3.6	3.02e+01	0	28	104	23592960	46	22592
2026-01-10 15:38:08.02	31.75	17.42	-37.1	-47.4	3.5	3.02e+01	0	27	104	23592960	50	16055
2026-01-10 15:38:12.06	32.18	17.91	-41.2	-52.1	3.5	3.02e+01	0	28	104	23592960	60	15413
2026-01-10 15:38:16.10	32.63	18.40	-35.2	-45.5	3.5	3.02e+01	0	27	104	23592960	46	16159
2026-01-10 15:38:20.14	33.09	18.91	-47.8	-64.2	3.5	3.02e+01	0	27	104	23592960	60	62304
2026-01-10 15:38:24.18	33.57	19.43	-38.8	-49.2	3.5	3.02e+01	0	28	104	23592960	52	17671
2026-01-10 15:38:28.22	34.06	19.95	-37.7	-48.1	3.6	3.02e+01	0	28	104	23592960	50	17361
2026-01-10 15:38:32.26	34.57	20.49	-38.2	-48.6	3.6	3.02e+01	0	28	104	23592960	52	16388
2026-01-10 15:38:36.30	35.10	21.04	-38.4	-48.8	3.5	3.02e+01	0	28	104	23592960	50	18906
2026-01-10 15:38:40.34	35.66	21.60	-47.3	-62.5	3.5	3.02e+01	0	28	104	23592960	60	51258
2026-01-10 15:38:44.38	36.23	22.17	-35.1	-45.3	3.5	3.02e+01	0	27	104	23592960	46	15874
2026-01-10 15:38:48.41	36.82	22.75	-45.1	-58.1	3.5	3.02e+01	0	27	104	23592960	60	30876
2026-01-10 15:38:52.45	37.44	23.34	-38.1	-48.6	3.5	3.02e+01	0	27	104	23592960	50	18447
2026-01-10 15:38:56.49	38.08	23.95	-47.2	-64.0	3.5	3.02e+01	0	27	104	23592960	60	61249
2026-01-10 15:39:00.53	38.75	24.56	-37.1	-47.4	3.5	3.02e+01	0	27	104	23592960	50	15991
2026-01-10 15:39:04.57	39.44	25.19	-36.0	-46.4	3.5	3.02e+01	0	27	104	23592960	50	14325
2026-01-10 15:39:08.60	40.16	25.83	-35.8	-46.0	3.5	3.02e+01	0	27	104	23592960	46	17265
2026-01-10 15:39:12.64	40.92	26.48	-43.2	-54.6	3.5	3.02e+01	0	27	104	23592960	60	20733
2026-01-10 15:39:16.68	41.70	27.15	-47.1	-61.3	3.6	3.02e+01	0	27	104	23592960	60	44793
2026-01-10 15:39:20.73	42.53	27.83	-37.2	-47.6	3.5	3.02e+01	0	27	104	23592960	50	16441
2026-01-10 15:39:24.76	43.38	28.52	-35.8	-46.1	3.5	3.02e+01	0	27	104	23592960	50	13876
2026-01-10 15:39:28.80	44.28	29.22	-35.5	-45.7	3.5	3.02e+01	0	27	104	23592960	46	16696
2026-01-10 15:39:32.85	45.22	29.93	-43.9	-56.0	3.5	3.02e+01	0	27	104	23592960	60	24285
2026-01-10 15:39:36.89	46.20	30.66	-35.8	-46.0	3.5	3.02e+01	0	27	104	23592960	46	17160
2026-01-10 15:39:40.93	47.22	31.39	-40.4	-51.0	3.5	3.02e+01	0	27	104	23592960	48	27177
2026-01-10 15:39:44.96	48.30	32.14	-39.2	-49.6	3.5	3.02e+01	0	27	104	23592960	54	16406
2026-01-10 15:39:49.00	49.42	32.89	-43.5	-55.0	3.5	3.02e+01	0	27	104	23592960	60	21531
2026-01-10 15:39:53.04	50.60	33.66	-39.3	-50.1	3.5	3.02e+01	0	27	104	23592960	56	15447
2026-01-10 15:39:57.08	51.84	34.42	-45.2	-57.5	3.5	3.02e+01	0	27	104	23592960	58	32323
2026-01-10 15:40:01.12	53.14	35.20	-44.6	-57.1	3.5	3.02e+01	0	27	104	23592960	56	34544
2026-01-10 15:40:05.16	54.50	35.98	-36.0	-46.2	3.5	3.02e+01	0	27	104	23592960	48	15598
2026-01-10 15:40:09.19	55.93	36.76	-44.8	-56.9	3.5	3.02e+01	0	27	104	23592960	60	26933
2026-01-10 15:40:13.23	57.43	37.54	-40.2	-50.7	3.5	3.02e+01	0	27	104	23592960	54	18600
2026-01-10 15:40:17.27	59.01	38.32	-44.5	-56.2	3.5	3.02e+01	0	27	104	23592960	58	27958
2026-01-10 15:40:21.31	60.66	39.09	-36.9	-47.2	3.5	3.02e+01	0	27	104	23592960	48	17674
2026-01-10 15:40:25.35	62.39	39.85	-46.0	-58.8	3.5	3.02e+01	0	27	104	23592960	60	33456
2026-01-10 15:40:29.39	64.21	40.60	-37.7	-48.2	3.5	3.02e+01	0	27	104	23592960	50	17549
2026-01-10 15:40:33.43	66.12	41.33	-45.5	-57.9	3.5	3.02e+01	0	27	104	23592960	60	30352
2026-01-10 15:40:37.47	68.11	42.05	-48.0	-64.0	3.5	3.02e+01	0	27	104	23592960	60	61093
2026-01-10 15:40:41.51	70.19	42.74	-36.2	-46.4	3.5	3.02e+01	0	27	104	23592960	48	16038
2026-01-10 15:40:45.54	72.35	43.39	-39.0	-49.4	3.5	3.02e+01	0	27	104	23592960	56	14293
2026-01-10 15:40:49.58	74.61	44.02	-34.9	-45.1	3.5	3.02e+01	0	27	104	23592960	46	15566
2026-01-10 15:40:53.62	76.96	44.60	-48.1	-65.3	3.5	3.02e+01	0	27	104	23592960	60	70594
2026-01-10 15:40:57.65	79.39	45.14	-36.8	-47.0	3.5	3.02e+01	0	27	104	23592960	48	17096
2026-01-10 15:41:01.69	81.91	45.63	-42.8	-53.9	3.5	3.02e+01	0	27	104	23592960	60	19089
2026-01-10 15:41:05.73	84.50	46.06	-35.6	-45.8	3.5	3.02e+01	0	27	104	23592960	46	16871
2026-01-10 15:41:09.77	87.15	46.44	-47.5	-62.8	3.6	3.02e+01	0	27	104	23592960	60	52954
2026-01-10 15:41:13.81	89.87	46.74	-45.1	-57.1	3.5	3.02e+01	0	27	104	23592960	60	27660
2026-01-10 15:41:17.85	92.64	46.99	-38.6	-49.1	3.5	3.02e+01	0	27	104	23592960	50	19538
2026-01-10 15:41:21.89	95.44	47.16	-39.1	-49.4	3.4	3.02e+01	0	27	104	23592960	48	22748
2026-01-10 15:41:25.93	98.27	47.26	-36.7	-47.1	3.5	3.02e+01	0	27	104	23592960	48	17485
2026-01-10 15:41:29.97	101.11	47.28	-42.5	-53.3	3.5	3.02e+01	0	27	104	23592960	60	17842
2026-01-10 15:41:34.01	103.94	47.23	-36.9	-47.2	3.5	3.02e+01	0	27	104	23592960	50	15742
2026-01-10 15:41:38.05	106.77	47.11	-43.0	-54.4	3.5	3.02e+01	0	27	104	23592960	52	31932
2026-01-10 15:41:42.09	109.56	46.91	-38.2	-48.5	3.5	3.02e+01	0	27	104	23592960	52	16292
2026-01-10 15:41:46.12	112.31	46.65	-40.8	-51.6	3.5	3.02e+01	0	27	104	23592960	56	18354
2026-01-10 15:41:50.16	115.01	46.31	-38.4	-48.8	3.5	3.02e+01	0	27	104	23592960	54	14899
2026-01-10 15:41:54.20	117.65	45.92	-43.8	-54.9	3.5	3.02e+01	0	27	104	23592960	60	21464
2026-01-10 15:41:58.24	120.22	45.47	-47.9	-63.8	3.5	3.02e+01	0	28	104	23592960	60	59946
2026-01-10 15:42:02.28	122.71	44.96	-36.0	-46.1	3.6	3.02e+01	0	27	104	23592960	48	15572
2026-01-10 15:42:06.32	125.12	44.40	-44.4	-56.1	3.5	3.02e+01	0	27	104	23592960	60	24670
2026-01-10 15:42:10.36	127.44	43.80	-35.5	-37.1	24.3	3.02e+01	57	28	104	23592960	46	6166
2026-01-10 15:42:14.39	129.67	43.16	-34.5	-35.7	29.5	3.02e+01	60	27	0	30408704	44	5861
2026-01-10 15:42:18.43	131.81	42.49	-34.6	-35.9	29.3	3.02e+01	59	28	0	37748736	44	6000
2026-01-10 15:42:22.47	133.87	41.79	-35.0	-36.2	29.0	3.02e+01	47	28	0	45613056	44	6236
2026-01-10 15:42:26.51	135.83	41.07	-34.9	-36.1	29.1	3.02e+01	61	28	0	52953088	44	6154
2026-01-10 15:42:30.55	137.71	40.33	-35.1	-36.3	28.9	3.02e+01	51	28	0	60817408	44	6326
2026-01-10 15:42:34.59	139.51	39.57	-34.8	-36.0	29.2	3.02e+01	59	28	0	68157440	44	6096
2026-01-10 15:42:38.63	141.22	38.80	-35.0	-36.2	29.0	3.02e+01	53	28	0	76021760	44	6251
2026-01-10 15:42:42.67	142.85	38.02	-34.7	-35.9	29.1	3.02e+01	59	28	0	83361792	44	6029
2026-01-10 15:42:46.71	144.40	37.24	-34.6	-35.8	29.1	3.02e+01	51	28	0	91226112	44	5976
2026-01-10 15:42:50.75	145.88	36.45	-34.3	-35.5	29.6	3.02e+01	60	28	0	98566144	44	5764
2026-01-10 15:42:54.79	147.29	35.67	-33.9	-35.1	30.1	3.02e+01	55	28	0	105906176	42	6144
2026-01-10 15:42:58.83	148.63	34.89	-33.7	-34.8	30.2	3.02e+01	60	28	0	113770496	42	5984
2026-01-10 15:43:02.87	149.91	34.11	-33.3	-34.5	30.5	3.02e+01	44	28	0	121110528	42	5744
2026-01-10 15:43:06.91	151.13	33.34	-33.0	-34.2	30.7	3.02e+01	59	28	0	128974848	40	6224
2026-01-10 15:43:10.94	152.29	32.58	-33.1	-34.2	30.7	3.02e+01	51	28	0	136314880	40	6264
2026-01-10 15:43:14.98	153.40	31.82	-33.1	-34.2	30.6	3.02e+01	59	28	0	144179200	40	6249
2026-01-10 15:43:19.02	154.46	31.08	-33.0	-34.1	30.6	3.02e+01	45	28	0	151519232	40	6182
2026-01-10 15:43:23.06	155.48	30.34	-32.9	-34.0	30.7	3.02e+01	60	28	0	159383552	40	6097
2026-01-10 15:43:27.10	156.44	29.62	-33.0	-34.2	30.6	3.02e+01	56	28	0	166723584	40	6222
2026-01-10 15:43:31.13	157.36	28.91	-33.3	-34.4	30.3	3.02e+01	61	28	0	174063616	40	6416
2026-01-10 15:43:35.17	158.25	28.20	-33.2	-34.4	30.4	3.02e+01	57	28	0	181927936	40	6369
2026-01-10 15:43:39.21	159.09	27.52	-33.2	-34.4	30.4	3.02e+01	61	28	0	189267968	40	6367
2026-01-10 15:43:43.25	159.90	26.84	-33.6	-34.8	30.1	3.02e+01	56	28	0	197132288	40	6689
2026-01-10 15:43:47.29	160.68	26.17	-33.8	-35.0	29.9	3.02e+01	57	28	0	204472320	40	6855
2026-01-10 15:43:51.33	161.42	25.52	-33.8	-35.0	29.9	3.02e+01	59	28	0	212336640	40	6816
2026-01-10 15:43:55.37	162.14	24.88	-33.8	-35.0	29.9	3.02e+01	59	28	0	219676672	40	6855
2026-01-10 15:43:59.41	162.82	24.25	-34.1	-35.3	29.7	3.02e+01	57	28	0	227540992	42	6299
2026-01-10 15:44:03.44	163.48	23.64	-34.0	-35.2	29.7	3.02e+01	61	28	0	234881024	42	6261
2026-01-10 15:44:07.48	164.11	23.04	-34.1	-35.3	29.7	3.02e+01	58	28	0	242221056	42	6304
2026-01-10 15:44:11.52	164.72	22.44	-34.1	-35.3	29.6	3.02e+01	60	28	0	250085376	42	6313
2026-01-10 15:44:15.56	165.30	21.86	-34.0	-35.2	29.8	3.02e+01	59	28	0	257425408	42	6220
2026-01-10 15:44:19.59	165.87	21.30	-34.0	-35.2	29.7	3.02e+01	62	28	0	265289728	42	6265
2026-01-10 15:44:23.63	166.41	20.74	-33.8	-35.0	29.9	3.02e+01	59	28	0	272629760	42	6100
2026-01-10 15:44:27.67	166.94	20.19	-33.8	-35.0	29.9	3.02e+01	53	28	0	280494080	42	6116
2026-01-10 15:44:31.72	167.44	19.66	-33.8	-35.0	29.9	3.02e+01	61	28	0	287834112	42	6075
2026-01-10 15:44:35.76	167.93	19.13	-33.8	-35.0	29.8	3.02e+01	63	28	0	295698432	42	6116
2026-01-10 15:44:39.80	168.40	18.62	-33.7	-34.8	29.9	3.02e+01	61	29	0	303038464	42	5980
2026-01-10 15:44:43.84	168.86	18.11	-33.6	-34.8	30.1	3.02e+01	45	29	0	310378496	42	5947
2026-01-10 15:44:47.87	169.30	17.62	-33.8	-35.0	29.9	3.02e+01	58	29	0	318242816	42	6081
2026-01-10 15:44:51.91	169.72	17.13	-34.0	-35.2	29.7	3.02e+01	57	28	0	325582848	42	6210
2026-01-10 15:44:55.95	170.14	16.65	-33.8	-35.0	29.8	3.02e+01	61	28	0	333447168	42	6127
2026-01-10 15:44:59.99	170.54	16.18	-33.8	-35.0	29.8	3.02e+01	54	28	0	340787200	42	6093
2026-01-10 15:45:04.03	170.92	15.72	-33.9	-35.1	29.7	3.02e+01	61	29	0	348651520	42	6153
2026-01-10 15:45:08.07	171.30	15.27	-33.7	-34.9	29.9	3.02e+01	58	29	0	355991552	42	6036
2026-01-10 15:45:12.11	171.66	14.83	-33.8	-35.0	29.8	3.02e+01	60	29	0	363855872	42	6093
2026-01-10 15:45:16.15	172.02	14.39	-33.9	-35.1	29.7	3.02e+01	48	29	0	371195904	42	6138
2026-01-10 15:45:20.19	172.36	13.96	-33.8	-35.0	29.7	3.02e+01	57	28	0	379060224	42	6094
2026-01-10 15:45:24.23	172.69	13.54	-33.9	-35.1	29.7	3.02e+01	47	29	0	386400256	42	6143
2026-01-10 15:45:28.27	173.02	13.13	-34.0	-35.2	29.6	3.02e+01	62	29	0	393740288	42	6236
2026-01-10 15:45:32.30	173.33	12.72	-34.1	-35.3	29.5	3.02e+01	51	29	0	401604608	42	6281
2026-01-10 15:45:36.34	173.64	12.32	-34.1	-35.3	29.5	3.02e+01	56	29	0	408944640	42	6312
2026-01-10 15:45:40.39	173.93	11.93	-34.2	-35.4	29.2	3.02e+01	46	29	0	416808960	42	6416
2026-01-10 15:45:44.43	174.22	11.54	-34.3	-35.5	29.2	3.02e+01	61	29	0	424148992	42	6455
2026-01-10 15:45:48.47	174.51	11.16	-34.3	-35.5	29.2	3.02e+01	57	29	0	432013312	42	6471
2026-01-10 15:45:52.51	174.78	10.79	-34.4	-35.6	29.1	3.02e+01	57	29	0	439353344	42	6554
2026-01-10 15:45:56.55	175.05	10.42	-34.5	-35.7	29.0	3.02e+01	60	29	0	447217664	42	6586
2026-01-10 15:46:00.59	175.31	10.05	-34.7	-35.9	28.7	3.02e+01	60	29	0	454557696	42	6799
2026-01-10 15:46:04.63	175.57	9.70	-34.9	-36.1	28.6	3.02e+01	58	29	0	461897728	42	6937
2026-01-10 15:46:08.67	175.81	9.34	-34.8	-36.1	28.7	3.02e+01	63	29	0	469762048	44	6142
2026-01-10 15:46:12.71	176.06	9.00	-34.8	-36.1	28.6	3.02e+01	58	29	0	477102080	44	6154
2026-01-10 15:46:16.75	176.29	8.65	-35.1	-36.4	28.3	3.02e+01	57	29	0	484966400	44	6367
2026-01-10 15:46:20.79	176.52	8.31	-35.1	-36.3	28.3	3.02e+01	60	29	0	492306432	44	6331
2026-01-10 15:46:24.83	176.75	7.98	-35.2	-36.5	28.2	3.02e+01	60	29	0	500170752	44	6462
2026-01-10 15:46:28.86	176.97	7.65	-35.3	-36.6	28.1	3.02e+01	54	29	0	507510784	44	6513
2026-01-10 15:46:32.90	177.19	7.33	-35.6	-36.9	27.9	3.02e+01	59	29	0	515375104	44	6738
2026-01-10 15:46:36.94	177.40	7.01	-35.3	-36.5	27.9	3.02e+01	58	29	0	522715136	44	6496
2026-01-10 15:46:40.98	177.60	6.69	-35.8	-37.2	27.4	3.02e+01	56	29	0	530055168	44	6995
2026-01-10 15:46:45.03	177.80	6.38	-36.1	-37.4	27.2	3.02e+01	60	29	0	537919488	46	6417
2026-01-10 15:46:49.07	178.00	6.07	-35.8	-37.1	27.4	3.02e+01	61	29	0	545259520	46	6176
2026-01-10 15:46:53.10	178.20	5.77	-36.1	-37.5	27.1	3.02e+01	55	29	0	553123840	46	6430
2026-01-10 15:46:57.14	178.38	5.47	-36.0	-37.4	27.1	3.02e+01	48	29	0	560463872	46	6382
2026-01-10 15:47:01.18	178.57	5.17	-36.4	-37.8	26.8	3.02e+01	58	29	0	568328192	46	6665
2026-01-10 15:47:05.21	178.75	4.88	-36.2	-37.6	26.9	3.02e+01	60	29	0	575668224	46	6539
2026-01-10 15:47:09.25	178.93	4.59	-36.6	-38.0	26.4	3.02e+01	59	29	0	583532544	46	6835
2026-01-10 15:47:13.29	179.10	4.30	-36.4	-37.8	26.6	3.02e+01	58	29	0	590872576	46	6719
2026-01-10 15:47:17.33	179.28	4.01	-36.4	-37.7	26.7	3.02e+01	60	29	0	598212608	48	5917
2026-01-10 15:47:21.36	179.44	3.73	-36.7	-38.1	26.2	3.02e+01	47	29	0	606076928	48	6205
2026-01-10 15:47:25.40	179.61	3.46	-37.4	-39.0	25.4	3.02e+01	60	29	0	613416960	48	6824
2026-01-10 15:47:29.44	179.77	3.18	-36.5	-37.9	26.2	3.02e+01	49	29	0	621281280	48	6012
2026-01-10 15:47:33.48	179.93	2.91	-47.2	-65.3	3.5	3.02e+01	0	29	104	627572736	60	71173
2026-01-10 15:47:37.52	180.08	2.64	-48.0	-66.4	3.5	3.02e+01	0	29	104	627572736	60	80395
2026-01-10 15:47:41.56	180.24	2.37	-48.5	-66.5	3.5	3.02e+01	0	29	104	627572736	60	81583
2026-01-10 15:47:45.60	180.39	2.11	-48.6	-66.5	3.5	3.02e+01	0	29	104	627572736	60	81390
2026-01-10 15:47:49.64	180.53	1.85	-48.5	-66.4	3.5	3.02e+01	0	29	104	627572736	60	80862
2026-01-10 15:47:53.68	180.68	1.59	-48.5	-66.5	3.5	3.02e+01	0	29	104	627572736	60	80986
2026-01-10 15:47:57.72	180.82	1.33	-48.5	-66.4	3.5	3.02e+01	0	29	104	627572736	60	80298
2026-01-10 15:48:01.76	180.96	1.08	-48.5	-66.3	3.5	3.02e+01	0	30	104	627572736	60	79813
2026-01-10 15:48:05.80	181.10	0.83	-48.5	-66.3	3.5	3.02e+01	0	29	104	627572736	60	79810
2026-01-10 15:48:09.84	181.23	0.58	-48.5	-66.4	3.5	3.02e+01	0	30	104	627572736	60	80019
2026-01-10 15:48:13.88	181.37	0.33	-48.5	-66.4	3.5	3.02e+01	0	30	104	627572736	60	80529
2026-01-10 15:48:17.92	181.50	0.09	-48.5	-66.4	3.5	3.02e+01	0	30	104	627572736	60	80544

#Closed at: 2026-01-10 15:48:21
#Recorded file [627 MB]: D:/lorett/data/35029_260111_033437.dat