passes_logs/2026/01/10/R4.6S_Anadyr/R4.6S_Anadyr__20260110_185830_FENGYUN_3D_rec.log

#Pass ID: 20260110_185830_FENGYUN 3D
#Satellite: FENGYUN 3D
#Configuration: FENGYUN 3D
#almurnet v.1.7.20251203
#Start time: 2026-01-10 18:58:32

#Version: 2.2.20231116
#Station: R4.6S_Anadyr
#Location: 177.4865 lon 64.73178 lat
#TLE: 1 43010U 17072A   26009.92921666 -.00000228  00000+0 -86059-4 0  9998
#TLE: 2 43010  98.9936 341.6668 0002176 116.7510 243.3888 14.19693142422537

#Time	Az	El	Level	Level2	SNR	BER	BlckErr	Temp	State	Recorded	gain1	gain2
2026-01-10 18:58:32.07	29.10	0.10	-48.1	-63.0	3.5	1.51e+00	0	27	0	0	60	51345
2026-01-10 18:58:36.10	28.91	0.32	-48.1	-60.3	3.6	8.46e-01	0	28	104	0	60	37335
2026-01-10 18:58:40.14	28.70	0.55	-48.1	-60.2	3.6	8.45e-01	0	28	104	0	60	37058
2026-01-10 18:58:44.18	28.50	0.77	-47.8	-59.9	3.6	8.45e-01	0	28	104	0	60	35617
2026-01-10 18:58:48.22	28.29	1.00	-47.0	-59.0	3.6	8.45e-01	0	28	104	0	60	32206
2026-01-10 18:58:52.26	28.08	1.23	-46.5	-58.5	3.6	8.47e-01	0	29	104	0	60	30305
2026-01-10 18:58:56.29	27.87	1.46	-46.5	-58.5	3.6	8.46e-01	0	29	104	0	60	30470
2026-01-10 18:59:00.34	27.65	1.70	-46.5	-58.5	3.6	8.44e-01	0	29	104	0	60	30505
2026-01-10 18:59:04.37	27.43	1.93	-46.5	-58.5	3.6	8.43e-01	0	29	104	0	60	30488
2026-01-10 18:59:08.41	27.20	2.16	-46.4	-58.0	3.6	8.45e-01	0	29	104	0	60	28646
2026-01-10 18:59:12.45	26.97	2.40	-46.5	-58.5	3.6	8.45e-01	0	29	104	0	60	30446
2026-01-10 18:59:16.49	26.74	2.64	-46.5	-58.4	3.6	8.45e-01	0	29	104	0	60	30220
2026-01-10 18:59:20.52	26.50	2.88	-46.4	-57.3	3.6	8.44e-01	0	29	104	0	60	26543
2026-01-10 18:59:24.56	26.26	3.12	-45.8	-53.4	4.9	8.41e-01	0	29	104	0	60	16893
2026-01-10 18:59:28.60	26.01	3.37	-41.5	-43.4	14.2	1.02e-05	0	29	0	18874368	56	6768
2026-01-10 18:59:32.64	25.76	3.61	-45.8	-53.0	3.4	1.10e-06	0	29	0	41943040	56	20337
2026-01-10 18:59:36.68	25.50	3.86	-36.9	-37.8	19.8	0.00e+00	0	29	0	53477376	48	5617
2026-01-10 18:59:40.72	25.24	4.11	-34.9	-35.7	21.9	0.00e+00	0	29	0	75497472	44	5563
2026-01-10 18:59:44.76	24.98	4.36	-34.6	-35.4	22.3	0.00e+00	0	29	0	98566144	42	6022
2026-01-10 18:59:48.80	24.71	4.61	-34.4	-35.2	22.5	0.00e+00	0	29	0	121634816	42	5860
2026-01-10 18:59:52.84	24.43	4.86	-34.1	-34.8	22.8	0.00e+00	0	29	0	144703488	42	5612
2026-01-10 18:59:56.87	24.16	5.12	-34.1	-34.9	22.9	0.00e+00	0	29	0	166723584	42	5656
2026-01-10 19:00:00.91	23.87	5.37	-34.2	-35.0	22.9	0.00e+00	0	29	0	189792256	42	5705
2026-01-10 19:00:04.95	23.58	5.63	-34.0	-34.7	23.1	0.00e+00	0	29	0	211812352	42	5565
2026-01-10 19:00:08.99	23.28	5.89	-34.1	-34.9	23.0	0.00e+00	0	29	0	234881024	42	5653
2026-01-10 19:00:13.03	22.98	6.16	-34.2	-34.9	23.0	0.00e+00	0	29	0	257949696	42	5678
2026-01-10 19:00:17.07	22.68	6.42	-33.9	-34.7	23.3	0.00e+00	0	29	0	279969792	42	5513
2026-01-10 19:00:21.11	22.36	6.69	-33.9	-34.6	23.3	0.00e+00	0	29	0	303038464	40	6122
2026-01-10 19:00:25.15	22.04	6.96	-34.0	-34.7	23.2	0.00e+00	0	29	0	326107136	40	6192
2026-01-10 19:00:29.19	21.72	7.23	-33.9	-34.7	23.4	0.00e+00	0	29	0	349175808	40	6191
2026-01-10 19:00:33.24	21.39	7.50	-33.7	-34.4	23.6	0.00e+00	0	29	0	371195904	40	6019
2026-01-10 19:00:37.28	21.05	7.77	-33.9	-34.6	23.5	0.00e+00	0	29	0	394264576	40	6148
2026-01-10 19:00:41.32	20.70	8.05	-33.6	-34.3	23.7	0.00e+00	0	29	0	416284672	40	5949
2026-01-10 19:00:45.36	20.35	8.33	-33.5	-34.3	23.9	0.00e+00	0	29	0	439353344	40	5908
2026-01-10 19:00:49.40	19.99	8.61	-33.3	-34.0	24.1	0.00e+00	0	29	0	462422016	40	5702
2026-01-10 19:00:53.44	19.62	8.89	-33.1	-33.8	24.3	0.00e+00	0	29	0	485490688	40	5597
2026-01-10 19:00:57.48	19.25	9.18	-33.1	-33.8	24.4	0.00e+00	0	29	0	507510784	40	5578
2026-01-10 19:01:01.52	18.87	9.46	-33.1	-33.7	24.3	0.00e+00	0	29	0	530579456	40	5565
2026-01-10 19:01:05.56	18.48	9.75	-32.9	-33.7	24.4	0.00e+00	0	29	0	553648128	40	5514
2026-01-10 19:01:09.59	18.08	10.04	-33.0	-33.7	24.5	0.00e+00	0	29	0	575668224	40	5504
2026-01-10 19:01:13.64	17.67	10.33	-32.6	-33.3	24.8	0.00e+00	0	29	0	598736896	38	5960
2026-01-10 19:01:17.68	17.26	10.63	-32.6	-33.3	24.8	0.00e+00	0	29	0	620756992	38	5913
2026-01-10 19:01:21.72	16.84	10.92	-32.5	-33.1	25.0	0.00e+00	0	29	0	643825664	38	5812
2026-01-10 19:01:25.76	16.40	11.22	-32.4	-33.0	25.0	0.00e+00	0	29	0	666894336	38	5756
2026-01-10 19:01:29.80	15.96	11.52	-32.5	-33.2	24.9	0.00e+00	0	29	0	689963008	38	5857
2026-01-10 19:01:33.84	15.51	11.83	-32.4	-33.1	25.1	0.00e+00	0	29	0	711983104	38	5805
2026-01-10 19:01:37.88	15.05	12.13	-32.3	-33.0	25.2	0.00e+00	0	29	0	735051776	38	5723
2026-01-10 19:01:41.92	14.58	12.44	-32.4	-33.1	25.1	0.00e+00	0	29	0	758120448	38	5781
2026-01-10 19:01:45.96	14.10	12.75	-32.2	-32.9	25.3	0.00e+00	0	29	0	780140544	38	5666
2026-01-10 19:01:50.00	13.61	13.06	-32.0	-32.7	25.5	0.00e+00	0	29	0	803209216	38	5537
2026-01-10 19:01:54.05	13.11	13.37	-31.9	-32.6	25.5	0.00e+00	0	29	0	826277888	38	5487
2026-01-10 19:01:58.09	12.59	13.68	-31.8	-32.5	25.6	0.00e+00	0	29	0	848297984	38	5419
2026-01-10 19:02:02.13	12.07	14.00	-31.8	-32.5	25.7	0.00e+00	0	29	0	871366656	36	6052
2026-01-10 19:02:06.17	11.53	14.31	-31.4	-32.0	26.1	0.00e+00	0	29	0	894435328	36	5748
2026-01-10 19:02:10.21	10.98	14.63	-31.4	-32.0	26.1	0.00e+00	0	29	0	916455424	36	5750
2026-01-10 19:02:14.25	10.42	14.95	-31.5	-32.1	26.1	0.00e+00	0	29	0	939524096	36	5803
2026-01-10 19:02:18.29	9.85	15.27	-31.4	-32.0	26.2	0.00e+00	0	29	0	962592768	36	5734
2026-01-10 19:02:22.33	9.26	15.60	-31.3	-31.9	26.2	0.00e+00	0	29	0	985661440	36	5694
2026-01-10 19:02:26.38	8.66	15.92	-31.0	-31.7	26.4	0.00e+00	0	29	0	1007681536	36	5524
2026-01-10 19:02:30.42	8.05	16.25	-31.1	-31.8	26.4	0.00e+00	0	29	0	1030750208	36	5573
2026-01-10 19:02:34.46	7.43	16.57	-31.2	-31.9	26.3	0.00e+00	0	29	0	1052770304	36	5642
2026-01-10 19:02:38.50	6.79	16.90	-31.1	-31.7	26.3	0.00e+00	0	29	0	1075838976	36	5560
2026-01-10 19:02:42.54	6.13	17.23	-30.6	-31.2	26.7	0.00e+00	0	29	0	1098907648	34	5888
2026-01-10 19:02:46.58	5.46	17.55	-30.8	-31.5	26.7	0.00e+00	0	29	0	1120927744	34	6035
2026-01-10 19:02:50.62	4.78	17.88	-31.0	-31.7	26.5	0.00e+00	0	29	0	1143996416	34	6199
2026-01-10 19:02:54.67	4.08	18.21	-30.5	-31.1	27.0	0.00e+00	0	29	0	1167065088	34	5816
2026-01-10 19:02:58.71	3.36	18.54	-30.4	-31.0	27.0	0.00e+00	0	29	0	1190133760	34	5756
2026-01-10 19:03:02.75	2.63	18.87	-30.7	-31.3	26.8	0.00e+00	0	29	0	1212153856	34	5958
2026-01-10 19:03:06.80	1.89	19.19	-30.5	-31.1	27.0	0.00e+00	0	29	0	1235222528	34	5813
2026-01-10 19:03:10.83	1.12	19.52	-30.5	-31.1	27.0	0.00e+00	0	29	0	1258291200	34	5777
2026-01-10 19:03:14.88	0.34	19.84	-30.4	-31.0	27.0	0.00e+00	0	29	0	1280311296	34	5760
2026-01-10 19:03:18.92	359.55	20.17	-30.1	-30.7	27.3	0.00e+00	0	29	0	1303379968	34	5539
2026-01-10 19:03:22.96	358.73	20.49	-30.0	-30.6	27.3	0.00e+00	0	29	0	1326448640	34	5502
2026-01-10 19:03:27.00	357.90	20.81	-30.1	-30.7	27.3	0.00e+00	0	28	0	1348468736	34	5524
2026-01-10 19:03:31.04	357.05	21.12	-29.8	-30.4	27.6	0.00e+00	0	29	0	1371537408	34	5335
2026-01-10 19:03:35.08	356.19	21.44	-29.9	-30.5	27.4	0.00e+00	0	29	0	1394606080	32	6097
2026-01-10 19:03:39.12	355.30	21.75	-29.8	-30.4	27.5	0.00e+00	0	29	0	1416626176	32	5994
2026-01-10 19:03:43.17	354.40	22.05	-29.9	-30.5	27.4	0.00e+00	0	29	0	1439694848	32	6102
2026-01-10 19:03:47.21	353.48	22.35	-29.9	-30.5	27.4	0.00e+00	0	29	0	1462763520	32	6076
2026-01-10 19:03:51.25	352.54	22.65	-29.8	-30.4	27.5	0.00e+00	0	29	0	1484783616	32	5999
2026-01-10 19:03:55.28	351.58	22.94	-29.7	-30.4	27.4	0.00e+00	0	29	0	1507852288	32	5988
2026-01-10 19:03:59.33	350.60	23.23	-29.8	-30.4	27.6	0.00e+00	0	28	0	1530920960	32	5990
2026-01-10 19:04:03.37	349.61	23.51	-29.9	-30.5	27.5	0.00e+00	0	28	0	1552941056	32	6082
2026-01-10 19:04:07.41	348.60	23.79	-29.5	-30.1	27.8	0.00e+00	0	28	0	1576009728	32	5798
2026-01-10 19:04:11.45	347.57	24.06	-29.7	-30.3	27.7	0.00e+00	0	28	0	1599078400	32	5926
2026-01-10 19:04:15.49	346.52	24.32	-29.5	-30.1	27.8	0.00e+00	0	28	0	1622147072	32	5808
2026-01-10 19:04:19.53	345.46	24.57	-29.1	-29.7	28.0	0.00e+00	0	28	0	1644167168	32	5555
2026-01-10 19:04:23.57	344.38	24.81	-29.1	-29.8	28.1	0.00e+00	0	28	0	1667235840	32	5570
2026-01-10 19:04:27.61	343.28	25.05	-29.3	-29.9	28.0	0.00e+00	0	28	0	1689255936	32	5654
2026-01-10 19:04:31.65	342.16	25.27	-29.4	-30.0	27.9	0.00e+00	0	28	0	1712324608	32	5736
2026-01-10 19:04:35.69	341.03	25.48	-29.1	-29.8	28.1	0.00e+00	0	28	0	1735393280	32	5579
2026-01-10 19:04:39.73	339.89	25.69	-29.1	-29.7	28.1	0.00e+00	0	28	0	1758461952	32	5528
2026-01-10 19:04:43.77	338.73	25.88	-29.3	-30.0	27.8	0.00e+00	0	28	0	1780482048	32	5728
2026-01-10 19:04:47.81	337.55	26.06	-29.1	-29.7	28.1	0.00e+00	0	28	0	1803550720	32	5525
2026-01-10 19:04:51.85	336.37	26.23	-29.4	-30.0	27.8	0.00e+00	0	28	0	1826619392	32	5730
2026-01-10 19:04:55.89	335.17	26.38	-29.1	-29.7	28.1	0.00e+00	0	28	0	1848639488	32	5555
2026-01-10 19:04:59.93	333.96	26.53	-29.1	-29.8	28.1	0.00e+00	0	28	0	1871708160	32	5571
2026-01-10 19:05:03.97	332.73	26.65	-28.9	-29.6	28.3	0.00e+00	0	28	0	1893728256	32	5452
2026-01-10 19:05:08.01	331.50	26.77	-29.2	-29.8	28.0	0.00e+00	0	28	0	1916796928	32	5626
2026-01-10 19:05:12.06	330.26	26.87	-29.1	-29.7	28.2	0.00e+00	0	28	0	1939865600	32	5530
2026-01-10 19:05:16.10	329.01	26.96	-29.2	-29.8	28.1	0.00e+00	0	28	0	1962934272	32	5597
2026-01-10 19:05:20.14	327.76	27.03	-29.0	-29.7	28.2	0.00e+00	0	28	0	1984954368	32	5512
2026-01-10 19:05:24.18	326.50	27.08	-29.0	-29.6	28.2	0.00e+00	0	28	0	2008023040	32	5465
2026-01-10 19:05:28.22	325.24	27.12	-28.9	-29.5	28.2	0.00e+00	0	28	0	2031091712	30	6095
2026-01-10 19:05:32.26	323.97	27.15	-28.6	-29.3	28.4	0.00e+00	0	28	0	2053111808	30	5898
2026-01-10 19:05:36.30	322.71	27.16	-29.0	-29.5	28.2	0.00e+00	0	28	0	2076180480	30	6099
2026-01-10 19:05:40.34	321.44	27.15	-29.4	-30.0	27.9	0.00e+00	0	28	0	2099249152	30	6419
2026-01-10 19:05:44.38	320.17	27.13	-29.2	-29.8	28.0	0.00e+00	0	28	0	2121269248	30	6260
2026-01-10 19:05:48.42	318.91	27.10	-28.9	-29.5	27.8	0.00e+00	0	28	0	2144337920	30	6040
2026-01-10 19:05:52.46	317.65	27.04	-28.9	-29.5	28.1	0.00e+00	0	28	0	2167406592	30	6074
2026-01-10 19:05:56.50	316.39	26.98	-29.3	-29.9	28.0	0.00e+00	0	28	0	2189426688	30	6351
2026-01-10 19:06:00.52	315.15	26.90	-29.0	-29.5	28.1	0.00e+00	0	28	0	2212495360	30	6101
2026-01-10 19:06:04.56	313.91	26.80	-29.0	-29.6	28.3	0.00e+00	0	28	0	2235564032	30	6156
2026-01-10 19:06:08.60	312.67	26.69	-28.9	-29.5	28.2	0.00e+00	0	28	0	2257584128	30	6056
2026-01-10 19:06:12.64	311.45	26.56	-29.1	-29.8	28.1	0.00e+00	0	28	0	2280652800	30	6263
2026-01-10 19:06:16.68	310.23	26.42	-28.9	-29.6	28.3	0.00e+00	0	28	0	2303721472	30	6116
2026-01-10 19:06:20.72	309.03	26.27	-28.6	-29.2	28.4	0.00e+00	0	28	0	2325741568	30	5843
2026-01-10 19:06:24.76	307.84	26.11	-29.1	-29.7	28.1	0.00e+00	0	28	0	2348810240	30	6231
2026-01-10 19:06:28.80	306.66	25.93	-29.1	-29.6	28.1	0.00e+00	0	28	0	2371878912	30	6128
2026-01-10 19:06:32.84	305.49	25.74	-29.0	-29.7	28.1	0.00e+00	0	28	0	2393899008	30	6182
2026-01-10 19:06:36.89	304.34	25.54	-29.2	-29.8	28.1	0.00e+00	0	28	0	2416967680	30	6312
2026-01-10 19:06:40.93	303.20	25.33	-28.9	-29.4	28.2	0.00e+00	0	28	0	2440036352	30	6031
2026-01-10 19:06:44.97	302.08	25.10	-29.1	-29.7	28.1	0.00e+00	0	28	0	2462056448	30	6236
2026-01-10 19:06:49.01	300.97	24.87	-28.8	-29.3	28.3	0.00e+00	0	28	0	2485125120	30	5962
2026-01-10 19:06:53.05	299.88	24.63	-29.1	-29.8	28.1	0.00e+00	0	28	0	2508193792	30	6271
2026-01-10 19:06:57.09	298.81	24.38	-29.1	-29.8	28.1	0.00e+00	0	28	0	2530213888	30	6276
2026-01-10 19:07:01.13	297.76	24.12	-29.2	-29.8	28.1	0.00e+00	0	28	0	2553282560	30	6261
2026-01-10 19:07:05.17	296.72	23.86	-29.1	-29.7	28.1	0.00e+00	0	28	0	2576351232	30	6243
2026-01-10 19:07:09.21	295.70	23.58	-29.3	-29.9	28.0	0.00e+00	0	28	0	2598371328	30	6346
2026-01-10 19:07:13.25	294.70	23.30	-29.4	-30.0	27.9	0.00e+00	0	28	0	2621440000	30	6461
2026-01-10 19:07:17.29	293.72	23.02	-29.0	-29.6	28.2	0.00e+00	0	28	0	2644508672	30	6134
2026-01-10 19:07:21.34	292.75	22.72	-29.1	-29.7	28.1	0.00e+00	0	28	0	2667577344	30	6203
2026-01-10 19:07:25.38	291.80	22.43	-29.4	-29.9	27.7	0.00e+00	0	27	0	2689597440	30	6367
2026-01-10 19:07:29.42	290.88	22.13	-29.4	-30.0	27.7	0.00e+00	0	28	0	2712666112	30	6419
2026-01-10 19:07:33.46	289.97	21.82	-29.4	-29.9	27.7	0.00e+00	0	28	0	2734686208	30	6340
2026-01-10 19:07:37.50	289.07	21.51	-29.7	-30.2	27.5	0.00e+00	0	28	0	2757754880	30	6613
2026-01-10 19:07:41.54	288.20	21.20	-29.6	-30.3	27.6	0.00e+00	0	27	0	2780823552	32	5915
2026-01-10 19:07:45.58	287.34	20.88	-29.9	-30.6	27.2	0.00e+00	0	28	0	2803892224	32	6140
2026-01-10 19:07:49.62	286.50	20.56	-30.1	-30.6	26.9	0.00e+00	0	28	0	2825912320	32	6141
2026-01-10 19:07:53.66	285.68	20.24	-30.0	-30.6	27.0	0.00e+00	0	28	0	2848980992	32	6122
2026-01-10 19:07:57.70	284.88	19.91	-30.1	-30.6	27.2	0.00e+00	0	28	0	2872049664	32	6145
2026-01-10 19:08:01.74	284.09	19.59	-30.0	-30.6	27.1	0.00e+00	0	27	0	2894069760	32	6168
2026-01-10 19:08:05.78	283.32	19.26	-29.9	-30.5	27.2	0.00e+00	0	28	0	2917138432	32	6084
2026-01-10 19:08:09.82	282.57	18.94	-30.1	-30.6	27.1	0.00e+00	0	27	0	2939158528	32	6160
2026-01-10 19:08:13.86	281.83	18.61	-30.3	-30.9	26.9	0.00e+00	0	27	0	2962227200	32	6335
2026-01-10 19:08:17.90	281.11	18.28	-30.6	-31.3	26.7	0.00e+00	0	28	0	2985295872	32	6644
2026-01-10 19:08:21.94	280.40	17.95	-30.4	-30.9	26.9	0.00e+00	0	27	0	3008364544	32	6366
2026-01-10 19:08:25.98	279.71	17.62	-30.4	-31.0	26.8	0.00e+00	0	27	0	3030384640	32	6411
2026-01-10 19:08:30.02	279.04	17.29	-30.6	-31.2	26.7	0.00e+00	0	27	0	3053453312	32	6563
2026-01-10 19:08:34.06	278.38	16.96	-30.8	-31.5	26.5	0.00e+00	0	27	0	3076521984	34	6073
2026-01-10 19:08:38.10	277.73	16.64	-30.8	-31.4	26.5	0.00e+00	0	27	0	3098542080	34	5968
2026-01-10 19:08:42.14	277.10	16.31	-31.1	-31.8	26.2	0.00e+00	0	27	0	3121610752	34	6283
2026-01-10 19:08:46.18	276.48	15.98	-31.0	-31.6	26.2	0.00e+00	0	27	0	3143630848	34	6106
2026-01-10 19:08:50.22	275.87	15.66	-31.3	-32.1	26.1	0.00e+00	0	27	0	3166699520	34	6469
2026-01-10 19:08:54.26	275.28	15.33	-31.1	-31.8	26.2	0.00e+00	0	27	0	3189768192	34	6273
2026-01-10 19:08:58.30	274.70	15.01	-31.1	-31.7	26.2	0.00e+00	0	27	0	3212836864	34	6181
2026-01-10 19:09:02.34	274.14	14.69	-31.2	-31.8	26.1	0.00e+00	0	27	0	3234856960	34	6282
2026-01-10 19:09:06.38	273.58	14.37	-31.5	-32.0	25.9	0.00e+00	0	27	0	3257925632	34	6453
2026-01-10 19:09:10.42	273.04	14.05	-31.6	-32.3	25.8	0.00e+00	0	27	0	3280994304	34	6642
2026-01-10 19:09:14.46	272.51	13.74	-31.6	-32.2	25.7	0.00e+00	0	27	0	3303014400	34	6558
2026-01-10 19:09:18.50	271.99	13.42	-31.9	-32.6	25.6	0.00e+00	0	27	0	3326083072	36	6116
2026-01-10 19:09:22.54	271.48	13.11	-32.1	-32.7	25.3	0.00e+00	0	27	0	3349151744	36	6209
2026-01-10 19:09:26.58	270.99	12.80	-32.1	-32.7	25.3	0.00e+00	0	27	0	3371171840	36	6212
2026-01-10 19:09:30.61	270.50	12.49	-31.9	-32.5	25.4	0.00e+00	0	27	0	3394240512	36	6083
2026-01-10 19:09:34.65	270.02	12.18	-32.1	-32.7	25.3	0.00e+00	0	27	0	3417309184	36	6224
2026-01-10 19:09:38.69	269.56	11.87	-32.0	-32.5	25.3	0.00e+00	0	27	0	3439329280	36	6103
2026-01-10 19:09:42.73	269.10	11.57	-32.1	-32.7	25.3	0.00e+00	0	27	0	3462397952	36	6216
2026-01-10 19:09:46.77	268.66	11.27	-32.4	-33.1	25.0	0.00e+00	0	27	0	3484418048	36	6470
2026-01-10 19:09:50.81	268.22	10.97	-32.5	-33.1	24.8	0.00e+00	0	27	0	3507486720	36	6526
2026-01-10 19:09:54.84	267.79	10.67	-32.7	-33.5	24.6	0.00e+00	0	27	0	3530555392	36	6788
2026-01-10 19:09:58.88	267.37	10.37	-32.7	-33.3	24.6	0.00e+00	0	27	0	3553624064	38	5964
2026-01-10 19:10:02.92	266.96	10.08	-32.9	-33.5	24.5	0.00e+00	0	27	0	3575644160	38	6082
2026-01-10 19:10:06.96	266.56	9.79	-32.9	-33.5	24.4	0.00e+00	0	27	0	3598712832	38	6095
2026-01-10 19:10:11.00	266.16	9.50	-33.1	-33.7	24.3	0.00e+00	0	27	0	3621781504	38	6216
2026-01-10 19:10:15.05	265.78	9.21	-33.2	-33.8	24.2	0.00e+00	0	27	0	3643801600	38	6299
2026-01-10 19:10:19.09	265.40	8.92	-33.2	-34.0	24.1	0.00e+00	0	27	0	3666870272	38	6423
2026-01-10 19:10:23.13	265.03	8.64	-33.3	-34.0	23.9	0.00e+00	0	27	0	3688890368	38	6391
2026-01-10 19:10:27.17	264.66	8.36	-33.1	-33.8	24.1	0.00e+00	0	27	0	3711959040	38	6254
2026-01-10 19:10:31.20	264.31	8.08	-33.4	-34.1	24.1	1.10e-06	0	27	0	3727687680	40	5783
2026-01-10 19:10:35.25	263.95	7.80	-33.3	-34.0	23.9	0.00e+00	0	27	0	3750756352	40	5753
2026-01-10 19:10:39.29	263.61	7.53	-33.5	-34.2	23.7	0.00e+00	0	27	0	3773825024	40	5868
2026-01-10 19:10:43.33	263.28	7.25	-33.6	-34.3	23.6	0.00e+00	0	27	0	3795845120	40	5964
2026-01-10 19:10:47.37	262.95	6.98	-33.7	-34.3	23.6	0.00e+00	0	27	0	3818913792	40	5951
2026-01-10 19:10:51.41	262.62	6.71	-33.5	-34.3	23.5	0.00e+00	0	27	0	3841982464	40	5951
2026-01-10 19:10:55.45	262.30	6.44	-33.6	-34.3	23.5	0.00e+00	0	27	0	3864002560	40	5918
2026-01-10 19:10:59.50	261.99	6.18	-33.8	-34.5	23.2	0.00e+00	0	27	0	3887071232	40	6036
2026-01-10 19:11:03.53	261.69	5.91	-33.9	-34.7	23.2	0.00e+00	0	27	0	3910139904	40	6190
2026-01-10 19:11:07.57	261.39	5.65	-33.8	-34.5	23.2	0.00e+00	0	27	0	3932160000	40	6050
2026-01-10 19:11:11.62	261.09	5.39	-33.9	-34.6	23.0	0.00e+00	0	27	0	3955228672	40	6149
2026-01-10 19:11:15.66	260.80	5.13	-34.2	-35.0	22.8	0.00e+00	0	27	0	3978297344	40	6410
2026-01-10 19:11:19.70	260.52	4.88	-34.1	-35.0	22.8	0.00e+00	0	27	0	4000317440	40	6413
2026-01-10 19:11:23.74	260.24	4.62	-34.3	-35.1	22.5	0.00e+00	0	27	0	4023386112	40	6522
2026-01-10 19:11:27.78	259.97	4.37	-34.2	-35.0	22.5	0.00e+00	0	27	0	4046454784	40	6438
2026-01-10 19:11:31.82	259.70	4.12	-34.6	-35.4	22.2	0.00e+00	0	27	0	4068474880	40	6753
2026-01-10 19:11:35.86	259.43	3.87	-34.5	-35.3	22.2	0.00e+00	0	27	0	4091543552	40	6653
2026-01-10 19:11:39.90	259.17	3.62	-35.2	-36.1	21.6	0.00e+00	0	27	0	4114612224	42	6491
2026-01-10 19:11:43.94	258.92	3.37	-34.9	-35.7	21.6	0.00e+00	0	27	0	4137680896	42	6193
2026-01-10 19:11:47.98	258.67	3.13	-34.9	-35.7	21.6	0.00e+00	0	27	0	4159700992	42	6194
2026-01-10 19:11:52.02	258.42	2.89	-47.5	-59.6	3.6	8.45e-01	0	27	104	4173332480	60	34345
2026-01-10 19:11:56.06	258.18	2.65	-48.0	-60.1	3.6	8.45e-01	0	27	104	4173332480	60	36693
2026-01-10 19:12:00.10	257.94	2.41	-48.0	-60.2	3.6	8.46e-01	0	27	104	4173332480	60	37075
2026-01-10 19:12:04.14	257.71	2.17	-47.8	-60.1	3.6	8.46e-01	0	27	104	4173332480	60	36367
2026-01-10 19:12:08.18	257.48	1.93	-48.0	-60.1	3.6	8.46e-01	0	27	104	4173332480	60	36489
2026-01-10 19:12:12.22	257.25	1.70	-47.9	-60.0	3.6	8.45e-01	0	27	104	4173332480	60	36255
2026-01-10 19:12:16.26	257.03	1.46	-48.0	-60.1	3.6	8.46e-01	0	27	104	4173332480	60	36410
2026-01-10 19:12:20.30	256.81	1.23	-47.9	-60.0	3.6	8.45e-01	0	27	104	4173332480	60	36116
2026-01-10 19:12:24.34	256.60	1.00	-47.9	-60.0	3.6	8.45e-01	0	27	104	4173332480	60	36257
2026-01-10 19:12:28.38	256.38	0.77	-47.9	-60.0	3.6	8.46e-01	0	27	104	4173332480	60	36246
2026-01-10 19:12:32.42	256.18	0.54	-47.9	-60.0	3.6	8.45e-01	0	27	104	4173332480	60	36295
2026-01-10 19:12:36.46	255.97	0.32	-47.9	-60.0	3.6	8.46e-01	0	27	104	4173332480	60	36309
2026-01-10 19:12:40.50	255.77	0.09	-47.9	-60.0	3.6	8.45e-01	0	27	104	4173332480	60	36192

#Closed at: 2026-01-10 19:12:44
#Recorded file [4173 MB]: D:/lorett/data/35029_260111_065832.dat