passes_logs/2026/01/10/R4.6S_Anadyr/R4.6S_Anadyr__20260110_231108_TY-42_rec.log

#Pass ID: 20260110_231108_TY-42
#Satellite: TY-42
#Configuration: TY-42_900M
#almurnet v.1.7.20251203
#Start time: 2026-01-10 23:11:39

#Version: 2.2.20231116
#Station: R4.6S_Anadyr
#Location: 177.4865 lon 64.73178 lat
#TLE: 1 64048U 25103A   26010.69280093  .00008009  00000-0  38191-3 0 09991
#TLE: 2 64048 097.4118 086.1910 0001767 092.5284 306.6825 15.19162806 36165

#Time	Az	El	Level	Level2	SNR	BER	BlckErr	Temp	State	Recorded	gain1	gain2
2026-01-10 23:11:39.39	18.88	2.06	-48.0	-60.5	3.4	1.52e+00	0	25	0	0	60	37206
2026-01-10 23:11:42.42	18.95	2.27	-46.7	-49.1	6.1	0.00e+00	0	26	104	0	60	34984
2026-01-10 23:11:45.45	19.02	2.48	-46.7	-49.2	6.1	0.00e+00	0	27	104	0	60	35290
2026-01-10 23:11:48.47	19.10	2.70	-46.6	-49.1	6.1	0.00e+00	0	27	104	0	60	35044
2026-01-10 23:11:51.50	19.17	2.91	-46.7	-49.2	6.1	0.00e+00	0	27	104	0	60	35196
2026-01-10 23:11:54.53	19.25	3.13	-46.6	-49.2	6.1	0.00e+00	0	27	104	0	60	35126
2026-01-10 23:11:57.56	19.33	3.35	-46.6	-49.1	6.1	0.00e+00	0	27	104	0	60	35091
2026-01-10 23:12:00.58	19.40	3.58	-30.3	-30.7	14.3	0.00e+00	0	27	0	50331648	36	16719
2026-01-10 23:12:03.62	19.49	3.80	-29.7	-30.1	14.6	1.17e-02	0	28	0	394264576	34	17428
2026-01-10 23:12:06.64	19.57	4.03	-34.2	-34.5	12.1	1.95e-02	5	28	0	729808896	42	18396
2026-01-10 23:12:09.67	19.65	4.26	-36.8	-37.2	10.2	0.00e+00	105	27	104	914358272	52	14008
2026-01-10 23:12:12.70	19.73	4.49	-46.0	-48.2	6.1	0.00e+00	0	28	104	914358272	60	31584
2026-01-10 23:12:15.73	19.82	4.73	-31.3	-31.7	13.9	1.40e-01	0	28	0	1056964608	38	16674
2026-01-10 23:12:18.76	19.90	4.97	-28.3	-28.6	15.2	1.47e-02	0	28	0	1400897536	32	16612
2026-01-10 23:12:21.79	19.99	5.21	-27.3	-27.7	15.4	4.16e-03	0	28	0	1736441856	30	16772
2026-01-10 23:12:24.82	20.08	5.45	-27.3	-27.7	15.4	2.60e-03	0	28	0	2080374784	30	16764
2026-01-10 23:12:27.86	20.18	5.70	-27.3	-27.7	15.5	2.24e-03	0	28	0	2424307712	30	16683
2026-01-10 23:12:30.88	20.27	5.95	-26.7	-27.1	15.6	1.95e-03	0	28	0	2759852032	30	15678
2026-01-10 23:12:33.91	20.36	6.21	-26.9	-27.3	15.6	1.59e-03	0	28	0	3103784960	28	17814
2026-01-10 23:12:36.94	20.46	6.46	-26.6	-27.0	15.7	1.51e-03	0	28	0	3447717888	28	17386
2026-01-10 23:12:39.97	20.56	6.72	-26.4	-26.8	15.7	1.28e-03	0	28	0	3791650816	28	16985
2026-01-10 23:12:42.99	20.66	6.99	-26.6	-27.0	15.7	9.86e-04	0	28	0	4127195136	28	17247
2026-01-10 23:12:46.02	20.76	7.25	-26.2	-26.6	15.8	1.12e-03	0	28	0	4471128064	28	16513
2026-01-10 23:12:49.05	20.87	7.52	-26.1	-26.5	15.9	6.43e-04	0	29	0	4806672384	28	16290
2026-01-10 23:12:52.08	20.97	7.80	-26.2	-26.6	15.8	5.39e-04	0	29	0	5150605312	28	16518
2026-01-10 23:12:55.11	21.08	8.08	-26.0	-26.4	15.9	4.36e-04	0	29	0	5486149632	28	16237
2026-01-10 23:12:58.14	21.20	8.36	-25.8	-26.2	15.9	3.49e-04	0	29	0	5830082560	26	17726
2026-01-10 23:13:01.17	21.31	8.65	-25.9	-26.3	16.0	4.25e-04	0	29	0	6174015488	26	17836
2026-01-10 23:13:04.20	21.43	8.94	-25.6	-26.0	16.0	3.65e-04	0	29	0	6509559808	26	17360
2026-01-10 23:13:07.22	21.54	9.24	-25.5	-25.9	16.0	1.69e-04	0	29	0	6853492736	26	17068
2026-01-10 23:13:10.26	21.67	9.54	-25.3	-25.7	16.1	2.07e-04	0	29	0	7189037056	26	16748
2026-01-10 23:13:13.29	21.79	9.84	-25.3	-25.7	16.1	1.74e-04	0	29	0	7532969984	26	16741
2026-01-10 23:13:16.32	21.92	10.15	-25.1	-25.5	16.1	1.25e-04	0	29	0	7876902912	26	16241
2026-01-10 23:13:19.35	22.05	10.47	-24.7	-25.2	16.2	9.26e-05	0	29	0	8212447232	24	17604
2026-01-10 23:13:22.37	22.18	10.79	-24.7	-25.1	15.9	1.42e-04	0	29	0	8556380160	24	17494
2026-01-10 23:13:25.40	22.32	11.12	-24.4	-24.8	15.9	3.05e-04	0	29	0	8891924480	24	16980
2026-01-10 23:13:28.43	22.46	11.45	-24.3	-24.7	16.3	1.58e-04	0	29	0	9235857408	24	16716
2026-01-10 23:13:31.46	22.60	11.79	-24.2	-24.6	16.3	4.90e-05	0	29	0	9579790336	24	16559
2026-01-10 23:13:34.49	22.75	12.13	-24.0	-24.4	16.4	1.63e-05	0	29	0	9915334656	24	16149
2026-01-10 23:13:37.52	22.90	12.48	-24.2	-24.6	16.3	4.90e-05	0	29	0	10259267584	24	16524
2026-01-10 23:13:40.55	23.06	12.84	-23.8	-24.2	16.4	4.90e-05	0	29	0	10603200512	24	15849
2026-01-10 23:13:43.57	23.22	13.20	-23.7	-24.1	16.4	4.90e-05	0	29	0	10938744832	22	17535
2026-01-10 23:13:46.60	23.38	13.57	-23.4	-23.8	16.5	2.72e-05	0	29	0	11282677760	22	16938
2026-01-10 23:13:49.63	23.55	13.95	-23.3	-23.7	16.5	0.00e+00	0	29	0	11626610688	22	16744
2026-01-10 23:13:52.66	23.72	14.34	-23.1	-23.5	16.4	2.17e-05	0	29	0	11970543616	22	16373
2026-01-10 23:13:55.69	23.90	14.73	-22.9	-23.3	16.6	3.26e-05	0	29	0	12306087936	22	16034
2026-01-10 23:13:58.72	24.09	15.13	-22.8	-23.2	16.5	0.00e+00	0	29	0	12650020864	22	15803
2026-01-10 23:14:01.75	24.28	15.54	-22.8	-23.2	16.6	0.00e+00	0	29	0	12985565184	20	17691
2026-01-10 23:14:04.77	24.47	15.96	-22.5	-22.9	16.6	0.00e+00	0	29	0	13329498112	20	17166
2026-01-10 23:14:07.81	24.67	16.39	-22.2	-22.6	16.7	0.00e+00	0	29	0	13665042432	20	16595
2026-01-10 23:14:10.83	24.88	16.83	-22.1	-22.5	16.7	0.00e+00	0	29	0	14008975360	20	16384
2026-01-10 23:14:13.86	25.09	17.28	-22.1	-22.6	16.7	0.00e+00	0	29	0	14344519680	20	16470
2026-01-10 23:14:16.89	25.32	17.74	-22.0	-22.4	16.7	0.00e+00	0	29	0	14688452608	20	16142
2026-01-10 23:14:19.92	25.55	18.21	-21.6	-22.0	16.7	0.00e+00	0	29	0	15032385536	18	17316
2026-01-10 23:14:22.95	25.78	18.69	-21.5	-21.9	16.8	0.00e+00	0	29	0	15367929856	18	17029
2026-01-10 23:14:25.98	26.03	19.18	-21.3	-21.7	16.8	0.00e+00	0	29	0	15711862784	18	16782
2026-01-10 23:14:29.00	26.28	19.68	-21.2	-21.6	16.8	0.00e+00	0	29	0	16047407104	18	16526
2026-01-10 23:14:32.03	26.55	20.20	-20.9	-21.3	16.9	0.00e+00	0	29	0	16391340032	18	16047
2026-01-10 23:14:35.06	26.82	20.73	-20.6	-21.1	16.9	0.00e+00	0	29	0	16735272960	16	17436
2026-01-10 23:14:38.09	27.11	21.28	-20.5	-20.9	16.9	0.00e+00	0	29	0	17070817280	16	17168
2026-01-10 23:14:41.12	27.40	21.84	-20.3	-20.7	17.0	0.00e+00	0	29	0	17414750208	16	16792
2026-01-10 23:14:44.15	27.71	22.41	-20.0	-20.4	17.0	0.00e+00	0	29	0	17758683136	16	16205
2026-01-10 23:14:47.18	28.03	23.00	-19.7	-20.1	17.1	0.00e+00	0	30	0	18094227456	16	15658
2026-01-10 23:14:50.21	28.37	23.61	-19.5	-19.9	17.1	0.00e+00	0	29	0	18438160384	14	17142
2026-01-10 23:14:53.24	28.71	24.23	-19.5	-19.9	17.1	0.00e+00	0	30	0	18782093312	14	17097
2026-01-10 23:14:56.27	29.08	24.87	-19.1	-19.5	17.2	0.00e+00	0	29	0	19117637632	14	16377
2026-01-10 23:14:59.30	29.46	25.53	-18.7	-19.1	17.2	0.00e+00	0	29	0	19461570560	12	17545
2026-01-10 23:15:02.32	29.86	26.21	-18.3	-18.7	17.2	0.00e+00	0	29	0	19805503488	12	16783
2026-01-10 23:15:05.35	30.27	26.91	-18.0	-18.4	17.3	0.00e+00	0	29	0	20141047808	12	16230
2026-01-10 23:15:08.37	30.71	27.62	-18.1	-18.5	17.2	0.00e+00	0	30	0	20484980736	12	16391
2026-01-10 23:15:11.40	31.17	28.36	-18.0	-18.4	17.3	0.00e+00	0	29	0	20820525056	12	16112
2026-01-10 23:15:14.44	31.65	29.13	-17.4	-17.8	17.3	0.00e+00	0	29	0	21164457984	10	16956
2026-01-10 23:15:17.47	32.16	29.92	-17.3	-17.7	17.2	0.00e+00	0	30	0	21508390912	10	16711
2026-01-10 23:15:20.50	32.69	30.73	-17.1	-17.4	17.4	0.00e+00	0	29	0	21843935232	10	16224
2026-01-10 23:15:23.53	33.25	31.56	-16.7	-17.1	17.3	0.00e+00	0	30	0	22187868160	8	17515
2026-01-10 23:15:26.56	33.85	32.43	-16.8	-17.1	17.4	0.00e+00	0	30	0	22523412480	8	17575
2026-01-10 23:15:29.58	34.48	33.31	-16.1	-16.4	17.5	0.00e+00	0	29	0	22867345408	8	16226
2026-01-10 23:15:32.61	35.15	34.23	-15.9	-16.3	17.4	0.00e+00	0	29	0	23211278336	8	15893
2026-01-10 23:15:35.64	35.86	35.17	-15.7	-16.1	17.4	0.00e+00	0	29	0	23546822656	6	17412
2026-01-10 23:15:38.67	36.61	36.14	-15.4	-15.8	17.5	0.00e+00	0	30	0	23890755584	6	16895
2026-01-10 23:15:41.70	37.41	37.15	-15.1	-15.5	17.6	0.00e+00	0	30	0	24226299904	6	16296
2026-01-10 23:15:44.73	38.27	38.18	-14.7	-15.0	17.6	0.00e+00	0	30	0	24570232832	4	17391
2026-01-10 23:15:47.76	39.19	39.24	-14.6	-14.9	17.6	0.00e+00	0	30	0	24905777152	4	17195
2026-01-10 23:15:50.78	40.16	40.33	-14.2	-14.6	17.6	0.00e+00	0	30	0	25249710080	4	16533
2026-01-10 23:15:53.81	41.22	41.45	-13.9	-14.3	17.6	0.00e+00	0	29	0	25593643008	2	17849
2026-01-10 23:15:56.84	42.35	42.60	-13.7	-14.1	17.7	0.00e+00	0	29	0	25937575936	2	17491
2026-01-10 23:15:59.87	43.57	43.78	-13.1	-13.5	17.8	0.00e+00	0	29	0	26273120256	2	16408
2026-01-10 23:16:02.89	44.88	44.99	-13.1	-13.5	17.7	0.00e+00	0	29	0	26617053184	2	16283
2026-01-10 23:16:05.93	46.31	46.22	-12.0	-12.4	17.8	0.00e+00	0	29	0	26960986112	46	17223
2026-01-10 23:16:08.96	47.85	47.47	-11.7	-12.1	17.8	0.00e+00	0	30	0	27296530432	46	16626
2026-01-10 23:16:11.98	49.52	48.74	-11.4	-11.8	17.9	0.00e+00	0	30	0	27640463360	46	16086
2026-01-10 23:16:15.01	51.35	50.03	-11.1	-11.4	17.9	0.00e+00	0	29	0	27984396288	44	17326
2026-01-10 23:16:18.04	53.34	51.32	-11.0	-11.4	18.0	0.00e+00	0	30	0	28319940608	44	17212
2026-01-10 23:16:21.07	55.51	52.62	-10.8	-11.2	18.0	0.00e+00	0	29	0	28663873536	44	16888
2026-01-10 23:16:24.10	57.89	53.90	-10.3	-10.7	18.0	0.00e+00	0	29	0	28999417856	44	15985
2026-01-10 23:16:27.12	60.48	55.17	-10.1	-10.5	18.1	0.00e+00	0	30	0	29343350784	42	17501
2026-01-10 23:16:30.15	63.33	56.41	-10.0	-10.3	18.0	0.00e+00	0	30	0	29678895104	42	17148
2026-01-10 23:16:33.18	66.44	57.61	-9.9	-10.2	18.1	0.00e+00	0	30	0	30022828032	42	16990
2026-01-10 23:16:36.21	69.84	58.74	-9.6	-10.0	18.1	0.00e+00	0	30	0	30366760960	42	16477
2026-01-10 23:16:39.24	73.53	59.81	-9.5	-9.8	18.0	0.00e+00	0	29	0	30702305280	42	16205
2026-01-10 23:16:42.27	77.53	60.77	-9.6	-9.9	18.0	0.00e+00	0	30	0	31046238208	42	16369
2026-01-10 23:16:45.30	81.83	61.62	-9.3	-9.7	17.9	0.00e+00	0	30	0	31381782528	42	15962
2026-01-10 23:16:48.33	86.41	62.33	-9.5	-9.9	18.0	0.00e+00	0	30	0	31725715456	42	16295
2026-01-10 23:16:51.36	91.24	62.89	-9.5	-9.9	18.0	0.00e+00	0	30	0	32069648384	42	16337
2026-01-10 23:16:54.39	96.27	63.28	-9.4	-9.8	18.0	0.00e+00	0	30	0	32405192704	42	16103
2026-01-10 23:16:57.42	101.42	63.48	-9.1	-9.5	18.0	0.00e+00	0	30	0	32749125632	40	17444
2026-01-10 23:17:00.45	106.63	63.49	-9.2	-9.5	18.1	0.00e+00	0	30	0	33084669952	40	17588
2026-01-10 23:17:03.47	111.78	63.32	-9.2	-9.6	18.0	0.00e+00	0	30	0	33428602880	40	17626
2026-01-10 23:17:06.50	116.83	62.96	-9.2	-9.6	17.9	0.00e+00	0	30	0	33772535808	40	17723
2026-01-10 23:17:09.53	121.70	62.42	-9.4	-9.8	17.9	0.00e+00	0	30	0	34116468736	40	18130
2026-01-10 23:17:12.56	126.32	61.73	-9.4	-9.8	17.9	0.00e+00	0	30	0	34452013056	40	18045
2026-01-10 23:17:15.58	130.66	60.90	-9.5	-9.9	17.8	0.00e+00	0	30	0	34795945984	40	18340
2026-01-10 23:17:18.62	134.72	59.95	-9.6	-10.0	17.8	0.00e+00	0	30	0	35139878912	40	18464
2026-01-10 23:17:21.64	138.45	58.90	-9.6	-9.9	17.8	0.00e+00	0	30	0	35475423232	40	18402
2026-01-10 23:17:24.68	141.90	57.76	-9.7	-10.0	17.8	0.00e+00	0	30	0	35819356160	40	18581
2026-01-10 23:17:27.71	145.06	56.57	-9.8	-10.1	17.8	0.00e+00	0	30	0	36154900480	40	18852
2026-01-10 23:17:30.73	147.93	55.34	-10.0	-10.3	17.8	0.00e+00	0	30	0	36498833408	40	19264
2026-01-10 23:17:33.76	150.57	54.07	-10.1	-10.4	17.9	0.00e+00	0	30	0	36842766336	40	19421
2026-01-10 23:17:36.79	152.98	52.78	-10.3	-10.7	17.9	0.00e+00	0	30	0	37178310656	42	17858
2026-01-10 23:17:39.82	155.19	51.48	-10.5	-10.8	17.9	0.00e+00	0	30	0	37522243584	42	18150
2026-01-10 23:17:42.85	157.21	50.18	-10.7	-11.1	17.9	0.00e+00	0	30	0	37857787904	42	18656
2026-01-10 23:17:45.87	159.05	48.89	-48.0	-50.5	6.1	0.00e+00	0	30	104	38159777792	60	40910
2026-01-10 23:17:48.90	160.75	47.61	-48.0	-50.5	6.1	0.00e+00	0	30	104	38159777792	60	41066
2026-01-10 23:17:51.93	162.32	46.35	-48.0	-50.5	6.1	0.00e+00	0	30	104	38159777792	60	41248
2026-01-10 23:17:54.97	163.77	45.11	-48.0	-50.5	6.1	0.00e+00	0	30	104	38159777792	60	40876
2026-01-10 23:17:58.00	165.10	43.89	-47.9	-50.4	6.1	0.00e+00	0	30	104	38159777792	60	40661
2026-01-10 23:18:01.02	166.33	42.71	-47.8	-50.4	6.1	0.00e+00	0	30	104	38159777792	60	40493
2026-01-10 23:18:04.05	167.47	41.55	-47.9	-50.4	6.1	0.00e+00	0	30	104	38159777792	60	40529
2026-01-10 23:18:07.08	168.54	40.42	-47.6	-50.1	6.1	0.00e+00	0	30	104	38159777792	60	39383
2026-01-10 23:18:10.11	169.53	39.32	-47.8	-50.3	6.1	0.00e+00	0	30	104	38159777792	60	40053
2026-01-10 23:18:13.13	170.45	38.25	-48.0	-50.4	6.1	0.00e+00	0	30	104	38159777792	60	40711
2026-01-10 23:18:16.16	171.31	37.21	-48.0	-50.5	6.1	0.00e+00	0	30	104	38159777792	60	40922
2026-01-10 23:18:19.19	172.13	36.20	-48.0	-50.5	6.1	0.00e+00	0	30	104	38159777792	60	41069
2026-01-10 23:18:22.22	172.89	35.22	-47.8	-50.3	6.1	0.00e+00	0	30	104	38159777792	60	40277
2026-01-10 23:18:25.25	173.60	34.27	-47.8	-50.3	6.1	0.00e+00	0	30	104	38159777792	60	40088
2026-01-10 23:18:28.28	174.28	33.34	-47.7	-50.3	6.1	0.00e+00	0	30	104	38159777792	60	39920
2026-01-10 23:18:31.31	174.91	32.45	-47.6	-50.2	6.1	0.00e+00	0	30	104	38159777792	60	39683
2026-01-10 23:18:34.34	175.51	31.58	-47.8	-50.3	6.1	0.00e+00	0	30	104	38159777792	60	40256
2026-01-10 23:18:37.36	176.08	30.74	-47.9	-50.4	6.1	0.00e+00	0	30	104	38159777792	60	40653
2026-01-10 23:18:40.39	176.62	29.92	-47.9	-50.4	6.1	0.00e+00	0	30	104	38159777792	60	40436
2026-01-10 23:18:43.42	177.13	29.13	-48.0	-50.5	6.1	0.00e+00	0	30	104	38159777792	60	41043
2026-01-10 23:18:46.45	177.61	28.36	-47.9	-50.4	6.1	0.00e+00	0	30	104	38159777792	60	40669
2026-01-10 23:18:49.48	178.07	27.61	-47.8	-50.3	6.1	0.00e+00	0	30	104	38159777792	60	40312
2026-01-10 23:18:52.51	178.51	26.89	-47.9	-50.4	6.1	0.00e+00	0	30	104	38159777792	60	40425
2026-01-10 23:18:55.54	178.93	26.19	-47.8	-50.3	6.1	0.00e+00	0	30	104	38159777792	60	40123
2026-01-10 23:18:58.56	179.33	25.50	-47.7	-50.2	6.1	0.00e+00	0	30	104	38159777792	60	39482
2026-01-10 23:19:01.59	179.71	24.84	-47.6	-50.1	6.1	0.00e+00	0	30	104	38159777792	60	39386
2026-01-10 23:19:04.62	180.08	24.19	-47.4	-50.0	6.1	0.00e+00	0	30	104	38159777792	60	38778
2026-01-10 23:19:07.65	180.43	23.57	-47.5	-50.1	6.1	0.00e+00	0	30	104	38159777792	60	39036
2026-01-10 23:19:10.68	180.76	22.96	-47.5	-50.0	6.1	0.00e+00	0	30	104	38159777792	60	38840
2026-01-10 23:19:13.71	181.08	22.36	-47.4	-50.0	6.1	0.00e+00	0	30	104	38159777792	60	38564
2026-01-10 23:19:16.73	181.39	21.78	-47.6	-50.2	6.1	0.00e+00	0	30	104	38159777792	60	39560
2026-01-10 23:19:19.76	181.69	21.22	-47.5	-50.1	6.1	0.00e+00	0	30	104	38159777792	60	38979
2026-01-10 23:19:22.79	181.97	20.67	-47.6	-50.1	6.1	0.00e+00	0	30	104	38159777792	60	39237
2026-01-10 23:19:25.82	182.25	20.14	-47.5	-50.1	6.1	0.00e+00	0	30	104	38159777792	60	38999
2026-01-10 23:19:28.84	182.51	19.62	-47.7	-50.2	6.1	0.00e+00	0	30	104	38159777792	60	39615
2026-01-10 23:19:31.87	182.77	19.11	-47.5	-50.0	6.1	0.00e+00	0	30	104	38159777792	60	38897
2026-01-10 23:19:34.90	183.01	18.61	-47.5	-50.1	6.1	0.00e+00	0	30	104	38159777792	60	39016
2026-01-10 23:19:37.93	183.25	18.13	-47.3	-49.8	6.1	0.00e+00	0	30	104	38159777792	60	38047
2026-01-10 23:19:40.96	183.48	17.66	-47.3	-49.8	6.1	0.00e+00	0	30	104	38159777792	60	38003
2026-01-10 23:19:43.99	183.70	17.20	-47.3	-49.9	6.1	0.00e+00	0	31	104	38159777792	60	38172
2026-01-10 23:19:47.02	183.92	16.74	-47.4	-50.0	6.1	0.00e+00	0	31	104	38159777792	60	38582
2026-01-10 23:19:50.05	184.13	16.30	-47.2	-49.8	6.1	0.00e+00	0	31	104	38159777792	60	37657
2026-01-10 23:19:53.08	184.33	15.87	-47.3	-49.9	6.1	0.00e+00	0	31	104	38159777792	60	38432
2026-01-10 23:19:56.10	184.52	15.45	-47.4	-49.9	6.1	0.00e+00	0	31	104	38159777792	60	38234
2026-01-10 23:19:59.13	184.71	15.04	-47.4	-50.0	6.1	0.00e+00	0	31	104	38159777792	60	38684
2026-01-10 23:20:02.16	184.90	14.63	-47.0	-49.6	6.1	0.00e+00	0	31	104	38159777792	60	37028
2026-01-10 23:20:05.19	185.07	14.24	-46.9	-49.6	6.1	0.00e+00	0	31	104	38159777792	60	36840
2026-01-10 23:20:08.22	185.25	13.85	-47.3	-49.8	6.1	0.00e+00	0	31	104	38159777792	60	37919
2026-01-10 23:20:11.24	185.41	13.47	-47.2	-49.7	6.1	0.00e+00	0	31	104	38159777792	60	37625
2026-01-10 23:20:14.27	185.58	13.10	-47.0	-49.6	6.1	0.00e+00	0	31	104	38159777792	60	37016
2026-01-10 23:20:17.30	185.74	12.73	-47.0	-49.6	6.1	0.00e+00	0	31	104	38159777792	60	36879
2026-01-10 23:20:20.33	185.89	12.37	-46.6	-49.3	6.1	0.00e+00	0	31	104	38159777792	60	35641
2026-01-10 23:20:23.36	186.04	12.02	-46.5	-49.2	6.1	0.00e+00	0	31	104	38159777792	60	35444
2026-01-10 23:20:26.39	186.19	11.67	-46.3	-48.9	6.1	0.00e+00	0	31	104	38159777792	60	34304
2026-01-10 23:20:29.41	186.33	11.33	-46.3	-49.0	6.1	0.00e+00	0	31	104	38159777792	60	34345
2026-01-10 23:20:32.44	186.47	11.00	-46.7	-49.4	6.1	0.00e+00	0	31	104	38159777792	60	35999
2026-01-10 23:20:35.47	186.61	10.67	-46.4	-49.1	6.1	0.00e+00	0	31	104	38159777792	60	34995
2026-01-10 23:20:38.50	186.74	10.35	-46.8	-49.4	6.1	0.00e+00	0	31	104	38159777792	60	36159
2026-01-10 23:20:41.53	186.87	10.03	-46.3	-49.0	6.1	0.00e+00	0	31	104	38159777792	60	34684
2026-01-10 23:20:44.56	186.99	9.72	-46.4	-49.1	6.1	0.00e+00	0	31	104	38159777792	60	34957
2026-01-10 23:20:47.59	187.12	9.41	-46.8	-49.3	6.1	0.00e+00	0	31	104	38159777792	60	35863
2026-01-10 23:20:50.62	187.24	9.11	-46.7	-49.3	6.1	0.00e+00	0	31	104	38159777792	60	35912
2026-01-10 23:20:53.64	187.35	8.82	-46.5	-49.1	6.1	0.00e+00	0	31	104	38159777792	60	34752
2026-01-10 23:20:56.67	187.47	8.52	-46.6	-49.2	6.1	0.00e+00	0	31	104	38159777792	60	35509
2026-01-10 23:20:59.70	187.58	8.23	-47.0	-49.6	6.1	0.00e+00	0	31	104	38159777792	60	36840
2026-01-10 23:21:02.73	187.69	7.95	-46.9	-49.5	6.1	0.00e+00	0	31	104	38159777792	60	36442
2026-01-10 23:21:05.76	187.80	7.67	-46.8	-49.4	6.1	0.00e+00	0	31	104	38159777792	60	36144
2026-01-10 23:21:08.80	187.90	7.39	-46.4	-49.0	6.1	0.00e+00	0	31	104	38159777792	60	34642
2026-01-10 23:21:11.82	188.01	7.12	-46.4	-49.0	6.1	0.00e+00	0	31	104	38159777792	60	34651
2026-01-10 23:21:14.85	188.11	6.85	-46.5	-49.1	6.1	0.00e+00	0	31	104	38159777792	60	35085
2026-01-10 23:21:17.88	188.21	6.59	-46.6	-49.2	6.1	0.00e+00	0	31	104	38159777792	60	35168
2026-01-10 23:21:20.91	188.31	6.33	-46.4	-49.0	6.1	0.00e+00	0	31	104	38159777792	60	34644
2026-01-10 23:21:23.94	188.40	6.07	-46.4	-49.1	6.1	0.00e+00	0	31	104	38159777792	60	34802
2026-01-10 23:21:26.97	188.49	5.81	-46.3	-48.9	6.1	0.00e+00	0	31	104	38159777792	60	34221
2026-01-10 23:21:29.99	188.58	5.56	-46.2	-48.8	6.1	0.00e+00	0	31	104	38159777792	60	33676
2026-01-10 23:21:33.02	188.67	5.31	-46.8	-49.3	6.1	0.00e+00	0	31	104	38159777792	60	35790
2026-01-10 23:21:36.05	188.76	5.07	-46.7	-49.3	6.1	0.00e+00	0	31	104	38159777792	60	35643
2026-01-10 23:21:39.08	188.85	4.83	-46.9	-49.4	6.1	0.00e+00	0	31	104	38159777792	60	36112
2026-01-10 23:21:42.10	188.93	4.59	-46.8	-49.4	6.1	0.00e+00	0	31	104	38159777792	60	35991
2026-01-10 23:21:45.13	189.02	4.35	-46.6	-49.1	6.1	0.00e+00	0	31	104	38159777792	60	34873
2026-01-10 23:21:48.16	189.10	4.12	-46.8	-49.3	6.1	0.00e+00	0	31	104	38159777792	60	35798
2026-01-10 23:21:51.19	189.18	3.89	-46.6	-49.1	6.1	0.00e+00	0	31	104	38159777792	60	35077
2026-01-10 23:21:54.22	189.26	3.66	-46.7	-49.3	6.1	0.00e+00	0	31	104	38159777792	60	35631
2026-01-10 23:21:57.24	189.34	3.43	-46.4	-48.9	6.1	0.00e+00	0	31	104	38159777792	60	33991
2026-01-10 23:22:00.27	189.41	3.21	-46.6	-49.1	6.1	0.00e+00	0	31	104	38159777792	60	34991
2026-01-10 23:22:03.30	189.49	2.99	-46.3	-48.8	6.1	0.00e+00	0	31	104	38159777792	60	33806
2026-01-10 23:22:06.33	189.56	2.77	-47.6	-50.1	6.1	0.00e+00	0	31	104	38159777792	60	38991
2026-01-10 23:22:09.36	189.64	2.55	-48.0	-50.5	6.1	0.00e+00	0	31	104	38159777792	60	41020
2026-01-10 23:22:12.38	189.71	2.34	-48.1	-50.6	6.1	0.00e+00	0	31	104	38159777792	60	41425
2026-01-10 23:22:15.42	189.78	2.12	-47.9	-50.4	6.1	0.00e+00	0	31	104	38159777792	60	40652
2026-01-10 23:22:18.45	189.85	1.91	-47.4	-49.9	6.1	0.00e+00	0	31	104	38159777792	60	38459
2026-01-10 23:22:21.47	189.92	1.70	-48.1	-50.5	6.1	0.00e+00	0	31	104	38159777792	60	41260
2026-01-10 23:22:24.50	189.98	1.50	-48.0	-50.6	6.1	0.00e+00	0	31	104	38159777792	60	41314
2026-01-10 23:22:27.53	190.05	1.29	-48.0	-50.5	6.1	0.00e+00	0	31	104	38159777792	60	40940
2026-01-10 23:22:30.56	190.11	1.09	-48.0	-50.5	6.1	0.00e+00	0	31	104	38159777792	60	41157
2026-01-10 23:22:33.58	190.18	0.89	-48.0	-50.5	6.1	0.00e+00	0	31	104	38159777792	60	40934
2026-01-10 23:22:36.61	190.24	0.69	-48.0	-50.5	6.1	0.00e+00	0	31	104	38159777792	60	40876
2026-01-10 23:22:39.64	190.30	0.49	-48.0	-50.5	6.1	0.00e+00	0	31	104	38159777792	60	41153
2026-01-10 23:22:42.67	190.37	0.29	-48.0	-50.5	6.1	0.00e+00	0	31	104	38159777792	60	40961
2026-01-10 23:22:45.70	190.43	0.10	-48.0	-50.5	6.1	0.00e+00	0	31	104	38159777792	60	40921
2026-01-10 23:22:48.73	190.49	-0.10	-48.0	-50.5	6.1	0.00e+00	0	31	104	38159777792	60	41119

#Closed at: 2026-01-10 23:22:49
#Recorded file [38159 MB]: D:/lorett/data/35029_260111_111139.dat