passes_logs/2026/01/10/R4.6S_Anadyr/R4.6S_Anadyr__20260110_143810_SUOMI_NPP_rec.log

#Pass ID: 20260110_143810_SUOMI NPP
#Satellite: SUOMI NPP
#Configuration: NPP
#almurnet v.1.7.20251203
#Start time: 2026-01-10 14:38:11

#Version: 2.2.20231116
#Station: R4.6S_Anadyr
#Location: 177.4865 lon 64.73178 lat
#TLE: 1 37849U 11061A   26009.81756760  .00000113  00000+0  74747-4 0  9994
#TLE: 2 37849  98.7806 311.9110 0002525  72.5604 287.5848 14.19524046735974

#Time	Az	El	Level	Level2	SNR	BER	BlckErr	Temp	State	Recorded	gain1	gain2
2026-01-10 14:38:11.84	20.24	0.10	-48.1	-60.6	3.4	1.52e+00	0	26	0	0	60	37561
2026-01-10 14:38:15.88	20.28	0.35	-48.2	-63.4	3.6	1.51e+00	0	28	104	0	60	53637
2026-01-10 14:38:19.92	20.32	0.59	-48.1	-63.3	3.6	1.51e+00	0	28	104	0	60	53105
2026-01-10 14:38:23.96	20.36	0.84	-47.7	-62.8	3.6	1.51e+00	0	28	104	0	60	50155
2026-01-10 14:38:28.00	20.40	1.08	-46.7	-61.8	3.6	1.51e+00	0	28	104	0	60	44656
2026-01-10 14:38:32.04	20.44	1.33	-46.7	-61.8	3.6	1.51e+00	0	28	104	0	60	44319
2026-01-10 14:38:36.08	20.48	1.59	-46.7	-61.8	3.6	1.51e+00	0	28	104	0	60	44339
2026-01-10 14:38:40.12	20.52	1.84	-46.7	-61.8	3.6	1.51e+00	0	28	104	0	60	44687
2026-01-10 14:38:44.16	20.56	2.10	-46.7	-61.9	3.6	1.51e+00	0	28	104	0	60	44732
2026-01-10 14:38:48.20	20.60	2.36	-46.7	-61.0	3.6	1.51e+00	0	28	104	0	60	40450
2026-01-10 14:38:52.24	20.64	2.62	-46.6	-59.2	3.8	1.48e+00	0	28	104	0	60	32976
2026-01-10 14:38:56.28	20.68	2.88	-46.3	-54.8	5.2	8.81e-01	0	29	0	1048576	60	19789
2026-01-10 14:39:00.32	20.72	3.15	-44.0	-47.6	13.1	5.87e-05	0	28	0	8388608	60	8692
2026-01-10 14:39:04.36	20.76	3.42	-42.3	-44.7	16.0	0.00e+00	0	29	0	15728640	58	6961
2026-01-10 14:39:08.39	20.80	3.69	-43.4	-46.5	14.2	0.00e+00	71	29	0	23068672	58	8540
2026-01-10 14:39:12.43	20.85	3.96	-43.8	-47.2	12.8	5.56e-05	0	29	0	31457280	60	8289
2026-01-10 14:39:16.47	20.89	4.24	-43.6	-46.7	14.2	3.80e-06	0	29	0	31457280	60	7808
2026-01-10 14:39:20.50	20.93	4.52	-42.7	-45.2	15.8	0.00e+00	0	29	0	38797312	58	7412
2026-01-10 14:39:24.54	20.98	4.80	-40.8	-42.4	18.5	0.00e+00	90	29	0	46137344	56	6020
2026-01-10 14:39:28.58	21.02	5.09	-39.9	-41.3	19.5	0.00e+00	0	29	0	53477376	54	5937
2026-01-10 14:39:32.62	21.07	5.38	-39.7	-41.1	19.8	0.00e+00	0	29	0	61865984	52	6522
2026-01-10 14:39:36.65	21.11	5.67	-39.7	-41.1	19.9	0.00e+00	1	29	0	69206016	52	6513
2026-01-10 14:39:40.69	21.16	5.97	-39.9	-41.3	19.7	0.00e+00	39	29	0	76546048	52	6649
2026-01-10 14:39:44.73	21.21	6.26	-39.8	-41.2	19.8	0.00e+00	0	29	0	83886080	52	6553
2026-01-10 14:39:48.77	21.26	6.57	-39.5	-40.8	20.2	0.00e+00	0	29	0	91226112	52	6267
2026-01-10 14:39:52.81	21.30	6.87	-39.1	-40.3	20.6	0.00e+00	13	29	0	99614720	52	5956
2026-01-10 14:39:56.84	21.35	7.18	-39.2	-40.4	20.6	0.00e+00	0	29	0	106954752	52	6017
2026-01-10 14:40:00.88	21.40	7.50	-38.9	-40.1	20.9	0.00e+00	29	29	0	114294784	52	5784
2026-01-10 14:40:04.92	21.45	7.81	-38.7	-39.8	21.1	0.00e+00	0	29	0	121634816	50	6307
2026-01-10 14:40:08.96	21.50	8.13	-38.8	-40.0	21.0	0.00e+00	92	29	0	130023424	50	6460
2026-01-10 14:40:13.00	21.56	8.46	-38.4	-39.6	21.4	0.00e+00	0	29	0	137363456	50	6114
2026-01-10 14:40:17.04	21.61	8.79	-38.2	-39.3	21.6	0.00e+00	0	29	0	144703488	50	5959
2026-01-10 14:40:21.09	21.66	9.13	-38.3	-39.4	21.5	0.00e+00	0	29	0	152043520	50	6015
2026-01-10 14:40:25.13	21.72	9.46	-38.0	-39.1	21.9	0.00e+00	92	29	0	159383552	50	5803
2026-01-10 14:40:29.17	21.77	9.81	-37.7	-38.7	22.2	0.00e+00	0	29	0	167772160	48	6238
2026-01-10 14:40:33.21	21.83	10.16	-37.6	-38.6	22.3	0.00e+00	0	29	0	175112192	48	6145
2026-01-10 14:40:37.25	21.88	10.51	-37.5	-38.6	22.4	0.00e+00	3	29	0	182452224	48	6104
2026-01-10 14:40:41.29	21.94	10.87	-37.6	-38.6	22.3	0.00e+00	0	29	0	189792256	48	6117
2026-01-10 14:40:45.32	22.00	11.23	-37.2	-38.2	22.7	0.00e+00	0	29	0	198180864	48	5881
2026-01-10 14:40:49.36	22.06	11.60	-37.1	-38.1	22.8	0.00e+00	0	29	0	205520896	48	5778
2026-01-10 14:40:53.40	22.12	11.98	-36.9	-37.9	22.9	0.00e+00	89	29	0	212860928	48	5660
2026-01-10 14:40:57.44	22.18	12.36	-36.7	-37.7	23.1	0.00e+00	0	29	0	220200960	48	5526
2026-01-10 14:41:01.47	22.25	12.74	-36.8	-37.7	23.1	0.00e+00	0	29	0	227540992	46	6205
2026-01-10 14:41:05.51	22.31	13.14	-36.4	-37.3	23.4	0.00e+00	17	29	0	235929600	46	5959
2026-01-10 14:41:09.55	22.38	13.54	-36.5	-37.4	23.5	0.00e+00	76	29	0	243269632	46	5989
2026-01-10 14:41:13.59	22.44	13.94	-36.4	-37.3	23.5	0.00e+00	0	29	0	250609664	46	5904
2026-01-10 14:41:17.63	22.51	14.36	-36.4	-37.3	23.6	0.00e+00	0	29	0	257949696	46	5930
2026-01-10 14:41:21.67	22.58	14.78	-36.3	-37.1	23.6	0.00e+00	92	29	0	266338304	46	5827
2026-01-10 14:41:25.71	22.65	15.20	-36.2	-37.1	23.6	0.00e+00	0	29	0	273678336	46	5807
2026-01-10 14:41:29.75	22.73	15.64	-36.0	-36.9	23.8	0.00e+00	0	29	0	281018368	46	5659
2026-01-10 14:41:33.79	22.80	16.08	-36.4	-37.2	23.2	0.00e+00	0	29	0	288358400	46	5895
2026-01-10 14:41:37.83	22.88	16.53	-36.2	-37.1	23.7	0.00e+00	92	29	0	295698432	46	5784
2026-01-10 14:41:41.87	22.95	16.99	-36.4	-37.3	23.4	0.00e+00	0	29	0	304087040	46	5932
2026-01-10 14:41:45.91	23.03	17.46	-36.7	-37.6	23.4	0.00e+00	0	29	0	311427072	46	6159
2026-01-10 14:41:49.94	23.12	17.94	-36.7	-37.6	23.4	0.00e+00	0	29	0	318767104	46	6150
2026-01-10 14:41:53.98	23.20	18.43	-36.9	-37.8	23.4	0.00e+00	92	30	0	326107136	46	6254
2026-01-10 14:41:58.02	23.29	18.92	-36.9	-37.9	23.3	0.00e+00	0	30	0	334495744	46	6337
2026-01-10 14:42:02.05	23.37	19.43	-37.1	-38.0	23.1	0.00e+00	0	30	0	341835776	46	6438
2026-01-10 14:42:06.09	23.47	19.95	-37.3	-38.2	22.9	0.00e+00	6	30	0	349175808	46	6590
2026-01-10 14:42:10.13	23.56	20.48	-37.8	-38.8	22.4	0.00e+00	92	30	0	356515840	48	6314
2026-01-10 14:42:14.17	23.66	21.02	-37.8	-38.8	22.6	0.00e+00	0	30	0	363855872	48	6279
2026-01-10 14:42:18.21	23.76	21.57	-37.7	-38.7	22.6	0.00e+00	0	30	0	372244480	48	6238
2026-01-10 14:42:22.25	23.86	22.13	-38.1	-39.1	22.2	0.00e+00	92	30	0	379584512	48	6495
2026-01-10 14:42:26.29	23.96	22.71	-38.1	-39.2	22.2	0.00e+00	0	30	0	386924544	48	6542
2026-01-10 14:42:30.33	24.07	23.30	-38.0	-39.0	22.3	0.00e+00	0	30	0	394264576	48	6450
2026-01-10 14:42:34.37	24.18	23.90	-37.9	-38.8	22.6	0.00e+00	0	30	0	402653184	48	6308
2026-01-10 14:42:38.41	24.30	24.52	-37.8	-38.7	22.4	0.00e+00	82	30	0	409993216	48	6230
2026-01-10 14:42:42.45	24.42	25.16	-37.4	-38.4	22.9	0.00e+00	0	30	0	417333248	48	5991
2026-01-10 14:42:46.49	24.54	25.80	-37.4	-38.4	22.9	0.00e+00	0	30	0	424673280	48	5981
2026-01-10 14:42:50.53	24.67	26.47	-37.5	-38.4	22.8	0.00e+00	45	30	0	432013312	48	6025
2026-01-10 14:42:54.57	24.81	27.15	-37.8	-38.8	22.6	0.00e+00	90	30	0	440401920	48	6273
2026-01-10 14:42:58.61	24.95	27.85	-37.9	-38.9	22.5	0.00e+00	0	30	0	447741952	48	6378
2026-01-10 14:43:02.65	25.09	28.57	-37.5	-38.5	22.9	0.00e+00	0	30	0	455081984	48	6063
2026-01-10 14:43:06.69	25.24	29.30	-38.3	-39.3	22.2	0.00e+00	91	30	0	462422016	48	6675
2026-01-10 14:43:10.73	25.40	30.06	-38.7	-39.8	21.8	0.00e+00	0	30	0	470810624	48	7075
2026-01-10 14:43:14.77	25.56	30.83	-39.1	-40.3	21.4	0.00e+00	0	30	0	478150656	50	6655
2026-01-10 14:43:18.81	25.73	31.63	-41.3	-42.9	19.0	0.00e+00	0	30	0	485490688	54	7146
2026-01-10 14:43:22.85	25.91	32.45	-40.4	-41.9	20.0	0.00e+00	92	30	0	492830720	54	6331
2026-01-10 14:43:26.89	26.10	33.29	-40.7	-42.2	19.5	0.00e+00	0	30	0	500170752	54	6608
2026-01-10 14:43:30.93	26.29	34.16	-38.8	-39.9	21.2	0.00e+00	0	30	0	508559360	52	5690
2026-01-10 14:43:34.97	26.50	35.05	-37.2	-38.1	23.1	0.00e+00	0	30	0	515899392	48	5811
2026-01-10 14:43:39.01	26.72	35.97	-36.9	-37.7	23.6	0.00e+00	60	30	0	523239424	48	5556
2026-01-10 14:43:43.05	26.95	36.91	-37.1	-38.0	23.3	0.00e+00	0	30	0	530579456	46	6443
2026-01-10 14:43:47.09	27.19	37.88	-37.8	-38.8	22.6	0.00e+00	0	30	0	538968064	48	6289
2026-01-10 14:43:51.13	27.44	38.88	-37.3	-38.3	23.1	0.00e+00	67	30	0	546308096	48	5920
2026-01-10 14:43:55.16	27.71	39.90	-38.8	-40.0	21.7	0.00e+00	0	30	0	553648128	50	6463
2026-01-10 14:43:59.20	28.00	40.96	-38.5	-39.6	21.9	0.00e+00	21	30	0	560988160	50	6145
2026-01-10 14:44:03.24	28.31	42.05	-37.5	-38.4	23.0	0.00e+00	0	30	0	568328192	48	6016
2026-01-10 14:44:07.27	28.64	43.17	-36.3	-37.2	23.9	0.00e+00	92	30	0	576716800	46	5829
2026-01-10 14:44:11.32	28.99	44.33	-36.9	-37.9	23.4	0.00e+00	0	30	0	584056832	46	6335
2026-01-10 14:44:15.36	29.36	45.51	-39.4	-40.7	21.4	0.00e+00	0	30	0	591396864	50	6945
2026-01-10 14:44:19.40	29.77	46.74	-40.1	-41.5	20.7	0.00e+00	0	30	0	598736896	52	6821
2026-01-10 14:44:23.44	30.20	48.00	-38.5	-39.6	22.0	0.00e+00	91	30	0	607125504	50	6170
2026-01-10 14:44:27.48	30.67	49.29	-36.6	-37.5	23.7	0.00e+00	0	30	0	614465536	46	6058
2026-01-10 14:44:31.52	31.19	50.63	-36.0	-36.9	24.1	0.00e+00	0	30	0	621805568	46	5675
2026-01-10 14:44:35.55	31.74	51.99	-35.0	-35.9	24.7	0.00e+00	6	30	0	629145600	44	5638
2026-01-10 14:44:39.59	32.36	53.40	-35.2	-36.1	24.9	0.00e+00	90	30	0	636485632	42	6469
2026-01-10 14:44:43.63	33.03	54.84	-34.0	-34.8	25.5	0.00e+00	0	30	0	644874240	42	5588
2026-01-10 14:44:47.67	33.78	56.32	-34.2	-35.0	25.4	0.00e+00	0	30	0	652214272	42	5760
2026-01-10 14:44:51.71	34.61	57.84	-33.3	-34.0	25.8	0.00e+00	92	30	0	659554304	40	5760
2026-01-10 14:44:55.75	35.53	59.39	-34.3	-35.0	25.0	0.00e+00	0	30	0	666894336	40	6462
2026-01-10 14:44:59.78	36.57	60.97	-35.1	-35.9	24.8	0.00e+00	0	30	0	675282944	42	6362
2026-01-10 14:45:03.82	37.75	62.58	-35.4	-36.3	24.7	0.00e+00	0	30	0	682622976	42	6629
2026-01-10 14:45:07.86	39.11	64.22	-35.2	-36.0	24.6	0.00e+00	46	30	0	689963008	42	6427
2026-01-10 14:45:11.89	40.66	65.88	-34.8	-35.6	25.0	0.00e+00	0	30	0	697303040	42	6117
2026-01-10 14:45:15.93	42.47	67.56	-36.4	-37.3	23.8	0.00e+00	0	30	0	704643072	46	5940
2026-01-10 14:45:19.97	44.60	69.25	-38.5	-39.7	21.8	0.00e+00	0	30	0	713031680	48	6930
2026-01-10 14:45:24.00	47.14	70.94	-39.5	-40.7	21.2	0.00e+00	73	30	0	720371712	52	6196
2026-01-10 14:45:28.04	50.20	72.61	-40.2	-41.7	20.2	0.00e+00	0	30	0	727711744	52	7001
2026-01-10 14:45:32.08	53.94	74.25	-38.1	-39.1	22.5	0.00e+00	0	30	0	735051776	50	5802
2026-01-10 14:45:36.12	58.57	75.84	-37.9	-38.9	22.5	0.00e+00	92	30	0	743440384	48	6329
2026-01-10 14:45:40.16	64.37	77.33	-37.6	-38.6	22.9	0.00e+00	0	30	0	750780416	48	6165
2026-01-10 14:45:44.20	71.67	78.67	-39.3	-40.4	21.3	0.00e+00	0	30	0	758120448	50	6767
2026-01-10 14:45:48.24	80.79	79.80	-39.1	-40.3	21.3	0.00e+00	0	30	0	765460480	50	6650
2026-01-10 14:45:52.28	91.87	80.62	-40.6	-42.1	20.0	0.00e+00	73	30	0	772800512	54	6514
2026-01-10 14:45:56.31	104.51	81.05	-38.9	-40.0	21.7	0.00e+00	0	30	0	781189120	50	6450
2026-01-10 14:46:00.35	117.74	81.01	-40.9	-42.4	19.4	0.00e+00	0	30	0	788529152	54	6731
2026-01-10 14:46:04.39	130.22	80.52	-41.5	-43.0	19.1	0.00e+00	0	30	0	795869184	56	6448
2026-01-10 14:46:08.43	141.02	79.65	-41.0	-42.5	19.5	0.00e+00	61	30	0	803209216	56	6052
2026-01-10 14:46:12.47	149.85	78.48	-37.9	-38.9	22.6	0.00e+00	0	30	0	811597824	50	5647
2026-01-10 14:46:16.50	156.89	77.11	-37.5	-38.4	23.0	0.00e+00	0	30	0	818937856	48	6009
2026-01-10 14:46:20.54	162.49	75.60	-37.6	-38.7	22.5	0.00e+00	4	30	0	826277888	46	6936
2026-01-10 14:46:24.58	166.98	74.00	-37.5	-38.5	22.8	0.00e+00	24	30	0	833617920	48	6055
2026-01-10 14:46:28.62	170.60	72.35	-38.7	-39.8	21.9	0.00e+00	0	30	0	840957952	50	6257
2026-01-10 14:46:32.66	173.58	70.67	-42.0	-43.8	18.7	0.00e+00	0	30	0	849346560	58	6283
2026-01-10 14:46:36.69	176.04	68.98	-43.1	-45.3	17.3	0.00e+00	7	30	0	856686592	58	7437
2026-01-10 14:46:40.73	178.12	67.29	-37.9	-38.9	22.3	0.00e+00	0	30	0	864026624	50	5631
2026-01-10 14:46:44.77	179.89	65.61	-37.7	-38.6	22.8	0.00e+00	0	30	0	871366656	50	5493
2026-01-10 14:46:48.81	181.42	63.95	-37.1	-38.1	23.3	0.00e+00	0	30	0	879755264	48	5791
2026-01-10 14:46:52.85	182.74	62.31	-37.0	-38.0	23.1	0.00e+00	92	30	0	887095296	46	6415
2026-01-10 14:46:56.88	183.90	60.70	-35.5	-36.3	24.6	0.00e+00	0	30	0	894435328	42	6650
2026-01-10 14:47:00.92	184.92	59.12	-36.9	-37.8	23.4	0.00e+00	0	30	0	901775360	46	6316
2026-01-10 14:47:04.96	185.83	57.57	-36.1	-36.9	24.1	0.00e+00	0	30	0	909115392	46	5694
2026-01-10 14:47:09.00	186.65	56.05	-36.5	-37.4	23.7	0.00e+00	89	30	0	917504000	44	6768
2026-01-10 14:47:13.03	187.38	54.58	-36.7	-37.6	23.7	0.00e+00	0	30	0	924844032	46	6170
2026-01-10 14:47:17.07	188.04	53.14	-40.3	-41.8	20.0	0.00e+00	5	30	0	932184064	54	6304
2026-01-10 14:47:21.11	188.64	51.73	-37.3	-38.2	23.0	0.00e+00	4	30	0	939524096	48	5874
2026-01-10 14:47:25.15	189.20	50.36	-38.3	-39.4	22.3	0.00e+00	35	30	0	946864128	50	6014
2026-01-10 14:47:29.19	189.70	49.03	-37.2	-38.2	23.3	0.00e+00	0	30	0	955252736	46	6553
2026-01-10 14:47:33.22	190.17	47.74	-44.8	-49.4	12.6	0.00e+00	0	30	0	962592768	60	10704
2026-01-10 14:47:37.27	190.60	46.48	-38.3	-39.3	22.4	0.00e+00	92	30	0	969932800	50	5928
2026-01-10 14:47:41.30	190.99	45.26	-39.8	-41.2	20.4	0.00e+00	0	30	0	977272832	52	6565
2026-01-10 14:47:45.34	191.36	44.08	-37.5	-38.5	22.9	0.00e+00	0	30	0	985661440	48	6067
2026-01-10 14:47:49.38	191.71	42.92	-35.6	-36.4	24.5	0.00e+00	0	30	0	993001472	44	6028
2026-01-10 14:47:53.42	192.03	41.80	-38.0	-39.1	22.3	0.00e+00	92	30	0	1000341504	48	6529
2026-01-10 14:47:57.45	192.33	40.72	-38.4	-39.6	22.1	0.00e+00	0	30	0	1007681536	50	6132
2026-01-10 14:48:01.49	192.62	39.66	-35.6	-36.4	24.5	0.00e+00	0	30	0	1015021568	46	5351
2026-01-10 14:48:05.53	192.89	38.63	-38.6	-39.7	21.7	0.00e+00	0	30	0	1023410176	48	6953
2026-01-10 14:48:09.57	193.14	37.64	-45.0	-49.5	12.7	9.10e-06	67	30	0	1030750208	60	10787
2026-01-10 14:48:13.60	193.38	36.67	-39.0	-40.2	21.6	0.00e+00	0	30	0	1038090240	52	5888
2026-01-10 14:48:17.64	193.60	35.73	-37.9	-38.9	22.7	0.00e+00	0	29	0	1045430272	48	6356
2026-01-10 14:48:21.68	193.82	34.82	-40.9	-42.6	19.3	0.00e+00	54	30	0	1053818880	54	6865
2026-01-10 14:48:25.72	194.02	33.93	-45.3	-49.7	12.4	3.50e-05	0	30	0	1061158912	60	11062
2026-01-10 14:48:29.75	194.21	33.07	-45.2	-49.7	11.7	2.07e-04	0	30	0	1068498944	60	11022
2026-01-10 14:48:33.79	194.40	32.22	-40.9	-42.5	19.7	0.00e+00	0	29	0	1075838976	56	6039
2026-01-10 14:48:37.83	194.57	31.41	-39.3	-40.5	21.4	0.00e+00	90	29	0	1083179008	52	6064
2026-01-10 14:48:41.87	194.74	30.61	-40.6	-42.1	19.9	0.00e+00	0	29	0	1091567616	52	7296
2026-01-10 14:48:45.91	194.90	29.84	-40.3	-41.7	20.0	0.00e+00	0	29	0	1098907648	54	6243
2026-01-10 14:48:49.95	195.06	29.08	-38.9	-40.0	21.7	0.00e+00	5	29	0	1106247680	52	5752
2026-01-10 14:48:53.99	195.21	28.35	-38.6	-39.7	22.0	0.00e+00	92	29	0	1113587712	50	6204
2026-01-10 14:48:58.03	195.35	27.63	-37.6	-38.6	22.8	0.00e+00	0	29	0	1121976320	48	6143
2026-01-10 14:49:02.07	195.48	26.93	-36.5	-37.4	23.8	0.00e+00	0	29	0	1129316352	46	5980
2026-01-10 14:49:06.11	195.62	26.25	-36.1	-37.0	23.9	0.00e+00	92	29	0	1136656384	46	5719
2026-01-10 14:49:10.15	195.74	25.59	-36.2	-37.1	24.1	0.00e+00	10	29	0	1143996416	46	5822
2026-01-10 14:49:14.19	195.86	24.94	-36.3	-37.2	23.8	0.00e+00	27	29	0	1151336448	46	5877
2026-01-10 14:49:18.23	195.98	24.31	-36.7	-37.6	23.6	0.00e+00	0	29	0	1159725056	46	6150
2026-01-10 14:49:22.27	196.10	23.69	-35.7	-36.6	24.2	0.00e+00	91	29	0	1167065088	44	6124
2026-01-10 14:49:26.30	196.20	23.09	-35.2	-36.0	24.7	0.00e+00	0	29	0	1174405120	44	5724
2026-01-10 14:49:30.34	196.31	22.50	-35.1	-35.9	24.7	0.00e+00	0	29	0	1181745152	44	5664
2026-01-10 14:49:34.38	196.41	21.92	-35.6	-36.4	24.3	0.00e+00	0	29	0	1190133760	44	6015
2026-01-10 14:49:38.42	196.51	21.36	-35.7	-36.6	24.2	0.00e+00	87	29	0	1197473792	44	6133
2026-01-10 14:49:42.46	196.61	20.80	-36.2	-37.1	23.8	0.00e+00	0	29	0	1204813824	44	6497
2026-01-10 14:49:46.49	196.70	20.27	-36.6	-37.5	23.5	0.00e+00	0	29	0	1212153856	46	6073
2026-01-10 14:49:50.53	196.80	19.74	-36.6	-37.5	23.6	0.00e+00	0	29	0	1219493888	46	6039
2026-01-10 14:49:54.57	196.88	19.22	-36.3	-37.2	23.7	0.00e+00	71	29	0	1227882496	46	5844
2026-01-10 14:49:58.61	196.97	18.71	-36.3	-37.2	23.8	0.00e+00	0	29	0	1235222528	46	5877
2026-01-10 14:50:02.65	197.05	18.22	-36.3	-37.2	23.6	0.00e+00	0	29	0	1242562560	46	5849
2026-01-10 14:50:06.69	197.13	17.73	-36.3	-37.1	23.6	0.00e+00	92	29	0	1249902592	46	5811
2026-01-10 14:50:10.72	197.21	17.25	-36.7	-37.6	23.4	0.00e+00	0	29	0	1258291200	46	6163
2026-01-10 14:50:14.76	197.29	16.78	-37.1	-38.0	23.1	0.00e+00	0	29	0	1265631232	46	6416
2026-01-10 14:50:18.80	197.37	16.32	-36.9	-37.9	23.3	0.00e+00	0	29	0	1272971264	46	6326
2026-01-10 14:50:22.84	197.44	15.87	-36.8	-37.9	23.3	0.00e+00	92	29	0	1280311296	46	6319
2026-01-10 14:50:26.88	197.51	15.43	-37.1	-38.0	23.0	0.00e+00	0	28	0	1287651328	46	6450
2026-01-10 14:50:30.92	197.58	14.99	-37.5	-38.4	22.7	0.00e+00	0	29	0	1296039936	46	6728
2026-01-10 14:50:34.96	197.65	14.57	-38.2	-39.2	22.1	0.00e+00	49	29	0	1303379968	48	6581
2026-01-10 14:50:39.00	197.72	14.15	-37.8	-38.8	22.5	0.00e+00	92	28	0	1310720000	48	6281
2026-01-10 14:50:43.04	197.78	13.73	-37.9	-38.9	22.4	0.00e+00	0	28	0	1318060032	48	6364
2026-01-10 14:50:47.08	197.85	13.33	-37.9	-38.9	22.3	0.00e+00	0	29	0	1326448640	48	6371
2026-01-10 14:50:51.12	197.91	12.93	-37.7	-38.8	22.4	0.00e+00	85	28	0	1333788672	48	6247
2026-01-10 14:50:55.16	197.97	12.54	-37.7	-38.7	22.4	0.00e+00	0	28	0	1341128704	48	6209
2026-01-10 14:50:59.20	198.03	12.15	-37.7	-38.8	22.4	0.00e+00	0	28	0	1348468736	48	6266
2026-01-10 14:51:03.24	198.09	11.77	-37.9	-39.0	22.2	0.00e+00	0	28	0	1355808768	48	6431
2026-01-10 14:51:07.29	198.15	11.39	-37.9	-38.9	22.1	0.00e+00	90	28	0	1364197376	48	6381
2026-01-10 14:51:11.32	198.21	11.02	-38.2	-39.3	21.9	0.00e+00	0	28	0	1371537408	48	6618
2026-01-10 14:51:15.36	198.26	10.66	-38.3	-39.4	21.9	0.00e+00	0	28	0	1378877440	48	6734
2026-01-10 14:51:19.41	198.32	10.30	-38.3	-39.3	21.8	0.00e+00	57	28	0	1386217472	48	6690
2026-01-10 14:51:23.45	198.37	9.95	-38.2	-39.3	21.8	0.00e+00	85	28	0	1394606080	48	6653
2026-01-10 14:51:27.49	198.42	9.60	-38.2	-39.2	21.9	0.00e+00	0	28	0	1401946112	48	6611
2026-01-10 14:51:31.53	198.47	9.26	-38.2	-39.3	21.9	0.00e+00	0	28	0	1409286144	48	6637
2026-01-10 14:51:35.57	198.53	8.92	-37.9	-38.9	22.1	0.00e+00	0	28	0	1416626176	48	6390
2026-01-10 14:51:39.61	198.58	8.58	-38.3	-39.4	21.6	0.00e+00	0	28	0	1423966208	48	6767
2026-01-10 14:51:43.65	198.62	8.25	-38.1	-39.2	21.7	0.00e+00	0	28	0	1432354816	48	6593
2026-01-10 14:51:47.69	198.67	7.93	-38.4	-39.5	21.5	0.00e+00	0	28	0	1439694848	48	6813
2026-01-10 14:51:51.73	198.72	7.61	-38.4	-39.5	21.5	0.00e+00	92	28	0	1447034880	48	6808
2026-01-10 14:51:55.77	198.77	7.29	-38.4	-39.6	21.4	0.00e+00	0	28	0	1454374912	48	6876
2026-01-10 14:51:59.80	198.81	6.97	-38.6	-39.7	21.3	0.00e+00	0	28	0	1462763520	48	6999
2026-01-10 14:52:03.84	198.86	6.66	-38.8	-39.9	21.1	0.00e+00	0	28	0	1470103552	50	6389
2026-01-10 14:52:07.88	198.90	6.36	-39.0	-40.2	20.8	0.00e+00	92	28	0	1477443584	50	6599
2026-01-10 14:52:11.92	198.95	6.06	-39.1	-40.3	20.7	0.00e+00	0	28	0	1484783616	50	6683
2026-01-10 14:52:15.96	198.99	5.76	-39.1	-40.3	20.7	0.00e+00	0	28	0	1492123648	50	6641
2026-01-10 14:52:20.00	199.03	5.46	-39.4	-40.7	20.2	0.00e+00	0	28	0	1500512256	50	6972
2026-01-10 14:52:24.04	199.08	5.17	-39.1	-40.4	20.4	0.00e+00	58	28	0	1507852288	50	6700
2026-01-10 14:52:28.07	199.12	4.88	-39.6	-40.9	19.9	0.00e+00	0	28	0	1515192320	50	7161
2026-01-10 14:52:32.12	199.16	4.59	-39.3	-40.6	20.3	0.00e+00	0	28	0	1522532352	52	6132
2026-01-10 14:52:36.16	199.20	4.31	-39.9	-41.3	19.6	0.00e+00	79	28	0	1530920960	52	6635
2026-01-10 14:52:40.20	199.24	4.03	-39.9	-41.3	19.5	0.00e+00	0	28	0	1538260992	52	6692
2026-01-10 14:52:44.23	199.28	3.75	-39.8	-41.2	19.5	0.00e+00	0	28	0	1545601024	52	6597
2026-01-10 14:52:48.27	199.32	3.48	-39.8	-41.2	19.4	0.00e+00	0	28	0	1552941056	52	6588
2026-01-10 14:52:52.31	199.36	3.21	-40.2	-41.8	18.9	0.00e+00	92	28	0	1560281088	52	7036
2026-01-10 14:52:56.35	199.39	2.94	-47.3	-62.5	3.6	1.51e+00	0	28	104	1566572544	60	48237
2026-01-10 14:53:00.39	199.43	2.67	-47.9	-63.3	3.6	1.51e+00	0	28	104	1566572544	60	52887
2026-01-10 14:53:04.42	199.47	2.41	-48.2	-63.5	3.6	1.51e+00	0	28	104	1566572544	60	53785
2026-01-10 14:53:08.46	199.50	2.15	-48.0	-63.3	3.6	1.51e+00	0	28	104	1566572544	60	52929
2026-01-10 14:53:12.50	199.54	1.89	-48.1	-63.4	3.6	1.51e+00	0	28	104	1566572544	60	53199
2026-01-10 14:53:16.54	199.58	1.63	-48.1	-63.3	3.6	1.51e+00	0	28	104	1566572544	60	52941
2026-01-10 14:53:20.58	199.61	1.38	-48.1	-63.3	3.6	1.51e+00	0	28	104	1566572544	60	52822
2026-01-10 14:53:24.62	199.65	1.12	-48.1	-63.3	3.6	1.51e+00	0	28	104	1566572544	60	52679
2026-01-10 14:53:28.65	199.68	0.87	-48.1	-63.3	3.6	1.51e+00	0	28	104	1566572544	60	52770
2026-01-10 14:53:32.69	199.72	0.63	-48.1	-63.3	3.6	1.51e+00	0	28	104	1566572544	60	52761
2026-01-10 14:53:36.73	199.75	0.38	-48.1	-63.3	3.6	1.51e+00	0	28	104	1566572544	60	53028
2026-01-10 14:53:40.77	199.78	0.14	-48.1	-63.3	3.6	1.51e+00	0	28	104	1566572544	60	52617
2026-01-10 14:53:44.81	199.82	-0.11	-48.1	-63.3	3.6	1.51e+00	0	28	104	1566572544	60	52562

#Closed at: 2026-01-10 14:53:45
#Recorded file [1566 MB]: D:/lorett/data/35029_260111_023811.dat