passes_logs/2026/01/10/R4.6S_Anadyr/R4.6S_Anadyr__20260110_222434_NOAA_21_JPSS-2_rec.log

#Pass ID: 20260110_222434_NOAA 21 (JPSS-2)
#Satellite: NOAA 21 (JPSS-2)
#Configuration: NOAA-21
#almurnet v.1.7.20251203
#Start time: 2026-01-10 22:24:36

#Version: 2.2.20231116
#Station: R4.6S_Anadyr
#Location: 177.4865 lon 64.73178 lat
#TLE: 1 54234U 22150A   26009.79679979  .00000100  00000+0  68070-4 0  9993
#TLE: 2 54234  98.7494 310.7596 0000833 322.2782  37.8335 14.19533646164071

#Time	Az	El	Level	Level2	SNR	BER	BlckErr	Temp	State	Recorded	gain1	gain2
2026-01-10 22:24:36.10	112.50	0.11	-48.3	-66.0	3.5	7.71e-01	0	25	0	0	60	76931
2026-01-10 22:24:40.13	112.33	0.34	-48.1	-60.9	3.5	1.52e+00	0	27	104	0	60	39107
2026-01-10 22:24:44.17	112.15	0.57	-48.1	-61.0	3.5	1.52e+00	0	27	104	0	60	39318
2026-01-10 22:24:48.21	111.97	0.80	-47.9	-60.9	3.5	1.51e+00	0	27	104	0	60	38809
2026-01-10 22:24:52.25	111.79	1.04	-46.0	-60.2	3.5	1.51e+00	0	27	104	0	60	35836
2026-01-10 22:24:56.29	111.60	1.27	-45.8	-58.6	3.5	1.52e+00	0	27	104	0	60	29991
2026-01-10 22:25:00.32	111.41	1.51	-45.8	-58.7	3.5	1.52e+00	0	27	104	0	60	30252
2026-01-10 22:25:04.36	111.22	1.75	-45.8	-58.7	3.5	1.52e+00	0	27	104	0	60	30149
2026-01-10 22:25:08.40	111.02	1.99	-45.8	-58.7	3.5	1.52e+00	0	27	104	0	60	30224
2026-01-10 22:25:12.44	110.82	2.23	-45.8	-58.7	3.5	1.52e+00	0	27	104	0	60	30199
2026-01-10 22:25:16.48	110.62	2.48	-45.8	-58.8	3.5	1.52e+00	0	27	104	0	60	30426
2026-01-10 22:25:20.51	110.41	2.72	-45.8	-58.7	3.5	1.52e+00	0	27	104	0	60	30125
2026-01-10 22:25:24.55	110.20	2.97	-45.7	-58.4	3.5	1.52e+00	0	27	104	0	60	29049
2026-01-10 22:25:28.59	109.98	3.22	-45.6	-56.4	3.6	1.51e+00	0	27	104	0	60	23157
2026-01-10 22:25:32.63	109.77	3.47	-42.1	-44.9	12.9	1.57e-04	0	28	0	7340032	58	6957
2026-01-10 22:25:36.66	109.54	3.73	-40.4	-42.8	5.1	1.45e+00	0	27	104	14680064	56	6119
2026-01-10 22:25:40.70	109.32	3.98	-38.2	-39.7	18.6	0.00e+00	0	27	0	17825792	50	6015
2026-01-10 22:25:44.74	109.09	4.24	-37.3	-38.6	19.7	0.00e+00	0	27	0	30408704	48	5945
2026-01-10 22:25:48.77	108.85	4.50	-36.6	-38.2	20.1	0.00e+00	0	27	0	42991616	46	6412
2026-01-10 22:25:52.81	108.61	4.76	-36.0	-37.8	20.6	0.00e+00	0	27	0	55574528	46	6091
2026-01-10 22:25:56.85	108.37	5.02	-35.9	-37.4	21.0	0.00e+00	0	27	0	68157440	46	5818
2026-01-10 22:26:00.89	108.12	5.29	-36.6	-38.0	20.4	0.00e+00	0	27	0	80740352	46	6264
2026-01-10 22:26:04.93	107.86	5.56	-36.3	-37.5	21.0	0.00e+00	0	27	0	93323264	46	5872
2026-01-10 22:26:08.97	107.61	5.83	-36.2	-37.4	21.3	0.00e+00	0	27	0	105906176	46	5794
2026-01-10 22:26:13.00	107.34	6.10	-35.8	-37.0	21.6	0.00e+00	0	27	0	118489088	46	5542
2026-01-10 22:26:17.04	107.07	6.38	-35.7	-36.8	21.7	0.00e+00	0	27	0	131072000	44	6101
2026-01-10 22:26:21.08	106.80	6.65	-35.5	-36.6	21.9	0.00e+00	0	27	0	143654912	44	5956
2026-01-10 22:26:25.12	106.52	6.93	-35.5	-36.7	21.9	0.00e+00	0	27	0	156237824	44	6018
2026-01-10 22:26:29.16	106.23	7.21	-35.4	-36.4	22.0	0.00e+00	0	28	0	168820736	44	5827
2026-01-10 22:26:33.20	105.94	7.50	-35.4	-36.4	22.1	0.00e+00	0	27	0	181403648	44	5845
2026-01-10 22:26:37.23	105.65	7.79	-35.2	-36.3	22.3	0.00e+00	0	27	0	193986560	44	5733
2026-01-10 22:26:41.27	105.34	8.07	-35.3	-36.3	22.4	0.00e+00	0	27	0	206569472	44	5759
2026-01-10 22:26:45.31	105.03	8.37	-35.0	-36.0	22.5	0.00e+00	0	27	0	219152384	44	5562
2026-01-10 22:26:49.35	104.72	8.66	-34.8	-35.8	22.7	0.00e+00	0	27	0	231735296	44	5466
2026-01-10 22:26:53.39	104.39	8.96	-34.9	-35.9	22.6	0.00e+00	0	27	0	244318208	42	6176
2026-01-10 22:26:57.43	104.06	9.26	-34.5	-35.6	23.0	0.00e+00	0	27	0	256901120	42	5958
2026-01-10 22:27:01.47	103.73	9.56	-34.8	-35.8	22.8	0.00e+00	0	27	0	269484032	42	6097
2026-01-10 22:27:05.50	103.38	9.86	-34.4	-35.4	23.1	0.00e+00	0	27	0	282066944	42	5839
2026-01-10 22:27:09.54	103.03	10.17	-34.5	-35.7	23.0	0.00e+00	0	27	0	294649856	42	6002
2026-01-10 22:27:13.58	102.67	10.48	-34.1	-35.2	23.3	0.00e+00	0	27	0	307232768	42	5713
2026-01-10 22:27:17.62	102.30	10.80	-34.2	-35.3	23.3	0.00e+00	0	27	0	320864256	42	5772
2026-01-10 22:27:21.66	101.93	11.11	-34.4	-35.4	23.2	0.00e+00	0	28	0	332398592	42	5825
2026-01-10 22:27:25.69	101.54	11.43	-34.0	-34.9	23.6	0.00e+00	0	28	0	346030080	42	5515
2026-01-10 22:27:29.73	101.15	11.75	-34.2	-35.1	23.5	0.00e+00	0	27	0	358612992	42	5647
2026-01-10 22:27:33.77	100.75	12.08	-34.1	-35.1	23.4	0.00e+00	0	27	0	371195904	42	5631
2026-01-10 22:27:37.81	100.34	12.41	-34.2	-35.2	23.5	0.00e+00	0	27	0	383778816	42	5678
2026-01-10 22:27:41.85	99.92	12.74	-33.8	-34.8	23.9	0.00e+00	0	27	0	396361728	42	5421
2026-01-10 22:27:45.88	99.49	13.07	-33.8	-34.7	23.9	0.00e+00	0	27	0	408944640	40	6029
2026-01-10 22:27:49.92	99.05	13.41	-33.9	-34.8	23.7	0.00e+00	0	27	0	421527552	40	6098
2026-01-10 22:27:53.96	98.60	13.75	-33.8	-34.7	23.9	0.00e+00	0	27	0	434110464	40	6012
2026-01-10 22:27:58.00	98.13	14.09	-33.7	-34.6	24.0	0.00e+00	0	27	0	446693376	40	5976
2026-01-10 22:28:02.04	97.66	14.43	-33.5	-34.5	24.2	0.00e+00	0	27	0	459276288	40	5859
2026-01-10 22:28:06.07	97.18	14.78	-33.6	-34.6	24.1	0.00e+00	0	27	0	471859200	40	5941
2026-01-10 22:28:10.11	96.68	15.13	-33.6	-34.5	24.2	0.00e+00	0	27	0	484442112	40	5873
2026-01-10 22:28:14.15	96.18	15.49	-33.7	-34.7	24.0	0.00e+00	0	27	0	497025024	40	6000
2026-01-10 22:28:18.19	95.65	15.84	-33.7	-34.6	24.1	0.00e+00	0	27	0	509607936	40	5991
2026-01-10 22:28:22.23	95.12	16.20	-33.8	-34.7	24.0	0.00e+00	0	27	0	522190848	40	6020
2026-01-10 22:28:26.26	94.58	16.56	-33.9	-34.9	23.9	0.00e+00	0	27	0	534773760	40	6146
2026-01-10 22:28:30.30	94.02	16.93	-33.9	-34.8	24.0	0.00e+00	0	27	0	547356672	40	6121
2026-01-10 22:28:34.34	93.44	17.29	-33.8	-34.7	24.0	0.00e+00	0	27	0	559939584	40	6041
2026-01-10 22:28:38.38	92.85	17.66	-33.7	-34.7	24.0	0.00e+00	0	27	0	572522496	40	6001
2026-01-10 22:28:42.41	92.25	18.04	-34.0	-34.9	23.9	0.00e+00	0	27	0	585105408	40	6193
2026-01-10 22:28:46.45	91.63	18.41	-33.5	-34.4	24.3	0.00e+00	0	27	0	597688320	40	5817
2026-01-10 22:28:50.48	91.00	18.79	-33.3	-34.2	24.4	0.00e+00	0	27	0	610271232	40	5678
2026-01-10 22:28:54.52	90.35	19.16	-33.4	-34.3	24.3	0.00e+00	0	27	0	622854144	40	5775
2026-01-10 22:28:58.56	89.68	19.55	-33.1	-34.0	24.7	0.00e+00	0	27	0	635437056	40	5549
2026-01-10 22:29:02.60	89.00	19.93	-33.0	-33.9	24.7	0.00e+00	0	27	0	648019968	40	5498
2026-01-10 22:29:06.64	88.30	20.31	-32.9	-33.8	24.7	0.00e+00	0	27	0	660602880	40	5445
2026-01-10 22:29:10.68	87.58	20.70	-32.8	-33.6	24.8	0.00e+00	0	27	0	673185792	38	5981
2026-01-10 22:29:14.71	86.84	21.08	-32.9	-33.7	24.8	0.00e+00	0	27	0	685768704	38	6052
2026-01-10 22:29:18.75	86.09	21.47	-32.7	-33.6	24.8	0.00e+00	0	27	0	698351616	38	5953
2026-01-10 22:29:22.78	85.31	21.85	-32.8	-33.6	24.8	0.00e+00	0	27	0	711983104	38	5988
2026-01-10 22:29:26.82	84.52	22.24	-33.0	-33.9	24.8	0.00e+00	0	27	0	724566016	38	6167
2026-01-10 22:29:30.86	83.70	22.62	-32.8	-33.8	24.7	0.00e+00	0	27	0	737148928	38	6065
2026-01-10 22:29:34.90	82.86	23.01	-32.9	-33.7	24.9	0.00e+00	0	27	0	749731840	38	6064
2026-01-10 22:29:38.94	82.01	23.40	-32.6	-33.5	25.1	0.00e+00	0	27	0	762314752	38	5919
2026-01-10 22:29:42.99	81.12	23.78	-32.4	-33.3	25.1	0.00e+00	0	27	0	774897664	38	5768
2026-01-10 22:29:47.02	80.23	24.16	-32.6	-33.5	25.0	0.00e+00	0	27	0	787480576	38	5891
2026-01-10 22:29:51.06	79.30	24.54	-32.9	-33.8	24.7	0.00e+00	0	27	0	800063488	38	6080
2026-01-10 22:29:55.10	78.36	24.92	-33.0	-33.8	24.8	0.00e+00	0	27	0	812646400	38	6132
2026-01-10 22:29:59.14	77.39	25.29	-33.1	-34.0	24.8	0.00e+00	0	27	0	825229312	38	6215
2026-01-10 22:30:03.17	76.40	25.66	-33.1	-34.0	24.7	0.00e+00	0	27	0	837812224	38	6250
2026-01-10 22:30:07.21	75.38	26.02	-33.0	-33.9	24.8	0.00e+00	0	27	0	850395136	38	6159
2026-01-10 22:30:11.25	74.34	26.38	-33.2	-34.1	24.5	0.00e+00	0	27	0	862978048	38	6299
2026-01-10 22:30:15.29	73.28	26.73	-33.1	-34.1	24.6	0.00e+00	0	27	0	875560960	38	6284
2026-01-10 22:30:19.32	72.20	27.08	-33.1	-34.0	24.6	0.00e+00	0	27	0	888143872	38	6277
2026-01-10 22:30:23.36	71.09	27.41	-33.2	-34.1	24.6	0.00e+00	0	27	0	900726784	38	6347
2026-01-10 22:30:27.40	69.95	27.75	-33.1	-34.0	24.7	0.00e+00	0	27	0	913309696	38	6222
2026-01-10 22:30:31.44	68.80	28.07	-33.4	-34.3	24.5	0.00e+00	0	27	0	925892608	38	6480
2026-01-10 22:30:35.48	67.62	28.38	-33.5	-34.4	24.4	0.00e+00	0	27	0	938475520	38	6528
2026-01-10 22:30:39.52	66.42	28.68	-33.4	-34.3	24.5	0.00e+00	0	27	0	951058432	38	6473
2026-01-10 22:30:43.56	65.19	28.97	-33.3	-34.2	24.7	0.00e+00	0	27	0	963641344	38	6373
2026-01-10 22:30:47.59	63.95	29.25	-33.4	-34.3	24.5	0.00e+00	0	27	0	976224256	38	6496
2026-01-10 22:30:51.64	62.67	29.51	-33.5	-34.4	24.5	0.00e+00	0	27	0	988807168	38	6528
2026-01-10 22:30:55.68	61.38	29.77	-33.7	-34.6	24.3	0.00e+00	0	27	0	1001390080	40	5958
2026-01-10 22:30:59.72	60.08	30.00	-33.6	-34.6	24.3	0.00e+00	0	27	0	1013972992	40	5930
2026-01-10 22:31:03.76	58.75	30.22	-34.0	-34.9	24.1	0.00e+00	0	27	0	1026555904	40	6202
2026-01-10 22:31:07.80	57.40	30.43	-33.7	-34.6	24.3	0.00e+00	0	27	0	1039138816	40	5959
2026-01-10 22:31:11.84	56.04	30.62	-34.0	-34.9	24.0	0.00e+00	0	27	0	1052770304	40	6199
2026-01-10 22:31:15.88	54.66	30.79	-34.0	-34.9	24.1	0.00e+00	0	27	0	1065353216	40	6196
2026-01-10 22:31:19.92	53.27	30.95	-33.7	-34.5	24.3	0.00e+00	0	27	0	1077936128	40	5922
2026-01-10 22:31:23.96	51.87	31.08	-33.3	-34.2	24.7	0.00e+00	0	27	0	1090519040	40	5667
2026-01-10 22:31:27.99	50.46	31.20	-33.6	-34.5	24.4	0.00e+00	0	27	0	1103101952	40	5909
2026-01-10 22:31:32.03	49.03	31.29	-33.7	-34.6	24.4	0.00e+00	0	27	0	1115684864	40	5955
2026-01-10 22:31:36.07	47.60	31.37	-33.8	-34.7	24.3	0.00e+00	0	27	0	1128267776	40	6018
2026-01-10 22:31:40.10	46.17	31.43	-34.2	-35.1	23.9	0.00e+00	0	27	0	1140850688	40	6317
2026-01-10 22:31:44.15	44.72	31.46	-33.9	-34.8	24.1	0.00e+00	0	27	0	1153433600	40	6134
2026-01-10 22:31:48.19	43.28	31.48	-33.8	-34.8	24.2	0.00e+00	0	28	0	1166016512	40	6066
2026-01-10 22:31:52.23	41.84	31.48	-34.3	-35.3	23.8	0.00e+00	0	27	0	1178599424	40	6433
2026-01-10 22:31:56.27	40.39	31.45	-33.8	-34.7	24.2	0.00e+00	0	28	0	1191182336	40	6014
2026-01-10 22:32:00.31	38.95	31.41	-33.5	-34.4	24.5	0.00e+00	0	28	0	1203765248	40	5843
2026-01-10 22:32:04.35	37.52	31.34	-33.8	-34.7	24.2	0.00e+00	0	28	0	1216348160	40	6027
2026-01-10 22:32:08.39	36.09	31.25	-33.6	-34.4	24.3	0.00e+00	0	28	0	1228931072	40	5852
2026-01-10 22:32:12.42	34.68	31.15	-34.0	-34.9	24.2	0.00e+00	0	28	0	1241513984	40	6176
2026-01-10 22:32:16.46	33.27	31.03	-33.7	-34.6	24.3	0.00e+00	0	28	0	1254096896	40	5963
2026-01-10 22:32:20.50	31.87	30.88	-33.9	-34.8	24.1	0.00e+00	0	28	0	1266679808	40	6126
2026-01-10 22:32:24.54	30.49	30.72	-34.3	-35.2	23.8	0.00e+00	0	28	0	1279262720	40	6409
2026-01-10 22:32:28.58	29.12	30.54	-33.8	-34.7	24.2	0.00e+00	0	28	0	1291845632	40	6001
2026-01-10 22:32:32.62	27.77	30.35	-33.2	-34.0	24.8	0.00e+00	0	28	0	1304428544	40	5580
2026-01-10 22:32:36.66	26.43	30.13	-33.5	-34.4	24.3	0.00e+00	0	28	0	1317011456	40	5829
2026-01-10 22:32:40.70	25.11	29.91	-33.5	-34.4	24.4	0.00e+00	0	28	0	1329594368	40	5824
2026-01-10 22:32:44.74	23.81	29.66	-33.5	-34.4	24.5	0.00e+00	0	28	0	1342177280	40	5801
2026-01-10 22:32:48.78	22.54	29.41	-33.2	-34.1	24.7	0.00e+00	0	28	0	1354760192	40	5639
2026-01-10 22:32:52.82	21.28	29.14	-33.3	-34.2	24.5	0.00e+00	0	28	0	1368391680	40	5683
2026-01-10 22:32:56.86	20.04	28.85	-33.1	-34.0	24.7	0.00e+00	0	28	0	1379926016	40	5542
2026-01-10 22:33:00.89	18.83	28.56	-32.5	-33.3	25.3	0.00e+00	0	28	0	1392508928	38	5770
2026-01-10 22:33:04.93	17.64	28.25	-33.2	-34.1	24.6	0.00e+00	0	28	0	1406140416	38	6297
2026-01-10 22:33:08.97	16.48	27.94	-33.2	-34.1	24.6	0.00e+00	0	28	0	1418723328	38	6322
2026-01-10 22:33:13.01	15.33	27.61	-33.7	-34.6	24.3	0.00e+00	0	28	0	1431306240	40	5947
2026-01-10 22:33:17.05	14.21	27.28	-33.1	-34.0	24.8	0.00e+00	0	28	0	1443889152	40	5544
2026-01-10 22:33:21.09	13.12	26.94	-32.8	-33.7	24.9	0.00e+00	0	28	0	1456472064	38	6010
2026-01-10 22:33:25.13	12.04	26.59	-32.3	-33.1	25.2	0.00e+00	0	28	0	1469054976	38	5642
2026-01-10 22:33:29.17	10.99	26.24	-32.8	-33.7	24.9	0.00e+00	0	28	0	1481637888	38	6029
2026-01-10 22:33:33.20	9.97	25.88	-33.1	-34.1	24.4	0.00e+00	0	28	0	1494220800	38	6281
2026-01-10 22:33:37.25	8.97	25.51	-33.0	-33.9	24.6	0.00e+00	0	28	0	1506803712	38	6154
2026-01-10 22:33:41.28	7.99	25.15	-33.4	-34.3	24.2	0.00e+00	0	28	0	1519386624	38	6482
2026-01-10 22:33:45.32	7.03	24.77	-33.3	-34.2	24.5	0.00e+00	0	28	0	1531969536	38	6393
2026-01-10 22:33:49.37	6.10	24.40	-33.1	-34.0	24.7	0.00e+00	0	28	0	1544552448	38	6264
2026-01-10 22:33:53.41	5.19	24.02	-33.0	-33.9	24.8	0.00e+00	0	28	0	1557135360	38	6194
2026-01-10 22:33:57.45	4.30	23.64	-33.1	-34.0	24.7	0.00e+00	0	29	0	1569718272	38	6230
2026-01-10 22:34:01.49	3.43	23.25	-33.3	-34.2	24.5	0.00e+00	0	28	0	1582301184	38	6407
2026-01-10 22:34:05.53	2.59	22.87	-33.1	-34.0	24.5	0.00e+00	0	29	0	1594884096	38	6260
2026-01-10 22:34:09.57	1.76	22.48	-33.2	-34.1	24.6	0.00e+00	0	28	0	1607467008	38	6348
2026-01-10 22:34:13.61	0.96	22.10	-33.0	-33.9	24.8	0.00e+00	0	29	0	1620049920	38	6173
2026-01-10 22:34:17.65	0.17	21.71	-33.1	-34.0	24.7	0.00e+00	0	29	0	1632632832	38	6223
2026-01-10 22:34:21.69	359.41	21.33	-32.7	-33.5	24.9	0.00e+00	0	29	0	1645215744	38	5924
2026-01-10 22:34:25.73	358.66	20.94	-32.7	-33.5	25.1	0.00e+00	0	29	0	1657798656	38	5926
2026-01-10 22:34:29.77	357.94	20.56	-33.2	-34.1	24.5	0.00e+00	0	29	0	1670381568	38	6344
2026-01-10 22:34:33.81	357.23	20.18	-33.2	-34.1	24.5	0.00e+00	0	29	0	1682964480	38	6341
2026-01-10 22:34:37.84	356.54	19.80	-32.9	-33.8	24.8	0.00e+00	0	29	0	1695547392	38	6115
2026-01-10 22:34:41.88	355.86	19.42	-32.8	-33.6	24.9	0.00e+00	0	29	0	1708130304	38	5994
2026-01-10 22:34:45.92	355.21	19.04	-33.3	-34.2	24.4	0.00e+00	0	29	0	1721761792	38	6416
2026-01-10 22:34:49.96	354.57	18.66	-33.1	-34.0	24.5	0.00e+00	0	29	0	1733296128	38	6248
2026-01-10 22:34:54.00	353.94	18.29	-33.1	-34.0	24.5	0.00e+00	0	29	0	1746927616	38	6274
2026-01-10 22:34:58.03	353.34	17.92	-33.7	-34.6	24.2	0.00e+00	0	29	0	1759510528	38	6682
2026-01-10 22:35:02.07	352.74	17.55	-33.6	-34.6	24.0	0.00e+00	0	29	0	1772093440	38	6652
2026-01-10 22:35:06.11	352.16	17.18	-33.5	-34.4	24.2	0.00e+00	0	29	0	1784676352	38	6530
2026-01-10 22:35:10.15	351.60	16.81	-33.1	-34.0	24.6	0.00e+00	0	29	0	1797259264	38	6217
2026-01-10 22:35:14.18	351.05	16.45	-33.5	-34.4	24.4	0.00e+00	0	29	0	1809842176	38	6521
2026-01-10 22:35:18.23	350.51	16.09	-33.7	-34.6	24.1	0.00e+00	0	29	0	1822425088	40	5943
2026-01-10 22:35:22.26	349.98	15.74	-33.4	-34.3	24.3	0.00e+00	0	29	0	1835008000	40	5758
2026-01-10 22:35:26.30	349.47	15.38	-33.3	-34.2	24.4	0.00e+00	0	29	0	1847590912	40	5672
2026-01-10 22:35:30.34	348.97	15.03	-33.5	-34.4	24.3	0.00e+00	0	29	0	1860173824	40	5850
2026-01-10 22:35:34.38	348.48	14.68	-33.9	-34.8	23.9	0.00e+00	0	29	0	1872756736	40	6111
2026-01-10 22:35:38.42	348.01	14.34	-33.8	-34.7	23.8	0.00e+00	0	29	0	1885339648	40	6058
2026-01-10 22:35:42.45	347.54	13.99	-33.9	-34.9	23.8	0.00e+00	0	29	0	1896873984	40	6140
2026-01-10 22:35:46.49	347.09	13.65	-33.9	-34.8	24.0	0.00e+00	0	29	0	1909456896	40	6100
2026-01-10 22:35:50.53	346.65	13.32	-34.3	-35.3	23.5	0.00e+00	0	29	0	1922039808	40	6474
2026-01-10 22:35:54.57	346.21	12.98	-34.6	-35.7	23.0	0.00e+00	0	29	0	1934622720	40	6738
2026-01-10 22:35:58.61	345.79	12.65	-35.0	-36.0	22.8	0.00e+00	0	29	0	1947205632	42	6253
2026-01-10 22:36:02.64	345.38	12.32	-35.0	-36.1	22.9	0.00e+00	0	29	0	1959788544	42	6315
2026-01-10 22:36:06.69	344.97	12.00	-34.8	-35.8	22.9	0.00e+00	0	29	0	1972371456	42	6097
2026-01-10 22:36:10.72	344.58	11.68	-34.6	-35.7	23.1	0.00e+00	0	29	0	1984954368	42	6002
2026-01-10 22:36:14.76	344.19	11.36	-34.6	-35.6	23.1	0.00e+00	0	29	0	1997537280	42	5954
2026-01-10 22:36:18.80	343.81	11.04	-35.1	-36.2	22.7	0.00e+00	0	29	0	2010120192	42	6378
2026-01-10 22:36:22.84	343.44	10.72	-35.5	-36.6	22.3	0.00e+00	0	29	0	2022703104	42	6683
2026-01-10 22:36:26.87	343.08	10.41	-35.6	-36.7	22.2	0.00e+00	0	29	0	2036334592	42	6757
2026-01-10 22:36:30.91	342.73	10.11	-35.5	-36.6	22.2	0.00e+00	0	29	0	2048917504	44	5988
2026-01-10 22:36:34.94	342.38	9.80	-35.0	-36.1	22.6	0.00e+00	0	29	0	2061500416	44	5605
2026-01-10 22:36:38.99	342.04	9.50	-34.9	-36.0	22.8	0.00e+00	0	29	0	2074083328	44	5542
2026-01-10 22:36:43.02	341.71	9.20	-35.0	-36.1	22.5	0.00e+00	0	29	0	2086666240	42	6305
2026-01-10 22:36:47.06	341.39	8.90	-35.3	-36.4	22.4	0.00e+00	0	29	0	2099249152	42	6553
2026-01-10 22:36:51.10	341.07	8.60	-35.3	-36.4	22.3	0.00e+00	0	29	0	2111832064	42	6546
2026-01-10 22:36:55.14	340.76	8.31	-35.5	-36.7	22.1	0.00e+00	0	29	0	2124414976	42	6737
2026-01-10 22:36:59.18	340.46	8.02	-35.5	-36.7	22.0	0.00e+00	0	30	0	2136997888	42	6751
2026-01-10 22:37:03.22	340.16	7.73	-35.5	-36.6	22.0	0.00e+00	0	30	0	2149580800	42	6674
2026-01-10 22:37:07.26	339.87	7.45	-35.3	-36.4	22.2	0.00e+00	0	29	0	2162163712	42	6518
2026-01-10 22:37:11.30	339.58	7.17	-35.6	-36.7	22.0	0.00e+00	0	30	0	2174746624	42	6729
2026-01-10 22:37:15.34	339.30	6.89	-35.7	-36.8	21.7	0.00e+00	0	30	0	2187329536	44	6102
2026-01-10 22:37:19.38	339.03	6.61	-36.2	-37.4	21.3	0.00e+00	0	30	0	2199912448	44	6512
2026-01-10 22:37:23.42	338.76	6.33	-35.8	-36.9	21.6	0.00e+00	0	30	0	2212495360	44	6203
2026-01-10 22:37:27.45	338.49	6.06	-36.1	-37.2	21.1	0.00e+00	0	30	0	2225078272	44	6421
2026-01-10 22:37:31.49	338.24	5.79	-36.3	-37.5	20.9	0.00e+00	0	30	0	2237661184	44	6586
2026-01-10 22:37:35.53	337.98	5.52	-36.7	-37.9	20.1	0.00e+00	0	30	0	2250244096	44	6924
2026-01-10 22:37:39.57	337.73	5.25	-38.0	-39.5	18.0	0.00e+00	0	30	0	2262827008	48	6633
2026-01-10 22:37:43.61	337.49	4.99	-39.7	-41.9	14.8	0.00e+00	0	30	0	2275409920	50	7749
2026-01-10 22:37:47.65	337.25	4.73	-41.3	-44.8	10.8	1.74e-03	0	30	0	2287992832	54	8617
2026-01-10 22:37:51.69	337.01	4.47	-42.4	-48.1	6.5	1.92e-01	0	30	0	2300575744	56	11187
2026-01-10 22:37:55.72	336.78	4.21	-42.8	-51.9	4.3	1.26e+00	2	30	104	2304770048	58	15496
2026-01-10 22:37:59.76	336.56	3.95	-42.8	-54.9	3.5	1.52e+00	0	30	104	2304770048	58	21784
2026-01-10 22:38:03.79	336.34	3.70	-43.0	-55.0	3.5	1.52e+00	0	30	104	2304770048	58	22143
2026-01-10 22:38:07.83	336.12	3.45	-42.8	-55.5	3.5	1.52e+00	0	30	104	2304770048	58	23423
2026-01-10 22:38:11.86	335.91	3.20	-42.8	-55.6	3.5	1.52e+00	0	30	104	2304770048	58	23604
2026-01-10 22:38:15.91	335.70	2.95	-42.8	-55.5	3.5	1.52e+00	0	30	104	2304770048	58	23542
2026-01-10 22:38:19.94	335.49	2.70	-47.9	-60.7	3.5	1.51e+00	0	30	104	2304770048	60	38231
2026-01-10 22:38:23.98	335.29	2.45	-48.2	-61.1	3.5	1.52e+00	0	30	104	2304770048	60	39765
2026-01-10 22:38:28.03	335.09	2.21	-47.9	-60.9	3.5	1.52e+00	0	30	104	2304770048	60	38873
2026-01-10 22:38:32.06	334.89	1.97	-48.2	-61.1	3.5	1.52e+00	0	30	104	2304770048	60	39623
2026-01-10 22:38:36.10	334.70	1.73	-48.1	-61.0	3.5	1.52e+00	0	30	104	2304770048	60	39192
2026-01-10 22:38:40.14	334.51	1.49	-48.1	-60.9	3.5	1.52e+00	0	30	104	2304770048	60	39035
2026-01-10 22:38:44.18	334.33	1.25	-48.1	-60.9	3.5	1.52e+00	0	30	104	2304770048	60	39134
2026-01-10 22:38:48.22	334.14	1.02	-48.1	-60.9	3.5	1.52e+00	0	30	104	2304770048	60	39064
2026-01-10 22:38:52.26	333.97	0.79	-48.0	-60.9	3.5	1.52e+00	0	30	104	2304770048	60	38866
2026-01-10 22:38:56.30	333.79	0.55	-48.1	-60.9	3.5	1.52e+00	0	30	104	2304770048	60	38756
2026-01-10 22:39:00.33	333.62	0.32	-48.0	-60.9	3.5	1.52e+00	0	30	104	2304770048	60	38787
2026-01-10 22:39:04.37	333.45	0.10	-48.0	-60.9	3.5	1.52e+00	0	30	104	2304770048	60	38870

#Closed at: 2026-01-10 22:39:08
#Recorded file [2304 MB]: D:/lorett/data/35029_260111_102436.dat