passes_logs/2026/01/10/R4.6S_Anadyr/R4.6S_Anadyr__20260110_204623_NOAA_21_JPSS-2_rec.log

#Pass ID: 20260110_204623_NOAA 21 (JPSS-2)
#Satellite: NOAA 21 (JPSS-2)
#Configuration: NOAA-21
#almurnet v.1.7.20251203
#Start time: 2026-01-10 20:46:25

#Version: 2.2.20231116
#Station: R4.6S_Anadyr
#Location: 177.4865 lon 64.73178 lat
#TLE: 1 54234U 22150A   26009.79679979  .00000100  00000+0  68070-4 0  9993
#TLE: 2 54234  98.7494 310.7596 0000833 322.2782  37.8335 14.19533646164071

#Time	Az	El	Level	Level2	SNR	BER	BlckErr	Temp	State	Recorded	gain1	gain2
2026-01-10 20:46:25.12	76.59	0.09	-48.4	-66.2	3.5	3.02e+01	0	26	0	0	60	78232
2026-01-10 20:46:29.16	76.31	0.29	-48.1	-61.0	3.5	1.52e+00	0	27	104	0	60	39310
2026-01-10 20:46:33.19	76.02	0.50	-47.8	-60.9	3.5	1.52e+00	0	27	104	0	60	39113
2026-01-10 20:46:37.24	75.73	0.70	-47.9	-60.8	3.5	1.52e+00	0	27	104	0	60	38317
2026-01-10 20:46:41.28	75.44	0.91	-46.8	-59.6	3.5	1.52e+00	0	28	104	0	60	33523
2026-01-10 20:46:45.32	75.14	1.12	-46.3	-59.1	3.5	1.52e+00	0	28	104	0	60	31615
2026-01-10 20:46:49.35	74.84	1.32	-46.2	-59.2	3.5	1.52e+00	0	28	104	0	60	31922
2026-01-10 20:46:53.39	74.53	1.53	-46.2	-59.1	3.5	1.52e+00	0	28	104	0	60	31521
2026-01-10 20:46:57.43	74.22	1.74	-46.2	-59.1	3.5	1.52e+00	0	28	104	0	60	31712
2026-01-10 20:47:01.47	73.91	1.95	-46.2	-58.9	3.5	1.52e+00	0	28	104	0	60	30831
2026-01-10 20:47:05.51	73.59	2.16	-46.2	-58.6	3.5	1.52e+00	0	28	104	0	60	30019
2026-01-10 20:47:09.55	73.26	2.38	-46.2	-59.0	3.5	1.52e+00	0	28	104	0	60	31364
2026-01-10 20:47:13.59	72.93	2.59	-46.2	-58.8	3.5	1.52e+00	0	28	104	0	60	30468
2026-01-10 20:47:17.62	72.60	2.80	-46.2	-58.8	3.5	1.52e+00	0	28	104	0	60	30718
2026-01-10 20:47:21.66	72.26	3.02	-42.4	-45.1	13.2	3.58e-05	120	28	0	5242880	58	7101
2026-01-10 20:47:25.70	71.91	3.23	-45.9	-55.2	3.5	2.41e-03	117	28	104	10485760	60	20302
2026-01-10 20:47:29.74	71.56	3.45	-37.4	-38.7	19.6	0.00e+00	123	28	0	16777216	48	6001
2026-01-10 20:47:33.78	71.20	3.66	-37.0	-38.2	20.1	0.00e+00	120	28	0	29360128	48	5714
2026-01-10 20:47:37.82	70.84	3.88	-37.1	-38.3	20.1	0.00e+00	123	28	0	41943040	46	6493
2026-01-10 20:47:41.86	70.48	4.10	-36.9	-38.1	20.3	0.00e+00	122	28	0	54525952	46	6310
2026-01-10 20:47:45.90	70.10	4.32	-37.9	-39.2	19.4	0.00e+00	122	28	0	67108864	48	6371
2026-01-10 20:47:49.93	69.72	4.53	-37.2	-38.4	20.1	0.00e+00	123	28	0	79691776	48	5851
2026-01-10 20:47:53.98	69.34	4.75	-36.7	-37.9	20.6	0.00e+00	123	28	0	92274688	46	6184
2026-01-10 20:47:58.02	68.95	4.97	-36.9	-38.1	20.5	0.00e+00	120	28	0	104857600	46	6305
2026-01-10 20:48:02.06	68.55	5.19	-37.1	-38.3	20.3	0.00e+00	121	28	0	117440512	46	6470
2026-01-10 20:48:06.11	68.15	5.41	-36.8	-37.9	20.7	0.00e+00	121	28	0	130023424	46	6177
2026-01-10 20:48:10.15	67.74	5.64	-36.6	-37.8	20.8	0.00e+00	123	28	0	142606336	46	6084
2026-01-10 20:48:14.19	67.32	5.86	-37.0	-38.2	20.6	0.00e+00	123	28	0	155189248	46	6361
2026-01-10 20:48:18.23	66.90	6.08	-36.9	-38.1	20.6	0.00e+00	120	28	0	167772160	46	6321
2026-01-10 20:48:22.27	66.47	6.30	-36.2	-37.3	21.4	0.00e+00	123	28	0	180355072	46	5775
2026-01-10 20:48:26.31	66.04	6.53	-36.3	-37.4	21.3	0.00e+00	122	28	0	193986560	46	5801
2026-01-10 20:48:30.36	65.59	6.75	-36.4	-37.5	21.2	0.00e+00	120	28	0	206569472	46	5917
2026-01-10 20:48:34.40	65.15	6.97	-36.1	-37.2	21.5	0.00e+00	123	28	0	219152384	46	5697
2026-01-10 20:48:38.44	64.69	7.20	-35.6	-36.6	22.0	0.00e+00	120	28	0	231735296	44	5976
2026-01-10 20:48:42.48	64.23	7.42	-35.6	-36.7	21.9	0.00e+00	123	28	0	244318208	44	6006
2026-01-10 20:48:46.52	63.75	7.65	-35.5	-36.5	22.1	0.00e+00	122	28	0	256901120	44	5882
2026-01-10 20:48:50.56	63.28	7.87	-35.2	-36.2	22.5	0.00e+00	122	28	0	269484032	44	5714
2026-01-10 20:48:54.60	62.79	8.10	-35.1	-36.1	22.4	0.00e+00	123	28	0	282066944	44	5657
2026-01-10 20:48:58.64	62.30	8.32	-35.0	-36.0	22.5	0.00e+00	122	28	0	294649856	44	5578
2026-01-10 20:49:02.68	61.79	8.54	-35.0	-36.0	22.7	0.00e+00	123	28	0	307232768	44	5586
2026-01-10 20:49:06.72	61.28	8.77	-34.9	-35.9	22.7	0.00e+00	123	28	0	319815680	44	5482
2026-01-10 20:49:10.76	60.77	8.99	-34.8	-35.8	22.9	0.00e+00	120	28	0	332398592	42	6095
2026-01-10 20:49:14.79	60.24	9.22	-34.5	-35.5	23.2	0.00e+00	120	28	0	344981504	42	5895
2026-01-10 20:49:18.83	59.71	9.44	-34.5	-35.5	23.2	0.00e+00	122	28	0	357564416	42	5870
2026-01-10 20:49:22.87	59.17	9.66	-34.4	-35.4	23.2	0.00e+00	123	28	0	370147328	42	5829
2026-01-10 20:49:26.92	58.61	9.88	-34.7	-35.6	23.0	0.00e+00	123	28	0	382730240	42	5984
2026-01-10 20:49:30.95	58.05	10.11	-34.5	-35.4	23.2	0.00e+00	123	28	0	395313152	42	5828
2026-01-10 20:49:34.99	57.49	10.33	-34.5	-35.5	23.2	0.00e+00	123	28	0	407896064	42	5880
2026-01-10 20:49:39.03	56.91	10.55	-34.5	-35.5	23.3	0.00e+00	123	28	0	420478976	42	5894
2026-01-10 20:49:43.08	56.32	10.77	-34.5	-35.5	23.4	0.00e+00	122	28	0	433061888	42	5877
2026-01-10 20:49:47.11	55.73	10.98	-34.7	-35.7	23.0	0.00e+00	122	28	0	445644800	42	6032
2026-01-10 20:49:51.16	55.12	11.20	-35.0	-36.0	22.9	0.00e+00	123	28	0	458227712	42	6223
2026-01-10 20:49:55.19	54.51	11.42	-34.9	-35.8	23.0	0.00e+00	123	28	0	470810624	42	6131
2026-01-10 20:49:59.24	53.89	11.63	-34.8	-35.8	23.0	0.00e+00	122	28	0	484442112	42	6099
2026-01-10 20:50:03.28	53.26	11.85	-35.0	-35.9	23.1	0.00e+00	123	28	0	495976448	42	6185
2026-01-10 20:50:07.32	52.62	12.06	-34.9	-35.9	23.1	0.00e+00	123	28	0	509607936	42	6164
2026-01-10 20:50:11.36	51.96	12.27	-34.4	-35.3	23.5	0.00e+00	123	28	0	522190848	42	5783
2026-01-10 20:50:15.40	51.31	12.47	-34.4	-35.3	23.5	0.00e+00	120	28	0	534773760	42	5765
2026-01-10 20:50:19.44	50.64	12.68	-34.3	-35.2	23.5	0.00e+00	120	28	0	547356672	42	5695
2026-01-10 20:50:23.48	49.96	12.88	-34.7	-35.6	23.2	0.00e+00	122	28	0	559939584	42	5984
2026-01-10 20:50:27.52	49.27	13.08	-34.5	-35.5	23.5	0.00e+00	123	28	0	572522496	42	5861
2026-01-10 20:50:31.56	48.57	13.28	-34.6	-35.6	23.3	0.00e+00	123	28	0	585105408	42	5962
2026-01-10 20:50:35.60	47.86	13.48	-34.5	-35.4	23.4	0.00e+00	120	28	0	597688320	42	5833
2026-01-10 20:50:39.63	47.15	13.67	-34.2	-35.2	23.6	0.00e+00	123	28	0	610271232	42	5685
2026-01-10 20:50:43.67	46.42	13.86	-34.2	-35.1	23.6	0.00e+00	120	28	0	622854144	42	5645
2026-01-10 20:50:47.71	45.69	14.05	-34.4	-35.3	23.6	0.00e+00	123	28	0	635437056	42	5769
2026-01-10 20:50:51.75	44.94	14.23	-34.2	-35.1	23.7	0.00e+00	122	28	0	648019968	42	5645
2026-01-10 20:50:55.79	44.19	14.41	-34.4	-35.4	23.4	0.00e+00	123	28	0	660602880	42	5802
2026-01-10 20:50:59.84	43.43	14.59	-34.1	-35.0	23.7	0.00e+00	123	28	0	673185792	42	5562
2026-01-10 20:51:03.88	42.65	14.76	-33.8	-34.7	23.9	0.00e+00	123	28	0	685768704	42	5393
2026-01-10 20:51:07.92	41.87	14.93	-33.7	-34.6	24.0	0.00e+00	122	28	0	698351616	40	5947
2026-01-10 20:51:11.96	41.08	15.09	-34.1	-35.0	23.7	0.00e+00	122	28	0	710934528	40	6263
2026-01-10 20:51:16.00	40.28	15.25	-34.0	-34.9	23.8	0.00e+00	123	27	0	723517440	40	6195
2026-01-10 20:51:20.04	39.48	15.41	-34.1	-35.0	23.8	0.00e+00	123	28	0	736100352	40	6258
2026-01-10 20:51:24.08	38.66	15.56	-34.1	-35.0	23.9	0.00e+00	123	28	0	748683264	40	6258
2026-01-10 20:51:28.11	37.84	15.70	-34.1	-35.0	23.8	0.00e+00	123	28	0	761266176	40	6247
2026-01-10 20:51:32.15	37.01	15.84	-34.0	-34.9	23.9	0.00e+00	123	28	0	773849088	40	6167
2026-01-10 20:51:36.19	36.17	15.97	-33.6	-34.5	24.2	0.00e+00	123	27	0	786432000	40	5926
2026-01-10 20:51:40.23	35.32	16.10	-33.7	-34.6	24.1	0.00e+00	120	27	0	799014912	40	5958
2026-01-10 20:51:44.27	34.47	16.23	-33.7	-34.6	24.1	0.00e+00	122	28	0	811597824	40	5990
2026-01-10 20:51:48.31	33.61	16.34	-33.8	-34.7	24.1	0.00e+00	123	27	0	825229312	40	6034
2026-01-10 20:51:52.35	32.74	16.45	-33.8	-34.7	24.0	0.00e+00	120	28	0	837812224	40	6054
2026-01-10 20:51:56.39	31.87	16.56	-33.8	-34.7	24.1	0.00e+00	123	28	0	850395136	40	6060
2026-01-10 20:52:00.43	30.99	16.66	-33.4	-34.3	24.3	0.00e+00	120	28	0	862978048	40	5770
2026-01-10 20:52:04.47	30.10	16.75	-33.5	-34.4	24.3	0.00e+00	123	28	0	875560960	40	5808
2026-01-10 20:52:08.51	29.21	16.83	-33.5	-34.4	24.3	0.00e+00	123	27	0	888143872	40	5832
2026-01-10 20:52:12.55	28.32	16.91	-33.8	-34.8	24.0	0.00e+00	123	27	0	900726784	40	6089
2026-01-10 20:52:16.59	27.42	16.98	-33.9	-34.8	24.0	0.00e+00	122	27	0	913309696	40	6098
2026-01-10 20:52:20.63	26.51	17.04	-33.6	-34.5	24.2	0.00e+00	122	27	0	925892608	40	5874
2026-01-10 20:52:24.67	25.61	17.10	-33.5	-34.4	24.3	0.00e+00	123	27	0	938475520	40	5853
2026-01-10 20:52:28.71	24.70	17.15	-33.5	-34.4	24.3	0.00e+00	120	27	0	951058432	40	5807
2026-01-10 20:52:32.75	23.78	17.19	-33.7	-34.6	24.0	0.00e+00	120	27	0	963641344	40	5966
2026-01-10 20:52:36.79	22.87	17.23	-33.8	-34.7	24.0	0.00e+00	121	27	0	976224256	40	6043
2026-01-10 20:52:40.83	21.95	17.25	-33.9	-34.8	23.8	0.00e+00	122	27	0	988807168	40	6131
2026-01-10 20:52:44.87	21.03	17.27	-34.0	-34.9	23.9	0.00e+00	120	27	0	1001390080	40	6158
2026-01-10 20:52:48.91	20.11	17.29	-33.6	-34.5	24.1	0.00e+00	122	27	0	1013972992	40	5906
2026-01-10 20:52:52.95	19.19	17.29	-33.5	-34.4	24.2	0.00e+00	123	27	0	1026555904	40	5838
2026-01-10 20:52:56.99	18.27	17.29	-33.3	-34.3	24.2	0.00e+00	123	27	0	1039138816	40	5735
2026-01-10 20:53:01.03	17.35	17.28	-33.4	-34.3	24.2	0.00e+00	120	27	0	1051721728	40	5767
2026-01-10 20:53:05.08	16.43	17.26	-33.4	-34.3	24.2	0.00e+00	122	27	0	1064304640	40	5753
2026-01-10 20:53:09.11	15.52	17.23	-33.4	-34.3	24.3	0.00e+00	123	28	0	1076887552	40	5745
2026-01-10 20:53:13.15	14.60	17.20	-33.5	-34.4	24.2	0.00e+00	123	28	0	1089470464	40	5827
2026-01-10 20:53:17.19	13.69	17.16	-33.3	-34.2	24.4	0.00e+00	123	28	0	1102053376	40	5722
2026-01-10 20:53:21.23	12.78	17.11	-33.5	-34.4	24.3	0.00e+00	123	28	0	1114636288	40	5847
2026-01-10 20:53:25.27	11.87	17.05	-33.6	-34.5	24.1	0.00e+00	120	28	0	1127219200	40	5895
2026-01-10 20:53:29.31	10.96	16.99	-34.0	-34.9	23.8	0.00e+00	122	28	0	1140850688	40	6196
2026-01-10 20:53:33.35	10.06	16.92	-33.6	-34.6	24.1	0.00e+00	120	28	0	1153433600	40	5929
2026-01-10 20:53:37.39	9.17	16.84	-33.7	-34.7	24.1	0.00e+00	122	28	0	1166016512	40	6001
2026-01-10 20:53:41.44	8.28	16.76	-33.9	-34.8	23.8	0.00e+00	123	28	0	1178599424	40	6113
2026-01-10 20:53:45.48	7.39	16.67	-33.6	-34.5	24.2	0.00e+00	120	28	0	1191182336	40	5887
2026-01-10 20:53:49.52	6.51	16.57	-33.6	-34.5	24.2	0.00e+00	120	28	0	1203765248	40	5915
2026-01-10 20:53:53.56	5.64	16.47	-33.5	-34.4	24.2	0.00e+00	120	28	0	1216348160	40	5824
2026-01-10 20:53:57.60	4.77	16.36	-33.6	-34.6	24.1	0.00e+00	123	28	0	1228931072	40	5937
2026-01-10 20:54:01.64	3.91	16.25	-33.6	-34.5	24.2	0.00e+00	123	28	0	1241513984	40	5899
2026-01-10 20:54:05.68	3.06	16.12	-33.7	-34.6	24.1	0.00e+00	123	28	0	1254096896	40	5959
2026-01-10 20:54:09.72	2.21	16.00	-33.7	-34.6	24.1	0.00e+00	122	28	0	1266679808	40	5970
2026-01-10 20:54:13.76	1.37	15.86	-33.7	-34.6	23.9	0.00e+00	122	28	0	1279262720	40	5982
2026-01-10 20:54:17.80	0.54	15.72	-33.7	-34.6	24.1	0.00e+00	123	28	0	1291845632	40	5950
2026-01-10 20:54:21.84	359.71	15.58	-33.8	-34.8	23.9	0.00e+00	122	28	0	1304428544	40	6076
2026-01-10 20:54:25.88	358.90	15.43	-33.6	-34.6	24.0	0.00e+00	123	28	0	1317011456	40	5942
2026-01-10 20:54:29.92	358.09	15.28	-33.7	-34.6	24.0	0.00e+00	123	28	0	1329594368	40	5980
2026-01-10 20:54:33.96	357.29	15.12	-33.8	-34.7	24.0	0.00e+00	123	28	0	1342177280	40	6043
2026-01-10 20:54:38.00	356.50	14.96	-33.8	-34.7	23.9	0.00e+00	120	28	0	1354760192	40	6045
2026-01-10 20:54:42.04	355.72	14.79	-33.8	-34.7	24.0	0.00e+00	123	28	0	1367343104	40	6026
2026-01-10 20:54:46.08	354.95	14.62	-33.9	-34.8	23.8	0.00e+00	123	28	0	1379926016	40	6131
2026-01-10 20:54:50.12	354.19	14.44	-33.9	-34.8	23.9	0.00e+00	123	28	0	1392508928	40	6117
2026-01-10 20:54:54.16	353.43	14.26	-33.7	-34.6	24.0	0.00e+00	124	28	0	1405091840	40	5985
2026-01-10 20:54:58.20	352.69	14.08	-33.9	-34.8	23.9	0.00e+00	123	28	0	1417674752	40	6118
2026-01-10 20:55:02.24	351.95	13.90	-34.0	-35.0	23.7	0.00e+00	122	28	0	1431306240	40	6209
2026-01-10 20:55:06.28	351.23	13.71	-34.1	-35.0	23.6	0.00e+00	122	28	0	1442840576	40	6277
2026-01-10 20:55:10.32	350.51	13.51	-34.3	-35.2	23.4	0.00e+00	121	28	0	1456472064	40	6402
2026-01-10 20:55:14.36	349.80	13.32	-34.6	-35.6	23.2	0.00e+00	122	28	0	1469054976	40	6659
2026-01-10 20:55:18.39	349.11	13.12	-34.1	-35.1	23.5	0.00e+00	123	29	0	1481637888	40	6309
2026-01-10 20:55:22.42	348.42	12.92	-34.1	-35.0	23.7	0.00e+00	122	29	0	1494220800	40	6276
2026-01-10 20:55:26.46	347.74	12.72	-34.0	-34.9	23.8	0.00e+00	123	29	0	1506803712	40	6186
2026-01-10 20:55:30.50	347.07	12.51	-34.1	-35.1	23.7	0.00e+00	123	29	0	1519386624	40	6299
2026-01-10 20:55:34.54	346.41	12.31	-34.2	-35.2	23.5	0.00e+00	122	29	0	1531969536	40	6363
2026-01-10 20:55:38.58	345.76	12.10	-34.4	-35.4	23.2	0.00e+00	123	29	0	1544552448	40	6538
2026-01-10 20:55:42.61	345.12	11.89	-34.4	-35.4	23.1	0.00e+00	123	29	0	1557135360	40	6548
2026-01-10 20:55:46.66	344.49	11.68	-34.8	-35.8	23.0	0.00e+00	121	29	0	1569718272	40	6842
2026-01-10 20:55:50.69	343.87	11.46	-35.2	-36.2	22.7	0.00e+00	123	29	0	1582301184	42	6370
2026-01-10 20:55:54.73	343.26	11.25	-35.1	-36.1	22.7	0.00e+00	123	29	0	1594884096	42	6349
2026-01-10 20:55:58.77	342.65	11.03	-35.1	-36.2	22.7	0.00e+00	123	29	0	1607467008	42	6374
2026-01-10 20:56:02.82	342.05	10.81	-35.2	-36.2	22.6	0.00e+00	123	29	0	1620049920	42	6411
2026-01-10 20:56:06.85	341.47	10.59	-35.0	-36.1	22.7	0.00e+00	123	29	0	1632632832	42	6298
2026-01-10 20:56:10.89	340.89	10.37	-34.8	-35.8	23.0	0.00e+00	123	29	0	1645215744	42	6084
2026-01-10 20:56:14.93	340.33	10.15	-34.9	-35.9	22.9	0.00e+00	122	29	0	1657798656	42	6199
2026-01-10 20:56:18.97	339.77	9.93	-35.0	-36.1	22.7	0.00e+00	123	29	0	1670381568	42	6284
2026-01-10 20:56:23.01	339.21	9.71	-34.9	-35.9	22.8	0.00e+00	122	29	0	1682964480	42	6199
2026-01-10 20:56:27.05	338.67	9.49	-34.9	-35.9	22.8	0.00e+00	122	29	0	1695547392	42	6191
2026-01-10 20:56:31.09	338.14	9.26	-35.1	-36.1	22.6	0.00e+00	122	29	0	1708130304	42	6305
2026-01-10 20:56:35.14	337.61	9.04	-35.4	-36.4	22.3	0.00e+00	120	29	0	1720713216	42	6567
2026-01-10 20:56:39.17	337.10	8.82	-35.1	-36.1	22.6	0.00e+00	122	29	0	1733296128	42	6307
2026-01-10 20:56:43.21	336.59	8.59	-35.3	-36.3	22.3	0.00e+00	120	29	0	1745879040	42	6493
2026-01-10 20:56:47.26	336.08	8.37	-35.6	-36.7	22.1	0.00e+00	120	29	0	1758461952	42	6746
2026-01-10 20:56:51.30	335.59	8.15	-35.5	-36.6	22.1	0.00e+00	122	29	0	1772093440	44	5934
2026-01-10 20:56:55.34	335.10	7.92	-35.3	-36.4	22.3	0.00e+00	122	29	0	1784676352	44	5792
2026-01-10 20:56:59.38	334.63	7.70	-35.7	-36.7	22.0	0.00e+00	120	29	0	1797259264	44	6038
2026-01-10 20:57:03.42	334.15	7.47	-35.8	-36.8	21.9	0.00e+00	120	29	0	1809842176	44	6132
2026-01-10 20:57:07.46	333.69	7.25	-35.6	-36.7	21.9	0.00e+00	123	29	0	1822425088	44	6025
2026-01-10 20:57:11.50	333.23	7.03	-35.5	-36.5	22.0	0.00e+00	120	29	0	1835008000	44	5903
2026-01-10 20:57:15.54	332.79	6.80	-35.3	-36.3	22.2	0.00e+00	123	29	0	1847590912	44	5765
2026-01-10 20:57:19.58	332.34	6.58	-35.7	-36.7	21.9	0.00e+00	123	29	0	1860173824	44	6037
2026-01-10 20:57:23.62	331.91	6.36	-35.9	-37.0	21.5	0.00e+00	123	29	0	1872756736	44	6265
2026-01-10 20:57:27.66	331.48	6.13	-36.3	-37.4	21.2	0.00e+00	122	29	0	1885339648	44	6544
2026-01-10 20:57:31.70	331.06	5.91	-35.8	-36.8	21.7	0.00e+00	122	29	0	1897922560	44	6123
2026-01-10 20:57:35.74	330.64	5.69	-35.9	-37.0	21.6	0.00e+00	123	29	0	1910505472	44	6216
2026-01-10 20:57:39.78	330.24	5.47	-36.4	-37.5	21.1	0.00e+00	123	29	0	1923088384	44	6586
2026-01-10 20:57:43.82	329.83	5.25	-37.2	-38.5	20.2	0.00e+00	122	29	0	1935671296	46	6574
2026-01-10 20:57:47.86	329.44	5.03	-37.5	-38.8	19.9	0.00e+00	120	29	0	1948254208	46	6834
2026-01-10 20:57:51.90	329.05	4.81	-36.7	-37.8	20.7	0.00e+00	123	29	0	1960837120	46	6130
2026-01-10 20:57:55.94	328.66	4.59	-36.7	-37.9	20.5	0.00e+00	123	29	0	1973420032	46	6161
2026-01-10 20:57:59.98	328.29	4.37	-37.0	-38.2	20.4	0.00e+00	123	29	0	1986002944	46	6359
2026-01-10 20:58:04.02	327.91	4.15	-37.5	-38.8	19.8	0.00e+00	123	29	0	1998585856	46	6819
2026-01-10 20:58:08.06	327.55	3.94	-37.8	-39.1	19.4	0.00e+00	123	29	0	2011168768	48	6322
2026-01-10 20:58:12.10	327.19	3.72	-37.6	-38.9	19.4	0.00e+00	123	29	0	2023751680	48	6188
2026-01-10 20:58:16.14	326.83	3.50	-37.4	-38.7	19.7	0.00e+00	120	29	0	2036334592	48	6018
2026-01-10 20:58:20.17	326.48	3.29	-36.6	-37.8	20.6	0.00e+00	123	29	0	2048917504	48	5421
2026-01-10 20:58:24.21	326.14	3.07	-37.3	-38.5	19.8	0.00e+00	127	29	0	2061500416	46	6625
2026-01-10 20:58:28.25	325.80	2.86	-47.8	-60.7	3.5	1.52e+00	0	29	104	2065694720	60	37931
2026-01-10 20:58:32.29	325.46	2.65	-48.2	-61.1	3.5	1.52e+00	0	29	104	2065694720	60	39727
2026-01-10 20:58:36.32	325.14	2.43	-47.9	-61.0	3.5	1.52e+00	0	30	104	2065694720	60	39391
2026-01-10 20:58:40.36	324.81	2.22	-48.0	-60.9	3.5	1.52e+00	0	29	104	2065694720	60	38826
2026-01-10 20:58:44.40	324.49	2.01	-48.1	-60.9	3.5	1.52e+00	0	30	104	2065694720	60	38918
2026-01-10 20:58:48.44	324.18	1.80	-48.1	-61.0	3.5	1.51e+00	0	30	104	2065694720	60	39175
2026-01-10 20:58:52.48	323.87	1.59	-48.1	-60.9	3.5	1.52e+00	0	30	104	2065694720	60	38989
2026-01-10 20:58:56.52	323.56	1.38	-48.0	-60.8	3.5	1.52e+00	0	30	104	2065694720	60	38698
2026-01-10 20:59:00.55	323.26	1.17	-48.1	-60.9	3.5	1.52e+00	0	30	104	2065694720	60	38882
2026-01-10 20:59:04.59	322.96	0.97	-48.1	-61.0	3.5	1.52e+00	0	30	104	2065694720	60	39294
2026-01-10 20:59:08.63	322.67	0.76	-48.1	-60.9	3.5	1.51e+00	0	30	104	2065694720	60	39071
2026-01-10 20:59:12.67	322.38	0.55	-48.0	-60.9	3.5	1.52e+00	0	30	104	2065694720	60	38782
2026-01-10 20:59:16.70	322.10	0.35	-48.0	-60.9	3.5	1.52e+00	0	30	104	2065694720	60	38749
2026-01-10 20:59:20.74	321.82	0.15	-48.1	-61.0	3.5	1.52e+00	0	30	104	2065694720	60	39259
2026-01-10 20:59:24.78	321.54	-0.06	-48.1	-60.9	3.5	1.52e+00	0	30	104	2065694720	60	39103

#Closed at: 2026-01-10 20:59:26
#Recorded file [2065 MB]: D:/lorett/data/35029_260111_084625.dat