passes_logs/2026/01/10/R4.6S_Anadyr/R4.6S_Anadyr__20260110_051631_FENGYUN_3D_rec.log

#Pass ID: 20260110_051631_FENGYUN 3D
#Satellite: FENGYUN 3D
#Configuration: FENGYUN 3D
#almurnet v.1.7.20251203
#Start time: 2026-01-10 05:16:32

#Version: 2.2.20231116
#Station: R4.6S_Anadyr
#Location: 177.4865 lon 64.73178 lat
#TLE: 1 43010U 17072A   26008.59015185 -.00000067  00000+0 -98204-5 0  9997
#TLE: 2 43010  98.9935 340.3069 0002117 119.1923 240.9464 14.19693468422340

#Time	Az	El	Level	Level2	SNR	BER	BlckErr	Temp	State	Recorded	gain1	gain2
2026-01-10 05:16:32.95	237.76	0.05	-48.2	-65.9	3.5	3.03e+01	0	24	0	0	60	76197
2026-01-10 05:16:35.98	238.04	0.18	-48.0	-60.1	3.6	8.45e-01	0	25	104	0	60	36694
2026-01-10 05:16:39.01	238.32	0.31	-47.9	-60.1	3.6	8.45e-01	0	26	104	0	60	36628
2026-01-10 05:16:42.04	238.61	0.44	-47.8	-60.1	3.6	8.46e-01	0	26	104	0	60	36685
2026-01-10 05:16:45.07	238.89	0.57	-47.9	-60.0	3.6	8.45e-01	0	26	104	0	60	36271
2026-01-10 05:16:48.10	239.18	0.69	-47.7	-59.7	3.6	8.45e-01	0	26	104	0	60	35083
2026-01-10 05:16:51.13	239.47	0.82	-46.0	-58.0	3.6	8.46e-01	0	26	104	0	60	28732
2026-01-10 05:16:54.16	239.76	0.95	-45.9	-58.0	3.6	8.47e-01	0	26	104	0	60	28598
2026-01-10 05:16:57.19	240.06	1.08	-45.9	-57.8	3.6	8.45e-01	0	26	104	0	60	28136
2026-01-10 05:17:00.22	240.35	1.21	-45.9	-57.9	3.6	8.46e-01	0	26	104	0	60	28282
2026-01-10 05:17:03.24	240.65	1.33	-45.9	-57.9	3.6	8.46e-01	0	26	104	0	60	28257
2026-01-10 05:17:06.27	240.96	1.46	-45.9	-57.9	3.6	8.44e-01	0	26	104	0	60	28255
2026-01-10 05:17:09.30	241.26	1.59	-45.9	-57.8	3.6	8.46e-01	0	26	104	0	60	28045
2026-01-10 05:17:12.33	241.57	1.72	-45.8	-57.8	3.6	8.45e-01	0	26	104	0	60	28159
2026-01-10 05:17:15.36	241.88	1.84	-45.8	-57.7	3.6	8.46e-01	0	26	104	0	60	27734
2026-01-10 05:17:18.39	242.19	1.97	-45.8	-57.5	3.6	8.45e-01	0	26	104	0	60	27099
2026-01-10 05:17:21.42	242.50	2.10	-45.8	-57.5	3.6	8.46e-01	0	26	104	0	60	27017
2026-01-10 05:17:24.45	242.82	2.23	-45.8	-57.0	3.6	8.46e-01	0	26	104	0	60	25550
2026-01-10 05:17:27.48	243.14	2.35	-45.7	-56.3	3.6	8.45e-01	0	26	104	0	60	23719
2026-01-10 05:17:30.51	243.47	2.48	-45.7	-56.3	3.6	8.45e-01	0	26	104	0	60	23621
2026-01-10 05:17:33.54	243.79	2.61	-45.5	-54.7	4.0	8.43e-01	0	26	104	0	60	19551
2026-01-10 05:17:36.57	244.12	2.73	-44.2	-48.4	7.7	1.26e-01	0	26	0	7340032	60	9501
2026-01-10 05:17:39.60	244.45	2.86	-42.6	-45.4	11.2	2.19e-03	0	26	0	24117248	58	7525
2026-01-10 05:17:42.63	244.78	2.99	-42.5	-45.3	11.2	7.83e-04	0	26	0	40894464	58	7443
2026-01-10 05:17:45.66	245.12	3.11	-42.4	-45.0	10.3	1.85e-04	0	26	0	57671680	56	8101
2026-01-10 05:17:48.68	245.46	3.24	-38.8	-40.1	17.2	0.00e+00	0	26	0	66060288	52	5782
2026-01-10 05:17:51.71	245.80	3.36	-37.8	-38.9	18.4	0.00e+00	0	26	0	82837504	50	5660
2026-01-10 05:17:54.74	246.14	3.49	-37.1	-38.1	19.1	0.00e+00	0	26	0	99614720	48	5779
2026-01-10 05:17:57.77	246.49	3.61	-36.7	-37.7	19.6	0.00e+00	0	26	0	117440512	46	6186
2026-01-10 05:18:00.80	246.84	3.74	-36.3	-37.3	20.0	0.00e+00	0	26	0	134217728	46	5919
2026-01-10 05:18:03.83	247.20	3.86	-36.3	-37.2	20.3	0.00e+00	0	26	0	150994944	46	5896
2026-01-10 05:18:06.86	247.55	3.99	-36.0	-36.9	20.6	0.00e+00	0	26	0	167772160	46	5658
2026-01-10 05:18:09.89	247.91	4.11	-35.6	-36.5	21.0	0.00e+00	0	26	0	185597952	44	6076
2026-01-10 05:18:12.92	248.27	4.23	-35.4	-36.3	21.1	0.00e+00	0	26	0	202375168	44	5933
2026-01-10 05:18:15.95	248.64	4.36	-34.7	-35.6	22.0	0.00e+00	0	26	0	219152384	42	6116
2026-01-10 05:18:18.97	249.01	4.48	-34.3	-35.1	22.5	0.00e+00	0	26	0	235929600	42	5819
2026-01-10 05:18:22.00	249.38	4.60	-34.3	-35.1	22.6	0.00e+00	0	26	0	253755392	42	5771
2026-01-10 05:18:25.03	249.75	4.72	-34.4	-35.2	22.4	0.00e+00	0	27	0	270532608	42	5864
2026-01-10 05:18:28.06	250.13	4.85	-34.5	-35.3	22.3	0.00e+00	0	27	0	287309824	42	5961
2026-01-10 05:18:31.09	250.51	4.97	-34.5	-35.3	22.5	0.00e+00	0	27	0	304087040	42	5927
2026-01-10 05:18:34.12	250.89	5.09	-34.4	-35.2	22.5	0.00e+00	0	27	0	321912832	42	5853
2026-01-10 05:18:37.15	251.28	5.21	-34.4	-35.1	22.5	0.00e+00	0	27	0	338690048	42	5824
2026-01-10 05:18:40.18	251.66	5.33	-34.1	-34.9	22.8	0.00e+00	0	27	0	355467264	42	5667
2026-01-10 05:18:43.21	252.06	5.44	-34.2	-35.0	22.8	0.00e+00	0	27	0	372244480	42	5704
2026-01-10 05:18:46.24	252.45	5.56	-33.9	-34.6	23.0	0.00e+00	0	27	0	390070272	42	5485
2026-01-10 05:18:49.27	252.85	5.68	-33.7	-34.5	23.2	0.00e+00	0	27	0	406847488	40	6053
2026-01-10 05:18:52.30	253.25	5.80	-33.6	-34.3	23.3	0.00e+00	0	26	0	423624704	40	5957
2026-01-10 05:18:55.33	253.65	5.91	-33.6	-34.3	23.3	0.00e+00	0	27	0	440401920	40	5949
2026-01-10 05:18:58.36	254.06	6.03	-33.8	-34.6	23.2	0.00e+00	0	27	0	458227712	40	6128
2026-01-10 05:19:01.39	254.47	6.15	-33.6	-34.3	23.4	0.00e+00	0	27	0	475004928	40	5943
2026-01-10 05:19:04.42	254.89	6.26	-33.7	-34.4	23.3	0.00e+00	0	27	0	491782144	40	6017
2026-01-10 05:19:07.45	255.30	6.37	-33.5	-34.2	23.5	0.00e+00	0	27	0	508559360	40	5859
2026-01-10 05:19:10.48	255.72	6.49	-33.7	-34.4	23.4	0.00e+00	0	27	0	526385152	40	6006
2026-01-10 05:19:13.51	256.15	6.60	-33.6	-34.3	23.4	0.00e+00	0	26	0	543162368	40	5958
2026-01-10 05:19:16.54	256.57	6.71	-33.6	-34.4	23.5	0.00e+00	0	27	0	559939584	40	5968
2026-01-10 05:19:19.57	257.00	6.82	-33.3	-34.1	23.7	0.00e+00	0	27	0	577765376	40	5776
2026-01-10 05:19:22.59	257.43	6.93	-33.2	-33.9	23.8	0.00e+00	0	27	0	594542592	40	5668
2026-01-10 05:19:25.63	257.87	7.04	-33.1	-33.8	24.0	0.00e+00	0	27	0	611319808	40	5591
2026-01-10 05:19:28.66	258.31	7.14	-33.2	-34.0	23.8	0.00e+00	0	27	0	628097024	40	5700
2026-01-10 05:19:31.69	258.75	7.25	-33.2	-33.9	23.9	0.00e+00	0	27	0	644874240	40	5672
2026-01-10 05:19:34.71	259.19	7.36	-33.4	-34.2	23.6	0.00e+00	0	27	0	662700032	40	5831
2026-01-10 05:19:37.74	259.64	7.46	-33.3	-34.1	23.7	0.00e+00	0	27	0	679477248	40	5779
2026-01-10 05:19:40.77	260.09	7.56	-33.0	-33.7	24.1	0.00e+00	0	27	0	696254464	40	5537
2026-01-10 05:19:43.80	260.55	7.67	-33.0	-33.7	24.1	0.00e+00	0	27	0	713031680	40	5509
2026-01-10 05:19:46.83	261.00	7.77	-33.1	-33.8	24.1	0.00e+00	0	27	0	730857472	40	5590
2026-01-10 05:19:49.86	261.46	7.87	-33.3	-34.0	23.8	0.00e+00	0	27	0	747634688	40	5718
2026-01-10 05:19:52.89	261.93	7.97	-33.2	-34.0	23.8	0.00e+00	0	27	0	764411904	40	5705
2026-01-10 05:19:55.92	262.39	8.06	-33.0	-33.7	24.0	0.00e+00	0	27	0	782237696	40	5555
2026-01-10 05:19:58.95	262.86	8.16	-33.1	-33.8	24.0	0.00e+00	0	27	0	799014912	40	5601
2026-01-10 05:20:01.98	263.33	8.25	-33.1	-33.8	24.0	0.00e+00	0	27	0	815792128	40	5620
2026-01-10 05:20:05.00	263.81	8.35	-33.0	-33.8	24.1	0.00e+00	0	27	0	832569344	40	5583
2026-01-10 05:20:08.04	264.29	8.44	-32.7	-33.4	24.4	0.00e+00	0	27	0	849346560	38	6002
2026-01-10 05:20:11.07	264.77	8.53	-32.9	-33.6	24.4	0.00e+00	0	27	0	867172352	38	6126
2026-01-10 05:20:14.10	265.25	8.62	-32.7	-33.4	24.4	0.00e+00	0	27	0	883949568	38	6032
2026-01-10 05:20:17.13	265.74	8.71	-32.7	-33.4	24.5	0.00e+00	0	27	0	900726784	38	6019
2026-01-10 05:20:20.16	266.23	8.80	-32.9	-33.6	24.3	0.00e+00	0	27	0	917504000	38	6107
2026-01-10 05:20:23.19	266.72	8.88	-32.6	-33.3	24.6	0.00e+00	0	27	0	935329792	38	5919
2026-01-10 05:20:26.22	267.22	8.96	-32.6	-33.3	24.5	0.00e+00	0	27	0	952107008	38	5915
2026-01-10 05:20:29.24	267.71	9.05	-32.5	-33.2	24.6	0.00e+00	0	27	0	968884224	38	5887
2026-01-10 05:20:32.28	268.21	9.13	-32.7	-33.4	24.4	0.00e+00	0	27	0	986710016	38	5998
2026-01-10 05:20:35.31	268.72	9.21	-32.8	-33.5	24.4	0.00e+00	0	27	0	1003487232	38	6068
2026-01-10 05:20:38.33	269.22	9.28	-32.5	-33.2	24.6	0.00e+00	0	27	0	1020264448	38	5870
2026-01-10 05:20:41.36	269.73	9.36	-32.6	-33.4	24.5	0.00e+00	0	27	0	1037041664	38	5969
2026-01-10 05:20:44.40	270.24	9.43	-32.7	-33.4	24.5	0.00e+00	0	27	0	1053818880	38	6031
2026-01-10 05:20:47.43	270.75	9.50	-32.6	-33.3	24.6	0.00e+00	0	27	0	1071644672	38	5941
2026-01-10 05:20:50.46	271.27	9.57	-32.4	-33.1	24.6	0.00e+00	0	27	0	1088421888	38	5810
2026-01-10 05:20:53.48	271.79	9.64	-32.7	-33.5	24.5	0.00e+00	0	27	0	1105199104	38	6035
2026-01-10 05:20:56.51	272.31	9.71	-32.8	-33.4	24.4	0.00e+00	0	27	0	1121976320	38	6032
2026-01-10 05:20:59.54	272.83	9.77	-32.6	-33.4	24.5	0.00e+00	0	27	0	1139802112	38	5992
2026-01-10 05:21:02.56	273.35	9.83	-32.7	-33.3	24.5	0.00e+00	0	27	0	1156579328	38	5957
2026-01-10 05:21:05.59	273.88	9.90	-32.4	-33.1	24.7	0.00e+00	0	27	0	1173356544	38	5803
2026-01-10 05:21:08.63	274.41	9.95	-32.2	-32.9	24.9	0.00e+00	0	27	0	1191182336	38	5657
2026-01-10 05:21:11.65	274.94	10.01	-32.2	-32.9	25.0	0.00e+00	0	27	0	1207959552	38	5664
2026-01-10 05:21:14.68	275.47	10.06	-32.1	-32.8	25.0	0.00e+00	0	27	0	1224736768	38	5583
2026-01-10 05:21:17.71	276.00	10.12	-32.2	-32.9	25.0	0.00e+00	0	27	0	1241513984	38	5682
2026-01-10 05:21:20.74	276.54	10.17	-32.1	-32.7	25.1	0.00e+00	0	27	0	1258291200	38	5559
2026-01-10 05:21:23.77	277.08	10.22	-31.8	-32.4	25.3	0.00e+00	0	27	0	1276116992	38	5361
2026-01-10 05:21:26.80	277.62	10.26	-32.0	-32.6	25.1	0.00e+00	0	27	0	1292894208	38	5502
2026-01-10 05:21:29.82	278.16	10.31	-32.3	-33.0	24.8	0.00e+00	0	27	0	1309671424	38	5698
2026-01-10 05:21:32.85	278.70	10.35	-32.2	-32.9	25.0	0.00e+00	0	27	0	1326448640	38	5641
2026-01-10 05:21:35.88	279.25	10.39	-32.0	-32.7	25.1	0.00e+00	0	27	0	1344274432	38	5546
2026-01-10 05:21:38.91	279.79	10.42	-32.1	-32.7	25.1	0.00e+00	0	27	0	1361051648	38	5563
2026-01-10 05:21:41.94	280.34	10.46	-32.1	-32.7	25.0	0.00e+00	0	27	0	1377828864	38	5552
2026-01-10 05:21:44.97	280.89	10.49	-32.2	-32.9	24.9	0.00e+00	0	27	0	1395654656	38	5644
2026-01-10 05:21:47.99	281.43	10.52	-32.4	-33.1	24.8	0.00e+00	0	27	0	1412431872	38	5800
2026-01-10 05:21:51.02	281.98	10.55	-32.3	-33.0	24.8	0.00e+00	0	27	0	1429209088	38	5743
2026-01-10 05:21:54.05	282.53	10.58	-32.3	-33.0	24.9	0.00e+00	0	27	0	1445986304	38	5733
2026-01-10 05:21:57.08	283.09	10.60	-32.4	-33.1	24.9	0.00e+00	0	27	0	1462763520	38	5777
2026-01-10 05:22:00.11	283.64	10.62	-32.4	-33.1	24.8	0.00e+00	0	27	0	1480589312	38	5784
2026-01-10 05:22:03.13	284.19	10.64	-32.0	-32.6	25.2	0.00e+00	0	27	0	1497366528	38	5496
2026-01-10 05:22:06.16	284.75	10.66	-32.0	-32.6	25.2	0.00e+00	0	27	0	1514143744	38	5466
2026-01-10 05:22:09.19	285.30	10.67	-32.3	-33.0	25.0	0.00e+00	0	27	0	1530920960	38	5727
2026-01-10 05:22:12.21	285.85	10.68	-32.4	-33.1	24.9	0.00e+00	0	27	0	1547698176	38	5776
2026-01-10 05:22:15.24	286.41	10.69	-32.3	-32.9	24.9	0.00e+00	0	27	0	1565523968	38	5695
2026-01-10 05:22:18.27	286.97	10.70	-32.1	-32.8	25.1	0.00e+00	0	27	0	1582301184	38	5601
2026-01-10 05:22:21.30	287.52	10.71	-32.1	-32.8	25.1	0.00e+00	0	27	0	1599078400	38	5573
2026-01-10 05:22:24.33	288.08	10.71	-32.0	-32.6	25.1	0.00e+00	0	27	0	1616904192	38	5480
2026-01-10 05:22:27.35	288.63	10.71	-32.0	-32.7	25.1	0.00e+00	0	27	0	1633681408	38	5552
2026-01-10 05:22:30.38	289.19	10.71	-32.0	-32.7	25.1	0.00e+00	0	27	0	1650458624	38	5555
2026-01-10 05:22:33.41	289.74	10.70	-32.1	-32.8	25.0	0.00e+00	0	27	0	1667235840	38	5596
2026-01-10 05:22:36.44	290.30	10.70	-32.2	-32.8	25.0	0.00e+00	0	27	0	1685061632	38	5607
2026-01-10 05:22:39.47	290.86	10.69	-32.3	-33.0	24.8	0.00e+00	0	27	0	1701838848	38	5735
2026-01-10 05:22:42.49	291.41	10.67	-32.2	-32.9	24.9	0.00e+00	0	27	0	1718616064	38	5677
2026-01-10 05:22:45.52	291.96	10.66	-32.2	-32.8	25.0	0.00e+00	0	27	0	1735393280	38	5604
2026-01-10 05:22:48.55	292.52	10.64	-32.1	-32.7	25.1	0.00e+00	0	27	0	1752170496	38	5541
2026-01-10 05:22:51.58	293.07	10.62	-32.2	-32.8	24.9	0.00e+00	0	27	0	1769996288	38	5620
2026-01-10 05:22:54.61	293.62	10.60	-32.1	-32.8	25.0	0.00e+00	0	27	0	1786773504	38	5592
2026-01-10 05:22:57.64	294.17	10.58	-32.2	-32.9	25.0	0.00e+00	0	27	0	1803550720	38	5689
2026-01-10 05:23:00.67	294.73	10.55	-32.5	-33.2	24.7	0.00e+00	0	27	0	1821376512	38	5832
2026-01-10 05:23:03.69	295.27	10.53	-32.5	-33.2	24.7	0.00e+00	0	27	0	1838153728	38	5888
2026-01-10 05:23:06.72	295.82	10.50	-32.5	-33.2	24.7	0.00e+00	0	27	0	1854930944	38	5890
2026-01-10 05:23:09.75	296.37	10.46	-32.4	-33.1	24.8	0.00e+00	0	27	0	1871708160	38	5780
2026-01-10 05:23:12.78	296.92	10.43	-32.3	-33.0	24.9	0.00e+00	0	27	0	1889533952	38	5726
2026-01-10 05:23:15.81	297.46	10.39	-32.2	-32.9	25.0	0.00e+00	0	27	0	1906311168	38	5668
2026-01-10 05:23:18.84	298.00	10.35	-32.1	-32.8	25.0	0.00e+00	0	27	0	1923088384	38	5612
2026-01-10 05:23:21.87	298.55	10.31	-32.1	-32.8	25.0	0.00e+00	0	27	0	1939865600	38	5591
2026-01-10 05:23:24.90	299.09	10.27	-32.4	-33.1	24.8	0.00e+00	0	27	0	1956642816	38	5772
2026-01-10 05:23:27.92	299.62	10.22	-32.4	-33.1	24.8	0.00e+00	0	27	0	1974468608	38	5827
2026-01-10 05:23:30.95	300.16	10.17	-32.2	-32.8	25.0	0.00e+00	0	27	0	1991245824	38	5605
2026-01-10 05:23:33.98	300.70	10.12	-32.3	-33.0	24.9	0.00e+00	0	27	0	2008023040	38	5711
2026-01-10 05:23:37.01	301.23	10.07	-32.3	-33.0	24.9	0.00e+00	0	27	0	2024800256	38	5757
2026-01-10 05:23:40.04	301.76	10.02	-32.4	-33.1	24.8	0.00e+00	0	27	0	2042626048	38	5825
2026-01-10 05:23:43.07	302.29	9.96	-32.7	-33.4	24.5	0.00e+00	0	27	0	2059403264	38	5997
2026-01-10 05:23:46.10	302.82	9.90	-32.7	-33.4	24.5	0.00e+00	0	27	0	2076180480	38	6014
2026-01-10 05:23:49.12	303.34	9.84	-32.8	-33.4	24.5	0.00e+00	0	27	0	2094006272	38	6015
2026-01-10 05:23:52.15	303.87	9.78	-32.8	-33.5	24.5	0.00e+00	0	27	0	2110783488	38	6095
2026-01-10 05:23:55.18	304.39	9.72	-32.9	-33.5	24.4	0.00e+00	0	27	0	2127560704	38	6076
2026-01-10 05:23:58.21	304.91	9.65	-32.6	-33.4	24.6	0.00e+00	0	27	0	2144337920	38	5979
2026-01-10 05:24:01.24	305.42	9.58	-32.6	-33.3	24.6	0.00e+00	0	27	0	2161115136	38	5908
2026-01-10 05:24:04.27	305.94	9.52	-32.5	-33.2	24.7	0.00e+00	0	27	0	2178940928	38	5833
2026-01-10 05:24:07.30	306.45	9.44	-32.7	-33.4	24.6	0.00e+00	0	27	0	2195718144	38	6004
2026-01-10 05:24:10.33	306.96	9.37	-32.8	-33.5	24.5	0.00e+00	0	27	0	2212495360	38	6082
2026-01-10 05:24:13.35	307.46	9.30	-33.0	-33.8	24.2	0.00e+00	0	27	0	2229272576	38	6250
2026-01-10 05:24:16.38	307.97	9.22	-32.8	-33.6	24.4	0.00e+00	0	27	0	2247098368	38	6105
2026-01-10 05:24:19.41	308.47	9.14	-33.0	-33.7	24.3	0.00e+00	0	27	0	2263875584	38	6192
2026-01-10 05:24:22.44	308.97	9.06	-33.0	-33.8	24.3	0.00e+00	0	27	0	2280652800	38	6265
2026-01-10 05:24:25.47	309.47	8.98	-33.1	-33.9	24.2	0.00e+00	0	27	0	2298478592	38	6324
2026-01-10 05:24:28.50	309.96	8.90	-33.0	-33.7	24.3	0.00e+00	0	27	0	2315255808	38	6190
2026-01-10 05:24:31.52	310.45	8.81	-32.9	-33.6	24.4	0.00e+00	0	27	0	2332033024	38	6151
2026-01-10 05:24:34.55	310.94	8.73	-33.0	-33.7	24.4	0.00e+00	0	27	0	2348810240	38	6199
2026-01-10 05:24:37.57	311.42	8.64	-33.2	-33.9	24.1	0.00e+00	0	27	0	2365587456	38	6375
2026-01-10 05:24:40.60	311.90	8.55	-33.4	-34.1	23.9	0.00e+00	0	27	0	2383413248	38	6507
2026-01-10 05:24:43.63	312.38	8.46	-33.2	-33.9	24.0	0.00e+00	0	27	0	2400190464	38	6387
2026-01-10 05:24:46.66	312.86	8.37	-33.1	-33.7	24.1	0.00e+00	0	27	0	2416967680	38	6245
2026-01-10 05:24:49.69	313.33	8.28	-33.3	-34.0	24.0	0.00e+00	0	27	0	2433744896	38	6433
2026-01-10 05:24:52.72	313.81	8.18	-33.3	-34.0	23.9	0.00e+00	0	27	0	2451570688	38	6402
2026-01-10 05:24:55.75	314.27	8.09	-33.4	-34.1	23.8	0.00e+00	0	27	0	2468347904	38	6488
2026-01-10 05:24:58.78	314.74	7.99	-33.1	-33.9	24.0	0.00e+00	0	27	0	2485125120	38	6340
2026-01-10 05:25:01.81	315.20	7.89	-33.1	-33.7	24.1	0.00e+00	0	27	0	2501902336	38	6238
2026-01-10 05:25:04.84	315.66	7.79	-33.3	-34.0	23.9	0.00e+00	0	27	0	2519728128	38	6419
2026-01-10 05:25:07.87	316.11	7.69	-33.4	-34.1	23.7	0.00e+00	0	27	0	2536505344	38	6505
2026-01-10 05:25:10.90	316.57	7.59	-33.6	-34.3	23.6	0.00e+00	0	27	0	2553282560	38	6618
2026-01-10 05:25:13.94	317.02	7.49	-33.5	-34.3	23.6	0.00e+00	0	27	0	2570059776	38	6643
2026-01-10 05:25:16.97	317.47	7.39	-33.5	-34.2	23.7	0.00e+00	0	27	0	2587885568	38	6554
2026-01-10 05:25:20.00	317.91	7.28	-33.5	-34.2	23.7	0.00e+00	0	27	0	2604662784	38	6613
2026-01-10 05:25:23.02	318.35	7.18	-33.5	-34.3	23.6	0.00e+00	0	27	0	2621440000	40	5926
2026-01-10 05:25:26.05	318.79	7.07	-33.4	-34.1	23.7	0.00e+00	0	27	0	2638217216	40	5796
2026-01-10 05:25:29.07	319.22	6.96	-33.5	-34.2	23.6	0.00e+00	0	27	0	2656043008	40	5877
2026-01-10 05:25:32.11	319.65	6.85	-33.6	-34.4	23.4	0.00e+00	0	27	0	2672820224	40	5996
2026-01-10 05:25:35.14	320.08	6.75	-33.3	-34.0	23.7	0.00e+00	0	27	0	2689597440	40	5706
2026-01-10 05:25:38.17	320.51	6.64	-33.6	-34.3	23.4	0.00e+00	0	27	0	2707423232	40	5953
2026-01-10 05:25:41.19	320.93	6.53	-33.8	-34.5	23.3	0.00e+00	0	27	0	2724200448	40	6056
2026-01-10 05:25:44.22	321.34	6.41	-33.9	-34.6	23.1	0.00e+00	0	27	0	2740977664	40	6166
2026-01-10 05:25:47.25	321.76	6.30	-34.1	-34.9	22.9	0.00e+00	0	27	0	2757754880	40	6329
2026-01-10 05:25:50.28	322.17	6.19	-33.9	-34.6	23.1	0.00e+00	0	27	0	2774532096	40	6162
2026-01-10 05:25:53.30	322.58	6.07	-33.8	-34.5	23.2	0.00e+00	0	27	0	2792357888	40	6090
2026-01-10 05:25:56.33	322.99	5.96	-33.9	-34.6	23.1	0.00e+00	0	27	0	2809135104	40	6138
2026-01-10 05:25:59.36	323.39	5.84	-34.0	-34.8	23.0	0.00e+00	0	27	0	2825912320	40	6282
2026-01-10 05:26:02.39	323.79	5.73	-34.1	-34.8	22.9	0.00e+00	0	27	0	2842689536	40	6292
2026-01-10 05:26:05.42	324.19	5.61	-34.0	-34.8	22.9	0.00e+00	0	27	0	2860515328	40	6271
2026-01-10 05:26:08.45	324.58	5.49	-34.1	-34.9	22.9	0.00e+00	0	27	0	2877292544	40	6352
2026-01-10 05:26:11.47	324.97	5.38	-34.0	-34.7	22.9	0.00e+00	0	27	0	2894069760	40	6187
2026-01-10 05:26:14.50	325.36	5.26	-33.8	-34.5	23.0	0.00e+00	0	27	0	2910846976	40	6076
2026-01-10 05:26:17.53	325.75	5.14	-33.9	-34.6	22.8	0.00e+00	0	27	0	2928672768	40	6145
2026-01-10 05:26:20.55	326.13	5.02	-34.3	-35.1	22.6	0.00e+00	0	27	0	2945449984	40	6469
2026-01-10 05:26:23.58	326.51	4.90	-34.5	-35.4	22.2	0.00e+00	0	27	0	2962227200	40	6718
2026-01-10 05:26:26.61	326.88	4.78	-34.7	-35.4	22.1	0.00e+00	0	27	0	2979004416	42	6023
2026-01-10 05:26:29.64	327.26	4.66	-34.5	-35.4	22.2	0.00e+00	0	27	0	2996830208	42	5980
2026-01-10 05:26:32.66	327.63	4.54	-34.3	-35.1	22.3	0.00e+00	0	27	0	3013607424	42	5772
2026-01-10 05:26:35.69	327.99	4.42	-34.6	-35.4	22.2	0.00e+00	0	27	0	3030384640	42	5995
2026-01-10 05:26:38.72	328.36	4.30	-34.9	-35.7	21.8	0.00e+00	0	27	0	3047161856	42	6225
2026-01-10 05:26:41.75	328.72	4.18	-34.9	-35.8	21.7	0.00e+00	0	27	0	3063939072	42	6297
2026-01-10 05:26:44.78	329.08	4.05	-35.1	-35.9	21.5	0.00e+00	0	27	0	3081764864	42	6364
2026-01-10 05:26:47.81	329.43	3.93	-34.8	-35.6	21.7	0.00e+00	0	27	0	3098542080	42	6129
2026-01-10 05:26:50.83	329.79	3.81	-34.9	-35.8	21.5	0.00e+00	0	27	0	3115319296	42	6252
2026-01-10 05:26:53.86	330.14	3.68	-35.1	-35.9	21.1	0.00e+00	0	27	0	3132096512	42	6323
2026-01-10 05:26:56.89	330.48	3.56	-35.5	-36.4	20.5	0.00e+00	0	27	0	3149922304	42	6741
2026-01-10 05:26:59.92	330.83	3.44	-36.4	-37.4	19.1	0.00e+00	0	27	0	3166699520	44	6758
2026-01-10 05:27:02.95	331.17	3.31	-37.9	-39.2	16.6	0.00e+00	0	27	0	3183476736	48	6604
2026-01-10 05:27:05.98	331.51	3.19	-40.0	-42.3	12.3	1.44e-04	0	27	0	3201302528	52	7490
2026-01-10 05:27:09.01	331.85	3.06	-41.6	-45.9	7.1	1.07e-01	0	27	0	3218079744	54	10117
2026-01-10 05:27:12.04	332.18	2.94	-47.2	-59.3	3.6	8.45e-01	0	27	104	3225419776	60	33258
2026-01-10 05:27:15.07	332.51	2.81	-47.8	-59.9	3.6	8.45e-01	0	27	104	3225419776	60	35702
2026-01-10 05:27:18.10	332.84	2.69	-48.0	-60.1	3.6	8.45e-01	0	27	104	3225419776	60	36760
2026-01-10 05:27:21.13	333.16	2.56	-47.9	-60.0	3.6	8.44e-01	0	27	104	3225419776	60	36220
2026-01-10 05:27:24.15	333.49	2.44	-47.6	-60.0	3.6	8.45e-01	0	27	104	3225419776	60	36186
2026-01-10 05:27:27.19	333.81	2.31	-47.9	-60.0	3.6	8.45e-01	0	27	104	3225419776	60	36309
2026-01-10 05:27:30.22	334.13	2.18	-47.9	-60.0	3.6	8.46e-01	0	27	104	3225419776	60	36122
2026-01-10 05:27:33.24	334.44	2.06	-47.9	-60.0	3.6	8.46e-01	0	27	104	3225419776	60	36082
2026-01-10 05:27:36.27	334.75	1.93	-47.9	-60.0	3.6	8.45e-01	0	27	104	3225419776	60	36216
2026-01-10 05:27:39.30	335.06	1.81	-47.9	-60.0	3.6	8.46e-01	0	27	104	3225419776	60	36030
2026-01-10 05:27:42.33	335.37	1.68	-47.9	-60.0	3.6	8.45e-01	0	27	104	3225419776	60	35957
2026-01-10 05:27:45.36	335.68	1.55	-47.9	-60.0	3.6	8.46e-01	0	27	104	3225419776	60	36213
2026-01-10 05:27:48.39	335.98	1.43	-47.9	-60.0	3.6	8.46e-01	0	27	104	3225419776	60	36293
2026-01-10 05:27:51.42	336.28	1.30	-47.9	-60.0	3.6	8.45e-01	0	27	104	3225419776	60	36242
2026-01-10 05:27:54.45	336.58	1.17	-47.9	-60.0	3.6	8.46e-01	0	27	104	3225419776	60	36009
2026-01-10 05:27:57.48	336.87	1.05	-47.8	-59.9	3.6	8.46e-01	0	27	104	3225419776	60	35831
2026-01-10 05:28:00.51	337.17	0.92	-47.9	-60.0	3.6	8.45e-01	0	27	104	3225419776	60	35976
2026-01-10 05:28:03.55	337.46	0.79	-47.8	-60.0	3.6	8.46e-01	0	27	104	3225419776	60	35969
2026-01-10 05:28:06.57	337.74	0.67	-47.9	-60.0	3.6	8.46e-01	0	27	104	3225419776	60	36150
2026-01-10 05:28:09.60	338.03	0.54	-47.8	-60.0	3.6	8.46e-01	0	27	104	3225419776	60	35949
2026-01-10 05:28:12.63	338.31	0.41	-47.9	-60.0	3.6	8.46e-01	0	27	104	3225419776	60	36193
2026-01-10 05:28:15.66	338.60	0.29	-47.8	-59.9	3.6	8.46e-01	0	27	104	3225419776	60	35838
2026-01-10 05:28:18.69	338.88	0.16	-47.9	-60.0	3.6	8.45e-01	0	27	104	3225419776	60	35964
2026-01-10 05:28:21.72	339.15	0.03	-47.9	-60.0	3.6	8.47e-01	0	27	104	3225419776	60	36253

#Closed at: 2026-01-10 05:28:24
#Recorded file [3225 MB]: D:/lorett/data/35029_260110_171632.dat