passes_logs/2026/01/10/R4.6S_Anadyr/R4.6S_Anadyr__20260110_161830_SUOMI_NPP_rec.log

#Pass ID: 20260110_161830_SUOMI NPP
#Satellite: SUOMI NPP
#Configuration: NPP
#almurnet v.1.7.20251203
#Start time: 2026-01-10 16:18:31

#Version: 2.2.20231116
#Station: R4.6S_Anadyr
#Location: 177.4865 lon 64.73178 lat
#TLE: 1 37849U 11061A   26009.81756760  .00000113  00000+0  74747-4 0  9994
#TLE: 2 37849  98.7806 311.9110 0002525  72.5604 287.5848 14.19524046735974

#Time	Az	El	Level	Level2	SNR	BER	BlckErr	Temp	State	Recorded	gain1	gain2
2026-01-10 16:18:31.09	25.21	0.06	-48.4	-66.3	3.5	3.02e+01	0	28	0	0	60	79100
2026-01-10 16:18:35.13	25.07	0.29	-48.3	-63.5	3.6	1.51e+00	0	29	104	0	60	54343
2026-01-10 16:18:39.16	24.92	0.53	-48.2	-63.4	3.6	1.51e+00	0	29	104	0	60	53502
2026-01-10 16:18:43.20	24.78	0.76	-47.8	-62.9	3.6	1.51e+00	0	29	104	0	60	50454
2026-01-10 16:18:47.24	24.63	1.00	-46.7	-61.7	3.6	1.51e+00	0	29	104	0	60	44071
2026-01-10 16:18:51.28	24.48	1.24	-46.7	-61.8	3.6	1.51e+00	0	29	104	0	60	44658
2026-01-10 16:18:55.32	24.32	1.48	-46.6	-61.7	3.6	1.51e+00	0	29	104	0	60	44210
2026-01-10 16:18:59.35	24.16	1.73	-46.7	-61.8	3.6	1.51e+00	0	29	104	0	60	44515
2026-01-10 16:19:03.39	24.00	1.97	-46.6	-61.6	3.6	1.51e+00	0	29	104	0	60	43396
2026-01-10 16:19:07.43	23.84	2.22	-46.6	-61.7	3.6	1.51e+00	0	29	104	0	60	44139
2026-01-10 16:19:11.47	23.67	2.47	-46.6	-61.6	3.6	1.51e+00	0	30	104	0	60	43545
2026-01-10 16:19:15.51	23.50	2.72	-46.6	-61.0	3.6	1.51e+00	0	30	104	0	60	40543
2026-01-10 16:19:19.55	23.33	2.97	-46.7	-61.8	3.6	1.51e+00	0	30	104	0	60	44343
2026-01-10 16:19:23.59	23.15	3.23	-45.9	-52.7	7.1	2.23e-01	0	30	0	2097152	60	15663
2026-01-10 16:19:27.63	22.97	3.48	-43.9	-47.5	13.2	2.36e-05	0	30	0	9437184	60	8544
2026-01-10 16:19:31.67	22.79	3.74	-40.9	-42.8	16.5	4.56e-01	65	30	104	13631488	54	7021
2026-01-10 16:19:35.71	22.60	4.00	-42.9	-45.7	15.7	0.00e+00	0	30	0	16777216	60	6929
2026-01-10 16:19:39.74	22.41	4.27	-40.3	-41.9	18.8	0.00e+00	0	30	0	24117248	54	6380
2026-01-10 16:19:43.78	22.22	4.53	-40.5	-42.1	18.6	0.00e+00	34	30	0	31457280	54	6515
2026-01-10 16:19:47.82	22.02	4.80	-40.0	-41.5	19.3	0.00e+00	0	30	0	38797312	54	6082
2026-01-10 16:19:51.86	21.81	5.07	-40.0	-41.5	19.5	0.00e+00	0	30	0	47185920	54	6049
2026-01-10 16:19:55.90	21.61	5.34	-39.8	-41.3	19.6	0.00e+00	0	30	0	54525952	52	6647
2026-01-10 16:19:59.94	21.40	5.62	-39.7	-41.1	19.7	0.00e+00	31	30	0	61865984	52	6524
2026-01-10 16:20:03.98	21.18	5.90	-39.8	-41.2	19.7	0.00e+00	0	30	0	69206016	52	6573
2026-01-10 16:20:08.02	20.96	6.18	-39.6	-41.0	19.9	0.00e+00	0	30	0	77594624	52	6439
2026-01-10 16:20:12.06	20.74	6.46	-39.7	-41.0	20.0	0.00e+00	0	30	0	84934656	52	6440
2026-01-10 16:20:16.10	20.51	6.75	-39.8	-41.1	19.9	0.00e+00	92	30	0	92274688	52	6534
2026-01-10 16:20:20.14	20.28	7.04	-39.7	-41.1	20.0	0.00e+00	0	30	0	99614720	52	6472
2026-01-10 16:20:24.17	20.04	7.33	-39.6	-41.0	20.1	0.00e+00	0	30	0	106954752	52	6393
2026-01-10 16:20:28.21	19.79	7.62	-39.5	-40.8	20.3	0.00e+00	0	30	0	115343360	52	6284
2026-01-10 16:20:32.25	19.54	7.92	-39.4	-40.7	20.4	0.00e+00	78	30	0	122683392	52	6219
2026-01-10 16:20:36.29	19.29	8.22	-39.1	-40.4	20.7	0.00e+00	0	30	0	130023424	52	5978
2026-01-10 16:20:40.33	19.03	8.52	-39.1	-40.3	20.8	0.00e+00	0	30	0	137363456	52	5912
2026-01-10 16:20:44.37	18.76	8.83	-39.1	-40.4	20.8	0.00e+00	92	30	0	145752064	52	5973
2026-01-10 16:20:48.41	18.49	9.14	-38.5	-39.6	21.4	0.00e+00	33	30	0	153092096	50	6134
2026-01-10 16:20:52.45	18.21	9.45	-38.4	-39.5	21.4	0.00e+00	0	30	0	160432128	50	6084
2026-01-10 16:20:56.48	17.93	9.76	-38.6	-39.8	21.3	0.00e+00	0	30	0	167772160	50	6264
2026-01-10 16:21:00.52	17.64	10.08	-38.4	-39.5	21.5	0.00e+00	92	30	0	175112192	50	6087
2026-01-10 16:21:04.56	17.34	10.40	-38.5	-39.7	21.5	0.00e+00	0	30	0	183500800	50	6195
2026-01-10 16:21:08.60	17.03	10.73	-38.4	-39.6	21.5	0.00e+00	0	30	0	190840832	50	6120
2026-01-10 16:21:12.63	16.72	11.06	-38.6	-39.7	21.4	0.00e+00	0	30	0	198180864	50	6231
2026-01-10 16:21:16.67	16.40	11.39	-38.6	-39.7	21.4	0.00e+00	92	30	0	205520896	50	6220
2026-01-10 16:21:20.71	16.07	11.73	-38.3	-39.5	21.7	0.00e+00	0	30	0	213909504	50	6035
2026-01-10 16:21:24.75	15.74	12.07	-38.2	-39.3	21.8	0.00e+00	0	30	0	221249536	50	5915
2026-01-10 16:21:28.79	15.39	12.41	-38.2	-39.3	21.9	0.00e+00	38	30	0	228589568	50	5901
2026-01-10 16:21:32.82	15.04	12.76	-37.8	-38.8	22.2	0.00e+00	12	30	0	235929600	48	6311
2026-01-10 16:21:36.87	14.68	13.11	-38.0	-39.0	22.0	0.00e+00	0	30	0	243269632	48	6452
2026-01-10 16:21:40.91	14.31	13.47	-37.5	-38.5	22.5	0.00e+00	0	30	0	251658240	48	6102
2026-01-10 16:21:44.94	13.93	13.82	-37.7	-38.7	22.3	0.00e+00	66	30	0	258998272	48	6213
2026-01-10 16:21:48.99	13.54	14.19	-37.4	-38.3	22.6	0.00e+00	0	30	0	266338304	48	5950
2026-01-10 16:21:53.03	13.14	14.56	-37.5	-38.5	22.5	0.00e+00	0	30	0	273678336	48	6085
2026-01-10 16:21:57.07	12.73	14.93	-37.3	-38.2	22.8	0.00e+00	0	30	0	282066944	48	5887
2026-01-10 16:22:01.10	12.31	15.30	-37.6	-38.6	22.5	0.00e+00	74	30	0	289406976	48	6104
2026-01-10 16:22:05.14	11.88	15.68	-37.9	-39.0	22.2	0.00e+00	0	30	0	296747008	48	6417
2026-01-10 16:22:09.18	11.43	16.07	-38.1	-39.1	21.8	0.00e+00	0	30	0	304087040	48	6531
2026-01-10 16:22:13.21	10.98	16.46	-37.5	-38.5	22.6	0.00e+00	42	30	0	311427072	48	6065
2026-01-10 16:22:17.25	10.51	16.85	-37.8	-38.8	22.4	0.00e+00	59	30	0	319815680	48	6293
2026-01-10 16:22:21.29	10.03	17.25	-37.4	-38.3	22.8	0.00e+00	0	30	0	327155712	48	5960
2026-01-10 16:22:25.34	9.54	17.65	-36.9	-37.8	23.3	0.00e+00	0	30	0	334495744	46	6270
2026-01-10 16:22:29.38	9.03	18.06	-37.2	-38.1	22.9	0.00e+00	92	30	0	341835776	46	6484
2026-01-10 16:22:33.42	8.51	18.47	-37.6	-38.6	22.6	0.00e+00	0	30	0	350224384	46	6888
2026-01-10 16:22:37.46	7.97	18.88	-37.6	-38.5	22.7	0.00e+00	0	30	0	357564416	48	6087
2026-01-10 16:22:41.50	7.42	19.30	-36.9	-37.8	23.2	0.00e+00	0	30	0	364904448	48	5589
2026-01-10 16:22:45.54	6.85	19.72	-38.0	-39.0	22.5	0.00e+00	76	30	0	372244480	48	6397
2026-01-10 16:22:49.58	6.26	20.15	-38.0	-39.0	22.2	0.00e+00	0	29	0	379584512	48	6432
2026-01-10 16:22:53.62	5.66	20.58	-37.8	-38.8	22.5	0.00e+00	0	30	0	387973120	48	6291
2026-01-10 16:22:57.66	5.04	21.02	-38.3	-39.4	21.8	0.00e+00	0	30	0	395313152	48	6760
2026-01-10 16:23:01.70	4.41	21.46	-38.7	-39.8	21.6	0.00e+00	92	29	0	402653184	50	6302
2026-01-10 16:23:05.74	3.75	21.90	-38.0	-39.0	22.3	0.00e+00	0	29	0	409993216	50	5740
2026-01-10 16:23:09.78	3.08	22.35	-37.3	-38.3	22.9	0.00e+00	0	29	0	418381824	48	5912
2026-01-10 16:23:13.82	2.38	22.80	-37.1	-38.1	23.1	0.00e+00	38	29	0	425721856	48	5772
2026-01-10 16:23:17.85	1.67	23.25	-37.3	-38.3	22.9	0.00e+00	0	29	0	433061888	48	5925
2026-01-10 16:23:21.89	0.93	23.71	-37.2	-38.2	23.0	0.00e+00	0	29	0	440401920	48	5860
2026-01-10 16:23:25.93	0.17	24.17	-36.9	-37.8	23.2	0.00e+00	0	29	0	447741952	46	6307
2026-01-10 16:23:29.97	359.38	24.63	-37.7	-38.7	22.5	0.00e+00	92	29	0	456130560	48	6213
2026-01-10 16:23:34.01	358.58	25.09	-38.9	-40.1	21.3	0.00e+00	0	29	0	463470592	50	6479
2026-01-10 16:23:38.05	357.75	25.56	-39.0	-40.1	21.5	0.00e+00	0	29	0	470810624	50	6515
2026-01-10 16:23:42.09	356.89	26.02	-39.2	-40.4	21.2	0.00e+00	0	29	0	478150656	50	6767
2026-01-10 16:23:46.12	356.01	26.49	-39.4	-40.7	21.0	0.00e+00	91	29	0	486539264	50	6951
2026-01-10 16:23:50.16	355.10	26.96	-38.2	-39.3	22.2	0.00e+00	0	29	0	493879296	50	5935
2026-01-10 16:23:54.20	354.16	27.43	-38.1	-39.2	22.2	0.00e+00	0	29	0	501219328	48	6582
2026-01-10 16:23:58.24	353.20	27.89	-38.0	-39.0	22.4	0.00e+00	44	29	0	508559360	48	6460
2026-01-10 16:24:02.28	352.20	28.36	-39.2	-40.4	21.2	0.00e+00	40	29	0	515899392	50	6698
2026-01-10 16:24:06.32	351.18	28.82	-38.5	-39.6	22.0	0.00e+00	0	29	0	524288000	50	6147
2026-01-10 16:24:10.36	350.13	29.28	-39.0	-40.2	21.4	0.00e+00	0	29	0	531628032	50	6588
2026-01-10 16:24:14.40	349.04	29.74	-38.8	-39.9	21.8	0.00e+00	92	29	0	538968064	50	6371
2026-01-10 16:24:18.43	347.93	30.19	-39.1	-40.3	21.5	0.00e+00	0	29	0	546308096	50	6664
2026-01-10 16:24:22.48	346.78	30.64	-39.4	-40.6	21.1	0.00e+00	0	29	0	554696704	50	6903
2026-01-10 16:24:26.52	345.60	31.08	-40.3	-41.7	20.1	0.00e+00	0	29	0	562036736	52	6931
2026-01-10 16:24:30.55	344.39	31.51	-41.6	-43.4	18.8	0.00e+00	92	29	0	569376768	56	6699
2026-01-10 16:24:34.59	343.14	31.93	-39.8	-41.1	20.8	0.00e+00	0	29	0	576716800	54	5800
2026-01-10 16:24:38.63	341.86	32.34	-41.3	-42.9	19.0	0.00e+00	0	29	0	584056832	54	7164
2026-01-10 16:24:42.67	340.55	32.75	-41.8	-43.6	18.0	0.00e+00	21	29	0	592445440	54	7744
2026-01-10 16:24:46.71	339.21	33.14	-40.5	-41.9	19.9	0.00e+00	0	29	0	599785472	54	6381
2026-01-10 16:24:50.75	337.83	33.51	-41.8	-43.6	18.1	0.00e+00	0	29	0	607125504	54	7768
2026-01-10 16:24:54.79	336.42	33.88	-40.5	-41.9	20.0	0.00e+00	0	29	0	614465536	54	6346
2026-01-10 16:24:58.83	334.98	34.22	-40.7	-42.2	19.6	0.00e+00	37	29	0	622854144	54	6598
2026-01-10 16:25:02.87	333.51	34.55	-39.0	-40.1	21.6	0.00e+00	0	29	0	630194176	52	5784
2026-01-10 16:25:06.91	332.02	34.86	-40.1	-41.4	20.3	0.00e+00	0	29	0	637534208	52	6739
2026-01-10 16:25:10.94	330.49	35.15	-38.7	-39.8	21.7	0.00e+00	0	29	0	644874240	50	6306
2026-01-10 16:25:14.99	328.93	35.42	-39.2	-40.4	21.2	0.00e+00	91	29	0	652214272	50	6748
2026-01-10 16:25:19.03	327.35	35.66	-36.1	-37.0	24.1	0.00e+00	0	29	0	660602880	46	5696
2026-01-10 16:25:23.06	325.76	35.89	-36.3	-37.2	23.7	0.00e+00	0	29	0	667942912	44	6551
2026-01-10 16:25:27.10	324.13	36.09	-36.4	-37.2	23.8	0.00e+00	0	28	0	675282944	44	6599
2026-01-10 16:25:31.14	322.49	36.26	-36.2	-37.1	23.9	0.00e+00	92	28	0	682622976	44	6522
2026-01-10 16:25:35.18	320.83	36.41	-36.1	-37.0	24.0	0.00e+00	0	29	0	691011584	44	6450
2026-01-10 16:25:39.21	319.17	36.52	-36.9	-37.8	23.4	0.00e+00	0	29	0	698351616	48	5588
2026-01-10 16:25:43.25	317.48	36.62	-34.9	-35.6	24.9	0.00e+00	19	28	0	705691648	42	6129
2026-01-10 16:25:47.29	315.79	36.68	-37.6	-38.6	22.7	0.00e+00	0	28	0	713031680	46	6862
2026-01-10 16:25:51.33	314.09	36.72	-37.3	-38.2	23.0	0.00e+00	0	28	0	720371712	48	5872
2026-01-10 16:25:55.37	312.39	36.72	-39.2	-40.4	21.4	0.00e+00	0	28	0	728760320	50	6739
2026-01-10 16:25:59.41	310.70	36.70	-36.7	-37.5	23.6	0.00e+00	91	28	0	736100352	46	6094
2026-01-10 16:26:03.45	309.00	36.65	-38.5	-39.6	21.9	0.00e+00	0	28	0	743440384	50	6133
2026-01-10 16:26:07.49	307.31	36.57	-37.7	-38.7	22.6	0.00e+00	0	28	0	750780416	50	5560
2026-01-10 16:26:11.53	305.64	36.46	-39.6	-40.9	20.9	0.00e+00	0	28	0	759169024	50	7107
2026-01-10 16:26:15.57	303.97	36.33	-39.8	-41.1	20.6	0.00e+00	92	28	0	766509056	52	6479
2026-01-10 16:26:19.61	302.32	36.17	-38.1	-39.1	22.3	0.00e+00	0	28	0	773849088	48	6498
2026-01-10 16:26:23.65	300.68	35.98	-39.6	-40.9	20.8	0.00e+00	0	28	0	781189120	52	6356
2026-01-10 16:26:27.69	299.07	35.77	-38.3	-39.3	22.2	0.00e+00	20	28	0	788529152	50	5936
2026-01-10 16:26:31.73	297.48	35.53	-38.3	-39.3	22.2	0.00e+00	0	28	0	796917760	50	5957
2026-01-10 16:26:35.76	295.92	35.27	-39.6	-40.8	21.3	0.00e+00	0	28	0	804257792	52	6289
2026-01-10 16:26:39.80	294.37	34.99	-36.6	-37.4	23.8	0.00e+00	0	28	0	811597824	46	6022
2026-01-10 16:26:43.84	292.86	34.69	-39.2	-40.4	21.3	0.00e+00	49	28	0	818937856	50	6713
2026-01-10 16:26:47.88	291.37	34.37	-36.7	-37.6	23.5	0.00e+00	0	28	0	827326464	46	6145
2026-01-10 16:26:51.92	289.92	34.03	-38.6	-39.7	21.8	0.00e+00	0	28	0	834666496	48	6995
2026-01-10 16:26:55.96	288.49	33.68	-39.5	-40.7	21.0	0.00e+00	0	28	0	842006528	52	6240
2026-01-10 16:27:00.00	287.10	33.31	-39.5	-40.7	21.0	0.00e+00	76	28	0	849346560	52	6244
2026-01-10 16:27:04.05	285.73	32.92	-39.5	-40.7	21.1	0.00e+00	0	28	0	856686592	52	6236
2026-01-10 16:27:08.09	284.40	32.52	-37.9	-38.9	22.4	0.00e+00	0	28	0	865075200	50	5680
2026-01-10 16:27:12.13	283.11	32.11	-37.5	-38.5	22.8	0.00e+00	43	28	0	872415232	46	6784
2026-01-10 16:27:16.16	281.85	31.69	-39.3	-40.5	21.2	0.00e+00	90	28	0	879755264	50	6770
2026-01-10 16:27:20.20	280.62	31.26	-38.0	-39.0	22.4	0.00e+00	0	28	0	887095296	48	6392
2026-01-10 16:27:24.24	279.42	30.83	-40.2	-41.5	20.4	0.00e+00	0	28	0	895483904	52	6823
2026-01-10 16:27:28.28	278.25	30.38	-38.9	-40.1	21.5	0.00e+00	53	28	0	902823936	50	6478
2026-01-10 16:27:32.32	277.12	29.93	-39.3	-40.5	21.1	0.00e+00	0	28	0	910163968	50	6803
2026-01-10 16:27:36.35	276.02	29.48	-39.4	-40.6	21.1	0.00e+00	0	28	0	917504000	52	6140
2026-01-10 16:27:40.40	274.95	29.02	-39.3	-40.5	21.2	0.00e+00	0	28	0	924844032	52	6083
2026-01-10 16:27:44.44	273.91	28.55	-39.3	-40.5	21.2	0.00e+00	92	28	0	933232640	52	6075
2026-01-10 16:27:48.48	272.90	28.09	-36.8	-37.6	23.4	0.00e+00	0	28	0	940572672	48	5487
2026-01-10 16:27:52.51	271.92	27.62	-36.9	-37.8	23.3	0.00e+00	0	28	0	947912704	46	6284
2026-01-10 16:27:56.55	270.97	27.15	-37.1	-38.0	23.3	0.00e+00	0	28	0	955252736	46	6407
2026-01-10 16:28:00.59	270.04	26.68	-36.3	-37.1	23.8	0.00e+00	92	28	0	963641344	46	5793
2026-01-10 16:28:04.63	269.14	26.21	-37.4	-38.4	22.9	0.00e+00	0	28	0	970981376	46	6706
2026-01-10 16:28:08.67	268.27	25.75	-36.0	-36.9	24.1	0.00e+00	0	28	0	978321408	46	5642
2026-01-10 16:28:12.71	267.43	25.28	-36.1	-36.9	24.0	0.00e+00	42	28	0	985661440	46	5676
2026-01-10 16:28:16.75	266.61	24.81	-36.2	-37.1	23.9	0.00e+00	33	28	0	993001472	46	5779
2026-01-10 16:28:20.79	265.81	24.35	-35.7	-36.5	24.3	0.00e+00	0	28	0	1001390080	44	6087
2026-01-10 16:28:24.82	265.04	23.89	-36.2	-37.0	23.9	0.00e+00	0	28	0	1008730112	44	6447
2026-01-10 16:28:28.86	264.29	23.43	-36.3	-37.2	23.7	0.00e+00	92	27	0	1016070144	44	6570
2026-01-10 16:28:32.90	263.56	22.97	-37.0	-37.9	23.1	0.00e+00	0	28	0	1023410176	46	6365
2026-01-10 16:28:36.94	262.85	22.52	-38.0	-39.0	22.3	0.00e+00	0	28	0	1031798784	48	6428
2026-01-10 16:28:40.98	262.17	22.07	-37.8	-38.8	22.5	0.00e+00	0	28	0	1039138816	48	6310
2026-01-10 16:28:45.02	261.50	21.62	-38.3	-39.4	21.9	0.00e+00	92	27	0	1046478848	48	6744
2026-01-10 16:28:49.06	260.85	21.18	-38.4	-39.5	21.9	0.00e+00	0	28	0	1053818880	50	6071
2026-01-10 16:28:53.10	260.22	20.74	-38.6	-39.7	21.7	0.00e+00	0	28	0	1061158912	50	6239
2026-01-10 16:28:57.13	259.61	20.31	-37.4	-38.3	22.8	0.00e+00	0	28	0	1069547520	48	5951
2026-01-10 16:29:01.17	259.02	19.88	-37.3	-38.3	22.9	0.00e+00	37	28	0	1076887552	48	5936
2026-01-10 16:29:05.22	258.44	19.45	-37.5	-38.4	22.9	0.00e+00	0	28	0	1084227584	48	6027
2026-01-10 16:29:09.25	257.88	19.03	-36.2	-37.0	23.8	0.00e+00	0	28	0	1091567616	46	5716
2026-01-10 16:29:13.29	257.33	18.61	-36.2	-37.1	23.8	0.00e+00	92	27	0	1099956224	46	5787
2026-01-10 16:29:17.33	256.80	18.20	-37.5	-38.4	22.7	0.00e+00	0	27	0	1107296256	46	6763
2026-01-10 16:29:21.36	256.28	17.79	-39.4	-40.7	20.8	0.00e+00	0	27	0	1114636288	50	6932
2026-01-10 16:29:25.39	255.78	17.38	-39.6	-40.8	20.6	0.00e+00	0	27	0	1121976320	52	6290
2026-01-10 16:29:29.43	255.29	16.98	-37.5	-38.5	22.7	0.00e+00	92	27	0	1129316352	48	6071
2026-01-10 16:29:33.47	254.82	16.59	-37.4	-38.4	22.8	0.00e+00	33	27	0	1137704960	48	5979
2026-01-10 16:29:37.51	254.35	16.20	-39.0	-40.1	21.2	0.00e+00	0	27	0	1145044992	50	6530
2026-01-10 16:29:41.55	253.90	15.81	-38.8	-39.9	21.6	0.00e+00	0	27	0	1152385024	50	6363
2026-01-10 16:29:45.59	253.46	15.43	-37.7	-38.7	22.5	1.50e-06	92	27	0	1159725056	48	6241
2026-01-10 16:29:49.63	253.03	15.05	-38.2	-39.3	22.0	0.00e+00	0	27	0	1168113664	48	6655
2026-01-10 16:29:53.67	252.61	14.67	-38.6	-39.7	21.7	0.00e+00	0	27	0	1175453696	48	7000
2026-01-10 16:29:57.71	252.21	14.30	-38.5	-39.6	21.7	0.00e+00	24	27	0	1182793728	50	6127
2026-01-10 16:30:01.75	251.81	13.93	-38.7	-39.8	21.6	0.00e+00	0	27	0	1190133760	50	6279
2026-01-10 16:30:05.79	251.42	13.57	-38.5	-39.5	21.7	0.00e+00	0	27	0	1197473792	50	6099
2026-01-10 16:30:09.83	251.05	13.21	-37.4	-38.3	22.5	0.00e+00	0	27	0	1205862400	48	5959
2026-01-10 16:30:13.87	250.68	12.86	-37.8	-38.7	22.2	0.00e+00	92	27	0	1213202432	48	6241
2026-01-10 16:30:17.91	250.32	12.51	-39.1	-40.3	21.0	0.00e+00	0	27	0	1220542464	50	6673
2026-01-10 16:30:21.95	249.97	12.16	-40.6	-42.1	19.4	0.00e+00	0	27	0	1227882496	52	7305
2026-01-10 16:30:25.99	249.63	11.82	-40.2	-41.6	19.8	0.00e+00	0	27	0	1235222528	52	6864
2026-01-10 16:30:30.03	249.29	11.48	-39.4	-40.7	20.5	0.00e+00	90	27	0	1243611136	52	6222
2026-01-10 16:30:34.07	248.97	11.15	-38.8	-40.0	21.3	0.00e+00	0	27	0	1250951168	52	5699
2026-01-10 16:30:38.11	248.65	10.81	-38.5	-39.7	21.5	0.00e+00	0	27	0	1258291200	50	6183
2026-01-10 16:30:42.15	248.34	10.49	-38.4	-39.4	21.6	0.00e+00	16	27	0	1265631232	50	6020
2026-01-10 16:30:46.18	248.03	10.16	-38.3	-39.3	21.9	0.00e+00	54	27	0	1274019840	50	5947
2026-01-10 16:30:50.22	247.74	9.84	-38.5	-39.6	21.5	0.00e+00	0	27	0	1281359872	50	6142
2026-01-10 16:30:54.26	247.45	9.52	-39.2	-40.4	20.7	0.00e+00	33	27	0	1288699904	50	6744
2026-01-10 16:30:58.29	247.16	9.21	-39.5	-40.7	20.5	0.00e+00	33	28	0	1296039936	50	6970
2026-01-10 16:31:02.33	246.88	8.90	-40.1	-41.5	19.6	0.00e+00	0	27	0	1303379968	52	6817
2026-01-10 16:31:06.37	246.61	8.59	-40.3	-41.7	19.5	0.00e+00	0	27	0	1311768576	52	6976
2026-01-10 16:31:10.41	246.35	8.29	-40.4	-41.9	19.2	0.00e+00	0	28	0	1319108608	52	7147
2026-01-10 16:31:14.45	246.09	7.98	-40.9	-42.5	18.5	0.00e+00	92	28	0	1326448640	54	6831
2026-01-10 16:31:18.48	245.83	7.69	-41.4	-43.2	17.9	0.00e+00	0	28	0	1333788672	54	7363
2026-01-10 16:31:22.52	245.58	7.39	-41.9	-43.9	17.2	0.00e+00	0	28	0	1342177280	56	7102
2026-01-10 16:31:26.55	245.34	7.10	-42.3	-44.4	16.7	0.00e+00	0	28	0	1349517312	56	7582
2026-01-10 16:31:30.59	245.10	6.81	-42.2	-44.4	16.7	0.00e+00	92	28	0	1356857344	56	7526
2026-01-10 16:31:34.63	244.87	6.52	-42.0	-44.0	17.0	0.00e+00	0	28	0	1364197376	56	7244
2026-01-10 16:31:38.66	244.64	6.24	-41.8	-43.8	17.2	0.00e+00	0	28	0	1371537408	56	7080
2026-01-10 16:31:42.70	244.41	5.95	-42.0	-44.1	16.7	0.00e+00	55	28	0	1379926016	56	7318
2026-01-10 16:31:46.74	244.19	5.67	-42.3	-44.5	16.4	0.00e+00	0	28	0	1387266048	56	7670
2026-01-10 16:31:50.78	243.98	5.40	-43.0	-45.7	15.0	0.00e+00	0	28	0	1394606080	58	7850
2026-01-10 16:31:54.80	243.77	5.12	-43.2	-46.1	14.6	0.00e+00	0	28	0	1401946112	58	8233
2026-01-10 16:31:58.84	243.56	4.85	-43.8	-47.3	13.4	1.29e-05	61	28	0	1410334720	60	8343
2026-01-10 16:32:02.87	243.36	4.58	-44.2	-48.1	12.3	1.59e-04	0	28	0	1417674752	60	9190
2026-01-10 16:32:06.91	243.16	4.32	-44.6	-49.2	11.1	1.20e-03	0	28	0	1425014784	60	10407
2026-01-10 16:32:10.95	242.96	4.05	-44.8	-49.7	10.2	7.30e-03	0	28	0	1432354816	60	11092
2026-01-10 16:32:14.99	242.77	3.79	-45.0	-50.8	8.9	2.70e-02	92	28	0	1439694848	60	12551
2026-01-10 16:32:19.03	242.58	3.53	-45.3	-52.1	7.3	9.14e-02	0	28	0	1448083456	60	14624
2026-01-10 16:32:23.06	242.40	3.27	-45.4	-52.9	6.2	1.95e-01	0	28	0	1455423488	60	16052
2026-01-10 16:32:27.09	242.22	3.01	-45.4	-53.5	5.3	4.13e-01	38	28	0	1462763520	60	17185
2026-01-10 16:32:31.13	242.04	2.76	-48.0	-63.1	3.6	1.51e+00	0	28	104	1463812096	60	51800
2026-01-10 16:32:35.17	241.86	2.51	-48.1	-63.3	3.6	1.51e+00	0	28	104	1463812096	60	53116
2026-01-10 16:32:39.21	241.69	2.26	-47.8	-63.2	3.6	1.51e+00	0	28	104	1463812096	60	52274
2026-01-10 16:32:43.24	241.53	2.01	-47.9	-63.1	3.6	1.51e+00	0	28	104	1463812096	60	51882
2026-01-10 16:32:47.28	241.36	1.76	-48.1	-63.2	3.6	1.51e+00	0	28	104	1463812096	60	52391
2026-01-10 16:32:51.33	241.20	1.52	-48.0	-63.2	3.6	1.51e+00	0	28	104	1463812096	60	52406
2026-01-10 16:32:55.37	241.04	1.28	-48.1	-63.2	3.6	1.51e+00	0	28	104	1463812096	60	52307
2026-01-10 16:32:59.41	240.88	1.03	-48.0	-63.2	3.6	1.51e+00	0	29	104	1463812096	60	52543
2026-01-10 16:33:03.45	240.73	0.80	-48.1	-63.2	3.6	1.51e+00	0	29	104	1463812096	60	52443
2026-01-10 16:33:07.48	240.57	0.56	-48.0	-63.2	3.6	1.51e+00	0	29	104	1463812096	60	52033
2026-01-10 16:33:11.52	240.42	0.32	-48.1	-63.3	3.6	1.51e+00	0	29	104	1463812096	60	52931
2026-01-10 16:33:15.56	240.28	0.09	-48.1	-63.3	3.6	1.51e+00	0	29	104	1463812096	60	52788

#Closed at: 2026-01-10 16:33:18
#Recorded file [1463 MB]: D:/lorett/data/35029_260111_041831.dat