passes_logs/2026/01/10/R4.6S_Anadyr/R4.6S_Anadyr__20260110_122804_NOAA_21_JPSS-2_rec.log

#Pass ID: 20260110_122804_NOAA 21 (JPSS-2)
#Satellite: NOAA 21 (JPSS-2)
#Configuration: NOAA-21
#almurnet v.1.7.20251203
#Start time: 2026-01-10 12:28:05

#Version: 2.2.20231116
#Station: R4.6S_Anadyr
#Location: 177.4865 lon 64.73178 lat
#TLE: 1 54234U 22150A   26009.79679979  .00000100  00000+0  68070-4 0  9993
#TLE: 2 54234  98.7494 310.7596 0000833 322.2782  37.8335 14.19533646164071

#Time	Az	El	Level	Level2	SNR	BER	BlckErr	Temp	State	Recorded	gain1	gain2
2026-01-10 12:28:05.83	18.94	0.06	-48.2	-63.1	3.5	1.51e+00	0	27	0	0	60	51761
2026-01-10 12:28:09.86	19.23	0.26	-48.2	-61.1	3.5	1.52e+00	0	29	104	0	60	39836
2026-01-10 12:28:13.90	19.52	0.46	-48.2	-61.1	3.5	1.52e+00	0	29	104	0	60	39797
2026-01-10 12:28:17.94	19.81	0.66	-47.8	-60.6	3.5	1.52e+00	0	29	104	0	60	37792
2026-01-10 12:28:21.98	20.11	0.87	-46.6	-59.4	3.5	1.52e+00	0	29	104	0	60	32859
2026-01-10 12:28:26.02	20.42	1.07	-46.6	-59.3	3.5	1.52e+00	0	29	104	0	60	32416
2026-01-10 12:28:30.06	20.72	1.28	-46.5	-59.3	3.5	1.52e+00	0	29	104	0	60	32419
2026-01-10 12:28:34.10	21.03	1.48	-46.5	-59.3	3.5	1.51e+00	0	30	104	0	60	32466
2026-01-10 12:28:38.14	21.35	1.69	-46.5	-59.3	3.5	1.52e+00	0	30	104	0	60	32471
2026-01-10 12:28:42.18	21.67	1.90	-46.5	-59.3	3.5	1.52e+00	0	30	104	0	60	32388
2026-01-10 12:28:46.22	21.99	2.10	-46.5	-59.3	3.5	1.52e+00	0	30	104	0	60	32317
2026-01-10 12:28:50.26	22.32	2.31	-46.4	-58.0	3.5	1.52e+00	0	30	104	0	60	27957
2026-01-10 12:28:54.30	22.65	2.52	-45.2	-50.3	7.8	1.98e-01	0	30	0	1048576	60	11534
2026-01-10 12:28:58.34	22.98	2.73	-39.5	-41.1	17.4	0.00e+00	0	30	0	13631488	52	6334
2026-01-10 12:29:02.38	23.32	2.95	-40.7	-42.6	15.9	0.00e+00	0	30	0	26214400	52	7474
2026-01-10 12:29:06.42	23.67	3.16	-40.8	-42.7	14.5	0.00e+00	0	30	0	38797312	50	8511
2026-01-10 12:29:10.46	24.02	3.37	-38.9	-40.3	18.6	0.00e+00	0	30	0	45088768	52	5758
2026-01-10 12:29:14.50	24.37	3.59	-38.0	-39.3	19.4	0.00e+00	0	30	0	57671680	50	5772
2026-01-10 12:29:18.53	24.73	3.80	-37.8	-39.1	19.6	0.00e+00	0	30	0	70254592	50	5609
2026-01-10 12:29:22.58	25.10	4.02	-37.8	-39.0	19.8	0.00e+00	0	30	0	82837504	50	5557
2026-01-10 12:29:26.61	25.46	4.23	-37.8	-39.1	19.7	0.00e+00	0	30	0	95420416	48	6292
2026-01-10 12:29:30.65	25.84	4.45	-37.6	-38.8	19.9	0.00e+00	0	30	0	108003328	48	6109
2026-01-10 12:29:34.69	26.22	4.67	-37.5	-38.7	20.1	0.00e+00	0	30	0	121634816	48	6061
2026-01-10 12:29:38.73	26.60	4.89	-37.3	-38.5	20.4	0.00e+00	0	30	0	133169152	48	5859
2026-01-10 12:29:42.77	27.00	5.11	-37.3	-38.5	20.5	0.00e+00	0	30	0	146800640	48	5860
2026-01-10 12:29:46.81	27.39	5.33	-37.1	-38.3	20.6	0.00e+00	0	30	0	159383552	48	5727
2026-01-10 12:29:50.85	27.79	5.55	-36.9	-38.1	20.7	0.00e+00	0	30	0	171966464	48	5605
2026-01-10 12:29:54.89	28.20	5.77	-36.9	-38.1	20.8	0.00e+00	0	30	0	184549376	48	5608
2026-01-10 12:29:58.93	28.62	5.99	-36.8	-37.9	21.0	0.00e+00	0	30	0	197132288	46	6158
2026-01-10 12:30:02.97	29.04	6.22	-36.7	-37.8	21.0	0.00e+00	0	30	0	209715200	46	6121
2026-01-10 12:30:07.01	29.46	6.44	-36.7	-37.8	21.1	0.00e+00	0	30	0	222298112	46	6071
2026-01-10 12:30:11.06	29.90	6.67	-36.6	-37.7	21.2	0.00e+00	0	30	0	234881024	46	6052
2026-01-10 12:30:15.09	30.34	6.89	-36.5	-37.6	21.4	0.00e+00	0	30	0	247463936	46	5953
2026-01-10 12:30:19.13	30.78	7.12	-36.4	-37.5	21.5	0.00e+00	0	30	0	260046848	46	5890
2026-01-10 12:30:23.17	31.23	7.34	-36.3	-37.3	21.6	0.00e+00	0	31	0	272629760	46	5763
2026-01-10 12:30:27.21	31.69	7.57	-36.1	-37.1	21.8	0.00e+00	0	30	0	285212672	46	5651
2026-01-10 12:30:31.25	32.16	7.80	-36.0	-37.1	21.9	0.00e+00	0	30	0	297795584	46	5601
2026-01-10 12:30:35.29	32.63	8.03	-36.2	-37.2	21.7	0.00e+00	0	30	0	310378496	46	5725
2026-01-10 12:30:39.33	33.11	8.25	-35.8	-36.8	22.0	0.00e+00	0	30	0	322961408	46	5455
2026-01-10 12:30:43.37	33.60	8.48	-35.7	-36.7	22.1	0.00e+00	0	30	0	335544320	44	6061
2026-01-10 12:30:47.41	34.09	8.71	-36.0	-37.1	21.9	0.00e+00	0	31	0	348127232	44	6320
2026-01-10 12:30:51.45	34.60	8.94	-35.6	-36.6	22.2	0.00e+00	0	31	0	360710144	44	5974
2026-01-10 12:30:55.49	35.11	9.17	-35.5	-36.5	22.4	0.00e+00	0	31	0	373293056	44	5907
2026-01-10 12:30:59.53	35.62	9.40	-35.4	-36.4	22.6	0.00e+00	0	31	0	385875968	44	5795
2026-01-10 12:31:03.57	36.15	9.63	-35.2	-36.2	22.7	0.00e+00	0	31	0	398458880	44	5706
2026-01-10 12:31:07.61	36.68	9.86	-35.2	-36.2	22.7	0.00e+00	0	31	0	411041792	44	5700
2026-01-10 12:31:11.64	37.22	10.09	-35.2	-36.2	22.7	0.00e+00	0	31	0	423624704	44	5694
2026-01-10 12:31:15.68	37.77	10.32	-35.1	-36.1	22.8	0.00e+00	0	31	0	436207616	44	5621
2026-01-10 12:31:19.72	38.33	10.55	-35.2	-36.2	22.7	0.00e+00	0	31	0	448790528	44	5694
2026-01-10 12:31:23.76	38.90	10.78	-35.2	-36.2	22.7	0.00e+00	0	31	0	462422016	44	5680
2026-01-10 12:31:27.80	39.47	11.01	-35.1	-36.0	22.9	0.00e+00	0	30	0	475004928	44	5594
2026-01-10 12:31:31.84	40.06	11.23	-34.8	-35.7	23.1	0.00e+00	0	31	0	487587840	44	5403
2026-01-10 12:31:35.88	40.65	11.46	-34.6	-35.6	23.3	0.00e+00	0	31	0	500170752	42	5944
2026-01-10 12:31:39.91	41.25	11.69	-34.8	-35.8	23.2	0.00e+00	0	31	0	512753664	42	6099
2026-01-10 12:31:43.95	41.86	11.92	-34.9	-35.9	23.0	0.00e+00	0	31	0	525336576	42	6188
2026-01-10 12:31:47.99	42.48	12.14	-34.8	-35.8	23.2	0.00e+00	0	31	0	537919488	42	6091
2026-01-10 12:31:52.03	43.11	12.37	-34.7	-35.6	23.4	0.00e+00	0	31	0	550502400	42	5992
2026-01-10 12:31:56.07	43.75	12.59	-34.7	-35.6	23.4	0.00e+00	0	31	0	563085312	42	5979
2026-01-10 12:32:00.11	44.40	12.81	-34.4	-35.3	23.7	0.00e+00	0	31	0	575668224	42	5753
2026-01-10 12:32:04.15	45.06	13.03	-34.4	-35.3	23.6	0.00e+00	0	31	0	588251136	42	5775
2026-01-10 12:32:08.19	45.73	13.25	-34.4	-35.3	23.6	0.00e+00	0	31	0	600834048	42	5775
2026-01-10 12:32:12.23	46.40	13.47	-34.6	-35.5	23.5	0.00e+00	0	31	0	613416960	42	5891
2026-01-10 12:32:16.27	47.09	13.69	-34.7	-35.6	23.5	0.00e+00	0	31	0	625999872	42	5954
2026-01-10 12:32:20.31	47.79	13.90	-34.6	-35.5	23.6	0.00e+00	0	31	0	638582784	42	5907
2026-01-10 12:32:24.34	48.49	14.12	-34.6	-35.5	23.5	0.00e+00	0	31	0	651165696	42	5918
2026-01-10 12:32:28.38	49.21	14.33	-35.0	-35.9	23.0	0.00e+00	0	31	0	663748608	42	6192
2026-01-10 12:32:32.42	49.93	14.54	-34.8	-35.8	23.3	0.00e+00	0	31	0	676331520	42	6092
2026-01-10 12:32:36.46	50.67	14.74	-34.5	-35.4	23.7	0.00e+00	0	31	0	688914432	42	5825
2026-01-10 12:32:40.50	51.42	14.94	-34.6	-35.5	23.6	0.00e+00	0	31	0	701497344	42	5919
2026-01-10 12:32:44.54	52.17	15.14	-34.6	-35.6	23.4	0.00e+00	0	31	0	714080256	42	5928
2026-01-10 12:32:48.58	52.94	15.34	-34.4	-35.3	23.7	0.00e+00	0	31	0	726663168	42	5791
2026-01-10 12:32:52.62	53.71	15.54	-34.1	-35.0	24.1	0.00e+00	0	31	0	739246080	42	5567
2026-01-10 12:32:56.66	54.50	15.73	-34.3	-35.3	23.7	0.00e+00	0	31	0	751828992	42	5746
2026-01-10 12:33:00.70	55.30	15.91	-34.4	-35.4	23.6	0.00e+00	0	31	0	764411904	42	5801
2026-01-10 12:33:04.74	56.10	16.10	-34.1	-35.0	24.1	0.00e+00	0	31	0	776994816	42	5579
2026-01-10 12:33:08.78	56.92	16.27	-34.3	-35.2	23.7	0.00e+00	0	31	0	789577728	42	5690
2026-01-10 12:33:12.81	57.74	16.45	-34.2	-35.2	23.7	0.00e+00	0	31	0	803209216	42	5673
2026-01-10 12:33:16.85	58.57	16.62	-34.0	-34.9	24.0	0.00e+00	0	31	0	815792128	42	5530
2026-01-10 12:33:20.89	59.41	16.79	-33.8	-34.7	24.1	0.00e+00	0	31	0	828375040	42	5371
2026-01-10 12:33:24.93	60.26	16.95	-34.0	-34.9	24.1	0.00e+00	0	31	0	840957952	40	6156
2026-01-10 12:33:28.97	61.13	17.10	-33.9	-34.8	24.0	0.00e+00	0	31	0	853540864	40	6098
2026-01-10 12:33:33.00	61.99	17.25	-33.8	-34.7	24.2	0.00e+00	0	31	0	866123776	40	6026
2026-01-10 12:33:37.04	62.87	17.40	-33.5	-34.4	24.4	0.00e+00	0	31	0	878706688	40	5799
2026-01-10 12:33:41.08	63.75	17.54	-33.5	-34.4	24.4	0.00e+00	0	31	0	891289600	40	5813
2026-01-10 12:33:45.12	64.65	17.67	-33.4	-34.3	24.5	0.00e+00	0	31	0	903872512	40	5784
2026-01-10 12:33:49.16	65.55	17.80	-33.5	-34.4	24.3	0.00e+00	0	31	0	916455424	40	5802
2026-01-10 12:33:53.20	66.46	17.92	-33.7	-34.6	24.3	0.00e+00	0	31	0	929038336	40	5933
2026-01-10 12:33:57.25	67.38	18.04	-33.3	-34.1	24.5	0.00e+00	0	31	0	941621248	40	5654
2026-01-10 12:34:01.28	68.30	18.14	-33.4	-34.2	24.4	0.00e+00	0	31	0	954204160	40	5716
2026-01-10 12:34:05.33	69.23	18.25	-33.3	-34.2	24.6	0.00e+00	0	31	0	966787072	40	5690
2026-01-10 12:34:09.37	70.16	18.34	-33.4	-34.3	24.3	0.00e+00	0	31	0	979369984	40	5770
2026-01-10 12:34:13.41	71.10	18.43	-33.6	-34.5	24.3	0.00e+00	0	31	0	991952896	40	5916
2026-01-10 12:34:17.44	72.04	18.51	-33.7	-34.6	24.1	0.00e+00	0	31	0	1004535808	40	5965
2026-01-10 12:34:21.48	72.99	18.58	-33.8	-34.7	24.2	0.00e+00	0	31	0	1017118720	40	6054
2026-01-10 12:34:25.52	73.95	18.65	-33.4	-34.4	24.5	0.00e+00	0	31	0	1029701632	40	5795
2026-01-10 12:34:29.57	74.91	18.71	-33.6	-34.5	24.3	0.00e+00	0	31	0	1042284544	40	5899
2026-01-10 12:34:33.61	75.87	18.76	-33.6	-34.5	24.3	0.00e+00	0	31	0	1054867456	40	5903
2026-01-10 12:34:37.65	76.83	18.80	-33.8	-34.7	24.1	0.00e+00	0	31	0	1067450368	40	6057
2026-01-10 12:34:41.69	77.80	18.83	-33.5	-34.4	24.4	0.00e+00	0	31	0	1080033280	40	5804
2026-01-10 12:34:45.73	78.77	18.86	-33.6	-34.5	24.4	0.00e+00	0	31	0	1092616192	40	5870
2026-01-10 12:34:49.77	79.74	18.88	-33.4	-34.3	24.5	0.00e+00	0	31	0	1105199104	40	5761
2026-01-10 12:34:53.81	80.71	18.89	-33.4	-34.3	24.5	0.00e+00	0	31	0	1118830592	40	5755
2026-01-10 12:34:57.85	81.68	18.89	-33.8	-34.8	24.1	0.00e+00	0	31	0	1131413504	40	6073
2026-01-10 12:35:01.88	82.65	18.89	-33.6	-34.5	24.4	0.00e+00	0	31	0	1143996416	40	5872
2026-01-10 12:35:05.92	83.63	18.88	-33.7	-34.6	24.2	0.00e+00	0	31	0	1156579328	40	5937
2026-01-10 12:35:09.96	84.60	18.86	-33.5	-34.4	24.4	0.00e+00	0	31	0	1169162240	40	5824
2026-01-10 12:35:14.00	85.57	18.83	-33.6	-34.5	24.2	0.00e+00	0	31	0	1181745152	40	5898
2026-01-10 12:35:18.04	86.53	18.79	-33.3	-34.2	24.5	0.00e+00	0	31	0	1194328064	40	5692
2026-01-10 12:35:22.08	87.50	18.74	-33.7	-34.6	24.2	0.00e+00	0	31	0	1206910976	40	5938
2026-01-10 12:35:26.13	88.46	18.69	-33.4	-34.3	24.3	0.00e+00	0	31	0	1219493888	40	5773
2026-01-10 12:35:30.17	89.42	18.63	-33.2	-34.1	24.5	0.00e+00	0	31	0	1232076800	40	5595
2026-01-10 12:35:34.21	90.38	18.56	-33.1	-33.9	24.6	0.00e+00	0	31	0	1244659712	40	5529
2026-01-10 12:35:38.22	91.32	18.49	-33.2	-34.1	24.5	0.00e+00	0	31	0	1257242624	40	5651
2026-01-10 12:35:42.26	92.26	18.41	-33.0	-33.9	24.5	0.00e+00	0	31	0	1269825536	40	5521
2026-01-10 12:35:46.31	93.21	18.32	-33.1	-34.0	24.5	0.00e+00	0	31	0	1282408448	40	5554
2026-01-10 12:35:50.34	94.14	18.22	-33.3	-34.2	24.4	0.00e+00	0	31	0	1294991360	40	5683
2026-01-10 12:35:54.39	95.07	18.12	-33.5	-34.4	24.5	0.00e+00	0	31	0	1307574272	40	5821
2026-01-10 12:35:58.42	95.99	18.00	-33.2	-34.1	24.5	0.00e+00	0	31	0	1320157184	40	5635
2026-01-10 12:36:02.46	96.91	17.89	-33.1	-34.0	24.7	0.00e+00	0	31	0	1332740096	40	5589
2026-01-10 12:36:06.49	97.81	17.76	-33.3	-34.1	24.6	0.00e+00	0	31	0	1345323008	40	5652
2026-01-10 12:36:10.53	98.72	17.63	-33.3	-34.2	24.5	0.00e+00	0	31	0	1357905920	40	5683
2026-01-10 12:36:14.57	99.61	17.50	-33.2	-34.1	24.6	0.00e+00	0	31	0	1370488832	40	5625
2026-01-10 12:36:18.62	100.50	17.36	-33.4	-34.3	24.5	0.00e+00	0	31	0	1383071744	40	5746
2026-01-10 12:36:22.66	101.38	17.21	-33.5	-34.4	24.4	0.00e+00	0	31	0	1395654656	40	5811
2026-01-10 12:36:26.70	102.25	17.06	-33.4	-34.3	24.5	0.00e+00	0	31	0	1408237568	40	5734
2026-01-10 12:36:30.74	103.11	16.90	-33.5	-34.4	24.3	0.00e+00	0	31	0	1420820480	40	5827
2026-01-10 12:36:34.78	103.96	16.73	-33.9	-34.9	23.9	0.00e+00	0	31	0	1434451968	40	6142
2026-01-10 12:36:38.82	104.80	16.57	-33.8	-34.8	24.1	0.00e+00	0	31	0	1447034880	40	6074
2026-01-10 12:36:42.86	105.64	16.39	-33.9	-34.8	24.0	0.00e+00	0	31	0	1459617792	40	6115
2026-01-10 12:36:46.90	106.46	16.22	-34.0	-34.9	23.7	0.00e+00	0	30	0	1472200704	40	6193
2026-01-10 12:36:50.93	107.27	16.04	-34.1	-35.0	23.8	0.00e+00	0	31	0	1484783616	40	6238
2026-01-10 12:36:54.97	108.08	15.85	-33.7	-34.7	24.1	0.00e+00	0	30	0	1497366528	40	6010
2026-01-10 12:36:59.00	108.87	15.66	-34.0	-34.9	23.8	0.00e+00	0	30	0	1509949440	40	6171
2026-01-10 12:37:03.04	109.66	15.47	-34.4	-35.4	23.5	0.00e+00	0	30	0	1522532352	40	6513
2026-01-10 12:37:07.08	110.43	15.27	-34.0	-35.0	23.8	0.00e+00	0	30	0	1535115264	40	6213
2026-01-10 12:37:11.12	111.20	15.07	-33.7	-34.6	24.0	0.00e+00	0	30	0	1547698176	40	5990
2026-01-10 12:37:15.16	111.96	14.87	-33.9	-34.8	23.9	0.00e+00	0	30	0	1560281088	40	6081
2026-01-10 12:37:19.20	112.70	14.67	-34.2	-35.1	23.7	0.00e+00	0	30	0	1572864000	40	6317
2026-01-10 12:37:23.24	113.44	14.46	-34.1	-35.0	23.7	0.00e+00	0	30	0	1585446912	40	6261
2026-01-10 12:37:27.28	114.17	14.25	-33.9	-34.8	23.9	0.00e+00	0	30	0	1598029824	40	6106
2026-01-10 12:37:31.32	114.88	14.03	-34.2	-35.1	23.8	0.00e+00	0	30	0	1610612736	40	6317
2026-01-10 12:37:35.36	115.59	13.82	-34.2	-35.1	23.7	0.00e+00	0	30	0	1623195648	40	6342
2026-01-10 12:37:39.39	116.29	13.60	-34.1	-35.1	23.7	0.00e+00	0	30	0	1635778560	40	6305
2026-01-10 12:37:43.43	116.97	13.38	-34.1	-35.1	23.7	0.00e+00	0	30	0	1648361472	40	6290
2026-01-10 12:37:47.47	117.65	13.16	-33.9	-34.8	24.0	0.00e+00	0	30	0	1660944384	40	6102
2026-01-10 12:37:51.51	118.32	12.94	-34.1	-35.0	23.7	0.00e+00	0	30	0	1673527296	40	6268
2026-01-10 12:37:55.55	118.97	12.72	-34.2	-35.1	23.7	0.00e+00	0	30	0	1686110208	40	6328
2026-01-10 12:37:59.59	119.62	12.49	-34.1	-35.0	23.8	0.00e+00	0	30	0	1698693120	40	6246
2026-01-10 12:38:03.63	120.26	12.27	-34.0	-34.9	23.9	0.00e+00	0	30	0	1711276032	40	6167
2026-01-10 12:38:07.67	120.89	12.04	-34.0	-34.9	23.9	0.00e+00	0	30	0	1723858944	40	6203
2026-01-10 12:38:11.71	121.51	11.81	-34.0	-35.0	23.8	0.00e+00	0	30	0	1736441856	40	6212
2026-01-10 12:38:15.75	122.12	11.58	-34.3	-35.2	23.5	0.00e+00	0	30	0	1749024768	40	6423
2026-01-10 12:38:19.79	122.72	11.35	-34.4	-35.3	23.4	0.00e+00	0	30	0	1761607680	40	6497
2026-01-10 12:38:23.83	123.32	11.12	-34.8	-35.7	23.1	0.00e+00	0	30	0	1775239168	42	6056
2026-01-10 12:38:27.88	123.90	10.89	-35.0	-35.9	22.9	0.00e+00	0	30	0	1787822080	42	6203
2026-01-10 12:38:31.91	124.47	10.66	-35.0	-36.0	22.7	0.00e+00	0	30	0	1800404992	42	6265
2026-01-10 12:38:35.95	125.04	10.43	-35.2	-36.2	22.7	0.00e+00	0	30	0	1812987904	42	6364
2026-01-10 12:38:40.00	125.60	10.20	-35.1	-36.0	22.8	0.00e+00	0	30	0	1825570816	42	6272
2026-01-10 12:38:44.03	126.15	9.97	-34.9	-35.9	22.9	0.00e+00	0	30	0	1838153728	42	6151
2026-01-10 12:38:48.08	126.69	9.73	-35.1	-36.0	22.8	0.00e+00	0	30	0	1850736640	42	6276
2026-01-10 12:38:52.12	127.22	9.50	-35.1	-36.1	22.7	0.00e+00	0	30	0	1863319552	42	6317
2026-01-10 12:38:56.15	127.74	9.27	-35.2	-36.2	22.6	0.00e+00	0	29	0	1875902464	42	6422
2026-01-10 12:39:00.19	128.26	9.04	-35.2	-36.2	22.7	0.00e+00	0	29	0	1888485376	42	6375
2026-01-10 12:39:04.23	128.77	8.81	-35.2	-36.2	22.5	0.00e+00	0	29	0	1901068288	42	6395
2026-01-10 12:39:08.27	129.27	8.58	-35.5	-36.5	22.1	0.00e+00	0	29	0	1913651200	42	6640
2026-01-10 12:39:12.31	129.76	8.35	-35.6	-36.6	22.3	0.00e+00	0	29	0	1926234112	42	6711
2026-01-10 12:39:16.35	130.25	8.11	-35.4	-36.5	22.3	0.00e+00	0	29	0	1938817024	44	5860
2026-01-10 12:39:20.38	130.73	7.88	-35.6	-36.6	22.2	0.00e+00	0	29	0	1951399936	44	5956
2026-01-10 12:39:24.42	131.20	7.65	-35.8	-36.9	21.9	0.00e+00	0	29	0	1963982848	44	6140
2026-01-10 12:39:28.46	131.66	7.43	-35.8	-36.9	21.9	0.00e+00	0	29	0	1976565760	44	6161
2026-01-10 12:39:32.50	132.12	7.20	-36.0	-37.1	21.7	0.00e+00	0	29	0	1989148672	44	6336
2026-01-10 12:39:36.55	132.57	6.97	-36.0	-37.0	21.7	0.00e+00	0	29	0	2001731584	44	6275
2026-01-10 12:39:40.59	133.02	6.74	-35.8	-36.9	21.8	0.00e+00	0	29	0	2014314496	44	6152
2026-01-10 12:39:44.63	133.45	6.51	-36.2	-37.3	21.5	0.00e+00	0	29	0	2026897408	44	6435
2026-01-10 12:39:48.67	133.89	6.29	-36.3	-37.4	21.3	0.00e+00	0	29	0	2039480320	44	6551
2026-01-10 12:39:52.71	134.31	6.06	-36.1	-37.1	21.5	0.00e+00	0	29	0	2052063232	44	6331
2026-01-10 12:39:56.74	134.73	5.84	-36.2	-37.2	21.4	0.00e+00	0	29	0	2064646144	44	6411
2026-01-10 12:40:00.78	135.14	5.61	-36.1	-37.2	21.5	0.00e+00	0	29	0	2077229056	44	6362
2026-01-10 12:40:04.82	135.55	5.39	-36.4	-37.5	21.1	0.00e+00	0	29	0	2090860544	44	6649
2026-01-10 12:40:08.86	135.95	5.16	-36.7	-37.9	20.8	0.00e+00	0	29	0	2103443456	44	6887
2026-01-10 12:40:12.90	136.34	4.94	-37.6	-38.8	20.0	0.00e+00	0	29	0	2116026368	46	6859
2026-01-10 12:40:16.93	136.73	4.72	-36.4	-37.5	21.0	0.00e+00	0	29	0	2128609280	46	5895
2026-01-10 12:40:20.97	137.11	4.50	-37.0	-38.2	20.4	0.00e+00	0	29	0	2141192192	46	6398
2026-01-10 12:40:25.01	137.49	4.28	-37.2	-38.4	20.2	0.00e+00	0	29	0	2153775104	46	6516
2026-01-10 12:40:29.06	137.86	4.06	-37.0	-38.2	20.3	0.00e+00	0	29	0	2166358016	46	6413
2026-01-10 12:40:33.09	138.23	3.84	-37.5	-38.8	19.7	0.00e+00	0	29	0	2178940928	46	6840
2026-01-10 12:40:37.13	138.59	3.62	-38.2	-39.5	18.9	0.00e+00	0	29	0	2191523840	48	6615
2026-01-10 12:40:41.17	138.95	3.41	-38.6	-40.1	18.1	0.00e+00	0	29	0	2204106752	50	6290
2026-01-10 12:40:45.21	139.30	3.19	-40.1	-42.0	15.8	0.00e+00	0	29	0	2216689664	52	7021
2026-01-10 12:40:49.25	139.65	2.98	-47.1	-60.0	3.5	1.52e+00	0	29	104	2226126848	60	35035
2026-01-10 12:40:53.30	139.99	2.76	-48.0	-60.9	3.5	1.52e+00	0	29	104	2226126848	60	38832
2026-01-10 12:40:57.34	140.33	2.55	-48.2	-61.0	3.5	1.51e+00	0	29	104	2226126848	60	39598
2026-01-10 12:41:01.38	140.66	2.34	-48.2	-61.0	3.5	1.52e+00	0	29	104	2226126848	60	39426
2026-01-10 12:41:05.42	140.99	2.12	-48.2	-61.0	3.5	1.52e+00	0	29	104	2226126848	60	39432
2026-01-10 12:41:09.45	141.31	1.91	-48.2	-61.0	3.5	1.52e+00	0	29	104	2226126848	60	39383
2026-01-10 12:41:13.49	141.63	1.70	-48.1	-61.0	3.5	1.52e+00	0	29	104	2226126848	60	39197
2026-01-10 12:41:17.53	141.95	1.50	-48.1	-61.0	3.5	1.52e+00	0	29	104	2226126848	60	39230
2026-01-10 12:41:21.56	142.26	1.29	-48.2	-61.0	3.5	1.52e+00	0	29	104	2226126848	60	39337
2026-01-10 12:41:25.60	142.56	1.08	-48.2	-61.0	3.5	1.52e+00	0	29	104	2226126848	60	39456
2026-01-10 12:41:29.64	142.87	0.87	-48.2	-61.0	3.5	1.52e+00	0	29	104	2226126848	60	39293
2026-01-10 12:41:33.68	143.17	0.67	-48.2	-61.0	3.5	1.52e+00	0	29	104	2226126848	60	39252
2026-01-10 12:41:37.72	143.46	0.46	-48.3	-61.1	3.5	1.52e+00	0	29	104	2226126848	60	39806
2026-01-10 12:41:41.76	143.75	0.26	-48.2	-61.0	3.5	1.52e+00	0	28	104	2226126848	60	39393
2026-01-10 12:41:45.80	144.04	0.05	-48.2	-60.9	3.5	1.52e+00	0	28	104	2226126848	60	39124

#Closed at: 2026-01-10 12:41:48
#Recorded file [2226 MB]: D:/lorett/data/35029_260111_002805.dat