passes_logs/2026/01/10/R4.6S_Anadyr/R4.6S_Anadyr__20260110_015214_FENGYUN_3D_rec.log

#Pass ID: 20260110_015214_FENGYUN 3D
#Satellite: FENGYUN 3D
#Configuration: FENGYUN 3D
#almurnet v.1.7.20251203
#Start time: 2026-01-10 01:52:16

#Version: 2.2.20231116
#Station: R4.6S_Anadyr
#Location: 177.4865 lon 64.73178 lat
#TLE: 1 43010U 17072A   26008.59015185 -.00000067  00000+0 -98204-5 0  9997
#TLE: 2 43010  98.9935 340.3069 0002117 119.1923 240.9464 14.19693468422340

#Time	Az	El	Level	Level2	SNR	BER	BlckErr	Temp	State	Recorded	gain1	gain2
2026-01-10 01:52:16.20	146.75	0.13	-47.9	-62.8	3.5	1.51e+00	0	22	0	0	60	49932
2026-01-10 01:52:20.24	146.72	0.38	-48.0	-60.1	3.6	8.45e-01	0	23	104	0	60	36567
2026-01-10 01:52:24.28	146.70	0.62	-47.9	-60.0	3.6	8.45e-01	0	24	104	0	60	36084
2026-01-10 01:52:28.32	146.67	0.87	-47.4	-59.5	3.6	8.45e-01	0	24	104	0	60	34059
2026-01-10 01:52:32.36	146.64	1.12	-45.9	-58.1	3.6	8.44e-01	0	24	104	0	60	29188
2026-01-10 01:52:36.40	146.61	1.37	-45.8	-58.0	3.6	8.45e-01	0	24	104	0	60	28573
2026-01-10 01:52:40.43	146.58	1.63	-45.8	-57.8	3.6	8.45e-01	0	24	104	0	60	27900
2026-01-10 01:52:44.47	146.55	1.89	-45.8	-57.7	3.6	8.44e-01	0	24	104	0	60	27644
2026-01-10 01:52:48.51	146.51	2.14	-45.8	-57.7	3.6	8.46e-01	0	24	104	0	60	27608
2026-01-10 01:52:52.55	146.48	2.41	-45.8	-57.8	3.6	8.45e-01	0	24	104	0	60	28077
2026-01-10 01:52:56.59	146.45	2.67	-45.8	-57.9	3.6	8.46e-01	0	24	104	0	60	28261
2026-01-10 01:53:00.63	146.41	2.94	-45.8	-57.9	3.6	8.45e-01	0	24	104	0	60	28259
2026-01-10 01:53:04.67	146.38	3.21	-44.6	-49.4	6.9	4.12e-01	0	24	0	3145728	60	10715
2026-01-10 01:53:08.70	146.34	3.48	-40.9	-42.9	14.2	3.40e-06	0	24	0	25165824	56	6354
2026-01-10 01:53:12.74	146.30	3.75	-38.9	-40.3	16.8	0.00e+00	0	24	0	48234496	52	5933
2026-01-10 01:53:16.78	146.26	4.03	-42.2	-44.8	10.5	4.50e-06	0	24	0	71303168	52	9992
2026-01-10 01:53:20.82	146.22	4.31	-36.7	-37.8	19.5	0.00e+00	0	24	0	87031808	46	6260
2026-01-10 01:53:24.85	146.18	4.59	-35.5	-36.3	21.0	0.00e+00	0	24	0	109051904	44	5958
2026-01-10 01:53:28.88	146.14	4.88	-35.5	-36.3	21.1	0.00e+00	0	24	0	132120576	44	5948
2026-01-10 01:53:32.92	146.10	5.17	-35.0	-35.9	21.6	0.00e+00	0	24	0	155189248	44	5659
2026-01-10 01:53:36.96	146.06	5.46	-34.8	-35.6	21.9	0.00e+00	0	24	0	177209344	44	5489
2026-01-10 01:53:41.00	146.01	5.75	-34.8	-35.6	22.0	0.00e+00	0	24	0	200278016	42	6150
2026-01-10 01:53:45.04	145.97	6.05	-34.6	-35.4	22.2	0.00e+00	0	24	0	223346688	42	6012
2026-01-10 01:53:49.08	145.92	6.36	-34.5	-35.4	22.4	0.00e+00	0	24	0	245366784	42	5970
2026-01-10 01:53:53.12	145.87	6.66	-34.3	-35.1	22.6	0.00e+00	0	24	0	268435456	42	5786
2026-01-10 01:53:57.16	145.82	6.97	-34.1	-34.9	22.9	0.00e+00	0	24	0	290455552	42	5669
2026-01-10 01:54:01.20	145.77	7.29	-34.2	-34.9	22.9	0.00e+00	0	24	0	313524224	42	5694
2026-01-10 01:54:05.24	145.72	7.60	-34.0	-34.8	23.0	0.00e+00	0	24	0	336592896	42	5569
2026-01-10 01:54:09.28	145.67	7.92	-33.9	-34.6	23.2	0.00e+00	0	24	0	359661568	42	5480
2026-01-10 01:54:13.31	145.61	8.25	-33.6	-34.3	23.5	0.00e+00	0	25	0	381681664	40	5963
2026-01-10 01:54:17.35	145.55	8.58	-33.5	-34.2	23.7	0.00e+00	0	25	0	404750336	40	5849
2026-01-10 01:54:21.39	145.50	8.91	-33.3	-34.0	23.8	0.00e+00	0	25	0	427819008	40	5734
2026-01-10 01:54:25.42	145.44	9.25	-33.1	-33.8	24.0	0.00e+00	0	24	0	449839104	40	5629
2026-01-10 01:54:29.47	145.37	9.59	-33.0	-33.7	24.1	0.00e+00	0	25	0	472907776	40	5549
2026-01-10 01:54:33.50	145.31	9.94	-32.8	-33.5	24.4	0.00e+00	0	25	0	494927872	38	6061
2026-01-10 01:54:37.54	145.24	10.29	-32.7	-33.4	24.5	0.00e+00	0	24	0	517996544	38	6003
2026-01-10 01:54:41.58	145.18	10.65	-32.5	-33.2	24.7	0.00e+00	0	25	0	541065216	38	5875
2026-01-10 01:54:45.61	145.11	11.01	-32.5	-33.2	24.6	0.00e+00	0	24	0	563085312	38	5882
2026-01-10 01:54:49.65	145.04	11.38	-32.5	-33.2	24.6	0.00e+00	0	24	0	586153984	38	5851
2026-01-10 01:54:53.69	144.96	11.76	-32.3	-33.0	24.9	0.00e+00	0	25	0	609222656	38	5713
2026-01-10 01:54:57.72	144.89	12.14	-32.3	-33.0	24.9	0.00e+00	0	25	0	632291328	38	5727
2026-01-10 01:55:01.76	144.81	12.52	-32.3	-33.0	24.8	0.00e+00	0	24	0	654311424	38	5712
2026-01-10 01:55:05.80	144.73	12.91	-32.0	-32.7	25.3	0.00e+00	0	25	0	677380096	38	5526
2026-01-10 01:55:09.84	144.65	13.31	-31.8	-32.5	25.4	0.00e+00	0	24	0	699400192	38	5416
2026-01-10 01:55:13.87	144.56	13.72	-31.7	-32.4	25.5	0.00e+00	0	25	0	722468864	36	6015
2026-01-10 01:55:17.91	144.47	14.13	-31.5	-32.2	25.7	0.00e+00	0	25	0	745537536	36	5858
2026-01-10 01:55:21.95	144.38	14.55	-31.4	-32.0	25.9	0.00e+00	0	25	0	767557632	36	5748
2026-01-10 01:55:25.98	144.29	14.97	-31.1	-31.7	26.1	0.00e+00	0	25	0	790626304	36	5562
2026-01-10 01:55:30.02	144.19	15.40	-31.0	-31.7	26.3	0.00e+00	0	25	0	813694976	36	5523
2026-01-10 01:55:34.06	144.09	15.84	-30.7	-31.4	26.5	0.00e+00	0	25	0	835715072	34	5967
2026-01-10 01:55:38.10	143.99	16.29	-30.6	-31.3	26.6	0.00e+00	0	25	0	858783744	34	5934
2026-01-10 01:55:42.13	143.88	16.75	-30.4	-31.0	26.9	0.00e+00	0	25	0	881852416	34	5728
2026-01-10 01:55:46.17	143.77	17.22	-30.3	-30.9	26.9	0.00e+00	0	25	0	903872512	34	5686
2026-01-10 01:55:50.21	143.65	17.69	-30.1	-30.8	27.1	0.00e+00	0	25	0	926941184	34	5583
2026-01-10 01:55:54.24	143.53	18.17	-30.2	-30.9	27.0	0.00e+00	0	25	0	950009856	34	5641
2026-01-10 01:55:58.28	143.41	18.67	-30.1	-30.7	27.1	0.00e+00	0	25	0	972029952	34	5555
2026-01-10 01:56:02.31	143.28	19.17	-30.1	-30.7	27.1	0.00e+00	0	25	0	995098624	34	5527
2026-01-10 01:56:06.35	143.15	19.68	-30.1	-30.7	27.1	0.00e+00	0	25	0	1018167296	34	5548
2026-01-10 01:56:10.39	143.01	20.21	-30.2	-30.8	27.2	0.00e+00	0	25	0	1040187392	34	5609
2026-01-10 01:56:14.43	142.87	20.74	-30.2	-30.8	27.1	0.00e+00	0	25	0	1063256064	34	5615
2026-01-10 01:56:18.47	142.72	21.29	-30.0	-30.6	27.2	0.00e+00	0	25	0	1086324736	34	5486
2026-01-10 01:56:22.50	142.57	21.85	-29.8	-30.4	27.5	0.00e+00	0	25	0	1108344832	32	6019
2026-01-10 01:56:26.53	142.41	22.42	-29.3	-29.9	27.8	0.00e+00	0	25	0	1131413504	32	5656
2026-01-10 01:56:30.57	142.24	23.00	-29.0	-29.6	28.1	0.00e+00	0	25	0	1154482176	32	5463
2026-01-10 01:56:34.61	142.06	23.60	-28.9	-29.5	28.2	0.00e+00	0	25	0	1176502272	32	5394
2026-01-10 01:56:38.65	141.88	24.21	-29.0	-29.6	28.1	0.00e+00	0	25	0	1199570944	30	6107
2026-01-10 01:56:42.70	141.69	24.84	-29.3	-29.9	27.9	0.00e+00	0	25	0	1222639616	30	6326
2026-01-10 01:56:46.74	141.49	25.48	-29.0	-29.7	28.0	0.00e+00	0	25	0	1244659712	30	6199
2026-01-10 01:56:50.78	141.29	26.13	-28.8	-29.4	28.2	0.00e+00	0	25	0	1267728384	30	6015
2026-01-10 01:56:54.81	141.07	26.80	-29.0	-29.6	28.2	0.00e+00	0	25	0	1289748480	30	6160
2026-01-10 01:56:58.84	140.85	27.49	-29.0	-29.6	28.1	0.00e+00	0	25	0	1312817152	30	6163
2026-01-10 01:57:02.88	140.61	28.19	-28.7	-29.3	28.4	0.00e+00	0	25	0	1335885824	30	5961
2026-01-10 01:57:06.91	140.36	28.91	-28.7	-29.4	28.2	0.00e+00	0	25	0	1358954496	30	5976
2026-01-10 01:57:10.95	140.10	29.65	-28.9	-29.5	28.2	0.00e+00	0	25	0	1380974592	30	6093
2026-01-10 01:57:14.99	139.83	30.41	-28.8	-29.5	28.3	0.00e+00	0	25	0	1404043264	30	6051
2026-01-10 01:57:19.02	139.55	31.19	-28.6	-29.2	28.5	0.00e+00	0	25	0	1427111936	30	5879
2026-01-10 01:57:23.06	139.24	31.99	-28.3	-28.9	28.7	0.00e+00	0	25	0	1449132032	30	5638
2026-01-10 01:57:27.10	138.93	32.81	-28.1	-28.7	28.9	0.00e+00	0	25	0	1472200704	30	5519
2026-01-10 01:57:31.14	138.59	33.66	-28.2	-28.8	28.8	0.00e+00	0	25	0	1494220800	30	5607
2026-01-10 01:57:35.18	138.24	34.52	-28.4	-29.1	28.6	0.00e+00	0	25	0	1517289472	30	5768
2026-01-10 01:57:39.22	137.86	35.41	-27.9	-28.5	29.0	0.00e+00	0	25	0	1540358144	30	5396
2026-01-10 01:57:43.25	137.47	36.32	-28.2	-28.8	28.8	0.00e+00	0	25	0	1562378240	30	5571
2026-01-10 01:57:47.29	137.05	37.26	-28.5	-29.1	28.6	0.00e+00	0	25	0	1585446912	30	5779
2026-01-10 01:57:51.32	136.60	38.22	-28.3	-28.9	28.7	0.00e+00	0	25	0	1608515584	30	5660
2026-01-10 01:57:55.36	136.13	39.21	-28.7	-29.3	28.4	0.00e+00	0	25	0	1630535680	30	5945
2026-01-10 01:57:59.40	135.62	40.22	-28.8	-29.5	28.3	0.00e+00	0	25	0	1653604352	30	6034
2026-01-10 01:58:03.44	135.09	41.27	-28.8	-29.4	28.4	0.00e+00	0	25	0	1676673024	30	6014
2026-01-10 01:58:07.47	134.51	42.33	-28.8	-29.4	28.4	0.00e+00	0	25	0	1698693120	30	5983
2026-01-10 01:58:11.51	133.89	43.43	-28.4	-29.0	28.7	0.00e+00	0	25	0	1721761792	30	5724
2026-01-10 01:58:15.55	133.23	44.56	-28.5	-29.2	28.6	0.00e+00	0	25	0	1744830464	30	5830
2026-01-10 01:58:19.59	132.52	45.71	-28.6	-29.2	28.5	0.00e+00	0	25	0	1766850560	30	5886
2026-01-10 01:58:23.62	131.75	46.89	-28.6	-29.2	28.5	0.00e+00	0	25	0	1789919232	30	5860
2026-01-10 01:58:27.66	130.93	48.10	-29.2	-29.8	28.1	0.00e+00	0	25	0	1812987904	30	6301
2026-01-10 01:58:31.70	130.03	49.34	-29.7	-30.3	27.8	0.00e+00	0	25	0	1835008000	32	5928
2026-01-10 01:58:35.74	129.05	50.60	-29.6	-30.1	27.8	0.00e+00	0	25	0	1858076672	32	5828
2026-01-10 01:58:39.77	127.99	51.89	-29.9	-30.5	27.5	0.00e+00	0	25	0	1881145344	32	6101
2026-01-10 01:58:43.81	126.83	53.20	-29.5	-30.1	27.9	0.00e+00	0	25	0	1903165440	32	5802
2026-01-10 01:58:47.85	125.55	54.54	-29.5	-30.1	27.8	0.00e+00	0	25	0	1926234112	32	5805
2026-01-10 01:58:51.88	124.16	55.89	-29.2	-29.8	28.0	0.00e+00	0	25	0	1949302784	32	5612
2026-01-10 01:58:55.92	122.61	57.26	-29.0	-29.6	28.3	0.00e+00	0	25	0	1971322880	32	5481
2026-01-10 01:58:59.96	120.90	58.63	-29.7	-30.3	27.7	0.00e+00	0	25	0	1994391552	32	5936
2026-01-10 01:59:03.99	119.01	60.02	-29.6	-30.2	27.6	0.00e+00	0	25	0	2017460224	32	5867
2026-01-10 01:59:08.03	116.89	61.40	-28.5	-29.1	28.6	0.00e+00	0	25	0	2039480320	30	5800
2026-01-10 01:59:12.07	114.53	62.77	-28.3	-28.9	28.8	0.00e+00	0	25	0	2062548992	30	5646
2026-01-10 01:59:16.11	111.88	64.13	-28.0	-28.6	28.8	0.00e+00	0	25	0	2084569088	30	5496
2026-01-10 01:59:20.14	108.90	65.44	-27.7	-28.4	29.1	0.00e+00	0	25	0	2107637760	28	5979
2026-01-10 01:59:24.18	105.55	66.72	-27.5	-28.1	29.2	0.00e+00	0	25	0	2130706432	28	5813
2026-01-10 01:59:28.22	101.78	67.93	-27.7	-28.4	29.1	0.00e+00	0	25	0	2153775104	28	5973
2026-01-10 01:59:32.26	97.55	69.06	-27.4	-28.0	29.3	0.00e+00	0	25	0	2175795200	28	5729
2026-01-10 01:59:36.29	92.84	70.08	-27.3	-27.9	29.3	0.00e+00	0	25	0	2198863872	28	5673
2026-01-10 01:59:40.33	87.60	70.97	-27.5	-28.1	29.2	0.00e+00	0	25	0	2221932544	28	5824
2026-01-10 01:59:44.37	81.87	71.70	-27.5	-28.1	29.2	0.00e+00	0	25	0	2243952640	28	5796
2026-01-10 01:59:48.41	75.69	72.25	-27.7	-28.3	29.2	0.00e+00	0	25	0	2267021312	28	5915
2026-01-10 01:59:52.44	69.20	72.59	-27.8	-28.4	29.0	0.00e+00	0	25	0	2289041408	28	6016
2026-01-10 01:59:56.48	62.51	72.71	-27.7	-28.3	29.1	0.00e+00	0	25	0	2312110080	28	5903
2026-01-10 02:00:00.52	55.81	72.60	-27.4	-28.0	29.2	0.00e+00	0	25	0	2335178752	28	5727
2026-01-10 02:00:04.55	49.31	72.27	-27.3	-28.0	29.2	0.00e+00	0	25	0	2357198848	28	5702
2026-01-10 02:00:08.59	43.11	71.74	-27.3	-27.9	29.3	0.00e+00	0	25	0	2380267520	28	5683
2026-01-10 02:00:12.63	37.35	71.02	-27.2	-27.7	29.4	0.00e+00	0	25	0	2403336192	28	5559
2026-01-10 02:00:16.67	32.08	70.14	-27.1	-27.7	29.4	0.00e+00	0	25	0	2426404864	28	5551
2026-01-10 02:00:20.71	27.33	69.13	-27.1	-27.6	29.4	0.00e+00	0	25	0	2448424960	28	5493
2026-01-10 02:00:24.75	23.07	68.01	-27.2	-27.7	29.3	0.00e+00	0	25	0	2471493632	28	5527
2026-01-10 02:00:28.78	19.28	66.81	-27.6	-28.2	29.1	0.00e+00	0	25	0	2493513728	28	5895
2026-01-10 02:00:32.82	15.91	65.54	-27.5	-28.0	29.0	0.00e+00	0	25	0	2516582400	28	5752
2026-01-10 02:00:36.85	12.92	64.22	-27.3	-27.8	29.2	0.00e+00	0	25	0	2539651072	28	5623
2026-01-10 02:00:40.89	10.25	62.87	-28.0	-28.6	28.9	0.00e+00	0	25	0	2561671168	28	6161
2026-01-10 02:00:44.93	7.87	61.50	-28.2	-28.7	28.7	0.00e+00	0	25	0	2584739840	28	6244
2026-01-10 02:00:48.96	5.75	60.13	-28.0	-28.6	28.9	0.00e+00	0	25	0	2607808512	28	6134
2026-01-10 02:00:52.99	3.84	58.75	-28.7	-29.2	28.4	0.00e+00	0	25	0	2629828608	28	6593
2026-01-10 02:00:57.03	2.12	57.37	-29.1	-29.8	28.2	0.00e+00	0	25	0	2652897280	30	6281
2026-01-10 02:01:01.07	0.57	56.01	-29.4	-30.1	27.8	0.00e+00	0	25	0	2675965952	30	6477
2026-01-10 02:01:05.11	359.16	54.65	-29.5	-30.1	27.8	0.00e+00	0	25	0	2697986048	30	6471
2026-01-10 02:01:09.15	357.88	53.32	-29.1	-29.8	28.1	0.00e+00	0	25	0	2721054720	30	6267
2026-01-10 02:01:13.19	356.71	52.01	-28.5	-29.0	28.3	0.00e+00	0	25	0	2744123392	30	5744
2026-01-10 02:01:17.23	355.65	50.72	-28.8	-29.5	28.1	0.00e+00	0	25	0	2766143488	30	6092
2026-01-10 02:01:21.26	354.67	49.46	-28.6	-29.2	28.4	0.00e+00	0	25	0	2789212160	30	5835
2026-01-10 02:01:25.30	353.77	48.23	-28.8	-29.3	28.3	0.00e+00	0	25	0	2812280832	30	5943
2026-01-10 02:01:29.34	352.93	47.02	-28.4	-29.1	28.6	0.00e+00	0	25	0	2834300928	30	5785
2026-01-10 02:01:33.38	352.16	45.84	-28.1	-28.6	28.9	0.00e+00	0	25	0	2857369600	30	5488
2026-01-10 02:01:37.42	351.45	44.69	-28.2	-28.9	28.7	0.00e+00	0	25	0	2880438272	30	5684
2026-01-10 02:01:41.46	350.78	43.56	-27.9	-28.5	28.9	0.00e+00	0	25	0	2902458368	30	5406
2026-01-10 02:01:45.50	350.17	42.46	-27.8	-28.5	29.0	0.00e+00	0	25	0	2925527040	30	5423
2026-01-10 02:01:49.54	349.59	41.40	-28.2	-28.7	28.8	0.00e+00	0	25	0	2948595712	30	5540
2026-01-10 02:01:53.58	349.05	40.35	-28.0	-28.6	28.9	0.00e+00	0	25	0	2970615808	30	5450
2026-01-10 02:01:57.61	348.55	39.34	-27.8	-28.4	29.0	0.00e+00	0	25	0	2993684480	30	5363
2026-01-10 02:02:01.66	348.07	38.35	-27.6	-28.2	29.1	0.00e+00	0	25	0	3015704576	28	5842
2026-01-10 02:02:05.69	347.63	37.39	-27.7	-28.3	29.1	0.00e+00	0	25	0	3038773248	28	5959
2026-01-10 02:02:09.73	347.21	36.46	-27.7	-28.3	29.0	0.00e+00	0	25	0	3061841920	28	5908
2026-01-10 02:02:13.77	346.81	35.54	-28.0	-28.6	28.8	0.00e+00	0	25	0	3084910592	28	6108
2026-01-10 02:02:17.81	346.44	34.66	-27.5	-28.0	29.1	0.00e+00	0	25	0	3106930688	28	5749
2026-01-10 02:02:21.86	346.08	33.79	-27.6	-28.1	29.1	0.00e+00	0	25	0	3129999360	28	5779
2026-01-10 02:02:25.89	345.75	32.95	-27.8	-28.5	28.9	0.00e+00	0	25	0	3153068032	28	6075
2026-01-10 02:02:29.93	345.43	32.13	-28.3	-29.0	28.5	0.00e+00	0	25	0	3175088128	28	6445
2026-01-10 02:02:33.97	345.13	31.33	-28.5	-29.2	28.4	0.00e+00	0	25	0	3198156800	28	6560
2026-01-10 02:02:38.01	344.84	30.55	-28.5	-29.1	28.4	0.00e+00	0	25	0	3220176896	28	6474
2026-01-10 02:02:42.05	344.57	29.79	-28.4	-29.0	28.5	0.00e+00	0	25	0	3243245568	28	6427
2026-01-10 02:02:46.08	344.31	29.05	-28.2	-28.7	28.7	0.00e+00	0	25	0	3266314240	28	6237
2026-01-10 02:02:50.12	344.07	28.33	-28.1	-28.6	28.7	0.00e+00	0	25	0	3289382912	28	6162
2026-01-10 02:02:54.15	343.83	27.63	-28.2	-28.7	28.7	0.00e+00	0	25	0	3311403008	28	6231
2026-01-10 02:02:58.19	343.61	26.94	-28.5	-29.1	28.4	0.00e+00	0	25	0	3334471680	28	6467
2026-01-10 02:03:02.22	343.39	26.27	-28.7	-29.2	28.3	0.00e+00	0	25	0	3357540352	28	6612
2026-01-10 02:03:06.25	343.19	25.62	-28.6	-29.3	28.3	0.00e+00	0	25	0	3379560448	30	5945
2026-01-10 02:03:10.29	342.99	24.98	-28.6	-29.3	28.3	0.00e+00	0	25	0	3402629120	30	5908
2026-01-10 02:03:14.33	342.80	24.36	-28.8	-29.5	28.2	0.00e+00	0	25	0	3424649216	30	6040
2026-01-10 02:03:18.36	342.62	23.75	-29.1	-29.7	28.0	0.00e+00	0	25	0	3447717888	30	6186
2026-01-10 02:03:22.40	342.45	23.15	-29.3	-29.9	27.7	0.00e+00	0	25	0	3470786560	30	6353
2026-01-10 02:03:26.43	342.28	22.57	-29.6	-30.2	27.6	0.00e+00	0	25	0	3492806656	30	6544
2026-01-10 02:03:30.47	342.13	22.00	-29.4	-30.0	27.7	0.00e+00	0	25	0	3515875328	30	6406
2026-01-10 02:03:34.51	341.97	21.44	-29.4	-29.9	27.7	0.00e+00	0	25	0	3538944000	30	6375
2026-01-10 02:03:38.55	341.82	20.89	-29.5	-30.0	27.6	0.00e+00	0	25	0	3560964096	30	6435
2026-01-10 02:03:42.59	341.68	20.36	-29.6	-30.1	27.5	0.00e+00	0	25	0	3584032768	32	5822
2026-01-10 02:03:46.62	341.55	19.84	-29.5	-30.1	27.5	0.00e+00	0	25	0	3607101440	32	5781
2026-01-10 02:03:50.65	341.42	19.32	-29.6	-30.2	27.5	0.00e+00	0	25	0	3629121536	32	5859
2026-01-10 02:03:54.69	341.29	18.82	-29.7	-30.4	27.4	0.00e+00	0	25	0	3652190208	32	5985
2026-01-10 02:03:58.72	341.17	18.33	-29.8	-30.4	27.3	0.00e+00	0	25	0	3675258880	32	5969
2026-01-10 02:04:02.75	341.05	17.85	-30.0	-30.5	27.1	0.00e+00	0	25	0	3697278976	32	6090
2026-01-10 02:04:06.79	340.94	17.37	-30.2	-30.7	26.9	0.00e+00	0	25	0	3720347648	32	6223
2026-01-10 02:04:10.83	340.83	16.90	-30.5	-31.1	26.8	0.00e+00	0	25	0	3743416320	32	6475
2026-01-10 02:04:14.86	340.72	16.45	-30.6	-31.2	26.6	0.00e+00	0	25	0	3765436416	32	6568
2026-01-10 02:04:18.90	340.62	16.00	-30.8	-31.4	26.3	0.00e+00	0	25	0	3788505088	34	6020
2026-01-10 02:04:22.94	340.52	15.56	-31.1	-31.7	26.1	0.00e+00	0	25	0	3810525184	34	6227
2026-01-10 02:04:26.97	340.43	15.13	-31.3	-31.9	25.9	0.00e+00	0	25	0	3833593856	34	6325
2026-01-10 02:04:31.01	340.34	14.70	-31.3	-31.9	25.9	0.00e+00	0	25	0	3856662528	34	6346
2026-01-10 02:04:35.05	340.25	14.28	-31.4	-32.0	25.8	0.00e+00	0	25	0	3878682624	34	6419
2026-01-10 02:04:39.09	340.16	13.87	-31.4	-32.1	25.8	0.00e+00	0	25	0	3901751296	34	6519
2026-01-10 02:04:43.12	340.08	13.47	-31.5	-32.1	25.7	0.00e+00	0	25	0	3924819968	34	6491
2026-01-10 02:04:47.16	340.00	13.07	-31.6	-32.3	25.7	0.00e+00	0	25	0	3946840064	34	6681
2026-01-10 02:04:51.19	339.92	12.68	-31.6	-32.2	25.6	0.00e+00	0	25	0	3969908736	36	5867
2026-01-10 02:04:55.23	339.85	12.29	-31.8	-32.4	25.4	0.00e+00	0	25	0	3992977408	36	5970
2026-01-10 02:04:59.27	339.77	11.91	-31.8	-32.3	25.5	0.00e+00	0	25	0	4014997504	36	5964
2026-01-10 02:05:03.30	339.70	11.54	-32.0	-32.6	25.2	0.00e+00	0	25	0	4038066176	36	6153
2026-01-10 02:05:07.34	339.63	11.17	-32.0	-32.6	25.2	0.00e+00	0	25	0	4061134848	36	6144
2026-01-10 02:05:11.37	339.57	10.81	-32.1	-32.8	25.1	0.00e+00	0	25	0	4083154944	36	6288
2026-01-10 02:05:15.41	339.50	10.45	-32.3	-32.9	24.9	0.00e+00	0	25	0	4106223616	36	6331
2026-01-10 02:05:19.44	339.44	10.10	-32.2	-32.8	24.9	0.00e+00	0	25	0	4129292288	36	6303
2026-01-10 02:05:23.48	339.38	9.75	-32.6	-33.3	24.6	0.00e+00	0	25	0	4151312384	36	6638
2026-01-10 02:05:27.52	339.32	9.41	-32.5	-33.1	24.6	0.00e+00	0	25	0	4174381056	38	5806
2026-01-10 02:05:31.56	339.26	9.07	-32.5	-33.3	24.6	0.00e+00	0	25	0	4196401152	38	5911
2026-01-10 02:05:35.60	339.21	8.74	-32.8	-33.4	24.3	0.00e+00	0	25	0	4219469824	38	6003
2026-01-10 02:05:39.63	339.15	8.41	-32.8	-33.6	24.3	0.00e+00	0	25	0	4242538496	38	6104
2026-01-10 02:05:43.67	339.10	8.09	-32.8	-33.6	24.3	0.00e+00	0	25	0	4265607168	38	6137
2026-01-10 02:05:47.71	339.05	7.76	-33.1	-33.7	24.0	0.00e+00	0	25	0	4287627264	38	6218
2026-01-10 02:05:51.75	339.00	7.45	-33.0	-33.7	24.0	0.00e+00	0	25	0	4310695936	38	6206
2026-01-10 02:05:55.78	338.96	7.14	-33.2	-33.9	23.8	0.00e+00	0	25	0	4333764608	38	6348
2026-01-10 02:05:59.82	338.91	6.83	-33.3	-34.1	23.7	0.00e+00	0	25	0	4355784704	38	6506
2026-01-10 02:06:03.86	338.86	6.52	-33.5	-34.3	23.4	0.00e+00	0	25	0	4378853376	38	6645
2026-01-10 02:06:07.90	338.82	6.22	-33.6	-34.4	23.3	0.00e+00	0	25	0	4400873472	38	6731
2026-01-10 02:06:11.93	338.78	5.92	-33.6	-34.5	23.1	0.00e+00	0	25	0	4423942144	40	6053
2026-01-10 02:06:15.97	338.74	5.62	-34.0	-34.9	22.5	0.00e+00	0	25	0	4447010816	40	6359
2026-01-10 02:06:20.01	338.70	5.33	-34.9	-35.8	21.1	0.00e+00	0	25	0	4469030912	42	6300
2026-01-10 02:06:24.05	338.66	5.04	-36.2	-37.3	19.0	0.00e+00	0	25	0	4492099584	44	6631
2026-01-10 02:06:28.09	338.62	4.76	-38.1	-39.6	15.9	0.00e+00	0	25	0	4515168256	48	6910
2026-01-10 02:06:32.13	338.58	4.47	-40.0	-42.6	11.9	1.18e-04	0	25	0	4538236928	52	7748
2026-01-10 02:06:36.16	338.55	4.19	-41.6	-46.2	7.2	8.36e-02	0	25	0	4560257024	54	10382
2026-01-10 02:06:40.20	338.51	3.92	-42.3	-49.3	4.1	8.04e-01	0	25	0	4572839936	56	13298
2026-01-10 02:06:44.24	338.48	3.64	-42.6	-53.4	3.6	8.44e-01	0	25	104	4572839936	56	21214
2026-01-10 02:06:48.28	338.44	3.37	-42.6	-54.2	3.6	8.44e-01	0	25	104	4572839936	56	23434
2026-01-10 02:06:52.31	338.41	3.10	-42.6	-54.6	3.6	8.44e-01	0	25	104	4572839936	58	21771
2026-01-10 02:06:56.35	338.38	2.84	-47.6	-59.6	3.6	8.46e-01	0	25	104	4572839936	60	34718
2026-01-10 02:07:00.39	338.35	2.57	-48.0	-60.1	3.6	8.45e-01	0	25	104	4572839936	60	36607
2026-01-10 02:07:04.42	338.32	2.31	-47.9	-60.0	3.6	8.45e-01	0	25	104	4572839936	60	36307
2026-01-10 02:07:08.46	338.29	2.05	-47.9	-60.0	3.6	8.46e-01	0	25	104	4572839936	60	36347
2026-01-10 02:07:12.50	338.27	1.80	-47.8	-60.0	3.6	8.46e-01	0	25	104	4572839936	60	36029
2026-01-10 02:07:16.54	338.24	1.54	-47.8	-60.0	3.6	8.45e-01	0	25	104	4572839936	60	36095
2026-01-10 02:07:20.57	338.21	1.29	-47.9	-60.0	3.6	8.45e-01	0	25	104	4572839936	60	36128
2026-01-10 02:07:24.62	338.19	1.04	-47.9	-60.0	3.6	8.46e-01	0	25	104	4572839936	60	36116
2026-01-10 02:07:28.65	338.16	0.79	-47.8	-60.0	3.6	8.45e-01	0	25	104	4572839936	60	36060
2026-01-10 02:07:32.69	338.14	0.55	-47.9	-60.0	3.5	8.46e-01	0	25	104	4572839936	60	36242
2026-01-10 02:07:36.73	338.12	0.30	-47.8	-59.9	3.6	8.46e-01	0	25	104	4572839936	60	35847
2026-01-10 02:07:40.76	338.09	0.06	-47.9	-60.0	3.6	8.47e-01	0	25	104	4572839936	60	36156

#Closed at: 2026-01-10 02:07:41
#Recorded file [4572 MB]: D:/lorett/data/35029_260110_135216.dat