passes_logs/2026/01/10/R4.6S_Anadyr/R4.6S_Anadyr__20260110_171821_FENGYUN_3D_rec.log

#Pass ID: 20260110_171821_FENGYUN 3D
#Satellite: FENGYUN 3D
#Configuration: FENGYUN 3D
#almurnet v.1.7.20251203
#Start time: 2026-01-10 17:18:24

#Version: 2.2.20231116
#Station: R4.6S_Anadyr
#Location: 177.4865 lon 64.73178 lat
#TLE: 1 43010U 17072A   26009.92921666 -.00000228  00000+0 -86059-4 0  9998
#TLE: 2 43010  98.9936 341.6668 0002176 116.7510 243.3888 14.19693142422537

#Time	Az	El	Level	Level2	SNR	BER	BlckErr	Temp	State	Recorded	gain1	gain2
2026-01-10 17:18:24.35	22.25	0.17	-48.1	-58.8	3.3	8.40e-01	0	26	0	0	60	31366
2026-01-10 17:18:28.39	22.21	0.42	-48.1	-60.2	3.6	8.45e-01	0	26	104	0	60	37172
2026-01-10 17:18:32.43	22.17	0.66	-47.7	-59.8	3.6	8.45e-01	0	26	104	0	60	35123
2026-01-10 17:18:36.46	22.13	0.91	-46.7	-58.8	3.6	8.45e-01	0	26	104	0	60	31479
2026-01-10 17:18:40.50	22.09	1.15	-46.6	-58.4	3.6	8.45e-01	0	26	104	0	60	30151
2026-01-10 17:18:44.55	22.05	1.41	-46.5	-58.1	3.6	8.46e-01	0	26	104	0	60	29002
2026-01-10 17:18:48.58	22.01	1.66	-46.5	-58.1	3.6	8.45e-01	0	26	104	0	60	29200
2026-01-10 17:18:52.62	21.96	1.91	-46.5	-58.6	3.6	8.45e-01	0	26	104	0	60	30613
2026-01-10 17:18:56.67	21.92	2.17	-46.5	-57.8	3.6	8.46e-01	0	26	104	0	60	27975
2026-01-10 17:19:00.70	21.87	2.43	-46.3	-56.1	3.7	8.43e-01	0	26	104	0	60	22962
2026-01-10 17:19:04.75	21.82	2.69	-46.2	-55.6	3.9	8.41e-01	0	26	104	0	60	21674
2026-01-10 17:19:08.79	21.77	2.96	-44.2	-47.7	9.5	3.44e-02	0	26	0	8388608	60	8731
2026-01-10 17:19:12.82	21.72	3.22	-40.4	-42.0	15.6	0.00e+00	0	26	0	31457280	54	6451
2026-01-10 17:19:16.87	21.67	3.49	-40.0	-41.4	16.2	0.00e+00	0	26	0	54525952	52	6742
2026-01-10 17:19:20.91	21.62	3.77	-43.5	-46.6	5.6	8.26e-01	0	27	104	70254592	60	7744
2026-01-10 17:19:24.95	21.57	4.04	-35.4	-36.3	21.5	1.48e-03	0	27	0	70254592	46	5274
2026-01-10 17:19:28.99	21.51	4.32	-34.6	-35.4	22.4	0.00e+00	0	26	0	93323264	42	5984
2026-01-10 17:19:33.03	21.45	4.60	-34.7	-35.5	22.3	0.00e+00	0	27	0	116391936	42	6077
2026-01-10 17:19:37.07	21.40	4.88	-34.7	-35.5	22.3	0.00e+00	0	27	0	138412032	42	6077
2026-01-10 17:19:41.11	21.34	5.17	-34.7	-35.5	22.2	0.00e+00	0	27	0	161480704	42	6067
2026-01-10 17:19:45.15	21.28	5.46	-34.5	-35.2	22.7	0.00e+00	0	27	0	184549376	42	5884
2026-01-10 17:19:49.19	21.21	5.75	-34.1	-34.9	23.0	0.00e+00	0	27	0	206569472	42	5631
2026-01-10 17:19:53.23	21.15	6.05	-34.3	-35.0	22.9	0.00e+00	0	27	0	229638144	42	5752
2026-01-10 17:19:57.27	21.08	6.35	-34.1	-34.8	23.1	0.00e+00	0	27	0	252706816	42	5622
2026-01-10 17:20:01.31	21.02	6.65	-34.0	-34.7	23.2	0.00e+00	0	27	0	274726912	42	5563
2026-01-10 17:20:05.35	20.95	6.95	-33.9	-34.6	23.4	0.00e+00	0	27	0	297795584	42	5469
2026-01-10 17:20:09.39	20.88	7.26	-34.2	-34.9	23.1	0.00e+00	0	27	0	320864256	42	5692
2026-01-10 17:20:13.43	20.80	7.58	-33.6	-34.3	23.7	0.00e+00	0	27	0	342884352	40	5932
2026-01-10 17:20:17.47	20.73	7.90	-33.4	-34.2	23.9	0.00e+00	0	27	0	365953024	40	5829
2026-01-10 17:20:21.51	20.65	8.22	-33.4	-34.1	23.9	0.00e+00	0	27	0	389021696	40	5780
2026-01-10 17:20:25.55	20.57	8.54	-33.5	-34.2	23.9	0.00e+00	0	27	0	411041792	40	5861
2026-01-10 17:20:29.59	20.49	8.87	-33.2	-33.9	24.2	0.00e+00	0	27	0	434110464	40	5650
2026-01-10 17:20:33.63	20.41	9.21	-33.1	-33.9	24.2	0.00e+00	0	27	0	457179136	40	5651
2026-01-10 17:20:37.67	20.32	9.55	-33.1	-33.8	24.3	0.00e+00	0	27	0	479199232	40	5570
2026-01-10 17:20:41.71	20.23	9.89	-32.9	-33.6	24.5	0.00e+00	0	27	0	502267904	40	5488
2026-01-10 17:20:45.75	20.14	10.24	-32.8	-33.5	24.6	0.00e+00	0	27	0	525336576	40	5421
2026-01-10 17:20:49.79	20.05	10.59	-32.6	-33.3	24.8	0.00e+00	0	27	0	547356672	38	5908
2026-01-10 17:20:53.84	19.95	10.95	-32.6	-33.3	24.7	0.00e+00	0	27	0	570425344	38	5935
2026-01-10 17:20:57.88	19.85	11.31	-32.4	-33.1	25.1	0.00e+00	0	27	0	593494016	38	5763
2026-01-10 17:21:01.92	19.75	11.68	-32.4	-33.0	25.2	0.00e+00	0	28	0	616562688	38	5756
2026-01-10 17:21:05.96	19.64	12.05	-32.4	-33.1	25.1	0.00e+00	0	27	0	638582784	38	5796
2026-01-10 17:21:10.00	19.54	12.43	-32.2	-32.9	25.3	0.00e+00	0	27	0	661651456	38	5651
2026-01-10 17:21:14.05	19.42	12.82	-32.1	-32.8	25.3	0.00e+00	0	28	0	683671552	38	5588
2026-01-10 17:21:18.08	19.31	13.21	-32.0	-32.7	25.4	0.00e+00	0	28	0	706740224	38	5540
2026-01-10 17:21:22.12	19.19	13.61	-31.9	-32.6	25.5	0.00e+00	0	28	0	729808896	38	5482
2026-01-10 17:21:26.16	19.07	14.01	-31.8	-32.5	25.7	0.00e+00	0	28	0	752877568	36	6063
2026-01-10 17:21:30.20	18.94	14.42	-31.6	-32.2	25.8	0.00e+00	0	28	0	774897664	36	5871
2026-01-10 17:21:34.24	18.81	14.84	-31.4	-32.0	26.1	0.00e+00	0	28	0	797966336	36	5714
2026-01-10 17:21:38.28	18.68	15.27	-31.3	-32.0	26.2	0.00e+00	0	28	0	821035008	36	5721
2026-01-10 17:21:42.32	18.54	15.70	-31.1	-31.7	26.2	0.00e+00	0	28	0	843055104	36	5556
2026-01-10 17:21:46.37	18.39	16.14	-31.1	-31.7	26.1	0.00e+00	0	28	0	866123776	36	5564
2026-01-10 17:21:50.41	18.25	16.59	-30.7	-31.3	26.8	0.00e+00	0	28	0	888143872	34	5949
2026-01-10 17:21:54.45	18.09	17.04	-30.9	-31.5	26.6	0.00e+00	0	28	0	911212544	34	6059
2026-01-10 17:21:58.48	17.93	17.51	-30.4	-31.0	27.0	0.00e+00	0	28	0	934281216	34	5750
2026-01-10 17:22:02.53	17.77	17.98	-30.3	-31.0	27.1	0.00e+00	0	28	0	957349888	34	5716
2026-01-10 17:22:06.57	17.60	18.47	-30.3	-30.9	27.1	0.00e+00	0	28	0	979369984	34	5678
2026-01-10 17:22:10.61	17.42	18.96	-30.2	-30.8	27.2	0.00e+00	0	28	0	1002438656	34	5630
2026-01-10 17:22:14.65	17.24	19.46	-30.2	-30.9	27.2	0.00e+00	0	28	0	1025507328	34	5644
2026-01-10 17:22:18.69	17.05	19.97	-30.2	-30.8	27.2	0.00e+00	0	28	0	1047527424	34	5628
2026-01-10 17:22:22.73	16.86	20.49	-30.2	-30.8	27.2	0.00e+00	0	28	0	1070596096	34	5614
2026-01-10 17:22:26.77	16.65	21.02	-30.3	-30.9	27.1	0.00e+00	0	28	0	1093664768	34	5664
2026-01-10 17:22:30.81	16.44	21.57	-30.2	-30.8	27.3	0.00e+00	0	28	0	1115684864	34	5588
2026-01-10 17:22:34.85	16.22	22.12	-30.0	-30.6	27.5	0.00e+00	0	28	0	1138753536	34	5466
2026-01-10 17:22:38.89	16.00	22.69	-29.6	-30.2	27.8	0.00e+00	0	28	0	1161822208	32	5842
2026-01-10 17:22:42.93	15.76	23.27	-29.1	-29.7	28.1	0.00e+00	0	28	0	1183842304	32	5525
2026-01-10 17:22:46.97	15.51	23.86	-29.0	-29.6	28.2	0.00e+00	0	28	0	1206910976	32	5461
2026-01-10 17:22:51.02	15.25	24.47	-29.2	-29.9	28.0	0.00e+00	0	28	0	1229979648	32	5640
2026-01-10 17:22:55.06	14.99	25.09	-29.4	-30.0	27.9	0.00e+00	0	28	0	1251999744	32	5744
2026-01-10 17:22:59.10	14.71	25.72	-29.4	-30.0	27.9	0.00e+00	0	28	0	1275068416	32	5744
2026-01-10 17:23:03.14	14.42	26.37	-29.1	-29.7	28.2	0.00e+00	0	28	0	1298137088	32	5548
2026-01-10 17:23:07.18	14.11	27.03	-29.2	-29.8	28.2	0.00e+00	0	28	0	1320157184	32	5587
2026-01-10 17:23:11.22	13.79	27.71	-29.3	-29.9	28.0	0.00e+00	0	28	0	1343225856	32	5677
2026-01-10 17:23:15.26	13.46	28.40	-29.1	-29.7	28.2	0.00e+00	0	29	0	1366294528	32	5551
2026-01-10 17:23:19.30	13.11	29.11	-28.9	-29.5	28.3	0.00e+00	0	28	0	1388314624	32	5433
2026-01-10 17:23:23.34	12.75	29.84	-28.8	-29.5	28.3	0.00e+00	0	28	0	1411383296	32	5379
2026-01-10 17:23:27.39	12.37	30.59	-28.8	-29.4	28.5	0.00e+00	0	29	0	1434451968	30	5979
2026-01-10 17:23:31.42	11.97	31.35	-28.9	-29.5	28.4	0.00e+00	0	29	0	1457520640	30	6076
2026-01-10 17:23:35.46	11.54	32.13	-28.9	-29.5	28.4	0.00e+00	0	29	0	1479540736	30	6096
2026-01-10 17:23:39.50	11.10	32.93	-28.6	-29.2	28.6	0.00e+00	0	29	0	1502609408	30	5871
2026-01-10 17:23:43.54	10.63	33.75	-28.5	-29.1	28.7	0.00e+00	0	29	0	1524629504	30	5790
2026-01-10 17:23:47.58	10.14	34.60	-28.6	-29.2	28.6	0.00e+00	0	29	0	1547698176	30	5872
2026-01-10 17:23:51.62	9.62	35.46	-28.4	-29.0	28.7	0.00e+00	0	29	0	1570766848	30	5735
2026-01-10 17:23:55.66	9.07	36.34	-28.0	-28.6	29.1	0.00e+00	0	29	0	1593835520	30	5498
2026-01-10 17:23:59.70	8.49	37.25	-28.2	-28.8	28.9	0.00e+00	0	29	0	1615855616	30	5602
2026-01-10 17:24:03.75	7.87	38.17	-28.5	-29.1	28.7	0.00e+00	0	29	0	1638924288	30	5767
2026-01-10 17:24:07.79	7.22	39.12	-28.5	-29.2	28.6	0.00e+00	0	29	0	1661992960	30	5840
2026-01-10 17:24:11.83	6.53	40.09	-28.6	-29.2	28.6	0.00e+00	0	29	0	1684013056	30	5845
2026-01-10 17:24:15.87	5.79	41.09	-29.2	-29.9	28.2	0.00e+00	0	29	0	1707081728	30	6320
2026-01-10 17:24:19.90	5.01	42.10	-28.9	-29.6	28.5	0.00e+00	0	29	0	1729101824	30	6112
2026-01-10 17:24:23.94	4.17	43.14	-29.0	-29.7	28.3	0.00e+00	0	29	0	1752170496	30	6206
2026-01-10 17:24:27.98	3.27	44.19	-29.0	-29.6	28.3	0.00e+00	0	29	0	1775239168	30	6150
2026-01-10 17:24:32.02	2.31	45.27	-29.0	-29.6	28.4	0.00e+00	0	29	0	1798307840	30	6138
2026-01-10 17:24:36.06	1.29	46.37	-29.0	-29.7	28.2	0.00e+00	0	29	0	1820327936	30	6174
2026-01-10 17:24:40.11	0.18	47.49	-29.0	-29.6	28.3	0.00e+00	0	29	0	1843396608	30	6171
2026-01-10 17:24:44.15	358.99	48.63	-29.4	-30.0	28.0	0.00e+00	0	29	0	1866465280	30	6453
2026-01-10 17:24:48.19	357.71	49.78	-30.1	-30.8	27.5	0.00e+00	0	29	0	1888485376	32	6254
2026-01-10 17:24:52.23	356.32	50.94	-30.1	-30.7	27.5	0.00e+00	0	29	0	1911554048	32	6243
2026-01-10 17:24:56.26	354.83	52.12	-29.7	-30.4	27.8	0.00e+00	0	29	0	1934622720	32	5972
2026-01-10 17:25:00.30	353.21	53.30	-29.5	-30.2	27.9	0.00e+00	0	29	0	1956642816	32	5837
2026-01-10 17:25:04.35	351.44	54.48	-30.2	-30.8	27.5	0.00e+00	0	29	0	1979711488	32	6311
2026-01-10 17:25:08.39	349.53	55.66	-29.9	-30.5	27.6	0.00e+00	0	29	0	2002780160	32	6075
2026-01-10 17:25:12.43	347.45	56.83	-29.3	-29.9	28.0	0.00e+00	0	29	0	2024800256	32	5682
2026-01-10 17:25:16.47	345.18	57.99	-29.1	-29.8	28.3	0.00e+00	0	29	0	2047868928	32	5582
2026-01-10 17:25:20.52	342.70	59.12	-29.5	-30.1	27.9	0.00e+00	0	29	0	2070937600	32	5815
2026-01-10 17:25:24.56	340.01	60.22	-29.5	-30.1	27.9	0.00e+00	0	29	0	2092957696	32	5776
2026-01-10 17:25:28.60	337.08	61.28	-29.5	-30.2	27.9	0.00e+00	0	29	0	2116026368	32	5839
2026-01-10 17:25:32.64	333.89	62.27	-29.2	-29.9	28.1	0.00e+00	0	29	0	2139095040	32	5687
2026-01-10 17:25:36.67	330.46	63.20	-29.1	-29.8	28.2	0.00e+00	0	29	0	2161115136	30	6258
2026-01-10 17:25:40.72	326.73	64.06	-28.3	-28.9	28.8	0.00e+00	0	29	0	2184183808	30	5667
2026-01-10 17:25:44.76	322.74	64.81	-28.0	-28.7	28.9	0.00e+00	0	29	0	2207252480	30	5520
2026-01-10 17:25:48.80	318.50	65.45	-28.1	-28.8	29.0	0.00e+00	0	29	0	2229272576	30	5568
2026-01-10 17:25:52.84	314.03	65.97	-28.2	-28.8	28.9	0.00e+00	0	29	0	2252341248	30	5610
2026-01-10 17:25:56.88	309.37	66.35	-28.0	-28.6	28.9	0.00e+00	0	29	0	2275409920	28	6138
2026-01-10 17:26:00.92	304.58	66.58	-27.6	-28.2	29.2	0.00e+00	0	29	0	2298478592	28	5842
2026-01-10 17:26:04.96	299.71	66.67	-27.6	-28.2	29.2	0.00e+00	0	29	0	2320498688	28	5889
2026-01-10 17:26:09.00	294.84	66.59	-27.5	-28.1	29.2	0.00e+00	0	29	0	2343567360	28	5814
2026-01-10 17:26:13.04	290.03	66.37	-27.5	-28.1	29.1	0.00e+00	0	29	0	2365587456	28	5797
2026-01-10 17:26:17.08	285.36	66.00	-27.5	-28.2	29.3	0.00e+00	0	29	0	2388656128	28	5853
2026-01-10 17:26:21.12	280.87	65.49	-27.8	-28.3	29.1	0.00e+00	0	29	0	2411724800	28	5957
2026-01-10 17:26:25.16	276.61	64.85	-28.0	-28.5	28.9	0.00e+00	0	29	0	2434793472	28	6094
2026-01-10 17:26:29.21	272.60	64.10	-28.1	-28.7	28.8	0.00e+00	0	29	0	2456813568	28	6237
2026-01-10 17:26:33.25	268.86	63.26	-28.0	-28.7	28.9	0.00e+00	0	29	0	2479882240	28	6185
2026-01-10 17:26:37.29	265.39	62.33	-28.8	-29.6	28.4	0.00e+00	0	29	0	2502950912	30	6104
2026-01-10 17:26:41.33	262.19	61.33	-28.4	-29.1	28.6	0.00e+00	0	29	0	2524971008	30	5763
2026-01-10 17:26:45.37	259.24	60.28	-29.0	-29.7	28.2	0.00e+00	0	29	0	2548039680	30	6243
2026-01-10 17:26:49.41	256.53	59.18	-29.5	-30.1	27.9	0.00e+00	0	29	0	2571108352	30	6469
2026-01-10 17:26:53.46	254.04	58.04	-28.8	-29.4	28.2	0.00e+00	0	30	0	2593128448	30	5975
2026-01-10 17:26:57.50	251.75	56.89	-29.5	-30.2	27.9	0.00e+00	0	30	0	2616197120	30	6556
2026-01-10 17:27:01.54	249.66	55.71	-29.2	-29.8	28.1	0.00e+00	0	30	0	2639265792	32	5586
2026-01-10 17:27:05.58	247.73	54.53	-29.4	-30.1	28.0	0.00e+00	0	30	0	2661285888	32	5820
2026-01-10 17:27:09.62	245.96	53.34	-29.3	-30.0	28.1	0.00e+00	0	30	0	2684354560	32	5703
2026-01-10 17:27:13.67	244.32	52.16	-29.9	-30.5	27.5	0.00e+00	0	30	0	2707423232	32	6064
2026-01-10 17:27:17.71	242.82	50.98	-29.7	-30.2	27.8	0.00e+00	0	29	0	2729443328	32	5887
2026-01-10 17:27:21.75	241.42	49.81	-29.2	-29.9	28.0	0.00e+00	0	29	0	2752512000	32	5643
2026-01-10 17:27:25.80	240.13	48.65	-28.7	-29.3	27.8	0.00e+00	0	30	0	2775580672	30	5956
2026-01-10 17:27:29.84	238.94	47.51	-28.6	-29.3	28.5	0.00e+00	0	30	0	2797600768	30	5934
2026-01-10 17:27:33.88	237.82	46.39	-28.3	-29.0	28.7	0.00e+00	0	30	0	2820669440	30	5752
2026-01-10 17:27:37.92	236.79	45.29	-28.3	-28.9	28.8	0.00e+00	0	30	0	2843738112	30	5648
2026-01-10 17:27:41.96	235.83	44.20	-28.6	-29.2	28.6	0.00e+00	0	30	0	2865758208	30	5853
2026-01-10 17:27:45.99	234.93	43.14	-28.6	-29.3	28.7	0.00e+00	0	29	0	2888826880	30	5899
2026-01-10 17:27:50.03	234.08	42.10	-28.6	-29.3	28.5	0.00e+00	0	30	0	2911895552	30	5918
2026-01-10 17:27:54.07	233.29	41.08	-28.3	-29.0	28.7	0.00e+00	0	30	0	2934964224	30	5741
2026-01-10 17:27:58.11	232.55	40.08	-28.1	-28.8	28.9	0.00e+00	0	30	0	2956984320	30	5571
2026-01-10 17:28:02.15	231.85	39.11	-28.2	-28.8	28.6	0.00e+00	0	30	0	2980052992	30	5586
2026-01-10 17:28:06.19	231.20	38.15	-28.1	-28.6	28.9	0.00e+00	0	30	0	3002073088	30	5486
2026-01-10 17:28:10.23	230.58	37.22	-28.3	-28.8	28.8	0.00e+00	0	30	0	3025141760	30	5630
2026-01-10 17:28:14.27	229.99	36.31	-28.1	-28.8	28.9	0.00e+00	0	30	0	3048210432	30	5601
2026-01-10 17:28:18.31	229.44	35.43	-28.3	-28.9	28.8	0.00e+00	0	30	0	3071279104	30	5657
2026-01-10 17:28:22.36	228.92	34.56	-28.5	-29.2	28.6	0.00e+00	0	30	0	3093299200	30	5863
2026-01-10 17:28:26.40	228.42	33.71	-28.4	-29.0	28.6	0.00e+00	0	30	0	3116367872	30	5698
2026-01-10 17:28:30.44	227.95	32.89	-28.3	-28.8	28.7	0.00e+00	0	30	0	3139436544	30	5612
2026-01-10 17:28:34.48	227.51	32.08	-28.8	-29.3	28.4	0.00e+00	0	30	0	3161456640	30	5949
2026-01-10 17:28:38.52	227.08	31.30	-28.7	-29.3	28.5	0.00e+00	0	30	0	3184525312	30	5912
2026-01-10 17:28:42.56	226.68	30.53	-28.7	-29.2	28.5	0.00e+00	0	30	0	3206545408	30	5883
2026-01-10 17:28:46.60	226.29	29.78	-29.1	-29.6	28.2	0.00e+00	0	30	0	3229614080	30	6136
2026-01-10 17:28:50.63	225.92	29.05	-29.0	-29.5	28.3	0.00e+00	0	30	0	3252682752	30	6080
2026-01-10 17:28:54.68	225.57	28.34	-29.0	-29.7	28.2	0.00e+00	0	30	0	3275751424	30	6217
2026-01-10 17:28:58.71	225.24	27.64	-28.9	-29.5	28.3	0.00e+00	0	30	0	3297771520	30	6040
2026-01-10 17:29:02.75	224.92	26.96	-28.9	-29.6	28.3	0.00e+00	0	30	0	3320840192	30	6136
2026-01-10 17:29:06.79	224.61	26.30	-28.9	-29.5	28.3	0.00e+00	0	30	0	3343908864	30	6103
2026-01-10 17:29:10.84	224.32	25.64	-29.0	-29.6	28.3	0.00e+00	0	30	0	3365928960	30	6172
2026-01-10 17:29:14.87	224.04	25.01	-29.2	-29.9	28.0	0.00e+00	0	30	0	3388997632	30	6377
2026-01-10 17:29:18.91	223.77	24.39	-29.3	-30.0	28.0	0.00e+00	0	30	0	3411017728	30	6412
2026-01-10 17:29:22.94	223.51	23.78	-29.3	-29.9	28.0	0.00e+00	0	30	0	3434086400	30	6332
2026-01-10 17:29:26.98	223.26	23.19	-29.3	-29.8	28.0	0.00e+00	0	30	0	3457155072	30	6309
2026-01-10 17:29:31.02	223.02	22.61	-29.4	-29.9	27.9	0.00e+00	0	30	0	3480223744	30	6354
2026-01-10 17:29:35.07	222.79	22.04	-29.6	-30.1	27.6	0.00e+00	0	30	0	3502243840	30	6510
2026-01-10 17:29:39.11	222.57	21.48	-29.7	-30.3	27.4	0.00e+00	0	30	0	3525312512	32	5916
2026-01-10 17:29:43.15	222.35	20.93	-29.8	-30.4	27.3	0.00e+00	0	30	0	3547332608	32	5998
2026-01-10 17:29:47.18	222.15	20.40	-29.8	-30.4	27.3	0.00e+00	0	30	0	3570401280	32	5974
2026-01-10 17:29:51.22	221.95	19.88	-29.7	-30.4	27.4	0.00e+00	0	30	0	3593469952	32	6002
2026-01-10 17:29:55.26	221.76	19.36	-29.7	-30.2	27.4	0.00e+00	0	30	0	3616538624	32	5893
2026-01-10 17:29:59.31	221.57	18.86	-29.8	-30.5	27.4	0.00e+00	0	30	0	3638558720	32	6035
2026-01-10 17:30:03.35	221.39	18.37	-30.0	-30.7	27.1	0.00e+00	0	30	0	3661627392	32	6234
2026-01-10 17:30:07.39	221.22	17.88	-30.4	-31.1	27.0	0.00e+00	0	30	0	3684696064	32	6475
2026-01-10 17:30:11.43	221.05	17.41	-30.7	-31.4	26.6	0.00e+00	0	30	0	3706716160	32	6740
2026-01-10 17:30:15.47	220.89	16.94	-30.8	-31.5	26.5	0.00e+00	0	30	0	3729784832	34	6073
2026-01-10 17:30:19.51	220.74	16.48	-30.9	-31.7	26.4	0.00e+00	0	30	0	3751804928	34	6181
2026-01-10 17:30:23.55	220.59	16.03	-31.0	-31.6	26.3	0.00e+00	0	30	0	3774873600	34	6144
2026-01-10 17:30:27.59	220.44	15.59	-31.3	-31.8	26.1	0.00e+00	0	30	0	3797942272	34	6305
2026-01-10 17:30:31.64	220.30	15.16	-31.3	-31.9	26.1	0.00e+00	0	30	0	3821010944	34	6376
2026-01-10 17:30:35.68	220.16	14.73	-31.5	-32.2	25.9	0.00e+00	0	30	0	3843031040	34	6606
2026-01-10 17:30:39.72	220.03	14.31	-31.6	-32.3	25.8	0.00e+00	0	30	0	3866099712	34	6688
2026-01-10 17:30:43.76	219.90	13.90	-31.7	-32.4	25.8	0.00e+00	0	30	0	3889168384	36	6017
2026-01-10 17:30:47.80	219.77	13.49	-31.9	-32.6	25.4	0.00e+00	0	30	0	3911188480	36	6105
2026-01-10 17:30:51.84	219.65	13.09	-32.0	-32.6	25.4	0.00e+00	0	30	0	3934257152	36	6135
2026-01-10 17:30:55.88	219.54	12.70	-31.9	-32.5	25.5	0.00e+00	0	30	0	3957325824	36	6097
2026-01-10 17:30:59.92	219.42	12.31	-32.1	-32.7	25.4	0.00e+00	0	30	0	3979345920	36	6189
2026-01-10 17:31:03.96	219.31	11.93	-32.0	-32.6	25.4	0.00e+00	0	30	0	4002414592	36	6139
2026-01-10 17:31:08.00	219.20	11.56	-32.1	-32.7	25.3	0.00e+00	0	30	0	4025483264	36	6232
2026-01-10 17:31:12.04	219.10	11.19	-32.2	-32.9	25.2	0.00e+00	0	30	0	4047503360	36	6387
2026-01-10 17:31:16.08	218.99	10.82	-32.3	-32.9	25.1	0.00e+00	0	30	0	4070572032	36	6377
2026-01-10 17:31:20.12	218.90	10.47	-32.3	-32.9	25.1	0.00e+00	0	30	0	4093640704	36	6328
2026-01-10 17:31:24.16	218.80	10.11	-32.4	-33.0	25.0	0.00e+00	0	30	0	4115660800	36	6423
2026-01-10 17:31:28.20	218.70	9.76	-32.6	-33.3	24.8	0.00e+00	0	30	0	4138729472	36	6679
2026-01-10 17:31:32.24	218.61	9.42	-32.7	-33.4	24.7	0.00e+00	0	30	0	4161798144	38	6013
2026-01-10 17:31:36.28	218.52	9.08	-32.6	-33.2	24.8	0.00e+00	0	30	0	4183818240	38	5845
2026-01-10 17:31:40.32	218.44	8.74	-32.7	-33.3	24.6	0.00e+00	0	30	0	4206886912	38	5923
2026-01-10 17:31:44.37	218.35	8.41	-32.7	-33.4	24.6	0.00e+00	0	30	0	4229955584	38	6031
2026-01-10 17:31:48.41	218.27	8.09	-33.0	-33.6	24.4	0.00e+00	0	30	0	4251975680	38	6145
2026-01-10 17:31:52.45	218.19	7.76	-33.2	-33.8	24.2	0.00e+00	0	30	0	4275044352	38	6288
2026-01-10 17:31:56.49	218.11	7.45	-33.2	-33.8	24.1	0.00e+00	0	30	0	4298113024	38	6317
2026-01-10 17:32:00.53	218.03	7.13	-33.6	-34.4	23.7	0.00e+00	0	30	0	4321181696	38	6730
2026-01-10 17:32:04.56	217.96	6.82	-33.4	-34.0	23.9	0.00e+00	0	30	0	4343201792	38	6417
2026-01-10 17:32:08.60	217.89	6.51	-33.2	-34.0	23.9	0.00e+00	0	30	0	4366270464	38	6445
2026-01-10 17:32:12.64	217.82	6.21	-33.7	-34.3	23.5	0.00e+00	0	30	0	4388290560	40	5944
2026-01-10 17:32:16.68	217.75	5.91	-33.7	-34.4	23.5	0.00e+00	0	30	0	4411359232	40	5979
2026-01-10 17:32:20.73	217.68	5.61	-34.0	-34.7	23.1	0.00e+00	0	30	0	4434427904	40	6184
2026-01-10 17:32:24.77	217.61	5.32	-34.5	-35.3	22.6	0.00e+00	0	30	0	4457496576	40	6691
2026-01-10 17:32:28.81	217.55	5.03	-34.2	-34.9	22.9	0.00e+00	0	30	0	4479516672	40	6349
2026-01-10 17:32:32.85	217.49	4.74	-34.3	-35.0	22.7	0.00e+00	0	30	0	4502585344	40	6415
2026-01-10 17:32:36.89	217.42	4.46	-34.7	-35.4	22.2	0.00e+00	0	30	0	4525654016	42	6028
2026-01-10 17:32:40.93	217.36	4.18	-34.6	-35.4	22.3	0.00e+00	0	30	0	4547674112	42	6027
2026-01-10 17:32:44.96	217.31	3.90	-34.9	-35.7	22.0	0.00e+00	0	30	0	4570742784	42	6240
2026-01-10 17:32:49.00	217.25	3.63	-34.9	-35.8	21.9	0.00e+00	0	30	0	4592762880	42	6265
2026-01-10 17:32:53.04	217.19	3.35	-35.6	-36.4	21.1	0.00e+00	0	30	0	4615831552	42	6716
2026-01-10 17:32:57.08	217.14	3.08	-34.8	-35.6	21.9	0.00e+00	0	30	0	4638900224	44	5493
2026-01-10 17:33:01.13	217.08	2.81	-47.8	-59.9	3.6	8.45e-01	0	30	104	4646240256	60	35874
2026-01-10 17:33:05.17	217.03	2.55	-48.1	-60.2	3.6	8.46e-01	0	30	104	4646240256	60	37115
2026-01-10 17:33:09.21	216.98	2.29	-47.9	-60.2	3.6	8.46e-01	0	29	104	4646240256	60	36903
2026-01-10 17:33:13.25	216.93	2.03	-48.0	-60.1	3.6	8.45e-01	0	29	104	4646240256	60	36666
2026-01-10 17:33:17.29	216.88	1.77	-48.1	-60.2	3.6	8.46e-01	0	30	104	4646240256	60	36819
2026-01-10 17:33:21.33	216.83	1.51	-48.0	-60.1	3.6	8.45e-01	0	29	104	4646240256	60	36639
2026-01-10 17:33:25.37	216.79	1.26	-48.0	-60.1	3.6	8.45e-01	0	29	104	4646240256	60	36728
2026-01-10 17:33:29.40	216.74	1.01	-48.0	-60.1	3.6	8.45e-01	0	29	104	4646240256	60	36727
2026-01-10 17:33:33.44	216.69	0.76	-48.0	-60.1	3.6	8.46e-01	0	30	104	4646240256	60	36503
2026-01-10 17:33:37.48	216.65	0.51	-48.0	-60.1	3.6	8.45e-01	0	30	104	4646240256	60	36590
2026-01-10 17:33:41.52	216.61	0.27	-48.0	-60.2	3.6	8.44e-01	0	30	104	4646240256	60	36801
2026-01-10 17:33:45.56	216.56	0.03	-48.0	-60.1	3.6	8.46e-01	0	29	104	4646240256	60	36586

#Closed at: 2026-01-10 17:33:47
#Recorded file [4646 MB]: D:/lorett/data/35029_260111_051824.dat