passes_logs/2026/01/10/R4.6S_Anadyr/R4.6S_Anadyr__20260110_163909_NOAA_20_JPSS-1_rec.log

#Pass ID: 20260110_163909_NOAA 20 (JPSS-1)
#Satellite: NOAA 20 (JPSS-1)
#Configuration: NOAA 20
#almurnet v.1.7.20251203
#Start time: 2026-01-10 16:39:10

#Version: 2.2.20231116
#Station: R4.6S_Anadyr
#Location: 177.4865 lon 64.73178 lat
#TLE: 1 43013U 17073A   26009.69119415  .00000109  00000+0  72598-4 0  9996
#TLE: 2 43013  98.7631 310.6868 0001678  46.7442 313.3874 14.19534878421981

#Time	Az	El	Level	Level2	SNR	BER	BlckErr	Temp	State	Recorded	gain1	gain2
2026-01-10 16:39:10.70	27.14	0.06	-48.0	-62.9	3.5	1.51e+00	0	27	0	0	60	50332
2026-01-10 16:39:14.73	26.96	0.29	-48.1	-63.3	3.6	1.51e+00	0	29	104	0	60	53095
2026-01-10 16:39:18.77	26.78	0.52	-48.1	-63.3	3.6	1.51e+00	0	28	104	0	60	53101
2026-01-10 16:39:22.81	26.60	0.75	-47.7	-62.9	3.6	1.51e+00	0	29	104	0	60	50375
2026-01-10 16:39:26.85	26.41	0.98	-46.6	-61.8	3.6	1.51e+00	0	29	104	0	60	44357
2026-01-10 16:39:30.89	26.21	1.21	-46.5	-61.7	3.6	1.51e+00	0	29	104	0	60	43861
2026-01-10 16:39:34.92	26.02	1.45	-46.5	-61.7	3.6	1.51e+00	0	29	104	0	60	43859
2026-01-10 16:39:38.96	25.82	1.68	-46.5	-61.7	3.6	1.51e+00	0	29	104	0	60	43878
2026-01-10 16:39:43.00	25.62	1.92	-46.5	-61.6	3.6	1.51e+00	0	29	104	0	60	43577
2026-01-10 16:39:47.03	25.41	2.16	-46.5	-61.6	3.6	1.51e+00	0	29	104	0	60	43290
2026-01-10 16:39:51.07	25.21	2.40	-46.5	-61.7	3.6	1.51e+00	0	29	104	0	60	43841
2026-01-10 16:39:55.11	24.99	2.65	-46.5	-61.5	3.6	1.51e+00	0	29	104	0	60	42781
2026-01-10 16:39:59.15	24.78	2.89	-46.5	-61.4	3.6	1.51e+00	0	29	104	0	60	42365
2026-01-10 16:40:03.19	24.56	3.14	-46.1	-54.8	5.5	9.82e-01	21	29	0	0	60	19781
2026-01-10 16:40:07.22	24.33	3.38	-44.6	-48.9	11.4	1.15e-03	25	29	0	7340032	60	10125
2026-01-10 16:40:11.26	24.10	3.63	-46.0	-53.8	7.5	4.79e-01	0	29	0	14680064	60	17621
2026-01-10 16:40:15.30	23.87	3.89	-41.6	-43.6	17.1	0.00e+00	0	29	0	18874368	56	6901
2026-01-10 16:40:19.34	23.63	4.14	-40.5	-42.1	18.7	0.00e+00	14	29	0	26214400	54	6531
2026-01-10 16:40:23.37	23.39	4.39	-40.1	-41.5	19.3	0.00e+00	32	29	0	33554432	54	6096
2026-01-10 16:40:27.41	23.14	4.65	-40.0	-41.5	19.4	0.00e+00	2	29	0	40894464	54	6038
2026-01-10 16:40:31.45	22.89	4.91	-40.0	-41.4	19.6	0.00e+00	86	29	0	49283072	52	6765
2026-01-10 16:40:35.49	22.64	5.17	-40.0	-41.5	19.6	0.00e+00	5	29	0	56623104	52	6774
2026-01-10 16:40:39.53	22.38	5.44	-39.9	-41.3	19.7	0.00e+00	56	29	0	63963136	52	6649
2026-01-10 16:40:43.57	22.11	5.70	-40.1	-41.6	19.5	0.00e+00	33	29	0	71303168	52	6885
2026-01-10 16:40:47.61	21.84	5.97	-39.9	-41.3	19.8	0.00e+00	92	29	0	79691776	52	6661
2026-01-10 16:40:51.65	21.56	6.24	-39.9	-41.3	19.9	0.00e+00	7	29	0	87031808	52	6672
2026-01-10 16:40:55.69	21.28	6.51	-40.0	-41.4	19.8	0.00e+00	6	30	0	94371840	52	6752
2026-01-10 16:40:59.73	21.00	6.79	-39.9	-41.3	19.9	0.00e+00	0	30	0	101711872	52	6644
2026-01-10 16:41:03.77	20.70	7.06	-40.0	-41.4	19.8	0.00e+00	92	30	0	110100480	52	6715
2026-01-10 16:41:07.80	20.40	7.34	-39.9	-41.2	20.1	0.00e+00	24	30	0	117440512	52	6592
2026-01-10 16:41:11.84	20.10	7.62	-39.7	-41.0	20.3	0.00e+00	0	30	0	124780544	52	6407
2026-01-10 16:41:15.88	19.79	7.90	-39.6	-40.9	20.4	0.00e+00	0	30	0	132120576	52	6368
2026-01-10 16:41:19.92	19.47	8.19	-39.5	-40.8	20.6	0.00e+00	92	30	0	139460608	52	6253
2026-01-10 16:41:23.95	19.15	8.48	-39.3	-40.5	20.8	0.00e+00	54	30	0	147849216	52	6089
2026-01-10 16:41:27.99	18.82	8.77	-39.1	-40.3	21.1	0.00e+00	25	30	0	155189248	52	5905
2026-01-10 16:41:32.03	18.48	9.06	-39.0	-40.2	21.2	0.00e+00	25	30	0	162529280	52	5832
2026-01-10 16:41:36.07	18.13	9.35	-39.0	-40.1	21.3	0.00e+00	92	30	0	169869312	52	5815
2026-01-10 16:41:40.11	17.78	9.65	-38.8	-39.9	21.5	0.00e+00	0	30	0	177209344	52	5692
2026-01-10 16:41:44.15	17.42	9.95	-38.8	-39.9	21.4	0.00e+00	60	30	0	185597952	50	6390
2026-01-10 16:41:48.19	17.05	10.25	-38.8	-39.9	21.6	0.00e+00	0	30	0	192937984	50	6341
2026-01-10 16:41:52.23	16.67	10.56	-38.8	-40.0	21.5	0.00e+00	90	30	0	200278016	50	6401
2026-01-10 16:41:56.27	16.29	10.87	-38.7	-39.8	21.6	0.00e+00	2	30	0	207618048	50	6295
2026-01-10 16:42:00.31	15.90	11.18	-38.7	-39.8	21.7	0.00e+00	0	30	0	216006656	50	6289
2026-01-10 16:42:04.34	15.50	11.49	-38.4	-39.5	22.0	0.00e+00	55	30	0	223346688	50	6060
2026-01-10 16:42:08.38	15.09	11.80	-38.5	-39.6	21.9	0.00e+00	24	30	0	230686720	50	6108
2026-01-10 16:42:12.42	14.67	12.12	-38.5	-39.6	22.0	0.00e+00	6	30	0	238026752	50	6114
2026-01-10 16:42:16.46	14.24	12.44	-38.4	-39.5	22.1	0.00e+00	6	30	0	245366784	50	6071
2026-01-10 16:42:20.49	13.80	12.76	-38.5	-39.6	21.9	0.00e+00	90	30	0	253755392	50	6163
2026-01-10 16:42:24.53	13.35	13.09	-38.3	-39.4	22.1	0.00e+00	0	30	0	261095424	50	5986
2026-01-10 16:42:28.57	12.89	13.42	-38.5	-39.6	22.0	0.00e+00	29	30	0	268435456	50	6136
2026-01-10 16:42:32.61	12.42	13.75	-38.6	-39.7	21.8	0.00e+00	32	30	0	275775488	50	6215
2026-01-10 16:42:36.65	11.94	14.08	-38.5	-39.6	21.9	0.00e+00	92	30	0	284164096	50	6149
2026-01-10 16:42:40.68	11.45	14.41	-38.3	-39.4	22.2	0.00e+00	6	30	0	291504128	50	5996
2026-01-10 16:42:44.72	10.94	14.75	-38.4	-39.4	22.1	0.00e+00	0	30	0	298844160	50	6024
2026-01-10 16:42:48.76	10.43	15.09	-38.2	-39.3	22.3	0.00e+00	56	30	0	306184192	50	5912
2026-01-10 16:42:52.80	9.90	15.44	-38.2	-39.2	22.4	0.00e+00	91	30	0	313524224	50	5865
2026-01-10 16:42:56.83	9.36	15.78	-38.2	-39.3	22.4	0.00e+00	0	30	0	321912832	50	5900
2026-01-10 16:43:00.87	8.81	16.13	-38.2	-39.2	22.4	0.00e+00	0	30	0	329252864	50	5856
2026-01-10 16:43:04.91	8.24	16.48	-38.1	-39.1	22.5	0.00e+00	0	30	0	336592896	50	5819
2026-01-10 16:43:08.95	7.66	16.83	-37.7	-38.7	22.8	0.00e+00	92	30	0	343932928	50	5549
2026-01-10 16:43:12.98	7.06	17.18	-37.5	-38.5	23.1	0.00e+00	27	30	0	352321536	48	6060
2026-01-10 16:43:17.02	6.45	17.54	-37.7	-38.6	23.0	0.00e+00	22	30	0	359661568	48	6172
2026-01-10 16:43:21.06	5.83	17.89	-37.7	-38.7	22.8	0.00e+00	27	30	0	367001600	48	6196
2026-01-10 16:43:25.10	5.19	18.25	-37.5	-38.5	23.1	0.00e+00	91	30	0	374341632	48	6039
2026-01-10 16:43:29.14	4.54	18.61	-37.6	-38.5	23.1	0.00e+00	55	30	0	381681664	48	6087
2026-01-10 16:43:33.17	3.87	18.97	-37.5	-38.4	23.2	0.00e+00	61	30	0	390070272	48	6009
2026-01-10 16:43:37.21	3.18	19.33	-37.3	-38.2	23.4	0.00e+00	0	30	0	397410304	48	5892
2026-01-10 16:43:41.25	2.47	19.70	-37.5	-38.5	23.1	0.00e+00	91	30	0	404750336	48	6059
2026-01-10 16:43:45.29	1.75	20.06	-37.6	-38.5	23.1	0.00e+00	0	30	0	412090368	48	6103
2026-01-10 16:43:49.33	1.01	20.42	-37.8	-38.7	22.9	0.00e+00	0	30	0	420478976	48	6237
2026-01-10 16:43:53.37	0.26	20.79	-37.7	-38.7	23.0	0.00e+00	67	30	0	427819008	48	6176
2026-01-10 16:43:57.41	359.48	21.15	-37.7	-38.7	23.0	0.00e+00	32	30	0	435159040	48	6193
2026-01-10 16:44:01.46	358.68	21.52	-37.5	-38.5	23.2	0.00e+00	27	30	0	442499072	48	6059
2026-01-10 16:44:05.50	357.87	21.88	-37.2	-38.1	23.4	0.00e+00	0	30	0	449839104	48	5776
2026-01-10 16:44:09.53	357.04	22.24	-37.1	-38.0	23.6	0.00e+00	92	30	0	458227712	48	5751
2026-01-10 16:44:13.57	356.19	22.60	-37.0	-37.9	23.7	0.00e+00	61	30	0	465567744	48	5651
2026-01-10 16:44:17.61	355.31	22.96	-36.7	-37.6	24.0	0.00e+00	0	30	0	472907776	46	6163
2026-01-10 16:44:21.65	354.42	23.31	-36.7	-37.6	24.1	0.00e+00	5	30	0	480247808	46	6108
2026-01-10 16:44:25.68	353.51	23.66	-36.7	-37.6	24.0	0.00e+00	92	30	0	488636416	46	6147
2026-01-10 16:44:29.71	352.58	24.01	-36.4	-37.2	24.3	0.00e+00	0	30	0	495976448	46	5887
2026-01-10 16:44:33.75	351.62	24.36	-36.1	-37.0	24.6	0.00e+00	0	30	0	503316480	46	5722
2026-01-10 16:44:37.79	350.64	24.70	-36.2	-37.1	24.4	0.00e+00	19	30	0	510656512	46	5768
2026-01-10 16:44:41.83	349.64	25.03	-36.7	-37.5	24.2	0.00e+00	92	30	0	517996544	46	6097
2026-01-10 16:44:45.87	348.62	25.36	-36.8	-37.7	24.0	0.00e+00	0	30	0	526385152	46	6215
2026-01-10 16:44:49.90	347.58	25.69	-36.8	-37.7	23.9	0.00e+00	2	30	0	533725184	46	6187
2026-01-10 16:44:53.94	346.52	26.00	-37.0	-37.9	23.8	0.00e+00	0	30	0	541065216	46	6375
2026-01-10 16:44:57.98	345.43	26.31	-37.2	-38.1	23.6	0.00e+00	92	31	0	548405248	46	6492
2026-01-10 16:45:02.01	344.33	26.61	-37.4	-38.3	23.5	0.00e+00	61	30	0	555745280	46	6643
2026-01-10 16:45:06.05	343.20	26.91	-37.6	-38.5	23.2	0.00e+00	0	30	0	564133888	46	6845
2026-01-10 16:45:10.09	342.05	27.19	-37.6	-38.5	23.2	0.00e+00	0	30	0	571473920	46	6814
2026-01-10 16:45:14.13	340.88	27.46	-37.4	-38.3	23.5	0.00e+00	92	30	0	578813952	46	6625
2026-01-10 16:45:18.16	339.70	27.73	-37.3	-38.2	23.5	0.00e+00	64	30	0	586153984	46	6576
2026-01-10 16:45:22.20	338.49	27.98	-37.4	-38.3	23.5	0.00e+00	0	30	0	594542592	46	6673
2026-01-10 16:45:26.24	337.26	28.21	-37.4	-38.3	23.4	0.00e+00	92	31	0	601882624	46	6646
2026-01-10 16:45:30.28	336.02	28.44	-37.6	-38.6	23.2	0.00e+00	53	30	0	609222656	46	6858
2026-01-10 16:45:34.32	334.76	28.65	-37.3	-38.2	23.5	0.00e+00	0	30	0	616562688	48	5888
2026-01-10 16:45:38.36	333.48	28.85	-38.0	-38.9	22.9	0.00e+00	0	31	0	623902720	48	6377
2026-01-10 16:45:42.40	332.18	29.03	-38.0	-39.0	22.8	0.00e+00	92	31	0	632291328	48	6428
2026-01-10 16:45:46.44	330.87	29.20	-38.1	-39.1	22.8	0.00e+00	0	30	0	639631360	48	6505
2026-01-10 16:45:50.47	329.55	29.35	-38.0	-38.9	22.9	0.00e+00	0	31	0	646971392	48	6368
2026-01-10 16:45:54.51	328.22	29.49	-38.2	-39.2	22.7	0.00e+00	0	31	0	654311424	48	6564
2026-01-10 16:45:58.55	326.87	29.61	-37.8	-38.7	23.1	0.00e+00	91	31	0	662700032	48	6208
2026-01-10 16:46:02.59	325.52	29.71	-38.3	-39.3	22.4	0.00e+00	62	31	0	670040064	48	6643
2026-01-10 16:46:06.63	324.16	29.79	-38.6	-39.6	22.3	0.00e+00	7	31	0	677380096	48	6902
2026-01-10 16:46:10.66	322.79	29.85	-39.0	-40.1	21.9	0.00e+00	25	30	0	684720128	50	6472
2026-01-10 16:46:14.70	321.42	29.90	-38.8	-39.8	22.1	0.00e+00	92	31	0	692060160	50	6310
2026-01-10 16:46:18.74	320.04	29.93	-39.2	-40.3	21.7	0.00e+00	56	30	0	700448768	50	6675
2026-01-10 16:46:22.77	318.67	29.94	-39.1	-40.2	21.8	0.00e+00	24	30	0	707788800	50	6582
2026-01-10 16:46:26.82	317.29	29.93	-39.1	-40.2	21.4	0.00e+00	21	30	0	715128832	50	6592
2026-01-10 16:46:30.85	315.92	29.90	-38.9	-40.0	22.1	0.00e+00	91	30	0	722468864	50	6397
2026-01-10 16:46:34.89	314.54	29.86	-38.7	-39.7	22.2	0.00e+00	2	30	0	730857472	50	6226
2026-01-10 16:46:38.93	313.17	29.79	-38.6	-39.6	22.4	0.00e+00	60	30	0	738197504	50	6129
2026-01-10 16:46:42.97	311.81	29.71	-37.8	-38.8	23.1	0.00e+00	0	30	0	745537536	48	6264
2026-01-10 16:46:47.00	310.46	29.61	-37.7	-38.7	23.2	0.00e+00	92	30	0	752877568	48	6196
2026-01-10 16:46:51.04	309.11	29.49	-37.9	-38.9	23.0	0.00e+00	0	30	0	760217600	48	6327
2026-01-10 16:46:55.08	307.78	29.36	-37.7	-38.6	23.2	0.00e+00	0	30	0	768606208	48	6171
2026-01-10 16:46:59.12	306.45	29.20	-37.8	-38.8	23.1	0.00e+00	62	30	0	775946240	48	6250
2026-01-10 16:47:03.15	305.15	29.04	-37.5	-38.4	23.5	0.00e+00	92	30	0	783286272	48	6003
2026-01-10 16:47:07.18	303.85	28.86	-37.5	-38.4	23.4	0.00e+00	0	30	0	790626304	48	6027
2026-01-10 16:47:11.21	302.57	28.66	-37.9	-38.9	22.9	0.00e+00	21	30	0	799014912	48	6350
2026-01-10 16:47:15.24	301.31	28.45	-38.5	-39.6	22.5	0.00e+00	88	30	0	806354944	48	6851
2026-01-10 16:47:19.28	300.07	28.22	-38.4	-39.4	22.5	0.00e+00	91	30	0	813694976	48	6714
2026-01-10 16:47:23.32	298.84	27.98	-38.6	-39.7	22.3	0.00e+00	0	30	0	821035008	48	6935
2026-01-10 16:47:27.35	297.63	27.73	-38.4	-39.4	22.5	0.00e+00	0	30	0	828375040	48	6744
2026-01-10 16:47:31.39	296.44	27.47	-38.7	-39.7	22.2	0.00e+00	92	30	0	836763648	50	6226
2026-01-10 16:47:35.43	295.26	27.20	-38.8	-39.8	22.1	0.00e+00	4	30	0	844103680	50	6278
2026-01-10 16:47:39.47	294.11	26.91	-38.4	-39.4	22.5	0.00e+00	0	30	0	851443712	50	5985
2026-01-10 16:47:43.51	292.98	26.62	-38.5	-39.5	22.5	0.00e+00	7	30	0	858783744	50	6062
2026-01-10 16:47:47.55	291.87	26.32	-38.2	-39.2	22.8	0.00e+00	92	30	0	867172352	50	5835
2026-01-10 16:47:51.58	290.79	26.01	-37.8	-38.7	23.2	0.00e+00	30	30	0	874512384	50	5531
2026-01-10 16:47:55.62	289.72	25.69	-37.7	-38.6	23.2	0.00e+00	6	30	0	881852416	48	6171
2026-01-10 16:47:59.66	288.67	25.37	-37.5	-38.4	23.2	0.00e+00	6	30	0	889192448	48	6024
2026-01-10 16:48:03.69	287.65	25.04	-37.0	-37.9	23.8	0.00e+00	92	30	0	896532480	48	5650
2026-01-10 16:48:07.73	286.65	24.70	-37.4	-38.3	23.4	0.00e+00	60	30	0	904921088	48	5933
2026-01-10 16:48:11.77	285.67	24.36	-36.8	-37.6	23.9	0.00e+00	58	30	0	912261120	48	5489
2026-01-10 16:48:15.81	284.71	24.01	-36.5	-37.3	24.4	0.00e+00	28	30	0	919601152	46	5913
2026-01-10 16:48:19.85	283.77	23.66	-36.4	-37.2	24.4	0.00e+00	92	29	0	926941184	46	5855
2026-01-10 16:48:23.89	282.85	23.31	-35.9	-36.7	24.6	0.00e+00	0	30	0	935329792	46	5533
2026-01-10 16:48:27.93	281.96	22.95	-35.9	-36.7	24.9	0.00e+00	0	29	0	942669824	46	5513
2026-01-10 16:48:31.97	281.08	22.59	-35.7	-36.5	25.0	0.00e+00	24	30	0	950009856	44	6044
2026-01-10 16:48:36.01	280.23	22.23	-35.3	-36.1	25.2	0.00e+00	92	29	0	957349888	44	5783
2026-01-10 16:48:40.04	279.39	21.87	-35.0	-35.8	25.5	0.00e+00	22	29	0	964689920	44	5579
2026-01-10 16:48:44.08	278.58	21.51	-35.1	-35.9	25.4	0.00e+00	0	29	0	973078528	44	5646
2026-01-10 16:48:48.12	277.78	21.14	-34.9	-35.6	25.6	0.00e+00	31	29	0	980418560	44	5500
2026-01-10 16:48:52.15	277.00	20.78	-34.8	-35.6	25.1	0.00e+00	53	29	0	987758592	44	5487
2026-01-10 16:48:56.19	276.24	20.42	-35.0	-35.8	25.3	0.00e+00	59	29	0	995098624	44	5579
2026-01-10 16:49:00.22	275.50	20.05	-35.2	-35.9	25.3	0.00e+00	23	29	0	1003487232	44	5691
2026-01-10 16:49:04.26	274.78	19.69	-35.4	-36.2	25.1	0.00e+00	92	29	0	1010827264	44	5832
2026-01-10 16:49:08.30	274.07	19.32	-35.6	-36.4	24.0	0.00e+00	16	29	0	1018167296	44	5975
2026-01-10 16:49:12.34	273.38	18.96	-35.6	-36.4	24.9	0.00e+00	0	29	0	1025507328	44	5972
2026-01-10 16:49:16.38	272.70	18.60	-35.9	-36.7	24.7	0.00e+00	31	29	0	1032847360	44	6238
2026-01-10 16:49:20.42	272.05	18.24	-36.3	-37.1	24.3	0.00e+00	92	29	0	1041235968	44	6526
2026-01-10 16:49:24.46	271.40	17.88	-36.5	-37.4	24.1	0.00e+00	25	29	0	1048576000	44	6715
2026-01-10 16:49:28.50	270.78	17.52	-36.4	-37.3	24.2	0.00e+00	5	29	0	1055916032	44	6646
2026-01-10 16:49:32.54	270.16	17.16	-36.5	-37.3	24.1	0.00e+00	55	29	0	1063256064	44	6688
2026-01-10 16:49:36.58	269.57	16.81	-36.8	-37.6	23.8	0.00e+00	92	29	0	1070596096	46	6163
2026-01-10 16:49:40.61	268.98	16.46	-36.7	-37.6	23.9	0.00e+00	31	29	0	1078984704	46	6139
2026-01-10 16:49:44.64	268.42	16.11	-37.1	-38.0	23.5	0.00e+00	6	29	0	1086324736	46	6400
2026-01-10 16:49:48.68	267.86	15.76	-36.9	-37.8	23.7	0.00e+00	0	29	0	1093664768	46	6266
2026-01-10 16:49:52.72	267.31	15.41	-37.0	-37.9	23.5	0.00e+00	92	29	0	1101004800	46	6373
2026-01-10 16:49:56.76	266.78	15.07	-37.3	-38.2	23.3	0.00e+00	0	29	0	1109393408	46	6593
2026-01-10 16:50:00.80	266.26	14.73	-37.5	-38.4	23.1	0.00e+00	25	29	0	1116733440	46	6751
2026-01-10 16:50:04.83	265.76	14.39	-37.6	-38.6	23.0	0.00e+00	30	29	0	1124073472	48	6125
2026-01-10 16:50:08.87	265.26	14.05	-37.6	-38.5	22.9	0.00e+00	90	29	0	1131413504	48	6098
2026-01-10 16:50:12.91	264.78	13.72	-38.0	-39.0	22.6	0.00e+00	0	29	0	1138753536	48	6406
2026-01-10 16:50:16.95	264.31	13.39	-38.3	-39.4	22.2	0.00e+00	49	29	0	1147142144	48	6735
2026-01-10 16:50:20.99	263.84	13.06	-38.2	-39.3	22.3	0.00e+00	33	29	0	1154482176	48	6625
2026-01-10 16:50:25.02	263.39	12.73	-38.2	-39.2	22.3	0.00e+00	91	29	0	1161822208	48	6597
2026-01-10 16:50:29.06	262.95	12.41	-38.2	-39.2	22.3	0.00e+00	2	29	0	1169162240	48	6583
2026-01-10 16:50:33.10	262.52	12.09	-38.5	-39.5	22.0	0.00e+00	2	29	0	1177550848	48	6812
2026-01-10 16:50:37.14	262.10	11.77	-38.4	-39.5	21.9	0.00e+00	92	29	0	1184890880	48	6812
2026-01-10 16:50:41.18	261.68	11.46	-38.4	-39.5	22.0	0.00e+00	53	29	0	1192230912	48	6795
2026-01-10 16:50:45.21	261.28	11.14	-38.6	-39.7	21.7	0.00e+00	27	29	0	1199570944	48	6980
2026-01-10 16:50:49.25	260.88	10.83	-38.9	-40.0	21.5	0.00e+00	2	28	0	1206910976	50	6430
2026-01-10 16:50:53.29	260.50	10.52	-38.9	-40.0	21.5	0.00e+00	92	29	0	1215299584	50	6405
2026-01-10 16:50:57.33	260.12	10.22	-39.0	-40.1	21.4	0.00e+00	51	28	0	1222639616	50	6489
2026-01-10 16:51:01.36	259.75	9.92	-39.3	-40.5	21.0	0.00e+00	29	28	0	1229979648	50	6789
2026-01-10 16:51:05.40	259.39	9.61	-39.4	-40.6	20.9	0.00e+00	46	28	0	1237319680	50	6887
2026-01-10 16:51:09.44	259.03	9.32	-39.4	-40.6	20.8	0.00e+00	92	28	0	1245708288	50	6912
2026-01-10 16:51:13.48	258.68	9.02	-39.3	-40.6	20.9	0.00e+00	6	28	0	1253048320	50	6851
2026-01-10 16:51:17.51	258.34	8.73	-39.5	-40.8	20.7	0.00e+00	45	28	0	1260388352	50	7023
2026-01-10 16:51:21.55	258.01	8.44	-39.3	-40.5	20.8	0.00e+00	7	28	0	1267728384	50	6815
2026-01-10 16:51:25.59	257.68	8.15	-39.5	-40.8	20.6	0.00e+00	90	28	0	1275068416	50	7036
2026-01-10 16:51:29.63	257.36	7.86	-39.9	-41.2	20.2	0.00e+00	0	28	0	1283457024	52	6573
2026-01-10 16:51:33.67	257.05	7.58	-39.9	-41.3	20.0	0.00e+00	6	28	0	1290797056	52	6643
2026-01-10 16:51:37.71	256.74	7.30	-39.9	-41.3	20.0	0.00e+00	0	28	0	1298137088	52	6642
2026-01-10 16:51:41.75	256.44	7.02	-40.2	-41.6	19.7	0.00e+00	91	28	0	1305477120	52	6879
2026-01-10 16:51:45.79	256.14	6.74	-40.4	-41.9	19.5	0.00e+00	45	28	0	1313865728	52	7100
2026-01-10 16:51:49.83	255.85	6.47	-40.4	-41.9	19.4	0.00e+00	36	28	0	1321205760	52	7118
2026-01-10 16:51:53.87	255.57	6.20	-40.6	-42.1	19.1	0.00e+00	0	28	0	1328545792	52	7284
2026-01-10 16:51:57.91	255.29	5.93	-40.5	-42.0	19.2	0.00e+00	92	28	0	1335885824	52	7187
2026-01-10 16:52:01.95	255.01	5.66	-40.5	-42.0	19.1	0.00e+00	49	28	0	1343225856	54	6457
2026-01-10 16:52:05.99	254.74	5.39	-40.5	-42.0	19.1	0.00e+00	49	28	0	1351614464	54	6424
2026-01-10 16:52:10.02	254.48	5.13	-40.4	-41.9	19.1	0.00e+00	26	28	0	1358954496	54	6373
2026-01-10 16:52:14.06	254.22	4.87	-40.8	-42.4	18.6	0.00e+00	80	28	0	1366294528	54	6727
2026-01-10 16:52:18.10	253.97	4.61	-41.0	-42.7	18.4	0.00e+00	2	28	0	1373634560	54	6979
2026-01-10 16:52:22.14	253.72	4.35	-41.1	-42.8	18.0	0.00e+00	0	28	0	1382023168	54	7084
2026-01-10 16:52:26.18	253.47	4.09	-40.9	-42.6	18.2	0.00e+00	92	28	0	1389363200	54	6904
2026-01-10 16:52:30.22	253.23	3.84	-41.2	-43.1	17.6	0.00e+00	31	28	0	1396703232	54	7284
2026-01-10 16:52:34.26	253.00	3.59	-41.0	-42.8	17.9	0.00e+00	0	28	0	1404043264	54	7022
2026-01-10 16:52:38.29	252.77	3.34	-41.8	-43.9	17.0	0.00e+00	0	28	0	1411383296	56	7096
2026-01-10 16:52:42.33	252.54	3.09	-41.7	-43.7	17.0	0.00e+00	91	28	0	1419771904	56	6978
2026-01-10 16:52:46.37	252.32	2.84	-47.9	-63.1	3.6	1.51e+00	0	28	104	1421869056	60	51702
2026-01-10 16:52:50.41	252.10	2.60	-48.1	-63.3	3.6	1.51e+00	0	28	104	1421869056	60	52874
2026-01-10 16:52:54.45	251.88	2.35	-47.5	-63.2	3.6	1.51e+00	0	28	104	1421869056	60	52459
2026-01-10 16:52:58.49	251.67	2.11	-48.0	-63.2	3.6	1.51e+00	0	28	104	1421869056	60	52303
2026-01-10 16:53:02.53	251.46	1.87	-48.1	-63.2	3.6	1.51e+00	0	28	104	1421869056	60	52303
2026-01-10 16:53:06.57	251.25	1.63	-48.0	-63.2	3.6	1.51e+00	0	28	104	1421869056	60	52159
2026-01-10 16:53:10.61	251.05	1.40	-48.1	-63.2	3.6	1.51e+00	0	28	104	1421869056	60	52361
2026-01-10 16:53:14.65	250.85	1.16	-48.0	-63.2	3.6	1.51e+00	0	28	104	1421869056	60	52126
2026-01-10 16:53:18.69	250.66	0.93	-48.0	-63.2	3.6	1.51e+00	0	28	104	1421869056	60	52126
2026-01-10 16:53:22.73	250.47	0.69	-48.0	-63.2	3.6	1.51e+00	0	28	104	1421869056	60	52071
2026-01-10 16:53:26.77	250.28	0.46	-48.0	-63.2	3.6	1.51e+00	0	28	104	1421869056	60	52232
2026-01-10 16:53:30.81	250.09	0.24	-48.0	-63.2	3.6	1.51e+00	0	28	104	1421869056	60	52532
2026-01-10 16:53:34.85	249.91	0.01	-48.0	-63.1	3.6	1.51e+00	0	28	104	1421869056	60	51874

#Closed at: 2026-01-10 16:53:36
#Recorded file [1421 MB]: D:/lorett/data/35029_260111_043910.dat