passes_logs/2026/01/10/R4.6S_Anadyr/R4.6S_Anadyr__20260110_195730_NOAA_20_JPSS-1_rec.log

#Pass ID: 20260110_195730_NOAA 20 (JPSS-1)
#Satellite: NOAA 20 (JPSS-1)
#Configuration: NOAA 20
#almurnet v.1.7.20251203
#Start time: 2026-01-10 19:57:31

#Version: 2.2.20231116
#Station: R4.6S_Anadyr
#Location: 177.4865 lon 64.73178 lat
#TLE: 1 43013U 17073A   26009.69119415  .00000109  00000+0  72598-4 0  9996
#TLE: 2 43013  98.7631 310.6868 0001678  46.7442 313.3874 14.19534878421981

#Time	Az	El	Level	Level2	SNR	BER	BlckErr	Temp	State	Recorded	gain1	gain2
2026-01-10 19:57:31.95	61.50	0.06	-48.1	-63.0	3.5	1.51e+00	0	25	0	0	60	50796
2026-01-10 19:57:34.98	61.27	0.21	-48.1	-63.4	3.6	1.51e+00	0	26	104	0	60	53190
2026-01-10 19:57:38.01	61.04	0.35	-48.2	-63.4	3.6	1.51e+00	0	26	104	0	60	53391
2026-01-10 19:57:41.04	60.81	0.50	-48.1	-63.3	3.6	1.51e+00	0	26	104	0	60	53103
2026-01-10 19:57:44.07	60.58	0.65	-48.0	-63.3	3.6	1.51e+00	0	26	104	0	60	52840
2026-01-10 19:57:47.10	60.34	0.80	-47.7	-62.8	3.6	1.51e+00	0	26	104	0	60	50172
2026-01-10 19:57:50.13	60.10	0.95	-46.4	-61.6	3.6	1.51e+00	0	27	104	0	60	43380
2026-01-10 19:57:53.16	59.86	1.10	-46.4	-61.5	3.6	1.51e+00	0	26	104	0	60	43163
2026-01-10 19:57:56.19	59.61	1.25	-46.4	-61.5	3.6	1.51e+00	0	27	104	0	60	42863
2026-01-10 19:57:59.22	59.37	1.40	-46.4	-61.5	3.6	1.51e+00	0	26	104	0	60	43065
2026-01-10 19:58:02.24	59.12	1.55	-46.3	-61.5	3.6	1.51e+00	0	27	104	0	60	43013
2026-01-10 19:58:05.27	58.86	1.70	-46.3	-61.5	3.6	1.51e+00	0	27	104	0	60	42783
2026-01-10 19:58:08.30	58.61	1.85	-46.4	-61.5	3.6	1.51e+00	0	27	104	0	60	42941
2026-01-10 19:58:11.33	58.35	2.00	-46.3	-61.4	3.6	1.51e+00	0	27	104	0	60	42441
2026-01-10 19:58:14.36	58.09	2.15	-46.3	-61.2	3.6	1.51e+00	0	27	104	0	60	41321
2026-01-10 19:58:17.39	57.83	2.30	-46.4	-61.5	3.6	1.51e+00	0	27	104	0	60	43140
2026-01-10 19:58:20.42	57.56	2.46	-46.3	-61.4	3.6	1.51e+00	0	27	104	0	60	42620
2026-01-10 19:58:23.44	57.29	2.61	-46.3	-61.2	3.6	1.51e+00	0	27	104	0	60	41293
2026-01-10 19:58:26.47	57.02	2.76	-46.3	-61.0	3.6	1.51e+00	0	27	104	0	60	40773
2026-01-10 19:58:29.50	56.75	2.91	-46.0	-55.1	5.2	1.17e+00	92	27	0	0	60	20580
2026-01-10 19:58:32.54	56.47	3.07	-44.6	-49.3	10.7	6.55e-04	92	27	0	5242880	60	10524
2026-01-10 19:58:35.57	56.19	3.22	-46.3	-60.3	3.6	1.51e+00	0	27	104	9437184	60	37420
2026-01-10 19:58:38.59	55.91	3.37	-44.1	-48.0	12.4	1.23e-04	92	27	0	11534336	60	9122
2026-01-10 19:58:41.62	55.62	3.52	-44.3	-48.4	11.4	9.04e-04	92	27	0	16777216	60	9531
2026-01-10 19:58:44.65	55.33	3.68	-43.5	-46.6	14.2	1.52e-05	2	27	0	22020096	60	7760
2026-01-10 19:58:47.68	55.04	3.83	-42.0	-44.3	16.5	0.00e+00	18	27	0	28311552	58	6624
2026-01-10 19:58:50.71	54.74	3.99	-41.7	-43.7	17.2	0.00e+00	92	27	0	33554432	56	6989
2026-01-10 19:58:53.74	54.44	4.14	-41.5	-43.5	17.4	0.00e+00	56	27	0	39845888	56	6819
2026-01-10 19:58:56.77	54.14	4.29	-41.4	-43.3	17.6	0.00e+00	63	27	0	45088768	56	6620
2026-01-10 19:58:59.80	53.83	4.45	-41.0	-42.8	18.2	0.00e+00	90	27	0	50331648	56	6251
2026-01-10 19:59:02.83	53.52	4.60	-40.9	-42.7	18.3	0.00e+00	91	27	0	56623104	56	6185
2026-01-10 19:59:05.86	53.21	4.76	-41.1	-42.8	18.2	0.00e+00	0	27	0	61865984	56	6311
2026-01-10 19:59:08.89	52.89	4.91	-40.6	-42.2	18.7	0.00e+00	91	27	0	68157440	54	6598
2026-01-10 19:59:11.92	52.57	5.07	-40.4	-42.0	19.0	0.00e+00	92	27	0	73400320	54	6435
2026-01-10 19:59:14.95	52.25	5.22	-40.8	-42.5	18.6	0.00e+00	0	27	0	79691776	54	6789
2026-01-10 19:59:17.98	51.93	5.37	-40.4	-42.0	19.0	0.00e+00	0	27	0	84934656	54	6405
2026-01-10 19:59:21.01	51.60	5.53	-40.3	-41.8	19.3	0.00e+00	89	27	0	90177536	54	6250
2026-01-10 19:59:24.04	51.26	5.68	-40.1	-41.6	19.4	0.00e+00	92	27	0	96468992	54	6152
2026-01-10 19:59:27.07	50.92	5.84	-40.0	-41.4	19.6	0.00e+00	0	27	0	101711872	54	6024
2026-01-10 19:59:30.10	50.58	5.99	-39.9	-41.3	19.7	0.00e+00	92	27	0	108003328	54	5954
2026-01-10 19:59:33.12	50.24	6.15	-39.9	-41.3	19.8	0.00e+00	92	27	0	113246208	54	5916
2026-01-10 19:59:36.15	49.89	6.30	-40.1	-41.6	19.6	0.00e+00	62	27	0	118489088	54	6111
2026-01-10 19:59:39.18	49.54	6.46	-40.1	-41.5	19.6	0.00e+00	0	27	0	124780544	54	6061
2026-01-10 19:59:42.21	49.18	6.61	-40.1	-41.6	19.6	0.00e+00	92	27	0	130023424	54	6108
2026-01-10 19:59:45.24	48.82	6.77	-40.1	-41.6	19.7	0.00e+00	0	27	0	136314880	54	6131
2026-01-10 19:59:48.26	48.46	6.92	-40.2	-41.6	19.7	0.00e+00	17	27	0	141557760	54	6133
2026-01-10 19:59:51.29	48.09	7.07	-40.0	-41.3	19.8	0.00e+00	91	27	0	147849216	54	5958
2026-01-10 19:59:54.32	47.72	7.23	-39.8	-41.1	19.9	0.00e+00	0	27	0	153092096	54	5822
2026-01-10 19:59:57.35	47.34	7.38	-40.0	-41.3	19.9	0.00e+00	63	27	0	158334976	52	6680
2026-01-10 20:00:00.38	46.96	7.53	-39.8	-41.1	20.2	0.00e+00	90	27	0	164626432	52	6521
2026-01-10 20:00:03.41	46.58	7.69	-40.0	-41.3	20.0	0.00e+00	92	27	0	169869312	52	6665
2026-01-10 20:00:06.44	46.19	7.84	-39.7	-41.0	20.2	0.00e+00	6	27	0	176160768	52	6425
2026-01-10 20:00:09.47	45.80	7.99	-39.6	-40.9	20.4	0.00e+00	90	27	0	181403648	52	6371
2026-01-10 20:00:12.50	45.40	8.14	-39.6	-40.9	20.5	0.00e+00	92	27	0	186646528	52	6359
2026-01-10 20:00:15.53	45.00	8.29	-39.4	-40.6	20.7	0.00e+00	18	27	0	192937984	52	6156
2026-01-10 20:00:18.56	44.59	8.44	-39.4	-40.7	20.7	0.00e+00	68	27	0	198180864	52	6190
2026-01-10 20:00:21.59	44.18	8.59	-39.3	-40.5	20.8	0.00e+00	90	27	0	204472320	52	6099
2026-01-10 20:00:24.62	43.77	8.74	-39.4	-40.7	20.7	0.00e+00	4	27	0	209715200	52	6197
2026-01-10 20:00:27.65	43.35	8.89	-39.5	-40.7	20.7	0.00e+00	1	27	0	216006656	52	6234
2026-01-10 20:00:30.68	42.93	9.04	-39.4	-40.6	20.8	0.00e+00	92	27	0	221249536	52	6160
2026-01-10 20:00:33.71	42.50	9.19	-39.5	-40.7	20.7	0.00e+00	26	27	0	226492416	52	6231
2026-01-10 20:00:36.74	42.07	9.34	-39.4	-40.6	20.8	0.00e+00	19	27	0	232783872	52	6127
2026-01-10 20:00:39.77	41.63	9.48	-39.4	-40.6	20.8	0.00e+00	2	27	0	238026752	52	6148
2026-01-10 20:00:42.80	41.19	9.63	-39.3	-40.5	20.9	0.00e+00	92	27	0	244318208	52	6042
2026-01-10 20:00:45.83	40.75	9.78	-38.9	-40.1	21.3	0.00e+00	0	27	0	249561088	52	5767
2026-01-10 20:00:48.86	40.30	9.92	-38.8	-39.9	21.5	0.00e+00	0	27	0	254803968	52	5668
2026-01-10 20:00:51.89	39.85	10.06	-38.5	-39.5	21.8	0.00e+00	90	27	0	261095424	50	6097
2026-01-10 20:00:54.92	39.39	10.21	-38.3	-39.3	22.0	0.00e+00	19	27	0	266338304	50	5946
2026-01-10 20:00:57.95	38.92	10.35	-38.0	-39.0	22.4	0.00e+00	19	27	0	272629760	50	5733
2026-01-10 20:01:00.98	38.46	10.49	-37.9	-38.9	22.4	0.00e+00	91	27	0	277872640	50	5692
2026-01-10 20:01:04.01	37.98	10.63	-37.9	-38.9	22.5	0.00e+00	0	26	0	284164096	50	5656
2026-01-10 20:01:07.03	37.51	10.77	-37.7	-38.7	22.5	0.00e+00	0	27	0	289406976	48	6193
2026-01-10 20:01:10.06	37.03	10.90	-37.6	-38.6	22.6	0.00e+00	0	27	0	294649856	48	6130
2026-01-10 20:01:13.09	36.54	11.04	-37.5	-38.4	22.8	0.00e+00	92	27	0	300941312	48	6018
2026-01-10 20:01:16.12	36.05	11.17	-37.5	-38.4	22.8	0.00e+00	62	27	0	306184192	48	6031
2026-01-10 20:01:19.15	35.56	11.31	-37.2	-38.2	23.0	0.00e+00	61	27	0	312475648	48	5838
2026-01-10 20:01:22.18	35.06	11.44	-37.4	-38.3	23.0	0.00e+00	89	27	0	317718528	48	5955
2026-01-10 20:01:25.21	34.55	11.57	-37.1	-38.1	23.3	0.00e+00	60	27	0	322961408	48	5766
2026-01-10 20:01:28.24	34.04	11.70	-37.0	-37.9	22.6	0.00e+00	0	27	0	329252864	48	5648
2026-01-10 20:01:31.27	33.53	11.82	-36.9	-37.8	23.3	0.00e+00	2	26	0	334495744	48	5612
2026-01-10 20:01:34.30	33.01	11.95	-36.9	-37.8	23.5	0.00e+00	0	27	0	340787200	48	5572
2026-01-10 20:01:37.33	32.49	12.07	-37.1	-38.0	23.3	0.00e+00	17	27	0	346030080	48	5759
2026-01-10 20:01:40.36	31.96	12.20	-37.2	-38.2	23.1	0.00e+00	63	27	0	352321536	48	5829
2026-01-10 20:01:43.39	31.43	12.32	-37.1	-38.1	23.2	0.00e+00	14	27	0	357564416	48	5777
2026-01-10 20:01:46.42	30.90	12.44	-37.4	-38.4	23.0	0.00e+00	3	27	0	362807296	48	5976
2026-01-10 20:01:49.45	30.36	12.55	-37.5	-38.5	22.8	0.00e+00	1	27	0	369098752	48	6055
2026-01-10 20:01:52.48	29.81	12.67	-37.2	-38.2	23.0	0.00e+00	92	27	0	374341632	48	5842
2026-01-10 20:01:55.52	29.26	12.78	-37.4	-38.3	23.0	0.00e+00	18	27	0	380633088	48	5955
2026-01-10 20:01:58.54	28.71	12.89	-37.3	-38.3	22.7	0.00e+00	19	27	0	385875968	48	5922
2026-01-10 20:02:01.58	28.15	13.00	-37.3	-38.3	23.1	0.00e+00	91	27	0	392167424	48	5927
2026-01-10 20:02:04.61	27.59	13.11	-37.3	-38.3	23.2	0.00e+00	66	27	0	397410304	48	5903
2026-01-10 20:02:07.63	27.03	13.21	-37.0	-37.9	23.4	0.00e+00	4	27	0	402653184	48	5672
2026-01-10 20:02:10.66	26.46	13.31	-37.0	-38.0	23.3	0.00e+00	19	27	0	408944640	48	5702
2026-01-10 20:02:13.69	25.89	13.41	-37.0	-37.9	23.2	0.00e+00	0	27	0	414187520	48	5672
2026-01-10 20:02:16.72	25.31	13.51	-37.0	-37.9	23.4	0.00e+00	21	27	0	420478976	48	5659
2026-01-10 20:02:19.75	24.73	13.60	-37.0	-37.9	23.4	0.00e+00	18	27	0	425721856	48	5645
2026-01-10 20:02:22.78	24.15	13.69	-36.9	-37.8	23.5	0.00e+00	91	27	0	430964736	46	6263
2026-01-10 20:02:25.81	23.56	13.78	-36.8	-37.7	23.5	0.00e+00	0	27	0	437256192	46	6205
2026-01-10 20:02:28.84	22.97	13.87	-36.9	-37.8	23.5	0.00e+00	0	27	0	442499072	46	6286
2026-01-10 20:02:31.87	22.37	13.95	-36.8	-37.7	23.6	0.00e+00	90	27	0	448790528	46	6206
2026-01-10 20:02:34.90	21.77	14.03	-36.9	-37.8	23.6	0.00e+00	0	27	0	454033408	46	6313
2026-01-10 20:02:37.93	21.17	14.11	-37.0	-37.9	23.3	0.00e+00	62	27	0	460324864	46	6351
2026-01-10 20:02:40.96	20.57	14.19	-37.3	-38.3	23.1	0.00e+00	92	27	0	465567744	46	6644
2026-01-10 20:02:43.99	19.96	14.26	-37.2	-38.1	23.2	0.00e+00	0	27	0	470810624	46	6529
2026-01-10 20:02:47.02	19.35	14.33	-37.6	-38.5	22.9	0.00e+00	0	27	0	477102080	46	6823
2026-01-10 20:02:50.05	18.74	14.39	-37.6	-38.6	22.9	0.00e+00	0	27	0	482344960	46	6849
2026-01-10 20:02:53.07	18.12	14.46	-37.7	-38.7	22.7	0.00e+00	92	27	0	488636416	46	6952
2026-01-10 20:02:56.11	17.50	14.51	-37.8	-38.8	22.6	0.00e+00	22	27	0	493879296	48	6259
2026-01-10 20:02:59.14	16.88	14.57	-37.7	-38.7	22.9	0.00e+00	0	27	0	499122176	48	6212
2026-01-10 20:03:02.17	16.26	14.62	-37.4	-38.3	23.1	0.00e+00	89	27	0	505413632	48	5942
2026-01-10 20:03:05.20	15.63	14.67	-37.1	-38.0	23.3	0.00e+00	0	27	0	510656512	48	5709
2026-01-10 20:03:08.23	15.01	14.72	-37.0	-37.9	23.4	0.00e+00	0	27	0	516947968	48	5670
2026-01-10 20:03:11.26	14.38	14.76	-37.2	-38.1	23.2	0.00e+00	92	27	0	522190848	48	5803
2026-01-10 20:03:14.29	13.75	14.80	-37.2	-38.1	23.3	0.00e+00	0	27	0	528482304	48	5808
2026-01-10 20:03:17.32	13.11	14.84	-37.4	-38.4	23.0	0.00e+00	65	27	0	533725184	48	5981
2026-01-10 20:03:20.35	12.48	14.87	-37.3	-38.3	23.1	0.00e+00	70	27	0	538968064	48	5925
2026-01-10 20:03:23.38	11.84	14.90	-37.3	-38.2	23.2	0.00e+00	0	27	0	545259520	48	5884
2026-01-10 20:03:26.41	11.21	14.93	-37.4	-38.3	23.1	0.00e+00	2	27	0	550502400	48	5944
2026-01-10 20:03:29.44	10.57	14.95	-37.3	-38.2	23.2	0.00e+00	0	27	0	556793856	48	5865
2026-01-10 20:03:32.47	9.93	14.97	-37.3	-38.3	23.0	0.00e+00	92	27	0	562036736	48	5924
2026-01-10 20:03:35.50	9.29	14.98	-37.4	-38.3	23.1	0.00e+00	3	27	0	567279616	48	5945
2026-01-10 20:03:38.53	8.65	14.99	-37.1	-38.1	23.3	0.00e+00	18	27	0	573571072	48	5768
2026-01-10 20:03:41.56	8.01	15.00	-37.2	-38.1	23.3	0.00e+00	90	27	0	578813952	48	5788
2026-01-10 20:03:44.59	7.37	15.01	-37.2	-38.2	23.2	0.00e+00	66	28	0	585105408	48	5846
2026-01-10 20:03:47.62	6.73	15.01	-37.2	-38.1	23.3	0.00e+00	0	28	0	590348288	48	5789
2026-01-10 20:03:50.65	6.09	15.00	-37.0	-37.9	23.5	0.00e+00	92	28	0	596639744	48	5665
2026-01-10 20:03:53.68	5.45	15.00	-37.0	-38.0	23.3	0.00e+00	5	28	0	601882624	48	5701
2026-01-10 20:03:56.71	4.81	14.99	-37.4	-38.3	23.0	0.00e+00	2	28	0	607125504	48	5964
2026-01-10 20:03:59.74	4.17	14.97	-37.4	-38.3	23.1	0.00e+00	65	28	0	613416960	48	5953
2026-01-10 20:04:02.77	3.53	14.96	-37.4	-38.4	23.1	0.00e+00	91	28	0	618659840	48	5990
2026-01-10 20:04:05.80	2.89	14.94	-37.7	-38.7	22.7	0.00e+00	60	28	0	624951296	48	6185
2026-01-10 20:04:08.83	2.26	14.91	-37.4	-38.4	23.1	0.00e+00	0	28	0	630194176	48	6001
2026-01-10 20:04:11.85	1.62	14.88	-37.3	-38.2	23.2	0.00e+00	91	28	0	635437056	48	5873
2026-01-10 20:04:14.88	0.99	14.85	-37.6	-38.5	22.8	0.00e+00	0	28	0	641728512	48	6088
2026-01-10 20:04:17.91	0.35	14.82	-37.7	-38.7	22.8	0.00e+00	0	28	0	646971392	48	6198
2026-01-10 20:04:20.94	359.72	14.78	-37.6	-38.5	22.9	0.00e+00	92	28	0	653262848	48	6103
2026-01-10 20:04:23.97	359.09	14.74	-37.2	-38.1	23.3	0.00e+00	66	28	0	658505728	48	5819
2026-01-10 20:04:27.00	358.47	14.69	-37.1	-38.0	23.3	0.00e+00	0	28	0	664797184	48	5756
2026-01-10 20:04:30.03	357.84	14.64	-37.3	-38.2	23.2	0.00e+00	39	28	0	670040064	48	5862
2026-01-10 20:04:33.06	357.22	14.59	-37.2	-38.2	23.3	0.00e+00	0	28	0	675282944	48	5837
2026-01-10 20:04:36.09	356.59	14.54	-37.1	-38.0	23.4	0.00e+00	0	28	0	681574400	48	5739
2026-01-10 20:04:39.12	355.97	14.48	-37.1	-38.1	23.3	0.00e+00	20	28	0	686817280	48	5777
2026-01-10 20:04:42.15	355.36	14.42	-37.0	-37.9	23.3	0.00e+00	92	28	0	693108736	48	5667
2026-01-10 20:04:45.18	354.74	14.35	-37.5	-38.5	23.1	0.00e+00	62	28	0	698351616	48	6044
2026-01-10 20:04:48.21	354.13	14.28	-37.6	-38.5	23.1	0.00e+00	0	28	0	703594496	48	6070
2026-01-10 20:04:51.24	353.52	14.21	-37.3	-38.3	23.1	0.00e+00	92	28	0	709885952	48	5903
2026-01-10 20:04:54.27	352.92	14.14	-37.2	-38.1	23.2	0.00e+00	17	28	0	715128832	48	5804
2026-01-10 20:04:57.30	352.32	14.06	-37.3	-38.2	23.1	0.00e+00	0	28	0	721420288	48	5879
2026-01-10 20:05:00.33	351.72	13.98	-37.3	-38.3	23.1	0.00e+00	92	28	0	726663168	48	5919
2026-01-10 20:05:03.36	351.12	13.90	-37.4	-38.4	23.1	0.00e+00	5	28	0	732954624	48	5972
2026-01-10 20:05:06.39	350.53	13.82	-37.5	-38.4	23.0	0.00e+00	0	28	0	738197504	48	6011
2026-01-10 20:05:09.42	349.94	13.73	-37.5	-38.5	22.9	0.00e+00	1	28	0	743440384	48	6078
2026-01-10 20:05:12.45	349.36	13.64	-37.3	-38.2	23.1	0.00e+00	91	28	0	749731840	48	5890
2026-01-10 20:05:15.48	348.77	13.54	-37.1	-38.0	23.3	0.00e+00	5	28	0	754974720	48	5743
2026-01-10 20:05:18.51	348.20	13.45	-37.0	-38.0	23.4	0.00e+00	6	28	0	761266176	48	5696
2026-01-10 20:05:21.53	347.62	13.35	-37.1	-38.0	23.2	0.00e+00	92	28	0	766509056	48	5746
2026-01-10 20:05:24.56	347.05	13.25	-37.1	-38.1	23.2	0.00e+00	0	28	0	772800512	48	5772
2026-01-10 20:05:27.60	346.49	13.15	-37.0	-38.0	23.2	0.00e+00	3	28	0	778043392	48	5703
2026-01-10 20:05:30.62	345.93	13.04	-37.1	-38.1	23.2	0.00e+00	91	28	0	783286272	48	5802
2026-01-10 20:05:33.65	345.37	12.93	-37.3	-38.2	22.9	0.00e+00	2	28	0	789577728	48	5892
2026-01-10 20:05:36.69	344.81	12.82	-37.1	-38.1	23.2	0.00e+00	2	28	0	794820608	48	5784
2026-01-10 20:05:39.72	344.26	12.71	-37.0	-38.0	23.4	0.00e+00	69	28	0	801112064	48	5696
2026-01-10 20:05:42.75	343.72	12.60	-37.1	-38.1	23.2	0.00e+00	14	28	0	806354944	48	5772
2026-01-10 20:05:45.78	343.18	12.48	-37.0	-37.9	23.4	0.00e+00	66	28	0	811597824	48	5672
2026-01-10 20:05:48.81	342.64	12.36	-37.0	-38.0	23.3	0.00e+00	67	28	0	817889280	48	5731
2026-01-10 20:05:51.84	342.11	12.24	-37.3	-38.3	22.9	0.00e+00	92	29	0	823132160	48	5948
2026-01-10 20:05:54.87	341.58	12.12	-37.7	-38.8	22.5	0.00e+00	0	28	0	829423616	48	6261
2026-01-10 20:05:57.90	341.06	12.00	-37.8	-38.9	22.4	0.00e+00	0	29	0	834666496	48	6373
2026-01-10 20:06:00.90	340.54	11.88	-37.8	-38.9	22.4	0.00e+00	92	28	0	839909376	48	6375
2026-01-10 20:06:03.92	340.03	11.75	-38.0	-39.1	22.2	0.00e+00	10	29	0	846200832	48	6534
2026-01-10 20:06:06.95	339.52	11.62	-38.2	-39.4	22.0	0.00e+00	17	28	0	851443712	48	6705
2026-01-10 20:06:09.98	339.02	11.49	-38.5	-39.7	21.7	0.00e+00	92	29	0	857735168	48	6981
2026-01-10 20:06:13.01	338.51	11.36	-38.8	-40.1	21.2	0.00e+00	69	29	0	862978048	50	6485
2026-01-10 20:06:16.04	338.02	11.23	-39.2	-40.6	20.9	0.00e+00	0	29	0	869269504	50	6857
2026-01-10 20:06:19.07	337.53	11.09	-39.5	-40.9	20.8	0.00e+00	0	29	0	874512384	50	7119
2026-01-10 20:06:22.10	337.04	10.96	-39.1	-40.3	21.2	0.00e+00	0	29	0	879755264	50	6670
2026-01-10 20:06:25.13	336.56	10.82	-39.4	-40.7	20.6	0.00e+00	65	29	0	886046720	50	6968
2026-01-10 20:06:28.16	336.08	10.68	-39.8	-41.2	20.3	0.00e+00	71	29	0	891289600	52	6577
2026-01-10 20:06:31.18	335.61	10.55	-40.0	-41.4	20.0	0.00e+00	90	29	0	897581056	52	6751
2026-01-10 20:06:34.21	335.14	10.41	-39.9	-41.3	20.2	0.00e+00	0	29	0	902823936	52	6651
2026-01-10 20:06:37.24	334.67	10.27	-40.0	-41.4	20.1	0.00e+00	0	29	0	908066816	52	6754
2026-01-10 20:06:40.27	334.21	10.12	-40.1	-41.5	19.8	0.00e+00	91	29	0	914358272	52	6840
2026-01-10 20:06:43.30	333.76	9.98	-40.3	-41.8	19.5	0.00e+00	0	29	0	919601152	52	7070
2026-01-10 20:06:46.33	333.31	9.84	-40.3	-41.7	19.7	0.00e+00	69	29	0	925892608	52	6995
2026-01-10 20:06:49.35	332.86	9.69	-40.2	-41.7	19.9	0.00e+00	83	29	0	931135488	52	6928
2026-01-10 20:06:52.39	332.42	9.55	-40.3	-41.8	19.7	0.00e+00	12	29	0	937426944	52	7011
2026-01-10 20:06:55.41	331.98	9.40	-40.4	-41.9	19.6	0.00e+00	0	29	0	942669824	52	7090
2026-01-10 20:06:58.45	331.55	9.25	-40.1	-41.5	19.8	0.00e+00	0	29	0	947912704	52	6780
2026-01-10 20:07:01.48	331.12	9.11	-39.8	-41.1	20.2	0.00e+00	91	29	0	954204160	52	6529
2026-01-10 20:07:04.50	330.70	8.96	-39.6	-40.9	20.5	0.00e+00	14	29	0	959447040	52	6378
2026-01-10 20:07:07.53	330.28	8.81	-39.6	-40.8	20.4	0.00e+00	7	29	0	965738496	52	6304
2026-01-10 20:07:10.56	329.86	8.66	-39.5	-40.8	20.6	0.00e+00	90	29	0	970981376	52	6280
2026-01-10 20:07:13.59	329.45	8.51	-39.4	-40.7	20.6	0.00e+00	0	29	0	976224256	52	6206
2026-01-10 20:07:16.62	329.05	8.36	-39.4	-40.6	20.7	0.00e+00	0	29	0	982515712	52	6137
2026-01-10 20:07:19.64	328.65	8.21	-39.2	-40.5	20.8	0.00e+00	92	29	0	987758592	52	6050
2026-01-10 20:07:22.67	328.25	8.06	-39.0	-40.1	21.1	7.00e-07	0	29	0	994050048	52	5819
2026-01-10 20:07:25.70	327.86	7.90	-38.8	-40.0	21.2	0.00e+00	6	29	0	999292928	50	6395
2026-01-10 20:07:28.73	327.47	7.75	-38.6	-39.7	21.5	0.00e+00	68	29	0	1005584384	50	6224
2026-01-10 20:07:31.76	327.08	7.60	-38.4	-39.5	21.6	0.00e+00	0	29	0	1010827264	50	6051
2026-01-10 20:07:34.79	326.70	7.45	-38.1	-39.2	21.9	0.00e+00	67	29	0	1016070144	50	5851
2026-01-10 20:07:37.82	326.32	7.29	-38.0	-39.0	22.0	0.00e+00	0	29	0	1022361600	50	5755
2026-01-10 20:07:40.85	325.95	7.14	-38.0	-39.1	22.0	0.00e+00	91	29	0	1027604480	50	5773
2026-01-10 20:07:43.88	325.58	6.99	-38.1	-39.2	21.9	0.00e+00	0	29	0	1033895936	50	5855
2026-01-10 20:07:46.91	325.21	6.83	-38.0	-39.1	21.9	0.00e+00	5	29	0	1039138816	50	5763
2026-01-10 20:07:49.94	324.85	6.68	-38.1	-39.2	21.9	0.00e+00	92	29	0	1044381696	50	5862
2026-01-10 20:07:52.97	324.50	6.52	-38.2	-39.3	21.7	0.00e+00	71	29	0	1050673152	50	5932
2026-01-10 20:07:56.00	324.14	6.37	-38.3	-39.4	21.7	0.00e+00	0	29	0	1055916032	50	5998
2026-01-10 20:07:59.03	323.79	6.22	-38.0	-39.0	22.0	0.00e+00	92	29	0	1062207488	50	5759
2026-01-10 20:08:02.06	323.45	6.06	-38.3	-39.4	21.7	0.00e+00	0	29	0	1067450368	50	6022
2026-01-10 20:08:05.09	323.11	5.91	-38.3	-39.5	21.5	0.00e+00	14	29	0	1073741824	50	6041
2026-01-10 20:08:08.12	322.77	5.75	-38.8	-40.0	21.1	0.00e+00	13	29	0	1078984704	50	6413
2026-01-10 20:08:11.15	322.43	5.60	-38.6	-39.7	21.4	0.00e+00	92	29	0	1084227584	50	6224
2026-01-10 20:08:14.18	322.10	5.44	-38.6	-39.8	21.3	0.00e+00	68	29	0	1090519040	50	6302
2026-01-10 20:08:17.21	321.77	5.29	-38.9	-40.2	20.9	0.00e+00	0	29	0	1095761920	50	6550
2026-01-10 20:08:20.24	321.45	5.13	-38.7	-39.9	21.0	0.00e+00	92	29	0	1102053376	50	6320
2026-01-10 20:08:23.27	321.13	4.98	-38.8	-40.0	20.8	0.00e+00	2	29	0	1107296256	50	6435
2026-01-10 20:08:26.30	320.81	4.83	-38.7	-39.8	21.2	0.00e+00	0	29	0	1112539136	50	6308
2026-01-10 20:08:29.33	320.50	4.67	-39.1	-40.4	20.5	0.00e+00	92	29	0	1118830592	50	6746
2026-01-10 20:08:32.36	320.19	4.52	-39.4	-40.7	20.2	0.00e+00	76	29	0	1124073472	50	6996
2026-01-10 20:08:35.40	319.88	4.36	-39.6	-40.9	20.0	0.00e+00	0	29	0	1130364928	50	7155
2026-01-10 20:08:38.43	319.58	4.21	-39.7	-41.1	19.7	0.00e+00	0	29	0	1135607808	50	7321
2026-01-10 20:08:41.45	319.28	4.05	-39.6	-41.0	19.9	0.00e+00	92	29	0	1141899264	50	7225
2026-01-10 20:08:44.48	318.98	3.90	-39.6	-41.0	19.9	0.00e+00	6	29	0	1147142144	50	7193
2026-01-10 20:08:47.51	318.69	3.75	-39.9	-41.3	19.5	0.00e+00	5	29	0	1152385024	52	6661
2026-01-10 20:08:50.54	318.40	3.59	-40.1	-41.6	19.1	0.00e+00	90	29	0	1158676480	52	6891
2026-01-10 20:08:53.56	318.11	3.44	-40.3	-41.9	18.9	0.00e+00	0	29	0	1163919360	52	7135
2026-01-10 20:08:56.59	317.83	3.29	-40.5	-42.1	18.7	0.00e+00	0	29	0	1170210816	52	7299
2026-01-10 20:08:59.62	317.55	3.14	-40.4	-42.0	18.6	0.00e+00	92	29	0	1175453696	52	7217
2026-01-10 20:09:02.65	317.27	2.98	-46.8	-61.9	3.6	7.44e-01	0	29	104	1180696576	60	45074
2026-01-10 20:09:05.68	316.99	2.83	-48.0	-63.1	3.6	1.51e+00	0	29	104	1180696576	60	51938
2026-01-10 20:09:08.71	316.72	2.68	-48.3	-63.5	3.6	1.51e+00	0	30	104	1180696576	60	53834
2026-01-10 20:09:11.74	316.45	2.53	-48.3	-63.5	3.6	1.51e+00	0	30	104	1180696576	60	54033
2026-01-10 20:09:14.77	316.18	2.37	-48.1	-63.3	3.6	1.51e+00	0	29	104	1180696576	60	52909
2026-01-10 20:09:17.80	315.92	2.22	-48.0	-63.3	3.6	1.51e+00	0	30	104	1180696576	60	52570
2026-01-10 20:09:20.83	315.66	2.07	-48.1	-63.3	3.6	1.51e+00	0	29	104	1180696576	60	52773
2026-01-10 20:09:23.86	315.40	1.92	-48.1	-63.3	3.6	1.51e+00	0	30	104	1180696576	60	52951
2026-01-10 20:09:26.89	315.15	1.77	-48.1	-63.3	3.6	1.51e+00	0	30	104	1180696576	60	52708
2026-01-10 20:09:29.92	314.89	1.62	-48.1	-63.3	3.6	1.51e+00	0	30	104	1180696576	60	53145
2026-01-10 20:09:32.95	314.64	1.47	-48.1	-63.3	3.6	1.51e+00	0	30	104	1180696576	60	53138
2026-01-10 20:09:35.99	314.39	1.32	-48.1	-63.3	3.6	1.51e+00	0	30	104	1180696576	60	52725
2026-01-10 20:09:39.02	314.15	1.17	-48.2	-63.3	3.6	1.51e+00	0	30	104	1180696576	60	53136
2026-01-10 20:09:42.05	313.91	1.02	-48.1	-63.3	3.6	1.51e+00	0	30	104	1180696576	60	52826
2026-01-10 20:09:45.08	313.67	0.87	-48.1	-63.3	3.6	1.51e+00	0	30	104	1180696576	60	52589
2026-01-10 20:09:48.11	313.43	0.72	-48.1	-63.3	3.6	1.51e+00	0	30	104	1180696576	60	52625
2026-01-10 20:09:51.14	313.20	0.57	-48.1	-63.2	3.6	1.51e+00	0	30	104	1180696576	60	52402
2026-01-10 20:09:54.17	312.96	0.42	-48.0	-63.2	3.6	1.51e+00	0	30	104	1180696576	60	52470
2026-01-10 20:09:57.20	312.73	0.28	-48.1	-63.2	3.6	1.51e+00	0	30	104	1180696576	60	52430
2026-01-10 20:10:00.23	312.50	0.13	-48.0	-63.2	3.6	1.51e+00	0	30	104	1180696576	60	52279
2026-01-10 20:10:03.26	312.28	-0.02	-48.0	-63.2	3.6	1.51e+00	0	30	104	1180696576	60	52445

#Closed at: 2026-01-10 20:10:05
#Recorded file [1180 MB]: D:/lorett/data/35029_260111_075731.dat