passes_logs/2026/01/10/R4.6S_Anadyr/R4.6S_Anadyr__20260110_113810_NOAA_20_JPSS-1_rec.log

#Pass ID: 20260110_113810_NOAA 20 (JPSS-1)
#Satellite: NOAA 20 (JPSS-1)
#Configuration: NOAA 20
#almurnet v.1.7.20251203
#Start time: 2026-01-10 11:38:11

#Version: 2.2.20231116
#Station: R4.6S_Anadyr
#Location: 177.4865 lon 64.73178 lat
#TLE: 1 43013U 17073A   26009.69119415  .00000109  00000+0  72598-4 0  9996
#TLE: 2 43013  98.7631 310.6868 0001678  46.7442 313.3874 14.19534878421981

#Time	Az	El	Level	Level2	SNR	BER	BlckErr	Temp	State	Recorded	gain1	gain2
2026-01-10 11:38:11.22	20.50	0.04	-47.9	-59.6	3.5	8.44e-01	0	27	0	0	60	34409
2026-01-10 11:38:14.25	20.78	0.16	-48.4	-63.6	3.6	1.51e+00	0	29	104	0	60	54630
2026-01-10 11:38:17.28	21.07	0.28	-48.2	-63.4	3.6	1.51e+00	0	29	104	0	60	53627
2026-01-10 11:38:20.31	21.36	0.40	-48.2	-63.3	3.6	1.51e+00	0	29	104	0	60	52994
2026-01-10 11:38:23.34	21.65	0.52	-47.9	-63.0	3.6	1.51e+00	0	29	104	0	60	51317
2026-01-10 11:38:26.37	21.95	0.65	-47.4	-62.6	3.6	1.51e+00	0	29	104	0	60	48482
2026-01-10 11:38:29.40	22.24	0.77	-46.5	-61.7	3.6	1.51e+00	0	29	104	0	60	43763
2026-01-10 11:38:32.42	22.54	0.89	-46.5	-61.6	3.6	1.51e+00	0	29	104	0	60	43667
2026-01-10 11:38:35.45	22.84	1.01	-46.5	-61.7	3.6	1.51e+00	0	29	104	0	60	43711
2026-01-10 11:38:38.48	23.14	1.14	-46.4	-61.6	3.6	1.51e+00	0	29	104	0	60	43396
2026-01-10 11:38:41.51	23.45	1.26	-46.5	-61.7	3.6	1.51e+00	0	29	104	0	60	43874
2026-01-10 11:38:44.54	23.76	1.38	-46.5	-61.6	3.6	1.51e+00	0	29	104	0	60	43602
2026-01-10 11:38:47.57	24.07	1.50	-46.5	-61.6	3.6	1.51e+00	0	29	104	0	60	43339
2026-01-10 11:38:50.60	24.38	1.62	-46.5	-61.6	3.6	1.51e+00	0	29	104	0	60	43605
2026-01-10 11:38:53.63	24.70	1.74	-46.5	-61.6	3.6	1.51e+00	0	29	104	0	60	43217
2026-01-10 11:38:56.66	25.01	1.86	-46.4	-61.6	3.6	1.51e+00	0	29	104	0	60	43437
2026-01-10 11:38:59.69	25.33	1.99	-46.4	-61.6	3.6	1.51e+00	0	29	104	0	60	43389
2026-01-10 11:39:02.72	25.66	2.11	-46.4	-61.6	3.6	1.51e+00	0	29	104	0	60	43515
2026-01-10 11:39:05.75	25.98	2.23	-46.4	-61.5	3.6	1.51e+00	0	29	104	0	60	43027
2026-01-10 11:39:08.78	26.31	2.35	-46.4	-61.5	3.6	1.51e+00	0	29	104	0	60	43049
2026-01-10 11:39:11.81	26.64	2.47	-46.4	-61.5	3.6	1.51e+00	0	29	104	0	60	43163
2026-01-10 11:39:14.83	26.97	2.59	-46.4	-60.2	3.6	1.51e+00	0	29	104	0	60	37095
2026-01-10 11:39:17.86	27.31	2.71	-46.2	-57.7	3.9	1.50e+00	0	29	104	0	60	27582
2026-01-10 11:39:20.89	27.64	2.83	-42.4	-45.0	15.6	7.00e-07	56	29	0	3145728	58	7197
2026-01-10 11:39:23.92	27.98	2.95	-41.2	-43.2	17.3	0.00e+00	92	29	0	9437184	56	6577
2026-01-10 11:39:26.96	28.33	3.07	-41.9	-44.1	16.6	0.00e+00	55	29	0	14680064	58	6500
2026-01-10 11:39:29.99	28.67	3.18	-46.2	-59.1	3.7	1.50e+00	0	29	104	17825792	60	32562
2026-01-10 11:39:33.02	29.02	3.30	-39.7	-41.2	19.5	0.00e+00	90	29	0	22020096	52	6577
2026-01-10 11:39:36.05	29.37	3.42	-39.7	-41.2	19.6	0.00e+00	2	29	0	27262976	52	6545
2026-01-10 11:39:39.08	29.73	3.54	-39.6	-41.0	19.7	0.00e+00	0	29	0	33554432	52	6411
2026-01-10 11:39:42.10	30.08	3.65	-39.7	-41.2	19.6	0.00e+00	57	29	0	38797312	52	6545
2026-01-10 11:39:45.13	30.44	3.77	-39.5	-40.9	19.8	0.00e+00	90	29	0	44040192	52	6374
2026-01-10 11:39:48.16	30.80	3.89	-39.5	-40.8	20.0	0.00e+00	57	29	0	50331648	52	6306
2026-01-10 11:39:51.19	31.17	4.00	-39.3	-40.6	20.3	0.00e+00	23	29	0	55574528	52	6117
2026-01-10 11:39:54.22	31.54	4.12	-39.2	-40.5	20.3	0.00e+00	91	29	0	61865984	52	6087
2026-01-10 11:39:57.24	31.91	4.23	-39.2	-40.5	20.3	0.00e+00	0	29	0	67108864	52	6100
2026-01-10 11:40:00.27	32.28	4.35	-39.1	-40.4	20.5	0.00e+00	0	29	0	72351744	52	5975
2026-01-10 11:40:03.31	32.66	4.46	-39.3	-40.6	20.3	0.00e+00	17	29	0	78643200	52	6124
2026-01-10 11:40:06.34	33.03	4.58	-39.2	-40.5	20.4	0.00e+00	55	29	0	83886080	52	6097
2026-01-10 11:40:09.37	33.42	4.69	-39.4	-40.7	20.2	0.00e+00	51	29	0	90177536	52	6197
2026-01-10 11:40:12.40	33.80	4.80	-39.5	-40.9	20.1	0.00e+00	26	29	0	95420416	52	6323
2026-01-10 11:40:15.43	34.19	4.91	-39.5	-40.8	20.2	0.00e+00	57	29	0	101711872	52	6263
2026-01-10 11:40:18.46	34.58	5.03	-39.6	-40.9	20.1	0.00e+00	5	29	0	106954752	52	6370
2026-01-10 11:40:21.48	34.97	5.14	-39.5	-40.9	20.2	0.00e+00	0	29	0	112197632	52	6339
2026-01-10 11:40:24.51	35.37	5.25	-39.6	-41.0	20.0	0.00e+00	92	29	0	118489088	52	6412
2026-01-10 11:40:27.54	35.76	5.36	-39.6	-40.9	20.1	0.00e+00	37	28	0	123731968	52	6384
2026-01-10 11:40:30.57	36.17	5.46	-39.4	-40.7	20.3	0.00e+00	56	29	0	130023424	52	6217
2026-01-10 11:40:33.60	36.57	5.57	-39.5	-40.8	20.2	0.00e+00	91	29	0	135266304	52	6256
2026-01-10 11:40:36.63	36.98	5.68	-39.4	-40.7	20.4	0.00e+00	6	29	0	140509184	52	6227
2026-01-10 11:40:39.66	37.39	5.79	-39.2	-40.5	20.6	0.00e+00	8	29	0	146800640	52	6047
2026-01-10 11:40:42.69	37.80	5.89	-39.2	-40.5	20.6	0.00e+00	58	29	0	152043520	52	6060
2026-01-10 11:40:45.72	38.22	6.00	-39.2	-40.4	20.7	0.00e+00	0	28	0	158334976	52	6014
2026-01-10 11:40:48.75	38.64	6.10	-39.2	-40.5	20.7	0.00e+00	23	28	0	163577856	52	6043
2026-01-10 11:40:51.78	39.06	6.20	-39.1	-40.3	20.8	0.00e+00	24	28	0	169869312	52	5964
2026-01-10 11:40:54.81	39.48	6.31	-39.0	-40.2	20.9	0.00e+00	55	28	0	175112192	52	5841
2026-01-10 11:40:57.84	39.91	6.41	-39.2	-40.4	20.6	0.00e+00	2	28	0	180355072	52	6025
2026-01-10 11:41:00.87	40.34	6.51	-39.4	-40.7	20.5	0.00e+00	0	28	0	186646528	52	6180
2026-01-10 11:41:03.90	40.77	6.61	-39.5	-40.8	20.4	0.00e+00	92	28	0	191889408	52	6282
2026-01-10 11:41:06.93	41.21	6.71	-39.3	-40.5	20.8	0.00e+00	5	28	0	198180864	52	6058
2026-01-10 11:41:09.95	41.65	6.80	-39.3	-40.6	20.7	0.00e+00	24	28	0	203423744	52	6112
2026-01-10 11:41:12.98	42.09	6.90	-39.5	-40.8	20.4	0.00e+00	90	28	0	208666624	52	6251
2026-01-10 11:41:16.01	42.53	7.00	-39.4	-40.6	20.6	0.00e+00	0	28	0	214958080	52	6162
2026-01-10 11:41:19.04	42.98	7.09	-39.5	-40.7	20.5	0.00e+00	0	28	0	220200960	52	6239
2026-01-10 11:41:22.07	43.43	7.18	-39.9	-41.3	20.0	0.00e+00	22	28	0	226492416	52	6647
2026-01-10 11:41:25.10	43.89	7.28	-39.7	-41.0	20.3	0.00e+00	58	28	0	231735296	52	6417
2026-01-10 11:41:28.13	44.34	7.37	-39.7	-41.0	20.3	0.00e+00	57	28	0	238026752	52	6463
2026-01-10 11:41:31.16	44.80	7.46	-39.6	-40.9	20.4	0.00e+00	0	28	0	243269632	52	6350
2026-01-10 11:41:34.20	45.26	7.55	-39.6	-40.9	20.4	0.00e+00	92	28	0	248512512	52	6376
2026-01-10 11:41:37.23	45.73	7.63	-39.6	-40.8	20.4	0.00e+00	2	28	0	254803968	52	6314
2026-01-10 11:41:40.26	46.19	7.72	-39.7	-41.0	20.4	0.00e+00	0	28	0	260046848	52	6392
2026-01-10 11:41:43.29	46.66	7.80	-39.4	-40.7	20.6	0.00e+00	92	28	0	266338304	52	6195
2026-01-10 11:41:46.32	47.14	7.89	-39.6	-40.9	20.6	0.00e+00	0	28	0	271581184	52	6322
2026-01-10 11:41:49.35	47.61	7.97	-39.5	-40.8	20.6	0.00e+00	50	28	0	277872640	52	6279
2026-01-10 11:41:52.38	48.09	8.05	-39.7	-41.0	20.3	0.00e+00	76	28	0	283115520	52	6456
2026-01-10 11:41:55.41	48.57	8.13	-39.6	-40.8	20.5	0.00e+00	0	28	0	288358400	52	6305
2026-01-10 11:41:58.44	49.05	8.21	-39.3	-40.5	20.8	0.00e+00	0	28	0	294649856	52	6057
2026-01-10 11:42:01.47	49.53	8.28	-39.3	-40.5	20.9	0.00e+00	7	28	0	299892736	52	6074
2026-01-10 11:42:04.50	50.02	8.36	-39.5	-40.7	20.7	0.00e+00	92	28	0	306184192	52	6222
2026-01-10 11:42:07.53	50.51	8.43	-39.5	-40.7	20.6	0.00e+00	56	28	0	311427072	52	6212
2026-01-10 11:42:10.55	51.00	8.50	-39.4	-40.6	20.8	0.00e+00	57	28	0	316669952	52	6153
2026-01-10 11:42:13.58	51.50	8.57	-39.2	-40.4	20.9	0.00e+00	92	28	0	322961408	52	6026
2026-01-10 11:42:16.61	51.99	8.64	-39.4	-40.6	20.8	0.00e+00	6	28	0	328204288	52	6146
2026-01-10 11:42:19.64	52.49	8.70	-39.3	-40.5	21.0	0.00e+00	7	28	0	334495744	52	6089
2026-01-10 11:42:22.68	52.99	8.77	-39.3	-40.5	20.9	0.00e+00	90	28	0	339738624	52	6055
2026-01-10 11:42:25.70	53.49	8.83	-39.2	-40.4	21.0	0.00e+00	0	28	0	346030080	52	6031
2026-01-10 11:42:28.73	54.00	8.89	-39.2	-40.4	21.1	0.00e+00	56	28	0	351272960	52	6004
2026-01-10 11:42:31.76	54.51	8.95	-39.2	-40.4	20.9	0.00e+00	58	28	0	356515840	52	5987
2026-01-10 11:42:34.79	55.02	9.01	-39.2	-40.4	21.0	0.00e+00	89	28	0	362807296	52	5982
2026-01-10 11:42:37.82	55.53	9.07	-39.4	-40.6	20.9	0.00e+00	24	28	0	368050176	52	6148
2026-01-10 11:42:40.85	56.04	9.12	-39.3	-40.5	21.0	0.00e+00	0	28	0	374341632	52	6043
2026-01-10 11:42:43.88	56.56	9.17	-39.4	-40.7	20.8	0.00e+00	92	28	0	379584512	52	6175
2026-01-10 11:42:46.91	57.07	9.22	-39.5	-40.8	20.7	0.00e+00	52	28	0	384827392	52	6273
2026-01-10 11:42:49.94	57.59	9.27	-39.5	-40.8	20.8	0.00e+00	53	28	0	391118848	52	6258
2026-01-10 11:42:52.97	58.11	9.32	-39.4	-40.7	20.7	0.00e+00	92	28	0	396361728	52	6196
2026-01-10 11:42:56.00	58.63	9.36	-39.6	-40.9	20.5	0.00e+00	0	28	0	402653184	52	6342
2026-01-10 11:42:59.03	59.16	9.40	-39.9	-41.2	20.4	0.00e+00	0	28	0	407896064	52	6571
2026-01-10 11:43:02.06	59.68	9.44	-40.1	-41.5	20.1	0.00e+00	92	28	0	414187520	52	6786
2026-01-10 11:43:05.09	60.21	9.48	-40.3	-41.7	19.8	0.00e+00	0	28	0	419430400	52	6972
2026-01-10 11:43:08.12	60.73	9.52	-40.2	-41.6	20.0	0.00e+00	0	28	0	424673280	52	6877
2026-01-10 11:43:11.15	61.26	9.55	-39.9	-41.2	20.2	0.00e+00	22	27	0	430964736	52	6604
2026-01-10 11:43:14.18	61.79	9.58	-39.8	-41.1	20.5	0.00e+00	58	28	0	436207616	52	6495
2026-01-10 11:43:17.20	62.32	9.61	-40.0	-41.3	20.3	0.00e+00	28	28	0	442499072	52	6668
2026-01-10 11:43:20.23	62.85	9.64	-40.2	-41.6	19.9	0.00e+00	29	28	0	447741952	52	6904
2026-01-10 11:43:23.26	63.39	9.67	-40.0	-41.3	20.2	0.00e+00	92	27	0	452984832	52	6685
2026-01-10 11:43:26.29	63.92	9.69	-39.7	-41.0	20.5	0.00e+00	55	28	0	459276288	52	6391
2026-01-10 11:43:29.32	64.45	9.71	-39.8	-41.1	20.5	0.00e+00	56	28	0	464519168	52	6485
2026-01-10 11:43:32.35	64.99	9.73	-39.7	-40.9	20.6	0.00e+00	92	27	0	470810624	52	6367
2026-01-10 11:43:35.38	65.53	9.75	-39.7	-40.9	20.5	0.00e+00	25	28	0	476053504	52	6365
2026-01-10 11:43:38.41	66.06	9.77	-39.7	-41.0	20.7	0.00e+00	0	28	0	482344960	52	6394
2026-01-10 11:43:41.44	66.60	9.78	-39.6	-40.8	20.8	0.00e+00	23	28	0	487587840	52	6286
2026-01-10 11:43:44.47	67.14	9.79	-39.5	-40.7	20.9	0.00e+00	8	28	0	492830720	52	6222
2026-01-10 11:43:47.50	67.68	9.80	-39.1	-40.3	21.2	0.00e+00	49	28	0	499122176	52	5900
2026-01-10 11:43:50.53	68.21	9.80	-38.7	-39.8	21.6	0.00e+00	0	28	0	504365056	50	6276
2026-01-10 11:43:53.55	68.75	9.81	-38.7	-39.8	21.6	0.00e+00	92	28	0	510656512	50	6288
2026-01-10 11:43:56.58	69.29	9.81	-38.7	-39.8	21.6	0.00e+00	30	28	0	515899392	50	6293
2026-01-10 11:43:59.61	69.83	9.81	-38.7	-39.8	21.6	0.00e+00	9	28	0	521142272	50	6291
2026-01-10 11:44:02.64	70.37	9.81	-38.2	-39.3	22.0	0.00e+00	92	28	0	527433728	50	5940
2026-01-10 11:44:05.67	70.91	9.80	-38.0	-39.1	21.9	0.00e+00	6	28	0	532676608	50	5764
2026-01-10 11:44:08.70	71.44	9.80	-38.2	-39.3	22.1	0.00e+00	0	28	0	538968064	50	5915
2026-01-10 11:44:11.73	71.98	9.79	-38.5	-39.6	21.9	0.00e+00	75	28	0	544210944	50	6152
2026-01-10 11:44:14.76	72.52	9.78	-38.1	-39.2	22.1	0.00e+00	0	28	0	550502400	50	5830
2026-01-10 11:44:17.79	73.06	9.76	-38.2	-39.2	22.2	0.00e+00	0	28	0	555745280	50	5883
2026-01-10 11:44:20.82	73.59	9.75	-37.9	-38.9	22.3	0.00e+00	32	28	0	560988160	50	5680
2026-01-10 11:44:23.85	74.13	9.73	-38.1	-39.2	22.0	0.00e+00	91	28	0	567279616	50	5872
2026-01-10 11:44:26.88	74.67	9.71	-38.1	-39.2	22.1	0.00e+00	2	28	0	572522496	50	5848
2026-01-10 11:44:29.91	75.20	9.69	-38.1	-39.1	22.1	0.00e+00	0	28	0	578813952	50	5828
2026-01-10 11:44:32.94	75.74	9.66	-38.1	-39.2	22.0	0.00e+00	92	28	0	584056832	50	5861
2026-01-10 11:44:35.97	76.27	9.64	-37.9	-39.1	22.2	0.00e+00	25	28	0	589299712	50	5777
2026-01-10 11:44:38.99	76.80	9.61	-38.0	-39.1	22.1	0.00e+00	0	28	0	595591168	50	5818
2026-01-10 11:44:42.02	77.33	9.58	-38.1	-39.2	22.0	0.00e+00	92	28	0	600834048	50	5887
2026-01-10 11:44:45.05	77.86	9.54	-38.3	-39.4	21.9	0.00e+00	0	28	0	607125504	50	6002
2026-01-10 11:44:48.08	78.39	9.51	-38.3	-39.5	21.8	0.00e+00	0	28	0	612368384	50	6043
2026-01-10 11:44:51.11	78.92	9.47	-38.4	-39.6	21.7	0.00e+00	0	28	0	618659840	50	6168
2026-01-10 11:44:54.14	79.44	9.43	-38.1	-39.3	22.0	0.00e+00	0	28	0	623902720	50	5900
2026-01-10 11:44:57.17	79.97	9.39	-38.0	-39.1	22.1	0.00e+00	57	28	0	629145600	50	5793
2026-01-10 11:45:00.19	80.49	9.35	-38.1	-39.3	22.0	0.00e+00	0	28	0	635437056	50	5920
2026-01-10 11:45:03.22	81.01	9.30	-38.5	-39.7	21.6	0.00e+00	89	28	0	640679936	50	6211
2026-01-10 11:45:06.25	81.53	9.26	-38.4	-39.5	21.8	0.00e+00	0	28	0	646971392	50	6088
2026-01-10 11:45:09.28	82.05	9.21	-38.1	-39.2	21.8	0.00e+00	0	28	0	652214272	50	5855
2026-01-10 11:45:12.31	82.57	9.16	-37.9	-38.9	22.2	0.00e+00	92	28	0	657457152	50	5695
2026-01-10 11:45:15.34	83.09	9.10	-37.7	-38.7	22.4	0.00e+00	0	28	0	663748608	48	6203
2026-01-10 11:45:18.37	83.60	9.05	-37.5	-38.5	22.6	0.00e+00	33	28	0	668991488	48	6099
2026-01-10 11:45:21.39	84.11	8.99	-37.6	-38.6	22.5	0.00e+00	92	28	0	675282944	48	6168
2026-01-10 11:45:24.43	84.62	8.93	-37.8	-38.9	22.2	0.00e+00	26	28	0	680525824	48	6332
2026-01-10 11:45:27.46	85.13	8.87	-37.8	-38.8	22.2	0.00e+00	5	28	0	686817280	48	6307
2026-01-10 11:45:30.49	85.64	8.81	-37.8	-38.9	22.2	0.00e+00	54	28	0	692060160	48	6344
2026-01-10 11:45:33.52	86.14	8.75	-37.8	-38.9	22.2	0.00e+00	92	28	0	697303040	48	6354
2026-01-10 11:45:36.55	86.64	8.68	-38.0	-39.1	22.0	0.00e+00	56	28	0	703594496	48	6495
2026-01-10 11:45:39.58	87.14	8.61	-37.7	-38.8	22.4	0.00e+00	51	28	0	708837376	48	6246
2026-01-10 11:45:42.61	87.64	8.55	-37.5	-38.5	22.6	0.00e+00	92	28	0	715128832	48	6084
2026-01-10 11:45:45.64	88.13	8.47	-37.6	-38.6	22.5	0.00e+00	0	28	0	720371712	48	6141
2026-01-10 11:45:48.67	88.63	8.40	-38.2	-39.3	21.9	0.00e+00	0	28	0	725614592	48	6620
2026-01-10 11:45:51.70	89.12	8.33	-38.3	-39.5	21.7	0.00e+00	92	28	0	731906048	48	6779
2026-01-10 11:45:54.73	89.60	8.25	-38.3	-39.4	21.7	0.00e+00	0	28	0	737148928	48	6707
2026-01-10 11:45:57.76	90.09	8.18	-38.1	-39.2	21.9	0.00e+00	26	28	0	743440384	48	6564
2026-01-10 11:46:00.79	90.57	8.10	-38.1	-39.3	21.8	0.00e+00	91	28	0	748683264	48	6626
2026-01-10 11:46:03.81	91.05	8.02	-38.6	-39.8	21.4	0.00e+00	50	28	0	754974720	48	7022
2026-01-10 11:46:06.84	91.53	7.94	-38.8	-40.0	21.2	0.00e+00	0	28	0	760217600	50	6457
2026-01-10 11:46:09.87	92.01	7.85	-39.1	-40.4	20.7	0.00e+00	0	28	0	765460480	50	6715
2026-01-10 11:46:12.90	92.48	7.77	-39.9	-41.3	19.9	0.00e+00	91	28	0	771751936	52	6678
2026-01-10 11:46:15.93	92.95	7.68	-40.0	-41.7	19.5	0.00e+00	49	28	0	776994816	52	6984
2026-01-10 11:46:18.95	93.41	7.60	-40.0	-41.5	19.6	0.00e+00	0	28	0	783286272	52	6811
2026-01-10 11:46:21.98	93.88	7.51	-39.8	-41.2	20.0	0.00e+00	90	28	0	788529152	52	6576
2026-01-10 11:46:25.01	94.34	7.42	-39.8	-41.2	19.9	0.00e+00	27	28	0	793772032	52	6578
2026-01-10 11:46:28.04	94.80	7.33	-39.7	-41.1	20.0	0.00e+00	2	28	0	800063488	52	6525
2026-01-10 11:46:31.07	95.26	7.24	-39.8	-41.3	19.9	0.00e+00	91	29	0	805306368	52	6619
2026-01-10 11:46:34.09	95.71	7.15	-40.5	-42.0	19.1	0.00e+00	0	29	0	811597824	52	7247
2026-01-10 11:46:37.12	96.16	7.05	-41.0	-42.9	18.2	0.00e+00	0	29	0	816840704	54	7153
2026-01-10 11:46:40.15	96.61	6.96	-41.1	-43.1	18.0	0.00e+00	26	29	0	823132160	54	7301
2026-01-10 11:46:43.18	97.05	6.86	-40.8	-42.9	18.2	0.00e+00	54	28	0	828375040	54	7136
2026-01-10 11:46:46.21	97.50	6.76	-40.7	-42.8	18.3	0.00e+00	32	28	0	833617920	54	7014
2026-01-10 11:46:49.24	97.94	6.66	-40.7	-42.4	18.6	0.00e+00	0	29	0	839909376	54	6751
2026-01-10 11:46:52.26	98.37	6.56	-40.6	-42.3	18.8	0.00e+00	90	28	0	845152256	54	6678
2026-01-10 11:46:55.29	98.81	6.46	-40.4	-42.4	18.7	0.00e+00	0	29	0	851443712	54	6733
2026-01-10 11:46:58.32	99.24	6.36	-40.7	-42.7	18.3	0.00e+00	0	29	0	856686592	54	7007
2026-01-10 11:47:01.35	99.67	6.26	-40.5	-42.1	18.9	0.00e+00	92	28	0	861929472	54	6536
2026-01-10 11:47:04.38	100.09	6.15	-40.1	-41.7	19.3	0.00e+00	27	29	0	868220928	54	6182
2026-01-10 11:47:07.41	100.51	6.05	-40.3	-41.9	19.2	0.00e+00	0	29	0	873463808	54	6339
2026-01-10 11:47:10.43	100.93	5.95	-40.9	-42.8	18.1	0.00e+00	68	29	0	879755264	54	7038
2026-01-10 11:47:13.46	101.35	5.84	-41.0	-43.0	18.2	0.00e+00	6	29	0	884998144	54	7172
2026-01-10 11:47:16.49	101.76	5.73	-40.5	-42.1	18.7	0.00e+00	0	29	0	891289600	54	6509
2026-01-10 11:47:19.52	102.17	5.62	-39.8	-41.4	19.6	0.00e+00	45	29	0	896532480	54	5989
2026-01-10 11:47:22.55	102.58	5.52	-39.8	-41.3	19.6	0.00e+00	92	29	0	901775360	52	6662
2026-01-10 11:47:25.58	102.99	5.41	-40.0	-41.6	19.2	0.00e+00	53	29	0	908066816	52	6911
2026-01-10 11:47:28.61	103.39	5.30	-40.2	-41.9	18.9	0.00e+00	33	29	0	913309696	52	7116
2026-01-10 11:47:31.63	103.79	5.19	-40.1	-41.6	19.3	0.00e+00	92	29	0	919601152	52	6917
2026-01-10 11:47:34.66	104.18	5.08	-39.7	-41.4	19.4	0.00e+00	9	29	0	924844032	52	6754
2026-01-10 11:47:37.69	104.58	4.96	-39.8	-41.8	19.1	0.00e+00	0	29	0	930086912	52	7035
2026-01-10 11:47:40.72	104.97	4.85	-40.1	-41.8	18.9	0.00e+00	92	29	0	936378368	52	7071
2026-01-10 11:47:43.75	105.35	4.74	-39.5	-41.2	19.5	0.00e+00	41	29	0	941621248	52	6550
2026-01-10 11:47:46.78	105.74	4.62	-39.0	-40.4	20.2	0.00e+00	47	29	0	947912704	52	6027
2026-01-10 11:47:49.80	106.12	4.51	-39.0	-40.4	20.2	0.00e+00	0	29	0	953155584	52	5996
2026-01-10 11:47:52.83	106.50	4.40	-39.7	-41.2	19.4	0.00e+00	68	29	0	958398464	52	6551
2026-01-10 11:47:55.86	106.87	4.28	-38.9	-40.8	19.7	0.00e+00	3	29	0	964689920	52	6302
2026-01-10 11:47:58.89	107.25	4.16	-38.9	-40.9	19.5	0.00e+00	51	29	0	969932800	52	6364
2026-01-10 11:48:01.92	107.62	4.05	-38.5	-40.8	19.5	0.00e+00	92	29	0	976224256	50	7074
2026-01-10 11:48:04.95	107.99	3.93	-39.9	-42.0	18.3	0.00e+00	51	29	0	981467136	52	7190
2026-01-10 11:48:07.97	108.35	3.81	-40.6	-42.5	17.7	0.00e+00	30	29	0	987758592	52	7632
2026-01-10 11:48:11.00	108.71	3.70	-41.0	-43.0	17.1	0.00e+00	92	29	0	993001472	54	7231
2026-01-10 11:48:14.03	109.07	3.58	-40.0	-41.9	18.2	0.00e+00	29	29	0	998244352	52	7132
2026-01-10 11:48:17.06	109.43	3.46	-40.1	-42.0	18.0	0.00e+00	0	29	0	1004535808	52	7241
2026-01-10 11:48:20.09	109.78	3.34	-39.8	-41.6	18.3	0.00e+00	75	29	0	1009778688	52	6908
2026-01-10 11:48:23.11	110.13	3.22	-40.5	-42.5	17.4	0.00e+00	0	29	0	1016070144	52	7643
2026-01-10 11:48:26.14	110.48	3.10	-40.0	-42.4	17.2	0.00e+00	2	29	0	1021313024	52	7516
2026-01-10 11:48:29.18	110.83	2.98	-46.2	-62.2	3.6	1.49e+00	0	29	104	1025507328	60	46390
2026-01-10 11:48:32.21	111.17	2.86	-47.8	-63.0	3.6	1.51e+00	0	29	104	1025507328	60	51243
2026-01-10 11:48:35.24	111.51	2.74	-48.0	-63.2	3.6	1.51e+00	0	29	104	1025507328	60	52507
2026-01-10 11:48:38.27	111.85	2.62	-48.1	-63.2	3.6	1.51e+00	0	29	104	1025507328	60	52444
2026-01-10 11:48:41.30	112.18	2.50	-48.0	-63.3	3.6	1.51e+00	0	29	104	1025507328	60	52910
2026-01-10 11:48:44.32	112.51	2.38	-48.1	-63.2	3.6	1.51e+00	0	29	104	1025507328	60	52321
2026-01-10 11:48:47.35	112.84	2.26	-48.1	-63.2	3.6	1.51e+00	0	29	104	1025507328	60	52382
2026-01-10 11:48:50.38	113.17	2.14	-48.1	-63.3	3.6	1.51e+00	0	29	104	1025507328	60	52564
2026-01-10 11:48:53.41	113.50	2.01	-48.1	-63.2	3.6	1.51e+00	0	29	104	1025507328	60	52205
2026-01-10 11:48:56.44	113.82	1.89	-48.1	-63.3	3.6	1.51e+00	0	29	104	1025507328	60	52816
2026-01-10 11:48:59.47	114.14	1.77	-48.1	-63.3	3.6	1.51e+00	0	29	104	1025507328	60	52751
2026-01-10 11:49:02.50	114.45	1.65	-48.1	-63.3	3.6	1.51e+00	0	29	104	1025507328	60	52621
2026-01-10 11:49:05.53	114.77	1.52	-48.1	-63.3	3.6	1.51e+00	0	29	104	1025507328	60	52630
2026-01-10 11:49:08.56	115.08	1.40	-48.1	-63.3	3.6	1.51e+00	0	29	104	1025507328	60	52583
2026-01-10 11:49:11.59	115.39	1.28	-48.1	-63.2	3.6	1.51e+00	0	29	104	1025507328	60	52499
2026-01-10 11:49:14.62	115.70	1.15	-48.2	-63.3	3.6	1.51e+00	0	29	104	1025507328	60	52833
2026-01-10 11:49:17.65	116.00	1.03	-48.1	-63.3	3.6	1.51e+00	0	29	104	1025507328	60	52577
2026-01-10 11:49:20.68	116.31	0.91	-48.1	-63.3	3.6	1.51e+00	0	29	104	1025507328	60	53057
2026-01-10 11:49:23.71	116.61	0.78	-48.1	-63.2	3.6	1.51e+00	0	29	104	1025507328	60	52403
2026-01-10 11:49:26.74	116.90	0.66	-48.1	-63.3	3.6	1.51e+00	0	29	104	1025507328	60	52597
2026-01-10 11:49:29.76	117.20	0.54	-48.1	-63.3	3.6	1.51e+00	0	29	104	1025507328	60	52704
2026-01-10 11:49:32.79	117.49	0.41	-48.1	-63.2	3.6	1.51e+00	0	29	104	1025507328	60	52367
2026-01-10 11:49:35.82	117.78	0.29	-48.1	-63.2	3.6	1.51e+00	0	29	104	1025507328	60	52343
2026-01-10 11:49:38.85	118.07	0.17	-48.1	-63.3	3.6	1.51e+00	0	29	104	1025507328	60	53004
2026-01-10 11:49:41.88	118.36	0.04	-48.2	-63.3	3.6	1.51e+00	0	29	104	1025507328	60	53017
2026-01-10 11:49:44.91	118.64	-0.08	-48.1	-63.3	3.6	1.51e+00	0	29	104	1025507328	60	53020

#Closed at: 2026-01-10 11:49:45
#Recorded file [1025 MB]: D:/lorett/data/35029_260110_233811.dat