passes_logs/2026/01/10/R4.6S_Anadyr/R4.6S_Anadyr__20260110_145854_NOAA_20_JPSS-1_rec.log

#Pass ID: 20260110_145854_NOAA 20 (JPSS-1)
#Satellite: NOAA 20 (JPSS-1)
#Configuration: NOAA 20
#almurnet v.1.7.20251203
#Start time: 2026-01-10 14:58:57

#Version: 2.2.20231116
#Station: R4.6S_Anadyr
#Location: 177.4865 lon 64.73178 lat
#TLE: 1 43013U 17073A   26009.69119415  .00000109  00000+0  72598-4 0  9996
#TLE: 2 43013  98.7631 310.6868 0001678  46.7442 313.3874 14.19534878421981

#Time	Az	El	Level	Level2	SNR	BER	BlckErr	Temp	State	Recorded	gain1	gain2
2026-01-10 14:58:57.99	21.08	0.20	-48.2	-61.9	3.3	1.54e+00	0	27	0	0	60	45190
2026-01-10 14:59:02.03	21.06	0.44	-48.2	-63.4	3.6	1.51e+00	0	27	104	0	60	53577
2026-01-10 14:59:06.07	21.05	0.69	-47.9	-63.1	3.6	1.51e+00	0	27	104	0	60	51463
2026-01-10 14:59:10.11	21.04	0.94	-46.9	-62.1	3.6	1.51e+00	0	28	104	0	60	45954
2026-01-10 14:59:14.15	21.03	1.18	-46.7	-61.8	3.6	1.51e+00	0	28	104	0	60	44659
2026-01-10 14:59:18.18	21.01	1.44	-46.7	-61.7	3.6	1.51e+00	0	28	104	0	60	43898
2026-01-10 14:59:22.23	21.00	1.69	-46.6	-61.7	3.6	1.51e+00	0	28	104	0	60	44020
2026-01-10 14:59:26.27	20.98	1.95	-46.7	-61.8	3.6	1.51e+00	0	28	104	0	60	44299
2026-01-10 14:59:30.31	20.97	2.20	-46.6	-61.6	3.6	1.51e+00	0	28	104	0	60	43260
2026-01-10 14:59:34.35	20.95	2.46	-46.6	-60.4	3.6	1.51e+00	0	28	104	0	60	37817
2026-01-10 14:59:38.39	20.94	2.73	-46.6	-60.0	3.6	1.51e+00	0	28	104	0	60	36031
2026-01-10 14:59:42.43	20.92	2.99	-45.9	-52.9	7.0	3.47e-01	49	28	0	4194304	60	15890
2026-01-10 14:59:46.47	20.90	3.26	-44.2	-47.9	12.9	1.66e-04	2	28	0	11534336	60	8987
2026-01-10 14:59:50.51	20.88	3.53	-43.8	-47.1	13.6	1.06e-05	85	28	0	18874368	60	8231
2026-01-10 14:59:54.55	20.86	3.81	-43.4	-46.4	13.3	0.00e+00	91	28	0	26214400	58	8451
2026-01-10 14:59:58.59	20.84	4.08	-44.5	-48.5	5.7	1.51e+00	9	28	104	28311552	60	9622
2026-01-10 15:00:02.63	20.82	4.36	-41.1	-42.8	18.2	0.00e+00	0	28	0	33554432	56	6280
2026-01-10 15:00:06.67	20.80	4.64	-41.1	-42.8	18.2	0.00e+00	10	28	0	40894464	56	6314
2026-01-10 15:00:10.71	20.78	4.93	-41.0	-42.7	18.4	0.00e+00	90	28	0	48234496	56	6186
2026-01-10 15:00:14.74	20.76	5.21	-40.8	-42.4	18.7	0.00e+00	9	28	0	55574528	56	6025
2026-01-10 15:00:18.78	20.73	5.51	-40.7	-42.2	18.7	0.00e+00	77	28	0	63963136	54	6614
2026-01-10 15:00:22.82	20.71	5.80	-40.6	-42.2	19.0	0.00e+00	0	28	0	71303168	54	6567
2026-01-10 15:00:26.86	20.68	6.10	-40.4	-41.9	19.3	0.00e+00	92	28	0	78643200	54	6369
2026-01-10 15:00:30.90	20.66	6.40	-40.3	-41.8	19.5	0.00e+00	9	29	0	85983232	54	6250
2026-01-10 15:00:34.94	20.63	6.70	-40.4	-41.9	19.4	0.00e+00	4	29	0	94371840	54	6363
2026-01-10 15:00:38.98	20.60	7.01	-40.2	-41.6	19.7	0.00e+00	71	29	0	101711872	54	6141
2026-01-10 15:00:43.02	20.57	7.32	-40.2	-41.6	19.7	0.00e+00	90	29	0	109051904	54	6169
2026-01-10 15:00:47.05	20.54	7.64	-40.0	-41.3	20.0	0.00e+00	0	29	0	116391936	54	5960
2026-01-10 15:00:51.10	20.51	7.96	-39.9	-41.3	20.1	0.00e+00	0	29	0	123731968	54	5929
2026-01-10 15:00:55.13	20.48	8.28	-40.0	-41.4	20.1	0.00e+00	0	29	0	132120576	54	5973
2026-01-10 15:00:59.17	20.45	8.61	-39.8	-41.2	20.3	0.00e+00	68	29	0	139460608	54	5840
2026-01-10 15:01:03.21	20.41	8.94	-39.7	-41.0	20.5	0.00e+00	0	29	0	146800640	52	6427
2026-01-10 15:01:07.25	20.38	9.28	-39.8	-41.1	20.5	0.00e+00	0	29	0	154140672	52	6476
2026-01-10 15:01:11.29	20.34	9.62	-39.6	-40.9	20.7	0.00e+00	0	29	0	162529280	52	6324
2026-01-10 15:01:15.34	20.30	9.97	-39.7	-40.9	20.6	0.00e+00	0	29	0	169869312	52	6379
2026-01-10 15:01:19.38	20.26	10.32	-39.8	-41.0	20.6	0.00e+00	0	29	0	177209344	52	6449
2026-01-10 15:01:23.42	20.22	10.68	-39.3	-40.6	21.0	0.00e+00	5	29	0	184549376	52	6121
2026-01-10 15:01:27.45	20.18	11.04	-39.3	-40.5	21.0	0.00e+00	77	29	0	191889408	52	6099
2026-01-10 15:01:31.49	20.14	11.40	-39.2	-40.4	21.2	0.00e+00	6	29	0	200278016	52	6019
2026-01-10 15:01:35.52	20.09	11.78	-39.1	-40.3	21.3	0.00e+00	81	29	0	207618048	52	5925
2026-01-10 15:01:39.56	20.04	12.15	-39.1	-40.3	21.4	0.00e+00	76	29	0	214958080	52	5905
2026-01-10 15:01:43.60	19.99	12.54	-39.0	-40.1	21.5	0.00e+00	92	29	0	222298112	52	5822
2026-01-10 15:01:47.64	19.94	12.93	-38.8	-39.9	21.8	0.00e+00	0	29	0	230686720	52	5668
2026-01-10 15:01:51.68	19.89	13.32	-38.8	-40.0	21.7	0.00e+00	6	29	0	238026752	50	6391
2026-01-10 15:01:55.72	19.84	13.73	-38.5	-39.6	22.1	0.00e+00	71	29	0	245366784	50	6123
2026-01-10 15:01:59.76	19.78	14.14	-38.7	-39.8	21.9	0.00e+00	90	29	0	252706816	50	6266
2026-01-10 15:02:03.80	19.72	14.55	-38.4	-39.4	22.2	0.00e+00	69	29	0	260046848	50	6032
2026-01-10 15:02:07.84	19.66	14.98	-38.2	-39.3	22.4	0.00e+00	0	29	0	268435456	50	5898
2026-01-10 15:02:11.88	19.60	15.41	-37.9	-38.9	22.7	0.00e+00	0	29	0	275775488	50	5692
2026-01-10 15:02:15.92	19.53	15.85	-37.9	-38.9	22.7	0.00e+00	90	29	0	283115520	50	5674
2026-01-10 15:02:19.96	19.47	16.29	-37.6	-38.6	23.1	0.00e+00	70	29	0	290455552	48	6123
2026-01-10 15:02:24.00	19.40	16.75	-37.6	-38.5	23.1	0.00e+00	70	29	0	298844160	48	6097
2026-01-10 15:02:28.04	19.32	17.21	-37.4	-38.3	23.3	0.00e+00	0	29	0	306184192	48	5934
2026-01-10 15:02:32.07	19.25	17.69	-37.3	-38.2	23.3	0.00e+00	92	29	0	313524224	48	5856
2026-01-10 15:02:36.11	19.17	18.17	-37.1	-38.1	23.6	0.00e+00	68	29	0	320864256	48	5766
2026-01-10 15:02:40.15	19.09	18.66	-36.9	-37.8	23.8	0.00e+00	65	29	0	328204288	48	5587
2026-01-10 15:02:44.19	19.00	19.16	-37.0	-37.9	23.7	0.00e+00	12	29	0	336592896	48	5687
2026-01-10 15:02:48.23	18.92	19.67	-36.9	-37.7	23.9	0.00e+00	62	29	0	343932928	48	5560
2026-01-10 15:02:52.26	18.83	20.20	-36.9	-37.8	23.8	0.00e+00	2	29	0	351272960	46	6254
2026-01-10 15:02:56.30	18.73	20.73	-36.7	-37.6	24.0	0.00e+00	0	29	0	358612992	46	6151
2026-01-10 15:03:00.34	18.63	21.27	-36.8	-37.7	23.9	0.00e+00	13	29	0	367001600	46	6202
2026-01-10 15:03:04.38	18.53	21.83	-36.7	-37.6	24.0	0.00e+00	25	29	0	374341632	46	6124
2026-01-10 15:03:08.42	18.42	22.40	-36.8	-37.7	24.0	0.00e+00	0	29	0	381681664	46	6208
2026-01-10 15:03:12.45	18.31	22.98	-36.6	-37.4	24.3	0.00e+00	0	29	0	389021696	46	6019
2026-01-10 15:03:16.49	18.19	23.58	-36.3	-37.2	24.4	0.00e+00	91	29	0	396361728	46	5846
2026-01-10 15:03:20.53	18.06	24.19	-36.5	-37.4	24.3	0.00e+00	15	30	0	404750336	46	5983
2026-01-10 15:03:24.57	17.94	24.81	-36.6	-37.4	24.3	0.00e+00	72	29	0	412090368	46	5998
2026-01-10 15:03:28.60	17.80	25.45	-36.8	-37.7	24.0	0.00e+00	2	29	0	419430400	46	6219
2026-01-10 15:03:32.64	17.66	26.10	-36.9	-37.7	24.0	0.00e+00	95	29	0	426770432	46	6235
2026-01-10 15:03:36.68	17.51	26.77	-37.3	-38.3	23.5	0.00e+00	16	30	0	435159040	46	6616
2026-01-10 15:03:40.72	17.36	27.46	-37.7	-38.6	23.3	0.00e+00	65	30	0	442499072	46	6890
2026-01-10 15:03:44.75	17.20	28.17	-38.1	-39.1	22.8	0.00e+00	17	29	0	449839104	48	6501
2026-01-10 15:03:48.79	17.03	28.89	-38.8	-39.9	22.2	0.00e+00	92	30	0	457179136	50	6320
2026-01-10 15:03:52.83	16.85	29.63	-39.2	-40.3	21.7	0.00e+00	0	29	0	464519168	50	6688
2026-01-10 15:03:56.87	16.66	30.39	-39.4	-40.6	21.5	0.00e+00	15	30	0	472907776	50	6851
2026-01-10 15:04:00.89	16.46	31.17	-39.8	-41.0	21.2	0.00e+00	0	29	0	480247808	52	6403
2026-01-10 15:04:04.93	16.25	31.97	-40.2	-41.5	20.7	0.00e+00	92	29	0	487587840	52	6784
2026-01-10 15:04:08.97	16.03	32.80	-40.1	-41.3	20.8	0.00e+00	68	30	0	494927872	52	6673
2026-01-10 15:04:13.01	15.80	33.65	-39.4	-40.6	21.5	0.00e+00	0	30	0	503316480	52	6124
2026-01-10 15:04:17.04	15.55	34.51	-38.9	-40.0	22.1	0.00e+00	0	30	0	510656512	52	5708
2026-01-10 15:04:21.08	15.29	35.41	-38.2	-39.2	22.8	0.00e+00	92	30	0	517996544	50	5865
2026-01-10 15:04:25.12	15.02	36.33	-37.0	-37.8	24.0	0.00e+00	16	30	0	525336576	48	5623
2026-01-10 15:04:29.16	14.72	37.28	-36.6	-37.5	23.8	0.00e+00	65	30	0	532676608	46	6063
2026-01-10 15:04:33.19	14.41	38.25	-36.6	-37.5	24.3	0.00e+00	84	30	0	541065216	46	6053
2026-01-10 15:04:37.24	14.08	39.25	-36.9	-37.7	24.1	0.00e+00	78	30	0	548405248	46	6226
2026-01-10 15:04:41.28	13.72	40.28	-37.6	-38.5	23.4	0.00e+00	14	30	0	555745280	46	6803
2026-01-10 15:04:45.32	13.34	41.34	-38.0	-39.0	23.1	0.00e+00	12	30	0	563085312	48	6404
2026-01-10 15:04:49.35	12.93	42.43	-38.5	-39.5	22.5	0.00e+00	12	30	0	570425344	48	6820
2026-01-10 15:04:53.39	12.50	43.55	-38.8	-39.9	22.1	0.00e+00	92	30	0	578813952	50	6325
2026-01-10 15:04:57.43	12.03	44.70	-38.8	-39.8	22.2	0.00e+00	0	30	0	586153984	50	6312
2026-01-10 15:05:01.47	11.52	45.89	-38.9	-40.0	22.0	0.00e+00	17	30	0	593494016	50	6439
2026-01-10 15:05:05.51	10.97	47.10	-40.0	-41.2	21.1	0.00e+00	92	30	0	600834048	52	6552
2026-01-10 15:05:09.55	10.37	48.35	-41.2	-42.7	19.6	0.00e+00	17	30	0	609222656	54	6967
2026-01-10 15:05:13.58	9.73	49.63	-39.9	-41.1	21.0	0.00e+00	0	30	0	616562688	54	5803
2026-01-10 15:05:17.62	9.02	50.95	-36.8	-37.7	24.1	0.00e+00	0	30	0	623902720	48	5533
2026-01-10 15:05:21.66	8.25	52.30	-36.2	-37.0	24.7	0.00e+00	91	30	0	631242752	46	5742
2026-01-10 15:05:25.70	7.40	53.68	-36.0	-36.8	24.8	0.00e+00	17	30	0	638582784	46	5619
2026-01-10 15:05:29.74	6.46	55.09	-35.7	-36.5	25.1	0.00e+00	64	30	0	646971392	44	6080
2026-01-10 15:05:33.78	5.42	56.54	-37.8	-38.8	23.2	0.00e+00	63	30	0	654311424	48	6279
2026-01-10 15:05:37.82	4.26	58.01	-39.3	-40.4	21.7	0.00e+00	90	30	0	661651456	50	6754
2026-01-10 15:05:41.86	2.97	59.50	-38.8	-39.9	22.2	0.00e+00	17	30	0	668991488	50	6318
2026-01-10 15:05:45.90	1.51	61.02	-36.1	-37.0	24.7	0.00e+00	13	30	0	677380096	46	5708
2026-01-10 15:05:49.94	359.87	62.56	-35.4	-36.2	25.4	0.00e+00	0	30	0	684720128	44	5861
2026-01-10 15:05:53.98	358.00	64.10	-36.0	-36.8	24.9	0.00e+00	92	30	0	692060160	44	6292
2026-01-10 15:05:58.02	355.85	65.65	-36.4	-37.2	24.2	0.00e+00	0	30	0	699400192	44	6586
2026-01-10 15:06:02.05	353.39	67.19	-38.5	-39.6	22.4	0.00e+00	0	30	0	706740224	48	6859
2026-01-10 15:06:06.09	350.53	68.72	-37.8	-38.8	23.1	0.00e+00	20	30	0	715128832	48	6252
2026-01-10 15:06:10.13	347.19	70.22	-36.8	-37.7	24.0	0.00e+00	92	30	0	722468864	48	5552
2026-01-10 15:06:14.17	343.27	71.66	-36.4	-37.2	23.9	0.00e+00	2	30	0	729808896	46	5882
2026-01-10 15:06:18.20	338.67	73.02	-38.3	-39.3	22.7	0.00e+00	2	30	0	737148928	48	6681
2026-01-10 15:06:22.24	333.24	74.28	-38.0	-39.0	23.0	0.00e+00	82	30	0	745537536	48	6417
2026-01-10 15:06:26.28	326.88	75.39	-39.0	-40.1	22.0	0.00e+00	38	30	0	752877568	50	6474
2026-01-10 15:06:30.32	319.54	76.30	-39.7	-41.0	21.2	0.00e+00	64	30	0	760217600	52	6397
2026-01-10 15:06:34.35	311.29	76.97	-39.3	-40.5	21.7	0.00e+00	0	30	0	767557632	52	6047
2026-01-10 15:06:38.39	302.30	77.36	-40.2	-41.5	20.8	0.00e+00	92	30	0	774897664	54	6040
2026-01-10 15:06:42.43	292.98	77.42	-39.8	-40.9	21.1	0.00e+00	5	30	0	783286272	52	6389
2026-01-10 15:06:46.47	283.80	77.16	-39.2	-40.3	21.8	0.00e+00	10	30	0	790626304	52	5930
2026-01-10 15:06:50.52	275.19	76.60	-39.9	-41.1	21.1	0.00e+00	75	30	0	797966336	52	6478
2026-01-10 15:06:54.55	267.48	75.78	-40.8	-42.1	20.1	0.00e+00	91	30	0	805306368	54	6526
2026-01-10 15:06:58.59	260.73	74.74	-40.6	-42.0	20.2	0.00e+00	68	30	0	813694976	54	6399
2026-01-10 15:07:02.63	254.94	73.54	-39.1	-40.2	21.8	0.00e+00	2	30	0	821035008	52	5870
2026-01-10 15:07:06.66	250.02	72.21	-38.0	-39.0	22.9	0.00e+00	0	30	0	828375040	50	5697
2026-01-10 15:07:10.70	245.84	70.79	-38.0	-38.9	23.0	0.00e+00	92	30	0	835715072	48	6383
2026-01-10 15:07:14.74	242.28	69.31	-39.5	-40.6	21.5	0.00e+00	16	30	0	843055104	50	6906
2026-01-10 15:07:18.78	239.23	67.79	-39.1	-40.2	21.7	0.00e+00	0	30	0	851443712	50	6543
2026-01-10 15:07:22.83	236.61	66.25	-37.9	-38.8	23.1	0.00e+00	2	30	0	858783744	50	5588
2026-01-10 15:07:26.87	234.34	64.70	-36.8	-37.6	24.3	0.00e+00	92	30	0	866123776	48	5488
2026-01-10 15:07:30.90	232.37	63.15	-35.1	-35.8	25.7	0.00e+00	0	30	0	873463808	42	6304
2026-01-10 15:07:34.95	230.64	61.60	-36.4	-37.2	24.5	0.00e+00	17	30	0	881852416	44	6586
2026-01-10 15:07:38.99	229.11	60.07	-39.3	-40.5	21.5	0.00e+00	17	30	0	889192448	50	6790
2026-01-10 15:07:43.03	227.76	58.56	-41.1	-42.6	19.6	0.00e+00	91	30	0	896532480	54	6903
2026-01-10 15:07:47.07	226.55	57.08	-40.3	-41.6	20.6	0.00e+00	2	30	0	903872512	54	6119
2026-01-10 15:07:51.11	225.46	55.62	-38.0	-39.0	23.0	0.00e+00	71	30	0	912261120	50	5707
2026-01-10 15:07:55.14	224.49	54.20	-37.5	-38.4	23.6	0.00e+00	90	30	0	919601152	48	6015
2026-01-10 15:07:59.19	223.60	52.80	-36.4	-37.2	24.6	0.00e+00	83	30	0	926941184	46	5870
2026-01-10 15:08:03.22	222.80	51.43	-37.5	-38.4	23.6	0.00e+00	0	30	0	934281216	46	6746
2026-01-10 15:08:07.26	222.07	50.10	-38.8	-39.9	22.2	0.00e+00	0	30	0	941621248	48	7121
2026-01-10 15:08:11.30	221.39	48.80	-39.4	-40.5	21.6	0.00e+00	92	30	0	950009856	50	6832
2026-01-10 15:08:15.34	220.78	47.53	-39.8	-41.0	20.9	0.00e+00	37	30	0	957349888	52	6411
2026-01-10 15:08:19.38	220.21	46.30	-39.3	-40.5	21.6	0.00e+00	0	30	0	964689920	52	6039
2026-01-10 15:08:23.41	219.69	45.10	-39.4	-40.6	21.7	0.00e+00	0	30	0	972029952	52	6108
2026-01-10 15:08:27.45	219.20	43.93	-40.5	-41.9	20.4	0.00e+00	92	30	0	979369984	52	7104
2026-01-10 15:08:31.49	218.75	42.80	-40.5	-41.9	20.3	0.00e+00	5	30	0	987758592	54	6372
2026-01-10 15:08:35.52	218.33	41.70	-39.7	-40.9	21.1	0.00e+00	71	30	0	995098624	54	5669
2026-01-10 15:08:39.56	217.94	40.62	-39.8	-41.0	21.1	0.00e+00	0	30	0	1002438656	52	6464
2026-01-10 15:08:43.61	217.57	39.58	-40.1	-41.4	21.0	0.00e+00	91	30	0	1009778688	52	6726
2026-01-10 15:08:47.65	217.23	38.56	-39.7	-40.9	21.4	0.00e+00	7	30	0	1018167296	52	6364
2026-01-10 15:08:51.69	216.91	37.57	-39.0	-40.1	22.0	0.00e+00	7	30	0	1025507328	52	5808
2026-01-10 15:08:55.73	216.60	36.61	-39.0	-40.1	22.0	0.00e+00	81	30	0	1032847360	52	5767
2026-01-10 15:08:59.77	216.32	35.68	-38.4	-39.4	22.6	0.00e+00	92	30	0	1040187392	50	6028
2026-01-10 15:09:03.81	216.05	34.77	-38.8	-39.9	22.2	0.00e+00	0	30	0	1048576000	50	6343
2026-01-10 15:09:07.85	215.80	33.89	-39.0	-40.0	22.1	0.00e+00	0	30	0	1055916032	50	6438
2026-01-10 15:09:11.89	215.56	33.03	-39.8	-41.0	21.2	0.00e+00	0	30	0	1063256064	52	6413
2026-01-10 15:09:15.93	215.33	32.20	-40.1	-41.4	20.8	0.00e+00	92	30	0	1070596096	52	6720
2026-01-10 15:09:19.97	215.12	31.38	-40.6	-41.9	20.3	0.00e+00	0	30	0	1077936128	52	7144
2026-01-10 15:09:24.01	214.91	30.59	-40.6	-41.9	20.3	0.00e+00	2	30	0	1086324736	54	6367
2026-01-10 15:09:28.05	214.72	29.82	-40.0	-41.2	20.9	0.00e+00	92	30	0	1093664768	54	5879
2026-01-10 15:09:32.09	214.54	29.07	-39.8	-41.0	21.1	0.00e+00	92	30	0	1101004800	52	6436
2026-01-10 15:09:36.13	214.36	28.34	-39.7	-40.8	21.3	0.00e+00	68	30	0	1108344832	52	6313
2026-01-10 15:09:40.17	214.19	27.62	-39.0	-40.1	22.0	0.00e+00	73	30	0	1116733440	52	5790
2026-01-10 15:09:44.21	214.03	26.93	-38.8	-39.9	22.2	0.00e+00	91	30	0	1124073472	50	6339
2026-01-10 15:09:48.25	213.88	26.25	-38.8	-39.9	22.1	0.00e+00	17	30	0	1131413504	50	6348
2026-01-10 15:09:52.29	213.74	25.59	-38.9	-40.0	22.0	0.00e+00	6	30	0	1138753536	50	6401
2026-01-10 15:09:56.32	213.60	24.94	-38.6	-39.6	22.4	0.00e+00	71	30	0	1146093568	50	6154
2026-01-10 15:10:00.36	213.47	24.31	-37.8	-38.7	23.1	0.00e+00	91	30	0	1154482176	50	5566
2026-01-10 15:10:04.39	213.34	23.69	-37.6	-38.5	23.3	0.00e+00	73	30	0	1161822208	48	6085
2026-01-10 15:10:08.43	213.22	23.09	-37.7	-38.6	23.2	0.00e+00	0	30	0	1169162240	48	6151
2026-01-10 15:10:12.47	213.10	22.50	-37.6	-38.5	23.3	0.00e+00	6	30	0	1176502272	48	6064
2026-01-10 15:10:16.51	212.99	21.93	-37.9	-38.8	23.1	0.00e+00	92	30	0	1184890880	48	6290
2026-01-10 15:10:20.55	212.88	21.36	-37.9	-38.9	23.0	0.00e+00	81	29	0	1192230912	48	6332
2026-01-10 15:10:24.58	212.78	20.82	-38.3	-39.3	22.6	0.00e+00	0	29	0	1199570944	48	6661
2026-01-10 15:10:28.62	212.68	20.28	-38.6	-39.7	22.3	0.00e+00	6	30	0	1206910976	48	6930
2026-01-10 15:10:32.66	212.59	19.75	-38.5	-39.5	22.4	0.00e+00	95	29	0	1214251008	48	6795
2026-01-10 15:10:36.70	212.49	19.23	-38.6	-39.6	22.4	0.00e+00	8	29	0	1222639616	48	6874
2026-01-10 15:10:40.74	212.41	18.72	-38.5	-39.5	22.4	0.00e+00	71	29	0	1229979648	48	6829
2026-01-10 15:10:44.78	212.32	18.23	-35.8	-39.6	17.8	1.40e-02	7	29	0	1237319680	44	8656
2026-01-10 15:10:48.81	212.24	17.74	-36.0	-39.8	18.5	1.87e-02	92	29	0	1244659712	44	8884
2026-01-10 15:10:52.85	212.16	17.26	-33.3	-39.7	16.7	4.80e-02	0	29	0	1251999744	40	11090
2026-01-10 15:10:56.89	212.08	16.80	-35.5	-40.0	17.7	3.18e-02	7	29	0	1260388352	42	10168
2026-01-10 15:11:00.93	212.01	16.34	-39.1	-40.2	21.7	0.00e+00	92	29	0	1267728384	50	6567
2026-01-10 15:11:04.97	211.94	15.89	-39.3	-40.5	21.4	0.00e+00	92	29	0	1275068416	50	6789
2026-01-10 15:11:09.00	211.87	15.44	-39.6	-40.8	21.0	0.00e+00	0	29	0	1282408448	50	7069
2026-01-10 15:11:13.04	211.81	15.01	-39.7	-40.9	21.1	0.00e+00	0	29	0	1290797056	52	6320
2026-01-10 15:11:17.08	211.74	14.58	-39.6	-40.8	21.1	0.00e+00	92	29	0	1298137088	52	6285
2026-01-10 15:11:21.12	211.68	14.16	-39.5	-40.7	21.2	0.00e+00	83	29	0	1305477120	52	6199
2026-01-10 15:11:25.16	211.62	13.75	-39.4	-40.5	21.4	0.00e+00	7	29	0	1312817152	52	6078
2026-01-10 15:11:29.19	211.56	13.34	-39.4	-40.5	21.4	0.00e+00	0	29	0	1320157184	52	6097
2026-01-10 15:11:33.23	211.51	12.94	-39.3	-40.4	21.5	0.00e+00	92	29	0	1328545792	52	6001
2026-01-10 15:11:37.27	211.45	12.55	-39.1	-40.3	21.6	0.00e+00	4	29	0	1335885824	52	5897
2026-01-10 15:11:41.31	211.40	12.16	-39.1	-40.3	21.5	0.00e+00	76	29	0	1343225856	52	5899
2026-01-10 15:11:45.35	211.35	11.78	-39.3	-40.5	21.3	0.00e+00	78	29	0	1350565888	52	6062
2026-01-10 15:11:49.39	211.30	11.41	-39.1	-40.2	21.5	0.00e+00	92	29	0	1358954496	52	5878
2026-01-10 15:11:53.43	211.26	11.04	-39.4	-40.5	21.3	0.00e+00	6	29	0	1366294528	52	6077
2026-01-10 15:11:57.47	211.21	10.67	-39.4	-40.6	21.1	0.00e+00	6	29	0	1373634560	52	6153
2026-01-10 15:12:01.50	211.17	10.31	-39.6	-40.8	20.9	0.00e+00	0	29	0	1380974592	52	6303
2026-01-10 15:12:05.54	211.12	9.96	-39.9	-41.2	20.5	0.00e+00	92	29	0	1388314624	52	6591
2026-01-10 15:12:09.58	211.08	9.61	-39.9	-41.2	20.6	0.00e+00	0	29	0	1396703232	52	6593
2026-01-10 15:12:13.62	211.04	9.27	-40.1	-41.4	20.3	0.00e+00	0	29	0	1404043264	52	6717
2026-01-10 15:12:17.65	211.00	8.93	-40.2	-41.6	20.1	0.00e+00	0	29	0	1411383296	52	6881
2026-01-10 15:12:21.69	210.96	8.60	-40.1	-41.5	20.2	0.00e+00	91	29	0	1418723328	52	6791
2026-01-10 15:12:25.73	210.93	8.27	-40.4	-41.9	19.8	0.00e+00	78	29	0	1427111936	52	7091
2026-01-10 15:12:29.77	210.89	7.94	-40.4	-41.8	19.7	0.00e+00	80	29	0	1434451968	52	7085
2026-01-10 15:12:33.81	210.86	7.62	-40.4	-41.9	19.7	0.00e+00	81	29	0	1441792000	52	7109
2026-01-10 15:12:37.85	210.82	7.30	-40.4	-41.8	19.7	0.00e+00	92	29	0	1449132032	52	7042
2026-01-10 15:12:41.89	210.79	6.99	-40.5	-42.0	19.5	0.00e+00	2	29	0	1456472064	52	7176
2026-01-10 15:12:45.93	210.76	6.68	-40.4	-41.9	19.5	0.00e+00	0	29	0	1464860672	52	7101
2026-01-10 15:12:49.97	210.73	6.37	-40.5	-42.0	19.5	0.00e+00	91	29	0	1472200704	52	7173
2026-01-10 15:12:54.01	210.70	6.07	-40.6	-42.2	19.3	0.00e+00	82	29	0	1479540736	52	7351
2026-01-10 15:12:58.05	210.67	5.77	-40.4	-41.9	19.4	0.00e+00	0	29	0	1486880768	54	6367
2026-01-10 15:13:02.09	210.64	5.47	-40.5	-42.1	19.3	0.00e+00	4	29	0	1495269376	54	6465
2026-01-10 15:13:06.13	210.61	5.18	-40.5	-42.1	19.2	0.00e+00	91	28	0	1502609408	54	6466
2026-01-10 15:13:10.17	210.59	4.89	-40.5	-42.1	19.2	0.00e+00	79	29	0	1509949440	54	6468
2026-01-10 15:13:14.21	210.56	4.60	-40.9	-42.5	18.7	0.00e+00	0	29	0	1517289472	54	6799
2026-01-10 15:13:18.25	210.53	4.32	-40.8	-42.4	18.8	0.00e+00	0	28	0	1524629504	54	6716
2026-01-10 15:13:22.29	210.51	4.04	-41.1	-42.9	18.2	0.00e+00	92	29	0	1533018112	54	7109
2026-01-10 15:13:26.33	210.49	3.76	-40.7	-42.4	18.6	0.00e+00	81	28	0	1540358144	54	6724
2026-01-10 15:13:30.37	210.46	3.48	-40.8	-42.5	18.4	0.00e+00	0	28	0	1547698176	54	6791
2026-01-10 15:13:34.40	210.44	3.21	-41.1	-42.9	18.2	0.00e+00	0	28	0	1555038208	56	6357
2026-01-10 15:13:38.44	210.42	2.94	-47.4	-62.6	3.6	1.51e+00	0	28	104	1561329664	60	48613
2026-01-10 15:13:42.48	210.40	2.68	-48.2	-63.4	3.6	1.51e+00	0	28	104	1561329664	60	53596
2026-01-10 15:13:46.52	210.38	2.41	-48.2	-63.5	3.6	1.51e+00	0	29	104	1561329664	60	54129
2026-01-10 15:13:50.56	210.36	2.15	-48.1	-63.3	3.6	1.51e+00	0	28	104	1561329664	60	53123
2026-01-10 15:13:54.60	210.34	1.89	-48.2	-63.4	3.6	1.51e+00	0	28	104	1561329664	60	53238
2026-01-10 15:13:58.64	210.32	1.63	-48.2	-63.4	3.6	1.51e+00	0	28	104	1561329664	60	53269
2026-01-10 15:14:02.68	210.30	1.38	-48.2	-63.3	3.6	1.51e+00	0	29	104	1561329664	60	53138
2026-01-10 15:14:06.72	210.28	1.13	-48.2	-63.3	3.6	1.51e+00	0	28	104	1561329664	60	53061
2026-01-10 15:14:10.76	210.26	0.88	-48.1	-63.4	3.6	1.51e+00	0	28	104	1561329664	60	53231
2026-01-10 15:14:14.80	210.25	0.63	-48.1	-63.3	3.6	1.51e+00	0	28	104	1561329664	60	52787
2026-01-10 15:14:18.84	210.23	0.38	-48.1	-63.3	3.6	1.51e+00	0	28	104	1561329664	60	52673
2026-01-10 15:14:22.88	210.22	0.14	-48.1	-63.3	3.6	1.51e+00	0	28	104	1561329664	60	52843

#Closed at: 2026-01-10 15:14:25
#Recorded file [1561 MB]: D:/lorett/data/35029_260111_025857.dat