passes_logs/2026/01/10/R4.6S_Anadyr/R4.6S_Anadyr__20260110_212632_TY-39_rec.log

#Pass ID: 20260110_212632_TY-39
#Satellite: TY-39
#Configuration: TY-39
#almurnet v.1.7.20251203
#Start time: 2026-01-10 21:26:38

#Version: 2.2.20231116
#Station: R4.6S_Anadyr
#Location: 177.4865 lon 64.73178 lat
#TLE: 1 51832U 22019J   26009.95414056  .00002581  00000-0  12418-3 0  9999
#TLE: 2 51832  97.3652  76.7669 0010387  67.4480 292.7854 15.19614524213766

#Time	Az	El	Level	Level2	SNR	BER	BlckErr	Temp	State	Recorded	gain1	gain2
2026-01-10 21:26:38.50	22.06	0.34	-48.1	-60.6	3.4	1.52e+00	0	27	0	0	60	37633
2026-01-10 21:26:41.53	22.30	0.52	-48.4	-50.9	3.6	0.00e+00	0	28	104	0	60	42843
2026-01-10 21:26:44.56	22.54	0.69	-48.2	-50.6	3.6	0.00e+00	0	28	104	0	60	41710
2026-01-10 21:26:47.59	22.79	0.87	-47.8	-50.3	3.6	0.00e+00	0	29	104	0	60	40101
2026-01-10 21:26:50.62	23.05	1.05	-46.7	-49.3	3.6	0.00e+00	0	29	104	0	60	35626
2026-01-10 21:26:53.65	23.30	1.22	-46.7	-49.2	3.6	0.00e+00	0	29	104	0	60	35185
2026-01-10 21:26:56.67	23.56	1.40	-46.7	-49.2	3.6	0.00e+00	0	29	104	0	60	35344
2026-01-10 21:26:59.70	23.82	1.58	-46.7	-49.2	3.6	0.00e+00	0	29	104	0	60	35282
2026-01-10 21:27:02.73	24.09	1.76	-46.7	-49.1	3.6	0.00e+00	0	29	104	0	60	35011
2026-01-10 21:27:05.77	24.36	1.95	-46.6	-49.1	3.6	0.00e+00	0	29	104	0	60	35077
2026-01-10 21:27:08.80	24.64	2.13	-46.6	-49.1	3.6	0.00e+00	0	29	104	0	60	35044
2026-01-10 21:27:11.83	24.92	2.32	-46.6	-49.0	3.6	0.00e+00	0	29	104	0	60	34556
2026-01-10 21:27:14.86	25.20	2.50	-46.6	-49.1	3.6	0.00e+00	0	29	104	0	60	35040
2026-01-10 21:27:17.89	25.49	2.69	-46.6	-49.1	3.6	0.00e+00	0	29	104	0	60	34982
2026-01-10 21:27:20.92	25.78	2.88	-46.6	-49.1	3.6	0.00e+00	0	29	104	0	60	35114
2026-01-10 21:27:23.95	26.08	3.07	-46.7	-49.1	3.6	0.00e+00	0	30	104	0	60	35077
2026-01-10 21:27:26.97	26.38	3.26	-46.7	-49.2	3.6	0.00e+00	0	30	104	0	60	35194
2026-01-10 21:27:30.01	26.69	3.45	-46.6	-49.1	3.6	0.00e+00	0	30	104	0	60	34989
2026-01-10 21:27:33.04	27.00	3.64	-46.6	-49.1	3.6	0.00e+00	0	30	104	0	60	35062
2026-01-10 21:27:36.07	27.32	3.84	-46.7	-49.2	3.6	0.00e+00	0	30	104	0	60	35193
2026-01-10 21:27:39.10	27.64	4.03	-46.8	-49.2	3.6	0.00e+00	0	30	104	0	60	35359
2026-01-10 21:27:42.12	27.97	4.23	-47.0	-49.5	3.6	0.00e+00	0	30	104	0	60	36505
2026-01-10 21:27:45.15	28.30	4.43	-46.8	-49.2	3.6	0.00e+00	0	30	104	0	60	35506
2026-01-10 21:27:48.18	28.64	4.63	-45.5	-47.4	3.6	0.00e+00	0	30	104	0	60	28614
2026-01-10 21:27:51.21	28.98	4.83	-31.5	-31.9	14.0	6.34e-03	0	30	0	176160768	38	17074
2026-01-10 21:27:54.24	29.33	5.03	-30.5	-30.9	14.5	6.90e-06	0	30	0	402653184	38	15223
2026-01-10 21:27:57.27	29.69	5.23	-28.6	-29.0	15.3	0.00e+00	0	31	0	629145600	32	17342
2026-01-10 21:28:00.29	30.05	5.44	-28.8	-29.3	15.2	0.00e+00	0	30	0	855638016	32	17827
2026-01-10 21:28:03.32	30.41	5.64	-28.3	-28.8	15.4	0.00e+00	0	31	0	1082130432	32	16853
2026-01-10 21:28:06.35	30.79	5.85	-28.6	-29.1	15.1	0.00e+00	0	31	0	1308622848	32	17420
2026-01-10 21:28:09.38	31.17	6.06	-28.3	-28.7	15.4	0.00e+00	0	31	0	1535115264	32	16778
2026-01-10 21:28:12.41	31.56	6.27	-27.7	-28.1	15.7	0.00e+00	0	31	0	1761607680	32	15679
2026-01-10 21:28:15.44	31.95	6.48	-28.3	-28.7	15.5	0.00e+00	0	31	0	1996488704	30	18755
2026-01-10 21:28:18.46	32.35	6.69	-28.0	-28.4	15.7	0.00e+00	0	31	0	2214592512	30	18148
2026-01-10 21:28:21.49	32.76	6.91	-27.7	-28.2	15.8	0.00e+00	0	31	0	2449473536	30	17624
2026-01-10 21:28:24.52	33.18	7.12	-27.7	-28.1	15.8	0.00e+00	0	31	0	2675965952	30	17576
2026-01-10 21:28:27.55	33.60	7.34	-27.7	-28.1	15.8	0.00e+00	0	31	0	2902458368	30	17553
2026-01-10 21:28:30.58	34.03	7.56	-27.8	-28.2	15.7	0.00e+00	0	31	0	3128950784	30	17714
2026-01-10 21:28:33.61	34.47	7.78	-27.8	-28.2	15.8	0.00e+00	0	31	0	3355443200	30	17659
2026-01-10 21:28:36.64	34.92	8.00	-27.4	-27.8	15.8	0.00e+00	0	31	0	3581935616	30	16916
2026-01-10 21:28:39.67	35.37	8.22	-27.5	-28.0	15.8	0.00e+00	0	31	0	3808428032	30	17272
2026-01-10 21:28:42.70	35.84	8.44	-27.3	-27.7	16.0	0.00e+00	0	31	0	4034920448	30	16701
2026-01-10 21:28:45.73	36.31	8.67	-27.1	-27.5	15.8	0.00e+00	0	31	0	4261412864	30	16338
2026-01-10 21:28:48.76	36.79	8.89	-27.1	-27.5	15.7	0.00e+00	0	31	0	4487905280	30	16351
2026-01-10 21:28:51.79	37.28	9.12	-27.0	-27.4	15.8	0.00e+00	0	31	0	4722786304	30	16198
2026-01-10 21:28:54.82	37.78	9.35	-26.9	-27.4	15.8	0.00e+00	0	31	0	4940890112	30	16073
2026-01-10 21:28:57.85	38.29	9.58	-26.8	-27.3	16.0	0.00e+00	0	31	0	5175771136	30	15943
2026-01-10 21:29:00.87	38.81	9.81	-26.8	-27.3	16.1	0.00e+00	0	31	0	5402263552	30	15894
2026-01-10 21:29:03.90	39.33	10.04	-26.7	-27.2	16.0	0.00e+00	0	31	0	5628755968	28	17671
2026-01-10 21:29:06.93	39.87	10.27	-26.6	-27.1	16.0	0.00e+00	0	31	0	5855248384	28	17475
2026-01-10 21:29:09.96	40.42	10.51	-26.5	-26.9	16.2	0.00e+00	0	31	0	6081740800	28	17198
2026-01-10 21:29:12.99	40.98	10.74	-26.5	-26.9	16.1	0.00e+00	0	31	0	6308233216	28	17131
2026-01-10 21:29:16.02	41.55	10.98	-26.3	-26.7	16.3	0.00e+00	0	32	0	6534725632	28	16777
2026-01-10 21:29:19.05	42.13	11.21	-26.3	-26.7	16.1	0.00e+00	0	32	0	6761218048	28	16809
2026-01-10 21:29:22.08	42.73	11.45	-26.1	-26.5	16.1	0.00e+00	0	32	0	6987710464	28	16396
2026-01-10 21:29:25.10	43.33	11.69	-26.0	-26.4	15.7	0.00e+00	0	32	0	7214202880	28	16183
2026-01-10 21:29:28.13	43.94	11.93	-25.9	-26.3	16.2	0.00e+00	0	31	0	7449083904	28	16005
2026-01-10 21:29:31.16	44.57	12.17	-25.9	-26.3	16.3	0.00e+00	0	32	0	7667187712	28	15984
2026-01-10 21:29:34.19	45.21	12.41	-25.9	-26.4	16.3	0.00e+00	0	32	0	7902068736	28	16119
2026-01-10 21:29:37.22	45.86	12.65	-25.8	-26.3	16.1	0.00e+00	0	32	0	8128561152	26	17879
2026-01-10 21:29:40.25	46.53	12.88	-25.7	-26.1	16.3	0.00e+00	0	32	0	8355053568	26	17562
2026-01-10 21:29:43.28	47.21	13.12	-25.6	-26.1	16.0	0.00e+00	0	32	0	8581545984	26	17470
2026-01-10 21:29:46.31	47.90	13.36	-25.6	-26.1	16.5	0.00e+00	0	32	0	8808038400	26	17508
2026-01-10 21:29:49.34	48.60	13.60	-25.5	-25.9	16.5	0.00e+00	0	32	0	9034530816	26	17107
2026-01-10 21:29:52.37	49.32	13.84	-25.5	-25.9	16.4	0.00e+00	0	32	0	9261023232	26	17200
2026-01-10 21:29:55.40	50.05	14.08	-25.5	-25.9	15.7	0.00e+00	0	32	0	9487515648	26	17129
2026-01-10 21:29:58.42	50.79	14.32	-25.2	-25.7	15.6	0.00e+00	0	32	0	9714008064	26	16630
2026-01-10 21:30:01.46	51.55	14.55	-25.1	-25.6	15.5	0.00e+00	0	32	0	9940500480	26	16456
2026-01-10 21:30:04.49	52.33	14.79	-25.0	-25.4	15.5	0.00e+00	0	32	0	10166992896	26	16214
2026-01-10 21:30:07.52	53.11	15.02	-25.0	-25.5	16.2	0.00e+00	0	32	0	10401873920	26	16326
2026-01-10 21:30:10.55	53.91	15.25	-25.0	-25.5	16.4	0.00e+00	0	32	0	10628366336	26	16254
2026-01-10 21:30:13.58	54.73	15.48	-24.8	-25.3	16.4	0.00e+00	0	32	0	10854858752	26	15948
2026-01-10 21:30:16.61	55.56	15.71	-24.8	-25.2	16.4	0.00e+00	0	32	0	11081351168	24	17767
2026-01-10 21:30:19.64	56.41	15.94	-24.7	-25.1	16.6	0.00e+00	0	32	0	11307843584	24	17584
2026-01-10 21:30:22.67	57.27	16.16	-24.8	-25.2	16.5	0.00e+00	0	32	0	11534336000	24	17792
2026-01-10 21:30:25.70	58.14	16.38	-24.5	-25.0	16.7	0.00e+00	0	32	0	11760828416	24	17223
2026-01-10 21:30:28.73	59.03	16.60	-24.5	-25.0	16.1	0.00e+00	0	32	0	11987320832	24	17224
2026-01-10 21:30:31.76	59.94	16.81	-24.5	-24.9	16.6	0.00e+00	0	32	0	12213813248	24	17199
2026-01-10 21:30:34.79	60.86	17.02	-24.4	-24.9	16.1	0.00e+00	0	32	0	12440305664	24	17061
2026-01-10 21:30:37.82	61.79	17.23	-24.3	-24.8	16.5	0.00e+00	0	32	0	12675186688	24	16841
2026-01-10 21:30:40.85	62.74	17.43	-24.3	-24.8	16.7	0.00e+00	0	32	0	12893290496	24	16821
2026-01-10 21:30:43.88	63.70	17.62	-24.4	-24.8	16.7	0.00e+00	0	32	0	13128171520	24	16935
2026-01-10 21:30:46.91	64.68	17.81	-24.3	-24.7	16.6	0.00e+00	0	32	0	13354663936	24	16740
2026-01-10 21:30:49.94	65.67	18.00	-24.2	-24.6	16.6	0.00e+00	0	32	0	13581156352	24	16562
2026-01-10 21:30:52.97	66.67	18.18	-24.1	-24.5	16.2	0.00e+00	0	32	0	13807648768	24	16353
2026-01-10 21:30:56.00	67.69	18.35	-24.0	-24.5	16.7	0.00e+00	0	32	0	14034141184	24	16297
2026-01-10 21:30:59.02	68.72	18.52	-23.9	-24.4	16.7	0.00e+00	0	32	0	14260633600	24	16118
2026-01-10 21:31:02.05	69.77	18.68	-24.1	-24.5	16.6	0.00e+00	0	32	0	14487126016	24	16369
2026-01-10 21:31:05.09	70.83	18.83	-23.9	-24.4	16.8	0.00e+00	0	32	0	14713618432	24	16095
2026-01-10 21:31:08.11	71.89	18.98	-23.9	-24.4	16.2	0.00e+00	0	32	0	14940110848	24	16125
2026-01-10 21:31:11.14	72.97	19.12	-24.1	-24.5	16.6	0.00e+00	0	32	0	15166603264	24	16374
2026-01-10 21:31:14.16	74.06	19.25	-23.8	-24.3	16.7	0.00e+00	0	32	0	15393095680	22	17812
2026-01-10 21:31:17.19	75.16	19.37	-24.0	-24.5	16.8	0.00e+00	0	32	0	15619588096	22	18224
2026-01-10 21:31:20.22	76.27	19.48	-23.8	-24.2	16.8	0.00e+00	0	32	0	15846080512	22	17705
2026-01-10 21:31:23.25	77.39	19.58	-23.7	-24.2	16.8	0.00e+00	0	32	0	16080961536	22	17676
2026-01-10 21:31:26.28	78.52	19.68	-23.8	-24.2	16.5	0.00e+00	0	32	0	16307453952	22	17705
2026-01-10 21:31:29.31	79.65	19.76	-23.7	-24.2	16.5	0.00e+00	0	33	0	16533946368	22	17675
2026-01-10 21:31:32.34	80.80	19.84	-23.6	-24.0	16.9	0.00e+00	0	32	0	16760438784	22	17344
2026-01-10 21:31:35.37	81.94	19.90	-23.6	-24.1	16.8	0.00e+00	0	32	0	16986931200	22	17479
2026-01-10 21:31:38.39	83.09	19.96	-23.5	-23.9	16.8	0.00e+00	0	33	0	17213423616	22	17159
2026-01-10 21:31:41.43	84.25	20.00	-24.1	-24.5	16.7	0.00e+00	0	32	0	17439916032	22	18426
2026-01-10 21:31:44.46	85.42	20.03	-23.6	-24.1	16.5	0.00e+00	0	33	0	17666408448	22	17448
2026-01-10 21:31:47.49	86.58	20.06	-23.5	-24.0	16.8	0.00e+00	0	33	0	17892900864	22	17287
2026-01-10 21:31:50.52	87.74	20.07	-23.5	-23.9	16.9	0.00e+00	0	32	0	18127781888	22	17192
2026-01-10 21:31:53.55	88.91	20.07	-23.6	-24.1	16.8	0.00e+00	0	33	0	18345885696	22	17402
2026-01-10 21:31:56.58	90.08	20.06	-23.6	-24.0	16.8	0.00e+00	0	33	0	18580766720	22	17281
2026-01-10 21:31:59.61	91.24	20.04	-23.6	-24.0	16.8	0.00e+00	0	33	0	18807259136	22	17377
2026-01-10 21:32:02.64	92.40	20.02	-23.6	-24.1	16.8	0.00e+00	0	33	0	19033751552	22	17453
2026-01-10 21:32:05.67	93.56	19.97	-23.6	-24.1	16.8	0.00e+00	0	33	0	19260243968	22	17481
2026-01-10 21:32:08.70	94.72	19.92	-23.9	-24.3	16.7	0.00e+00	0	33	0	19486736384	22	17920
2026-01-10 21:32:11.73	95.87	19.86	-23.8	-24.3	16.8	0.00e+00	0	33	0	19713228800	22	17847
2026-01-10 21:32:14.76	97.01	19.79	-23.8	-24.3	16.8	0.00e+00	0	33	0	19939721216	22	17855
2026-01-10 21:32:17.79	98.15	19.71	-23.8	-24.3	16.6	0.00e+00	0	33	0	20166213632	22	17810
2026-01-10 21:32:20.82	99.28	19.62	-23.6	-24.1	16.8	0.00e+00	0	33	0	20401094656	22	17512
2026-01-10 21:32:23.85	100.41	19.52	-23.8	-24.2	16.8	0.00e+00	0	33	0	20619198464	22	17734
2026-01-10 21:32:26.88	101.52	19.41	-23.8	-24.2	16.8	0.00e+00	0	33	0	20854079488	22	17685
2026-01-10 21:32:29.91	102.63	19.29	-23.8	-24.3	16.7	0.00e+00	0	33	0	21072183296	22	17919
2026-01-10 21:32:32.94	103.73	19.17	-23.9	-24.3	16.8	0.00e+00	0	33	0	21307064320	22	17975
2026-01-10 21:32:35.97	104.81	19.03	-23.8	-24.2	16.8	0.00e+00	0	33	0	21533556736	22	17777
2026-01-10 21:32:39.00	105.89	18.89	-23.9	-24.4	16.9	0.00e+00	0	33	0	21760049152	22	18047
2026-01-10 21:32:42.03	106.95	18.74	-24.2	-24.7	16.8	0.00e+00	0	33	0	21986541568	22	18688
2026-01-10 21:32:45.06	108.00	18.58	-24.3	-24.8	16.7	0.00e+00	0	33	0	22213033984	22	18920
2026-01-10 21:32:48.09	109.04	18.41	-24.0	-24.5	16.8	0.00e+00	0	33	0	22439526400	22	18243
2026-01-10 21:32:51.11	110.06	18.24	-24.0	-24.5	16.8	0.00e+00	0	33	0	22666018816	22	18243
2026-01-10 21:32:54.14	111.07	18.07	-24.3	-24.7	16.7	0.00e+00	0	33	0	22892511232	22	18795
2026-01-10 21:32:57.17	112.07	17.88	-24.4	-24.8	16.7	0.00e+00	0	33	0	23119003648	22	19073
2026-01-10 21:33:00.20	113.06	17.69	-24.2	-24.6	16.8	0.00e+00	0	33	0	23345496064	22	18639
2026-01-10 21:33:03.22	114.03	17.50	-24.2	-24.7	16.8	0.00e+00	0	33	0	23580377088	22	18756
2026-01-10 21:33:06.25	114.98	17.30	-24.3	-24.7	16.8	0.00e+00	0	33	0	23798480896	22	18856
2026-01-10 21:33:09.28	115.92	17.09	-24.4	-24.9	16.7	0.00e+00	0	33	0	24033361920	22	19121
2026-01-10 21:33:12.31	116.85	16.88	-24.5	-25.0	16.7	0.00e+00	0	33	0	24259854336	22	19334
2026-01-10 21:33:15.34	117.76	16.67	-24.5	-25.0	16.7	0.00e+00	0	33	0	24486346752	22	19416
2026-01-10 21:33:18.37	118.66	16.45	-24.6	-25.1	16.7	0.00e+00	0	33	0	24712839168	22	19657
2026-01-10 21:33:21.40	119.54	16.23	-24.7	-25.1	16.7	0.00e+00	0	33	0	24939331584	24	17543
2026-01-10 21:33:24.43	120.41	16.01	-24.8	-25.3	16.6	0.00e+00	0	33	0	25165824000	24	17864
2026-01-10 21:33:27.46	121.26	15.79	-24.9	-25.3	16.7	0.00e+00	0	33	0	25392316416	24	17984
2026-01-10 21:33:30.49	122.10	15.56	-24.9	-25.4	16.6	0.00e+00	0	33	0	25618808832	24	18026
2026-01-10 21:33:33.52	122.93	15.33	-24.9	-25.3	16.7	0.00e+00	0	33	0	25853689856	24	17938
2026-01-10 21:33:36.54	123.73	15.10	-24.9	-25.4	16.7	0.00e+00	0	33	0	26071793664	24	18080
2026-01-10 21:33:39.57	124.53	14.86	-25.0	-25.4	16.6	0.00e+00	0	33	0	26306674688	24	18186
2026-01-10 21:33:42.60	125.31	14.63	-25.1	-25.6	16.6	0.00e+00	0	33	0	26524778496	24	18480
2026-01-10 21:33:45.62	126.07	14.39	-25.2	-25.7	16.6	0.00e+00	0	33	0	26759659520	24	18675
2026-01-10 21:33:48.65	126.82	14.15	-25.3	-25.8	16.5	0.00e+00	0	33	0	26986151936	24	18905
2026-01-10 21:33:51.69	127.56	13.91	-25.4	-25.9	16.5	0.00e+00	0	33	0	27212644352	24	19165
2026-01-10 21:33:54.72	128.29	13.67	-25.4	-25.9	16.5	0.00e+00	0	33	0	27439136768	24	19111
2026-01-10 21:33:57.75	129.00	13.43	-25.6	-26.0	16.5	0.00e+00	0	33	0	27665629184	24	19474
2026-01-10 21:34:00.78	129.70	13.19	-25.6	-26.1	16.5	0.00e+00	0	33	0	27892121600	24	19659
2026-01-10 21:34:03.81	130.38	12.95	-25.7	-26.1	16.6	0.00e+00	0	33	0	28118614016	26	17585
2026-01-10 21:34:06.83	131.05	12.71	-25.7	-26.1	16.5	0.00e+00	0	33	0	28345106432	26	17543
2026-01-10 21:34:09.86	131.71	12.47	-25.8	-26.2	16.4	0.00e+00	0	33	0	28571598848	26	17786
2026-01-10 21:34:12.89	132.35	12.23	-25.9	-26.3	16.4	0.00e+00	0	33	0	28798091264	26	17957
2026-01-10 21:34:15.92	132.99	11.99	-26.0	-26.5	16.4	0.00e+00	0	33	0	29032972288	26	18272
2026-01-10 21:34:18.95	133.61	11.75	-26.2	-26.6	16.3	0.00e+00	0	33	0	29251076096	26	18601
2026-01-10 21:34:21.98	134.22	11.51	-26.2	-26.7	16.3	0.00e+00	0	33	0	29485957120	26	18689
2026-01-10 21:34:25.01	134.81	11.27	-26.3	-26.8	16.3	0.00e+00	0	33	0	29712449536	26	18875
2026-01-10 21:34:28.04	135.40	11.03	-26.4	-26.8	16.3	0.00e+00	0	33	0	29938941952	26	18993
2026-01-10 21:34:31.06	135.97	10.80	-26.3	-26.8	16.3	0.00e+00	0	33	0	30165434368	26	18934
2026-01-10 21:34:34.09	136.54	10.56	-26.3	-26.8	16.3	0.00e+00	0	33	0	30391926784	26	18968
2026-01-10 21:34:37.12	137.09	10.33	-26.4	-26.9	16.3	0.00e+00	0	33	0	30618419200	26	19166
2026-01-10 21:34:40.15	137.64	10.09	-26.6	-27.0	16.2	0.00e+00	0	33	0	30844911616	26	19430
2026-01-10 21:34:43.18	138.17	9.86	-26.7	-27.1	16.3	0.00e+00	0	33	0	31071404032	28	17587
2026-01-10 21:34:46.21	138.69	9.63	-26.9	-27.4	16.1	0.00e+00	0	33	0	31297896448	28	18093
2026-01-10 21:34:49.24	139.21	9.40	-27.3	-27.8	16.0	0.00e+00	0	33	0	31524388864	28	18960
2026-01-10 21:34:52.27	139.71	9.17	-28.0	-28.4	15.7	0.00e+00	0	33	0	31750881280	30	18185
2026-01-10 21:34:55.30	140.20	8.94	-28.9	-29.3	15.2	0.00e+00	0	33	0	31977373696	32	17903
2026-01-10 21:34:58.33	140.69	8.71	-29.8	-30.2	14.7	0.00e+00	0	33	0	32212254720	34	17790
2026-01-10 21:35:01.36	141.16	8.48	-30.4	-30.9	14.2	0.00e+00	0	33	0	32438747136	34	19102
2026-01-10 21:35:04.39	141.63	8.26	-30.4	-30.8	14.3	0.00e+00	0	32	0	32665239552	34	19002
2026-01-10 21:35:07.42	142.09	8.03	-30.0	-30.4	14.6	0.00e+00	0	32	0	32891731968	34	18109
2026-01-10 21:35:10.45	142.54	7.81	-29.8	-30.3	14.7	0.00e+00	0	32	0	33118224384	34	17873
2026-01-10 21:35:13.48	142.98	7.59	-29.6	-30.0	14.8	0.00e+00	0	32	0	33344716800	34	17318
2026-01-10 21:35:16.51	143.42	7.37	-29.3	-29.7	14.9	0.00e+00	0	32	0	33571209216	34	16723
2026-01-10 21:35:19.54	143.84	7.15	-29.2	-29.6	15.1	0.00e+00	0	32	0	33797701632	34	16539
2026-01-10 21:35:22.56	144.26	6.94	-29.2	-29.6	15.1	0.00e+00	0	32	0	34024194048	34	16527
2026-01-10 21:35:25.59	144.67	6.72	-29.1	-29.6	15.1	0.00e+00	0	32	0	34250686464	34	16492
2026-01-10 21:35:28.62	145.07	6.51	-29.2	-29.6	15.1	0.00e+00	0	32	0	34485567488	34	16606
2026-01-10 21:35:31.65	145.47	6.29	-28.9	-29.3	15.2	0.00e+00	0	32	0	34703671296	32	17932
2026-01-10 21:35:34.68	145.86	6.08	-29.2	-29.7	15.1	0.00e+00	0	32	0	34938552320	32	18688
2026-01-10 21:35:37.71	146.24	5.87	-29.4	-29.8	15.0	0.00e+00	0	32	0	35165044736	32	18963
2026-01-10 21:35:40.71	146.62	5.66	-29.0	-29.4	15.3	0.00e+00	0	32	0	35391537152	32	18188
2026-01-10 21:35:43.74	146.99	5.46	-29.1	-29.5	15.1	0.00e+00	0	32	0	35618029568	32	18325
2026-01-10 21:35:46.77	147.35	5.25	-46.8	-49.3	3.6	0.00e+00	0	32	104	35651584000	60	35702
2026-01-10 21:35:49.80	147.71	5.05	-46.8	-49.3	3.6	0.00e+00	0	32	104	35651584000	60	35873
2026-01-10 21:35:52.83	148.06	4.84	-46.8	-49.4	3.6	0.00e+00	0	32	104	35651584000	60	35964
2026-01-10 21:35:55.86	148.40	4.64	-46.9	-49.4	3.6	0.00e+00	0	32	104	35651584000	60	36278
2026-01-10 21:35:58.88	148.74	4.44	-46.4	-49.0	3.6	0.00e+00	0	32	104	35651584000	60	34378
2026-01-10 21:36:01.91	149.07	4.24	-46.7	-49.2	3.6	0.00e+00	0	32	104	35651584000	60	35358
2026-01-10 21:36:04.95	149.40	4.04	-46.5	-49.1	3.6	0.00e+00	0	32	104	35651584000	60	34814
2026-01-10 21:36:07.97	149.73	3.84	-46.7	-49.2	3.6	0.00e+00	0	32	104	35651584000	60	35270
2026-01-10 21:36:11.00	150.04	3.65	-46.2	-48.7	3.6	0.00e+00	0	32	104	35651584000	60	33267
2026-01-10 21:36:14.03	150.36	3.45	-46.5	-49.0	3.6	0.00e+00	0	31	104	35651584000	60	34557
2026-01-10 21:36:17.05	150.66	3.26	-46.3	-48.8	3.5	0.00e+00	0	31	104	35651584000	60	33607
2026-01-10 21:36:20.09	150.97	3.07	-46.6	-49.1	3.6	0.00e+00	0	31	104	35651584000	60	34790
2026-01-10 21:36:23.12	151.27	2.88	-46.9	-49.4	3.6	0.00e+00	0	31	104	35651584000	60	36325
2026-01-10 21:36:26.15	151.56	2.69	-48.1	-50.5	3.6	0.00e+00	0	31	104	35651584000	60	41135
2026-01-10 21:36:29.18	151.85	2.50	-48.0	-50.6	3.6	0.00e+00	0	31	104	35651584000	60	41337
2026-01-10 21:36:32.20	152.13	2.31	-48.2	-50.7	3.6	0.00e+00	0	31	104	35651584000	60	41761
2026-01-10 21:36:35.23	152.41	2.13	-48.2	-50.7	3.6	0.00e+00	0	31	104	35651584000	60	41842
2026-01-10 21:36:38.25	152.68	1.94	-48.1	-50.6	3.6	0.00e+00	0	31	104	35651584000	60	41530
2026-01-10 21:36:41.28	152.96	1.76	-48.1	-50.6	3.6	0.00e+00	0	31	104	35651584000	60	41472
2026-01-10 21:36:44.31	153.22	1.58	-48.2	-50.7	3.6	0.00e+00	0	31	104	35651584000	60	41826
2026-01-10 21:36:47.34	153.49	1.40	-48.2	-50.6	3.6	0.00e+00	0	31	104	35651584000	60	41618
2026-01-10 21:36:50.37	153.75	1.21	-48.1	-50.6	3.6	0.00e+00	0	31	104	35651584000	60	41668
2026-01-10 21:36:53.40	154.00	1.04	-48.1	-50.6	3.6	0.00e+00	0	31	104	35651584000	60	41495
2026-01-10 21:36:56.43	154.25	0.86	-48.1	-50.6	3.6	0.00e+00	0	31	104	35651584000	60	41405
2026-01-10 21:36:59.46	154.50	0.68	-48.1	-50.7	3.6	0.00e+00	0	31	104	35651584000	60	41810
2026-01-10 21:37:02.49	154.75	0.50	-48.1	-50.6	3.6	0.00e+00	0	31	104	35651584000	60	41590
2026-01-10 21:37:05.52	154.99	0.33	-48.1	-50.6	3.6	0.00e+00	0	31	104	35651584000	60	41575
2026-01-10 21:37:08.55	155.22	0.15	-48.1	-50.6	3.6	0.00e+00	0	31	104	35651584000	60	41304

#Closed at: 2026-01-10 21:37:11
#Recorded file [35651 MB]: D:/lorett/data/35029_260111_092638.dat