passes_logs/2026/01/10/R4.6S_Anadyr/R4.6S_Anadyr__20260110_233711_AQUA_rec.log

#Pass ID: 20260110_233711_AQUA
#Satellite: AQUA
#Configuration: AQUA
#almurnet v.1.7.20251203
#Start time: 2026-01-10 23:37:15

#Version: 2.2.20231116
#Station: R4.6S_Anadyr
#Location: 177.4865 lon 64.73178 lat
#TLE: 1 27424U 02022A   26009.89520876  .00001045  00000+0  21914-3 0  9996
#TLE: 2 27424  98.4076 336.2372 0002032  84.5955   1.0356 14.61811442260144

#Time	Az	El	Level	Level2	SNR	BER	BlckErr	Temp	State	Recorded	gain1	gain2
2026-01-10 23:37:15.17	97.83	0.22	-48.0	-49.6	5.7	0.00e+00	0	25	0	0	60	36781
2026-01-10 23:37:18.10	97.63	0.39	-48.2	-66.1	3.5	7.69e-01	0	26	104	0	60	77862
2026-01-10 23:37:21.04	97.43	0.55	-48.0	-66.1	3.5	7.69e-01	0	26	104	0	60	77785
2026-01-10 23:37:23.97	97.23	0.71	-47.4	-66.0	3.5	7.69e-01	0	26	104	0	60	76694
2026-01-10 23:37:26.91	97.02	0.88	-47.4	-65.6	3.5	7.69e-01	0	26	104	0	60	72925
2026-01-10 23:37:29.84	96.81	1.04	-46.3	-64.5	3.5	7.69e-01	0	26	104	0	60	64948
2026-01-10 23:37:32.78	96.60	1.21	-46.3	-64.5	3.5	7.69e-01	0	26	104	0	60	64486
2026-01-10 23:37:35.72	96.39	1.37	-46.2	-64.5	3.5	7.69e-01	0	26	104	0	60	64438
2026-01-10 23:37:38.66	96.18	1.54	-46.2	-64.4	3.5	7.69e-01	0	26	104	0	60	64218
2026-01-10 23:37:41.60	95.96	1.71	-46.2	-64.4	3.5	7.69e-01	0	26	104	0	60	64174
2026-01-10 23:37:44.53	95.74	1.87	-46.2	-64.4	3.6	7.69e-01	0	26	104	0	60	64176
2026-01-10 23:37:47.46	95.51	2.04	-46.2	-64.5	3.5	7.69e-01	0	26	104	0	60	64494
2026-01-10 23:37:50.39	95.29	2.21	-46.2	-64.4	3.5	7.69e-01	0	27	104	0	60	63558
2026-01-10 23:37:53.32	95.06	2.38	-46.1	-64.1	3.5	7.69e-01	0	26	104	0	60	61862
2026-01-10 23:37:56.26	94.82	2.55	-46.2	-64.5	3.5	7.69e-01	0	27	104	0	60	64505
2026-01-10 23:37:59.18	94.59	2.72	-46.2	-64.4	3.5	7.69e-01	0	27	104	0	60	64016
2026-01-10 23:38:02.12	94.35	2.90	-46.1	-63.9	3.5	7.69e-01	0	26	104	0	60	60573
2026-01-10 23:38:05.06	94.10	3.07	-46.2	-64.4	3.5	7.69e-01	0	27	104	0	60	63629
2026-01-10 23:38:07.99	93.86	3.24	-43.1	-55.3	3.5	7.69e-01	0	27	104	0	60	22359
2026-01-10 23:38:10.93	93.61	3.42	-46.4	-64.8	3.5	7.69e-01	0	27	104	0	60	66656
2026-01-10 23:38:13.86	93.36	3.59	-46.0	-62.4	3.5	7.69e-01	0	27	104	0	60	50891
2026-01-10 23:38:16.79	93.10	3.77	-39.4	-50.2	3.5	7.69e-01	0	26	104	0	54	17540
2026-01-10 23:38:19.73	92.84	3.95	-37.0	-47.5	3.5	7.69e-01	0	26	104	0	48	18313
2026-01-10 23:38:22.66	92.58	4.12	-44.2	-57.5	3.5	7.69e-01	0	27	104	0	60	28981
2026-01-10 23:38:25.60	92.31	4.30	-40.8	-52.1	3.5	7.69e-01	0	27	104	0	56	19490
2026-01-10 23:38:28.53	92.04	4.48	-38.4	-49.1	3.5	7.69e-01	0	26	104	0	52	17362
2026-01-10 23:38:31.47	91.77	4.66	-45.8	-63.7	3.5	7.69e-01	0	27	104	0	60	59252
2026-01-10 23:38:34.40	91.49	4.84	-38.6	-49.3	3.5	7.69e-01	0	27	104	0	52	17842
2026-01-10 23:38:37.33	91.21	5.02	-36.3	-46.7	3.5	7.69e-01	0	27	104	0	48	16512
2026-01-10 23:38:40.26	90.92	5.21	-46.3	-62.0	3.5	7.69e-01	0	27	104	0	60	48572
2026-01-10 23:38:43.19	90.64	5.39	-38.4	-49.0	3.5	7.69e-01	0	27	104	0	52	17179
2026-01-10 23:38:46.13	90.34	5.57	-36.2	-46.6	3.5	7.69e-01	0	27	104	0	48	16404
2026-01-10 23:38:49.07	90.04	5.76	-46.7	-64.8	3.5	7.69e-01	0	27	104	0	60	66568
2026-01-10 23:38:52.00	89.74	5.94	-41.5	-52.8	3.5	7.69e-01	0	27	104	0	58	18877
2026-01-10 23:38:54.93	89.43	6.13	-38.9	-49.6	3.5	7.69e-01	0	27	104	0	54	16365
2026-01-10 23:38:57.87	89.12	6.32	-46.1	-61.4	3.5	7.69e-01	0	26	104	0	60	45316
2026-01-10 23:39:00.79	88.81	6.50	-42.9	-54.7	3.6	7.69e-01	0	27	104	0	60	20889
2026-01-10 23:39:03.74	88.49	6.69	-37.1	-47.6	3.5	7.69e-01	0	26	104	0	50	16357
2026-01-10 23:39:06.67	88.16	6.88	-42.7	-54.5	4.0	7.69e-01	0	27	104	0	50	36352
2026-01-10 23:39:09.61	87.83	7.07	-41.0	-52.2	3.5	7.69e-01	0	27	104	0	58	17577
2026-01-10 23:39:12.54	87.50	7.26	-41.0	-52.2	3.5	7.69e-01	0	27	104	0	56	19749
2026-01-10 23:39:15.48	87.16	7.45	-36.9	-47.3	3.5	7.69e-01	0	27	104	0	50	15785
2026-01-10 23:39:18.41	86.81	7.65	-46.5	-63.1	3.5	7.69e-01	0	27	104	0	60	54784
2026-01-10 23:39:21.34	86.47	7.84	-36.4	-46.8	3.5	7.69e-01	0	27	104	0	48	16725
2026-01-10 23:39:24.27	86.11	8.03	-37.3	-47.8	3.6	7.69e-01	0	27	104	0	50	16737
2026-01-10 23:39:27.21	85.75	8.23	-46.9	-64.1	3.5	7.69e-01	0	27	104	0	60	61999
2026-01-10 23:39:30.14	85.39	8.42	-35.4	-45.7	3.5	7.69e-01	0	27	104	0	46	16574
2026-01-10 23:39:33.08	85.01	8.62	-37.7	-48.2	3.5	7.69e-01	0	27	104	0	48	19733
2026-01-10 23:39:36.00	84.64	8.81	-47.0	-65.1	3.5	7.69e-01	0	27	104	0	60	69064
2026-01-10 23:39:38.94	84.26	9.01	-37.1	-47.5	3.6	7.69e-01	0	27	104	0	48	18176
2026-01-10 23:39:41.88	83.87	9.20	-36.9	-47.3	3.5	7.69e-01	0	27	104	0	44	22430
2026-01-10 23:39:44.81	83.48	9.40	-46.2	-61.7	3.4	7.69e-01	0	27	104	0	60	46992
2026-01-10 23:39:47.74	83.08	9.60	-37.6	-48.2	3.5	7.69e-01	0	27	104	0	50	17649
2026-01-10 23:39:50.67	82.67	9.80	-34.9	-45.1	3.5	7.69e-01	0	27	104	0	44	17384
2026-01-10 23:39:53.60	82.26	10.00	-39.2	-49.9	3.5	7.69e-01	0	27	104	0	48	24013
2026-01-10 23:39:56.53	81.85	10.20	-39.1	-49.9	3.5	7.69e-01	0	27	104	0	52	19006
2026-01-10 23:39:59.46	81.42	10.39	-37.6	-48.0	3.5	7.69e-01	0	27	104	0	48	19219
2026-01-10 23:40:02.39	80.99	10.59	-42.7	-54.2	3.5	7.69e-01	0	27	104	0	60	19792
2026-01-10 23:40:05.32	80.56	10.79	-34.5	-44.8	3.5	7.69e-01	0	27	104	0	44	16755
2026-01-10 23:40:08.25	80.11	10.99	-34.6	-44.9	3.5	7.69e-01	0	27	104	0	44	16951
2026-01-10 23:40:11.18	79.66	11.19	-43.3	-55.1	3.5	7.69e-01	0	27	104	0	60	21933
2026-01-10 23:40:14.11	79.21	11.40	-39.1	-49.8	3.5	7.69e-01	0	27	104	0	52	18790
2026-01-10 23:40:17.04	78.75	11.60	-40.2	-51.1	3.5	7.69e-01	0	27	104	0	52	21954
2026-01-10 23:40:19.97	78.28	11.80	-43.4	-55.5	3.5	7.69e-01	0	27	104	0	60	22887
2026-01-10 23:40:22.90	77.80	12.00	-36.0	-46.3	3.5	7.69e-01	0	27	104	0	48	15895
2026-01-10 23:40:25.84	77.31	12.20	-40.0	-50.8	3.6	7.69e-01	0	27	104	0	52	21201
2026-01-10 23:40:28.78	76.82	12.40	-43.1	-54.8	3.5	7.69e-01	0	27	104	0	60	21094
2026-01-10 23:40:31.72	76.32	12.60	-38.8	-49.5	3.5	7.69e-01	0	27	104	0	52	18142
2026-01-10 23:40:34.66	75.81	12.80	-36.7	-47.5	3.5	7.69e-01	0	27	104	0	48	18274
2026-01-10 23:40:37.60	75.30	13.00	-46.3	-62.4	3.5	7.69e-01	0	27	104	0	60	50564
2026-01-10 23:40:40.53	74.77	13.20	-35.6	-46.0	3.5	7.69e-01	0	27	104	0	46	17148
2026-01-10 23:40:43.46	74.24	13.40	-34.1	-44.4	3.5	7.69e-01	0	27	104	0	44	16015
2026-01-10 23:40:46.39	73.71	13.60	-44.9	-58.0	3.6	7.69e-01	0	27	104	0	60	30525
2026-01-10 23:40:49.33	73.16	13.80	-37.5	-47.9	3.5	7.69e-01	0	27	104	0	50	16966
2026-01-10 23:40:52.27	72.61	14.00	-34.3	-44.5	3.5	7.69e-01	0	27	104	0	44	16266
2026-01-10 23:40:55.20	72.05	14.20	-47.2	-64.0	3.5	7.69e-01	0	28	104	0	60	61071
2026-01-10 23:40:58.14	71.47	14.39	-38.7	-49.3	3.5	7.69e-01	0	27	104	0	52	17757
2026-01-10 23:41:01.07	70.90	14.59	-36.2	-46.6	3.5	7.69e-01	0	27	104	0	48	16511
2026-01-10 23:41:04.00	70.31	14.78	-44.9	-65.1	3.5	7.69e-01	0	27	104	0	60	69217
2026-01-10 23:41:06.94	69.72	14.97	-35.0	-45.4	3.5	7.69e-01	0	27	104	0	44	17990
2026-01-10 23:41:09.87	69.12	15.16	-34.2	-44.5	3.5	7.69e-01	0	28	104	0	44	16225
2026-01-10 23:41:12.80	68.51	15.35	-45.9	-60.8	3.5	7.69e-01	0	28	104	0	60	42122
2026-01-10 23:41:15.74	67.88	15.54	-41.2	-52.9	3.6	7.69e-01	0	28	104	0	60	16982
2026-01-10 23:41:18.66	67.26	15.73	-37.2	-47.8	3.5	7.69e-01	0	28	104	0	50	16870
2026-01-10 23:41:21.60	66.62	15.91	-37.2	-47.6	3.3	7.69e-01	0	28	104	0	44	23162
2026-01-10 23:41:24.53	65.98	16.10	-46.7	-61.3	3.5	7.69e-01	0	28	104	0	60	44785
2026-01-10 23:41:27.47	65.32	16.28	-35.9	-46.2	3.5	7.69e-01	0	28	104	0	48	15704
2026-01-10 23:41:30.39	64.67	16.46	-34.8	-45.0	3.5	7.69e-01	0	28	104	0	46	15398
2026-01-10 23:41:33.33	64.00	16.63	-45.8	-63.0	3.5	7.69e-01	0	28	104	0	60	54338
2026-01-10 23:41:36.27	63.32	16.81	-37.6	-48.0	3.5	7.69e-01	0	28	104	0	50	17223
2026-01-10 23:41:39.20	62.63	16.98	-35.4	-45.7	3.5	7.69e-01	0	28	104	0	46	16593
2026-01-10 23:41:42.14	61.93	17.15	-47.0	-65.5	3.5	7.69e-01	0	28	104	0	60	72782
2026-01-10 23:41:45.07	61.23	17.31	-38.1	-49.0	3.5	7.69e-01	0	28	104	0	52	17148
2026-01-10 23:41:48.01	60.52	17.47	-35.5	-46.1	3.5	7.69e-01	0	28	104	0	42	21769
2026-01-10 23:41:50.94	59.80	17.63	-46.8	-62.7	3.5	7.69e-01	0	28	104	0	60	52382
2026-01-10 23:41:53.87	59.07	17.79	-37.2	-47.7	3.5	7.69e-01	0	28	104	0	48	18680
2026-01-10 23:41:56.81	58.34	17.94	-34.6	-45.1	3.5	7.69e-01	0	28	104	0	44	17292
2026-01-10 23:41:59.74	57.59	18.09	-43.8	-56.0	3.5	7.69e-01	0	28	104	0	54	34389
2026-01-10 23:42:02.68	56.84	18.24	-36.1	-46.5	3.5	7.69e-01	0	28	104	0	48	16141
2026-01-10 23:42:05.61	56.08	18.38	-34.8	-45.1	3.5	7.69e-01	0	28	104	0	46	15432
2026-01-10 23:42:08.55	55.32	18.51	-40.8	-52.1	3.5	7.69e-01	0	28	104	0	54	21795
2026-01-10 23:42:11.47	54.55	18.65	-41.1	-52.2	3.5	7.69e-01	0	28	104	0	58	17563
2026-01-10 23:42:14.41	53.77	18.77	-38.2	-48.7	3.5	7.69e-01	0	28	104	0	50	18732
2026-01-10 23:42:17.35	52.98	18.90	-46.1	-60.7	3.5	7.69e-01	0	28	104	0	60	41736
2026-01-10 23:42:20.28	52.18	19.02	-36.2	-46.4	3.5	7.69e-01	0	28	104	0	48	16125
2026-01-10 23:42:23.22	51.38	19.13	-34.5	-44.8	3.5	7.69e-01	0	28	104	0	44	16773
2026-01-10 23:42:26.15	50.58	19.24	-41.0	-52.0	3.5	7.69e-01	0	28	104	0	58	17106
2026-01-10 23:42:29.08	49.77	19.34	-34.8	-45.0	3.5	7.69e-01	0	28	104	0	44	17226
2026-01-10 23:42:32.01	48.95	19.44	-45.0	-57.7	3.5	7.69e-01	0	28	104	0	60	29607
2026-01-10 23:42:34.94	48.13	19.53	-44.5	-56.6	3.5	7.69e-01	0	28	104	0	60	26000
2026-01-10 23:42:37.87	47.30	19.62	-39.9	-50.5	3.5	7.69e-01	0	28	104	0	56	16248
2026-01-10 23:42:40.80	46.47	19.70	-39.9	-50.6	3.5	7.69e-01	0	28	104	0	52	20586
2026-01-10 23:42:43.73	45.63	19.78	-47.2	-63.6	3.5	7.69e-01	0	28	104	0	60	58070
2026-01-10 23:42:46.67	44.79	19.85	-36.0	-37.6	5.2	7.69e-01	0	28	104	0	46	6523
2026-01-10 23:42:49.61	43.94	19.91	-34.5	-35.7	28.9	7.69e-01	0	28	0	3670016	44	5912
2026-01-10 23:42:52.54	43.09	19.97	-34.1	-35.3	29.3	7.69e-01	0	28	0	9437184	44	5653
2026-01-10 23:42:55.47	42.24	20.02	-34.7	-35.9	28.9	7.69e-01	0	28	0	14680064	44	6038
2026-01-10 23:42:58.40	41.38	20.06	-34.3	-35.5	29.2	7.69e-01	0	28	0	20447232	44	5749
2026-01-10 23:43:01.34	40.53	20.10	-34.5	-35.7	29.0	7.69e-01	0	28	0	25690112	44	5899
2026-01-10 23:43:04.27	39.67	20.13	-34.4	-35.6	29.1	7.69e-01	0	28	0	31457280	44	5835
2026-01-10 23:43:07.20	38.81	20.16	-34.4	-35.6	29.0	7.69e-01	0	28	0	36700160	44	5850
2026-01-10 23:43:10.13	37.94	20.18	-34.3	-35.6	29.1	7.69e-01	0	28	0	42467328	44	5800
2026-01-10 23:43:13.06	37.08	20.19	-34.5	-35.7	29.0	7.69e-01	0	28	0	47710208	44	5922
2026-01-10 23:43:15.99	36.22	20.20	-34.5	-35.8	28.9	7.69e-01	0	28	0	53477376	44	5939
2026-01-10 23:43:18.93	35.35	20.20	-34.6	-35.9	28.9	7.69e-01	0	28	0	58720256	44	5997
2026-01-10 23:43:21.85	34.49	20.19	-34.5	-35.8	28.9	7.69e-01	0	28	0	64487424	44	5949
2026-01-10 23:43:24.78	33.63	20.18	-34.3	-35.5	29.2	7.69e-01	0	28	0	69730304	44	5774
2026-01-10 23:43:27.71	32.77	20.16	-34.6	-35.8	28.9	7.69e-01	0	28	0	75497472	44	5947
2026-01-10 23:43:30.64	31.91	20.13	-34.4	-35.7	29.0	7.69e-01	0	28	0	80740352	44	5859
2026-01-10 23:43:33.58	31.05	20.10	-34.5	-35.7	28.9	7.69e-01	0	28	0	86507520	44	5922
2026-01-10 23:43:36.50	30.20	20.06	-34.3	-35.5	29.1	7.69e-01	0	29	0	91750400	44	5745
2026-01-10 23:43:39.44	29.34	20.01	-34.6	-35.8	28.9	7.69e-01	0	28	0	97517568	44	5990
2026-01-10 23:43:42.37	28.49	19.96	-34.4	-35.6	29.1	7.69e-01	0	28	0	102760448	44	5831
2026-01-10 23:43:45.30	27.64	19.90	-34.4	-35.6	29.1	7.69e-01	0	29	0	108527616	44	5829
2026-01-10 23:43:48.23	26.80	19.84	-34.4	-35.7	29.0	7.69e-01	0	28	0	113770496	44	5861
2026-01-10 23:43:51.17	25.96	19.77	-34.3	-35.5	29.1	7.69e-01	0	29	0	119537664	44	5779
2026-01-10 23:43:54.10	25.12	19.69	-34.5	-35.8	28.8	7.69e-01	0	29	0	124780544	44	5943
2026-01-10 23:43:57.04	24.29	19.61	-34.2	-35.4	29.2	7.69e-01	0	29	0	130547712	44	5693
2026-01-10 23:43:59.97	23.46	19.52	-34.4	-35.7	29.0	7.69e-01	0	28	0	135790592	44	5880
2026-01-10 23:44:02.90	22.64	19.43	-34.3	-35.5	29.2	7.69e-01	0	28	0	141557760	44	5741
2026-01-10 23:44:05.83	21.83	19.33	-34.4	-35.6	29.0	7.69e-01	0	29	0	146800640	44	5839
2026-01-10 23:44:08.77	21.02	19.22	-34.4	-35.6	29.0	7.69e-01	0	29	0	152567808	44	5817
2026-01-10 23:44:11.70	20.21	19.11	-34.3	-35.6	29.0	7.69e-01	0	29	0	157810688	44	5795
2026-01-10 23:44:14.63	19.42	19.00	-34.4	-35.7	28.9	7.69e-01	0	29	0	163053568	44	5871
2026-01-10 23:44:17.56	18.63	18.88	-34.4	-35.6	28.9	7.69e-01	0	29	0	168820736	44	5838
2026-01-10 23:44:20.49	17.84	18.76	-34.4	-35.7	28.9	7.69e-01	0	29	0	174587904	44	5871
2026-01-10 23:44:23.42	17.07	18.63	-34.2	-35.4	29.1	7.69e-01	0	29	0	179830784	44	5723
2026-01-10 23:44:26.35	16.30	18.50	-34.3	-35.5	29.1	7.69e-01	0	29	0	185073664	44	5773
2026-01-10 23:44:29.29	15.53	18.36	-34.5	-35.7	28.9	7.69e-01	0	29	0	190840832	44	5926
2026-01-10 23:44:32.22	14.78	18.22	-34.3	-35.5	29.1	7.69e-01	0	29	0	196083712	44	5744
2026-01-10 23:44:35.16	14.03	18.07	-34.4	-35.6	29.0	7.69e-01	0	29	0	201850880	44	5816
2026-01-10 23:44:38.09	13.29	17.92	-34.3	-35.5	29.1	7.69e-01	0	29	0	207093760	44	5742
2026-01-10 23:44:41.02	12.56	17.77	-34.2	-35.4	29.1	7.69e-01	0	29	0	212860928	44	5714
2026-01-10 23:44:43.96	11.83	17.61	-34.3	-35.5	29.0	7.69e-01	0	29	0	218103808	44	5767
2026-01-10 23:44:46.89	11.11	17.46	-34.1	-35.3	29.1	7.69e-01	0	29	0	223870976	44	5658
2026-01-10 23:44:49.83	10.40	17.29	-34.3	-35.5	29.0	7.69e-01	0	29	0	229113856	44	5774
2026-01-10 23:44:52.76	9.71	17.13	-34.0	-35.2	29.3	7.69e-01	0	29	0	234881024	44	5557
2026-01-10 23:44:55.70	9.01	16.96	-34.4	-35.7	28.9	7.69e-01	0	29	0	240123904	44	5873
2026-01-10 23:44:58.63	8.33	16.79	-34.3	-35.6	29.0	7.69e-01	0	29	0	245891072	44	5794
2026-01-10 23:45:01.56	7.66	16.61	-34.1	-35.3	29.1	7.69e-01	0	29	0	251133952	44	5630
2026-01-10 23:45:04.50	6.99	16.44	-34.3	-35.5	29.1	7.69e-01	0	29	0	256901120	44	5759
2026-01-10 23:45:07.43	6.33	16.26	-34.1	-35.3	29.2	7.69e-01	0	29	0	262144000	44	5648
2026-01-10 23:45:10.35	5.68	16.08	-34.1	-35.4	29.2	7.69e-01	0	29	0	267911168	44	5666
2026-01-10 23:45:13.28	5.04	15.90	-34.2	-35.4	29.1	7.69e-01	0	29	0	273154048	44	5677
2026-01-10 23:45:16.21	4.41	15.71	-34.2	-35.4	29.1	7.69e-01	0	29	0	278921216	44	5722
2026-01-10 23:45:19.15	3.79	15.52	-34.1	-35.3	29.2	7.69e-01	0	29	0	284164096	42	6338
2026-01-10 23:45:22.08	3.17	15.34	-34.2	-35.5	29.0	7.69e-01	0	29	0	289931264	42	6432
2026-01-10 23:45:25.01	2.56	15.15	-34.2	-35.4	29.0	7.69e-01	0	29	0	295174144	42	6391
2026-01-10 23:45:27.94	1.97	14.96	-34.1	-35.3	29.2	7.69e-01	0	29	0	300941312	42	6280
2026-01-10 23:45:30.87	1.38	14.77	-34.4	-35.6	29.0	7.69e-01	0	29	0	306184192	42	6542
2026-01-10 23:45:33.80	0.79	14.57	-34.2	-35.5	29.1	7.69e-01	0	29	0	311951360	42	6443
2026-01-10 23:45:36.73	0.22	14.38	-34.5	-35.7	28.8	7.69e-01	0	29	0	317194240	42	6648
2026-01-10 23:45:39.66	359.65	14.18	-34.7	-36.0	28.7	7.69e-01	0	29	0	322961408	42	6823
2026-01-10 23:45:42.60	359.09	13.99	-34.2	-35.5	29.0	7.69e-01	0	29	0	328204288	42	6425
2026-01-10 23:45:45.53	358.55	13.79	-34.5	-35.7	28.8	7.69e-01	0	29	0	333971456	42	6649
2026-01-10 23:45:48.46	358.00	13.59	-34.4	-35.6	28.9	7.69e-01	0	29	0	339214336	42	6527
2026-01-10 23:45:51.39	357.47	13.39	-34.4	-35.6	28.9	7.69e-01	0	29	0	344981504	42	6514
2026-01-10 23:45:54.33	356.94	13.19	-34.5	-35.7	28.8	7.69e-01	0	29	0	350224384	42	6618
2026-01-10 23:45:57.26	356.42	12.99	-34.3	-35.5	28.9	7.69e-01	0	29	0	355991552	42	6489
2026-01-10 23:46:00.19	355.91	12.80	-34.6	-35.9	28.6	7.69e-01	0	29	0	361234432	42	6760
2026-01-10 23:46:03.13	355.41	12.59	-34.7	-36.0	28.4	7.69e-01	0	29	0	366477312	42	6808
2026-01-10 23:46:06.06	354.91	12.39	-34.8	-36.1	28.3	7.69e-01	0	29	0	372244480	44	6181
2026-01-10 23:46:09.00	354.42	12.19	-34.1	-35.3	28.9	7.69e-01	0	29	0	378011648	44	5618
2026-01-10 23:46:11.93	353.94	11.99	-34.7	-36.0	28.4	7.69e-01	0	29	0	383254528	44	6117
2026-01-10 23:46:14.86	353.47	11.79	-35.1	-36.3	27.9	7.69e-01	0	29	0	388497408	44	6347
2026-01-10 23:46:17.79	353.00	11.59	-34.9	-36.1	28.2	7.69e-01	0	29	0	394264576	44	6175
2026-01-10 23:46:20.73	352.54	11.39	-36.2	-37.6	27.1	7.69e-01	0	29	0	399507456	46	6517
2026-01-10 23:46:23.66	352.08	11.19	-35.1	-36.4	27.9	7.69e-01	0	29	0	405274624	46	5692
2026-01-10 23:46:26.59	351.64	10.99	-34.4	-35.5	28.6	7.69e-01	0	29	0	411041792	44	5779
2026-01-10 23:46:29.53	351.20	10.79	-34.9	-36.2	28.0	7.69e-01	0	29	0	416284672	44	6261
2026-01-10 23:46:32.47	350.76	10.59	-35.6	-37.0	27.1	7.69e-01	0	29	0	421527552	44	6812
2026-01-10 23:46:35.40	350.34	10.39	-34.8	-36.1	27.4	7.69e-01	0	29	0	427294720	44	6181
2026-01-10 23:46:38.33	349.91	10.19	-35.2	-36.5	27.8	7.69e-01	0	29	0	432537600	46	5726
2026-01-10 23:46:41.26	349.50	10.00	-34.8	-36.0	28.0	7.69e-01	0	29	0	438304768	44	6091
2026-01-10 23:46:44.19	349.09	9.80	-35.1	-36.4	27.8	7.69e-01	0	29	0	443547648	44	6420
2026-01-10 23:46:47.12	348.69	9.60	-35.3	-36.6	27.6	7.69e-01	0	29	0	449314816	44	6563
2026-01-10 23:46:50.05	348.30	9.40	-36.0	-37.5	27.0	7.69e-01	0	29	0	454557696	46	6430
2026-01-10 23:46:52.98	347.91	9.21	-35.6	-37.0	27.3	7.69e-01	0	29	0	460324864	44	6815
2026-01-10 23:46:55.91	347.52	9.01	-35.5	-36.8	27.5	7.69e-01	0	29	0	465567744	44	6703
2026-01-10 23:46:58.84	347.14	8.81	-36.0	-37.4	27.1	7.69e-01	0	29	0	471334912	44	7202
2026-01-10 23:47:01.78	346.77	8.62	-35.8	-37.2	27.1	7.69e-01	0	29	0	476577792	46	6268
2026-01-10 23:47:04.71	346.40	8.43	-35.9	-37.3	27.1	7.69e-01	0	29	0	482344960	46	6332
2026-01-10 23:47:07.65	346.04	8.23	-36.0	-37.4	27.0	7.69e-01	0	29	0	487587840	46	6377
2026-01-10 23:47:10.58	345.68	8.04	-35.7	-37.1	27.4	7.69e-01	0	29	0	493355008	46	6142
2026-01-10 23:47:13.51	345.33	7.85	-35.6	-36.9	27.4	7.69e-01	0	29	0	498597888	46	6030
2026-01-10 23:47:16.45	344.98	7.65	-35.4	-36.7	27.5	7.69e-01	0	29	0	504365056	46	5912
2026-01-10 23:47:19.39	344.64	7.46	-35.6	-36.9	27.4	7.69e-01	0	29	0	509607936	46	6041
2026-01-10 23:47:22.31	344.30	7.27	-35.8	-37.1	27.2	7.69e-01	0	29	0	515375104	46	6186
2026-01-10 23:47:25.25	343.97	7.08	-36.0	-37.4	26.8	7.69e-01	0	29	0	520617984	46	6351
2026-01-10 23:47:28.18	343.65	6.89	-36.2	-37.6	26.7	7.69e-01	0	30	0	526385152	46	6516
2026-01-10 23:47:31.11	343.32	6.70	-35.9	-37.2	26.9	7.69e-01	0	29	0	531628032	46	6272
2026-01-10 23:47:34.04	343.01	6.52	-35.8	-37.2	27.0	7.69e-01	0	29	0	537395200	46	6208
2026-01-10 23:47:36.97	342.69	6.33	-36.3	-37.8	26.2	7.69e-01	0	29	0	542638080	46	6653
2026-01-10 23:47:39.90	342.39	6.14	-37.0	-38.6	25.3	7.69e-01	0	29	0	548405248	48	6511
2026-01-10 23:47:42.83	342.08	5.96	-37.3	-38.8	25.0	7.69e-01	0	29	0	553648128	48	6708
2026-01-10 23:47:45.76	341.78	5.77	-37.5	-39.1	24.5	7.69e-01	0	29	0	559415296	48	6917
2026-01-10 23:47:48.70	341.49	5.59	-38.3	-40.1	23.4	7.69e-01	0	30	0	564658176	50	6885
2026-01-10 23:47:51.63	341.20	5.41	-39.0	-41.0	22.1	7.69e-01	0	29	0	569901056	50	7656
2026-01-10 23:47:54.56	340.91	5.22	-39.7	-42.0	20.9	7.69e-01	0	29	0	575668224	52	7660
2026-01-10 23:47:57.50	340.63	5.04	-40.5	-43.3	19.1	7.69e-01	0	30	0	581435392	54	7926
2026-01-10 23:48:00.43	340.35	4.86	-41.2	-44.6	17.4	7.69e-01	0	30	0	586678272	56	8261
2026-01-10 23:48:03.37	340.07	4.68	-41.9	-46.1	15.8	7.69e-01	0	30	0	592445440	56	9791
2026-01-10 23:48:06.30	339.80	4.50	-42.4	-47.6	14.0	7.69e-01	0	30	0	597688320	58	10326
2026-01-10 23:48:09.24	339.53	4.32	-42.8	-49.2	11.8	7.69e-01	0	30	0	603455488	58	12508
2026-01-10 23:48:12.18	339.27	4.14	-43.1	-50.9	9.8	7.69e-01	0	30	0	608698368	60	13511
2026-01-10 23:48:15.11	339.01	3.97	-43.2	-52.7	7.6	7.69e-01	90	30	0	614465536	60	16544
2026-01-10 23:48:18.04	338.75	3.79	-43.3	-56.0	4.9	7.69e-01	0	30	0	617611264	60	24419
2026-01-10 23:48:20.97	338.50	3.61	-43.3	-58.9	3.6	7.69e-01	0	30	104	617611264	60	33952
2026-01-10 23:48:23.91	338.25	3.44	-43.4	-61.2	3.5	7.69e-01	0	30	104	617611264	60	44101
2026-01-10 23:48:26.84	338.00	3.27	-43.5	-60.2	3.5	7.69e-01	0	30	104	617611264	60	39374
2026-01-10 23:48:29.77	337.76	3.09	-43.4	-60.6	3.5	7.69e-01	0	30	104	617611264	60	41285
2026-01-10 23:48:32.70	337.52	2.92	-47.4	-65.2	3.5	7.69e-01	0	30	104	617611264	60	70424
2026-01-10 23:48:35.64	337.28	2.75	-48.1	-66.1	3.5	7.69e-01	0	30	104	617611264	60	77232
2026-01-10 23:48:38.57	337.05	2.58	-48.4	-66.3	3.5	7.69e-01	0	30	104	617611264	60	79329
2026-01-10 23:48:41.50	336.82	2.41	-48.3	-66.2	3.5	7.69e-01	0	30	104	617611264	60	78934
2026-01-10 23:48:44.43	336.59	2.24	-48.1	-66.0	3.5	7.69e-01	0	30	104	617611264	60	77039
2026-01-10 23:48:47.36	336.37	2.07	-48.2	-66.1	3.5	7.69e-01	0	30	104	617611264	60	77874
2026-01-10 23:48:50.29	336.14	1.90	-48.2	-66.1	3.5	7.69e-01	0	30	104	617611264	60	77499
2026-01-10 23:48:53.23	335.92	1.73	-48.2	-66.0	3.5	7.69e-01	0	30	104	617611264	60	77211
2026-01-10 23:48:56.16	335.71	1.57	-48.2	-66.1	3.5	7.69e-01	0	30	104	617611264	60	77595
2026-01-10 23:48:59.09	335.50	1.40	-48.2	-66.1	3.5	7.69e-01	0	30	104	617611264	60	77600
2026-01-10 23:49:02.02	335.29	1.23	-48.2	-66.1	3.5	7.69e-01	0	30	104	617611264	60	77553
2026-01-10 23:49:04.95	335.08	1.07	-48.1	-66.0	3.5	7.69e-01	0	30	104	617611264	60	76968
2026-01-10 23:49:07.89	334.87	0.90	-48.2	-66.1	3.5	7.69e-01	0	30	104	617611264	60	77423
2026-01-10 23:49:10.83	334.67	0.74	-48.1	-66.0	3.5	7.69e-01	0	30	104	617611264	60	76856
2026-01-10 23:49:13.76	334.47	0.58	-48.1	-66.0	3.5	7.69e-01	0	30	104	617611264	60	76897
2026-01-10 23:49:16.69	334.27	0.42	-48.1	-66.0	3.5	7.69e-01	0	30	104	617611264	60	76610
2026-01-10 23:49:19.62	334.08	0.26	-48.1	-66.1	3.5	7.69e-01	0	30	104	617611264	60	77598
2026-01-10 23:49:22.55	333.89	0.09	-48.1	-66.0	3.5	7.69e-01	0	30	104	617611264	60	76842

#Closed at: 2026-01-10 23:49:24
#Recorded file [617 MB]: D:/lorett/data/35029_260111_113715.dat