passes_logs/2026/01/10/R4.6S_Anadyr/R4.6S_Anadyr__20260110_175820_SUOMI_NPP_rec.log

#Pass ID: 20260110_175820_SUOMI NPP
#Satellite: SUOMI NPP
#Configuration: NPP
#almurnet v.1.7.20251203
#Start time: 2026-01-10 17:58:21

#Version: 2.2.20231116
#Station: R4.6S_Anadyr
#Location: 177.4865 lon 64.73178 lat
#TLE: 1 37849U 11061A   26009.81756760  .00000113  00000+0  74747-4 0  9994
#TLE: 2 37849  98.7806 311.9110 0002525  72.5604 287.5848 14.19524046735974

#Time	Az	El	Level	Level2	SNR	BER	BlckErr	Temp	State	Recorded	gain1	gain2
2026-01-10 17:58:21.75	35.56	0.05	-48.0	-59.6	3.5	8.45e-01	0	25	0	0	60	34677
2026-01-10 17:58:25.79	35.29	0.26	-48.2	-63.3	3.6	1.51e+00	0	27	104	0	60	52957
2026-01-10 17:58:29.83	35.03	0.47	-48.2	-63.3	3.6	1.51e+00	0	27	104	0	60	53106
2026-01-10 17:58:33.87	34.75	0.68	-47.9	-63.1	3.6	1.51e+00	0	27	104	0	60	51924
2026-01-10 17:58:37.91	34.48	0.89	-47.3	-62.5	3.6	1.51e+00	0	27	104	0	60	47946
2026-01-10 17:58:41.95	34.20	1.10	-46.5	-61.5	3.6	1.51e+00	0	27	104	0	60	43144
2026-01-10 17:58:45.99	33.91	1.31	-46.5	-61.6	3.6	1.51e+00	0	27	104	0	60	43542
2026-01-10 17:58:50.03	33.62	1.53	-46.5	-61.6	3.6	1.51e+00	0	27	104	0	60	43247
2026-01-10 17:58:54.07	33.33	1.74	-46.5	-61.6	3.6	1.51e+00	0	27	104	0	60	43400
2026-01-10 17:58:58.11	33.03	1.96	-46.5	-61.5	3.6	1.51e+00	0	27	104	0	60	42863
2026-01-10 17:59:02.14	32.73	2.17	-46.4	-61.5	3.6	1.51e+00	0	27	104	0	60	42826
2026-01-10 17:59:06.18	32.42	2.39	-46.5	-61.5	3.6	1.51e+00	0	27	104	0	60	43188
2026-01-10 17:59:10.22	32.11	2.61	-46.4	-61.0	3.6	1.51e+00	0	27	104	0	60	40389
2026-01-10 17:59:14.27	31.79	2.83	-46.4	-60.9	3.6	1.51e+00	0	27	104	0	60	40001
2026-01-10 17:59:18.31	31.47	3.05	-45.0	-50.3	10.0	2.81e-02	0	27	0	4194304	60	11783
2026-01-10 17:59:22.35	31.14	3.27	-44.9	-50.4	11.0	1.96e-01	37	27	104	7340032	60	11925
2026-01-10 17:59:26.39	30.81	3.49	-40.5	-42.3	18.2	0.00e+00	0	27	0	10485760	54	6629
2026-01-10 17:59:30.42	30.47	3.71	-41.0	-42.8	17.8	0.00e+00	0	27	0	17825792	54	7068
2026-01-10 17:59:34.46	30.13	3.94	-40.6	-42.3	18.3	0.00e+00	37	27	0	25165824	54	6640
2026-01-10 17:59:38.50	29.78	4.16	-40.7	-42.4	18.3	0.00e+00	0	27	0	33554432	54	6730
2026-01-10 17:59:42.54	29.43	4.39	-40.2	-41.7	19.0	0.00e+00	0	27	0	40894464	54	6227
2026-01-10 17:59:46.58	29.07	4.61	-40.3	-41.8	19.1	0.00e+00	0	27	0	48234496	54	6300
2026-01-10 17:59:50.62	28.70	4.84	-39.7	-41.1	19.7	0.00e+00	91	27	0	55574528	52	6526
2026-01-10 17:59:54.66	28.33	5.07	-40.0	-41.5	19.3	0.00e+00	0	27	0	62914560	52	6795
2026-01-10 17:59:58.70	27.95	5.29	-39.6	-40.9	19.9	0.00e+00	0	27	0	71303168	52	6364
2026-01-10 18:00:02.74	27.57	5.52	-39.8	-41.2	19.6	0.00e+00	0	27	0	78643200	52	6574
2026-01-10 18:00:06.77	27.18	5.75	-40.2	-41.7	19.2	0.00e+00	90	27	0	85983232	52	6967
2026-01-10 18:00:10.81	26.78	5.98	-40.6	-42.2	18.8	0.00e+00	0	27	0	93323264	54	6579
2026-01-10 18:00:14.85	26.38	6.21	-40.4	-42.0	19.0	0.00e+00	0	27	0	101711872	54	6427
2026-01-10 18:00:18.89	25.97	6.45	-40.0	-41.5	19.4	0.00e+00	25	27	0	109051904	54	6050
2026-01-10 18:00:22.93	25.56	6.68	-39.9	-41.3	19.6	0.00e+00	0	27	0	116391936	54	5919
2026-01-10 18:00:26.97	25.13	6.91	-39.8	-41.1	19.8	0.00e+00	0	27	0	123731968	52	6514
2026-01-10 18:00:31.00	24.70	7.15	-40.1	-41.6	19.5	0.00e+00	0	27	0	131072000	52	6850
2026-01-10 18:00:35.04	24.26	7.38	-39.9	-41.3	19.7	0.00e+00	39	27	0	139460608	52	6644
2026-01-10 18:00:39.08	23.82	7.61	-40.4	-41.9	19.3	0.00e+00	0	27	0	146800640	52	7116
2026-01-10 18:00:43.12	23.37	7.85	-40.4	-41.9	19.2	0.00e+00	0	27	0	154140672	52	7134
2026-01-10 18:00:47.16	22.91	8.09	-40.0	-41.4	19.8	0.00e+00	0	27	0	161480704	52	6725
2026-01-10 18:00:51.19	22.44	8.32	-40.0	-41.5	19.6	0.00e+00	92	27	0	169869312	52	6793
2026-01-10 18:00:55.24	21.96	8.56	-39.4	-40.6	20.4	0.00e+00	0	27	0	177209344	52	6158
2026-01-10 18:00:59.27	21.48	8.80	-39.3	-40.5	20.5	0.00e+00	0	27	0	184549376	52	6088
2026-01-10 18:01:03.31	20.99	9.03	-39.3	-40.6	20.5	0.00e+00	42	27	0	191889408	52	6138
2026-01-10 18:01:07.35	20.49	9.27	-39.1	-40.4	20.7	0.00e+00	91	27	0	199229440	52	5987
2026-01-10 18:01:11.39	19.98	9.51	-39.6	-40.9	20.3	0.00e+00	0	27	0	207618048	52	6349
2026-01-10 18:01:15.42	19.46	9.74	-39.4	-40.8	20.4	0.00e+00	0	27	0	214958080	52	6251
2026-01-10 18:01:19.46	18.94	9.98	-39.3	-40.6	20.7	0.00e+00	84	27	0	222298112	52	6106
2026-01-10 18:01:23.50	18.40	10.22	-38.9	-40.1	20.5	0.00e+00	0	27	0	229638144	52	5800
2026-01-10 18:01:27.54	17.86	10.46	-38.8	-40.0	21.2	0.00e+00	0	27	0	238026752	50	6397
2026-01-10 18:01:31.58	17.31	10.69	-38.8	-40.0	21.1	0.00e+00	0	27	0	245366784	50	6412
2026-01-10 18:01:35.61	16.75	10.93	-39.1	-40.4	20.7	0.00e+00	92	27	0	252706816	50	6726
2026-01-10 18:01:39.65	16.17	11.16	-38.9	-40.1	21.1	0.00e+00	0	27	0	260046848	50	6479
2026-01-10 18:01:43.69	15.59	11.40	-39.0	-40.2	21.1	0.00e+00	0	27	0	267386880	50	6542
2026-01-10 18:01:47.74	15.00	11.63	-38.6	-39.7	21.4	0.00e+00	0	27	0	275775488	50	6242
2026-01-10 18:01:51.77	14.40	11.87	-39.2	-40.4	20.8	0.00e+00	92	27	0	283115520	50	6714
2026-01-10 18:01:55.81	13.79	12.10	-38.9	-40.1	21.0	0.00e+00	0	27	0	290455552	50	6521
2026-01-10 18:01:59.85	13.17	12.33	-39.2	-40.5	20.8	0.00e+00	0	27	0	297795584	50	6790
2026-01-10 18:02:03.88	12.54	12.56	-39.0	-40.2	20.9	0.00e+00	46	27	0	306184192	50	6585
2026-01-10 18:02:07.93	11.90	12.79	-39.4	-40.6	20.7	0.00e+00	0	27	0	313524224	50	6917
2026-01-10 18:02:11.97	11.25	13.02	-39.3	-40.5	21.0	0.00e+00	0	27	0	320864256	50	6824
2026-01-10 18:02:16.00	10.59	13.25	-39.6	-40.9	20.6	0.00e+00	0	27	0	328204288	50	7144
2026-01-10 18:02:20.04	9.92	13.47	-39.1	-40.3	21.1	0.00e+00	92	27	0	335544320	50	6627
2026-01-10 18:02:24.08	9.24	13.69	-38.7	-39.9	21.3	0.00e+00	0	27	0	343932928	50	6325
2026-01-10 18:02:28.12	8.55	13.91	-37.4	-38.4	22.6	0.00e+00	0	27	0	351272960	48	5996
2026-01-10 18:02:32.16	7.85	14.13	-37.4	-38.4	22.6	0.00e+00	0	27	0	358612992	48	5999
2026-01-10 18:02:36.20	7.14	14.35	-37.0	-37.9	22.9	0.00e+00	92	27	0	365953024	48	5694
2026-01-10 18:02:40.23	6.41	14.56	-37.1	-38.1	22.9	0.00e+00	0	27	0	374341632	48	5781
2026-01-10 18:02:44.27	5.68	14.77	-37.0	-37.9	23.0	0.00e+00	0	27	0	381681664	48	5661
2026-01-10 18:02:48.31	4.94	14.98	-37.6	-38.6	22.5	0.00e+00	0	27	0	389021696	48	6144
2026-01-10 18:02:52.34	4.18	15.18	-37.5	-38.5	22.5	0.00e+00	34	27	0	396361728	48	6102
2026-01-10 18:02:56.38	3.42	15.38	-37.5	-38.5	22.7	0.00e+00	0	27	0	403701760	48	6090
2026-01-10 18:03:00.43	2.64	15.58	-36.0	-36.9	24.0	0.00e+00	0	27	0	412090368	46	5634
2026-01-10 18:03:04.46	1.86	15.77	-36.4	-37.3	23.5	0.00e+00	35	27	0	419430400	46	5939
2026-01-10 18:03:08.51	1.06	15.96	-36.3	-37.2	23.6	0.00e+00	0	27	0	426770432	46	5852
2026-01-10 18:03:12.55	0.25	16.15	-37.1	-38.1	23.0	0.00e+00	0	27	0	434110464	46	6531
2026-01-10 18:03:16.59	359.44	16.33	-36.5	-37.4	23.5	0.00e+00	0	27	0	442499072	46	6004
2026-01-10 18:03:20.63	358.61	16.50	-36.3	-37.2	23.7	0.00e+00	65	27	0	449839104	46	5868
2026-01-10 18:03:24.67	357.77	16.67	-35.9	-36.8	23.9	0.00e+00	0	27	0	457179136	46	5609
2026-01-10 18:03:28.71	356.93	16.84	-36.1	-37.0	23.7	0.00e+00	0	27	0	464519168	46	5743
2026-01-10 18:03:32.75	356.07	17.00	-36.6	-37.5	23.2	0.00e+00	2	27	0	471859200	46	6095
2026-01-10 18:03:36.79	355.21	17.15	-37.0	-38.0	23.1	0.00e+00	0	27	0	480247808	46	6419
2026-01-10 18:03:40.83	354.34	17.30	-36.3	-37.2	23.5	0.00e+00	0	27	0	487587840	46	5896
2026-01-10 18:03:44.87	353.45	17.45	-35.7	-36.5	23.6	0.00e+00	0	27	0	494927872	44	6087
2026-01-10 18:03:48.91	352.56	17.58	-35.5	-36.3	24.2	0.00e+00	46	27	0	502267904	44	5925
2026-01-10 18:03:52.95	351.67	17.71	-35.4	-36.3	24.3	0.00e+00	0	27	0	510656512	44	5901
2026-01-10 18:03:56.99	350.76	17.84	-35.9	-36.8	23.7	0.00e+00	0	27	0	517996544	44	6271
2026-01-10 18:04:01.03	349.85	17.95	-36.4	-37.3	23.6	0.00e+00	0	27	0	525336576	44	6667
2026-01-10 18:04:05.07	348.93	18.06	-36.9	-37.8	23.2	0.00e+00	32	27	0	532676608	46	6287
2026-01-10 18:04:09.11	348.00	18.16	-37.1	-38.0	23.0	0.00e+00	0	27	0	540016640	46	6435
2026-01-10 18:04:13.14	347.07	18.26	-37.1	-38.0	23.0	0.00e+00	0	27	0	548405248	46	6432
2026-01-10 18:04:17.18	346.13	18.35	-36.5	-37.3	23.6	0.00e+00	43	27	0	555745280	46	5956
2026-01-10 18:04:21.22	345.19	18.43	-36.5	-37.4	23.4	0.00e+00	90	27	0	563085312	46	6018
2026-01-10 18:04:25.26	344.24	18.50	-36.9	-37.8	23.2	0.00e+00	0	27	0	570425344	46	6303
2026-01-10 18:04:29.30	343.29	18.56	-37.4	-38.4	22.7	0.00e+00	0	27	0	578813952	46	6765
2026-01-10 18:04:33.34	342.33	18.62	-38.8	-40.1	21.2	0.00e+00	45	27	0	586153984	50	6465
2026-01-10 18:04:37.38	341.37	18.67	-37.6	-38.6	22.6	0.00e+00	0	27	0	593494016	48	6169
2026-01-10 18:04:41.42	340.41	18.70	-37.6	-38.6	22.4	0.00e+00	0	27	0	600834048	48	6159
2026-01-10 18:04:45.46	339.45	18.74	-37.4	-38.4	22.7	0.00e+00	0	27	0	608174080	48	6011
2026-01-10 18:04:49.49	338.48	18.76	-36.8	-37.7	23.3	0.00e+00	62	27	0	616562688	48	5550
2026-01-10 18:04:53.53	337.52	18.77	-37.0	-38.0	23.0	0.00e+00	0	27	0	623902720	46	6444
2026-01-10 18:04:57.57	336.55	18.78	-37.0	-37.9	23.1	0.00e+00	0	27	0	631242752	46	6383
2026-01-10 18:05:01.61	335.58	18.77	-37.1	-38.1	23.0	0.00e+00	0	27	0	638582784	46	6508
2026-01-10 18:05:05.65	334.61	18.76	-36.7	-37.6	23.3	0.00e+00	65	27	0	646971392	46	6146
2026-01-10 18:05:09.69	333.64	18.74	-37.0	-38.0	23.0	0.00e+00	0	27	0	654311424	46	6414
2026-01-10 18:05:13.73	332.68	18.71	-38.5	-39.6	21.4	0.00e+00	0	27	0	661651456	48	6909
2026-01-10 18:05:17.77	331.72	18.68	-37.5	-38.5	22.7	0.00e+00	23	27	0	668991488	48	6095
2026-01-10 18:05:21.80	330.76	18.63	-36.2	-37.1	23.7	0.00e+00	0	27	0	676331520	46	5787
2026-01-10 18:05:25.83	329.80	18.58	-36.6	-37.5	23.5	0.00e+00	0	27	0	684720128	46	6081
2026-01-10 18:05:29.87	328.85	18.52	-36.2	-37.1	23.8	0.00e+00	0	27	0	692060160	46	5805
2026-01-10 18:05:33.91	327.90	18.45	-35.9	-36.7	24.1	0.00e+00	42	27	0	699400192	46	5559
2026-01-10 18:05:37.95	326.95	18.37	-35.6	-36.4	24.2	0.00e+00	0	27	0	706740224	44	5996
2026-01-10 18:05:41.99	326.01	18.28	-35.9	-36.7	24.1	0.00e+00	0	28	0	715128832	44	6231
2026-01-10 18:05:46.03	325.08	18.19	-35.9	-36.7	23.7	0.00e+00	0	27	0	722468864	44	6237
2026-01-10 18:05:50.07	324.15	18.09	-36.1	-37.0	23.8	0.00e+00	12	28	0	729808896	44	6407
2026-01-10 18:05:54.11	323.23	17.98	-36.1	-36.9	23.9	0.00e+00	0	27	0	737148928	44	6382
2026-01-10 18:05:58.15	322.31	17.87	-37.0	-37.9	23.0	0.00e+00	0	28	0	744488960	46	6363
2026-01-10 18:06:02.16	321.41	17.75	-38.1	-39.1	22.3	0.00e+00	0	28	0	752877568	48	6506
2026-01-10 18:06:06.21	320.51	17.62	-37.9	-39.0	22.3	0.00e+00	92	28	0	760217600	48	6391
2026-01-10 18:06:10.25	319.61	17.48	-37.9	-39.0	22.2	0.00e+00	0	28	0	767557632	48	6415
2026-01-10 18:06:14.28	318.73	17.34	-37.5	-38.5	22.8	0.00e+00	0	28	0	774897664	48	6073
2026-01-10 18:06:18.33	317.85	17.20	-37.7	-38.7	22.5	0.00e+00	74	28	0	783286272	48	6214
2026-01-10 18:06:22.37	316.98	17.04	-37.6	-38.6	22.7	0.00e+00	0	28	0	790626304	48	6131
2026-01-10 18:06:26.41	316.13	16.88	-37.5	-38.5	22.8	0.00e+00	0	28	0	797966336	48	6051
2026-01-10 18:06:30.45	315.28	16.72	-37.4	-38.4	22.7	0.00e+00	0	28	0	805306368	48	5971
2026-01-10 18:06:34.49	314.44	16.55	-36.6	-37.5	23.5	0.00e+00	92	28	0	812646400	46	6037
2026-01-10 18:06:38.53	313.61	16.38	-36.4	-37.3	23.7	0.00e+00	0	28	0	821035008	46	5904
2026-01-10 18:06:42.57	312.79	16.20	-36.5	-37.4	23.6	0.00e+00	0	28	0	828375040	46	5983
2026-01-10 18:06:46.60	311.98	16.01	-37.9	-39.0	22.0	0.00e+00	0	28	0	835715072	48	6410
2026-01-10 18:06:50.64	311.18	15.82	-37.9	-38.9	22.3	0.00e+00	90	28	0	843055104	48	6387
2026-01-10 18:06:54.67	310.39	15.63	-37.8	-38.8	22.5	0.00e+00	0	28	0	851443712	48	6305
2026-01-10 18:06:58.71	309.61	15.44	-38.1	-39.1	22.2	0.00e+00	0	28	0	858783744	48	6505
2026-01-10 18:07:02.75	308.84	15.24	-37.5	-38.4	22.8	0.00e+00	37	28	0	866123776	48	5993
2026-01-10 18:07:06.79	308.08	15.03	-37.6	-38.5	22.7	0.00e+00	0	28	0	873463808	48	6083
2026-01-10 18:07:10.83	307.33	14.83	-37.2	-38.2	23.0	0.00e+00	0	28	0	880803840	48	5831
2026-01-10 18:07:14.87	306.59	14.62	-38.0	-39.0	22.3	0.00e+00	0	28	0	889192448	48	6405
2026-01-10 18:07:18.91	305.87	14.40	-37.4	-38.3	22.8	0.00e+00	55	28	0	896532480	48	5963
2026-01-10 18:07:22.95	305.15	14.19	-37.6	-38.6	22.7	0.00e+00	0	28	0	903872512	48	6133
2026-01-10 18:07:26.99	304.44	13.97	-39.1	-40.2	21.3	0.00e+00	0	28	0	911212544	50	6577
2026-01-10 18:07:31.03	303.75	13.75	-40.4	-41.9	19.7	0.00e+00	0	28	0	919601152	52	7090
2026-01-10 18:07:35.07	303.06	13.53	-40.0	-41.4	20.3	0.00e+00	24	28	0	926941184	52	6707
2026-01-10 18:07:39.11	302.39	13.30	-39.6	-40.9	20.8	0.00e+00	0	28	0	934281216	52	6318
2026-01-10 18:07:43.15	301.72	13.08	-38.8	-39.9	21.5	0.00e+00	0	28	0	941621248	52	5649
2026-01-10 18:07:47.19	301.07	12.85	-38.9	-40.0	21.3	0.00e+00	42	28	0	948961280	50	6423
2026-01-10 18:07:51.23	300.42	12.62	-39.0	-40.1	21.3	0.00e+00	91	28	0	957349888	50	6500
2026-01-10 18:07:55.27	299.79	12.39	-38.0	-39.0	22.2	0.00e+00	0	28	0	964689920	50	5739
2026-01-10 18:07:59.31	299.17	12.16	-38.2	-39.2	22.1	0.00e+00	0	28	0	972029952	50	5889
2026-01-10 18:08:03.34	298.55	11.93	-38.5	-39.6	21.7	0.00e+00	82	28	0	979369984	50	6119
2026-01-10 18:08:07.38	297.95	11.69	-38.5	-39.5	21.7	0.00e+00	0	28	0	987758592	50	6092
2026-01-10 18:08:11.42	297.35	11.46	-38.4	-39.5	21.8	0.00e+00	0	29	0	995098624	50	6055
2026-01-10 18:08:15.46	296.77	11.22	-37.9	-39.0	22.3	0.00e+00	0	29	0	1002438656	50	5697
2026-01-10 18:08:19.49	296.19	10.99	-37.2	-38.2	22.8	0.00e+00	92	28	0	1009778688	48	5837
2026-01-10 18:08:23.53	295.63	10.75	-36.3	-37.2	23.4	0.00e+00	0	29	0	1017118720	46	5865
2026-01-10 18:08:27.57	295.07	10.51	-37.1	-38.0	22.9	0.00e+00	0	28	0	1025507328	46	6419
2026-01-10 18:08:31.61	294.52	10.28	-37.4	-38.3	22.6	0.00e+00	0	28	0	1032847360	46	6679
2026-01-10 18:08:35.65	293.98	10.04	-36.9	-37.9	23.0	0.00e+00	95	28	0	1040187392	46	6322
2026-01-10 18:08:39.69	293.45	9.80	-36.6	-37.5	23.3	0.00e+00	0	29	0	1047527424	46	6049
2026-01-10 18:08:43.73	292.93	9.56	-36.9	-37.8	23.1	0.00e+00	0	29	0	1055916032	46	6311
2026-01-10 18:08:47.77	292.42	9.33	-37.4	-38.4	22.5	0.00e+00	38	29	0	1063256064	46	6726
2026-01-10 18:08:51.80	291.92	9.09	-37.7	-38.7	21.9	0.00e+00	0	29	0	1070596096	48	6212
2026-01-10 18:08:55.84	291.42	8.85	-37.9	-38.9	22.0	0.00e+00	0	29	0	1077936128	48	6366
2026-01-10 18:08:59.88	290.93	8.61	-37.8	-38.8	22.0	0.00e+00	0	29	0	1085276160	48	6294
2026-01-10 18:09:03.92	290.45	8.38	-37.3	-38.2	22.6	0.00e+00	92	29	0	1093664768	48	5892
2026-01-10 18:09:07.96	289.98	8.14	-37.3	-38.3	22.6	0.00e+00	0	29	0	1101004800	48	5911
2026-01-10 18:09:12.00	289.52	7.91	-38.0	-39.0	22.0	0.00e+00	0	29	0	1108344832	48	6431
2026-01-10 18:09:16.04	289.06	7.67	-38.7	-39.9	21.2	0.00e+00	0	29	0	1115684864	50	6348
2026-01-10 18:09:20.09	288.61	7.43	-38.5	-39.6	21.4	0.00e+00	92	29	0	1124073472	50	6137
2026-01-10 18:09:24.12	288.17	7.20	-38.2	-39.3	21.6	0.00e+00	0	29	0	1131413504	50	5905
2026-01-10 18:09:28.17	287.74	6.96	-38.3	-39.4	21.4	0.00e+00	0	29	0	1138753536	50	6018
2026-01-10 18:09:32.20	287.31	6.73	-38.3	-39.3	21.5	0.00e+00	28	29	0	1146093568	50	5961
2026-01-10 18:09:36.24	286.89	6.50	-38.8	-40.0	21.0	0.00e+00	0	29	0	1153433600	50	6452
2026-01-10 18:09:40.29	286.48	6.27	-39.2	-40.4	20.6	0.00e+00	0	29	0	1161822208	50	6750
2026-01-10 18:09:44.33	286.07	6.03	-39.4	-40.7	20.4	0.00e+00	0	29	0	1169162240	50	6972
2026-01-10 18:09:48.37	285.67	5.80	-39.0	-40.2	20.7	0.00e+00	57	29	0	1176502272	50	6548
2026-01-10 18:09:52.41	285.28	5.57	-39.0	-40.2	20.6	0.00e+00	0	29	0	1183842304	50	6559
2026-01-10 18:09:56.45	284.89	5.34	-40.0	-41.5	19.5	0.00e+00	0	29	0	1191182336	52	6779
2026-01-10 18:10:00.48	284.51	5.12	-40.7	-42.3	18.9	0.00e+00	0	29	0	1199570944	54	6675
2026-01-10 18:10:04.52	284.13	4.89	-40.5	-42.1	18.8	0.00e+00	91	29	0	1206910976	54	6519
2026-01-10 18:10:08.56	283.76	4.66	-39.9	-41.3	19.5	0.00e+00	0	29	0	1214251008	54	5932
2026-01-10 18:10:12.60	283.40	4.43	-40.0	-41.5	19.4	0.00e+00	0	29	0	1221591040	52	6774
2026-01-10 18:10:16.63	283.05	4.21	-39.7	-41.1	19.7	0.00e+00	29	29	0	1229979648	52	6476
2026-01-10 18:10:20.68	282.69	3.98	-39.7	-41.1	19.7	0.00e+00	30	29	0	1237319680	52	6512
2026-01-10 18:10:24.72	282.35	3.76	-39.8	-41.2	19.5	0.00e+00	0	29	0	1244659712	52	6568
2026-01-10 18:10:28.76	282.01	3.54	-40.0	-41.5	19.2	0.00e+00	0	29	0	1251999744	52	6772
2026-01-10 18:10:32.79	281.67	3.32	-40.5	-42.1	18.6	0.00e+00	32	29	0	1259339776	52	7308
2026-01-10 18:10:36.83	281.34	3.09	-39.5	-40.8	19.5	0.00e+00	0	29	0	1267728384	52	6316
2026-01-10 18:10:40.87	281.02	2.87	-48.0	-63.2	3.6	1.51e+00	0	29	104	1270874112	60	52158
2026-01-10 18:10:44.91	280.70	2.65	-48.3	-63.4	3.6	1.51e+00	0	29	104	1270874112	60	53765
2026-01-10 18:10:48.95	280.38	2.44	-48.2	-63.4	3.6	1.51e+00	0	29	104	1270874112	60	53612
2026-01-10 18:10:52.99	280.07	2.22	-48.1	-63.3	3.6	1.51e+00	0	29	104	1270874112	60	53043
2026-01-10 18:10:57.02	279.77	2.00	-48.2	-63.4	3.6	1.51e+00	0	29	104	1270874112	60	53633
2026-01-10 18:11:01.06	279.46	1.79	-48.2	-63.4	3.6	1.51e+00	0	29	104	1270874112	60	53272
2026-01-10 18:11:05.10	279.17	1.57	-48.2	-63.4	3.6	1.51e+00	0	29	104	1270874112	60	53190
2026-01-10 18:11:09.14	278.88	1.36	-48.2	-63.3	3.6	1.51e+00	0	29	104	1270874112	60	52923
2026-01-10 18:11:13.17	278.59	1.14	-48.2	-63.3	3.6	1.51e+00	0	30	104	1270874112	60	52922
2026-01-10 18:11:17.21	278.30	0.93	-48.2	-63.4	3.6	1.51e+00	0	30	104	1270874112	60	53228
2026-01-10 18:11:21.25	278.03	0.72	-48.2	-63.4	3.5	1.51e+00	0	30	104	1270874112	60	53273
2026-01-10 18:11:25.29	277.75	0.51	-48.2	-63.4	3.6	1.51e+00	0	30	104	1270874112	60	53193
2026-01-10 18:11:29.32	277.48	0.30	-48.1	-63.3	3.6	1.51e+00	0	30	104	1270874112	60	53014
2026-01-10 18:11:33.37	277.21	0.09	-48.1	-63.3	3.6	1.51e+00	0	29	104	1270874112	60	52845
2026-01-10 18:11:37.41	276.95	-0.12	-48.1	-63.3	3.6	1.51e+00	0	30	104	1270874112	60	52897

#Closed at: 2026-01-10 18:11:37
#Recorded file [1270 MB]: D:/lorett/data/35029_260111_055821.dat