passes_logs/2026/01/10/R4.6S_Anadyr/R4.6S_Anadyr__20260110_193717_SUOMI_NPP_rec.log

#Pass ID: 20260110_193717_SUOMI NPP
#Satellite: SUOMI NPP
#Configuration: NPP
#almurnet v.1.7.20251203
#Start time: 2026-01-10 19:37:18

#Version: 2.2.20231116
#Station: R4.6S_Anadyr
#Location: 177.4865 lon 64.73178 lat
#TLE: 1 37849U 11061A   26009.81756760  .00000113  00000+0  74747-4 0  9994
#TLE: 2 37849  98.7806 311.9110 0002525  72.5604 287.5848 14.19524046735974

#Time	Az	El	Level	Level2	SNR	BER	BlckErr	Temp	State	Recorded	gain1	gain2
2026-01-10 19:37:18.60	54.94	0.04	-47.9	-59.5	3.5	8.46e-01	0	24	0	0	60	34219
2026-01-10 19:37:21.63	54.72	0.19	-48.1	-63.3	3.6	1.51e+00	0	25	104	0	60	53042
2026-01-10 19:37:24.66	54.48	0.34	-48.2	-63.4	3.6	1.51e+00	0	25	104	0	60	53292
2026-01-10 19:37:27.69	54.25	0.49	-48.1	-63.3	3.6	1.51e+00	0	26	104	0	60	52622
2026-01-10 19:37:30.72	54.01	0.63	-48.0	-63.2	3.6	1.51e+00	0	26	104	0	60	52021
2026-01-10 19:37:33.75	53.77	0.78	-47.5	-62.6	3.6	1.51e+00	0	26	104	0	60	49035
2026-01-10 19:37:36.78	53.53	0.93	-46.4	-61.6	3.6	1.51e+00	0	26	104	0	60	43590
2026-01-10 19:37:39.81	53.29	1.08	-46.4	-61.6	3.6	1.51e+00	0	26	104	0	60	43351
2026-01-10 19:37:42.84	53.04	1.23	-46.4	-61.5	3.6	1.51e+00	0	26	104	0	60	42784
2026-01-10 19:37:45.87	52.79	1.38	-46.3	-61.5	3.6	1.51e+00	0	26	104	0	60	42911
2026-01-10 19:37:48.90	52.54	1.52	-46.4	-61.5	3.6	1.51e+00	0	26	104	0	60	42900
2026-01-10 19:37:51.92	52.29	1.67	-46.3	-61.4	3.6	1.51e+00	0	26	104	0	60	42341
2026-01-10 19:37:54.95	52.03	1.82	-46.3	-61.5	3.6	1.51e+00	0	26	104	0	60	42828
2026-01-10 19:37:57.98	51.77	1.97	-46.3	-61.4	3.5	1.51e+00	0	26	104	0	60	42557
2026-01-10 19:38:01.01	51.51	2.12	-46.3	-61.1	3.5	1.51e+00	0	26	104	0	60	41096
2026-01-10 19:38:04.04	51.24	2.27	-46.3	-61.4	3.6	1.51e+00	0	26	104	0	60	42339
2026-01-10 19:38:07.07	50.97	2.42	-46.3	-61.4	3.6	1.51e+00	0	26	104	0	60	42276
2026-01-10 19:38:10.09	50.70	2.58	-46.3	-61.3	3.6	1.51e+00	0	27	104	0	60	42162
2026-01-10 19:38:13.12	50.43	2.73	-46.3	-60.7	3.6	1.51e+00	0	27	104	0	60	39170
2026-01-10 19:38:16.15	50.15	2.88	-46.0	-55.6	4.8	1.05e+00	57	27	0	0	60	21728
2026-01-10 19:38:19.18	49.87	3.03	-44.4	-48.9	11.2	1.29e-03	20	27	0	5242880	60	10047
2026-01-10 19:38:22.21	49.59	3.18	-46.2	-61.1	3.6	1.51e+00	0	27	104	10485760	60	41048
2026-01-10 19:38:25.24	49.30	3.33	-42.4	-45.0	15.4	0.00e+00	92	27	0	13631488	58	7183
2026-01-10 19:38:28.27	49.01	3.48	-41.7	-43.9	16.9	0.00e+00	91	27	0	18874368	56	7101
2026-01-10 19:38:31.30	48.72	3.64	-41.3	-43.3	17.2	0.00e+00	0	27	0	24117248	56	6642
2026-01-10 19:38:34.33	48.43	3.79	-41.5	-43.6	17.2	0.00e+00	56	27	0	30408704	56	6859
2026-01-10 19:38:37.36	48.13	3.94	-41.4	-43.4	17.3	0.00e+00	92	27	0	35651584	56	6698
2026-01-10 19:38:40.39	47.83	4.09	-41.1	-43.0	17.7	0.00e+00	0	27	0	41943040	56	6436
2026-01-10 19:38:43.42	47.52	4.25	-41.0	-42.8	17.9	0.00e+00	0	27	0	47185920	56	6263
2026-01-10 19:38:46.45	47.21	4.40	-41.0	-42.8	17.9	0.00e+00	64	27	0	52428800	56	6303
2026-01-10 19:38:49.48	46.90	4.55	-41.2	-43.0	17.7	0.00e+00	9	27	0	58720256	56	6452
2026-01-10 19:38:52.51	46.59	4.70	-41.2	-43.0	17.8	0.00e+00	0	27	0	63963136	56	6440
2026-01-10 19:38:55.54	46.27	4.86	-41.1	-42.9	18.0	0.00e+00	62	27	0	70254592	56	6352
2026-01-10 19:38:58.57	45.95	5.01	-41.2	-43.1	17.8	0.00e+00	80	27	0	75497472	56	6471
2026-01-10 19:39:01.60	45.62	5.16	-41.3	-43.2	17.8	0.00e+00	0	27	0	81788928	56	6550
2026-01-10 19:39:04.63	45.29	5.32	-41.1	-42.9	18.0	0.00e+00	0	27	0	87031808	56	6345
2026-01-10 19:39:07.66	44.96	5.47	-41.1	-42.9	18.0	0.00e+00	14	27	0	92274688	56	6347
2026-01-10 19:39:10.69	44.63	5.62	-40.3	-41.9	18.9	0.00e+00	0	27	0	98566144	54	6348
2026-01-10 19:39:13.73	44.28	5.78	-39.9	-41.4	19.4	0.00e+00	0	27	0	103809024	54	5969
2026-01-10 19:39:16.76	43.94	5.93	-39.7	-41.0	19.9	0.00e+00	63	27	0	110100480	52	6456
2026-01-10 19:39:19.79	43.59	6.08	-39.6	-41.0	19.8	0.00e+00	92	27	0	115343360	52	6423
2026-01-10 19:39:22.82	43.24	6.23	-39.5	-40.8	20.0	0.00e+00	0	27	0	121634816	52	6290
2026-01-10 19:39:25.85	42.89	6.39	-39.6	-41.0	19.8	0.00e+00	64	27	0	126877696	52	6443
2026-01-10 19:39:28.88	42.53	6.54	-39.9	-41.3	19.6	0.00e+00	15	27	0	132120576	52	6662
2026-01-10 19:39:31.91	42.17	6.69	-39.5	-40.9	20.0	0.00e+00	0	27	0	138412032	52	6362
2026-01-10 19:39:34.94	41.80	6.84	-39.7	-41.1	19.8	0.00e+00	0	27	0	143654912	52	6481
2026-01-10 19:39:37.97	41.43	6.99	-40.0	-41.4	19.5	0.00e+00	91	27	0	149946368	52	6711
2026-01-10 19:39:41.00	41.06	7.15	-40.1	-41.5	19.5	0.00e+00	0	27	0	155189248	52	6827
2026-01-10 19:39:44.03	40.68	7.30	-40.1	-41.6	19.5	0.00e+00	0	28	0	160432128	52	6872
2026-01-10 19:39:47.06	40.30	7.45	-40.1	-41.5	19.4	0.00e+00	0	28	0	166723584	52	6811
2026-01-10 19:39:50.09	39.91	7.60	-39.8	-41.2	19.8	0.00e+00	21	28	0	171966464	52	6577
2026-01-10 19:39:53.12	39.52	7.75	-39.8	-41.2	19.8	0.00e+00	13	28	0	178257920	52	6549
2026-01-10 19:39:56.15	39.13	7.90	-39.7	-41.0	20.0	0.00e+00	15	28	0	183500800	52	6437
2026-01-10 19:39:59.18	38.73	8.05	-39.7	-41.1	20.0	0.00e+00	85	28	0	189792256	52	6497
2026-01-10 19:40:02.20	38.33	8.20	-39.6	-40.9	19.9	0.00e+00	0	28	0	195035136	52	6370
2026-01-10 19:40:05.24	37.92	8.35	-39.6	-40.9	20.1	0.00e+00	0	28	0	200278016	52	6361
2026-01-10 19:40:08.27	37.51	8.49	-40.1	-41.6	19.4	0.00e+00	0	28	0	206569472	52	6921
2026-01-10 19:40:11.30	37.09	8.64	-40.2	-41.7	19.4	0.00e+00	0	28	0	211812352	52	6933
2026-01-10 19:40:14.33	36.67	8.79	-39.7	-41.1	20.0	0.00e+00	0	28	0	218103808	52	6468
2026-01-10 19:40:17.36	36.25	8.93	-39.9	-41.3	19.8	0.00e+00	0	28	0	223346688	52	6641
2026-01-10 19:40:20.39	35.82	9.08	-39.4	-40.8	20.2	0.00e+00	92	28	0	228589568	52	6250
2026-01-10 19:40:23.42	35.39	9.22	-39.0	-40.3	20.6	0.00e+00	0	28	0	234881024	52	5923
2026-01-10 19:40:26.44	34.95	9.37	-38.9	-40.1	21.0	0.00e+00	0	28	0	240123904	52	5773
2026-01-10 19:40:29.47	34.51	9.51	-38.4	-39.5	21.4	0.00e+00	92	28	0	246415360	50	6083
2026-01-10 19:40:32.50	34.06	9.65	-38.2	-39.3	21.4	0.00e+00	0	28	0	251658240	50	5962
2026-01-10 19:40:35.53	33.61	9.80	-37.7	-38.7	21.7	0.00e+00	0	28	0	256901120	50	5552
2026-01-10 19:40:38.56	33.16	9.94	-37.3	-38.3	22.2	0.00e+00	0	28	0	263192576	48	5916
2026-01-10 19:40:41.59	32.70	10.08	-37.7	-38.8	22.1	0.00e+00	16	28	0	268435456	48	6258
2026-01-10 19:40:44.61	32.24	10.21	-38.2	-39.3	21.7	0.00e+00	0	28	0	274726912	48	6668
2026-01-10 19:40:47.64	31.77	10.35	-38.3	-39.5	21.3	0.00e+00	0	28	0	279969792	48	6770
2026-01-10 19:40:50.67	31.29	10.49	-37.9	-39.0	21.8	0.00e+00	92	28	0	286261248	48	6444
2026-01-10 19:40:53.70	30.82	10.62	-37.7	-38.7	22.0	0.00e+00	0	28	0	291504128	48	6228
2026-01-10 19:40:56.73	30.34	10.76	-37.2	-38.2	22.5	0.00e+00	0	28	0	296747008	48	5846
2026-01-10 19:40:59.76	29.85	10.89	-36.8	-37.8	22.9	0.00e+00	69	28	0	303038464	48	5576
2026-01-10 19:41:02.79	29.36	11.02	-36.9	-37.9	22.8	0.00e+00	0	28	0	308281344	46	6336
2026-01-10 19:41:05.82	28.86	11.15	-37.2	-38.2	22.5	0.00e+00	0	28	0	314572800	46	6603
2026-01-10 19:41:08.85	28.36	11.28	-36.9	-37.9	22.8	0.00e+00	0	28	0	319815680	46	6322
2026-01-10 19:41:11.88	27.86	11.41	-36.6	-37.5	23.0	0.00e+00	81	28	0	325058560	46	6088
2026-01-10 19:41:14.91	27.35	11.53	-36.6	-37.5	23.1	0.00e+00	0	28	0	331350016	46	6089
2026-01-10 19:41:17.94	26.84	11.66	-36.9	-37.9	22.9	0.00e+00	0	28	0	336592896	46	6334
2026-01-10 19:41:20.97	26.32	11.78	-37.5	-38.6	22.3	0.00e+00	31	28	0	342884352	46	6876
2026-01-10 19:41:24.00	25.80	11.90	-37.6	-38.7	22.3	0.00e+00	0	28	0	348127232	46	6947
2026-01-10 19:41:27.03	25.27	12.02	-37.4	-38.4	22.1	0.00e+00	0	28	0	354418688	46	6762
2026-01-10 19:41:30.06	24.74	12.14	-37.1	-38.1	22.7	0.00e+00	69	28	0	359661568	46	6481
2026-01-10 19:41:33.09	24.21	12.25	-37.7	-38.7	22.2	0.00e+00	13	28	0	364904448	46	6971
2026-01-10 19:41:36.12	23.67	12.36	-37.7	-38.8	22.2	0.00e+00	0	28	0	371195904	46	7013
2026-01-10 19:41:39.15	23.13	12.48	-37.2	-38.2	22.6	0.00e+00	0	28	0	376438784	46	6611
2026-01-10 19:41:42.18	22.58	12.58	-36.7	-37.7	23.0	0.00e+00	83	28	0	382730240	46	6174
2026-01-10 19:41:45.21	22.03	12.69	-37.0	-37.9	22.8	0.00e+00	0	28	0	387973120	46	6355
2026-01-10 19:41:48.24	21.47	12.80	-37.3	-38.3	22.6	0.00e+00	0	29	0	393216000	46	6619
2026-01-10 19:41:51.27	20.91	12.90	-37.0	-38.0	22.8	0.00e+00	38	28	0	399507456	46	6398
2026-01-10 19:41:54.30	20.35	13.00	-37.0	-38.0	22.8	0.00e+00	0	28	0	404750336	46	6431
2026-01-10 19:41:57.33	19.78	13.10	-37.4	-38.5	22.2	0.00e+00	0	29	0	411041792	46	6780
2026-01-10 19:42:00.36	19.21	13.19	-38.5	-39.7	21.4	0.00e+00	90	28	0	416284672	48	6942
2026-01-10 19:42:03.39	18.64	13.29	-37.5	-38.6	22.4	0.00e+00	0	29	0	422576128	48	6114
2026-01-10 19:42:06.42	18.06	13.38	-36.8	-37.7	23.0	0.00e+00	0	28	0	427819008	46	6199
2026-01-10 19:42:09.45	17.48	13.47	-36.5	-37.4	22.4	0.00e+00	0	29	0	433061888	46	6001
2026-01-10 19:42:12.48	16.89	13.55	-36.1	-37.0	23.5	0.00e+00	30	29	0	439353344	46	5697
2026-01-10 19:42:15.51	16.30	13.63	-36.5	-37.4	23.3	0.00e+00	0	29	0	444596224	46	5994
2026-01-10 19:42:18.54	15.71	13.71	-36.0	-36.9	23.7	0.00e+00	0	29	0	450887680	46	5650
2026-01-10 19:42:21.57	15.11	13.79	-36.3	-37.2	23.4	0.00e+00	92	29	0	456130560	46	5842
2026-01-10 19:42:24.60	14.52	13.87	-37.2	-38.2	22.7	0.00e+00	0	29	0	461373440	46	6574
2026-01-10 19:42:27.63	13.92	13.94	-37.3	-38.3	22.6	0.00e+00	0	29	0	467664896	46	6679
2026-01-10 19:42:30.66	13.31	14.01	-37.7	-38.8	22.2	0.00e+00	0	29	0	472907776	48	6275
2026-01-10 19:42:33.69	12.70	14.07	-37.8	-38.9	22.0	0.00e+00	15	29	0	479199232	48	6351
2026-01-10 19:42:36.72	12.09	14.13	-37.6	-38.7	22.3	0.00e+00	0	29	0	484442112	48	6204
2026-01-10 19:42:39.75	11.48	14.19	-37.8	-38.9	22.1	0.00e+00	0	29	0	490733568	48	6343
2026-01-10 19:42:42.78	10.87	14.25	-37.0	-38.0	22.8	0.00e+00	66	29	0	495976448	48	5709
2026-01-10 19:42:45.81	10.25	14.30	-36.8	-37.7	23.1	0.00e+00	0	29	0	501219328	46	6226
2026-01-10 19:42:48.83	9.63	14.35	-36.6	-37.6	23.2	0.00e+00	0	29	0	507510784	46	6109
2026-01-10 19:42:51.86	9.01	14.40	-36.9	-37.8	22.9	0.00e+00	92	29	0	512753664	46	6276
2026-01-10 19:42:54.89	8.39	14.44	-37.4	-38.3	22.6	0.00e+00	16	29	0	519045120	46	6691
2026-01-10 19:42:57.92	7.77	14.48	-37.2	-38.2	22.7	0.00e+00	0	29	0	524288000	46	6588
2026-01-10 19:43:00.95	7.14	14.52	-36.9	-37.9	22.9	0.00e+00	0	29	0	529530880	46	6322
2026-01-10 19:43:03.98	6.51	14.55	-37.2	-38.2	22.6	0.00e+00	56	29	0	535822336	46	6554
2026-01-10 19:43:07.00	5.89	14.58	-37.3	-38.4	22.6	0.00e+00	0	29	0	541065216	46	6699
2026-01-10 19:43:10.03	5.26	14.61	-37.3	-38.3	22.6	0.00e+00	0	29	0	547356672	46	6689
2026-01-10 19:43:13.06	4.62	14.63	-37.0	-38.0	22.8	0.00e+00	71	29	0	552599552	46	6429
2026-01-10 19:43:16.08	3.99	14.65	-37.0	-38.0	22.9	0.00e+00	0	29	0	558891008	46	6408
2026-01-10 19:43:19.11	3.36	14.67	-36.8	-37.8	23.1	0.00e+00	0	29	0	564133888	46	6255
2026-01-10 19:43:22.14	2.73	14.68	-37.1	-38.0	22.9	0.00e+00	92	29	0	569376768	46	6442
2026-01-10 19:43:25.17	2.09	14.69	-37.4	-38.4	22.5	0.00e+00	0	29	0	575668224	46	6717
2026-01-10 19:43:28.20	1.46	14.69	-37.4	-38.3	22.6	0.00e+00	0	29	0	580911104	46	6691
2026-01-10 19:43:31.23	0.82	14.69	-37.2	-38.2	22.7	0.00e+00	0	29	0	587202560	46	6570
2026-01-10 19:43:34.26	0.19	14.69	-36.6	-37.5	23.2	0.00e+00	73	29	0	592445440	46	6092
2026-01-10 19:43:37.30	359.55	14.69	-36.7	-37.7	23.1	0.00e+00	0	29	0	597688320	46	6184
2026-01-10 19:43:40.33	358.92	14.68	-37.5	-38.5	22.4	0.00e+00	0	29	0	603979776	46	6825
2026-01-10 19:43:43.36	358.29	14.67	-37.6	-38.6	22.4	0.00e+00	69	29	0	609222656	46	6926
2026-01-10 19:43:46.39	357.65	14.65	-37.4	-38.4	22.7	0.00e+00	0	29	0	615514112	46	6729
2026-01-10 19:43:49.41	357.02	14.63	-38.0	-39.1	21.9	0.00e+00	0	29	0	620756992	48	6468
2026-01-10 19:43:52.44	356.39	14.61	-37.8	-38.8	22.1	0.00e+00	0	29	0	627048448	48	6285
2026-01-10 19:43:55.47	355.76	14.58	-37.3	-38.3	22.6	0.00e+00	10	29	0	632291328	48	5905
2026-01-10 19:43:58.50	355.13	14.55	-36.9	-37.8	23.1	0.00e+00	0	29	0	637534208	48	5598
2026-01-10 19:44:01.53	354.50	14.52	-37.4	-38.5	22.5	0.00e+00	0	29	0	643825664	48	6034
2026-01-10 19:44:04.55	353.88	14.49	-37.3	-38.3	22.6	0.00e+00	92	29	0	649068544	48	5934
2026-01-10 19:44:07.58	353.25	14.45	-36.9	-37.9	23.1	0.00e+00	0	29	0	655360000	48	5640
2026-01-10 19:44:10.61	352.63	14.40	-36.2	-37.1	23.6	0.00e+00	0	29	0	660602880	46	5795
2026-01-10 19:44:13.64	352.01	14.36	-36.6	-37.6	23.3	0.00e+00	91	29	0	665845760	46	6118
2026-01-10 19:44:16.67	351.39	14.31	-36.9	-37.8	23.1	0.00e+00	0	29	0	672137216	46	6281
2026-01-10 19:44:19.70	350.77	14.25	-37.1	-38.1	22.8	0.00e+00	0	29	0	677380096	46	6508
2026-01-10 19:44:22.73	350.16	14.20	-37.3	-38.3	22.7	0.00e+00	0	29	0	683671552	46	6619
2026-01-10 19:44:25.76	349.55	14.14	-37.1	-38.1	22.7	0.00e+00	13	29	0	688914432	46	6524
2026-01-10 19:44:28.79	348.94	14.08	-37.3	-38.3	22.6	0.00e+00	17	29	0	695205888	46	6641
2026-01-10 19:44:31.82	348.33	14.01	-36.8	-37.7	23.1	0.00e+00	0	29	0	700448768	46	6227
2026-01-10 19:44:34.85	347.73	13.94	-36.8	-37.8	23.0	0.00e+00	92	29	0	705691648	46	6254
2026-01-10 19:44:37.87	347.13	13.87	-37.0	-37.9	22.9	0.00e+00	0	29	0	711983104	46	6384
2026-01-10 19:44:40.90	346.53	13.80	-36.7	-37.6	23.2	0.00e+00	0	29	0	717225984	46	6111
2026-01-10 19:44:43.93	345.93	13.72	-36.9	-37.8	23.0	0.00e+00	38	29	0	723517440	46	6285
2026-01-10 19:44:46.95	345.34	13.64	-37.4	-38.4	22.6	0.00e+00	0	29	0	728760320	46	6763
2026-01-10 19:44:49.98	344.76	13.56	-37.3	-38.3	22.6	0.00e+00	0	30	0	734003200	46	6683
2026-01-10 19:44:53.01	344.17	13.48	-37.5	-38.5	22.5	0.00e+00	0	29	0	740294656	46	6826
2026-01-10 19:44:56.04	343.59	13.39	-37.7	-38.7	22.2	0.00e+00	65	30	0	745537536	48	6243
2026-01-10 19:44:59.07	343.01	13.30	-37.6	-38.6	22.4	0.00e+00	0	30	0	751828992	48	6137
2026-01-10 19:45:02.10	342.43	13.20	-37.1	-38.1	22.8	0.00e+00	0	29	0	757071872	48	5815
2026-01-10 19:45:05.13	341.86	13.11	-37.1	-38.1	22.7	0.00e+00	80	29	0	763363328	48	5779
2026-01-10 19:45:08.16	341.30	13.01	-37.1	-38.1	22.8	0.00e+00	13	30	0	768606208	48	5776
2026-01-10 19:45:11.19	340.73	12.91	-36.8	-37.8	23.0	0.00e+00	16	29	0	773849088	46	6263
2026-01-10 19:45:14.22	340.17	12.81	-36.3	-37.2	23.4	0.00e+00	88	29	0	780140544	46	5881
2026-01-10 19:45:17.25	339.62	12.70	-36.1	-37.0	23.6	0.00e+00	0	30	0	785383424	46	5740
2026-01-10 19:45:20.28	339.07	12.60	-36.6	-37.5	23.1	0.00e+00	0	30	0	791674880	46	6074
2026-01-10 19:45:23.31	338.52	12.49	-37.3	-38.4	22.6	0.00e+00	0	30	0	796917760	46	6701
2026-01-10 19:45:26.34	337.97	12.38	-37.6	-38.6	22.2	0.00e+00	84	30	0	802160640	46	6912
2026-01-10 19:45:29.37	337.44	12.26	-38.0	-39.2	21.8	0.00e+00	0	30	0	808452096	48	6542
2026-01-10 19:45:32.39	336.90	12.15	-37.9	-38.9	22.1	0.00e+00	0	30	0	813694976	48	6383
2026-01-10 19:45:35.42	336.37	12.03	-37.9	-38.9	22.0	0.00e+00	81	29	0	819986432	48	6377
2026-01-10 19:45:38.45	335.84	11.91	-37.8	-38.9	22.1	7.00e-07	0	29	0	825229312	48	6326
2026-01-10 19:45:41.48	335.32	11.79	-38.0	-39.1	21.8	0.00e+00	0	30	0	831520768	48	6536
2026-01-10 19:45:44.50	334.81	11.67	-37.8	-38.8	22.1	0.00e+00	92	30	0	836763648	48	6288
2026-01-10 19:45:47.53	334.29	11.55	-37.9	-38.9	22.0	0.00e+00	0	30	0	842006528	48	6369
2026-01-10 19:45:50.56	333.78	11.42	-38.3	-39.4	21.6	0.00e+00	0	30	0	848297984	48	6740
2026-01-10 19:45:53.59	333.28	11.29	-37.8	-38.8	22.2	0.00e+00	0	30	0	853540864	48	6308
2026-01-10 19:45:56.62	332.78	11.17	-37.3	-38.3	22.5	0.00e+00	9	30	0	859832320	48	5900
2026-01-10 19:45:59.65	332.28	11.04	-38.1	-39.2	21.8	0.00e+00	0	30	0	865075200	48	6564
2026-01-10 19:46:02.68	331.79	10.90	-38.9	-40.2	20.9	0.00e+00	0	30	0	870318080	50	6556
2026-01-10 19:46:05.70	331.31	10.77	-39.3	-40.6	20.6	0.00e+00	92	30	0	876609536	50	6916
2026-01-10 19:46:08.73	330.83	10.64	-38.4	-39.6	21.5	0.00e+00	0	30	0	881852416	50	6123
2026-01-10 19:46:11.76	330.35	10.50	-38.4	-39.6	21.4	0.00e+00	0	30	0	888143872	50	6111
2026-01-10 19:46:14.79	329.87	10.37	-39.4	-40.6	20.3	0.00e+00	0	30	0	893386752	50	6927
2026-01-10 19:46:17.82	329.41	10.23	-40.9	-42.6	18.7	0.00e+00	13	30	0	899678208	54	6880
2026-01-10 19:46:20.84	328.94	10.09	-41.0	-42.7	18.4	0.00e+00	0	30	0	904921088	54	6970
2026-01-10 19:46:23.88	328.48	9.95	-40.8	-42.4	18.9	0.00e+00	0	30	0	910163968	54	6758
2026-01-10 19:46:26.90	328.03	9.81	-40.2	-41.7	19.5	0.00e+00	92	30	0	916455424	54	6174
2026-01-10 19:46:29.93	327.58	9.67	-40.1	-41.6	19.6	0.00e+00	0	30	0	921698304	54	6127
2026-01-10 19:46:32.96	327.13	9.53	-39.7	-41.0	20.2	0.00e+00	0	30	0	927989760	52	6440
2026-01-10 19:46:35.99	326.69	9.39	-39.5	-40.8	20.4	0.00e+00	65	30	0	933232640	52	6275
2026-01-10 19:46:39.02	326.25	9.24	-39.6	-40.9	20.2	0.00e+00	0	30	0	938475520	52	6387
2026-01-10 19:46:42.05	325.82	9.10	-39.3	-40.6	20.5	0.00e+00	0	30	0	944766976	52	6137
2026-01-10 19:46:45.08	325.39	8.95	-38.9	-40.1	21.1	0.00e+00	7	30	0	950009856	50	6474
2026-01-10 19:46:48.11	324.97	8.81	-38.6	-39.8	21.2	0.00e+00	24	30	0	956301312	50	6293
2026-01-10 19:46:51.14	324.55	8.66	-38.5	-39.7	21.3	0.00e+00	7	30	0	961544192	50	6205
2026-01-10 19:46:54.17	324.13	8.51	-39.0	-40.2	20.9	0.00e+00	15	30	0	967835648	50	6558
2026-01-10 19:46:57.19	323.72	8.36	-39.0	-40.3	20.8	0.00e+00	45	30	0	973078528	50	6627
2026-01-10 19:47:00.22	323.31	8.22	-39.2	-40.5	20.5	0.00e+00	0	30	0	978321408	50	6812
2026-01-10 19:47:03.25	322.91	8.07	-39.1	-40.3	20.7	0.00e+00	0	30	0	984612864	50	6684
2026-01-10 19:47:06.28	322.51	7.92	-39.1	-40.3	20.7	0.00e+00	90	30	0	989855744	50	6681
2026-01-10 19:47:09.31	322.12	7.77	-39.0	-40.2	20.9	0.00e+00	0	30	0	996147200	50	6613
2026-01-10 19:47:12.34	321.72	7.62	-39.3	-40.6	20.5	0.00e+00	0	30	0	1001390080	50	6896
2026-01-10 19:47:15.37	321.34	7.47	-38.3	-39.4	21.5	0.00e+00	0	30	0	1006632960	50	6005
2026-01-10 19:47:18.40	320.96	7.32	-37.7	-38.7	22.0	0.00e+00	47	30	0	1012924416	48	6224
2026-01-10 19:47:21.43	320.58	7.17	-37.6	-38.7	22.0	0.00e+00	0	30	0	1018167296	48	6181
2026-01-10 19:47:24.46	320.20	7.01	-37.8	-38.9	21.8	0.00e+00	0	30	0	1024458752	48	6355
2026-01-10 19:47:27.49	319.83	6.86	-37.7	-38.8	21.8	0.00e+00	89	30	0	1029701632	48	6265
2026-01-10 19:47:30.52	319.47	6.71	-37.7	-38.8	21.9	0.00e+00	0	30	0	1035993088	48	6280
2026-01-10 19:47:33.55	319.10	6.56	-37.6	-38.7	22.1	0.00e+00	0	30	0	1041235968	48	6178
2026-01-10 19:47:36.58	318.75	6.41	-37.7	-38.8	21.8	0.00e+00	26	30	0	1046478848	48	6263
2026-01-10 19:47:39.61	318.39	6.25	-38.0	-39.1	21.6	0.00e+00	0	30	0	1052770304	48	6494
2026-01-10 19:47:42.64	318.04	6.10	-38.2	-39.4	21.4	0.00e+00	5	30	0	1058013184	48	6736
2026-01-10 19:47:45.67	317.69	5.95	-38.4	-39.6	21.1	0.00e+00	0	30	0	1064304640	48	6887
2026-01-10 19:47:48.70	317.35	5.80	-38.4	-39.6	21.2	0.00e+00	7	30	0	1069547520	48	6916
2026-01-10 19:47:51.72	317.01	5.64	-38.6	-39.8	20.8	0.00e+00	0	30	0	1074790400	48	7087
2026-01-10 19:47:54.75	316.67	5.49	-38.4	-39.6	21.1	0.00e+00	0	30	0	1081081856	48	6895
2026-01-10 19:47:57.78	316.34	5.34	-38.6	-39.8	20.9	0.00e+00	92	30	0	1086324736	50	6306
2026-01-10 19:48:00.81	316.01	5.18	-38.6	-39.8	20.8	0.00e+00	0	30	0	1092616192	50	6312
2026-01-10 19:48:03.84	315.69	5.03	-38.3	-39.4	20.9	0.00e+00	0	30	0	1097859072	50	6016
2026-01-10 19:48:06.87	315.36	4.88	-38.5	-39.6	21.0	0.00e+00	49	30	0	1104150528	50	6172
2026-01-10 19:48:09.90	315.05	4.73	-38.3	-39.5	21.1	0.00e+00	9	30	0	1109393408	50	6062
2026-01-10 19:48:12.93	314.73	4.57	-38.7	-39.9	20.7	0.00e+00	0	30	0	1114636288	50	6347
2026-01-10 19:48:15.96	314.42	4.42	-39.3	-40.6	20.2	0.00e+00	0	30	0	1120927744	50	6907
2026-01-10 19:48:18.99	314.11	4.27	-39.5	-40.8	19.8	0.00e+00	91	30	0	1126170624	50	7075
2026-01-10 19:48:22.02	313.81	4.12	-39.1	-40.5	20.1	0.00e+00	0	30	0	1132462080	50	6771
2026-01-10 19:48:25.05	313.50	3.96	-38.8	-40.1	20.5	0.00e+00	0	30	0	1137704960	50	6501
2026-01-10 19:48:28.08	313.20	3.81	-38.4	-39.6	20.9	0.00e+00	92	30	0	1142947840	50	6111
2026-01-10 19:48:31.11	312.91	3.66	-38.2	-39.4	21.0	0.00e+00	0	30	0	1149239296	50	5988
2026-01-10 19:48:34.14	312.62	3.51	-38.5	-39.7	20.8	0.00e+00	0	30	0	1154482176	50	6183
2026-01-10 19:48:37.17	312.33	3.35	-38.8	-40.1	20.2	0.00e+00	0	30	0	1160773632	50	6499
2026-01-10 19:48:40.20	312.04	3.20	-39.3	-40.7	19.7	0.00e+00	23	30	0	1166016512	50	6952
2026-01-10 19:48:43.23	311.76	3.05	-39.9	-41.4	19.1	0.00e+00	0	30	0	1172307968	52	6748
2026-01-10 19:48:46.26	311.48	2.90	-47.7	-62.9	3.6	1.51e+00	0	30	104	1174405120	60	50570
2026-01-10 19:48:49.29	311.20	2.75	-48.2	-63.4	3.6	1.51e+00	0	30	104	1174405120	60	53202
2026-01-10 19:48:52.32	310.93	2.60	-48.3	-63.5	3.6	1.51e+00	0	30	104	1174405120	60	54209
2026-01-10 19:48:55.35	310.66	2.45	-47.7	-63.4	3.6	1.51e+00	0	30	104	1174405120	60	53505
2026-01-10 19:48:58.38	310.39	2.30	-47.9	-63.3	3.6	1.51e+00	0	30	104	1174405120	60	53069
2026-01-10 19:49:01.41	310.12	2.15	-48.2	-63.4	3.6	1.51e+00	0	30	104	1174405120	60	53514
2026-01-10 19:49:04.44	309.86	2.00	-48.1	-63.3	3.6	1.51e+00	0	30	104	1174405120	60	52983
2026-01-10 19:49:07.47	309.60	1.85	-48.1	-63.3	3.6	1.51e+00	0	30	104	1174405120	60	53101
2026-01-10 19:49:10.50	309.34	1.70	-48.1	-63.3	3.6	1.51e+00	0	30	104	1174405120	60	52662
2026-01-10 19:49:13.53	309.09	1.55	-48.1	-63.3	3.6	1.51e+00	0	30	104	1174405120	60	52771
2026-01-10 19:49:16.56	308.84	1.40	-48.1	-63.2	3.6	1.51e+00	0	30	104	1174405120	60	52368
2026-01-10 19:49:19.59	308.59	1.25	-48.1	-63.3	3.6	1.51e+00	0	30	104	1174405120	60	53059
2026-01-10 19:49:22.62	308.34	1.10	-48.1	-63.3	3.6	1.51e+00	0	30	104	1174405120	60	52738
2026-01-10 19:49:25.65	308.09	0.95	-48.1	-63.2	3.6	1.51e+00	0	30	104	1174405120	60	52459
2026-01-10 19:49:28.68	307.85	0.80	-48.1	-63.2	3.6	1.51e+00	0	30	104	1174405120	60	52516
2026-01-10 19:49:31.71	307.61	0.66	-48.1	-63.2	3.6	1.51e+00	0	30	104	1174405120	60	52516
2026-01-10 19:49:34.74	307.38	0.51	-48.1	-63.3	3.6	1.51e+00	0	30	104	1174405120	60	52602
2026-01-10 19:49:37.77	307.14	0.36	-48.1	-63.3	3.6	1.51e+00	0	30	104	1174405120	60	52697
2026-01-10 19:49:40.80	306.91	0.21	-48.1	-63.3	3.6	1.51e+00	0	30	104	1174405120	60	52582
2026-01-10 19:49:43.82	306.68	0.07	-48.0	-63.2	3.6	1.51e+00	0	30	104	1174405120	60	52384

#Closed at: 2026-01-10 19:49:46
#Recorded file [1174 MB]: D:/lorett/data/35029_260111_073718.dat