passes_logs/2026/01/10/R4.6S_Anadyr/R4.6S_Anadyr__20260110_181848_NOAA_20_JPSS-1_rec.log

#Pass ID: 20260110_181848_NOAA 20 (JPSS-1)
#Satellite: NOAA 20 (JPSS-1)
#Configuration: NOAA 20
#almurnet v.1.7.20251203
#Start time: 2026-01-10 18:18:51

#Version: 2.2.20231116
#Station: R4.6S_Anadyr
#Location: 177.4865 lon 64.73178 lat
#TLE: 1 43013U 17073A   26009.69119415  .00000109  00000+0  72598-4 0  9996
#TLE: 2 43013  98.7631 310.6868 0001678  46.7442 313.3874 14.19534878421981

#Time	Az	El	Level	Level2	SNR	BER	BlckErr	Temp	State	Recorded	gain1	gain2
2026-01-10 18:18:51.17	39.29	0.11	-48.1	-63.0	3.5	1.51e+00	0	26	0	0	60	51143
2026-01-10 18:18:55.21	39.01	0.32	-48.2	-63.4	3.6	1.51e+00	0	27	104	0	60	53390
2026-01-10 18:18:59.25	38.72	0.52	-48.1	-63.3	3.6	1.51e+00	0	27	104	0	60	52776
2026-01-10 18:19:03.28	38.43	0.73	-47.9	-63.0	3.6	1.51e+00	0	27	104	0	60	51198
2026-01-10 18:19:07.32	38.13	0.93	-46.6	-61.8	3.6	1.51e+00	0	27	104	0	60	44243
2026-01-10 18:19:11.36	37.83	1.14	-46.5	-61.6	3.6	1.51e+00	0	27	104	0	60	43348
2026-01-10 18:19:15.40	37.53	1.34	-46.5	-61.6	3.6	1.51e+00	0	27	104	0	60	43328
2026-01-10 18:19:19.43	37.22	1.55	-46.5	-61.5	3.6	1.51e+00	0	27	104	0	60	43190
2026-01-10 18:19:23.47	36.90	1.76	-46.5	-61.6	3.6	1.51e+00	0	27	104	0	60	43524
2026-01-10 18:19:27.51	36.58	1.97	-46.5	-61.5	3.6	1.51e+00	0	27	104	0	60	43175
2026-01-10 18:19:31.55	36.26	2.18	-46.4	-61.2	3.6	1.51e+00	0	28	104	0	60	41688
2026-01-10 18:19:35.60	35.93	2.39	-46.4	-61.6	3.6	1.51e+00	0	28	104	0	60	43208
2026-01-10 18:19:39.64	35.60	2.60	-46.4	-61.5	3.6	1.51e+00	0	28	104	0	60	42744
2026-01-10 18:19:43.68	35.26	2.81	-46.4	-61.2	3.5	1.51e+00	0	28	104	0	60	41579
2026-01-10 18:19:47.72	34.91	3.02	-45.3	-51.2	8.7	7.33e-02	7	28	0	3145728	60	13138
2026-01-10 18:19:51.75	34.57	3.23	-46.3	-59.7	3.5	7.29e-03	0	27	104	8388608	60	34936
2026-01-10 18:19:55.79	34.21	3.45	-42.4	-44.9	15.4	0.00e+00	0	27	0	11534336	58	7124
2026-01-10 18:19:59.83	33.85	3.66	-41.9	-44.1	16.7	0.00e+00	0	28	0	19922944	58	6513
2026-01-10 18:20:03.86	33.49	3.88	-41.9	-43.9	17.0	0.00e+00	0	27	0	27262976	56	7161
2026-01-10 18:20:07.90	33.12	4.09	-41.7	-43.8	17.1	0.00e+00	91	27	0	34603008	56	7016
2026-01-10 18:20:11.94	32.74	4.31	-41.0	-42.7	18.1	0.00e+00	0	27	0	41943040	56	6218
2026-01-10 18:20:15.98	32.36	4.52	-41.2	-43.0	18.0	0.00e+00	0	27	0	49283072	56	6395
2026-01-10 18:20:20.02	31.97	4.74	-40.9	-42.5	18.4	0.00e+00	0	27	0	57671680	54	6821
2026-01-10 18:20:24.06	31.57	4.96	-41.0	-42.7	18.3	0.00e+00	92	28	0	65011712	54	6958
2026-01-10 18:20:28.09	31.17	5.17	-41.0	-42.7	18.3	0.00e+00	0	27	0	72351744	54	6979
2026-01-10 18:20:32.13	30.77	5.39	-40.9	-42.6	18.5	0.00e+00	0	27	0	79691776	54	6875
2026-01-10 18:20:36.17	30.35	5.61	-40.9	-42.5	18.5	0.00e+00	2	27	0	88080384	54	6825
2026-01-10 18:20:40.21	29.94	5.83	-40.8	-42.4	18.7	0.00e+00	90	27	0	95420416	54	6708
2026-01-10 18:20:44.25	29.51	6.05	-40.7	-42.3	18.9	0.00e+00	82	27	0	102760448	54	6648
2026-01-10 18:20:48.29	29.08	6.27	-40.9	-42.5	18.7	0.00e+00	0	27	0	110100480	54	6814
2026-01-10 18:20:52.33	28.64	6.49	-40.7	-42.3	18.8	0.00e+00	92	27	0	117440512	54	6667
2026-01-10 18:20:56.37	28.19	6.71	-40.5	-42.0	19.2	0.00e+00	76	27	0	125829120	54	6435
2026-01-10 18:21:00.40	27.74	6.93	-40.1	-41.6	19.7	0.00e+00	80	27	0	133169152	54	6105
2026-01-10 18:21:04.44	27.28	7.15	-40.2	-41.6	19.2	0.00e+00	81	27	0	140509184	54	6120
2026-01-10 18:21:08.48	26.81	7.37	-39.8	-41.2	20.0	0.00e+00	90	27	0	147849216	54	5843
2026-01-10 18:21:12.52	26.33	7.59	-39.9	-41.2	20.0	0.00e+00	0	28	0	156237824	54	5888
2026-01-10 18:21:16.56	25.85	7.81	-39.8	-41.1	20.1	0.00e+00	7	27	0	163577856	52	6491
2026-01-10 18:21:20.60	25.36	8.03	-39.3	-40.5	20.7	0.00e+00	0	27	0	170917888	52	6098
2026-01-10 18:21:24.63	24.87	8.25	-39.6	-40.8	20.5	0.00e+00	92	27	0	178257920	52	6303
2026-01-10 18:21:28.67	24.36	8.47	-39.6	-40.9	20.5	0.00e+00	86	27	0	185597952	52	6336
2026-01-10 18:21:32.71	23.85	8.69	-39.5	-40.8	20.6	0.00e+00	0	28	0	193986560	52	6263
2026-01-10 18:21:36.76	23.32	8.91	-39.4	-40.7	20.6	0.00e+00	0	28	0	201326592	52	6202
2026-01-10 18:21:40.79	22.80	9.13	-39.2	-40.5	21.0	0.00e+00	91	28	0	208666624	52	6034
2026-01-10 18:21:44.84	22.26	9.35	-39.3	-40.5	21.0	0.00e+00	80	27	0	216006656	52	6051
2026-01-10 18:21:48.87	21.71	9.57	-39.3	-40.5	20.9	0.00e+00	81	27	0	224395264	52	6037
2026-01-10 18:21:52.91	21.16	9.79	-39.2	-40.4	21.0	0.00e+00	0	27	0	231735296	52	6018
2026-01-10 18:21:56.95	20.59	10.00	-39.1	-40.3	21.1	0.00e+00	92	27	0	239075328	52	5946
2026-01-10 18:22:00.99	20.02	10.22	-39.3	-40.5	21.1	0.00e+00	0	27	0	246415360	52	6044
2026-01-10 18:22:05.03	19.44	10.44	-39.1	-40.3	21.2	0.00e+00	0	27	0	253755392	52	5930
2026-01-10 18:22:09.07	18.85	10.65	-39.2	-40.4	21.1	0.00e+00	0	27	0	262144000	52	5998
2026-01-10 18:22:13.11	18.26	10.86	-39.0	-40.2	21.3	0.00e+00	92	27	0	269484032	52	5831
2026-01-10 18:22:17.15	17.65	11.07	-39.2	-40.3	21.2	0.00e+00	0	27	0	276824064	52	5951
2026-01-10 18:22:21.19	17.03	11.28	-39.2	-40.4	21.1	0.00e+00	0	27	0	284164096	52	6016
2026-01-10 18:22:25.22	16.41	11.49	-39.0	-40.2	21.4	0.00e+00	90	27	0	292552704	52	5835
2026-01-10 18:22:29.26	15.78	11.70	-38.7	-39.8	21.7	0.00e+00	82	27	0	299892736	50	6276
2026-01-10 18:22:33.30	15.13	11.91	-38.5	-39.6	21.8	0.00e+00	0	27	0	307232768	50	6162
2026-01-10 18:22:37.34	14.48	12.11	-38.2	-39.2	22.2	0.00e+00	0	27	0	314572800	50	5847
2026-01-10 18:22:41.38	13.82	12.31	-37.8	-38.8	22.6	0.00e+00	92	27	0	321912832	48	6252
2026-01-10 18:22:45.42	13.15	12.51	-37.7	-38.6	22.8	0.00e+00	0	27	0	330301440	48	6166
2026-01-10 18:22:49.46	12.47	12.71	-37.7	-38.7	22.7	0.00e+00	80	27	0	337641472	48	6207
2026-01-10 18:22:53.50	11.78	12.90	-37.5	-38.5	22.9	0.00e+00	6	27	0	344981504	48	6041
2026-01-10 18:22:57.54	11.08	13.09	-37.2	-38.2	23.2	0.00e+00	92	27	0	352321536	48	5835
2026-01-10 18:23:01.57	10.38	13.28	-37.0	-38.0	23.4	0.00e+00	5	27	0	360710144	48	5703
2026-01-10 18:23:05.61	9.66	13.47	-36.9	-37.8	22.7	0.00e+00	0	27	0	368050176	48	5598
2026-01-10 18:23:09.65	8.93	13.65	-36.9	-37.8	23.6	0.00e+00	2	27	0	375390208	48	5586
2026-01-10 18:23:13.69	8.20	13.83	-36.7	-37.6	23.7	0.00e+00	92	27	0	382730240	46	6155
2026-01-10 18:23:17.73	7.46	14.01	-36.8	-37.7	23.7	0.00e+00	6	27	0	390070272	46	6217
2026-01-10 18:23:21.77	6.70	14.18	-37.3	-38.2	23.2	0.00e+00	0	27	0	398458880	46	6587
2026-01-10 18:23:25.81	5.94	14.35	-37.2	-38.1	23.3	0.00e+00	0	27	0	405798912	46	6504
2026-01-10 18:23:29.85	5.17	14.51	-37.2	-38.1	23.4	0.00e+00	92	27	0	413138944	46	6533
2026-01-10 18:23:33.88	4.39	14.67	-37.0	-37.9	23.3	0.00e+00	0	27	0	420478976	46	6373
2026-01-10 18:23:37.92	3.61	14.83	-37.0	-38.0	23.5	0.00e+00	0	27	0	428867584	46	6399
2026-01-10 18:23:41.96	2.81	14.98	-36.8	-37.7	23.8	0.00e+00	0	27	0	436207616	46	6211
2026-01-10 18:23:46.00	2.01	15.13	-36.6	-37.5	23.9	0.00e+00	82	27	0	443547648	46	6047
2026-01-10 18:23:50.03	1.20	15.27	-36.6	-37.4	24.0	0.00e+00	0	27	0	450887680	46	6024
2026-01-10 18:23:54.07	0.38	15.41	-36.6	-37.5	23.9	0.00e+00	0	27	0	458227712	46	6044
2026-01-10 18:23:58.11	359.55	15.54	-36.6	-37.5	23.9	0.00e+00	66	27	0	466616320	46	6073
2026-01-10 18:24:02.15	358.72	15.67	-36.8	-37.7	23.8	0.00e+00	53	27	0	473956352	46	6191
2026-01-10 18:24:06.19	357.87	15.79	-36.7	-37.6	23.8	0.00e+00	81	27	0	481296384	46	6157
2026-01-10 18:24:10.23	357.03	15.90	-36.8	-37.7	23.7	0.00e+00	2	27	0	488636416	46	6235
2026-01-10 18:24:14.27	356.17	16.01	-36.6	-37.5	23.9	0.00e+00	91	27	0	497025024	46	6036
2026-01-10 18:24:18.31	355.31	16.12	-36.6	-37.5	23.9	0.00e+00	0	27	0	504365056	46	6080
2026-01-10 18:24:22.35	354.44	16.21	-36.6	-37.4	24.0	0.00e+00	0	27	0	511705088	46	6011
2026-01-10 18:24:26.39	353.57	16.30	-37.1	-38.0	23.5	0.00e+00	0	27	0	519045120	46	6414
2026-01-10 18:24:30.43	352.69	16.39	-37.3	-38.2	23.4	0.00e+00	92	27	0	526385152	46	6599
2026-01-10 18:24:34.47	351.81	16.46	-37.4	-38.3	23.3	0.00e+00	2	27	0	534773760	46	6639
2026-01-10 18:24:38.51	350.92	16.54	-37.0	-37.9	23.7	0.00e+00	5	27	0	542113792	46	6323
2026-01-10 18:24:42.55	350.03	16.60	-37.1	-38.0	23.5	0.00e+00	0	27	0	549453824	46	6452
2026-01-10 18:24:46.59	349.14	16.66	-37.1	-38.1	23.4	0.00e+00	92	27	0	556793856	46	6467
2026-01-10 18:24:50.63	348.24	16.71	-37.5	-38.5	23.1	0.00e+00	85	27	0	565182464	46	6800
2026-01-10 18:24:54.67	347.34	16.75	-37.3	-38.3	23.4	0.00e+00	85	27	0	572522496	46	6619
2026-01-10 18:24:58.71	346.44	16.79	-37.5	-38.4	23.1	0.00e+00	6	27	0	579862528	46	6755
2026-01-10 18:25:02.75	345.53	16.81	-37.4	-38.3	23.2	0.00e+00	92	27	0	587202560	46	6671
2026-01-10 18:25:06.79	344.63	16.84	-37.3	-38.3	23.4	0.00e+00	0	27	0	595591168	46	6619
2026-01-10 18:25:10.83	343.72	16.85	-37.3	-38.3	23.2	0.00e+00	0	27	0	602931200	46	6622
2026-01-10 18:25:14.87	342.81	16.86	-37.3	-38.3	23.3	0.00e+00	0	27	0	610271232	46	6616
2026-01-10 18:25:18.91	341.90	16.85	-37.7	-38.6	23.0	0.00e+00	91	27	0	617611264	46	6924
2026-01-10 18:25:22.95	341.00	16.85	-37.5	-38.5	23.0	0.00e+00	0	27	0	624951296	46	6787
2026-01-10 18:25:26.98	340.09	16.83	-37.1	-38.0	23.4	0.00e+00	0	27	0	633339904	46	6454
2026-01-10 18:25:31.02	339.19	16.81	-37.6	-38.6	22.9	0.00e+00	84	27	0	640679936	46	6867
2026-01-10 18:25:35.05	338.28	16.78	-37.5	-38.5	23.2	0.00e+00	30	27	0	648019968	46	6799
2026-01-10 18:25:39.09	337.38	16.74	-37.3	-38.2	23.3	0.00e+00	0	27	0	655360000	46	6602
2026-01-10 18:25:43.13	336.48	16.70	-37.1	-38.0	23.6	0.00e+00	0	27	0	663748608	46	6401
2026-01-10 18:25:47.17	335.58	16.64	-37.3	-38.3	23.3	0.00e+00	84	27	0	671088640	46	6620
2026-01-10 18:25:51.21	334.69	16.59	-37.0	-37.9	23.7	0.00e+00	81	27	0	678428672	46	6331
2026-01-10 18:25:55.25	333.80	16.52	-36.6	-37.5	23.9	0.00e+00	0	27	0	685768704	46	6077
2026-01-10 18:25:59.29	332.91	16.45	-37.0	-37.9	23.6	0.00e+00	0	27	0	693108736	46	6318
2026-01-10 18:26:03.33	332.03	16.37	-36.6	-37.5	23.9	0.00e+00	92	27	0	701497344	46	6075
2026-01-10 18:26:07.37	331.16	16.28	-36.6	-37.5	24.0	0.00e+00	0	27	0	708837376	46	6059
2026-01-10 18:26:11.42	330.28	16.19	-36.9	-37.8	23.8	0.00e+00	0	27	0	716177408	46	6250
2026-01-10 18:26:15.46	329.42	16.09	-37.0	-37.9	23.6	0.00e+00	81	27	0	723517440	46	6335
2026-01-10 18:26:19.49	328.56	15.99	-37.1	-38.1	23.5	0.00e+00	92	27	0	731906048	46	6468
2026-01-10 18:26:23.54	327.70	15.88	-37.3	-38.2	23.3	0.00e+00	0	27	0	739246080	46	6580
2026-01-10 18:26:27.58	326.85	15.76	-37.5	-38.4	23.2	0.00e+00	6	27	0	746586112	46	6748
2026-01-10 18:26:31.62	326.01	15.64	-37.5	-38.4	23.1	0.00e+00	0	27	0	753926144	46	6750
2026-01-10 18:26:35.66	325.18	15.51	-37.5	-38.4	23.2	0.00e+00	84	27	0	761266176	46	6748
2026-01-10 18:26:39.69	324.36	15.38	-37.4	-38.3	23.3	0.00e+00	8	27	0	769654784	46	6653
2026-01-10 18:26:43.73	323.54	15.24	-37.0	-37.9	23.6	0.00e+00	0	27	0	776994816	46	6352
2026-01-10 18:26:47.77	322.73	15.10	-37.1	-38.0	23.5	0.00e+00	0	27	0	784334848	46	6441
2026-01-10 18:26:51.81	321.92	14.95	-37.2	-38.1	23.4	0.00e+00	92	27	0	791674880	46	6473
2026-01-10 18:26:55.85	321.13	14.79	-37.2	-38.1	23.4	0.00e+00	82	27	0	800063488	46	6536
2026-01-10 18:26:59.89	320.34	14.64	-37.2	-38.1	23.4	0.00e+00	0	27	0	807403520	46	6469
2026-01-10 18:27:03.93	319.57	14.48	-37.3	-38.2	23.4	0.00e+00	71	27	0	814743552	46	6568
2026-01-10 18:27:07.96	318.80	14.31	-37.4	-38.3	23.3	0.00e+00	90	27	0	822083584	46	6675
2026-01-10 18:27:12.00	318.04	14.14	-37.3	-38.2	23.3	0.00e+00	81	27	0	829423616	46	6606
2026-01-10 18:27:16.03	317.29	13.97	-37.2	-38.1	23.4	0.00e+00	0	27	0	837812224	46	6512
2026-01-10 18:27:20.07	316.55	13.79	-37.7	-38.7	22.8	0.00e+00	91	27	0	845152256	48	6212
2026-01-10 18:27:24.10	315.81	13.61	-37.9	-38.9	22.7	0.00e+00	14	27	0	852492288	48	6379
2026-01-10 18:27:28.15	315.09	13.43	-38.0	-39.0	22.6	0.00e+00	0	27	0	859832320	48	6464
2026-01-10 18:27:32.19	314.37	13.24	-38.2	-39.2	22.4	0.00e+00	0	27	0	868220928	48	6590
2026-01-10 18:27:36.23	313.67	13.05	-38.6	-39.7	22.0	0.00e+00	92	27	0	875560960	48	6929
2026-01-10 18:27:40.27	312.97	12.86	-38.9	-40.0	21.6	0.00e+00	1	27	0	882900992	50	6464
2026-01-10 18:27:44.30	312.28	12.66	-39.1	-40.2	21.5	0.00e+00	0	27	0	890241024	50	6573
2026-01-10 18:27:48.34	311.60	12.46	-38.9	-40.0	21.7	0.00e+00	0	27	0	897581056	50	6448
2026-01-10 18:27:52.38	310.93	12.26	-39.4	-40.6	21.1	0.00e+00	91	27	0	905969664	50	6871
2026-01-10 18:27:56.42	310.27	12.06	-39.8	-41.0	20.8	0.00e+00	0	27	0	913309696	52	6463
2026-01-10 18:28:00.45	309.62	11.86	-39.6	-40.8	20.9	0.00e+00	81	27	0	920649728	52	6299
2026-01-10 18:28:04.49	308.98	11.65	-39.6	-40.9	20.8	0.00e+00	0	27	0	927989760	52	6335
2026-01-10 18:28:08.53	308.35	11.44	-39.8	-41.0	20.8	0.00e+00	92	27	0	935329792	52	6450
2026-01-10 18:28:12.57	307.73	11.23	-39.8	-41.0	20.7	0.00e+00	6	27	0	943718400	52	6433
2026-01-10 18:28:16.61	307.11	11.02	-39.6	-40.9	20.8	0.00e+00	0	27	0	951058432	52	6320
2026-01-10 18:28:20.65	306.51	10.81	-39.7	-40.9	20.8	0.00e+00	70	27	0	958398464	52	6359
2026-01-10 18:28:24.69	305.91	10.60	-39.4	-40.6	21.1	0.00e+00	92	27	0	965738496	52	6141
2026-01-10 18:28:28.73	305.32	10.38	-39.3	-40.5	21.1	0.00e+00	6	27	0	974127104	52	6070
2026-01-10 18:28:32.76	304.74	10.17	-39.0	-40.1	21.5	0.00e+00	0	27	0	981467136	52	5822
2026-01-10 18:28:36.80	304.17	9.95	-38.9	-40.0	21.6	0.00e+00	7	28	0	988807168	52	5701
2026-01-10 18:28:40.84	303.61	9.74	-38.9	-40.0	21.5	0.00e+00	49	28	0	996147200	52	5761
2026-01-10 18:28:44.88	303.06	9.52	-38.7	-39.8	21.8	0.00e+00	0	28	0	1003487232	50	6284
2026-01-10 18:28:48.92	302.51	9.30	-38.2	-39.2	22.2	0.00e+00	3	28	0	1011875840	50	5873
2026-01-10 18:28:52.95	301.97	9.08	-37.9	-38.9	22.4	0.00e+00	92	28	0	1019215872	50	5691
2026-01-10 18:28:56.99	301.45	8.86	-38.0	-39.0	22.5	0.00e+00	81	28	0	1026555904	50	5735
2026-01-10 18:29:01.03	300.93	8.64	-37.8	-38.8	22.3	0.00e+00	0	28	0	1033895936	50	5630
2026-01-10 18:29:05.07	300.41	8.42	-37.5	-38.4	22.8	0.00e+00	82	28	0	1042284544	48	6023
2026-01-10 18:29:09.11	299.91	8.20	-37.6	-38.6	22.8	0.00e+00	91	28	0	1049624576	48	6104
2026-01-10 18:29:13.15	299.41	7.98	-37.7	-38.6	22.6	0.00e+00	0	28	0	1056964608	48	6164
2026-01-10 18:29:17.19	298.92	7.76	-37.8	-38.8	22.5	0.00e+00	78	28	0	1064304640	48	6309
2026-01-10 18:29:21.23	298.44	7.54	-37.9	-38.9	22.5	0.00e+00	0	28	0	1071644672	48	6369
2026-01-10 18:29:25.27	297.96	7.32	-37.9	-38.9	22.2	0.00e+00	91	28	0	1080033280	48	6389
2026-01-10 18:29:29.30	297.50	7.10	-38.3	-39.4	21.9	0.00e+00	0	28	0	1087373312	48	6708
2026-01-10 18:29:33.33	297.04	6.88	-38.4	-39.4	21.8	0.00e+00	0	28	0	1094713344	48	6767
2026-01-10 18:29:37.38	296.58	6.66	-38.2	-39.3	22.0	0.00e+00	0	28	0	1102053376	48	6648
2026-01-10 18:29:41.42	296.14	6.43	-38.0	-39.1	22.1	0.00e+00	92	28	0	1110441984	48	6496
2026-01-10 18:29:45.46	295.70	6.21	-38.1	-39.2	22.0	0.00e+00	76	28	0	1117782016	48	6581
2026-01-10 18:29:49.49	295.27	6.00	-38.6	-39.7	21.5	0.00e+00	4	28	0	1125122048	48	6958
2026-01-10 18:29:53.53	294.84	5.78	-39.0	-40.2	21.0	0.00e+00	6	28	0	1132462080	50	6595
2026-01-10 18:29:57.57	294.42	5.56	-39.2	-40.5	20.6	0.00e+00	92	28	0	1139802112	50	6804
2026-01-10 18:30:01.61	294.01	5.34	-39.3	-40.5	20.7	0.00e+00	0	28	0	1148190720	50	6818
2026-01-10 18:30:05.65	293.60	5.12	-39.4	-40.6	20.5	0.00e+00	78	28	0	1155530752	50	6912
2026-01-10 18:30:09.68	293.20	4.90	-39.6	-41.0	20.2	0.00e+00	5	28	0	1162870784	50	7173
2026-01-10 18:30:13.72	292.81	4.69	-39.8	-41.2	19.9	0.00e+00	92	28	0	1170210816	52	6588
2026-01-10 18:30:17.76	292.42	4.47	-39.9	-41.3	19.8	0.00e+00	0	28	0	1178599424	52	6681
2026-01-10 18:30:21.80	292.04	4.25	-40.0	-41.4	19.6	0.00e+00	76	28	0	1185939456	52	6763
2026-01-10 18:30:25.84	291.66	4.04	-40.2	-41.7	19.3	0.00e+00	80	28	0	1193279488	52	6987
2026-01-10 18:30:29.87	291.29	3.82	-40.6	-42.2	18.9	0.00e+00	31	28	0	1200619520	52	7353
2026-01-10 18:30:33.91	290.93	3.61	-40.5	-42.1	18.9	0.00e+00	2	28	0	1207959552	52	7271
2026-01-10 18:30:37.95	290.57	3.39	-40.8	-42.6	18.2	0.00e+00	0	28	0	1216348160	54	6869
2026-01-10 18:30:42.00	290.21	3.18	-40.7	-42.4	18.5	0.00e+00	92	28	0	1223688192	54	6724
2026-01-10 18:30:46.04	289.86	2.97	-47.3	-62.4	3.6	1.51e+00	0	28	104	1229979648	60	47737
2026-01-10 18:30:50.08	289.52	2.76	-48.2	-63.4	3.6	1.51e+00	0	28	104	1229979648	60	53462
2026-01-10 18:30:54.12	289.18	2.54	-48.3	-63.5	3.6	1.51e+00	0	29	104	1229979648	60	53905
2026-01-10 18:30:58.15	288.85	2.33	-48.2	-63.4	3.6	1.51e+00	0	29	104	1229979648	60	53575
2026-01-10 18:31:02.19	288.52	2.12	-48.2	-63.4	3.6	1.51e+00	0	29	104	1229979648	60	53377
2026-01-10 18:31:06.23	288.19	1.91	-48.2	-63.4	3.6	1.51e+00	0	29	104	1229979648	60	53478
2026-01-10 18:31:10.27	287.87	1.71	-48.2	-63.4	3.6	1.51e+00	0	29	104	1229979648	60	53402
2026-01-10 18:31:14.31	287.56	1.50	-48.2	-63.4	3.6	1.51e+00	0	29	104	1229979648	60	53467
2026-01-10 18:31:18.34	287.25	1.29	-48.2	-63.4	3.6	1.51e+00	0	29	104	1229979648	60	53297
2026-01-10 18:31:22.38	286.94	1.08	-48.2	-63.4	3.6	1.51e+00	0	29	104	1229979648	60	53210
2026-01-10 18:31:26.42	286.64	0.88	-48.2	-63.4	3.6	1.51e+00	0	29	104	1229979648	60	53171
2026-01-10 18:31:30.46	286.34	0.67	-48.2	-63.4	3.6	1.51e+00	0	29	104	1229979648	60	53490
2026-01-10 18:31:34.50	286.05	0.47	-48.1	-63.3	3.6	1.51e+00	0	29	104	1229979648	60	53084
2026-01-10 18:31:38.54	285.76	0.26	-48.1	-63.4	3.6	1.51e+00	0	29	104	1229979648	60	53295
2026-01-10 18:31:42.59	285.48	0.06	-48.1	-63.3	3.6	1.51e+00	0	29	104	1229979648	60	52855
2026-01-10 18:31:46.63	285.20	-0.14	-48.1	-63.3	3.6	1.51e+00	0	29	104	1229979648	60	53016

#Closed at: 2026-01-10 18:31:46
#Recorded file [1229 MB]: D:/lorett/data/35029_260111_061851.dat