passes_logs/2026/01/27/R2.0S_Moscow/R2.0S_Moscow__20260127_002008_NOAA_21_JPSS-2_rec.log

#Pass ID: 20260127_002008_NOAA 21 (JPSS-2)
#Satellite: NOAA 21 (JPSS-2)
#Configuration: NOAA-21
#almurnet v.1.7.20251203
#Start time: 2026-01-27 00:27:09

#Version: 2.2.20231116
#Station: R2.0S_Moscow
#Location: 37.707566 lon 55.798166 lat
#TLE: 1 54234U 22150A   26026.43130734  .00000179  00000+0  10559-3 0  9998
#TLE: 2 54234  98.7509 327.1934 0000805 209.8356 150.2774 14.19539635166435

#Time	Az	El	Level	Level2	SNR	BER	BlckErr	Temp	State	Recorded	gain1	gain2
2026-01-27 00:27:09.69	297.96	50.34	-45.9	-64.4	3.8	7.42e-01	0	62	0	0	63	30118
2026-01-27 00:27:11.70	296.67	50.35	-45.0	-57.3	3.8	1.49e+00	0	62	104	0	61	14989
2026-01-27 00:27:13.73	295.35	50.35	-45.0	-57.4	3.8	1.49e+00	0	62	104	0	61	15065
2026-01-27 00:27:15.75	294.05	50.33	-45.0	-57.3	3.8	1.49e+00	0	63	104	0	61	15037
2026-01-27 00:27:17.77	292.75	50.30	-45.0	-57.3	3.8	1.49e+00	0	62	104	0	61	14965
2026-01-27 00:27:19.79	291.45	50.25	-45.0	-57.3	3.8	1.49e+00	0	63	104	0	61	14971
2026-01-27 00:27:21.81	290.16	50.19	-45.0	-57.3	3.8	1.49e+00	0	62	104	0	61	14967
2026-01-27 00:27:23.83	288.87	50.11	-44.9	-57.3	3.8	1.49e+00	0	62	104	0	61	14965
2026-01-27 00:27:25.85	287.59	50.01	-44.9	-57.3	3.8	1.49e+00	0	63	104	0	61	14912
2026-01-27 00:27:27.87	286.32	49.90	-44.9	-57.2	3.8	1.49e+00	0	62	104	0	61	14876
2026-01-27 00:27:29.89	285.06	49.78	-44.9	-57.3	3.8	1.49e+00	0	63	104	0	61	14931
2026-01-27 00:27:31.91	283.81	49.64	-44.9	-57.3	3.8	1.49e+00	0	62	104	0	61	14893
2026-01-27 00:27:33.92	282.57	49.49	-44.9	-57.2	3.8	1.49e+00	0	63	104	0	61	14836
2026-01-27 00:27:35.94	281.35	49.32	-44.9	-57.3	3.8	1.49e+00	0	63	104	0	61	14885
2026-01-27 00:27:37.96	280.13	49.14	-44.9	-57.3	3.8	1.49e+00	0	62	104	0	61	14964
2026-01-27 00:27:39.99	278.93	48.95	-44.9	-57.2	3.8	1.49e+00	0	62	104	0	61	14743
2026-01-27 00:27:42.00	277.75	48.75	-44.9	-57.2	3.8	1.49e+00	0	62	104	0	61	14725
2026-01-27 00:27:44.02	276.59	48.53	-44.9	-57.2	3.8	1.49e+00	0	62	104	0	61	14801
2026-01-27 00:27:46.04	275.44	48.30	-44.9	-57.1	3.8	1.49e+00	0	62	104	0	61	14602
2026-01-27 00:27:48.07	274.30	48.06	-44.9	-56.9	3.8	1.49e+00	0	62	104	0	61	14339
2026-01-27 00:27:50.09	273.19	47.81	-44.8	-56.1	3.8	1.49e+00	0	63	104	0	61	13061
2026-01-27 00:27:52.11	272.09	47.55	-44.9	-57.2	3.8	1.49e+00	0	63	104	0	61	14733
2026-01-27 00:27:54.13	271.01	47.28	-44.7	-55.4	3.8	1.49e+00	0	63	104	0	61	12001
2026-01-27 00:27:56.15	269.95	47.00	-44.7	-55.7	3.8	1.49e+00	0	63	104	0	61	12480
2026-01-27 00:27:58.17	268.91	46.71	-44.4	-52.9	4.4	1.49e+00	0	63	104	0	60	9600
2026-01-27 00:28:00.19	267.89	46.42	-43.8	-49.9	6.2	2.27e-01	0	63	0	5242880	59	7126
2026-01-27 00:28:02.22	266.88	46.11	-44.1	-51.0	5.2	7.16e-01	0	63	0	7340032	59	8169
2026-01-27 00:28:04.24	265.90	45.80	-42.0	-45.6	10.1	1.57e-02	0	63	0	13631488	56	5160
2026-01-27 00:28:06.26	264.94	45.49	-43.7	-49.5	6.3	1.44e+00	0	63	104	17825792	59	6809
2026-01-27 00:28:08.28	264.00	45.16	-42.8	-47.0	8.7	1.60e-01	0	63	0	23068672	57	5742
2026-01-27 00:28:10.30	263.07	44.83	-42.9	-47.2	8.6	4.11e-02	0	63	0	26214400	57	5907
2026-01-27 00:28:12.32	262.17	44.50	-41.3	-44.4	11.2	3.61e-03	0	63	0	32505856	54	5059
2026-01-27 00:28:14.34	261.28	44.16	-40.3	-42.7	13.0	3.43e-05	0	63	0	38797312	52	4670
2026-01-27 00:28:16.35	260.42	43.82	-40.7	-43.3	12.5	6.86e-05	0	63	0	45088768	52	5011
2026-01-27 00:28:18.37	259.57	43.47	-42.5	-46.7	8.9	1.42e-02	0	63	0	51380224	55	6264
2026-01-27 00:28:20.39	258.74	43.12	-42.2	-45.9	9.5	2.20e-02	0	63	0	57671680	56	5363
2026-01-27 00:28:22.42	257.92	42.76	-40.9	-43.7	11.9	4.48e-04	0	63	0	63963136	53	4963
2026-01-27 00:28:24.44	257.13	42.40	-40.4	-42.8	13.0	5.34e-05	0	63	0	70254592	52	4730
2026-01-27 00:28:26.46	256.35	42.04	-41.4	-44.4	11.4	6.53e-04	0	63	0	76546048	53	5358
2026-01-27 00:28:28.48	255.59	41.68	-41.6	-44.8	10.8	3.22e-03	0	63	0	82837504	53	5637
2026-01-27 00:28:30.50	254.85	41.31	-41.1	-44.0	11.5	8.89e-04	0	63	0	89128960	53	5113
2026-01-27 00:28:32.52	254.13	40.94	-41.1	-43.9	11.7	5.60e-04	0	63	0	95420416	53	5089
2026-01-27 00:28:34.54	253.42	40.58	-41.6	-44.9	10.8	2.12e-03	0	63	0	101711872	53	5661
2026-01-27 00:28:36.56	252.72	40.21	-41.6	-44.8	10.8	2.82e-03	0	63	0	108003328	54	5317
2026-01-27 00:28:38.58	252.05	39.84	-41.1	-44.0	11.7	7.30e-04	0	62	0	114294784	54	4825
2026-01-27 00:28:40.60	251.38	39.47	-41.0	-43.8	12.0	4.23e-04	0	63	0	120586240	54	4727
2026-01-27 00:28:42.62	250.74	39.09	-41.0	-43.9	11.8	4.44e-04	0	63	0	126877696	53	5071
2026-01-27 00:28:44.64	250.10	38.72	-41.4	-44.5	11.2	9.21e-04	0	62	0	133169152	53	5448
2026-01-27 00:28:46.66	249.49	38.35	-41.7	-45.1	10.6	3.76e-03	0	63	0	139460608	54	5508
2026-01-27 00:28:48.68	248.88	37.98	-41.1	-44.0	11.6	9.82e-04	0	63	0	145752064	54	4864
2026-01-27 00:28:50.70	248.29	37.61	-40.6	-43.1	12.6	1.18e-04	0	63	0	153092096	53	4633
2026-01-27 00:28:52.72	247.71	37.24	-41.0	-43.9	11.9	2.30e-04	0	63	0	158334976	53	5045
2026-01-27 00:28:54.74	247.15	36.87	-41.2	-44.2	11.5	7.83e-04	0	63	0	164626432	53	5247
2026-01-27 00:28:56.76	246.60	36.51	-40.8	-43.5	12.2	2.37e-04	0	63	0	171966464	53	4837
2026-01-27 00:28:58.78	246.06	36.14	-40.4	-43.0	12.8	8.16e-05	0	63	0	178257920	52	4831
2026-01-27 00:29:00.80	245.53	35.77	-40.0	-42.3	13.4	2.21e-05	0	62	0	184549376	52	4478
2026-01-27 00:29:02.82	245.02	35.41	-39.6	-41.7	14.1	1.50e-06	0	63	0	190840832	51	4403
2026-01-27 00:29:04.84	244.51	35.05	-39.7	-41.9	14.0	0.00e+00	0	63	0	197132288	51	4512
2026-01-27 00:29:06.86	244.02	34.69	-40.3	-42.8	13.0	3.28e-05	0	63	0	203423744	51	4997
2026-01-27 00:29:08.88	243.54	34.33	-40.3	-42.8	13.0	3.20e-05	0	63	0	209715200	51	4988
2026-01-27 00:29:10.90	243.07	33.97	-40.6	-43.2	12.6	9.00e-05	0	63	0	216006656	51	5229
2026-01-27 00:29:12.93	242.60	33.61	-40.6	-43.3	12.3	1.89e-04	0	63	0	222298112	52	5032
2026-01-27 00:29:14.95	242.15	33.26	-40.3	-42.7	13.0	4.11e-05	0	63	0	228589568	52	4684
2026-01-27 00:29:16.97	241.71	32.91	-40.0	-42.3	13.5	1.14e-05	0	63	0	234881024	51	4710
2026-01-27 00:29:18.99	241.28	32.56	-39.8	-42.1	13.7	6.10e-06	0	63	0	241172480	51	4609
2026-01-27 00:29:21.01	240.86	32.21	-39.9	-42.2	13.6	6.80e-06	0	63	0	247463936	51	4654
2026-01-27 00:29:23.03	240.44	31.87	-39.8	-42.1	13.7	8.30e-06	0	63	0	253755392	51	4603
2026-01-27 00:29:25.05	240.04	31.53	-39.7	-41.8	13.9	5.30e-06	0	63	0	260046848	51	4492
2026-01-27 00:29:27.07	239.64	31.19	-39.5	-41.5	14.2	2.20e-06	0	62	0	266338304	50	4589
2026-01-27 00:29:29.10	239.25	30.85	-39.4	-41.4	14.4	1.50e-06	0	63	0	272629760	50	4521
2026-01-27 00:29:31.12	238.87	30.51	-39.6	-41.7	14.0	2.20e-06	0	63	0	278921216	50	4703
2026-01-27 00:29:33.14	238.50	30.18	-39.6	-41.8	14.0	2.20e-06	0	63	0	285212672	50	4720
2026-01-27 00:29:35.16	238.13	29.85	-39.5	-41.6	14.2	7.00e-07	0	62	0	291504128	50	4601
2026-01-27 00:29:37.18	237.78	29.52	-39.4	-41.5	14.3	0.00e+00	0	63	0	297795584	50	4556
2026-01-27 00:29:39.20	237.43	29.20	-39.7	-41.9	13.9	4.50e-06	0	63	0	304087040	50	4774
2026-01-27 00:29:41.22	237.08	28.88	-39.8	-42.0	13.7	5.30e-06	0	63	0	310378496	50	4857
2026-01-27 00:29:43.23	236.75	28.56	-39.9	-42.2	13.5	7.60e-06	0	63	0	316669952	50	4933
2026-01-27 00:29:45.25	236.42	28.24	-39.9	-42.3	13.4	1.44e-05	0	63	0	322961408	50	4987
2026-01-27 00:29:47.27	236.10	27.93	-39.9	-42.2	13.5	1.44e-05	0	63	0	329252864	50	4940
2026-01-27 00:29:49.29	235.78	27.61	-39.7	-42.0	13.7	5.30e-06	0	63	0	335544320	50	4825
2026-01-27 00:29:51.31	235.47	27.30	-39.3	-41.4	14.3	1.50e-06	0	63	0	341835776	50	4515
2026-01-27 00:29:53.33	235.17	27.00	-39.3	-41.4	14.3	7.00e-07	0	63	0	348127232	50	4531
2026-01-27 00:29:55.36	234.87	26.69	-39.2	-41.3	14.4	1.50e-06	0	63	0	354418688	50	4468
2026-01-27 00:29:57.38	234.57	26.39	-39.3	-41.4	14.3	0.00e+00	0	62	0	360710144	50	4510
2026-01-27 00:29:59.40	234.29	26.09	-39.4	-41.5	14.2	2.20e-06	0	63	0	367001600	50	4580
2026-01-27 00:30:01.42	234.00	25.79	-39.4	-41.6	14.2	7.00e-07	0	63	0	373293056	50	4601
2026-01-27 00:30:03.44	233.73	25.50	-39.5	-41.7	14.0	3.00e-06	0	63	0	379584512	50	4677
2026-01-27 00:30:05.46	233.46	25.21	-39.8	-42.1	13.6	9.10e-06	0	63	0	385875968	50	4901
2026-01-27 00:30:07.48	233.19	24.92	-39.9	-42.3	13.5	7.60e-06	0	63	0	392167424	50	5011
2026-01-27 00:30:09.50	232.93	24.63	-39.7	-42.0	13.8	6.80e-06	0	63	0	398458880	50	4833
2026-01-27 00:30:11.52	232.67	24.35	-39.6	-41.8	13.9	4.50e-06	0	63	0	404750336	50	4755
2026-01-27 00:30:13.54	232.42	24.06	-39.4	-41.5	14.2	0.00e+00	0	63	0	411041792	50	4579
2026-01-27 00:30:15.56	232.17	23.78	-39.5	-41.6	14.1	7.00e-07	0	62	0	417333248	50	4640
2026-01-27 00:30:17.59	231.93	23.50	-39.5	-41.6	14.1	7.00e-07	0	63	0	423624704	50	4635
2026-01-27 00:30:19.60	231.69	23.23	-39.3	-41.4	14.3	2.20e-06	0	63	0	429916160	50	4523
2026-01-27 00:30:21.63	231.46	22.96	-39.3	-41.3	14.3	0.00e+00	0	62	0	436207616	50	4490
2026-01-27 00:30:23.65	231.23	22.69	-39.3	-41.3	14.3	7.00e-07	0	63	0	443547648	50	4486
2026-01-27 00:30:25.67	231.00	22.42	-39.3	-41.4	14.2	1.50e-06	0	63	0	448790528	50	4523
2026-01-27 00:30:27.69	230.78	22.15	-39.4	-41.5	14.1	1.50e-06	0	63	0	455081984	50	4572
2026-01-27 00:30:29.72	230.56	21.89	-39.3	-41.4	14.2	1.50e-06	0	63	0	462422016	50	4515
2026-01-27 00:30:31.74	230.34	21.63	-39.4	-41.5	14.2	7.00e-07	0	62	0	468713472	50	4552
2026-01-27 00:30:33.76	230.13	21.37	-39.4	-41.5	14.1	1.50e-06	0	63	0	475004928	50	4591
2026-01-27 00:30:35.78	229.92	21.11	-39.5	-41.7	14.0	7.00e-07	0	62	0	481296384	50	4653
2026-01-27 00:30:37.80	229.72	20.86	-39.6	-41.8	13.9	3.80e-06	0	63	0	487587840	50	4719
2026-01-27 00:30:39.82	229.52	20.61	-39.5	-41.8	13.9	4.50e-06	0	63	0	493879296	50	4706
2026-01-27 00:30:41.84	229.32	20.36	-39.4	-41.5	14.1	3.00e-06	0	62	0	500170752	50	4581
2026-01-27 00:30:43.86	229.13	20.11	-39.2	-41.3	14.3	1.50e-06	0	63	0	506462208	50	4476
2026-01-27 00:30:45.88	228.94	19.86	-39.2	-41.3	14.3	1.50e-06	0	63	0	512753664	50	4463
2026-01-27 00:30:47.90	228.75	19.62	-39.3	-41.3	14.2	7.00e-07	0	62	0	519045120	50	4492
2026-01-27 00:30:49.92	228.57	19.38	-39.1	-41.2	14.4	0.00e+00	0	63	0	525336576	50	4421
2026-01-27 00:30:51.94	228.38	19.14	-39.2	-41.3	14.2	1.50e-06	0	62	0	531628032	50	4490
2026-01-27 00:30:53.96	228.20	18.90	-39.3	-41.4	14.1	2.20e-06	0	63	0	537919488	50	4529
2026-01-27 00:30:55.98	228.03	18.66	-39.3	-41.5	14.1	2.20e-06	0	62	0	544210944	50	4565
2026-01-27 00:30:58.00	227.85	18.43	-39.5	-41.7	13.9	4.50e-06	0	63	0	550502400	50	4693
2026-01-27 00:31:00.02	227.68	18.20	-39.6	-41.9	13.7	9.90e-06	0	63	0	556793856	50	4791
2026-01-27 00:31:02.04	227.52	17.97	-39.8	-42.1	13.5	1.67e-05	0	63	0	563085312	50	4889
2026-01-27 00:31:04.06	227.35	17.74	-39.9	-42.3	13.3	2.21e-05	0	63	0	569376768	50	4990
2026-01-27 00:31:06.08	227.19	17.51	-40.0	-42.5	13.1	3.96e-05	0	63	0	575668224	50	5111
2026-01-27 00:31:08.10	227.03	17.29	-40.0	-42.5	13.1	2.97e-05	0	63	0	581959680	50	5113
2026-01-27 00:31:10.12	226.87	17.07	-40.1	-42.6	12.9	4.27e-05	0	62	0	588251136	50	5190
2026-01-27 00:31:12.14	226.71	16.84	-40.1	-42.6	12.9	4.95e-05	0	63	0	594542592	50	5210
2026-01-27 00:31:14.16	226.56	16.63	-40.1	-42.7	12.8	5.72e-05	0	63	0	600834048	50	5233
2026-01-27 00:31:16.18	226.41	16.41	-40.1	-42.5	13.0	3.89e-05	0	63	0	607125504	50	5150
2026-01-27 00:31:18.20	226.26	16.19	-40.0	-42.5	13.0	3.96e-05	0	62	0	613416960	50	5107
2026-01-27 00:31:20.22	226.11	15.98	-40.0	-42.6	12.9	4.88e-05	0	62	0	619708416	50	5164
2026-01-27 00:31:22.24	225.97	15.77	-39.9	-42.3	13.2	1.98e-05	0	63	0	625999872	50	5028
2026-01-27 00:31:24.26	225.83	15.56	-39.9	-42.3	13.1	3.35e-05	0	62	0	632291328	50	5024
2026-01-27 00:31:26.28	225.69	15.35	-39.7	-42.1	13.4	1.22e-05	0	63	0	638582784	50	4897
2026-01-27 00:31:28.30	225.55	15.14	-39.9	-42.3	13.1	2.05e-05	0	62	0	644874240	50	5007
2026-01-27 00:31:30.33	225.41	14.93	-39.7	-42.0	13.4	1.37e-05	0	62	0	651165696	50	4870
2026-01-27 00:31:32.35	225.28	14.73	-39.8	-42.2	13.3	2.13e-05	0	62	0	657457152	50	4941
2026-01-27 00:31:34.37	225.14	14.53	-39.8	-42.2	13.2	1.29e-05	0	63	0	663748608	50	4941
2026-01-27 00:31:36.38	225.01	14.32	-39.8	-42.3	13.1	2.82e-05	0	62	0	670040064	50	4986
2026-01-27 00:31:38.41	224.89	14.12	-39.9	-42.4	13.0	4.57e-05	0	63	0	676331520	50	5069
2026-01-27 00:31:40.43	224.76	13.93	-40.0	-42.5	12.8	5.11e-05	0	62	0	682622976	50	5151
2026-01-27 00:31:42.45	224.63	13.73	-40.1	-42.6	12.8	7.09e-05	0	62	0	688914432	50	5199
2026-01-27 00:31:44.47	224.51	13.53	-40.1	-42.7	12.7	6.48e-05	0	62	0	695205888	50	5235
2026-01-27 00:31:46.49	224.39	13.34	-40.2	-42.8	12.5	1.09e-04	0	62	0	701497344	50	5321
2026-01-27 00:31:48.50	224.27	13.15	-40.3	-43.0	12.3	1.64e-04	0	63	0	707788800	51	5116
2026-01-27 00:31:50.52	224.15	12.96	-40.3	-43.1	12.3	2.08e-04	0	62	0	714080256	51	5162
2026-01-27 00:31:52.55	224.03	12.77	-40.4	-43.1	12.1	2.57e-04	0	63	0	720371712	51	5213
2026-01-27 00:31:54.57	223.92	12.58	-40.4	-43.3	12.0	3.36e-04	0	63	0	726663168	51	5296
2026-01-27 00:31:56.59	223.80	12.39	-40.5	-43.4	11.9	4.09e-04	0	62	0	732954624	51	5372
2026-01-27 00:31:58.61	223.69	12.21	-40.5	-43.3	11.9	4.59e-04	0	63	0	739246080	51	5329
2026-01-27 00:32:00.63	223.58	12.02	-40.4	-43.2	12.0	3.81e-04	0	63	0	745537536	51	5271
2026-01-27 00:32:02.65	223.47	11.84	-40.4	-43.2	11.9	3.75e-04	0	63	0	752877568	51	5269
2026-01-27 00:32:04.67	223.36	11.66	-40.4	-43.2	11.9	3.87e-04	0	62	0	759169024	51	5257
2026-01-27 00:32:06.69	223.25	11.48	-40.4	-43.2	11.9	3.59e-04	0	62	0	764411904	51	5251
2026-01-27 00:32:08.71	223.15	11.30	-40.4	-43.2	11.9	3.82e-04	0	63	0	771751936	51	5248
2026-01-27 00:32:10.73	223.04	11.12	-40.3	-43.1	11.9	3.61e-04	0	62	0	778043392	51	5199
2026-01-27 00:32:12.75	222.94	10.94	-40.3	-43.2	11.9	4.25e-04	0	62	0	784334848	51	5224
2026-01-27 00:32:14.77	222.84	10.76	-40.4	-43.3	11.7	6.35e-04	0	62	0	790626304	51	5303
2026-01-27 00:32:16.79	222.74	10.59	-40.3	-43.2	11.8	4.23e-04	0	62	0	796917760	51	5227
2026-01-27 00:32:18.81	222.64	10.42	-40.4	-43.2	11.7	5.42e-04	0	62	0	803209216	51	5272
2026-01-27 00:32:20.84	222.54	10.24	-40.4	-43.2	11.8	4.91e-04	0	62	0	809500672	51	5256
2026-01-27 00:32:22.86	222.45	10.07	-40.4	-43.3	11.6	7.35e-04	0	62	0	815792128	51	5323
2026-01-27 00:32:24.88	222.35	9.90	-40.4	-43.3	11.7	5.59e-04	0	62	0	822083584	51	5283
2026-01-27 00:32:26.90	222.26	9.73	-40.4	-43.3	11.7	6.07e-04	0	63	0	828375040	51	5302
2026-01-27 00:32:28.92	222.16	9.56	-40.5	-43.5	11.5	8.67e-04	0	62	0	834666496	51	5407
2026-01-27 00:32:30.94	222.07	9.40	-40.5	-43.5	11.5	8.20e-04	0	62	0	840957952	51	5413
2026-01-27 00:32:32.96	221.98	9.23	-40.5	-43.6	11.4	9.53e-04	0	62	0	847249408	51	5478
2026-01-27 00:32:34.98	221.89	9.07	-40.6	-43.7	11.3	1.05e-03	0	62	0	853540864	51	5538
2026-01-27 00:32:37.00	221.80	8.90	-40.6	-43.7	11.2	1.35e-03	0	62	0	859832320	51	5562
2026-01-27 00:32:39.03	221.71	8.74	-40.6	-43.7	11.2	1.41e-03	0	62	0	866123776	51	5573
2026-01-27 00:32:41.05	221.63	8.58	-40.6	-43.7	11.2	1.50e-03	0	62	0	872415232	51	5559
2026-01-27 00:32:43.07	221.54	8.42	-40.6	-43.9	10.9	1.99e-03	0	63	0	878706688	52	5374
2026-01-27 00:32:45.09	221.46	8.26	-40.6	-43.9	10.8	2.41e-03	0	62	0	884998144	52	5376
2026-01-27 00:32:47.11	221.37	8.10	-40.6	-43.9	10.8	2.81e-03	0	62	0	891289600	52	5376
2026-01-27 00:32:49.13	221.29	7.94	-44.3	-56.5	3.8	1.11e+00	0	63	104	896532480	59	15249
2026-01-27 00:32:51.15	221.21	7.78	-44.7	-57.1	3.8	1.49e+00	0	63	104	896532480	60	15570
2026-01-27 00:32:53.17	221.13	7.63	-44.9	-57.3	3.8	1.49e+00	0	63	104	896532480	60	15814
2026-01-27 00:32:55.19	221.05	7.47	-45.1	-57.4	3.8	1.49e+00	0	62	104	896532480	60	16112
2026-01-27 00:32:57.21	220.97	7.32	-45.1	-57.5	3.8	1.49e+00	0	62	104	896532480	60	16152
2026-01-27 00:32:59.24	220.89	7.16	-45.0	-57.4	3.8	1.49e+00	0	62	104	896532480	60	16011
2026-01-27 00:33:01.26	220.81	7.01	-45.0	-57.3	3.8	1.49e+00	0	63	104	896532480	60	15870
2026-01-27 00:33:03.28	220.74	6.86	-45.0	-57.3	3.8	1.49e+00	0	63	104	896532480	60	15801
2026-01-27 00:33:05.30	220.66	6.71	-44.9	-57.2	3.8	1.49e+00	0	62	104	896532480	60	15725
2026-01-27 00:33:07.32	220.58	6.56	-44.9	-57.2	3.8	1.49e+00	0	63	104	896532480	60	15715
2026-01-27 00:33:09.34	220.51	6.41	-44.9	-57.2	3.8	1.49e+00	0	63	104	896532480	60	15723
2026-01-27 00:33:11.36	220.44	6.26	-44.9	-57.2	3.8	1.49e+00	0	63	104	896532480	60	15615
2026-01-27 00:33:13.38	220.37	6.11	-44.9	-57.2	3.8	1.49e+00	0	63	104	896532480	60	15672
2026-01-27 00:33:15.40	220.29	5.96	-44.9	-57.2	3.8	1.49e+00	0	63	104	896532480	60	15632
2026-01-27 00:33:17.42	220.22	5.82	-44.9	-57.1	3.8	1.49e+00	0	63	104	896532480	60	15558
2026-01-27 00:33:19.44	220.15	5.67	-44.9	-57.1	3.8	1.49e+00	0	63	104	896532480	60	15579
2026-01-27 00:33:21.47	220.08	5.53	-44.9	-57.2	3.8	1.49e+00	0	63	104	896532480	60	15599
2026-01-27 00:33:23.49	220.01	5.38	-44.9	-57.2	3.8	1.49e+00	0	63	104	896532480	60	15606
2026-01-27 00:33:25.51	219.95	5.24	-44.8	-57.2	3.8	1.49e+00	0	62	104	896532480	60	15620
2026-01-27 00:33:27.53	219.88	5.10	-44.8	-57.1	3.8	1.49e+00	0	63	104	896532480	60	15569
2026-01-27 00:33:29.55	219.81	4.95	-44.8	-57.2	3.8	1.49e+00	0	63	104	896532480	60	15581
2026-01-27 00:33:31.57	219.75	4.81	-44.8	-57.1	3.8	1.49e+00	0	63	104	896532480	60	15537
2026-01-27 00:33:33.59	219.68	4.67	-44.8	-57.1	3.8	1.49e+00	0	62	104	896532480	60	15573
2026-01-27 00:33:35.61	219.62	4.53	-44.8	-57.2	3.8	1.49e+00	0	63	104	896532480	60	15614
2026-01-27 00:33:37.63	219.55	4.39	-44.8	-57.1	3.8	1.49e+00	0	63	104	896532480	60	15552
2026-01-27 00:33:39.65	219.49	4.26	-44.8	-57.1	3.8	1.49e+00	0	63	104	896532480	60	15565
2026-01-27 00:33:41.67	219.43	4.12	-44.8	-57.1	3.8	1.49e+00	0	63	104	896532480	60	15558
2026-01-27 00:33:43.69	219.37	3.98	-44.8	-57.1	3.8	1.49e+00	0	63	104	896532480	60	15516
2026-01-27 00:33:45.71	219.30	3.85	-44.8	-57.1	3.8	1.49e+00	0	63	104	896532480	60	15529
2026-01-27 00:33:47.73	219.24	3.71	-44.8	-57.1	3.8	1.49e+00	0	63	104	896532480	60	15540
2026-01-27 00:33:49.75	219.18	3.57	-44.8	-57.1	3.8	1.49e+00	0	63	104	896532480	60	15515
2026-01-27 00:33:51.77	219.12	3.44	-44.8	-57.1	3.8	1.49e+00	0	63	104	896532480	60	15575
2026-01-27 00:33:53.80	219.07	3.31	-44.8	-57.1	3.8	1.49e+00	0	63	104	896532480	60	15506
2026-01-27 00:33:55.82	219.01	3.17	-44.8	-57.2	3.8	1.49e+00	0	63	104	896532480	60	15582
2026-01-27 00:33:57.84	218.95	3.04	-44.8	-57.2	3.8	1.49e+00	0	63	104	896532480	60	15612
2026-01-27 00:33:59.86	218.89	2.91	-44.8	-57.2	3.8	1.49e+00	0	63	104	896532480	60	15591
2026-01-27 00:34:01.85	218.84	2.78	-44.8	-57.1	3.8	1.49e+00	0	63	104	896532480	60	15502
2026-01-27 00:34:03.87	218.78	2.65	-44.8	-57.1	3.8	1.49e+00	0	63	104	896532480	60	15562
2026-01-27 00:34:05.89	218.72	2.52	-44.8	-57.1	3.8	1.49e+00	0	63	104	896532480	60	15515
2026-01-27 00:34:07.91	218.67	2.39	-44.9	-57.1	3.8	1.49e+00	0	63	104	896532480	60	15550
2026-01-27 00:34:09.94	218.61	2.26	-44.8	-57.1	3.8	1.49e+00	0	63	104	896532480	60	15538
2026-01-27 00:34:11.96	218.56	2.13	-44.8	-57.1	3.8	1.49e+00	0	63	104	896532480	60	15577
2026-01-27 00:34:13.98	218.51	2.00	-44.8	-57.1	3.8	1.49e+00	0	63	104	896532480	60	15577

#Closed at: 2026-01-27 00:34:15
#Recorded file [896 MB]: D:/lorett/data/31039_260127_032709.dat