passes_logs/2026/01/27/R2.0S_Moscow/R2.0S_Moscow__20260127_104037_SUOMI_NPP_rec.log

#Pass ID: 20260127_104037_SUOMI NPP
#Satellite: SUOMI NPP
#Configuration: NPP
#almurnet v.1.7.20251203
#Start time: 2026-01-27 10:40:38

#Version: 2.2.20231116
#Station: R2.0S_Moscow
#Location: 37.707566 lon 55.798166 lat
#TLE: 1 37849U 11061A   26026.87508736  .00000176  00000+0  10464-3 0  9991
#TLE: 2 37849  98.7822 328.8221 0002127  43.3055 316.8288 14.19530452738397

#Time	Az	El	Level	Level2	SNR	BER	BlckErr	Temp	State	Recorded	gain1	gain2
2026-01-27 10:40:38.78	180.61	2.10	-44.1	-58.5	3.8	1.49e+00	0	54	0	0	59	19361
2026-01-27 10:40:42.81	180.75	2.35	-44.1	-58.5	3.8	1.49e+00	0	54	104	0	59	19363
2026-01-27 10:40:46.85	180.88	2.61	-44.1	-58.5	3.8	1.49e+00	0	54	104	0	59	19355
2026-01-27 10:40:50.89	181.02	2.87	-44.1	-58.5	3.8	1.49e+00	0	55	104	0	59	19282
2026-01-27 10:40:54.94	181.17	3.13	-44.1	-58.5	3.8	1.49e+00	0	55	104	0	59	19275
2026-01-27 10:40:58.98	181.31	3.39	-44.1	-58.5	3.8	1.49e+00	0	55	104	0	59	19314
2026-01-27 10:41:03.02	181.46	3.66	-44.1	-58.5	3.8	1.49e+00	0	55	104	0	59	19368
2026-01-27 10:41:07.06	181.61	3.93	-44.1	-58.5	3.8	1.49e+00	0	56	104	0	59	19343
2026-01-27 10:41:11.10	181.76	4.20	-44.1	-58.4	3.8	1.49e+00	0	56	104	0	59	19134
2026-01-27 10:41:15.15	181.92	4.47	-44.0	-58.2	3.8	1.49e+00	0	56	104	0	59	18708
2026-01-27 10:41:19.19	182.07	4.75	-44.0	-57.8	3.8	1.49e+00	0	57	104	0	59	17815
2026-01-27 10:41:23.23	182.23	5.03	-44.0	-57.5	3.8	1.49e+00	0	57	104	0	59	17210
2026-01-27 10:41:27.27	182.40	5.31	-43.9	-56.2	3.9	1.49e+00	0	57	104	0	59	14807
2026-01-27 10:41:31.31	182.56	5.60	-43.8	-54.9	4.2	1.42e+00	0	57	0	0	59	12739
2026-01-27 10:41:35.35	182.73	5.88	-43.8	-54.2	4.4	1.22e+00	0	57	0	2097152	59	11771
2026-01-27 10:41:39.40	182.90	6.18	-43.7	-53.5	4.7	1.00e+00	0	58	0	9437184	59	10861
2026-01-27 10:41:43.44	183.08	6.47	-43.6	-52.9	5.0	8.06e-01	0	58	0	17825792	59	10121
2026-01-27 10:41:47.47	183.26	6.77	-43.3	-50.9	6.4	3.26e-01	0	58	0	25165824	58	8543
2026-01-27 10:41:51.52	183.44	7.07	-42.8	-48.9	8.3	6.47e-02	0	58	0	32505856	57	7182
2026-01-27 10:41:55.56	183.63	7.37	-42.4	-47.9	9.3	1.66e-02	0	58	0	39845888	56	6739
2026-01-27 10:41:59.60	183.82	7.68	-42.3	-47.5	9.8	1.15e-02	0	58	0	47185920	56	6429
2026-01-27 10:42:03.64	184.01	7.99	-42.7	-48.8	8.4	2.88e-02	0	58	0	55574528	56	7474
2026-01-27 10:42:07.68	184.21	8.30	-42.5	-47.8	9.6	6.97e-02	0	59	0	61865984	57	6328
2026-01-27 10:42:11.72	184.41	8.62	-42.4	-47.4	10.0	9.44e-03	0	59	0	67108864	56	6406
2026-01-27 10:42:15.76	184.62	8.94	-42.3	-47.2	10.3	6.10e-03	0	59	0	74448896	56	6203
2026-01-27 10:42:19.80	184.83	9.27	-42.3	-47.1	10.3	5.95e-03	0	59	0	81788928	56	6167
2026-01-27 10:42:23.84	185.04	9.60	-42.1	-46.5	11.0	2.45e-03	0	59	0	90177536	56	5786
2026-01-27 10:42:27.88	185.26	9.93	-41.8	-46.2	11.1	1.43e-03	0	59	0	97517568	55	5864
2026-01-27 10:42:31.92	185.49	10.27	-41.9	-46.2	11.2	1.16e-03	0	59	0	104857600	55	5897
2026-01-27 10:42:35.97	185.72	10.61	-41.8	-46.0	11.4	7.65e-04	0	59	0	112197632	55	5769
2026-01-27 10:42:40.00	185.95	10.96	-41.7	-45.7	11.7	7.17e-04	0	60	0	119537664	55	5585
2026-01-27 10:42:44.04	186.19	11.31	-41.6	-45.5	12.0	2.82e-04	0	60	0	127926272	55	5406
2026-01-27 10:42:48.09	186.43	11.66	-41.3	-44.9	12.7	1.51e-04	0	60	0	135266304	54	5346
2026-01-27 10:42:52.13	186.69	12.03	-41.4	-45.1	12.4	1.17e-04	0	60	0	142606336	54	5513
2026-01-27 10:42:56.17	186.94	12.39	-41.4	-45.0	12.4	1.53e-04	0	60	0	149946368	54	5464
2026-01-27 10:43:00.21	187.21	12.76	-41.4	-45.0	12.5	9.23e-05	0	60	0	158334976	54	5462
2026-01-27 10:43:04.25	187.48	13.14	-41.5	-45.2	12.3	1.27e-04	0	60	0	165675008	54	5589
2026-01-27 10:43:08.29	187.75	13.52	-41.4	-45.1	12.5	7.40e-05	0	60	0	173015040	54	5485
2026-01-27 10:43:12.33	188.03	13.91	-41.4	-45.1	12.5	9.15e-05	0	60	0	180355072	54	5526
2026-01-27 10:43:16.37	188.32	14.30	-41.4	-45.0	12.7	1.01e-04	0	61	0	187695104	54	5432
2026-01-27 10:43:20.41	188.62	14.70	-41.5	-45.2	12.5	6.40e-05	0	61	0	196083712	54	5554
2026-01-27 10:43:24.45	188.93	15.10	-41.4	-45.1	12.6	1.36e-04	0	61	0	203423744	54	5486
2026-01-27 10:43:28.49	189.24	15.51	-41.3	-44.9	12.7	8.08e-05	0	61	0	210763776	54	5346
2026-01-27 10:43:32.53	189.56	15.93	-40.9	-44.2	13.3	2.36e-05	0	60	0	218103808	53	5248
2026-01-27 10:43:36.57	189.89	16.35	-40.9	-44.1	13.5	6.10e-06	0	61	0	226492416	53	5214
2026-01-27 10:43:40.61	190.23	16.78	-40.8	-43.9	13.9	4.50e-06	0	61	0	233832448	53	5044
2026-01-27 10:43:44.65	190.58	17.22	-40.9	-44.1	13.6	8.30e-06	0	61	0	241172480	53	5204
2026-01-27 10:43:48.69	190.94	17.66	-41.0	-44.3	13.4	9.10e-06	0	61	0	248512512	53	5339
2026-01-27 10:43:52.73	191.31	18.11	-40.9	-44.1	13.8	2.20e-06	0	61	0	256901120	53	5181
2026-01-27 10:43:56.77	191.69	18.57	-40.6	-43.5	14.3	1.50e-06	0	61	0	264241152	53	4869
2026-01-27 10:44:00.81	192.08	19.03	-40.6	-43.5	14.4	2.20e-06	0	61	0	271581184	53	4849
2026-01-27 10:44:04.85	192.49	19.50	-40.7	-43.6	14.3	0.00e+00	0	61	0	278921216	52	5197
2026-01-27 10:44:08.89	192.90	19.98	-40.8	-43.7	14.2	7.00e-07	0	61	0	286261248	52	5270
2026-01-27 10:44:12.93	193.33	20.47	-40.7	-43.6	14.4	1.50e-06	0	61	0	294649856	52	5177
2026-01-27 10:44:16.97	193.77	20.97	-40.7	-43.5	14.4	1.50e-06	0	61	0	301989888	52	5150
2026-01-27 10:44:21.01	194.23	21.47	-40.6	-43.4	14.6	0.00e+00	0	61	0	309329920	52	5068
2026-01-27 10:44:25.04	194.70	21.98	-40.6	-43.4	14.7	0.00e+00	0	61	0	316669952	52	5044
2026-01-27 10:44:29.08	195.19	22.50	-40.5	-43.3	14.7	0.00e+00	0	62	0	325058560	52	5016
2026-01-27 10:44:33.12	195.69	23.03	-40.6	-43.4	14.6	1.50e-06	0	61	0	332398592	52	5081
2026-01-27 10:44:37.16	196.21	23.57	-40.8	-43.7	14.3	1.50e-06	0	61	0	339738624	52	5269
2026-01-27 10:44:41.20	196.74	24.12	-40.9	-43.9	14.1	7.00e-07	0	62	0	347078656	52	5394
2026-01-27 10:44:45.24	197.30	24.68	-40.9	-43.8	14.3	1.50e-06	0	62	0	354418688	52	5334
2026-01-27 10:44:49.29	197.88	25.24	-40.9	-43.9	14.1	1.50e-06	0	62	0	362807296	52	5379
2026-01-27 10:44:53.33	198.47	25.82	-41.2	-44.3	13.8	3.00e-06	0	62	0	370147328	53	5307
2026-01-27 10:44:57.37	199.09	26.40	-41.4	-44.7	13.4	9.10e-06	0	62	0	377487360	53	5556
2026-01-27 10:45:01.41	199.73	27.00	-41.5	-44.9	13.2	1.14e-05	0	62	0	384827392	53	5688
2026-01-27 10:45:05.45	200.39	27.60	-41.7	-45.1	13.1	2.82e-05	0	62	0	393216000	54	5495
2026-01-27 10:45:09.49	201.08	28.21	-41.9	-45.5	12.7	9.15e-05	0	62	0	400556032	54	5743
2026-01-27 10:45:13.53	201.80	28.84	-42.3	-46.3	11.7	5.90e-04	0	62	0	407896064	55	5935
2026-01-27 10:45:17.57	202.54	29.47	-43.0	-47.7	10.6	3.08e-03	0	62	0	415236096	56	6583
2026-01-27 10:45:21.61	203.31	30.11	-42.9	-47.5	10.7	2.63e-03	0	62	0	422576128	56	6476
2026-01-27 10:45:25.65	204.12	30.75	-42.6	-46.8	11.5	1.31e-03	0	62	0	430964736	56	5961
2026-01-27 10:45:29.68	204.95	31.41	-42.3	-46.1	12.2	1.91e-04	0	62	0	438304768	56	5524
2026-01-27 10:45:33.73	205.82	32.08	-42.6	-46.8	11.6	4.07e-04	0	62	0	445644800	56	5957
2026-01-27 10:45:37.77	206.73	32.75	-42.3	-46.2	12.2	2.87e-04	0	62	0	452984832	56	5562
2026-01-27 10:45:41.81	207.67	33.43	-41.6	-44.9	13.4	2.51e-05	0	62	0	461373440	55	5092
2026-01-27 10:45:45.85	208.65	34.12	-42.3	-46.2	12.0	2.65e-04	0	62	0	468713472	55	5894
2026-01-27 10:45:49.89	209.68	34.81	-42.0	-45.6	12.6	1.16e-04	0	62	0	476053504	55	5525
2026-01-27 10:45:53.93	210.74	35.50	-41.9	-45.4	12.8	2.67e-05	0	62	0	483393536	55	5365
2026-01-27 10:45:57.97	211.86	36.21	-42.2	-45.9	12.3	3.09e-04	0	62	0	490733568	55	5722
2026-01-27 10:46:02.00	213.02	36.91	-41.6	-44.9	13.3	3.20e-05	0	62	0	499122176	55	5100
2026-01-27 10:46:06.04	214.23	37.61	-41.4	-44.6	13.7	1.06e-05	0	62	0	506462208	54	5183
2026-01-27 10:46:10.08	215.49	38.32	-41.1	-44.0	14.3	1.50e-06	0	62	0	513802240	54	4835
2026-01-27 10:46:14.12	216.81	39.02	-40.9	-43.7	14.6	0.00e+00	0	62	0	521142272	53	4967
2026-01-27 10:46:18.16	218.19	39.72	-41.0	-43.8	14.4	0.00e+00	0	62	0	529530880	53	5030
2026-01-27 10:46:22.21	219.63	40.42	-41.2	-44.3	14.0	3.80e-06	0	62	0	536870912	53	5299
2026-01-27 10:46:26.25	221.13	41.11	-41.8	-45.2	13.1	3.43e-05	0	62	0	544210944	54	5564
2026-01-27 10:46:30.29	222.69	41.79	-41.0	-43.9	14.3	0.00e+00	0	62	0	551550976	53	5092
2026-01-27 10:46:34.33	224.32	42.46	-41.4	-44.6	13.7	1.67e-05	0	62	0	559939584	53	5471
2026-01-27 10:46:38.37	226.02	43.11	-40.8	-43.6	14.7	0.00e+00	0	62	0	567279616	52	5180
2026-01-27 10:46:42.41	227.78	43.75	-41.7	-45.1	13.2	9.10e-06	0	62	0	574619648	53	5805
2026-01-27 10:46:46.45	229.62	44.36	-41.0	-43.9	14.4	7.00e-07	0	62	0	581959680	53	5048
2026-01-27 10:46:50.49	231.52	44.95	-41.5	-44.8	13.5	1.06e-05	0	62	0	589299712	53	5604
2026-01-27 10:46:54.53	233.49	45.52	-41.8	-45.2	13.1	9.90e-06	0	62	0	597688320	54	5535
2026-01-27 10:46:58.57	235.54	46.05	-42.1	-45.9	12.4	3.33e-04	0	62	0	605028352	55	5658
2026-01-27 10:47:02.61	237.65	46.55	-43.3	-48.2	10.1	5.85e-03	0	62	0	612368384	57	6632
2026-01-27 10:47:06.65	239.82	47.01	-43.3	-48.3	10.0	7.21e-03	0	62	0	619708416	57	6658
2026-01-27 10:47:10.69	242.06	47.43	-42.8	-47.1	11.2	6.72e-04	0	62	0	628097024	57	5823
2026-01-27 10:47:14.73	244.35	47.81	-43.7	-49.5	8.9	1.92e-02	0	62	0	635437056	57	7656
2026-01-27 10:47:18.77	246.69	48.14	-42.9	-47.3	11.0	2.75e-03	0	62	0	642777088	57	5947
2026-01-27 10:47:22.81	249.08	48.42	-43.0	-47.6	10.7	3.01e-03	0	62	0	650117120	57	6182
2026-01-27 10:47:26.86	251.52	48.64	-42.9	-47.4	10.8	6.68e-04	0	62	0	657457152	56	6350
2026-01-27 10:47:30.90	253.98	48.82	-42.3	-46.1	12.2	2.67e-04	0	62	0	665845760	56	5491
2026-01-27 10:47:34.94	256.47	48.94	-41.9	-45.3	12.9	6.33e-05	0	62	0	673185792	55	5326
2026-01-27 10:47:38.98	258.96	49.00	-41.6	-45.0	13.3	1.98e-05	0	62	0	680525824	55	5106
2026-01-27 10:47:43.02	261.47	49.00	-42.4	-46.5	11.7	5.61e-04	0	62	0	687865856	55	6069
2026-01-27 10:47:47.06	263.97	48.95	-41.6	-44.9	13.3	6.63e-05	0	62	0	696254464	55	5079
2026-01-27 10:47:51.10	266.45	48.84	-42.4	-46.4	11.9	1.50e-04	0	62	0	703594496	55	6002
2026-01-27 10:47:55.14	268.91	48.67	-42.9	-47.2	11.1	2.94e-03	0	62	0	710934528	57	5896
2026-01-27 10:47:59.17	271.34	48.45	-43.8	-49.8	8.5	4.05e-02	0	62	0	718274560	58	7510
2026-01-27 10:48:03.21	273.73	48.18	-42.7	-46.9	11.3	2.04e-03	0	62	0	725614592	57	5719
2026-01-27 10:48:07.25	276.08	47.85	-43.2	-47.9	10.3	2.76e-03	0	62	0	734003200	56	6792
2026-01-27 10:48:11.29	278.38	47.48	-42.5	-46.4	12.0	6.62e-04	0	62	0	741343232	56	5687
2026-01-27 10:48:15.33	280.62	47.07	-43.7	-49.4	8.9	2.05e-02	0	62	0	748683264	57	7560
2026-01-27 10:48:19.36	282.79	46.61	-42.9	-47.3	11.0	1.21e-03	0	62	0	756023296	57	5975
2026-01-27 10:48:23.40	284.90	46.12	-42.2	-45.9	12.3	1.34e-04	0	62	0	764411904	55	5685
2026-01-27 10:48:27.44	286.95	45.60	-42.1	-45.6	12.8	3.71e-04	0	62	0	771751936	56	5168
2026-01-27 10:48:31.48	288.93	45.04	-42.1	-45.7	12.6	3.74e-04	0	62	0	779091968	56	5262
2026-01-27 10:48:35.52	290.83	44.45	-41.8	-45.2	13.0	1.75e-05	0	62	0	786432000	54	5574
2026-01-27 10:48:39.56	292.67	43.84	-40.6	-43.2	15.1	0.00e+00	0	62	0	793772032	52	4945
2026-01-27 10:48:43.60	294.44	43.21	-40.2	-42.5	15.8	0.00e+00	0	62	0	802160640	51	4862
2026-01-27 10:48:47.63	296.14	42.57	-41.0	-43.8	14.4	3.00e-06	0	62	0	809500672	53	5026
2026-01-27 10:48:51.68	297.78	41.91	-40.9	-43.7	14.5	0.00e+00	0	62	0	816840704	52	5246
2026-01-27 10:48:55.71	299.34	41.23	-40.7	-43.4	14.9	0.00e+00	0	62	0	824180736	52	5066
2026-01-27 10:48:59.76	300.85	40.55	-40.4	-42.9	15.3	0.00e+00	0	62	0	832569344	52	4786
2026-01-27 10:49:03.79	302.28	39.86	-43.5	-48.9	9.4	1.52e-02	0	62	0	839909376	57	7142
2026-01-27 10:49:07.82	303.66	39.16	-43.0	-47.5	10.8	5.65e-04	0	62	0	847249408	56	6434
2026-01-27 10:49:11.86	304.99	38.46	-43.6	-49.1	9.0	1.17e-01	0	62	0	854589440	58	6909
2026-01-27 10:49:15.89	306.25	37.76	-43.8	-49.9	8.4	2.81e-02	0	62	0	861929472	58	7565
2026-01-27 10:49:19.93	307.47	37.06	-43.0	-47.5	10.7	9.32e-03	0	62	0	870318080	58	5758
2026-01-27 10:49:23.97	308.64	36.36	-43.9	-50.0	8.2	1.14e-02	0	62	0	877658112	58	7671
2026-01-27 10:49:28.01	309.76	35.66	-43.3	-48.2	10.0	3.60e-02	0	62	0	884998144	58	6238
2026-01-27 10:49:32.06	310.83	34.97	-43.2	-48.0	10.2	2.96e-03	0	62	0	892338176	56	6845
2026-01-27 10:49:36.09	311.86	34.28	-42.1	-45.7	12.6	3.17e-04	0	62	0	900726784	56	5241
2026-01-27 10:49:40.14	312.85	33.60	-41.9	-45.5	12.6	3.28e-05	0	62	0	908066816	54	5748
2026-01-27 10:49:44.18	313.79	32.92	-41.5	-44.8	13.4	4.50e-05	0	62	0	915406848	55	4986
2026-01-27 10:49:48.21	314.70	32.25	-41.8	-45.3	12.8	3.35e-05	0	62	0	922746880	54	5600
2026-01-27 10:49:52.25	315.57	31.59	-42.6	-46.9	11.3	1.69e-03	0	62	0	930086912	56	6000
2026-01-27 10:49:56.28	316.41	30.94	-42.4	-46.4	12.0	2.83e-04	0	62	0	938475520	56	5664
2026-01-27 10:50:00.32	317.22	30.29	-41.8	-45.3	12.8	1.75e-04	0	62	0	945815552	55	5314
2026-01-27 10:50:04.36	317.99	29.66	-41.3	-44.4	13.7	4.50e-06	0	63	0	953155584	54	5097
2026-01-27 10:50:08.40	318.74	29.03	-42.1	-45.9	12.2	1.41e-04	0	62	0	960495616	54	6002
2026-01-27 10:50:12.44	319.46	28.41	-42.9	-47.6	10.6	2.64e-03	0	62	0	968884224	56	6518
2026-01-27 10:50:16.48	320.15	27.80	-42.0	-45.7	12.3	1.25e-04	0	62	0	976224256	55	5582
2026-01-27 10:50:20.52	320.82	27.20	-42.0	-45.8	12.3	1.98e-04	0	62	0	983564288	55	5614
2026-01-27 10:50:24.55	321.46	26.61	-41.3	-44.4	13.6	1.52e-05	0	62	0	990904320	54	5079
2026-01-27 10:50:28.59	322.08	26.03	-40.9	-43.9	14.1	1.50e-06	0	62	0	998244352	53	5074
2026-01-27 10:50:32.63	322.68	25.45	-41.7	-45.2	12.8	3.43e-05	0	62	0	1006632960	53	5876
2026-01-27 10:50:36.67	323.26	24.89	-42.2	-46.2	11.7	9.42e-04	0	62	0	1013972992	55	5922
2026-01-27 10:50:40.70	323.82	24.34	-42.4	-46.6	11.3	7.35e-04	0	62	0	1021313024	55	6183
2026-01-27 10:50:44.74	324.36	23.79	-43.1	-48.3	9.7	1.04e-02	0	63	0	1028653056	56	7098
2026-01-27 10:50:48.78	324.88	23.25	-42.6	-47.1	11.0	2.13e-03	0	63	0	1037041664	56	6190
2026-01-27 10:50:52.82	325.39	22.73	-42.6	-47.1	11.0	2.74e-03	0	62	0	1044381696	56	6171
2026-01-27 10:50:56.86	325.88	22.21	-43.1	-48.3	9.7	1.24e-02	0	63	0	1051721728	56	7082
2026-01-27 10:51:00.91	326.35	21.69	-42.4	-46.7	11.3	1.82e-03	0	63	0	1059061760	56	5893
2026-01-27 10:51:04.95	326.81	21.19	-41.0	-44.1	13.8	1.90e-05	0	62	0	1066401792	54	4878
2026-01-27 10:51:08.99	327.26	20.70	-40.7	-43.5	14.3	1.50e-06	0	62	0	1074790400	53	4851
2026-01-27 10:51:13.02	327.69	20.21	-41.6	-45.2	12.6	8.08e-05	0	62	0	1082130432	53	5908
2026-01-27 10:51:17.06	328.11	19.73	-42.5	-47.1	10.7	2.49e-03	0	63	0	1089470464	55	6515
2026-01-27 10:51:21.10	328.51	19.26	-43.0	-48.1	9.7	1.19e-02	0	63	0	1096810496	56	6949
2026-01-27 10:51:25.14	328.91	18.80	-42.5	-47.0	10.8	3.00e-03	0	62	0	1105199104	56	6111
2026-01-27 10:51:29.18	329.29	18.34	-42.1	-46.0	11.9	4.10e-04	0	63	0	1112539136	56	5448
2026-01-27 10:51:33.22	329.67	17.90	-41.8	-45.6	12.1	2.41e-04	0	62	0	1119879168	55	5515
2026-01-27 10:51:37.26	330.03	17.45	-42.2	-46.5	11.1	1.29e-03	0	62	0	1127219200	55	6126
2026-01-27 10:51:41.30	330.38	17.02	-42.4	-47.1	10.5	4.07e-03	0	62	0	1134559232	55	6570
2026-01-27 10:51:45.34	330.73	16.59	-42.6	-47.5	10.0	7.64e-03	0	62	0	1142947840	55	6857
2026-01-27 10:51:49.39	331.06	16.17	-42.5	-47.4	10.1	6.85e-03	0	62	0	1150287872	55	6800
2026-01-27 10:51:53.43	331.39	15.75	-42.3	-47.0	10.5	4.20e-03	0	62	0	1157627904	55	6443
2026-01-27 10:51:57.47	331.71	15.34	-41.9	-46.1	11.5	8.70e-04	0	62	0	1164967936	55	5792
2026-01-27 10:52:01.51	332.02	14.94	-41.9	-46.2	11.3	1.07e-03	0	62	0	1173356544	55	5875
2026-01-27 10:52:05.55	332.32	14.54	-41.8	-46.0	11.5	5.19e-04	0	62	0	1180696576	55	5751
2026-01-27 10:52:09.59	332.61	14.15	-41.8	-46.0	11.4	7.12e-04	0	63	0	1188036608	55	5755
2026-01-27 10:52:13.63	332.90	13.77	-41.8	-46.0	11.5	7.22e-04	0	62	0	1195376640	55	5736
2026-01-27 10:52:17.66	333.18	13.39	-41.8	-45.9	11.5	9.29e-04	0	62	0	1202716672	55	5690
2026-01-27 10:52:21.71	333.45	13.01	-41.6	-45.6	11.8	4.32e-04	0	62	0	1211105280	55	5486
2026-01-27 10:52:25.75	333.72	12.64	-41.6	-45.5	11.8	3.87e-04	0	63	0	1218445312	54	5773
2026-01-27 10:52:29.78	333.98	12.28	-41.6	-45.7	11.7	6.45e-04	0	63	0	1225785344	54	5889
2026-01-27 10:52:33.82	334.23	11.92	-41.7	-45.9	11.5	8.70e-04	0	63	0	1233125376	54	5994
2026-01-27 10:52:37.86	334.48	11.56	-42.0	-46.7	10.5	3.85e-03	0	62	0	1241513984	54	6639
2026-01-27 10:52:41.90	334.73	11.21	-42.2	-47.3	9.9	8.52e-03	0	62	0	1248854016	55	6680
2026-01-27 10:52:45.94	334.97	10.87	-42.3	-47.6	9.5	1.25e-02	0	63	0	1256194048	55	6913
2026-01-27 10:52:49.98	335.20	10.53	-42.3	-47.6	9.4	1.86e-02	0	62	0	1263534080	55	6939
2026-01-27 10:52:54.02	335.43	10.19	-42.3	-47.8	9.2	2.08e-02	0	63	0	1270874112	55	7077
2026-01-27 10:52:58.06	335.65	9.86	-42.1	-47.4	9.5	1.35e-02	0	62	0	1279262720	55	6788
2026-01-27 10:53:02.10	335.87	9.53	-42.1	-47.5	9.3	1.65e-02	0	63	0	1286602752	55	6838
2026-01-27 10:53:06.14	336.09	9.20	-41.9	-47.1	9.5	1.60e-02	0	62	0	1293942784	55	6538
2026-01-27 10:53:10.18	336.30	8.88	-41.7	-46.8	8.5	3.48e-02	0	62	0	1301282816	55	6328
2026-01-27 10:53:14.22	336.50	8.57	-41.2	-46.4	6.0	2.68e-01	0	63	0	1309671424	54	6356
2026-01-27 10:53:18.26	336.71	8.25	-41.3	-46.6	6.8	8.30e-02	0	63	0	1317011456	54	6517
2026-01-27 10:53:22.30	336.90	7.94	-44.3	-58.3	3.8	1.49e+00	0	63	104	1321205760	59	18828
2026-01-27 10:53:26.34	337.10	7.64	-45.1	-59.7	3.8	1.49e+00	0	63	104	1321205760	60	20866
2026-01-27 10:53:30.38	337.29	7.34	-45.3	-59.9	3.8	1.49e+00	0	63	104	1321205760	61	20118
2026-01-27 10:53:34.42	337.48	7.04	-44.5	-59.7	3.8	1.49e+00	0	62	104	1321205760	61	19617
2026-01-27 10:53:38.46	337.66	6.74	-45.1	-59.7	3.8	1.49e+00	0	62	104	1321205760	60	20860
2026-01-27 10:53:42.51	337.84	6.45	-45.2	-59.7	3.8	1.49e+00	0	62	104	1321205760	60	20900
2026-01-27 10:53:46.55	338.02	6.16	-45.1	-59.7	3.8	1.49e+00	0	63	104	1321205760	60	20827
2026-01-27 10:53:50.59	338.19	5.87	-45.1	-59.7	3.8	1.49e+00	0	63	104	1321205760	60	20833
2026-01-27 10:53:54.63	338.37	5.59	-45.1	-59.7	3.8	1.49e+00	0	63	104	1321205760	60	20874
2026-01-27 10:53:58.68	338.53	5.30	-45.1	-59.7	3.8	1.49e+00	0	63	104	1321205760	60	20818
2026-01-27 10:54:02.72	338.70	5.03	-45.1	-59.7	3.8	1.49e+00	0	62	104	1321205760	60	20802
2026-01-27 10:54:06.76	338.86	4.75	-45.1	-59.7	3.8	1.49e+00	0	62	104	1321205760	60	20829
2026-01-27 10:54:10.80	339.02	4.48	-45.1	-59.7	3.8	1.49e+00	0	63	104	1321205760	60	20861
2026-01-27 10:54:14.84	339.18	4.21	-45.1	-59.7	3.8	1.49e+00	0	62	104	1321205760	60	20861
2026-01-27 10:54:18.88	339.34	3.94	-45.1	-59.7	3.8	1.49e+00	0	63	104	1321205760	60	20795
2026-01-27 10:54:22.92	339.49	3.67	-45.1	-59.7	3.8	1.49e+00	0	63	104	1321205760	60	20783
2026-01-27 10:54:26.96	339.64	3.41	-45.1	-59.7	3.8	1.49e+00	0	63	104	1321205760	60	20798
2026-01-27 10:54:31.01	339.79	3.15	-45.1	-59.6	3.8	1.49e+00	0	63	104	1321205760	60	20738
2026-01-27 10:54:35.05	339.93	2.89	-45.1	-59.6	3.8	1.49e+00	0	63	104	1321205760	60	20754
2026-01-27 10:54:39.09	340.08	2.64	-45.0	-59.7	3.8	1.49e+00	0	63	104	1321205760	60	20790
2026-01-27 10:54:43.14	340.22	2.38	-45.1	-59.7	3.8	1.49e+00	0	63	104	1321205760	60	20780
2026-01-27 10:54:47.18	340.36	2.13	-45.1	-59.6	3.8	1.49e+00	0	63	104	1321205760	60	20726

#Closed at: 2026-01-27 10:54:50
#Recorded file [1321 MB]: D:/lorett/data/31039_260127_134038.dat