passes_logs/2026/01/27/R2.0S_Moscow/R2.0S_Moscow__20260127_131833_FENGYUN_3D_rec.log

#Pass ID: 20260127_131833_FENGYUN 3D
#Satellite: FENGYUN 3D
#Configuration: FENGYUN 3D
#almurnet v.1.7.20251203
#Start time: 2026-01-27 13:18:35

#Version: 2.2.20231116
#Station: R2.0S_Moscow
#Location: 37.707566 lon 55.798166 lat
#TLE: 1 43010U 17072A   26026.91415486  .00000072  00000+0  55983-4 0  9991
#TLE: 2 43010  98.9962 358.9161 0002508  89.0320 271.1142 14.19700283424949

#Time	Az	El	Level	Level2	SNR	BER	BlckErr	Temp	State	Recorded	gain1	gain2
2026-01-27 13:18:35.37	200.22	2.13	-44.0	-55.6	3.8	8.45e-01	0	57	0	0	59	13739
2026-01-27 13:18:39.41	200.48	2.36	-44.0	-55.5	3.8	8.46e-01	0	57	104	0	59	13679
2026-01-27 13:18:43.46	200.74	2.60	-44.0	-55.5	3.8	8.45e-01	0	57	104	0	59	13683
2026-01-27 13:18:47.50	201.00	2.83	-44.0	-55.5	3.8	8.46e-01	0	58	104	0	59	13633
2026-01-27 13:18:51.54	201.27	3.07	-44.0	-55.5	3.8	8.46e-01	0	58	104	0	59	13673
2026-01-27 13:18:55.58	201.54	3.31	-44.0	-55.5	3.8	8.46e-01	0	58	104	0	59	13692
2026-01-27 13:18:59.62	201.81	3.55	-44.0	-55.5	3.8	8.46e-01	0	58	104	0	59	13693
2026-01-27 13:19:03.66	202.09	3.80	-44.0	-55.5	3.8	8.46e-01	0	58	104	0	59	13656
2026-01-27 13:19:07.69	202.38	4.04	-44.0	-55.5	3.8	8.46e-01	0	59	104	0	59	13640
2026-01-27 13:19:11.73	202.67	4.29	-44.0	-55.5	3.8	8.46e-01	0	59	104	0	59	13681
2026-01-27 13:19:15.77	202.96	4.54	-44.0	-55.5	3.8	8.45e-01	0	59	104	0	59	13647
2026-01-27 13:19:19.82	203.26	4.79	-44.0	-55.5	3.8	8.47e-01	0	59	104	0	59	13687
2026-01-27 13:19:23.86	203.56	5.04	-44.0	-55.5	3.8	8.46e-01	0	59	104	0	59	13666
2026-01-27 13:19:27.90	203.87	5.29	-44.0	-55.4	3.8	8.47e-01	0	59	104	0	59	13552
2026-01-27 13:19:31.94	204.19	5.55	-43.9	-55.1	3.8	8.46e-01	0	59	104	0	59	13037
2026-01-27 13:19:35.98	204.51	5.80	-43.8	-54.2	3.8	8.46e-01	0	59	104	0	59	11746
2026-01-27 13:19:40.03	204.83	6.06	-43.5	-51.8	4.2	8.40e-01	0	60	0	0	59	8920
2026-01-27 13:19:44.07	205.16	6.32	-43.3	-50.6	4.7	8.18e-01	0	60	0	0	58	8228
2026-01-27 13:19:48.11	205.50	6.58	-43.1	-49.8	5.1	7.67e-01	0	60	0	0	58	7536
2026-01-27 13:19:52.15	205.84	6.85	-42.8	-48.9	5.7	6.21e-01	0	60	0	1048576	57	7170
2026-01-27 13:19:56.19	206.19	7.11	-42.0	-46.8	7.4	1.42e-01	0	60	0	22020096	56	5932
2026-01-27 13:20:00.23	206.54	7.38	-40.2	-43.3	10.7	4.77e-03	0	60	0	45088768	52	5040
2026-01-27 13:20:04.28	206.90	7.65	-39.2	-41.7	12.4	2.41e-04	0	60	0	68157440	50	4697
2026-01-27 13:20:08.32	207.27	7.92	-39.5	-42.1	12.1	2.53e-04	0	60	0	91226112	49	5183
2026-01-27 13:20:12.37	207.65	8.20	-39.1	-41.5	12.9	1.40e-04	0	60	0	113246208	49	4822
2026-01-27 13:20:16.41	208.03	8.47	-38.7	-40.9	13.5	1.37e-05	0	60	0	126877696	49	4513
2026-01-27 13:20:20.45	208.42	8.75	-38.7	-41.0	13.5	1.83e-05	0	61	0	149946368	49	4553
2026-01-27 13:20:24.49	208.81	9.03	-38.7	-41.0	13.5	1.94e-05	0	61	0	171966464	49	4561
2026-01-27 13:20:28.53	209.21	9.31	-38.7	-41.0	13.5	1.83e-05	0	61	0	195035136	49	4547
2026-01-27 13:20:32.57	209.62	9.60	-38.5	-40.6	13.9	5.70e-06	0	61	0	218103808	49	4387
2026-01-27 13:20:36.62	210.04	9.88	-38.6	-40.8	13.9	8.00e-06	0	61	0	240123904	48	4720
2026-01-27 13:20:40.66	210.47	10.17	-38.5	-40.6	14.0	2.20e-06	0	61	0	263192576	48	4615
2026-01-27 13:20:44.70	210.90	10.46	-38.3	-40.4	14.3	2.20e-06	0	61	0	286261248	48	4506
2026-01-27 13:20:48.74	211.34	10.75	-38.4	-40.4	14.3	1.10e-06	0	61	0	308281344	48	4540
2026-01-27 13:20:52.77	211.79	11.04	-38.2	-40.2	14.6	2.20e-06	0	61	0	331350016	48	4392
2026-01-27 13:20:56.81	212.25	11.34	-38.1	-40.0	14.7	1.10e-06	0	61	0	354418688	48	4339
2026-01-27 13:21:00.86	212.72	11.64	-38.1	-40.0	14.8	1.10e-06	0	61	0	376438784	48	4317
2026-01-27 13:21:04.90	213.20	11.94	-37.8	-39.8	14.9	0.00e+00	0	61	0	399507456	47	4449
2026-01-27 13:21:08.94	213.69	12.24	-37.9	-39.9	14.8	1.10e-06	0	61	0	422576128	47	4501
2026-01-27 13:21:12.99	214.19	12.54	-37.9	-39.9	14.8	0.00e+00	0	61	0	444596224	47	4506
2026-01-27 13:21:17.03	214.70	12.85	-37.8	-39.7	15.0	0.00e+00	0	61	0	467664896	47	4430
2026-01-27 13:21:21.07	215.21	13.15	-37.9	-39.8	14.9	0.00e+00	0	61	0	490733568	47	4477
2026-01-27 13:21:25.11	215.74	13.46	-37.7	-39.5	15.2	1.10e-06	0	61	0	513802240	47	4338
2026-01-27 13:21:29.15	216.28	13.77	-37.5	-39.3	15.4	0.00e+00	0	61	0	535822336	46	4482
2026-01-27 13:21:33.19	216.83	14.08	-37.5	-39.3	15.5	0.00e+00	0	61	0	558891008	46	4455
2026-01-27 13:21:37.23	217.39	14.40	-37.5	-39.4	15.4	1.10e-06	0	61	0	581959680	46	4501
2026-01-27 13:21:41.27	217.97	14.71	-37.5	-39.3	15.4	0.00e+00	0	61	0	603979776	46	4488
2026-01-27 13:21:45.31	218.55	15.03	-37.4	-39.2	15.6	0.00e+00	0	62	0	627048448	46	4399
2026-01-27 13:21:49.35	219.15	15.35	-37.2	-39.0	15.8	0.00e+00	0	62	0	649068544	46	4327
2026-01-27 13:21:53.39	219.76	15.66	-37.0	-38.8	16.0	0.00e+00	0	61	0	672137216	45	4448
2026-01-27 13:21:57.43	220.38	15.98	-37.1	-38.8	15.9	0.00e+00	0	62	0	695205888	45	4491
2026-01-27 13:22:01.47	221.02	16.30	-36.8	-38.5	16.3	0.00e+00	0	62	0	718274560	45	4308
2026-01-27 13:22:05.51	221.67	16.63	-36.8	-38.5	16.3	0.00e+00	0	62	0	740294656	45	4304
2026-01-27 13:22:09.55	222.33	16.95	-36.7	-38.4	16.5	0.00e+00	0	62	0	763363328	45	4249
2026-01-27 13:22:13.59	223.01	17.27	-36.9	-38.5	16.3	0.00e+00	0	62	0	786432000	45	4327
2026-01-27 13:22:17.63	223.70	17.59	-36.8	-38.4	16.4	0.00e+00	0	62	0	808452096	45	4281
2026-01-27 13:22:21.67	224.40	17.92	-36.6	-38.2	16.7	0.00e+00	0	62	0	831520768	45	4156
2026-01-27 13:22:25.71	225.12	18.24	-36.6	-38.2	16.6	0.00e+00	0	62	0	854589440	45	4190
2026-01-27 13:22:29.75	225.86	18.56	-36.5	-38.1	16.7	0.00e+00	0	62	0	876609536	44	4388
2026-01-27 13:22:33.79	226.61	18.89	-36.4	-38.0	16.9	0.00e+00	0	62	0	899678208	44	4318
2026-01-27 13:22:37.83	227.38	19.21	-36.4	-38.1	16.8	0.00e+00	0	62	0	922746880	44	4342
2026-01-27 13:22:41.87	228.16	19.53	-36.2	-37.8	17.1	0.00e+00	0	62	0	944766976	44	4214
2026-01-27 13:22:45.91	228.96	19.85	-36.2	-37.7	17.1	0.00e+00	0	62	0	967835648	44	4190
2026-01-27 13:22:49.95	229.77	20.17	-36.2	-37.7	17.1	0.00e+00	0	62	0	990904320	44	4179
2026-01-27 13:22:54.00	230.61	20.49	-36.2	-37.8	17.1	0.00e+00	0	62	0	1012924416	44	4221
2026-01-27 13:22:58.04	231.45	20.80	-36.0	-37.5	17.4	0.00e+00	0	62	0	1035993088	44	4079
2026-01-27 13:23:02.08	232.32	21.11	-36.2	-37.7	17.2	0.00e+00	0	62	0	1059061760	44	4172
2026-01-27 13:23:06.11	233.20	21.42	-36.2	-37.8	17.1	0.00e+00	0	62	0	1081081856	44	4227
2026-01-27 13:23:10.15	234.10	21.73	-35.6	-37.1	17.6	0.00e+00	0	62	0	1104150528	43	4103
2026-01-27 13:23:14.20	235.02	22.03	-35.6	-37.1	17.6	0.00e+00	0	62	0	1127219200	42	4375
2026-01-27 13:23:18.24	235.95	22.33	-35.6	-37.1	17.6	0.00e+00	0	62	0	1149239296	42	4373
2026-01-27 13:23:22.28	236.91	22.62	-35.8	-37.3	17.4	0.00e+00	0	62	0	1172307968	42	4476
2026-01-27 13:23:26.32	237.88	22.91	-35.8	-37.3	17.4	0.00e+00	0	62	0	1195376640	42	4459
2026-01-27 13:23:30.36	238.86	23.20	-35.4	-36.8	17.9	0.00e+00	0	62	0	1218445312	42	4233
2026-01-27 13:23:34.39	239.87	23.47	-35.6	-37.1	17.6	0.00e+00	0	62	0	1240465408	42	4383
2026-01-27 13:23:38.44	240.89	23.75	-35.4	-36.8	17.9	0.00e+00	0	62	0	1263534080	42	4240
2026-01-27 13:23:42.48	241.93	24.01	-35.4	-36.8	17.9	0.00e+00	0	62	0	1285554176	42	4218
2026-01-27 13:23:46.52	242.99	24.27	-35.1	-36.5	18.2	0.00e+00	0	62	0	1308622848	42	4069
2026-01-27 13:23:50.56	244.06	24.52	-35.4	-36.7	18.3	0.00e+00	0	62	0	1331691520	42	4173
2026-01-27 13:23:54.60	245.15	24.76	-35.2	-36.5	18.5	0.00e+00	0	62	0	1353711616	42	4075
2026-01-27 13:23:58.64	246.26	24.99	-35.1	-36.4	18.6	0.00e+00	0	62	0	1376780288	42	4037
2026-01-27 13:24:02.69	247.38	25.22	-35.3	-36.6	18.5	0.00e+00	0	62	0	1399848960	42	4123
2026-01-27 13:24:06.73	248.52	25.43	-35.4	-36.7	18.3	0.00e+00	0	62	0	1422917632	42	4159
2026-01-27 13:24:10.77	249.67	25.64	-35.3	-36.6	18.5	0.00e+00	0	62	0	1444937728	42	4102
2026-01-27 13:24:14.81	250.84	25.83	-35.1	-36.3	18.7	0.00e+00	0	62	0	1468006400	41	4231
2026-01-27 13:24:18.85	252.02	26.01	-35.1	-36.4	18.6	0.00e+00	0	62	0	1490026496	41	4260
2026-01-27 13:24:22.89	253.21	26.18	-35.2	-36.5	18.5	0.00e+00	0	62	0	1513095168	41	4297
2026-01-27 13:24:26.94	254.42	26.34	-35.1	-36.4	18.7	0.00e+00	0	62	0	1536163840	41	4244
2026-01-27 13:24:30.98	255.63	26.49	-35.0	-36.3	18.7	0.00e+00	0	62	0	1559232512	41	4204
2026-01-27 13:24:35.03	256.86	26.62	-35.3	-36.6	18.4	0.00e+00	0	62	0	1581252608	41	4389
2026-01-27 13:24:39.07	258.10	26.74	-35.1	-36.3	18.7	0.00e+00	0	62	0	1604321280	41	4232
2026-01-27 13:24:43.11	259.34	26.84	-34.7	-35.9	19.1	0.00e+00	0	62	0	1627389952	41	4042
2026-01-27 13:24:47.15	260.59	26.94	-34.7	-36.0	19.1	0.00e+00	0	62	0	1649410048	41	4052
2026-01-27 13:24:51.19	261.85	27.01	-35.0	-36.3	18.8	0.00e+00	0	62	0	1672478720	41	4207
2026-01-27 13:24:55.23	263.12	27.08	-35.0	-36.2	18.8	0.00e+00	0	62	0	1695547392	41	4183
2026-01-27 13:24:59.28	264.39	27.12	-35.1	-36.4	18.7	0.00e+00	0	62	0	1717567488	41	4249
2026-01-27 13:25:03.32	265.66	27.16	-35.1	-36.4	18.7	0.00e+00	0	62	0	1740636160	41	4245
2026-01-27 13:25:07.36	266.93	27.18	-34.9	-36.2	18.9	0.00e+00	0	62	0	1763704832	41	4164
2026-01-27 13:25:11.40	268.20	27.18	-35.1	-36.3	18.7	0.00e+00	0	62	0	1785724928	41	4239
2026-01-27 13:25:15.45	269.48	27.17	-34.9	-36.2	18.9	0.00e+00	0	62	0	1808793600	41	4153
2026-01-27 13:25:19.49	270.75	27.14	-35.1	-36.3	18.7	0.00e+00	0	62	0	1831862272	41	4237
2026-01-27 13:25:23.53	272.02	27.10	-34.9	-36.1	18.9	0.00e+00	0	62	0	1854930944	41	4141
2026-01-27 13:25:27.57	273.28	27.05	-34.9	-36.1	18.9	0.00e+00	0	62	0	1876951040	41	4129
2026-01-27 13:25:31.61	274.54	26.98	-34.8	-36.1	18.9	0.00e+00	0	62	0	1900019712	41	4111
2026-01-27 13:25:35.65	275.80	26.89	-35.2	-36.5	18.5	0.00e+00	0	62	0	1922039808	41	4298
2026-01-27 13:25:39.70	277.05	26.79	-35.1	-36.4	18.7	0.00e+00	0	62	0	1945108480	41	4245
2026-01-27 13:25:43.74	278.28	26.68	-35.0	-36.3	18.8	0.00e+00	0	62	0	1968177152	41	4202
2026-01-27 13:25:47.78	279.51	26.55	-34.9	-36.1	18.9	0.00e+00	0	62	0	1991245824	41	4127
2026-01-27 13:25:51.82	280.73	26.42	-35.1	-36.4	18.7	0.00e+00	0	62	0	2013265920	41	4247
2026-01-27 13:25:55.86	281.94	26.26	-35.2	-36.5	18.5	0.00e+00	0	62	0	2036334592	41	4334
2026-01-27 13:25:59.91	283.14	26.10	-35.1	-36.4	18.6	0.00e+00	0	62	0	2059403264	41	4245
2026-01-27 13:26:03.95	284.32	25.93	-35.3	-36.6	18.4	0.00e+00	0	62	0	2081423360	41	4345
2026-01-27 13:26:07.99	285.49	25.74	-35.4	-36.8	18.3	0.00e+00	0	62	0	2104492032	41	4445
2026-01-27 13:26:12.03	286.65	25.54	-35.2	-36.5	18.5	0.00e+00	0	62	0	2127560704	41	4297
2026-01-27 13:26:16.07	287.79	25.33	-35.1	-36.3	18.6	0.00e+00	0	62	0	2149580800	41	4231
2026-01-27 13:26:20.11	288.92	25.11	-35.3	-36.6	18.4	0.00e+00	0	62	0	2172649472	41	4365
2026-01-27 13:26:24.15	290.03	24.89	-35.4	-36.7	18.3	0.00e+00	0	62	0	2195718144	41	4425
2026-01-27 13:26:28.19	291.12	24.65	-35.5	-36.8	18.2	0.00e+00	0	62	0	2217738240	41	4477
2026-01-27 13:26:32.24	292.20	24.41	-35.5	-36.9	18.1	0.00e+00	0	62	0	2240806912	41	4499
2026-01-27 13:26:36.28	293.26	24.15	-35.5	-36.8	18.2	0.00e+00	0	62	0	2263875584	41	4472
2026-01-27 13:26:40.32	294.31	23.89	-35.6	-36.9	18.1	0.00e+00	0	62	0	2285895680	41	4516
2026-01-27 13:26:44.36	295.33	23.63	-35.6	-36.9	18.0	0.00e+00	0	62	0	2308964352	41	4536
2026-01-27 13:26:48.40	296.34	23.35	-35.9	-37.3	17.7	0.00e+00	0	62	0	2332033024	42	4470
2026-01-27 13:26:52.44	297.34	23.07	-35.6	-36.9	18.1	0.00e+00	0	62	0	2354053120	42	4267
2026-01-27 13:26:56.48	298.31	22.79	-35.7	-37.1	17.9	0.00e+00	0	62	0	2377121792	42	4356
2026-01-27 13:27:00.52	299.27	22.50	-36.1	-37.5	17.5	0.00e+00	0	62	0	2400190464	42	4558
2026-01-27 13:27:04.56	300.21	22.21	-36.0	-37.5	17.5	0.00e+00	0	62	0	2423259136	42	4552
2026-01-27 13:27:08.60	301.13	21.91	-35.9	-37.3	17.6	0.00e+00	0	62	0	2445279232	42	4490
2026-01-27 13:27:12.64	302.04	21.61	-36.0	-37.4	17.5	0.00e+00	0	62	0	2468347904	42	4533
2026-01-27 13:27:16.68	302.93	21.30	-35.9	-37.2	17.7	0.00e+00	0	62	0	2490368000	42	4434
2026-01-27 13:27:20.72	303.80	20.99	-36.1	-37.5	17.3	0.00e+00	0	62	0	2513436672	42	4598
2026-01-27 13:27:24.76	304.65	20.68	-36.2	-37.7	17.2	0.00e+00	0	62	0	2536505344	43	4411
2026-01-27 13:27:28.80	305.49	20.37	-36.4	-37.9	16.9	0.00e+00	0	62	0	2558525440	43	4529
2026-01-27 13:27:32.84	306.31	20.05	-36.6	-38.1	16.8	0.00e+00	0	62	0	2581594112	43	4640
2026-01-27 13:27:36.88	307.11	19.74	-36.7	-38.3	16.6	0.00e+00	0	62	0	2604662784	43	4714
2026-01-27 13:27:40.92	307.90	19.42	-36.6	-38.1	16.9	0.00e+00	0	62	0	2627731456	44	4388
2026-01-27 13:27:44.96	308.67	19.10	-36.6	-38.0	17.0	0.00e+00	0	62	0	2649751552	44	4332
2026-01-27 13:27:49.01	309.43	18.78	-36.9	-38.5	16.5	0.00e+00	0	62	0	2672820224	44	4560
2026-01-27 13:27:53.05	310.17	18.46	-36.9	-38.5	16.5	0.00e+00	0	62	0	2694840320	44	4587
2026-01-27 13:27:57.09	310.90	18.14	-37.1	-38.7	16.3	0.00e+00	0	62	0	2717908992	44	4673
2026-01-27 13:28:01.13	311.61	17.82	-37.2	-38.8	16.2	0.00e+00	0	62	0	2740977664	45	4458
2026-01-27 13:28:05.17	312.30	17.50	-37.2	-38.8	16.1	0.00e+00	0	62	0	2764046336	45	4476
2026-01-27 13:28:09.21	312.99	17.18	-37.2	-38.9	16.1	0.00e+00	0	62	0	2786066432	45	4498
2026-01-27 13:28:13.26	313.66	16.86	-37.3	-38.9	16.0	0.00e+00	0	62	0	2809135104	45	4518
2026-01-27 13:28:17.30	314.31	16.54	-37.3	-39.0	15.9	0.00e+00	0	62	0	2832203776	45	4582
2026-01-27 13:28:21.35	314.95	16.22	-37.3	-38.9	16.0	0.00e+00	0	62	0	2854223872	45	4515
2026-01-27 13:28:25.39	315.58	15.90	-37.1	-38.7	16.1	0.00e+00	0	62	0	2877292544	45	4437
2026-01-27 13:28:29.43	316.20	15.59	-37.5	-39.2	15.7	0.00e+00	0	62	0	2900361216	45	4671
2026-01-27 13:28:33.47	316.80	15.27	-37.6	-39.4	15.5	0.00e+00	0	62	0	2922381312	45	4777
2026-01-27 13:28:37.52	317.39	14.96	-37.4	-39.1	15.7	0.00e+00	0	62	0	2945449984	45	4620
2026-01-27 13:28:41.56	317.97	14.64	-37.6	-39.4	15.5	0.00e+00	0	62	0	2968518656	45	4771
2026-01-27 13:28:45.60	318.54	14.33	-37.8	-39.6	15.2	0.00e+00	0	62	0	2990538752	46	4610
2026-01-27 13:28:49.64	319.09	14.02	-37.8	-39.5	15.3	0.00e+00	0	62	0	3013607424	46	4587
2026-01-27 13:28:53.69	319.64	13.71	-37.8	-39.6	15.1	0.00e+00	0	62	0	3036676096	46	4646
2026-01-27 13:28:57.73	320.17	13.41	-37.8	-39.6	15.1	0.00e+00	0	62	0	3059744768	46	4648
2026-01-27 13:29:01.77	320.69	13.10	-37.9	-39.7	15.0	0.00e+00	0	62	0	3081764864	46	4661
2026-01-27 13:29:05.81	321.21	12.80	-38.2	-40.1	14.6	1.10e-06	0	62	0	3104833536	46	4880
2026-01-27 13:29:09.86	321.71	12.50	-38.1	-40.0	14.7	1.10e-06	0	62	0	3126853632	47	4581
2026-01-27 13:29:13.89	322.20	12.20	-38.1	-39.9	14.7	1.10e-06	0	62	0	3149922304	47	4541
2026-01-27 13:29:17.93	322.69	11.90	-38.1	-40.0	14.6	1.10e-06	0	62	0	3172990976	47	4596
2026-01-27 13:29:21.97	323.16	11.60	-38.2	-40.1	14.5	1.10e-06	0	62	0	3196059648	47	4643
2026-01-27 13:29:26.01	323.63	11.31	-38.1	-40.0	14.6	2.20e-06	0	62	0	3218079744	47	4585
2026-01-27 13:29:30.05	324.08	11.02	-38.3	-40.3	14.3	1.10e-06	0	62	0	3241148416	47	4709
2026-01-27 13:29:34.09	324.53	10.73	-38.4	-40.5	14.1	8.00e-06	0	62	0	3264217088	47	4820
2026-01-27 13:29:38.13	324.97	10.44	-38.8	-41.0	13.7	1.14e-05	0	62	0	3286237184	48	4831
2026-01-27 13:29:42.17	325.40	10.16	-38.8	-40.9	13.7	1.02e-05	0	62	0	3309305856	48	4805
2026-01-27 13:29:46.21	325.82	9.87	-38.8	-41.0	13.6	1.71e-05	0	62	0	3332374528	48	4823
2026-01-27 13:29:50.25	326.24	9.59	-38.8	-40.9	13.7	1.71e-05	0	62	0	3354394624	48	4776
2026-01-27 13:29:54.29	326.65	9.31	-39.0	-41.2	13.3	2.28e-05	0	62	0	3377463296	48	4960
2026-01-27 13:29:58.33	327.05	9.03	-39.0	-41.3	13.2	2.86e-05	0	62	0	3400531968	48	4992
2026-01-27 13:30:02.37	327.44	8.75	-39.0	-41.2	13.3	2.40e-05	0	62	0	3422552064	48	4954
2026-01-27 13:30:06.41	327.83	8.48	-39.2	-41.6	12.8	8.81e-05	0	62	0	3445620736	49	4888
2026-01-27 13:30:10.45	328.21	8.21	-39.3	-41.8	12.6	1.44e-04	0	62	0	3468689408	49	4986
2026-01-27 13:30:14.50	328.58	7.94	-44.3	-55.0	3.8	8.46e-01	0	62	104	3486515200	59	12945
2026-01-27 13:30:18.54	328.95	7.67	-45.1	-56.8	3.8	8.47e-01	0	62	104	3486515200	60	14922
2026-01-27 13:30:22.58	329.30	7.40	-45.2	-57.0	3.8	8.45e-01	0	62	104	3486515200	61	14407
2026-01-27 13:30:26.62	329.66	7.14	-45.2	-56.9	3.8	8.46e-01	0	62	104	3486515200	60	15102
2026-01-27 13:30:30.67	330.01	6.87	-45.1	-56.8	3.8	8.45e-01	0	62	104	3486515200	60	14940
2026-01-27 13:30:34.71	330.35	6.61	-45.0	-56.8	3.8	8.45e-01	0	62	104	3486515200	60	14924
2026-01-27 13:30:38.75	330.68	6.35	-45.0	-56.8	3.8	8.46e-01	0	62	104	3486515200	60	14918
2026-01-27 13:30:42.79	331.02	6.10	-45.1	-56.7	3.8	8.46e-01	0	62	104	3486515200	60	14878
2026-01-27 13:30:46.83	331.34	5.84	-45.1	-56.8	3.8	8.46e-01	0	62	104	3486515200	60	14925
2026-01-27 13:30:50.87	331.66	5.59	-45.0	-56.8	3.8	8.45e-01	0	62	104	3486515200	60	14937
2026-01-27 13:30:54.91	331.97	5.33	-45.0	-56.8	3.8	8.46e-01	0	62	104	3486515200	60	14900
2026-01-27 13:30:58.95	332.28	5.08	-45.0	-56.7	3.8	8.47e-01	0	63	104	3486515200	60	14838
2026-01-27 13:31:03.00	332.59	4.84	-45.0	-56.7	3.8	8.46e-01	0	62	104	3486515200	60	14766
2026-01-27 13:31:07.04	332.89	4.59	-45.0	-56.7	3.8	8.47e-01	0	62	104	3486515200	60	14810
2026-01-27 13:31:11.08	333.18	4.34	-45.0	-56.7	3.8	8.47e-01	0	62	104	3486515200	60	14878
2026-01-27 13:31:15.12	333.47	4.10	-45.0	-56.8	3.8	8.47e-01	0	62	104	3486515200	60	14881
2026-01-27 13:31:19.16	333.76	3.86	-45.0	-56.7	3.8	8.47e-01	0	62	104	3486515200	60	14830
2026-01-27 13:31:23.20	334.04	3.62	-45.0	-56.7	3.8	8.46e-01	0	62	104	3486515200	60	14875
2026-01-27 13:31:27.25	334.32	3.38	-45.0	-56.8	3.8	8.46e-01	0	62	104	3486515200	60	14897
2026-01-27 13:31:31.29	334.59	3.14	-45.0	-56.7	3.8	8.46e-01	0	63	104	3486515200	60	14844
2026-01-27 13:31:35.33	334.86	2.91	-45.0	-56.7	3.8	8.45e-01	0	62	104	3486515200	60	14848
2026-01-27 13:31:39.38	335.13	2.67	-45.0	-56.7	3.8	8.46e-01	0	62	104	3486515200	60	14857
2026-01-27 13:31:43.42	335.39	2.44	-45.0	-56.7	3.8	8.46e-01	0	62	104	3486515200	60	14837
2026-01-27 13:31:47.46	335.65	2.21	-45.0	-56.7	3.8	8.46e-01	0	62	104	3486515200	60	14797
2026-01-27 13:31:51.50	335.90	1.98	-45.0	-56.7	3.8	8.46e-01	0	63	104	3486515200	60	14811

#Closed at: 2026-01-27 13:31:52
#Recorded file [3486 MB]: D:/lorett/data/31039_260127_161835.dat