passes_logs/2026/01/27/R2.0S_Moscow/R2.0S_Moscow__20260127_225046_SUOMI_NPP_rec.log

#Pass ID: 20260127_225046_SUOMI NPP
#Satellite: SUOMI NPP
#Configuration: NPP
#almurnet v.1.7.20251203
#Start time: 2026-01-27 22:50:47

#Version: 2.2.20231116
#Station: R2.0S_Moscow
#Location: 37.707566 lon 55.798166 lat
#TLE: 1 37849U 11061A   26027.50945616  .00000185  00000+0  10897-3 0  9994
#TLE: 2 37849  98.7823 329.4511 0002105  42.1421 317.9917 14.19530771738482

#Time	Az	El	Level	Level2	SNR	BER	BlckErr	Temp	State	Recorded	gain1	gain2
2026-01-27 22:50:47.04	20.99	2.04	-42.8	-57.3	3.8	1.49e+00	0	53	0	0	57	18761
2026-01-27 22:50:51.08	21.18	2.29	-42.8	-57.2	3.8	1.49e+00	0	53	104	0	57	18715
2026-01-27 22:50:55.12	21.36	2.53	-42.8	-57.2	3.8	1.49e+00	0	53	104	0	57	18730
2026-01-27 22:50:59.17	21.55	2.78	-42.8	-57.2	3.8	1.49e+00	0	54	104	0	57	18710
2026-01-27 22:51:03.21	21.74	3.03	-42.8	-57.2	3.8	1.49e+00	0	54	104	0	57	18717
2026-01-27 22:51:07.25	21.93	3.29	-42.8	-57.2	3.8	1.49e+00	0	54	104	0	57	18694
2026-01-27 22:51:11.28	22.12	3.54	-42.8	-57.3	3.8	1.49e+00	0	54	104	0	57	18771
2026-01-27 22:51:15.32	22.32	3.80	-42.8	-57.2	3.8	1.49e+00	0	54	104	0	57	18674
2026-01-27 22:51:19.36	22.52	4.06	-42.7	-57.2	3.8	1.49e+00	0	55	104	0	57	18723
2026-01-27 22:51:23.40	22.73	4.32	-42.7	-57.2	3.8	1.49e+00	0	55	104	0	57	18725
2026-01-27 22:51:27.44	22.94	4.58	-42.7	-57.2	3.8	1.49e+00	0	55	104	0	57	18701
2026-01-27 22:51:31.48	23.15	4.85	-42.7	-57.2	3.8	1.49e+00	0	56	104	0	57	18661
2026-01-27 22:51:35.53	23.37	5.12	-42.7	-57.2	3.8	1.49e+00	0	56	104	0	57	18682
2026-01-27 22:51:39.57	23.59	5.39	-42.7	-57.2	3.8	1.49e+00	0	56	104	0	57	18656
2026-01-27 22:51:43.61	23.81	5.66	-42.7	-57.2	3.8	1.49e+00	0	56	104	0	57	18704
2026-01-27 22:51:47.65	24.04	5.94	-42.7	-57.2	3.8	1.49e+00	0	56	104	0	57	18607
2026-01-27 22:51:51.69	24.27	6.22	-42.7	-57.2	3.8	1.49e+00	0	57	104	0	57	18651
2026-01-27 22:51:55.74	24.50	6.50	-42.7	-57.2	3.8	1.49e+00	0	57	104	0	57	18620
2026-01-27 22:51:59.78	24.74	6.78	-42.7	-57.2	3.8	1.49e+00	0	57	104	0	57	18663
2026-01-27 22:52:03.82	24.99	7.07	-42.7	-57.1	3.8	1.49e+00	0	57	104	0	57	18467
2026-01-27 22:52:07.86	25.24	7.36	-42.7	-56.2	3.8	1.49e+00	0	57	104	0	57	16621
2026-01-27 22:52:11.90	25.49	7.65	-42.5	-53.1	4.3	1.40e+00	0	57	0	0	56	12361
2026-01-27 22:52:15.95	25.75	7.95	-41.3	-47.6	8.1	8.31e-02	0	57	0	7340032	54	7324
2026-01-27 22:52:19.98	26.01	8.25	-42.2	-48.5	8.3	5.23e-02	0	58	0	13631488	54	8128
2026-01-27 22:52:24.02	26.28	8.55	-41.5	-46.6	9.9	1.15e-02	0	58	0	22020096	55	6176
2026-01-27 22:52:28.07	26.55	8.85	-41.7	-46.8	9.9	5.32e-03	0	58	0	29360128	54	6696
2026-01-27 22:52:32.11	26.83	9.16	-41.7	-46.7	10.2	5.90e-03	0	58	0	36700160	54	6582
2026-01-27 22:52:36.15	27.11	9.47	-41.6	-46.3	10.7	2.69e-03	0	58	0	44040192	54	6339
2026-01-27 22:52:40.19	27.40	9.79	-41.6	-46.1	11.0	2.38e-03	0	58	0	52428800	54	6199
2026-01-27 22:52:44.23	27.70	10.10	-41.6	-45.9	11.3	1.30e-03	0	58	0	59768832	54	6049
2026-01-27 22:52:48.27	28.00	10.43	-41.6	-45.9	11.4	1.01e-03	0	58	0	67108864	54	6033
2026-01-27 22:52:52.32	28.31	10.75	-41.4	-45.5	11.9	5.08e-04	0	59	0	74448896	54	5765
2026-01-27 22:52:56.35	28.62	11.08	-41.5	-45.5	11.9	3.23e-04	0	59	0	82837504	54	5769
2026-01-27 22:53:00.40	28.94	11.41	-41.5	-45.6	11.9	2.92e-04	0	59	0	90177536	54	5807
2026-01-27 22:53:04.44	29.27	11.75	-41.5	-45.6	12.0	4.39e-04	0	59	0	97517568	54	5805
2026-01-27 22:53:08.48	29.61	12.09	-41.5	-45.5	11.9	3.94e-04	0	59	0	104857600	54	5788
2026-01-27 22:53:12.52	29.95	12.44	-41.4	-45.2	12.4	2.08e-04	0	59	0	112197632	54	5589
2026-01-27 22:53:16.56	30.30	12.78	-41.3	-45.1	12.6	9.99e-05	0	59	0	120586240	54	5488
2026-01-27 22:53:20.60	30.66	13.14	-41.2	-44.8	12.9	9.15e-05	0	59	0	127926272	54	5307
2026-01-27 22:53:24.64	31.03	13.49	-41.4	-45.1	12.6	3.81e-05	0	59	0	135266304	54	5491
2026-01-27 22:53:28.68	31.40	13.85	-41.4	-45.0	12.7	6.63e-05	0	60	0	142606336	54	5433
2026-01-27 22:53:32.72	31.79	14.22	-41.1	-44.5	13.2	2.13e-05	0	59	0	150994944	54	5128
2026-01-27 22:53:36.75	32.18	14.59	-41.1	-44.6	13.1	9.10e-06	0	60	0	158334976	54	5169
2026-01-27 22:53:40.80	32.58	14.96	-41.3	-44.7	13.1	2.36e-05	0	60	0	165675008	54	5279
2026-01-27 22:53:44.84	33.00	15.34	-41.4	-45.1	12.8	4.73e-05	0	60	0	173015040	54	5469
2026-01-27 22:53:48.88	33.42	15.73	-41.3	-44.9	13.0	6.63e-05	0	60	0	180355072	54	5381
2026-01-27 22:53:52.91	33.85	16.11	-41.3	-44.7	13.2	3.96e-05	0	60	0	188743680	54	5253
2026-01-27 22:53:56.95	34.30	16.51	-41.2	-44.5	13.4	1.22e-05	0	60	0	196083712	54	5150
2026-01-27 22:54:00.99	34.75	16.90	-41.3	-44.6	13.3	2.21e-05	0	60	0	203423744	54	5210
2026-01-27 22:54:05.03	35.22	17.31	-41.5	-45.0	12.9	2.21e-05	0	60	0	210763776	54	5444
2026-01-27 22:54:09.08	35.70	17.71	-41.5	-45.1	12.9	4.95e-05	0	60	0	219152384	54	5488
2026-01-27 22:54:13.12	36.20	18.13	-41.7	-45.5	12.4	1.30e-04	0	60	0	226492416	54	5787
2026-01-27 22:54:17.16	36.70	18.54	-41.8	-45.7	12.2	2.19e-04	0	60	0	233832448	54	5911
2026-01-27 22:54:21.20	37.22	18.97	-41.8	-45.6	12.4	1.68e-04	0	60	0	241172480	54	5805
2026-01-27 22:54:25.24	37.76	19.39	-41.7	-45.4	12.6	7.78e-05	0	60	0	248512512	54	5660
2026-01-27 22:54:29.28	38.31	19.83	-41.8	-45.5	12.5	1.33e-04	0	61	0	256901120	54	5780
2026-01-27 22:54:33.33	38.87	20.27	-42.0	-45.9	12.2	1.47e-04	0	60	0	264241152	54	6026
2026-01-27 22:54:37.37	39.45	20.71	-41.9	-45.7	12.4	1.36e-04	0	61	0	271581184	54	5880
2026-01-27 22:54:41.40	40.05	21.15	-41.8	-45.6	12.5	1.17e-04	0	60	0	278921216	54	5815
2026-01-27 22:54:45.44	40.66	21.61	-41.6	-45.1	13.0	7.24e-05	0	61	0	287309824	54	5525
2026-01-27 22:54:49.48	41.29	22.06	-41.6	-45.1	12.9	3.89e-05	0	60	0	294649856	54	5526
2026-01-27 22:54:53.52	41.94	22.53	-41.7	-45.4	12.7	2.74e-05	0	61	0	301989888	54	5681
2026-01-27 22:54:57.57	42.61	23.00	-41.6	-45.2	12.9	3.28e-05	0	61	0	309329920	54	5551
2026-01-27 22:55:01.61	43.30	23.47	-41.2	-44.4	13.8	1.37e-05	0	61	0	316669952	54	5068
2026-01-27 22:55:05.65	44.01	23.94	-41.4	-44.7	13.5	6.80e-06	0	61	0	325058560	54	5230
2026-01-27 22:55:09.69	44.74	24.42	-42.0	-45.8	12.4	7.17e-05	0	61	0	332398592	54	5944
2026-01-27 22:55:13.72	45.49	24.91	-41.7	-45.3	12.9	3.89e-05	0	61	0	339738624	54	5609
2026-01-27 22:55:17.77	46.27	25.40	-41.2	-44.3	13.9	1.50e-06	0	61	0	347078656	54	5031
2026-01-27 22:55:21.81	47.07	25.89	-41.4	-44.6	13.6	1.06e-05	0	61	0	355467264	54	5216
2026-01-27 22:55:25.85	47.89	26.38	-41.4	-44.7	13.6	1.44e-05	0	61	0	362807296	54	5242
2026-01-27 22:55:29.89	48.74	26.88	-41.5	-44.9	13.4	1.29e-05	0	61	0	370147328	54	5344
2026-01-27 22:55:33.93	49.62	27.38	-41.4	-44.7	13.6	6.80e-06	0	61	0	377487360	54	5250
2026-01-27 22:55:37.97	50.53	27.88	-41.2	-44.2	14.1	7.00e-07	0	61	0	384827392	54	4951
2026-01-27 22:55:42.01	51.46	28.39	-41.2	-44.3	14.0	2.20e-06	0	61	0	393216000	53	5292
2026-01-27 22:55:46.06	52.42	28.89	-41.6	-44.9	13.4	7.60e-06	0	61	0	400556032	53	5720
2026-01-27 22:55:50.10	53.42	29.40	-41.9	-45.5	12.8	8.54e-05	0	61	0	407896064	54	5754
2026-01-27 22:55:54.14	54.44	29.90	-42.1	-45.9	12.4	9.99e-05	0	61	0	415236096	54	6029
2026-01-27 22:55:58.18	55.49	30.41	-42.4	-46.4	11.9	3.02e-04	0	61	0	423624704	55	6060
2026-01-27 22:56:02.23	56.58	30.91	-42.7	-47.1	11.3	1.11e-03	0	61	0	430964736	55	6517
2026-01-27 22:56:06.26	57.70	31.41	-43.3	-48.6	9.9	1.61e-02	0	61	0	438304768	57	6890
2026-01-27 22:56:10.30	58.86	31.90	-43.3	-48.4	10.0	6.52e-03	0	61	0	445644800	57	6773
2026-01-27 22:56:14.34	60.05	32.39	-43.6	-49.4	8.9	1.38e-02	0	61	0	452984832	57	7601
2026-01-27 22:56:18.39	61.28	32.88	-43.5	-48.9	9.6	1.74e-02	0	61	0	461373440	58	6745
2026-01-27 22:56:22.43	62.55	33.36	-43.8	-49.7	8.5	4.08e-02	0	61	0	468713472	58	7431
2026-01-27 22:56:26.47	63.85	33.83	-44.0	-50.7	7.7	9.90e-02	0	61	0	476053504	58	8295
2026-01-27 22:56:30.51	65.18	34.29	-43.7	-49.3	8.9	2.82e-02	0	61	0	483393536	58	7108
2026-01-27 22:56:34.55	66.56	34.74	-44.0	-50.3	8.1	5.89e-02	0	62	0	491782144	58	7947
2026-01-27 22:56:38.59	67.97	35.18	-43.6	-49.1	9.2	3.12e-02	0	61	0	499122176	59	6570
2026-01-27 22:56:42.63	69.42	35.60	-42.9	-47.4	11.2	8.33e-04	0	61	0	506462208	57	6015
2026-01-27 22:56:46.67	70.91	36.01	-42.5	-46.5	12.1	8.12e-04	0	61	0	513802240	57	5411
2026-01-27 22:56:50.71	72.43	36.40	-42.0	-45.6	12.9	3.05e-05	0	61	0	522190848	55	5476
2026-01-27 22:56:54.75	73.99	36.77	-41.9	-45.5	13.0	6.10e-05	0	61	0	529530880	55	5409
2026-01-27 22:56:58.79	75.59	37.13	-41.4	-44.5	14.0	2.20e-06	0	61	0	536870912	54	5108
2026-01-27 22:57:02.82	77.21	37.46	-42.2	-46.0	12.4	1.14e-04	0	62	0	544210944	55	5752
2026-01-27 22:57:06.86	78.87	37.77	-42.6	-46.8	11.6	6.78e-04	0	62	0	551550976	55	6321
2026-01-27 22:57:10.91	80.57	38.05	-41.7	-45.1	13.4	1.67e-05	0	61	0	559939584	55	5167
2026-01-27 22:57:14.95	82.29	38.31	-42.4	-46.4	11.9	1.65e-04	0	61	0	567279616	55	6039
2026-01-27 22:57:18.99	84.04	38.54	-42.9	-47.5	11.1	1.07e-03	0	61	0	574619648	56	6442
2026-01-27 22:57:23.03	85.80	38.75	-41.8	-45.2	13.2	3.73e-05	0	62	0	581959680	55	5265
2026-01-27 22:57:27.07	87.59	38.92	-41.9	-45.4	13.0	4.57e-05	0	62	0	590348288	55	5394
2026-01-27 22:57:31.11	89.40	39.07	-43.0	-47.4	11.0	1.63e-03	0	62	0	597688320	56	6414
2026-01-27 22:57:35.15	91.22	39.18	-42.4	-46.3	12.3	2.58e-04	0	61	0	605028352	56	5604
2026-01-27 22:57:39.19	93.06	39.26	-43.3	-48.3	10.0	1.72e-03	0	62	0	612368384	57	6716
2026-01-27 22:57:43.23	94.90	39.31	-42.4	-46.3	12.2	2.63e-04	0	62	0	619708416	56	5623
2026-01-27 22:57:47.27	96.74	39.33	-41.0	-43.9	14.5	7.00e-07	0	62	0	628097024	54	4762
2026-01-27 22:57:51.31	98.58	39.31	-41.5	-44.7	13.7	7.60e-06	0	62	0	635437056	53	5578
2026-01-27 22:57:55.35	100.43	39.26	-42.1	-45.7	12.7	1.36e-04	0	61	0	642777088	55	5577
2026-01-27 22:57:59.39	102.26	39.18	-41.6	-44.8	13.6	5.30e-06	0	62	0	650117120	54	5340
2026-01-27 22:58:03.43	104.08	39.07	-42.3	-46.1	12.3	1.31e-04	0	62	0	658505728	55	5827
2026-01-27 22:58:07.47	105.89	38.92	-41.7	-45.0	13.4	2.74e-05	0	62	0	665845760	55	5104
2026-01-27 22:58:11.51	107.68	38.75	-41.4	-44.6	13.9	2.20e-06	0	62	0	673185792	54	5186
2026-01-27 22:58:15.55	109.45	38.54	-41.6	-44.9	13.5	2.44e-05	0	62	0	680525824	54	5385
2026-01-27 22:58:19.59	111.20	38.31	-41.2	-44.2	14.2	7.00e-07	0	62	0	687865856	53	5265
2026-01-27 22:58:23.64	112.93	38.05	-41.2	-44.1	14.3	0.00e+00	0	62	0	696254464	53	5201
2026-01-27 22:58:27.68	114.62	37.76	-41.5	-44.8	13.7	2.21e-05	0	62	0	703594496	54	5304
2026-01-27 22:58:31.72	116.29	37.45	-40.6	-43.3	15.1	0.00e+00	0	62	0	710934528	53	4743
2026-01-27 22:58:35.76	117.92	37.12	-41.5	-44.8	13.7	0.00e+00	0	62	0	718274560	53	5594
2026-01-27 22:58:39.80	119.52	36.76	-40.8	-43.6	14.8	7.00e-07	0	62	0	726663168	53	4872
2026-01-27 22:58:43.84	121.08	36.39	-39.0	-40.9	17.5	0.00e+00	0	62	0	734003200	49	4513
2026-01-27 22:58:47.88	122.61	36.00	-40.7	-43.4	15.2	0.00e+00	0	62	0	741343232	51	5348
2026-01-27 22:58:51.92	124.10	35.59	-41.4	-44.5	13.9	2.20e-06	0	62	0	748683264	53	5457
2026-01-27 22:58:55.96	125.55	35.16	-40.6	-43.1	15.3	7.00e-07	0	62	0	757071872	53	4648
2026-01-27 22:58:59.99	126.97	34.72	-42.5	-46.6	11.8	3.07e-04	0	62	0	764411904	55	6133
2026-01-27 22:59:04.03	128.35	34.27	-43.4	-48.6	9.9	4.85e-03	0	62	0	771751936	57	6888
2026-01-27 22:59:08.06	129.69	33.81	-42.5	-46.4	12.1	1.16e-03	0	62	0	779091968	57	5351
2026-01-27 22:59:12.10	130.99	33.34	-43.5	-48.9	9.6	6.40e-03	0	62	0	786432000	57	7145
2026-01-27 22:59:16.14	132.26	32.86	-43.9	-50.1	8.4	1.28e-02	0	62	0	794820608	58	7773
2026-01-27 22:59:20.18	133.49	32.37	-43.2	-48.0	10.2	1.34e-02	0	62	0	802160640	58	6107
2026-01-27 22:59:24.22	134.68	31.87	-43.8	-49.6	8.8	3.56e-02	0	62	0	809500672	58	7363
2026-01-27 22:59:28.26	135.84	31.38	-42.8	-47.2	11.3	8.09e-04	0	62	0	816840704	57	5861
2026-01-27 22:59:32.29	136.96	30.88	-43.7	-49.5	8.9	5.49e-02	0	62	0	824180736	58	7275
2026-01-27 22:59:36.34	138.06	30.37	-41.1	-44.0	14.4	0.00e+00	0	62	0	832569344	53	5108
2026-01-27 22:59:40.38	139.12	29.86	-43.0	-47.6	10.9	2.92e-03	0	62	0	839909376	57	6177
2026-01-27 22:59:44.42	140.14	29.35	-42.1	-45.9	12.5	4.88e-05	0	62	0	847249408	55	5688
2026-01-27 22:59:48.46	141.14	28.85	-41.5	-44.8	13.5	5.64e-05	0	62	0	854589440	54	5325
2026-01-27 22:59:52.50	142.10	28.34	-40.8	-43.5	14.9	0.00e+00	0	62	0	862978048	52	5124
2026-01-27 22:59:56.54	143.04	27.83	-41.8	-45.3	13.0	5.49e-05	0	62	0	870318080	54	5627
2026-01-27 23:00:00.58	143.94	27.32	-39.9	-42.2	16.3	0.00e+00	0	62	0	877658112	51	4665
2026-01-27 23:00:04.62	144.82	26.82	-41.3	-44.6	13.8	3.80e-06	0	62	0	884998144	53	5475
2026-01-27 23:00:08.66	145.67	26.32	-40.0	-42.4	16.0	0.00e+00	0	62	0	893386752	51	4768
2026-01-27 23:00:12.70	146.50	25.82	-40.9	-43.9	14.5	0.00e+00	0	62	0	900726784	52	5351
2026-01-27 23:00:16.73	147.30	25.33	-40.1	-42.6	15.7	0.00e+00	0	62	0	908066816	52	4633
2026-01-27 23:00:20.77	148.08	24.84	-39.9	-42.2	16.2	0.00e+00	0	62	0	915406848	51	4671
2026-01-27 23:00:24.81	148.83	24.35	-40.3	-42.8	15.6	0.00e+00	0	62	0	922746880	51	5006
2026-01-27 23:00:28.85	149.56	23.86	-40.3	-42.8	15.6	0.00e+00	0	62	0	931135488	51	5023
2026-01-27 23:00:32.89	150.27	23.39	-40.6	-43.4	14.9	0.00e+00	0	62	0	938475520	52	5046
2026-01-27 23:00:36.93	150.96	22.91	-40.6	-43.3	14.9	7.00e-07	0	62	0	945815552	52	5041
2026-01-27 23:00:40.97	151.63	22.44	-40.6	-43.4	14.8	0.00e+00	0	62	0	953155584	52	5074
2026-01-27 23:00:45.01	152.28	21.97	-40.7	-43.4	14.7	1.50e-06	0	62	0	961544192	52	5100
2026-01-27 23:00:49.05	152.91	21.51	-40.8	-43.6	14.6	1.50e-06	0	62	0	968884224	52	5203
2026-01-27 23:00:53.09	153.53	21.06	-41.6	-45.1	13.0	1.90e-05	0	62	0	976224256	53	5839
2026-01-27 23:00:57.13	154.12	20.61	-41.6	-45.1	13.1	3.05e-05	0	62	0	983564288	54	5497
2026-01-27 23:01:01.17	154.70	20.16	-41.6	-45.1	13.1	2.89e-05	0	62	0	990904320	54	5470
2026-01-27 23:01:05.21	155.27	19.72	-41.8	-45.4	12.8	3.89e-05	0	62	0	999292928	54	5700
2026-01-27 23:01:09.26	155.82	19.29	-41.6	-45.0	13.1	4.04e-05	0	62	0	1006632960	54	5463
2026-01-27 23:01:13.29	156.35	18.86	-41.1	-44.2	13.9	6.10e-06	0	62	0	1013972992	54	4960
2026-01-27 23:01:17.33	156.87	18.43	-41.2	-44.5	13.6	8.30e-06	0	62	0	1021313024	53	5408
2026-01-27 23:01:21.38	157.37	18.01	-41.5	-45.0	13.0	2.97e-05	0	62	0	1029701632	53	5758
2026-01-27 23:01:25.41	157.86	17.60	-41.4	-44.9	13.1	3.50e-05	0	62	0	1037041664	54	5364
2026-01-27 23:01:29.45	158.34	17.19	-40.9	-44.0	14.0	3.00e-06	0	62	0	1044381696	53	5130
2026-01-27 23:01:33.49	158.81	16.78	-41.0	-44.1	13.8	7.60e-06	0	62	0	1051721728	53	5214
2026-01-27 23:01:37.53	159.26	16.38	-41.5	-45.1	12.8	3.12e-05	0	62	0	1059061760	53	5849
2026-01-27 23:01:41.57	159.71	15.98	-42.0	-46.0	11.9	5.16e-04	0	62	0	1067450368	54	6088
2026-01-27 23:01:45.61	160.14	15.59	-41.9	-45.9	12.0	3.28e-04	0	62	0	1074790400	54	6020
2026-01-27 23:01:49.65	160.56	15.21	-41.9	-46.0	11.9	3.82e-04	0	62	0	1082130432	54	6068
2026-01-27 23:01:53.69	160.97	14.83	-42.1	-46.3	11.5	7.06e-04	0	62	0	1089470464	54	6321
2026-01-27 23:01:57.74	161.38	14.45	-42.2	-46.6	11.2	1.58e-03	0	62	0	1097859072	55	6165
2026-01-27 23:02:01.78	161.77	14.08	-41.9	-46.0	11.7	6.29e-04	0	62	0	1105199104	55	5785
2026-01-27 23:02:05.82	162.15	13.71	-41.5	-45.3	12.5	1.13e-04	0	62	0	1112539136	55	5299
2026-01-27 23:02:09.86	162.52	13.35	-41.2	-44.6	13.2	2.36e-05	0	62	0	1119879168	54	5199
2026-01-27 23:02:13.90	162.89	12.99	-40.9	-44.2	13.6	2.51e-05	0	62	0	1127219200	53	5224
2026-01-27 23:02:17.94	163.24	12.63	-41.1	-44.4	13.4	1.44e-05	0	62	0	1135607808	53	5376
2026-01-27 23:02:21.98	163.59	12.28	-41.3	-44.9	12.8	6.25e-05	0	62	0	1142947840	53	5714
2026-01-27 23:02:26.02	163.93	11.94	-41.7	-45.8	11.9	3.75e-04	0	62	0	1150287872	54	5969
2026-01-27 23:02:30.06	164.27	11.59	-42.2	-46.8	10.9	1.96e-03	0	62	0	1157627904	54	6673
2026-01-27 23:02:34.10	164.59	11.26	-42.1	-46.8	10.8	2.76e-03	0	62	0	1166016512	55	6299
2026-01-27 23:02:38.14	164.91	10.92	-42.3	-47.2	10.3	4.69e-03	0	62	0	1173356544	55	6633
2026-01-27 23:02:42.18	165.22	10.59	-42.2	-47.1	10.4	4.88e-03	0	62	0	1180696576	55	6553
2026-01-27 23:02:46.22	165.53	10.26	-42.1	-46.7	10.8	3.66e-03	0	62	0	1188036608	55	6240
2026-01-27 23:02:50.26	165.83	9.94	-42.0	-46.7	10.8	2.36e-03	0	62	0	1195376640	55	6228
2026-01-27 23:02:54.30	166.12	9.62	-41.9	-46.6	10.9	2.65e-03	0	62	0	1203765248	55	6133
2026-01-27 23:02:58.34	166.40	9.30	-42.0	-46.7	10.6	2.32e-03	0	62	0	1211105280	55	6262
2026-01-27 23:03:02.38	166.68	8.99	-42.0	-46.7	10.6	3.04e-03	0	62	0	1218445312	55	6227
2026-01-27 23:03:06.42	166.96	8.68	-41.9	-46.7	10.6	3.58e-03	0	62	0	1225785344	55	6253
2026-01-27 23:03:10.46	167.23	8.37	-42.0	-46.9	10.4	3.65e-03	0	62	0	1234173952	55	6377
2026-01-27 23:03:14.50	167.49	8.07	-42.0	-47.1	10.1	5.32e-03	0	62	0	1241513984	55	6497
2026-01-27 23:03:18.55	167.75	7.77	-44.9	-59.8	3.8	1.49e+00	0	62	104	1243611136	60	21123
2026-01-27 23:03:22.59	168.01	7.47	-45.2	-60.0	3.8	1.49e+00	0	62	104	1243611136	61	20519
2026-01-27 23:03:26.63	168.26	7.18	-45.3	-60.1	3.8	1.49e+00	0	62	104	1243611136	61	20700
2026-01-27 23:03:30.68	168.50	6.89	-45.2	-60.0	3.8	1.49e+00	0	62	104	1243611136	61	20373
2026-01-27 23:03:34.72	168.74	6.60	-45.1	-59.9	3.8	1.49e+00	0	62	104	1243611136	61	20112
2026-01-27 23:03:38.76	168.98	6.31	-45.1	-59.9	3.8	1.49e+00	0	62	104	1243611136	61	20133
2026-01-27 23:03:42.80	169.21	6.03	-45.2	-59.9	3.8	1.49e+00	0	62	104	1243611136	61	20180
2026-01-27 23:03:46.84	169.43	5.75	-45.1	-59.9	3.8	1.49e+00	0	62	104	1243611136	61	20115
2026-01-27 23:03:50.88	169.66	5.47	-45.1	-59.8	3.8	1.49e+00	0	62	104	1243611136	61	20071
2026-01-27 23:03:54.93	169.88	5.20	-45.1	-59.8	3.8	1.49e+00	0	62	104	1243611136	61	20041
2026-01-27 23:03:58.97	170.09	4.92	-45.1	-59.8	3.8	1.49e+00	0	62	104	1243611136	61	20042
2026-01-27 23:04:03.01	170.30	4.65	-45.1	-59.8	3.8	1.49e+00	0	62	104	1243611136	61	20028
2026-01-27 23:04:07.05	170.51	4.39	-45.1	-59.9	3.8	1.49e+00	0	62	104	1243611136	61	20078
2026-01-27 23:04:11.10	170.71	4.12	-45.1	-59.8	3.8	1.49e+00	0	62	104	1243611136	61	20071
2026-01-27 23:04:15.14	170.91	3.86	-45.1	-59.8	3.8	1.49e+00	0	62	104	1243611136	61	20045
2026-01-27 23:04:19.18	171.11	3.60	-45.1	-59.8	3.8	1.49e+00	0	62	104	1243611136	61	20033
2026-01-27 23:04:23.22	171.31	3.34	-45.1	-59.8	3.8	1.49e+00	0	62	104	1243611136	61	19957
2026-01-27 23:04:27.25	171.50	3.08	-45.1	-59.8	3.8	1.49e+00	0	62	104	1243611136	61	19986
2026-01-27 23:04:31.29	171.68	2.83	-45.1	-59.8	3.8	1.49e+00	0	62	104	1243611136	61	20012
2026-01-27 23:04:35.33	171.87	2.58	-45.1	-59.8	3.8	1.49e+00	0	62	104	1243611136	61	20047
2026-01-27 23:04:39.37	172.05	2.33	-45.1	-59.9	3.8	1.49e+00	0	62	104	1243611136	61	20106
2026-01-27 23:04:43.41	172.23	2.08	-45.1	-59.8	3.8	1.49e+00	0	62	104	1243611136	61	20071

#Closed at: 2026-01-27 23:04:46
#Recorded file [1243 MB]: D:/lorett/data/31039_260128_015046.dat