passes_logs/2026/01/27/R2.0S_Moscow/R2.0S_Moscow__20260127_074306_NOAA_20_JPSS-1_rec.log

#Pass ID: 20260127_074306_NOAA 20 (JPSS-1)
#Satellite: NOAA 20 (JPSS-1)
#Configuration: NOAA 20
#almurnet v.1.7.20251203
#Start time: 2026-01-27 07:43:08

#Version: 2.2.20231116
#Station: R2.0S_Moscow
#Location: 37.707566 lon 55.798166 lat
#TLE: 1 43013U 17073A   26026.81907703  .00000149  00000+0  91399-4 0  9998
#TLE: 2 43013  98.7647 327.6343 0000991  22.4130 337.7089 14.19540778424411

#Time	Az	El	Level	Level2	SNR	BER	BlckErr	Temp	State	Recorded	gain1	gain2
2026-01-27 07:43:08.00	95.18	2.06	-40.1	-54.7	3.8	1.49e+00	0	53	0	0	50	20877
2026-01-27 07:43:11.02	94.92	2.21	-39.4	-54.5	3.8	1.49e+00	0	54	104	0	50	20456
2026-01-27 07:43:14.05	94.66	2.36	-40.1	-54.7	3.8	1.49e+00	0	54	104	0	50	20895
2026-01-27 07:43:17.08	94.39	2.52	-40.2	-54.7	3.8	1.49e+00	0	54	104	0	50	20798
2026-01-27 07:43:20.11	94.12	2.67	-40.2	-54.7	3.8	1.49e+00	0	54	104	0	50	20913
2026-01-27 07:43:23.15	93.85	2.82	-40.1	-54.7	3.8	1.49e+00	0	54	104	0	50	20831
2026-01-27 07:43:26.18	93.57	2.98	-40.0	-54.6	3.8	1.49e+00	0	55	104	0	50	20739
2026-01-27 07:43:29.21	93.30	3.13	-40.0	-54.6	3.8	1.49e+00	0	55	104	0	50	20745
2026-01-27 07:43:32.24	93.01	3.29	-40.0	-54.7	3.8	1.49e+00	0	55	104	0	50	20834
2026-01-27 07:43:35.27	92.73	3.44	-40.1	-54.7	3.8	1.49e+00	0	55	104	0	50	20849
2026-01-27 07:43:38.30	92.44	3.60	-39.9	-54.6	3.8	1.49e+00	0	56	104	0	50	20732
2026-01-27 07:43:41.33	92.15	3.75	-39.7	-54.6	3.8	1.49e+00	0	55	104	0	50	20692
2026-01-27 07:43:44.37	91.86	3.91	-40.0	-54.7	3.8	1.49e+00	0	56	104	0	50	20801
2026-01-27 07:43:47.40	91.56	4.06	-40.1	-54.7	3.8	1.49e+00	0	56	104	0	50	20897
2026-01-27 07:43:50.43	91.26	4.22	-40.1	-54.7	3.8	1.49e+00	0	56	104	0	50	20867
2026-01-27 07:43:53.46	90.96	4.37	-40.1	-54.6	3.8	1.49e+00	0	56	104	0	50	20773
2026-01-27 07:43:56.49	90.65	4.53	-39.7	-54.5	3.8	1.49e+00	0	57	104	0	50	20519
2026-01-27 07:43:59.53	90.34	4.69	-39.5	-54.6	3.8	1.49e+00	0	57	104	0	50	20554
2026-01-27 07:44:02.56	90.02	4.84	-40.1	-54.6	3.8	1.49e+00	0	57	104	0	50	20768
2026-01-27 07:44:05.59	89.71	5.00	-39.7	-54.6	3.8	1.49e+00	0	57	104	0	50	20572
2026-01-27 07:44:08.62	89.39	5.15	-39.9	-54.6	3.8	1.49e+00	0	57	104	0	50	20699
2026-01-27 07:44:11.65	89.06	5.31	-39.7	-54.6	3.8	1.49e+00	0	57	104	0	50	20552
2026-01-27 07:44:14.68	88.73	5.47	-40.0	-54.6	3.8	1.49e+00	0	57	104	0	50	20694
2026-01-27 07:44:17.71	88.40	5.62	-39.8	-54.6	3.8	1.49e+00	0	57	104	0	50	20668
2026-01-27 07:44:20.74	88.07	5.78	-39.8	-54.6	3.8	1.49e+00	0	58	104	0	50	20575
2026-01-27 07:44:23.77	87.73	5.94	-40.1	-54.6	3.8	1.49e+00	0	58	104	0	50	20695
2026-01-27 07:44:26.80	87.39	6.09	-40.1	-54.6	3.8	1.49e+00	0	58	104	0	50	20765
2026-01-27 07:44:29.84	87.04	6.25	-40.1	-54.7	3.8	1.49e+00	0	58	104	0	50	20808
2026-01-27 07:44:32.87	86.69	6.41	-40.1	-54.7	3.8	1.49e+00	0	58	104	0	50	20819
2026-01-27 07:44:35.90	86.34	6.56	-40.0	-54.6	3.8	1.49e+00	0	58	104	0	50	20771
2026-01-27 07:44:38.94	85.98	6.72	-40.0	-54.6	3.8	1.49e+00	0	58	104	0	50	20644
2026-01-27 07:44:41.97	85.62	6.87	-40.1	-54.7	3.8	1.49e+00	0	58	104	0	50	20831
2026-01-27 07:44:45.00	85.25	7.03	-40.1	-54.7	3.8	1.49e+00	0	59	104	0	50	20777
2026-01-27 07:44:48.03	84.88	7.19	-39.9	-54.6	3.8	1.49e+00	0	59	104	0	50	20732
2026-01-27 07:44:51.06	84.51	7.34	-39.9	-54.6	3.8	1.49e+00	0	59	104	0	50	20718
2026-01-27 07:44:54.10	84.13	7.50	-39.8	-54.6	3.8	1.49e+00	0	59	104	0	50	20562
2026-01-27 07:44:57.13	83.75	7.65	-39.6	-54.6	3.8	1.49e+00	0	59	104	0	50	20643
2026-01-27 07:45:00.16	83.36	7.81	-39.7	-54.5	3.8	1.49e+00	0	59	104	0	50	20479
2026-01-27 07:45:03.19	82.97	7.96	-39.9	-54.7	3.8	1.49e+00	0	59	104	0	50	20805
2026-01-27 07:45:06.22	82.57	8.12	-40.0	-54.7	3.8	1.49e+00	0	59	104	0	51	19617
2026-01-27 07:45:09.25	82.18	8.27	-40.1	-54.6	3.8	1.49e+00	0	59	104	0	51	19501
2026-01-27 07:45:12.28	81.77	8.43	-40.0	-54.7	3.8	1.49e+00	0	59	104	0	50	20885
2026-01-27 07:45:15.31	81.37	8.58	-40.1	-54.6	3.8	1.49e+00	0	59	104	0	50	20762
2026-01-27 07:45:18.35	80.95	8.73	-40.2	-54.8	3.8	1.49e+00	0	60	104	0	51	19858
2026-01-27 07:45:21.38	80.54	8.88	-40.1	-54.7	3.8	1.49e+00	0	59	104	0	51	19835
2026-01-27 07:45:24.41	80.12	9.04	-40.3	-54.8	3.8	1.49e+00	0	60	104	0	51	19989
2026-01-27 07:45:27.44	79.69	9.19	-40.2	-54.8	3.8	1.49e+00	0	60	104	0	51	19943
2026-01-27 07:45:30.47	79.26	9.34	-40.4	-55.0	3.8	1.49e+00	0	60	104	0	51	20343
2026-01-27 07:45:33.50	78.83	9.49	-40.7	-55.2	3.8	1.49e+00	0	60	104	0	51	20962
2026-01-27 07:45:36.53	78.39	9.64	-40.5	-55.1	3.8	1.49e+00	0	60	104	0	52	19470
2026-01-27 07:45:39.56	77.95	9.78	-40.5	-55.1	3.8	1.49e+00	0	60	104	0	52	19415
2026-01-27 07:45:42.59	77.50	9.93	-40.9	-55.4	3.8	1.49e+00	0	60	104	0	52	20210
2026-01-27 07:45:45.62	77.05	10.08	-41.1	-55.7	3.8	1.49e+00	0	60	104	0	52	20853
2026-01-27 07:45:48.64	76.59	10.23	-41.1	-55.7	3.8	1.49e+00	0	60	104	0	52	20845
2026-01-27 07:45:51.67	76.13	10.37	-41.1	-55.6	3.8	1.49e+00	0	60	104	0	53	19566
2026-01-27 07:45:54.70	75.67	10.51	-41.2	-55.7	3.8	1.49e+00	0	60	104	0	53	19719
2026-01-27 07:45:57.73	75.19	10.66	-41.1	-55.7	3.8	1.49e+00	0	60	104	0	53	19655
2026-01-27 07:46:00.76	74.72	10.80	-41.1	-55.7	3.8	1.49e+00	0	60	104	0	53	19624
2026-01-27 07:46:03.78	74.24	10.94	-41.3	-55.8	3.8	1.49e+00	0	60	104	0	53	19982
2026-01-27 07:46:06.81	73.76	11.08	-40.6	-55.2	3.8	1.49e+00	0	61	104	0	53	18583
2026-01-27 07:46:09.85	73.27	11.22	-40.6	-55.2	3.8	1.49e+00	0	61	104	0	53	18661
2026-01-27 07:46:12.88	72.77	11.36	-40.8	-55.4	3.8	1.49e+00	0	61	104	0	53	19085
2026-01-27 07:46:15.91	72.27	11.49	-41.3	-55.8	3.8	1.49e+00	0	61	104	0	53	20026
2026-01-27 07:46:18.94	71.77	11.63	-41.1	-55.7	3.8	1.49e+00	0	61	104	0	53	19648
2026-01-27 07:46:21.98	71.26	11.76	-41.1	-55.7	3.8	1.49e+00	0	61	104	0	53	19721
2026-01-27 07:46:25.01	70.75	11.89	-41.3	-55.8	3.8	1.49e+00	0	61	104	0	53	20001
2026-01-27 07:46:28.04	70.23	12.02	-40.9	-55.5	3.8	1.49e+00	0	61	104	0	53	19198
2026-01-27 07:46:31.06	69.71	12.15	-41.1	-55.6	3.8	1.49e+00	0	61	104	0	53	19613
2026-01-27 07:46:34.10	69.18	12.28	-41.4	-55.9	3.8	1.49e+00	0	61	104	0	53	20282
2026-01-27 07:46:37.13	68.65	12.40	-40.9	-55.4	3.8	1.49e+00	0	61	104	0	53	19140
2026-01-27 07:46:40.15	68.12	12.53	-41.3	-55.8	3.8	1.49e+00	0	61	104	0	53	20042
2026-01-27 07:46:43.18	67.58	12.65	-41.2	-55.7	3.8	1.49e+00	0	61	104	0	53	19826
2026-01-27 07:46:46.22	67.03	12.77	-41.5	-55.9	3.8	1.49e+00	0	61	104	0	53	20238
2026-01-27 07:46:49.25	66.48	12.89	-41.3	-55.8	3.8	1.49e+00	0	61	104	0	53	19924
2026-01-27 07:46:52.28	65.93	13.00	-41.8	-56.3	3.8	1.49e+00	0	61	104	0	54	19901
2026-01-27 07:46:55.31	65.37	13.11	-41.5	-56.1	3.8	1.49e+00	0	61	104	0	55	18370
2026-01-27 07:46:58.34	64.81	13.23	-41.6	-56.0	3.8	1.49e+00	0	61	104	0	54	19375
2026-01-27 07:47:01.37	64.25	13.33	-41.9	-56.3	3.8	1.49e+00	0	62	104	0	54	19951
2026-01-27 07:47:04.40	63.67	13.44	-43.2	-53.6	4.5	1.47e+00	19	62	0	0	57	12339
2026-01-27 07:47:07.43	63.10	13.55	-43.0	-51.4	5.8	4.74e-01	0	62	0	2097152	57	9566
2026-01-27 07:47:10.46	62.52	13.65	-42.5	-48.2	9.0	3.77e-02	0	61	0	7340032	57	6594
2026-01-27 07:47:13.49	61.94	13.75	-41.6	-46.2	11.0	4.29e-03	0	61	0	13631488	55	5915
2026-01-27 07:47:16.52	61.35	13.84	-41.6	-45.8	11.5	6.61e-04	0	61	0	18874368	54	5965
2026-01-27 07:47:19.54	60.77	13.94	-41.4	-45.4	12.1	2.93e-04	0	62	0	25165824	54	5669
2026-01-27 07:47:22.57	60.17	14.03	-41.3	-45.0	12.5	1.53e-04	0	61	0	30408704	54	5426
2026-01-27 07:47:25.60	59.57	14.12	-41.3	-45.0	12.6	1.20e-04	0	61	0	35651584	54	5407
2026-01-27 07:47:28.63	58.97	14.20	-41.4	-45.2	12.3	1.70e-04	0	62	0	41943040	54	5582
2026-01-27 07:47:31.67	58.37	14.29	-41.4	-45.2	12.4	1.33e-04	0	62	0	47185920	54	5560
2026-01-27 07:47:34.70	57.76	14.37	-41.5	-45.5	12.1	2.50e-04	0	62	0	53477376	54	5727
2026-01-27 07:47:37.73	57.15	14.45	-41.5	-45.3	12.3	1.89e-04	0	62	0	58720256	54	5636
2026-01-27 07:47:40.76	56.54	14.52	-41.7	-45.8	11.8	4.78e-04	0	62	0	65011712	54	5978
2026-01-27 07:47:43.78	55.92	14.59	-41.7	-45.7	11.9	2.81e-04	0	62	0	70254592	54	5901
2026-01-27 07:47:46.81	55.30	14.66	-41.7	-45.8	11.8	4.61e-04	0	62	0	75497472	54	5949
2026-01-27 07:47:49.84	54.68	14.72	-41.6	-45.5	12.1	2.99e-04	0	62	0	81788928	54	5772
2026-01-27 07:47:52.87	54.05	14.79	-41.6	-45.4	12.2	2.37e-04	0	62	0	87031808	54	5701
2026-01-27 07:47:55.90	53.42	14.84	-41.5	-45.2	12.5	1.26e-04	0	62	0	93323264	54	5574
2026-01-27 07:47:58.92	52.80	14.90	-41.5	-45.2	12.5	8.39e-05	0	62	0	98566144	54	5552
2026-01-27 07:48:01.95	52.16	14.95	-41.5	-45.3	12.4	1.65e-04	0	62	0	103809024	54	5645
2026-01-27 07:48:04.98	51.53	15.00	-41.5	-45.4	12.4	1.56e-04	0	62	0	110100480	54	5662
2026-01-27 07:48:08.01	50.89	15.04	-41.6	-45.4	12.3	2.08e-04	0	62	0	115343360	54	5712
2026-01-27 07:48:11.04	50.25	15.09	-41.6	-45.6	12.1	2.95e-04	0	62	0	121634816	54	5789
2026-01-27 07:48:14.07	49.61	15.12	-41.5	-45.3	12.4	1.90e-04	0	62	0	126877696	54	5640
2026-01-27 07:48:17.10	48.97	15.16	-41.6	-45.5	12.2	2.32e-04	0	62	0	133169152	54	5753
2026-01-27 07:48:20.14	48.33	15.19	-41.6	-45.4	12.3	1.34e-04	0	62	0	138412032	54	5687
2026-01-27 07:48:23.16	47.69	15.22	-41.6	-45.4	12.3	1.78e-04	0	62	0	143654912	54	5690
2026-01-27 07:48:26.19	47.04	15.24	-41.5	-45.2	12.5	1.30e-04	0	62	0	149946368	54	5570
2026-01-27 07:48:29.22	46.39	15.26	-41.6	-45.4	12.4	1.50e-04	0	62	0	155189248	54	5693
2026-01-27 07:48:32.25	45.75	15.28	-41.6	-45.4	12.3	1.67e-04	0	62	0	161480704	54	5716
2026-01-27 07:48:35.28	45.10	15.29	-41.6	-45.5	12.3	1.79e-04	0	62	0	166723584	54	5729
2026-01-27 07:48:38.31	44.45	15.30	-41.6	-45.5	12.3	2.55e-04	0	62	0	171966464	54	5736
2026-01-27 07:48:41.34	43.80	15.30	-41.5	-45.3	12.5	1.17e-04	0	62	0	178257920	54	5606
2026-01-27 07:48:44.36	43.16	15.30	-41.6	-45.4	12.3	1.23e-04	0	62	0	183500800	54	5701
2026-01-27 07:48:47.40	42.51	15.30	-41.5	-45.3	12.4	1.40e-04	0	62	0	189792256	54	5638
2026-01-27 07:48:50.43	41.86	15.30	-41.7	-45.6	12.1	2.26e-04	0	62	0	195035136	54	5846
2026-01-27 07:48:53.46	41.21	15.29	-41.7	-45.6	12.2	2.70e-04	0	62	0	201326592	54	5812
2026-01-27 07:48:56.49	40.56	15.27	-41.7	-45.6	12.1	2.22e-04	0	62	0	206569472	54	5827
2026-01-27 07:48:59.52	39.92	15.26	-41.7	-45.7	12.0	2.93e-04	0	62	0	211812352	54	5885
2026-01-27 07:49:02.55	39.27	15.24	-41.7	-45.6	12.2	2.50e-04	0	62	0	218103808	54	5832
2026-01-27 07:49:05.58	38.63	15.21	-41.7	-45.7	12.1	3.23e-04	0	62	0	223346688	54	5879
2026-01-27 07:49:08.60	37.99	15.18	-41.7	-45.8	12.0	3.51e-04	0	62	0	229638144	54	5928
2026-01-27 07:49:11.64	37.34	15.15	-41.5	-45.3	12.5	1.39e-04	0	62	0	234881024	54	5617
2026-01-27 07:49:14.67	36.70	15.12	-41.5	-45.2	12.6	9.46e-05	0	62	0	240123904	54	5542
2026-01-27 07:49:17.69	36.06	15.08	-41.5	-45.3	12.5	1.40e-04	0	62	0	246415360	54	5619
2026-01-27 07:49:20.72	35.43	15.04	-41.4	-45.1	12.7	1.07e-04	0	62	0	251658240	54	5477
2026-01-27 07:49:23.75	34.79	14.99	-41.4	-44.9	12.9	4.95e-05	0	62	0	257949696	54	5379
2026-01-27 07:49:26.78	34.16	14.94	-41.5	-45.2	12.6	8.69e-05	0	62	0	263192576	54	5545
2026-01-27 07:49:29.80	33.53	14.89	-41.5	-45.2	12.5	1.27e-04	0	62	0	269484032	54	5557
2026-01-27 07:49:32.84	32.90	14.84	-41.5	-45.2	12.6	9.91e-05	0	62	0	274726912	54	5548
2026-01-27 07:49:35.87	32.27	14.78	-41.6	-45.4	12.4	1.28e-04	0	62	0	279969792	54	5678
2026-01-27 07:49:38.90	31.65	14.72	-41.6	-45.4	12.3	1.56e-04	0	62	0	286261248	54	5685
2026-01-27 07:49:41.93	31.03	14.65	-41.6	-45.4	12.4	1.69e-04	0	62	0	291504128	54	5688
2026-01-27 07:49:44.96	30.41	14.58	-41.6	-45.4	12.3	1.56e-04	0	62	0	297795584	54	5715
2026-01-27 07:49:47.99	29.79	14.51	-41.7	-45.7	12.1	2.72e-04	0	62	0	303038464	54	5871
2026-01-27 07:49:51.02	29.18	14.44	-41.8	-45.8	12.0	3.55e-04	0	62	0	308281344	54	5928
2026-01-27 07:49:54.05	28.57	14.36	-41.7	-45.7	12.1	2.73e-04	0	62	0	314572800	54	5867
2026-01-27 07:49:57.09	27.96	14.28	-41.7	-45.7	12.1	3.14e-04	0	62	0	319815680	54	5889
2026-01-27 07:50:00.11	27.36	14.20	-41.7	-45.6	12.1	2.61e-04	0	62	0	326107136	54	5829
2026-01-27 07:50:03.14	26.77	14.11	-41.5	-45.2	12.5	1.77e-04	0	62	0	331350016	54	5583
2026-01-27 07:50:06.17	26.17	14.02	-41.5	-45.2	12.5	1.12e-04	0	62	0	337641472	54	5547
2026-01-27 07:50:09.21	25.58	13.93	-41.5	-45.3	12.4	1.48e-04	0	62	0	342884352	54	5619
2026-01-27 07:50:12.24	24.99	13.83	-41.5	-45.3	12.5	1.24e-04	0	62	0	348127232	54	5596
2026-01-27 07:50:15.27	24.41	13.74	-41.5	-45.3	12.4	9.68e-05	0	62	0	354418688	54	5627
2026-01-27 07:50:18.30	23.83	13.64	-41.6	-45.4	12.3	1.64e-04	0	62	0	359661568	54	5670
2026-01-27 07:50:21.33	23.25	13.53	-41.5	-45.4	12.3	1.67e-04	0	62	0	365953024	54	5659
2026-01-27 07:50:24.36	22.68	13.43	-41.5	-45.3	12.3	1.67e-04	0	62	0	371195904	54	5638
2026-01-27 07:50:27.39	22.11	13.32	-41.5	-45.2	12.4	1.20e-04	0	62	0	376438784	54	5584
2026-01-27 07:50:30.42	21.55	13.21	-41.5	-45.4	12.2	1.56e-04	0	62	0	382730240	54	5672
2026-01-27 07:50:33.44	20.99	13.10	-41.6	-45.4	12.2	2.19e-04	0	62	0	387973120	54	5700
2026-01-27 07:50:36.47	20.44	12.99	-41.5	-45.4	12.3	1.95e-04	0	62	0	394264576	54	5689
2026-01-27 07:50:39.51	19.88	12.87	-41.5	-45.4	12.2	2.17e-04	0	62	0	399507456	54	5702
2026-01-27 07:50:42.54	19.34	12.76	-41.7	-45.8	11.8	4.87e-04	0	62	0	405798912	54	5947
2026-01-27 07:50:45.56	18.80	12.64	-41.9	-46.1	11.5	7.70e-04	0	62	0	411041792	54	6167
2026-01-27 07:50:48.60	18.26	12.52	-41.9	-46.2	11.4	1.02e-03	0	62	0	416284672	54	6230
2026-01-27 07:50:51.62	17.73	12.39	-42.0	-46.4	11.1	1.64e-03	0	62	0	422576128	54	6410
2026-01-27 07:50:54.65	17.20	12.27	-42.0	-46.6	11.0	1.95e-03	0	62	0	427819008	54	6499
2026-01-27 07:50:57.68	16.68	12.14	-42.1	-46.9	10.5	3.10e-03	0	62	0	434110464	54	6778
2026-01-27 07:51:00.71	16.16	12.01	-42.3	-47.3	10.1	5.67e-03	0	62	0	439353344	55	6666
2026-01-27 07:51:03.74	15.64	11.88	-42.4	-47.5	9.8	9.14e-03	0	62	0	444596224	55	6854
2026-01-27 07:51:06.77	15.13	11.75	-42.4	-47.6	9.7	1.10e-02	0	62	0	450887680	55	6924
2026-01-27 07:51:09.80	14.63	11.62	-42.3	-47.5	9.7	1.09e-02	0	62	0	456130560	55	6866
2026-01-27 07:51:12.83	14.13	11.48	-42.4	-47.8	9.4	1.60e-02	0	62	0	462422016	55	7073
2026-01-27 07:51:15.86	13.63	11.35	-42.5	-48.3	8.8	2.87e-02	0	62	0	467664896	55	7478
2026-01-27 07:51:18.89	13.14	11.21	-42.5	-48.4	8.6	3.68e-02	0	62	0	473956352	55	7600
2026-01-27 07:51:21.93	12.66	11.07	-42.4	-48.4	8.5	4.02e-02	0	62	0	479199232	55	7581
2026-01-27 07:51:24.96	12.17	10.93	-42.1	-48.2	8.3	4.66e-02	0	62	0	484442112	55	7391
2026-01-27 07:51:27.99	11.70	10.79	-41.8	-48.0	8.1	6.40e-02	0	62	0	490733568	55	7266
2026-01-27 07:51:31.02	11.23	10.65	-41.6	-49.2	6.5	1.94e-01	0	62	0	495976448	55	8326
2026-01-27 07:51:34.05	10.76	10.51	-41.5	-52.5	4.2	1.02e+00	0	62	0	501219328	55	12209
2026-01-27 07:51:37.08	10.30	10.36	-42.5	-55.5	3.8	1.49e+00	0	62	104	501219328	55	17119
2026-01-27 07:51:40.11	9.84	10.22	-41.1	-55.0	3.8	1.49e+00	0	62	104	501219328	54	17157
2026-01-27 07:51:43.14	9.38	10.07	-41.0	-55.5	3.8	1.49e+00	0	62	104	501219328	53	19373
2026-01-27 07:51:46.17	8.94	9.93	-40.9	-55.2	3.8	1.49e+00	0	62	104	501219328	52	19829
2026-01-27 07:51:49.20	8.49	9.78	-40.5	-55.1	3.8	1.49e+00	0	62	104	501219328	52	19433
2026-01-27 07:51:52.24	8.05	9.63	-40.0	-54.6	3.8	1.49e+00	0	62	104	501219328	51	19468
2026-01-27 07:51:55.27	7.62	9.48	-40.0	-54.5	3.8	1.49e+00	0	62	104	501219328	51	19345
2026-01-27 07:51:58.30	7.18	9.33	-40.0	-54.5	3.8	1.49e+00	0	62	104	501219328	51	19389
2026-01-27 07:52:01.33	6.76	9.18	-39.9	-54.4	3.8	1.49e+00	0	62	104	501219328	51	19046
2026-01-27 07:52:04.36	6.34	9.03	-40.0	-54.6	3.8	1.49e+00	0	62	104	501219328	51	19432
2026-01-27 07:52:07.39	5.92	8.88	-40.0	-54.5	3.8	1.49e+00	0	62	104	501219328	51	19321
2026-01-27 07:52:10.42	5.51	8.73	-39.9	-54.4	3.8	1.49e+00	0	63	104	501219328	51	19043
2026-01-27 07:52:13.45	5.10	8.58	-39.9	-54.4	3.8	1.49e+00	0	63	104	501219328	51	19099
2026-01-27 07:52:16.48	4.70	8.42	-39.9	-54.4	3.8	1.49e+00	0	62	104	501219328	51	19154
2026-01-27 07:52:19.51	4.30	8.27	-39.9	-54.5	3.8	1.49e+00	0	62	104	501219328	51	19222
2026-01-27 07:52:22.54	3.90	8.12	-39.9	-54.5	3.8	1.49e+00	0	62	104	501219328	51	19226
2026-01-27 07:52:25.57	3.51	7.96	-44.0	-58.4	3.9	1.49e+00	0	63	104	501219328	58	20179
2026-01-27 07:52:28.60	3.12	7.81	-45.2	-59.9	3.8	1.49e+00	0	63	104	501219328	60	21284
2026-01-27 07:52:31.63	2.74	7.65	-45.3	-60.0	3.8	1.49e+00	0	63	104	501219328	61	20459
2026-01-27 07:52:34.66	2.36	7.50	-45.2	-59.8	3.8	1.49e+00	0	63	104	501219328	61	20001
2026-01-27 07:52:37.70	1.99	7.34	-45.0	-59.6	3.8	1.49e+00	0	63	104	501219328	61	19589
2026-01-27 07:52:40.73	1.62	7.19	-45.0	-59.5	3.8	1.49e+00	0	63	104	501219328	61	19331
2026-01-27 07:52:43.76	1.25	7.03	-45.0	-59.5	3.8	1.49e+00	0	63	104	501219328	61	19335
2026-01-27 07:52:46.79	0.89	6.88	-45.0	-59.6	3.8	1.49e+00	0	63	104	501219328	61	19402
2026-01-27 07:52:49.83	0.53	6.72	-44.9	-59.5	3.8	1.49e+00	0	63	104	501219328	61	19316
2026-01-27 07:52:52.86	0.17	6.56	-45.0	-59.5	3.8	1.49e+00	0	63	104	501219328	60	20447
2026-01-27 07:52:55.89	359.82	6.41	-45.0	-59.5	3.8	1.49e+00	0	62	104	501219328	60	20476
2026-01-27 07:52:58.92	359.48	6.25	-45.0	-59.5	3.8	1.49e+00	0	63	104	501219328	60	20521
2026-01-27 07:53:01.95	359.14	6.10	-45.0	-59.6	3.8	1.49e+00	0	63	104	501219328	60	20556
2026-01-27 07:53:04.98	358.80	5.94	-45.0	-59.5	3.8	1.49e+00	0	63	104	501219328	60	20495
2026-01-27 07:53:08.01	358.46	5.78	-45.0	-59.6	3.8	1.49e+00	0	63	104	501219328	60	20585
2026-01-27 07:53:11.05	358.13	5.63	-45.0	-59.5	3.8	1.49e+00	0	63	104	501219328	60	20512
2026-01-27 07:53:14.08	357.80	5.47	-45.0	-59.5	3.8	1.49e+00	0	63	104	501219328	60	20505
2026-01-27 07:53:17.11	357.48	5.32	-45.0	-59.5	3.8	1.49e+00	0	63	104	501219328	60	20489
2026-01-27 07:53:20.14	357.16	5.16	-45.0	-59.5	3.8	1.49e+00	0	62	104	501219328	60	20450
2026-01-27 07:53:23.17	356.84	5.00	-45.0	-59.5	3.8	1.49e+00	0	63	104	501219328	60	20470
2026-01-27 07:53:26.20	356.53	4.85	-45.0	-59.5	3.8	1.49e+00	0	63	104	501219328	60	20456
2026-01-27 07:53:29.23	356.22	4.69	-45.0	-59.5	3.8	1.49e+00	0	63	104	501219328	60	20475
2026-01-27 07:53:32.26	355.91	4.54	-45.0	-59.5	3.8	1.49e+00	0	63	104	501219328	60	20494
2026-01-27 07:53:35.30	355.60	4.38	-45.0	-59.5	3.8	1.49e+00	0	63	104	501219328	60	20447
2026-01-27 07:53:38.33	355.30	4.23	-45.0	-59.5	3.8	1.49e+00	0	63	104	501219328	60	20459
2026-01-27 07:53:41.36	355.01	4.07	-44.8	-59.5	3.8	1.49e+00	0	63	104	501219328	60	20426
2026-01-27 07:53:44.39	354.71	3.92	-44.9	-59.5	3.8	1.49e+00	0	63	104	501219328	60	20424
2026-01-27 07:53:47.43	354.42	3.76	-44.9	-59.5	3.8	1.49e+00	0	63	104	501219328	60	20447
2026-01-27 07:53:50.46	354.13	3.61	-45.0	-59.5	3.8	1.49e+00	0	63	104	501219328	60	20457
2026-01-27 07:53:53.49	353.85	3.45	-44.9	-59.5	3.8	1.49e+00	0	63	104	501219328	60	20384
2026-01-27 07:53:56.52	353.57	3.30	-44.9	-59.5	3.8	1.49e+00	0	63	104	501219328	60	20432
2026-01-27 07:53:59.55	353.29	3.14	-44.9	-59.5	3.8	1.49e+00	0	63	104	501219328	60	20391
2026-01-27 07:54:02.58	353.02	2.99	-44.9	-59.5	3.8	1.49e+00	0	63	104	501219328	60	20380
2026-01-27 07:54:05.61	352.75	2.84	-44.9	-59.5	3.8	1.49e+00	0	63	104	501219328	60	20338
2026-01-27 07:54:08.65	352.48	2.68	-44.9	-59.5	3.8	1.49e+00	0	63	104	501219328	60	20419
2026-01-27 07:54:11.68	352.21	2.53	-44.9	-59.5	3.8	1.49e+00	0	63	104	501219328	60	20318
2026-01-27 07:54:14.71	351.95	2.38	-44.9	-59.5	3.8	1.49e+00	0	63	104	501219328	60	20406
2026-01-27 07:54:17.74	351.69	2.23	-44.9	-59.5	3.8	1.49e+00	0	63	104	501219328	60	20413
2026-01-27 07:54:20.77	351.43	2.07	-44.9	-59.5	3.8	1.49e+00	0	63	104	501219328	60	20352
2026-01-27 07:54:23.80	351.17	1.92	-44.9	-59.5	3.8	1.49e+00	0	63	104	501219328	60	20328

#Closed at: 2026-01-27 07:54:24
#Recorded file [501 MB]: D:/lorett/data/31039_260127_104307.dat