passes_logs/2026/01/27/R2.0S_Moscow/R2.0S_Moscow__20260127_172845_FENGYUN_3G_rec.log

#Pass ID: 20260127_172845_FENGYUN 3G
#Satellite: FENGYUN 3G
#Configuration: FENGYUN 3G
#almurnet v.1.7.20251203
#Start time: 2026-01-27 17:28:46

#Version: 2.2.20231116
#Station: R2.0S_Moscow
#Location: 37.707566 lon 55.798166 lat
#TLE: 1 56232U 23055A   26026.81668957  .00042566  00000+0  63804-3 0  9995
#TLE: 2 56232  49.9949 354.9274 0004068  91.1881 268.9553 15.54453119158037

#Time	Az	El	Level	Level2	SNR	BER	BlckErr	Temp	State	Recorded	gain1	gain2
2026-01-27 17:28:46.60	239.86	2.06	-44.2	-62.4	3.8	8.45e-01	0	52	0	0	60	28558
2026-01-27 17:28:49.62	239.65	2.26	-44.2	-62.4	3.8	8.46e-01	0	53	104	0	60	28559
2026-01-27 17:28:52.66	239.44	2.46	-44.2	-62.4	3.8	8.46e-01	0	53	104	0	60	28515
2026-01-27 17:28:55.69	239.22	2.66	-44.2	-62.4	3.8	8.46e-01	0	53	104	0	60	28552
2026-01-27 17:28:58.72	239.00	2.86	-44.2	-62.4	3.8	8.45e-01	0	53	104	0	60	28570
2026-01-27 17:29:01.75	238.77	3.07	-44.2	-62.4	3.8	8.46e-01	0	53	104	0	60	28556
2026-01-27 17:29:04.78	238.54	3.27	-44.2	-62.4	3.8	8.46e-01	0	54	104	0	60	28477
2026-01-27 17:29:07.81	238.31	3.48	-44.2	-62.4	3.8	8.46e-01	0	54	104	0	60	28496
2026-01-27 17:29:10.85	238.07	3.70	-44.2	-62.4	3.8	8.47e-01	0	54	104	0	60	28518
2026-01-27 17:29:13.88	237.82	3.91	-44.2	-62.4	3.8	8.47e-01	0	54	104	0	60	28593
2026-01-27 17:29:16.91	237.57	4.12	-44.2	-62.4	3.8	8.46e-01	0	54	104	0	60	28464
2026-01-27 17:29:19.94	237.32	4.34	-44.2	-62.4	3.8	8.46e-01	0	55	104	0	60	28562
2026-01-27 17:29:22.97	237.05	4.56	-44.2	-62.4	3.8	8.46e-01	0	55	104	0	60	28470
2026-01-27 17:29:26.00	236.79	4.79	-44.2	-62.4	3.8	8.46e-01	0	55	104	0	60	28453
2026-01-27 17:29:29.03	236.51	5.01	-44.2	-62.4	3.8	8.46e-01	0	55	104	0	60	28509
2026-01-27 17:29:32.07	236.23	5.24	-44.2	-62.4	3.8	8.46e-01	0	55	104	0	60	28572
2026-01-27 17:29:35.10	235.94	5.47	-44.2	-62.4	3.8	8.46e-01	0	56	104	0	60	28453
2026-01-27 17:29:38.13	235.65	5.70	-44.2	-62.4	3.8	8.45e-01	0	56	104	0	60	28516
2026-01-27 17:29:41.16	235.35	5.94	-44.2	-62.3	3.8	8.48e-01	0	56	104	0	60	28292
2026-01-27 17:29:44.20	235.04	6.18	-44.2	-62.4	3.8	8.45e-01	0	56	104	0	60	28445
2026-01-27 17:29:47.23	234.73	6.42	-44.2	-62.4	3.8	8.47e-01	0	56	104	0	60	28558
2026-01-27 17:29:50.26	234.41	6.66	-44.2	-62.4	3.8	8.47e-01	0	56	104	0	60	28540
2026-01-27 17:29:53.29	234.08	6.91	-44.2	-62.4	3.8	8.46e-01	0	56	104	0	60	28492
2026-01-27 17:29:56.32	233.74	7.16	-44.2	-62.4	3.8	8.46e-01	0	56	104	0	60	28388
2026-01-27 17:29:59.35	233.39	7.41	-44.2	-62.4	3.8	8.46e-01	0	57	104	0	60	28416
2026-01-27 17:30:02.38	233.04	7.67	-44.2	-62.4	3.8	8.45e-01	0	57	104	0	60	28436
2026-01-27 17:30:05.41	232.68	7.92	-44.2	-62.4	3.8	8.45e-01	0	57	104	0	60	28441
2026-01-27 17:30:08.45	232.30	8.19	-44.3	-62.5	3.8	8.47e-01	0	57	104	0	60	28912
2026-01-27 17:30:11.48	231.92	8.45	-44.3	-62.4	3.8	8.47e-01	0	57	104	0	60	28585
2026-01-27 17:30:14.51	231.53	8.72	-44.2	-62.3	3.8	8.46e-01	0	57	104	0	60	28306
2026-01-27 17:30:17.54	231.12	8.99	-44.3	-62.4	3.8	8.46e-01	0	57	104	0	60	28457
2026-01-27 17:30:20.57	230.71	9.27	-44.3	-62.4	3.8	8.46e-01	0	57	104	0	60	28419
2026-01-27 17:30:23.60	230.29	9.55	-44.3	-62.4	3.8	8.46e-01	0	58	104	0	60	28505
2026-01-27 17:30:26.62	229.85	9.83	-44.3	-61.9	3.8	8.46e-01	0	58	104	0	60	26928
2026-01-27 17:30:29.65	229.40	10.12	-44.3	-62.2	3.8	8.46e-01	0	58	104	0	60	27771
2026-01-27 17:30:32.68	228.94	10.41	-44.4	-62.3	3.8	8.46e-01	0	58	104	0	60	28222
2026-01-27 17:30:35.71	228.47	10.70	-44.4	-62.1	3.8	8.45e-01	0	58	104	0	60	27420
2026-01-27 17:30:38.74	227.99	11.00	-44.4	-61.7	3.8	8.47e-01	0	58	104	0	60	26203
2026-01-27 17:30:41.77	227.49	11.30	-44.4	-62.3	3.8	8.46e-01	0	58	104	0	60	28232
2026-01-27 17:30:44.80	226.97	11.60	-44.4	-62.1	3.8	8.46e-01	0	58	104	0	60	27570
2026-01-27 17:30:47.83	226.45	11.91	-44.4	-62.3	3.8	8.46e-01	0	58	104	0	60	28239
2026-01-27 17:30:50.86	225.90	12.23	-44.5	-62.6	3.8	8.45e-01	0	58	104	0	60	29200
2026-01-27 17:30:53.89	225.35	12.54	-44.5	-62.1	3.8	8.47e-01	0	58	104	0	60	27467
2026-01-27 17:30:56.92	224.77	12.87	-44.5	-62.3	3.8	8.47e-01	0	59	104	0	60	28101
2026-01-27 17:30:59.95	224.18	13.19	-44.5	-62.6	3.8	8.47e-01	0	58	104	0	60	29287
2026-01-27 17:31:02.99	223.57	13.52	-44.6	-62.7	3.8	8.46e-01	0	59	104	0	60	29665
2026-01-27 17:31:06.02	222.94	13.86	-44.6	-62.7	3.8	8.47e-01	0	59	104	0	60	29447
2026-01-27 17:31:09.05	222.29	14.19	-44.6	-62.7	3.8	8.45e-01	0	59	104	0	60	29391
2026-01-27 17:31:12.08	221.63	14.53	-44.6	-62.6	3.8	8.46e-01	0	59	104	0	60	29118
2026-01-27 17:31:15.11	220.94	14.88	-44.7	-62.7	3.8	8.46e-01	0	59	104	0	60	29514
2026-01-27 17:31:18.14	220.24	15.23	-44.6	-62.6	3.8	8.45e-01	0	59	104	0	60	29148
2026-01-27 17:31:21.17	219.51	15.58	-44.7	-62.8	3.8	8.46e-01	0	59	104	0	60	29949
2026-01-27 17:31:24.20	218.76	15.94	-44.7	-62.8	3.8	8.46e-01	0	59	104	0	60	29993
2026-01-27 17:31:27.23	217.99	16.30	-44.7	-62.8	3.8	8.47e-01	0	59	104	0	60	29886
2026-01-27 17:31:30.26	217.19	16.66	-44.7	-62.8	3.8	8.47e-01	0	59	104	0	60	29753
2026-01-27 17:31:33.29	216.37	17.03	-44.8	-62.8	3.8	8.46e-01	0	59	104	0	60	30013
2026-01-27 17:31:36.32	215.52	17.39	-44.7	-62.8	3.8	8.46e-01	0	59	104	0	60	29729
2026-01-27 17:31:39.35	214.64	17.76	-44.8	-63.0	3.8	8.47e-01	0	59	104	0	60	30539
2026-01-27 17:31:42.38	213.74	18.14	-44.8	-62.9	3.8	8.47e-01	0	59	104	0	60	30220
2026-01-27 17:31:45.41	212.81	18.51	-44.8	-63.0	3.8	8.46e-01	0	59	104	0	60	30475
2026-01-27 17:31:48.44	211.86	18.89	-44.8	-62.9	3.8	8.46e-01	0	60	104	0	60	30349
2026-01-27 17:31:51.47	210.87	19.26	-44.8	-63.0	3.8	8.48e-01	0	59	104	0	60	30418
2026-01-27 17:31:54.50	209.85	19.64	-44.9	-62.9	3.8	8.47e-01	0	59	104	0	60	30363
2026-01-27 17:31:57.52	208.81	20.02	-44.9	-63.0	3.8	8.46e-01	0	60	104	0	60	30642
2026-01-27 17:32:00.55	207.73	20.39	-44.9	-63.0	3.8	8.46e-01	0	59	104	0	60	30691
2026-01-27 17:32:03.59	206.61	20.77	-44.9	-63.0	3.8	8.46e-01	0	60	104	0	60	30649
2026-01-27 17:32:06.62	205.47	21.14	-44.9	-63.1	3.8	8.46e-01	0	60	104	0	60	30793
2026-01-27 17:32:09.64	204.29	21.51	-44.9	-63.0	3.8	8.46e-01	0	60	104	0	60	30699
2026-01-27 17:32:12.67	203.08	21.87	-44.9	-63.1	3.8	8.46e-01	0	60	104	0	60	30844
2026-01-27 17:32:15.70	201.83	22.23	-44.9	-63.1	3.8	8.46e-01	0	60	104	0	60	30778
2026-01-27 17:32:18.73	200.55	22.58	-44.9	-62.9	3.8	8.46e-01	0	60	104	0	60	30262
2026-01-27 17:32:21.77	199.23	22.93	-44.9	-63.0	3.8	8.46e-01	0	60	104	0	60	30486
2026-01-27 17:32:24.80	197.88	23.27	-44.9	-63.0	3.8	8.47e-01	0	60	104	0	60	30713
2026-01-27 17:32:27.83	196.50	23.60	-44.9	-63.1	3.8	8.46e-01	0	60	104	0	60	30744
2026-01-27 17:32:30.86	195.08	23.91	-44.9	-63.1	3.8	8.47e-01	0	60	104	0	60	30863
2026-01-27 17:32:33.89	193.63	24.22	-44.9	-63.0	3.8	8.45e-01	0	60	104	0	60	30697
2026-01-27 17:32:36.92	192.14	24.51	-44.9	-63.1	3.8	8.46e-01	0	60	104	0	60	30763
2026-01-27 17:32:39.95	190.63	24.79	-44.9	-63.1	3.8	8.47e-01	0	60	104	0	60	30824
2026-01-27 17:32:42.98	189.08	25.05	-44.9	-63.1	3.8	8.46e-01	0	60	104	0	60	30916
2026-01-27 17:32:46.01	187.51	25.30	-44.9	-63.1	3.8	8.46e-01	0	60	104	0	60	30877
2026-01-27 17:32:49.04	185.90	25.52	-44.9	-63.1	3.8	8.46e-01	0	60	104	0	60	30925
2026-01-27 17:32:52.08	184.27	25.73	-44.9	-63.1	3.8	8.46e-01	0	61	104	0	60	30813
2026-01-27 17:32:55.11	182.62	25.92	-44.9	-63.1	3.8	8.46e-01	0	60	104	0	60	31008
2026-01-27 17:32:58.14	180.94	26.08	-44.9	-63.1	3.8	8.46e-01	0	60	104	0	60	31004
2026-01-27 17:33:01.17	179.25	26.23	-45.0	-63.2	3.8	8.47e-01	0	61	104	0	60	31178
2026-01-27 17:33:04.20	177.54	26.34	-45.0	-63.2	3.8	8.46e-01	0	61	104	0	60	31093
2026-01-27 17:33:07.23	175.82	26.44	-45.0	-63.2	3.8	8.46e-01	0	61	104	0	60	31127
2026-01-27 17:33:10.26	174.09	26.51	-45.1	-63.3	3.8	8.46e-01	0	61	104	0	61	29864
2026-01-27 17:33:13.29	172.35	26.55	-45.1	-63.3	3.8	8.48e-01	0	61	104	0	61	29786
2026-01-27 17:33:16.32	170.61	26.57	-45.1	-63.2	3.8	8.46e-01	0	60	104	0	61	29620
2026-01-27 17:33:19.35	168.87	26.56	-45.1	-63.3	3.8	8.45e-01	0	61	104	0	61	29753
2026-01-27 17:33:22.38	167.13	26.53	-45.1	-63.3	3.8	8.46e-01	0	61	104	0	61	29954
2026-01-27 17:33:25.41	165.40	26.47	-45.2	-63.3	3.8	8.46e-01	0	61	104	0	61	29991
2026-01-27 17:33:28.44	163.67	26.38	-45.2	-63.4	3.8	8.47e-01	0	61	104	0	61	30033
2026-01-27 17:33:31.48	161.95	26.27	-45.2	-63.3	3.8	8.45e-01	0	61	104	0	61	29857
2026-01-27 17:33:34.51	160.25	26.14	-45.2	-63.1	3.8	8.47e-01	0	61	104	0	61	29258
2026-01-27 17:33:37.54	158.57	25.98	-45.2	-63.3	3.8	8.46e-01	0	61	104	0	61	29884
2026-01-27 17:33:40.57	156.91	25.81	-45.2	-63.4	3.8	8.46e-01	0	61	104	0	61	30182
2026-01-27 17:33:43.60	155.28	25.61	-45.2	-63.3	3.8	8.47e-01	0	61	104	0	61	29836
2026-01-27 17:33:46.63	153.67	25.39	-45.2	-63.3	3.8	8.46e-01	0	61	104	0	61	29947
2026-01-27 17:33:49.66	152.08	25.15	-45.2	-63.4	3.8	8.45e-01	0	61	104	0	61	30261
2026-01-27 17:33:52.69	150.52	24.89	-45.2	-63.4	3.8	8.44e-01	0	61	104	0	61	30287
2026-01-27 17:33:55.72	149.00	24.62	-45.2	-63.4	3.8	8.46e-01	0	61	104	0	61	30295
2026-01-27 17:33:58.76	147.50	24.33	-45.2	-63.4	3.8	8.47e-01	0	61	104	0	61	30263
2026-01-27 17:34:01.78	146.04	24.03	-45.2	-63.4	3.8	8.47e-01	0	61	104	0	61	30190
2026-01-27 17:34:04.81	144.61	23.72	-45.2	-63.1	3.8	8.46e-01	0	61	104	0	61	29209
2026-01-27 17:34:07.84	143.21	23.40	-45.1	-63.0	3.8	8.46e-01	0	61	104	0	61	28725
2026-01-27 17:34:10.87	141.85	23.06	-45.1	-63.1	3.8	8.46e-01	0	61	104	0	61	29107
2026-01-27 17:34:13.90	140.52	22.72	-45.1	-63.3	3.8	8.46e-01	0	61	104	0	61	29929
2026-01-27 17:34:16.93	139.23	22.37	-45.1	-63.3	3.8	8.47e-01	0	61	104	0	61	29715
2026-01-27 17:34:19.96	137.97	22.01	-45.1	-63.2	3.8	8.47e-01	0	61	104	0	61	29676
2026-01-27 17:34:22.99	136.74	21.65	-45.1	-63.3	3.8	8.46e-01	0	61	104	0	61	30010
2026-01-27 17:34:26.02	135.55	21.28	-45.0	-63.2	3.8	8.45e-01	0	61	104	0	60	31170
2026-01-27 17:34:29.05	134.40	20.91	-45.0	-63.3	3.8	8.46e-01	0	61	104	0	60	31628
2026-01-27 17:34:32.08	133.27	20.54	-44.9	-63.2	3.8	8.46e-01	0	61	104	0	60	31257
2026-01-27 17:34:35.11	132.18	20.17	-45.0	-63.2	3.8	8.45e-01	0	61	104	0	60	31170
2026-01-27 17:34:38.14	131.12	19.79	-44.9	-63.2	3.8	8.47e-01	0	61	104	0	60	31302
2026-01-27 17:34:41.17	130.09	19.41	-44.9	-63.1	3.8	8.47e-01	0	61	104	0	60	30962
2026-01-27 17:34:44.20	129.10	19.04	-44.8	-63.1	3.8	8.45e-01	0	61	104	0	60	31050
2026-01-27 17:34:47.23	128.13	18.66	-44.9	-63.1	3.8	8.47e-01	0	61	104	0	60	30870
2026-01-27 17:34:50.26	127.19	18.29	-44.8	-63.1	3.8	8.46e-01	0	61	104	0	60	30798
2026-01-27 17:34:53.29	126.28	17.91	-44.5	-63.0	3.8	8.46e-01	0	61	104	0	60	30498
2026-01-27 17:34:56.32	125.39	17.54	-44.7	-62.6	3.9	8.46e-01	0	61	104	0	59	31054
2026-01-27 17:34:59.35	124.54	17.17	-44.5	-62.8	3.8	8.47e-01	0	61	104	0	59	31567
2026-01-27 17:35:02.38	123.71	16.81	-44.4	-63.0	3.8	8.45e-01	0	61	104	0	60	30414
2026-01-27 17:35:05.41	122.90	16.44	-44.7	-62.9	3.8	8.46e-01	0	61	104	0	60	30351
2026-01-27 17:35:08.45	122.12	16.08	-44.4	-62.6	3.7	8.45e-01	0	61	104	0	59	31069
2026-01-27 17:35:11.47	121.36	15.73	-42.3	-61.9	3.9	8.46e-01	0	61	104	0	56	33958
2026-01-27 17:35:14.50	120.63	15.37	-43.5	-62.3	3.9	8.45e-01	0	61	104	0	57	33670
2026-01-27 17:35:17.53	119.91	15.02	-41.5	-61.2	3.8	8.44e-01	0	61	104	0	54	34983
2026-01-27 17:35:20.56	119.22	14.68	-42.5	-61.9	3.7	8.45e-01	0	61	104	0	56	33770
2026-01-27 17:35:23.59	118.55	14.33	-43.9	-62.6	3.8	8.46e-01	0	61	104	0	58	32785
2026-01-27 17:35:26.62	117.89	14.00	-43.5	-62.0	3.8	8.44e-01	0	61	104	0	58	30692
2026-01-27 17:35:29.65	117.26	13.66	-41.6	-60.5	4.0	8.46e-01	0	61	104	0	50	40682
2026-01-27 17:35:32.68	116.64	13.33	-35.1	-54.9	3.9	8.31e-01	0	61	104	0	32	60591
2026-01-27 17:35:35.70	116.05	13.00	-36.2	-57.1	4.3	8.10e-01	0	61	104	0	40	48728
2026-01-27 17:35:38.73	115.47	12.68	-40.3	-61.2	4.0	8.34e-01	0	61	104	0	51	41591
2026-01-27 17:35:41.76	114.90	12.36	-29.7	-52.5	4.0	8.19e-01	0	61	104	0	33	43053
2026-01-27 17:35:44.79	114.36	12.05	-29.5	-52.8	3.9	8.22e-01	0	61	104	0	32	47166
2026-01-27 17:35:47.82	113.82	11.74	-34.5	-57.1	4.0	8.32e-01	0	61	104	0	39	51888
2026-01-27 17:35:50.85	113.31	11.43	-33.6	-56.7	4.2	8.27e-01	0	61	104	0	37	55727
2026-01-27 17:35:53.88	112.80	11.13	-27.1	-50.5	4.3	8.28e-01	0	61	104	0	33	34405
2026-01-27 17:35:56.91	112.31	10.83	-29.7	-53.2	3.9	8.30e-01	0	61	104	0	31	52573
2026-01-27 17:35:59.94	111.83	10.53	-19.5	-41.5	3.1	8.23e-01	0	62	104	0	10	45679
2026-01-27 17:36:02.95	111.37	10.24	-35.1	-57.1	4.1	8.31e-01	0	61	104	0	40	49040
2026-01-27 17:36:05.98	110.92	9.96	-33.4	-56.3	3.8	8.24e-01	0	61	104	0	37	53026
2026-01-27 17:36:09.02	110.48	9.67	-35.4	-56.7	4.1	8.29e-01	0	61	104	0	40	46652
2026-01-27 17:36:12.05	110.05	9.39	-24.5	-51.1	3.4	8.41e-01	0	61	104	0	24	61830
2026-01-27 17:36:15.08	109.64	9.11	-36.6	-59.5	4.1	8.37e-01	0	61	104	0	46	45896
2026-01-27 17:36:18.11	109.23	8.84	-41.3	-60.7	4.1	8.39e-01	0	61	104	0	53	35272
2026-01-27 17:36:21.14	108.83	8.57	-41.1	-59.2	4.0	8.41e-01	0	61	104	0	48	39264
2026-01-27 17:36:24.17	108.45	8.31	-39.2	-59.8	3.8	8.45e-01	0	61	104	0	50	37526
2026-01-27 17:36:27.21	108.07	8.04	-41.9	-60.7	3.9	8.45e-01	0	61	104	0	54	32959
2026-01-27 17:36:30.24	107.70	7.78	-45.0	-63.2	3.8	8.44e-01	0	62	104	0	60	31184
2026-01-27 17:36:33.27	107.35	7.52	-45.5	-63.8	3.8	8.46e-01	0	61	104	0	61	31633
2026-01-27 17:36:36.30	107.00	7.27	-45.7	-64.0	3.8	8.48e-01	0	62	104	0	62	30462
2026-01-27 17:36:39.33	106.66	7.02	-45.5	-63.7	3.8	8.46e-01	0	61	104	0	62	29554
2026-01-27 17:36:42.37	106.32	6.77	-45.4	-63.5	3.8	8.47e-01	0	61	104	0	62	28908
2026-01-27 17:36:45.40	106.00	6.53	-45.3	-63.4	3.8	8.47e-01	0	61	104	0	62	28525
2026-01-27 17:36:48.43	105.68	6.29	-45.3	-63.4	3.8	8.46e-01	0	62	104	0	62	28461
2026-01-27 17:36:51.46	105.37	6.05	-45.3	-63.4	3.8	8.47e-01	0	62	104	0	62	28491
2026-01-27 17:36:54.49	105.07	5.81	-45.3	-63.4	3.8	8.46e-01	0	62	104	0	62	28483
2026-01-27 17:36:57.52	104.78	5.58	-45.3	-63.4	3.8	8.45e-01	0	61	104	0	62	28599
2026-01-27 17:37:00.55	104.49	5.35	-45.3	-63.4	3.8	8.46e-01	0	62	104	0	61	30107
2026-01-27 17:37:03.58	104.21	5.12	-45.3	-63.4	3.8	8.45e-01	0	62	104	0	61	30195
2026-01-27 17:37:06.61	103.93	4.89	-45.3	-63.4	3.8	8.47e-01	0	62	104	0	61	30103
2026-01-27 17:37:09.64	103.66	4.67	-45.2	-63.4	3.8	8.46e-01	0	62	104	0	61	30088
2026-01-27 17:37:12.67	103.40	4.45	-45.3	-63.4	3.8	8.46e-01	0	62	104	0	61	30066
2026-01-27 17:37:15.70	103.14	4.23	-45.3	-63.4	3.8	8.45e-01	0	62	104	0	61	30095
2026-01-27 17:37:18.73	102.89	4.01	-45.3	-63.4	3.8	8.46e-01	0	62	104	0	61	30116
2026-01-27 17:37:21.77	102.64	3.80	-45.2	-63.3	3.8	8.47e-01	0	62	104	0	61	29974
2026-01-27 17:37:24.80	102.40	3.58	-45.2	-63.4	3.8	8.46e-01	0	61	104	0	61	30123
2026-01-27 17:37:27.83	102.16	3.37	-45.2	-63.4	3.8	8.47e-01	0	61	104	0	61	30068
2026-01-27 17:37:30.86	101.93	3.17	-45.2	-63.4	3.8	8.46e-01	0	62	104	0	61	30049
2026-01-27 17:37:33.89	101.70	2.96	-45.2	-63.4	3.8	8.46e-01	0	61	104	0	61	30078
2026-01-27 17:37:36.92	101.48	2.76	-45.3	-63.3	3.8	8.47e-01	0	62	104	0	61	29997
2026-01-27 17:37:39.96	101.26	2.55	-45.2	-63.3	3.8	8.46e-01	0	62	104	0	61	29989
2026-01-27 17:37:42.99	101.05	2.35	-45.2	-63.4	3.8	8.46e-01	0	62	104	0	61	30158
2026-01-27 17:37:46.02	100.84	2.15	-45.2	-63.3	3.8	8.47e-01	0	61	104	0	61	30019
2026-01-27 17:37:49.05	100.64	1.96	-45.2	-63.3	3.8	8.47e-01	0	62	104	0	61	30020

#Closed at: 2026-01-27 17:37:51
#Recorded file [0 MB]: D:/lorett/data/31039_260127_202846.dat