passes_logs/2026/01/27/R2.0S_Moscow/R2.0S_Moscow__20260127_014648_FENGYUN_3D_rec.log

#Pass ID: 20260127_014648_FENGYUN 3D
#Satellite: FENGYUN 3D
#Configuration: FENGYUN 3D
#almurnet v.1.7.20251203
#Start time: 2026-01-27 01:46:50

#Version: 2.2.20231116
#Station: R2.0S_Moscow
#Location: 37.707566 lon 55.798166 lat
#TLE: 1 43010U 17072A   26026.49129444  .00000151  00000+0  93391-4 0  9993
#TLE: 2 43010  98.9962 358.4866 0002525  88.1664 271.9801 14.19700337424889

#Time	Az	El	Level	Level2	SNR	BER	BlckErr	Temp	State	Recorded	gain1	gain2
2026-01-27 01:46:50.46	16.59	2.13	-42.4	-54.1	3.8	8.46e-01	0	53	0	0	56	13757
2026-01-27 01:46:54.50	16.60	2.39	-42.4	-54.0	3.8	8.45e-01	0	53	104	0	56	13709
2026-01-27 01:46:58.54	16.62	2.65	-42.4	-54.1	3.8	8.46e-01	0	54	104	0	56	13731
2026-01-27 01:47:02.58	16.63	2.92	-42.4	-54.0	3.8	8.47e-01	0	54	104	0	56	13704
2026-01-27 01:47:06.62	16.65	3.18	-42.4	-54.0	3.8	8.47e-01	0	54	104	0	56	13726
2026-01-27 01:47:10.66	16.66	3.45	-42.4	-54.0	3.8	8.47e-01	0	54	104	0	56	13668
2026-01-27 01:47:14.70	16.68	3.73	-42.4	-54.0	3.8	8.46e-01	0	55	104	0	56	13689
2026-01-27 01:47:18.75	16.69	4.00	-42.4	-54.0	3.8	8.46e-01	0	55	104	0	56	13686
2026-01-27 01:47:22.79	16.71	4.28	-42.4	-54.0	3.8	8.46e-01	0	55	104	0	56	13680
2026-01-27 01:47:26.83	16.72	4.56	-42.4	-54.0	3.8	8.48e-01	0	55	104	0	56	13721
2026-01-27 01:47:30.87	16.74	4.85	-42.4	-54.0	3.8	8.46e-01	0	56	104	0	56	13677
2026-01-27 01:47:34.92	16.75	5.14	-42.4	-54.0	3.8	8.47e-01	0	56	104	0	56	13722
2026-01-27 01:47:38.96	16.77	5.43	-42.4	-54.0	3.8	8.47e-01	0	56	104	0	56	13597
2026-01-27 01:47:43.00	16.78	5.72	-42.4	-54.0	3.8	8.46e-01	0	56	104	0	56	13610
2026-01-27 01:47:47.04	16.80	6.02	-42.4	-54.0	3.8	8.46e-01	0	56	104	0	56	13630
2026-01-27 01:47:51.09	16.81	6.32	-42.4	-54.0	3.8	8.47e-01	0	57	104	0	56	13619
2026-01-27 01:47:55.13	16.83	6.62	-42.4	-53.9	3.8	8.46e-01	0	57	104	0	56	13523
2026-01-27 01:47:59.18	16.84	6.93	-42.3	-53.2	3.8	8.45e-01	0	57	104	0	56	12442
2026-01-27 01:48:03.22	16.86	7.24	-42.0	-50.8	4.1	8.42e-01	0	57	0	0	56	9421
2026-01-27 01:48:07.26	16.87	7.56	-40.9	-46.5	6.2	3.71e-01	0	57	0	3145728	53	6803
2026-01-27 01:48:11.30	16.89	7.88	-38.9	-42.0	10.7	5.29e-03	0	57	0	26214400	49	5138
2026-01-27 01:48:15.35	16.90	8.20	-40.7	-45.8	6.7	7.99e-01	0	58	0	46137344	53	6297
2026-01-27 01:48:19.38	16.91	8.53	-39.0	-41.6	11.9	5.21e-04	0	58	0	63963136	49	4919
2026-01-27 01:48:23.42	16.93	8.86	-39.0	-41.6	12.1	3.80e-04	0	58	0	87031808	49	4883
2026-01-27 01:48:27.47	16.94	9.20	-38.7	-41.1	12.7	2.13e-04	0	58	0	109051904	49	4648
2026-01-27 01:48:31.50	16.96	9.54	-39.5	-42.2	11.8	5.31e-04	0	58	0	132120576	49	5231
2026-01-27 01:48:35.54	16.97	9.88	-39.1	-41.6	12.5	1.54e-04	0	58	0	155189248	49	4887
2026-01-27 01:48:39.58	16.98	10.23	-38.9	-41.3	12.8	6.98e-05	0	59	0	178257920	49	4743
2026-01-27 01:48:43.62	17.00	10.59	-38.8	-41.1	13.2	5.03e-05	0	58	0	200278016	49	4625
2026-01-27 01:48:47.66	17.01	10.95	-38.7	-40.8	13.5	1.94e-05	0	59	0	223346688	49	4493
2026-01-27 01:48:51.70	17.03	11.32	-38.8	-41.1	13.4	3.54e-05	0	59	0	246415360	49	4600
2026-01-27 01:48:55.74	17.04	11.69	-38.8	-41.0	13.5	1.25e-05	0	59	0	268435456	49	4550
2026-01-27 01:48:59.78	17.05	12.07	-38.6	-40.7	13.8	1.02e-05	0	59	0	291504128	49	4434
2026-01-27 01:49:03.82	17.07	12.45	-38.6	-40.8	13.8	8.00e-06	0	59	0	314572800	49	4447
2026-01-27 01:49:07.86	17.08	12.84	-38.5	-40.6	14.0	9.10e-06	0	59	0	336592896	49	4379
2026-01-27 01:49:11.90	17.09	13.24	-38.6	-40.7	13.9	4.50e-06	0	59	0	359661568	49	4409
2026-01-27 01:49:15.94	17.11	13.64	-38.4	-40.4	14.3	2.20e-06	0	59	0	382730240	48	4501
2026-01-27 01:49:19.99	17.12	14.05	-38.3	-40.3	14.4	2.20e-06	0	59	0	404750336	48	4458
2026-01-27 01:49:24.03	17.13	14.47	-38.2	-40.1	14.6	0.00e+00	0	60	0	427819008	48	4387
2026-01-27 01:49:28.07	17.14	14.89	-38.2	-40.1	14.7	0.00e+00	0	60	0	450887680	48	4370
2026-01-27 01:49:32.11	17.16	15.32	-38.0	-39.9	14.9	2.20e-06	0	60	0	473956352	48	4260
2026-01-27 01:49:36.16	17.17	15.76	-38.0	-39.9	15.0	1.10e-06	0	60	0	495976448	48	4252
2026-01-27 01:49:40.20	17.18	16.21	-37.7	-39.5	15.3	1.10e-06	0	60	0	519045120	47	4321
2026-01-27 01:49:44.24	17.19	16.67	-37.7	-39.5	15.3	1.10e-06	0	60	0	541065216	47	4318
2026-01-27 01:49:48.29	17.21	17.13	-37.6	-39.3	15.5	0.00e+00	0	60	0	564133888	47	4230
2026-01-27 01:49:52.33	17.22	17.61	-37.5	-39.2	15.7	0.00e+00	0	60	0	587202560	47	4173
2026-01-27 01:49:56.38	17.23	18.09	-37.3	-39.0	15.9	0.00e+00	0	60	0	610271232	46	4329
2026-01-27 01:50:00.42	17.24	18.58	-37.2	-38.8	16.1	0.00e+00	0	60	0	632291328	46	4216
2026-01-27 01:50:04.46	17.25	19.09	-36.9	-38.5	16.5	0.00e+00	0	60	0	655360000	45	4316
2026-01-27 01:50:08.50	17.26	19.60	-36.9	-38.4	16.6	0.00e+00	0	60	0	678428672	45	4286
2026-01-27 01:50:12.54	17.28	20.12	-36.7	-38.3	16.7	0.00e+00	0	61	0	700448768	45	4209
2026-01-27 01:50:16.58	17.29	20.66	-36.6	-38.1	16.9	0.00e+00	0	60	0	723517440	45	4118
2026-01-27 01:50:20.62	17.30	21.21	-36.5	-38.0	17.0	0.00e+00	0	60	0	746586112	45	4073
2026-01-27 01:50:24.67	17.31	21.77	-36.6	-38.1	16.9	0.00e+00	0	60	0	768606208	45	4106
2026-01-27 01:50:28.71	17.32	22.34	-36.5	-38.0	17.0	0.00e+00	0	61	0	791674880	45	4091
2026-01-27 01:50:32.75	17.33	22.93	-36.4	-37.9	17.2	0.00e+00	0	61	0	814743552	44	4266
2026-01-27 01:50:36.79	17.34	23.53	-36.2	-37.7	17.4	0.00e+00	0	61	0	836763648	44	4151
2026-01-27 01:50:40.82	17.35	24.14	-36.1	-37.5	17.6	0.00e+00	0	60	0	859832320	44	4091
2026-01-27 01:50:44.86	17.36	24.77	-36.1	-37.5	17.6	0.00e+00	0	61	0	882900992	44	4067
2026-01-27 01:50:48.91	17.37	25.41	-36.0	-37.4	17.7	0.00e+00	0	61	0	905969664	44	4026
2026-01-27 01:50:52.95	17.38	26.07	-36.1	-37.5	17.6	0.00e+00	0	61	0	927989760	44	4083
2026-01-27 01:50:56.99	17.39	26.75	-36.2	-37.6	17.5	0.00e+00	0	61	0	951058432	44	4124
2026-01-27 01:51:01.04	17.40	27.45	-36.0	-37.5	17.7	0.00e+00	0	61	0	973078528	44	4053
2026-01-27 01:51:05.08	17.40	28.16	-35.5	-36.9	18.1	0.00e+00	0	61	0	996147200	42	4244
2026-01-27 01:51:09.12	17.41	28.89	-35.8	-37.2	17.8	0.00e+00	0	61	0	1019215872	42	4395
2026-01-27 01:51:13.17	17.42	29.64	-35.9	-37.4	17.7	0.00e+00	0	61	0	1042284544	42	4497
2026-01-27 01:51:17.21	17.43	30.41	-36.0	-37.4	17.6	0.00e+00	0	61	0	1064304640	42	4521
2026-01-27 01:51:21.25	17.43	31.21	-36.1	-37.5	17.6	0.00e+00	0	61	0	1087373312	42	4571
2026-01-27 01:51:25.29	17.44	32.02	-35.8	-37.2	17.8	0.00e+00	0	61	0	1110441984	42	4440
2026-01-27 01:51:29.34	17.44	32.86	-35.4	-36.7	18.4	0.00e+00	0	61	0	1132462080	42	4177
2026-01-27 01:51:33.38	17.45	33.72	-35.6	-37.0	18.1	0.00e+00	0	61	0	1155530752	42	4301
2026-01-27 01:51:37.42	17.45	34.61	-35.7	-37.0	18.0	0.00e+00	0	61	0	1178599424	42	4336
2026-01-27 01:51:41.46	17.46	35.52	-35.4	-36.8	18.3	0.00e+00	0	61	0	1200619520	42	4195
2026-01-27 01:51:45.50	17.46	36.47	-35.4	-36.7	18.4	0.00e+00	0	61	0	1223688192	42	4174
2026-01-27 01:51:49.54	17.47	37.43	-35.0	-36.3	18.8	0.00e+00	0	61	0	1246756864	41	4202
2026-01-27 01:51:53.58	17.47	38.43	-35.2	-36.5	18.5	0.00e+00	0	61	0	1268776960	41	4330
2026-01-27 01:51:57.62	17.47	39.46	-35.2	-36.5	18.6	0.00e+00	0	61	0	1291845632	41	4311
2026-01-27 01:52:01.66	17.47	40.52	-35.5	-36.9	18.2	0.00e+00	0	61	0	1314914304	41	4504
2026-01-27 01:52:05.70	17.47	41.61	-35.5	-36.9	18.2	0.00e+00	0	61	0	1336934400	41	4507
2026-01-27 01:52:09.74	17.47	42.74	-35.8	-37.2	17.9	0.00e+00	0	61	0	1360003072	42	4432
2026-01-27 01:52:13.78	17.46	43.90	-35.8	-37.2	18.0	0.00e+00	0	61	0	1383071744	42	4418
2026-01-27 01:52:17.82	17.46	45.10	-36.0	-37.4	17.8	0.00e+00	0	61	0	1405091840	42	4521
2026-01-27 01:52:21.87	17.45	46.34	-36.2	-37.6	17.5	0.00e+00	0	61	0	1428160512	43	4363
2026-01-27 01:52:25.91	17.44	47.61	-35.8	-37.3	17.6	0.00e+00	0	62	0	1451229184	43	4233
2026-01-27 01:52:29.95	17.44	48.92	-35.6	-37.1	17.9	0.00e+00	0	62	0	1473249280	43	4102
2026-01-27 01:52:33.99	17.42	50.28	-36.2	-37.8	17.2	0.00e+00	0	62	0	1496317952	42	4728
2026-01-27 01:52:38.04	17.41	51.67	-36.6	-38.2	16.7	0.00e+00	0	62	0	1519386624	43	4682
2026-01-27 01:52:42.08	17.39	53.11	-36.7	-38.3	16.8	0.00e+00	0	61	0	1542455296	45	4210
2026-01-27 01:52:46.12	17.37	54.59	-37.1	-38.8	16.4	0.00e+00	0	61	0	1564475392	44	4725
2026-01-27 01:52:50.17	17.35	56.12	-36.9	-38.6	16.5	0.00e+00	0	61	0	1587544064	44	4613
2026-01-27 01:52:54.21	17.32	57.68	-36.7	-38.3	16.7	0.00e+00	0	62	0	1610612736	44	4482
2026-01-27 01:52:58.25	17.28	59.29	-36.4	-37.9	17.1	0.00e+00	0	61	0	1632632832	44	4290
2026-01-27 01:53:02.30	17.24	60.95	-35.7	-37.2	17.7	0.00e+00	0	62	0	1655701504	42	4405
2026-01-27 01:53:06.34	17.19	62.65	-35.5	-37.0	17.9	0.00e+00	0	62	0	1678770176	42	4301
2026-01-27 01:53:10.38	17.13	64.39	-35.1	-36.5	18.2	0.00e+00	0	62	0	1700790272	41	4335
2026-01-27 01:53:14.42	17.06	66.17	-35.0	-36.4	18.4	0.00e+00	0	62	0	1723858944	41	4255
2026-01-27 01:53:18.47	16.97	68.00	-34.8	-36.2	18.5	0.00e+00	0	62	0	1746927616	41	4186
2026-01-27 01:53:22.51	16.87	69.86	-34.7	-36.1	18.6	0.00e+00	0	62	0	1769996288	40	4364
2026-01-27 01:53:26.55	16.73	71.76	-34.4	-35.8	18.8	0.00e+00	0	62	0	1792016384	40	4218
2026-01-27 01:53:30.58	16.56	73.69	-34.0	-35.2	19.4	0.00e+00	0	61	0	1815085056	39	4191
2026-01-27 01:53:34.62	16.34	75.65	-34.2	-35.5	19.0	0.00e+00	0	62	0	1837105152	39	4327
2026-01-27 01:53:38.66	16.03	77.64	-33.8	-35.2	19.3	0.00e+00	0	62	0	1860173824	39	4153
2026-01-27 01:53:42.71	15.60	79.67	-33.5	-34.8	19.6	0.00e+00	0	61	0	1883242496	38	4221
2026-01-27 01:53:46.75	14.94	81.71	-33.2	-34.5	19.9	0.00e+00	0	62	0	1905262592	37	4306
2026-01-27 01:53:50.79	13.84	83.76	-32.5	-33.7	20.6	0.00e+00	0	62	0	1928331264	37	3932
2026-01-27 01:53:54.83	11.63	85.83	-33.1	-34.4	20.0	0.00e+00	0	62	0	1951399936	37	4252
2026-01-27 01:53:58.88	5.01	87.89	-33.6	-34.9	19.5	0.00e+00	0	62	0	1974468608	37	4504
2026-01-27 01:54:02.92	284.25	89.51	-34.0	-35.4	19.0	0.00e+00	0	62	0	1996488704	38	4496
2026-01-27 01:54:06.96	211.25	87.82	-33.7	-35.1	19.3	0.00e+00	0	62	0	2019557376	39	4100
2026-01-27 01:54:11.01	204.94	85.76	-32.8	-34.0	20.3	0.00e+00	0	62	0	2042626048	37	4083
2026-01-27 01:54:15.05	202.79	83.69	-32.8	-34.1	20.3	0.00e+00	0	62	0	2064646144	37	4113
2026-01-27 01:54:19.09	201.71	81.64	-32.7	-34.0	20.4	0.00e+00	0	62	0	2087714816	37	4053
2026-01-27 01:54:23.13	201.06	79.59	-32.8	-34.0	20.3	0.00e+00	0	62	0	2110783488	37	4092
2026-01-27 01:54:27.17	200.64	77.57	-33.2	-34.4	20.0	0.00e+00	0	62	0	2132803584	37	4286
2026-01-27 01:54:31.21	200.34	75.58	-33.7	-35.0	19.4	0.00e+00	0	62	0	2155872256	38	4332
2026-01-27 01:54:35.26	200.11	73.61	-33.9	-35.2	19.3	0.00e+00	0	62	0	2178940928	38	4423
2026-01-27 01:54:39.30	199.94	71.67	-34.4	-35.8	18.7	0.00e+00	0	62	0	2200961024	39	4486
2026-01-27 01:54:43.34	199.81	69.77	-34.6	-36.0	18.6	0.00e+00	0	62	0	2224029696	39	4593
2026-01-27 01:54:47.39	199.70	67.90	-34.6	-35.9	18.7	0.00e+00	0	62	0	2247098368	39	4544
2026-01-27 01:54:51.43	199.61	66.08	-34.5	-35.9	18.7	0.00e+00	0	62	0	2269118464	39	4494
2026-01-27 01:54:55.47	199.54	64.29	-34.7	-36.0	18.6	0.00e+00	0	62	0	2292187136	40	4340
2026-01-27 01:54:59.51	199.48	62.55	-34.8	-36.1	18.6	0.00e+00	0	62	0	2315255808	40	4381
2026-01-27 01:55:03.56	199.43	60.84	-34.7	-36.1	18.6	0.00e+00	0	62	0	2338324480	40	4342
2026-01-27 01:55:07.60	199.39	59.19	-35.1	-36.5	18.2	0.00e+00	0	62	0	2360344576	40	4559
2026-01-27 01:55:11.65	199.35	57.57	-35.6	-37.1	17.6	0.00e+00	0	62	0	2383413248	41	4633
2026-01-27 01:55:15.69	199.32	56.00	-36.1	-37.7	17.1	0.00e+00	0	62	0	2406481920	42	4660
2026-01-27 01:55:19.73	199.30	54.48	-36.2	-37.8	16.9	0.00e+00	0	62	0	2428502016	43	4476
2026-01-27 01:55:23.77	199.28	52.99	-36.1	-37.6	17.1	0.00e+00	0	62	0	2451570688	43	4380
2026-01-27 01:55:27.81	199.26	51.55	-35.9	-37.4	17.3	0.00e+00	0	62	0	2474639360	43	4282
2026-01-27 01:55:31.85	199.24	50.16	-35.4	-36.8	17.9	0.00e+00	0	62	0	2496659456	42	4209
2026-01-27 01:55:35.89	199.23	48.80	-35.4	-36.9	17.9	0.00e+00	0	62	0	2519728128	42	4256
2026-01-27 01:55:39.94	199.22	47.48	-35.2	-36.6	18.1	0.00e+00	0	62	0	2542796800	42	4104
2026-01-27 01:55:43.98	199.21	46.21	-35.3	-36.8	18.0	0.00e+00	0	62	0	2564816896	42	4200
2026-01-27 01:55:48.02	199.20	44.97	-35.1	-36.5	18.1	0.00e+00	0	62	0	2587885568	42	4094
2026-01-27 01:55:52.07	199.20	43.76	-35.0	-36.4	18.2	0.00e+00	0	62	0	2610954240	42	4039
2026-01-27 01:55:56.11	199.19	42.60	-35.4	-36.9	17.7	0.00e+00	0	62	0	2634022912	42	4266
2026-01-27 01:56:00.15	199.19	41.47	-35.3	-36.8	17.9	0.00e+00	0	62	0	2656043008	42	4194
2026-01-27 01:56:04.19	199.19	40.38	-34.8	-36.2	18.4	0.00e+00	0	62	0	2679111680	41	4159
2026-01-27 01:56:08.23	199.19	39.31	-34.6	-36.0	18.5	0.00e+00	0	62	0	2701131776	41	4092
2026-01-27 01:56:12.27	199.19	38.28	-34.4	-35.8	18.8	0.00e+00	0	62	0	2724200448	40	4203
2026-01-27 01:56:16.32	199.19	37.28	-34.3	-35.7	18.8	0.00e+00	0	62	0	2747269120	40	4158
2026-01-27 01:56:20.36	199.19	36.31	-34.8	-36.3	18.3	0.00e+00	0	62	0	2770337792	40	4460
2026-01-27 01:56:24.40	199.19	35.37	-34.8	-36.2	18.3	0.00e+00	0	62	0	2792357888	40	4435
2026-01-27 01:56:28.44	199.19	34.45	-34.5	-35.9	18.6	0.00e+00	0	62	0	2815426560	40	4253
2026-01-27 01:56:32.48	199.20	33.56	-34.8	-36.2	18.3	0.00e+00	0	62	0	2838495232	40	4419
2026-01-27 01:56:36.52	199.20	32.70	-35.1	-36.5	18.0	0.00e+00	0	62	0	2860515328	40	4588
2026-01-27 01:56:40.57	199.20	31.86	-35.5	-37.0	17.5	0.00e+00	0	62	0	2883584000	41	4586
2026-01-27 01:56:44.61	199.21	31.04	-35.7	-37.3	17.3	0.00e+00	0	62	0	2906652672	41	4728
2026-01-27 01:56:48.65	199.21	30.25	-35.7	-37.3	17.2	0.00e+00	0	62	0	2928672768	42	4486
2026-01-27 01:56:52.69	199.22	29.47	-35.6	-37.2	17.4	0.00e+00	0	62	0	2951741440	42	4416
2026-01-27 01:56:56.74	199.22	28.72	-35.4	-36.8	17.7	0.00e+00	0	62	0	2974810112	42	4241
2026-01-27 01:57:00.78	199.23	27.99	-35.3	-36.8	17.8	0.00e+00	0	62	0	2996830208	42	4197
2026-01-27 01:57:04.82	199.23	27.27	-35.0	-36.4	18.1	0.00e+00	0	62	0	3019898880	42	4046
2026-01-27 01:57:08.87	199.24	26.57	-35.1	-36.6	17.9	0.00e+00	0	62	0	3042967552	41	4366
2026-01-27 01:57:12.91	199.25	25.90	-35.0	-36.5	18.0	0.00e+00	0	62	0	3064987648	41	4326
2026-01-27 01:57:16.95	199.25	25.24	-35.2	-36.7	17.7	0.00e+00	0	62	0	3088056320	41	4428
2026-01-27 01:57:20.99	199.26	24.59	-35.4	-36.9	17.6	0.00e+00	0	62	0	3111124992	41	4514
2026-01-27 01:57:25.04	199.27	23.96	-35.4	-37.0	17.5	0.00e+00	0	62	0	3133145088	41	4554
2026-01-27 01:57:29.08	199.27	23.34	-35.5	-37.1	17.4	0.00e+00	0	62	0	3156213760	41	4599
2026-01-27 01:57:33.12	199.28	22.74	-35.7	-37.2	17.2	0.00e+00	0	62	0	3179282432	41	4688
2026-01-27 01:57:37.16	199.29	22.16	-35.9	-37.5	17.0	0.00e+00	0	62	0	3202351104	42	4561
2026-01-27 01:57:41.21	199.30	21.58	-36.1	-37.7	16.8	0.00e+00	0	62	0	3224371200	42	4691
2026-01-27 01:57:45.25	199.31	21.02	-36.2	-37.8	16.7	0.00e+00	0	62	0	3247439872	42	4747
2026-01-27 01:57:49.29	199.31	20.47	-36.3	-38.0	16.5	0.00e+00	0	62	0	3269459968	43	4551
2026-01-27 01:57:53.33	199.32	19.94	-36.5	-38.2	16.3	0.00e+00	0	62	0	3292528640	43	4683
2026-01-27 01:57:57.37	199.33	19.41	-36.5	-38.3	16.2	0.00e+00	0	62	0	3315597312	43	4714
2026-01-27 01:58:01.41	199.34	18.90	-36.6	-38.4	16.1	0.00e+00	0	62	0	3338665984	43	4769
2026-01-27 01:58:05.46	199.35	18.39	-37.0	-38.8	15.9	0.00e+00	0	62	0	3360686080	44	4710
2026-01-27 01:58:09.50	199.36	17.90	-37.0	-38.8	15.8	0.00e+00	0	62	0	3383754752	44	4755
2026-01-27 01:58:13.54	199.37	17.41	-37.2	-39.0	15.6	0.00e+00	0	62	0	3406823424	45	4580
2026-01-27 01:58:17.58	199.37	16.94	-37.3	-39.2	15.5	0.00e+00	0	62	0	3428843520	45	4654
2026-01-27 01:58:21.63	199.38	16.47	-37.3	-39.1	15.5	0.00e+00	0	62	0	3451912192	45	4646
2026-01-27 01:58:25.67	199.39	16.02	-37.4	-39.3	15.3	0.00e+00	0	62	0	3474980864	45	4748
2026-01-27 01:58:29.71	199.40	15.57	-37.4	-39.3	15.3	0.00e+00	0	62	0	3497000960	45	4746
2026-01-27 01:58:33.75	199.41	15.13	-37.5	-39.4	15.1	0.00e+00	0	62	0	3520069632	45	4813
2026-01-27 01:58:37.79	199.42	14.70	-37.6	-39.6	14.9	2.20e-06	0	62	0	3543138304	45	4903
2026-01-27 01:58:41.83	199.43	14.27	-37.6	-39.5	15.0	0.00e+00	0	62	0	3565158400	45	4845
2026-01-27 01:58:45.87	199.44	13.85	-37.6	-39.6	14.9	0.00e+00	0	62	0	3588227072	45	4886
2026-01-27 01:58:49.91	199.45	13.44	-37.6	-39.6	14.9	0.00e+00	0	62	0	3611295744	45	4900
2026-01-27 01:58:53.95	199.46	13.04	-37.7	-39.7	14.8	0.00e+00	0	62	0	3633315840	46	4682
2026-01-27 01:58:57.99	199.47	12.64	-37.8	-39.8	14.7	0.00e+00	0	62	0	3656384512	46	4720
2026-01-27 01:59:02.03	199.48	12.25	-37.9	-39.9	14.6	0.00e+00	0	62	0	3679453184	46	4771
2026-01-27 01:59:06.07	199.49	11.87	-38.0	-40.0	14.4	2.20e-06	0	62	0	3701473280	46	4833
2026-01-27 01:59:10.11	199.50	11.49	-37.9	-40.0	14.4	1.10e-06	0	62	0	3724541952	46	4816
2026-01-27 01:59:14.15	199.50	11.12	-38.1	-40.2	14.2	0.00e+00	0	62	0	3747610624	46	4933
2026-01-27 01:59:18.19	199.51	10.75	-38.1	-40.2	14.1	4.50e-06	0	62	0	3769630720	46	4972
2026-01-27 01:59:22.23	199.52	10.39	-38.2	-40.3	14.0	4.50e-06	0	62	0	3792699392	47	4753
2026-01-27 01:59:26.27	199.53	10.03	-38.2	-40.4	13.8	2.20e-06	0	62	0	3815768064	47	4806
2026-01-27 01:59:30.32	199.54	9.68	-38.3	-40.5	13.7	1.25e-05	0	62	0	3838836736	47	4867
2026-01-27 01:59:34.36	199.55	9.33	-38.4	-40.6	13.5	1.48e-05	0	62	0	3860856832	47	4924
2026-01-27 01:59:38.40	199.56	8.99	-38.5	-40.9	13.3	2.74e-05	0	62	0	3883925504	47	5045
2026-01-27 01:59:42.45	199.57	8.65	-38.5	-40.8	13.2	2.97e-05	0	62	0	3905945600	47	5026
2026-01-27 01:59:46.49	199.58	8.32	-38.7	-41.1	12.9	6.52e-05	0	62	0	3929014272	47	5176
2026-01-27 01:59:50.52	199.59	7.99	-40.6	-44.1	10.4	6.29e-04	0	62	0	3952082944	51	5792
2026-01-27 01:59:54.57	199.60	7.67	-44.9	-56.6	3.8	8.44e-01	0	62	104	3954180096	60	14675
2026-01-27 01:59:58.61	199.61	7.35	-45.1	-56.7	3.8	8.46e-01	0	62	104	3954180096	60	14802
2026-01-27 02:00:02.65	199.62	7.03	-44.9	-56.6	3.8	8.47e-01	0	62	104	3954180096	60	14591
2026-01-27 02:00:06.69	199.63	6.72	-44.9	-56.5	3.8	8.47e-01	0	62	104	3954180096	60	14479
2026-01-27 02:00:10.73	199.64	6.41	-44.9	-56.5	3.8	8.46e-01	0	62	104	3954180096	60	14458
2026-01-27 02:00:14.78	199.65	6.11	-44.9	-56.5	3.8	8.46e-01	0	62	104	3954180096	60	14392
2026-01-27 02:00:18.82	199.66	5.81	-44.8	-56.4	3.8	8.46e-01	0	62	104	3954180096	60	14370
2026-01-27 02:00:22.86	199.67	5.51	-44.8	-56.5	3.8	8.46e-01	0	62	104	3954180096	60	14388
2026-01-27 02:00:26.90	199.68	5.22	-44.8	-56.4	3.8	8.46e-01	0	62	104	3954180096	60	14364
2026-01-27 02:00:30.94	199.69	4.92	-44.8	-56.4	3.8	8.45e-01	0	62	104	3954180096	60	14362
2026-01-27 02:00:34.98	199.70	4.64	-44.8	-56.4	3.8	8.47e-01	0	62	104	3954180096	60	14310
2026-01-27 02:00:39.02	199.71	4.35	-44.8	-56.4	3.8	8.47e-01	0	62	104	3954180096	60	14308
2026-01-27 02:00:43.07	199.72	4.07	-44.8	-56.4	3.8	8.46e-01	0	62	104	3954180096	60	14305
2026-01-27 02:00:47.11	199.73	3.79	-44.8	-56.4	3.8	8.46e-01	0	62	104	3954180096	60	14244
2026-01-27 02:00:51.15	199.74	3.51	-44.8	-56.5	3.8	8.47e-01	0	62	104	3954180096	60	14387
2026-01-27 02:00:55.19	199.75	3.24	-44.8	-56.5	3.8	8.48e-01	0	62	104	3954180096	60	14376
2026-01-27 02:00:59.23	199.76	2.97	-44.8	-56.4	3.8	8.46e-01	0	62	104	3954180096	60	14324
2026-01-27 02:01:03.27	199.77	2.70	-44.8	-56.4	3.8	8.46e-01	0	62	104	3954180096	60	14304
2026-01-27 02:01:07.31	199.78	2.44	-44.8	-56.4	3.8	8.45e-01	0	62	104	3954180096	60	14244
2026-01-27 02:01:11.36	199.79	2.17	-44.8	-56.4	3.8	8.47e-01	0	62	104	3954180096	60	14239
2026-01-27 02:01:15.40	199.80	1.91	-44.8	-56.4	3.8	8.47e-01	0	62	104	3954180096	60	14337

#Closed at: 2026-01-27 02:01:16
#Recorded file [3954 MB]: D:/lorett/data/31039_260127_044650.dat