passes_logs/2026/01/27/R2.0S_Moscow/R2.0S_Moscow__20260127_095920_FENGYUN_3D_rec.log

#Pass ID: 20260127_095920_FENGYUN 3D
#Satellite: FENGYUN 3D
#Configuration: FENGYUN 3D
#almurnet v.1.7.20251203
#Start time: 2026-01-27 10:01:06

#Version: 2.2.20231116
#Station: R2.0S_Moscow
#Location: 37.707566 lon 55.798166 lat
#TLE: 1 43010U 17072A   26026.91415486  .00000072  00000+0  55983-4 0  9991
#TLE: 2 43010  98.9962 358.9161 0002508  89.0320 271.1142 14.19700283424949

#Time	Az	El	Level	Level2	SNR	BER	BlckErr	Temp	State	Recorded	gain1	gain2
2026-01-27 10:01:06.90	91.25	7.90	-46.0	-64.6	3.8	7.46e-01	0	62	0	0	62	32575
2026-01-27 10:01:09.92	90.89	8.07	-45.5	-57.3	3.8	8.46e-01	0	63	104	0	62	14099
2026-01-27 10:01:12.96	90.53	8.25	-44.4	-57.1	3.8	8.46e-01	0	63	104	0	60	15469
2026-01-27 10:01:15.99	90.16	8.42	-44.0	-55.8	3.8	8.46e-01	0	63	104	0	60	13310
2026-01-27 10:01:19.02	89.79	8.59	-40.4	-51.9	3.8	8.47e-01	0	63	104	0	52	13563
2026-01-27 10:01:22.06	89.41	8.76	-40.4	-52.0	3.8	8.47e-01	0	63	104	0	52	13620
2026-01-27 10:01:25.09	89.03	8.94	-40.4	-52.1	3.8	8.46e-01	0	63	104	0	51	14550
2026-01-27 10:01:28.12	88.64	9.11	-39.9	-51.9	3.8	8.46e-01	0	63	104	0	51	14350
2026-01-27 10:01:31.15	88.25	9.28	-40.3	-52.0	3.8	8.45e-01	0	63	104	0	51	14451
2026-01-27 10:01:34.18	87.85	9.46	-40.4	-52.0	3.8	8.47e-01	0	63	104	0	51	14477
2026-01-27 10:01:37.21	87.45	9.63	-40.5	-52.0	3.8	8.45e-01	0	63	104	0	51	14497
2026-01-27 10:01:40.24	87.05	9.80	-40.4	-52.0	3.8	8.47e-01	0	63	104	0	51	14496
2026-01-27 10:01:43.27	86.63	9.97	-40.4	-52.0	3.8	8.47e-01	0	63	104	0	51	14499
2026-01-27 10:01:46.30	86.22	10.14	-40.4	-52.0	3.8	8.46e-01	0	63	104	0	51	14471
2026-01-27 10:01:49.33	85.80	10.32	-40.4	-52.0	3.8	8.46e-01	0	63	104	0	51	14499
2026-01-27 10:01:52.36	85.37	10.49	-40.4	-52.0	3.8	8.46e-01	0	63	104	0	51	14524
2026-01-27 10:01:55.39	84.94	10.66	-40.4	-52.0	3.8	8.48e-01	0	63	104	0	51	14481
2026-01-27 10:01:58.42	84.51	10.83	-40.4	-52.0	3.8	8.48e-01	0	63	104	0	51	14465
2026-01-27 10:02:01.45	84.07	11.00	-40.5	-52.1	3.8	8.46e-01	0	63	104	0	51	14629
2026-01-27 10:02:04.48	83.62	11.17	-40.4	-52.0	3.8	8.46e-01	0	63	104	0	52	13576
2026-01-27 10:02:07.51	83.17	11.34	-40.4	-52.0	3.8	8.46e-01	0	64	104	0	52	13698
2026-01-27 10:02:10.54	82.71	11.51	-40.5	-52.1	3.8	8.46e-01	0	63	104	0	51	14636
2026-01-27 10:02:13.57	82.25	11.67	-40.5	-52.0	3.8	8.46e-01	0	63	104	0	51	14510
2026-01-27 10:02:16.60	81.78	11.84	-40.5	-52.1	3.8	8.46e-01	0	63	104	0	51	14554
2026-01-27 10:02:19.63	81.31	12.01	-40.4	-52.1	3.8	8.47e-01	0	64	104	0	52	13730
2026-01-27 10:02:22.66	80.83	12.17	-40.6	-52.2	3.8	8.46e-01	0	64	104	0	52	13967
2026-01-27 10:02:25.70	80.34	12.34	-40.5	-52.0	3.8	8.46e-01	0	64	104	0	52	13716
2026-01-27 10:02:28.73	79.85	12.50	-40.6	-52.2	3.8	8.47e-01	0	63	104	0	52	13983
2026-01-27 10:02:31.75	79.36	12.67	-40.5	-52.1	3.8	8.46e-01	0	63	104	0	52	13789
2026-01-27 10:02:34.79	78.86	12.83	-41.1	-52.6	3.8	8.47e-01	0	63	104	0	52	14592
2026-01-27 10:02:37.81	78.36	12.99	-40.5	-52.1	3.8	8.48e-01	0	64	104	0	52	13729
2026-01-27 10:02:40.84	77.84	13.15	-40.7	-52.3	3.8	8.47e-01	0	63	104	0	52	14062
2026-01-27 10:02:43.87	77.33	13.31	-41.4	-52.4	3.8	8.46e-01	0	63	104	0	53	13527
2026-01-27 10:02:46.90	76.80	13.46	-41.4	-52.4	3.8	8.46e-01	0	63	104	0	53	13461
2026-01-27 10:02:49.93	76.28	13.62	-41.1	-52.5	3.8	8.47e-01	0	64	104	0	53	13683
2026-01-27 10:02:52.96	75.74	13.77	-40.9	-50.9	3.8	8.45e-01	0	63	104	0	53	11403
2026-01-27 10:02:55.99	75.20	13.93	-41.1	-52.5	3.8	8.46e-01	0	64	104	0	53	13652
2026-01-27 10:02:59.02	74.66	14.08	-40.6	-48.0	4.6	8.31e-01	0	63	0	0	53	8162
2026-01-27 10:03:02.05	74.11	14.23	-40.4	-46.5	5.6	6.27e-01	0	63	0	1048576	52	7271
2026-01-27 10:03:05.08	73.55	14.37	-40.2	-46.5	5.5	5.36e-01	0	63	0	14680064	52	7267
2026-01-27 10:03:08.11	72.99	14.52	-41.4	-52.1	3.8	8.33e-01	0	63	104	24117248	53	12964
2026-01-27 10:03:11.14	72.42	14.66	-39.2	-43.9	7.4	1.20e-01	0	64	0	32505856	50	6060
2026-01-27 10:03:14.17	71.85	14.81	-39.2	-43.9	7.5	1.34e-01	0	63	0	50331648	50	6020
2026-01-27 10:03:17.20	71.27	14.95	-39.0	-43.2	8.4	5.51e-02	0	64	0	67108864	49	5877
2026-01-27 10:03:20.23	70.69	15.08	-38.8	-42.6	9.3	2.40e-02	0	63	0	83886080	49	5469
2026-01-27 10:03:23.26	70.10	15.22	-38.6	-41.9	10.3	7.99e-03	0	63	0	101711872	49	5075
2026-01-27 10:03:26.29	69.50	15.35	-38.5	-41.6	11.0	2.87e-03	0	63	0	118489088	48	5164
2026-01-27 10:03:29.32	68.90	15.48	-38.1	-40.6	12.4	2.55e-04	0	63	0	135266304	48	4638
2026-01-27 10:03:32.35	68.30	15.61	-37.8	-40.1	13.2	4.46e-05	0	63	0	152043520	47	4644
2026-01-27 10:03:35.38	67.69	15.74	-37.3	-39.4	14.3	2.20e-06	0	63	0	168820736	46	4529
2026-01-27 10:03:38.41	67.07	15.86	-37.2	-39.2	14.7	2.20e-06	0	63	0	186646528	46	4422
2026-01-27 10:03:41.45	66.45	15.98	-37.2	-39.1	15.0	0.00e+00	0	64	0	203423744	46	4364
2026-01-27 10:03:44.48	65.82	16.10	-37.1	-39.0	15.3	0.00e+00	0	63	0	220200960	46	4296
2026-01-27 10:03:47.51	65.19	16.21	-37.2	-39.1	15.3	0.00e+00	0	63	0	238026752	46	4354
2026-01-27 10:03:50.54	64.56	16.32	-36.9	-38.7	15.7	0.00e+00	0	64	0	254803968	45	4411
2026-01-27 10:03:53.58	63.91	16.43	-37.0	-38.9	15.5	0.00e+00	0	63	0	271581184	45	4505
2026-01-27 10:03:56.61	63.27	16.54	-37.3	-39.1	15.3	0.00e+00	0	64	0	288358400	45	4643
2026-01-27 10:03:59.64	62.62	16.64	-37.2	-39.1	15.4	1.10e-06	0	63	0	305135616	45	4632
2026-01-27 10:04:02.67	61.97	16.74	-37.0	-38.8	15.7	0.00e+00	0	64	0	322961408	45	4481
2026-01-27 10:04:05.70	61.31	16.83	-37.1	-38.9	15.7	0.00e+00	0	63	0	339738624	45	4519
2026-01-27 10:04:08.73	60.65	16.92	-37.2	-39.0	15.6	0.00e+00	0	63	0	356515840	45	4567
2026-01-27 10:04:11.76	59.98	17.01	-37.1	-38.8	15.8	0.00e+00	0	63	0	374341632	45	4490
2026-01-27 10:04:14.79	59.31	17.10	-37.0	-38.8	15.8	0.00e+00	0	63	0	391118848	45	4461
2026-01-27 10:04:17.82	58.64	17.18	-36.9	-38.7	15.9	0.00e+00	0	63	0	407896064	45	4418
2026-01-27 10:04:20.85	57.96	17.25	-37.0	-38.6	16.3	0.00e+00	0	64	0	424673280	45	4365
2026-01-27 10:04:23.89	57.28	17.33	-36.9	-38.5	16.4	0.00e+00	0	63	0	442499072	45	4296
2026-01-27 10:04:26.92	56.60	17.40	-36.9	-38.5	16.4	0.00e+00	0	63	0	459276288	45	4327
2026-01-27 10:04:29.94	55.92	17.46	-37.0	-38.6	16.3	0.00e+00	0	63	0	476053504	45	4346
2026-01-27 10:04:32.97	55.23	17.52	-36.8	-38.3	16.6	0.00e+00	0	63	0	492830720	45	4230
2026-01-27 10:04:36.00	54.53	17.58	-36.8	-38.4	16.6	0.00e+00	0	63	0	509607936	45	4243
2026-01-27 10:04:39.03	53.84	17.63	-36.8	-38.4	16.5	0.00e+00	0	64	0	527433728	45	4256
2026-01-27 10:04:42.07	53.14	17.68	-36.9	-38.5	16.4	0.00e+00	0	63	0	544210944	45	4310
2026-01-27 10:04:45.10	52.44	17.72	-37.0	-38.6	16.4	0.00e+00	0	63	0	560988160	45	4352
2026-01-27 10:04:48.13	51.74	17.76	-36.8	-38.4	16.6	0.00e+00	0	63	0	578813952	45	4266
2026-01-27 10:04:51.16	51.04	17.80	-36.8	-38.4	16.6	0.00e+00	0	63	0	595591168	45	4252
2026-01-27 10:04:54.19	50.34	17.83	-36.6	-38.1	16.9	0.00e+00	0	63	0	612368384	45	4130
2026-01-27 10:04:57.22	49.63	17.86	-36.5	-37.9	17.0	0.00e+00	0	63	0	629145600	44	4289
2026-01-27 10:05:00.25	48.93	17.88	-36.5	-37.9	17.0	0.00e+00	0	64	0	646971392	44	4290
2026-01-27 10:05:03.29	48.22	17.90	-36.6	-38.1	16.9	0.00e+00	0	63	0	663748608	44	4383
2026-01-27 10:05:06.32	47.51	17.91	-36.7	-38.3	16.7	0.00e+00	0	63	0	680525824	44	4450
2026-01-27 10:05:09.35	46.80	17.92	-36.9	-38.5	16.5	0.00e+00	0	63	0	697303040	44	4584
2026-01-27 10:05:12.38	46.09	17.92	-37.0	-38.6	16.4	0.00e+00	0	63	0	715128832	44	4623
2026-01-27 10:05:15.41	45.38	17.92	-36.9	-38.5	16.5	0.00e+00	0	64	0	731906048	44	4580
2026-01-27 10:05:18.44	44.67	17.92	-36.8	-38.3	16.6	0.00e+00	0	64	0	748683264	44	4485
2026-01-27 10:05:21.47	43.97	17.91	-36.5	-38.0	17.0	0.00e+00	0	63	0	766509056	44	4334
2026-01-27 10:05:24.50	43.26	17.89	-36.7	-38.2	16.7	0.00e+00	0	63	0	783286272	44	4436
2026-01-27 10:05:27.53	42.55	17.88	-36.7	-38.2	16.8	0.00e+00	0	63	0	800063488	44	4436
2026-01-27 10:05:30.56	41.85	17.85	-36.6	-38.1	16.9	0.00e+00	0	63	0	816840704	44	4367
2026-01-27 10:05:33.59	41.14	17.83	-36.7	-38.3	16.7	0.00e+00	0	63	0	833617920	44	4446
2026-01-27 10:05:36.62	40.44	17.79	-37.0	-38.5	16.5	0.00e+00	0	63	0	851443712	44	4589
2026-01-27 10:05:39.65	39.74	17.76	-36.8	-38.4	16.6	0.00e+00	0	63	0	868220928	44	4518
2026-01-27 10:05:42.68	39.04	17.72	-36.8	-38.3	16.7	0.00e+00	0	63	0	884998144	44	4489
2026-01-27 10:05:45.71	38.34	17.67	-36.7	-38.3	16.7	0.00e+00	0	63	0	902823936	44	4452
2026-01-27 10:05:48.74	37.64	17.62	-36.8	-38.3	16.7	0.00e+00	0	63	0	919601152	44	4492
2026-01-27 10:05:51.78	36.95	17.57	-36.9	-38.5	16.5	0.00e+00	0	63	0	936378368	44	4559
2026-01-27 10:05:54.81	36.26	17.51	-36.9	-38.4	16.6	0.00e+00	0	63	0	953155584	44	4532
2026-01-27 10:05:57.84	35.57	17.45	-37.0	-38.6	16.4	0.00e+00	0	63	0	970981376	44	4602
2026-01-27 10:06:00.87	34.89	17.39	-37.1	-38.7	16.3	0.00e+00	0	63	0	987758592	44	4674
2026-01-27 10:06:03.90	34.20	17.32	-37.0	-38.6	16.3	0.00e+00	0	63	0	1004535808	44	4647
2026-01-27 10:06:06.93	33.53	17.24	-37.0	-38.6	16.4	0.00e+00	0	63	0	1021313024	44	4611
2026-01-27 10:06:09.96	32.85	17.17	-37.0	-38.6	16.4	0.00e+00	0	63	0	1039138816	44	4603
2026-01-27 10:06:13.00	32.18	17.09	-36.7	-38.3	16.7	0.00e+00	0	63	0	1055916032	44	4463
2026-01-27 10:06:16.03	31.51	17.00	-37.1	-38.8	16.2	0.00e+00	0	63	0	1072693248	44	4711
2026-01-27 10:06:19.05	30.85	16.91	-37.1	-38.7	16.3	0.00e+00	0	63	0	1089470464	44	4664
2026-01-27 10:06:22.08	30.19	16.82	-37.2	-38.8	16.1	0.00e+00	0	63	0	1107296256	44	4759
2026-01-27 10:06:25.11	29.53	16.73	-37.2	-38.8	16.1	0.00e+00	0	63	0	1124073472	45	4475
2026-01-27 10:06:28.14	28.88	16.63	-37.2	-38.9	16.0	0.00e+00	0	63	0	1140850688	45	4506
2026-01-27 10:06:31.17	28.24	16.53	-37.3	-39.0	15.9	0.00e+00	0	63	0	1157627904	45	4560
2026-01-27 10:06:34.21	27.59	16.42	-37.4	-39.1	15.8	0.00e+00	0	63	0	1175453696	45	4612
2026-01-27 10:06:37.24	26.95	16.31	-37.3	-39.0	15.9	0.00e+00	0	64	0	1192230912	45	4582
2026-01-27 10:06:40.27	26.32	16.20	-37.3	-39.0	15.9	0.00e+00	0	63	0	1209008128	45	4581
2026-01-27 10:06:43.30	25.69	16.09	-37.5	-39.2	15.7	0.00e+00	0	64	0	1225785344	45	4681
2026-01-27 10:06:46.33	25.07	15.97	-37.3	-39.0	15.9	0.00e+00	0	63	0	1243611136	45	4585
2026-01-27 10:06:49.36	24.45	15.85	-37.4	-39.1	15.8	0.00e+00	0	63	0	1260388352	45	4607
2026-01-27 10:06:52.38	23.84	15.73	-37.4	-39.1	15.8	0.00e+00	0	63	0	1277165568	45	4629
2026-01-27 10:06:55.42	23.23	15.60	-37.3	-39.0	15.8	0.00e+00	0	63	0	1294991360	45	4593
2026-01-27 10:06:58.45	22.63	15.47	-37.4	-39.1	15.7	0.00e+00	0	64	0	1311768576	45	4646
2026-01-27 10:07:01.48	22.03	15.34	-37.7	-39.4	15.4	0.00e+00	0	63	0	1328545792	45	4808
2026-01-27 10:07:04.51	21.44	15.21	-37.6	-39.4	15.4	0.00e+00	0	63	0	1345323008	45	4791
2026-01-27 10:07:07.54	20.85	15.07	-37.6	-39.4	15.5	0.00e+00	0	63	0	1362100224	45	4760
2026-01-27 10:07:10.57	20.27	14.93	-37.8	-39.7	15.2	0.00e+00	0	63	0	1379926016	46	4659
2026-01-27 10:07:13.60	19.70	14.80	-37.7	-39.5	15.3	1.10e-06	0	63	0	1396703232	46	4592
2026-01-27 10:07:16.63	19.13	14.65	-37.9	-39.7	15.1	0.00e+00	0	63	0	1413480448	46	4677
2026-01-27 10:07:19.67	18.56	14.51	-37.8	-39.6	15.1	0.00e+00	0	63	0	1431306240	46	4648
2026-01-27 10:07:22.70	18.00	14.36	-37.9	-39.7	15.0	0.00e+00	0	63	0	1448083456	46	4698
2026-01-27 10:07:25.73	17.45	14.22	-38.0	-39.9	14.9	1.10e-06	0	63	0	1464860672	46	4769
2026-01-27 10:07:28.76	16.90	14.07	-37.8	-39.7	15.1	0.00e+00	0	63	0	1481637888	46	4660
2026-01-27 10:07:31.79	16.36	13.92	-38.1	-40.0	14.8	3.40e-06	0	63	0	1499463680	46	4828
2026-01-27 10:07:34.82	15.82	13.76	-37.9	-39.8	14.9	0.00e+00	0	63	0	1516240896	46	4726
2026-01-27 10:07:37.85	15.29	13.61	-37.9	-39.8	14.8	1.10e-06	0	63	0	1533018112	46	4746
2026-01-27 10:07:40.89	14.76	13.45	-38.2	-40.1	14.5	1.10e-06	0	63	0	1549795328	46	4920
2026-01-27 10:07:43.92	14.25	13.30	-37.9	-39.9	14.8	0.00e+00	0	63	0	1567621120	46	4766
2026-01-27 10:07:46.95	13.73	13.14	-37.8	-39.7	14.9	1.10e-06	0	63	0	1584398336	46	4665
2026-01-27 10:07:49.98	13.22	12.98	-38.1	-40.1	14.5	0.00e+00	0	63	0	1601175552	46	4877
2026-01-27 10:07:53.01	12.72	12.82	-38.1	-40.2	14.2	2.20e-06	0	63	0	1619001344	46	4933
2026-01-27 10:07:56.04	12.22	12.66	-38.3	-40.4	13.9	6.80e-06	0	63	0	1635778560	47	4777
2026-01-27 10:07:59.07	11.73	12.49	-38.4	-40.7	13.5	1.48e-05	0	63	0	1652555776	47	4931
2026-01-27 10:08:02.11	11.24	12.33	-38.2	-40.4	13.5	1.37e-05	0	63	0	1669332992	47	4787
2026-01-27 10:08:05.14	10.76	12.17	-38.0	-40.3	13.2	5.26e-05	0	63	0	1686110208	47	4721
2026-01-27 10:08:08.17	10.29	12.00	-37.9	-40.2	13.2	3.77e-05	0	63	0	1703936000	47	4675
2026-01-27 10:08:11.20	9.82	11.84	-38.4	-40.9	12.1	2.54e-04	0	63	0	1720713216	47	5083
2026-01-27 10:08:14.23	9.35	11.67	-39.0	-42.0	10.8	1.96e-03	0	63	0	1737490432	48	5426
2026-01-27 10:08:17.26	8.90	11.50	-40.0	-44.4	8.0	6.40e-02	0	63	0	1755316224	50	6364
2026-01-27 10:08:20.29	8.44	11.33	-40.5	-46.3	6.0	3.16e-01	0	63	0	1772093440	51	7497
2026-01-27 10:08:23.32	7.99	11.16	-40.6	-48.3	4.5	8.12e-01	0	63	0	1776287744	52	8946
2026-01-27 10:08:26.35	7.55	10.99	-41.3	-49.8	4.1	8.33e-01	0	63	0	1776287744	54	9393
2026-01-27 10:08:29.38	7.11	10.83	-41.2	-51.7	3.8	8.46e-01	0	63	104	1776287744	53	12397
2026-01-27 10:08:32.41	6.68	10.66	-40.8	-52.1	3.8	8.45e-01	0	63	104	1776287744	53	13069
2026-01-27 10:08:35.43	6.26	10.49	-40.1	-51.7	3.8	8.46e-01	0	63	104	1776287744	51	13916
2026-01-27 10:08:38.46	5.83	10.31	-40.0	-51.6	3.8	8.47e-01	0	63	104	1776287744	51	13772
2026-01-27 10:08:41.49	5.42	10.14	-40.3	-51.8	3.8	8.48e-01	0	63	104	1776287744	52	13381
2026-01-27 10:08:44.52	5.00	9.97	-40.0	-51.6	3.8	8.47e-01	0	63	104	1776287744	51	13735
2026-01-27 10:08:47.56	4.59	9.80	-39.9	-51.5	3.8	8.46e-01	0	63	104	1776287744	51	13611
2026-01-27 10:08:50.59	4.19	9.63	-40.1	-51.7	3.8	8.46e-01	0	63	104	1776287744	51	13930
2026-01-27 10:08:53.62	3.79	9.46	-40.0	-51.6	3.8	8.46e-01	0	63	104	1776287744	51	13862
2026-01-27 10:08:56.65	3.40	9.28	-40.1	-51.6	3.8	8.46e-01	0	63	104	1776287744	51	13869
2026-01-27 10:08:59.68	3.01	9.11	-40.1	-51.7	3.8	8.48e-01	0	64	104	1776287744	51	13938
2026-01-27 10:09:02.71	2.63	8.94	-40.0	-51.6	3.8	8.46e-01	0	63	104	1776287744	51	13761
2026-01-27 10:09:05.74	2.25	8.77	-40.1	-51.6	3.8	8.46e-01	0	64	104	1776287744	51	13855
2026-01-27 10:09:08.77	1.88	8.59	-40.1	-51.6	3.8	8.44e-01	0	63	104	1776287744	51	13871
2026-01-27 10:09:11.80	1.51	8.42	-40.1	-51.6	3.8	8.46e-01	0	63	104	1776287744	51	13831
2026-01-27 10:09:14.82	1.14	8.25	-40.1	-51.6	3.8	8.47e-01	0	64	104	1776287744	51	13853
2026-01-27 10:09:17.86	0.78	8.08	-40.0	-51.5	3.8	8.45e-01	0	63	104	1776287744	51	13693
2026-01-27 10:09:20.89	0.43	7.91	-44.1	-55.7	3.8	8.47e-01	0	63	104	1776287744	58	14784
2026-01-27 10:09:23.92	0.07	7.73	-45.0	-56.9	3.8	8.46e-01	0	63	104	1776287744	60	15218
2026-01-27 10:09:26.95	359.73	7.56	-45.3	-57.1	3.8	8.46e-01	0	64	104	1776287744	61	14641
2026-01-27 10:09:29.98	359.38	7.39	-45.2	-57.0	3.8	8.46e-01	0	63	104	1776287744	61	14454
2026-01-27 10:09:33.01	359.04	7.22	-45.1	-56.8	3.8	8.47e-01	0	64	104	1776287744	60	14982
2026-01-27 10:09:36.04	358.71	7.05	-45.0	-56.7	3.8	8.46e-01	0	64	104	1776287744	60	14812
2026-01-27 10:09:39.08	358.37	6.88	-45.1	-56.7	3.8	8.46e-01	0	64	104	1776287744	60	14827
2026-01-27 10:09:42.11	358.05	6.70	-45.0	-56.7	3.8	8.47e-01	0	63	104	1776287744	60	14840
2026-01-27 10:09:45.14	357.72	6.53	-45.0	-56.7	3.8	8.46e-01	0	63	104	1776287744	60	14777
2026-01-27 10:09:48.17	357.40	6.36	-45.0	-56.7	3.8	8.47e-01	0	64	104	1776287744	60	14810
2026-01-27 10:09:51.20	357.09	6.19	-44.7	-56.7	3.8	8.47e-01	0	63	104	1776287744	60	14814
2026-01-27 10:09:54.23	356.78	6.02	-45.0	-56.7	3.8	8.46e-01	0	64	104	1776287744	60	14835
2026-01-27 10:09:57.26	356.47	5.85	-45.0	-56.7	3.8	8.46e-01	0	64	104	1776287744	60	14846
2026-01-27 10:10:00.29	356.16	5.69	-45.0	-56.7	3.8	8.46e-01	0	64	104	1776287744	60	14809
2026-01-27 10:10:03.32	355.86	5.52	-45.0	-56.7	3.8	8.46e-01	0	64	104	1776287744	60	14772
2026-01-27 10:10:06.36	355.57	5.35	-45.0	-56.7	3.8	8.44e-01	0	63	104	1776287744	60	14805
2026-01-27 10:10:09.39	355.27	5.18	-45.0	-56.7	3.8	8.47e-01	0	64	104	1776287744	60	14845
2026-01-27 10:10:12.42	354.98	5.01	-45.0	-56.7	3.8	8.46e-01	0	64	104	1776287744	60	14815
2026-01-27 10:10:15.44	354.70	4.85	-45.0	-56.7	3.8	8.46e-01	0	64	104	1776287744	60	14801
2026-01-27 10:10:18.47	354.41	4.68	-45.0	-56.7	3.8	8.47e-01	0	64	104	1776287744	60	14787
2026-01-27 10:10:21.51	354.13	4.51	-45.0	-56.7	3.8	8.45e-01	0	64	104	1776287744	60	14779
2026-01-27 10:10:24.54	353.86	4.35	-45.0	-56.7	3.8	8.47e-01	0	64	104	1776287744	60	14735
2026-01-27 10:10:27.57	353.58	4.18	-45.0	-56.7	3.8	8.46e-01	0	63	104	1776287744	60	14727
2026-01-27 10:10:30.60	353.31	4.01	-45.0	-56.7	3.8	8.46e-01	0	64	104	1776287744	60	14844
2026-01-27 10:10:33.63	353.05	3.85	-45.0	-56.7	3.8	8.46e-01	0	64	104	1776287744	60	14734
2026-01-27 10:10:36.66	352.78	3.68	-44.9	-56.6	3.8	8.45e-01	0	64	104	1776287744	60	14700
2026-01-27 10:10:39.69	352.52	3.52	-45.0	-56.6	3.8	8.46e-01	0	64	104	1776287744	60	14707
2026-01-27 10:10:42.72	352.26	3.36	-45.0	-56.7	3.8	8.46e-01	0	64	104	1776287744	60	14760
2026-01-27 10:10:45.75	352.01	3.19	-44.9	-56.7	3.8	8.47e-01	0	64	104	1776287744	60	14772
2026-01-27 10:10:48.78	351.76	3.03	-45.0	-56.6	3.8	8.46e-01	0	63	104	1776287744	60	14668
2026-01-27 10:10:51.81	351.51	2.87	-45.0	-56.7	3.8	8.47e-01	0	64	104	1776287744	60	14791
2026-01-27 10:10:54.84	351.26	2.71	-45.0	-56.6	3.8	8.46e-01	0	64	104	1776287744	60	14674
2026-01-27 10:10:57.88	351.02	2.54	-44.0	-56.5	3.8	8.46e-01	0	64	104	1776287744	59	15251
2026-01-27 10:11:00.91	350.78	2.38	-45.0	-56.6	3.8	8.47e-01	0	64	104	1776287744	60	14690
2026-01-27 10:11:03.94	350.54	2.22	-44.9	-56.7	3.8	8.46e-01	0	64	104	1776287744	60	14746
2026-01-27 10:11:06.97	350.30	2.06	-45.0	-56.6	3.8	8.45e-01	0	64	104	1776287744	60	14673

#Closed at: 2026-01-27 10:11:09
#Recorded file [1776 MB]: D:/lorett/data/31039_260127_130106.dat