passes_logs/2026/01/27/R2.0S_Moscow/R2.0S_Moscow__20260127_190450_FENGYUN_3G_rec.log

#Pass ID: 20260127_190450_FENGYUN 3G
#Satellite: FENGYUN 3G
#Configuration: FENGYUN 3G
#almurnet v.1.7.20251203
#Start time: 2026-01-27 19:04:51

#Version: 2.2.20231116
#Station: R2.0S_Moscow
#Location: 37.707566 lon 55.798166 lat
#TLE: 1 56232U 23055A   26026.81668957  .00042566  00000+0  63804-3 0  9995
#TLE: 2 56232  49.9949 354.9274 0004068  91.1881 268.9553 15.54453119158037

#Time	Az	El	Level	Level2	SNR	BER	BlckErr	Temp	State	Recorded	gain1	gain2
2026-01-27 19:04:51.67	259.28	2.09	-44.2	-62.5	3.8	8.46e-01	0	52	0	0	60	28729
2026-01-27 19:04:53.68	259.14	2.22	-44.2	-62.4	3.8	8.45e-01	0	53	104	0	60	28618
2026-01-27 19:04:55.71	259.00	2.35	-44.2	-62.4	3.8	8.46e-01	0	53	104	0	60	28662
2026-01-27 19:04:57.73	258.86	2.49	-44.2	-62.5	3.8	8.47e-01	0	53	104	0	60	28697
2026-01-27 19:04:59.75	258.72	2.62	-44.2	-62.4	3.8	8.46e-01	0	53	104	0	60	28602
2026-01-27 19:05:01.77	258.57	2.76	-44.2	-62.4	3.8	8.46e-01	0	53	104	0	60	28643
2026-01-27 19:05:03.79	258.42	2.89	-44.2	-62.5	3.8	8.45e-01	0	53	104	0	60	28695
2026-01-27 19:05:05.81	258.27	3.03	-44.2	-62.4	3.8	8.47e-01	0	53	104	0	60	28608
2026-01-27 19:05:07.83	258.12	3.17	-44.2	-62.4	3.8	8.45e-01	0	53	104	0	60	28569
2026-01-27 19:05:09.85	257.97	3.31	-44.2	-62.4	3.8	8.47e-01	0	54	104	0	60	28582
2026-01-27 19:05:11.87	257.81	3.44	-44.2	-62.4	3.8	8.46e-01	0	54	104	0	60	28620
2026-01-27 19:05:13.89	257.65	3.58	-44.2	-62.4	3.8	8.46e-01	0	54	104	0	60	28655
2026-01-27 19:05:15.91	257.49	3.73	-44.2	-62.4	3.8	8.46e-01	0	54	104	0	60	28567
2026-01-27 19:05:17.93	257.33	3.87	-44.2	-62.4	3.8	8.45e-01	0	54	104	0	60	28618
2026-01-27 19:05:19.96	257.16	4.01	-44.2	-62.4	3.8	8.46e-01	0	54	104	0	60	28671
2026-01-27 19:05:21.98	257.00	4.16	-44.2	-62.5	3.8	8.47e-01	0	54	104	0	60	28691
2026-01-27 19:05:24.00	256.82	4.30	-44.2	-62.4	3.8	8.46e-01	0	55	104	0	60	28652
2026-01-27 19:05:26.02	256.65	4.45	-44.2	-62.4	3.8	8.46e-01	0	55	104	0	60	28621
2026-01-27 19:05:28.04	256.48	4.59	-44.2	-62.4	3.8	8.47e-01	0	55	104	0	60	28648
2026-01-27 19:05:30.06	256.30	4.74	-44.2	-62.4	3.8	8.45e-01	0	55	104	0	60	28676
2026-01-27 19:05:32.08	256.12	4.89	-44.2	-62.4	3.8	8.46e-01	0	55	104	0	60	28645
2026-01-27 19:05:34.10	255.93	5.04	-44.2	-62.4	3.8	8.46e-01	0	55	104	0	60	28621
2026-01-27 19:05:36.12	255.75	5.19	-44.2	-62.4	3.8	8.45e-01	0	55	104	0	60	28638
2026-01-27 19:05:38.15	255.56	5.35	-44.2	-62.4	3.8	8.46e-01	0	55	104	0	60	28596
2026-01-27 19:05:40.17	255.37	5.50	-44.2	-62.4	3.8	8.45e-01	0	55	104	0	60	28567
2026-01-27 19:05:42.19	255.17	5.65	-44.2	-62.5	3.8	8.46e-01	0	55	104	0	60	28680
2026-01-27 19:05:44.21	254.97	5.81	-44.2	-62.5	3.8	8.46e-01	0	56	104	0	60	28681
2026-01-27 19:05:46.23	254.77	5.97	-44.2	-62.4	3.8	8.46e-01	0	56	104	0	60	28578
2026-01-27 19:05:48.25	254.57	6.13	-44.2	-62.4	3.8	8.45e-01	0	56	104	0	60	28632
2026-01-27 19:05:50.28	254.36	6.29	-44.2	-62.4	3.8	8.46e-01	0	56	104	0	60	28583
2026-01-27 19:05:52.30	254.15	6.45	-44.2	-62.4	3.8	8.46e-01	0	56	104	0	60	28451
2026-01-27 19:05:54.32	253.94	6.61	-44.2	-62.3	3.8	8.47e-01	0	56	104	0	60	28083
2026-01-27 19:05:56.34	253.72	6.77	-44.2	-62.2	3.8	8.46e-01	0	56	104	0	60	27942
2026-01-27 19:05:58.36	253.50	6.94	-44.2	-62.1	3.8	8.46e-01	0	56	104	0	60	27504
2026-01-27 19:06:00.38	253.27	7.10	-44.2	-62.1	3.8	8.46e-01	0	56	104	0	60	27442
2026-01-27 19:06:02.40	253.05	7.27	-44.2	-61.9	3.8	8.46e-01	0	56	104	0	60	26829
2026-01-27 19:06:04.42	252.81	7.44	-44.2	-62.1	3.8	8.46e-01	0	56	104	0	60	27684
2026-01-27 19:06:06.44	252.58	7.61	-44.2	-62.3	3.8	8.47e-01	0	57	104	0	60	28029
2026-01-27 19:06:08.47	252.34	7.78	-44.2	-62.3	3.8	8.47e-01	0	57	104	0	60	28153
2026-01-27 19:06:10.49	252.09	7.95	-44.2	-62.3	3.8	8.46e-01	0	57	104	0	60	28336
2026-01-27 19:06:12.51	251.84	8.13	-44.3	-62.4	3.8	8.45e-01	0	57	104	0	60	28477
2026-01-27 19:06:14.53	251.59	8.30	-44.3	-62.4	3.8	8.45e-01	0	57	104	0	60	28554
2026-01-27 19:06:16.55	251.34	8.48	-44.3	-62.3	3.8	8.47e-01	0	57	104	0	60	28341
2026-01-27 19:06:18.57	251.08	8.66	-44.3	-62.3	3.8	8.47e-01	0	57	104	0	60	28300
2026-01-27 19:06:20.59	250.81	8.84	-44.3	-62.2	3.8	8.46e-01	0	57	104	0	60	27905
2026-01-27 19:06:22.61	250.54	9.02	-44.3	-62.0	3.8	8.47e-01	0	57	104	0	60	27101
2026-01-27 19:06:24.63	250.27	9.20	-44.3	-62.4	3.8	8.46e-01	0	57	104	0	60	28596
2026-01-27 19:06:26.65	249.99	9.39	-44.3	-62.1	3.8	8.45e-01	0	57	104	0	60	27393
2026-01-27 19:06:28.67	249.70	9.58	-44.3	-62.0	3.8	8.46e-01	0	57	104	0	60	27097
2026-01-27 19:06:30.69	249.41	9.76	-44.3	-62.0	3.8	8.45e-01	0	57	104	0	60	27228
2026-01-27 19:06:32.71	249.12	9.95	-44.3	-62.2	3.8	8.45e-01	0	57	104	0	60	28008
2026-01-27 19:06:34.73	248.82	10.14	-44.4	-62.0	3.8	8.46e-01	0	57	104	0	60	27250
2026-01-27 19:06:36.75	248.51	10.34	-44.3	-62.0	3.8	8.46e-01	0	58	104	0	60	27131
2026-01-27 19:06:38.77	248.20	10.53	-44.3	-61.8	3.8	8.46e-01	0	58	104	0	60	26528
2026-01-27 19:06:40.79	247.88	10.73	-44.4	-61.9	3.8	8.47e-01	0	58	104	0	60	27069
2026-01-27 19:06:42.81	247.56	10.93	-44.5	-62.6	3.8	8.46e-01	0	58	104	0	60	29239
2026-01-27 19:06:44.83	247.23	11.12	-44.3	-62.4	3.8	8.46e-01	0	58	104	0	60	28602
2026-01-27 19:06:46.85	246.90	11.33	-44.4	-62.3	3.8	8.47e-01	0	58	104	0	60	28298
2026-01-27 19:06:48.87	246.56	11.53	-44.5	-62.6	3.8	8.45e-01	0	58	104	0	60	29264
2026-01-27 19:06:50.89	246.21	11.73	-44.5	-62.6	3.8	8.47e-01	0	58	104	0	60	29165
2026-01-27 19:06:52.91	245.85	11.94	-44.4	-62.6	3.8	8.47e-01	0	58	104	0	60	29339
2026-01-27 19:06:54.93	245.49	12.15	-44.5	-62.7	3.8	8.46e-01	0	58	104	0	60	29483
2026-01-27 19:06:56.95	245.13	12.36	-44.5	-62.6	3.8	8.46e-01	0	58	104	0	60	29292
2026-01-27 19:06:58.97	244.75	12.57	-44.5	-62.7	3.8	8.46e-01	0	58	104	0	60	29437
2026-01-27 19:07:00.99	244.37	12.78	-44.5	-62.7	3.8	8.47e-01	0	58	104	0	60	29361
2026-01-27 19:07:03.02	243.98	13.00	-44.6	-62.7	3.8	8.46e-01	0	59	104	0	60	29473
2026-01-27 19:07:05.04	243.58	13.22	-44.5	-62.7	3.8	8.46e-01	0	58	104	0	60	29629
2026-01-27 19:07:07.06	243.18	13.44	-44.6	-62.7	3.8	8.46e-01	0	58	104	0	60	29412
2026-01-27 19:07:09.08	242.76	13.66	-44.6	-62.8	3.8	8.46e-01	0	58	104	0	60	29709
2026-01-27 19:07:11.10	242.34	13.88	-44.6	-62.7	3.8	8.46e-01	0	59	104	0	60	29601
2026-01-27 19:07:13.12	241.91	14.10	-44.6	-62.7	3.8	8.46e-01	0	59	104	0	60	29548
2026-01-27 19:07:15.14	241.48	14.33	-44.6	-62.7	3.8	8.45e-01	0	59	104	0	60	29657
2026-01-27 19:07:17.16	241.03	14.56	-44.6	-62.7	3.8	8.46e-01	0	59	104	0	60	29463
2026-01-27 19:07:19.18	240.57	14.79	-44.7	-62.8	3.8	8.46e-01	0	59	104	0	60	29932
2026-01-27 19:07:21.20	240.11	15.02	-44.6	-62.7	3.8	8.47e-01	0	59	104	0	60	29623
2026-01-27 19:07:23.22	239.64	15.25	-44.7	-62.9	3.8	8.45e-01	0	59	104	0	60	30107
2026-01-27 19:07:25.24	239.15	15.48	-44.6	-62.8	3.8	8.48e-01	0	59	104	0	60	30028
2026-01-27 19:07:27.26	238.66	15.72	-44.7	-62.8	3.8	8.45e-01	0	59	104	0	60	29958
2026-01-27 19:07:29.28	238.15	15.96	-44.7	-62.8	3.8	8.46e-01	0	59	104	0	60	30020
2026-01-27 19:07:31.30	237.64	16.20	-44.7	-62.9	3.8	8.46e-01	0	59	104	0	60	30098
2026-01-27 19:07:33.32	237.12	16.44	-44.7	-62.9	3.8	8.46e-01	0	59	104	0	60	30137
2026-01-27 19:07:35.34	236.58	16.68	-44.8	-62.8	3.8	8.46e-01	0	59	104	0	60	29781
2026-01-27 19:07:37.36	236.04	16.92	-44.7	-62.9	3.8	8.47e-01	0	59	104	0	60	30169
2026-01-27 19:07:39.38	235.48	17.16	-44.8	-62.8	3.8	8.45e-01	0	59	104	0	60	30019
2026-01-27 19:07:41.40	234.91	17.41	-44.7	-62.9	3.8	8.46e-01	0	59	104	0	60	30214
2026-01-27 19:07:43.42	234.33	17.66	-44.8	-62.9	3.8	8.46e-01	0	59	104	0	60	30276
2026-01-27 19:07:45.44	233.74	17.90	-44.8	-62.9	3.8	8.46e-01	0	59	104	0	60	30253
2026-01-27 19:07:47.46	233.13	18.15	-44.8	-63.0	3.8	8.47e-01	0	59	104	0	60	30432
2026-01-27 19:07:49.48	232.52	18.40	-44.8	-62.9	3.8	8.47e-01	0	59	104	0	60	30152
2026-01-27 19:07:51.50	231.89	18.65	-44.8	-62.8	3.8	8.46e-01	0	59	104	0	60	29934
2026-01-27 19:07:53.52	231.24	18.90	-44.8	-62.9	3.8	8.47e-01	0	59	104	0	60	30242
2026-01-27 19:07:55.54	230.59	19.15	-44.8	-62.9	3.8	8.47e-01	0	60	104	0	60	30337
2026-01-27 19:07:57.56	229.92	19.40	-44.8	-62.9	3.8	8.47e-01	0	59	104	0	60	30157
2026-01-27 19:07:59.59	229.23	19.65	-44.9	-62.9	3.8	8.45e-01	0	59	104	0	60	30189
2026-01-27 19:08:01.61	228.54	19.90	-44.9	-62.9	3.8	8.46e-01	0	59	104	0	60	30102
2026-01-27 19:08:03.62	227.83	20.15	-44.9	-62.9	3.8	8.46e-01	0	59	104	0	60	30062
2026-01-27 19:08:05.64	227.11	20.40	-44.9	-63.0	3.8	8.47e-01	0	59	104	0	60	30527
2026-01-27 19:08:07.66	226.37	20.65	-44.9	-62.8	3.8	8.46e-01	0	60	104	0	60	30023
2026-01-27 19:08:09.68	225.61	20.90	-44.9	-62.9	3.8	8.47e-01	0	59	104	0	60	30123
2026-01-27 19:08:11.70	224.85	21.14	-44.9	-62.9	3.8	8.45e-01	0	60	104	0	60	30284
2026-01-27 19:08:13.72	224.06	21.39	-44.9	-62.9	3.8	8.46e-01	0	59	104	0	60	30191
2026-01-27 19:08:15.74	223.27	21.63	-45.0	-63.1	3.8	8.45e-01	0	60	104	0	60	30762
2026-01-27 19:08:17.76	222.45	21.87	-44.9	-63.0	3.8	8.47e-01	0	59	104	0	60	30532
2026-01-27 19:08:19.78	221.63	22.11	-45.0	-63.2	3.8	8.45e-01	0	60	104	0	60	31109
2026-01-27 19:08:21.80	220.78	22.35	-45.0	-63.0	3.8	8.46e-01	0	60	104	0	60	30599
2026-01-27 19:08:23.82	219.92	22.58	-45.0	-63.1	3.8	8.45e-01	0	60	104	0	60	31025
2026-01-27 19:08:25.84	219.05	22.81	-45.0	-63.1	3.8	8.46e-01	0	60	104	0	60	30806
2026-01-27 19:08:27.86	218.16	23.04	-45.1	-63.2	3.8	8.46e-01	0	60	104	0	60	31375
2026-01-27 19:08:29.88	217.26	23.26	-45.0	-63.1	3.8	8.46e-01	0	60	104	0	60	30923
2026-01-27 19:08:31.90	216.34	23.48	-45.1	-63.2	3.8	8.46e-01	0	60	104	0	60	31441
2026-01-27 19:08:33.92	215.40	23.69	-45.0	-63.1	3.8	8.46e-01	0	60	104	0	60	30989
2026-01-27 19:08:35.93	214.46	23.90	-45.0	-63.2	3.8	8.47e-01	0	60	104	0	60	31166
2026-01-27 19:08:37.95	213.49	24.10	-45.0	-63.2	3.8	8.46e-01	0	60	104	0	60	31135
2026-01-27 19:08:39.97	212.51	24.30	-45.0	-63.1	3.8	8.46e-01	0	60	104	0	60	30914
2026-01-27 19:08:41.99	211.52	24.49	-45.0	-63.2	3.8	8.46e-01	0	60	104	0	60	31115
2026-01-27 19:08:44.01	210.51	24.68	-45.0	-63.2	3.8	8.47e-01	0	60	104	0	60	31241
2026-01-27 19:08:46.04	209.49	24.86	-45.0	-63.1	3.8	8.46e-01	0	60	104	0	60	30893
2026-01-27 19:08:48.06	208.45	25.03	-45.0	-63.2	3.8	8.46e-01	0	60	104	0	60	31346
2026-01-27 19:08:50.08	207.41	25.19	-45.0	-63.2	3.8	8.46e-01	0	60	104	0	60	31241
2026-01-27 19:08:52.10	206.35	25.35	-45.0	-63.2	3.8	8.47e-01	0	60	104	0	60	31388
2026-01-27 19:08:54.12	205.28	25.50	-45.0	-63.1	3.8	8.46e-01	0	60	104	0	60	30994
2026-01-27 19:08:56.15	204.19	25.64	-45.0	-63.2	3.8	8.46e-01	0	60	104	0	60	31323
2026-01-27 19:08:58.17	203.10	25.77	-45.0	-63.2	3.8	8.45e-01	0	60	104	0	60	31325
2026-01-27 19:09:00.18	202.00	25.89	-45.0	-63.2	3.8	8.46e-01	0	60	104	0	60	31397
2026-01-27 19:09:02.21	200.88	26.00	-45.0	-63.2	3.8	8.46e-01	0	60	104	0	60	31285
2026-01-27 19:09:04.23	199.76	26.10	-45.0	-63.2	3.8	8.46e-01	0	60	104	0	60	31283
2026-01-27 19:09:06.25	198.63	26.19	-45.0	-63.2	3.8	8.46e-01	0	60	104	0	60	31444
2026-01-27 19:09:08.27	197.50	26.27	-45.0	-63.1	3.8	8.46e-01	0	60	104	0	60	31041
2026-01-27 19:09:10.29	196.35	26.34	-45.0	-63.2	3.8	8.47e-01	0	60	104	0	60	31282
2026-01-27 19:09:12.31	195.21	26.40	-45.0	-63.2	3.8	8.46e-01	0	60	104	0	60	31312
2026-01-27 19:09:14.33	194.06	26.44	-45.0	-63.2	3.8	8.45e-01	0	60	104	0	60	31121
2026-01-27 19:09:16.35	192.90	26.48	-45.0	-63.2	3.8	8.47e-01	0	60	104	0	60	31385
2026-01-27 19:09:18.37	191.74	26.50	-45.0	-63.2	3.8	8.47e-01	0	60	104	0	60	31244
2026-01-27 19:09:20.39	190.58	26.52	-45.0	-63.2	3.8	8.45e-01	0	60	104	0	60	31167
2026-01-27 19:09:22.41	189.42	26.52	-45.0	-63.2	3.8	8.46e-01	0	60	104	0	60	31198
2026-01-27 19:09:24.43	188.26	26.51	-45.0	-63.2	3.8	8.46e-01	0	60	104	0	60	31332
2026-01-27 19:09:26.45	187.10	26.49	-45.0	-63.2	3.8	8.46e-01	0	60	104	0	60	31262
2026-01-27 19:09:28.47	185.95	26.46	-45.0	-63.2	3.8	8.46e-01	0	60	104	0	60	31256
2026-01-27 19:09:30.49	184.80	26.41	-45.0	-63.2	3.8	8.45e-01	0	60	104	0	60	31277
2026-01-27 19:09:32.51	183.65	26.36	-45.0	-63.2	3.8	8.45e-01	0	60	104	0	60	31345
2026-01-27 19:09:34.53	182.50	26.29	-45.0	-63.2	3.8	8.46e-01	0	60	104	0	60	31375
2026-01-27 19:09:36.55	181.36	26.22	-45.0	-63.2	3.8	8.46e-01	0	61	104	0	60	31233
2026-01-27 19:09:38.57	180.23	26.13	-45.0	-63.2	3.8	8.46e-01	0	61	104	0	60	31274
2026-01-27 19:09:40.59	179.11	26.03	-45.0	-63.2	3.8	8.47e-01	0	60	104	0	60	31404
2026-01-27 19:09:42.61	177.99	25.92	-45.0	-63.3	3.8	8.47e-01	0	60	104	0	60	31456
2026-01-27 19:09:44.63	176.89	25.81	-45.0	-63.2	3.8	8.46e-01	0	60	104	0	60	31398
2026-01-27 19:09:46.65	175.79	25.68	-45.2	-63.4	3.8	8.46e-01	0	61	104	0	61	30207
2026-01-27 19:09:48.66	174.71	25.55	-45.1	-63.3	3.8	8.46e-01	0	61	104	0	61	30016
2026-01-27 19:09:50.68	173.63	25.40	-45.1	-63.3	3.8	8.45e-01	0	61	104	0	61	29796
2026-01-27 19:09:52.70	172.57	25.25	-45.1	-63.3	3.8	8.46e-01	0	60	104	0	61	29900
2026-01-27 19:09:54.72	171.52	25.09	-45.1	-63.3	3.8	8.46e-01	0	61	104	0	61	29934
2026-01-27 19:09:56.74	170.48	24.92	-45.1	-63.3	3.8	8.46e-01	0	61	104	0	61	29887
2026-01-27 19:09:58.76	169.45	24.74	-45.1	-63.3	3.8	8.46e-01	0	61	104	0	61	29884
2026-01-27 19:10:00.78	168.44	24.56	-45.1	-63.3	3.8	8.47e-01	0	61	104	0	61	29985
2026-01-27 19:10:02.80	167.44	24.37	-45.2	-63.4	3.8	8.46e-01	0	61	104	0	61	30268
2026-01-27 19:10:04.82	166.46	24.17	-45.2	-63.4	3.8	8.46e-01	0	61	104	0	61	30288
2026-01-27 19:10:06.84	165.49	23.97	-45.2	-63.4	3.8	8.46e-01	0	61	104	0	61	30295
2026-01-27 19:10:08.86	164.53	23.76	-45.2	-63.4	3.8	8.46e-01	0	61	104	0	61	30141
2026-01-27 19:10:10.88	163.59	23.55	-45.2	-63.4	3.8	8.46e-01	0	61	104	0	61	30140
2026-01-27 19:10:12.90	162.67	23.33	-45.2	-63.4	3.8	8.45e-01	0	61	104	0	61	30169
2026-01-27 19:10:14.92	161.76	23.11	-45.2	-63.4	3.8	8.47e-01	0	61	104	0	61	30068
2026-01-27 19:10:16.94	160.86	22.88	-45.2	-63.4	3.8	8.46e-01	0	61	104	0	61	30196
2026-01-27 19:10:18.96	159.98	22.66	-45.2	-63.3	3.8	8.45e-01	0	61	104	0	61	29792
2026-01-27 19:10:20.98	159.12	22.42	-45.2	-63.3	3.8	8.46e-01	0	61	104	0	61	29870
2026-01-27 19:10:23.00	158.27	22.19	-45.2	-63.3	3.8	8.46e-01	0	61	104	0	61	29897
2026-01-27 19:10:25.02	157.43	21.95	-45.2	-63.3	3.8	8.45e-01	0	61	104	0	61	29837
2026-01-27 19:10:27.04	156.61	21.71	-45.2	-63.2	3.8	8.47e-01	0	61	104	0	61	29686
2026-01-27 19:10:29.06	155.81	21.47	-45.1	-63.4	3.8	8.46e-01	0	61	104	0	61	30057
2026-01-27 19:10:31.08	155.02	21.22	-45.2	-63.4	3.8	8.45e-01	0	61	104	0	61	30212
2026-01-27 19:10:33.10	154.25	20.97	-45.2	-63.4	3.8	8.46e-01	0	61	104	0	61	30133
2026-01-27 19:10:35.12	153.49	20.73	-45.2	-63.4	3.8	8.46e-01	0	61	104	0	61	30290
2026-01-27 19:10:37.14	152.75	20.48	-45.1	-63.4	3.8	8.46e-01	0	61	104	0	61	30157
2026-01-27 19:10:39.16	152.02	20.23	-45.1	-63.4	3.8	8.45e-01	0	61	104	0	61	30178
2026-01-27 19:10:41.18	151.30	19.98	-45.1	-63.4	3.8	8.46e-01	0	61	104	0	61	30042
2026-01-27 19:10:43.20	150.60	19.73	-45.1	-63.4	3.8	8.47e-01	0	61	104	0	61	30147
2026-01-27 19:10:45.22	149.91	19.48	-45.1	-63.3	3.8	8.46e-01	0	61	104	0	61	30009
2026-01-27 19:10:47.24	149.24	19.23	-45.1	-63.4	3.8	8.46e-01	0	61	104	0	61	30059
2026-01-27 19:10:49.26	148.58	18.98	-45.0	-63.3	3.8	8.46e-01	0	61	104	0	61	29734
2026-01-27 19:10:51.28	147.93	18.73	-45.0	-63.3	3.8	8.46e-01	0	61	104	0	61	29870
2026-01-27 19:10:53.30	147.29	18.48	-45.0	-63.2	3.8	8.47e-01	0	61	104	0	61	29585
2026-01-27 19:10:55.32	146.67	18.23	-45.0	-63.3	3.8	8.47e-01	0	61	104	0	61	29833
2026-01-27 19:10:57.34	146.06	17.98	-44.9	-63.3	3.8	8.45e-01	0	61	104	0	61	29690
2026-01-27 19:10:59.36	145.46	17.73	-45.0	-63.1	3.8	8.47e-01	0	61	104	0	61	29232
2026-01-27 19:11:01.38	144.88	17.48	-44.9	-63.1	3.8	8.45e-01	0	61	104	0	61	29219
2026-01-27 19:11:03.40	144.31	17.24	-44.9	-63.1	3.8	8.46e-01	0	61	104	0	61	29147
2026-01-27 19:11:05.42	143.74	16.99	-44.8	-63.1	3.8	8.46e-01	0	61	104	0	61	29066
2026-01-27 19:11:07.44	143.19	16.75	-44.6	-63.1	3.8	8.46e-01	0	61	104	0	61	29139
2026-01-27 19:11:09.46	142.65	16.51	-44.8	-63.0	3.8	8.45e-01	0	61	104	0	60	30629
2026-01-27 19:11:11.48	142.13	16.27	-44.9	-63.1	3.8	8.46e-01	0	61	104	0	60	30987
2026-01-27 19:11:13.50	141.61	16.03	-45.4	-63.2	3.8	8.48e-01	0	61	104	0	60	31114
2026-01-27 19:11:15.52	141.10	15.79	-44.7	-62.9	3.8	8.46e-01	0	61	104	0	60	30364
2026-01-27 19:11:17.54	140.60	15.55	-44.7	-63.0	3.8	8.47e-01	0	61	104	0	60	30616
2026-01-27 19:11:19.56	140.12	15.32	-44.8	-63.0	3.8	8.46e-01	0	61	104	0	60	30649
2026-01-27 19:11:21.57	139.64	15.08	-44.7	-63.0	3.9	8.46e-01	0	61	104	0	60	30647
2026-01-27 19:11:23.59	139.17	14.85	-44.7	-63.0	3.8	8.45e-01	0	61	104	0	60	30642
2026-01-27 19:11:25.62	138.71	14.62	-44.7	-62.9	3.8	8.47e-01	0	61	104	0	60	30336
2026-01-27 19:11:27.64	138.26	14.39	-44.7	-63.0	3.8	8.46e-01	0	61	104	0	60	30406
2026-01-27 19:11:29.66	137.82	14.17	-44.6	-62.7	3.9	8.46e-01	0	61	104	0	59	31319
2026-01-27 19:11:31.68	137.39	13.94	-34.4	-58.8	3.9	8.44e-01	0	61	104	0	48	37428
2026-01-27 19:11:33.70	136.96	13.72	-41.0	-61.4	3.7	8.44e-01	0	61	104	0	48	50502
2026-01-27 19:11:35.72	136.55	13.50	-32.9	-56.0	4.2	8.38e-01	0	61	104	0	51	22936
2026-01-27 19:11:37.74	136.14	13.28	-44.4	-62.1	3.9	8.37e-01	0	61	104	0	58	30798
2026-01-27 19:11:39.76	135.74	13.06	-43.4	-62.1	3.5	8.43e-01	0	61	104	0	56	34816
2026-01-27 19:11:41.78	135.34	12.84	-37.8	-63.6	4.2	8.40e-01	0	61	104	0	50	57988
2026-01-27 19:11:43.80	134.96	12.63	-41.1	-62.1	3.8	8.45e-01	0	61	104	0	58	30783
2026-01-27 19:11:45.82	134.58	12.41	-33.7	-60.1	3.5	8.39e-01	0	61	104	0	48	43608
2026-01-27 19:11:47.84	134.21	12.20	-39.5	-59.3	4.3	8.39e-01	0	61	104	0	51	33403
2026-01-27 19:11:49.86	133.85	11.99	-33.7	-53.4	4.0	8.16e-01	0	61	104	0	35	42697
2026-01-27 19:11:51.88	133.49	11.79	-23.7	-45.0	3.7	8.12e-01	0	61	104	0	20	38563
2026-01-27 19:11:53.90	133.14	11.58	-30.1	-44.6	3.8	8.04e-01	0	61	104	0	19	38759
2026-01-27 19:11:55.92	132.80	11.38	-24.9	-52.0	4.4	8.15e-01	0	61	104	0	38	30533
2026-01-27 19:11:57.94	132.46	11.18	-26.2	-47.4	3.8	8.05e-01	0	61	104	0	24	40493
2026-01-27 19:11:59.96	132.13	10.98	-25.3	-48.4	3.6	7.99e-01	0	61	104	0	25	42422
2026-01-27 19:12:01.98	131.80	10.78	-18.6	-40.0	3.6	7.95e-01	0	61	0	0	16	27206
2026-01-27 19:12:04.00	131.48	10.58	-20.0	-41.1	3.7	8.01e-01	0	61	104	0	15	32872
2026-01-27 19:12:06.03	131.17	10.38	-23.2	-43.5	3.5	8.10e-01	0	61	104	0	16	40587
2026-01-27 19:12:08.05	130.86	10.19	-24.0	-41.2	3.8	8.15e-01	0	61	0	0	11	41795
2026-01-27 19:12:10.06	130.56	10.00	-25.4	-42.7	3.5	8.15e-01	0	61	104	0	16	37157
2026-01-27 19:12:12.08	130.26	9.81	-22.0	-41.3	3.6	7.95e-01	0	61	104	0	15	33511
2026-01-27 19:12:14.10	129.97	9.62	-16.5	-38.9	3.4	8.15e-01	0	61	104	0	9	36019
2026-01-27 19:12:16.12	129.68	9.43	-23.7	-43.2	3.4	8.04e-01	0	61	104	0	18	35259
2026-01-27 19:12:18.14	129.40	9.25	-17.9	-36.9	3.6	8.11e-01	0	61	104	0	9	28379
2026-01-27 19:12:20.16	129.13	9.06	-24.4	-38.8	3.6	8.12e-01	0	61	104	0	10	33602
2026-01-27 19:12:22.18	128.85	8.88	-19.0	-36.5	3.7	8.17e-01	0	61	104	0	7	30510
2026-01-27 19:12:24.20	128.59	8.70	-17.3	-38.0	3.3	8.08e-01	0	61	104	0	11	28839
2026-01-27 19:12:26.22	128.32	8.52	-24.1	-39.6	3.4	8.01e-01	0	61	104	0	13	31052
2026-01-27 19:12:28.24	128.07	8.34	-21.6	-40.7	3.4	7.99e-01	0	61	104	0	15	31163
2026-01-27 19:12:30.26	127.81	8.17	-23.1	-40.8	3.4	8.00e-01	0	61	104	0	15	31631
2026-01-27 19:12:32.28	127.56	7.99	-16.5	-36.3	3.9	8.02e-01	0	61	104	0	5	33333
2026-01-27 19:12:34.30	127.32	7.82	-43.9	-63.2	3.8	8.12e-01	0	61	104	0	58	34994
2026-01-27 19:12:36.32	127.07	7.65	-45.3	-63.6	3.8	8.42e-01	0	61	104	0	61	30920
2026-01-27 19:12:38.34	126.84	7.48	-45.6	-63.8	3.8	8.45e-01	0	61	104	0	61	31576
2026-01-27 19:12:40.36	126.60	7.31	-45.8	-64.0	3.8	8.45e-01	0	61	104	0	62	30702
2026-01-27 19:12:42.38	126.37	7.14	-45.7	-64.0	3.8	8.46e-01	0	61	104	0	62	30562
2026-01-27 19:12:44.40	126.15	6.97	-45.6	-63.8	3.8	8.46e-01	0	61	104	0	62	29891
2026-01-27 19:12:46.42	125.92	6.81	-45.5	-63.6	3.8	8.46e-01	0	61	104	0	62	29302
2026-01-27 19:12:48.44	125.71	6.64	-45.4	-63.5	3.8	8.46e-01	0	61	104	0	62	28907
2026-01-27 19:12:50.46	125.49	6.48	-45.3	-63.4	3.8	8.47e-01	0	61	104	0	61	30300
2026-01-27 19:12:52.48	125.28	6.32	-45.3	-63.4	3.8	8.47e-01	0	61	104	0	61	30364
2026-01-27 19:12:54.51	125.07	6.16	-45.3	-63.4	3.8	8.46e-01	0	61	104	0	61	30301
2026-01-27 19:12:56.53	124.86	6.00	-45.3	-63.4	3.8	8.47e-01	0	61	104	0	61	30214
2026-01-27 19:12:58.55	124.66	5.84	-45.3	-63.4	3.8	8.46e-01	0	61	104	0	61	30267
2026-01-27 19:13:00.57	124.46	5.69	-45.3	-63.4	3.8	8.46e-01	0	61	104	0	61	30273
2026-01-27 19:13:02.59	124.26	5.53	-45.3	-63.4	3.8	8.46e-01	0	61	104	0	61	30252
2026-01-27 19:13:04.61	124.07	5.38	-45.3	-63.4	3.8	8.46e-01	0	61	104	0	61	30207
2026-01-27 19:13:06.63	123.88	5.22	-45.3	-63.4	3.8	8.46e-01	0	61	104	0	61	30259
2026-01-27 19:13:08.65	123.69	5.07	-45.3	-63.4	3.8	8.45e-01	0	61	104	0	61	30269
2026-01-27 19:13:10.67	123.51	4.92	-45.3	-63.4	3.8	8.46e-01	0	61	104	0	61	30233
2026-01-27 19:13:12.69	123.33	4.77	-45.3	-63.4	3.8	8.46e-01	0	61	104	0	61	30198
2026-01-27 19:13:14.71	123.15	4.62	-45.3	-63.4	3.8	8.47e-01	0	61	104	0	61	30207
2026-01-27 19:13:16.73	122.97	4.47	-45.3	-63.4	3.8	8.47e-01	0	62	104	0	61	30185
2026-01-27 19:13:18.75	122.80	4.33	-45.3	-63.4	3.8	8.46e-01	0	61	104	0	61	30174
2026-01-27 19:13:20.78	122.62	4.18	-45.3	-63.4	3.8	8.44e-01	0	61	104	0	61	30191
2026-01-27 19:13:22.80	122.45	4.04	-45.3	-63.4	3.8	8.46e-01	0	61	104	0	61	30172
2026-01-27 19:13:24.82	122.29	3.89	-45.2	-63.4	3.8	8.47e-01	0	61	104	0	61	30183
2026-01-27 19:13:26.84	122.12	3.75	-45.3	-63.4	3.8	8.46e-01	0	61	104	0	61	30245
2026-01-27 19:13:28.86	121.96	3.61	-45.3	-63.4	3.8	8.46e-01	0	61	104	0	61	30239
2026-01-27 19:13:30.88	121.80	3.47	-45.3	-63.4	3.8	8.46e-01	0	62	104	0	61	30197
2026-01-27 19:13:32.90	121.64	3.33	-45.2	-63.4	3.8	8.47e-01	0	61	104	0	61	30170
2026-01-27 19:13:34.92	121.49	3.19	-45.3	-63.4	3.8	8.47e-01	0	61	104	0	61	30243
2026-01-27 19:13:36.94	121.34	3.05	-45.3	-63.4	3.8	8.47e-01	0	62	104	0	61	30073
2026-01-27 19:13:38.96	121.19	2.92	-45.3	-63.4	3.8	8.47e-01	0	62	104	0	61	30083
2026-01-27 19:13:40.98	121.04	2.78	-45.2	-63.4	3.8	8.47e-01	0	61	104	0	61	30069
2026-01-27 19:13:43.01	120.89	2.64	-45.2	-63.4	3.8	8.46e-01	0	62	104	0	61	30105
2026-01-27 19:13:45.03	120.74	2.51	-45.2	-63.4	3.8	8.45e-01	0	61	104	0	61	30058
2026-01-27 19:13:47.05	120.60	2.37	-44.4	-62.6	3.7	8.46e-01	0	61	104	0	59	30806
2026-01-27 19:13:49.07	120.46	2.24	-45.2	-63.4	3.8	8.47e-01	0	62	104	0	61	30066
2026-01-27 19:13:51.09	120.32	2.11	-45.2	-63.4	3.8	8.45e-01	0	61	104	0	61	30082
2026-01-27 19:13:53.11	120.18	1.98	-45.2	-63.4	3.8	8.46e-01	0	62	104	0	61	30138

#Closed at: 2026-01-27 19:13:53
#Recorded file [0 MB]: D:/lorett/data/31039_260127_220451.dat