passes_logs/2026/01/27/R2.0S_Moscow/R2.0S_Moscow__20260127_000652_FENGYUN_3D_rec.log

#Pass ID: 20260127_000652_FENGYUN 3D
#Satellite: FENGYUN 3D
#Configuration: FENGYUN 3D
#almurnet v.1.7.20251203
#Start time: 2026-01-27 00:06:54

#Version: 2.2.20231116
#Station: R2.0S_Moscow
#Location: 37.707566 lon 55.798166 lat
#TLE: 1 43010U 17072A   26026.49129444  .00000151  00000+0  93391-4 0  9993
#TLE: 2 43010  98.9962 358.4866 0002525  88.1664 271.9801 14.19700337424889

#Time	Az	El	Level	Level2	SNR	BER	BlckErr	Temp	State	Recorded	gain1	gain2
2026-01-27 00:06:54.75	27.33	2.12	-42.7	-54.2	3.8	8.45e-01	0	53	0	0	57	13207
2026-01-27 00:06:57.78	27.57	2.28	-42.6	-54.2	3.8	8.46e-01	0	53	104	0	57	13178
2026-01-27 00:07:00.81	27.81	2.44	-42.7	-54.2	3.8	8.46e-01	0	54	104	0	57	13203
2026-01-27 00:07:03.84	28.06	2.60	-42.7	-54.2	3.8	8.46e-01	0	54	104	0	57	13211
2026-01-27 00:07:06.87	28.31	2.76	-42.6	-54.2	3.8	8.45e-01	0	54	104	0	57	13208
2026-01-27 00:07:09.90	28.56	2.92	-42.6	-54.2	3.8	8.45e-01	0	54	104	0	57	13226
2026-01-27 00:07:12.93	28.81	3.08	-42.6	-54.2	3.8	8.46e-01	0	54	104	0	57	13165
2026-01-27 00:07:15.96	29.07	3.25	-42.6	-54.2	3.8	8.46e-01	0	54	104	0	57	13152
2026-01-27 00:07:18.99	29.32	3.41	-42.6	-54.2	3.8	8.45e-01	0	55	104	0	57	13169
2026-01-27 00:07:22.02	29.59	3.57	-42.6	-54.2	3.8	8.45e-01	0	55	104	0	57	13153
2026-01-27 00:07:25.06	29.85	3.73	-42.7	-54.2	3.8	8.45e-01	0	55	104	0	57	13207
2026-01-27 00:07:28.09	30.12	3.90	-42.6	-54.2	3.8	8.46e-01	0	55	104	0	57	13136
2026-01-27 00:07:31.12	30.39	4.06	-42.6	-54.1	3.8	8.47e-01	0	55	104	0	57	13100
2026-01-27 00:07:34.15	30.66	4.23	-42.6	-54.2	3.8	8.46e-01	0	56	104	0	57	13162
2026-01-27 00:07:37.18	30.93	4.39	-42.6	-54.2	3.8	8.46e-01	0	56	104	0	57	13115
2026-01-27 00:07:40.21	31.21	4.56	-42.6	-54.2	3.8	8.47e-01	0	56	104	0	57	13143
2026-01-27 00:07:43.25	31.49	4.73	-42.6	-54.2	3.8	8.46e-01	0	56	104	0	57	13125
2026-01-27 00:07:46.28	31.78	4.89	-42.6	-54.2	3.8	8.45e-01	0	56	104	0	57	13122
2026-01-27 00:07:49.31	32.07	5.06	-42.6	-54.2	3.8	8.46e-01	0	56	104	0	57	13127
2026-01-27 00:07:52.34	32.36	5.23	-42.6	-54.2	3.8	8.46e-01	0	57	104	0	57	13151
2026-01-27 00:07:55.37	32.65	5.40	-42.6	-54.2	3.8	8.46e-01	0	57	104	0	57	13112
2026-01-27 00:07:58.41	32.95	5.57	-42.6	-54.2	3.8	8.47e-01	0	57	104	0	57	13111
2026-01-27 00:08:01.44	33.25	5.74	-42.6	-54.2	3.8	8.47e-01	0	57	104	0	57	13128
2026-01-27 00:08:04.47	33.55	5.91	-42.6	-54.2	3.8	8.45e-01	0	57	104	0	57	13112
2026-01-27 00:08:07.50	33.86	6.08	-42.6	-54.1	3.8	8.46e-01	0	57	104	0	57	13076
2026-01-27 00:08:10.53	34.17	6.25	-42.6	-54.2	3.8	8.46e-01	0	58	104	0	57	13128
2026-01-27 00:08:13.57	34.49	6.42	-42.6	-54.1	3.8	8.46e-01	0	58	104	0	57	13103
2026-01-27 00:08:16.60	34.80	6.59	-42.6	-54.1	3.8	8.46e-01	0	58	104	0	57	13072
2026-01-27 00:08:19.63	35.13	6.76	-42.6	-54.1	3.8	8.46e-01	0	58	104	0	57	12974
2026-01-27 00:08:22.66	35.45	6.93	-42.6	-54.1	3.8	8.46e-01	0	58	104	0	57	13028
2026-01-27 00:08:25.70	35.78	7.11	-42.6	-54.1	3.8	8.46e-01	0	58	104	0	57	13056
2026-01-27 00:08:28.73	36.11	7.28	-42.5	-53.6	3.8	8.46e-01	0	58	104	0	57	12307
2026-01-27 00:08:31.76	36.45	7.45	-42.6	-54.2	3.8	8.46e-01	0	58	104	0	57	13126
2026-01-27 00:08:34.79	36.79	7.63	-42.5	-53.0	3.8	8.46e-01	0	58	104	0	56	12234
2026-01-27 00:08:37.82	37.13	7.80	-41.1	-46.6	6.2	6.46e-01	0	58	0	1048576	54	6539
2026-01-27 00:08:40.85	37.48	7.98	-38.6	-41.4	11.5	1.77e-03	0	58	0	17825792	49	4786
2026-01-27 00:08:43.88	37.83	8.15	-41.3	-49.3	4.4	1.79e-01	0	58	0	34603008	53	9393
2026-01-27 00:08:46.92	38.19	8.33	-40.4	-44.2	9.2	3.49e-03	0	58	0	49283072	51	5861
2026-01-27 00:08:49.95	38.55	8.50	-39.1	-41.8	11.8	7.69e-04	0	59	0	66060288	50	4748
2026-01-27 00:08:52.98	38.92	8.68	-38.8	-41.3	12.3	3.39e-04	0	59	0	82837504	49	4754
2026-01-27 00:08:56.00	39.28	8.86	-38.9	-41.4	12.4	3.19e-04	0	59	0	99614720	49	4786
2026-01-27 00:08:59.03	39.66	9.03	-39.1	-41.6	12.4	1.89e-04	0	59	0	116391936	49	4887
2026-01-27 00:09:02.06	40.03	9.21	-38.8	-41.1	13.0	7.32e-05	0	59	0	134217728	49	4620
2026-01-27 00:09:05.09	40.42	9.39	-38.8	-41.1	13.0	5.83e-05	0	59	0	150994944	49	4646
2026-01-27 00:09:08.12	40.80	9.56	-39.0	-41.4	12.8	8.58e-05	0	59	0	167772160	49	4762
2026-01-27 00:09:11.16	41.19	9.74	-38.9	-41.3	12.8	1.12e-04	0	59	0	185597952	49	4733
2026-01-27 00:09:14.19	41.59	9.92	-38.8	-41.1	13.1	4.34e-05	0	59	0	202375168	49	4612
2026-01-27 00:09:17.22	41.99	10.10	-38.8	-41.0	13.2	3.54e-05	0	60	0	219152384	49	4595
2026-01-27 00:09:20.25	42.40	10.27	-38.6	-40.8	13.6	1.25e-05	0	60	0	235929600	49	4457
2026-01-27 00:09:23.28	42.80	10.45	-38.5	-40.6	13.8	9.10e-06	0	59	0	253755392	49	4371
2026-01-27 00:09:26.32	43.22	10.63	-38.7	-40.9	13.6	1.71e-05	0	60	0	270532608	49	4501
2026-01-27 00:09:29.35	43.64	10.81	-38.5	-40.6	13.9	6.80e-06	0	59	0	287309824	48	4611
2026-01-27 00:09:32.37	44.06	10.98	-38.4	-40.5	14.0	2.20e-06	0	60	0	304087040	48	4564
2026-01-27 00:09:35.41	44.49	11.16	-38.6	-40.8	13.8	9.10e-06	0	60	0	321912832	48	4707
2026-01-27 00:09:38.43	44.93	11.34	-38.5	-40.6	14.0	4.50e-06	0	60	0	338690048	48	4611
2026-01-27 00:09:41.46	45.37	11.51	-38.6	-40.7	13.9	2.20e-06	0	60	0	355467264	48	4656
2026-01-27 00:09:44.49	45.81	11.69	-38.6	-40.7	13.9	1.14e-05	0	60	0	372244480	48	4679
2026-01-27 00:09:47.52	46.26	11.87	-38.5	-40.5	14.1	2.20e-06	0	60	0	390070272	48	4595
2026-01-27 00:09:50.55	46.72	12.04	-38.2	-40.2	14.5	1.10e-06	0	60	0	406847488	48	4398
2026-01-27 00:09:53.58	47.18	12.22	-38.1	-40.1	14.6	1.10e-06	0	60	0	423624704	48	4356
2026-01-27 00:09:56.61	47.64	12.39	-38.2	-40.2	14.5	0.00e+00	0	60	0	440401920	48	4394
2026-01-27 00:09:59.64	48.12	12.57	-38.1	-40.0	14.6	0.00e+00	0	60	0	458227712	48	4339
2026-01-27 00:10:02.67	48.59	12.74	-38.2	-40.2	14.5	1.10e-06	0	60	0	475004928	48	4392
2026-01-27 00:10:05.71	49.08	12.92	-38.2	-40.2	14.6	0.00e+00	0	60	0	491782144	48	4399
2026-01-27 00:10:08.74	49.56	13.09	-38.2	-40.1	14.6	3.40e-06	0	60	0	508559360	48	4390
2026-01-27 00:10:11.77	50.06	13.27	-38.1	-40.0	14.7	1.10e-06	0	60	0	526385152	48	4327
2026-01-27 00:10:14.80	50.56	13.44	-37.9	-39.8	14.8	0.00e+00	0	61	0	543162368	47	4486
2026-01-27 00:10:17.83	51.06	13.61	-37.9	-39.7	15.0	0.00e+00	0	61	0	559939584	47	4424
2026-01-27 00:10:20.86	51.57	13.78	-37.9	-39.8	14.9	0.00e+00	0	60	0	577765376	47	4460
2026-01-27 00:10:23.89	52.09	13.95	-38.0	-39.8	14.9	0.00e+00	0	60	0	594542592	47	4492
2026-01-27 00:10:26.92	52.61	14.12	-37.7	-39.6	15.1	0.00e+00	0	61	0	611319808	47	4361
2026-01-27 00:10:29.95	53.14	14.28	-37.7	-39.6	15.1	0.00e+00	0	60	0	628097024	47	4353
2026-01-27 00:10:32.98	53.67	14.45	-37.7	-39.6	15.2	0.00e+00	0	60	0	644874240	47	4342
2026-01-27 00:10:36.01	54.21	14.62	-37.7	-39.5	15.2	0.00e+00	0	61	0	662700032	47	4339
2026-01-27 00:10:39.04	54.76	14.78	-37.8	-39.7	15.0	0.00e+00	0	61	0	679477248	47	4399
2026-01-27 00:10:42.07	55.31	14.94	-37.8	-39.7	15.0	0.00e+00	0	61	0	696254464	47	4411
2026-01-27 00:10:45.11	55.87	15.10	-37.6	-39.4	15.3	0.00e+00	0	61	0	714080256	47	4266
2026-01-27 00:10:48.14	56.43	15.26	-37.6	-39.3	15.3	0.00e+00	0	61	0	730857472	47	4238
2026-01-27 00:10:51.16	57.00	15.42	-37.5	-39.3	15.4	0.00e+00	0	61	0	747634688	47	4208
2026-01-27 00:10:54.20	57.58	15.58	-37.5	-39.3	15.4	0.00e+00	0	61	0	764411904	47	4212
2026-01-27 00:10:57.23	58.16	15.73	-37.5	-39.3	15.4	0.00e+00	0	61	0	782237696	47	4235
2026-01-27 00:11:00.26	58.75	15.89	-37.5	-39.3	15.4	0.00e+00	0	61	0	799014912	46	4453
2026-01-27 00:11:03.29	59.34	16.04	-37.4	-39.1	15.6	0.00e+00	0	61	0	815792128	46	4375
2026-01-27 00:11:06.32	59.94	16.19	-37.5	-39.2	15.5	0.00e+00	0	61	0	832569344	46	4429
2026-01-27 00:11:09.35	60.54	16.34	-37.5	-39.3	15.3	0.00e+00	0	61	0	850395136	46	4491
2026-01-27 00:11:12.38	61.15	16.48	-37.5	-39.3	15.4	0.00e+00	0	61	0	867172352	46	4452
2026-01-27 00:11:15.41	61.77	16.62	-37.2	-38.9	15.7	0.00e+00	0	61	0	883949568	46	4267
2026-01-27 00:11:18.45	62.39	16.77	-37.3	-39.0	15.6	0.00e+00	0	61	0	901775360	46	4319
2026-01-27 00:11:21.48	63.02	16.90	-37.4	-39.2	15.4	0.00e+00	0	61	0	918552576	46	4418
2026-01-27 00:11:24.50	63.65	17.04	-37.2	-38.9	15.7	0.00e+00	0	61	0	935329792	46	4279
2026-01-27 00:11:27.54	64.29	17.17	-37.1	-38.8	15.7	0.00e+00	0	61	0	952107008	46	4238
2026-01-27 00:11:30.57	64.94	17.30	-37.1	-38.9	15.4	0.00e+00	0	61	0	968884224	46	4275
2026-01-27 00:11:33.59	65.58	17.43	-36.9	-38.7	15.6	0.00e+00	0	61	0	986710016	45	4423
2026-01-27 00:11:36.62	66.24	17.55	-37.0	-38.8	15.4	0.00e+00	0	62	0	1003487232	45	4490
2026-01-27 00:11:39.65	66.90	17.68	-36.9	-38.8	15.3	0.00e+00	0	61	0	1020264448	45	4468
2026-01-27 00:11:42.68	67.56	17.79	-37.0	-38.9	15.2	0.00e+00	0	61	0	1037041664	45	4512
2026-01-27 00:11:45.71	68.23	17.91	-37.1	-39.1	14.8	0.00e+00	0	61	0	1054867456	45	4600
2026-01-27 00:11:48.74	68.91	18.02	-37.2	-39.4	14.2	1.10e-06	0	61	0	1071644672	45	4766
2026-01-27 00:11:51.77	69.59	18.13	-37.5	-39.8	13.4	1.60e-05	0	62	0	1088421888	45	5034
2026-01-27 00:11:54.80	70.28	18.24	-37.8	-40.3	12.6	1.53e-04	0	61	0	1106247680	46	5041
2026-01-27 00:11:57.83	70.97	18.34	-38.0	-40.6	12.1	3.47e-04	0	61	0	1123024896	46	5216
2026-01-27 00:12:00.86	71.66	18.44	-38.1	-40.8	11.9	6.19e-04	0	61	0	1139802112	46	5330
2026-01-27 00:12:03.89	72.36	18.53	-38.0	-40.7	12.2	3.70e-04	0	62	0	1156579328	46	5239
2026-01-27 00:12:06.92	73.06	18.62	-38.0	-40.7	12.1	3.73e-04	0	62	0	1173356544	46	5278
2026-01-27 00:12:09.95	73.77	18.71	-37.9	-40.5	12.2	3.50e-04	0	61	0	1191182336	46	5153
2026-01-27 00:12:12.98	74.48	18.79	-37.9	-40.6	12.0	4.18e-04	0	62	0	1207959552	46	5212
2026-01-27 00:12:16.01	75.19	18.87	-37.9	-40.6	12.1	5.02e-04	0	62	0	1224736768	46	5217
2026-01-27 00:12:19.04	75.91	18.94	-37.9	-40.6	12.2	3.49e-04	0	62	0	1242562560	46	5164
2026-01-27 00:12:22.08	76.64	19.01	-37.8	-40.3	12.7	1.19e-04	0	62	0	1259339776	46	4987
2026-01-27 00:12:25.11	77.36	19.08	-37.5	-39.9	13.2	2.74e-05	0	62	0	1276116992	46	4767
2026-01-27 00:12:28.14	78.09	19.14	-37.4	-39.7	13.4	2.51e-05	0	62	0	1292894208	46	4694
2026-01-27 00:12:31.17	78.82	19.20	-37.5	-39.9	13.1	4.11e-05	0	62	0	1310720000	46	4810
2026-01-27 00:12:34.20	79.55	19.25	-37.8	-40.4	12.5	1.49e-04	0	62	0	1327497216	46	5082
2026-01-27 00:12:37.23	80.29	19.30	-37.8	-40.2	12.9	1.01e-04	0	62	0	1344274432	46	4981
2026-01-27 00:12:40.26	81.03	19.34	-37.2	-39.3	14.3	3.40e-06	0	62	0	1361051648	46	4465
2026-01-27 00:12:43.29	81.77	19.38	-37.0	-39.0	14.6	1.10e-06	0	62	0	1377828864	45	4584
2026-01-27 00:12:46.32	82.51	19.42	-37.1	-39.1	14.6	1.10e-06	0	62	0	1395654656	45	4618
2026-01-27 00:12:49.35	83.25	19.45	-36.7	-38.6	15.1	0.00e+00	0	62	0	1412431872	45	4362
2026-01-27 00:12:52.38	84.00	19.47	-36.8	-38.7	14.9	0.00e+00	0	62	0	1429209088	45	4420
2026-01-27 00:12:55.41	84.74	19.49	-36.9	-39.0	14.4	1.10e-06	0	62	0	1447034880	45	4548
2026-01-27 00:12:58.44	85.49	19.51	-37.2	-39.4	14.0	1.10e-06	0	62	0	1463812096	45	4762
2026-01-27 00:13:01.48	86.24	19.52	-37.6	-40.0	13.2	2.97e-05	0	62	0	1480589312	45	5116
2026-01-27 00:13:04.51	86.99	19.53	-37.7	-40.2	12.7	1.12e-04	0	62	0	1497366528	45	5276
2026-01-27 00:13:07.54	87.74	19.53	-37.6	-40.1	13.0	8.69e-05	0	62	0	1514143744	46	4887
2026-01-27 00:13:10.57	88.49	19.53	-37.5	-39.8	13.6	1.83e-05	0	62	0	1531969536	46	4712
2026-01-27 00:13:13.60	89.23	19.52	-37.1	-39.3	14.4	4.50e-06	0	62	0	1548746752	46	4446
2026-01-27 00:13:16.64	89.99	19.50	-36.9	-38.8	15.1	0.00e+00	0	62	0	1565523968	45	4453
2026-01-27 00:13:19.67	90.73	19.49	-36.4	-38.2	16.0	0.00e+00	0	62	0	1583349760	44	4413
2026-01-27 00:13:22.70	91.48	19.46	-36.3	-38.0	16.3	0.00e+00	0	62	0	1600126976	44	4330
2026-01-27 00:13:25.73	92.22	19.44	-36.6	-38.4	16.0	0.00e+00	0	62	0	1616904192	44	4502
2026-01-27 00:13:28.76	92.97	19.40	-36.6	-38.4	16.1	0.00e+00	0	62	0	1633681408	44	4520
2026-01-27 00:13:31.79	93.71	19.37	-36.8	-38.6	16.0	0.00e+00	0	62	0	1651507200	44	4603
2026-01-27 00:13:34.82	94.45	19.33	-36.9	-38.7	15.9	0.00e+00	0	62	0	1668284416	44	4692
2026-01-27 00:13:37.85	95.19	19.28	-36.8	-38.6	16.0	0.00e+00	0	62	0	1685061632	44	4621
2026-01-27 00:13:40.88	95.92	19.23	-36.7	-38.4	16.2	0.00e+00	0	62	0	1701838848	44	4531
2026-01-27 00:13:43.91	96.66	19.17	-36.8	-38.5	16.1	0.00e+00	0	62	0	1719664640	44	4588
2026-01-27 00:13:46.94	97.39	19.12	-36.9	-38.7	16.0	0.00e+00	0	62	0	1736441856	44	4660
2026-01-27 00:13:49.97	98.12	19.05	-36.7	-38.5	16.2	0.00e+00	0	62	0	1753219072	44	4554
2026-01-27 00:13:53.01	98.84	18.98	-36.7	-38.4	16.2	0.00e+00	0	62	0	1771044864	44	4542
2026-01-27 00:13:56.04	99.57	18.91	-36.8	-38.5	16.1	0.00e+00	0	62	0	1787822080	44	4575
2026-01-27 00:13:59.07	100.28	18.83	-36.7	-38.4	16.2	0.00e+00	0	62	0	1804599296	44	4522
2026-01-27 00:14:02.11	101.00	18.75	-36.6	-38.4	16.2	0.00e+00	0	62	0	1821376512	44	4494
2026-01-27 00:14:05.14	101.71	18.67	-36.8	-38.5	16.0	0.00e+00	0	62	0	1838153728	44	4590
2026-01-27 00:14:08.17	102.42	18.58	-36.8	-38.6	16.0	0.00e+00	0	62	0	1855979520	44	4617
2026-01-27 00:14:11.20	103.12	18.49	-36.9	-38.7	15.9	0.00e+00	0	62	0	1872756736	44	4681
2026-01-27 00:14:14.23	103.82	18.39	-36.9	-38.7	15.9	0.00e+00	0	62	0	1889533952	44	4662
2026-01-27 00:14:17.26	104.52	18.29	-37.0	-38.9	15.7	0.00e+00	0	62	0	1907359744	44	4782
2026-01-27 00:14:20.29	105.21	18.19	-37.1	-38.9	15.7	0.00e+00	0	62	0	1924136960	44	4786
2026-01-27 00:14:23.32	105.89	18.08	-37.0	-38.9	15.7	0.00e+00	0	62	0	1940914176	44	4772
2026-01-27 00:14:26.36	106.57	17.97	-37.2	-39.1	15.6	0.00e+00	0	62	0	1957691392	44	4877
2026-01-27 00:14:29.39	107.25	17.85	-37.2	-39.0	15.5	0.00e+00	0	62	0	1975517184	44	4870
2026-01-27 00:14:32.42	107.92	17.73	-37.1	-38.9	15.6	0.00e+00	0	62	0	1992294400	44	4805
2026-01-27 00:14:35.45	108.59	17.61	-37.2	-39.1	15.5	0.00e+00	0	62	0	2009071616	44	4876
2026-01-27 00:14:38.48	109.25	17.49	-37.2	-39.0	15.6	0.00e+00	0	62	0	2025848832	44	4852
2026-01-27 00:14:41.51	109.90	17.36	-37.1	-38.9	15.6	0.00e+00	0	62	0	2043674624	44	4814
2026-01-27 00:14:44.55	110.55	17.23	-37.2	-39.1	15.6	0.00e+00	0	62	0	2060451840	45	4636
2026-01-27 00:14:47.58	111.20	17.10	-37.1	-39.0	15.6	0.00e+00	0	62	0	2077229056	45	4562
2026-01-27 00:14:50.61	111.84	16.97	-37.3	-39.2	15.4	0.00e+00	0	62	0	2095054848	45	4652
2026-01-27 00:14:53.65	112.47	16.83	-37.0	-38.8	15.8	0.00e+00	0	62	0	2111832064	45	4478
2026-01-27 00:14:56.68	113.10	16.69	-37.2	-39.1	15.5	0.00e+00	0	62	0	2128609280	45	4621
2026-01-27 00:14:59.71	113.72	16.54	-37.5	-39.5	15.1	0.00e+00	0	62	0	2145386496	45	4853
2026-01-27 00:15:02.74	114.34	16.40	-37.5	-39.5	15.0	0.00e+00	0	62	0	2162163712	45	4846
2026-01-27 00:15:05.77	114.95	16.25	-37.4	-39.3	15.2	1.10e-06	0	62	0	2179989504	45	4735
2026-01-27 00:15:08.80	115.55	16.10	-37.4	-39.3	15.1	1.14e-05	0	62	0	2196766720	45	4740
2026-01-27 00:15:11.83	116.15	15.95	-37.3	-39.2	15.3	2.20e-06	0	62	0	2213543936	45	4684
2026-01-27 00:15:14.86	116.74	15.80	-37.2	-39.1	15.3	5.70e-06	0	62	0	2231369728	45	4633
2026-01-27 00:15:17.89	117.33	15.64	-37.4	-39.3	15.1	1.71e-05	0	62	0	2248146944	45	4736
2026-01-27 00:15:20.93	117.91	15.48	-37.5	-39.6	14.6	2.86e-05	0	62	0	2264924160	45	4880
2026-01-27 00:15:23.96	118.48	15.33	-37.7	-39.7	14.6	1.81e-04	0	62	0	2281701376	45	4974
2026-01-27 00:15:26.99	119.05	15.17	-37.9	-40.1	14.4	1.10e-04	0	62	0	2299527168	46	4886
2026-01-27 00:15:30.02	119.62	15.00	-38.0	-40.3	14.0	2.66e-04	0	62	0	2316304384	46	4986
2026-01-27 00:15:33.05	120.17	14.84	-37.7	-39.8	14.5	1.83e-04	0	62	0	2333081600	46	4721
2026-01-27 00:15:36.08	120.72	14.68	-37.5	-39.6	14.7	1.72e-04	0	62	0	2349858816	45	4898
2026-01-27 00:15:39.11	121.27	14.51	-37.5	-39.6	14.7	1.48e-04	0	62	0	2367684608	46	4632
2026-01-27 00:15:42.15	121.81	14.34	-37.5	-39.7	14.4	4.83e-04	0	62	0	2384461824	45	4941
2026-01-27 00:15:45.18	122.34	14.17	-37.5	-39.5	14.7	2.88e-04	0	62	0	2401239040	45	4849
2026-01-27 00:15:48.21	122.87	14.00	-37.6	-39.8	14.3	8.99e-04	0	62	0	2419064832	45	5008
2026-01-27 00:15:51.25	123.39	13.83	-37.8	-40.0	14.1	1.76e-03	0	62	0	2435842048	46	4867
2026-01-27 00:15:54.28	123.91	13.66	-37.4	-40.1	13.4	5.07e-03	0	62	0	2452619264	45	5164
2026-01-27 00:15:57.31	124.42	13.49	-37.7	-40.0	13.8	1.15e-02	0	62	0	2469396480	46	4861
2026-01-27 00:16:00.34	124.92	13.31	-37.7	-40.2	13.0	2.42e-02	0	62	0	2486173696	44	5570
2026-01-27 00:16:03.37	125.42	13.14	-36.4	-40.1	12.5	7.47e-02	0	62	0	2502950912	45	5180
2026-01-27 00:16:06.40	125.92	12.97	-35.4	-40.3	10.8	1.75e-01	0	62	0	2518679552	43	5956
2026-01-27 00:16:09.43	126.40	12.79	-35.4	-39.7	9.7	2.65e-01	0	62	0	2533359616	38	7425
2026-01-27 00:16:12.46	126.88	12.61	-30.1	-38.6	8.0	3.56e-01	0	62	0	2544893952	32	9210
2026-01-27 00:16:15.49	127.36	12.44	-30.9	-38.1	7.4	4.73e-01	0	62	0	2553282560	26	12339
2026-01-27 00:16:18.52	127.83	12.26	-23.9	-35.0	4.5	7.92e-01	0	62	104	2557476864	22	10869
2026-01-27 00:16:21.55	128.30	12.08	-25.4	-38.7	5.3	8.02e-01	0	62	104	2557476864	26	13245
2026-01-27 00:16:24.58	128.76	11.91	-24.7	-34.7	4.9	8.02e-01	0	62	104	2557476864	22	10523
2026-01-27 00:16:27.61	129.21	11.73	-27.1	-37.1	4.5	8.16e-01	0	62	104	2557476864	17	18496
2026-01-27 00:16:30.64	129.66	11.55	-27.7	-37.5	5.1	8.06e-01	0	62	104	2557476864	21	15390
2026-01-27 00:16:33.67	130.10	11.37	-23.1	-35.5	4.5	8.18e-01	0	62	104	2557476864	16	16272
2026-01-27 00:16:36.70	130.54	11.19	-25.7	-37.0	4.9	8.13e-01	0	62	104	2557476864	20	15375
2026-01-27 00:16:39.72	130.97	11.01	-26.8	-40.6	4.3	8.09e-01	0	62	104	2557476864	22	20598
2026-01-27 00:16:42.75	131.40	10.83	-25.1	-35.5	4.8	8.16e-01	0	62	104	2557476864	18	14455
2026-01-27 00:16:45.78	131.82	10.65	-22.8	-33.1	3.8	8.17e-01	0	62	104	2557476864	14	13881
2026-01-27 00:16:48.81	132.24	10.48	-25.9	-39.8	4.5	8.10e-01	0	62	104	2557476864	18	23634
2026-01-27 00:16:51.84	132.65	10.30	-23.2	-35.8	3.6	7.82e-01	0	62	104	2557476864	14	18938
2026-01-27 00:16:54.87	133.06	10.12	-26.8	-42.2	3.9	8.00e-01	0	62	104	2557476864	26	19690
2026-01-27 00:16:57.90	133.47	9.94	-28.9	-42.0	4.2	8.00e-01	0	62	104	2557476864	23	23037
2026-01-27 00:17:00.92	133.86	9.76	-29.1	-41.2	4.1	7.99e-01	0	62	104	2557476864	21	23459
2026-01-27 00:17:03.95	134.26	9.58	-38.3	-51.1	4.1	8.38e-01	0	62	104	2557476864	43	20688
2026-01-27 00:17:06.98	134.65	9.40	-31.6	-45.7	4.5	8.19e-01	0	62	104	2557476864	34	18625
2026-01-27 00:17:10.00	135.03	9.22	-35.0	-50.8	4.1	8.41e-01	0	62	104	2557476864	46	16722
2026-01-27 00:17:13.03	135.41	9.04	-37.0	-49.8	4.3	8.42e-01	0	62	104	2557476864	42	18794
2026-01-27 00:17:16.07	135.79	8.86	-40.3	-53.0	3.9	8.46e-01	0	62	104	2557476864	52	15374
2026-01-27 00:17:19.10	136.16	8.69	-38.8	-53.2	3.8	8.46e-01	0	62	104	2557476864	53	14812
2026-01-27 00:17:22.13	136.53	8.51	-41.9	-53.6	3.9	8.45e-01	0	62	104	2557476864	53	15416
2026-01-27 00:17:25.16	136.89	8.33	-41.8	-53.5	3.8	8.46e-01	0	62	104	2557476864	54	14388
2026-01-27 00:17:28.19	137.25	8.15	-39.6	-52.2	3.7	8.46e-01	0	62	104	2557476864	52	13917
2026-01-27 00:17:31.22	137.60	7.98	-34.2	-46.2	4.2	8.44e-01	0	62	104	2557476864	33	20838
2026-01-27 00:17:34.25	137.95	7.80	-44.9	-56.8	3.8	8.46e-01	0	62	104	2557476864	60	15004
2026-01-27 00:17:37.28	138.30	7.62	-45.2	-57.1	3.8	8.46e-01	0	62	104	2557476864	60	15483
2026-01-27 00:17:40.32	138.64	7.45	-45.3	-57.1	3.8	8.46e-01	0	62	104	2557476864	61	14572
2026-01-27 00:17:43.35	138.98	7.27	-45.0	-56.8	3.8	8.46e-01	0	62	104	2557476864	61	14048
2026-01-27 00:17:46.38	139.31	7.10	-44.9	-56.6	3.8	8.46e-01	0	62	104	2557476864	61	13826
2026-01-27 00:17:49.41	139.64	6.92	-44.9	-56.6	3.8	8.46e-01	0	62	104	2557476864	61	13757
2026-01-27 00:17:52.44	139.97	6.75	-44.9	-56.6	3.8	8.45e-01	0	62	104	2557476864	61	13827
2026-01-27 00:17:55.47	140.29	6.57	-44.9	-56.6	3.8	8.47e-01	0	62	104	2557476864	61	13803
2026-01-27 00:17:58.50	140.61	6.40	-44.9	-56.6	3.8	8.45e-01	0	62	104	2557476864	61	13745
2026-01-27 00:18:01.54	140.93	6.22	-44.9	-56.6	3.8	8.46e-01	0	62	104	2557476864	61	13781
2026-01-27 00:18:04.57	141.24	6.05	-44.8	-56.5	3.8	8.47e-01	0	62	104	2557476864	61	13674
2026-01-27 00:18:07.60	141.55	5.88	-44.8	-56.5	3.8	8.47e-01	0	62	104	2557476864	61	13694
2026-01-27 00:18:10.63	141.85	5.71	-44.9	-56.5	3.8	8.46e-01	0	62	104	2557476864	61	13708
2026-01-27 00:18:13.66	142.16	5.54	-44.8	-56.5	3.8	8.46e-01	0	62	104	2557476864	61	13654
2026-01-27 00:18:16.69	142.45	5.37	-44.8	-56.5	3.8	8.45e-01	0	62	104	2557476864	61	13672
2026-01-27 00:18:19.72	142.75	5.19	-44.8	-56.5	3.8	8.46e-01	0	62	104	2557476864	61	13626
2026-01-27 00:18:22.75	143.04	5.02	-44.8	-56.5	3.8	8.46e-01	0	62	104	2557476864	61	13696
2026-01-27 00:18:25.78	143.33	4.86	-44.8	-56.5	3.8	8.45e-01	0	62	104	2557476864	61	13657
2026-01-27 00:18:28.82	143.61	4.69	-44.8	-56.5	3.8	8.47e-01	0	62	104	2557476864	61	13693
2026-01-27 00:18:31.85	143.89	4.52	-44.8	-56.5	3.8	8.47e-01	0	62	104	2557476864	61	13609
2026-01-27 00:18:34.88	144.17	4.35	-44.8	-56.5	3.8	8.46e-01	0	62	104	2557476864	61	13639
2026-01-27 00:18:37.91	144.45	4.18	-44.8	-56.5	3.8	8.45e-01	0	62	104	2557476864	61	13647
2026-01-27 00:18:40.94	144.72	4.01	-44.8	-56.5	3.8	8.45e-01	0	62	104	2557476864	61	13675
2026-01-27 00:18:43.97	144.99	3.85	-44.8	-56.5	3.8	8.47e-01	0	62	104	2557476864	61	13654
2026-01-27 00:18:47.01	145.26	3.68	-44.8	-56.5	3.8	8.45e-01	0	62	104	2557476864	61	13614
2026-01-27 00:18:50.04	145.52	3.52	-44.8	-56.5	3.8	8.47e-01	0	62	104	2557476864	61	13655
2026-01-27 00:18:53.07	145.78	3.35	-44.8	-56.5	3.8	8.46e-01	0	62	104	2557476864	61	13708
2026-01-27 00:18:56.10	146.04	3.19	-44.8	-56.5	3.8	8.46e-01	0	62	104	2557476864	61	13621
2026-01-27 00:18:59.13	146.30	3.02	-44.8	-56.5	3.8	8.46e-01	0	62	104	2557476864	61	13674
2026-01-27 00:19:02.16	146.55	2.86	-44.8	-56.5	3.8	8.46e-01	0	62	104	2557476864	61	13670
2026-01-27 00:19:05.19	146.80	2.70	-44.8	-56.5	3.8	8.46e-01	0	62	104	2557476864	61	13585
2026-01-27 00:19:08.21	147.05	2.53	-44.8	-56.5	3.8	8.46e-01	0	62	104	2557476864	61	13678
2026-01-27 00:19:11.24	147.29	2.37	-44.8	-56.5	3.8	8.45e-01	0	62	104	2557476864	61	13651
2026-01-27 00:19:14.27	147.53	2.21	-44.8	-56.5	3.8	8.46e-01	0	62	104	2557476864	61	13666
2026-01-27 00:19:17.30	147.77	2.05	-44.8	-56.5	3.8	8.46e-01	0	62	104	2557476864	61	13677
2026-01-27 00:19:20.33	148.01	1.89	-44.8	-56.5	3.8	8.45e-01	0	62	104	2557476864	61	13598

#Closed at: 2026-01-27 00:19:20
#Recorded file [2557 MB]: D:/lorett/data/31039_260127_030654.dat