passes_logs/2026/01/27/R2.0S_Moscow/R2.0S_Moscow__20260127_112606_AQUA_rec.log

#Pass ID: 20260127_112606_AQUA
#Satellite: AQUA
#Configuration: AQUA
#almurnet v.1.7.20251203
#Start time: 2026-01-27 11:26:08

#Version: 2.2.20231116
#Station: R2.0S_Moscow
#Location: 37.707566 lon 55.798166 lat
#TLE: 1 27424U 02022A   26026.85810808  .00001813  00000+0  37258-3 0  9999
#TLE: 2 27424  98.4101 353.4861 0001866  64.3332 317.5249 14.61864179262622

#Time	Az	El	Level	Level2	SNR	BER	BlckErr	Temp	State	Recorded	gain1	gain2
2026-01-27 11:26:08.48	153.31	2.14	-44.8	-63.3	3.8	7.47e-01	0	53	0	0	60	31775
2026-01-27 11:26:12.51	153.26	2.41	-44.8	-63.3	3.8	7.48e-01	0	54	104	0	60	31782
2026-01-27 11:26:16.56	153.21	2.69	-44.8	-63.3	3.8	7.43e-01	0	54	104	0	60	31742
2026-01-27 11:26:20.60	153.16	2.97	-44.8	-63.4	3.8	7.42e-01	0	54	104	0	60	31910
2026-01-27 11:26:24.64	153.11	3.25	-44.8	-63.3	3.8	7.42e-01	0	54	104	0	60	31797
2026-01-27 11:26:28.68	153.05	3.53	-44.6	-63.2	3.8	7.45e-01	0	55	104	0	60	31236
2026-01-27 11:26:32.72	153.00	3.82	-44.7	-63.3	3.8	7.42e-01	0	55	104	0	60	31731
2026-01-27 11:26:36.76	152.94	4.11	-44.4	-63.2	3.8	7.47e-01	0	55	104	0	60	31187
2026-01-27 11:26:40.81	152.88	4.40	-44.8	-63.3	3.8	7.48e-01	0	55	104	0	60	31737
2026-01-27 11:26:44.85	152.82	4.70	-44.7	-63.3	3.8	7.47e-01	0	56	104	0	60	31638
2026-01-27 11:26:48.89	152.76	5.00	-44.8	-63.1	3.8	7.48e-01	0	56	104	0	60	30966
2026-01-27 11:26:52.93	152.70	5.31	-44.7	-62.6	3.8	7.48e-01	0	56	104	0	60	29314
2026-01-27 11:26:56.97	152.64	5.62	-44.7	-62.2	3.8	7.47e-01	0	56	104	0	60	27919
2026-01-27 11:27:01.01	152.57	5.93	-44.6	-59.3	4.4	7.29e-01	0	57	104	0	60	19879
2026-01-27 11:27:05.05	152.50	6.25	-44.5	-56.8	5.5	6.92e-01	64	57	0	0	60	15049
2026-01-27 11:27:09.09	152.43	6.57	-44.7	-56.1	6.5	6.72e-01	92	57	0	6815744	59	14556
2026-01-27 11:27:13.14	152.36	6.90	-44.5	-55.9	6.5	6.73e-01	92	57	0	14155776	59	14373
2026-01-27 11:27:17.18	152.28	7.23	-44.7	-56.0	6.3	6.73e-01	91	57	0	20971520	59	14515
2026-01-27 11:27:21.22	152.21	7.56	-44.0	-51.8	10.5	6.20e-01	0	58	0	28311552	59	8931
2026-01-27 11:27:25.26	152.13	7.91	-43.1	-48.5	13.8	6.06e-01	0	57	0	36175872	56	7261
2026-01-27 11:27:29.30	152.05	8.25	-44.3	-55.4	5.2	6.87e-01	51	58	104	42467328	60	12757
2026-01-27 11:27:33.34	151.97	8.60	-42.3	-46.8	15.5	6.07e-01	0	58	0	49807360	55	6345
2026-01-27 11:27:37.38	151.88	8.96	-42.1	-46.3	16.4	6.05e-01	0	58	0	57147392	55	5926
2026-01-27 11:27:41.42	151.79	9.32	-41.8	-45.5	17.2	6.06e-01	0	58	0	65011712	55	5449
2026-01-27 11:27:45.46	151.70	9.69	-41.8	-45.5	17.4	6.05e-01	0	58	0	72351744	55	5415
2026-01-27 11:27:49.50	151.61	10.07	-41.7	-45.3	17.5	6.06e-01	0	58	0	80216064	55	5319
2026-01-27 11:27:53.54	151.51	10.45	-41.9	-45.5	17.5	6.07e-01	0	58	0	87556096	55	5404
2026-01-27 11:27:57.58	151.41	10.83	-41.7	-45.1	17.9	6.06e-01	0	59	0	94896128	55	5171
2026-01-27 11:28:01.62	151.31	11.23	-41.7	-45.1	17.9	6.07e-01	0	59	0	102760448	55	5207
2026-01-27 11:28:05.66	151.20	11.63	-41.7	-45.1	17.9	6.09e-01	0	59	0	110100480	55	5189
2026-01-27 11:28:09.70	151.09	12.04	-41.8	-45.2	17.9	6.06e-01	0	59	0	117964800	55	5239
2026-01-27 11:28:13.74	150.98	12.46	-41.7	-45.0	18.1	6.09e-01	0	59	0	125304832	55	5148
2026-01-27 11:28:17.79	150.86	12.88	-41.8	-45.1	18.1	6.07e-01	0	59	0	133169152	55	5195
2026-01-27 11:28:21.83	150.74	13.31	-41.8	-45.0	18.3	6.07e-01	0	59	0	140509184	55	5147
2026-01-27 11:28:25.86	150.61	13.75	-41.7	-44.9	18.2	6.08e-01	0	59	0	148373504	55	5046
2026-01-27 11:28:29.91	150.48	14.21	-41.5	-44.6	18.7	6.07e-01	0	59	0	155713536	55	4912
2026-01-27 11:28:33.95	150.35	14.67	-41.6	-44.7	18.6	6.08e-01	0	59	0	163053568	54	5278
2026-01-27 11:28:37.98	150.21	15.13	-41.6	-44.6	18.8	6.08e-01	0	60	0	170917888	54	5208
2026-01-27 11:28:42.03	150.06	15.61	-41.3	-44.5	18.6	6.09e-01	0	60	0	178257920	54	5118
2026-01-27 11:28:46.07	149.91	16.10	-41.5	-44.5	18.8	6.06e-01	0	60	0	186122240	54	5144
2026-01-27 11:28:50.10	149.75	16.60	-41.6	-44.7	18.9	6.05e-01	0	60	0	193462272	53	5532
2026-01-27 11:28:54.14	149.59	17.12	-41.8	-44.8	18.7	6.04e-01	0	60	0	201326592	54	5336
2026-01-27 11:28:58.18	149.42	17.64	-41.7	-44.9	18.5	6.10e-01	0	60	0	208666624	54	5352
2026-01-27 11:29:02.23	149.25	18.18	-41.6	-44.6	19.0	6.07e-01	0	60	0	216530944	54	5189
2026-01-27 11:29:06.27	149.06	18.73	-41.4	-44.3	19.3	6.07e-01	0	60	0	223870976	53	5307
2026-01-27 11:29:10.31	148.87	19.29	-41.5	-44.4	19.3	6.06e-01	0	60	0	231735296	53	5364
2026-01-27 11:29:14.35	148.67	19.87	-41.6	-44.8	17.9	6.08e-01	0	60	0	239075328	54	5303
2026-01-27 11:29:18.40	148.47	20.46	-41.8	-44.8	18.6	6.06e-01	0	60	0	246415360	54	5297
2026-01-27 11:29:22.43	148.25	21.06	-41.9	-44.9	18.8	6.07e-01	0	60	0	254279680	54	5398
2026-01-27 11:29:26.47	148.02	21.69	-41.9	-45.0	17.3	6.07e-01	0	60	0	261619712	54	5414
2026-01-27 11:29:30.50	147.79	22.32	-41.9	-44.9	18.9	6.07e-01	0	61	0	269484032	54	5378
2026-01-27 11:29:34.54	147.54	22.98	-42.0	-45.0	18.5	6.05e-01	0	60	0	276824064	54	5463
2026-01-27 11:29:38.59	147.28	23.66	-42.2	-45.4	18.3	6.05e-01	0	60	0	284688384	54	5679
2026-01-27 11:29:42.62	147.01	24.35	-42.1	-45.2	18.3	6.09e-01	0	61	0	292028416	55	5273
2026-01-27 11:29:46.66	146.72	25.06	-41.9	-44.9	18.8	6.05e-01	0	61	0	299892736	55	5088
2026-01-27 11:29:50.70	146.42	25.79	-41.9	-45.0	18.8	6.06e-01	0	61	0	307232768	55	5127
2026-01-27 11:29:54.74	146.11	26.55	-42.0	-45.1	18.6	6.05e-01	0	61	0	314572800	55	5204
2026-01-27 11:29:58.78	145.78	27.33	-41.8	-44.8	19.0	6.07e-01	0	61	0	322437120	55	4988
2026-01-27 11:30:02.82	145.43	28.13	-41.6	-44.5	19.4	6.04e-01	0	61	0	329777152	54	5112
2026-01-27 11:30:06.86	145.06	28.95	-41.9	-44.9	19.0	6.08e-01	0	61	0	337641472	54	5363
2026-01-27 11:30:10.90	144.67	29.80	-41.6	-44.4	19.5	6.07e-01	0	61	0	344981504	54	5050
2026-01-27 11:30:14.94	144.25	30.68	-41.7	-44.5	19.4	6.08e-01	0	61	0	352845824	54	5146
2026-01-27 11:30:18.98	143.81	31.58	-41.5	-44.2	19.8	6.06e-01	0	61	0	360185856	54	4939
2026-01-27 11:30:23.02	143.35	32.52	-41.7	-44.6	19.3	6.04e-01	0	61	0	368050176	54	5174
2026-01-27 11:30:27.06	142.85	33.48	-41.6	-44.4	19.3	6.06e-01	0	61	0	375390208	54	5097
2026-01-27 11:30:31.11	142.33	34.48	-42.1	-45.3	18.4	6.06e-01	0	61	0	382730240	54	5594
2026-01-27 11:30:35.15	141.76	35.50	-42.3	-45.4	18.5	6.05e-01	0	61	0	390594560	55	5377
2026-01-27 11:30:39.19	141.16	36.56	-42.7	-46.1	17.9	6.04e-01	0	61	0	397934592	56	5519
2026-01-27 11:30:43.23	140.52	37.65	-43.2	-46.9	17.2	6.06e-01	0	61	0	405798912	56	6005
2026-01-27 11:30:47.27	139.83	38.78	-42.9	-46.4	17.7	6.04e-01	0	61	0	413138944	56	5704
2026-01-27 11:30:51.31	139.08	39.94	-43.0	-46.5	17.6	6.07e-01	0	61	0	421003264	57	5457
2026-01-27 11:30:55.34	138.29	41.13	-42.9	-46.3	17.9	6.05e-01	0	61	0	428343296	57	5308
2026-01-27 11:30:59.39	137.42	42.37	-42.8	-46.2	17.9	6.06e-01	0	61	0	436207616	57	5261
2026-01-27 11:31:03.43	136.48	43.64	-42.7	-46.0	18.1	6.09e-01	0	61	0	443547648	57	5149
2026-01-27 11:31:07.47	135.46	44.95	-42.4	-45.5	18.7	6.07e-01	0	61	0	450887680	56	5117
2026-01-27 11:31:11.51	134.36	46.29	-42.5	-45.7	18.5	6.05e-01	0	61	0	458752000	56	5232
2026-01-27 11:31:15.55	133.14	47.66	-42.6	-45.8	18.4	6.08e-01	0	61	0	466092032	56	5329
2026-01-27 11:31:19.59	131.82	49.07	-42.2	-45.2	19.0	6.05e-01	0	61	0	473956352	56	4957
2026-01-27 11:31:23.62	130.36	50.50	-42.2	-45.2	19.0	6.03e-01	0	61	0	481296384	56	4931
2026-01-27 11:31:27.67	128.75	51.97	-41.8	-44.5	19.6	6.07e-01	0	61	0	489160704	55	4867
2026-01-27 11:31:31.71	126.98	53.45	-41.5	-44.2	19.9	6.07e-01	0	61	0	496500736	55	4677
2026-01-27 11:31:35.75	125.00	54.95	-41.6	-44.3	19.8	6.06e-01	0	62	0	504365056	55	4745
2026-01-27 11:31:39.79	122.81	56.45	-42.2	-45.2	18.9	6.06e-01	0	61	0	511705088	55	5255
2026-01-27 11:31:43.83	120.36	57.95	-42.7	-46.0	18.1	6.07e-01	0	61	0	519569408	55	5758
2026-01-27 11:31:47.87	117.62	59.43	-43.1	-46.7	17.5	6.05e-01	0	62	0	526909440	56	5857
2026-01-27 11:31:51.91	114.55	60.89	-42.9	-46.3	17.9	6.05e-01	0	61	0	534249472	56	5595
2026-01-27 11:31:55.96	111.10	62.30	-42.9	-46.4	17.8	6.07e-01	0	62	0	542113792	57	5375
2026-01-27 11:31:59.99	107.25	63.63	-43.2	-46.8	17.4	6.07e-01	0	62	0	549453824	57	5640
2026-01-27 11:32:04.03	102.94	64.87	-43.9	-48.2	16.0	6.08e-01	0	62	0	557318144	58	6225
2026-01-27 11:32:08.08	98.14	65.99	-44.1	-48.8	15.3	6.06e-01	0	62	0	564658176	59	6296
2026-01-27 11:32:12.11	92.89	66.94	-44.6	-49.9	14.2	6.06e-01	0	62	0	572522496	59	7183
2026-01-27 11:32:16.15	87.17	67.72	-44.3	-49.2	14.9	6.06e-01	0	62	0	579862528	59	6617
2026-01-27 11:32:20.19	81.06	68.29	-43.8	-48.1	15.9	6.05e-01	0	62	0	587726848	59	5843
2026-01-27 11:32:24.23	74.67	68.61	-44.6	-50.0	14.0	6.06e-01	0	62	0	595066880	59	7212
2026-01-27 11:32:28.28	68.14	68.69	-44.2	-48.9	15.2	6.07e-01	0	62	0	602406912	59	6361
2026-01-27 11:32:32.32	61.66	68.51	-44.3	-49.1	15.0	6.06e-01	0	62	0	610271232	59	6570
2026-01-27 11:32:36.36	55.38	68.08	-44.2	-49.4	14.2	6.09e-01	0	62	0	617611264	60	6416
2026-01-27 11:32:40.39	49.44	67.42	-44.2	-49.3	14.4	6.06e-01	0	62	0	625475584	60	6343
2026-01-27 11:32:44.43	43.91	66.57	-44.1	-49.0	14.8	6.07e-01	0	62	0	632815616	60	6096
2026-01-27 11:32:48.47	38.84	65.54	-44.3	-49.1	15.0	6.09e-01	0	62	0	640679936	59	6545
2026-01-27 11:32:52.51	34.27	64.37	-44.4	-49.4	14.8	6.07e-01	0	62	0	648019968	59	6767
2026-01-27 11:32:56.55	30.15	63.09	-44.0	-48.5	15.7	6.06e-01	0	62	0	655884288	59	6101
2026-01-27 11:33:00.59	26.48	61.73	-43.4	-47.2	17.0	6.05e-01	0	62	0	663224320	58	5583
2026-01-27 11:33:04.63	23.20	60.31	-43.1	-46.7	17.6	6.06e-01	0	62	0	671088640	58	5225
2026-01-27 11:33:08.67	20.28	58.84	-43.0	-46.5	17.7	6.08e-01	0	62	0	678428672	57	5431
2026-01-27 11:33:12.71	17.67	57.35	-42.5	-45.6	18.5	6.06e-01	0	62	0	685768704	56	5182
2026-01-27 11:33:16.76	15.32	55.85	-41.9	-44.8	19.3	6.04e-01	0	62	0	693633024	55	5016
2026-01-27 11:33:20.80	13.23	54.36	-41.2	-43.9	20.0	6.06e-01	0	62	0	700973056	54	4761
2026-01-27 11:33:24.84	11.34	52.87	-41.3	-43.9	19.9	6.06e-01	0	62	0	708837376	53	5098
2026-01-27 11:33:28.88	9.64	51.40	-41.5	-44.2	19.7	6.06e-01	0	62	0	716177408	53	5262
2026-01-27 11:33:32.92	8.10	49.96	-42.0	-54.4	3.8	7.43e-01	0	62	104	720371712	54	16097
2026-01-27 11:33:36.95	6.71	48.54	-44.6	-59.4	3.8	7.47e-01	0	62	104	720371712	59	21381
2026-01-27 11:33:41.00	5.43	47.15	-42.4	-55.0	3.8	7.44e-01	0	62	104	720371712	56	15310
2026-01-27 11:33:45.04	4.27	45.79	-44.5	-59.3	3.9	7.40e-01	0	62	104	720371712	60	20035
2026-01-27 11:33:49.07	3.20	44.47	-42.8	-55.3	3.8	7.45e-01	0	62	104	720371712	57	14953
2026-01-27 11:33:53.11	2.22	43.19	-44.3	-58.9	3.8	7.41e-01	0	62	104	720371712	60	19127
2026-01-27 11:33:57.15	1.32	41.94	-43.1	-55.9	3.8	7.43e-01	0	62	104	720371712	57	16102
2026-01-27 11:34:01.19	0.48	40.73	-44.5	-59.6	3.8	7.46e-01	0	62	104	720371712	60	20598
2026-01-27 11:34:05.23	359.71	39.55	-43.4	-56.3	3.8	7.45e-01	0	62	104	720371712	58	15838
2026-01-27 11:34:09.27	358.99	38.41	-44.3	-59.0	3.8	7.42e-01	0	62	104	720371712	60	19326
2026-01-27 11:34:13.31	358.32	37.30	-43.4	-56.9	3.8	7.43e-01	0	62	104	720371712	58	17024
2026-01-27 11:34:17.35	357.70	36.22	-43.8	-57.4	3.8	7.41e-01	0	62	104	720371712	59	17068
2026-01-27 11:34:21.39	357.11	35.18	-42.6	-55.3	3.8	7.44e-01	0	62	104	720371712	57	14952
2026-01-27 11:34:25.43	356.57	34.17	-42.8	-56.0	3.8	7.43e-01	0	62	104	720371712	57	16278
2026-01-27 11:34:29.47	356.06	33.20	-42.3	-55.1	3.8	7.46e-01	0	62	104	720371712	56	15575
2026-01-27 11:34:33.51	355.58	32.25	-41.8	-54.2	3.9	7.45e-01	0	62	104	720371712	55	14723
2026-01-27 11:34:37.55	355.12	31.33	-42.0	-54.7	3.8	7.44e-01	0	62	104	720371712	55	15621
2026-01-27 11:34:41.59	354.70	30.44	-42.2	-55.0	3.8	7.47e-01	0	62	104	720371712	56	15277
2026-01-27 11:34:45.63	354.30	29.58	-42.1	-55.0	3.8	7.47e-01	0	62	104	720371712	55	16130
2026-01-27 11:34:49.67	353.92	28.74	-42.4	-55.0	3.8	7.45e-01	0	62	104	720371712	55	16306
2026-01-27 11:34:53.71	353.56	27.93	-42.5	-55.5	3.8	7.44e-01	0	62	104	720371712	56	16130
2026-01-27 11:34:57.75	353.22	27.14	-43.7	-57.0	3.8	7.47e-01	0	62	104	720371712	57	18105
2026-01-27 11:35:01.76	352.90	26.38	-42.6	-55.7	3.8	7.43e-01	0	62	104	720371712	56	16661
2026-01-27 11:35:05.79	352.59	25.64	-44.3	-58.7	3.8	7.46e-01	0	62	104	720371712	59	19818
2026-01-27 11:35:09.83	352.30	24.92	-42.9	-56.2	3.8	7.48e-01	0	62	104	720371712	56	17603
2026-01-27 11:35:13.87	352.02	24.21	-44.6	-59.5	3.8	7.46e-01	0	62	104	720371712	59	21703
2026-01-27 11:35:17.91	351.76	23.53	-43.0	-56.9	3.8	7.45e-01	0	62	104	720371712	56	18975
2026-01-27 11:35:21.95	351.50	22.87	-45.0	-61.5	3.8	7.52e-01	0	62	104	720371712	60	25703
2026-01-27 11:35:25.99	351.26	22.22	-42.0	-56.3	3.8	7.41e-01	0	62	104	720371712	54	19942
2026-01-27 11:35:30.03	351.03	21.59	-44.6	-61.7	3.8	7.47e-01	0	62	104	720371712	59	27853
2026-01-27 11:35:34.07	350.81	20.98	-42.6	-59.4	3.8	7.44e-01	0	62	104	720371712	56	25379
2026-01-27 11:35:38.11	350.60	20.38	-42.3	-61.1	3.8	7.46e-01	0	62	104	720371712	56	30906
2026-01-27 11:35:42.15	350.40	19.79	-42.2	-61.2	3.8	7.47e-01	0	62	104	720371712	56	31199
2026-01-27 11:35:46.19	350.21	19.22	-42.0	-61.0	3.8	7.49e-01	0	62	104	720371712	56	30380
2026-01-27 11:35:50.23	350.02	18.67	-41.8	-60.8	3.8	7.45e-01	0	62	104	720371712	55	31518
2026-01-27 11:35:54.27	349.85	18.13	-42.1	-61.0	3.8	7.44e-01	0	62	104	720371712	55	32289
2026-01-27 11:35:58.31	349.68	17.60	-42.2	-61.1	3.8	7.42e-01	0	62	104	720371712	55	32699
2026-01-27 11:36:02.36	349.51	17.08	-42.0	-60.9	3.8	7.45e-01	0	62	104	720371712	55	31914
2026-01-27 11:36:06.40	349.36	16.57	-41.9	-60.8	3.8	7.46e-01	0	62	104	720371712	55	31544
2026-01-27 11:36:10.44	349.20	16.08	-42.0	-60.9	3.8	7.46e-01	0	62	104	720371712	55	31917
2026-01-27 11:36:14.48	349.06	15.59	-42.1	-61.0	3.8	7.46e-01	0	62	104	720371712	56	30526
2026-01-27 11:36:18.52	348.92	15.12	-42.3	-61.2	3.8	7.45e-01	0	62	104	720371712	56	31217
2026-01-27 11:36:22.56	348.78	14.65	-42.7	-61.3	3.8	7.45e-01	0	62	104	720371712	56	31738
2026-01-27 11:36:26.61	348.65	14.20	-42.6	-61.3	3.8	7.45e-01	0	62	104	720371712	56	31615
2026-01-27 11:36:30.64	348.53	13.75	-42.6	-61.3	3.8	7.48e-01	0	62	104	720371712	56	31676
2026-01-27 11:36:34.68	348.41	13.32	-42.5	-61.3	3.8	7.47e-01	0	62	104	720371712	56	31694
2026-01-27 11:36:38.73	348.29	12.89	-42.2	-61.2	3.8	7.47e-01	0	62	104	720371712	54	35153
2026-01-27 11:36:42.76	348.18	12.47	-42.2	-61.2	3.8	7.45e-01	0	62	104	720371712	55	33073
2026-01-27 11:36:46.81	348.07	12.05	-42.0	-61.1	3.8	7.41e-01	0	62	104	720371712	54	34663
2026-01-27 11:36:50.85	347.96	11.65	-42.2	-61.0	3.8	7.44e-01	0	62	104	720371712	55	32491
2026-01-27 11:36:54.88	347.86	11.25	-42.1	-61.0	3.8	7.41e-01	0	62	104	720371712	55	32424
2026-01-27 11:36:58.92	347.76	10.86	-41.8	-61.0	3.8	7.46e-01	0	62	104	720371712	54	34378
2026-01-27 11:37:02.96	347.67	10.48	-40.2	-60.9	3.8	7.45e-01	0	62	104	720371712	52	38205
2026-01-27 11:37:07.00	347.58	10.10	-40.1	-60.9	3.8	7.44e-01	0	62	104	720371712	52	38082
2026-01-27 11:37:11.04	347.49	9.73	-42.2	-60.9	3.8	7.47e-01	0	62	104	720371712	54	33937
2026-01-27 11:37:15.08	347.40	9.36	-42.1	-60.8	3.8	7.48e-01	0	62	104	720371712	54	33668
2026-01-27 11:37:19.12	347.32	9.00	-42.1	-60.8	3.8	7.46e-01	0	62	104	720371712	54	33485
2026-01-27 11:37:23.16	347.24	8.65	-42.0	-60.8	3.8	7.46e-01	0	62	104	720371712	54	33342
2026-01-27 11:37:27.20	347.16	8.30	-42.0	-60.7	3.8	7.45e-01	0	62	104	720371712	54	33270
2026-01-27 11:37:31.24	347.08	7.96	-42.1	-61.0	3.8	7.46e-01	0	62	104	720371712	54	34147
2026-01-27 11:37:35.28	347.01	7.62	-46.0	-64.5	3.8	7.45e-01	0	62	104	720371712	62	32387
2026-01-27 11:37:39.33	346.94	7.29	-46.2	-64.8	3.8	7.43e-01	0	62	104	720371712	63	31712
2026-01-27 11:37:43.37	346.87	6.96	-46.1	-64.5	3.8	7.44e-01	0	62	104	720371712	62	32489
2026-01-27 11:37:47.41	346.80	6.63	-46.2	-64.7	3.8	7.46e-01	0	62	104	720371712	62	33078
2026-01-27 11:37:51.45	346.74	6.31	-46.1	-64.6	3.8	7.44e-01	0	62	104	720371712	62	32897
2026-01-27 11:37:55.49	346.67	6.00	-46.1	-64.6	3.8	7.43e-01	0	62	104	720371712	62	32900
2026-01-27 11:37:59.53	346.61	5.69	-46.1	-64.6	3.8	7.46e-01	0	62	104	720371712	62	32839
2026-01-27 11:38:03.57	346.55	5.38	-46.1	-64.6	3.8	7.44e-01	0	62	104	720371712	62	32847
2026-01-27 11:38:07.62	346.49	5.08	-46.1	-64.6	3.8	7.46e-01	0	62	104	720371712	62	32629
2026-01-27 11:38:11.66	346.44	4.78	-46.1	-64.6	3.8	7.50e-01	0	62	104	720371712	62	32847
2026-01-27 11:38:15.70	346.38	4.48	-46.1	-64.6	3.8	7.43e-01	0	62	104	720371712	62	32877
2026-01-27 11:38:19.74	346.33	4.19	-46.1	-64.6	3.8	7.41e-01	0	62	104	720371712	62	32828
2026-01-27 11:38:23.79	346.28	3.90	-46.1	-64.6	3.8	7.46e-01	0	62	104	720371712	62	32864
2026-01-27 11:38:27.83	346.23	3.62	-46.1	-64.6	3.8	7.45e-01	0	62	104	720371712	62	32764
2026-01-27 11:38:31.87	346.18	3.33	-46.0	-64.6	3.8	7.47e-01	0	62	104	720371712	62	32722
2026-01-27 11:38:35.91	346.13	3.05	-46.1	-64.6	3.8	7.46e-01	0	62	104	720371712	62	32760
2026-01-27 11:38:39.95	346.09	2.78	-46.1	-64.6	3.8	7.44e-01	0	62	104	720371712	62	32720
2026-01-27 11:38:43.99	346.04	2.51	-46.1	-64.6	3.8	7.46e-01	0	62	104	720371712	62	32762
2026-01-27 11:38:48.02	346.00	2.24	-46.1	-64.6	3.8	7.44e-01	0	62	104	720371712	62	32674
2026-01-27 11:38:52.07	345.96	1.97	-46.1	-64.6	3.8	7.45e-01	0	62	104	720371712	62	32755

#Closed at: 2026-01-27 11:38:52
#Recorded file [720 MB]: D:/lorett/data/31039_260127_142608.dat