passes_logs/2026/01/27/R2.0S_Moscow/R2.0S_Moscow__20260127_090042_SUOMI_NPP_rec.log

#Pass ID: 20260127_090042_SUOMI NPP
#Satellite: SUOMI NPP
#Configuration: NPP
#almurnet v.1.7.20251203
#Start time: 2026-01-27 09:00:42

#Version: 2.2.20231116
#Station: R2.0S_Moscow
#Location: 37.707566 lon 55.798166 lat
#TLE: 1 37849U 11061A   26026.87508736  .00000176  00000+0  10464-3 0  9991
#TLE: 2 37849  98.7822 328.8221 0002127  43.3055 316.8288 14.19530452738397

#Time	Az	El	Level	Level2	SNR	BER	BlckErr	Temp	State	Recorded	gain1	gain2
2026-01-27 09:00:42.34	131.83	2.00	-16.5	-31.1	3.9	1.50e+00	0	54	0	0	8	15489
2026-01-27 09:00:46.38	131.67	2.25	-15.7	-29.0	3.6	1.51e+00	0	54	104	0	2	17181
2026-01-27 09:00:50.42	131.50	2.50	-14.1	-27.9	3.8	1.50e+00	0	54	104	0	1	16070
2026-01-27 09:00:54.47	131.33	2.75	-14.3	-28.0	3.8	1.51e+00	0	55	104	0	3	14407
2026-01-27 09:00:58.51	131.16	3.01	-18.0	-33.5	3.5	1.51e+00	0	55	104	0	11	17212
2026-01-27 09:01:02.55	130.98	3.27	-16.3	-30.4	3.8	1.50e+00	0	55	104	0	3	19004
2026-01-27 09:01:06.59	130.80	3.53	-15.3	-29.2	3.9	1.50e+00	0	56	104	0	3	16677
2026-01-27 09:01:10.63	130.62	3.79	-18.9	-33.3	3.5	1.50e+00	0	56	104	0	10	17828
2026-01-27 09:01:14.68	130.43	4.05	-17.0	-30.1	3.9	1.50e+00	0	56	104	0	5	16480
2026-01-27 09:01:18.72	130.24	4.32	-19.1	-32.3	3.7	1.51e+00	0	56	104	0	8	17700
2026-01-27 09:01:22.76	130.05	4.59	-22.4	-33.0	3.9	1.50e+00	0	57	104	0	7	20389
2026-01-27 09:01:26.81	129.85	4.86	-13.9	-29.6	3.5	1.50e+00	0	57	104	0	6	14662
2026-01-27 09:01:30.85	129.65	5.14	-21.8	-35.0	3.5	1.50e+00	0	57	104	0	8	24225
2026-01-27 09:01:34.89	129.44	5.41	-17.6	-31.9	3.7	1.50e+00	0	57	104	0	8	16972
2026-01-27 09:01:38.93	129.23	5.69	-15.8	-29.0	3.8	1.50e+00	0	57	104	0	3	16207
2026-01-27 09:01:42.98	129.02	5.97	-15.8	-29.6	3.8	1.51e+00	0	58	104	0	4	16319
2026-01-27 09:01:47.02	128.80	6.26	-16.7	-29.3	3.9	1.50e+00	0	58	104	0	2	17865
2026-01-27 09:01:51.06	128.58	6.55	-17.0	-31.4	3.6	1.50e+00	0	58	104	0	5	19108
2026-01-27 09:01:55.10	128.35	6.84	-17.3	-32.3	3.6	1.50e+00	0	58	104	0	6	19872
2026-01-27 09:01:59.14	128.12	7.13	-15.3	-28.2	4.0	1.50e+00	0	59	104	0	2	15597
2026-01-27 09:02:03.19	127.88	7.43	-16.8	-32.3	3.6	1.50e+00	0	59	104	0	6	19975
2026-01-27 09:02:07.23	127.64	7.72	-19.5	-33.9	3.8	1.50e+00	0	59	0	0	7	22602
2026-01-27 09:02:11.27	127.39	8.03	-17.3	-32.2	3.6	1.50e+00	0	59	104	0	5	20872
2026-01-27 09:02:15.31	127.14	8.33	-16.6	-31.1	3.5	1.50e+00	0	59	104	0	5	18313
2026-01-27 09:02:19.35	126.88	8.64	-21.1	-34.4	3.7	1.50e+00	0	59	104	0	6	25505
2026-01-27 09:02:23.39	126.62	8.95	-19.2	-31.9	3.7	1.50e+00	0	60	104	0	10	15211
2026-01-27 09:02:27.43	126.35	9.27	-24.0	-40.2	3.8	1.50e+00	0	60	104	0	17	26250
2026-01-27 09:02:31.47	126.07	9.58	-19.2	-33.6	3.9	1.51e+00	0	60	104	0	8	20754
2026-01-27 09:02:35.51	125.79	9.91	-21.2	-32.2	3.8	1.50e+00	0	60	104	0	9	16649
2026-01-27 09:02:39.55	125.50	10.23	-22.7	-39.2	3.9	1.50e+00	0	60	104	0	16	24704
2026-01-27 09:02:43.59	125.21	10.56	-21.4	-35.2	3.6	1.51e+00	0	60	104	0	11	20878
2026-01-27 09:02:47.63	124.90	10.89	-30.6	-42.2	4.1	1.48e+00	0	60	104	0	24	22017
2026-01-27 09:02:51.67	124.59	11.23	-21.0	-36.5	3.6	1.50e+00	0	60	104	0	13	21723
2026-01-27 09:02:55.71	124.28	11.57	-31.6	-43.0	4.9	1.50e+00	0	60	104	0	33	14482
2026-01-27 09:02:59.75	123.95	11.91	-35.5	-45.7	4.7	1.37e+00	0	60	104	1048576	40	13239
2026-01-27 09:03:03.79	123.62	12.26	-31.3	-46.3	6.2	7.73e-01	0	61	0	4194304	40	14165
2026-01-27 09:03:07.83	123.28	12.61	-38.3	-45.2	7.1	1.46e+00	0	60	104	5242880	41	11697
2026-01-27 09:03:11.87	122.93	12.97	-38.7	-47.9	7.3	2.44e-01	0	61	0	11534336	46	12049
2026-01-27 09:03:15.91	122.57	13.33	-33.1	-45.4	7.4	5.14e-01	0	61	0	18874368	44	10093
2026-01-27 09:03:19.95	122.20	13.69	-37.7	-47.2	6.9	4.17e-01	0	61	0	26214400	43	13110
2026-01-27 09:03:23.99	121.82	14.06	-37.1	-46.9	8.2	3.54e-01	0	61	0	32505856	46	10768
2026-01-27 09:03:28.03	121.44	14.43	-37.8	-46.7	8.1	4.34e-02	0	61	0	39845888	46	10468
2026-01-27 09:03:32.07	121.04	14.81	-37.4	-48.4	6.4	3.65e-01	0	61	0	48234496	45	13431
2026-01-27 09:03:36.11	120.63	15.19	-32.6	-46.5	8.5	1.60e-01	0	61	0	55574528	46	10220
2026-01-27 09:03:40.16	120.21	15.58	-39.0	-46.9	9.4	6.59e-02	0	61	0	62914560	50	8519
2026-01-27 09:03:44.19	119.79	15.97	-39.1	-45.2	9.2	3.18e-02	0	61	0	70254592	48	7847
2026-01-27 09:03:48.23	119.34	16.37	-40.1	-46.6	10.9	8.10e-03	0	62	0	77594624	52	7322
2026-01-27 09:03:52.27	118.89	16.77	-40.8	-44.4	13.1	5.45e-04	0	61	0	85983232	52	5714
2026-01-27 09:03:56.31	118.43	17.17	-41.8	-46.0	11.7	3.40e-03	0	62	0	93323264	54	6066
2026-01-27 09:04:00.35	117.95	17.58	-39.7	-45.1	12.1	2.82e-03	0	62	0	100663296	51	6503
2026-01-27 09:04:04.39	117.45	18.00	-41.0	-45.8	11.8	5.76e-04	0	62	0	108003328	54	5928
2026-01-27 09:04:08.43	116.95	18.42	-41.4	-44.9	12.9	7.24e-05	0	62	0	116391936	53	5698
2026-01-27 09:04:12.47	116.43	18.84	-41.6	-45.5	12.2	1.88e-04	0	62	0	123731968	53	6084
2026-01-27 09:04:16.51	115.89	19.27	-41.0	-46.3	11.3	9.79e-04	0	62	0	131072000	53	6707
2026-01-27 09:04:20.55	115.34	19.70	-41.6	-45.3	12.4	2.58e-04	0	62	0	138412032	53	5974
2026-01-27 09:04:24.59	114.77	20.14	-42.3	-47.1	10.7	2.39e-03	0	62	0	146800640	55	6524
2026-01-27 09:04:28.63	114.19	20.59	-41.6	-45.4	12.5	2.75e-04	0	62	0	154140672	54	5676
2026-01-27 09:04:32.67	113.59	21.04	-42.4	-47.0	10.9	2.18e-03	0	62	0	161480704	55	6455
2026-01-27 09:04:36.71	112.97	21.49	-41.9	-45.8	12.1	2.63e-04	0	62	0	168820736	55	5648
2026-01-27 09:04:40.75	112.33	21.95	-42.0	-45.9	12.0	3.14e-04	0	62	0	176160768	55	5685
2026-01-27 09:04:44.79	111.67	22.41	-41.4	-44.8	13.3	2.21e-05	0	62	0	184549376	54	5289
2026-01-27 09:04:48.83	110.99	22.87	-41.8	-45.5	12.5	9.84e-05	0	62	0	191889408	54	5761
2026-01-27 09:04:52.87	110.30	23.34	-41.3	-44.5	13.5	8.30e-06	0	62	0	199229440	54	5159
2026-01-27 09:04:56.90	109.58	23.82	-41.9	-45.7	12.4	2.99e-04	0	62	0	206569472	54	5862
2026-01-27 09:05:00.94	108.83	24.29	-42.6	-47.3	10.8	1.30e-03	0	62	0	214958080	55	6702
2026-01-27 09:05:04.99	108.07	24.77	-42.6	-47.0	11.2	9.54e-04	0	62	0	222298112	56	6104
2026-01-27 09:05:09.03	107.28	25.26	-42.8	-47.5	10.7	3.18e-03	0	62	0	229638144	56	6452
2026-01-27 09:05:13.07	106.46	25.74	-42.9	-47.7	10.4	3.98e-03	0	62	0	236978176	56	6646
2026-01-27 09:05:17.11	105.62	26.23	-42.9	-47.7	10.7	5.40e-03	0	62	0	244318208	56	6583
2026-01-27 09:05:21.15	104.75	26.72	-42.4	-46.6	11.7	4.36e-04	0	62	0	252706816	56	5801
2026-01-27 09:05:25.19	103.86	27.22	-42.6	-46.8	11.6	1.14e-03	0	62	0	260046848	56	5933
2026-01-27 09:05:29.23	102.94	27.71	-42.9	-47.6	10.6	2.95e-03	0	62	0	267386880	56	6560
2026-01-27 09:05:33.27	101.99	28.20	-42.9	-47.6	10.7	1.66e-03	0	62	0	274726912	56	6500
2026-01-27 09:05:37.31	101.00	28.69	-42.7	-47.0	11.3	1.17e-03	0	62	0	283115520	56	6078
2026-01-27 09:05:41.35	99.99	29.19	-42.9	-47.4	10.8	3.69e-03	0	62	0	290455552	56	6397
2026-01-27 09:05:45.39	98.95	29.68	-43.1	-48.0	10.2	4.31e-03	0	62	0	297795584	56	6813
2026-01-27 09:05:49.44	97.87	30.16	-42.7	-47.1	11.2	1.44e-03	0	62	0	305135616	56	6188
2026-01-27 09:05:53.47	96.76	30.65	-43.1	-48.1	10.3	6.48e-03	0	62	0	312475648	56	6900
2026-01-27 09:05:57.51	95.62	31.13	-43.4	-48.8	9.5	1.19e-02	0	62	0	320864256	57	7082
2026-01-27 09:06:01.55	94.44	31.60	-43.7	-49.5	8.7	5.04e-02	0	62	0	328204288	58	7264
2026-01-27 09:06:05.59	93.23	32.07	-43.3	-48.4	9.9	8.81e-03	0	62	0	335544320	58	6402
2026-01-27 09:06:09.63	91.98	32.53	-43.8	-49.9	8.3	2.72e-02	0	63	0	342884352	58	7559
2026-01-27 09:06:13.67	90.70	32.98	-44.0	-50.8	7.5	1.56e-01	0	63	0	351272960	59	7980
2026-01-27 09:06:17.71	89.38	33.42	-43.1	-48.4	9.8	1.07e-02	0	63	0	358612992	58	6396
2026-01-27 09:06:21.75	88.03	33.85	-43.7	-50.9	7.3	7.10e-02	0	62	0	365953024	58	8512
2026-01-27 09:06:25.79	86.64	34.26	-43.4	-49.9	8.3	4.85e-02	0	62	0	373293056	58	7558
2026-01-27 09:06:29.83	85.21	34.66	-43.6	-50.3	7.9	8.04e-02	0	62	0	380633088	58	7938
2026-01-27 09:06:33.87	83.75	35.05	-42.8	-47.8	10.4	8.65e-03	0	62	0	389021696	57	6285
2026-01-27 09:06:37.91	82.26	35.42	-42.7	-47.8	10.4	4.18e-03	0	63	0	396361728	57	6294
2026-01-27 09:06:41.95	80.73	35.77	-42.4	-46.9	11.4	1.11e-03	0	63	0	403701760	56	6000
2026-01-27 09:06:45.99	79.17	36.10	-42.3	-46.7	11.6	1.07e-03	0	63	0	411041792	56	5919
2026-01-27 09:06:50.03	77.58	36.41	-41.4	-44.9	13.2	5.34e-05	0	63	0	419430400	54	5396
2026-01-27 09:06:54.07	75.96	36.69	-41.7	-45.6	12.6	3.81e-05	0	63	0	426770432	54	5850
2026-01-27 09:06:58.11	74.31	36.95	-41.3	-44.7	13.5	2.28e-05	0	62	0	434110464	54	5223
2026-01-27 09:07:02.15	72.64	37.19	-40.3	-43.0	15.2	6.10e-06	0	63	0	441450496	52	4867
2026-01-27 09:07:06.19	70.94	37.40	-40.9	-43.9	14.2	5.03e-05	0	63	0	448790528	52	5356
2026-01-27 09:07:10.23	69.23	37.58	-41.4	-44.7	13.7	1.37e-05	0	63	0	457179136	54	5239
2026-01-27 09:07:14.27	67.49	37.73	-40.7	-43.6	14.6	0.00e+00	0	63	0	464519168	53	4897
2026-01-27 09:07:18.31	65.75	37.86	-41.2	-44.4	13.9	3.80e-06	0	63	0	471859200	53	5363
2026-01-27 09:07:22.36	63.98	37.95	-41.5	-44.8	13.5	9.90e-06	0	63	0	479199232	53	5630
2026-01-27 09:07:26.40	62.22	38.01	-42.5	-47.1	11.1	1.40e-03	0	63	0	487587840	55	6533
2026-01-27 09:07:30.44	60.44	38.04	-42.6	-47.1	11.1	1.02e-03	0	63	0	494927872	55	6569
2026-01-27 09:07:34.48	58.67	38.04	-42.3	-46.5	11.8	8.56e-04	0	63	0	502267904	55	6065
2026-01-27 09:07:38.52	56.90	38.01	-42.3	-46.4	11.8	5.71e-04	0	63	0	509607936	55	6031
2026-01-27 09:07:42.56	55.13	37.95	-43.2	-48.8	9.5	8.48e-03	0	63	0	516947968	57	7046
2026-01-27 09:07:46.60	53.37	37.85	-42.8	-47.9	10.5	8.48e-03	0	63	0	525336576	57	6350
2026-01-27 09:07:50.64	51.63	37.73	-43.2	-48.9	9.4	1.73e-02	0	63	0	532676608	57	7129
2026-01-27 09:07:54.68	49.90	37.58	-43.1	-48.5	9.7	1.08e-02	0	63	0	540016640	57	6853
2026-01-27 09:07:58.72	48.18	37.39	-43.0	-48.6	9.8	5.50e-03	0	63	0	547356672	57	6910
2026-01-27 09:08:02.76	46.49	37.18	-43.9	-52.2	6.2	2.41e-01	0	63	0	555745280	58	9871
2026-01-27 09:08:06.80	44.82	36.95	-42.9	-48.0	10.4	4.58e-03	0	63	0	563085312	57	6494
2026-01-27 09:08:10.84	43.18	36.69	-43.0	-48.3	10.0	5.52e-03	0	63	0	570425344	57	6702
2026-01-27 09:08:14.88	41.56	36.40	-41.5	-44.9	13.4	2.28e-05	0	63	0	577765376	55	5078
2026-01-27 09:08:18.92	39.98	36.09	-41.8	-45.6	12.6	6.40e-05	0	63	0	585105408	54	5847
2026-01-27 09:08:22.96	38.42	35.76	-42.3	-46.6	11.6	4.39e-04	0	63	0	593494016	55	6187
2026-01-27 09:08:27.00	36.90	35.42	-42.6	-47.3	10.9	1.41e-03	0	63	0	600834048	55	6696
2026-01-27 09:08:31.04	35.41	35.05	-42.8	-47.6	10.8	2.82e-03	0	63	0	608174080	56	6555
2026-01-27 09:08:35.09	33.95	34.66	-42.3	-46.4	12.1	4.08e-04	0	63	0	615514112	56	5698
2026-01-27 09:08:39.13	32.53	34.26	-42.1	-46.1	12.2	9.07e-05	0	63	0	623902720	55	5839
2026-01-27 09:08:43.17	31.15	33.85	-41.4	-44.8	13.5	2.67e-05	0	63	0	631242752	54	5283
2026-01-27 09:08:47.21	29.80	33.42	-42.5	-47.0	11.2	1.57e-03	0	63	0	638582784	55	6494
2026-01-27 09:08:51.25	28.48	32.98	-42.1	-46.1	12.1	6.28e-04	0	63	0	645922816	55	5835
2026-01-27 09:08:55.29	27.21	32.53	-43.1	-48.2	10.0	7.50e-03	0	63	0	654311424	56	7037
2026-01-27 09:08:59.33	25.96	32.07	-43.5	-49.4	8.9	2.43e-02	0	63	0	661651456	57	7593
2026-01-27 09:09:03.36	24.76	31.61	-43.2	-48.4	9.8	7.61e-03	0	63	0	668991488	57	6779
2026-01-27 09:09:07.40	23.59	31.14	-42.8	-47.5	10.8	6.21e-03	0	63	0	676331520	57	6114
2026-01-27 09:09:11.44	22.45	30.66	-42.0	-45.6	12.8	1.07e-04	0	63	0	683671552	56	5177
2026-01-27 09:09:15.48	21.35	30.18	-41.7	-45.2	13.1	1.67e-05	0	63	0	692060160	54	5534
2026-01-27 09:09:19.52	20.28	29.69	-43.0	-48.1	10.3	2.91e-03	0	63	0	699400192	56	6914
2026-01-27 09:09:23.56	19.24	29.21	-43.2	-48.4	9.8	1.54e-02	0	63	0	706740224	57	6774
2026-01-27 09:09:27.60	18.23	28.72	-42.6	-47.0	11.3	1.66e-03	0	63	0	714080256	57	5745
2026-01-27 09:09:31.64	17.26	28.23	-42.1	-46.0	12.4	1.77e-04	0	63	0	722468864	56	5410
2026-01-27 09:09:35.68	16.31	27.73	-41.7	-45.2	13.0	8.23e-05	0	63	0	729808896	55	5248
2026-01-27 09:09:39.72	15.39	27.24	-42.0	-45.9	12.3	1.15e-04	0	63	0	737148928	54	6027
2026-01-27 09:09:43.76	14.50	26.75	-42.5	-47.1	11.1	2.53e-03	0	63	0	744488960	55	6542
2026-01-27 09:09:47.80	13.64	26.27	-42.0	-46.0	12.1	2.68e-04	0	63	0	751828992	55	5770
2026-01-27 09:09:51.84	12.81	25.78	-41.9	-45.7	12.4	7.17e-05	0	63	0	760217600	55	5582
2026-01-27 09:09:55.88	12.00	25.30	-42.2	-46.3	11.9	4.11e-04	0	63	0	767557632	55	5940
2026-01-27 09:09:59.92	11.21	24.82	-42.5	-47.2	10.9	1.21e-03	0	63	0	774897664	55	6599
2026-01-27 09:10:03.96	10.45	24.34	-42.6	-47.3	10.7	2.86e-03	0	63	0	782237696	55	6695
2026-01-27 09:10:08.00	9.71	23.86	-42.8	-47.5	10.7	3.76e-03	0	64	0	790626304	56	6483
2026-01-27 09:10:12.04	9.00	23.39	-42.6	-47.2	11.0	2.87e-03	0	63	0	797966336	56	6221
2026-01-27 09:10:16.08	8.30	22.92	-42.1	-45.9	12.3	2.91e-04	0	63	0	805306368	56	5390
2026-01-27 09:10:20.12	7.63	22.46	-42.1	-46.3	11.8	3.49e-04	0	63	0	812646400	55	5935
2026-01-27 09:10:24.16	6.97	22.00	-42.0	-46.0	12.0	3.54e-04	0	63	0	819986432	55	5741
2026-01-27 09:10:28.20	6.34	21.55	-41.7	-45.4	12.7	6.17e-05	0	63	0	828375040	55	5348
2026-01-27 09:10:32.24	5.73	21.10	-43.0	-48.2	9.9	6.30e-03	0	63	0	835715072	56	7006
2026-01-27 09:10:36.28	5.13	20.65	-43.2	-48.8	9.1	2.20e-02	0	63	0	843055104	57	7092
2026-01-27 09:10:40.32	4.55	20.21	-42.8	-47.7	10.3	5.97e-03	0	63	0	850395136	57	6263
2026-01-27 09:10:44.36	3.99	19.77	-42.4	-46.8	11.2	1.09e-03	0	63	0	858783744	56	5959
2026-01-27 09:10:48.40	3.44	19.34	-42.6	-47.3	10.6	2.78e-03	0	63	0	866123776	56	6322
2026-01-27 09:10:52.44	2.91	18.91	-42.1	-46.4	11.6	9.98e-04	0	63	0	873463808	56	5670
2026-01-27 09:10:56.48	2.39	18.49	-41.5	-45.3	12.5	1.09e-04	0	63	0	880803840	54	5629
2026-01-27 09:11:00.52	1.89	18.07	-41.8	-46.0	11.7	4.78e-04	0	63	0	888143872	54	6074
2026-01-27 09:11:04.57	1.40	17.66	-42.1	-46.8	10.9	1.76e-03	0	63	0	896532480	55	6276
2026-01-27 09:11:08.60	0.93	17.25	-41.9	-46.3	11.3	1.02e-03	0	63	0	903872512	55	5933
2026-01-27 09:11:12.64	0.47	16.85	-41.9	-46.4	11.0	1.85e-03	0	63	0	911212544	55	6020
2026-01-27 09:11:16.68	0.02	16.45	-42.0	-46.6	10.7	3.13e-03	0	63	0	918552576	55	6157
2026-01-27 09:11:20.72	359.58	16.06	-42.1	-47.2	10.0	7.46e-03	0	63	0	926941184	55	6616
2026-01-27 09:11:24.75	359.15	15.67	-42.2	-47.7	9.3	1.76e-02	0	63	0	934281216	55	6966
2026-01-27 09:11:28.80	358.74	15.28	-41.9	-47.3	9.4	1.75e-02	0	63	0	941621248	55	6718
2026-01-27 09:11:32.84	358.34	14.90	-41.4	-46.3	10.3	8.25e-03	0	64	0	948961280	54	6326
2026-01-27 09:11:36.88	357.94	14.53	-41.1	-45.8	10.5	2.84e-03	0	64	0	956301312	54	5933
2026-01-27 09:11:40.92	357.56	14.15	-40.9	-45.8	10.1	4.87e-03	0	64	0	964689920	53	6333
2026-01-27 09:11:44.95	357.19	13.79	-41.0	-46.8	8.8	2.57e-02	0	64	0	972029952	53	7054
2026-01-27 09:11:48.99	356.83	13.42	-40.7	-46.2	8.9	3.22e-02	0	64	0	979369984	53	6604
2026-01-27 09:11:53.03	356.47	13.07	-40.7	-47.4	6.2	1.79e-01	0	64	0	986710016	53	7561
2026-01-27 09:11:57.07	356.13	12.71	-40.5	-48.9	4.9	6.52e-01	0	64	0	995098624	53	9038
2026-01-27 09:12:01.11	355.79	12.36	-40.6	-52.0	3.8	1.49e+00	0	63	104	995098624	51	14378
2026-01-27 09:12:05.15	355.46	12.01	-40.4	-50.6	3.8	1.49e+00	0	63	104	995098624	51	12323
2026-01-27 09:12:09.18	355.14	11.67	-40.6	-54.6	3.8	1.49e+00	0	64	104	995098624	52	18421
2026-01-27 09:12:13.22	354.83	11.33	-40.7	-54.9	3.8	1.49e+00	0	63	104	995098624	52	19149
2026-01-27 09:12:17.26	354.52	11.00	-40.5	-55.0	3.8	1.49e+00	0	64	104	995098624	52	19351
2026-01-27 09:12:21.30	354.22	10.67	-40.4	-54.9	3.8	1.49e+00	0	64	104	995098624	52	19167
2026-01-27 09:12:25.34	353.93	10.34	-40.3	-54.8	3.8	1.49e+00	0	63	104	995098624	52	18945
2026-01-27 09:12:29.38	353.65	10.02	-40.2	-54.8	3.8	1.49e+00	0	64	104	995098624	52	18856
2026-01-27 09:12:33.41	353.37	9.70	-40.2	-54.8	3.8	1.49e+00	0	64	104	995098624	52	18781
2026-01-27 09:12:37.45	353.10	9.38	-40.3	-54.8	3.8	1.49e+00	0	64	104	995098624	52	18791
2026-01-27 09:12:41.49	352.83	9.07	-40.4	-54.9	3.8	1.49e+00	0	63	104	995098624	52	19086
2026-01-27 09:12:45.54	352.57	8.76	-40.5	-55.1	3.8	1.49e+00	0	63	104	995098624	52	19412
2026-01-27 09:12:49.58	352.32	8.45	-40.6	-55.1	3.8	1.49e+00	0	63	104	995098624	52	19552
2026-01-27 09:12:53.62	352.07	8.14	-40.6	-55.1	3.8	1.49e+00	0	64	104	995098624	52	19482
2026-01-27 09:12:57.66	351.83	7.84	-40.8	-55.4	3.8	1.49e+00	0	63	104	995098624	52	20211
2026-01-27 09:13:01.70	351.59	7.55	-45.2	-59.8	3.8	1.49e+00	0	64	104	995098624	60	21140
2026-01-27 09:13:05.74	351.36	7.25	-45.2	-59.8	3.8	1.49e+00	0	64	104	995098624	61	20032
2026-01-27 09:13:09.78	351.13	6.96	-45.1	-59.7	3.8	1.49e+00	0	64	104	995098624	60	20784
2026-01-27 09:13:13.82	350.91	6.67	-45.0	-59.6	3.8	1.49e+00	0	63	104	995098624	60	20639
2026-01-27 09:13:17.86	350.69	6.38	-45.0	-59.6	3.8	1.49e+00	0	64	104	995098624	60	20606
2026-01-27 09:13:21.91	350.47	6.10	-45.0	-59.6	3.8	1.49e+00	0	64	104	995098624	60	20611
2026-01-27 09:13:25.95	350.26	5.82	-45.0	-59.6	3.8	1.49e+00	0	64	104	995098624	60	20596
2026-01-27 09:13:29.99	350.06	5.54	-45.0	-59.5	3.8	1.49e+00	0	64	104	995098624	60	20516
2026-01-27 09:13:34.03	349.86	5.26	-45.0	-59.5	3.8	1.49e+00	0	64	104	995098624	60	20525
2026-01-27 09:13:38.07	349.66	4.99	-45.0	-59.5	3.8	1.49e+00	0	64	104	995098624	60	20537
2026-01-27 09:13:42.11	349.47	4.72	-44.8	-59.5	3.8	1.49e+00	0	64	104	995098624	60	20493
2026-01-27 09:13:46.16	349.28	4.45	-45.0	-59.6	3.8	1.49e+00	0	64	104	995098624	60	20542
2026-01-27 09:13:50.20	349.10	4.18	-44.9	-59.5	3.8	1.49e+00	0	64	104	995098624	60	20494
2026-01-27 09:13:54.24	348.91	3.92	-45.0	-59.6	3.8	1.49e+00	0	64	104	995098624	60	20551
2026-01-27 09:13:58.28	348.74	3.66	-45.0	-59.5	3.8	1.49e+00	0	64	104	995098624	60	20502
2026-01-27 09:14:02.33	348.56	3.40	-45.0	-59.5	3.8	1.49e+00	0	64	104	995098624	60	20505
2026-01-27 09:14:06.37	348.39	3.14	-45.0	-59.5	3.8	1.49e+00	0	63	104	995098624	60	20521
2026-01-27 09:14:10.41	348.22	2.89	-45.0	-59.5	3.8	1.49e+00	0	64	104	995098624	60	20498
2026-01-27 09:14:14.45	348.06	2.63	-44.9	-59.5	3.8	1.49e+00	0	63	104	995098624	60	20509
2026-01-27 09:14:18.49	347.90	2.38	-45.0	-59.5	3.8	1.49e+00	0	64	104	995098624	60	20532
2026-01-27 09:14:22.53	347.74	2.13	-45.0	-59.5	3.8	1.49e+00	0	63	104	995098624	60	20474
2026-01-27 09:14:26.57	347.58	1.89	-45.0	-59.6	3.8	1.49e+00	0	63	104	995098624	60	20540

#Closed at: 2026-01-27 09:14:26
#Recorded file [995 MB]: D:/lorett/data/31039_260127_120042.dat