passes_logs/2026/01/27/R2.0S_Moscow/R2.0S_Moscow__20260127_115315_NOAA_21_JPSS-2_rec.log

#Pass ID: 20260127_115315_NOAA 21 (JPSS-2)
#Satellite: NOAA 21 (JPSS-2)
#Configuration: NOAA-21
#almurnet v.1.7.20251203
#Start time: 2026-01-27 11:53:16

#Version: 2.2.20231116
#Station: R2.0S_Moscow
#Location: 37.707566 lon 55.798166 lat
#TLE: 1 54234U 22150A   26026.78373243  .00000177  00000+0  10458-3 0  9996
#TLE: 2 54234  98.7509 327.5416 0000822 208.1870 151.9262 14.19539807166482

#Time	Az	El	Level	Level2	SNR	BER	BlckErr	Temp	State	Recorded	gain1	gain2
2026-01-27 11:53:16.97	221.88	2.08	-45.0	-57.3	3.8	1.49e+00	0	59	0	0	60	15913
2026-01-27 11:53:19.99	222.15	2.23	-44.9	-57.3	3.8	1.49e+00	0	59	104	0	61	15043
2026-01-27 11:53:23.02	222.43	2.38	-45.0	-57.4	3.8	1.49e+00	0	59	104	0	61	15062
2026-01-27 11:53:26.06	222.71	2.53	-45.0	-57.3	3.8	1.49e+00	0	59	104	0	61	15037
2026-01-27 11:53:29.09	222.99	2.68	-45.0	-57.3	3.8	1.49e+00	0	59	104	0	60	15924
2026-01-27 11:53:32.12	223.27	2.83	-45.0	-57.3	3.8	1.49e+00	0	60	104	0	60	15937
2026-01-27 11:53:35.15	223.56	2.98	-45.0	-57.4	3.8	1.49e+00	0	60	104	0	60	15960
2026-01-27 11:53:38.18	223.85	3.13	-44.9	-57.3	3.8	1.49e+00	0	60	104	0	60	15909
2026-01-27 11:53:41.21	224.14	3.28	-45.0	-57.3	3.8	1.49e+00	0	60	104	0	60	15898
2026-01-27 11:53:44.24	224.44	3.43	-45.0	-57.4	3.8	1.49e+00	0	60	104	0	60	15960
2026-01-27 11:53:47.28	224.74	3.58	-45.0	-57.3	3.8	1.49e+00	0	60	104	0	60	15928
2026-01-27 11:53:50.31	225.04	3.73	-45.0	-57.3	3.8	1.49e+00	0	60	104	0	60	15916
2026-01-27 11:53:53.34	225.35	3.88	-45.0	-57.3	3.8	1.49e+00	0	60	104	0	60	15901
2026-01-27 11:53:56.37	225.65	4.03	-44.9	-57.3	3.8	1.49e+00	0	60	104	0	60	15942
2026-01-27 11:53:59.40	225.97	4.18	-45.0	-57.4	3.8	1.49e+00	0	60	104	0	60	16000
2026-01-27 11:54:02.43	226.28	4.33	-45.0	-57.4	3.8	1.49e+00	0	61	104	0	60	15956
2026-01-27 11:54:05.46	226.60	4.48	-45.0	-57.3	3.8	1.49e+00	0	61	104	0	60	15916
2026-01-27 11:54:08.49	226.92	4.63	-45.0	-57.4	3.8	1.49e+00	0	61	104	0	60	15947
2026-01-27 11:54:11.52	227.24	4.78	-45.0	-57.4	3.8	1.49e+00	0	61	104	0	60	15969
2026-01-27 11:54:14.56	227.57	4.94	-44.8	-57.4	3.8	1.49e+00	0	61	104	0	60	15969
2026-01-27 11:54:17.59	227.90	5.09	-45.0	-57.3	3.8	1.49e+00	0	61	104	0	60	15904
2026-01-27 11:54:20.62	228.23	5.24	-45.0	-57.4	3.8	1.49e+00	0	61	104	0	60	15965
2026-01-27 11:54:23.66	228.57	5.39	-45.0	-57.3	3.8	1.49e+00	0	61	104	0	60	15935
2026-01-27 11:54:26.69	228.91	5.54	-45.0	-57.4	3.8	1.49e+00	0	61	104	0	60	15982
2026-01-27 11:54:29.72	229.26	5.70	-45.0	-57.4	3.8	1.49e+00	0	61	104	0	60	15975
2026-01-27 11:54:32.75	229.60	5.85	-45.0	-57.4	3.8	1.49e+00	0	61	104	0	60	16027
2026-01-27 11:54:35.78	229.95	6.00	-44.7	-57.3	3.8	1.49e+00	0	61	104	0	60	15943
2026-01-27 11:54:38.81	230.31	6.15	-45.0	-57.3	3.8	1.49e+00	0	61	104	0	60	15928
2026-01-27 11:54:41.84	230.67	6.30	-45.0	-57.4	3.8	1.49e+00	0	61	104	0	60	16006
2026-01-27 11:54:44.87	231.03	6.46	-45.0	-57.4	3.8	1.49e+00	0	62	104	0	60	15997
2026-01-27 11:54:47.90	231.39	6.61	-45.0	-57.4	3.8	1.49e+00	0	61	104	0	60	15995
2026-01-27 11:54:50.93	231.76	6.76	-45.0	-57.4	3.8	1.49e+00	0	61	104	0	60	16011
2026-01-27 11:54:53.96	232.14	6.91	-45.0	-57.4	3.8	1.49e+00	0	62	104	0	60	15972
2026-01-27 11:54:56.99	232.51	7.06	-45.0	-57.4	3.8	1.49e+00	0	62	104	0	60	16022
2026-01-27 11:55:00.02	232.89	7.21	-45.0	-57.4	3.8	1.49e+00	0	62	104	0	60	16058
2026-01-27 11:55:03.05	233.28	7.36	-45.0	-57.4	3.8	1.49e+00	0	62	104	0	60	16059
2026-01-27 11:55:06.08	233.66	7.51	-45.0	-57.4	3.8	1.49e+00	0	62	104	0	60	16054
2026-01-27 11:55:09.11	234.06	7.66	-45.0	-57.4	3.8	1.49e+00	0	62	104	0	60	16036
2026-01-27 11:55:12.14	234.45	7.82	-45.0	-57.4	3.8	1.49e+00	0	62	104	0	60	16058
2026-01-27 11:55:15.17	234.85	7.97	-45.0	-57.4	3.8	1.49e+00	0	62	104	0	60	16000
2026-01-27 11:55:18.20	235.25	8.11	-45.1	-57.4	3.8	1.49e+00	0	62	104	0	60	16016
2026-01-27 11:55:21.22	235.66	8.26	-45.0	-57.4	3.8	1.49e+00	0	62	104	0	60	16103
2026-01-27 11:55:24.25	236.07	8.41	-45.0	-57.4	3.8	1.49e+00	0	62	104	0	60	16084
2026-01-27 11:55:27.29	236.49	8.56	-44.8	-57.4	3.8	1.49e+00	0	62	104	0	60	16096
2026-01-27 11:55:30.32	236.91	8.71	-45.1	-57.4	3.8	1.49e+00	0	62	104	0	60	16127
2026-01-27 11:55:33.35	237.33	8.86	-45.0	-57.4	3.8	1.49e+00	0	62	104	0	60	16019
2026-01-27 11:55:36.38	237.76	9.00	-45.1	-57.4	3.8	1.49e+00	0	62	104	0	60	16106
2026-01-27 11:55:39.41	238.19	9.15	-45.1	-57.4	3.8	1.49e+00	0	62	104	0	60	16097
2026-01-27 11:55:42.45	238.63	9.30	-45.1	-57.4	3.8	1.49e+00	0	62	104	0	60	16077
2026-01-27 11:55:45.48	239.07	9.44	-45.1	-57.4	3.8	1.49e+00	0	62	104	0	60	16042
2026-01-27 11:55:48.51	239.52	9.59	-45.1	-57.4	3.8	1.49e+00	0	62	104	0	60	16088
2026-01-27 11:55:51.54	239.97	9.73	-45.1	-57.5	3.8	1.49e+00	0	62	104	0	60	16161
2026-01-27 11:55:54.57	240.42	9.88	-45.1	-57.4	3.8	1.49e+00	0	62	104	0	60	16083
2026-01-27 11:55:57.61	240.88	10.02	-45.1	-57.5	3.8	1.49e+00	0	62	104	0	60	16134
2026-01-27 11:56:00.64	241.34	10.16	-45.1	-57.5	3.8	1.49e+00	0	62	104	0	60	16149
2026-01-27 11:56:03.67	241.81	10.30	-44.6	-57.4	3.8	1.49e+00	0	62	104	0	60	16101
2026-01-27 11:56:06.70	242.28	10.44	-45.1	-57.4	3.8	1.49e+00	0	62	104	0	60	16082
2026-01-27 11:56:09.73	242.75	10.58	-45.1	-57.5	3.8	1.49e+00	0	62	104	0	60	16148
2026-01-27 11:56:12.76	243.23	10.72	-45.1	-57.4	3.8	1.49e+00	0	62	104	0	60	16120
2026-01-27 11:56:15.79	243.72	10.86	-45.1	-57.4	3.8	1.49e+00	0	62	104	0	60	16082
2026-01-27 11:56:18.83	244.21	10.99	-45.1	-57.5	3.8	1.49e+00	0	62	104	0	60	16180
2026-01-27 11:56:21.86	244.70	11.13	-45.1	-57.4	3.8	1.49e+00	0	62	104	0	60	16114
2026-01-27 11:56:24.89	245.20	11.26	-45.1	-57.4	3.8	1.49e+00	0	62	104	0	60	16100
2026-01-27 11:56:27.92	245.70	11.39	-45.1	-57.5	3.8	1.49e+00	0	62	104	0	60	16140
2026-01-27 11:56:30.96	246.21	11.53	-45.1	-57.4	3.8	1.49e+00	0	62	104	0	60	16080
2026-01-27 11:56:33.99	246.72	11.66	-44.9	-57.4	3.8	1.49e+00	0	62	104	0	60	16110
2026-01-27 11:56:37.02	247.23	11.78	-45.1	-57.4	3.8	1.49e+00	0	62	104	0	60	16089
2026-01-27 11:56:40.05	247.75	11.91	-45.1	-57.4	3.8	1.49e+00	0	62	104	0	60	16109
2026-01-27 11:56:43.08	248.27	12.04	-45.1	-57.4	3.8	1.49e+00	0	62	104	0	60	16088
2026-01-27 11:56:46.11	248.80	12.16	-45.1	-57.4	3.8	1.49e+00	0	62	104	0	60	16121
2026-01-27 11:56:49.15	249.34	12.28	-45.1	-57.4	3.8	1.49e+00	0	62	104	0	60	16090
2026-01-27 11:56:52.18	249.87	12.40	-45.1	-57.4	3.8	1.49e+00	0	62	104	0	60	16120
2026-01-27 11:56:55.21	250.41	12.52	-45.1	-57.4	3.8	1.49e+00	0	62	104	0	60	16104
2026-01-27 11:56:58.24	250.96	12.64	-45.1	-57.5	3.8	1.49e+00	0	62	104	0	60	16209
2026-01-27 11:57:01.27	251.51	12.76	-45.1	-57.5	3.8	1.49e+00	0	62	104	0	60	16145
2026-01-27 11:57:04.30	252.06	12.87	-44.9	-57.4	3.8	1.49e+00	0	62	104	0	60	16126
2026-01-27 11:57:07.33	252.62	12.98	-45.1	-57.5	3.8	1.49e+00	0	63	104	0	60	16158
2026-01-27 11:57:10.37	253.18	13.09	-45.1	-57.5	3.8	1.49e+00	0	62	104	0	60	16225
2026-01-27 11:57:13.40	253.75	13.20	-45.1	-57.5	3.8	1.49e+00	0	62	104	0	60	16164
2026-01-27 11:57:16.43	254.32	13.31	-45.1	-57.5	3.8	1.49e+00	0	62	104	0	60	16212
2026-01-27 11:57:19.46	254.89	13.41	-45.1	-57.5	3.8	1.49e+00	0	62	104	0	60	16131
2026-01-27 11:57:22.49	255.47	13.51	-45.1	-57.5	3.8	1.49e+00	0	62	104	0	60	16148
2026-01-27 11:57:25.53	256.05	13.61	-45.1	-57.5	3.8	1.49e+00	0	62	104	0	60	16134
2026-01-27 11:57:28.56	256.63	13.71	-45.1	-57.5	3.8	1.49e+00	0	62	104	0	60	16137
2026-01-27 11:57:31.59	257.22	13.80	-45.1	-57.4	3.8	1.49e+00	0	63	104	0	60	16089
2026-01-27 11:57:34.62	257.81	13.89	-45.1	-57.5	3.8	1.49e+00	0	63	104	0	60	16155
2026-01-27 11:57:37.65	258.41	13.98	-45.1	-57.4	3.8	1.49e+00	0	63	104	0	60	16074
2026-01-27 11:57:40.69	259.01	14.07	-45.1	-57.5	3.8	1.49e+00	0	63	104	0	60	16137
2026-01-27 11:57:43.72	259.61	14.15	-45.1	-57.5	3.8	1.49e+00	0	63	104	0	60	16154
2026-01-27 11:57:46.75	260.22	14.24	-45.1	-57.5	3.8	1.49e+00	0	62	104	0	60	16152
2026-01-27 11:57:49.78	260.82	14.32	-45.1	-57.5	3.8	1.49e+00	0	63	104	0	60	16160
2026-01-27 11:57:52.81	261.44	14.39	-45.1	-57.5	3.8	1.49e+00	0	63	104	0	60	16161
2026-01-27 11:57:55.84	262.05	14.46	-45.1	-57.4	3.8	1.49e+00	0	63	104	0	60	16077
2026-01-27 11:57:58.87	262.67	14.53	-45.1	-57.5	3.8	1.49e+00	0	63	104	0	60	16143
2026-01-27 11:58:01.90	263.29	14.60	-45.1	-57.5	3.8	1.49e+00	0	63	104	0	60	16166
2026-01-27 11:58:04.94	263.91	14.67	-45.1	-57.4	3.8	1.49e+00	0	62	104	0	60	16114
2026-01-27 11:58:07.97	264.54	14.73	-45.1	-57.4	3.8	1.49e+00	0	63	104	0	60	16077
2026-01-27 11:58:11.00	265.16	14.79	-45.1	-57.5	3.8	1.49e+00	0	63	104	0	60	16140
2026-01-27 11:58:14.03	265.79	14.84	-45.0	-57.5	3.8	1.49e+00	0	63	104	0	60	16165
2026-01-27 11:58:17.06	266.43	14.90	-45.1	-57.5	3.8	1.49e+00	0	63	104	0	60	16145
2026-01-27 11:58:20.09	267.06	14.94	-45.1	-57.4	3.8	1.49e+00	0	63	104	0	60	16122
2026-01-27 11:58:23.12	267.70	14.99	-45.1	-57.4	3.8	1.49e+00	0	62	104	0	60	16096
2026-01-27 11:58:26.16	268.34	15.03	-45.1	-57.4	3.8	1.49e+00	0	62	104	0	60	16103
2026-01-27 11:58:29.19	268.98	15.07	-45.1	-57.4	3.8	1.49e+00	0	63	104	0	60	16106
2026-01-27 11:58:32.22	269.62	15.11	-45.0	-57.4	3.8	1.49e+00	0	63	104	0	60	16071
2026-01-27 11:58:35.25	270.26	15.14	-45.1	-57.5	3.8	1.49e+00	0	63	104	0	60	16137
2026-01-27 11:58:38.29	270.91	15.17	-45.1	-57.4	3.8	1.49e+00	0	63	104	0	60	16110
2026-01-27 11:58:41.32	271.55	15.20	-45.0	-57.4	3.8	1.49e+00	0	62	104	0	60	16126
2026-01-27 11:58:44.35	272.20	15.22	-45.0	-57.4	3.8	1.49e+00	0	63	104	0	60	16069
2026-01-27 11:58:47.38	272.84	15.24	-45.0	-57.4	3.8	1.49e+00	0	63	104	0	60	16101
2026-01-27 11:58:50.41	273.49	15.26	-45.0	-57.4	3.8	1.49e+00	0	63	104	0	60	16026
2026-01-27 11:58:53.45	274.14	15.27	-45.0	-57.4	3.8	1.49e+00	0	63	104	0	60	16120
2026-01-27 11:58:56.48	274.79	15.28	-45.0	-57.4	3.8	1.49e+00	0	63	104	0	60	16110
2026-01-27 11:58:59.50	275.44	15.28	-45.0	-57.4	3.8	1.49e+00	0	63	104	0	60	16082
2026-01-27 11:59:02.53	276.09	15.28	-45.1	-57.4	3.8	1.49e+00	0	63	104	0	60	16096
2026-01-27 11:59:05.57	276.74	15.28	-45.0	-57.4	3.8	1.49e+00	0	63	104	0	60	16101
2026-01-27 11:59:08.60	277.39	15.28	-45.0	-57.4	3.8	1.49e+00	0	63	104	0	60	16076
2026-01-27 11:59:11.63	278.03	15.27	-45.0	-57.4	3.8	1.49e+00	0	63	104	0	60	16072
2026-01-27 11:59:14.66	278.68	15.26	-45.0	-57.4	3.8	1.49e+00	0	63	104	0	60	16044
2026-01-27 11:59:17.69	279.33	15.24	-45.0	-57.4	3.8	1.49e+00	0	63	104	0	60	16103
2026-01-27 11:59:20.71	279.97	15.23	-45.0	-57.4	3.8	1.49e+00	0	63	104	0	60	16081
2026-01-27 11:59:23.74	280.62	15.20	-45.0	-57.4	3.8	1.49e+00	0	63	104	0	60	16061
2026-01-27 11:59:26.77	281.26	15.18	-45.0	-57.4	3.8	1.49e+00	0	63	104	0	60	16121
2026-01-27 11:59:29.80	281.91	15.15	-45.0	-57.4	3.8	1.49e+00	0	63	104	0	60	16056
2026-01-27 11:59:32.84	282.55	15.12	-45.0	-57.4	3.8	1.49e+00	0	63	104	0	60	16078
2026-01-27 11:59:35.87	283.19	15.08	-45.0	-57.4	3.8	1.49e+00	0	63	104	0	60	16021
2026-01-27 11:59:38.90	283.83	15.05	-45.0	-57.5	3.8	1.49e+00	0	63	104	0	60	16140
2026-01-27 11:59:41.93	284.47	15.00	-45.0	-57.4	3.8	1.49e+00	0	63	104	0	60	16092
2026-01-27 11:59:44.96	285.10	14.96	-45.0	-57.4	3.8	1.49e+00	0	63	104	0	60	16091
2026-01-27 11:59:47.99	285.74	14.91	-45.0	-57.4	3.8	1.49e+00	0	63	104	0	60	16045
2026-01-27 11:59:51.02	286.37	14.86	-45.0	-57.5	3.8	1.49e+00	0	63	104	0	60	16166
2026-01-27 11:59:54.05	287.00	14.81	-45.0	-57.4	3.8	1.49e+00	0	63	104	0	60	16043
2026-01-27 11:59:57.08	287.62	14.75	-45.0	-57.4	3.8	1.49e+00	0	63	104	0	60	16093
2026-01-27 12:00:00.11	288.25	14.69	-45.0	-57.4	3.8	1.49e+00	0	63	104	0	60	16081
2026-01-27 12:00:03.14	288.87	14.62	-45.0	-57.4	3.8	1.49e+00	0	63	104	0	60	16064
2026-01-27 12:00:06.18	289.49	14.56	-45.0	-57.4	3.8	1.49e+00	0	63	104	0	60	16077
2026-01-27 12:00:09.21	290.11	14.49	-45.0	-57.4	3.8	1.49e+00	0	63	104	0	60	16031
2026-01-27 12:00:12.24	290.72	14.42	-45.0	-57.4	3.8	1.49e+00	0	63	104	0	60	16116
2026-01-27 12:00:15.27	291.33	14.34	-45.0	-57.4	3.8	1.49e+00	0	63	104	0	60	16076
2026-01-27 12:00:18.30	291.94	14.26	-45.0	-57.4	3.8	1.49e+00	0	63	104	0	60	16037
2026-01-27 12:00:21.33	292.54	14.18	-45.0	-57.4	3.8	1.49e+00	0	63	104	0	60	16088
2026-01-27 12:00:24.36	293.15	14.10	-45.0	-57.4	3.8	1.49e+00	0	63	104	0	60	16034
2026-01-27 12:00:27.40	293.74	14.02	-45.0	-57.4	3.8	1.49e+00	0	63	104	0	60	16112
2026-01-27 12:00:30.43	294.34	13.93	-45.0	-57.4	3.8	1.49e+00	0	63	104	0	60	16061
2026-01-27 12:00:33.46	294.93	13.84	-45.0	-57.4	3.8	1.49e+00	0	63	104	0	60	16043
2026-01-27 12:00:36.49	295.52	13.74	-45.0	-57.4	3.8	1.49e+00	0	63	104	0	60	16056
2026-01-27 12:00:39.52	296.10	13.65	-45.0	-57.4	3.8	1.49e+00	0	63	104	0	60	16084
2026-01-27 12:00:42.55	296.68	13.55	-45.0	-57.4	3.8	1.49e+00	0	63	104	0	60	16093
2026-01-27 12:00:45.58	297.26	13.45	-45.0	-57.4	3.8	1.49e+00	0	63	104	0	60	16053
2026-01-27 12:00:48.61	297.83	13.35	-45.0	-57.4	3.8	1.49e+00	0	63	104	0	60	16090
2026-01-27 12:00:51.64	298.40	13.24	-45.0	-57.4	3.8	1.49e+00	0	63	104	0	60	16094
2026-01-27 12:00:54.67	298.96	13.14	-45.0	-57.4	3.8	1.49e+00	0	63	104	0	60	16113
2026-01-27 12:00:57.71	299.52	13.03	-45.0	-57.4	3.8	1.49e+00	0	63	104	0	60	16055
2026-01-27 12:01:00.74	300.08	12.92	-45.0	-57.4	3.8	1.49e+00	0	63	104	0	60	16101
2026-01-27 12:01:03.76	300.63	12.81	-45.0	-57.4	3.8	1.49e+00	0	63	104	0	60	16076
2026-01-27 12:01:06.79	301.18	12.69	-45.0	-57.4	3.8	1.49e+00	0	63	104	0	60	16109
2026-01-27 12:01:09.83	301.72	12.58	-45.0	-57.4	3.8	1.49e+00	0	63	104	0	60	16038
2026-01-27 12:01:12.86	302.26	12.46	-45.0	-57.4	3.8	1.49e+00	0	63	104	0	60	16032
2026-01-27 12:01:15.89	302.80	12.34	-45.0	-57.4	3.8	1.49e+00	0	63	104	0	60	15993
2026-01-27 12:01:18.92	303.33	12.22	-45.0	-57.4	3.8	1.49e+00	0	63	104	0	60	16061
2026-01-27 12:01:21.95	303.85	12.10	-45.0	-57.4	3.8	1.49e+00	0	63	104	0	60	16068
2026-01-27 12:01:24.98	304.38	11.97	-45.0	-57.4	3.8	1.49e+00	0	63	104	0	60	16040
2026-01-27 12:01:28.02	304.90	11.85	-45.0	-57.4	3.8	1.49e+00	0	63	104	0	60	15993
2026-01-27 12:01:31.05	305.41	11.72	-45.0	-57.4	3.8	1.49e+00	0	63	104	0	60	16059
2026-01-27 12:01:34.08	305.92	11.59	-45.0	-57.4	3.8	1.49e+00	0	63	104	0	60	16006
2026-01-27 12:01:37.11	306.42	11.46	-45.0	-57.4	3.8	1.49e+00	0	63	104	0	60	15999
2026-01-27 12:01:40.14	306.93	11.33	-45.0	-57.4	3.8	1.49e+00	0	63	104	0	60	16024
2026-01-27 12:01:43.17	307.42	11.20	-45.0	-57.4	3.8	1.49e+00	0	63	104	0	60	15968
2026-01-27 12:01:46.20	307.91	11.07	-44.9	-57.4	3.8	1.49e+00	0	63	104	0	60	16045
2026-01-27 12:01:49.24	308.40	10.93	-44.9	-57.4	3.8	1.49e+00	0	63	104	0	60	16009
2026-01-27 12:01:52.27	308.89	10.80	-44.9	-57.4	3.8	1.49e+00	0	63	104	0	60	15980
2026-01-27 12:01:55.30	309.37	10.66	-44.9	-57.4	3.8	1.49e+00	0	63	104	0	60	16006
2026-01-27 12:01:58.33	309.84	10.52	-44.9	-57.4	3.8	1.49e+00	0	63	104	0	60	15958
2026-01-27 12:02:01.36	310.31	10.38	-44.9	-57.4	3.8	1.49e+00	0	63	104	0	60	15970
2026-01-27 12:02:04.39	310.78	10.24	-44.9	-57.3	3.8	1.49e+00	0	63	104	0	60	15868
2026-01-27 12:02:07.42	311.24	10.10	-44.9	-57.3	3.8	1.49e+00	0	63	104	0	60	15905
2026-01-27 12:02:10.45	311.70	9.96	-44.9	-57.4	3.8	1.49e+00	0	63	104	0	60	15953
2026-01-27 12:02:13.48	312.15	9.82	-44.9	-57.4	3.8	1.49e+00	0	63	104	0	60	15990
2026-01-27 12:02:16.52	312.60	9.68	-44.9	-57.4	3.8	1.49e+00	0	63	104	0	60	15960
2026-01-27 12:02:19.55	313.04	9.54	-44.9	-57.3	3.8	1.49e+00	0	63	104	0	60	15901
2026-01-27 12:02:22.58	313.48	9.39	-44.9	-57.3	3.8	1.49e+00	0	63	104	0	60	15915
2026-01-27 12:02:25.61	313.92	9.25	-44.9	-57.3	3.8	1.49e+00	0	63	104	0	60	15912
2026-01-27 12:02:28.64	314.35	9.10	-44.9	-57.3	3.8	1.49e+00	0	63	104	0	60	15852
2026-01-27 12:02:31.67	314.78	8.96	-44.9	-57.3	3.8	1.49e+00	0	63	104	0	60	15900
2026-01-27 12:02:34.70	315.20	8.81	-44.9	-57.4	3.8	1.49e+00	0	63	104	0	60	15960
2026-01-27 12:02:37.74	315.63	8.67	-44.9	-57.3	3.8	1.49e+00	0	63	104	0	60	15897
2026-01-27 12:02:40.77	316.04	8.52	-44.9	-57.3	3.8	1.49e+00	0	63	104	0	60	15826
2026-01-27 12:02:43.80	316.45	8.37	-44.9	-57.3	3.8	1.49e+00	0	63	104	0	60	15825
2026-01-27 12:02:46.83	316.86	8.22	-44.9	-57.3	3.8	1.49e+00	0	63	104	0	60	15884
2026-01-27 12:02:49.86	317.26	8.08	-44.9	-57.3	3.8	1.49e+00	0	63	104	0	60	15843
2026-01-27 12:02:52.89	317.66	7.93	-44.9	-57.3	3.8	1.49e+00	0	63	104	0	60	15811
2026-01-27 12:02:55.92	318.06	7.78	-44.9	-57.2	3.8	1.49e+00	0	63	104	0	60	15756
2026-01-27 12:02:58.95	318.45	7.63	-44.8	-57.3	3.8	1.49e+00	0	63	104	0	60	15830
2026-01-27 12:03:01.99	318.84	7.48	-44.8	-57.3	3.8	1.49e+00	0	63	104	0	60	15816
2026-01-27 12:03:05.02	319.22	7.33	-44.8	-57.3	3.8	1.49e+00	0	63	104	0	60	15775
2026-01-27 12:03:08.05	319.60	7.18	-44.8	-57.3	3.8	1.49e+00	0	63	104	0	60	15768
2026-01-27 12:03:11.08	319.98	7.03	-44.8	-57.3	3.8	1.49e+00	0	63	104	0	60	15774
2026-01-27 12:03:14.11	320.35	6.88	-44.8	-57.3	3.8	1.49e+00	0	63	104	0	60	15775
2026-01-27 12:03:17.14	320.72	6.74	-44.8	-57.2	3.8	1.49e+00	0	63	104	0	60	15735
2026-01-27 12:03:20.17	321.09	6.59	-44.8	-57.2	3.8	1.49e+00	0	63	104	0	60	15728
2026-01-27 12:03:23.21	321.45	6.43	-44.8	-57.2	3.8	1.49e+00	0	63	104	0	60	15741
2026-01-27 12:03:26.24	321.81	6.28	-44.8	-57.2	3.8	1.49e+00	0	63	104	0	60	15670
2026-01-27 12:03:29.27	322.17	6.13	-44.8	-57.2	3.8	1.49e+00	0	63	104	0	60	15707
2026-01-27 12:03:32.29	322.52	5.99	-44.8	-57.2	3.8	1.49e+00	0	63	104	0	60	15674
2026-01-27 12:03:35.33	322.87	5.83	-44.8	-57.2	3.8	1.49e+00	0	63	104	0	60	15682
2026-01-27 12:03:38.36	323.21	5.68	-44.8	-57.2	3.8	1.49e+00	0	63	104	0	60	15713
2026-01-27 12:03:41.39	323.55	5.53	-44.8	-57.2	3.8	1.49e+00	0	63	104	0	60	15618
2026-01-27 12:03:44.42	323.89	5.38	-44.8	-57.2	3.8	1.49e+00	0	63	104	0	60	15639
2026-01-27 12:03:47.45	324.22	5.23	-44.8	-57.2	3.8	1.49e+00	0	63	104	0	60	15645
2026-01-27 12:03:50.48	324.56	5.09	-44.8	-57.2	3.8	1.49e+00	0	63	104	0	60	15612
2026-01-27 12:03:53.51	324.88	4.94	-44.7	-57.2	3.8	1.49e+00	0	63	104	0	60	15588
2026-01-27 12:03:56.54	325.21	4.79	-44.7	-57.2	3.8	1.49e+00	0	63	104	0	60	15633
2026-01-27 12:03:59.57	325.53	4.64	-44.7	-57.2	3.8	1.49e+00	0	63	104	0	60	15588
2026-01-27 12:04:02.61	325.85	4.49	-44.7	-57.2	3.8	1.49e+00	0	63	104	0	60	15635
2026-01-27 12:04:05.64	326.17	4.34	-44.7	-57.1	3.8	1.49e+00	0	63	104	0	60	15568
2026-01-27 12:04:08.67	326.48	4.19	-44.7	-57.2	3.8	1.49e+00	0	63	104	0	60	15603
2026-01-27 12:04:11.70	326.79	4.04	-44.7	-57.1	3.8	1.49e+00	0	63	104	0	60	15574
2026-01-27 12:04:14.73	327.09	3.89	-44.7	-57.1	3.8	1.49e+00	0	63	104	0	60	15519
2026-01-27 12:04:17.76	327.40	3.74	-44.7	-57.1	3.8	1.49e+00	0	63	104	0	60	15548
2026-01-27 12:04:20.79	327.70	3.59	-44.7	-57.2	3.8	1.49e+00	0	63	104	0	60	15582
2026-01-27 12:04:23.82	328.00	3.44	-44.7	-57.1	3.8	1.49e+00	0	63	104	0	60	15455
2026-01-27 12:04:26.86	328.29	3.30	-44.7	-57.1	3.8	1.49e+00	0	63	104	0	60	15452
2026-01-27 12:04:29.89	328.58	3.15	-44.7	-57.1	3.8	1.49e+00	0	63	104	0	60	15474
2026-01-27 12:04:32.92	328.87	3.00	-44.6	-57.1	3.8	1.49e+00	0	63	104	0	60	15448
2026-01-27 12:04:35.95	329.16	2.85	-44.6	-57.0	3.8	1.49e+00	0	63	104	0	60	15389
2026-01-27 12:04:38.98	329.44	2.71	-44.6	-57.0	3.8	1.49e+00	0	63	104	0	60	15386
2026-01-27 12:04:42.01	329.73	2.56	-44.6	-57.0	3.8	1.49e+00	0	63	104	0	60	15354
2026-01-27 12:04:45.04	330.00	2.41	-44.6	-57.0	3.8	1.49e+00	0	63	104	0	60	15334
2026-01-27 12:04:48.08	330.28	2.27	-44.6	-57.0	3.8	1.49e+00	0	63	104	0	60	15352
2026-01-27 12:04:51.11	330.55	2.12	-44.6	-57.0	3.8	1.49e+00	0	63	104	0	60	15376
2026-01-27 12:04:54.14	330.83	1.97	-44.6	-57.0	3.8	1.49e+00	0	63	104	0	60	15276

#Closed at: 2026-01-27 12:04:54
#Recorded file [0 MB]: D:/lorett/data/31039_260127_145316.dat