passes_logs/2026/01/27/R2.0S_Moscow/R2.0S_Moscow__20260127_095039_AQUA_rec.log

#Pass ID: 20260127_095039_AQUA
#Satellite: AQUA
#Configuration: AQUA
#almurnet v.1.7.20251203
#Start time: 2026-01-27 09:50:41

#Version: 2.2.20231116
#Station: R2.0S_Moscow
#Location: 37.707566 lon 55.798166 lat
#TLE: 1 27424U 02022A   26026.85810808  .00001813  00000+0  37258-3 0  9999
#TLE: 2 27424  98.4101 353.4861 0001866  64.3332 317.5249 14.61864179262622

#Time	Az	El	Level	Level2	SNR	BER	BlckErr	Temp	State	Recorded	gain1	gain2
2026-01-27 09:50:41.11	102.78	2.09	-41.0	-59.9	3.8	7.46e-01	0	55	0	0	52	33982
2026-01-27 09:50:44.14	102.50	2.26	-41.0	-59.9	3.8	7.45e-01	0	55	104	0	52	33916
2026-01-27 09:50:47.17	102.22	2.42	-40.8	-59.9	3.8	7.43e-01	0	55	104	0	52	34072
2026-01-27 09:50:50.20	101.93	2.58	-41.1	-60.0	3.8	7.43e-01	0	55	104	0	52	34214
2026-01-27 09:50:53.24	101.64	2.75	-41.0	-60.0	3.8	7.46e-01	0	55	104	0	52	34237
2026-01-27 09:50:56.27	101.35	2.91	-41.0	-60.0	3.8	7.46e-01	0	56	104	0	52	34148
2026-01-27 09:50:59.30	101.05	3.08	-41.0	-60.0	3.8	7.46e-01	0	56	104	0	52	34168
2026-01-27 09:51:02.33	100.75	3.25	-40.9	-59.8	3.9	7.48e-01	0	56	104	0	52	33673
2026-01-27 09:51:05.36	100.45	3.41	-41.0	-60.0	3.8	7.45e-01	0	56	104	0	52	34125
2026-01-27 09:51:08.39	100.14	3.58	-41.0	-59.9	3.8	7.47e-01	0	56	104	0	52	33890
2026-01-27 09:51:11.42	99.83	3.75	-40.2	-59.8	3.8	7.45e-01	0	57	104	0	52	33464
2026-01-27 09:51:14.45	99.51	3.92	-41.0	-59.9	3.8	7.47e-01	0	57	104	0	52	34075
2026-01-27 09:51:17.48	99.19	4.08	-40.2	-59.6	3.9	7.43e-01	0	57	104	0	52	32919
2026-01-27 09:51:20.52	98.87	4.25	-41.0	-60.0	3.8	7.44e-01	0	57	104	0	52	34149
2026-01-27 09:51:23.54	98.54	4.42	-40.9	-59.9	3.8	7.46e-01	0	57	104	0	52	33926
2026-01-27 09:51:26.58	98.21	4.59	-41.0	-59.9	3.8	7.46e-01	0	58	104	0	52	34076
2026-01-27 09:51:29.61	97.87	4.76	-41.0	-59.8	3.8	7.47e-01	0	58	104	0	52	33694
2026-01-27 09:51:32.64	97.53	4.93	-41.0	-60.0	3.8	7.48e-01	0	58	104	0	52	34198
2026-01-27 09:51:35.67	97.18	5.10	-40.9	-59.6	3.8	7.43e-01	0	58	104	0	52	32685
2026-01-27 09:51:38.70	96.83	5.27	-41.0	-59.9	3.8	7.46e-01	0	58	104	0	52	33978
2026-01-27 09:51:41.73	96.48	5.44	-41.0	-59.9	3.8	7.47e-01	0	58	104	0	52	33967
2026-01-27 09:51:44.76	96.12	5.61	-41.0	-59.9	3.8	7.45e-01	0	58	104	0	52	33833
2026-01-27 09:51:47.79	95.76	5.79	-41.0	-60.0	3.8	7.47e-01	0	58	104	0	52	34192
2026-01-27 09:51:50.82	95.39	5.96	-41.0	-59.9	3.8	7.42e-01	0	58	104	0	52	34079
2026-01-27 09:51:53.85	95.01	6.13	-40.5	-59.8	3.8	7.44e-01	0	59	104	0	52	33477
2026-01-27 09:51:56.88	94.63	6.30	-40.8	-59.8	3.8	7.48e-01	0	59	104	0	52	33542
2026-01-27 09:51:59.92	94.25	6.47	-41.0	-59.9	3.8	7.47e-01	0	59	104	0	52	33941
2026-01-27 09:52:02.95	93.86	6.65	-41.0	-59.9	3.8	7.45e-01	0	59	104	0	52	33785
2026-01-27 09:52:05.98	93.47	6.82	-41.0	-59.9	3.8	7.43e-01	0	59	104	0	52	34016
2026-01-27 09:52:09.01	93.07	6.99	-40.8	-59.8	3.8	7.43e-01	0	60	104	0	52	33517
2026-01-27 09:52:12.04	92.66	7.17	-40.5	-59.2	3.8	7.42e-01	0	60	104	0	51	33131
2026-01-27 09:52:15.08	92.25	7.34	-41.0	-59.8	3.9	7.46e-01	0	60	104	0	52	33546
2026-01-27 09:52:18.11	91.84	7.51	-41.0	-59.9	3.8	7.43e-01	0	60	104	0	52	33806
2026-01-27 09:52:21.14	91.42	7.68	-40.7	-59.8	3.8	7.47e-01	0	60	104	0	52	33662
2026-01-27 09:52:24.17	90.99	7.86	-40.9	-59.4	3.8	7.44e-01	0	60	104	0	52	31852
2026-01-27 09:52:27.20	90.56	8.03	-41.0	-58.0	3.9	7.45e-01	0	60	104	0	52	27303
2026-01-27 09:52:30.24	90.12	8.20	-40.9	-59.3	3.8	7.45e-01	0	60	104	0	52	31749
2026-01-27 09:52:33.27	89.68	8.37	-41.3	-59.8	3.8	7.47e-01	0	60	104	0	53	31586
2026-01-27 09:52:36.30	89.23	8.55	-41.6	-60.4	3.8	7.44e-01	0	60	104	0	53	34058
2026-01-27 09:52:39.33	88.77	8.72	-41.6	-60.4	3.8	7.44e-01	0	60	104	0	53	34083
2026-01-27 09:52:42.36	88.31	8.89	-40.6	-60.0	3.8	7.45e-01	0	60	104	0	52	34229
2026-01-27 09:52:45.39	87.84	9.06	-41.2	-60.0	3.8	7.45e-01	0	61	104	0	53	32521
2026-01-27 09:52:48.42	87.37	9.23	-41.0	-60.2	3.8	7.44e-01	0	61	104	0	53	33068
2026-01-27 09:52:51.45	86.89	9.40	-40.5	-60.1	3.9	7.48e-01	0	61	104	0	52	34719
2026-01-27 09:52:54.48	86.41	9.57	-41.1	-60.6	3.7	7.50e-01	0	61	104	0	52	36650
2026-01-27 09:52:57.50	85.92	9.74	-40.5	-60.0	3.7	7.44e-01	0	61	104	0	52	34163
2026-01-27 09:53:00.53	85.42	9.91	-41.3	-60.2	3.8	7.46e-01	0	61	104	0	53	33140
2026-01-27 09:53:03.56	84.92	10.08	-39.9	-59.7	3.7	7.47e-01	0	61	104	0	52	33121
2026-01-27 09:53:06.59	84.41	10.24	-39.9	-59.5	3.8	7.40e-01	0	61	104	0	51	34328
2026-01-27 09:53:09.61	83.89	10.41	-41.0	-60.0	3.8	7.46e-01	0	61	104	0	52	34349
2026-01-27 09:53:12.64	83.37	10.57	-40.6	-59.9	3.8	7.50e-01	0	61	104	0	52	33742
2026-01-27 09:53:15.67	82.84	10.74	-41.2	-60.2	3.8	7.46e-01	0	61	104	0	53	32976
2026-01-27 09:53:18.70	82.31	10.90	-41.3	-60.2	3.8	7.45e-01	0	61	104	0	53	33062
2026-01-27 09:53:21.73	81.76	11.06	-41.2	-60.0	3.8	7.43e-01	0	61	104	0	53	32442
2026-01-27 09:53:24.76	81.21	11.22	-40.9	-60.1	3.8	7.48e-01	0	61	104	0	52	34505
2026-01-27 09:53:27.79	80.66	11.38	-41.4	-60.2	3.8	7.45e-01	0	61	104	0	53	33121
2026-01-27 09:53:30.81	80.10	11.54	-41.5	-60.4	3.8	7.45e-01	0	62	104	0	53	33867
2026-01-27 09:53:33.84	79.53	11.70	-41.2	-60.1	3.8	7.45e-01	0	62	104	0	53	32791
2026-01-27 09:53:36.87	78.96	11.85	-41.5	-60.4	3.8	7.47e-01	0	62	104	0	53	33759
2026-01-27 09:53:39.90	78.37	12.01	-41.4	-60.3	3.8	7.44e-01	0	62	104	0	53	33636
2026-01-27 09:53:42.93	77.79	12.16	-41.9	-60.7	3.8	7.47e-01	0	62	104	0	54	33185
2026-01-27 09:53:45.96	77.19	12.31	-41.6	-60.5	3.8	7.47e-01	0	62	104	0	54	32313
2026-01-27 09:53:48.99	76.59	12.46	-42.0	-60.8	3.8	7.42e-01	0	62	104	0	54	33633
2026-01-27 09:53:52.02	75.98	12.60	-42.1	-60.9	3.8	7.44e-01	0	62	104	0	54	34003
2026-01-27 09:53:55.05	75.37	12.75	-42.2	-60.9	3.8	7.48e-01	0	62	104	0	55	31825
2026-01-27 09:53:58.08	74.75	12.89	-42.1	-60.9	3.8	7.44e-01	0	62	104	0	55	32049
2026-01-27 09:54:01.11	74.12	13.03	-42.1	-60.6	3.8	7.45e-01	0	62	104	0	55	31057
2026-01-27 09:54:04.15	73.49	13.17	-41.9	-60.8	3.8	7.45e-01	0	62	104	0	55	31710
2026-01-27 09:54:07.18	72.85	13.30	-42.3	-61.1	3.8	7.47e-01	0	62	104	0	55	32583
2026-01-27 09:54:10.21	72.20	13.44	-41.9	-60.5	3.8	7.45e-01	0	62	104	0	55	30457
2026-01-27 09:54:13.24	71.55	13.57	-42.0	-60.5	3.8	7.50e-01	0	62	104	0	55	30504
2026-01-27 09:54:16.27	70.89	13.69	-42.2	-60.8	3.8	7.47e-01	0	62	104	0	55	31713
2026-01-27 09:54:19.30	70.22	13.82	-42.5	-57.0	4.4	7.28e-01	0	62	104	0	55	20481
2026-01-27 09:54:22.33	69.55	13.94	-42.5	-54.6	5.9	6.87e-01	69	62	0	1572864	55	15555
2026-01-27 09:54:25.36	68.88	14.06	-42.3	-51.7	8.7	6.38e-01	3	62	0	6815744	55	11053
2026-01-27 09:54:28.39	68.19	14.17	-41.6	-48.7	11.6	6.14e-01	0	62	0	12582912	55	7892
2026-01-27 09:54:31.42	67.51	14.29	-41.3	-47.2	13.5	6.07e-01	0	62	0	18350080	54	7018
2026-01-27 09:54:34.45	66.81	14.40	-41.4	-46.2	15.1	6.07e-01	0	62	0	24117248	54	6246
2026-01-27 09:54:37.48	66.11	14.50	-40.7	-44.6	17.1	6.05e-01	0	62	0	29884416	53	5470
2026-01-27 09:54:40.51	65.41	14.60	-41.0	-44.8	17.2	6.07e-01	0	62	0	35127296	53	5606
2026-01-27 09:54:43.54	64.70	14.70	-41.4	-45.2	17.0	6.06e-01	0	62	0	40894464	53	5908
2026-01-27 09:54:46.57	63.99	14.79	-41.6	-45.4	17.1	6.06e-01	0	62	0	46661632	54	5682
2026-01-27 09:54:49.60	63.27	14.88	-41.7	-45.4	17.3	6.09e-01	0	62	0	52428800	54	5719
2026-01-27 09:54:52.63	62.55	14.97	-41.6	-45.2	17.6	6.06e-01	0	62	0	58195968	54	5557
2026-01-27 09:54:55.66	61.82	15.05	-41.8	-45.4	17.5	6.08e-01	0	62	0	63963136	54	5675
2026-01-27 09:54:58.70	61.09	15.13	-41.8	-45.3	17.6	6.08e-01	0	62	0	69206016	54	5653
2026-01-27 09:55:01.73	60.35	15.21	-41.8	-45.3	17.6	6.06e-01	0	62	0	74973184	54	5633
2026-01-27 09:55:04.76	59.61	15.28	-41.8	-45.3	17.6	6.07e-01	0	62	0	80740352	54	5629
2026-01-27 09:55:07.79	58.87	15.34	-41.8	-45.2	17.7	6.07e-01	0	62	0	86507520	54	5575
2026-01-27 09:55:10.82	58.12	15.40	-41.9	-45.4	17.7	6.06e-01	0	62	0	92274688	54	5659
2026-01-27 09:55:13.85	57.37	15.46	-41.7	-45.1	18.0	6.08e-01	0	62	0	98041856	54	5468
2026-01-27 09:55:16.88	56.62	15.51	-41.9	-45.4	17.7	6.04e-01	0	62	0	103284736	54	5670
2026-01-27 09:55:19.91	55.86	15.56	-41.8	-45.1	17.9	6.07e-01	0	62	0	109051904	54	5524
2026-01-27 09:55:22.94	55.11	15.60	-41.9	-45.4	17.7	6.07e-01	0	62	0	114819072	54	5697
2026-01-27 09:55:25.97	54.35	15.64	-41.8	-45.2	17.9	6.08e-01	0	62	0	120586240	54	5572
2026-01-27 09:55:29.00	53.59	15.67	-41.8	-45.3	17.9	6.06e-01	0	62	0	126353408	54	5595
2026-01-27 09:55:32.03	52.82	15.70	-41.9	-45.3	17.8	6.07e-01	0	62	0	132120576	54	5627
2026-01-27 09:55:35.07	52.06	15.72	-41.8	-45.2	17.9	6.05e-01	0	62	0	137887744	54	5579
2026-01-27 09:55:38.10	51.29	15.74	-41.9	-45.3	17.8	6.05e-01	0	62	0	143130624	54	5628
2026-01-27 09:55:41.13	50.53	15.76	-41.8	-45.2	17.9	6.05e-01	0	62	0	148897792	54	5577
2026-01-27 09:55:44.16	49.76	15.76	-41.8	-45.2	18.0	6.05e-01	0	63	0	154664960	54	5582
2026-01-27 09:55:47.19	48.99	15.77	-41.8	-45.3	17.9	6.06e-01	0	62	0	160432128	54	5596
2026-01-27 09:55:50.22	48.22	15.77	-41.9	-45.3	17.9	6.06e-01	0	62	0	166199296	54	5608
2026-01-27 09:55:53.25	47.46	15.76	-41.9	-45.3	17.8	6.05e-01	0	62	0	171442176	54	5653
2026-01-27 09:55:56.28	46.69	15.75	-41.9	-45.3	17.9	6.06e-01	0	62	0	177209344	54	5615
2026-01-27 09:55:59.31	45.93	15.73	-42.0	-54.8	3.8	7.44e-01	0	62	104	180879360	54	16779
2026-01-27 09:56:02.34	45.16	15.71	-42.3	-55.2	3.8	7.42e-01	0	62	104	180879360	56	15603
2026-01-27 09:56:05.37	44.40	15.69	-44.1	-59.3	3.8	7.45e-01	0	63	104	180879360	60	20042
2026-01-27 09:56:08.40	43.64	15.66	-42.3	-55.2	3.8	7.46e-01	0	62	104	180879360	56	15637
2026-01-27 09:56:11.43	42.88	15.62	-44.0	-58.8	3.9	7.44e-01	0	62	104	180879360	60	18756
2026-01-27 09:56:14.46	42.12	15.58	-42.3	-55.2	3.7	7.48e-01	0	62	104	180879360	56	15622
2026-01-27 09:56:17.49	41.36	15.54	-43.1	-56.7	3.8	7.46e-01	0	62	104	180879360	58	16528
2026-01-27 09:56:20.52	40.61	15.49	-42.3	-55.1	3.8	7.43e-01	0	63	104	180879360	56	15545
2026-01-27 09:56:23.55	39.86	15.44	-42.3	-55.3	3.8	7.45e-01	0	62	104	180879360	56	15888
2026-01-27 09:56:26.57	39.12	15.38	-42.7	-55.7	3.8	7.46e-01	0	63	104	180879360	56	16574
2026-01-27 09:56:29.60	38.37	15.32	-42.9	-57.1	3.9	7.45e-01	0	63	104	180879360	58	17317
2026-01-27 09:56:32.63	37.63	15.25	-43.7	-58.0	3.8	7.48e-01	0	62	104	180879360	57	20377
2026-01-27 09:56:35.66	36.90	15.18	-43.9	-58.1	3.9	7.45e-01	0	63	104	180879360	59	18330
2026-01-27 09:56:38.68	36.17	15.10	-42.4	-55.3	3.8	7.45e-01	0	63	104	180879360	56	15878
2026-01-27 09:56:41.71	35.44	15.02	-44.6	-60.2	3.8	7.43e-01	0	63	104	180879360	60	22184
2026-01-27 09:56:44.75	34.71	14.94	-43.7	-57.7	3.8	7.46e-01	0	63	104	180879360	57	19668
2026-01-27 09:56:47.78	33.99	14.85	-42.1	-54.9	3.8	7.43e-01	0	62	104	180879360	56	15125
2026-01-27 09:56:50.81	33.28	14.76	-44.4	-59.8	3.8	7.43e-01	0	62	104	180879360	59	22287
2026-01-27 09:56:53.84	32.57	14.66	-42.4	-55.3	3.9	7.43e-01	0	63	104	180879360	56	15912
2026-01-27 09:56:56.87	31.86	14.56	-42.7	-56.0	3.8	7.46e-01	0	62	104	180879360	56	17162
2026-01-27 09:56:59.90	31.16	14.46	-43.0	-56.5	3.8	7.45e-01	0	63	104	180879360	57	17160
2026-01-27 09:57:02.93	30.47	14.36	-42.2	-55.1	3.8	7.46e-01	0	63	104	180879360	56	15418
2026-01-27 09:57:05.96	29.78	14.25	-44.6	-59.9	3.8	7.44e-01	0	63	104	180879360	59	22596
2026-01-27 09:57:08.99	29.10	14.13	-44.8	-61.1	3.9	7.48e-01	0	63	104	180879360	60	24615
2026-01-27 09:57:12.02	28.42	14.02	-42.2	-55.1	3.8	7.44e-01	0	63	104	180879360	56	15484
2026-01-27 09:57:15.04	27.75	13.90	-44.8	-61.0	3.8	7.44e-01	0	63	104	180879360	60	24206
2026-01-27 09:57:18.07	27.09	13.78	-42.4	-55.4	3.8	7.46e-01	0	63	104	180879360	56	16057
2026-01-27 09:57:21.10	26.43	13.65	-43.6	-57.5	3.9	7.48e-01	0	63	104	180879360	57	19334
2026-01-27 09:57:24.13	25.77	13.52	-42.8	-56.3	3.8	7.43e-01	0	63	104	180879360	57	16740
2026-01-27 09:57:27.16	25.12	13.39	-42.3	-55.2	3.8	7.43e-01	0	63	104	180879360	56	15674
2026-01-27 09:57:30.19	24.48	13.26	-44.0	-58.5	3.9	7.44e-01	0	63	104	180879360	59	19230
2026-01-27 09:57:33.22	23.85	13.12	-44.6	-60.8	3.8	7.44e-01	0	63	104	180879360	60	23687
2026-01-27 09:57:36.25	23.22	12.99	-42.3	-55.4	3.8	7.42e-01	0	63	104	180879360	56	16016
2026-01-27 09:57:39.28	22.60	12.84	-44.6	-60.8	3.8	7.48e-01	0	63	104	180879360	59	25060
2026-01-27 09:57:42.31	21.98	12.70	-42.4	-55.4	3.8	7.45e-01	0	63	104	180879360	56	15990
2026-01-27 09:57:45.34	21.37	12.56	-42.4	-55.7	3.9	7.46e-01	0	63	104	180879360	56	16600
2026-01-27 09:57:48.37	20.77	12.41	-42.3	-55.3	3.8	7.46e-01	0	63	104	180879360	56	15805
2026-01-27 09:57:51.40	20.18	12.26	-42.4	-55.5	3.8	7.45e-01	0	63	104	180879360	56	16170
2026-01-27 09:57:54.43	19.59	12.11	-42.4	-55.7	3.8	7.44e-01	0	63	104	180879360	56	16539
2026-01-27 09:57:57.46	19.01	11.96	-44.3	-60.2	3.8	7.44e-01	0	63	104	180879360	59	23567
2026-01-27 09:58:00.49	18.43	11.81	-43.2	-57.1	3.8	7.46e-01	0	63	104	180879360	56	19423
2026-01-27 09:58:03.52	17.86	11.65	-43.7	-58.0	3.9	7.43e-01	0	63	104	180879360	59	18117
2026-01-27 09:58:06.55	17.30	11.49	-42.6	-56.0	3.8	7.48e-01	0	63	104	180879360	57	16241
2026-01-27 09:58:09.58	16.74	11.34	-43.9	-58.4	3.9	7.49e-01	0	63	104	180879360	58	20169
2026-01-27 09:58:12.61	16.19	11.18	-42.9	-56.4	3.8	7.43e-01	0	63	104	180879360	56	18093
2026-01-27 09:58:15.64	15.65	11.02	-42.4	-55.9	3.9	7.43e-01	0	63	104	180879360	56	16892
2026-01-27 09:58:18.67	15.11	10.85	-43.5	-57.9	3.8	7.43e-01	0	63	104	180879360	57	20171
2026-01-27 09:58:21.70	14.58	10.69	-42.7	-56.3	3.9	7.44e-01	0	63	104	180879360	57	16729
2026-01-27 09:58:24.73	14.06	10.53	-43.1	-60.6	3.7	7.51e-01	0	63	104	180879360	56	29214
2026-01-27 09:58:27.76	13.54	10.36	-41.7	-56.7	3.9	7.46e-01	0	63	104	180879360	55	19830
2026-01-27 09:58:30.79	13.03	10.20	-42.3	-55.8	3.8	7.41e-01	0	63	104	180879360	56	16723
2026-01-27 09:58:33.82	12.53	10.03	-43.4	-58.3	3.8	7.46e-01	0	63	104	180879360	57	21126
2026-01-27 09:58:36.85	12.03	9.86	-43.7	-58.9	3.8	7.49e-01	0	63	104	180879360	57	22647
2026-01-27 09:58:39.88	11.54	9.69	-41.5	-55.3	3.8	7.45e-01	0	63	104	180879360	55	16817
2026-01-27 09:58:42.91	11.05	9.53	-43.0	-60.7	3.8	7.45e-01	0	63	104	180879360	56	29416
2026-01-27 09:58:45.94	10.57	9.36	-42.7	-60.4	3.8	7.43e-01	0	63	104	180879360	57	26927
2026-01-27 09:58:48.97	10.10	9.19	-41.6	-60.3	3.8	7.45e-01	0	63	104	180879360	55	29933
2026-01-27 09:58:52.00	9.63	9.02	-41.2	-59.9	3.8	7.42e-01	0	63	104	180879360	54	30095
2026-01-27 09:58:55.03	9.17	8.85	-41.0	-59.6	3.8	7.45e-01	0	63	104	180879360	54	29177
2026-01-27 09:58:58.06	8.72	8.68	-41.0	-59.5	3.8	7.45e-01	0	63	104	180879360	53	30567
2026-01-27 09:59:01.09	8.27	8.50	-40.9	-59.8	3.8	7.45e-01	0	63	104	180879360	53	31459
2026-01-27 09:59:04.12	7.83	8.33	-40.9	-59.5	3.8	7.49e-01	0	63	104	180879360	53	30565
2026-01-27 09:59:07.15	7.39	8.16	-41.0	-59.9	3.8	7.45e-01	0	63	104	180879360	52	33858
2026-01-27 09:59:10.18	6.96	7.99	-42.2	-60.9	3.9	7.45e-01	0	63	104	180879360	54	33862
2026-01-27 09:59:13.22	6.53	7.82	-46.1	-64.5	3.8	7.45e-01	0	63	104	180879360	62	32443
2026-01-27 09:59:16.24	6.11	7.65	-46.4	-64.9	3.8	7.49e-01	0	63	104	180879360	63	32009
2026-01-27 09:59:19.28	5.69	7.47	-46.4	-64.9	3.8	7.45e-01	0	63	104	180879360	63	32115
2026-01-27 09:59:22.31	5.28	7.30	-46.1	-64.7	3.8	7.47e-01	0	63	104	180879360	63	31170
2026-01-27 09:59:25.34	4.88	7.13	-46.1	-64.6	3.8	7.50e-01	0	63	104	180879360	62	32843
2026-01-27 09:59:28.37	4.48	6.96	-46.1	-64.6	3.8	7.45e-01	0	64	104	180879360	62	32869
2026-01-27 09:59:31.40	4.09	6.79	-46.1	-64.6	3.8	7.46e-01	0	63	104	180879360	62	32626
2026-01-27 09:59:34.43	3.70	6.61	-46.1	-64.5	3.8	7.43e-01	0	63	104	180879360	62	32530
2026-01-27 09:59:37.46	3.31	6.44	-46.1	-64.6	3.8	7.48e-01	0	63	104	180879360	62	32700
2026-01-27 09:59:40.49	2.94	6.27	-46.0	-64.6	3.8	7.44e-01	0	63	104	180879360	62	32579
2026-01-27 09:59:43.53	2.56	6.10	-46.0	-64.5	3.8	7.44e-01	0	63	104	180879360	62	32543
2026-01-27 09:59:46.56	2.19	5.93	-46.0	-64.6	3.8	7.45e-01	0	63	104	180879360	62	32620
2026-01-27 09:59:49.59	1.83	5.76	-46.0	-64.6	3.8	7.43e-01	0	63	104	180879360	62	32571
2026-01-27 09:59:52.62	1.47	5.58	-46.0	-64.5	3.8	7.44e-01	0	63	104	180879360	62	32420
2026-01-27 09:59:55.65	1.12	5.41	-46.1	-64.6	3.8	7.46e-01	0	63	104	180879360	62	32591
2026-01-27 09:59:58.68	0.77	5.24	-46.0	-64.6	3.8	7.45e-01	0	63	104	180879360	62	32670
2026-01-27 10:00:01.71	0.42	5.07	-46.0	-64.5	3.8	7.42e-01	0	63	104	180879360	62	32506
2026-01-27 10:00:04.74	0.08	4.90	-46.0	-64.6	3.8	7.43e-01	0	63	104	180879360	62	32577
2026-01-27 10:00:07.78	359.74	4.73	-46.0	-64.5	3.8	7.46e-01	0	63	104	180879360	62	32546
2026-01-27 10:00:10.81	359.41	4.57	-46.0	-64.6	3.8	7.44e-01	0	63	104	180879360	62	32592
2026-01-27 10:00:13.84	359.08	4.40	-46.0	-64.5	3.8	7.46e-01	0	63	104	180879360	62	32511
2026-01-27 10:00:16.87	358.76	4.23	-46.0	-64.6	3.8	7.42e-01	0	63	104	180879360	62	32560
2026-01-27 10:00:19.90	358.44	4.06	-46.0	-64.5	3.8	7.49e-01	0	63	104	180879360	62	32480
2026-01-27 10:00:22.93	358.13	3.89	-46.0	-64.6	3.8	7.43e-01	0	63	104	180879360	62	32621
2026-01-27 10:00:25.96	357.82	3.73	-46.0	-64.6	3.8	7.43e-01	0	63	104	180879360	62	32604
2026-01-27 10:00:28.99	357.51	3.56	-46.0	-64.6	3.8	7.43e-01	0	63	104	180879360	62	32606
2026-01-27 10:00:32.03	357.21	3.39	-46.0	-64.6	3.8	7.46e-01	0	63	104	180879360	62	32559
2026-01-27 10:00:35.06	356.91	3.23	-46.0	-64.6	3.8	7.47e-01	0	63	104	180879360	62	32654
2026-01-27 10:00:38.09	356.61	3.06	-46.0	-64.6	3.8	7.44e-01	0	63	104	180879360	62	32596
2026-01-27 10:00:41.12	356.32	2.90	-46.0	-64.7	3.7	7.43e-01	0	63	104	180879360	62	32977
2026-01-27 10:00:44.15	356.03	2.73	-44.3	-64.2	3.9	7.51e-01	0	63	104	180879360	60	35059
2026-01-27 10:00:47.18	355.75	2.57	-46.0	-64.5	3.8	7.46e-01	0	63	104	180879360	62	32540
2026-01-27 10:00:50.21	355.47	2.40	-46.0	-64.6	3.8	7.41e-01	0	63	104	180879360	62	32558
2026-01-27 10:00:53.25	355.19	2.24	-46.0	-64.6	3.8	7.46e-01	0	63	104	180879360	62	32557
2026-01-27 10:00:56.28	354.92	2.08	-45.0	-65.0	3.7	7.39e-01	0	63	104	180879360	61	36106
2026-01-27 10:00:59.31	354.65	1.91	-46.0	-64.5	3.8	7.47e-01	0	63	104	180879360	62	32517

#Closed at: 2026-01-27 10:00:59
#Recorded file [180 MB]: D:/lorett/data/31039_260127_125040.dat